passes_logs/2026/01/27/R2.0S_Moscow/R2.0S_Moscow__20260127_231115_NOAA_20_JPSS-1_rec.log

#Pass ID: 20260127_231115_NOAA 20 (JPSS-1)
#Satellite: NOAA 20 (JPSS-1)
#Configuration: NOAA 20
#almurnet v.1.7.20251203
#Start time: 2026-01-27 23:11:16

#Version: 2.2.20231116
#Station: R2.0S_Moscow
#Location: 37.707566 lon 55.798166 lat
#TLE: 1 43013U 17073A   26027.45344144  .00000161  00000+0  97205-4 0  9999
#TLE: 2 43013  98.7647 328.2621 0000962  21.7793 338.3424 14.19541101424503

#Time	Az	El	Level	Level2	SNR	BER	BlckErr	Temp	State	Recorded	gain1	gain2
2026-01-27 23:11:16.24	18.54	2.05	-42.4	-56.8	3.8	1.49e+00	0	53	0	0	56	18873
2026-01-27 23:11:20.27	18.65	2.30	-42.2	-56.7	3.8	1.49e+00	0	54	104	0	55	19618
2026-01-27 23:11:24.31	18.75	2.56	-42.2	-56.6	3.8	1.49e+00	0	54	104	0	55	19611
2026-01-27 23:11:28.36	18.86	2.82	-42.2	-56.6	3.8	1.49e+00	0	55	104	0	55	19561
2026-01-27 23:11:32.40	18.97	3.08	-42.2	-56.6	3.8	1.49e+00	0	55	104	0	55	19577
2026-01-27 23:11:36.44	19.08	3.34	-42.2	-56.7	3.8	1.49e+00	0	55	104	0	55	19616
2026-01-27 23:11:40.48	19.19	3.61	-42.2	-56.7	3.8	1.49e+00	0	55	104	0	55	19627
2026-01-27 23:11:44.53	19.31	3.88	-42.2	-56.6	3.8	1.49e+00	0	55	104	0	55	19582
2026-01-27 23:11:48.57	19.42	4.15	-42.2	-56.6	3.8	1.49e+00	0	56	104	0	55	19559
2026-01-27 23:11:52.61	19.54	4.42	-42.2	-56.6	3.8	1.49e+00	0	56	104	0	55	19584
2026-01-27 23:11:56.65	19.66	4.70	-42.2	-56.6	3.8	1.49e+00	0	56	104	0	55	19518
2026-01-27 23:12:00.69	19.78	4.98	-42.2	-56.6	3.8	1.49e+00	0	56	104	0	55	19531
2026-01-27 23:12:04.73	19.90	5.26	-42.2	-56.6	3.8	1.49e+00	0	57	104	0	55	19572
2026-01-27 23:12:08.77	20.03	5.55	-42.2	-56.6	3.8	1.49e+00	0	57	104	0	55	19573
2026-01-27 23:12:12.81	20.16	5.84	-42.1	-56.6	3.8	1.49e+00	0	57	104	0	55	19505
2026-01-27 23:12:16.86	20.29	6.13	-42.2	-56.6	3.8	1.49e+00	0	57	104	0	55	19501
2026-01-27 23:12:20.90	20.42	6.42	-42.2	-56.6	3.8	1.49e+00	0	57	104	0	55	19536
2026-01-27 23:12:24.94	20.55	6.72	-42.1	-56.6	3.8	1.49e+00	0	57	104	0	55	19488
2026-01-27 23:12:28.98	20.69	7.02	-42.1	-56.5	3.8	1.49e+00	0	58	104	0	55	19373
2026-01-27 23:12:33.02	20.83	7.33	-42.1	-56.3	3.8	1.49e+00	0	58	104	0	55	18913
2026-01-27 23:12:37.06	20.97	7.64	-42.0	-53.9	3.9	1.48e+00	0	58	104	0	55	14268
2026-01-27 23:12:41.10	21.12	7.95	-41.3	-48.7	6.7	3.28e-01	0	58	0	5242880	54	8340
2026-01-27 23:12:45.14	21.26	8.27	-41.0	-50.1	5.2	3.05e-01	0	58	0	12582912	53	10409
2026-01-27 23:12:49.19	21.42	8.59	-41.4	-46.8	9.4	2.21e-02	0	58	0	17825792	53	7093
2026-01-27 23:12:53.23	21.57	8.91	-41.4	-46.4	10.1	8.39e-03	0	58	0	25165824	53	6755
2026-01-27 23:12:57.27	21.72	9.24	-41.4	-46.1	10.6	4.42e-03	0	59	0	32505856	53	6541
2026-01-27 23:13:01.31	21.88	9.57	-41.4	-46.0	10.9	2.51e-03	0	59	0	40894464	53	6481
2026-01-27 23:13:05.35	22.05	9.91	-41.4	-45.8	11.2	2.00e-03	0	59	0	48234496	53	6336
2026-01-27 23:13:09.39	22.21	10.25	-41.5	-45.9	11.2	1.22e-03	0	59	0	55574528	53	6420
2026-01-27 23:13:13.43	22.38	10.60	-41.5	-45.8	11.5	8.17e-04	0	59	0	62914560	53	6293
2026-01-27 23:13:17.47	22.56	10.95	-41.5	-45.7	11.6	6.05e-04	0	59	0	71303168	53	6227
2026-01-27 23:13:21.50	22.73	11.30	-41.4	-45.5	12.0	3.14e-04	0	59	0	78643200	53	6064
2026-01-27 23:13:25.54	22.91	11.66	-41.4	-45.4	12.2	2.67e-04	0	59	0	85983232	53	5995
2026-01-27 23:13:29.58	23.10	12.03	-41.3	-45.2	12.3	2.01e-04	0	59	0	93323264	53	5915
2026-01-27 23:13:33.62	23.29	12.40	-41.3	-45.1	12.5	1.35e-04	0	60	0	100663296	53	5810
2026-01-27 23:13:37.66	23.48	12.77	-41.3	-45.0	12.6	8.69e-05	0	60	0	109051904	53	5761
2026-01-27 23:13:41.70	23.68	13.16	-41.3	-44.9	12.7	6.71e-05	0	60	0	116391936	53	5713
2026-01-27 23:13:45.74	23.88	13.54	-41.3	-44.8	12.9	5.64e-05	0	60	0	123731968	53	5654
2026-01-27 23:13:49.78	24.09	13.94	-41.2	-44.8	13.0	3.89e-05	0	60	0	131072000	53	5626
2026-01-27 23:13:53.83	24.31	14.34	-41.1	-44.6	13.3	2.05e-05	0	60	0	139460608	53	5477
2026-01-27 23:13:57.87	24.52	14.75	-41.1	-44.5	13.4	1.98e-05	0	60	0	146800640	53	5411
2026-01-27 23:14:01.90	24.75	15.16	-41.1	-44.4	13.4	1.22e-05	0	60	0	154140672	53	5377
2026-01-27 23:14:05.94	24.98	15.58	-41.0	-44.3	13.5	7.60e-06	0	60	0	161480704	53	5317
2026-01-27 23:14:09.98	25.21	16.00	-41.0	-44.3	13.6	6.10e-06	0	60	0	168820736	53	5315
2026-01-27 23:14:14.01	25.46	16.44	-41.0	-44.2	13.8	6.10e-06	0	60	0	177209344	53	5235
2026-01-27 23:14:18.06	25.71	16.88	-40.9	-44.0	14.0	6.10e-06	0	60	0	184549376	53	5145
2026-01-27 23:14:22.10	25.96	17.33	-40.9	-44.0	14.0	1.50e-06	0	60	0	191889408	53	5134
2026-01-27 23:14:26.14	26.23	17.79	-40.8	-43.9	14.2	3.00e-06	0	60	0	199229440	53	5054
2026-01-27 23:14:30.17	26.50	18.25	-40.8	-43.8	14.3	7.00e-07	0	60	0	207618048	53	4986
2026-01-27 23:14:34.21	26.78	18.72	-40.6	-43.5	14.6	7.00e-07	0	60	0	214958080	53	4859
2026-01-27 23:14:38.25	27.06	19.21	-40.7	-43.5	14.5	0.00e+00	0	61	0	222298112	53	4869
2026-01-27 23:14:42.29	27.36	19.70	-40.6	-43.4	14.7	0.00e+00	0	61	0	229638144	53	4799
2026-01-27 23:14:46.34	27.66	20.20	-40.7	-43.6	14.6	0.00e+00	0	61	0	236978176	53	4877
2026-01-27 23:14:50.38	27.98	20.71	-40.5	-43.3	14.9	0.00e+00	0	61	0	245366784	52	4986
2026-01-27 23:14:54.42	28.31	21.23	-40.5	-43.2	15.0	0.00e+00	0	61	0	252706816	52	4968
2026-01-27 23:14:58.46	28.64	21.76	-40.3	-42.9	15.3	0.00e+00	0	61	0	260046848	52	4807
2026-01-27 23:15:02.50	28.99	22.30	-40.3	-42.9	15.3	0.00e+00	0	61	0	267386880	52	4802
2026-01-27 23:15:06.54	29.35	22.85	-40.1	-42.6	15.6	0.00e+00	0	61	0	275775488	52	4631
2026-01-27 23:15:10.58	29.72	23.41	-40.1	-42.5	15.7	0.00e+00	0	61	0	283115520	52	4597
2026-01-27 23:15:14.62	30.10	23.98	-40.1	-42.6	15.7	0.00e+00	0	61	0	290455552	52	4604
2026-01-27 23:15:18.66	30.50	24.57	-40.3	-42.9	15.4	0.00e+00	0	61	0	297795584	52	4773
2026-01-27 23:15:22.71	30.91	25.17	-40.4	-43.0	15.3	0.00e+00	0	61	0	306184192	52	4867
2026-01-27 23:15:26.75	31.34	25.78	-40.5	-43.1	15.2	0.00e+00	0	61	0	313524224	52	4917
2026-01-27 23:15:30.79	31.79	26.40	-40.7	-43.5	14.8	0.00e+00	0	61	0	320864256	52	5146
2026-01-27 23:15:34.83	32.25	27.03	-41.0	-43.9	14.4	0.00e+00	0	61	0	328204288	52	5372
2026-01-27 23:15:38.87	32.73	27.68	-41.3	-44.5	13.8	7.60e-06	0	61	0	335544320	53	5445
2026-01-27 23:15:42.91	33.23	28.34	-41.6	-45.1	13.3	1.98e-05	0	61	0	343932928	53	5793
2026-01-27 23:15:46.95	33.75	29.02	-41.9	-45.6	12.7	6.25e-05	0	61	0	351272960	54	5836
2026-01-27 23:15:50.99	34.29	29.71	-42.1	-45.9	12.4	1.34e-04	0	61	0	358612992	54	6045
2026-01-27 23:15:55.03	34.85	30.41	-42.4	-46.5	11.8	4.32e-04	0	61	0	365953024	55	6126
2026-01-27 23:15:59.07	35.44	31.13	-42.9	-47.4	11.0	1.69e-03	0	61	0	374341632	56	6375
2026-01-27 23:16:03.11	36.06	31.86	-42.9	-47.4	11.1	1.49e-03	0	61	0	381681664	56	6364
2026-01-27 23:16:07.15	36.70	32.61	-42.6	-46.7	11.8	5.42e-04	0	61	0	389021696	56	5887
2026-01-27 23:16:11.19	37.37	33.37	-42.6	-46.6	11.9	5.67e-04	0	61	0	396361728	56	5848
2026-01-27 23:16:15.23	38.08	34.15	-42.5	-46.5	12.0	3.63e-04	0	61	0	403701760	56	5732
2026-01-27 23:16:19.27	38.82	34.94	-42.4	-46.2	12.3	1.61e-04	0	61	0	412090368	56	5584
2026-01-27 23:16:23.31	39.59	35.75	-42.1	-45.7	12.8	6.79e-05	0	61	0	419430400	56	5276
2026-01-27 23:16:27.35	40.41	36.58	-41.7	-45.1	13.3	2.36e-05	0	61	0	426770432	55	5173
2026-01-27 23:16:31.38	41.26	37.41	-41.8	-45.3	13.1	2.74e-05	0	61	0	434110464	55	5288
2026-01-27 23:16:35.42	42.16	38.26	-41.6	-44.9	13.6	9.10e-06	0	61	0	442499072	55	5043
2026-01-27 23:16:39.46	43.11	39.13	-41.7	-45.0	13.5	1.14e-05	0	61	0	449839104	54	5420
2026-01-27 23:16:43.50	44.11	40.01	-41.4	-44.5	14.0	7.60e-06	0	62	0	457179136	54	5157
2026-01-27 23:16:47.54	45.17	40.90	-41.3	-44.3	14.3	0.00e+00	0	61	0	464519168	54	5000
2026-01-27 23:16:51.58	46.28	41.81	-41.4	-44.4	14.1	1.50e-06	0	61	0	471859200	54	5092
2026-01-27 23:16:55.62	47.46	42.72	-41.8	-45.1	13.4	9.90e-06	0	62	0	480247808	54	5519
2026-01-27 23:16:59.66	48.71	43.64	-41.9	-45.3	13.2	3.73e-05	0	62	0	487587840	54	5644
2026-01-27 23:17:03.70	50.03	44.57	-42.5	-46.5	12.0	3.55e-04	0	62	0	494927872	55	6104
2026-01-27 23:17:07.74	51.43	45.50	-42.4	-46.3	12.3	2.01e-04	0	62	0	502267904	55	5930
2026-01-27 23:17:11.78	52.91	46.44	-43.4	-48.5	10.1	8.34e-03	0	62	0	510656512	57	6827
2026-01-27 23:17:15.82	54.48	47.38	-43.5	-48.7	9.8	6.81e-03	0	62	0	517996544	57	7020
2026-01-27 23:17:19.87	56.16	48.31	-44.1	-50.4	8.2	6.24e-02	0	62	0	525336576	59	7605
2026-01-27 23:17:23.91	57.93	49.24	-43.4	-48.4	10.2	6.24e-03	0	62	0	532676608	58	6395
2026-01-27 23:17:27.95	59.81	50.15	-43.5	-48.5	10.1	9.64e-03	0	62	0	541065216	58	6443
2026-01-27 23:17:31.99	61.81	51.05	-42.3	-45.9	12.8	1.32e-04	0	62	0	548405248	56	5388
2026-01-27 23:17:36.03	63.92	51.92	-41.7	-44.8	13.8	1.29e-05	0	62	0	555745280	55	5032
2026-01-27 23:17:40.07	66.17	52.77	-41.6	-44.7	14.0	2.20e-06	0	62	0	563085312	54	5221
2026-01-27 23:17:44.11	68.54	53.59	-41.0	-43.7	14.9	0.00e+00	0	62	0	570425344	53	4974
2026-01-27 23:17:48.15	71.05	54.37	-41.7	-44.9	13.8	5.30e-06	0	62	0	578813952	54	5374
2026-01-27 23:17:52.19	73.69	55.10	-41.1	-43.9	14.8	0.00e+00	0	62	0	586153984	53	5079
2026-01-27 23:17:56.23	76.47	55.78	-41.3	-44.2	14.5	0.00e+00	0	62	0	593494016	54	4949
2026-01-27 23:18:00.27	79.38	56.40	-41.4	-44.4	14.2	0.00e+00	0	62	0	600834048	54	5078
2026-01-27 23:18:04.31	82.41	56.96	-41.8	-45.0	13.6	3.00e-06	0	62	0	609222656	54	5460
2026-01-27 23:18:08.35	85.56	57.44	-42.4	-46.3	12.4	1.12e-04	0	62	0	616562688	55	5938
2026-01-27 23:18:12.39	88.81	57.83	-43.6	-48.9	9.8	6.42e-03	0	62	0	623902720	57	7133
2026-01-27 23:18:16.43	92.15	58.15	-43.4	-48.2	10.6	4.71e-03	0	62	0	631242752	58	6204
2026-01-27 23:18:20.47	95.56	58.37	-43.5	-48.6	10.1	4.75e-03	0	62	0	638582784	58	6504
2026-01-27 23:18:24.51	99.01	58.50	-43.2	-47.6	11.1	3.77e-03	0	62	0	646971392	58	5832
2026-01-27 23:18:28.55	102.49	58.53	-41.7	-44.8	13.8	1.14e-05	0	62	0	654311424	55	5030
2026-01-27 23:18:32.59	105.96	58.46	-42.3	-46.0	12.7	2.67e-05	0	62	0	661651456	55	5729
2026-01-27 23:18:36.63	109.40	58.30	-43.6	-48.7	9.9	5.87e-03	0	62	0	668991488	57	7025
2026-01-27 23:18:40.67	112.78	58.05	-43.7	-49.0	9.7	5.20e-03	0	62	0	677380096	57	7264
2026-01-27 23:18:44.72	116.11	57.71	-43.8	-49.2	9.4	9.48e-03	0	62	0	684720128	58	6972
2026-01-27 23:18:48.76	119.33	57.28	-43.4	-48.3	10.4	6.94e-03	0	62	0	692060160	58	6281
2026-01-27 23:18:52.80	122.45	56.77	-42.5	-46.3	12.3	4.80e-04	0	62	0	699400192	57	5329
2026-01-27 23:18:56.84	125.44	56.19	-41.5	-44.5	14.1	5.30e-06	0	62	0	706740224	54	5132
2026-01-27 23:19:00.87	128.30	55.55	-40.1	-42.4	16.4	0.00e+00	0	62	0	715128832	51	4761
2026-01-27 23:19:04.92	131.04	54.85	-39.9	-42.1	16.6	0.00e+00	0	62	0	722468864	51	4647
2026-01-27 23:19:08.96	133.64	54.10	-40.4	-42.8	15.9	0.00e+00	0	62	0	729808896	51	5017
2026-01-27 23:19:12.99	136.10	53.30	-40.9	-43.7	14.9	0.00e+00	0	62	0	737148928	52	5251
2026-01-27 23:19:17.02	138.43	52.47	-40.0	-42.2	16.5	0.00e+00	0	62	0	745537536	51	4687
2026-01-27 23:19:21.06	140.63	51.61	-40.9	-43.6	15.0	7.00e-07	0	62	0	752877568	53	4894
2026-01-27 23:19:25.10	142.71	50.72	-42.0	-45.6	13.0	5.18e-05	0	62	0	760217600	54	5797
2026-01-27 23:19:29.15	144.68	49.81	-42.1	-45.6	13.0	7.60e-06	0	62	0	767557632	54	5805
2026-01-27 23:19:33.19	146.52	48.89	-42.5	-46.2	12.4	1.56e-04	0	62	0	774897664	56	5547
2026-01-27 23:19:37.23	148.26	47.96	-43.4	-48.5	10.1	4.33e-03	0	62	0	783286272	57	6823
2026-01-27 23:19:41.27	149.90	47.02	-43.1	-47.5	11.1	1.45e-03	0	62	0	790626304	57	6121
2026-01-27 23:19:45.31	151.45	46.08	-42.7	-46.7	11.9	1.44e-03	0	62	0	797966336	57	5568
2026-01-27 23:19:49.34	152.90	45.14	-43.0	-47.5	11.2	1.86e-03	0	62	0	805306368	56	6447
2026-01-27 23:19:53.38	154.27	44.20	-42.8	-46.9	11.7	1.28e-03	0	62	0	813694976	56	6049
2026-01-27 23:19:57.42	155.57	43.27	-42.7	-46.8	11.8	3.75e-04	0	62	0	821035008	56	5991
2026-01-27 23:20:01.46	156.79	42.35	-41.3	-44.3	14.2	7.00e-07	0	62	0	828375040	54	5024
2026-01-27 23:20:05.50	157.95	41.43	-41.8	-45.1	13.4	8.30e-06	0	62	0	835715072	54	5509
2026-01-27 23:20:09.54	159.05	40.53	-41.4	-44.5	14.0	1.22e-05	0	62	0	843055104	54	5135
2026-01-27 23:20:13.58	160.08	39.64	-41.9	-45.4	13.1	5.30e-06	0	62	0	851443712	54	5701
2026-01-27 23:20:17.62	161.07	38.76	-41.8	-45.2	13.2	5.26e-05	0	62	0	858783744	55	5254
2026-01-27 23:20:21.66	162.00	37.89	-41.6	-44.8	13.7	6.80e-06	0	62	0	866123776	54	5317
2026-01-27 23:20:25.70	162.88	37.04	-42.1	-45.7	12.6	1.94e-04	0	62	0	873463808	55	5587
2026-01-27 23:20:29.74	163.73	36.20	-40.7	-43.4	15.1	0.00e+00	0	62	0	881852416	53	4784
2026-01-27 23:20:33.78	164.53	35.38	-42.2	-46.1	12.3	1.50e-04	0	62	0	889192448	55	5836
2026-01-27 23:20:37.82	165.29	34.57	-41.3	-44.4	14.0	7.00e-07	0	62	0	896532480	54	5097
2026-01-27 23:20:41.86	166.02	33.78	-41.7	-45.2	13.3	1.60e-05	0	62	0	903872512	54	5551
2026-01-27 23:20:45.90	166.71	33.00	-42.1	-45.8	12.6	1.59e-04	0	62	0	911212544	55	5622
2026-01-27 23:20:49.94	167.37	32.24	-42.2	-46.0	12.4	1.46e-04	0	62	0	919601152	55	5769
2026-01-27 23:20:53.98	168.01	31.50	-42.4	-46.5	11.9	4.08e-04	0	62	0	926941184	55	6071
2026-01-27 23:20:58.03	168.61	30.76	-42.0	-45.7	12.6	9.30e-05	0	62	0	934281216	55	5569
2026-01-27 23:21:02.07	169.19	30.05	-42.2	-46.1	12.2	1.39e-04	0	62	0	941621248	55	5822
2026-01-27 23:21:06.10	169.75	29.35	-42.5	-46.8	11.5	1.06e-03	0	62	0	950009856	55	6311
2026-01-27 23:21:10.14	170.28	28.66	-42.2	-46.1	12.2	2.14e-04	0	62	0	957349888	55	5830
2026-01-27 23:21:14.18	170.79	27.99	-42.0	-45.7	12.5	9.84e-05	0	62	0	964689920	55	5583
2026-01-27 23:21:18.22	171.28	27.33	-41.9	-45.6	12.7	9.61e-05	0	62	0	972029952	55	5503
2026-01-27 23:21:22.26	171.75	26.68	-41.8	-45.3	12.9	4.42e-05	0	62	0	979369984	55	5337
2026-01-27 23:21:26.30	172.21	26.05	-41.5	-45.0	13.3	1.98e-05	0	62	0	987758592	55	5102
2026-01-27 23:21:30.34	172.64	25.43	-41.2	-44.4	13.9	4.50e-06	0	62	0	995098624	54	5064
2026-01-27 23:21:34.38	173.06	24.82	-41.0	-44.1	14.1	3.00e-06	0	62	0	1002438656	54	4886
2026-01-27 23:21:38.42	173.47	24.22	-41.4	-44.7	13.5	9.10e-06	0	62	0	1009778688	54	5276
2026-01-27 23:21:42.46	173.86	23.64	-41.5	-45.0	13.2	2.67e-05	0	62	0	1018167296	54	5406
2026-01-27 23:21:46.51	174.24	23.07	-41.0	-44.2	14.0	5.30e-06	0	62	0	1025507328	54	4939
2026-01-27 23:21:50.55	174.60	22.51	-40.4	-43.2	14.9	0.00e+00	0	62	0	1032847360	52	4959
2026-01-27 23:21:54.59	174.96	21.96	-40.4	-43.2	14.9	0.00e+00	0	62	0	1040187392	52	4951
2026-01-27 23:21:58.62	175.30	21.42	-40.5	-43.3	14.8	0.00e+00	0	62	0	1047527424	52	5000
2026-01-27 23:22:02.66	175.63	20.89	-40.8	-43.9	14.2	2.20e-06	0	62	0	1055916032	52	5362
2026-01-27 23:22:06.70	175.95	20.37	-40.8	-43.8	14.2	7.00e-07	0	62	0	1063256064	52	5337
2026-01-27 23:22:10.74	176.26	19.86	-40.7	-43.7	14.3	3.00e-06	0	62	0	1070596096	52	5252
2026-01-27 23:22:14.78	176.55	19.36	-40.6	-43.5	14.5	0.00e+00	0	62	0	1077936128	52	5142
2026-01-27 23:22:18.83	176.85	18.87	-40.5	-43.3	14.7	0.00e+00	0	62	0	1086324736	52	5025
2026-01-27 23:22:22.87	177.13	18.39	-40.5	-43.4	14.6	0.00e+00	0	62	0	1093664768	52	5048
2026-01-27 23:22:26.91	177.40	17.92	-40.6	-43.5	14.5	0.00e+00	0	62	0	1101004800	52	5134
2026-01-27 23:22:30.94	177.67	17.46	-40.7	-43.7	14.3	1.50e-06	0	62	0	1108344832	52	5249
2026-01-27 23:22:34.98	177.92	17.00	-40.8	-43.9	14.0	7.00e-07	0	62	0	1116733440	52	5397
2026-01-27 23:22:39.02	178.18	16.55	-40.8	-43.9	14.0	6.80e-06	0	62	0	1124073472	52	5386
2026-01-27 23:22:43.06	178.42	16.11	-40.9	-44.1	13.8	2.20e-06	0	62	0	1131413504	52	5474
2026-01-27 23:22:47.10	178.66	15.68	-40.8	-44.0	13.9	1.50e-06	0	62	0	1138753536	52	5414
2026-01-27 23:22:51.14	178.89	15.25	-41.0	-44.3	13.6	6.80e-06	0	62	0	1146093568	52	5603
2026-01-27 23:22:55.19	179.11	14.83	-41.1	-44.4	13.4	7.60e-06	0	62	0	1154482176	52	5706
2026-01-27 23:22:59.23	179.33	14.42	-41.3	-44.8	13.0	2.67e-05	0	62	0	1161822208	53	5628
2026-01-27 23:23:03.27	179.55	14.01	-41.4	-45.0	12.8	5.26e-05	0	62	0	1169162240	53	5776
2026-01-27 23:23:07.31	179.75	13.61	-41.4	-45.2	12.7	9.46e-05	0	62	0	1176502272	53	5861
2026-01-27 23:23:11.34	179.96	13.22	-41.4	-45.2	12.6	9.53e-05	0	62	0	1184890880	53	5870
2026-01-27 23:23:15.38	180.15	12.83	-41.4	-45.2	12.6	9.68e-05	0	62	0	1192230912	53	5864
2026-01-27 23:23:19.42	180.35	12.45	-41.5	-45.4	12.4	1.25e-04	0	62	0	1199570944	53	6006
2026-01-27 23:23:23.46	180.54	12.08	-41.6	-45.6	12.1	1.79e-04	0	62	0	1206910976	53	6181
2026-01-27 23:23:27.49	180.72	11.71	-41.5	-45.3	12.5	1.53e-04	0	62	0	1214251008	53	5953
2026-01-27 23:23:31.53	180.90	11.34	-41.5	-45.4	12.3	1.17e-04	0	62	0	1222639616	53	6014
2026-01-27 23:23:35.57	181.08	10.98	-41.5	-45.3	12.4	1.02e-04	0	62	0	1229979648	53	5972
2026-01-27 23:23:39.61	181.25	10.63	-41.4	-45.1	12.6	1.04e-04	0	62	0	1237319680	53	5845
2026-01-27 23:23:43.65	181.42	10.28	-41.3	-45.1	12.6	1.01e-04	0	62	0	1244659712	53	5803
2026-01-27 23:23:47.69	181.58	9.93	-41.3	-45.1	12.6	7.55e-05	0	62	0	1253048320	53	5822
2026-01-27 23:23:51.73	181.74	9.59	-41.2	-44.8	12.8	5.87e-05	0	62	0	1260388352	53	5645
2026-01-27 23:23:55.77	181.90	9.25	-41.2	-44.9	12.8	6.33e-05	0	62	0	1267728384	53	5664
2026-01-27 23:23:59.81	182.05	8.92	-41.2	-44.8	12.7	5.72e-05	0	62	0	1275068416	53	5656
2026-01-27 23:24:03.85	182.20	8.59	-41.2	-44.9	12.7	5.11e-05	0	62	0	1282408448	53	5679
2026-01-27 23:24:07.89	182.35	8.27	-41.2	-45.1	12.5	1.07e-04	0	62	0	1290797056	53	5794
2026-01-27 23:24:11.93	182.50	7.95	-44.3	-56.0	4.1	2.55e-01	0	62	0	1298137088	59	14493
2026-01-27 23:24:15.97	182.64	7.63	-44.9	-59.8	3.8	1.49e+00	0	62	104	1298137088	60	21100
2026-01-27 23:24:20.02	182.78	7.32	-45.2	-60.1	3.8	1.49e+00	0	62	104	1298137088	61	20565
2026-01-27 23:24:24.06	182.91	7.01	-45.2	-60.0	3.8	1.49e+00	0	62	104	1298137088	61	20307
2026-01-27 23:24:28.10	183.05	6.71	-45.1	-59.9	3.8	1.49e+00	0	62	104	1298137088	61	20141
2026-01-27 23:24:32.14	183.18	6.40	-45.1	-59.9	3.8	1.49e+00	0	62	104	1298137088	61	20195
2026-01-27 23:24:36.18	183.31	6.11	-45.1	-59.8	3.8	1.49e+00	0	62	104	1298137088	61	20051
2026-01-27 23:24:40.22	183.44	5.81	-45.1	-59.8	3.8	1.49e+00	0	62	104	1298137088	61	20019
2026-01-27 23:24:44.26	183.56	5.52	-45.1	-59.8	3.8	1.49e+00	0	62	104	1298137088	61	20020
2026-01-27 23:24:48.31	183.68	5.23	-45.1	-59.8	3.8	1.49e+00	0	62	104	1298137088	61	20001
2026-01-27 23:24:52.35	183.80	4.95	-45.0	-59.8	3.8	1.49e+00	0	62	104	1298137088	61	20040
2026-01-27 23:24:56.39	183.92	4.66	-45.1	-59.8	3.8	1.49e+00	0	62	104	1298137088	61	19926
2026-01-27 23:25:00.43	184.04	4.38	-45.1	-59.8	3.8	1.49e+00	0	62	104	1298137088	61	19994
2026-01-27 23:25:04.48	184.15	4.11	-45.1	-59.8	3.8	1.49e+00	0	62	104	1298137088	61	19974
2026-01-27 23:25:08.52	184.26	3.83	-45.0	-59.8	3.8	1.49e+00	0	62	104	1298137088	61	20001
2026-01-27 23:25:12.56	184.37	3.56	-45.0	-59.8	3.8	1.49e+00	0	62	104	1298137088	61	19933
2026-01-27 23:25:16.61	184.48	3.29	-45.0	-59.8	3.8	1.49e+00	0	62	104	1298137088	61	19947
2026-01-27 23:25:20.65	184.59	3.02	-45.0	-59.8	3.8	1.49e+00	0	62	104	1298137088	61	19908
2026-01-27 23:25:24.69	184.69	2.76	-45.0	-59.8	3.8	1.49e+00	0	62	104	1298137088	61	19903
2026-01-27 23:25:28.73	184.79	2.50	-45.0	-59.8	3.8	1.49e+00	0	62	104	1298137088	61	19911
2026-01-27 23:25:32.77	184.90	2.24	-45.0	-59.8	3.8	1.49e+00	0	62	104	1298137088	61	19885
2026-01-27 23:25:36.81	185.00	1.98	-45.0	-59.7	3.8	1.49e+00	0	62	104	1298137088	61	19839

#Closed at: 2026-01-27 23:25:38
#Recorded file [1298 MB]: D:/lorett/data/31039_260128_021116.dat