passes_logs/2026/01/27/R2.0S_Moscow/R2.0S_Moscow__20260127_110134_NOAA_20_JPSS-1_rec.log

#Pass ID: 20260127_110134_NOAA 20 (JPSS-1)
#Satellite: NOAA 20 (JPSS-1)
#Configuration: NOAA 20
#almurnet v.1.7.20251203
#Start time: 2026-01-27 11:01:36

#Version: 2.2.20231116
#Station: R2.0S_Moscow
#Location: 37.707566 lon 55.798166 lat
#TLE: 1 43013U 17073A   26026.81907703  .00000149  00000+0  91399-4 0  9998
#TLE: 2 43013  98.7647 327.6343 0000991  22.4130 337.7089 14.19540778424411

#Time	Az	El	Level	Level2	SNR	BER	BlckErr	Temp	State	Recorded	gain1	gain2
2026-01-27 11:01:36.01	193.50	2.06	-44.0	-58.4	3.8	1.49e+00	0	55	0	0	59	18992
2026-01-27 11:01:40.04	193.71	2.31	-43.9	-58.4	3.8	1.49e+00	0	55	104	0	59	18984
2026-01-27 11:01:44.09	193.93	2.55	-43.9	-58.4	3.8	1.49e+00	0	55	104	0	59	19005
2026-01-27 11:01:48.13	194.15	2.80	-43.9	-58.4	3.8	1.49e+00	0	56	104	0	59	18968
2026-01-27 11:01:52.17	194.37	3.04	-43.9	-58.3	3.8	1.49e+00	0	56	104	0	59	18935
2026-01-27 11:01:56.21	194.60	3.29	-43.9	-58.4	3.8	1.49e+00	0	56	104	0	59	18997
2026-01-27 11:02:00.25	194.83	3.55	-43.9	-58.4	3.8	1.49e+00	0	56	104	0	59	18961
2026-01-27 11:02:04.29	195.06	3.80	-43.9	-58.3	3.8	1.49e+00	0	57	104	0	59	18902
2026-01-27 11:02:08.33	195.30	4.05	-43.9	-58.3	3.8	1.49e+00	0	57	104	0	59	18937
2026-01-27 11:02:12.37	195.54	4.31	-43.9	-58.4	3.8	1.49e+00	0	57	104	0	59	18953
2026-01-27 11:02:16.42	195.79	4.57	-43.9	-58.3	3.8	1.49e+00	0	57	104	0	59	18857
2026-01-27 11:02:20.46	196.04	4.83	-43.9	-58.2	3.8	1.49e+00	0	58	104	0	59	18726
2026-01-27 11:02:24.50	196.29	5.10	-43.9	-58.1	3.8	1.49e+00	0	58	104	0	59	18476
2026-01-27 11:02:28.55	196.56	5.36	-43.9	-58.0	3.8	1.49e+00	0	58	104	0	59	18282
2026-01-27 11:02:32.58	196.82	5.63	-43.9	-57.5	3.8	1.49e+00	0	58	104	0	59	17175
2026-01-27 11:02:36.62	197.09	5.90	-43.8	-56.6	3.8	1.49e+00	0	58	104	0	59	15557
2026-01-27 11:02:40.66	197.36	6.17	-43.8	-55.5	4.0	1.48e+00	0	58	104	0	59	13698
2026-01-27 11:02:44.71	197.64	6.45	-43.7	-54.8	4.2	1.42e+00	0	59	0	0	59	12568
2026-01-27 11:02:48.75	197.92	6.73	-43.6	-54.1	4.4	1.20e+00	56	59	0	1048576	59	11570
2026-01-27 11:02:52.79	198.21	7.01	-43.4	-52.3	5.3	5.79e-01	0	59	0	8388608	58	9955
2026-01-27 11:02:56.84	198.51	7.29	-42.9	-49.7	7.3	1.51e-01	0	59	0	15728640	57	7854
2026-01-27 11:03:00.88	198.81	7.58	-42.5	-48.4	8.7	3.42e-02	0	59	0	23068672	57	6733
2026-01-27 11:03:04.92	199.11	7.86	-42.7	-48.8	8.2	4.60e-02	0	59	0	31457280	56	7530
2026-01-27 11:03:08.97	199.42	8.15	-42.6	-48.3	8.9	3.24e-02	0	60	0	38797312	56	7053
2026-01-27 11:03:13.01	199.74	8.45	-42.3	-47.4	9.9	6.05e-02	0	60	0	42991616	56	6406
2026-01-27 11:03:17.05	200.07	8.74	-42.2	-47.0	10.3	6.61e-03	0	60	0	50331648	56	6108
2026-01-27 11:03:21.10	200.40	9.04	-42.2	-46.9	10.5	4.65e-03	0	60	0	57671680	56	6027
2026-01-27 11:03:25.14	200.73	9.34	-42.2	-46.9	10.5	3.80e-03	0	60	0	65011712	56	6054
2026-01-27 11:03:29.18	201.08	9.65	-42.2	-46.7	10.8	2.94e-03	0	60	0	73400320	56	5899
2026-01-27 11:03:33.22	201.43	9.95	-42.2	-46.7	10.8	2.46e-03	0	60	0	80740352	56	5879
2026-01-27 11:03:37.26	201.78	10.26	-42.0	-46.3	11.2	1.62e-03	0	60	0	88080384	56	5642
2026-01-27 11:03:41.30	202.15	10.58	-42.1	-46.7	10.7	2.69e-03	0	61	0	95420416	56	5904
2026-01-27 11:03:45.34	202.52	10.89	-41.7	-46.2	10.8	2.94e-03	0	61	0	102760448	55	5872
2026-01-27 11:03:49.38	202.90	11.21	-41.7	-46.2	10.8	2.70e-03	0	61	0	111149056	55	5862
2026-01-27 11:03:53.42	203.29	11.53	-41.6	-45.8	11.4	8.77e-04	0	61	0	118489088	55	5618
2026-01-27 11:03:57.46	203.69	11.86	-41.6	-45.5	11.9	4.32e-04	0	61	0	125829120	55	5414
2026-01-27 11:04:01.50	204.09	12.19	-41.4	-45.2	12.2	2.88e-04	0	61	0	133169152	54	5568
2026-01-27 11:04:05.54	204.51	12.52	-41.3	-45.1	12.4	1.14e-04	0	61	0	141557760	54	5477
2026-01-27 11:04:09.57	204.93	12.85	-41.3	-45.0	12.6	1.20e-04	0	61	0	148897792	54	5416
2026-01-27 11:04:13.61	205.36	13.19	-41.4	-45.1	12.6	7.62e-05	0	61	0	156237824	54	5481
2026-01-27 11:04:17.65	205.80	13.53	-41.4	-45.0	12.7	6.94e-05	0	61	0	163577856	54	5447
2026-01-27 11:04:21.70	206.26	13.87	-41.5	-45.2	12.5	1.41e-04	0	62	0	170917888	54	5571
2026-01-27 11:04:25.73	206.72	14.22	-41.5	-45.1	12.6	1.14e-04	0	62	0	179306496	54	5513
2026-01-27 11:04:29.77	207.19	14.57	-41.5	-45.0	12.7	6.63e-05	0	62	0	186646528	54	5458
2026-01-27 11:04:33.81	207.67	14.92	-41.4	-44.9	12.9	4.80e-05	0	62	0	193986560	54	5360
2026-01-27 11:04:37.85	208.17	15.28	-41.3	-44.7	13.1	1.90e-05	0	62	0	201326592	54	5264
2026-01-27 11:04:41.88	208.68	15.64	-41.4	-45.0	12.9	5.03e-05	0	62	0	209715200	54	5405
2026-01-27 11:04:45.92	209.19	16.01	-41.6	-45.2	12.7	7.62e-05	0	62	0	217055232	54	5553
2026-01-27 11:04:49.96	209.73	16.37	-41.8	-45.5	12.4	1.39e-04	0	62	0	224395264	54	5776
2026-01-27 11:04:53.99	210.27	16.74	-42.0	-46.0	11.9	3.20e-04	0	62	0	231735296	54	6092
2026-01-27 11:04:58.04	210.83	17.12	-42.2	-46.3	11.6	6.01e-04	0	62	0	239075328	54	6332
2026-01-27 11:05:02.08	211.40	17.49	-42.1	-46.1	11.8	5.13e-04	0	62	0	247463936	54	6199
2026-01-27 11:05:06.12	211.98	17.87	-42.1	-46.0	12.0	3.23e-04	0	62	0	254803968	54	6124
2026-01-27 11:05:10.16	212.58	18.25	-42.1	-46.2	11.8	4.09e-04	0	62	0	262144000	54	6224
2026-01-27 11:05:14.20	213.20	18.64	-42.1	-46.1	11.8	4.36e-04	0	62	0	269484032	55	5836
2026-01-27 11:05:18.24	213.83	19.03	-42.2	-46.3	11.7	6.67e-04	0	62	0	277872640	55	5933
2026-01-27 11:05:22.28	214.47	19.42	-42.3	-46.5	11.5	7.85e-04	0	62	0	285212672	55	6116
2026-01-27 11:05:26.32	215.14	19.81	-42.1	-46.0	12.1	2.72e-04	0	62	0	292552704	55	5744
2026-01-27 11:05:30.35	215.81	20.21	-42.0	-45.8	12.3	1.46e-04	0	62	0	299892736	55	5602
2026-01-27 11:05:34.39	216.51	20.61	-41.9	-45.6	12.4	1.27e-04	0	62	0	307232768	55	5493
2026-01-27 11:05:38.43	217.22	21.01	-41.7	-45.3	12.8	6.63e-05	0	62	0	315621376	55	5284
2026-01-27 11:05:42.47	217.95	21.41	-41.6	-45.0	13.1	4.11e-05	0	62	0	322961408	55	5157
2026-01-27 11:05:46.51	218.71	21.81	-41.5	-44.8	13.4	2.44e-05	0	62	0	330301440	54	5299
2026-01-27 11:05:50.55	219.48	22.22	-41.2	-44.4	13.8	3.80e-06	0	62	0	337641472	54	5058
2026-01-27 11:05:54.59	220.27	22.62	-41.3	-44.5	13.7	1.06e-05	0	62	0	346030080	54	5130
2026-01-27 11:05:58.63	221.08	23.03	-41.1	-44.1	14.1	1.50e-06	0	62	0	353370112	53	5166
2026-01-27 11:06:02.67	221.91	23.44	-40.8	-43.7	14.5	0.00e+00	0	62	0	360710144	53	4958
2026-01-27 11:06:06.71	222.76	23.84	-40.6	-43.4	14.8	0.00e+00	0	62	0	368050176	53	4785
2026-01-27 11:06:10.74	223.63	24.25	-40.5	-43.1	15.1	0.00e+00	0	62	0	375390208	53	4646
2026-01-27 11:06:14.79	224.53	24.66	-40.8	-43.7	14.5	0.00e+00	0	62	0	383778816	53	4949
2026-01-27 11:06:18.83	225.45	25.06	-40.9	-43.8	14.4	1.50e-06	0	62	0	391118848	53	5020
2026-01-27 11:06:22.87	226.40	25.47	-41.0	-44.0	14.2	7.00e-07	0	62	0	398458880	53	5138
2026-01-27 11:06:26.90	227.36	25.87	-41.3	-44.4	13.7	6.10e-06	0	62	0	405798912	53	5400
2026-01-27 11:06:30.94	228.35	26.27	-41.4	-44.6	13.6	9.10e-06	0	62	0	414187520	53	5527
2026-01-27 11:06:34.98	229.37	26.66	-41.9	-45.5	12.7	7.17e-05	0	62	0	421527552	54	5754
2026-01-27 11:06:39.02	230.41	27.06	-42.0	-45.7	12.5	1.06e-04	0	62	0	428867584	54	5858
2026-01-27 11:06:43.06	231.47	27.44	-42.5	-46.7	11.5	5.70e-04	0	62	0	436207616	55	6232
2026-01-27 11:06:47.10	232.57	27.82	-42.2	-46.1	12.0	3.84e-04	0	62	0	443547648	55	5849
2026-01-27 11:06:51.15	233.69	28.20	-42.3	-46.4	11.7	3.92e-04	0	62	0	451936256	55	6019
2026-01-27 11:06:55.19	234.83	28.57	-43.1	-47.9	10.3	3.83e-03	0	62	0	459276288	56	6789
2026-01-27 11:06:59.23	236.00	28.93	-43.2	-48.3	9.9	8.84e-03	0	62	0	466616320	57	6676
2026-01-27 11:07:03.27	237.19	29.28	-43.5	-49.2	8.9	2.16e-02	0	62	0	473956352	57	7421
2026-01-27 11:07:07.31	238.41	29.63	-43.8	-49.9	8.2	5.66e-02	0	62	0	482344960	58	7610
2026-01-27 11:07:11.36	239.66	29.96	-43.6	-49.4	8.8	3.41e-02	0	62	0	489684992	58	7140
2026-01-27 11:07:15.40	240.93	30.28	-43.8	-50.1	8.1	6.70e-02	0	62	0	497025024	58	7762
2026-01-27 11:07:19.43	242.22	30.59	-43.3	-48.4	9.8	1.27e-02	0	62	0	504365056	58	6398
2026-01-27 11:07:23.47	243.54	30.89	-42.9	-47.5	10.6	3.33e-03	0	62	0	512753664	57	6128
2026-01-27 11:07:27.51	244.88	31.17	-43.0	-47.8	10.5	4.77e-03	0	63	0	520093696	57	6275
2026-01-27 11:07:31.55	246.24	31.44	-42.8	-47.2	11.0	1.82e-03	0	62	0	527433728	57	5901
2026-01-27 11:07:35.60	247.63	31.69	-43.2	-48.3	10.0	6.09e-03	0	62	0	534773760	57	6659
2026-01-27 11:07:39.64	249.04	31.93	-43.1	-47.8	10.4	7.22e-03	0	62	0	542113792	57	6321
2026-01-27 11:07:43.68	250.47	32.15	-43.0	-47.6	10.7	2.82e-03	0	62	0	550502400	57	6146
2026-01-27 11:07:47.72	251.91	32.35	-42.9	-47.5	10.8	2.82e-03	0	62	0	557842432	57	6084
2026-01-27 11:07:51.76	253.37	32.53	-43.2	-48.2	10.0	7.04e-03	0	62	0	565182464	57	6584
2026-01-27 11:07:55.79	254.85	32.70	-43.1	-48.0	10.2	6.52e-03	0	62	0	572522496	57	6463
2026-01-27 11:07:59.83	256.34	32.84	-43.3	-48.4	9.9	8.80e-03	0	62	0	580911104	57	6753
2026-01-27 11:08:03.87	257.84	32.96	-42.9	-47.4	10.8	3.62e-03	0	62	0	588251136	57	6041
2026-01-27 11:08:07.91	259.35	33.06	-43.2	-48.1	10.1	4.95e-03	0	62	0	595591168	57	6530
2026-01-27 11:08:11.95	260.87	33.14	-43.2	-48.1	10.1	7.51e-03	0	62	0	602931200	57	6539
2026-01-27 11:08:15.99	262.40	33.20	-43.3	-48.5	9.8	1.10e-02	0	62	0	610271232	57	6819
2026-01-27 11:08:20.03	263.93	33.23	-43.2	-48.2	10.1	6.71e-03	0	62	0	618659840	57	6576
2026-01-27 11:08:24.07	265.46	33.25	-42.9	-47.4	10.8	1.91e-03	0	62	0	625999872	57	6059
2026-01-27 11:08:28.11	266.99	33.24	-43.0	-47.7	10.6	3.18e-03	0	62	0	633339904	57	6224
2026-01-27 11:08:32.15	268.52	33.20	-43.1	-47.8	10.5	3.71e-03	0	62	0	640679936	57	6281
2026-01-27 11:08:36.18	270.04	33.15	-43.0	-47.7	10.6	5.30e-03	0	63	0	649068544	57	6213
2026-01-27 11:08:40.23	271.57	33.07	-42.6	-46.8	11.5	9.84e-04	0	63	0	656408576	57	5628
2026-01-27 11:08:44.26	273.08	32.98	-43.1	-47.8	10.5	3.38e-03	0	62	0	663748608	57	6333
2026-01-27 11:08:48.30	274.58	32.86	-43.3	-48.3	9.9	8.51e-03	0	62	0	671088640	57	6681
2026-01-27 11:08:52.34	276.07	32.72	-43.3	-48.6	9.7	1.23e-02	0	62	0	678428672	57	6888
2026-01-27 11:08:56.38	277.54	32.56	-43.4	-48.8	9.3	1.84e-02	0	63	0	686817280	57	7108
2026-01-27 11:09:00.42	279.00	32.38	-43.6	-49.2	9.0	1.87e-02	0	62	0	694157312	57	7387
2026-01-27 11:09:04.46	280.45	32.18	-43.6	-49.4	8.8	3.05e-02	0	62	0	701497344	57	7583
2026-01-27 11:09:08.49	281.87	31.97	-43.5	-49.1	9.1	2.48e-02	0	63	0	708837376	57	7334
2026-01-27 11:09:12.53	283.27	31.73	-43.0	-47.6	10.6	4.69e-03	0	62	0	717225984	57	6187
2026-01-27 11:09:16.56	284.66	31.48	-43.1	-47.9	10.4	4.31e-03	0	62	0	724566016	57	6355
2026-01-27 11:09:20.61	286.02	31.22	-43.2	-48.1	10.1	7.45e-03	0	63	0	731906048	57	6567
2026-01-27 11:09:24.64	287.36	30.94	-43.1	-48.0	10.3	5.69e-03	0	63	0	739246080	57	6423
2026-01-27 11:09:28.68	288.68	30.64	-42.9	-47.5	10.8	3.39e-03	0	63	0	746586112	57	6085
2026-01-27 11:09:32.73	289.98	30.34	-43.2	-48.1	10.2	4.44e-03	0	63	0	754974720	57	6498
2026-01-27 11:09:36.77	291.25	30.02	-43.4	-48.7	9.4	1.70e-02	0	63	0	762314752	57	7038
2026-01-27 11:09:40.81	292.49	29.69	-43.0	-47.6	10.7	3.55e-03	0	62	0	769654784	57	6143
2026-01-27 11:09:44.85	293.71	29.35	-43.1	-48.1	10.1	5.23e-03	0	62	0	776994816	57	6502
2026-01-27 11:09:48.88	294.90	29.00	-43.3	-48.5	9.6	1.05e-02	0	63	0	785383424	57	6861
2026-01-27 11:09:52.93	296.07	28.64	-43.4	-48.8	9.3	1.91e-02	0	62	0	792723456	57	7118
2026-01-27 11:09:56.97	297.21	28.28	-43.0	-47.8	10.4	6.17e-03	0	62	0	800063488	57	6320
2026-01-27 11:10:01.00	298.33	27.91	-42.5	-46.6	11.7	8.54e-04	0	63	0	807403520	57	5488
2026-01-27 11:10:05.04	299.42	27.53	-42.4	-46.5	11.8	4.03e-04	0	63	0	814743552	56	5749
2026-01-27 11:10:09.08	300.48	27.14	-42.8	-47.4	10.8	2.47e-03	0	63	0	823132160	56	6387
2026-01-27 11:10:13.12	301.52	26.76	-42.8	-47.3	10.9	3.19e-03	0	62	0	830472192	56	6321
2026-01-27 11:10:17.16	302.54	26.36	-42.2	-46.1	12.2	1.91e-04	0	63	0	837812224	56	5482
2026-01-27 11:10:21.19	303.53	25.97	-42.2	-46.0	12.2	3.75e-04	0	62	0	845152256	56	5449
2026-01-27 11:10:25.24	304.50	25.57	-42.0	-45.9	12.2	1.67e-04	0	63	0	853540864	55	5669
2026-01-27 11:10:29.28	305.44	25.17	-43.1	-48.1	10.0	1.05e-02	0	63	0	860880896	56	6944
2026-01-27 11:10:33.32	306.36	24.77	-42.3	-46.2	12.0	3.26e-04	0	63	0	868220928	56	5556
2026-01-27 11:10:37.36	307.26	24.37	-42.5	-46.7	11.5	1.60e-03	0	63	0	875560960	56	5861
2026-01-27 11:10:41.40	308.13	23.96	-41.6	-45.0	13.0	3.43e-05	0	63	0	882900992	55	5149
2026-01-27 11:10:45.44	308.99	23.56	-42.2	-46.2	11.8	6.36e-04	0	63	0	891289600	55	5884
2026-01-27 11:10:49.48	309.82	23.15	-41.7	-45.2	12.8	6.10e-05	0	62	0	898629632	55	5279
2026-01-27 11:10:53.52	310.63	22.75	-42.4	-46.9	11.1	1.35e-03	0	62	0	905969664	55	6348
2026-01-27 11:10:57.56	311.42	22.35	-41.7	-45.3	12.7	1.72e-04	0	63	0	913309696	55	5285
2026-01-27 11:11:01.60	312.19	21.94	-41.6	-45.1	12.9	5.56e-05	0	63	0	921698304	55	5162
2026-01-27 11:11:05.64	312.94	21.54	-41.4	-44.7	13.2	2.28e-05	0	63	0	929038336	54	5264
2026-01-27 11:11:09.68	313.68	21.15	-41.5	-45.0	13.0	2.44e-05	0	63	0	936378368	54	5427
2026-01-27 11:11:13.72	314.39	20.75	-41.4	-44.9	13.0	5.87e-05	0	63	0	943718400	54	5379
2026-01-27 11:11:17.76	315.09	20.35	-41.1	-44.4	13.5	7.60e-06	0	62	0	951058432	54	5054
2026-01-27 11:11:21.80	315.77	19.96	-41.1	-44.3	13.6	3.00e-06	0	63	0	959447040	54	4984
2026-01-27 11:11:25.84	316.43	19.57	-40.9	-43.9	13.9	3.00e-06	0	63	0	966787072	53	5088
2026-01-27 11:11:29.88	317.08	19.18	-40.9	-44.0	13.9	3.00e-06	0	62	0	974127104	53	5122
2026-01-27 11:11:33.92	317.71	18.80	-41.1	-44.3	13.5	9.10e-06	0	63	0	981467136	53	5318
2026-01-27 11:11:37.96	318.33	18.41	-41.2	-44.6	13.2	2.36e-05	0	63	0	989855744	53	5469
2026-01-27 11:11:42.00	318.93	18.03	-41.1	-44.4	13.4	2.44e-05	0	63	0	997195776	53	5358
2026-01-27 11:11:46.04	319.51	17.66	-41.0	-44.3	13.5	1.14e-05	0	63	0	1004535808	53	5303
2026-01-27 11:11:50.08	320.09	17.28	-41.4	-44.9	12.9	5.56e-05	0	63	0	1011875840	53	5667
2026-01-27 11:11:54.12	320.65	16.91	-41.3	-44.8	12.9	5.18e-05	0	62	0	1020264448	53	5624
2026-01-27 11:11:58.15	321.19	16.55	-41.4	-45.0	12.7	7.62e-05	0	62	0	1027604480	53	5741
2026-01-27 11:12:02.20	321.73	16.18	-41.6	-45.4	12.3	1.94e-04	0	63	0	1034944512	53	6003
2026-01-27 11:12:06.24	322.25	15.82	-41.6	-45.4	12.2	1.88e-04	0	63	0	1042284544	53	6052
2026-01-27 11:12:10.28	322.76	15.46	-41.7	-45.6	12.1	2.84e-04	0	63	0	1049624576	54	5812
2026-01-27 11:12:14.32	323.25	15.11	-41.9	-46.1	11.6	5.31e-04	0	63	0	1058013184	54	6142
2026-01-27 11:12:18.36	323.74	14.76	-42.0	-46.2	11.4	9.77e-04	0	62	0	1065353216	54	6274
2026-01-27 11:12:22.40	324.21	14.41	-42.1	-46.6	11.0	1.99e-03	0	63	0	1072693248	54	6498
2026-01-27 11:12:26.44	324.68	14.06	-42.0	-46.4	11.2	1.39e-03	0	63	0	1080033280	54	6354
2026-01-27 11:12:30.48	325.13	13.72	-41.8	-45.9	11.7	6.57e-04	0	63	0	1088421888	54	6005
2026-01-27 11:12:34.53	325.58	13.38	-41.8	-45.8	11.7	5.64e-04	0	63	0	1095761920	54	5980
2026-01-27 11:12:38.57	326.02	13.05	-42.0	-46.4	11.1	1.41e-03	0	62	0	1103101952	54	6396
2026-01-27 11:12:42.61	326.44	12.71	-42.1	-46.7	10.8	2.56e-03	0	63	0	1110441984	54	6616
2026-01-27 11:12:46.65	326.86	12.39	-41.9	-46.2	11.3	1.42e-03	0	63	0	1117782016	54	6214
2026-01-27 11:12:50.69	327.27	12.06	-41.6	-45.6	11.9	5.03e-04	0	63	0	1126170624	54	5813
2026-01-27 11:12:54.73	327.67	11.74	-41.6	-45.6	11.8	3.75e-04	0	62	0	1133510656	54	5832
2026-01-27 11:12:58.78	328.06	11.42	-41.8	-46.0	11.5	7.15e-04	0	62	0	1140850688	54	6087
2026-01-27 11:13:02.82	328.44	11.10	-41.8	-46.1	11.3	1.44e-03	0	62	0	1148190720	54	6197
2026-01-27 11:13:06.86	328.82	10.79	-41.7	-46.0	11.4	1.46e-03	0	62	0	1156579328	54	6065
2026-01-27 11:13:10.90	329.18	10.48	-41.7	-46.0	11.4	1.20e-03	0	62	0	1163919360	54	6063
2026-01-27 11:13:14.94	329.55	10.17	-41.7	-46.0	11.3	1.44e-03	0	62	0	1171259392	54	6085
2026-01-27 11:13:18.99	329.90	9.86	-41.7	-45.9	11.3	1.52e-03	0	63	0	1178599424	54	6057
2026-01-27 11:13:23.02	330.25	9.56	-41.9	-46.4	10.8	2.55e-03	0	63	0	1186988032	54	6377
2026-01-27 11:13:27.06	330.59	9.26	-41.8	-46.3	10.8	2.27e-03	0	63	0	1194328064	54	6324
2026-01-27 11:13:31.10	330.92	8.97	-41.7	-46.2	10.9	2.12e-03	0	63	0	1201668096	54	6243
2026-01-27 11:13:35.14	331.25	8.67	-41.6	-46.0	11.0	1.78e-03	0	63	0	1209008128	54	6120
2026-01-27 11:13:39.18	331.57	8.38	-41.6	-46.1	10.9	2.26e-03	0	63	0	1216348160	54	6143
2026-01-27 11:13:43.22	331.88	8.09	-41.7	-46.3	10.6	2.90e-03	0	62	0	1224736768	54	6340
2026-01-27 11:13:47.27	332.19	7.81	-44.7	-59.4	3.8	1.49e+00	0	62	104	1226833920	60	20084
2026-01-27 11:13:51.31	332.50	7.52	-45.2	-59.8	3.8	1.49e+00	0	63	104	1226833920	60	21180
2026-01-27 11:13:55.35	332.79	7.24	-45.2	-59.7	3.8	1.49e+00	0	63	104	1226833920	61	19777
2026-01-27 11:13:59.39	333.09	6.96	-45.1	-59.7	3.8	1.49e+00	0	63	104	1226833920	60	20893
2026-01-27 11:14:03.43	333.38	6.69	-45.1	-59.7	3.8	1.49e+00	0	63	104	1226833920	60	20881
2026-01-27 11:14:07.47	333.66	6.41	-45.1	-59.7	3.8	1.49e+00	0	63	104	1226833920	60	20840
2026-01-27 11:14:11.52	333.94	6.14	-45.1	-59.6	3.8	1.49e+00	0	63	104	1226833920	60	20734
2026-01-27 11:14:15.56	334.21	5.87	-45.1	-59.6	3.8	1.49e+00	0	63	104	1226833920	60	20751
2026-01-27 11:14:19.60	334.48	5.61	-45.1	-59.6	3.8	1.49e+00	0	63	104	1226833920	60	20720
2026-01-27 11:14:23.64	334.74	5.34	-45.1	-59.6	3.8	1.49e+00	0	63	104	1226833920	60	20770
2026-01-27 11:14:27.68	335.00	5.08	-45.1	-59.6	3.8	1.49e+00	0	62	104	1226833920	60	20739
2026-01-27 11:14:31.72	335.26	4.82	-45.1	-59.6	3.8	1.49e+00	0	63	104	1226833920	60	20698
2026-01-27 11:14:35.77	335.51	4.56	-45.1	-59.6	3.8	1.49e+00	0	63	104	1226833920	60	20734
2026-01-27 11:14:39.81	335.76	4.31	-45.0	-59.6	3.8	1.49e+00	0	63	104	1226833920	60	20598
2026-01-27 11:14:43.85	336.00	4.05	-44.8	-59.6	3.8	1.49e+00	0	63	104	1226833920	60	20635
2026-01-27 11:14:47.90	336.24	3.80	-44.7	-59.6	3.8	1.49e+00	0	63	104	1226833920	60	20654
2026-01-27 11:14:51.94	336.47	3.55	-45.1	-59.6	3.8	1.49e+00	0	63	104	1226833920	60	20621
2026-01-27 11:14:55.98	336.71	3.30	-45.0	-59.6	3.8	1.49e+00	0	63	104	1226833920	60	20674
2026-01-27 11:15:00.02	336.93	3.06	-45.1	-59.6	3.8	1.49e+00	0	63	104	1226833920	60	20688
2026-01-27 11:15:04.06	337.16	2.81	-45.0	-59.6	3.8	1.49e+00	0	63	104	1226833920	60	20655
2026-01-27 11:15:08.11	337.38	2.57	-45.0	-59.6	3.8	1.49e+00	0	63	104	1226833920	60	20638
2026-01-27 11:15:12.15	337.60	2.33	-45.0	-59.6	3.8	1.49e+00	0	63	104	1226833920	60	20642
2026-01-27 11:15:16.19	337.81	2.09	-45.0	-59.6	3.8	1.49e+00	0	63	104	1226833920	60	20771
2026-01-27 11:15:20.23	338.03	1.85	-45.1	-59.6	3.8	1.49e+00	0	63	104	1226833920	60	20718

#Closed at: 2026-01-27 11:15:20
#Recorded file [1226 MB]: D:/lorett/data/31039_260127_140135.dat