passes_logs/2026/01/27/R2.0S_Moscow/R2.0S_Moscow__20260127_150031_FENGYUN_3E_rec.log

#Pass ID: 20260127_150031_FENGYUN 3E
#Satellite: FENGYUN 3E
#Configuration: FENGYUN 3E
#almurnet v.1.7.20251203
#Start time: 2026-01-27 15:00:33

#Version: 2.2.20231116
#Station: R2.0S_Moscow
#Location: 37.707566 lon 55.798166 lat
#TLE: 1 49008U 21062A   26026.84429991  .00000247  00000+0  13693-3 0  9991
#TLE: 2 49008  98.7501  31.8345 0002501 116.3456 243.7977 14.19887781236522

#Time	Az	El	Level	Level2	SNR	BER	BlckErr	Temp	State	Recorded	gain1	gain2
2026-01-27 15:00:33.35	184.48	2.14	-44.5	-55.5	3.8	8.46e-01	0	53	0	0	59	12866
2026-01-27 15:00:37.40	184.64	2.40	-44.5	-55.5	3.8	8.46e-01	0	53	104	0	59	12873
2026-01-27 15:00:41.44	184.80	2.65	-44.5	-55.5	3.8	8.47e-01	0	54	104	0	59	12854
2026-01-27 15:00:45.48	184.97	2.91	-44.5	-55.5	3.8	8.47e-01	0	54	104	0	59	12829
2026-01-27 15:00:49.52	185.13	3.16	-44.5	-55.5	3.8	8.47e-01	0	54	104	0	59	12854
2026-01-27 15:00:53.56	185.30	3.42	-44.5	-55.5	3.8	8.46e-01	0	55	104	0	59	12819
2026-01-27 15:00:57.61	185.48	3.69	-44.5	-55.5	3.8	8.46e-01	0	55	104	0	59	12825
2026-01-27 15:01:01.65	185.65	3.95	-44.5	-55.5	3.8	8.47e-01	0	55	104	0	59	12812
2026-01-27 15:01:05.69	185.83	4.22	-44.5	-55.4	3.8	8.46e-01	0	56	104	0	59	12697
2026-01-27 15:01:09.73	186.01	4.49	-44.4	-55.0	3.8	8.46e-01	0	56	104	0	59	12183
2026-01-27 15:01:13.77	186.20	4.76	-44.3	-54.6	3.8	8.46e-01	0	56	104	0	59	11586
2026-01-27 15:01:17.82	186.39	5.04	-44.3	-54.2	3.8	8.45e-01	0	56	104	0	59	11145
2026-01-27 15:01:21.86	186.58	5.32	-44.1	-53.2	3.8	8.45e-01	0	56	104	0	59	9871
2026-01-27 15:01:25.90	186.78	5.60	-43.7	-51.2	4.4	8.29e-01	0	56	0	0	58	8279
2026-01-27 15:01:29.95	186.97	5.88	-43.4	-49.9	5.0	7.82e-01	0	57	0	0	57	7602
2026-01-27 15:01:33.99	187.18	6.17	-43.0	-48.7	5.7	5.74e-01	0	57	0	3145728	57	6639
2026-01-27 15:01:38.03	187.38	6.46	-42.6	-47.6	6.6	2.23e-01	0	57	0	31457280	56	6186
2026-01-27 15:01:42.07	187.59	6.75	-41.4	-45.3	8.7	4.17e-02	0	57	0	60817408	53	5603
2026-01-27 15:01:46.12	187.81	7.05	-40.2	-43.1	11.1	1.91e-03	0	58	0	90177536	51	4875
2026-01-27 15:01:50.16	188.03	7.34	-38.9	-41.3	12.9	3.89e-05	0	58	0	119537664	48	4706
2026-01-27 15:01:54.20	188.25	7.64	-38.2	-40.5	13.5	1.02e-05	0	58	0	148897792	47	4557
2026-01-27 15:01:58.25	188.48	7.95	-39.0	-41.6	12.5	1.17e-04	0	58	0	178257920	47	5169
2026-01-27 15:02:02.29	188.71	8.26	-40.7	-43.8	10.4	5.49e-03	0	58	0	200278016	52	5002
2026-01-27 15:02:06.33	188.95	8.57	-38.7	-41.0	13.3	1.71e-05	0	58	0	221249536	48	4593
2026-01-27 15:02:10.37	189.19	8.88	-38.3	-40.6	13.6	1.02e-05	0	59	0	250609664	47	4611
2026-01-27 15:02:14.41	189.43	9.20	-37.7	-39.8	14.4	1.10e-06	0	59	0	279969792	46	4463
2026-01-27 15:02:18.44	189.69	9.52	-37.8	-39.9	14.4	1.10e-06	0	59	0	309329920	46	4496
2026-01-27 15:02:22.48	189.94	9.85	-37.4	-39.5	14.7	0.00e+00	0	59	0	338690048	45	4565
2026-01-27 15:02:26.52	190.20	10.18	-37.6	-39.7	14.6	1.10e-06	0	59	0	367001600	45	4670
2026-01-27 15:02:30.56	190.47	10.51	-37.2	-39.2	15.1	0.00e+00	0	59	0	396361728	45	4396
2026-01-27 15:02:34.60	190.75	10.85	-37.3	-39.4	14.9	0.00e+00	0	59	0	425721856	45	4502
2026-01-27 15:02:38.64	191.03	11.19	-37.2	-39.3	15.0	0.00e+00	0	59	0	455081984	45	4470
2026-01-27 15:02:42.68	191.31	11.54	-37.2	-39.3	15.0	0.00e+00	0	59	0	484442112	45	4459
2026-01-27 15:02:46.72	191.61	11.89	-37.1	-39.2	15.2	0.00e+00	0	59	0	513802240	44	4675
2026-01-27 15:02:50.75	191.91	12.25	-37.0	-39.0	15.3	0.00e+00	0	59	0	542113792	44	4574
2026-01-27 15:02:54.79	192.21	12.61	-37.1	-39.1	15.3	0.00e+00	0	60	0	571473920	44	4637
2026-01-27 15:02:58.84	192.53	12.97	-37.0	-39.0	15.4	0.00e+00	0	60	0	600834048	44	4596
2026-01-27 15:03:02.88	192.85	13.34	-36.5	-38.4	15.8	0.00e+00	0	60	0	630194176	43	4515
2026-01-27 15:03:06.92	193.18	13.71	-36.4	-38.3	16.0	0.00e+00	0	60	0	659554304	43	4445
2026-01-27 15:03:10.97	193.52	14.09	-36.4	-38.3	16.0	0.00e+00	0	60	0	688914432	43	4452
2026-01-27 15:03:15.01	193.87	14.48	-36.3	-38.2	16.1	0.00e+00	0	60	0	717225984	43	4411
2026-01-27 15:03:19.05	194.22	14.87	-36.5	-38.4	15.9	0.00e+00	0	60	0	746586112	43	4517
2026-01-27 15:03:23.09	194.59	15.26	-36.5	-38.5	15.8	0.00e+00	0	60	0	775946240	43	4554
2026-01-27 15:03:27.13	194.96	15.66	-36.3	-38.1	16.2	0.00e+00	0	60	0	805306368	42	4643
2026-01-27 15:03:31.17	195.34	16.07	-36.2	-38.1	16.3	0.00e+00	0	60	0	834666496	42	4611
2026-01-27 15:03:35.21	195.74	16.48	-36.1	-37.9	16.5	0.00e+00	0	60	0	862978048	42	4524
2026-01-27 15:03:39.25	196.14	16.90	-36.1	-37.9	16.5	0.00e+00	0	61	0	892338176	42	4516
2026-01-27 15:03:43.29	196.56	17.32	-35.7	-37.4	17.0	0.00e+00	0	61	0	921698304	42	4270
2026-01-27 15:03:47.33	196.98	17.75	-35.4	-37.1	17.2	0.00e+00	0	61	0	951058432	41	4380
2026-01-27 15:03:51.38	197.42	18.18	-35.4	-37.1	17.3	0.00e+00	0	61	0	980418560	41	4347
2026-01-27 15:03:55.42	197.88	18.62	-35.2	-36.9	17.4	0.00e+00	0	61	0	1009778688	40	4512
2026-01-27 15:03:59.46	198.34	19.07	-35.4	-37.1	17.2	0.00e+00	0	61	0	1038090240	40	4640
2026-01-27 15:04:03.50	198.82	19.53	-35.4	-37.1	17.3	0.00e+00	0	61	0	1067450368	40	4610
2026-01-27 15:04:07.55	199.31	19.99	-35.5	-37.2	17.1	0.00e+00	0	61	0	1096810496	41	4441
2026-01-27 15:04:11.58	199.82	20.45	-35.3	-37.0	17.4	0.00e+00	0	61	0	1126170624	41	4321
2026-01-27 15:04:15.63	200.34	20.93	-35.5	-37.3	17.1	0.00e+00	0	61	0	1155530752	41	4472
2026-01-27 15:04:19.66	200.88	21.41	-35.0	-36.6	17.8	0.00e+00	0	61	0	1183842304	41	4140
2026-01-27 15:04:23.71	201.43	21.89	-35.1	-36.8	17.6	0.00e+00	0	61	0	1213202432	40	4477
2026-01-27 15:04:27.75	202.00	22.39	-35.2	-36.9	17.5	0.00e+00	0	61	0	1242562560	40	4539
2026-01-27 15:04:31.79	202.59	22.89	-35.2	-36.8	17.6	0.00e+00	0	61	0	1271922688	40	4477
2026-01-27 15:04:35.83	203.20	23.39	-35.0	-36.6	17.8	0.00e+00	0	61	0	1301282816	40	4374
2026-01-27 15:04:39.87	203.83	23.91	-35.0	-36.7	17.8	0.00e+00	0	61	0	1330642944	40	4400
2026-01-27 15:04:43.91	204.47	24.43	-35.0	-36.6	17.8	0.00e+00	0	61	0	1358954496	40	4386
2026-01-27 15:04:47.95	205.14	24.95	-34.9	-36.6	17.8	0.00e+00	0	61	0	1388314624	40	4382
2026-01-27 15:04:52.00	205.84	25.49	-34.8	-36.4	18.0	0.00e+00	0	61	0	1417674752	40	4291
2026-01-27 15:04:56.04	206.55	26.03	-34.8	-36.4	18.0	0.00e+00	0	61	0	1447034880	40	4287
2026-01-27 15:05:00.08	207.29	26.58	-34.7	-36.3	18.1	0.00e+00	0	61	0	1476395008	40	4239
2026-01-27 15:05:04.13	208.06	27.13	-34.3	-35.8	18.7	0.00e+00	0	61	0	1504706560	39	4240
2026-01-27 15:05:08.17	208.85	27.69	-34.1	-35.6	18.9	0.00e+00	0	62	0	1534066688	39	4138
2026-01-27 15:05:12.21	209.67	28.25	-34.2	-35.8	18.7	0.00e+00	0	61	0	1563426816	39	4221
2026-01-27 15:05:16.25	210.52	28.82	-34.5	-36.2	18.3	0.00e+00	0	62	0	1592786944	39	4398
2026-01-27 15:05:20.29	211.40	29.39	-34.7	-36.3	18.2	0.00e+00	0	62	0	1622147072	39	4487
2026-01-27 15:05:24.34	212.31	29.97	-34.7	-36.3	18.2	0.00e+00	0	62	0	1651507200	39	4479
2026-01-27 15:05:28.38	213.25	30.55	-34.6	-36.2	18.4	0.00e+00	0	62	0	1679818752	39	4392
2026-01-27 15:05:32.42	214.22	31.14	-34.6	-36.1	18.5	0.00e+00	0	61	0	1709178880	39	4376
2026-01-27 15:05:36.46	215.23	31.72	-34.5	-36.0	18.6	0.00e+00	0	62	0	1738539008	39	4334
2026-01-27 15:05:40.50	216.28	32.31	-34.3	-35.8	18.7	0.00e+00	0	62	0	1767899136	39	4239
2026-01-27 15:05:44.55	217.37	32.90	-34.4	-36.0	18.6	0.00e+00	0	62	0	1797259264	39	4311
2026-01-27 15:05:48.59	218.50	33.49	-34.4	-36.0	18.5	0.00e+00	0	62	0	1825570816	39	4325
2026-01-27 15:05:52.63	219.66	34.08	-34.5	-36.2	18.4	0.00e+00	0	62	0	1854930944	39	4395
2026-01-27 15:05:56.68	220.87	34.67	-34.2	-35.8	18.7	0.00e+00	0	62	0	1884291072	39	4199
2026-01-27 15:06:00.72	222.12	35.25	-34.4	-35.9	18.5	0.00e+00	0	62	0	1913651200	39	4291
2026-01-27 15:06:04.76	223.42	35.83	-34.4	-35.9	18.7	0.00e+00	0	62	0	1943011328	39	4255
2026-01-27 15:06:08.81	224.76	36.40	-34.3	-35.8	18.8	0.00e+00	0	62	0	1972371456	39	4232
2026-01-27 15:06:12.85	226.15	36.97	-34.3	-35.8	18.7	0.00e+00	0	62	0	2001731584	39	4238
2026-01-27 15:06:16.89	227.59	37.52	-34.5	-36.1	18.5	0.00e+00	0	62	0	2030043136	39	4350
2026-01-27 15:06:20.93	229.07	38.06	-34.8	-36.4	18.2	0.00e+00	0	62	0	2059403264	39	4535
2026-01-27 15:06:24.97	230.61	38.59	-34.6	-36.2	18.4	0.00e+00	0	62	0	2088763392	39	4413
2026-01-27 15:06:29.02	232.19	39.11	-34.3	-35.7	18.9	0.00e+00	0	62	0	2118123520	39	4176
2026-01-27 15:06:33.06	233.82	39.60	-34.7	-36.3	18.3	0.00e+00	0	62	0	2147483648	39	4476
2026-01-27 15:06:37.10	235.51	40.08	-34.5	-36.2	18.4	0.00e+00	0	62	0	2176843776	39	4401
2026-01-27 15:06:41.14	237.23	40.54	-34.9	-36.5	18.1	0.00e+00	0	62	0	2205155328	39	4585
2026-01-27 15:06:45.18	239.01	40.97	-34.5	-36.1	18.6	0.00e+00	0	62	0	2234515456	39	4352
2026-01-27 15:06:49.22	240.83	41.37	-34.3	-35.8	18.9	0.00e+00	0	62	0	2263875584	39	4213
2026-01-27 15:06:53.26	242.70	41.75	-34.8	-35.8	19.3	0.00e+00	0	62	0	2293235712	39	4242
2026-01-27 15:06:57.31	244.61	42.10	-35.1	-36.2	19.0	0.00e+00	0	62	0	2322595840	39	4393
2026-01-27 15:07:01.35	246.56	42.41	-35.0	-36.1	19.0	0.00e+00	0	62	0	2351955968	40	4133
2026-01-27 15:07:05.39	248.54	42.69	-34.9	-36.0	19.1	0.00e+00	0	62	0	2380267520	40	4088
2026-01-27 15:07:09.44	250.56	42.93	-35.2	-36.4	18.7	0.00e+00	0	62	0	2409627648	40	4245
2026-01-27 15:07:13.48	252.60	43.13	-35.4	-36.6	18.5	0.00e+00	0	62	0	2438987776	40	4362
2026-01-27 15:07:17.52	254.67	43.30	-35.6	-36.8	18.3	0.00e+00	0	62	0	2468347904	40	4468
2026-01-27 15:07:21.56	256.75	43.42	-35.3	-36.5	18.7	0.00e+00	0	62	0	2497708032	40	4296
2026-01-27 15:07:25.61	258.85	43.51	-35.2	-36.3	18.8	0.00e+00	0	62	0	2527068160	40	4237
2026-01-27 15:07:29.65	260.95	43.55	-35.0	-36.1	18.9	0.00e+00	0	62	0	2555379712	40	4132
2026-01-27 15:07:33.70	263.07	43.55	-35.4	-36.5	18.6	0.00e+00	0	62	0	2584739840	40	4329
2026-01-27 15:07:37.74	265.17	43.50	-35.4	-36.6	18.5	0.00e+00	0	62	0	2614099968	40	4366
2026-01-27 15:07:41.78	267.26	43.42	-35.4	-36.6	18.6	0.00e+00	0	62	0	2643460096	40	4343
2026-01-27 15:07:45.83	269.35	43.29	-35.0	-36.1	18.9	0.00e+00	0	62	0	2672820224	40	4114
2026-01-27 15:07:49.87	271.41	43.12	-35.4	-36.6	18.5	0.00e+00	0	62	0	2702180352	40	4346
2026-01-27 15:07:53.91	273.45	42.92	-35.4	-36.5	18.5	0.00e+00	0	62	0	2730491904	40	4335
2026-01-27 15:07:57.95	275.46	42.67	-35.3	-36.4	18.7	0.00e+00	0	62	0	2759852032	40	4277
2026-01-27 15:08:01.99	277.44	42.39	-35.2	-36.4	18.7	0.00e+00	0	62	0	2789212160	40	4258
2026-01-27 15:08:06.03	279.38	42.08	-35.3	-36.4	18.7	0.00e+00	0	62	0	2818572288	40	4283
2026-01-27 15:08:10.08	281.29	41.73	-35.0	-36.1	19.0	0.00e+00	0	62	0	2847932416	40	4104
2026-01-27 15:08:14.11	283.14	41.36	-35.5	-36.6	18.5	0.00e+00	0	62	0	2876243968	40	4377
2026-01-27 15:08:18.15	284.96	40.95	-34.7	-35.7	19.3	0.00e+00	0	62	0	2905604096	40	3952
2026-01-27 15:08:22.19	286.73	40.52	-34.8	-35.9	19.1	0.00e+00	0	62	0	2934964224	40	4024
2026-01-27 15:08:26.23	288.45	40.07	-34.8	-35.9	19.2	0.00e+00	0	62	0	2964324352	40	4030
2026-01-27 15:08:30.27	290.12	39.59	-35.1	-36.3	18.8	0.00e+00	0	62	0	2993684480	40	4201
2026-01-27 15:08:34.31	291.75	39.09	-35.1	-36.2	18.9	0.00e+00	0	62	0	3023044608	40	4181
2026-01-27 15:08:38.35	293.32	38.58	-35.1	-36.2	18.8	0.00e+00	0	62	0	3051356160	40	4164
2026-01-27 15:08:42.40	294.86	38.05	-34.7	-35.8	19.3	0.00e+00	0	62	0	3080716288	40	3963
2026-01-27 15:08:46.43	296.33	37.51	-34.8	-35.9	19.2	0.00e+00	0	62	0	3110076416	40	4005
2026-01-27 15:08:50.47	297.76	36.96	-34.7	-35.7	19.3	0.00e+00	0	62	0	3139436544	40	3958
2026-01-27 15:08:54.52	299.15	36.40	-34.7	-35.7	19.3	0.00e+00	0	62	0	3168796672	40	3957
2026-01-27 15:08:58.56	300.48	35.83	-34.7	-35.8	19.3	0.00e+00	0	62	0	3197108224	39	4195
2026-01-27 15:09:02.60	301.77	35.26	-35.0	-36.1	19.0	0.00e+00	0	62	0	3226468352	39	4349
2026-01-27 15:09:06.64	303.02	34.68	-34.9	-36.0	19.1	0.00e+00	0	62	0	3255828480	39	4323
2026-01-27 15:09:10.68	304.22	34.09	-34.6	-35.7	19.4	0.00e+00	0	62	0	3285188608	39	4146
2026-01-27 15:09:14.72	305.38	33.51	-34.9	-35.9	19.1	0.00e+00	0	62	0	3314548736	39	4288
2026-01-27 15:09:18.76	306.50	32.92	-35.3	-36.4	18.6	0.00e+00	0	62	0	3343908864	40	4266
2026-01-27 15:09:22.80	307.58	32.34	-35.2	-36.3	18.7	0.00e+00	0	62	0	3372220416	40	4239
2026-01-27 15:09:26.84	308.63	31.75	-34.7	-35.8	19.2	0.00e+00	0	62	0	3401580544	40	3996
2026-01-27 15:09:30.88	309.64	31.17	-35.1	-36.2	18.7	0.00e+00	0	62	0	3430940672	40	4179
2026-01-27 15:09:34.93	310.61	30.58	-35.1	-36.2	18.7	0.00e+00	0	62	0	3460300800	40	4177
2026-01-27 15:09:38.97	311.55	30.01	-35.0	-36.2	18.8	0.00e+00	0	62	0	3489660928	40	4147
2026-01-27 15:09:43.01	312.45	29.43	-35.1	-36.2	18.8	0.00e+00	0	62	0	3517972480	40	4161
2026-01-27 15:09:47.06	313.33	28.86	-35.1	-36.2	18.7	0.00e+00	0	62	0	3547332608	40	4180
2026-01-27 15:09:51.10	314.18	28.30	-35.1	-36.2	18.7	0.00e+00	0	62	0	3576692736	40	4172
2026-01-27 15:09:55.13	314.99	27.74	-35.2	-36.4	18.5	0.00e+00	0	62	0	3606052864	40	4260
2026-01-27 15:09:59.17	315.78	27.18	-35.4	-36.5	18.4	0.00e+00	0	62	0	3635412992	40	4338
2026-01-27 15:10:03.22	316.55	26.63	-35.3	-36.4	18.5	0.00e+00	0	62	0	3664773120	40	4270
2026-01-27 15:10:07.26	317.28	26.09	-34.9	-36.0	18.9	0.00e+00	0	62	0	3693084672	40	4074
2026-01-27 15:10:11.30	318.00	25.56	-34.9	-36.0	18.9	0.00e+00	0	62	0	3722444800	40	4082
2026-01-27 15:10:15.33	318.69	25.03	-35.3	-36.4	18.4	0.00e+00	0	62	0	3751804928	40	4268
2026-01-27 15:10:19.38	319.36	24.50	-35.4	-36.6	18.3	0.00e+00	0	62	0	3781165056	40	4361
2026-01-27 15:10:23.42	320.01	23.99	-35.3	-36.4	18.4	0.00e+00	0	62	0	3810525184	40	4280
2026-01-27 15:10:27.46	320.63	23.48	-35.1	-36.3	18.6	0.00e+00	0	62	0	3838836736	40	4205
2026-01-27 15:10:31.50	321.24	22.97	-35.3	-36.4	18.4	0.00e+00	0	62	0	3868196864	40	4291
2026-01-27 15:10:35.54	321.83	22.48	-35.6	-36.8	18.0	0.00e+00	0	62	0	3897556992	40	4451
2026-01-27 15:10:39.57	322.40	21.99	-35.8	-37.0	17.8	0.00e+00	0	62	0	3926917120	41	4323
2026-01-27 15:10:43.62	322.95	21.50	-35.5	-36.7	18.0	0.00e+00	0	62	0	3956277248	41	4189
2026-01-27 15:10:47.65	323.49	21.03	-35.5	-36.7	18.1	0.00e+00	0	62	0	3985637376	41	4150
2026-01-27 15:10:51.69	324.01	20.56	-35.7	-36.9	17.8	0.00e+00	0	62	0	4013948928	41	4290
2026-01-27 15:10:55.74	324.52	20.09	-36.0	-37.2	17.5	0.00e+00	0	62	0	4043309056	41	4426
2026-01-27 15:10:59.78	325.01	19.63	-36.1	-37.4	17.4	0.00e+00	0	62	0	4072669184	41	4499
2026-01-27 15:11:03.81	325.49	19.18	-36.1	-37.3	17.4	0.00e+00	0	62	0	4102029312	41	4491
2026-01-27 15:11:07.85	325.96	18.74	-36.1	-37.4	17.3	0.00e+00	0	62	0	4131389440	41	4504
2026-01-27 15:11:11.89	326.41	18.30	-36.2	-37.5	17.2	0.00e+00	0	62	0	4159700992	42	4334
2026-01-27 15:11:15.93	326.85	17.87	-36.4	-37.7	17.0	0.00e+00	0	62	0	4189061120	42	4418
2026-01-27 15:11:19.98	327.28	17.44	-36.4	-37.8	16.8	0.00e+00	0	62	0	4218421248	42	4458
2026-01-27 15:11:24.02	327.70	17.02	-36.5	-37.9	16.7	0.00e+00	0	62	0	4247781376	42	4516
2026-01-27 15:11:28.06	328.10	16.61	-36.7	-38.1	16.5	0.00e+00	0	62	0	4277141504	43	4361
2026-01-27 15:11:32.10	328.50	16.20	-36.7	-38.1	16.4	0.00e+00	0	62	0	4306501632	43	4388
2026-01-27 15:11:36.14	328.88	15.79	-36.7	-38.0	16.5	0.00e+00	0	62	0	4334813184	43	4335
2026-01-27 15:11:40.18	329.26	15.40	-36.8	-38.2	16.3	0.00e+00	0	62	0	4364173312	43	4411
2026-01-27 15:11:44.22	329.63	15.00	-36.9	-38.3	16.2	0.00e+00	0	62	0	4393533440	43	4478
2026-01-27 15:11:48.26	329.98	14.62	-37.0	-38.5	16.0	0.00e+00	0	62	0	4422893568	43	4569
2026-01-27 15:11:52.30	330.33	14.24	-37.5	-39.0	15.6	0.00e+00	0	62	0	4452253696	44	4572
2026-01-27 15:11:56.35	330.67	13.86	-37.6	-39.1	15.5	0.00e+00	0	62	0	4480565248	44	4634
2026-01-27 15:12:00.39	331.00	13.49	-37.7	-39.3	15.3	0.00e+00	0	62	0	4509925376	45	4451
2026-01-27 15:12:04.43	331.33	13.12	-37.7	-39.2	15.3	0.00e+00	0	62	0	4539285504	45	4438
2026-01-27 15:12:08.48	331.65	12.76	-37.7	-39.3	15.2	0.00e+00	0	62	0	4568645632	45	4483
2026-01-27 15:12:12.52	331.96	12.40	-37.7	-39.3	15.2	0.00e+00	0	62	0	4598005760	45	4462
2026-01-27 15:12:16.56	332.26	12.05	-37.7	-39.3	15.2	0.00e+00	0	62	0	4627365888	45	4447
2026-01-27 15:12:20.60	332.56	11.70	-37.7	-39.3	15.1	0.00e+00	0	62	0	4655677440	45	4458
2026-01-27 15:12:24.65	332.85	11.35	-37.8	-39.4	14.9	1.10e-06	0	62	0	4685037568	45	4538
2026-01-27 15:12:28.69	333.13	11.01	-37.9	-39.5	14.8	1.10e-06	0	62	0	4714397696	45	4584
2026-01-27 15:12:32.73	333.41	10.67	-37.9	-39.6	14.7	0.00e+00	0	62	0	4743757824	45	4628
2026-01-27 15:12:36.77	333.68	10.34	-38.2	-39.9	14.3	1.10e-06	0	62	0	4773117952	45	4807
2026-01-27 15:12:40.81	333.94	10.01	-38.2	-40.0	14.2	1.10e-06	0	62	0	4801429504	46	4589
2026-01-27 15:12:44.85	334.21	9.69	-38.4	-40.3	13.9	2.20e-06	0	62	0	4830789632	46	4720
2026-01-27 15:12:48.89	334.46	9.37	-38.3	-40.1	14.0	2.20e-06	0	62	0	4860149760	46	4649
2026-01-27 15:12:52.92	334.71	9.05	-38.4	-40.3	13.7	8.00e-06	0	62	0	4889509888	46	4754
2026-01-27 15:12:56.97	334.96	8.74	-38.3	-40.2	13.8	9.10e-06	0	62	0	4918870016	46	4665
2026-01-27 15:13:01.00	335.19	8.43	-38.1	-40.0	13.9	9.10e-06	0	62	0	4948230144	46	4562
2026-01-27 15:13:05.04	335.43	8.12	-38.3	-40.2	13.6	1.94e-05	0	62	0	4976541696	46	4679
2026-01-27 15:13:09.09	335.66	7.82	-45.2	-56.2	3.8	8.46e-01	0	62	104	4989124608	59	14010
2026-01-27 15:13:13.13	335.89	7.52	-45.6	-56.9	3.8	8.47e-01	0	62	104	4989124608	60	14352
2026-01-27 15:13:17.17	336.11	7.22	-45.6	-57.0	3.8	8.47e-01	0	62	104	4989124608	60	14386
2026-01-27 15:13:21.21	336.33	6.93	-45.6	-57.0	3.8	8.46e-01	0	62	104	4989124608	60	14431
2026-01-27 15:13:25.25	336.54	6.64	-45.6	-56.9	3.8	8.47e-01	0	62	104	4989124608	60	14334
2026-01-27 15:13:29.29	336.75	6.35	-45.5	-57.0	3.8	8.46e-01	0	62	104	4989124608	60	14377
2026-01-27 15:13:33.33	336.96	6.07	-45.6	-56.9	3.8	8.46e-01	0	62	104	4989124608	60	14251
2026-01-27 15:13:37.38	337.17	5.79	-45.5	-56.9	3.8	8.45e-01	0	62	104	4989124608	60	14220
2026-01-27 15:13:41.42	337.37	5.51	-45.5	-56.9	3.8	8.45e-01	0	62	104	4989124608	60	14219
2026-01-27 15:13:45.46	337.56	5.23	-45.5	-56.9	3.8	8.47e-01	0	62	104	4989124608	60	14234
2026-01-27 15:13:49.51	337.75	4.96	-45.5	-56.9	3.8	8.45e-01	0	62	104	4989124608	60	14252
2026-01-27 15:13:53.55	337.94	4.68	-45.5	-56.8	3.8	8.45e-01	0	62	104	4989124608	60	14188
2026-01-27 15:13:57.59	338.13	4.42	-45.5	-56.8	3.8	8.45e-01	0	62	104	4989124608	60	14193
2026-01-27 15:14:01.63	338.31	4.15	-45.5	-56.8	3.8	8.48e-01	0	62	104	4989124608	60	14174
2026-01-27 15:14:05.67	338.50	3.89	-45.5	-56.8	3.8	8.47e-01	0	62	104	4989124608	60	14154
2026-01-27 15:14:09.71	338.67	3.62	-45.5	-56.9	3.8	8.47e-01	0	62	104	4989124608	60	14234
2026-01-27 15:14:13.75	338.85	3.37	-45.5	-56.8	3.8	8.45e-01	0	62	104	4989124608	60	14196
2026-01-27 15:14:17.79	339.02	3.11	-45.5	-56.9	3.8	8.47e-01	0	63	104	4989124608	60	14220
2026-01-27 15:14:21.83	339.19	2.85	-45.5	-56.8	3.8	8.45e-01	0	63	104	4989124608	60	14156
2026-01-27 15:14:25.87	339.36	2.60	-45.5	-56.9	3.8	8.46e-01	0	63	104	4989124608	60	14211
2026-01-27 15:14:29.91	339.52	2.35	-45.5	-56.8	3.8	8.46e-01	0	63	104	4989124608	60	14208
2026-01-27 15:14:33.95	339.68	2.10	-45.5	-56.8	3.8	8.47e-01	0	62	104	4989124608	60	14086

#Closed at: 2026-01-27 15:14:36
#Recorded file [4989 MB]: D:/lorett/data/31039_260127_180033.dat