passes_logs/2026/01/27/R2.0S_Moscow/R2.0S_Moscow__20260127_113725_FENGYUN_3D_rec.log

#Pass ID: 20260127_113725_FENGYUN 3D
#Satellite: FENGYUN 3D
#Configuration: FENGYUN 3D
#almurnet v.1.7.20251203
#Start time: 2026-01-27 11:38:59

#Version: 2.2.20231116
#Station: R2.0S_Moscow
#Location: 37.707566 lon 55.798166 lat
#TLE: 1 43010U 17072A   26026.91415486  .00000072  00000+0  55983-4 0  9991
#TLE: 2 43010  98.9962 358.9161 0002508  89.0320 271.1142 14.19700283424949

#Time	Az	El	Level	Level2	SNR	BER	BlckErr	Temp	State	Recorded	gain1	gain2
2026-01-27 11:38:59.97	148.14	8.88	-46.1	-64.6	3.8	7.46e-01	0	62	0	0	62	32740
2026-01-27 11:39:04.00	148.04	9.21	-45.4	-57.1	3.8	8.46e-01	0	62	104	0	62	13858
2026-01-27 11:39:08.05	147.95	9.55	-44.3	-55.8	3.8	8.46e-01	0	62	104	0	60	13371
2026-01-27 11:39:12.09	147.85	9.90	-44.6	-55.4	3.8	8.46e-01	0	62	104	0	59	13468
2026-01-27 11:39:16.13	147.75	10.25	-44.6	-55.2	3.8	8.46e-01	0	63	104	0	59	13175
2026-01-27 11:39:20.17	147.64	10.61	-44.5	-55.1	3.8	8.46e-01	0	62	104	0	59	13004
2026-01-27 11:39:24.21	147.54	10.97	-44.5	-54.9	3.8	8.46e-01	0	62	104	0	59	12710
2026-01-27 11:39:28.26	147.43	11.34	-44.3	-53.6	3.9	8.44e-01	0	62	104	0	59	11002
2026-01-27 11:39:32.30	147.32	11.71	-43.9	-50.9	4.9	7.89e-01	0	62	0	0	58	8479
2026-01-27 11:39:36.34	147.20	12.09	-43.3	-48.9	6.2	3.48e-01	0	62	0	10485760	57	7150
2026-01-27 11:39:40.38	147.08	12.47	-43.2	-48.8	6.2	3.05e-01	0	62	0	32505856	57	7109
2026-01-27 11:39:44.43	146.96	12.86	-43.0	-49.3	5.8	5.94e-01	0	62	0	50331648	57	7514
2026-01-27 11:39:48.47	146.83	13.26	-41.7	-45.5	9.2	3.74e-02	0	62	0	71303168	55	5461
2026-01-27 11:39:52.51	146.70	13.66	-39.8	-42.3	12.6	1.65e-04	0	62	0	94371840	51	4736
2026-01-27 11:39:56.55	146.57	14.07	-39.5	-41.8	8.0	8.09e-01	0	62	104	105906176	51	4469
2026-01-27 11:40:00.59	146.43	14.48	-38.5	-40.6	14.3	2.74e-05	0	62	0	126877696	48	4628
2026-01-27 11:40:04.63	146.29	14.90	-37.9	-39.8	15.0	1.02e-05	0	62	0	149946368	46	4728
2026-01-27 11:40:08.67	146.14	15.33	-37.3	-39.3	15.3	9.15e-05	0	62	0	171966464	46	4489
2026-01-27 11:40:12.71	145.99	15.77	-37.4	-39.2	15.7	2.20e-06	0	62	0	195035136	46	4394
2026-01-27 11:40:16.75	145.83	16.22	-37.0	-38.8	16.0	1.10e-06	0	62	0	217055232	45	4480
2026-01-27 11:40:20.80	145.67	16.67	-37.1	-38.9	16.0	1.10e-06	0	62	0	240123904	45	4510
2026-01-27 11:40:24.83	145.50	17.13	-37.4	-39.2	15.7	2.20e-06	0	62	0	263192576	45	4679
2026-01-27 11:40:28.88	145.33	17.60	-37.2	-39.0	15.9	0.00e+00	0	62	0	286261248	45	4548
2026-01-27 11:40:32.92	145.15	18.08	-36.9	-38.6	16.3	0.00e+00	0	62	0	308281344	45	4378
2026-01-27 11:40:36.96	144.97	18.57	-36.8	-38.5	16.5	0.00e+00	0	62	0	331350016	45	4327
2026-01-27 11:40:40.99	144.78	19.06	-36.9	-38.6	16.4	0.00e+00	0	62	0	354418688	45	4359
2026-01-27 11:40:45.03	144.58	19.57	-36.9	-38.6	16.5	1.10e-06	0	62	0	376438784	45	4341
2026-01-27 11:40:49.07	144.38	20.09	-36.8	-38.5	16.5	0.00e+00	0	62	0	399507456	45	4326
2026-01-27 11:40:53.12	144.17	20.62	-36.8	-38.4	16.6	0.00e+00	0	62	0	421527552	45	4274
2026-01-27 11:40:57.16	143.95	21.16	-36.7	-38.3	16.7	0.00e+00	0	62	0	444596224	45	4230
2026-01-27 11:41:01.20	143.72	21.71	-36.6	-38.2	16.8	0.00e+00	0	62	0	467664896	45	4190
2026-01-27 11:41:05.24	143.48	22.27	-36.2	-37.8	17.3	0.00e+00	0	62	0	490733568	44	4204
2026-01-27 11:41:09.28	143.24	22.84	-36.3	-37.9	17.2	0.00e+00	0	62	0	512753664	44	4280
2026-01-27 11:41:13.32	142.98	23.43	-36.3	-37.9	17.2	0.00e+00	0	62	0	535822336	44	4244
2026-01-27 11:41:17.36	142.72	24.03	-36.0	-37.6	17.6	0.00e+00	0	62	0	558891008	44	4105
2026-01-27 11:41:21.41	142.44	24.65	-35.8	-37.3	17.6	0.00e+00	0	62	0	580911104	43	4236
2026-01-27 11:41:25.45	142.15	25.27	-35.9	-37.4	17.6	0.00e+00	0	62	0	603979776	43	4258
2026-01-27 11:41:29.49	141.85	25.91	-35.5	-37.0	18.0	0.00e+00	0	62	0	627048448	42	4302
2026-01-27 11:41:33.53	141.54	26.57	-35.6	-37.1	18.0	0.00e+00	0	62	0	649068544	42	4346
2026-01-27 11:41:37.58	141.21	27.24	-35.7	-37.2	17.8	0.00e+00	0	63	0	672137216	42	4424
2026-01-27 11:41:41.62	140.87	27.93	-35.6	-37.1	17.9	0.00e+00	0	62	0	695205888	42	4361
2026-01-27 11:41:45.67	140.51	28.63	-35.4	-36.8	18.2	0.00e+00	0	62	0	717225984	42	4223
2026-01-27 11:41:49.71	140.14	29.36	-35.4	-36.8	18.2	0.00e+00	0	62	0	740294656	42	4215
2026-01-27 11:41:53.75	139.75	30.09	-35.4	-36.8	18.2	0.00e+00	0	62	0	763363328	42	4208
2026-01-27 11:41:57.79	139.34	30.85	-35.2	-36.6	18.4	0.00e+00	0	62	0	786432000	42	4114
2026-01-27 11:42:01.83	138.90	31.62	-35.1	-36.5	18.5	0.00e+00	0	62	0	808452096	42	4059
2026-01-27 11:42:05.88	138.45	32.42	-35.0	-36.4	18.6	0.00e+00	0	62	0	831520768	42	4029
2026-01-27 11:42:09.92	137.97	33.23	-34.9	-36.3	18.7	0.00e+00	0	62	0	853540864	41	4207
2026-01-27 11:42:13.96	137.47	34.06	-35.2	-36.6	18.4	0.00e+00	0	62	0	876609536	41	4372
2026-01-27 11:42:18.00	136.94	34.91	-34.9	-36.3	18.7	0.00e+00	0	62	0	899678208	41	4216
2026-01-27 11:42:22.04	136.39	35.78	-34.8	-36.1	18.9	0.00e+00	0	62	0	922746880	41	4129
2026-01-27 11:42:26.08	135.80	36.68	-35.0	-36.4	18.7	0.00e+00	0	62	0	944766976	41	4254
2026-01-27 11:42:30.12	135.17	37.59	-35.2	-36.7	18.4	0.00e+00	0	62	0	967835648	41	4397
2026-01-27 11:42:34.16	134.51	38.53	-35.2	-36.6	18.5	0.00e+00	0	62	0	990904320	41	4352
2026-01-27 11:42:38.21	133.81	39.49	-34.9	-36.3	18.8	0.00e+00	0	62	0	1012924416	41	4203
2026-01-27 11:42:42.25	133.06	40.47	-35.3	-36.8	18.3	0.00e+00	0	62	0	1035993088	41	4446
2026-01-27 11:42:46.29	132.27	41.47	-35.3	-36.7	18.3	0.00e+00	0	62	0	1059061760	41	4436
2026-01-27 11:42:50.33	131.43	42.49	-35.4	-36.8	18.2	0.00e+00	0	62	0	1081081856	41	4492
2026-01-27 11:42:54.37	130.53	43.54	-35.7	-37.1	18.0	0.00e+00	0	62	0	1104150528	41	4643
2026-01-27 11:42:58.42	129.56	44.60	-35.7	-37.1	18.1	0.00e+00	0	62	0	1127219200	42	4360
2026-01-27 11:43:02.46	128.53	45.69	-35.5	-36.9	18.2	0.00e+00	0	63	0	1149239296	42	4291
2026-01-27 11:43:06.50	127.42	46.79	-35.7	-37.1	18.0	0.00e+00	0	62	0	1172307968	42	4387
2026-01-27 11:43:10.54	126.24	47.91	-35.8	-37.3	17.9	0.00e+00	0	62	0	1195376640	42	4447
2026-01-27 11:43:14.59	124.96	49.04	-35.9	-37.3	17.9	0.00e+00	0	62	0	1218445312	42	4465
2026-01-27 11:43:18.63	123.58	50.19	-36.5	-38.1	17.1	0.00e+00	0	62	0	1240465408	43	4626
2026-01-27 11:43:22.67	122.09	51.35	-36.3	-37.8	17.4	0.00e+00	0	62	0	1263534080	43	4451
2026-01-27 11:43:26.71	120.49	52.51	-35.9	-37.3	17.9	0.00e+00	0	62	0	1285554176	43	4233
2026-01-27 11:43:30.76	118.74	53.68	-36.4	-38.0	17.2	0.00e+00	0	62	0	1308622848	43	4549
2026-01-27 11:43:34.80	116.85	54.84	-35.9	-37.3	17.9	0.00e+00	0	62	0	1331691520	43	4233
2026-01-27 11:43:38.84	114.81	55.99	-36.4	-37.9	17.3	0.00e+00	0	62	0	1354760192	43	4526
2026-01-27 11:43:42.89	112.58	57.13	-36.3	-37.9	17.3	0.00e+00	0	63	0	1376780288	43	4506
2026-01-27 11:43:46.93	110.16	58.25	-35.9	-37.3	17.8	0.00e+00	0	62	0	1399848960	43	4241
2026-01-27 11:43:50.97	107.54	59.33	-36.1	-37.7	17.5	0.00e+00	0	62	0	1422917632	43	4396
2026-01-27 11:43:55.01	104.69	60.37	-35.8	-37.3	17.9	0.00e+00	0	62	0	1444937728	43	4203
2026-01-27 11:43:59.05	101.61	61.36	-35.7	-37.1	18.0	0.00e+00	0	62	0	1468006400	42	4384
2026-01-27 11:44:03.09	98.28	62.29	-35.3	-36.7	18.4	0.00e+00	0	62	0	1491075072	42	4176
2026-01-27 11:44:07.14	94.68	63.14	-35.1	-36.5	18.6	0.00e+00	0	62	0	1513095168	41	4325
2026-01-27 11:44:11.18	90.85	63.89	-34.9	-36.2	18.9	0.00e+00	0	62	0	1536163840	41	4169
2026-01-27 11:44:15.22	86.77	64.54	-35.2	-36.6	18.5	0.00e+00	0	62	0	1559232512	41	4349
2026-01-27 11:44:19.26	82.48	65.08	-34.4	-35.6	19.3	0.00e+00	0	62	0	1581252608	40	4140
2026-01-27 11:44:23.30	78.01	65.48	-34.7	-36.0	19.0	0.00e+00	0	62	0	1604321280	40	4339
2026-01-27 11:44:27.35	73.38	65.75	-34.3	-35.5	19.4	0.00e+00	0	62	0	1627389952	40	4093
2026-01-27 11:44:31.39	68.69	65.87	-34.5	-35.8	19.2	0.00e+00	0	62	0	1650458624	40	4199
2026-01-27 11:44:35.43	63.97	65.84	-34.5	-35.8	19.2	0.00e+00	0	62	0	1672478720	40	4203
2026-01-27 11:44:39.47	59.30	65.67	-34.4	-35.7	19.3	0.00e+00	0	62	0	1695547392	40	4178
2026-01-27 11:44:43.52	54.72	65.35	-34.3	-35.6	19.4	0.00e+00	0	62	0	1717567488	40	4132
2026-01-27 11:44:47.56	50.31	64.89	-34.6	-35.9	19.1	0.00e+00	0	62	0	1740636160	40	4260
2026-01-27 11:44:51.60	46.10	64.32	-35.1	-36.4	18.6	0.00e+00	0	62	0	1763704832	40	4542
2026-01-27 11:44:55.65	42.11	63.62	-34.9	-36.3	18.8	0.00e+00	0	62	0	1786773504	40	4467
2026-01-27 11:44:59.69	38.37	62.83	-35.3	-36.7	18.4	0.00e+00	0	62	0	1808793600	41	4403
2026-01-27 11:45:03.73	34.89	61.96	-35.0	-36.4	18.7	0.00e+00	0	62	0	1831862272	41	4250
2026-01-27 11:45:07.77	31.65	61.01	-35.3	-36.7	18.4	0.00e+00	0	62	0	1854930944	41	4419
2026-01-27 11:45:11.81	28.66	60.00	-35.8	-37.2	17.9	0.00e+00	0	62	0	1876951040	42	4419
2026-01-27 11:45:15.86	25.90	58.94	-35.5	-36.9	18.2	0.00e+00	0	62	0	1900019712	42	4268
2026-01-27 11:45:19.90	23.36	57.85	-35.7	-37.2	18.0	0.00e+00	0	62	0	1923088384	42	4392
2026-01-27 11:45:23.94	21.02	56.73	-35.9	-37.3	17.8	0.00e+00	0	62	0	1945108480	42	4480
2026-01-27 11:45:27.99	18.86	55.58	-35.8	-37.2	17.9	0.00e+00	0	62	0	1968177152	42	4407
2026-01-27 11:45:32.03	16.88	54.43	-35.8	-37.2	18.0	0.00e+00	0	62	0	1991245824	43	4159
2026-01-27 11:45:36.07	15.06	53.27	-36.0	-37.5	17.7	0.00e+00	0	63	0	2013265920	43	4307
2026-01-27 11:45:40.11	13.37	52.11	-36.0	-37.4	17.7	0.00e+00	0	62	0	2036334592	43	4289
2026-01-27 11:45:44.15	11.81	50.95	-36.2	-37.8	17.3	0.00e+00	0	63	0	2059403264	43	4445
2026-01-27 11:45:48.19	10.37	49.80	-35.7	-37.1	17.9	0.00e+00	0	63	0	2082471936	43	4136
2026-01-27 11:45:52.24	9.03	48.66	-35.8	-37.2	17.9	0.00e+00	0	62	0	2104492032	43	4179
2026-01-27 11:45:56.28	7.79	47.54	-35.6	-36.9	18.5	0.00e+00	0	62	0	2127560704	42	4252
2026-01-27 11:46:00.32	6.64	46.43	-35.0	-36.3	19.0	0.00e+00	0	63	0	2149580800	42	3960
2026-01-27 11:46:04.36	5.56	45.34	-35.6	-36.9	18.4	0.00e+00	0	62	0	2172649472	42	4264
2026-01-27 11:46:08.40	4.56	44.27	-35.4	-36.8	18.5	0.00e+00	0	62	0	2195718144	42	4215
2026-01-27 11:46:12.45	3.62	43.21	-35.4	-36.7	18.6	0.00e+00	0	62	0	2218786816	42	4163
2026-01-27 11:46:16.49	2.74	42.18	-34.8	-36.0	19.2	0.00e+00	0	62	0	2240806912	41	4067
2026-01-27 11:46:20.53	1.92	41.17	-35.1	-36.3	18.9	0.00e+00	0	62	0	2263875584	41	4231
2026-01-27 11:46:24.57	1.15	40.18	-34.9	-36.2	19.0	0.00e+00	0	62	0	2286944256	41	4162
2026-01-27 11:46:28.62	0.42	39.21	-34.9	-36.1	19.1	0.00e+00	0	62	0	2308964352	41	4135
2026-01-27 11:46:32.66	359.74	38.26	-34.8	-36.0	19.2	0.00e+00	0	62	0	2332033024	41	4068
2026-01-27 11:46:36.70	359.09	37.34	-34.8	-36.0	19.2	0.00e+00	0	62	0	2355101696	41	4094
2026-01-27 11:46:40.75	358.48	36.43	-35.2	-36.4	18.8	0.00e+00	0	62	0	2377121792	41	4290
2026-01-27 11:46:44.79	357.91	35.55	-35.3	-36.5	18.7	0.00e+00	0	62	0	2400190464	41	4336
2026-01-27 11:46:48.83	357.36	34.69	-35.4	-36.7	18.5	0.00e+00	0	63	0	2423259136	41	4413
2026-01-27 11:46:52.86	356.85	33.85	-35.1	-36.4	18.8	0.00e+00	0	62	0	2445279232	41	4244
2026-01-27 11:46:56.90	356.36	33.03	-35.1	-36.4	18.8	0.00e+00	0	62	0	2468347904	41	4256
2026-01-27 11:47:00.94	355.89	32.22	-35.2	-36.4	18.7	0.00e+00	0	62	0	2491416576	41	4282
2026-01-27 11:47:04.98	355.45	31.44	-35.1	-36.4	18.7	0.00e+00	0	62	0	2514485248	41	4265
2026-01-27 11:47:09.02	355.03	30.68	-35.2	-36.5	18.6	0.00e+00	0	62	0	2536505344	41	4314
2026-01-27 11:47:13.06	354.63	29.93	-35.2	-36.5	18.6	0.00e+00	0	62	0	2559574016	41	4316
2026-01-27 11:47:17.10	354.24	29.20	-35.2	-36.5	18.6	0.00e+00	0	62	0	2581594112	41	4306
2026-01-27 11:47:21.14	353.88	28.49	-35.3	-36.6	18.5	0.00e+00	0	62	0	2604662784	41	4341
2026-01-27 11:47:25.18	353.53	27.79	-35.4	-36.7	18.3	0.00e+00	0	62	0	2627731456	41	4428
2026-01-27 11:47:29.23	353.19	27.11	-35.6	-36.9	18.1	0.00e+00	0	63	0	2650800128	41	4526
2026-01-27 11:47:33.26	352.88	26.45	-35.4	-36.8	18.2	0.00e+00	0	62	0	2672820224	41	4452
2026-01-27 11:47:37.31	352.57	25.80	-35.3	-36.7	18.2	0.00e+00	0	62	0	2695888896	41	4394
2026-01-27 11:47:41.34	352.28	25.17	-35.6	-37.0	17.9	0.00e+00	0	62	0	2718957568	41	4553
2026-01-27 11:47:45.38	352.00	24.55	-36.0	-37.4	17.3	0.00e+00	0	62	0	2740977664	42	4542
2026-01-27 11:47:49.42	351.73	23.94	-35.9	-37.4	17.3	0.00e+00	0	62	0	2764046336	42	4496
2026-01-27 11:47:53.46	351.47	23.35	-35.9	-37.4	17.1	0.00e+00	0	62	0	2786066432	42	4498
2026-01-27 11:47:57.50	351.22	22.77	-36.0	-37.5	16.6	0.00e+00	0	62	0	2809135104	42	4588
2026-01-27 11:48:01.54	350.98	22.20	-35.6	-37.2	16.4	0.00e+00	0	62	0	2832203776	42	4401
2026-01-27 11:48:05.59	350.75	21.64	-35.8	-37.4	15.8	0.00e+00	0	62	0	2855272448	42	4544
2026-01-27 11:48:09.63	350.52	21.10	-38.7	-41.7	10.9	1.05e-03	0	62	0	2877292544	47	5558
2026-01-27 11:48:13.67	350.31	20.57	-40.7	-47.8	4.7	7.61e-01	0	62	0	2896166912	52	8433
2026-01-27 11:48:17.71	350.11	20.04	-41.0	-51.9	3.8	8.47e-01	0	62	104	2896166912	52	13464
2026-01-27 11:48:21.75	349.91	19.53	-41.0	-52.3	3.8	8.46e-01	0	62	104	2896166912	52	14187
2026-01-27 11:48:25.79	349.71	19.03	-41.0	-52.5	3.8	8.45e-01	0	62	104	2896166912	53	13702
2026-01-27 11:48:29.83	349.53	18.54	-40.9	-52.5	3.8	8.47e-01	0	62	104	2896166912	53	13645
2026-01-27 11:48:33.87	349.35	18.05	-40.8	-52.4	3.8	8.45e-01	0	62	104	2896166912	53	13527
2026-01-27 11:48:37.91	349.18	17.58	-40.8	-52.4	3.8	8.46e-01	0	63	104	2896166912	53	13477
2026-01-27 11:48:41.95	349.01	17.11	-40.9	-52.4	3.8	8.46e-01	0	62	104	2896166912	53	13500
2026-01-27 11:48:45.99	348.85	16.65	-41.0	-52.6	3.8	8.45e-01	0	62	104	2896166912	53	13727
2026-01-27 11:48:50.03	348.69	16.21	-41.6	-53.1	3.8	8.46e-01	0	62	104	2896166912	53	14659
2026-01-27 11:48:54.07	348.54	15.76	-41.2	-52.8	3.8	8.44e-01	0	62	104	2896166912	53	14088
2026-01-27 11:48:58.12	348.40	15.33	-41.3	-52.9	3.8	8.47e-01	0	62	104	2896166912	53	14219
2026-01-27 11:49:02.16	348.25	14.90	-41.3	-52.9	3.8	8.47e-01	0	62	104	2896166912	53	14254
2026-01-27 11:49:06.20	348.12	14.49	-41.3	-52.9	3.8	8.46e-01	0	62	104	2896166912	53	14280
2026-01-27 11:49:10.22	347.99	14.08	-41.3	-52.9	3.8	8.46e-01	0	62	104	2896166912	53	14298
2026-01-27 11:49:14.26	347.86	13.67	-41.3	-52.8	3.8	8.46e-01	0	62	104	2896166912	53	14209
2026-01-27 11:49:18.30	347.73	13.27	-41.2	-52.8	3.8	8.46e-01	0	63	104	2896166912	53	14153
2026-01-27 11:49:22.34	347.61	12.88	-41.2	-52.7	3.8	8.46e-01	0	62	104	2896166912	53	14045
2026-01-27 11:49:26.38	347.49	12.49	-41.1	-52.7	3.8	8.47e-01	0	62	104	2896166912	53	13901
2026-01-27 11:49:30.42	347.38	12.11	-41.1	-52.6	3.8	8.46e-01	0	62	104	2896166912	53	13827
2026-01-27 11:49:34.45	347.27	11.74	-41.0	-52.6	3.8	8.47e-01	0	63	104	2896166912	53	13859
2026-01-27 11:49:38.49	347.16	11.37	-41.1	-52.6	3.8	8.45e-01	0	63	104	2896166912	53	13867
2026-01-27 11:49:42.53	347.05	11.01	-41.0	-52.6	3.8	8.47e-01	0	63	104	2896166912	53	13791
2026-01-27 11:49:46.56	346.95	10.65	-41.0	-52.6	3.8	8.46e-01	0	62	104	2896166912	53	13810
2026-01-27 11:49:50.60	346.85	10.29	-41.0	-52.6	3.8	8.46e-01	0	62	104	2896166912	53	13868
2026-01-27 11:49:54.64	346.76	9.95	-41.0	-52.7	3.8	8.46e-01	0	62	104	2896166912	53	13926
2026-01-27 11:49:58.68	346.66	9.60	-41.0	-52.6	3.8	8.47e-01	0	62	104	2896166912	53	13823
2026-01-27 11:50:02.73	346.57	9.26	-40.9	-52.5	3.8	8.47e-01	0	62	104	2896166912	53	13612
2026-01-27 11:50:06.77	346.48	8.93	-40.9	-52.4	3.8	8.46e-01	0	62	104	2896166912	53	13529
2026-01-27 11:50:10.80	346.40	8.60	-40.8	-52.4	3.8	8.46e-01	0	62	104	2896166912	53	13505
2026-01-27 11:50:14.84	346.31	8.27	-40.8	-52.3	3.8	8.48e-01	0	62	104	2896166912	53	13385
2026-01-27 11:50:18.88	346.23	7.95	-40.9	-52.6	3.8	8.46e-01	0	62	104	2896166912	53	13750
2026-01-27 11:50:22.92	346.15	7.63	-44.9	-56.7	3.8	8.46e-01	0	62	104	2896166912	60	14816
2026-01-27 11:50:26.96	346.07	7.32	-45.2	-56.9	3.8	8.46e-01	0	63	104	2896166912	60	15205
2026-01-27 11:50:31.01	346.00	7.01	-44.9	-56.8	3.8	8.46e-01	0	62	104	2896166912	60	15048
2026-01-27 11:50:35.05	345.93	6.70	-45.1	-56.8	3.8	8.45e-01	0	62	104	2896166912	60	15016
2026-01-27 11:50:39.09	345.85	6.40	-45.1	-56.8	3.8	8.46e-01	0	62	104	2896166912	60	14976
2026-01-27 11:50:43.13	345.78	6.10	-45.1	-56.8	3.8	8.46e-01	0	62	104	2896166912	60	14880
2026-01-27 11:50:47.17	345.72	5.80	-45.1	-56.7	3.8	8.46e-01	0	62	104	2896166912	60	14826
2026-01-27 11:50:51.21	345.65	5.51	-45.1	-56.8	3.8	8.46e-01	0	62	104	2896166912	60	14904
2026-01-27 11:50:55.26	345.58	5.22	-44.5	-56.7	3.8	8.47e-01	0	62	104	2896166912	60	14859
2026-01-27 11:50:59.30	345.52	4.93	-45.1	-56.7	3.8	8.47e-01	0	62	104	2896166912	60	14874
2026-01-27 11:51:03.34	345.46	4.65	-45.0	-56.8	3.8	8.46e-01	0	62	104	2896166912	60	14887
2026-01-27 11:51:07.38	345.40	4.37	-45.0	-56.7	3.8	8.45e-01	0	62	104	2896166912	60	14837
2026-01-27 11:51:11.42	345.34	4.09	-45.1	-56.8	3.8	8.45e-01	0	62	104	2896166912	60	14894
2026-01-27 11:51:15.46	345.28	3.81	-45.1	-56.7	3.8	8.45e-01	0	62	104	2896166912	60	14813
2026-01-27 11:51:19.50	345.23	3.54	-45.0	-56.7	3.8	8.46e-01	0	63	104	2896166912	60	14870
2026-01-27 11:51:23.54	345.17	3.27	-45.0	-56.7	3.8	8.46e-01	0	62	104	2896166912	60	14826
2026-01-27 11:51:27.58	345.12	3.00	-45.1	-56.7	3.8	8.46e-01	0	63	104	2896166912	60	14842
2026-01-27 11:51:31.62	345.07	2.74	-45.0	-56.7	3.8	8.46e-01	0	62	104	2896166912	60	14848
2026-01-27 11:51:35.67	345.02	2.48	-45.0	-56.7	3.8	8.48e-01	0	62	104	2896166912	60	14854
2026-01-27 11:51:39.71	344.97	2.22	-45.0	-56.7	3.8	8.46e-01	0	62	104	2896166912	60	14814
2026-01-27 11:51:43.75	344.92	1.96	-45.0	-56.7	3.8	8.47e-01	0	62	104	2896166912	60	14840

#Closed at: 2026-01-27 11:51:44
#Recorded file [2896 MB]: D:/lorett/data/31039_260127_143859.dat