passes_logs/2026/01/27/R2.0S_Moscow/R2.0S_Moscow__20260127_011035_NOAA_20_JPSS-1_rec.log

#Pass ID: 20260127_011035_NOAA 20 (JPSS-1)
#Satellite: NOAA 20 (JPSS-1)
#Configuration: NOAA 20
#almurnet v.1.7.20251203
#Start time: 2026-01-27 01:10:35

#Version: 2.2.20231116
#Station: R2.0S_Moscow
#Location: 37.707566 lon 55.798166 lat
#TLE: 1 43013U 17073A   26026.46665230  .00000148  00000+0  91302-4 0  9998
#TLE: 2 43013  98.7646 327.2856 0001008  22.9532 337.1688 14.19540616424360

#Time	Az	El	Level	Level2	SNR	BER	BlckErr	Temp	State	Recorded	gain1	gain2
2026-01-27 01:10:35.15	10.75	2.00	-39.9	-54.5	3.8	1.49e+00	0	54	0	0	51	19197
2026-01-27 01:10:39.18	10.52	2.23	-39.9	-54.5	3.8	1.49e+00	0	54	104	0	51	19179
2026-01-27 01:10:43.22	10.28	2.47	-39.9	-54.4	3.8	1.49e+00	0	54	104	0	51	19159
2026-01-27 01:10:47.26	10.03	2.70	-39.9	-54.4	3.8	1.49e+00	0	54	104	0	51	19163
2026-01-27 01:10:51.30	9.78	2.94	-39.9	-54.4	3.8	1.49e+00	0	55	104	0	51	19067
2026-01-27 01:10:55.34	9.53	3.18	-39.9	-54.5	3.8	1.49e+00	0	55	104	0	51	19180
2026-01-27 01:10:59.38	9.27	3.42	-39.9	-54.4	3.8	1.49e+00	0	55	104	0	51	19126
2026-01-27 01:11:03.42	9.01	3.67	-39.9	-54.4	3.8	1.49e+00	0	55	104	0	51	19134
2026-01-27 01:11:07.47	8.75	3.91	-39.9	-54.4	3.8	1.49e+00	0	56	104	0	51	19159
2026-01-27 01:11:11.51	8.47	4.16	-39.9	-54.4	3.8	1.49e+00	0	56	104	0	51	19127
2026-01-27 01:11:15.55	8.20	4.40	-39.9	-54.4	3.8	1.49e+00	0	56	104	0	51	19157
2026-01-27 01:11:19.59	7.92	4.65	-39.9	-54.4	3.8	1.49e+00	0	56	104	0	51	19139
2026-01-27 01:11:23.63	7.63	4.90	-39.9	-54.4	3.8	1.49e+00	0	56	104	0	51	19127
2026-01-27 01:11:27.67	7.34	5.16	-39.9	-54.4	3.8	1.49e+00	0	57	104	0	51	19105
2026-01-27 01:11:31.71	7.04	5.41	-39.9	-54.4	3.8	1.49e+00	0	57	104	0	51	19154
2026-01-27 01:11:35.75	6.74	5.67	-39.9	-54.4	3.8	1.49e+00	0	57	104	0	51	19149
2026-01-27 01:11:39.79	6.43	5.93	-39.9	-54.4	3.8	1.49e+00	0	57	104	0	51	19119
2026-01-27 01:11:43.83	6.12	6.18	-39.9	-54.4	3.8	1.49e+00	0	58	104	0	51	19118
2026-01-27 01:11:47.88	5.80	6.45	-39.9	-54.4	3.8	1.49e+00	0	58	104	0	51	19155
2026-01-27 01:11:51.92	5.48	6.71	-39.9	-54.4	3.8	1.49e+00	0	58	104	0	51	19142
2026-01-27 01:11:55.96	5.14	6.97	-39.9	-54.4	3.8	1.49e+00	0	58	104	0	51	19103
2026-01-27 01:12:00.00	4.81	7.24	-39.9	-54.4	3.8	1.49e+00	0	58	104	0	51	19109
2026-01-27 01:12:04.04	4.46	7.51	-39.9	-54.4	3.8	1.49e+00	0	58	104	0	51	19147
2026-01-27 01:12:08.08	4.11	7.78	-39.9	-54.4	3.8	1.49e+00	0	58	104	0	51	19131
2026-01-27 01:12:12.12	3.75	8.05	-39.9	-54.4	3.8	1.49e+00	0	59	104	0	51	19156
2026-01-27 01:12:16.17	3.39	8.33	-40.0	-54.6	3.8	1.49e+00	0	59	104	0	51	19433
2026-01-27 01:12:20.21	3.01	8.60	-40.0	-54.6	3.8	1.49e+00	0	59	104	0	51	19484
2026-01-27 01:12:24.25	2.63	8.88	-40.1	-54.6	3.8	1.49e+00	0	59	104	0	51	19563
2026-01-27 01:12:28.28	2.25	9.16	-40.1	-54.7	3.8	1.49e+00	0	59	104	0	51	19642
2026-01-27 01:12:32.32	1.85	9.44	-40.1	-54.6	3.8	1.49e+00	0	59	104	0	51	19541
2026-01-27 01:12:36.37	1.45	9.72	-40.0	-54.6	3.8	1.49e+00	0	59	104	0	51	19545
2026-01-27 01:12:40.40	1.04	10.01	-40.1	-54.6	3.8	1.49e+00	0	59	104	0	51	19576
2026-01-27 01:12:44.44	0.62	10.29	-40.1	-54.7	3.8	1.49e+00	0	59	104	0	51	19754
2026-01-27 01:12:48.48	0.19	10.58	-40.1	-54.8	3.8	1.49e+00	0	59	104	0	51	19857
2026-01-27 01:12:52.52	359.75	10.87	-40.2	-54.8	3.8	1.49e+00	0	59	104	0	51	19989
2026-01-27 01:12:56.56	359.30	11.16	-40.0	-54.6	3.8	1.49e+00	0	60	104	0	51	19466
2026-01-27 01:13:00.60	358.85	11.46	-40.1	-54.7	3.8	1.49e+00	0	60	104	0	51	19822
2026-01-27 01:13:04.63	358.38	11.75	-40.1	-54.7	3.8	1.49e+00	0	60	104	0	52	18701
2026-01-27 01:13:08.67	357.91	12.05	-40.5	-55.0	3.8	1.49e+00	0	60	104	0	52	19236
2026-01-27 01:13:12.71	357.42	12.35	-40.9	-54.5	3.8	1.33e+00	0	60	104	0	53	17268
2026-01-27 01:13:16.75	356.93	12.65	-40.8	-47.5	7.3	1.45e-01	0	60	0	4194304	53	7711
2026-01-27 01:13:20.79	356.42	12.95	-41.0	-48.5	6.6	1.53e-01	0	60	0	12582912	53	8579
2026-01-27 01:13:24.83	355.90	13.25	-41.9	-53.7	4.0	1.25e+00	0	60	0	19922944	54	14737
2026-01-27 01:13:28.87	355.38	13.56	-41.4	-54.6	3.8	1.49e+00	0	60	104	19922944	54	16364
2026-01-27 01:13:32.91	354.84	13.87	-41.1	-55.3	3.8	1.49e+00	0	61	104	19922944	53	18914
2026-01-27 01:13:36.95	354.29	14.17	-40.5	-55.1	3.8	1.49e+00	0	61	104	19922944	52	19496
2026-01-27 01:13:41.00	353.72	14.48	-40.6	-55.1	3.8	1.49e+00	0	60	104	19922944	52	19604
2026-01-27 01:13:45.04	353.15	14.79	-40.8	-55.3	3.8	1.49e+00	0	61	104	19922944	52	20057
2026-01-27 01:13:49.08	352.56	15.10	-40.8	-55.3	3.8	1.49e+00	0	61	104	19922944	52	20063
2026-01-27 01:13:53.12	351.96	15.41	-40.8	-55.3	3.8	1.49e+00	0	61	104	19922944	52	20007
2026-01-27 01:13:57.15	351.35	15.72	-40.9	-55.4	3.8	1.49e+00	0	61	104	19922944	52	20280
2026-01-27 01:14:01.19	350.73	16.04	-40.8	-55.3	3.8	1.49e+00	0	61	104	19922944	52	20013
2026-01-27 01:14:05.23	350.09	16.35	-40.9	-55.4	3.8	1.49e+00	0	61	104	19922944	52	20296
2026-01-27 01:14:09.27	349.43	16.66	-41.3	-55.8	3.8	1.49e+00	0	61	104	19922944	53	19947
2026-01-27 01:14:13.31	348.77	16.98	-41.4	-55.9	3.8	1.49e+00	0	61	104	19922944	53	20122
2026-01-27 01:14:17.35	348.09	17.29	-41.3	-55.8	3.8	1.49e+00	0	61	104	19922944	53	19952
2026-01-27 01:14:21.38	347.39	17.60	-41.1	-55.6	3.8	1.49e+00	0	61	104	19922944	53	19614
2026-01-27 01:14:25.42	346.68	17.92	-40.9	-55.5	3.8	1.49e+00	0	61	104	19922944	53	19278
2026-01-27 01:14:29.46	345.96	18.23	-40.8	-55.4	3.8	1.49e+00	0	61	104	19922944	53	18992
2026-01-27 01:14:33.50	345.21	18.54	-40.8	-55.4	3.8	1.49e+00	0	61	104	19922944	53	19022
2026-01-27 01:14:37.54	344.46	18.85	-40.8	-55.4	3.8	1.49e+00	0	61	104	19922944	53	18999
2026-01-27 01:14:41.57	343.69	19.16	-40.9	-55.5	3.8	1.49e+00	0	62	104	19922944	53	19312
2026-01-27 01:14:45.61	342.90	19.46	-41.1	-55.7	3.8	1.49e+00	0	61	104	19922944	53	19641
2026-01-27 01:14:49.65	342.09	19.77	-40.9	-55.4	3.8	1.49e+00	0	62	104	19922944	53	19055
2026-01-27 01:14:53.69	341.27	20.07	-41.8	-55.0	3.8	1.49e+00	0	61	104	19922944	54	17205
2026-01-27 01:14:57.73	340.44	20.37	-42.2	-50.2	6.0	4.36e-01	0	61	0	20971520	55	9307
2026-01-27 01:15:01.76	339.58	20.67	-42.1	-48.1	8.3	7.01e-02	0	61	0	29360128	55	7336
2026-01-27 01:15:05.80	338.71	20.96	-41.4	-45.8	11.0	2.17e-03	0	61	0	36700160	54	5972
2026-01-27 01:15:09.84	337.83	21.25	-41.4	-45.4	11.8	5.43e-04	0	62	0	44040192	54	5673
2026-01-27 01:15:13.88	336.92	21.53	-41.2	-44.8	12.7	1.06e-04	0	62	0	51380224	54	5280
2026-01-27 01:15:17.92	336.00	21.81	-41.3	-44.9	12.7	7.24e-05	0	62	0	58720256	54	5350
2026-01-27 01:15:21.97	335.06	22.09	-41.4	-44.9	12.8	5.72e-05	0	62	0	67108864	54	5374
2026-01-27 01:15:26.01	334.10	22.36	-41.3	-44.7	13.1	2.82e-05	0	62	0	74448896	54	5248
2026-01-27 01:15:30.05	333.13	22.63	-41.3	-44.7	13.1	2.89e-05	0	62	0	81788928	54	5247
2026-01-27 01:15:34.09	332.14	22.88	-41.3	-44.6	13.2	3.12e-05	0	62	0	89128960	54	5202
2026-01-27 01:15:38.13	331.14	23.13	-41.5	-44.9	13.0	3.43e-05	0	62	0	97517568	54	5389
2026-01-27 01:15:42.16	330.12	23.38	-41.5	-45.0	12.9	4.57e-05	0	62	0	104857600	54	5413
2026-01-27 01:15:46.20	329.08	23.61	-41.5	-45.1	12.8	4.95e-05	0	62	0	112197632	54	5473
2026-01-27 01:15:50.24	328.03	23.84	-41.4	-44.8	13.1	3.73e-05	0	62	0	119537664	54	5305
2026-01-27 01:15:54.28	326.96	24.06	-41.3	-44.7	13.2	1.98e-05	0	62	0	126877696	54	5236
2026-01-27 01:15:58.32	325.87	24.27	-41.2	-44.5	13.4	1.22e-05	0	62	0	135266304	54	5121
2026-01-27 01:16:02.36	324.78	24.47	-41.2	-44.5	13.5	6.80e-06	0	62	0	142606336	54	5102
2026-01-27 01:16:06.39	323.67	24.66	-41.0	-44.2	13.8	5.30e-06	0	62	0	149946368	54	4928
2026-01-27 01:16:10.43	322.54	24.84	-41.1	-44.2	13.7	3.00e-06	0	62	0	157286400	53	5245
2026-01-27 01:16:14.47	321.40	25.01	-41.3	-44.7	13.2	2.36e-05	0	62	0	165675008	53	5544
2026-01-27 01:16:18.51	320.25	25.17	-41.3	-44.7	13.2	9.10e-06	0	62	0	173015040	53	5558
2026-01-27 01:16:22.55	319.09	25.31	-41.7	-45.3	12.6	9.07e-05	0	62	0	180355072	53	5957
2026-01-27 01:16:26.59	317.92	25.44	-41.7	-45.4	12.5	1.25e-04	0	62	0	187695104	54	5690
2026-01-27 01:16:30.63	316.74	25.57	-42.0	-46.0	11.8	3.75e-04	0	62	0	195035136	54	6109
2026-01-27 01:16:34.67	315.55	25.67	-42.1	-46.1	11.7	5.52e-04	0	62	0	203423744	54	6182
2026-01-27 01:16:38.71	314.35	25.77	-42.1	-46.1	11.8	5.25e-04	0	62	0	210763776	54	6150
2026-01-27 01:16:42.75	313.15	25.85	-42.0	-45.9	11.9	4.08e-04	0	62	0	218103808	54	6037
2026-01-27 01:16:46.79	311.94	25.92	-42.1	-46.2	11.7	6.42e-04	0	62	0	225443840	54	6232
2026-01-27 01:16:50.83	310.72	25.97	-42.3	-46.6	11.2	1.40e-03	0	62	0	233832448	55	6194
2026-01-27 01:16:54.87	309.50	26.01	-42.3	-46.7	11.1	1.74e-03	0	62	0	241172480	55	6220
2026-01-27 01:16:58.91	308.28	26.03	-42.4	-46.8	11.1	1.65e-03	0	62	0	248512512	55	6280
2026-01-27 01:17:02.95	307.06	26.04	-42.2	-46.4	11.4	9.70e-04	0	62	0	255852544	55	6031
2026-01-27 01:17:06.98	305.84	26.04	-41.9	-45.8	12.1	3.29e-04	0	62	0	263192576	55	5627
2026-01-27 01:17:11.03	304.61	26.02	-42.0	-46.0	11.9	3.97e-04	0	62	0	271581184	55	5737
2026-01-27 01:17:15.07	303.39	25.99	-41.8	-45.6	12.3	1.62e-04	0	62	0	278921216	55	5478
2026-01-27 01:17:19.10	302.18	25.94	-41.5	-45.0	12.9	4.65e-05	0	62	0	286261248	55	5122
2026-01-27 01:17:23.14	300.97	25.88	-41.4	-44.8	13.2	1.67e-05	0	62	0	293601280	54	5288
2026-01-27 01:17:27.19	299.75	25.81	-41.3	-44.7	13.3	1.60e-05	0	62	0	301989888	54	5240
2026-01-27 01:17:31.23	298.55	25.72	-41.0	-44.0	13.9	1.50e-06	0	62	0	309329920	53	5143
2026-01-27 01:17:35.27	297.36	25.62	-41.0	-44.1	13.8	2.20e-06	0	62	0	316669952	53	5165
2026-01-27 01:17:39.31	296.17	25.50	-41.0	-44.0	13.9	3.80e-06	0	62	0	324009984	53	5138
2026-01-27 01:17:43.35	294.99	25.38	-40.8	-43.8	14.0	2.20e-06	0	62	0	332398592	53	5041
2026-01-27 01:17:47.39	293.82	25.24	-41.1	-44.3	13.6	1.14e-05	0	62	0	339738624	53	5310
2026-01-27 01:17:51.43	292.67	25.08	-41.2	-44.5	13.4	1.44e-05	0	62	0	347078656	53	5428
2026-01-27 01:17:55.47	291.52	24.92	-41.2	-44.4	13.4	8.30e-06	0	62	0	354418688	53	5393
2026-01-27 01:17:59.51	290.39	24.75	-41.4	-44.8	13.1	1.52e-05	0	62	0	361758720	53	5598
2026-01-27 01:18:03.55	289.27	24.56	-41.5	-45.1	12.8	6.63e-05	0	62	0	370147328	53	5801
2026-01-27 01:18:07.59	288.16	24.36	-41.6	-45.2	12.7	1.14e-04	0	62	0	377487360	53	5908
2026-01-27 01:18:11.63	287.06	24.16	-41.7	-45.4	12.4	1.53e-04	0	62	0	384827392	54	5711
2026-01-27 01:18:15.67	285.99	23.94	-42.0	-46.0	11.8	4.21e-04	0	62	0	392167424	54	6087
2026-01-27 01:18:19.71	284.92	23.72	-42.0	-46.0	11.9	4.25e-04	0	62	0	400556032	54	6063
2026-01-27 01:18:23.75	283.87	23.48	-42.1	-46.2	11.6	7.14e-04	0	62	0	407896064	54	6224
2026-01-27 01:18:27.79	282.84	23.24	-42.1	-46.1	11.6	7.53e-04	0	62	0	415236096	54	6197
2026-01-27 01:18:31.83	281.82	23.00	-42.1	-46.2	11.6	6.13e-04	0	62	0	422576128	54	6209
2026-01-27 01:18:35.87	280.82	22.74	-42.1	-46.4	11.4	9.49e-04	0	62	0	429916160	54	6357
2026-01-27 01:18:39.91	279.84	22.48	-42.0	-46.0	11.8	4.94e-04	0	62	0	438304768	54	6087
2026-01-27 01:18:43.96	278.87	22.21	-42.1	-46.3	11.4	8.44e-04	0	62	0	445644800	54	6291
2026-01-27 01:18:47.99	277.92	21.94	-41.8	-45.7	12.1	2.93e-04	0	62	0	452984832	54	5859
2026-01-27 01:18:52.03	276.99	21.66	-41.8	-45.6	12.1	2.41e-04	0	62	0	460324864	54	5824
2026-01-27 01:18:56.08	276.07	21.37	-41.5	-45.1	12.6	1.03e-04	0	62	0	468713472	54	5521
2026-01-27 01:19:00.12	275.17	21.08	-41.5	-45.1	12.7	9.07e-05	0	62	0	476053504	54	5469
2026-01-27 01:19:04.16	274.29	20.79	-41.6	-45.3	12.4	1.01e-04	0	62	0	483393536	54	5613
2026-01-27 01:19:08.19	273.43	20.49	-41.5	-45.1	12.7	8.69e-05	0	62	0	490733568	54	5483
2026-01-27 01:19:12.23	272.58	20.20	-41.5	-45.2	12.5	1.06e-04	0	62	0	498073600	54	5560
2026-01-27 01:19:16.26	271.75	19.89	-41.6	-45.3	12.4	1.50e-04	0	62	0	506462208	54	5627
2026-01-27 01:19:20.31	270.93	19.59	-41.6	-45.3	12.4	1.46e-04	0	62	0	513802240	54	5626
2026-01-27 01:19:24.34	270.13	19.28	-41.4	-45.1	12.6	8.54e-05	0	62	0	521142272	54	5472
2026-01-27 01:19:28.38	269.35	18.97	-41.4	-45.1	12.6	7.09e-05	0	62	0	528482304	54	5466
2026-01-27 01:19:32.42	268.58	18.66	-41.4	-44.9	12.8	6.48e-05	0	62	0	536870912	54	5379
2026-01-27 01:19:36.46	267.83	18.35	-41.2	-44.6	13.1	3.58e-05	0	62	0	544210944	54	5163
2026-01-27 01:19:40.50	267.09	18.04	-41.0	-44.4	13.3	1.90e-05	0	62	0	551550976	54	5057
2026-01-27 01:19:44.54	266.37	17.72	-41.0	-44.4	13.3	1.52e-05	0	62	0	558891008	53	5346
2026-01-27 01:19:48.57	265.66	17.41	-41.0	-44.4	13.3	1.60e-05	0	62	0	566231040	53	5364
2026-01-27 01:19:52.61	264.97	17.10	-41.0	-44.4	13.3	2.21e-05	0	62	0	574619648	53	5371
2026-01-27 01:19:56.65	264.29	16.78	-40.9	-44.1	13.6	1.14e-05	0	62	0	581959680	53	5181
2026-01-27 01:20:00.70	263.63	16.47	-41.1	-44.4	13.2	1.67e-05	0	62	0	589299712	53	5378
2026-01-27 01:20:04.74	262.98	16.15	-41.1	-44.5	13.1	3.35e-05	0	62	0	596639744	53	5436
2026-01-27 01:20:08.78	262.34	15.84	-41.0	-44.4	13.2	1.14e-05	0	62	0	605028352	53	5346
2026-01-27 01:20:12.82	261.72	15.52	-41.0	-44.3	13.2	1.67e-05	0	62	0	612368384	53	5336
2026-01-27 01:20:16.86	261.11	15.21	-41.1	-44.6	13.0	5.56e-05	0	62	0	619708416	53	5483
2026-01-27 01:20:20.89	260.52	14.90	-41.2	-44.8	12.7	6.94e-05	0	62	0	627048448	53	5645
2026-01-27 01:20:24.93	259.93	14.59	-41.5	-45.4	12.0	2.94e-04	0	62	0	634388480	53	6040
2026-01-27 01:20:28.97	259.36	14.28	-41.7	-45.7	11.8	5.12e-04	0	62	0	642777088	53	6229
2026-01-27 01:20:33.01	258.80	13.97	-41.5	-45.5	12.0	3.70e-04	0	62	0	650117120	54	5733
2026-01-27 01:20:37.05	258.25	13.66	-41.5	-45.5	12.0	2.93e-04	0	62	0	657457152	54	5727
2026-01-27 01:20:41.09	257.71	13.35	-41.7	-45.9	11.5	8.66e-04	0	62	0	664797184	54	6021
2026-01-27 01:20:45.12	257.19	13.05	-41.7	-45.9	11.5	8.38e-04	0	62	0	673185792	54	6030
2026-01-27 01:20:49.17	256.67	12.75	-41.7	-45.8	11.6	6.93e-04	0	62	0	680525824	54	5959
2026-01-27 01:20:53.21	256.17	12.44	-41.7	-46.0	11.3	1.16e-03	0	62	0	687865856	54	6092
2026-01-27 01:20:57.24	255.68	12.14	-41.8	-46.2	11.0	2.65e-03	0	62	0	695205888	54	6245
2026-01-27 01:21:01.28	255.19	11.84	-41.9	-46.4	10.9	2.48e-03	0	62	0	702545920	54	6392
2026-01-27 01:21:05.32	254.72	11.55	-41.9	-46.3	11.0	1.98e-03	0	62	0	710934528	54	6319
2026-01-27 01:21:09.36	254.25	11.25	-41.9	-46.3	10.9	1.93e-03	0	62	0	718274560	54	6329
2026-01-27 01:21:13.40	253.80	10.96	-41.9	-46.5	10.7	3.00e-03	0	62	0	725614592	54	6489
2026-01-27 01:21:17.44	253.35	10.67	-41.9	-46.5	10.6	3.12e-03	0	62	0	732954624	54	6476
2026-01-27 01:21:21.48	252.92	10.37	-41.9	-46.5	10.6	3.33e-03	0	62	0	741343232	54	6488
2026-01-27 01:21:25.53	252.49	10.09	-42.1	-47.1	10.0	6.41e-03	0	62	0	748683264	54	6936
2026-01-27 01:21:29.57	252.07	9.80	-42.2	-47.4	9.7	1.05e-02	0	62	0	756023296	54	7123
2026-01-27 01:21:33.61	251.66	9.51	-42.2	-47.5	9.5	1.29e-02	0	62	0	763363328	55	6856
2026-01-27 01:21:37.65	251.25	9.23	-42.2	-47.6	9.4	1.60e-02	0	62	0	771751936	55	6905
2026-01-27 01:21:41.68	250.86	8.95	-42.3	-47.7	9.3	1.99e-02	0	62	0	779091968	55	7018
2026-01-27 01:21:45.72	250.47	8.67	-42.3	-48.0	9.0	2.47e-02	0	62	0	786432000	55	7234
2026-01-27 01:21:49.77	250.09	8.39	-42.3	-48.0	8.9	3.01e-02	0	62	0	793772032	55	7256
2026-01-27 01:21:53.81	249.72	8.12	-42.2	-47.8	9.1	2.35e-02	0	62	0	801112064	55	7049
2026-01-27 01:21:57.85	249.35	7.84	-44.7	-59.3	3.8	1.49e+00	0	62	104	805306368	60	19953
2026-01-27 01:22:01.89	248.99	7.57	-45.0	-59.6	3.8	1.49e+00	0	62	104	805306368	60	20549
2026-01-27 01:22:05.93	248.64	7.30	-45.0	-59.6	3.8	1.49e+00	0	62	104	805306368	60	20665
2026-01-27 01:22:09.97	248.30	7.03	-45.0	-59.5	3.8	1.49e+00	0	62	104	805306368	60	20376
2026-01-27 01:22:14.01	247.96	6.77	-44.9	-59.4	3.8	1.49e+00	0	62	104	805306368	60	20280
2026-01-27 01:22:18.06	247.62	6.50	-44.9	-59.4	3.8	1.49e+00	0	62	104	805306368	60	20254
2026-01-27 01:22:22.10	247.30	6.24	-44.9	-59.4	3.8	1.49e+00	0	62	104	805306368	60	20199
2026-01-27 01:22:26.13	246.98	5.98	-44.9	-59.4	3.8	1.49e+00	0	62	104	805306368	60	20196
2026-01-27 01:22:30.17	246.66	5.72	-44.9	-59.4	3.8	1.49e+00	0	62	104	805306368	60	20174
2026-01-27 01:22:34.22	246.35	5.46	-44.9	-59.4	3.8	1.49e+00	0	62	104	805306368	60	20231
2026-01-27 01:22:38.25	246.05	5.21	-44.9	-59.4	3.8	1.49e+00	0	62	104	805306368	60	20202
2026-01-27 01:22:42.30	245.75	4.95	-44.9	-59.4	3.8	1.49e+00	0	62	104	805306368	60	20148
2026-01-27 01:22:46.33	245.46	4.70	-44.9	-59.4	3.8	1.49e+00	0	62	104	805306368	60	20163
2026-01-27 01:22:50.37	245.17	4.45	-44.9	-59.4	3.8	1.49e+00	0	62	104	805306368	60	20115
2026-01-27 01:22:54.41	244.89	4.20	-44.9	-59.4	3.8	1.49e+00	0	62	104	805306368	60	20217
2026-01-27 01:22:58.45	244.61	3.95	-44.9	-59.4	3.8	1.49e+00	0	62	104	805306368	60	20174
2026-01-27 01:23:02.50	244.34	3.71	-44.9	-59.4	3.8	1.49e+00	0	62	104	805306368	60	20120
2026-01-27 01:23:06.54	244.07	3.46	-44.9	-59.4	3.8	1.49e+00	0	62	104	805306368	60	20157
2026-01-27 01:23:10.58	243.81	3.22	-44.9	-59.4	3.8	1.49e+00	0	62	104	805306368	60	20102
2026-01-27 01:23:14.62	243.55	2.98	-44.9	-59.4	3.8	1.49e+00	0	62	104	805306368	60	20144
2026-01-27 01:23:18.66	243.29	2.74	-44.9	-59.4	3.8	1.49e+00	0	62	104	805306368	60	20104
2026-01-27 01:23:22.70	243.04	2.50	-44.9	-59.3	3.8	1.49e+00	0	62	104	805306368	60	20068
2026-01-27 01:23:26.74	242.79	2.27	-44.9	-59.4	3.8	1.49e+00	0	62	104	805306368	60	20077
2026-01-27 01:23:30.78	242.55	2.03	-44.8	-59.4	3.8	1.49e+00	0	62	104	805306368	60	20101

#Closed at: 2026-01-27 01:23:31
#Recorded file [805 MB]: D:/lorett/data/31039_260127_041034.dat