passes_logs/2026/01/27/R2.0S_Moscow/R2.0S_Moscow__20260127_130438_AQUA_rec.log

#Pass ID: 20260127_130438_AQUA
#Satellite: AQUA
#Configuration: AQUA
#almurnet v.1.7.20251203
#Start time: 2026-01-27 13:04:40

#Version: 2.2.20231116
#Station: R2.0S_Moscow
#Location: 37.707566 lon 55.798166 lat
#TLE: 1 27424U 02022A   26026.85810808  .00001813  00000+0  37258-3 0  9999
#TLE: 2 27424  98.4101 353.4861 0001866  64.3332 317.5249 14.61864179262622

#Time	Az	El	Level	Level2	SNR	BER	BlckErr	Temp	State	Recorded	gain1	gain2
2026-01-27 13:04:40.56	206.08	2.11	-44.9	-63.4	3.8	7.46e-01	0	52	0	0	61	30201
2026-01-27 13:04:43.58	206.32	2.29	-44.9	-63.4	3.8	7.43e-01	0	53	104	0	60	32011
2026-01-27 13:04:46.61	206.57	2.46	-44.8	-63.4	3.8	7.46e-01	0	53	104	0	60	32039
2026-01-27 13:04:49.64	206.81	2.64	-44.8	-63.4	3.8	7.46e-01	0	54	104	0	60	31967
2026-01-27 13:04:52.67	207.06	2.82	-44.8	-63.4	3.8	7.45e-01	0	54	104	0	60	32016
2026-01-27 13:04:55.70	207.31	3.00	-44.8	-63.4	3.8	7.46e-01	0	54	104	0	60	31968
2026-01-27 13:04:58.73	207.57	3.17	-44.8	-63.4	3.8	7.44e-01	0	54	104	0	60	31958
2026-01-27 13:05:01.76	207.83	3.36	-44.8	-63.4	3.8	7.46e-01	0	54	104	0	60	31943
2026-01-27 13:05:04.79	208.09	3.54	-44.8	-63.4	3.8	7.45e-01	0	55	104	0	60	31888
2026-01-27 13:05:07.82	208.36	3.72	-44.8	-63.4	3.8	7.42e-01	0	55	104	0	60	31982
2026-01-27 13:05:10.85	208.63	3.90	-44.8	-63.4	3.8	7.44e-01	0	55	104	0	60	31954
2026-01-27 13:05:13.89	208.90	4.09	-44.8	-63.4	3.8	7.44e-01	0	55	104	0	60	31826
2026-01-27 13:05:16.92	209.18	4.27	-44.8	-63.4	3.8	7.43e-01	0	55	104	0	60	31859
2026-01-27 13:05:19.95	209.46	4.46	-44.8	-63.3	3.8	7.44e-01	0	56	104	0	60	31692
2026-01-27 13:05:22.98	209.74	4.64	-44.8	-63.3	3.8	7.44e-01	0	56	104	0	60	31607
2026-01-27 13:05:26.01	210.03	4.83	-44.8	-63.3	3.8	7.46e-01	0	56	104	0	60	31810
2026-01-27 13:05:29.04	210.32	5.02	-44.8	-63.3	3.8	7.42e-01	0	56	104	0	60	31567
2026-01-27 13:05:32.08	210.62	5.21	-44.8	-63.3	3.8	7.46e-01	0	56	104	0	60	31753
2026-01-27 13:05:35.11	210.92	5.40	-44.8	-63.3	3.8	7.45e-01	0	56	104	0	60	31640
2026-01-27 13:05:38.14	211.22	5.59	-44.8	-63.1	3.8	7.47e-01	0	56	104	0	60	30810
2026-01-27 13:05:41.17	211.53	5.78	-44.8	-62.1	3.8	7.44e-01	0	57	104	0	60	27599
2026-01-27 13:05:44.20	211.85	5.98	-44.7	-61.0	3.9	7.44e-01	0	57	104	0	60	24204
2026-01-27 13:05:47.23	212.16	6.17	-44.7	-58.8	4.5	7.24e-01	0	57	104	0	60	18905
2026-01-27 13:05:50.26	212.48	6.37	-44.6	-57.0	5.4	6.96e-01	0	57	0	0	60	15284
2026-01-27 13:05:53.29	212.81	6.56	-44.4	-54.8	7.2	6.56e-01	90	57	0	5242880	60	11835
2026-01-27 13:05:56.32	213.14	6.76	-44.2	-53.5	8.5	6.39e-01	7	57	0	10485760	60	10207
2026-01-27 13:05:59.35	213.48	6.96	-44.1	-52.8	9.2	6.28e-01	0	57	0	16252928	60	9474
2026-01-27 13:06:02.38	213.82	7.16	-44.0	-52.2	9.8	6.26e-01	0	58	0	22020096	60	8801
2026-01-27 13:06:05.41	214.16	7.35	-44.1	-51.7	10.8	6.18e-01	0	58	0	27787264	59	8785
2026-01-27 13:06:08.45	214.51	7.56	-43.3	-49.1	13.5	6.10e-01	0	58	0	33554432	58	6922
2026-01-27 13:06:11.48	214.87	7.76	-42.7	-47.5	15.2	6.07e-01	0	58	0	39321600	57	6078
2026-01-27 13:06:14.51	215.23	7.96	-42.7	-47.5	15.2	6.08e-01	0	58	0	45088768	57	6093
2026-01-27 13:06:17.54	215.60	8.16	-43.5	-49.1	11.1	6.08e-01	0	58	0	49807360	59	6498
2026-01-27 13:06:20.57	215.97	8.37	-43.0	-47.8	15.5	6.08e-01	0	58	0	54001664	56	6683
2026-01-27 13:06:23.61	216.35	8.57	-42.3	-46.2	16.7	6.09e-01	0	58	0	58195968	56	5556
2026-01-27 13:06:26.63	216.73	8.78	-42.2	-46.1	16.9	6.07e-01	0	58	0	63963136	56	5504
2026-01-27 13:06:29.66	217.12	8.98	-42.2	-46.0	17.0	6.07e-01	0	59	0	69206016	56	5457
2026-01-27 13:06:32.69	217.51	9.19	-42.1	-45.8	17.2	6.09e-01	0	58	0	74973184	56	5306
2026-01-27 13:06:35.72	217.91	9.40	-42.1	-45.9	17.2	6.07e-01	0	59	0	80740352	56	5345
2026-01-27 13:06:38.75	218.32	9.61	-42.0	-45.7	17.4	6.05e-01	0	59	0	86507520	56	5219
2026-01-27 13:06:41.78	218.73	9.82	-42.0	-45.6	17.4	6.06e-01	0	59	0	92274688	55	5493
2026-01-27 13:06:44.81	219.15	10.03	-42.0	-45.7	17.3	6.06e-01	0	59	0	98041856	55	5573
2026-01-27 13:06:47.84	219.57	10.24	-41.9	-45.5	17.5	6.06e-01	0	59	0	103284736	55	5436
2026-01-27 13:06:50.87	220.01	10.45	-42.0	-45.6	17.4	6.07e-01	0	59	0	109051904	55	5506
2026-01-27 13:06:53.90	220.44	10.67	-41.9	-45.4	17.6	6.06e-01	0	59	0	114819072	55	5371
2026-01-27 13:06:56.93	220.89	10.88	-41.9	-45.4	17.7	6.05e-01	0	59	0	120586240	55	5351
2026-01-27 13:06:59.96	221.34	11.09	-41.8	-45.2	17.9	6.08e-01	0	59	0	126353408	55	5266
2026-01-27 13:07:02.99	221.80	11.31	-41.9	-45.3	17.8	6.06e-01	0	60	0	132120576	55	5335
2026-01-27 13:07:06.03	222.27	11.52	-41.9	-45.3	17.9	6.06e-01	0	59	0	137363456	55	5291
2026-01-27 13:07:09.05	222.74	11.74	-41.8	-45.1	18.1	6.05e-01	0	59	0	143130624	55	5208
2026-01-27 13:07:12.08	223.22	11.95	-41.8	-45.2	18.0	6.06e-01	0	60	0	148897792	55	5223
2026-01-27 13:07:15.11	223.71	12.17	-41.7	-45.0	18.2	6.05e-01	0	60	0	154664960	55	5154
2026-01-27 13:07:18.14	224.20	12.39	-41.7	-45.0	18.2	6.05e-01	0	60	0	160432128	55	5120
2026-01-27 13:07:21.17	224.71	12.60	-41.6	-44.9	18.3	6.09e-01	0	59	0	166199296	55	5060
2026-01-27 13:07:24.20	225.22	12.82	-41.6	-44.8	18.4	6.07e-01	0	60	0	171442176	55	5030
2026-01-27 13:07:27.23	225.74	13.04	-41.6	-44.7	18.5	6.09e-01	0	60	0	177209344	55	4959
2026-01-27 13:07:30.26	226.26	13.26	-41.6	-44.8	18.4	6.09e-01	0	60	0	182976512	55	5033
2026-01-27 13:07:33.29	226.80	13.47	-41.5	-44.6	18.6	6.05e-01	0	60	0	188743680	54	5192
2026-01-27 13:07:36.32	227.34	13.69	-41.6	-44.7	18.6	6.05e-01	0	60	0	194510848	54	5276
2026-01-27 13:07:39.35	227.89	13.91	-41.5	-44.5	18.8	6.06e-01	0	60	0	200278016	54	5156
2026-01-27 13:07:42.38	228.45	14.13	-41.6	-44.7	18.6	6.07e-01	0	60	0	205520896	54	5257
2026-01-27 13:07:45.41	229.02	14.34	-41.6	-44.7	18.6	6.07e-01	0	60	0	211288064	54	5254
2026-01-27 13:07:48.44	229.60	14.56	-41.6	-44.8	18.5	6.07e-01	0	60	0	217055232	54	5325
2026-01-27 13:07:51.47	230.19	14.77	-41.6	-44.7	18.7	6.06e-01	0	60	0	222822400	54	5224
2026-01-27 13:07:54.50	230.78	14.99	-41.5	-44.6	18.8	6.05e-01	0	60	0	228589568	54	5176
2026-01-27 13:07:57.53	231.38	15.20	-41.5	-44.5	18.8	6.07e-01	0	60	0	234356736	54	5148
2026-01-27 13:08:00.56	232.00	15.42	-41.5	-44.6	18.8	6.06e-01	0	60	0	240123904	54	5170
2026-01-27 13:08:03.59	232.62	15.63	-41.4	-44.4	19.0	6.08e-01	0	60	0	245366784	54	5069
2026-01-27 13:08:06.63	233.25	15.84	-41.5	-44.5	18.9	6.08e-01	0	60	0	251133952	54	5158
2026-01-27 13:08:09.66	233.90	16.05	-41.4	-44.4	19.0	6.05e-01	0	60	0	256901120	54	5068
2026-01-27 13:08:12.69	234.55	16.26	-41.5	-44.5	18.9	6.05e-01	0	60	0	262668288	54	5123
2026-01-27 13:08:15.72	235.21	16.47	-41.4	-44.4	19.0	6.07e-01	0	60	0	268435456	54	5079
2026-01-27 13:08:18.75	235.87	16.68	-41.5	-44.5	18.9	6.04e-01	0	60	0	273678336	54	5157
2026-01-27 13:08:21.78	236.55	16.88	-41.5	-44.4	19.1	6.06e-01	0	60	0	279445504	54	5084
2026-01-27 13:08:24.81	237.24	17.08	-41.4	-44.3	19.2	6.07e-01	0	60	0	285212672	54	5018
2026-01-27 13:08:27.84	237.94	17.28	-41.5	-44.5	18.9	6.04e-01	0	60	0	290979840	54	5155
2026-01-27 13:08:30.87	238.65	17.48	-41.4	-44.4	19.1	6.05e-01	0	61	0	296747008	54	5070
2026-01-27 13:08:33.90	239.36	17.68	-41.4	-44.3	19.2	6.03e-01	0	60	0	302514176	54	5017
2026-01-27 13:08:36.93	240.09	17.87	-41.4	-44.4	19.1	6.08e-01	0	61	0	308281344	54	5062
2026-01-27 13:08:39.96	240.83	18.06	-41.5	-44.5	19.0	6.07e-01	0	60	0	313524224	54	5106
2026-01-27 13:08:42.99	241.57	18.25	-41.4	-44.4	19.1	6.06e-01	0	61	0	319291392	54	5043
2026-01-27 13:08:46.02	242.33	18.44	-41.6	-44.6	19.0	6.08e-01	0	60	0	325058560	54	5167
2026-01-27 13:08:49.05	243.09	18.62	-41.7	-44.8	18.7	6.06e-01	0	61	0	330825728	54	5325
2026-01-27 13:08:52.07	243.87	18.80	-41.5	-44.5	19.0	6.04e-01	0	61	0	336592896	54	5131
2026-01-27 13:08:55.10	244.65	18.97	-41.6	-44.6	19.0	6.06e-01	0	61	0	341835776	54	5161
2026-01-27 13:08:58.13	245.44	19.14	-41.6	-44.6	18.9	6.08e-01	0	61	0	347602944	54	5171
2026-01-27 13:09:01.16	246.24	19.31	-41.5	-44.5	19.0	6.05e-01	0	61	0	353370112	54	5136
2026-01-27 13:09:04.19	247.06	19.47	-41.6	-44.7	18.8	6.06e-01	0	61	0	359137280	54	5231
2026-01-27 13:09:07.22	247.88	19.63	-41.7	-44.8	18.7	6.08e-01	0	61	0	364904448	54	5304
2026-01-27 13:09:10.25	248.70	19.79	-41.8	-44.9	18.6	6.05e-01	0	61	0	370671616	54	5350
2026-01-27 13:09:13.28	249.54	19.94	-41.7	-44.7	18.8	6.05e-01	0	61	0	376438784	54	5273
2026-01-27 13:09:16.31	250.39	20.08	-41.6	-44.6	18.9	6.06e-01	0	61	0	381681664	54	5198
2026-01-27 13:09:19.33	251.24	20.22	-41.8	-44.9	18.6	6.05e-01	0	61	0	387448832	54	5393
2026-01-27 13:09:22.36	252.10	20.35	-41.7	-44.7	18.8	6.10e-01	0	61	0	393216000	54	5251
2026-01-27 13:09:25.40	252.97	20.48	-41.8	-44.9	18.6	6.05e-01	0	61	0	398983168	54	5371
2026-01-27 13:09:28.42	253.84	20.60	-41.8	-45.0	18.5	6.05e-01	0	61	0	404750336	54	5422
2026-01-27 13:09:31.46	254.73	20.72	-41.8	-44.9	18.7	6.07e-01	0	61	0	409993216	54	5342
2026-01-27 13:09:34.48	255.61	20.83	-41.7	-44.8	18.7	6.05e-01	0	61	0	415760384	54	5301
2026-01-27 13:09:37.51	256.51	20.94	-41.7	-44.8	18.7	6.05e-01	0	61	0	421527552	54	5312
2026-01-27 13:09:40.54	257.41	21.03	-41.7	-44.7	18.8	6.05e-01	0	61	0	427294720	54	5257
2026-01-27 13:09:43.57	258.32	21.13	-41.7	-44.7	18.8	6.07e-01	0	61	0	433061888	54	5266
2026-01-27 13:09:46.60	259.23	21.21	-41.9	-45.2	18.4	6.06e-01	0	61	0	438829056	54	5529
2026-01-27 13:09:49.63	260.15	21.29	-41.7	-44.7	18.8	6.07e-01	0	61	0	444596224	54	5262
2026-01-27 13:09:52.67	261.08	21.36	-41.8	-45.0	18.6	6.06e-01	0	61	0	449839104	54	5438
2026-01-27 13:09:55.70	262.00	21.43	-41.7	-44.7	18.8	6.07e-01	0	61	0	455606272	54	5279
2026-01-27 13:09:58.73	262.93	21.48	-41.8	-44.9	18.6	6.05e-01	0	61	0	461373440	54	5394
2026-01-27 13:10:01.75	263.86	21.53	-41.7	-44.8	18.7	6.06e-01	0	61	0	467140608	54	5330
2026-01-27 13:10:04.79	264.80	21.58	-41.8	-44.9	18.7	6.08e-01	0	61	0	472907776	54	5364
2026-01-27 13:10:07.82	265.74	21.61	-41.7	-44.8	18.7	6.06e-01	0	61	0	478674944	54	5317
2026-01-27 13:10:10.85	266.68	21.64	-41.8	-45.0	18.6	6.05e-01	0	61	0	483917824	54	5423
2026-01-27 13:10:13.87	267.62	21.66	-41.8	-45.0	18.6	6.06e-01	0	62	0	489684992	54	5413
2026-01-27 13:10:16.91	268.57	21.67	-41.7	-44.8	18.8	6.06e-01	0	61	0	495452160	54	5294
2026-01-27 13:10:19.94	269.51	21.68	-41.7	-44.8	18.7	6.06e-01	0	61	0	501219328	54	5313
2026-01-27 13:10:22.97	270.45	21.68	-41.8	-44.9	18.6	6.04e-01	0	61	0	506986496	54	5353
2026-01-27 13:10:26.00	271.40	21.67	-41.7	-44.8	18.7	6.05e-01	0	61	0	512753664	54	5314
2026-01-27 13:10:29.03	272.34	21.65	-41.8	-44.9	18.6	6.07e-01	0	61	0	517996544	54	5394
2026-01-27 13:10:32.06	273.28	21.62	-41.8	-44.9	18.7	6.06e-01	0	61	0	523763712	54	5359
2026-01-27 13:10:35.08	274.22	21.59	-41.8	-44.9	18.7	6.06e-01	0	61	0	529530880	54	5345
2026-01-27 13:10:38.12	275.16	21.55	-41.8	-44.9	18.7	6.06e-01	0	61	0	535298048	54	5345
2026-01-27 13:10:41.15	276.09	21.50	-41.8	-44.9	18.7	6.08e-01	0	61	0	541065216	54	5357
2026-01-27 13:10:44.18	277.02	21.45	-41.7	-44.8	18.7	6.06e-01	0	62	0	546832384	54	5302
2026-01-27 13:10:47.20	277.94	21.39	-41.8	-44.9	18.6	6.05e-01	0	62	0	552075264	54	5350
2026-01-27 13:10:50.23	278.87	21.32	-41.8	-44.9	18.5	6.05e-01	0	62	0	557842432	54	5360
2026-01-27 13:10:53.26	279.78	21.25	-41.8	-44.9	18.5	6.07e-01	0	62	0	563609600	54	5366
2026-01-27 13:10:56.29	280.70	21.16	-41.8	-44.9	18.6	6.08e-01	0	61	0	569376768	54	5343
2026-01-27 13:10:59.32	281.60	21.07	-41.7	-44.8	18.7	6.07e-01	0	61	0	575143936	54	5305
2026-01-27 13:11:02.35	282.51	20.98	-41.6	-44.7	18.8	6.05e-01	0	61	0	580911104	54	5222
2026-01-27 13:11:05.38	283.40	20.88	-41.7	-44.7	18.7	6.06e-01	0	62	0	586153984	54	5278
2026-01-27 13:11:08.41	284.29	20.77	-41.8	-44.9	18.6	6.06e-01	0	61	0	591921152	54	5370
2026-01-27 13:11:11.44	285.18	20.66	-41.6	-44.6	19.0	6.05e-01	0	62	0	597688320	54	5163
2026-01-27 13:11:14.47	286.05	20.54	-41.6	-44.7	18.8	6.04e-01	0	61	0	603455488	54	5256
2026-01-27 13:11:17.50	286.92	20.41	-41.7	-44.7	18.8	6.07e-01	0	62	0	609222656	54	5272
2026-01-27 13:11:20.53	287.78	20.28	-41.7	-44.8	18.8	6.07e-01	0	61	0	614989824	54	5285
2026-01-27 13:11:23.56	288.63	20.14	-41.6	-44.7	18.8	6.06e-01	0	62	0	620756992	54	5222
2026-01-27 13:11:26.59	289.48	20.00	-41.6	-44.7	18.8	6.07e-01	0	62	0	625999872	54	5234
2026-01-27 13:11:29.62	290.32	19.86	-41.7	-44.7	18.7	6.06e-01	0	61	0	631767040	54	5271
2026-01-27 13:11:32.65	291.15	19.70	-41.6	-44.7	18.8	6.08e-01	0	61	0	637534208	54	5238
2026-01-27 13:11:35.68	291.97	19.55	-41.6	-44.6	18.8	6.09e-01	0	61	0	643301376	54	5211
2026-01-27 13:11:38.71	292.78	19.39	-41.5	-44.5	18.8	6.07e-01	0	62	0	649068544	54	5155
2026-01-27 13:11:41.74	293.58	19.22	-41.5	-44.5	18.8	6.06e-01	0	62	0	654311424	54	5159
2026-01-27 13:11:44.77	294.37	19.06	-41.6	-44.6	18.7	6.07e-01	0	62	0	660078592	54	5191
2026-01-27 13:11:47.80	295.16	18.88	-41.5	-44.5	18.8	6.06e-01	0	61	0	665845760	54	5149
2026-01-27 13:11:50.83	295.93	18.71	-41.5	-44.5	18.8	6.05e-01	0	62	0	671612928	54	5108
2026-01-27 13:11:53.86	296.70	18.53	-41.5	-44.6	18.7	6.05e-01	0	62	0	677380096	54	5171
2026-01-27 13:11:56.89	297.45	18.35	-41.5	-44.5	18.8	6.07e-01	0	61	0	683147264	54	5146
2026-01-27 13:11:59.92	298.20	18.16	-41.4	-44.4	19.0	6.05e-01	0	61	0	688914432	54	5043
2026-01-27 13:12:02.95	298.94	17.97	-41.4	-44.5	18.9	6.06e-01	0	62	0	694157312	54	5116
2026-01-27 13:12:05.98	299.66	17.78	-41.4	-44.4	19.0	6.06e-01	0	61	0	699924480	54	5074
2026-01-27 13:12:09.01	300.38	17.59	-41.4	-44.4	19.0	6.09e-01	0	62	0	705691648	54	5092
2026-01-27 13:12:12.03	301.09	17.39	-41.4	-44.3	19.1	6.04e-01	0	62	0	711458816	54	5027
2026-01-27 13:12:15.06	301.79	17.19	-41.5	-44.5	18.9	6.07e-01	0	62	0	717225984	54	5149
2026-01-27 13:12:18.09	302.47	16.99	-41.6	-54.2	3.8	7.47e-01	0	62	104	718798848	54	15658
2026-01-27 13:12:21.12	303.15	16.79	-45.2	-62.2	3.8	7.41e-01	0	62	104	718798848	61	26279
2026-01-27 13:12:24.15	303.82	16.59	-42.2	-55.0	3.8	7.47e-01	0	62	104	718798848	56	15362
2026-01-27 13:12:27.18	304.48	16.38	-41.6	-54.2	3.8	7.45e-01	0	62	104	718798848	55	14710
2026-01-27 13:12:30.21	305.14	16.18	-42.5	-55.7	4.0	7.33e-01	0	62	104	718798848	57	15613
2026-01-27 13:12:33.24	305.78	15.97	-42.0	-54.5	3.9	7.48e-01	0	62	104	718798848	56	14508
2026-01-27 13:12:36.27	306.41	15.76	-42.6	-55.9	3.9	7.41e-01	0	62	104	718798848	57	15950
2026-01-27 13:12:39.31	307.03	15.55	-43.7	-57.9	3.8	7.42e-01	0	62	104	718798848	58	19067
2026-01-27 13:12:42.34	307.65	15.34	-42.3	-55.1	3.8	7.45e-01	0	62	104	718798848	56	15415
2026-01-27 13:12:45.37	308.25	15.12	-45.0	-62.1	3.9	7.43e-01	0	62	104	718798848	61	25908
2026-01-27 13:12:48.40	308.85	14.91	-42.0	-54.7	3.8	7.46e-01	0	62	104	718798848	56	14760
2026-01-27 13:12:51.43	309.44	14.70	-43.0	-56.6	3.8	7.45e-01	0	62	104	718798848	56	18464
2026-01-27 13:12:54.45	310.01	14.48	-43.7	-58.0	3.9	7.46e-01	0	62	104	718798848	59	18162
2026-01-27 13:12:57.48	310.58	14.27	-41.8	-54.4	3.8	7.48e-01	0	62	104	718798848	55	15203
2026-01-27 13:13:00.51	311.14	14.06	-42.5	-55.3	3.8	7.48e-01	0	62	104	718798848	56	15820
2026-01-27 13:13:03.54	311.70	13.84	-43.5	-57.4	3.9	7.44e-01	0	62	104	718798848	59	16969
2026-01-27 13:13:06.57	312.24	13.63	-42.7	-56.1	3.8	7.45e-01	0	62	104	718798848	56	17386
2026-01-27 13:13:09.60	312.78	13.41	-44.8	-61.2	3.8	7.50e-01	0	62	104	718798848	60	24899
2026-01-27 13:13:12.63	313.31	13.20	-41.9	-54.5	3.8	7.47e-01	0	62	104	718798848	55	15317
2026-01-27 13:13:15.65	313.82	12.98	-42.2	-55.0	3.8	7.45e-01	0	62	104	718798848	55	16272
2026-01-27 13:13:18.68	314.34	12.77	-43.3	-57.1	3.8	7.49e-01	0	62	104	718798848	57	18364
2026-01-27 13:13:21.72	314.84	12.55	-42.1	-54.9	3.8	7.43e-01	0	62	104	718798848	56	15102
2026-01-27 13:13:24.75	315.34	12.34	-43.7	-57.5	3.8	7.43e-01	0	62	104	718798848	57	19346
2026-01-27 13:13:27.77	315.83	12.12	-42.0	-54.9	3.8	7.46e-01	0	62	104	718798848	56	15074
2026-01-27 13:13:30.80	316.31	11.91	-42.0	-55.3	3.8	7.48e-01	0	62	104	718798848	55	16867
2026-01-27 13:13:33.83	316.78	11.69	-43.1	-57.2	3.8	7.43e-01	0	62	104	718798848	58	17593
2026-01-27 13:13:36.86	317.25	11.48	-42.0	-54.9	3.8	7.45e-01	0	62	104	718798848	56	15142
2026-01-27 13:13:39.89	317.71	11.27	-43.4	-57.6	3.8	7.44e-01	0	62	104	718798848	57	19405
2026-01-27 13:13:42.92	318.17	11.06	-43.7	-57.9	3.8	7.46e-01	0	62	104	718798848	57	20218
2026-01-27 13:13:45.95	318.61	10.85	-42.1	-55.0	3.8	7.43e-01	0	62	104	718798848	56	15372
2026-01-27 13:13:48.98	319.05	10.63	-45.1	-63.5	3.8	7.45e-01	0	62	104	718798848	60	32429
2026-01-27 13:13:52.01	319.49	10.42	-42.3	-55.3	3.8	7.46e-01	0	62	104	718798848	56	15779
2026-01-27 13:13:55.04	319.91	10.21	-42.8	-56.5	3.8	7.44e-01	0	62	104	718798848	56	18282
2026-01-27 13:13:58.07	320.33	10.01	-45.0	-63.4	3.8	7.48e-01	0	62	104	718798848	60	31901
2026-01-27 13:14:01.10	320.75	9.80	-42.3	-55.3	3.8	7.43e-01	0	62	104	718798848	56	15786
2026-01-27 13:14:04.13	321.16	9.59	-43.9	-58.7	3.8	7.40e-01	0	62	104	718798848	58	20963
2026-01-27 13:14:07.16	321.56	9.38	-44.7	-61.4	3.9	7.45e-01	0	62	104	718798848	60	25459
2026-01-27 13:14:10.19	321.96	9.18	-42.4	-55.6	3.8	7.45e-01	0	62	104	718798848	56	16464
2026-01-27 13:14:13.22	322.35	8.97	-44.5	-60.9	3.8	7.44e-01	0	62	104	718798848	60	24033
2026-01-27 13:14:16.25	322.73	8.77	-42.4	-55.6	3.8	7.46e-01	0	62	104	718798848	56	16479
2026-01-27 13:14:19.28	323.11	8.57	-42.7	-56.3	3.8	7.47e-01	0	62	104	718798848	56	17815
2026-01-27 13:14:22.31	323.48	8.36	-42.7	-56.4	3.8	7.44e-01	0	62	104	718798848	57	17017
2026-01-27 13:14:25.34	323.85	8.16	-42.7	-56.1	3.8	7.39e-01	0	62	104	718798848	57	16453
2026-01-27 13:14:28.37	324.22	7.96	-45.2	-63.5	3.8	7.45e-01	0	62	104	718798848	61	30655
2026-01-27 13:14:31.40	324.57	7.76	-46.0	-64.6	3.8	7.45e-01	0	62	104	718798848	62	32579
2026-01-27 13:14:34.43	324.93	7.56	-46.3	-64.8	3.8	7.45e-01	0	62	104	718798848	63	31730
2026-01-27 13:14:37.47	325.28	7.36	-46.2	-64.7	3.8	7.41e-01	0	62	104	718798848	63	31278
2026-01-27 13:14:40.50	325.62	7.17	-46.2	-64.7	3.8	7.42e-01	0	62	104	718798848	62	32999
2026-01-27 13:14:43.53	325.96	6.97	-46.1	-64.6	3.8	7.44e-01	0	62	104	718798848	63	31083
2026-01-27 13:14:46.56	326.29	6.77	-46.2	-64.7	3.8	7.42e-01	0	62	104	718798848	63	31110
2026-01-27 13:14:49.59	326.62	6.58	-46.2	-64.6	3.8	7.49e-01	0	62	104	718798848	63	31014
2026-01-27 13:14:52.63	326.94	6.39	-46.2	-64.6	3.8	7.45e-01	0	62	104	718798848	63	31048
2026-01-27 13:14:55.66	327.26	6.19	-46.2	-64.7	3.8	7.46e-01	0	62	104	718798848	63	31098
2026-01-27 13:14:58.69	327.58	6.00	-46.2	-64.6	3.8	7.45e-01	0	62	104	718798848	63	31047
2026-01-27 13:15:01.72	327.89	5.81	-46.1	-64.6	3.8	7.46e-01	0	62	104	718798848	63	30975
2026-01-27 13:15:04.75	328.20	5.62	-46.1	-64.6	3.8	7.47e-01	0	62	104	718798848	63	30973
2026-01-27 13:15:07.78	328.50	5.43	-46.1	-64.6	3.8	7.42e-01	0	62	104	718798848	63	31010
2026-01-27 13:15:10.81	328.80	5.24	-46.1	-64.6	3.8	7.45e-01	0	62	104	718798848	63	30946
2026-01-27 13:15:13.85	329.09	5.06	-46.1	-64.6	3.8	7.45e-01	0	62	104	718798848	63	30995
2026-01-27 13:15:16.88	329.39	4.87	-46.1	-64.6	3.8	7.43e-01	0	62	104	718798848	62	32738
2026-01-27 13:15:19.91	329.67	4.68	-46.1	-64.6	3.8	7.44e-01	0	62	104	718798848	62	32789
2026-01-27 13:15:22.94	329.96	4.50	-46.1	-64.6	3.8	7.46e-01	0	62	104	718798848	62	32746
2026-01-27 13:15:25.97	330.23	4.32	-46.1	-64.6	3.8	7.47e-01	0	62	104	718798848	62	32795
2026-01-27 13:15:29.00	330.51	4.13	-46.1	-64.6	3.8	7.44e-01	0	62	104	718798848	62	32816
2026-01-27 13:15:32.04	330.78	3.95	-46.1	-64.6	3.8	7.45e-01	0	62	104	718798848	62	32705
2026-01-27 13:15:35.07	331.05	3.77	-46.1	-64.6	3.8	7.45e-01	0	62	104	718798848	62	32790
2026-01-27 13:15:38.10	331.32	3.59	-46.1	-64.6	3.8	7.42e-01	0	62	104	718798848	62	32728
2026-01-27 13:15:41.13	331.58	3.41	-46.1	-64.6	3.8	7.45e-01	0	62	104	718798848	62	32743
2026-01-27 13:15:44.16	331.84	3.23	-46.1	-64.6	3.8	7.46e-01	0	62	104	718798848	62	32723
2026-01-27 13:15:47.20	332.10	3.06	-46.1	-64.6	3.8	7.44e-01	0	62	104	718798848	62	32700
2026-01-27 13:15:50.23	332.35	2.88	-46.1	-64.6	3.8	7.45e-01	0	62	104	718798848	62	32707
2026-01-27 13:15:53.26	332.60	2.70	-46.1	-64.6	3.8	7.51e-01	0	62	104	718798848	62	32672
2026-01-27 13:15:56.29	332.84	2.53	-46.1	-64.6	3.8	7.45e-01	0	62	104	718798848	62	32688
2026-01-27 13:15:59.32	333.09	2.35	-46.1	-64.6	3.8	7.47e-01	0	62	104	718798848	62	32689
2026-01-27 13:16:02.35	333.33	2.18	-45.9	-64.6	3.8	7.43e-01	0	62	104	718798848	62	32711
2026-01-27 13:16:05.38	333.57	2.01	-46.1	-64.6	3.8	7.46e-01	0	62	104	718798848	62	32747

#Closed at: 2026-01-27 13:16:06
#Recorded file [718 MB]: D:/lorett/data/31039_260127_160440.dat