passes_logs/2026/01/27/R2.0S_Moscow/R2.0S_Moscow__20260127_222107_NOAA_21_JPSS-2_rec.log

#Pass ID: 20260127_222107_NOAA 21 (JPSS-2)
#Satellite: NOAA 21 (JPSS-2)
#Configuration: NOAA-21
#almurnet v.1.7.20251203
#Start time: 2026-01-27 22:21:08

#Version: 2.2.20231116
#Station: R2.0S_Moscow
#Location: 37.707566 lon 55.798166 lat
#TLE: 1 54234U 22150A   26027.41809747  .00000179  00000+0  10565-3 0  9991
#TLE: 2 54234  98.7510 328.1683 0000854 205.0798 155.0336 14.19540145166571

#Time	Az	El	Level	Level2	SNR	BER	BlckErr	Temp	State	Recorded	gain1	gain2
2026-01-27 22:21:08.60	23.79	2.05	-43.0	-55.3	3.8	1.49e+00	0	53	0	0	58	14098
2026-01-27 22:21:12.63	24.05	2.28	-43.0	-55.3	3.8	1.49e+00	0	53	104	0	57	14906
2026-01-27 22:21:16.68	24.31	2.51	-43.0	-55.3	3.8	1.49e+00	0	53	104	0	57	14889
2026-01-27 22:21:20.72	24.57	2.74	-43.0	-55.3	3.8	1.49e+00	0	54	104	0	57	14894
2026-01-27 22:21:24.76	24.84	2.98	-43.0	-55.3	3.8	1.49e+00	0	54	104	0	57	14943
2026-01-27 22:21:28.80	25.11	3.21	-43.0	-55.3	3.8	1.49e+00	0	54	104	0	57	14919
2026-01-27 22:21:32.84	25.39	3.45	-43.0	-55.2	3.8	1.49e+00	0	55	104	0	57	14865
2026-01-27 22:21:36.89	25.67	3.69	-43.0	-55.2	3.8	1.49e+00	0	55	104	0	57	14858
2026-01-27 22:21:40.92	25.95	3.93	-42.9	-55.3	3.8	1.49e+00	0	55	104	0	57	14881
2026-01-27 22:21:44.96	26.24	4.17	-42.9	-55.2	3.8	1.49e+00	0	55	104	0	57	14858
2026-01-27 22:21:49.00	26.53	4.41	-42.9	-55.3	3.8	1.49e+00	0	55	104	0	57	14897
2026-01-27 22:21:53.05	26.83	4.66	-42.9	-55.3	3.8	1.49e+00	0	55	104	0	57	14884
2026-01-27 22:21:57.09	27.13	4.90	-42.9	-55.2	3.8	1.49e+00	0	56	104	0	57	14824
2026-01-27 22:22:01.13	27.44	5.15	-43.0	-55.2	3.8	1.49e+00	0	56	104	0	57	14879
2026-01-27 22:22:05.17	27.75	5.40	-43.0	-55.3	3.8	1.49e+00	0	56	104	0	57	14903
2026-01-27 22:22:09.21	28.07	5.65	-43.0	-55.2	3.8	1.49e+00	0	56	104	0	57	14847
2026-01-27 22:22:13.26	28.40	5.91	-43.0	-55.2	3.8	1.49e+00	0	57	104	0	57	14846
2026-01-27 22:22:17.30	28.72	6.16	-42.9	-55.2	3.8	1.49e+00	0	57	104	0	57	14821
2026-01-27 22:22:21.34	29.06	6.42	-42.9	-55.1	3.8	1.49e+00	0	57	104	0	57	14591
2026-01-27 22:22:25.38	29.40	6.68	-42.9	-54.7	3.8	1.49e+00	0	57	104	0	57	13986
2026-01-27 22:22:29.42	29.74	6.94	-42.7	-53.1	3.8	1.49e+00	0	57	104	0	57	11653
2026-01-27 22:22:33.46	30.09	7.20	-42.5	-51.3	4.0	1.30e+00	0	58	104	1048576	56	10020
2026-01-27 22:22:37.50	30.45	7.46	-42.5	-51.3	4.3	1.46e+00	0	58	104	1048576	56	10049
2026-01-27 22:22:41.54	30.81	7.73	-41.3	-46.6	7.2	1.46e-01	0	58	0	11534336	54	6501
2026-01-27 22:22:45.59	31.18	8.00	-40.1	-43.6	10.2	5.52e-03	0	58	0	24117248	51	5519
2026-01-27 22:22:49.62	31.56	8.27	-41.5	-50.2	4.0	4.20e-01	1	58	104	36700160	53	10418
2026-01-27 22:22:53.67	31.94	8.54	-39.7	-42.6	12.0	2.51e-04	0	58	0	46137344	51	4882
2026-01-27 22:22:57.71	32.33	8.81	-39.7	-42.5	12.2	2.12e-04	0	58	0	58720256	51	4850
2026-01-27 22:23:01.75	32.73	9.09	-39.8	-42.5	12.3	1.76e-04	0	58	0	71303168	51	4869
2026-01-27 22:23:05.79	33.13	9.36	-39.7	-42.4	12.4	8.01e-05	0	58	0	83886080	50	5076
2026-01-27 22:23:09.84	33.54	9.64	-39.6	-42.1	13.0	3.66e-05	0	59	0	96468992	50	4913
2026-01-27 22:23:13.88	33.96	9.92	-39.7	-42.3	12.8	6.86e-05	0	59	0	109051904	50	5033
2026-01-27 22:23:17.93	34.39	10.21	-39.5	-42.0	13.2	3.81e-05	0	59	0	121634816	50	4830
2026-01-27 22:23:21.97	34.82	10.49	-39.5	-42.0	13.2	2.67e-05	0	59	0	134217728	50	4831
2026-01-27 22:23:26.01	35.27	10.78	-39.5	-41.8	13.5	1.52e-05	0	59	0	146800640	50	4756
2026-01-27 22:23:30.05	35.72	11.07	-39.5	-41.9	13.5	1.22e-05	0	59	0	159383552	50	4809
2026-01-27 22:23:34.10	36.18	11.36	-39.2	-41.5	14.0	3.80e-06	0	59	0	171966464	50	4558
2026-01-27 22:23:38.14	36.65	11.65	-39.3	-41.6	13.8	2.20e-06	0	59	0	184549376	50	4639
2026-01-27 22:23:42.17	37.12	11.94	-39.2	-41.4	14.1	1.50e-06	0	59	0	197132288	50	4520
2026-01-27 22:23:46.21	37.61	12.24	-39.1	-41.2	14.3	1.50e-06	0	59	0	209715200	50	4419
2026-01-27 22:23:50.26	38.11	12.54	-39.1	-41.3	14.3	2.20e-06	0	59	0	222298112	50	4446
2026-01-27 22:23:54.30	38.62	12.84	-39.3	-41.5	14.1	7.00e-07	0	60	0	234881024	50	4572
2026-01-27 22:23:58.34	39.13	13.14	-39.1	-41.3	14.3	1.50e-06	0	60	0	247463936	50	4461
2026-01-27 22:24:02.38	39.66	13.44	-39.1	-41.3	14.3	0.00e+00	0	60	0	260046848	50	4451
2026-01-27 22:24:06.42	40.20	13.75	-39.2	-41.3	14.4	1.50e-06	0	60	0	273678336	50	4458
2026-01-27 22:24:10.46	40.75	14.05	-39.2	-41.3	14.3	0.00e+00	0	60	0	286261248	50	4492
2026-01-27 22:24:14.50	41.30	14.36	-39.3	-41.4	14.3	1.50e-06	0	60	0	298844160	50	4521
2026-01-27 22:24:18.55	41.88	14.67	-39.2	-41.4	14.3	2.20e-06	0	60	0	311427072	50	4501
2026-01-27 22:24:22.59	42.46	14.98	-39.3	-41.4	14.3	0.00e+00	0	60	0	324009984	50	4544
2026-01-27 22:24:26.63	43.05	15.29	-39.4	-41.7	14.1	3.00e-06	0	60	0	336592896	50	4662
2026-01-27 22:24:30.67	43.66	15.60	-39.3	-41.5	14.2	7.00e-07	0	60	0	349175808	50	4572
2026-01-27 22:24:34.71	44.28	15.92	-39.4	-41.5	14.2	3.00e-06	0	60	0	361758720	50	4587
2026-01-27 22:24:38.74	44.91	16.23	-39.5	-41.7	14.1	1.50e-06	0	60	0	374341632	50	4659
2026-01-27 22:24:42.78	45.55	16.55	-39.6	-41.8	14.0	3.80e-06	0	60	0	386924544	50	4745
2026-01-27 22:24:46.82	46.21	16.86	-39.5	-41.7	14.1	3.00e-06	0	60	0	399507456	50	4694
2026-01-27 22:24:50.86	46.88	17.18	-39.6	-41.8	14.0	1.50e-06	0	60	0	412090368	50	4718
2026-01-27 22:24:54.90	47.57	17.49	-39.7	-41.9	13.9	3.00e-06	0	60	0	424673280	50	4814
2026-01-27 22:24:58.94	48.27	17.81	-39.6	-41.8	14.0	3.00e-06	0	60	0	437256192	50	4733
2026-01-27 22:25:02.98	48.98	18.13	-39.4	-41.5	14.3	0.00e+00	0	60	0	449839104	50	4578
2026-01-27 22:25:07.03	49.71	18.44	-39.4	-41.6	14.3	0.00e+00	0	60	0	462422016	50	4603
2026-01-27 22:25:11.07	50.45	18.76	-39.6	-41.9	14.0	3.00e-06	0	61	0	475004928	50	4767
2026-01-27 22:25:15.11	51.21	19.08	-39.3	-41.3	14.6	7.00e-07	0	61	0	487587840	50	4481
2026-01-27 22:25:19.15	51.99	19.39	-39.1	-41.1	14.7	0.00e+00	0	61	0	500170752	50	4382
2026-01-27 22:25:23.19	52.78	19.70	-38.9	-40.9	15.1	0.00e+00	0	61	0	512753664	49	4500
2026-01-27 22:25:27.24	53.59	20.02	-38.8	-40.7	15.2	0.00e+00	0	61	0	525336576	49	4418
2026-01-27 22:25:31.28	54.41	20.33	-38.8	-40.7	15.2	0.00e+00	0	60	0	537919488	49	4437
2026-01-27 22:25:35.32	55.25	20.64	-38.9	-40.8	15.1	0.00e+00	0	61	0	550502400	49	4468
2026-01-27 22:25:39.36	56.10	20.94	-38.9	-40.9	15.0	0.00e+00	0	61	0	564133888	49	4516
2026-01-27 22:25:43.39	56.97	21.24	-38.9	-40.9	15.0	0.00e+00	0	61	0	575668224	49	4513
2026-01-27 22:25:47.43	57.86	21.54	-38.7	-40.6	15.3	0.00e+00	0	61	0	589299712	49	4341
2026-01-27 22:25:51.47	58.76	21.84	-38.7	-40.5	15.3	0.00e+00	0	61	0	601882624	49	4336
2026-01-27 22:25:55.51	59.69	22.13	-38.7	-40.6	15.3	0.00e+00	0	61	0	614465536	49	4358
2026-01-27 22:25:59.55	60.63	22.42	-38.5	-40.4	15.5	0.00e+00	0	61	0	627048448	49	4256
2026-01-27 22:26:03.59	61.58	22.70	-38.4	-40.1	15.7	0.00e+00	0	61	0	639631360	48	4388
2026-01-27 22:26:07.63	62.56	22.98	-38.5	-40.3	15.5	0.00e+00	0	61	0	652214272	48	4489
2026-01-27 22:26:11.67	63.55	23.25	-38.6	-40.5	15.4	0.00e+00	0	61	0	664797184	48	4552
2026-01-27 22:26:15.71	64.56	23.52	-38.7	-40.6	15.3	0.00e+00	0	61	0	677380096	48	4615
2026-01-27 22:26:19.75	65.58	23.78	-38.9	-40.9	15.0	0.00e+00	0	61	0	689963008	48	4770
2026-01-27 22:26:23.79	66.62	24.04	-38.9	-40.8	15.1	0.00e+00	0	61	0	702545920	48	4738
2026-01-27 22:26:27.83	67.68	24.28	-39.0	-40.9	15.0	0.00e+00	0	61	0	715128832	48	4805
2026-01-27 22:26:31.87	68.76	24.52	-38.9	-40.9	15.1	0.00e+00	0	61	0	727711744	48	4767
2026-01-27 22:26:35.91	69.85	24.75	-38.9	-40.9	15.1	0.00e+00	0	61	0	740294656	48	4763
2026-01-27 22:26:39.95	70.95	24.97	-38.8	-40.8	15.2	0.00e+00	0	61	0	752877568	48	4709
2026-01-27 22:26:43.99	72.07	25.18	-39.0	-41.0	15.0	0.00e+00	0	61	0	765460480	48	4835
2026-01-27 22:26:48.03	73.21	25.38	-38.8	-40.7	15.2	0.00e+00	0	61	0	778043392	48	4701
2026-01-27 22:26:52.07	74.36	25.57	-38.7	-40.6	15.3	0.00e+00	0	61	0	790626304	48	4641
2026-01-27 22:26:56.11	75.52	25.75	-38.8	-40.7	15.2	0.00e+00	0	61	0	803209216	48	4697
2026-01-27 22:27:00.15	76.70	25.92	-38.7	-40.5	15.4	0.00e+00	0	61	0	815792128	48	4587
2026-01-27 22:27:04.19	77.89	26.08	-38.6	-40.4	15.5	0.00e+00	0	61	0	828375040	48	4526
2026-01-27 22:27:08.23	79.09	26.23	-38.7	-40.5	15.4	0.00e+00	0	61	0	840957952	48	4588
2026-01-27 22:27:12.27	80.30	26.36	-38.5	-40.4	15.6	0.00e+00	0	61	0	853540864	48	4495
2026-01-27 22:27:16.32	81.52	26.48	-38.6	-40.5	15.5	0.00e+00	0	61	0	866123776	48	4574
2026-01-27 22:27:20.36	82.75	26.59	-38.7	-40.5	15.5	0.00e+00	0	62	0	879755264	48	4589
2026-01-27 22:27:24.40	83.98	26.68	-38.6	-40.4	15.6	0.00e+00	0	62	0	892338176	48	4544
2026-01-27 22:27:28.44	85.23	26.76	-38.7	-40.5	15.5	0.00e+00	0	62	0	904921088	48	4584
2026-01-27 22:27:32.49	86.48	26.82	-38.6	-40.5	15.6	0.00e+00	0	61	0	917504000	48	4561
2026-01-27 22:27:36.53	87.73	26.87	-38.6	-40.4	15.6	0.00e+00	0	62	0	930086912	48	4534
2026-01-27 22:27:40.57	88.99	26.91	-38.5	-40.3	15.7	0.00e+00	0	61	0	942669824	48	4468
2026-01-27 22:27:44.61	90.25	26.93	-38.5	-40.3	15.7	0.00e+00	0	62	0	955252736	48	4467
2026-01-27 22:27:48.66	91.51	26.94	-38.3	-40.1	16.0	0.00e+00	0	61	0	967835648	48	4349
2026-01-27 22:27:52.70	92.77	26.93	-38.5	-40.3	15.8	0.00e+00	0	61	0	980418560	48	4455
2026-01-27 22:27:56.74	94.03	26.91	-38.4	-40.2	15.8	0.00e+00	0	61	0	993001472	48	4421
2026-01-27 22:28:00.78	95.29	26.87	-38.5	-40.3	15.7	0.00e+00	0	62	0	1005584384	48	4479
2026-01-27 22:28:04.82	96.54	26.82	-38.5	-40.3	15.8	0.00e+00	0	62	0	1018167296	48	4448
2026-01-27 22:28:08.86	97.79	26.76	-38.4	-40.2	15.8	0.00e+00	0	61	0	1030750208	48	4413
2026-01-27 22:28:12.90	99.04	26.68	-38.6	-40.4	15.6	0.00e+00	0	62	0	1043333120	48	4522
2026-01-27 22:28:16.94	100.27	26.59	-38.5	-40.3	15.8	0.00e+00	0	62	0	1055916032	48	4447
2026-01-27 22:28:20.98	101.50	26.48	-38.5	-40.2	15.8	0.00e+00	0	62	0	1068498944	48	4436
2026-01-27 22:28:25.02	102.73	26.36	-38.5	-40.2	15.8	0.00e+00	0	62	0	1081081856	48	4430
2026-01-27 22:28:29.07	103.94	26.23	-38.6	-40.4	15.7	0.00e+00	0	61	0	1093664768	48	4495
2026-01-27 22:28:33.11	105.14	26.08	-38.8	-40.6	15.5	0.00e+00	0	61	0	1106247680	48	4633
2026-01-27 22:28:37.15	106.34	25.92	-38.8	-40.6	15.4	0.00e+00	0	61	0	1118830592	48	4638
2026-01-27 22:28:41.19	107.52	25.75	-39.0	-40.9	15.2	0.00e+00	0	61	0	1131413504	48	4790
2026-01-27 22:28:45.23	108.68	25.57	-38.7	-40.5	15.6	0.00e+00	0	62	0	1143996416	48	4569
2026-01-27 22:28:49.27	109.84	25.38	-38.6	-40.4	15.7	0.00e+00	0	62	0	1156579328	48	4504
2026-01-27 22:28:53.31	110.98	25.18	-38.6	-40.4	15.7	0.00e+00	0	62	0	1170210816	48	4507
2026-01-27 22:28:57.35	112.10	24.96	-38.5	-40.2	15.8	0.00e+00	0	62	0	1181745152	48	4417
2026-01-27 22:29:01.40	113.21	24.74	-38.4	-40.1	15.9	0.00e+00	0	62	0	1195376640	48	4379
2026-01-27 22:29:05.44	114.31	24.51	-38.3	-40.0	16.0	0.00e+00	0	62	0	1207959552	48	4327
2026-01-27 22:29:09.47	115.38	24.27	-38.3	-40.0	16.0	0.00e+00	0	62	0	1220542464	48	4327
2026-01-27 22:29:13.51	116.45	24.02	-38.7	-40.6	15.5	0.00e+00	0	61	0	1233125376	48	4602
2026-01-27 22:29:17.56	117.49	23.77	-38.6	-40.4	15.6	0.00e+00	0	62	0	1245708288	48	4527
2026-01-27 22:29:21.60	118.52	23.51	-38.6	-40.5	15.6	0.00e+00	0	62	0	1258291200	48	4557
2026-01-27 22:29:25.64	119.54	23.24	-38.9	-40.9	15.2	0.00e+00	0	62	0	1270874112	48	4760
2026-01-27 22:29:29.68	120.53	22.96	-38.8	-40.7	15.4	0.00e+00	0	62	0	1283457024	48	4653
2026-01-27 22:29:33.72	121.51	22.68	-38.6	-40.4	15.6	0.00e+00	0	62	0	1296039936	48	4542
2026-01-27 22:29:37.77	122.47	22.39	-38.6	-40.4	15.5	0.00e+00	0	62	0	1308622848	48	4543
2026-01-27 22:29:41.81	123.42	22.10	-38.7	-40.6	15.4	0.00e+00	0	62	0	1321205760	48	4603
2026-01-27 22:29:45.85	124.34	21.81	-38.7	-40.6	15.4	0.00e+00	0	62	0	1333788672	48	4632
2026-01-27 22:29:49.89	125.25	21.51	-38.8	-40.7	15.3	0.00e+00	0	62	0	1346371584	48	4666
2026-01-27 22:29:53.94	126.15	21.21	-38.8	-40.6	15.3	0.00e+00	0	62	0	1358954496	48	4647
2026-01-27 22:29:57.98	127.02	20.90	-38.3	-40.1	15.8	0.00e+00	0	62	0	1371537408	47	4636
2026-01-27 22:30:02.02	127.88	20.59	-38.5	-40.4	15.5	0.00e+00	0	62	0	1384120320	47	4775
2026-01-27 22:30:06.06	128.72	20.28	-38.3	-40.2	15.7	0.00e+00	0	62	0	1396703232	47	4658
2026-01-27 22:30:10.10	129.55	19.97	-38.6	-40.5	15.3	0.00e+00	0	62	0	1409286144	47	4833
2026-01-27 22:30:14.14	130.36	19.65	-38.8	-40.7	15.2	0.00e+00	0	62	0	1421869056	48	4686
2026-01-27 22:30:18.18	131.15	19.34	-38.8	-40.7	15.2	0.00e+00	0	62	0	1434451968	48	4696
2026-01-27 22:30:22.23	131.93	19.02	-38.9	-40.9	15.0	0.00e+00	0	62	0	1448083456	48	4785
2026-01-27 22:30:26.27	132.69	18.70	-38.9	-40.9	14.4	3.43e-05	0	62	0	1460666368	47	5076
2026-01-27 22:30:30.31	133.44	18.38	-38.9	-40.9	15.0	2.20e-06	0	62	0	1473249280	48	4783
2026-01-27 22:30:34.34	134.17	18.06	-39.0	-41.1	14.7	6.10e-06	0	62	0	1485832192	48	4886
2026-01-27 22:30:38.38	134.88	17.74	-39.1	-41.2	14.6	1.14e-05	0	62	0	1498415104	48	4945
2026-01-27 22:30:42.43	135.59	17.42	-39.1	-41.2	14.5	6.48e-05	0	62	0	1510998016	48	4982
2026-01-27 22:30:46.46	136.27	17.10	-39.2	-41.3	14.5	4.06e-04	0	62	0	1523580928	48	5012
2026-01-27 22:30:50.51	136.95	16.78	-39.2	-41.4	14.3	4.63e-04	0	62	0	1536163840	49	4798
2026-01-27 22:30:54.55	137.61	16.47	-39.2	-41.4	14.4	2.44e-05	0	62	0	1548746752	49	4775
2026-01-27 22:30:58.59	138.25	16.15	-39.1	-41.2	14.6	4.50e-06	0	62	0	1561329664	48	4937
2026-01-27 22:31:02.63	138.89	15.83	-39.1	-41.2	14.5	4.80e-05	0	62	0	1573912576	48	4968
2026-01-27 22:31:06.67	139.51	15.51	-39.2	-41.3	14.4	7.00e-07	0	62	0	1586495488	48	4989
2026-01-27 22:31:10.71	140.12	15.20	-39.3	-41.6	14.1	1.50e-06	0	62	0	1599078400	49	4873
2026-01-27 22:31:14.75	140.71	14.88	-39.4	-41.6	14.0	7.00e-07	0	62	0	1611661312	49	4918
2026-01-27 22:31:18.80	141.30	14.57	-39.4	-41.6	14.0	7.00e-07	0	62	0	1624244224	49	4889
2026-01-27 22:31:22.83	141.87	14.26	-39.4	-41.7	13.9	3.00e-06	0	62	0	1636827136	49	4934
2026-01-27 22:31:26.88	142.43	13.95	-39.6	-41.9	13.7	4.50e-06	0	62	0	1649410048	49	5080
2026-01-27 22:31:30.92	142.98	13.64	-39.5	-41.8	13.8	3.80e-06	0	62	0	1661992960	49	4993
2026-01-27 22:31:34.96	143.51	13.33	-39.6	-42.0	13.6	6.80e-06	0	62	0	1674575872	49	5117
2026-01-27 22:31:39.00	144.04	13.03	-39.6	-42.0	13.5	1.22e-05	0	62	0	1687158784	50	4856
2026-01-27 22:31:43.05	144.56	12.72	-39.6	-42.0	13.5	1.98e-05	0	62	0	1699741696	50	4850
2026-01-27 22:31:47.09	145.06	12.42	-39.7	-42.1	13.4	1.37e-05	0	62	0	1712324608	50	4879
2026-01-27 22:31:51.12	145.56	12.12	-39.7	-42.2	13.2	3.12e-05	0	62	0	1724907520	50	4938
2026-01-27 22:31:55.17	146.05	11.82	-39.9	-42.5	12.9	3.43e-05	0	62	0	1738539008	50	5137
2026-01-27 22:31:59.21	146.53	11.52	-39.8	-42.2	13.1	3.20e-05	0	62	0	1751121920	50	4982
2026-01-27 22:32:03.25	146.99	11.23	-39.8	-42.3	13.1	2.89e-05	0	62	0	1763704832	50	4987
2026-01-27 22:32:07.29	147.45	10.93	-39.8	-42.4	12.9	5.41e-05	0	62	0	1776287744	50	5080
2026-01-27 22:32:11.33	147.90	10.64	-39.9	-42.5	12.7	6.71e-05	0	62	0	1788870656	50	5126
2026-01-27 22:32:15.38	148.35	10.35	-39.8	-42.5	12.8	6.17e-05	0	62	0	1801453568	50	5103
2026-01-27 22:32:19.41	148.78	10.07	-39.8	-42.4	12.8	6.33e-05	0	62	0	1814036480	50	5095
2026-01-27 22:32:23.45	149.20	9.78	-39.9	-42.5	12.6	1.26e-04	0	62	0	1826619392	50	5144
2026-01-27 22:32:27.49	149.62	9.50	-39.9	-42.6	12.5	1.06e-04	0	62	0	1839202304	50	5189
2026-01-27 22:32:31.54	150.03	9.21	-40.1	-42.9	12.1	2.17e-04	0	62	0	1851785216	50	5371
2026-01-27 22:32:35.58	150.44	8.93	-40.2	-43.1	11.9	3.92e-04	0	62	0	1864368128	50	5491
2026-01-27 22:32:39.62	150.83	8.66	-40.1	-43.0	11.9	3.57e-04	0	62	0	1876951040	51	5139
2026-01-27 22:32:43.66	151.22	8.38	-40.2	-43.1	11.8	4.36e-04	0	62	0	1889533952	51	5200
2026-01-27 22:32:47.71	151.60	8.11	-40.3	-43.4	11.4	8.96e-04	0	62	0	1902116864	51	5350
2026-01-27 22:32:51.75	151.97	7.83	-44.8	-57.3	3.8	1.49e+00	0	62	104	1908408320	60	15935
2026-01-27 22:32:55.79	152.34	7.56	-45.5	-58.0	3.8	1.49e+00	0	62	104	1908408320	61	16279
2026-01-27 22:32:59.83	152.70	7.30	-45.4	-57.9	3.8	1.49e+00	0	62	104	1908408320	61	16119
2026-01-27 22:33:03.87	153.06	7.03	-45.2	-57.7	3.8	1.49e+00	0	62	104	1908408320	61	15686
2026-01-27 22:33:07.92	153.41	6.76	-45.2	-57.7	3.8	1.49e+00	0	62	104	1908408320	61	15583
2026-01-27 22:33:11.96	153.75	6.50	-45.1	-57.6	3.8	1.49e+00	0	62	104	1908408320	61	15568
2026-01-27 22:33:16.00	154.09	6.24	-45.1	-57.6	3.8	1.49e+00	0	62	104	1908408320	61	15564
2026-01-27 22:33:20.04	154.42	5.98	-45.1	-57.6	3.8	1.49e+00	0	62	104	1908408320	61	15562
2026-01-27 22:33:24.08	154.74	5.72	-45.1	-57.6	3.8	1.49e+00	0	62	104	1908408320	61	15518
2026-01-27 22:33:28.13	155.06	5.47	-45.1	-57.6	3.8	1.49e+00	0	62	104	1908408320	61	15522
2026-01-27 22:33:32.17	155.38	5.21	-45.1	-57.6	3.8	1.49e+00	0	62	104	1908408320	60	16456
2026-01-27 22:33:36.21	155.69	4.96	-45.1	-57.6	3.8	1.49e+00	0	62	104	1908408320	60	16426
2026-01-27 22:33:40.25	155.99	4.71	-45.1	-57.6	3.8	1.49e+00	0	62	104	1908408320	60	16421
2026-01-27 22:33:44.28	156.29	4.46	-45.1	-57.6	3.8	1.49e+00	0	62	104	1908408320	60	16453
2026-01-27 22:33:48.32	156.58	4.22	-45.1	-57.6	3.8	1.49e+00	0	62	104	1908408320	60	16373
2026-01-27 22:33:52.36	156.87	3.97	-45.1	-57.6	3.8	1.49e+00	0	62	104	1908408320	60	16433
2026-01-27 22:33:56.40	157.16	3.73	-45.1	-57.6	3.8	1.49e+00	0	62	104	1908408320	60	16427
2026-01-27 22:34:00.44	157.44	3.49	-45.1	-57.6	3.8	1.49e+00	0	62	104	1908408320	60	16418
2026-01-27 22:34:04.48	157.72	3.25	-45.1	-57.6	3.8	1.49e+00	0	62	104	1908408320	60	16398
2026-01-27 22:34:08.52	157.99	3.01	-45.1	-57.6	3.8	1.49e+00	0	62	104	1908408320	60	16434
2026-01-27 22:34:12.56	158.26	2.77	-45.1	-57.6	3.8	1.49e+00	0	62	104	1908408320	60	16404
2026-01-27 22:34:16.60	158.52	2.53	-45.1	-57.6	3.8	1.49e+00	0	62	104	1908408320	60	16349
2026-01-27 22:34:20.64	158.78	2.30	-45.1	-57.6	3.8	1.49e+00	0	62	104	1908408320	60	16348
2026-01-27 22:34:24.68	159.04	2.07	-45.1	-57.6	3.8	1.49e+00	0	62	104	1908408320	60	16435
2026-01-27 22:34:28.72	159.29	1.84	-45.1	-57.6	3.8	1.49e+00	0	62	104	1908408320	60	16414

#Closed at: 2026-01-27 22:34:28
#Recorded file [1908 MB]: D:/lorett/data/31039_260128_012108.dat