passes_logs/2026/01/27/R2.0S_Moscow/R2.0S_Moscow__20260127_032720_FENGYUN_3D_rec.log

#Pass ID: 20260127_032720_FENGYUN 3D
#Satellite: FENGYUN 3D
#Configuration: FENGYUN 3D
#almurnet v.1.7.20251203
#Start time: 2026-01-27 03:27:20

#Version: 2.2.20231116
#Station: R2.0S_Moscow
#Location: 37.707566 lon 55.798166 lat
#TLE: 1 43010U 17072A   26026.49129444  .00000151  00000+0  93391-4 0  9993
#TLE: 2 43010  98.9962 358.4866 0002525  88.1664 271.9801 14.19700337424889

#Time	Az	El	Level	Level2	SNR	BER	BlckErr	Temp	State	Recorded	gain1	gain2
2026-01-27 03:27:20.98	10.67	2.05	-39.7	-51.3	3.8	8.46e-01	0	53	0	0	51	13297
2026-01-27 03:27:24.00	10.47	2.22	-39.7	-51.3	3.8	8.47e-01	0	53	104	0	51	13307
2026-01-27 03:27:27.03	10.27	2.39	-39.7	-51.3	3.8	8.47e-01	0	53	104	0	51	13286
2026-01-27 03:27:30.06	10.07	2.57	-39.7	-51.3	3.8	8.47e-01	0	54	104	0	51	13270
2026-01-27 03:27:33.10	9.87	2.74	-39.6	-51.3	3.8	8.45e-01	0	54	104	0	51	13276
2026-01-27 03:27:36.13	9.66	2.91	-39.6	-51.2	3.8	8.45e-01	0	54	104	0	51	13198
2026-01-27 03:27:39.16	9.45	3.09	-39.6	-51.2	3.8	8.47e-01	0	54	104	0	51	13245
2026-01-27 03:27:42.19	9.24	3.27	-39.6	-51.2	3.8	8.46e-01	0	54	104	0	51	13236
2026-01-27 03:27:45.22	9.03	3.44	-39.6	-51.2	3.8	8.47e-01	0	54	104	0	51	13242
2026-01-27 03:27:48.26	8.81	3.62	-39.6	-51.2	3.8	8.46e-01	0	55	104	0	51	13237
2026-01-27 03:27:51.29	8.59	3.80	-39.6	-51.2	3.8	8.47e-01	0	55	104	0	51	13197
2026-01-27 03:27:54.32	8.36	3.97	-39.6	-51.2	3.8	8.46e-01	0	55	104	0	51	13196
2026-01-27 03:27:57.35	8.14	4.15	-39.6	-51.2	3.8	8.46e-01	0	55	104	0	51	13229
2026-01-27 03:28:00.38	7.91	4.33	-39.6	-51.2	3.8	8.46e-01	0	55	104	0	51	13236
2026-01-27 03:28:03.41	7.68	4.51	-39.6	-51.2	3.8	8.46e-01	0	56	104	0	51	13230
2026-01-27 03:28:06.44	7.44	4.70	-39.6	-51.2	3.8	8.46e-01	0	56	104	0	51	13257
2026-01-27 03:28:09.48	7.20	4.88	-39.6	-51.2	3.8	8.47e-01	0	56	104	0	51	13248
2026-01-27 03:28:12.51	6.96	5.06	-39.7	-51.2	3.8	8.46e-01	0	56	104	0	51	13260
2026-01-27 03:28:15.54	6.72	5.25	-39.6	-51.3	3.8	8.47e-01	0	56	104	0	51	13281
2026-01-27 03:28:18.57	6.47	5.43	-39.6	-51.2	3.8	8.46e-01	0	57	104	0	51	13209
2026-01-27 03:28:21.60	6.22	5.62	-39.6	-51.2	3.8	8.46e-01	0	57	104	0	51	13244
2026-01-27 03:28:24.63	5.97	5.80	-39.6	-51.2	3.8	8.46e-01	0	57	104	0	51	13231
2026-01-27 03:28:27.66	5.71	5.99	-39.6	-51.2	3.8	8.45e-01	0	57	104	0	51	13224
2026-01-27 03:28:30.69	5.45	6.18	-39.6	-51.2	3.8	8.46e-01	0	57	104	0	51	13227
2026-01-27 03:28:33.72	5.18	6.36	-39.6	-51.2	3.8	8.46e-01	0	57	104	0	51	13210
2026-01-27 03:28:36.76	4.91	6.55	-39.6	-51.2	3.8	8.46e-01	0	57	104	0	51	13235
2026-01-27 03:28:39.79	4.64	6.74	-39.6	-51.2	3.8	8.46e-01	0	57	104	0	51	13193
2026-01-27 03:28:42.82	4.36	6.93	-39.6	-51.2	3.8	8.46e-01	0	58	104	0	51	13168
2026-01-27 03:28:45.85	4.08	7.13	-39.6	-51.2	3.8	8.46e-01	0	58	104	0	51	13208
2026-01-27 03:28:48.88	3.80	7.32	-39.6	-51.2	3.8	8.46e-01	0	58	104	0	51	13193
2026-01-27 03:28:51.92	3.51	7.51	-39.6	-51.2	3.8	8.46e-01	0	58	104	0	51	13220
2026-01-27 03:28:54.95	3.22	7.71	-39.6	-51.2	3.8	8.46e-01	0	58	104	0	51	13209
2026-01-27 03:28:57.98	2.93	7.90	-39.6	-51.2	3.8	8.47e-01	0	58	104	0	51	13166
2026-01-27 03:29:01.01	2.63	8.10	-39.7	-51.3	3.8	8.46e-01	0	58	104	0	51	13331
2026-01-27 03:29:04.04	2.32	8.29	-39.9	-51.5	3.8	8.45e-01	0	58	104	0	51	13621
2026-01-27 03:29:07.07	2.01	8.49	-39.9	-51.4	3.8	8.48e-01	0	58	104	0	51	13535
2026-01-27 03:29:10.10	1.70	8.69	-39.9	-51.5	3.8	8.46e-01	0	58	104	0	51	13612
2026-01-27 03:29:13.13	1.39	8.88	-39.8	-51.4	3.8	8.47e-01	0	59	104	0	51	13545
2026-01-27 03:29:16.16	1.06	9.08	-39.8	-51.4	3.8	8.46e-01	0	58	104	0	51	13559
2026-01-27 03:29:19.19	0.74	9.28	-39.8	-51.4	3.8	8.46e-01	0	59	104	0	51	13483
2026-01-27 03:29:22.22	0.41	9.48	-39.9	-51.5	3.8	8.47e-01	0	59	104	0	51	13678
2026-01-27 03:29:25.25	0.07	9.69	-39.8	-51.4	3.8	8.46e-01	0	59	104	0	51	13451
2026-01-27 03:29:28.28	359.73	9.89	-39.8	-51.4	3.8	8.46e-01	0	59	104	0	51	13557
2026-01-27 03:29:31.31	359.39	10.09	-39.8	-51.4	3.8	8.46e-01	0	59	104	0	51	13458
2026-01-27 03:29:34.34	359.04	10.29	-39.9	-51.5	3.8	8.46e-01	0	59	104	0	51	13725
2026-01-27 03:29:37.37	358.68	10.50	-39.9	-51.5	3.8	8.46e-01	0	59	104	0	51	13592
2026-01-27 03:29:40.40	358.32	10.70	-40.0	-51.6	3.8	8.47e-01	0	59	104	0	51	13875
2026-01-27 03:29:43.43	357.96	10.90	-39.9	-51.5	3.8	8.45e-01	0	59	104	0	51	13696
2026-01-27 03:29:46.46	357.59	11.11	-40.2	-51.8	3.8	8.46e-01	0	59	104	0	51	14124
2026-01-27 03:29:49.49	357.21	11.32	-39.9	-51.4	3.8	8.47e-01	0	59	104	0	51	13563
2026-01-27 03:29:52.52	356.83	11.52	-40.0	-51.6	3.8	8.47e-01	0	60	104	0	51	13769
2026-01-27 03:29:55.55	356.44	11.73	-41.4	-50.9	3.8	8.43e-01	0	60	104	0	53	11399
2026-01-27 03:29:58.57	356.05	11.94	-41.2	-50.7	3.9	8.45e-01	0	60	104	0	53	11094
2026-01-27 03:30:01.60	355.65	12.14	-41.2	-51.7	3.8	8.47e-01	0	60	104	0	53	12508
2026-01-27 03:30:04.64	355.25	12.35	-40.6	-51.1	3.8	8.46e-01	0	60	104	0	52	12363
2026-01-27 03:30:07.66	354.84	12.56	-40.5	-51.6	3.8	8.46e-01	0	60	104	0	52	13011
2026-01-27 03:30:10.69	354.42	12.77	-40.3	-51.8	3.8	8.45e-01	0	60	104	0	52	13414
2026-01-27 03:30:13.72	354.00	12.98	-40.3	-51.9	3.8	8.46e-01	0	60	104	0	52	13492
2026-01-27 03:30:16.76	353.57	13.19	-40.3	-51.8	3.8	8.46e-01	0	60	104	0	52	13360
2026-01-27 03:30:19.79	353.13	13.40	-40.4	-52.0	3.8	8.47e-01	0	60	104	0	52	13605
2026-01-27 03:30:22.81	352.69	13.61	-40.4	-52.0	3.8	8.46e-01	0	60	104	0	52	13654
2026-01-27 03:30:25.85	352.24	13.82	-40.5	-52.1	3.8	8.47e-01	0	60	104	0	52	13807
2026-01-27 03:30:28.88	351.79	14.03	-40.5	-52.1	3.8	8.47e-01	0	60	104	0	52	13779
2026-01-27 03:30:31.91	351.33	14.24	-40.6	-52.2	3.8	8.46e-01	0	60	104	0	52	13888
2026-01-27 03:30:34.94	350.86	14.45	-40.5	-52.1	3.8	8.47e-01	0	60	104	0	52	13818
2026-01-27 03:30:37.97	350.39	14.65	-40.9	-52.5	3.8	8.46e-01	0	60	104	0	52	14463
2026-01-27 03:30:40.99	349.91	14.86	-40.6	-52.2	3.8	8.46e-01	0	61	104	0	52	14046
2026-01-27 03:30:44.03	349.42	15.07	-40.7	-52.3	3.8	8.46e-01	0	60	104	0	52	14131
2026-01-27 03:30:47.06	348.92	15.28	-40.9	-52.5	3.8	8.47e-01	0	61	104	0	53	13700
2026-01-27 03:30:50.09	348.42	15.49	-41.4	-52.9	3.8	8.47e-01	0	61	104	0	53	14223
2026-01-27 03:30:53.12	347.91	15.70	-41.4	-53.0	3.8	8.45e-01	0	61	104	0	53	14420
2026-01-27 03:30:56.15	347.40	15.90	-41.5	-52.9	3.8	8.46e-01	0	61	104	0	53	14362
2026-01-27 03:30:59.18	346.87	16.11	-41.4	-52.9	3.8	8.46e-01	0	61	104	0	53	14219
2026-01-27 03:31:02.21	346.34	16.32	-40.8	-52.4	3.8	8.46e-01	0	61	104	0	53	13450
2026-01-27 03:31:05.24	345.80	16.52	-40.7	-52.3	3.8	8.45e-01	0	61	104	0	53	13312
2026-01-27 03:31:08.27	345.25	16.73	-40.8	-52.4	3.8	8.47e-01	0	61	104	0	53	13430
2026-01-27 03:31:11.30	344.70	16.93	-40.8	-52.4	3.8	8.46e-01	0	61	104	0	53	13516
2026-01-27 03:31:14.33	344.14	17.13	-40.6	-52.1	3.8	8.44e-01	0	61	104	0	53	13079
2026-01-27 03:31:17.36	343.57	17.33	-40.6	-52.1	3.8	8.46e-01	0	61	104	0	53	13040
2026-01-27 03:31:20.39	342.99	17.53	-40.6	-52.2	3.8	8.46e-01	0	61	104	0	53	13151
2026-01-27 03:31:23.42	342.41	17.73	-40.6	-52.2	3.8	8.46e-01	0	61	104	0	53	13125
2026-01-27 03:31:26.45	341.82	17.92	-40.6	-52.2	3.8	8.46e-01	0	61	104	0	52	13889
2026-01-27 03:31:29.48	341.21	18.12	-40.8	-52.3	3.8	8.46e-01	0	61	104	0	52	14207
2026-01-27 03:31:32.51	340.61	18.31	-40.8	-52.2	3.8	8.46e-01	0	61	104	0	52	13984
2026-01-27 03:31:35.54	339.99	18.50	-41.0	-50.5	3.8	8.45e-01	0	61	104	0	52	11459
2026-01-27 03:31:38.57	339.37	18.69	-40.1	-44.3	8.1	9.91e-02	0	61	0	6291456	52	5638
2026-01-27 03:31:41.60	338.73	18.88	-37.7	-39.9	13.5	4.57e-05	0	61	0	23068672	47	4511
2026-01-27 03:31:44.63	338.09	19.06	-36.7	-38.4	15.2	0.00e+00	0	61	0	39845888	45	4283
2026-01-27 03:31:47.66	337.45	19.25	-37.0	-38.7	15.2	0.00e+00	0	61	0	56623104	45	4429
2026-01-27 03:31:50.69	336.79	19.43	-37.1	-38.8	15.6	0.00e+00	0	61	0	74448896	44	4731
2026-01-27 03:31:53.72	336.13	19.60	-36.8	-38.5	15.9	0.00e+00	0	61	0	91226112	44	4567
2026-01-27 03:31:56.75	335.46	19.78	-36.6	-38.2	16.3	0.00e+00	0	61	0	108003328	44	4415
2026-01-27 03:31:59.78	334.78	19.95	-36.5	-38.1	16.5	0.00e+00	0	61	0	125829120	44	4349
2026-01-27 03:32:02.82	334.09	20.12	-36.5	-38.0	16.7	0.00e+00	0	61	0	142606336	44	4316
2026-01-27 03:32:05.85	333.39	20.28	-36.5	-38.1	16.6	0.00e+00	0	62	0	159383552	44	4364
2026-01-27 03:32:08.88	332.69	20.44	-36.5	-38.1	16.6	0.00e+00	0	61	0	176160768	44	4346
2026-01-27 03:32:11.91	331.98	20.60	-36.3	-37.8	17.0	0.00e+00	0	62	0	192937984	44	4214
2026-01-27 03:32:14.94	331.27	20.76	-36.1	-37.6	17.2	0.00e+00	0	61	0	210763776	44	4113
2026-01-27 03:32:17.97	330.54	20.91	-36.2	-37.6	17.1	0.00e+00	0	62	0	227540992	44	4139
2026-01-27 03:32:21.01	329.81	21.05	-36.2	-37.7	17.1	0.00e+00	0	61	0	244318208	44	4178
2026-01-27 03:32:24.04	329.07	21.20	-36.1	-37.5	17.3	0.00e+00	0	62	0	262144000	44	4097
2026-01-27 03:32:27.07	328.33	21.33	-36.3	-37.8	17.1	0.00e+00	0	61	0	278921216	44	4194
2026-01-27 03:32:30.10	327.58	21.47	-36.2	-37.6	17.2	0.00e+00	0	62	0	295698432	44	4135
2026-01-27 03:32:33.13	326.82	21.60	-36.0	-37.4	17.4	0.00e+00	0	62	0	312475648	44	4043
2026-01-27 03:32:36.16	326.05	21.72	-35.8	-37.2	17.4	0.00e+00	0	61	0	330301440	43	4185
2026-01-27 03:32:39.19	325.28	21.84	-35.8	-37.2	17.4	0.00e+00	0	62	0	347078656	43	4185
2026-01-27 03:32:42.23	324.50	21.95	-35.8	-37.2	17.4	0.00e+00	0	62	0	363855872	43	4187
2026-01-27 03:32:45.26	323.72	22.06	-35.7	-37.1	17.5	0.00e+00	0	62	0	380633088	43	4115
2026-01-27 03:32:48.29	322.93	22.17	-35.7	-37.1	17.5	0.00e+00	0	61	0	398458880	43	4120
2026-01-27 03:32:51.32	322.14	22.26	-35.7	-37.1	17.5	0.00e+00	0	62	0	415236096	43	4113
2026-01-27 03:32:54.35	321.34	22.36	-35.7	-37.1	17.5	0.00e+00	0	62	0	432013312	43	4110
2026-01-27 03:32:57.38	320.54	22.44	-35.8	-37.3	17.4	0.00e+00	0	62	0	449839104	43	4197
2026-01-27 03:33:00.41	319.74	22.53	-35.8	-37.2	17.4	0.00e+00	0	62	0	466616320	43	4190
2026-01-27 03:33:03.44	318.92	22.60	-35.7	-37.1	17.5	0.00e+00	0	61	0	483393536	43	4122
2026-01-27 03:33:06.47	318.11	22.67	-35.8	-37.2	17.4	0.00e+00	0	62	0	500170752	43	4161
2026-01-27 03:33:09.50	317.29	22.73	-35.7	-37.1	17.6	0.00e+00	0	62	0	516947968	43	4111
2026-01-27 03:33:12.53	316.47	22.79	-35.4	-36.7	17.9	0.00e+00	0	62	0	534773760	42	4179
2026-01-27 03:33:15.56	315.64	22.84	-35.3	-36.6	18.0	0.00e+00	0	62	0	551550976	42	4137
2026-01-27 03:33:18.59	314.82	22.89	-35.5	-36.9	17.8	0.00e+00	0	62	0	568328192	42	4252
2026-01-27 03:33:21.63	313.99	22.93	-35.6	-37.0	17.6	0.00e+00	0	62	0	585105408	42	4326
2026-01-27 03:33:24.66	313.15	22.96	-35.6	-36.9	17.7	0.00e+00	0	62	0	602931200	42	4286
2026-01-27 03:33:27.69	312.32	22.98	-35.4	-36.7	17.9	0.00e+00	0	62	0	619708416	42	4169
2026-01-27 03:33:30.72	311.49	23.00	-35.4	-36.7	17.9	0.00e+00	0	62	0	636485632	42	4183
2026-01-27 03:33:33.75	310.65	23.01	-35.4	-36.8	17.8	0.00e+00	0	62	0	654311424	42	4217
2026-01-27 03:33:36.78	309.82	23.02	-35.5	-36.9	17.8	0.00e+00	0	62	0	671088640	42	4257
2026-01-27 03:33:39.81	308.98	23.02	-35.2	-36.5	18.1	0.00e+00	0	62	0	687865856	42	4087
2026-01-27 03:33:42.84	308.14	23.01	-35.3	-36.7	18.0	0.00e+00	0	62	0	704643072	42	4151
2026-01-27 03:33:45.88	307.31	23.00	-35.4	-36.8	17.9	0.00e+00	0	62	0	721420288	42	4196
2026-01-27 03:33:48.91	306.47	22.98	-35.5	-36.9	17.8	0.00e+00	0	62	0	739246080	42	4245
2026-01-27 03:33:51.94	305.64	22.95	-35.6	-36.9	17.7	0.00e+00	0	62	0	756023296	42	4289
2026-01-27 03:33:54.97	304.81	22.92	-35.4	-36.8	17.8	0.00e+00	0	62	0	772800512	42	4219
2026-01-27 03:33:58.00	303.98	22.88	-35.5	-36.9	17.7	0.00e+00	0	62	0	790626304	42	4286
2026-01-27 03:34:01.02	303.15	22.83	-35.3	-36.7	18.0	0.00e+00	0	62	0	807403520	42	4164
2026-01-27 03:34:04.05	302.33	22.78	-35.4	-36.8	17.9	0.00e+00	0	62	0	824180736	42	4206
2026-01-27 03:34:07.08	301.51	22.72	-35.4	-36.8	17.9	0.00e+00	0	62	0	840957952	42	4212
2026-01-27 03:34:10.11	300.69	22.66	-35.4	-36.8	17.8	0.00e+00	0	62	0	858783744	42	4229
2026-01-27 03:34:13.14	299.87	22.59	-35.4	-36.8	17.9	0.00e+00	0	62	0	875560960	42	4221
2026-01-27 03:34:16.16	299.06	22.51	-35.5	-36.9	17.8	0.00e+00	0	62	0	892338176	42	4252
2026-01-27 03:34:19.19	298.25	22.43	-35.5	-36.9	17.7	0.00e+00	0	62	0	909115392	42	4274
2026-01-27 03:34:22.23	297.45	22.34	-35.6	-37.0	17.6	0.00e+00	0	62	0	925892608	42	4318
2026-01-27 03:34:25.26	296.65	22.25	-35.5	-36.9	17.7	0.00e+00	0	62	0	943718400	42	4288
2026-01-27 03:34:28.29	295.86	22.15	-35.4	-36.8	17.9	0.00e+00	0	62	0	960495616	42	4214
2026-01-27 03:34:31.32	295.07	22.04	-35.4	-36.8	17.9	0.00e+00	0	62	0	977272832	42	4204
2026-01-27 03:34:34.35	294.29	21.93	-35.5	-36.9	17.8	0.00e+00	0	62	0	995098624	42	4244
2026-01-27 03:34:37.39	293.51	21.82	-35.7	-37.2	17.5	0.00e+00	0	62	0	1011875840	42	4393
2026-01-27 03:34:40.42	292.74	21.70	-35.6	-37.0	17.6	0.00e+00	0	62	0	1028653056	42	4324
2026-01-27 03:34:43.45	291.97	21.57	-35.7	-37.1	17.6	0.00e+00	0	62	0	1045430272	42	4348
2026-01-27 03:34:46.48	291.21	21.44	-35.7	-37.2	17.5	0.00e+00	0	62	0	1063256064	42	4396
2026-01-27 03:34:49.52	290.46	21.31	-35.7	-37.2	17.5	0.00e+00	0	62	0	1080033280	42	4395
2026-01-27 03:34:52.55	289.71	21.17	-35.6	-37.0	17.6	0.00e+00	0	62	0	1096810496	42	4326
2026-01-27 03:34:55.58	288.97	21.03	-35.7	-37.2	17.5	0.00e+00	0	62	0	1113587712	42	4395
2026-01-27 03:34:58.61	288.24	20.88	-35.7	-37.1	17.5	0.00e+00	0	62	0	1131413504	42	4367
2026-01-27 03:35:01.64	287.52	20.73	-35.8	-37.2	17.4	0.00e+00	0	62	0	1148190720	42	4428
2026-01-27 03:35:04.67	286.80	20.57	-35.9	-37.4	17.3	0.00e+00	0	62	0	1164967936	42	4506
2026-01-27 03:35:07.69	286.09	20.41	-36.0	-37.5	17.2	0.00e+00	0	62	0	1182793728	42	4561
2026-01-27 03:35:10.72	285.39	20.25	-35.9	-37.3	17.3	0.00e+00	0	62	0	1199570944	42	4490
2026-01-27 03:35:13.76	284.69	20.09	-35.9	-37.4	17.2	0.00e+00	0	62	0	1216348160	42	4509
2026-01-27 03:35:16.79	284.00	19.92	-35.8	-37.3	17.3	0.00e+00	0	62	0	1233125376	42	4454
2026-01-27 03:35:19.82	283.32	19.74	-36.0	-37.4	17.2	0.00e+00	0	62	0	1249902592	42	4539
2026-01-27 03:35:22.85	282.65	19.57	-36.0	-37.5	17.1	0.00e+00	0	62	0	1267728384	42	4575
2026-01-27 03:35:25.88	281.98	19.39	-36.2	-37.7	16.9	0.00e+00	0	62	0	1284505600	42	4670
2026-01-27 03:35:28.91	281.33	19.21	-36.2	-37.7	16.8	0.00e+00	0	62	0	1301282816	43	4429
2026-01-27 03:35:31.95	280.68	19.03	-36.4	-37.9	16.6	0.00e+00	0	62	0	1319108608	43	4528
2026-01-27 03:35:34.98	280.03	18.84	-36.4	-37.9	16.6	0.00e+00	0	62	0	1335885824	43	4543
2026-01-27 03:35:38.01	279.40	18.65	-36.2	-37.7	16.8	0.00e+00	0	62	0	1352663040	43	4420
2026-01-27 03:35:41.03	278.78	18.46	-36.4	-37.9	16.6	0.00e+00	0	62	0	1369440256	43	4515
2026-01-27 03:35:44.07	278.16	18.27	-36.4	-37.9	16.6	0.00e+00	0	62	0	1387266048	43	4531
2026-01-27 03:35:47.10	277.55	18.08	-36.4	-38.0	16.5	0.00e+00	0	62	0	1404043264	43	4553
2026-01-27 03:35:50.13	276.95	17.88	-36.6	-38.2	16.3	0.00e+00	0	62	0	1420820480	43	4694
2026-01-27 03:35:53.16	276.35	17.68	-36.9	-38.6	16.1	0.00e+00	0	62	0	1437597696	44	4612
2026-01-27 03:35:56.19	275.77	17.49	-37.0	-38.6	16.1	0.00e+00	0	62	0	1455423488	44	4615
2026-01-27 03:35:59.22	275.19	17.29	-37.0	-38.6	16.0	0.00e+00	0	62	0	1472200704	44	4643
2026-01-27 03:36:02.25	274.62	17.08	-37.0	-38.7	16.0	0.00e+00	0	62	0	1488977920	44	4676
2026-01-27 03:36:05.29	274.05	16.88	-36.7	-38.3	16.4	0.00e+00	0	62	0	1506803712	44	4449
2026-01-27 03:36:08.32	273.50	16.68	-36.8	-38.5	16.2	0.00e+00	0	62	0	1523580928	44	4551
2026-01-27 03:36:11.35	272.95	16.47	-36.8	-38.4	16.2	0.00e+00	0	62	0	1540358144	44	4522
2026-01-27 03:36:14.38	272.41	16.27	-36.8	-38.4	16.2	0.00e+00	0	62	0	1557135360	44	4505
2026-01-27 03:36:17.41	271.87	16.06	-36.9	-38.6	16.1	0.00e+00	0	62	0	1573912576	44	4601
2026-01-27 03:36:20.44	271.35	15.85	-36.8	-38.4	16.2	0.00e+00	0	62	0	1591738368	44	4533
2026-01-27 03:36:23.47	270.83	15.64	-37.0	-38.7	15.9	0.00e+00	0	62	0	1608515584	44	4654
2026-01-27 03:36:26.50	270.32	15.44	-36.9	-38.6	16.0	0.00e+00	0	62	0	1625292800	44	4605
2026-01-27 03:36:29.53	269.81	15.23	-37.0	-38.7	15.9	0.00e+00	0	62	0	1643118592	44	4667
2026-01-27 03:36:32.56	269.32	15.02	-37.1	-38.8	15.8	0.00e+00	0	62	0	1659895808	44	4725
2026-01-27 03:36:35.59	268.83	14.81	-37.2	-38.9	15.7	0.00e+00	0	62	0	1676673024	44	4781
2026-01-27 03:36:38.62	268.34	14.60	-37.3	-39.0	15.5	0.00e+00	0	62	0	1693450240	45	4591
2026-01-27 03:36:41.65	267.87	14.39	-37.5	-39.2	15.3	0.00e+00	0	62	0	1711276032	45	4703
2026-01-27 03:36:44.68	267.40	14.18	-37.4	-39.2	15.3	0.00e+00	0	62	0	1728053248	45	4667
2026-01-27 03:36:47.71	266.94	13.97	-37.5	-39.2	15.3	0.00e+00	0	62	0	1744830464	45	4685
2026-01-27 03:36:50.74	266.48	13.76	-37.5	-39.3	15.2	0.00e+00	0	62	0	1761607680	45	4728
2026-01-27 03:36:53.78	266.03	13.54	-37.4	-39.2	15.3	0.00e+00	0	62	0	1778384896	45	4669
2026-01-27 03:36:56.80	265.59	13.34	-37.5	-39.3	15.2	0.00e+00	0	62	0	1796210688	45	4710
2026-01-27 03:36:59.84	265.15	13.12	-37.8	-39.7	14.8	0.00e+00	0	62	0	1812987904	46	4674
2026-01-27 03:37:02.87	264.72	12.91	-37.7	-39.5	15.0	0.00e+00	0	62	0	1829765120	46	4569
2026-01-27 03:37:05.90	264.30	12.70	-37.7	-39.6	14.9	0.00e+00	0	62	0	1847590912	46	4616
2026-01-27 03:37:08.93	263.88	12.50	-37.8	-39.6	14.8	0.00e+00	0	62	0	1864368128	46	4649
2026-01-27 03:37:11.96	263.46	12.29	-37.6	-39.4	15.1	0.00e+00	0	62	0	1881145344	46	4509
2026-01-27 03:37:14.99	263.06	12.08	-37.7	-39.6	14.8	0.00e+00	0	62	0	1897922560	46	4634
2026-01-27 03:37:18.03	262.66	11.87	-38.0	-40.0	14.4	0.00e+00	0	62	0	1915748352	46	4827
2026-01-27 03:37:21.06	262.26	11.66	-37.9	-39.8	14.5	0.00e+00	0	62	0	1932525568	46	4754
2026-01-27 03:37:24.09	261.87	11.45	-38.0	-39.9	14.5	1.10e-06	0	62	0	1949302784	46	4781
2026-01-27 03:37:27.13	261.49	11.25	-38.1	-40.2	14.2	2.20e-06	0	62	0	1966080000	46	4935
2026-01-27 03:37:30.15	261.11	11.04	-38.2	-40.3	14.0	1.10e-06	0	62	0	1983905792	47	4735
2026-01-27 03:37:33.18	260.74	10.83	-38.2	-40.2	14.1	2.20e-06	0	62	0	2000683008	47	4667
2026-01-27 03:37:36.21	260.37	10.63	-38.2	-40.2	14.1	0.00e+00	0	62	0	2017460224	47	4691
2026-01-27 03:37:39.25	260.01	10.42	-38.4	-40.4	13.9	3.40e-06	0	62	0	2035286016	47	4807
2026-01-27 03:37:42.28	259.65	10.22	-38.3	-40.4	13.9	1.25e-05	0	62	0	2052063232	47	4796
2026-01-27 03:37:45.31	259.30	10.02	-38.3	-40.4	13.9	6.80e-06	0	62	0	2068840448	47	4788
2026-01-27 03:37:48.34	258.95	9.81	-38.5	-40.7	13.6	1.37e-05	0	62	0	2085617664	47	4937
2026-01-27 03:37:51.37	258.61	9.61	-38.8	-41.0	13.3	1.37e-05	0	62	0	2102394880	48	4855
2026-01-27 03:37:54.41	258.27	9.41	-38.6	-40.8	13.6	1.60e-05	0	62	0	2120220672	48	4729
2026-01-27 03:37:57.44	257.94	9.21	-38.6	-40.7	13.7	1.25e-05	0	62	0	2136997888	48	4676
2026-01-27 03:38:00.47	257.61	9.01	-38.8	-41.0	13.3	2.51e-05	0	62	0	2153775104	48	4859
2026-01-27 03:38:03.50	257.29	8.81	-38.9	-41.2	13.1	3.08e-05	0	62	0	2171600896	48	4946
2026-01-27 03:38:06.53	256.97	8.61	-38.9	-41.2	13.1	4.92e-05	0	62	0	2188378112	48	4954
2026-01-27 03:38:09.56	256.65	8.41	-39.0	-41.3	12.9	6.29e-05	0	62	0	2205155328	48	5022
2026-01-27 03:38:12.59	256.34	8.21	-39.1	-41.5	12.7	1.04e-04	0	62	0	2221932544	48	5149
2026-01-27 03:38:15.62	256.03	8.02	-42.7	-48.6	5.9	2.63e-02	0	62	0	2239758336	55	7770
2026-01-27 03:38:18.65	255.73	7.82	-44.7	-56.4	3.8	8.47e-01	0	62	104	2239758336	60	14241
2026-01-27 03:38:21.69	255.43	7.62	-44.9	-56.5	3.8	8.46e-01	0	62	104	2239758336	60	14539
2026-01-27 03:38:24.72	255.14	7.43	-44.9	-56.6	3.8	8.46e-01	0	62	104	2239758336	60	14662
2026-01-27 03:38:27.75	254.85	7.24	-44.9	-56.5	3.8	8.46e-01	0	62	104	2239758336	60	14449
2026-01-27 03:38:30.78	254.56	7.04	-44.9	-56.4	3.8	8.46e-01	0	62	104	2239758336	60	14353
2026-01-27 03:38:33.81	254.28	6.85	-44.8	-56.4	3.8	8.47e-01	0	62	104	2239758336	60	14354
2026-01-27 03:38:36.84	254.00	6.66	-44.8	-56.4	3.8	8.46e-01	0	62	104	2239758336	60	14333
2026-01-27 03:38:39.87	253.73	6.47	-44.8	-56.4	3.8	8.46e-01	0	62	104	2239758336	60	14329
2026-01-27 03:38:42.91	253.46	6.28	-44.8	-56.4	3.8	8.47e-01	0	62	104	2239758336	60	14320
2026-01-27 03:38:45.94	253.19	6.09	-44.8	-56.4	3.8	8.46e-01	0	62	104	2239758336	60	14235
2026-01-27 03:38:48.97	252.93	5.90	-44.8	-56.4	3.8	8.46e-01	0	62	104	2239758336	60	14214
2026-01-27 03:38:52.00	252.67	5.72	-44.8	-56.4	3.8	8.46e-01	0	62	104	2239758336	60	14235
2026-01-27 03:38:55.03	252.41	5.53	-44.8	-56.4	3.8	8.47e-01	0	62	104	2239758336	60	14223
2026-01-27 03:38:58.06	252.16	5.34	-44.8	-56.4	3.8	8.46e-01	0	62	104	2239758336	60	14253
2026-01-27 03:39:01.09	251.91	5.16	-44.8	-56.4	3.8	8.47e-01	0	62	104	2239758336	60	14210
2026-01-27 03:39:04.12	251.66	4.98	-44.8	-56.4	3.8	8.46e-01	0	62	104	2239758336	60	14254
2026-01-27 03:39:07.16	251.41	4.79	-44.8	-56.4	3.8	8.46e-01	0	62	104	2239758336	60	14325
2026-01-27 03:39:10.19	251.17	4.61	-44.8	-56.4	3.8	8.46e-01	0	62	104	2239758336	60	14253
2026-01-27 03:39:13.22	250.94	4.43	-44.8	-56.3	3.8	8.46e-01	0	62	104	2239758336	60	14201
2026-01-27 03:39:16.25	250.70	4.25	-44.8	-56.4	3.8	8.46e-01	0	62	104	2239758336	60	14278
2026-01-27 03:39:19.28	250.47	4.07	-44.8	-56.3	3.8	8.46e-01	0	62	104	2239758336	60	14202
2026-01-27 03:39:22.31	250.24	3.89	-44.8	-56.4	3.8	8.47e-01	0	62	104	2239758336	60	14224
2026-01-27 03:39:25.34	250.02	3.71	-44.7	-56.3	3.8	8.46e-01	0	62	104	2239758336	60	14206
2026-01-27 03:39:28.37	249.79	3.53	-44.8	-56.3	3.8	8.45e-01	0	62	104	2239758336	60	14146
2026-01-27 03:39:31.40	249.57	3.35	-44.7	-56.4	3.8	8.46e-01	0	62	104	2239758336	60	14213
2026-01-27 03:39:34.43	249.35	3.18	-44.7	-56.4	3.8	8.46e-01	0	62	104	2239758336	60	14212
2026-01-27 03:39:37.47	249.14	3.00	-44.7	-56.3	3.8	8.45e-01	0	62	104	2239758336	60	14163
2026-01-27 03:39:40.50	248.93	2.83	-44.7	-56.3	3.8	8.45e-01	0	62	104	2239758336	60	14189
2026-01-27 03:39:43.53	248.72	2.65	-44.7	-56.3	3.8	8.45e-01	0	62	104	2239758336	60	14202
2026-01-27 03:39:46.56	248.51	2.48	-44.8	-56.4	3.8	8.46e-01	0	62	104	2239758336	60	14258
2026-01-27 03:39:49.59	248.30	2.31	-44.7	-56.3	3.8	8.46e-01	0	62	104	2239758336	60	14180
2026-01-27 03:39:52.62	248.10	2.13	-44.7	-56.4	3.8	8.45e-01	0	62	104	2239758336	60	14264
2026-01-27 03:39:55.65	247.90	1.96	-44.7	-56.3	3.8	8.46e-01	0	62	104	2239758336	60	14202

#Closed at: 2026-01-27 03:39:57
#Recorded file [2239 MB]: D:/lorett/data/31039_260127_062720.dat