passes_logs/2026/01/27/R2.0S_Moscow/R2.0S_Moscow__20260127_001503_AQUA_rec.log

#Pass ID: 20260127_001503_AQUA
#Satellite: AQUA
#Configuration: AQUA
#almurnet v.1.7.20251203
#Start time: 2026-01-27 00:19:27

#Version: 2.2.20231116
#Station: R2.0S_Moscow
#Location: 37.707566 lon 55.798166 lat
#TLE: 1 27424U 02022A   26026.53345137  .00001758  00000+0  36150-3 0  9990
#TLE: 2 27424  98.4100 353.1559 0001880  64.8012  49.4917 14.61862630262575

#Time	Az	El	Level	Level2	SNR	BER	BlckErr	Temp	State	Recorded	gain1	gain2
2026-01-27 00:19:27.73	61.01	22.67	-44.8	-56.5	3.8	8.46e-01	0	62	0	0	61	13628
2026-01-27 00:19:29.75	61.57	22.84	-46.4	-64.9	3.8	7.45e-01	0	62	104	0	63	31822
2026-01-27 00:19:31.77	62.13	23.01	-46.5	-65.0	3.8	7.48e-01	0	62	104	0	63	32412
2026-01-27 00:19:33.79	62.70	23.18	-46.4	-64.9	3.8	7.47e-01	0	62	104	0	63	32090
2026-01-27 00:19:35.81	63.28	23.34	-46.2	-64.7	3.8	7.45e-01	0	62	104	0	63	31225
2026-01-27 00:19:37.83	63.86	23.51	-45.8	-64.3	3.8	7.45e-01	0	62	104	0	63	29849
2026-01-27 00:19:39.85	64.45	23.67	-45.8	-64.0	3.8	7.47e-01	0	62	104	0	63	28802
2026-01-27 00:19:41.88	65.05	23.83	-45.8	-64.2	3.8	7.43e-01	0	62	104	0	63	29349
2026-01-27 00:19:43.90	65.65	23.99	-45.7	-64.2	3.8	7.45e-01	0	62	104	0	63	29649
2026-01-27 00:19:45.92	66.26	24.15	-45.7	-64.2	3.8	7.45e-01	0	62	104	0	63	29405
2026-01-27 00:19:47.94	66.88	24.30	-45.7	-64.1	3.8	7.44e-01	0	62	104	0	63	29029
2026-01-27 00:19:49.96	67.50	24.45	-45.7	-64.0	3.8	7.46e-01	0	62	104	0	63	28898
2026-01-27 00:19:51.98	68.12	24.60	-45.7	-63.6	3.8	7.47e-01	0	62	104	0	63	27663
2026-01-27 00:19:54.00	68.76	24.75	-45.7	-63.5	3.8	7.49e-01	0	62	104	0	63	27117
2026-01-27 00:19:56.02	69.40	24.89	-45.7	-63.4	3.8	7.47e-01	0	62	104	0	63	26994
2026-01-27 00:19:58.04	70.04	25.03	-45.7	-63.8	3.8	7.47e-01	0	62	104	0	63	28271
2026-01-27 00:20:00.06	70.69	25.17	-45.7	-63.2	3.8	7.47e-01	0	62	104	0	63	26434
2026-01-27 00:20:02.08	71.35	25.31	-45.7	-62.5	3.8	7.44e-01	0	62	104	0	63	24381
2026-01-27 00:20:04.10	72.01	25.44	-45.6	-62.1	3.8	7.42e-01	0	62	104	0	63	23080
2026-01-27 00:20:06.12	72.68	25.57	-45.6	-60.2	4.0	7.37e-01	0	62	104	0	63	18528
2026-01-27 00:20:08.14	73.36	25.70	-45.6	-61.2	3.9	7.42e-01	0	62	104	0	63	20826
2026-01-27 00:20:10.16	74.03	25.82	-45.6	-61.7	3.9	7.44e-01	0	62	104	0	63	22073
2026-01-27 00:20:12.18	74.72	25.94	-45.6	-61.7	3.9	7.41e-01	0	62	104	0	63	22082
2026-01-27 00:20:14.20	75.41	26.05	-45.2	-55.7	7.0	6.58e-01	91	62	0	524288	62	11774
2026-01-27 00:20:16.22	76.11	26.16	-44.5	-51.4	11.6	6.10e-01	0	62	0	4194304	60	8014
2026-01-27 00:20:18.24	76.81	26.27	-45.4	-57.8	5.6	6.94e-01	75	62	0	7864320	61	15776
2026-01-27 00:20:20.26	77.51	26.38	-43.5	-48.1	15.3	6.04e-01	0	62	0	11534336	59	5805
2026-01-27 00:20:22.28	78.22	26.48	-42.3	-45.7	17.9	6.04e-01	0	62	0	15204352	55	5574
2026-01-27 00:20:24.30	78.94	26.57	-43.9	-49.2	13.9	6.06e-01	0	62	0	16777216	59	6597
2026-01-27 00:20:26.32	79.65	26.66	-43.7	-48.5	14.4	6.04e-01	0	62	0	18874368	59	6089
2026-01-27 00:20:28.34	80.38	26.75	-43.1	-47.1	16.5	6.00e-01	0	62	0	22544384	58	5519
2026-01-27 00:20:30.36	81.10	26.83	-42.4	-45.8	17.8	6.04e-01	0	62	0	26738688	56	5329
2026-01-27 00:20:32.37	81.83	26.91	-42.1	-45.3	18.4	6.05e-01	0	62	0	30408704	56	4994
2026-01-27 00:20:34.39	82.57	26.98	-41.9	-45.0	18.5	5.99e-01	0	62	0	34078720	55	5151
2026-01-27 00:20:36.41	83.30	27.05	-41.9	-45.1	18.4	6.03e-01	0	62	0	37748736	55	5203
2026-01-27 00:20:38.43	84.04	27.12	-41.8	-44.8	18.7	6.03e-01	0	62	0	41418752	55	5029
2026-01-27 00:20:40.45	84.79	27.18	-41.9	-45.0	18.5	6.03e-01	0	62	0	45613056	55	5132
2026-01-27 00:20:42.47	85.53	27.23	-41.7	-44.7	18.8	6.01e-01	0	62	0	49283072	55	4980
2026-01-27 00:20:44.49	86.28	27.28	-41.8	-44.9	18.6	6.01e-01	0	62	0	52953088	55	5097
2026-01-27 00:20:46.51	87.04	27.33	-41.8	-44.9	18.7	6.04e-01	0	62	0	56623104	55	5066
2026-01-27 00:20:48.53	87.79	27.37	-41.8	-44.8	18.8	6.04e-01	0	62	0	60817408	55	5022
2026-01-27 00:20:50.54	88.54	27.40	-41.7	-44.8	18.8	6.00e-01	0	62	0	64487424	55	5002
2026-01-27 00:20:52.56	89.30	27.43	-41.8	-44.9	18.7	6.03e-01	0	62	0	68157440	55	5072
2026-01-27 00:20:54.58	90.06	27.46	-41.6	-44.7	18.9	6.04e-01	0	62	0	71827456	55	4927
2026-01-27 00:20:56.60	90.82	27.47	-41.7	-44.8	18.8	6.04e-01	0	62	0	76021760	55	5008
2026-01-27 00:20:58.62	91.58	27.49	-41.6	-44.5	19.0	6.01e-01	0	62	0	79691776	55	4852
2026-01-27 00:21:00.64	92.34	27.50	-41.6	-44.6	19.0	6.03e-01	0	62	0	83361792	55	4921
2026-01-27 00:21:02.66	93.10	27.50	-41.7	-44.7	18.9	6.01e-01	0	62	0	87031808	55	4945
2026-01-27 00:21:04.67	93.86	27.50	-41.7	-44.7	18.9	6.02e-01	0	62	0	90701824	55	4936
2026-01-27 00:21:06.69	94.62	27.49	-41.6	-44.7	18.9	6.02e-01	0	62	0	94896128	55	4928
2026-01-27 00:21:08.71	95.38	27.48	-41.6	-44.6	19.0	6.03e-01	0	62	0	98566144	55	4890
2026-01-27 00:21:10.73	96.14	27.46	-41.5	-44.5	19.1	6.03e-01	0	62	0	102236160	55	4815
2026-01-27 00:21:12.75	96.90	27.44	-41.6	-44.6	19.0	6.04e-01	0	62	0	105906176	55	4891
2026-01-27 00:21:14.77	97.66	27.41	-41.6	-44.5	19.1	6.03e-01	0	62	0	109576192	55	4843
2026-01-27 00:21:16.79	98.42	27.38	-41.6	-44.6	19.0	6.01e-01	0	62	0	113770496	55	4891
2026-01-27 00:21:18.81	99.17	27.34	-41.6	-44.5	19.1	6.01e-01	0	62	0	117440512	55	4846
2026-01-27 00:21:20.83	99.92	27.30	-41.5	-44.5	19.1	6.03e-01	0	62	0	121110528	55	4823
2026-01-27 00:21:22.85	100.68	27.25	-41.7	-44.7	18.9	6.03e-01	0	62	0	124780544	55	4949
2026-01-27 00:21:24.87	101.42	27.20	-41.5	-44.4	19.2	6.02e-01	0	62	0	128974848	55	4774
2026-01-27 00:21:26.89	102.17	27.14	-41.6	-44.5	19.1	6.04e-01	0	62	0	132644864	55	4829
2026-01-27 00:21:28.91	102.91	27.08	-41.6	-44.6	19.1	6.02e-01	0	62	0	136314880	55	4891
2026-01-27 00:21:30.93	103.65	27.01	-41.6	-44.6	19.0	6.02e-01	0	62	0	139984896	55	4893
2026-01-27 00:21:32.94	104.39	26.94	-41.6	-44.5	19.1	6.02e-01	0	62	0	144179200	55	4844
2026-01-27 00:21:34.96	105.12	26.87	-41.6	-44.5	19.1	6.02e-01	0	62	0	147849216	55	4835
2026-01-27 00:21:36.98	105.85	26.78	-41.5	-44.5	19.2	6.03e-01	0	62	0	151519232	55	4825
2026-01-27 00:21:39.00	106.58	26.70	-41.6	-44.6	19.0	6.04e-01	0	62	0	155189248	55	4890
2026-01-27 00:21:41.02	107.30	26.61	-41.5	-44.4	19.2	6.05e-01	0	62	0	158859264	55	4800
2026-01-27 00:21:43.05	108.02	26.51	-41.8	-44.8	18.8	6.01e-01	0	62	0	163053568	55	5032
2026-01-27 00:21:45.07	108.74	26.42	-41.6	-44.6	19.1	6.05e-01	0	62	0	166723584	55	4881
2026-01-27 00:21:47.09	109.44	26.31	-41.6	-44.5	19.1	6.03e-01	0	62	0	170393600	55	4869
2026-01-27 00:21:49.10	110.14	26.21	-41.6	-44.6	19.0	6.03e-01	0	62	0	174063616	55	4892
2026-01-27 00:21:51.13	110.85	26.10	-41.6	-44.6	19.0	6.03e-01	0	62	0	177733632	55	4905
2026-01-27 00:21:53.15	111.54	25.98	-41.6	-44.5	19.1	6.01e-01	0	62	0	181927936	55	4834
2026-01-27 00:21:55.17	112.23	25.86	-41.6	-44.6	19.0	5.99e-01	0	62	0	185597952	55	4921
2026-01-27 00:21:57.18	112.91	25.74	-41.6	-44.6	19.0	6.01e-01	0	62	0	189267968	55	4886
2026-01-27 00:21:59.20	113.59	25.62	-41.6	-44.6	19.0	6.04e-01	0	62	0	192937984	55	4911
2026-01-27 00:22:01.22	114.26	25.49	-41.6	-44.6	19.0	6.02e-01	0	62	0	197132288	55	4892
2026-01-27 00:22:03.24	114.93	25.36	-41.7	-44.7	18.9	6.03e-01	0	62	0	200802304	55	4952
2026-01-27 00:22:05.26	115.59	25.22	-41.6	-44.7	18.9	6.03e-01	0	62	0	204472320	55	4927
2026-01-27 00:22:07.28	116.25	25.08	-41.7	-44.8	18.8	6.03e-01	0	62	0	208142336	55	4986
2026-01-27 00:22:09.30	116.90	24.94	-41.6	-44.6	19.0	6.02e-01	0	62	0	212336640	55	4915
2026-01-27 00:22:11.32	117.54	24.80	-41.6	-44.5	19.0	6.04e-01	0	62	0	216006656	55	4865
2026-01-27 00:22:13.33	118.18	24.65	-41.7	-44.7	18.8	6.04e-01	0	62	0	219676672	55	4961
2026-01-27 00:22:15.35	118.81	24.50	-41.6	-44.6	18.9	6.02e-01	0	62	0	223346688	55	4916
2026-01-27 00:22:17.38	119.44	24.35	-41.7	-44.7	18.8	6.04e-01	0	62	0	227016704	55	4956
2026-01-27 00:22:19.40	120.06	24.20	-41.7	-44.7	18.8	6.02e-01	0	62	0	231211008	55	4975
2026-01-27 00:22:21.42	120.67	24.04	-41.7	-44.8	18.7	6.03e-01	0	62	0	234881024	55	5002
2026-01-27 00:22:23.44	121.28	23.88	-41.5	-44.5	19.1	6.05e-01	0	62	0	238551040	55	4833
2026-01-27 00:22:25.46	121.88	23.72	-41.7	-44.7	18.9	6.03e-01	0	62	0	242221056	55	4953
2026-01-27 00:22:27.48	122.47	23.56	-41.6	-44.6	18.9	6.04e-01	0	62	0	245891072	55	4892
2026-01-27 00:22:29.50	123.06	23.39	-41.6	-44.6	18.8	6.00e-01	0	62	0	250085376	55	4916
2026-01-27 00:22:31.52	123.64	23.23	-41.6	-44.6	18.9	6.03e-01	0	62	0	253755392	55	4877
2026-01-27 00:22:33.54	124.22	23.06	-41.5	-44.5	18.9	6.04e-01	0	62	0	257425408	55	4839
2026-01-27 00:22:35.55	124.78	22.89	-41.6	-44.6	18.8	6.02e-01	0	62	0	261095424	55	4920
2026-01-27 00:22:37.57	125.35	22.72	-41.7	-44.8	18.6	6.02e-01	0	62	0	265289728	55	5036
2026-01-27 00:22:39.59	125.90	22.55	-41.7	-44.7	18.8	6.02e-01	0	62	0	268959744	55	4959
2026-01-27 00:22:41.61	126.45	22.37	-41.6	-44.5	19.0	6.02e-01	0	62	0	272629760	55	4849
2026-01-27 00:22:43.63	127.00	22.20	-41.6	-44.6	18.9	6.03e-01	0	62	0	276299776	55	4917
2026-01-27 00:22:45.65	127.53	22.02	-41.7	-44.7	18.8	6.02e-01	0	62	0	280494080	55	4961
2026-01-27 00:22:47.67	128.07	21.84	-41.6	-44.6	18.9	6.04e-01	0	62	0	284164096	55	4886
2026-01-27 00:22:49.69	128.59	21.66	-41.6	-44.6	18.9	6.04e-01	0	62	0	287834112	55	4917
2026-01-27 00:22:51.71	129.11	21.48	-41.5	-44.5	18.9	6.03e-01	0	62	0	291504128	55	4827
2026-01-27 00:22:53.73	129.62	21.30	-41.5	-44.5	19.0	6.01e-01	0	62	0	295174144	55	4829
2026-01-27 00:22:55.75	130.13	21.12	-41.6	-44.6	18.9	6.02e-01	0	62	0	299368448	55	4884
2026-01-27 00:22:57.77	130.63	20.94	-41.6	-44.6	18.9	6.02e-01	0	62	0	303038464	55	4892
2026-01-27 00:22:59.79	131.12	20.76	-41.5	-44.5	19.0	6.00e-01	0	62	0	306708480	54	5120
2026-01-27 00:23:01.81	131.61	20.58	-41.4	-44.4	18.4	6.03e-01	0	62	0	310378496	54	5062
2026-01-27 00:23:03.83	132.09	20.39	-41.5	-44.6	18.9	6.04e-01	0	62	0	314048512	54	5162
2026-01-27 00:23:05.85	132.57	20.21	-41.6	-44.6	18.8	6.00e-01	0	62	0	318242816	54	5211
2026-01-27 00:23:07.87	133.04	20.02	-41.6	-44.7	18.8	6.01e-01	0	62	0	321912832	54	5228
2026-01-27 00:23:09.89	133.51	19.84	-41.5	-44.5	18.9	6.02e-01	0	62	0	325582848	53	5417
2026-01-27 00:23:11.91	133.97	19.65	-41.5	-44.6	18.9	6.04e-01	0	62	0	329252864	53	5476
2026-01-27 00:23:13.93	134.42	19.47	-41.5	-44.5	18.9	6.02e-01	0	62	0	333447168	53	5403
2026-01-27 00:23:15.95	134.87	19.28	-41.4	-44.4	18.9	6.03e-01	0	62	0	337117184	53	5390
2026-01-27 00:23:17.97	135.31	19.10	-41.4	-44.4	19.0	6.00e-01	0	62	0	340787200	53	5354
2026-01-27 00:23:19.99	135.75	18.91	-41.4	-44.3	19.0	6.01e-01	0	62	0	344457216	53	5317
2026-01-27 00:23:22.01	136.18	18.73	-41.4	-44.3	19.0	6.03e-01	0	62	0	348127232	53	5334
2026-01-27 00:23:24.03	136.60	18.54	-41.3	-44.3	19.1	6.05e-01	0	62	0	352321536	53	5308
2026-01-27 00:23:26.06	137.03	18.35	-41.3	-44.3	19.0	6.02e-01	0	62	0	355991552	53	5317
2026-01-27 00:23:28.08	137.44	18.17	-41.4	-44.4	19.0	6.03e-01	0	62	0	359661568	53	5363
2026-01-27 00:23:30.10	137.85	17.98	-41.4	-44.4	19.0	6.00e-01	0	62	0	363331584	53	5367
2026-01-27 00:23:32.12	138.26	17.80	-41.4	-44.4	18.9	6.04e-01	0	62	0	367525888	53	5377
2026-01-27 00:23:34.14	138.66	17.61	-41.3	-44.3	19.0	6.03e-01	0	62	0	371195904	53	5324
2026-01-27 00:23:36.16	139.05	17.43	-41.3	-44.3	19.0	6.04e-01	0	62	0	374865920	53	5300
2026-01-27 00:23:38.18	139.44	17.24	-41.3	-44.3	19.0	6.02e-01	0	62	0	378535936	53	5289
2026-01-27 00:23:40.20	139.83	17.06	-41.3	-44.3	18.9	6.02e-01	0	62	0	382730240	53	5298
2026-01-27 00:23:42.22	140.21	16.88	-41.4	-44.4	18.8	6.01e-01	0	62	0	386400256	53	5367
2026-01-27 00:23:44.24	140.58	16.69	-41.3	-44.3	18.9	6.03e-01	0	62	0	390070272	53	5319
2026-01-27 00:23:46.27	140.95	16.51	-41.4	-44.5	18.8	6.04e-01	0	62	0	393740288	53	5409
2026-01-27 00:23:48.29	141.32	16.33	-41.4	-44.5	18.7	6.03e-01	0	62	0	397934592	53	5434
2026-01-27 00:23:50.31	141.68	16.15	-41.3	-44.5	18.7	6.04e-01	0	62	0	401604608	53	5409
2026-01-27 00:23:52.33	142.04	15.96	-41.4	-44.5	18.7	6.02e-01	0	62	0	405274624	53	5433
2026-01-27 00:23:54.35	142.39	15.78	-41.3	-44.2	18.9	6.00e-01	0	62	0	408944640	53	5272
2026-01-27 00:23:56.37	142.74	15.60	-41.3	-44.3	18.9	6.01e-01	0	62	0	412614656	53	5301
2026-01-27 00:23:58.39	143.08	15.42	-41.2	-44.3	18.8	6.02e-01	0	62	0	416808960	53	5292
2026-01-27 00:24:00.41	143.42	15.24	-41.3	-44.4	18.7	6.02e-01	0	62	0	420478976	53	5392
2026-01-27 00:24:02.43	143.76	15.07	-41.4	-44.5	18.6	6.01e-01	0	62	0	424148992	53	5428
2026-01-27 00:24:04.45	144.09	14.89	-41.4	-44.5	18.6	6.02e-01	0	62	0	427819008	53	5432
2026-01-27 00:24:06.46	144.41	14.71	-41.4	-44.5	18.7	6.03e-01	0	62	0	431489024	53	5420
2026-01-27 00:24:08.48	144.74	14.53	-41.3	-44.3	18.7	6.01e-01	0	62	0	435683328	53	5332
2026-01-27 00:24:10.50	145.06	14.36	-41.3	-44.4	18.7	6.04e-01	0	62	0	439353344	53	5359
2026-01-27 00:24:12.52	145.37	14.18	-41.4	-44.5	18.6	6.04e-01	0	62	0	443023360	53	5462
2026-01-27 00:24:14.54	145.68	14.01	-41.4	-44.6	18.5	6.02e-01	0	62	0	446693376	53	5473
2026-01-27 00:24:16.56	145.99	13.83	-41.4	-44.5	18.5	6.06e-01	0	62	0	450887680	53	5462
2026-01-27 00:24:18.57	146.29	13.66	-41.4	-44.6	18.0	6.01e-01	0	62	0	454557696	53	5479
2026-01-27 00:24:20.60	146.59	13.49	-41.4	-44.5	18.5	6.01e-01	0	62	0	458227712	53	5463
2026-01-27 00:24:22.62	146.89	13.31	-41.4	-44.6	18.5	6.06e-01	0	62	0	461897728	53	5483
2026-01-27 00:24:24.63	147.18	13.14	-41.3	-44.5	18.5	6.03e-01	0	62	0	465567744	53	5434
2026-01-27 00:24:26.66	147.47	12.97	-41.4	-44.6	18.5	6.02e-01	0	62	0	469762048	53	5485
2026-01-27 00:24:28.67	147.76	12.80	-41.3	-44.5	18.5	6.02e-01	0	62	0	473432064	53	5429
2026-01-27 00:24:30.70	148.04	12.63	-41.4	-44.7	18.4	6.02e-01	0	62	0	477102080	53	5542
2026-01-27 00:24:32.71	148.32	12.46	-41.5	-44.8	18.2	6.04e-01	0	62	0	480772096	53	5596
2026-01-27 00:24:34.73	148.60	12.30	-41.5	-44.8	18.1	6.04e-01	0	62	0	484442112	53	5651
2026-01-27 00:24:36.76	148.87	12.13	-41.6	-45.0	17.9	6.06e-01	0	62	0	488636416	53	5748
2026-01-27 00:24:38.78	149.14	11.96	-41.5	-44.9	18.0	6.01e-01	0	62	0	492306432	53	5685
2026-01-27 00:24:40.80	149.41	11.79	-41.5	-44.9	18.0	6.05e-01	0	62	0	495976448	53	5675
2026-01-27 00:24:42.82	149.67	11.63	-41.6	-45.0	17.8	6.02e-01	0	62	0	499646464	53	5772
2026-01-27 00:24:44.83	149.93	11.47	-41.5	-44.8	18.1	6.01e-01	0	62	0	503840768	53	5637
2026-01-27 00:24:46.85	150.18	11.30	-41.6	-45.0	17.8	6.00e-01	0	62	0	507510784	53	5760
2026-01-27 00:24:48.87	150.44	11.14	-41.6	-45.0	17.9	6.03e-01	0	62	0	511180800	53	5746
2026-01-27 00:24:50.89	150.69	10.98	-41.6	-45.0	17.8	6.01e-01	0	62	0	514850816	53	5753
2026-01-27 00:24:52.91	150.94	10.82	-41.6	-45.1	17.7	6.05e-01	0	62	0	519045120	53	5811
2026-01-27 00:24:54.93	151.18	10.65	-41.6	-45.1	17.7	6.03e-01	0	62	0	522715136	53	5843
2026-01-27 00:24:56.96	151.43	10.49	-41.6	-45.2	17.6	6.03e-01	0	62	0	526385152	53	5883
2026-01-27 00:24:58.97	151.67	10.34	-41.7	-45.3	17.4	6.04e-01	0	62	0	530055168	53	5934
2026-01-27 00:25:00.99	151.90	10.18	-41.7	-45.4	17.4	6.03e-01	0	62	0	534249472	54	5665
2026-01-27 00:25:03.01	152.14	10.02	-41.7	-45.4	17.3	6.02e-01	0	62	0	537919488	54	5697
2026-01-27 00:25:05.03	152.37	9.86	-41.7	-45.4	17.2	6.04e-01	0	62	0	541589504	54	5718
2026-01-27 00:25:07.05	152.60	9.71	-41.7	-45.5	17.2	6.06e-01	0	62	0	545259520	54	5750
2026-01-27 00:25:09.07	152.83	9.55	-41.7	-45.4	17.2	6.03e-01	0	62	0	548929536	54	5699
2026-01-27 00:25:11.09	153.05	9.40	-41.8	-45.6	17.0	6.05e-01	0	62	0	553123840	54	5829
2026-01-27 00:25:13.11	153.27	9.24	-41.8	-45.6	17.0	6.00e-01	0	62	0	556793856	54	5814
2026-01-27 00:25:15.13	153.49	9.09	-41.8	-45.7	16.8	6.03e-01	0	62	0	560463872	54	5916
2026-01-27 00:25:17.15	153.71	8.93	-41.8	-45.7	16.8	6.04e-01	0	62	0	564133888	54	5915
2026-01-27 00:25:19.17	153.92	8.78	-41.8	-45.8	16.8	6.03e-01	0	62	0	567803904	54	5938
2026-01-27 00:25:21.19	154.14	8.63	-41.8	-45.8	16.7	6.03e-01	0	62	0	571998208	54	5956
2026-01-27 00:25:23.21	154.35	8.48	-41.8	-45.8	16.7	6.04e-01	0	62	0	575668224	54	5927
2026-01-27 00:25:25.23	154.55	8.33	-41.9	-46.0	16.5	6.04e-01	0	62	0	579338240	54	6065
2026-01-27 00:25:27.25	154.76	8.18	-41.9	-46.1	16.3	6.06e-01	0	62	0	583008256	54	6164
2026-01-27 00:25:29.27	154.96	8.03	-41.9	-46.2	16.0	6.04e-01	0	62	0	587202560	54	6257
2026-01-27 00:25:31.29	155.16	7.88	-45.6	-64.1	3.8	7.45e-01	0	62	104	588775424	61	32698
2026-01-27 00:25:33.31	155.36	7.74	-46.1	-64.6	3.8	7.47e-01	0	62	104	588775424	62	32626
2026-01-27 00:25:35.33	155.56	7.59	-46.3	-64.8	3.8	7.46e-01	0	62	104	588775424	63	31527
2026-01-27 00:25:37.35	155.75	7.45	-46.3	-64.8	3.8	7.50e-01	0	62	104	588775424	63	31806
2026-01-27 00:25:39.37	155.95	7.30	-46.3	-64.8	3.8	7.46e-01	0	62	104	588775424	63	31656
2026-01-27 00:25:41.39	156.14	7.16	-46.1	-64.6	3.8	7.47e-01	0	62	104	588775424	63	30961
2026-01-27 00:25:43.41	156.33	7.01	-46.1	-64.6	3.8	7.47e-01	0	62	104	588775424	63	30925
2026-01-27 00:25:45.43	156.51	6.87	-46.0	-64.5	3.8	7.46e-01	0	62	104	588775424	63	30637
2026-01-27 00:25:47.45	156.70	6.73	-46.0	-64.5	3.8	7.47e-01	0	62	104	588775424	63	30614
2026-01-27 00:25:49.47	156.88	6.58	-46.0	-64.5	3.8	7.46e-01	0	62	104	588775424	63	30601
2026-01-27 00:25:51.49	157.06	6.44	-46.0	-64.5	3.8	7.45e-01	0	62	104	588775424	63	30617
2026-01-27 00:25:53.51	157.24	6.30	-46.0	-64.5	3.8	7.41e-01	0	62	104	588775424	63	30581
2026-01-27 00:25:55.53	157.42	6.16	-46.0	-64.5	3.8	7.45e-01	0	62	104	588775424	63	30554
2026-01-27 00:25:57.55	157.60	6.02	-46.0	-64.5	3.8	7.47e-01	0	62	104	588775424	63	30516
2026-01-27 00:25:59.57	157.77	5.88	-46.0	-64.5	3.8	7.43e-01	0	62	104	588775424	63	30530
2026-01-27 00:26:01.59	157.94	5.75	-46.0	-64.5	3.8	7.43e-01	0	62	104	588775424	63	30553
2026-01-27 00:26:03.61	158.11	5.61	-46.0	-64.5	3.8	7.46e-01	0	62	104	588775424	63	30512
2026-01-27 00:26:05.63	158.28	5.47	-46.0	-64.5	3.8	7.51e-01	0	62	104	588775424	63	30523
2026-01-27 00:26:07.65	158.45	5.34	-46.0	-64.5	3.8	7.46e-01	0	62	104	588775424	63	30446
2026-01-27 00:26:09.67	158.62	5.20	-46.0	-64.5	3.8	7.47e-01	0	62	104	588775424	63	30443
2026-01-27 00:26:11.69	158.78	5.06	-45.9	-64.4	3.8	7.43e-01	0	62	104	588775424	63	30359
2026-01-27 00:26:13.72	158.94	4.93	-45.9	-64.4	3.8	7.43e-01	0	62	104	588775424	63	30286
2026-01-27 00:26:15.74	159.10	4.80	-45.9	-64.4	3.8	7.45e-01	0	63	104	588775424	63	30258
2026-01-27 00:26:17.76	159.26	4.66	-45.9	-64.4	3.8	7.48e-01	0	63	104	588775424	63	30240
2026-01-27 00:26:19.78	159.42	4.53	-45.9	-64.4	3.8	7.45e-01	0	63	104	588775424	63	30205
2026-01-27 00:26:21.80	159.58	4.40	-45.9	-64.4	3.8	7.45e-01	0	62	104	588775424	63	30120
2026-01-27 00:26:23.82	159.73	4.27	-45.9	-64.4	3.8	7.43e-01	0	63	104	588775424	63	30210
2026-01-27 00:26:25.84	159.89	4.13	-45.9	-64.4	3.8	7.45e-01	0	62	104	588775424	63	30276
2026-01-27 00:26:27.86	160.04	4.00	-45.9	-64.4	3.8	7.47e-01	0	63	104	588775424	63	30320
2026-01-27 00:26:29.88	160.19	3.87	-45.9	-64.4	3.8	7.43e-01	0	63	104	588775424	63	30249
2026-01-27 00:26:31.91	160.34	3.74	-45.9	-64.4	3.8	7.46e-01	0	63	104	588775424	63	30236
2026-01-27 00:26:33.93	160.49	3.61	-45.9	-64.4	3.8	7.45e-01	0	63	104	588775424	63	30317
2026-01-27 00:26:35.95	160.63	3.49	-45.9	-64.4	3.8	7.47e-01	0	62	104	588775424	63	30330
2026-01-27 00:26:37.97	160.78	3.36	-45.9	-64.4	3.8	7.48e-01	0	63	104	588775424	63	30238
2026-01-27 00:26:39.99	160.92	3.23	-45.9	-64.4	3.8	7.47e-01	0	63	104	588775424	63	30165
2026-01-27 00:26:42.01	161.07	3.10	-45.9	-64.4	3.8	7.46e-01	0	62	104	588775424	63	30234
2026-01-27 00:26:44.03	161.21	2.98	-45.9	-64.4	3.8	7.45e-01	0	63	104	588775424	63	30230
2026-01-27 00:26:46.06	161.35	2.85	-45.9	-64.4	3.8	7.45e-01	0	62	104	588775424	63	30219
2026-01-27 00:26:48.08	161.49	2.73	-45.9	-64.4	3.8	7.43e-01	0	63	104	588775424	63	30234
2026-01-27 00:26:50.10	161.63	2.60	-45.9	-64.4	3.8	7.43e-01	0	63	104	588775424	63	30321
2026-01-27 00:26:52.12	161.76	2.48	-45.9	-64.4	3.8	7.45e-01	0	63	104	588775424	63	30220
2026-01-27 00:26:54.14	161.90	2.35	-45.9	-64.4	3.8	7.46e-01	0	63	104	588775424	63	30155
2026-01-27 00:26:56.16	162.03	2.23	-45.9	-64.4	3.8	7.49e-01	0	63	104	588775424	63	30141
2026-01-27 00:26:58.18	162.16	2.11	-45.9	-64.4	3.8	7.44e-01	0	63	104	588775424	63	30109
2026-01-27 00:27:00.21	162.30	1.98	-45.8	-64.4	3.8	7.46e-01	0	62	104	588775424	63	30086
2026-01-27 00:27:02.23	162.43	1.86	-45.9	-64.4	3.8	7.44e-01	0	62	104	588775424	63	30084

#Closed at: 2026-01-27 00:27:02
#Recorded file [588 MB]: D:/lorett/data/31039_260127_031927.dat