passes_logs/2026/01/27/R2.0S_Moscow/R2.0S_Moscow__20260127_092051_NOAA_20_JPSS-1_rec.log

#Pass ID: 20260127_092051_NOAA 20 (JPSS-1)
#Satellite: NOAA 20 (JPSS-1)
#Configuration: NOAA 20
#almurnet v.1.7.20251203
#Start time: 2026-01-27 09:20:53

#Version: 2.2.20231116
#Station: R2.0S_Moscow
#Location: 37.707566 lon 55.798166 lat
#TLE: 1 43013U 17073A   26026.81907703  .00000149  00000+0  91399-4 0  9998
#TLE: 2 43013  98.7647 327.6343 0000991  22.4130 337.7089 14.19540778424411

#Time	Az	El	Level	Level2	SNR	BER	BlckErr	Temp	State	Recorded	gain1	gain2
2026-01-27 09:20:53.26	143.79	2.10	-43.9	-58.4	3.8	1.49e+00	0	56	0	0	58	20273
2026-01-27 09:20:57.29	143.70	2.36	-43.8	-58.4	3.8	1.49e+00	0	56	104	0	58	20254
2026-01-27 09:21:01.33	143.60	2.62	-43.9	-58.4	3.8	1.49e+00	0	57	104	0	58	20258
2026-01-27 09:21:05.37	143.50	2.88	-43.9	-58.4	3.8	1.49e+00	0	57	104	0	58	20234
2026-01-27 09:21:09.41	143.40	3.15	-43.9	-58.5	3.8	1.49e+00	0	57	104	0	58	20354
2026-01-27 09:21:13.45	143.30	3.41	-43.9	-58.4	3.8	1.49e+00	0	57	104	0	58	20285
2026-01-27 09:21:17.50	143.20	3.68	-43.9	-58.4	3.8	1.49e+00	0	57	104	0	58	20169
2026-01-27 09:21:21.53	143.09	3.96	-43.9	-58.4	3.8	1.49e+00	0	58	104	0	58	20177
2026-01-27 09:21:25.58	142.98	4.23	-43.9	-58.4	3.8	1.49e+00	0	58	104	0	58	20161
2026-01-27 09:21:29.62	142.87	4.51	-43.9	-58.4	3.8	1.49e+00	0	58	104	0	58	20113
2026-01-27 09:21:33.66	142.76	4.79	-43.9	-58.3	3.8	1.49e+00	0	58	104	0	58	19947
2026-01-27 09:21:37.70	142.65	5.08	-43.7	-58.0	3.8	1.49e+00	0	59	104	0	58	19388
2026-01-27 09:21:41.74	142.53	5.36	-43.8	-57.4	3.8	1.49e+00	0	59	104	0	58	17983
2026-01-27 09:21:45.78	142.41	5.65	-43.8	-57.3	3.8	1.49e+00	0	59	104	0	58	17745
2026-01-27 09:21:49.82	142.29	5.95	-43.8	-56.0	4.0	1.48e+00	0	60	104	0	58	15235
2026-01-27 09:21:53.86	142.16	6.24	-43.7	-54.6	4.3	1.40e+00	0	59	0	0	58	13072
2026-01-27 09:21:57.91	142.03	6.55	-43.6	-53.9	4.5	1.02e+00	2	60	0	5242880	58	12047
2026-01-27 09:22:01.95	141.90	6.85	-43.6	-54.7	4.2	1.35e+00	0	60	0	10485760	57	13915
2026-01-27 09:22:05.99	141.77	7.16	-43.7	-54.9	4.2	1.41e+00	0	60	0	10485760	57	14368
2026-01-27 09:22:10.03	141.63	7.47	-43.2	-51.6	5.8	5.09e-01	0	60	0	15728640	57	9785
2026-01-27 09:22:14.07	141.49	7.78	-42.5	-48.5	8.5	5.52e-02	0	60	0	23068672	56	7276
2026-01-27 09:22:18.12	141.34	8.10	-44.2	-57.3	3.8	1.17e+00	0	60	104	29360128	59	16861
2026-01-27 09:22:22.16	141.20	8.42	-43.2	-53.4	4.6	5.48e-01	3	61	0	33554432	57	12073
2026-01-27 09:22:26.20	141.05	8.74	-41.3	-46.0	10.9	2.71e-03	0	61	0	40894464	53	6427
2026-01-27 09:22:30.24	140.89	9.07	-41.2	-45.6	11.3	1.51e-03	0	61	0	48234496	53	6155
2026-01-27 09:22:34.28	140.73	9.41	-41.2	-45.7	11.2	2.00e-03	0	61	0	56623104	53	6257
2026-01-27 09:22:38.31	140.57	9.75	-41.4	-45.8	11.1	1.77e-03	0	61	0	63963136	53	6323
2026-01-27 09:22:42.35	140.41	10.09	-41.2	-45.6	11.4	1.35e-03	0	61	0	71303168	53	6145
2026-01-27 09:22:46.39	140.24	10.44	-41.2	-45.3	11.1	1.86e-03	0	61	0	78643200	52	6338
2026-01-27 09:22:50.43	140.06	10.79	-41.2	-45.3	11.8	2.20e-03	0	61	0	87031808	52	6284
2026-01-27 09:22:54.46	139.88	11.14	-41.2	-45.3	11.7	9.29e-04	0	61	0	94371840	53	5984
2026-01-27 09:22:58.50	139.70	11.50	-41.3	-45.4	11.3	1.40e-03	0	61	0	101711872	53	6018
2026-01-27 09:23:02.54	139.51	11.87	-41.4	-45.5	11.7	1.23e-02	0	62	0	109051904	53	6092
2026-01-27 09:23:06.58	139.32	12.24	-41.2	-45.4	11.7	7.07e-03	0	62	0	116391936	53	6022
2026-01-27 09:23:10.62	139.12	12.62	-40.9	-45.1	12.0	2.29e-02	0	62	0	124780544	53	5847
2026-01-27 09:23:14.66	138.91	13.00	-39.2	-44.9	10.2	5.56e-02	0	62	0	132120576	47	7992
2026-01-27 09:23:18.70	138.70	13.39	-41.5	-45.3	12.2	1.75e-02	0	62	0	139460608	53	5932
2026-01-27 09:23:22.74	138.49	13.79	-40.4	-44.8	11.5	4.74e-02	0	62	0	146800640	51	6337
2026-01-27 09:23:26.79	138.27	14.19	-38.8	-44.6	10.2	1.23e-01	2	62	0	155189248	50	6540
2026-01-27 09:23:30.83	138.04	14.60	-41.2	-45.0	11.7	2.85e-02	0	62	0	162529280	52	6126
2026-01-27 09:23:34.87	137.80	15.01	-41.6	-45.1	11.5	8.43e-02	0	62	0	169869312	50	6959
2026-01-27 09:23:38.91	137.56	15.43	-41.1	-44.5	12.8	1.00e-02	0	62	0	177209344	52	5788
2026-01-27 09:23:42.95	137.31	15.86	-41.0	-44.5	12.8	1.26e-02	0	62	0	184549376	52	5727
2026-01-27 09:23:47.00	137.05	16.29	-40.4	-44.7	12.3	1.56e-02	0	62	0	192937984	53	5562
2026-01-27 09:23:51.03	136.79	16.73	-37.8	-44.1	8.7	2.43e-02	0	62	0	200278016	48	6949
2026-01-27 09:23:55.07	136.52	17.18	-41.1	-44.9	12.8	1.18e-02	0	62	0	207618048	53	5680
2026-01-27 09:23:59.11	136.24	17.64	-41.3	-44.6	13.1	3.23e-03	0	62	0	214958080	52	5803
2026-01-27 09:24:03.15	135.94	18.10	-40.5	-44.4	12.7	1.66e-02	0	62	0	222298112	52	5667
2026-01-27 09:24:07.19	135.64	18.57	-41.1	-44.5	13.2	2.49e-03	0	62	0	230686720	52	5723
2026-01-27 09:24:11.23	135.33	19.05	-41.3	-44.6	13.4	1.69e-03	0	62	0	238026752	53	5514
2026-01-27 09:24:15.27	135.01	19.54	-40.6	-44.7	13.1	2.16e-03	0	62	0	245366784	53	5577
2026-01-27 09:24:19.31	134.68	20.04	-41.5	-44.9	13.1	1.59e-04	0	62	0	252706816	53	5721
2026-01-27 09:24:23.35	134.34	20.55	-41.7	-45.3	12.8	8.84e-04	0	62	0	261095424	53	5942
2026-01-27 09:24:27.39	133.99	21.06	-41.5	-45.2	12.9	2.12e-04	0	62	0	268435456	54	5558
2026-01-27 09:24:31.43	133.62	21.59	-41.9	-45.7	12.3	7.66e-04	0	63	0	275775488	54	5918
2026-01-27 09:24:35.47	133.24	22.12	-41.8	-45.4	12.8	9.23e-03	0	63	0	283115520	54	5703
2026-01-27 09:24:39.51	132.85	22.67	-41.9	-45.7	12.5	1.36e-03	0	62	0	290455552	54	5873
2026-01-27 09:24:43.54	132.44	23.22	-42.0	-45.7	12.5	2.08e-04	0	62	0	298844160	54	5906
2026-01-27 09:24:47.58	132.02	23.79	-42.2	-46.1	12.0	2.05e-04	0	63	0	306184192	54	6185
2026-01-27 09:24:51.62	131.58	24.37	-42.2	-46.2	12.1	2.39e-04	0	63	0	313524224	55	5861
2026-01-27 09:24:55.66	131.12	24.96	-42.3	-46.4	11.8	4.55e-04	0	63	0	320864256	55	6043
2026-01-27 09:24:59.70	130.65	25.56	-42.0	-46.4	11.6	9.54e-04	0	63	0	329252864	54	6368
2026-01-27 09:25:03.74	130.16	26.17	-42.6	-46.8	11.4	9.84e-04	0	63	0	336592896	55	6339
2026-01-27 09:25:07.78	129.64	26.79	-42.6	-46.8	11.4	8.70e-04	0	63	0	343932928	55	6345
2026-01-27 09:25:11.82	129.11	27.42	-42.9	-47.3	11.1	1.58e-03	0	63	0	351272960	56	6335
2026-01-27 09:25:15.86	128.55	28.07	-42.8	-47.3	11.1	1.19e-03	0	63	0	359661568	56	6280
2026-01-27 09:25:19.90	127.97	28.73	-42.7	-46.9	11.6	8.19e-04	0	63	0	367001600	56	6003
2026-01-27 09:25:23.94	127.37	29.40	-42.7	-47.0	11.5	8.10e-04	0	63	0	374341632	56	6078
2026-01-27 09:25:27.98	126.74	30.08	-42.8	-47.0	11.5	9.21e-04	0	63	0	381681664	56	6118
2026-01-27 09:25:32.02	126.08	30.78	-42.9	-47.4	11.1	1.23e-03	0	63	0	389021696	56	6352
2026-01-27 09:25:36.06	125.39	31.49	-43.0	-47.7	10.8	2.03e-03	0	63	0	397410304	56	6575
2026-01-27 09:25:40.10	124.67	32.21	-43.1	-47.9	10.5	3.89e-03	0	63	0	404750336	56	6784
2026-01-27 09:25:44.14	123.92	32.94	-43.2	-48.0	10.5	4.00e-03	0	63	0	412090368	57	6423
2026-01-27 09:25:48.17	123.14	33.68	-43.3	-48.3	10.1	4.73e-03	0	63	0	419430400	57	6676
2026-01-27 09:25:52.21	122.31	34.44	-43.3	-48.2	10.3	5.35e-03	0	63	0	427819008	57	6606
2026-01-27 09:25:56.25	121.45	35.21	-43.1	-47.8	10.7	3.30e-03	0	63	0	435159040	57	6310
2026-01-27 09:26:00.29	120.54	35.99	-42.9	-47.2	11.3	1.10e-03	0	63	0	442499072	57	5899
2026-01-27 09:26:04.33	119.58	36.78	-42.9	-47.1	11.4	7.68e-04	0	63	0	449839104	57	5842
2026-01-27 09:26:08.37	118.58	37.58	-42.9	-47.4	11.2	2.31e-03	0	63	0	457179136	57	6001
2026-01-27 09:26:12.41	117.53	38.38	-43.0	-47.4	11.1	1.62e-03	0	63	0	465567744	57	6047
2026-01-27 09:26:16.45	116.43	39.20	-43.1	-47.7	10.8	2.12e-03	0	63	0	472907776	57	6230
2026-01-27 09:26:20.49	115.26	40.02	-43.2	-47.8	10.7	3.59e-03	0	63	0	480247808	57	6324
2026-01-27 09:26:24.53	114.04	40.85	-43.1	-47.6	10.9	2.01e-03	0	63	0	487587840	57	6149
2026-01-27 09:26:28.57	112.75	41.68	-42.8	-46.9	11.7	7.15e-04	0	63	0	495976448	57	5710
2026-01-27 09:26:32.61	111.39	42.51	-43.5	-48.6	9.9	4.97e-03	0	63	0	503316480	57	6938
2026-01-27 09:26:36.65	109.96	43.35	-43.6	-49.0	9.5	1.06e-02	0	63	0	510656512	57	7220
2026-01-27 09:26:40.69	108.45	44.17	-43.1	-47.7	10.9	2.09e-03	0	63	0	517996544	57	6205
2026-01-27 09:26:44.72	106.87	44.99	-43.3	-48.1	10.5	4.20e-03	0	63	0	525336576	57	6545
2026-01-27 09:26:48.76	105.20	45.81	-43.7	-49.1	9.4	1.54e-02	0	63	0	533725184	57	7342
2026-01-27 09:26:52.80	103.44	46.61	-43.3	-48.0	10.7	3.69e-03	0	63	0	541065216	58	6062
2026-01-27 09:26:56.85	101.58	47.40	-43.1	-47.5	11.2	1.76e-03	0	63	0	548405248	58	5728
2026-01-27 09:27:00.89	99.64	48.16	-43.1	-47.6	10.9	1.79e-03	0	63	0	555745280	57	6192
2026-01-27 09:27:04.93	97.60	48.90	-42.6	-46.5	12.2	2.28e-04	0	64	0	564133888	57	5436
2026-01-27 09:27:08.97	95.45	49.61	-42.7	-46.7	12.0	2.13e-04	0	63	0	571473920	57	5531
2026-01-27 09:27:13.01	93.21	50.29	-43.0	-47.4	11.3	1.32e-03	0	63	0	578813952	57	6016
2026-01-27 09:27:17.05	90.87	50.92	-43.0	-47.4	11.3	1.06e-03	0	63	0	586153984	57	5994
2026-01-27 09:27:21.09	88.43	51.52	-42.7	-46.7	12.0	3.96e-04	0	63	0	593494016	57	5546
2026-01-27 09:27:25.12	85.91	52.06	-42.5	-46.3	12.5	1.94e-04	0	63	0	601882624	57	5297
2026-01-27 09:27:29.16	83.28	52.54	-41.8	-45.0	13.6	7.60e-06	0	63	0	609222656	55	5159
2026-01-27 09:27:33.20	80.58	52.97	-41.1	-43.9	14.8	0.00e+00	0	64	0	616562688	54	4767
2026-01-27 09:27:37.24	77.80	53.34	-40.0	-42.2	16.5	0.00e+00	0	64	0	623902720	51	4677
2026-01-27 09:27:41.28	74.95	53.63	-39.6	-41.7	17.0	0.00e+00	0	64	0	632291328	51	4402
2026-01-27 09:27:45.32	72.06	53.85	-39.6	-41.7	17.0	0.00e+00	0	63	0	639631360	50	4678
2026-01-27 09:27:49.36	69.13	54.00	-39.8	-42.0	16.7	0.00e+00	0	63	0	646971392	50	4839
2026-01-27 09:27:53.40	66.17	54.08	-40.2	-42.5	16.2	0.00e+00	0	64	0	654311424	51	4868
2026-01-27 09:27:57.44	63.21	54.07	-40.3	-42.6	16.0	0.00e+00	0	63	0	661651456	51	4918
2026-01-27 09:28:01.48	60.26	53.99	-40.1	-42.4	16.3	0.00e+00	0	64	0	670040064	51	4771
2026-01-27 09:28:05.52	57.33	53.83	-39.8	-41.9	16.7	0.00e+00	0	63	0	677380096	51	4529
2026-01-27 09:28:09.55	54.45	53.60	-39.7	-41.8	16.9	0.00e+00	0	64	0	684720128	51	4475
2026-01-27 09:28:13.59	51.62	53.30	-39.6	-41.7	17.0	0.00e+00	0	63	0	692060160	51	4416
2026-01-27 09:28:17.64	48.84	52.93	-40.5	-42.9	15.7	0.00e+00	0	63	0	700448768	51	5086
2026-01-27 09:28:21.68	46.15	52.50	-41.0	-43.8	14.8	7.00e-07	0	63	0	707788800	52	5299
2026-01-27 09:28:25.72	43.54	52.00	-41.7	-44.9	13.7	8.30e-06	0	64	0	715128832	54	5358
2026-01-27 09:28:29.76	41.02	51.46	-41.9	-45.3	13.2	1.83e-05	0	63	0	722468864	54	5596
2026-01-27 09:28:33.80	38.60	50.86	-42.0	-45.4	13.1	3.96e-05	0	64	0	729808896	54	5670
2026-01-27 09:28:37.84	36.27	50.22	-42.4	-46.2	12.2	1.48e-04	0	63	0	738197504	55	5911
2026-01-27 09:28:41.88	34.04	49.54	-42.2	-45.9	12.5	1.42e-04	0	63	0	745537536	55	5687
2026-01-27 09:28:45.92	31.92	48.83	-43.0	-47.4	11.2	1.43e-03	0	64	0	752877568	56	6387
2026-01-27 09:28:49.96	29.89	48.09	-43.6	-48.7	9.8	7.35e-03	0	63	0	760217600	57	7020
2026-01-27 09:28:54.00	27.96	47.33	-44.1	-50.5	8.0	6.61e-02	0	64	0	768606208	58	8125
2026-01-27 09:28:58.04	26.13	46.54	-44.1	-50.3	8.1	6.35e-02	0	63	0	775946240	58	7984
2026-01-27 09:29:02.08	24.38	45.74	-43.9	-49.8	8.7	2.77e-02	0	64	0	783286272	58	7472
2026-01-27 09:29:06.12	22.72	44.93	-43.4	-48.3	10.2	9.27e-03	0	64	0	790626304	58	6293
2026-01-27 09:29:10.16	21.15	44.11	-43.4	-48.3	10.2	4.79e-03	0	64	0	797966336	58	6293
2026-01-27 09:29:14.21	19.65	43.28	-43.1	-47.7	10.7	2.82e-03	0	64	0	806354944	58	5901
2026-01-27 09:29:18.25	18.23	42.46	-43.4	-48.4	10.1	5.16e-03	0	64	0	813694976	58	6396
2026-01-27 09:29:22.29	16.89	41.63	-43.6	-49.0	9.5	1.24e-02	0	63	0	821035008	58	6804
2026-01-27 09:29:26.33	15.61	40.80	-43.7	-49.4	9.0	2.25e-02	0	64	0	828375040	58	7172
2026-01-27 09:29:30.37	14.40	39.98	-43.7	-49.3	9.2	1.95e-02	0	64	0	836763648	58	7057
2026-01-27 09:29:34.41	13.24	39.16	-43.6	-48.9	9.5	1.37e-02	0	64	0	844103680	58	6762
2026-01-27 09:29:38.45	12.15	38.35	-43.7	-49.2	9.2	1.49e-02	0	64	0	851443712	58	7000
2026-01-27 09:29:42.49	11.11	37.54	-43.5	-48.9	9.6	1.12e-02	0	64	0	858783744	58	6733
2026-01-27 09:29:46.52	10.12	36.75	-43.3	-48.4	10.0	7.54e-03	0	64	0	866123776	58	6351
2026-01-27 09:29:50.57	9.17	35.96	-43.3	-48.2	10.3	6.60e-03	0	64	0	874512384	58	6224
2026-01-27 09:29:54.60	8.27	35.19	-43.0	-47.6	10.8	2.28e-03	0	63	0	881852416	58	5817
2026-01-27 09:29:58.64	7.41	34.43	-43.3	-48.4	9.9	7.72e-03	0	63	0	889192448	57	6798
2026-01-27 09:30:02.68	6.60	33.68	-43.3	-48.4	9.9	8.95e-03	0	64	0	896532480	57	6779
2026-01-27 09:30:06.72	5.82	32.94	-43.3	-48.4	9.9	9.82e-03	0	64	0	904921088	57	6756
2026-01-27 09:30:10.76	5.07	32.21	-43.4	-48.6	9.7	1.10e-02	0	64	0	912261120	57	6908
2026-01-27 09:30:14.80	4.36	31.49	-43.4	-48.8	9.4	1.44e-02	0	64	0	919601152	57	7099
2026-01-27 09:30:18.84	3.68	30.79	-43.6	-49.5	8.6	3.69e-02	0	64	0	926941184	57	7708
2026-01-27 09:30:22.88	3.02	30.10	-43.1	-48.1	10.2	6.38e-03	0	64	0	934281216	57	6529
2026-01-27 09:30:26.92	2.40	29.42	-43.2	-48.3	10.0	8.54e-03	0	64	0	942669824	57	6675
2026-01-27 09:30:30.95	1.80	28.75	-43.0	-47.8	10.4	5.89e-03	0	64	0	950009856	57	6347
2026-01-27 09:30:34.99	1.23	28.10	-42.9	-47.5	10.8	2.36e-03	0	64	0	957349888	57	6063
2026-01-27 09:30:39.03	0.68	27.46	-42.9	-47.6	10.6	3.45e-03	0	64	0	964689920	57	6191
2026-01-27 09:30:43.07	0.15	26.83	-42.7	-47.2	11.0	1.77e-03	0	64	0	973078528	57	5886
2026-01-27 09:30:47.11	359.64	26.21	-42.4	-46.5	11.8	5.18e-04	0	64	0	980418560	56	5729
2026-01-27 09:30:51.15	359.16	25.60	-42.5	-46.7	11.5	7.74e-04	0	64	0	987758592	56	5882
2026-01-27 09:30:55.19	358.69	25.00	-42.3	-46.4	11.8	4.55e-04	0	64	0	995098624	56	5660
2026-01-27 09:30:59.23	358.24	24.42	-42.1	-46.0	12.2	2.19e-04	0	64	0	1002438656	56	5411
2026-01-27 09:31:03.27	357.80	23.85	-42.4	-46.6	11.5	6.19e-04	0	64	0	1010827264	56	5798
2026-01-27 09:31:07.30	357.38	23.28	-42.5	-47.0	11.0	1.69e-03	0	64	0	1018167296	56	6072
2026-01-27 09:31:11.34	356.98	22.73	-42.5	-46.9	11.0	1.79e-03	0	64	0	1025507328	56	6015
2026-01-27 09:31:15.39	356.59	22.19	-42.3	-46.6	11.2	1.40e-03	0	64	0	1032847360	56	5846
2026-01-27 09:31:19.43	356.22	21.66	-42.1	-46.6	10.9	2.63e-03	0	64	0	1041235968	56	5820
2026-01-27 09:31:23.47	355.85	21.13	-41.8	-46.6	10.4	3.89e-03	0	64	0	1048576000	55	6155
2026-01-27 09:31:27.51	355.50	20.62	-41.8	-47.5	9.0	1.45e-02	0	64	0	1055916032	55	6813
2026-01-27 09:31:31.55	355.17	20.12	-42.0	-51.5	4.9	5.47e-01	0	64	0	1063256064	55	10900
2026-01-27 09:31:35.59	354.84	19.62	-41.7	-55.3	3.8	1.45e+00	0	64	104	1066401792	55	16845
2026-01-27 09:31:39.63	354.52	19.13	-42.2	-55.4	3.8	1.49e+00	0	64	104	1066401792	56	16076
2026-01-27 09:31:43.68	354.22	18.66	-40.9	-55.4	3.8	1.49e+00	0	64	104	1066401792	53	19105
2026-01-27 09:31:47.72	353.92	18.19	-40.7	-55.2	3.8	1.49e+00	0	64	104	1066401792	53	18566
2026-01-27 09:31:51.76	353.64	17.72	-40.8	-55.4	3.8	1.49e+00	0	64	104	1066401792	53	19046
2026-01-27 09:31:55.80	353.36	17.27	-40.8	-55.3	3.8	1.49e+00	0	64	104	1066401792	53	18823
2026-01-27 09:31:59.84	353.09	16.82	-40.7	-55.2	3.8	1.49e+00	0	64	104	1066401792	53	18656
2026-01-27 09:32:03.88	352.83	16.39	-40.7	-55.2	3.8	1.49e+00	0	64	104	1066401792	53	18597
2026-01-27 09:32:07.91	352.58	15.96	-40.7	-55.2	3.8	1.49e+00	0	64	104	1066401792	53	18562
2026-01-27 09:32:11.95	352.33	15.53	-40.7	-55.3	3.8	1.49e+00	0	64	104	1066401792	53	18778
2026-01-27 09:32:15.99	352.09	15.11	-40.8	-55.4	3.8	1.49e+00	0	64	104	1066401792	53	18991
2026-01-27 09:32:20.04	351.86	14.70	-40.9	-55.4	3.8	1.49e+00	0	64	104	1066401792	53	19017
2026-01-27 09:32:24.08	351.64	14.30	-40.8	-55.3	3.8	1.49e+00	0	64	104	1066401792	53	18880
2026-01-27 09:32:28.11	351.42	13.90	-40.7	-55.2	3.8	1.49e+00	0	64	104	1066401792	53	18624
2026-01-27 09:32:32.16	351.21	13.50	-40.7	-55.2	3.8	1.49e+00	0	64	104	1066401792	53	18592
2026-01-27 09:32:36.20	351.00	13.12	-40.7	-55.2	3.8	1.49e+00	0	64	104	1066401792	53	18588
2026-01-27 09:32:40.24	350.80	12.74	-40.8	-55.3	3.8	1.49e+00	0	64	104	1066401792	53	18850
2026-01-27 09:32:44.28	350.61	12.36	-40.9	-55.5	3.8	1.49e+00	0	64	104	1066401792	53	19196
2026-01-27 09:32:48.32	350.42	11.99	-40.9	-55.4	3.8	1.49e+00	0	64	104	1066401792	53	19151
2026-01-27 09:32:52.36	350.23	11.62	-40.7	-55.3	3.8	1.49e+00	0	64	104	1066401792	53	18749
2026-01-27 09:32:56.40	350.06	11.26	-40.6	-55.2	3.8	1.49e+00	0	64	104	1066401792	53	18596
2026-01-27 09:33:00.44	349.88	10.91	-40.7	-55.2	3.8	1.49e+00	0	64	104	1066401792	53	18649
2026-01-27 09:33:04.48	349.71	10.56	-40.7	-55.3	3.8	1.49e+00	0	64	104	1066401792	53	18779
2026-01-27 09:33:08.52	349.54	10.21	-40.8	-55.4	3.8	1.49e+00	0	64	104	1066401792	53	18962
2026-01-27 09:33:12.56	349.38	9.87	-40.9	-55.4	3.8	1.49e+00	0	64	104	1066401792	53	19008
2026-01-27 09:33:16.60	349.23	9.53	-40.9	-55.4	3.8	1.49e+00	0	64	104	1066401792	53	19123
2026-01-27 09:33:20.64	349.07	9.20	-41.0	-55.5	3.8	1.49e+00	0	64	104	1066401792	53	19339
2026-01-27 09:33:24.68	348.92	8.87	-41.1	-55.6	3.8	1.49e+00	0	64	104	1066401792	53	19577
2026-01-27 09:33:28.72	348.78	8.55	-41.1	-55.6	3.8	1.49e+00	0	64	104	1066401792	53	19606
2026-01-27 09:33:32.76	348.63	8.23	-41.1	-55.6	3.8	1.49e+00	0	64	104	1066401792	53	19428
2026-01-27 09:33:36.80	348.50	7.91	-41.2	-55.8	3.8	1.49e+00	0	64	104	1066401792	53	19856
2026-01-27 09:33:40.84	348.36	7.60	-44.9	-59.6	3.8	1.49e+00	0	64	104	1066401792	60	20633
2026-01-27 09:33:44.88	348.23	7.29	-44.9	-59.8	3.8	1.49e+00	0	64	104	1066401792	60	21041
2026-01-27 09:33:48.92	348.10	6.99	-45.0	-59.6	3.8	1.49e+00	0	64	104	1066401792	60	20716
2026-01-27 09:33:52.96	347.97	6.68	-45.0	-59.5	3.8	1.49e+00	0	64	104	1066401792	60	20527
2026-01-27 09:33:57.00	347.85	6.38	-45.0	-59.5	3.8	1.49e+00	0	64	104	1066401792	60	20505
2026-01-27 09:34:01.02	347.73	6.09	-45.0	-59.5	3.8	1.49e+00	0	64	104	1066401792	60	20459
2026-01-27 09:34:05.06	347.61	5.80	-45.0	-59.5	3.8	1.49e+00	0	64	104	1066401792	60	20451
2026-01-27 09:34:09.10	347.49	5.51	-45.0	-59.5	3.8	1.49e+00	0	64	104	1066401792	60	20515
2026-01-27 09:34:13.14	347.38	5.22	-45.0	-59.5	3.8	1.49e+00	0	64	104	1066401792	60	20472
2026-01-27 09:34:17.18	347.27	4.94	-44.9	-59.5	3.8	1.49e+00	0	64	104	1066401792	60	20434
2026-01-27 09:34:21.22	347.16	4.66	-45.0	-59.5	3.8	1.49e+00	0	64	104	1066401792	60	20409
2026-01-27 09:34:25.27	347.06	4.38	-44.9	-59.5	3.8	1.49e+00	0	64	104	1066401792	60	20393
2026-01-27 09:34:29.31	346.96	4.11	-44.9	-59.5	3.8	1.49e+00	0	64	104	1066401792	60	20400
2026-01-27 09:34:33.35	346.85	3.83	-44.9	-59.5	3.8	1.49e+00	0	64	104	1066401792	60	20395
2026-01-27 09:34:37.39	346.76	3.56	-44.9	-59.5	3.8	1.49e+00	0	64	104	1066401792	60	20416
2026-01-27 09:34:41.43	346.66	3.30	-44.7	-59.5	3.8	1.49e+00	0	64	104	1066401792	60	20357
2026-01-27 09:34:45.47	346.56	3.03	-44.9	-59.5	3.8	1.49e+00	0	64	104	1066401792	60	20358
2026-01-27 09:34:49.52	346.47	2.77	-44.9	-59.5	3.8	1.49e+00	0	64	104	1066401792	60	20313
2026-01-27 09:34:53.56	346.38	2.51	-44.9	-59.4	3.8	1.49e+00	0	64	104	1066401792	60	20291
2026-01-27 09:34:57.60	346.29	2.25	-44.9	-59.4	3.8	1.49e+00	0	64	104	1066401792	60	20244
2026-01-27 09:35:01.64	346.21	2.00	-44.8	-59.4	3.8	1.49e+00	0	64	104	1066401792	60	20230

#Closed at: 2026-01-27 09:35:01
#Recorded file [1066 MB]: D:/lorett/data/31039_260127_122053.dat