passes_logs/2026/01/27/R2.0S_Moscow/R2.0S_Moscow__20260127_083130_NOAA_21_JPSS-2_rec.log

#Pass ID: 20260127_083130_NOAA 21 (JPSS-2)
#Satellite: NOAA 21 (JPSS-2)
#Configuration: NOAA-21
#almurnet v.1.7.20251203
#Start time: 2026-01-27 08:31:30

#Version: 2.2.20231116
#Station: R2.0S_Moscow
#Location: 37.707566 lon 55.798166 lat
#TLE: 1 54234U 22150A   26026.78373243  .00000177  00000+0  10458-3 0  9996
#TLE: 2 54234  98.7509 327.5416 0000822 208.1870 151.9262 14.19539807166482

#Time	Az	El	Level	Level2	SNR	BER	BlckErr	Temp	State	Recorded	gain1	gain2
2026-01-27 08:31:30.95	119.75	2.05	-14.8	-32.4	3.7	1.51e+00	0	54	0	0	1	27073
2026-01-27 08:31:34.99	119.52	2.29	-15.4	-32.3	3.7	1.51e+00	0	55	104	0	1	26609
2026-01-27 08:31:39.04	119.28	2.53	-20.5	-35.4	4.0	1.51e+00	0	55	104	0	10	22731
2026-01-27 08:31:43.07	119.05	2.77	-13.2	-30.2	3.8	1.51e+00	0	55	104	0	0	22112
2026-01-27 08:31:47.11	118.80	3.01	-13.2	-31.4	3.8	1.50e+00	0	55	104	0	1	23995
2026-01-27 08:31:51.16	118.56	3.25	-15.3	-30.9	3.7	1.50e+00	0	56	104	0	0	24031
2026-01-27 08:31:55.20	118.30	3.50	-11.4	-30.7	3.7	1.50e+00	0	56	104	0	0	23544
2026-01-27 08:31:59.24	118.05	3.75	-15.4	-31.1	3.7	1.51e+00	0	56	104	0	1	23209
2026-01-27 08:32:03.28	117.79	4.00	-13.6	-30.1	3.8	1.51e+00	0	56	104	0	0	21765
2026-01-27 08:32:07.32	117.52	4.25	-12.2	-29.9	3.8	1.51e+00	0	57	104	0	0	21368
2026-01-27 08:32:11.36	117.25	4.50	-16.4	-30.9	3.7	1.50e+00	0	57	104	0	0	24120
2026-01-27 08:32:15.40	116.98	4.75	-13.1	-30.0	3.7	1.51e+00	0	57	104	0	0	21549
2026-01-27 08:32:19.45	116.70	5.01	-12.4	-30.5	3.4	1.51e+00	0	57	104	0	0	22889
2026-01-27 08:32:23.49	116.42	5.27	-12.7	-30.3	3.6	1.51e+00	0	57	104	0	0	22336
2026-01-27 08:32:27.53	116.13	5.53	-16.0	-31.9	4.0	1.51e+00	0	58	104	0	1	25389
2026-01-27 08:32:31.57	115.83	5.79	-17.8	-32.4	3.8	1.51e+00	0	58	104	0	1	26850
2026-01-27 08:32:35.62	115.53	6.06	-22.6	-35.1	3.9	1.51e+00	0	58	104	0	1	36550
2026-01-27 08:32:39.66	115.22	6.32	-12.8	-31.1	3.7	1.51e+00	0	58	104	0	0	24484
2026-01-27 08:32:43.70	114.91	6.59	-14.9	-32.0	3.6	1.51e+00	0	59	104	0	0	27205
2026-01-27 08:32:47.74	114.59	6.86	-13.8	-31.4	3.6	1.51e+00	0	58	104	0	2	22692
2026-01-27 08:32:51.78	114.27	7.13	-17.7	-31.8	3.7	1.50e+00	0	59	104	0	0	26524
2026-01-27 08:32:55.82	113.94	7.41	-10.9	-29.4	3.8	1.51e+00	0	59	104	0	0	20116
2026-01-27 08:32:59.87	113.60	7.68	-17.1	-33.8	3.9	1.51e+00	0	59	104	0	6	23601
2026-01-27 08:33:03.91	113.26	7.96	-15.3	-34.1	3.5	1.50e+00	0	59	104	0	5	26146
2026-01-27 08:33:07.95	112.90	8.24	-17.9	-33.0	3.9	1.51e+00	0	60	104	0	8	19389
2026-01-27 08:33:11.99	112.55	8.52	-17.8	-32.0	3.9	1.50e+00	0	60	104	0	2	24189
2026-01-27 08:33:16.03	112.18	8.81	-17.0	-37.4	3.7	1.50e+00	0	60	104	0	6	35890
2026-01-27 08:33:20.07	111.81	9.09	-13.8	-33.0	3.6	1.50e+00	0	60	104	0	4	24194
2026-01-27 08:33:24.11	111.43	9.38	-31.7	-46.0	4.4	1.49e+00	0	60	104	0	22	38507
2026-01-27 08:33:28.16	111.04	9.67	-19.1	-39.8	3.6	1.50e+00	0	60	104	0	9	39594
2026-01-27 08:33:32.20	110.65	9.96	-30.1	-50.0	3.9	1.52e+00	0	60	104	0	21	64704
2026-01-27 08:33:36.24	110.24	10.26	-20.8	-41.6	4.3	1.48e+00	0	61	104	0	16	32618
2026-01-27 08:33:40.28	109.83	10.56	-39.9	-47.3	7.1	4.77e-01	5	61	0	0	47	10549
2026-01-27 08:33:44.32	109.41	10.86	-37.5	-43.1	10.3	2.22e-01	0	61	0	5242880	46	6896
2026-01-27 08:33:48.36	108.98	11.16	-37.2	-42.5	11.0	7.19e-02	0	61	0	17825792	46	6466
2026-01-27 08:33:52.41	108.54	11.46	-39.2	-42.1	11.9	6.19e-02	0	61	0	30408704	48	5504
2026-01-27 08:33:56.44	108.09	11.77	-38.0	-42.1	11.0	2.33e-02	0	61	0	42991616	45	6496
2026-01-27 08:34:00.46	107.64	12.07	-39.6	-42.3	12.2	1.41e-02	0	61	0	55574528	49	5286
2026-01-27 08:34:04.50	107.17	12.38	-37.3	-41.9	10.8	1.80e-02	0	61	0	68157440	47	5660
2026-01-27 08:34:08.55	106.69	12.69	-36.1	-41.3	10.8	2.49e-02	0	61	0	80740352	42	7106
2026-01-27 08:34:12.59	106.20	13.01	-35.9	-41.3	11.0	3.54e-02	0	62	0	93323264	45	5984
2026-01-27 08:34:16.62	105.71	13.32	-33.9	-41.7	11.0	5.79e-02	0	61	0	105906176	42	7454
2026-01-27 08:34:20.66	105.20	13.64	-38.5	-41.7	11.6	3.00e-02	0	61	0	118489088	46	5888
2026-01-27 08:34:24.70	104.68	13.96	-39.1	-41.8	12.8	1.73e-02	0	62	0	131072000	49	4985
2026-01-27 08:34:28.74	104.14	14.28	-36.3	-42.0	11.6	3.15e-02	0	61	0	143654912	46	6117
2026-01-27 08:34:32.78	103.60	14.60	-37.6	-42.0	11.5	1.63e-02	0	61	0	156237824	46	6105
2026-01-27 08:34:36.82	103.04	14.93	-39.4	-42.1	12.6	1.46e-03	0	61	0	168820736	49	5183
2026-01-27 08:34:40.86	102.47	15.25	-38.1	-41.7	12.5	4.07e-03	0	62	0	181403648	48	5252
2026-01-27 08:34:44.90	101.89	15.58	-39.3	-41.8	13.4	5.66e-04	0	62	0	193986560	49	4985
2026-01-27 08:34:48.95	101.30	15.91	-39.5	-42.0	13.1	2.63e-04	0	61	0	206569472	49	5150
2026-01-27 08:34:52.99	100.69	16.24	-39.4	-42.1	13.2	2.21e-05	0	62	0	219152384	50	4925
2026-01-27 08:34:57.03	100.07	16.57	-39.8	-42.3	13.1	4.80e-05	0	62	0	231735296	50	5013
2026-01-27 08:35:01.07	99.43	16.90	-39.8	-42.2	13.3	1.83e-05	0	62	0	244318208	50	4958
2026-01-27 08:35:05.12	98.78	17.23	-39.8	-42.2	13.2	1.52e-05	0	62	0	256901120	50	4963
2026-01-27 08:35:09.15	98.12	17.57	-39.6	-41.9	13.6	5.30e-06	0	62	0	269484032	50	4806
2026-01-27 08:35:13.20	97.43	17.90	-39.5	-41.8	13.7	4.50e-06	0	62	0	282066944	50	4717
2026-01-27 08:35:17.23	96.74	18.23	-39.5	-41.7	13.8	4.50e-06	0	62	0	294649856	50	4688
2026-01-27 08:35:21.28	96.03	18.57	-39.4	-41.7	13.9	2.20e-06	0	62	0	307232768	50	4662
2026-01-27 08:35:25.32	95.30	18.90	-39.3	-41.4	14.2	7.00e-07	0	62	0	319815680	50	4525
2026-01-27 08:35:29.36	94.56	19.24	-39.1	-41.2	14.4	0.00e+00	0	62	0	333447168	50	4409
2026-01-27 08:35:33.41	93.80	19.57	-38.9	-40.9	14.6	0.00e+00	0	62	0	346030080	49	4536
2026-01-27 08:35:37.45	93.02	19.90	-38.9	-40.9	14.5	0.00e+00	0	62	0	358612992	49	4541
2026-01-27 08:35:41.49	92.23	20.23	-39.2	-41.4	14.1	3.00e-06	0	62	0	371195904	49	4760
2026-01-27 08:35:45.53	91.42	20.56	-39.1	-41.3	14.1	1.50e-06	0	62	0	383778816	49	4706
2026-01-27 08:35:49.57	90.59	20.89	-39.2	-41.5	13.8	6.80e-06	0	62	0	396361728	49	4841
2026-01-27 08:35:53.61	89.74	21.22	-39.0	-41.2	14.0	1.50e-06	0	62	0	408944640	49	4668
2026-01-27 08:35:57.65	88.88	21.54	-38.9	-41.0	14.2	0.00e+00	0	62	0	421527552	49	4593
2026-01-27 08:36:01.69	88.00	21.86	-39.0	-41.2	14.0	1.50e-06	0	62	0	434110464	49	4682
2026-01-27 08:36:05.73	87.10	22.17	-39.1	-41.3	13.9	4.50e-06	0	62	0	446693376	49	4745
2026-01-27 08:36:09.77	86.18	22.49	-39.2	-41.4	13.9	3.00e-06	0	62	0	459276288	49	4804
2026-01-27 08:36:13.81	85.24	22.79	-39.2	-41.4	14.0	7.00e-07	0	62	0	471859200	49	4765
2026-01-27 08:36:17.85	84.28	23.10	-39.0	-41.0	14.4	0.00e+00	0	62	0	484442112	49	4591
2026-01-27 08:36:21.89	83.31	23.39	-39.2	-41.3	14.2	3.00e-06	0	62	0	497025024	49	4721
2026-01-27 08:36:25.93	82.31	23.69	-39.0	-41.1	14.5	0.00e+00	0	62	0	509607936	49	4626
2026-01-27 08:36:29.97	81.30	23.97	-39.3	-41.4	14.2	3.00e-06	0	62	0	522190848	49	4809
2026-01-27 08:36:34.02	80.27	24.25	-39.3	-41.4	14.3	7.00e-07	0	62	0	534773760	49	4762
2026-01-27 08:36:38.06	79.22	24.52	-39.2	-41.3	14.4	1.50e-06	0	62	0	547356672	49	4711
2026-01-27 08:36:42.10	78.15	24.79	-39.1	-41.1	14.6	7.00e-07	0	62	0	559939584	49	4631
2026-01-27 08:36:46.13	77.07	25.04	-39.2	-41.3	14.4	0.00e+00	0	62	0	572522496	49	4729
2026-01-27 08:36:50.18	75.97	25.29	-39.3	-41.4	14.4	7.00e-07	0	62	0	585105408	49	4760
2026-01-27 08:36:54.22	74.85	25.52	-39.2	-41.3	14.4	1.50e-06	0	62	0	597688320	49	4745
2026-01-27 08:36:58.26	73.71	25.75	-39.1	-41.1	14.7	0.00e+00	0	62	0	610271232	49	4629
2026-01-27 08:37:02.30	72.56	25.96	-38.9	-40.9	14.9	0.00e+00	0	62	0	623902720	49	4517
2026-01-27 08:37:06.33	71.40	26.17	-38.9	-40.8	15.0	0.00e+00	0	62	0	635437056	49	4477
2026-01-27 08:37:10.37	70.22	26.36	-38.9	-40.8	15.0	0.00e+00	0	62	0	649068544	49	4479
2026-01-27 08:37:14.42	69.02	26.54	-38.8	-40.7	15.2	7.00e-07	0	62	0	661651456	49	4411
2026-01-27 08:37:18.45	67.81	26.71	-38.8	-40.8	15.1	0.00e+00	0	63	0	674234368	49	4453
2026-01-27 08:37:22.49	66.59	26.86	-39.0	-41.0	14.9	0.00e+00	0	63	0	686817280	49	4566
2026-01-27 08:37:26.53	65.36	27.00	-39.1	-41.1	14.9	0.00e+00	0	62	0	699400192	49	4604
2026-01-27 08:37:30.57	64.12	27.13	-39.1	-41.1	14.8	0.00e+00	0	63	0	711983104	49	4640
2026-01-27 08:37:34.61	62.87	27.24	-39.0	-40.9	15.0	0.00e+00	0	62	0	724566016	49	4512
2026-01-27 08:37:38.65	61.61	27.34	-39.3	-41.4	14.6	1.50e-06	0	63	0	737148928	49	4766
2026-01-27 08:37:42.70	60.34	27.42	-39.2	-41.2	14.7	0.00e+00	0	63	0	749731840	49	4692
2026-01-27 08:37:46.74	59.07	27.49	-39.0	-40.9	15.0	0.00e+00	0	63	0	762314752	49	4538
2026-01-27 08:37:50.78	57.79	27.54	-39.1	-41.1	14.8	0.00e+00	0	63	0	774897664	49	4621
2026-01-27 08:37:54.82	56.51	27.58	-39.1	-41.0	14.9	0.00e+00	0	62	0	787480576	49	4589
2026-01-27 08:37:58.86	55.22	27.60	-39.2	-41.2	14.7	0.00e+00	0	63	0	800063488	49	4681
2026-01-27 08:38:02.91	53.94	27.60	-39.0	-41.0	15.0	0.00e+00	0	63	0	812646400	49	4557
2026-01-27 08:38:06.95	52.65	27.59	-38.9	-40.8	15.2	0.00e+00	0	63	0	825229312	49	4465
2026-01-27 08:38:10.99	51.37	27.56	-39.0	-40.9	15.1	0.00e+00	0	63	0	837812224	49	4521
2026-01-27 08:38:15.04	50.09	27.52	-39.2	-41.1	14.9	0.00e+00	0	63	0	850395136	49	4624
2026-01-27 08:38:19.08	48.82	27.46	-39.3	-41.3	14.7	0.00e+00	0	63	0	862978048	49	4719
2026-01-27 08:38:23.12	47.55	27.38	-39.1	-41.1	15.0	0.00e+00	0	63	0	875560960	49	4621
2026-01-27 08:38:27.15	46.29	27.29	-39.1	-41.0	15.0	0.00e+00	0	63	0	888143872	49	4565
2026-01-27 08:38:31.19	45.04	27.19	-39.1	-41.0	15.0	0.00e+00	0	63	0	900726784	49	4586
2026-01-27 08:38:35.24	43.79	27.07	-39.2	-41.2	14.8	0.00e+00	0	63	0	913309696	49	4690
2026-01-27 08:38:39.28	42.55	26.93	-39.3	-41.2	14.8	0.00e+00	0	63	0	925892608	49	4705
2026-01-27 08:38:43.32	41.33	26.79	-39.4	-41.4	14.6	0.00e+00	0	63	0	939524096	49	4809
2026-01-27 08:38:47.36	40.12	26.63	-39.4	-41.5	14.6	7.00e-07	0	63	0	952107008	49	4844
2026-01-27 08:38:51.40	38.92	26.45	-39.5	-41.6	14.5	0.00e+00	0	63	0	964689920	49	4881
2026-01-27 08:38:55.44	37.73	26.26	-39.3	-41.3	14.8	7.00e-07	0	63	0	977272832	49	4734
2026-01-27 08:38:59.48	36.56	26.07	-39.6	-41.7	14.4	0.00e+00	0	63	0	989855744	49	4970
2026-01-27 08:39:03.52	35.41	25.86	-39.3	-41.3	14.7	7.00e-07	0	63	0	1002438656	49	4744
2026-01-27 08:39:07.56	34.27	25.64	-39.2	-41.1	14.9	0.00e+00	0	63	0	1015021568	49	4641
2026-01-27 08:39:11.60	33.14	25.40	-39.0	-40.9	15.2	0.00e+00	0	63	0	1027604480	49	4505
2026-01-27 08:39:15.65	32.03	25.16	-39.2	-41.2	14.9	7.00e-07	0	63	0	1040187392	49	4659
2026-01-27 08:39:19.68	30.95	24.91	-39.1	-41.1	14.9	0.00e+00	0	63	0	1052770304	49	4608
2026-01-27 08:39:23.72	29.88	24.65	-38.9	-40.8	15.3	0.00e+00	0	63	0	1065353216	49	4445
2026-01-27 08:39:27.76	28.82	24.39	-39.0	-40.9	15.1	0.00e+00	0	63	0	1077936128	49	4504
2026-01-27 08:39:31.80	27.79	24.11	-39.1	-41.0	15.0	0.00e+00	0	63	0	1090519040	49	4589
2026-01-27 08:39:35.84	26.77	23.83	-39.4	-41.5	14.5	0.00e+00	0	63	0	1103101952	49	4839
2026-01-27 08:39:39.89	25.77	23.54	-39.0	-40.9	15.0	0.00e+00	0	63	0	1115684864	49	4533
2026-01-27 08:39:43.93	24.79	23.25	-39.0	-40.9	15.1	0.00e+00	0	63	0	1128267776	49	4517
2026-01-27 08:39:47.98	23.82	22.95	-39.5	-41.6	14.4	0.00e+00	0	63	0	1140850688	49	4887
2026-01-27 08:39:52.02	22.88	22.65	-39.2	-41.2	14.7	0.00e+00	0	63	0	1153433600	49	4686
2026-01-27 08:39:56.06	21.96	22.34	-39.4	-41.5	14.4	7.00e-07	0	63	0	1166016512	49	4869
2026-01-27 08:40:00.10	21.05	22.02	-39.4	-41.5	14.4	0.00e+00	0	63	0	1178599424	49	4858
2026-01-27 08:40:04.14	20.17	21.71	-39.2	-41.2	14.8	7.00e-07	0	63	0	1191182336	49	4681
2026-01-27 08:40:08.18	19.30	21.39	-39.3	-41.3	14.5	0.00e+00	0	63	0	1203765248	49	4746
2026-01-27 08:40:12.22	18.45	21.06	-39.2	-41.2	14.7	0.00e+00	0	63	0	1216348160	49	4657
2026-01-27 08:40:16.27	17.61	20.74	-39.4	-41.5	14.4	1.50e-06	0	63	0	1229979648	49	4848
2026-01-27 08:40:20.31	16.80	20.41	-39.6	-41.8	14.2	1.50e-06	0	63	0	1242562560	49	4993
2026-01-27 08:40:24.35	16.00	20.08	-39.2	-41.2	14.6	7.00e-07	0	63	0	1255145472	49	4694
2026-01-27 08:40:28.39	15.22	19.75	-39.1	-41.2	14.7	0.00e+00	0	63	0	1267728384	49	4653
2026-01-27 08:40:32.43	14.46	19.42	-39.1	-41.1	14.7	0.00e+00	0	63	0	1280311296	49	4637
2026-01-27 08:40:36.47	13.71	19.09	-39.1	-41.2	14.7	0.00e+00	0	63	0	1292894208	49	4655
2026-01-27 08:40:40.52	12.98	18.76	-39.2	-41.2	14.6	0.00e+00	0	63	0	1305477120	49	4694
2026-01-27 08:40:44.56	12.27	18.42	-39.3	-41.4	14.4	0.00e+00	0	63	0	1318060032	49	4807
2026-01-27 08:40:48.60	11.57	18.09	-39.6	-41.8	14.0	1.50e-06	0	63	0	1330642944	49	4998
2026-01-27 08:40:52.65	10.88	17.76	-39.4	-41.5	14.2	7.00e-07	0	63	0	1343225856	49	4837
2026-01-27 08:40:56.69	10.21	17.43	-39.5	-41.7	14.1	7.00e-07	0	63	0	1355808768	49	4936
2026-01-27 08:41:00.73	9.56	17.09	-39.8	-42.1	13.6	1.06e-05	0	63	0	1368391680	50	4926
2026-01-27 08:41:04.78	8.92	16.76	-39.8	-42.1	13.5	9.10e-06	0	63	0	1380974592	50	4889
2026-01-27 08:41:08.82	8.30	16.43	-39.4	-41.5	14.1	0.00e+00	0	63	0	1393557504	50	4598
2026-01-27 08:41:12.86	7.69	16.10	-39.8	-42.1	13.5	9.90e-06	0	63	0	1406140416	50	4905
2026-01-27 08:41:16.90	7.09	15.78	-40.0	-42.5	13.0	3.43e-05	0	63	0	1418723328	50	5111
2026-01-27 08:41:20.94	6.51	15.45	-39.6	-42.0	13.3	1.98e-05	0	63	0	1431306240	50	4852
2026-01-27 08:41:24.98	5.94	15.12	-39.3	-41.5	13.7	7.60e-06	0	63	0	1443889152	50	4585
2026-01-27 08:41:29.03	5.38	14.80	-39.5	-42.0	13.1	3.12e-05	0	63	0	1456472064	50	4836
2026-01-27 08:41:33.07	4.83	14.48	-39.6	-42.1	12.7	8.39e-05	0	63	0	1469054976	50	4922
2026-01-27 08:41:37.11	4.30	14.16	-39.6	-42.4	12.0	2.71e-04	0	63	0	1482686464	50	5047
2026-01-27 08:41:41.15	3.77	13.84	-38.6	-41.2	12.6	7.93e-05	0	63	0	1495269376	49	4681
2026-01-27 08:41:45.19	3.26	13.52	-39.3	-43.0	10.0	5.23e-03	0	63	0	1507852288	49	5752
2026-01-27 08:41:49.23	2.76	13.21	-40.6	-47.9	5.1	5.91e-01	0	63	0	1520435200	51	9025
2026-01-27 08:41:53.26	2.28	12.89	-40.6	-51.9	3.8	1.49e+00	0	63	104	1520435200	52	13435
2026-01-27 08:41:57.30	1.80	12.58	-41.8	-52.9	3.8	1.49e+00	0	63	104	1520435200	54	13532
2026-01-27 08:42:01.34	1.33	12.27	-41.2	-53.0	3.8	1.49e+00	0	63	104	1520435200	53	14510
2026-01-27 08:42:05.38	0.87	11.97	-40.1	-52.5	3.8	1.49e+00	0	63	104	1520435200	52	14404
2026-01-27 08:42:09.42	0.42	11.66	-40.2	-52.6	3.8	1.49e+00	0	63	104	1520435200	52	14541
2026-01-27 08:42:13.46	359.98	11.36	-40.1	-52.4	3.8	1.49e+00	0	63	104	1520435200	52	14288
2026-01-27 08:42:17.50	359.55	11.06	-40.2	-52.5	3.8	1.49e+00	0	63	104	1520435200	52	14456
2026-01-27 08:42:21.54	359.13	10.76	-40.1	-52.4	3.8	1.49e+00	0	64	104	1520435200	52	14336
2026-01-27 08:42:25.58	358.72	10.46	-40.1	-52.4	3.8	1.49e+00	0	64	104	1520435200	51	15158
2026-01-27 08:42:29.62	358.32	10.17	-40.0	-52.4	3.8	1.49e+00	0	64	104	1520435200	51	15074
2026-01-27 08:42:33.67	357.92	9.87	-40.0	-52.3	3.8	1.49e+00	0	63	104	1520435200	51	14999
2026-01-27 08:42:37.71	357.54	9.58	-40.0	-52.3	3.8	1.49e+00	0	63	104	1520435200	51	14987
2026-01-27 08:42:41.74	357.16	9.30	-40.0	-52.3	3.8	1.49e+00	0	63	104	1520435200	51	15043
2026-01-27 08:42:45.79	356.78	9.01	-40.0	-52.3	3.8	1.49e+00	0	64	104	1520435200	51	15019
2026-01-27 08:42:49.83	356.42	8.72	-40.0	-52.3	3.8	1.49e+00	0	64	104	1520435200	51	14912
2026-01-27 08:42:53.87	356.06	8.44	-39.9	-52.3	3.8	1.49e+00	0	64	104	1520435200	51	14936
2026-01-27 08:42:57.91	355.71	8.16	-40.0	-52.3	3.8	1.49e+00	0	63	104	1520435200	51	14983
2026-01-27 08:43:01.95	355.37	7.88	-44.2	-56.4	3.8	1.49e+00	0	64	104	1520435200	58	16062
2026-01-27 08:43:05.99	355.04	7.61	-45.2	-57.7	3.8	1.49e+00	0	64	104	1520435200	61	15636
2026-01-27 08:43:10.04	354.71	7.33	-45.2	-57.6	3.8	1.49e+00	0	64	104	1520435200	61	15522
2026-01-27 08:43:14.08	354.38	7.06	-45.0	-57.4	3.8	1.49e+00	0	64	104	1520435200	60	16085
2026-01-27 08:43:18.12	354.07	6.79	-44.9	-57.3	3.8	1.49e+00	0	63	104	1520435200	60	15918
2026-01-27 08:43:22.16	353.76	6.52	-44.9	-57.3	3.8	1.49e+00	0	64	104	1520435200	60	15871
2026-01-27 08:43:26.21	353.45	6.26	-45.0	-57.3	3.8	1.49e+00	0	64	104	1520435200	60	15906
2026-01-27 08:43:30.25	353.15	5.99	-45.0	-57.3	3.8	1.49e+00	0	64	104	1520435200	60	15879
2026-01-27 08:43:34.29	352.86	5.73	-45.0	-57.3	3.8	1.49e+00	0	64	104	1520435200	60	15873
2026-01-27 08:43:38.34	352.57	5.47	-45.0	-57.4	3.8	1.49e+00	0	64	104	1520435200	60	15948
2026-01-27 08:43:42.38	352.29	5.21	-45.0	-57.3	3.8	1.49e+00	0	64	104	1520435200	60	15874
2026-01-27 08:43:46.42	352.01	4.95	-45.0	-57.3	3.8	1.49e+00	0	64	104	1520435200	60	15799
2026-01-27 08:43:50.46	351.74	4.70	-45.0	-57.3	3.8	1.49e+00	0	64	104	1520435200	60	15860
2026-01-27 08:43:54.50	351.47	4.45	-44.9	-57.3	3.8	1.49e+00	0	64	104	1520435200	60	15816
2026-01-27 08:43:58.54	351.21	4.20	-44.9	-57.3	3.8	1.49e+00	0	64	104	1520435200	60	15838
2026-01-27 08:44:02.58	350.95	3.95	-44.9	-57.3	3.8	1.49e+00	0	64	104	1520435200	60	15846
2026-01-27 08:44:06.63	350.70	3.70	-44.4	-57.1	3.8	1.49e+00	0	64	104	1520435200	59	16480
2026-01-27 08:44:10.67	350.45	3.45	-44.9	-57.3	3.8	1.49e+00	0	64	104	1520435200	60	15852
2026-01-27 08:44:14.71	350.20	3.21	-44.9	-57.3	3.8	1.49e+00	0	64	104	1520435200	60	15850
2026-01-27 08:44:18.75	349.96	2.96	-45.0	-57.3	3.8	1.49e+00	0	64	104	1520435200	60	15842
2026-01-27 08:44:22.79	349.73	2.72	-45.0	-57.4	3.8	1.49e+00	0	64	104	1520435200	60	15954
2026-01-27 08:44:26.83	349.50	2.48	-45.0	-57.3	3.8	1.49e+00	0	64	104	1520435200	60	15854
2026-01-27 08:44:30.87	349.27	2.25	-44.9	-57.3	3.8	1.49e+00	0	64	104	1520435200	60	15807
2026-01-27 08:44:34.92	349.04	2.01	-44.9	-57.3	3.8	1.49e+00	0	64	104	1520435200	60	15793

#Closed at: 2026-01-27 08:44:35
#Recorded file [1520 MB]: D:/lorett/data/31039_260127_113130.dat