passes_logs/2026/01/27/R2.0S_Moscow/R2.0S_Moscow__20260127_004957_SUOMI_NPP_rec.log

#Pass ID: 20260127_004957_SUOMI NPP
#Satellite: SUOMI NPP
#Configuration: NPP
#almurnet v.1.7.20251203
#Start time: 2026-01-27 00:49:57

#Version: 2.2.20231116
#Station: R2.0S_Moscow
#Location: 37.707566 lon 55.798166 lat
#TLE: 1 37849U 11061A   26026.52266023  .00000173  00000+0  10323-3 0  9994
#TLE: 2 37849  98.7822 328.4727 0002140  43.9411 316.1934 14.19530258738341

#Time	Az	El	Level	Level2	SNR	BER	BlckErr	Temp	State	Recorded	gain1	gain2
2026-01-27 00:49:57.41	12.08	2.02	-39.9	-54.5	3.8	1.49e+00	0	53	0	0	51	19244
2026-01-27 00:50:01.44	11.91	2.26	-39.9	-54.5	3.8	1.49e+00	0	53	104	0	51	19297
2026-01-27 00:50:05.48	11.73	2.51	-39.9	-54.5	3.8	1.49e+00	0	53	104	0	51	19268
2026-01-27 00:50:09.52	11.56	2.76	-39.9	-54.5	3.8	1.49e+00	0	54	104	0	51	19247
2026-01-27 00:50:13.57	11.38	3.01	-39.9	-54.5	3.8	1.49e+00	0	54	104	0	51	19242
2026-01-27 00:50:17.61	11.19	3.27	-39.9	-54.5	3.8	1.49e+00	0	54	104	0	51	19250
2026-01-27 00:50:21.65	11.01	3.52	-39.9	-54.5	3.8	1.49e+00	0	55	104	0	51	19187
2026-01-27 00:50:25.69	10.82	3.78	-39.9	-54.5	3.8	1.49e+00	0	55	104	0	51	19223
2026-01-27 00:50:29.73	10.62	4.04	-39.9	-54.5	3.8	1.49e+00	0	55	104	0	51	19195
2026-01-27 00:50:33.77	10.42	4.31	-39.9	-54.5	3.8	1.49e+00	0	55	104	0	51	19198
2026-01-27 00:50:37.82	10.22	4.57	-39.9	-54.5	3.8	1.49e+00	0	55	104	0	51	19192
2026-01-27 00:50:41.86	10.02	4.84	-39.9	-54.5	3.8	1.49e+00	0	56	104	0	51	19209
2026-01-27 00:50:45.90	9.81	5.11	-39.9	-54.4	3.8	1.49e+00	0	56	104	0	51	19120
2026-01-27 00:50:49.94	9.59	5.38	-39.9	-54.4	3.8	1.49e+00	0	56	104	0	51	19159
2026-01-27 00:50:53.98	9.37	5.65	-39.9	-54.5	3.8	1.49e+00	0	56	104	0	51	19174
2026-01-27 00:50:58.03	9.15	5.93	-39.9	-54.5	3.8	1.49e+00	0	56	104	0	51	19201
2026-01-27 00:51:02.07	8.92	6.21	-39.9	-54.5	3.8	1.49e+00	0	57	104	0	51	19172
2026-01-27 00:51:06.11	8.69	6.49	-39.9	-54.5	3.8	1.49e+00	0	57	104	0	51	19187
2026-01-27 00:51:10.16	8.45	6.78	-39.9	-54.4	3.8	1.49e+00	0	57	104	0	51	19135
2026-01-27 00:51:14.20	8.21	7.06	-39.8	-54.4	3.8	1.49e+00	0	57	104	0	51	19126
2026-01-27 00:51:18.24	7.96	7.35	-39.8	-54.4	3.8	1.49e+00	0	57	104	0	51	19130
2026-01-27 00:51:22.28	7.71	7.65	-39.8	-54.4	3.8	1.49e+00	0	57	104	0	51	19083
2026-01-27 00:51:26.32	7.45	7.94	-39.8	-54.4	3.8	1.49e+00	0	58	104	0	51	19069
2026-01-27 00:51:30.36	7.19	8.24	-39.9	-54.5	3.8	1.49e+00	0	58	104	0	51	19280
2026-01-27 00:51:34.40	6.92	8.54	-40.0	-54.6	3.8	1.49e+00	0	58	104	0	51	19419
2026-01-27 00:51:38.44	6.64	8.85	-40.0	-54.5	3.8	1.49e+00	0	58	104	0	51	19375
2026-01-27 00:51:42.49	6.36	9.15	-40.0	-54.6	3.8	1.49e+00	0	58	104	0	51	19394
2026-01-27 00:51:46.53	6.07	9.46	-40.0	-54.6	3.8	1.49e+00	0	58	104	0	51	19488
2026-01-27 00:51:50.56	5.78	9.78	-39.9	-54.5	3.8	1.49e+00	0	58	104	0	51	19181
2026-01-27 00:51:54.61	5.48	10.09	-40.3	-54.9	3.8	1.49e+00	0	59	104	0	51	20183
2026-01-27 00:51:58.64	5.17	10.41	-40.1	-54.6	3.8	1.49e+00	0	59	104	0	51	19567
2026-01-27 00:52:02.68	4.85	10.74	-40.6	-55.2	3.8	1.49e+00	0	59	104	0	51	21008
2026-01-27 00:52:06.72	4.53	11.06	-40.2	-54.8	3.8	1.49e+00	0	59	104	0	51	19872
2026-01-27 00:52:10.77	4.20	11.40	-41.1	-55.5	3.8	1.49e+00	0	59	104	0	52	20469
2026-01-27 00:52:14.81	3.86	11.73	-40.3	-54.9	3.8	1.49e+00	0	59	104	0	52	19037
2026-01-27 00:52:18.85	3.51	12.07	-41.3	-55.5	3.9	1.49e+00	0	59	104	0	53	19304
2026-01-27 00:52:22.88	3.16	12.41	-40.5	-55.1	3.8	1.49e+00	0	59	104	0	52	19446
2026-01-27 00:52:26.92	2.79	12.75	-42.1	-55.3	3.8	1.49e+00	0	59	104	0	54	17690
2026-01-27 00:52:30.96	2.42	13.10	-42.3	-52.9	4.4	1.33e+00	0	59	0	0	55	12810
2026-01-27 00:52:35.00	2.04	13.45	-41.5	-48.3	7.3	1.33e-01	0	60	0	7340032	55	7509
2026-01-27 00:52:39.04	1.65	13.81	-41.9	-48.8	7.2	1.34e-01	0	60	0	14680064	54	8405
2026-01-27 00:52:43.08	1.25	14.17	-41.0	-46.3	9.5	9.65e-03	0	60	0	19922944	53	6662
2026-01-27 00:52:47.12	0.83	14.53	-41.2	-46.4	9.6	1.09e-02	0	60	0	27262976	53	6731
2026-01-27 00:52:51.16	0.41	14.90	-41.3	-46.2	10.2	5.35e-03	0	60	0	34603008	53	6645
2026-01-27 00:52:55.20	359.98	15.27	-41.7	-46.7	9.9	1.06e-02	0	60	0	42991616	54	6637
2026-01-27 00:52:59.24	359.53	15.65	-41.8	-46.9	9.8	1.07e-02	0	60	0	50331648	54	6764
2026-01-27 00:53:03.28	359.08	16.03	-41.8	-47.1	9.7	1.30e-02	0	60	0	57671680	54	6896
2026-01-27 00:53:07.32	358.61	16.41	-41.7	-46.7	10.0	6.72e-03	0	60	0	65011712	54	6624
2026-01-27 00:53:11.36	358.12	16.80	-41.4	-45.9	10.8	3.03e-03	0	61	0	73400320	54	6014
2026-01-27 00:53:15.40	357.63	17.19	-41.2	-45.6	10.9	2.05e-03	0	60	0	80740352	54	5818
2026-01-27 00:53:19.44	357.12	17.58	-41.1	-45.7	10.6	3.00e-03	0	60	0	88080384	53	6239
2026-01-27 00:53:23.48	356.60	17.98	-41.1	-46.3	9.7	8.72e-03	0	60	0	95420416	53	6684
2026-01-27 00:53:27.52	356.06	18.39	-41.6	-49.7	6.1	2.20e-01	0	60	0	102760448	53	9840
2026-01-27 00:53:31.56	355.51	18.80	-41.4	-54.9	3.8	1.40e+00	0	61	104	108003328	53	17977
2026-01-27 00:53:35.60	354.95	19.21	-41.0	-55.0	3.8	1.49e+00	0	61	104	108003328	54	17253
2026-01-27 00:53:39.64	354.36	19.62	-40.9	-55.4	3.8	1.49e+00	0	61	104	108003328	53	19049
2026-01-27 00:53:43.68	353.77	20.04	-42.1	-55.6	3.8	1.49e+00	0	61	104	108003328	55	17384
2026-01-27 00:53:47.71	353.15	20.46	-41.8	-53.7	3.9	1.49e+00	0	61	104	108003328	55	13981
2026-01-27 00:53:51.76	352.52	20.89	-42.4	-52.7	4.5	1.12e+00	0	61	0	110100480	55	12515
2026-01-27 00:53:55.80	351.86	21.32	-41.5	-53.0	4.2	4.34e-01	0	61	0	117440512	54	13719
2026-01-27 00:53:59.84	351.19	21.76	-41.3	-46.7	9.2	1.93e-02	0	61	0	122683392	54	6634
2026-01-27 00:54:03.88	350.50	22.19	-41.1	-45.9	10.1	5.08e-03	0	61	0	130023424	53	6413
2026-01-27 00:54:07.92	349.79	22.63	-41.2	-45.9	10.3	6.66e-03	0	61	0	137363456	53	6416
2026-01-27 00:54:11.96	349.06	23.07	-41.3	-45.7	11.0	2.44e-03	0	61	0	144703488	53	6246
2026-01-27 00:54:16.00	348.31	23.52	-41.3	-45.4	11.6	9.25e-04	0	61	0	152043520	53	6032
2026-01-27 00:54:20.04	347.54	23.96	-41.8	-46.2	11.0	1.68e-03	0	61	0	160432128	54	6263
2026-01-27 00:54:24.08	346.74	24.41	-42.0	-46.5	10.8	3.49e-03	0	61	0	167772160	54	6476
2026-01-27 00:54:28.12	345.92	24.86	-42.4	-47.4	9.9	6.32e-03	0	61	0	175112192	55	6769
2026-01-27 00:54:32.16	345.07	25.31	-42.7	-48.3	9.1	2.05e-02	0	61	0	182452224	55	7492
2026-01-27 00:54:36.21	344.20	25.77	-42.8	-48.0	9.7	1.09e-02	0	61	0	190840832	56	6803
2026-01-27 00:54:40.25	343.31	26.22	-42.6	-47.4	10.3	5.97e-03	0	61	0	198180864	56	6413
2026-01-27 00:54:44.29	342.38	26.67	-42.5	-47.1	10.7	3.70e-03	0	61	0	205520896	56	6193
2026-01-27 00:54:48.33	341.44	27.12	-42.4	-46.9	10.9	2.23e-03	0	61	0	212860928	56	6014
2026-01-27 00:54:52.37	340.46	27.57	-42.6	-47.3	10.6	3.10e-03	0	61	0	220200960	56	6337
2026-01-27 00:54:56.41	339.45	28.02	-42.8	-47.7	10.1	4.22e-03	0	61	0	228589568	56	6604
2026-01-27 00:55:00.45	338.42	28.46	-42.5	-46.8	11.1	1.70e-03	0	61	0	235929600	56	5988
2026-01-27 00:55:04.48	337.36	28.90	-42.9	-48.0	9.9	6.73e-03	0	61	0	243269632	56	6832
2026-01-27 00:55:08.52	336.27	29.34	-42.8	-47.6	10.3	7.51e-03	0	61	0	250609664	56	6550
2026-01-27 00:55:12.56	335.15	29.77	-42.7	-47.3	10.7	1.65e-03	0	61	0	258998272	56	6310
2026-01-27 00:55:16.60	334.00	30.19	-43.1	-48.3	9.7	1.16e-02	0	62	0	266338304	56	7102
2026-01-27 00:55:20.64	332.81	30.61	-43.1	-48.4	9.6	1.40e-02	0	62	0	273678336	56	7159
2026-01-27 00:55:24.68	331.60	31.02	-43.6	-49.8	8.2	5.88e-02	0	62	0	281018368	57	7933
2026-01-27 00:55:28.72	330.35	31.42	-43.3	-48.8	9.1	2.03e-02	0	61	0	288358400	57	7102
2026-01-27 00:55:32.76	329.08	31.80	-43.7	-50.0	7.9	6.17e-02	0	61	0	296747008	57	8175
2026-01-27 00:55:36.80	327.77	32.18	-43.8	-50.4	7.5	1.45e-01	0	61	0	304087040	58	8034
2026-01-27 00:55:40.84	326.43	32.55	-43.8	-50.4	7.6	6.38e-02	0	61	0	311427072	58	8046
2026-01-27 00:55:44.88	325.07	32.90	-44.1	-51.6	6.4	2.67e-01	0	62	0	318767104	58	9218
2026-01-27 00:55:48.92	323.67	33.23	-44.7	-55.6	4.3	4.45e-01	0	62	0	326107136	59	13782
2026-01-27 00:55:52.96	322.24	33.55	-43.7	-50.1	7.8	6.27e-02	0	62	0	331350016	59	7369
2026-01-27 00:55:56.99	320.79	33.86	-43.3	-48.7	9.2	2.87e-02	0	62	0	338690048	58	6639
2026-01-27 00:56:01.04	319.31	34.14	-43.5	-49.4	8.6	3.75e-02	0	62	0	346030080	58	7165
2026-01-27 00:56:05.08	317.80	34.41	-43.7	-50.0	8.0	7.89e-02	0	62	0	354418688	58	7664
2026-01-27 00:56:09.12	316.27	34.65	-42.4	-46.6	11.4	1.93e-03	0	62	0	361758720	56	5828
2026-01-27 00:56:13.16	314.72	34.87	-41.6	-45.0	12.9	5.26e-05	0	62	0	369098752	54	5457
2026-01-27 00:56:17.20	313.15	35.07	-41.1	-44.2	13.7	4.50e-06	0	62	0	376438784	54	4955
2026-01-27 00:56:21.24	311.56	35.25	-42.2	-46.3	11.6	1.16e-03	0	62	0	383778816	55	5972
2026-01-27 00:56:25.29	309.95	35.40	-41.7	-45.3	12.6	8.92e-05	0	62	0	392167424	55	5297
2026-01-27 00:56:29.32	308.33	35.52	-41.9	-45.7	12.2	1.60e-04	0	62	0	399507456	55	5551
2026-01-27 00:56:33.36	306.70	35.62	-41.7	-45.3	12.7	3.26e-04	0	62	0	406847488	55	5282
2026-01-27 00:56:37.40	305.05	35.69	-41.6	-45.0	12.9	2.59e-05	0	62	0	414187520	53	5769
2026-01-27 00:56:41.44	303.41	35.74	-42.4	-46.8	11.1	1.05e-03	0	62	0	422576128	55	6296
2026-01-27 00:56:45.47	301.76	35.76	-42.2	-46.2	11.7	3.97e-04	0	62	0	429916160	55	5888
2026-01-27 00:56:49.51	300.11	35.75	-42.4	-46.7	11.1	1.70e-03	0	62	0	437256192	55	6269
2026-01-27 00:56:53.55	298.46	35.72	-42.0	-45.8	12.1	1.90e-04	0	62	0	444596224	55	5642
2026-01-27 00:56:57.59	296.81	35.65	-42.1	-46.1	11.8	7.48e-04	0	62	0	451936256	55	5807
2026-01-27 00:57:01.64	295.17	35.57	-42.9	-47.7	10.2	5.36e-03	0	62	0	460324864	56	6632
2026-01-27 00:57:05.68	293.54	35.45	-42.6	-47.0	11.0	1.28e-03	0	62	0	467664896	56	6093
2026-01-27 00:57:09.72	291.93	35.31	-43.2	-48.4	9.5	1.74e-02	0	62	0	475004928	57	6792
2026-01-27 00:57:13.76	290.33	35.15	-42.4	-46.6	11.4	9.52e-04	0	62	0	482344960	56	5807
2026-01-27 00:57:17.79	288.75	34.96	-43.1	-48.1	10.0	6.56e-03	0	62	0	490733568	56	6888
2026-01-27 00:57:21.83	287.19	34.75	-42.8	-47.6	10.4	4.34e-03	0	62	0	498073600	57	6132
2026-01-27 00:57:25.87	285.64	34.51	-42.5	-46.8	11.2	7.91e-04	0	62	0	505413632	56	5955
2026-01-27 00:57:29.91	284.13	34.25	-42.8	-47.4	10.6	4.11e-03	0	62	0	512753664	56	6350
2026-01-27 00:57:33.95	282.63	33.98	-41.7	-45.3	12.6	1.12e-04	0	62	0	520093696	55	5281
2026-01-27 00:57:37.98	281.17	33.68	-43.2	-48.6	9.3	9.10e-03	0	62	0	528482304	57	6937
2026-01-27 00:57:42.03	279.72	33.37	-42.4	-46.6	11.4	1.56e-03	0	62	0	535822336	56	5795
2026-01-27 00:57:46.07	278.31	33.04	-42.8	-47.4	10.6	2.62e-03	0	62	0	543162368	56	6370
2026-01-27 00:57:50.11	276.92	32.69	-43.6	-50.0	7.9	5.83e-02	0	62	0	550502400	57	8153
2026-01-27 00:57:54.14	275.57	32.33	-43.5	-49.5	8.5	4.30e-02	0	62	0	558891008	57	7670
2026-01-27 00:57:58.18	274.25	31.96	-43.4	-49.2	8.8	4.13e-02	0	62	0	566231040	58	6987
2026-01-27 00:58:02.22	272.96	31.57	-42.8	-47.6	10.4	4.49e-03	0	62	0	573571072	57	6152
2026-01-27 00:58:06.26	271.69	31.18	-42.2	-46.2	11.8	4.97e-04	0	62	0	580911104	56	5586
2026-01-27 00:58:10.30	270.46	30.77	-43.3	-49.0	8.8	3.02e-02	0	62	0	588251136	57	7215
2026-01-27 00:58:14.33	269.27	30.36	-42.4	-46.6	11.4	1.03e-03	0	62	0	596639744	56	5809
2026-01-27 00:58:18.37	268.10	29.94	-43.3	-49.1	8.9	3.35e-02	0	62	0	603979776	57	7308
2026-01-27 00:58:22.41	266.96	29.51	-43.2	-48.5	9.3	1.70e-02	0	62	0	611319808	57	6868
2026-01-27 00:58:26.45	265.85	29.07	-43.1	-48.3	9.6	1.43e-02	0	62	0	618659840	57	6707
2026-01-27 00:58:30.49	264.77	28.63	-43.5	-49.6	8.2	7.29e-02	0	62	0	627048448	57	7764
2026-01-27 00:58:34.52	263.72	28.19	-42.6	-47.1	10.8	2.19e-03	0	62	0	634388480	57	5822
2026-01-27 00:58:38.57	262.70	27.74	-42.7	-47.5	10.5	2.66e-03	0	62	0	641728512	56	6436
2026-01-27 00:58:42.61	261.71	27.29	-42.4	-46.8	11.2	1.79e-03	0	62	0	649068544	56	5942
2026-01-27 00:58:46.65	260.74	26.84	-41.7	-45.3	12.5	8.92e-05	0	62	0	656408576	55	5330
2026-01-27 00:58:50.69	259.81	26.38	-41.8	-45.6	12.1	1.91e-04	0	62	0	664797184	55	5517
2026-01-27 00:58:54.73	258.90	25.93	-41.1	-44.2	13.6	9.10e-06	0	62	0	672137216	54	4963
2026-01-27 00:58:58.77	258.01	25.48	-41.2	-44.5	13.4	1.90e-05	0	62	0	679477248	53	5415
2026-01-27 00:59:02.81	257.15	25.02	-41.6	-45.2	12.7	1.01e-04	0	62	0	686817280	53	5909
2026-01-27 00:59:06.85	256.32	24.57	-41.0	-44.2	13.6	8.30e-06	0	62	0	695205888	53	5250
2026-01-27 00:59:10.88	255.51	24.12	-41.0	-44.2	13.6	6.10e-06	0	62	0	702545920	53	5242
2026-01-27 00:59:14.92	254.72	23.67	-41.0	-44.1	13.7	5.30e-06	0	62	0	709885952	53	5210
2026-01-27 00:59:18.96	253.96	23.23	-40.7	-43.7	14.1	2.20e-06	0	62	0	717225984	53	4929
2026-01-27 00:59:23.00	253.21	22.78	-41.1	-44.3	13.5	1.29e-05	0	62	0	724566016	53	5306
2026-01-27 00:59:27.04	252.49	22.34	-41.2	-44.5	13.2	1.83e-05	0	62	0	732954624	53	5456
2026-01-27 00:59:31.08	251.79	21.90	-41.7	-45.4	12.3	1.22e-04	0	62	0	740294656	53	6051
2026-01-27 00:59:35.12	251.10	21.46	-41.7	-45.5	12.3	1.96e-04	0	62	0	747634688	54	5731
2026-01-27 00:59:39.16	250.44	21.03	-41.7	-45.6	12.1	1.50e-04	0	62	0	754974720	54	5820
2026-01-27 00:59:43.21	249.79	20.60	-42.0	-46.2	11.5	9.96e-04	0	62	0	763363328	54	6264
2026-01-27 00:59:47.25	249.17	20.17	-41.9	-45.8	11.8	5.02e-04	0	62	0	770703360	54	5972
2026-01-27 00:59:51.29	248.56	19.75	-42.0	-46.2	11.5	5.80e-04	0	62	0	778043392	54	6213
2026-01-27 00:59:55.33	247.96	19.33	-41.8	-45.8	11.9	3.44e-04	0	62	0	785383424	54	5944
2026-01-27 00:59:59.37	247.39	18.91	-41.2	-44.6	13.1	2.74e-05	0	62	0	793772032	54	5214
2026-01-27 01:00:03.40	246.83	18.50	-41.4	-44.9	12.8	7.55e-05	0	62	0	801112064	54	5358
2026-01-27 01:00:07.44	246.28	18.10	-41.4	-44.9	12.7	8.92e-05	0	62	0	808452096	54	5398
2026-01-27 01:00:11.48	245.75	17.69	-41.2	-44.7	13.0	3.35e-05	0	62	0	815792128	54	5224
2026-01-27 01:00:15.52	245.23	17.30	-41.2	-44.7	13.0	2.67e-05	0	62	0	823132160	54	5230
2026-01-27 01:00:19.56	244.73	16.90	-41.7	-45.5	12.1	2.58e-04	0	62	0	831520768	54	5788
2026-01-27 01:00:23.60	244.24	16.51	-42.4	-47.3	10.2	6.75e-03	0	62	0	838860800	55	6692
2026-01-27 01:00:27.64	243.76	16.12	-42.0	-46.3	11.2	2.04e-03	0	62	0	846200832	55	5976
2026-01-27 01:00:31.67	243.29	15.74	-41.2	-44.7	12.9	6.71e-05	0	62	0	853540864	54	5240
2026-01-27 01:00:35.72	242.84	15.36	-41.6	-45.4	12.0	1.86e-04	0	62	0	861929472	54	5704
2026-01-27 01:00:39.76	242.40	14.99	-42.3	-47.0	10.4	3.21e-03	0	62	0	869269504	55	6470
2026-01-27 01:00:43.80	241.97	14.62	-42.2	-47.0	10.5	5.03e-03	0	62	0	876609536	55	6429
2026-01-27 01:00:47.84	241.55	14.25	-42.2	-46.9	10.5	3.40e-03	0	62	0	883949568	55	6384
2026-01-27 01:00:51.88	241.14	13.89	-42.0	-46.6	10.8	2.78e-03	0	62	0	891289600	55	6167
2026-01-27 01:00:55.92	240.74	13.53	-42.2	-47.0	10.4	3.65e-03	0	62	0	899678208	55	6427
2026-01-27 01:00:59.96	240.35	13.17	-42.3	-47.1	10.2	5.76e-03	0	62	0	907018240	55	6563
2026-01-27 01:01:04.00	239.97	12.82	-42.3	-47.2	10.1	6.43e-03	0	62	0	914358272	55	6601
2026-01-27 01:01:08.04	239.59	12.48	-42.1	-46.7	10.6	3.67e-03	0	62	0	921698304	55	6241
2026-01-27 01:01:12.08	239.23	12.13	-41.8	-46.1	11.2	1.38e-03	0	62	0	930086912	55	5821
2026-01-27 01:01:16.12	238.88	11.79	-41.8	-46.1	11.2	1.39e-03	0	62	0	937426944	55	5805
2026-01-27 01:01:20.15	238.53	11.46	-42.1	-47.0	10.2	6.19e-03	0	62	0	944766976	55	6447
2026-01-27 01:01:24.20	238.19	11.12	-42.6	-48.3	8.8	2.55e-02	0	62	0	952107008	55	7517
2026-01-27 01:01:28.24	237.86	10.79	-43.0	-49.4	7.9	6.56e-02	0	62	0	959447040	56	8078
2026-01-27 01:01:32.28	237.54	10.47	-42.8	-48.8	8.4	5.09e-02	0	62	0	967835648	56	7534
2026-01-27 01:01:36.32	237.23	10.15	-42.7	-48.4	8.9	3.25e-02	0	62	0	975175680	56	7144
2026-01-27 01:01:40.36	236.92	9.83	-42.6	-48.3	9.0	2.48e-02	0	62	0	982515712	56	7044
2026-01-27 01:01:44.40	236.62	9.51	-42.4	-47.7	9.6	1.47e-02	0	62	0	989855744	56	6586
2026-01-27 01:01:48.44	236.32	9.20	-42.4	-47.6	9.6	1.15e-02	0	62	0	998244352	56	6530
2026-01-27 01:01:52.48	236.03	8.89	-42.4	-47.6	9.5	1.48e-02	0	62	0	1005584384	56	6570
2026-01-27 01:01:56.52	235.75	8.58	-42.4	-47.6	9.5	1.49e-02	0	62	0	1012924416	56	6562
2026-01-27 01:02:00.56	235.47	8.28	-42.5	-48.2	9.0	2.70e-02	0	62	0	1020264448	56	6967
2026-01-27 01:02:04.60	235.20	7.98	-43.6	-53.4	5.1	1.33e-01	0	62	0	1027604480	57	11993
2026-01-27 01:02:08.64	234.94	7.68	-44.9	-59.5	3.8	1.49e+00	0	62	104	1028653056	60	20383
2026-01-27 01:02:12.68	234.68	7.39	-45.1	-59.6	3.8	1.49e+00	0	62	104	1028653056	60	20692
2026-01-27 01:02:16.72	234.42	7.10	-45.0	-59.5	3.8	1.49e+00	0	62	104	1028653056	60	20468
2026-01-27 01:02:20.76	234.18	6.81	-45.0	-59.5	3.8	1.49e+00	0	62	104	1028653056	60	20306
2026-01-27 01:02:24.81	233.93	6.52	-44.9	-59.4	3.8	1.49e+00	0	62	104	1028653056	60	20175
2026-01-27 01:02:28.85	233.69	6.24	-44.9	-59.4	3.8	1.49e+00	0	62	104	1028653056	60	20123
2026-01-27 01:02:32.89	233.46	5.95	-44.9	-59.4	3.8	1.49e+00	0	62	104	1028653056	60	20144
2026-01-27 01:02:36.93	233.23	5.68	-44.9	-59.4	3.8	1.49e+00	0	62	104	1028653056	60	20208
2026-01-27 01:02:40.97	233.01	5.40	-44.9	-59.4	3.8	1.49e+00	0	62	104	1028653056	60	20154
2026-01-27 01:02:45.01	232.78	5.13	-44.9	-59.4	3.8	1.49e+00	0	62	104	1028653056	60	20146
2026-01-27 01:02:49.05	232.57	4.86	-44.9	-59.4	3.8	1.49e+00	0	62	104	1028653056	60	20080
2026-01-27 01:02:53.10	232.36	4.59	-44.9	-59.4	3.8	1.49e+00	0	62	104	1028653056	60	20125
2026-01-27 01:02:57.14	232.15	4.32	-44.9	-59.4	3.8	1.49e+00	0	62	104	1028653056	60	20108
2026-01-27 01:03:01.18	231.94	4.06	-44.9	-59.4	3.8	1.49e+00	0	62	104	1028653056	60	20146
2026-01-27 01:03:05.22	231.74	3.79	-44.9	-59.4	3.8	1.49e+00	0	62	104	1028653056	60	20168
2026-01-27 01:03:09.26	231.55	3.53	-44.9	-59.4	3.8	1.49e+00	0	62	104	1028653056	60	20106
2026-01-27 01:03:13.31	231.35	3.28	-44.9	-59.4	3.8	1.49e+00	0	62	104	1028653056	60	20121
2026-01-27 01:03:17.35	231.16	3.02	-44.9	-59.4	3.8	1.49e+00	0	62	104	1028653056	60	20104
2026-01-27 01:03:21.39	230.98	2.77	-44.9	-59.4	3.8	1.49e+00	0	62	104	1028653056	60	20103
2026-01-27 01:03:25.43	230.79	2.52	-44.9	-59.4	3.8	1.49e+00	0	62	104	1028653056	60	20115
2026-01-27 01:03:29.48	230.61	2.27	-44.9	-59.4	3.8	1.49e+00	0	62	104	1028653056	60	20116
2026-01-27 01:03:33.51	230.44	2.02	-44.9	-59.4	3.8	1.49e+00	0	62	104	1028653056	60	20120

#Closed at: 2026-01-27 01:03:35
#Recorded file [1028 MB]: D:/lorett/data/31039_260127_034957.dat