passes_logs/2026/01/27/R2.0S_Moscow/R2.0S_Moscow__20260127_050955_FENGYUN_3E_rec.log

#Pass ID: 20260127_050955_FENGYUN 3E
#Satellite: FENGYUN 3E
#Configuration: FENGYUN 3E
#almurnet v.1.7.20251203
#Start time: 2026-01-27 05:09:56

#Version: 2.2.20231116
#Station: R2.0S_Moscow
#Location: 37.707566 lon 55.798166 lat
#TLE: 1 49008U 21062A   26026.84429991  .00000247  00000+0  13693-3 0  9991
#TLE: 2 49008  98.7501  31.8345 0002501 116.3456 243.7977 14.19887781236522

#Time	Az	El	Level	Level2	SNR	BER	BlckErr	Temp	State	Recorded	gain1	gain2
2026-01-27 05:09:56.86	11.52	2.06	-40.1	-50.9	3.8	8.46e-01	0	53	0	0	51	11995
2026-01-27 05:10:00.89	11.33	2.30	-40.1	-50.9	3.8	8.47e-01	0	53	104	0	51	12022
2026-01-27 05:10:04.93	11.13	2.55	-40.1	-50.9	3.8	8.47e-01	0	54	104	0	51	11977
2026-01-27 05:10:08.97	10.93	2.79	-40.1	-50.8	3.8	8.47e-01	0	54	104	0	51	11955
2026-01-27 05:10:13.01	10.73	3.04	-40.1	-50.9	3.8	8.46e-01	0	54	104	0	51	11964
2026-01-27 05:10:17.05	10.52	3.29	-40.1	-50.9	3.8	8.46e-01	0	54	104	0	51	11998
2026-01-27 05:10:21.09	10.31	3.54	-40.1	-50.9	3.8	8.47e-01	0	55	104	0	51	12013
2026-01-27 05:10:25.13	10.09	3.80	-40.1	-50.8	3.8	8.46e-01	0	55	104	0	51	11898
2026-01-27 05:10:29.17	9.88	4.05	-40.1	-50.8	3.8	8.47e-01	0	55	104	0	51	11951
2026-01-27 05:10:33.22	9.65	4.31	-40.1	-50.8	3.8	8.47e-01	0	56	104	0	51	11934
2026-01-27 05:10:37.26	9.42	4.57	-40.1	-50.9	3.8	8.47e-01	0	56	104	0	51	11974
2026-01-27 05:10:41.30	9.19	4.84	-40.1	-50.9	3.8	8.46e-01	0	56	104	0	51	12024
2026-01-27 05:10:45.34	8.96	5.10	-40.1	-50.9	3.8	8.45e-01	0	56	104	0	51	11969
2026-01-27 05:10:49.38	8.71	5.37	-40.1	-50.9	3.8	8.47e-01	0	56	104	0	51	11986
2026-01-27 05:10:53.43	8.47	5.64	-40.1	-50.8	3.8	8.46e-01	0	57	104	0	51	11932
2026-01-27 05:10:57.47	8.22	5.91	-40.1	-50.9	3.8	8.46e-01	0	57	104	0	51	11974
2026-01-27 05:11:01.51	7.96	6.18	-40.1	-50.8	3.8	8.47e-01	0	57	104	0	51	11941
2026-01-27 05:11:05.56	7.70	6.46	-40.1	-50.9	3.8	8.48e-01	0	57	104	0	51	11996
2026-01-27 05:11:09.60	7.43	6.74	-40.1	-50.8	3.8	8.46e-01	0	58	104	0	51	11909
2026-01-27 05:11:13.64	7.16	7.02	-40.1	-50.9	3.8	8.48e-01	0	57	104	0	51	11962
2026-01-27 05:11:17.68	6.88	7.30	-40.1	-50.9	3.8	8.46e-01	0	58	104	0	51	11967
2026-01-27 05:11:21.72	6.60	7.58	-40.1	-50.8	3.8	8.47e-01	0	58	104	0	51	11909
2026-01-27 05:11:25.77	6.31	7.87	-40.1	-50.8	3.8	8.45e-01	0	58	104	0	51	11923
2026-01-27 05:11:29.81	6.01	8.16	-40.2	-51.0	3.8	8.45e-01	0	58	104	0	51	12136
2026-01-27 05:11:33.85	5.71	8.46	-40.2	-51.1	3.8	8.45e-01	0	58	104	0	51	12239
2026-01-27 05:11:37.89	5.40	8.75	-40.3	-51.1	3.8	8.45e-01	0	58	104	0	51	12250
2026-01-27 05:11:41.94	5.09	9.05	-40.3	-51.1	3.8	8.46e-01	0	59	104	0	51	12245
2026-01-27 05:11:45.98	4.77	9.35	-40.4	-51.2	3.8	8.45e-01	0	59	104	0	51	12397
2026-01-27 05:11:50.02	4.44	9.66	-40.4	-51.2	3.8	8.46e-01	0	59	104	0	51	12506
2026-01-27 05:11:54.06	4.10	9.96	-40.5	-51.2	3.8	8.46e-01	0	59	104	0	51	12509
2026-01-27 05:11:58.10	3.76	10.27	-40.5	-51.3	3.8	8.46e-01	0	59	104	0	51	12594
2026-01-27 05:12:02.14	3.41	10.59	-40.6	-51.4	3.8	8.46e-01	0	59	104	0	51	12666
2026-01-27 05:12:06.18	3.05	10.90	-40.3	-51.0	3.8	8.48e-01	0	59	104	0	51	12232
2026-01-27 05:12:10.22	2.68	11.22	-40.3	-51.1	3.8	8.46e-01	0	60	104	0	51	12236
2026-01-27 05:12:14.26	2.30	11.54	-40.3	-51.1	3.8	8.47e-01	0	60	104	0	51	12326
2026-01-27 05:12:18.30	1.92	11.87	-40.5	-51.2	3.8	8.47e-01	0	60	104	0	51	12471
2026-01-27 05:12:22.34	1.52	12.19	-40.6	-51.3	3.8	8.44e-01	0	60	104	0	51	12640
2026-01-27 05:12:26.38	1.12	12.52	-40.8	-51.5	3.8	8.45e-01	0	60	104	0	51	12858
2026-01-27 05:12:30.41	0.71	12.86	-40.7	-50.5	3.8	8.46e-01	0	60	104	0	52	10805
2026-01-27 05:12:34.46	0.29	13.20	-40.3	-45.8	5.4	8.26e-01	0	60	0	0	51	6699
2026-01-27 05:12:38.50	359.85	13.53	-39.2	-42.0	10.7	3.38e-03	0	60	0	19922944	49	4822
2026-01-27 05:12:42.54	359.41	13.88	-38.2	-40.3	12.5	1.35e-04	0	60	0	49283072	47	4476
2026-01-27 05:12:46.58	358.96	14.22	-37.3	-39.2	13.8	2.20e-06	0	60	0	77594624	45	4397
2026-01-27 05:12:50.63	358.49	14.57	-37.5	-39.3	13.9	5.70e-06	0	60	0	106954752	45	4472
2026-01-27 05:12:54.67	358.02	14.93	-37.2	-38.9	14.4	0.00e+00	0	60	0	136314880	44	4541
2026-01-27 05:12:58.72	357.53	15.28	-36.4	-38.1	14.7	8.89e-04	0	60	0	165675008	43	4369
2026-01-27 05:13:02.76	357.03	15.64	-36.3	-38.0	14.3	3.14e-03	0	61	0	195035136	43	4329
2026-01-27 05:13:06.80	356.51	16.00	-36.5	-38.5	13.6	1.62e-03	0	61	0	223346688	42	4835
2026-01-27 05:13:10.84	355.99	16.37	-39.1	-43.0	8.3	4.42e-02	0	61	0	252706816	47	6086
2026-01-27 05:13:14.88	355.45	16.73	-41.0	-49.3	4.0	8.38e-01	0	61	0	266338304	51	9990
2026-01-27 05:13:18.93	354.89	17.10	-41.5	-50.7	3.8	8.47e-01	0	61	104	266338304	52	11059
2026-01-27 05:13:22.96	354.33	17.48	-41.4	-51.6	3.8	8.47e-01	0	61	104	266338304	53	11660
2026-01-27 05:13:27.00	353.75	17.85	-40.9	-51.7	3.8	8.46e-01	0	61	104	266338304	52	12462
2026-01-27 05:13:31.04	353.15	18.23	-41.0	-51.8	3.8	8.47e-01	0	61	104	266338304	52	12575
2026-01-27 05:13:35.08	352.54	18.61	-41.0	-51.8	3.8	8.46e-01	0	61	104	266338304	52	12540
2026-01-27 05:13:39.12	351.91	18.99	-41.0	-51.7	3.8	8.47e-01	0	61	104	266338304	52	12460
2026-01-27 05:13:43.16	351.27	19.38	-41.1	-51.8	3.8	8.45e-01	0	61	104	266338304	52	12660
2026-01-27 05:13:47.20	350.60	19.77	-41.2	-51.8	3.8	8.47e-01	0	61	104	266338304	52	12633
2026-01-27 05:13:51.25	349.92	20.16	-42.0	-49.9	4.1	8.39e-01	0	61	0	266338304	53	9500
2026-01-27 05:13:55.29	349.23	20.55	-41.6	-47.3	5.4	7.48e-01	0	61	0	266338304	53	7091
2026-01-27 05:13:59.33	348.51	20.94	-40.9	-45.1	7.4	3.99e-01	0	61	0	270532608	53	5478
2026-01-27 05:14:03.37	347.78	21.34	-38.8	-41.3	11.5	1.18e-03	0	61	0	296747008	48	4714
2026-01-27 05:14:07.41	347.03	21.73	-37.4	-39.2	13.6	8.00e-06	0	62	0	325058560	45	4433
2026-01-27 05:14:11.44	346.26	22.13	-35.6	-37.1	15.9	0.00e+00	0	62	0	354418688	42	4112
2026-01-27 05:14:15.48	345.46	22.52	-35.3	-36.7	16.5	0.00e+00	0	61	0	383778816	41	4150
2026-01-27 05:14:19.52	344.65	22.92	-36.1	-37.5	16.2	0.00e+00	0	62	0	413138944	41	4552
2026-01-27 05:14:23.57	343.81	23.32	-36.0	-37.3	16.8	0.00e+00	0	62	0	442499072	41	4464
2026-01-27 05:14:27.61	342.95	23.71	-35.3	-36.6	17.7	0.00e+00	0	62	0	471859200	41	4099
2026-01-27 05:14:31.65	342.07	24.11	-35.2	-36.4	18.0	0.00e+00	0	62	0	500170752	41	4012
2026-01-27 05:14:35.69	341.17	24.50	-35.1	-36.3	18.1	0.00e+00	0	62	0	529530880	41	3978
2026-01-27 05:14:39.73	340.25	24.89	-35.0	-36.2	18.3	0.00e+00	0	62	0	558891008	41	3928
2026-01-27 05:14:43.77	339.30	25.28	-34.8	-35.9	18.7	0.00e+00	0	62	0	588251136	40	4038
2026-01-27 05:14:47.81	338.33	25.66	-34.8	-35.9	18.7	0.00e+00	0	62	0	617611264	40	4034
2026-01-27 05:14:51.86	337.33	26.05	-34.8	-36.0	18.7	0.00e+00	0	62	0	646971392	40	4054
2026-01-27 05:14:55.90	336.31	26.42	-35.0	-36.2	18.5	0.00e+00	0	62	0	675282944	40	4158
2026-01-27 05:14:59.94	335.26	26.80	-35.1	-36.3	18.4	0.00e+00	0	62	0	704643072	40	4198
2026-01-27 05:15:03.98	334.19	27.16	-35.2	-36.4	18.3	0.00e+00	0	62	0	734003200	40	4271
2026-01-27 05:15:08.02	333.09	27.52	-35.2	-36.3	18.4	0.00e+00	0	62	0	763363328	40	4219
2026-01-27 05:15:12.06	331.97	27.87	-35.2	-36.4	18.3	0.00e+00	0	62	0	792723456	40	4261
2026-01-27 05:15:16.10	330.83	28.22	-35.0	-36.1	18.6	0.00e+00	0	62	0	821035008	40	4119
2026-01-27 05:15:20.15	329.65	28.55	-34.7	-35.7	18.9	0.00e+00	0	62	0	850395136	40	3957
2026-01-27 05:15:24.19	328.46	28.88	-35.0	-36.1	18.6	0.00e+00	0	62	0	879755264	40	4129
2026-01-27 05:15:28.23	327.24	29.20	-35.0	-36.2	18.6	0.00e+00	0	62	0	909115392	40	4160
2026-01-27 05:15:32.28	325.99	29.50	-35.0	-36.1	18.6	0.00e+00	0	62	0	938475520	40	4138
2026-01-27 05:15:36.31	324.73	29.79	-34.8	-35.9	18.8	0.00e+00	0	62	0	967835648	40	4046
2026-01-27 05:15:40.36	323.43	30.07	-34.8	-35.9	18.8	0.00e+00	0	62	0	996147200	40	4026
2026-01-27 05:15:44.40	322.12	30.33	-34.8	-35.9	18.9	0.00e+00	0	62	0	1025507328	40	4038
2026-01-27 05:15:48.43	320.79	30.58	-34.6	-35.7	19.1	0.00e+00	0	62	0	1054867456	40	3942
2026-01-27 05:15:52.48	319.43	30.82	-34.5	-35.6	19.2	0.00e+00	0	62	0	1084227584	39	4119
2026-01-27 05:15:56.52	318.06	31.03	-34.7	-35.8	19.1	0.00e+00	0	62	0	1113587712	39	4197
2026-01-27 05:16:00.56	316.67	31.23	-34.8	-35.9	18.9	0.00e+00	0	62	0	1141899264	39	4291
2026-01-27 05:16:04.60	315.26	31.42	-34.7	-35.7	19.1	0.00e+00	0	62	0	1171259392	39	4192
2026-01-27 05:16:08.64	313.84	31.58	-34.6	-35.7	19.1	0.00e+00	0	62	0	1200619520	39	4165
2026-01-27 05:16:12.69	312.40	31.72	-34.4	-35.4	19.4	0.00e+00	0	62	0	1229979648	39	4035
2026-01-27 05:16:16.73	310.95	31.85	-34.5	-35.5	19.3	0.00e+00	0	62	0	1259339776	39	4094
2026-01-27 05:16:20.78	309.48	31.95	-34.5	-35.6	19.2	0.00e+00	0	62	0	1288699904	39	4117
2026-01-27 05:16:24.82	308.01	32.03	-34.5	-35.5	19.2	0.00e+00	0	62	0	1317011456	39	4080
2026-01-27 05:16:28.86	306.54	32.10	-34.5	-35.6	19.2	0.00e+00	0	62	0	1346371584	39	4099
2026-01-27 05:16:32.90	305.06	32.14	-34.3	-35.3	19.5	0.00e+00	0	62	0	1375731712	39	3997
2026-01-27 05:16:36.94	303.57	32.15	-34.3	-35.4	19.4	0.00e+00	0	62	0	1405091840	39	4027
2026-01-27 05:16:40.98	302.09	32.15	-34.3	-35.3	19.5	0.00e+00	0	62	0	1434451968	39	3977
2026-01-27 05:16:45.02	300.61	32.13	-34.4	-35.4	19.3	0.00e+00	0	62	0	1463812096	39	4044
2026-01-27 05:16:49.07	299.12	32.08	-34.3	-35.4	19.4	0.00e+00	0	62	0	1492123648	39	4009
2026-01-27 05:16:53.11	297.65	32.01	-34.3	-35.4	19.4	0.00e+00	0	62	0	1521483776	39	4026
2026-01-27 05:16:57.16	296.18	31.92	-34.2	-35.3	19.5	0.00e+00	0	62	0	1550843904	39	3964
2026-01-27 05:17:01.19	294.72	31.81	-34.5	-35.6	19.2	0.00e+00	0	62	0	1580204032	39	4113
2026-01-27 05:17:05.24	293.27	31.68	-34.6	-35.7	19.2	0.00e+00	0	62	0	1609564160	39	4146
2026-01-27 05:17:09.27	291.84	31.53	-34.3	-35.4	19.4	0.00e+00	0	62	0	1637875712	39	4023
2026-01-27 05:17:13.31	290.42	31.36	-34.4	-35.5	19.4	0.00e+00	0	62	0	1667235840	39	4055
2026-01-27 05:17:17.36	289.01	31.18	-34.4	-35.5	19.3	0.00e+00	0	62	0	1696595968	39	4076
2026-01-27 05:17:21.40	287.62	30.97	-34.4	-35.5	19.3	0.00e+00	0	62	0	1725956096	39	4075
2026-01-27 05:17:25.44	286.25	30.75	-34.6	-35.7	19.2	0.00e+00	0	62	0	1755316224	39	4147
2026-01-27 05:17:29.48	284.90	30.51	-34.6	-35.7	19.1	0.00e+00	0	62	0	1784676352	39	4151
2026-01-27 05:17:33.52	283.57	30.25	-34.6	-35.6	19.2	0.00e+00	0	62	0	1812987904	39	4143
2026-01-27 05:17:37.56	282.26	29.98	-34.6	-35.7	19.1	0.00e+00	0	62	0	1842348032	39	4155
2026-01-27 05:17:41.60	280.97	29.70	-34.6	-35.7	19.1	0.00e+00	0	62	0	1871708160	39	4169
2026-01-27 05:17:45.64	279.71	29.40	-34.9	-36.0	18.8	0.00e+00	0	62	0	1901068288	39	4337
2026-01-27 05:17:49.68	278.47	29.10	-34.5	-35.6	19.2	0.00e+00	0	62	0	1930428416	39	4117
2026-01-27 05:17:53.72	277.25	28.78	-34.5	-35.6	19.1	0.00e+00	0	62	0	1958739968	39	4136
2026-01-27 05:17:57.76	276.06	28.45	-34.9	-36.1	18.7	0.00e+00	0	62	0	1988100096	39	4348
2026-01-27 05:18:01.80	274.89	28.11	-34.7	-35.8	18.8	0.00e+00	0	62	0	2017460224	39	4239
2026-01-27 05:18:05.84	273.75	27.76	-34.8	-35.9	18.8	0.00e+00	0	62	0	2046820352	39	4262
2026-01-27 05:18:09.88	272.63	27.40	-34.9	-36.1	18.6	0.00e+00	0	62	0	2076180480	39	4347
2026-01-27 05:18:13.92	271.54	27.04	-34.9	-36.0	18.7	0.00e+00	0	62	0	2105540608	39	4313
2026-01-27 05:18:17.96	270.47	26.67	-34.9	-36.0	18.6	0.00e+00	0	62	0	2133852160	39	4336
2026-01-27 05:18:22.00	269.43	26.30	-34.9	-36.1	18.6	0.00e+00	0	62	0	2163212288	39	4345
2026-01-27 05:18:26.04	268.41	25.92	-34.9	-36.1	18.6	0.00e+00	0	62	0	2192572416	39	4357
2026-01-27 05:18:30.08	267.41	25.53	-34.8	-35.9	18.7	0.00e+00	0	62	0	2221932544	39	4259
2026-01-27 05:18:34.13	266.44	25.14	-35.0	-36.1	18.6	0.00e+00	0	62	0	2251292672	39	4354
2026-01-27 05:18:38.17	265.50	24.75	-34.8	-35.9	18.7	0.00e+00	0	62	0	2279604224	39	4278
2026-01-27 05:18:42.21	264.57	24.36	-34.9	-36.1	18.6	0.00e+00	0	62	0	2308964352	39	4353
2026-01-27 05:18:46.25	263.67	23.97	-35.1	-36.3	18.3	0.00e+00	0	62	0	2338324480	40	4216
2026-01-27 05:18:50.29	262.80	23.57	-35.0	-36.2	18.3	0.00e+00	0	62	0	2367684608	40	4158
2026-01-27 05:18:54.33	261.94	23.17	-35.2	-36.4	18.1	0.00e+00	0	62	0	2397044736	40	4279
2026-01-27 05:18:58.38	261.11	22.77	-35.4	-36.7	17.8	0.00e+00	0	62	0	2426404864	40	4397
2026-01-27 05:19:02.42	260.29	22.37	-35.1	-36.3	18.2	0.00e+00	0	62	0	2454716416	40	4206
2026-01-27 05:19:06.46	259.50	21.97	-35.3	-36.5	18.0	0.00e+00	0	62	0	2484076544	40	4292
2026-01-27 05:19:10.49	258.73	21.58	-35.3	-36.4	18.0	0.00e+00	0	62	0	2513436672	40	4284
2026-01-27 05:19:14.53	257.98	21.18	-35.5	-36.7	17.7	0.00e+00	0	62	0	2542796800	40	4428
2026-01-27 05:19:18.57	257.25	20.79	-35.4	-36.6	17.8	0.00e+00	0	62	0	2572156928	40	4381
2026-01-27 05:19:22.61	256.53	20.39	-35.4	-36.6	17.8	0.00e+00	0	62	0	2600468480	40	4360
2026-01-27 05:19:26.65	255.84	20.00	-35.5	-36.8	17.6	0.00e+00	0	62	0	2629828608	40	4447
2026-01-27 05:19:30.69	255.16	19.61	-35.5	-36.7	17.6	0.00e+00	0	62	0	2659188736	40	4422
2026-01-27 05:19:34.73	254.50	19.22	-35.3	-36.5	17.8	0.00e+00	0	62	0	2688548864	40	4325
2026-01-27 05:19:38.78	253.86	18.83	-35.6	-36.9	17.5	0.00e+00	0	62	0	2717908992	40	4501
2026-01-27 05:19:42.82	253.23	18.45	-35.9	-37.2	17.1	0.00e+00	0	62	0	2747269120	41	4433
2026-01-27 05:19:46.86	252.62	18.06	-35.9	-37.2	17.1	0.00e+00	0	62	0	2775580672	41	4418
2026-01-27 05:19:50.90	252.02	17.69	-36.2	-37.5	16.8	0.00e+00	0	62	0	2804940800	41	4569
2026-01-27 05:19:54.95	251.44	17.31	-36.3	-37.7	16.6	0.00e+00	0	62	0	2834300928	42	4394
2026-01-27 05:19:58.99	250.87	16.93	-36.2	-37.6	16.7	0.00e+00	0	62	0	2863661056	42	4358
2026-01-27 05:20:03.04	250.32	16.56	-36.5	-37.9	16.4	0.00e+00	0	62	0	2893021184	42	4517
2026-01-27 05:20:07.08	249.78	16.19	-36.7	-38.2	16.1	0.00e+00	0	62	0	2921332736	43	4392
2026-01-27 05:20:11.12	249.25	15.83	-36.7	-38.1	16.2	0.00e+00	0	62	0	2950692864	43	4366
2026-01-27 05:20:15.16	248.74	15.47	-36.4	-37.8	16.4	0.00e+00	0	62	0	2980052992	43	4222
2026-01-27 05:20:19.20	248.24	15.11	-36.4	-37.8	16.4	0.00e+00	0	62	0	3009413120	43	4223
2026-01-27 05:20:23.24	247.75	14.75	-36.7	-38.1	16.1	0.00e+00	0	62	0	3038773248	43	4370
2026-01-27 05:20:27.28	247.27	14.40	-37.0	-38.6	15.6	0.00e+00	0	62	0	3068133376	43	4602
2026-01-27 05:20:31.32	246.81	14.05	-37.1	-38.6	15.5	0.00e+00	0	62	0	3096444928	43	4650
2026-01-27 05:20:35.36	246.35	13.70	-36.9	-38.4	15.7	0.00e+00	0	62	0	3125805056	43	4542
2026-01-27 05:20:39.41	245.91	13.36	-36.8	-38.3	15.8	0.00e+00	0	62	0	3155165184	43	4461
2026-01-27 05:20:43.44	245.48	13.02	-37.0	-38.6	15.5	0.00e+00	0	62	0	3184525312	43	4601
2026-01-27 05:20:47.48	245.05	12.68	-37.6	-39.3	15.0	0.00e+00	0	62	0	3213885440	44	4719
2026-01-27 05:20:51.53	244.64	12.35	-37.5	-39.1	15.1	0.00e+00	0	62	0	3242196992	45	4357
2026-01-27 05:20:55.57	244.23	12.02	-37.4	-39.0	15.2	0.00e+00	0	62	0	3271557120	45	4296
2026-01-27 05:20:59.61	243.84	11.69	-37.7	-39.4	14.8	0.00e+00	0	62	0	3300917248	45	4516
2026-01-27 05:21:03.65	243.45	11.36	-37.9	-39.7	14.5	0.00e+00	0	62	0	3330277376	45	4665
2026-01-27 05:21:07.69	243.08	11.04	-38.3	-40.1	14.1	1.10e-06	0	62	0	3359637504	46	4614
2026-01-27 05:21:11.73	242.71	10.72	-38.2	-40.0	14.2	2.20e-06	0	62	0	3387949056	46	4547
2026-01-27 05:21:15.77	242.34	10.41	-38.1	-39.8	14.3	0.00e+00	0	62	0	3417309184	46	4484
2026-01-27 05:21:19.81	241.99	10.10	-38.0	-39.7	14.3	0.00e+00	0	62	0	3446669312	46	4423
2026-01-27 05:21:23.85	241.65	9.79	-38.0	-39.8	14.3	0.00e+00	0	62	0	3476029440	46	4461
2026-01-27 05:21:27.89	241.31	9.48	-38.0	-39.8	14.2	2.20e-06	0	62	0	3505389568	46	4469
2026-01-27 05:21:31.93	240.98	9.17	-38.2	-40.0	13.9	8.00e-06	0	62	0	3534749696	46	4596
2026-01-27 05:21:35.97	240.65	8.87	-38.4	-40.3	13.7	8.00e-06	0	62	0	3563061248	46	4726
2026-01-27 05:21:40.01	240.34	8.57	-38.4	-40.3	13.6	4.50e-06	0	62	0	3592421376	46	4751
2026-01-27 05:21:44.05	240.02	8.28	-38.5	-40.4	13.5	9.10e-06	0	62	0	3621781504	46	4798
2026-01-27 05:21:48.10	239.72	7.98	-44.5	-55.5	3.8	8.41e-01	0	62	104	3647995904	58	13670
2026-01-27 05:21:52.14	239.42	7.69	-45.1	-56.4	3.8	8.45e-01	0	62	104	3647995904	60	13564
2026-01-27 05:21:56.18	239.13	7.40	-45.4	-56.7	3.8	8.46e-01	0	62	104	3647995904	60	13926
2026-01-27 05:22:00.23	238.84	7.12	-45.3	-56.5	3.8	8.47e-01	0	62	104	3647995904	60	13696
2026-01-27 05:22:04.27	238.56	6.84	-45.2	-56.5	3.8	8.46e-01	0	63	104	3647995904	60	13706
2026-01-27 05:22:08.31	238.29	6.55	-45.2	-56.5	3.8	8.48e-01	0	62	104	3647995904	60	13646
2026-01-27 05:22:12.36	238.02	6.28	-45.2	-56.5	3.8	8.45e-01	0	62	104	3647995904	60	13645
2026-01-27 05:22:16.40	237.75	6.00	-45.2	-56.5	3.8	8.46e-01	0	63	104	3647995904	60	13589
2026-01-27 05:22:20.44	237.50	5.73	-45.2	-56.5	3.8	8.46e-01	0	62	104	3647995904	60	13602
2026-01-27 05:22:24.49	237.24	5.45	-45.2	-56.5	3.8	8.45e-01	0	62	104	3647995904	60	13579
2026-01-27 05:22:28.53	236.99	5.19	-45.2	-56.4	3.8	8.46e-01	0	62	104	3647995904	60	13561
2026-01-27 05:22:32.57	236.75	4.92	-45.2	-56.5	3.8	8.46e-01	0	62	104	3647995904	60	13656
2026-01-27 05:22:36.62	236.51	4.65	-45.2	-56.5	3.8	8.46e-01	0	62	104	3647995904	60	13623
2026-01-27 05:22:40.66	236.27	4.39	-45.2	-56.5	3.8	8.47e-01	0	62	104	3647995904	60	13615
2026-01-27 05:22:44.70	236.04	4.13	-45.1	-56.5	3.8	8.46e-01	0	62	104	3647995904	60	13627
2026-01-27 05:22:48.74	235.81	3.87	-45.2	-56.5	3.8	8.46e-01	0	63	104	3647995904	60	13640
2026-01-27 05:22:52.78	235.59	3.62	-45.2	-56.5	3.8	8.46e-01	0	63	104	3647995904	60	13577
2026-01-27 05:22:56.82	235.37	3.36	-45.2	-56.5	3.8	8.46e-01	0	62	104	3647995904	60	13594
2026-01-27 05:23:00.86	235.16	3.11	-45.2	-56.5	3.8	8.46e-01	0	62	104	3647995904	60	13612
2026-01-27 05:23:04.90	234.95	2.86	-45.2	-56.5	3.8	8.45e-01	0	63	104	3647995904	60	13604
2026-01-27 05:23:08.94	234.74	2.61	-45.2	-56.5	3.8	8.46e-01	0	63	104	3647995904	60	13591
2026-01-27 05:23:12.99	234.53	2.36	-45.2	-56.5	3.8	8.46e-01	0	63	104	3647995904	60	13572
2026-01-27 05:23:17.03	234.33	2.12	-45.2	-56.5	3.8	8.45e-01	0	63	104	3647995904	60	13612

#Closed at: 2026-01-27 05:23:19
#Recorded file [3647 MB]: D:/lorett/data/31039_260127_080956.dat