passes_logs/2025/01/01/PPK-1/PPK-1__20250101_114034_TY-41_rec.log

#Pass ID: 20250101_114034_TY-41
#Satellite: TY-41
#Configuration: TY-39
#almurnet v.1.7.20230919.trace
#Start time: 2025-01-01 11:40:36

#Version: 2.2.20231116
#Station: PPK-1
#Location: 158.6 lon 53.06666 lat
#TLE: 1 61231U 24173E   24366.09639849  .00003749  00000+0  18154-3 0  9993
#TLE: 2 61231  97.4116  77.2659 0001647  89.6556 270.4868 15.19166915 14820

#Time	Az	El	Level	Level2	SNR	BER	BlckErr	Temp	State
2025-01-01 11:40:36.09	186.62	8.12	-66.0	-71.9	3.5	0.00e+00	0	45	0
2025-01-01 11:40:37.98	186.76	8.29	-66.7	-72.3	3.5	0.00e+00	0	46	104
2025-01-01 11:40:39.88	186.89	8.47	-66.9	-72.3	3.5	0.00e+00	0	46	104
2025-01-01 11:40:41.78	187.03	8.64	-67.0	-72.6	3.7	0.00e+00	0	47	104
2025-01-01 11:40:43.68	187.18	8.82	-67.1	-73.0	3.7	0.00e+00	0	47	104
2025-01-01 11:40:45.58	187.32	9.00	-67.2	-73.3	3.6	0.00e+00	0	47	104
2025-01-01 11:40:47.48	187.47	9.18	-67.3	-73.1	3.6	0.00e+00	0	48	104
2025-01-01 11:40:49.37	187.61	9.36	-67.4	-73.3	3.6	0.00e+00	0	48	104
2025-01-01 11:40:51.27	187.76	9.55	-67.4	-73.3	3.6	0.00e+00	0	48	104
2025-01-01 11:40:53.17	187.92	9.74	-67.4	-73.3	3.7	0.00e+00	0	49	104
2025-01-01 11:40:55.07	188.07	9.92	-67.3	-73.0	3.7	0.00e+00	0	49	104
2025-01-01 11:40:56.97	188.23	10.11	-67.1	-72.6	3.7	0.00e+00	0	49	104
2025-01-01 11:40:58.87	188.39	10.30	-67.2	-72.8	3.6	0.00e+00	0	49	104
2025-01-01 11:41:00.77	188.55	10.50	-67.3	-72.8	3.6	0.00e+00	0	50	104
2025-01-01 11:41:02.67	188.72	10.69	-67.3	-72.9	3.6	0.00e+00	0	50	104
2025-01-01 11:41:04.57	188.89	10.89	-67.3	-73.0	3.7	0.00e+00	0	50	104
2025-01-01 11:41:06.47	189.06	11.09	-67.3	-73.1	3.7	0.00e+00	0	51	104
2025-01-01 11:41:08.37	189.23	11.29	-67.4	-73.3	3.7	0.00e+00	0	51	104
2025-01-01 11:41:10.26	189.41	11.49	-67.4	-73.3	3.6	0.00e+00	0	51	104
2025-01-01 11:41:12.16	189.58	11.70	-67.5	-73.4	3.6	0.00e+00	0	51	104
2025-01-01 11:41:14.06	189.77	11.91	-67.5	-73.4	3.6	0.00e+00	0	52	104
2025-01-01 11:41:15.96	189.95	12.11	-67.5	-73.3	3.7	0.00e+00	0	52	104
2025-01-01 11:41:17.86	190.14	12.33	-56.0	-58.9	10.6	0.00e+00	332	52	104
2025-01-01 11:41:19.76	190.33	12.54	-56.0	-58.8	12.2	1.80e-04	0	53	0
2025-01-01 11:41:21.66	190.53	12.76	-55.7	-58.1	12.5	7.62e-05	0	53	0
2025-01-01 11:41:23.55	190.72	12.97	-55.2	-57.6	12.8	2.77e-05	0	53	0
2025-01-01 11:41:25.45	190.92	13.19	-54.6	-57.0	12.9	0.00e+00	0	54	0
2025-01-01 11:41:27.35	191.13	13.42	-54.5	-57.2	12.9	6.90e-06	0	54	0
2025-01-01 11:41:29.25	191.34	13.64	-54.4	-57.0	12.9	1.38e-05	0	54	0
2025-01-01 11:41:31.15	191.55	13.87	-54.2	-56.6	13.0	0.00e+00	0	55	0
2025-01-01 11:41:33.04	191.76	14.10	-54.4	-57.1	12.6	2.08e-05	0	55	0
2025-01-01 11:41:34.94	191.98	14.33	-54.5	-57.3	12.6	6.93e-05	0	55	0
2025-01-01 11:41:36.84	192.21	14.56	-54.6	-57.4	12.8	4.16e-05	0	55	0
2025-01-01 11:41:38.74	192.43	14.80	-54.6	-57.5	12.9	6.90e-06	0	56	0
2025-01-01 11:41:40.63	192.67	15.04	-54.6	-57.5	12.8	4.85e-05	0	56	0
2025-01-01 11:41:42.53	192.90	15.29	-54.1	-56.4	13.1	6.90e-06	0	56	0
2025-01-01 11:41:44.43	193.14	15.53	-53.8	-56.3	13.3	6.90e-06	0	56	0
2025-01-01 11:41:46.33	193.39	15.78	-53.3	-55.8	13.5	6.90e-06	0	57	0
2025-01-01 11:41:48.23	193.64	16.03	-53.3	-55.8	13.5	0.00e+00	0	57	0
2025-01-01 11:41:50.13	193.89	16.29	-53.2	-55.7	13.7	0.00e+00	0	57	0
2025-01-01 11:41:52.03	194.15	16.54	-53.6	-56.3	13.5	6.90e-06	0	57	0
2025-01-01 11:41:53.93	194.42	16.80	-53.5	-56.2	13.6	0.00e+00	0	57	0
2025-01-01 11:41:55.82	194.69	17.07	-53.8	-56.7	13.6	0.00e+00	0	58	0
2025-01-01 11:41:57.72	194.96	17.33	-53.8	-56.8	13.6	6.90e-06	0	58	0
2025-01-01 11:41:59.62	195.25	17.60	-53.6	-56.3	13.6	0.00e+00	0	58	0
2025-01-01 11:42:01.52	195.53	17.88	-53.1	-55.4	13.8	6.90e-06	0	58	0
2025-01-01 11:42:03.42	195.83	18.15	-52.5	-55.2	14.2	0.00e+00	0	58	0
2025-01-01 11:42:05.32	196.13	18.43	-52.3	-54.8	14.2	0.00e+00	0	59	0
2025-01-01 11:42:07.22	196.43	18.72	-52.2	-54.5	14.2	0.00e+00	0	59	0
2025-01-01 11:42:09.12	196.74	19.00	-52.4	-54.9	14.1	0.00e+00	0	59	0
2025-01-01 11:42:11.02	197.06	19.29	-52.7	-55.5	14.0	0.00e+00	0	59	0
2025-01-01 11:42:12.92	197.39	19.59	-52.8	-55.7	14.0	0.00e+00	0	59	0
2025-01-01 11:42:14.81	197.72	19.88	-52.7	-55.5	14.2	0.00e+00	0	60	0
2025-01-01 11:42:16.71	198.06	20.18	-52.5	-55.1	14.0	0.00e+00	0	60	0
2025-01-01 11:42:18.61	198.41	20.49	-52.0	-54.7	14.1	0.00e+00	0	60	0
2025-01-01 11:42:20.51	198.76	20.79	-51.7	-54.2	14.6	0.00e+00	0	60	0
2025-01-01 11:42:22.40	199.12	21.11	-51.5	-54.2	14.9	0.00e+00	0	60	0
2025-01-01 11:42:24.30	199.49	21.42	-51.7	-54.5	14.9	0.00e+00	0	60	0
2025-01-01 11:42:26.20	199.87	21.74	-51.8	-54.8	14.7	0.00e+00	0	61	0
2025-01-01 11:42:28.10	200.26	22.06	-52.0	-55.1	14.6	0.00e+00	0	61	0
2025-01-01 11:42:30.00	200.66	22.39	-52.1	-55.3	14.5	0.00e+00	0	61	0
2025-01-01 11:42:31.90	201.07	22.72	-51.8	-54.7	14.7	0.00e+00	0	61	0
2025-01-01 11:42:33.80	201.49	23.06	-51.1	-53.3	15.0	0.00e+00	0	61	0
2025-01-01 11:42:35.70	201.91	23.40	-51.0	-53.7	15.1	0.00e+00	0	62	0
2025-01-01 11:42:37.60	202.35	23.74	-50.9	-53.4	15.1	0.00e+00	0	62	0
2025-01-01 11:42:39.50	202.80	24.09	-51.4	-54.5	14.9	0.00e+00	0	62	0
2025-01-01 11:42:41.40	203.26	24.44	-51.4	-54.4	15.0	0.00e+00	0	62	0
2025-01-01 11:42:43.29	203.73	24.79	-51.5	-54.7	14.9	0.00e+00	0	62	0
2025-01-01 11:42:45.19	204.21	25.15	-51.2	-54.1	15.1	0.00e+00	0	62	0
2025-01-01 11:42:47.09	204.70	25.51	-50.7	-53.1	15.3	0.00e+00	0	62	0
2025-01-01 11:42:48.99	205.21	25.88	-50.5	-53.2	15.5	0.00e+00	0	62	0
2025-01-01 11:42:50.88	205.73	26.25	-50.5	-53.1	15.6	0.00e+00	0	62	0
2025-01-01 11:42:52.78	206.26	26.62	-50.8	-53.7	15.5	0.00e+00	0	62	0
2025-01-01 11:42:54.68	206.81	27.00	-50.9	-53.9	15.4	0.00e+00	0	62	0
2025-01-01 11:42:56.58	207.37	27.39	-51.0	-54.2	15.3	0.00e+00	0	63	0
2025-01-01 11:42:58.48	207.94	27.77	-50.7	-53.5	15.4	0.00e+00	0	63	0
2025-01-01 11:43:00.38	208.54	28.16	-50.1	-52.4	15.7	0.00e+00	0	63	0
2025-01-01 11:43:02.28	209.14	28.56	-50.0	-52.6	15.8	0.00e+00	0	63	0
2025-01-01 11:43:04.18	209.77	28.95	-50.2	-53.1	15.6	0.00e+00	0	63	0
2025-01-01 11:43:06.07	210.40	29.35	-50.5	-53.6	15.6	0.00e+00	0	64	0
2025-01-01 11:43:07.97	211.06	29.75	-50.6	-53.8	15.5	0.00e+00	0	64	0
2025-01-01 11:43:09.86	211.73	30.16	-50.4	-53.4	15.5	0.00e+00	0	63	0
2025-01-01 11:43:11.76	212.42	30.56	-49.9	-52.5	15.8	0.00e+00	0	64	0
2025-01-01 11:43:13.66	213.14	30.98	-49.7	-52.1	15.8	0.00e+00	0	64	0
2025-01-01 11:43:15.56	213.87	31.39	-49.8	-52.3	15.8	0.00e+00	0	64	0
2025-01-01 11:43:17.46	214.62	31.80	-50.0	-52.7	15.7	0.00e+00	0	64	0
2025-01-01 11:43:19.36	215.39	32.22	-50.2	-53.1	15.6	0.00e+00	0	64	0
2025-01-01 11:43:21.26	216.19	32.64	-49.9	-52.5	15.8	0.00e+00	0	64	0
2025-01-01 11:43:23.16	217.00	33.06	-49.4	-52.0	15.8	0.00e+00	0	64	0
2025-01-01 11:43:25.06	217.84	33.48	-49.2	-51.5	16.0	0.00e+00	0	64	0
2025-01-01 11:43:26.96	218.70	33.90	-48.2	-51.0	15.8	0.00e+00	0	64	0
2025-01-01 11:43:28.86	219.59	34.31	-48.5	-51.7	15.7	0.00e+00	0	64	0
2025-01-01 11:43:30.75	220.49	34.73	-48.6	-51.8	15.6	0.00e+00	0	65	0
2025-01-01 11:43:32.65	221.43	35.15	-48.5	-51.5	15.6	0.00e+00	0	65	0
2025-01-01 11:43:34.55	222.39	35.56	-48.1	-50.7	15.8	0.00e+00	0	65	0
2025-01-01 11:43:36.45	223.37	35.98	-47.9	-50.4	15.9	0.00e+00	0	65	0
2025-01-01 11:43:38.35	224.38	36.38	-48.1	-50.8	15.9	0.00e+00	0	65	0
2025-01-01 11:43:40.25	225.42	36.79	-48.6	-51.8	15.6	0.00e+00	0	65	0
2025-01-01 11:43:42.15	226.49	37.19	-48.7	-52.0	15.6	0.00e+00	0	65	0
2025-01-01 11:43:44.05	227.58	37.59	-48.6	-51.9	15.6	0.00e+00	0	65	0
2025-01-01 11:43:45.95	228.70	37.98	-48.3	-51.3	15.8	0.00e+00	0	66	0
2025-01-01 11:43:47.85	229.85	38.36	-48.1	-50.8	15.8	0.00e+00	0	66	0
2025-01-01 11:43:49.75	231.03	38.73	-48.3	-51.2	15.7	0.00e+00	0	66	0
2025-01-01 11:43:51.64	232.22	39.10	-48.7	-52.0	15.4	0.00e+00	0	66	0
2025-01-01 11:43:53.54	233.46	39.46	-49.0	-52.1	15.2	0.00e+00	0	66	0
2025-01-01 11:43:55.44	234.72	39.80	-49.2	-52.5	15.3	0.00e+00	0	66	0
2025-01-01 11:43:57.34	236.01	40.14	-49.0	-52.2	15.2	0.00e+00	0	66	0
2025-01-01 11:43:59.24	237.32	40.46	-49.0	-52.1	15.4	0.00e+00	0	66	0
2025-01-01 11:44:01.14	238.67	40.77	-48.9	-51.9	15.3	0.00e+00	0	66	0
2025-01-01 11:44:03.04	240.03	41.07	-49.0	-52.1	15.2	0.00e+00	0	66	0
2025-01-01 11:44:04.94	241.43	41.35	-49.1	-52.4	15.2	0.00e+00	0	66	0
2025-01-01 11:44:06.84	242.85	41.61	-49.6	-52.9	15.1	0.00e+00	0	67	0
2025-01-01 11:44:08.74	244.29	41.86	-51.2	-54.5	15.1	0.00e+00	0	67	0
2025-01-01 11:44:10.64	245.75	42.09	-51.5	-54.6	15.0	0.00e+00	0	67	0
2025-01-01 11:44:12.54	247.24	42.30	-51.5	-54.7	14.9	0.00e+00	0	67	0
2025-01-01 11:44:14.43	248.73	42.49	-51.6	-54.4	14.9	0.00e+00	0	67	0
2025-01-01 11:44:16.33	250.26	42.66	-51.5	-54.2	14.9	0.00e+00	0	67	0
2025-01-01 11:44:18.22	251.78	42.80	-51.5	-54.2	15.1	0.00e+00	0	67	0
2025-01-01 11:44:20.12	253.33	42.93	-51.8	-54.8	14.9	0.00e+00	0	67	0
2025-01-01 11:44:22.02	254.90	43.04	-51.8	-54.7	15.0	0.00e+00	0	67	0
2025-01-01 11:44:23.92	256.47	43.12	-51.5	-54.3	15.0	0.00e+00	0	67	0
2025-01-01 11:44:25.82	258.05	43.18	-51.7	-54.6	14.9	0.00e+00	0	67	0
2025-01-01 11:44:27.72	259.63	43.22	-51.7	-54.5	14.9	0.00e+00	0	67	0
2025-01-01 11:44:29.62	261.21	43.23	-51.7	-54.6	14.8	0.00e+00	0	67	0
2025-01-01 11:44:31.52	262.80	43.22	-52.0	-55.1	14.7	0.00e+00	0	68	0
2025-01-01 11:44:33.42	264.38	43.19	-51.6	-54.4	15.0	0.00e+00	0	68	0
2025-01-01 11:44:35.31	265.95	43.14	-52.2	-55.6	14.6	0.00e+00	0	68	0
2025-01-01 11:44:37.21	267.53	43.06	-52.1	-55.3	14.7	0.00e+00	0	68	0
2025-01-01 11:44:39.11	269.09	42.95	-52.4	-55.4	14.5	0.00e+00	0	68	0
2025-01-01 11:44:41.00	270.63	42.83	-52.5	-55.6	14.5	0.00e+00	0	68	0
2025-01-01 11:44:42.90	272.17	42.69	-52.7	-56.2	14.2	0.00e+00	0	68	0
2025-01-01 11:44:44.80	273.69	42.52	-52.9	-56.1	14.2	0.00e+00	0	68	0
2025-01-01 11:44:46.70	275.20	42.33	-53.0	-56.2	14.0	0.00e+00	0	68	0
2025-01-01 11:44:48.60	276.68	42.13	-53.0	-55.8	14.1	0.00e+00	0	68	0
2025-01-01 11:44:50.50	278.15	41.90	-53.4	-56.5	13.8	0.00e+00	0	68	0
2025-01-01 11:44:52.40	279.59	41.66	-53.5	-56.6	13.9	0.00e+00	0	68	0
2025-01-01 11:44:54.30	281.01	41.40	-53.4	-56.5	14.0	0.00e+00	0	68	0
2025-01-01 11:44:56.20	282.41	41.12	-52.8	-55.2	14.2	0.00e+00	0	68	0
2025-01-01 11:44:58.10	283.78	40.83	-52.6	-55.4	14.4	0.00e+00	0	69	0
2025-01-01 11:45:00.00	285.12	40.53	-52.1	-54.8	14.8	0.00e+00	0	68	0
2025-01-01 11:45:01.89	286.43	40.21	-51.9	-54.6	14.6	0.00e+00	0	69	0
2025-01-01 11:45:03.79	287.72	39.88	-52.1	-54.8	14.6	0.00e+00	0	69	0
2025-01-01 11:45:05.69	288.98	39.54	-52.4	-55.4	14.3	0.00e+00	0	69	0
2025-01-01 11:45:07.59	290.22	39.18	-52.5	-55.2	14.4	0.00e+00	0	69	0
2025-01-01 11:45:09.49	291.43	38.82	-52.3	-54.8	14.6	0.00e+00	0	69	0
2025-01-01 11:45:11.39	292.60	38.45	-51.6	-53.9	15.0	0.00e+00	0	69	0
2025-01-01 11:45:13.29	293.75	38.07	-51.3	-53.7	15.2	0.00e+00	0	69	0
2025-01-01 11:45:15.19	294.88	37.68	-51.3	-53.7	15.1	0.00e+00	0	69	0
2025-01-01 11:45:17.09	295.97	37.29	-51.6	-54.8	14.9	0.00e+00	0	69	0
2025-01-01 11:45:18.99	297.04	36.89	-51.5	-54.7	14.8	0.00e+00	0	69	0
2025-01-01 11:45:20.89	298.08	36.49	-67.8	-73.8	3.6	0.00e+00	0	69	104
2025-01-01 11:45:22.78	299.09	36.08	-67.9	-73.7	3.6	0.00e+00	0	69	104
2025-01-01 11:45:24.68	300.07	35.68	-67.7	-73.2	3.6	0.00e+00	0	69	104
2025-01-01 11:45:26.58	301.04	35.26	-67.8	-73.5	3.7	0.00e+00	0	69	104
2025-01-01 11:45:28.47	301.97	34.85	-67.5	-72.8	3.7	0.00e+00	0	69	104
2025-01-01 11:45:30.37	302.88	34.44	-67.3	-72.8	3.7	0.00e+00	0	69	104
2025-01-01 11:45:32.27	303.76	34.02	-67.1	-72.9	3.6	0.00e+00	0	69	104
2025-01-01 11:45:34.17	304.63	33.60	-67.4	-73.9	3.6	0.00e+00	0	69	104
2025-01-01 11:45:36.07	305.47	33.19	-67.7	-73.9	3.6	0.00e+00	0	69	104
2025-01-01 11:45:37.97	306.28	32.77	-67.7	-73.9	3.7	0.00e+00	0	69	104
2025-01-01 11:45:39.87	307.08	32.35	-67.6	-73.8	3.7	0.00e+00	0	69	104
2025-01-01 11:45:41.77	307.85	31.94	-67.7	-73.9	3.7	0.00e+00	0	69	104
2025-01-01 11:45:43.67	308.61	31.53	-67.6	-73.9	3.6	0.00e+00	0	69	104
2025-01-01 11:45:45.56	309.34	31.12	-67.6	-74.0	3.6	0.00e+00	0	69	104
2025-01-01 11:45:47.46	310.05	30.71	-67.8	-73.8	3.6	0.00e+00	0	69	104
2025-01-01 11:45:49.35	310.74	30.31	-67.8	-73.5	3.7	0.00e+00	0	69	104
2025-01-01 11:45:51.25	311.42	29.90	-67.9	-73.5	3.7	0.00e+00	0	69	104
2025-01-01 11:45:53.15	312.08	29.50	-67.9	-73.6	3.7	0.00e+00	0	69	104
2025-01-01 11:45:55.05	312.72	29.10	-67.9	-73.7	3.6	0.00e+00	0	69	104
2025-01-01 11:45:56.95	313.34	28.71	-68.0	-73.9	3.6	0.00e+00	0	69	104
2025-01-01 11:45:58.85	313.95	28.32	-67.8	-73.5	3.6	0.00e+00	0	69	104
2025-01-01 11:46:00.75	314.55	27.93	-67.6	-73.2	3.7	0.00e+00	0	69	104
2025-01-01 11:46:02.64	315.12	27.55	-67.3	-72.9	3.7	0.00e+00	0	69	104
2025-01-01 11:46:04.54	315.68	27.17	-67.6	-73.2	3.7	0.00e+00	0	69	104
2025-01-01 11:46:06.44	316.23	26.79	-67.8	-73.3	3.6	0.00e+00	0	69	104
2025-01-01 11:46:08.34	316.77	26.42	-67.7	-73.1	3.6	0.00e+00	0	69	104
2025-01-01 11:46:10.24	317.29	26.05	-67.6	-72.8	3.6	0.00e+00	0	69	104
2025-01-01 11:46:12.13	317.79	25.68	-67.6	-72.8	3.6	0.00e+00	0	69	104
2025-01-01 11:46:14.03	318.29	25.32	-67.5	-72.6	3.7	0.00e+00	0	69	104
2025-01-01 11:46:15.93	318.77	24.96	-67.5	-72.5	3.6	0.00e+00	0	69	104
2025-01-01 11:46:17.83	319.25	24.61	-67.5	-72.5	3.6	0.00e+00	0	69	104
2025-01-01 11:46:19.73	319.71	24.26	-67.5	-72.6	3.6	0.00e+00	0	69	104
2025-01-01 11:46:21.63	320.16	23.92	-67.7	-73.0	3.6	0.00e+00	0	69	104
2025-01-01 11:46:23.53	320.59	23.57	-67.8	-73.2	3.7	0.00e+00	0	69	104
2025-01-01 11:46:25.43	321.02	23.24	-67.7	-73.1	3.7	0.00e+00	0	69	104
2025-01-01 11:46:27.33	321.44	22.90	-67.4	-72.6	3.6	0.00e+00	0	69	104
2025-01-01 11:46:29.23	321.85	22.57	-67.2	-72.5	3.6	0.00e+00	0	69	104
2025-01-01 11:46:31.13	322.25	22.25	-67.3	-72.6	3.6	0.00e+00	0	69	104
2025-01-01 11:46:33.02	322.64	21.93	-67.4	-72.8	3.6	0.00e+00	0	70	104
2025-01-01 11:46:34.92	323.02	21.61	-67.6	-73.2	3.7	0.00e+00	0	70	104
2025-01-01 11:46:36.82	323.39	21.29	-67.9	-73.6	3.7	0.00e+00	0	70	104
2025-01-01 11:46:38.72	323.76	20.98	-67.9	-73.6	3.7	0.00e+00	0	70	104
2025-01-01 11:46:40.62	324.11	20.67	-67.9	-73.7	3.6	0.00e+00	0	70	104
2025-01-01 11:46:42.52	324.46	20.37	-67.9	-73.7	3.6	0.00e+00	0	70	104
2025-01-01 11:46:44.42	324.80	20.07	-67.9	-73.7	3.6	0.00e+00	0	70	104
2025-01-01 11:46:46.32	325.14	19.78	-67.8	-73.5	3.7	0.00e+00	0	70	104
2025-01-01 11:46:48.22	325.47	19.48	-67.6	-73.3	3.7	0.00e+00	0	70	104
2025-01-01 11:46:50.12	325.79	19.19	-67.6	-73.3	3.6	0.00e+00	0	70	104
2025-01-01 11:46:52.02	326.10	18.91	-67.6	-73.3	3.7	0.00e+00	0	70	104
2025-01-01 11:46:53.91	326.40	18.63	-67.7	-73.3	3.6	0.00e+00	0	70	104
2025-01-01 11:46:55.81	326.71	18.35	-67.7	-73.4	3.6	0.00e+00	0	70	104
2025-01-01 11:46:57.70	327.00	18.07	-67.7	-73.4	3.7	0.00e+00	0	70	104
2025-01-01 11:46:59.60	327.29	17.80	-67.7	-73.3	3.7	0.00e+00	0	70	104
2025-01-01 11:47:01.50	327.57	17.53	-67.7	-73.1	3.7	0.00e+00	0	70	104
2025-01-01 11:47:03.40	327.85	17.27	-67.6	-72.9	3.6	0.00e+00	0	70	104
2025-01-01 11:47:05.30	328.12	17.00	-67.6	-72.9	3.6	0.00e+00	0	70	104
2025-01-01 11:47:07.20	328.39	16.75	-67.7	-73.3	3.6	0.00e+00	0	70	104
2025-01-01 11:47:09.10	328.65	16.49	-67.8	-73.4	3.7	0.00e+00	0	69	104
2025-01-01 11:47:11.00	328.90	16.23	-67.7	-73.4	3.7	0.00e+00	0	70	104
2025-01-01 11:47:12.89	329.15	15.98	-67.8	-73.5	3.7	0.00e+00	0	70	104
2025-01-01 11:47:14.79	329.40	15.74	-67.8	-73.5	3.7	0.00e+00	0	70	104
2025-01-01 11:47:16.69	329.64	15.49	-67.7	-73.4	3.6	0.00e+00	0	70	104
2025-01-01 11:47:18.59	329.88	15.25	-67.7	-73.4	3.7	0.00e+00	0	70	104
2025-01-01 11:47:20.48	330.11	15.01	-67.8	-73.4	3.6	0.00e+00	0	70	104
2025-01-01 11:47:22.38	330.34	14.77	-67.8	-73.3	3.7	0.00e+00	0	70	104
2025-01-01 11:47:24.28	330.57	14.54	-67.7	-73.2	3.7	0.00e+00	0	70	104
2025-01-01 11:47:26.18	330.79	14.31	-67.7	-73.3	3.7	0.00e+00	0	70	104
2025-01-01 11:47:28.08	331.01	14.08	-67.7	-73.4	3.6	0.00e+00	0	70	104
2025-01-01 11:47:29.98	331.22	13.85	-67.7	-73.3	3.6	0.00e+00	0	70	104
2025-01-01 11:47:31.88	331.43	13.63	-67.7	-73.2	3.6	0.00e+00	0	70	104
2025-01-01 11:47:33.78	331.64	13.40	-67.6	-73.0	3.7	0.00e+00	0	70	104
2025-01-01 11:47:35.68	331.84	13.18	-67.5	-72.7	3.7	0.00e+00	0	70	104
2025-01-01 11:47:37.58	332.04	12.97	-67.5	-72.7	3.7	0.00e+00	0	70	104
2025-01-01 11:47:39.48	332.23	12.75	-67.5	-72.8	3.6	0.00e+00	0	70	104
2025-01-01 11:47:41.37	332.43	12.54	-67.5	-72.8	3.6	0.00e+00	0	70	104
2025-01-01 11:47:43.27	332.62	12.33	-67.6	-73.0	3.6	0.00e+00	0	70	104
2025-01-01 11:47:45.17	332.80	12.12	-67.7	-73.2	3.7	0.00e+00	0	70	104
2025-01-01 11:47:47.07	332.99	11.91	-67.7	-73.1	3.7	0.00e+00	0	70	104
2025-01-01 11:47:48.97	333.17	11.71	-67.6	-72.9	3.7	0.00e+00	0	70	104
2025-01-01 11:47:50.87	333.34	11.51	-67.4	-72.5	3.6	0.00e+00	0	70	104
2025-01-01 11:47:52.77	333.52	11.31	-67.3	-72.2	3.6	0.00e+00	0	70	104
2025-01-01 11:47:54.67	333.69	11.11	-67.2	-72.0	3.5	0.00e+00	0	70	104
2025-01-01 11:47:56.57	333.86	10.91	-67.2	-71.9	3.7	0.00e+00	0	70	104
2025-01-01 11:47:58.47	334.03	10.72	-67.2	-72.0	3.7	0.00e+00	0	70	104
2025-01-01 11:48:00.37	334.19	10.52	-67.3	-72.4	3.7	0.00e+00	0	70	104
2025-01-01 11:48:02.26	334.35	10.33	-67.5	-72.8	3.6	0.00e+00	0	70	104
2025-01-01 11:48:04.16	334.51	10.14	-67.5	-73.1	3.6	0.00e+00	0	70	104
2025-01-01 11:48:06.06	334.67	9.96	-67.5	-73.1	3.6	0.00e+00	0	70	104
2025-01-01 11:48:07.96	334.82	9.77	-67.5	-72.9	3.7	0.00e+00	0	70	104
2025-01-01 11:48:09.86	334.98	9.59	-67.4	-72.9	3.7	0.00e+00	0	70	104
2025-01-01 11:48:11.76	335.13	9.40	-67.4	-72.8	3.7	0.00e+00	0	70	104
2025-01-01 11:48:13.66	335.27	9.22	-67.4	-72.7	3.6	0.00e+00	0	70	104
2025-01-01 11:48:15.56	335.42	9.04	-67.5	-72.7	3.6	0.00e+00	0	70	104
2025-01-01 11:48:17.46	335.56	8.87	-67.5	-72.8	3.6	0.00e+00	0	70	104
2025-01-01 11:48:19.36	335.71	8.69	-67.5	-72.9	3.7	0.00e+00	0	70	104
2025-01-01 11:48:21.26	335.85	8.51	-67.5	-72.9	3.7	0.00e+00	0	70	104
2025-01-01 11:48:23.15	335.98	8.34	-67.6	-72.9	3.6	0.00e+00	0	70	104
2025-01-01 11:48:25.05	336.12	8.17	-67.5	-72.9	3.6	0.00e+00	0	70	104
2025-01-01 11:48:26.94	336.25	8.00	-67.1	-72.0	3.6	0.00e+00	0	70	104

#Closed at: 2025-01-01 11:48:27
#Recorded file [18077 MB]: D:/data/31015_250101_234519.dat