passes_logs/2025/01/01/PPK-1/PPK-1__20250101_100305_TY-39_rec.log

#Pass ID: 20250101_100305_TY-39
#Satellite: TY-39
#Configuration: TY-39
#almurnet v.1.7.20230919.trace
#Start time: 2025-01-01 10:03:07

#Version: 2.2.20231116
#Station: PPK-1
#Location: 158.6 lon 53.06666 lat
#TLE: 1 51832U 22019J   24366.81756190  .00006730  00000+0  34536-3 0  9990
#TLE: 2 51832  97.4118  71.3396 0007727 292.1191  67.9222 15.16825869156997

#Time	Az	El	Level	Level2	SNR	BER	BlckErr	Temp	State
2025-01-01 10:03:07.01	134.43	8.15	-63.0	-67.6	3.4	0.00e+00	0	46	0
2025-01-01 10:03:08.90	134.26	8.32	-62.5	-69.1	3.4	0.00e+00	0	47	104
2025-01-01 10:03:10.80	134.09	8.49	-63.7	-69.1	3.3	0.00e+00	0	48	104
2025-01-01 10:03:12.69	133.91	8.66	-63.7	-69.0	3.7	0.00e+00	0	48	104
2025-01-01 10:03:14.59	133.73	8.83	-64.4	-70.3	3.7	0.00e+00	0	48	104
2025-01-01 10:03:16.49	133.55	9.00	-64.9	-70.7	3.6	0.00e+00	0	49	104
2025-01-01 10:03:18.39	133.37	9.18	-65.6	-71.5	3.4	0.00e+00	0	49	104
2025-01-01 10:03:20.29	133.19	9.35	-66.1	-71.9	3.5	0.00e+00	0	49	104
2025-01-01 10:03:22.19	133.00	9.53	-65.9	-71.4	3.4	0.00e+00	0	50	104
2025-01-01 10:03:24.08	132.81	9.71	-65.7	-71.1	3.7	0.00e+00	0	50	104
2025-01-01 10:03:25.98	132.61	9.89	-65.6	-71.2	3.7	0.00e+00	0	50	104
2025-01-01 10:03:27.88	132.42	10.07	-65.8	-71.5	3.6	0.00e+00	0	50	104
2025-01-01 10:03:29.78	132.22	10.25	-65.5	-71.1	3.5	0.00e+00	0	51	104
2025-01-01 10:03:31.68	132.01	10.44	-65.4	-70.8	3.5	0.00e+00	0	51	104
2025-01-01 10:03:33.58	131.81	10.62	-65.8	-71.5	3.5	0.00e+00	0	51	104
2025-01-01 10:03:35.47	131.60	10.81	-65.8	-71.9	3.7	0.00e+00	0	51	104
2025-01-01 10:03:37.37	131.39	11.00	-65.4	-71.6	3.7	0.00e+00	0	52	104
2025-01-01 10:03:39.27	131.17	11.19	-65.3	-71.6	3.6	0.00e+00	0	52	104
2025-01-01 10:03:41.16	130.95	11.38	-65.9	-72.2	3.6	0.00e+00	0	52	104
2025-01-01 10:03:43.06	130.73	11.57	-66.6	-72.2	3.6	0.00e+00	0	52	104
2025-01-01 10:03:44.96	130.50	11.77	-66.3	-71.7	3.5	0.00e+00	0	53	104
2025-01-01 10:03:46.86	130.27	11.97	-66.4	-72.1	3.7	0.00e+00	0	53	104
2025-01-01 10:03:48.76	130.04	12.17	-66.9	-72.5	3.7	0.00e+00	0	53	104
2025-01-01 10:03:50.66	129.80	12.37	-67.0	-72.8	3.6	0.00e+00	0	53	104
2025-01-01 10:03:52.56	129.56	12.57	-66.8	-72.5	3.6	0.00e+00	0	54	104
2025-01-01 10:03:54.46	129.31	12.77	-66.1	-71.6	3.5	0.00e+00	0	54	104
2025-01-01 10:03:56.36	129.06	12.98	-65.7	-71.4	3.5	0.00e+00	0	54	104
2025-01-01 10:03:58.25	128.81	13.18	-65.8	-71.4	3.7	0.00e+00	0	55	104
2025-01-01 10:04:00.15	128.55	13.39	-66.3	-72.1	3.7	0.00e+00	0	55	104
2025-01-01 10:04:02.04	128.29	13.60	-66.9	-72.7	3.6	0.00e+00	0	55	104
2025-01-01 10:04:03.94	128.02	13.82	-67.1	-72.9	3.6	0.00e+00	0	55	104
2025-01-01 10:04:05.84	127.75	14.03	-67.1	-72.7	3.5	0.00e+00	0	55	104
2025-01-01 10:04:07.74	127.47	14.25	-66.9	-72.4	3.5	0.00e+00	0	56	104
2025-01-01 10:04:09.64	127.19	14.47	-53.8	-56.9	12.6	2.77e-05	0	56	0
2025-01-01 10:04:11.54	126.90	14.69	-53.9	-57.0	12.4	2.22e-04	0	56	0
2025-01-01 10:04:13.43	126.61	14.91	-53.8	-56.8	12.3	7.62e-05	0	57	0
2025-01-01 10:04:15.33	126.31	15.13	-53.4	-56.1	12.8	3.46e-05	0	57	0
2025-01-01 10:04:17.22	126.01	15.36	-53.1	-55.4	13.2	3.46e-05	0	57	0
2025-01-01 10:04:19.11	125.70	15.58	-52.7	-55.2	13.4	1.38e-05	0	57	0
2025-01-01 10:04:21.01	125.39	15.81	-52.7	-55.2	13.2	0.00e+00	0	57	0
2025-01-01 10:04:22.90	125.07	16.05	-52.5	-55.3	13.2	0.00e+00	0	58	0
2025-01-01 10:04:24.80	124.74	16.28	-52.7	-55.6	13.0	6.90e-06	0	58	0
2025-01-01 10:04:26.70	124.41	16.52	-52.8	-55.8	13.1	1.38e-05	0	58	0
2025-01-01 10:04:28.59	124.08	16.75	-53.0	-56.2	13.2	2.77e-05	0	58	0
2025-01-01 10:04:30.49	123.73	16.99	-53.2	-56.6	13.2	1.38e-05	0	59	0
2025-01-01 10:04:32.38	123.38	17.23	-53.0	-56.3	13.4	1.38e-05	0	59	0
2025-01-01 10:04:34.27	123.03	17.48	-52.6	-55.4	13.5	6.90e-06	0	59	0
2025-01-01 10:04:36.16	122.67	17.72	-52.3	-54.7	13.7	6.90e-06	0	59	0
2025-01-01 10:04:38.05	122.30	17.97	-52.0	-54.8	13.9	0.00e+00	0	59	0
2025-01-01 10:04:39.95	121.92	18.22	-51.9	-54.4	13.9	0.00e+00	0	60	0
2025-01-01 10:04:41.85	121.53	18.47	-51.9	-54.4	13.8	0.00e+00	0	60	0
2025-01-01 10:04:43.75	121.14	18.73	-51.9	-54.5	13.9	0.00e+00	0	60	0
2025-01-01 10:04:45.64	120.74	18.98	-52.1	-54.9	13.9	0.00e+00	0	60	0
2025-01-01 10:04:47.54	120.33	19.24	-52.2	-55.2	13.9	0.00e+00	0	61	0
2025-01-01 10:04:49.44	119.92	19.50	-52.3	-55.4	13.7	0.00e+00	0	60	0
2025-01-01 10:04:51.33	119.50	19.76	-52.3	-55.3	13.6	0.00e+00	0	61	0
2025-01-01 10:04:53.22	119.07	20.03	-51.8	-54.4	13.6	2.08e-05	0	61	0
2025-01-01 10:04:55.11	118.63	20.29	-51.5	-54.1	13.8	0.00e+00	0	61	0
2025-01-01 10:04:57.01	118.18	20.56	-51.3	-53.7	14.1	0.00e+00	0	61	0
2025-01-01 10:04:58.90	117.72	20.83	-51.2	-53.5	14.1	0.00e+00	0	62	0
2025-01-01 10:05:00.80	117.25	21.10	-51.2	-53.6	14.3	0.00e+00	0	62	0
2025-01-01 10:05:02.70	116.77	21.37	-51.4	-54.0	14.3	0.00e+00	0	62	0
2025-01-01 10:05:04.60	116.28	21.65	-51.6	-54.3	14.2	0.00e+00	0	62	0
2025-01-01 10:05:06.50	115.79	21.93	-51.6	-54.5	14.0	0.00e+00	0	62	0
2025-01-01 10:05:08.39	115.28	22.20	-51.6	-54.4	13.9	0.00e+00	0	62	0
2025-01-01 10:05:10.29	114.76	22.48	-51.4	-53.9	14.1	0.00e+00	0	62	0
2025-01-01 10:05:12.19	114.24	22.76	-51.0	-53.7	14.3	0.00e+00	0	62	0
2025-01-01 10:05:14.09	113.70	23.05	-50.8	-53.2	14.5	0.00e+00	0	62	0
2025-01-01 10:05:15.99	113.15	23.33	-50.7	-53.1	14.5	0.00e+00	0	62	0
2025-01-01 10:05:17.88	112.59	23.62	-50.7	-53.1	14.2	0.00e+00	0	63	0
2025-01-01 10:05:19.78	112.01	23.90	-50.9	-53.5	14.5	0.00e+00	0	63	0
2025-01-01 10:05:21.68	111.43	24.19	-51.0	-53.6	14.4	0.00e+00	0	63	0
2025-01-01 10:05:23.58	110.83	24.48	-51.1	-53.9	14.3	0.00e+00	0	63	0
2025-01-01 10:05:25.48	110.22	24.77	-50.9	-53.6	14.5	0.00e+00	0	63	0
2025-01-01 10:05:27.38	109.60	25.06	-50.7	-53.0	14.6	0.00e+00	0	64	0
2025-01-01 10:05:29.28	108.97	25.35	-50.4	-53.1	14.7	0.00e+00	0	63	0
2025-01-01 10:05:31.18	108.32	25.63	-50.2	-52.7	14.8	0.00e+00	0	64	0
2025-01-01 10:05:33.08	107.66	25.92	-50.3	-52.7	14.6	0.00e+00	0	64	0
2025-01-01 10:05:34.98	106.98	26.21	-50.3	-52.7	14.5	0.00e+00	0	64	0
2025-01-01 10:05:36.88	106.30	26.50	-50.4	-53.0	14.6	0.00e+00	0	64	0
2025-01-01 10:05:38.77	105.60	26.79	-50.5	-53.1	14.5	0.00e+00	0	64	0
2025-01-01 10:05:40.67	104.88	27.08	-50.4	-53.0	14.5	0.00e+00	0	64	0
2025-01-01 10:05:42.57	104.15	27.37	-50.2	-52.6	14.8	0.00e+00	0	65	0
2025-01-01 10:05:44.47	103.41	27.65	-50.0	-52.6	14.9	0.00e+00	0	65	0
2025-01-01 10:05:46.37	102.65	27.93	-49.6	-52.3	15.1	0.00e+00	0	65	0
2025-01-01 10:05:48.27	101.88	28.22	-49.5	-52.1	15.2	0.00e+00	0	65	0
2025-01-01 10:05:50.17	101.09	28.50	-49.4	-52.0	15.3	0.00e+00	0	65	0
2025-01-01 10:05:52.07	100.29	28.77	-49.5	-52.2	15.3	0.00e+00	0	65	0
2025-01-01 10:05:53.97	99.47	29.05	-49.5	-52.2	15.3	0.00e+00	0	65	0
2025-01-01 10:05:55.87	98.64	29.32	-49.7	-52.5	15.2	0.00e+00	0	65	0
2025-01-01 10:05:57.77	97.79	29.59	-49.6	-52.4	15.3	0.00e+00	0	66	0
2025-01-01 10:05:59.67	96.92	29.85	-49.5	-52.1	15.3	0.00e+00	0	65	0
2025-01-01 10:06:01.56	96.05	30.11	-49.3	-51.7	15.4	0.00e+00	0	66	0
2025-01-01 10:06:03.46	95.15	30.37	-49.1	-51.5	15.4	0.00e+00	0	66	0
2025-01-01 10:06:05.36	94.25	30.62	-47.9	-50.5	15.2	0.00e+00	0	66	0
2025-01-01 10:06:07.26	93.32	30.87	-47.8	-50.4	15.4	0.00e+00	0	66	0
2025-01-01 10:06:09.16	92.38	31.11	-47.9	-50.4	15.4	0.00e+00	0	66	0
2025-01-01 10:06:11.06	91.43	31.34	-47.9	-50.5	15.3	0.00e+00	0	66	0
2025-01-01 10:06:12.96	90.46	31.57	-47.8	-50.4	15.4	0.00e+00	0	66	0
2025-01-01 10:06:14.86	89.47	31.79	-47.8	-50.3	15.4	0.00e+00	0	66	0
2025-01-01 10:06:16.76	88.48	32.00	-47.7	-50.0	15.5	0.00e+00	0	67	0
2025-01-01 10:06:18.65	87.47	32.21	-47.7	-50.1	15.5	0.00e+00	0	67	0
2025-01-01 10:06:20.55	86.45	32.41	-47.4	-50.0	15.5	0.00e+00	0	67	0
2025-01-01 10:06:22.45	85.41	32.60	-47.2	-49.6	15.6	0.00e+00	0	67	0
2025-01-01 10:06:24.34	84.36	32.78	-47.2	-49.5	15.6	0.00e+00	0	67	0
2025-01-01 10:06:26.24	83.30	32.95	-47.0	-49.8	15.6	0.00e+00	0	67	0
2025-01-01 10:06:28.14	82.22	33.11	-47.1	-49.8	15.7	0.00e+00	0	67	0
2025-01-01 10:06:30.04	81.14	33.26	-47.0	-49.6	15.6	0.00e+00	0	67	0
2025-01-01 10:06:31.94	80.04	33.40	-47.0	-49.6	15.6	0.00e+00	0	67	0
2025-01-01 10:06:33.84	78.94	33.53	-46.9	-49.5	15.4	0.00e+00	0	67	0
2025-01-01 10:06:35.73	77.83	33.65	-47.0	-49.6	15.1	0.00e+00	0	67	0
2025-01-01 10:06:37.63	76.71	33.76	-46.9	-49.4	15.3	0.00e+00	0	67	0
2025-01-01 10:06:39.53	75.58	33.86	-46.9	-49.5	15.5	0.00e+00	0	68	0
2025-01-01 10:06:41.43	74.44	33.95	-46.8	-49.3	15.6	0.00e+00	0	68	0
2025-01-01 10:06:43.33	73.30	34.02	-46.7	-49.2	15.7	0.00e+00	0	68	0
2025-01-01 10:06:45.23	72.15	34.08	-46.8	-49.3	15.7	0.00e+00	0	68	0
2025-01-01 10:06:47.12	71.00	34.13	-46.8	-49.2	15.7	0.00e+00	0	68	0
2025-01-01 10:06:49.02	69.85	34.17	-46.8	-49.3	15.7	0.00e+00	0	68	0
2025-01-01 10:06:50.92	68.69	34.20	-46.8	-49.3	15.7	0.00e+00	0	68	0
2025-01-01 10:06:52.82	67.53	34.21	-46.7	-49.2	15.7	0.00e+00	0	68	0
2025-01-01 10:06:54.72	66.37	34.21	-46.7	-49.1	15.7	0.00e+00	0	68	0
2025-01-01 10:06:56.62	65.22	34.19	-46.7	-49.1	15.7	0.00e+00	0	68	0
2025-01-01 10:06:58.52	64.06	34.17	-46.7	-49.1	15.8	0.00e+00	0	68	0
2025-01-01 10:07:00.42	62.90	34.13	-46.7	-49.1	15.7	0.00e+00	0	68	0
2025-01-01 10:07:02.32	61.75	34.08	-46.8	-49.2	15.7	0.00e+00	0	68	0
2025-01-01 10:07:04.22	60.61	34.02	-46.7	-49.1	15.7	0.00e+00	0	68	0
2025-01-01 10:07:06.12	59.47	33.94	-46.7	-49.1	15.7	0.00e+00	0	69	0
2025-01-01 10:07:08.01	58.34	33.86	-46.7	-49.2	15.7	0.00e+00	0	69	0
2025-01-01 10:07:09.91	57.21	33.76	-46.7	-49.2	15.7	0.00e+00	0	69	0
2025-01-01 10:07:11.81	56.09	33.65	-46.8	-49.3	15.7	0.00e+00	0	69	0
2025-01-01 10:07:13.71	54.98	33.53	-46.7	-49.1	15.6	0.00e+00	0	69	0
2025-01-01 10:07:15.61	53.88	33.40	-46.7	-49.0	15.7	0.00e+00	0	69	0
2025-01-01 10:07:17.51	52.78	33.26	-46.5	-49.3	15.7	0.00e+00	0	69	0
2025-01-01 10:07:19.41	51.70	33.11	-46.6	-49.4	15.7	0.00e+00	0	69	0
2025-01-01 10:07:21.31	50.63	32.94	-46.6	-49.4	15.7	0.00e+00	0	69	0
2025-01-01 10:07:23.21	49.57	32.77	-46.6	-49.4	15.7	0.00e+00	0	69	0
2025-01-01 10:07:25.11	48.53	32.59	-46.6	-49.4	15.6	0.00e+00	0	69	0
2025-01-01 10:07:27.01	47.49	32.40	-46.7	-49.6	15.5	0.00e+00	0	69	0
2025-01-01 10:07:28.91	46.47	32.21	-46.7	-49.6	15.5	0.00e+00	0	69	0
2025-01-01 10:07:30.80	45.47	32.00	-46.8	-49.9	15.6	0.00e+00	0	69	0
2025-01-01 10:07:32.70	44.48	31.79	-47.1	-50.3	15.5	0.00e+00	0	70	0
2025-01-01 10:07:34.60	43.50	31.57	-47.1	-50.4	15.6	0.00e+00	0	70	0
2025-01-01 10:07:36.50	42.54	31.34	-47.1	-50.4	15.3	0.00e+00	0	70	0
2025-01-01 10:07:38.40	41.59	31.11	-47.2	-50.5	15.5	0.00e+00	0	70	0
2025-01-01 10:07:40.30	40.65	30.87	-47.1	-50.4	15.5	0.00e+00	0	69	0
2025-01-01 10:07:42.20	39.73	30.62	-47.1	-50.3	15.5	0.00e+00	0	70	0
2025-01-01 10:07:44.10	38.83	30.38	-47.1	-50.4	15.5	0.00e+00	0	70	0
2025-01-01 10:07:45.99	37.95	30.12	-47.2	-50.5	15.5	0.00e+00	0	70	0
2025-01-01 10:07:47.89	37.07	29.86	-47.2	-50.5	15.5	0.00e+00	0	70	0
2025-01-01 10:07:49.79	36.21	29.60	-47.3	-50.4	15.5	0.00e+00	0	70	0
2025-01-01 10:07:51.69	35.37	29.33	-47.5	-50.7	15.4	0.00e+00	0	70	0
2025-01-01 10:07:53.58	34.55	29.07	-47.7	-51.0	15.4	0.00e+00	0	70	0
2025-01-01 10:07:55.48	33.73	28.79	-47.7	-51.1	15.4	0.00e+00	0	70	0
2025-01-01 10:07:57.38	32.94	28.52	-47.8	-50.9	15.3	0.00e+00	0	70	0
2025-01-01 10:07:59.28	32.15	28.24	-47.8	-50.7	15.5	0.00e+00	0	70	0
2025-01-01 10:08:01.18	31.39	27.96	-47.7	-50.5	15.4	0.00e+00	0	71	0
2025-01-01 10:08:03.07	30.64	27.68	-47.8	-50.7	15.4	0.00e+00	0	71	0
2025-01-01 10:08:04.97	29.90	27.40	-47.9	-51.0	15.4	0.00e+00	0	70	0
2025-01-01 10:08:06.87	29.17	27.11	-48.1	-51.3	15.4	0.00e+00	0	71	0
2025-01-01 10:08:08.77	28.46	26.83	-48.2	-51.5	15.2	0.00e+00	0	71	0
2025-01-01 10:08:10.67	27.77	26.54	-48.4	-51.5	15.2	0.00e+00	0	71	0
2025-01-01 10:08:12.57	27.08	26.25	-48.5	-51.8	15.1	0.00e+00	0	71	0
2025-01-01 10:08:14.47	26.42	25.97	-48.6	-51.8	14.8	0.00e+00	0	71	0
2025-01-01 10:08:16.36	25.76	25.68	-48.4	-51.5	15.2	0.00e+00	0	71	0
2025-01-01 10:08:18.26	25.12	25.39	-48.4	-51.5	15.1	0.00e+00	0	71	0
2025-01-01 10:08:20.16	24.49	25.11	-48.6	-51.8	14.8	0.00e+00	0	71	0
2025-01-01 10:08:22.06	23.87	24.82	-48.6	-52.0	14.8	0.00e+00	0	70	0
2025-01-01 10:08:23.96	23.27	24.53	-48.9	-52.0	14.7	0.00e+00	0	71	0
2025-01-01 10:08:25.85	22.68	24.25	-49.2	-52.7	14.4	0.00e+00	0	71	0
2025-01-01 10:08:27.75	22.10	23.96	-49.5	-52.6	14.6	0.00e+00	0	71	0
2025-01-01 10:08:29.65	21.53	23.68	-49.6	-52.9	14.6	0.00e+00	0	71	0
2025-01-01 10:08:31.55	20.97	23.40	-49.4	-52.5	14.8	0.00e+00	0	71	0
2025-01-01 10:08:33.45	20.43	23.12	-49.2	-52.2	14.8	0.00e+00	0	71	0
2025-01-01 10:08:35.35	19.89	22.84	-49.4	-52.5	14.6	0.00e+00	0	71	0
2025-01-01 10:08:37.25	19.37	22.56	-49.6	-52.8	14.5	0.00e+00	0	71	0
2025-01-01 10:08:39.15	18.85	22.28	-49.6	-52.9	14.6	0.00e+00	0	71	0
2025-01-01 10:08:41.05	18.35	22.00	-51.1	-54.4	14.6	0.00e+00	0	72	0
2025-01-01 10:08:42.94	17.86	21.73	-51.3	-54.4	14.6	0.00e+00	0	71	0
2025-01-01 10:08:44.84	17.38	21.46	-51.5	-54.8	14.3	0.00e+00	0	71	0
2025-01-01 10:08:46.74	16.90	21.19	-51.7	-54.7	14.1	0.00e+00	0	71	0
2025-01-01 10:08:48.64	16.44	20.92	-51.3	-53.8	14.5	0.00e+00	0	71	0
2025-01-01 10:08:50.54	15.98	20.65	-51.2	-53.6	14.5	0.00e+00	0	71	0
2025-01-01 10:08:52.44	15.53	20.38	-51.3	-53.8	14.6	0.00e+00	0	71	0
2025-01-01 10:08:54.34	15.10	20.12	-51.5	-54.1	14.5	0.00e+00	0	71	0
2025-01-01 10:08:56.23	14.67	19.86	-51.6	-54.4	14.1	0.00e+00	0	72	0
2025-01-01 10:08:58.13	14.25	19.60	-51.9	-55.1	13.8	0.00e+00	0	72	0
2025-01-01 10:09:00.03	13.84	19.34	-52.3	-55.7	12.4	4.85e-05	0	72	0
2025-01-01 10:09:01.93	13.43	19.08	-52.4	-55.5	12.4	1.66e-04	0	72	0
2025-01-01 10:09:03.83	13.03	18.83	-52.5	-55.7	13.7	0.00e+00	0	71	0
2025-01-01 10:09:05.72	12.65	18.58	-52.4	-55.6	13.1	6.90e-06	0	72	0
2025-01-01 10:09:07.62	12.26	18.33	-52.1	-54.9	13.4	2.77e-05	0	72	0
2025-01-01 10:09:09.52	11.89	18.08	-52.2	-55.1	13.8	0.00e+00	0	72	0
2025-01-01 10:09:11.42	11.52	17.83	-52.2	-55.1	13.7	0.00e+00	0	72	0
2025-01-01 10:09:13.31	11.16	17.59	-52.4	-55.6	13.9	0.00e+00	0	72	0
2025-01-01 10:09:15.21	10.81	17.35	-52.7	-56.1	13.5	0.00e+00	0	72	0
2025-01-01 10:09:17.11	10.46	17.11	-52.9	-56.1	13.1	0.00e+00	0	72	0
2025-01-01 10:09:19.01	10.12	16.87	-53.2	-56.2	13.3	1.38e-05	0	72	0
2025-01-01 10:09:20.91	9.79	16.63	-53.5	-56.7	13.2	6.90e-06	0	72	0
2025-01-01 10:09:22.81	9.46	16.40	-53.6	-56.9	13.1	6.90e-06	0	72	0
2025-01-01 10:09:24.71	9.14	16.17	-53.6	-57.0	13.2	2.08e-05	0	72	0
2025-01-01 10:09:26.61	8.82	15.94	-53.1	-56.0	13.3	6.90e-06	0	72	0
2025-01-01 10:09:28.51	8.51	15.71	-53.1	-55.9	13.3	0.00e+00	0	72	0
2025-01-01 10:09:30.40	8.20	15.48	-53.1	-56.0	13.2	1.38e-05	0	72	0
2025-01-01 10:09:32.30	7.90	15.26	-53.4	-56.6	13.0	3.46e-05	0	72	0
2025-01-01 10:09:34.19	7.61	15.04	-53.6	-56.9	12.9	6.90e-06	0	72	0
2025-01-01 10:09:36.09	7.32	14.82	-53.6	-57.0	12.8	3.46e-05	0	72	0
2025-01-01 10:09:37.99	7.04	14.60	-54.0	-57.3	12.7	1.38e-05	0	72	0
2025-01-01 10:09:39.89	6.76	14.38	-54.3	-57.8	12.8	4.16e-05	0	72	0
2025-01-01 10:09:41.79	6.48	14.17	-54.5	-57.8	12.2	6.24e-05	0	72	0
2025-01-01 10:09:43.69	6.21	13.95	-54.6	-57.9	11.6	5.96e-04	0	72	0
2025-01-01 10:09:45.59	5.95	13.74	-54.6	-58.1	11.4	1.14e-03	0	72	0
2025-01-01 10:09:47.49	5.69	13.53	-54.4	-57.5	11.9	5.41e-04	0	72	0
2025-01-01 10:09:49.39	5.43	13.33	-54.0	-56.7	12.5	1.25e-04	0	72	0
2025-01-01 10:09:51.29	5.18	13.12	-54.0	-56.8	12.7	5.54e-05	0	72	0
2025-01-01 10:09:53.19	4.93	12.92	-54.2	-57.2	12.7	2.77e-05	0	72	0
2025-01-01 10:09:55.08	4.69	12.71	-54.3	-57.3	12.7	4.16e-05	0	72	0
2025-01-01 10:09:56.98	4.45	12.51	-54.5	-57.7	12.5	5.54e-05	0	73	0
2025-01-01 10:09:58.88	4.21	12.32	-55.0	-58.2	11.9	1.60e-04	0	73	0
2025-01-01 10:10:00.78	3.98	12.12	-55.1	-58.5	11.6	4.65e-04	0	73	0
2025-01-01 10:10:02.68	3.76	11.92	-55.5	-58.8	11.4	8.81e-04	0	72	0
2025-01-01 10:10:04.58	3.53	11.73	-55.5	-58.8	11.5	7.70e-04	0	73	0
2025-01-01 10:10:06.48	3.31	11.54	-55.6	-59.0	11.4	8.74e-04	0	73	0
2025-01-01 10:10:08.38	3.09	11.35	-55.8	-59.3	11.2	1.09e-03	0	73	0
2025-01-01 10:10:10.28	2.88	11.16	-55.6	-58.9	11.5	9.02e-04	0	73	0
2025-01-01 10:10:12.18	2.67	10.97	-55.1	-58.0	12.1	2.36e-04	0	73	0
2025-01-01 10:10:14.08	2.46	10.78	-55.1	-57.9	12.1	2.01e-04	0	73	0
2025-01-01 10:10:15.97	2.26	10.60	-55.2	-58.1	12.0	2.43e-04	0	73	0
2025-01-01 10:10:17.87	2.06	10.42	-55.4	-58.6	11.8	3.88e-04	0	73	0
2025-01-01 10:10:19.77	1.86	10.23	-55.4	-58.7	11.8	3.33e-04	0	73	0
2025-01-01 10:10:21.67	1.67	10.05	-55.6	-59.0	11.6	4.72e-04	0	73	0
2025-01-01 10:10:23.56	1.48	9.88	-56.0	-59.3	11.6	5.48e-04	0	73	0
2025-01-01 10:10:25.46	1.29	9.70	-56.3	-59.5	11.4	5.13e-04	0	73	0
2025-01-01 10:10:27.36	1.10	9.52	-56.5	-59.7	11.3	9.08e-04	0	73	0
2025-01-01 10:10:29.26	0.92	9.35	-67.8	-82.7	3.7	2.26e-03	1	73	0
2025-01-01 10:10:31.16	0.74	9.18	-67.4	-73.1	3.7	2.26e-03	0	72	104
2025-01-01 10:10:33.06	0.56	9.00	-67.4	-73.2	3.7	2.26e-03	0	72	104
2025-01-01 10:10:34.96	0.39	8.83	-67.2	-73.0	3.7	2.26e-03	0	72	104
2025-01-01 10:10:36.86	0.22	8.66	-67.0	-72.6	3.6	2.26e-03	0	72	104
2025-01-01 10:10:38.75	0.05	8.50	-66.8	-72.2	3.6	2.26e-03	0	72	104
2025-01-01 10:10:40.65	359.88	8.33	-66.9	-72.2	3.6	2.26e-03	0	72	104
2025-01-01 10:10:42.54	359.72	8.16	-67.0	-72.3	3.7	2.26e-03	0	72	104
2025-01-01 10:10:44.44	359.55	8.00	-67.0	-72.5	3.7	2.26e-03	0	73	104
2025-01-01 10:10:46.34	359.39	7.84	-65.8	-70.8	3.7	2.26e-03	0	72	104

#Closed at: 2025-01-01 10:10:46
#Recorded file [28521 MB]: D:/data/31015_250101_221029.dat