passes_logs/2025/01/11/X_MFTI_02/X_MFTI_02__20250111_183235_TERRA_rec.log

#Pass ID: 20250111_183235_TERRA
#Satellite: TERRA
#Configuration: TERRA
#Start time: 2025-01-11 18:32:28

#Version: 1.5.20200625
#Station: X_MFTI_02
#Location: 37.5186 lon 55.9291 lat
#TLE: 1 25994U 99068A   23362.45014226  .00000817  00000+0  18168-3 0  9993
#TLE: 2 25994  98.0729  65.8244 0002317 146.5078 343.6211 14.59509299278111

#Time	Az	El	Level	Level2	SNR	BER	Gain	Gain2
2025-01-11 18:32:28.93	218.42	68.12	-76.3	-96.3	3.2	14918838	99	35822
2025-01-11 18:32:29.14	218.68	68.19	-76.4	-96.4	3.3	14904670	99	36017
2025-01-11 18:32:29.36	218.95	68.26	-76.3	-96.3	3.2	14904670	99	36039
2025-01-11 18:32:29.56	219.20	68.33	-76.3	-96.4	3.2	14910690	99	36165
2025-01-11 18:32:29.76	219.46	68.39	-76.3	-96.4	3.3	14910690	99	36076
2025-01-11 18:32:29.97	219.72	68.46	-76.3	-96.3	3.3	14910690	99	35932
2025-01-11 18:32:30.19	220.01	68.53	-76.4	-96.5	3.3	14906311	99	36444
2025-01-11 18:32:30.40	220.28	68.60	-76.3	-96.4	3.4	14906311	99	36429
2025-01-11 18:32:30.62	220.56	68.67	-76.3	-96.3	3.3	14847229	99	35875
2025-01-11 18:32:30.84	220.85	68.74	-76.3	-96.3	3.3	14847229	99	35930
2025-01-11 18:32:31.04	221.12	68.80	-76.3	-96.3	3.2	14892463	99	35917
2025-01-11 18:32:31.25	221.40	68.87	-76.3	-96.3	3.3	14892463	99	35958
2025-01-11 18:32:31.47	221.69	68.94	-76.3	-96.3	3.2	14892463	99	35956
2025-01-11 18:32:31.68	221.97	69.00	-76.3	-96.3	3.5	14908706	99	35952
2025-01-11 18:32:31.89	222.26	69.07	-76.3	-96.3	3.2	14908706	99	35975
2025-01-11 18:32:32.10	222.55	69.13	-76.3	-96.3	3.4	14877983	99	36100
2025-01-11 18:32:32.30	222.82	69.19	-76.3	-96.2	3.3	14877983	99	35564
2025-01-11 18:32:32.50	223.10	69.25	-76.4	-96.3	3.3	14892303	99	35631
2025-01-11 18:32:32.70	223.38	69.31	-76.3	-96.2	3.2	14892303	99	35605
2025-01-11 18:32:32.92	223.68	69.38	-76.3	-96.4	3.3	14892303	99	36068
2025-01-11 18:32:33.12	223.97	69.44	-76.4	-96.3	3.1	14915336	99	35711
2025-01-11 18:32:33.34	224.28	69.50	-76.4	-96.4	3.3	14915336	99	36080
2025-01-11 18:32:33.55	224.58	69.56	-76.3	-96.4	3.2	14909194	99	36201
2025-01-11 18:32:33.76	224.88	69.62	-76.3	-96.4	3.3	14909194	99	36282
2025-01-11 18:32:33.97	225.18	69.68	-76.4	-96.4	3.3	14909194	99	36073
2025-01-11 18:32:34.19	225.50	69.75	-76.4	-96.4	3.2	14902389	99	36086
2025-01-11 18:32:34.40	225.81	69.80	-76.4	-96.4	3.3	14902389	99	35977
2025-01-11 18:32:34.60	226.11	69.86	-76.3	-96.3	3.3	14912567	99	35964
2025-01-11 18:32:34.80	226.40	69.92	-76.3	-96.4	3.3	14912567	99	36280
2025-01-11 18:32:35.01	226.72	69.97	-76.3	-96.5	3.3	14861030	99	36472
2025-01-11 18:32:35.21	227.02	70.03	-76.3	-96.4	3.3	14861030	99	36496
2025-01-11 18:32:35.41	227.32	70.08	-76.3	-96.3	3.3	14861030	99	35969
2025-01-11 18:32:35.62	227.64	70.14	-76.3	-96.3	3.2	14860687	99	35907
2025-01-11 18:32:35.84	227.97	70.20	-76.4	-96.3	3.3	14860687	99	35617
2025-01-11 18:32:36.04	228.28	70.25	-76.2	-96.2	3.2	14902862	99	35695
2025-01-11 18:32:36.24	228.59	70.30	-76.3	-96.5	3.5	14902862	99	36655
2025-01-11 18:32:36.44	228.90	70.35	-76.4	-96.5	3.5	14888671	99	36714
2025-01-11 18:32:36.66	229.25	70.41	-76.3	-96.5	3.6	14888671	99	36728
2025-01-11 18:32:36.88	229.59	70.46	-76.2	-96.2	3.3	14888671	99	35734
2025-01-11 18:32:37.08	229.91	70.51	-76.3	-96.3	3.2	14893257	99	35750
2025-01-11 18:32:37.28	230.23	70.56	-76.3	-96.2	3.3	14893257	99	35574
2025-01-11 18:32:37.48	230.55	70.61	-76.4	-96.3	3.2	14910263	99	35764
2025-01-11 18:32:37.69	230.88	70.66	-76.4	-96.4	3.3	14910263	99	36175
2025-01-11 18:32:37.90	231.22	70.71	-76.4	-96.5	3.3	14910263	99	36586
2025-01-11 18:32:38.10	231.55	70.76	-76.4	-96.6	3.2	14913917	99	36989
2025-01-11 18:32:38.30	231.88	70.81	-76.4	-96.6	3.2	14913917	99	37099
2025-01-11 18:32:38.51	232.22	70.85	-76.4	-97.1	3.1	14910453	99	38915
2025-01-11 18:32:38.73	232.58	70.90	-76.3	-96.4	3.2	14910453	99	36223
2025-01-11 18:32:38.94	232.93	70.95	-76.3	-96.4	3.2	14908943	99	36329
2025-01-11 18:32:39.16	233.30	71.00	-76.4	-96.5	3.3	14908943	99	36587
2025-01-11 18:32:39.36	233.64	71.04	-76.2	-96.4	3.3	14908943	99	36557
2025-01-11 18:32:39.57	233.99	71.09	-76.3	-96.5	3.3	14892440	99	36558
2025-01-11 18:32:39.79	234.36	71.13	-76.3	-96.5	3.3	14892440	99	36498
2025-01-11 18:32:39.99	234.70	71.17	-76.4	-96.4	3.3	14877250	99	36356
2025-01-11 18:32:40.21	235.08	71.22	-76.4	-97.4	3.1	14877250	99	40533
2025-01-11 18:32:40.41	235.42	71.26	-76.4	-96.4	3.3	14877250	99	36182
2025-01-11 18:32:40.61	235.77	71.30	-76.3	-96.4	3.3	14901748	99	36222
2025-01-11 18:32:40.82	236.13	71.34	-76.2	-96.2	3.3	14901748	99	36178
2025-01-11 18:32:41.02	236.48	71.38	-76.4	-96.4	3.3	14891128	99	36355
2025-01-11 18:32:41.23	236.85	71.42	-76.3	-96.2	3.3	14891128	99	35914
2025-01-11 18:32:41.43	237.20	71.45	-76.2	-96.3	3.2	14843605	99	36166
2025-01-11 18:32:41.64	237.57	71.49	-76.3	-96.3	3.3	14843605	99	36028
2025-01-11 18:32:41.86	237.96	71.53	-76.4	-96.6	3.2	14843605	99	36733
2025-01-11 18:32:42.06	238.32	71.57	-76.4	-96.4	3.2	14902999	99	36052
2025-01-11 18:32:42.26	238.68	71.60	-76.4	-96.4	3.3	14902999	99	36374
2025-01-11 18:32:42.46	239.04	71.63	-76.4	-96.5	3.3	14906875	99	36507
2025-01-11 18:32:42.66	239.40	71.67	-76.3	-96.4	3.3	14906875	99	36361
2025-01-11 18:32:42.86	239.76	71.70	-76.4	-96.5	3.3	14906875	99	36461
2025-01-11 18:32:43.08	240.16	71.73	-76.4	-96.5	3.2	14868186	99	36404
2025-01-11 18:32:43.29	240.54	71.77	-76.4	-96.4	3.3	14868186	99	36210
2025-01-11 18:32:43.49	240.91	71.80	-76.3	-96.5	3.2	14895225	99	36572
2025-01-11 18:32:43.70	241.29	71.83	-76.4	-96.6	3.2	14895225	99	36734
2025-01-11 18:32:43.90	241.66	71.86	-76.4	-96.5	3.3	14895225	99	36379
2025-01-11 18:32:44.12	242.07	71.89	-76.4	-96.5	3.3	14907913	99	36597
2025-01-11 18:32:44.32	242.44	71.91	-76.4	-96.5	3.3	14907913	99	36636
2025-01-11 18:32:44.53	242.83	71.94	-76.4	-96.4	3.3	14820251	99	36172
2025-01-11 18:32:44.73	243.20	71.97	-76.3	-96.4	3.3	14820251	99	36152
2025-01-11 18:32:44.95	243.62	72.00	-76.3	-96.3	3.3	14893493	99	35740
2025-01-11 18:32:45.17	244.03	72.02	-76.4	-96.4	3.2	14893493	99	36108
2025-01-11 18:32:45.37	244.41	72.05	-76.3	-96.4	3.3	14893493	99	36218
2025-01-11 18:32:45.57	244.78	72.07	-76.4	-96.5	3.4	14901824	99	36755
2025-01-11 18:32:45.78	245.18	72.09	-76.4	-96.5	3.3	14901824	99	36655
2025-01-11 18:32:45.99	245.58	72.11	-76.4	-96.5	3.3	14834373	99	36660
2025-01-11 18:32:46.20	245.98	72.14	-76.4	-96.4	3.3	14834373	99	36287
2025-01-11 18:32:46.41	246.38	72.16	-76.3	-96.2	3.3	14834373	99	35872
2025-01-11 18:32:46.61	246.76	72.17	-76.3	-96.5	3.3	14882209	99	36604
2025-01-11 18:32:46.81	247.15	72.19	-76.3	-96.5	3.3	14882209	99	36565
2025-01-11 18:32:47.01	247.53	72.21	-76.3	-96.5	3.3	14906692	99	36784
2025-01-11 18:32:47.21	247.92	72.23	-76.4	-96.6	3.3	14906692	99	37074
2025-01-11 18:32:47.42	248.32	72.24	-76.3	-96.6	3.4	14906692	99	37090
2025-01-11 18:32:47.62	248.71	72.26	-76.4	-96.6	3.3	14867263	99	37079
2025-01-11 18:32:47.82	249.10	72.27	-76.3	-96.5	3.2	14867263	99	36749
2025-01-11 18:32:48.02	249.48	72.29	-76.3	-96.4	3.2	14889427	99	36495
2025-01-11 18:32:48.23	249.89	72.30	-76.3	-96.4	3.2	14889427	99	36204
2025-01-11 18:32:48.44	250.30	72.31	-76.2	-96.2	3.3	14916313	99	36010
2025-01-11 18:32:48.64	250.69	72.32	-76.3	-96.6	3.7	14916313	99	37018
2025-01-11 18:32:48.84	251.08	72.33	-76.3	-96.4	3.3	14916313	99	36384
2025-01-11 18:32:49.04	251.47	72.34	-76.3	-96.4	3.3	14879806	99	36426
2025-01-11 18:32:49.24	251.86	72.35	-76.3	-96.4	3.3	14879806	99	36413
2025-01-11 18:32:49.46	252.29	72.36	-76.3	-96.5	3.2	14890022	99	36632
2025-01-11 18:32:49.67	252.71	72.37	-76.4	-96.5	3.2	14890022	99	36777
2025-01-11 18:32:49.89	253.14	72.38	-76.4	-96.5	3.2	14890022	99	36624
2025-01-11 18:32:50.10	253.55	72.38	-76.3	-96.4	3.3	14899238	99	36455
2025-01-11 18:32:50.32	253.98	72.39	-76.5	-97.7	3.1	14899238	99	41067
2025-01-11 18:32:50.52	254.37	72.39	-76.4	-96.5	3.3	14884162	99	36484
2025-01-11 18:32:50.74	254.81	72.39	-76.3	-96.4	3.3	14884162	99	36371
2025-01-11 18:32:50.95	255.22	72.40	-76.3	-96.4	3.3	14887084	99	36389
2025-01-11 18:32:51.17	255.65	72.40	-76.3	-96.5	3.2	14887084	99	36658
2025-01-11 18:32:51.37	256.05	72.40	-76.3	-96.5	3.3	14887084	99	36635
2025-01-11 18:32:51.57	256.44	72.40	-76.3	-96.4	3.3	14905998	99	36362
2025-01-11 18:32:51.79	256.87	72.40	-76.3	-96.4	3.3	14905998	99	36310
2025-01-11 18:32:51.99	257.27	72.40	-76.5	-97.7	3.4	14895072	99	41100
2025-01-11 18:32:52.19	257.66	72.39	-76.3	-96.4	3.3	14895072	99	36356
2025-01-11 18:32:52.41	258.09	72.39	-76.3	-96.4	3.3	14895072	99	36446
2025-01-11 18:32:52.61	258.48	72.38	-76.2	-96.3	3.3	14887275	99	36214
2025-01-11 18:32:52.82	258.90	72.38	-76.4	-96.5	3.3	14887275	99	36713
2025-01-11 18:32:53.02	259.29	72.37	-76.4	-96.5	3.3	14901130	99	36513
2025-01-11 18:32:53.24	259.72	72.37	-76.2	-96.2	3.3	14901130	99	36025
2025-01-11 18:32:53.44	260.11	72.36	-76.4	-96.5	3.4	14897895	99	36469
2025-01-11 18:32:53.64	260.50	72.35	-76.5	-97.2	3.2	14897895	99	39203
2025-01-11 18:32:53.86	260.93	72.34	-76.4	-96.4	3.3	14897895	99	36196
2025-01-11 18:32:54.06	261.32	72.33	-76.3	-96.4	3.3	14871345	99	36261
2025-01-11 18:32:54.26	261.71	72.32	-76.4	-96.4	3.3	14871345	99	36275
2025-01-11 18:32:54.47	262.12	72.31	-76.4	-96.4	3.3	14902404	99	35998
2025-01-11 18:32:54.67	262.51	72.30	-76.4	-96.3	3.3	14902404	99	35809
2025-01-11 18:32:54.89	262.94	72.28	-76.4	-96.5	3.4	14902404	99	36437
2025-01-11 18:32:55.09	263.33	72.27	-76.4	-96.6	3.5	14882354	99	36581
2025-01-11 18:32:55.30	263.73	72.25	-76.4	-96.5	3.5	14882354	99	36570
2025-01-11 18:32:55.50	264.12	72.24	-76.4	-96.5	3.3	14878379	99	36554
2025-01-11 18:32:55.70	264.50	72.22	-76.2	-96.2	3.3	14878379	99	36239
2025-01-11 18:32:55.92	264.93	72.20	-76.4	-96.5	3.2	14878379	99	36565
2025-01-11 18:32:56.12	265.31	72.18	-76.4	-96.4	3.2	14906959	99	36232
2025-01-11 18:32:56.32	265.69	72.16	-76.4	-96.4	3.3	14906959	99	35976
2025-01-11 18:32:56.52	266.08	72.15	-76.4	-96.4	3.2	14899726	99	35923
2025-01-11 18:32:56.73	266.48	72.12	-76.4	-96.3	3.2	14899726	99	35884
2025-01-11 18:32:56.93	266.86	72.10	-76.4	-96.4	3.2	14923530	99	36152
2025-01-11 18:32:57.14	267.25	72.08	-76.4	-96.4	3.3	14923530	99	36007
2025-01-11 18:32:57.35	267.65	72.06	-76.4	-96.4	3.3	14923530	99	35972
2025-01-11 18:32:57.55	268.03	72.03	-76.4	-96.4	3.3	14904953	99	36214
2025-01-11 18:32:57.76	268.42	72.01	-76.2	-96.1	3.3	14904953	99	35580
2025-01-11 18:32:57.96	268.80	71.98	-76.4	-96.5	3.3	14905830	99	36380
2025-01-11 18:32:58.16	269.17	71.96	-76.4	-96.5	3.3	14905830	99	36470
2025-01-11 18:32:58.37	269.56	71.93	-76.4	-96.5	3.4	14905830	99	36454
2025-01-11 18:32:58.57	269.94	71.91	-76.4	-96.4	3.3	14822830	99	36128
2025-01-11 18:32:58.77	270.31	71.88	-76.3	-96.4	3.7	14822830	99	36450
2025-01-11 18:32:58.99	270.71	71.85	-76.4	-96.4	3.3	14901954	99	36086
2025-01-11 18:32:59.20	271.10	71.82	-76.4	-96.4	3.3	14901954	99	35973
2025-01-11 18:32:59.40	271.47	71.79	-76.4	-96.4	3.2	14901954	99	36089
2025-01-11 18:32:59.61	271.85	71.76	-76.4	-96.5	3.4	14908157	99	36564
2025-01-11 18:32:59.81	272.21	71.72	-76.4	-96.5	3.3	14908157	99	36545
2025-01-11 18:33:00.01	272.58	71.69	-76.4	-96.5	3.3	14845314	99	36589
2025-01-11 18:33:00.21	272.94	71.66	-76.4	-96.4	3.3	14845314	99	36170
2025-01-11 18:33:00.43	273.33	71.62	-76.4	-96.4	3.3	14882690	99	36287
2025-01-11 18:33:00.63	273.69	71.59	-76.4	-96.3	3.2	14882690	99	35868
2025-01-11 18:33:00.84	274.07	71.55	-76.3	-96.2	3.3	14882690	99	35868
2025-01-11 18:33:01.06	274.46	71.52	-76.4	-96.5	3.3	14899711	99	36721
2025-01-11 18:33:01.26	274.81	71.48	-76.4	-96.5	3.5	14899711	99	36651
2025-01-11 18:33:01.46	275.16	71.44	-76.4	-96.5	3.3	14879325	99	36699
2025-01-11 18:33:01.66	275.51	71.41	-76.4	-96.5	3.2	14879325	99	36457
2025-01-11 18:33:01.86	275.86	71.37	-76.4	-96.5	3.3	14879325	99	36491
2025-01-11 18:33:02.06	276.21	71.33	-76.4	-96.7	3.2	14891769	99	36980
2025-01-11 18:33:02.28	276.59	71.29	-76.4	-96.4	3.2	14891769	99	35975
2025-01-11 18:33:02.48	276.94	71.25	-76.4	-96.3	3.3	14907241	99	35958
2025-01-11 18:33:02.68	277.28	71.21	-76.4	-96.4	3.6	14907241	99	36288
2025-01-11 18:33:02.90	277.66	71.16	-76.4	-96.5	3.4	14907241	99	36394
2025-01-11 18:33:03.11	278.01	71.12	-76.3	-96.3	3.5	14874748	99	36045
2025-01-11 18:33:03.32	278.37	71.07	-76.4	-96.3	3.3	14874748	99	35946
2025-01-11 18:33:03.53	278.72	71.03	-76.3	-96.2	3.3	14884719	99	35678
2025-01-11 18:33:03.73	279.06	70.98	-76.5	-97.2	3.1	14884719	99	38913
2025-01-11 18:33:03.93	279.39	70.94	-76.3	-96.2	3.3	14909103	99	35840
2025-01-11 18:33:04.15	279.75	70.89	-76.3	-96.3	3.3	14909103	99	35922
2025-01-11 18:33:04.35	280.08	70.85	-76.4	-96.4	3.3	14909103	99	36004
2025-01-11 18:33:04.57	280.44	70.80	-76.3	-96.3	3.3	14895606	99	36025
2025-01-11 18:33:04.77	280.77	70.75	-76.3	-96.4	3.3	14895606	99	36173
2025-01-11 18:33:04.98	281.11	70.70	-76.3	-96.3	3.3	14894340	99	35827
2025-01-11 18:33:05.18	281.43	70.65	-76.3	-96.3	3.3	14894340	99	35960
2025-01-11 18:33:05.38	281.75	70.60	-76.3	-96.4	3.3	14894340	99	36132
2025-01-11 18:33:05.59	282.09	70.55	-76.4	-96.5	3.2	14908920	99	36419
2025-01-11 18:33:05.79	282.41	70.50	-76.4	-96.4	3.3	14908920	99	36341
2025-01-11 18:33:06.00	282.74	70.45	-76.3	-96.4	3.2	14865989	99	36410
2025-01-11 18:33:06.20	283.05	70.40	-76.3	-96.4	3.3	14865989	99	36136
2025-01-11 18:33:06.41	283.38	70.35	-76.4	-96.4	3.3	14865989	99	36015
2025-01-11 18:33:06.62	283.71	70.29	-76.3	-96.4	3.3	14864158	99	36079
2025-01-11 18:33:06.84	284.05	70.24	-76.3	-96.4	3.3	14864158	99	36139
2025-01-11 18:33:07.04	284.35	70.18	-76.2	-96.2	3.2	14905265	99	35746

#Closed at: 2025-01-11 18:33:07