passes_logs/2025/01/11/X_MFTI_02/X_MFTI_02__20250111_004251_AQUA_rec.log

#Pass ID: 20250111_004251_AQUA
#Satellite: AQUA
#Configuration: AQUA
#Start time: 2025-01-11 00:42:47

#Version: 1.5.20200625
#Station: X_MFTI_02
#Location: 37.5186 lon 55.9291 lat
#TLE: 1 27424U 02022A   23362.45420161  .00001617  00000+0  35675-3 0  9997
#TLE: 2 27424  98.3111 306.4798 0000768  48.9916  62.2296 14.58703046151674

#Time	Az	El	Level	Level2	SNR	BER	Gain	Gain2
2025-01-11 00:42:47.43	13.30	68.15	-75.6	-99.6	3.7	7466735	99	56845
2025-01-11 00:42:47.86	13.25	68.38	-75.7	-99.7	3.9	7466430	99	57186
2025-01-11 00:42:48.26	13.21	68.60	-75.6	-99.6	3.9	7461395	99	57037
2025-01-11 00:42:48.69	13.17	68.83	-75.7	-99.7	3.8	7438812	99	57096
2025-01-11 00:42:49.10	13.12	69.06	-75.7	-99.9	3.8	7478332	99	58462
2025-01-11 00:42:49.50	13.08	69.28	-75.5	-99.6	3.9	7433776	99	58017
2025-01-11 00:42:49.90	13.03	69.50	-75.7	-99.8	3.8	7414398	99	57914
2025-01-11 00:42:50.32	12.98	69.73	-75.7	-98.9	3.9	7483825	99	51961
2025-01-11 00:42:50.74	12.93	69.96	-75.7	-99.6	3.8	7526855	99	56349
2025-01-11 00:42:51.15	12.88	70.19	-75.7	-100.0	3.9	7465057	99	58858
2025-01-11 00:42:51.57	12.83	70.42	-75.7	-99.7	3.9	7436523	99	57280
2025-01-11 00:42:51.97	12.78	70.65	-75.7	-98.9	3.9	7459869	99	52051
2025-01-11 00:42:52.37	12.72	70.87	-75.7	-99.6	3.8	7513275	99	56292
2025-01-11 00:42:52.79	12.67	71.11	-75.7	-99.7	3.7	7464447	99	57014
2025-01-11 00:42:53.21	12.61	71.34	-75.7	-99.6	3.9	7436676	99	56373
2025-01-11 00:42:53.62	12.55	71.57	-75.7	-99.9	3.8	7466583	99	58585
2025-01-11 00:42:54.04	12.49	71.81	-75.7	-99.7	3.9	7453155	99	57325
2025-01-11 00:42:54.46	12.42	72.05	-75.7	-99.5	3.8	7504577	99	56242
2025-01-11 00:42:54.87	12.36	72.28	-75.7	-99.7	3.9	7467193	99	57156
2025-01-11 00:42:55.27	12.30	72.51	-75.7	-99.7	3.8	7476196	99	57151
2025-01-11 00:42:55.68	12.23	72.74	-75.7	-99.7	3.9	7431488	99	57131
2025-01-11 00:42:56.09	12.16	72.97	-75.5	-99.2	4.1	7477416	99	55233
2025-01-11 00:42:56.49	12.09	73.20	-75.7	-99.7	3.8	7439117	99	57072
2025-01-11 00:42:56.90	12.01	73.44	-75.7	-99.0	3.8	7474670	99	53041
2025-01-11 00:42:57.31	11.94	73.67	-75.5	-99.4	3.9	7479705	99	56901
2025-01-11 00:42:57.73	11.86	73.91	-75.9	-99.3	3.8	7382202	99	53405
2025-01-11 00:42:58.15	11.77	74.15	-75.7	-99.8	3.9	7469177	99	58124
2025-01-11 00:42:58.55	11.69	74.38	-75.7	-99.9	3.8	7486267	99	58536
2025-01-11 00:42:58.98	11.60	74.63	-75.7	-99.8	3.9	7442626	99	57705
2025-01-11 00:42:59.40	11.51	74.87	-75.8	-98.7	3.8	7367401	99	50182
2025-01-11 00:42:59.81	11.42	75.11	-75.7	-98.9	3.8	7457580	99	51841
2025-01-11 00:43:00.22	11.32	75.35	-75.7	-98.8	3.8	7479858	99	51768
2025-01-11 00:43:00.62	11.22	75.58	-75.7	-99.5	3.9	7426605	99	56062
2025-01-11 00:43:01.02	11.12	75.82	-75.7	-99.6	3.8	7426300	99	56247
2025-01-11 00:43:01.44	11.02	76.06	-75.6	-98.9	3.9	7442321	99	52517
2025-01-11 00:43:01.85	10.91	76.30	-75.7	-99.2	3.8	7470855	99	54046
2025-01-11 00:43:02.26	10.79	76.54	-75.7	-99.8	3.9	7458038	99	58316
2025-01-11 00:43:02.66	10.68	76.77	-75.7	-99.9	3.9	7466583	99	58709
2025-01-11 00:43:03.08	10.55	77.02	-75.6	-99.3	3.9	7394866	99	54688
2025-01-11 00:43:03.49	10.42	77.26	-75.6	-99.4	3.8	7453155	99	55254
2025-01-11 00:43:03.90	10.29	77.50	-75.6	-99.5	3.9	7452087	99	56169
2025-01-11 00:43:04.30	10.15	77.74	-75.7	-99.5	3.9	7442474	99	55835
2025-01-11 00:43:04.73	10.00	77.99	-75.7	-98.7	3.9	7440490	99	50891
2025-01-11 00:43:05.15	9.85	78.24	-75.7	-99.3	3.8	7503204	99	54641
2025-01-11 00:43:05.58	9.68	78.50	-75.6	-99.7	3.9	7470397	99	57474
2025-01-11 00:43:05.98	9.52	78.73	-75.7	-99.7	3.9	7444000	99	56962
2025-01-11 00:43:06.38	9.35	78.97	-75.7	-99.7	3.8	7476501	99	57028
2025-01-11 00:43:06.78	9.18	79.21	-75.7	-99.8	3.8	7481842	99	57744
2025-01-11 00:43:07.21	8.98	79.46	-75.7	-99.8	3.9	7426147	99	57681
2025-01-11 00:43:07.62	8.78	79.71	-74.6	-98.6	3.8	7463226	99	57338
2025-01-11 00:43:08.02	8.58	79.94	-75.6	-98.8	3.8	7448120	99	51736
2025-01-11 00:43:08.44	8.36	80.19	-75.7	-99.7	3.8	7458038	99	56937
2025-01-11 00:43:08.84	8.13	80.43	-75.7	-99.7	3.9	7476501	99	57054
2025-01-11 00:43:09.25	7.89	80.68	-75.7	-99.7	3.9	7436218	99	57342
2025-01-11 00:43:09.67	7.63	80.93	-75.7	-99.1	3.8	7474822	99	53212
2025-01-11 00:43:10.07	7.37	81.17	-75.7	-99.8	3.8	7475433	99	57917
2025-01-11 00:43:10.49	7.07	81.42	-75.5	-99.5	3.8	7440948	99	57110
2025-01-11 00:43:10.91	6.76	81.67	-75.7	-99.8	3.9	7433776	99	57707
2025-01-11 00:43:11.31	6.45	81.91	-75.7	-99.9	3.7	7497863	99	58465
2025-01-11 00:43:11.71	6.12	82.14	-75.5	-99.5	3.9	7441406	99	57154
2025-01-11 00:43:12.13	5.74	82.40	-75.6	-99.5	3.9	7462615	99	56173
2025-01-11 00:43:12.53	5.36	82.63	-75.6	-99.7	3.8	7460479	99	57481
2025-01-11 00:43:12.95	4.94	82.88	-75.6	-98.6	3.6	7479553	99	50688
2025-01-11 00:43:13.35	4.50	83.12	-75.7	-99.8	3.9	7444305	99	57911
2025-01-11 00:43:13.77	4.01	83.37	-75.7	-99.8	3.9	7484130	99	58174
2025-01-11 00:43:14.18	3.50	83.62	-75.7	-99.2	4.0	7435150	99	54341
2025-01-11 00:43:14.59	2.94	83.86	-75.7	-99.1	4.0	7559204	99	53196
2025-01-11 00:43:15.02	2.31	84.12	-75.6	-99.5	3.9	7477722	99	56388
2025-01-11 00:43:15.43	1.65	84.36	-75.7	-99.7	3.9	7462768	99	57195
2025-01-11 00:43:15.85	0.91	84.61	-75.7	-99.8	3.8	7460174	99	58037
2025-01-11 00:43:16.27	0.10	84.85	-75.7	-99.2	3.9	7477416	99	53763
2025-01-11 00:43:16.69	359.21	85.10	-75.7	-99.8	3.9	7428283	99	57595
2025-01-11 00:43:17.09	358.28	85.33	-75.5	-99.4	3.8	7386779	99	56765
2025-01-11 00:43:17.52	357.16	85.58	-75.6	-100.2	3.8	7460784	99	61139
2025-01-11 00:43:17.94	355.95	85.82	-75.7	-99.6	4.2	7479553	99	56408
2025-01-11 00:43:18.34	354.65	86.05	-75.6	-99.7	3.9	7490692	99	57829
2025-01-11 00:43:18.74	353.19	86.28	-75.7	-99.8	3.9	7474365	99	57816
2025-01-11 00:43:19.16	351.46	86.51	-75.7	-99.2	3.8	7432708	99	54076
2025-01-11 00:43:19.59	349.42	86.75	-75.7	-98.8	3.8	7387542	99	51217
2025-01-11 00:43:20.00	347.19	86.97	-75.7	-99.8	3.9	7440338	99	57702
2025-01-11 00:43:20.42	344.54	87.19	-75.7	-99.7	3.8	7463378	99	57390
2025-01-11 00:43:20.82	341.60	87.40	-75.7	-99.2	3.9	7446899	99	53852
2025-01-11 00:43:21.22	338.17	87.59	-75.7	-99.7	3.8	7439727	99	56752
2025-01-11 00:43:21.64	333.93	87.79	-75.6	-99.7	3.9	7455444	99	57614
2025-01-11 00:43:22.06	328.91	87.97	-75.7	-99.9	3.9	7467498	99	57938
2025-01-11 00:43:22.46	323.26	88.12	-75.6	-100.0	3.8	7456665	99	59774
2025-01-11 00:43:22.86	316.67	88.26	-75.6	-99.7	3.9	7421112	99	57571
2025-01-11 00:43:23.28	308.70	88.37	-75.6	-99.5	3.9	7477722	99	56881
2025-01-11 00:43:23.68	300.20	88.44	-75.7	-99.7	3.9	7449798	99	57397
2025-01-11 00:43:24.10	290.62	88.48	-75.7	-99.4	3.8	7469329	99	54911
2025-01-11 00:43:24.51	281.07	88.47	-75.7	-99.7	3.9	7442779	99	57172
2025-01-11 00:43:24.93	271.64	88.42	-75.5	-99.4	3.9	7444305	99	56745
2025-01-11 00:43:25.33	263.39	88.34	-75.7	-99.7	3.8	7452545	99	57113
2025-01-11 00:43:25.75	255.72	88.22	-75.7	-99.0	3.8	7475128	99	53061
2025-01-11 00:43:26.17	249.13	88.07	-75.7	-99.9	3.8	7475433	99	58359
2025-01-11 00:43:26.60	243.43	87.90	-75.7	-99.7	3.8	7430572	99	57483
2025-01-11 00:43:27.01	238.84	87.71	-75.4	-99.1	4.0	7464294	99	55352
2025-01-11 00:43:27.43	234.86	87.51	-75.6	-99.3	3.8	7488861	99	54918
2025-01-11 00:43:27.85	231.49	87.30	-75.7	-99.9	3.9	7476348	99	58285
2025-01-11 00:43:28.26	228.69	87.09	-75.6	-99.8	3.9	7501068	99	58381
2025-01-11 00:43:28.67	226.26	86.87	-75.7	-99.4	3.9	7464294	99	55076
2025-01-11 00:43:29.07	224.21	86.66	-75.7	-99.4	3.8	7440643	99	55225
2025-01-11 00:43:29.49	222.33	86.42	-75.7	-99.7	3.9	7499237	99	57455
2025-01-11 00:43:29.90	220.72	86.19	-75.7	-99.7	3.8	7425842	99	57215
2025-01-11 00:43:30.32	219.25	85.95	-75.6	-98.9	3.9	7461242	99	52693
2025-01-11 00:43:30.72	218.02	85.72	-75.7	-99.0	3.8	7473907	99	52515
2025-01-11 00:43:31.12	216.90	85.49	-75.7	-99.9	3.9	7488861	99	58224
2025-01-11 00:43:31.53	215.88	85.25	-75.6	-99.6	3.7	7425231	99	56994
2025-01-11 00:43:31.93	214.97	85.02	-75.7	-99.1	3.9	7402801	99	53043
2025-01-11 00:43:32.33	214.15	84.79	-75.7	-99.1	3.8	7448883	99	53194
2025-01-11 00:43:32.75	213.36	84.54	-75.7	-100.0	3.9	7451629	99	58824
2025-01-11 00:43:33.18	212.63	84.28	-75.7	-99.9	3.7	7480926	99	58197
2025-01-11 00:43:33.58	212.00	84.05	-75.7	-99.6	3.9	7486267	99	56575
2025-01-11 00:43:34.01	211.38	83.79	-75.6	-99.9	3.8	7476348	99	59452
2025-01-11 00:43:34.43	210.82	83.54	-75.7	-100.1	3.9	7458801	99	59692
2025-01-11 00:43:34.85	210.30	83.29	-75.7	-100.0	3.7	7468872	99	59411
2025-01-11 00:43:35.28	209.81	83.04	-75.7	-99.1	3.9	7470245	99	52796
2025-01-11 00:43:35.68	209.39	82.80	-75.7	-100.0	3.8	7458343	99	58970
2025-01-11 00:43:36.10	208.97	82.55	-75.7	-100.0	3.9	7457122	99	58938
2025-01-11 00:43:36.51	208.59	82.30	-75.6	-99.8	3.7	7495727	99	58123
2025-01-11 00:43:36.91	208.25	82.06	-75.6	-99.5	3.8	7441406	99	55860
2025-01-11 00:43:37.33	207.90	81.81	-75.7	-100.1	3.9	7487487	99	59792
2025-01-11 00:43:37.73	207.60	81.57	-75.7	-100.0	4.0	7456665	99	59467
2025-01-11 00:43:38.15	207.29	81.32	-75.7	-99.7	4.1	7570648	99	57166
2025-01-11 00:43:38.57	207.01	81.07	-75.7	-100.0	3.8	7455139	99	59102
2025-01-11 00:43:38.97	206.75	80.83	-75.7	-99.8	3.9	7441253	99	57951
2025-01-11 00:43:39.39	206.49	80.58	-75.7	-99.9	3.8	7428283	99	58661
2025-01-11 00:43:39.79	206.26	80.34	-75.8	-98.1	4.0	7402343	99	47277
2025-01-11 00:43:40.21	206.03	80.09	-75.7	-98.8	3.8	7493133	99	51825
2025-01-11 00:43:40.62	205.82	79.85	-75.7	-100.0	3.9	7487335	99	59049
2025-01-11 00:43:41.04	205.61	79.60	-75.7	-100.2	3.9	7425231	99	60009
2025-01-11 00:43:41.46	205.41	79.35	-75.9	-98.9	3.9	7333831	99	50644
2025-01-11 00:43:41.87	205.22	79.10	-75.7	-99.5	3.8	7489471	99	55825
2025-01-11 00:43:42.30	205.04	78.85	-75.7	-100.0	3.9	7454681	99	59414
2025-01-11 00:43:42.72	204.87	78.60	-75.6	-99.9	3.9	7414398	99	59016
2025-01-11 00:43:43.12	204.71	78.36	-75.7	-99.8	3.8	7485961	99	57773
2025-01-11 00:43:43.55	204.55	78.11	-75.7	-99.9	3.8	7460784	99	58364
2025-01-11 00:43:43.97	204.40	77.86	-75.5	-99.7	3.9	7474975	99	58323
2025-01-11 00:43:44.39	204.25	77.61	-74.9	-99.0	3.8	7406463	99	57374
2025-01-11 00:43:44.80	204.11	77.37	-75.8	-98.7	3.9	7429046	99	50035
2025-01-11 00:43:45.22	203.98	77.12	-75.6	-99.8	3.6	7487487	99	58259
2025-01-11 00:43:45.64	203.85	76.88	-75.7	-100.0	3.9	7411804	99	59090
2025-01-11 00:43:46.04	203.73	76.64	-75.5	-99.9	3.9	7454071	99	59099
2025-01-11 00:43:46.44	203.62	76.41	-75.7	-99.5	3.8	7467193	99	55573
2025-01-11 00:43:46.86	203.51	76.16	-75.6	-99.9	3.8	7461395	99	58741
2025-01-11 00:43:47.26	203.40	75.93	-75.5	-99.8	3.9	7481842	99	58661
2025-01-11 00:43:47.66	203.30	75.69	-75.7	-100.0	3.9	7471618	99	59023
2025-01-11 00:43:48.07	203.20	75.45	-75.7	-100.0	3.9	7475585	99	59106
2025-01-11 00:43:48.47	203.10	75.22	-75.6	-99.9	3.8	7448272	99	59244
2025-01-11 00:43:48.89	203.01	74.98	-75.7	-99.9	3.8	7443847	99	58820
2025-01-11 00:43:49.30	202.92	74.74	-75.6	-99.9	3.8	7436523	99	58721
2025-01-11 00:43:49.70	202.83	74.51	-75.5	-99.5	3.8	7468566	99	56749
2025-01-11 00:43:50.14	202.74	74.25	-75.7	-99.9	3.9	7441253	99	58779
2025-01-11 00:43:50.55	202.66	74.02	-75.6	-99.9	3.9	7430114	99	59086
2025-01-11 00:43:50.97	202.57	73.78	-75.5	-99.6	3.9	7439727	99	57085
2025-01-11 00:43:51.39	202.49	73.53	-75.7	-99.6	3.8	7472534	99	56260
2025-01-11 00:43:51.80	202.42	73.30	-75.7	-100.1	3.8	7436218	99	59696
2025-01-11 00:43:52.20	202.35	73.07	-75.7	-100.1	3.8	7399902	99	59284
2025-01-11 00:43:52.62	202.28	72.83	-75.7	-99.7	3.9	7441406	99	57199
2025-01-11 00:43:53.04	202.20	72.59	-75.7	-99.4	3.8	7457427	99	55137
2025-01-11 00:43:53.47	202.13	72.35	-75.7	-99.7	3.9	7460174	99	57077
2025-01-11 00:43:53.87	202.07	72.12	-75.7	-99.7	3.9	7469635	99	56781
2025-01-11 00:43:54.29	202.01	71.88	-75.7	-100.1	3.8	7449035	99	59570
2025-01-11 00:43:54.69	201.95	71.65	-75.7	-100.1	3.8	7463684	99	59687
2025-01-11 00:43:55.10	201.89	71.42	-75.7	-99.7	3.8	7423095	99	56886
2025-01-11 00:43:55.51	201.83	71.19	-75.7	-99.6	3.8	7433319	99	56394
2025-01-11 00:43:55.95	201.77	70.95	-75.8	-99.5	3.8	7468261	99	55570
2025-01-11 00:43:56.35	201.72	70.72	-75.8	-100.0	3.8	7492828	99	58628
2025-01-11 00:43:56.77	201.66	70.49	-75.8	-100.2	3.8	7478179	99	60114
2025-01-11 00:43:57.17	201.61	70.26	-75.8	-100.2	3.9	7448272	99	60099

#Closed at: 2025-01-11 00:43:57