passes_logs/2025/01/11/X_MFTI_02/X_MFTI_02__20250111_100246_NOAA_20_rec.log

#Pass ID: 20250111_100246_NOAA 20
#Satellite: NOAA 20
#Configuration: NOAA 20
#Start time: 2025-01-11 10:02:40

#Version: 1.5.20200625
#Station: X_MFTI_02
#Location: 37.5186 lon 55.9291 lat
#TLE: 1 43013U 17073A   23362.44808611  .00000160  00000+0  96626-4 0  9996
#TLE: 2 43013  98.7331 297.9536 0000783  57.5916 302.5335 14.19555620316533

#Time	Az	El	Level	Level2	SNR	BER	Gain	Gain2
2025-01-11 10:02:40.32	161.69	67.59	-62.0	-87.2	3.2	15530525	83	65535
2025-01-11 10:02:40.73	161.69	67.77	-61.9	-87.1	3.0	15678482	84	65535
2025-01-11 10:02:41.14	161.69	67.96	-62.1	-87.3	2.9	15681770	84	65535
2025-01-11 10:02:41.55	161.69	68.15	-62.2	-87.4	3.0	15685005	84	65535
2025-01-11 10:02:41.97	161.68	68.34	-62.0	-87.2	3.0	15690353	84	65535
2025-01-11 10:02:42.39	161.68	68.53	-62.0	-87.2	3.2	15682334	84	65535
2025-01-11 10:02:42.80	161.68	68.72	-62.0	-87.2	2.8	15683341	84	65534
2025-01-11 10:02:43.22	161.68	68.92	-61.9	-87.1	3.0	15694427	84	65535
2025-01-11 10:02:43.63	161.68	69.10	-62.0	-87.2	3.0	15668899	84	65535
2025-01-11 10:02:44.05	161.68	69.30	-62.0	-87.2	3.0	15690887	84	65535
2025-01-11 10:02:44.46	161.67	69.49	-62.0	-87.2	2.9	15690643	84	65535
2025-01-11 10:02:44.88	161.67	69.68	-62.0	-87.2	3.0	15687507	84	65535
2025-01-11 10:02:45.30	161.67	69.88	-62.1	-87.3	3.3	15691513	84	65535
2025-01-11 10:02:45.71	161.67	70.07	-61.8	-87.0	3.2	15691513	84	65535
2025-01-11 10:02:46.13	161.66	70.27	-61.6	-86.8	2.9	15685058	83	65535
2025-01-11 10:02:46.55	161.66	70.46	-61.8	-87.0	3.0	15679977	84	65535
2025-01-11 10:02:46.96	161.66	70.66	-61.8	-87.0	3.1	15693321	84	65535
2025-01-11 10:02:47.38	161.66	70.85	-61.8	-87.0	3.0	15686569	84	65535
2025-01-11 10:02:47.80	161.65	71.05	-61.9	-87.1	2.2	15680381	83	65535
2025-01-11 10:02:48.22	161.65	71.25	-61.6	-86.8	2.9	15691955	83	65535
2025-01-11 10:02:48.63	161.65	71.44	-61.8	-87.0	2.9	15707725	83	65535
2025-01-11 10:02:49.05	161.65	71.64	-62.0	-87.2	3.0	15698875	84	65535
2025-01-11 10:02:49.46	161.64	71.84	-61.8	-87.0	2.7	15695739	81	65535
2025-01-11 10:02:49.88	161.64	72.04	-61.7	-86.9	2.9	15707824	83	65535
2025-01-11 10:02:50.29	161.64	72.23	-61.9	-87.1	3.0	15696914	84	65535
2025-01-11 10:02:50.71	161.63	72.43	-61.9	-87.1	3.0	15684738	84	65535
2025-01-11 10:02:51.12	161.63	72.63	-61.8	-87.0	1.7	15682380	83	65535
2025-01-11 10:02:51.54	161.63	72.83	-62.2	-87.4	3.1	15695838	84	65535
2025-01-11 10:02:51.95	161.62	73.03	-61.8	-87.0	3.0	15693840	84	65535
2025-01-11 10:02:52.37	161.62	73.23	-62.4	-87.6	3.1	15685272	84	65535
2025-01-11 10:02:52.79	161.62	73.43	-60.3	-85.5	3.4	15694786	81	65535
2025-01-11 10:02:53.20	161.61	73.63	-61.8	-87.0	3.2	15698204	84	65535
2025-01-11 10:02:53.62	161.61	73.83	-62.1	-87.3	3.3	15673072	84	65535
2025-01-11 10:02:54.03	161.60	74.03	-62.0	-87.2	3.0	15684280	84	65535
2025-01-11 10:02:54.45	161.60	74.23	-61.0	-86.2	3.0	15684280	83	65535
2025-01-11 10:02:54.86	161.60	74.43	-61.7	-86.9	2.9	15696769	83	65535
2025-01-11 10:02:55.28	161.59	74.64	-62.1	-87.3	3.1	15697891	84	65535
2025-01-11 10:02:55.70	161.59	74.84	-62.0	-87.2	2.9	15691001	84	65535
2025-01-11 10:02:56.11	161.58	75.04	-61.9	-87.1	3.0	15696212	84	65535
2025-01-11 10:02:56.53	161.57	75.25	-62.0	-87.2	3.0	15698196	84	65535
2025-01-11 10:02:56.94	161.57	75.45	-62.0	-87.2	3.0	15692810	84	65535
2025-01-11 10:02:57.36	161.56	75.65	-62.1	-87.3	2.9	15690734	84	65535
2025-01-11 10:02:57.78	161.56	75.86	-62.0	-87.2	3.0	15691482	84	65535
2025-01-11 10:02:58.20	161.55	76.07	-61.8	-87.0	3.3	15692100	84	65535
2025-01-11 10:02:58.61	161.55	76.27	-62.0	-87.2	3.1	15699554	84	65535
2025-01-11 10:02:59.03	161.54	76.47	-61.8	-87.0	3.0	15683052	84	65535
2025-01-11 10:02:59.44	161.53	76.68	-61.8	-87.0	3.0	15687690	84	65535
2025-01-11 10:02:59.86	161.52	76.88	-62.3	-87.5	3.0	15699684	84	65535
2025-01-11 10:03:00.27	161.52	77.09	-62.0	-87.2	3.2	15666915	84	65535
2025-01-11 10:03:00.69	161.51	77.30	-61.8	-87.0	3.0	15685386	84	65535
2025-01-11 10:03:01.11	161.50	77.50	-61.8	-87.0	3.2	15691078	84	65535
2025-01-11 10:03:01.52	161.49	77.71	-61.8	-87.0	2.9	15689102	83	65535
2025-01-11 10:03:01.94	161.48	77.92	-61.7	-86.9	2.9	15682479	83	65535
2025-01-11 10:03:02.36	161.48	78.13	-61.9	-87.1	3.0	15685874	84	65535
2025-01-11 10:03:02.77	161.47	78.33	-62.0	-87.2	3.0	15682434	84	65535
2025-01-11 10:03:03.19	161.46	78.54	-61.9	-87.1	3.0	15692893	84	65535
2025-01-11 10:03:03.60	161.45	78.75	-62.0	-87.3	3.0	15692893	84	65535
2025-01-11 10:03:04.02	161.44	78.96	-61.8	-87.0	3.0	15678176	84	65535
2025-01-11 10:03:04.44	161.42	79.17	-61.9	-87.1	3.2	15680419	84	65535
2025-01-11 10:03:04.85	161.41	79.37	-61.7	-86.9	2.9	15686447	83	65535
2025-01-11 10:03:05.27	161.40	79.58	-62.2	-87.4	3.0	15691970	84	65535
2025-01-11 10:03:05.68	161.39	79.79	-62.3	-87.5	3.0	15689338	84	65535
2025-01-11 10:03:06.10	161.37	80.00	-62.0	-87.2	3.0	15688507	84	65535
2025-01-11 10:03:06.52	161.36	80.21	-61.9	-87.1	2.9	15688247	84	65535
2025-01-11 10:03:06.93	161.35	80.42	-62.0	-87.2	3.1	15697479	84	65535
2025-01-11 10:03:07.35	161.33	80.63	-62.0	-87.2	3.0	15687858	84	65535
2025-01-11 10:03:07.76	161.31	80.84	-62.0	-87.2	2.9	15700027	84	65535
2025-01-11 10:03:08.18	161.30	81.05	-61.8	-87.0	2.9	15692344	83	65535
2025-01-11 10:03:08.59	161.28	81.26	-61.9	-87.1	3.0	15678321	84	65535
2025-01-11 10:03:09.01	161.26	81.47	-61.9	-87.1	3.3	15689941	84	65535
2025-01-11 10:03:09.42	161.24	81.68	-62.0	-87.2	3.0	15681373	84	65535
2025-01-11 10:03:09.84	161.22	81.89	-61.9	-87.1	2.9	15694427	83	65535
2025-01-11 10:03:10.26	161.20	82.11	-62.0	-87.2	3.0	15680290	84	65535
2025-01-11 10:03:10.67	161.17	82.31	-62.1	-87.3	3.3	15677177	84	65535
2025-01-11 10:03:11.09	161.15	82.53	-62.3	-87.5	3.3	15671295	84	65535
2025-01-11 10:03:11.51	161.12	82.74	-61.8	-87.0	3.1	15684623	84	65535
2025-01-11 10:03:11.92	161.09	82.95	-61.9	-87.1	3.0	15690460	84	65535
2025-01-11 10:03:12.34	161.06	83.17	-61.9	-87.1	3.0	15690460	84	65535
2025-01-11 10:03:12.75	161.03	83.38	-62.0	-87.2	3.0	15677177	84	65535
2025-01-11 10:03:13.17	161.00	83.59	-61.8	-87.0	3.0	15682815	84	65535
2025-01-11 10:03:13.58	160.96	83.80	-62.0	-87.2	3.0	15686828	84	65535
2025-01-11 10:03:14.00	160.92	84.01	-62.1	-87.3	3.3	15701293	84	65535
2025-01-11 10:03:14.42	160.88	84.23	-62.2	-87.4	3.0	15689598	84	65535
2025-01-11 10:03:14.83	160.83	84.44	-62.1	-87.3	3.0	15687370	84	65535
2025-01-11 10:03:15.25	160.78	84.65	-61.9	-87.1	3.0	15684928	84	65535
2025-01-11 10:03:15.67	160.73	84.87	-62.0	-87.2	3.3	15680526	84	65535
2025-01-11 10:03:16.08	160.67	85.08	-62.0	-87.2	3.2	15684440	84	65535
2025-01-11 10:03:16.50	160.60	85.30	-61.8	-87.0	2.8	15691268	83	65535
2025-01-11 10:03:16.91	160.53	85.51	-61.8	-87.0	2.9	15702255	83	65535
2025-01-11 10:03:17.33	160.45	85.72	-61.9	-87.1	3.0	15708816	84	65535
2025-01-11 10:03:17.74	160.37	85.93	-62.0	-87.2	3.0	15685447	84	65535
2025-01-11 10:03:18.16	160.27	86.15	-61.8	-87.0	2.9	15683700	83	65535
2025-01-11 10:03:18.58	160.16	86.36	-61.9	-87.2	2.9	15702568	84	65535
2025-01-11 10:03:18.99	160.04	86.58	-62.0	-87.2	3.0	15686996	84	65535
2025-01-11 10:03:19.41	159.90	86.79	-62.0	-87.2	3.0	15680526	84	65535
2025-01-11 10:03:19.82	159.75	87.00	-62.1	-87.3	2.9	15681846	83	65535
2025-01-11 10:03:20.23	159.57	87.21	-62.0	-87.2	3.2	15696258	84	65535
2025-01-11 10:03:20.65	159.35	87.43	-62.0	-87.2	3.2	15696258	84	65535
2025-01-11 10:03:21.07	159.10	87.65	-62.0	-87.2	3.1	15691810	84	65535
2025-01-11 10:03:21.48	158.80	87.86	-62.0	-87.2	3.0	15687805	84	65535
2025-01-11 10:03:21.90	158.43	88.07	-62.0	-87.2	3.0	15702880	84	65535
2025-01-11 10:03:22.31	157.97	88.29	-62.0	-87.2	2.9	15694435	84	65535
2025-01-11 10:03:22.73	157.37	88.50	-62.0	-87.2	3.0	15689407	84	65535
2025-01-11 10:03:23.15	156.57	88.72	-62.1	-87.3	2.4	15695617	84	65535
2025-01-11 10:03:23.56	155.47	88.93	-62.1	-87.3	3.2	15691238	84	65535
2025-01-11 10:03:23.98	153.79	89.14	-62.0	-87.2	2.9	15686386	84	65535
2025-01-11 10:03:24.40	150.98	89.36	-62.1	-87.3	3.0	15686904	84	65535
2025-01-11 10:03:24.81	145.60	89.56	-61.9	-87.1	2.3	15699760	82	65535
2025-01-11 10:03:25.23	130.55	89.76	-62.4	-87.6	3.2	15700225	84	65535
2025-01-11 10:03:25.65	65.55	89.87	-62.3	-87.5	3.1	15684722	84	65535
2025-01-11 10:03:26.06	11.00	89.74	-62.3	-87.5	3.0	15693321	84	65535
2025-01-11 10:03:26.48	357.86	89.54	-62.0	-87.2	1.7	15691299	84	65535
2025-01-11 10:03:26.89	352.93	89.33	-61.9	-87.1	3.0	15685951	84	65535
2025-01-11 10:03:27.31	350.29	89.12	-61.9	-87.1	3.0	15682533	84	65535
2025-01-11 10:03:27.72	348.72	88.91	-61.9	-87.1	3.0	15679244	84	65535
2025-01-11 10:03:28.13	347.65	88.70	-60.4	-85.6	3.5	15686073	81	65535
2025-01-11 10:03:28.55	346.87	88.48	-61.9	-87.1	3.3	15689300	84	65535
2025-01-11 10:03:28.96	346.29	88.27	-62.0	-87.2	3.1	15689300	84	65535
2025-01-11 10:03:29.38	345.84	88.06	-61.9	-87.1	3.0	15689292	84	65535
2025-01-11 10:03:29.80	345.47	87.84	-60.8	-86.0	3.1	15689842	83	65535
2025-01-11 10:03:30.21	345.18	87.63	-62.0	-87.2	3.0	15680648	84	65535
2025-01-11 10:03:30.63	344.92	87.41	-62.7	-87.9	3.1	15689598	84	65535
2025-01-11 10:03:31.05	344.71	87.20	-61.7	-86.9	3.0	15684112	84	65535
2025-01-11 10:03:31.47	344.53	86.98	-62.3	-87.5	3.3	15691810	84	65535
2025-01-11 10:03:31.88	344.38	86.77	-62.1	-87.3	3.0	15689674	84	65535
2025-01-11 10:03:32.30	344.24	86.55	-61.9	-87.1	3.0	15693473	84	65535
2025-01-11 10:03:32.71	344.12	86.34	-62.1	-87.3	3.0	15687896	84	65535
2025-01-11 10:03:33.13	344.02	86.13	-61.5	-86.7	3.3	15688407	84	65535
2025-01-11 10:03:33.55	343.92	85.91	-62.1	-87.3	3.2	15681030	84	65535
2025-01-11 10:03:33.96	343.84	85.70	-61.8	-87.0	3.0	15679954	84	65535
2025-01-11 10:03:34.38	343.76	85.48	-62.0	-87.2	3.0	15688186	84	65535
2025-01-11 10:03:34.79	343.69	85.27	-61.9	-87.1	2.9	15685134	84	65535
2025-01-11 10:03:35.21	343.62	85.06	-61.9	-87.2	2.9	15703178	84	65535
2025-01-11 10:03:35.63	343.56	84.84	-61.8	-87.0	3.0	15693222	84	65535
2025-01-11 10:03:36.04	343.51	84.63	-62.0	-87.2	3.0	15670333	84	65535
2025-01-11 10:03:36.46	343.46	84.42	-61.9	-87.1	3.4	15681838	84	65535
2025-01-11 10:03:36.87	343.42	84.21	-61.8	-87.0	3.0	15677955	84	65535
2025-01-11 10:03:37.29	343.37	83.99	-61.8	-87.0	3.0	15675430	84	65535
2025-01-11 10:03:37.71	343.33	83.78	-61.8	-87.0	3.0	15675430	84	65535
2025-01-11 10:03:38.13	343.30	83.56	-61.9	-87.1	3.3	15691886	84	65535
2025-01-11 10:03:38.54	343.26	83.35	-62.0	-87.2	3.1	15691886	84	65535
2025-01-11 10:03:38.96	343.23	83.14	-61.9	-87.1	3.0	15677711	84	65535
2025-01-11 10:03:39.38	343.20	82.93	-61.8	-87.0	3.0	15675178	84	65535
2025-01-11 10:03:39.79	343.17	82.72	-61.8	-87.0	3.1	15682151	84	65535
2025-01-11 10:03:40.21	343.15	82.50	-61.9	-87.1	2.9	15676055	83	65535
2025-01-11 10:03:40.62	343.12	82.29	-62.3	-87.5	3.0	15694435	84	65535
2025-01-11 10:03:41.04	343.10	82.08	-62.0	-87.2	3.4	15687828	84	65535
2025-01-11 10:03:41.45	343.08	81.87	-61.9	-87.1	3.3	15666206	84	65535
2025-01-11 10:03:41.87	343.06	81.66	-61.8	-87.0	3.3	15682098	84	65535
2025-01-11 10:03:42.29	343.04	81.45	-61.9	-87.1	3.0	15679771	84	65535
2025-01-11 10:03:42.70	343.02	81.24	-61.9	-87.1	3.0	15687232	84	65535
2025-01-11 10:03:43.12	343.00	81.03	-61.9	-87.1	3.0	15685165	84	65535
2025-01-11 10:03:43.53	342.98	80.82	-61.7	-86.9	3.0	15688087	84	65535
2025-01-11 10:03:43.95	342.97	80.61	-61.9	-87.1	3.0	15692146	84	65535
2025-01-11 10:03:44.36	342.95	80.40	-61.9	-87.1	3.3	15672256	84	65535
2025-01-11 10:03:44.78	342.94	80.19	-61.9	-87.1	3.0	15680145	84	65535
2025-01-11 10:03:45.20	342.92	79.98	-61.8	-87.0	3.0	15688201	84	65535
2025-01-11 10:03:45.61	342.91	79.77	-61.8	-87.0	3.0	15693641	84	65535
2025-01-11 10:03:46.03	342.90	79.56	-61.9	-87.1	3.4	15674491	84	65535
2025-01-11 10:03:46.44	342.89	79.36	-62.0	-87.2	3.2	15676483	84	65535
2025-01-11 10:03:46.86	342.87	79.15	-61.6	-86.8	2.9	15676483	83	65535
2025-01-11 10:03:47.27	342.86	78.94	-61.8	-87.0	3.0	15696632	84	65535
2025-01-11 10:03:47.69	342.85	78.73	-61.9	-87.1	3.0	15686172	84	65535
2025-01-11 10:03:48.11	342.84	78.52	-61.9	-87.1	3.0	15688758	84	65535
2025-01-11 10:03:48.52	342.83	78.32	-61.9	-87.1	2.9	15676307	83	65535
2025-01-11 10:03:48.94	342.82	78.11	-61.8	-87.0	3.2	15675643	84	65535
2025-01-11 10:03:49.35	342.81	77.90	-61.9	-87.1	3.3	15676429	84	65535
2025-01-11 10:03:49.77	342.81	77.69	-61.8	-87.0	3.1	15672492	84	65535
2025-01-11 10:03:50.18	342.80	77.49	-61.6	-86.8	2.9	15684112	83	65535
2025-01-11 10:03:50.60	342.79	77.28	-61.8	-87.0	3.1	15702857	84	65535
2025-01-11 10:03:51.01	342.78	77.08	-61.8	-87.0	3.1	15689537	84	65535
2025-01-11 10:03:51.43	342.77	76.87	-62.0	-87.2	3.0	15689506	84	65535
2025-01-11 10:03:51.85	342.77	76.66	-61.8	-87.0	2.9	15683074	83	65535
2025-01-11 10:03:52.26	342.76	76.46	-62.3	-87.5	3.1	15692115	84	65535
2025-01-11 10:03:52.68	342.75	76.26	-61.9	-87.1	3.0	15684738	84	65535
2025-01-11 10:03:53.09	342.75	76.05	-61.9	-87.1	3.0	15696968	84	65535
2025-01-11 10:03:53.51	342.74	75.85	-61.7	-86.9	2.9	15690773	83	65535
2025-01-11 10:03:53.93	342.74	75.64	-62.0	-87.2	2.9	15703285	84	65535
2025-01-11 10:03:54.34	342.73	75.44	-62.0	-87.2	3.0	15683815	84	65535
2025-01-11 10:03:54.76	342.72	75.24	-62.0	-87.2	3.0	15695739	84	65535
2025-01-11 10:03:55.18	342.72	75.03	-61.9	-87.1	3.1	15690849	83	65535
2025-01-11 10:03:55.59	342.71	74.83	-61.9	-87.1	3.1	15690849	83	65535
2025-01-11 10:03:56.01	342.71	74.63	-61.9	-87.1	3.0	15702835	84	65535
2025-01-11 10:03:56.42	342.71	74.43	-61.9	-87.1	3.0	15696571	84	65535
2025-01-11 10:03:56.84	342.70	74.23	-62.1	-87.3	2.7	15693313	84	65535
2025-01-11 10:03:57.25	342.70	74.03	-61.8	-87.0	3.0	15690246	84	65535
2025-01-11 10:03:57.67	342.69	73.83	-62.5	-87.7	3.0	15693634	84	65535
2025-01-11 10:03:58.08	342.69	73.63	-61.9	-87.1	3.0	15689575	84	65535
2025-01-11 10:03:58.50	342.68	73.43	-61.8	-87.0	3.1	15705993	83	65535
2025-01-11 10:03:58.92	342.68	73.22	-62.0	-87.2	3.3	15691467	84	65535
2025-01-11 10:03:59.33	342.68	73.03	-61.9	-87.1	3.2	15687408	84	65535
2025-01-11 10:03:59.75	342.67	72.83	-62.1	-87.3	3.0	15690391	84	65535
2025-01-11 10:04:00.17	342.67	72.62	-61.9	-87.1	3.2	15686828	83	65535
2025-01-11 10:04:00.58	342.67	72.43	-62.2	-87.4	2.9	15674263	84	65535
2025-01-11 10:04:01.00	342.66	72.23	-62.1	-87.3	3.0	15680046	84	65535
2025-01-11 10:04:01.41	342.66	72.03	-62.0	-87.2	3.0	15681198	84	65535
2025-01-11 10:04:01.83	342.66	71.84	-61.7	-86.9	2.4	15692420	83	65535
2025-01-11 10:04:02.24	342.65	71.64	-61.8	-87.0	3.0	15697570	83	65535
2025-01-11 10:04:02.66	342.65	71.44	-61.9	-87.1	2.9	15700439	84	65535
2025-01-11 10:04:03.08	342.65	71.24	-62.0	-87.2	2.9	15690216	84	65535
2025-01-11 10:04:03.49	342.65	71.05	-60.6	-85.8	3.2	15690872	82	65535
2025-01-11 10:04:03.90	342.64	70.86	-62.2	-87.4	2.9	15690872	84	65535
2025-01-11 10:04:04.31	342.64	70.67	-62.1	-87.3	2.9	15687866	84	65535
2025-01-11 10:04:04.73	342.64	70.47	-62.1	-87.3	3.0	15698539	84	65535
2025-01-11 10:04:05.14	342.64	70.28	-60.6	-85.8	3.1	15697441	82	65535

#Closed at: 2025-01-11 10:04:05