passes_logs/2025/01/11/X_MFTI_02/X_MFTI_02__20250111_235318_NOAA_20_rec.log

#Pass ID: 20250111_235318_NOAA 20
#Satellite: NOAA 20
#Configuration: NOAA 20
#Start time: 2025-01-11 23:53:13

#Version: 1.5.20200625
#Station: X_MFTI_02
#Location: 37.5186 lon 55.9291 lat
#TLE: 1 43013U 17073A   23362.44808611  .00000160  00000+0  96626-4 0  9996
#TLE: 2 43013  98.7331 297.9536 0000783  57.5916 302.5335 14.19555620316533

#Time	Az	El	Level	Level2	SNR	BER	Gain	Gain2
2025-01-11 23:53:13.14	1.70	67.63	-62.1	-87.3	3.2	15468513	84	65535
2025-01-11 23:53:13.54	1.55	67.80	-62.3	-87.5	3.2	15663024	85	65535
2025-01-11 23:53:13.96	1.39	67.99	-62.4	-87.6	3.0	15675163	84	65535
2025-01-11 23:53:14.37	1.23	68.16	-61.8	-87.0	3.0	15685203	84	65535
2025-01-11 23:53:14.79	1.06	68.35	-62.3	-87.5	3.1	15677223	84	65535
2025-01-11 23:53:15.21	0.89	68.53	-62.3	-87.5	3.1	15685691	84	65535
2025-01-11 23:53:15.63	0.72	68.71	-61.7	-86.9	3.0	15693977	84	65535
2025-01-11 23:53:16.04	0.55	68.89	-62.3	-87.5	3.0	15691955	84	65535
2025-01-11 23:53:16.46	0.37	69.07	-62.3	-87.5	3.1	15695800	84	65535
2025-01-11 23:53:16.87	0.19	69.25	-62.3	-87.5	3.4	15690307	84	65535
2025-01-11 23:53:17.29	0.01	69.44	-62.4	-87.6	3.1	15680664	84	65535
2025-01-11 23:53:17.70	359.82	69.62	-62.2	-87.4	3.0	15662185	84	65535
2025-01-11 23:53:18.12	359.63	69.80	-62.3	-87.5	3.0	15693168	84	65535
2025-01-11 23:53:18.54	359.43	69.99	-62.3	-87.5	3.0	15693168	84	65535
2025-01-11 23:53:18.95	359.24	70.17	-62.0	-87.2	3.1	15686447	84	65535
2025-01-11 23:53:19.36	359.04	70.35	-62.3	-87.5	3.0	15678207	84	65535
2025-01-11 23:53:19.78	358.83	70.53	-62.3	-87.5	3.1	15695411	84	65535
2025-01-11 23:53:20.19	358.62	70.71	-62.3	-87.5	3.0	15686073	84	65535
2025-01-11 23:53:20.61	358.40	70.90	-62.3	-87.5	3.2	15682182	85	65535
2025-01-11 23:53:21.02	358.19	71.08	-62.3	-87.5	3.3	15671913	85	65535
2025-01-11 23:53:21.44	357.96	71.26	-62.3	-87.5	3.4	15656433	85	65535
2025-01-11 23:53:21.85	357.73	71.44	-62.3	-87.5	3.4	15652786	85	65535
2025-01-11 23:53:22.27	357.50	71.63	-62.2	-87.4	2.9	15661781	84	65535
2025-01-11 23:53:22.69	357.26	71.81	-62.2	-87.4	3.0	15686317	84	65535
2025-01-11 23:53:23.10	357.02	71.99	-62.3	-87.6	2.9	15695388	84	65535
2025-01-11 23:53:23.52	356.77	72.18	-62.3	-87.5	3.0	15685585	84	65535
2025-01-11 23:53:23.93	356.51	72.36	-61.7	-86.9	2.9	15694244	84	65535
2025-01-11 23:53:24.35	356.25	72.54	-62.3	-87.5	3.0	15691215	84	65535
2025-01-11 23:53:24.76	355.99	72.72	-62.3	-87.5	3.3	15696479	84	65535
2025-01-11 23:53:25.18	355.71	72.91	-62.3	-87.5	3.1	15684875	84	65535
2025-01-11 23:53:25.59	355.44	73.09	-62.3	-87.5	3.0	15700149	84	65535
2025-01-11 23:53:26.00	355.16	73.27	-62.3	-87.5	3.0	15692848	84	65535
2025-01-11 23:53:26.42	354.86	73.45	-62.3	-87.5	3.0	15674880	84	65535
2025-01-11 23:53:26.84	354.56	73.64	-62.3	-87.5	3.1	15682327	84	65535
2025-01-11 23:53:27.25	354.26	73.82	-62.3	-87.5	3.0	15682327	84	65535
2025-01-11 23:53:27.67	353.94	74.00	-62.3	-87.5	3.2	15698242	84	65535
2025-01-11 23:53:28.08	353.63	74.18	-62.3	-87.5	3.3	15693130	84	65535
2025-01-11 23:53:28.50	353.30	74.36	-62.3	-87.5	3.0	15673080	84	65535
2025-01-11 23:53:28.91	352.97	74.54	-62.2	-87.4	2.2	15686553	84	65535
2025-01-11 23:53:29.33	352.62	74.73	-62.3	-87.5	3.0	15696350	84	65535
2025-01-11 23:53:29.74	352.27	74.90	-62.3	-87.5	3.1	15676353	84	65535
2025-01-11 23:53:30.16	351.90	75.09	-62.3	-87.5	3.1	15689697	85	65535
2025-01-11 23:53:30.58	351.53	75.27	-62.2	-87.4	2.5	15668899	83	65535
2025-01-11 23:53:30.99	351.15	75.45	-61.7	-86.9	3.3	15685836	84	65535
2025-01-11 23:53:31.41	350.76	75.63	-62.3	-87.5	3.3	15689002	84	65535
2025-01-11 23:53:31.82	350.36	75.81	-62.3	-87.5	3.0	15677497	84	65535
2025-01-11 23:53:32.24	349.95	75.99	-62.2	-87.4	2.1	15684455	83	65535
2025-01-11 23:53:32.65	349.53	76.16	-62.3	-87.5	3.3	15689109	84	65535
2025-01-11 23:53:33.07	349.09	76.34	-62.3	-87.5	3.7	15681732	84	65535
2025-01-11 23:53:33.49	348.64	76.52	-62.2	-87.4	3.0	15684318	84	65535
2025-01-11 23:53:33.90	348.19	76.69	-60.7	-85.9	3.2	15688026	82	65535
2025-01-11 23:53:34.32	347.71	76.87	-62.3	-87.5	3.3	15686508	84	65535
2025-01-11 23:53:34.73	347.23	77.04	-62.3	-87.5	3.1	15692680	84	65535
2025-01-11 23:53:35.15	346.73	77.22	-62.2	-87.4	3.9	15607101	84	65535
2025-01-11 23:53:35.56	346.23	77.39	-60.9	-86.1	3.1	15607101	83	65535
2025-01-11 23:53:35.98	345.69	77.57	-62.1	-87.3	3.0	15668594	84	65535
2025-01-11 23:53:36.40	345.15	77.74	-62.3	-87.5	3.2	15681838	84	65535
2025-01-11 23:53:36.81	344.60	77.91	-62.3	-87.5	3.0	15690345	84	65535
2025-01-11 23:53:37.23	344.02	78.08	-62.3	-87.6	3.1	15697715	84	65535
2025-01-11 23:53:37.64	343.43	78.25	-62.3	-87.5	2.9	15687759	84	65535
2025-01-11 23:53:38.06	342.82	78.42	-62.3	-87.5	2.9	15690635	84	65535
2025-01-11 23:53:38.47	342.20	78.58	-61.7	-86.9	3.0	15691444	84	65535
2025-01-11 23:53:38.89	341.55	78.75	-61.6	-86.8	3.3	15695327	84	65535
2025-01-11 23:53:39.30	340.89	78.91	-62.3	-87.6	3.1	15710273	84	65535
2025-01-11 23:53:39.72	340.20	79.08	-62.3	-87.5	2.9	15685844	84	65535
2025-01-11 23:53:40.13	339.50	79.23	-62.2	-87.4	3.0	15697761	84	65535
2025-01-11 23:53:40.55	338.76	79.40	-62.4	-87.6	2.9	15689025	84	65535
2025-01-11 23:53:40.96	338.02	79.55	-62.3	-87.5	3.0	15689010	84	65535
2025-01-11 23:53:41.38	337.24	79.71	-62.3	-87.5	3.0	15675155	84	65535
2025-01-11 23:53:41.80	336.43	79.87	-61.7	-86.9	3.0	15684143	84	65535
2025-01-11 23:53:42.21	335.61	80.02	-62.3	-87.5	3.3	15688613	84	65535
2025-01-11 23:53:42.62	334.77	80.17	-61.7	-86.9	3.1	15691497	84	65535
2025-01-11 23:53:43.04	333.89	80.32	-61.7	-86.9	3.0	15695518	84	65535
2025-01-11 23:53:43.46	332.97	80.47	-61.7	-86.9	3.0	15694908	84	65535
2025-01-11 23:53:43.87	332.05	80.61	-61.7	-86.9	3.0	15694908	84	65535
2025-01-11 23:53:44.29	331.08	80.75	-61.7	-86.9	3.1	15692001	84	65535
2025-01-11 23:53:44.70	330.10	80.89	-61.7	-86.9	3.0	15692001	84	65535
2025-01-11 23:53:45.12	329.06	81.03	-62.3	-87.5	3.1	15683967	84	65535
2025-01-11 23:53:45.53	328.02	81.16	-61.7	-86.9	3.2	15681007	84	65535
2025-01-11 23:53:45.95	326.92	81.29	-61.7	-86.9	3.1	15683616	84	65535
2025-01-11 23:53:46.36	325.81	81.42	-61.7	-86.9	3.0	15691520	84	65535
2025-01-11 23:53:46.78	324.65	81.54	-62.3	-87.5	3.1	15687660	84	65535
2025-01-11 23:53:47.20	323.44	81.67	-62.3	-87.5	2.9	15691345	84	65535
2025-01-11 23:53:47.61	322.23	81.78	-62.3	-87.5	3.0	15694839	84	65535
2025-01-11 23:53:48.03	320.96	81.90	-62.3	-87.5	3.0	15692329	84	65535
2025-01-11 23:53:48.44	319.68	82.00	-62.3	-87.5	3.0	15694381	84	65535
2025-01-11 23:53:48.86	318.33	82.11	-62.3	-87.5	2.9	15688964	84	65535
2025-01-11 23:53:49.27	316.98	82.21	-62.0	-87.2	2.9	15690536	84	65535
2025-01-11 23:53:49.69	315.56	82.31	-62.3	-87.5	3.0	15699035	84	65535
2025-01-11 23:53:50.10	314.14	82.40	-62.3	-87.5	3.2	15689880	84	65535
2025-01-11 23:53:50.52	312.66	82.49	-61.7	-86.9	3.0	15691223	84	65535
2025-01-11 23:53:50.93	311.17	82.57	-62.3	-87.5	3.0	15691497	84	65535
2025-01-11 23:53:51.35	309.61	82.65	-62.3	-87.5	3.1	15703422	84	65535
2025-01-11 23:53:51.77	308.02	82.72	-62.3	-87.5	3.2	15681503	84	65535
2025-01-11 23:53:52.19	306.40	82.79	-62.4	-87.6	3.0	15681503	84	65535
2025-01-11 23:53:52.60	304.79	82.85	-62.3	-87.5	2.9	15692359	84	65535
2025-01-11 23:53:53.02	303.11	82.90	-62.3	-87.6	3.0	15692359	84	65535
2025-01-11 23:53:53.43	301.45	82.95	-62.3	-87.5	3.0	15684646	84	65535
2025-01-11 23:53:53.85	299.73	82.99	-69.6	-94.8	3.2	15684020	84	65535
2025-01-11 23:53:54.26	298.03	83.03	-62.3	-87.5	3.0	15694084	84	65535
2025-01-11 23:53:54.68	296.27	83.06	-61.7	-86.9	3.1	15689872	84	65535
2025-01-11 23:53:55.09	294.54	83.08	-62.3	-87.5	3.0	15687568	84	65535
2025-01-11 23:53:55.51	292.75	83.10	-61.8	-87.0	3.0	15685813	84	65535
2025-01-11 23:53:55.92	291.01	83.11	-61.8	-87.0	2.9	15686370	84	65535
2025-01-11 23:53:56.34	289.21	83.11	-61.8	-87.0	3.0	15700218	84	65535
2025-01-11 23:53:56.75	287.46	83.11	-61.7	-86.9	3.2	15689964	84	65535
2025-01-11 23:53:57.16	285.71	83.10	-62.3	-87.5	3.0	15701751	84	65535
2025-01-11 23:53:57.58	283.92	83.08	-62.3	-87.5	3.0	15688796	84	65535
2025-01-11 23:53:57.99	282.19	83.06	-61.7	-86.9	3.0	15689598	84	65535
2025-01-11 23:53:58.41	280.43	83.03	-62.3	-87.5	2.9	15682464	84	65535
2025-01-11 23:53:58.82	278.72	83.00	-62.3	-87.5	3.2	15682456	85	65535
2025-01-11 23:53:59.24	277.00	82.96	-61.8	-87.0	3.0	15688438	84	65535
2025-01-11 23:53:59.65	275.33	82.91	-62.4	-87.6	3.3	15686599	84	65535
2025-01-11 23:54:00.07	273.65	82.86	-62.3	-87.5	3.5	15677024	84	65535
2025-01-11 23:54:00.49	271.99	82.80	-62.3	-87.5	3.0	15677024	84	65535
2025-01-11 23:54:00.90	270.41	82.73	-62.3	-87.5	3.0	15695579	84	65535
2025-01-11 23:54:01.32	268.81	82.66	-61.8	-87.0	2.9	15695579	84	65535
2025-01-11 23:54:01.73	267.28	82.59	-62.3	-87.6	3.0	15682334	84	65535
2025-01-11 23:54:02.14	265.79	82.51	-62.3	-87.5	3.0	15683822	84	65535
2025-01-11 23:54:02.56	264.29	82.42	-62.3	-87.5	3.2	15685630	84	65535
2025-01-11 23:54:02.98	262.83	82.33	-62.3	-87.5	3.3	15691886	84	65535
2025-01-11 23:54:03.39	261.43	82.23	-62.2	-87.4	3.0	15686454	84	65535
2025-01-11 23:54:03.80	260.08	82.13	-62.0	-87.2	3.2	15673721	84	65535
2025-01-11 23:54:04.22	258.72	82.03	-61.6	-86.8	2.2	15691421	83	65535
2025-01-11 23:54:04.64	257.40	81.92	-61.7	-86.9	3.0	15688613	84	65535
2025-01-11 23:54:05.05	256.15	81.81	-62.8	-88.0	3.1	15691650	84	65535
2025-01-11 23:54:05.47	254.90	81.69	-61.8	-87.0	3.0	15679336	84	65535
2025-01-11 23:54:05.88	253.72	81.57	-60.2	-85.5	3.5	15689208	81	65535
2025-01-11 23:54:06.30	252.55	81.44	-61.7	-86.9	3.0	15683967	84	65535
2025-01-11 23:54:06.71	251.43	81.32	-61.7	-86.9	3.0	15679504	84	65535
2025-01-11 23:54:07.13	250.32	81.19	-61.7	-86.9	3.0	15685020	84	65535
2025-01-11 23:54:07.54	249.27	81.06	-61.7	-86.9	3.4	15682174	81	65535
2025-01-11 23:54:07.96	248.23	80.92	-61.8	-87.0	3.2	15696289	84	65535
2025-01-11 23:54:08.37	247.24	80.78	-61.7	-86.9	3.0	15673233	84	65535
2025-01-11 23:54:08.78	246.29	80.64	-61.7	-86.9	3.0	15673233	84	65535
2025-01-11 23:54:09.20	245.33	80.50	-60.5	-85.7	3.6	15680633	82	65535
2025-01-11 23:54:09.62	244.41	80.35	-62.0	-87.2	3.2	15680633	84	65535
2025-01-11 23:54:10.03	243.54	80.20	-62.3	-87.5	3.0	15690620	84	65535
2025-01-11 23:54:10.44	242.69	80.05	-61.7	-86.9	3.0	15687187	84	65535
2025-01-11 23:54:10.86	241.85	79.90	-61.7	-86.9	3.0	15680877	84	65535
2025-01-11 23:54:11.27	241.06	79.75	-61.7	-86.9	3.0	15687622	84	65535
2025-01-11 23:54:11.69	240.27	79.59	-62.3	-87.5	3.0	15676155	84	65535
2025-01-11 23:54:12.11	239.50	79.43	-62.3	-87.5	3.0	15686828	84	65535
2025-01-11 23:54:12.52	238.78	79.27	-62.3	-87.5	3.0	15682159	84	65535
2025-01-11 23:54:12.94	238.06	79.11	-62.3	-87.5	3.1	15687149	84	65535
2025-01-11 23:54:13.36	237.36	78.94	-61.7	-86.9	3.0	15681770	84	65535
2025-01-11 23:54:13.77	236.70	78.78	-61.7	-86.9	3.3	15680496	84	65535
2025-01-11 23:54:14.19	236.04	78.61	-62.1	-87.3	3.0	15679298	84	65535
2025-01-11 23:54:14.60	235.42	78.45	-61.9	-87.1	3.0	15696563	84	65535
2025-01-11 23:54:15.02	234.80	78.28	-61.9	-87.1	3.1	15697952	84	65535
2025-01-11 23:54:15.43	234.21	78.11	-61.8	-87.0	3.3	15684944	84	65535
2025-01-11 23:54:15.85	233.63	77.94	-61.7	-86.9	3.0	15673385	84	65535
2025-01-11 23:54:16.26	233.07	77.77	-61.8	-87.0	3.0	15703834	84	65535
2025-01-11 23:54:16.68	232.52	77.60	-61.7	-86.9	3.0	15683967	84	65535
2025-01-11 23:54:17.10	231.99	77.43	-61.7	-86.9	3.3	15690093	84	65535
2025-01-11 23:54:17.51	231.48	77.25	-61.7	-86.9	3.3	15688079	84	65535
2025-01-11 23:54:17.93	230.97	77.08	-61.7	-86.9	3.0	15688079	84	65535
2025-01-11 23:54:18.34	230.49	76.90	-61.7	-86.9	3.1	15702720	84	65535
2025-01-11 23:54:18.76	230.01	76.73	-62.4	-87.6	3.2	15688789	84	65535
2025-01-11 23:54:19.17	229.56	76.55	-61.7	-86.9	3.0	15689636	84	65535
2025-01-11 23:54:19.59	229.10	76.37	-62.3	-87.5	3.0	15674758	84	65535
2025-01-11 23:54:20.01	228.66	76.19	-62.4	-87.6	3.2	15692626	84	65535
2025-01-11 23:54:20.42	228.24	76.02	-62.3	-87.5	3.1	15696754	84	65535
2025-01-11 23:54:20.84	227.82	75.84	-63.2	-88.4	3.0	15699378	84	65535
2025-01-11 23:54:21.25	227.42	75.66	-62.3	-87.5	3.0	15687301	84	65535
2025-01-11 23:54:21.67	227.03	75.48	-61.8	-87.0	3.0	15686248	84	65535
2025-01-11 23:54:22.08	226.65	75.30	-61.7	-86.9	3.0	15689392	84	65535
2025-01-11 23:54:22.50	226.27	75.12	-62.3	-87.5	3.0	15690361	84	65535
2025-01-11 23:54:22.91	225.91	74.94	-61.7	-86.9	3.0	15701477	84	65535
2025-01-11 23:54:23.33	225.55	74.76	-61.9	-87.1	3.3	15692413	84	65535
2025-01-11 23:54:23.75	225.20	74.57	-61.8	-87.0	2.9	15684341	84	65535
2025-01-11 23:54:24.16	224.87	74.40	-62.3	-87.5	3.0	15680603	84	65535
2025-01-11 23:54:24.58	224.54	74.21	-62.3	-87.5	2.9	15697761	84	65535
2025-01-11 23:54:24.99	224.22	74.03	-62.3	-87.5	3.3	15680480	84	65535
2025-01-11 23:54:25.41	223.90	73.85	-61.7	-86.9	3.0	15696601	84	65535
2025-01-11 23:54:25.82	223.60	73.67	-61.7	-86.9	2.9	15696601	84	65535
2025-01-11 23:54:26.24	223.29	73.48	-62.4	-87.6	2.9	15705543	84	65535
2025-01-11 23:54:26.66	223.00	73.30	-62.4	-87.6	3.0	15705543	84	65535
2025-01-11 23:54:27.07	222.72	73.12	-62.4	-87.6	3.0	15681488	84	65535
2025-01-11 23:54:27.49	222.43	72.93	-62.3	-87.5	2.9	15681076	84	65535
2025-01-11 23:54:27.91	222.16	72.75	-62.4	-87.6	3.2	15698951	84	65535
2025-01-11 23:54:28.32	221.89	72.57	-62.4	-87.6	3.3	15689804	84	65535
2025-01-11 23:54:28.74	221.63	72.38	-62.3	-87.5	3.1	15686279	84	65535
2025-01-11 23:54:29.15	221.38	72.20	-62.3	-87.5	3.0	15674919	84	65535
2025-01-11 23:54:29.57	221.12	72.01	-62.3	-87.5	3.0	15701400	84	65535
2025-01-11 23:54:29.98	220.88	71.83	-62.3	-87.5	3.0	15694351	84	65535
2025-01-11 23:54:30.40	220.64	71.65	-62.8	-88.0	3.1	15690231	84	65535
2025-01-11 23:54:30.82	220.40	71.46	-62.3	-87.5	3.0	15667976	84	65535
2025-01-11 23:54:31.23	220.18	71.28	-62.3	-87.5	3.3	15679130	84	65535
2025-01-11 23:54:31.65	219.95	71.10	-62.3	-87.5	3.0	15675941	84	65535
2025-01-11 23:54:32.06	219.73	70.92	-62.3	-87.5	3.0	15682273	84	65535
2025-01-11 23:54:32.48	219.51	70.73	-62.3	-87.5	3.0	15688026	84	65535
2025-01-11 23:54:32.89	219.30	70.55	-62.3	-87.5	3.3	15692710	84	65535
2025-01-11 23:54:33.30	219.10	70.37	-62.3	-87.5	3.2	15678359	84	65535

#Closed at: 2025-01-11 23:54:33