passes_logs/2026/01/09/XPeterburg/XPeterburg__20260109_023302_FENGYUN_3D_rec.log

#Pass ID: 20260109_023302_FENGYUN 3D
#Satellite: FENGYUN 3D
#Configuration: FENGYUN 3D
#Start time: 2026-01-09 02:32:59

#Version: 1.5.20200625
#Station: XPeterburg
#Location: 30.318091 lon 59.932769 lat
#TLE: 1 43010U 17072A   25359.21279514  .00000061  00000+0  50555-4 0  9990
#TLE: 2 43010  98.9914 325.7104 0001525 146.5453 213.5819 14.19687267420302

#Time	Az	El	Level	Level2	SNR	BER	Gain	Gain2
2026-01-09 02:32:59.02	12.26	68.32	-31.4	-30.0	5.3	7266632	81	2095
2026-01-09 02:32:59.42	12.18	68.50	-30.2	-30.5	12.0	6401332	77	2550
2026-01-09 02:32:59.82	12.11	68.68	-30.0	-30.1	12.2	2517	77	2471
2026-01-09 02:33:00.22	12.03	68.86	-30.0	-29.8	12.2	1956	77	2416
2026-01-09 02:33:00.63	11.95	69.05	-29.9	-29.6	12.3	949	77	2376
2026-01-09 02:33:01.03	11.87	69.23	-30.1	-30.1	12.0	1132	77	2449
2026-01-09 02:33:01.43	11.79	69.41	-30.7	-30.8	11.4	4291	78	2486
2026-01-09 02:33:01.83	11.70	69.60	-31.5	-31.9	10.4	12313	79	2578
2026-01-09 02:33:02.23	11.62	69.78	-32.8	-33.3	8.8	45444	82	2586
2026-01-09 02:33:02.64	11.53	69.97	-34.3	-35.0	6.7	738739	85	2656
2026-01-09 02:33:03.04	11.44	70.15	-36.2	-37.5	4.5	2945960	89	2841
2026-01-09 02:33:03.44	11.35	70.34	-37.8	-42.3	3.6	7756256	92	4127
2026-01-09 02:33:03.84	11.25	70.52	-38.4	-42.6	3.3	8435909	93	4002
2026-01-09 02:33:04.25	11.16	70.71	-38.0	-42.5	3.6	8399585	93	4137
2026-01-09 02:33:04.65	11.06	70.90	-38.0	-41.5	3.4	8415447	93	3645
2026-01-09 02:33:05.05	10.96	71.08	-38.0	-42.6	3.6	8395786	93	4176
2026-01-09 02:33:05.45	10.86	71.27	-38.0	-41.2	3.4	8437339	93	3589
2026-01-09 02:33:05.85	10.76	71.45	-37.9	-42.2	3.6	8389228	93	4020
2026-01-09 02:33:06.26	10.65	71.64	-38.1	-41.8	3.4	8447227	93	3785
2026-01-09 02:33:06.66	10.54	71.83	-38.1	-41.2	3.3	8415630	93	3555
2026-01-09 02:33:07.06	10.43	72.02	-38.3	-42.4	3.4	8443897	93	3967
2026-01-09 02:33:07.46	10.32	72.20	-38.3	-42.1	3.3	8406143	93	3828
2026-01-09 02:33:07.87	10.20	72.40	-38.4	-42.6	3.5	8396461	94	4026
2026-01-09 02:33:08.27	10.09	72.58	-38.5	-42.0	3.3	8406978	94	3699
2026-01-09 02:33:08.67	9.97	72.77	-38.3	-42.7	3.5	8350730	94	4065
2026-01-09 02:33:09.07	9.84	72.96	-38.3	-41.3	3.3	8413158	94	3489
2026-01-09 02:33:09.47	9.72	73.15	-38.2	-42.2	3.6	8408878	94	3905
2026-01-09 02:33:09.88	9.58	73.34	-38.1	-40.5	3.3	8396312	94	3229
2026-01-09 02:33:10.28	9.45	73.53	-38.1	-41.6	3.6	8407802	94	3672
2026-01-09 02:33:10.68	9.32	73.72	-38.4	-40.0	3.3	8378196	95	2980
2026-01-09 02:33:11.08	9.18	73.91	-38.4	-41.8	3.6	8379089	95	3629
2026-01-09 02:33:11.48	9.03	74.10	-38.5	-40.8	3.4	8402904	95	3191
2026-01-09 02:33:11.89	8.88	74.29	-38.5	-42.0	3.6	8403533	95	3676
2026-01-09 02:33:12.29	8.73	74.48	-38.6	-41.4	3.4	8438621	95	3407
2026-01-09 02:33:12.69	8.58	74.67	-38.6	-42.8	3.6	8401885	95	3972
2026-01-09 02:33:13.09	8.42	74.86	-38.7	-42.2	3.4	8425746	95	3694
2026-01-09 02:33:13.49	8.26	75.05	-38.7	-41.8	3.3	8398670	95	3530
2026-01-09 02:33:13.90	8.09	75.25	-38.6	-42.4	3.5	8416259	95	3798
2026-01-09 02:33:14.30	7.92	75.44	-38.6	-41.7	3.3	8388668	95	3524
2026-01-09 02:33:14.70	7.74	75.63	-38.6	-42.5	3.5	8430152	95	3889
2026-01-09 02:33:15.10	7.56	75.82	-38.5	-41.5	3.3	8427726	95	3455
2026-01-09 02:33:15.50	7.38	76.01	-38.4	-42.3	3.6	8428413	95	3827
2026-01-09 02:33:15.91	7.18	76.21	-38.4	-40.6	3.3	8431720	95	3204
2026-01-09 02:33:16.31	6.98	76.40	-38.3	-41.5	3.6	8425849	95	3555
2026-01-09 02:33:16.71	6.78	76.59	-37.9	-39.9	3.4	8416809	94	3085
2026-01-09 02:33:17.12	6.56	76.79	-37.9	-40.9	3.6	8394207	94	3499
2026-01-09 02:33:17.52	6.35	76.98	-37.9	-39.6	3.5	8398979	94	2981
2026-01-09 02:33:17.92	6.13	77.17	-38.0	-41.2	3.6	8379066	94	3562
2026-01-09 02:33:18.32	5.90	77.36	-38.0	-40.1	3.5	8394092	94	3111
2026-01-09 02:33:18.72	5.66	77.55	-38.1	-41.6	3.6	8378654	94	3675
2026-01-09 02:33:19.12	5.42	77.75	-38.1	-40.3	3.5	8427303	94	3180
2026-01-09 02:33:19.53	5.16	77.94	-38.0	-41.5	3.6	8380039	94	3660
2026-01-09 02:33:19.93	4.90	78.13	-38.0	-40.1	3.5	8429260	94	3164
2026-01-09 02:33:20.33	4.63	78.33	-37.9	-40.8	3.6	8399276	94	3434
2026-01-09 02:33:20.73	4.35	78.52	-37.7	-39.6	3.7	8421146	93	3064
2026-01-09 02:33:21.13	4.06	78.71	-37.4	-38.3	3.8	8361579	93	2709
2026-01-09 02:33:21.54	3.75	78.91	-37.1	-37.7	4.1	8252517	92	2634
2026-01-09 02:33:21.94	3.44	79.10	-36.8	-36.8	4.4	8123291	92	2456
2026-01-09 02:33:22.34	3.12	79.29	-36.7	-36.9	4.6	7970569	91	2519
2026-01-09 02:33:22.74	2.79	79.48	-36.7	-36.8	4.7	7738483	91	2505
2026-01-09 02:33:23.15	2.43	79.67	-36.7	-37.0	4.6	7718536	91	2544
2026-01-09 02:33:23.55	2.07	79.87	-36.7	-37.0	4.7	7744308	91	2542
2026-01-09 02:33:23.95	1.70	80.06	-36.8	-37.3	4.6	7733848	91	2610
2026-01-09 02:33:24.35	1.31	80.25	-36.9	-37.5	4.6	7784271	91	2645
2026-01-09 02:33:24.75	0.90	80.44	-37.0	-38.0	4.5	7891078	91	2754
2026-01-09 02:33:25.16	0.47	80.63	-37.1	-38.4	4.4	7930297	91	2849
2026-01-09 02:33:25.56	0.03	80.82	-37.2	-38.6	4.3	8000221	91	2905
2026-01-09 02:33:25.96	359.57	81.01	-37.3	-39.2	4.1	8158081	91	3048
2026-01-09 02:33:26.36	359.10	81.20	-37.4	-39.5	4.0	8212360	91	3133
2026-01-09 02:33:26.76	358.60	81.39	-37.3	-39.2	4.1	8240592	91	3055
2026-01-09 02:33:27.17	358.06	81.58	-37.3	-39.0	4.1	8178222	91	3007
2026-01-09 02:33:27.57	357.51	81.76	-36.9	-37.9	4.5	8137802	91	2764
2026-01-09 02:33:27.97	356.94	81.95	-36.6	-36.9	5.0	7572097	91	2566
2026-01-09 02:33:28.37	356.34	82.14	-36.5	-36.8	5.1	7300758	91	2540
2026-01-09 02:33:28.77	355.71	82.32	-36.5	-36.7	5.2	7245334	91	2533
2026-01-09 02:33:29.18	355.03	82.51	-36.5	-36.8	5.1	7227687	91	2551
2026-01-09 02:33:29.58	354.34	82.69	-36.7	-37.2	5.0	7192691	91	2628
2026-01-09 02:33:29.98	353.61	82.88	-36.6	-37.0	5.1	7312637	91	2591
2026-01-09 02:33:30.38	352.84	83.06	-36.6	-37.2	5.0	7256870	91	2628
2026-01-09 02:33:30.79	352.00	83.24	-36.6	-36.9	5.2	7240184	91	2565
2026-01-09 02:33:31.19	351.15	83.42	-36.6	-37.0	5.2	7231349	91	2574
2026-01-09 02:33:31.59	350.24	83.60	-36.5	-36.9	5.2	7059253	91	2568
2026-01-09 02:33:31.99	349.28	83.77	-36.5	-36.8	5.2	7013339	91	2560
2026-01-09 02:33:32.40	348.24	83.95	-36.6	-37.1	5.1	6939239	91	2603
2026-01-09 02:33:32.80	347.17	84.12	-36.7	-37.4	5.0	7172882	91	2668
2026-01-09 02:33:33.20	346.03	84.29	-36.8	-37.7	4.8	7472888	91	2725
2026-01-09 02:33:33.60	344.82	84.46	-37.0	-38.1	4.7	7563171	91	2799
2026-01-09 02:33:34.00	343.54	84.62	-37.0	-38.2	4.6	7732543	91	2819
2026-01-09 02:33:34.41	342.14	84.79	-36.9	-37.8	4.7	7711017	91	2742
2026-01-09 02:33:34.81	340.68	84.95	-36.8	-37.5	4.9	7598979	91	2681
2026-01-09 02:33:35.21	339.13	85.10	-36.7	-37.3	5.0	7390617	91	2620
2026-01-09 02:33:35.61	337.49	85.26	-36.6	-37.0	5.2	7264423	91	2564
2026-01-09 02:33:36.01	335.73	85.40	-36.5	-36.8	5.3	7081684	91	2534
2026-01-09 02:33:36.42	333.81	85.55	-36.6	-37.0	5.1	6975723	91	2575
2026-01-09 02:33:36.82	331.81	85.69	-36.6	-37.0	5.1	7108875	91	2572
2026-01-09 02:33:37.22	329.68	85.82	-36.8	-37.3	4.9	7315681	91	2626
2026-01-09 02:33:37.62	327.42	85.95	-36.7	-37.1	5.0	7379470	91	2581
2026-01-09 02:33:38.03	324.95	86.07	-36.8	-37.4	4.9	7354637	91	2646
2026-01-09 02:33:38.43	322.39	86.18	-36.7	-37.3	4.9	7511157	91	2634
2026-01-09 02:33:38.83	319.69	86.28	-36.9	-37.7	4.7	7570335	91	2718
2026-01-09 02:33:39.23	316.83	86.38	-36.9	-37.8	4.7	7674327	91	2714
2026-01-09 02:33:39.64	313.75	86.47	-36.8	-37.6	4.9	7558444	91	2680
2026-01-09 02:33:40.04	310.60	86.54	-36.6	-37.0	5.2	7455837	91	2579
2026-01-09 02:33:40.44	307.33	86.61	-36.7	-37.3	5.1	7113704	91	2631
2026-01-09 02:33:40.84	303.93	86.66	-36.7	-37.2	5.1	7162261	91	2618
2026-01-09 02:33:41.24	300.44	86.70	-36.7	-37.2	5.1	7017539	91	2606
2026-01-09 02:33:41.65	296.79	86.73	-36.6	-36.9	5.2	6927337	91	2559
2026-01-09 02:33:42.05	293.17	86.75	-36.6	-36.9	5.2	7158222	91	2557
2026-01-09 02:33:42.45	289.54	86.75	-36.5	-36.8	5.3	7020812	91	2534
2026-01-09 02:33:42.85	285.91	86.74	-36.3	-36.2	5.6	5789909	91	2427
2026-01-09 02:33:43.26	282.23	86.71	-36.0	-36.1	5.6	4124267	90	2487
2026-01-09 02:33:43.66	278.71	86.68	-36.2	-36.6	5.4	4274219	90	2558
2026-01-09 02:33:44.06	275.28	86.63	-36.1	-36.2	5.5	5843559	90	2497
2026-01-09 02:33:44.46	271.96	86.57	-36.1	-36.4	5.4	5113220	90	2527
2026-01-09 02:33:44.86	268.76	86.50	-36.2	-36.3	5.4	6323226	90	2508
2026-01-09 02:33:45.27	265.63	86.41	-36.2	-36.4	5.3	6048591	90	2531
2026-01-09 02:33:45.67	262.72	86.32	-36.2	-36.5	5.3	6758502	90	2540
2026-01-09 02:33:46.07	259.96	86.22	-36.2	-36.4	5.3	6338241	90	2523
2026-01-09 02:33:46.47	257.35	86.11	-36.0	-36.1	5.5	6103946	90	2465
2026-01-09 02:33:46.87	254.88	85.99	-35.9	-35.7	5.7	4953655	90	2399
2026-01-09 02:33:47.28	252.51	85.87	-35.8	-35.5	5.7	4025447	90	2377
2026-01-09 02:33:47.68	250.33	85.74	-35.9	-35.8	5.7	3965446	90	2427
2026-01-09 02:33:48.08	248.29	85.60	-35.9	-35.8	5.6	4766510	90	2439
2026-01-09 02:33:48.48	246.37	85.46	-36.2	-36.8	5.1	5895595	90	2610
2026-01-09 02:33:48.89	244.52	85.31	-36.8	-38.3	4.4	7227893	90	2922
2026-01-09 02:33:49.29	242.83	85.16	-36.8	-38.4	4.3	8037631	90	2940
2026-01-09 02:33:49.69	241.25	85.00	-37.4	-39.4	4.0	8076072	91	3077
2026-01-09 02:33:50.09	239.76	84.85	-37.1	-38.5	4.3	8167762	91	2875
2026-01-09 02:33:50.49	238.36	84.69	-37.4	-39.1	4.1	8174583	91	3020
2026-01-09 02:33:50.90	237.01	84.52	-37.3	-38.5	4.1	8230339	92	2817
2026-01-09 02:33:51.30	235.78	84.35	-37.3	-38.4	4.1	8215965	92	2799
2026-01-09 02:33:51.70	234.61	84.18	-37.3	-38.6	4.1	8179458	92	2840
2026-01-09 02:33:52.10	233.52	84.01	-37.4	-38.7	4.1	8154716	92	2858
2026-01-09 02:33:52.51	232.45	83.83	-37.3	-38.6	4.1	8216743	92	2835
2026-01-09 02:33:52.91	231.48	83.66	-37.5	-39.2	3.9	8223129	92	2969
2026-01-09 02:33:53.31	230.55	83.48	-37.4	-38.9	4.0	8273506	92	2912
2026-01-09 02:33:53.71	229.68	83.30	-37.1	-37.9	4.3	8244850	92	2679
2026-01-09 02:33:54.12	228.83	83.12	-37.0	-37.5	4.4	8105770	92	2610
2026-01-09 02:33:54.52	228.04	82.94	-37.1	-37.7	4.4	7972663	92	2638
2026-01-09 02:33:54.92	227.30	82.76	-37.1	-37.8	4.3	7987415	92	2665
2026-01-09 02:33:55.32	226.59	82.58	-37.0	-37.4	4.4	8031543	92	2593
2026-01-09 02:33:55.72	225.92	82.39	-36.9	-37.2	4.6	7954067	92	2547
2026-01-09 02:33:56.13	225.26	82.20	-36.6	-37.0	4.9	7804927	91	2565
2026-01-09 02:33:56.53	224.65	82.02	-36.4	-36.4	5.1	7392826	91	2454
2026-01-09 02:33:56.93	224.07	81.83	-36.5	-36.6	5.0	7317249	91	2500
2026-01-09 02:33:57.33	223.51	81.64	-36.7	-37.3	4.8	7363391	91	2621
2026-01-09 02:33:57.73	222.98	81.46	-36.8	-37.5	4.6	7578037	91	2661
2026-01-09 02:33:58.14	222.46	81.26	-36.8	-37.7	4.5	7776752	91	2725
2026-01-09 02:33:58.54	221.97	81.07	-37.2	-38.6	4.2	8063850	91	2909
2026-01-09 02:33:58.94	221.51	80.89	-37.1	-38.5	4.2	8148674	91	2880
2026-01-09 02:33:59.34	221.06	80.70	-37.0	-38.0	4.4	8177558	91	2788
2026-01-09 02:33:59.74	220.63	80.51	-37.1	-38.5	4.2	8086406	91	2893
2026-01-09 02:34:00.15	220.21	80.31	-36.7	-37.3	4.6	8001113	91	2645
2026-01-09 02:34:00.55	219.82	80.12	-36.4	-36.6	5.0	7829521	91	2505
2026-01-09 02:34:00.95	219.44	79.93	-36.1	-36.3	5.1	7349899	90	2532
2026-01-09 02:34:01.35	219.07	79.74	-35.8	-36.1	5.6	6057826	89	2550
2026-01-09 02:34:01.76	218.71	79.54	-35.4	-35.3	6.0	3618415	89	2421
2026-01-09 02:34:02.16	218.37	79.35	-35.1	-35.0	6.4	3091770	88	2426
2026-01-09 02:34:02.56	218.05	79.16	-35.2	-35.3	6.3	2733432	88	2494
2026-01-09 02:34:02.96	217.73	78.97	-35.1	-35.0	6.3	2657958	88	2421
2026-01-09 02:34:03.36	217.43	78.78	-34.8	-34.3	6.7	2693195	88	2323
2026-01-09 02:34:03.77	217.13	78.58	-34.7	-34.7	6.8	2107864	87	2435
2026-01-09 02:34:04.17	216.85	78.39	-34.6	-34.3	7.0	1913074	87	2389
2026-01-09 02:34:04.57	216.57	78.20	-34.6	-34.2	6.9	1737430	87	2371
2026-01-09 02:34:04.97	216.31	78.01	-34.4	-33.8	7.1	1527488	87	2299
2026-01-09 02:34:05.37	216.05	77.81	-33.9	-33.3	7.3	1366584	86	2301
2026-01-09 02:34:05.78	215.80	77.62	-33.9	-33.9	7.3	1194431	85	2454
2026-01-09 02:34:06.18	215.56	77.42	-33.9	-33.8	7.3	1299156	85	2430
2026-01-09 02:34:06.58	215.33	77.23	-33.7	-33.5	7.5	1307922	85	2381
2026-01-09 02:34:06.98	215.10	77.04	-33.7	-33.5	7.5	1225135	85	2392
2026-01-09 02:34:07.39	214.88	76.84	-33.7	-33.4	7.5	1242187	85	2379
2026-01-09 02:34:07.79	214.67	76.65	-33.5	-33.1	7.7	1075950	85	2334
2026-01-09 02:34:08.19	214.46	76.46	-33.2	-32.9	8.1	772636	84	2380
2026-01-09 02:34:08.59	214.26	76.27	-32.9	-32.7	8.7	555313	83	2412
2026-01-09 02:34:09.00	214.06	76.07	-32.5	-32.0	9.2	375835	83	2313
2026-01-09 02:34:09.40	213.88	75.88	-32.3	-31.6	9.5	202194	83	2257
2026-01-09 02:34:09.80	213.69	75.69	-32.4	-32.2	9.6	165390	82	2408
2026-01-09 02:34:10.20	213.52	75.50	-32.3	-32.0	9.8	127029	82	2381
2026-01-09 02:34:10.61	213.34	75.30	-32.1	-31.6	10.0	115081	82	2331
2026-01-09 02:34:11.01	213.17	75.11	-31.9	-31.1	10.3	96393	82	2267
2026-01-09 02:34:11.41	213.01	74.92	-31.8	-31.4	10.5	58731	81	2372
2026-01-09 02:34:11.81	212.85	74.73	-31.7	-31.3	10.6	50571	81	2356
2026-01-09 02:34:12.21	212.69	74.54	-31.8	-31.6	10.6	48259	81	2400
2026-01-09 02:34:12.62	212.54	74.35	-31.9	-31.7	10.5	49037	81	2425
2026-01-09 02:34:13.02	212.39	74.16	-32.0	-32.0	10.3	53180	81	2476
2026-01-09 02:34:13.42	212.25	73.97	-32.0	-32.0	10.3	68962	81	2468
2026-01-09 02:34:13.82	212.10	73.78	-31.8	-31.7	10.3	70426	81	2430
2026-01-09 02:34:14.23	211.96	73.58	-31.6	-31.2	10.6	65002	81	2350
2026-01-09 02:34:14.63	211.83	73.39	-31.3	-30.5	11.0	35923	81	2241
2026-01-09 02:34:15.03	211.70	73.20	-31.0	-30.4	11.4	21457	80	2291
2026-01-09 02:34:15.43	211.57	73.01	-30.5	-29.9	11.8	8914	79	2286
2026-01-09 02:34:15.84	211.45	72.82	-30.3	-29.4	11.9	7289	79	2223
2026-01-09 02:34:16.24	211.32	72.63	-30.3	-29.9	12.0	5115	78	2352
2026-01-09 02:34:16.64	211.21	72.44	-30.3	-29.9	11.9	5676	78	2342
2026-01-09 02:34:17.04	211.09	72.26	-30.3	-29.9	11.7	7221	78	2348
2026-01-09 02:34:17.44	210.98	72.07	-30.2	-29.7	11.7	7907	78	2310
2026-01-09 02:34:17.85	210.86	71.88	-30.1	-29.3	11.8	8377	78	2259
2026-01-09 02:34:18.25	210.76	71.69	-29.9	-28.9	12.1	7049	78	2205
2026-01-09 02:34:18.65	210.65	71.50	-29.7	-29.0	12.3	3582	77	2288
2026-01-09 02:34:19.05	210.55	71.32	-29.5	-28.8	12.4	2758	77	2255
2026-01-09 02:34:19.46	210.44	71.13	-29.4	-28.5	12.5	2231	77	2216
2026-01-09 02:34:19.86	210.34	70.94	-29.4	-28.6	12.5	1682	77	2225
2026-01-09 02:34:20.26	210.24	70.75	-29.4	-28.4	12.6	2048	77	2201
2026-01-09 02:34:20.66	210.15	70.57	-29.4	-28.6	12.5	1750	77	2229

#Closed at: 2026-01-09 02:34:21