passes_logs/2026/01/09/XPeterburg/XPeterburg__20260109_090418_FENGYUN_3F_rec.log

#Pass ID: 20260109_090418_FENGYUN 3F
#Satellite: FENGYUN 3F
#Configuration: FENGYUN 3F
#Start time: 2026-01-09 09:04:11

#Version: 1.5.20200625
#Station: XPeterburg
#Location: 30.318091 lon 59.932769 lat
#TLE: 1 57490U 23111A   25359.20461847  .00000075  00000+0  55793-4 0  9993
#TLE: 2 57490  98.7067  67.2960 0000833 117.6209 242.5052 14.19896763124173

#Time	Az	El	Level	Level2	SNR	BER	Gain	Gain2
2026-01-09 09:04:11.98	38.31	67.46	-38.8	-40.8	3.3	8398429	95	6179
2026-01-09 09:04:12.38	38.50	67.63	-38.5	-41.4	3.5	8453521	94	6876
2026-01-09 09:04:12.78	38.68	67.80	-38.4	-40.2	3.3	8401016	94	6041
2026-01-09 09:04:13.18	38.87	67.97	-38.4	-41.1	3.6	8447181	95	6657
2026-01-09 09:04:13.59	39.06	68.14	-38.4	-39.6	3.3	8365345	95	5654
2026-01-09 09:04:13.99	39.25	68.31	-38.6	-41.6	3.6	8365470	95	6931
2026-01-09 09:04:14.39	39.45	68.48	-38.7	-40.4	3.3	8417816	95	6004
2026-01-09 09:04:14.79	39.65	68.65	-38.7	-42.1	3.6	8422084	95	7239
2026-01-09 09:04:15.19	39.85	68.82	-38.7	-40.5	3.3	8378757	95	6041
2026-01-09 09:04:15.60	40.07	69.00	-38.6	-41.6	3.6	8384593	95	6945
2026-01-09 09:04:16.00	40.28	69.17	-38.5	-39.9	3.3	8431686	95	5791
2026-01-09 09:04:16.40	40.49	69.34	-38.4	-40.9	3.6	8388175	95	6578
2026-01-09 09:04:16.80	40.71	69.51	-38.5	-39.9	3.3	8422439	95	5789
2026-01-09 09:04:17.20	40.93	69.68	-38.4	-41.1	3.6	8392684	95	6692
2026-01-09 09:04:17.61	41.16	69.85	-38.3	-39.6	3.4	8437156	95	5714
2026-01-09 09:04:18.01	41.39	70.02	-38.4	-39.4	3.3	8394218	95	5544
2026-01-09 09:04:18.41	41.63	70.19	-38.5	-40.3	3.4	8435840	95	6084
2026-01-09 09:04:18.81	41.87	70.36	-38.6	-40.0	3.3	8401576	95	5820
2026-01-09 09:04:19.21	42.11	70.53	-38.6	-41.1	3.5	8447181	95	6571
2026-01-09 09:04:19.62	42.36	70.70	-38.6	-40.2	3.3	8392639	95	5937
2026-01-09 09:04:20.02	42.62	70.87	-38.6	-41.2	3.6	8446208	95	6661
2026-01-09 09:04:20.42	42.87	71.04	-38.5	-39.9	3.3	8424636	95	5764
2026-01-09 09:04:20.82	43.14	71.21	-38.6	-41.5	3.6	8418880	95	6866
2026-01-09 09:04:21.22	43.40	71.38	-38.6	-40.1	3.3	8418411	95	5875
2026-01-09 09:04:21.63	43.68	71.56	-38.6	-41.6	3.6	8421340	95	6960
2026-01-09 09:04:22.03	43.96	71.73	-38.5	-40.0	3.3	8392204	95	5846
2026-01-09 09:04:22.43	44.24	71.90	-38.5	-41.3	3.6	8393646	95	6825
2026-01-09 09:04:22.83	44.53	72.07	-38.5	-40.1	3.3	8423126	95	5906
2026-01-09 09:04:23.23	44.83	72.24	-38.6	-41.8	3.6	8407905	95	7142
2026-01-09 09:04:23.64	45.13	72.41	-38.6	-40.4	3.3	8420551	95	6071
2026-01-09 09:04:24.04	45.44	72.58	-38.6	-41.8	3.6	8395225	95	7148
2026-01-09 09:04:24.44	45.76	72.75	-38.6	-40.5	3.4	8447765	95	6155
2026-01-09 09:04:24.84	46.07	72.91	-38.6	-41.8	3.6	8386390	95	7087
2026-01-09 09:04:25.24	46.40	73.08	-38.7	-40.8	3.4	8431949	95	6333
2026-01-09 09:04:25.64	46.73	73.25	-38.6	-40.3	3.3	8393371	95	5954
2026-01-09 09:04:26.04	47.07	73.42	-38.6	-40.8	3.4	8439056	95	6348
2026-01-09 09:04:26.45	47.43	73.59	-38.6	-40.2	3.3	8385932	95	5916
2026-01-09 09:04:26.85	47.79	73.75	-38.6	-41.0	3.5	8437477	95	6506
2026-01-09 09:04:27.25	48.15	73.92	-38.6	-40.2	3.3	8382316	95	5883
2026-01-09 09:04:27.65	48.52	74.09	-38.8	-41.4	3.6	8406509	96	6671
2026-01-09 09:04:28.05	48.90	74.25	-38.9	-40.7	3.3	8411281	95	6052
2026-01-09 09:04:28.46	49.30	74.42	-38.7	-41.6	3.6	8367553	95	6893
2026-01-09 09:04:28.86	49.69	74.59	-38.7	-40.1	3.3	8413124	95	5775
2026-01-09 09:04:29.26	50.10	74.75	-38.8	-41.9	3.6	8395854	95	7048
2026-01-09 09:04:29.66	50.51	74.91	-38.9	-40.7	3.3	8435462	95	6091
2026-01-09 09:04:30.06	50.93	75.08	-38.9	-42.3	3.6	8412311	95	7227
2026-01-09 09:04:30.46	51.37	75.24	-38.9	-40.9	3.3	8429706	95	6213
2026-01-09 09:04:30.87	51.82	75.40	-39.0	-42.7	3.6	8396369	95	7526
2026-01-09 09:04:31.27	52.27	75.57	-39.1	-41.4	3.4	8378826	96	6365
2026-01-09 09:04:31.67	52.74	75.73	-39.0	-42.2	3.6	8392250	96	7095
2026-01-09 09:04:32.07	53.21	75.89	-39.0	-41.0	3.4	8436309	96	6242
2026-01-09 09:04:32.47	53.70	76.04	-38.9	-40.2	3.3	8404563	96	5763
2026-01-09 09:04:32.88	54.21	76.21	-38.9	-40.8	3.4	8447250	96	6119
2026-01-09 09:04:33.28	54.72	76.36	-39.0	-40.5	3.3	8397148	96	5915
2026-01-09 09:04:33.68	55.24	76.52	-38.9	-40.9	3.4	8442203	96	6220
2026-01-09 09:04:34.08	55.78	76.68	-38.9	-40.3	3.3	8386631	96	5744
2026-01-09 09:04:34.48	56.32	76.83	-38.9	-41.3	3.5	8420482	96	6501
2026-01-09 09:04:34.88	56.88	76.98	-38.9	-40.5	3.3	8404563	96	5891
2026-01-09 09:04:35.29	57.47	77.14	-38.9	-41.7	3.6	8438186	96	6799
2026-01-09 09:04:35.69	58.06	77.29	-38.9	-40.6	3.3	8391860	96	5945
2026-01-09 09:04:36.09	58.66	77.44	-39.0	-42.2	3.6	8444229	96	7121
2026-01-09 09:04:36.49	59.28	77.59	-38.9	-40.8	3.3	8420642	96	6077
2026-01-09 09:04:36.89	59.92	77.74	-39.0	-42.2	3.6	8406864	96	7158
2026-01-09 09:04:37.30	60.58	77.89	-38.9	-40.7	3.3	8419052	96	6025
2026-01-09 09:04:37.70	61.25	78.03	-38.8	-42.1	3.6	8428585	96	7174
2026-01-09 09:04:38.10	61.93	78.17	-38.8	-40.6	3.3	8442569	96	6021
2026-01-09 09:04:38.50	62.63	78.32	-38.8	-42.2	3.6	8389743	95	7327
2026-01-09 09:04:38.90	63.35	78.46	-38.7	-40.8	3.4	8430564	95	6315
2026-01-09 09:04:39.30	64.08	78.59	-38.7	-42.4	3.6	8397056	95	7488
2026-01-09 09:04:39.71	64.85	78.73	-38.7	-41.4	3.4	8450225	95	6655
2026-01-09 09:04:40.11	65.62	78.87	-38.6	-40.5	3.3	8394561	95	6104
2026-01-09 09:04:40.51	66.42	79.00	-38.4	-40.4	3.5	8439937	95	6152
2026-01-09 09:04:40.91	67.23	79.13	-38.4	-39.5	3.4	8379718	95	5612
2026-01-09 09:04:41.31	68.06	79.26	-38.6	-41.2	3.5	8432819	95	6616
2026-01-09 09:04:41.71	68.91	79.39	-38.7	-40.6	3.3	8404953	95	6084
2026-01-09 09:04:42.12	69.80	79.51	-38.6	-41.3	3.6	8422748	95	6693
2026-01-09 09:04:42.52	70.70	79.64	-38.7	-40.5	3.3	8403945	95	6015
2026-01-09 09:04:42.92	71.61	79.76	-38.9	-42.7	3.6	8384422	95	7595
2026-01-09 09:04:43.32	72.55	79.87	-39.0	-41.5	3.3	8424980	95	6551
2026-01-09 09:04:43.72	73.50	79.99	-39.0	-42.7	3.6	8395603	95	7571
2026-01-09 09:04:44.13	74.51	80.10	-39.0	-41.2	3.3	8407447	95	6370
2026-01-09 09:04:44.53	75.51	80.21	-38.9	-42.3	3.6	8358375	95	7339
2026-01-09 09:04:44.93	76.54	80.31	-39.0	-41.4	3.3	8446254	95	6511
2026-01-09 09:04:45.33	77.59	80.42	-38.9	-42.3	3.6	8387134	95	7338
2026-01-09 09:04:45.73	78.66	80.52	-38.8	-40.7	3.3	8433849	95	6122
2026-01-09 09:04:46.13	79.75	80.61	-38.8	-41.9	3.6	8397972	95	7027
2026-01-09 09:04:46.54	80.90	80.71	-38.7	-40.3	3.4	8414829	95	5958
2026-01-09 09:04:46.94	82.04	80.80	-38.7	-41.5	3.6	8400638	95	6789
2026-01-09 09:04:47.34	83.20	80.88	-38.7	-40.6	3.4	8438953	95	6100
2026-01-09 09:04:47.74	84.38	80.96	-38.7	-40.2	3.3	8386756	95	5855
2026-01-09 09:04:48.14	85.59	81.04	-38.8	-41.0	3.5	8385234	95	6333
2026-01-09 09:04:48.55	86.84	81.12	-38.9	-40.5	3.3	8403327	95	5932
2026-01-09 09:04:48.95	88.09	81.19	-38.7	-41.0	3.5	8360137	95	6405
2026-01-09 09:04:49.35	89.36	81.25	-38.6	-39.7	3.3	8397583	95	5589
2026-01-09 09:04:49.75	90.64	81.31	-38.3	-40.1	3.7	8422130	95	6018
2026-01-09 09:04:50.15	91.94	81.37	-37.9	-38.4	3.5	8415836	94	5202
2026-01-09 09:04:50.56	93.30	81.43	-38.1	-40.3	3.6	8387844	94	6375
2026-01-09 09:04:50.96	94.63	81.47	-38.1	-39.0	3.5	8401828	94	5468
2026-01-09 09:04:51.36	95.98	81.52	-38.1	-40.3	3.6	8415779	94	6347
2026-01-09 09:04:51.76	97.34	81.56	-38.2	-39.2	3.4	8425163	94	5554
2026-01-09 09:04:52.16	98.72	81.59	-38.2	-40.9	3.6	8382064	94	6682
2026-01-09 09:04:52.57	100.14	81.62	-38.3	-39.7	3.4	8433071	94	5787
2026-01-09 09:04:52.97	101.54	81.64	-38.3	-41.0	3.6	8395763	94	6711
2026-01-09 09:04:53.37	102.94	81.66	-38.0	-39.0	3.5	8405273	94	5479
2026-01-09 09:04:53.77	104.35	81.68	-37.9	-39.8	3.6	8376869	94	6107
2026-01-09 09:04:54.17	105.76	81.69	-38.0	-39.1	3.5	8432785	94	5584
2026-01-09 09:04:54.58	107.21	81.69	-38.2	-40.7	3.6	8385761	94	6558
2026-01-09 09:04:54.98	108.62	81.69	-38.0	-39.1	3.6	8430141	94	5592
2026-01-09 09:04:55.38	110.04	81.68	-38.0	-38.6	3.5	8371181	94	5302
2026-01-09 09:04:55.78	111.45	81.67	-38.0	-39.3	3.6	8419223	94	5719
2026-01-09 09:04:56.18	112.86	81.66	-38.2	-39.4	3.4	8372623	94	5658
2026-01-09 09:04:56.58	114.26	81.64	-38.3	-40.7	3.5	8439216	94	6444
2026-01-09 09:04:56.98	115.65	81.61	-38.2	-39.4	3.3	8384754	94	5625
2026-01-09 09:04:57.39	117.07	81.58	-38.1	-40.2	3.7	8413982	94	6276
2026-01-09 09:04:57.79	118.44	81.55	-38.1	-39.0	3.4	8403511	94	5454
2026-01-09 09:04:58.19	119.80	81.50	-38.0	-40.2	3.6	8427967	94	6307
2026-01-09 09:04:58.59	121.15	81.46	-38.0	-38.9	3.4	8391620	94	5416
2026-01-09 09:04:58.99	122.48	81.41	-38.3	-40.9	3.6	8381092	94	6701
2026-01-09 09:04:59.39	123.79	81.36	-38.3	-39.6	3.4	8418056	94	5757
2026-01-09 09:04:59.80	125.12	81.30	-38.4	-41.4	3.6	8388759	94	6931
2026-01-09 09:05:00.20	126.40	81.23	-38.5	-40.4	3.3	8425952	94	6104
2026-01-09 09:05:00.60	127.66	81.17	-38.5	-41.6	3.6	8393760	94	7095
2026-01-09 09:05:01.00	128.91	81.10	-38.3	-39.9	3.4	8424304	94	5926
2026-01-09 09:05:01.40	130.13	81.02	-38.1	-40.3	3.6	8386081	94	6344
2026-01-09 09:05:01.81	131.36	80.94	-38.1	-39.2	3.5	8414943	94	5623
2026-01-09 09:05:02.21	132.53	80.86	-38.3	-39.6	3.4	8408363	94	5727
2026-01-09 09:05:02.61	133.69	80.77	-38.2	-39.8	3.4	8442890	94	5927
2026-01-09 09:05:03.01	134.82	80.68	-37.8	-37.9	3.4	8401107	94	5013
2026-01-09 09:05:03.41	135.93	80.59	-38.0	-39.9	3.7	8423755	93	6123
2026-01-09 09:05:03.82	137.05	80.49	-38.3	-39.9	3.4	8380554	93	5918
2026-01-09 09:05:04.22	138.12	80.39	-38.4	-41.2	3.6	8415470	94	6770
2026-01-09 09:05:04.62	139.16	80.28	-38.4	-39.9	3.3	8416408	94	5848
2026-01-09 09:05:05.02	140.18	80.18	-38.4	-41.3	3.6	8429798	94	6882
2026-01-09 09:05:05.42	141.18	80.07	-38.5	-40.1	3.3	8403430	94	5933
2026-01-09 09:05:05.83	142.18	79.95	-38.5	-41.6	3.6	8440464	94	6993
2026-01-09 09:05:06.23	143.13	79.84	-38.4	-39.8	3.3	8418411	94	5791
2026-01-09 09:05:06.63	144.06	79.72	-38.2	-40.6	3.6	8404346	94	6501
2026-01-09 09:05:07.03	144.97	79.60	-38.1	-38.8	3.4	8410423	94	5355
2026-01-09 09:05:07.43	145.86	79.48	-38.1	-40.5	3.6	8400833	94	6436
2026-01-09 09:05:07.84	146.74	79.35	-38.4	-40.0	3.3	8430793	94	5886
2026-01-09 09:05:08.24	147.59	79.22	-38.4	-41.3	3.6	8392066	94	6869
2026-01-09 09:05:08.64	148.41	79.09	-38.1	-39.3	3.4	8427589	94	5664
2026-01-09 09:05:09.04	149.22	78.96	-37.9	-39.9	3.6	8384548	94	6147
2026-01-09 09:05:09.44	150.01	78.83	-38.0	-39.1	3.5	8433368	94	5589
2026-01-09 09:05:09.84	150.77	78.69	-38.1	-39.1	3.4	8394927	94	5505
2026-01-09 09:05:10.24	151.52	78.56	-38.0	-39.2	3.5	8440532	94	5684
2026-01-09 09:05:10.65	152.27	78.41	-37.8	-38.1	3.4	8379581	94	5118
2026-01-09 09:05:11.05	152.98	78.27	-38.0	-40.0	3.6	8419624	93	6232
2026-01-09 09:05:11.45	153.68	78.13	-38.3	-40.2	3.4	8402801	93	6119
2026-01-09 09:05:11.85	154.36	77.99	-38.7	-42.2	3.6	8420322	94	7379
2026-01-09 09:05:12.26	155.03	77.84	-38.7	-41.0	3.3	8403350	94	6429
2026-01-09 09:05:12.66	155.68	77.69	-38.6	-41.8	3.6	8378448	95	7049
2026-01-09 09:05:13.06	156.31	77.54	-38.7	-40.2	3.3	8369407	95	5855
2026-01-09 09:05:13.46	156.92	77.39	-38.4	-41.1	3.6	8328231	95	6731
2026-01-09 09:05:13.86	157.52	77.24	-38.5	-40.1	3.4	8421432	95	5916
2026-01-09 09:05:14.27	158.12	77.09	-38.5	-41.3	3.6	8405353	95	6853
2026-01-09 09:05:14.67	158.69	76.94	-37.9	-38.9	3.4	8388072	94	5540
2026-01-09 09:05:15.07	159.25	76.78	-37.6	-39.7	3.7	8388576	93	6279
2026-01-09 09:05:15.47	159.79	76.63	-37.7	-39.3	3.7	8420333	93	5871
2026-01-09 09:05:15.87	160.32	76.47	-37.9	-39.3	3.5	8381893	93	5807
2026-01-09 09:05:16.28	160.86	76.31	-37.7	-39.2	3.7	8406234	93	5834
2026-01-09 09:05:16.68	161.36	76.15	-37.6	-38.4	3.7	8375598	93	5378
2026-01-09 09:05:17.08	161.86	75.99	-37.7	-38.6	3.6	8359760	93	5498
2026-01-09 09:05:17.48	162.34	75.83	-37.8	-40.5	3.6	8388816	93	6698
2026-01-09 09:05:17.88	162.81	75.67	-37.6	-38.5	3.6	8382740	93	5434
2026-01-09 09:05:18.28	163.27	75.51	-37.4	-39.1	3.7	8360641	93	6003
2026-01-09 09:05:18.69	163.73	75.35	-37.2	-38.1	3.9	8392845	92	5470
2026-01-09 09:05:19.09	164.17	75.19	-37.1	-37.5	3.9	8305355	92	5118
2026-01-09 09:05:19.49	164.60	75.02	-36.9	-36.8	4.1	8257724	92	4865
2026-01-09 09:05:19.89	165.03	74.86	-36.9	-36.9	4.0	8241920	92	4895
2026-01-09 09:05:20.29	165.44	74.70	-37.1	-37.3	3.9	8267017	92	5032
2026-01-09 09:05:20.70	165.85	74.53	-37.1	-37.3	3.9	8293567	92	5050
2026-01-09 09:05:21.10	166.24	74.36	-37.2	-37.5	3.8	8314979	92	5098
2026-01-09 09:05:21.50	166.63	74.20	-37.2	-37.4	3.8	8317291	92	5079
2026-01-09 09:05:21.90	167.00	74.03	-37.2	-38.3	4.0	8384147	92	5612
2026-01-09 09:05:22.30	167.37	73.86	-37.1	-37.3	3.8	8328403	92	5028
2026-01-09 09:05:22.70	167.73	73.70	-36.8	-36.7	4.0	8277820	92	4815
2026-01-09 09:05:23.11	168.10	73.53	-36.9	-37.2	4.0	8239688	91	5108
2026-01-09 09:05:23.51	168.44	73.36	-36.9	-37.3	4.0	8219020	91	5158
2026-01-09 09:05:23.91	168.78	73.19	-36.7	-36.8	4.1	8242824	91	4973
2026-01-09 09:05:24.31	169.11	73.02	-36.6	-36.6	4.2	8173255	91	4913
2026-01-09 09:05:24.71	169.44	72.86	-36.7	-36.8	4.1	8186599	91	4969
2026-01-09 09:05:25.11	169.75	72.69	-36.8	-37.1	4.0	8223609	91	5085
2026-01-09 09:05:25.51	170.07	72.52	-36.8	-36.9	4.1	8220577	91	5032
2026-01-09 09:05:25.92	170.38	72.34	-36.8	-37.1	4.0	8214042	91	5099
2026-01-09 09:05:26.32	170.68	72.18	-36.8	-37.0	4.1	8208515	91	5069
2026-01-09 09:05:26.72	170.97	72.01	-36.7	-36.8	4.1	8201934	91	4989
2026-01-09 09:05:27.12	171.26	71.84	-36.7	-36.8	4.1	8194622	91	4976
2026-01-09 09:05:27.53	171.55	71.66	-36.8	-37.1	4.0	8231128	91	5109
2026-01-09 09:05:27.93	171.82	71.49	-36.9	-37.6	3.9	8262737	91	5303
2026-01-09 09:05:28.33	172.09	71.32	-37.0	-37.7	3.8	8293807	91	5381
2026-01-09 09:05:28.73	172.36	71.15	-37.0	-39.3	3.7	8303283	91	6365
2026-01-09 09:05:29.13	172.62	70.98	-37.1	-38.3	3.8	8382316	91	5637
2026-01-09 09:05:29.54	172.88	70.81	-37.4	-40.3	3.7	8346725	91	6894
2026-01-09 09:05:29.94	173.13	70.64	-37.5	-39.0	3.6	8403820	92	5857
2026-01-09 09:05:30.34	173.38	70.47	-38.4	-42.3	3.6	8376651	94	7680
2026-01-09 09:05:30.74	173.62	70.30	-38.6	-41.7	3.4	8443874	94	7097
2026-01-09 09:05:31.14	173.86	70.13	-38.6	-41.6	3.3	8388668	94	6958

#Closed at: 2026-01-09 09:05:31