passes_logs/2026/01/29/R3.2S_Murmansk/R3.2S_Murmansk__20260129_002933_NOAA_20_JPSS-1_rec.log

#Pass ID: 20260129_002933_NOAA 20 (JPSS-1)
#Satellite: NOAA 20 (JPSS-1)
#Configuration: NOAA 20
#almurnet v.1.7.20251203
#Start time: 2026-01-29 00:29:35

#Version: 2.2.20231116
#Station: R3.2S_Murmansk
#Location: 33.079688 lon 68.888172 lat
#TLE: 1 43013U 17073A   26027.94683596  .00000137  00000+0  85741-4 0  9995
#TLE: 2 43013  98.7648 328.7503 0000940  21.3928 338.7287 14.19541154424576

#Time	Az	El	Level	Level2	SNR	BER	BlckErr	Temp	State	Recorded	gain1	gain2
2026-01-29 00:29:35.23	23.80	2.09	-53.3	-68.2	3.8	1.49e+00	0	40	0	0	78	19827
2026-01-29 00:29:39.26	23.84	2.35	-51.9	-66.8	3.8	1.49e+00	0	40	104	0	75	20063
2026-01-29 00:29:43.29	23.87	2.61	-51.9	-66.8	3.8	1.49e+00	0	40	104	0	75	19891
2026-01-29 00:29:47.32	23.91	2.87	-51.9	-66.7	3.8	1.49e+00	0	41	104	0	75	19727
2026-01-29 00:29:51.34	23.95	3.14	-51.8	-66.7	3.8	1.49e+00	0	41	104	0	75	19662
2026-01-29 00:29:55.38	23.99	3.41	-51.8	-66.2	3.8	1.49e+00	0	41	104	0	75	18599
2026-01-29 00:29:59.40	24.02	3.68	-51.7	-63.8	4.0	1.49e+00	0	41	104	0	75	14202
2026-01-29 00:30:03.43	24.06	3.95	-51.2	-59.5	6.1	4.29e-01	0	41	0	4194304	74	9146
2026-01-29 00:30:07.47	24.10	4.23	-50.3	-55.7	9.9	1.31e-02	0	41	0	12582912	72	6595
2026-01-29 00:30:11.50	24.14	4.51	-49.8	-54.1	11.5	6.29e-04	0	41	0	19922944	71	5847
2026-01-29 00:30:15.53	24.18	4.79	-50.2	-55.3	10.4	4.29e-03	0	41	0	27262976	71	6656
2026-01-29 00:30:19.56	24.22	5.07	-49.1	-52.6	12.9	7.14e-02	0	41	0	34603008	70	5206
2026-01-29 00:30:23.59	24.26	5.36	-50.8	-55.4	11.0	1.50e-06	0	41	0	39845888	71	6795
2026-01-29 00:30:27.62	24.30	5.65	-48.1	-50.8	15.1	0.00e+00	0	41	0	47185920	68	4732
2026-01-29 00:30:31.64	24.35	5.95	-47.5	-49.8	16.2	0.00e+00	0	41	0	54525952	66	4724
2026-01-29 00:30:35.68	24.39	6.25	-47.1	-49.3	16.7	0.00e+00	0	41	0	61865984	66	4473
2026-01-29 00:30:39.71	24.43	6.55	-47.6	-49.9	16.1	0.00e+00	0	41	0	70254592	66	4805
2026-01-29 00:30:43.74	24.47	6.85	-47.2	-49.3	16.8	0.00e+00	0	41	0	77594624	66	4483
2026-01-29 00:30:47.77	24.52	7.16	-47.1	-49.2	16.9	0.00e+00	0	42	0	84934656	66	4426
2026-01-29 00:30:51.80	24.56	7.47	-47.1	-49.2	17.0	0.00e+00	0	42	0	92274688	65	4673
2026-01-29 00:30:55.83	24.61	7.79	-47.0	-49.1	17.1	0.00e+00	0	42	0	99614720	65	4614
2026-01-29 00:30:59.86	24.65	8.11	-46.8	-48.7	17.5	0.00e+00	0	42	0	108003328	65	4410
2026-01-29 00:31:03.89	24.70	8.44	-46.8	-48.7	17.5	0.00e+00	0	42	0	115343360	65	4424
2026-01-29 00:31:07.92	24.75	8.76	-46.6	-48.4	17.8	0.00e+00	0	42	0	122683392	65	4289
2026-01-29 00:31:11.96	24.79	9.10	-46.5	-48.3	18.0	0.00e+00	0	42	0	130023424	64	4460
2026-01-29 00:31:15.99	24.84	9.44	-46.5	-48.2	18.1	0.00e+00	0	42	0	138412032	64	4438
2026-01-29 00:31:20.02	24.89	9.78	-46.3	-48.0	18.4	0.00e+00	0	42	0	145752064	64	4292
2026-01-29 00:31:24.05	24.94	10.13	-46.2	-47.9	18.4	0.00e+00	0	42	0	153092096	64	4287
2026-01-29 00:31:28.09	24.99	10.48	-46.1	-47.7	18.7	0.00e+00	0	42	0	160432128	64	4162
2026-01-29 00:31:32.12	25.04	10.84	-46.0	-47.6	18.9	0.00e+00	0	42	0	167772160	63	4371
2026-01-29 00:31:36.14	25.10	11.20	-46.0	-47.6	18.9	0.00e+00	0	42	0	176160768	63	4376
2026-01-29 00:31:40.18	25.15	11.57	-46.0	-47.6	19.0	0.00e+00	0	42	0	183500800	63	4355
2026-01-29 00:31:44.21	25.20	11.94	-45.8	-47.3	19.3	0.00e+00	0	42	0	190840832	63	4217
2026-01-29 00:31:48.24	25.26	12.32	-45.8	-47.3	19.3	0.00e+00	0	42	0	198180864	63	4224
2026-01-29 00:31:52.28	25.31	12.71	-45.7	-47.2	19.4	0.00e+00	0	42	0	205520896	63	4166
2026-01-29 00:31:56.31	25.37	13.10	-45.7	-47.2	19.4	0.00e+00	0	42	0	213909504	63	4182
2026-01-29 00:32:00.35	25.43	13.50	-45.7	-47.1	19.5	0.00e+00	0	42	0	221249536	63	4135
2026-01-29 00:32:04.38	25.49	13.90	-45.6	-47.1	19.6	0.00e+00	0	42	0	228589568	63	4120
2026-01-29 00:32:08.41	25.55	14.31	-45.6	-47.0	19.7	0.00e+00	0	42	0	235929600	63	4072
2026-01-29 00:32:12.44	25.61	14.73	-45.6	-47.1	19.6	0.00e+00	0	42	0	244318208	63	4116
2026-01-29 00:32:16.48	25.67	15.16	-45.6	-47.1	19.7	0.00e+00	0	42	0	251658240	63	4099
2026-01-29 00:32:20.51	25.73	15.59	-45.6	-47.1	19.7	0.00e+00	0	42	0	258998272	63	4102
2026-01-29 00:32:24.54	25.80	16.03	-45.5	-46.9	19.8	0.00e+00	0	42	0	266338304	63	4045
2026-01-29 00:32:28.57	25.87	16.48	-45.6	-47.0	19.8	0.00e+00	0	42	0	273678336	63	4079
2026-01-29 00:32:32.60	25.93	16.94	-45.5	-46.9	19.8	0.00e+00	0	42	0	282066944	62	4285
2026-01-29 00:32:36.63	26.00	17.41	-45.6	-47.0	19.8	0.00e+00	0	42	0	289406976	62	4311
2026-01-29 00:32:40.66	26.08	17.88	-45.6	-47.0	19.8	0.00e+00	0	42	0	296747008	62	4339
2026-01-29 00:32:44.69	26.15	18.37	-45.7	-47.1	19.7	0.00e+00	0	42	0	304087040	62	4391
2026-01-29 00:32:48.72	26.22	18.86	-45.8	-47.2	19.6	0.00e+00	0	42	0	311427072	62	4438
2026-01-29 00:32:52.76	26.30	19.37	-45.8	-47.3	19.6	0.00e+00	0	42	0	319815680	62	4451
2026-01-29 00:32:56.79	26.38	19.88	-45.9	-47.4	19.6	0.00e+00	0	42	0	327155712	62	4494
2026-01-29 00:33:00.81	26.46	20.41	-46.0	-47.5	19.4	0.00e+00	0	42	0	334495744	62	4572
2026-01-29 00:33:04.83	26.54	20.94	-46.0	-47.5	19.5	0.00e+00	0	42	0	341835776	62	4571
2026-01-29 00:33:08.87	26.63	21.49	-46.1	-47.6	19.4	0.00e+00	0	42	0	349175808	62	4633
2026-01-29 00:33:12.89	26.72	22.05	-46.1	-47.6	19.4	0.00e+00	0	42	0	357564416	62	4621
2026-01-29 00:33:16.93	26.81	22.63	-46.3	-47.8	19.2	0.00e+00	0	42	0	364904448	63	4485
2026-01-29 00:33:20.97	26.90	23.22	-46.1	-47.6	19.4	0.00e+00	0	42	0	372244480	63	4382
2026-01-29 00:33:25.00	27.00	23.82	-46.1	-47.6	19.5	0.00e+00	0	42	0	379584512	63	4358
2026-01-29 00:33:29.03	27.10	24.43	-46.2	-47.7	19.4	0.00e+00	0	42	0	386924544	63	4410
2026-01-29 00:33:33.06	27.20	25.06	-46.4	-48.0	19.1	0.00e+00	0	42	0	395313152	63	4550
2026-01-29 00:33:37.08	27.31	25.71	-46.0	-47.5	19.6	0.00e+00	0	42	0	402653184	63	4308
2026-01-29 00:33:41.12	27.42	26.37	-46.1	-47.6	19.6	0.00e+00	0	42	0	409993216	63	4351
2026-01-29 00:33:45.15	27.53	27.04	-45.9	-47.3	19.8	0.00e+00	0	42	0	417333248	63	4242
2026-01-29 00:33:49.18	27.65	27.74	-46.2	-47.7	19.5	0.00e+00	0	42	0	424673280	63	4394
2026-01-29 00:33:53.21	27.78	28.45	-46.5	-48.1	19.1	0.00e+00	0	42	0	433061888	63	4619
2026-01-29 00:33:57.24	27.90	29.18	-47.0	-48.7	18.4	0.00e+00	0	42	0	440401920	64	4694
2026-01-29 00:34:01.28	28.04	29.94	-47.1	-48.8	18.3	0.00e+00	0	42	0	447741952	64	4744
2026-01-29 00:34:05.31	28.18	30.71	-47.3	-49.1	18.0	0.00e+00	0	42	0	455081984	65	4639
2026-01-29 00:34:09.34	28.32	31.50	-47.7	-49.6	17.7	0.00e+00	0	42	0	463470592	65	4872
2026-01-29 00:34:13.38	28.47	32.31	-48.0	-49.9	17.3	0.00e+00	0	42	0	470810624	66	4811
2026-01-29 00:34:17.41	28.63	33.15	-47.4	-49.2	18.0	0.00e+00	0	42	0	478150656	66	4426
2026-01-29 00:34:21.45	28.80	34.01	-46.5	-48.0	19.2	0.00e+00	0	42	0	485490688	65	4074
2026-01-29 00:34:25.48	28.97	34.90	-45.7	-47.1	20.2	0.00e+00	0	42	0	492830720	63	4118
2026-01-29 00:34:29.52	29.16	35.81	-45.4	-46.7	20.5	0.00e+00	0	42	0	501219328	62	4186
2026-01-29 00:34:33.54	29.35	36.74	-45.4	-46.7	20.6	0.00e+00	0	42	0	508559360	62	4159
2026-01-29 00:34:37.57	29.55	37.70	-45.5	-46.8	20.5	0.00e+00	0	42	0	515899392	62	4232
2026-01-29 00:34:41.61	29.77	38.70	-45.6	-46.9	20.4	0.00e+00	0	42	0	523239424	62	4269
2026-01-29 00:34:45.63	29.99	39.72	-45.5	-46.8	20.5	0.00e+00	0	42	0	531628032	62	4223
2026-01-29 00:34:49.67	30.23	40.77	-45.8	-47.1	20.3	0.00e+00	0	42	0	538968064	62	4360
2026-01-29 00:34:53.70	30.49	41.85	-46.6	-48.2	19.2	0.00e+00	0	42	0	546308096	64	4392
2026-01-29 00:34:57.74	30.77	42.97	-46.6	-48.1	19.2	0.00e+00	0	42	0	553648128	64	4371
2026-01-29 00:35:01.77	31.06	44.12	-46.0	-47.4	19.9	0.00e+00	0	42	0	560988160	64	4021
2026-01-29 00:35:05.80	31.37	45.30	-46.5	-48.0	19.4	0.00e+00	0	42	0	568328192	63	4551
2026-01-29 00:35:09.83	31.71	46.52	-47.5	-49.3	18.1	0.00e+00	0	42	0	576716800	65	4724
2026-01-29 00:35:13.87	32.07	47.78	-47.8	-49.6	17.9	0.00e+00	0	42	0	584056832	66	4646
2026-01-29 00:35:17.89	32.46	49.06	-46.3	-47.7	19.6	0.00e+00	0	42	0	591396864	64	4163
2026-01-29 00:35:21.93	32.89	50.39	-46.3	-47.7	19.8	0.00e+00	0	42	0	598736896	63	4404
2026-01-29 00:35:25.96	33.35	51.76	-45.4	-46.6	20.9	0.00e+00	0	42	0	607125504	62	4118
2026-01-29 00:35:29.99	33.86	53.16	-44.2	-45.2	22.5	0.00e+00	0	42	0	614465536	59	4178
2026-01-29 00:35:34.03	34.42	54.61	-43.6	-44.6	23.0	0.00e+00	0	42	0	621805568	59	3912
2026-01-29 00:35:38.05	35.04	56.08	-43.8	-44.8	22.8	0.00e+00	0	42	0	629145600	59	3987
2026-01-29 00:35:42.09	35.72	57.60	-44.3	-45.4	22.0	0.00e+00	0	42	0	636485632	60	4008
2026-01-29 00:35:46.12	36.49	59.16	-44.5	-45.5	22.2	0.00e+00	0	42	0	644874240	59	4338
2026-01-29 00:35:50.15	37.35	60.75	-44.1	-45.1	22.2	0.00e+00	0	42	0	652214272	60	3909
2026-01-29 00:35:54.18	38.32	62.37	-43.4	-44.3	23.3	0.00e+00	0	42	0	659554304	58	4003
2026-01-29 00:35:58.23	39.44	64.04	-44.5	-45.6	22.2	0.00e+00	0	42	0	666894336	59	4341
2026-01-29 00:36:02.26	40.73	65.72	-46.1	-47.4	20.2	0.00e+00	0	42	0	674234368	63	4257
2026-01-29 00:36:06.29	42.23	67.43	-46.2	-47.5	20.1	0.00e+00	0	42	0	682622976	63	4336
2026-01-29 00:36:10.32	43.99	69.15	-46.2	-47.5	20.1	0.00e+00	0	42	0	689963008	63	4333
2026-01-29 00:36:14.35	46.10	70.89	-45.7	-47.0	20.6	0.00e+00	0	42	0	697303040	62	4317
2026-01-29 00:36:18.38	48.66	72.63	-47.1	-48.8	18.8	0.00e+00	0	42	0	704643072	65	4444
2026-01-29 00:36:22.41	51.82	74.35	-46.7	-48.2	19.3	0.00e+00	0	42	0	711983104	64	4425
2026-01-29 00:36:26.45	55.79	76.05	-47.1	-48.6	18.9	0.00e+00	0	42	0	720371712	65	4374
2026-01-29 00:36:30.48	60.86	77.68	-49.1	-51.4	16.4	0.00e+00	0	42	0	727711744	69	4760
2026-01-29 00:36:34.51	67.45	79.20	-48.0	-49.8	17.9	0.00e+00	0	42	0	735051776	67	4488
2026-01-29 00:36:38.53	76.09	80.55	-46.5	-47.9	19.7	0.00e+00	0	42	0	742391808	64	4277
2026-01-29 00:36:42.56	87.32	81.63	-46.4	-47.8	19.9	0.00e+00	0	42	0	750780416	63	4469
2026-01-29 00:36:46.60	101.24	82.31	-45.8	-47.1	20.6	0.00e+00	0	42	0	758120448	63	4104
2026-01-29 00:36:50.63	116.77	82.48	-46.7	-48.1	19.5	0.00e+00	0	42	0	765460480	63	4629
2026-01-29 00:36:54.66	131.88	82.11	-49.6	-52.2	15.5	0.00e+00	0	42	0	772800512	69	5232
2026-01-29 00:36:58.69	144.81	81.26	-47.5	-49.2	18.5	0.00e+00	0	42	0	780140544	66	4395
2026-01-29 00:37:02.72	155.01	80.06	-45.4	-46.6	21.1	0.00e+00	0	42	0	787480576	62	4116
2026-01-29 00:37:06.75	162.82	78.63	-44.7	-45.8	21.7	0.00e+00	0	42	0	795869184	60	4227
2026-01-29 00:37:10.78	168.77	77.06	-47.3	-48.9	18.8	0.00e+00	0	42	0	803209216	65	4526
2026-01-29 00:37:14.80	173.37	75.41	-49.6	-52.1	15.8	0.00e+00	0	42	0	810549248	69	5192
2026-01-29 00:37:18.83	177.00	73.70	-50.4	-53.4	14.4	0.00e+00	0	42	0	817889280	71	5344
2026-01-29 00:37:22.86	179.91	71.96	-46.8	-48.3	19.4	0.00e+00	0	42	0	826277888	65	4197
2026-01-29 00:37:26.89	182.28	70.22	-47.2	-48.8	18.9	0.00e+00	0	42	0	833617920	66	4195
2026-01-29 00:37:30.92	184.25	68.49	-47.0	-48.5	19.2	0.00e+00	0	42	0	840957952	65	4319
2026-01-29 00:37:34.95	185.91	66.76	-49.3	-51.7	16.2	0.00e+00	0	42	0	848297984	69	4944
2026-01-29 00:37:38.98	187.32	65.06	-46.9	-48.4	19.2	0.00e+00	0	42	0	855638016	65	4289
2026-01-29 00:37:43.01	188.54	63.38	-45.6	-46.8	20.9	0.00e+00	0	42	0	864026624	63	3985
2026-01-29 00:37:47.04	189.60	61.74	-44.6	-45.7	21.9	0.00e+00	0	42	0	871366656	60	4154
2026-01-29 00:37:51.08	190.53	60.12	-45.1	-46.3	21.3	0.00e+00	0	42	0	878706688	60	4475
2026-01-29 00:37:55.11	191.35	58.54	-47.2	-48.8	18.9	0.00e+00	0	42	0	886046720	65	4470
2026-01-29 00:37:59.14	192.09	56.99	-47.9	-49.8	17.8	0.00e+00	0	42	0	894435328	67	4484
2026-01-29 00:38:03.18	192.75	55.48	-45.1	-46.2	21.3	0.00e+00	0	42	0	901775360	62	3951
2026-01-29 00:38:07.21	193.34	54.02	-44.8	-46.0	21.6	0.00e+00	0	42	0	909115392	61	4061
2026-01-29 00:38:11.24	193.88	52.59	-45.2	-46.3	21.2	0.00e+00	0	42	0	916455424	61	4235
2026-01-29 00:38:15.27	194.37	51.19	-47.9	-49.7	17.9	0.00e+00	0	42	0	923795456	66	4670
2026-01-29 00:38:19.30	194.82	49.84	-50.3	-53.4	14.3	7.00e-07	0	42	0	931135488	71	5345
2026-01-29 00:38:23.33	195.23	48.52	-50.2	-53.1	14.6	0.00e+00	0	42	0	939524096	70	5521
2026-01-29 00:38:27.37	195.61	47.24	-48.5	-50.6	17.0	0.00e+00	0	42	0	946864128	69	4342
2026-01-29 00:38:31.40	195.96	46.00	-45.9	-47.2	20.4	0.00e+00	0	42	0	954204160	63	4160
2026-01-29 00:38:35.43	196.29	44.79	-47.2	-48.9	18.7	0.00e+00	0	42	0	961544192	65	4498
2026-01-29 00:38:39.45	196.59	43.62	-45.4	-46.6	20.8	0.00e+00	0	42	0	969932800	62	4141
2026-01-29 00:38:43.47	196.87	42.48	-44.5	-45.6	22.1	0.00e+00	0	42	0	977272832	59	4368
2026-01-29 00:38:47.51	197.14	41.38	-47.6	-49.6	17.9	0.00e+00	0	42	0	984612864	65	4875
2026-01-29 00:38:51.54	197.39	40.30	-45.4	-46.6	20.8	0.00e+00	0	42	0	991952896	62	4119
2026-01-29 00:38:55.57	197.63	39.26	-45.7	-47.0	20.4	0.00e+00	0	42	0	999292928	62	4318
2026-01-29 00:38:59.60	197.85	38.25	-49.5	-52.3	15.2	0.00e+00	0	42	0	1007681536	69	5303
2026-01-29 00:39:03.63	198.06	37.26	-48.9	-51.2	16.3	0.00e+00	0	42	0	1015021568	69	4680
2026-01-29 00:39:07.66	198.26	36.31	-47.1	-48.7	18.7	0.00e+00	0	42	0	1022361600	66	4170
2026-01-29 00:39:11.69	198.44	35.38	-47.1	-48.7	18.6	0.00e+00	0	42	0	1029701632	65	4414
2026-01-29 00:39:15.72	198.62	34.48	-49.6	-52.4	15.0	0.00e+00	0	42	0	1037041664	69	5355
2026-01-29 00:39:19.75	198.79	33.60	-50.8	-54.8	12.5	1.32e-04	0	42	0	1045430272	72	5936
2026-01-29 00:39:23.78	198.95	32.75	-49.4	-51.9	15.4	0.00e+00	0	42	0	1052770304	70	4808
2026-01-29 00:39:27.81	199.11	31.92	-48.1	-50.1	17.4	0.00e+00	0	42	0	1060110336	68	4345
2026-01-29 00:39:31.85	199.26	31.11	-48.5	-50.7	16.7	0.00e+00	0	42	0	1067450368	68	4689
2026-01-29 00:39:35.88	199.40	30.32	-48.7	-50.9	16.5	0.00e+00	0	42	0	1074790400	68	4810
2026-01-29 00:39:39.91	199.53	29.56	-48.5	-50.7	16.6	0.00e+00	0	42	0	1083179008	68	4683
2026-01-29 00:39:43.94	199.66	28.81	-48.1	-50.1	17.1	0.00e+00	0	42	0	1090519040	68	4390
2026-01-29 00:39:47.97	199.79	28.09	-47.1	-48.9	18.3	0.00e+00	0	42	0	1097859072	66	4250
2026-01-29 00:39:52.00	199.91	27.38	-46.4	-47.9	19.2	0.00e+00	0	42	0	1105199104	64	4266
2026-01-29 00:39:56.03	200.02	26.69	-45.9	-47.3	19.9	0.00e+00	0	42	0	1112539136	63	4214
2026-01-29 00:40:00.06	200.14	26.02	-46.0	-47.4	19.8	0.00e+00	0	42	0	1120927744	63	4263
2026-01-29 00:40:04.09	200.24	25.36	-46.1	-47.6	19.6	0.00e+00	0	42	0	1128267776	63	4346
2026-01-29 00:40:08.12	200.35	24.72	-45.7	-47.0	20.1	0.00e+00	0	42	0	1135607808	63	4082
2026-01-29 00:40:12.15	200.45	24.09	-48.5	-50.8	16.2	0.00e+00	0	42	0	1142947840	67	5014
2026-01-29 00:40:16.18	200.54	23.48	-47.1	-48.8	18.1	0.00e+00	0	42	0	1150287872	65	4491
2026-01-29 00:40:20.21	200.64	22.89	-45.1	-46.3	20.6	0.00e+00	0	42	0	1158676480	62	3992
2026-01-29 00:40:24.25	200.73	22.30	-44.7	-45.9	20.9	0.00e+00	0	42	0	1166016512	61	4050
2026-01-29 00:40:28.27	200.82	21.73	-44.8	-46.0	20.9	0.00e+00	0	42	0	1173356544	61	4081
2026-01-29 00:40:32.30	200.90	21.17	-45.1	-46.3	20.6	0.00e+00	0	42	0	1180696576	61	4239
2026-01-29 00:40:36.33	200.99	20.63	-45.2	-46.6	20.4	0.00e+00	0	42	0	1188036608	61	4343
2026-01-29 00:40:40.36	201.07	20.09	-45.3	-46.6	20.3	0.00e+00	0	42	0	1196425216	61	4382
2026-01-29 00:40:44.39	201.15	19.57	-45.3	-46.7	20.2	0.00e+00	0	42	0	1203765248	61	4397
2026-01-29 00:40:48.43	201.22	19.06	-45.4	-46.7	20.2	0.00e+00	0	42	0	1211105280	61	4435
2026-01-29 00:40:52.46	201.30	18.56	-45.4	-46.8	20.1	0.00e+00	0	42	0	1218445312	61	4448
2026-01-29 00:40:56.48	201.37	18.07	-45.4	-46.8	20.1	0.00e+00	0	42	0	1226833920	61	4447
2026-01-29 00:41:00.52	201.44	17.58	-45.5	-46.9	20.0	0.00e+00	0	42	0	1234173952	61	4523
2026-01-29 00:41:04.53	201.51	17.11	-45.4	-46.8	20.0	0.00e+00	0	42	0	1241513984	61	4463
2026-01-29 00:41:08.56	201.58	16.65	-45.5	-46.9	19.9	0.00e+00	0	42	0	1248854016	61	4510
2026-01-29 00:41:12.60	201.64	16.19	-45.6	-47.0	19.8	0.00e+00	0	42	0	1256194048	61	4549
2026-01-29 00:41:16.63	201.71	15.74	-45.6	-47.0	19.8	0.00e+00	0	42	0	1263534080	61	4554
2026-01-29 00:41:20.66	201.77	15.30	-45.4	-46.8	20.0	0.00e+00	0	42	0	1271922688	61	4444
2026-01-29 00:41:24.69	201.83	14.87	-45.4	-46.8	19.9	0.00e+00	0	42	0	1279262720	61	4483
2026-01-29 00:41:28.73	201.89	14.45	-45.5	-46.9	19.8	0.00e+00	0	42	0	1286602752	61	4519
2026-01-29 00:41:32.76	201.95	14.03	-45.6	-47.0	19.7	0.00e+00	0	42	0	1293942784	61	4580
2026-01-29 00:41:36.79	202.01	13.62	-45.7	-47.1	19.5	0.00e+00	0	42	0	1302331392	61	4647
2026-01-29 00:41:40.82	202.06	13.22	-45.8	-47.3	19.4	0.00e+00	0	42	0	1309671424	62	4483
2026-01-29 00:41:44.86	202.12	12.82	-46.0	-47.5	19.1	0.00e+00	0	42	0	1317011456	62	4592
2026-01-29 00:41:48.90	202.17	12.43	-46.1	-47.7	18.9	0.00e+00	0	42	0	1324351488	62	4685
2026-01-29 00:41:52.93	202.22	12.05	-46.1	-47.7	18.9	0.00e+00	0	42	0	1332740096	62	4700
2026-01-29 00:41:56.96	202.28	11.67	-46.2	-47.9	18.7	0.00e+00	0	42	0	1340080128	63	4513
2026-01-29 00:42:00.99	202.33	11.30	-46.3	-48.0	18.6	0.00e+00	0	42	0	1347420160	63	4561
2026-01-29 00:42:05.03	202.38	10.93	-46.3	-48.0	18.6	0.00e+00	0	42	0	1354760192	63	4581
2026-01-29 00:42:09.06	202.43	10.57	-46.4	-48.1	18.5	0.00e+00	0	42	0	1362100224	63	4611
2026-01-29 00:42:13.09	202.48	10.21	-46.4	-48.1	18.4	0.00e+00	0	42	0	1370488832	63	4636
2026-01-29 00:42:17.13	202.52	9.86	-46.4	-48.0	18.5	0.00e+00	0	42	0	1377828864	63	4593
2026-01-29 00:42:21.16	202.57	9.51	-46.3	-47.9	18.5	0.00e+00	0	42	0	1385168896	63	4537
2026-01-29 00:42:25.19	202.62	9.17	-46.2	-47.9	18.6	0.00e+00	0	42	0	1392508928	63	4503
2026-01-29 00:42:29.23	202.66	8.83	-46.4	-48.1	18.3	0.00e+00	0	42	0	1399848960	63	4629
2026-01-29 00:42:33.26	202.71	8.50	-46.2	-47.9	18.4	0.00e+00	0	42	0	1408237568	63	4536
2026-01-29 00:42:37.29	202.75	8.17	-46.4	-48.1	18.2	0.00e+00	0	42	0	1415577600	63	4623
2026-01-29 00:42:41.32	202.79	7.85	-46.4	-48.2	18.1	0.00e+00	0	42	0	1422917632	63	4679
2026-01-29 00:42:45.35	202.84	7.53	-46.5	-48.3	18.0	0.00e+00	0	42	0	1430257664	63	4707
2026-01-29 00:42:49.37	202.88	7.22	-46.4	-48.2	18.0	0.00e+00	0	42	0	1437597696	63	4679
2026-01-29 00:42:53.41	202.92	6.90	-46.6	-48.4	17.8	0.00e+00	0	42	0	1445986304	63	4789
2026-01-29 00:42:57.44	202.96	6.60	-46.5	-48.3	17.9	0.00e+00	0	42	0	1453326336	63	4712
2026-01-29 00:43:01.48	203.00	6.29	-46.8	-48.8	17.3	0.00e+00	0	42	0	1460666368	64	4715
2026-01-29 00:43:05.51	203.04	5.99	-46.7	-48.6	17.4	0.00e+00	0	42	0	1468006400	64	4640
2026-01-29 00:43:09.55	203.08	5.69	-46.7	-48.7	17.2	0.00e+00	0	42	0	1476395008	64	4692
2026-01-29 00:43:13.58	203.12	5.40	-47.0	-49.2	16.7	0.00e+00	0	42	0	1483735040	64	4944
2026-01-29 00:43:17.60	203.16	5.11	-46.8	-48.9	16.9	0.00e+00	0	42	0	1491075072	64	4794
2026-01-29 00:43:21.64	203.19	4.82	-53.0	-68.0	3.8	1.49e+00	0	42	104	1494220800	76	21517
2026-01-29 00:43:25.67	203.23	4.53	-53.6	-68.6	3.8	1.49e+00	0	42	104	1494220800	77	21811
2026-01-29 00:43:29.70	203.27	4.25	-53.8	-68.8	3.8	1.49e+00	0	42	104	1494220800	78	21155
2026-01-29 00:43:33.73	203.30	3.97	-54.0	-69.0	3.8	1.49e+00	0	42	104	1494220800	78	21551
2026-01-29 00:43:37.76	203.34	3.70	-54.1	-69.0	3.8	1.49e+00	0	42	104	1494220800	78	21694
2026-01-29 00:43:41.80	203.38	3.42	-54.0	-69.0	3.8	1.49e+00	0	42	104	1494220800	78	21554
2026-01-29 00:43:45.83	203.41	3.15	-53.6	-68.6	3.8	1.49e+00	0	43	104	1494220800	78	20544
2026-01-29 00:43:49.86	203.45	2.89	-53.2	-68.1	3.8	1.49e+00	0	42	104	1494220800	78	19574
2026-01-29 00:43:53.89	203.48	2.62	-53.1	-68.1	3.8	1.49e+00	0	43	104	1494220800	78	19547
2026-01-29 00:43:57.92	203.51	2.36	-53.1	-68.1	3.8	1.49e+00	0	42	104	1494220800	78	19506
2026-01-29 00:44:01.95	203.55	2.10	-53.1	-68.1	3.8	1.49e+00	0	42	104	1494220800	78	19454

#Closed at: 2026-01-29 00:44:04
#Recorded file [1494 MB]: D:/lorett/data/31041_260129_032935.dat