passes_logs/2026/01/29/R3.2S_Murmansk/R3.2S_Murmansk__20260129_214546_JL1KF02B02_rec.log

#Pass ID: 20260129_214546_JL1KF02B02
#Satellite: JL1KF02B02
#Configuration: 01B_900M
#almurnet v.1.7.20251203
#Start time: 2026-01-29 21:45:48

#Version: 2.2.20231116
#Station: R3.2S_Murmansk
#Location: 33.079688 lon 68.888172 lat
#TLE: 1 61193U 24169E   26028.96955180  .00008208  00000+0  51534-3 0  9991
#TLE: 2 61193  97.5623 120.6623 0012912  84.4227 275.8475 15.09469698 74833

#Time	Az	El	Level	Level2	SNR	BER	BlckErr	Temp	State	Recorded	gain1	gain2
2026-01-29 21:45:48.34	210.36	2.09	-53.9	-56.0	6.3	0.00e+00	0	42	0	0	79	18207
2026-01-29 21:45:51.24	210.62	2.26	-52.8	-54.9	6.2	0.00e+00	0	42	104	0	77	18068
2026-01-29 21:45:54.15	210.89	2.44	-52.8	-54.9	6.2	0.00e+00	0	42	104	0	77	18022
2026-01-29 21:45:57.07	211.17	2.62	-52.8	-54.9	6.2	0.00e+00	0	42	104	0	77	18021
2026-01-29 21:45:59.99	211.45	2.80	-52.8	-54.9	6.2	0.00e+00	0	42	104	0	77	17981
2026-01-29 21:46:02.90	211.73	2.97	-52.8	-54.8	6.2	0.00e+00	0	42	104	0	77	17963
2026-01-29 21:46:05.82	212.01	3.16	-52.7	-54.8	6.2	0.00e+00	0	43	104	0	77	17949
2026-01-29 21:46:08.73	212.31	3.34	-52.7	-54.8	6.2	0.00e+00	0	43	104	0	77	17916
2026-01-29 21:46:11.65	212.60	3.52	-52.7	-54.8	6.2	0.00e+00	0	43	104	0	77	17885
2026-01-29 21:46:14.56	212.90	3.70	-52.7	-54.8	6.2	0.00e+00	0	43	104	0	77	17910
2026-01-29 21:46:17.48	213.20	3.89	-52.7	-54.8	6.2	0.00e+00	0	43	104	0	77	17880
2026-01-29 21:46:20.39	213.51	4.08	-52.7	-54.8	6.2	0.00e+00	0	43	104	0	77	17867
2026-01-29 21:46:23.31	213.83	4.26	-52.7	-54.8	6.2	0.00e+00	0	43	104	0	77	17873
2026-01-29 21:46:26.21	214.14	4.45	-52.7	-54.8	6.2	0.00e+00	0	43	104	0	77	17905
2026-01-29 21:46:29.13	214.47	4.64	-52.7	-54.8	6.2	0.00e+00	0	43	104	0	77	17876
2026-01-29 21:46:32.04	214.79	4.83	-52.7	-54.8	6.2	0.00e+00	0	43	104	0	77	17800
2026-01-29 21:46:34.96	215.13	5.02	-52.7	-54.8	6.2	0.00e+00	0	43	104	0	77	17856
2026-01-29 21:46:37.88	215.47	5.22	-52.8	-54.9	6.2	0.00e+00	0	44	104	0	77	17999
2026-01-29 21:46:40.80	215.81	5.41	-52.6	-54.7	6.2	0.00e+00	0	44	104	0	77	17693
2026-01-29 21:46:43.71	216.16	5.60	-52.7	-54.8	6.2	0.00e+00	0	44	104	0	77	17823
2026-01-29 21:46:46.62	216.52	5.80	-52.8	-54.8	6.2	0.00e+00	0	43	104	0	77	17961
2026-01-29 21:46:49.54	216.88	6.00	-52.7	-54.8	6.2	0.00e+00	0	44	104	0	77	17818
2026-01-29 21:46:52.46	217.24	6.20	-52.7	-54.7	6.2	0.00e+00	0	44	104	0	77	17761
2026-01-29 21:46:55.37	217.62	6.40	-52.8	-54.8	6.2	0.00e+00	0	44	104	0	77	17936
2026-01-29 21:46:58.28	217.99	6.60	-52.8	-54.9	6.2	0.00e+00	0	44	104	0	77	18046
2026-01-29 21:47:01.20	218.38	6.80	-52.7	-54.8	6.2	0.00e+00	0	44	104	0	77	17797
2026-01-29 21:47:04.11	218.77	7.00	-52.7	-54.8	6.2	0.00e+00	0	44	104	0	77	17870
2026-01-29 21:47:07.02	219.17	7.20	-52.8	-54.9	6.2	0.00e+00	0	44	104	0	77	18040
2026-01-29 21:47:09.94	219.57	7.41	-52.8	-54.9	6.2	0.00e+00	0	44	104	0	77	18111
2026-01-29 21:47:12.86	219.99	7.62	-52.7	-54.8	6.2	0.00e+00	0	44	104	0	77	17868
2026-01-29 21:47:15.77	220.40	7.82	-52.8	-54.9	6.2	0.00e+00	0	44	104	0	77	17982
2026-01-29 21:47:18.69	220.83	8.03	-52.8	-54.9	6.2	0.00e+00	0	44	104	0	77	18161
2026-01-29 21:47:21.59	221.26	8.24	-52.8	-54.9	6.2	0.00e+00	0	44	104	0	77	18016
2026-01-29 21:47:24.50	221.70	8.45	-52.8	-54.8	6.2	0.00e+00	0	44	104	0	77	17963
2026-01-29 21:47:27.41	222.14	8.66	-52.8	-54.9	6.2	0.00e+00	0	44	104	0	77	18077
2026-01-29 21:47:30.33	222.60	8.87	-51.3	-52.8	6.3	0.00e+00	0	44	104	0	73	17770
2026-01-29 21:47:33.24	223.06	9.09	-48.2	-48.8	6.6	0.00e+00	0	44	104	0	67	15942
2026-01-29 21:47:36.16	223.53	9.30	-48.5	-49.2	6.6	0.00e+00	0	44	104	0	67	16757
2026-01-29 21:47:39.07	224.01	9.51	-52.7	-54.8	6.2	0.00e+00	0	44	104	0	75	19980
2026-01-29 21:47:41.98	224.50	9.73	-48.6	-49.3	6.7	0.00e+00	0	44	104	0	69	14973
2026-01-29 21:47:44.90	225.00	9.95	-49.8	-50.7	6.4	0.00e+00	0	44	104	0	70	16736
2026-01-29 21:47:47.81	225.50	10.16	-27.3	-27.1	17.1	1.90e-06	0	44	0	125829120	25	14774
2026-01-29 21:47:50.73	226.01	10.38	-26.6	-26.5	17.4	0.00e+00	0	44	0	452984832	25	13636
2026-01-29 21:47:53.65	226.54	10.60	-26.4	-26.2	17.5	1.90e-06	0	44	0	788529152	24	14108
2026-01-29 21:47:56.57	227.07	10.82	-26.3	-26.1	17.3	0.00e+00	0	44	0	1115684864	24	13893
2026-01-29 21:47:59.49	227.61	11.04	-26.2	-26.1	17.5	0.00e+00	0	44	0	1442840576	24	13846
2026-01-29 21:48:02.40	228.16	11.26	-26.1	-25.9	17.4	1.90e-06	0	45	0	1769996288	24	13583
2026-01-29 21:48:05.31	228.72	11.48	-25.9	-25.8	17.8	0.00e+00	0	45	0	2088763392	23	14122
2026-01-29 21:48:08.22	229.29	11.71	-26.0	-25.8	17.7	0.00e+00	0	44	0	2415919104	23	14269
2026-01-29 21:48:11.13	229.87	11.93	-25.8	-25.7	17.6	1.90e-06	0	45	0	2759852032	23	14011
2026-01-29 21:48:14.05	230.46	12.15	-25.9	-25.7	17.6	0.00e+00	0	45	0	3078619136	23	14033
2026-01-29 21:48:16.95	231.06	12.37	-25.8	-25.6	17.6	0.00e+00	0	44	0	3405774848	23	13919
2026-01-29 21:48:19.86	231.67	12.59	-25.7	-25.6	17.7	0.00e+00	0	45	0	3732930560	23	13817
2026-01-29 21:48:22.78	232.29	12.82	-25.5	-25.4	17.7	0.00e+00	0	45	0	4060086272	23	13518
2026-01-29 21:48:25.69	232.92	13.04	-25.5	-25.4	17.8	0.00e+00	0	45	0	4387241984	23	13485
2026-01-29 21:48:28.61	233.57	13.26	-25.4	-25.3	17.7	0.00e+00	0	45	0	4714397696	22	14185
2026-01-29 21:48:31.52	234.22	13.48	-25.3	-25.2	17.8	0.00e+00	0	45	0	5041553408	22	13996
2026-01-29 21:48:34.42	234.88	13.70	-25.3	-25.1	17.7	0.00e+00	0	45	0	5368709120	22	13948
2026-01-29 21:48:37.34	235.56	13.92	-25.2	-25.1	17.7	0.00e+00	0	45	0	5704253440	22	13818
2026-01-29 21:48:40.25	236.25	14.14	-25.2	-25.0	17.6	0.00e+00	0	45	0	6031409152	22	13727
2026-01-29 21:48:43.16	236.95	14.36	-25.2	-25.0	17.5	0.00e+00	0	45	0	6358564864	22	13701
2026-01-29 21:48:46.07	237.66	14.57	-25.0	-24.8	17.5	0.00e+00	0	45	0	6685720576	21	14264
2026-01-29 21:48:48.98	238.39	14.79	-24.8	-24.7	17.3	1.90e-06	0	45	0	7004487680	21	13975
2026-01-29 21:48:51.90	239.12	15.00	-24.8	-24.7	17.1	0.00e+00	0	45	0	7331643392	21	13981
2026-01-29 21:48:54.82	239.87	15.22	-24.8	-24.6	17.1	0.00e+00	0	45	0	7658799104	21	13912
2026-01-29 21:48:57.73	240.63	15.43	-24.7	-24.6	17.1	1.90e-06	0	45	0	7994343424	21	13810
2026-01-29 21:49:00.65	241.41	15.64	-24.7	-24.6	17.0	0.00e+00	0	45	0	8321499136	21	13799
2026-01-29 21:49:03.57	242.19	15.84	-24.7	-24.5	16.9	0.00e+00	0	45	0	8648654848	21	13712
2026-01-29 21:49:06.47	242.99	16.05	-24.7	-24.5	16.9	0.00e+00	0	45	0	8975810560	21	13751
2026-01-29 21:49:09.38	243.80	16.25	-24.6	-24.5	16.9	0.00e+00	0	45	0	9302966272	21	13667
2026-01-29 21:49:12.30	244.62	16.45	-24.4	-24.2	16.8	0.00e+00	0	45	0	9630121984	20	14030
2026-01-29 21:49:15.21	245.45	16.64	-24.3	-24.1	16.4	0.00e+00	0	45	0	9957277696	20	13909
2026-01-29 21:49:18.12	246.30	16.84	-24.2	-24.1	16.7	5.70e-06	0	45	0	10284433408	20	13829
2026-01-29 21:49:21.04	247.16	17.02	-24.1	-24.0	16.3	0.00e+00	0	45	0	10619977728	20	13642
2026-01-29 21:49:23.95	248.03	17.21	-24.1	-24.0	16.2	1.90e-06	0	45	0	10947133440	20	13658
2026-01-29 21:49:26.87	248.91	17.39	-24.0	-23.8	15.9	0.00e+00	0	45	0	11274289152	20	13422
2026-01-29 21:49:29.79	249.81	17.57	-24.1	-23.9	15.7	1.90e-06	0	45	0	11601444864	19	14432
2026-01-29 21:49:32.71	250.71	17.74	-24.0	-23.8	15.9	0.00e+00	0	45	0	11928600576	19	14193
2026-01-29 21:49:35.63	251.63	17.91	-24.0	-23.8	15.5	5.70e-06	0	45	0	12264144896	19	14215
2026-01-29 21:49:38.55	252.56	18.07	-23.9	-23.8	15.6	5.70e-06	0	45	0	12591300608	19	14121
2026-01-29 21:49:41.47	253.50	18.22	-23.8	-23.6	15.6	7.60e-06	0	45	0	12918456320	19	13942
2026-01-29 21:49:44.37	254.45	18.37	-23.8	-23.6	15.5	5.70e-06	0	45	0	13237223424	19	13908
2026-01-29 21:49:47.30	255.42	18.52	-23.8	-23.7	15.4	9.50e-06	0	45	0	13564379136	19	13976
2026-01-29 21:49:50.22	256.39	18.66	-23.7	-23.6	15.3	3.80e-06	0	45	0	13891534848	19	13809
2026-01-29 21:49:53.14	257.37	18.79	-23.8	-23.7	15.6	7.60e-06	0	45	0	14227079168	19	13999
2026-01-29 21:49:56.06	258.36	18.91	-23.9	-23.7	15.4	3.80e-06	0	45	0	14554234880	19	14021
2026-01-29 21:49:58.97	259.36	19.03	-23.7	-23.5	15.4	5.70e-06	0	45	0	14881390592	19	13786
2026-01-29 21:50:01.89	260.36	19.14	-23.7	-23.5	15.5	1.90e-06	0	45	0	15208546304	19	13752
2026-01-29 21:50:04.80	261.38	19.25	-23.7	-23.5	15.5	5.70e-06	0	45	0	15535702016	19	13769
2026-01-29 21:50:07.71	262.40	19.34	-23.7	-23.5	16.0	0.00e+00	0	45	0	15862857728	19	13767
2026-01-29 21:50:10.63	263.43	19.43	-23.7	-23.5	16.0	0.00e+00	0	45	0	16198402048	19	13709
2026-01-29 21:50:13.54	264.46	19.51	-23.6	-23.5	16.0	1.90e-06	0	45	0	16525557760	19	13657
2026-01-29 21:50:16.46	265.50	19.58	-23.7	-23.6	16.4	1.90e-06	0	45	0	16852713472	19	13792
2026-01-29 21:50:19.38	266.55	19.65	-23.7	-23.5	16.7	0.00e+00	0	45	0	17179869184	19	13731
2026-01-29 21:50:22.29	267.60	19.70	-23.7	-23.6	16.8	0.00e+00	0	45	0	17507024896	19	13872
2026-01-29 21:50:25.20	268.65	19.75	-23.7	-23.5	16.9	0.00e+00	0	45	0	17834180608	19	13783
2026-01-29 21:50:28.12	269.71	19.79	-23.8	-23.6	16.9	1.90e-06	0	45	0	18161336320	19	13936
2026-01-29 21:50:31.03	270.77	19.82	-23.9	-23.8	17.0	0.00e+00	0	45	0	18496880640	19	14135
2026-01-29 21:50:33.94	271.83	19.84	-24.0	-23.9	17.3	0.00e+00	0	45	0	18824036352	19	14284
2026-01-29 21:50:36.86	272.89	19.85	-23.9	-23.7	17.5	0.00e+00	0	45	0	19151192064	19	14052
2026-01-29 21:50:39.77	273.95	19.85	-24.0	-23.8	18.1	0.00e+00	0	45	0	19469959168	19	14264
2026-01-29 21:50:42.69	275.02	19.85	-24.0	-23.8	18.4	0.00e+00	0	45	0	19797114880	19	14182
2026-01-29 21:50:45.60	276.08	19.83	-24.0	-23.9	18.5	0.00e+00	0	45	0	20124270592	19	14318
2026-01-29 21:50:48.51	277.13	19.81	-24.1	-24.0	18.7	0.00e+00	0	45	0	20451426304	19	14486
2026-01-29 21:50:51.42	278.19	19.77	-24.1	-24.0	18.8	0.00e+00	0	45	0	20778582016	19	14470
2026-01-29 21:50:54.33	279.24	19.73	-24.2	-24.1	19.0	0.00e+00	0	45	0	21114126336	19	14643
2026-01-29 21:50:57.25	280.30	19.68	-24.3	-24.1	19.1	0.00e+00	0	45	0	21441282048	19	14691
2026-01-29 21:51:00.16	281.34	19.62	-24.3	-24.1	19.2	0.00e+00	0	45	0	21768437760	19	14750
2026-01-29 21:51:03.08	282.39	19.56	-24.3	-24.1	19.2	0.00e+00	0	45	0	22095593472	19	14732
2026-01-29 21:51:05.99	283.42	19.48	-24.3	-24.2	19.2	0.00e+00	0	45	0	22422749184	19	14817
2026-01-29 21:51:08.90	284.45	19.40	-24.4	-24.2	18.9	0.00e+00	0	45	0	22749904896	19	14938
2026-01-29 21:51:11.82	285.48	19.31	-24.4	-24.3	18.9	0.00e+00	0	45	0	23077060608	19	15002
2026-01-29 21:51:14.74	286.50	19.21	-24.5	-24.3	18.8	0.00e+00	0	45	0	23412604928	19	15077
2026-01-29 21:51:17.65	287.50	19.10	-24.7	-24.5	18.5	0.00e+00	0	45	0	23739760640	19	15428
2026-01-29 21:51:20.57	288.51	18.99	-24.6	-24.5	18.7	0.00e+00	0	45	0	24066916352	20	14477
2026-01-29 21:51:23.49	289.50	18.87	-24.6	-24.4	18.3	0.00e+00	0	45	0	24385683456	20	14423
2026-01-29 21:51:26.40	290.48	18.74	-24.7	-24.5	18.2	0.00e+00	0	45	0	24712839168	20	14553
2026-01-29 21:51:29.32	291.46	18.61	-24.7	-24.6	18.1	0.00e+00	0	45	0	25039994880	20	14631
2026-01-29 21:51:32.24	292.43	18.47	-24.8	-24.6	18.2	0.00e+00	0	45	0	25383927808	20	14704
2026-01-29 21:51:35.16	293.38	18.32	-24.8	-24.7	18.0	0.00e+00	0	45	0	25702694912	20	14805
2026-01-29 21:51:38.07	294.32	18.17	-24.8	-24.7	17.8	0.00e+00	0	45	0	26029850624	20	14844
2026-01-29 21:51:40.99	295.26	18.01	-25.0	-24.9	17.7	0.00e+00	0	45	0	26357006336	20	15137
2026-01-29 21:51:43.90	296.18	17.85	-24.9	-24.7	17.9	0.00e+00	0	45	0	26684162048	20	14844
2026-01-29 21:51:46.82	297.09	17.68	-24.9	-24.8	17.6	0.00e+00	0	45	0	27011317760	20	15000
2026-01-29 21:51:49.72	297.98	17.51	-25.0	-24.8	17.9	0.00e+00	0	45	0	27338473472	20	15076
2026-01-29 21:51:52.63	298.87	17.33	-25.4	-25.2	17.6	0.00e+00	0	45	0	27674017792	21	14940
2026-01-29 21:51:55.55	299.75	17.15	-25.1	-24.9	17.8	0.00e+00	0	45	0	28001173504	21	14347
2026-01-29 21:51:58.47	300.61	16.96	-25.1	-24.9	17.8	0.00e+00	0	45	0	28328329216	21	14370
2026-01-29 21:52:01.38	301.46	16.78	-25.2	-25.0	17.6	0.00e+00	0	45	0	28655484928	21	14561
2026-01-29 21:52:04.29	302.30	16.58	-25.1	-24.9	18.1	0.00e+00	0	45	0	28982640640	21	14409
2026-01-29 21:52:07.21	303.13	16.39	-25.1	-24.9	18.1	0.00e+00	0	45	0	29309796352	21	14385
2026-01-29 21:52:10.12	303.94	16.19	-25.1	-24.9	18.0	0.00e+00	0	45	0	29628563456	21	14431
2026-01-29 21:52:13.04	304.75	15.99	-25.3	-25.1	18.0	0.00e+00	0	45	0	29972496384	21	14688
2026-01-29 21:52:15.95	305.53	15.78	-25.3	-25.1	18.1	0.00e+00	0	45	0	30299652096	21	14775
2026-01-29 21:52:18.87	306.31	15.58	-25.6	-25.4	17.8	0.00e+00	0	45	0	30618419200	21	15230
2026-01-29 21:52:21.79	307.08	15.37	-25.5	-25.3	17.7	0.00e+00	0	45	0	30945574912	21	15016
2026-01-29 21:52:24.70	307.83	15.16	-25.5	-25.4	17.6	0.00e+00	0	45	0	31272730624	21	15147
2026-01-29 21:52:27.62	308.58	14.95	-25.5	-25.3	17.6	0.00e+00	0	45	0	31599886336	21	15085
2026-01-29 21:52:30.54	309.31	14.73	-25.7	-25.5	17.7	0.00e+00	0	45	0	31935430656	22	14576
2026-01-29 21:52:33.45	310.02	14.52	-25.8	-25.7	17.2	0.00e+00	0	45	0	32262586368	22	14814
2026-01-29 21:52:36.37	310.73	14.30	-26.0	-25.8	17.5	0.00e+00	0	45	0	32589742080	22	15049
2026-01-29 21:52:39.29	311.43	14.08	-25.9	-25.7	17.4	0.00e+00	0	46	0	32916897792	22	14902
2026-01-29 21:52:42.20	312.11	13.86	-26.1	-25.9	17.2	0.00e+00	0	45	0	33244053504	22	15259
2026-01-29 21:52:45.12	312.78	13.64	-26.0	-25.9	17.0	0.00e+00	0	45	0	33571209216	22	15148
2026-01-29 21:52:48.04	313.44	13.42	-26.2	-26.1	16.9	0.00e+00	0	45	0	33906753536	23	14629
2026-01-29 21:52:50.95	314.09	13.20	-26.2	-26.1	16.9	1.90e-06	0	45	0	34233909248	23	14671
2026-01-29 21:52:53.87	314.73	12.98	-26.3	-26.2	17.2	0.00e+00	0	45	0	34561064960	23	14856
2026-01-29 21:52:56.78	315.35	12.76	-26.4	-26.2	16.9	0.00e+00	0	46	0	34888220672	23	14933
2026-01-29 21:52:59.69	315.97	12.54	-26.6	-26.5	17.2	0.00e+00	0	45	0	35215376384	23	15315
2026-01-29 21:53:02.61	316.57	12.32	-26.6	-26.4	16.5	0.00e+00	0	45	0	35542532096	23	15265
2026-01-29 21:53:05.52	317.17	12.10	-26.7	-26.6	16.4	5.70e-06	0	46	0	35861299200	24	14673
2026-01-29 21:53:08.44	317.75	11.88	-26.8	-26.6	16.2	0.00e+00	0	46	0	36205232128	24	14684
2026-01-29 21:53:11.36	318.33	11.66	-26.8	-26.7	16.3	5.70e-06	0	46	0	36532387840	24	14831
2026-01-29 21:53:14.28	318.89	11.44	-26.9	-26.8	16.2	3.80e-06	0	45	0	36851154944	24	15001
2026-01-29 21:53:17.19	319.45	11.22	-27.0	-26.9	16.1	1.33e-05	0	45	0	37178310656	24	15164
2026-01-29 21:53:20.11	319.99	11.00	-27.1	-26.9	16.3	1.14e-05	0	45	0	37505466368	24	15250
2026-01-29 21:53:23.02	320.53	10.78	-27.3	-27.1	16.0	9.50e-06	0	45	0	37832622080	25	14732
2026-01-29 21:53:25.94	321.05	10.56	-27.2	-27.0	16.5	3.80e-06	0	45	0	38168166400	25	14582
2026-01-29 21:53:28.86	321.57	10.35	-27.4	-27.2	16.3	9.50e-06	0	45	0	38495322112	25	14895
2026-01-29 21:53:31.77	322.08	10.13	-48.2	-48.7	8.0	0.00e+00	0	45	104	38763757568	67	15679
2026-01-29 21:53:34.69	322.58	9.91	-53.4	-55.5	6.2	0.00e+00	0	45	104	38763757568	77	19299
2026-01-29 21:53:37.61	323.07	9.70	-53.4	-55.5	6.2	0.00e+00	0	45	104	38763757568	77	19310
2026-01-29 21:53:40.52	323.56	9.48	-53.3	-55.5	6.2	0.00e+00	0	45	104	38763757568	77	19271
2026-01-29 21:53:43.44	324.03	9.27	-53.3	-55.4	6.2	0.00e+00	0	45	104	38763757568	77	19086
2026-01-29 21:53:46.35	324.50	9.06	-53.2	-55.3	6.2	0.00e+00	0	45	104	38763757568	77	18959
2026-01-29 21:53:49.27	324.96	8.85	-53.2	-55.3	6.2	0.00e+00	0	45	104	38763757568	77	18920
2026-01-29 21:53:52.18	325.41	8.64	-53.2	-55.3	6.2	0.00e+00	0	45	104	38763757568	77	18998
2026-01-29 21:53:55.11	325.85	8.43	-53.1	-55.2	6.2	0.00e+00	0	45	104	38763757568	77	18665
2026-01-29 21:53:58.02	326.29	8.22	-53.1	-55.2	6.2	0.00e+00	0	45	104	38763757568	77	18615
2026-01-29 21:54:00.94	326.72	8.01	-53.0	-55.2	6.2	0.00e+00	0	45	104	38763757568	77	18643
2026-01-29 21:54:03.85	327.14	7.80	-53.1	-55.2	6.2	0.00e+00	0	45	104	38763757568	77	18643
2026-01-29 21:54:06.76	327.55	7.60	-52.9	-55.0	6.2	0.00e+00	0	45	104	38763757568	77	18311
2026-01-29 21:54:09.69	327.96	7.39	-52.9	-55.0	6.2	0.00e+00	0	45	104	38763757568	77	18290
2026-01-29 21:54:12.60	328.36	7.19	-52.9	-55.0	6.2	0.00e+00	0	45	104	38763757568	77	18269
2026-01-29 21:54:15.51	328.76	6.99	-52.9	-55.0	6.2	0.00e+00	0	45	104	38763757568	77	18276
2026-01-29 21:54:18.44	329.15	6.79	-52.8	-54.9	6.2	0.00e+00	0	45	104	38763757568	77	18127
2026-01-29 21:54:21.35	329.53	6.59	-52.8	-54.9	6.2	0.00e+00	0	45	104	38763757568	77	18139
2026-01-29 21:54:24.26	329.91	6.39	-52.8	-54.9	6.2	0.00e+00	0	45	104	38763757568	77	18125
2026-01-29 21:54:27.18	330.28	6.19	-52.7	-54.8	6.2	0.00e+00	0	45	104	38763757568	77	17866
2026-01-29 21:54:30.10	330.64	5.99	-52.7	-54.8	6.2	0.00e+00	0	45	104	38763757568	77	17867
2026-01-29 21:54:33.01	331.00	5.80	-52.7	-54.8	6.2	0.00e+00	0	45	104	38763757568	77	17828
2026-01-29 21:54:35.92	331.35	5.60	-52.7	-54.8	6.2	0.00e+00	0	45	104	38763757568	77	17941
2026-01-29 21:54:38.84	331.70	5.41	-52.6	-54.7	6.2	0.00e+00	0	45	104	38763757568	77	17585
2026-01-29 21:54:41.76	332.04	5.22	-52.6	-54.7	6.2	0.00e+00	0	45	104	38763757568	77	17607
2026-01-29 21:54:44.68	332.38	5.02	-52.5	-54.6	6.2	0.00e+00	0	45	104	38763757568	76	18395
2026-01-29 21:54:47.59	332.71	4.83	-53.4	-55.5	6.2	0.00e+00	0	45	104	38763757568	77	19309
2026-01-29 21:54:50.51	333.04	4.65	-53.8	-55.9	6.2	0.00e+00	0	45	104	38763757568	78	19084
2026-01-29 21:54:53.43	333.36	4.46	-53.8	-55.9	6.2	0.00e+00	0	45	104	38763757568	78	19224
2026-01-29 21:54:56.34	333.67	4.27	-53.6	-55.7	6.2	0.00e+00	0	45	104	38763757568	78	18758
2026-01-29 21:54:59.25	333.99	4.09	-53.5	-55.6	6.2	0.00e+00	0	45	104	38763757568	78	18568
2026-01-29 21:55:02.17	334.29	3.90	-53.6	-55.7	6.2	0.00e+00	0	45	104	38763757568	78	18747
2026-01-29 21:55:05.09	334.60	3.72	-53.7	-55.8	6.2	0.00e+00	0	45	104	38763757568	78	18878
2026-01-29 21:55:08.01	334.90	3.53	-53.7	-55.8	6.2	0.00e+00	0	45	104	38763757568	78	18888
2026-01-29 21:55:10.93	335.19	3.35	-53.6	-55.7	6.2	0.00e+00	0	45	104	38763757568	78	18716
2026-01-29 21:55:13.85	335.48	3.17	-53.6	-55.7	6.2	0.00e+00	0	45	104	38763757568	78	18700
2026-01-29 21:55:16.76	335.77	2.99	-53.6	-55.7	6.2	0.00e+00	0	45	104	38763757568	78	18669
2026-01-29 21:55:19.67	336.05	2.81	-53.6	-55.7	6.2	0.00e+00	0	45	104	38763757568	78	18625
2026-01-29 21:55:22.58	336.32	2.64	-53.5	-55.6	6.2	0.00e+00	0	45	104	38763757568	78	18518
2026-01-29 21:55:25.51	336.60	2.46	-53.5	-55.6	6.2	0.00e+00	0	45	104	38763757568	78	18475
2026-01-29 21:55:28.42	336.87	2.28	-53.5	-55.6	6.2	0.00e+00	0	45	104	38763757568	78	18481
2026-01-29 21:55:31.33	337.13	2.11	-53.5	-55.6	6.2	0.00e+00	0	45	104	38763757568	78	18433
2026-01-29 21:55:34.24	337.39	1.94	-53.5	-55.6	6.2	0.00e+00	0	45	104	38763757568	78	18436

#Closed at: 2026-01-29 21:55:34
#Recorded file [38763 MB]: D:/lorett/data/31041_260130_004548.dat