passes_logs/2026/01/29/R3.2S_Murmansk/R3.2S_Murmansk__20260129_042614_FENGYUN_3D_rec.log

#Pass ID: 20260129_042614_FENGYUN 3D
#Satellite: FENGYUN 3D
#Configuration: FENGYUN 3D
#almurnet v.1.7.20251203
#Start time: 2026-01-29 04:26:14

#Version: 2.2.20231116
#Station: R3.2S_Murmansk
#Location: 33.079688 lon 68.888172 lat
#TLE: 1 43010U 17072A   26027.97130493  .00000326  00000+0  17586-3 0  9998
#TLE: 2 43010  98.9960 359.9900 0002514  87.8428 272.3036 14.19701925425097

#Time	Az	El	Level	Level2	SNR	BER	BlckErr	Temp	State	Recorded	gain1	gain2
2026-01-29 04:26:14.62	33.42	2.03	-54.0	-65.9	3.8	8.45e-01	0	40	0	0	79	14312
2026-01-29 04:26:18.65	33.28	2.29	-54.0	-66.0	3.8	8.46e-01	0	40	104	0	78	15311
2026-01-29 04:26:22.68	33.14	2.54	-54.2	-66.2	3.8	8.47e-01	0	40	104	0	79	14754
2026-01-29 04:26:26.71	32.99	2.79	-54.2	-66.1	3.8	8.47e-01	0	40	104	0	79	14653
2026-01-29 04:26:30.75	32.85	3.05	-54.1	-66.1	3.8	8.46e-01	0	40	104	0	79	14624
2026-01-29 04:26:34.77	32.70	3.31	-53.8	-65.7	3.8	8.47e-01	0	40	104	0	79	13979
2026-01-29 04:26:38.80	32.54	3.57	-53.1	-65.0	3.8	8.46e-01	0	40	104	0	78	13718
2026-01-29 04:26:42.83	32.39	3.83	-51.7	-62.6	3.8	8.46e-01	0	41	104	0	75	12285
2026-01-29 04:26:46.87	32.23	4.10	-51.0	-57.6	5.3	7.41e-01	0	41	0	0	74	7325
2026-01-29 04:26:50.89	32.07	4.37	-50.4	-55.6	6.8	2.14e-01	0	41	0	18874368	72	6556
2026-01-29 04:26:54.92	31.90	4.64	-50.8	-57.0	5.7	4.27e-01	0	41	0	41943040	72	7719
2026-01-29 04:26:58.95	31.73	4.91	-51.0	-57.7	5.2	7.49e-01	0	41	0	47185920	72	8341
2026-01-29 04:27:02.96	31.56	5.19	-50.6	-56.1	6.5	2.10e-01	0	41	0	61865984	72	6916
2026-01-29 04:27:06.99	31.39	5.47	-50.0	-54.2	8.4	1.61e-01	0	41	0	73400320	71	5893
2026-01-29 04:27:11.02	31.21	5.75	-48.9	-51.9	10.7	6.02e-03	0	41	0	96468992	69	5080
2026-01-29 04:27:15.05	31.02	6.03	-46.1	-47.8	14.9	0.00e+00	0	41	0	119537664	64	4238
2026-01-29 04:27:19.09	30.83	6.32	-44.2	-45.5	17.7	0.00e+00	0	41	0	141557760	59	4295
2026-01-29 04:27:23.11	30.64	6.61	-43.2	-44.2	19.1	0.00e+00	0	42	0	164626432	58	3951
2026-01-29 04:27:27.15	30.45	6.90	-42.9	-43.9	19.3	0.00e+00	0	42	0	187695104	57	4049
2026-01-29 04:27:31.17	30.25	7.19	-42.7	-43.8	19.4	0.00e+00	0	41	0	209715200	56	4200
2026-01-29 04:27:35.21	30.04	7.49	-42.7	-43.7	19.7	0.00e+00	0	42	0	231735296	56	4185
2026-01-29 04:27:39.24	29.83	7.80	-42.5	-43.5	19.8	0.00e+00	0	42	0	254803968	56	4090
2026-01-29 04:27:43.26	29.62	8.10	-42.7	-43.7	19.7	0.00e+00	0	42	0	277872640	56	4157
2026-01-29 04:27:47.29	29.40	8.41	-42.3	-43.3	20.3	0.00e+00	0	42	0	299892736	56	3960
2026-01-29 04:27:51.33	29.17	8.72	-42.4	-43.4	20.3	0.00e+00	0	42	0	322961408	56	4019
2026-01-29 04:27:55.36	28.95	9.04	-42.4	-43.4	20.3	0.00e+00	0	42	0	346030080	56	4025
2026-01-29 04:27:59.40	28.71	9.36	-42.1	-43.1	20.6	0.00e+00	0	42	0	368050176	56	3885
2026-01-29 04:28:03.42	28.47	9.68	-42.2	-43.2	20.5	0.00e+00	0	42	0	391118848	56	3922
2026-01-29 04:28:07.45	28.22	10.00	-41.8	-42.7	21.0	0.00e+00	0	42	0	414187520	55	3929
2026-01-29 04:28:11.49	27.97	10.33	-41.9	-42.8	20.8	0.00e+00	0	42	0	436207616	55	4000
2026-01-29 04:28:15.51	27.72	10.67	-41.7	-42.6	21.0	0.00e+00	0	42	0	459276288	55	3877
2026-01-29 04:28:19.53	27.45	11.00	-41.9	-42.8	20.9	0.00e+00	0	42	0	482344960	55	3981
2026-01-29 04:28:23.57	27.18	11.35	-41.7	-42.6	21.1	0.00e+00	0	42	0	504365056	55	3887
2026-01-29 04:28:27.61	26.90	11.69	-41.8	-42.7	21.1	0.00e+00	0	42	0	527433728	55	3931
2026-01-29 04:28:31.64	26.62	12.04	-41.6	-42.4	21.3	0.00e+00	0	42	0	550502400	55	3823
2026-01-29 04:28:35.67	26.32	12.40	-41.3	-42.2	21.6	0.00e+00	0	42	0	572522496	54	3939
2026-01-29 04:28:39.71	26.02	12.76	-41.1	-42.0	21.8	0.00e+00	0	42	0	594542592	54	3825
2026-01-29 04:28:43.75	25.72	13.12	-40.9	-41.8	22.0	0.00e+00	0	42	0	617611264	53	3983
2026-01-29 04:28:47.77	25.40	13.49	-40.8	-41.7	22.1	0.00e+00	0	42	0	640679936	53	3928
2026-01-29 04:28:51.81	25.08	13.86	-40.9	-41.7	22.1	0.00e+00	0	42	0	662700032	53	3947
2026-01-29 04:28:55.83	24.75	14.24	-41.0	-41.8	22.0	0.00e+00	0	42	0	685768704	53	3997
2026-01-29 04:28:59.86	24.40	14.62	-40.7	-41.5	22.3	0.00e+00	0	42	0	708837376	53	3847
2026-01-29 04:29:03.88	24.05	15.01	-40.6	-41.4	22.5	0.00e+00	0	42	0	730857472	53	3799
2026-01-29 04:29:07.90	23.69	15.40	-40.4	-41.2	22.6	0.00e+00	0	42	0	753926144	52	3950
2026-01-29 04:29:11.93	23.32	15.80	-40.5	-41.3	22.6	0.00e+00	0	42	0	776994816	52	3966
2026-01-29 04:29:15.97	22.94	16.20	-40.1	-40.9	22.9	0.00e+00	0	42	0	799014912	52	3823
2026-01-29 04:29:20.01	22.55	16.61	-40.1	-40.9	23.1	0.00e+00	0	42	0	822083584	51	4034
2026-01-29 04:29:24.04	22.15	17.02	-40.0	-40.7	23.2	0.00e+00	0	42	0	845152256	51	3953
2026-01-29 04:29:28.07	21.73	17.44	-40.1	-40.9	23.1	0.00e+00	0	42	0	867172352	51	4018
2026-01-29 04:29:32.10	21.30	17.87	-40.1	-40.9	23.1	0.00e+00	0	42	0	890241024	51	4029
2026-01-29 04:29:36.13	20.87	18.30	-39.8	-40.6	23.4	0.00e+00	0	42	0	913309696	51	3884
2026-01-29 04:29:40.17	20.41	18.74	-39.6	-40.4	23.6	0.00e+00	0	42	0	935329792	51	3793
2026-01-29 04:29:44.21	19.94	19.18	-39.5	-40.3	23.8	0.00e+00	0	42	0	958398464	50	3960
2026-01-29 04:29:48.23	19.46	19.63	-39.6	-40.4	23.6	0.00e+00	0	42	0	981467136	50	4020
2026-01-29 04:29:52.27	18.97	20.08	-39.5	-40.2	23.8	0.00e+00	0	42	0	1003487232	50	3951
2026-01-29 04:29:56.29	18.46	20.54	-39.1	-39.9	24.1	0.00e+00	0	42	0	1025507328	50	3795
2026-01-29 04:30:00.33	17.93	21.01	-39.0	-39.7	24.3	0.00e+00	0	42	0	1048576000	49	3950
2026-01-29 04:30:04.35	17.39	21.48	-39.1	-39.8	24.2	0.00e+00	0	42	0	1071644672	49	3995
2026-01-29 04:30:08.39	16.82	21.96	-39.0	-39.7	24.3	0.00e+00	0	42	0	1093664768	49	3935
2026-01-29 04:30:12.43	16.24	22.45	-39.0	-39.8	24.2	0.00e+00	0	42	0	1116733440	49	3976
2026-01-29 04:30:16.46	15.65	22.94	-38.6	-39.3	24.7	0.00e+00	0	42	0	1139802112	49	3771
2026-01-29 04:30:20.49	15.03	23.43	-38.7	-39.4	24.6	0.00e+00	0	42	0	1161822208	49	3815
2026-01-29 04:30:24.53	14.39	23.94	-38.6	-39.4	24.7	0.00e+00	0	42	0	1184890880	49	3784
2026-01-29 04:30:28.56	13.73	24.44	-38.7	-39.4	24.7	0.00e+00	0	42	0	1207959552	49	3799
2026-01-29 04:30:32.60	13.04	24.96	-38.5	-39.2	24.8	0.00e+00	0	42	0	1229979648	49	3726
2026-01-29 04:30:36.64	12.34	25.48	-38.5	-39.2	24.8	0.00e+00	0	42	0	1253048320	48	3958
2026-01-29 04:30:40.67	11.61	26.00	-38.4	-39.1	25.0	0.00e+00	0	42	0	1276116992	48	3899
2026-01-29 04:30:44.70	10.85	26.53	-38.3	-39.0	25.0	0.00e+00	0	42	0	1298137088	48	3863
2026-01-29 04:30:48.73	10.07	27.07	-38.5	-39.2	24.9	0.00e+00	0	42	0	1321205760	48	3953
2026-01-29 04:30:52.76	9.26	27.61	-38.5	-39.2	24.9	0.00e+00	0	42	0	1344274432	48	3958
2026-01-29 04:30:56.79	8.43	28.15	-38.2	-38.9	25.2	0.00e+00	0	42	0	1366294528	48	3807
2026-01-29 04:31:00.82	7.56	28.69	-38.2	-38.9	25.2	0.00e+00	0	42	0	1389363200	48	3802
2026-01-29 04:31:04.86	6.67	29.24	-38.1	-38.8	25.3	0.00e+00	0	42	0	1411383296	48	3746
2026-01-29 04:31:08.90	5.74	29.80	-38.3	-39.0	25.2	0.00e+00	0	42	0	1434451968	48	3831
2026-01-29 04:31:12.93	4.78	30.35	-38.0	-38.7	25.4	0.00e+00	0	42	0	1457520640	48	3715
2026-01-29 04:31:16.96	3.78	30.91	-38.1	-38.8	25.3	0.00e+00	0	42	0	1479540736	48	3770
2026-01-29 04:31:21.00	2.75	31.46	-37.7	-38.4	25.3	0.00e+00	0	42	0	1502609408	47	3789
2026-01-29 04:31:25.03	1.68	32.02	-37.7	-38.4	25.2	0.00e+00	0	42	0	1525678080	47	3819
2026-01-29 04:31:29.06	0.58	32.57	-37.7	-38.4	25.2	0.00e+00	0	42	0	1547698176	47	3818
2026-01-29 04:31:33.09	359.44	33.12	-37.9	-38.6	25.1	0.00e+00	0	42	0	1570766848	47	3883
2026-01-29 04:31:37.13	358.25	33.67	-37.8	-38.5	25.2	0.00e+00	0	42	0	1593835520	47	3860
2026-01-29 04:31:41.17	357.03	34.22	-37.4	-38.2	25.5	0.00e+00	0	42	0	1615855616	46	3916
2026-01-29 04:31:45.20	355.76	34.75	-37.5	-38.2	25.5	0.00e+00	0	42	0	1638924288	46	3949
2026-01-29 04:31:49.23	354.46	35.28	-37.5	-38.2	25.5	0.00e+00	0	42	0	1661992960	46	3918
2026-01-29 04:31:53.27	353.10	35.81	-37.7	-38.4	25.4	0.00e+00	0	42	0	1684013056	46	4014
2026-01-29 04:31:57.29	351.71	36.31	-37.9	-38.6	25.2	0.00e+00	0	42	0	1707081728	46	4136
2026-01-29 04:32:01.32	350.27	36.81	-38.0	-38.8	25.0	0.00e+00	0	42	0	1730150400	46	4195
2026-01-29 04:32:05.35	348.79	37.30	-37.8	-38.5	25.3	0.00e+00	0	42	0	1752170496	46	4064
2026-01-29 04:32:09.38	347.26	37.76	-37.8	-38.5	25.3	0.00e+00	0	42	0	1774190592	46	4063
2026-01-29 04:32:13.41	345.69	38.22	-38.0	-38.7	25.1	0.00e+00	0	42	0	1797259264	46	4173
2026-01-29 04:32:17.43	344.08	38.65	-37.7	-38.4	25.4	0.00e+00	0	42	0	1820327936	46	4024
2026-01-29 04:32:21.47	342.42	39.06	-37.8	-38.6	25.3	0.00e+00	0	42	0	1842348032	46	4102
2026-01-29 04:32:25.51	340.72	39.44	-38.0	-38.7	25.2	0.00e+00	0	42	0	1865416704	46	4170
2026-01-29 04:32:29.54	338.98	39.81	-37.4	-38.1	25.7	0.00e+00	0	42	0	1888485376	46	3904
2026-01-29 04:32:33.57	337.21	40.14	-37.5	-38.2	25.6	0.00e+00	0	42	0	1910505472	46	3933
2026-01-29 04:32:37.59	335.40	40.44	-37.8	-38.5	25.4	0.00e+00	0	42	0	1933574144	46	4060
2026-01-29 04:32:41.62	333.55	40.72	-37.7	-38.4	25.4	0.00e+00	0	42	0	1956642816	46	4028
2026-01-29 04:32:45.65	331.68	40.96	-37.4	-38.1	25.7	0.00e+00	0	42	0	1978662912	46	3898
2026-01-29 04:32:49.69	329.77	41.17	-37.3	-38.0	25.8	0.00e+00	0	42	0	2001731584	46	3841
2026-01-29 04:32:53.73	327.84	41.34	-37.6	-38.3	25.6	0.00e+00	0	42	0	2024800256	46	3974
2026-01-29 04:32:57.76	325.90	41.48	-37.6	-38.3	25.6	0.00e+00	0	42	0	2046820352	46	3968
2026-01-29 04:33:01.80	323.94	41.57	-37.9	-38.6	25.2	0.00e+00	0	42	0	2069889024	46	4136
2026-01-29 04:33:05.82	321.98	41.64	-37.4	-38.2	25.7	0.00e+00	0	42	0	2092957696	46	3919
2026-01-29 04:33:09.86	320.00	41.66	-37.9	-38.7	25.3	0.00e+00	0	42	0	2114977792	46	4146
2026-01-29 04:33:13.89	318.03	41.64	-37.7	-38.4	25.5	0.00e+00	0	42	0	2136997888	46	4047
2026-01-29 04:33:17.93	316.05	41.59	-37.3	-38.0	25.9	0.00e+00	0	42	0	2160066560	46	3836
2026-01-29 04:33:21.96	314.10	41.50	-37.7	-38.4	25.5	0.00e+00	0	42	0	2183135232	46	4048
2026-01-29 04:33:26.00	312.14	41.37	-37.8	-38.5	25.4	0.00e+00	0	42	0	2205155328	46	4074
2026-01-29 04:33:30.02	310.22	41.20	-37.8	-38.5	25.4	0.00e+00	0	42	0	2228224000	46	4070
2026-01-29 04:33:34.06	308.31	41.00	-37.3	-38.0	25.9	0.00e+00	0	42	0	2251292672	46	3852
2026-01-29 04:33:38.09	306.43	40.76	-37.5	-38.2	25.7	0.00e+00	0	42	0	2273312768	46	3914
2026-01-29 04:33:42.13	304.57	40.49	-37.8	-38.5	25.5	0.00e+00	0	42	0	2296381440	46	4074
2026-01-29 04:33:46.15	302.76	40.19	-37.5	-38.2	25.7	0.00e+00	0	42	0	2319450112	46	3949
2026-01-29 04:33:50.18	300.97	39.86	-37.4	-38.0	25.9	0.00e+00	0	42	0	2341470208	46	3863
2026-01-29 04:33:54.21	299.23	39.51	-37.9	-38.6	25.4	0.00e+00	0	42	0	2364538880	46	4129
2026-01-29 04:33:58.24	297.52	39.12	-37.5	-38.2	25.8	0.00e+00	0	42	0	2387607552	46	3923
2026-01-29 04:34:02.27	295.85	38.72	-37.6	-38.4	25.6	0.00e+00	0	42	0	2409627648	46	4007
2026-01-29 04:34:06.31	294.23	38.29	-37.5	-38.2	25.7	0.00e+00	0	42	0	2432696320	46	3930
2026-01-29 04:34:10.34	292.64	37.84	-37.6	-38.3	25.6	0.00e+00	0	42	0	2455764992	46	4003
2026-01-29 04:34:14.38	291.10	37.37	-37.4	-38.1	25.8	0.00e+00	0	42	0	2477785088	46	3897
2026-01-29 04:34:18.42	289.61	36.89	-37.6	-38.3	25.7	0.00e+00	0	42	0	2499805184	46	3979
2026-01-29 04:34:22.45	288.16	36.39	-37.7	-38.4	25.6	0.00e+00	0	42	0	2522873856	46	4043
2026-01-29 04:34:26.49	286.75	35.88	-37.9	-38.6	25.5	0.00e+00	0	42	0	2545942528	46	4102
2026-01-29 04:34:30.52	285.39	35.36	-37.7	-38.4	25.6	0.00e+00	0	42	0	2567962624	46	4020
2026-01-29 04:34:34.55	284.08	34.83	-37.7	-38.4	25.6	0.00e+00	0	42	0	2591031296	46	4042
2026-01-29 04:34:38.59	282.80	34.29	-37.7	-38.4	25.6	0.00e+00	0	42	0	2614099968	46	4012
2026-01-29 04:34:42.61	281.57	33.75	-37.6	-38.3	25.6	0.00e+00	0	42	0	2636120064	46	3996
2026-01-29 04:34:46.63	280.39	33.20	-37.5	-38.2	25.7	0.00e+00	0	42	0	2659188736	46	3939
2026-01-29 04:34:50.67	279.23	32.65	-37.6	-38.3	25.6	0.00e+00	0	42	0	2682257408	46	4001
2026-01-29 04:34:54.69	278.12	32.10	-37.9	-38.6	25.3	0.00e+00	0	42	0	2704277504	46	4141
2026-01-29 04:34:58.73	277.05	31.54	-37.7	-38.4	25.5	0.00e+00	0	42	0	2727346176	46	4016
2026-01-29 04:35:02.76	276.01	30.98	-37.9	-38.7	25.2	0.00e+00	0	42	0	2750414848	46	4149
2026-01-29 04:35:06.79	275.01	30.43	-38.4	-39.1	24.8	0.00e+00	0	42	0	2772434944	47	4119
2026-01-29 04:35:10.82	274.04	29.87	-38.4	-39.1	24.8	0.00e+00	0	42	0	2795503616	47	4124
2026-01-29 04:35:14.85	273.10	29.32	-38.3	-39.0	24.9	0.00e+00	0	42	0	2818572288	47	4084
2026-01-29 04:35:18.87	272.20	28.77	-38.1	-38.8	25.0	0.00e+00	0	42	0	2840592384	47	4003
2026-01-29 04:35:22.89	271.33	28.22	-38.2	-38.9	24.9	0.00e+00	0	42	0	2862612480	47	4015
2026-01-29 04:35:26.92	270.49	27.68	-38.2	-39.0	24.9	0.00e+00	0	42	0	2885681152	47	4064
2026-01-29 04:35:30.94	269.68	27.14	-38.4	-39.1	24.8	0.00e+00	0	42	0	2908749824	47	4118
2026-01-29 04:35:34.98	268.89	26.60	-38.4	-39.1	24.7	0.00e+00	0	42	0	2930769920	47	4134
2026-01-29 04:35:39.01	268.13	26.07	-38.4	-39.1	24.7	0.00e+00	0	42	0	2953838592	47	4130
2026-01-29 04:35:43.04	267.39	25.54	-38.6	-39.4	24.4	0.00e+00	0	42	0	2976907264	47	4249
2026-01-29 04:35:47.07	266.68	25.02	-38.8	-39.5	24.8	0.00e+00	0	42	0	2998927360	48	4078
2026-01-29 04:35:51.10	265.99	24.50	-38.9	-39.6	24.7	0.00e+00	0	42	0	3021996032	48	4145
2026-01-29 04:35:55.13	265.32	23.99	-38.8	-39.6	24.7	0.00e+00	0	42	0	3045064704	48	4099
2026-01-29 04:35:59.15	264.68	23.49	-38.7	-39.4	24.8	0.00e+00	0	42	0	3067084800	48	4027
2026-01-29 04:36:03.19	264.06	22.99	-38.6	-39.3	24.9	0.00e+00	0	42	0	3090153472	48	4002
2026-01-29 04:36:07.22	263.45	22.50	-39.0	-39.7	24.5	0.00e+00	0	42	0	3112173568	48	4164
2026-01-29 04:36:11.25	262.87	22.01	-39.1	-39.8	24.4	0.00e+00	0	42	0	3135242240	48	4217
2026-01-29 04:36:15.28	262.30	21.53	-39.3	-40.0	24.2	0.00e+00	0	42	0	3158310912	49	4069
2026-01-29 04:36:19.31	261.75	21.06	-39.2	-39.9	24.3	0.00e+00	0	42	0	3180331008	49	4028
2026-01-29 04:36:23.34	261.22	20.59	-39.2	-40.0	24.3	0.00e+00	0	42	0	3203399680	49	4061
2026-01-29 04:36:27.37	260.71	20.13	-39.2	-40.0	24.2	0.00e+00	0	42	0	3225419776	49	4061
2026-01-29 04:36:31.40	260.21	19.67	-39.6	-40.3	23.8	0.00e+00	0	42	0	3248488448	49	4242
2026-01-29 04:36:35.42	259.72	19.22	-39.6	-40.4	23.8	0.00e+00	0	42	0	3271557120	50	4031
2026-01-29 04:36:39.45	259.25	18.78	-39.5	-40.2	24.0	0.00e+00	0	42	0	3293577216	50	3951
2026-01-29 04:36:43.48	258.79	18.34	-39.6	-40.4	23.8	0.00e+00	0	42	0	3316645888	50	4015
2026-01-29 04:36:47.52	258.35	17.90	-40.0	-40.8	23.5	0.00e+00	0	42	0	3338665984	50	4197
2026-01-29 04:36:51.55	257.92	17.48	-40.2	-41.0	23.2	0.00e+00	0	42	0	3361734656	50	4298
2026-01-29 04:36:55.59	257.50	17.05	-40.3	-41.0	23.2	0.00e+00	0	42	0	3384803328	51	4095
2026-01-29 04:36:59.63	257.09	16.64	-40.3	-41.1	23.1	0.00e+00	0	42	0	3407872000	51	4109
2026-01-29 04:37:03.66	256.69	16.23	-40.3	-41.1	23.1	0.00e+00	0	42	0	3429892096	51	4105
2026-01-29 04:37:07.69	256.31	15.82	-40.4	-41.1	23.0	0.00e+00	0	42	0	3452960768	51	4142
2026-01-29 04:37:11.71	255.94	15.42	-40.5	-41.4	22.8	0.00e+00	0	42	0	3474980864	51	4243
2026-01-29 04:37:15.75	255.57	15.03	-40.6	-41.5	22.7	0.00e+00	0	42	0	3498049536	51	4296
2026-01-29 04:37:19.78	255.22	14.64	-40.7	-41.6	22.5	0.00e+00	0	42	0	3521118208	52	4111
2026-01-29 04:37:23.80	254.87	14.26	-40.8	-41.6	22.4	0.00e+00	0	42	0	3543138304	52	4134
2026-01-29 04:37:27.83	254.54	13.88	-40.9	-41.7	22.3	0.00e+00	0	42	0	3566206976	52	4179
2026-01-29 04:37:31.87	254.21	13.50	-40.9	-41.8	22.3	0.00e+00	0	42	0	3588227072	52	4197
2026-01-29 04:37:35.91	253.89	13.13	-40.9	-41.7	22.3	0.00e+00	0	42	0	3611295744	52	4169
2026-01-29 04:37:39.94	253.58	12.77	-41.1	-41.9	22.1	0.00e+00	0	42	0	3634364416	52	4270
2026-01-29 04:37:43.98	253.27	12.41	-41.3	-42.1	21.9	0.00e+00	0	42	0	3656384512	53	4139
2026-01-29 04:37:48.00	252.98	12.05	-41.4	-42.3	21.7	0.00e+00	0	42	0	3679453184	53	4203
2026-01-29 04:37:52.03	252.69	11.70	-41.5	-42.3	21.7	0.00e+00	0	42	0	3702521856	53	4227
2026-01-29 04:37:56.07	252.41	11.35	-41.4	-42.2	21.7	0.00e+00	0	42	0	3724541952	53	4176
2026-01-29 04:38:00.10	252.14	11.01	-41.5	-42.4	21.6	0.00e+00	0	42	0	3747610624	53	4245
2026-01-29 04:38:04.14	251.87	10.67	-41.5	-42.4	21.5	0.00e+00	0	42	0	3770679296	53	4270
2026-01-29 04:38:08.17	251.61	10.33	-41.7	-42.6	21.3	0.00e+00	0	42	0	3792699392	53	4377
2026-01-29 04:38:12.20	251.35	10.00	-41.8	-42.7	21.2	0.00e+00	0	42	0	3815768064	54	4163
2026-01-29 04:38:16.24	251.10	9.67	-41.7	-42.6	21.2	0.00e+00	0	42	0	3838836736	54	4133
2026-01-29 04:38:20.27	250.86	9.35	-42.0	-42.9	20.9	0.00e+00	0	42	0	3860856832	54	4264
2026-01-29 04:38:24.29	250.62	9.03	-42.0	-42.9	20.9	0.00e+00	0	42	0	3883925504	54	4272
2026-01-29 04:38:28.33	250.39	8.71	-42.1	-43.1	20.7	0.00e+00	0	42	0	3906994176	54	4342
2026-01-29 04:38:32.37	250.16	8.40	-42.2	-43.1	20.6	0.00e+00	0	42	0	3929014272	54	4385
2026-01-29 04:38:36.40	249.94	8.09	-42.2	-43.2	20.5	0.00e+00	0	42	0	3951034368	55	4167
2026-01-29 04:38:40.44	249.72	7.78	-42.2	-43.1	20.6	0.00e+00	0	42	0	3974103040	55	4133
2026-01-29 04:38:44.47	249.51	7.48	-42.3	-43.2	20.4	0.00e+00	0	42	0	3997171712	55	4187
2026-01-29 04:38:48.51	249.30	7.18	-42.3	-43.3	20.3	0.00e+00	0	42	0	4019191808	55	4215
2026-01-29 04:38:52.54	249.10	6.88	-42.4	-43.3	20.2	0.00e+00	0	42	0	4042260480	55	4242
2026-01-29 04:38:56.56	248.90	6.59	-42.6	-43.6	20.0	0.00e+00	0	42	0	4065329152	55	4359
2026-01-29 04:39:00.59	248.71	6.30	-42.5	-43.5	20.0	0.00e+00	0	42	0	4087349248	55	4292
2026-01-29 04:39:04.62	248.52	6.01	-42.8	-43.8	19.7	0.00e+00	0	42	0	4110417920	56	4221
2026-01-29 04:39:08.65	248.33	5.73	-43.1	-44.2	19.3	0.00e+00	0	42	0	4133486592	57	4147
2026-01-29 04:39:12.68	248.15	5.45	-43.0	-44.1	19.4	0.00e+00	0	42	0	4155506688	57	4119
2026-01-29 04:39:16.72	247.97	5.17	-43.4	-44.6	18.9	0.00e+00	0	42	0	4178575360	57	4345
2026-01-29 04:39:20.76	247.79	4.89	-52.6	-64.6	3.8	8.45e-01	0	42	104	4195352576	75	15487
2026-01-29 04:39:24.80	247.62	4.61	-53.2	-65.1	3.8	8.46e-01	0	42	104	4195352576	76	15513
2026-01-29 04:39:28.83	247.45	4.34	-53.1	-65.0	3.8	8.46e-01	0	42	104	4195352576	76	15354
2026-01-29 04:39:32.88	247.29	4.07	-52.9	-64.9	3.8	8.47e-01	0	42	104	4195352576	76	15096
2026-01-29 04:39:36.91	247.12	3.81	-53.2	-65.1	3.8	8.46e-01	0	42	104	4195352576	76	15488
2026-01-29 04:39:40.94	246.97	3.54	-53.3	-65.2	3.8	8.46e-01	0	42	104	4195352576	77	14826
2026-01-29 04:39:44.97	246.81	3.28	-53.2	-65.2	3.8	8.46e-01	0	42	104	4195352576	77	14745
2026-01-29 04:39:48.99	246.66	3.02	-53.2	-65.1	3.8	8.47e-01	0	42	104	4195352576	77	14610
2026-01-29 04:39:53.01	246.51	2.76	-53.1	-65.1	3.8	8.46e-01	0	42	104	4195352576	77	14635
2026-01-29 04:39:57.04	246.36	2.51	-53.1	-65.1	3.8	8.45e-01	0	42	104	4195352576	77	14571
2026-01-29 04:40:01.08	246.22	2.25	-53.1	-65.0	3.8	8.46e-01	0	42	104	4195352576	77	14538
2026-01-29 04:40:05.11	246.08	2.00	-53.1	-65.0	3.8	8.45e-01	0	42	104	4195352576	77	14484

#Closed at: 2026-01-29 04:40:07
#Recorded file [4195 MB]: D:/lorett/data/31041_260129_072614.dat