passes_logs/2026/01/29/R3.2S_Murmansk/R3.2S_Murmansk__20260129_100628_SUOMI_NPP_rec.log

#Pass ID: 20260129_100628_SUOMI NPP
#Satellite: SUOMI NPP
#Configuration: NPP
#almurnet v.1.7.20251203
#Start time: 2026-01-29 10:06:28

#Version: 2.2.20231116
#Station: R3.2S_Murmansk
#Location: 33.079688 lon 68.888172 lat
#TLE: 1 37849U 11061A   26028.91916408  .00000155  00000+0  94467-4 0  9990
#TLE: 2 37849  98.7824 330.8488 0002045  39.4457 320.6868 14.19531289738686

#Time	Az	El	Level	Level2	SNR	BER	BlckErr	Temp	State	Recorded	gain1	gain2
2026-01-29 10:06:28.52	163.91	2.01	-52.7	-67.6	3.8	1.49e+00	0	40	0	0	77	19498
2026-01-29 10:06:32.54	163.98	2.26	-52.2	-67.1	3.8	1.49e+00	0	40	104	0	75	20701
2026-01-29 10:06:36.58	164.05	2.53	-52.2	-67.1	3.8	1.49e+00	0	40	104	0	75	20720
2026-01-29 10:06:40.61	164.12	2.79	-52.2	-67.0	3.8	1.49e+00	0	40	104	0	75	20451
2026-01-29 10:06:44.64	164.19	3.05	-52.1	-66.3	3.8	1.49e+00	0	40	104	0	75	18770
2026-01-29 10:06:48.67	164.26	3.32	-52.1	-66.3	3.8	1.49e+00	0	40	104	0	75	18886
2026-01-29 10:06:52.70	164.33	3.59	-52.0	-64.9	3.9	1.49e+00	0	40	104	0	75	15974
2026-01-29 10:06:56.73	164.41	3.87	-50.9	-56.9	8.8	5.11e-02	0	41	0	5242880	73	7196
2026-01-29 10:07:00.76	164.48	4.14	-48.9	-52.0	14.0	4.50e-06	0	40	0	12582912	69	5140
2026-01-29 10:07:04.79	164.56	4.42	-47.5	-49.8	16.2	0.00e+00	0	40	0	19922944	67	4445
2026-01-29 10:07:08.82	164.64	4.70	-48.2	-50.9	15.1	0.00e+00	0	41	0	27262976	66	5352
2026-01-29 10:07:12.85	164.72	4.99	-49.8	-53.9	12.0	1.95e-04	0	41	0	35651584	70	6032
2026-01-29 10:07:16.88	164.80	5.28	-50.0	-54.1	11.9	6.84e-02	0	41	0	40894464	71	5850
2026-01-29 10:07:20.92	164.88	5.57	-47.3	-49.4	16.7	0.00e+00	0	40	0	45088768	66	4527
2026-01-29 10:07:24.94	164.96	5.86	-47.1	-49.1	17.0	0.00e+00	0	41	0	52428800	66	4375
2026-01-29 10:07:28.97	165.05	6.16	-46.9	-48.8	17.4	0.00e+00	0	41	0	59768832	65	4453
2026-01-29 10:07:33.00	165.13	6.46	-46.6	-48.4	17.8	0.00e+00	0	41	0	68157440	65	4273
2026-01-29 10:07:37.03	165.22	6.77	-46.3	-48.0	18.1	0.00e+00	0	41	0	75497472	64	4324
2026-01-29 10:07:41.06	165.31	7.07	-46.4	-48.2	18.0	0.00e+00	0	41	0	82837504	64	4421
2026-01-29 10:07:45.09	165.40	7.39	-46.3	-48.0	18.3	0.00e+00	0	41	0	90177536	64	4328
2026-01-29 10:07:49.12	165.49	7.70	-46.2	-47.9	18.5	0.00e+00	0	41	0	98566144	64	4244
2026-01-29 10:07:53.15	165.59	8.02	-46.0	-47.6	18.8	0.00e+00	0	41	0	105906176	63	4386
2026-01-29 10:07:57.18	165.68	8.34	-46.2	-47.8	18.6	0.00e+00	0	41	0	113246208	63	4493
2026-01-29 10:08:01.21	165.78	8.67	-46.0	-47.6	18.9	0.00e+00	0	41	0	120586240	63	4357
2026-01-29 10:08:05.23	165.88	9.00	-46.1	-47.7	18.8	0.00e+00	0	41	0	127926272	63	4421
2026-01-29 10:08:09.26	165.98	9.34	-46.1	-47.7	18.9	0.00e+00	0	41	0	136314880	63	4403
2026-01-29 10:08:13.29	166.09	9.68	-45.6	-47.0	19.5	0.00e+00	0	41	0	143654912	63	4075
2026-01-29 10:08:17.32	166.19	10.03	-45.3	-46.7	19.7	0.00e+00	0	41	0	150994944	62	4182
2026-01-29 10:08:21.35	166.30	10.38	-45.4	-46.9	19.6	0.00e+00	0	41	0	158334976	62	4243
2026-01-29 10:08:25.38	166.41	10.73	-45.3	-46.7	19.8	0.00e+00	0	41	0	165675008	62	4169
2026-01-29 10:08:29.40	166.53	11.09	-45.0	-46.3	20.2	0.00e+00	0	41	0	173015040	62	3987
2026-01-29 10:08:33.42	166.64	11.46	-44.9	-46.2	20.3	0.00e+00	0	41	0	181403648	61	4188
2026-01-29 10:08:37.45	166.76	11.83	-44.7	-45.9	20.5	0.00e+00	0	41	0	188743680	61	4048
2026-01-29 10:08:41.48	166.88	12.21	-44.5	-45.7	20.8	0.00e+00	0	41	0	196083712	60	4183
2026-01-29 10:08:45.51	167.00	12.59	-44.3	-45.5	20.9	0.00e+00	0	42	0	203423744	60	4097
2026-01-29 10:08:49.54	167.13	12.98	-44.2	-45.4	21.0	0.00e+00	0	41	0	211812352	60	4030
2026-01-29 10:08:53.56	167.26	13.37	-44.2	-45.4	21.1	0.00e+00	0	41	0	219152384	60	4017
2026-01-29 10:08:57.59	167.39	13.77	-44.3	-45.4	21.1	0.00e+00	0	42	0	226492416	60	4041
2026-01-29 10:09:01.62	167.53	14.18	-44.0	-45.1	21.4	0.00e+00	0	42	0	233832448	60	3903
2026-01-29 10:09:05.65	167.66	14.60	-44.1	-45.3	21.2	0.00e+00	0	41	0	241172480	60	3970
2026-01-29 10:09:09.67	167.81	15.02	-44.6	-45.8	21.1	0.00e+00	0	41	0	249561088	59	4451
2026-01-29 10:09:13.70	167.95	15.45	-44.5	-45.7	21.2	0.00e+00	0	41	0	256901120	59	4396
2026-01-29 10:09:17.73	168.10	15.89	-44.5	-45.7	20.9	0.00e+00	0	42	0	264241152	60	4183
2026-01-29 10:09:21.76	168.26	16.33	-44.7	-45.9	20.7	0.00e+00	0	41	0	271581184	60	4276
2026-01-29 10:09:25.78	168.41	16.78	-44.9	-46.2	20.6	0.00e+00	0	42	0	278921216	60	4407
2026-01-29 10:09:29.81	168.58	17.24	-45.1	-46.4	20.3	0.00e+00	0	42	0	286261248	60	4508
2026-01-29 10:09:33.83	168.74	17.71	-45.1	-46.4	20.3	0.00e+00	0	41	0	294649856	61	4266
2026-01-29 10:09:37.86	168.92	18.19	-45.5	-46.8	19.9	0.00e+00	0	42	0	301989888	61	4479
2026-01-29 10:09:41.89	169.09	18.68	-45.8	-47.2	19.7	0.00e+00	0	42	0	309329920	62	4406
2026-01-29 10:09:45.91	169.28	19.18	-46.0	-47.5	19.3	0.00e+00	0	42	0	316669952	62	4585
2026-01-29 10:09:49.94	169.46	19.68	-46.1	-47.5	19.4	0.00e+00	0	42	0	325058560	62	4593
2026-01-29 10:09:53.97	169.66	20.20	-45.9	-47.3	19.5	0.00e+00	0	41	0	332398592	62	4479
2026-01-29 10:09:58.00	169.86	20.73	-45.5	-46.9	20.0	0.00e+00	0	42	0	339738624	62	4245
2026-01-29 10:10:02.04	170.06	21.27	-45.5	-46.8	20.1	0.00e+00	0	42	0	347078656	62	4211
2026-01-29 10:10:06.06	170.28	21.82	-45.7	-47.1	19.8	0.00e+00	0	41	0	354418688	62	4362
2026-01-29 10:10:10.07	170.50	22.38	-45.6	-47.0	19.9	0.00e+00	0	41	0	362807296	62	4302
2026-01-29 10:10:14.11	170.73	22.96	-45.5	-46.8	20.0	0.00e+00	0	42	0	370147328	62	4242
2026-01-29 10:10:18.14	170.96	23.55	-45.7	-47.0	19.8	0.00e+00	0	41	0	377487360	62	4337
2026-01-29 10:10:22.17	171.21	24.15	-45.6	-47.0	19.9	0.00e+00	0	42	0	384827392	62	4315
2026-01-29 10:10:26.19	171.46	24.76	-45.0	-46.3	20.6	0.00e+00	0	42	0	392167424	62	3960
2026-01-29 10:10:30.22	171.72	25.39	-44.8	-46.0	20.8	0.00e+00	0	41	0	400556032	61	4092
2026-01-29 10:10:34.25	172.00	26.03	-44.6	-45.8	21.0	0.00e+00	0	42	0	407896064	61	3979
2026-01-29 10:10:38.28	172.28	26.69	-44.5	-45.6	21.2	0.00e+00	0	42	0	415236096	60	4137
2026-01-29 10:10:42.31	172.58	27.37	-44.6	-45.7	21.1	0.00e+00	0	41	0	422576128	60	4170
2026-01-29 10:10:46.33	172.89	28.06	-44.4	-45.5	21.2	0.00e+00	0	42	0	429916160	60	4085
2026-01-29 10:10:50.37	173.21	28.76	-44.8	-46.0	20.9	0.00e+00	0	42	0	438304768	60	4302
2026-01-29 10:10:54.40	173.54	29.49	-45.1	-46.3	20.5	0.00e+00	0	42	0	445644800	60	4481
2026-01-29 10:10:58.43	173.89	30.23	-45.2	-46.5	20.4	0.00e+00	0	42	0	452984832	61	4339
2026-01-29 10:11:02.46	174.26	30.99	-45.6	-47.0	20.1	0.00e+00	0	42	0	460324864	61	4551
2026-01-29 10:11:06.49	174.64	31.77	-46.1	-47.6	19.5	0.00e+00	0	41	0	467664896	63	4341
2026-01-29 10:11:10.51	175.04	32.57	-46.7	-48.2	18.9	0.00e+00	0	41	0	476053504	64	4427
2026-01-29 10:11:14.53	175.46	33.39	-46.9	-48.5	18.5	0.00e+00	0	42	0	483393536	64	4585
2026-01-29 10:11:18.56	175.90	34.23	-45.9	-47.2	19.9	0.00e+00	0	42	0	490733568	63	4161
2026-01-29 10:11:22.59	176.37	35.10	-45.5	-46.8	20.3	0.00e+00	0	42	0	498073600	62	4206
2026-01-29 10:11:26.62	176.86	35.98	-46.4	-47.9	19.2	0.00e+00	0	41	0	506462208	64	4261
2026-01-29 10:11:30.65	177.37	36.89	-47.0	-48.7	18.5	0.00e+00	0	42	0	513802240	64	4663
2026-01-29 10:11:34.67	177.91	37.82	-47.0	-48.6	18.6	0.00e+00	0	42	0	521142272	65	4374
2026-01-29 10:11:38.70	178.49	38.77	-47.1	-48.7	18.5	0.00e+00	0	41	0	528482304	64	4668
2026-01-29 10:11:42.73	179.10	39.75	-48.0	-50.0	17.2	0.00e+00	0	42	0	535822336	67	4554
2026-01-29 10:11:46.77	179.75	40.76	-48.0	-49.9	17.3	0.00e+00	0	42	0	543162368	67	4526
2026-01-29 10:11:50.80	180.44	41.78	-47.3	-49.0	18.2	0.00e+00	0	42	0	551550976	66	4327
2026-01-29 10:11:54.82	181.17	42.83	-47.1	-48.7	18.5	0.00e+00	0	42	0	558891008	65	4416
2026-01-29 10:11:58.85	181.95	43.91	-47.9	-49.9	17.4	0.00e+00	0	42	0	566231040	66	4791
2026-01-29 10:12:02.89	182.79	45.01	-47.2	-48.9	18.4	0.00e+00	0	42	0	573571072	65	4513
2026-01-29 10:12:06.92	183.68	46.14	-46.4	-47.9	19.3	0.00e+00	0	42	0	581959680	64	4246
2026-01-29 10:12:10.94	184.64	47.29	-46.1	-47.5	19.8	0.00e+00	0	42	0	589299712	63	4307
2026-01-29 10:12:14.97	185.67	48.46	-46.6	-48.1	19.1	0.00e+00	0	42	0	596639744	64	4350
2026-01-29 10:12:19.01	186.79	49.65	-47.0	-48.7	18.6	0.00e+00	0	42	0	603979776	65	4395
2026-01-29 10:12:23.04	188.00	50.87	-45.2	-46.4	20.7	0.00e+00	0	42	0	611319808	62	4029
2026-01-29 10:12:27.07	189.30	52.10	-45.8	-47.2	20.0	0.00e+00	0	42	0	619708416	62	4400
2026-01-29 10:12:31.10	190.72	53.34	-44.8	-46.1	21.1	0.00e+00	0	42	0	627048448	61	4100
2026-01-29 10:12:35.13	192.26	54.60	-44.0	-45.1	22.2	0.00e+00	0	42	0	634388480	59	4109
2026-01-29 10:12:39.17	193.95	55.87	-43.6	-44.6	22.6	0.00e+00	0	42	0	641728512	58	4128
2026-01-29 10:12:43.20	195.79	57.14	-43.4	-44.4	22.8	0.00e+00	0	42	0	649068544	58	4009
2026-01-29 10:12:47.23	197.81	58.41	-43.1	-44.0	23.1	0.00e+00	0	42	0	657457152	57	4095
2026-01-29 10:12:51.25	200.03	59.67	-42.8	-43.7	23.4	0.00e+00	0	42	0	664797184	57	3938
2026-01-29 10:12:55.28	202.47	60.91	-44.3	-45.4	21.7	0.00e+00	0	42	0	672137216	60	4033
2026-01-29 10:12:59.31	205.16	62.13	-44.7	-45.8	21.4	0.00e+00	0	42	0	679477248	61	3992
2026-01-29 10:13:03.33	208.12	63.31	-43.2	-44.2	23.0	0.00e+00	0	42	0	686817280	57	4147
2026-01-29 10:13:07.37	211.39	64.44	-43.3	-44.3	23.0	0.00e+00	0	42	0	695205888	58	3961
2026-01-29 10:13:11.39	214.98	65.50	-43.3	-44.2	23.0	0.00e+00	0	42	0	702545920	57	4168
2026-01-29 10:13:15.42	218.92	66.48	-44.2	-45.3	22.1	0.00e+00	0	42	0	709885952	59	4234
2026-01-29 10:13:19.45	223.22	67.36	-45.7	-47.0	20.4	0.00e+00	0	42	0	717225984	62	4318
2026-01-29 10:13:23.48	227.87	68.13	-46.4	-47.9	19.5	0.00e+00	0	42	0	724566016	64	4259
2026-01-29 10:13:27.51	232.85	68.76	-46.5	-47.9	19.6	0.00e+00	0	41	0	732954624	63	4502
2026-01-29 10:13:31.55	238.14	69.23	-47.6	-49.4	18.4	0.00e+00	0	42	0	740294656	65	4760
2026-01-29 10:13:35.57	243.61	69.54	-46.1	-47.4	20.1	0.00e+00	0	42	0	747634688	63	4282
2026-01-29 10:13:39.60	249.22	69.67	-45.0	-46.2	21.1	0.00e+00	0	42	0	754974720	61	4168
2026-01-29 10:13:43.64	254.87	69.62	-46.2	-47.6	19.9	0.00e+00	0	42	0	763363328	63	4363
2026-01-29 10:13:47.67	260.43	69.39	-46.2	-47.6	19.9	0.00e+00	0	42	0	770703360	63	4359
2026-01-29 10:13:51.70	265.80	68.99	-46.2	-47.5	20.0	0.00e+00	0	42	0	778043392	63	4334
2026-01-29 10:13:55.73	270.91	68.42	-47.7	-49.5	18.0	0.00e+00	0	42	0	785383424	67	4298
2026-01-29 10:13:59.76	275.71	67.71	-45.1	-46.2	21.4	0.00e+00	0	42	0	792723456	61	4192
2026-01-29 10:14:03.79	280.16	66.88	-44.2	-45.3	22.3	0.00e+00	0	42	0	800063488	59	4200
2026-01-29 10:14:07.82	284.25	65.94	-42.8	-43.7	23.4	0.00e+00	0	42	0	808452096	57	3946
2026-01-29 10:14:11.85	287.99	64.91	-42.4	-43.3	23.8	0.00e+00	0	42	0	815792128	55	4218
2026-01-29 10:14:15.88	291.39	63.81	-42.7	-43.6	23.6	0.00e+00	0	42	0	823132160	56	4117
2026-01-29 10:14:19.91	294.48	62.66	-44.4	-45.4	22.2	0.00e+00	0	42	0	830472192	59	4278
2026-01-29 10:14:23.95	297.30	61.46	-44.5	-45.6	22.1	0.00e+00	0	42	0	838860800	59	4355
2026-01-29 10:14:27.99	299.85	60.22	-44.1	-45.2	22.2	0.00e+00	0	42	0	846200832	59	4147
2026-01-29 10:14:32.01	302.15	58.98	-43.8	-44.8	22.7	0.00e+00	0	42	0	853540864	59	3987
2026-01-29 10:14:36.04	304.25	57.71	-41.1	-41.8	24.8	0.00e+00	0	42	0	860880896	54	3773
2026-01-29 10:14:40.07	306.17	56.45	-42.7	-43.6	23.6	0.00e+00	0	42	0	868220928	55	4371
2026-01-29 10:14:44.10	307.92	55.18	-41.2	-42.0	24.6	0.00e+00	0	42	0	876609536	53	4095
2026-01-29 10:14:48.13	309.52	53.92	-41.8	-42.7	24.2	0.00e+00	0	42	0	883949568	55	3919
2026-01-29 10:14:52.16	310.99	52.67	-42.7	-43.6	23.5	0.00e+00	0	42	0	891289600	55	4379
2026-01-29 10:14:56.20	312.34	51.44	-43.4	-44.3	23.0	0.00e+00	0	42	0	898629632	58	4003
2026-01-29 10:15:00.22	313.58	50.22	-47.5	-49.4	18.2	0.00e+00	0	42	0	905969664	66	4515
2026-01-29 10:15:04.26	314.74	49.02	-46.6	-48.1	19.5	0.00e+00	0	42	0	914358272	63	4625
2026-01-29 10:15:08.29	315.80	47.84	-46.2	-47.6	19.8	0.00e+00	0	42	0	921698304	63	4375
2026-01-29 10:15:12.32	316.79	46.69	-43.5	-44.4	22.8	0.00e+00	0	42	0	929038336	59	3821
2026-01-29 10:15:16.35	317.72	45.56	-45.9	-47.1	20.3	0.00e+00	0	42	0	936378368	62	4387
2026-01-29 10:15:20.37	318.58	44.45	-44.3	-45.4	21.7	0.00e+00	0	42	0	943718400	60	4023
2026-01-29 10:15:24.40	319.38	43.37	-45.3	-46.6	20.6	0.00e+00	0	42	0	952107008	61	4358
2026-01-29 10:15:28.43	320.13	42.31	-44.2	-45.3	21.9	0.00e+00	0	42	0	959447040	60	3978
2026-01-29 10:15:32.46	320.84	41.27	-44.2	-45.2	22.2	0.00e+00	0	42	0	966787072	58	4431
2026-01-29 10:15:36.48	321.50	40.27	-46.3	-47.8	19.3	0.00e+00	0	42	0	974127104	64	4232
2026-01-29 10:15:40.52	322.13	39.28	-43.9	-45.0	22.2	0.00e+00	0	42	0	981467136	59	4067
2026-01-29 10:15:44.54	322.72	38.32	-44.7	-45.9	21.3	0.00e+00	0	42	0	989855744	60	4263
2026-01-29 10:15:48.57	323.28	37.38	-45.6	-46.9	20.4	0.00e+00	0	42	0	997195776	63	4037
2026-01-29 10:15:52.60	323.81	36.47	-43.4	-44.3	22.8	0.00e+00	0	42	0	1004535808	58	4001
2026-01-29 10:15:56.63	324.31	35.57	-44.2	-45.2	22.1	0.00e+00	0	42	0	1011875840	59	4189
2026-01-29 10:16:00.66	324.79	34.70	-44.3	-45.4	21.7	0.00e+00	0	42	0	1019215872	60	4044
2026-01-29 10:16:04.68	325.24	33.86	-45.9	-47.3	20.0	0.00e+00	0	42	0	1027604480	62	4458
2026-01-29 10:16:08.71	325.67	33.03	-47.6	-49.4	18.0	0.00e+00	0	42	0	1034944512	66	4534
2026-01-29 10:16:12.73	326.08	32.23	-45.6	-46.9	20.3	0.00e+00	0	42	0	1042284544	63	4040
2026-01-29 10:16:16.76	326.47	31.44	-45.1	-46.3	20.9	0.00e+00	0	42	0	1049624576	61	4200
2026-01-29 10:16:20.78	326.84	30.67	-46.3	-47.8	19.5	0.00e+00	0	42	0	1056964608	63	4471
2026-01-29 10:16:24.81	327.20	29.93	-46.7	-48.3	18.9	0.00e+00	0	41	0	1065353216	64	4470
2026-01-29 10:16:28.84	327.54	29.20	-45.8	-47.2	20.1	0.00e+00	0	42	0	1072693248	63	4155
2026-01-29 10:16:32.88	327.87	28.48	-45.4	-46.7	20.5	0.00e+00	0	42	0	1080033280	62	4157
2026-01-29 10:16:36.90	328.18	27.79	-44.1	-45.1	21.8	0.00e+00	0	41	0	1087373312	60	3888
2026-01-29 10:16:40.93	328.49	27.11	-43.9	-44.9	22.3	0.00e+00	0	42	0	1095761920	59	4021
2026-01-29 10:16:44.97	328.78	26.44	-44.3	-45.5	21.7	0.00e+00	0	42	0	1103101952	59	4297
2026-01-29 10:16:49.00	329.06	25.79	-44.5	-45.7	21.1	0.00e+00	0	42	0	1110441984	59	4403
2026-01-29 10:16:53.03	329.33	25.16	-44.5	-45.7	21.3	0.00e+00	0	42	0	1117782016	60	4183
2026-01-29 10:16:57.06	329.59	24.54	-45.2	-46.5	20.5	0.00e+00	0	42	0	1125122048	61	4311
2026-01-29 10:17:01.09	329.84	23.94	-44.6	-45.9	21.1	0.00e+00	0	42	0	1132462080	61	4010
2026-01-29 10:17:05.12	330.08	23.34	-44.3	-45.5	21.6	0.00e+00	0	42	0	1140850688	59	4302
2026-01-29 10:17:09.15	330.31	22.77	-43.9	-44.9	22.1	0.00e+00	0	42	0	1148190720	59	4047
2026-01-29 10:17:13.18	330.54	22.20	-43.2	-44.2	22.7	0.00e+00	0	42	0	1155530752	58	3914
2026-01-29 10:17:17.21	330.76	21.64	-42.8	-43.7	23.0	0.00e+00	0	42	0	1162870784	57	3950
2026-01-29 10:17:21.24	330.97	21.10	-43.0	-43.9	22.8	0.00e+00	0	42	0	1171259392	57	4047
2026-01-29 10:17:25.26	331.17	20.57	-43.5	-44.6	22.3	0.00e+00	0	42	0	1178599424	58	4099
2026-01-29 10:17:29.30	331.37	20.05	-43.6	-44.7	22.2	0.00e+00	0	42	0	1185939456	58	4166
2026-01-29 10:17:33.32	331.56	19.54	-43.6	-44.7	22.1	0.00e+00	0	42	0	1193279488	58	4169
2026-01-29 10:17:37.36	331.75	19.04	-44.1	-45.2	21.7	0.00e+00	0	42	0	1200619520	58	4436
2026-01-29 10:17:41.39	331.93	18.55	-44.3	-45.5	21.4	0.00e+00	0	42	0	1209008128	59	4334
2026-01-29 10:17:45.41	332.11	18.07	-44.6	-45.8	20.8	0.00e+00	0	42	0	1216348160	60	4228
2026-01-29 10:17:49.44	332.28	17.59	-44.4	-45.6	21.0	0.00e+00	0	42	0	1223688192	60	4114
2026-01-29 10:17:53.48	332.44	17.13	-44.4	-45.5	21.4	0.00e+00	0	42	0	1231028224	59	4317
2026-01-29 10:17:57.51	332.61	16.67	-43.7	-44.7	22.1	0.00e+00	0	42	0	1238368256	59	3943
2026-01-29 10:18:01.53	332.76	16.23	-43.7	-44.7	22.0	0.00e+00	0	42	0	1246756864	59	3946
2026-01-29 10:18:05.56	332.92	15.79	-44.0	-45.1	21.6	0.00e+00	0	42	0	1254096896	59	4125
2026-01-29 10:18:09.58	333.07	15.36	-44.3	-45.4	21.4	0.00e+00	0	42	0	1261436928	59	4282
2026-01-29 10:18:13.61	333.21	14.93	-44.6	-45.8	21.1	0.00e+00	0	42	0	1268776960	59	4458
2026-01-29 10:18:17.64	333.36	14.52	-44.4	-45.6	20.9	0.00e+00	0	42	0	1276116992	60	4123
2026-01-29 10:18:21.65	333.49	14.11	-44.9	-46.1	20.4	0.00e+00	0	42	0	1284505600	60	4391
2026-01-29 10:18:25.69	333.63	13.70	-45.2	-46.5	20.0	0.00e+00	0	42	0	1291845632	60	4585
2026-01-29 10:18:29.72	333.76	13.31	-45.5	-46.9	19.5	0.00e+00	0	42	0	1299185664	61	4543
2026-01-29 10:18:33.76	333.89	12.91	-45.8	-47.3	19.3	1.50e-06	0	42	0	1306525696	62	4483
2026-01-29 10:18:37.79	334.02	12.53	-46.0	-47.5	19.1	0.00e+00	0	42	0	1313865728	62	4563
2026-01-29 10:18:41.83	334.14	12.15	-46.0	-47.5	19.0	0.00e+00	0	42	0	1322254336	62	4573
2026-01-29 10:18:45.85	334.27	11.78	-45.7	-47.2	19.3	0.00e+00	0	42	0	1329594368	62	4424
2026-01-29 10:18:49.88	334.38	11.41	-45.8	-47.3	19.2	0.00e+00	0	42	0	1336934400	62	4459
2026-01-29 10:18:53.90	334.50	11.05	-45.6	-47.1	19.4	0.00e+00	0	42	0	1344274432	62	4343
2026-01-29 10:18:57.93	334.61	10.69	-45.4	-46.8	19.7	0.00e+00	0	42	0	1352663040	62	4207
2026-01-29 10:19:01.96	334.73	10.34	-45.2	-46.5	19.8	0.00e+00	0	42	0	1360003072	62	4094
2026-01-29 10:19:05.98	334.84	9.99	-45.1	-46.5	19.8	0.00e+00	0	42	0	1367343104	62	4082
2026-01-29 10:19:10.00	334.94	9.65	-44.9	-46.2	20.0	0.00e+00	0	42	0	1374683136	61	4189
2026-01-29 10:19:14.03	335.05	9.32	-44.9	-46.3	20.0	0.00e+00	0	42	0	1382023168	61	4194
2026-01-29 10:19:18.06	335.15	8.98	-44.8	-46.1	20.1	0.00e+00	0	42	0	1389363200	61	4142
2026-01-29 10:19:22.09	335.25	8.65	-45.0	-46.3	19.8	0.00e+00	0	42	0	1397751808	61	4238
2026-01-29 10:19:26.11	335.35	8.33	-44.9	-46.3	19.9	0.00e+00	0	42	0	1405091840	61	4203
2026-01-29 10:19:30.13	335.45	8.01	-45.0	-46.4	19.8	0.00e+00	0	42	0	1412431872	61	4254
2026-01-29 10:19:34.16	335.55	7.69	-44.9	-46.3	19.8	0.00e+00	0	42	0	1419771904	61	4238
2026-01-29 10:19:38.18	335.64	7.38	-45.1	-46.5	19.5	0.00e+00	0	42	0	1427111936	61	4339
2026-01-29 10:19:42.21	335.73	7.07	-45.1	-46.6	19.5	0.00e+00	0	42	0	1435500544	61	4353
2026-01-29 10:19:46.24	335.82	6.77	-45.2	-46.6	19.4	0.00e+00	0	42	0	1442840576	61	4383
2026-01-29 10:19:50.26	335.91	6.47	-45.0	-46.5	19.5	0.00e+00	0	42	0	1450180608	61	4306
2026-01-29 10:19:54.29	336.00	6.17	-45.3	-46.9	19.1	0.00e+00	0	42	0	1457520640	61	4502
2026-01-29 10:19:58.31	336.09	5.87	-45.2	-46.7	19.2	0.00e+00	0	42	0	1464860672	61	4412
2026-01-29 10:20:02.34	336.17	5.58	-45.3	-46.9	19.0	0.00e+00	0	42	0	1473249280	61	4520
2026-01-29 10:20:06.37	336.26	5.29	-45.3	-46.9	18.9	0.00e+00	0	42	0	1480589312	61	4504
2026-01-29 10:20:10.39	336.34	5.01	-46.0	-47.8	18.2	0.00e+00	0	42	0	1487929344	62	4728
2026-01-29 10:20:14.43	336.42	4.72	-53.2	-68.2	3.8	1.49e+00	0	42	104	1488977920	77	20938
2026-01-29 10:20:18.46	336.50	4.45	-53.6	-68.5	3.8	1.49e+00	0	42	104	1488977920	77	21737
2026-01-29 10:20:22.49	336.58	4.17	-53.4	-68.4	3.8	1.49e+00	0	42	104	1488977920	77	21428
2026-01-29 10:20:26.52	336.66	3.89	-53.4	-68.4	3.8	1.49e+00	0	42	104	1488977920	77	21387
2026-01-29 10:20:30.56	336.74	3.62	-53.5	-68.5	3.8	1.49e+00	0	42	104	1488977920	77	21559
2026-01-29 10:20:34.59	336.82	3.35	-53.4	-68.3	3.8	1.49e+00	0	42	104	1488977920	77	21201
2026-01-29 10:20:38.61	336.89	3.09	-53.3	-68.3	3.8	1.49e+00	0	42	104	1488977920	77	21067
2026-01-29 10:20:42.65	336.96	2.82	-53.3	-68.2	3.8	1.49e+00	0	42	104	1488977920	77	20985
2026-01-29 10:20:46.68	337.04	2.56	-53.2	-68.2	3.8	1.49e+00	0	42	104	1488977920	77	20921
2026-01-29 10:20:50.71	337.11	2.30	-53.2	-68.2	3.8	1.49e+00	0	42	104	1488977920	77	20868
2026-01-29 10:20:54.75	337.18	2.05	-53.2	-68.2	3.8	1.49e+00	0	42	104	1488977920	77	20863

#Closed at: 2026-01-29 10:20:57
#Recorded file [1488 MB]: D:/lorett/data/31041_260129_130628.dat