passes_logs/2026/01/29/R3.2S_Murmansk/R3.2S_Murmansk__20260129_093637_NOAA_21_JPSS-2_rec.log

#Pass ID: 20260129_093637_NOAA 21 (JPSS-2)
#Satellite: NOAA 21 (JPSS-2)
#Configuration: NOAA-21
#almurnet v.1.7.20251203
#Start time: 2026-01-29 09:37:26

#Version: 2.2.20231116
#Station: R3.2S_Murmansk
#Location: 33.079688 lon 68.888172 lat
#TLE: 1 54234U 22150A   26028.89828222  .00000145  00000+0  89569-4 0  9997
#TLE: 2 54234  98.7511 329.6308 0000927 198.8651 161.2491 14.19540676166783

#Time	Az	El	Level	Level2	SNR	BER	BlckErr	Temp	State	Recorded	gain1	gain2
2026-01-29 09:37:26.87	153.99	5.36	-53.1	-65.0	3.8	8.46e-01	0	41	0	0	77	14451
2026-01-29 09:37:30.90	154.01	5.65	-54.3	-67.1	3.8	1.49e+00	0	42	104	0	79	16388
2026-01-29 09:37:34.93	154.03	5.95	-54.4	-67.2	3.8	1.49e+00	0	42	104	0	79	16512
2026-01-29 09:37:38.97	154.06	6.25	-54.5	-67.2	3.8	1.49e+00	0	42	104	0	79	16640
2026-01-29 09:37:43.00	154.08	6.55	-54.4	-67.2	3.8	1.49e+00	0	42	104	0	79	16586
2026-01-29 09:37:47.03	154.10	6.86	-54.4	-67.2	3.8	1.49e+00	0	42	104	0	79	16520
2026-01-29 09:37:51.05	154.13	7.17	-54.3	-67.1	3.8	1.49e+00	0	42	104	0	79	16387
2026-01-29 09:37:55.08	154.15	7.49	-54.2	-67.0	3.8	1.49e+00	0	42	104	0	79	16141
2026-01-29 09:37:59.11	154.18	7.81	-54.2	-67.0	3.8	1.49e+00	0	42	104	0	79	16195
2026-01-29 09:38:03.14	154.20	8.13	-54.2	-67.0	3.8	1.49e+00	0	42	104	0	79	16147
2026-01-29 09:38:07.17	154.22	8.46	-54.2	-66.9	3.8	1.49e+00	0	42	104	0	79	16105
2026-01-29 09:38:11.20	154.25	8.79	-54.1	-66.9	3.8	1.49e+00	0	42	104	0	79	15982
2026-01-29 09:38:15.24	154.28	9.13	-54.1	-66.8	3.8	1.49e+00	0	42	104	0	79	15937
2026-01-29 09:38:19.27	154.30	9.47	-54.1	-66.8	3.8	1.49e+00	0	42	104	0	79	15923
2026-01-29 09:38:23.30	154.33	9.81	-54.1	-66.8	3.8	1.49e+00	0	42	104	0	79	15880
2026-01-29 09:38:27.33	154.35	10.16	-54.0	-66.8	3.8	1.49e+00	0	42	104	0	79	15855
2026-01-29 09:38:31.36	154.38	10.52	-54.3	-67.0	3.8	1.49e+00	0	42	104	0	79	16260
2026-01-29 09:38:35.39	154.41	10.88	-54.2	-66.9	3.8	1.49e+00	0	42	104	0	79	16100
2026-01-29 09:38:39.42	154.43	11.25	-54.0	-66.8	3.8	1.49e+00	0	42	104	0	79	15781
2026-01-29 09:38:43.45	154.46	11.62	-53.7	-66.5	3.8	1.49e+00	0	42	104	0	79	15300
2026-01-29 09:38:47.49	154.49	12.00	-53.3	-65.9	3.8	1.49e+00	0	42	104	0	78	15157
2026-01-29 09:38:51.52	154.52	12.38	-53.0	-64.3	3.8	1.49e+00	0	42	104	5242880	76	14057
2026-01-29 09:38:55.55	154.54	12.77	-44.2	-45.3	19.2	0.00e+00	0	42	0	13631488	60	3980
2026-01-29 09:38:59.58	154.57	13.17	-43.1	-44.1	20.7	0.00e+00	0	42	0	27262976	58	3872
2026-01-29 09:39:03.61	154.60	13.57	-42.5	-43.4	21.3	0.00e+00	0	42	0	38797312	56	4026
2026-01-29 09:39:07.64	154.63	13.98	-42.3	-43.1	21.5	0.00e+00	0	42	0	51380224	56	3913
2026-01-29 09:39:11.67	154.66	14.40	-42.2	-43.0	21.6	0.00e+00	0	42	0	63963136	56	3854
2026-01-29 09:39:15.70	154.69	14.82	-42.2	-43.0	21.6	0.00e+00	0	42	0	76546048	56	3864
2026-01-29 09:39:19.73	154.72	15.25	-42.1	-43.0	21.6	0.00e+00	0	42	0	89128960	56	3841
2026-01-29 09:39:23.76	154.75	15.69	-42.1	-43.0	21.7	0.00e+00	0	42	0	101711872	56	3841
2026-01-29 09:39:27.79	154.79	16.14	-42.1	-43.0	21.7	0.00e+00	0	42	0	115343360	56	3832
2026-01-29 09:39:31.82	154.82	16.59	-42.3	-43.1	21.6	0.00e+00	0	42	0	126877696	56	3897
2026-01-29 09:39:35.86	154.85	17.06	-42.2	-43.1	21.7	0.00e+00	0	42	0	139460608	56	3873
2026-01-29 09:39:39.89	154.89	17.53	-42.3	-43.2	21.5	0.00e+00	0	42	0	153092096	56	3922
2026-01-29 09:39:43.93	154.92	18.01	-42.3	-43.2	21.6	0.00e+00	0	42	0	165675008	56	3934
2026-01-29 09:39:47.95	154.95	18.50	-42.4	-43.3	21.5	0.00e+00	0	42	0	177209344	56	3978
2026-01-29 09:39:51.99	154.99	19.01	-42.4	-43.3	21.5	0.00e+00	0	42	0	190840832	56	3985
2026-01-29 09:39:56.03	155.03	19.52	-42.5	-43.4	21.4	0.00e+00	0	42	0	203423744	56	4011
2026-01-29 09:40:00.07	155.06	20.05	-42.1	-43.0	21.8	0.00e+00	0	42	0	216006656	56	3827
2026-01-29 09:40:04.10	155.10	20.58	-42.0	-42.8	21.9	0.00e+00	0	42	0	228589568	55	3971
2026-01-29 09:40:08.13	155.14	21.13	-41.8	-42.6	22.1	0.00e+00	0	42	0	241172480	55	3909
2026-01-29 09:40:12.16	155.18	21.68	-41.4	-42.2	22.4	0.00e+00	0	42	0	253755392	54	3920
2026-01-29 09:40:16.19	155.22	22.25	-41.1	-41.8	22.7	0.00e+00	0	42	0	266338304	54	3761
2026-01-29 09:40:20.22	155.26	22.84	-40.8	-41.5	22.9	0.00e+00	0	42	0	278921216	53	3864
2026-01-29 09:40:24.25	155.30	23.44	-40.7	-41.5	23.0	0.00e+00	0	42	0	291504128	53	3825
2026-01-29 09:40:28.28	155.35	24.05	-40.7	-41.4	23.0	0.00e+00	0	42	0	304087040	53	3806
2026-01-29 09:40:32.31	155.39	24.67	-40.7	-41.4	23.0	0.00e+00	0	42	0	316669952	53	3816
2026-01-29 09:40:36.34	155.44	25.31	-40.8	-41.6	22.9	0.00e+00	0	42	0	329252864	53	3876
2026-01-29 09:40:40.37	155.49	25.97	-41.0	-41.8	22.7	0.00e+00	0	42	0	341835776	53	3979
2026-01-29 09:40:44.40	155.53	26.64	-41.5	-42.3	22.3	0.00e+00	0	42	0	354418688	53	4227
2026-01-29 09:40:48.43	155.58	27.34	-41.7	-42.5	22.1	0.00e+00	0	42	0	367001600	54	4082
2026-01-29 09:40:52.46	155.64	28.04	-42.2	-43.0	21.8	0.00e+00	0	42	0	379584512	54	4327
2026-01-29 09:40:56.49	155.69	28.77	-42.3	-43.1	21.7	0.00e+00	0	42	0	392167424	55	4137
2026-01-29 09:41:00.53	155.75	29.52	-42.4	-43.3	21.6	0.00e+00	0	42	0	404750336	55	4203
2026-01-29 09:41:04.56	155.80	30.29	-42.0	-42.8	22.0	0.00e+00	0	42	0	417333248	55	3975
2026-01-29 09:41:08.59	155.86	31.07	-41.8	-42.6	22.2	0.00e+00	0	42	0	429916160	55	3879
2026-01-29 09:41:12.62	155.92	31.88	-41.3	-42.1	22.7	0.00e+00	0	42	0	442499072	54	3883
2026-01-29 09:41:16.65	155.99	32.72	-41.5	-42.3	22.5	0.00e+00	0	42	0	455081984	54	3983
2026-01-29 09:41:20.67	156.05	33.57	-41.8	-42.6	22.2	0.00e+00	0	42	0	467664896	54	4117
2026-01-29 09:41:24.71	156.12	34.45	-42.6	-43.4	21.5	0.00e+00	0	42	0	480247808	55	4287
2026-01-29 09:41:28.73	156.20	35.36	-43.0	-43.9	21.1	0.00e+00	0	42	0	492830720	56	4287
2026-01-29 09:41:32.76	156.27	36.29	-43.9	-44.9	20.4	0.00e+00	0	42	0	505413632	58	4248
2026-01-29 09:41:36.79	156.35	37.25	-44.4	-45.4	19.9	0.00e+00	0	42	0	517996544	59	4280
2026-01-29 09:41:40.82	156.43	38.24	-44.4	-45.5	19.9	0.00e+00	0	42	0	530579456	59	4311
2026-01-29 09:41:44.85	156.52	39.26	-43.7	-44.7	20.6	0.00e+00	0	42	0	543162368	59	3927
2026-01-29 09:41:48.89	156.61	40.31	-43.3	-44.2	21.0	0.00e+00	0	42	0	555745280	58	3934
2026-01-29 09:41:52.92	156.71	41.39	-43.3	-44.3	20.8	0.00e+00	0	42	0	568328192	58	3959
2026-01-29 09:41:56.95	156.81	42.50	-44.0	-45.0	20.2	0.00e+00	0	42	0	580911104	58	4316
2026-01-29 09:42:00.98	156.92	43.65	-44.8	-45.9	19.1	0.00e+00	0	42	0	593494016	60	4288
2026-01-29 09:42:05.02	157.04	44.84	-44.4	-45.5	19.6	0.00e+00	0	42	0	606076928	60	4071
2026-01-29 09:42:09.05	157.17	46.06	-44.2	-45.2	20.0	0.00e+00	0	42	0	618659840	59	4190
2026-01-29 09:42:13.09	157.30	47.32	-44.4	-45.4	19.4	0.00e+00	0	42	0	631242752	60	4038
2026-01-29 09:42:17.12	157.44	48.61	-44.0	-45.0	20.1	0.00e+00	0	42	0	643825664	59	4081
2026-01-29 09:42:21.16	157.60	49.95	-42.9	-43.8	21.3	0.00e+00	0	42	0	656408576	57	3983
2026-01-29 09:42:25.19	157.77	51.32	-42.8	-43.7	21.4	0.00e+00	0	42	0	668991488	57	3932
2026-01-29 09:42:29.23	157.95	52.74	-42.9	-43.7	21.4	0.00e+00	0	42	0	681574400	57	3942
2026-01-29 09:42:33.26	158.15	54.20	-42.8	-43.6	21.5	0.00e+00	0	42	0	694157312	57	3913
2026-01-29 09:42:37.30	158.37	55.70	-42.3	-43.2	21.9	0.00e+00	0	42	0	706740224	56	3929
2026-01-29 09:42:41.33	158.62	57.24	-42.1	-43.0	22.1	0.00e+00	0	42	0	719323136	56	3830
2026-01-29 09:42:45.37	158.89	58.83	-41.8	-42.6	22.4	0.00e+00	0	42	0	731906048	55	3883
2026-01-29 09:42:49.41	159.20	60.46	-41.6	-42.4	22.5	0.00e+00	0	42	0	744488960	55	3805
2026-01-29 09:42:53.44	159.54	62.13	-41.3	-42.1	22.8	0.00e+00	0	42	0	757071872	54	3873
2026-01-29 09:42:57.48	159.94	63.84	-40.7	-41.4	23.3	0.00e+00	0	42	0	770703360	53	3810
2026-01-29 09:43:01.51	160.39	65.59	-40.7	-41.5	23.1	0.00e+00	0	42	0	782237696	53	3840
2026-01-29 09:43:05.55	160.93	67.38	-41.0	-41.8	23.1	0.00e+00	0	42	0	794820608	52	4194
2026-01-29 09:43:09.58	161.56	69.20	-40.5	-41.3	23.4	0.00e+00	0	42	0	808452096	52	3967
2026-01-29 09:43:13.61	162.32	71.06	-40.5	-41.2	23.5	0.00e+00	0	42	0	819986432	52	3936
2026-01-29 09:43:17.65	163.25	72.95	-40.1	-40.8	23.9	0.00e+00	0	42	0	832569344	51	3974
2026-01-29 09:43:21.68	164.43	74.86	-40.1	-40.7	23.8	0.00e+00	0	42	0	846200832	51	3946
2026-01-29 09:43:25.72	165.96	76.80	-40.3	-41.0	23.8	0.00e+00	0	42	0	858783744	51	4054
2026-01-29 09:43:29.75	168.04	78.74	-40.9	-41.6	23.2	0.00e+00	0	42	0	870318080	52	4124
2026-01-29 09:43:33.78	170.99	80.69	-40.9	-41.6	23.1	0.00e+00	0	42	0	883949568	53	3898
2026-01-29 09:43:37.81	175.52	82.62	-41.2	-41.9	23.0	0.00e+00	0	42	0	896532480	53	4031
2026-01-29 09:43:41.85	183.22	84.49	-41.4	-42.2	22.8	0.00e+00	0	42	0	909115392	53	4149
2026-01-29 09:43:45.88	198.17	86.16	-41.0	-41.8	23.1	0.00e+00	0	42	0	921698304	53	3960
2026-01-29 09:43:49.90	229.41	87.26	-41.7	-42.5	22.4	0.00e+00	0	42	0	934281216	53	4297
2026-01-29 09:43:53.93	271.70	87.04	-41.3	-42.0	22.9	0.00e+00	0	42	0	946864128	54	3861
2026-01-29 09:43:57.97	297.02	85.68	-40.8	-41.5	23.4	0.00e+00	0	42	0	959447040	53	3846
2026-01-29 09:44:02.00	309.01	83.93	-40.6	-41.3	22.7	0.00e+00	0	42	0	972029952	53	3757
2026-01-29 09:44:06.03	315.47	82.04	-41.4	-42.2	22.7	0.00e+00	0	42	0	984612864	53	4149
2026-01-29 09:44:10.07	319.41	80.10	-40.5	-41.2	23.7	0.00e+00	0	42	0	997195776	53	3724
2026-01-29 09:44:14.09	322.04	78.15	-40.5	-41.2	23.5	0.00e+00	0	42	0	1009778688	53	3708
2026-01-29 09:44:18.13	323.93	76.21	-40.4	-41.2	23.7	0.00e+00	0	42	0	1022361600	52	3917
2026-01-29 09:44:22.16	325.33	74.28	-40.6	-41.4	23.4	0.00e+00	0	42	0	1034944512	52	4007
2026-01-29 09:44:26.19	326.43	72.38	-40.8	-41.6	23.3	0.00e+00	0	42	0	1047527424	53	3878
2026-01-29 09:44:30.21	327.30	70.51	-40.3	-41.0	23.8	0.00e+00	0	42	0	1060110336	52	3853
2026-01-29 09:44:34.24	328.02	68.67	-41.3	-42.1	22.9	0.00e+00	0	42	0	1072693248	53	4115
2026-01-29 09:44:38.27	328.62	66.86	-40.9	-41.6	23.4	0.00e+00	0	42	0	1085276160	52	4121
2026-01-29 09:44:42.31	329.13	65.08	-40.9	-41.6	23.3	0.00e+00	0	42	0	1097859072	53	3902
2026-01-29 09:44:46.34	329.56	63.35	-40.7	-41.4	23.4	0.00e+00	0	42	0	1110441984	52	4023
2026-01-29 09:44:50.37	329.94	61.66	-41.5	-42.3	21.9	0.00e+00	0	42	0	1123024896	54	3977
2026-01-29 09:44:54.40	330.27	60.01	-41.5	-42.3	22.7	0.00e+00	0	42	0	1135607808	53	4201
2026-01-29 09:44:58.42	330.57	58.40	-41.6	-42.4	22.3	0.00e+00	0	42	0	1148190720	54	4008
2026-01-29 09:45:02.45	330.83	56.83	-41.2	-41.9	23.0	0.00e+00	0	42	0	1160773632	53	4043
2026-01-29 09:45:06.48	331.07	55.31	-43.0	-43.8	21.5	0.00e+00	0	42	0	1173356544	56	4236
2026-01-29 09:45:10.51	331.29	53.82	-42.6	-43.4	21.5	0.00e+00	0	42	0	1185939456	56	4045
2026-01-29 09:45:14.53	331.48	52.39	-42.3	-43.1	22.1	0.00e+00	0	42	0	1198522368	56	3893
2026-01-29 09:45:18.56	331.66	50.99	-44.3	-45.3	20.0	0.00e+00	0	42	0	1211105280	59	4232
2026-01-29 09:45:22.58	331.83	49.63	-43.4	-44.3	21.1	0.00e+00	0	42	0	1223688192	58	3969
2026-01-29 09:45:26.61	331.98	48.31	-43.6	-44.6	20.7	0.00e+00	0	42	0	1236271104	58	4105
2026-01-29 09:45:30.64	332.12	47.03	-44.2	-45.2	19.8	0.00e+00	0	42	0	1248854016	59	4170
2026-01-29 09:45:34.68	332.25	45.78	-44.4	-45.4	19.6	0.00e+00	0	42	0	1261436928	59	4278
2026-01-29 09:45:38.71	332.38	44.57	-44.9	-46.0	19.1	0.00e+00	0	42	0	1274019840	60	4337
2026-01-29 09:45:42.74	332.49	43.40	-44.9	-45.9	19.2	0.00e+00	0	42	0	1286602752	61	4050
2026-01-29 09:45:46.78	332.60	42.26	-44.0	-44.9	20.4	0.00e+00	0	42	0	1299185664	59	4050
2026-01-29 09:45:50.82	332.70	41.16	-44.2	-45.1	20.0	0.00e+00	0	42	0	1311768576	59	4144
2026-01-29 09:45:54.84	332.80	40.09	-44.4	-45.5	19.9	0.00e+00	0	42	0	1324351488	59	4305
2026-01-29 09:45:58.88	332.89	39.05	-44.5	-45.5	19.9	0.00e+00	0	42	0	1336934400	59	4327
2026-01-29 09:46:02.91	332.98	38.04	-43.1	-43.9	21.3	0.00e+00	0	42	0	1349517312	58	3820
2026-01-29 09:46:06.94	333.06	37.07	-42.8	-43.7	21.4	0.00e+00	0	42	0	1362100224	57	3918
2026-01-29 09:46:10.98	333.14	36.11	-43.1	-44.0	21.2	0.00e+00	0	42	0	1374683136	57	4087
2026-01-29 09:46:15.01	333.22	35.19	-43.4	-44.3	21.0	0.00e+00	0	42	0	1387266048	57	4205
2026-01-29 09:46:19.04	333.29	34.29	-43.8	-44.7	20.6	0.00e+00	0	42	0	1399848960	58	4181
2026-01-29 09:46:23.07	333.36	33.42	-43.3	-44.3	21.0	0.00e+00	0	42	0	1412431872	58	3959
2026-01-29 09:46:27.11	333.43	32.57	-42.2	-43.0	22.0	0.00e+00	0	42	0	1425014784	56	3861
2026-01-29 09:46:31.14	333.49	31.75	-42.2	-43.0	22.0	0.00e+00	0	42	0	1437597696	56	3864
2026-01-29 09:46:35.17	333.55	30.95	-42.3	-43.2	21.9	0.00e+00	0	42	0	1450180608	56	3918
2026-01-29 09:46:39.20	333.61	30.17	-42.5	-43.3	21.7	0.00e+00	0	42	0	1462763520	56	3993
2026-01-29 09:46:43.24	333.67	29.41	-42.3	-43.2	21.8	0.00e+00	0	42	0	1475346432	56	3919
2026-01-29 09:46:47.27	333.73	28.67	-42.4	-43.3	21.6	0.00e+00	0	42	0	1487929344	56	3963
2026-01-29 09:46:51.30	333.78	27.95	-42.2	-43.0	21.8	0.00e+00	0	42	0	1500512256	56	3852
2026-01-29 09:46:55.33	333.83	27.25	-41.7	-42.5	22.3	0.00e+00	0	42	0	1513095168	55	3827
2026-01-29 09:46:59.36	333.89	26.56	-41.0	-41.8	22.8	0.00e+00	0	42	0	1525678080	54	3751
2026-01-29 09:47:03.39	333.93	25.89	-41.0	-41.8	22.8	0.00e+00	0	42	0	1538260992	53	3971
2026-01-29 09:47:07.43	333.98	25.24	-40.8	-41.6	22.9	0.00e+00	0	42	0	1550843904	53	3888
2026-01-29 09:47:11.46	334.03	24.61	-41.1	-41.8	22.7	0.00e+00	0	42	0	1563426816	53	3987
2026-01-29 09:47:15.50	334.08	23.98	-41.1	-41.8	22.7	0.00e+00	0	42	0	1576009728	53	3985
2026-01-29 09:47:19.54	334.12	23.38	-40.9	-41.6	22.9	0.00e+00	0	42	0	1588592640	53	3903
2026-01-29 09:47:23.57	334.17	22.78	-41.0	-41.7	22.8	0.00e+00	0	42	0	1602224128	53	3953
2026-01-29 09:47:27.60	334.21	22.21	-41.1	-41.9	22.7	0.00e+00	0	42	0	1613758464	53	4020
2026-01-29 09:47:31.64	334.25	21.64	-41.4	-42.1	22.4	0.00e+00	0	42	0	1626341376	53	4145
2026-01-29 09:47:35.68	334.29	21.08	-41.5	-42.3	22.3	0.00e+00	0	42	0	1639972864	53	4197
2026-01-29 09:47:39.72	334.33	20.54	-41.4	-42.2	22.4	0.00e+00	0	42	0	1652555776	53	4150
2026-01-29 09:47:43.75	334.37	20.01	-41.5	-42.3	22.2	0.00e+00	0	42	0	1664090112	53	4215
2026-01-29 09:47:47.79	334.41	19.49	-41.5	-42.3	22.2	0.00e+00	0	42	0	1677721600	54	3991
2026-01-29 09:47:51.83	334.45	18.98	-41.3	-42.1	22.4	0.00e+00	0	42	0	1690304512	54	3902
2026-01-29 09:47:55.87	334.48	18.48	-41.3	-42.1	22.3	0.00e+00	0	42	0	1702887424	54	3904
2026-01-29 09:47:59.90	334.52	17.99	-41.4	-42.2	22.1	0.00e+00	0	42	0	1715470336	54	3955
2026-01-29 09:48:03.94	334.56	17.51	-41.7	-42.5	21.9	0.00e+00	0	42	0	1728053248	54	4098
2026-01-29 09:48:07.98	334.59	17.04	-41.9	-42.8	21.7	0.00e+00	0	42	0	1740636160	54	4215
2026-01-29 09:48:12.01	334.63	16.58	-42.2	-43.0	21.5	0.00e+00	0	42	0	1753219072	55	4093
2026-01-29 09:48:16.05	334.66	16.13	-42.2	-43.0	21.4	0.00e+00	0	42	0	1765801984	55	4087
2026-01-29 09:48:20.07	334.70	15.69	-42.2	-43.1	21.4	0.00e+00	0	42	0	1778384896	55	4105
2026-01-29 09:48:24.11	334.73	15.25	-42.2	-43.0	21.4	0.00e+00	0	42	0	1790967808	55	4091
2026-01-29 09:48:28.15	334.76	14.82	-42.1	-43.0	21.4	0.00e+00	0	42	0	1803550720	55	4077
2026-01-29 09:48:32.18	334.79	14.40	-42.3	-43.1	21.3	0.00e+00	0	42	0	1816133632	55	4144
2026-01-29 09:48:36.22	334.83	13.99	-42.4	-43.3	21.1	0.00e+00	0	42	0	1828716544	55	4212
2026-01-29 09:48:40.25	334.86	13.58	-42.3	-43.2	21.1	0.00e+00	0	42	0	1841299456	55	4161
2026-01-29 09:48:44.29	334.89	13.18	-42.2	-43.0	21.2	0.00e+00	0	42	0	1853882368	55	4095
2026-01-29 09:48:48.32	334.92	12.78	-42.3	-43.2	21.1	0.00e+00	0	42	0	1866465280	55	4167
2026-01-29 09:48:52.36	334.95	12.40	-42.3	-43.2	21.0	0.00e+00	0	42	0	1879048192	55	4184
2026-01-29 09:48:56.39	334.98	12.02	-42.3	-43.2	21.0	0.00e+00	0	42	0	1891631104	55	4180
2026-01-29 09:49:00.41	335.01	11.64	-42.4	-43.3	20.9	0.00e+00	0	42	0	1904214016	55	4214
2026-01-29 09:49:04.45	335.04	11.27	-42.4	-43.3	20.9	0.00e+00	0	42	0	1916796928	55	4221
2026-01-29 09:49:08.48	335.07	10.91	-42.4	-43.3	20.9	0.00e+00	0	42	0	1929379840	55	4201
2026-01-29 09:49:12.51	335.10	10.55	-42.4	-43.3	20.9	0.00e+00	0	42	0	1941962752	55	4240
2026-01-29 09:49:16.55	335.13	10.19	-42.5	-43.4	20.8	0.00e+00	0	42	0	1954545664	55	4260
2026-01-29 09:49:20.58	335.16	9.84	-42.5	-43.4	20.7	0.00e+00	0	42	0	1967128576	55	4290
2026-01-29 09:49:24.61	335.19	9.50	-42.5	-43.4	20.7	0.00e+00	0	42	0	1979711488	55	4271
2026-01-29 09:49:28.64	335.21	9.16	-42.7	-43.6	20.5	0.00e+00	0	42	0	1992294400	55	4374
2026-01-29 09:49:32.66	335.24	8.83	-42.8	-43.8	20.4	0.00e+00	0	42	0	2004877312	56	4211
2026-01-29 09:49:36.70	335.27	8.50	-43.2	-44.2	20.1	0.00e+00	0	42	0	2017460224	56	4397
2026-01-29 09:49:40.73	335.30	8.17	-43.3	-44.3	20.0	0.00e+00	0	42	0	2030043136	57	4200
2026-01-29 09:49:44.76	335.32	7.85	-43.4	-44.4	19.8	0.00e+00	0	42	0	2042626048	57	4254
2026-01-29 09:49:48.78	335.35	7.53	-43.4	-44.4	19.8	0.00e+00	0	42	0	2055208960	57	4271
2026-01-29 09:49:52.81	335.38	7.22	-43.6	-44.6	19.6	0.00e+00	0	42	0	2067791872	57	4373
2026-01-29 09:49:56.85	335.40	6.91	-43.8	-44.9	19.2	0.00e+00	0	42	0	2080374784	58	4277
2026-01-29 09:50:00.88	335.43	6.60	-44.0	-45.1	19.0	0.00e+00	0	42	0	2092957696	58	4362
2026-01-29 09:50:04.91	335.46	6.30	-44.1	-45.3	18.8	0.00e+00	0	42	0	2105540608	58	4443
2026-01-29 09:50:08.95	335.48	6.00	-44.2	-45.3	18.7	0.00e+00	0	42	0	2118123520	59	4232
2026-01-29 09:50:12.98	335.51	5.70	-44.4	-45.6	18.4	0.00e+00	0	42	0	2130706432	59	4390
2026-01-29 09:50:17.01	335.53	5.41	-44.6	-45.9	18.2	0.00e+00	0	42	0	2143289344	59	4499
2026-01-29 09:50:21.04	335.56	5.12	-44.3	-45.6	18.1	0.00e+00	0	42	0	2155872256	60	4110
2026-01-29 09:50:25.07	335.58	4.84	-53.0	-65.7	3.8	1.49e+00	0	42	104	2161115136	76	16640
2026-01-29 09:50:29.09	335.61	4.55	-53.5	-66.3	3.8	1.49e+00	0	42	104	2161115136	77	16751
2026-01-29 09:50:33.12	335.63	4.27	-53.5	-66.2	3.8	1.49e+00	0	42	104	2161115136	77	16670
2026-01-29 09:50:37.15	335.66	4.00	-53.3	-66.0	3.8	1.49e+00	0	42	104	2161115136	77	16301
2026-01-29 09:50:41.18	335.68	3.72	-53.5	-66.2	3.8	1.49e+00	0	42	104	2161115136	77	16676
2026-01-29 09:50:45.22	335.71	3.45	-53.4	-66.2	3.8	1.49e+00	0	42	104	2161115136	77	16514
2026-01-29 09:50:49.25	335.73	3.18	-53.3	-66.1	3.8	1.49e+00	0	42	104	2161115136	77	16364
2026-01-29 09:50:53.28	335.76	2.91	-53.3	-66.0	3.8	1.49e+00	0	42	104	2161115136	77	16298
2026-01-29 09:50:57.32	335.78	2.65	-53.3	-66.0	3.8	1.49e+00	0	42	104	2161115136	77	16224
2026-01-29 09:51:01.36	335.81	2.39	-53.2	-66.0	3.8	1.49e+00	0	42	104	2161115136	77	16195
2026-01-29 09:51:05.39	335.83	2.13	-53.2	-66.0	3.8	1.49e+00	0	42	104	2161115136	77	16167

#Closed at: 2026-01-29 09:51:08
#Recorded file [2161 MB]: D:/lorett/data/31041_260129_123726.dat