passes_logs/2026/01/29/R3.2S_Murmansk/R3.2S_Murmansk__20260129_204143_TY-42_rec.log

#Pass ID: 20260129_204143_TY-42
#Satellite: TY-42
#Configuration: TY-42_900M
#almurnet v.1.7.20251203
#Start time: 2026-01-29 20:41:44

#Version: 2.2.20231116
#Station: R3.2S_Murmansk
#Location: 33.079688 lon 68.888172 lat
#TLE: 1 64048U 25103A   26029.59629630  .00008015  00000-0  38191-3 0 09991
#TLE: 2 64048 097.4120 104.7398 0001761 095.4017 301.3163 15.19189348 39031

#Time	Az	El	Level	Level2	SNR	BER	BlckErr	Temp	State	Recorded	gain1	gain2
2026-01-29 20:41:44.35	211.70	2.05	-52.7	-54.8	6.2	0.00e+00	0	48	0	0	77	17907
2026-01-29 20:41:47.35	211.99	2.23	-52.6	-54.8	6.2	0.00e+00	0	48	104	0	76	18827
2026-01-29 20:41:50.31	212.28	2.41	-52.6	-54.7	6.2	0.00e+00	0	48	104	0	76	18765
2026-01-29 20:41:53.24	212.57	2.59	-52.6	-54.7	6.2	0.00e+00	0	49	104	0	76	18656
2026-01-29 20:41:56.15	212.86	2.77	-52.6	-54.7	6.2	0.00e+00	0	48	104	0	76	18725
2026-01-29 20:41:59.07	213.15	2.95	-52.6	-54.7	6.2	0.00e+00	0	49	104	0	76	18610
2026-01-29 20:42:01.97	213.45	3.13	-52.6	-54.7	6.2	0.00e+00	0	49	104	0	76	18662
2026-01-29 20:42:04.89	213.76	3.31	-52.6	-54.7	6.2	0.00e+00	0	49	104	0	76	18685
2026-01-29 20:42:07.80	214.07	3.49	-52.5	-54.7	6.2	0.00e+00	0	49	104	0	76	18678
2026-01-29 20:42:10.71	214.38	3.68	-52.5	-54.7	6.2	0.00e+00	0	49	104	0	76	18642
2026-01-29 20:42:13.62	214.70	3.86	-52.5	-54.6	6.2	0.00e+00	0	50	104	0	76	18583
2026-01-29 20:42:16.52	215.02	4.05	-52.5	-54.7	6.2	0.00e+00	0	50	104	0	76	18635
2026-01-29 20:42:19.44	215.35	4.23	-52.5	-54.7	6.2	0.00e+00	0	50	104	0	76	18618
2026-01-29 20:42:22.34	215.68	4.42	-52.5	-54.6	6.2	0.00e+00	0	50	104	0	76	18539
2026-01-29 20:42:25.25	216.02	4.61	-52.5	-54.6	6.2	0.00e+00	0	50	104	0	76	18523
2026-01-29 20:42:28.16	216.37	4.80	-52.5	-54.7	6.2	0.00e+00	0	50	104	0	76	18634
2026-01-29 20:42:31.07	216.72	4.99	-52.5	-54.6	6.2	0.00e+00	0	50	104	0	76	18544
2026-01-29 20:42:33.98	217.07	5.18	-52.6	-54.7	6.2	0.00e+00	0	50	104	0	76	18772
2026-01-29 20:42:36.89	217.43	5.38	-52.7	-54.8	6.2	0.00e+00	0	50	104	0	76	18999
2026-01-29 20:42:39.81	217.80	5.57	-52.5	-54.6	6.2	0.00e+00	0	51	104	0	76	18498
2026-01-29 20:42:42.71	218.17	5.76	-52.6	-54.6	6.2	0.00e+00	0	50	104	0	76	18576
2026-01-29 20:42:45.62	218.55	5.96	-52.6	-54.7	6.2	0.00e+00	0	51	104	0	76	18806
2026-01-29 20:42:48.53	218.94	6.16	-52.6	-54.7	6.2	0.00e+00	0	51	104	0	76	18725
2026-01-29 20:42:51.44	219.33	6.36	-52.5	-54.7	6.2	0.00e+00	0	51	104	0	76	18624
2026-01-29 20:42:54.34	219.73	6.56	-52.6	-54.7	6.2	0.00e+00	0	51	104	0	76	18800
2026-01-29 20:42:57.25	220.13	6.76	-52.7	-54.8	6.2	0.00e+00	0	51	104	0	76	19033
2026-01-29 20:43:00.16	220.54	6.96	-52.6	-54.7	6.2	0.00e+00	0	51	104	0	76	18643
2026-01-29 20:43:03.07	220.96	7.16	-52.6	-54.7	6.2	0.00e+00	0	51	104	0	76	18767
2026-01-29 20:43:05.99	221.39	7.36	-52.7	-54.9	6.2	0.00e+00	0	51	104	0	76	19104
2026-01-29 20:43:08.90	221.82	7.57	-52.8	-54.9	6.2	0.00e+00	0	51	104	0	76	19146
2026-01-29 20:43:11.81	222.26	7.77	-52.6	-54.8	6.2	0.00e+00	0	51	104	0	76	18842
2026-01-29 20:43:14.72	222.71	7.98	-52.7	-54.8	6.2	0.00e+00	0	51	104	0	76	18972
2026-01-29 20:43:17.64	223.17	8.19	-52.8	-54.9	6.2	0.00e+00	0	51	104	0	76	19200
2026-01-29 20:43:20.56	223.63	8.40	-52.8	-54.9	6.2	0.00e+00	0	51	104	0	76	19149
2026-01-29 20:43:23.47	224.10	8.61	-52.7	-54.9	6.2	0.00e+00	0	51	104	0	76	19079
2026-01-29 20:43:26.38	224.58	8.82	-52.8	-54.9	6.2	0.00e+00	0	51	104	0	76	19164
2026-01-29 20:43:29.29	225.07	9.03	-52.9	-55.0	6.2	0.00e+00	0	51	104	0	76	19384
2026-01-29 20:43:32.20	225.57	9.24	-52.8	-54.9	6.2	0.00e+00	0	51	104	0	76	19158
2026-01-29 20:43:35.10	226.07	9.45	-52.8	-54.9	6.2	0.00e+00	0	52	104	0	76	19207
2026-01-29 20:43:38.01	226.58	9.67	-52.9	-55.0	6.2	0.00e+00	0	52	104	0	76	19401
2026-01-29 20:43:40.93	227.11	9.88	-52.9	-55.0	6.2	0.00e+00	0	52	104	0	76	19445
2026-01-29 20:43:43.84	227.64	10.09	-52.8	-55.0	6.2	0.00e+00	0	52	104	0	76	19306
2026-01-29 20:43:46.75	228.18	10.31	-52.9	-55.0	6.2	0.00e+00	0	52	104	0	76	19410
2026-01-29 20:43:49.66	228.73	10.53	-52.9	-55.1	6.2	0.00e+00	0	52	104	0	76	19515
2026-01-29 20:43:52.57	229.29	10.74	-52.9	-55.1	6.2	0.00e+00	0	52	104	0	76	19549
2026-01-29 20:43:55.48	229.87	10.96	-52.9	-55.0	6.2	0.00e+00	0	52	104	0	76	19384
2026-01-29 20:43:58.39	230.45	11.17	-53.0	-55.1	6.2	0.00e+00	0	52	104	0	76	19552
2026-01-29 20:44:01.31	231.04	11.39	-53.0	-55.1	6.2	0.00e+00	0	52	104	0	76	19599
2026-01-29 20:44:04.22	231.64	11.61	-53.0	-55.1	6.2	0.00e+00	0	52	104	0	76	19539
2026-01-29 20:44:07.13	232.25	11.83	-53.0	-55.1	6.2	0.00e+00	0	52	104	0	76	19653
2026-01-29 20:44:10.04	232.87	12.04	-53.0	-55.2	6.2	0.00e+00	0	52	104	0	76	19731
2026-01-29 20:44:12.95	233.51	12.26	-53.1	-55.2	6.2	0.00e+00	0	52	104	0	76	19869
2026-01-29 20:44:15.85	234.15	12.48	-53.0	-55.1	6.2	0.00e+00	0	52	104	0	76	19662
2026-01-29 20:44:18.76	234.80	12.69	-53.0	-55.2	6.2	0.00e+00	0	52	104	0	76	19782
2026-01-29 20:44:21.67	235.47	12.91	-53.1	-55.2	6.2	0.00e+00	0	52	104	0	76	19831
2026-01-29 20:44:24.58	236.15	13.12	-53.1	-55.2	6.2	0.00e+00	0	52	104	0	76	19761
2026-01-29 20:44:27.49	236.84	13.34	-53.0	-55.2	6.2	0.00e+00	0	52	104	0	76	19780
2026-01-29 20:44:30.41	237.54	13.55	-53.1	-55.2	6.2	0.00e+00	0	52	104	0	76	19786
2026-01-29 20:44:33.32	238.26	13.76	-53.1	-55.2	6.2	0.00e+00	0	52	104	0	76	19854
2026-01-29 20:44:36.23	238.98	13.97	-53.1	-55.2	6.2	0.00e+00	0	52	104	0	76	19831
2026-01-29 20:44:39.14	239.72	14.18	-53.1	-55.2	6.2	0.00e+00	0	52	104	0	76	19822
2026-01-29 20:44:42.05	240.47	14.39	-53.1	-55.2	6.2	0.00e+00	0	52	104	0	76	19916
2026-01-29 20:44:44.96	241.23	14.59	-53.2	-55.3	6.2	0.00e+00	0	52	104	0	76	20027
2026-01-29 20:44:47.88	242.00	14.80	-53.1	-55.3	6.2	0.00e+00	0	52	104	0	76	20013
2026-01-29 20:44:50.80	242.79	15.00	-34.8	-34.6	14.6	0.00e+00	155	53	104	0	41	13912
2026-01-29 20:44:53.70	243.59	15.20	-28.2	-28.1	16.1	0.00e+00	0	54	0	201326592	28	13897
2026-01-29 20:44:56.61	244.40	15.40	-28.2	-28.1	16.1	1.55e-02	0	54	0	528482304	28	13862
2026-01-29 20:44:59.53	245.22	15.59	-28.1	-28.0	16.1	1.36e-03	0	54	0	855638016	28	13726
2026-01-29 20:45:02.45	246.06	15.78	-28.0	-27.9	16.1	1.25e-03	0	54	0	1182793728	27	14434
2026-01-29 20:45:05.35	246.90	15.97	-28.1	-28.0	16.1	1.13e-03	0	55	0	1518338048	27	14476
2026-01-29 20:45:08.26	247.76	16.15	-28.0	-27.9	16.2	1.35e-03	0	55	0	1845493760	27	14396
2026-01-29 20:45:11.17	248.63	16.33	-27.9	-27.8	16.1	1.11e-03	0	55	0	2172649472	27	14189
2026-01-29 20:45:14.08	249.52	16.51	-27.7	-27.6	16.2	5.91e-04	0	55	0	2499805184	27	13866
2026-01-29 20:45:16.99	250.41	16.68	-27.7	-27.6	16.2	3.43e-04	0	55	0	2826960896	27	13859
2026-01-29 20:45:19.90	251.32	16.85	-27.6	-27.5	16.2	3.15e-04	0	55	0	3154116608	27	13766
2026-01-29 20:45:22.80	252.23	17.01	-27.5	-27.4	16.2	3.81e-04	0	55	0	3481272320	27	13598
2026-01-29 20:45:25.71	253.16	17.17	-27.6	-27.5	16.2	3.00e-04	0	55	0	3808428032	27	13641
2026-01-29 20:45:28.62	254.10	17.32	-27.4	-27.3	16.2	2.24e-04	0	55	0	4135583744	26	14236
2026-01-29 20:45:31.52	255.05	17.47	-27.4	-27.3	16.3	2.24e-04	0	55	0	4454350848	26	14153
2026-01-29 20:45:34.43	256.01	17.61	-27.4	-27.3	16.2	3.05e-04	0	55	0	4781506560	26	14246
2026-01-29 20:45:37.35	256.98	17.74	-27.5	-27.4	16.2	2.24e-04	0	55	0	5108662272	26	14309
2026-01-29 20:45:40.26	257.96	17.87	-27.4	-27.3	16.2	3.62e-04	0	55	0	5444206592	26	14198
2026-01-29 20:45:43.16	258.95	17.99	-27.4	-27.3	16.2	2.53e-04	0	56	0	5771362304	26	14207
2026-01-29 20:45:46.08	259.95	18.11	-27.3	-27.3	16.2	2.10e-04	0	55	0	6098518016	26	14112
2026-01-29 20:45:48.98	260.95	18.22	-27.3	-27.2	16.3	2.10e-04	0	55	0	6425673728	26	14000
2026-01-29 20:45:51.89	261.96	18.32	-27.4	-27.3	16.2	2.05e-04	0	56	0	6752829440	26	14188
2026-01-29 20:45:54.80	262.98	18.41	-27.4	-27.3	16.2	3.34e-04	0	56	0	7079985152	26	14182
2026-01-29 20:45:57.70	264.01	18.50	-27.5	-27.4	16.2	3.10e-04	0	56	0	7407140864	26	14319
2026-01-29 20:46:00.60	265.04	18.57	-27.3	-27.2	16.2	3.48e-04	0	56	0	7734296576	26	13987
2026-01-29 20:46:03.51	266.08	18.64	-27.4	-27.3	16.3	4.67e-04	0	56	0	8061452288	26	14258
2026-01-29 20:46:06.43	267.12	18.71	-27.3	-27.2	16.4	4.67e-04	0	56	0	8380219392	26	14103
2026-01-29 20:46:09.33	268.17	18.76	-27.3	-27.2	16.2	3.53e-04	0	56	0	8707375104	26	14053
2026-01-29 20:46:12.24	269.22	18.81	-27.3	-27.2	16.2	2.14e-04	0	56	0	9034530816	26	13997
2026-01-29 20:46:15.15	270.28	18.84	-27.4	-27.3	16.2	1.62e-04	0	56	0	9361686528	26	14157
2026-01-29 20:46:18.05	271.33	18.87	-27.2	-27.1	16.2	1.24e-04	0	56	0	9697230848	26	13914
2026-01-29 20:46:20.96	272.39	18.89	-27.3	-27.2	16.2	1.48e-04	0	56	0	10024386560	26	13978
2026-01-29 20:46:23.87	273.45	18.90	-27.3	-27.2	16.2	1.62e-04	0	56	0	10351542272	26	14089
2026-01-29 20:46:26.79	274.52	18.90	-27.5	-27.4	16.2	1.52e-04	0	56	0	10678697984	26	14367
2026-01-29 20:46:29.69	275.58	18.90	-27.4	-27.3	16.1	1.38e-04	0	56	0	11005853696	26	14227
2026-01-29 20:46:32.60	276.64	18.88	-27.4	-27.3	16.3	1.72e-04	0	57	0	11333009408	26	14217
2026-01-29 20:46:35.51	277.70	18.86	-27.5	-27.4	16.1	1.43e-04	0	56	0	11660165120	26	14327
2026-01-29 20:46:38.41	278.75	18.83	-27.6	-27.5	16.1	2.67e-04	0	56	0	11987320832	26	14486
2026-01-29 20:46:41.32	279.80	18.79	-27.8	-27.7	16.0	1.72e-04	0	56	0	12306087936	26	14845
2026-01-29 20:46:44.23	280.85	18.74	-27.7	-27.6	16.0	1.72e-04	0	57	0	12633243648	26	14768
2026-01-29 20:46:47.14	281.90	18.68	-27.7	-27.6	16.0	2.38e-04	0	56	0	12960399360	26	14694
2026-01-29 20:46:50.05	282.94	18.62	-27.7	-27.6	16.0	2.72e-04	0	57	0	13287555072	26	14706
2026-01-29 20:46:52.95	283.97	18.54	-27.7	-27.6	16.0	2.19e-04	0	56	0	13623099392	26	14679
2026-01-29 20:46:55.86	285.00	18.46	-27.8	-27.7	16.0	2.43e-04	0	57	0	13950255104	26	14908
2026-01-29 20:46:58.77	286.02	18.37	-27.8	-27.7	16.0	2.43e-04	0	57	0	14277410816	26	14914
2026-01-29 20:47:01.68	287.04	18.28	-28.0	-27.9	16.0	2.57e-04	0	56	0	14604566528	26	15211
2026-01-29 20:47:04.59	288.05	18.17	-28.0	-27.9	16.1	2.76e-04	0	57	0	14931722240	26	15162
2026-01-29 20:47:07.50	289.05	18.06	-27.9	-27.8	16.1	2.72e-04	0	57	0	15258877952	26	15080
2026-01-29 20:47:10.40	290.04	17.94	-28.0	-27.9	16.2	2.14e-04	0	57	0	15586033664	26	15146
2026-01-29 20:47:13.31	291.02	17.82	-28.0	-27.9	16.1	1.86e-04	0	57	0	15913189376	26	15255
2026-01-29 20:47:16.23	291.99	17.69	-28.0	-27.9	16.1	1.76e-04	0	57	0	16240345088	26	15264
2026-01-29 20:47:19.14	292.96	17.55	-28.2	-28.1	16.1	2.62e-04	0	57	0	16559112192	26	15476
2026-01-29 20:47:22.05	293.91	17.41	-28.2	-28.1	16.1	2.67e-04	0	57	0	16886267904	27	14648
2026-01-29 20:47:24.96	294.85	17.26	-28.3	-28.2	16.1	2.24e-04	0	57	0	17230200832	27	14842
2026-01-29 20:47:27.87	295.78	17.11	-28.4	-28.3	16.1	2.57e-04	0	57	0	17548967936	27	14964
2026-01-29 20:47:30.78	296.71	16.95	-28.2	-28.1	16.2	2.24e-04	0	57	0	17876123648	27	14755
2026-01-29 20:47:33.68	297.61	16.79	-28.3	-28.2	16.2	2.24e-04	0	57	0	18203279360	27	14795
2026-01-29 20:47:36.59	298.51	16.62	-28.4	-28.3	16.2	1.62e-04	0	57	0	18530435072	27	14956
2026-01-29 20:47:39.50	299.40	16.44	-28.3	-28.2	16.2	1.95e-04	0	57	0	18857590784	27	14886
2026-01-29 20:47:42.41	300.27	16.27	-28.4	-28.3	16.2	2.86e-04	0	57	0	19184746496	27	15039
2026-01-29 20:47:45.32	301.13	16.09	-28.4	-28.3	16.2	2.29e-04	0	57	0	19511902208	27	14968
2026-01-29 20:47:48.23	301.98	15.90	-28.5	-28.4	16.2	2.29e-04	0	57	0	19839057920	27	15222
2026-01-29 20:47:51.13	302.82	15.72	-28.3	-28.2	16.3	1.91e-04	0	57	0	20166213632	27	14778
2026-01-29 20:47:54.04	303.64	15.52	-28.4	-28.3	16.3	2.57e-04	0	57	0	20484980736	27	15041
2026-01-29 20:47:56.95	304.46	15.33	-28.5	-28.4	16.3	2.81e-04	0	57	0	20828913664	27	15243
2026-01-29 20:47:59.86	305.26	15.13	-28.6	-28.5	16.2	2.96e-04	0	57	0	21156069376	27	15332
2026-01-29 20:48:02.77	306.05	14.94	-28.5	-28.5	16.2	3.05e-04	0	57	0	21474836480	28	14448
2026-01-29 20:48:05.68	306.83	14.73	-28.6	-28.5	16.2	3.19e-04	0	57	0	21801992192	28	14542
2026-01-29 20:48:08.59	307.59	14.53	-28.7	-28.5	16.2	3.81e-04	0	57	0	22129147904	28	14599
2026-01-29 20:48:11.50	308.34	14.33	-28.7	-28.6	16.2	4.05e-04	0	57	0	22456303616	28	14665
2026-01-29 20:48:14.41	309.09	14.12	-28.8	-28.7	16.2	4.58e-04	0	57	0	22783459328	28	14809
2026-01-29 20:48:17.32	309.81	13.91	-29.0	-28.9	16.1	4.05e-04	0	57	0	23110615040	28	15224
2026-01-29 20:48:20.26	310.54	13.70	-29.0	-28.9	16.1	4.86e-04	0	57	0	23446159360	28	15150
2026-01-29 20:48:23.24	311.26	13.48	-29.0	-28.9	16.1	5.25e-04	0	57	0	23773315072	29	14282
2026-01-29 20:48:26.25	311.98	13.26	-29.3	-29.2	16.0	7.10e-04	0	57	0	24125636608	29	14782
2026-01-29 20:48:29.25	312.68	13.04	-29.1	-29.0	16.1	6.96e-04	0	57	0	24452792320	29	14589
2026-01-29 20:48:32.23	313.36	12.83	-29.2	-29.1	16.0	8.49e-04	0	57	0	24788336640	29	14736
2026-01-29 20:48:35.21	314.04	12.61	-29.3	-29.2	16.0	7.91e-04	0	57	0	25123880960	29	14819
2026-01-29 20:48:38.18	314.70	12.39	-29.3	-29.2	16.0	7.96e-04	0	57	0	25459425280	29	14829
2026-01-29 20:48:41.19	315.35	12.16	-29.2	-29.1	16.0	7.30e-04	0	57	0	25794969600	29	14621
2026-01-29 20:48:44.21	316.00	11.94	-29.3	-29.2	16.0	6.63e-04	0	57	0	26138902528	29	14882
2026-01-29 20:48:47.24	316.64	11.72	-29.3	-29.2	15.9	7.58e-04	0	57	0	26474446848	29	14807
2026-01-29 20:48:50.26	317.26	11.49	-29.4	-29.3	15.9	8.92e-04	0	57	0	26818379776	29	15113
2026-01-29 20:48:53.27	317.88	11.27	-29.4	-29.3	15.9	9.77e-04	0	57	0	27162312704	29	15040
2026-01-29 20:48:56.29	318.48	11.05	-29.5	-29.4	15.8	9.68e-04	0	57	0	27497857024	29	15251
2026-01-29 20:48:59.31	319.07	10.82	-29.6	-29.5	15.8	1.14e-03	0	57	0	27833401344	30	14603
2026-01-29 20:49:02.33	319.65	10.60	-29.7	-29.6	15.8	1.43e-03	0	57	0	28168945664	30	14667
2026-01-29 20:49:05.35	320.22	10.38	-29.7	-29.6	15.8	1.62e-03	0	57	0	28512878592	30	14744
2026-01-29 20:49:08.37	320.78	10.16	-29.9	-29.8	15.6	1.82e-03	0	57	0	28856811520	30	15082
2026-01-29 20:49:11.38	321.33	9.94	-29.9	-29.9	15.6	1.96e-03	0	57	0	29192355840	30	15131
2026-01-29 20:49:14.40	321.87	9.72	-29.9	-29.8	15.6	2.15e-03	0	57	0	29536288768	30	15001
2026-01-29 20:49:17.40	322.40	9.50	-30.0	-29.9	15.5	2.37e-03	0	57	0	29871833088	30	15249
2026-01-29 20:49:20.42	322.92	9.28	-30.1	-30.0	15.5	2.68e-03	0	58	0	30207377408	30	15473
2026-01-29 20:49:23.43	323.43	9.06	-30.1	-30.0	15.4	3.03e-03	0	57	0	30542921728	31	14602
2026-01-29 20:49:26.45	323.93	8.85	-30.3	-30.2	15.4	2.86e-03	0	58	0	30895243264	31	14936
2026-01-29 20:49:29.48	324.43	8.63	-30.5	-30.4	15.2	3.56e-03	0	58	0	31230787584	32	14427
2026-01-29 20:49:32.49	324.92	8.41	-30.6	-30.5	15.2	4.27e-03	0	58	0	31566331904	32	14589
2026-01-29 20:49:35.50	325.39	8.20	-30.5	-30.4	15.2	4.55e-03	0	57	0	31910264832	32	14416
2026-01-29 20:49:38.52	325.86	7.99	-30.4	-30.3	15.2	4.22e-03	0	58	0	32245809152	32	14242
2026-01-29 20:49:41.54	326.32	7.77	-30.2	-30.2	15.3	4.22e-03	0	57	0	32581353472	32	13954
2026-01-29 20:49:44.57	326.78	7.56	-30.6	-30.5	15.2	4.55e-03	0	58	0	32933675008	32	14524
2026-01-29 20:49:47.58	327.22	7.35	-30.7	-30.6	15.1	4.95e-03	0	57	0	33269219328	32	14612
2026-01-29 20:49:50.59	327.66	7.14	-30.7	-30.6	15.1	5.32e-03	0	58	0	33604763648	32	14694
2026-01-29 20:49:53.60	328.08	6.94	-30.5	-30.4	15.2	5.41e-03	0	58	0	33940307968	32	14394
2026-01-29 20:49:56.62	328.51	6.73	-30.5	-30.4	15.2	5.56e-03	0	58	0	34284240896	32	14370
2026-01-29 20:49:59.63	328.92	6.52	-30.3	-30.2	15.2	5.56e-03	0	57	0	34619785216	32	14014
2026-01-29 20:50:02.65	329.33	6.32	-30.3	-30.2	15.2	5.94e-03	0	57	0	34963718144	32	14057
2026-01-29 20:50:05.67	329.73	6.11	-30.4	-30.3	15.1	6.04e-03	0	57	0	35307651072	32	14242
2026-01-29 20:50:08.69	330.13	5.91	-30.6	-30.5	15.0	7.00e-03	0	58	0	35643195392	32	14579
2026-01-29 20:50:11.71	330.51	5.71	-30.3	-30.2	15.1	6.84e-03	0	58	0	35978739712	32	14041
2026-01-29 20:50:14.72	330.90	5.51	-30.6	-30.5	15.0	8.04e-03	0	58	0	36314284032	32	14554
2026-01-29 20:50:17.73	331.27	5.31	-30.9	-30.8	14.8	8.62e-03	0	58	0	36658216960	32	15060
2026-01-29 20:50:20.74	331.64	5.11	-30.9	-30.9	14.8	1.21e-02	0	57	0	36993761280	33	14279
2026-01-29 20:50:23.77	332.00	4.92	-52.8	-55.0	6.2	1.43e-02	0	57	104	37220253696	76	19474
2026-01-29 20:50:26.79	332.36	4.72	-53.5	-55.7	6.2	1.43e-02	0	56	104	37220253696	77	19771
2026-01-29 20:50:29.81	332.71	4.53	-53.8	-56.0	6.2	1.43e-02	0	56	104	37220253696	78	19272
2026-01-29 20:50:32.83	333.06	4.33	-53.7	-55.8	6.2	5.26e-03	0	56	104	37220253696	78	18958
2026-01-29 20:50:35.85	333.40	4.14	-53.6	-55.7	6.2	5.26e-03	0	56	104	37220253696	78	18778
2026-01-29 20:50:38.87	333.74	3.95	-53.7	-55.9	6.2	5.26e-03	0	56	104	37220253696	78	19050
2026-01-29 20:50:41.89	334.07	3.76	-53.8	-56.0	6.2	5.26e-03	0	56	104	37220253696	78	19311
2026-01-29 20:50:44.91	334.39	3.57	-53.8	-55.9	6.2	5.26e-03	0	56	104	37220253696	78	19153
2026-01-29 20:50:47.93	334.71	3.38	-53.7	-55.8	6.2	5.26e-03	0	56	104	37220253696	78	19010
2026-01-29 20:50:50.95	335.03	3.19	-53.7	-55.8	6.2	0.00e+00	0	55	104	37220253696	78	18917
2026-01-29 20:50:53.97	335.34	3.01	-53.6	-55.8	6.2	0.00e+00	0	55	104	37220253696	78	18863
2026-01-29 20:50:57.00	335.65	2.82	-53.6	-55.8	6.2	0.00e+00	0	55	104	37220253696	78	18856
2026-01-29 20:51:00.01	335.95	2.64	-53.6	-55.7	6.2	0.00e+00	0	55	104	37220253696	78	18780
2026-01-29 20:51:03.03	336.24	2.46	-53.6	-55.7	6.2	0.00e+00	0	55	104	37220253696	78	18722
2026-01-29 20:51:06.04	336.53	2.28	-53.6	-55.7	6.2	0.00e+00	0	55	104	37220253696	78	18701
2026-01-29 20:51:09.07	336.82	2.10	-53.5	-55.7	6.2	0.00e+00	0	55	104	37220253696	78	18631
2026-01-29 20:51:12.09	337.11	1.92	-53.5	-55.7	6.2	0.00e+00	0	55	104	37220253696	78	18615

#Closed at: 2026-01-29 20:51:12
#Recorded file [37220 MB]: D:/lorett/data/31041_260129_234144.dat