passes_logs/2026/01/29/R3.2S_Murmansk/R3.2S_Murmansk__20260129_212434_JL1KF02B01_rec.log

#Pass ID: 20260129_212434_JL1KF02B01
#Satellite: JL1KF02B01
#Configuration: 01B_900M
#almurnet v.1.7.20251203
#Start time: 2026-01-29 21:24:34

#Version: 2.2.20231116
#Station: R3.2S_Murmansk
#Location: 33.079688 lon 68.888172 lat
#TLE: 1 61191U 24169C   26028.95513050  .00007507  00000+0  46820-3 0  9997
#TLE: 2 61191  97.5609 120.3307 0014645  79.9682 280.3199 15.09725114 74821

#Time	Az	El	Level	Level2	SNR	BER	BlckErr	Temp	State	Recorded	gain1	gain2
2026-01-29 21:24:34.58	200.36	2.02	-54.2	-56.2	6.2	0.00e+00	0	42	0	0	79	18795
2026-01-29 21:24:37.60	200.59	2.21	-54.1	-56.2	6.2	0.00e+00	0	42	104	0	79	18737
2026-01-29 21:24:40.63	200.82	2.40	-54.1	-56.2	6.2	0.00e+00	0	42	104	0	79	18748
2026-01-29 21:24:43.65	201.06	2.60	-54.2	-56.3	6.2	0.00e+00	0	42	104	0	79	18882
2026-01-29 21:24:46.67	201.30	2.79	-54.3	-56.3	6.2	0.00e+00	0	42	104	0	79	19030
2026-01-29 21:24:49.69	201.54	2.99	-54.3	-56.3	6.2	0.00e+00	0	43	104	0	79	18988
2026-01-29 21:24:52.71	201.79	3.19	-54.2	-56.3	6.2	0.00e+00	0	42	104	0	79	18902
2026-01-29 21:24:55.73	202.04	3.39	-54.1	-56.2	6.2	0.00e+00	0	43	104	0	79	18706
2026-01-29 21:24:58.75	202.30	3.59	-53.9	-56.1	6.2	0.00e+00	0	42	104	0	79	18392
2026-01-29 21:25:01.77	202.56	3.79	-53.7	-55.8	6.2	0.00e+00	0	43	104	0	79	17924
2026-01-29 21:25:04.80	202.83	4.00	-53.3	-55.3	6.2	0.00e+00	0	43	104	0	78	17950
2026-01-29 21:25:07.81	203.10	4.20	-52.6	-54.7	6.2	0.00e+00	0	43	104	0	77	17630
2026-01-29 21:25:10.84	203.37	4.41	-52.6	-54.7	6.2	0.00e+00	0	43	104	0	77	17575
2026-01-29 21:25:13.86	203.65	4.62	-52.6	-54.7	6.2	0.00e+00	0	43	104	0	77	17598
2026-01-29 21:25:16.88	203.93	4.83	-44.6	-52.6	6.6	0.00e+00	0	43	104	0	63	31177
2026-01-29 21:25:19.90	204.22	5.05	-45.5	-53.6	6.3	0.00e+00	0	43	104	0	64	32989
2026-01-29 21:25:22.93	204.52	5.26	-52.2	-54.5	6.2	0.00e+00	0	43	104	0	74	20556
2026-01-29 21:25:25.94	204.82	5.48	-52.3	-54.5	6.2	0.00e+00	0	43	104	0	75	19378
2026-01-29 21:25:28.96	205.12	5.69	-52.2	-54.6	6.2	0.00e+00	0	43	104	0	75	19510
2026-01-29 21:25:31.97	205.43	5.91	-52.4	-54.7	6.2	0.00e+00	0	43	104	0	75	19732
2026-01-29 21:25:35.00	205.74	6.14	-52.6	-54.7	6.2	0.00e+00	0	43	104	0	75	19834
2026-01-29 21:25:38.02	206.07	6.36	-52.5	-54.6	6.2	0.00e+00	0	43	104	0	75	19589
2026-01-29 21:25:41.04	206.39	6.58	-52.5	-54.6	6.2	0.00e+00	0	44	104	0	75	19686
2026-01-29 21:25:44.06	206.72	6.81	-52.6	-54.7	6.2	0.00e+00	0	44	104	0	75	19870
2026-01-29 21:25:47.09	207.06	7.04	-52.7	-54.8	6.2	0.00e+00	0	44	104	0	75	19990
2026-01-29 21:25:50.10	207.41	7.27	-52.5	-54.6	6.2	0.00e+00	0	44	104	0	75	19641
2026-01-29 21:25:53.12	207.76	7.50	-52.6	-54.7	6.2	0.00e+00	0	43	104	0	75	19847
2026-01-29 21:25:56.14	208.12	7.74	-52.6	-54.8	6.2	0.00e+00	0	44	104	0	75	20085
2026-01-29 21:25:59.16	208.49	7.98	-52.7	-54.8	6.2	0.00e+00	0	44	104	0	75	20115
2026-01-29 21:26:02.18	208.86	8.22	-52.6	-54.7	6.2	0.00e+00	0	44	104	0	75	19916
2026-01-29 21:26:05.20	209.24	8.46	-52.7	-54.8	6.2	0.00e+00	0	44	104	0	76	18874
2026-01-29 21:26:08.21	209.62	8.70	-48.6	-49.3	6.5	0.00e+00	0	44	104	0	69	14967
2026-01-29 21:26:11.23	210.02	8.95	-45.8	-46.2	6.8	0.00e+00	0	44	104	0	63	14935
2026-01-29 21:26:14.25	210.42	9.19	-47.0	-47.5	6.6	0.00e+00	0	44	104	0	64	16360
2026-01-29 21:26:17.28	210.83	9.44	-47.7	-48.2	6.7	0.00e+00	0	44	104	0	66	15802
2026-01-29 21:26:20.30	211.25	9.70	-44.7	-44.9	7.3	0.00e+00	0	44	104	0	61	14345
2026-01-29 21:26:23.31	211.68	9.95	-48.9	-49.6	7.1	0.00e+00	0	44	104	0	69	15523
2026-01-29 21:26:26.33	212.12	10.20	-46.6	-47.0	8.0	0.00e+00	0	44	104	0	65	14455
2026-01-29 21:26:29.36	212.56	10.46	-35.5	-35.3	15.1	2.29e-04	0	44	0	251658240	43	13432
2026-01-29 21:26:32.38	213.02	10.72	-28.0	-27.8	17.0	0.00e+00	0	44	0	603979776	28	13451
2026-01-29 21:26:35.40	213.48	10.99	-26.7	-26.6	17.4	0.00e+00	0	44	0	939524096	25	13816
2026-01-29 21:26:38.42	213.96	11.25	-26.6	-26.4	17.4	0.00e+00	0	44	0	1275068416	25	13599
2026-01-29 21:26:41.44	214.44	11.52	-26.3	-26.1	17.4	0.00e+00	0	44	0	1619001344	24	13933
2026-01-29 21:26:44.47	214.94	11.79	-26.4	-26.3	17.3	0.00e+00	0	45	0	1954545664	24	14144
2026-01-29 21:26:47.48	215.44	12.06	-26.2	-26.0	17.5	0.00e+00	0	45	0	2298478592	24	13755
2026-01-29 21:26:50.50	215.96	12.33	-26.0	-25.8	17.4	0.00e+00	0	44	0	2642411520	23	14182
2026-01-29 21:26:53.53	216.49	12.61	-25.8	-25.7	17.3	0.00e+00	0	44	0	2977955840	23	13988
2026-01-29 21:26:56.55	217.03	12.89	-25.8	-25.6	17.6	0.00e+00	0	44	0	3313500160	23	13885
2026-01-29 21:26:59.56	217.58	13.16	-25.5	-25.4	17.6	0.00e+00	0	44	0	3649044480	23	13541
2026-01-29 21:27:02.59	218.14	13.45	-25.4	-25.2	17.6	0.00e+00	0	44	0	4001366016	22	14091
2026-01-29 21:27:05.60	218.71	13.73	-25.3	-25.2	17.6	0.00e+00	0	45	0	4336910336	22	14025
2026-01-29 21:27:08.63	219.30	14.02	-25.3	-25.2	17.6	1.90e-06	0	45	0	4672454656	22	13973
2026-01-29 21:27:11.65	219.91	14.30	-25.1	-24.9	17.7	0.00e+00	0	45	0	5016387584	22	13551
2026-01-29 21:27:14.67	220.52	14.59	-25.1	-24.9	17.9	0.00e+00	0	44	0	5351931904	22	13588
2026-01-29 21:27:17.68	221.15	14.88	-25.0	-24.8	17.8	0.00e+00	0	45	0	5704253440	21	14227
2026-01-29 21:27:20.70	221.79	15.17	-24.8	-24.6	17.9	0.00e+00	0	45	0	6039797760	21	13901
2026-01-29 21:27:23.72	222.45	15.47	-24.7	-24.5	17.8	0.00e+00	0	45	0	6375342080	21	13721
2026-01-29 21:27:26.74	223.12	15.76	-24.5	-24.4	17.9	0.00e+00	0	45	0	6710886400	21	13510
2026-01-29 21:27:29.76	223.81	16.06	-24.5	-24.4	17.6	0.00e+00	0	45	0	7046430720	20	14276
2026-01-29 21:27:32.78	224.51	16.35	-24.4	-24.3	17.7	0.00e+00	0	45	0	7398752256	20	14178
2026-01-29 21:27:35.80	225.23	16.65	-24.2	-24.0	17.7	0.00e+00	0	45	0	7734296576	20	13707
2026-01-29 21:27:38.82	225.96	16.95	-24.1	-24.0	17.7	0.00e+00	0	45	0	8069840896	20	13635
2026-01-29 21:27:41.85	226.71	17.25	-24.1	-23.9	17.6	0.00e+00	0	45	0	8413773824	19	14415
2026-01-29 21:27:44.87	227.48	17.55	-24.0	-23.8	17.7	0.00e+00	0	45	0	8749318144	19	14217
2026-01-29 21:27:47.90	228.27	17.84	-23.9	-23.8	17.7	0.00e+00	0	45	0	9101639680	19	14144
2026-01-29 21:27:50.93	229.07	18.14	-23.8	-23.6	17.4	0.00e+00	0	45	0	9437184000	19	13859
2026-01-29 21:27:53.96	229.90	18.44	-23.7	-23.5	17.4	0.00e+00	0	45	0	9772728320	19	13781
2026-01-29 21:27:56.99	230.74	18.74	-23.7	-23.6	17.7	0.00e+00	0	45	0	10125049856	19	13858
2026-01-29 21:28:00.01	231.60	19.04	-23.8	-23.6	17.6	0.00e+00	0	45	0	10460594176	19	13862
2026-01-29 21:28:03.05	232.48	19.33	-23.5	-23.3	17.4	0.00e+00	0	45	0	10796138496	19	13428
2026-01-29 21:28:06.07	233.37	19.62	-23.4	-23.2	17.4	0.00e+00	0	45	0	11131682816	18	14074
2026-01-29 21:28:09.09	234.29	19.92	-23.4	-23.2	17.2	0.00e+00	0	45	0	11484004352	18	14075
2026-01-29 21:28:12.11	235.22	20.20	-23.3	-23.2	17.2	0.00e+00	0	45	0	11819548672	18	13980
2026-01-29 21:28:15.14	236.18	20.49	-23.3	-23.1	17.0	0.00e+00	0	45	0	12155092992	18	13927
2026-01-29 21:28:18.16	237.15	20.77	-23.1	-23.0	17.1	0.00e+00	0	45	0	12499025920	18	13638
2026-01-29 21:28:21.18	238.14	21.05	-23.0	-22.8	16.8	0.00e+00	0	45	0	12834570240	18	13458
2026-01-29 21:28:24.20	239.15	21.32	-22.9	-22.7	16.8	0.00e+00	0	45	0	13178503168	17	14076
2026-01-29 21:28:27.22	240.18	21.59	-22.9	-22.7	16.5	0.00e+00	0	45	0	13522436096	17	14066
2026-01-29 21:28:30.25	241.24	21.85	-22.7	-22.5	16.4	0.00e+00	0	45	0	13857980416	17	13723
2026-01-29 21:28:33.27	242.31	22.11	-22.7	-22.5	16.6	0.00e+00	0	45	0	14193524736	17	13790
2026-01-29 21:28:36.29	243.40	22.36	-22.6	-22.5	16.2	0.00e+00	0	45	0	14545846272	17	13634
2026-01-29 21:28:39.31	244.50	22.60	-22.4	-22.3	15.9	0.00e+00	0	45	0	14881390592	16	14171
2026-01-29 21:28:42.33	245.63	22.84	-22.3	-22.1	15.8	0.00e+00	0	45	0	15216934912	16	13929
2026-01-29 21:28:45.36	246.78	23.07	-22.3	-22.1	15.9	0.00e+00	0	45	0	15552479232	16	13943
2026-01-29 21:28:48.38	247.95	23.29	-22.2	-22.0	15.6	5.70e-06	0	45	0	15904800768	16	13739
2026-01-29 21:28:51.40	249.13	23.50	-22.1	-21.9	15.5	1.90e-06	0	45	0	16240345088	16	13629
2026-01-29 21:28:54.42	250.33	23.70	-22.1	-22.0	15.3	1.90e-06	0	45	0	16575889408	16	13696
2026-01-29 21:28:57.44	251.54	23.89	-22.1	-21.9	15.6	1.90e-06	0	45	0	16919822336	16	13587
2026-01-29 21:29:00.46	252.77	24.07	-22.0	-21.8	15.6	0.00e+00	0	45	0	17255366656	16	13435
2026-01-29 21:29:03.48	254.02	24.23	-21.9	-21.8	15.8	0.00e+00	0	45	0	17590910976	15	14113
2026-01-29 21:29:06.51	255.28	24.39	-21.8	-21.7	15.9	1.90e-06	0	45	0	17943232512	15	13994
2026-01-29 21:29:09.53	256.55	24.53	-21.8	-21.6	16.0	1.90e-06	0	45	0	18278776832	15	13929
2026-01-29 21:29:12.55	257.84	24.67	-21.8	-21.6	16.0	0.00e+00	0	45	0	18614321152	15	13915
2026-01-29 21:29:15.57	259.13	24.78	-21.8	-21.6	15.8	0.00e+00	0	45	0	18949865472	15	13938
2026-01-29 21:29:18.59	260.44	24.89	-21.8	-21.7	16.2	1.90e-06	0	45	0	19302187008	15	13994
2026-01-29 21:29:21.60	261.74	24.98	-21.9	-21.8	16.1	0.00e+00	0	45	0	19637731328	15	14115
2026-01-29 21:29:24.64	263.07	25.05	-21.9	-21.7	16.3	0.00e+00	0	46	0	19973275648	15	14062
2026-01-29 21:29:27.66	264.40	25.11	-21.9	-21.7	16.8	0.00e+00	0	45	0	20317208576	15	14031
2026-01-29 21:29:30.69	265.74	25.16	-21.9	-21.8	17.0	0.00e+00	0	45	0	20661141504	15	14172
2026-01-29 21:29:33.71	267.07	25.19	-22.1	-21.9	17.2	0.00e+00	0	45	0	20996685824	15	14342
2026-01-29 21:29:36.74	268.41	25.20	-22.1	-22.0	17.6	0.00e+00	0	45	0	21340618752	15	14461
2026-01-29 21:29:39.77	269.75	25.20	-22.1	-21.9	17.9	0.00e+00	0	45	0	21676163072	15	14394
2026-01-29 21:29:42.79	271.09	25.19	-22.1	-21.9	18.1	0.00e+00	0	45	0	22020096000	15	14403
2026-01-29 21:29:45.81	272.43	25.16	-22.1	-22.0	18.3	0.00e+00	0	45	0	22364028928	15	14482
2026-01-29 21:29:48.83	273.76	25.12	-22.2	-22.0	18.6	0.00e+00	0	45	0	22699573248	15	14552
2026-01-29 21:29:51.85	275.08	25.06	-22.2	-22.0	18.8	0.00e+00	0	45	0	23035117568	15	14542
2026-01-29 21:29:54.88	276.41	24.98	-22.3	-22.1	18.8	0.00e+00	0	45	0	23387439104	15	14683
2026-01-29 21:29:57.90	277.72	24.89	-22.3	-22.2	18.9	0.00e+00	0	45	0	23722983424	15	14781
2026-01-29 21:30:00.91	279.02	24.79	-22.4	-22.2	19.0	0.00e+00	0	45	0	24058527744	15	14897
2026-01-29 21:30:03.94	280.32	24.67	-22.4	-22.2	19.1	0.00e+00	0	45	0	24394072064	15	14848
2026-01-29 21:30:06.97	281.61	24.54	-22.4	-22.2	19.0	0.00e+00	0	45	0	24738004992	15	14931
2026-01-29 21:30:09.99	282.88	24.40	-22.6	-22.4	19.1	0.00e+00	0	45	0	25081937920	15	15194
2026-01-29 21:30:13.01	284.13	24.25	-22.6	-22.4	19.1	0.00e+00	0	45	0	25417482240	15	15192
2026-01-29 21:30:16.03	285.38	24.08	-22.7	-22.5	19.1	0.00e+00	0	45	0	25761415168	16	14582
2026-01-29 21:30:19.05	286.61	23.90	-22.8	-22.6	19.0	0.00e+00	0	45	0	26096959488	16	14752
2026-01-29 21:30:22.07	287.82	23.71	-22.9	-22.7	18.9	0.00e+00	0	46	0	26432503808	16	14902
2026-01-29 21:30:25.09	289.02	23.52	-22.8	-22.7	18.7	0.00e+00	0	45	0	26784825344	16	14796
2026-01-29 21:30:28.12	290.20	23.31	-22.8	-22.6	18.7	0.00e+00	0	45	0	27120369664	16	14773
2026-01-29 21:30:31.14	291.36	23.09	-23.0	-22.8	18.7	0.00e+00	0	46	0	27455913984	16	15048
2026-01-29 21:30:34.17	292.51	22.86	-23.0	-22.8	18.8	0.00e+00	0	45	0	27791458304	16	15038
2026-01-29 21:30:37.20	293.64	22.63	-23.2	-23.0	18.9	0.00e+00	0	45	0	28143779840	17	14546
2026-01-29 21:30:40.23	294.75	22.38	-23.2	-23.1	18.8	0.00e+00	0	45	0	28479324160	17	14657
2026-01-29 21:30:43.25	295.84	22.13	-23.2	-23.1	18.8	0.00e+00	0	45	0	28814868480	17	14614
2026-01-29 21:30:46.27	296.90	21.88	-23.3	-23.1	18.8	0.00e+00	0	45	0	29158801408	17	14710
2026-01-29 21:30:49.30	297.96	21.62	-23.5	-23.3	18.7	0.00e+00	0	45	0	29502734336	17	15099
2026-01-29 21:30:52.32	298.99	21.35	-23.5	-23.3	18.7	0.00e+00	0	45	0	29846667264	17	15019
2026-01-29 21:30:55.34	300.00	21.08	-23.7	-23.5	18.7	0.00e+00	0	45	0	30182211584	18	14585
2026-01-29 21:30:58.37	300.99	20.80	-23.7	-23.5	18.5	0.00e+00	0	45	0	30517755904	18	14562
2026-01-29 21:31:01.39	301.96	20.52	-23.6	-23.5	18.4	0.00e+00	0	45	0	30870077440	18	14500
2026-01-29 21:31:04.41	302.91	20.24	-23.7	-23.6	18.3	0.00e+00	0	45	0	31205621760	18	14610
2026-01-29 21:31:07.43	303.84	19.95	-23.8	-23.6	18.1	0.00e+00	0	46	0	31541166080	18	14698
2026-01-29 21:31:10.45	304.75	19.67	-23.9	-23.7	17.9	0.00e+00	0	45	0	31876710400	18	14855
2026-01-29 21:31:13.47	305.64	19.37	-23.9	-23.8	17.9	0.00e+00	0	45	0	32212254720	18	14987
2026-01-29 21:31:16.50	306.52	19.08	-24.0	-23.9	17.8	0.00e+00	0	45	0	32564576256	18	15130
2026-01-29 21:31:19.52	307.38	18.79	-24.2	-24.0	17.7	0.00e+00	0	46	0	32900120576	19	14513
2026-01-29 21:31:22.55	308.22	18.49	-24.4	-24.3	17.6	0.00e+00	0	45	0	33244053504	19	14996
2026-01-29 21:31:25.57	309.04	18.20	-24.4	-24.2	17.5	0.00e+00	0	45	0	33579597824	19	14848
2026-01-29 21:31:28.60	309.84	17.90	-24.5	-24.4	17.3	0.00e+00	0	45	0	33923530752	19	15150
2026-01-29 21:31:31.62	310.62	17.60	-24.6	-24.4	17.1	0.00e+00	0	45	0	34267463680	20	14426
2026-01-29 21:31:34.64	311.39	17.30	-24.7	-24.5	17.1	1.90e-06	0	45	0	34603008000	20	14534
2026-01-29 21:31:37.67	312.14	17.01	-24.8	-24.7	17.0	0.00e+00	0	45	0	34938552320	20	14801
2026-01-29 21:31:40.69	312.88	16.71	-24.9	-24.7	17.1	0.00e+00	0	45	0	35290873856	20	14873
2026-01-29 21:31:43.72	313.60	16.41	-24.9	-24.8	16.7	1.90e-06	0	45	0	35626418176	20	14951
2026-01-29 21:31:46.74	314.30	16.12	-25.1	-24.9	16.6	1.90e-06	0	45	0	35961962496	20	15267
2026-01-29 21:31:49.76	314.98	15.83	-25.3	-25.1	16.4	0.00e+00	0	45	0	36297506816	21	14676
2026-01-29 21:31:52.78	315.65	15.53	-25.3	-25.2	16.7	0.00e+00	0	45	0	36649828352	21	14794
2026-01-29 21:31:55.80	316.31	15.24	-25.5	-25.3	16.6	0.00e+00	0	45	0	36985372672	21	14997
2026-01-29 21:31:58.82	316.95	14.95	-25.5	-25.4	16.8	0.00e+00	0	46	0	37320916992	21	15123
2026-01-29 21:32:01.85	317.58	14.66	-25.7	-25.5	16.6	0.00e+00	0	45	0	37664849920	22	14590
2026-01-29 21:32:04.87	318.20	14.37	-25.6	-25.5	16.5	0.00e+00	0	46	0	38000394240	22	14490
2026-01-29 21:32:07.89	318.80	14.09	-25.9	-25.7	16.7	1.90e-06	0	45	0	38344327168	22	14846
2026-01-29 21:32:10.91	319.38	13.81	-26.0	-25.8	16.5	3.80e-06	0	45	0	38688260096	22	15021
2026-01-29 21:32:13.93	319.96	13.52	-26.3	-26.1	16.6	0.00e+00	0	45	0	39023804416	23	14717
2026-01-29 21:32:16.96	320.52	13.24	-26.2	-26.1	16.9	3.80e-06	0	46	0	39359348736	23	14639
2026-01-29 21:32:19.98	321.07	12.96	-26.3	-26.1	16.8	0.00e+00	0	45	0	39711670272	23	14695
2026-01-29 21:32:23.00	321.61	12.69	-26.4	-26.3	17.0	0.00e+00	0	45	0	40047214592	23	15006
2026-01-29 21:32:26.02	322.14	12.41	-26.5	-26.3	16.7	3.80e-06	0	46	0	40382758912	23	15029
2026-01-29 21:32:29.04	322.65	12.14	-26.6	-26.4	16.7	0.00e+00	0	45	0	40718303232	23	15291
2026-01-29 21:32:32.07	323.16	11.87	-26.8	-26.6	16.6	1.90e-06	0	46	0	41062236160	24	14693
2026-01-29 21:32:35.09	323.66	11.60	-27.0	-26.8	16.4	5.70e-06	0	45	0	41406169088	24	15101
2026-01-29 21:32:38.11	324.14	11.34	-27.1	-26.9	16.5	0.00e+00	0	45	0	41741713408	24	15206
2026-01-29 21:32:41.14	324.62	11.07	-48.9	-49.5	7.7	0.00e+00	0	45	104	41984983040	68	16236
2026-01-29 21:32:44.16	325.08	10.81	-53.4	-55.5	6.2	0.00e+00	0	45	104	41984983040	77	19357
2026-01-29 21:32:47.19	325.54	10.55	-53.5	-55.6	6.2	0.00e+00	0	45	104	41984983040	77	19531
2026-01-29 21:32:50.21	325.98	10.30	-53.4	-55.5	6.2	0.00e+00	0	45	104	41984983040	77	19265
2026-01-29 21:32:53.23	326.42	10.04	-53.3	-55.4	6.2	0.00e+00	0	45	104	41984983040	77	19149
2026-01-29 21:32:56.26	326.85	9.79	-53.3	-55.4	6.2	0.00e+00	0	45	104	41984983040	77	19131
2026-01-29 21:32:59.29	327.27	9.54	-53.3	-55.4	6.2	0.00e+00	0	45	104	41984983040	77	19128
2026-01-29 21:33:02.31	327.68	9.29	-53.2	-55.3	6.2	0.00e+00	0	45	104	41984983040	77	18917
2026-01-29 21:33:05.33	328.08	9.04	-53.1	-55.2	6.2	0.00e+00	0	45	104	41984983040	77	18684
2026-01-29 21:33:08.35	328.48	8.80	-53.1	-55.2	6.2	0.00e+00	0	45	104	41984983040	77	18725
2026-01-29 21:33:11.37	328.87	8.56	-53.1	-55.2	6.2	0.00e+00	0	45	104	41984983040	77	18700
2026-01-29 21:33:14.39	329.25	8.32	-53.0	-55.1	6.2	0.00e+00	0	45	104	41984983040	77	18565
2026-01-29 21:33:17.41	329.62	8.08	-52.9	-55.0	6.2	0.00e+00	0	45	104	41984983040	77	18370
2026-01-29 21:33:20.44	329.99	7.84	-53.0	-55.1	6.2	0.00e+00	0	45	104	41984983040	77	18444
2026-01-29 21:33:23.46	330.35	7.61	-52.9	-55.0	6.2	0.00e+00	0	45	104	41984983040	77	18385
2026-01-29 21:33:26.48	330.70	7.37	-52.9	-55.0	6.2	0.00e+00	0	45	104	41984983040	77	18344
2026-01-29 21:33:29.51	331.05	7.14	-52.8	-54.9	6.2	0.00e+00	0	45	104	41984983040	77	18150
2026-01-29 21:33:32.53	331.39	6.92	-52.8	-54.9	6.2	0.00e+00	0	45	104	41984983040	77	18089
2026-01-29 21:33:35.55	331.72	6.69	-52.8	-54.9	6.2	0.00e+00	0	45	104	41984983040	77	18063
2026-01-29 21:33:38.58	332.05	6.46	-52.8	-54.9	6.2	0.00e+00	0	45	104	41984983040	77	18144
2026-01-29 21:33:41.60	332.37	6.24	-52.7	-54.8	6.2	0.00e+00	0	45	104	41984983040	77	17825
2026-01-29 21:33:44.62	332.69	6.02	-52.7	-54.8	6.2	0.00e+00	0	45	104	41984983040	77	17840
2026-01-29 21:33:47.64	333.00	5.80	-52.7	-54.8	6.2	0.00e+00	0	45	104	41984983040	77	17802
2026-01-29 21:33:50.66	333.30	5.59	-52.7	-54.8	6.2	0.00e+00	0	45	104	41984983040	77	17802
2026-01-29 21:33:53.68	333.60	5.37	-52.5	-54.7	6.2	0.00e+00	0	45	104	41984983040	77	17587
2026-01-29 21:33:56.70	333.90	5.16	-52.6	-54.6	6.2	0.00e+00	0	45	104	41984983040	77	17554
2026-01-29 21:33:59.72	334.19	4.95	-53.1	-55.2	6.2	0.00e+00	0	45	104	41984983040	76	19713
2026-01-29 21:34:02.74	334.47	4.74	-53.8	-55.8	6.2	0.00e+00	0	45	104	41984983040	78	19003
2026-01-29 21:34:05.76	334.75	4.53	-53.9	-56.0	6.2	0.00e+00	0	45	104	41984983040	78	19276
2026-01-29 21:34:08.78	335.03	4.32	-53.8	-55.9	6.2	0.00e+00	0	45	104	41984983040	78	19055
2026-01-29 21:34:11.80	335.30	4.12	-53.5	-55.6	6.2	0.00e+00	0	45	104	41984983040	78	18522
2026-01-29 21:34:14.83	335.56	3.91	-53.6	-55.7	6.2	0.00e+00	0	45	104	41984983040	78	18727
2026-01-29 21:34:17.85	335.83	3.71	-53.7	-55.8	6.2	0.00e+00	0	45	104	41984983040	78	18864
2026-01-29 21:34:20.87	336.08	3.51	-53.7	-55.8	6.2	0.00e+00	0	45	104	41984983040	78	18872
2026-01-29 21:34:23.89	336.34	3.31	-53.6	-55.7	6.2	0.00e+00	0	45	104	41984983040	78	18763
2026-01-29 21:34:26.91	336.59	3.11	-53.6	-55.7	6.2	0.00e+00	0	45	104	41984983040	78	18667
2026-01-29 21:34:29.93	336.83	2.92	-53.6	-55.7	6.2	0.00e+00	0	45	104	41984983040	78	18626
2026-01-29 21:34:32.94	337.07	2.72	-53.6	-55.7	6.2	0.00e+00	0	45	104	41984983040	78	18607
2026-01-29 21:34:35.97	337.31	2.53	-53.5	-55.6	6.2	0.00e+00	0	45	104	41984983040	78	18549
2026-01-29 21:34:38.99	337.55	2.34	-53.5	-55.6	6.2	0.00e+00	0	45	104	41984983040	78	18513
2026-01-29 21:34:42.01	337.78	2.14	-53.5	-55.6	6.2	0.00e+00	0	45	104	41984983040	78	18510

#Closed at: 2026-01-29 21:34:45
#Recorded file [41984 MB]: D:/lorett/data/31041_260130_002434.dat