passes_logs/2026/01/29/R3.2S_Murmansk/R3.2S_Murmansk__20260129_092347_FENGYUN_3D_rec.log

#Pass ID: 20260129_092347_FENGYUN 3D
#Satellite: FENGYUN 3D
#Configuration: FENGYUN 3D
#almurnet v.1.7.20251203
#Start time: 2026-01-29 09:23:47

#Version: 2.2.20231116
#Station: R3.2S_Murmansk
#Location: 33.079688 lon 68.888172 lat
#TLE: 1 43010U 17072A   26028.95797775  .00000451  00000+0  23492-3 0  9991
#TLE: 2 43010  98.9958   0.9922 0002505  85.7480 274.3981 14.19703224425237

#Time	Az	El	Level	Level2	SNR	BER	BlckErr	Temp	State	Recorded	gain1	gain2
2026-01-29 09:23:47.40	101.81	2.00	-54.0	-65.9	3.8	8.46e-01	0	40	0	0	79	14310
2026-01-29 09:23:51.42	101.63	2.25	-54.1	-66.1	3.8	8.47e-01	0	40	104	0	78	15495
2026-01-29 09:23:55.45	101.44	2.49	-54.1	-66.1	3.8	8.46e-01	0	40	104	0	78	15449
2026-01-29 09:23:59.48	101.25	2.74	-54.0	-65.9	3.8	8.45e-01	0	40	104	0	78	15165
2026-01-29 09:24:03.52	101.06	2.99	-53.8	-65.8	3.8	8.46e-01	0	40	104	0	78	14922
2026-01-29 09:24:07.56	100.86	3.25	-53.3	-65.3	3.8	8.47e-01	0	40	104	0	78	14098
2026-01-29 09:24:11.59	100.66	3.50	-53.0	-65.0	3.8	8.47e-01	0	40	104	0	78	13623
2026-01-29 09:24:15.62	100.46	3.76	-52.6	-64.6	3.8	8.46e-01	0	40	104	0	77	13736
2026-01-29 09:24:19.66	100.25	4.02	-52.0	-63.3	3.8	8.46e-01	0	41	104	0	76	12604
2026-01-29 09:24:23.69	100.04	4.28	-51.9	-63.0	3.8	8.47e-01	0	41	104	0	75	12942
2026-01-29 09:24:27.72	99.83	4.54	-50.8	-56.7	6.1	4.91e-01	0	41	0	1048576	73	7027
2026-01-29 09:24:31.74	99.61	4.81	-47.5	-49.8	12.9	1.25e-04	0	41	0	23068672	67	4481
2026-01-29 09:24:35.78	99.38	5.07	-44.6	-45.9	17.1	0.00e+00	0	41	0	46137344	61	4034
2026-01-29 09:24:39.81	99.16	5.34	-51.5	-59.5	4.8	1.48e-05	0	41	0	69206016	73	9631
2026-01-29 09:24:43.84	98.92	5.62	-42.5	-43.5	19.8	0.00e+00	0	41	0	87031808	56	4077
2026-01-29 09:24:47.87	98.69	5.89	-42.4	-43.5	19.8	0.00e+00	0	41	0	109051904	56	4061
2026-01-29 09:24:51.90	98.45	6.17	-42.1	-43.1	20.1	0.00e+00	0	41	0	132120576	56	3913
2026-01-29 09:24:55.92	98.20	6.45	-42.1	-43.1	20.1	0.00e+00	0	41	0	155189248	55	4109
2026-01-29 09:24:59.95	97.95	6.73	-41.8	-42.7	20.4	0.00e+00	0	41	0	177209344	55	3954
2026-01-29 09:25:03.99	97.69	7.02	-41.8	-42.7	20.4	0.00e+00	0	41	0	200278016	55	3955
2026-01-29 09:25:08.02	97.43	7.30	-41.7	-42.6	20.5	0.00e+00	0	41	0	223346688	55	3912
2026-01-29 09:25:12.06	97.16	7.59	-41.7	-42.7	20.5	0.00e+00	0	41	0	245366784	55	3943
2026-01-29 09:25:16.09	96.88	7.89	-41.7	-42.7	20.5	0.00e+00	0	41	0	268435456	55	3937
2026-01-29 09:25:20.12	96.61	8.18	-41.5	-42.4	20.8	0.00e+00	0	41	0	291504128	55	3817
2026-01-29 09:25:24.15	96.32	8.48	-41.5	-42.5	20.8	0.00e+00	0	41	0	313524224	54	4073
2026-01-29 09:25:28.17	96.03	8.78	-41.4	-42.3	20.9	0.00e+00	0	41	0	336592896	54	4000
2026-01-29 09:25:32.21	95.73	9.08	-41.3	-42.2	21.1	0.00e+00	0	41	0	359661568	54	3922
2026-01-29 09:25:36.25	95.42	9.39	-40.9	-41.8	21.5	0.00e+00	0	41	0	381681664	53	3976
2026-01-29 09:25:40.28	95.11	9.70	-41.0	-41.9	21.4	0.00e+00	0	41	0	403701760	53	4030
2026-01-29 09:25:44.32	94.79	10.02	-40.9	-41.8	21.6	0.00e+00	0	41	0	426770432	53	3960
2026-01-29 09:25:48.36	94.47	10.33	-40.9	-41.8	21.5	0.00e+00	0	41	0	449839104	53	3970
2026-01-29 09:25:52.40	94.13	10.65	-40.7	-41.6	21.8	0.00e+00	0	42	0	471859200	53	3877
2026-01-29 09:25:56.43	93.79	10.97	-40.6	-41.5	21.9	0.00e+00	0	42	0	494927872	53	3832
2026-01-29 09:26:00.47	93.44	11.30	-40.3	-41.2	22.1	0.00e+00	0	41	0	517996544	52	3941
2026-01-29 09:26:04.50	93.09	11.63	-40.4	-41.3	22.1	0.00e+00	0	41	0	541065216	52	3973
2026-01-29 09:26:08.53	92.72	11.96	-40.5	-41.3	22.0	0.00e+00	0	42	0	563085312	52	4004
2026-01-29 09:26:12.56	92.35	12.30	-40.7	-41.6	21.8	0.00e+00	0	41	0	586153984	52	4137
2026-01-29 09:26:16.60	91.96	12.64	-40.6	-41.5	21.9	0.00e+00	0	41	0	608174080	52	4088
2026-01-29 09:26:20.63	91.57	12.98	-40.2	-41.1	22.3	0.00e+00	0	42	0	631242752	52	3886
2026-01-29 09:26:24.66	91.17	13.33	-40.1	-40.9	22.4	0.00e+00	0	41	0	654311424	52	3820
2026-01-29 09:26:28.69	90.76	13.67	-40.0	-40.8	22.5	0.00e+00	0	41	0	676331520	52	3779
2026-01-29 09:26:32.73	90.34	14.03	-40.1	-40.9	22.6	0.00e+00	0	41	0	699400192	51	4038
2026-01-29 09:26:36.76	89.90	14.38	-39.9	-40.8	22.7	0.00e+00	0	41	0	722468864	51	3972
2026-01-29 09:26:40.80	89.46	14.75	-39.6	-40.5	23.0	0.00e+00	0	42	0	744488960	51	3831
2026-01-29 09:26:44.82	89.01	15.11	-39.6	-40.4	23.0	0.00e+00	0	42	0	767557632	51	3812
2026-01-29 09:26:48.85	88.54	15.48	-39.8	-40.6	23.1	0.00e+00	0	42	0	789577728	51	3898
2026-01-29 09:26:52.89	88.06	15.85	-39.7	-40.4	23.3	0.00e+00	0	42	0	812646400	51	3824
2026-01-29 09:26:56.92	87.57	16.22	-39.4	-40.2	23.5	0.00e+00	0	42	0	835715072	50	3937
2026-01-29 09:27:00.95	87.07	16.60	-39.5	-40.2	23.5	0.00e+00	0	42	0	857735168	50	3958
2026-01-29 09:27:04.99	86.55	16.98	-39.4	-40.1	23.7	0.00e+00	0	42	0	880803840	50	3895
2026-01-29 09:27:09.02	86.02	17.37	-39.0	-39.7	24.0	0.00e+00	0	42	0	903872512	50	3731
2026-01-29 09:27:13.06	85.48	17.76	-38.8	-39.5	24.2	0.00e+00	0	42	0	925892608	49	3851
2026-01-29 09:27:17.08	84.92	18.15	-38.9	-39.6	24.1	0.00e+00	0	42	0	948961280	49	3903
2026-01-29 09:27:21.12	84.35	18.54	-38.8	-39.5	24.2	0.00e+00	0	42	0	972029952	49	3865
2026-01-29 09:27:25.15	83.76	18.94	-38.6	-39.4	24.4	0.00e+00	0	42	0	994050048	49	3781
2026-01-29 09:27:29.19	83.15	19.34	-38.5	-39.2	24.5	0.00e+00	0	42	0	1017118720	49	3719
2026-01-29 09:27:33.22	82.53	19.75	-38.7	-39.5	24.3	0.00e+00	0	42	0	1040187392	48	4065
2026-01-29 09:27:37.25	81.90	20.16	-38.4	-39.1	24.6	0.00e+00	0	42	0	1062207488	48	3888
2026-01-29 09:27:41.29	81.24	20.57	-38.1	-38.8	24.9	0.00e+00	0	42	0	1085276160	48	3762
2026-01-29 09:27:45.33	80.56	20.98	-38.1	-38.9	24.9	0.00e+00	0	42	0	1108344832	48	3781
2026-01-29 09:27:49.36	79.87	21.40	-38.4	-39.2	24.6	0.00e+00	0	42	0	1130364928	48	3921
2026-01-29 09:27:53.39	79.16	21.82	-38.2	-38.9	24.8	0.00e+00	0	42	0	1152385024	48	3806
2026-01-29 09:27:57.42	78.43	22.24	-38.0	-38.7	25.0	0.00e+00	0	42	0	1175453696	48	3732
2026-01-29 09:28:01.45	77.68	22.66	-37.6	-38.3	24.9	0.00e+00	0	42	0	1198522368	47	3780
2026-01-29 09:28:05.48	76.91	23.08	-37.7	-38.4	24.9	0.00e+00	0	42	0	1220542464	47	3793
2026-01-29 09:28:09.52	76.11	23.51	-37.6	-38.3	25.0	0.00e+00	0	41	0	1243611136	47	3760
2026-01-29 09:28:13.55	75.29	23.93	-37.4	-38.1	25.2	0.00e+00	0	42	0	1266679808	46	3903
2026-01-29 09:28:17.58	74.46	24.36	-37.2	-37.9	25.4	0.00e+00	0	42	0	1288699904	46	3814
2026-01-29 09:28:21.61	73.59	24.78	-37.5	-38.2	25.0	0.00e+00	0	42	0	1311768576	46	3955
2026-01-29 09:28:25.64	72.71	25.21	-37.2	-37.9	25.3	0.00e+00	0	42	0	1334837248	46	3822
2026-01-29 09:28:29.68	71.80	25.63	-37.1	-37.8	25.5	0.00e+00	0	42	0	1356857344	45	3976
2026-01-29 09:28:33.72	70.86	26.06	-36.9	-37.6	25.6	0.00e+00	0	42	0	1379926016	45	3907
2026-01-29 09:28:37.75	69.90	26.48	-36.8	-37.5	25.7	0.00e+00	0	42	0	1402994688	45	3860
2026-01-29 09:28:41.78	68.91	26.90	-36.7	-37.3	25.9	0.00e+00	0	41	0	1425014784	45	3776
2026-01-29 09:28:45.81	67.90	27.31	-36.8	-37.5	25.7	0.00e+00	0	42	0	1448083456	45	3865
2026-01-29 09:28:49.85	66.86	27.72	-37.0	-37.7	25.6	0.00e+00	0	42	0	1471152128	45	3938
2026-01-29 09:28:53.88	65.79	28.13	-36.7	-37.4	25.9	0.00e+00	0	42	0	1493172224	45	3804
2026-01-29 09:28:57.91	64.70	28.53	-37.0	-37.7	25.7	0.00e+00	0	42	0	1516240896	45	3918
2026-01-29 09:29:01.94	63.58	28.92	-36.8	-37.5	25.8	0.00e+00	0	42	0	1538260992	45	3865
2026-01-29 09:29:05.97	62.43	29.31	-36.6	-37.2	26.1	0.00e+00	0	42	0	1561329664	45	3729
2026-01-29 09:29:10.00	61.25	29.69	-36.7	-37.4	26.0	0.00e+00	0	42	0	1584398336	44	4017
2026-01-29 09:29:14.03	60.04	30.06	-36.6	-37.3	26.0	0.00e+00	0	42	0	1606418432	44	3968
2026-01-29 09:29:18.07	58.81	30.42	-36.5	-37.2	26.1	0.00e+00	0	42	0	1629487104	44	3930
2026-01-29 09:29:22.10	57.55	30.77	-36.5	-37.1	26.2	0.00e+00	0	42	0	1652555776	44	3913
2026-01-29 09:29:26.12	56.26	31.10	-36.4	-37.1	26.2	0.00e+00	0	42	0	1674575872	44	3879
2026-01-29 09:29:30.16	54.94	31.43	-36.3	-37.0	26.3	0.00e+00	0	42	0	1697644544	44	3847
2026-01-29 09:29:34.19	53.60	31.74	-36.2	-36.9	26.4	0.00e+00	0	42	0	1719664640	44	3801
2026-01-29 09:29:38.23	52.24	32.03	-36.4	-37.0	26.3	0.00e+00	0	42	0	1742733312	44	3866
2026-01-29 09:29:42.27	50.84	32.31	-36.2	-36.9	26.4	0.00e+00	0	42	0	1765801984	44	3797
2026-01-29 09:29:46.30	49.43	32.57	-36.2	-36.9	26.4	0.00e+00	0	42	0	1788870656	44	3813
2026-01-29 09:29:50.33	47.99	32.82	-36.2	-36.9	26.4	0.00e+00	0	42	0	1810890752	44	3785
2026-01-29 09:29:54.37	46.53	33.04	-35.6	-36.3	26.8	0.00e+00	0	42	0	1833959424	43	3755
2026-01-29 09:29:58.40	45.05	33.25	-35.8	-36.4	26.7	0.00e+00	0	42	0	1855979520	43	3820
2026-01-29 09:30:02.43	43.56	33.43	-35.9	-36.6	26.6	0.00e+00	0	42	0	1879048192	43	3895
2026-01-29 09:30:06.46	42.05	33.59	-35.9	-36.6	26.6	0.00e+00	0	42	0	1901068288	43	3888
2026-01-29 09:30:10.49	40.53	33.73	-36.0	-36.6	26.6	0.00e+00	0	42	0	1924136960	43	3907
2026-01-29 09:30:14.53	38.99	33.85	-36.3	-36.9	26.3	0.00e+00	0	42	0	1947205632	43	4038
2026-01-29 09:30:18.56	37.44	33.95	-36.0	-36.7	26.5	0.00e+00	0	42	0	1969225728	43	3919
2026-01-29 09:30:22.59	35.88	34.02	-35.8	-36.4	26.7	0.00e+00	0	42	0	1992294400	43	3812
2026-01-29 09:30:26.62	34.32	34.06	-35.9	-36.6	26.6	0.00e+00	0	42	0	2015363072	43	3871
2026-01-29 09:30:30.65	32.76	34.09	-35.9	-36.6	26.7	0.00e+00	0	42	0	2037383168	43	3869
2026-01-29 09:30:34.68	31.20	34.09	-35.7	-36.4	26.8	0.00e+00	0	42	0	2060451840	43	3782
2026-01-29 09:30:38.71	29.63	34.06	-35.7	-36.3	26.8	0.00e+00	0	42	0	2083520512	43	3776
2026-01-29 09:30:42.74	28.07	34.01	-36.1	-36.8	26.5	0.00e+00	0	42	0	2105540608	43	3963
2026-01-29 09:30:46.77	26.52	33.94	-36.1	-36.8	26.5	0.00e+00	0	42	0	2128609280	43	3963
2026-01-29 09:30:50.81	24.97	33.84	-35.7	-36.4	26.8	0.00e+00	0	42	0	2151677952	43	3796
2026-01-29 09:30:54.83	23.44	33.72	-36.0	-36.6	26.6	0.00e+00	0	42	0	2173698048	43	3912
2026-01-29 09:30:58.85	21.92	33.58	-36.0	-36.7	26.6	0.00e+00	0	42	0	2196766720	43	3922
2026-01-29 09:31:02.86	20.42	33.41	-35.9	-36.6	26.7	0.00e+00	0	42	0	2218786816	43	3877
2026-01-29 09:31:06.90	18.93	33.22	-35.9	-36.6	26.6	0.00e+00	0	42	0	2241855488	43	3885
2026-01-29 09:31:10.93	17.46	33.02	-36.0	-36.6	26.6	0.00e+00	0	42	0	2263875584	43	3908
2026-01-29 09:31:14.96	16.00	32.79	-35.7	-36.4	26.8	0.00e+00	0	42	0	2286944256	43	3801
2026-01-29 09:31:18.99	14.57	32.54	-36.2	-36.8	26.4	0.00e+00	0	42	0	2308964352	43	4001
2026-01-29 09:31:23.03	13.16	32.28	-36.2	-36.8	26.4	0.00e+00	0	42	0	2332033024	43	3994
2026-01-29 09:31:27.06	11.77	32.00	-35.9	-36.5	26.6	0.00e+00	0	42	0	2355101696	43	3867
2026-01-29 09:31:31.09	10.41	31.70	-35.9	-36.6	26.6	0.00e+00	0	42	0	2377121792	43	3871
2026-01-29 09:31:35.12	9.08	31.39	-36.1	-36.7	26.4	0.00e+00	0	42	0	2400190464	43	3955
2026-01-29 09:31:39.15	7.77	31.07	-36.5	-37.2	26.1	0.00e+00	0	42	0	2423259136	43	4173
2026-01-29 09:31:43.17	6.49	30.73	-36.0	-36.7	26.5	0.00e+00	0	42	0	2445279232	43	3940
2026-01-29 09:31:47.20	5.23	30.38	-36.2	-36.9	26.4	0.00e+00	0	42	0	2468347904	43	4010
2026-01-29 09:31:51.23	4.00	30.02	-36.3	-36.9	26.2	0.00e+00	0	42	0	2491416576	43	4049
2026-01-29 09:31:55.26	2.80	29.65	-36.4	-37.1	26.2	0.00e+00	0	42	0	2513436672	43	4101
2026-01-29 09:31:59.29	1.63	29.27	-36.0	-36.7	26.5	0.00e+00	0	42	0	2536505344	43	3938
2026-01-29 09:32:03.33	0.48	28.89	-36.2	-36.9	26.4	0.00e+00	0	42	0	2559574016	43	4012
2026-01-29 09:32:07.35	359.37	28.49	-36.3	-37.0	26.3	0.00e+00	0	42	0	2581594112	43	4058
2026-01-29 09:32:11.38	358.28	28.09	-36.5	-37.2	26.1	0.00e+00	0	42	0	2603614208	43	4146
2026-01-29 09:32:15.41	357.22	27.69	-36.4	-37.0	26.2	0.00e+00	0	42	0	2626682880	43	4098
2026-01-29 09:32:19.44	356.18	27.28	-36.4	-37.1	26.1	0.00e+00	0	42	0	2649751552	43	4111
2026-01-29 09:32:23.47	355.17	26.86	-36.8	-37.5	25.8	0.00e+00	0	42	0	2671771648	44	4083
2026-01-29 09:32:27.50	354.19	26.45	-37.0	-37.7	25.7	0.00e+00	0	42	0	2694840320	44	4174
2026-01-29 09:32:31.53	353.24	26.03	-36.8	-37.5	25.9	0.00e+00	0	42	0	2717908992	44	4055
2026-01-29 09:32:35.56	352.31	25.60	-37.1	-37.8	25.6	0.00e+00	0	42	0	2739929088	44	4231
2026-01-29 09:32:39.59	351.40	25.18	-37.1	-37.8	25.6	0.00e+00	0	42	0	2762997760	44	4196
2026-01-29 09:32:43.63	350.52	24.75	-36.9	-37.5	25.8	0.00e+00	0	42	0	2786066432	44	4098
2026-01-29 09:32:47.66	349.66	24.33	-37.2	-37.9	25.5	0.00e+00	0	42	0	2808086528	44	4279
2026-01-29 09:32:51.69	348.83	23.91	-37.2	-37.9	25.5	0.00e+00	0	42	0	2831155200	45	4007
2026-01-29 09:32:55.73	348.01	23.48	-37.4	-38.1	25.3	0.00e+00	0	42	0	2854223872	45	4128
2026-01-29 09:32:59.77	347.22	23.06	-37.4	-38.1	25.3	0.00e+00	0	42	0	2876243968	45	4118
2026-01-29 09:33:03.79	346.45	22.63	-37.2	-37.9	25.4	0.00e+00	0	42	0	2899312640	45	4022
2026-01-29 09:33:07.82	345.71	22.21	-37.0	-37.7	25.6	0.00e+00	0	42	0	2922381312	45	3942
2026-01-29 09:33:11.85	344.98	21.80	-37.1	-37.8	25.6	0.00e+00	0	42	0	2944401408	45	3981
2026-01-29 09:33:15.89	344.27	21.38	-37.3	-38.0	25.3	0.00e+00	0	42	0	2966421504	45	4064
2026-01-29 09:33:19.92	343.58	20.96	-37.2	-37.9	25.4	0.00e+00	0	42	0	2989490176	45	4040
2026-01-29 09:33:23.94	342.91	20.55	-37.4	-38.1	25.2	0.00e+00	0	42	0	3012558848	45	4142
2026-01-29 09:33:27.97	342.26	20.14	-37.5	-38.2	25.1	0.00e+00	0	42	0	3034578944	45	4157
2026-01-29 09:33:32.00	341.63	19.74	-37.5	-38.2	25.1	0.00e+00	0	42	0	3057647616	45	4184
2026-01-29 09:33:36.03	341.01	19.33	-37.7	-38.5	24.9	0.00e+00	0	42	0	3080716288	46	4055
2026-01-29 09:33:40.07	340.41	18.93	-37.8	-38.5	24.8	0.00e+00	0	42	0	3102736384	46	4086
2026-01-29 09:33:44.10	339.82	18.53	-38.0	-38.8	24.6	0.00e+00	0	42	0	3125805056	46	4215
2026-01-29 09:33:48.12	339.26	18.14	-38.0	-38.7	24.6	0.00e+00	0	42	0	3148873728	46	4178
2026-01-29 09:33:52.16	338.70	17.75	-38.2	-38.9	24.5	0.00e+00	0	42	0	3170893824	46	4263
2026-01-29 09:33:56.18	338.16	17.36	-38.4	-39.2	24.2	0.00e+00	0	42	0	3193962496	47	4165
2026-01-29 09:34:00.22	337.63	16.98	-38.6	-39.4	24.0	0.00e+00	0	42	0	3217031168	47	4258
2026-01-29 09:34:04.25	337.12	16.60	-39.2	-39.9	24.0	0.00e+00	0	42	0	3239051264	48	4277
2026-01-29 09:34:08.28	336.62	16.22	-39.3	-40.1	23.9	0.00e+00	0	42	0	3262119936	49	4108
2026-01-29 09:34:12.31	336.13	15.85	-39.3	-40.0	23.9	0.00e+00	0	42	0	3285188608	49	4082
2026-01-29 09:34:16.34	335.66	15.48	-39.2	-40.0	23.9	0.00e+00	0	42	0	3307208704	49	4054
2026-01-29 09:34:20.37	335.20	15.11	-39.4	-40.1	23.7	0.00e+00	0	42	0	3330277376	49	4144
2026-01-29 09:34:24.40	334.74	14.75	-39.4	-40.2	23.7	0.00e+00	0	42	0	3352297472	49	4150
2026-01-29 09:34:28.43	334.30	14.39	-39.5	-40.2	23.6	0.00e+00	0	42	0	3375366144	49	4181
2026-01-29 09:34:32.47	333.87	14.03	-39.6	-40.3	23.5	0.00e+00	0	42	0	3397386240	49	4227
2026-01-29 09:34:36.50	333.45	13.68	-39.8	-40.6	23.3	0.00e+00	0	42	0	3420454912	50	4109
2026-01-29 09:34:40.53	333.05	13.33	-39.9	-40.7	23.1	0.00e+00	0	42	0	3443523584	50	4180
2026-01-29 09:34:44.56	332.65	12.99	-40.1	-40.9	23.0	0.00e+00	0	42	0	3465543680	50	4243
2026-01-29 09:34:48.60	332.26	12.65	-40.2	-41.0	22.9	0.00e+00	0	42	0	3488612352	50	4293
2026-01-29 09:34:52.63	331.88	12.31	-40.1	-40.9	23.0	0.00e+00	0	42	0	3511681024	51	4025
2026-01-29 09:34:56.66	331.50	11.97	-40.1	-40.9	22.9	0.00e+00	0	42	0	3533701120	51	4014
2026-01-29 09:35:00.69	331.14	11.64	-40.3	-41.1	22.7	0.00e+00	0	42	0	3556769792	51	4144
2026-01-29 09:35:04.72	330.79	11.31	-40.2	-41.0	22.7	0.00e+00	0	42	0	3579838464	51	4088
2026-01-29 09:35:08.75	330.44	10.99	-40.3	-41.1	22.6	0.00e+00	0	42	0	3601858560	51	4139
2026-01-29 09:35:12.79	330.10	10.67	-40.5	-41.3	22.5	0.00e+00	0	42	0	3624927232	51	4209
2026-01-29 09:35:16.82	329.77	10.35	-40.6	-41.4	22.3	0.00e+00	0	42	0	3647995904	51	4288
2026-01-29 09:35:20.85	329.45	10.03	-40.9	-41.7	21.9	0.00e+00	0	42	0	3670016000	52	4188
2026-01-29 09:35:24.89	329.13	9.72	-40.7	-41.5	22.1	0.00e+00	0	42	0	3692036096	52	4077
2026-01-29 09:35:28.91	328.82	9.41	-40.7	-41.5	22.1	0.00e+00	0	42	0	3715104768	52	4096
2026-01-29 09:35:32.95	328.52	9.11	-40.8	-41.6	21.9	0.00e+00	0	42	0	3738173440	52	4142
2026-01-29 09:35:36.98	328.22	8.80	-40.7	-41.5	22.0	0.00e+00	0	42	0	3760193536	52	4090
2026-01-29 09:35:41.01	327.93	8.50	-40.9	-41.8	21.8	0.00e+00	0	42	0	3783262208	52	4202
2026-01-29 09:35:45.04	327.65	8.20	-40.8	-41.7	21.8	0.00e+00	0	42	0	3806330880	52	4162
2026-01-29 09:35:49.08	327.37	7.91	-41.0	-41.8	21.6	0.00e+00	0	42	0	3828350976	52	4237
2026-01-29 09:35:53.11	327.10	7.62	-41.1	-41.9	21.5	0.00e+00	0	42	0	3851419648	53	4037
2026-01-29 09:35:57.14	326.84	7.33	-41.3	-42.2	21.3	0.00e+00	0	42	0	3874488320	53	4155
2026-01-29 09:36:01.17	326.58	7.04	-41.3	-42.2	21.2	0.00e+00	0	42	0	3896508416	53	4174
2026-01-29 09:36:05.21	326.32	6.76	-41.4	-42.3	21.1	0.00e+00	0	42	0	3919577088	53	4204
2026-01-29 09:36:09.24	326.07	6.47	-41.4	-42.3	21.0	0.00e+00	0	42	0	3942645760	53	4231
2026-01-29 09:36:13.27	325.83	6.20	-41.5	-42.4	20.9	0.00e+00	0	42	0	3964665856	53	4279
2026-01-29 09:36:17.31	325.59	5.92	-41.5	-42.5	20.8	0.00e+00	0	42	0	3987734528	53	4302
2026-01-29 09:36:21.34	325.35	5.64	-41.7	-42.7	20.5	0.00e+00	0	42	0	4010803200	54	4162
2026-01-29 09:36:25.37	325.12	5.37	-41.9	-42.8	20.4	0.00e+00	0	42	0	4032823296	54	4233
2026-01-29 09:36:29.40	324.90	5.10	-42.0	-43.0	20.2	0.00e+00	0	42	0	4055891968	54	4312
2026-01-29 09:36:33.43	324.67	4.84	-52.9	-64.8	3.8	8.46e-01	0	42	104	4063232000	76	15030
2026-01-29 09:36:37.47	324.46	4.57	-53.1	-65.1	3.8	8.46e-01	0	42	104	4063232000	76	15444
2026-01-29 09:36:41.49	324.24	4.31	-53.0	-64.9	3.8	8.46e-01	0	42	104	4063232000	76	15196
2026-01-29 09:36:45.53	324.03	4.05	-53.2	-65.1	3.8	8.46e-01	0	42	104	4063232000	76	15549
2026-01-29 09:36:49.57	323.83	3.79	-53.4	-65.3	3.8	8.46e-01	0	42	104	4063232000	77	14944
2026-01-29 09:36:53.60	323.63	3.53	-53.2	-65.2	3.8	8.45e-01	0	42	104	4063232000	77	14714
2026-01-29 09:36:57.63	323.43	3.28	-53.2	-65.1	3.8	8.47e-01	0	42	104	4063232000	77	14632
2026-01-29 09:37:01.65	323.24	3.03	-53.2	-65.1	3.8	8.46e-01	0	42	104	4063232000	77	14636
2026-01-29 09:37:05.69	323.05	2.77	-53.1	-65.1	3.8	8.46e-01	0	42	104	4063232000	77	14570
2026-01-29 09:37:09.72	322.86	2.53	-53.1	-65.0	3.8	8.46e-01	0	42	104	4063232000	77	14503
2026-01-29 09:37:13.76	322.68	2.28	-53.1	-65.0	3.8	8.46e-01	0	42	104	4063232000	77	14529
2026-01-29 09:37:17.79	322.50	2.03	-53.1	-65.0	3.8	8.46e-01	0	42	104	4063232000	77	14489

#Closed at: 2026-01-29 09:37:19
#Recorded file [4063 MB]: D:/lorett/data/31041_260129_122347.dat