passes_logs/2026/01/29/R3.2S_Murmansk/R3.2S_Murmansk__20260129_142610_FENGYUN_3D_rec.log

#Pass ID: 20260129_142610_FENGYUN 3D
#Satellite: FENGYUN 3D
#Configuration: FENGYUN 3D
#almurnet v.1.7.20251203
#Start time: 2026-01-29 14:26:11

#Version: 2.2.20231116
#Station: R3.2S_Murmansk
#Location: 33.079688 lon 68.888172 lat
#TLE: 1 43010U 17072A   26028.95797775  .00000451  00000+0  23492-3 0  9991
#TLE: 2 43010  98.9958   0.9922 0002505  85.7480 274.3981 14.19703224425237

#Time	Az	El	Level	Level2	SNR	BER	BlckErr	Temp	State	Recorded	gain1	gain2
2026-01-29 14:26:11.41	224.61	2.06	-54.0	-66.0	3.8	8.46e-01	0	40	0	0	79	14446
2026-01-29 14:26:14.42	224.86	2.21	-54.0	-66.0	3.8	8.46e-01	0	40	104	0	78	15251
2026-01-29 14:26:17.45	225.12	2.37	-54.3	-66.2	3.8	8.46e-01	0	40	104	0	79	14838
2026-01-29 14:26:20.48	225.38	2.53	-54.4	-66.4	3.8	8.47e-01	0	40	104	0	79	15125
2026-01-29 14:26:23.51	225.64	2.68	-54.4	-66.3	3.8	8.46e-01	0	40	104	0	79	15038
2026-01-29 14:26:26.52	225.90	2.84	-54.2	-66.2	3.8	8.45e-01	0	40	104	0	79	14754
2026-01-29 14:26:29.55	226.17	3.00	-54.1	-66.0	3.8	8.47e-01	0	40	104	0	79	14517
2026-01-29 14:26:32.57	226.44	3.15	-53.9	-65.8	3.8	8.47e-01	0	40	104	0	79	14163
2026-01-29 14:26:35.60	226.71	3.31	-53.6	-65.6	3.8	8.46e-01	0	40	104	0	79	13821
2026-01-29 14:26:38.62	226.99	3.47	-52.7	-64.6	3.8	8.45e-01	0	40	104	0	77	13857
2026-01-29 14:26:41.63	227.27	3.63	-52.4	-64.2	3.8	8.45e-01	0	40	104	0	76	13892
2026-01-29 14:26:44.66	227.55	3.78	-52.4	-63.9	3.8	8.46e-01	0	41	104	0	76	13531
2026-01-29 14:26:47.68	227.83	3.94	-52.4	-64.2	3.8	8.46e-01	0	41	104	0	76	13899
2026-01-29 14:26:50.71	228.12	4.10	-52.4	-64.3	3.8	8.46e-01	0	41	104	0	76	14107
2026-01-29 14:26:53.73	228.41	4.26	-52.4	-64.1	3.8	8.46e-01	0	41	104	0	76	13860
2026-01-29 14:26:56.75	228.70	4.42	-52.3	-63.1	3.8	8.45e-01	0	41	104	0	76	12287
2026-01-29 14:26:59.78	229.00	4.58	-52.2	-62.6	3.8	8.46e-01	0	41	104	0	76	11655
2026-01-29 14:27:02.81	229.30	4.75	-50.2	-54.4	8.6	1.35e-01	0	41	0	6291456	72	5668
2026-01-29 14:27:05.83	229.60	4.91	-46.6	-48.4	14.8	1.10e-06	0	41	0	23068672	65	4283
2026-01-29 14:27:08.86	229.91	5.07	-44.2	-45.4	17.9	0.00e+00	0	41	0	39845888	60	4046
2026-01-29 14:27:11.88	230.22	5.23	-46.3	-47.9	15.7	0.00e+00	0	41	0	49283072	63	4508
2026-01-29 14:27:14.90	230.53	5.39	-42.7	-43.7	20.0	0.00e+00	0	41	0	66060288	57	3929
2026-01-29 14:27:17.92	230.84	5.55	-42.8	-43.8	19.9	0.00e+00	0	41	0	83886080	57	3983
2026-01-29 14:27:20.93	231.16	5.72	-42.7	-43.7	20.0	0.00e+00	0	41	0	100663296	57	3946
2026-01-29 14:27:23.96	231.48	5.88	-42.7	-43.7	20.1	0.00e+00	0	41	0	117440512	57	3948
2026-01-29 14:27:26.98	231.81	6.04	-42.1	-43.1	20.7	0.00e+00	0	41	0	134217728	56	3882
2026-01-29 14:27:29.99	232.14	6.21	-42.2	-43.2	20.6	0.00e+00	0	41	0	150994944	56	3917
2026-01-29 14:27:33.03	232.47	6.37	-42.4	-43.4	20.5	0.00e+00	0	41	0	168820736	56	4006
2026-01-29 14:27:36.05	232.81	6.53	-42.2	-43.1	20.7	0.00e+00	0	41	0	185597952	56	3909
2026-01-29 14:27:39.07	233.15	6.70	-42.0	-42.9	20.9	0.00e+00	0	41	0	202375168	55	4018
2026-01-29 14:27:42.09	233.49	6.86	-41.9	-42.8	20.9	0.00e+00	0	41	0	219152384	55	4003
2026-01-29 14:27:45.12	233.84	7.03	-41.9	-42.8	21.0	0.00e+00	0	41	0	236978176	55	3980
2026-01-29 14:27:48.14	234.19	7.19	-41.8	-42.7	21.0	0.00e+00	0	41	0	253755392	55	3955
2026-01-29 14:27:51.16	234.55	7.36	-41.8	-42.7	21.1	0.00e+00	0	41	0	270532608	55	3920
2026-01-29 14:27:54.19	234.91	7.52	-41.4	-42.2	21.6	0.00e+00	0	41	0	287309824	54	3945
2026-01-29 14:27:57.22	235.27	7.69	-41.2	-42.0	21.7	0.00e+00	0	41	0	305135616	54	3868
2026-01-29 14:28:00.24	235.64	7.85	-41.2	-42.1	21.7	0.00e+00	0	41	0	321912832	54	3881
2026-01-29 14:28:03.26	236.01	8.02	-41.3	-42.2	21.7	0.00e+00	0	41	0	338690048	54	3935
2026-01-29 14:28:06.29	236.38	8.18	-41.4	-42.3	21.5	0.00e+00	0	41	0	355467264	54	3984
2026-01-29 14:28:09.31	236.76	8.35	-41.6	-42.5	21.4	0.00e+00	0	41	0	372244480	54	4074
2026-01-29 14:28:12.32	237.15	8.51	-41.3	-42.2	21.7	0.00e+00	0	41	0	390070272	54	3921
2026-01-29 14:28:15.35	237.53	8.68	-41.2	-42.1	21.8	0.00e+00	0	41	0	406847488	54	3879
2026-01-29 14:28:18.38	237.93	8.85	-41.3	-42.1	21.8	0.00e+00	0	41	0	423624704	54	3898
2026-01-29 14:28:21.40	238.32	9.01	-41.2	-42.1	21.8	0.00e+00	0	41	0	440401920	54	3870
2026-01-29 14:28:24.42	238.72	9.18	-41.3	-42.2	21.7	0.00e+00	0	41	0	457179136	54	3927
2026-01-29 14:28:27.44	239.13	9.34	-40.9	-41.8	22.1	0.00e+00	0	42	0	475004928	53	3967
2026-01-29 14:28:30.46	239.54	9.51	-41.0	-41.8	22.1	0.00e+00	0	41	0	491782144	53	3978
2026-01-29 14:28:33.48	239.95	9.67	-40.8	-41.6	22.3	0.00e+00	0	42	0	508559360	53	3911
2026-01-29 14:28:36.50	240.37	9.84	-40.6	-41.4	22.5	0.00e+00	0	41	0	525336576	53	3799
2026-01-29 14:28:39.52	240.79	10.00	-40.4	-41.1	22.7	0.00e+00	0	41	0	542113792	52	3908
2026-01-29 14:28:42.55	241.22	10.16	-40.5	-41.3	22.6	0.00e+00	0	42	0	559939584	52	3986
2026-01-29 14:28:45.58	241.65	10.33	-40.7	-41.5	22.4	0.00e+00	0	42	0	576716800	52	4065
2026-01-29 14:28:48.60	242.09	10.49	-40.8	-41.6	22.3	0.00e+00	0	42	0	593494016	52	4117
2026-01-29 14:28:51.63	242.53	10.66	-40.6	-41.4	22.5	0.00e+00	0	42	0	610271232	52	4026
2026-01-29 14:28:54.64	242.98	10.82	-40.6	-41.5	22.5	0.00e+00	0	42	0	627048448	52	4060
2026-01-29 14:28:57.66	243.43	10.98	-40.7	-41.5	22.5	0.00e+00	0	42	0	644874240	52	4061
2026-01-29 14:29:00.68	243.88	11.14	-40.6	-41.5	22.5	0.00e+00	0	41	0	661651456	52	4054
2026-01-29 14:29:03.71	244.34	11.30	-40.6	-41.4	22.5	0.00e+00	0	41	0	678428672	52	4051
2026-01-29 14:29:06.73	244.81	11.46	-40.6	-41.4	22.6	0.00e+00	0	42	0	695205888	52	4014
2026-01-29 14:29:09.74	245.28	11.62	-40.2	-41.0	22.9	0.00e+00	0	42	0	711983104	52	3838
2026-01-29 14:29:12.77	245.75	11.78	-40.2	-41.0	22.9	0.00e+00	0	42	0	729808896	52	3827
2026-01-29 14:29:15.79	246.23	11.94	-40.2	-40.9	23.0	0.00e+00	0	41	0	746586112	52	3823
2026-01-29 14:29:18.80	246.72	12.10	-40.1	-40.8	23.1	0.00e+00	0	41	0	763363328	52	3775
2026-01-29 14:29:21.81	247.21	12.25	-40.1	-40.9	23.0	0.00e+00	0	41	0	780140544	52	3791
2026-01-29 14:29:24.83	247.70	12.41	-40.1	-40.9	23.0	0.00e+00	0	41	0	796917760	52	3807
2026-01-29 14:29:27.84	248.20	12.56	-39.9	-40.7	23.3	0.00e+00	0	41	0	814743552	51	3946
2026-01-29 14:29:30.87	248.71	12.72	-40.0	-40.8	23.2	0.00e+00	0	41	0	831520768	51	3977
2026-01-29 14:29:33.89	249.22	12.87	-40.0	-40.8	23.3	0.00e+00	0	42	0	848297984	51	3963
2026-01-29 14:29:36.90	249.73	13.02	-39.9	-40.6	23.4	0.00e+00	0	42	0	865075200	51	3900
2026-01-29 14:29:39.93	250.25	13.17	-40.0	-40.8	23.3	0.00e+00	0	42	0	881852416	51	3960
2026-01-29 14:29:42.96	250.78	13.32	-39.8	-40.6	23.5	0.00e+00	0	42	0	899678208	51	3871
2026-01-29 14:29:45.97	251.31	13.47	-39.9	-40.7	23.3	0.00e+00	0	42	0	916455424	51	3939
2026-01-29 14:29:48.99	251.85	13.62	-39.8	-40.6	23.5	0.00e+00	0	42	0	933232640	51	3889
2026-01-29 14:29:52.02	252.39	13.76	-40.0	-40.8	23.3	0.00e+00	0	41	0	950009856	51	3962
2026-01-29 14:29:55.04	252.94	13.91	-40.1	-40.9	23.3	0.00e+00	0	42	0	967835648	51	4014
2026-01-29 14:29:58.05	253.49	14.05	-39.9	-40.7	23.4	0.00e+00	0	42	0	984612864	51	3939
2026-01-29 14:30:01.08	254.04	14.19	-39.8	-40.6	23.6	0.00e+00	0	41	0	1001390080	51	3888
2026-01-29 14:30:04.11	254.61	14.33	-39.8	-40.6	23.6	0.00e+00	0	42	0	1018167296	51	3882
2026-01-29 14:30:07.14	255.18	14.46	-39.8	-40.6	23.6	0.00e+00	0	41	0	1034944512	51	3869
2026-01-29 14:30:10.16	255.75	14.60	-39.5	-40.2	23.9	0.00e+00	0	42	0	1052770304	50	3936
2026-01-29 14:30:13.18	256.33	14.73	-39.5	-40.3	23.8	0.00e+00	0	42	0	1069547520	50	3971
2026-01-29 14:30:16.20	256.91	14.86	-39.6	-40.4	23.7	0.00e+00	0	41	0	1086324736	50	4022
2026-01-29 14:30:19.22	257.49	14.99	-39.5	-40.3	23.8	0.00e+00	0	42	0	1103101952	50	3961
2026-01-29 14:30:22.25	258.09	15.12	-39.5	-40.2	23.9	0.00e+00	0	41	0	1119879168	50	3949
2026-01-29 14:30:25.28	258.69	15.25	-39.5	-40.2	23.9	0.00e+00	0	42	0	1137704960	50	3937
2026-01-29 14:30:28.31	259.29	15.37	-39.6	-40.3	23.8	0.00e+00	0	42	0	1154482176	50	3998
2026-01-29 14:30:31.33	259.90	15.49	-39.6	-40.4	23.7	0.00e+00	0	42	0	1171259392	50	4034
2026-01-29 14:30:34.35	260.51	15.61	-39.4	-40.1	24.0	0.00e+00	0	42	0	1188036608	50	3896
2026-01-29 14:30:37.38	261.12	15.72	-39.3	-40.0	24.1	0.00e+00	0	42	0	1204813824	50	3844
2026-01-29 14:30:40.40	261.74	15.83	-39.5	-40.2	23.9	0.00e+00	0	42	0	1222639616	50	3952
2026-01-29 14:30:43.42	262.37	15.94	-39.5	-40.3	23.9	0.00e+00	0	42	0	1239416832	50	3961
2026-01-29 14:30:46.44	263.00	16.05	-39.3	-40.1	24.0	0.00e+00	0	42	0	1256194048	50	3880
2026-01-29 14:30:49.47	263.63	16.16	-39.2	-39.9	24.2	0.00e+00	0	42	0	1272971264	50	3823
2026-01-29 14:30:52.50	264.27	16.26	-39.1	-39.9	24.2	0.00e+00	0	42	0	1289748480	50	3783
2026-01-29 14:30:55.53	264.92	16.36	-39.1	-39.8	24.3	0.00e+00	0	42	0	1307574272	50	3777
2026-01-29 14:30:58.55	265.56	16.45	-39.2	-40.0	24.2	0.00e+00	0	41	0	1324351488	50	3828
2026-01-29 14:31:01.58	266.21	16.54	-39.2	-39.9	24.2	0.00e+00	0	41	0	1341128704	50	3806
2026-01-29 14:31:04.60	266.87	16.63	-39.2	-40.0	24.2	0.00e+00	0	42	0	1357905920	50	3831
2026-01-29 14:31:07.63	267.52	16.72	-39.4	-40.1	24.0	0.00e+00	0	42	0	1375731712	50	3903
2026-01-29 14:31:10.65	268.19	16.80	-39.3	-40.1	24.0	0.00e+00	0	42	0	1392508928	50	3891
2026-01-29 14:31:13.68	268.85	16.88	-39.1	-39.9	24.2	0.00e+00	0	42	0	1409286144	50	3798
2026-01-29 14:31:16.71	269.52	16.96	-39.2	-39.9	24.2	0.00e+00	0	42	0	1426063360	50	3822
2026-01-29 14:31:19.73	270.19	17.03	-39.4	-40.1	24.0	0.00e+00	0	42	0	1443889152	50	3906
2026-01-29 14:31:22.75	270.86	17.10	-39.3	-40.0	24.1	0.00e+00	0	42	0	1460666368	50	3863
2026-01-29 14:31:25.78	271.54	17.16	-39.2	-39.9	24.2	0.00e+00	0	42	0	1477443584	50	3803
2026-01-29 14:31:28.80	272.22	17.23	-39.1	-39.8	24.3	0.00e+00	0	41	0	1494220800	50	3779
2026-01-29 14:31:31.81	272.90	17.28	-39.2	-40.0	24.2	0.00e+00	0	42	0	1512046592	50	3846
2026-01-29 14:31:34.83	273.59	17.34	-39.2	-40.0	24.2	0.00e+00	0	42	0	1528823808	50	3832
2026-01-29 14:31:37.86	274.27	17.39	-39.0	-39.7	24.4	0.00e+00	0	42	0	1545601024	50	3716
2026-01-29 14:31:40.89	274.97	17.43	-39.1	-39.8	24.3	0.00e+00	0	42	0	1562378240	50	3760
2026-01-29 14:31:43.91	275.66	17.48	-38.9	-39.6	24.5	0.00e+00	0	42	0	1579155456	49	3888
2026-01-29 14:31:46.93	276.35	17.52	-39.0	-39.7	24.4	0.00e+00	0	42	0	1596981248	49	3934
2026-01-29 14:31:49.96	277.04	17.55	-39.0	-39.7	24.4	0.00e+00	0	42	0	1613758464	49	3930
2026-01-29 14:31:52.98	277.74	17.58	-39.0	-39.8	24.4	0.00e+00	0	42	0	1630535680	49	3975
2026-01-29 14:31:56.00	278.44	17.61	-38.9	-39.7	24.5	0.00e+00	0	42	0	1647312896	49	3925
2026-01-29 14:31:59.01	279.13	17.63	-38.9	-39.6	24.5	0.00e+00	0	42	0	1664090112	49	3905
2026-01-29 14:32:02.03	279.83	17.65	-38.9	-39.7	24.5	0.00e+00	0	41	0	1681915904	49	3917
2026-01-29 14:32:05.05	280.53	17.66	-39.1	-39.8	24.4	0.00e+00	0	42	0	1698693120	49	3985
2026-01-29 14:32:08.07	281.23	17.67	-39.2	-40.0	24.3	0.00e+00	0	42	0	1715470336	49	4056
2026-01-29 14:32:11.09	281.93	17.68	-39.1	-39.8	24.4	0.00e+00	0	42	0	1732247552	49	3998
2026-01-29 14:32:14.11	282.63	17.68	-39.1	-39.8	24.4	0.00e+00	0	41	0	1749024768	49	3992
2026-01-29 14:32:17.13	283.33	17.68	-39.1	-39.8	24.4	0.00e+00	0	42	0	1766850560	49	4003
2026-01-29 14:32:20.15	284.03	17.67	-39.2	-39.9	24.3	0.00e+00	0	42	0	1783627776	49	4036
2026-01-29 14:32:23.18	284.73	17.66	-39.3	-40.0	24.3	0.00e+00	0	42	0	1800404992	49	4084
2026-01-29 14:32:26.20	285.43	17.65	-39.4	-40.2	24.1	0.00e+00	0	42	0	1817182208	49	4154
2026-01-29 14:32:29.22	286.13	17.63	-39.4	-40.2	24.1	0.00e+00	0	41	0	1835008000	49	4157
2026-01-29 14:32:32.25	286.83	17.61	-39.4	-40.1	24.2	0.00e+00	0	42	0	1851785216	49	4134
2026-01-29 14:32:35.27	287.52	17.58	-39.4	-40.1	24.2	0.00e+00	0	42	0	1868562432	49	4142
2026-01-29 14:32:38.30	288.22	17.55	-39.2	-39.9	24.4	0.00e+00	0	42	0	1885339648	49	4027
2026-01-29 14:32:41.33	288.92	17.52	-39.2	-39.9	24.4	0.00e+00	0	42	0	1903165440	49	4047
2026-01-29 14:32:44.34	289.60	17.48	-39.2	-39.9	24.4	0.00e+00	0	42	0	1919942656	49	4037
2026-01-29 14:32:47.36	290.29	17.44	-39.3	-40.0	24.3	0.00e+00	0	42	0	1936719872	49	4097
2026-01-29 14:32:50.38	290.98	17.39	-39.5	-40.2	24.2	0.00e+00	0	42	0	1953497088	49	4189
2026-01-29 14:32:53.41	291.67	17.34	-39.6	-40.3	24.1	0.00e+00	0	42	0	1970274304	49	4228
2026-01-29 14:32:56.43	292.35	17.29	-39.6	-40.3	24.1	0.00e+00	0	42	0	1988100096	49	4215
2026-01-29 14:32:59.45	293.03	17.23	-39.6	-40.3	24.0	0.00e+00	0	42	0	2004877312	49	4232
2026-01-29 14:33:02.48	293.71	17.17	-39.9	-40.7	23.8	0.00e+00	0	42	0	2021654528	50	4149
2026-01-29 14:33:05.50	294.39	17.10	-40.0	-40.7	23.7	0.00e+00	0	42	0	2038431744	50	4189
2026-01-29 14:33:08.52	295.06	17.03	-39.5	-40.3	24.1	0.00e+00	0	42	0	2056257536	50	3962
2026-01-29 14:33:11.54	295.73	16.96	-39.6	-40.3	24.1	0.00e+00	0	42	0	2073034752	50	4000
2026-01-29 14:33:14.57	296.40	16.89	-39.8	-40.5	23.9	0.00e+00	0	42	0	2089811968	50	4087
2026-01-29 14:33:17.59	297.06	16.81	-39.6	-40.3	24.0	0.00e+00	0	42	0	2106589184	50	4004
2026-01-29 14:33:20.61	297.72	16.72	-39.8	-40.5	23.8	0.00e+00	0	42	0	2123366400	50	4093
2026-01-29 14:33:23.64	298.38	16.64	-39.8	-40.6	23.7	0.00e+00	0	42	0	2141192192	50	4134
2026-01-29 14:33:26.66	299.03	16.55	-39.8	-40.6	23.7	0.00e+00	0	42	0	2157969408	50	4114
2026-01-29 14:33:29.68	299.68	16.46	-39.8	-40.5	23.7	0.00e+00	0	42	0	2174746624	50	4097
2026-01-29 14:33:32.71	300.32	16.36	-39.7	-40.4	23.8	0.00e+00	0	42	0	2191523840	50	4049
2026-01-29 14:33:35.74	300.97	16.26	-39.8	-40.6	23.7	0.00e+00	0	42	0	2208301056	50	4107
2026-01-29 14:33:38.76	301.60	16.16	-39.8	-40.6	23.6	0.00e+00	0	42	0	2226126848	50	4128
2026-01-29 14:33:41.78	302.23	16.06	-39.7	-40.4	23.8	0.00e+00	0	42	0	2242904064	50	4041
2026-01-29 14:33:44.81	302.86	15.95	-39.5	-40.3	23.9	0.00e+00	0	42	0	2259681280	50	3963
2026-01-29 14:33:47.83	303.49	15.84	-39.5	-40.3	23.9	0.00e+00	0	42	0	2276458496	50	3976
2026-01-29 14:33:50.85	304.10	15.73	-39.6	-40.3	23.8	0.00e+00	0	42	0	2293235712	50	4002
2026-01-29 14:33:53.88	304.72	15.62	-39.7	-40.4	23.7	0.00e+00	0	42	0	2311061504	50	4048
2026-01-29 14:33:56.89	305.33	15.50	-39.9	-40.6	23.5	0.00e+00	0	42	0	2327838720	50	4143
2026-01-29 14:33:59.91	305.93	15.38	-40.0	-40.8	23.4	0.00e+00	0	42	0	2344615936	50	4224
2026-01-29 14:34:02.92	306.53	15.26	-39.9	-40.7	23.6	0.00e+00	0	42	0	2361393152	50	4150
2026-01-29 14:34:05.95	307.13	15.13	-39.8	-40.6	23.6	0.00e+00	0	42	0	2378170368	50	4113
2026-01-29 14:34:08.97	307.72	15.01	-39.9	-40.7	23.5	0.00e+00	0	42	0	2395996160	50	4169
2026-01-29 14:34:12.00	308.30	14.88	-39.8	-40.6	23.6	0.00e+00	0	42	0	2412773376	50	4119
2026-01-29 14:34:15.02	308.88	14.75	-39.9	-40.7	23.5	0.00e+00	0	42	0	2429550592	50	4152
2026-01-29 14:34:18.04	309.46	14.62	-40.0	-40.8	23.4	0.00e+00	0	42	0	2446327808	50	4222
2026-01-29 14:34:21.07	310.03	14.48	-39.8	-40.6	23.5	0.00e+00	0	42	0	2463105024	50	4119
2026-01-29 14:34:24.10	310.60	14.35	-39.8	-40.5	23.6	0.00e+00	0	42	0	2480930816	50	4090
2026-01-29 14:34:27.12	311.16	14.21	-39.9	-40.7	23.4	0.00e+00	0	42	0	2497708032	50	4176
2026-01-29 14:34:30.13	311.71	14.07	-40.0	-40.8	23.3	0.00e+00	0	42	0	2514485248	50	4217
2026-01-29 14:34:33.16	312.26	13.93	-40.0	-40.8	23.3	0.00e+00	0	42	0	2531262464	50	4223
2026-01-29 14:34:36.17	312.81	13.79	-40.0	-40.7	23.3	0.00e+00	0	42	0	2548039680	50	4192
2026-01-29 14:34:39.20	313.35	13.64	-40.2	-41.0	23.0	0.00e+00	0	42	0	2565865472	51	4084
2026-01-29 14:34:42.21	313.88	13.50	-40.2	-41.0	23.0	0.00e+00	0	42	0	2582642688	51	4082
2026-01-29 14:34:45.23	314.41	13.35	-40.3	-41.1	22.9	0.00e+00	0	42	0	2599419904	51	4120
2026-01-29 14:34:48.25	314.93	13.20	-40.3	-41.1	22.9	0.00e+00	0	42	0	2616197120	51	4117
2026-01-29 14:34:51.27	315.45	13.05	-40.2	-41.0	23.0	0.00e+00	0	42	0	2632974336	51	4089
2026-01-29 14:34:54.30	315.97	12.90	-40.4	-41.2	22.9	0.00e+00	0	42	0	2650800128	51	4147
2026-01-29 14:34:57.32	316.48	12.75	-40.4	-41.2	22.7	0.00e+00	0	42	0	2667577344	51	4187
2026-01-29 14:35:00.33	316.98	12.60	-40.4	-41.2	22.8	0.00e+00	0	42	0	2684354560	51	4177
2026-01-29 14:35:03.35	317.48	12.44	-40.4	-41.2	22.8	0.00e+00	0	42	0	2701131776	51	4173
2026-01-29 14:35:06.37	317.97	12.29	-40.5	-41.3	22.7	0.00e+00	0	42	0	2717908992	51	4205
2026-01-29 14:35:09.39	318.46	12.13	-40.5	-41.3	22.6	0.00e+00	0	42	0	2735734784	51	4242
2026-01-29 14:35:12.41	318.95	11.98	-40.6	-41.4	22.5	0.00e+00	0	42	0	2752512000	51	4284
2026-01-29 14:35:15.44	319.43	11.82	-40.4	-41.3	22.7	0.00e+00	0	42	0	2769289216	51	4194
2026-01-29 14:35:18.45	319.90	11.66	-40.4	-41.3	22.6	0.00e+00	0	42	0	2786066432	51	4196
2026-01-29 14:35:21.47	320.37	11.50	-40.5	-41.3	22.6	0.00e+00	0	42	0	2802843648	51	4233
2026-01-29 14:35:24.50	320.83	11.34	-40.5	-41.3	22.6	0.00e+00	0	42	0	2820669440	51	4225
2026-01-29 14:35:27.52	321.29	11.18	-40.6	-41.4	22.5	0.00e+00	0	42	0	2837446656	51	4267
2026-01-29 14:35:30.54	321.75	11.02	-40.6	-41.5	22.4	0.00e+00	0	42	0	2854223872	51	4298
2026-01-29 14:35:33.55	322.20	10.86	-40.6	-41.4	22.4	0.00e+00	0	42	0	2871001088	52	4017
2026-01-29 14:35:36.58	322.64	10.70	-40.7	-41.5	22.2	0.00e+00	0	42	0	2887778304	52	4092
2026-01-29 14:35:39.60	323.08	10.54	-40.8	-41.6	22.1	0.00e+00	0	42	0	2905604096	52	4137
2026-01-29 14:35:42.62	323.52	10.38	-40.9	-41.8	22.0	0.00e+00	0	42	0	2922381312	52	4197
2026-01-29 14:35:45.64	323.95	10.21	-40.8	-41.7	22.0	0.00e+00	0	42	0	2939158528	52	4153
2026-01-29 14:35:48.66	324.37	10.05	-40.9	-41.7	22.0	0.00e+00	0	42	0	2955935744	52	4185
2026-01-29 14:35:51.68	324.80	9.89	-41.0	-41.8	21.9	0.00e+00	0	42	0	2972712960	52	4224
2026-01-29 14:35:54.71	325.21	9.73	-41.0	-41.9	21.8	0.00e+00	0	42	0	2990538752	52	4264
2026-01-29 14:35:57.73	325.63	9.56	-40.9	-41.8	20.7	0.00e+00	0	42	0	3007315968	52	4228
2026-01-29 14:36:00.73	326.03	9.40	-40.9	-41.8	21.5	0.00e+00	0	42	0	3024093184	52	4221
2026-01-29 14:36:03.75	326.44	9.24	-41.0	-41.9	21.2	0.00e+00	0	42	0	3040870400	52	4248
2026-01-29 14:36:06.77	326.84	9.07	-40.8	-41.7	21.3	0.00e+00	0	42	0	3057647616	52	4150
2026-01-29 14:36:09.79	327.23	8.91	-40.8	-41.7	21.9	0.00e+00	0	42	0	3075473408	52	4155
2026-01-29 14:36:12.81	327.62	8.74	-41.0	-41.8	21.7	0.00e+00	0	42	0	3092250624	52	4229
2026-01-29 14:36:15.83	328.01	8.58	-41.1	-42.0	21.5	0.00e+00	0	42	0	3109027840	52	4321
2026-01-29 14:36:18.85	328.39	8.42	-41.4	-42.3	21.3	0.00e+00	0	42	0	3125805056	53	4201
2026-01-29 14:36:21.87	328.77	8.25	-41.5	-42.4	21.1	0.00e+00	0	42	0	3142582272	53	4274
2026-01-29 14:36:24.89	329.15	8.09	-41.7	-42.7	20.9	0.00e+00	0	42	0	3160408064	54	4154
2026-01-29 14:36:27.91	329.52	7.92	-41.8	-42.7	20.8	0.00e+00	0	42	0	3177185280	54	4186
2026-01-29 14:36:30.93	329.88	7.76	-41.7	-42.7	20.9	0.00e+00	0	42	0	3193962496	54	4146
2026-01-29 14:36:33.96	330.25	7.60	-41.8	-42.7	20.8	0.00e+00	0	42	0	3210739712	54	4168
2026-01-29 14:36:36.98	330.60	7.43	-41.8	-42.7	20.8	0.00e+00	0	42	0	3227516928	54	4193
2026-01-29 14:36:40.00	330.96	7.27	-41.8	-42.7	20.7	0.00e+00	0	42	0	3245342720	54	4188
2026-01-29 14:36:43.03	331.31	7.10	-41.8	-42.7	20.8	0.00e+00	0	42	0	3262119936	54	4177
2026-01-29 14:36:46.04	331.66	6.94	-41.9	-42.9	20.7	0.00e+00	0	42	0	3278897152	54	4244
2026-01-29 14:36:49.07	332.00	6.78	-42.1	-43.1	20.4	0.00e+00	0	42	0	3295674368	54	4344
2026-01-29 14:36:52.09	332.34	6.62	-42.2	-43.2	20.2	0.00e+00	0	42	0	3312451584	54	4415
2026-01-29 14:36:55.10	332.68	6.45	-42.1	-43.1	20.3	0.00e+00	0	42	0	3330277376	55	4126
2026-01-29 14:36:58.13	333.01	6.29	-42.1	-43.1	20.3	0.00e+00	0	42	0	3347054592	55	4126
2026-01-29 14:37:01.15	333.34	6.13	-41.9	-42.8	20.6	0.00e+00	0	42	0	3363831808	55	3975
2026-01-29 14:37:04.17	333.67	5.97	-41.9	-42.8	20.5	0.00e+00	0	42	0	3380609024	55	4003
2026-01-29 14:37:07.20	333.99	5.80	-42.1	-43.1	20.2	0.00e+00	0	42	0	3397386240	55	4133
2026-01-29 14:37:10.21	334.31	5.64	-42.1	-43.1	20.2	0.00e+00	0	42	0	3415212032	55	4117
2026-01-29 14:37:13.24	334.62	5.48	-42.5	-43.5	19.7	0.00e+00	0	42	0	3431989248	55	4327
2026-01-29 14:37:16.26	334.94	5.32	-42.1	-43.1	19.9	0.00e+00	0	42	0	3448766464	55	4140
2026-01-29 14:37:19.29	335.25	5.16	-42.4	-43.4	19.7	0.00e+00	0	42	0	3465543680	55	4272
2026-01-29 14:37:22.30	335.55	5.00	-42.5	-43.5	19.6	0.00e+00	0	42	0	3482320896	55	4336
2026-01-29 14:37:25.33	335.86	4.84	-53.0	-65.0	3.8	8.45e-01	0	42	104	3485466624	76	15259
2026-01-29 14:37:28.36	336.16	4.68	-53.4	-65.4	3.8	8.46e-01	0	42	104	3485466624	77	15095
2026-01-29 14:37:31.39	336.45	4.52	-53.6	-65.5	3.8	8.46e-01	0	42	104	3485466624	77	15364
2026-01-29 14:37:34.41	336.75	4.36	-53.4	-65.4	3.8	8.46e-01	0	42	104	3485466624	77	15128
2026-01-29 14:37:37.43	337.04	4.20	-53.4	-65.3	3.8	8.47e-01	0	42	104	3485466624	77	14993
2026-01-29 14:37:40.45	337.32	4.05	-53.5	-65.4	3.8	8.47e-01	0	42	104	3485466624	77	15177
2026-01-29 14:37:43.48	337.61	3.89	-53.5	-65.5	3.8	8.46e-01	0	42	104	3485466624	77	15277
2026-01-29 14:37:46.49	337.89	3.73	-53.4	-65.4	3.8	8.46e-01	0	42	104	3485466624	77	15057
2026-01-29 14:37:49.51	338.17	3.57	-53.4	-65.3	3.8	8.46e-01	0	42	104	3485466624	77	14947
2026-01-29 14:37:52.54	338.45	3.42	-53.3	-65.3	3.8	8.46e-01	0	42	104	3485466624	77	14880
2026-01-29 14:37:55.57	338.72	3.26	-53.3	-65.2	3.8	8.45e-01	0	42	104	3485466624	77	14847
2026-01-29 14:37:58.59	338.99	3.10	-53.3	-65.2	3.8	8.46e-01	0	42	104	3485466624	77	14856
2026-01-29 14:38:01.61	339.26	2.95	-53.3	-65.2	3.8	8.47e-01	0	42	104	3485466624	77	14761
2026-01-29 14:38:04.61	339.52	2.80	-53.2	-65.2	3.8	8.46e-01	0	42	104	3485466624	77	14763
2026-01-29 14:38:07.63	339.79	2.64	-53.2	-65.2	3.8	8.46e-01	0	42	104	3485466624	77	14718
2026-01-29 14:38:10.65	340.05	2.49	-53.2	-65.1	3.8	8.45e-01	0	42	104	3485466624	77	14688
2026-01-29 14:38:13.67	340.30	2.33	-53.2	-65.1	3.8	8.46e-01	0	42	104	3485466624	77	14660
2026-01-29 14:38:16.70	340.56	2.18	-53.2	-65.1	3.8	8.46e-01	0	42	104	3485466624	77	14668
2026-01-29 14:38:19.73	340.81	2.03	-53.2	-65.1	3.8	8.45e-01	0	42	104	3485466624	77	14630

#Closed at: 2026-01-29 14:38:22
#Recorded file [3485 MB]: D:/lorett/data/31041_260129_172611.dat