passes_logs/2026/01/29/R3.2S_Murmansk/R3.2S_Murmansk__20260129_082626_SUOMI_NPP_rec.log

#Pass ID: 20260129_082626_SUOMI NPP
#Satellite: SUOMI NPP
#Configuration: NPP
#almurnet v.1.7.20251203
#Start time: 2026-01-29 08:26:28

#Version: 2.2.20231116
#Station: R3.2S_Murmansk
#Location: 33.079688 lon 68.888172 lat
#TLE: 1 37849U 11061A   26028.91916408  .00000155  00000+0  94467-4 0  9990
#TLE: 2 37849  98.7824 330.8488 0002045  39.4457 320.6868 14.19531289738686

#Time	Az	El	Level	Level2	SNR	BER	BlckErr	Temp	State	Recorded	gain1	gain2
2026-01-29 08:26:28.12	124.46	2.07	-54.0	-69.0	3.8	1.49e+00	0	39	0	0	79	20318
2026-01-29 08:26:32.15	124.36	2.33	-54.1	-69.1	3.8	1.49e+00	0	40	104	0	78	21837
2026-01-29 08:26:36.18	124.25	2.59	-53.9	-68.9	3.8	1.49e+00	0	40	104	0	78	21467
2026-01-29 08:26:40.21	124.14	2.85	-53.7	-68.7	3.8	1.49e+00	0	40	104	0	78	20826
2026-01-29 08:26:44.25	124.03	3.11	-53.2	-68.2	3.8	1.49e+00	0	40	104	0	78	19666
2026-01-29 08:26:48.28	123.91	3.38	-52.8	-67.7	3.8	1.49e+00	0	40	104	0	77	19823
2026-01-29 08:26:52.31	123.80	3.64	-52.2	-67.2	3.8	1.49e+00	0	41	104	0	76	19726
2026-01-29 08:26:56.34	123.68	3.91	-51.8	-66.6	3.8	1.49e+00	0	40	104	0	75	19543
2026-01-29 08:27:00.37	123.56	4.19	-51.5	-62.2	4.5	1.37e+00	15	41	0	0	75	11693
2026-01-29 08:27:04.40	123.44	4.46	-49.7	-53.9	11.7	1.82e-03	0	41	0	7340032	71	5704
2026-01-29 08:27:08.43	123.31	4.74	-46.6	-48.6	16.9	0.00e+00	0	41	0	14680064	65	4357
2026-01-29 08:27:12.46	123.18	5.02	-46.1	-48.0	17.6	0.00e+00	0	41	0	22020096	63	4561
2026-01-29 08:27:16.49	123.05	5.31	-48.0	-50.7	14.7	2.67e-03	0	41	0	30408704	68	4670
2026-01-29 08:27:20.51	122.91	5.59	-46.4	-48.4	17.2	0.00e+00	0	41	0	37748736	64	4512
2026-01-29 08:27:24.55	122.78	5.88	-46.6	-48.6	17.1	0.00e+00	0	41	0	45088768	64	4629
2026-01-29 08:27:28.57	122.64	6.17	-46.2	-48.0	17.8	0.00e+00	0	41	0	52428800	63	4549
2026-01-29 08:27:32.60	122.49	6.47	-46.2	-48.0	17.7	0.00e+00	0	41	0	59768832	63	4592
2026-01-29 08:27:36.63	122.35	6.77	-46.4	-48.3	17.4	0.00e+00	0	41	0	68157440	64	4486
2026-01-29 08:27:40.65	122.20	7.07	-46.1	-47.8	18.0	0.00e+00	0	41	0	75497472	63	4489
2026-01-29 08:27:44.68	122.04	7.38	-45.9	-47.5	18.3	0.00e+00	0	41	0	82837504	63	4329
2026-01-29 08:27:48.71	121.89	7.68	-46.0	-47.7	18.1	0.00e+00	0	41	0	90177536	63	4407
2026-01-29 08:27:52.74	121.73	8.00	-46.0	-47.8	18.0	0.00e+00	0	41	0	97517568	63	4486
2026-01-29 08:27:56.77	121.56	8.31	-45.7	-47.4	18.5	0.00e+00	0	41	0	105906176	63	4266
2026-01-29 08:28:00.80	121.39	8.63	-45.8	-47.5	18.5	0.00e+00	0	41	0	113246208	63	4294
2026-01-29 08:28:04.83	121.22	8.96	-45.5	-47.0	19.1	0.00e+00	0	41	0	120586240	62	4310
2026-01-29 08:28:08.84	121.04	9.28	-45.8	-47.5	18.5	0.00e+00	0	41	0	127926272	62	4566
2026-01-29 08:28:12.88	120.86	9.62	-45.5	-47.0	19.0	0.00e+00	0	41	0	135266304	62	4317
2026-01-29 08:28:16.89	120.68	9.95	-45.4	-46.9	19.2	0.00e+00	0	41	0	143654912	62	4256
2026-01-29 08:28:20.92	120.49	10.29	-45.4	-46.9	19.3	0.00e+00	0	41	0	150994944	62	4251
2026-01-29 08:28:24.94	120.29	10.64	-45.0	-46.4	19.7	0.00e+00	0	41	0	158334976	62	4047
2026-01-29 08:28:28.97	120.09	10.99	-45.1	-46.5	19.6	0.00e+00	0	41	0	165675008	61	4325
2026-01-29 08:28:33.00	119.89	11.34	-45.1	-46.6	19.6	0.00e+00	0	41	0	173015040	61	4348
2026-01-29 08:28:37.02	119.68	11.70	-45.0	-46.4	20.0	0.00e+00	0	41	0	181403648	61	4246
2026-01-29 08:28:41.05	119.46	12.06	-44.6	-45.9	20.3	0.00e+00	0	41	0	188743680	61	4033
2026-01-29 08:28:45.07	119.24	12.43	-44.8	-46.2	20.0	0.00e+00	0	42	0	196083712	60	4416
2026-01-29 08:28:49.09	119.01	12.80	-44.7	-46.1	20.3	0.00e+00	0	42	0	203423744	61	4101
2026-01-29 08:28:53.12	118.78	13.18	-44.5	-45.8	20.5	0.00e+00	0	41	0	210763776	60	4235
2026-01-29 08:28:57.14	118.54	13.57	-44.7	-46.0	20.3	0.00e+00	0	42	0	219152384	60	4331
2026-01-29 08:29:01.17	118.29	13.96	-44.6	-46.0	20.3	0.00e+00	0	41	0	226492416	60	4294
2026-01-29 08:29:05.19	118.04	14.35	-44.6	-45.9	20.4	0.00e+00	0	42	0	233832448	60	4290
2026-01-29 08:29:09.22	117.78	14.76	-44.6	-46.0	20.3	0.00e+00	0	42	0	241172480	60	4307
2026-01-29 08:29:13.24	117.51	15.16	-44.5	-45.9	20.4	0.00e+00	0	42	0	248512512	60	4283
2026-01-29 08:29:17.26	117.24	15.58	-44.5	-45.8	20.5	0.00e+00	0	42	0	256901120	60	4236
2026-01-29 08:29:21.29	116.95	16.00	-44.8	-46.2	20.2	0.00e+00	0	42	0	264241152	60	4415
2026-01-29 08:29:25.31	116.66	16.43	-44.7	-46.1	20.3	0.00e+00	0	42	0	271581184	60	4380
2026-01-29 08:29:29.34	116.36	16.86	-44.7	-46.0	20.4	0.00e+00	0	42	0	278921216	60	4335
2026-01-29 08:29:33.36	116.05	17.30	-44.8	-46.2	20.3	0.00e+00	0	42	0	286261248	60	4402
2026-01-29 08:29:37.39	115.72	17.75	-44.3	-45.5	20.9	0.00e+00	0	42	0	294649856	60	4082
2026-01-29 08:29:41.41	115.39	18.20	-44.4	-45.7	20.7	0.00e+00	0	42	0	301989888	60	4176
2026-01-29 08:29:45.44	115.05	18.67	-44.8	-46.1	20.4	0.00e+00	0	42	0	309329920	60	4375
2026-01-29 08:29:49.47	114.70	19.14	-44.5	-45.8	20.6	0.00e+00	0	42	0	316669952	60	4238
2026-01-29 08:29:53.51	114.33	19.62	-44.7	-46.1	20.4	0.00e+00	0	42	0	324009984	60	4354
2026-01-29 08:29:57.53	113.96	20.10	-44.7	-46.1	20.4	0.00e+00	0	42	0	332398592	60	4359
2026-01-29 08:30:01.56	113.57	20.60	-44.8	-46.2	20.3	0.00e+00	0	42	0	339738624	60	4395
2026-01-29 08:30:05.59	113.17	21.10	-44.9	-46.3	20.3	0.00e+00	0	42	0	347078656	60	4446
2026-01-29 08:30:09.61	112.75	21.61	-45.0	-46.4	20.2	0.00e+00	0	41	0	354418688	61	4245
2026-01-29 08:30:13.63	112.32	22.13	-45.0	-46.3	20.3	0.00e+00	0	42	0	361758720	61	4239
2026-01-29 08:30:17.66	111.88	22.66	-45.5	-47.0	19.7	0.00e+00	0	42	0	370147328	61	4553
2026-01-29 08:30:21.68	111.42	23.20	-45.4	-46.9	19.9	0.00e+00	0	42	0	377487360	61	4506
2026-01-29 08:30:25.71	110.94	23.75	-45.9	-47.5	19.3	0.00e+00	0	42	0	384827392	63	4312
2026-01-29 08:30:29.73	110.44	24.31	-45.6	-47.2	19.7	0.00e+00	0	42	0	392167424	62	4418
2026-01-29 08:30:33.75	109.93	24.87	-45.8	-47.4	19.3	0.00e+00	0	42	0	399507456	62	4519
2026-01-29 08:30:37.78	109.40	25.45	-46.0	-47.7	19.1	0.00e+00	0	42	0	407896064	62	4689
2026-01-29 08:30:41.81	108.84	26.04	-46.2	-47.9	18.9	0.00e+00	0	42	0	415236096	63	4513
2026-01-29 08:30:45.84	108.27	26.64	-44.8	-46.1	20.5	0.00e+00	0	42	0	422576128	61	4110
2026-01-29 08:30:49.86	107.67	27.24	-45.2	-46.6	20.1	0.00e+00	0	42	0	429916160	61	4362
2026-01-29 08:30:53.89	107.05	27.86	-45.2	-46.6	20.1	0.00e+00	0	41	0	437256192	61	4378
2026-01-29 08:30:57.92	106.40	28.49	-45.1	-46.5	20.1	0.00e+00	0	42	0	445644800	61	4338
2026-01-29 08:31:01.93	105.73	29.12	-44.7	-46.1	20.5	0.00e+00	0	42	0	452984832	61	4110
2026-01-29 08:31:05.95	105.03	29.76	-46.0	-47.6	19.1	0.00e+00	0	42	0	460324864	62	4634
2026-01-29 08:31:09.97	104.30	30.42	-45.0	-46.4	20.4	0.00e+00	0	42	0	467664896	62	4009
2026-01-29 08:31:13.99	103.54	31.08	-46.5	-48.3	18.5	0.00e+00	0	42	0	475004928	64	4454
2026-01-29 08:31:18.03	102.75	31.76	-45.5	-46.9	19.9	0.00e+00	0	41	0	483393536	62	4277
2026-01-29 08:31:22.05	101.92	32.45	-46.5	-48.1	18.6	0.00e+00	0	42	0	490733568	64	4381
2026-01-29 08:31:26.07	101.06	33.14	-53.1	-65.0	4.1	7.41e-01	0	42	0	498073600	76	15335
2026-01-29 08:31:30.10	100.16	33.84	-53.2	-68.2	3.8	1.49e+00	0	42	104	498073600	77	20933
2026-01-29 08:31:34.13	99.21	34.55	-53.2	-67.8	3.8	1.49e+00	0	42	104	498073600	77	19963
2026-01-29 08:31:38.15	98.23	35.26	-53.2	-67.7	3.8	1.49e+00	0	42	104	498073600	77	19730
2026-01-29 08:31:42.18	97.20	35.98	-53.2	-67.8	3.8	1.49e+00	0	42	104	498073600	77	20048
2026-01-29 08:31:46.21	96.12	36.71	-53.2	-68.1	3.8	1.49e+00	0	42	104	498073600	77	20594
2026-01-29 08:31:50.25	94.99	37.44	-53.2	-68.1	3.8	1.49e+00	0	42	104	498073600	77	20697
2026-01-29 08:31:54.28	93.81	38.18	-53.2	-68.2	3.8	1.49e+00	0	42	104	498073600	77	20903
2026-01-29 08:31:58.31	92.57	38.91	-53.2	-68.2	3.8	1.49e+00	0	42	104	498073600	77	20904
2026-01-29 08:32:02.34	91.28	39.65	-53.2	-68.2	3.8	1.49e+00	0	42	104	498073600	77	20864
2026-01-29 08:32:06.37	89.93	40.38	-53.2	-68.2	3.8	1.49e+00	0	42	104	498073600	77	20827
2026-01-29 08:32:10.40	88.51	41.11	-53.2	-68.2	3.8	1.49e+00	0	42	104	498073600	77	20900
2026-01-29 08:32:14.43	87.03	41.83	-53.2	-68.2	3.8	1.49e+00	0	42	104	498073600	77	20958
2026-01-29 08:32:18.47	85.48	42.55	-53.2	-68.2	3.8	1.49e+00	0	42	104	498073600	77	20856
2026-01-29 08:32:22.50	83.86	43.25	-53.2	-68.2	3.8	1.49e+00	0	42	104	498073600	77	20872
2026-01-29 08:32:26.53	82.17	43.94	-53.2	-68.2	3.8	1.49e+00	0	42	104	498073600	77	20904
2026-01-29 08:32:30.56	80.40	44.61	-53.2	-68.2	3.8	1.49e+00	0	42	104	498073600	77	20854
2026-01-29 08:32:34.59	78.56	45.26	-53.2	-68.2	3.8	1.49e+00	0	42	104	498073600	77	20934
2026-01-29 08:32:38.63	76.64	45.89	-53.2	-68.2	3.8	1.49e+00	0	42	104	498073600	77	20937
2026-01-29 08:32:42.66	74.65	46.48	-53.2	-68.2	3.8	1.49e+00	0	42	104	498073600	77	20914
2026-01-29 08:32:46.69	72.58	47.05	-53.2	-68.2	3.8	1.49e+00	0	42	104	498073600	77	20876
2026-01-29 08:32:50.72	70.44	47.58	-53.2	-68.2	3.8	1.49e+00	0	42	104	498073600	77	20901
2026-01-29 08:32:54.75	68.22	48.07	-53.2	-68.2	3.8	1.49e+00	0	42	104	498073600	77	20870
2026-01-29 08:32:58.79	65.93	48.52	-53.2	-68.2	3.8	1.49e+00	0	42	104	498073600	77	20889
2026-01-29 08:33:02.81	63.59	48.93	-53.2	-68.2	3.8	1.49e+00	0	42	104	498073600	77	20868
2026-01-29 08:33:06.84	61.19	49.28	-53.2	-68.2	3.8	1.49e+00	0	42	104	498073600	77	20902
2026-01-29 08:33:10.86	58.74	49.58	-53.2	-68.2	3.8	1.49e+00	0	42	104	498073600	77	20899
2026-01-29 08:33:14.88	56.24	49.82	-53.2	-68.2	3.8	1.49e+00	0	42	104	498073600	77	20894
2026-01-29 08:33:18.91	53.71	50.01	-53.2	-68.2	3.8	1.49e+00	0	42	104	498073600	77	20882
2026-01-29 08:33:22.95	51.14	50.13	-53.2	-68.2	3.8	1.49e+00	0	42	104	498073600	77	20873
2026-01-29 08:33:26.98	48.56	50.20	-53.2	-68.2	3.8	1.49e+00	0	42	104	498073600	77	20857
2026-01-29 08:33:31.01	45.98	50.20	-53.2	-68.2	3.8	1.49e+00	0	42	104	498073600	77	20863
2026-01-29 08:33:35.04	43.40	50.14	-53.2	-68.2	3.8	1.49e+00	0	42	104	498073600	77	20944
2026-01-29 08:33:39.07	40.83	50.02	-53.3	-68.3	3.8	1.49e+00	0	42	104	498073600	77	21131
2026-01-29 08:33:43.10	38.30	49.84	-53.3	-68.3	3.8	1.49e+00	0	42	104	498073600	77	21088
2026-01-29 08:33:47.13	35.79	49.60	-53.3	-68.3	3.8	1.49e+00	0	42	104	498073600	77	21045
2026-01-29 08:33:51.16	33.33	49.30	-53.4	-68.3	3.8	1.49e+00	0	42	104	498073600	77	21244
2026-01-29 08:33:55.19	30.93	48.95	-53.3	-68.3	3.8	1.49e+00	0	42	104	498073600	77	21172
2026-01-29 08:33:59.22	28.58	48.56	-53.3	-68.3	3.8	1.49e+00	0	42	104	498073600	77	21155
2026-01-29 08:34:03.25	26.29	48.11	-53.4	-68.3	3.8	1.49e+00	0	42	104	498073600	77	21242
2026-01-29 08:34:07.28	24.08	47.62	-53.3	-68.3	3.8	1.49e+00	0	42	104	498073600	77	21240
2026-01-29 08:34:11.30	21.94	47.10	-53.3	-68.3	3.8	1.49e+00	0	42	104	498073600	77	21155
2026-01-29 08:34:15.33	19.87	46.53	-53.4	-68.4	3.8	1.49e+00	0	42	104	498073600	77	21463
2026-01-29 08:34:19.36	17.87	45.94	-53.4	-68.3	3.8	1.49e+00	0	42	104	498073600	77	21256
2026-01-29 08:34:23.39	15.95	45.32	-53.4	-68.4	3.8	1.49e+00	0	42	104	498073600	77	21355
2026-01-29 08:34:27.41	14.11	44.67	-53.4	-68.4	3.8	1.49e+00	0	42	104	498073600	77	21399
2026-01-29 08:34:31.44	12.35	44.00	-53.4	-68.4	3.8	1.49e+00	0	42	104	498073600	77	21278
2026-01-29 08:34:35.47	10.65	43.32	-53.4	-68.4	3.8	1.49e+00	0	42	104	498073600	77	21270
2026-01-29 08:34:39.50	9.03	42.62	-53.4	-68.3	3.8	1.49e+00	0	42	104	498073600	77	21224
2026-01-29 08:34:43.54	7.47	41.91	-53.4	-68.4	3.8	1.49e+00	0	42	104	498073600	77	21283
2026-01-29 08:34:47.57	5.99	41.19	-53.3	-68.3	3.8	1.49e+00	0	42	104	498073600	77	21130
2026-01-29 08:34:51.60	4.57	40.46	-53.3	-68.3	3.8	1.49e+00	0	42	104	498073600	77	21151
2026-01-29 08:34:55.63	3.22	39.73	-53.3	-68.3	3.8	1.49e+00	0	42	104	498073600	77	21155
2026-01-29 08:34:59.65	1.93	39.00	-53.3	-68.3	3.8	1.49e+00	0	42	104	498073600	77	21108
2026-01-29 08:35:03.68	0.69	38.27	-53.4	-68.4	3.8	1.49e+00	0	42	104	498073600	77	21438
2026-01-29 08:35:07.71	359.51	37.53	-53.5	-68.5	3.8	1.49e+00	0	42	104	498073600	77	21517
2026-01-29 08:35:11.74	358.38	36.80	-53.5	-68.4	3.8	1.49e+00	0	42	104	498073600	77	21447
2026-01-29 08:35:15.76	357.30	36.08	-53.4	-68.4	3.8	1.49e+00	0	42	104	498073600	77	21405
2026-01-29 08:35:19.80	356.26	35.36	-53.4	-68.4	3.8	1.49e+00	0	42	104	498073600	77	21421
2026-01-29 08:35:23.81	355.28	34.65	-53.5	-68.5	3.8	1.49e+00	0	42	104	498073600	77	21549
2026-01-29 08:35:27.84	354.34	33.94	-53.5	-68.4	3.8	1.49e+00	0	42	104	498073600	77	21480
2026-01-29 08:35:31.87	353.43	33.24	-53.4	-68.4	3.8	1.49e+00	0	42	104	498073600	77	21420
2026-01-29 08:35:35.90	352.57	32.55	-53.4	-68.4	3.8	1.49e+00	0	42	104	498073600	77	21329
2026-01-29 08:35:39.94	351.74	31.86	-53.4	-68.4	3.8	1.49e+00	0	42	104	498073600	77	21323
2026-01-29 08:35:43.97	350.94	31.19	-53.4	-68.4	3.8	1.49e+00	0	42	104	498073600	77	21320
2026-01-29 08:35:48.00	350.18	30.52	-53.4	-68.4	3.8	1.49e+00	0	42	104	498073600	77	21285
2026-01-29 08:35:52.03	349.45	29.87	-53.4	-68.3	3.8	1.49e+00	0	42	104	498073600	77	21244
2026-01-29 08:35:56.05	348.75	29.22	-53.4	-68.3	3.8	1.49e+00	0	42	104	498073600	77	21234
2026-01-29 08:36:00.09	348.07	28.59	-53.5	-68.5	3.8	1.49e+00	0	42	104	498073600	77	21532
2026-01-29 08:36:04.11	347.43	27.96	-53.5	-68.5	3.8	1.49e+00	0	42	104	498073600	77	21728
2026-01-29 08:36:08.15	346.80	27.35	-53.6	-68.5	3.8	1.49e+00	0	42	104	498073600	77	21728
2026-01-29 08:36:12.17	346.21	26.74	-53.6	-68.5	3.8	1.49e+00	0	42	104	498073600	77	21694
2026-01-29 08:36:16.21	345.63	26.14	-53.6	-68.6	3.8	1.49e+00	0	42	104	498073600	77	21765
2026-01-29 08:36:20.24	345.08	25.56	-53.5	-68.5	3.8	1.49e+00	0	42	104	498073600	77	21607
2026-01-29 08:36:24.26	344.54	24.98	-53.6	-68.6	3.8	1.49e+00	0	42	104	498073600	77	21987
2026-01-29 08:36:28.30	344.03	24.41	-53.8	-68.8	3.8	1.49e+00	0	42	104	498073600	78	21173
2026-01-29 08:36:32.32	343.54	23.86	-53.8	-68.8	3.8	1.49e+00	0	42	104	498073600	78	21053
2026-01-29 08:36:36.35	343.06	23.31	-53.8	-68.8	3.8	1.49e+00	0	42	104	498073600	78	21038
2026-01-29 08:36:40.39	342.60	22.77	-53.7	-68.7	3.8	1.49e+00	0	42	104	498073600	78	20978
2026-01-29 08:36:44.42	342.15	22.24	-53.7	-68.7	3.8	1.49e+00	0	42	104	498073600	78	20894
2026-01-29 08:36:48.45	341.72	21.72	-53.7	-68.7	3.8	1.49e+00	0	42	104	498073600	78	20953
2026-01-29 08:36:52.46	341.31	21.21	-53.7	-68.7	3.8	1.49e+00	0	42	104	498073600	78	20886
2026-01-29 08:36:56.49	340.91	20.71	-53.7	-68.7	3.8	1.49e+00	0	42	104	498073600	78	20880
2026-01-29 08:37:00.52	340.52	20.22	-53.7	-68.7	3.8	1.49e+00	0	42	104	498073600	78	20872
2026-01-29 08:37:04.54	340.14	19.73	-53.7	-68.7	3.8	1.49e+00	0	42	104	498073600	78	20805
2026-01-29 08:37:08.57	339.78	19.25	-53.7	-68.7	3.8	1.49e+00	0	42	104	498073600	78	20870
2026-01-29 08:37:12.60	339.43	18.78	-53.7	-68.7	3.8	1.49e+00	0	42	104	498073600	78	20811
2026-01-29 08:37:16.62	339.09	18.32	-53.7	-68.7	3.8	1.49e+00	0	42	104	498073600	78	20813
2026-01-29 08:37:20.65	338.76	17.87	-53.7	-68.7	3.8	1.49e+00	0	42	104	498073600	78	20819
2026-01-29 08:37:24.67	338.44	17.42	-53.7	-68.6	3.8	1.49e+00	0	42	104	498073600	78	20775
2026-01-29 08:37:28.71	338.13	16.98	-53.7	-68.7	3.8	1.49e+00	0	42	104	498073600	78	20797
2026-01-29 08:37:32.73	337.83	16.54	-53.7	-68.7	3.8	1.49e+00	0	42	104	498073600	78	20971
2026-01-29 08:37:36.76	337.54	16.12	-53.8	-68.8	3.8	1.49e+00	0	42	104	498073600	78	21044
2026-01-29 08:37:40.79	337.25	15.70	-54.0	-68.9	3.8	1.49e+00	0	42	104	498073600	78	21483
2026-01-29 08:37:44.82	336.98	15.28	-53.9	-68.9	3.8	1.49e+00	0	42	104	498073600	78	21365
2026-01-29 08:37:48.85	336.71	14.87	-54.0	-68.9	3.8	1.49e+00	0	42	104	498073600	78	21381
2026-01-29 08:37:52.88	336.45	14.47	-53.7	-68.7	3.8	1.49e+00	0	42	104	498073600	78	20877
2026-01-29 08:37:56.91	336.20	14.08	-53.4	-68.4	3.8	1.49e+00	0	43	104	498073600	78	20148
2026-01-29 08:38:00.93	335.95	13.69	-53.1	-68.0	3.8	1.49e+00	0	43	104	498073600	78	19368
2026-01-29 08:38:04.96	335.72	13.30	-52.9	-67.9	3.8	1.49e+00	0	43	104	498073600	77	20195
2026-01-29 08:38:08.99	335.48	12.92	-52.9	-67.9	3.8	1.49e+00	0	42	104	498073600	77	20118
2026-01-29 08:38:13.02	335.26	12.55	-52.9	-67.8	3.8	1.49e+00	0	42	104	498073600	77	20049
2026-01-29 08:38:17.04	335.04	12.18	-52.8	-67.7	3.8	1.49e+00	0	42	104	498073600	77	19734
2026-01-29 08:38:21.08	334.82	11.82	-52.7	-67.6	3.8	1.49e+00	0	42	104	498073600	77	19548
2026-01-29 08:38:25.11	334.61	11.46	-52.7	-67.7	3.8	1.49e+00	0	42	104	498073600	77	19681
2026-01-29 08:38:29.14	334.41	11.11	-52.8	-67.7	3.8	1.49e+00	0	42	104	498073600	77	19811
2026-01-29 08:38:33.17	334.21	10.76	-52.7	-67.7	3.8	1.49e+00	0	43	104	498073600	77	19667
2026-01-29 08:38:37.20	334.02	10.41	-52.7	-67.7	3.8	1.49e+00	0	42	104	498073600	77	19751
2026-01-29 08:38:41.22	333.83	10.07	-52.7	-67.6	3.8	1.49e+00	0	42	104	498073600	77	19598
2026-01-29 08:38:45.25	333.65	9.74	-52.5	-67.5	3.8	1.49e+00	0	42	104	498073600	77	19256
2026-01-29 08:38:49.29	333.47	9.40	-52.6	-67.6	3.8	1.49e+00	0	42	104	498073600	77	19477
2026-01-29 08:38:53.31	333.30	9.08	-52.7	-67.6	3.8	1.49e+00	0	42	104	498073600	77	19598
2026-01-29 08:38:57.35	333.12	8.75	-52.8	-67.8	3.8	1.49e+00	0	42	104	498073600	77	19938
2026-01-29 08:39:01.38	332.96	8.43	-52.8	-67.8	3.8	1.49e+00	0	42	104	498073600	77	19930
2026-01-29 08:39:05.41	332.80	8.12	-52.8	-67.8	3.8	1.49e+00	0	42	104	498073600	77	19849
2026-01-29 08:39:09.43	332.64	7.81	-52.8	-67.8	3.8	1.49e+00	0	42	104	498073600	77	19855
2026-01-29 08:39:13.46	332.48	7.50	-52.7	-67.7	3.8	1.49e+00	0	42	104	498073600	77	19805
2026-01-29 08:39:17.49	332.33	7.19	-52.8	-67.7	3.8	1.49e+00	0	43	104	498073600	77	19786
2026-01-29 08:39:21.52	332.18	6.89	-52.8	-67.7	3.8	1.49e+00	0	42	104	498073600	77	19810
2026-01-29 08:39:25.55	332.04	6.59	-52.8	-67.7	3.8	1.49e+00	0	42	104	498073600	77	19781
2026-01-29 08:39:29.57	331.90	6.30	-52.8	-67.7	3.8	1.49e+00	0	42	104	498073600	77	19832
2026-01-29 08:39:33.61	331.76	6.00	-52.8	-67.7	3.8	1.49e+00	0	42	104	498073600	77	19776
2026-01-29 08:39:37.64	331.62	5.71	-52.7	-67.7	3.8	1.49e+00	0	42	104	498073600	77	19703
2026-01-29 08:39:41.66	331.49	5.43	-53.0	-67.9	3.8	1.49e+00	0	42	104	498073600	77	20301
2026-01-29 08:39:45.69	331.36	5.15	-53.0	-68.0	3.8	1.49e+00	0	42	104	498073600	77	20469
2026-01-29 08:39:49.72	331.24	4.86	-53.1	-68.1	3.8	1.49e+00	0	42	104	498073600	77	20560
2026-01-29 08:39:53.75	331.11	4.59	-53.1	-68.1	3.8	1.49e+00	0	42	104	498073600	77	20568
2026-01-29 08:39:57.78	330.99	4.31	-53.3	-68.2	3.8	1.49e+00	0	42	104	498073600	77	20991
2026-01-29 08:40:01.81	330.87	4.04	-53.1	-68.1	3.8	1.49e+00	0	42	104	498073600	77	20650
2026-01-29 08:40:05.83	330.76	3.77	-53.0	-67.9	3.8	1.49e+00	0	42	104	498073600	77	20265
2026-01-29 08:40:09.86	330.64	3.50	-53.2	-68.2	3.8	1.49e+00	0	42	104	498073600	77	20791
2026-01-29 08:40:13.89	330.53	3.24	-53.4	-68.4	3.8	1.49e+00	0	42	104	498073600	77	21475
2026-01-29 08:40:17.92	330.42	2.98	-53.1	-68.1	3.8	1.49e+00	0	42	104	498073600	77	20696
2026-01-29 08:40:21.95	330.32	2.72	-53.2	-68.1	3.8	1.49e+00	0	42	104	498073600	77	20704
2026-01-29 08:40:25.98	330.21	2.46	-53.1	-68.1	3.8	1.49e+00	0	42	104	498073600	77	20593
2026-01-29 08:40:30.00	330.11	2.20	-53.3	-68.3	3.8	1.49e+00	0	42	104	498073600	77	21021
2026-01-29 08:40:34.02	330.01	1.95	-53.2	-68.2	3.8	1.49e+00	0	42	104	498073600	77	20866

#Closed at: 2026-01-29 08:40:36
#Recorded file [498 MB]: D:/lorett/data/31041_260129_112627.dat