passes_logs/2026/01/29/R3.2S_Murmansk/R3.2S_Murmansk__20260129_064728_SUOMI_NPP_rec.log

#Pass ID: 20260129_064728_SUOMI NPP
#Satellite: SUOMI NPP
#Configuration: NPP
#almurnet v.1.7.20251203
#Start time: 2026-01-29 06:47:28

#Version: 2.2.20231116
#Station: R3.2S_Murmansk
#Location: 33.079688 lon 68.888172 lat
#TLE: 1 37849U 11061A   26027.93236865  .00000148  00000+0  91411-4 0  9991
#TLE: 2 37849  98.7823 329.8704 0002085  41.3231 318.8102 14.19530777738546

#Time	Az	El	Level	Level2	SNR	BER	BlckErr	Temp	State	Recorded	gain1	gain2
2026-01-29 06:47:28.05	89.23	1.96	-53.9	-68.9	3.8	1.49e+00	0	40	0	0	78	21308
2026-01-29 06:47:32.07	89.02	2.20	-53.9	-68.9	3.8	1.49e+00	0	40	104	0	78	21455
2026-01-29 06:47:36.10	88.79	2.44	-53.8	-68.9	3.8	1.49e+00	0	40	104	0	78	21311
2026-01-29 06:47:40.13	88.56	2.68	-54.1	-69.1	3.8	1.49e+00	0	40	104	0	78	21959
2026-01-29 06:47:44.17	88.33	2.92	-54.0	-69.0	3.8	1.49e+00	0	40	104	0	79	20532
2026-01-29 06:47:48.19	88.10	3.17	-53.8	-68.8	3.8	1.49e+00	0	40	104	0	79	20006
2026-01-29 06:47:52.23	87.86	3.41	-53.6	-68.5	3.8	1.49e+00	0	40	104	0	79	19372
2026-01-29 06:47:56.26	87.61	3.66	-52.6	-67.6	3.8	1.49e+00	0	40	104	0	77	19435
2026-01-29 06:48:00.29	87.36	3.91	-51.9	-66.6	3.8	1.49e+00	0	40	104	0	75	19393
2026-01-29 06:48:04.33	87.11	4.16	-51.6	-62.7	4.3	1.39e+00	152	40	0	0	75	12458
2026-01-29 06:48:08.36	86.85	4.41	-51.5	-61.3	5.0	7.08e-01	0	41	0	7340032	74	11242
2026-01-29 06:48:12.39	86.59	4.67	-51.6	-62.4	4.5	1.17e+00	57	41	0	13631488	74	12722
2026-01-29 06:48:16.42	86.32	4.93	-50.7	-57.1	8.3	7.72e-02	0	41	0	22020096	73	7328
2026-01-29 06:48:20.45	86.05	5.18	-50.9	-57.6	7.7	6.42e-01	0	41	0	29360128	73	7723
2026-01-29 06:48:24.48	85.77	5.44	-48.3	-51.1	14.8	7.00e-07	0	41	0	33554432	68	4881
2026-01-29 06:48:28.51	85.49	5.71	-48.1	-50.8	15.1	0.00e+00	0	41	0	41943040	68	4741
2026-01-29 06:48:32.53	85.20	5.97	-48.2	-51.0	14.9	7.00e-07	0	41	0	49283072	67	5140
2026-01-29 06:48:36.55	84.91	6.24	-48.1	-50.8	15.1	0.00e+00	0	41	0	56623104	67	5036
2026-01-29 06:48:40.58	84.61	6.50	-47.9	-50.7	15.2	0.00e+00	0	41	0	63963136	67	4949
2026-01-29 06:48:44.61	84.31	6.77	-47.7	-50.3	15.7	0.00e+00	0	41	0	71303168	67	4715
2026-01-29 06:48:48.63	84.00	7.05	-47.6	-50.1	15.8	0.00e+00	0	41	0	79691776	66	4901
2026-01-29 06:48:52.67	83.68	7.32	-47.1	-49.4	16.5	0.00e+00	0	41	0	87031808	66	4518
2026-01-29 06:48:56.70	83.35	7.60	-46.9	-49.0	16.8	0.00e+00	0	41	0	94371840	65	4583
2026-01-29 06:49:00.72	83.03	7.88	-46.8	-49.0	17.0	0.00e+00	0	41	0	101711872	65	4547
2026-01-29 06:49:04.75	82.69	8.16	-47.0	-49.3	16.7	0.00e+00	0	41	0	110100480	65	4706
2026-01-29 06:49:08.78	82.35	8.44	-46.7	-48.8	17.1	0.00e+00	0	41	0	117440512	65	4472
2026-01-29 06:49:12.81	82.00	8.72	-46.9	-49.1	16.9	0.00e+00	0	41	0	124780544	65	4626
2026-01-29 06:49:16.83	81.64	9.01	-46.9	-49.0	17.0	0.00e+00	0	41	0	132120576	65	4568
2026-01-29 06:49:20.86	81.27	9.30	-47.1	-49.3	16.8	0.00e+00	0	41	0	139460608	65	4709
2026-01-29 06:49:24.89	80.90	9.59	-47.0	-49.1	17.0	0.00e+00	0	41	0	146800640	65	4615
2026-01-29 06:49:28.91	80.52	9.88	-47.0	-49.2	16.9	0.00e+00	0	42	0	155189248	65	4663
2026-01-29 06:49:32.93	80.14	10.18	-46.8	-48.8	17.3	0.00e+00	0	42	0	162529280	65	4461
2026-01-29 06:49:36.96	79.74	10.48	-47.0	-49.1	17.0	0.00e+00	0	41	0	169869312	65	4628
2026-01-29 06:49:40.99	79.33	10.78	-46.7	-48.7	17.4	0.00e+00	0	41	0	177209344	65	4433
2026-01-29 06:49:45.02	78.92	11.08	-47.1	-49.3	16.9	0.00e+00	0	42	0	184549376	65	4722
2026-01-29 06:49:49.05	78.50	11.39	-46.7	-48.8	17.4	0.00e+00	0	41	0	192937984	65	4452
2026-01-29 06:49:53.08	78.07	11.69	-46.6	-48.6	17.5	0.00e+00	0	42	0	200278016	65	4382
2026-01-29 06:49:57.11	77.63	12.00	-46.8	-48.9	17.3	0.00e+00	0	42	0	207618048	65	4495
2026-01-29 06:50:01.14	77.18	12.31	-46.3	-48.2	18.0	0.00e+00	0	42	0	214958080	64	4408
2026-01-29 06:50:05.16	76.72	12.63	-46.5	-48.4	17.8	0.00e+00	0	42	0	223346688	64	4513
2026-01-29 06:50:09.20	76.25	12.94	-46.1	-47.8	18.5	0.00e+00	0	42	0	230686720	63	4477
2026-01-29 06:50:13.22	75.77	13.26	-46.5	-48.4	18.0	0.00e+00	0	41	0	238026752	63	4780
2026-01-29 06:50:17.25	75.27	13.58	-46.6	-48.4	17.9	0.00e+00	0	42	0	245366784	63	4810
2026-01-29 06:50:21.28	74.77	13.90	-46.9	-49.0	17.4	0.00e+00	0	42	0	252706816	64	4815
2026-01-29 06:50:25.30	74.26	14.23	-47.0	-49.1	17.3	0.00e+00	0	42	0	260046848	64	4883
2026-01-29 06:50:29.33	73.73	14.55	-46.6	-48.4	17.9	0.00e+00	0	41	0	268435456	64	4545
2026-01-29 06:50:33.36	73.19	14.88	-46.0	-47.7	18.6	0.00e+00	0	42	0	275775488	64	4193
2026-01-29 06:50:37.39	72.64	15.21	-46.1	-47.9	18.6	0.00e+00	0	42	0	283115520	63	4513
2026-01-29 06:50:41.41	72.08	15.54	-45.6	-47.2	19.2	0.00e+00	0	42	0	290455552	63	4154
2026-01-29 06:50:45.43	71.51	15.88	-45.8	-47.4	19.1	0.00e+00	0	42	0	297795584	62	4515
2026-01-29 06:50:49.46	70.92	16.21	-45.6	-47.2	19.2	0.00e+00	0	42	0	306184192	62	4398
2026-01-29 06:50:53.49	70.32	16.55	-45.7	-47.3	19.2	0.00e+00	0	42	0	313524224	62	4455
2026-01-29 06:50:57.50	69.71	16.88	-45.6	-47.1	19.3	0.00e+00	0	42	0	320864256	62	4371
2026-01-29 06:51:01.52	69.08	17.22	-45.8	-47.4	19.0	0.00e+00	0	42	0	328204288	62	4528
2026-01-29 06:51:05.55	68.43	17.56	-45.8	-47.5	19.0	0.00e+00	0	42	0	336592896	62	4547
2026-01-29 06:51:09.57	67.77	17.90	-45.7	-47.3	19.2	0.00e+00	0	42	0	343932928	62	4452
2026-01-29 06:51:13.60	67.10	18.24	-45.8	-47.5	19.0	0.00e+00	0	42	0	351272960	62	4561
2026-01-29 06:51:17.63	66.41	18.58	-46.0	-47.7	18.8	0.00e+00	0	42	0	358612992	63	4419
2026-01-29 06:51:21.66	65.70	18.93	-46.3	-48.1	18.4	0.00e+00	0	42	0	365953024	63	4634
2026-01-29 06:51:25.69	64.98	19.27	-46.5	-48.3	18.4	0.00e+00	0	42	0	373293056	63	4751
2026-01-29 06:51:29.71	64.24	19.61	-46.1	-47.8	18.8	0.00e+00	0	42	0	381681664	63	4493
2026-01-29 06:51:33.74	63.49	19.95	-46.1	-47.8	18.7	0.00e+00	0	42	0	389021696	63	4482
2026-01-29 06:51:37.77	62.71	20.29	-46.5	-48.3	18.2	0.00e+00	0	41	0	396361728	64	4484
2026-01-29 06:51:41.80	61.92	20.63	-45.8	-47.4	19.2	0.00e+00	0	41	0	403701760	63	4266
2026-01-29 06:51:45.83	61.11	20.97	-45.5	-46.9	19.6	0.00e+00	0	42	0	411041792	62	4285
2026-01-29 06:51:49.85	60.29	21.31	-46.1	-47.8	18.8	0.00e+00	0	42	0	419430400	62	4738
2026-01-29 06:51:53.87	59.45	21.64	-46.1	-47.8	18.9	0.00e+00	0	42	0	426770432	63	4450
2026-01-29 06:51:57.91	58.58	21.97	-45.3	-46.7	19.8	0.00e+00	0	42	0	434110464	62	4170
2026-01-29 06:52:01.94	57.70	22.30	-44.4	-45.7	20.7	0.00e+00	0	42	0	441450496	60	4179
2026-01-29 06:52:05.97	56.80	22.63	-44.8	-46.3	20.3	0.00e+00	0	42	0	449839104	60	4448
2026-01-29 06:52:10.00	55.88	22.95	-44.9	-46.3	20.2	0.00e+00	0	42	0	457179136	61	4227
2026-01-29 06:52:14.02	54.94	23.27	-44.4	-45.7	20.7	0.00e+00	0	42	0	464519168	60	4167
2026-01-29 06:52:18.05	53.98	23.58	-44.5	-45.8	20.7	0.00e+00	0	42	0	471859200	60	4218
2026-01-29 06:52:22.08	53.00	23.89	-44.1	-45.3	21.1	0.00e+00	0	42	0	479199232	60	3967
2026-01-29 06:52:26.11	52.00	24.19	-44.2	-45.4	21.3	0.00e+00	0	42	0	486539264	59	4247
2026-01-29 06:52:30.14	50.99	24.49	-44.2	-45.4	21.0	0.00e+00	0	42	0	494927872	60	4051
2026-01-29 06:52:34.18	49.95	24.78	-44.4	-45.7	20.8	0.00e+00	0	42	0	502267904	60	4173
2026-01-29 06:52:38.21	48.89	25.06	-44.7	-46.0	20.6	0.00e+00	0	42	0	509607936	60	4330
2026-01-29 06:52:42.24	47.82	25.33	-44.6	-45.8	20.7	0.00e+00	0	42	0	516947968	60	4233
2026-01-29 06:52:46.27	46.73	25.60	-44.7	-46.0	20.6	0.00e+00	0	42	0	525336576	60	4305
2026-01-29 06:52:50.30	45.62	25.85	-44.7	-46.0	20.6	0.00e+00	0	42	0	532676608	60	4311
2026-01-29 06:52:54.33	44.49	26.10	-44.7	-46.0	20.6	0.00e+00	0	42	0	540016640	60	4296
2026-01-29 06:52:58.36	43.34	26.34	-44.3	-45.5	21.0	0.00e+00	0	42	0	547356672	60	4080
2026-01-29 06:53:02.40	42.17	26.56	-44.4	-45.6	21.0	0.00e+00	0	42	0	554696704	60	4132
2026-01-29 06:53:06.44	40.99	26.78	-44.4	-45.6	21.0	0.00e+00	0	42	0	563085312	60	4130
2026-01-29 06:53:10.47	39.80	26.98	-44.8	-46.1	20.5	0.00e+00	0	42	0	570425344	60	4374
2026-01-29 06:53:14.49	38.59	27.17	-45.2	-46.7	20.0	0.00e+00	0	42	0	577765376	61	4402
2026-01-29 06:53:18.52	37.36	27.35	-45.9	-47.4	19.4	0.00e+00	0	42	0	585105408	62	4523
2026-01-29 06:53:22.55	36.13	27.51	-45.6	-47.0	19.7	0.00e+00	0	42	0	593494016	62	4320
2026-01-29 06:53:26.58	34.88	27.66	-46.3	-47.9	19.0	0.00e+00	0	42	0	600834048	63	4498
2026-01-29 06:53:30.61	33.62	27.79	-46.4	-48.0	19.0	0.00e+00	0	42	0	608174080	63	4564
2026-01-29 06:53:34.64	32.35	27.91	-46.2	-47.8	19.0	0.00e+00	0	42	0	615514112	63	4493
2026-01-29 06:53:38.67	31.07	28.02	-46.1	-47.7	19.1	0.00e+00	0	42	0	622854144	63	4422
2026-01-29 06:53:42.70	29.78	28.10	-46.3	-48.0	18.8	0.00e+00	0	42	0	630194176	63	4574
2026-01-29 06:53:46.73	28.49	28.18	-46.3	-48.0	18.7	0.00e+00	0	42	0	638582784	63	4597
2026-01-29 06:53:50.76	27.19	28.23	-47.2	-49.3	17.4	0.00e+00	0	42	0	645922816	65	4735
2026-01-29 06:53:54.79	25.88	28.27	-46.4	-48.2	18.6	0.00e+00	0	42	0	653262848	64	4397
2026-01-29 06:53:58.81	24.58	28.29	-45.2	-46.6	20.1	0.00e+00	0	42	0	660602880	62	4130
2026-01-29 06:54:02.84	23.28	28.30	-45.6	-47.1	19.7	0.00e+00	0	42	0	667942912	62	4346
2026-01-29 06:54:06.87	21.97	28.29	-46.0	-47.6	19.3	0.00e+00	0	42	0	676331520	63	4349
2026-01-29 06:54:10.89	20.67	28.26	-45.6	-47.1	19.8	0.00e+00	0	42	0	683671552	62	4356
2026-01-29 06:54:14.93	19.36	28.22	-46.4	-48.1	18.8	0.00e+00	0	42	0	691011584	63	4632
2026-01-29 06:54:18.95	18.07	28.16	-45.9	-47.4	19.4	0.00e+00	0	42	0	698351616	63	4280
2026-01-29 06:54:22.98	16.78	28.09	-45.0	-46.3	20.4	0.00e+00	0	42	0	706740224	61	4221
2026-01-29 06:54:27.00	15.50	28.00	-44.9	-46.2	20.4	0.00e+00	0	42	0	714080256	61	4184
2026-01-29 06:54:31.03	14.22	27.89	-44.2	-45.4	21.2	0.00e+00	0	42	0	721420288	60	4007
2026-01-29 06:54:35.06	12.95	27.77	-45.2	-46.6	20.3	0.00e+00	0	42	0	728760320	61	4341
2026-01-29 06:54:39.08	11.70	27.63	-44.9	-46.2	20.5	0.00e+00	0	42	0	736100352	61	4167
2026-01-29 06:54:43.11	10.45	27.48	-45.8	-47.3	19.5	0.00e+00	0	42	0	743440384	62	4467
2026-01-29 06:54:47.14	9.22	27.31	-44.9	-46.1	20.7	0.00e+00	0	42	0	751828992	61	4126
2026-01-29 06:54:51.16	8.00	27.13	-45.5	-46.9	20.0	0.00e+00	0	42	0	759169024	61	4494
2026-01-29 06:54:55.19	6.79	26.94	-44.5	-45.7	21.0	0.00e+00	0	42	0	766509056	60	4183
2026-01-29 06:54:59.21	5.61	26.74	-45.8	-47.3	19.6	0.00e+00	0	42	0	773849088	62	4462
2026-01-29 06:55:03.24	4.43	26.52	-46.1	-47.7	19.1	0.00e+00	0	42	0	781189120	63	4428
2026-01-29 06:55:07.27	3.27	26.29	-46.8	-48.5	18.3	0.00e+00	0	42	0	789577728	64	4594
2026-01-29 06:55:11.30	2.13	26.06	-47.0	-48.9	17.9	0.00e+00	0	42	0	796917760	65	4527
2026-01-29 06:55:15.33	1.01	25.81	-46.3	-48.0	18.8	0.00e+00	0	42	0	804257792	64	4321
2026-01-29 06:55:19.36	359.90	25.55	-45.8	-47.3	19.5	0.00e+00	0	42	0	811597824	63	4217
2026-01-29 06:55:23.39	358.81	25.28	-44.9	-46.2	20.4	0.00e+00	0	42	0	819986432	61	4180
2026-01-29 06:55:27.42	357.74	25.01	-45.8	-47.3	19.4	0.00e+00	0	42	0	827326464	62	4488
2026-01-29 06:55:31.46	356.69	24.72	-46.2	-47.9	18.9	0.00e+00	0	42	0	834666496	62	4788
2026-01-29 06:55:35.48	355.66	24.43	-46.2	-48.0	18.8	0.00e+00	0	42	0	842006528	64	4300
2026-01-29 06:55:39.51	354.65	24.14	-46.3	-48.0	18.8	0.00e+00	0	42	0	849346560	63	4571
2026-01-29 06:55:43.54	353.66	23.83	-46.5	-48.2	18.6	0.00e+00	0	42	0	856686592	63	4669
2026-01-29 06:55:47.58	352.69	23.53	-45.0	-46.4	20.3	0.00e+00	0	42	0	865075200	62	4024
2026-01-29 06:55:51.61	351.73	23.21	-44.8	-46.2	20.5	0.00e+00	0	42	0	872415232	61	4157
2026-01-29 06:55:55.64	350.80	22.89	-44.6	-46.0	20.6	0.00e+00	0	42	0	879755264	61	4052
2026-01-29 06:55:59.67	349.88	22.57	-44.1	-45.3	21.2	0.00e+00	0	42	0	887095296	60	3966
2026-01-29 06:56:03.70	348.99	22.25	-44.1	-45.3	21.4	0.00e+00	0	42	0	895483904	59	4197
2026-01-29 06:56:07.73	348.11	21.92	-45.0	-46.4	20.2	0.00e+00	0	42	0	902823936	60	4497
2026-01-29 06:56:11.76	347.25	21.58	-45.0	-46.4	20.1	0.00e+00	0	42	0	910163968	61	4287
2026-01-29 06:56:15.79	346.41	21.25	-44.5	-45.7	20.8	0.00e+00	0	42	0	917504000	60	4186
2026-01-29 06:56:19.83	345.59	20.91	-44.4	-45.7	20.8	0.00e+00	0	42	0	924844032	60	4155
2026-01-29 06:56:23.86	344.79	20.58	-43.3	-44.4	22.3	0.00e+00	0	42	0	933232640	58	4006
2026-01-29 06:56:27.88	344.00	20.24	-43.8	-44.9	21.7	0.00e+00	0	42	0	940572672	58	4282
2026-01-29 06:56:31.90	343.24	19.90	-44.2	-45.4	21.4	0.00e+00	0	42	0	947912704	58	4501
2026-01-29 06:56:35.94	342.48	19.56	-44.2	-45.4	21.3	0.00e+00	0	42	0	955252736	59	4278
2026-01-29 06:56:39.97	341.75	19.22	-44.6	-45.8	21.0	0.00e+00	0	42	0	962592768	59	4483
2026-01-29 06:56:44.00	341.03	18.87	-44.3	-45.6	20.9	0.00e+00	0	42	0	970981376	60	4104
2026-01-29 06:56:48.03	340.33	18.53	-44.2	-45.4	21.4	0.00e+00	0	42	0	978321408	59	4253
2026-01-29 06:56:52.05	339.65	18.19	-44.1	-45.3	21.5	0.00e+00	0	42	0	985661440	59	4202
2026-01-29 06:56:56.09	338.98	17.85	-45.0	-46.4	20.1	0.00e+00	0	42	0	993001472	60	4506
2026-01-29 06:57:00.11	338.32	17.51	-45.1	-46.5	20.1	0.00e+00	0	42	0	1000341504	61	4302
2026-01-29 06:57:04.14	337.68	17.17	-44.6	-45.9	20.6	0.00e+00	0	42	0	1008730112	61	4007
2026-01-29 06:57:08.17	337.06	16.84	-44.9	-46.2	20.2	0.00e+00	0	42	0	1016070144	60	4441
2026-01-29 06:57:12.21	336.44	16.50	-45.7	-47.2	19.4	0.00e+00	0	42	0	1023410176	61	4663
2026-01-29 06:57:16.23	335.85	16.16	-45.7	-47.2	19.4	0.00e+00	0	42	0	1030750208	62	4421
2026-01-29 06:57:20.25	335.27	15.83	-44.9	-46.2	20.2	0.00e+00	0	42	0	1039138816	61	4178
2026-01-29 06:57:24.28	334.69	15.50	-45.3	-46.7	19.8	0.00e+00	0	42	0	1046478848	61	4411
2026-01-29 06:57:28.31	334.14	15.17	-45.5	-46.9	19.6	0.00e+00	0	42	0	1053818880	62	4279
2026-01-29 06:57:32.34	333.59	14.84	-44.9	-46.3	20.1	0.00e+00	0	42	0	1061158912	61	4198
2026-01-29 06:57:36.38	333.06	14.51	-44.6	-45.9	20.4	0.00e+00	0	42	0	1068498944	61	4029
2026-01-29 06:57:40.41	332.53	14.19	-44.6	-45.9	20.4	0.00e+00	0	42	0	1075838976	60	4268
2026-01-29 06:57:44.43	332.02	13.86	-45.1	-46.4	20.0	0.00e+00	0	42	0	1084227584	60	4536
2026-01-29 06:57:48.45	331.53	13.54	-45.4	-46.8	19.5	0.00e+00	0	42	0	1091567616	61	4486
2026-01-29 06:57:52.48	331.04	13.22	-45.1	-46.6	19.8	0.00e+00	0	42	0	1098907648	61	4346
2026-01-29 06:57:56.51	330.56	12.91	-45.7	-47.2	19.2	0.00e+00	0	42	0	1106247680	62	4420
2026-01-29 06:58:00.54	330.10	12.59	-46.7	-48.6	17.7	0.00e+00	0	42	0	1113587712	64	4638
2026-01-29 06:58:04.57	329.64	12.28	-46.5	-48.3	18.0	0.00e+00	0	42	0	1121976320	64	4458
2026-01-29 06:58:08.60	329.19	11.97	-45.6	-47.2	19.2	0.00e+00	0	42	0	1129316352	63	4154
2026-01-29 06:58:12.63	328.75	11.66	-45.3	-46.7	19.5	0.00e+00	0	42	0	1136656384	62	4189
2026-01-29 06:58:16.66	328.33	11.35	-46.1	-47.9	18.5	0.00e+00	0	42	0	1143996416	62	4765
2026-01-29 06:58:20.68	327.91	11.05	-46.9	-48.9	17.4	0.00e+00	0	42	0	1152385024	64	4773
2026-01-29 06:58:24.71	327.50	10.75	-47.1	-49.3	17.0	0.00e+00	0	42	0	1159725056	65	4708
2026-01-29 06:58:28.74	327.10	10.45	-47.0	-49.0	17.2	0.00e+00	0	42	0	1167065088	65	4564
2026-01-29 06:58:32.77	326.70	10.15	-46.6	-48.5	17.7	0.00e+00	0	42	0	1174405120	65	4295
2026-01-29 06:58:36.80	326.32	9.86	-46.7	-48.7	17.4	0.00e+00	0	42	0	1181745152	65	4407
2026-01-29 06:58:40.83	325.94	9.56	-47.2	-49.3	16.9	0.00e+00	0	42	0	1189085184	65	4725
2026-01-29 06:58:44.85	325.57	9.27	-47.6	-50.0	16.1	0.00e+00	0	42	0	1197473792	65	5129
2026-01-29 06:58:48.88	325.21	8.99	-47.2	-49.4	16.7	0.00e+00	0	42	0	1204813824	65	4772
2026-01-29 06:58:52.91	324.86	8.70	-46.5	-48.4	17.7	0.00e+00	0	42	0	1212153856	64	4494
2026-01-29 06:58:56.94	324.51	8.42	-45.9	-47.6	18.5	0.00e+00	0	42	0	1219493888	63	4360
2026-01-29 06:59:00.96	324.17	8.13	-45.8	-47.5	18.6	0.00e+00	0	42	0	1227882496	63	4306
2026-01-29 06:59:04.99	323.84	7.86	-46.3	-48.1	17.9	0.00e+00	0	42	0	1235222528	63	4618
2026-01-29 06:59:09.01	323.51	7.58	-46.9	-49.0	17.0	0.00e+00	0	42	0	1242562560	64	4838
2026-01-29 06:59:13.04	323.19	7.30	-47.3	-49.5	16.4	0.00e+00	0	42	0	1249902592	65	4855
2026-01-29 06:59:17.05	322.88	7.03	-47.6	-50.1	15.8	0.00e+00	0	42	0	1257242624	66	4907
2026-01-29 06:59:21.07	322.57	6.76	-47.8	-50.3	15.6	0.00e+00	0	42	0	1265631232	66	5040
2026-01-29 06:59:25.10	322.27	6.49	-47.8	-50.4	15.5	0.00e+00	0	42	0	1272971264	66	5071
2026-01-29 06:59:29.12	321.97	6.22	-47.4	-49.8	16.0	0.00e+00	0	42	0	1280311296	66	4736
2026-01-29 06:59:33.15	321.68	5.96	-47.5	-49.9	15.8	0.00e+00	0	42	0	1287651328	66	4813
2026-01-29 06:59:37.17	321.40	5.70	-47.3	-49.6	16.1	0.00e+00	0	42	0	1294991360	66	4617
2026-01-29 06:59:41.20	321.12	5.43	-47.7	-50.3	15.4	0.00e+00	0	42	0	1302331392	66	5018
2026-01-29 06:59:45.22	320.84	5.18	-47.9	-50.6	14.9	0.00e+00	0	42	0	1310720000	66	5214
2026-01-29 06:59:49.25	320.57	4.92	-52.4	-67.4	3.8	1.49e+00	0	42	104	1315962880	75	21430
2026-01-29 06:59:53.28	320.31	4.66	-52.8	-67.8	3.8	1.49e+00	0	42	104	1315962880	76	21096
2026-01-29 06:59:57.31	320.05	4.41	-52.7	-67.7	3.8	1.49e+00	0	42	104	1315962880	76	20828
2026-01-29 07:00:01.34	319.79	4.16	-53.0	-67.9	3.8	1.49e+00	0	42	104	1315962880	76	21453
2026-01-29 07:00:05.37	319.54	3.91	-53.1	-68.1	3.8	1.49e+00	0	42	104	1315962880	76	21899
2026-01-29 07:00:09.40	319.30	3.66	-53.1	-68.0	3.8	1.49e+00	0	42	104	1315962880	76	21750
2026-01-29 07:00:13.43	319.06	3.41	-53.1	-68.0	3.8	1.49e+00	0	42	104	1315962880	76	21709
2026-01-29 07:00:17.46	318.82	3.16	-53.0	-68.0	3.8	1.49e+00	0	42	104	1315962880	76	21648
2026-01-29 07:00:21.50	318.59	2.92	-53.0	-68.0	3.8	1.49e+00	0	42	104	1315962880	76	21622
2026-01-29 07:00:25.53	318.36	2.68	-53.0	-68.0	3.8	1.49e+00	0	42	104	1315962880	76	21525
2026-01-29 07:00:29.56	318.13	2.44	-53.0	-67.9	3.8	1.49e+00	0	42	104	1315962880	76	21497
2026-01-29 07:00:33.59	317.91	2.20	-53.0	-67.9	3.8	1.49e+00	0	42	104	1315962880	76	21423
2026-01-29 07:00:37.62	317.69	1.96	-52.9	-67.9	3.8	1.49e+00	0	42	104	1315962880	76	21449

#Closed at: 2026-01-29 07:00:38
#Recorded file [1315 MB]: D:/lorett/data/31041_260129_094727.dat