passes_logs/2026/01/29/R3.2S_Murmansk/R3.2S_Murmansk__20260129_114813_SUOMI_NPP_rec.log

#Pass ID: 20260129_114813_SUOMI NPP
#Satellite: SUOMI NPP
#Configuration: NPP
#almurnet v.1.7.20251203
#Start time: 2026-01-29 11:48:14

#Version: 2.2.20231116
#Station: R3.2S_Murmansk
#Location: 33.079688 lon 68.888172 lat
#TLE: 1 37849U 11061A   26028.91916408  .00000155  00000+0  94467-4 0  9990
#TLE: 2 37849  98.7824 330.8488 0002045  39.4457 320.6868 14.19531289738686

#Time	Az	El	Level	Level2	SNR	BER	BlckErr	Temp	State	Recorded	gain1	gain2
2026-01-29 11:48:14.88	207.16	2.08	-53.8	-68.8	3.8	1.49e+00	0	40	0	0	78	21101
2026-01-29 11:48:18.76	207.42	2.30	-54.2	-69.2	3.8	1.49e+00	0	40	104	0	78	22052
2026-01-29 11:48:22.64	207.68	2.52	-54.1	-69.1	3.8	1.49e+00	0	40	104	0	78	21959
2026-01-29 11:48:26.51	207.94	2.74	-54.0	-69.0	3.8	1.49e+00	0	40	104	0	78	21616
2026-01-29 11:48:30.39	208.21	2.97	-53.8	-68.8	3.8	1.49e+00	0	40	104	0	78	21127
2026-01-29 11:48:34.27	208.48	3.19	-53.5	-68.5	3.8	1.49e+00	0	40	104	0	78	20397
2026-01-29 11:48:38.16	208.75	3.42	-52.5	-67.5	3.8	1.49e+00	0	40	104	0	77	19176
2026-01-29 11:48:42.04	209.03	3.65	-52.3	-67.3	3.8	1.49e+00	0	41	104	0	76	19849
2026-01-29 11:48:45.93	209.32	3.88	-52.3	-67.2	3.8	1.49e+00	0	41	104	0	76	19732
2026-01-29 11:48:49.80	209.60	4.11	-52.3	-67.1	3.8	1.49e+00	0	41	104	0	76	19511
2026-01-29 11:48:53.68	209.89	4.34	-52.3	-66.7	3.8	1.49e+00	0	41	104	0	76	18627
2026-01-29 11:48:57.56	210.19	4.58	-52.1	-63.7	4.2	1.46e+00	0	41	104	0	76	13138
2026-01-29 11:49:01.44	210.49	4.81	-50.3	-54.7	11.2	3.35e-03	0	41	0	6291456	72	5914
2026-01-29 11:49:05.33	210.80	5.05	-48.4	-51.0	15.1	7.00e-07	0	41	0	13631488	68	4847
2026-01-29 11:49:09.21	211.11	5.29	-51.9	-63.3	3.9	5.33e-01	0	41	104	19922944	74	14185
2026-01-29 11:49:13.09	211.42	5.53	-46.4	-48.2	17.9	0.00e+00	0	41	0	25165824	64	4428
2026-01-29 11:49:16.97	211.74	5.77	-46.3	-48.0	18.1	0.00e+00	0	41	0	32505856	64	4315
2026-01-29 11:49:20.85	212.07	6.02	-46.1	-47.7	18.4	0.00e+00	0	41	0	39845888	64	4177
2026-01-29 11:49:24.73	212.40	6.26	-46.1	-47.8	18.5	0.00e+00	0	41	0	47185920	63	4451
2026-01-29 11:49:28.62	212.73	6.51	-46.1	-47.7	18.6	0.00e+00	0	41	0	54525952	63	4428
2026-01-29 11:49:32.50	213.07	6.75	-46.4	-48.2	18.1	0.00e+00	0	41	0	61865984	63	4658
2026-01-29 11:49:36.38	213.42	7.00	-46.4	-48.2	18.2	0.00e+00	0	41	0	69206016	63	4667
2026-01-29 11:49:40.25	213.77	7.25	-46.1	-47.7	18.6	0.00e+00	0	41	0	76546048	63	4429
2026-01-29 11:49:44.13	214.13	7.51	-45.9	-47.5	18.9	0.00e+00	0	41	0	83886080	63	4317
2026-01-29 11:49:48.01	214.49	7.76	-46.0	-47.5	18.9	0.00e+00	0	41	0	91226112	63	4322
2026-01-29 11:49:51.89	214.86	8.02	-45.9	-47.4	19.0	0.00e+00	0	41	0	98566144	63	4277
2026-01-29 11:49:55.77	215.24	8.27	-45.8	-47.2	19.2	0.00e+00	0	41	0	104857600	63	4190
2026-01-29 11:49:59.66	215.62	8.53	-46.1	-47.6	18.9	0.00e+00	0	41	0	112197632	63	4382
2026-01-29 11:50:03.54	216.01	8.79	-45.7	-47.1	19.3	0.00e+00	0	41	0	119537664	63	4136
2026-01-29 11:50:07.41	216.41	9.06	-45.5	-46.9	19.5	0.00e+00	0	41	0	126877696	62	4291
2026-01-29 11:50:11.30	216.81	9.32	-45.3	-46.7	19.7	0.00e+00	0	41	0	134217728	62	4171
2026-01-29 11:50:15.18	217.22	9.58	-45.2	-46.5	20.0	0.00e+00	0	41	0	141557760	62	4070
2026-01-29 11:50:19.07	217.64	9.85	-45.4	-46.8	19.7	0.00e+00	0	42	0	148897792	62	4229
2026-01-29 11:50:22.96	218.07	10.12	-45.8	-47.4	19.2	0.00e+00	0	41	0	156237824	62	4497
2026-01-29 11:50:26.84	218.50	10.39	-46.0	-47.6	19.0	0.00e+00	0	41	0	163577856	62	4628
2026-01-29 11:50:30.73	218.94	10.66	-45.8	-47.3	19.4	0.00e+00	0	41	0	170917888	62	4446
2026-01-29 11:50:34.61	219.39	10.94	-45.6	-47.0	19.6	0.00e+00	0	41	0	178257920	62	4322
2026-01-29 11:50:38.49	219.85	11.21	-45.3	-46.6	19.9	0.00e+00	0	42	0	185597952	62	4142
2026-01-29 11:50:42.37	220.31	11.49	-45.2	-46.6	20.0	0.00e+00	0	41	0	192937984	62	4101
2026-01-29 11:50:46.25	220.78	11.76	-45.3	-46.6	20.0	0.00e+00	0	42	0	200278016	62	4119
2026-01-29 11:50:50.14	221.27	12.04	-45.3	-46.7	19.9	0.00e+00	0	41	0	207618048	62	4165
2026-01-29 11:50:54.02	221.76	12.32	-45.4	-46.7	19.9	0.00e+00	0	41	0	214958080	62	4181
2026-01-29 11:50:57.89	222.25	12.61	-45.2	-46.6	20.1	0.00e+00	0	42	0	222298112	62	4102
2026-01-29 11:51:01.78	222.76	12.89	-45.3	-46.6	20.0	0.00e+00	0	42	0	228589568	62	4124
2026-01-29 11:51:05.65	223.28	13.17	-45.6	-47.1	19.6	0.00e+00	0	42	0	235929600	62	4344
2026-01-29 11:51:09.53	223.81	13.46	-45.8	-47.3	19.5	0.00e+00	0	42	0	243269632	62	4450
2026-01-29 11:51:13.42	224.35	13.74	-45.5	-46.9	19.8	0.00e+00	0	42	0	250609664	62	4277
2026-01-29 11:51:17.30	224.90	14.03	-45.1	-46.4	20.3	0.00e+00	0	42	0	257949696	62	4012
2026-01-29 11:51:21.17	225.45	14.32	-44.8	-46.1	20.5	0.00e+00	0	42	0	265289728	61	4103
2026-01-29 11:51:25.06	226.03	14.61	-44.5	-45.6	20.9	0.00e+00	0	42	0	272629760	60	4142
2026-01-29 11:51:28.94	226.61	14.90	-44.4	-45.6	21.0	0.00e+00	0	42	0	279969792	60	4127
2026-01-29 11:51:32.82	227.20	15.19	-44.6	-45.8	20.8	0.00e+00	0	42	0	287309824	60	4202
2026-01-29 11:51:36.70	227.80	15.48	-44.9	-46.2	20.6	0.00e+00	0	42	0	294649856	60	4392
2026-01-29 11:51:40.59	228.41	15.78	-45.1	-46.4	20.3	0.00e+00	0	42	0	301989888	60	4509
2026-01-29 11:51:44.47	229.04	16.07	-45.2	-46.5	20.2	0.00e+00	0	42	0	309329920	61	4309
2026-01-29 11:51:48.36	229.68	16.36	-44.6	-45.8	20.8	0.00e+00	0	42	0	316669952	61	3999
2026-01-29 11:51:52.24	230.33	16.65	-44.4	-45.5	21.4	0.00e+00	0	42	0	324009984	59	4328
2026-01-29 11:51:56.13	230.99	16.95	-44.3	-45.5	21.4	0.00e+00	0	42	0	331350016	59	4310
2026-01-29 11:52:00.01	231.67	17.24	-43.9	-45.0	21.8	0.00e+00	0	42	0	338690048	59	4060
2026-01-29 11:52:03.89	232.35	17.53	-44.2	-45.3	21.6	0.00e+00	0	42	0	346030080	59	4215
2026-01-29 11:52:07.76	233.05	17.82	-44.3	-45.5	21.1	0.00e+00	0	42	0	353370112	60	4082
2026-01-29 11:52:11.64	233.76	18.12	-44.3	-45.5	21.2	0.00e+00	0	42	0	359661568	60	4069
2026-01-29 11:52:15.52	234.49	18.41	-44.7	-46.0	20.8	0.00e+00	0	42	0	367001600	60	4308
2026-01-29 11:52:19.39	235.23	18.69	-44.1	-45.2	21.5	0.00e+00	0	42	0	374341632	60	3956
2026-01-29 11:52:23.28	235.99	18.98	-44.1	-45.2	21.8	0.00e+00	0	42	0	381681664	59	4172
2026-01-29 11:52:27.16	236.75	19.27	-43.8	-44.8	22.1	0.00e+00	0	42	0	389021696	59	3995
2026-01-29 11:52:31.04	237.54	19.55	-43.4	-44.5	22.4	0.00e+00	0	41	0	396361728	58	4054
2026-01-29 11:52:34.92	238.33	19.83	-43.4	-44.4	22.5	0.00e+00	0	42	0	403701760	58	4024
2026-01-29 11:52:38.80	239.14	20.11	-43.0	-44.0	22.7	0.00e+00	0	42	0	411041792	57	4079
2026-01-29 11:52:42.68	239.97	20.39	-43.2	-44.2	22.6	0.00e+00	0	42	0	418381824	57	4173
2026-01-29 11:52:46.55	240.80	20.67	-43.3	-44.3	22.5	0.00e+00	0	42	0	425721856	57	4237
2026-01-29 11:52:50.44	241.66	20.94	-43.3	-44.3	22.5	0.00e+00	0	42	0	433061888	57	4228
2026-01-29 11:52:54.33	242.53	21.21	-43.3	-44.3	22.5	0.00e+00	0	42	0	440401920	57	4242
2026-01-29 11:52:58.20	243.41	21.47	-43.4	-44.5	22.4	0.00e+00	0	42	0	447741952	57	4298
2026-01-29 11:53:02.08	244.31	21.73	-43.8	-44.9	22.1	0.00e+00	0	42	0	455081984	58	4254
2026-01-29 11:53:05.96	245.22	21.98	-43.8	-44.9	22.0	0.00e+00	0	42	0	462422016	58	4273
2026-01-29 11:53:09.84	246.15	22.23	-43.7	-44.7	22.2	0.00e+00	0	42	0	469762048	58	4183
2026-01-29 11:53:13.72	247.09	22.48	-44.0	-45.1	21.9	0.00e+00	0	42	0	477102080	58	4349
2026-01-29 11:53:17.60	248.05	22.72	-44.3	-45.4	21.6	0.00e+00	0	42	0	484442112	59	4270
2026-01-29 11:53:21.48	249.02	22.95	-43.9	-45.0	22.0	0.00e+00	0	42	0	490733568	59	4058
2026-01-29 11:53:25.36	250.00	23.18	-44.3	-45.4	21.6	0.00e+00	0	42	0	498073600	59	4283
2026-01-29 11:53:29.24	251.00	23.40	-44.5	-45.6	21.1	0.00e+00	0	42	0	505413632	60	4133
2026-01-29 11:53:33.12	252.01	23.61	-44.5	-45.6	21.1	0.00e+00	0	42	0	512753664	60	4130
2026-01-29 11:53:36.99	253.03	23.81	-45.0	-46.2	20.6	0.00e+00	0	42	0	520093696	60	4435
2026-01-29 11:53:40.86	254.07	24.01	-46.0	-47.5	19.4	0.00e+00	0	42	0	527433728	62	4566
2026-01-29 11:53:44.74	255.12	24.20	-45.7	-47.0	19.9	0.00e+00	0	42	0	534773760	63	4098
2026-01-29 11:53:48.61	256.18	24.38	-45.4	-46.7	20.2	0.00e+00	0	42	0	542113792	61	4407
2026-01-29 11:53:52.49	257.25	24.55	-47.1	-48.9	18.1	0.00e+00	0	42	0	549453824	64	4766
2026-01-29 11:53:56.38	258.34	24.71	-47.1	-48.9	18.1	0.00e+00	0	42	0	556793856	65	4530
2026-01-29 11:54:00.26	259.43	24.87	-46.6	-48.2	18.8	0.00e+00	0	42	0	564133888	65	4149
2026-01-29 11:54:04.15	260.54	25.01	-47.9	-50.0	17.1	0.00e+00	0	42	0	571473920	66	4827
2026-01-29 11:54:08.03	261.66	25.14	-47.1	-48.9	18.1	0.00e+00	0	42	0	578813952	65	4500
2026-01-29 11:54:11.91	262.78	25.26	-47.6	-49.5	17.6	0.00e+00	0	42	0	586153984	65	4838
2026-01-29 11:54:15.79	263.91	25.37	-46.1	-47.6	19.4	0.00e+00	0	42	0	593494016	64	4115
2026-01-29 11:54:19.67	265.05	25.47	-46.4	-48.0	19.1	0.00e+00	0	42	0	599785472	63	4552
2026-01-29 11:54:23.55	266.20	25.56	-46.5	-48.0	18.9	0.00e+00	0	42	0	607125504	64	4336
2026-01-29 11:54:27.43	267.35	25.63	-46.1	-47.5	19.6	0.00e+00	0	42	0	614465536	63	4339
2026-01-29 11:54:31.31	268.50	25.69	-44.6	-45.7	21.1	0.00e+00	0	42	0	621805568	61	3947
2026-01-29 11:54:35.19	269.66	25.75	-46.1	-47.6	19.5	0.00e+00	0	42	0	629145600	62	4603
2026-01-29 11:54:39.07	270.82	25.79	-45.0	-46.2	20.7	0.00e+00	0	42	0	636485632	61	4171
2026-01-29 11:54:42.95	271.99	25.81	-45.7	-47.1	19.9	0.00e+00	0	42	0	643825664	62	4348
2026-01-29 11:54:46.83	273.16	25.83	-45.5	-46.8	20.2	0.00e+00	0	42	0	651165696	62	4234
2026-01-29 11:54:50.72	274.33	25.83	-44.3	-45.4	21.7	0.00e+00	0	42	0	658505728	59	4260
2026-01-29 11:54:54.60	275.49	25.82	-44.8	-46.0	21.0	0.00e+00	0	42	0	665845760	60	4322
2026-01-29 11:54:58.48	276.66	25.80	-44.5	-45.6	21.3	0.00e+00	0	42	0	673185792	60	4125
2026-01-29 11:55:02.36	277.82	25.76	-45.4	-46.7	20.3	0.00e+00	0	42	0	680525824	61	4431
2026-01-29 11:55:06.25	278.98	25.71	-45.9	-47.3	19.8	0.00e+00	0	42	0	687865856	62	4493
2026-01-29 11:55:10.12	280.14	25.66	-46.0	-47.4	19.7	0.00e+00	0	42	0	695205888	63	4287
2026-01-29 11:55:14.00	281.29	25.58	-45.0	-46.2	20.8	0.00e+00	0	42	0	702545920	62	3956
2026-01-29 11:55:17.88	282.43	25.50	-44.5	-45.6	21.3	0.00e+00	0	42	0	709885952	60	4143
2026-01-29 11:55:21.76	283.57	25.41	-44.1	-45.1	21.8	0.00e+00	0	42	0	716177408	60	3906
2026-01-29 11:55:25.64	284.71	25.30	-44.2	-45.2	21.7	0.00e+00	0	42	0	723517440	60	3953
2026-01-29 11:55:29.52	285.83	25.19	-43.8	-44.9	22.3	0.00e+00	0	42	0	730857472	59	4019
2026-01-29 11:55:33.40	286.95	25.06	-44.5	-45.7	21.6	0.00e+00	0	42	0	738197504	59	4396
2026-01-29 11:55:37.28	288.05	24.92	-44.4	-45.5	21.5	0.00e+00	0	42	0	745537536	60	4093
2026-01-29 11:55:41.16	289.15	24.77	-44.1	-45.2	21.8	0.00e+00	0	42	0	752877568	60	3915
2026-01-29 11:55:45.04	290.24	24.62	-43.8	-44.8	22.4	0.00e+00	0	42	0	760217600	59	3977
2026-01-29 11:55:48.92	291.31	24.45	-43.5	-44.6	22.6	0.00e+00	0	42	0	767557632	59	3876
2026-01-29 11:55:52.81	292.38	24.27	-42.9	-43.9	23.0	0.00e+00	0	42	0	774897664	57	4016
2026-01-29 11:55:56.70	293.43	24.09	-43.3	-44.3	22.8	0.00e+00	0	42	0	782237696	57	4242
2026-01-29 11:56:00.57	294.47	23.89	-42.7	-43.6	23.4	0.00e+00	0	42	0	789577728	57	3888
2026-01-29 11:56:04.45	295.50	23.69	-43.4	-44.4	22.7	0.00e+00	0	42	0	796917760	57	4263
2026-01-29 11:56:08.32	296.51	23.48	-42.7	-43.6	23.3	0.00e+00	0	42	0	804257792	57	3896
2026-01-29 11:56:12.21	297.51	23.27	-43.4	-44.4	22.6	0.00e+00	0	42	0	811597824	57	4267
2026-01-29 11:56:16.08	298.49	23.04	-43.4	-44.4	22.7	0.00e+00	0	42	0	818937856	58	4035
2026-01-29 11:56:19.97	299.47	22.81	-43.4	-44.3	22.7	0.00e+00	0	42	0	825229312	57	4242
2026-01-29 11:56:23.84	300.42	22.58	-43.9	-44.9	22.2	0.00e+00	0	42	0	832569344	58	4290
2026-01-29 11:56:27.72	301.37	22.34	-43.9	-45.0	22.2	0.00e+00	0	42	0	839909376	58	4293
2026-01-29 11:56:31.60	302.30	22.09	-43.7	-44.8	22.3	0.00e+00	0	42	0	847249408	58	4210
2026-01-29 11:56:35.48	303.21	21.84	-44.4	-45.5	21.7	0.00e+00	0	42	0	854589440	59	4320
2026-01-29 11:56:39.37	304.11	21.58	-44.0	-45.1	22.1	0.00e+00	0	41	0	861929472	59	4102
2026-01-29 11:56:43.26	305.00	21.32	-43.5	-44.5	22.5	0.00e+00	0	42	0	869269504	58	4096
2026-01-29 11:56:47.14	305.87	21.06	-44.7	-45.9	21.0	0.00e+00	0	42	0	876609536	60	4276
2026-01-29 11:56:51.02	306.73	20.79	-44.2	-45.3	21.5	0.00e+00	0	42	0	883949568	60	3971
2026-01-29 11:56:54.90	307.57	20.52	-43.4	-44.4	22.5	0.00e+00	0	42	0	891289600	58	4032
2026-01-29 11:56:58.77	308.40	20.24	-44.6	-45.7	21.4	0.00e+00	0	42	0	898629632	59	4440
2026-01-29 11:57:02.66	309.21	19.96	-44.6	-45.8	21.1	0.00e+00	0	42	0	905969664	60	4219
2026-01-29 11:57:06.54	310.01	19.68	-44.8	-46.1	20.8	0.00e+00	0	42	0	913309696	60	4345
2026-01-29 11:57:10.44	310.80	19.40	-44.4	-45.6	21.2	0.00e+00	0	42	0	920649728	60	4099
2026-01-29 11:57:14.32	311.57	19.12	-45.0	-46.3	20.6	0.00e+00	0	42	0	927989760	60	4474
2026-01-29 11:57:18.19	312.32	18.83	-44.5	-45.7	21.2	0.00e+00	0	42	0	935329792	61	3925
2026-01-29 11:57:22.08	313.07	18.55	-43.9	-45.0	22.0	0.00e+00	0	42	0	942669824	59	4061
2026-01-29 11:57:25.97	313.80	18.26	-44.8	-46.1	20.7	0.00e+00	0	42	0	948961280	60	4367
2026-01-29 11:57:29.86	314.52	17.97	-44.4	-45.5	21.2	0.00e+00	0	42	0	956301312	60	4088
2026-01-29 11:57:33.81	315.23	17.67	-45.3	-46.6	20.3	0.00e+00	0	42	0	964689920	61	4350
2026-01-29 11:57:37.80	315.94	17.38	-45.5	-46.9	20.0	0.00e+00	0	42	0	972029952	62	4270
2026-01-29 11:57:41.81	316.64	17.08	-44.5	-45.7	21.0	0.00e+00	0	42	0	979369984	60	4175
2026-01-29 11:57:45.80	317.32	16.78	-44.7	-45.9	20.8	0.00e+00	0	42	0	986710016	60	4270
2026-01-29 11:57:49.79	317.99	16.48	-44.3	-45.5	21.5	0.00e+00	0	42	0	994050048	59	4302
2026-01-29 11:57:53.78	318.65	16.18	-44.4	-45.6	21.1	0.00e+00	0	42	0	1001390080	60	4110
2026-01-29 11:57:57.76	319.29	15.88	-45.3	-46.7	20.1	0.00e+00	0	42	0	1008730112	61	4397
2026-01-29 11:58:01.77	319.92	15.58	-44.3	-45.5	21.1	0.00e+00	0	42	0	1017118720	60	4086
2026-01-29 11:58:05.79	320.55	15.28	-44.7	-45.9	20.7	0.00e+00	0	42	0	1024458752	60	4279
2026-01-29 11:58:09.82	321.16	14.98	-44.7	-45.9	20.7	0.00e+00	0	42	0	1031798784	60	4259
2026-01-29 11:58:13.85	321.76	14.68	-44.1	-45.3	21.3	0.00e+00	0	42	0	1039138816	60	3974
2026-01-29 11:58:17.88	322.35	14.38	-45.6	-47.0	19.7	0.00e+00	0	41	0	1046478848	61	4579
2026-01-29 11:58:21.91	322.93	14.09	-45.7	-47.1	19.6	0.00e+00	0	42	0	1054867456	62	4375
2026-01-29 11:58:25.94	323.50	13.79	-45.2	-46.6	20.0	0.00e+00	0	42	0	1062207488	62	4126
2026-01-29 11:58:29.96	324.05	13.50	-44.9	-46.2	20.3	0.00e+00	0	42	0	1069547520	61	4174
2026-01-29 11:58:33.99	324.60	13.20	-44.4	-45.6	20.8	0.00e+00	0	42	0	1076887552	60	4138
2026-01-29 11:58:38.02	325.13	12.91	-44.4	-45.6	21.2	0.00e+00	0	42	0	1084227584	59	4362
2026-01-29 11:58:42.05	325.66	12.62	-44.4	-45.6	20.9	0.00e+00	0	42	0	1092616192	60	4124
2026-01-29 11:58:46.07	326.17	12.33	-45.0	-46.3	20.1	0.00e+00	0	42	0	1099956224	60	4480
2026-01-29 11:58:50.10	326.68	12.04	-44.9	-46.3	20.2	0.00e+00	0	42	0	1107296256	61	4199
2026-01-29 11:58:54.13	327.18	11.75	-44.7	-46.0	20.4	0.00e+00	0	42	0	1114636288	61	4082
2026-01-29 11:58:58.16	327.66	11.47	-44.9	-46.2	20.3	0.00e+00	0	42	0	1121976320	61	4174
2026-01-29 11:59:02.17	328.14	11.18	-45.2	-46.5	19.9	0.00e+00	0	42	0	1130364928	61	4336
2026-01-29 11:59:06.20	328.61	10.90	-45.0	-46.4	20.0	0.00e+00	0	42	0	1137704960	61	4264
2026-01-29 11:59:10.22	329.07	10.62	-45.2	-46.6	19.8	0.00e+00	0	42	0	1145044992	61	4353
2026-01-29 11:59:14.24	329.52	10.34	-45.5	-46.9	19.5	0.00e+00	0	42	0	1152385024	61	4539
2026-01-29 11:59:18.24	329.96	10.07	-46.2	-47.8	18.7	0.00e+00	0	42	0	1159725056	62	4726
2026-01-29 11:59:22.27	330.40	9.79	-46.1	-47.7	18.7	0.00e+00	0	42	0	1167065088	62	4691
2026-01-29 11:59:26.29	330.83	9.52	-45.9	-47.4	18.9	0.00e+00	0	42	0	1175453696	62	4542
2026-01-29 11:59:30.32	331.25	9.25	-45.7	-47.2	19.1	0.00e+00	0	42	0	1182793728	62	4421
2026-01-29 11:59:34.33	331.66	8.98	-45.7	-47.2	19.1	0.00e+00	0	42	0	1190133760	62	4424
2026-01-29 11:59:38.36	332.07	8.71	-45.7	-47.2	19.1	0.00e+00	0	42	0	1197473792	62	4412
2026-01-29 11:59:42.39	332.47	8.44	-45.4	-46.9	19.3	0.00e+00	0	42	0	1205862400	62	4278
2026-01-29 11:59:46.42	332.86	8.18	-45.2	-46.6	19.6	0.00e+00	0	42	0	1213202432	62	4120
2026-01-29 11:59:50.45	333.25	7.91	-45.4	-46.9	19.3	0.00e+00	0	42	0	1220542464	61	4517
2026-01-29 11:59:54.48	333.63	7.65	-46.0	-47.6	18.6	0.00e+00	0	42	0	1227882496	62	4626
2026-01-29 11:59:58.51	334.00	7.39	-46.6	-48.4	17.8	0.00e+00	0	42	0	1235222528	63	4791
2026-01-29 12:00:02.54	334.37	7.13	-46.7	-48.6	17.6	0.00e+00	0	42	0	1243611136	64	4650
2026-01-29 12:00:06.55	334.73	6.87	-46.2	-47.9	18.1	0.00e+00	0	42	0	1250951168	64	4287
2026-01-29 12:00:10.58	335.08	6.62	-46.1	-47.8	18.4	0.00e+00	0	42	0	1258291200	63	4443
2026-01-29 12:00:14.60	335.43	6.37	-45.8	-47.4	18.6	0.00e+00	0	42	0	1265631232	63	4259
2026-01-29 12:00:18.62	335.77	6.11	-46.4	-48.2	17.9	1.50e-06	0	42	0	1272971264	63	4653
2026-01-29 12:00:22.66	336.11	5.86	-46.5	-48.4	17.5	0.00e+00	0	42	0	1280311296	64	4534
2026-01-29 12:00:26.69	336.45	5.61	-47.0	-49.1	16.8	0.00e+00	0	42	0	1288699904	64	4892
2026-01-29 12:00:30.71	336.77	5.37	-46.5	-48.5	17.4	0.00e+00	0	42	0	1296039936	64	4550
2026-01-29 12:00:34.74	337.09	5.12	-46.4	-48.3	17.5	0.00e+00	0	42	0	1303379968	64	4462
2026-01-29 12:00:38.77	337.41	4.88	-52.9	-67.9	3.8	1.49e+00	0	42	104	1307574272	76	21428
2026-01-29 12:00:42.80	337.72	4.63	-53.5	-68.5	3.8	1.49e+00	0	42	104	1307574272	77	21624
2026-01-29 12:00:46.83	338.03	4.39	-53.5	-68.5	3.8	1.49e+00	0	42	104	1307574272	77	21705
2026-01-29 12:00:50.85	338.33	4.15	-53.3	-68.2	3.8	1.49e+00	0	42	104	1307574272	77	20995
2026-01-29 12:00:54.89	338.63	3.92	-53.4	-68.4	3.8	1.49e+00	0	42	104	1307574272	77	21331
2026-01-29 12:00:58.92	338.93	3.68	-53.4	-68.4	3.8	1.49e+00	0	42	104	1307574272	77	21344
2026-01-29 12:01:02.94	339.22	3.44	-53.3	-68.3	3.8	1.49e+00	0	42	104	1307574272	77	21087
2026-01-29 12:01:06.98	339.50	3.21	-53.3	-68.2	3.8	1.49e+00	0	42	104	1307574272	77	21004
2026-01-29 12:01:11.01	339.78	2.98	-53.2	-68.2	3.8	1.49e+00	0	42	104	1307574272	77	20930
2026-01-29 12:01:15.05	340.06	2.75	-53.2	-68.2	3.8	1.49e+00	0	42	104	1307574272	77	20889
2026-01-29 12:01:19.07	340.33	2.52	-53.2	-68.2	3.8	1.49e+00	0	42	104	1307574272	77	20799
2026-01-29 12:01:23.11	340.60	2.29	-53.2	-68.2	3.8	1.49e+00	0	42	104	1307574272	77	20783
2026-01-29 12:01:27.14	340.87	2.06	-53.2	-68.1	3.8	1.49e+00	0	42	104	1307574272	77	20751

#Closed at: 2026-01-29 12:01:29
#Recorded file [1307 MB]: D:/lorett/data/31041_260129_144814.dat