passes_logs/2026/01/29/R3.2S_Murmansk/R3.2S_Murmansk__20260129_024559_FENGYUN_3D_rec.log

#Pass ID: 20260129_024559_FENGYUN 3D
#Satellite: FENGYUN 3D
#Configuration: FENGYUN 3D
#almurnet v.1.7.20251203
#Start time: 2026-01-29 02:45:59

#Version: 2.2.20231116
#Station: R3.2S_Murmansk
#Location: 33.079688 lon 68.888172 lat
#TLE: 1 43010U 17072A   26027.97130493  .00000326  00000+0  17586-3 0  9998
#TLE: 2 43010  98.9960 359.9900 0002514  87.8428 272.3036 14.19701925425097

#Time	Az	El	Level	Level2	SNR	BER	BlckErr	Temp	State	Recorded	gain1	gain2
2026-01-29 02:45:59.41	25.01	1.99	-53.9	-65.9	3.8	8.46e-01	0	40	0	0	78	15104
2026-01-29 02:46:03.42	25.03	2.25	-54.0	-66.0	3.8	8.45e-01	0	40	104	0	78	15253
2026-01-29 02:46:07.45	25.05	2.51	-54.1	-66.1	3.8	8.46e-01	0	40	104	0	78	15476
2026-01-29 02:46:11.49	25.07	2.78	-54.1	-66.0	3.8	8.48e-01	0	40	104	0	79	14532
2026-01-29 02:46:15.52	25.09	3.04	-54.0	-66.0	3.8	8.46e-01	0	41	104	0	79	14452
2026-01-29 02:46:19.55	25.11	3.31	-53.6	-65.6	3.8	8.46e-01	0	41	104	0	79	13773
2026-01-29 02:46:23.59	25.13	3.58	-52.8	-64.7	3.8	8.46e-01	0	41	104	0	77	14030
2026-01-29 02:46:27.62	25.15	3.85	-50.5	-56.1	6.4	3.04e-01	0	41	0	5242880	73	6526
2026-01-29 02:46:31.66	25.17	4.13	-48.7	-51.8	10.7	5.91e-03	0	41	0	27262976	69	5039
2026-01-29 02:46:35.69	25.20	4.41	-48.4	-51.2	11.4	1.28e-03	0	41	0	50331648	68	4975
2026-01-29 02:46:39.72	25.22	4.69	-49.6	-53.6	8.9	2.66e-02	0	41	0	73400320	69	6141
2026-01-29 02:46:43.75	25.24	4.98	-51.3	-60.0	4.2	8.20e-01	0	41	0	88080384	73	10271
2026-01-29 02:46:47.79	25.26	5.27	-51.5	-61.5	3.8	4.34e-01	0	41	104	97517568	74	11525
2026-01-29 02:46:51.82	25.28	5.56	-44.2	-45.4	17.8	0.00e+00	0	41	0	112197632	59	4273
2026-01-29 02:46:55.85	25.30	5.85	-43.6	-44.8	18.6	0.00e+00	0	41	0	134217728	58	4194
2026-01-29 02:46:59.88	25.32	6.15	-43.0	-44.0	19.3	0.00e+00	0	41	0	157286400	57	4091
2026-01-29 02:47:03.92	25.34	6.45	-42.7	-43.8	19.7	0.00e+00	0	41	0	180355072	57	3968
2026-01-29 02:47:07.95	25.37	6.76	-42.5	-43.6	19.9	0.00e+00	0	41	0	202375168	57	3870
2026-01-29 02:47:11.98	25.39	7.06	-42.3	-43.3	20.1	0.00e+00	0	42	0	224395264	56	3990
2026-01-29 02:47:16.01	25.41	7.38	-42.3	-43.3	20.2	0.00e+00	0	42	0	247463936	56	3989
2026-01-29 02:47:20.05	25.43	7.69	-42.1	-43.1	20.4	0.00e+00	0	42	0	270532608	56	3900
2026-01-29 02:47:24.09	25.45	8.01	-42.1	-43.0	20.5	0.00e+00	0	42	0	292552704	56	3857
2026-01-29 02:47:28.12	25.48	8.34	-41.9	-42.8	20.7	0.00e+00	0	42	0	315621376	55	3987
2026-01-29 02:47:32.15	25.50	8.67	-41.8	-42.7	20.8	0.00e+00	0	42	0	338690048	55	3958
2026-01-29 02:47:36.18	25.52	9.00	-41.7	-42.6	20.9	0.00e+00	0	42	0	360710144	55	3906
2026-01-29 02:47:40.22	25.54	9.34	-41.6	-42.5	21.0	0.00e+00	0	42	0	383778816	55	3859
2026-01-29 02:47:44.26	25.56	9.68	-41.8	-42.7	20.9	0.00e+00	0	42	0	406847488	55	3936
2026-01-29 02:47:48.30	25.59	10.03	-41.5	-42.4	21.2	0.00e+00	0	42	0	428867584	55	3793
2026-01-29 02:47:52.33	25.61	10.38	-41.4	-42.3	21.3	0.00e+00	0	42	0	451936256	54	3969
2026-01-29 02:47:56.36	25.63	10.74	-41.3	-42.2	21.5	0.00e+00	0	42	0	475004928	54	3921
2026-01-29 02:48:00.40	25.66	11.10	-41.4	-42.3	21.4	0.00e+00	0	42	0	497025024	54	3974
2026-01-29 02:48:04.43	25.68	11.47	-41.4	-42.3	21.4	0.00e+00	0	42	0	520093696	54	3963
2026-01-29 02:48:08.47	25.70	11.84	-41.2	-42.1	21.6	0.00e+00	0	42	0	543162368	54	3871
2026-01-29 02:48:12.50	25.73	12.22	-41.2	-42.1	21.7	0.00e+00	0	42	0	565182464	54	3878
2026-01-29 02:48:16.53	25.75	12.61	-41.0	-41.8	21.9	0.00e+00	0	42	0	588251136	53	3986
2026-01-29 02:48:20.57	25.77	13.00	-40.9	-41.7	22.0	0.00e+00	0	42	0	611319808	53	3947
2026-01-29 02:48:24.60	25.80	13.40	-40.9	-41.7	22.1	0.00e+00	0	42	0	633339904	53	3928
2026-01-29 02:48:28.63	25.82	13.80	-40.5	-41.4	22.4	0.00e+00	0	42	0	656408576	53	3783
2026-01-29 02:48:32.65	25.84	14.21	-40.5	-41.3	22.5	0.00e+00	0	42	0	678428672	53	3750
2026-01-29 02:48:36.69	25.87	14.63	-40.3	-41.1	22.6	0.00e+00	0	42	0	701497344	52	3904
2026-01-29 02:48:40.72	25.89	15.06	-40.3	-41.1	22.7	0.00e+00	0	42	0	724566016	52	3880
2026-01-29 02:48:44.76	25.92	15.49	-40.1	-40.9	22.9	0.00e+00	0	42	0	746586112	52	3817
2026-01-29 02:48:48.79	25.94	15.93	-40.1	-40.9	22.9	0.00e+00	0	42	0	769654784	52	3785
2026-01-29 02:48:52.83	25.97	16.38	-40.1	-40.8	23.0	0.00e+00	0	42	0	792723456	51	4004
2026-01-29 02:48:56.86	25.99	16.84	-40.0	-40.8	23.1	0.00e+00	0	42	0	814743552	51	3976
2026-01-29 02:49:00.90	26.02	17.31	-39.9	-40.7	23.3	0.00e+00	0	42	0	837812224	51	3918
2026-01-29 02:49:04.93	26.05	17.79	-39.7	-40.4	23.5	0.00e+00	0	42	0	860880896	51	3816
2026-01-29 02:49:08.96	26.07	18.27	-39.5	-40.3	23.6	0.00e+00	0	42	0	882900992	50	3974
2026-01-29 02:49:12.99	26.10	18.77	-39.3	-40.1	23.8	0.00e+00	0	42	0	905969664	50	3874
2026-01-29 02:49:17.02	26.13	19.27	-38.9	-39.7	24.2	0.00e+00	0	42	0	929038336	49	3919
2026-01-29 02:49:21.06	26.15	19.79	-38.9	-39.6	24.3	0.00e+00	0	42	0	951058432	49	3881
2026-01-29 02:49:25.09	26.18	20.32	-38.7	-39.4	24.4	0.00e+00	0	42	0	974127104	49	3822
2026-01-29 02:49:29.12	26.21	20.85	-38.6	-39.3	24.6	0.00e+00	0	42	0	997195776	49	3761
2026-01-29 02:49:33.15	26.24	21.40	-38.6	-39.3	24.6	0.00e+00	0	42	0	1019215872	49	3771
2026-01-29 02:49:37.18	26.27	21.97	-38.7	-39.5	24.4	0.00e+00	0	42	0	1041235968	49	3828
2026-01-29 02:49:41.21	26.29	22.54	-38.7	-39.5	24.4	0.00e+00	0	42	0	1064304640	49	3832
2026-01-29 02:49:45.24	26.32	23.13	-38.5	-39.2	24.6	0.00e+00	0	42	0	1087373312	48	3945
2026-01-29 02:49:49.27	26.35	23.73	-38.3	-39.1	24.8	0.00e+00	0	42	0	1109393408	48	3869
2026-01-29 02:49:53.30	26.38	24.35	-38.4	-39.2	24.8	0.00e+00	0	42	0	1132462080	48	3917
2026-01-29 02:49:57.34	26.42	24.98	-38.2	-38.9	25.0	0.00e+00	0	42	0	1155530752	48	3791
2026-01-29 02:50:01.37	26.45	25.63	-38.2	-38.9	25.0	0.00e+00	0	42	0	1177550848	48	3791
2026-01-29 02:50:05.41	26.48	26.29	-38.2	-38.9	25.0	0.00e+00	0	42	0	1200619520	48	3793
2026-01-29 02:50:09.44	26.51	26.97	-38.1	-38.8	25.2	0.00e+00	0	42	0	1223688192	48	3744
2026-01-29 02:50:13.47	26.55	27.67	-37.6	-38.3	25.1	0.00e+00	0	42	0	1245708288	47	3758
2026-01-29 02:50:17.50	26.58	28.38	-37.4	-38.1	25.3	0.00e+00	0	42	0	1268776960	46	3889
2026-01-29 02:50:21.53	26.62	29.12	-37.9	-38.6	24.9	0.00e+00	0	42	0	1291845632	46	4116
2026-01-29 02:50:25.57	26.65	29.87	-37.9	-38.7	24.9	0.00e+00	0	42	0	1313865728	46	4146
2026-01-29 02:50:29.61	26.69	30.65	-38.0	-38.7	24.8	0.00e+00	0	42	0	1336934400	46	4186
2026-01-29 02:50:33.63	26.73	31.44	-38.0	-38.7	24.8	0.00e+00	0	42	0	1360003072	46	4183
2026-01-29 02:50:37.66	26.77	32.26	-37.6	-38.3	25.2	0.00e+00	0	42	0	1382023168	46	3986
2026-01-29 02:50:41.70	26.81	33.10	-37.3	-38.0	25.5	0.00e+00	0	42	0	1404043264	46	3854
2026-01-29 02:50:45.74	26.85	33.97	-37.5	-38.2	25.3	0.00e+00	0	42	0	1427111936	46	3930
2026-01-29 02:50:49.77	26.90	34.86	-37.4	-38.1	25.4	0.00e+00	0	42	0	1450180608	46	3905
2026-01-29 02:50:53.81	26.94	35.78	-37.4	-38.1	25.4	0.00e+00	0	42	0	1472200704	46	3897
2026-01-29 02:50:57.85	26.99	36.73	-37.2	-37.9	25.7	0.00e+00	0	42	0	1495269376	46	3787
2026-01-29 02:51:01.89	27.04	37.70	-37.1	-37.8	25.7	0.00e+00	0	42	0	1518338048	46	3743
2026-01-29 02:51:05.92	27.09	38.70	-37.5	-38.2	25.4	0.00e+00	0	42	0	1541406720	46	3929
2026-01-29 02:51:09.96	27.14	39.74	-37.1	-37.8	25.7	0.00e+00	0	42	0	1563426816	46	3764
2026-01-29 02:51:13.99	27.19	40.80	-37.6	-38.3	25.4	0.00e+00	0	42	0	1586495488	46	3966
2026-01-29 02:51:18.03	27.25	41.90	-37.4	-38.1	25.5	0.00e+00	0	42	0	1609564160	46	3888
2026-01-29 02:51:22.06	27.31	43.03	-37.8	-38.6	25.2	0.00e+00	0	42	0	1631584256	46	4099
2026-01-29 02:51:26.09	27.38	44.19	-37.7	-38.4	25.3	0.00e+00	0	42	0	1654652928	46	4045
2026-01-29 02:51:30.12	27.44	45.39	-38.4	-39.2	24.6	0.00e+00	0	42	0	1677721600	47	4155
2026-01-29 02:51:34.16	27.52	46.63	-38.0	-38.7	25.0	0.00e+00	0	42	0	1699741696	47	3953
2026-01-29 02:51:38.19	27.59	47.91	-37.6	-38.3	25.4	0.00e+00	0	42	0	1722810368	47	3776
2026-01-29 02:51:42.21	27.67	49.22	-37.8	-38.5	25.2	0.00e+00	0	42	0	1744830464	47	3849
2026-01-29 02:51:46.25	27.76	50.58	-38.3	-39.1	24.7	0.00e+00	0	42	0	1767899136	47	4107
2026-01-29 02:51:50.28	27.85	51.98	-38.3	-39.0	24.8	0.00e+00	0	42	0	1789919232	47	4060
2026-01-29 02:51:54.31	27.96	53.41	-39.2	-39.9	24.6	0.00e+00	0	42	0	1812987904	48	4252
2026-01-29 02:51:58.34	28.07	54.89	-39.2	-39.9	24.6	0.00e+00	0	42	0	1836056576	49	4050
2026-01-29 02:52:02.37	28.19	56.41	-39.3	-40.0	24.5	0.00e+00	0	42	0	1858076672	49	4091
2026-01-29 02:52:06.39	28.32	57.98	-39.2	-39.9	24.5	0.00e+00	0	42	0	1881145344	49	4051
2026-01-29 02:52:10.41	28.47	59.58	-38.9	-39.6	24.9	0.00e+00	0	42	0	1903165440	49	3894
2026-01-29 02:52:14.44	28.64	61.23	-38.3	-39.1	25.3	0.00e+00	0	42	0	1926234112	48	3875
2026-01-29 02:52:18.47	28.83	62.93	-37.3	-38.0	25.8	0.00e+00	0	42	0	1949302784	46	3860
2026-01-29 02:52:22.51	29.04	64.66	-37.6	-38.3	25.5	0.00e+00	0	42	0	1971322880	46	3996
2026-01-29 02:52:26.55	29.29	66.45	-37.0	-37.7	26.0	0.00e+00	0	42	0	1994391552	45	3937
2026-01-29 02:52:30.58	29.58	68.26	-37.3	-38.0	25.8	0.00e+00	0	42	0	2017460224	45	4057
2026-01-29 02:52:34.61	29.93	70.11	-37.4	-38.1	25.7	0.00e+00	0	42	0	2039480320	45	4112
2026-01-29 02:52:38.64	30.35	72.00	-37.0	-37.7	26.1	0.00e+00	0	42	0	2062548992	45	3946
2026-01-29 02:52:42.67	30.87	73.93	-36.4	-37.1	26.5	0.00e+00	0	42	0	2085617664	44	3898
2026-01-29 02:52:46.71	31.54	75.88	-36.3	-36.9	26.7	0.00e+00	0	42	0	2107637760	44	3820
2026-01-29 02:52:50.74	32.43	77.86	-36.5	-37.2	26.4	0.00e+00	0	42	0	2130706432	43	4189
2026-01-29 02:52:54.76	33.66	79.85	-35.5	-36.2	27.2	0.00e+00	0	42	0	2152726528	42	3922
2026-01-29 02:52:58.79	35.51	81.86	-35.3	-36.0	27.4	0.00e+00	0	42	0	2175795200	42	3842
2026-01-29 02:53:02.82	38.59	83.88	-35.2	-35.9	27.4	0.00e+00	0	42	0	2198863872	41	4020
2026-01-29 02:53:06.86	44.71	85.88	-35.0	-35.7	27.6	0.00e+00	0	42	0	2220883968	41	3935
2026-01-29 02:53:10.89	61.49	87.75	-35.4	-36.0	27.3	0.00e+00	0	42	0	2243952640	41	4098
2026-01-29 02:53:14.92	126.61	88.69	-35.5	-36.1	27.2	0.00e+00	0	42	0	2267021312	42	3899
2026-01-29 02:53:18.94	177.17	87.36	-35.5	-36.1	27.3	0.00e+00	0	42	0	2289041408	42	3893
2026-01-29 02:53:22.97	190.06	85.44	-35.6	-36.2	27.2	0.00e+00	0	42	0	2312110080	42	3941
2026-01-29 02:53:27.01	195.21	83.43	-35.0	-35.7	27.6	0.00e+00	0	42	0	2334130176	42	3709
2026-01-29 02:53:31.04	197.93	81.42	-34.9	-35.5	27.7	0.00e+00	0	42	0	2357198848	41	3853
2026-01-29 02:53:35.07	199.61	79.41	-35.4	-36.1	27.4	0.00e+00	0	42	0	2380267520	41	4117
2026-01-29 02:53:39.10	200.76	77.41	-35.5	-36.1	27.4	0.00e+00	0	42	0	2402287616	41	4130
2026-01-29 02:53:43.13	201.59	75.44	-35.8	-36.5	27.0	0.00e+00	0	42	0	2425356288	42	4076
2026-01-29 02:53:47.16	202.22	73.49	-36.1	-36.7	26.9	0.00e+00	0	42	0	2448424960	43	3956
2026-01-29 02:53:51.20	202.72	71.57	-36.9	-37.5	26.3	0.00e+00	0	42	0	2470445056	44	4096
2026-01-29 02:53:55.24	203.12	69.68	-37.2	-37.9	26.0	0.00e+00	0	42	0	2493513728	45	4038
2026-01-29 02:53:59.27	203.45	67.83	-37.2	-37.9	26.0	0.00e+00	0	42	0	2515533824	45	4037
2026-01-29 02:54:03.30	203.73	66.02	-37.4	-38.1	25.8	0.00e+00	0	42	0	2538602496	45	4111
2026-01-29 02:54:07.33	203.97	64.25	-37.3	-38.0	25.9	0.00e+00	0	42	0	2561671168	45	4058
2026-01-29 02:54:11.36	204.18	62.52	-37.3	-38.0	25.9	0.00e+00	0	42	0	2583691264	45	4067
2026-01-29 02:54:15.40	204.36	60.83	-37.7	-38.4	25.5	0.00e+00	0	42	0	2606759936	46	4012
2026-01-29 02:54:19.43	204.52	59.19	-38.4	-39.1	24.9	0.00e+00	0	42	0	2629828608	47	4130
2026-01-29 02:54:23.47	204.67	57.58	-38.6	-39.4	24.7	0.00e+00	0	42	0	2651848704	47	4249
2026-01-29 02:54:27.51	204.80	56.02	-39.6	-40.3	24.3	0.00e+00	0	42	0	2674917376	49	4225
2026-01-29 02:54:31.55	204.92	54.50	-39.0	-39.7	24.9	0.00e+00	0	42	0	2697986048	49	3914
2026-01-29 02:54:35.57	205.02	53.03	-39.0	-39.7	24.9	0.00e+00	0	42	0	2720006144	49	3941
2026-01-29 02:54:39.60	205.12	51.60	-38.9	-39.6	24.9	0.00e+00	0	42	0	2743074816	49	3903
2026-01-29 02:54:43.63	205.22	50.21	-38.5	-39.3	25.2	0.00e+00	0	42	0	2766143488	49	3742
2026-01-29 02:54:47.64	205.30	48.87	-38.4	-39.1	25.3	0.00e+00	0	42	0	2788163584	48	3883
2026-01-29 02:54:51.68	205.38	47.55	-38.8	-39.5	25.0	0.00e+00	0	42	0	2811232256	48	4089
2026-01-29 02:54:55.70	205.45	46.29	-38.3	-38.9	25.4	0.00e+00	0	42	0	2833252352	48	3824
2026-01-29 02:54:59.73	205.52	45.06	-38.1	-38.8	25.6	0.00e+00	0	42	0	2856321024	48	3746
2026-01-29 02:55:03.76	205.59	43.86	-37.4	-38.0	25.7	0.00e+00	0	42	0	2878341120	46	3863
2026-01-29 02:55:07.79	205.65	42.70	-37.5	-38.2	25.5	0.00e+00	0	42	0	2901409792	46	3958
2026-01-29 02:55:11.82	205.71	41.58	-37.7	-38.4	25.4	0.00e+00	0	42	0	2924478464	46	4038
2026-01-29 02:55:15.84	205.77	40.49	-37.3	-38.0	25.7	0.00e+00	0	42	0	2946498560	46	3852
2026-01-29 02:55:19.86	205.82	39.43	-37.3	-38.0	25.7	0.00e+00	0	42	0	2969567232	46	3842
2026-01-29 02:55:23.89	205.87	38.41	-36.9	-37.6	26.0	0.00e+00	0	42	0	2991587328	45	3881
2026-01-29 02:55:27.91	205.92	37.41	-37.0	-37.7	26.0	0.00e+00	0	42	0	3014656000	45	3917
2026-01-29 02:55:31.94	205.97	36.44	-37.8	-38.6	25.1	0.00e+00	0	42	0	3037724672	46	4110
2026-01-29 02:55:35.98	206.01	35.50	-37.9	-38.7	25.0	0.00e+00	0	42	0	3059744768	46	4172
2026-01-29 02:55:40.01	206.06	34.59	-37.7	-38.4	25.3	0.00e+00	0	42	0	3082813440	46	4019
2026-01-29 02:55:44.05	206.10	33.70	-37.7	-38.4	25.2	0.00e+00	0	42	0	3105882112	46	4048
2026-01-29 02:55:48.09	206.14	32.83	-37.9	-38.6	25.0	0.00e+00	0	42	0	3127902208	46	4136
2026-01-29 02:55:52.12	206.18	31.99	-38.0	-38.7	24.9	0.00e+00	0	42	0	3150970880	46	4179
2026-01-29 02:55:56.15	206.22	31.18	-37.7	-38.5	25.2	0.00e+00	0	42	0	3174039552	46	4057
2026-01-29 02:56:00.18	206.25	30.39	-37.5	-38.2	25.3	0.00e+00	0	42	0	3196059648	46	3948
2026-01-29 02:56:04.21	206.29	29.61	-37.4	-38.1	25.4	0.00e+00	0	42	0	3218079744	46	3902
2026-01-29 02:56:08.25	206.32	28.86	-37.5	-38.2	25.3	0.00e+00	0	42	0	3241148416	46	3943
2026-01-29 02:56:12.28	206.36	28.13	-37.5	-38.2	25.3	0.00e+00	0	42	0	3264217088	46	3944
2026-01-29 02:56:16.32	206.39	27.41	-37.6	-38.3	25.2	0.00e+00	0	42	0	3287285760	46	3993
2026-01-29 02:56:20.34	206.42	26.72	-37.4	-38.1	25.4	0.00e+00	0	42	0	3309305856	46	3890
2026-01-29 02:56:24.38	206.46	26.04	-37.6	-38.3	25.2	0.00e+00	0	42	0	3332374528	46	3987
2026-01-29 02:56:28.41	206.49	25.38	-37.9	-38.6	24.9	0.00e+00	0	42	0	3354394624	46	4113
2026-01-29 02:56:32.45	206.52	24.74	-38.1	-38.8	24.7	0.00e+00	0	42	0	3377463296	46	4239
2026-01-29 02:56:36.48	206.55	24.11	-38.1	-38.9	24.7	0.00e+00	0	42	0	3400531968	47	4011
2026-01-29 02:56:40.52	206.58	23.49	-38.3	-39.0	24.5	0.00e+00	0	42	0	3423600640	47	4074
2026-01-29 02:56:44.55	206.60	22.89	-38.3	-39.0	24.5	0.00e+00	0	42	0	3445620736	47	4087
2026-01-29 02:56:48.59	206.63	22.30	-38.4	-39.1	24.4	0.00e+00	0	42	0	3468689408	47	4122
2026-01-29 02:56:52.63	206.66	21.73	-38.6	-39.3	24.2	0.00e+00	0	42	0	3491758080	47	4232
2026-01-29 02:56:56.66	206.69	21.17	-38.6	-39.3	24.2	0.00e+00	0	42	0	3513778176	47	4218
2026-01-29 02:57:00.69	206.71	20.62	-39.0	-39.8	24.2	0.00e+00	0	42	0	3536846848	48	4195
2026-01-29 02:57:04.72	206.74	20.08	-39.1	-39.8	24.1	0.00e+00	0	42	0	3559915520	48	4237
2026-01-29 02:57:08.75	206.76	19.56	-39.2	-39.9	24.1	0.00e+00	0	42	0	3581935616	49	4020
2026-01-29 02:57:12.77	206.79	19.05	-39.3	-40.0	23.9	0.00e+00	0	42	0	3603955712	49	4095
2026-01-29 02:57:16.81	206.82	18.54	-39.4	-40.2	23.8	0.00e+00	0	42	0	3627024384	49	4149
2026-01-29 02:57:20.85	206.84	18.05	-39.6	-40.3	23.6	0.00e+00	0	42	0	3650093056	49	4238
2026-01-29 02:57:24.88	206.86	17.56	-39.8	-40.6	23.4	0.00e+00	0	42	0	3672113152	50	4125
2026-01-29 02:57:28.90	206.89	17.09	-39.9	-40.6	23.3	0.00e+00	0	42	0	3695181824	50	4139
2026-01-29 02:57:32.93	206.91	16.62	-40.1	-40.9	23.1	0.00e+00	0	42	0	3718250496	50	4244
2026-01-29 02:57:36.96	206.94	16.17	-40.1	-40.9	23.0	0.00e+00	0	42	0	3740270592	50	4284
2026-01-29 02:57:40.99	206.96	15.72	-40.3	-41.1	22.9	0.00e+00	0	42	0	3763339264	51	4111
2026-01-29 02:57:45.01	206.98	15.28	-40.3	-41.1	22.8	0.00e+00	0	42	0	3785359360	51	4137
2026-01-29 02:57:49.05	207.00	14.84	-40.5	-41.3	22.6	0.00e+00	0	42	0	3808428032	51	4223
2026-01-29 02:57:53.08	207.03	14.42	-40.6	-41.4	22.4	0.00e+00	0	42	0	3831496704	52	4037
2026-01-29 02:57:57.11	207.05	14.00	-40.5	-41.3	22.5	0.00e+00	0	42	0	3853516800	52	4003
2026-01-29 02:58:01.15	207.07	13.59	-40.6	-41.4	22.4	0.00e+00	0	42	0	3876585472	52	4017
2026-01-29 02:58:05.18	207.09	13.19	-40.6	-41.4	22.3	0.00e+00	0	42	0	3899654144	52	4051
2026-01-29 02:58:09.20	207.11	12.79	-40.6	-41.4	22.3	0.00e+00	0	42	0	3921674240	52	4041
2026-01-29 02:58:13.23	207.14	12.40	-40.7	-41.6	22.2	0.00e+00	0	42	0	3944742912	52	4104
2026-01-29 02:58:17.27	207.16	12.01	-40.8	-41.6	22.1	0.00e+00	0	42	0	3966763008	52	4128
2026-01-29 02:58:21.30	207.18	11.64	-40.9	-41.8	21.9	0.00e+00	0	42	0	3989831680	52	4206
2026-01-29 02:58:25.33	207.20	11.26	-41.0	-41.9	21.8	0.00e+00	0	42	0	4012900352	52	4250
2026-01-29 02:58:29.36	207.22	10.90	-41.2	-42.0	21.6	0.00e+00	0	42	0	4034920448	53	4095
2026-01-29 02:58:33.40	207.24	10.53	-41.1	-42.0	21.6	0.00e+00	0	42	0	4057989120	53	4082
2026-01-29 02:58:37.43	207.26	10.18	-41.3	-42.2	21.4	0.00e+00	0	42	0	4081057792	53	4186
2026-01-29 02:58:41.47	207.28	9.82	-41.4	-42.3	21.3	0.00e+00	0	42	0	4103077888	53	4226
2026-01-29 02:58:45.50	207.30	9.48	-41.5	-42.4	21.2	0.00e+00	0	42	0	4126146560	53	4284
2026-01-29 02:58:49.53	207.32	9.14	-41.6	-42.5	21.1	0.00e+00	0	42	0	4149215232	53	4314
2026-01-29 02:58:53.56	207.34	8.80	-41.7	-42.6	20.9	0.00e+00	0	42	0	4171235328	54	4128
2026-01-29 02:58:57.59	207.36	8.47	-41.7	-42.7	20.9	0.00e+00	0	42	0	4194304000	54	4149
2026-01-29 02:59:01.63	207.38	8.14	-42.1	-43.1	20.5	0.00e+00	0	42	0	4217372672	54	4342
2026-01-29 02:59:05.65	207.40	7.81	-42.1	-43.1	20.4	0.00e+00	0	42	0	4239392768	55	4124
2026-01-29 02:59:09.68	207.42	7.49	-42.2	-43.1	20.3	0.00e+00	0	42	0	4262461440	55	4139
2026-01-29 02:59:13.72	207.44	7.18	-42.4	-43.3	20.1	0.00e+00	0	42	0	4285530112	55	4242
2026-01-29 02:59:17.75	207.46	6.86	-42.4	-43.3	20.0	0.00e+00	0	42	0	4307550208	55	4241
2026-01-29 02:59:21.77	207.47	6.56	-42.5	-43.5	19.9	0.00e+00	0	42	0	4329570304	55	4310
2026-01-29 02:59:25.80	207.49	6.25	-42.6	-43.6	19.7	0.00e+00	0	42	0	4352638976	55	4354
2026-01-29 02:59:29.84	207.51	5.95	-42.9	-43.9	19.4	0.00e+00	0	42	0	4375707648	56	4277
2026-01-29 02:59:33.87	207.53	5.65	-42.8	-43.8	19.5	0.00e+00	0	43	0	4397727744	56	4242
2026-01-29 02:59:37.89	207.55	5.36	-42.8	-43.9	19.4	0.00e+00	0	42	0	4420796416	56	4254
2026-01-29 02:59:41.92	207.57	5.07	-43.2	-44.3	18.9	0.00e+00	0	42	0	4443865088	57	4233
2026-01-29 02:59:45.96	207.59	4.78	-53.4	-65.3	3.8	8.46e-01	0	42	104	4447010816	77	14991
2026-01-29 02:59:50.00	207.60	4.49	-53.7	-65.7	3.8	8.47e-01	0	42	104	4447010816	77	15632
2026-01-29 02:59:54.03	207.62	4.21	-53.9	-65.9	3.8	8.47e-01	0	42	104	4447010816	78	15147
2026-01-29 02:59:58.06	207.64	3.93	-54.0	-66.0	3.8	8.46e-01	0	42	104	4447010816	78	15301
2026-01-29 03:00:02.09	207.66	3.66	-54.0	-66.0	3.8	8.47e-01	0	42	104	4447010816	78	15234
2026-01-29 03:00:06.12	207.67	3.38	-53.7	-65.7	3.8	8.45e-01	0	43	104	4447010816	78	14776
2026-01-29 03:00:10.15	207.69	3.11	-53.2	-65.1	3.8	8.45e-01	0	42	104	4447010816	78	13838
2026-01-29 03:00:14.18	207.71	2.85	-53.1	-65.1	3.8	8.47e-01	0	42	104	4447010816	78	13800
2026-01-29 03:00:18.21	207.73	2.58	-53.1	-65.1	3.8	8.46e-01	0	42	104	4447010816	78	13797
2026-01-29 03:00:22.25	207.75	2.32	-53.1	-65.0	3.8	8.46e-01	0	42	104	4447010816	78	13699
2026-01-29 03:00:26.29	207.76	2.06	-53.1	-65.1	3.8	8.46e-01	0	42	104	4447010816	78	13734

#Closed at: 2026-01-29 03:00:28
#Recorded file [4447 MB]: D:/lorett/data/31041_260129_054559.dat