passes_logs/2026/01/29/R3.2S_Murmansk/R3.2S_Murmansk__20260129_112148_TY-42_rec.log

#Pass ID: 20260129_112148_TY-42
#Satellite: TY-42
#Configuration: TY-42_900M
#almurnet v.1.7.20251203
#Start time: 2026-01-29 11:21:47

#Version: 2.2.20231116
#Station: R3.2S_Murmansk
#Location: 33.079688 lon 68.888172 lat
#TLE: 1 64048U 25103A   26028.87012731  .00008010  00000-0  38191-3 0 09994
#TLE: 2 64048 097.4122 104.0273 0001827 094.4790 293.3217 15.19170538 38926

#Time	Az	El	Level	Level2	SNR	BER	BlckErr	Temp	State	Recorded	gain1	gain2
2026-01-29 11:21:47.65	24.56	1.96	-54.3	-56.4	6.2	0.00e+00	0	49	0	0	79	19174
2026-01-29 11:21:50.67	24.34	2.16	-54.3	-56.4	6.2	0.00e+00	0	48	104	0	80	18050
2026-01-29 11:21:53.69	24.11	2.35	-54.2	-56.3	6.2	0.00e+00	0	49	104	0	80	17952
2026-01-29 11:21:56.71	23.87	2.54	-54.3	-56.4	6.2	0.00e+00	0	49	104	0	80	18071
2026-01-29 11:21:59.73	23.64	2.74	-54.4	-56.5	6.2	0.00e+00	0	49	104	0	80	18351
2026-01-29 11:22:02.75	23.40	2.94	-54.4	-56.5	6.2	0.00e+00	0	49	104	0	80	18369
2026-01-29 11:22:05.78	23.15	3.14	-54.3	-56.4	6.2	0.00e+00	0	49	104	0	80	18150
2026-01-29 11:22:08.80	22.90	3.34	-54.3	-56.4	6.2	0.00e+00	0	50	104	0	80	18154
2026-01-29 11:22:11.82	22.64	3.54	-54.1	-56.3	6.2	0.00e+00	0	50	104	0	80	17822
2026-01-29 11:22:14.84	22.38	3.74	-53.9	-56.0	6.2	0.00e+00	0	50	104	0	79	18287
2026-01-29 11:22:17.86	22.12	3.95	-53.2	-55.4	6.2	0.00e+00	0	50	104	0	78	17972
2026-01-29 11:22:20.88	21.85	4.16	-52.5	-54.6	6.2	0.00e+00	0	50	104	0	77	17533
2026-01-29 11:22:23.90	21.57	4.36	-52.5	-54.6	6.2	0.00e+00	0	50	104	0	77	17487
2026-01-29 11:22:26.92	21.29	4.57	-52.5	-54.6	6.2	0.00e+00	0	50	104	0	76	18473
2026-01-29 11:22:29.94	21.01	4.78	-52.4	-54.6	6.2	0.00e+00	0	50	104	0	76	18486
2026-01-29 11:22:32.96	20.72	5.00	-52.4	-54.5	6.2	0.00e+00	0	50	104	0	76	18384
2026-01-29 11:22:35.99	20.42	5.21	-52.4	-54.5	6.2	0.00e+00	0	50	104	0	76	18299
2026-01-29 11:22:39.01	20.12	5.43	-52.6	-54.7	6.2	0.00e+00	0	51	104	0	76	18705
2026-01-29 11:22:42.03	19.81	5.65	-41.8	-41.8	11.2	0.00e+00	9629	54	0	33554432	54	15002
2026-01-29 11:22:45.05	19.49	5.87	-39.7	-39.6	12.6	1.52e-01	0	53	0	369098752	51	13911
2026-01-29 11:22:48.08	19.17	6.09	-35.4	-35.3	14.2	3.89e-02	0	53	0	721420288	42	14232
2026-01-29 11:22:51.10	18.84	6.31	-34.9	-34.9	14.4	1.55e-02	0	53	0	1056964608	41	14305
2026-01-29 11:22:54.12	18.51	6.54	-34.7	-34.7	14.6	1.18e-02	0	54	0	1392508928	41	13963
2026-01-29 11:22:57.14	18.17	6.76	-34.6	-34.5	14.7	1.02e-02	0	54	0	1736441856	41	13723
2026-01-29 11:23:00.15	17.83	6.99	-34.6	-34.5	14.7	8.85e-03	0	54	0	2071986176	40	14525
2026-01-29 11:23:03.18	17.47	7.22	-34.3	-34.2	14.9	8.06e-03	0	54	0	2415919104	40	14111
2026-01-29 11:23:06.21	17.11	7.46	-34.2	-34.1	14.9	8.06e-03	0	54	0	2759852032	40	13853
2026-01-29 11:23:09.23	16.74	7.69	-34.1	-34.0	15.0	7.01e-03	0	54	0	3095396352	40	13689
2026-01-29 11:23:12.25	16.36	7.93	-34.0	-33.9	15.0	6.49e-03	0	55	0	3430940672	39	14395
2026-01-29 11:23:15.26	15.98	8.17	-34.0	-33.9	15.1	6.25e-03	0	55	0	3783262208	39	14310
2026-01-29 11:23:18.29	15.58	8.41	-33.8	-33.7	15.2	5.62e-03	0	55	0	4118806528	39	14036
2026-01-29 11:23:21.30	15.18	8.65	-33.6	-33.5	15.3	4.68e-03	0	55	0	4454350848	39	13710
2026-01-29 11:23:24.32	14.77	8.89	-33.6	-33.5	15.3	3.60e-03	0	55	0	4789895168	38	14482
2026-01-29 11:23:27.35	14.35	9.14	-33.2	-33.2	15.5	3.46e-03	0	55	0	5133828096	38	13966
2026-01-29 11:23:30.37	13.93	9.39	-33.2	-33.1	15.5	2.97e-03	0	55	0	5477761024	38	13936
2026-01-29 11:23:33.40	13.49	9.64	-33.0	-32.9	15.6	1.79e-03	0	55	0	5813305344	37	14329
2026-01-29 11:23:36.41	13.04	9.89	-32.9	-32.8	15.7	1.85e-03	0	55	0	6157238272	37	14154
2026-01-29 11:23:39.44	12.59	10.14	-32.8	-32.7	15.7	1.32e-03	0	55	0	6492782592	37	14099
2026-01-29 11:23:42.46	12.12	10.40	-32.9	-32.8	15.7	1.27e-03	0	56	0	6836715520	37	14167
2026-01-29 11:23:45.49	11.64	10.66	-32.8	-32.7	15.8	1.18e-03	0	55	0	7180648448	37	13964
2026-01-29 11:23:48.51	11.16	10.92	-32.6	-32.5	15.9	1.23e-03	0	56	0	7516192768	37	13716
2026-01-29 11:23:51.52	10.66	11.18	-32.6	-32.5	15.9	1.13e-03	0	56	0	7851737088	37	13689
2026-01-29 11:23:54.55	10.15	11.44	-32.5	-32.4	15.9	8.77e-04	0	56	0	8187281408	36	14433
2026-01-29 11:23:57.57	9.63	11.70	-32.3	-32.2	16.1	7.30e-04	0	56	0	8539602944	36	14046
2026-01-29 11:24:00.59	9.10	11.97	-32.3	-32.2	16.1	6.25e-04	0	56	0	8875147264	36	13994
2026-01-29 11:24:03.61	8.55	12.24	-32.1	-32.0	16.1	6.20e-04	0	56	0	9210691584	36	13789
2026-01-29 11:24:06.64	7.99	12.51	-29.7	-29.6	15.7	5.20e-04	0	56	0	9554624512	31	13874
2026-01-29 11:24:09.66	7.43	12.78	-29.4	-29.3	15.8	1.24e-03	0	56	0	9898557440	30	14165
2026-01-29 11:24:12.68	6.84	13.05	-29.3	-29.2	15.9	1.20e-03	0	56	0	10234101760	30	14009
2026-01-29 11:24:15.70	6.25	13.33	-29.1	-29.1	15.9	1.10e-03	0	56	0	10578034688	30	13791
2026-01-29 11:24:18.71	5.64	13.60	-29.3	-29.2	15.9	8.82e-04	0	56	0	10913579008	30	14006
2026-01-29 11:24:21.73	5.02	13.88	-29.2	-29.1	15.9	8.63e-04	0	56	0	11249123328	30	13878
2026-01-29 11:24:24.75	4.38	14.16	-29.1	-29.0	15.9	7.06e-04	0	56	0	11584667648	30	13737
2026-01-29 11:24:27.76	3.73	14.44	-28.8	-28.8	16.0	7.06e-04	0	56	0	11936989184	29	14116
2026-01-29 11:24:30.78	3.07	14.72	-28.7	-28.6	16.0	5.48e-04	0	56	0	12272533504	29	13883
2026-01-29 11:24:33.79	2.39	15.00	-28.6	-28.5	16.0	6.10e-04	0	57	0	12608077824	29	13728
2026-01-29 11:24:36.80	1.69	15.28	-28.5	-28.4	16.1	5.34e-04	0	56	0	12952010752	29	13624
2026-01-29 11:24:39.82	0.98	15.56	-28.3	-28.2	16.1	3.72e-04	0	56	0	13287555072	28	14020
2026-01-29 11:24:42.83	0.25	15.84	-28.1	-28.0	16.2	3.05e-04	0	56	0	13623099392	28	13730
2026-01-29 11:24:45.84	359.51	16.12	-28.1	-28.0	16.2	3.53e-04	0	57	0	13958643712	28	13641
2026-01-29 11:24:48.85	358.75	16.40	-27.9	-27.8	16.3	2.43e-04	0	57	0	14302576640	27	14135
2026-01-29 11:24:51.87	357.97	16.68	-27.9	-27.8	16.3	2.19e-04	0	56	0	14646509568	27	14178
2026-01-29 11:24:54.89	357.18	16.96	-27.7	-27.6	16.4	2.05e-04	0	57	0	14982053888	27	13911
2026-01-29 11:24:57.90	356.36	17.24	-27.6	-27.5	16.4	1.19e-04	0	57	0	15325986816	27	13739
2026-01-29 11:25:00.92	355.53	17.51	-27.6	-27.5	16.4	1.19e-04	0	56	0	15661531136	27	13766
2026-01-29 11:25:03.95	354.68	17.79	-27.6	-27.5	16.4	1.52e-04	0	56	0	15997075456	27	13700
2026-01-29 11:25:06.96	353.81	18.06	-27.6	-27.5	16.4	2.00e-04	0	57	0	16349396992	27	13690
2026-01-29 11:25:09.98	352.93	18.34	-27.5	-27.4	16.4	2.19e-04	0	57	0	16684941312	26	14331
2026-01-29 11:25:12.99	352.03	18.60	-27.6	-27.5	16.4	1.00e-04	0	57	0	17020485632	26	14480
2026-01-29 11:25:16.00	351.11	18.87	-27.4	-27.3	16.5	1.67e-04	0	57	0	17356029952	26	14213
2026-01-29 11:25:19.02	350.16	19.13	-27.3	-27.2	16.5	1.43e-04	0	57	0	17699962880	26	14056
2026-01-29 11:25:22.04	349.20	19.39	-27.1	-27.0	16.5	5.72e-05	0	57	0	18035507200	26	13677
2026-01-29 11:25:25.05	348.22	19.64	-27.3	-27.2	16.5	5.24e-05	0	57	0	18371051520	26	14010
2026-01-29 11:25:28.06	347.23	19.89	-27.2	-27.0	16.5	5.24e-05	0	57	0	18723373056	26	13788
2026-01-29 11:25:31.07	346.22	20.14	-26.9	-26.8	16.6	8.58e-05	0	57	0	19058917376	25	14223
2026-01-29 11:25:34.09	345.18	20.37	-26.8	-26.7	16.6	8.58e-05	0	56	0	19394461696	25	14052
2026-01-29 11:25:37.11	344.12	20.61	-26.8	-26.7	16.5	1.90e-05	0	57	0	19730006016	25	14055
2026-01-29 11:25:40.12	343.06	20.83	-26.8	-26.7	16.6	4.29e-05	0	57	0	20073938944	25	13951
2026-01-29 11:25:43.14	341.97	21.05	-26.6	-26.5	16.6	4.76e-05	0	57	0	20409483264	25	13659
2026-01-29 11:25:46.15	340.86	21.26	-26.6	-26.5	16.6	2.86e-05	0	57	0	20745027584	25	13668
2026-01-29 11:25:49.17	339.74	21.46	-26.4	-26.3	16.5	2.38e-05	0	57	0	21097349120	24	14179
2026-01-29 11:25:52.19	338.60	21.65	-26.3	-26.2	16.6	3.81e-05	0	57	0	21432893440	24	13965
2026-01-29 11:25:55.21	337.44	21.84	-26.4	-26.3	16.5	4.76e-05	0	57	0	21768437760	24	14118
2026-01-29 11:25:58.22	336.27	22.01	-26.3	-26.2	16.5	4.29e-05	0	57	0	22103982080	24	13995
2026-01-29 11:26:01.24	335.08	22.18	-26.3	-26.2	16.5	2.86e-05	0	57	0	22447915008	24	13957
2026-01-29 11:26:04.26	333.88	22.33	-26.3	-26.2	16.5	5.24e-05	0	57	0	22791847936	24	14004
2026-01-29 11:26:07.28	332.67	22.47	-26.3	-26.2	16.5	2.86e-05	0	57	0	23127392256	24	14003
2026-01-29 11:26:10.30	331.44	22.60	-26.3	-26.2	16.4	7.15e-05	0	57	0	23471325184	24	14073
2026-01-29 11:26:13.33	330.20	22.72	-26.2	-26.1	16.4	5.72e-05	0	57	0	23806869504	24	13859
2026-01-29 11:26:16.35	328.95	22.83	-26.3	-26.2	16.4	3.33e-05	0	57	0	24142413824	24	13981
2026-01-29 11:26:19.36	327.70	22.92	-26.4	-26.3	16.3	4.29e-05	0	57	0	24494735360	24	14262
2026-01-29 11:26:22.38	326.43	23.00	-26.8	-26.7	16.1	5.24e-05	0	57	0	24830279680	24	14901
2026-01-29 11:26:25.41	325.16	23.07	-26.6	-26.4	16.2	6.19e-05	0	57	0	25165824000	24	14431
2026-01-29 11:26:28.43	323.88	23.12	-26.6	-26.5	16.2	6.19e-05	0	57	0	25501368320	24	14556
2026-01-29 11:26:31.45	322.60	23.16	-26.7	-26.6	16.2	6.19e-05	0	57	0	25845301248	24	14657
2026-01-29 11:26:34.47	321.31	23.18	-26.5	-26.4	16.3	9.53e-05	0	57	0	26189234176	24	14302
2026-01-29 11:26:37.49	320.03	23.19	-26.5	-26.4	16.3	8.58e-05	0	57	0	26524778496	24	14306
2026-01-29 11:26:40.51	318.74	23.19	-26.5	-26.4	16.4	1.90e-05	0	57	0	26868711424	24	14280
2026-01-29 11:26:43.53	317.46	23.17	-26.5	-26.4	16.4	8.10e-05	0	57	0	27204255744	24	14327
2026-01-29 11:26:46.56	316.17	23.14	-26.4	-26.3	16.4	2.86e-05	0	57	0	27548188672	24	14170
2026-01-29 11:26:49.57	314.89	23.10	-26.4	-26.2	16.5	3.81e-05	0	57	0	27892121600	24	14104
2026-01-29 11:26:52.60	313.61	23.04	-26.4	-26.3	16.4	4.29e-05	0	57	0	28227665920	24	14173
2026-01-29 11:26:55.62	312.34	22.96	-26.4	-26.3	16.5	9.50e-06	0	57	0	28563210240	24	14129
2026-01-29 11:26:58.63	311.09	22.88	-26.5	-26.4	16.5	9.50e-06	0	57	0	28898754560	24	14283
2026-01-29 11:27:01.64	309.84	22.78	-26.4	-26.4	16.5	9.50e-06	0	57	0	29242687488	24	14284
2026-01-29 11:27:04.67	308.59	22.67	-26.6	-26.5	16.5	6.19e-05	0	57	0	29586620416	24	14492
2026-01-29 11:27:07.69	307.35	22.54	-26.5	-26.4	16.5	4.29e-05	0	57	0	29922164736	24	14411
2026-01-29 11:27:10.71	306.13	22.41	-26.5	-26.4	16.5	5.72e-05	0	57	0	30266097664	24	14419
2026-01-29 11:27:13.73	304.92	22.26	-26.6	-26.5	16.5	7.62e-05	0	57	0	30601641984	24	14563
2026-01-29 11:27:16.74	303.73	22.10	-26.6	-26.5	16.5	5.72e-05	0	57	0	30937186304	24	14546
2026-01-29 11:27:19.76	302.54	21.93	-26.6	-26.5	16.5	7.62e-05	0	57	0	31289507840	24	14605
2026-01-29 11:27:22.78	301.38	21.75	-26.8	-26.7	16.4	1.05e-04	0	57	0	31625052160	24	14943
2026-01-29 11:27:25.81	300.22	21.56	-26.9	-26.8	16.4	1.24e-04	0	57	0	31960596480	24	14974
2026-01-29 11:27:28.84	299.08	21.37	-26.8	-26.8	16.4	1.14e-04	0	57	0	32296140800	24	14950
2026-01-29 11:27:31.87	297.96	21.16	-27.0	-26.9	16.4	6.19e-05	0	57	0	32648462336	24	15145
2026-01-29 11:27:34.89	296.86	20.94	-26.9	-26.8	16.4	4.29e-05	0	57	0	32984006656	24	15118
2026-01-29 11:27:37.91	295.77	20.72	-27.2	-27.1	16.4	5.72e-05	0	57	0	33319550976	24	15493
2026-01-29 11:27:40.93	294.70	20.49	-54.0	-56.2	6.2	5.72e-05	0	56	104	33478934528	78	19858
2026-01-29 11:27:43.94	293.66	20.26	-54.0	-56.2	6.2	4.76e-05	0	56	104	33478934528	78	19789
2026-01-29 11:27:46.96	292.63	20.01	-54.1	-56.2	6.2	4.76e-05	0	55	104	33478934528	78	19932
2026-01-29 11:27:49.98	291.62	19.77	-54.1	-56.2	6.2	4.76e-05	0	55	104	33478934528	78	19923
2026-01-29 11:27:53.01	290.62	19.51	-54.1	-56.2	6.2	4.76e-05	0	55	104	33478934528	78	19832
2026-01-29 11:27:56.03	289.65	19.26	-54.0	-56.2	6.2	0.00e+00	0	55	104	33478934528	78	19762
2026-01-29 11:27:59.05	288.69	19.00	-54.0	-56.1	6.2	0.00e+00	0	55	104	33478934528	78	19702
2026-01-29 11:28:02.08	287.76	18.73	-54.0	-56.1	6.2	0.00e+00	0	55	104	33478934528	78	19580
2026-01-29 11:28:05.10	286.84	18.46	-53.9	-56.0	6.2	0.00e+00	0	55	104	33478934528	78	19418
2026-01-29 11:28:08.12	285.94	18.19	-53.8	-56.0	6.2	0.00e+00	0	55	104	33478934528	78	19304
2026-01-29 11:28:11.14	285.06	17.92	-53.9	-56.0	6.2	0.00e+00	0	55	104	33478934528	78	19373
2026-01-29 11:28:14.16	284.20	17.64	-53.8	-55.9	6.2	0.00e+00	0	55	104	33478934528	78	19203
2026-01-29 11:28:17.18	283.35	17.36	-53.7	-55.8	6.2	0.00e+00	0	55	104	33478934528	78	19028
2026-01-29 11:28:20.20	282.53	17.08	-53.7	-55.8	6.2	0.00e+00	0	55	104	33478934528	78	18941
2026-01-29 11:28:23.22	281.72	16.80	-53.7	-55.8	6.2	0.00e+00	0	55	104	33478934528	78	18966
2026-01-29 11:28:26.24	280.93	16.52	-53.6	-55.8	6.2	0.00e+00	0	54	104	33478934528	78	18880
2026-01-29 11:28:29.26	280.16	16.24	-53.6	-55.7	6.2	0.00e+00	0	54	104	33478934528	78	18776
2026-01-29 11:28:32.28	279.40	15.96	-53.6	-55.7	6.2	0.00e+00	0	54	104	33478934528	78	18711
2026-01-29 11:28:35.31	278.66	15.67	-53.6	-55.7	6.2	0.00e+00	0	54	104	33478934528	78	18735
2026-01-29 11:28:38.32	277.94	15.39	-53.5	-55.7	6.2	0.00e+00	0	54	104	33478934528	78	18636
2026-01-29 11:28:41.35	277.23	15.11	-53.5	-55.6	6.2	0.00e+00	0	54	104	33478934528	78	18550
2026-01-29 11:28:44.37	276.54	14.83	-53.5	-55.6	6.2	0.00e+00	0	54	104	33478934528	78	18511
2026-01-29 11:28:47.40	275.86	14.55	-53.5	-55.6	6.2	0.00e+00	0	54	104	33478934528	78	18470
2026-01-29 11:28:50.41	275.20	14.27	-53.4	-55.6	6.2	0.00e+00	0	54	104	33478934528	78	18406
2026-01-29 11:28:53.43	274.55	13.99	-53.4	-55.5	6.2	0.00e+00	0	54	104	33478934528	78	18379
2026-01-29 11:28:56.45	273.92	13.71	-53.4	-55.5	6.2	0.00e+00	0	54	104	33478934528	78	18317
2026-01-29 11:28:59.47	273.30	13.43	-53.4	-55.5	6.2	0.00e+00	0	54	104	33478934528	78	18317
2026-01-29 11:29:02.49	272.70	13.15	-53.3	-55.5	6.2	0.00e+00	0	54	104	33478934528	78	18190
2026-01-29 11:29:05.52	272.11	12.88	-53.3	-55.4	6.2	0.00e+00	0	54	104	33478934528	78	18175
2026-01-29 11:29:08.53	271.53	12.61	-53.2	-55.4	6.2	0.00e+00	0	54	104	33478934528	78	18010
2026-01-29 11:29:11.56	270.97	12.33	-53.2	-55.4	6.2	0.00e+00	0	54	104	33478934528	78	18008
2026-01-29 11:29:14.58	270.41	12.06	-53.2	-55.3	6.2	0.00e+00	0	54	104	33478934528	78	17908
2026-01-29 11:29:17.60	269.87	11.80	-53.2	-55.3	6.2	0.00e+00	0	54	104	33478934528	78	17884
2026-01-29 11:29:20.61	269.35	11.53	-53.0	-55.1	6.2	0.00e+00	0	54	104	33478934528	78	17551
2026-01-29 11:29:23.63	268.83	11.27	-52.9	-55.0	6.2	0.00e+00	0	53	104	33478934528	77	18297
2026-01-29 11:29:26.65	268.33	11.00	-53.1	-55.2	6.2	0.00e+00	0	54	104	33478934528	77	18665
2026-01-29 11:29:29.68	267.83	10.74	-52.9	-55.0	6.2	0.00e+00	0	54	104	33478934528	77	18286
2026-01-29 11:29:32.69	267.35	10.48	-52.2	-54.3	6.2	0.00e+00	0	54	104	33478934528	76	17886
2026-01-29 11:29:35.71	266.87	10.23	-52.2	-54.4	6.2	0.00e+00	0	54	104	33478934528	76	18042
2026-01-29 11:29:38.74	266.41	9.97	-52.6	-54.7	6.2	0.00e+00	0	54	104	33478934528	76	18711
2026-01-29 11:29:41.76	265.96	9.72	-52.8	-55.0	6.2	0.00e+00	0	53	104	33478934528	76	19259
2026-01-29 11:29:44.78	265.51	9.46	-52.9	-55.1	6.2	0.00e+00	0	54	104	33478934528	76	19496
2026-01-29 11:29:47.81	265.08	9.21	-52.9	-55.0	6.2	0.00e+00	0	53	104	33478934528	76	19455
2026-01-29 11:29:50.83	264.65	8.97	-52.9	-55.1	6.2	0.00e+00	0	53	104	33478934528	76	19526
2026-01-29 11:29:53.85	264.24	8.72	-52.9	-55.0	6.2	0.00e+00	0	54	104	33478934528	76	19370
2026-01-29 11:29:56.88	263.83	8.48	-52.8	-54.9	6.2	0.00e+00	0	54	104	33478934528	76	19241
2026-01-29 11:29:59.89	263.43	8.23	-52.8	-54.9	6.2	0.00e+00	0	53	104	33478934528	76	19200
2026-01-29 11:30:02.92	263.04	7.99	-52.8	-55.0	6.2	0.00e+00	0	53	104	33478934528	76	19347
2026-01-29 11:30:05.93	262.66	7.76	-52.8	-54.9	6.2	0.00e+00	0	53	104	33478934528	76	19111
2026-01-29 11:30:08.96	262.28	7.52	-52.7	-54.8	6.2	0.00e+00	0	54	104	33478934528	76	18919
2026-01-29 11:30:11.98	261.92	7.29	-52.6	-54.7	6.2	0.00e+00	0	53	104	33478934528	76	18811
2026-01-29 11:30:15.00	261.56	7.05	-52.7	-54.8	6.2	0.00e+00	0	54	104	33478934528	76	18952
2026-01-29 11:30:18.02	261.20	6.82	-52.7	-54.8	6.2	0.00e+00	0	53	104	33478934528	76	18844
2026-01-29 11:30:21.04	260.86	6.60	-52.5	-54.7	6.2	0.00e+00	0	53	104	33478934528	76	18665
2026-01-29 11:30:24.06	260.52	6.37	-52.5	-54.6	6.2	0.00e+00	0	53	104	33478934528	76	18467
2026-01-29 11:30:27.08	260.19	6.14	-52.6	-54.7	6.2	0.00e+00	0	53	104	33478934528	76	18694
2026-01-29 11:30:30.10	259.86	5.92	-52.5	-54.6	6.2	0.00e+00	0	54	104	33478934528	76	18580
2026-01-29 11:30:33.12	259.54	5.70	-52.4	-54.5	6.2	0.00e+00	0	53	104	33478934528	76	18306
2026-01-29 11:30:36.14	259.23	5.48	-52.3	-54.4	6.2	0.00e+00	0	53	104	33478934528	76	18177
2026-01-29 11:30:39.16	258.92	5.26	-52.4	-54.5	6.2	0.00e+00	0	53	104	33478934528	76	18351
2026-01-29 11:30:42.18	258.62	5.05	-52.3	-54.5	6.2	0.00e+00	0	53	104	33478934528	76	18251
2026-01-29 11:30:45.21	258.33	4.83	-51.8	-53.9	6.2	0.00e+00	0	54	104	33478934528	75	18079
2026-01-29 11:30:48.24	258.04	4.62	-53.0	-55.1	6.2	0.00e+00	0	53	104	33478934528	76	19696
2026-01-29 11:30:51.26	257.75	4.41	-52.9	-55.1	6.2	0.00e+00	0	53	104	33478934528	76	19541
2026-01-29 11:30:54.28	257.47	4.20	-53.2	-55.3	6.2	0.00e+00	0	53	104	33478934528	76	20136
2026-01-29 11:30:57.30	257.20	3.99	-53.4	-55.5	6.2	0.00e+00	0	53	104	33478934528	77	19422
2026-01-29 11:31:00.32	256.93	3.78	-53.5	-55.6	6.2	0.00e+00	0	53	104	33478934528	77	19702
2026-01-29 11:31:03.34	256.67	3.58	-53.6	-55.7	6.2	0.00e+00	0	53	104	33478934528	77	19847
2026-01-29 11:31:06.37	256.41	3.38	-53.5	-55.6	6.2	0.00e+00	0	53	104	33478934528	77	19575
2026-01-29 11:31:09.38	256.15	3.18	-53.5	-55.6	6.2	0.00e+00	0	53	104	33478934528	77	19517
2026-01-29 11:31:12.41	255.90	2.97	-53.4	-55.6	6.2	0.00e+00	0	53	104	33478934528	77	19505
2026-01-29 11:31:15.43	255.65	2.78	-53.4	-55.6	6.2	0.00e+00	0	53	104	33478934528	77	19480
2026-01-29 11:31:18.45	255.41	2.58	-53.4	-55.5	6.2	0.00e+00	0	53	104	33478934528	77	19420
2026-01-29 11:31:21.47	255.18	2.38	-53.4	-55.5	6.2	0.00e+00	0	53	104	33478934528	77	19406
2026-01-29 11:31:24.49	254.94	2.19	-53.4	-55.5	6.2	0.00e+00	0	53	104	33478934528	77	19354
2026-01-29 11:31:27.51	254.71	1.99	-53.4	-55.5	6.2	0.00e+00	0	53	104	33478934528	77	19396

#Closed at: 2026-01-29 11:31:28
#Recorded file [33478 MB]: D:/lorett/data/31041_260129_142147.dat