passes_logs/2026/01/29/R3.2S_Murmansk/R3.2S_Murmansk__20260129_120926_NOAA_20_JPSS-1_rec.log

#Pass ID: 20260129_120926_NOAA 20 (JPSS-1)
#Satellite: NOAA 20 (JPSS-1)
#Configuration: NOAA 20
#almurnet v.1.7.20251203
#Start time: 2026-01-29 12:09:26

#Version: 2.2.20231116
#Station: R3.2S_Murmansk
#Location: 33.079688 lon 68.888172 lat
#TLE: 1 43013U 17073A   26028.86313978  .00000144  00000+0  89200-4 0  9993
#TLE: 2 43013  98.7648 329.6571 0000891  20.0014 340.1197 14.19541559424709

#Time	Az	El	Level	Level2	SNR	BER	BlckErr	Temp	State	Recorded	gain1	gain2
2026-01-29 12:09:26.29	218.61	1.99	-54.0	-69.0	3.8	1.49e+00	0	39	0	0	79	20470
2026-01-29 12:09:29.32	218.84	2.15	-54.0	-69.0	3.8	1.49e+00	0	40	104	0	78	21610
2026-01-29 12:09:32.33	219.08	2.31	-54.0	-69.0	3.8	1.49e+00	0	40	104	0	78	21514
2026-01-29 12:09:35.36	219.31	2.47	-54.0	-68.9	3.8	1.49e+00	0	40	104	0	78	21460
2026-01-29 12:09:38.38	219.55	2.64	-54.3	-69.3	3.8	1.49e+00	0	40	104	0	79	21027
2026-01-29 12:09:41.40	219.80	2.80	-54.4	-69.4	3.8	1.49e+00	0	40	104	0	79	21324
2026-01-29 12:09:44.43	220.04	2.96	-54.3	-69.2	3.8	1.49e+00	0	40	104	0	79	20989
2026-01-29 12:09:47.45	220.29	3.13	-54.1	-69.1	3.8	1.49e+00	0	40	104	0	79	20707
2026-01-29 12:09:50.47	220.54	3.29	-54.0	-69.0	3.8	1.49e+00	0	40	104	0	79	20382
2026-01-29 12:09:53.50	220.80	3.46	-53.8	-68.7	3.8	1.49e+00	0	40	104	0	79	19710
2026-01-29 12:09:56.52	221.05	3.63	-53.4	-68.4	3.8	1.49e+00	0	40	104	0	78	20199
2026-01-29 12:09:59.53	221.31	3.79	-52.5	-67.4	3.8	1.49e+00	0	40	104	0	77	18981
2026-01-29 12:10:02.56	221.57	3.96	-52.4	-67.3	3.8	1.49e+00	0	41	104	0	76	20039
2026-01-29 12:10:05.58	221.84	4.13	-52.4	-67.3	3.8	1.49e+00	0	41	104	0	76	20004
2026-01-29 12:10:08.60	222.11	4.29	-52.4	-67.0	3.8	1.49e+00	0	41	104	0	76	19174
2026-01-29 12:10:11.62	222.38	4.46	-52.3	-66.6	3.8	1.49e+00	0	41	104	0	76	18451
2026-01-29 12:10:14.64	222.65	4.63	-52.1	-62.7	4.6	1.31e+00	7	41	0	0	76	11689
2026-01-29 12:10:17.66	222.93	4.80	-50.8	-56.1	9.9	1.69e-02	0	41	0	5242880	73	6539
2026-01-29 12:10:20.69	223.21	4.97	-49.7	-53.4	12.9	5.11e-05	0	41	0	11534336	71	5368
2026-01-29 12:10:23.71	223.49	5.14	-52.2	-65.0	4.0	4.31e-01	59	41	0	16777216	74	17280
2026-01-29 12:10:26.73	223.78	5.32	-47.4	-49.5	16.9	8.46e-05	0	41	0	19922944	66	4561
2026-01-29 12:10:29.75	224.07	5.49	-47.2	-49.3	17.1	0.00e+00	0	41	0	25165824	66	4452
2026-01-29 12:10:32.77	224.36	5.66	-47.0	-49.0	17.3	0.00e+00	0	41	0	31457280	66	4314
2026-01-29 12:10:35.80	224.65	5.83	-47.2	-49.1	17.3	0.00e+00	0	41	0	36700160	66	4390
2026-01-29 12:10:38.82	224.95	6.01	-47.1	-49.1	17.4	0.00e+00	0	41	0	41943040	66	4347
2026-01-29 12:10:41.84	225.26	6.18	-47.3	-49.3	17.2	0.00e+00	0	41	0	48234496	66	4473
2026-01-29 12:10:44.86	225.56	6.36	-47.3	-49.3	17.2	0.00e+00	0	41	0	53477376	66	4471
2026-01-29 12:10:47.88	225.87	6.53	-47.1	-49.1	17.4	0.00e+00	0	41	0	59768832	66	4355
2026-01-29 12:10:50.91	226.19	6.71	-47.0	-48.9	17.6	0.00e+00	0	41	0	65011712	65	4540
2026-01-29 12:10:53.93	226.50	6.88	-46.9	-48.8	17.7	0.00e+00	0	41	0	70254592	65	4461
2026-01-29 12:10:56.94	226.82	7.06	-46.9	-48.7	17.9	0.00e+00	0	41	0	76546048	65	4407
2026-01-29 12:10:59.96	227.15	7.24	-47.0	-48.9	17.7	0.00e+00	0	41	0	81788928	65	4517
2026-01-29 12:11:02.99	227.48	7.41	-46.9	-48.7	17.9	0.00e+00	0	41	0	88080384	65	4429
2026-01-29 12:11:06.01	227.81	7.59	-46.8	-48.6	18.0	0.00e+00	0	41	0	93323264	65	4346
2026-01-29 12:11:09.03	228.14	7.77	-46.8	-48.5	18.1	0.00e+00	0	41	0	98566144	65	4338
2026-01-29 12:11:12.05	228.48	7.95	-46.7	-48.4	18.2	0.00e+00	0	41	0	104857600	65	4272
2026-01-29 12:11:15.06	228.83	8.13	-46.6	-48.3	18.4	0.00e+00	0	41	0	110100480	65	4195
2026-01-29 12:11:18.09	229.17	8.31	-46.3	-47.9	18.7	0.00e+00	0	41	0	116391936	64	4290
2026-01-29 12:11:21.11	229.53	8.49	-46.2	-47.8	18.9	0.00e+00	0	41	0	121634816	64	4210
2026-01-29 12:11:24.13	229.88	8.67	-46.3	-47.9	18.8	0.00e+00	0	41	0	126877696	64	4245
2026-01-29 12:11:27.16	230.24	8.85	-46.2	-47.7	18.9	0.00e+00	0	41	0	133169152	64	4189
2026-01-29 12:11:30.18	230.61	9.03	-46.1	-47.7	19.0	0.00e+00	0	41	0	138412032	64	4165
2026-01-29 12:11:33.20	230.98	9.21	-46.2	-47.8	18.9	0.00e+00	0	41	0	144703488	64	4210
2026-01-29 12:11:36.22	231.35	9.39	-46.2	-47.7	19.0	0.00e+00	0	41	0	149946368	64	4188
2026-01-29 12:11:39.25	231.73	9.57	-46.2	-47.8	18.9	0.00e+00	0	42	0	155189248	64	4207
2026-01-29 12:11:42.27	232.11	9.76	-46.2	-47.8	19.0	0.00e+00	0	41	0	161480704	64	4198
2026-01-29 12:11:45.29	232.50	9.94	-46.1	-47.6	19.2	0.00e+00	0	41	0	166723584	64	4116
2026-01-29 12:11:48.32	232.89	10.12	-46.0	-47.5	19.4	0.00e+00	0	41	0	173015040	63	4295
2026-01-29 12:11:51.34	233.29	10.30	-45.9	-47.3	19.5	0.00e+00	0	42	0	178257920	63	4227
2026-01-29 12:11:54.36	233.69	10.49	-45.8	-47.2	19.7	0.00e+00	0	41	0	183500800	63	4180
2026-01-29 12:11:57.39	234.10	10.67	-45.7	-47.1	19.7	0.00e+00	0	41	0	189792256	63	4142
2026-01-29 12:12:00.41	234.51	10.85	-45.7	-47.2	19.7	0.00e+00	0	41	0	195035136	63	4154
2026-01-29 12:12:03.43	234.93	11.04	-45.6	-47.0	19.9	0.00e+00	0	41	0	201326592	63	4086
2026-01-29 12:12:06.45	235.35	11.22	-45.7	-47.1	19.8	0.00e+00	0	42	0	206569472	63	4106
2026-01-29 12:12:09.48	235.78	11.40	-45.8	-47.2	19.7	0.00e+00	0	42	0	211812352	63	4163
2026-01-29 12:12:12.50	236.21	11.59	-45.9	-47.3	19.6	0.00e+00	0	41	0	218103808	63	4220
2026-01-29 12:12:15.53	236.64	11.77	-45.7	-47.1	19.8	0.00e+00	0	41	0	223346688	63	4135
2026-01-29 12:12:18.54	237.09	11.95	-45.6	-47.0	19.9	0.00e+00	0	41	0	229638144	63	4087
2026-01-29 12:12:21.57	237.53	12.13	-45.7	-47.1	19.8	0.00e+00	0	41	0	234881024	63	4123
2026-01-29 12:12:24.59	237.99	12.32	-45.7	-47.1	19.8	0.00e+00	0	41	0	241172480	63	4137
2026-01-29 12:12:27.61	238.44	12.50	-45.7	-47.1	19.8	0.00e+00	0	41	0	246415360	63	4120
2026-01-29 12:12:30.64	238.91	12.68	-45.5	-46.8	20.1	0.00e+00	0	42	0	251658240	63	3994
2026-01-29 12:12:33.66	239.38	12.86	-45.4	-46.7	20.3	0.00e+00	0	42	0	257949696	62	4163
2026-01-29 12:12:36.69	239.86	13.04	-45.4	-46.8	20.2	0.00e+00	0	41	0	263192576	62	4194
2026-01-29 12:12:39.71	240.34	13.23	-45.4	-46.8	20.2	0.00e+00	0	42	0	269484032	62	4203
2026-01-29 12:12:42.73	240.82	13.41	-45.5	-46.9	20.0	0.00e+00	0	41	0	274726912	62	4272
2026-01-29 12:12:45.75	241.31	13.58	-45.5	-46.8	20.1	0.00e+00	0	41	0	279969792	62	4238
2026-01-29 12:12:48.78	241.81	13.76	-45.5	-46.9	20.0	0.00e+00	0	42	0	286261248	62	4254
2026-01-29 12:12:51.80	242.32	13.94	-45.7	-47.1	19.9	0.00e+00	0	41	0	291504128	62	4345
2026-01-29 12:12:54.82	242.83	14.12	-45.6	-47.0	19.9	0.00e+00	0	41	0	297795584	62	4300
2026-01-29 12:12:57.84	243.34	14.30	-45.6	-47.0	19.9	0.00e+00	0	41	0	303038464	62	4300
2026-01-29 12:13:00.86	243.86	14.47	-45.3	-46.6	20.3	0.00e+00	0	41	0	308281344	62	4139
2026-01-29 12:13:03.88	244.39	14.65	-45.0	-46.3	20.6	0.00e+00	0	42	0	314572800	61	4204
2026-01-29 12:13:06.89	244.92	14.82	-44.9	-46.1	20.8	0.00e+00	0	42	0	319815680	61	4124
2026-01-29 12:13:09.91	245.46	14.99	-44.6	-45.8	21.1	0.00e+00	0	42	0	326107136	61	3978
2026-01-29 12:13:12.93	246.00	15.17	-44.5	-45.7	21.3	0.00e+00	0	41	0	331350016	60	4146
2026-01-29 12:13:15.95	246.56	15.34	-44.3	-45.4	21.5	0.00e+00	0	41	0	336592896	60	4026
2026-01-29 12:13:18.97	247.11	15.50	-44.3	-45.4	21.6	0.00e+00	0	41	0	342884352	60	4036
2026-01-29 12:13:22.00	247.68	15.67	-44.3	-45.5	21.5	0.00e+00	0	41	0	348127232	60	4066
2026-01-29 12:13:25.02	248.25	15.84	-44.5	-45.6	21.4	0.00e+00	0	42	0	354418688	60	4130
2026-01-29 12:13:28.05	248.83	16.00	-44.4	-45.5	21.4	0.00e+00	0	42	0	359661568	60	4095
2026-01-29 12:13:31.06	249.41	16.17	-44.3	-45.5	21.5	0.00e+00	0	42	0	364904448	60	4061
2026-01-29 12:13:34.09	250.00	16.33	-44.5	-45.7	21.3	0.00e+00	0	42	0	371195904	60	4180
2026-01-29 12:13:37.11	250.59	16.49	-44.7	-45.9	21.1	0.00e+00	0	42	0	376438784	60	4284
2026-01-29 12:13:40.13	251.19	16.65	-44.7	-45.9	21.1	0.00e+00	0	42	0	382730240	60	4287
2026-01-29 12:13:43.16	251.80	16.80	-44.9	-46.1	21.0	0.00e+00	0	42	0	387973120	60	4350
2026-01-29 12:13:46.18	252.41	16.96	-45.0	-46.3	20.8	0.00e+00	0	42	0	393216000	60	4456
2026-01-29 12:13:49.20	253.03	17.11	-45.1	-46.3	20.8	0.00e+00	0	42	0	399507456	60	4473
2026-01-29 12:13:52.22	253.65	17.26	-45.2	-46.4	20.6	0.00e+00	0	42	0	404750336	60	4539
2026-01-29 12:13:55.24	254.28	17.40	-45.3	-46.6	20.5	0.00e+00	0	42	0	411041792	61	4376
2026-01-29 12:13:58.26	254.92	17.55	-45.5	-46.8	20.3	0.00e+00	0	42	0	416284672	61	4492
2026-01-29 12:14:01.28	255.56	17.69	-45.7	-47.0	20.1	0.00e+00	0	42	0	421527552	61	4584
2026-01-29 12:14:04.30	256.21	17.83	-46.0	-47.4	19.8	0.00e+00	0	42	0	427819008	62	4509
2026-01-29 12:14:07.32	256.86	17.96	-46.2	-47.7	19.4	0.00e+00	0	41	0	433061888	63	4421
2026-01-29 12:14:10.34	257.52	18.10	-46.4	-47.9	19.2	0.00e+00	0	41	0	439353344	63	4535
2026-01-29 12:14:13.36	258.19	18.23	-46.2	-47.6	19.5	0.00e+00	0	42	0	444596224	63	4389
2026-01-29 12:14:16.38	258.86	18.35	-46.0	-47.5	19.7	0.00e+00	0	42	0	449839104	63	4294
2026-01-29 12:14:19.40	259.53	18.48	-45.9	-47.3	19.8	0.00e+00	0	42	0	456130560	63	4241
2026-01-29 12:14:22.42	260.21	18.60	-46.1	-47.5	19.6	0.00e+00	0	42	0	461373440	63	4327
2026-01-29 12:14:25.45	260.90	18.71	-46.0	-47.5	19.7	0.00e+00	0	41	0	467664896	63	4295
2026-01-29 12:14:28.46	261.59	18.83	-45.8	-47.1	20.1	0.00e+00	0	42	0	472907776	63	4125
2026-01-29 12:14:31.48	262.29	18.94	-45.6	-47.0	20.2	0.00e+00	0	42	0	478150656	63	4054
2026-01-29 12:14:34.50	262.99	19.04	-45.7	-47.1	20.1	0.00e+00	0	42	0	484442112	63	4111
2026-01-29 12:14:37.52	263.69	19.15	-45.6	-47.0	20.2	0.00e+00	0	41	0	489684992	63	4056
2026-01-29 12:14:40.55	264.41	19.25	-45.8	-47.1	20.0	0.00e+00	0	41	0	495976448	63	4130
2026-01-29 12:14:43.56	265.12	19.34	-45.7	-47.1	20.1	0.00e+00	0	41	0	501219328	63	4122
2026-01-29 12:14:46.58	265.84	19.43	-45.5	-46.8	20.3	0.00e+00	0	42	0	506462208	63	3993
2026-01-29 12:14:49.60	266.56	19.52	-45.5	-46.8	20.4	0.00e+00	0	42	0	512753664	62	4200
2026-01-29 12:14:52.63	267.29	19.60	-45.5	-46.8	20.4	0.00e+00	0	42	0	517996544	62	4212
2026-01-29 12:14:55.65	268.02	19.68	-45.5	-46.8	20.3	0.00e+00	0	42	0	524288000	62	4214
2026-01-29 12:14:58.67	268.75	19.75	-45.5	-46.8	20.4	0.00e+00	0	41	0	529530880	62	4214
2026-01-29 12:15:01.69	269.49	19.82	-45.2	-46.4	20.7	0.00e+00	0	42	0	535822336	62	4038
2026-01-29 12:15:04.71	270.23	19.89	-45.3	-46.5	20.6	0.00e+00	0	42	0	541065216	62	4092
2026-01-29 12:15:07.73	270.97	19.95	-45.4	-46.6	20.6	0.00e+00	0	42	0	546308096	62	4131
2026-01-29 12:15:10.74	271.72	20.00	-45.1	-46.4	20.8	0.00e+00	0	42	0	552599552	62	4020
2026-01-29 12:15:13.76	272.47	20.06	-45.1	-46.3	20.8	0.00e+00	0	42	0	557842432	61	4228
2026-01-29 12:15:16.79	273.22	20.10	-45.6	-46.9	20.3	0.00e+00	0	42	0	564133888	61	4528
2026-01-29 12:15:19.81	273.97	20.14	-46.1	-47.6	19.6	0.00e+00	0	42	0	569376768	62	4616
2026-01-29 12:15:22.84	274.73	20.18	-46.0	-47.4	19.9	0.00e+00	0	42	0	574619648	63	4253
2026-01-29 12:15:25.86	275.48	20.21	-45.5	-46.7	20.5	0.00e+00	0	42	0	580911104	62	4187
2026-01-29 12:15:28.88	276.24	20.24	-45.5	-46.8	20.4	0.00e+00	0	42	0	586153984	62	4223
2026-01-29 12:15:31.91	277.00	20.26	-46.0	-47.4	19.9	0.00e+00	0	42	0	592445440	62	4501
2026-01-29 12:15:34.93	277.76	20.28	-46.1	-47.5	19.8	0.00e+00	0	42	0	597688320	62	4559
2026-01-29 12:15:37.95	278.52	20.29	-46.1	-47.5	19.8	0.00e+00	0	42	0	602931200	62	4597
2026-01-29 12:15:40.97	279.28	20.30	-46.3	-47.8	19.5	0.00e+00	0	42	0	609222656	63	4464
2026-01-29 12:15:43.99	280.04	20.30	-46.5	-48.0	19.3	0.00e+00	0	42	0	614465536	63	4577
2026-01-29 12:15:47.01	280.80	20.30	-46.4	-47.9	19.5	0.00e+00	0	42	0	620756992	63	4503
2026-01-29 12:15:50.03	281.57	20.29	-46.4	-47.9	19.5	0.00e+00	0	42	0	625999872	63	4527
2026-01-29 12:15:53.04	282.32	20.28	-46.1	-47.5	19.9	0.00e+00	0	42	0	631242752	63	4310
2026-01-29 12:15:56.07	283.08	20.26	-45.5	-46.8	20.5	0.00e+00	0	42	0	637534208	63	3991
2026-01-29 12:15:59.08	283.84	20.24	-45.6	-46.9	20.5	0.00e+00	0	42	0	642777088	63	4015
2026-01-29 12:16:02.10	284.60	20.21	-46.0	-47.4	20.0	0.00e+00	0	42	0	649068544	63	4250
2026-01-29 12:16:05.12	285.35	20.18	-46.0	-47.4	20.0	0.00e+00	0	42	0	654311424	63	4266
2026-01-29 12:16:08.13	286.10	20.14	-46.0	-47.4	20.0	0.00e+00	0	42	0	659554304	63	4268
2026-01-29 12:16:11.15	286.85	20.10	-46.1	-47.5	19.9	0.00e+00	0	42	0	665845760	63	4325
2026-01-29 12:16:14.17	287.60	20.05	-46.1	-47.5	19.9	0.00e+00	0	42	0	671088640	63	4323
2026-01-29 12:16:17.19	288.35	20.00	-46.1	-47.5	19.9	0.00e+00	0	42	0	677380096	63	4312
2026-01-29 12:16:20.20	289.09	19.94	-45.7	-47.0	20.4	0.00e+00	0	42	0	682622976	63	4088
2026-01-29 12:16:23.22	289.84	19.88	-45.6	-46.9	20.3	0.00e+00	0	41	0	687865856	62	4247
2026-01-29 12:16:26.24	290.57	19.82	-46.0	-47.3	20.0	0.00e+00	0	42	0	694157312	62	4474
2026-01-29 12:16:29.27	291.31	19.75	-45.9	-47.3	20.1	0.00e+00	0	42	0	699400192	62	4443
2026-01-29 12:16:32.29	292.04	19.67	-45.6	-46.9	20.2	0.00e+00	0	42	0	705691648	62	4282
2026-01-29 12:16:35.30	292.77	19.59	-45.3	-46.5	20.7	0.00e+00	0	42	0	710934528	62	4077
2026-01-29 12:16:38.32	293.49	19.51	-44.8	-45.9	21.5	0.00e+00	0	42	0	716177408	61	4036
2026-01-29 12:16:41.34	294.22	19.42	-44.6	-45.8	21.6	0.00e+00	0	42	0	722468864	61	3964
2026-01-29 12:16:44.36	294.93	19.33	-45.1	-46.4	20.9	0.00e+00	0	42	0	727711744	61	4251
2026-01-29 12:16:47.38	295.64	19.24	-45.3	-46.5	20.9	0.00e+00	0	42	0	732954624	61	4324
2026-01-29 12:16:50.40	296.35	19.14	-45.0	-46.2	21.1	0.00e+00	0	42	0	739246080	61	4186
2026-01-29 12:16:53.42	297.05	19.04	-44.8	-46.0	21.4	0.00e+00	0	42	0	744488960	61	4057
2026-01-29 12:16:56.43	297.75	18.93	-44.1	-45.2	22.0	0.00e+00	0	42	0	750780416	60	3924
2026-01-29 12:16:59.44	298.44	18.82	-44.1	-45.1	22.1	0.00e+00	0	42	0	756023296	60	3909
2026-01-29 12:17:02.47	299.13	18.71	-44.2	-45.3	21.9	0.00e+00	0	42	0	761266176	60	3993
2026-01-29 12:17:05.49	299.82	18.59	-44.5	-45.6	21.6	0.00e+00	0	42	0	767557632	60	4118
2026-01-29 12:17:08.51	300.50	18.47	-44.4	-45.5	21.7	0.00e+00	0	42	0	772800512	60	4062
2026-01-29 12:17:11.53	301.17	18.34	-44.0	-45.0	22.1	0.00e+00	0	42	0	779091968	60	3865
2026-01-29 12:17:14.55	301.84	18.22	-44.0	-45.0	22.4	0.00e+00	0	42	0	784334848	59	4082
2026-01-29 12:17:17.57	302.50	18.09	-43.9	-44.9	22.5	0.00e+00	0	42	0	789577728	59	4040
2026-01-29 12:17:20.58	303.15	17.96	-44.0	-45.1	22.3	0.00e+00	0	42	0	795869184	59	4103
2026-01-29 12:17:23.60	303.80	17.82	-44.3	-45.4	22.0	0.00e+00	0	42	0	801112064	59	4282
2026-01-29 12:17:26.63	304.45	17.68	-44.5	-45.7	21.8	0.00e+00	0	42	0	807403520	59	4411
2026-01-29 12:17:29.65	305.09	17.54	-44.6	-45.7	21.7	0.00e+00	0	42	0	812646400	59	4427
2026-01-29 12:17:32.67	305.72	17.40	-44.5	-45.6	21.5	0.00e+00	0	42	0	817889280	60	4128
2026-01-29 12:17:35.69	306.35	17.25	-45.1	-46.3	20.8	0.00e+00	0	42	0	824180736	60	4483
2026-01-29 12:17:38.72	306.97	17.10	-45.0	-46.3	20.9	0.00e+00	0	41	0	829423616	60	4442
2026-01-29 12:17:41.74	307.59	16.95	-45.3	-46.6	20.6	0.00e+00	0	42	0	835715072	61	4360
2026-01-29 12:17:44.77	308.20	16.80	-45.4	-46.8	20.4	0.00e+00	0	42	0	840957952	61	4446
2026-01-29 12:17:47.79	308.80	16.64	-45.3	-46.5	20.6	0.00e+00	0	42	0	847249408	61	4330
2026-01-29 12:17:50.81	309.40	16.49	-45.3	-46.5	20.6	0.00e+00	0	42	0	852492288	61	4337
2026-01-29 12:17:53.83	309.99	16.33	-45.7	-47.1	20.1	0.00e+00	0	42	0	857735168	61	4608
2026-01-29 12:17:56.85	310.58	16.17	-45.9	-47.4	19.7	0.00e+00	0	42	0	864026624	62	4496
2026-01-29 12:17:59.87	311.16	16.00	-45.7	-47.1	20.1	0.00e+00	0	42	0	869269504	62	4360
2026-01-29 12:18:02.88	311.73	15.84	-45.6	-46.9	20.2	0.00e+00	0	41	0	874512384	62	4282
2026-01-29 12:18:05.89	312.29	15.68	-45.6	-47.0	20.2	0.00e+00	0	42	0	880803840	62	4295
2026-01-29 12:18:08.92	312.86	15.51	-45.7	-47.0	20.1	0.00e+00	0	42	0	886046720	62	4337
2026-01-29 12:18:11.93	313.41	15.34	-45.8	-47.1	20.0	0.00e+00	0	42	0	892338176	62	4388
2026-01-29 12:18:14.96	313.96	15.17	-45.4	-46.7	20.4	0.00e+00	0	42	0	897581056	62	4165
2026-01-29 12:18:17.99	314.50	15.00	-44.9	-46.1	20.9	0.00e+00	0	42	0	903872512	61	4125
2026-01-29 12:18:21.01	315.04	14.83	-44.9	-46.2	20.8	0.00e+00	0	42	0	909115392	61	4160
2026-01-29 12:18:24.03	315.57	14.66	-45.0	-46.3	20.7	0.00e+00	0	42	0	914358272	61	4199
2026-01-29 12:18:27.05	316.09	14.48	-45.5	-46.9	20.1	0.00e+00	0	42	0	920649728	61	4499
2026-01-29 12:18:30.05	316.61	14.31	-46.2	-47.8	19.2	0.00e+00	0	42	0	925892608	63	4453
2026-01-29 12:18:33.08	317.12	14.13	-46.0	-47.5	19.5	0.00e+00	0	41	0	931135488	63	4310
2026-01-29 12:18:36.10	317.63	13.96	-45.3	-46.6	20.4	0.00e+00	0	42	0	937426944	62	4100
2026-01-29 12:18:39.12	318.13	13.78	-44.9	-46.1	20.8	0.00e+00	0	42	0	942669824	61	4123
2026-01-29 12:18:42.14	318.63	13.60	-45.1	-46.4	20.5	0.00e+00	0	42	0	948961280	61	4271
2026-01-29 12:18:45.16	319.12	13.42	-45.0	-46.2	20.6	0.00e+00	0	42	0	954204160	61	4181
2026-01-29 12:18:48.18	319.60	13.25	-44.8	-46.0	20.8	0.00e+00	0	42	0	959447040	61	4096
2026-01-29 12:18:51.20	320.08	13.07	-45.1	-46.4	20.5	0.00e+00	0	42	0	965738496	61	4247
2026-01-29 12:18:54.22	320.55	12.89	-45.3	-46.6	20.3	0.00e+00	0	42	0	970981376	61	4386
2026-01-29 12:18:57.23	321.02	12.71	-44.6	-45.9	21.0	0.00e+00	0	42	0	977272832	61	4013
2026-01-29 12:19:00.25	321.48	12.53	-44.5	-45.7	21.0	0.00e+00	0	42	0	982515712	60	4192
2026-01-29 12:19:03.28	321.94	12.35	-44.9	-46.2	20.5	0.00e+00	0	42	0	987758592	60	4406
2026-01-29 12:19:06.30	322.39	12.16	-45.1	-46.4	20.4	0.00e+00	0	42	0	994050048	60	4503
2026-01-29 12:19:09.32	322.83	11.98	-44.7	-46.0	20.7	0.00e+00	0	42	0	999292928	60	4298
2026-01-29 12:19:12.35	323.27	11.80	-44.7	-46.0	20.7	0.00e+00	0	42	0	1005584384	60	4304
2026-01-29 12:19:15.37	323.71	11.62	-45.2	-46.6	20.2	0.00e+00	0	42	0	1010827264	61	4362
2026-01-29 12:19:18.39	324.14	11.44	-45.5	-46.9	19.9	0.00e+00	0	42	0	1017118720	61	4517
2026-01-29 12:19:21.42	324.57	11.26	-45.4	-46.8	19.9	0.00e+00	0	41	0	1022361600	61	4484
2026-01-29 12:19:24.43	324.98	11.08	-45.1	-46.5	20.2	0.00e+00	0	42	0	1027604480	61	4297
2026-01-29 12:19:27.45	325.40	10.89	-45.4	-46.8	19.9	0.00e+00	0	42	0	1033895936	61	4447
2026-01-29 12:19:30.47	325.81	10.71	-45.6	-47.0	19.7	0.00e+00	0	42	0	1039138816	61	4569
2026-01-29 12:19:33.49	326.21	10.53	-45.4	-46.8	19.9	0.00e+00	0	41	0	1045430272	61	4476
2026-01-29 12:19:36.52	326.61	10.35	-45.2	-46.5	20.1	0.00e+00	0	42	0	1050673152	61	4339
2026-01-29 12:19:39.54	327.01	10.17	-45.3	-46.7	20.0	0.00e+00	0	42	0	1055916032	61	4392
2026-01-29 12:19:42.57	327.40	9.99	-45.6	-47.1	19.5	0.00e+00	0	42	0	1062207488	62	4369
2026-01-29 12:19:45.59	327.79	9.81	-45.9	-47.5	19.1	0.00e+00	0	41	0	1067450368	62	4559
2026-01-29 12:19:48.61	328.17	9.63	-45.8	-47.3	19.3	0.00e+00	0	41	0	1073741824	62	4453
2026-01-29 12:19:51.63	328.55	9.44	-45.8	-47.4	19.2	0.00e+00	0	42	0	1078984704	62	4497
2026-01-29 12:19:54.65	328.92	9.26	-46.1	-47.6	19.0	0.00e+00	0	42	0	1084227584	62	4636
2026-01-29 12:19:57.68	329.29	9.08	-46.1	-47.7	18.8	0.00e+00	0	42	0	1090519040	63	4436
2026-01-29 12:20:00.69	329.65	8.91	-46.2	-47.8	18.8	0.00e+00	0	42	0	1095761920	63	4471
2026-01-29 12:20:03.72	330.01	8.73	-46.1	-47.7	18.9	0.00e+00	0	42	0	1102053376	63	4398
2026-01-29 12:20:06.74	330.37	8.55	-46.0	-47.6	19.0	0.00e+00	0	42	0	1107296256	63	4356
2026-01-29 12:20:09.76	330.72	8.37	-46.3	-47.9	18.6	0.00e+00	0	42	0	1112539136	63	4520
2026-01-29 12:20:12.79	331.07	8.19	-46.7	-48.4	18.0	0.00e+00	0	42	0	1118830592	63	4811
2026-01-29 12:20:15.81	331.41	8.01	-46.5	-48.2	18.1	0.00e+00	0	42	0	1124073472	64	4439
2026-01-29 12:20:18.83	331.75	7.84	-46.4	-48.1	18.3	0.00e+00	0	42	0	1130364928	64	4353
2026-01-29 12:20:21.86	332.08	7.66	-46.1	-47.7	18.7	0.00e+00	0	42	0	1135607808	64	4172
2026-01-29 12:20:24.88	332.42	7.48	-46.2	-47.9	18.4	0.00e+00	0	42	0	1140850688	64	4286
2026-01-29 12:20:27.90	332.74	7.31	-46.3	-48.0	18.3	0.00e+00	0	42	0	1147142144	64	4325
2026-01-29 12:20:30.93	333.07	7.13	-46.6	-48.4	17.9	0.00e+00	0	42	0	1152385024	64	4529
2026-01-29 12:20:33.95	333.39	6.95	-46.5	-48.3	18.0	0.00e+00	0	42	0	1158676480	64	4466
2026-01-29 12:20:36.97	333.70	6.78	-46.5	-48.3	17.9	0.00e+00	0	42	0	1163919360	64	4477
2026-01-29 12:20:39.99	334.02	6.61	-46.7	-48.5	17.7	0.00e+00	0	42	0	1169162240	64	4587
2026-01-29 12:20:43.01	334.33	6.43	-46.9	-48.9	17.4	0.00e+00	0	42	0	1175453696	64	4766
2026-01-29 12:20:46.03	334.63	6.26	-47.2	-49.2	17.0	0.00e+00	0	42	0	1180696576	64	4981
2026-01-29 12:20:49.05	334.94	6.09	-47.0	-49.0	17.1	0.00e+00	0	42	0	1186988032	64	4870
2026-01-29 12:20:52.07	335.23	5.91	-46.9	-48.9	17.2	0.00e+00	0	42	0	1192230912	64	4814
2026-01-29 12:20:55.09	335.53	5.74	-47.2	-49.3	16.8	0.00e+00	0	42	0	1197473792	64	5037
2026-01-29 12:20:58.12	335.82	5.57	-47.1	-49.1	17.0	0.00e+00	0	42	0	1203765248	65	4641
2026-01-29 12:21:01.13	336.11	5.40	-47.1	-49.2	16.9	0.00e+00	0	42	0	1209008128	65	4672
2026-01-29 12:21:04.15	336.40	5.23	-47.5	-49.8	16.3	0.00e+00	0	42	0	1215299584	65	5007
2026-01-29 12:21:07.17	336.68	5.06	-47.6	-49.9	16.1	0.00e+00	0	41	0	1220542464	65	5098
2026-01-29 12:21:10.20	336.96	4.89	-52.8	-67.8	3.8	1.49e+00	0	42	104	1223688192	76	21194
2026-01-29 12:21:13.22	337.24	4.72	-53.4	-68.4	3.8	1.49e+00	0	42	104	1223688192	77	21392
2026-01-29 12:21:16.24	337.51	4.56	-53.6	-68.6	3.8	1.49e+00	0	42	104	1223688192	77	21988
2026-01-29 12:21:19.26	337.78	4.39	-53.3	-68.6	3.8	1.49e+00	0	42	104	1223688192	77	21800
2026-01-29 12:21:22.28	338.05	4.22	-53.4	-68.3	3.8	1.49e+00	0	42	104	1223688192	77	21181
2026-01-29 12:21:25.31	338.32	4.06	-53.5	-68.4	3.8	1.49e+00	0	42	104	1223688192	77	21478
2026-01-29 12:21:28.34	338.58	3.89	-53.6	-68.6	3.8	1.49e+00	0	42	104	1223688192	77	21772
2026-01-29 12:21:31.36	338.84	3.72	-53.5	-68.4	3.8	1.49e+00	0	42	104	1223688192	77	21493
2026-01-29 12:21:34.38	339.10	3.56	-53.4	-68.4	3.8	1.49e+00	0	42	104	1223688192	77	21379
2026-01-29 12:21:37.41	339.35	3.40	-53.4	-68.4	3.8	1.49e+00	0	42	104	1223688192	77	21305
2026-01-29 12:21:40.43	339.60	3.23	-53.4	-68.3	3.8	1.49e+00	0	42	104	1223688192	77	21218
2026-01-29 12:21:43.46	339.85	3.07	-53.3	-68.3	3.8	1.49e+00	0	42	104	1223688192	77	21184
2026-01-29 12:21:46.47	340.10	2.91	-53.3	-68.3	3.8	1.49e+00	0	42	104	1223688192	77	21115
2026-01-29 12:21:49.50	340.34	2.74	-53.3	-68.3	3.8	1.49e+00	0	42	104	1223688192	77	21119
2026-01-29 12:21:52.52	340.59	2.58	-53.3	-68.3	3.8	1.49e+00	0	42	104	1223688192	77	21024
2026-01-29 12:21:55.55	340.83	2.42	-53.3	-68.2	3.8	1.49e+00	0	42	104	1223688192	77	21010
2026-01-29 12:21:58.57	341.06	2.26	-53.3	-68.2	3.8	1.49e+00	0	42	104	1223688192	77	21017
2026-01-29 12:22:01.59	341.30	2.10	-53.2	-68.2	3.8	1.49e+00	0	42	104	1223688192	77	20983

#Closed at: 2026-01-29 12:22:04
#Recorded file [1223 MB]: D:/lorett/data/31041_260129_150926.dat