passes_logs/2026/01/29/R3.2S_Murmansk/R3.2S_Murmansk__20260129_200148_KANOPUS-V_5_rec.log

#Pass ID: 20260129_200148_KANOPUS-V 5
#Satellite: KANOPUS-V 5
#Configuration: KANOPUS-V_8320
#almurnet v.1.7.20251203
#Start time: 2026-01-29 20:01:49

#Version: 2.2.20231116
#Station: R3.2S_Murmansk
#Location: 33.079688 lon 68.888172 lat
#TLE: 1 43876U 18111A   26029.55461459  .00005403  00000+0  22878-3 0  9999
#TLE: 2 43876  97.3680 297.8054 0001872  89.3369 270.8082 15.23581770393689

#Time	Az	El	Level	Level2	SNR	BER	BlckErr	Temp	State	Recorded	gain1	gain2
2026-01-29 20:01:49.54	24.95	2.08	-54.7	-63.5	3.8	7.43e-01	0	40	0	0	80	10280
2026-01-29 20:01:51.55	25.19	2.19	-54.7	-63.5	3.8	7.46e-01	0	40	104	0	80	10284
2026-01-29 20:01:53.55	25.42	2.30	-54.7	-63.5	3.8	7.45e-01	0	40	104	0	80	10223
2026-01-29 20:01:55.57	25.66	2.42	-54.7	-63.5	3.8	7.45e-01	0	40	104	0	80	10292
2026-01-29 20:01:57.59	25.89	2.53	-54.8	-63.7	3.8	7.47e-01	0	40	104	0	80	10490
2026-01-29 20:01:59.60	26.14	2.64	-54.9	-63.8	3.8	7.45e-01	0	40	104	0	80	10550
2026-01-29 20:02:01.62	26.38	2.75	-54.9	-63.7	3.8	7.45e-01	0	40	104	0	80	10515
2026-01-29 20:02:03.63	26.62	2.86	-54.9	-63.7	3.8	7.45e-01	0	40	104	0	80	10462
2026-01-29 20:02:05.64	26.87	2.98	-54.8	-63.6	3.8	7.45e-01	0	40	104	0	80	10403
2026-01-29 20:02:07.65	27.12	3.09	-54.8	-63.7	3.8	7.47e-01	0	40	104	0	80	10424
2026-01-29 20:02:09.67	27.38	3.20	-54.8	-63.6	3.8	7.46e-01	0	40	104	0	80	10352
2026-01-29 20:02:11.69	27.63	3.32	-54.6	-63.5	3.8	7.46e-01	0	40	104	0	80	10208
2026-01-29 20:02:13.70	27.89	3.43	-54.4	-63.3	3.8	7.45e-01	0	40	104	0	80	9979
2026-01-29 20:02:15.71	28.15	3.54	-54.2	-63.0	3.8	7.44e-01	0	41	104	0	80	9687
2026-01-29 20:02:17.73	28.41	3.66	-53.8	-62.6	3.8	7.44e-01	0	40	104	0	79	9759
2026-01-29 20:02:19.74	28.68	3.77	-53.0	-61.9	3.8	7.44e-01	0	41	104	0	78	9541
2026-01-29 20:02:21.75	28.94	3.88	-53.0	-61.8	3.8	7.46e-01	0	41	104	0	78	9463
2026-01-29 20:02:23.77	29.21	4.00	-53.0	-61.8	3.8	7.45e-01	0	40	104	0	77	9982
2026-01-29 20:02:25.78	29.49	4.11	-52.9	-61.8	3.8	7.43e-01	0	41	104	0	77	9997
2026-01-29 20:02:27.80	29.76	4.23	-52.9	-61.7	3.8	7.45e-01	0	41	104	0	77	9936
2026-01-29 20:02:29.82	30.04	4.35	-52.9	-61.8	3.8	7.46e-01	0	41	104	0	77	9983
2026-01-29 20:02:31.84	30.32	4.46	-52.9	-61.7	3.8	7.45e-01	0	41	104	0	77	9936
2026-01-29 20:02:33.85	30.61	4.58	-52.9	-61.7	3.8	7.45e-01	0	41	104	0	77	9914
2026-01-29 20:02:35.86	30.89	4.69	-52.9	-61.7	3.8	7.45e-01	0	41	104	0	77	9915
2026-01-29 20:02:37.88	31.18	4.81	-52.9	-61.7	3.8	7.45e-01	0	41	104	0	77	9907
2026-01-29 20:02:39.90	31.48	4.93	-52.9	-61.7	3.8	7.46e-01	0	41	104	0	77	9918
2026-01-29 20:02:41.91	31.77	5.04	-52.9	-61.7	3.8	7.44e-01	0	41	104	0	77	9910
2026-01-29 20:02:43.92	32.07	5.16	-52.8	-61.6	3.8	7.44e-01	0	41	104	0	77	9805
2026-01-29 20:02:45.94	32.37	5.27	-52.9	-61.8	3.8	7.46e-01	0	41	104	0	77	9983
2026-01-29 20:02:47.95	32.67	5.39	-52.8	-61.6	3.8	7.45e-01	0	41	104	0	77	9777
2026-01-29 20:02:49.97	32.98	5.51	-52.9	-61.7	3.8	7.46e-01	0	41	104	0	77	9905
2026-01-29 20:02:51.98	33.29	5.63	-52.8	-61.6	3.8	7.45e-01	0	41	104	0	77	9748
2026-01-29 20:02:54.00	33.60	5.74	-52.9	-61.7	3.8	7.44e-01	0	41	104	0	77	9931
2026-01-29 20:02:56.01	33.92	5.86	-52.8	-61.6	3.8	7.46e-01	0	41	104	0	77	9764
2026-01-29 20:02:58.02	34.24	5.98	-52.9	-61.7	3.8	7.46e-01	0	41	104	0	77	9909
2026-01-29 20:03:00.04	34.56	6.10	-52.8	-61.6	3.8	7.46e-01	0	41	104	0	77	9744
2026-01-29 20:03:02.06	34.89	6.21	-52.9	-61.7	3.8	7.45e-01	0	41	104	0	77	9938
2026-01-29 20:03:04.07	35.22	6.33	-52.8	-61.6	3.8	7.45e-01	0	41	104	0	77	9819
2026-01-29 20:03:06.08	35.55	6.45	-52.9	-61.8	3.8	7.45e-01	0	41	104	0	77	9972
2026-01-29 20:03:08.09	35.88	6.57	-52.8	-61.7	3.8	7.45e-01	0	41	104	0	77	9841
2026-01-29 20:03:10.11	36.22	6.68	-52.9	-61.8	3.8	7.47e-01	0	41	104	0	77	9965
2026-01-29 20:03:12.12	36.56	6.80	-52.8	-61.7	3.8	7.45e-01	0	41	104	0	77	9847
2026-01-29 20:03:14.13	36.91	6.92	-52.9	-61.8	3.8	7.45e-01	0	42	104	0	77	10002
2026-01-29 20:03:16.14	37.26	7.04	-52.9	-61.7	3.8	7.46e-01	0	41	104	0	77	9891
2026-01-29 20:03:18.16	37.61	7.15	-53.0	-61.8	3.8	7.44e-01	0	41	104	0	77	10003
2026-01-29 20:03:20.17	37.97	7.27	-52.9	-61.7	3.8	7.45e-01	0	41	104	0	77	9894
2026-01-29 20:03:22.18	38.33	7.39	-53.0	-61.8	3.8	7.45e-01	0	41	104	0	77	10014
2026-01-29 20:03:24.19	38.69	7.51	-52.9	-61.7	3.8	7.44e-01	0	42	104	0	77	9901
2026-01-29 20:03:26.20	39.05	7.62	-53.0	-61.8	3.8	7.44e-01	0	42	104	0	77	10001
2026-01-29 20:03:28.22	39.43	7.74	-52.9	-61.7	3.8	7.46e-01	0	41	104	0	77	9921
2026-01-29 20:03:30.24	39.80	7.86	-53.0	-61.8	3.8	7.45e-01	0	42	104	0	77	10014
2026-01-29 20:03:32.26	40.18	7.97	-52.9	-61.8	3.8	7.46e-01	0	41	104	0	77	9963
2026-01-29 20:03:34.27	40.56	8.09	-53.0	-61.8	3.8	7.46e-01	0	41	104	0	77	10022
2026-01-29 20:03:36.28	40.94	8.21	-52.9	-61.8	3.8	7.46e-01	0	42	104	0	77	9985
2026-01-29 20:03:38.29	41.33	8.32	-53.0	-61.9	3.8	7.44e-01	0	41	104	0	77	10072
2026-01-29 20:03:40.31	41.73	8.44	-52.9	-61.8	3.8	7.45e-01	0	42	104	0	77	9951
2026-01-29 20:03:42.32	42.12	8.56	-53.0	-61.9	3.8	7.44e-01	0	41	104	0	77	10066
2026-01-29 20:03:44.33	42.52	8.67	-53.0	-61.8	3.8	7.46e-01	0	42	104	0	77	10001
2026-01-29 20:03:46.34	42.93	8.79	-53.0	-61.9	3.8	7.46e-01	0	42	104	0	77	10073
2026-01-29 20:03:48.36	43.34	8.90	-53.0	-61.8	3.8	7.45e-01	0	42	104	0	77	10024
2026-01-29 20:03:50.37	43.75	9.01	-53.1	-61.9	3.8	7.47e-01	0	42	104	0	77	10145
2026-01-29 20:03:52.38	44.16	9.13	-53.0	-61.8	3.8	7.45e-01	0	42	104	0	77	10016
2026-01-29 20:03:54.40	44.58	9.24	-53.1	-61.9	3.8	7.46e-01	0	42	104	0	77	10101
2026-01-29 20:03:56.41	45.01	9.35	-53.0	-61.8	3.8	7.44e-01	0	42	104	0	77	10050
2026-01-29 20:03:58.42	45.43	9.47	-53.1	-61.9	3.8	7.45e-01	0	42	104	0	77	10128
2026-01-29 20:04:00.43	45.86	9.58	-53.0	-61.9	3.8	7.45e-01	0	42	104	0	77	10079
2026-01-29 20:04:02.45	46.30	9.69	-53.1	-61.9	3.8	7.46e-01	0	42	104	0	77	10161
2026-01-29 20:04:04.46	46.74	9.80	-53.1	-61.9	3.8	7.44e-01	0	42	104	0	77	10109
2026-01-29 20:04:06.47	47.18	9.91	-53.1	-62.0	3.8	7.45e-01	0	42	104	0	77	10190
2026-01-29 20:04:08.49	47.63	10.02	-53.1	-61.9	3.8	7.46e-01	0	42	104	0	77	10146
2026-01-29 20:04:10.50	48.09	10.13	-53.1	-61.9	3.8	7.46e-01	0	42	104	0	77	10151
2026-01-29 20:04:12.51	48.54	10.24	-53.1	-61.9	3.8	7.46e-01	0	42	104	0	77	10167
2026-01-29 20:04:14.53	49.00	10.35	-53.1	-62.0	3.8	7.46e-01	0	42	104	0	77	10203
2026-01-29 20:04:16.54	49.47	10.45	-53.1	-62.0	3.8	7.45e-01	0	42	104	0	77	10212
2026-01-29 20:04:18.56	49.94	10.56	-53.1	-62.0	3.8	7.45e-01	0	42	104	0	77	10187
2026-01-29 20:04:20.57	50.41	10.66	-53.2	-62.0	3.8	7.47e-01	0	42	104	0	77	10198
2026-01-29 20:04:22.58	50.88	10.77	-53.2	-62.0	3.8	7.46e-01	0	42	104	0	77	10183
2026-01-29 20:04:24.60	51.37	10.87	-53.2	-62.0	3.8	7.46e-01	0	42	104	0	77	10259
2026-01-29 20:04:26.61	51.85	10.97	-53.2	-62.0	3.8	7.44e-01	0	42	104	0	77	10239
2026-01-29 20:04:28.63	52.34	11.07	-53.2	-62.0	3.8	7.44e-01	0	42	104	0	77	10243
2026-01-29 20:04:30.64	52.83	11.17	-53.2	-62.0	3.8	7.45e-01	0	42	104	0	77	10236
2026-01-29 20:04:32.66	53.33	11.27	-53.2	-62.1	3.8	7.45e-01	0	42	104	0	77	10303
2026-01-29 20:04:34.68	53.83	11.37	-53.2	-62.0	3.8	7.45e-01	0	42	104	0	77	10256
2026-01-29 20:04:36.69	54.34	11.47	-53.2	-62.1	3.8	7.47e-01	0	42	104	0	77	10310
2026-01-29 20:04:38.71	54.85	11.56	-53.2	-62.0	3.8	7.47e-01	0	42	104	0	77	10271
2026-01-29 20:04:40.72	55.36	11.66	-53.2	-62.1	3.8	7.46e-01	0	42	104	0	77	10350
2026-01-29 20:04:42.73	55.88	11.75	-53.2	-62.0	3.8	7.46e-01	0	42	104	0	77	10281
2026-01-29 20:04:44.74	56.40	11.84	-53.3	-62.1	3.8	7.45e-01	0	42	104	0	77	10357
2026-01-29 20:04:46.76	56.92	11.93	-53.2	-62.1	3.8	7.46e-01	0	42	104	0	77	10309
2026-01-29 20:04:48.77	57.45	12.02	-53.3	-62.1	3.8	7.45e-01	0	42	104	0	77	10378
2026-01-29 20:04:50.78	57.98	12.11	-53.2	-62.1	3.8	7.45e-01	0	42	104	0	77	10302
2026-01-29 20:04:52.80	58.52	12.19	-53.3	-62.1	3.8	7.44e-01	0	42	104	0	77	10367
2026-01-29 20:04:54.80	59.06	12.28	-53.2	-62.1	3.8	7.44e-01	0	42	104	0	77	10308
2026-01-29 20:04:56.82	59.60	12.36	-53.3	-62.1	3.8	7.46e-01	0	42	104	0	77	10405
2026-01-29 20:04:58.83	60.15	12.44	-53.3	-62.1	3.8	7.44e-01	0	42	104	0	77	10357
2026-01-29 20:05:00.84	60.70	12.52	-53.3	-62.2	3.8	7.44e-01	0	42	104	0	77	10451
2026-01-29 20:05:02.86	61.25	12.60	-53.2	-62.1	3.8	7.44e-01	0	42	104	0	77	10334
2026-01-29 20:05:04.87	61.81	12.67	-53.3	-62.2	3.8	7.44e-01	0	42	104	0	77	10445
2026-01-29 20:05:06.89	62.37	12.75	-53.3	-62.1	3.8	7.44e-01	0	42	104	0	77	10330
2026-01-29 20:05:08.90	62.94	12.82	-53.4	-62.2	3.8	7.47e-01	0	42	104	0	77	10433
2026-01-29 20:05:10.92	63.51	12.89	-53.3	-62.1	3.8	7.44e-01	0	42	104	0	77	10364
2026-01-29 20:05:12.93	64.08	12.95	-53.4	-62.2	3.8	7.46e-01	0	42	104	0	77	10451
2026-01-29 20:05:14.94	64.65	13.02	-53.3	-62.1	3.8	7.46e-01	0	42	104	0	77	10347
2026-01-29 20:05:16.95	65.22	13.08	-53.4	-62.2	3.8	7.45e-01	0	42	104	0	77	10484
2026-01-29 20:05:18.96	65.80	13.14	-53.3	-62.1	3.8	7.46e-01	0	42	104	0	77	10365
2026-01-29 20:05:20.97	66.38	13.20	-53.4	-62.2	3.8	7.44e-01	0	42	104	0	77	10501
2026-01-29 20:05:22.99	66.97	13.26	-53.3	-62.1	3.8	7.48e-01	0	42	104	0	77	10410
2026-01-29 20:05:24.99	67.56	13.32	-53.4	-62.2	3.8	7.46e-01	0	42	104	0	77	10481
2026-01-29 20:05:27.01	68.15	13.37	-53.3	-62.1	3.8	7.45e-01	0	42	104	0	77	10402
2026-01-29 20:05:29.02	68.74	13.42	-53.4	-62.2	3.8	7.46e-01	0	42	104	0	77	10485
2026-01-29 20:05:31.03	69.34	13.47	-53.3	-62.2	3.8	7.47e-01	0	42	104	0	77	10419
2026-01-29 20:05:33.04	69.93	13.51	-53.4	-62.2	3.8	7.45e-01	0	42	104	0	77	10510
2026-01-29 20:05:35.05	70.53	13.55	-53.3	-62.2	3.8	7.46e-01	0	42	104	0	77	10426
2026-01-29 20:05:37.06	71.13	13.60	-53.4	-62.2	3.8	7.44e-01	0	42	104	0	77	10514
2026-01-29 20:05:39.07	71.73	13.63	-53.3	-62.1	3.8	7.45e-01	0	42	104	0	77	10412
2026-01-29 20:05:41.08	72.34	13.67	-53.4	-62.2	3.8	7.46e-01	0	42	104	0	77	10525
2026-01-29 20:05:43.10	72.95	13.70	-53.3	-62.2	3.8	7.44e-01	0	42	104	0	77	10433
2026-01-29 20:05:45.11	73.56	13.73	-53.4	-62.3	3.8	7.44e-01	0	42	104	0	77	10545
2026-01-29 20:05:47.12	74.16	13.76	-53.3	-62.2	3.8	7.45e-01	0	42	104	0	77	10431
2026-01-29 20:05:49.14	74.78	13.79	-53.4	-62.2	3.8	7.44e-01	0	42	104	0	77	10519
2026-01-29 20:05:51.15	75.39	13.81	-53.3	-62.2	3.8	7.45e-01	0	42	104	0	77	10423
2026-01-29 20:05:53.17	76.01	13.83	-53.4	-62.2	3.8	7.46e-01	0	42	104	0	77	10533
2026-01-29 20:05:55.18	76.62	13.85	-53.3	-62.2	3.8	7.46e-01	0	42	104	0	77	10469
2026-01-29 20:05:57.20	77.24	13.86	-53.4	-62.3	3.8	7.45e-01	0	42	104	0	77	10553
2026-01-29 20:05:59.21	77.85	13.88	-53.3	-62.2	3.8	7.47e-01	0	42	104	0	77	10445
2026-01-29 20:06:01.23	78.47	13.89	-53.4	-62.3	3.8	7.45e-01	0	42	104	0	77	10535
2026-01-29 20:06:03.24	79.09	13.89	-53.3	-62.2	3.8	7.44e-01	0	42	104	0	77	10436
2026-01-29 20:06:05.26	79.71	13.90	-53.4	-62.2	3.8	7.45e-01	0	42	104	0	77	10501
2026-01-29 20:06:07.26	80.32	13.90	-53.3	-62.2	3.8	7.44e-01	0	42	104	0	77	10471
2026-01-29 20:06:09.28	80.94	13.90	-53.4	-62.2	3.8	7.44e-01	0	42	104	0	77	10466
2026-01-29 20:06:11.29	81.56	13.89	-53.3	-62.2	3.8	7.46e-01	0	42	104	0	77	10446
2026-01-29 20:06:13.31	82.18	13.89	-53.4	-62.2	3.8	7.46e-01	0	42	104	0	77	10512
2026-01-29 20:06:15.31	82.79	13.88	-53.3	-62.2	3.8	7.45e-01	0	42	104	0	77	10483
2026-01-29 20:06:17.32	83.41	13.87	-53.4	-62.2	3.8	7.45e-01	0	42	104	0	77	10533
2026-01-29 20:06:19.33	84.02	13.85	-53.3	-62.2	3.8	7.44e-01	0	42	104	0	77	10437
2026-01-29 20:06:21.35	84.64	13.83	-53.4	-62.2	3.8	7.46e-01	0	42	104	0	77	10510
2026-01-29 20:06:23.36	85.26	13.81	-53.3	-62.2	3.8	7.47e-01	0	42	104	0	77	10415
2026-01-29 20:06:25.38	85.87	13.79	-53.4	-62.2	3.8	7.45e-01	0	42	104	0	77	10497
2026-01-29 20:06:27.39	86.48	13.77	-53.3	-62.2	3.8	7.43e-01	0	42	104	0	77	10439
2026-01-29 20:06:29.40	87.09	13.74	-53.4	-62.2	3.8	7.45e-01	0	42	104	0	77	10455
2026-01-29 20:06:31.41	87.70	13.71	-53.3	-62.1	3.8	7.46e-01	0	42	104	0	77	10404
2026-01-29 20:06:33.43	88.31	13.68	-53.4	-62.2	3.8	7.46e-01	0	42	104	0	77	10473
2026-01-29 20:06:35.44	88.92	13.64	-53.3	-62.1	3.8	7.46e-01	0	42	104	0	77	10397
2026-01-29 20:06:37.45	89.52	13.60	-53.3	-62.2	3.8	7.44e-01	0	42	104	0	77	10464
2026-01-29 20:06:39.47	90.13	13.56	-53.3	-62.2	3.8	7.45e-01	0	42	104	0	77	10424
2026-01-29 20:06:41.47	90.73	13.52	-53.3	-62.2	3.8	7.46e-01	0	42	104	0	77	10426
2026-01-29 20:06:43.49	91.33	13.48	-53.3	-62.1	3.8	7.46e-01	0	42	104	0	77	10390
2026-01-29 20:06:45.50	91.92	13.43	-53.3	-62.1	3.8	7.46e-01	0	42	104	0	77	10407
2026-01-29 20:06:47.51	92.52	13.38	-53.3	-62.1	3.8	7.46e-01	0	42	104	0	77	10320
2026-01-29 20:06:49.53	93.11	13.33	-53.3	-62.2	3.8	7.45e-01	0	42	104	0	77	10416
2026-01-29 20:06:51.54	93.70	13.27	-53.3	-62.1	3.8	7.46e-01	0	42	104	0	77	10375
2026-01-29 20:06:53.55	94.29	13.21	-53.3	-62.2	3.8	7.45e-01	0	42	104	0	77	10419
2026-01-29 20:06:55.56	94.87	13.16	-53.3	-62.1	3.8	7.44e-01	0	42	104	0	77	10366
2026-01-29 20:06:57.58	95.45	13.09	-53.3	-62.2	3.8	7.45e-01	0	42	104	0	77	10420
2026-01-29 20:06:59.59	96.03	13.03	-53.3	-62.1	3.8	7.45e-01	0	42	104	0	77	10351
2026-01-29 20:07:01.60	96.61	12.97	-53.3	-62.1	3.8	7.44e-01	0	42	104	0	77	10397
2026-01-29 20:07:03.61	97.18	12.90	-53.3	-62.1	3.8	7.46e-01	0	42	104	0	77	10337
2026-01-29 20:07:05.61	97.75	12.83	-53.3	-62.1	3.8	7.46e-01	0	42	104	0	77	10405
2026-01-29 20:07:07.62	98.31	12.76	-53.3	-62.1	3.8	7.46e-01	0	42	104	0	77	10368
2026-01-29 20:07:09.63	98.87	12.68	-53.3	-62.2	3.8	7.43e-01	0	42	104	0	77	10438
2026-01-29 20:07:11.64	99.43	12.61	-53.3	-62.1	3.8	7.44e-01	0	42	104	0	77	10378
2026-01-29 20:07:13.66	99.99	12.53	-53.3	-62.2	3.8	7.46e-01	0	42	104	0	77	10435
2026-01-29 20:07:15.67	100.55	12.45	-53.3	-62.1	3.8	7.45e-01	0	42	104	0	77	10368
2026-01-29 20:07:17.69	101.10	12.37	-53.3	-62.2	3.8	7.46e-01	0	42	104	0	77	10434
2026-01-29 20:07:19.69	101.64	12.29	-53.3	-62.1	3.8	7.44e-01	0	42	104	0	77	10381
2026-01-29 20:07:21.71	102.18	12.21	-53.3	-62.2	3.8	7.47e-01	0	42	104	0	77	10453
2026-01-29 20:07:23.72	102.72	12.12	-53.3	-62.1	3.8	7.45e-01	0	42	104	0	77	10387
2026-01-29 20:07:25.73	103.26	12.03	-53.4	-62.2	3.8	7.44e-01	0	42	104	0	77	10445
2026-01-29 20:07:27.74	103.79	11.94	-53.3	-62.1	3.8	7.45e-01	0	42	104	0	77	10405
2026-01-29 20:07:29.76	104.32	11.85	-53.3	-62.2	3.8	7.46e-01	0	42	104	0	77	10466
2026-01-29 20:07:31.77	104.84	11.76	-53.3	-62.2	3.8	7.45e-01	0	42	104	0	77	10447
2026-01-29 20:07:33.78	105.36	11.67	-53.3	-62.2	3.8	7.44e-01	0	42	104	0	77	10472
2026-01-29 20:07:35.79	105.87	11.58	-53.3	-62.2	3.8	7.43e-01	0	42	104	0	77	10467
2026-01-29 20:07:37.81	106.39	11.48	-53.4	-62.2	3.8	7.45e-01	0	42	104	0	77	10462
2026-01-29 20:07:39.82	106.90	11.38	-53.4	-62.2	3.8	7.45e-01	0	42	104	0	77	10489
2026-01-29 20:07:41.83	107.40	11.28	-53.4	-62.2	3.8	7.45e-01	0	42	104	0	77	10473
2026-01-29 20:07:43.85	107.90	11.18	-53.4	-62.2	3.8	7.47e-01	0	42	104	0	77	10472
2026-01-29 20:07:45.86	108.40	11.08	-53.3	-62.2	3.8	7.45e-01	0	42	104	0	77	10442
2026-01-29 20:07:47.88	108.89	10.98	-53.4	-62.2	3.8	7.44e-01	0	42	104	0	77	10458
2026-01-29 20:07:49.89	109.38	10.88	-53.3	-62.2	3.8	7.46e-01	0	42	104	0	77	10460
2026-01-29 20:07:51.91	109.86	10.78	-53.4	-62.2	3.8	7.46e-01	0	42	104	0	77	10492
2026-01-29 20:07:53.92	110.34	10.67	-53.3	-62.2	3.8	7.45e-01	0	42	104	0	77	10422
2026-01-29 20:07:55.93	110.82	10.57	-53.4	-62.2	3.8	7.46e-01	0	42	104	0	77	10470
2026-01-29 20:07:57.94	111.29	10.46	-53.3	-62.2	3.8	7.45e-01	0	42	104	0	77	10433
2026-01-29 20:07:59.95	111.75	10.35	-53.3	-62.2	3.8	7.45e-01	0	42	104	0	77	10428
2026-01-29 20:08:01.96	112.22	10.25	-53.4	-62.2	3.8	7.45e-01	0	42	104	0	77	10515
2026-01-29 20:08:03.97	112.67	10.14	-53.4	-62.2	3.8	7.46e-01	0	42	104	0	77	10495
2026-01-29 20:08:05.98	113.13	10.03	-53.3	-62.1	3.8	7.44e-01	0	42	104	0	77	10385
2026-01-29 20:08:08.00	113.58	9.92	-53.3	-62.1	3.8	7.45e-01	0	42	104	0	77	10362
2026-01-29 20:08:10.01	114.03	9.81	-53.3	-62.1	3.8	7.45e-01	0	42	104	0	77	10313
2026-01-29 20:08:12.02	114.47	9.69	-53.2	-62.1	3.8	7.45e-01	0	42	104	0	77	10331
2026-01-29 20:08:14.04	114.91	9.58	-53.2	-62.0	3.8	7.46e-01	0	42	104	0	77	10276
2026-01-29 20:08:16.05	115.34	9.47	-53.2	-62.1	3.8	7.46e-01	0	42	104	0	77	10321
2026-01-29 20:08:18.07	115.78	9.36	-53.2	-62.0	3.8	7.46e-01	0	42	104	0	77	10269
2026-01-29 20:08:20.08	116.20	9.24	-53.1	-61.9	3.8	7.44e-01	0	42	104	0	77	10158
2026-01-29 20:08:22.08	116.62	9.13	-53.1	-61.9	3.8	7.44e-01	0	42	104	0	77	10112
2026-01-29 20:08:24.10	117.04	9.01	-53.0	-61.8	3.8	7.45e-01	0	42	104	0	77	10026
2026-01-29 20:08:26.10	117.45	8.90	-53.0	-61.8	3.8	7.46e-01	0	42	104	0	77	10053
2026-01-29 20:08:28.11	117.87	8.78	-52.9	-61.8	3.8	7.44e-01	0	42	104	0	77	9983
2026-01-29 20:08:30.12	118.27	8.67	-52.9	-61.8	3.8	7.46e-01	0	42	104	0	77	9988
2026-01-29 20:08:32.13	118.67	8.55	-52.8	-61.7	3.8	7.45e-01	0	42	104	0	77	9873
2026-01-29 20:08:34.15	119.07	8.44	-52.9	-61.7	3.8	7.45e-01	0	42	104	0	77	9939
2026-01-29 20:08:36.16	119.47	8.32	-52.8	-61.6	3.8	7.44e-01	0	42	104	0	77	9818
2026-01-29 20:08:38.17	119.86	8.20	-52.9	-61.7	3.8	7.45e-01	0	42	104	0	77	9944
2026-01-29 20:08:40.18	120.25	8.08	-52.8	-61.6	3.8	7.45e-01	0	42	104	0	77	9822
2026-01-29 20:08:42.19	120.63	7.97	-52.8	-61.6	3.8	7.45e-01	0	42	104	0	77	9765
2026-01-29 20:08:44.20	121.01	7.85	-52.7	-61.5	3.8	7.46e-01	0	42	104	0	77	9674
2026-01-29 20:08:46.22	121.39	7.73	-52.7	-61.5	3.8	7.47e-01	0	42	104	0	77	9670
2026-01-29 20:08:48.23	121.76	7.61	-52.6	-61.4	3.8	7.44e-01	0	42	104	0	77	9595
2026-01-29 20:08:50.23	122.13	7.50	-52.6	-61.5	3.8	7.46e-01	0	42	104	0	77	9655
2026-01-29 20:08:52.25	122.49	7.38	-52.6	-61.4	3.8	7.45e-01	0	42	104	0	77	9538
2026-01-29 20:08:54.25	122.85	7.26	-52.6	-61.4	3.8	7.44e-01	0	42	104	0	77	9532
2026-01-29 20:08:56.25	123.21	7.14	-52.5	-61.3	3.8	7.44e-01	0	42	104	0	77	9467
2026-01-29 20:08:58.27	123.57	7.02	-52.5	-61.4	3.8	7.44e-01	0	42	104	0	77	9515
2026-01-29 20:09:00.29	123.92	6.90	-52.4	-61.3	3.8	7.44e-01	0	42	104	0	76	9952
2026-01-29 20:09:02.30	124.27	6.79	-52.4	-61.3	3.8	7.45e-01	0	42	104	0	76	9976
2026-01-29 20:09:04.31	124.61	6.67	-52.4	-61.2	3.8	7.46e-01	0	42	104	0	76	9899
2026-01-29 20:09:06.32	124.95	6.55	-52.4	-61.2	3.8	7.45e-01	0	42	104	0	76	9905
2026-01-29 20:09:08.33	125.29	6.43	-52.3	-61.1	3.8	7.45e-01	0	42	104	0	76	9826
2026-01-29 20:09:10.34	125.62	6.31	-52.3	-61.1	3.8	7.45e-01	0	42	104	0	76	9821
2026-01-29 20:09:12.35	125.95	6.19	-52.3	-61.1	3.8	7.45e-01	0	42	104	0	76	9767
2026-01-29 20:09:14.36	126.28	6.08	-52.3	-61.1	3.8	7.44e-01	0	42	104	0	76	9766
2026-01-29 20:09:16.38	126.60	5.96	-52.2	-61.0	3.8	7.45e-01	0	42	104	0	76	9716
2026-01-29 20:09:18.39	126.92	5.84	-52.2	-61.1	3.8	7.46e-01	0	42	104	0	76	9739
2026-01-29 20:09:20.39	127.24	5.72	-52.2	-61.0	3.8	7.43e-01	0	42	104	0	76	9689
2026-01-29 20:09:22.41	127.56	5.60	-52.1	-61.0	3.8	7.47e-01	0	42	104	0	76	9651
2026-01-29 20:09:24.43	127.87	5.48	-52.1	-60.9	3.8	7.46e-01	0	42	104	0	76	9590
2026-01-29 20:09:26.44	128.18	5.37	-52.1	-60.9	3.8	7.45e-01	0	42	104	0	76	9566
2026-01-29 20:09:28.45	128.48	5.25	-52.1	-60.9	3.8	7.45e-01	0	42	104	0	75	10113
2026-01-29 20:09:30.47	128.79	5.13	-52.0	-60.9	3.8	7.45e-01	0	42	104	0	75	10067
2026-01-29 20:09:32.48	129.09	5.01	-51.8	-60.7	3.8	7.44e-01	0	42	104	0	75	9875
2026-01-29 20:09:34.49	129.38	4.90	-52.8	-61.6	3.8	7.46e-01	0	42	104	0	76	10338
2026-01-29 20:09:36.50	129.68	4.78	-53.4	-62.2	3.8	7.46e-01	0	42	104	0	77	10509
2026-01-29 20:09:38.52	129.97	4.66	-53.8	-62.6	3.8	7.46e-01	0	42	104	0	78	10397
2026-01-29 20:09:40.53	130.25	4.55	-54.1	-62.9	3.8	7.46e-01	0	42	104	0	78	10754
2026-01-29 20:09:42.55	130.54	4.43	-54.3	-63.1	3.8	7.45e-01	0	42	104	0	79	10407
2026-01-29 20:09:44.56	130.82	4.31	-54.5	-63.3	3.8	7.46e-01	0	42	104	0	79	10629
2026-01-29 20:09:46.58	131.10	4.20	-54.6	-63.4	3.8	7.44e-01	0	42	104	0	79	10776
2026-01-29 20:09:48.60	131.38	4.08	-54.7	-63.6	3.8	7.45e-01	0	42	104	0	79	10948
2026-01-29 20:09:50.61	131.66	3.96	-54.8	-63.6	3.8	7.44e-01	0	42	104	0	80	10355
2026-01-29 20:09:52.63	131.93	3.85	-54.9	-63.7	3.8	7.47e-01	0	42	104	0	80	10470
2026-01-29 20:09:54.64	132.20	3.73	-54.9	-63.7	3.8	7.46e-01	0	42	104	0	80	10475
2026-01-29 20:09:56.65	132.46	3.62	-54.9	-63.7	3.8	7.45e-01	0	42	104	0	80	10529
2026-01-29 20:09:58.67	132.73	3.50	-54.9	-63.8	3.8	7.45e-01	0	42	104	0	80	10560
2026-01-29 20:10:00.68	132.99	3.39	-55.0	-63.9	3.8	7.46e-01	0	42	104	0	80	10665
2026-01-29 20:10:02.70	133.25	3.27	-55.0	-63.9	3.8	7.45e-01	0	42	104	0	80	10691
2026-01-29 20:10:04.71	133.50	3.16	-55.0	-63.9	3.8	7.45e-01	0	42	104	0	80	10709
2026-01-29 20:10:06.73	133.76	3.05	-55.0	-63.9	3.8	7.45e-01	0	42	104	0	80	10712
2026-01-29 20:10:08.74	134.01	2.93	-55.0	-63.9	3.8	7.45e-01	0	42	104	0	80	10693
2026-01-29 20:10:10.75	134.26	2.82	-55.0	-63.8	3.8	7.45e-01	0	42	104	0	80	10622
2026-01-29 20:10:12.77	134.50	2.71	-55.0	-63.8	3.8	7.44e-01	0	42	104	0	80	10624
2026-01-29 20:10:14.79	134.75	2.59	-54.9	-63.7	3.8	7.45e-01	0	42	104	0	80	10524
2026-01-29 20:10:16.80	134.99	2.48	-54.8	-63.6	3.8	7.46e-01	0	42	104	0	80	10405
2026-01-29 20:10:18.81	135.23	2.37	-54.7	-63.6	3.8	7.44e-01	0	42	104	0	80	10300
2026-01-29 20:10:20.83	135.47	2.25	-54.6	-63.4	3.8	7.45e-01	0	42	104	0	80	10108
2026-01-29 20:10:22.84	135.70	2.14	-54.4	-63.3	3.8	7.45e-01	0	42	104	0	80	9948
2026-01-29 20:10:24.86	135.94	2.03	-54.2	-63.0	3.8	7.45e-01	0	42	104	0	80	9658

#Closed at: 2026-01-29 20:10:26
#Recorded file [0 MB]: D:/lorett/data/31041_260129_230149.dat