passes_logs/2026/01/29/R3.2S_Murmansk/R3.2S_Murmansk__20260129_075656_NOAA_21_JPSS-2_rec.log

#Pass ID: 20260129_075656_NOAA 21 (JPSS-2)
#Satellite: NOAA 21 (JPSS-2)
#Configuration: NOAA-21
#almurnet v.1.7.20251203
#Start time: 2026-01-29 07:57:56

#Version: 2.2.20231116
#Station: R3.2S_Murmansk
#Location: 33.079688 lon 68.888172 lat
#TLE: 1 54234U 22150A   26028.89828222  .00000145  00000+0  89569-4 0  9997
#TLE: 2 54234  98.7511 329.6308 0000927 198.8651 161.2491 14.19540676166783

#Time	Az	El	Level	Level2	SNR	BER	BlckErr	Temp	State	Recorded	gain1	gain2
2026-01-29 07:57:56.59	112.80	5.99	-52.9	-64.8	3.8	8.46e-01	0	41	0	0	76	15021
2026-01-29 07:58:00.61	112.61	6.28	-54.2	-67.0	3.8	1.49e+00	0	42	104	0	79	16244
2026-01-29 07:58:04.63	112.42	6.57	-54.4	-67.1	3.8	1.49e+00	0	42	104	0	79	16465
2026-01-29 07:58:08.66	112.23	6.86	-54.4	-67.2	3.8	1.49e+00	0	42	104	0	79	16614
2026-01-29 07:58:12.69	112.02	7.16	-54.4	-67.2	3.8	1.49e+00	0	42	104	0	79	16617
2026-01-29 07:58:16.73	111.82	7.46	-54.4	-67.2	3.8	1.49e+00	0	42	104	0	79	16506
2026-01-29 07:58:20.76	111.61	7.76	-54.3	-67.1	3.8	1.49e+00	0	42	104	0	79	16424
2026-01-29 07:58:24.79	111.40	8.06	-54.2	-67.0	3.8	1.49e+00	0	42	104	0	79	16172
2026-01-29 07:58:28.82	111.18	8.37	-54.2	-67.0	3.8	1.49e+00	0	42	104	0	79	16225
2026-01-29 07:58:32.85	110.95	8.69	-54.2	-67.0	3.8	1.49e+00	0	42	104	0	79	16191
2026-01-29 07:58:36.89	110.72	9.00	-54.2	-67.0	3.8	1.49e+00	0	42	104	0	79	16153
2026-01-29 07:58:40.91	110.49	9.32	-54.1	-66.9	3.8	1.49e+00	0	42	104	0	79	16051
2026-01-29 07:58:44.94	110.25	9.64	-54.1	-66.9	3.8	1.49e+00	0	42	104	0	79	15983
2026-01-29 07:58:48.97	110.00	9.97	-54.1	-66.8	3.8	1.49e+00	0	42	104	0	79	15931
2026-01-29 07:58:53.00	109.75	10.30	-54.2	-67.0	3.8	1.49e+00	0	42	104	0	79	16179
2026-01-29 07:58:57.02	109.50	10.64	-54.2	-67.0	3.8	1.49e+00	0	42	104	0	79	16248
2026-01-29 07:59:01.06	109.23	10.97	-54.1	-66.9	3.8	1.49e+00	0	42	104	0	79	15969
2026-01-29 07:59:05.09	108.96	11.32	-53.9	-66.7	3.8	1.49e+00	0	42	104	0	79	15676
2026-01-29 07:59:09.12	108.68	11.66	-53.8	-66.6	3.8	1.49e+00	0	42	104	0	79	15462
2026-01-29 07:59:13.15	108.40	12.01	-53.6	-66.4	3.8	1.49e+00	0	42	104	0	79	15139
2026-01-29 07:59:17.17	108.11	12.37	-53.4	-66.1	3.8	1.49e+00	0	42	104	0	78	15408
2026-01-29 07:59:21.20	107.81	12.73	-44.2	-45.2	19.5	0.00e+00	0	42	0	3145728	59	4160
2026-01-29 07:59:25.24	107.50	13.09	-49.8	-52.8	11.7	4.58e-02	0	42	0	15728640	71	5031
2026-01-29 07:59:29.26	107.19	13.46	-43.4	-44.4	20.4	0.00e+00	0	42	0	27262976	58	4016
2026-01-29 07:59:33.28	106.87	13.84	-43.2	-44.1	20.6	0.00e+00	0	42	0	39845888	58	3887
2026-01-29 07:59:37.31	106.54	14.21	-43.1	-44.0	20.7	0.00e+00	0	42	0	53477376	58	3865
2026-01-29 07:59:41.34	106.20	14.60	-43.0	-44.0	20.7	0.00e+00	0	42	0	66060288	57	4062
2026-01-29 07:59:45.36	105.85	14.99	-43.1	-44.1	20.7	0.00e+00	0	42	0	77594624	57	4103
2026-01-29 07:59:49.40	105.49	15.38	-43.0	-43.9	20.8	0.00e+00	0	42	0	91226112	57	4014
2026-01-29 07:59:53.43	105.12	15.78	-43.2	-44.2	20.5	0.00e+00	0	42	0	103809024	57	4162
2026-01-29 07:59:57.47	104.74	16.18	-43.2	-44.1	20.6	0.00e+00	0	42	0	115343360	57	4120
2026-01-29 08:00:01.51	104.35	16.59	-43.1	-44.0	20.7	0.00e+00	0	42	0	128974848	57	4083
2026-01-29 08:00:05.54	103.95	17.01	-43.2	-44.1	20.6	0.00e+00	0	42	0	141557760	57	4125
2026-01-29 08:00:09.57	103.53	17.43	-43.2	-44.1	20.6	0.00e+00	0	42	0	154140672	57	4145
2026-01-29 08:00:13.60	103.11	17.86	-43.4	-44.3	20.4	0.00e+00	0	42	0	166723584	57	4231
2026-01-29 08:00:17.63	102.67	18.29	-43.2	-44.2	20.5	0.00e+00	0	42	0	179306496	57	4164
2026-01-29 08:00:21.67	102.22	18.73	-43.0	-43.9	20.8	0.00e+00	0	42	0	191889408	57	4034
2026-01-29 08:00:25.69	101.76	19.17	-43.0	-44.0	20.8	0.00e+00	0	42	0	204472320	57	4059
2026-01-29 08:00:29.72	101.28	19.62	-42.7	-43.6	21.0	0.00e+00	0	42	0	217055232	57	3881
2026-01-29 08:00:33.74	100.79	20.08	-42.8	-43.7	20.9	0.00e+00	0	42	0	229638144	57	3928
2026-01-29 08:00:37.78	100.28	20.54	-42.5	-43.4	21.2	0.00e+00	0	42	0	242221056	56	4028
2026-01-29 08:00:41.80	99.76	21.01	-42.1	-42.9	21.7	0.00e+00	0	42	0	254803968	56	3815
2026-01-29 08:00:45.83	99.22	21.48	-41.7	-42.6	21.9	0.00e+00	0	42	0	267386880	55	3869
2026-01-29 08:00:49.86	98.66	21.96	-41.6	-42.5	21.9	0.00e+00	0	42	0	279969792	55	3831
2026-01-29 08:00:53.89	98.08	22.45	-41.5	-42.3	22.1	0.00e+00	0	42	0	292552704	54	3995
2026-01-29 08:00:57.91	97.49	22.94	-41.4	-42.2	22.3	0.00e+00	0	42	0	305135616	54	3916
2026-01-29 08:01:01.95	96.87	23.44	-41.3	-42.1	22.3	0.00e+00	0	42	0	317718528	54	3882
2026-01-29 08:01:05.98	96.24	23.94	-41.5	-42.3	22.2	0.00e+00	0	42	0	330301440	54	3992
2026-01-29 08:01:10.01	95.58	24.46	-41.5	-42.3	22.2	0.00e+00	0	42	0	342884352	54	3993
2026-01-29 08:01:14.03	94.91	24.97	-41.9	-42.7	21.9	0.00e+00	0	42	0	355467264	54	4170
2026-01-29 08:01:18.06	94.21	25.49	-42.3	-43.2	21.5	0.00e+00	0	42	0	368050176	55	4155
2026-01-29 08:01:22.09	93.48	26.02	-42.6	-43.5	21.2	0.00e+00	0	42	0	380633088	55	4314
2026-01-29 08:01:26.12	92.73	26.55	-43.1	-44.1	20.8	0.00e+00	0	42	0	393216000	56	4341
2026-01-29 08:01:30.15	91.96	27.09	-42.8	-43.7	21.1	0.00e+00	0	41	0	405798912	56	4173
2026-01-29 08:01:34.17	91.16	27.63	-42.8	-43.7	21.1	0.00e+00	0	42	0	418381824	56	4155
2026-01-29 08:01:38.20	90.33	28.18	-42.8	-43.7	21.1	0.00e+00	0	42	0	430964736	56	4176
2026-01-29 08:01:42.23	89.47	28.73	-42.5	-43.4	21.4	0.00e+00	0	42	0	443547648	56	4032
2026-01-29 08:01:46.26	88.58	29.28	-42.8	-43.7	20.9	0.00e+00	0	42	0	456130560	56	4166
2026-01-29 08:01:50.30	87.65	29.84	-42.5	-43.4	21.3	0.00e+00	0	42	0	468713472	56	4022
2026-01-29 08:01:54.33	86.70	30.39	-42.6	-43.4	21.3	0.00e+00	0	42	0	481296384	56	4046
2026-01-29 08:01:58.37	85.71	30.96	-42.7	-43.6	21.2	0.00e+00	0	42	0	493879296	56	4138
2026-01-29 08:02:02.41	84.68	31.52	-42.6	-43.4	21.4	0.00e+00	0	42	0	506462208	56	4048
2026-01-29 08:02:06.44	83.62	32.08	-42.3	-43.1	21.7	0.00e+00	0	42	0	519045120	56	3907
2026-01-29 08:02:10.48	82.52	32.64	-42.7	-43.5	21.4	0.00e+00	0	42	0	531628032	56	4094
2026-01-29 08:02:14.52	81.38	33.20	-43.4	-44.4	20.6	0.00e+00	0	42	0	544210944	57	4249
2026-01-29 08:02:18.56	80.20	33.75	-43.9	-44.9	20.2	0.00e+00	0	42	0	556793856	58	4253
2026-01-29 08:02:22.59	78.98	34.30	-44.2	-45.3	19.9	0.00e+00	0	42	0	569376768	59	4210
2026-01-29 08:02:26.62	77.72	34.85	-44.3	-45.3	19.9	0.00e+00	0	42	0	581959680	59	4211
2026-01-29 08:02:30.65	76.42	35.38	-44.0	-45.0	20.1	0.00e+00	0	42	0	594542592	59	4063
2026-01-29 08:02:34.69	75.07	35.91	-43.8	-44.8	20.3	0.00e+00	0	42	0	607125504	59	3990
2026-01-29 08:02:38.72	73.69	36.43	-43.7	-44.6	20.4	0.00e+00	0	42	0	619708416	59	3912
2026-01-29 08:02:42.75	72.25	36.94	-44.4	-45.4	19.7	0.00e+00	0	42	0	632291328	59	4288
2026-01-29 08:02:46.79	70.77	37.43	-44.1	-45.1	20.0	0.00e+00	0	42	0	644874240	59	4122
2026-01-29 08:02:50.82	69.25	37.91	-43.8	-44.8	20.4	0.00e+00	0	42	0	657457152	59	3961
2026-01-29 08:02:54.86	67.67	38.37	-44.4	-45.4	19.8	0.00e+00	0	42	0	670040064	59	4277
2026-01-29 08:02:58.89	66.06	38.81	-44.1	-45.1	20.0	0.00e+00	0	42	0	682622976	59	4143
2026-01-29 08:03:02.91	64.41	39.22	-44.4	-45.4	19.4	0.00e+00	0	42	0	695205888	60	4044
2026-01-29 08:03:06.95	62.71	39.62	-44.8	-46.0	18.9	0.00e+00	0	42	0	707788800	60	4293
2026-01-29 08:03:10.99	60.97	39.99	-44.9	-46.0	18.9	0.00e+00	0	42	0	720371712	60	4326
2026-01-29 08:03:15.02	59.19	40.34	-44.3	-45.3	19.6	0.00e+00	0	42	0	732954624	60	3980
2026-01-29 08:03:19.05	57.37	40.65	-44.6	-45.7	19.3	0.00e+00	0	42	0	745537536	60	4148
2026-01-29 08:03:23.08	55.53	40.93	-44.8	-45.9	19.0	0.00e+00	0	42	0	758120448	60	4275
2026-01-29 08:03:27.10	53.65	41.18	-45.0	-46.2	18.9	0.00e+00	0	42	0	770703360	61	4154
2026-01-29 08:03:31.14	51.74	41.40	-45.0	-46.1	18.9	0.00e+00	0	42	0	783286272	61	4112
2026-01-29 08:03:35.18	49.81	41.58	-45.3	-46.4	18.7	0.00e+00	0	42	0	795869184	61	4282
2026-01-29 08:03:39.21	47.86	41.73	-45.0	-46.1	18.7	0.00e+00	0	42	0	809500672	61	4140
2026-01-29 08:03:43.23	45.90	41.84	-45.5	-46.7	18.4	0.00e+00	0	42	0	821035008	61	4416
2026-01-29 08:03:47.26	43.92	41.91	-44.7	-45.7	19.2	0.00e+00	0	42	0	833617920	61	3953
2026-01-29 08:03:51.29	41.94	41.94	-44.7	-45.8	19.3	0.00e+00	0	42	0	847249408	61	3968
2026-01-29 08:03:55.33	39.95	41.93	-44.0	-45.0	19.9	0.00e+00	0	42	0	858783744	60	3834
2026-01-29 08:03:59.36	37.97	41.89	-44.7	-45.7	19.3	0.00e+00	0	42	0	871366656	60	4183
2026-01-29 08:04:03.38	36.01	41.80	-44.2	-45.2	19.7	0.00e+00	0	42	0	883949568	60	3949
2026-01-29 08:04:07.41	34.05	41.68	-44.4	-45.4	19.6	0.00e+00	0	42	0	897581056	60	4046
2026-01-29 08:04:11.44	32.11	41.52	-44.6	-45.6	19.4	0.00e+00	0	42	0	909115392	60	4135
2026-01-29 08:04:15.47	30.19	41.32	-45.5	-46.7	18.3	0.00e+00	0	42	0	921698304	61	4420
2026-01-29 08:04:19.51	28.29	41.09	-45.3	-46.4	18.6	0.00e+00	0	42	0	935329792	61	4277
2026-01-29 08:04:23.54	26.42	40.83	-44.6	-45.6	19.3	0.00e+00	0	42	0	947912704	61	3910
2026-01-29 08:04:27.56	24.59	40.53	-44.5	-45.6	19.3	0.00e+00	0	42	0	959447040	60	4107
2026-01-29 08:04:31.59	22.79	40.21	-44.1	-45.0	20.1	0.00e+00	0	42	0	972029952	59	4095
2026-01-29 08:04:35.62	21.03	39.86	-44.7	-45.7	19.2	0.00e+00	0	42	0	985661440	60	4179
2026-01-29 08:04:39.65	19.31	39.48	-44.7	-45.8	18.8	0.00e+00	0	42	0	998244352	60	4230
2026-01-29 08:04:43.68	17.63	39.07	-45.5	-46.7	18.2	0.00e+00	0	42	0	1009778688	61	4413
2026-01-29 08:04:47.71	15.99	38.64	-44.4	-45.5	19.4	0.00e+00	0	42	0	1023410176	60	4066
2026-01-29 08:04:51.74	14.40	38.20	-44.9	-46.0	19.0	0.00e+00	0	42	0	1035993088	60	4334
2026-01-29 08:04:55.77	12.85	37.73	-43.9	-44.8	20.4	0.00e+00	0	42	0	1048576000	59	3996
2026-01-29 08:04:59.80	11.35	37.25	-44.6	-45.7	19.3	0.00e+00	0	42	0	1061158912	60	4163
2026-01-29 08:05:03.83	9.89	36.75	-43.9	-44.8	20.4	0.00e+00	0	42	0	1073741824	59	3991
2026-01-29 08:05:07.86	8.47	36.24	-44.4	-45.4	19.6	0.00e+00	0	42	0	1086324736	60	4047
2026-01-29 08:05:11.89	7.10	35.72	-42.9	-43.7	21.3	0.00e+00	0	42	0	1098907648	57	3951
2026-01-29 08:05:15.93	5.77	35.19	-44.6	-45.8	19.2	0.00e+00	0	42	0	1111490560	60	4211
2026-01-29 08:05:19.96	4.49	34.65	-43.9	-44.9	20.1	0.00e+00	0	42	0	1124073472	59	4021
2026-01-29 08:05:23.99	3.25	34.11	-44.2	-45.2	19.9	0.00e+00	0	42	0	1136656384	58	4411
2026-01-29 08:05:28.03	2.05	33.56	-43.5	-44.5	20.6	0.00e+00	0	42	0	1149239296	59	3835
2026-01-29 08:05:32.06	0.89	33.00	-43.3	-44.2	20.8	0.00e+00	0	42	0	1161822208	57	4183
2026-01-29 08:05:36.09	359.77	32.45	-43.7	-44.7	20.4	0.00e+00	0	42	0	1174405120	58	4159
2026-01-29 08:05:40.12	358.69	31.89	-43.1	-44.0	21.1	0.00e+00	0	42	0	1186988032	58	3840
2026-01-29 08:05:44.15	357.64	31.33	-43.7	-44.7	20.5	0.00e+00	0	42	0	1199570944	58	4150
2026-01-29 08:05:48.18	356.64	30.77	-43.4	-44.3	20.8	0.00e+00	0	42	0	1212153856	58	3993
2026-01-29 08:05:52.20	355.66	30.21	-43.1	-44.1	21.0	0.00e+00	0	42	0	1224736768	58	3873
2026-01-29 08:05:56.23	354.72	29.66	-42.8	-43.7	21.0	0.00e+00	0	42	0	1237319680	57	3948
2026-01-29 08:06:00.27	353.81	29.10	-41.4	-42.2	22.4	0.00e+00	0	42	0	1249902592	54	3926
2026-01-29 08:06:04.30	352.94	28.55	-42.6	-43.4	21.4	0.00e+00	0	42	0	1262485504	55	4287
2026-01-29 08:06:08.32	352.09	28.01	-42.8	-43.7	21.1	0.00e+00	0	42	0	1275068416	56	4179
2026-01-29 08:06:12.35	351.27	27.46	-42.5	-43.4	21.5	0.00e+00	0	42	0	1287651328	56	4022
2026-01-29 08:06:16.39	350.48	26.92	-42.9	-43.8	21.1	0.00e+00	0	42	0	1300234240	56	4203
2026-01-29 08:06:20.42	349.72	26.39	-42.5	-43.4	21.4	0.00e+00	0	42	0	1312817152	56	4028
2026-01-29 08:06:24.45	348.98	25.86	-41.7	-42.5	22.2	0.00e+00	0	42	0	1325400064	55	3831
2026-01-29 08:06:28.49	348.26	25.33	-41.8	-42.6	22.0	0.00e+00	0	42	0	1337982976	54	4117
2026-01-29 08:06:32.52	347.57	24.81	-42.1	-43.0	21.7	0.00e+00	0	42	0	1350565888	54	4295
2026-01-29 08:06:36.55	346.90	24.30	-42.4	-43.3	21.4	0.00e+00	0	42	0	1363148800	55	4210
2026-01-29 08:06:40.58	346.26	23.79	-42.7	-43.6	21.2	0.00e+00	0	42	0	1375731712	55	4360
2026-01-29 08:06:44.60	345.64	23.29	-42.7	-43.6	21.3	0.00e+00	0	42	0	1388314624	56	4102
2026-01-29 08:06:48.63	345.03	22.80	-42.6	-43.4	21.3	0.00e+00	0	42	0	1400897536	56	4047
2026-01-29 08:06:52.67	344.44	22.31	-42.4	-43.2	21.5	0.00e+00	0	42	0	1413480448	56	3957
2026-01-29 08:06:56.70	343.88	21.83	-42.4	-43.3	21.4	0.00e+00	0	42	0	1426063360	56	3995
2026-01-29 08:07:00.73	343.33	21.35	-42.4	-43.3	21.3	0.00e+00	0	42	0	1438646272	56	3965
2026-01-29 08:07:04.76	342.79	20.88	-42.0	-42.9	21.7	0.00e+00	0	42	0	1451229184	56	3793
2026-01-29 08:07:08.79	342.28	20.41	-42.0	-42.9	21.8	0.00e+00	0	42	0	1463812096	56	3781
2026-01-29 08:07:12.82	341.78	19.95	-42.2	-43.0	21.6	0.00e+00	0	41	0	1476395008	56	3855
2026-01-29 08:07:16.85	341.29	19.50	-42.2	-43.1	21.5	0.00e+00	0	42	0	1488977920	56	3895
2026-01-29 08:07:20.88	340.82	19.05	-42.2	-43.1	21.5	0.00e+00	0	42	0	1501560832	56	3885
2026-01-29 08:07:24.91	340.36	18.61	-41.9	-42.7	21.6	0.00e+00	0	42	0	1514143744	55	3932
2026-01-29 08:07:28.95	339.92	18.18	-41.7	-42.5	21.8	0.00e+00	0	42	0	1526726656	55	3851
2026-01-29 08:07:32.98	339.49	17.75	-41.8	-42.6	21.7	0.00e+00	0	42	0	1539309568	55	3910
2026-01-29 08:07:37.01	339.07	17.32	-42.3	-43.2	21.3	0.00e+00	0	42	0	1551892480	55	4166
2026-01-29 08:07:41.04	338.66	16.91	-42.7	-43.6	20.9	0.00e+00	0	42	0	1564475392	55	4362
2026-01-29 08:07:45.07	338.27	16.49	-42.9	-43.8	20.8	0.00e+00	0	42	0	1577058304	56	4236
2026-01-29 08:07:49.09	337.88	16.09	-42.9	-43.8	20.8	0.00e+00	0	42	0	1589641216	56	4220
2026-01-29 08:07:53.12	337.51	15.69	-42.8	-43.7	20.9	4.50e-06	0	42	0	1602224128	56	4179
2026-01-29 08:07:57.16	337.15	15.29	-42.9	-43.9	20.8	0.00e+00	0	42	0	1614807040	56	4244
2026-01-29 08:08:01.19	336.79	14.90	-43.1	-44.1	20.6	0.00e+00	0	42	0	1627389952	56	4343
2026-01-29 08:08:05.22	336.45	14.51	-43.1	-44.1	20.5	0.00e+00	0	42	0	1639972864	57	4112
2026-01-29 08:08:09.26	336.11	14.13	-43.2	-44.2	20.4	7.00e-07	0	42	0	1652555776	57	4155
2026-01-29 08:08:13.29	335.79	13.75	-43.3	-44.3	20.3	0.00e+00	0	42	0	1665138688	57	4206
2026-01-29 08:08:17.32	335.47	13.38	-43.4	-44.4	20.2	0.00e+00	0	42	0	1677721600	57	4256
2026-01-29 08:08:21.36	335.16	13.02	-43.6	-44.6	20.0	0.00e+00	0	42	0	1690304512	57	4362
2026-01-29 08:08:25.40	334.86	12.65	-43.6	-44.6	19.9	0.00e+00	0	42	0	1702887424	57	4374
2026-01-29 08:08:29.43	334.56	12.30	-43.6	-44.7	19.9	0.00e+00	0	42	0	1715470336	58	4148
2026-01-29 08:08:33.46	334.28	11.94	-43.6	-44.6	19.9	0.00e+00	0	42	0	1728053248	58	4115
2026-01-29 08:08:37.49	334.00	11.59	-43.6	-44.6	19.8	0.00e+00	0	42	0	1741684736	58	4143
2026-01-29 08:08:41.53	333.72	11.25	-43.7	-44.7	19.7	0.00e+00	0	42	0	1753219072	58	4183
2026-01-29 08:08:45.55	333.46	10.91	-43.6	-44.7	19.8	0.00e+00	0	42	0	1765801984	58	4167
2026-01-29 08:08:49.58	333.20	10.57	-43.8	-44.9	19.6	0.00e+00	0	42	0	1778384896	58	4262
2026-01-29 08:08:53.61	332.95	10.24	-44.1	-45.2	19.2	0.00e+00	0	42	0	1790967808	58	4438
2026-01-29 08:08:57.65	332.70	9.91	-44.2	-45.3	19.1	0.00e+00	0	42	0	1803550720	59	4234
2026-01-29 08:09:01.68	332.46	9.58	-44.4	-45.6	18.8	0.00e+00	0	42	0	1816133632	59	4344
2026-01-29 08:09:05.72	332.22	9.26	-44.6	-45.8	18.6	0.00e+00	0	42	0	1829765120	59	4448
2026-01-29 08:09:09.75	331.99	8.95	-44.6	-45.9	18.5	0.00e+00	0	42	0	1841299456	59	4508
2026-01-29 08:09:13.78	331.76	8.63	-44.4	-45.6	18.4	0.00e+00	0	42	0	1853882368	60	4120
2026-01-29 08:09:17.81	331.54	8.32	-44.4	-45.6	18.3	0.00e+00	0	42	0	1867513856	60	4143
2026-01-29 08:09:21.83	331.33	8.01	-44.5	-45.7	18.2	0.00e+00	0	42	0	1880096768	60	4180
2026-01-29 08:09:25.86	331.12	7.71	-44.4	-45.6	18.2	0.00e+00	0	42	0	1891631104	60	4111
2026-01-29 08:09:29.89	330.91	7.41	-44.4	-45.6	18.2	0.00e+00	0	42	0	1905262592	60	4138
2026-01-29 08:09:33.91	330.71	7.11	-44.4	-45.7	18.1	0.00e+00	0	42	0	1917845504	60	4147
2026-01-29 08:09:37.94	330.52	6.82	-44.3	-45.5	18.3	0.00e+00	0	42	0	1930428416	60	4061
2026-01-29 08:09:41.97	330.32	6.53	-44.4	-45.7	18.0	0.00e+00	0	42	0	1941962752	60	4165
2026-01-29 08:09:46.01	330.14	6.24	-44.7	-45.9	17.7	0.00e+00	0	42	0	1955594240	60	4288
2026-01-29 08:09:50.05	329.95	5.95	-44.6	-45.9	17.8	0.00e+00	0	42	0	1968177152	60	4254
2026-01-29 08:09:54.09	329.77	5.67	-44.8	-46.1	17.5	0.00e+00	0	42	0	1980760064	60	4389
2026-01-29 08:09:58.12	329.59	5.39	-45.0	-46.4	17.2	0.00e+00	0	42	0	1993342976	60	4498
2026-01-29 08:10:02.15	329.42	5.11	-44.9	-46.3	17.2	0.00e+00	0	42	0	2005925888	60	4466
2026-01-29 08:10:06.18	329.25	4.83	-52.8	-65.5	3.8	1.49e+00	0	42	104	2011168768	76	16282
2026-01-29 08:10:10.21	329.08	4.56	-53.2	-66.0	3.8	1.49e+00	0	42	104	2011168768	76	17100
2026-01-29 08:10:14.24	328.92	4.29	-52.9	-65.6	3.8	1.49e+00	0	42	104	2011168768	76	16428
2026-01-29 08:10:18.27	328.76	4.02	-53.0	-65.8	3.8	1.49e+00	0	42	104	2011168768	76	16742
2026-01-29 08:10:22.30	328.61	3.76	-53.2	-65.9	3.8	1.49e+00	0	42	104	2011168768	76	17007
2026-01-29 08:10:26.33	328.45	3.50	-53.1	-65.8	3.8	1.49e+00	0	42	104	2011168768	76	16873
2026-01-29 08:10:30.37	328.30	3.23	-53.1	-65.8	3.8	1.49e+00	0	42	104	2011168768	76	16791
2026-01-29 08:10:34.41	328.15	2.97	-53.0	-65.8	3.8	1.49e+00	0	42	104	2011168768	76	16766
2026-01-29 08:10:38.44	328.01	2.72	-53.0	-65.7	3.8	1.49e+00	0	42	104	2011168768	76	16686
2026-01-29 08:10:42.47	327.87	2.46	-53.0	-65.7	3.8	1.49e+00	0	42	104	2011168768	76	16664
2026-01-29 08:10:46.50	327.73	2.21	-53.0	-65.7	3.8	1.49e+00	0	42	104	2011168768	76	16650

#Closed at: 2026-01-29 08:10:50
#Recorded file [2011 MB]: D:/lorett/data/31041_260129_105756.dat