passes_logs/2026/01/29/R3.2S_Murmansk/R3.2S_Murmansk__20260129_130120_NOAA_21_JPSS-2_rec.log

#Pass ID: 20260129_130120_NOAA 21 (JPSS-2)
#Satellite: NOAA 21 (JPSS-2)
#Configuration: NOAA-21
#almurnet v.1.7.20251203
#Start time: 2026-01-29 13:01:20

#Version: 2.2.20231116
#Station: R3.2S_Murmansk
#Location: 33.079688 lon 68.888172 lat
#TLE: 1 54234U 22150A   26028.89828222  .00000145  00000+0  89569-4 0  9997
#TLE: 2 54234  98.7511 329.6308 0000927 198.8651 161.2491 14.19540676166783

#Time	Az	El	Level	Level2	SNR	BER	BlckErr	Temp	State	Recorded	gain1	gain2
2026-01-29 13:01:20.89	243.33	2.03	-54.0	-66.8	3.8	1.49e+00	0	40	0	0	79	15800
2026-01-29 13:01:23.91	243.63	2.17	-54.1	-66.9	3.8	1.49e+00	0	40	104	0	78	16957
2026-01-29 13:01:26.93	243.94	2.30	-54.4	-67.2	3.8	1.49e+00	0	40	104	0	79	16507
2026-01-29 13:01:29.95	244.24	2.43	-54.3	-67.1	3.8	1.49e+00	0	40	104	0	79	16447
2026-01-29 13:01:32.98	244.55	2.57	-54.2	-67.0	3.8	1.49e+00	0	40	104	0	79	16192
2026-01-29 13:01:36.01	244.86	2.70	-54.0	-66.8	3.8	1.49e+00	0	40	104	0	79	15801
2026-01-29 13:01:39.03	245.18	2.84	-53.7	-66.5	3.8	1.49e+00	0	40	104	0	79	15269
2026-01-29 13:01:42.05	245.50	2.97	-53.4	-66.1	3.8	1.49e+00	0	40	104	0	78	15502
2026-01-29 13:01:45.07	245.81	3.10	-52.6	-65.4	3.8	1.49e+00	0	40	104	0	77	15100
2026-01-29 13:01:48.09	246.14	3.24	-52.3	-65.0	3.8	1.49e+00	0	41	104	0	76	15334
2026-01-29 13:01:51.12	246.46	3.37	-52.4	-65.0	3.8	1.49e+00	0	41	104	0	76	15374
2026-01-29 13:01:54.14	246.79	3.51	-52.3	-65.0	3.8	1.49e+00	0	41	104	0	76	15358
2026-01-29 13:01:57.17	247.12	3.64	-52.3	-65.0	3.8	1.49e+00	0	41	104	0	76	15265
2026-01-29 13:02:00.20	247.46	3.77	-52.3	-64.9	3.8	1.49e+00	0	41	104	0	76	15179
2026-01-29 13:02:03.22	247.79	3.91	-52.3	-65.0	3.8	1.49e+00	0	41	104	0	76	15338
2026-01-29 13:02:06.24	248.13	4.04	-52.3	-65.0	3.8	1.49e+00	0	41	104	0	76	15366
2026-01-29 13:02:09.27	248.48	4.17	-52.3	-64.8	3.8	1.49e+00	0	41	104	0	76	15006
2026-01-29 13:02:12.30	248.82	4.30	-52.3	-64.9	3.8	1.49e+00	0	41	104	0	76	15167
2026-01-29 13:02:15.32	249.17	4.44	-52.3	-65.0	3.8	1.49e+00	0	41	104	0	76	15260
2026-01-29 13:02:18.34	249.52	4.57	-52.3	-65.0	3.8	1.49e+00	0	41	104	0	76	15257
2026-01-29 13:02:21.37	249.88	4.70	-52.3	-64.5	3.8	1.49e+00	0	41	104	0	76	14430
2026-01-29 13:02:24.39	250.24	4.83	-52.1	-63.5	3.8	1.49e+00	0	41	104	0	76	12814
2026-01-29 13:02:27.41	250.60	4.96	-50.0	-53.8	9.9	2.08e-02	0	41	0	4194304	71	5653
2026-01-29 13:02:30.43	250.96	5.10	-49.4	-52.6	11.5	3.80e-06	0	41	0	13631488	69	5528
2026-01-29 13:02:33.46	251.33	5.23	-49.1	-52.0	11.7	2.72e-01	0	41	0	20971520	70	4859
2026-01-29 13:02:36.48	251.70	5.36	-44.5	-45.8	18.1	0.00e+00	0	41	0	30408704	60	4215
2026-01-29 13:02:39.49	252.07	5.49	-44.4	-45.7	18.3	0.00e+00	0	41	0	39845888	60	4147
2026-01-29 13:02:42.52	252.45	5.62	-44.4	-45.7	18.2	0.00e+00	0	41	0	49283072	60	4153
2026-01-29 13:02:45.54	252.83	5.75	-44.3	-45.5	18.4	0.00e+00	0	41	0	58720256	60	4089
2026-01-29 13:02:48.57	253.22	5.88	-44.5	-45.7	18.3	0.00e+00	0	41	0	68157440	60	4187
2026-01-29 13:02:51.60	253.60	6.00	-44.5	-45.7	18.4	0.00e+00	0	41	0	77594624	60	4159
2026-01-29 13:02:54.62	253.99	6.13	-44.4	-45.6	18.4	0.00e+00	0	41	0	87031808	60	4136
2026-01-29 13:02:57.65	254.39	6.26	-44.1	-45.2	18.8	0.00e+00	0	41	0	96468992	60	3940
2026-01-29 13:03:00.67	254.78	6.39	-44.4	-45.6	18.8	0.00e+00	0	41	0	105906176	59	4356
2026-01-29 13:03:03.70	255.18	6.51	-44.2	-45.3	19.0	0.00e+00	0	42	0	115343360	59	4223
2026-01-29 13:03:06.73	255.59	6.64	-44.1	-45.2	19.2	0.00e+00	0	41	0	124780544	59	4160
2026-01-29 13:03:09.75	255.99	6.77	-44.1	-45.2	19.2	0.00e+00	0	41	0	134217728	59	4161
2026-01-29 13:03:12.78	256.40	6.89	-44.4	-45.6	18.8	0.00e+00	0	41	0	143654912	59	4349
2026-01-29 13:03:15.81	256.82	7.02	-44.1	-45.2	19.1	0.00e+00	0	42	0	153092096	59	4192
2026-01-29 13:03:18.83	257.23	7.14	-44.0	-45.1	19.2	0.00e+00	0	41	0	162529280	59	4144
2026-01-29 13:03:21.85	257.65	7.26	-43.9	-45.0	19.4	0.00e+00	0	41	0	171966464	59	4089
2026-01-29 13:03:24.88	258.08	7.38	-44.0	-45.1	19.3	0.00e+00	0	41	0	181403648	59	4123
2026-01-29 13:03:27.91	258.51	7.51	-43.9	-45.0	19.4	0.00e+00	0	41	0	190840832	59	4070
2026-01-29 13:03:30.94	258.94	7.63	-43.7	-44.8	19.6	0.00e+00	0	41	0	200278016	59	3969
2026-01-29 13:03:33.96	259.37	7.75	-43.8	-44.8	19.6	0.00e+00	0	42	0	209715200	59	3987
2026-01-29 13:03:36.99	259.81	7.87	-43.7	-44.8	19.6	0.00e+00	0	42	0	219152384	59	3977
2026-01-29 13:03:40.01	260.25	7.98	-43.9	-45.0	19.4	0.00e+00	0	42	0	228589568	59	4071
2026-01-29 13:03:43.04	260.69	8.10	-43.8	-44.9	19.6	0.00e+00	0	41	0	238026752	59	4007
2026-01-29 13:03:46.05	261.14	8.22	-43.8	-44.9	19.5	0.00e+00	0	41	0	247463936	59	4024
2026-01-29 13:03:49.08	261.59	8.33	-43.7	-44.8	19.7	0.00e+00	0	41	0	256901120	59	3966
2026-01-29 13:03:52.10	262.05	8.45	-43.6	-44.6	19.9	0.00e+00	0	42	0	266338304	59	3896
2026-01-29 13:03:55.13	262.50	8.56	-43.5	-44.5	19.9	0.00e+00	0	42	0	275775488	59	3865
2026-01-29 13:03:58.16	262.97	8.67	-43.5	-44.6	19.9	0.00e+00	0	41	0	285212672	58	4099
2026-01-29 13:04:01.18	263.43	8.78	-43.5	-44.6	19.9	0.00e+00	0	41	0	294649856	58	4106
2026-01-29 13:04:04.21	263.90	8.89	-43.5	-44.5	20.0	0.00e+00	0	42	0	304087040	58	4065
2026-01-29 13:04:07.23	264.37	9.00	-43.5	-44.5	20.0	0.00e+00	0	41	0	313524224	58	4081
2026-01-29 13:04:10.26	264.85	9.11	-43.3	-44.3	20.1	0.00e+00	0	41	0	322961408	58	3984
2026-01-29 13:04:13.29	265.33	9.22	-43.3	-44.2	20.2	0.00e+00	0	42	0	332398592	58	3955
2026-01-29 13:04:16.31	265.81	9.32	-43.2	-44.2	20.2	0.00e+00	0	42	0	341835776	58	3934
2026-01-29 13:04:19.33	266.29	9.43	-43.0	-44.0	20.4	0.00e+00	0	42	0	351272960	58	3826
2026-01-29 13:04:22.36	266.78	9.53	-43.8	-44.9	19.4	0.00e+00	0	42	0	360710144	58	4278
2026-01-29 13:04:25.38	267.27	9.63	-45.1	-46.4	17.4	0.00e+00	0	42	0	370147328	60	4530
2026-01-29 13:04:28.41	267.77	9.73	-45.6	-47.2	16.4	0.00e+00	0	42	0	379584512	61	4655
2026-01-29 13:04:31.43	268.26	9.83	-46.2	-47.9	15.6	0.00e+00	0	42	0	389021696	62	4801
2026-01-29 13:04:34.46	268.77	9.92	-46.1	-47.8	16.0	0.00e+00	0	41	0	398458880	63	4456
2026-01-29 13:04:37.48	269.27	10.02	-45.9	-47.5	16.1	0.00e+00	0	42	0	407896064	63	4305
2026-01-29 13:04:40.51	269.78	10.11	-44.7	-46.0	17.8	0.00e+00	0	41	0	417333248	61	4090
2026-01-29 13:04:43.54	270.29	10.20	-44.2	-45.3	18.7	0.00e+00	0	42	0	426770432	60	3998
2026-01-29 13:04:46.57	270.80	10.29	-43.9	-45.0	19.5	0.00e+00	0	41	0	436207616	59	4061
2026-01-29 13:04:49.59	271.32	10.38	-43.4	-44.3	20.1	0.00e+00	0	41	0	445644800	58	4002
2026-01-29 13:04:52.62	271.84	10.47	-43.4	-44.4	20.1	0.00e+00	0	42	0	455081984	58	4015
2026-01-29 13:04:55.64	272.36	10.55	-43.4	-44.4	20.1	0.00e+00	0	42	0	464519168	58	4036
2026-01-29 13:04:58.66	272.89	10.64	-43.4	-44.4	20.1	0.00e+00	0	42	0	473956352	58	4037
2026-01-29 13:05:01.69	273.42	10.72	-43.4	-44.4	20.2	0.00e+00	0	42	0	483393536	58	4013
2026-01-29 13:05:04.71	273.95	10.80	-43.4	-44.4	20.1	0.00e+00	0	41	0	492830720	58	4040
2026-01-29 13:05:07.74	274.48	10.87	-43.5	-44.5	20.2	0.00e+00	0	42	0	502267904	58	4053
2026-01-29 13:05:10.77	275.02	10.95	-43.3	-44.2	20.4	0.00e+00	0	42	0	511705088	58	3950
2026-01-29 13:05:13.79	275.56	11.02	-43.2	-44.2	20.4	0.00e+00	0	42	0	522190848	58	3915
2026-01-29 13:05:16.83	276.10	11.10	-43.3	-44.3	20.3	0.00e+00	0	42	0	531628032	58	3974
2026-01-29 13:05:19.85	276.64	11.16	-43.4	-44.4	20.2	0.00e+00	0	42	0	540016640	58	4015
2026-01-29 13:05:22.87	277.19	11.23	-43.3	-44.3	20.4	0.00e+00	0	42	0	549453824	58	3969
2026-01-29 13:05:25.89	277.74	11.30	-43.4	-44.4	20.2	0.00e+00	0	42	0	559939584	58	4008
2026-01-29 13:05:28.92	278.29	11.36	-43.5	-44.5	20.1	0.00e+00	0	42	0	569376768	58	4069
2026-01-29 13:05:31.95	278.85	11.42	-43.4	-44.4	20.2	0.00e+00	0	41	0	578813952	58	4027
2026-01-29 13:05:34.98	279.40	11.48	-43.3	-44.3	20.3	0.00e+00	0	42	0	588251136	58	3971
2026-01-29 13:05:38.00	279.96	11.53	-43.3	-44.2	20.4	0.00e+00	0	42	0	597688320	58	3947
2026-01-29 13:05:41.03	280.52	11.59	-43.4	-44.4	20.3	0.00e+00	0	42	0	607125504	58	4018
2026-01-29 13:05:44.06	281.08	11.64	-43.6	-44.6	20.1	0.00e+00	0	42	0	616562688	58	4131
2026-01-29 13:05:47.08	281.65	11.69	-43.4	-44.3	20.4	0.00e+00	0	42	0	625999872	58	3998
2026-01-29 13:05:50.10	282.21	11.73	-43.4	-44.4	20.4	0.00e+00	0	42	0	635437056	58	4007
2026-01-29 13:05:53.13	282.78	11.78	-43.5	-44.5	20.2	0.00e+00	0	42	0	644874240	58	4066
2026-01-29 13:05:56.16	283.35	11.82	-43.5	-44.5	20.4	0.00e+00	0	42	0	654311424	58	4069
2026-01-29 13:05:59.19	283.92	11.86	-43.2	-44.1	20.6	0.00e+00	0	42	0	663748608	58	3886
2026-01-29 13:06:02.21	284.49	11.90	-43.0	-43.9	20.7	0.00e+00	0	42	0	673185792	58	3813
2026-01-29 13:06:05.24	285.06	11.93	-43.3	-44.2	20.5	0.00e+00	0	42	0	682622976	58	3945
2026-01-29 13:06:08.26	285.64	11.96	-43.4	-44.3	20.5	0.00e+00	0	42	0	692060160	58	3989
2026-01-29 13:06:11.28	286.21	11.99	-43.3	-44.2	20.6	0.00e+00	0	42	0	701497344	58	3934
2026-01-29 13:06:14.31	286.79	12.02	-43.4	-44.4	20.5	0.00e+00	0	42	0	710934528	58	4016
2026-01-29 13:06:17.33	287.36	12.04	-43.6	-44.6	20.3	0.00e+00	0	42	0	720371712	58	4112
2026-01-29 13:06:20.35	287.94	12.06	-43.6	-44.6	20.3	0.00e+00	0	42	0	729808896	58	4139
2026-01-29 13:06:23.38	288.52	12.08	-43.3	-44.3	20.6	0.00e+00	0	42	0	739246080	58	3981
2026-01-29 13:06:26.41	289.10	12.10	-43.2	-44.1	20.8	0.00e+00	0	42	0	748683264	58	3909
2026-01-29 13:06:29.43	289.68	12.11	-43.0	-44.0	20.9	0.00e+00	0	41	0	758120448	58	3827
2026-01-29 13:06:32.45	290.26	12.12	-43.1	-44.0	20.9	0.00e+00	0	42	0	767557632	58	3867
2026-01-29 13:06:35.47	290.84	12.13	-43.0	-43.9	21.0	0.00e+00	0	41	0	776994816	58	3801
2026-01-29 13:06:38.50	291.42	12.14	-43.1	-44.1	20.9	0.00e+00	0	42	0	786432000	58	3874
2026-01-29 13:06:41.52	292.00	12.14	-43.2	-44.1	20.8	0.00e+00	0	42	0	795869184	58	3896
2026-01-29 13:06:44.54	292.58	12.14	-43.2	-44.1	20.8	0.00e+00	0	42	0	805306368	58	3882
2026-01-29 13:06:47.57	293.16	12.14	-43.0	-44.0	20.9	0.00e+00	0	42	0	814743552	58	3832
2026-01-29 13:06:50.60	293.74	12.14	-43.1	-44.0	20.8	0.00e+00	0	42	0	824180736	58	3866
2026-01-29 13:06:53.63	294.33	12.13	-43.1	-44.0	20.8	0.00e+00	0	42	0	833617920	58	3838
2026-01-29 13:06:56.64	294.90	12.12	-43.2	-44.1	20.7	0.00e+00	0	42	0	843055104	58	3884
2026-01-29 13:06:59.67	295.48	12.11	-43.2	-44.1	20.7	0.00e+00	0	42	0	852492288	58	3886
2026-01-29 13:07:02.70	296.06	12.09	-43.1	-44.1	20.8	0.00e+00	0	42	0	861929472	58	3874
2026-01-29 13:07:05.72	296.64	12.07	-43.2	-44.2	20.6	0.00e+00	0	42	0	871366656	58	3917
2026-01-29 13:07:08.74	297.22	12.05	-43.1	-44.0	20.8	0.00e+00	0	42	0	880803840	58	3846
2026-01-29 13:07:11.77	297.80	12.03	-43.2	-44.2	20.6	0.00e+00	0	42	0	890241024	58	3935
2026-01-29 13:07:14.80	298.37	12.00	-43.3	-44.3	20.5	0.00e+00	0	42	0	899678208	58	3960
2026-01-29 13:07:17.82	298.95	11.98	-43.3	-44.3	20.5	0.00e+00	0	42	0	909115392	58	3974
2026-01-29 13:07:20.85	299.52	11.94	-43.1	-44.0	20.7	0.00e+00	0	42	0	918552576	58	3845
2026-01-29 13:07:23.87	300.09	11.91	-43.2	-44.1	20.6	0.00e+00	0	42	0	927989760	58	3904
2026-01-29 13:07:26.90	300.67	11.88	-43.1	-44.0	20.7	0.00e+00	0	42	0	937426944	58	3857
2026-01-29 13:07:29.92	301.24	11.84	-43.2	-44.2	20.5	0.00e+00	0	42	0	946864128	58	3921
2026-01-29 13:07:32.94	301.80	11.80	-43.3	-44.3	20.4	0.00e+00	0	42	0	956301312	58	3986
2026-01-29 13:07:35.97	302.37	11.75	-42.9	-43.8	20.8	0.00e+00	0	42	0	965738496	57	4004
2026-01-29 13:07:39.00	302.94	11.71	-43.0	-43.9	20.8	0.00e+00	0	42	0	975175680	57	4022
2026-01-29 13:07:42.02	303.50	11.66	-43.1	-44.0	20.7	0.00e+00	0	42	0	984612864	57	4072
2026-01-29 13:07:45.05	304.06	11.61	-43.2	-44.1	20.6	0.00e+00	0	42	0	994050048	57	4131
2026-01-29 13:07:48.07	304.62	11.56	-43.1	-44.0	20.6	0.00e+00	0	42	0	1003487232	57	4088
2026-01-29 13:07:51.09	305.18	11.50	-43.2	-44.2	20.5	0.00e+00	0	42	0	1012924416	57	4152
2026-01-29 13:07:54.12	305.73	11.44	-43.1	-44.0	20.6	0.00e+00	0	42	0	1022361600	57	4083
2026-01-29 13:07:57.14	306.29	11.39	-43.1	-44.0	20.6	0.00e+00	0	42	0	1031798784	57	4090
2026-01-29 13:08:00.16	306.84	11.32	-43.0	-43.9	20.6	0.00e+00	0	42	0	1041235968	57	4039
2026-01-29 13:08:03.19	307.39	11.26	-43.0	-43.9	20.7	0.00e+00	0	42	0	1050673152	57	4025
2026-01-29 13:08:06.22	307.93	11.19	-43.0	-43.9	20.7	0.00e+00	0	42	0	1060110336	57	4036
2026-01-29 13:08:09.25	308.48	11.13	-43.0	-44.0	20.6	0.00e+00	0	42	0	1069547520	57	4063
2026-01-29 13:08:12.27	309.02	11.06	-43.0	-43.9	20.7	0.00e+00	0	42	0	1078984704	57	4034
2026-01-29 13:08:15.30	309.56	10.98	-42.8	-43.7	20.8	0.00e+00	0	42	0	1089470464	57	3936
2026-01-29 13:08:18.32	310.09	10.91	-42.8	-43.7	20.8	0.00e+00	0	42	0	1097859072	57	3935
2026-01-29 13:08:21.34	310.63	10.83	-42.8	-43.7	20.9	0.00e+00	0	41	0	1107296256	57	3918
2026-01-29 13:08:24.37	311.16	10.75	-42.7	-43.6	20.8	0.00e+00	0	42	0	1116733440	57	3910
2026-01-29 13:08:27.40	311.69	10.67	-42.8	-43.7	20.7	0.00e+00	0	42	0	1127219200	57	3948
2026-01-29 13:08:30.43	312.21	10.59	-42.8	-43.8	20.7	0.00e+00	0	42	0	1136656384	57	3968
2026-01-29 13:08:33.46	312.74	10.51	-42.8	-43.7	20.8	0.00e+00	0	42	0	1145044992	57	3938
2026-01-29 13:08:36.49	313.26	10.42	-42.9	-43.9	20.6	0.00e+00	0	42	0	1155530752	57	4012
2026-01-29 13:08:39.52	313.78	10.34	-43.1	-44.1	20.4	0.00e+00	0	42	0	1164967936	57	4108
2026-01-29 13:08:42.55	314.29	10.25	-43.1	-44.1	20.4	0.00e+00	0	42	0	1174405120	57	4119
2026-01-29 13:08:45.58	314.80	10.16	-43.1	-44.0	20.4	0.00e+00	0	42	0	1183842304	57	4088
2026-01-29 13:08:48.61	315.31	10.06	-43.0	-44.0	20.5	0.00e+00	0	42	0	1193279488	57	4067
2026-01-29 13:08:51.64	315.81	9.97	-43.1	-44.1	20.4	0.00e+00	0	42	0	1202716672	57	4122
2026-01-29 13:08:54.66	316.31	9.87	-43.1	-44.1	20.4	0.00e+00	0	42	0	1212153856	57	4107
2026-01-29 13:08:57.69	316.81	9.78	-43.2	-44.1	20.3	0.00e+00	0	42	0	1221591040	57	4137
2026-01-29 13:09:00.71	317.31	9.68	-43.2	-44.1	20.3	0.00e+00	0	42	0	1231028224	57	4143
2026-01-29 13:09:03.74	317.80	9.58	-43.1	-44.0	20.3	0.00e+00	0	42	0	1240465408	57	4097
2026-01-29 13:09:06.77	318.29	9.48	-42.9	-43.8	20.5	0.00e+00	0	42	0	1249902592	57	3989
2026-01-29 13:09:09.79	318.77	9.38	-42.8	-43.7	20.6	0.00e+00	0	42	0	1259339776	57	3958
2026-01-29 13:09:12.82	319.25	9.27	-43.2	-44.2	20.2	0.00e+00	0	42	0	1268776960	57	4147
2026-01-29 13:09:15.85	319.73	9.17	-43.4	-44.4	19.9	0.00e+00	0	42	0	1278214144	57	4273
2026-01-29 13:09:18.88	320.21	9.06	-43.4	-44.5	19.9	0.00e+00	0	42	0	1287651328	57	4296
2026-01-29 13:09:21.91	320.68	8.95	-43.4	-44.4	19.9	0.00e+00	0	42	0	1297088512	57	4261
2026-01-29 13:09:24.92	321.15	8.84	-43.4	-44.4	19.9	0.00e+00	0	42	0	1306525696	57	4267
2026-01-29 13:09:27.95	321.61	8.73	-43.4	-44.4	19.9	0.00e+00	0	42	0	1315962880	57	4274
2026-01-29 13:09:30.98	322.07	8.62	-43.4	-44.4	19.9	0.00e+00	0	42	0	1325400064	57	4289
2026-01-29 13:09:34.01	322.53	8.51	-43.6	-44.7	19.6	0.00e+00	0	42	0	1334837248	57	4411
2026-01-29 13:09:37.03	322.99	8.40	-43.6	-44.7	19.6	0.00e+00	0	42	0	1344274432	58	4172
2026-01-29 13:09:40.06	323.44	8.28	-43.7	-44.8	19.5	0.00e+00	0	42	0	1353711616	58	4202
2026-01-29 13:09:43.08	323.88	8.17	-43.6	-44.6	19.7	0.00e+00	0	42	0	1363148800	58	4128
2026-01-29 13:09:46.10	324.33	8.05	-43.5	-44.5	19.8	0.00e+00	0	42	0	1372585984	58	4075
2026-01-29 13:09:49.13	324.77	7.93	-43.7	-44.7	19.6	0.00e+00	0	42	0	1382023168	58	4182
2026-01-29 13:09:52.16	325.21	7.82	-43.7	-44.7	19.5	0.00e+00	0	41	0	1391460352	58	4181
2026-01-29 13:09:55.18	325.64	7.70	-43.8	-44.9	19.3	0.00e+00	0	42	0	1400897536	58	4283
2026-01-29 13:09:58.21	326.07	7.58	-43.9	-45.1	19.2	0.00e+00	0	42	0	1410334720	58	4342
2026-01-29 13:10:01.23	326.50	7.46	-43.8	-44.9	19.3	0.00e+00	0	42	0	1419771904	58	4264
2026-01-29 13:10:04.26	326.92	7.34	-43.8	-44.9	19.3	0.00e+00	0	42	0	1429209088	58	4269
2026-01-29 13:10:07.28	327.34	7.21	-43.9	-45.1	19.2	0.00e+00	0	42	0	1438646272	58	4342
2026-01-29 13:10:10.31	327.76	7.09	-43.9	-45.0	19.2	0.00e+00	0	42	0	1448083456	58	4337
2026-01-29 13:10:13.33	328.17	6.97	-44.1	-45.2	19.0	0.00e+00	0	42	0	1457520640	58	4415
2026-01-29 13:10:16.36	328.58	6.84	-44.3	-45.4	18.9	0.00e+00	0	42	0	1466957824	59	4287
2026-01-29 13:10:19.38	328.99	6.72	-44.1	-45.2	19.0	0.00e+00	0	42	0	1476395008	59	4170
2026-01-29 13:10:22.40	329.39	6.60	-44.1	-45.2	19.0	0.00e+00	0	42	0	1485832192	59	4163
2026-01-29 13:10:25.42	329.79	6.47	-44.2	-45.3	18.9	0.00e+00	0	42	0	1495269376	59	4236
2026-01-29 13:10:28.45	330.19	6.34	-44.2	-45.3	18.9	0.00e+00	0	42	0	1504706560	59	4217
2026-01-29 13:10:31.47	330.58	6.22	-44.0	-45.2	19.0	0.00e+00	0	42	0	1514143744	59	4149
2026-01-29 13:10:34.50	330.98	6.09	-44.0	-45.1	19.0	0.00e+00	0	41	0	1523580928	59	4145
2026-01-29 13:10:37.52	331.36	5.96	-44.4	-45.6	18.6	0.00e+00	0	42	0	1533018112	59	4345
2026-01-29 13:10:40.54	331.75	5.84	-44.1	-45.2	18.9	0.00e+00	0	42	0	1542455296	59	4181
2026-01-29 13:10:43.57	332.13	5.71	-44.2	-45.4	18.7	3.00e-06	0	42	0	1551892480	59	4266
2026-01-29 13:10:46.59	332.50	5.58	-44.2	-45.4	18.6	0.00e+00	0	42	0	1561329664	59	4285
2026-01-29 13:10:49.62	332.88	5.45	-44.7	-46.0	18.1	0.00e+00	0	42	0	1570766848	59	4552
2026-01-29 13:10:52.65	333.25	5.32	-44.3	-45.5	18.5	0.00e+00	0	42	0	1580204032	59	4320
2026-01-29 13:10:55.67	333.62	5.19	-44.4	-45.6	18.4	0.00e+00	0	42	0	1589641216	59	4371
2026-01-29 13:10:58.69	333.98	5.06	-44.5	-45.9	17.6	0.00e+00	0	42	0	1599078400	60	4262
2026-01-29 13:11:01.72	334.34	4.93	-52.5	-65.4	3.8	1.49e+00	0	42	104	1605369856	75	16900
2026-01-29 13:11:04.74	334.70	4.80	-53.2	-66.0	3.8	1.49e+00	0	42	104	1605369856	77	16161
2026-01-29 13:11:07.77	335.06	4.67	-53.5	-66.2	3.8	1.49e+00	0	42	104	1605369856	77	16651
2026-01-29 13:11:10.80	335.41	4.54	-53.5	-66.2	3.8	1.49e+00	0	42	104	1605369856	77	16591
2026-01-29 13:11:13.82	335.76	4.41	-53.2	-66.0	3.8	1.49e+00	0	42	104	1605369856	77	16171
2026-01-29 13:11:16.85	336.11	4.27	-53.4	-66.1	3.8	1.49e+00	0	42	104	1605369856	77	16501
2026-01-29 13:11:19.87	336.45	4.14	-53.4	-66.2	3.8	1.49e+00	0	42	104	1605369856	77	16554
2026-01-29 13:11:22.90	336.79	4.01	-53.4	-66.2	3.8	1.49e+00	0	42	104	1605369856	77	16528
2026-01-29 13:11:25.92	337.13	3.88	-53.3	-66.1	3.8	1.49e+00	0	42	104	1605369856	77	16391
2026-01-29 13:11:28.95	337.47	3.75	-53.3	-66.1	3.8	1.49e+00	0	42	104	1605369856	77	16315
2026-01-29 13:11:31.97	337.80	3.61	-53.3	-66.0	3.8	1.49e+00	0	42	104	1605369856	77	16233
2026-01-29 13:11:35.00	338.13	3.48	-53.3	-66.0	3.8	1.49e+00	0	42	104	1605369856	77	16198
2026-01-29 13:11:38.02	338.45	3.35	-53.2	-66.0	3.8	1.49e+00	0	42	104	1605369856	77	16159
2026-01-29 13:11:41.05	338.78	3.22	-53.2	-66.0	3.8	1.49e+00	0	42	104	1605369856	77	16132
2026-01-29 13:11:44.07	339.10	3.08	-53.2	-66.0	3.8	1.49e+00	0	42	104	1605369856	77	16134
2026-01-29 13:11:47.10	339.42	2.95	-53.2	-65.9	3.8	1.49e+00	0	42	104	1605369856	77	16040
2026-01-29 13:11:50.13	339.73	2.82	-53.2	-65.9	3.8	1.49e+00	0	42	104	1605369856	77	16045
2026-01-29 13:11:53.16	340.05	2.68	-53.2	-65.9	3.8	1.49e+00	0	42	104	1605369856	77	16104
2026-01-29 13:11:56.18	340.36	2.55	-53.2	-65.9	3.8	1.49e+00	0	42	104	1605369856	77	16083
2026-01-29 13:11:59.21	340.66	2.42	-53.1	-65.9	3.8	1.49e+00	0	42	104	1605369856	77	15989
2026-01-29 13:12:02.24	340.97	2.29	-53.1	-65.9	3.8	1.49e+00	0	42	104	1605369856	77	15946
2026-01-29 13:12:05.26	341.27	2.15	-53.1	-65.9	3.8	1.49e+00	0	42	104	1605369856	77	15949
2026-01-29 13:12:08.29	341.57	2.02	-53.1	-65.9	3.8	1.49e+00	0	42	104	1605369856	77	15953

#Closed at: 2026-01-29 13:12:10
#Recorded file [1605 MB]: D:/lorett/data/31041_260129_160120.dat