passes_logs/2026/01/29/R3.2S_Murmansk/R3.2S_Murmansk__20260129_054106_KANOPUS-V_5_rec.log

#Pass ID: 20260129_054106_KANOPUS-V 5
#Satellite: KANOPUS-V 5
#Configuration: KANOPUS-V_8320
#almurnet v.1.7.20251203
#Start time: 2026-01-29 05:41:05

#Version: 2.2.20231116
#Station: R3.2S_Murmansk
#Location: 33.079688 lon 68.888172 lat
#TLE: 1 43876U 18111A   26027.97835917  .00004614  00000+0  19590-3 0  9997
#TLE: 2 43876  97.3677 296.2578 0001834  88.9595 271.1852 15.23564197393440

#Time	Az	El	Level	Level2	SNR	BER	BlckErr	Temp	State	Recorded	gain1	gain2
2026-01-29 05:41:05.93	103.77	2.00	-54.7	-63.5	3.8	7.47e-01	0	40	0	0	80	10263
2026-01-29 05:41:08.94	103.53	2.19	-54.7	-63.5	3.8	7.45e-01	0	40	104	0	80	10265
2026-01-29 05:41:11.97	103.28	2.38	-54.7	-63.5	3.8	7.45e-01	0	40	104	0	80	10239
2026-01-29 05:41:14.99	103.03	2.58	-54.7	-63.5	3.8	7.45e-01	0	40	104	0	80	10202
2026-01-29 05:41:18.01	102.78	2.77	-54.9	-63.8	3.8	7.46e-01	0	40	104	0	80	10549
2026-01-29 05:41:21.03	102.52	2.97	-54.9	-63.8	3.8	7.46e-01	0	41	104	0	80	10567
2026-01-29 05:41:24.05	102.26	3.17	-54.9	-63.7	3.8	7.45e-01	0	41	104	0	80	10498
2026-01-29 05:41:27.07	101.99	3.37	-54.6	-63.5	3.8	7.47e-01	0	41	104	0	80	10230
2026-01-29 05:41:30.10	101.71	3.57	-54.5	-63.4	3.8	7.46e-01	0	41	104	0	80	10084
2026-01-29 05:41:33.12	101.43	3.78	-54.1	-62.9	3.8	7.46e-01	0	41	104	0	80	9585
2026-01-29 05:41:36.14	101.15	3.98	-53.9	-62.7	3.8	7.44e-01	0	41	104	0	79	9917
2026-01-29 05:41:39.16	100.86	4.19	-53.7	-62.5	3.8	7.46e-01	0	41	104	0	79	9667
2026-01-29 05:41:42.18	100.57	4.40	-53.3	-62.1	3.8	7.47e-01	0	41	104	0	78	9780
2026-01-29 05:41:45.21	100.27	4.61	-52.2	-59.2	3.9	7.40e-01	0	41	104	0	76	7837
2026-01-29 05:41:48.23	99.96	4.82	-52.3	-59.7	3.8	7.42e-01	0	41	104	0	76	8353
2026-01-29 05:41:51.25	99.65	5.03	-49.2	-52.7	7.5	6.53e-01	0	41	0	35651584	70	5265
2026-01-29 05:41:54.27	99.33	5.25	-52.8	-61.6	3.8	7.45e-01	0	41	104	73400320	76	10315
2026-01-29 05:41:57.30	99.01	5.46	-45.3	-47.5	12.9	6.06e-01	0	41	0	102760448	62	4564
2026-01-29 05:42:00.33	98.67	5.68	-45.2	-47.5	12.9	6.08e-01	0	41	0	148897792	62	4550
2026-01-29 05:42:03.36	98.34	5.90	-45.0	-47.2	13.2	6.09e-01	0	41	0	195035136	61	4678
2026-01-29 05:42:06.38	97.99	6.12	-44.8	-47.0	13.4	6.08e-01	0	41	0	241172480	61	4546
2026-01-29 05:42:09.40	97.64	6.35	-44.7	-46.8	13.5	6.06e-01	0	42	0	287309824	61	4489
2026-01-29 05:42:12.42	97.28	6.57	-44.4	-46.5	13.8	6.07e-01	0	42	0	333447168	60	4582
2026-01-29 05:42:15.45	96.92	6.80	-44.4	-46.5	13.8	6.08e-01	0	41	0	381681664	60	4597
2026-01-29 05:42:18.47	96.55	7.03	-44.4	-46.5	13.9	6.07e-01	0	42	0	427819008	60	4589
2026-01-29 05:42:21.50	96.16	7.26	-44.3	-46.4	13.9	6.07e-01	0	42	0	473956352	60	4538
2026-01-29 05:42:24.51	95.78	7.49	-44.1	-46.1	14.2	6.06e-01	0	42	0	520093696	60	4385
2026-01-29 05:42:27.52	95.38	7.72	-44.1	-46.1	14.2	6.08e-01	0	42	0	566231040	59	4639
2026-01-29 05:42:30.53	94.98	7.96	-44.0	-46.0	14.4	6.07e-01	0	42	0	614465536	59	4574
2026-01-29 05:42:33.56	94.57	8.20	-44.0	-46.0	14.4	6.08e-01	0	42	0	660602880	59	4563
2026-01-29 05:42:36.58	94.15	8.44	-43.7	-45.7	14.6	6.06e-01	0	42	0	706740224	59	4429
2026-01-29 05:42:39.61	93.71	8.68	-43.9	-46.0	14.5	6.07e-01	0	42	0	752877568	59	4568
2026-01-29 05:42:42.63	93.28	8.92	-43.6	-45.7	14.7	6.06e-01	0	42	0	799014912	59	4427
2026-01-29 05:42:45.65	92.83	9.17	-43.7	-45.8	14.7	6.04e-01	0	42	0	845152256	59	4453
2026-01-29 05:42:48.68	92.37	9.41	-43.6	-45.8	14.7	6.05e-01	0	42	0	891289600	59	4465
2026-01-29 05:42:51.69	91.90	9.66	-43.4	-45.5	14.9	6.05e-01	0	42	0	937426944	58	4570
2026-01-29 05:42:54.71	91.42	9.91	-43.4	-45.5	14.9	6.04e-01	0	42	0	983564288	58	4564
2026-01-29 05:42:57.74	90.93	10.16	-43.2	-45.2	15.2	6.05e-01	0	42	0	1031798784	58	4412
2026-01-29 05:43:00.77	90.43	10.42	-43.1	-45.1	15.3	6.04e-01	0	42	0	1077936128	58	4362
2026-01-29 05:43:03.79	89.92	10.67	-43.1	-45.1	15.4	6.03e-01	0	42	0	1124073472	58	4357
2026-01-29 05:43:06.81	89.40	10.93	-42.9	-44.9	15.5	6.03e-01	0	42	0	1170210816	57	4523
2026-01-29 05:43:09.82	88.87	11.19	-42.8	-44.8	15.6	6.05e-01	0	42	0	1216348160	57	4469
2026-01-29 05:43:12.85	88.32	11.45	-42.7	-44.7	15.6	6.04e-01	0	42	0	1262485504	57	4439
2026-01-29 05:43:15.88	87.76	11.71	-42.6	-44.6	15.8	6.05e-01	0	42	0	1308622848	57	4372
2026-01-29 05:43:18.91	87.19	11.97	-42.6	-44.5	15.9	6.03e-01	0	42	0	1354760192	57	4332
2026-01-29 05:43:21.93	86.61	12.24	-42.2	-44.1	16.2	6.05e-01	0	42	0	1400897536	56	4377
2026-01-29 05:43:24.94	86.02	12.50	-42.2	-44.1	16.3	6.06e-01	0	42	0	1449132032	56	4364
2026-01-29 05:43:27.97	85.40	12.77	-42.1	-44.0	16.3	6.02e-01	0	42	0	1495269376	56	4322
2026-01-29 05:43:31.00	84.78	13.04	-42.1	-44.0	16.5	6.02e-01	0	42	0	1541406720	55	4598
2026-01-29 05:43:34.02	84.14	13.30	-41.9	-43.8	16.6	6.01e-01	0	42	0	1587544064	55	4490
2026-01-29 05:43:37.05	83.49	13.57	-41.8	-43.8	16.7	5.99e-01	0	42	0	1635778560	55	4442
2026-01-29 05:43:40.08	82.82	13.85	-41.9	-43.9	16.6	6.04e-01	0	42	0	1681915904	55	4532
2026-01-29 05:43:43.10	82.14	14.12	-41.9	-43.9	16.6	6.01e-01	0	42	0	1728053248	55	4531
2026-01-29 05:43:46.12	81.45	14.39	-41.8	-43.7	16.8	6.00e-01	0	42	0	1774190592	55	4408
2026-01-29 05:43:49.15	80.74	14.66	-41.6	-43.5	17.0	6.01e-01	0	42	0	1820327936	55	4335
2026-01-29 05:43:52.17	80.01	14.93	-41.3	-43.3	17.1	6.01e-01	0	42	0	1866465280	54	4455
2026-01-29 05:43:55.20	79.27	15.20	-41.2	-43.2	17.3	6.01e-01	0	42	0	1912602624	54	4393
2026-01-29 05:43:58.21	78.51	15.47	-41.2	-43.2	17.2	5.92e-01	0	42	0	1958739968	54	4436
2026-01-29 05:44:01.24	77.73	15.74	-41.3	-43.3	17.2	5.75e-01	0	42	0	2006974464	54	4474
2026-01-29 05:44:04.27	76.94	16.01	-41.2	-43.2	17.4	5.76e-01	0	42	0	2053111808	54	4393
2026-01-29 05:44:07.29	76.13	16.28	-41.1	-43.2	17.3	5.75e-01	0	42	0	2099249152	54	4401
2026-01-29 05:44:10.32	75.30	16.55	-41.2	-43.3	17.2	5.74e-01	0	42	0	2145386496	54	4469
2026-01-29 05:44:13.35	74.45	16.82	-40.8	-42.8	17.6	5.74e-01	0	42	0	2193620992	53	4442
2026-01-29 05:44:16.37	73.59	17.08	-40.6	-42.5	17.8	5.74e-01	0	42	0	2239758336	53	4337
2026-01-29 05:44:19.40	72.71	17.34	-40.5	-42.6	17.8	5.76e-01	0	42	0	2285895680	52	4599
2026-01-29 05:44:22.42	71.81	17.60	-40.3	-42.3	18.0	5.76e-01	0	42	0	2329935872	52	4470
2026-01-29 05:44:25.44	70.90	17.85	-40.4	-42.3	18.0	5.76e-01	0	42	0	2378170368	52	4452
2026-01-29 05:44:28.46	69.96	18.11	-40.2	-42.2	18.1	5.92e-01	0	42	0	2424307712	52	4394
2026-01-29 05:44:31.48	69.01	18.35	-40.4	-42.5	17.8	5.95e-01	0	42	0	2470445056	52	4579
2026-01-29 05:44:34.51	68.04	18.60	-40.6	-42.8	17.6	5.97e-01	0	42	0	2516582400	52	4739
2026-01-29 05:44:37.53	67.05	18.84	-40.4	-42.6	17.7	5.95e-01	0	42	0	2564816896	52	4607
2026-01-29 05:44:40.55	66.05	19.07	-40.1	-42.1	18.1	5.97e-01	0	42	0	2610954240	52	4379
2026-01-29 05:44:43.58	65.02	19.30	-40.1	-42.1	18.2	5.99e-01	0	42	0	2657091584	51	4606
2026-01-29 05:44:46.61	63.97	19.52	-40.1	-42.1	18.1	5.94e-01	0	42	0	2703228928	51	4636
2026-01-29 05:44:49.63	62.92	19.74	-40.1	-42.2	18.1	5.99e-01	0	42	0	2749366272	51	4703
2026-01-29 05:44:52.66	61.84	19.95	-40.0	-42.0	18.2	5.92e-01	0	42	0	2795503616	51	4594
2026-01-29 05:44:55.69	60.74	20.15	-39.9	-42.0	18.2	6.00e-01	0	42	0	2841640960	51	4586
2026-01-29 05:44:58.71	59.63	20.34	-40.1	-42.2	18.1	5.98e-01	0	42	0	2887778304	51	4694
2026-01-29 05:45:01.73	58.51	20.53	-40.1	-42.4	18.0	5.99e-01	0	42	0	2936012800	51	4766
2026-01-29 05:45:04.76	57.36	20.71	-40.0	-42.3	18.0	5.97e-01	0	42	0	2982150144	51	4718
2026-01-29 05:45:07.78	56.21	20.87	-40.2	-42.4	17.9	5.95e-01	0	42	0	3028287488	51	4766
2026-01-29 05:45:10.80	55.04	21.03	-40.1	-42.2	18.0	6.01e-01	0	42	0	3074424832	51	4705
2026-01-29 05:45:13.82	53.86	21.18	-40.0	-42.2	18.1	5.99e-01	0	42	0	3120562176	51	4674
2026-01-29 05:45:16.84	52.67	21.31	-39.9	-42.1	18.2	5.99e-01	0	43	0	3168796672	51	4617
2026-01-29 05:45:19.87	51.46	21.44	-39.8	-42.0	18.2	6.01e-01	0	42	0	3214934016	51	4571
2026-01-29 05:45:22.89	50.24	21.55	-40.0	-42.2	18.2	5.98e-01	0	42	0	3261071360	51	4663
2026-01-29 05:45:25.91	49.01	21.65	-40.0	-42.2	18.1	5.98e-01	0	42	0	3307208704	51	4688
2026-01-29 05:45:28.93	47.78	21.74	-40.0	-42.3	18.0	5.98e-01	0	42	0	3353346048	51	4754
2026-01-29 05:45:31.96	46.53	21.82	-40.1	-42.3	18.0	5.98e-01	0	42	0	3399483392	51	4752
2026-01-29 05:45:34.98	45.29	21.89	-39.9	-42.1	18.1	5.99e-01	0	42	0	3445620736	51	4631
2026-01-29 05:45:38.00	44.03	21.94	-39.9	-42.2	18.1	5.97e-01	0	42	0	3491758080	51	4679
2026-01-29 05:45:41.03	42.77	21.98	-40.0	-42.2	18.1	5.99e-01	0	42	0	3539992576	51	4674
2026-01-29 05:45:44.06	41.51	22.00	-40.0	-42.3	18.0	5.97e-01	0	42	0	3586129920	51	4745
2026-01-29 05:45:47.09	40.24	22.01	-40.0	-42.3	17.9	5.97e-01	0	42	0	3632267264	51	4748
2026-01-29 05:45:50.11	38.98	22.01	-40.0	-42.3	18.0	6.00e-01	0	43	0	3678404608	51	4748
2026-01-29 05:45:53.13	37.72	22.00	-40.1	-42.4	17.9	5.98e-01	0	42	0	3726639104	51	4780
2026-01-29 05:45:56.15	36.46	21.97	-40.3	-42.6	17.8	5.97e-01	0	42	0	3770679296	51	4913
2026-01-29 05:45:59.17	35.20	21.93	-40.4	-42.8	17.7	5.95e-01	0	43	0	3816816640	51	5008
2026-01-29 05:46:02.18	33.95	21.87	-40.3	-42.7	17.8	5.94e-01	0	42	0	3862953984	51	4941
2026-01-29 05:46:05.21	32.70	21.81	-40.5	-42.9	17.6	5.98e-01	0	43	0	3909091328	51	5081
2026-01-29 05:46:08.24	31.46	21.73	-40.5	-42.8	17.7	5.88e-01	0	42	0	3957325824	51	5030
2026-01-29 05:46:11.26	30.23	21.64	-40.3	-42.8	17.7	5.96e-01	0	43	0	4003463168	51	4986
2026-01-29 05:46:14.29	29.00	21.53	-40.4	-42.8	17.7	5.94e-01	0	42	0	4049600512	51	5025
2026-01-29 05:46:17.31	27.79	21.42	-40.4	-42.7	17.7	5.99e-01	0	42	0	4095737856	51	4948
2026-01-29 05:46:20.33	26.59	21.29	-40.3	-42.8	17.7	6.00e-01	0	43	0	4143972352	51	5002
2026-01-29 05:46:23.35	25.40	21.15	-40.4	-42.9	17.6	5.99e-01	0	42	0	4190109696	51	5080
2026-01-29 05:46:26.37	24.22	21.00	-40.3	-42.8	17.6	5.99e-01	0	42	0	4236247040	51	5005
2026-01-29 05:46:29.39	23.06	20.84	-40.6	-43.0	17.5	6.00e-01	0	42	0	4282384384	51	5132
2026-01-29 05:46:32.41	21.91	20.68	-40.7	-43.1	17.4	6.00e-01	0	43	0	4328521728	52	4910
2026-01-29 05:46:35.43	20.77	20.50	-40.7	-43.1	17.4	6.01e-01	0	42	0	4374659072	52	4873
2026-01-29 05:46:38.46	19.65	20.31	-40.8	-43.3	17.3	6.00e-01	0	43	0	4420796416	52	4989
2026-01-29 05:46:41.49	18.54	20.12	-40.9	-43.5	17.1	5.96e-01	0	42	0	4466933760	52	5111
2026-01-29 05:46:44.51	17.45	19.91	-40.8	-43.3	17.2	5.99e-01	0	42	0	4513071104	52	5014
2026-01-29 05:46:47.54	16.38	19.70	-40.9	-43.5	17.1	6.00e-01	0	43	0	4561305600	52	5127
2026-01-29 05:46:50.56	15.33	19.49	-41.1	-43.7	16.9	5.99e-01	0	42	0	4607442944	52	5235
2026-01-29 05:46:53.59	14.29	19.26	-40.9	-43.4	17.1	5.98e-01	0	43	0	4653580288	52	5081
2026-01-29 05:46:56.61	13.27	19.04	-41.0	-43.6	17.0	6.00e-01	0	43	0	4699717632	52	5161
2026-01-29 05:46:59.63	12.27	18.80	-41.2	-43.7	16.9	6.00e-01	0	43	0	4747952128	52	5226
2026-01-29 05:47:02.65	11.29	18.56	-41.2	-43.7	16.9	5.99e-01	0	42	0	4794089472	53	4933
2026-01-29 05:47:05.68	10.32	18.32	-41.1	-43.6	16.9	6.03e-01	0	42	0	4840226816	53	4884
2026-01-29 05:47:08.71	9.37	18.07	-41.1	-43.5	17.0	5.98e-01	0	42	0	4884267008	53	4852
2026-01-29 05:47:11.74	8.44	17.82	-41.3	-43.8	16.8	5.99e-01	0	42	0	4932501504	53	4988
2026-01-29 05:47:14.77	7.53	17.56	-41.5	-43.8	16.8	5.97e-01	0	42	0	4978638848	53	4996
2026-01-29 05:47:17.79	6.64	17.30	-41.4	-43.7	16.9	5.99e-01	0	42	0	5024776192	53	4969
2026-01-29 05:47:20.82	5.76	17.04	-41.5	-44.0	16.6	5.93e-01	0	43	0	5070913536	53	5111
2026-01-29 05:47:23.84	4.91	16.78	-41.6	-44.1	16.6	6.01e-01	0	43	0	5119148032	53	5200
2026-01-29 05:47:26.86	4.07	16.51	-41.7	-44.1	16.6	5.99e-01	0	43	0	5165285376	54	4909
2026-01-29 05:47:29.89	3.25	16.25	-41.8	-44.2	16.6	5.75e-01	0	43	0	5211422720	54	4932
2026-01-29 05:47:32.92	2.44	15.98	-41.9	-44.4	16.4	5.75e-01	0	43	0	5257560064	54	5053
2026-01-29 05:47:35.94	1.66	15.71	-42.1	-44.6	16.2	5.75e-01	0	43	0	5303697408	54	5160
2026-01-29 05:47:38.97	0.88	15.44	-43.5	-44.4	16.2	5.73e-01	0	42	0	5349834752	57	4290
2026-01-29 05:47:41.99	0.13	15.17	-53.6	-62.5	3.8	7.44e-01	0	43	104	5362417664	77	10819
2026-01-29 05:47:45.02	359.39	14.90	-53.7	-62.5	3.8	7.46e-01	0	42	104	5362417664	77	10784
2026-01-29 05:47:48.04	358.67	14.63	-53.6	-62.4	3.8	7.45e-01	0	42	104	5362417664	77	10718
2026-01-29 05:47:51.06	357.97	14.36	-53.5	-62.4	3.8	7.46e-01	0	43	104	5362417664	77	10665
2026-01-29 05:47:54.09	357.28	14.09	-53.5	-62.4	3.8	7.46e-01	0	42	104	5362417664	77	10678
2026-01-29 05:47:57.11	356.60	13.82	-53.5	-62.4	3.8	7.45e-01	0	43	104	5362417664	77	10691
2026-01-29 05:48:00.13	355.94	13.55	-53.5	-62.3	3.8	7.45e-01	0	42	104	5362417664	77	10604
2026-01-29 05:48:03.16	355.29	13.28	-53.4	-62.2	3.8	7.45e-01	0	43	104	5362417664	77	10532
2026-01-29 05:48:06.18	354.66	13.01	-53.4	-62.2	3.8	7.45e-01	0	43	104	5362417664	77	10531
2026-01-29 05:48:09.19	354.05	12.75	-53.4	-62.2	3.8	7.46e-01	0	43	104	5362417664	77	10512
2026-01-29 05:48:12.22	353.44	12.48	-53.4	-62.2	3.8	7.44e-01	0	43	104	5362417664	77	10474
2026-01-29 05:48:15.24	352.85	12.22	-53.3	-62.2	3.8	7.44e-01	0	43	104	5362417664	77	10446
2026-01-29 05:48:18.26	352.27	11.96	-53.3	-62.1	3.8	7.45e-01	0	42	104	5362417664	77	10361
2026-01-29 05:48:21.28	351.71	11.69	-53.3	-62.2	3.8	7.44e-01	0	43	104	5362417664	77	10418
2026-01-29 05:48:24.31	351.15	11.43	-53.3	-62.1	3.8	7.45e-01	0	43	104	5362417664	77	10389
2026-01-29 05:48:27.33	350.61	11.17	-53.3	-62.1	3.8	7.45e-01	0	42	104	5362417664	77	10352
2026-01-29 05:48:30.36	350.08	10.92	-53.2	-62.0	3.8	7.47e-01	0	42	104	5362417664	77	10274
2026-01-29 05:48:33.38	349.57	10.66	-53.2	-62.1	3.8	7.46e-01	0	42	104	5362417664	77	10297
2026-01-29 05:48:36.41	349.06	10.41	-53.2	-62.0	3.8	7.45e-01	0	42	104	5362417664	77	10270
2026-01-29 05:48:39.43	348.56	10.15	-53.2	-62.0	3.8	7.45e-01	0	43	104	5362417664	77	10235
2026-01-29 05:48:42.45	348.08	9.90	-53.1	-61.9	3.8	7.46e-01	0	43	104	5362417664	77	10164
2026-01-29 05:48:45.47	347.60	9.65	-53.1	-62.0	3.8	7.45e-01	0	43	104	5362417664	77	10181
2026-01-29 05:48:48.49	347.14	9.41	-53.1	-62.0	3.8	7.45e-01	0	43	104	5362417664	77	10186
2026-01-29 05:48:51.52	346.68	9.16	-53.1	-61.9	3.8	7.47e-01	0	43	104	5362417664	77	10074
2026-01-29 05:48:54.53	346.24	8.92	-53.0	-61.8	3.8	7.44e-01	0	43	104	5362417664	77	10030
2026-01-29 05:48:57.55	345.81	8.68	-53.0	-61.8	3.8	7.45e-01	0	42	104	5362417664	77	10041
2026-01-29 05:49:00.58	345.38	8.44	-53.1	-61.9	3.8	7.44e-01	0	42	104	5362417664	77	10081
2026-01-29 05:49:03.59	344.96	8.20	-53.0	-61.8	3.8	7.44e-01	0	43	104	5362417664	77	9990
2026-01-29 05:49:06.62	344.55	7.96	-52.9	-61.7	3.8	7.46e-01	0	42	104	5362417664	77	9935
2026-01-29 05:49:09.63	344.15	7.73	-52.9	-61.7	3.8	7.44e-01	0	42	104	5362417664	77	9897
2026-01-29 05:49:12.66	343.76	7.49	-53.0	-61.8	3.8	7.44e-01	0	43	104	5362417664	77	9979
2026-01-29 05:49:15.68	343.37	7.26	-52.9	-61.7	3.8	7.45e-01	0	42	104	5362417664	77	9910
2026-01-29 05:49:18.70	343.00	7.03	-52.8	-61.6	3.8	7.45e-01	0	43	104	5362417664	77	9794
2026-01-29 05:49:21.73	342.63	6.81	-52.8	-61.6	3.8	7.44e-01	0	43	104	5362417664	77	9731
2026-01-29 05:49:24.75	342.27	6.58	-52.9	-61.7	3.8	7.45e-01	0	42	104	5362417664	77	9881
2026-01-29 05:49:27.77	341.91	6.36	-52.8	-61.6	3.8	7.46e-01	0	42	104	5362417664	77	9798
2026-01-29 05:49:30.79	341.56	6.13	-52.7	-61.5	3.8	7.44e-01	0	43	104	5362417664	77	9649
2026-01-29 05:49:33.82	341.22	5.91	-52.6	-61.4	3.8	7.45e-01	0	43	104	5362417664	77	9596
2026-01-29 05:49:36.84	340.89	5.69	-52.7	-61.5	3.8	7.45e-01	0	43	104	5362417664	77	9713
2026-01-29 05:49:39.85	340.56	5.48	-52.6	-61.5	3.8	7.45e-01	0	43	104	5362417664	77	9627
2026-01-29 05:49:42.87	340.24	5.26	-52.5	-61.3	3.8	7.45e-01	0	42	104	5362417664	77	9484
2026-01-29 05:49:45.90	339.92	5.05	-52.4	-61.3	3.8	7.45e-01	0	43	104	5362417664	76	9946
2026-01-29 05:49:48.92	339.62	4.84	-53.4	-62.3	3.8	7.44e-01	0	42	104	5362417664	77	10543
2026-01-29 05:49:51.94	339.31	4.62	-54.0	-62.9	3.8	7.45e-01	0	43	104	5362417664	78	10692
2026-01-29 05:49:54.97	339.01	4.42	-54.3	-63.1	3.8	7.42e-01	0	43	104	5362417664	79	10387
2026-01-29 05:49:57.99	338.72	4.21	-54.3	-63.1	3.8	7.45e-01	0	43	104	5362417664	79	10359
2026-01-29 05:50:01.01	338.44	4.00	-53.9	-62.7	3.8	7.44e-01	0	43	104	5362417664	79	9937
2026-01-29 05:50:04.03	338.15	3.80	-54.0	-62.8	3.8	7.46e-01	0	43	104	5362417664	79	10055
2026-01-29 05:50:07.06	337.88	3.59	-54.1	-62.9	3.8	7.45e-01	0	43	104	5362417664	79	10109
2026-01-29 05:50:10.09	337.61	3.39	-54.0	-62.8	3.8	7.46e-01	0	43	104	5362417664	79	9970
2026-01-29 05:50:13.11	337.34	3.19	-53.9	-62.7	3.8	7.43e-01	0	43	104	5362417664	79	9941
2026-01-29 05:50:16.13	337.08	2.99	-53.9	-62.8	3.8	7.44e-01	0	43	104	5362417664	79	9946
2026-01-29 05:50:19.15	336.82	2.80	-53.9	-62.7	3.8	7.46e-01	0	42	104	5362417664	79	9867
2026-01-29 05:50:22.17	336.57	2.60	-53.9	-62.7	3.8	7.46e-01	0	43	104	5362417664	79	9884
2026-01-29 05:50:25.20	336.32	2.41	-53.8	-62.7	3.8	7.47e-01	0	43	104	5362417664	79	9845
2026-01-29 05:50:28.22	336.08	2.21	-53.8	-62.7	3.8	7.46e-01	0	43	104	5362417664	79	9871
2026-01-29 05:50:31.25	335.84	2.02	-53.8	-62.7	3.8	7.46e-01	0	42	104	5362417664	79	9890

#Closed at: 2026-01-29 05:50:31
#Recorded file [5362 MB]: D:/lorett/data/31041_260129_084105.dat