passes_logs/2026/01/29/R3.2S_Murmansk/R3.2S_Murmansk__20260129_034942_NOAA_20_JPSS-1_rec.log

#Pass ID: 20260129_034942_NOAA 20 (JPSS-1)
#Satellite: NOAA 20 (JPSS-1)
#Configuration: NOAA 20
#almurnet v.1.7.20251203
#Start time: 2026-01-29 03:49:42

#Version: 2.2.20231116
#Station: R3.2S_Murmansk
#Location: 33.079688 lon 68.888172 lat
#TLE: 1 43013U 17073A   26027.94683596  .00000137  00000+0  85741-4 0  9995
#TLE: 2 43013  98.7648 328.7503 0000940  21.3928 338.7287 14.19541154424576

#Time	Az	El	Level	Level2	SNR	BER	BlckErr	Temp	State	Recorded	gain1	gain2
2026-01-29 03:49:42.31	45.25	1.99	-54.0	-69.0	3.8	1.49e+00	0	40	0	0	79	20321
2026-01-29 03:49:46.33	45.02	2.22	-53.9	-68.9	3.8	1.49e+00	0	40	104	0	78	21469
2026-01-29 03:49:50.36	44.79	2.46	-53.9	-68.9	3.8	1.49e+00	0	40	104	0	78	21392
2026-01-29 03:49:54.40	44.55	2.70	-54.2	-69.2	3.8	1.49e+00	0	40	104	0	78	22215
2026-01-29 03:49:58.43	44.30	2.94	-54.1	-69.1	3.8	1.49e+00	0	40	104	0	79	20667
2026-01-29 03:50:02.47	44.05	3.18	-54.0	-69.0	3.8	1.49e+00	0	40	104	0	79	20490
2026-01-29 03:50:06.50	43.80	3.42	-53.9	-68.8	3.8	1.49e+00	0	40	104	0	79	19989
2026-01-29 03:50:10.54	43.54	3.66	-53.3	-68.3	3.8	1.49e+00	0	41	104	0	78	19868
2026-01-29 03:50:14.57	43.28	3.91	-51.9	-66.8	3.8	1.49e+00	0	41	104	0	75	19921
2026-01-29 03:50:18.61	43.02	4.16	-51.9	-66.7	3.8	1.49e+00	0	41	104	0	75	19741
2026-01-29 03:50:22.64	42.74	4.41	-51.7	-63.5	4.1	1.48e+00	0	41	104	0	75	13582
2026-01-29 03:50:26.67	42.47	4.66	-51.5	-62.1	4.6	9.06e-01	0	41	0	5242880	75	11573
2026-01-29 03:50:30.70	42.19	4.91	-51.7	-64.9	3.8	1.49e+00	0	41	104	8388608	75	16052
2026-01-29 03:50:34.73	41.90	5.16	-51.7	-63.5	3.9	1.49e+00	0	41	104	8388608	75	13628
2026-01-29 03:50:38.75	41.61	5.42	-49.9	-54.3	5.5	1.49e+00	0	41	104	10485760	71	5968
2026-01-29 03:50:42.78	41.31	5.67	-48.6	-51.7	14.2	1.50e-06	0	41	0	16777216	69	4956
2026-01-29 03:50:46.80	41.01	5.93	-48.4	-51.2	14.8	7.00e-07	0	41	0	24117248	68	4959
2026-01-29 03:50:50.82	40.70	6.19	-47.7	-50.1	15.9	0.00e+00	0	41	0	31457280	67	4601
2026-01-29 03:50:54.85	40.39	6.45	-47.7	-50.1	15.9	0.00e+00	0	41	0	38797312	67	4640
2026-01-29 03:50:58.88	40.07	6.72	-47.6	-49.9	16.1	0.00e+00	0	41	0	47185920	66	4788
2026-01-29 03:51:02.90	39.74	6.98	-47.4	-49.6	16.5	0.00e+00	0	41	0	54525952	66	4633
2026-01-29 03:51:06.93	39.41	7.25	-47.5	-49.7	16.4	0.00e+00	0	41	0	61865984	66	4693
2026-01-29 03:51:10.96	39.07	7.52	-47.6	-49.9	16.3	0.00e+00	0	41	0	69206016	66	4784
2026-01-29 03:51:14.99	38.73	7.79	-47.3	-49.4	16.8	0.00e+00	0	41	0	76546048	66	4537
2026-01-29 03:51:19.01	38.38	8.07	-47.2	-49.3	17.0	0.00e+00	0	42	0	84934656	66	4468
2026-01-29 03:51:23.04	38.02	8.34	-47.3	-49.5	16.8	0.00e+00	0	41	0	92274688	66	4546
2026-01-29 03:51:27.07	37.65	8.62	-47.4	-49.5	16.8	0.00e+00	0	42	0	99614720	66	4591
2026-01-29 03:51:31.11	37.28	8.90	-47.3	-49.4	16.9	0.00e+00	0	42	0	106954752	66	4533
2026-01-29 03:51:35.13	36.90	9.18	-47.4	-49.6	16.8	0.00e+00	0	41	0	115343360	66	4602
2026-01-29 03:51:39.17	36.51	9.46	-47.3	-49.4	17.0	0.00e+00	0	41	0	122683392	66	4494
2026-01-29 03:51:43.19	36.11	9.75	-47.5	-49.6	16.9	0.00e+00	0	42	0	130023424	66	4622
2026-01-29 03:51:47.22	35.71	10.03	-47.2	-49.2	17.2	0.00e+00	0	42	0	137363456	66	4424
2026-01-29 03:51:51.25	35.29	10.32	-47.3	-49.3	17.2	0.00e+00	0	42	0	144703488	66	4458
2026-01-29 03:51:55.28	34.87	10.61	-47.2	-49.2	17.2	0.00e+00	0	42	0	152043520	66	4429
2026-01-29 03:51:59.31	34.44	10.91	-47.2	-49.2	17.3	0.00e+00	0	42	0	160432128	66	4395
2026-01-29 03:52:03.33	34.00	11.20	-47.1	-49.0	17.5	0.00e+00	0	42	0	167772160	66	4306
2026-01-29 03:52:07.37	33.55	11.50	-46.9	-48.7	17.8	0.00e+00	0	42	0	175112192	65	4420
2026-01-29 03:52:11.39	33.09	11.79	-46.7	-48.5	17.9	0.00e+00	0	42	0	182452224	65	4315
2026-01-29 03:52:15.42	32.63	12.09	-46.7	-48.4	18.1	0.00e+00	0	41	0	190840832	65	4284
2026-01-29 03:52:19.45	32.15	12.40	-46.8	-48.6	18.0	0.00e+00	0	42	0	198180864	65	4356
2026-01-29 03:52:23.47	31.66	12.70	-46.7	-48.5	18.1	0.00e+00	0	42	0	205520896	65	4311
2026-01-29 03:52:27.50	31.16	13.00	-46.8	-48.6	18.0	0.00e+00	0	42	0	212860928	65	4375
2026-01-29 03:52:31.53	30.65	13.31	-46.7	-48.5	18.1	0.00e+00	0	42	0	220200960	65	4316
2026-01-29 03:52:35.56	30.13	13.62	-46.7	-48.4	18.3	0.00e+00	0	42	0	228589568	65	4252
2026-01-29 03:52:39.59	29.60	13.93	-46.5	-48.2	18.4	0.00e+00	0	42	0	235929600	65	4170
2026-01-29 03:52:43.62	29.06	14.24	-46.5	-48.1	18.5	0.00e+00	0	42	0	243269632	64	4378
2026-01-29 03:52:47.65	28.51	14.55	-46.3	-47.9	18.7	0.00e+00	0	42	0	250609664	64	4278
2026-01-29 03:52:51.69	27.94	14.86	-46.2	-47.8	18.9	0.00e+00	0	42	0	257949696	64	4214
2026-01-29 03:52:55.73	27.36	15.18	-46.2	-47.8	18.9	0.00e+00	0	42	0	266338304	64	4211
2026-01-29 03:52:59.76	26.77	15.50	-46.1	-47.7	19.0	0.00e+00	0	41	0	273678336	64	4163
2026-01-29 03:53:03.79	26.16	15.81	-46.1	-47.7	19.0	0.00e+00	0	42	0	281018368	64	4164
2026-01-29 03:53:07.81	25.55	16.13	-46.1	-47.6	19.1	0.00e+00	0	42	0	288358400	64	4118
2026-01-29 03:53:11.83	24.92	16.45	-46.1	-47.6	19.2	0.00e+00	0	42	0	295698432	63	4361
2026-01-29 03:53:15.86	24.27	16.76	-46.2	-47.7	19.1	0.00e+00	0	42	0	304087040	63	4425
2026-01-29 03:53:19.89	23.61	17.08	-46.2	-47.8	19.1	0.00e+00	0	42	0	311427072	63	4446
2026-01-29 03:53:23.92	22.94	17.40	-46.3	-47.8	19.0	0.00e+00	0	42	0	318767104	63	4491
2026-01-29 03:53:27.95	22.25	17.72	-46.3	-47.9	19.0	0.00e+00	0	42	0	326107136	63	4520
2026-01-29 03:53:31.99	21.55	18.04	-46.4	-48.0	18.9	0.00e+00	0	42	0	333447168	63	4591
2026-01-29 03:53:36.02	20.83	18.36	-46.2	-47.8	19.1	0.00e+00	0	42	0	341835776	63	4450
2026-01-29 03:53:40.05	20.10	18.67	-46.4	-47.9	19.0	0.00e+00	0	42	0	349175808	63	4543
2026-01-29 03:53:44.08	19.35	18.99	-46.6	-48.2	18.8	0.00e+00	0	42	0	356515840	63	4669
2026-01-29 03:53:48.11	18.58	19.31	-46.7	-48.3	18.7	0.00e+00	0	42	0	363855872	63	4731
2026-01-29 03:53:52.14	17.80	19.62	-46.3	-47.9	19.2	0.00e+00	0	42	0	372244480	63	4496
2026-01-29 03:53:56.17	17.00	19.93	-46.2	-47.7	19.3	0.00e+00	0	42	0	379584512	63	4402
2026-01-29 03:54:00.21	16.19	20.24	-46.1	-47.6	19.4	0.00e+00	0	42	0	386924544	63	4356
2026-01-29 03:54:04.24	15.36	20.55	-45.9	-47.3	19.7	0.00e+00	0	42	0	394264576	63	4217
2026-01-29 03:54:08.27	14.51	20.85	-45.7	-47.1	20.0	0.00e+00	0	42	0	401604608	63	4100
2026-01-29 03:54:12.30	13.64	21.15	-45.6	-46.9	20.1	0.00e+00	0	42	0	408944640	63	4043
2026-01-29 03:54:16.34	12.76	21.45	-45.0	-46.2	20.8	0.00e+00	0	42	0	417333248	62	3957
2026-01-29 03:54:20.37	11.86	21.75	-44.7	-45.9	21.1	0.00e+00	0	42	0	424673280	61	4010
2026-01-29 03:54:24.41	10.94	22.04	-44.7	-45.9	21.1	0.00e+00	0	42	0	432013312	61	4027
2026-01-29 03:54:28.44	10.01	22.32	-44.6	-45.8	21.2	0.00e+00	0	42	0	439353344	61	3962
2026-01-29 03:54:32.47	9.06	22.60	-44.6	-45.8	21.1	0.00e+00	0	42	0	447741952	61	4002
2026-01-29 03:54:36.50	8.09	22.87	-44.6	-45.8	21.2	0.00e+00	0	42	0	455081984	61	4001
2026-01-29 03:54:40.53	7.10	23.14	-44.5	-45.7	21.3	0.00e+00	0	42	0	462422016	61	3941
2026-01-29 03:54:44.56	6.10	23.40	-44.7	-45.9	21.1	0.00e+00	0	42	0	469762048	60	4281
2026-01-29 03:54:48.59	5.08	23.65	-44.7	-45.9	21.2	0.00e+00	0	42	0	477102080	60	4251
2026-01-29 03:54:52.62	4.05	23.90	-44.7	-45.8	21.2	0.00e+00	0	42	0	485490688	60	4241
2026-01-29 03:54:56.65	2.99	24.14	-44.4	-45.6	21.4	0.00e+00	0	42	0	492830720	60	4100
2026-01-29 03:55:00.69	1.92	24.37	-44.3	-45.5	21.5	0.00e+00	0	42	0	500170752	60	4060
2026-01-29 03:55:04.72	0.84	24.59	-44.4	-45.6	21.5	0.00e+00	0	42	0	507510784	60	4100
2026-01-29 03:55:08.76	359.74	24.80	-44.2	-45.3	21.7	0.00e+00	0	42	0	514850816	60	3999
2026-01-29 03:55:12.79	358.63	25.00	-44.4	-45.6	21.8	0.00e+00	0	42	0	523239424	59	4344
2026-01-29 03:55:16.82	357.50	25.19	-44.5	-45.6	21.4	0.00e+00	0	42	0	530579456	60	4139
2026-01-29 03:55:20.84	356.36	25.37	-44.8	-46.1	21.1	0.00e+00	0	42	0	537919488	60	4345
2026-01-29 03:55:24.88	355.20	25.54	-45.1	-46.3	20.8	0.00e+00	0	42	0	545259520	60	4469
2026-01-29 03:55:28.91	354.04	25.69	-45.3	-46.6	20.5	0.00e+00	0	42	0	553648128	61	4381
2026-01-29 03:55:32.93	352.87	25.84	-45.5	-46.9	20.3	0.00e+00	0	42	0	560988160	61	4498
2026-01-29 03:55:36.95	351.68	25.97	-45.6	-47.0	20.2	0.00e+00	0	42	0	568328192	61	4546
2026-01-29 03:55:40.99	350.48	26.08	-46.2	-47.7	19.5	0.00e+00	0	42	0	575668224	63	4394
2026-01-29 03:55:45.01	349.28	26.19	-46.1	-47.6	19.7	0.00e+00	0	42	0	583008256	63	4349
2026-01-29 03:55:49.04	348.07	26.28	-46.0	-47.4	19.8	0.00e+00	0	42	0	591396864	63	4281
2026-01-29 03:55:53.07	346.85	26.36	-46.4	-47.9	19.4	0.00e+00	0	42	0	598736896	63	4502
2026-01-29 03:55:57.10	345.63	26.42	-46.3	-47.8	19.4	0.00e+00	0	42	0	606076928	63	4478
2026-01-29 03:56:01.13	344.40	26.47	-46.5	-48.0	19.3	0.00e+00	0	42	0	613416960	63	4574
2026-01-29 03:56:05.16	343.17	26.50	-46.6	-48.2	19.0	0.00e+00	0	42	0	620756992	64	4426
2026-01-29 03:56:09.19	341.93	26.52	-46.4	-47.9	19.3	0.00e+00	0	42	0	628097024	64	4283
2026-01-29 03:56:13.23	340.70	26.52	-46.0	-47.4	20.0	0.00e+00	0	42	0	636485632	63	4256
2026-01-29 03:56:17.27	339.46	26.51	-46.2	-47.6	19.7	0.00e+00	0	42	0	643825664	63	4350
2026-01-29 03:56:21.30	338.23	26.49	-45.4	-46.7	20.5	0.00e+00	0	42	0	651165696	62	4189
2026-01-29 03:56:25.34	336.99	26.45	-45.2	-46.5	20.8	0.00e+00	0	42	0	658505728	62	4066
2026-01-29 03:56:29.37	335.77	26.39	-45.0	-46.3	21.0	0.00e+00	0	42	0	666894336	62	3967
2026-01-29 03:56:33.39	334.55	26.32	-44.8	-46.0	21.2	0.00e+00	0	42	0	674234368	61	4059
2026-01-29 03:56:37.43	333.33	26.24	-44.5	-45.6	21.6	0.00e+00	0	42	0	681574400	60	4122
2026-01-29 03:56:41.46	332.12	26.14	-44.4	-45.6	21.6	0.00e+00	0	42	0	688914432	60	4109
2026-01-29 03:56:45.48	330.92	26.04	-44.5	-45.6	21.6	0.00e+00	0	42	0	696254464	60	4118
2026-01-29 03:56:49.51	329.73	25.91	-44.5	-45.7	21.6	0.00e+00	0	42	0	704643072	60	4156
2026-01-29 03:56:53.54	328.54	25.78	-44.8	-45.9	21.3	0.00e+00	0	42	0	711983104	60	4290
2026-01-29 03:56:57.57	327.37	25.63	-44.8	-46.0	21.2	0.00e+00	0	42	0	719323136	60	4325
2026-01-29 03:57:01.59	326.21	25.47	-44.9	-46.1	21.1	0.00e+00	0	42	0	726663168	60	4381
2026-01-29 03:57:05.62	325.07	25.29	-45.3	-46.6	20.7	0.00e+00	0	42	0	735051776	61	4359
2026-01-29 03:57:09.64	323.93	25.11	-45.5	-46.8	20.5	0.00e+00	0	42	0	742391808	61	4462
2026-01-29 03:57:13.68	322.81	24.92	-45.9	-47.3	20.0	0.00e+00	0	42	0	749731840	62	4463
2026-01-29 03:57:17.71	321.70	24.71	-46.0	-47.4	19.8	0.00e+00	0	42	0	757071872	62	4531
2026-01-29 03:57:21.73	320.61	24.50	-46.0	-47.4	19.9	0.00e+00	0	42	0	764411904	62	4537
2026-01-29 03:57:25.76	319.53	24.27	-46.5	-48.0	19.3	0.00e+00	0	42	0	771751936	63	4554
2026-01-29 03:57:29.79	318.47	24.04	-46.1	-47.5	19.7	0.00e+00	0	42	0	780140544	63	4337
2026-01-29 03:57:33.82	317.42	23.80	-46.2	-47.6	19.7	0.00e+00	0	42	0	787480576	63	4373
2026-01-29 03:57:37.85	316.40	23.55	-46.6	-48.1	19.2	0.00e+00	0	42	0	794820608	63	4618
2026-01-29 03:57:41.88	315.38	23.29	-46.1	-47.4	19.8	0.00e+00	0	42	0	802160640	63	4288
2026-01-29 03:57:45.91	314.39	23.03	-46.2	-47.6	19.7	0.00e+00	0	42	0	809500672	63	4361
2026-01-29 03:57:49.92	313.41	22.76	-46.1	-47.5	19.8	0.00e+00	0	42	0	817889280	63	4326
2026-01-29 03:57:53.95	312.45	22.48	-45.7	-47.1	20.2	0.00e+00	0	42	0	825229312	63	4113
2026-01-29 03:57:57.98	311.50	22.20	-45.5	-46.8	20.5	0.00e+00	0	42	0	832569344	62	4198
2026-01-29 03:58:02.00	310.58	21.91	-45.2	-46.5	20.8	0.00e+00	0	42	0	839909376	62	4065
2026-01-29 03:58:06.03	309.67	21.62	-44.9	-46.2	21.0	0.00e+00	0	42	0	848297984	61	4149
2026-01-29 03:58:10.05	308.78	21.33	-45.1	-46.3	20.8	0.00e+00	0	42	0	855638016	61	4230
2026-01-29 03:58:14.08	307.90	21.03	-45.1	-46.3	20.9	0.00e+00	0	42	0	862978048	61	4213
2026-01-29 03:58:18.11	307.04	20.73	-45.3	-46.5	20.6	0.00e+00	0	42	0	870318080	61	4337
2026-01-29 03:58:22.15	306.20	20.42	-45.2	-46.4	20.7	0.00e+00	0	42	0	877658112	61	4276
2026-01-29 03:58:26.17	305.38	20.11	-45.1	-46.4	20.8	0.00e+00	0	42	0	884998144	61	4247
2026-01-29 03:58:30.20	304.57	19.80	-44.6	-45.7	21.4	0.00e+00	0	42	0	893386752	61	3947
2026-01-29 03:58:34.23	303.78	19.49	-44.6	-45.7	21.4	0.00e+00	0	42	0	900726784	61	3953
2026-01-29 03:58:38.26	303.00	19.17	-44.3	-45.4	21.6	0.00e+00	0	42	0	908066816	60	4047
2026-01-29 03:58:42.29	302.24	18.86	-44.1	-45.2	21.9	0.00e+00	0	42	0	915406848	60	3932
2026-01-29 03:58:46.31	301.50	18.54	-44.1	-45.2	21.9	0.00e+00	0	42	0	923795456	60	3928
2026-01-29 03:58:50.33	300.77	18.22	-44.1	-45.2	21.8	0.00e+00	0	42	0	931135488	60	3951
2026-01-29 03:58:54.35	300.06	17.91	-44.1	-45.2	21.8	0.00e+00	0	42	0	938475520	60	3948
2026-01-29 03:58:58.38	299.36	17.59	-44.5	-45.6	21.8	0.00e+00	0	42	0	945815552	59	4360
2026-01-29 03:59:02.41	298.68	17.27	-44.7	-45.8	21.6	0.00e+00	0	42	0	953155584	59	4469
2026-01-29 03:59:06.43	298.01	16.95	-44.4	-45.5	21.5	0.00e+00	0	42	0	961544192	60	4074
2026-01-29 03:59:10.46	297.36	16.63	-44.5	-45.7	21.4	0.00e+00	0	42	0	968884224	60	4154
2026-01-29 03:59:14.50	296.72	16.31	-44.6	-45.7	21.3	0.00e+00	0	42	0	976224256	60	4185
2026-01-29 03:59:18.52	296.09	15.99	-45.0	-46.2	20.9	0.00e+00	0	42	0	983564288	60	4435
2026-01-29 03:59:22.54	295.48	15.68	-45.2	-46.5	20.6	0.00e+00	0	42	0	990904320	61	4318
2026-01-29 03:59:26.58	294.88	15.36	-45.4	-46.7	20.4	0.00e+00	0	42	0	998244352	61	4418
2026-01-29 03:59:30.60	294.29	15.05	-45.5	-46.8	20.3	0.00e+00	0	42	0	1006632960	61	4460
2026-01-29 03:59:34.63	293.72	14.73	-45.4	-46.8	20.4	0.00e+00	0	42	0	1013972992	61	4445
2026-01-29 03:59:38.67	293.15	14.42	-45.5	-46.8	20.2	0.00e+00	0	42	0	1021313024	61	4493
2026-01-29 03:59:42.70	292.60	14.10	-45.8	-47.2	19.9	0.00e+00	0	42	0	1028653056	62	4417
2026-01-29 03:59:46.72	292.07	13.79	-45.8	-47.2	19.9	0.00e+00	0	42	0	1037041664	62	4419
2026-01-29 03:59:50.75	291.54	13.49	-46.0	-47.4	19.7	0.00e+00	0	42	0	1044381696	62	4528
2026-01-29 03:59:54.77	291.02	13.18	-46.2	-47.7	19.5	0.00e+00	0	42	0	1051721728	62	4652
2026-01-29 03:59:58.80	290.52	12.87	-46.3	-47.8	19.3	0.00e+00	0	42	0	1059061760	63	4480
2026-01-29 04:00:02.83	290.02	12.57	-46.3	-47.8	19.4	0.00e+00	0	42	0	1066401792	63	4456
2026-01-29 04:00:06.86	289.54	12.26	-46.3	-47.7	19.4	0.00e+00	0	42	0	1074790400	63	4437
2026-01-29 04:00:10.90	289.06	11.96	-46.5	-48.0	19.1	0.00e+00	0	42	0	1082130432	63	4579
2026-01-29 04:00:14.93	288.59	11.66	-46.6	-48.2	18.8	0.00e+00	0	42	0	1089470464	63	4690
2026-01-29 04:00:18.96	288.14	11.37	-46.7	-48.3	18.6	0.00e+00	0	42	0	1096810496	64	4472
2026-01-29 04:00:22.98	287.69	11.07	-47.0	-48.7	18.2	0.00e+00	0	42	0	1104150528	64	4679
2026-01-29 04:00:27.01	287.26	10.78	-47.1	-48.9	18.0	0.00e+00	0	42	0	1112539136	64	4799
2026-01-29 04:00:31.04	286.83	10.48	-47.1	-49.0	17.8	0.00e+00	0	42	0	1119879168	65	4563
2026-01-29 04:00:35.06	286.41	10.20	-47.3	-49.2	17.6	0.00e+00	0	42	0	1127219200	65	4655
2026-01-29 04:00:39.09	286.00	9.91	-47.3	-49.2	17.6	0.00e+00	0	42	0	1134559232	65	4661
2026-01-29 04:00:43.12	285.60	9.62	-47.3	-49.2	17.5	0.00e+00	0	42	0	1141899264	65	4682
2026-01-29 04:00:47.15	285.20	9.34	-47.2	-49.1	17.5	0.00e+00	0	42	0	1150287872	65	4633
2026-01-29 04:00:51.18	284.81	9.05	-47.3	-49.3	17.4	0.00e+00	0	42	0	1157627904	65	4722
2026-01-29 04:00:55.20	284.44	8.77	-47.3	-49.3	17.3	0.00e+00	0	42	0	1164967936	65	4744
2026-01-29 04:00:59.23	284.06	8.49	-47.6	-49.7	16.8	0.00e+00	0	42	0	1172307968	65	4971
2026-01-29 04:01:03.27	283.70	8.22	-47.8	-50.0	16.5	0.00e+00	0	42	0	1179648000	66	4829
2026-01-29 04:01:07.29	283.34	7.94	-47.8	-50.1	16.4	0.00e+00	0	42	0	1188036608	66	4888
2026-01-29 04:01:11.32	282.99	7.67	-47.9	-50.2	16.3	0.00e+00	0	42	0	1195376640	66	4928
2026-01-29 04:01:15.35	282.65	7.40	-48.1	-50.5	15.8	0.00e+00	0	42	0	1202716672	66	5147
2026-01-29 04:01:19.38	282.31	7.13	-48.4	-51.0	15.4	0.00e+00	0	42	0	1210056704	67	5129
2026-01-29 04:01:23.41	281.98	6.86	-48.1	-50.6	15.7	0.00e+00	0	42	0	1218445312	67	4894
2026-01-29 04:01:27.45	281.65	6.60	-48.0	-50.5	15.8	0.00e+00	0	42	0	1225785344	67	4842
2026-01-29 04:01:31.48	281.33	6.33	-48.0	-50.5	15.7	0.00e+00	0	42	0	1233125376	67	4834
2026-01-29 04:01:35.51	281.02	6.07	-48.2	-50.7	15.5	0.00e+00	0	42	0	1240465408	67	4968
2026-01-29 04:01:39.54	280.72	5.81	-48.0	-50.5	15.6	0.00e+00	0	42	0	1247805440	67	4842
2026-01-29 04:01:43.57	280.41	5.55	-48.3	-51.0	15.0	0.00e+00	0	42	0	1255145472	67	5145
2026-01-29 04:01:47.60	280.12	5.29	-48.3	-50.9	15.1	0.00e+00	0	42	0	1263534080	67	5089
2026-01-29 04:01:51.63	279.83	5.04	-48.4	-51.3	14.7	0.00e+00	0	42	0	1270874112	67	5309
2026-01-29 04:01:55.64	279.54	4.79	-52.4	-67.3	3.8	1.49e+00	0	42	104	1272971264	75	21209
2026-01-29 04:01:59.67	279.26	4.54	-52.7	-67.7	3.8	1.49e+00	0	42	104	1272971264	75	22047
2026-01-29 04:02:03.71	278.99	4.29	-52.9	-67.9	3.8	1.49e+00	0	42	104	1272971264	76	21311
2026-01-29 04:02:07.74	278.72	4.04	-53.1	-68.0	3.8	1.49e+00	0	42	104	1272971264	76	21747
2026-01-29 04:02:11.76	278.45	3.79	-53.1	-68.0	3.8	1.49e+00	0	42	104	1272971264	76	21679
2026-01-29 04:02:15.80	278.19	3.55	-53.0	-68.0	3.8	1.49e+00	0	42	104	1272971264	76	21679
2026-01-29 04:02:19.83	277.93	3.30	-53.0	-68.0	3.8	1.49e+00	0	42	104	1272971264	76	21595
2026-01-29 04:02:23.86	277.68	3.06	-53.0	-67.9	3.8	1.49e+00	0	42	104	1272971264	76	21474
2026-01-29 04:02:27.89	277.43	2.82	-53.0	-68.0	3.8	1.49e+00	0	42	104	1272971264	76	21538
2026-01-29 04:02:31.92	277.19	2.58	-53.0	-67.9	3.8	1.49e+00	0	42	104	1272971264	76	21450
2026-01-29 04:02:35.96	276.95	2.35	-53.0	-67.9	3.8	1.49e+00	0	42	104	1272971264	76	21425
2026-01-29 04:02:39.99	276.72	2.11	-52.9	-67.9	3.8	1.49e+00	0	42	104	1272971264	76	21381
2026-01-29 04:02:44.02	276.48	1.88	-52.9	-67.9	3.8	1.49e+00	0	42	104	1272971264	76	21397

#Closed at: 2026-01-29 04:02:44
#Recorded file [1272 MB]: D:/lorett/data/31041_260129_064942.dat