passes_logs/2026/01/29/R3.2S_Murmansk/R3.2S_Murmansk__20260129_000859_SUOMI_NPP_rec.log

#Pass ID: 20260129_000859_SUOMI NPP
#Satellite: SUOMI NPP
#Configuration: NPP
#almurnet v.1.7.20251203
#Start time: 2026-01-29 00:08:59

#Version: 2.2.20231116
#Station: R3.2S_Murmansk
#Location: 33.079688 lon 68.888172 lat
#TLE: 1 37849U 11061A   26027.93236865  .00000148  00000+0  91411-4 0  9991
#TLE: 2 37849  98.7823 329.8704 0002085  41.3231 318.8102 14.19530777738546

#Time	Az	El	Level	Level2	SNR	BER	BlckErr	Temp	State	Recorded	gain1	gain2
2026-01-29 00:08:59.69	22.46	2.01	-53.9	-68.9	3.8	1.49e+00	0	40	0	0	79	20189
2026-01-29 00:09:03.71	22.54	2.26	-53.9	-68.9	3.8	1.49e+00	0	40	104	0	78	21284
2026-01-29 00:09:07.74	22.63	2.52	-54.0	-69.0	3.8	1.49e+00	0	40	104	0	78	21549
2026-01-29 00:09:11.77	22.71	2.78	-54.1	-69.1	3.8	1.49e+00	0	40	104	0	78	21999
2026-01-29 00:09:15.81	22.80	3.04	-54.1	-69.1	3.8	1.49e+00	0	41	104	0	78	21810
2026-01-29 00:09:19.84	22.89	3.31	-54.1	-69.1	3.8	1.49e+00	0	41	104	0	78	21766
2026-01-29 00:09:23.87	22.98	3.58	-53.8	-68.7	3.8	1.49e+00	0	41	104	0	78	21007
2026-01-29 00:09:27.91	23.07	3.85	-53.1	-68.0	3.8	1.49e+00	0	41	104	0	78	19327
2026-01-29 00:09:31.95	23.16	4.12	-51.8	-63.0	4.3	1.38e+00	0	41	0	0	75	12932
2026-01-29 00:09:35.98	23.26	4.40	-50.9	-57.2	8.4	8.09e-02	0	41	0	6291456	73	7419
2026-01-29 00:09:40.00	23.35	4.67	-49.9	-54.2	11.5	1.63e-03	0	41	0	14680064	71	5915
2026-01-29 00:09:44.02	23.45	4.95	-49.5	-53.4	12.4	1.50e-04	0	41	0	22020096	70	5721
2026-01-29 00:09:48.05	23.55	5.24	-51.8	-64.9	3.9	3.90e-01	0	41	0	29360128	74	16947
2026-01-29 00:09:52.08	23.65	5.53	-47.4	-49.7	16.0	0.00e+00	0	41	0	34603008	66	4693
2026-01-29 00:09:56.12	23.75	5.82	-47.0	-49.2	16.7	0.00e+00	0	41	0	42991616	65	4660
2026-01-29 00:10:00.15	23.85	6.11	-47.0	-49.1	16.7	0.00e+00	0	42	0	50331648	65	4626
2026-01-29 00:10:04.18	23.96	6.41	-46.8	-48.9	17.0	0.00e+00	0	41	0	57671680	65	4512
2026-01-29 00:10:08.20	24.07	6.71	-47.1	-49.2	16.8	0.00e+00	0	42	0	65011712	65	4665
2026-01-29 00:10:12.22	24.17	7.01	-46.8	-48.8	17.2	0.00e+00	0	42	0	73400320	65	4459
2026-01-29 00:10:16.25	24.28	7.32	-46.7	-48.6	17.4	0.00e+00	0	42	0	80740352	65	4385
2026-01-29 00:10:20.27	24.40	7.63	-46.4	-48.1	17.9	0.00e+00	0	42	0	88080384	64	4391
2026-01-29 00:10:24.29	24.51	7.94	-46.3	-48.1	17.9	0.00e+00	0	42	0	95420416	64	4388
2026-01-29 00:10:28.31	24.63	8.26	-46.1	-47.8	18.2	0.00e+00	0	42	0	102760448	64	4235
2026-01-29 00:10:32.34	24.75	8.58	-46.2	-47.9	18.3	0.00e+00	0	42	0	111149056	63	4523
2026-01-29 00:10:36.38	24.87	8.91	-46.0	-47.6	18.6	0.00e+00	0	42	0	118489088	63	4376
2026-01-29 00:10:40.41	24.99	9.24	-46.0	-47.6	18.6	0.00e+00	0	42	0	125829120	63	4384
2026-01-29 00:10:44.45	25.12	9.57	-45.8	-47.3	18.9	0.00e+00	0	42	0	133169152	63	4234
2026-01-29 00:10:48.49	25.25	9.91	-45.8	-47.4	18.9	0.00e+00	0	42	0	140509184	63	4264
2026-01-29 00:10:52.52	25.38	10.26	-45.7	-47.3	19.0	0.00e+00	0	42	0	148897792	63	4212
2026-01-29 00:10:56.56	25.51	10.61	-45.7	-47.2	19.1	0.00e+00	0	42	0	156237824	63	4192
2026-01-29 00:11:00.59	25.65	10.96	-45.6	-47.2	19.1	0.00e+00	0	42	0	163577856	63	4153
2026-01-29 00:11:04.61	25.79	11.32	-45.6	-47.1	19.2	0.00e+00	0	42	0	170917888	63	4111
2026-01-29 00:11:08.65	25.93	11.68	-45.5	-46.9	19.4	0.00e+00	0	42	0	178257920	62	4280
2026-01-29 00:11:12.67	26.08	12.05	-45.4	-46.9	19.5	0.00e+00	0	42	0	186646528	62	4262
2026-01-29 00:11:16.71	26.22	12.43	-45.2	-46.7	19.8	0.00e+00	0	42	0	193986560	62	4148
2026-01-29 00:11:20.74	26.38	12.81	-45.4	-46.8	19.6	0.00e+00	0	42	0	201326592	62	4213
2026-01-29 00:11:24.77	26.53	13.20	-45.2	-46.6	19.8	0.00e+00	0	42	0	208666624	62	4104
2026-01-29 00:11:28.80	26.69	13.59	-45.4	-46.8	19.6	0.00e+00	0	42	0	217055232	62	4207
2026-01-29 00:11:32.83	26.86	13.99	-45.2	-46.6	19.8	0.00e+00	0	42	0	224395264	62	4119
2026-01-29 00:11:36.86	27.02	14.39	-45.2	-46.6	19.8	0.00e+00	0	42	0	231735296	62	4119
2026-01-29 00:11:40.90	27.19	14.81	-45.2	-46.6	19.9	0.00e+00	0	42	0	239075328	62	4113
2026-01-29 00:11:44.93	27.37	15.23	-45.1	-46.4	20.1	0.00e+00	0	42	0	246415360	62	4031
2026-01-29 00:11:48.95	27.55	15.65	-45.2	-46.5	19.9	0.00e+00	0	42	0	254803968	62	4086
2026-01-29 00:11:52.98	27.74	16.09	-45.1	-46.5	20.0	0.00e+00	0	42	0	262144000	62	4068
2026-01-29 00:11:57.01	27.93	16.53	-45.3	-46.7	19.8	0.00e+00	0	42	0	269484032	62	4174
2026-01-29 00:12:01.05	28.12	16.98	-45.3	-46.6	19.9	0.00e+00	0	42	0	276824064	62	4136
2026-01-29 00:12:05.08	28.32	17.43	-45.3	-46.7	19.9	0.00e+00	0	42	0	284164096	62	4152
2026-01-29 00:12:09.11	28.53	17.90	-45.4	-46.7	19.8	0.00e+00	0	42	0	292552704	62	4187
2026-01-29 00:12:13.14	28.74	18.38	-45.4	-46.7	19.9	0.00e+00	0	42	0	299892736	62	4179
2026-01-29 00:12:17.17	28.96	18.86	-45.6	-47.1	19.6	0.00e+00	0	42	0	307232768	62	4347
2026-01-29 00:12:21.20	29.18	19.35	-45.5	-46.9	19.8	0.00e+00	0	42	0	314572800	62	4261
2026-01-29 00:12:25.23	29.41	19.85	-45.7	-47.2	19.5	0.00e+00	0	42	0	321912832	62	4399
2026-01-29 00:12:29.26	29.65	20.37	-45.6	-47.0	19.6	0.00e+00	0	42	0	330301440	62	4324
2026-01-29 00:12:33.30	29.90	20.89	-45.8	-47.3	19.5	0.00e+00	0	42	0	337641472	62	4447
2026-01-29 00:12:37.33	30.15	21.42	-46.1	-47.6	19.2	0.00e+00	0	42	0	344981504	62	4635
2026-01-29 00:12:41.37	30.42	21.97	-45.7	-47.2	19.6	0.00e+00	0	42	0	352321536	62	4395
2026-01-29 00:12:45.40	30.69	22.52	-45.1	-46.5	20.2	0.00e+00	0	42	0	360710144	62	4064
2026-01-29 00:12:49.43	30.97	23.09	-44.8	-46.0	20.6	0.00e+00	0	42	0	368050176	61	4085
2026-01-29 00:12:53.47	31.26	23.67	-44.1	-45.3	21.3	0.00e+00	0	42	0	375390208	60	3975
2026-01-29 00:12:57.51	31.56	24.27	-44.3	-45.4	21.4	0.00e+00	0	42	0	382730240	59	4289
2026-01-29 00:13:01.53	31.88	24.87	-44.2	-45.4	21.5	0.00e+00	0	42	0	390070272	59	4250
2026-01-29 00:13:05.57	32.20	25.49	-43.9	-45.0	21.8	0.00e+00	0	42	0	397410304	59	4093
2026-01-29 00:13:09.60	32.54	26.12	-44.0	-45.1	21.7	0.00e+00	0	42	0	405798912	59	4131
2026-01-29 00:13:13.63	32.89	26.77	-44.5	-45.7	21.3	0.00e+00	0	42	0	413138944	59	4393
2026-01-29 00:13:17.67	33.25	27.43	-44.3	-45.4	21.2	0.00e+00	0	42	0	420478976	60	4041
2026-01-29 00:13:21.70	33.63	28.11	-44.3	-45.4	21.3	0.00e+00	0	42	0	427819008	60	4033
2026-01-29 00:13:25.73	34.02	28.80	-44.4	-45.6	21.4	0.00e+00	0	42	0	436207616	59	4346
2026-01-29 00:13:29.76	34.43	29.51	-44.3	-45.5	21.2	0.00e+00	0	42	0	443547648	60	4065
2026-01-29 00:13:33.79	34.86	30.23	-45.0	-46.3	20.5	0.00e+00	0	42	0	450887680	60	4469
2026-01-29 00:13:37.82	35.31	30.97	-45.9	-47.4	19.6	0.00e+00	0	42	0	458227712	62	4494
2026-01-29 00:13:41.85	35.77	31.73	-46.2	-47.6	19.5	0.00e+00	0	42	0	465567744	63	4378
2026-01-29 00:13:45.88	36.26	32.51	-47.0	-48.7	18.3	0.00e+00	0	42	0	473956352	64	4652
2026-01-29 00:13:49.91	36.78	33.31	-47.5	-49.4	17.7	0.00e+00	0	42	0	481296384	65	4774
2026-01-29 00:13:53.94	37.31	34.12	-47.8	-49.7	17.3	0.00e+00	0	42	0	488636416	66	4703
2026-01-29 00:13:57.97	37.88	34.96	-46.9	-48.6	18.4	0.00e+00	0	42	0	495976448	65	4351
2026-01-29 00:14:02.00	38.47	35.81	-46.5	-48.0	19.0	0.00e+00	0	42	0	504365056	64	4307
2026-01-29 00:14:06.04	39.10	36.68	-46.6	-48.2	18.9	0.00e+00	0	42	0	511705088	64	4404
2026-01-29 00:14:10.07	39.76	37.58	-48.0	-50.0	17.2	0.00e+00	0	42	0	519045120	66	4831
2026-01-29 00:14:14.10	40.45	38.49	-48.2	-50.3	16.8	0.00e+00	0	42	0	526385152	67	4747
2026-01-29 00:14:18.13	41.19	39.43	-49.2	-51.9	15.4	0.00e+00	0	42	0	533725184	69	5049
2026-01-29 00:14:22.17	41.97	40.38	-48.0	-50.1	17.1	0.00e+00	0	42	0	541065216	68	4367
2026-01-29 00:14:26.19	42.79	41.36	-46.8	-48.4	18.7	0.00e+00	0	42	0	549453824	65	4273
2026-01-29 00:14:30.23	43.67	42.35	-46.8	-48.5	18.6	0.00e+00	0	42	0	556793856	65	4317
2026-01-29 00:14:34.26	44.60	43.37	-46.6	-48.2	18.9	0.00e+00	0	42	0	564133888	65	4162
2026-01-29 00:14:38.29	45.59	44.40	-47.2	-49.0	18.3	0.00e+00	0	42	0	571473920	64	4821
2026-01-29 00:14:42.32	46.65	45.46	-47.1	-48.8	18.3	0.00e+00	0	42	0	579862528	66	4218
2026-01-29 00:14:46.35	47.78	46.52	-46.4	-47.9	19.2	0.00e+00	0	42	0	587202560	64	4268
2026-01-29 00:14:50.38	48.98	47.61	-45.4	-46.6	20.4	0.00e+00	0	42	0	594542592	62	4114
2026-01-29 00:14:54.41	50.28	48.71	-45.2	-46.4	20.7	0.00e+00	0	42	0	601882624	61	4258
2026-01-29 00:14:58.43	51.66	49.81	-45.4	-46.7	20.4	0.00e+00	0	42	0	609222656	62	4158
2026-01-29 00:15:02.47	53.16	50.93	-45.0	-46.2	20.8	0.00e+00	0	42	0	617611264	60	4439
2026-01-29 00:15:06.50	54.77	52.06	-43.5	-44.5	22.5	0.00e+00	0	42	0	624951296	59	3864
2026-01-29 00:15:10.53	56.50	53.18	-44.1	-45.2	22.0	0.00e+00	0	42	0	632291328	59	4189
2026-01-29 00:15:14.56	58.37	54.31	-43.4	-44.4	22.7	0.00e+00	0	42	0	639631360	58	4007
2026-01-29 00:15:18.58	60.39	55.42	-44.7	-45.9	21.1	0.00e+00	0	42	0	646971392	60	4269
2026-01-29 00:15:22.61	62.57	56.52	-43.6	-44.6	22.5	0.00e+00	0	42	0	655360000	58	4120
2026-01-29 00:15:26.63	64.93	57.59	-43.9	-45.0	22.2	0.00e+00	0	42	0	662700032	58	4297
2026-01-29 00:15:30.66	67.48	58.64	-46.2	-47.7	19.6	0.00e+00	0	42	0	670040064	63	4405
2026-01-29 00:15:34.69	70.24	59.66	-44.7	-45.9	21.1	0.00e+00	0	42	0	677380096	60	4279
2026-01-29 00:15:38.73	73.23	60.62	-46.3	-47.7	19.6	0.00e+00	0	42	0	684720128	63	4429
2026-01-29 00:15:42.76	76.43	61.53	-45.7	-47.1	20.1	0.00e+00	0	42	0	693108736	62	4360
2026-01-29 00:15:46.79	79.87	62.36	-44.6	-45.7	21.4	0.00e+00	0	42	0	700448768	61	3942
2026-01-29 00:15:50.83	83.54	63.11	-43.1	-44.1	23.0	0.00e+00	0	42	0	707788800	57	4110
2026-01-29 00:15:54.86	87.43	63.77	-43.6	-44.6	22.6	0.00e+00	0	42	0	715128832	58	4144
2026-01-29 00:15:58.89	91.53	64.31	-44.4	-45.5	21.5	0.00e+00	0	42	0	723517440	60	4065
2026-01-29 00:16:02.92	95.80	64.74	-45.1	-46.4	20.9	0.00e+00	0	42	0	730857472	60	4494
2026-01-29 00:16:06.95	100.21	65.05	-45.6	-46.8	20.4	0.00e+00	0	42	0	738197504	63	3987
2026-01-29 00:16:10.97	104.71	65.21	-44.4	-45.4	21.9	0.00e+00	0	42	0	745537536	59	4279
2026-01-29 00:16:15.00	109.26	65.25	-44.2	-45.3	22.0	0.00e+00	0	42	0	752877568	59	4213
2026-01-29 00:16:19.02	113.77	65.14	-45.2	-46.5	20.7	0.00e+00	0	42	0	760217600	62	4064
2026-01-29 00:16:23.06	118.25	64.89	-43.1	-44.0	23.1	0.00e+00	0	42	0	768606208	58	3865
2026-01-29 00:16:27.09	122.59	64.52	-44.1	-45.2	22.2	0.00e+00	0	42	0	775946240	59	4148
2026-01-29 00:16:31.12	126.76	64.02	-44.3	-45.4	21.9	0.00e+00	0	42	0	783286272	59	4282
2026-01-29 00:16:35.15	130.75	63.41	-42.8	-43.7	23.3	0.00e+00	0	42	0	790626304	57	3919
2026-01-29 00:16:39.19	134.53	62.69	-44.2	-45.3	21.8	0.00e+00	0	42	0	797966336	60	3971
2026-01-29 00:16:43.23	138.07	61.89	-43.9	-45.0	22.4	0.00e+00	0	42	0	806354944	59	4056
2026-01-29 00:16:47.26	141.38	61.01	-42.2	-43.0	23.8	0.00e+00	0	42	0	813694976	56	3861
2026-01-29 00:16:51.29	144.46	60.07	-42.7	-43.6	23.4	0.00e+00	0	42	0	821035008	57	3896
2026-01-29 00:16:55.32	147.31	59.08	-42.8	-43.7	23.2	0.00e+00	0	42	0	828375040	56	4191
2026-01-29 00:16:59.36	149.96	58.04	-42.8	-43.7	23.3	0.00e+00	0	42	0	836763648	56	4176
2026-01-29 00:17:03.39	152.41	56.97	-42.9	-43.9	23.2	0.00e+00	0	42	0	844103680	57	4024
2026-01-29 00:17:07.42	154.67	55.87	-42.9	-43.8	23.2	0.00e+00	0	42	0	851443712	57	3986
2026-01-29 00:17:11.45	156.76	54.76	-43.0	-44.0	23.1	0.00e+00	0	42	0	858783744	57	4054
2026-01-29 00:17:15.49	158.70	53.64	-43.9	-45.0	22.3	0.00e+00	0	42	0	866123776	59	4066
2026-01-29 00:17:19.52	160.49	52.51	-45.8	-47.2	20.0	0.00e+00	0	42	0	874512384	63	4149
2026-01-29 00:17:23.55	162.15	51.38	-45.7	-47.0	20.2	0.00e+00	0	42	0	881852416	61	4570
2026-01-29 00:17:27.59	163.69	50.25	-45.0	-46.2	20.9	0.00e+00	0	42	0	889192448	61	4169
2026-01-29 00:17:31.62	165.13	49.14	-47.0	-48.6	18.5	0.00e+00	0	42	0	896532480	64	4646
2026-01-29 00:17:35.65	166.46	48.03	-45.6	-46.9	20.2	0.00e+00	0	42	0	903872512	61	4544
2026-01-29 00:17:39.68	167.70	46.94	-44.4	-45.5	21.5	0.00e+00	0	42	0	912261120	60	4061
2026-01-29 00:17:43.72	168.87	45.86	-47.0	-48.6	18.5	0.00e+00	0	42	0	919601152	64	4642
2026-01-29 00:17:47.75	169.96	44.79	-43.3	-44.3	22.8	0.00e+00	0	42	0	926941184	58	3963
2026-01-29 00:17:51.78	170.97	43.75	-50.1	-53.5	14.0	0.00e+00	0	42	0	934281216	70	5760
2026-01-29 00:17:55.81	171.93	42.72	-44.9	-46.0	20.9	0.00e+00	0	42	0	942669824	61	4080
2026-01-29 00:17:59.84	172.83	41.72	-46.8	-48.4	18.7	0.00e+00	0	42	0	950009856	64	4532
2026-01-29 00:18:03.87	173.67	40.73	-44.5	-45.6	21.6	0.00e+00	0	42	0	957349888	59	4380
2026-01-29 00:18:07.89	174.47	39.77	-48.2	-50.3	17.0	0.00e+00	0	42	0	964689920	66	5023
2026-01-29 00:18:11.92	175.22	38.82	-47.1	-48.8	18.3	0.00e+00	0	42	0	972029952	66	4227
2026-01-29 00:18:15.95	175.93	37.90	-44.8	-45.9	21.0	0.00e+00	0	42	0	980418560	60	4278
2026-01-29 00:18:19.99	176.60	36.99	-46.5	-48.1	19.0	0.00e+00	0	42	0	987758592	64	4355
2026-01-29 00:18:24.02	177.24	36.11	-45.1	-46.3	20.7	0.00e+00	0	42	0	995098624	62	3980
2026-01-29 00:18:28.06	177.85	35.24	-44.3	-45.4	21.4	0.00e+00	0	42	0	1002438656	60	4044
2026-01-29 00:18:32.09	178.43	34.39	-45.1	-46.4	20.6	0.00e+00	0	42	0	1009778688	60	4511
2026-01-29 00:18:36.13	178.98	33.57	-47.4	-49.2	17.9	0.00e+00	0	42	0	1018167296	65	4674
2026-01-29 00:18:40.16	179.50	32.76	-48.1	-50.2	16.9	0.00e+00	0	42	0	1025507328	67	4680
2026-01-29 00:18:44.19	180.00	31.97	-45.4	-46.7	20.3	0.00e+00	0	42	0	1032847360	62	4172
2026-01-29 00:18:48.22	180.47	31.20	-44.9	-46.1	20.7	0.00e+00	0	42	0	1040187392	61	4125
2026-01-29 00:18:52.25	180.93	30.45	-46.6	-48.2	18.8	0.00e+00	0	42	0	1047527424	64	4416
2026-01-29 00:18:56.28	181.36	29.72	-47.0	-48.7	18.1	0.00e+00	0	42	0	1055916032	65	4432
2026-01-29 00:19:00.30	181.78	29.00	-46.7	-48.4	18.6	0.00e+00	0	42	0	1063256064	65	4255
2026-01-29 00:19:04.33	182.18	28.30	-45.7	-47.1	19.6	0.00e+00	0	42	0	1070596096	63	4109
2026-01-29 00:19:08.36	182.56	27.62	-44.0	-45.1	21.6	0.00e+00	0	42	0	1077936128	60	3886
2026-01-29 00:19:12.39	182.93	26.95	-44.3	-45.5	21.5	0.00e+00	0	42	0	1085276160	59	4303
2026-01-29 00:19:16.42	183.28	26.30	-44.7	-46.0	20.8	0.00e+00	0	42	0	1093664768	60	4300
2026-01-29 00:19:20.45	183.62	25.66	-44.8	-46.0	20.7	0.00e+00	0	42	0	1101004800	60	4336
2026-01-29 00:19:24.48	183.95	25.03	-44.9	-46.2	20.6	0.00e+00	0	42	0	1108344832	60	4411
2026-01-29 00:19:28.51	184.26	24.42	-45.6	-47.1	19.7	0.00e+00	0	42	0	1115684864	61	4603
2026-01-29 00:19:32.54	184.57	23.82	-45.1	-46.5	20.3	0.00e+00	0	42	0	1123024896	62	4066
2026-01-29 00:19:36.57	184.86	23.23	-44.4	-45.6	21.0	0.00e+00	0	42	0	1131413504	60	4113
2026-01-29 00:19:40.60	185.15	22.66	-44.2	-45.4	21.5	0.00e+00	0	42	0	1138753536	59	4258
2026-01-29 00:19:44.63	185.42	22.10	-43.7	-44.8	22.0	0.00e+00	0	42	0	1146093568	59	3961
2026-01-29 00:19:48.66	185.68	21.55	-43.7	-44.8	22.0	0.00e+00	0	42	0	1153433600	59	3973
2026-01-29 00:19:52.69	185.94	21.01	-44.1	-45.2	21.6	0.00e+00	0	42	0	1160773632	59	4188
2026-01-29 00:19:56.71	186.19	20.48	-44.5	-45.8	20.8	0.00e+00	0	42	0	1169162240	60	4205
2026-01-29 00:20:00.74	186.43	19.96	-44.5	-45.8	20.7	0.00e+00	0	42	0	1176502272	60	4217
2026-01-29 00:20:04.77	186.66	19.45	-44.3	-45.5	21.0	0.00e+00	0	42	0	1183842304	60	4069
2026-01-29 00:20:08.80	186.89	18.96	-44.2	-45.4	21.0	0.00e+00	0	42	0	1191182336	60	4045
2026-01-29 00:20:12.83	187.11	18.47	-44.4	-45.6	20.8	0.00e+00	0	42	0	1199570944	60	4138
2026-01-29 00:20:16.86	187.32	17.99	-44.5	-45.8	20.7	0.00e+00	0	42	0	1206910976	60	4197
2026-01-29 00:20:20.89	187.53	17.52	-44.4	-45.6	20.8	0.00e+00	0	42	0	1214251008	60	4124
2026-01-29 00:20:24.91	187.73	17.06	-44.3	-45.5	20.9	0.00e+00	0	42	0	1221591040	60	4073
2026-01-29 00:20:28.94	187.92	16.60	-44.4	-45.6	21.1	0.00e+00	0	42	0	1228931072	59	4365
2026-01-29 00:20:32.97	188.11	16.16	-44.5	-45.7	21.1	0.00e+00	0	42	0	1236271104	59	4412
2026-01-29 00:20:37.01	188.30	15.72	-44.3	-45.5	20.9	0.00e+00	0	42	0	1244659712	60	4076
2026-01-29 00:20:41.03	188.48	15.29	-44.8	-46.1	20.3	0.00e+00	0	42	0	1251999744	60	4364
2026-01-29 00:20:45.06	188.65	14.87	-45.1	-46.5	19.9	0.00e+00	0	42	0	1259339776	60	4567
2026-01-29 00:20:49.10	188.83	14.45	-45.7	-47.2	19.3	0.00e+00	0	42	0	1266679808	61	4672
2026-01-29 00:20:53.13	188.99	14.04	-46.2	-47.9	18.5	0.00e+00	0	42	0	1275068416	63	4529
2026-01-29 00:20:57.16	189.16	13.64	-46.6	-48.4	18.2	0.00e+00	0	42	0	1282408448	63	4783
2026-01-29 00:21:01.20	189.31	13.24	-47.0	-48.9	17.5	0.00e+00	0	42	0	1289748480	64	4781
2026-01-29 00:21:05.23	189.47	12.85	-47.2	-49.3	17.2	0.00e+00	0	42	0	1297088512	65	4714
2026-01-29 00:21:09.26	189.62	12.46	-47.3	-49.3	17.1	0.00e+00	0	42	0	1304428544	65	4729
2026-01-29 00:21:13.28	189.77	12.09	-47.3	-49.4	16.9	0.00e+00	0	42	0	1312817152	65	4792
2026-01-29 00:21:17.32	189.91	11.71	-46.5	-48.3	18.0	0.00e+00	0	42	0	1320157184	64	4480
2026-01-29 00:21:21.34	190.05	11.35	-46.3	-48.1	18.2	0.00e+00	0	42	0	1327497216	64	4352
2026-01-29 00:21:25.37	190.19	10.98	-46.0	-47.7	18.7	0.00e+00	0	42	0	1334837248	63	4393
2026-01-29 00:21:29.41	190.33	10.63	-45.8	-47.4	18.9	0.00e+00	0	42	0	1343225856	63	4247
2026-01-29 00:21:33.44	190.46	10.28	-45.5	-47.0	19.2	0.00e+00	0	42	0	1350565888	63	4092
2026-01-29 00:21:37.47	190.59	9.93	-45.3	-46.8	19.4	0.00e+00	0	42	0	1357905920	62	4220
2026-01-29 00:21:41.51	190.72	9.59	-45.2	-46.6	19.5	0.00e+00	0	42	0	1365245952	62	4145
2026-01-29 00:21:45.54	190.84	9.25	-45.2	-46.6	19.5	0.00e+00	0	42	0	1372585984	62	4130
2026-01-29 00:21:49.57	190.96	8.91	-45.3	-46.8	19.3	0.00e+00	0	42	0	1379926016	62	4218
2026-01-29 00:21:53.60	191.08	8.58	-45.0	-46.5	19.6	0.00e+00	0	42	0	1388314624	62	4056
2026-01-29 00:21:57.63	191.20	8.26	-45.2	-46.7	19.4	0.00e+00	0	42	0	1395654656	62	4156
2026-01-29 00:22:01.67	191.32	7.94	-45.3	-46.8	19.2	0.00e+00	0	42	0	1402994688	62	4198
2026-01-29 00:22:05.70	191.43	7.62	-45.3	-46.8	19.3	0.00e+00	0	42	0	1410334720	62	4198
2026-01-29 00:22:09.73	191.54	7.31	-45.3	-46.8	19.2	0.00e+00	0	42	0	1418723328	62	4236
2026-01-29 00:22:13.75	191.65	7.00	-45.5	-47.1	18.9	0.00e+00	0	42	0	1426063360	62	4354
2026-01-29 00:22:17.78	191.75	6.69	-45.5	-47.1	18.8	0.00e+00	0	42	0	1433403392	62	4386
2026-01-29 00:22:21.81	191.86	6.39	-45.6	-47.2	18.7	0.00e+00	0	42	0	1440743424	62	4438
2026-01-29 00:22:25.84	191.96	6.09	-45.8	-47.5	18.3	0.00e+00	0	42	0	1448083456	62	4569
2026-01-29 00:22:29.87	192.06	5.80	-46.1	-47.9	17.9	0.00e+00	0	42	0	1456472064	62	4767
2026-01-29 00:22:33.91	192.16	5.51	-46.2	-48.0	17.8	0.00e+00	0	42	0	1463812096	63	4568
2026-01-29 00:22:37.94	192.26	5.22	-46.3	-48.2	17.6	0.00e+00	0	42	0	1471152128	63	4680
2026-01-29 00:22:41.97	192.36	4.93	-52.7	-67.7	3.8	1.49e+00	0	42	104	1476395008	75	22039
2026-01-29 00:22:46.00	192.45	4.65	-53.4	-68.4	3.8	1.49e+00	0	42	104	1476395008	77	21430
2026-01-29 00:22:50.03	192.54	4.37	-53.8	-68.8	3.8	1.49e+00	0	42	104	1476395008	78	21149
2026-01-29 00:22:54.06	192.63	4.09	-54.0	-69.1	3.8	1.49e+00	0	42	104	1476395008	78	21771
2026-01-29 00:22:58.09	192.72	3.82	-54.1	-69.2	3.8	1.49e+00	0	42	104	1476395008	78	22054
2026-01-29 00:23:02.13	192.81	3.54	-54.2	-69.2	3.8	1.49e+00	0	42	104	1476395008	79	20957
2026-01-29 00:23:06.17	192.90	3.27	-54.0	-69.0	3.8	1.49e+00	0	42	104	1476395008	79	20427
2026-01-29 00:23:10.20	192.99	3.01	-53.6	-68.6	3.8	1.49e+00	0	42	104	1476395008	79	19401
2026-01-29 00:23:14.23	193.07	2.74	-53.1	-68.1	3.8	1.49e+00	0	43	104	1476395008	78	19444
2026-01-29 00:23:18.26	193.15	2.48	-53.1	-68.1	3.8	1.49e+00	0	42	104	1476395008	78	19415
2026-01-29 00:23:22.29	193.24	2.22	-53.1	-68.1	3.8	1.49e+00	0	43	104	1476395008	78	19398

#Closed at: 2026-01-29 00:23:26
#Recorded file [1476 MB]: D:/lorett/data/31041_260129_030859.dat