passes_logs/2026/01/29/R3.2S_Murmansk/R3.2S_Murmansk__20260129_102710_NOAA_20_JPSS-1_rec.log

#Pass ID: 20260129_102710_NOAA 20 (JPSS-1)
#Satellite: NOAA 20 (JPSS-1)
#Configuration: NOAA 20
#almurnet v.1.7.20251203
#Start time: 2026-01-29 10:27:10

#Version: 2.2.20231116
#Station: R3.2S_Murmansk
#Location: 33.079688 lon 68.888172 lat
#TLE: 1 43013U 17073A   26028.86313978  .00000144  00000+0  89200-4 0  9993
#TLE: 2 43013  98.7648 329.6571 0000891  20.0014 340.1197 14.19541559424709

#Time	Az	El	Level	Level2	SNR	BER	BlckErr	Temp	State	Recorded	gain1	gain2
2026-01-29 10:27:10.16	174.26	2.00	-53.7	-68.7	3.8	1.49e+00	0	40	0	0	79	19731
2026-01-29 10:27:14.18	174.38	2.26	-52.4	-67.3	3.8	1.49e+00	0	40	104	0	76	19865
2026-01-29 10:27:18.21	174.50	2.51	-52.3	-67.1	3.8	1.49e+00	0	40	104	0	76	19537
2026-01-29 10:27:22.24	174.62	2.77	-52.3	-67.3	3.8	1.49e+00	0	40	104	0	76	19855
2026-01-29 10:27:26.27	174.74	3.03	-52.3	-67.2	3.8	1.49e+00	0	40	104	0	76	19831
2026-01-29 10:27:30.31	174.86	3.30	-52.3	-67.2	3.8	1.49e+00	0	41	104	0	76	19745
2026-01-29 10:27:34.33	174.99	3.56	-52.2	-66.4	3.8	1.49e+00	0	40	104	0	76	17914
2026-01-29 10:27:38.37	175.12	3.83	-52.2	-66.2	3.8	1.49e+00	0	41	104	0	76	17682
2026-01-29 10:27:42.40	175.25	4.10	-52.1	-63.7	4.2	1.48e+00	0	41	104	0	76	13238
2026-01-29 10:27:46.43	175.38	4.38	-50.4	-55.2	10.7	9.30e-03	0	41	0	6291456	72	6254
2026-01-29 10:27:50.46	175.51	4.65	-48.0	-50.5	15.7	0.00e+00	0	41	0	14680064	68	4547
2026-01-29 10:27:54.50	175.65	4.93	-46.9	-48.9	17.2	0.00e+00	0	41	0	22020096	65	4538
2026-01-29 10:27:58.53	175.79	5.22	-47.1	-49.1	16.9	5.41e-04	0	41	0	29360128	66	4367
2026-01-29 10:28:02.56	175.93	5.50	-46.5	-48.4	17.7	0.00e+00	0	41	0	36700160	65	4253
2026-01-29 10:28:06.59	176.07	5.79	-46.7	-48.5	17.6	0.00e+00	0	41	0	44040192	65	4332
2026-01-29 10:28:10.61	176.22	6.08	-46.4	-48.2	18.1	0.00e+00	0	41	0	51380224	64	4392
2026-01-29 10:28:14.64	176.37	6.37	-46.3	-48.1	18.2	0.00e+00	0	41	0	59768832	64	4347
2026-01-29 10:28:18.67	176.52	6.67	-46.2	-47.9	18.4	0.00e+00	0	41	0	67108864	64	4243
2026-01-29 10:28:22.69	176.67	6.97	-46.3	-47.9	18.4	0.00e+00	0	41	0	74448896	64	4284
2026-01-29 10:28:26.73	176.83	7.28	-46.3	-47.9	18.4	0.00e+00	0	41	0	81788928	64	4286
2026-01-29 10:28:30.75	176.99	7.58	-46.2	-47.8	18.7	0.00e+00	0	41	0	89128960	63	4472
2026-01-29 10:28:34.78	177.16	7.90	-46.0	-47.6	19.0	0.00e+00	0	41	0	97517568	63	4344
2026-01-29 10:28:38.82	177.32	8.21	-46.0	-47.5	19.0	0.00e+00	0	41	0	104857600	63	4329
2026-01-29 10:28:42.85	177.49	8.53	-46.0	-47.6	19.0	0.00e+00	0	41	0	112197632	63	4348
2026-01-29 10:28:46.88	177.67	8.85	-45.8	-47.3	19.4	0.00e+00	0	41	0	119537664	63	4194
2026-01-29 10:28:50.90	177.84	9.18	-45.7	-47.1	19.5	0.00e+00	0	41	0	127926272	63	4144
2026-01-29 10:28:54.93	178.02	9.51	-45.7	-47.1	19.6	0.00e+00	0	41	0	135266304	63	4123
2026-01-29 10:28:58.96	178.21	9.85	-45.6	-47.0	19.6	0.00e+00	0	41	0	142606336	63	4098
2026-01-29 10:29:02.98	178.40	10.18	-45.6	-47.0	19.7	0.00e+00	0	42	0	149946368	63	4067
2026-01-29 10:29:07.01	178.59	10.53	-45.5	-46.9	19.8	0.00e+00	0	41	0	157286400	62	4288
2026-01-29 10:29:11.04	178.79	10.88	-45.5	-46.9	19.9	0.00e+00	0	41	0	165675008	62	4254
2026-01-29 10:29:15.08	178.99	11.23	-45.6	-47.0	19.8	0.00e+00	0	41	0	173015040	62	4299
2026-01-29 10:29:19.11	179.20	11.59	-45.6	-46.9	19.8	0.00e+00	0	42	0	180355072	62	4283
2026-01-29 10:29:23.14	179.41	11.95	-45.5	-46.9	19.9	0.00e+00	0	42	0	187695104	62	4274
2026-01-29 10:29:27.17	179.62	12.32	-45.4	-46.8	20.0	0.00e+00	0	41	0	195035136	62	4227
2026-01-29 10:29:31.20	179.84	12.70	-45.4	-46.7	20.1	0.00e+00	0	41	0	203423744	62	4175
2026-01-29 10:29:35.23	180.07	13.07	-45.4	-46.7	20.1	0.00e+00	0	41	0	210763776	62	4175
2026-01-29 10:29:39.26	180.30	13.46	-45.2	-46.5	20.4	0.00e+00	0	42	0	218103808	62	4068
2026-01-29 10:29:43.29	180.54	13.85	-45.1	-46.4	20.5	0.00e+00	0	41	0	225443840	62	4038
2026-01-29 10:29:47.31	180.78	14.25	-45.1	-46.4	20.5	0.00e+00	0	41	0	232783872	62	4027
2026-01-29 10:29:51.34	181.03	14.65	-45.3	-46.6	20.3	0.00e+00	0	41	0	241172480	62	4125
2026-01-29 10:29:55.37	181.29	15.06	-45.0	-46.2	20.7	0.00e+00	0	42	0	248512512	61	4176
2026-01-29 10:29:59.40	181.55	15.47	-44.9	-46.2	20.8	0.00e+00	0	41	0	255852544	61	4151
2026-01-29 10:30:03.43	181.82	15.90	-44.8	-46.0	20.9	0.00e+00	0	42	0	263192576	61	4064
2026-01-29 10:30:07.47	182.10	16.33	-44.7	-45.9	21.0	0.00e+00	0	42	0	271581184	61	4017
2026-01-29 10:30:11.50	182.38	16.76	-44.6	-45.8	21.2	0.00e+00	0	42	0	278921216	61	3961
2026-01-29 10:30:15.52	182.68	17.20	-44.6	-45.7	21.2	0.00e+00	0	42	0	286261248	61	3954
2026-01-29 10:30:19.55	182.98	17.65	-44.4	-45.6	21.4	0.00e+00	0	42	0	293601280	60	4112
2026-01-29 10:30:23.57	183.29	18.11	-44.6	-45.8	21.2	0.00e+00	0	42	0	300941312	60	4197
2026-01-29 10:30:27.61	183.60	18.58	-44.3	-45.5	21.5	0.00e+00	0	42	0	308281344	60	4073
2026-01-29 10:30:31.63	183.93	19.05	-44.1	-45.2	21.7	0.00e+00	0	42	0	316669952	60	3940
2026-01-29 10:30:35.66	184.27	19.54	-44.0	-45.1	21.9	0.00e+00	0	42	0	324009984	60	3876
2026-01-29 10:30:39.69	184.62	20.03	-44.2	-45.3	22.0	0.00e+00	0	41	0	331350016	59	4217
2026-01-29 10:30:43.72	184.98	20.53	-44.0	-45.1	22.2	0.00e+00	0	42	0	338690048	59	4123
2026-01-29 10:30:47.76	185.35	21.04	-43.9	-45.0	22.3	0.00e+00	0	41	0	346030080	59	4071
2026-01-29 10:30:51.79	185.73	21.56	-44.0	-45.1	22.2	0.00e+00	0	42	0	354418688	59	4135
2026-01-29 10:30:55.81	186.13	22.08	-43.9	-44.9	22.3	0.00e+00	0	42	0	361758720	59	4050
2026-01-29 10:30:59.84	186.54	22.62	-43.6	-44.7	22.6	0.00e+00	0	42	0	369098752	59	3922
2026-01-29 10:31:03.87	186.96	23.17	-43.4	-44.5	22.8	0.00e+00	0	42	0	376438784	58	4055
2026-01-29 10:31:07.90	187.40	23.73	-43.2	-44.2	23.0	0.00e+00	0	42	0	384827392	58	3933
2026-01-29 10:31:11.93	187.85	24.30	-43.2	-44.2	23.0	0.00e+00	0	42	0	392167424	58	3942
2026-01-29 10:31:15.96	188.32	24.88	-43.4	-44.4	22.9	0.00e+00	0	41	0	399507456	58	4035
2026-01-29 10:31:19.99	188.80	25.47	-43.7	-44.7	22.6	0.00e+00	0	42	0	406847488	58	4171
2026-01-29 10:31:24.02	189.30	26.07	-43.8	-44.9	22.4	0.00e+00	0	42	0	414187520	58	4266
2026-01-29 10:31:28.05	189.83	26.68	-44.1	-45.2	22.2	0.00e+00	0	42	0	421527552	58	4394
2026-01-29 10:31:32.08	190.37	27.31	-44.6	-45.7	21.7	0.00e+00	0	42	0	429916160	59	4430
2026-01-29 10:31:36.11	190.93	27.94	-44.9	-46.1	21.1	0.00e+00	0	42	0	437256192	60	4362
2026-01-29 10:31:40.13	191.52	28.59	-45.2	-46.5	20.7	0.00e+00	0	42	0	444596224	61	4311
2026-01-29 10:31:44.16	192.13	29.25	-45.6	-46.9	20.3	0.00e+00	0	42	0	451936256	61	4538
2026-01-29 10:31:48.20	192.76	29.93	-46.1	-47.5	19.8	0.00e+00	0	42	0	460324864	62	4584
2026-01-29 10:31:52.23	193.42	30.61	-46.6	-48.1	19.2	0.00e+00	0	42	0	467664896	63	4639
2026-01-29 10:31:56.26	194.11	31.31	-47.1	-48.7	18.5	0.00e+00	0	42	0	475004928	64	4699
2026-01-29 10:32:00.27	194.83	32.02	-46.5	-48.0	19.2	0.00e+00	0	42	0	482344960	64	4335
2026-01-29 10:32:04.28	195.57	32.73	-46.3	-47.8	19.5	0.00e+00	0	42	0	489684992	64	4199
2026-01-29 10:32:08.31	196.36	33.47	-46.1	-47.6	19.7	0.00e+00	0	42	0	498073600	64	4101
2026-01-29 10:32:12.33	197.17	34.21	-46.0	-47.4	19.9	0.00e+00	0	42	0	505413632	63	4256
2026-01-29 10:32:16.36	198.03	34.97	-45.9	-47.3	20.0	0.00e+00	0	42	0	512753664	63	4207
2026-01-29 10:32:20.39	198.93	35.74	-45.7	-47.0	20.3	0.00e+00	0	42	0	520093696	63	4084
2026-01-29 10:32:24.42	199.87	36.52	-45.1	-46.3	21.0	0.00e+00	0	42	0	527433728	62	3986
2026-01-29 10:32:28.45	200.85	37.31	-44.6	-45.8	21.5	0.00e+00	0	42	0	534773760	61	3959
2026-01-29 10:32:32.48	201.88	38.11	-44.4	-45.5	21.8	0.00e+00	0	42	0	543162368	60	4064
2026-01-29 10:32:36.51	202.97	38.92	-44.1	-45.2	22.1	0.00e+00	0	42	0	550502400	60	3922
2026-01-29 10:32:40.55	204.11	39.73	-44.3	-45.3	22.2	0.00e+00	0	42	0	557842432	59	4237
2026-01-29 10:32:44.57	205.30	40.55	-44.5	-45.7	21.9	0.00e+00	0	42	0	565182464	59	4398
2026-01-29 10:32:48.61	206.56	41.38	-44.3	-45.4	22.1	0.00e+00	0	42	0	573571072	59	4275
2026-01-29 10:32:52.63	207.88	42.21	-44.5	-45.7	21.6	0.00e+00	0	42	0	580911104	60	4152
2026-01-29 10:32:56.67	209.28	43.04	-44.9	-46.1	21.3	0.00e+00	0	42	0	588251136	60	4358
2026-01-29 10:33:00.70	210.74	43.87	-44.9	-46.1	21.2	0.00e+00	0	42	0	595591168	60	4362
2026-01-29 10:33:04.73	212.28	44.69	-45.8	-47.2	20.3	0.00e+00	0	42	0	602931200	62	4397
2026-01-29 10:33:08.75	213.90	45.51	-45.4	-46.7	20.8	0.00e+00	0	42	0	611319808	62	4170
2026-01-29 10:33:12.78	215.60	46.32	-47.0	-48.6	18.8	0.00e+00	0	42	0	618659840	64	4634
2026-01-29 10:33:16.82	217.40	47.12	-46.6	-48.2	19.3	0.00e+00	0	42	0	625999872	65	4147
2026-01-29 10:33:20.84	219.28	47.89	-46.7	-48.2	19.3	0.00e+00	0	42	0	633339904	65	4154
2026-01-29 10:33:24.86	221.26	48.65	-46.6	-48.1	19.4	0.00e+00	0	42	0	641728512	64	4350
2026-01-29 10:33:28.89	223.33	49.38	-46.4	-47.9	19.5	0.00e+00	0	42	0	649068544	64	4256
2026-01-29 10:33:32.92	225.51	50.09	-45.8	-47.0	20.5	0.00e+00	0	42	0	656408576	63	4091
2026-01-29 10:33:36.95	227.78	50.76	-46.1	-47.5	20.0	0.00e+00	0	42	0	663748608	63	4316
2026-01-29 10:33:40.98	230.16	51.39	-44.4	-45.5	21.9	0.00e+00	0	42	0	671088640	60	4087
2026-01-29 10:33:45.01	232.63	51.97	-43.8	-44.7	22.9	0.00e+00	0	42	0	678428672	59	3955
2026-01-29 10:33:49.03	235.19	52.51	-44.5	-45.7	21.8	0.00e+00	0	42	0	686817280	60	4147
2026-01-29 10:33:53.06	237.84	52.99	-44.0	-45.0	22.7	0.00e+00	0	42	0	694157312	59	4089
2026-01-29 10:33:57.10	240.59	53.41	-43.9	-44.9	22.8	0.00e+00	0	42	0	701497344	59	4051
2026-01-29 10:34:01.12	243.39	53.76	-44.4	-45.5	22.2	0.00e+00	0	42	0	708837376	59	4326
2026-01-29 10:34:05.15	246.26	54.05	-44.1	-45.2	22.3	0.00e+00	0	42	0	716177408	60	3915
2026-01-29 10:34:09.18	249.18	54.27	-44.9	-46.0	21.5	0.00e+00	0	42	0	724566016	60	4326
2026-01-29 10:34:13.22	252.15	54.41	-44.4	-45.5	22.3	0.00e+00	0	42	0	731906048	59	4312
2026-01-29 10:34:17.26	255.14	54.48	-44.4	-45.4	22.4	0.00e+00	0	42	0	739246080	59	4285
2026-01-29 10:34:21.28	258.12	54.47	-44.1	-45.1	22.4	0.00e+00	0	42	0	746586112	60	3898
2026-01-29 10:34:25.32	261.10	54.39	-44.7	-45.9	21.6	0.00e+00	0	42	0	754974720	60	4263
2026-01-29 10:34:29.35	264.05	54.23	-43.6	-44.5	23.1	0.00e+00	0	42	0	762314752	59	3864
2026-01-29 10:34:33.39	266.97	53.99	-43.3	-44.2	23.5	0.00e+00	0	42	0	769654784	58	3954
2026-01-29 10:34:37.42	269.83	53.69	-43.3	-44.3	23.4	0.00e+00	0	42	0	776994816	58	3970
2026-01-29 10:34:41.45	272.62	53.32	-44.3	-45.4	22.5	0.00e+00	0	42	0	784334848	59	4260
2026-01-29 10:34:45.48	275.34	52.88	-44.3	-45.4	22.1	0.00e+00	0	42	0	792723456	60	4034
2026-01-29 10:34:49.51	277.97	52.39	-44.3	-45.4	22.4	0.00e+00	0	42	0	800063488	59	4248
2026-01-29 10:34:53.54	280.51	51.84	-44.3	-45.4	22.5	0.00e+00	0	42	0	807403520	59	4252
2026-01-29 10:34:57.56	282.95	51.25	-44.6	-45.7	21.9	0.00e+00	0	42	0	814743552	60	4159
2026-01-29 10:35:01.59	285.29	50.61	-44.8	-45.9	21.7	0.00e+00	0	42	0	822083584	60	4288
2026-01-29 10:35:05.62	287.54	49.94	-46.8	-48.3	19.4	0.00e+00	0	42	0	830472192	64	4475
2026-01-29 10:35:09.65	289.69	49.23	-48.0	-49.8	17.9	0.00e+00	0	42	0	837812224	66	4756
2026-01-29 10:35:13.68	291.74	48.49	-49.9	-52.5	15.3	0.00e+00	0	42	0	845152256	70	5154
2026-01-29 10:35:17.71	293.70	47.73	-48.9	-51.0	16.9	0.00e+00	0	42	0	852492288	68	4826
2026-01-29 10:35:21.73	295.55	46.95	-47.5	-49.2	18.5	0.00e+00	0	42	0	859832320	67	4158
2026-01-29 10:35:25.76	297.32	46.15	-47.5	-49.2	18.5	0.00e+00	0	42	0	868220928	67	4180
2026-01-29 10:35:29.79	299.00	45.34	-45.7	-47.0	20.8	0.00e+00	0	42	0	875560960	63	4058
2026-01-29 10:35:33.81	300.60	44.53	-46.5	-48.0	19.8	0.00e+00	0	42	0	882900992	65	4056
2026-01-29 10:35:37.84	302.12	43.71	-46.6	-48.0	19.7	0.00e+00	0	42	0	890241024	63	4591
2026-01-29 10:35:41.86	303.56	42.88	-46.0	-47.3	20.3	0.00e+00	0	42	0	897581056	63	4216
2026-01-29 10:35:45.89	304.93	42.06	-47.7	-49.5	18.3	0.00e+00	0	42	0	905969664	65	4823
2026-01-29 10:35:49.92	306.24	41.23	-48.5	-50.4	17.3	0.00e+00	0	42	0	913309696	68	4528
2026-01-29 10:35:53.94	307.47	40.41	-50.7	-54.2	13.5	2.20e-06	0	42	0	920649728	72	5567
2026-01-29 10:35:57.97	308.66	39.60	-46.1	-47.4	20.1	0.00e+00	0	42	0	927989760	64	4014
2026-01-29 10:36:02.00	309.78	38.79	-51.3	-55.7	11.8	5.79e-05	0	42	0	935329792	73	6215
2026-01-29 10:36:06.03	310.85	37.98	-46.4	-47.8	19.7	0.00e+00	0	42	0	943718400	64	4222
2026-01-29 10:36:10.06	311.87	37.19	-48.9	-51.2	16.6	0.00e+00	0	42	0	951058432	68	4945
2026-01-29 10:36:14.08	312.84	36.41	-46.5	-47.9	19.6	0.00e+00	0	42	0	958398464	65	4023
2026-01-29 10:36:18.10	313.77	35.63	-47.2	-48.9	18.6	0.00e+00	0	42	0	965738496	65	4524
2026-01-29 10:36:22.13	314.66	34.87	-46.9	-48.4	19.1	0.00e+00	0	42	0	973078528	65	4284
2026-01-29 10:36:26.16	315.50	34.12	-46.5	-47.9	19.5	0.00e+00	0	42	0	981467136	64	4290
2026-01-29 10:36:30.19	316.31	33.38	-48.2	-50.2	17.4	0.00e+00	0	42	0	988807168	66	4927
2026-01-29 10:36:34.21	317.09	32.65	-46.5	-48.0	19.5	0.00e+00	0	42	0	996147200	65	4075
2026-01-29 10:36:38.24	317.83	31.94	-46.9	-48.5	18.9	0.00e+00	0	42	0	1003487232	64	4581
2026-01-29 10:36:42.26	318.54	31.23	-48.9	-51.3	16.4	0.00e+00	0	42	0	1011875840	68	4985
2026-01-29 10:36:46.29	319.22	30.54	-47.5	-49.2	18.2	0.00e+00	0	42	0	1019215872	67	4185
2026-01-29 10:36:50.32	319.88	29.86	-47.2	-48.8	18.6	0.00e+00	0	42	0	1026555904	65	4462
2026-01-29 10:36:54.35	320.51	29.20	-47.2	-48.9	18.5	0.00e+00	0	42	0	1033895936	65	4501
2026-01-29 10:36:58.38	321.11	28.54	-46.3	-47.7	19.7	0.00e+00	0	42	0	1041235968	64	4163
2026-01-29 10:37:02.41	321.69	27.90	-45.5	-46.7	20.7	0.00e+00	0	42	0	1048576000	62	4193
2026-01-29 10:37:06.44	322.25	27.26	-45.6	-46.8	20.6	0.00e+00	0	42	0	1056964608	62	4232
2026-01-29 10:37:10.47	322.79	26.65	-46.5	-48.0	19.5	0.00e+00	0	42	0	1064304640	63	4550
2026-01-29 10:37:14.49	323.31	26.04	-46.6	-48.1	19.2	0.00e+00	0	42	0	1071644672	64	4362
2026-01-29 10:37:18.52	323.81	25.44	-45.8	-47.2	20.3	0.00e+00	0	42	0	1078984704	63	4154
2026-01-29 10:37:22.54	324.29	24.86	-45.6	-46.9	20.4	0.00e+00	0	42	0	1086324736	62	4275
2026-01-29 10:37:26.57	324.75	24.28	-46.0	-47.4	19.9	0.00e+00	0	42	0	1094713344	62	4531
2026-01-29 10:37:30.60	325.20	23.72	-45.9	-47.2	20.1	0.00e+00	0	42	0	1102053376	62	4434
2026-01-29 10:37:34.63	325.64	23.16	-45.4	-46.7	20.6	0.00e+00	0	42	0	1109393408	62	4150
2026-01-29 10:37:38.65	326.06	22.62	-45.0	-46.3	20.9	0.00e+00	0	42	0	1116733440	62	3960
2026-01-29 10:37:42.68	326.47	22.09	-45.3	-46.5	20.7	0.00e+00	0	42	0	1125122048	62	4083
2026-01-29 10:37:46.70	326.86	21.57	-45.6	-46.9	20.3	0.00e+00	0	42	0	1132462080	62	4268
2026-01-29 10:37:50.73	327.24	21.05	-46.0	-47.5	19.7	0.00e+00	0	42	0	1139802112	62	4570
2026-01-29 10:37:54.77	327.61	20.54	-46.0	-47.4	19.8	0.00e+00	0	42	0	1147142144	63	4272
2026-01-29 10:37:58.80	327.97	20.05	-45.2	-46.5	20.6	0.00e+00	0	42	0	1154482176	62	4087
2026-01-29 10:38:02.83	328.32	19.56	-45.0	-46.2	20.9	0.00e+00	0	42	0	1161822208	61	4160
2026-01-29 10:38:06.87	328.65	19.08	-45.0	-46.2	20.9	0.00e+00	0	42	0	1170210816	61	4168
2026-01-29 10:38:10.89	328.98	18.61	-45.1	-46.4	20.7	0.00e+00	0	42	0	1177550848	61	4255
2026-01-29 10:38:14.92	329.30	18.15	-45.4	-46.7	20.3	0.00e+00	0	42	0	1184890880	61	4437
2026-01-29 10:38:18.94	329.61	17.69	-45.3	-46.7	20.4	0.00e+00	0	42	0	1192230912	61	4392
2026-01-29 10:38:22.97	329.91	17.24	-44.8	-46.1	20.9	0.00e+00	0	42	0	1200619520	61	4111
2026-01-29 10:38:26.99	330.20	16.81	-44.3	-45.4	21.5	0.00e+00	0	42	0	1207959552	60	4039
2026-01-29 10:38:31.02	330.49	16.37	-44.2	-45.3	21.6	7.00e-07	0	42	0	1215299584	60	3978
2026-01-29 10:38:35.04	330.76	15.95	-44.2	-45.3	21.5	0.00e+00	0	42	0	1222639616	60	3995
2026-01-29 10:38:39.07	331.03	15.53	-44.5	-45.7	21.2	0.00e+00	0	42	0	1229979648	60	4150
2026-01-29 10:38:43.11	331.30	15.11	-44.8	-46.1	20.7	1.50e-06	0	42	0	1238368256	60	4359
2026-01-29 10:38:47.14	331.55	14.71	-45.3	-46.6	20.2	0.00e+00	0	42	0	1245708288	61	4380
2026-01-29 10:38:51.17	331.80	14.31	-45.6	-47.0	19.8	0.00e+00	0	42	0	1253048320	61	4568
2026-01-29 10:38:55.20	332.05	13.91	-45.4	-46.8	20.0	0.00e+00	0	42	0	1260388352	61	4485
2026-01-29 10:38:59.23	332.28	13.53	-45.3	-46.7	20.2	0.00e+00	0	42	0	1267728384	61	4398
2026-01-29 10:39:03.27	332.52	13.14	-45.1	-46.4	20.4	0.00e+00	0	42	0	1276116992	61	4266
2026-01-29 10:39:07.29	332.74	12.77	-44.9	-46.2	20.5	0.00e+00	0	42	0	1283457024	61	4164
2026-01-29 10:39:11.33	332.97	12.39	-44.9	-46.2	20.5	0.00e+00	0	42	0	1290797056	61	4159
2026-01-29 10:39:15.35	333.18	12.03	-45.0	-46.3	20.3	0.00e+00	0	42	0	1298137088	61	4240
2026-01-29 10:39:19.38	333.40	11.67	-45.3	-46.7	19.9	0.00e+00	0	42	0	1305477120	61	4421
2026-01-29 10:39:23.41	333.60	11.31	-45.6	-47.1	19.6	0.00e+00	0	42	0	1313865728	61	4603
2026-01-29 10:39:27.44	333.81	10.96	-46.0	-47.5	19.1	0.00e+00	0	42	0	1321205760	62	4588
2026-01-29 10:39:31.47	334.01	10.61	-46.2	-47.8	18.8	0.00e+00	0	42	0	1328545792	62	4727
2026-01-29 10:39:35.51	334.20	10.27	-46.3	-48.0	18.7	0.00e+00	0	42	0	1335885824	63	4555
2026-01-29 10:39:39.53	334.39	9.93	-46.1	-47.7	18.9	0.00e+00	0	42	0	1343225856	63	4395
2026-01-29 10:39:43.57	334.58	9.60	-46.1	-47.7	18.9	0.00e+00	0	42	0	1351614464	63	4410
2026-01-29 10:39:47.60	334.76	9.27	-45.8	-47.4	19.1	0.00e+00	0	42	0	1358954496	63	4256
2026-01-29 10:39:51.63	334.94	8.95	-45.7	-47.2	19.3	0.00e+00	0	42	0	1366294528	63	4156
2026-01-29 10:39:55.65	335.11	8.63	-45.6	-47.1	19.4	0.00e+00	0	42	0	1373634560	63	4119
2026-01-29 10:39:59.68	335.29	8.31	-45.5	-47.0	19.4	0.00e+00	0	42	0	1380974592	63	4081
2026-01-29 10:40:03.71	335.46	8.00	-45.6	-47.1	19.3	0.00e+00	0	42	0	1389363200	62	4379
2026-01-29 10:40:07.74	335.62	7.69	-45.8	-47.3	19.1	0.00e+00	0	42	0	1396703232	62	4472
2026-01-29 10:40:11.77	335.78	7.38	-45.8	-47.4	19.0	0.00e+00	0	42	0	1404043264	62	4508
2026-01-29 10:40:15.81	335.94	7.08	-45.9	-47.5	18.8	0.00e+00	0	42	0	1411383296	62	4586
2026-01-29 10:40:19.83	336.10	6.78	-46.2	-47.9	18.4	0.00e+00	0	42	0	1418723328	62	4787
2026-01-29 10:40:23.86	336.25	6.48	-46.3	-48.0	18.2	0.00e+00	0	42	0	1427111936	63	4574
2026-01-29 10:40:27.89	336.41	6.19	-46.5	-48.3	17.9	0.00e+00	0	42	0	1434451968	63	4715
2026-01-29 10:40:31.91	336.55	5.90	-46.7	-48.6	17.4	0.00e+00	0	42	0	1441792000	64	4646
2026-01-29 10:40:35.94	336.70	5.61	-46.8	-48.9	17.1	0.00e+00	0	42	0	1449132032	64	4772
2026-01-29 10:40:39.97	336.84	5.33	-46.9	-49.0	16.9	0.00e+00	0	42	0	1457520640	64	4863
2026-01-29 10:40:44.00	336.99	5.05	-47.1	-49.3	16.6	0.00e+00	0	42	0	1464860672	64	5006
2026-01-29 10:40:48.03	337.12	4.77	-53.2	-68.1	3.8	1.49e+00	0	42	104	1465909248	76	21962
2026-01-29 10:40:52.07	337.26	4.50	-53.6	-68.6	3.8	1.49e+00	0	42	104	1465909248	77	21810
2026-01-29 10:40:56.10	337.40	4.22	-53.5	-68.5	3.8	1.49e+00	0	42	104	1465909248	77	21563
2026-01-29 10:41:00.13	337.53	3.95	-53.4	-68.3	3.8	1.49e+00	0	42	104	1465909248	77	21238
2026-01-29 10:41:04.17	337.66	3.69	-53.5	-68.4	3.8	1.49e+00	0	42	104	1465909248	77	21503
2026-01-29 10:41:08.20	337.79	3.42	-53.4	-68.3	3.8	1.49e+00	0	42	104	1465909248	77	21254
2026-01-29 10:41:12.23	337.91	3.16	-53.3	-68.3	3.8	1.49e+00	0	42	104	1465909248	77	21045
2026-01-29 10:41:16.26	338.04	2.90	-53.3	-68.2	3.8	1.49e+00	0	42	104	1465909248	77	20916
2026-01-29 10:41:20.29	338.16	2.64	-53.2	-68.2	3.8	1.49e+00	0	42	104	1465909248	77	20877
2026-01-29 10:41:24.33	338.28	2.38	-53.2	-68.2	3.8	1.49e+00	0	42	104	1465909248	77	20817
2026-01-29 10:41:28.36	338.40	2.13	-53.2	-68.2	3.8	1.49e+00	0	42	104	1465909248	77	20794
2026-01-29 10:41:32.39	338.52	1.88	-53.2	-68.2	3.8	1.49e+00	0	42	104	1465909248	77	20801

#Closed at: 2026-01-29 10:41:33
#Recorded file [1465 MB]: D:/lorett/data/31041_260129_132709.dat