passes_logs/2026/01/29/R3.2S_Murmansk/R3.2S_Murmansk__20260129_223012_NOAA_20_JPSS-1_rec.log

#Pass ID: 20260129_223012_NOAA 20 (JPSS-1)
#Satellite: NOAA 20 (JPSS-1)
#Configuration: NOAA 20
#almurnet v.1.7.20251203
#Start time: 2026-01-29 22:30:12

#Version: 2.2.20231116
#Station: R3.2S_Murmansk
#Location: 33.079688 lon 68.888172 lat
#TLE: 1 43013U 17073A   26029.42702672  .00000137  00000+0  85918-4 0  9993
#TLE: 2 43013  98.7646 330.2153 0000804  19.9045 340.2162 14.19525092424781

#Time	Az	El	Level	Level2	SNR	BER	BlckErr	Temp	State	Recorded	gain1	gain2
2026-01-29 22:30:12.20	19.00	2.01	-54.0	-69.0	3.8	1.49e+00	0	39	0	0	79	20324
2026-01-29 22:30:16.10	19.25	2.23	-54.1	-69.1	3.8	1.49e+00	0	40	104	0	78	21874
2026-01-29 22:30:19.98	19.51	2.45	-54.2	-69.1	3.8	1.49e+00	0	40	104	0	78	22000
2026-01-29 22:30:23.86	19.77	2.67	-54.0	-69.0	3.8	1.49e+00	0	40	104	0	78	21641
2026-01-29 22:30:27.74	20.04	2.89	-54.0	-69.0	3.8	1.49e+00	0	40	104	0	78	21517
2026-01-29 22:30:31.62	20.31	3.11	-53.7	-68.6	3.8	1.49e+00	0	40	104	0	78	20655
2026-01-29 22:30:35.51	20.58	3.33	-52.9	-67.9	3.8	1.49e+00	0	40	104	0	77	20086
2026-01-29 22:30:39.39	20.86	3.56	-52.1	-67.0	3.8	1.49e+00	0	40	104	0	76	19207
2026-01-29 22:30:43.27	21.14	3.79	-52.0	-67.0	3.8	1.49e+00	0	40	104	0	76	19251
2026-01-29 22:30:47.16	21.43	4.02	-52.0	-66.1	3.8	1.49e+00	0	40	104	0	76	17370
2026-01-29 22:30:51.04	21.72	4.25	-51.9	-65.8	3.8	1.49e+00	0	40	104	0	75	17831
2026-01-29 22:30:54.92	22.01	4.48	-50.6	-56.2	9.4	4.43e-02	0	41	0	4194304	73	6625
2026-01-29 22:30:58.81	22.31	4.71	-47.4	-49.8	16.1	0.00e+00	0	41	0	11534336	66	4720
2026-01-29 22:31:02.70	22.61	4.94	-46.9	-49.0	16.9	0.00e+00	0	41	0	18874368	65	4561
2026-01-29 22:31:06.59	22.92	5.18	-47.6	-50.1	16.1	0.00e+00	0	41	0	26214400	65	5166
2026-01-29 22:31:10.49	23.23	5.42	-46.8	-48.9	16.9	0.00e+00	0	41	0	33554432	65	4513
2026-01-29 22:31:14.37	23.55	5.66	-46.2	-48.0	17.9	0.00e+00	0	41	0	40894464	64	4299
2026-01-29 22:31:18.25	23.87	5.90	-46.1	-47.9	18.0	0.00e+00	0	41	0	48234496	64	4251
2026-01-29 22:31:22.14	24.20	6.14	-46.4	-48.3	17.7	0.00e+00	0	41	0	55574528	64	4445
2026-01-29 22:31:26.03	24.53	6.38	-46.1	-47.8	18.3	0.00e+00	0	41	0	62914560	63	4453
2026-01-29 22:31:29.91	24.87	6.63	-45.7	-47.3	18.8	0.00e+00	0	41	0	70254592	63	4227
2026-01-29 22:31:33.80	25.21	6.87	-46.1	-47.8	18.3	0.00e+00	0	41	0	76546048	63	4476
2026-01-29 22:31:37.68	25.56	7.12	-46.1	-47.8	18.4	0.00e+00	0	41	0	83886080	63	4460
2026-01-29 22:31:41.56	25.91	7.37	-46.0	-47.7	18.5	0.00e+00	0	41	0	91226112	63	4415
2026-01-29 22:31:45.45	26.27	7.62	-46.0	-47.7	18.5	0.00e+00	0	41	0	98566144	63	4426
2026-01-29 22:31:49.33	26.64	7.87	-45.9	-47.6	18.6	0.00e+00	0	41	0	105906176	63	4355
2026-01-29 22:31:53.22	27.01	8.13	-45.8	-47.4	18.9	0.00e+00	0	41	0	113246208	63	4247
2026-01-29 22:31:57.11	27.39	8.38	-45.6	-47.1	19.2	0.00e+00	0	41	0	120586240	63	4141
2026-01-29 22:32:00.99	27.77	8.64	-45.4	-46.9	19.4	0.00e+00	0	41	0	127926272	62	4284
2026-01-29 22:32:04.88	28.17	8.90	-45.3	-46.7	19.6	0.00e+00	0	41	0	135266304	62	4183
2026-01-29 22:32:08.77	28.56	9.16	-45.4	-46.8	19.5	0.00e+00	0	41	0	142606336	62	4233
2026-01-29 22:32:12.65	28.97	9.42	-45.4	-46.9	19.5	0.00e+00	0	41	0	149946368	62	4254
2026-01-29 22:32:16.54	29.38	9.68	-45.3	-46.7	19.6	0.00e+00	0	41	0	157286400	62	4192
2026-01-29 22:32:20.42	29.80	9.95	-45.4	-46.9	19.5	0.00e+00	0	41	0	164626432	62	4264
2026-01-29 22:32:24.30	30.22	10.21	-45.4	-46.9	19.5	0.00e+00	0	41	0	171966464	62	4265
2026-01-29 22:32:28.19	30.66	10.48	-45.5	-47.0	19.4	0.00e+00	0	41	0	179306496	62	4325
2026-01-29 22:32:32.07	31.10	10.75	-45.4	-46.9	19.6	0.00e+00	0	41	0	186646528	62	4256
2026-01-29 22:32:35.96	31.55	11.02	-45.3	-46.6	19.8	0.00e+00	0	41	0	193986560	62	4142
2026-01-29 22:32:39.84	32.00	11.30	-45.1	-46.5	20.0	0.00e+00	0	41	0	201326592	62	4080
2026-01-29 22:32:43.71	32.47	11.57	-44.9	-46.3	20.2	0.00e+00	0	41	0	208666624	61	4204
2026-01-29 22:32:47.60	32.94	11.84	-44.9	-46.3	20.2	0.00e+00	0	41	0	214958080	61	4195
2026-01-29 22:32:51.49	33.42	12.12	-45.0	-46.3	20.1	0.00e+00	0	41	0	222298112	61	4237
2026-01-29 22:32:55.37	33.91	12.40	-44.7	-45.9	20.5	0.00e+00	0	41	0	229638144	61	4046
2026-01-29 22:32:59.25	34.41	12.68	-44.7	-46.0	20.5	0.00e+00	0	41	0	236978176	61	4075
2026-01-29 22:33:03.12	34.92	12.96	-44.7	-46.0	20.5	0.00e+00	0	41	0	244318208	61	4085
2026-01-29 22:33:07.01	35.44	13.24	-44.7	-46.0	20.6	0.00e+00	0	41	0	251658240	61	4067
2026-01-29 22:33:10.89	35.96	13.52	-44.7	-46.0	20.6	0.00e+00	0	41	0	258998272	61	4056
2026-01-29 22:33:14.78	36.50	13.81	-44.7	-46.0	20.6	0.00e+00	0	41	0	266338304	61	4060
2026-01-29 22:33:18.66	37.05	14.09	-44.5	-45.7	20.8	0.00e+00	0	41	0	273678336	61	3958
2026-01-29 22:33:22.54	37.61	14.38	-44.5	-45.8	20.8	0.00e+00	0	41	0	281018368	60	4199
2026-01-29 22:33:26.43	38.18	14.66	-44.7	-46.0	20.6	0.00e+00	0	41	0	288358400	60	4310
2026-01-29 22:33:30.31	38.76	14.95	-44.5	-45.7	20.8	0.00e+00	0	41	0	295698432	60	4184
2026-01-29 22:33:34.20	39.35	15.24	-44.1	-45.3	21.3	0.00e+00	0	41	0	303038464	60	3986
2026-01-29 22:33:38.08	39.95	15.53	-44.2	-45.4	21.2	0.00e+00	0	41	0	310378496	60	4009
2026-01-29 22:33:41.96	40.56	15.82	-44.3	-45.5	21.1	0.00e+00	0	41	0	317718528	60	4057
2026-01-29 22:33:45.84	41.18	16.11	-44.3	-45.5	21.1	0.00e+00	0	41	0	325058560	60	4082
2026-01-29 22:33:49.72	41.82	16.40	-44.2	-45.4	21.2	0.00e+00	0	41	0	332398592	60	4017
2026-01-29 22:33:53.61	42.47	16.69	-44.6	-45.8	20.8	0.00e+00	0	41	0	339738624	60	4224
2026-01-29 22:33:57.50	43.13	16.98	-44.6	-45.8	20.9	0.00e+00	0	41	0	346030080	60	4218
2026-01-29 22:34:01.37	43.80	17.27	-44.5	-45.7	20.9	0.00e+00	0	41	0	353370112	60	4174
2026-01-29 22:34:05.26	44.49	17.56	-44.2	-45.4	21.2	0.00e+00	0	41	0	360710144	60	4043
2026-01-29 22:34:09.15	45.18	17.85	-44.1	-45.3	21.3	0.00e+00	0	41	0	368050176	60	3988
2026-01-29 22:34:13.03	45.90	18.14	-44.2	-45.3	21.7	0.00e+00	0	41	0	375390208	59	4222
2026-01-29 22:34:16.91	46.62	18.42	-44.0	-45.1	21.9	0.00e+00	0	41	0	382730240	59	4134
2026-01-29 22:34:20.80	47.36	18.71	-43.9	-45.1	21.9	0.00e+00	0	41	0	390070272	59	4099
2026-01-29 22:34:24.68	48.11	19.00	-43.8	-44.9	22.1	0.00e+00	0	41	0	397410304	59	4048
2026-01-29 22:34:28.56	48.87	19.28	-43.8	-44.9	22.1	0.00e+00	0	41	0	404750336	59	4024
2026-01-29 22:34:32.44	49.65	19.56	-43.8	-44.9	22.1	0.00e+00	0	41	0	412090368	59	4017
2026-01-29 22:34:36.33	50.45	19.84	-43.7	-44.7	22.2	0.00e+00	0	41	0	419430400	59	3952
2026-01-29 22:34:40.20	51.25	20.12	-43.9	-45.0	22.1	0.00e+00	0	41	0	426770432	59	4052
2026-01-29 22:34:44.08	52.07	20.39	-44.1	-45.2	21.8	0.00e+00	0	42	0	434110464	59	4168
2026-01-29 22:34:47.97	52.91	20.66	-43.7	-44.8	22.3	0.00e+00	0	41	0	441450496	59	3964
2026-01-29 22:34:51.86	53.76	20.93	-44.2	-45.3	21.8	0.00e+00	0	41	0	448790528	59	4223
2026-01-29 22:34:55.75	54.63	21.20	-44.6	-45.8	21.3	0.00e+00	0	42	0	456130560	59	4468
2026-01-29 22:34:59.63	55.51	21.46	-44.4	-45.6	21.5	0.00e+00	0	41	0	463470592	59	4373
2026-01-29 22:35:03.51	56.40	21.72	-44.5	-45.7	21.1	0.00e+00	0	41	0	470810624	60	4166
2026-01-29 22:35:07.39	57.31	21.97	-44.8	-46.0	20.8	0.00e+00	0	41	0	477102080	60	4324
2026-01-29 22:35:11.28	58.24	22.22	-44.1	-45.2	21.6	0.00e+00	0	41	0	484442112	60	3947
2026-01-29 22:35:15.17	59.17	22.46	-44.3	-45.4	21.4	0.00e+00	0	41	0	491782144	60	4042
2026-01-29 22:35:19.04	60.12	22.70	-44.3	-45.4	21.4	0.00e+00	0	41	0	499122176	60	4044
2026-01-29 22:35:22.92	61.09	22.93	-44.6	-45.8	21.0	0.00e+00	0	41	0	506462208	60	4232
2026-01-29 22:35:26.82	62.07	23.15	-45.0	-46.3	20.6	0.00e+00	0	41	0	513802240	60	4459
2026-01-29 22:35:30.71	63.07	23.37	-44.8	-46.0	20.9	0.00e+00	0	42	0	521142272	60	4331
2026-01-29 22:35:34.59	64.07	23.58	-45.7	-47.1	19.8	0.00e+00	0	41	0	528482304	61	4630
2026-01-29 22:35:38.47	65.09	23.78	-45.5	-46.9	20.0	0.00e+00	0	41	0	535822336	62	4263
2026-01-29 22:35:42.37	66.13	23.98	-44.6	-45.8	21.0	0.00e+00	0	41	0	543162368	61	4004
2026-01-29 22:35:46.25	67.18	24.17	-45.9	-47.4	19.6	0.00e+00	0	41	0	550502400	62	4524
2026-01-29 22:35:50.13	68.23	24.35	-46.0	-47.4	19.6	0.00e+00	0	41	0	557842432	63	4271
2026-01-29 22:35:54.02	69.31	24.52	-45.8	-47.2	19.7	0.00e+00	0	41	0	565182464	63	4192
2026-01-29 22:35:57.91	70.39	24.68	-46.4	-48.0	19.0	0.00e+00	0	41	0	572522496	63	4577
2026-01-29 22:36:01.80	71.48	24.83	-46.1	-47.6	19.4	0.00e+00	0	41	0	579862528	63	4372
2026-01-29 22:36:05.68	72.58	24.97	-45.7	-47.1	19.8	0.00e+00	0	41	0	587202560	63	4131
2026-01-29 22:36:09.57	73.69	25.10	-45.9	-47.3	19.6	0.00e+00	0	42	0	594542592	63	4206
2026-01-29 22:36:13.46	74.82	25.22	-44.9	-46.2	20.7	0.00e+00	0	42	0	601882624	61	4154
2026-01-29 22:36:17.35	75.95	25.33	-44.6	-45.9	21.0	0.00e+00	0	41	0	609222656	61	4006
2026-01-29 22:36:21.22	77.08	25.43	-44.6	-45.9	21.0	0.00e+00	0	42	0	615514112	61	4010
2026-01-29 22:36:25.11	78.22	25.51	-44.6	-45.8	21.1	0.00e+00	0	42	0	622854144	61	3990
2026-01-29 22:36:28.99	79.37	25.59	-45.7	-47.1	19.9	0.00e+00	0	42	0	630194176	61	4615
2026-01-29 22:36:32.87	80.52	25.65	-45.9	-47.3	19.7	0.00e+00	0	42	0	637534208	62	4482
2026-01-29 22:36:36.75	81.67	25.70	-44.9	-46.1	20.8	0.00e+00	0	41	0	644874240	61	4130
2026-01-29 22:36:40.64	82.83	25.74	-44.9	-46.1	20.8	0.00e+00	0	41	0	652214272	61	4144
2026-01-29 22:36:44.53	84.00	25.77	-44.9	-46.1	20.8	0.00e+00	0	41	0	659554304	61	4125
2026-01-29 22:36:48.41	85.16	25.78	-44.3	-45.4	21.7	0.00e+00	0	41	0	666894336	59	4283
2026-01-29 22:36:52.29	86.32	25.78	-44.6	-45.8	21.4	0.00e+00	0	42	0	674234368	59	4476
2026-01-29 22:36:56.18	87.49	25.77	-45.0	-46.3	20.6	0.00e+00	0	41	0	681574400	60	4484
2026-01-29 22:37:00.06	88.65	25.75	-44.1	-45.3	21.6	0.00e+00	0	41	0	688914432	60	3965
2026-01-29 22:37:03.94	89.81	25.71	-45.2	-46.4	20.5	0.00e+00	0	41	0	696254464	60	4542
2026-01-29 22:37:07.82	90.97	25.67	-45.5	-46.8	20.2	0.00e+00	0	41	0	703594496	61	4481
2026-01-29 22:37:11.71	92.13	25.61	-45.3	-46.6	20.3	0.00e+00	0	41	0	710934528	61	4388
2026-01-29 22:37:15.60	93.28	25.54	-44.9	-46.2	20.7	0.00e+00	0	42	0	718274560	61	4165
2026-01-29 22:37:19.49	94.43	25.45	-44.9	-46.2	20.8	0.00e+00	0	41	0	725614592	61	4149
2026-01-29 22:37:23.37	95.56	25.36	-44.3	-45.4	21.4	0.00e+00	0	42	0	732954624	60	4046
2026-01-29 22:37:27.25	96.69	25.25	-45.1	-46.4	20.5	0.00e+00	0	41	0	740294656	60	4536
2026-01-29 22:37:31.14	97.82	25.14	-44.5	-45.7	21.2	0.00e+00	0	42	0	746586112	60	4177
2026-01-29 22:37:35.03	98.94	25.01	-44.4	-45.6	21.3	0.00e+00	0	41	0	753926144	60	4110
2026-01-29 22:37:38.93	100.05	24.87	-44.0	-45.1	21.7	0.00e+00	0	42	0	761266176	60	3903
2026-01-29 22:37:42.81	101.14	24.72	-43.8	-44.9	22.3	0.00e+00	0	41	0	768606208	59	4008
2026-01-29 22:37:46.69	102.23	24.57	-43.9	-45.0	22.2	0.00e+00	0	41	0	775946240	59	4094
2026-01-29 22:37:50.58	103.31	24.40	-43.9	-45.0	22.2	0.00e+00	0	42	0	783286272	59	4067
2026-01-29 22:37:54.47	104.37	24.22	-43.9	-45.0	22.2	0.00e+00	0	42	0	790626304	59	4056
2026-01-29 22:37:58.35	105.42	24.04	-43.2	-44.2	22.9	0.00e+00	0	41	0	797966336	58	3943
2026-01-29 22:38:02.24	106.46	23.84	-44.0	-45.1	22.1	0.00e+00	0	42	0	805306368	58	4362
2026-01-29 22:38:06.13	107.49	23.64	-43.3	-44.3	22.8	0.00e+00	0	42	0	812646400	58	3982
2026-01-29 22:38:10.01	108.51	23.43	-43.3	-44.3	22.7	0.00e+00	0	41	0	819986432	58	3980
2026-01-29 22:38:13.90	109.51	23.21	-44.0	-45.1	22.1	0.00e+00	0	42	0	827326464	58	4349
2026-01-29 22:38:17.78	110.49	22.99	-44.5	-45.7	21.1	0.00e+00	0	42	0	834666496	60	4176
2026-01-29 22:38:21.68	111.47	22.76	-44.3	-45.5	21.4	0.00e+00	0	41	0	842006528	60	4074
2026-01-29 22:38:25.56	112.43	22.52	-44.3	-45.5	21.3	0.00e+00	0	41	0	849346560	60	4076
2026-01-29 22:38:29.45	113.38	22.28	-44.2	-45.4	21.4	0.00e+00	0	42	0	856686592	60	4020
2026-01-29 22:38:33.34	114.31	22.03	-44.4	-45.6	21.3	0.00e+00	0	42	0	864026624	60	4129
2026-01-29 22:38:37.22	115.22	21.78	-44.5	-45.7	21.1	0.00e+00	0	41	0	871366656	60	4178
2026-01-29 22:38:41.11	116.13	21.52	-44.2	-45.4	21.4	0.00e+00	0	42	0	878706688	60	4021
2026-01-29 22:38:44.98	117.01	21.26	-44.5	-45.7	21.4	0.00e+00	0	42	0	884998144	59	4432
2026-01-29 22:38:48.86	117.88	21.00	-44.3	-45.5	21.4	0.00e+00	0	41	0	892338176	60	4056
2026-01-29 22:38:52.75	118.74	20.73	-44.5	-45.6	21.5	0.00e+00	0	41	0	899678208	59	4384
2026-01-29 22:38:56.64	119.59	20.45	-44.3	-45.5	21.3	0.00e+00	0	42	0	907018240	60	4061
2026-01-29 22:39:00.54	120.42	20.18	-44.8	-46.0	20.7	0.00e+00	0	41	0	914358272	60	4337
2026-01-29 22:39:04.42	121.23	19.90	-45.7	-47.2	19.6	0.00e+00	0	41	0	921698304	62	4407
2026-01-29 22:39:08.30	122.03	19.62	-44.7	-45.9	20.9	0.00e+00	0	42	0	929038336	61	4023
2026-01-29 22:39:12.19	122.82	19.34	-45.6	-47.0	19.8	0.00e+00	0	41	0	936378368	61	4563
2026-01-29 22:39:16.08	123.59	19.05	-44.7	-45.9	20.8	0.00e+00	0	42	0	943718400	61	4043
2026-01-29 22:39:19.97	124.35	18.76	-45.0	-46.3	20.4	0.00e+00	0	41	0	951058432	60	4481
2026-01-29 22:39:23.86	125.10	18.48	-44.9	-46.2	20.4	0.00e+00	0	42	0	958398464	61	4187
2026-01-29 22:39:27.77	125.83	18.18	-45.2	-46.6	20.1	0.00e+00	0	42	0	965738496	61	4341
2026-01-29 22:39:31.67	126.55	17.89	-45.3	-46.6	20.0	0.00e+00	0	42	0	973078528	62	4143
2026-01-29 22:39:35.55	127.25	17.60	-44.0	-45.2	21.4	0.00e+00	0	42	0	980418560	60	3935
2026-01-29 22:39:39.45	127.95	17.31	-45.6	-47.1	19.6	0.00e+00	0	41	0	987758592	61	4603
2026-01-29 22:39:43.35	128.63	17.02	-45.5	-46.9	19.6	0.00e+00	0	41	0	995098624	62	4284
2026-01-29 22:39:47.24	129.30	16.72	-44.7	-46.0	20.5	0.00e+00	0	41	0	1002438656	61	4081
2026-01-29 22:39:51.15	129.95	16.43	-45.1	-46.5	20.0	0.00e+00	0	41	0	1009778688	61	4322
2026-01-29 22:39:55.05	130.60	16.14	-44.6	-45.8	20.6	0.00e+00	0	41	0	1017118720	61	3994
2026-01-29 22:39:58.96	131.23	15.84	-44.8	-46.1	20.4	0.00e+00	0	41	0	1024458752	61	4119
2026-01-29 22:40:02.87	131.85	15.55	-45.0	-46.3	20.1	0.00e+00	0	42	0	1031798784	61	4229
2026-01-29 22:40:06.80	132.46	15.25	-44.6	-45.9	20.5	0.00e+00	0	41	0	1039138816	61	4028
2026-01-29 22:40:10.73	133.06	14.96	-44.7	-46.0	20.4	0.00e+00	0	42	0	1046478848	61	4087
2026-01-29 22:40:14.67	133.65	14.67	-44.7	-46.1	20.4	0.00e+00	0	42	0	1053818880	61	4099
2026-01-29 22:40:18.63	134.24	14.37	-44.3	-45.6	20.8	0.00e+00	0	41	0	1061158912	60	4106
2026-01-29 22:40:22.60	134.81	14.08	-44.3	-45.6	20.7	0.00e+00	0	41	0	1068498944	60	4104
2026-01-29 22:40:26.56	135.37	13.78	-44.6	-45.9	20.4	0.00e+00	0	41	0	1075838976	60	4282
2026-01-29 22:40:30.49	135.92	13.50	-45.0	-46.4	19.9	0.00e+00	0	41	0	1083179008	60	4535
2026-01-29 22:40:34.43	136.45	13.21	-44.9	-46.3	20.0	0.00e+00	0	42	0	1090519040	60	4455
2026-01-29 22:40:38.38	136.98	12.92	-45.0	-46.4	19.9	0.00e+00	0	42	0	1097859072	60	4531
2026-01-29 22:40:42.34	137.50	12.63	-44.9	-46.3	19.9	0.00e+00	0	41	0	1105199104	60	4488
2026-01-29 22:40:46.34	138.02	12.34	-44.8	-46.2	20.0	0.00e+00	0	41	0	1113587712	60	4413
2026-01-29 22:40:50.36	138.53	12.05	-45.1	-46.5	19.7	0.00e+00	0	42	0	1120927744	60	4573
2026-01-29 22:40:54.39	139.03	11.76	-45.8	-47.4	18.8	0.00e+00	0	42	0	1128267776	62	4538
2026-01-29 22:40:58.42	139.52	11.47	-46.3	-48.0	18.3	0.00e+00	0	41	0	1135607808	63	4567
2026-01-29 22:41:02.43	140.00	11.19	-46.3	-48.1	18.2	0.00e+00	0	42	0	1142947840	63	4630
2026-01-29 22:41:06.45	140.47	10.91	-46.2	-47.9	18.3	0.00e+00	0	42	0	1150287872	63	4511
2026-01-29 22:41:10.48	140.93	10.62	-46.3	-48.1	18.1	0.00e+00	0	42	0	1158676480	63	4622
2026-01-29 22:41:14.50	141.39	10.34	-46.3	-48.1	18.1	0.00e+00	0	41	0	1166016512	63	4628
2026-01-29 22:41:18.53	141.84	10.06	-46.0	-47.7	18.4	0.00e+00	0	42	0	1173356544	63	4424
2026-01-29 22:41:22.55	142.27	9.79	-45.7	-47.3	18.9	0.00e+00	0	41	0	1180696576	63	4210
2026-01-29 22:41:26.56	142.70	9.51	-46.0	-47.6	18.5	0.00e+00	0	42	0	1188036608	63	4389
2026-01-29 22:41:30.59	143.13	9.24	-46.3	-48.1	18.0	0.00e+00	0	42	0	1196425216	63	4643
2026-01-29 22:41:34.62	143.54	8.96	-45.9	-47.5	18.4	0.00e+00	0	42	0	1203765248	63	4334
2026-01-29 22:41:38.65	143.95	8.69	-45.5	-47.1	19.0	0.00e+00	0	41	0	1211105280	62	4358
2026-01-29 22:41:42.68	144.35	8.42	-45.3	-46.8	19.2	0.00e+00	0	42	0	1218445312	62	4225
2026-01-29 22:41:46.71	144.75	8.16	-45.4	-47.0	19.0	0.00e+00	0	42	0	1226833920	62	4326
2026-01-29 22:41:50.74	145.14	7.89	-45.9	-47.6	18.4	0.00e+00	0	41	0	1234173952	62	4599
2026-01-29 22:41:54.77	145.52	7.63	-46.0	-47.8	18.1	0.00e+00	0	42	0	1241513984	62	4721
2026-01-29 22:41:58.78	145.89	7.36	-46.0	-47.7	18.2	0.00e+00	0	42	0	1248854016	62	4698
2026-01-29 22:42:02.81	146.26	7.10	-45.8	-47.5	18.3	0.00e+00	0	42	0	1256194048	62	4557
2026-01-29 22:42:06.84	146.62	6.84	-45.9	-47.7	18.2	0.00e+00	0	42	0	1263534080	62	4672
2026-01-29 22:42:10.87	146.98	6.59	-46.0	-47.8	18.0	0.00e+00	0	42	0	1271922688	62	4707
2026-01-29 22:42:14.90	147.33	6.33	-46.1	-47.9	17.8	0.00e+00	0	42	0	1279262720	62	4799
2026-01-29 22:42:18.93	147.67	6.08	-46.1	-48.0	17.7	0.00e+00	0	41	0	1286602752	62	4835
2026-01-29 22:42:22.95	148.01	5.82	-45.8	-47.6	18.0	0.00e+00	0	42	0	1293942784	63	4387
2026-01-29 22:42:26.98	148.34	5.57	-45.7	-47.5	18.1	0.00e+00	0	41	0	1301282816	63	4308
2026-01-29 22:42:30.99	148.67	5.33	-45.8	-47.6	18.0	0.00e+00	0	41	0	1309671424	63	4348
2026-01-29 22:42:35.01	148.99	5.08	-45.8	-47.6	17.9	0.00e+00	0	41	0	1317011456	63	4360
2026-01-29 22:42:39.04	149.31	4.83	-52.6	-67.6	3.8	1.49e+00	0	41	104	1320157184	75	21813
2026-01-29 22:42:43.08	149.62	4.59	-53.4	-68.4	3.8	1.49e+00	0	42	104	1320157184	77	21262
2026-01-29 22:42:47.10	149.93	4.35	-53.8	-68.7	3.8	1.49e+00	0	42	104	1320157184	78	20977
2026-01-29 22:42:51.13	150.23	4.10	-54.0	-69.0	3.8	1.49e+00	0	42	104	1320157184	78	21679
2026-01-29 22:42:55.15	150.53	3.86	-54.3	-69.3	3.8	1.49e+00	0	41	104	1320157184	79	21066
2026-01-29 22:42:59.19	150.82	3.63	-54.4	-69.4	3.8	1.49e+00	0	42	104	1320157184	79	21347
2026-01-29 22:43:03.22	151.11	3.39	-54.5	-69.5	3.8	1.49e+00	0	42	104	1320157184	79	21556
2026-01-29 22:43:07.24	151.40	3.15	-54.5	-69.5	3.8	1.49e+00	0	42	104	1320157184	79	21684
2026-01-29 22:43:11.27	151.68	2.92	-54.4	-69.4	3.8	1.49e+00	0	42	104	1320157184	79	21339
2026-01-29 22:43:15.29	151.95	2.69	-54.2	-69.2	3.8	1.49e+00	0	42	104	1320157184	79	20799
2026-01-29 22:43:19.32	152.23	2.46	-53.9	-68.9	3.8	1.49e+00	0	42	104	1320157184	79	20073
2026-01-29 22:43:23.35	152.49	2.23	-53.3	-68.2	3.8	1.49e+00	0	42	104	1320157184	78	19797
2026-01-29 22:43:27.37	152.76	2.00	-53.2	-68.1	3.8	1.49e+00	0	42	104	1320157184	78	19522

#Closed at: 2026-01-29 22:43:29
#Recorded file [1320 MB]: D:/lorett/data/31041_260130_013012.dat