passes_logs/2026/01/29/R3.2S_Murmansk/R3.2S_Murmansk__20260129_032921_SUOMI_NPP_rec.log

#Pass ID: 20260129_032921_SUOMI NPP
#Satellite: SUOMI NPP
#Configuration: NPP
#almurnet v.1.7.20251203
#Start time: 2026-01-29 03:29:22

#Version: 2.2.20231116
#Station: R3.2S_Murmansk
#Location: 33.079688 lon 68.888172 lat
#TLE: 1 37849U 11061A   26027.93236865  .00000148  00000+0  91411-4 0  9991
#TLE: 2 37849  98.7823 329.8704 0002085  41.3231 318.8102 14.19530777738546

#Time	Az	El	Level	Level2	SNR	BER	BlckErr	Temp	State	Recorded	gain1	gain2
2026-01-29 03:29:22.48	41.17	2.05	-54.0	-69.0	3.8	1.49e+00	0	40	0	0	79	20367
2026-01-29 03:29:26.52	40.96	2.29	-54.2	-69.2	3.8	1.49e+00	0	40	104	0	79	20870
2026-01-29 03:29:30.55	40.74	2.53	-54.0	-69.0	3.8	1.49e+00	0	40	104	0	79	20452
2026-01-29 03:29:34.59	40.52	2.77	-54.0	-69.0	3.8	1.49e+00	0	40	104	0	79	20400
2026-01-29 03:29:38.63	40.29	3.02	-53.6	-68.5	3.8	1.49e+00	0	40	104	0	79	19370
2026-01-29 03:29:42.66	40.06	3.26	-52.8	-67.7	3.8	1.49e+00	0	40	104	0	77	19762
2026-01-29 03:29:46.69	39.83	3.51	-51.9	-66.8	3.8	1.49e+00	0	41	104	0	75	20022
2026-01-29 03:29:50.73	39.59	3.76	-51.8	-66.7	3.8	1.49e+00	0	41	104	0	75	19763
2026-01-29 03:29:54.75	39.35	4.01	-51.8	-66.7	3.8	1.49e+00	0	41	104	0	75	19660
2026-01-29 03:29:58.79	39.11	4.26	-51.7	-63.9	4.0	1.49e+00	0	41	104	0	75	14363
2026-01-29 03:30:02.82	38.85	4.52	-51.5	-61.7	4.7	9.43e-01	0	41	0	4194304	75	11070
2026-01-29 03:30:06.85	38.60	4.77	-51.7	-64.1	3.9	1.44e+00	0	41	104	9437184	74	15479
2026-01-29 03:30:10.88	38.34	5.03	-51.6	-63.6	4.1	1.47e+00	0	41	0	9437184	74	14631
2026-01-29 03:30:14.92	38.07	5.29	-51.5	-60.7	4.4	1.47e+00	13	41	104	12582912	74	10433
2026-01-29 03:30:18.95	37.80	5.55	-48.2	-51.1	14.6	6.10e-06	0	41	0	18874368	68	4923
2026-01-29 03:30:22.97	37.53	5.82	-47.4	-49.8	15.9	0.00e+00	0	41	0	26214400	66	4756
2026-01-29 03:30:27.00	37.25	6.08	-47.4	-49.8	16.0	0.00e+00	0	41	0	33554432	65	5012
2026-01-29 03:30:31.03	36.96	6.35	-47.2	-49.6	16.3	0.00e+00	0	41	0	41943040	65	4872
2026-01-29 03:30:35.05	36.67	6.62	-47.2	-49.5	16.3	0.00e+00	0	41	0	49283072	65	4855
2026-01-29 03:30:39.09	36.37	6.90	-47.1	-49.4	16.5	0.00e+00	0	41	0	56623104	65	4788
2026-01-29 03:30:43.12	36.07	7.17	-47.3	-49.7	16.2	0.00e+00	0	41	0	63963136	65	4961
2026-01-29 03:30:47.15	35.76	7.45	-47.6	-50.1	15.9	0.00e+00	0	41	0	71303168	65	5176
2026-01-29 03:30:51.17	35.44	7.73	-47.4	-49.8	16.2	0.00e+00	0	41	0	79691776	66	4758
2026-01-29 03:30:55.19	35.12	8.01	-47.2	-49.4	16.6	0.00e+00	0	42	0	87031808	66	4523
2026-01-29 03:30:59.23	34.79	8.29	-47.5	-49.9	16.2	0.00e+00	0	42	0	94371840	66	4789
2026-01-29 03:31:03.25	34.46	8.58	-47.1	-49.3	16.8	0.00e+00	0	41	0	101711872	66	4457
2026-01-29 03:31:07.28	34.12	8.86	-47.0	-49.1	17.0	0.00e+00	0	41	0	109051904	65	4627
2026-01-29 03:31:11.30	33.77	9.15	-46.8	-48.8	17.3	0.00e+00	0	41	0	117440512	65	4474
2026-01-29 03:31:15.33	33.41	9.45	-46.6	-48.5	17.6	0.00e+00	0	41	0	124780544	64	4589
2026-01-29 03:31:19.37	33.04	9.74	-46.5	-48.4	17.7	0.00e+00	0	41	0	132120576	64	4511
2026-01-29 03:31:23.40	32.67	10.04	-46.8	-48.8	17.4	0.00e+00	0	41	0	139460608	64	4722
2026-01-29 03:31:27.42	32.29	10.34	-46.6	-48.5	17.7	0.00e+00	0	42	0	147849216	64	4577
2026-01-29 03:31:31.45	31.90	10.64	-46.6	-48.5	17.8	0.00e+00	0	42	0	155189248	64	4562
2026-01-29 03:31:35.48	31.51	10.94	-46.5	-48.4	17.8	0.00e+00	0	41	0	162529280	64	4515
2026-01-29 03:31:39.50	31.10	11.25	-46.4	-48.3	18.0	0.00e+00	0	42	0	169869312	64	4447
2026-01-29 03:31:43.53	30.69	11.56	-46.3	-48.0	18.2	0.00e+00	0	42	0	177209344	64	4325
2026-01-29 03:31:47.55	30.27	11.87	-46.5	-48.3	18.0	0.00e+00	0	42	0	184549376	64	4482
2026-01-29 03:31:51.59	29.83	12.18	-46.9	-48.9	17.4	0.00e+00	0	42	0	192937984	64	4784
2026-01-29 03:31:55.62	29.39	12.50	-46.7	-48.6	17.6	0.00e+00	0	42	0	200278016	64	4651
2026-01-29 03:31:59.64	28.94	12.82	-47.0	-49.0	17.3	0.00e+00	0	42	0	207618048	64	4864
2026-01-29 03:32:03.68	28.47	13.14	-46.8	-48.8	17.5	0.00e+00	0	42	0	214958080	64	4746
2026-01-29 03:32:07.71	28.00	13.46	-46.5	-48.3	18.0	0.00e+00	0	42	0	223346688	64	4493
2026-01-29 03:32:11.74	27.52	13.79	-46.3	-48.0	18.3	0.00e+00	0	42	0	230686720	64	4340
2026-01-29 03:32:15.75	27.02	14.11	-46.1	-47.8	18.7	0.00e+00	0	42	0	238026752	63	4449
2026-01-29 03:32:19.77	26.52	14.44	-46.0	-47.7	18.8	0.00e+00	0	42	0	245366784	63	4399
2026-01-29 03:32:23.80	26.00	14.78	-46.5	-48.2	18.3	0.00e+00	0	42	0	252706816	63	4681
2026-01-29 03:32:27.83	25.47	15.11	-46.5	-48.4	18.1	0.00e+00	0	42	0	261095424	64	4496
2026-01-29 03:32:31.85	24.93	15.45	-46.5	-48.4	18.1	0.00e+00	0	42	0	268435456	64	4496
2026-01-29 03:32:35.88	24.37	15.78	-46.4	-48.2	18.3	0.00e+00	0	42	0	275775488	64	4402
2026-01-29 03:32:39.91	23.81	16.12	-46.5	-48.2	18.2	0.00e+00	0	42	0	283115520	64	4433
2026-01-29 03:32:43.94	23.23	16.47	-46.3	-48.0	18.5	0.00e+00	0	42	0	290455552	63	4571
2026-01-29 03:32:47.96	22.63	16.81	-45.9	-47.4	19.1	0.00e+00	0	42	0	297795584	63	4284
2026-01-29 03:32:52.00	22.02	17.16	-45.4	-46.9	19.6	0.00e+00	0	42	0	306184192	62	4269
2026-01-29 03:32:56.03	21.40	17.50	-45.5	-47.0	19.5	0.00e+00	0	42	0	313524224	62	4309
2026-01-29 03:33:00.06	20.76	17.85	-45.7	-47.2	19.4	0.00e+00	0	42	0	320864256	62	4407
2026-01-29 03:33:04.08	20.11	18.20	-45.9	-47.5	19.1	0.00e+00	0	42	0	328204288	62	4576
2026-01-29 03:33:08.11	19.44	18.55	-46.2	-47.8	18.7	0.00e+00	0	42	0	336592896	63	4486
2026-01-29 03:33:12.15	18.75	18.90	-46.1	-47.7	19.0	0.00e+00	0	42	0	343932928	63	4412
2026-01-29 03:33:16.18	18.05	19.25	-45.3	-46.7	19.8	0.00e+00	0	42	0	351272960	62	4173
2026-01-29 03:33:20.21	17.33	19.60	-45.4	-46.8	19.7	0.00e+00	0	42	0	358612992	62	4237
2026-01-29 03:33:24.25	16.59	19.96	-46.0	-47.6	19.1	0.00e+00	0	42	0	365953024	62	4617
2026-01-29 03:33:28.28	15.84	20.31	-46.4	-48.1	18.7	0.00e+00	0	42	0	374341632	63	4606
2026-01-29 03:33:32.31	15.07	20.66	-46.3	-48.0	18.7	0.00e+00	0	42	0	381681664	63	4555
2026-01-29 03:33:36.33	14.29	21.01	-45.8	-47.3	19.3	0.00e+00	0	42	0	389021696	63	4217
2026-01-29 03:33:40.36	13.48	21.36	-46.5	-48.2	18.6	0.00e+00	0	42	0	396361728	63	4681
2026-01-29 03:33:44.39	12.65	21.71	-45.9	-47.5	19.3	0.00e+00	0	42	0	403701760	63	4314
2026-01-29 03:33:48.39	11.82	22.05	-45.4	-46.9	19.8	0.00e+00	0	42	0	412090368	62	4255
2026-01-29 03:33:52.42	10.95	22.39	-46.3	-48.0	18.8	0.00e+00	0	42	0	419430400	63	4577
2026-01-29 03:33:56.44	10.07	22.73	-45.8	-47.2	19.5	0.00e+00	0	42	0	426770432	63	4192
2026-01-29 03:34:00.46	9.17	23.07	-45.1	-46.5	20.2	0.00e+00	0	42	0	434110464	62	4059
2026-01-29 03:34:04.50	8.25	23.41	-44.1	-45.3	21.3	0.00e+00	0	42	0	441450496	60	3965
2026-01-29 03:34:08.52	7.31	23.74	-45.1	-46.5	20.2	0.00e+00	0	42	0	449839104	60	4551
2026-01-29 03:34:12.56	6.35	24.06	-44.8	-46.2	20.5	0.00e+00	0	42	0	457179136	61	4160
2026-01-29 03:34:16.58	5.37	24.39	-44.7	-46.0	20.6	0.00e+00	0	42	0	464519168	61	4095
2026-01-29 03:34:20.61	4.36	24.70	-44.7	-46.0	20.7	0.00e+00	0	42	0	471859200	60	4302
2026-01-29 03:34:24.64	3.34	25.01	-44.8	-46.1	20.5	0.00e+00	0	42	0	479199232	60	4371
2026-01-29 03:34:28.67	2.30	25.31	-44.6	-45.8	20.8	0.00e+00	0	42	0	487587840	60	4240
2026-01-29 03:34:32.70	1.23	25.61	-44.2	-45.3	21.3	0.00e+00	0	42	0	494927872	60	4001
2026-01-29 03:34:36.72	0.15	25.90	-45.2	-46.6	20.2	0.00e+00	0	42	0	502267904	61	4344
2026-01-29 03:34:40.76	359.04	26.18	-45.7	-47.1	19.7	0.00e+00	0	42	0	509607936	61	4634
2026-01-29 03:34:44.79	357.92	26.45	-45.0	-46.3	20.5	0.00e+00	0	42	0	516947968	61	4212
2026-01-29 03:34:48.82	356.78	26.71	-45.7	-47.1	19.7	0.00e+00	0	42	0	525336576	62	4378
2026-01-29 03:34:52.85	355.62	26.96	-45.3	-46.7	20.1	0.00e+00	0	42	0	532676608	62	4192
2026-01-29 03:34:56.88	354.44	27.20	-45.1	-46.4	20.4	0.00e+00	0	42	0	540016640	61	4278
2026-01-29 03:35:00.91	353.24	27.43	-45.5	-46.9	20.0	0.00e+00	0	42	0	547356672	61	4524
2026-01-29 03:35:04.93	352.03	27.64	-44.8	-46.0	20.7	0.00e+00	0	42	0	554696704	61	4086
2026-01-29 03:35:08.97	350.80	27.85	-44.8	-46.1	20.7	0.00e+00	0	42	0	563085312	61	4126
2026-01-29 03:35:13.00	349.55	28.03	-46.0	-47.5	19.4	0.00e+00	0	42	0	570425344	62	4591
2026-01-29 03:35:17.02	348.30	28.21	-45.1	-46.4	20.5	0.00e+00	0	42	0	577765376	62	4025
2026-01-29 03:35:21.05	347.03	28.37	-45.7	-47.2	19.8	0.00e+00	0	42	0	585105408	63	4151
2026-01-29 03:35:25.07	345.74	28.51	-46.2	-47.8	19.2	0.00e+00	0	42	0	592445440	63	4462
2026-01-29 03:35:29.11	344.44	28.64	-47.1	-48.9	18.0	0.00e+00	0	42	0	600834048	65	4515
2026-01-29 03:35:33.14	343.14	28.76	-47.0	-48.8	18.1	0.00e+00	0	42	0	608174080	64	4751
2026-01-29 03:35:37.17	341.82	28.86	-45.9	-47.4	19.5	0.00e+00	0	42	0	615514112	63	4273
2026-01-29 03:35:41.19	340.51	28.94	-47.0	-48.9	18.1	0.00e+00	0	42	0	622854144	64	4762
2026-01-29 03:35:45.22	339.18	29.00	-46.5	-48.2	18.7	0.00e+00	0	42	0	630194176	64	4436
2026-01-29 03:35:49.25	337.84	29.05	-47.3	-49.3	17.6	0.00e+00	0	42	0	638582784	65	4730
2026-01-29 03:35:53.28	336.51	29.08	-46.6	-48.4	18.5	0.00e+00	0	42	0	645922816	65	4259
2026-01-29 03:35:57.30	335.17	29.09	-45.7	-47.1	19.9	0.00e+00	0	42	0	653262848	63	4133
2026-01-29 03:36:01.33	333.84	29.08	-46.3	-47.9	19.1	0.00e+00	0	42	0	660602880	63	4522
2026-01-29 03:36:05.36	332.50	29.06	-47.1	-48.9	18.2	0.00e+00	0	42	0	667942912	65	4514
2026-01-29 03:36:09.40	331.16	29.02	-45.9	-47.3	19.8	0.00e+00	0	42	0	676331520	63	4242
2026-01-29 03:36:13.43	329.83	28.96	-46.7	-48.4	18.6	0.00e+00	0	42	0	683671552	64	4530
2026-01-29 03:36:17.45	328.51	28.89	-45.7	-47.1	19.9	0.00e+00	0	42	0	691011584	63	4115
2026-01-29 03:36:21.48	327.19	28.79	-46.2	-47.7	19.4	0.00e+00	0	42	0	698351616	63	4417
2026-01-29 03:36:25.51	325.88	28.69	-45.4	-46.8	20.3	0.00e+00	0	42	0	706740224	62	4198
2026-01-29 03:36:29.54	324.58	28.56	-45.0	-46.3	20.7	0.00e+00	0	42	0	714080256	61	4203
2026-01-29 03:36:33.57	323.29	28.42	-45.6	-47.0	20.0	0.00e+00	0	42	0	721420288	61	4552
2026-01-29 03:36:37.60	322.01	28.27	-45.8	-47.3	19.6	0.00e+00	0	42	0	728760320	62	4465
2026-01-29 03:36:41.63	320.75	28.10	-46.7	-48.4	18.7	0.00e+00	0	42	0	736100352	64	4531
2026-01-29 03:36:45.66	319.50	27.91	-45.5	-46.8	20.2	0.00e+00	0	42	0	743440384	63	3965
2026-01-29 03:36:49.70	318.26	27.71	-45.6	-46.9	20.1	0.00e+00	0	42	0	751828992	61	4537
2026-01-29 03:36:53.73	317.04	27.50	-45.4	-46.7	20.4	0.00e+00	0	42	0	759169024	62	4148
2026-01-29 03:36:57.76	315.84	27.28	-46.2	-47.7	19.5	0.00e+00	0	42	0	766509056	63	4407
2026-01-29 03:37:01.79	314.65	27.04	-46.4	-48.0	19.1	0.00e+00	0	42	0	773849088	63	4571
2026-01-29 03:37:05.82	313.48	26.80	-48.0	-50.2	17.0	0.00e+00	0	42	0	782237696	66	4946
2026-01-29 03:37:09.86	312.33	26.54	-48.1	-50.3	16.9	0.00e+00	0	42	0	789577728	67	4734
2026-01-29 03:37:13.89	311.20	26.27	-46.8	-48.6	18.4	0.00e+00	0	42	0	796917760	65	4371
2026-01-29 03:37:17.92	310.09	25.99	-45.8	-47.3	19.7	0.00e+00	0	42	0	804257792	63	4209
2026-01-29 03:37:21.95	309.00	25.71	-45.1	-46.5	20.5	0.00e+00	0	42	0	811597824	62	4061
2026-01-29 03:37:25.99	307.92	25.41	-45.6	-47.0	20.0	0.00e+00	0	42	0	819986432	62	4317
2026-01-29 03:37:30.02	306.87	25.11	-45.8	-47.3	19.7	0.00e+00	0	42	0	827326464	62	4453
2026-01-29 03:37:34.04	305.84	24.81	-46.3	-48.0	19.1	0.00e+00	0	42	0	834666496	63	4577
2026-01-29 03:37:38.07	304.83	24.49	-46.7	-48.5	18.4	0.00e+00	0	42	0	842006528	64	4584
2026-01-29 03:37:42.10	303.84	24.17	-46.7	-48.5	18.5	0.00e+00	0	42	0	850395136	64	4563
2026-01-29 03:37:46.13	302.87	23.85	-45.6	-47.0	20.0	0.00e+00	0	42	0	857735168	63	4073
2026-01-29 03:37:50.16	301.92	23.52	-45.4	-46.8	20.2	0.00e+00	0	42	0	865075200	62	4213
2026-01-29 03:37:54.19	300.99	23.18	-45.2	-46.5	20.4	0.00e+00	0	42	0	872415232	62	4074
2026-01-29 03:37:58.21	300.08	22.84	-44.2	-45.4	21.4	0.00e+00	0	42	0	879755264	60	4009
2026-01-29 03:38:02.24	299.19	22.50	-44.1	-45.2	21.8	0.00e+00	0	42	0	887095296	59	4177
2026-01-29 03:38:06.27	298.32	22.16	-44.9	-46.2	20.7	0.00e+00	0	42	0	895483904	60	4414
2026-01-29 03:38:10.29	297.47	21.82	-45.6	-47.1	19.9	0.00e+00	0	42	0	902823936	62	4342
2026-01-29 03:38:14.31	296.64	21.47	-45.1	-46.4	20.5	0.00e+00	0	42	0	910163968	61	4258
2026-01-29 03:38:18.33	295.83	21.12	-44.9	-46.2	20.6	0.00e+00	0	42	0	917504000	61	4169
2026-01-29 03:38:22.36	295.03	20.77	-43.8	-44.9	22.1	0.00e+00	0	42	0	924844032	59	4013
2026-01-29 03:38:26.39	294.26	20.42	-44.2	-45.3	21.7	0.00e+00	0	42	0	933232640	59	4235
2026-01-29 03:38:30.42	293.50	20.07	-44.4	-45.6	21.2	0.00e+00	0	42	0	940572672	60	4139
2026-01-29 03:38:34.44	292.76	19.72	-44.1	-45.3	21.5	0.00e+00	0	42	0	947912704	60	3968
2026-01-29 03:38:38.46	292.03	19.36	-44.4	-45.6	21.3	0.00e+00	0	42	0	955252736	60	4106
2026-01-29 03:38:42.48	291.33	19.01	-44.6	-45.8	21.1	0.00e+00	0	42	0	963641344	60	4212
2026-01-29 03:38:46.50	290.64	18.66	-44.3	-45.4	21.3	0.00e+00	0	42	0	970981376	60	4051
2026-01-29 03:38:50.53	289.96	18.31	-44.5	-45.6	21.5	0.00e+00	0	42	0	978321408	59	4375
2026-01-29 03:38:54.56	289.30	17.96	-45.2	-46.5	20.4	0.00e+00	0	42	0	985661440	60	4572
2026-01-29 03:38:58.59	288.66	17.61	-45.6	-47.0	20.0	0.00e+00	0	42	0	993001472	62	4336
2026-01-29 03:39:02.62	288.03	17.27	-44.8	-46.1	20.8	0.00e+00	0	42	0	1000341504	61	4105
2026-01-29 03:39:06.65	287.41	16.92	-45.2	-46.5	20.4	0.00e+00	0	42	0	1008730112	61	4318
2026-01-29 03:39:10.68	286.81	16.57	-45.7	-47.1	19.9	0.00e+00	0	42	0	1016070144	62	4361
2026-01-29 03:39:14.70	286.22	16.23	-46.0	-47.5	19.4	0.00e+00	0	42	0	1023410176	63	4324
2026-01-29 03:39:18.73	285.65	15.89	-45.1	-46.5	20.4	0.00e+00	0	42	0	1030750208	62	4052
2026-01-29 03:39:22.76	285.09	15.55	-45.4	-46.8	20.1	0.00e+00	0	42	0	1038090240	62	4197
2026-01-29 03:39:26.79	284.54	15.21	-46.1	-47.7	19.2	0.00e+00	0	42	0	1046478848	63	4400
2026-01-29 03:39:30.81	284.01	14.88	-45.7	-47.2	19.6	0.00e+00	0	42	0	1053818880	63	4153
2026-01-29 03:39:34.83	283.48	14.55	-45.2	-46.5	20.2	0.00e+00	0	42	0	1061158912	62	4097
2026-01-29 03:39:38.87	282.97	14.22	-45.1	-46.4	20.2	0.00e+00	0	42	0	1068498944	61	4275
2026-01-29 03:39:42.90	282.47	13.89	-45.3	-46.7	19.9	0.00e+00	0	42	0	1076887552	61	4411
2026-01-29 03:39:46.92	281.98	13.56	-46.0	-47.5	19.2	0.00e+00	0	42	0	1084227584	62	4568
2026-01-29 03:39:50.95	281.50	13.24	-46.0	-47.5	19.2	0.00e+00	0	42	0	1091567616	62	4579
2026-01-29 03:39:54.97	281.04	12.91	-45.8	-47.4	19.3	0.00e+00	0	42	0	1098907648	62	4494
2026-01-29 03:39:59.01	280.58	12.59	-46.5	-48.2	18.5	0.00e+00	0	42	0	1106247680	63	4686
2026-01-29 03:40:03.05	280.13	12.28	-46.9	-48.8	17.9	0.00e+00	0	42	0	1113587712	64	4715
2026-01-29 03:40:07.07	279.69	11.96	-46.2	-47.8	18.7	0.00e+00	0	42	0	1121976320	64	4206
2026-01-29 03:40:11.10	279.27	11.65	-45.4	-46.8	19.7	0.00e+00	0	42	0	1129316352	62	4236
2026-01-29 03:40:15.13	278.85	11.34	-45.6	-47.1	19.4	0.00e+00	0	42	0	1136656384	62	4353
2026-01-29 03:40:19.16	278.44	11.03	-46.7	-48.6	17.9	0.00e+00	0	42	0	1143996416	64	4630
2026-01-29 03:40:23.18	278.04	10.73	-47.6	-49.8	16.7	0.00e+00	0	42	0	1151336448	65	5022
2026-01-29 03:40:27.21	277.65	10.42	-47.8	-50.1	16.4	0.00e+00	0	42	0	1159725056	66	4888
2026-01-29 03:40:31.25	277.26	10.12	-47.5	-49.7	16.8	0.00e+00	0	42	0	1167065088	66	4683
2026-01-29 03:40:35.28	276.88	9.82	-47.5	-49.7	16.7	0.00e+00	0	42	0	1174405120	66	4697
2026-01-29 03:40:39.30	276.52	9.53	-47.3	-49.4	17.0	0.00e+00	0	42	0	1181745152	66	4509
2026-01-29 03:40:43.33	276.16	9.23	-47.6	-49.8	16.6	0.00e+00	0	42	0	1190133760	66	4724
2026-01-29 03:40:47.37	275.80	8.94	-48.0	-50.3	16.1	0.00e+00	0	42	0	1197473792	66	5024
2026-01-29 03:40:51.41	275.45	8.65	-47.9	-50.2	16.2	0.00e+00	0	42	0	1204813824	66	4952
2026-01-29 03:40:55.43	275.12	8.37	-46.9	-48.8	17.5	0.00e+00	0	42	0	1212153856	65	4470
2026-01-29 03:40:59.47	274.78	8.08	-46.1	-47.8	18.4	0.00e+00	0	42	0	1219493888	64	4209
2026-01-29 03:41:03.50	274.46	7.80	-46.2	-47.8	18.4	0.00e+00	0	42	0	1227882496	63	4484
2026-01-29 03:41:07.53	274.14	7.52	-46.5	-48.3	18.0	0.00e+00	0	42	0	1235222528	63	4720
2026-01-29 03:41:11.56	273.82	7.24	-47.0	-49.0	17.2	0.00e+00	0	42	0	1242562560	64	4825
2026-01-29 03:41:15.59	273.52	6.97	-47.6	-49.8	16.3	0.00e+00	0	42	0	1249902592	65	5027
2026-01-29 03:41:19.62	273.22	6.69	-47.9	-50.3	15.8	0.00e+00	0	42	0	1257242624	66	5037
2026-01-29 03:41:23.65	272.92	6.42	-48.1	-50.6	15.5	0.00e+00	0	42	0	1265631232	66	5218
2026-01-29 03:41:27.68	272.63	6.15	-48.0	-50.6	15.4	0.00e+00	0	42	0	1272971264	66	5201
2026-01-29 03:41:31.71	272.35	5.89	-48.1	-50.8	15.2	0.00e+00	0	42	0	1280311296	66	5284
2026-01-29 03:41:35.73	272.07	5.62	-48.1	-50.7	15.3	0.00e+00	0	42	0	1287651328	67	4941
2026-01-29 03:41:39.77	271.80	5.36	-48.1	-50.8	15.1	0.00e+00	0	42	0	1294991360	67	5001
2026-01-29 03:41:43.79	271.53	5.10	-48.1	-50.9	14.9	7.00e-07	0	42	0	1303379968	67	5052
2026-01-29 03:41:47.83	271.26	4.84	-52.2	-67.2	3.8	1.49e+00	0	42	104	1306525696	74	22050
2026-01-29 03:41:51.87	271.01	4.58	-52.5	-67.4	3.8	1.49e+00	0	42	104	1306525696	75	21405
2026-01-29 03:41:55.89	270.75	4.32	-52.8	-67.7	3.8	1.49e+00	0	42	104	1306525696	76	20987
2026-01-29 03:41:59.93	270.50	4.07	-53.0	-68.0	3.8	1.49e+00	0	42	104	1306525696	76	21542
2026-01-29 03:42:03.96	270.26	3.82	-53.2	-68.1	3.8	1.49e+00	0	42	104	1306525696	76	21946
2026-01-29 03:42:08.00	270.02	3.57	-53.1	-68.1	3.8	1.49e+00	0	42	104	1306525696	76	21848
2026-01-29 03:42:12.02	269.78	3.32	-53.1	-68.0	3.8	1.49e+00	0	42	104	1306525696	76	21743
2026-01-29 03:42:16.05	269.55	3.07	-53.0	-68.0	3.8	1.49e+00	0	42	104	1306525696	76	21685
2026-01-29 03:42:20.09	269.32	2.83	-53.0	-68.0	3.8	1.49e+00	0	42	104	1306525696	76	21613
2026-01-29 03:42:24.12	269.10	2.59	-53.0	-68.0	3.8	1.49e+00	0	42	104	1306525696	76	21559
2026-01-29 03:42:28.15	268.88	2.34	-53.0	-68.0	3.8	1.49e+00	0	42	104	1306525696	76	21580
2026-01-29 03:42:32.18	268.66	2.11	-53.0	-67.9	3.8	1.49e+00	0	42	104	1306525696	76	21498
2026-01-29 03:42:36.21	268.45	1.87	-53.0	-67.9	3.8	1.49e+00	0	42	104	1306525696	76	21440

#Closed at: 2026-01-29 03:42:36
#Recorded file [1306 MB]: D:/lorett/data/31041_260129_062922.dat