passes_logs/2026/01/29/R3.2S_Murmansk/R3.2S_Murmansk__20260129_044237_AQUA_rec.log

#Pass ID: 20260129_044237_AQUA
#Satellite: AQUA
#Configuration: AQUA
#almurnet v.1.7.20251203
#Start time: 2026-01-29 04:42:40

#Version: 2.2.20231116
#Station: R3.2S_Murmansk
#Location: 33.079688 lon 68.888172 lat
#TLE: 1 27424U 02022A   26027.96263068  .00001625  00000+0  33481-3 0  9997
#TLE: 2 27424  98.4102 354.6095 0001839  63.4368   7.7786 14.61867353262782

#Time	Az	El	Level	Level2	SNR	BER	BlckErr	Temp	State	Recorded	gain1	gain2
2026-01-29 04:42:40.05	34.33	2.14	-55.5	-73.3	3.8	7.47e-01	0	40	0	0	82	28112
2026-01-29 04:42:43.07	34.15	2.32	-55.4	-73.2	3.8	7.46e-01	0	41	104	0	81	29640
2026-01-29 04:42:46.09	33.97	2.51	-55.6	-73.4	3.8	7.48e-01	0	41	104	0	81	30116
2026-01-29 04:42:49.10	33.78	2.70	-55.7	-73.5	3.8	7.45e-01	0	41	104	0	81	30555
2026-01-29 04:42:52.13	33.59	2.88	-55.7	-73.5	3.8	7.45e-01	0	41	104	0	82	28901
2026-01-29 04:42:55.15	33.39	3.07	-55.6	-73.5	3.8	7.47e-01	0	41	104	0	82	28756
2026-01-29 04:42:58.18	33.20	3.27	-55.6	-73.4	3.8	7.42e-01	0	41	104	0	82	28570
2026-01-29 04:43:01.20	33.00	3.46	-55.3	-73.1	3.8	7.42e-01	0	41	104	0	82	27668
2026-01-29 04:43:04.23	32.80	3.65	-54.9	-72.7	3.8	7.46e-01	0	41	104	0	81	28025
2026-01-29 04:43:07.25	32.59	3.85	-54.1	-71.9	3.8	7.45e-01	0	41	104	0	80	27035
2026-01-29 04:43:10.27	32.38	4.04	-53.5	-71.3	3.8	7.43e-01	0	41	104	0	79	26596
2026-01-29 04:43:13.30	32.17	4.24	-53.3	-70.6	3.8	7.44e-01	0	41	104	0	78	25946
2026-01-29 04:43:16.33	31.95	4.44	-52.6	-68.0	3.8	7.46e-01	0	41	104	0	77	20478
2026-01-29 04:43:19.34	31.74	4.64	-52.4	-67.3	3.8	7.46e-01	0	41	104	0	76	20012
2026-01-29 04:43:22.36	31.51	4.84	-52.6	-68.0	3.8	7.43e-01	0	41	104	0	76	21547
2026-01-29 04:43:25.38	31.29	5.04	-52.2	-66.6	3.8	7.47e-01	0	41	104	0	76	18413
2026-01-29 04:43:28.40	31.06	5.24	-53.2	-70.4	3.8	7.44e-01	0	41	104	0	77	27070
2026-01-29 04:43:31.43	30.83	5.45	-46.7	-57.9	3.8	7.42e-01	0	42	104	0	65	12671
2026-01-29 04:43:34.45	30.59	5.66	-46.9	-58.1	3.8	7.46e-01	0	41	104	0	64	13754
2026-01-29 04:43:37.47	30.35	5.86	-50.3	-62.7	3.8	7.42e-01	0	41	104	0	72	14731
2026-01-29 04:43:40.49	30.10	6.07	-46.0	-56.8	3.8	7.43e-01	0	41	104	0	63	12612
2026-01-29 04:43:43.51	29.86	6.28	-51.8	-65.9	3.8	7.43e-01	0	42	104	0	74	19045
2026-01-29 04:43:46.54	29.60	6.49	-52.1	-66.7	4.0	7.40e-01	0	42	104	0	76	18584
2026-01-29 04:43:49.55	29.35	6.71	-48.5	-60.0	3.8	7.46e-01	0	42	104	0	67	14540
2026-01-29 04:43:52.56	29.09	6.92	-52.5	-67.0	3.9	7.45e-01	0	42	104	0	77	18226
2026-01-29 04:43:55.58	28.82	7.14	-45.9	-56.9	3.8	7.45e-01	0	42	104	0	63	12667
2026-01-29 04:43:58.61	28.55	7.36	-48.8	-60.6	3.8	7.45e-01	0	42	104	0	68	14544
2026-01-29 04:44:01.63	28.27	7.57	-52.2	-66.1	3.8	7.49e-01	0	42	104	0	74	19552
2026-01-29 04:44:04.66	27.99	7.80	-46.0	-57.0	3.8	7.46e-01	0	42	104	0	63	12873
2026-01-29 04:44:07.68	27.71	8.02	-53.7	-70.9	3.7	7.49e-01	0	41	104	0	77	28365
2026-01-29 04:44:10.70	27.42	8.24	-45.6	-56.6	3.8	7.45e-01	0	42	104	0	63	12257
2026-01-29 04:44:13.72	27.13	8.47	-45.3	-56.3	3.8	7.46e-01	0	42	104	0	62	12543
2026-01-29 04:44:16.74	26.83	8.69	-47.7	-59.0	3.8	7.46e-01	0	42	104	0	67	12897
2026-01-29 04:44:19.77	26.52	8.92	-45.6	-56.6	3.8	7.45e-01	0	42	104	0	63	12272
2026-01-29 04:44:22.79	26.21	9.15	-48.1	-59.5	3.8	7.48e-01	0	42	104	0	66	14391
2026-01-29 04:44:25.81	25.90	9.38	-53.9	-71.7	3.6	7.48e-01	0	42	104	0	78	29405
2026-01-29 04:44:28.83	25.57	9.61	-45.1	-56.0	3.8	7.42e-01	0	42	104	0	62	12196
2026-01-29 04:44:31.86	25.25	9.85	-52.4	-66.4	3.9	7.47e-01	0	42	104	0	75	19069
2026-01-29 04:44:34.88	24.91	10.09	-45.7	-56.7	3.8	7.43e-01	0	42	104	0	63	12391
2026-01-29 04:44:37.90	24.57	10.32	-52.5	-66.6	3.8	7.44e-01	0	42	104	0	75	19395
2026-01-29 04:44:40.93	24.23	10.56	-45.9	-56.8	3.8	7.47e-01	0	42	104	0	63	12609
2026-01-29 04:44:43.95	23.88	10.80	-45.5	-56.4	3.8	7.41e-01	0	42	104	0	63	12028
2026-01-29 04:44:46.97	23.52	11.05	-49.0	-60.6	3.8	7.43e-01	0	42	104	0	68	14657
2026-01-29 04:44:49.99	23.15	11.29	-53.9	-71.6	3.8	7.43e-01	0	42	104	0	78	29036
2026-01-29 04:44:53.01	22.78	11.54	-44.9	-55.8	3.8	7.46e-01	0	42	104	0	61	12549
2026-01-29 04:44:56.03	22.40	11.78	-52.3	-66.0	3.8	7.45e-01	0	42	104	0	75	18289
2026-01-29 04:44:59.06	22.02	12.03	-45.3	-56.1	3.8	7.45e-01	0	42	104	0	62	12324
2026-01-29 04:45:02.08	21.62	12.28	-50.2	-62.5	3.8	7.46e-01	0	42	104	0	72	14463
2026-01-29 04:45:05.10	21.22	12.54	-45.0	-55.9	3.8	7.45e-01	0	42	104	0	62	11973
2026-01-29 04:45:08.12	20.81	12.79	-44.7	-55.4	3.8	7.42e-01	0	42	104	0	61	12083
2026-01-29 04:45:11.15	20.40	13.04	-48.2	-59.6	3.8	7.41e-01	0	42	104	0	66	14613
2026-01-29 04:45:14.17	19.97	13.30	-54.1	-72.0	3.8	7.43e-01	0	42	104	0	78	30389
2026-01-29 04:45:17.19	19.54	13.56	-44.4	-55.3	3.8	7.45e-01	0	42	104	0	60	12526
2026-01-29 04:45:20.22	19.10	13.82	-52.2	-65.7	3.8	7.42e-01	0	42	104	0	75	17641
2026-01-29 04:45:23.24	18.65	14.08	-45.6	-56.5	3.8	7.48e-01	0	42	104	0	63	12161
2026-01-29 04:45:26.26	18.19	14.34	-48.3	-59.5	3.9	7.44e-01	0	42	104	0	68	12857
2026-01-29 04:45:29.28	17.72	14.61	-44.7	-55.5	3.8	7.41e-01	0	42	104	0	61	12099
2026-01-29 04:45:32.31	17.25	14.87	-44.7	-55.5	3.8	7.43e-01	0	42	104	0	61	12224
2026-01-29 04:45:35.32	16.76	15.14	-48.6	-60.0	3.8	7.46e-01	0	42	104	0	67	14415
2026-01-29 04:45:38.33	16.27	15.40	-54.1	-71.6	3.8	7.43e-01	0	42	104	0	79	27467
2026-01-29 04:45:41.36	15.76	15.67	-45.1	-56.0	3.8	7.46e-01	0	42	104	0	62	12110
2026-01-29 04:45:44.38	15.25	15.94	-51.9	-65.1	3.9	7.47e-01	0	42	104	0	75	16360
2026-01-29 04:45:47.40	14.72	16.21	-45.2	-55.9	3.8	7.45e-01	0	42	104	0	62	12093
2026-01-29 04:45:50.42	14.19	16.49	-45.1	-56.0	3.9	7.46e-01	0	42	104	0	62	12118
2026-01-29 04:45:53.44	13.64	16.76	-45.3	-56.0	3.8	7.47e-01	0	42	104	0	61	12862
2026-01-29 04:45:56.47	13.09	17.03	-45.0	-55.8	3.8	7.45e-01	0	42	104	0	62	11845
2026-01-29 04:45:59.49	12.52	17.31	-51.8	-64.6	3.8	7.43e-01	0	42	104	0	73	17352
2026-01-29 04:46:02.51	11.94	17.58	-50.6	-62.9	3.9	7.44e-01	0	42	104	0	73	14325
2026-01-29 04:46:05.53	11.35	17.86	-47.9	-59.3	3.8	7.41e-01	0	42	104	0	66	14184
2026-01-29 04:46:08.56	10.75	18.13	-49.2	-60.7	3.9	7.43e-01	0	42	104	0	70	13239
2026-01-29 04:46:11.57	10.13	18.41	-45.3	-56.1	3.8	7.42e-01	0	42	104	0	62	12315
2026-01-29 04:46:14.60	9.51	18.68	-45.6	-56.4	3.8	7.44e-01	0	42	104	0	63	12085
2026-01-29 04:46:17.63	8.87	18.96	-50.2	-62.1	3.8	7.43e-01	0	42	104	0	70	15432
2026-01-29 04:46:20.64	8.22	19.23	-45.3	-56.2	3.8	7.44e-01	0	42	104	0	62	12425
2026-01-29 04:46:23.67	7.55	19.51	-52.3	-65.8	3.8	7.44e-01	0	42	104	0	75	17735
2026-01-29 04:46:26.69	6.88	19.78	-47.2	-58.3	3.8	7.45e-01	0	42	104	0	66	12526
2026-01-29 04:46:29.72	6.18	20.06	-49.8	-61.9	3.8	7.45e-01	0	42	104	0	70	15170
2026-01-29 04:46:32.75	5.48	20.33	-48.1	-59.4	3.9	7.47e-01	0	42	104	0	68	12810
2026-01-29 04:46:35.77	4.76	20.60	-45.4	-56.2	3.8	7.45e-01	0	42	104	0	62	12470
2026-01-29 04:46:38.79	4.04	20.87	-46.7	-57.8	3.8	7.45e-01	0	42	104	0	63	14049
2026-01-29 04:46:41.82	3.29	21.14	-54.3	-71.2	3.7	7.48e-01	0	42	104	0	79	26430
2026-01-29 04:46:44.84	2.53	21.40	-45.4	-56.2	3.8	7.41e-01	0	42	104	0	62	12424
2026-01-29 04:46:47.86	1.76	21.67	-52.5	-65.9	3.8	7.45e-01	0	42	104	0	75	18042
2026-01-29 04:46:50.88	0.98	21.93	-46.1	-57.0	3.8	7.48e-01	0	42	104	0	64	12189
2026-01-29 04:46:53.90	0.18	22.19	-48.7	-60.3	3.8	7.44e-01	0	42	104	0	68	14125
2026-01-29 04:46:56.92	359.37	22.44	-47.4	-58.2	3.8	7.46e-01	0	42	104	0	66	12486
2026-01-29 04:46:59.94	358.54	22.69	-46.1	-56.9	3.8	7.43e-01	0	42	104	0	64	12076
2026-01-29 04:47:02.96	357.70	22.94	-47.3	-58.4	3.8	7.43e-01	0	42	104	0	66	12696
2026-01-29 04:47:05.99	356.84	23.19	-54.6	-72.5	3.8	7.46e-01	0	42	104	0	79	30463
2026-01-29 04:47:09.01	355.97	23.43	-45.3	-56.1	3.8	7.43e-01	0	42	104	0	62	12372
2026-01-29 04:47:12.03	355.09	23.66	-52.8	-66.5	3.8	7.41e-01	0	42	104	0	76	18275
2026-01-29 04:47:15.05	354.19	23.89	-46.2	-57.2	3.8	7.42e-01	0	42	104	0	64	12386
2026-01-29 04:47:18.08	353.28	24.12	-49.8	-61.5	3.8	7.44e-01	0	42	104	0	71	13718
2026-01-29 04:47:21.10	352.35	24.34	-47.0	-58.1	3.8	7.46e-01	0	42	104	0	66	12255
2026-01-29 04:47:24.12	351.41	24.55	-45.8	-56.7	3.8	7.45e-01	0	42	104	0	63	12437
2026-01-29 04:47:27.14	350.46	24.76	-47.6	-58.7	3.8	7.44e-01	0	42	104	0	65	13967
2026-01-29 04:47:30.17	349.49	24.96	-54.5	-71.7	3.8	7.44e-01	0	42	104	0	79	27731
2026-01-29 04:47:33.19	348.51	25.16	-46.2	-57.0	3.8	7.46e-01	0	42	104	0	63	12927
2026-01-29 04:47:36.21	347.52	25.34	-52.5	-65.8	3.8	7.48e-01	0	42	104	0	76	16861
2026-01-29 04:47:39.23	346.52	25.52	-46.6	-57.5	3.8	7.45e-01	0	42	104	0	64	12820
2026-01-29 04:47:42.26	345.50	25.69	-47.9	-59.0	3.8	7.43e-01	0	42	104	0	67	12943
2026-01-29 04:47:45.28	344.48	25.85	-46.1	-57.0	3.8	7.43e-01	0	42	104	0	64	12179
2026-01-29 04:47:48.30	343.44	26.00	-45.8	-56.7	3.8	7.44e-01	0	42	104	0	63	12426
2026-01-29 04:47:51.33	342.39	26.15	-49.8	-61.7	3.8	7.45e-01	0	42	104	0	70	14874
2026-01-29 04:47:54.35	341.34	26.28	-53.9	-69.2	3.9	7.41e-01	0	42	104	0	79	20854
2026-01-29 04:47:57.37	340.27	26.41	-47.3	-58.1	3.8	7.46e-01	0	42	104	0	64	13853
2026-01-29 04:48:00.40	339.20	26.52	-52.4	-65.5	3.8	7.44e-01	0	42	104	0	76	16277
2026-01-29 04:48:03.41	338.12	26.62	-46.5	-57.4	3.8	7.44e-01	0	42	104	0	65	12044
2026-01-29 04:48:06.44	337.03	26.72	-47.5	-58.7	3.8	7.42e-01	0	42	104	0	67	12453
2026-01-29 04:48:09.47	335.93	26.80	-48.6	-59.8	3.8	7.46e-01	0	42	104	0	67	14200
2026-01-29 04:48:12.48	334.83	26.87	-46.3	-57.2	3.8	7.47e-01	0	42	104	0	64	12496
2026-01-29 04:48:15.50	333.73	26.93	-52.5	-65.6	3.8	7.44e-01	0	42	104	0	75	17376
2026-01-29 04:48:18.53	332.62	26.98	-50.6	-62.6	3.9	7.43e-01	0	42	104	0	73	13730
2026-01-29 04:48:21.55	331.50	27.02	-47.8	-58.7	3.8	7.45e-01	0	42	104	0	65	13950
2026-01-29 04:48:24.57	330.39	27.04	-51.3	-63.5	3.9	7.46e-01	0	42	104	0	74	14479
2026-01-29 04:48:27.60	329.27	27.06	-46.8	-57.7	3.8	7.43e-01	0	42	104	0	65	12463
2026-01-29 04:48:30.62	328.15	27.06	-47.8	-58.9	3.8	7.46e-01	0	42	104	0	67	12782
2026-01-29 04:48:33.65	327.03	27.05	-52.1	-64.7	3.8	7.47e-01	0	42	104	0	74	16613
2026-01-29 04:48:36.66	325.92	27.03	-46.0	-56.9	3.8	7.46e-01	0	42	104	0	63	12724
2026-01-29 04:48:39.69	324.81	27.00	-52.9	-66.2	3.8	7.40e-01	0	42	104	0	76	17655
2026-01-29 04:48:42.71	323.70	26.95	-48.5	-59.7	3.8	7.45e-01	0	42	104	0	69	12447
2026-01-29 04:48:45.74	322.59	26.90	-51.8	-64.6	3.8	7.49e-01	0	42	104	0	74	16469
2026-01-29 04:48:48.76	321.48	26.83	-49.1	-60.5	3.8	7.43e-01	0	42	104	0	70	12882
2026-01-29 04:48:51.78	320.39	26.75	-47.5	-58.5	3.8	7.45e-01	0	42	104	0	66	12842
2026-01-29 04:48:54.80	319.29	26.66	-48.8	-60.4	3.8	7.46e-01	0	42	104	0	69	13448
2026-01-29 04:48:57.83	318.21	26.56	-54.7	-66.5	6.5	6.84e-01	125	42	0	0	80	14521
2026-01-29 04:49:00.86	317.13	26.45	-46.0	-47.4	24.3	6.01e-01	0	42	0	3670016	64	4005
2026-01-29 04:49:03.88	316.06	26.33	-46.4	-47.8	24.1	6.02e-01	0	42	0	9437184	63	4462
2026-01-29 04:49:06.90	315.00	26.20	-46.3	-47.7	24.0	6.03e-01	0	42	0	15204352	64	4179
2026-01-29 04:49:09.92	313.94	26.06	-45.8	-47.1	24.8	5.99e-01	0	42	0	20447232	62	4370
2026-01-29 04:49:12.94	312.90	25.91	-45.2	-46.4	25.1	6.03e-01	0	42	0	26214400	62	4031
2026-01-29 04:49:15.97	311.87	25.76	-45.1	-46.3	25.4	6.03e-01	0	42	0	31981568	61	4218
2026-01-29 04:49:18.99	310.85	25.59	-46.0	-47.5	24.1	6.00e-01	0	42	0	37748736	63	4303
2026-01-29 04:49:22.02	309.84	25.41	-44.2	-45.3	26.3	6.03e-01	0	42	0	43515904	60	3961
2026-01-29 04:49:25.02	308.85	25.23	-45.4	-46.7	25.1	6.03e-01	0	42	0	48758784	61	4405
2026-01-29 04:49:28.04	307.86	25.04	-45.0	-46.2	25.5	6.03e-01	0	42	0	54525952	61	4189
2026-01-29 04:49:31.06	306.89	24.84	-45.5	-46.8	24.7	6.01e-01	0	42	0	60293120	62	4226
2026-01-29 04:49:34.08	305.93	24.64	-44.9	-46.0	25.7	6.01e-01	0	42	0	66060288	61	4092
2026-01-29 04:49:37.09	304.99	24.43	-44.8	-46.0	25.7	6.01e-01	0	42	0	71827456	61	4087
2026-01-29 04:49:40.12	304.06	24.21	-44.7	-45.8	25.9	6.03e-01	0	42	0	77070336	61	4003
2026-01-29 04:49:43.13	303.14	23.99	-45.5	-46.9	24.9	6.01e-01	0	42	0	82837504	61	4502
2026-01-29 04:49:46.14	302.24	23.76	-44.8	-46.0	25.5	6.01e-01	0	42	0	88604672	61	4093
2026-01-29 04:49:49.17	301.34	23.53	-44.3	-45.5	26.2	6.04e-01	0	42	0	94371840	60	4057
2026-01-29 04:49:52.19	300.47	23.29	-45.1	-46.5	25.3	6.01e-01	0	42	0	100139008	61	4293
2026-01-29 04:49:55.21	299.61	23.04	-45.6	-47.1	24.5	6.02e-01	0	42	0	105381888	61	4603
2026-01-29 04:49:58.23	298.76	22.80	-45.3	-46.6	25.2	6.00e-01	0	42	0	111149056	61	4364
2026-01-29 04:50:01.25	297.92	22.55	-45.5	-46.9	24.8	6.02e-01	0	42	0	116916224	61	4508
2026-01-29 04:50:04.27	297.10	22.29	-45.7	-47.0	24.8	6.01e-01	0	42	0	122683392	62	4339
2026-01-29 04:50:07.29	296.30	22.03	-45.1	-46.4	25.4	6.03e-01	0	42	0	128450560	62	4012
2026-01-29 04:50:10.32	295.50	21.77	-45.4	-46.6	25.2	6.01e-01	0	42	0	133693440	61	4379
2026-01-29 04:50:13.34	294.72	21.51	-45.5	-46.8	24.9	6.01e-01	0	42	0	139460608	61	4479
2026-01-29 04:50:16.36	293.96	21.24	-45.1	-46.3	25.5	6.02e-01	0	42	0	145227776	61	4218
2026-01-29 04:50:19.38	293.21	20.98	-45.9	-47.3	24.4	6.02e-01	0	42	0	150994944	62	4442
2026-01-29 04:50:22.41	292.47	20.71	-45.7	-46.9	25.0	6.02e-01	0	42	0	156762112	62	4278
2026-01-29 04:50:25.43	291.75	20.44	-45.2	-46.4	25.4	6.04e-01	0	42	0	162004992	61	4282
2026-01-29 04:50:28.45	291.04	20.16	-45.1	-46.3	25.4	6.03e-01	0	42	0	167772160	61	4203
2026-01-29 04:50:31.47	290.34	19.89	-45.4	-46.7	25.2	6.01e-01	0	42	0	173539328	61	4401
2026-01-29 04:50:34.50	289.66	19.62	-45.4	-46.8	25.0	6.04e-01	0	42	0	179306496	61	4448
2026-01-29 04:50:37.51	288.99	19.34	-45.1	-46.3	25.3	6.02e-01	0	42	0	185073664	61	4216
2026-01-29 04:50:40.54	288.33	19.06	-44.9	-46.1	25.6	6.02e-01	0	42	0	190316544	61	4134
2026-01-29 04:50:43.57	287.68	18.79	-44.7	-45.8	25.7	6.01e-01	0	42	0	196083712	60	4234
2026-01-29 04:50:46.60	287.05	18.51	-45.4	-46.7	25.0	6.02e-01	0	42	0	201850880	61	4401
2026-01-29 04:50:49.63	286.43	18.23	-45.5	-46.8	24.7	6.00e-01	0	42	0	207618048	61	4492
2026-01-29 04:50:52.65	285.82	17.96	-45.7	-47.1	24.7	6.02e-01	0	42	0	213385216	61	4611
2026-01-29 04:50:55.67	285.22	17.68	-45.6	-47.0	24.7	6.01e-01	0	42	0	219152384	61	4556
2026-01-29 04:50:58.68	284.64	17.41	-46.5	-48.0	23.8	6.03e-01	0	42	0	224395264	63	4561
2026-01-29 04:51:01.70	284.06	17.13	-46.8	-48.4	23.3	6.01e-01	0	42	0	230162432	64	4525
2026-01-29 04:51:04.71	283.50	16.86	-45.9	-47.3	24.3	6.02e-01	0	42	0	235929600	62	4476
2026-01-29 04:51:07.73	282.95	16.59	-44.8	-46.0	25.4	6.03e-01	0	42	0	241696768	61	4089
2026-01-29 04:51:10.75	282.41	16.31	-44.5	-45.7	25.8	6.00e-01	0	42	0	246939648	61	3914
2026-01-29 04:51:13.78	281.88	16.04	-45.1	-46.4	24.9	6.02e-01	0	42	0	252706816	61	4262
2026-01-29 04:51:16.79	281.36	15.77	-45.5	-46.9	24.7	6.02e-01	0	42	0	258473984	61	4514
2026-01-29 04:51:19.80	280.85	15.50	-44.9	-46.2	25.4	6.03e-01	0	42	0	264241152	61	4154
2026-01-29 04:51:22.82	280.35	15.24	-45.3	-46.5	24.9	6.03e-01	0	42	0	270008320	61	4332
2026-01-29 04:51:25.83	279.86	14.97	-45.2	-46.5	25.0	6.00e-01	0	42	0	275251200	61	4309
2026-01-29 04:51:28.84	279.38	14.70	-45.1	-46.4	25.1	6.02e-01	0	42	0	281018368	61	4263
2026-01-29 04:51:31.87	278.91	14.44	-45.1	-46.4	25.1	6.00e-01	0	42	0	286785536	61	4244
2026-01-29 04:51:34.89	278.44	14.17	-45.2	-46.5	25.0	6.04e-01	0	42	0	292552704	61	4301
2026-01-29 04:51:37.92	277.99	13.91	-45.4	-46.7	24.7	6.03e-01	0	42	0	298319872	61	4427
2026-01-29 04:51:40.94	277.54	13.65	-45.1	-46.4	25.0	5.99e-01	0	42	0	303562752	61	4277
2026-01-29 04:51:43.96	277.11	13.39	-45.3	-46.6	24.8	6.01e-01	0	42	0	309329920	61	4353
2026-01-29 04:51:46.98	276.68	13.13	-45.3	-46.6	24.8	6.01e-01	0	42	0	315097088	61	4347
2026-01-29 04:51:50.00	276.26	12.88	-45.4	-46.7	24.7	6.02e-01	0	42	0	320864256	61	4406
2026-01-29 04:51:53.03	275.84	12.62	-45.0	-46.2	25.1	6.03e-01	0	42	0	326631424	61	4177
2026-01-29 04:51:56.06	275.44	12.37	-45.4	-46.8	24.6	6.06e-01	0	42	0	332398592	61	4446
2026-01-29 04:51:59.08	275.04	12.12	-45.4	-46.8	24.5	6.04e-01	0	42	0	337641472	61	4453
2026-01-29 04:52:02.11	274.65	11.87	-45.2	-46.5	24.8	6.02e-01	0	42	0	343408640	61	4339
2026-01-29 04:52:05.13	274.26	11.62	-45.2	-46.5	24.8	6.02e-01	0	42	0	349175808	61	4318
2026-01-29 04:52:08.15	273.89	11.37	-45.4	-46.8	24.4	6.05e-01	0	42	0	354942976	61	4460
2026-01-29 04:52:11.17	273.52	11.13	-45.3	-46.6	24.5	6.02e-01	0	42	0	360710144	61	4381
2026-01-29 04:52:14.19	273.16	10.88	-45.4	-46.8	24.5	6.02e-01	0	42	0	365953024	61	4442
2026-01-29 04:52:17.22	272.80	10.64	-45.5	-46.9	24.3	6.00e-01	0	42	0	371720192	61	4516
2026-01-29 04:52:20.24	272.45	10.40	-45.5	-46.9	24.3	6.02e-01	0	42	0	377487360	61	4511
2026-01-29 04:52:23.25	272.11	10.16	-45.7	-47.1	24.1	6.02e-01	0	42	0	383254528	62	4356
2026-01-29 04:52:26.28	271.77	9.92	-45.7	-47.1	24.0	6.02e-01	0	42	0	389021696	62	4383
2026-01-29 04:52:29.29	271.44	9.69	-45.5	-46.8	24.3	6.02e-01	0	42	0	394264576	62	4234
2026-01-29 04:52:32.31	271.11	9.45	-45.8	-47.2	24.0	6.02e-01	0	42	0	400031744	62	4417
2026-01-29 04:52:35.33	270.79	9.22	-46.4	-48.0	23.1	6.01e-01	0	42	0	405798912	63	4553
2026-01-29 04:52:38.36	270.48	8.99	-47.2	-48.9	21.8	6.01e-01	0	42	0	411566080	64	4795
2026-01-29 04:52:41.38	270.17	8.76	-48.2	-50.4	20.1	6.02e-01	0	42	0	417333248	67	4785
2026-01-29 04:52:44.40	269.87	8.53	-48.9	-51.5	18.6	5.99e-01	0	42	0	422576128	68	5152
2026-01-29 04:52:47.42	269.57	8.31	-49.6	-53.0	16.7	6.01e-01	0	42	0	428343296	69	5755
2026-01-29 04:52:50.43	269.28	8.08	-50.2	-54.4	15.1	6.02e-01	0	42	0	434110464	70	6404
2026-01-29 04:52:53.44	268.99	7.86	-50.7	-55.9	13.4	6.02e-01	0	42	0	439877632	72	6745
2026-01-29 04:52:56.46	268.71	7.64	-50.9	-56.3	13.0	6.04e-01	0	42	0	445644800	72	7102
2026-01-29 04:52:59.48	268.43	7.42	-50.2	-54.1	15.7	6.01e-01	0	42	0	450887680	72	5478
2026-01-29 04:53:02.51	268.16	7.20	-49.7	-52.8	17.4	5.99e-01	0	42	0	456654848	71	5027
2026-01-29 04:53:05.53	267.89	6.98	-48.4	-50.7	19.6	6.02e-01	0	42	0	462422016	68	4667
2026-01-29 04:53:08.55	267.62	6.77	-47.6	-49.5	20.9	6.02e-01	0	42	0	468189184	67	4332
2026-01-29 04:53:11.56	267.36	6.56	-46.3	-47.9	22.7	6.01e-01	0	42	0	473956352	64	4252
2026-01-29 04:53:14.58	267.11	6.34	-46.2	-47.8	22.8	6.01e-01	0	42	0	479199232	64	4217
2026-01-29 04:53:17.60	266.86	6.13	-46.3	-47.9	22.8	6.03e-01	0	42	0	484966400	64	4247
2026-01-29 04:53:20.62	266.61	5.92	-46.4	-48.0	22.5	6.00e-01	0	42	0	490733568	64	4320
2026-01-29 04:53:23.65	266.36	5.71	-46.4	-48.1	22.5	6.02e-01	0	42	0	496500736	64	4344
2026-01-29 04:53:26.67	266.12	5.51	-46.8	-48.6	22.0	6.01e-01	0	42	0	502267904	64	4612
2026-01-29 04:53:29.70	265.89	5.30	-46.8	-48.5	22.0	6.02e-01	0	42	0	507510784	64	4592
2026-01-29 04:53:32.72	265.66	5.10	-47.1	-48.9	21.6	6.00e-01	0	42	0	513277952	64	4792
2026-01-29 04:53:35.73	265.43	4.89	-53.4	-71.2	3.8	7.46e-01	0	42	104	517472256	77	29648
2026-01-29 04:53:38.76	265.20	4.69	-54.0	-71.8	3.8	7.42e-01	0	42	104	517472256	78	29857
2026-01-29 04:53:41.77	264.98	4.49	-54.1	-71.9	3.8	7.48e-01	0	42	104	517472256	78	30174
2026-01-29 04:53:44.79	264.76	4.29	-54.3	-72.1	3.8	7.46e-01	0	42	104	517472256	79	29025
2026-01-29 04:53:47.81	264.55	4.09	-54.5	-72.2	3.8	7.50e-01	0	42	104	517472256	79	29652
2026-01-29 04:53:50.84	264.34	3.90	-54.6	-69.9	3.9	7.37e-01	0	42	104	517472256	79	22765
2026-01-29 04:53:53.87	264.13	3.70	-54.4	-65.5	6.1	6.83e-01	160	42	0	522715136	79	13588
2026-01-29 04:53:56.89	263.92	3.51	-54.7	-72.4	3.8	7.45e-01	0	42	104	523239424	79	30042
2026-01-29 04:53:59.92	263.72	3.31	-54.6	-71.2	3.8	7.45e-01	0	42	104	523239424	79	26436
2026-01-29 04:54:02.94	263.52	3.12	-54.6	-70.6	3.9	7.45e-01	0	42	104	523239424	79	24593
2026-01-29 04:54:05.97	263.33	2.93	-54.6	-70.4	3.9	7.42e-01	0	42	104	523239424	79	23890
2026-01-29 04:54:08.99	263.13	2.74	-54.6	-72.1	3.8	7.46e-01	0	42	104	523239424	79	29219
2026-01-29 04:54:12.02	262.94	2.55	-54.6	-72.1	3.8	7.47e-01	0	42	104	523239424	79	29270
2026-01-29 04:54:15.05	262.75	2.36	-54.6	-72.1	3.8	7.45e-01	0	42	104	523239424	79	29079
2026-01-29 04:54:18.07	262.57	2.18	-54.6	-72.1	3.8	7.45e-01	0	42	104	523239424	79	29339
2026-01-29 04:54:21.09	262.39	1.99	-54.6	-72.2	3.8	7.44e-01	0	42	104	523239424	79	29586

#Closed at: 2026-01-29 04:54:23
#Recorded file [523 MB]: D:/lorett/data/31041_260129_074239.dat