passes_logs/2026/01/29/R3.2S_Murmansk/R3.2S_Murmansk__20260129_133220_SUOMI_NPP_rec.log

#Pass ID: 20260129_133220_SUOMI NPP
#Satellite: SUOMI NPP
#Configuration: NPP
#almurnet v.1.7.20251203
#Start time: 2026-01-29 13:32:21

#Version: 2.2.20231116
#Station: R3.2S_Murmansk
#Location: 33.079688 lon 68.888172 lat
#TLE: 1 37849U 11061A   26028.91916408  .00000155  00000+0  94467-4 0  9990
#TLE: 2 37849  98.7824 330.8488 0002045  39.4457 320.6868 14.19531289738686

#Time	Az	El	Level	Level2	SNR	BER	BlckErr	Temp	State	Recorded	gain1	gain2
2026-01-29 13:32:21.02	256.74	2.02	-53.9	-68.9	3.8	1.49e+00	0	41	0	0	79	20084
2026-01-29 13:32:24.04	257.07	2.14	-54.1	-69.1	3.8	1.49e+00	0	41	104	0	78	21766
2026-01-29 13:32:27.06	257.41	2.25	-54.3	-69.3	3.8	1.49e+00	0	41	104	0	79	21056
2026-01-29 13:32:30.09	257.75	2.37	-54.3	-69.2	3.8	1.49e+00	0	41	104	0	79	21002
2026-01-29 13:32:33.11	258.09	2.48	-54.2	-69.2	3.8	1.49e+00	0	41	104	0	79	20822
2026-01-29 13:32:36.14	258.43	2.60	-54.0	-69.0	3.8	1.49e+00	0	41	104	0	79	20450
2026-01-29 13:32:39.17	258.78	2.71	-53.8	-68.7	3.8	1.49e+00	0	41	104	0	79	19808
2026-01-29 13:32:42.19	259.12	2.83	-53.4	-68.3	3.8	1.49e+00	0	41	104	0	78	20016
2026-01-29 13:32:45.22	259.48	2.94	-52.8	-67.7	3.8	1.49e+00	0	41	104	0	77	19691
2026-01-29 13:32:48.24	259.83	3.06	-52.4	-67.4	3.8	1.49e+00	0	41	104	0	76	20110
2026-01-29 13:32:51.27	260.18	3.17	-52.4	-67.3	3.8	1.49e+00	0	42	104	0	76	19977
2026-01-29 13:32:54.29	260.54	3.28	-52.4	-67.3	3.8	1.49e+00	0	41	104	0	76	19911
2026-01-29 13:32:57.32	260.90	3.40	-52.3	-67.3	3.8	1.49e+00	0	41	104	0	76	19902
2026-01-29 13:33:00.35	261.27	3.51	-52.3	-67.3	3.8	1.49e+00	0	42	104	0	76	19844
2026-01-29 13:33:03.37	261.63	3.62	-52.3	-67.3	3.8	1.49e+00	0	42	104	0	76	19926
2026-01-29 13:33:06.39	262.00	3.73	-52.3	-67.2	3.8	1.49e+00	0	42	104	0	76	19780
2026-01-29 13:33:09.42	262.38	3.84	-52.3	-67.3	3.8	1.49e+00	0	42	104	0	76	19857
2026-01-29 13:33:12.45	262.75	3.95	-52.3	-67.2	3.8	1.49e+00	0	42	104	0	76	19817
2026-01-29 13:33:15.47	263.13	4.06	-52.3	-67.1	3.8	1.49e+00	0	42	104	0	76	19592
2026-01-29 13:33:18.50	263.51	4.17	-52.3	-67.2	3.8	1.49e+00	0	42	104	0	76	19665
2026-01-29 13:33:21.53	263.89	4.28	-52.3	-67.2	3.8	1.49e+00	0	42	104	0	76	19777
2026-01-29 13:33:24.55	264.28	4.39	-52.3	-67.0	3.8	1.49e+00	0	42	104	0	76	19383
2026-01-29 13:33:27.57	264.66	4.49	-52.3	-66.9	3.8	1.49e+00	0	42	104	0	76	19046
2026-01-29 13:33:30.60	265.05	4.60	-52.3	-67.2	3.8	1.49e+00	0	42	104	0	76	19681
2026-01-29 13:33:33.62	265.45	4.70	-52.2	-67.0	3.8	1.49e+00	0	42	104	0	76	19343
2026-01-29 13:33:36.65	265.84	4.81	-52.2	-66.3	3.8	1.49e+00	0	42	104	0	76	17873
2026-01-29 13:33:39.68	266.24	4.91	-51.9	-61.9	4.8	1.43e+00	0	42	0	0	75	11287
2026-01-29 13:33:42.70	266.64	5.02	-49.4	-52.8	13.2	9.15e-05	0	42	0	5242880	70	5307
2026-01-29 13:33:45.73	267.05	5.12	-47.6	-49.9	16.0	2.19e-01	0	42	0	8388608	67	4516
2026-01-29 13:33:48.75	267.46	5.22	-47.0	-49.1	17.0	0.00e+00	0	42	0	13631488	66	4344
2026-01-29 13:33:51.77	267.86	5.32	-47.5	-49.7	16.2	0.00e+00	0	42	0	19922944	65	4982
2026-01-29 13:33:54.80	268.28	5.42	-48.5	-51.5	14.4	0.00e+00	0	42	0	25165824	67	5419
2026-01-29 13:33:57.82	268.69	5.52	-49.1	-52.7	13.1	1.90e-05	0	42	0	30408704	68	5895
2026-01-29 13:34:00.84	269.11	5.62	-49.4	-53.4	12.2	1.81e-04	0	42	0	36700160	69	6054
2026-01-29 13:34:03.86	269.53	5.72	-48.9	-52.2	13.5	1.75e-05	0	42	0	41943040	69	5279
2026-01-29 13:34:06.88	269.95	5.82	-48.1	-50.7	15.2	0.00e+00	0	42	0	48234496	68	4687
2026-01-29 13:34:09.91	270.38	5.91	-47.1	-49.3	16.5	0.00e+00	0	42	0	53477376	66	4458
2026-01-29 13:34:12.93	270.81	6.01	-46.8	-48.9	16.8	0.00e+00	0	42	0	59768832	65	4532
2026-01-29 13:34:15.96	271.24	6.10	-47.3	-49.6	16.2	0.00e+00	0	42	0	65011712	65	4893
2026-01-29 13:34:18.98	271.67	6.19	-47.3	-49.5	16.6	0.00e+00	0	42	0	70254592	65	4836
2026-01-29 13:34:22.01	272.11	6.29	-47.1	-49.1	17.0	0.00e+00	0	42	0	76546048	65	4620
2026-01-29 13:34:25.03	272.55	6.38	-47.0	-49.0	17.2	0.00e+00	0	42	0	81788928	65	4563
2026-01-29 13:34:28.06	272.99	6.47	-47.2	-49.3	16.8	0.00e+00	0	42	0	88080384	65	4740
2026-01-29 13:34:31.07	273.43	6.55	-47.2	-49.3	16.8	0.00e+00	0	42	0	93323264	65	4719
2026-01-29 13:34:34.09	273.88	6.64	-47.3	-49.4	16.7	0.00e+00	0	42	0	98566144	65	4785
2026-01-29 13:34:37.12	274.33	6.73	-47.0	-49.0	17.1	0.00e+00	0	42	0	104857600	65	4553
2026-01-29 13:34:40.14	274.78	6.81	-46.9	-48.9	17.3	0.00e+00	0	42	0	110100480	65	4524
2026-01-29 13:34:43.16	275.23	6.90	-46.9	-48.8	17.4	0.00e+00	0	42	0	116391936	65	4489
2026-01-29 13:34:46.18	275.69	6.98	-47.1	-49.1	17.1	0.00e+00	0	42	0	121634816	65	4620
2026-01-29 13:34:49.20	276.15	7.06	-47.2	-49.3	17.0	0.00e+00	0	42	0	126877696	65	4708
2026-01-29 13:34:52.22	276.61	7.14	-47.2	-49.2	17.0	0.00e+00	0	42	0	133169152	65	4682
2026-01-29 13:34:55.24	277.07	7.22	-46.9	-48.7	17.4	0.00e+00	0	42	0	138412032	65	4441
2026-01-29 13:34:58.26	277.54	7.30	-46.8	-48.7	17.6	0.00e+00	0	42	0	144703488	65	4422
2026-01-29 13:35:01.27	278.01	7.37	-47.2	-49.4	16.7	0.00e+00	0	42	0	149946368	65	4804
2026-01-29 13:35:04.29	278.48	7.45	-47.3	-49.6	16.6	0.00e+00	0	42	0	155189248	65	4880
2026-01-29 13:35:07.30	278.95	7.52	-47.1	-49.3	16.9	0.00e+00	0	42	0	161480704	65	4740
2026-01-29 13:35:10.33	279.42	7.59	-47.2	-49.4	16.9	0.00e+00	0	42	0	166723584	65	4806
2026-01-29 13:35:13.35	279.90	7.66	-47.1	-49.3	17.0	0.00e+00	0	42	0	173015040	65	4720
2026-01-29 13:35:16.37	280.38	7.73	-47.1	-49.2	17.1	0.00e+00	0	42	0	178257920	65	4702
2026-01-29 13:35:19.39	280.86	7.80	-46.7	-48.7	17.6	0.00e+00	0	42	0	183500800	65	4408
2026-01-29 13:35:22.42	281.35	7.86	-47.1	-49.2	17.2	0.00e+00	0	42	0	189792256	65	4654
2026-01-29 13:35:25.45	281.84	7.92	-47.9	-50.4	16.0	0.00e+00	0	42	0	195035136	66	5074
2026-01-29 13:35:28.47	282.32	7.99	-48.4	-51.1	15.3	0.00e+00	0	42	0	201326592	67	5203
2026-01-29 13:35:31.49	282.81	8.05	-47.9	-50.3	16.1	0.00e+00	0	42	0	206569472	67	4720
2026-01-29 13:35:34.51	283.30	8.11	-47.4	-49.5	16.9	0.00e+00	0	42	0	211812352	66	4563
2026-01-29 13:35:37.54	283.80	8.16	-47.2	-49.3	17.2	0.00e+00	0	42	0	218103808	66	4447
2026-01-29 13:35:40.56	284.30	8.22	-47.2	-49.2	17.2	0.00e+00	0	42	0	223346688	66	4437
2026-01-29 13:35:43.58	284.79	8.27	-47.0	-48.9	17.5	0.00e+00	0	42	0	229638144	66	4275
2026-01-29 13:35:46.61	285.29	8.33	-47.3	-49.3	17.1	0.00e+00	0	42	0	234881024	65	4753
2026-01-29 13:35:49.63	285.79	8.38	-47.7	-50.0	16.5	0.00e+00	0	42	0	241172480	66	4839
2026-01-29 13:35:52.65	286.30	8.42	-48.0	-50.3	16.2	0.00e+00	0	42	0	246415360	66	5024
2026-01-29 13:35:55.67	286.80	8.47	-47.2	-49.2	17.4	0.00e+00	0	42	0	251658240	66	4409
2026-01-29 13:35:58.69	287.31	8.52	-47.1	-49.0	17.6	0.00e+00	0	42	0	257949696	65	4588
2026-01-29 13:36:01.71	287.81	8.56	-47.2	-49.2	17.3	0.00e+00	0	42	0	263192576	65	4682
2026-01-29 13:36:04.74	288.32	8.60	-47.1	-49.0	17.5	0.00e+00	0	42	0	269484032	65	4587
2026-01-29 13:36:07.76	288.83	8.64	-46.8	-48.6	18.0	0.00e+00	0	42	0	274726912	65	4357
2026-01-29 13:36:10.77	289.34	8.68	-46.8	-48.7	17.9	0.00e+00	0	42	0	279969792	65	4402
2026-01-29 13:36:13.80	289.85	8.71	-46.8	-48.6	17.9	0.00e+00	0	42	0	286261248	65	4389
2026-01-29 13:36:16.82	290.37	8.75	-46.8	-48.6	18.0	0.00e+00	0	42	0	291504128	65	4371
2026-01-29 13:36:19.85	290.88	8.78	-47.5	-49.7	17.0	0.00e+00	0	42	0	297795584	65	4939
2026-01-29 13:36:22.87	291.40	8.81	-48.2	-50.6	16.0	0.00e+00	0	42	0	303038464	66	5192
2026-01-29 13:36:25.89	291.92	8.84	-48.0	-50.4	16.3	0.00e+00	0	42	0	308281344	67	4793
2026-01-29 13:36:28.91	292.43	8.86	-48.0	-50.3	16.4	0.00e+00	0	42	0	314572800	67	4735
2026-01-29 13:36:31.92	292.95	8.89	-48.0	-50.3	16.3	0.00e+00	0	42	0	319815680	67	4727
2026-01-29 13:36:34.95	293.47	8.91	-47.8	-50.1	16.5	0.00e+00	0	42	0	326107136	67	4641
2026-01-29 13:36:37.97	293.99	8.93	-47.9	-50.3	16.3	0.00e+00	0	42	0	331350016	67	4727
2026-01-29 13:36:40.99	294.51	8.95	-48.1	-50.6	16.0	0.00e+00	0	42	0	336592896	67	4872
2026-01-29 13:36:44.01	295.03	8.96	-48.1	-50.5	16.0	0.00e+00	0	42	0	342884352	67	4852
2026-01-29 13:36:47.03	295.55	8.98	-47.7	-50.0	16.5	0.00e+00	0	42	0	348127232	67	4572
2026-01-29 13:36:50.06	296.07	8.99	-47.5	-49.7	16.9	0.00e+00	0	42	0	354418688	66	4670
2026-01-29 13:36:53.09	296.60	9.00	-47.6	-49.8	16.6	0.00e+00	0	42	0	359661568	66	4744
2026-01-29 13:36:56.11	297.12	9.00	-47.5	-49.7	16.7	0.00e+00	0	42	0	364904448	66	4692
2026-01-29 13:36:59.13	297.64	9.01	-47.1	-49.2	17.3	0.00e+00	0	42	0	371195904	66	4393
2026-01-29 13:37:02.14	298.16	9.01	-47.3	-49.4	17.0	0.00e+00	0	42	0	376438784	66	4508
2026-01-29 13:37:05.16	298.69	9.02	-47.3	-49.5	16.9	0.00e+00	0	42	0	382730240	66	4556
2026-01-29 13:37:08.18	299.21	9.01	-47.1	-49.2	17.2	0.00e+00	0	42	0	387973120	66	4413
2026-01-29 13:37:11.21	299.73	9.01	-46.8	-48.7	17.7	0.00e+00	0	42	0	393216000	65	4424
2026-01-29 13:37:14.23	300.25	9.01	-46.7	-48.5	17.9	0.00e+00	0	42	0	399507456	65	4333
2026-01-29 13:37:17.25	300.78	9.00	-46.6	-48.4	17.9	0.00e+00	0	42	0	404750336	65	4263
2026-01-29 13:37:20.28	301.30	8.99	-46.0	-47.7	18.7	0.00e+00	0	42	0	411041792	63	4399
2026-01-29 13:37:23.30	301.82	8.98	-46.0	-47.7	18.7	0.00e+00	0	42	0	416284672	63	4403
2026-01-29 13:37:26.32	302.34	8.97	-46.5	-48.3	18.1	0.00e+00	0	42	0	421527552	63	4753
2026-01-29 13:37:29.34	302.86	8.95	-46.4	-48.1	18.1	0.00e+00	0	42	0	427819008	64	4386
2026-01-29 13:37:32.36	303.38	8.94	-46.3	-48.0	18.3	0.00e+00	0	42	0	433061888	64	4329
2026-01-29 13:37:35.39	303.90	8.92	-46.4	-48.2	18.1	0.00e+00	0	42	0	439353344	64	4406
2026-01-29 13:37:38.41	304.42	8.90	-46.4	-48.2	18.0	0.00e+00	0	42	0	444596224	64	4427
2026-01-29 13:37:41.44	304.94	8.87	-46.1	-47.9	18.4	0.00e+00	0	42	0	449839104	64	4260
2026-01-29 13:37:44.46	305.46	8.85	-46.1	-47.8	18.5	0.00e+00	0	42	0	456130560	63	4486
2026-01-29 13:37:47.49	305.98	8.82	-46.2	-48.0	18.3	0.00e+00	0	42	0	461373440	63	4561
2026-01-29 13:37:50.51	306.49	8.79	-46.1	-47.8	18.4	0.00e+00	0	42	0	467664896	63	4492
2026-01-29 13:37:53.53	307.01	8.76	-45.6	-47.1	19.1	0.00e+00	0	42	0	472907776	63	4142
2026-01-29 13:37:56.56	307.52	8.73	-45.0	-46.4	19.8	0.00e+00	0	42	0	478150656	62	4036
2026-01-29 13:37:59.58	308.03	8.69	-45.1	-46.6	19.5	0.00e+00	0	42	0	484442112	61	4379
2026-01-29 13:38:02.61	308.54	8.66	-45.7	-47.3	18.9	0.00e+00	0	42	0	489684992	61	4736
2026-01-29 13:38:05.63	309.05	8.62	-45.8	-47.5	18.8	0.00e+00	0	42	0	495976448	62	4562
2026-01-29 13:38:08.65	309.56	8.58	-45.7	-47.3	18.9	0.00e+00	0	42	0	501219328	62	4453
2026-01-29 13:38:11.68	310.07	8.54	-45.8	-47.4	18.8	0.00e+00	0	42	0	506462208	62	4525
2026-01-29 13:38:14.71	310.58	8.49	-45.9	-47.6	18.6	0.00e+00	0	42	0	512753664	62	4609
2026-01-29 13:38:17.73	311.08	8.45	-45.4	-47.0	19.1	0.00e+00	0	42	0	517996544	62	4292
2026-01-29 13:38:20.75	311.58	8.40	-45.4	-47.0	19.2	0.00e+00	0	42	0	524288000	62	4306
2026-01-29 13:38:23.78	312.08	8.35	-45.6	-47.1	19.0	0.00e+00	0	42	0	529530880	62	4389
2026-01-29 13:38:26.80	312.58	8.30	-46.1	-47.9	18.3	0.00e+00	0	42	0	534773760	62	4783
2026-01-29 13:38:29.82	313.08	8.24	-46.4	-48.2	18.0	0.00e+00	0	42	0	541065216	63	4668
2026-01-29 13:38:32.84	313.57	8.19	-46.5	-48.3	17.9	0.00e+00	0	42	0	546308096	63	4738
2026-01-29 13:38:35.87	314.07	8.13	-46.1	-47.8	18.3	0.00e+00	0	42	0	552599552	63	4479
2026-01-29 13:38:38.89	314.56	8.08	-45.6	-47.2	18.9	0.00e+00	0	42	0	557842432	63	4183
2026-01-29 13:38:41.92	315.05	8.02	-44.9	-46.4	19.7	0.00e+00	0	42	0	563085312	61	4250
2026-01-29 13:38:44.94	315.54	7.95	-44.5	-45.8	20.1	0.00e+00	0	42	0	569376768	60	4238
2026-01-29 13:38:47.97	316.02	7.89	-44.6	-46.0	20.0	0.00e+00	0	42	0	574619648	60	4308
2026-01-29 13:38:51.00	316.51	7.83	-44.9	-46.3	19.7	0.00e+00	0	42	0	580911104	60	4483
2026-01-29 13:38:54.02	316.99	7.76	-44.9	-46.3	19.7	0.00e+00	0	42	0	586153984	60	4471
2026-01-29 13:38:57.03	317.47	7.69	-45.0	-46.5	19.6	0.00e+00	0	42	0	592445440	60	4560
2026-01-29 13:39:00.06	317.95	7.62	-45.2	-46.7	19.3	0.00e+00	0	42	0	597688320	60	4662
2026-01-29 13:39:03.09	318.42	7.55	-45.2	-46.7	19.3	0.00e+00	0	42	0	602931200	61	4401
2026-01-29 13:39:06.10	318.89	7.48	-45.2	-46.7	19.3	0.00e+00	0	42	0	609222656	61	4423
2026-01-29 13:39:09.13	319.36	7.41	-45.2	-46.7	19.3	0.00e+00	0	42	0	614465536	61	4408
2026-01-29 13:39:12.15	319.83	7.33	-44.7	-46.1	19.9	0.00e+00	0	42	0	620756992	61	4109
2026-01-29 13:39:15.18	320.30	7.26	-44.7	-46.1	19.9	0.00e+00	0	42	0	625999872	60	4366
2026-01-29 13:39:18.20	320.76	7.18	-45.1	-46.6	19.4	0.00e+00	0	42	0	631242752	60	4631
2026-01-29 13:39:21.22	321.22	7.10	-45.6	-47.2	18.8	0.00e+00	0	42	0	637534208	61	4702
2026-01-29 13:39:24.24	321.68	7.02	-45.5	-47.1	18.9	0.00e+00	0	42	0	642777088	62	4351
2026-01-29 13:39:27.27	322.14	6.94	-45.7	-47.4	18.6	0.00e+00	0	42	0	649068544	62	4495
2026-01-29 13:39:30.29	322.59	6.86	-45.6	-47.3	18.7	0.00e+00	0	42	0	654311424	62	4442
2026-01-29 13:39:33.31	323.04	6.77	-46.0	-47.8	18.2	0.00e+00	0	42	0	659554304	62	4726
2026-01-29 13:39:36.34	323.49	6.69	-46.7	-48.7	17.4	0.00e+00	0	42	0	665845760	63	4928
2026-01-29 13:39:39.36	323.94	6.60	-46.8	-48.9	17.0	0.00e+00	0	42	0	671088640	64	4779
2026-01-29 13:39:42.38	324.38	6.51	-46.6	-48.6	17.3	0.00e+00	0	42	0	677380096	64	4612
2026-01-29 13:39:45.40	324.82	6.42	-46.9	-49.0	16.9	0.00e+00	0	42	0	682622976	64	4833
2026-01-29 13:39:48.42	325.26	6.33	-47.0	-49.2	16.7	0.00e+00	0	42	0	687865856	64	4971
2026-01-29 13:39:51.45	325.70	6.24	-46.9	-49.1	16.7	0.00e+00	0	42	0	694157312	64	4921
2026-01-29 13:39:54.47	326.13	6.15	-46.6	-48.7	17.1	0.00e+00	0	42	0	699400192	64	4671
2026-01-29 13:39:57.49	326.56	6.06	-46.7	-48.8	17.0	0.00e+00	0	42	0	705691648	64	4738
2026-01-29 13:40:00.52	326.99	5.97	-47.1	-49.3	16.5	0.00e+00	0	42	0	710934528	64	5039
2026-01-29 13:40:03.54	327.41	5.87	-47.1	-49.4	16.4	0.00e+00	0	42	0	717225984	64	5074
2026-01-29 13:40:06.56	327.83	5.78	-47.3	-49.6	16.2	0.00e+00	0	42	0	722468864	65	4921
2026-01-29 13:40:09.58	328.25	5.68	-47.7	-50.3	15.5	0.00e+00	0	42	0	727711744	66	5034
2026-01-29 13:40:12.61	328.67	5.58	-48.3	-51.3	14.4	7.00e-07	0	42	0	734003200	67	5339
2026-01-29 13:40:15.62	329.08	5.48	-48.4	-51.6	14.1	7.00e-07	0	42	0	739246080	67	5495
2026-01-29 13:40:18.65	329.50	5.38	-48.0	-50.8	14.9	0.00e+00	0	42	0	745537536	67	5037
2026-01-29 13:40:21.67	329.91	5.28	-47.7	-50.4	15.4	0.00e+00	0	42	0	750780416	67	4775
2026-01-29 13:40:24.68	330.31	5.18	-47.6	-50.1	15.6	0.00e+00	0	42	0	756023296	66	4924
2026-01-29 13:40:27.71	330.72	5.08	-47.7	-50.3	15.4	0.00e+00	0	42	0	762314752	66	5030
2026-01-29 13:40:30.73	331.12	4.98	-52.1	-66.5	3.7	5.11e-05	32	42	0	767557632	74	20369
2026-01-29 13:40:33.75	331.51	4.88	-53.0	-68.0	3.8	1.49e+00	0	42	104	767557632	76	21561
2026-01-29 13:40:36.78	331.91	4.77	-53.3	-68.3	3.8	1.49e+00	0	42	104	767557632	77	21153
2026-01-29 13:40:39.80	332.30	4.67	-53.3	-68.3	3.8	1.49e+00	0	42	104	767557632	77	21026
2026-01-29 13:40:42.82	332.69	4.56	-53.1	-68.1	3.8	1.49e+00	0	42	104	767557632	77	20675
2026-01-29 13:40:45.85	333.08	4.46	-53.3	-68.3	3.8	1.49e+00	0	42	104	767557632	77	21048
2026-01-29 13:40:48.87	333.47	4.35	-53.4	-68.4	3.8	1.49e+00	0	42	104	767557632	77	21267
2026-01-29 13:40:51.89	333.85	4.24	-53.4	-68.4	3.8	1.49e+00	0	42	104	767557632	77	21411
2026-01-29 13:40:54.92	334.23	4.14	-53.3	-68.3	3.8	1.49e+00	0	42	104	767557632	77	21089
2026-01-29 13:40:57.94	334.60	4.03	-53.3	-68.3	3.8	1.49e+00	0	42	104	767557632	77	21072
2026-01-29 13:41:00.97	334.98	3.92	-53.2	-68.2	3.8	1.49e+00	0	42	104	767557632	77	20903
2026-01-29 13:41:03.99	335.35	3.81	-53.2	-68.2	3.8	1.49e+00	0	42	104	767557632	77	20846
2026-01-29 13:41:07.01	335.72	3.70	-53.2	-68.2	3.8	1.49e+00	0	42	104	767557632	77	20810
2026-01-29 13:41:10.04	336.09	3.59	-53.2	-68.1	3.8	1.49e+00	0	42	104	767557632	77	20762
2026-01-29 13:41:13.06	336.45	3.48	-53.2	-68.1	3.8	1.49e+00	0	42	104	767557632	77	20749
2026-01-29 13:41:16.09	336.81	3.37	-53.2	-68.1	3.8	1.49e+00	0	42	104	767557632	77	20695
2026-01-29 13:41:19.11	337.17	3.26	-53.2	-68.1	3.8	1.49e+00	0	42	104	767557632	77	20723
2026-01-29 13:41:22.14	337.52	3.14	-53.1	-68.1	3.8	1.49e+00	0	42	104	767557632	77	20644
2026-01-29 13:41:25.16	337.88	3.03	-53.1	-68.1	3.8	1.49e+00	0	42	104	767557632	77	20623
2026-01-29 13:41:28.18	338.23	2.92	-53.1	-68.1	3.8	1.49e+00	0	42	104	767557632	77	20602
2026-01-29 13:41:31.21	338.58	2.81	-53.1	-68.1	3.8	1.49e+00	0	42	104	767557632	77	20553
2026-01-29 13:41:34.23	338.92	2.69	-53.1	-68.0	3.8	1.49e+00	0	42	104	767557632	77	20538
2026-01-29 13:41:37.25	339.26	2.58	-53.1	-68.0	3.8	1.49e+00	0	42	104	767557632	77	20492
2026-01-29 13:41:40.27	339.60	2.46	-53.1	-68.0	3.8	1.49e+00	0	42	104	767557632	77	20464
2026-01-29 13:41:43.29	339.94	2.35	-53.1	-68.0	3.8	1.49e+00	0	42	104	767557632	77	20529
2026-01-29 13:41:46.32	340.28	2.23	-53.1	-68.0	3.8	1.49e+00	0	42	104	767557632	77	20524
2026-01-29 13:41:49.34	340.61	2.12	-53.1	-68.0	3.8	1.49e+00	0	42	104	767557632	77	20480
2026-01-29 13:41:52.37	340.94	2.00	-53.1	-68.0	3.8	1.49e+00	0	42	104	767557632	77	20479

#Closed at: 2026-01-29 13:41:52
#Recorded file [767 MB]: D:/lorett/data/31041_260129_163220.dat