passes_logs/2026/01/29/R3.2S_Murmansk/R3.2S_Murmansk__20260129_084751_KANOPUS-V_5_rec.log

#Pass ID: 20260129_084751_KANOPUS-V 5
#Satellite: KANOPUS-V 5
#Configuration: KANOPUS-V_8320
#almurnet v.1.7.20251203
#Start time: 2026-01-29 08:47:51

#Version: 2.2.20231116
#Station: R3.2S_Murmansk
#Location: 33.079688 lon 68.888172 lat
#TLE: 1 43876U 18111A   26028.96352095  .00005379  00000+0  22781-3 0  9993
#TLE: 2 43876  97.3678 297.2251 0001862  88.5725 271.5725 15.23575473393590

#Time	Az	El	Level	Level2	SNR	BER	BlckErr	Temp	State	Recorded	gain1	gain2
2026-01-29 08:47:51.33	188.69	2.02	-54.6	-63.5	3.8	7.46e-01	0	40	0	0	80	10196
2026-01-29 08:47:54.34	188.87	2.22	-54.6	-63.4	3.8	7.44e-01	0	40	104	0	80	10141
2026-01-29 08:47:57.37	189.06	2.42	-54.8	-63.6	3.8	7.46e-01	0	41	104	0	80	10412
2026-01-29 08:48:00.39	189.24	2.63	-54.8	-63.6	3.8	7.47e-01	0	41	104	0	80	10352
2026-01-29 08:48:03.41	189.43	2.84	-54.7	-63.6	3.8	7.44e-01	0	41	104	0	80	10317
2026-01-29 08:48:06.44	189.62	3.05	-54.7	-63.5	3.8	7.45e-01	0	41	104	0	80	10227
2026-01-29 08:48:09.46	189.82	3.26	-54.6	-63.4	3.8	7.46e-01	0	41	104	0	80	10082
2026-01-29 08:48:12.48	190.01	3.47	-54.4	-63.2	3.8	7.45e-01	0	41	104	0	80	9857
2026-01-29 08:48:15.51	190.22	3.69	-54.0	-62.8	3.8	7.45e-01	0	41	104	0	80	9491
2026-01-29 08:48:18.53	190.42	3.91	-53.2	-62.1	3.8	7.44e-01	0	41	104	0	78	9739
2026-01-29 08:48:21.56	190.63	4.13	-53.2	-61.9	3.8	7.45e-01	0	41	104	0	78	9584
2026-01-29 08:48:24.59	190.85	4.35	-53.1	-61.6	3.8	7.46e-01	0	41	104	0	78	9274
2026-01-29 08:48:27.61	191.06	4.58	-52.8	-60.4	3.8	7.45e-01	0	41	104	0	77	8528
2026-01-29 08:48:30.63	191.29	4.80	-50.2	-54.3	6.7	6.46e-01	0	41	0	16777216	72	5649
2026-01-29 08:48:33.66	191.51	5.03	-47.8	-50.9	10.1	6.02e-01	0	42	0	62914560	67	5054
2026-01-29 08:48:36.68	191.74	5.26	-46.9	-49.7	5.6	7.07e-01	0	41	104	96468992	65	4978
2026-01-29 08:48:39.71	191.98	5.50	-46.1	-48.7	12.0	5.91e-01	0	42	0	138412032	64	4699
2026-01-29 08:48:42.74	192.22	5.74	-45.9	-48.6	12.3	5.89e-01	0	42	0	184549376	63	4886
2026-01-29 08:48:45.76	192.46	5.98	-45.8	-48.4	12.5	5.89e-01	0	41	0	230686720	63	4813
2026-01-29 08:48:48.78	192.71	6.22	-45.5	-48.1	12.8	5.89e-01	0	42	0	276824064	63	4623
2026-01-29 08:48:51.80	192.96	6.46	-45.5	-48.0	12.9	5.89e-01	0	42	0	322961408	62	4833
2026-01-29 08:48:54.83	193.22	6.71	-45.4	-47.9	13.0	5.87e-01	0	42	0	371195904	62	4809
2026-01-29 08:48:57.86	193.49	6.96	-45.3	-47.7	13.3	5.86e-01	0	42	0	417333248	62	4675
2026-01-29 08:49:00.87	193.75	7.21	-44.9	-47.2	13.8	5.86e-01	0	42	0	463470592	61	4655
2026-01-29 08:49:03.90	194.03	7.47	-44.8	-47.1	13.8	5.87e-01	0	42	0	509607936	61	4604
2026-01-29 08:49:06.92	194.31	7.73	-44.6	-46.8	14.1	5.87e-01	0	42	0	555745280	61	4463
2026-01-29 08:49:09.94	194.60	7.99	-44.5	-46.7	14.2	5.85e-01	0	42	0	603979776	60	4676
2026-01-29 08:49:12.95	194.89	8.25	-44.4	-46.6	14.3	5.86e-01	0	42	0	648019968	60	4627
2026-01-29 08:49:15.98	195.19	8.52	-44.3	-46.5	14.4	5.86e-01	0	42	0	694157312	60	4563
2026-01-29 08:49:19.00	195.50	8.79	-44.3	-46.5	14.5	5.86e-01	0	42	0	740294656	60	4584
2026-01-29 08:49:22.02	195.81	9.07	-44.4	-46.6	14.4	5.86e-01	0	42	0	786432000	60	4623
2026-01-29 08:49:25.04	196.14	9.35	-44.1	-46.4	14.5	5.86e-01	0	42	0	834666496	60	4529
2026-01-29 08:49:28.05	196.46	9.63	-44.1	-46.4	14.6	5.86e-01	0	42	0	880803840	60	4518
2026-01-29 08:49:31.08	196.80	9.92	-44.1	-46.4	14.6	5.86e-01	0	42	0	926941184	60	4536
2026-01-29 08:49:34.11	197.15	10.21	-43.8	-46.0	14.9	5.86e-01	0	42	0	973078528	59	4595
2026-01-29 08:49:37.13	197.50	10.50	-43.6	-45.8	15.1	5.86e-01	0	42	0	1021313024	59	4480
2026-01-29 08:49:40.15	197.86	10.80	-43.6	-45.8	15.2	5.85e-01	0	42	0	1067450368	59	4466
2026-01-29 08:49:43.17	198.23	11.10	-43.4	-45.6	15.3	5.85e-01	0	42	0	1113587712	58	4600
2026-01-29 08:49:46.20	198.61	11.41	-43.1	-45.3	15.6	5.86e-01	0	42	0	1159725056	58	4443
2026-01-29 08:49:49.22	199.00	11.72	-43.2	-45.4	15.5	5.86e-01	0	42	0	1205862400	58	4502
2026-01-29 08:49:52.24	199.39	12.03	-42.9	-45.1	15.8	5.85e-01	0	42	0	1251999744	57	4624
2026-01-29 08:49:55.26	199.80	12.35	-42.8	-45.0	15.9	5.86e-01	0	42	0	1298137088	57	4551
2026-01-29 08:49:58.29	200.22	12.67	-42.8	-45.0	15.8	5.86e-01	0	42	0	1344274432	57	4573
2026-01-29 08:50:01.31	200.65	13.00	-42.7	-45.0	15.9	5.86e-01	0	42	0	1390411776	57	4570
2026-01-29 08:50:04.34	201.10	13.33	-42.4	-44.7	16.0	5.86e-01	0	42	0	1438646272	56	4688
2026-01-29 08:50:07.36	201.55	13.67	-42.4	-44.7	16.1	5.84e-01	0	42	0	1484783616	56	4693
2026-01-29 08:50:10.38	202.01	14.01	-42.0	-44.2	16.5	5.86e-01	0	43	0	1530920960	56	4426
2026-01-29 08:50:13.41	202.49	14.36	-42.1	-44.3	16.6	5.86e-01	0	42	0	1577058304	55	4731
2026-01-29 08:50:16.43	202.98	14.71	-41.7	-43.9	17.0	5.86e-01	0	42	0	1623195648	55	4518
2026-01-29 08:50:19.45	203.49	15.06	-41.8	-44.0	16.9	5.98e-01	0	42	0	1671430144	55	4551
2026-01-29 08:50:22.48	204.01	15.43	-41.6	-43.8	16.9	5.97e-01	0	42	0	1717567488	55	4469
2026-01-29 08:50:25.49	204.54	15.79	-41.6	-43.8	17.0	5.94e-01	0	43	0	1761607680	55	4448
2026-01-29 08:50:28.51	205.09	16.16	-41.4	-43.6	17.1	5.97e-01	0	42	0	1807745024	54	4622
2026-01-29 08:50:31.53	205.66	16.54	-41.3	-43.3	17.3	5.97e-01	0	43	0	1855979520	54	4489
2026-01-29 08:50:34.56	206.24	16.92	-41.2	-43.3	17.4	5.94e-01	0	42	0	1902116864	54	4460
2026-01-29 08:50:37.58	206.84	17.31	-41.1	-43.3	17.4	5.96e-01	0	43	0	1948254208	54	4455
2026-01-29 08:50:40.61	207.46	17.70	-40.9	-43.0	17.6	5.96e-01	0	42	0	1994391552	53	4577
2026-01-29 08:50:43.63	208.09	18.10	-40.6	-42.6	17.9	5.97e-01	0	42	0	2040528896	53	4381
2026-01-29 08:50:46.65	208.75	18.50	-40.3	-42.3	18.1	5.97e-01	0	43	0	2088763392	52	4467
2026-01-29 08:50:49.67	209.42	18.91	-40.2	-42.2	18.1	5.99e-01	0	42	0	2134900736	52	4427
2026-01-29 08:50:52.69	210.12	19.32	-40.1	-42.2	18.2	5.98e-01	0	42	0	2181038080	52	4415
2026-01-29 08:50:55.72	210.84	19.74	-40.1	-42.3	18.1	5.97e-01	0	42	0	2227175424	52	4471
2026-01-29 08:50:58.75	211.58	20.17	-40.1	-42.3	18.1	5.97e-01	0	42	0	2273312768	52	4446
2026-01-29 08:51:01.77	212.34	20.60	-40.1	-42.2	18.2	5.98e-01	0	42	0	2319450112	51	4699
2026-01-29 08:51:04.79	213.13	21.03	-39.5	-41.6	18.6	5.99e-01	0	43	0	2365587456	51	4344
2026-01-29 08:51:07.81	213.94	21.47	-39.4	-41.4	18.8	6.00e-01	0	42	0	2411724800	50	4500
2026-01-29 08:51:10.83	214.78	21.91	-39.3	-41.1	18.9	5.98e-01	0	42	0	2459959296	50	4389
2026-01-29 08:51:13.85	215.65	22.35	-39.1	-41.1	19.0	5.97e-01	0	43	0	2506096640	49	4615
2026-01-29 08:51:16.88	216.54	22.80	-38.8	-40.9	19.0	5.98e-01	0	42	0	2552233984	49	4535
2026-01-29 08:51:19.90	217.47	23.25	-39.0	-41.1	18.9	5.99e-01	0	42	0	2598371328	49	4646
2026-01-29 08:51:22.92	218.42	23.71	-39.0	-41.2	18.9	5.98e-01	0	42	0	2644508672	49	4676
2026-01-29 08:51:25.94	219.40	24.16	-38.7	-40.9	19.0	5.96e-01	0	43	0	2692743168	49	4519
2026-01-29 08:51:28.96	220.42	24.62	-38.6	-40.8	19.1	5.97e-01	0	42	0	2738880512	49	4487
2026-01-29 08:51:31.98	221.47	25.08	-38.4	-40.6	19.3	5.97e-01	0	42	0	2785017856	48	4615
2026-01-29 08:51:35.00	222.55	25.54	-38.0	-40.1	19.6	5.97e-01	0	43	0	2831155200	48	4347
2026-01-29 08:51:38.02	223.67	26.00	-36.8	-38.8	19.3	5.95e-01	0	43	0	2877292544	45	4448
2026-01-29 08:51:41.04	224.82	26.46	-36.9	-38.9	19.3	5.95e-01	0	43	0	2923429888	45	4531
2026-01-29 08:51:44.06	226.01	26.91	-37.2	-39.4	18.9	5.96e-01	0	43	0	2969567232	45	4770
2026-01-29 08:51:47.09	227.24	27.37	-37.1	-39.4	18.9	5.97e-01	0	42	0	3015704576	45	4794
2026-01-29 08:51:50.12	228.51	27.81	-36.8	-38.9	19.2	5.99e-01	0	42	0	3061841920	45	4523
2026-01-29 08:51:53.14	229.81	28.26	-36.9	-39.1	19.2	5.99e-01	0	43	0	3110076416	45	4615
2026-01-29 08:51:56.16	231.16	28.69	-36.9	-39.2	19.1	5.93e-01	0	43	0	3156213760	45	4683
2026-01-29 08:51:59.18	232.54	29.12	-36.5	-38.5	19.5	5.95e-01	0	43	0	3202351104	45	4312
2026-01-29 08:52:02.20	233.96	29.54	-36.6	-38.7	19.3	5.96e-01	0	42	0	3248488448	44	4667
2026-01-29 08:52:05.22	235.42	29.94	-36.6	-38.8	19.3	6.00e-01	0	42	0	3294625792	44	4736
2026-01-29 08:52:08.24	236.92	30.33	-37.0	-39.3	19.0	5.98e-01	0	43	0	3340763136	44	5039
2026-01-29 08:52:11.26	238.46	30.71	-36.8	-39.0	19.1	5.99e-01	0	42	0	3386900480	44	4856
2026-01-29 08:52:14.29	240.04	31.08	-36.4	-38.6	19.4	5.97e-01	0	43	0	3433037824	44	4599
2026-01-29 08:52:17.31	241.66	31.42	-36.8	-38.9	19.2	5.97e-01	0	43	0	3479175168	44	4807
2026-01-29 08:52:20.33	243.31	31.75	-36.6	-38.7	19.4	5.97e-01	0	43	0	3527409664	44	4674
2026-01-29 08:52:23.36	245.00	32.06	-36.8	-38.8	19.3	5.97e-01	0	42	0	3573547008	44	4741
2026-01-29 08:52:26.38	246.71	32.34	-36.5	-38.4	19.5	5.94e-01	0	43	0	3619684352	44	4535
2026-01-29 08:52:29.41	248.47	32.60	-36.3	-38.4	19.6	5.94e-01	0	43	0	3665821696	44	4514
2026-01-29 08:52:32.43	250.24	32.83	-36.4	-38.5	19.5	5.96e-01	0	43	0	3714056192	44	4552
2026-01-29 08:52:35.45	252.05	33.03	-36.7	-38.9	19.2	5.97e-01	0	43	0	3760193536	44	4793
2026-01-29 08:52:38.47	253.87	33.21	-36.8	-39.1	19.2	5.99e-01	0	43	0	3806330880	44	4898
2026-01-29 08:52:41.50	255.72	33.36	-36.8	-39.0	19.2	6.03e-01	0	43	0	3852468224	44	4829
2026-01-29 08:52:44.52	257.58	33.48	-36.6	-38.7	19.5	6.03e-01	0	43	0	3898605568	44	4658
2026-01-29 08:52:47.54	259.45	33.56	-36.7	-38.8	19.3	6.02e-01	0	43	0	3944742912	44	4757
2026-01-29 08:52:50.57	261.34	33.62	-36.6	-38.8	19.3	6.04e-01	0	42	0	3990880256	44	4740
2026-01-29 08:52:53.58	263.21	33.64	-36.8	-39.0	19.3	6.03e-01	0	43	0	4037017600	44	4832
2026-01-29 08:52:56.60	265.10	33.63	-36.5	-38.6	19.5	6.01e-01	0	43	0	4083154944	44	4599
2026-01-29 08:52:59.62	266.98	33.59	-36.5	-38.5	19.5	6.01e-01	0	42	0	4129292288	44	4572
2026-01-29 08:53:02.63	268.85	33.51	-36.4	-38.5	19.6	6.01e-01	0	42	0	4177526784	44	4554
2026-01-29 08:53:05.65	270.71	33.41	-36.6	-38.6	19.6	6.02e-01	0	43	0	4223664128	44	4601
2026-01-29 08:53:08.67	272.56	33.27	-36.7	-38.9	19.3	5.86e-01	0	43	0	4269801472	44	4771
2026-01-29 08:53:11.70	274.39	33.10	-36.5	-38.7	19.4	5.86e-01	0	43	0	4315938816	44	4657
2026-01-29 08:53:14.73	276.21	32.91	-36.7	-38.7	19.5	5.85e-01	0	43	0	4362076160	44	4680
2026-01-29 08:53:17.75	277.99	32.69	-36.2	-38.1	19.8	5.85e-01	0	43	0	4408213504	44	4381
2026-01-29 08:53:20.77	279.74	32.44	-36.2	-38.2	19.8	5.86e-01	0	43	0	4454350848	44	4405
2026-01-29 08:53:23.79	281.47	32.17	-36.2	-38.2	19.8	5.86e-01	0	42	0	4500488192	44	4439
2026-01-29 08:53:26.82	283.17	31.87	-36.2	-38.2	19.8	5.85e-01	0	42	0	4546625536	44	4402
2026-01-29 08:53:29.84	284.83	31.55	-36.2	-38.2	19.8	6.04e-01	0	42	0	4594860032	44	4404
2026-01-29 08:53:32.87	286.46	31.21	-36.4	-38.4	19.6	6.01e-01	0	43	0	4640997376	44	4543
2026-01-29 08:53:35.90	288.05	30.86	-36.3	-38.3	19.7	6.05e-01	0	43	0	4687134720	44	4453
2026-01-29 08:53:38.92	289.60	30.48	-36.5	-38.5	19.6	6.02e-01	0	43	0	4733272064	44	4582
2026-01-29 08:53:41.94	291.11	30.10	-36.5	-38.6	19.5	6.03e-01	0	42	0	4781506560	44	4620
2026-01-29 08:53:44.97	292.59	29.70	-36.6	-38.6	19.5	6.03e-01	0	42	0	4827643904	44	4627
2026-01-29 08:53:47.99	294.02	29.29	-36.4	-38.2	19.8	6.01e-01	0	43	0	4873781248	44	4436
2026-01-29 08:53:51.01	295.41	28.86	-36.3	-38.1	19.9	6.02e-01	0	43	0	4919918592	44	4343
2026-01-29 08:53:54.03	296.76	28.43	-36.4	-38.2	19.9	6.01e-01	0	43	0	4966055936	44	4424
2026-01-29 08:53:57.05	298.08	28.00	-36.7	-38.6	19.6	6.02e-01	0	43	0	5012193280	44	4619
2026-01-29 08:54:00.07	299.35	27.55	-36.8	-38.7	19.5	5.99e-01	0	42	0	5058330624	44	4678
2026-01-29 08:54:03.09	300.59	27.11	-36.7	-38.5	19.6	5.98e-01	0	43	0	5104467968	44	4598
2026-01-29 08:54:06.12	301.79	26.65	-36.9	-38.8	19.4	6.03e-01	0	43	0	5150605312	44	4743
2026-01-29 08:54:09.13	302.95	26.20	-37.0	-38.9	19.3	6.00e-01	0	43	0	5198839808	44	4785
2026-01-29 08:54:12.16	304.08	25.74	-37.2	-39.1	19.3	6.01e-01	0	43	0	5244977152	45	4622
2026-01-29 08:54:15.18	305.17	25.29	-37.3	-39.2	19.2	5.98e-01	0	42	0	5291114496	45	4694
2026-01-29 08:54:18.20	306.23	24.83	-37.2	-39.1	19.2	5.99e-01	0	43	0	5337251840	45	4633
2026-01-29 08:54:21.22	307.25	24.37	-37.2	-39.2	19.1	6.04e-01	0	43	0	5383389184	45	4681
2026-01-29 08:54:24.24	308.25	23.92	-37.6	-39.5	18.9	6.03e-01	0	43	0	5431623680	45	4854
2026-01-29 08:54:27.27	309.21	23.47	-37.7	-39.6	18.9	6.02e-01	0	42	0	5475663872	46	4645
2026-01-29 08:54:30.30	310.14	23.01	-37.6	-39.5	19.0	6.01e-01	0	43	0	5521801216	46	4552
2026-01-29 08:54:33.33	311.05	22.57	-37.7	-39.5	18.9	6.00e-01	0	43	0	5570035712	46	4568
2026-01-29 08:54:36.35	311.92	22.12	-37.9	-39.7	18.9	6.04e-01	0	43	0	5616173056	46	4680
2026-01-29 08:54:39.37	312.77	21.68	-38.1	-40.0	18.7	5.88e-01	0	42	0	5662310400	46	4865
2026-01-29 08:54:42.39	313.59	21.25	-38.2	-40.2	18.4	6.02e-01	0	43	0	5708447744	47	4664
2026-01-29 08:54:45.41	314.38	20.81	-38.4	-40.3	18.4	5.96e-01	0	43	0	5754585088	47	4759
2026-01-29 08:54:48.44	315.16	20.39	-38.4	-40.3	18.4	6.00e-01	0	42	0	5802819584	47	4723
2026-01-29 08:54:51.47	315.90	19.96	-38.6	-40.4	18.3	5.99e-01	0	42	0	5848956928	47	4781
2026-01-29 08:54:54.49	316.63	19.54	-38.7	-40.6	18.2	6.02e-01	0	42	0	5895094272	47	4873
2026-01-29 08:54:57.51	317.33	19.13	-39.8	-41.8	18.5	6.00e-01	0	43	0	5941231616	50	4755
2026-01-29 08:55:00.54	318.01	18.72	-40.0	-42.1	18.3	6.03e-01	0	42	0	5987368960	50	4923
2026-01-29 08:55:03.56	318.67	18.32	-40.2	-42.4	18.1	6.00e-01	0	42	0	6033506304	51	4771
2026-01-29 08:55:06.58	319.31	17.92	-40.4	-42.6	17.9	5.96e-01	0	43	0	6079643648	51	4904
2026-01-29 08:55:09.60	319.94	17.53	-40.6	-42.7	17.9	5.88e-01	0	43	0	6125780992	51	4959
2026-01-29 08:55:12.62	320.54	17.14	-40.7	-42.8	17.7	5.98e-01	0	42	0	6171918336	52	4712
2026-01-29 08:55:15.63	321.12	16.76	-40.7	-42.7	17.8	6.01e-01	0	42	0	6220152832	52	4653
2026-01-29 08:55:18.66	321.70	16.38	-40.8	-42.8	17.7	6.01e-01	0	42	0	6266290176	52	4726
2026-01-29 08:55:21.68	322.25	16.01	-41.0	-42.9	17.6	5.96e-01	0	43	0	6312427520	52	4808
2026-01-29 08:55:24.70	322.79	15.65	-41.1	-43.1	17.5	5.86e-01	0	43	0	6358564864	52	4907
2026-01-29 08:55:27.72	323.31	15.29	-41.2	-43.3	17.3	5.86e-01	0	42	0	6404702208	52	4997
2026-01-29 08:55:30.74	323.82	14.93	-41.5	-43.7	17.0	5.86e-01	0	42	0	6452936704	53	4955
2026-01-29 08:55:33.76	324.32	14.58	-42.9	-43.8	16.9	5.86e-01	0	43	0	6499074048	56	4201
2026-01-29 08:55:36.78	324.80	14.23	-53.8	-62.7	3.8	7.46e-01	0	43	104	6515851264	78	10436
2026-01-29 08:55:39.80	325.27	13.89	-53.8	-62.6	3.8	7.47e-01	0	43	104	6515851264	78	10394
2026-01-29 08:55:42.82	325.73	13.55	-53.8	-62.7	3.8	7.46e-01	0	42	104	6515851264	78	10415
2026-01-29 08:55:45.85	326.17	13.22	-53.7	-62.6	3.8	7.46e-01	0	43	104	6515851264	78	10304
2026-01-29 08:55:48.86	326.61	12.90	-53.7	-62.6	3.8	7.45e-01	0	43	104	6515851264	78	10314
2026-01-29 08:55:51.88	327.03	12.57	-53.7	-62.5	3.8	7.46e-01	0	43	104	6515851264	78	10207
2026-01-29 08:55:54.91	327.44	12.25	-53.7	-62.5	3.8	7.45e-01	0	42	104	6515851264	78	10236
2026-01-29 08:55:57.93	327.84	11.94	-53.6	-62.4	3.8	7.47e-01	0	43	104	6515851264	78	10164
2026-01-29 08:56:00.96	328.24	11.63	-53.6	-62.4	3.8	7.46e-01	0	43	104	6515851264	78	10139
2026-01-29 08:56:03.97	328.62	11.32	-53.5	-62.4	3.8	7.47e-01	0	42	104	6515851264	78	10112
2026-01-29 08:56:07.00	328.99	11.02	-53.5	-62.4	3.8	7.45e-01	0	42	104	6515851264	78	10106
2026-01-29 08:56:10.01	329.36	10.72	-53.4	-62.2	3.8	7.45e-01	0	43	104	6515851264	78	9941
2026-01-29 08:56:13.03	329.71	10.43	-53.4	-62.3	3.8	7.47e-01	0	42	104	6515851264	78	9965
2026-01-29 08:56:16.06	330.06	10.14	-53.4	-62.2	3.8	7.46e-01	0	43	104	6515851264	78	9894
2026-01-29 08:56:19.08	330.40	9.85	-53.4	-62.3	3.8	7.46e-01	0	43	104	6515851264	78	9949
2026-01-29 08:56:22.10	330.73	9.57	-53.3	-62.1	3.8	7.46e-01	0	43	104	6515851264	78	9796
2026-01-29 08:56:25.13	331.06	9.29	-53.3	-62.2	3.8	7.45e-01	0	42	104	6515851264	78	9837
2026-01-29 08:56:28.15	331.37	9.02	-53.3	-62.1	3.8	7.44e-01	0	43	104	6515851264	78	9747
2026-01-29 08:56:31.17	331.68	8.75	-53.3	-62.1	3.8	7.46e-01	0	43	104	6515851264	78	9803
2026-01-29 08:56:34.20	331.99	8.48	-53.2	-62.0	3.8	7.47e-01	0	43	104	6515851264	78	9703
2026-01-29 08:56:37.21	332.29	8.21	-53.2	-62.0	3.8	7.44e-01	0	43	104	6515851264	78	9689
2026-01-29 08:56:40.24	332.58	7.95	-53.2	-62.0	3.8	7.46e-01	0	42	104	6515851264	78	9656
2026-01-29 08:56:43.26	332.86	7.69	-53.2	-62.0	3.8	7.44e-01	0	42	104	6515851264	78	9643
2026-01-29 08:56:46.27	333.14	7.44	-53.1	-61.9	3.8	7.45e-01	0	42	104	6515851264	78	9578
2026-01-29 08:56:49.30	333.41	7.18	-53.1	-61.9	3.8	7.46e-01	0	42	104	6515851264	78	9569
2026-01-29 08:56:52.33	333.68	6.93	-53.0	-61.8	3.8	7.44e-01	0	43	104	6515851264	78	9493
2026-01-29 08:56:55.35	333.94	6.68	-53.0	-61.8	3.8	7.45e-01	0	43	104	6515851264	77	10052
2026-01-29 08:56:58.37	334.20	6.44	-52.9	-61.7	3.8	7.46e-01	0	43	104	6515851264	77	9932
2026-01-29 08:57:01.39	334.45	6.20	-52.9	-61.7	3.8	7.47e-01	0	43	104	6515851264	77	9882
2026-01-29 08:57:04.41	334.70	5.96	-52.8	-61.6	3.8	7.46e-01	0	43	104	6515851264	77	9808
2026-01-29 08:57:07.44	334.94	5.72	-52.4	-61.2	3.8	7.47e-01	0	43	104	6515851264	76	9896
2026-01-29 08:57:10.47	335.18	5.49	-51.2	-60.0	3.8	7.46e-01	0	43	104	6515851264	74	9646
2026-01-29 08:57:13.49	335.41	5.26	-51.7	-60.5	3.8	7.45e-01	0	43	104	6515851264	74	10214
2026-01-29 08:57:16.51	335.64	5.03	-51.9	-60.7	3.8	7.46e-01	0	43	104	6515851264	75	9885
2026-01-29 08:57:19.53	335.86	4.80	-53.7	-62.5	3.8	7.46e-01	0	42	104	6515851264	77	10868
2026-01-29 08:57:22.55	336.08	4.57	-54.1	-62.9	3.8	7.48e-01	0	43	104	6515851264	78	10764
2026-01-29 08:57:25.57	336.30	4.35	-54.2	-63.1	3.8	7.45e-01	0	43	104	6515851264	79	10303
2026-01-29 08:57:28.59	336.51	4.13	-54.0	-62.9	3.8	7.45e-01	0	43	104	6515851264	79	10068
2026-01-29 08:57:31.62	336.72	3.91	-54.0	-62.9	3.8	7.46e-01	0	42	104	6515851264	79	10091
2026-01-29 08:57:34.64	336.92	3.70	-54.2	-63.0	3.8	7.45e-01	0	42	104	6515851264	79	10230
2026-01-29 08:57:37.66	337.13	3.48	-54.2	-63.0	3.8	7.45e-01	0	43	104	6515851264	79	10251
2026-01-29 08:57:40.68	337.32	3.27	-54.1	-62.9	3.8	7.46e-01	0	43	104	6515851264	79	10149
2026-01-29 08:57:43.71	337.52	3.06	-54.0	-62.9	3.8	7.45e-01	0	42	104	6515851264	79	10098
2026-01-29 08:57:46.73	337.71	2.85	-54.0	-62.8	3.8	7.45e-01	0	42	104	6515851264	79	10053
2026-01-29 08:57:49.75	337.90	2.65	-54.0	-62.8	3.8	7.44e-01	0	43	104	6515851264	79	10021
2026-01-29 08:57:52.77	338.08	2.44	-54.0	-62.8	3.8	7.45e-01	0	42	104	6515851264	79	9995
2026-01-29 08:57:55.79	338.26	2.24	-54.0	-62.8	3.8	7.44e-01	0	43	104	6515851264	79	9985
2026-01-29 08:57:58.82	338.44	2.04	-53.9	-62.8	3.8	7.45e-01	0	43	104	6515851264	79	9975
2026-01-29 08:58:01.84	338.62	1.84	-53.9	-62.8	3.8	7.46e-01	0	43	104	6515851264	79	9994

#Closed at: 2026-01-29 08:58:01
#Recorded file [6515 MB]: D:/lorett/data/31041_260129_114751.dat