passes_logs/2026/01/29/R3.2S_Murmansk/R3.2S_Murmansk__20260129_071347_KANOPUS-V_5_rec.log

#Pass ID: 20260129_071347_KANOPUS-V 5
#Satellite: KANOPUS-V 5
#Configuration: KANOPUS-V_8320
#almurnet v.1.7.20251203
#Start time: 2026-01-29 07:13:48

#Version: 2.2.20231116
#Station: R3.2S_Murmansk
#Location: 33.079688 lon 68.888172 lat
#TLE: 1 43876U 18111A   26028.96352095  .00005379  00000+0  22781-3 0  9993
#TLE: 2 43876  97.3678 297.2251 0001862  88.5725 271.5725 15.23575473393590

#Time	Az	El	Level	Level2	SNR	BER	BlckErr	Temp	State	Recorded	gain1	gain2
2026-01-29 07:13:48.76	144.49	2.10	-54.6	-63.5	3.8	7.44e-01	0	40	0	0	80	10181
2026-01-29 07:13:51.77	144.44	2.32	-54.6	-63.4	3.8	7.45e-01	0	40	104	0	80	10115
2026-01-29 07:13:54.79	144.38	2.53	-54.7	-63.5	3.8	7.46e-01	0	40	104	0	80	10276
2026-01-29 07:13:57.81	144.33	2.75	-54.8	-63.6	3.8	7.47e-01	0	41	104	0	80	10350
2026-01-29 07:14:00.83	144.27	2.97	-54.7	-63.5	3.8	7.44e-01	0	40	104	0	80	10249
2026-01-29 07:14:03.86	144.21	3.19	-54.5	-63.4	3.8	7.45e-01	0	41	104	0	80	10069
2026-01-29 07:14:06.89	144.15	3.42	-54.4	-63.2	3.8	7.45e-01	0	41	104	0	80	9875
2026-01-29 07:14:09.91	144.09	3.64	-54.1	-63.0	3.8	7.45e-01	0	41	104	0	80	9607
2026-01-29 07:14:12.93	144.03	3.87	-53.7	-62.6	3.8	7.44e-01	0	41	104	0	79	9731
2026-01-29 07:14:15.95	143.96	4.11	-52.8	-61.4	3.8	7.45e-01	0	41	104	0	77	9555
2026-01-29 07:14:18.97	143.90	4.34	-46.8	-49.4	11.0	6.01e-01	0	41	0	33554432	65	4801
2026-01-29 07:14:21.99	143.83	4.58	-45.4	-47.8	12.5	5.95e-01	0	41	0	79691776	62	4734
2026-01-29 07:14:25.01	143.76	4.82	-45.8	-48.2	12.2	5.97e-01	0	41	0	125829120	62	4943
2026-01-29 07:14:28.04	143.69	5.06	-47.7	-50.6	9.8	6.08e-01	0	41	0	171966464	65	5522
2026-01-29 07:14:31.05	143.62	5.31	-52.2	-60.3	3.8	7.45e-01	0	41	104	216006656	74	9978
2026-01-29 07:14:34.08	143.54	5.56	-44.6	-46.8	13.3	6.01e-01	0	41	0	245366784	61	4481
2026-01-29 07:14:37.10	143.47	5.81	-44.9	-47.2	13.1	6.03e-01	0	42	0	291504128	61	4655
2026-01-29 07:14:40.12	143.39	6.07	-44.7	-46.9	13.4	6.03e-01	0	41	0	337641472	61	4544
2026-01-29 07:14:43.13	143.31	6.33	-44.4	-46.6	13.7	6.01e-01	0	42	0	383778816	60	4613
2026-01-29 07:14:46.16	143.23	6.59	-44.1	-46.3	14.1	6.06e-01	0	42	0	432013312	60	4451
2026-01-29 07:14:49.19	143.14	6.86	-44.2	-46.4	13.9	6.04e-01	0	42	0	478150656	60	4529
2026-01-29 07:14:52.21	143.05	7.13	-44.1	-46.3	14.1	6.04e-01	0	41	0	524288000	60	4451
2026-01-29 07:14:55.24	142.97	7.40	-44.1	-46.3	14.1	6.06e-01	0	42	0	570425344	59	4752
2026-01-29 07:14:58.25	142.87	7.68	-44.1	-46.3	14.1	6.04e-01	0	42	0	616562688	59	4740
2026-01-29 07:15:01.28	142.78	7.96	-43.9	-46.1	14.3	6.05e-01	0	42	0	664797184	59	4641
2026-01-29 07:15:04.30	142.68	8.25	-43.7	-45.9	14.6	6.04e-01	0	42	0	710934528	59	4523
2026-01-29 07:15:07.32	142.59	8.54	-43.7	-45.8	14.6	6.04e-01	0	42	0	757071872	59	4491
2026-01-29 07:15:10.34	142.48	8.84	-43.6	-45.8	14.7	6.02e-01	0	42	0	803209216	59	4464
2026-01-29 07:15:13.36	142.38	9.14	-43.7	-45.8	14.7	6.06e-01	0	42	0	849346560	59	4484
2026-01-29 07:15:16.38	142.27	9.44	-43.5	-45.6	14.9	6.06e-01	0	42	0	895483904	58	4602
2026-01-29 07:15:19.40	142.16	9.75	-43.4	-45.5	15.0	6.05e-01	0	42	0	941621248	58	4565
2026-01-29 07:15:22.41	142.05	10.06	-43.2	-45.3	15.2	6.07e-01	0	42	0	987758592	58	4448
2026-01-29 07:15:25.42	141.93	10.38	-43.2	-45.3	15.2	6.03e-01	0	42	0	1033895936	58	4448
2026-01-29 07:15:28.44	141.81	10.71	-43.1	-45.0	15.4	6.01e-01	0	42	0	1080033280	57	4596
2026-01-29 07:15:31.46	141.69	11.04	-42.8	-44.8	15.6	6.02e-01	0	42	0	1126170624	57	4453
2026-01-29 07:15:34.48	141.56	11.38	-42.8	-44.7	15.8	6.05e-01	0	42	0	1174405120	57	4421
2026-01-29 07:15:37.50	141.43	11.72	-42.4	-44.3	16.1	6.02e-01	0	42	0	1220542464	56	4467
2026-01-29 07:15:40.51	141.29	12.07	-42.3	-44.1	16.3	6.04e-01	0	42	0	1266679808	56	4370
2026-01-29 07:15:43.53	141.15	12.43	-42.0	-43.8	16.6	6.03e-01	0	42	0	1312817152	56	4208
2026-01-29 07:15:46.56	141.00	12.79	-42.0	-43.8	16.7	6.01e-01	0	42	0	1358954496	55	4454
2026-01-29 07:15:49.58	140.85	13.16	-41.9	-43.7	16.8	6.05e-01	0	42	0	1405091840	55	4411
2026-01-29 07:15:52.60	140.70	13.54	-41.8	-43.6	16.8	6.02e-01	0	42	0	1451229184	55	4349
2026-01-29 07:15:55.63	140.54	13.93	-41.8	-43.6	16.8	6.03e-01	0	42	0	1497366528	55	4362
2026-01-29 07:15:58.65	140.37	14.32	-41.5	-43.4	17.1	6.04e-01	0	42	0	1543503872	55	4248
2026-01-29 07:16:01.67	140.20	14.72	-41.5	-43.4	17.0	6.05e-01	0	42	0	1591738368	54	4519
2026-01-29 07:16:04.69	140.02	15.13	-41.3	-43.2	17.1	6.05e-01	0	42	0	1637875712	54	4421
2026-01-29 07:16:07.71	139.84	15.55	-41.3	-43.2	17.2	6.05e-01	0	42	0	1684013056	54	4417
2026-01-29 07:16:10.73	139.65	15.98	-41.2	-43.2	17.2	6.04e-01	0	42	0	1730150400	54	4403
2026-01-29 07:16:13.75	139.45	16.42	-41.3	-43.3	17.1	6.03e-01	0	42	0	1776287744	54	4445
2026-01-29 07:16:16.77	139.25	16.87	-41.2	-43.2	17.3	6.02e-01	0	42	0	1824522240	54	4396
2026-01-29 07:16:19.80	139.04	17.33	-41.2	-43.1	17.3	6.00e-01	0	42	0	1870659584	54	4367
2026-01-29 07:16:22.82	138.82	17.80	-41.3	-43.1	17.3	6.05e-01	0	42	0	1916796928	54	4385
2026-01-29 07:16:25.84	138.59	18.29	-41.2	-43.1	17.4	5.97e-01	0	43	0	1962934272	54	4341
2026-01-29 07:16:28.86	138.35	18.78	-40.8	-42.7	17.6	6.02e-01	0	42	0	2009071616	53	4409
2026-01-29 07:16:31.89	138.10	19.29	-40.7	-42.5	17.8	6.00e-01	0	42	0	2055208960	53	4326
2026-01-29 07:16:34.91	137.84	19.81	-40.5	-42.2	18.0	5.98e-01	0	43	0	2101346304	52	4434
2026-01-29 07:16:37.95	137.57	20.34	-40.2	-42.0	18.2	6.02e-01	0	42	0	2147483648	52	4310
2026-01-29 07:16:40.96	137.29	20.89	-40.1	-41.8	18.3	6.02e-01	0	43	0	2195718144	52	4230
2026-01-29 07:16:43.99	137.00	21.45	-40.2	-42.0	18.2	6.01e-01	0	42	0	2241855488	52	4312
2026-01-29 07:16:47.01	136.70	22.03	-40.3	-42.2	18.1	6.01e-01	0	43	0	2287992832	52	4393
2026-01-29 07:16:50.03	136.38	22.62	-40.6	-42.4	17.9	5.97e-01	0	43	0	2334130176	52	4525
2026-01-29 07:16:53.05	136.05	23.23	-40.6	-42.3	17.9	6.04e-01	0	43	0	2380267520	52	4493
2026-01-29 07:16:56.08	135.70	23.86	-40.5	-42.3	18.0	6.01e-01	0	43	0	2428502016	52	4459
2026-01-29 07:16:59.10	135.33	24.50	-40.3	-42.2	18.2	5.96e-01	0	43	0	2472542208	52	4399
2026-01-29 07:17:02.13	134.95	25.17	-40.4	-42.2	18.1	5.95e-01	0	42	0	2518679552	52	4423
2026-01-29 07:17:05.15	134.54	25.85	-40.4	-42.2	18.2	5.98e-01	0	42	0	2564816896	52	4396
2026-01-29 07:17:08.17	134.12	26.56	-40.6	-42.4	18.0	5.99e-01	0	42	0	2613051392	52	4544
2026-01-29 07:17:11.19	133.68	27.28	-40.7	-42.7	17.8	6.01e-01	0	43	0	2659188736	52	4654
2026-01-29 07:17:14.21	133.21	28.03	-40.8	-42.8	17.8	5.91e-01	0	43	0	2705326080	52	4710
2026-01-29 07:17:17.23	132.72	28.80	-40.7	-42.7	17.8	5.91e-01	0	42	0	2751463424	52	4673
2026-01-29 07:17:20.25	132.20	29.59	-40.7	-42.8	17.8	5.91e-01	0	42	0	2797600768	52	4727
2026-01-29 07:17:23.27	131.65	30.41	-40.7	-42.8	17.8	5.91e-01	0	43	0	2845835264	52	4726
2026-01-29 07:17:26.29	131.06	31.25	-40.4	-42.6	18.0	5.90e-01	0	43	0	2891972608	52	4605
2026-01-29 07:17:29.32	130.44	32.12	-40.1	-42.4	18.1	5.91e-01	0	43	0	2938109952	52	4526
2026-01-29 07:17:32.34	129.79	33.02	-40.1	-42.3	18.1	6.00e-01	0	43	0	2984247296	52	4492
2026-01-29 07:17:35.36	129.09	33.94	-39.9	-42.0	18.4	5.98e-01	0	43	0	3030384640	51	4592
2026-01-29 07:17:38.38	128.35	34.90	-39.3	-41.5	18.8	5.92e-01	0	43	0	3076521984	50	4564
2026-01-29 07:17:41.40	127.56	35.88	-39.0	-41.4	18.8	5.96e-01	0	43	0	3122659328	50	4544
2026-01-29 07:17:44.42	126.72	36.89	-38.7	-40.9	19.1	5.84e-01	0	43	0	3168796672	49	4502
2026-01-29 07:17:47.45	125.81	37.93	-38.3	-40.4	19.4	5.88e-01	0	43	0	3214934016	48	4514
2026-01-29 07:17:50.48	124.85	39.01	-38.3	-40.8	19.3	5.81e-01	0	43	0	3263168512	48	4720
2026-01-29 07:17:53.49	123.81	40.10	-38.1	-40.3	19.3	5.97e-01	0	43	0	3309305856	48	4493
2026-01-29 07:17:56.51	122.70	41.23	-36.8	-39.1	19.2	5.92e-01	0	43	0	3355443200	45	4642
2026-01-29 07:17:59.53	121.50	42.39	-36.9	-39.0	19.2	5.90e-01	0	42	0	3401580544	45	4563
2026-01-29 07:18:02.56	120.20	43.58	-36.7	-38.9	19.3	6.02e-01	0	43	0	3449815040	45	4543
2026-01-29 07:18:05.58	118.79	44.78	-36.9	-38.9	19.3	5.97e-01	0	43	0	3495952384	45	4541
2026-01-29 07:18:08.61	117.27	46.02	-37.0	-39.2	19.1	6.02e-01	0	43	0	3542089728	45	4684
2026-01-29 07:18:11.64	115.62	47.27	-37.1	-39.0	19.3	5.95e-01	0	43	0	3586129920	45	4568
2026-01-29 07:18:14.66	113.82	48.53	-37.7	-39.8	18.9	5.96e-01	0	43	0	3634364416	46	4734
2026-01-29 07:18:17.68	111.87	49.81	-37.8	-39.8	18.8	5.90e-01	0	43	0	3680501760	46	4738
2026-01-29 07:18:20.70	109.75	51.08	-38.1	-40.3	18.5	5.99e-01	0	43	0	3726639104	46	5003
2026-01-29 07:18:23.71	107.43	52.34	-38.4	-40.6	18.3	5.86e-01	0	43	0	3772776448	47	4878
2026-01-29 07:18:26.74	104.89	53.60	-39.8	-42.0	18.6	5.96e-01	0	43	0	3818913792	50	4829
2026-01-29 07:18:29.76	102.13	54.82	-39.4	-41.4	18.9	5.98e-01	0	43	0	3867148288	50	4510
2026-01-29 07:18:32.78	99.12	56.00	-39.5	-41.5	18.8	5.98e-01	0	43	0	3913285632	50	4596
2026-01-29 07:18:35.80	95.84	57.13	-38.9	-40.9	19.2	5.98e-01	0	43	0	3959422976	49	4499
2026-01-29 07:18:38.82	92.29	58.18	-38.6	-40.7	19.4	5.89e-01	0	43	0	4005560320	49	4397
2026-01-29 07:18:41.85	88.44	59.14	-38.8	-40.8	19.3	5.98e-01	0	43	0	4051697664	49	4481
2026-01-29 07:18:44.87	84.32	59.99	-38.6	-40.5	19.5	5.95e-01	0	43	0	4097835008	49	4339
2026-01-29 07:18:47.90	79.93	60.71	-38.9	-40.9	19.3	5.96e-01	0	43	0	4143972352	49	4518
2026-01-29 07:18:50.92	75.32	61.28	-38.2	-40.3	19.7	5.98e-01	0	43	0	4190109696	48	4443
2026-01-29 07:18:53.94	70.52	61.69	-38.2	-40.3	19.6	5.98e-01	0	43	0	4236247040	48	4485
2026-01-29 07:18:56.96	65.59	61.93	-38.2	-40.3	19.6	5.98e-01	0	43	0	4284481536	48	4458
2026-01-29 07:18:59.98	60.61	61.98	-38.3	-40.5	19.5	5.99e-01	0	43	0	4330618880	48	4575
2026-01-29 07:19:03.00	55.64	61.84	-38.4	-40.8	19.3	6.00e-01	0	42	0	4376756224	48	4730
2026-01-29 07:19:06.02	50.77	61.53	-38.3	-40.4	19.5	5.99e-01	0	43	0	4422893568	48	4536
2026-01-29 07:19:09.05	46.03	61.05	-38.5	-40.7	19.4	5.78e-01	0	43	0	4469030912	48	4701
2026-01-29 07:19:12.07	41.52	60.41	-39.0	-41.4	18.9	5.91e-01	0	43	0	4517265408	48	5058
2026-01-29 07:19:15.09	37.26	59.63	-39.0	-41.0	19.2	5.80e-01	0	43	0	4563402752	48	4818
2026-01-29 07:19:18.12	33.26	58.72	-39.1	-41.2	19.1	5.94e-01	0	43	0	4609540096	48	4957
2026-01-29 07:19:21.15	29.54	57.72	-39.8	-42.0	18.6	5.79e-01	0	43	0	4655677440	50	4844
2026-01-29 07:19:24.17	26.12	56.63	-39.4	-41.3	19.0	5.97e-01	0	43	0	4701814784	50	4475
2026-01-29 07:19:27.20	22.96	55.48	-39.6	-41.7	18.7	5.92e-01	0	43	0	4747952128	50	4661
2026-01-29 07:19:30.22	20.07	54.28	-39.8	-42.1	18.4	5.96e-01	0	42	0	4794089472	50	4894
2026-01-29 07:19:33.25	17.40	53.04	-39.5	-41.5	18.9	5.99e-01	0	43	0	4840226816	50	4578
2026-01-29 07:19:36.26	14.98	51.79	-39.5	-41.4	19.0	5.96e-01	0	43	0	4888461312	50	4523
2026-01-29 07:19:39.28	12.76	50.52	-39.2	-41.2	19.1	5.92e-01	0	43	0	4934598656	50	4416
2026-01-29 07:19:42.30	10.72	49.25	-39.3	-41.4	19.0	5.91e-01	0	43	0	4980736000	50	4535
2026-01-29 07:19:45.33	8.84	47.98	-39.0	-41.2	19.2	5.91e-01	0	43	0	5026873344	50	4393
2026-01-29 07:19:48.35	7.11	46.73	-38.9	-40.9	19.4	5.91e-01	0	43	0	5073010688	49	4502
2026-01-29 07:19:51.38	5.52	45.49	-38.4	-40.4	19.5	5.91e-01	0	43	0	5119148032	48	4545
2026-01-29 07:19:54.40	4.06	44.27	-38.3	-40.5	19.5	5.91e-01	0	42	0	5165285376	48	4549
2026-01-29 07:19:57.42	2.71	43.08	-36.8	-38.8	19.5	5.91e-01	0	43	0	5211422720	45	4467
2026-01-29 07:20:00.45	1.46	41.91	-36.8	-38.7	19.6	5.98e-01	0	43	0	5257560064	45	4399
2026-01-29 07:20:03.47	0.30	40.76	-37.1	-39.3	19.2	5.94e-01	0	43	0	5305794560	45	4720
2026-01-29 07:20:06.50	359.22	39.65	-37.4	-39.5	19.1	6.01e-01	0	43	0	5351931904	45	4829
2026-01-29 07:20:09.52	358.21	38.57	-37.3	-39.4	19.1	6.02e-01	0	43	0	5398069248	45	4773
2026-01-29 07:20:12.55	357.28	37.51	-37.6	-39.7	18.9	5.98e-01	0	43	0	5444206592	45	4978
2026-01-29 07:20:15.57	356.40	36.48	-37.9	-39.9	18.7	6.02e-01	0	43	0	5492441088	46	4781
2026-01-29 07:20:18.60	355.58	35.49	-37.9	-39.7	18.9	6.00e-01	0	43	0	5538578432	46	4703
2026-01-29 07:20:21.62	354.82	34.52	-38.2	-40.0	18.7	6.04e-01	0	43	0	5584715776	46	4838
2026-01-29 07:20:24.65	354.10	33.58	-38.7	-40.6	18.3	6.03e-01	0	43	0	5630853120	47	4873
2026-01-29 07:20:27.67	353.42	32.67	-40.2	-42.2	18.3	5.91e-01	0	43	0	5676990464	50	4941
2026-01-29 07:20:30.70	352.79	31.79	-40.6	-42.6	18.1	6.03e-01	0	43	0	5723127808	51	4882
2026-01-29 07:20:33.72	352.19	30.94	-40.9	-42.8	17.9	6.02e-01	0	43	0	5769265152	52	4738
2026-01-29 07:20:36.75	351.62	30.10	-41.1	-43.0	17.7	6.01e-01	0	43	0	5815402496	52	4857
2026-01-29 07:20:39.77	351.08	29.30	-41.2	-43.2	17.6	5.83e-01	0	43	0	5863636992	53	4669
2026-01-29 07:20:42.79	350.58	28.52	-41.3	-43.3	17.5	5.86e-01	0	43	0	5909774336	53	4721
2026-01-29 07:20:45.81	350.10	27.76	-41.5	-43.3	17.4	6.02e-01	0	43	0	5955911680	53	4754
2026-01-29 07:20:48.83	349.64	27.03	-41.5	-43.3	17.5	5.99e-01	0	43	0	6002049024	53	4752
2026-01-29 07:20:51.85	349.21	26.32	-41.3	-43.1	17.5	6.04e-01	0	43	0	6048186368	53	4631
2026-01-29 07:20:54.88	348.79	25.62	-41.1	-42.9	17.7	5.78e-01	0	42	0	6096420864	53	4527
2026-01-29 07:20:57.90	348.40	24.95	-41.1	-42.8	17.9	5.71e-01	0	43	0	6142558208	53	4490
2026-01-29 07:21:00.92	348.03	24.30	-40.9	-42.7	17.8	5.95e-01	0	43	0	6186598400	53	4416
2026-01-29 07:21:03.94	347.67	23.66	-40.9	-42.7	17.9	5.76e-01	0	43	0	6232735744	53	4400
2026-01-29 07:21:06.96	347.33	23.05	-40.9	-42.7	17.9	6.00e-01	0	43	0	6280970240	53	4410
2026-01-29 07:21:09.98	347.01	22.45	-40.9	-42.7	17.8	6.01e-01	0	43	0	6327107584	53	4431
2026-01-29 07:21:13.01	346.69	21.86	-41.0	-42.8	17.7	5.97e-01	0	43	0	6373244928	53	4491
2026-01-29 07:21:16.03	346.40	21.29	-41.0	-42.9	17.6	5.98e-01	0	43	0	6419382272	53	4525
2026-01-29 07:21:19.06	346.11	20.74	-41.0	-43.0	17.6	5.98e-01	0	43	0	6467616768	53	4560
2026-01-29 07:21:22.09	345.84	20.20	-41.1	-43.1	17.5	5.99e-01	0	43	0	6513754112	53	4618
2026-01-29 07:21:25.11	345.57	19.67	-41.1	-43.1	17.5	6.00e-01	0	43	0	6559891456	53	4600
2026-01-29 07:21:28.13	345.32	19.16	-41.2	-43.2	17.4	5.99e-01	0	43	0	6606028800	53	4677
2026-01-29 07:21:31.16	345.08	18.66	-41.2	-43.2	17.3	5.99e-01	0	43	0	6652166144	53	4684
2026-01-29 07:21:34.18	344.85	18.17	-41.2	-43.3	17.3	5.91e-01	0	43	0	6698303488	53	4709
2026-01-29 07:21:37.21	344.62	17.69	-41.3	-43.4	17.2	5.91e-01	0	43	0	6744440832	53	4776
2026-01-29 07:21:40.24	344.41	17.23	-41.3	-43.4	17.2	5.91e-01	0	43	0	6790578176	53	4768
2026-01-29 07:21:43.26	344.20	16.77	-41.6	-43.6	17.0	5.90e-01	0	43	0	6838812672	53	4919
2026-01-29 07:21:46.28	344.00	16.33	-53.7	-62.6	3.8	7.44e-01	0	43	104	6876561408	77	10981
2026-01-29 07:21:49.31	343.81	15.90	-53.7	-62.5	3.8	7.44e-01	0	43	104	6876561408	77	10823
2026-01-29 07:21:52.33	343.62	15.47	-53.7	-62.5	3.8	7.46e-01	0	43	104	6876561408	78	10207
2026-01-29 07:21:55.35	343.44	15.06	-53.6	-62.5	3.8	7.46e-01	0	43	104	6876561408	78	10180
2026-01-29 07:21:58.37	343.27	14.65	-53.6	-62.4	3.8	7.44e-01	0	43	104	6876561408	78	10125
2026-01-29 07:22:01.40	343.10	14.25	-53.6	-62.4	3.8	7.46e-01	0	43	104	6876561408	78	10103
2026-01-29 07:22:04.42	342.94	13.86	-53.5	-62.4	3.8	7.47e-01	0	43	104	6876561408	78	10097
2026-01-29 07:22:07.44	342.78	13.48	-53.5	-62.3	3.8	7.45e-01	0	43	104	6876561408	78	10030
2026-01-29 07:22:10.46	342.63	13.11	-53.5	-62.3	3.8	7.45e-01	0	43	104	6876561408	78	9972
2026-01-29 07:22:13.49	342.49	12.74	-53.4	-62.3	3.8	7.46e-01	0	43	104	6876561408	78	9980
2026-01-29 07:22:16.51	342.34	12.38	-53.4	-62.2	3.8	7.45e-01	0	43	104	6876561408	78	9942
2026-01-29 07:22:19.52	342.21	12.03	-53.4	-62.2	3.8	7.47e-01	0	43	104	6876561408	78	9903
2026-01-29 07:22:22.55	342.07	11.68	-53.3	-62.1	3.8	7.45e-01	0	43	104	6876561408	78	9817
2026-01-29 07:22:25.58	341.94	11.34	-53.3	-62.1	3.8	7.46e-01	0	43	104	6876561408	78	9801
2026-01-29 07:22:28.60	341.82	11.00	-53.3	-62.1	3.8	7.45e-01	0	43	104	6876561408	78	9783
2026-01-29 07:22:31.62	341.70	10.68	-53.3	-62.1	3.8	7.45e-01	0	43	104	6876561408	78	9786
2026-01-29 07:22:34.64	341.58	10.35	-53.2	-62.0	3.8	7.46e-01	0	43	104	6876561408	78	9709
2026-01-29 07:22:37.66	341.47	10.04	-53.2	-62.0	3.8	7.45e-01	0	43	104	6876561408	78	9663
2026-01-29 07:22:40.69	341.35	9.72	-53.2	-62.0	3.8	7.46e-01	0	43	104	6876561408	78	9661
2026-01-29 07:22:43.70	341.25	9.42	-53.2	-62.0	3.8	7.44e-01	0	43	104	6876561408	78	9671
2026-01-29 07:22:46.72	341.14	9.12	-53.1	-61.9	3.8	7.45e-01	0	43	104	6876561408	78	9570
2026-01-29 07:22:49.74	341.04	8.82	-53.1	-61.9	3.8	7.44e-01	0	43	104	6876561408	78	9511
2026-01-29 07:22:52.77	340.94	8.53	-53.1	-61.9	3.8	7.46e-01	0	43	104	6876561408	78	9505
2026-01-29 07:22:55.78	340.85	8.24	-53.1	-61.9	3.8	7.45e-01	0	43	104	6876561408	78	9529
2026-01-29 07:22:58.80	340.75	7.95	-52.9	-61.7	3.8	7.46e-01	0	43	104	6876561408	77	9934
2026-01-29 07:23:01.81	340.66	7.68	-52.9	-61.7	3.8	7.45e-01	0	42	104	6876561408	77	9931
2026-01-29 07:23:04.84	340.57	7.40	-52.9	-61.7	3.8	7.43e-01	0	42	104	6876561408	77	9942
2026-01-29 07:23:07.86	340.49	7.13	-52.9	-61.8	3.8	7.46e-01	0	43	104	6876561408	77	9950
2026-01-29 07:23:10.88	340.40	6.86	-52.8	-61.6	3.8	7.47e-01	0	43	104	6876561408	77	9756
2026-01-29 07:23:13.90	340.32	6.60	-52.8	-61.6	3.8	7.46e-01	0	43	104	6876561408	77	9770
2026-01-29 07:23:16.92	340.24	6.33	-52.8	-61.6	3.8	7.46e-01	0	43	104	6876561408	77	9802
2026-01-29 07:23:19.95	340.16	6.08	-52.8	-61.6	3.8	7.44e-01	0	43	104	6876561408	77	9805
2026-01-29 07:23:22.98	340.09	5.82	-52.6	-61.4	3.8	7.46e-01	0	43	104	6876561408	77	9581
2026-01-29 07:23:25.99	340.01	5.57	-52.6	-61.4	3.8	7.47e-01	0	43	104	6876561408	77	9604
2026-01-29 07:23:29.01	339.94	5.32	-52.6	-61.5	3.8	7.45e-01	0	43	104	6876561408	77	9614
2026-01-29 07:23:32.03	339.87	5.08	-52.6	-61.5	3.8	7.46e-01	0	43	104	6876561408	76	10213
2026-01-29 07:23:35.05	339.80	4.84	-53.2	-62.0	3.8	7.46e-01	0	43	104	6876561408	76	10891
2026-01-29 07:23:38.07	339.74	4.60	-54.0	-62.8	3.8	7.46e-01	0	43	104	6876561408	78	10586
2026-01-29 07:23:41.09	339.67	4.36	-54.3	-63.0	3.8	7.44e-01	0	43	104	6876561408	79	10292
2026-01-29 07:23:44.11	339.61	4.13	-54.2	-63.1	3.8	7.45e-01	0	43	104	6876561408	79	10323
2026-01-29 07:23:47.13	339.55	3.90	-54.0	-62.8	3.8	7.45e-01	0	43	104	6876561408	79	10006
2026-01-29 07:23:50.15	339.49	3.67	-54.0	-62.8	3.8	7.45e-01	0	43	104	6876561408	79	9988
2026-01-29 07:23:53.17	339.43	3.44	-54.0	-62.9	3.8	7.46e-01	0	43	104	6876561408	79	10115
2026-01-29 07:23:56.19	339.37	3.22	-54.0	-62.8	3.8	7.45e-01	0	43	104	6876561408	79	9993
2026-01-29 07:23:59.22	339.31	3.00	-53.9	-62.8	3.8	7.45e-01	0	43	104	6876561408	79	9967
2026-01-29 07:24:02.25	339.26	2.78	-53.9	-62.7	3.8	7.45e-01	0	43	104	6876561408	79	9927
2026-01-29 07:24:05.26	339.21	2.56	-53.9	-62.8	3.8	7.46e-01	0	43	104	6876561408	79	9945
2026-01-29 07:24:08.28	339.15	2.35	-53.9	-62.7	3.8	7.44e-01	0	43	104	6876561408	79	9855
2026-01-29 07:24:11.30	339.10	2.14	-53.8	-62.7	3.8	7.45e-01	0	43	104	6876561408	79	9851
2026-01-29 07:24:14.33	339.05	1.93	-53.8	-62.7	3.8	7.46e-01	0	43	104	6876561408	79	9847

#Closed at: 2026-01-29 07:24:14
#Recorded file [6876 MB]: D:/lorett/data/31041_260129_101348.dat