passes_logs/2026/01/29/R3.2S_Murmansk/R3.2S_Murmansk__20260129_124338_FENGYUN_3D_rec.log

#Pass ID: 20260129_124338_FENGYUN 3D
#Satellite: FENGYUN 3D
#Configuration: FENGYUN 3D
#almurnet v.1.7.20251203
#Start time: 2026-01-29 12:43:39

#Version: 2.2.20231116
#Station: R3.2S_Murmansk
#Location: 33.079688 lon 68.888172 lat
#TLE: 1 43010U 17072A   26028.95797775  .00000451  00000+0  23492-3 0  9991
#TLE: 2 43010  98.9958   0.9922 0002505  85.7480 274.3981 14.19703224425237

#Time	Az	El	Level	Level2	SNR	BER	BlckErr	Temp	State	Recorded	gain1	gain2
2026-01-29 12:43:39.77	179.47	2.10	-52.3	-64.2	3.8	8.46e-01	0	40	0	0	76	13971
2026-01-29 12:43:43.79	179.61	2.35	-52.2	-64.1	3.8	8.46e-01	0	39	104	0	75	14584
2026-01-29 12:43:47.82	179.76	2.61	-52.2	-64.1	3.8	8.46e-01	0	40	104	0	75	14691
2026-01-29 12:43:51.86	179.91	2.87	-52.2	-64.0	3.8	8.46e-01	0	40	104	0	75	14523
2026-01-29 12:43:55.88	180.06	3.12	-52.2	-64.1	3.8	8.45e-01	0	40	104	0	75	14557
2026-01-29 12:43:59.91	180.21	3.38	-52.1	-63.5	3.8	8.45e-01	0	40	104	0	75	13725
2026-01-29 12:44:03.94	180.37	3.65	-52.0	-62.7	3.8	8.47e-01	0	40	104	0	75	12462
2026-01-29 12:44:07.97	180.53	3.91	-51.8	-60.9	4.1	8.45e-01	0	40	104	0	75	10115
2026-01-29 12:44:12.00	180.69	4.18	-49.1	-52.1	10.8	5.84e-03	0	41	0	13631488	70	4907
2026-01-29 12:44:16.03	180.85	4.45	-45.3	-46.8	16.3	0.00e+00	0	40	0	36700160	62	4207
2026-01-29 12:44:20.06	181.02	4.73	-44.2	-45.5	17.6	0.00e+00	0	41	0	58720256	60	4072
2026-01-29 12:44:24.10	181.19	5.00	-45.6	-47.2	15.9	0.00e+00	0	41	0	81788928	61	4669
2026-01-29 12:44:28.13	181.36	5.28	-51.8	-61.4	4.0	3.26e-01	0	41	0	102760448	74	11408
2026-01-29 12:44:32.17	181.54	5.57	-42.5	-43.6	19.9	0.00e+00	0	41	0	124780544	57	3877
2026-01-29 12:44:36.20	181.72	5.85	-42.2	-43.2	20.3	0.00e+00	0	41	0	146800640	56	3920
2026-01-29 12:44:40.23	181.90	6.14	-41.9	-42.9	20.5	0.00e+00	0	41	0	168820736	55	4023
2026-01-29 12:44:44.27	182.09	6.43	-41.8	-42.7	20.7	0.00e+00	0	41	0	191889408	55	3938
2026-01-29 12:44:48.30	182.28	6.72	-41.7	-42.6	20.9	0.00e+00	0	41	0	214958080	55	3897
2026-01-29 12:44:52.33	182.47	7.02	-41.6	-42.5	21.0	0.00e+00	0	41	0	236978176	55	3847
2026-01-29 12:44:56.37	182.66	7.32	-41.4	-42.3	21.2	0.00e+00	0	41	0	260046848	54	3984
2026-01-29 12:45:00.40	182.86	7.62	-41.5	-42.4	21.1	0.00e+00	0	41	0	283115520	54	4038
2026-01-29 12:45:04.42	183.07	7.93	-41.3	-42.3	21.3	0.00e+00	0	41	0	305135616	54	3963
2026-01-29 12:45:08.45	183.28	8.24	-41.4	-42.4	21.2	0.00e+00	0	41	0	328204288	54	4020
2026-01-29 12:45:12.48	183.49	8.55	-41.1	-42.0	21.6	0.00e+00	0	41	0	351272960	54	3847
2026-01-29 12:45:16.52	183.71	8.87	-41.0	-41.9	21.7	0.00e+00	0	41	0	373293056	54	3796
2026-01-29 12:45:20.54	183.93	9.19	-40.8	-41.7	21.9	0.00e+00	0	41	0	396361728	53	3934
2026-01-29 12:45:24.56	184.15	9.52	-40.8	-41.7	21.9	0.00e+00	0	41	0	418381824	53	3941
2026-01-29 12:45:28.60	184.38	9.85	-40.7	-41.6	22.0	0.00e+00	0	41	0	441450496	53	3890
2026-01-29 12:45:32.63	184.62	10.18	-40.7	-41.6	22.1	0.00e+00	0	41	0	464519168	53	3870
2026-01-29 12:45:36.65	184.86	10.51	-40.6	-41.5	22.2	0.00e+00	0	41	0	486539264	52	4063
2026-01-29 12:45:40.68	185.10	10.86	-40.7	-41.5	22.2	0.00e+00	0	41	0	509607936	52	4077
2026-01-29 12:45:44.69	185.35	11.20	-40.6	-41.4	22.3	0.00e+00	0	41	0	531628032	52	4041
2026-01-29 12:45:48.72	185.61	11.55	-40.5	-41.3	22.4	0.00e+00	0	41	0	554696704	52	3990
2026-01-29 12:45:52.74	185.87	11.90	-40.4	-41.3	22.4	0.00e+00	0	41	0	576716800	52	3974
2026-01-29 12:45:56.77	186.14	12.26	-40.4	-41.2	22.5	0.00e+00	0	41	0	599785472	52	3935
2026-01-29 12:46:00.79	186.41	12.63	-40.1	-41.0	22.7	0.00e+00	0	41	0	622854144	52	3828
2026-01-29 12:46:04.81	186.69	13.00	-40.3	-41.1	22.6	0.00e+00	0	42	0	644874240	52	3894
2026-01-29 12:46:08.83	186.98	13.37	-40.3	-41.2	22.6	0.00e+00	0	41	0	667942912	52	3924
2026-01-29 12:46:12.87	187.28	13.75	-40.1	-40.9	22.8	0.00e+00	0	41	0	689963008	52	3803
2026-01-29 12:46:16.90	187.58	14.13	-39.9	-40.7	23.1	0.00e+00	0	41	0	713031680	51	3948
2026-01-29 12:46:20.92	187.89	14.52	-40.0	-40.8	23.0	0.00e+00	0	41	0	736100352	51	3984
2026-01-29 12:46:24.95	188.21	14.92	-39.9	-40.7	23.1	0.00e+00	0	41	0	758120448	51	3956
2026-01-29 12:46:28.98	188.53	15.32	-39.6	-40.4	23.4	0.00e+00	0	41	0	781189120	51	3801
2026-01-29 12:46:33.02	188.87	15.73	-39.2	-40.0	23.8	0.00e+00	0	41	0	804257792	50	3844
2026-01-29 12:46:37.05	189.21	16.14	-39.0	-39.7	24.0	0.00e+00	0	41	0	826277888	50	3730
2026-01-29 12:46:41.07	189.56	16.56	-39.1	-39.9	23.9	0.00e+00	0	41	0	848297984	49	4005
2026-01-29 12:46:45.11	189.92	16.99	-38.9	-39.7	24.0	0.00e+00	0	42	0	871366656	49	3920
2026-01-29 12:46:49.14	190.30	17.42	-38.8	-39.5	24.2	0.00e+00	0	41	0	894435328	49	3860
2026-01-29 12:46:53.17	190.68	17.86	-38.9	-39.6	24.1	0.00e+00	0	41	0	916455424	49	3904
2026-01-29 12:46:57.19	191.07	18.31	-38.7	-39.5	24.2	0.00e+00	0	41	0	939524096	49	3845
2026-01-29 12:47:01.23	191.48	18.76	-38.5	-39.2	24.5	0.00e+00	0	41	0	962592768	48	3938
2026-01-29 12:47:05.26	191.89	19.22	-38.4	-39.2	24.5	0.00e+00	0	42	0	984612864	48	3923
2026-01-29 12:47:09.29	192.32	19.69	-38.6	-39.4	24.4	0.00e+00	0	41	0	1007681536	48	4011
2026-01-29 12:47:13.33	192.76	20.17	-38.4	-39.2	24.5	0.00e+00	0	41	0	1030750208	48	3921
2026-01-29 12:47:17.37	193.22	20.65	-38.1	-38.8	24.8	0.00e+00	0	41	0	1053818880	48	3777
2026-01-29 12:47:21.40	193.69	21.14	-38.0	-38.7	24.9	0.00e+00	0	42	0	1075838976	48	3735
2026-01-29 12:47:25.44	194.17	21.64	-38.1	-38.8	24.9	0.00e+00	0	42	0	1098907648	48	3757
2026-01-29 12:47:29.47	194.67	22.14	-37.5	-38.3	24.8	0.00e+00	0	42	0	1120927744	47	3749
2026-01-29 12:47:33.50	195.19	22.66	-37.2	-37.9	25.1	0.00e+00	0	41	0	1143996416	46	3820
2026-01-29 12:47:37.53	195.72	23.18	-37.4	-38.1	25.3	0.00e+00	0	41	0	1167065088	46	3908
2026-01-29 12:47:41.56	196.27	23.71	-37.4	-38.1	25.3	0.00e+00	0	42	0	1189085184	46	3898
2026-01-29 12:47:45.59	196.84	24.25	-37.4	-38.1	25.4	0.00e+00	0	42	0	1212153856	46	3876
2026-01-29 12:47:49.63	197.43	24.79	-37.1	-37.8	25.6	0.00e+00	0	41	0	1234173952	46	3747
2026-01-29 12:47:53.66	198.03	25.35	-37.0	-37.7	25.7	0.00e+00	0	41	0	1257242624	46	3710
2026-01-29 12:47:57.70	198.66	25.91	-37.1	-37.8	25.7	0.00e+00	0	42	0	1280311296	46	3759
2026-01-29 12:48:01.73	199.31	26.49	-36.9	-37.6	25.8	0.00e+00	0	41	0	1302331392	45	3886
2026-01-29 12:48:05.76	199.99	27.07	-36.8	-37.5	25.9	0.00e+00	0	42	0	1325400064	45	3862
2026-01-29 12:48:09.79	200.69	27.65	-36.8	-37.5	25.9	0.00e+00	0	42	0	1348468736	45	3829
2026-01-29 12:48:13.81	201.41	28.25	-36.9	-37.5	25.8	0.00e+00	0	42	0	1370488832	45	3865
2026-01-29 12:48:17.85	202.16	28.85	-36.8	-37.4	25.9	0.00e+00	0	42	0	1393557504	45	3824
2026-01-29 12:48:21.88	202.94	29.47	-36.9	-37.6	25.8	0.00e+00	0	41	0	1416626176	45	3889
2026-01-29 12:48:25.91	203.75	30.09	-37.0	-37.7	25.8	0.00e+00	0	42	0	1438646272	45	3923
2026-01-29 12:48:29.94	204.59	30.71	-36.8	-37.5	25.9	0.00e+00	0	42	0	1461714944	45	3860
2026-01-29 12:48:33.98	205.46	31.35	-36.9	-37.6	25.9	0.00e+00	0	42	0	1484783616	45	3870
2026-01-29 12:48:38.01	206.37	31.99	-36.6	-37.3	26.2	0.00e+00	0	42	0	1506803712	45	3740
2026-01-29 12:48:42.04	207.31	32.64	-36.7	-37.4	26.1	0.00e+00	0	41	0	1529872384	45	3793
2026-01-29 12:48:46.07	208.30	33.29	-36.7	-37.4	26.0	0.00e+00	0	41	0	1551892480	45	3818
2026-01-29 12:48:50.10	209.31	33.95	-36.4	-37.1	26.3	0.00e+00	0	42	0	1574961152	44	3889
2026-01-29 12:48:54.13	210.38	34.61	-36.6	-37.2	26.2	0.00e+00	0	41	0	1596981248	44	3958
2026-01-29 12:48:58.17	211.48	35.27	-36.4	-37.1	26.3	0.00e+00	0	42	0	1620049920	44	3897
2026-01-29 12:49:02.20	212.63	35.94	-36.4	-37.1	26.4	0.00e+00	0	41	0	1643118592	44	3874
2026-01-29 12:49:06.23	213.83	36.60	-36.7	-37.4	26.1	0.00e+00	0	42	0	1665138688	44	4045
2026-01-29 12:49:10.26	215.07	37.27	-36.2	-36.9	26.5	0.00e+00	0	42	0	1688207360	44	3804
2026-01-29 12:49:14.29	216.37	37.93	-36.3	-37.0	26.5	0.00e+00	0	41	0	1711276032	44	3833
2026-01-29 12:49:18.33	217.72	38.59	-36.2	-36.9	26.5	0.00e+00	0	42	0	1733296128	44	3802
2026-01-29 12:49:22.35	219.12	39.24	-36.5	-37.2	26.3	0.00e+00	0	42	0	1756364800	44	3929
2026-01-29 12:49:26.39	220.58	39.89	-36.3	-37.0	26.5	0.00e+00	0	42	0	1779433472	44	3840
2026-01-29 12:49:30.42	222.10	40.53	-36.3	-37.0	26.5	0.00e+00	0	42	0	1801453568	44	3839
2026-01-29 12:49:34.45	223.68	41.16	-36.5	-37.2	26.4	0.00e+00	0	42	0	1824522240	44	3915
2026-01-29 12:49:38.48	225.32	41.77	-36.4	-37.0	26.5	0.00e+00	0	42	0	1847590912	44	3855
2026-01-29 12:49:42.51	227.02	42.36	-36.8	-37.5	26.0	0.00e+00	0	42	0	1869611008	44	4088
2026-01-29 12:49:46.54	228.78	42.94	-36.5	-37.1	26.4	0.00e+00	0	42	0	1892679680	44	3904
2026-01-29 12:49:50.57	230.60	43.49	-36.9	-37.6	26.0	0.00e+00	0	41	0	1915748352	44	4141
2026-01-29 12:49:54.61	232.49	44.02	-36.8	-37.5	26.1	0.00e+00	0	42	0	1937768448	44	4075
2026-01-29 12:49:58.64	234.44	44.52	-36.8	-37.5	26.1	0.00e+00	0	42	0	1959788544	44	4080
2026-01-29 12:50:02.67	236.44	44.99	-36.9	-37.6	26.0	0.00e+00	0	42	0	1982857216	44	4119
2026-01-29 12:50:06.71	238.51	45.43	-37.1	-37.8	25.8	0.00e+00	0	42	0	2005925888	45	4001
2026-01-29 12:50:10.75	240.63	45.82	-36.7	-37.4	26.3	0.00e+00	0	42	0	2027945984	45	3790
2026-01-29 12:50:14.78	242.80	46.18	-37.2	-37.9	25.8	0.00e+00	0	41	0	2051014656	45	4017
2026-01-29 12:50:18.82	245.02	46.50	-37.1	-37.8	25.9	0.00e+00	0	42	0	2074083328	45	3970
2026-01-29 12:50:22.85	247.28	46.77	-36.9	-37.6	26.1	0.00e+00	0	42	0	2096103424	45	3898
2026-01-29 12:50:26.88	249.57	47.00	-36.7	-37.4	26.2	0.00e+00	0	42	0	2119172096	45	3810
2026-01-29 12:50:30.91	251.89	47.17	-37.1	-37.8	25.9	0.00e+00	0	42	0	2142240768	45	3969
2026-01-29 12:50:34.94	254.23	47.30	-37.0	-37.7	26.0	0.00e+00	0	42	0	2164260864	45	3945
2026-01-29 12:50:38.97	256.59	47.37	-36.7	-37.4	26.3	0.00e+00	0	42	0	2187329536	45	3796
2026-01-29 12:50:43.00	258.96	47.40	-37.2	-37.9	25.8	0.00e+00	0	42	0	2210398208	45	4038
2026-01-29 12:50:47.03	261.32	47.37	-36.9	-37.6	26.1	0.00e+00	0	42	0	2232418304	45	3884
2026-01-29 12:50:51.07	263.68	47.29	-37.1	-37.8	25.9	0.00e+00	0	42	0	2255486976	45	3989
2026-01-29 12:50:55.11	266.03	47.15	-37.0	-37.7	26.0	0.00e+00	0	42	0	2278555648	45	3935
2026-01-29 12:50:59.14	268.34	46.97	-37.2	-37.9	25.9	0.00e+00	0	42	0	2300575744	45	4011
2026-01-29 12:51:03.18	270.64	46.74	-37.1	-37.8	26.0	0.00e+00	0	42	0	2323644416	45	3993
2026-01-29 12:51:07.22	272.89	46.46	-37.2	-37.9	25.9	0.00e+00	0	42	0	2345664512	45	4008
2026-01-29 12:51:11.26	275.10	46.14	-37.4	-38.1	25.7	0.00e+00	0	42	0	2368733184	45	4124
2026-01-29 12:51:15.28	277.26	45.78	-37.2	-37.9	25.9	0.00e+00	0	41	0	2391801856	45	4031
2026-01-29 12:51:19.31	279.36	45.38	-37.4	-38.1	25.7	0.00e+00	0	42	0	2413821952	45	4136
2026-01-29 12:51:23.34	281.42	44.94	-37.1	-37.8	26.0	0.00e+00	0	42	0	2436890624	45	3977
2026-01-29 12:51:27.38	283.42	44.47	-37.1	-37.8	26.0	0.00e+00	0	42	0	2459959296	45	3979
2026-01-29 12:51:31.42	285.36	43.96	-37.2	-37.9	25.9	0.00e+00	0	42	0	2481979392	45	4021
2026-01-29 12:51:35.45	287.24	43.44	-37.7	-38.4	25.5	0.00e+00	0	42	0	2505048064	46	4041
2026-01-29 12:51:39.48	289.05	42.88	-37.4	-38.1	25.8	0.00e+00	0	42	0	2528116736	46	3904
2026-01-29 12:51:43.51	290.80	42.31	-37.1	-37.8	26.0	0.00e+00	0	41	0	2550136832	46	3775
2026-01-29 12:51:47.54	292.49	41.71	-37.3	-38.0	25.9	0.00e+00	0	42	0	2573205504	46	3859
2026-01-29 12:51:51.57	294.12	41.10	-37.1	-37.7	26.1	0.00e+00	0	42	0	2595225600	46	3732
2026-01-29 12:51:55.60	295.68	40.47	-36.9	-37.6	26.2	0.00e+00	0	42	0	2618294272	45	3880
2026-01-29 12:51:59.64	297.19	39.84	-37.0	-37.7	26.2	0.00e+00	0	41	0	2641362944	45	3924
2026-01-29 12:52:03.67	298.65	39.19	-36.9	-37.6	26.2	0.00e+00	0	42	0	2663383040	45	3871
2026-01-29 12:52:07.69	300.04	38.54	-36.6	-37.3	26.5	0.00e+00	0	42	0	2686451712	45	3774
2026-01-29 12:52:11.73	301.38	37.88	-36.8	-37.5	26.3	0.00e+00	0	42	0	2708471808	45	3839
2026-01-29 12:52:15.77	302.67	37.22	-36.6	-37.3	26.4	0.00e+00	0	42	0	2731540480	45	3756
2026-01-29 12:52:19.81	303.91	36.56	-36.8	-37.5	26.3	0.00e+00	0	42	0	2754609152	45	3830
2026-01-29 12:52:23.84	305.10	35.89	-36.7	-37.4	26.3	0.00e+00	0	42	0	2776629248	45	3817
2026-01-29 12:52:27.88	306.24	35.23	-36.8	-37.5	26.3	0.00e+00	0	42	0	2799697920	45	3830
2026-01-29 12:52:31.92	307.34	34.57	-36.8	-37.5	26.2	0.00e+00	0	42	0	2822766592	45	3855
2026-01-29 12:52:35.95	308.40	33.91	-36.7	-37.3	26.3	0.00e+00	0	42	0	2844786688	45	3777
2026-01-29 12:52:39.99	309.41	33.26	-36.8	-37.4	26.2	0.00e+00	0	42	0	2867855360	45	3816
2026-01-29 12:52:44.01	310.39	32.61	-36.6	-37.3	26.4	0.00e+00	0	41	0	2890924032	45	3741
2026-01-29 12:52:48.05	311.32	31.96	-37.0	-37.6	26.1	0.00e+00	0	42	0	2912944128	45	3905
2026-01-29 12:52:52.09	312.23	31.33	-36.9	-37.6	26.1	0.00e+00	0	42	0	2936012800	45	3881
2026-01-29 12:52:56.13	313.10	30.69	-36.9	-37.5	26.1	0.00e+00	0	42	0	2959081472	45	3861
2026-01-29 12:53:00.16	313.93	30.07	-36.8	-37.5	26.1	0.00e+00	0	42	0	2981101568	45	3841
2026-01-29 12:53:04.20	314.74	29.45	-36.9	-37.6	26.0	0.00e+00	0	41	0	3004170240	45	3906
2026-01-29 12:53:08.23	315.51	28.84	-36.8	-37.5	26.1	0.00e+00	0	42	0	3027238912	45	3838
2026-01-29 12:53:12.26	316.26	28.24	-37.0	-37.7	25.9	0.00e+00	0	42	0	3049259008	45	3952
2026-01-29 12:53:16.30	316.98	27.65	-37.2	-38.0	25.7	0.00e+00	0	42	0	3072327680	45	4058
2026-01-29 12:53:20.33	317.68	27.06	-37.1	-37.8	25.8	0.00e+00	0	42	0	3094347776	45	3987
2026-01-29 12:53:24.37	318.35	26.49	-37.0	-37.6	25.9	0.00e+00	0	42	0	3117416448	45	3909
2026-01-29 12:53:28.40	319.00	25.92	-37.2	-37.9	25.7	0.00e+00	0	42	0	3140485120	45	4025
2026-01-29 12:53:32.43	319.62	25.36	-37.3	-38.1	25.6	0.00e+00	0	42	0	3162505216	45	4100
2026-01-29 12:53:36.47	320.23	24.81	-37.4	-38.1	25.5	0.00e+00	0	42	0	3185573888	45	4136
2026-01-29 12:53:40.49	320.81	24.26	-37.3	-38.0	25.6	0.00e+00	0	42	0	3208642560	45	4084
2026-01-29 12:53:44.53	321.38	23.73	-37.4	-38.1	25.5	0.00e+00	0	42	0	3230662656	45	4126
2026-01-29 12:53:48.56	321.93	23.20	-37.4	-38.1	25.5	0.00e+00	0	42	0	3253731328	45	4111
2026-01-29 12:53:52.59	322.46	22.68	-37.7	-38.4	25.2	0.00e+00	0	42	0	3276800000	46	4044
2026-01-29 12:53:56.63	322.97	22.17	-38.1	-38.9	24.7	0.00e+00	0	42	0	3298820096	46	4267
2026-01-29 12:54:00.66	323.47	21.67	-38.2	-38.9	24.7	0.00e+00	0	42	0	3321888768	47	4028
2026-01-29 12:54:04.69	323.95	21.17	-37.8	-38.5	25.0	0.00e+00	0	42	0	3344957440	47	3863
2026-01-29 12:54:08.71	324.42	20.69	-37.8	-38.5	25.0	0.00e+00	0	42	0	3366977536	47	3861
2026-01-29 12:54:12.74	324.87	20.21	-38.0	-38.8	24.8	0.00e+00	0	41	0	3390046208	47	3959
2026-01-29 12:54:16.77	325.32	19.74	-38.2	-38.9	24.6	0.00e+00	0	42	0	3413114880	47	4018
2026-01-29 12:54:20.81	325.74	19.27	-38.2	-38.9	24.6	0.00e+00	0	42	0	3435134976	47	4051
2026-01-29 12:54:24.84	326.16	18.81	-38.3	-39.0	24.4	0.00e+00	0	42	0	3457155072	47	4089
2026-01-29 12:54:28.87	326.56	18.36	-38.6	-39.3	23.7	0.00e+00	0	42	0	3480223744	47	4238
2026-01-29 12:54:32.90	326.96	17.92	-39.2	-40.0	19.9	0.00e+00	0	42	0	3503292416	48	4321
2026-01-29 12:54:36.93	327.34	17.48	-39.2	-40.0	21.6	0.00e+00	0	42	0	3525312512	49	4063
2026-01-29 12:54:40.96	327.71	17.05	-39.3	-40.0	23.9	0.00e+00	0	42	0	3548381184	49	4097
2026-01-29 12:54:45.00	328.08	16.63	-39.2	-39.9	24.0	0.00e+00	0	42	0	3571449856	49	4024
2026-01-29 12:54:49.03	328.43	16.21	-39.3	-40.0	24.0	0.00e+00	0	42	0	3593469952	49	4079
2026-01-29 12:54:53.06	328.77	15.80	-39.4	-40.2	23.8	0.00e+00	0	42	0	3616538624	49	4163
2026-01-29 12:54:57.09	329.11	15.39	-39.8	-40.5	23.5	0.00e+00	0	42	0	3639607296	50	4096
2026-01-29 12:55:01.13	329.43	14.99	-39.9	-40.6	23.4	0.00e+00	0	42	0	3661627392	50	4134
2026-01-29 12:55:05.16	329.75	14.60	-39.9	-40.7	23.3	0.00e+00	0	42	0	3684696064	50	4163
2026-01-29 12:55:09.19	330.06	14.21	-40.0	-40.8	23.2	0.00e+00	0	42	0	3707764736	50	4224
2026-01-29 12:55:13.23	330.37	13.83	-40.1	-40.9	23.1	0.00e+00	0	42	0	3729784832	50	4251
2026-01-29 12:55:17.25	330.66	13.45	-40.2	-41.0	22.9	0.00e+00	0	41	0	3752853504	51	4080
2026-01-29 12:55:21.29	330.95	13.08	-40.4	-41.2	22.8	0.00e+00	0	42	0	3775922176	51	4154
2026-01-29 12:55:25.32	331.23	12.71	-40.4	-41.2	22.7	0.00e+00	0	42	0	3797942272	51	4176
2026-01-29 12:55:29.34	331.51	12.35	-40.4	-41.2	22.7	0.00e+00	0	42	0	3819962368	51	4157
2026-01-29 12:55:33.37	331.78	11.99	-40.5	-41.3	22.5	0.00e+00	0	42	0	3843031040	51	4240
2026-01-29 12:55:37.41	332.04	11.64	-40.4	-41.2	22.6	0.00e+00	0	42	0	3866099712	51	4190
2026-01-29 12:55:41.45	332.30	11.29	-40.6	-41.4	22.4	0.00e+00	0	42	0	3888119808	51	4279
2026-01-29 12:55:45.47	332.55	10.95	-40.7	-41.5	22.3	0.00e+00	0	42	0	3911188480	52	4072
2026-01-29 12:55:49.51	332.80	10.61	-40.9	-41.7	22.0	0.00e+00	0	42	0	3934257152	52	4181
2026-01-29 12:55:53.55	333.04	10.27	-40.9	-41.8	21.9	0.00e+00	0	42	0	3956277248	52	4213
2026-01-29 12:55:57.59	333.28	9.94	-41.0	-41.9	21.8	0.00e+00	0	42	0	3979345920	52	4265
2026-01-29 12:56:01.63	333.51	9.61	-41.1	-42.0	21.7	0.00e+00	0	42	0	4002414592	52	4297
2026-01-29 12:56:05.66	333.74	9.29	-41.1	-42.0	21.7	0.00e+00	0	42	0	4024434688	53	4064
2026-01-29 12:56:09.70	333.96	8.97	-41.1	-42.0	21.6	0.00e+00	0	42	0	4047503360	53	4072
2026-01-29 12:56:13.74	334.18	8.65	-41.1	-41.9	21.7	0.00e+00	0	42	0	4070572032	53	4039
2026-01-29 12:56:17.78	334.40	8.34	-41.1	-42.0	21.6	0.00e+00	0	42	0	4093640704	53	4065
2026-01-29 12:56:21.81	334.61	8.03	-41.4	-42.3	21.3	0.00e+00	0	42	0	4115660800	53	4205
2026-01-29 12:56:25.85	334.81	7.72	-41.2	-42.0	21.4	0.00e+00	0	42	0	4138729472	53	4097
2026-01-29 12:56:29.88	335.02	7.42	-41.4	-42.3	21.2	0.00e+00	0	42	0	4161798144	53	4194
2026-01-29 12:56:33.91	335.21	7.12	-41.4	-42.2	21.2	0.00e+00	0	42	0	4183818240	53	4193
2026-01-29 12:56:37.95	335.41	6.83	-41.6	-42.5	21.0	0.00e+00	0	42	0	4205838336	53	4298
2026-01-29 12:56:41.99	335.60	6.53	-41.6	-42.5	20.9	0.00e+00	0	42	0	4228907008	53	4320
2026-01-29 12:56:46.03	335.79	6.24	-41.5	-42.4	20.9	0.00e+00	0	42	0	4251975680	53	4272
2026-01-29 12:56:50.07	335.97	5.96	-41.7	-42.6	20.7	0.00e+00	0	42	0	4273995776	54	4137
2026-01-29 12:56:54.11	336.16	5.67	-41.8	-42.7	20.5	0.00e+00	0	42	0	4297064448	54	4190
2026-01-29 12:56:58.14	336.33	5.39	-41.9	-42.8	20.4	0.00e+00	0	42	0	4320133120	54	4238
2026-01-29 12:57:02.18	336.51	5.11	-42.1	-43.1	20.1	0.00e+00	0	42	0	4343201792	54	4369
2026-01-29 12:57:06.21	336.68	4.84	-53.0	-64.9	3.8	8.46e-01	0	42	104	4351590400	76	15216
2026-01-29 12:57:10.25	336.85	4.57	-53.5	-65.5	3.8	8.47e-01	0	42	104	4351590400	77	15293
2026-01-29 12:57:14.29	337.02	4.30	-53.5	-65.5	3.8	8.46e-01	0	42	104	4351590400	77	15268
2026-01-29 12:57:18.31	337.18	4.03	-53.2	-65.3	3.8	8.47e-01	0	42	104	4351590400	77	14895
2026-01-29 12:57:22.35	337.34	3.76	-53.4	-65.4	3.8	8.46e-01	0	42	104	4351590400	77	15134
2026-01-29 12:57:26.38	337.50	3.50	-53.4	-65.3	3.8	8.46e-01	0	42	104	4351590400	77	14997
2026-01-29 12:57:30.41	337.66	3.24	-53.3	-65.3	3.8	8.45e-01	0	42	104	4351590400	77	14927
2026-01-29 12:57:34.45	337.81	2.98	-53.3	-65.2	3.8	8.45e-01	0	42	104	4351590400	77	14824
2026-01-29 12:57:38.48	337.96	2.73	-53.2	-65.2	3.8	8.46e-01	0	42	104	4351590400	77	14768
2026-01-29 12:57:42.51	338.11	2.48	-53.2	-65.2	3.8	8.46e-01	0	42	104	4351590400	77	14748
2026-01-29 12:57:46.54	338.26	2.22	-53.2	-65.2	3.8	8.46e-01	0	42	104	4351590400	77	14723
2026-01-29 12:57:50.57	338.41	1.98	-53.2	-65.1	3.8	8.47e-01	0	42	104	4351590400	77	14664

#Closed at: 2026-01-29 12:57:51
#Recorded file [4351 MB]: D:/lorett/data/31041_260129_154339.dat