passes_logs/2026/01/29/R3.2S_Murmansk/R3.2S_Murmansk__20260129_011937_NOAA_21_JPSS-2_rec.log

#Pass ID: 20260129_011937_NOAA 21 (JPSS-2)
#Satellite: NOAA 21 (JPSS-2)
#Configuration: NOAA-21
#almurnet v.1.7.20251203
#Start time: 2026-01-29 01:19:37

#Version: 2.2.20231116
#Station: R3.2S_Murmansk
#Location: 33.079688 lon 68.888172 lat
#TLE: 1 54234U 22150A   26027.91149249  .00000141  00000+0  87546-4 0  9993
#TLE: 2 54234  98.7510 328.6558 0000880 202.8718 157.2419 14.19540177166642

#Time	Az	El	Level	Level2	SNR	BER	BlckErr	Temp	State	Recorded	gain1	gain2
2026-01-29 01:19:37.59	27.19	2.01	-53.9	-66.7	3.8	1.49e+00	0	40	0	0	79	15649
2026-01-29 01:19:41.62	27.14	2.27	-52.4	-65.1	3.8	1.49e+00	0	40	104	0	76	15466
2026-01-29 01:19:45.66	27.08	2.53	-51.9	-64.5	3.8	1.49e+00	0	40	104	0	75	15239
2026-01-29 01:19:49.69	27.03	2.79	-51.8	-64.4	3.8	1.49e+00	0	40	104	0	75	15061
2026-01-29 01:19:53.73	26.97	3.05	-51.8	-64.2	3.8	1.49e+00	0	40	104	0	75	14842
2026-01-29 01:19:57.76	26.92	3.32	-51.8	-64.5	3.8	1.49e+00	0	40	104	0	75	15282
2026-01-29 01:20:01.79	26.86	3.59	-51.6	-62.3	3.9	1.49e+00	0	41	104	0	75	11858
2026-01-29 01:20:05.82	26.80	3.86	-51.3	-59.6	4.7	1.09e+00	0	41	104	0	74	9216
2026-01-29 01:20:09.86	26.74	4.14	-50.9	-57.5	5.9	3.83e-01	0	41	0	7340032	73	7693
2026-01-29 01:20:13.89	26.68	4.41	-50.5	-56.0	7.3	1.54e-01	0	41	0	19922944	72	6815
2026-01-29 01:20:17.92	26.61	4.69	-49.9	-54.2	9.0	2.58e-02	0	41	0	33554432	71	5907
2026-01-29 01:20:21.95	26.55	4.98	-50.3	-55.5	7.8	6.75e-02	0	41	0	45088768	71	6844
2026-01-29 01:20:25.98	26.48	5.26	-51.6	-64.3	3.8	4.60e-01	0	41	104	52428800	73	16868
2026-01-29 01:20:30.01	26.41	5.55	-45.1	-46.5	17.2	0.00e+00	0	41	0	58720256	62	4063
2026-01-29 01:20:34.04	26.34	5.84	-44.7	-46.0	17.7	0.00e+00	0	41	0	71303168	61	4067
2026-01-29 01:20:38.07	26.27	6.14	-44.7	-46.0	17.7	0.00e+00	0	41	0	83886080	61	4073
2026-01-29 01:20:42.11	26.19	6.44	-44.5	-45.8	18.0	0.00e+00	0	41	0	96468992	61	3989
2026-01-29 01:20:46.15	26.12	6.74	-44.5	-45.7	18.0	0.00e+00	0	41	0	109051904	60	4192
2026-01-29 01:20:50.17	26.04	7.05	-44.4	-45.6	18.2	0.00e+00	0	41	0	121634816	60	4134
2026-01-29 01:20:54.21	25.96	7.36	-44.2	-45.4	18.4	0.00e+00	0	41	0	134217728	60	4020
2026-01-29 01:20:58.25	25.88	7.67	-44.4	-45.6	18.6	0.00e+00	0	42	0	146800640	59	4390
2026-01-29 01:21:02.29	25.79	7.99	-44.3	-45.4	18.8	0.00e+00	0	41	0	159383552	59	4283
2026-01-29 01:21:06.32	25.71	8.31	-44.1	-45.2	19.1	0.00e+00	0	41	0	171966464	59	4184
2026-01-29 01:21:10.36	25.62	8.64	-44.2	-45.4	18.9	0.00e+00	0	41	0	184549376	59	4262
2026-01-29 01:21:14.40	25.52	8.97	-43.9	-45.0	19.3	0.00e+00	0	41	0	197132288	59	4080
2026-01-29 01:21:18.44	25.43	9.30	-43.8	-44.9	19.5	0.00e+00	0	42	0	209715200	59	4013
2026-01-29 01:21:22.47	25.33	9.64	-43.6	-44.7	19.6	0.00e+00	0	42	0	222298112	59	3934
2026-01-29 01:21:26.51	25.24	9.98	-43.5	-44.5	19.8	0.00e+00	0	42	0	234881024	58	4065
2026-01-29 01:21:30.54	25.13	10.33	-43.5	-44.5	19.8	0.00e+00	0	42	0	247463936	58	4092
2026-01-29 01:21:34.57	25.03	10.68	-43.3	-44.4	20.0	0.00e+00	0	42	0	260046848	58	4012
2026-01-29 01:21:38.61	24.92	11.04	-43.3	-44.3	20.1	0.00e+00	0	42	0	273678336	58	3994
2026-01-29 01:21:42.64	24.81	11.40	-43.3	-44.4	20.0	0.00e+00	0	42	0	285212672	58	4009
2026-01-29 01:21:46.68	24.70	11.77	-43.3	-44.3	20.1	0.00e+00	0	42	0	297795584	58	3974
2026-01-29 01:21:50.72	24.58	12.14	-43.1	-44.1	20.3	0.00e+00	0	42	0	311427072	58	3894
2026-01-29 01:21:54.75	24.46	12.52	-43.1	-44.0	20.4	0.00e+00	0	42	0	324009984	58	3856
2026-01-29 01:21:58.79	24.33	12.91	-43.0	-43.9	20.5	0.00e+00	0	42	0	335544320	57	4035
2026-01-29 01:22:02.83	24.20	13.30	-42.9	-43.8	20.6	0.00e+00	0	42	0	349175808	57	3993
2026-01-29 01:22:06.86	24.07	13.70	-42.9	-43.9	20.6	0.00e+00	0	42	0	361758720	57	4026
2026-01-29 01:22:10.89	23.94	14.10	-42.7	-43.6	20.9	0.00e+00	0	42	0	374341632	57	3885
2026-01-29 01:22:14.93	23.80	14.51	-42.7	-43.6	20.9	0.00e+00	0	42	0	386924544	57	3880
2026-01-29 01:22:18.96	23.65	14.93	-42.7	-43.7	20.8	0.00e+00	0	42	0	399507456	57	3917
2026-01-29 01:22:22.99	23.50	15.35	-42.7	-43.6	20.9	0.00e+00	0	42	0	412090368	57	3878
2026-01-29 01:22:27.03	23.35	15.78	-42.7	-43.6	20.9	0.00e+00	0	42	0	424673280	57	3899
2026-01-29 01:22:31.06	23.19	16.22	-42.7	-43.6	20.9	0.00e+00	0	42	0	437256192	57	3887
2026-01-29 01:22:35.10	23.02	16.67	-42.8	-43.7	20.9	0.00e+00	0	42	0	449839104	57	3938
2026-01-29 01:22:39.14	22.85	17.12	-42.8	-43.7	20.8	0.00e+00	0	42	0	462422016	57	3958
2026-01-29 01:22:43.17	22.68	17.59	-42.9	-43.8	20.8	0.00e+00	0	42	0	475004928	57	3988
2026-01-29 01:22:47.21	22.50	18.06	-42.7	-43.7	21.0	0.00e+00	0	42	0	487587840	57	3915
2026-01-29 01:22:51.25	22.31	18.54	-42.7	-43.6	21.0	0.00e+00	0	42	0	500170752	57	3912
2026-01-29 01:22:55.28	22.11	19.03	-42.7	-43.6	21.1	0.00e+00	0	42	0	512753664	57	3891
2026-01-29 01:22:59.31	21.91	19.53	-42.4	-43.3	21.4	0.00e+00	0	42	0	525336576	56	3971
2026-01-29 01:23:03.35	21.70	20.04	-42.4	-43.2	21.4	0.00e+00	0	42	0	537919488	56	3953
2026-01-29 01:23:07.38	21.49	20.56	-42.2	-43.1	21.6	0.00e+00	0	42	0	550502400	56	3870
2026-01-29 01:23:11.41	21.26	21.09	-42.1	-42.9	21.6	0.00e+00	0	42	0	563085312	56	3820
2026-01-29 01:23:15.44	21.03	21.62	-41.8	-42.6	21.8	0.00e+00	0	42	0	575668224	55	3907
2026-01-29 01:23:19.48	20.79	22.18	-41.7	-42.5	22.0	0.00e+00	0	42	0	588251136	55	3840
2026-01-29 01:23:23.52	20.53	22.74	-41.3	-42.1	22.4	0.00e+00	0	42	0	600834048	54	3895
2026-01-29 01:23:27.55	20.27	23.32	-41.1	-41.9	22.5	0.00e+00	0	42	0	613416960	54	3793
2026-01-29 01:23:31.59	20.00	23.90	-41.1	-41.9	22.6	0.00e+00	0	42	0	625999872	54	3787
2026-01-29 01:23:35.63	19.72	24.50	-41.2	-42.0	22.5	0.00e+00	0	42	0	638582784	54	3837
2026-01-29 01:23:39.65	19.42	25.12	-41.4	-42.2	22.4	0.00e+00	0	42	0	651165696	54	3922
2026-01-29 01:23:43.69	19.12	25.74	-41.5	-42.3	22.2	0.00e+00	0	42	0	663748608	54	3982
2026-01-29 01:23:47.72	18.80	26.38	-41.9	-42.7	21.9	0.00e+00	0	42	0	676331520	54	4168
2026-01-29 01:23:51.75	18.46	27.04	-42.2	-43.1	21.6	0.00e+00	0	42	0	688914432	55	4099
2026-01-29 01:23:55.78	18.11	27.71	-42.7	-43.6	21.2	0.00e+00	0	42	0	701497344	55	4367
2026-01-29 01:23:59.82	17.75	28.40	-42.9	-43.8	21.0	0.00e+00	0	42	0	714080256	56	4231
2026-01-29 01:24:03.84	17.37	29.10	-43.0	-43.9	21.0	0.00e+00	0	42	0	726663168	56	4253
2026-01-29 01:24:07.87	16.97	29.81	-42.7	-43.5	21.4	0.00e+00	0	42	0	739246080	56	4080
2026-01-29 01:24:11.89	16.55	30.55	-42.5	-43.3	21.5	0.00e+00	0	42	0	751828992	56	3994
2026-01-29 01:24:15.92	16.11	31.30	-42.1	-43.0	21.7	0.00e+00	0	42	0	764411904	56	3827
2026-01-29 01:24:19.96	15.65	32.07	-42.4	-43.3	21.4	0.00e+00	0	42	0	776994816	56	3981
2026-01-29 01:24:23.99	15.17	32.86	-42.8	-43.7	21.2	0.00e+00	0	42	0	789577728	56	4150
2026-01-29 01:24:28.02	14.66	33.66	-42.9	-43.8	21.2	0.00e+00	0	42	0	802160640	56	4216
2026-01-29 01:24:32.06	14.12	34.49	-43.1	-44.1	21.0	0.00e+00	0	42	0	814743552	56	4343
2026-01-29 01:24:36.10	13.56	35.34	-44.2	-45.3	19.9	0.00e+00	0	42	0	828375040	58	4449
2026-01-29 01:24:40.13	12.96	36.20	-44.4	-45.4	19.8	0.00e+00	0	42	0	839909376	59	4275
2026-01-29 01:24:44.16	12.33	37.08	-44.5	-45.6	19.7	0.00e+00	0	42	0	852492288	59	4346
2026-01-29 01:24:48.19	11.66	37.99	-44.7	-45.7	19.5	0.00e+00	0	42	0	865075200	59	4436
2026-01-29 01:24:52.23	10.96	38.91	-44.3	-45.3	19.7	0.00e+00	0	42	0	878706688	60	3987
2026-01-29 01:24:56.26	10.21	39.86	-44.1	-45.1	19.9	0.00e+00	0	42	0	890241024	60	3885
2026-01-29 01:25:00.28	9.42	40.82	-44.4	-45.4	19.4	0.00e+00	0	42	0	902823936	60	4034
2026-01-29 01:25:04.31	8.58	41.80	-45.1	-46.3	18.8	0.00e+00	0	42	0	916455424	60	4444
2026-01-29 01:25:08.34	7.68	42.80	-44.6	-45.6	19.4	0.00e+00	0	42	0	929038336	60	4145
2026-01-29 01:25:12.37	6.72	43.83	-45.0	-46.1	18.9	0.00e+00	0	42	0	940572672	60	4363
2026-01-29 01:25:16.40	5.70	44.87	-45.8	-47.1	18.1	0.00e+00	0	42	0	954204160	62	4349
2026-01-29 01:25:20.44	4.60	45.92	-44.9	-46.0	19.1	0.00e+00	0	42	0	966787072	61	4055
2026-01-29 01:25:24.47	3.43	47.00	-44.7	-45.8	19.2	0.00e+00	0	42	0	978321408	60	4199
2026-01-29 01:25:28.51	2.17	48.08	-44.8	-45.9	19.2	0.00e+00	0	42	0	991952896	60	4257
2026-01-29 01:25:32.54	0.82	49.18	-44.3	-45.3	19.8	0.00e+00	0	42	0	1004535808	60	3980
2026-01-29 01:25:36.57	359.37	50.28	-44.5	-45.5	19.9	0.00e+00	0	42	0	1017118720	59	4326
2026-01-29 01:25:40.59	357.82	51.39	-44.3	-45.3	20.2	0.00e+00	0	42	0	1028653056	59	4224
2026-01-29 01:25:44.62	356.14	52.50	-44.1	-45.2	20.0	0.00e+00	0	42	0	1042284544	60	3915
2026-01-29 01:25:48.65	354.32	53.61	-43.6	-44.5	20.8	0.00e+00	0	42	0	1054867456	59	3825
2026-01-29 01:25:52.69	352.35	54.72	-42.9	-43.8	21.6	0.00e+00	0	42	0	1067450368	57	3960
2026-01-29 01:25:56.73	350.23	55.81	-43.3	-44.3	21.0	0.00e+00	0	42	0	1080033280	57	4205
2026-01-29 01:26:00.76	347.94	56.88	-42.7	-43.5	21.7	0.00e+00	0	42	0	1092616192	57	3865
2026-01-29 01:26:04.79	345.47	57.92	-42.9	-43.8	21.6	0.00e+00	0	42	0	1105199104	57	3959
2026-01-29 01:26:08.82	342.79	58.92	-42.5	-43.3	22.0	0.00e+00	0	42	0	1117782016	56	3997
2026-01-29 01:26:12.86	339.91	59.88	-42.1	-42.9	22.2	0.00e+00	0	42	0	1130364928	56	3810
2026-01-29 01:26:16.89	336.81	60.79	-41.3	-42.0	22.9	0.00e+00	0	42	0	1142947840	54	3857
2026-01-29 01:26:20.93	333.48	61.62	-41.4	-42.1	22.7	0.00e+00	0	42	0	1155530752	54	3907
2026-01-29 01:26:24.96	329.95	62.37	-42.0	-42.8	22.3	0.00e+00	0	42	0	1168113664	54	4198
2026-01-29 01:26:28.99	326.19	63.03	-41.8	-42.6	22.4	0.00e+00	0	42	0	1180696576	55	3873
2026-01-29 01:26:33.04	322.22	63.60	-41.1	-41.9	23.2	0.00e+00	0	42	0	1193279488	54	3789
2026-01-29 01:26:37.07	318.10	64.04	-41.4	-42.1	23.0	0.00e+00	0	42	0	1205862400	54	3901
2026-01-29 01:26:41.11	313.82	64.36	-41.6	-42.4	22.8	0.00e+00	0	42	0	1218445312	54	4014
2026-01-29 01:26:45.15	309.45	64.55	-41.4	-42.1	22.9	0.00e+00	0	42	0	1231028224	54	3892
2026-01-29 01:26:49.19	305.03	64.61	-41.6	-42.3	22.7	0.00e+00	0	42	0	1243611136	54	3998
2026-01-29 01:26:53.23	300.61	64.53	-41.8	-42.6	22.5	0.00e+00	0	42	0	1256194048	54	4129
2026-01-29 01:26:57.27	296.25	64.31	-41.8	-42.6	22.6	0.00e+00	0	42	0	1268776960	54	4108
2026-01-29 01:27:01.29	292.02	63.97	-42.1	-42.9	22.3	0.00e+00	0	42	0	1281359872	55	4019
2026-01-29 01:27:05.33	287.91	63.51	-41.8	-42.6	22.6	0.00e+00	0	42	0	1293942784	55	3875
2026-01-29 01:27:09.36	283.98	62.93	-42.5	-43.3	22.1	0.00e+00	0	42	0	1306525696	55	4236
2026-01-29 01:27:13.39	280.26	62.25	-41.7	-42.5	22.7	0.00e+00	0	42	0	1319108608	55	3849
2026-01-29 01:27:17.42	276.76	61.48	-42.7	-43.5	22.0	0.00e+00	0	42	0	1331691520	56	4076
2026-01-29 01:27:21.46	273.47	60.63	-42.0	-42.8	22.5	0.00e+00	0	42	0	1344274432	55	3965
2026-01-29 01:27:25.49	270.40	59.72	-41.9	-42.6	22.3	0.00e+00	0	42	0	1356857344	55	3901
2026-01-29 01:27:29.53	267.55	58.75	-42.5	-43.4	22.0	0.00e+00	0	42	0	1369440256	55	4248
2026-01-29 01:27:33.57	264.90	57.74	-42.2	-43.0	22.3	0.00e+00	0	42	0	1382023168	56	3849
2026-01-29 01:27:37.61	262.45	56.69	-43.6	-44.5	21.1	0.00e+00	0	42	0	1394606080	57	4325
2026-01-29 01:27:41.64	260.19	55.61	-42.8	-43.6	21.8	0.00e+00	0	42	0	1407188992	57	3896
2026-01-29 01:27:45.68	258.09	54.51	-43.9	-44.9	20.7	0.00e+00	0	42	0	1419771904	59	4025
2026-01-29 01:27:49.71	256.15	53.41	-43.4	-44.3	21.2	0.00e+00	0	42	0	1433403392	58	3966
2026-01-29 01:27:53.74	254.36	52.29	-45.5	-46.7	18.3	0.00e+00	0	42	0	1444937728	62	4183
2026-01-29 01:27:57.78	252.69	51.18	-43.7	-44.6	20.7	0.00e+00	0	42	0	1457520640	59	3902
2026-01-29 01:28:01.81	251.15	50.06	-45.3	-46.5	19.0	0.00e+00	0	42	0	1471152128	61	4294
2026-01-29 01:28:05.85	249.71	48.95	-44.5	-45.5	19.3	0.00e+00	0	42	0	1483735040	60	4072
2026-01-29 01:28:09.89	248.37	47.85	-45.4	-46.5	18.6	0.00e+00	0	42	0	1495269376	61	4326
2026-01-29 01:28:13.92	247.13	46.77	-46.8	-48.3	17.1	0.00e+00	0	42	0	1508900864	64	4468
2026-01-29 01:28:17.95	245.97	45.70	-45.3	-46.4	19.0	0.00e+00	0	42	0	1521483776	62	4037
2026-01-29 01:28:21.98	244.89	44.64	-45.6	-46.8	18.5	0.00e+00	0	42	0	1533018112	61	4478
2026-01-29 01:28:26.02	243.88	43.60	-44.6	-45.7	19.4	0.00e+00	0	42	0	1546649600	61	3927
2026-01-29 01:28:30.06	242.93	42.57	-45.1	-46.2	19.0	0.00e+00	0	42	0	1559232512	61	4187
2026-01-29 01:28:34.10	242.03	41.57	-45.4	-46.6	18.5	0.00e+00	0	42	0	1571815424	61	4355
2026-01-29 01:28:38.14	241.20	40.58	-44.4	-45.4	19.5	0.00e+00	0	42	0	1584398336	60	4040
2026-01-29 01:28:42.18	240.41	39.62	-43.6	-44.5	20.8	0.00e+00	0	42	0	1596981248	59	3837
2026-01-29 01:28:46.21	239.67	38.68	-44.6	-45.6	19.5	0.00e+00	0	42	0	1609564160	60	4136
2026-01-29 01:28:50.24	238.97	37.75	-44.4	-45.5	19.7	0.00e+00	0	42	0	1622147072	60	4065
2026-01-29 01:28:54.27	238.31	36.85	-44.3	-45.3	19.7	0.00e+00	0	42	0	1634729984	60	4004
2026-01-29 01:28:58.32	237.68	35.96	-43.9	-44.8	20.2	0.00e+00	0	42	0	1647312896	59	4004
2026-01-29 01:29:02.35	237.09	35.10	-43.8	-44.7	20.5	0.00e+00	0	42	0	1659895808	59	3953
2026-01-29 01:29:06.38	236.53	34.26	-44.5	-45.6	19.8	0.00e+00	0	42	0	1672478720	59	4360
2026-01-29 01:29:10.42	236.00	33.43	-44.2	-45.2	20.1	0.00e+00	0	42	0	1685061632	59	4149
2026-01-29 01:29:14.44	235.49	32.63	-43.1	-43.9	21.2	0.00e+00	0	42	0	1697644544	58	3822
2026-01-29 01:29:18.47	235.01	31.84	-42.9	-43.8	21.3	0.00e+00	0	42	0	1710227456	57	3969
2026-01-29 01:29:22.51	234.55	31.07	-43.2	-44.1	21.0	0.00e+00	0	42	0	1722810368	57	4115
2026-01-29 01:29:26.54	234.12	30.32	-43.1	-44.0	21.1	0.00e+00	0	42	0	1735393280	57	4063
2026-01-29 01:29:30.57	233.70	29.59	-43.0	-43.9	21.0	0.00e+00	0	42	0	1747976192	57	4050
2026-01-29 01:29:34.61	233.30	28.87	-43.1	-44.0	20.9	0.00e+00	0	42	0	1760559104	57	4093
2026-01-29 01:29:38.65	232.92	28.17	-42.9	-43.8	21.2	0.00e+00	0	42	0	1773142016	57	3968
2026-01-29 01:29:42.69	232.56	27.48	-42.6	-43.5	21.4	0.00e+00	0	42	0	1785724928	57	3840
2026-01-29 01:29:46.73	232.21	26.81	-42.2	-43.1	21.8	0.00e+00	0	42	0	1798307840	56	3870
2026-01-29 01:29:50.76	231.88	26.16	-42.4	-43.3	21.6	0.00e+00	0	42	0	1810890752	56	3982
2026-01-29 01:29:54.80	231.56	25.52	-42.4	-43.2	21.6	0.00e+00	0	42	0	1823473664	56	3938
2026-01-29 01:29:58.83	231.26	24.89	-42.1	-42.9	21.9	0.00e+00	0	42	0	1836056576	56	3819
2026-01-29 01:30:02.87	230.96	24.28	-42.2	-43.0	21.7	0.00e+00	0	42	0	1848639488	56	3858
2026-01-29 01:30:06.90	230.68	23.68	-42.5	-43.4	21.3	0.00e+00	0	42	0	1861222400	56	4024
2026-01-29 01:30:10.94	230.41	23.10	-42.8	-43.7	21.1	0.00e+00	0	42	0	1873805312	56	4169
2026-01-29 01:30:14.97	230.15	22.52	-42.6	-43.5	21.3	0.00e+00	0	42	0	1886388224	56	4088
2026-01-29 01:30:19.01	229.90	21.96	-42.6	-43.5	21.4	0.00e+00	0	42	0	1898971136	56	4058
2026-01-29 01:30:23.04	229.65	21.41	-42.5	-43.4	21.4	0.00e+00	0	42	0	1911554048	56	4008
2026-01-29 01:30:27.07	229.42	20.87	-42.5	-43.4	21.4	0.00e+00	0	42	0	1924136960	56	4024
2026-01-29 01:30:31.10	229.20	20.34	-42.5	-43.3	21.4	0.00e+00	0	42	0	1937768448	56	4001
2026-01-29 01:30:35.14	228.98	19.82	-42.6	-43.5	21.2	0.00e+00	0	42	0	1949302784	56	4088
2026-01-29 01:30:39.18	228.77	19.32	-42.6	-43.5	21.2	0.00e+00	0	42	0	1961885696	56	4095
2026-01-29 01:30:43.22	228.57	18.82	-42.9	-43.8	20.9	0.00e+00	0	42	0	1975517184	56	4228
2026-01-29 01:30:47.26	228.37	18.33	-42.9	-43.9	20.8	0.00e+00	0	42	0	1988100096	56	4247
2026-01-29 01:30:51.29	228.18	17.85	-42.8	-43.7	21.0	0.00e+00	0	42	0	1999634432	56	4154
2026-01-29 01:30:55.32	228.00	17.38	-43.1	-44.0	20.7	0.00e+00	0	42	0	2013265920	56	4313
2026-01-29 01:30:59.36	227.83	16.91	-43.1	-44.1	20.6	0.00e+00	0	42	0	2025848832	57	4112
2026-01-29 01:31:03.39	227.65	16.46	-43.4	-44.4	20.3	0.00e+00	0	42	0	2037383168	57	4265
2026-01-29 01:31:07.42	227.49	16.02	-43.7	-44.7	20.0	0.00e+00	0	42	0	2051014656	57	4413
2026-01-29 01:31:11.46	227.33	15.58	-43.6	-44.6	20.1	0.00e+00	0	42	0	2063597568	57	4376
2026-01-29 01:31:15.49	227.17	15.15	-43.5	-44.5	20.2	0.00e+00	0	42	0	2076180480	57	4312
2026-01-29 01:31:19.53	227.02	14.72	-43.3	-44.3	20.3	0.00e+00	0	42	0	2088763392	57	4229
2026-01-29 01:31:23.57	226.88	14.31	-43.2	-44.2	20.4	0.00e+00	0	42	0	2101346304	57	4154
2026-01-29 01:31:27.60	226.74	13.90	-43.3	-44.3	20.3	0.00e+00	0	42	0	2113929216	57	4207
2026-01-29 01:31:31.63	226.60	13.49	-43.2	-44.2	20.3	0.00e+00	0	42	0	2126512128	57	4170
2026-01-29 01:31:35.66	226.47	13.10	-43.3	-44.2	20.3	0.00e+00	0	42	0	2139095040	57	4187
2026-01-29 01:31:39.70	226.34	12.71	-43.3	-44.3	20.2	0.00e+00	0	42	0	2151677952	57	4224
2026-01-29 01:31:43.74	226.21	12.32	-43.4	-44.3	20.2	0.00e+00	0	42	0	2164260864	57	4234
2026-01-29 01:31:47.78	226.09	11.94	-43.5	-44.5	20.0	0.00e+00	0	42	0	2176843776	57	4336
2026-01-29 01:31:51.82	225.97	11.57	-43.5	-44.5	19.9	0.00e+00	0	42	0	2189426688	57	4339
2026-01-29 01:31:55.86	225.85	11.20	-43.4	-44.4	20.0	0.00e+00	0	42	0	2202009600	58	4047
2026-01-29 01:31:59.89	225.74	10.84	-43.5	-44.6	19.9	0.00e+00	0	42	0	2214592512	58	4109
2026-01-29 01:32:03.93	225.63	10.48	-43.6	-44.6	19.8	0.00e+00	0	42	0	2227175424	58	4144
2026-01-29 01:32:07.96	225.52	10.13	-43.7	-44.8	19.7	0.00e+00	0	42	0	2239758336	58	4199
2026-01-29 01:32:12.00	225.42	9.78	-43.7	-44.8	19.6	0.00e+00	0	42	0	2252341248	58	4211
2026-01-29 01:32:16.04	225.32	9.44	-43.8	-44.8	19.5	0.00e+00	0	42	0	2264924160	58	4240
2026-01-29 01:32:20.08	225.22	9.10	-43.9	-45.0	19.4	0.00e+00	0	42	0	2277507072	58	4312
2026-01-29 01:32:24.11	225.13	8.77	-44.1	-45.2	19.2	0.00e+00	0	42	0	2290089984	58	4397
2026-01-29 01:32:28.14	225.03	8.44	-44.3	-45.5	18.9	0.00e+00	0	42	0	2302672896	59	4301
2026-01-29 01:32:32.18	224.94	8.11	-44.4	-45.6	18.7	0.00e+00	0	42	0	2315255808	59	4360
2026-01-29 01:32:36.22	224.85	7.79	-44.4	-45.6	18.7	0.00e+00	0	42	0	2327838720	59	4347
2026-01-29 01:32:40.25	224.77	7.47	-44.6	-45.8	18.4	0.00e+00	0	42	0	2340421632	59	4467
2026-01-29 01:32:44.29	224.68	7.16	-44.7	-45.9	18.3	0.00e+00	0	42	0	2353004544	59	4515
2026-01-29 01:32:48.32	224.60	6.85	-44.4	-45.6	18.2	0.00e+00	0	42	0	2365587456	60	4136
2026-01-29 01:32:52.35	224.52	6.55	-44.5	-45.8	18.0	0.00e+00	0	42	0	2378170368	60	4213
2026-01-29 01:32:56.39	224.44	6.24	-44.6	-45.9	17.9	0.00e+00	0	42	0	2390753280	60	4246
2026-01-29 01:33:00.42	224.36	5.94	-44.6	-45.9	17.8	0.00e+00	0	42	0	2403336192	60	4262
2026-01-29 01:33:04.46	224.29	5.65	-44.8	-46.1	17.5	0.00e+00	0	42	0	2415919104	60	4375
2026-01-29 01:33:08.49	224.22	5.36	-45.0	-46.4	17.2	0.00e+00	0	42	0	2428502016	60	4502
2026-01-29 01:33:12.53	224.15	5.07	-44.9	-46.2	17.3	0.00e+00	0	42	0	2442133504	60	4427
2026-01-29 01:33:16.57	224.08	4.78	-53.1	-65.8	3.8	1.49e+00	0	42	104	2445279232	76	16838
2026-01-29 01:33:20.60	224.01	4.50	-53.4	-66.2	3.8	1.49e+00	0	42	104	2445279232	77	16624
2026-01-29 01:33:24.63	223.94	4.22	-53.6	-66.4	3.8	1.49e+00	0	43	104	2445279232	77	16915
2026-01-29 01:33:28.67	223.88	3.94	-53.6	-66.4	3.8	1.49e+00	0	42	104	2445279232	77	16991
2026-01-29 01:33:32.71	223.81	3.66	-53.3	-66.1	3.8	1.49e+00	0	42	104	2445279232	77	16413
2026-01-29 01:33:36.74	223.75	3.39	-53.2	-65.9	3.8	1.49e+00	0	42	104	2445279232	77	16109
2026-01-29 01:33:40.77	223.69	3.12	-53.1	-65.9	3.8	1.49e+00	0	43	104	2445279232	77	16030
2026-01-29 01:33:44.80	223.63	2.86	-53.1	-65.9	3.8	1.49e+00	0	42	104	2445279232	77	16067
2026-01-29 01:33:48.83	223.57	2.59	-53.1	-65.8	3.8	1.49e+00	0	42	104	2445279232	77	15942
2026-01-29 01:33:52.86	223.52	2.33	-53.1	-65.8	3.8	1.49e+00	0	43	104	2445279232	77	15934
2026-01-29 01:33:56.89	223.46	2.07	-53.1	-65.8	3.8	1.49e+00	0	42	104	2445279232	77	15917

#Closed at: 2026-01-29 01:33:58
#Recorded file [2445 MB]: D:/lorett/data/31041_260129_041937.dat