passes_logs/2026/01/29/R3.2S_Murmansk/R3.2S_Murmansk__20260129_020952_NOAA_20_JPSS-1_rec.log

#Pass ID: 20260129_020952_NOAA 20 (JPSS-1)
#Satellite: NOAA 20 (JPSS-1)
#Configuration: NOAA 20
#almurnet v.1.7.20251203
#Start time: 2026-01-29 02:09:53

#Version: 2.2.20231116
#Station: R3.2S_Murmansk
#Location: 33.079688 lon 68.888172 lat
#TLE: 1 43013U 17073A   26027.94683596  .00000137  00000+0  85741-4 0  9995
#TLE: 2 43013  98.7648 328.7503 0000940  21.3928 338.7287 14.19541154424576

#Time	Az	El	Level	Level2	SNR	BER	BlckErr	Temp	State	Recorded	gain1	gain2
2026-01-29 02:09:53.96	31.68	2.08	-53.9	-68.9	3.8	1.49e+00	0	40	0	0	79	20210
2026-01-29 02:09:57.99	31.55	2.33	-53.9	-68.9	3.8	1.49e+00	0	40	104	0	78	21292
2026-01-29 02:10:02.01	31.42	2.59	-54.1	-69.1	3.8	1.49e+00	0	40	104	0	78	21870
2026-01-29 02:10:06.05	31.28	2.84	-54.1	-69.2	3.8	1.49e+00	0	40	104	0	78	22027
2026-01-29 02:10:10.09	31.15	3.10	-54.1	-69.1	3.8	1.49e+00	0	41	104	0	78	21948
2026-01-29 02:10:14.11	31.01	3.36	-54.1	-69.0	3.8	1.49e+00	0	41	104	0	78	21699
2026-01-29 02:10:18.15	30.87	3.63	-53.6	-68.6	3.8	1.49e+00	0	41	104	0	78	20588
2026-01-29 02:10:22.18	30.72	3.89	-52.6	-67.5	3.8	1.49e+00	0	41	104	0	77	19172
2026-01-29 02:10:26.21	30.58	4.16	-51.4	-60.1	5.7	4.18e-01	0	41	0	4194304	74	9769
2026-01-29 02:10:30.24	30.43	4.43	-51.3	-60.1	5.7	4.23e-01	0	41	0	11534336	74	9830
2026-01-29 02:10:34.27	30.27	4.70	-51.1	-58.7	6.9	2.29e-01	0	41	0	18874368	74	8314
2026-01-29 02:10:38.30	30.12	4.98	-50.6	-56.8	8.7	3.68e-02	0	41	0	27262976	73	7064
2026-01-29 02:10:42.33	29.96	5.26	-51.0	-58.7	6.4	9.29e-01	0	41	0	33554432	73	8818
2026-01-29 02:10:46.36	29.79	5.54	-47.1	-49.2	16.7	0.00e+00	0	41	0	38797312	66	4415
2026-01-29 02:10:50.39	29.62	5.82	-47.0	-49.1	16.9	0.00e+00	0	41	0	46137344	65	4602
2026-01-29 02:10:54.43	29.45	6.11	-46.9	-49.0	17.0	0.00e+00	0	41	0	54525952	65	4563
2026-01-29 02:10:58.46	29.28	6.40	-46.6	-48.4	17.6	0.00e+00	0	41	0	61865984	65	4290
2026-01-29 02:11:02.50	29.10	6.69	-46.6	-48.5	17.6	0.00e+00	0	41	0	69206016	64	4553
2026-01-29 02:11:06.53	28.92	6.98	-46.4	-48.3	17.9	0.00e+00	0	41	0	76546048	64	4451
2026-01-29 02:11:10.56	28.73	7.28	-46.5	-48.4	17.8	0.00e+00	0	41	0	83886080	64	4522
2026-01-29 02:11:14.59	28.54	7.58	-46.5	-48.3	17.9	0.00e+00	0	41	0	92274688	64	4469
2026-01-29 02:11:18.62	28.35	7.89	-46.6	-48.4	17.8	0.00e+00	0	42	0	99614720	64	4519
2026-01-29 02:11:22.65	28.15	8.20	-46.4	-48.2	18.1	0.00e+00	0	41	0	106954752	64	4393
2026-01-29 02:11:26.68	27.94	8.51	-46.4	-48.2	18.1	0.00e+00	0	41	0	114294784	64	4399
2026-01-29 02:11:30.71	27.74	8.82	-46.2	-47.9	18.4	0.00e+00	0	42	0	121634816	64	4262
2026-01-29 02:11:34.75	27.52	9.14	-46.2	-47.9	18.4	0.00e+00	0	42	0	130023424	64	4282
2026-01-29 02:11:38.77	27.30	9.46	-46.1	-47.7	18.7	0.00e+00	0	42	0	137363456	64	4173
2026-01-29 02:11:42.80	27.08	9.79	-46.0	-47.6	18.8	0.00e+00	0	42	0	144703488	64	4128
2026-01-29 02:11:46.83	26.85	10.12	-46.0	-47.5	19.0	0.00e+00	0	42	0	152043520	63	4329
2026-01-29 02:11:50.86	26.62	10.45	-46.0	-47.6	18.9	0.00e+00	0	42	0	159383552	63	4376
2026-01-29 02:11:54.89	26.37	10.79	-45.9	-47.5	19.0	0.00e+00	0	42	0	167772160	63	4314
2026-01-29 02:11:58.92	26.13	11.13	-45.8	-47.3	19.3	0.00e+00	0	42	0	175112192	63	4220
2026-01-29 02:12:02.95	25.88	11.48	-45.9	-47.4	19.2	0.00e+00	0	42	0	182452224	63	4256
2026-01-29 02:12:06.98	25.62	11.83	-45.8	-47.3	19.3	0.00e+00	0	42	0	189792256	63	4215
2026-01-29 02:12:11.02	25.35	12.19	-45.6	-47.1	19.5	0.00e+00	0	42	0	198180864	63	4111
2026-01-29 02:12:15.04	25.08	12.55	-45.6	-47.0	19.6	0.00e+00	0	42	0	205520896	63	4096
2026-01-29 02:12:19.07	24.80	12.91	-45.5	-46.9	19.8	0.00e+00	0	42	0	212860928	62	4249
2026-01-29 02:12:23.09	24.51	13.28	-45.4	-46.8	19.8	0.00e+00	0	42	0	220200960	62	4234
2026-01-29 02:12:27.13	24.21	13.66	-45.4	-46.8	19.9	0.00e+00	0	42	0	227540992	62	4205
2026-01-29 02:12:31.16	23.91	14.03	-45.4	-46.8	19.9	0.00e+00	0	42	0	234881024	62	4207
2026-01-29 02:12:35.19	23.60	14.42	-45.5	-46.9	19.8	0.00e+00	0	42	0	243269632	62	4265
2026-01-29 02:12:39.22	23.28	14.81	-45.5	-46.9	19.8	0.00e+00	0	42	0	250609664	62	4263
2026-01-29 02:12:43.25	22.95	15.20	-45.3	-46.7	20.1	0.00e+00	0	42	0	257949696	62	4159
2026-01-29 02:12:47.28	22.61	15.60	-45.4	-46.7	20.0	0.00e+00	0	42	0	265289728	62	4181
2026-01-29 02:12:51.31	22.26	16.01	-45.4	-46.8	20.0	0.00e+00	0	42	0	273678336	62	4198
2026-01-29 02:12:55.34	21.90	16.42	-45.5	-46.9	19.9	0.00e+00	0	42	0	281018368	62	4262
2026-01-29 02:12:59.37	21.54	16.84	-45.5	-46.9	19.9	0.00e+00	0	42	0	288358400	62	4282
2026-01-29 02:13:03.40	21.16	17.26	-45.6	-47.0	19.8	0.00e+00	0	42	0	295698432	62	4332
2026-01-29 02:13:07.43	20.77	17.69	-45.7	-47.1	19.7	0.00e+00	0	42	0	303038464	62	4380
2026-01-29 02:13:11.46	20.36	18.13	-45.8	-47.2	19.7	0.00e+00	0	42	0	311427072	62	4421
2026-01-29 02:13:15.49	19.95	18.57	-45.9	-47.3	19.6	0.00e+00	0	42	0	318767104	62	4463
2026-01-29 02:13:19.52	19.52	19.02	-45.9	-47.3	19.6	0.00e+00	0	42	0	326107136	62	4464
2026-01-29 02:13:23.55	19.08	19.47	-45.9	-47.4	19.6	0.00e+00	0	42	0	333447168	62	4504
2026-01-29 02:13:27.58	18.63	19.93	-46.0	-47.4	19.5	0.00e+00	0	42	0	341835776	62	4544
2026-01-29 02:13:31.61	18.16	20.40	-46.0	-47.5	19.5	0.00e+00	0	42	0	349175808	62	4581
2026-01-29 02:13:35.64	17.67	20.87	-46.1	-47.6	19.4	0.00e+00	0	42	0	356515840	62	4615
2026-01-29 02:13:39.67	17.17	21.36	-46.0	-47.4	19.6	0.00e+00	0	42	0	363855872	62	4539
2026-01-29 02:13:43.69	16.66	21.84	-46.0	-47.4	19.6	0.00e+00	0	42	0	371195904	62	4518
2026-01-29 02:13:47.72	16.13	22.34	-45.8	-47.3	19.8	0.00e+00	0	42	0	378535936	62	4444
2026-01-29 02:13:51.76	15.57	22.84	-45.8	-47.2	19.9	0.00e+00	0	42	0	386924544	62	4399
2026-01-29 02:13:55.79	15.01	23.35	-45.9	-47.3	19.7	0.00e+00	0	42	0	394264576	62	4486
2026-01-29 02:13:59.82	14.42	23.87	-45.8	-47.2	19.9	0.00e+00	0	42	0	401604608	62	4400
2026-01-29 02:14:03.85	13.81	24.39	-45.9	-47.4	19.7	0.00e+00	0	42	0	408944640	62	4502
2026-01-29 02:14:07.88	13.18	24.92	-46.1	-47.6	19.5	0.00e+00	0	42	0	417333248	62	4620
2026-01-29 02:14:11.91	12.52	25.45	-46.2	-47.6	19.5	0.00e+00	0	42	0	424673280	62	4651
2026-01-29 02:14:15.94	11.85	26.00	-46.2	-47.7	19.5	0.00e+00	0	42	0	432013312	63	4404
2026-01-29 02:14:19.97	11.15	26.55	-46.2	-47.6	19.6	0.00e+00	0	42	0	439353344	63	4380
2026-01-29 02:14:24.00	10.42	27.10	-46.2	-47.6	19.5	0.00e+00	0	42	0	446693376	63	4391
2026-01-29 02:14:28.03	9.67	27.66	-46.3	-47.8	19.5	0.00e+00	0	42	0	455081984	63	4453
2026-01-29 02:14:32.07	8.89	28.23	-46.5	-48.1	19.2	0.00e+00	0	42	0	462422016	63	4603
2026-01-29 02:14:36.10	8.09	28.81	-46.6	-48.2	19.0	0.00e+00	0	42	0	469762048	64	4414
2026-01-29 02:14:40.13	7.25	29.38	-47.2	-49.0	18.2	0.00e+00	0	42	0	477102080	65	4563
2026-01-29 02:14:44.16	6.38	29.97	-47.6	-49.4	17.8	0.00e+00	0	42	0	484442112	65	4807
2026-01-29 02:14:48.19	5.48	30.55	-48.3	-50.5	16.8	0.00e+00	0	42	0	492830720	67	4835
2026-01-29 02:14:52.22	4.54	31.15	-48.9	-51.3	16.1	0.00e+00	0	42	0	500170752	68	4985
2026-01-29 02:14:56.25	3.57	31.74	-48.8	-51.1	16.3	0.00e+00	0	42	0	507510784	69	4625
2026-01-29 02:15:00.29	2.56	32.34	-48.2	-50.2	17.2	0.00e+00	0	42	0	514850816	68	4409
2026-01-29 02:15:04.31	1.52	32.93	-48.4	-50.5	16.9	0.00e+00	0	42	0	522190848	68	4580
2026-01-29 02:15:08.34	0.44	33.53	-48.3	-50.4	17.0	0.00e+00	0	42	0	530579456	68	4527
2026-01-29 02:15:12.38	359.31	34.13	-48.2	-50.2	17.2	0.00e+00	0	42	0	537919488	68	4436
2026-01-29 02:15:16.40	358.14	34.73	-47.3	-49.0	18.3	0.00e+00	0	42	0	545259520	66	4323
2026-01-29 02:15:20.42	356.93	35.32	-46.6	-48.1	19.2	0.00e+00	0	42	0	552599552	65	4132
2026-01-29 02:15:24.46	355.67	35.91	-46.7	-48.2	19.2	0.00e+00	0	42	0	559939584	65	4169
2026-01-29 02:15:28.49	354.37	36.49	-46.6	-48.1	19.3	0.00e+00	0	42	0	568328192	65	4120
2026-01-29 02:15:32.53	353.01	37.07	-47.1	-48.8	18.7	0.00e+00	0	42	0	575668224	65	4456
2026-01-29 02:15:36.56	351.61	37.64	-47.0	-48.6	18.9	0.00e+00	0	42	0	583008256	65	4365
2026-01-29 02:15:40.60	350.16	38.19	-47.2	-48.9	18.6	0.00e+00	0	42	0	590348288	65	4503
2026-01-29 02:15:44.63	348.66	38.74	-47.3	-49.0	18.5	0.00e+00	0	42	0	597688320	65	4577
2026-01-29 02:15:48.66	347.11	39.27	-47.6	-49.3	18.2	0.00e+00	0	42	0	606076928	66	4466
2026-01-29 02:15:52.69	345.50	39.78	-47.3	-49.0	18.6	0.00e+00	0	42	0	613416960	66	4293
2026-01-29 02:15:56.72	343.85	40.27	-46.4	-47.8	19.6	0.00e+00	0	42	0	620756992	64	4242
2026-01-29 02:16:00.75	342.15	40.74	-46.0	-47.3	20.2	0.00e+00	0	42	0	628097024	64	3991
2026-01-29 02:16:04.79	340.39	41.19	-45.9	-47.3	20.3	0.00e+00	0	42	0	636485632	63	4202
2026-01-29 02:16:08.82	338.59	41.61	-45.8	-47.1	20.5	0.00e+00	0	42	0	643825664	63	4106
2026-01-29 02:16:12.85	336.74	42.00	-46.6	-48.1	19.5	0.00e+00	0	42	0	651165696	63	4632
2026-01-29 02:16:16.88	334.85	42.36	-46.2	-47.6	20.0	0.00e+00	0	42	0	658505728	63	4382
2026-01-29 02:16:20.92	332.91	42.69	-46.0	-47.3	20.2	0.00e+00	0	42	0	665845760	63	4236
2026-01-29 02:16:24.96	330.94	42.99	-46.0	-47.3	20.3	0.00e+00	0	42	0	674234368	63	4237
2026-01-29 02:16:28.99	328.93	43.25	-45.6	-46.9	20.7	0.00e+00	0	42	0	681574400	63	4030
2026-01-29 02:16:33.03	326.89	43.47	-45.5	-46.7	20.9	0.00e+00	0	42	0	688914432	62	4191
2026-01-29 02:16:37.06	324.83	43.64	-45.9	-47.2	20.4	0.00e+00	0	42	0	696254464	62	4428
2026-01-29 02:16:41.09	322.75	43.78	-46.4	-47.7	19.9	0.00e+00	0	42	0	704643072	63	4437
2026-01-29 02:16:45.12	320.65	43.88	-46.6	-48.0	19.6	0.00e+00	0	42	0	711983104	64	4323
2026-01-29 02:16:49.15	318.55	43.93	-46.2	-47.6	20.0	0.00e+00	0	42	0	719323136	64	4117
2026-01-29 02:16:53.18	316.43	43.94	-47.2	-48.8	18.8	0.00e+00	0	42	0	726663168	65	4478
2026-01-29 02:16:57.21	314.32	43.90	-47.7	-49.5	18.2	0.00e+00	0	42	0	734003200	65	4831
2026-01-29 02:17:01.24	312.22	43.82	-47.3	-49.0	18.7	0.00e+00	0	42	0	741343232	66	4299
2026-01-29 02:17:05.27	310.13	43.70	-49.0	-51.1	16.7	0.00e+00	0	42	0	749731840	68	4924
2026-01-29 02:17:09.30	308.06	43.54	-48.6	-50.6	17.2	0.00e+00	0	42	0	757071872	68	4614
2026-01-29 02:17:13.33	306.02	43.33	-48.4	-50.3	17.5	0.00e+00	0	42	0	764411904	68	4487
2026-01-29 02:17:17.36	304.00	43.09	-49.7	-52.3	15.6	0.00e+00	0	42	0	771751936	69	5281
2026-01-29 02:17:21.40	302.01	42.81	-48.2	-50.1	17.7	0.00e+00	0	42	0	780140544	68	4356
2026-01-29 02:17:25.43	300.06	42.49	-47.8	-49.6	18.2	0.00e+00	0	42	0	787480576	67	4359
2026-01-29 02:17:29.47	298.15	42.14	-46.5	-47.9	19.8	0.00e+00	0	42	0	794820608	65	4038
2026-01-29 02:17:33.50	296.28	41.76	-46.2	-47.6	20.2	0.00e+00	0	42	0	802160640	63	4350
2026-01-29 02:17:37.53	294.46	41.35	-45.7	-47.0	20.8	0.00e+00	0	42	0	809500672	63	4072
2026-01-29 02:17:41.57	292.68	40.91	-45.1	-46.3	21.4	0.00e+00	0	42	0	817889280	62	3982
2026-01-29 02:17:45.59	290.96	40.44	-44.2	-45.3	22.4	0.00e+00	0	42	0	825229312	60	3962
2026-01-29 02:17:49.62	289.29	39.96	-44.3	-45.3	22.3	0.00e+00	0	42	0	832569344	60	3990
2026-01-29 02:17:53.65	287.67	39.45	-44.2	-45.3	22.3	0.00e+00	0	42	0	839909376	60	3986
2026-01-29 02:17:57.69	286.09	38.93	-44.2	-45.3	22.4	0.00e+00	0	42	0	847249408	60	3965
2026-01-29 02:18:01.72	284.57	38.39	-44.7	-45.8	21.8	0.00e+00	0	42	0	855638016	60	4234
2026-01-29 02:18:05.76	283.09	37.84	-45.1	-46.2	21.5	0.00e+00	0	42	0	862978048	60	4433
2026-01-29 02:18:09.79	281.67	37.27	-45.2	-46.3	21.4	0.00e+00	0	42	0	870318080	61	4234
2026-01-29 02:18:13.83	280.29	36.70	-45.8	-47.0	20.7	0.00e+00	0	42	0	877658112	62	4335
2026-01-29 02:18:17.86	278.97	36.11	-45.9	-47.2	20.5	0.00e+00	0	42	0	884998144	62	4436
2026-01-29 02:18:21.89	277.69	35.53	-46.4	-47.8	19.9	0.00e+00	0	42	0	893386752	63	4489
2026-01-29 02:18:25.92	276.46	34.93	-46.6	-48.0	19.7	0.00e+00	0	42	0	900726784	63	4570
2026-01-29 02:18:29.95	275.28	34.34	-47.4	-49.0	18.6	0.00e+00	0	42	0	908066816	65	4580
2026-01-29 02:18:33.98	274.13	33.74	-47.5	-49.2	18.4	0.00e+00	0	42	0	915406848	66	4429
2026-01-29 02:18:38.02	273.03	33.14	-48.2	-50.1	17.6	0.00e+00	0	42	0	923795456	66	4887
2026-01-29 02:18:42.05	271.96	32.54	-48.4	-50.4	17.2	0.00e+00	0	42	0	931135488	67	4794
2026-01-29 02:18:46.08	270.94	31.94	-48.1	-50.0	17.6	0.00e+00	0	42	0	938475520	67	4557
2026-01-29 02:18:50.12	269.95	31.34	-48.2	-50.1	17.4	0.00e+00	0	42	0	945815552	67	4638
2026-01-29 02:18:54.15	269.00	30.75	-48.3	-50.3	17.2	0.00e+00	0	42	0	953155584	67	4709
2026-01-29 02:18:58.18	268.09	30.16	-47.8	-49.6	17.8	0.00e+00	0	42	0	961544192	67	4369
2026-01-29 02:19:02.22	267.20	29.57	-47.3	-49.0	18.4	0.00e+00	0	42	0	968884224	66	4327
2026-01-29 02:19:06.25	266.35	28.99	-47.4	-49.1	18.3	0.00e+00	0	42	0	976224256	66	4378
2026-01-29 02:19:10.28	265.53	28.41	-47.0	-48.6	18.7	0.00e+00	0	42	0	983564288	66	4134
2026-01-29 02:19:14.31	264.74	27.84	-46.7	-48.2	19.1	0.00e+00	0	42	0	990904320	65	4181
2026-01-29 02:19:18.34	263.98	27.27	-46.8	-48.3	19.0	0.00e+00	0	42	0	999292928	65	4235
2026-01-29 02:19:22.37	263.24	26.71	-46.6	-48.1	19.2	0.00e+00	0	42	0	1006632960	65	4132
2026-01-29 02:19:26.39	262.53	26.16	-46.6	-48.2	19.1	0.00e+00	0	42	0	1013972992	64	4405
2026-01-29 02:19:30.42	261.85	25.62	-46.8	-48.5	18.8	0.00e+00	0	42	0	1021313024	64	4548
2026-01-29 02:19:34.45	261.19	25.08	-47.0	-48.6	18.7	0.00e+00	0	42	0	1028653056	64	4620
2026-01-29 02:19:38.48	260.54	24.54	-47.3	-49.1	18.2	0.00e+00	0	42	0	1037041664	65	4609
2026-01-29 02:19:42.51	259.93	24.02	-46.8	-48.4	18.8	0.00e+00	0	42	0	1044381696	65	4272
2026-01-29 02:19:46.55	259.33	23.50	-46.7	-48.3	19.0	0.00e+00	0	42	0	1051721728	65	4212
2026-01-29 02:19:50.58	258.75	22.98	-46.8	-48.4	18.8	0.00e+00	0	42	0	1059061760	65	4258
2026-01-29 02:19:54.61	258.19	22.48	-46.8	-48.5	18.7	0.00e+00	0	42	0	1067450368	65	4305
2026-01-29 02:19:58.65	257.65	21.98	-47.0	-48.6	18.5	0.00e+00	0	42	0	1074790400	65	4380
2026-01-29 02:20:02.69	257.12	21.48	-47.1	-48.9	18.3	0.00e+00	0	42	0	1082130432	65	4507
2026-01-29 02:20:06.72	256.61	21.00	-46.9	-48.5	18.6	0.00e+00	0	42	0	1089470464	65	4337
2026-01-29 02:20:10.75	256.12	20.52	-46.5	-48.1	19.0	0.00e+00	0	42	0	1096810496	64	4345
2026-01-29 02:20:14.78	255.65	20.05	-46.7	-48.4	18.7	0.00e+00	0	42	0	1105199104	64	4513
2026-01-29 02:20:18.80	255.19	19.59	-46.8	-48.5	18.6	0.00e+00	0	42	0	1112539136	64	4569
2026-01-29 02:20:22.83	254.74	19.13	-46.5	-48.1	19.0	0.00e+00	0	42	0	1119879168	64	4354
2026-01-29 02:20:26.87	254.31	18.68	-46.4	-48.0	18.9	0.00e+00	0	42	0	1127219200	64	4333
2026-01-29 02:20:30.89	253.89	18.23	-46.4	-48.0	19.0	0.00e+00	0	42	0	1134559232	64	4333
2026-01-29 02:20:34.91	253.48	17.80	-46.4	-48.0	19.0	0.00e+00	0	42	0	1142947840	64	4302
2026-01-29 02:20:38.94	253.08	17.36	-46.7	-48.4	18.5	0.00e+00	0	42	0	1150287872	64	4528
2026-01-29 02:20:42.98	252.69	16.94	-46.9	-48.7	18.3	0.00e+00	0	42	0	1157627904	64	4655
2026-01-29 02:20:47.01	252.32	16.51	-46.9	-48.7	18.3	0.00e+00	0	42	0	1164967936	64	4661
2026-01-29 02:20:51.04	251.96	16.10	-46.6	-48.3	18.6	0.00e+00	0	42	0	1172307968	64	4473
2026-01-29 02:20:55.07	251.60	15.69	-46.7	-48.5	18.4	0.00e+00	0	42	0	1180696576	64	4547
2026-01-29 02:20:59.10	251.26	15.29	-46.9	-48.7	18.2	0.00e+00	0	42	0	1188036608	64	4672
2026-01-29 02:21:03.13	250.93	14.89	-47.0	-48.8	18.1	0.00e+00	0	42	0	1195376640	64	4733
2026-01-29 02:21:07.16	250.60	14.50	-47.1	-48.8	17.9	0.00e+00	0	42	0	1202716672	64	4757
2026-01-29 02:21:11.19	250.28	14.11	-47.0	-48.8	17.9	0.00e+00	0	42	0	1211105280	64	4746
2026-01-29 02:21:15.22	249.98	13.73	-47.2	-49.1	17.7	0.00e+00	0	42	0	1218445312	65	4606
2026-01-29 02:21:19.26	249.67	13.35	-47.3	-49.2	17.6	0.00e+00	0	42	0	1225785344	65	4679
2026-01-29 02:21:23.28	249.38	12.98	-47.3	-49.3	17.5	0.00e+00	0	42	0	1233125376	65	4714
2026-01-29 02:21:27.31	249.10	12.61	-47.3	-49.3	17.4	0.00e+00	0	42	0	1240465408	65	4720
2026-01-29 02:21:31.35	248.82	12.25	-47.4	-49.3	17.4	0.00e+00	0	42	0	1247805440	65	4749
2026-01-29 02:21:35.38	248.55	11.89	-47.4	-49.4	17.3	0.00e+00	0	42	0	1256194048	65	4782
2026-01-29 02:21:39.41	248.29	11.54	-47.4	-49.3	17.3	0.00e+00	0	42	0	1263534080	65	4754
2026-01-29 02:21:43.44	248.03	11.19	-47.4	-49.4	17.3	0.00e+00	0	42	0	1270874112	65	4762
2026-01-29 02:21:47.47	247.78	10.85	-47.3	-49.2	17.4	0.00e+00	0	42	0	1278214144	65	4678
2026-01-29 02:21:51.50	247.53	10.51	-47.6	-49.6	17.0	0.00e+00	0	42	0	1286602752	65	4918
2026-01-29 02:21:55.53	247.29	10.17	-47.8	-50.0	16.6	0.00e+00	0	42	0	1293942784	66	4839
2026-01-29 02:21:59.56	247.06	9.84	-48.0	-50.3	16.2	0.00e+00	0	42	0	1301282816	66	5011
2026-01-29 02:22:03.60	246.83	9.51	-48.0	-50.3	16.2	0.00e+00	0	42	0	1308622848	66	5007
2026-01-29 02:22:07.62	246.61	9.19	-47.8	-50.1	16.4	0.00e+00	0	42	0	1315962880	66	4884
2026-01-29 02:22:11.65	246.39	8.87	-47.7	-49.9	16.5	0.00e+00	0	42	0	1324351488	66	4796
2026-01-29 02:22:15.68	246.18	8.55	-47.6	-49.8	16.6	0.00e+00	0	42	0	1331691520	66	4742
2026-01-29 02:22:19.71	245.97	8.24	-48.0	-50.3	16.1	0.00e+00	0	42	0	1339031552	66	5035
2026-01-29 02:22:23.73	245.77	7.93	-47.8	-50.1	16.3	0.00e+00	0	42	0	1346371584	66	4879
2026-01-29 02:22:27.76	245.57	7.62	-48.0	-50.5	15.9	0.00e+00	0	42	0	1353711616	66	5116
2026-01-29 02:22:31.79	245.38	7.32	-48.0	-50.3	15.9	0.00e+00	0	42	0	1362100224	66	5040
2026-01-29 02:22:35.82	245.19	7.02	-48.0	-50.4	15.8	0.00e+00	0	42	0	1369440256	66	5079
2026-01-29 02:22:39.84	245.00	6.72	-48.2	-50.8	15.4	0.00e+00	0	42	0	1376780288	66	5284
2026-01-29 02:22:43.87	244.82	6.43	-48.1	-50.6	15.5	0.00e+00	0	42	0	1384120320	66	5193
2026-01-29 02:22:47.90	244.64	6.14	-48.2	-50.8	15.3	0.00e+00	0	42	0	1391460352	66	5306
2026-01-29 02:22:51.94	244.47	5.85	-48.2	-50.8	15.2	0.00e+00	0	42	0	1399848960	67	5028
2026-01-29 02:22:55.97	244.30	5.56	-48.2	-51.0	15.0	0.00e+00	0	42	0	1407188992	67	5107
2026-01-29 02:23:00.00	244.13	5.28	-48.3	-51.1	14.8	0.00e+00	0	42	0	1414529024	67	5202
2026-01-29 02:23:04.03	243.97	5.00	-48.2	-51.0	14.9	0.00e+00	0	42	0	1421869056	67	5128
2026-01-29 02:23:08.06	243.81	4.73	-53.0	-68.0	3.8	1.49e+00	0	42	104	1422917632	76	21618
2026-01-29 02:23:12.09	243.65	4.45	-53.2	-68.2	3.8	1.49e+00	0	42	104	1422917632	76	22049
2026-01-29 02:23:16.13	243.50	4.18	-53.0	-68.0	3.8	1.49e+00	0	42	104	1422917632	76	21634
2026-01-29 02:23:20.16	243.35	3.91	-53.0	-68.0	3.8	1.49e+00	0	42	104	1422917632	76	21618
2026-01-29 02:23:24.19	243.20	3.64	-53.2	-68.2	3.8	1.49e+00	0	42	104	1422917632	76	22103
2026-01-29 02:23:28.23	243.05	3.38	-53.2	-68.2	3.8	1.49e+00	0	42	104	1422917632	77	20827
2026-01-29 02:23:32.26	242.91	3.12	-53.1	-68.1	3.8	1.49e+00	0	42	104	1422917632	77	20699
2026-01-29 02:23:36.30	242.77	2.86	-53.1	-68.1	3.8	1.49e+00	0	42	104	1422917632	77	20653
2026-01-29 02:23:40.32	242.63	2.60	-53.1	-68.1	3.8	1.49e+00	0	42	104	1422917632	77	20591
2026-01-29 02:23:44.36	242.50	2.35	-53.1	-68.0	3.8	1.49e+00	0	42	104	1422917632	77	20501
2026-01-29 02:23:48.39	242.37	2.09	-53.1	-68.0	3.8	1.49e+00	0	42	104	1422917632	77	20436

#Closed at: 2026-01-29 02:23:50
#Recorded file [1422 MB]: D:/lorett/data/31041_260129_050953.dat