passes_logs/2026/01/29/R3.2S_Murmansk/R3.2S_Murmansk__20260129_235009_SUOMI_NPP_rec.log

#Pass ID: 20260129_235009_SUOMI NPP
#Satellite: SUOMI NPP
#Configuration: NPP
#almurnet v.1.7.20251203
#Start time: 2026-01-29 23:50:09

#Version: 2.2.20231116
#Station: R3.2S_Murmansk
#Location: 33.079688 lon 68.888172 lat
#TLE: 1 37849U 11061A   26029.48304708  .00000140  00000+0  87283-4 0  9999
#TLE: 2 37849  98.7824 331.4079 0002024  38.4342 321.6978 14.19531488738761

#Time	Az	El	Level	Level2	SNR	BER	BlckErr	Temp	State	Recorded	gain1	gain2
2026-01-29 23:50:09.27	21.55	1.98	-54.0	-69.0	3.8	1.49e+00	0	39	0	0	79	20325
2026-01-29 23:50:13.29	21.67	2.23	-52.2	-67.1	3.8	1.49e+00	0	39	104	0	76	19566
2026-01-29 23:50:17.32	21.79	2.48	-52.0	-67.0	3.8	1.49e+00	0	39	104	0	76	19305
2026-01-29 23:50:21.35	21.91	2.74	-52.0	-67.0	3.8	1.49e+00	0	40	104	0	76	19209
2026-01-29 23:50:25.37	22.04	3.00	-52.0	-66.9	3.8	1.49e+00	0	40	104	0	76	18970
2026-01-29 23:50:29.41	22.16	3.26	-52.0	-66.9	3.8	1.49e+00	0	40	104	0	76	19095
2026-01-29 23:50:33.43	22.29	3.52	-52.0	-66.9	3.8	1.49e+00	0	40	104	0	76	18992
2026-01-29 23:50:37.47	22.42	3.79	-51.9	-66.9	3.8	1.49e+00	0	40	104	0	75	20135
2026-01-29 23:50:41.51	22.56	4.06	-51.8	-63.6	4.1	1.48e+00	0	40	104	0	75	13874
2026-01-29 23:50:45.55	22.69	4.33	-50.4	-55.8	9.8	2.93e-02	0	40	0	6291456	72	6679
2026-01-29 23:50:49.57	22.83	4.60	-48.5	-51.6	14.2	3.00e-06	0	40	0	13631488	69	4873
2026-01-29 23:50:53.60	22.97	4.88	-47.6	-50.0	15.7	0.00e+00	0	41	0	22020096	66	4844
2026-01-29 23:50:57.62	23.11	5.16	-47.1	-49.4	16.4	0.00e+00	0	41	0	29360128	65	4764
2026-01-29 23:51:01.65	23.26	5.44	-49.0	-52.3	13.2	1.80e-01	0	41	0	36700160	70	5011
2026-01-29 23:51:05.67	23.40	5.72	-47.3	-49.6	16.2	0.00e+00	0	41	0	44040192	66	4607
2026-01-29 23:51:09.70	23.55	6.01	-47.5	-49.9	16.0	0.00e+00	0	41	0	51380224	66	4774
2026-01-29 23:51:13.72	23.70	6.30	-46.9	-48.9	17.0	0.00e+00	0	41	0	58720256	65	4526
2026-01-29 23:51:17.74	23.86	6.59	-46.8	-48.7	17.2	0.00e+00	0	41	0	67108864	65	4438
2026-01-29 23:51:21.77	24.01	6.89	-46.9	-48.9	17.1	0.00e+00	0	41	0	74448896	65	4534
2026-01-29 23:51:25.80	24.17	7.19	-46.8	-48.8	17.2	0.00e+00	0	41	0	81788928	65	4453
2026-01-29 23:51:29.82	24.34	7.50	-46.7	-48.7	17.3	0.00e+00	0	41	0	89128960	65	4392
2026-01-29 23:51:33.83	24.50	7.80	-46.7	-48.6	17.4	0.00e+00	0	41	0	96468992	65	4349
2026-01-29 23:51:37.85	24.67	8.11	-46.0	-47.7	18.4	0.00e+00	0	41	0	104857600	64	4154
2026-01-29 23:51:41.87	24.84	8.43	-45.9	-47.4	18.7	0.00e+00	0	41	0	112197632	63	4291
2026-01-29 23:51:45.90	25.02	8.74	-45.8	-47.4	18.8	0.00e+00	0	41	0	119537664	63	4256
2026-01-29 23:51:49.92	25.20	9.07	-45.6	-47.1	18.9	0.00e+00	0	41	0	126877696	63	4141
2026-01-29 23:51:53.92	25.38	9.39	-45.4	-46.9	19.2	0.00e+00	0	41	0	134217728	62	4271
2026-01-29 23:51:57.94	25.56	9.72	-45.3	-46.7	19.5	0.00e+00	0	41	0	141557760	62	4170
2026-01-29 23:52:01.97	25.75	10.05	-45.3	-46.7	19.5	0.00e+00	0	41	0	149946368	62	4178
2026-01-29 23:52:05.99	25.95	10.39	-45.3	-46.7	19.5	0.00e+00	0	41	0	157286400	62	4166
2026-01-29 23:52:10.02	26.15	10.74	-45.2	-46.6	19.7	0.00e+00	0	41	0	164626432	62	4103
2026-01-29 23:52:14.05	26.35	11.08	-45.0	-46.3	19.9	0.00e+00	0	41	0	171966464	61	4240
2026-01-29 23:52:18.08	26.56	11.44	-45.0	-46.4	19.9	0.00e+00	0	41	0	180355072	61	4267
2026-01-29 23:52:22.11	26.77	11.79	-45.1	-46.5	19.8	0.00e+00	0	41	0	187695104	61	4322
2026-01-29 23:52:26.14	26.99	12.16	-45.0	-46.4	20.0	0.00e+00	0	41	0	195035136	61	4249
2026-01-29 23:52:30.17	27.21	12.53	-45.0	-46.3	20.0	0.00e+00	0	41	0	202375168	61	4236
2026-01-29 23:52:34.19	27.43	12.90	-45.1	-46.5	19.9	0.00e+00	0	41	0	209715200	61	4303
2026-01-29 23:52:38.22	27.67	13.28	-44.7	-46.0	20.3	0.00e+00	0	41	0	218103808	61	4068
2026-01-29 23:52:42.24	27.90	13.66	-44.7	-46.0	20.4	0.00e+00	0	41	0	225443840	61	4070
2026-01-29 23:52:46.27	28.15	14.05	-44.5	-45.7	20.6	0.00e+00	0	41	0	232783872	60	4168
2026-01-29 23:52:50.31	28.40	14.45	-44.5	-45.7	20.6	0.00e+00	0	41	0	240123904	60	4182
2026-01-29 23:52:54.33	28.65	14.85	-44.4	-45.6	20.8	0.00e+00	0	41	0	247463936	60	4130
2026-01-29 23:52:58.36	28.91	15.26	-44.1	-45.3	21.1	0.00e+00	0	41	0	254803968	60	3959
2026-01-29 23:53:02.38	29.18	15.67	-44.2	-45.4	21.3	0.00e+00	0	41	0	263192576	59	4265
2026-01-29 23:53:06.41	29.46	16.09	-44.0	-45.2	21.5	0.00e+00	0	41	0	270532608	59	4150
2026-01-29 23:53:10.44	29.74	16.52	-43.8	-44.9	21.8	0.00e+00	0	41	0	277872640	59	4011
2026-01-29 23:53:14.47	30.04	16.95	-44.0	-45.1	21.6	0.00e+00	0	41	0	285212672	59	4119
2026-01-29 23:53:18.51	30.34	17.40	-44.2	-45.4	21.3	0.00e+00	0	41	0	293601280	59	4271
2026-01-29 23:53:22.53	30.64	17.85	-44.2	-45.4	21.4	0.00e+00	0	41	0	300941312	59	4248
2026-01-29 23:53:26.56	30.96	18.30	-43.9	-45.1	21.6	0.00e+00	0	41	0	308281344	59	4107
2026-01-29 23:53:30.59	31.28	18.77	-43.8	-44.9	21.8	0.00e+00	0	41	0	315621376	59	4012
2026-01-29 23:53:34.61	31.62	19.24	-43.7	-44.8	21.9	0.00e+00	0	41	0	322961408	59	3981
2026-01-29 23:53:38.65	31.97	19.72	-43.7	-44.8	21.9	0.00e+00	0	41	0	331350016	59	3986
2026-01-29 23:53:42.69	32.32	20.21	-43.7	-44.7	21.9	0.00e+00	0	41	0	338690048	58	4190
2026-01-29 23:53:46.72	32.69	20.71	-43.6	-44.7	22.0	0.00e+00	0	41	0	346030080	58	4181
2026-01-29 23:53:50.74	33.07	21.22	-43.7	-44.8	21.9	0.00e+00	0	41	0	353370112	58	4218
2026-01-29 23:53:54.77	33.46	21.74	-43.4	-44.5	22.3	0.00e+00	0	41	0	361758720	58	4064
2026-01-29 23:53:58.80	33.86	22.26	-43.0	-44.0	22.6	0.00e+00	0	41	0	369098752	58	3835
2026-01-29 23:54:02.83	34.28	22.80	-43.1	-44.2	22.5	0.00e+00	0	41	0	376438784	57	4150
2026-01-29 23:54:06.84	34.71	23.34	-43.1	-44.1	22.6	0.00e+00	0	41	0	383778816	57	4116
2026-01-29 23:54:10.87	35.15	23.90	-43.2	-44.2	22.5	0.00e+00	0	41	0	391118848	57	4170
2026-01-29 23:54:14.89	35.61	24.46	-43.6	-44.7	22.1	0.00e+00	0	41	0	398458880	58	4177
2026-01-29 23:54:18.92	36.09	25.04	-44.1	-45.3	21.6	0.00e+00	0	41	0	406847488	58	4452
2026-01-29 23:54:22.95	36.59	25.63	-44.5	-45.7	21.3	0.00e+00	0	41	0	414187520	59	4393
2026-01-29 23:54:26.97	37.10	26.23	-44.3	-45.5	21.4	0.00e+00	0	41	0	421527552	59	4314
2026-01-29 23:54:31.01	37.63	26.84	-44.4	-45.6	21.3	0.00e+00	0	41	0	428867584	59	4366
2026-01-29 23:54:35.03	38.18	27.46	-44.1	-45.3	21.4	0.00e+00	0	41	0	436207616	60	3969
2026-01-29 23:54:39.06	38.76	28.09	-44.4	-45.6	21.1	0.00e+00	0	42	0	444596224	60	4116
2026-01-29 23:54:43.09	39.35	28.74	-44.9	-46.2	20.5	0.00e+00	0	41	0	451936256	60	4424
2026-01-29 23:54:47.11	39.97	29.39	-46.0	-47.5	19.5	0.00e+00	0	41	0	459276288	63	4327
2026-01-29 23:54:51.14	40.62	30.06	-46.5	-48.0	18.9	0.00e+00	0	41	0	466616320	63	4578
2026-01-29 23:54:55.17	41.29	30.74	-46.9	-48.5	18.4	0.00e+00	0	41	0	473956352	64	4591
2026-01-29 23:54:59.20	41.99	31.44	-46.8	-48.5	18.5	0.00e+00	0	41	0	482344960	64	4550
2026-01-29 23:55:03.23	42.72	32.14	-46.6	-48.3	18.7	0.00e+00	0	41	0	489684992	64	4463
2026-01-29 23:55:07.26	43.48	32.86	-47.1	-48.9	18.2	0.00e+00	0	41	0	497025024	64	4768
2026-01-29 23:55:11.29	44.28	33.59	-46.0	-47.5	19.6	0.00e+00	0	41	0	504365056	63	4306
2026-01-29 23:55:15.31	45.11	34.32	-45.3	-46.6	20.4	0.00e+00	0	41	0	511705088	62	4118
2026-01-29 23:55:19.34	45.98	35.08	-46.1	-47.5	19.6	0.00e+00	0	41	0	520093696	63	4335
2026-01-29 23:55:23.37	46.89	35.84	-45.7	-47.1	20.0	0.00e+00	0	41	0	527433728	63	4104
2026-01-29 23:55:27.39	47.84	36.61	-44.7	-45.9	21.0	0.00e+00	0	41	0	534773760	61	4024
2026-01-29 23:55:31.42	48.84	37.39	-44.5	-45.7	21.2	0.00e+00	0	41	0	542113792	60	4146
2026-01-29 23:55:35.45	49.89	38.18	-44.3	-45.5	21.7	0.00e+00	0	41	0	549453824	59	4292
2026-01-29 23:55:39.47	50.98	38.98	-43.9	-44.9	22.1	0.00e+00	0	41	0	557842432	59	4030
2026-01-29 23:55:43.51	52.14	39.78	-43.0	-43.9	23.0	0.00e+00	0	41	0	565182464	57	4049
2026-01-29 23:55:47.54	53.35	40.59	-44.3	-45.4	21.8	0.00e+00	0	41	0	572522496	59	4259
2026-01-29 23:55:51.57	54.62	41.41	-44.7	-45.9	21.4	0.00e+00	0	41	0	579862528	59	4494
2026-01-29 23:55:55.60	55.96	42.22	-44.2	-45.3	21.8	0.00e+00	0	41	0	588251136	59	4228
2026-01-29 23:55:59.62	57.36	43.04	-44.2	-45.3	21.8	0.00e+00	0	41	0	595591168	59	4196
2026-01-29 23:56:03.64	58.84	43.85	-46.0	-47.4	19.8	0.00e+00	0	41	0	602931200	62	4508
2026-01-29 23:56:07.68	60.40	44.66	-44.6	-45.7	21.2	0.00e+00	0	41	0	610271232	60	4158
2026-01-29 23:56:11.72	62.04	45.47	-46.2	-47.6	19.6	0.00e+00	0	41	0	617611264	62	4645
2026-01-29 23:56:15.74	63.75	46.26	-45.9	-47.3	19.9	0.00e+00	0	41	0	624951296	63	4195
2026-01-29 23:56:19.77	65.56	47.04	-46.1	-47.6	19.6	0.00e+00	0	41	0	633339904	63	4344
2026-01-29 23:56:23.80	67.45	47.80	-45.4	-46.6	20.5	0.00e+00	0	41	0	640679936	62	4141
2026-01-29 23:56:27.82	69.43	48.54	-45.4	-46.6	20.4	0.00e+00	0	41	0	648019968	62	4139
2026-01-29 23:56:31.84	71.51	49.25	-44.7	-45.9	21.2	0.00e+00	0	41	0	655360000	60	4259
2026-01-29 23:56:35.87	73.69	49.93	-45.5	-46.8	20.4	0.00e+00	0	41	0	663748608	62	4214
2026-01-29 23:56:39.90	75.97	50.58	-44.9	-46.1	21.0	0.00e+00	0	41	0	671088640	61	4114
2026-01-29 23:56:43.94	78.35	51.19	-45.6	-47.0	20.2	0.00e+00	0	41	0	678428672	61	4553
2026-01-29 23:56:47.96	80.81	51.75	-44.7	-45.8	21.2	0.00e+00	0	41	0	685768704	61	3993
2026-01-29 23:56:51.99	83.36	52.26	-45.0	-46.2	21.0	0.00e+00	0	41	0	693108736	61	4164
2026-01-29 23:56:56.02	86.01	52.72	-43.3	-44.2	22.9	0.00e+00	0	41	0	701497344	58	3946
2026-01-29 23:57:00.05	88.73	53.12	-44.3	-45.3	21.7	0.00e+00	0	41	0	708837376	60	3995
2026-01-29 23:57:04.06	91.50	53.45	-45.3	-46.5	20.6	0.00e+00	0	41	0	716177408	62	4090
2026-01-29 23:57:08.08	94.34	53.72	-46.0	-47.4	19.8	0.00e+00	0	41	0	723517440	63	4272
2026-01-29 23:57:12.11	97.23	53.91	-45.7	-47.0	20.2	0.00e+00	0	41	0	730857472	62	4339
2026-01-29 23:57:16.13	100.15	54.04	-46.6	-48.2	19.0	0.00e+00	0	41	0	738197504	64	4396
2026-01-29 23:57:20.14	103.08	54.09	-45.4	-46.6	20.5	0.00e+00	0	41	0	746586112	62	4145
2026-01-29 23:57:24.17	106.02	54.07	-44.8	-46.0	21.1	0.00e+00	0	41	0	753926144	60	4300
2026-01-29 23:57:28.20	108.95	53.97	-45.7	-47.0	20.3	0.00e+00	0	41	0	761266176	61	4578
2026-01-29 23:57:32.22	111.85	53.80	-44.2	-45.3	22.0	0.00e+00	0	41	0	768606208	59	4221
2026-01-29 23:57:36.24	114.71	53.55	-45.0	-46.2	21.0	0.00e+00	0	41	0	775946240	60	4414
2026-01-29 23:57:40.26	117.52	53.24	-45.2	-46.4	20.7	0.00e+00	0	41	0	784334848	61	4260
2026-01-29 23:57:44.28	120.26	52.87	-44.2	-45.3	21.7	0.00e+00	0	41	0	791674880	60	3967
2026-01-29 23:57:48.31	122.93	52.43	-44.9	-46.1	21.0	0.00e+00	0	41	0	799014912	61	4102
2026-01-29 23:57:52.34	125.52	51.94	-44.2	-45.3	21.7	0.00e+00	0	41	0	806354944	60	3959
2026-01-29 23:57:56.37	128.02	51.39	-44.0	-45.1	22.1	0.00e+00	0	41	0	813694976	59	4124
2026-01-29 23:58:00.39	130.42	50.80	-43.8	-44.9	22.3	0.00e+00	0	41	0	822083584	59	4028
2026-01-29 23:58:04.42	132.74	50.16	-44.5	-45.6	21.3	0.00e+00	0	41	0	829423616	60	4113
2026-01-29 23:58:08.44	134.95	49.49	-43.3	-44.3	22.7	0.00e+00	0	41	0	836763648	58	3977
2026-01-29 23:58:12.46	137.07	48.79	-45.0	-46.3	20.7	0.00e+00	0	42	0	844103680	60	4463
2026-01-29 23:58:16.49	139.09	48.05	-47.2	-49.0	18.2	0.00e+00	0	41	0	851443712	64	4821
2026-01-29 23:58:20.52	141.02	47.30	-45.7	-47.1	20.0	0.00e+00	0	41	0	859832320	62	4344
2026-01-29 23:58:24.54	142.86	46.53	-45.6	-46.9	20.3	0.00e+00	0	41	0	867172352	61	4517
2026-01-29 23:58:28.56	144.61	45.74	-49.6	-52.5	14.9	0.00e+00	0	42	0	874512384	69	5436
2026-01-29 23:58:32.59	146.27	44.94	-47.3	-49.0	18.2	0.00e+00	0	42	0	881852416	65	4572
2026-01-29 23:58:36.62	147.86	44.13	-49.2	-51.7	15.6	0.00e+00	0	41	0	889192448	70	4659
2026-01-29 23:58:40.64	149.36	43.31	-49.5	-52.2	15.3	0.00e+00	0	41	0	897581056	69	5224
2026-01-29 23:58:44.67	150.80	42.49	-50.3	-53.6	13.7	2.27e-04	0	41	0	904921088	72	5168
2026-01-29 23:58:48.69	152.16	41.68	-52.2	-59.0	7.9	4.53e-02	0	41	0	912261120	75	8148
2026-01-29 23:58:52.71	153.45	40.86	-46.0	-47.3	19.7	0.00e+00	0	41	0	919601152	63	4221
2026-01-29 23:58:56.73	154.68	40.05	-48.8	-51.2	16.0	0.00e+00	0	41	0	926941184	68	4972
2026-01-29 23:59:00.77	155.86	39.23	-46.9	-48.6	18.4	0.00e+00	0	41	0	935329792	65	4362
2026-01-29 23:59:04.80	156.98	38.43	-47.8	-49.7	17.4	0.00e+00	0	41	0	942669824	66	4665
2026-01-29 23:59:08.82	158.04	37.64	-44.2	-45.3	21.4	0.00e+00	0	41	0	950009856	60	3996
2026-01-29 23:59:12.85	159.06	36.85	-46.5	-48.1	18.9	0.00e+00	0	41	0	957349888	64	4358
2026-01-29 23:59:16.88	160.03	36.07	-44.0	-45.1	21.6	0.00e+00	0	42	0	964689920	60	3875
2026-01-29 23:59:20.91	160.96	35.30	-46.4	-48.0	19.1	0.00e+00	0	41	0	973078528	63	4552
2026-01-29 23:59:24.95	161.85	34.54	-44.6	-45.8	21.0	0.00e+00	0	41	0	980418560	61	3980
2026-01-29 23:59:28.98	162.69	33.80	-44.8	-46.0	20.8	0.00e+00	0	41	0	987758592	60	4328
2026-01-29 23:59:33.00	163.50	33.06	-47.5	-49.5	17.5	0.00e+00	0	41	0	995098624	66	4581
2026-01-29 23:59:37.02	164.27	32.34	-44.3	-45.5	21.2	0.00e+00	0	41	0	1002438656	60	4070
2026-01-29 23:59:41.06	165.02	31.63	-46.3	-47.8	19.2	0.00e+00	0	41	0	1010827264	63	4471
2026-01-29 23:59:45.08	165.73	30.93	-46.1	-47.5	19.4	0.00e+00	0	41	0	1018167296	63	4335
2026-01-29 23:59:49.12	166.41	30.24	-45.4	-46.8	20.0	0.00e+00	0	41	0	1025507328	62	4198
2026-01-29 23:59:53.13	167.06	29.57	-47.0	-48.7	18.1	0.00e+00	0	41	0	1032847360	65	4392
2026-01-29 23:59:57.15	167.69	28.90	-45.1	-46.3	20.4	0.00e+00	0	41	0	1040187392	62	3997
2026-01-30 00:00:01.17	168.29	28.25	-44.3	-45.4	21.2	0.00e+00	0	42	0	1048576000	60	4047
2026-01-30 00:00:05.20	168.87	27.61	-44.1	-45.2	21.7	0.00e+00	0	41	0	1055916032	59	4180
2026-01-30 00:00:09.23	169.43	26.99	-44.6	-45.8	20.9	0.00e+00	0	41	0	1063256064	60	4237
2026-01-30 00:00:13.25	169.97	26.37	-45.0	-46.2	20.5	0.00e+00	0	41	0	1070596096	60	4434
2026-01-30 00:00:17.28	170.49	25.77	-45.3	-46.7	20.1	0.00e+00	0	41	0	1077936128	61	4405
2026-01-30 00:00:21.31	170.99	25.17	-46.1	-47.6	19.2	0.00e+00	0	42	0	1086324736	63	4358
2026-01-30 00:00:25.33	171.47	24.59	-45.3	-46.6	20.2	0.00e+00	0	41	0	1093664768	62	4103
2026-01-30 00:00:29.35	171.94	24.02	-44.6	-45.7	20.8	0.00e+00	0	41	0	1101004800	60	4178
2026-01-30 00:00:33.36	172.39	23.46	-45.1	-46.4	20.2	0.00e+00	0	41	0	1108344832	60	4524
2026-01-30 00:00:37.39	172.82	22.91	-45.9	-47.5	19.2	0.00e+00	0	41	0	1115684864	63	4322
2026-01-30 00:00:41.42	173.24	22.37	-44.5	-45.8	20.8	0.00e+00	0	41	0	1124073472	60	4198
2026-01-30 00:00:45.45	173.65	21.83	-44.0	-45.1	21.7	0.00e+00	0	41	0	1131413504	59	4110
2026-01-30 00:00:49.48	174.04	21.31	-44.6	-45.8	20.9	0.00e+00	0	41	0	1138753536	59	4477
2026-01-30 00:00:53.51	174.42	20.80	-44.5	-45.7	20.8	0.00e+00	0	41	0	1146093568	60	4183
2026-01-30 00:00:57.54	174.79	20.29	-44.1	-45.2	20.5	0.00e+00	0	41	0	1153433600	60	3957
2026-01-30 00:01:01.57	175.15	19.80	-43.8	-44.9	21.7	0.00e+00	0	41	0	1161822208	59	4041
2026-01-30 00:01:05.60	175.50	19.31	-43.5	-44.6	21.9	0.00e+00	0	41	0	1169162240	58	4131
2026-01-30 00:01:09.63	175.84	18.84	-43.7	-44.8	21.8	0.00e+00	0	41	0	1176502272	58	4202
2026-01-30 00:01:13.66	176.17	18.37	-44.5	-45.7	21.0	0.00e+00	0	41	0	1183842304	59	4432
2026-01-30 00:01:17.69	176.49	17.90	-44.7	-46.0	20.4	0.00e+00	0	41	0	1191182336	60	4328
2026-01-30 00:01:21.72	176.80	17.45	-45.4	-46.8	19.7	0.00e+00	0	41	0	1199570944	61	4459
2026-01-30 00:01:25.75	177.10	17.00	-45.2	-46.6	19.9	0.00e+00	0	41	0	1206910976	61	4351
2026-01-30 00:01:29.77	177.39	16.57	-44.9	-46.2	20.2	0.00e+00	0	42	0	1214251008	61	4183
2026-01-30 00:01:33.79	177.67	16.14	-44.5	-45.8	20.5	0.00e+00	0	41	0	1221591040	60	4214
2026-01-30 00:01:37.83	177.95	15.71	-44.0	-45.2	21.0	0.00e+00	0	41	0	1228931072	60	3936
2026-01-30 00:01:41.85	178.22	15.29	-44.1	-45.3	20.8	0.00e+00	0	41	0	1237319680	60	3964
2026-01-30 00:01:45.87	178.48	14.88	-44.2	-45.3	21.2	0.00e+00	0	41	0	1244659712	59	4228
2026-01-30 00:01:49.90	178.74	14.48	-44.3	-45.5	20.9	0.00e+00	0	41	0	1251999744	59	4327
2026-01-30 00:01:53.93	178.99	14.08	-44.1	-45.3	21.2	0.00e+00	0	41	0	1259339776	59	4221
2026-01-30 00:01:57.97	179.23	13.68	-44.3	-45.6	20.9	0.00e+00	0	41	0	1266679808	59	4341
2026-01-30 00:02:01.98	179.47	13.30	-44.5	-45.7	20.8	0.00e+00	0	41	0	1275068416	59	4411
2026-01-30 00:02:06.00	179.70	12.92	-44.3	-45.5	20.7	0.00e+00	0	41	0	1282408448	60	4079
2026-01-30 00:02:10.04	179.93	12.54	-44.1	-45.4	20.7	0.00e+00	0	41	0	1289748480	60	4019
2026-01-30 00:02:14.07	180.15	12.17	-44.1	-45.3	20.8	0.00e+00	0	41	0	1297088512	60	3986
2026-01-30 00:02:18.08	180.36	11.80	-44.4	-45.6	20.8	0.00e+00	0	41	0	1304428544	59	4387
2026-01-30 00:02:22.11	180.58	11.44	-44.4	-45.7	20.8	0.00e+00	0	41	0	1312817152	59	4393
2026-01-30 00:02:26.13	180.78	11.09	-44.6	-45.8	20.6	0.00e+00	0	41	0	1320157184	59	4488
2026-01-30 00:02:30.15	180.98	10.74	-44.5	-45.8	20.2	0.00e+00	0	41	0	1327497216	60	4236
2026-01-30 00:02:34.18	181.18	10.39	-45.0	-46.4	19.7	0.00e+00	0	41	0	1334837248	60	4500
2026-01-30 00:02:38.21	181.38	10.05	-45.2	-46.7	19.4	0.00e+00	0	41	0	1342177280	61	4410
2026-01-30 00:02:42.24	181.56	9.71	-45.6	-47.2	19.0	0.00e+00	0	41	0	1350565888	61	4661
2026-01-30 00:02:46.26	181.75	9.38	-45.8	-47.5	18.6	0.00e+00	0	41	0	1357905920	62	4563
2026-01-30 00:02:50.29	181.93	9.05	-46.1	-47.9	18.3	0.00e+00	0	41	0	1365245952	62	4776
2026-01-30 00:02:54.31	182.11	8.73	-46.2	-48.0	18.1	0.00e+00	0	41	0	1372585984	63	4563
2026-01-30 00:02:58.33	182.28	8.41	-46.3	-48.1	17.9	0.00e+00	0	41	0	1379926016	63	4648
2026-01-30 00:03:02.36	182.45	8.09	-46.3	-48.1	18.0	0.00e+00	0	41	0	1388314624	63	4614
2026-01-30 00:03:06.38	182.62	7.78	-46.2	-48.0	18.1	0.00e+00	0	41	0	1395654656	63	4560
2026-01-30 00:03:10.40	182.79	7.47	-46.1	-47.9	18.1	0.00e+00	0	41	0	1402994688	63	4513
2026-01-30 00:03:14.43	182.95	7.16	-46.0	-47.7	18.2	0.00e+00	0	41	0	1410334720	63	4413
2026-01-30 00:03:18.45	183.10	6.86	-45.9	-47.6	18.2	0.00e+00	0	41	0	1417674752	63	4387
2026-01-30 00:03:22.48	183.26	6.56	-45.9	-47.7	18.2	0.00e+00	0	41	0	1426063360	63	4398
2026-01-30 00:03:26.51	183.41	6.27	-45.9	-47.6	18.2	0.00e+00	0	41	0	1433403392	63	4342
2026-01-30 00:03:30.54	183.56	5.97	-45.8	-47.5	18.3	0.00e+00	0	41	0	1440743424	63	4320
2026-01-30 00:03:34.57	183.71	5.68	-45.6	-47.3	18.4	0.00e+00	0	41	0	1448083456	63	4217
2026-01-30 00:03:38.59	183.85	5.40	-45.8	-47.5	18.2	0.00e+00	0	41	0	1455423488	63	4333
2026-01-30 00:03:42.62	184.00	5.11	-45.9	-47.7	17.9	0.00e+00	0	41	0	1463812096	63	4408
2026-01-30 00:03:46.65	184.13	4.83	-52.8	-67.8	3.8	1.49e+00	0	41	104	1466957824	76	21110
2026-01-30 00:03:50.69	184.27	4.56	-53.5	-68.5	3.8	1.49e+00	0	42	104	1466957824	77	21658
2026-01-30 00:03:54.71	184.41	4.28	-53.9	-68.9	3.8	1.49e+00	0	41	104	1466957824	78	21388
2026-01-30 00:03:58.74	184.54	4.01	-54.2	-69.2	3.8	1.49e+00	0	41	104	1466957824	78	22083
2026-01-30 00:04:02.77	184.67	3.74	-54.3	-69.3	3.8	1.49e+00	0	41	104	1466957824	79	21210
2026-01-30 00:04:06.81	184.80	3.47	-54.4	-69.4	3.8	1.49e+00	0	42	104	1466957824	79	21448
2026-01-30 00:04:10.83	184.92	3.21	-54.3	-69.3	3.8	1.49e+00	0	42	104	1466957824	79	21053
2026-01-30 00:04:14.85	185.05	2.94	-54.0	-68.9	3.8	1.49e+00	0	41	104	1466957824	79	20296
2026-01-30 00:04:18.89	185.17	2.68	-53.4	-68.3	3.8	1.49e+00	0	41	104	1466957824	78	20062
2026-01-30 00:04:22.92	185.29	2.43	-53.3	-68.2	3.8	1.49e+00	0	42	104	1466957824	78	19787
2026-01-30 00:04:26.95	185.41	2.17	-53.2	-68.2	3.8	1.49e+00	0	42	104	1466957824	78	19686
2026-01-30 00:04:30.98	185.53	1.92	-53.2	-68.2	3.8	1.49e+00	0	42	104	1466957824	78	19685

#Closed at: 2026-01-30 00:04:32
#Recorded file [1466 MB]: D:/lorett/data/31041_260130_025009.dat