passes_logs/2026/01/29/R3.2S_Murmansk/R3.2S_Murmansk__20260129_030518_AQUA_rec.log

#Pass ID: 20260129_030518_AQUA
#Satellite: AQUA
#Configuration: AQUA
#almurnet v.1.7.20251203
#Start time: 2026-01-29 03:05:19

#Version: 2.2.20231116
#Station: R3.2S_Murmansk
#Location: 33.079688 lon 68.888172 lat
#TLE: 1 27424U 02022A   26027.96263068  .00001625  00000+0  33481-3 0  9997
#TLE: 2 27424  98.4102 354.6095 0001839  63.4368   7.7786 14.61867353262782

#Time	Az	El	Level	Level2	SNR	BER	BlckErr	Temp	State	Recorded	gain1	gain2
2026-01-29 03:05:19.55	25.88	2.05	-55.4	-73.2	3.8	7.48e-01	0	40	0	0	81	29568
2026-01-29 03:05:22.57	25.82	2.25	-55.3	-73.2	3.8	7.47e-01	0	40	104	0	81	29399
2026-01-29 03:05:25.59	25.76	2.45	-55.3	-73.2	3.8	7.45e-01	0	40	104	0	81	29388
2026-01-29 03:05:28.61	25.70	2.65	-55.5	-73.4	3.8	7.45e-01	0	40	104	0	81	30067
2026-01-29 03:05:31.63	25.64	2.85	-55.6	-73.4	3.8	7.44e-01	0	40	104	0	81	30343
2026-01-29 03:05:34.66	25.57	3.06	-55.6	-73.5	3.8	7.49e-01	0	40	104	0	82	28704
2026-01-29 03:05:37.68	25.51	3.27	-55.6	-73.4	3.8	7.45e-01	0	40	104	0	82	28562
2026-01-29 03:05:40.72	25.44	3.48	-55.6	-73.4	3.8	7.45e-01	0	41	104	0	82	28393
2026-01-29 03:05:43.74	25.38	3.69	-55.3	-73.1	3.8	7.43e-01	0	41	104	0	82	27530
2026-01-29 03:05:46.77	25.31	3.90	-54.8	-72.6	3.8	7.46e-01	0	41	104	0	81	27580
2026-01-29 03:05:49.79	25.24	4.12	-53.8	-71.4	3.8	7.48e-01	0	41	104	0	79	26922
2026-01-29 03:05:52.82	25.17	4.33	-52.2	-66.6	3.8	7.44e-01	0	41	104	0	76	18438
2026-01-29 03:05:55.84	25.10	4.55	-51.8	-65.6	3.8	7.41e-01	0	41	104	0	75	17455
2026-01-29 03:05:58.87	25.03	4.77	-51.3	-64.8	3.8	7.46e-01	0	41	104	0	74	16697
2026-01-29 03:06:01.89	24.95	4.99	-51.6	-65.3	3.8	7.45e-01	0	41	104	0	74	17752
2026-01-29 03:06:04.91	24.88	5.22	-53.3	-70.6	3.8	7.41e-01	0	41	104	0	77	27393
2026-01-29 03:06:07.92	24.80	5.44	-47.4	-58.7	3.8	7.45e-01	0	41	104	0	66	13142
2026-01-29 03:06:10.94	24.72	5.67	-48.0	-59.5	3.8	7.40e-01	0	41	104	0	66	14450
2026-01-29 03:06:13.96	24.64	5.90	-50.9	-63.6	3.8	7.45e-01	0	41	104	0	72	16425
2026-01-29 03:06:16.99	24.56	6.13	-46.5	-57.6	3.8	7.45e-01	0	41	104	0	65	12302
2026-01-29 03:06:20.01	24.47	6.37	-46.5	-57.6	3.8	7.46e-01	0	41	104	0	64	13000
2026-01-29 03:06:23.03	24.39	6.61	-49.9	-62.1	3.8	7.45e-01	0	41	104	0	70	15532
2026-01-29 03:06:26.05	24.30	6.85	-46.3	-57.4	3.8	7.45e-01	0	41	104	0	64	12736
2026-01-29 03:06:29.07	24.21	7.09	-53.4	-70.3	3.8	7.45e-01	0	41	104	0	77	26742
2026-01-29 03:06:32.10	24.12	7.33	-46.2	-57.3	3.8	7.41e-01	0	41	104	0	64	12544
2026-01-29 03:06:35.13	24.03	7.58	-48.7	-60.3	3.8	7.44e-01	0	41	104	0	67	14892
2026-01-29 03:06:38.15	23.93	7.83	-50.9	-63.7	3.8	7.44e-01	0	41	104	0	72	16618
2026-01-29 03:06:41.17	23.83	8.08	-45.9	-56.9	3.8	7.44e-01	0	41	104	0	63	12682
2026-01-29 03:06:44.19	23.74	8.34	-46.1	-57.1	3.8	7.45e-01	0	41	104	0	63	13044
2026-01-29 03:06:47.21	23.63	8.60	-48.7	-60.4	3.8	7.44e-01	0	41	104	0	68	14243
2026-01-29 03:06:50.23	23.53	8.86	-45.5	-56.4	3.8	7.44e-01	0	41	104	0	62	12757
2026-01-29 03:06:53.25	23.42	9.12	-53.6	-70.4	3.8	7.44e-01	0	41	104	0	78	25540
2026-01-29 03:06:56.27	23.32	9.39	-45.6	-56.5	3.8	7.47e-01	0	41	104	0	63	12140
2026-01-29 03:06:59.30	23.21	9.66	-47.3	-58.5	3.8	7.42e-01	0	42	104	0	66	12824
2026-01-29 03:07:02.32	23.09	9.93	-48.8	-60.2	3.9	7.46e-01	0	41	104	0	69	13161
2026-01-29 03:07:05.34	22.98	10.21	-45.2	-56.1	3.8	7.46e-01	0	42	104	0	62	12283
2026-01-29 03:07:08.35	22.86	10.49	-47.4	-58.8	3.8	7.43e-01	0	42	104	0	65	14112
2026-01-29 03:07:11.38	22.74	10.77	-46.6	-57.8	3.9	7.46e-01	0	42	104	0	65	12562
2026-01-29 03:07:14.41	22.61	11.06	-44.7	-55.5	3.8	7.43e-01	0	41	104	0	61	12158
2026-01-29 03:07:17.43	22.49	11.35	-52.9	-67.4	3.9	7.42e-01	0	42	104	0	77	19040
2026-01-29 03:07:20.45	22.36	11.64	-45.0	-55.8	3.9	7.43e-01	0	42	104	0	61	12539
2026-01-29 03:07:23.46	22.23	11.94	-46.0	-56.8	3.9	7.46e-01	0	41	104	0	63	12642
2026-01-29 03:07:26.49	22.09	12.24	-45.6	-56.6	3.9	7.45e-01	0	42	104	0	63	12278
2026-01-29 03:07:29.50	21.95	12.55	-44.6	-55.3	3.8	7.47e-01	0	42	104	0	61	11946
2026-01-29 03:07:32.53	21.81	12.86	-49.5	-61.3	3.8	7.46e-01	0	41	104	0	69	15006
2026-01-29 03:07:35.55	21.66	13.17	-44.9	-55.6	3.9	7.43e-01	0	41	104	0	61	12332
2026-01-29 03:07:38.58	21.51	13.49	-45.7	-56.6	3.8	7.42e-01	0	42	104	0	61	13754
2026-01-29 03:07:41.60	21.36	13.81	-50.4	-62.4	3.9	7.45e-01	0	41	104	0	72	14365
2026-01-29 03:07:44.63	21.20	14.14	-44.7	-55.5	3.8	7.44e-01	0	42	104	0	61	12153
2026-01-29 03:07:47.64	21.04	14.48	-45.1	-56.0	3.8	7.43e-01	0	41	104	0	61	12846
2026-01-29 03:07:50.67	20.87	14.81	-44.7	-55.4	3.9	7.45e-01	0	42	104	0	61	12078
2026-01-29 03:07:53.69	20.70	15.16	-44.9	-55.7	3.8	7.46e-01	0	42	104	0	61	12399
2026-01-29 03:07:56.72	20.53	15.50	-53.6	-68.8	3.7	7.49e-01	0	42	104	0	77	22383
2026-01-29 03:07:59.74	20.35	15.86	-45.0	-55.8	3.8	7.44e-01	0	42	104	0	62	11886
2026-01-29 03:08:02.75	20.16	16.21	-44.3	-55.0	3.9	7.40e-01	0	42	104	0	59	12898
2026-01-29 03:08:05.77	19.97	16.58	-51.3	-63.8	3.8	7.45e-01	0	42	104	0	73	15906
2026-01-29 03:08:08.80	19.78	16.95	-44.3	-55.0	3.8	7.43e-01	0	42	104	0	60	12168
2026-01-29 03:08:11.82	19.58	17.32	-45.1	-56.0	3.8	7.45e-01	0	42	104	0	61	12819
2026-01-29 03:08:14.85	19.37	17.71	-46.7	-57.7	3.8	7.43e-01	0	42	104	0	63	13924
2026-01-29 03:08:17.87	19.16	18.09	-46.1	-57.0	3.8	7.44e-01	0	42	104	0	63	12944
2026-01-29 03:08:20.89	18.94	18.49	-51.9	-64.9	3.8	7.49e-01	0	42	104	0	74	16956
2026-01-29 03:08:23.90	18.71	18.89	-47.2	-58.2	3.9	7.44e-01	0	42	104	0	66	12501
2026-01-29 03:08:26.93	18.48	19.30	-52.3	-65.6	3.8	7.43e-01	0	42	104	0	75	17479
2026-01-29 03:08:29.95	18.24	19.71	-52.3	-65.6	3.8	7.44e-01	0	42	104	0	75	17450
2026-01-29 03:08:32.97	18.00	20.13	-45.6	-56.5	3.8	7.43e-01	0	42	104	0	63	12107
2026-01-29 03:08:35.99	17.74	20.56	-45.6	-56.5	3.8	7.46e-01	0	42	104	0	61	13616
2026-01-29 03:08:39.00	17.48	21.00	-46.8	-57.8	3.8	7.46e-01	0	42	104	0	64	13378
2026-01-29 03:08:42.03	17.21	21.44	-45.3	-56.1	3.8	7.47e-01	0	42	104	0	62	12284
2026-01-29 03:08:45.05	16.94	21.89	-54.0	-70.1	3.8	7.47e-01	0	42	104	0	78	24423
2026-01-29 03:08:48.07	16.65	22.36	-45.9	-56.8	3.8	7.41e-01	0	42	104	0	63	12520
2026-01-29 03:08:51.09	16.35	22.82	-46.5	-57.5	3.8	7.41e-01	0	42	104	0	63	13573
2026-01-29 03:08:54.11	16.04	23.30	-52.5	-66.0	3.8	7.42e-01	0	42	104	0	76	17222
2026-01-29 03:08:57.14	15.73	23.79	-45.6	-56.5	3.8	7.41e-01	0	42	104	0	63	12123
2026-01-29 03:09:00.17	15.40	24.29	-46.2	-57.2	3.8	7.44e-01	0	42	104	0	63	13226
2026-01-29 03:09:03.18	15.06	24.79	-46.5	-57.5	3.8	7.44e-01	0	42	104	0	63	13636
2026-01-29 03:09:06.21	14.70	25.31	-44.5	-55.2	3.9	7.42e-01	0	42	104	0	61	11770
2026-01-29 03:09:09.23	14.34	25.83	-53.9	-69.3	3.8	7.45e-01	0	42	104	0	78	22299
2026-01-29 03:09:12.25	13.96	26.36	-45.6	-56.5	3.8	7.46e-01	0	42	104	0	62	12815
2026-01-29 03:09:15.27	13.57	26.91	-45.2	-56.0	3.8	7.47e-01	0	42	104	0	61	12899
2026-01-29 03:09:18.29	13.16	27.46	-50.8	-62.7	3.8	7.43e-01	0	42	104	0	73	13967
2026-01-29 03:09:21.30	12.74	28.03	-44.4	-55.1	3.8	7.43e-01	0	42	104	0	60	12354
2026-01-29 03:09:24.32	12.31	28.60	-46.4	-57.3	3.8	7.45e-01	0	42	104	0	64	12574
2026-01-29 03:09:27.35	11.85	29.19	-45.2	-56.0	3.8	7.46e-01	0	42	104	0	61	12838
2026-01-29 03:09:30.38	11.38	29.79	-44.1	-54.9	3.8	7.48e-01	0	42	104	0	60	12011
2026-01-29 03:09:33.39	10.88	30.40	-51.3	-63.6	3.8	7.42e-01	0	42	104	0	74	14599
2026-01-29 03:09:36.42	10.37	31.02	-46.2	-57.1	3.8	7.42e-01	0	42	104	0	64	12297
2026-01-29 03:09:39.44	9.84	31.66	-51.8	-64.4	3.8	7.42e-01	0	42	104	0	75	15140
2026-01-29 03:09:42.46	9.28	32.30	-47.2	-58.1	3.8	7.43e-01	0	42	104	0	66	12363
2026-01-29 03:09:45.47	8.70	32.96	-44.3	-55.0	3.8	7.44e-01	0	42	104	0	60	12197
2026-01-29 03:09:48.49	8.09	33.63	-50.4	-62.4	3.8	7.45e-01	0	42	104	0	71	15055
2026-01-29 03:09:51.51	7.46	34.31	-50.3	-62.6	3.9	7.41e-01	0	42	104	0	73	13768
2026-01-29 03:09:54.53	6.80	35.01	-49.3	-60.7	3.8	7.44e-01	0	42	104	0	68	14756
2026-01-29 03:09:57.55	6.11	35.71	-52.7	-65.9	3.9	7.44e-01	0	42	104	0	77	15984
2026-01-29 03:10:00.57	5.39	36.43	-46.9	-57.8	3.8	7.44e-01	0	42	104	0	65	12649
2026-01-29 03:10:03.60	4.63	37.16	-49.0	-60.3	3.8	7.43e-01	0	42	104	0	68	14143
2026-01-29 03:10:06.61	3.83	37.90	-53.0	-66.3	3.8	7.44e-01	0	42	104	0	76	17881
2026-01-29 03:10:09.64	3.00	38.65	-46.8	-57.7	3.8	7.42e-01	0	42	104	0	65	12400
2026-01-29 03:10:12.67	2.12	39.42	-53.8	-68.1	3.8	7.40e-01	0	42	104	0	78	19565
2026-01-29 03:10:15.69	1.20	40.19	-46.5	-57.4	3.8	7.44e-01	0	42	104	0	64	12799
2026-01-29 03:10:18.71	0.24	40.98	-47.7	-58.7	3.8	7.46e-01	0	42	104	0	65	13980
2026-01-29 03:10:21.74	359.22	41.77	-48.1	-59.2	3.8	7.44e-01	0	42	104	0	68	12494
2026-01-29 03:10:24.75	358.16	42.56	-46.1	-57.1	3.8	7.45e-01	0	42	104	0	64	12286
2026-01-29 03:10:27.78	357.04	43.37	-48.7	-60.0	3.8	7.45e-01	0	42	104	0	68	13628
2026-01-29 03:10:30.80	355.85	44.18	-54.7	-70.6	3.7	7.44e-01	0	42	104	0	79	24692
2026-01-29 03:10:33.82	354.61	44.99	-46.0	-56.9	3.8	7.43e-01	0	42	104	0	63	12714
2026-01-29 03:10:36.84	353.30	45.81	-53.5	-67.2	3.8	7.44e-01	0	42	104	0	77	18673
2026-01-29 03:10:39.86	351.92	46.62	-45.8	-56.5	3.8	7.44e-01	0	42	104	0	63	12233
2026-01-29 03:10:42.88	350.46	47.44	-47.9	-59.0	3.8	7.41e-01	0	42	104	0	66	13636
2026-01-29 03:10:45.91	348.91	48.25	-47.2	-58.1	3.9	7.45e-01	0	42	104	0	66	12313
2026-01-29 03:10:48.94	347.29	49.05	-46.6	-57.5	3.8	7.46e-01	0	42	104	0	64	12912
2026-01-29 03:10:51.96	345.58	49.84	-51.0	-63.1	3.8	7.41e-01	0	42	104	0	74	13753
2026-01-29 03:10:54.98	343.78	50.61	-46.6	-57.5	3.8	7.45e-01	0	42	104	0	65	12183
2026-01-29 03:10:58.00	341.88	51.37	-45.9	-56.7	3.8	7.45e-01	0	42	104	0	63	12475
2026-01-29 03:11:01.01	339.89	52.10	-54.3	-68.9	3.8	7.47e-01	0	42	104	0	79	20270
2026-01-29 03:11:04.03	337.80	52.81	-45.8	-56.6	3.8	7.44e-01	0	42	104	0	63	12251
2026-01-29 03:11:07.05	335.60	53.48	-52.7	-65.8	3.8	7.43e-01	0	42	104	0	77	15887
2026-01-29 03:11:10.07	333.30	54.12	-46.2	-57.2	3.9	7.45e-01	0	42	104	0	64	12405
2026-01-29 03:11:13.09	330.89	54.72	-45.9	-56.9	3.8	7.44e-01	0	42	104	0	63	12740
2026-01-29 03:11:16.11	328.39	55.28	-48.3	-59.5	3.8	7.46e-01	0	42	104	0	68	12854
2026-01-29 03:11:19.13	325.79	55.78	-54.2	-68.5	3.8	7.45e-01	0	42	104	0	78	20530
2026-01-29 03:11:22.15	323.09	56.23	-46.8	-57.8	3.8	7.50e-01	0	42	104	0	64	13336
2026-01-29 03:11:25.17	320.32	56.62	-54.3	-69.1	3.9	7.43e-01	0	42	104	0	80	19528
2026-01-29 03:11:28.19	317.47	56.94	-46.7	-48.0	24.2	6.05e-01	0	42	0	2621440	64	4321
2026-01-29 03:11:31.22	314.54	57.20	-46.0	-47.3	25.0	6.02e-01	0	42	0	8388608	63	4217
2026-01-29 03:11:34.24	311.58	57.39	-45.6	-46.8	25.4	6.02e-01	0	42	0	14155776	62	4230
2026-01-29 03:11:37.26	308.59	57.50	-45.6	-46.9	25.4	6.03e-01	0	42	0	19922944	62	4248
2026-01-29 03:11:40.28	305.58	57.54	-45.8	-47.1	25.2	6.04e-01	0	42	0	25690112	62	4357
2026-01-29 03:11:43.30	302.57	57.50	-45.9	-47.1	25.1	6.00e-01	0	42	0	30932992	62	4379
2026-01-29 03:11:46.32	299.57	57.39	-45.9	-47.2	25.1	6.03e-01	0	42	0	36700160	62	4416
2026-01-29 03:11:49.34	296.61	57.21	-45.6	-46.8	25.5	6.00e-01	0	42	0	42467328	62	4229
2026-01-29 03:11:52.36	293.70	56.95	-45.3	-46.4	25.8	6.02e-01	0	42	0	48234496	62	4041
2026-01-29 03:11:55.39	290.83	56.63	-45.3	-46.5	25.8	6.03e-01	0	42	0	54001664	62	4091
2026-01-29 03:11:58.40	288.06	56.24	-45.2	-46.4	25.9	6.02e-01	0	42	0	59244544	62	4023
2026-01-29 03:12:01.43	285.35	55.79	-45.1	-46.2	26.0	6.04e-01	0	42	0	65011712	62	3941
2026-01-29 03:12:04.45	282.75	55.29	-45.4	-46.6	25.6	6.04e-01	0	42	0	70778880	61	4388
2026-01-29 03:12:07.48	280.23	54.73	-45.1	-46.4	25.9	6.04e-01	0	42	0	76546048	61	4247
2026-01-29 03:12:10.50	277.82	54.13	-44.3	-45.4	26.7	6.03e-01	0	42	0	82313216	60	4033
2026-01-29 03:12:13.52	275.51	53.49	-44.5	-45.6	26.4	6.04e-01	0	42	0	87556096	60	4131
2026-01-29 03:12:16.54	273.31	52.82	-44.0	-45.1	27.1	6.02e-01	0	42	0	93323264	60	3881
2026-01-29 03:12:19.57	271.20	52.11	-44.5	-45.7	26.3	6.01e-01	0	42	0	99090432	60	4167
2026-01-29 03:12:22.59	269.20	51.37	-44.3	-45.4	26.6	6.04e-01	0	42	0	104857600	59	4260
2026-01-29 03:12:25.61	267.30	50.61	-44.4	-45.6	26.5	6.03e-01	0	42	0	110624768	59	4352
2026-01-29 03:12:28.63	265.50	49.84	-44.4	-45.6	26.3	6.02e-01	0	42	0	115867648	59	4344
2026-01-29 03:12:31.65	263.79	49.05	-44.6	-45.8	26.2	6.03e-01	0	42	0	121634816	59	4463
2026-01-29 03:12:34.68	262.16	48.25	-44.5	-45.6	26.4	6.03e-01	0	42	0	127401984	60	4131
2026-01-29 03:12:37.70	260.61	47.44	-44.5	-45.7	26.4	6.03e-01	0	42	0	133169152	60	4153
2026-01-29 03:12:40.71	259.16	46.62	-44.2	-45.3	26.6	6.06e-01	0	42	0	138936320	59	4196
2026-01-29 03:12:43.74	257.77	45.81	-44.9	-46.1	26.0	6.04e-01	0	42	0	144179200	60	4342
2026-01-29 03:12:46.75	256.46	44.99	-44.1	-45.2	26.6	6.04e-01	0	42	0	149946368	59	4178
2026-01-29 03:12:49.77	255.21	44.18	-44.8	-46.0	25.9	6.02e-01	0	42	0	155713536	60	4315
2026-01-29 03:12:52.80	254.02	43.36	-44.8	-46.0	26.1	6.03e-01	0	42	0	161480704	60	4306
2026-01-29 03:12:55.82	252.89	42.55	-45.0	-46.2	25.9	6.04e-01	0	42	0	167247872	61	4164
2026-01-29 03:12:58.85	251.82	41.75	-45.2	-46.4	25.6	6.02e-01	0	42	0	172490752	61	4279
2026-01-29 03:13:01.87	250.81	40.96	-46.1	-47.4	24.6	6.05e-01	0	42	0	178257920	63	4274
2026-01-29 03:13:04.89	249.84	40.17	-46.3	-47.6	24.6	6.02e-01	0	42	0	184025088	63	4378
2026-01-29 03:13:07.92	248.92	39.40	-46.6	-47.9	24.1	6.04e-01	0	42	0	189792256	63	4535
2026-01-29 03:13:10.93	248.04	38.63	-46.1	-47.4	24.6	6.02e-01	0	42	0	195559424	64	4037
2026-01-29 03:13:13.95	247.21	37.88	-46.3	-47.7	24.4	6.02e-01	0	42	0	201326592	63	4412
2026-01-29 03:13:16.97	246.41	37.14	-46.6	-47.9	24.1	6.03e-01	0	42	0	206569472	63	4545
2026-01-29 03:13:19.99	245.65	36.40	-46.1	-47.4	24.6	6.06e-01	0	42	0	212336640	63	4291
2026-01-29 03:13:23.02	244.93	35.68	-45.7	-47.0	25.1	6.02e-01	0	42	0	218103808	63	4063
2026-01-29 03:13:26.04	244.23	34.97	-46.0	-47.3	24.7	6.03e-01	0	42	0	223870976	63	4214
2026-01-29 03:13:29.06	243.57	34.28	-45.3	-46.6	25.4	6.02e-01	0	42	0	229638144	62	4105
2026-01-29 03:13:32.08	242.93	33.59	-45.3	-46.5	25.3	6.02e-01	0	42	0	234881024	62	4091
2026-01-29 03:13:35.11	242.32	32.92	-45.4	-46.6	25.3	6.05e-01	0	42	0	240648192	61	4387
2026-01-29 03:13:38.13	241.74	32.26	-44.8	-46.0	25.9	6.03e-01	0	42	0	246415360	61	4086
2026-01-29 03:13:41.14	241.19	31.61	-44.5	-45.7	26.0	6.03e-01	0	42	0	252182528	61	3930
2026-01-29 03:13:44.17	240.65	30.98	-44.4	-45.5	26.3	6.03e-01	0	42	0	257949696	60	4078
2026-01-29 03:13:47.19	240.13	30.35	-44.2	-45.4	26.4	6.03e-01	0	42	0	263192576	60	4006
2026-01-29 03:13:50.20	239.64	29.74	-44.4	-45.6	26.1	6.04e-01	0	42	0	268959744	60	4126
2026-01-29 03:13:53.22	239.17	29.14	-44.4	-45.6	26.1	6.03e-01	0	42	0	274726912	60	4100
2026-01-29 03:13:56.24	238.71	28.55	-44.1	-45.3	26.4	6.02e-01	0	42	0	280494080	60	3966
2026-01-29 03:13:59.27	238.27	27.97	-44.4	-45.6	26.2	6.03e-01	0	42	0	286261248	60	4101
2026-01-29 03:14:02.29	237.85	27.41	-44.6	-45.7	26.0	6.03e-01	0	42	0	291504128	60	4190
2026-01-29 03:14:05.31	237.44	26.85	-44.6	-45.8	25.9	6.02e-01	0	42	0	297271296	60	4218
2026-01-29 03:14:08.33	237.05	26.30	-44.7	-45.9	25.8	6.03e-01	0	42	0	303038464	60	4260
2026-01-29 03:14:11.36	236.67	25.77	-44.4	-45.5	26.0	6.03e-01	0	42	0	308805632	60	4090
2026-01-29 03:14:14.38	236.30	25.24	-44.7	-45.9	25.8	6.03e-01	0	42	0	314572800	60	4266
2026-01-29 03:14:17.40	235.95	24.73	-44.7	-45.9	25.8	6.02e-01	0	42	0	319815680	60	4252
2026-01-29 03:14:20.43	235.60	24.22	-44.8	-46.0	25.6	6.02e-01	0	42	0	325582848	60	4338
2026-01-29 03:14:23.44	235.28	23.72	-45.1	-46.3	25.4	6.01e-01	0	42	0	331350016	60	4481
2026-01-29 03:14:26.46	234.96	23.24	-45.0	-46.2	25.4	6.04e-01	0	42	0	337117184	60	4421
2026-01-29 03:14:29.48	234.65	22.76	-44.7	-45.9	25.6	6.00e-01	0	42	0	342884352	60	4288
2026-01-29 03:14:32.50	234.35	22.29	-44.8	-46.0	25.5	6.02e-01	0	42	0	348127232	60	4322
2026-01-29 03:14:35.52	234.06	21.83	-44.7	-45.9	25.6	6.02e-01	0	42	0	353894400	60	4278
2026-01-29 03:14:38.55	233.78	21.37	-44.6	-45.8	25.8	6.02e-01	0	42	0	359661568	60	4208
2026-01-29 03:14:41.57	233.51	20.93	-44.8	-46.0	25.5	6.02e-01	0	42	0	365428736	60	4320
2026-01-29 03:14:44.60	233.25	20.49	-45.0	-46.2	25.4	6.06e-01	0	42	0	371195904	60	4417
2026-01-29 03:14:47.62	232.99	20.06	-44.9	-46.1	25.3	6.01e-01	0	42	0	376438784	60	4382
2026-01-29 03:14:50.64	232.75	19.63	-44.7	-46.0	25.5	6.03e-01	0	42	0	382205952	60	4298
2026-01-29 03:14:53.66	232.51	19.22	-44.6	-45.8	25.6	6.03e-01	0	42	0	387973120	60	4221
2026-01-29 03:14:56.69	232.27	18.81	-44.7	-46.0	25.5	6.04e-01	0	42	0	393740288	60	4302
2026-01-29 03:14:59.71	232.05	18.41	-44.6	-45.8	25.6	6.02e-01	0	42	0	399507456	60	4227
2026-01-29 03:15:02.73	231.83	18.01	-44.9	-46.1	25.3	6.00e-01	0	42	0	404750336	60	4374
2026-01-29 03:15:05.75	231.61	17.62	-44.9	-46.1	25.3	6.05e-01	0	42	0	411041792	60	4366
2026-01-29 03:15:08.77	231.41	17.24	-44.6	-45.8	25.5	6.02e-01	0	42	0	416284672	60	4226
2026-01-29 03:15:11.79	231.20	16.87	-44.7	-45.9	25.4	6.05e-01	0	42	0	422051840	60	4276
2026-01-29 03:15:14.82	231.01	16.49	-44.7	-45.9	25.4	6.06e-01	0	42	0	427819008	60	4261
2026-01-29 03:15:17.84	230.82	16.13	-44.7	-46.0	25.3	6.03e-01	0	42	0	433061888	60	4305
2026-01-29 03:15:20.87	230.63	15.77	-44.7	-46.0	25.4	6.02e-01	0	42	0	439353344	60	4307
2026-01-29 03:15:23.90	230.45	15.41	-44.6	-45.8	25.5	6.03e-01	0	42	0	444596224	60	4233
2026-01-29 03:15:26.92	230.27	15.07	-44.6	-45.8	25.5	6.04e-01	0	42	0	450363392	60	4216
2026-01-29 03:15:29.95	230.10	14.72	-44.8	-46.0	25.3	6.03e-01	0	42	0	456130560	60	4326
2026-01-29 03:15:32.98	229.93	14.38	-44.7	-45.9	25.4	6.02e-01	0	42	0	461897728	60	4281
2026-01-29 03:15:36.00	229.77	14.05	-44.7	-45.9	25.4	6.02e-01	0	42	0	467664896	60	4262
2026-01-29 03:15:39.02	229.61	13.72	-44.5	-45.7	25.5	6.05e-01	0	42	0	472907776	60	4177
2026-01-29 03:15:42.05	229.45	13.40	-44.6	-45.8	25.4	6.04e-01	0	42	0	478674944	60	4216
2026-01-29 03:15:45.08	229.30	13.08	-44.7	-45.9	25.3	6.03e-01	0	42	0	484442112	60	4273
2026-01-29 03:15:48.10	229.15	12.76	-44.7	-45.9	25.3	6.03e-01	0	42	0	490209280	60	4278
2026-01-29 03:15:51.12	229.01	12.45	-44.8	-46.0	25.2	6.03e-01	0	42	0	495976448	60	4323
2026-01-29 03:15:54.15	228.87	12.14	-44.8	-46.1	25.1	6.02e-01	0	42	0	501219328	60	4344
2026-01-29 03:15:57.17	228.73	11.84	-44.9	-46.2	25.0	6.02e-01	0	42	0	506986496	60	4407
2026-01-29 03:16:00.19	228.60	11.54	-45.0	-46.3	24.8	6.05e-01	0	42	0	512753664	60	4493
2026-01-29 03:16:03.22	228.47	11.25	-45.1	-46.4	24.7	6.02e-01	0	42	0	518520832	60	4538
2026-01-29 03:16:06.24	228.34	10.96	-45.2	-46.5	24.6	6.01e-01	0	42	0	524288000	61	4310
2026-01-29 03:16:09.26	228.21	10.67	-45.2	-46.5	24.5	6.02e-01	0	42	0	530055168	61	4321
2026-01-29 03:16:12.28	228.09	10.39	-45.1	-46.4	24.6	6.05e-01	0	42	0	535298048	61	4254
2026-01-29 03:16:15.31	227.97	10.11	-45.3	-46.7	24.3	6.03e-01	0	42	0	541065216	61	4402
2026-01-29 03:16:18.33	227.85	9.83	-45.2	-46.5	24.5	6.03e-01	0	42	0	546832384	61	4319
2026-01-29 03:16:21.35	227.74	9.56	-45.2	-46.6	24.4	6.04e-01	0	42	0	552599552	61	4358
2026-01-29 03:16:24.37	227.63	9.29	-45.3	-46.6	24.4	6.02e-01	0	42	0	558366720	61	4370
2026-01-29 03:16:27.40	227.52	9.02	-45.3	-46.7	24.3	6.04e-01	0	42	0	563609600	61	4410
2026-01-29 03:16:30.42	227.41	8.75	-45.6	-47.0	23.9	6.02e-01	0	42	0	569376768	61	4578
2026-01-29 03:16:33.44	227.30	8.49	-45.6	-47.0	23.9	6.02e-01	0	42	0	575143936	61	4591
2026-01-29 03:16:36.46	227.20	8.23	-45.6	-47.0	23.9	6.03e-01	0	42	0	580911104	61	4582
2026-01-29 03:16:39.48	227.10	7.98	-45.6	-47.1	23.8	6.05e-01	0	42	0	586678272	61	4612
2026-01-29 03:16:42.50	227.00	7.73	-45.6	-47.1	23.8	6.01e-01	0	42	0	591921152	61	4611
2026-01-29 03:16:45.52	226.91	7.48	-45.8	-47.3	23.6	6.04e-01	0	42	0	597688320	62	4450
2026-01-29 03:16:48.54	226.81	7.23	-45.7	-47.2	23.6	6.04e-01	0	42	0	603455488	62	4419
2026-01-29 03:16:51.57	226.72	6.98	-45.8	-47.3	23.5	6.04e-01	0	42	0	609222656	62	4444
2026-01-29 03:16:54.58	226.63	6.74	-45.8	-47.3	23.5	6.03e-01	0	42	0	614989824	62	4479
2026-01-29 03:16:57.60	226.54	6.50	-45.8	-47.2	23.5	6.04e-01	0	42	0	620232704	62	4422
2026-01-29 03:17:00.62	226.45	6.26	-45.9	-47.4	23.3	6.06e-01	0	42	0	625999872	62	4511
2026-01-29 03:17:03.64	226.37	6.03	-46.1	-47.6	23.1	6.02e-01	0	42	0	631767040	62	4621
2026-01-29 03:17:06.66	226.28	5.80	-46.0	-47.5	23.1	6.02e-01	0	42	0	637534208	63	4335
2026-01-29 03:17:09.68	226.20	5.57	-46.0	-47.6	23.0	6.03e-01	0	42	0	643301376	63	4357
2026-01-29 03:17:12.71	226.12	5.34	-46.2	-47.8	22.8	6.05e-01	0	42	0	648544256	63	4466
2026-01-29 03:17:15.73	226.04	5.11	-46.3	-47.9	22.6	6.03e-01	0	42	0	654311424	63	4522
2026-01-29 03:17:18.75	225.96	4.89	-54.3	-71.8	3.9	7.44e-01	0	42	104	657981440	79	28315
2026-01-29 03:17:21.77	225.88	4.66	-54.8	-72.5	3.8	7.42e-01	0	42	104	657981440	80	29002
2026-01-29 03:17:24.79	225.81	4.44	-55.0	-72.7	3.8	7.46e-01	0	42	104	657981440	80	29444
2026-01-29 03:17:27.81	225.74	4.22	-55.1	-72.9	3.8	7.46e-01	0	42	104	657981440	80	30348
2026-01-29 03:17:30.84	225.66	4.01	-55.2	-73.0	3.8	7.47e-01	0	42	104	657981440	80	30484
2026-01-29 03:17:33.86	225.59	3.79	-55.1	-72.9	3.8	7.45e-01	0	42	104	657981440	80	30152
2026-01-29 03:17:36.89	225.52	3.58	-54.7	-72.6	3.8	7.47e-01	0	42	104	657981440	80	29059
2026-01-29 03:17:39.91	225.45	3.37	-54.8	-72.6	3.8	7.46e-01	0	42	104	657981440	80	29133
2026-01-29 03:17:42.93	225.39	3.16	-54.7	-72.5	3.8	7.44e-01	0	42	104	657981440	80	28916
2026-01-29 03:17:45.95	225.32	2.95	-54.7	-72.5	3.8	7.47e-01	0	42	104	657981440	80	28884
2026-01-29 03:17:48.98	225.26	2.75	-54.7	-72.5	3.8	7.42e-01	0	42	104	657981440	80	28878
2026-01-29 03:17:52.00	225.19	2.54	-54.7	-72.5	3.8	7.44e-01	0	42	104	657981440	80	28814
2026-01-29 03:17:55.02	225.13	2.34	-54.6	-72.5	3.8	7.45e-01	0	42	104	657981440	80	28773
2026-01-29 03:17:58.05	225.07	2.14	-54.6	-72.5	3.8	7.44e-01	0	42	104	657981440	80	28781

#Closed at: 2026-01-29 03:18:00
#Recorded file [657 MB]: D:/lorett/data/31041_260129_060519.dat