passes_logs/2026/01/29/R3.2S_Murmansk/R3.2S_Murmansk__20260129_074502_FENGYUN_3D_rec.log

#Pass ID: 20260129_074502_FENGYUN 3D
#Satellite: FENGYUN 3D
#Configuration: FENGYUN 3D
#almurnet v.1.7.20251203
#Start time: 2026-01-29 07:45:02

#Version: 2.2.20231116
#Station: R3.2S_Murmansk
#Location: 33.079688 lon 68.888172 lat
#TLE: 1 43010U 17072A   26028.95797775  .00000451  00000+0  23492-3 0  9991
#TLE: 2 43010  98.9958   0.9922 0002505  85.7480 274.3981 14.19703224425237

#Time	Az	El	Level	Level2	SNR	BER	BlckErr	Temp	State	Recorded	gain1	gain2
2026-01-29 07:45:02.15	70.58	1.98	-52.3	-64.2	3.8	8.46e-01	0	40	0	0	76	13989
2026-01-29 07:45:06.19	70.33	2.21	-51.8	-63.7	3.8	8.46e-01	0	40	104	0	74	14777
2026-01-29 07:45:10.22	70.08	2.45	-51.8	-63.7	3.8	8.46e-01	0	40	104	0	74	14805
2026-01-29 07:45:14.25	69.82	2.68	-51.8	-63.6	3.8	8.47e-01	0	40	104	0	74	14698
2026-01-29 07:45:18.28	69.56	2.92	-51.7	-63.5	3.8	8.46e-01	0	40	104	0	74	14447
2026-01-29 07:45:22.31	69.29	3.15	-51.8	-63.7	3.8	8.46e-01	0	40	104	0	74	14721
2026-01-29 07:45:26.34	69.02	3.39	-51.7	-63.4	3.8	8.47e-01	0	41	104	0	74	14272
2026-01-29 07:45:30.37	68.74	3.63	-51.7	-63.7	3.8	8.46e-01	0	41	104	0	74	14722
2026-01-29 07:45:34.40	68.46	3.87	-51.7	-63.5	3.8	8.46e-01	0	40	104	0	74	14387
2026-01-29 07:45:38.43	68.17	4.11	-51.7	-62.7	3.8	8.46e-01	0	41	104	0	74	13211
2026-01-29 07:45:42.46	67.88	4.36	-50.7	-56.9	5.8	5.74e-01	0	41	0	1048576	73	7176
2026-01-29 07:45:46.49	67.58	4.60	-50.6	-56.6	6.0	2.99e-01	0	41	0	24117248	72	7290
2026-01-29 07:45:50.52	67.28	4.85	-50.3	-55.5	6.9	2.49e-01	0	41	0	40894464	72	6429
2026-01-29 07:45:54.55	66.98	5.10	-48.8	-51.8	10.7	2.76e-01	0	41	0	61865984	69	4994
2026-01-29 07:45:58.58	66.66	5.35	-43.9	-45.1	17.9	0.00e+00	0	41	0	77594624	59	4123
2026-01-29 07:46:02.61	66.34	5.60	-43.0	-44.1	19.0	0.00e+00	0	41	0	100663296	58	3909
2026-01-29 07:46:06.64	66.02	5.85	-43.0	-44.1	19.1	0.00e+00	0	41	0	122683392	57	4114
2026-01-29 07:46:10.68	65.69	6.11	-42.9	-44.0	19.3	0.00e+00	0	41	0	145752064	57	4065
2026-01-29 07:46:14.70	65.35	6.36	-43.0	-44.1	19.2	0.00e+00	0	41	0	168820736	57	4115
2026-01-29 07:46:18.73	65.01	6.62	-42.9	-44.0	19.4	0.00e+00	0	41	0	190840832	57	4074
2026-01-29 07:46:22.76	64.66	6.88	-42.8	-43.9	19.5	0.00e+00	0	41	0	213909504	57	4025
2026-01-29 07:46:26.79	64.31	7.14	-42.8	-43.9	19.5	0.00e+00	0	41	0	236978176	57	4014
2026-01-29 07:46:30.81	63.95	7.40	-43.0	-44.0	19.4	0.00e+00	0	41	0	258998272	57	4086
2026-01-29 07:46:34.85	63.58	7.67	-42.9	-43.9	19.6	0.00e+00	0	41	0	282066944	57	4028
2026-01-29 07:46:38.88	63.20	7.93	-42.5	-43.5	20.0	0.00e+00	0	42	0	304087040	56	4057
2026-01-29 07:46:42.91	62.82	8.20	-42.4	-43.4	20.1	0.00e+00	0	42	0	327155712	56	4022
2026-01-29 07:46:46.94	62.43	8.47	-42.3	-43.3	20.2	0.00e+00	0	42	0	349175808	56	3991
2026-01-29 07:46:50.97	62.03	8.74	-42.3	-43.3	20.3	0.00e+00	0	42	0	372244480	56	3964
2026-01-29 07:46:55.00	61.63	9.01	-42.3	-43.2	20.4	0.00e+00	0	42	0	395313152	56	3952
2026-01-29 07:46:59.03	61.21	9.28	-42.2	-43.2	20.4	0.00e+00	0	42	0	417333248	56	3934
2026-01-29 07:47:03.06	60.79	9.56	-42.3	-43.3	20.3	0.00e+00	0	42	0	440401920	56	3986
2026-01-29 07:47:07.09	60.36	9.83	-42.3	-43.2	20.4	0.00e+00	0	42	0	463470592	56	3946
2026-01-29 07:47:11.12	59.92	10.11	-42.1	-43.0	20.7	0.00e+00	0	42	0	485490688	56	3852
2026-01-29 07:47:15.15	59.48	10.39	-42.2	-43.2	20.5	0.00e+00	0	42	0	508559360	56	3928
2026-01-29 07:47:19.17	59.02	10.67	-42.0	-42.9	20.7	0.00e+00	0	42	0	531628032	55	4028
2026-01-29 07:47:23.21	58.56	10.95	-41.7	-42.6	21.0	0.00e+00	0	42	0	553648128	55	3895
2026-01-29 07:47:27.25	58.08	11.24	-41.5	-42.4	21.2	0.00e+00	0	42	0	576716800	55	3813
2026-01-29 07:47:31.27	57.60	11.52	-41.7	-42.6	21.1	0.00e+00	0	42	0	599785472	55	3876
2026-01-29 07:47:35.31	57.11	11.81	-41.5	-42.4	21.3	0.00e+00	0	42	0	621805568	54	4010
2026-01-29 07:47:39.33	56.60	12.10	-41.2	-42.1	21.6	0.00e+00	0	42	0	644874240	54	3892
2026-01-29 07:47:43.37	56.09	12.39	-41.3	-42.2	21.5	0.00e+00	0	42	0	667942912	54	3952
2026-01-29 07:47:47.40	55.57	12.68	-41.1	-42.0	21.7	0.00e+00	0	42	0	689963008	54	3829
2026-01-29 07:47:51.44	55.03	12.97	-41.1	-41.9	21.8	0.00e+00	0	42	0	711983104	54	3819
2026-01-29 07:47:55.47	54.48	13.26	-40.9	-41.8	21.9	0.00e+00	0	42	0	735051776	53	3976
2026-01-29 07:47:59.50	53.93	13.55	-40.8	-41.6	22.1	0.00e+00	0	42	0	758120448	53	3904
2026-01-29 07:48:03.53	53.36	13.84	-40.8	-41.6	22.1	0.00e+00	0	42	0	780140544	53	3894
2026-01-29 07:48:07.57	52.78	14.14	-40.7	-41.5	22.2	0.00e+00	0	42	0	803209216	53	3863
2026-01-29 07:48:11.60	52.19	14.43	-40.5	-41.4	22.4	0.00e+00	0	42	0	826277888	53	3783
2026-01-29 07:48:15.63	51.58	14.73	-40.6	-41.4	22.3	0.00e+00	0	42	0	848297984	53	3799
2026-01-29 07:48:19.67	50.97	15.02	-40.5	-41.3	22.5	0.00e+00	0	42	0	871366656	52	3972
2026-01-29 07:48:23.71	50.34	15.32	-40.4	-41.3	22.5	0.00e+00	0	42	0	894435328	52	3960
2026-01-29 07:48:27.74	49.70	15.61	-40.3	-41.1	22.6	0.00e+00	0	42	0	916455424	52	3907
2026-01-29 07:48:31.78	49.04	15.91	-40.2	-41.0	22.7	0.00e+00	0	42	0	939524096	52	3855
2026-01-29 07:48:35.81	48.37	16.20	-40.3	-41.1	22.7	0.00e+00	0	42	0	962592768	52	3869
2026-01-29 07:48:39.84	47.69	16.50	-40.3	-41.1	22.7	0.00e+00	0	42	0	984612864	52	3904
2026-01-29 07:48:43.86	47.00	16.79	-40.1	-40.9	22.9	0.00e+00	0	42	0	1007681536	52	3815
2026-01-29 07:48:47.89	46.29	17.08	-40.2	-41.0	22.8	0.00e+00	0	42	0	1030750208	52	3859
2026-01-29 07:48:51.93	45.57	17.38	-40.0	-40.8	23.0	0.00e+00	0	42	0	1052770304	52	3754
2026-01-29 07:48:55.96	44.83	17.67	-39.9	-40.7	23.2	0.00e+00	0	42	0	1075838976	51	3924
2026-01-29 07:48:59.99	44.08	17.95	-40.0	-40.8	23.2	0.00e+00	0	42	0	1097859072	51	3961
2026-01-29 07:49:04.03	43.31	18.24	-39.7	-40.4	23.5	0.00e+00	0	42	0	1120927744	51	3824
2026-01-29 07:49:08.05	42.53	18.52	-39.5	-40.3	23.6	0.00e+00	0	42	0	1143996416	51	3761
2026-01-29 07:49:12.07	41.74	18.81	-39.4	-40.1	23.8	0.00e+00	0	42	0	1166016512	50	3904
2026-01-29 07:49:16.11	40.93	19.09	-39.2	-39.9	23.9	0.00e+00	0	42	0	1189085184	50	3819
2026-01-29 07:49:20.14	40.10	19.36	-39.3	-40.0	23.8	0.00e+00	0	42	0	1211105280	50	3868
2026-01-29 07:49:24.17	39.26	19.64	-39.2	-39.9	24.0	0.00e+00	0	42	0	1234173952	50	3822
2026-01-29 07:49:28.20	38.41	19.90	-39.2	-39.9	24.0	0.00e+00	0	42	0	1257242624	50	3798
2026-01-29 07:49:32.23	37.53	20.17	-39.2	-39.9	24.0	0.00e+00	0	42	0	1279262720	50	3824
2026-01-29 07:49:36.27	36.65	20.43	-39.1	-39.8	24.1	0.00e+00	0	42	0	1302331392	50	3764
2026-01-29 07:49:40.29	35.75	20.69	-38.8	-39.5	24.4	0.00e+00	0	42	0	1325400064	49	3852
2026-01-29 07:49:44.33	34.83	20.94	-39.2	-39.9	24.0	0.00e+00	0	42	0	1347420160	49	4029
2026-01-29 07:49:48.36	33.90	21.18	-39.2	-40.0	24.0	0.00e+00	0	42	0	1370488832	49	4060
2026-01-29 07:49:52.39	32.95	21.42	-39.3	-40.0	23.9	0.00e+00	0	42	0	1393557504	49	4078
2026-01-29 07:49:56.42	31.99	21.66	-38.9	-39.6	24.3	0.00e+00	0	42	0	1415577600	49	3888
2026-01-29 07:50:00.46	31.01	21.89	-39.0	-39.7	24.2	0.00e+00	0	42	0	1438646272	49	3953
2026-01-29 07:50:04.49	30.02	22.11	-38.8	-39.6	24.4	0.00e+00	0	42	0	1460666368	49	3875
2026-01-29 07:50:08.52	29.02	22.32	-38.8	-39.6	24.3	0.00e+00	0	42	0	1483735040	49	3885
2026-01-29 07:50:12.55	28.00	22.52	-38.8	-39.6	23.9	0.00e+00	0	42	0	1505755136	49	3881
2026-01-29 07:50:16.58	26.97	22.72	-38.4	-39.1	24.0	0.00e+00	0	42	0	1528823808	48	3899
2026-01-29 07:50:20.61	25.92	22.91	-38.6	-39.4	24.6	0.00e+00	0	42	0	1551892480	48	4005
2026-01-29 07:50:24.65	24.87	23.09	-38.5	-39.3	24.6	0.00e+00	0	42	0	1573912576	48	3965
2026-01-29 07:50:28.69	23.79	23.25	-38.3	-39.0	24.8	0.00e+00	0	42	0	1596981248	48	3860
2026-01-29 07:50:32.71	22.72	23.41	-38.3	-39.1	24.9	0.00e+00	0	42	0	1620049920	48	3871
2026-01-29 07:50:36.74	21.63	23.56	-38.6	-39.4	24.6	0.00e+00	0	42	0	1642070016	48	4013
2026-01-29 07:50:40.78	20.52	23.70	-38.6	-39.4	24.6	0.00e+00	0	42	0	1665138688	48	4010
2026-01-29 07:50:44.82	19.41	23.83	-38.5	-39.3	24.7	0.00e+00	0	42	0	1688207360	48	3964
2026-01-29 07:50:48.85	18.29	23.95	-38.2	-38.9	25.0	0.00e+00	0	42	0	1711276032	48	3812
2026-01-29 07:50:52.89	17.16	24.05	-38.1	-38.8	25.2	0.00e+00	0	42	0	1733296128	48	3739
2026-01-29 07:50:56.93	16.03	24.14	-37.7	-38.4	25.0	0.00e+00	0	42	0	1756364800	47	3817
2026-01-29 07:51:00.96	14.89	24.22	-38.0	-38.8	24.7	0.00e+00	0	42	0	1779433472	47	3960
2026-01-29 07:51:04.99	13.74	24.29	-38.1	-38.8	24.6	0.00e+00	0	42	0	1801453568	47	3996
2026-01-29 07:51:09.02	12.59	24.35	-37.8	-38.6	24.8	0.00e+00	0	42	0	1823473664	47	3870
2026-01-29 07:51:13.06	11.43	24.39	-37.6	-38.3	25.1	0.00e+00	0	42	0	1846542336	47	3776
2026-01-29 07:51:17.09	10.28	24.43	-37.8	-38.5	24.9	0.00e+00	0	42	0	1869611008	47	3853
2026-01-29 07:51:21.12	9.12	24.44	-37.8	-38.5	25.0	0.00e+00	0	42	0	1891631104	47	3834
2026-01-29 07:51:25.16	7.95	24.45	-37.8	-38.5	25.0	0.00e+00	0	42	0	1914699776	47	3838
2026-01-29 07:51:29.19	6.79	24.44	-37.7	-38.4	25.1	0.00e+00	0	42	0	1937768448	47	3808
2026-01-29 07:51:33.22	5.64	24.42	-37.6	-38.4	25.1	0.00e+00	0	42	0	1959788544	47	3785
2026-01-29 07:51:37.25	4.48	24.39	-37.8	-38.5	25.0	0.00e+00	0	42	0	1982857216	47	3835
2026-01-29 07:51:41.28	3.33	24.35	-37.8	-38.5	24.9	0.00e+00	0	42	0	2005925888	47	3868
2026-01-29 07:51:45.32	2.17	24.29	-38.0	-38.7	24.8	0.00e+00	0	42	0	2027945984	47	3952
2026-01-29 07:51:49.35	1.03	24.22	-37.7	-38.4	25.0	0.00e+00	0	42	0	2051014656	47	3819
2026-01-29 07:51:53.37	359.89	24.14	-37.8	-38.6	24.9	0.00e+00	0	42	0	2074083328	47	3878
2026-01-29 07:51:57.41	358.75	24.04	-37.5	-38.2	25.2	0.00e+00	0	42	0	2096103424	46	3921
2026-01-29 07:52:01.44	357.63	23.94	-37.6	-38.3	25.1	0.00e+00	0	42	0	2119172096	46	3994
2026-01-29 07:52:05.46	356.51	23.82	-37.8	-38.5	24.9	0.00e+00	0	42	0	2142240768	46	4096
2026-01-29 07:52:09.49	355.40	23.69	-37.8	-38.6	24.9	0.00e+00	0	42	0	2164260864	46	4103
2026-01-29 07:52:13.52	354.30	23.55	-37.8	-38.5	24.9	0.00e+00	0	42	0	2186280960	46	4079
2026-01-29 07:52:17.54	353.22	23.40	-37.6	-38.3	25.1	0.00e+00	0	42	0	2209349632	46	3998
2026-01-29 07:52:21.57	352.14	23.24	-37.9	-38.7	24.8	0.00e+00	0	42	0	2232418304	46	4156
2026-01-29 07:52:25.60	351.07	23.07	-37.8	-38.5	24.9	0.00e+00	0	42	0	2254438400	46	4073
2026-01-29 07:52:29.63	350.02	22.90	-37.7	-38.4	25.0	0.00e+00	0	42	0	2277507072	46	4049
2026-01-29 07:52:33.66	348.97	22.71	-37.8	-38.5	24.9	0.00e+00	0	42	0	2300575744	46	4096
2026-01-29 07:52:37.70	347.94	22.51	-37.9	-38.6	24.9	0.00e+00	0	42	0	2322595840	46	4109
2026-01-29 07:52:41.72	346.93	22.31	-38.0	-38.8	24.7	0.00e+00	0	42	0	2345664512	46	4204
2026-01-29 07:52:45.75	345.93	22.09	-37.9	-38.6	24.8	0.00e+00	0	42	0	2368733184	46	4138
2026-01-29 07:52:49.79	344.93	21.87	-38.0	-38.7	24.8	0.00e+00	0	42	0	2390753280	46	4170
2026-01-29 07:52:53.82	343.96	21.64	-38.0	-38.7	24.8	0.00e+00	0	42	0	2413821952	46	4161
2026-01-29 07:52:57.84	343.00	21.41	-37.9	-38.7	24.8	0.00e+00	0	42	0	2435842048	46	4146
2026-01-29 07:53:01.87	342.06	21.17	-38.0	-38.8	24.7	0.00e+00	0	42	0	2458910720	46	4199
2026-01-29 07:53:05.90	341.13	20.93	-38.5	-39.2	24.3	0.00e+00	0	42	0	2481979392	47	4173
2026-01-29 07:53:09.93	340.21	20.67	-38.5	-39.2	24.3	0.00e+00	0	42	0	2503999488	47	4176
2026-01-29 07:53:13.96	339.31	20.42	-38.4	-39.1	24.3	0.00e+00	0	42	0	2527068160	47	4141
2026-01-29 07:53:18.00	338.42	20.16	-39.1	-39.8	24.2	0.00e+00	0	42	0	2549088256	48	4213
2026-01-29 07:53:22.04	337.55	19.89	-39.1	-39.8	24.2	0.00e+00	0	42	0	2572156928	48	4215
2026-01-29 07:53:26.07	336.70	19.62	-39.2	-39.9	24.1	0.00e+00	0	42	0	2595225600	49	4051
2026-01-29 07:53:30.11	335.86	19.35	-39.3	-40.0	24.0	0.00e+00	0	42	0	2617245696	49	4088
2026-01-29 07:53:34.13	335.04	19.07	-39.3	-40.1	23.9	0.00e+00	0	42	0	2640314368	49	4113
2026-01-29 07:53:38.17	334.23	18.79	-39.3	-40.1	23.9	0.00e+00	0	42	0	2663383040	49	4101
2026-01-29 07:53:42.21	333.43	18.51	-39.1	-39.9	24.1	0.00e+00	0	42	0	2685403136	49	4012
2026-01-29 07:53:46.24	332.65	18.22	-39.4	-40.2	23.8	0.00e+00	0	42	0	2708471808	49	4150
2026-01-29 07:53:50.29	331.88	17.94	-39.2	-39.9	24.0	0.00e+00	0	42	0	2731540480	49	4040
2026-01-29 07:53:54.32	331.13	17.65	-39.2	-39.9	24.0	0.00e+00	0	42	0	2753560576	49	4035
2026-01-29 07:53:58.35	330.40	17.36	-39.4	-40.1	23.8	0.00e+00	0	42	0	2776629248	49	4142
2026-01-29 07:54:02.39	329.68	17.07	-39.4	-40.1	23.8	0.00e+00	0	42	0	2799697920	49	4118
2026-01-29 07:54:06.43	328.97	16.77	-39.6	-40.4	23.6	0.00e+00	0	42	0	2821718016	49	4268
2026-01-29 07:54:10.45	328.28	16.48	-39.9	-40.7	23.3	0.00e+00	0	42	0	2844786688	50	4169
2026-01-29 07:54:14.48	327.60	16.19	-39.9	-40.7	23.2	0.00e+00	0	42	0	2867855360	50	4181
2026-01-29 07:54:18.51	326.93	15.89	-40.0	-40.8	23.2	0.00e+00	0	42	0	2889875456	50	4206
2026-01-29 07:54:22.54	326.28	15.60	-39.8	-40.6	23.3	0.00e+00	0	42	0	2911895552	50	4123
2026-01-29 07:54:26.58	325.64	15.30	-40.1	-40.9	23.1	0.00e+00	0	42	0	2934964224	50	4253
2026-01-29 07:54:30.62	325.01	15.01	-40.2	-41.0	22.9	0.00e+00	0	42	0	2958032896	51	4080
2026-01-29 07:54:34.65	324.40	14.71	-40.4	-41.2	22.8	0.00e+00	0	42	0	2980052992	51	4160
2026-01-29 07:54:38.68	323.79	14.42	-40.3	-41.1	22.8	0.00e+00	0	42	0	3003121664	51	4123
2026-01-29 07:54:42.72	323.20	14.12	-40.4	-41.2	22.7	0.00e+00	0	42	0	3026190336	51	4168
2026-01-29 07:54:46.75	322.62	13.83	-40.6	-41.4	22.5	0.00e+00	0	42	0	3048210432	51	4251
2026-01-29 07:54:50.78	322.06	13.54	-40.6	-41.5	22.4	0.00e+00	0	42	0	3071279104	51	4301
2026-01-29 07:54:54.80	321.50	13.24	-40.5	-41.3	22.5	0.00e+00	0	42	0	3094347776	52	3987
2026-01-29 07:54:58.83	320.96	12.95	-40.6	-41.5	22.4	0.00e+00	0	42	0	3116367872	52	4055
2026-01-29 07:55:02.86	320.43	12.66	-40.7	-41.6	22.2	0.00e+00	0	42	0	3139436544	52	4107
2026-01-29 07:55:06.88	319.90	12.37	-40.9	-41.7	22.1	0.00e+00	0	42	0	3162505216	52	4179
2026-01-29 07:55:10.92	319.39	12.08	-40.9	-41.8	22.0	0.00e+00	0	42	0	3184525312	52	4205
2026-01-29 07:55:14.94	318.89	11.80	-40.9	-41.7	22.0	0.00e+00	0	42	0	3207593984	52	4176
2026-01-29 07:55:18.98	318.40	11.51	-41.2	-42.0	21.7	0.00e+00	0	42	0	3230662656	52	4338
2026-01-29 07:55:23.01	317.91	11.23	-41.5	-42.3	21.5	0.00e+00	0	42	0	3252682752	53	4236
2026-01-29 07:55:27.05	317.44	10.94	-41.5	-42.4	21.4	0.00e+00	0	42	0	3274702848	53	4253
2026-01-29 07:55:31.07	316.98	10.66	-41.4	-42.3	21.4	0.00e+00	0	42	0	3297771520	53	4209
2026-01-29 07:55:35.10	316.52	10.38	-41.4	-42.2	21.5	0.00e+00	0	42	0	3320840192	53	4185
2026-01-29 07:55:39.13	316.08	10.10	-41.4	-42.3	21.4	0.00e+00	0	42	0	3342860288	53	4225
2026-01-29 07:55:43.16	315.64	9.82	-41.5	-42.4	21.2	0.00e+00	0	42	0	3365928960	53	4279
2026-01-29 07:55:47.19	315.21	9.55	-41.8	-42.7	20.9	0.00e+00	0	42	0	3388997632	54	4189
2026-01-29 07:55:51.23	314.79	9.27	-41.9	-42.8	20.9	0.00e+00	0	42	0	3411017728	54	4213
2026-01-29 07:55:55.25	314.38	9.00	-41.8	-42.7	20.9	0.00e+00	0	42	0	3434086400	54	4171
2026-01-29 07:55:59.28	313.98	8.73	-42.0	-43.0	20.6	0.00e+00	0	42	0	3457155072	54	4310
2026-01-29 07:56:03.32	313.58	8.46	-42.0	-42.9	20.7	0.00e+00	0	42	0	3479175168	54	4264
2026-01-29 07:56:07.35	313.19	8.19	-42.0	-43.0	20.6	0.00e+00	0	42	0	3502243840	54	4306
2026-01-29 07:56:11.38	312.81	7.92	-42.2	-43.1	20.4	0.00e+00	0	42	0	3525312512	55	4137
2026-01-29 07:56:15.41	312.43	7.66	-42.4	-43.3	20.2	0.00e+00	0	42	0	3547332608	55	4237
2026-01-29 07:56:19.45	312.06	7.39	-42.4	-43.4	20.1	0.00e+00	0	42	0	3570401280	55	4249
2026-01-29 07:56:23.48	311.70	7.13	-42.3	-43.3	20.1	0.00e+00	0	42	0	3593469952	55	4230
2026-01-29 07:56:27.51	311.35	6.87	-42.4	-43.4	20.0	0.00e+00	0	42	0	3615490048	55	4261
2026-01-29 07:56:31.55	311.00	6.61	-42.4	-43.4	20.0	0.00e+00	0	42	0	3637510144	55	4262
2026-01-29 07:56:35.58	310.66	6.35	-42.4	-43.4	20.0	0.00e+00	0	42	0	3660578816	55	4267
2026-01-29 07:56:39.62	310.32	6.10	-42.6	-43.6	19.8	0.00e+00	0	42	0	3683647488	55	4365
2026-01-29 07:56:43.65	309.99	5.84	-42.6	-43.6	19.8	0.00e+00	0	42	0	3705667584	56	4131
2026-01-29 07:56:47.67	309.67	5.59	-42.9	-43.9	19.4	0.00e+00	0	42	0	3728736256	56	4272
2026-01-29 07:56:51.70	309.36	5.34	-42.7	-43.7	19.6	0.00e+00	0	42	0	3751804928	56	4177
2026-01-29 07:56:55.73	309.04	5.09	-43.0	-44.1	19.2	0.00e+00	0	42	0	3773825024	56	4372
2026-01-29 07:56:59.76	308.74	4.84	-52.3	-64.3	3.8	8.47e-01	0	42	104	3787456512	75	14920
2026-01-29 07:57:03.79	308.44	4.59	-52.6	-64.5	3.8	8.45e-01	0	42	104	3787456512	75	15379
2026-01-29 07:57:07.83	308.14	4.35	-52.9	-64.8	3.8	8.46e-01	0	42	104	3787456512	76	14961
2026-01-29 07:57:11.86	307.85	4.11	-53.1	-65.0	3.8	8.45e-01	0	42	104	3787456512	76	15263
2026-01-29 07:57:15.88	307.57	3.86	-53.2	-65.1	3.8	8.46e-01	0	42	104	3787456512	76	15414
2026-01-29 07:57:19.91	307.29	3.62	-53.0	-64.9	3.8	8.47e-01	0	42	104	3787456512	76	15196
2026-01-29 07:57:23.95	307.01	3.38	-53.0	-64.9	3.8	8.47e-01	0	42	104	3787456512	76	15137
2026-01-29 07:57:27.98	306.74	3.15	-53.0	-64.9	3.8	8.46e-01	0	42	104	3787456512	76	15118
2026-01-29 07:57:32.01	306.47	2.91	-52.9	-64.9	3.8	8.46e-01	0	42	104	3787456512	76	15093
2026-01-29 07:57:36.04	306.21	2.67	-52.9	-64.9	3.8	8.46e-01	0	42	104	3787456512	76	15102
2026-01-29 07:57:40.07	305.95	2.44	-52.9	-64.9	3.8	8.47e-01	0	42	104	3787456512	76	15058
2026-01-29 07:57:44.11	305.70	2.21	-52.9	-64.8	3.8	8.45e-01	0	42	104	3787456512	76	15050
2026-01-29 07:57:48.13	305.45	1.98	-52.9	-64.8	3.8	8.46e-01	0	42	104	3787456512	76	15000

#Closed at: 2026-01-29 07:57:49
#Recorded file [3787 MB]: D:/lorett/data/31041_260129_104501.dat