passes_logs/2026/01/29/R3.2S_Murmansk/R3.2S_Murmansk__20260129_132109_JL1KF02B03_rec.log

#Pass ID: 20260129_132109_JL1KF02B03
#Satellite: JL1KF02B03
#Configuration: 01B_900M
#almurnet v.1.7.20251203
#Start time: 2026-01-29 13:21:08

#Version: 2.2.20231116
#Station: R3.2S_Murmansk
#Location: 33.079688 lon 68.888172 lat
#TLE: 1 61190U 24169B   26027.95040823  .00006616  00000+0  41473-3 0  9997
#TLE: 2 61190  97.5613 118.8989 0014990 139.1340 221.1016 15.09577516 74671

#Time	Az	El	Level	Level2	SNR	BER	BlckErr	Temp	State	Recorded	gain1	gain2
2026-01-29 13:21:08.41	30.60	1.97	-54.4	-56.4	6.2	0.00e+00	0	42	0	0	79	19252
2026-01-29 13:21:11.43	30.32	2.14	-54.3	-56.4	6.2	0.00e+00	0	42	104	0	80	18089
2026-01-29 13:21:14.45	30.03	2.32	-54.3	-56.4	6.2	0.00e+00	0	42	104	0	80	18068
2026-01-29 13:21:17.48	29.73	2.50	-54.3	-56.3	6.2	0.00e+00	0	42	104	0	80	17842
2026-01-29 13:21:20.50	29.43	2.68	-54.4	-56.5	6.2	0.00e+00	0	42	104	0	80	18341
2026-01-29 13:21:23.53	29.13	2.86	-54.5	-56.6	6.2	0.00e+00	0	42	104	0	80	18522
2026-01-29 13:21:26.55	28.82	3.04	-54.6	-56.6	6.2	0.00e+00	0	43	104	0	80	18557
2026-01-29 13:21:29.57	28.50	3.22	-54.4	-56.5	6.2	0.00e+00	0	43	104	0	80	18204
2026-01-29 13:21:32.59	28.18	3.40	-54.5	-56.5	6.2	0.00e+00	0	43	104	0	80	18363
2026-01-29 13:21:35.62	27.86	3.59	-54.4	-56.5	6.2	0.00e+00	0	43	104	0	80	18197
2026-01-29 13:21:38.64	27.53	3.77	-54.1	-56.1	6.2	0.00e+00	0	43	104	0	80	17557
2026-01-29 13:21:41.66	27.20	3.96	-53.2	-55.3	6.2	0.00e+00	0	43	104	0	78	17877
2026-01-29 13:21:44.69	26.85	4.14	-53.2	-55.2	6.2	0.00e+00	0	43	104	0	78	17760
2026-01-29 13:21:47.72	26.51	4.33	-53.2	-55.3	6.2	0.00e+00	0	43	104	0	78	17834
2026-01-29 13:21:50.75	26.16	4.52	-53.2	-55.3	6.2	0.00e+00	0	43	104	0	78	17802
2026-01-29 13:21:53.78	25.80	4.71	-53.2	-55.2	6.2	0.00e+00	0	43	104	0	78	17765
2026-01-29 13:21:56.80	25.43	4.90	-53.2	-55.2	6.2	0.00e+00	0	43	104	0	78	17752
2026-01-29 13:21:59.83	25.06	5.09	-53.2	-55.3	6.2	0.00e+00	0	43	104	0	78	17794
2026-01-29 13:22:02.84	24.69	5.28	-53.3	-55.4	6.2	0.00e+00	0	43	104	0	78	18033
2026-01-29 13:22:05.86	24.31	5.47	-53.1	-55.2	6.2	0.00e+00	0	43	104	0	78	17609
2026-01-29 13:22:08.89	23.92	5.66	-53.1	-55.2	6.2	0.00e+00	0	44	104	0	78	17711
2026-01-29 13:22:11.91	23.52	5.85	-53.1	-55.1	6.2	0.00e+00	0	43	104	0	78	17550
2026-01-29 13:22:14.93	23.12	6.05	-53.2	-55.3	6.2	0.00e+00	0	44	104	0	78	17847
2026-01-29 13:22:17.96	22.71	6.24	-53.0	-55.1	6.2	0.00e+00	0	44	104	0	78	17508
2026-01-29 13:22:20.98	22.30	6.44	-53.1	-55.2	6.2	0.00e+00	0	44	104	0	78	17659
2026-01-29 13:22:24.00	21.88	6.63	-53.0	-55.2	6.2	0.00e+00	0	44	104	0	78	17570
2026-01-29 13:22:27.03	21.44	6.83	-53.2	-55.3	6.2	0.00e+00	0	44	104	0	78	17878
2026-01-29 13:22:30.05	21.01	7.03	-53.1	-55.2	6.2	0.00e+00	0	44	104	0	78	17617
2026-01-29 13:22:33.07	20.56	7.22	-53.1	-55.2	6.2	0.00e+00	0	44	104	0	78	17717
2026-01-29 13:22:36.09	20.11	7.42	-53.1	-55.2	6.2	0.00e+00	0	44	104	0	78	17625
2026-01-29 13:22:39.11	19.65	7.62	-53.3	-55.4	6.2	0.00e+00	0	44	104	0	78	17972
2026-01-29 13:22:42.13	19.19	7.82	-53.1	-55.2	6.2	0.00e+00	0	44	104	0	78	17664
2026-01-29 13:22:45.15	18.71	8.02	-53.2	-55.2	6.2	0.00e+00	0	44	104	0	78	17705
2026-01-29 13:22:48.17	18.23	8.22	-53.1	-55.2	6.2	0.00e+00	0	44	104	0	78	17699
2026-01-29 13:22:51.20	17.73	8.42	-53.3	-55.4	6.2	0.00e+00	0	44	104	0	78	17980
2026-01-29 13:22:54.23	17.23	8.62	-53.1	-55.2	6.2	0.00e+00	0	44	104	0	78	17627
2026-01-29 13:22:57.26	16.72	8.82	-53.2	-55.3	6.2	0.00e+00	0	44	104	0	78	17826
2026-01-29 13:23:00.28	16.20	9.02	-53.2	-55.3	6.2	0.00e+00	0	44	104	0	78	17787
2026-01-29 13:23:03.30	15.68	9.22	-53.3	-55.4	6.2	0.00e+00	0	44	104	0	78	18114
2026-01-29 13:23:06.33	15.14	9.43	-53.2	-55.3	6.2	0.00e+00	0	44	104	0	78	17797
2026-01-29 13:23:09.35	14.59	9.63	-53.2	-55.3	6.2	0.00e+00	0	44	104	0	78	17892
2026-01-29 13:23:12.37	14.04	9.83	-53.2	-55.3	6.2	0.00e+00	0	44	104	0	78	17875
2026-01-29 13:23:15.39	13.47	10.03	-53.3	-55.4	6.2	0.00e+00	0	44	104	0	78	18051
2026-01-29 13:23:18.41	12.90	10.23	-53.2	-55.3	6.2	0.00e+00	0	44	104	0	78	17787
2026-01-29 13:23:21.44	12.32	10.43	-53.3	-55.3	6.2	0.00e+00	0	44	104	0	78	17966
2026-01-29 13:23:24.46	11.72	10.63	-53.3	-55.3	6.2	0.00e+00	0	44	104	0	78	17940
2026-01-29 13:23:27.48	11.12	10.83	-53.3	-55.4	6.2	0.00e+00	0	44	104	0	78	18125
2026-01-29 13:23:30.51	10.51	11.03	-53.3	-55.4	6.2	0.00e+00	0	44	104	0	78	18066
2026-01-29 13:23:33.52	9.89	11.23	-53.3	-55.4	6.2	0.00e+00	0	44	104	0	78	18115
2026-01-29 13:23:36.53	9.25	11.42	-53.3	-55.5	6.2	0.00e+00	0	44	104	0	78	18192
2026-01-29 13:23:39.56	8.61	11.62	-53.4	-55.4	6.2	0.00e+00	0	44	104	0	78	18171
2026-01-29 13:23:42.58	7.95	11.82	-53.4	-55.5	6.2	0.00e+00	0	44	104	0	78	18224
2026-01-29 13:23:45.61	7.29	12.01	-53.4	-55.5	6.2	0.00e+00	0	44	104	0	78	18225
2026-01-29 13:23:48.63	6.61	12.20	-53.4	-55.5	6.2	0.00e+00	0	44	104	0	78	18253
2026-01-29 13:23:51.65	5.93	12.39	-53.4	-55.5	6.2	0.00e+00	0	44	104	0	78	18299
2026-01-29 13:23:54.68	5.23	12.58	-53.4	-55.5	6.2	0.00e+00	0	44	104	0	78	18311
2026-01-29 13:23:57.70	4.52	12.77	-53.4	-55.4	6.2	0.00e+00	0	44	104	0	78	18179
2026-01-29 13:24:00.72	3.80	12.96	-53.4	-55.5	6.2	0.00e+00	0	44	104	0	78	18214
2026-01-29 13:24:03.74	3.07	13.14	-53.4	-55.5	6.2	0.00e+00	0	44	104	0	78	18380
2026-01-29 13:24:06.76	2.33	13.32	-53.5	-55.5	6.2	0.00e+00	0	44	104	0	78	18330
2026-01-29 13:24:09.80	1.58	13.50	-53.4	-55.5	6.2	0.00e+00	0	44	104	0	78	18286
2026-01-29 13:24:12.82	0.82	13.67	-53.4	-55.5	6.2	0.00e+00	0	45	104	0	78	18307
2026-01-29 13:24:15.84	0.04	13.85	-53.4	-55.5	6.2	0.00e+00	0	45	104	0	78	18299
2026-01-29 13:24:18.86	359.26	14.02	-53.5	-55.6	6.2	0.00e+00	0	45	104	0	78	18414
2026-01-29 13:24:21.89	358.46	14.18	-53.4	-55.5	6.2	0.00e+00	0	45	104	0	78	18282
2026-01-29 13:24:24.92	357.66	14.35	-53.5	-55.6	6.2	0.00e+00	0	44	104	0	78	18406
2026-01-29 13:24:27.95	356.84	14.51	-53.5	-55.6	6.2	0.00e+00	0	44	104	0	78	18515
2026-01-29 13:24:30.97	356.01	14.66	-53.6	-55.6	6.2	0.00e+00	0	44	104	0	78	18581
2026-01-29 13:24:34.00	355.18	14.81	-53.4	-55.5	6.2	0.00e+00	0	45	104	0	78	18359
2026-01-29 13:24:37.02	354.33	14.96	-53.5	-55.6	6.2	0.00e+00	0	45	104	0	78	18448
2026-01-29 13:24:40.03	353.48	15.10	-53.5	-55.6	6.2	0.00e+00	0	45	104	0	78	18545
2026-01-29 13:24:43.06	352.61	15.24	-53.6	-55.7	6.2	0.00e+00	0	44	104	0	78	18655
2026-01-29 13:24:46.08	351.74	15.37	-53.5	-55.6	6.2	0.00e+00	0	45	104	0	78	18469
2026-01-29 13:24:49.11	350.85	15.50	-53.6	-55.6	6.2	0.00e+00	0	44	104	0	78	18595
2026-01-29 13:24:52.13	349.96	15.62	-53.6	-55.6	6.2	0.00e+00	0	45	104	0	78	18527
2026-01-29 13:24:55.15	349.06	15.74	-53.6	-55.7	6.2	0.00e+00	0	45	104	0	78	18712
2026-01-29 13:24:58.17	348.15	15.85	-53.5	-55.6	6.2	0.00e+00	0	45	104	0	78	18557
2026-01-29 13:25:01.19	347.24	15.96	-53.6	-55.7	6.2	0.00e+00	0	45	104	0	78	18740
2026-01-29 13:25:04.22	346.31	16.06	-53.6	-55.7	6.2	0.00e+00	0	45	104	0	78	18644
2026-01-29 13:25:07.24	345.38	16.15	-53.7	-55.7	6.2	0.00e+00	0	45	104	0	78	18816
2026-01-29 13:25:10.26	344.44	16.24	-53.6	-55.7	6.2	0.00e+00	0	45	104	0	78	18606
2026-01-29 13:25:13.29	343.49	16.32	-53.6	-55.7	6.2	0.00e+00	0	45	104	0	78	18800
2026-01-29 13:25:16.31	342.55	16.39	-53.6	-55.7	6.2	0.00e+00	0	45	104	0	78	18768
2026-01-29 13:25:19.34	341.59	16.46	-53.7	-55.8	6.2	0.00e+00	0	44	104	0	78	18846
2026-01-29 13:25:22.36	340.63	16.52	-53.6	-55.7	6.2	0.00e+00	0	45	104	0	78	18690
2026-01-29 13:25:25.38	339.67	16.57	-53.7	-55.7	6.2	0.00e+00	0	45	104	0	78	18779
2026-01-29 13:25:28.41	338.70	16.61	-53.7	-55.8	6.2	0.00e+00	0	44	104	0	78	18832
2026-01-29 13:25:31.43	337.73	16.65	-53.7	-55.8	6.2	0.00e+00	0	44	104	0	78	19008
2026-01-29 13:25:34.46	336.75	16.68	-53.7	-55.8	6.2	0.00e+00	0	45	104	0	78	18886
2026-01-29 13:25:37.49	335.77	16.70	-53.7	-55.8	6.2	0.00e+00	0	45	104	0	78	18910
2026-01-29 13:25:40.51	334.80	16.72	-53.7	-55.8	6.2	0.00e+00	0	45	104	0	78	18936
2026-01-29 13:25:43.54	333.81	16.73	-53.8	-55.8	6.2	0.00e+00	0	45	104	0	78	18998
2026-01-29 13:25:46.56	332.84	16.73	-53.8	-55.8	6.2	0.00e+00	0	45	104	0	78	19034
2026-01-29 13:25:49.58	331.86	16.72	-53.7	-55.8	6.2	0.00e+00	0	45	104	0	78	18958
2026-01-29 13:25:52.61	330.88	16.70	-53.8	-55.9	6.2	0.00e+00	0	45	104	0	78	19063
2026-01-29 13:25:55.63	329.90	16.68	-53.8	-55.9	6.2	0.00e+00	0	45	104	0	78	19094
2026-01-29 13:25:58.66	328.93	16.65	-53.8	-55.9	6.2	0.00e+00	0	45	104	0	78	19192
2026-01-29 13:26:01.68	327.96	16.61	-53.7	-55.8	6.2	0.00e+00	0	45	104	0	78	18928
2026-01-29 13:26:04.71	326.98	16.57	-53.8	-55.9	6.2	0.00e+00	0	45	104	0	78	19049
2026-01-29 13:26:07.73	326.02	16.52	-53.8	-55.9	6.2	0.00e+00	0	45	104	0	78	19074
2026-01-29 13:26:10.76	325.06	16.46	-53.9	-55.9	6.2	0.00e+00	0	45	104	0	78	19244
2026-01-29 13:26:13.78	324.10	16.39	-53.8	-55.8	6.2	0.00e+00	0	45	104	0	78	18979
2026-01-29 13:26:16.80	323.15	16.32	-53.8	-55.9	6.2	0.00e+00	0	45	104	0	78	19111
2026-01-29 13:26:19.82	322.20	16.24	-53.8	-55.9	6.2	0.00e+00	0	44	104	0	78	19232
2026-01-29 13:26:22.85	321.26	16.15	-53.9	-56.0	6.2	0.00e+00	0	45	104	0	78	19305
2026-01-29 13:26:25.87	320.33	16.06	-53.8	-55.9	6.2	0.00e+00	0	45	104	0	78	19118
2026-01-29 13:26:28.89	319.40	15.96	-53.8	-56.0	6.2	0.00e+00	0	45	104	0	78	19261
2026-01-29 13:26:31.91	318.48	15.85	-53.9	-56.0	6.2	0.00e+00	0	45	104	0	78	19260
2026-01-29 13:26:34.94	317.57	15.74	-53.9	-56.0	6.2	0.00e+00	0	45	104	0	78	19300
2026-01-29 13:26:37.96	316.67	15.62	-53.8	-55.9	6.2	0.00e+00	0	44	104	0	78	19099
2026-01-29 13:26:40.98	315.77	15.50	-53.8	-55.9	6.2	0.00e+00	0	45	104	0	78	19161
2026-01-29 13:26:44.00	314.88	15.37	-53.8	-55.9	6.2	0.00e+00	0	45	104	0	78	19245
2026-01-29 13:26:47.02	314.01	15.24	-53.9	-55.9	6.2	0.00e+00	0	45	104	0	78	19243
2026-01-29 13:26:50.05	313.14	15.10	-53.8	-55.9	6.2	0.00e+00	0	45	104	0	78	19125
2026-01-29 13:26:53.07	312.28	14.96	-53.8	-55.9	6.2	0.00e+00	0	45	104	0	78	19233
2026-01-29 13:26:56.09	311.43	14.81	-53.8	-55.9	6.2	0.00e+00	0	45	104	0	78	19174
2026-01-29 13:26:59.11	310.59	14.66	-53.9	-56.0	6.2	0.00e+00	0	45	104	0	78	19285
2026-01-29 13:27:02.13	309.76	14.50	-53.8	-55.9	6.2	0.00e+00	0	45	104	0	78	19061
2026-01-29 13:27:05.15	308.94	14.34	-53.8	-55.9	6.2	0.00e+00	0	45	104	0	78	19251
2026-01-29 13:27:08.17	308.13	14.18	-53.8	-55.9	6.2	0.00e+00	0	45	104	0	78	19190
2026-01-29 13:27:11.19	307.33	14.01	-53.9	-55.9	6.2	0.00e+00	0	45	104	0	78	19223
2026-01-29 13:27:14.21	306.55	13.84	-53.8	-55.9	6.2	0.00e+00	0	44	104	0	78	19050
2026-01-29 13:27:17.24	305.77	13.67	-53.8	-55.9	6.2	0.00e+00	0	45	104	0	78	19139
2026-01-29 13:27:20.26	305.00	13.49	-53.8	-55.9	6.2	0.00e+00	0	45	104	0	78	19069
2026-01-29 13:27:23.28	304.25	13.31	-53.8	-55.9	6.2	0.00e+00	0	45	104	0	78	19120
2026-01-29 13:27:26.31	303.50	13.13	-53.7	-55.8	6.2	0.00e+00	0	45	104	0	78	18988
2026-01-29 13:27:29.33	302.77	12.95	-53.8	-55.9	6.2	0.00e+00	0	45	104	0	78	19121
2026-01-29 13:27:32.35	302.04	12.76	-53.8	-55.9	6.2	0.00e+00	0	45	104	0	78	19040
2026-01-29 13:27:35.38	301.33	12.57	-53.8	-55.9	6.2	0.00e+00	0	45	104	0	78	19094
2026-01-29 13:27:38.40	300.63	12.38	-53.7	-55.8	6.2	0.00e+00	0	45	104	0	78	18980
2026-01-29 13:27:41.42	299.94	12.19	-53.8	-55.9	6.2	0.00e+00	0	45	104	0	78	19083
2026-01-29 13:27:44.44	299.26	11.99	-53.7	-55.8	6.2	0.00e+00	0	45	104	0	78	19004
2026-01-29 13:27:47.46	298.59	11.80	-53.8	-55.8	6.2	0.00e+00	0	45	104	0	78	19025
2026-01-29 13:27:50.49	297.93	11.60	-53.7	-55.8	6.2	0.00e+00	0	45	104	0	78	18900
2026-01-29 13:27:53.51	297.28	11.41	-53.7	-55.8	6.2	0.00e+00	0	44	104	0	78	18989
2026-01-29 13:27:56.53	296.64	11.21	-53.7	-55.8	6.2	0.00e+00	0	45	104	0	78	18933
2026-01-29 13:27:59.55	296.02	11.01	-53.7	-55.8	6.2	0.00e+00	0	45	104	0	78	18952
2026-01-29 13:28:02.58	295.40	10.81	-53.7	-55.9	6.2	0.00e+00	0	45	104	0	78	19048
2026-01-29 13:28:05.61	294.79	10.61	-53.7	-55.8	6.2	0.00e+00	0	45	104	0	78	18857
2026-01-29 13:28:08.63	294.19	10.41	-53.7	-55.8	6.2	0.00e+00	0	45	104	0	78	18957
2026-01-29 13:28:11.65	293.61	10.20	-53.6	-55.7	6.2	0.00e+00	0	45	104	0	78	18789
2026-01-29 13:28:14.68	293.03	10.00	-53.7	-55.8	6.2	0.00e+00	0	45	104	0	78	18930
2026-01-29 13:28:17.70	292.46	9.80	-53.7	-55.7	6.2	0.00e+00	0	45	104	0	78	18807
2026-01-29 13:28:20.73	291.90	9.60	-53.6	-55.7	6.2	0.00e+00	0	45	104	0	78	18747
2026-01-29 13:28:23.75	291.35	9.39	-53.6	-55.7	6.2	0.00e+00	0	45	104	0	78	18609
2026-01-29 13:28:26.78	290.81	9.19	-53.7	-55.7	6.2	0.00e+00	0	45	104	0	78	18799
2026-01-29 13:28:29.81	290.28	8.99	-53.6	-55.7	6.2	0.00e+00	0	45	104	0	78	18778
2026-01-29 13:28:32.83	289.75	8.79	-53.5	-55.5	6.2	0.00e+00	0	45	104	0	78	18348
2026-01-29 13:28:35.85	289.24	8.58	-53.4	-55.5	6.2	0.00e+00	0	45	104	0	78	18326
2026-01-29 13:28:38.87	288.74	8.38	-53.5	-55.6	6.2	0.00e+00	0	45	104	0	78	18423
2026-01-29 13:28:41.90	288.24	8.18	-53.4	-55.5	6.2	0.00e+00	0	45	104	0	78	18337
2026-01-29 13:28:44.92	287.75	7.98	-53.2	-55.3	6.2	0.00e+00	0	45	104	0	78	17781
2026-01-29 13:28:47.94	287.27	7.78	-53.1	-55.2	6.2	0.00e+00	0	45	104	0	78	17654
2026-01-29 13:28:50.97	286.80	7.58	-53.2	-55.3	6.2	0.00e+00	0	45	104	0	78	17867
2026-01-29 13:28:53.99	286.34	7.38	-53.2	-55.3	6.2	0.00e+00	0	45	104	0	78	17826
2026-01-29 13:28:57.01	285.88	7.18	-53.0	-55.1	6.2	0.00e+00	0	45	104	0	78	17403
2026-01-29 13:29:00.04	285.43	6.98	-52.9	-55.0	6.2	0.00e+00	0	45	104	0	77	18305
2026-01-29 13:29:03.06	284.99	6.78	-52.9	-55.0	6.2	0.00e+00	0	45	104	0	77	18316
2026-01-29 13:29:06.09	284.56	6.58	-52.9	-55.0	6.2	0.00e+00	0	45	104	0	77	18336
2026-01-29 13:29:09.11	284.14	6.38	-52.8	-54.8	6.2	0.00e+00	0	45	104	0	77	17933
2026-01-29 13:29:12.13	283.72	6.19	-52.7	-54.8	6.2	0.00e+00	0	45	104	0	77	17868
2026-01-29 13:29:15.16	283.30	5.99	-52.7	-54.8	6.2	0.00e+00	0	45	104	0	77	17971
2026-01-29 13:29:18.18	282.90	5.80	-52.7	-54.8	6.2	0.00e+00	0	45	104	0	77	17782
2026-01-29 13:29:21.21	282.50	5.60	-52.5	-54.6	6.2	0.00e+00	0	45	104	0	77	17499
2026-01-29 13:29:24.24	282.11	5.41	-52.5	-54.6	6.2	0.00e+00	0	45	104	0	76	18413
2026-01-29 13:29:27.27	281.72	5.22	-52.5	-54.6	6.2	0.00e+00	0	45	104	0	76	18528
2026-01-29 13:29:30.29	281.35	5.02	-52.5	-54.6	6.2	0.00e+00	0	45	104	0	76	18489
2026-01-29 13:29:33.31	280.97	4.83	-52.9	-54.9	6.2	0.00e+00	0	45	104	0	76	19202
2026-01-29 13:29:36.33	280.61	4.64	-53.1	-55.2	6.2	0.00e+00	0	45	104	0	76	19741
2026-01-29 13:29:39.36	280.25	4.45	-53.3	-55.4	6.2	0.00e+00	0	45	104	0	77	19037
2026-01-29 13:29:42.38	279.89	4.26	-53.4	-55.5	6.2	0.00e+00	0	45	104	0	77	19378
2026-01-29 13:29:45.41	279.54	4.08	-53.6	-55.6	6.2	0.00e+00	0	45	104	0	77	19674
2026-01-29 13:29:48.43	279.20	3.89	-53.5	-55.6	6.2	0.00e+00	0	45	104	0	77	19561
2026-01-29 13:29:51.45	278.86	3.70	-53.5	-55.6	6.2	0.00e+00	0	45	104	0	77	19495
2026-01-29 13:29:54.48	278.53	3.52	-53.4	-55.5	6.2	0.00e+00	0	45	104	0	77	19370
2026-01-29 13:29:57.50	278.20	3.33	-53.4	-55.5	6.2	0.00e+00	0	45	104	0	77	19270
2026-01-29 13:30:00.52	277.88	3.15	-53.4	-55.5	6.2	0.00e+00	0	45	104	0	77	19362
2026-01-29 13:30:03.55	277.56	2.97	-53.4	-55.4	6.2	0.00e+00	0	45	104	0	77	19187
2026-01-29 13:30:06.57	277.25	2.79	-53.3	-55.4	6.2	0.00e+00	0	45	104	0	77	19183
2026-01-29 13:30:09.60	276.94	2.60	-53.3	-55.4	6.2	0.00e+00	0	45	104	0	77	19158
2026-01-29 13:30:12.63	276.64	2.42	-53.3	-55.4	6.2	0.00e+00	0	45	104	0	77	19068
2026-01-29 13:30:15.65	276.35	2.25	-53.3	-55.4	6.2	0.00e+00	0	45	104	0	77	19081
2026-01-29 13:30:18.68	276.05	2.07	-53.3	-55.4	6.2	0.00e+00	0	45	104	0	77	19064
2026-01-29 13:30:21.70	275.76	1.89	-53.2	-55.3	6.2	0.00e+00	0	45	104	0	77	18958

#Closed at: 2026-01-29 13:30:21
#Recorded file [0 MB]: D:/lorett/data/31041_260129_162108.dat