passes_logs/2026/01/29/R3.2S_Murmansk/R3.2S_Murmansk__20260129_060558_FENGYUN_3D_rec.log

#Pass ID: 20260129_060558_FENGYUN 3D
#Satellite: FENGYUN 3D
#Configuration: FENGYUN 3D
#almurnet v.1.7.20251203
#Start time: 2026-01-29 06:06:00

#Version: 2.2.20231116
#Station: R3.2S_Murmansk
#Location: 33.079688 lon 68.888172 lat
#TLE: 1 43010U 17072A   26027.97130493  .00000326  00000+0  17586-3 0  9998
#TLE: 2 43010  98.9960 359.9900 0002514  87.8428 272.3036 14.19701925425097

#Time	Az	El	Level	Level2	SNR	BER	BlckErr	Temp	State	Recorded	gain1	gain2
2026-01-29 06:06:00.36	47.66	2.13	-54.0	-66.0	3.8	8.45e-01	0	40	0	0	79	14382
2026-01-29 06:06:04.38	47.42	2.36	-53.9	-65.9	3.8	8.45e-01	0	40	104	0	78	15069
2026-01-29 06:06:08.42	47.18	2.60	-54.2	-66.2	3.8	8.47e-01	0	40	104	0	78	15597
2026-01-29 06:06:12.45	46.94	2.84	-54.2	-66.1	3.8	8.47e-01	0	40	104	0	79	14696
2026-01-29 06:06:16.48	46.69	3.07	-54.0	-65.9	3.8	8.47e-01	0	41	104	0	79	14365
2026-01-29 06:06:20.51	46.43	3.32	-53.9	-65.8	3.8	8.47e-01	0	41	104	0	78	15022
2026-01-29 06:06:24.54	46.17	3.56	-53.4	-65.3	3.8	8.46e-01	0	41	104	0	78	14200
2026-01-29 06:06:28.57	45.91	3.80	-52.2	-63.7	3.8	8.46e-01	0	41	104	0	76	13113
2026-01-29 06:06:32.60	45.64	4.05	-51.7	-62.6	3.8	8.47e-01	0	41	104	0	75	12336
2026-01-29 06:06:36.64	45.37	4.30	-50.8	-56.9	5.8	5.83e-01	0	41	0	1048576	73	7188
2026-01-29 06:06:40.67	45.09	4.55	-50.5	-56.2	6.3	2.64e-01	0	41	0	24117248	72	7009
2026-01-29 06:06:44.70	44.81	4.80	-50.3	-55.5	6.9	3.01e-01	0	41	0	44040192	72	6452
2026-01-29 06:06:48.74	44.52	5.05	-48.6	-51.5	11.3	1.60e-04	0	41	0	66060288	67	5459
2026-01-29 06:06:52.77	44.23	5.30	-43.1	-44.1	18.9	1.20e-04	0	41	0	82837504	58	3908
2026-01-29 06:06:56.81	43.93	5.56	-43.2	-44.3	18.9	0.00e+00	0	41	0	104857600	58	3986
2026-01-29 06:07:00.85	43.63	5.82	-43.0	-44.0	19.2	0.00e+00	0	41	0	126877696	57	4092
2026-01-29 06:07:04.88	43.32	6.08	-43.1	-44.2	19.1	0.00e+00	0	41	0	149946368	57	4191
2026-01-29 06:07:08.91	43.00	6.34	-42.8	-43.9	19.5	0.00e+00	0	41	0	173015040	57	4015
2026-01-29 06:07:12.93	42.68	6.60	-43.0	-44.0	19.3	0.00e+00	0	41	0	195035136	57	4096
2026-01-29 06:07:16.96	42.36	6.87	-43.2	-44.3	19.1	0.00e+00	0	41	0	218103808	57	4207
2026-01-29 06:07:21.00	42.02	7.13	-42.9	-44.0	19.4	0.00e+00	0	41	0	241172480	57	4079
2026-01-29 06:07:25.03	41.68	7.40	-42.5	-43.5	20.0	0.00e+00	0	41	0	263192576	57	3836
2026-01-29 06:07:29.06	41.34	7.67	-42.5	-43.5	20.0	0.00e+00	0	42	0	286261248	56	4083
2026-01-29 06:07:33.09	40.98	7.94	-42.4	-43.4	20.2	0.00e+00	0	41	0	309329920	56	4009
2026-01-29 06:07:37.12	40.62	8.22	-42.5	-43.5	20.0	0.00e+00	0	42	0	331350016	56	4087
2026-01-29 06:07:41.15	40.25	8.49	-42.2	-43.2	20.4	0.00e+00	0	41	0	354418688	56	3940
2026-01-29 06:07:45.19	39.88	8.77	-42.2	-43.2	20.4	0.00e+00	0	42	0	377487360	56	3914
2026-01-29 06:07:49.23	39.50	9.05	-42.1	-43.0	20.6	0.00e+00	0	42	0	399507456	56	3855
2026-01-29 06:07:53.26	39.11	9.33	-42.0	-43.0	20.7	0.00e+00	0	41	0	422576128	56	3831
2026-01-29 06:07:57.29	38.71	9.62	-41.7	-42.6	20.9	0.00e+00	0	41	0	445644800	55	3892
2026-01-29 06:08:01.33	38.30	9.90	-41.7	-42.6	21.0	0.00e+00	0	42	0	467664896	55	3904
2026-01-29 06:08:05.35	37.89	10.19	-41.6	-42.5	21.1	0.00e+00	0	42	0	489684992	55	3861
2026-01-29 06:08:09.39	37.46	10.48	-41.8	-42.7	20.9	0.00e+00	0	42	0	512753664	55	3946
2026-01-29 06:08:13.43	37.03	10.77	-41.7	-42.6	21.0	0.00e+00	0	42	0	535822336	55	3903
2026-01-29 06:08:17.46	36.59	11.06	-41.6	-42.5	21.1	0.00e+00	0	42	0	557842432	55	3867
2026-01-29 06:08:21.49	36.14	11.36	-41.7	-42.6	21.1	0.00e+00	0	42	0	580911104	55	3884
2026-01-29 06:08:25.52	35.68	11.65	-41.6	-42.5	21.0	0.00e+00	0	42	0	603979776	55	3851
2026-01-29 06:08:29.56	35.21	11.95	-41.5	-42.3	21.1	0.00e+00	0	42	0	625999872	54	4001
2026-01-29 06:08:33.58	34.73	12.25	-41.3	-42.2	21.3	0.00e+00	0	42	0	649068544	54	3946
2026-01-29 06:08:37.61	34.24	12.55	-41.4	-42.3	21.2	0.00e+00	0	42	0	672137216	54	3980
2026-01-29 06:08:41.65	33.74	12.85	-41.1	-42.0	21.7	0.00e+00	0	42	0	694157312	54	3830
2026-01-29 06:08:45.69	33.23	13.16	-40.8	-41.6	21.9	0.00e+00	0	42	0	717225984	53	3901
2026-01-29 06:08:49.73	32.71	13.46	-40.8	-41.6	21.4	0.00e+00	0	42	0	740294656	53	3902
2026-01-29 06:08:53.75	32.18	13.77	-40.7	-41.5	22.0	0.00e+00	0	42	0	762314752	53	3838
2026-01-29 06:08:57.78	31.64	14.08	-40.8	-41.6	22.1	0.00e+00	0	42	0	785383424	53	3899
2026-01-29 06:09:01.82	31.08	14.39	-40.5	-41.4	22.3	0.00e+00	0	42	0	808452096	53	3786
2026-01-29 06:09:05.84	30.51	14.70	-40.5	-41.3	22.5	0.00e+00	0	42	0	830472192	52	3976
2026-01-29 06:09:09.88	29.93	15.01	-40.4	-41.2	22.6	0.00e+00	0	42	0	853540864	52	3935
2026-01-29 06:09:13.91	29.34	15.33	-40.3	-41.0	22.7	0.00e+00	0	42	0	875560960	52	3867
2026-01-29 06:09:17.94	28.74	15.64	-40.5	-41.3	22.5	0.00e+00	0	42	0	898629632	52	3981
2026-01-29 06:09:21.98	28.12	15.95	-40.2	-41.0	22.8	0.00e+00	0	42	0	921698304	52	3831
2026-01-29 06:09:26.01	27.49	16.27	-40.1	-40.9	23.0	0.00e+00	0	42	0	943718400	51	4024
2026-01-29 06:09:30.03	26.84	16.58	-40.0	-40.8	23.0	0.00e+00	0	42	0	966787072	51	3985
2026-01-29 06:09:34.07	26.18	16.90	-40.0	-40.8	23.1	0.00e+00	0	42	0	989855744	51	3999
2026-01-29 06:09:38.10	25.51	17.22	-39.9	-40.6	23.3	0.00e+00	0	42	0	1011875840	51	3908
2026-01-29 06:09:42.13	24.82	17.53	-39.9	-40.6	23.2	0.00e+00	0	42	0	1034944512	51	3907
2026-01-29 06:09:46.15	24.12	17.85	-40.1	-40.9	23.1	0.00e+00	0	42	0	1056964608	51	4008
2026-01-29 06:09:50.18	23.40	18.16	-39.9	-40.7	23.2	0.00e+00	0	42	0	1080033280	51	3949
2026-01-29 06:09:54.21	22.67	18.48	-39.6	-40.4	23.6	0.00e+00	0	42	0	1103101952	51	3788
2026-01-29 06:09:58.25	21.92	18.79	-39.7	-40.5	23.4	0.00e+00	0	42	0	1125122048	51	3849
2026-01-29 06:10:02.28	21.16	19.10	-39.4	-40.1	23.8	0.00e+00	0	42	0	1148190720	50	3906
2026-01-29 06:10:06.30	20.38	19.41	-39.7	-40.4	23.5	0.00e+00	0	42	0	1171259392	50	4040
2026-01-29 06:10:10.34	19.58	19.72	-39.4	-40.1	23.9	0.00e+00	0	42	0	1193279488	50	3895
2026-01-29 06:10:14.38	18.77	20.03	-39.4	-40.1	23.9	0.00e+00	0	42	0	1216348160	50	3894
2026-01-29 06:10:18.41	17.94	20.33	-39.4	-40.1	23.9	0.00e+00	0	42	0	1238368256	50	3892
2026-01-29 06:10:22.43	17.09	20.63	-39.0	-39.8	24.2	0.00e+00	0	42	0	1261436928	50	3746
2026-01-29 06:10:26.46	16.23	20.93	-38.8	-39.5	24.4	0.00e+00	0	42	0	1284505600	49	3856
2026-01-29 06:10:30.49	15.35	21.22	-38.7	-39.5	24.5	0.00e+00	0	42	0	1306525696	49	3833
2026-01-29 06:10:34.53	14.45	21.51	-39.0	-39.7	24.3	0.00e+00	0	42	0	1329594368	49	3944
2026-01-29 06:10:38.55	13.54	21.80	-38.9	-39.6	24.4	0.00e+00	0	42	0	1351614464	49	3899
2026-01-29 06:10:42.59	12.61	22.08	-38.9	-39.6	24.3	0.00e+00	0	42	0	1374683136	49	3903
2026-01-29 06:10:46.61	11.66	22.35	-38.7	-39.4	24.6	0.00e+00	0	42	0	1397751808	49	3817
2026-01-29 06:10:50.65	10.69	22.62	-38.8	-39.6	24.4	0.00e+00	0	42	0	1419771904	49	3884
2026-01-29 06:10:54.67	9.72	22.89	-38.7	-39.4	24.6	0.00e+00	0	42	0	1442840576	49	3805
2026-01-29 06:10:58.70	8.72	23.14	-38.7	-39.4	24.6	0.00e+00	0	42	0	1465909248	49	3814
2026-01-29 06:11:02.74	7.70	23.39	-38.6	-39.3	24.7	0.00e+00	0	42	0	1487929344	49	3761
2026-01-29 06:11:06.77	6.67	23.64	-38.5	-39.2	24.8	0.00e+00	0	42	0	1510998016	49	3710
2026-01-29 06:11:10.79	5.62	23.87	-38.4	-39.1	24.9	0.00e+00	0	42	0	1534066688	48	3886
2026-01-29 06:11:14.82	4.56	24.10	-38.5	-39.2	24.8	0.00e+00	0	42	0	1556086784	48	3956
2026-01-29 06:11:18.85	3.48	24.31	-38.5	-39.2	24.8	0.00e+00	0	42	0	1579155456	48	3933
2026-01-29 06:11:22.88	2.39	24.52	-38.3	-39.0	25.1	0.00e+00	0	42	0	1602224128	48	3830
2026-01-29 06:11:26.91	1.28	24.72	-38.3	-39.0	25.0	0.00e+00	0	42	0	1624244224	48	3858
2026-01-29 06:11:30.93	0.16	24.91	-38.3	-39.0	25.1	0.00e+00	0	42	0	1646264320	48	3829
2026-01-29 06:11:34.96	359.03	25.08	-37.7	-38.4	25.1	0.00e+00	0	42	0	1669332992	47	3799
2026-01-29 06:11:38.99	357.88	25.25	-38.0	-38.7	24.8	0.00e+00	0	42	0	1692401664	47	3941
2026-01-29 06:11:43.02	356.73	25.40	-38.2	-39.0	24.6	0.00e+00	0	42	0	1714421760	47	4056
2026-01-29 06:11:47.06	355.55	25.54	-37.9	-38.6	24.9	0.00e+00	0	42	0	1737490432	47	3911
2026-01-29 06:11:51.09	354.37	25.67	-37.9	-38.7	24.9	0.00e+00	0	42	0	1760559104	47	3920
2026-01-29 06:11:55.11	353.19	25.79	-38.1	-38.8	24.7	0.00e+00	0	42	0	1782579200	47	3986
2026-01-29 06:11:59.14	351.99	25.89	-37.9	-38.6	25.0	0.00e+00	0	42	0	1805647872	47	3874
2026-01-29 06:12:03.17	350.79	25.98	-37.9	-38.6	25.0	0.00e+00	0	42	0	1828716544	47	3883
2026-01-29 06:12:07.21	349.57	26.05	-38.2	-39.0	24.6	0.00e+00	0	42	0	1850736640	47	4053
2026-01-29 06:12:11.24	348.36	26.12	-38.3	-39.0	24.6	0.00e+00	0	42	0	1873805312	47	4090
2026-01-29 06:12:15.27	347.14	26.16	-37.9	-38.6	24.9	0.00e+00	0	42	0	1896873984	47	3907
2026-01-29 06:12:19.31	345.91	26.20	-37.6	-38.3	25.3	0.00e+00	0	42	0	1918894080	47	3751
2026-01-29 06:12:23.34	344.69	26.21	-37.7	-38.4	25.1	0.00e+00	0	42	0	1941962752	47	3815
2026-01-29 06:12:27.37	343.46	26.22	-38.2	-38.9	24.7	0.00e+00	0	42	0	1965031424	47	4035
2026-01-29 06:12:31.41	342.23	26.21	-38.2	-38.9	24.7	0.00e+00	0	42	0	1987051520	47	4039
2026-01-29 06:12:35.44	341.01	26.18	-37.7	-38.4	25.1	0.00e+00	0	42	0	2009071616	47	3807
2026-01-29 06:12:39.46	339.79	26.14	-37.8	-38.5	25.1	0.00e+00	0	42	0	2032140288	47	3836
2026-01-29 06:12:43.50	338.57	26.09	-38.0	-38.7	24.9	0.00e+00	0	42	0	2055208960	47	3943
2026-01-29 06:12:47.53	337.35	26.02	-38.2	-38.9	24.8	0.00e+00	0	42	0	2077229056	47	4030
2026-01-29 06:12:51.57	336.14	25.94	-37.8	-38.5	25.1	0.00e+00	0	42	0	2100297728	47	3851
2026-01-29 06:12:55.60	334.94	25.85	-37.5	-38.2	25.3	0.00e+00	0	42	0	2123366400	47	3732
2026-01-29 06:12:59.63	333.75	25.74	-37.7	-38.4	25.1	0.00e+00	0	42	0	2145386496	46	4033
2026-01-29 06:13:03.65	332.56	25.62	-38.0	-38.7	24.9	0.00e+00	0	42	0	2168455168	46	4172
2026-01-29 06:13:07.69	331.39	25.48	-37.8	-38.6	25.0	0.00e+00	0	42	0	2191523840	46	4108
2026-01-29 06:13:11.72	330.22	25.34	-37.7	-38.4	25.2	0.00e+00	0	42	0	2213543936	46	4010
2026-01-29 06:13:15.76	329.06	25.18	-37.7	-38.5	25.1	0.00e+00	0	42	0	2236612608	46	4055
2026-01-29 06:13:19.79	327.92	25.01	-38.0	-38.8	24.8	0.00e+00	0	42	0	2259681280	46	4199
2026-01-29 06:13:23.82	326.79	24.83	-38.1	-38.8	24.8	0.00e+00	0	42	0	2281701376	46	4225
2026-01-29 06:13:27.85	325.68	24.63	-37.9	-38.6	25.0	0.00e+00	0	42	0	2304770048	46	4116
2026-01-29 06:13:31.87	324.58	24.43	-37.7	-38.5	25.2	0.00e+00	0	42	0	2327838720	46	4052
2026-01-29 06:13:35.89	323.49	24.22	-37.8	-38.6	25.0	0.00e+00	0	42	0	2349858816	46	4101
2026-01-29 06:13:39.92	322.42	24.00	-37.8	-38.5	25.1	0.00e+00	0	42	0	2371878912	46	4072
2026-01-29 06:13:43.95	321.36	23.77	-37.9	-38.6	25.0	0.00e+00	0	42	0	2394947584	46	4140
2026-01-29 06:13:47.97	320.33	23.53	-38.0	-38.7	24.9	0.00e+00	0	42	0	2418016256	46	4175
2026-01-29 06:13:52.00	319.30	23.28	-38.0	-38.8	24.9	0.00e+00	0	42	0	2440036352	46	4194
2026-01-29 06:13:56.04	318.29	23.03	-37.8	-38.5	25.0	0.00e+00	0	42	0	2463105024	46	4097
2026-01-29 06:14:00.07	317.30	22.77	-38.0	-38.8	24.8	0.00e+00	0	42	0	2486173696	46	4202
2026-01-29 06:14:04.09	316.33	22.50	-38.4	-39.1	24.5	0.00e+00	0	42	0	2508193792	47	4131
2026-01-29 06:14:08.12	315.37	22.23	-38.2	-38.9	24.5	0.00e+00	0	42	0	2531262464	47	4042
2026-01-29 06:14:12.15	314.43	21.95	-38.1	-38.8	24.1	0.00e+00	0	42	0	2553282560	47	3976
2026-01-29 06:14:16.18	313.50	21.67	-38.4	-39.2	24.4	0.00e+00	0	42	0	2576351232	47	4158
2026-01-29 06:14:20.21	312.60	21.38	-38.4	-39.1	24.5	0.00e+00	0	42	0	2599419904	47	4117
2026-01-29 06:14:24.24	311.71	21.09	-38.3	-39.0	24.6	0.00e+00	0	42	0	2621440000	47	4065
2026-01-29 06:14:28.27	310.83	20.79	-38.7	-39.4	24.2	0.00e+00	0	42	0	2644508672	47	4287
2026-01-29 06:14:32.30	309.98	20.50	-38.9	-39.6	24.5	0.00e+00	0	42	0	2667577344	48	4134
2026-01-29 06:14:36.33	309.14	20.19	-39.3	-40.0	24.1	0.00e+00	0	42	0	2689597440	49	4095
2026-01-29 06:14:40.35	308.32	19.89	-39.2	-39.9	24.2	0.00e+00	0	42	0	2711617536	49	4037
2026-01-29 06:14:44.38	307.51	19.58	-39.5	-40.2	24.0	0.00e+00	0	42	0	2734686208	49	4167
2026-01-29 06:14:48.41	306.72	19.27	-39.3	-40.0	24.1	0.00e+00	0	42	0	2757754880	49	4082
2026-01-29 06:14:52.45	305.94	18.96	-39.3	-40.0	24.1	0.00e+00	0	42	0	2779774976	49	4090
2026-01-29 06:14:56.48	305.18	18.65	-39.4	-40.1	24.0	0.00e+00	0	42	0	2802843648	49	4125
2026-01-29 06:15:00.51	304.44	18.33	-39.3	-40.0	24.1	0.00e+00	0	42	0	2825912320	49	4084
2026-01-29 06:15:04.55	303.71	18.02	-39.5	-40.3	23.8	0.00e+00	0	42	0	2847932416	49	4200
2026-01-29 06:15:08.57	303.00	17.70	-39.7	-40.5	23.6	0.00e+00	0	42	0	2871001088	50	4081
2026-01-29 06:15:12.60	302.31	17.39	-39.7	-40.5	23.7	0.00e+00	0	42	0	2894069760	50	4055
2026-01-29 06:15:16.63	301.62	17.07	-39.8	-40.5	23.6	0.00e+00	0	42	0	2916089856	50	4096
2026-01-29 06:15:20.67	300.95	16.76	-40.0	-40.8	23.4	0.00e+00	0	42	0	2939158528	50	4208
2026-01-29 06:15:24.70	300.30	16.44	-40.2	-41.0	23.2	0.00e+00	0	42	0	2962227200	50	4293
2026-01-29 06:15:28.73	299.66	16.12	-40.2	-41.0	23.1	0.00e+00	0	42	0	2984247296	51	4085
2026-01-29 06:15:32.75	299.04	15.81	-40.4	-41.1	23.0	0.00e+00	0	42	0	3007315968	51	4144
2026-01-29 06:15:36.79	298.42	15.49	-40.5	-41.2	22.9	0.00e+00	0	42	0	3030384640	51	4193
2026-01-29 06:15:40.82	297.82	15.18	-40.5	-41.3	22.9	0.00e+00	0	42	0	3052404736	51	4203
2026-01-29 06:15:44.85	297.23	14.87	-40.6	-41.4	22.7	0.00e+00	0	42	0	3074424832	52	4040
2026-01-29 06:15:48.89	296.66	14.56	-40.7	-41.5	22.6	0.00e+00	0	42	0	3097493504	52	4063
2026-01-29 06:15:52.92	296.09	14.24	-40.6	-41.5	22.6	0.00e+00	0	42	0	3120562176	52	4052
2026-01-29 06:15:56.95	295.54	13.94	-40.9	-41.7	22.4	0.00e+00	0	42	0	3142582272	52	4154
2026-01-29 06:16:00.99	295.00	13.63	-40.9	-41.7	22.4	0.00e+00	0	42	0	3165650944	52	4183
2026-01-29 06:16:05.02	294.47	13.32	-41.1	-41.9	22.2	0.00e+00	0	42	0	3188719616	52	4264
2026-01-29 06:16:09.06	293.96	13.01	-41.0	-41.9	22.2	0.00e+00	0	42	0	3210739712	52	4255
2026-01-29 06:16:13.09	293.45	12.71	-41.3	-42.2	22.0	0.00e+00	0	42	0	3233808384	53	4166
2026-01-29 06:16:17.13	292.95	12.41	-41.6	-42.5	21.7	0.00e+00	0	42	0	3256877056	53	4315
2026-01-29 06:16:21.16	292.47	12.11	-41.5	-42.4	21.7	0.00e+00	0	42	0	3278897152	53	4252
2026-01-29 06:16:25.19	291.99	11.81	-41.6	-42.4	21.7	0.00e+00	0	42	0	3301965824	53	4285
2026-01-29 06:16:29.22	291.53	11.51	-41.5	-42.4	21.7	0.00e+00	0	42	0	3325034496	53	4253
2026-01-29 06:16:33.26	291.07	11.21	-41.6	-42.4	21.7	0.00e+00	0	42	0	3347054592	53	4275
2026-01-29 06:16:37.29	290.62	10.92	-42.0	-42.9	21.2	0.00e+00	0	42	0	3370123264	54	4279
2026-01-29 06:16:41.32	290.19	10.63	-42.0	-42.9	21.2	0.00e+00	0	42	0	3393191936	55	4047
2026-01-29 06:16:45.35	289.76	10.34	-42.1	-43.0	21.1	0.00e+00	0	42	0	3415212032	55	4070
2026-01-29 06:16:49.39	289.34	10.05	-42.2	-43.1	20.9	0.00e+00	0	42	0	3438280704	55	4140
2026-01-29 06:16:53.42	288.93	9.76	-42.2	-43.2	20.8	0.00e+00	0	42	0	3460300800	55	4151
2026-01-29 06:16:57.45	288.52	9.48	-42.3	-43.3	20.7	0.00e+00	0	42	0	3483369472	55	4197
2026-01-29 06:17:01.48	288.13	9.20	-42.4	-43.3	20.6	0.00e+00	0	42	0	3506438144	55	4226
2026-01-29 06:17:05.51	287.74	8.91	-42.6	-43.6	20.3	0.00e+00	0	42	0	3528458240	55	4381
2026-01-29 06:17:09.54	287.36	8.64	-42.6	-43.6	20.2	0.00e+00	0	42	0	3551526912	55	4353
2026-01-29 06:17:13.57	286.99	8.36	-42.8	-43.8	20.0	0.00e+00	0	42	0	3574595584	56	4237
2026-01-29 06:17:17.60	286.62	8.08	-42.8	-43.8	20.1	0.00e+00	0	42	0	3596615680	56	4194
2026-01-29 06:17:21.64	286.26	7.81	-42.6	-43.6	20.2	0.00e+00	0	42	0	3619684352	56	4111
2026-01-29 06:17:25.67	285.91	7.54	-42.7	-43.6	20.1	0.00e+00	0	42	0	3642753024	56	4145
2026-01-29 06:17:29.71	285.56	7.27	-42.9	-43.9	19.8	0.00e+00	0	42	0	3664773120	56	4288
2026-01-29 06:17:33.75	285.23	7.00	-42.8	-43.9	19.8	0.00e+00	0	42	0	3687841792	56	4257
2026-01-29 06:17:37.79	284.89	6.73	-42.8	-43.8	19.8	0.00e+00	0	42	0	3710910464	56	4207
2026-01-29 06:17:41.82	284.57	6.47	-43.0	-44.0	19.6	0.00e+00	0	42	0	3732930560	56	4313
2026-01-29 06:17:45.86	284.25	6.21	-43.2	-44.3	19.3	0.00e+00	0	42	0	3755999232	57	4209
2026-01-29 06:17:49.89	283.93	5.94	-43.3	-44.4	19.1	0.00e+00	0	42	0	3779067904	57	4256
2026-01-29 06:17:53.92	283.63	5.69	-43.2	-44.3	19.2	0.00e+00	0	42	0	3801088000	57	4202
2026-01-29 06:17:57.96	283.32	5.43	-43.1	-44.1	19.2	0.00e+00	0	42	0	3823108096	57	4134
2026-01-29 06:18:01.99	283.03	5.17	-43.1	-44.2	19.1	0.00e+00	0	42	0	3846176768	57	4174
2026-01-29 06:18:06.03	282.74	4.92	-51.8	-59.6	4.6	1.95e-01	0	42	0	3868196864	74	9232
2026-01-29 06:18:10.05	282.45	4.67	-52.6	-63.5	3.8	8.46e-01	0	42	104	3868196864	75	13620
2026-01-29 06:18:14.09	282.17	4.42	-52.9	-64.7	3.8	8.46e-01	0	42	104	3868196864	76	14844
2026-01-29 06:18:18.12	281.89	4.17	-53.1	-65.0	3.8	8.46e-01	0	42	104	3868196864	76	15268
2026-01-29 06:18:22.15	281.62	3.92	-53.0	-64.9	3.8	8.46e-01	0	42	104	3868196864	76	15197
2026-01-29 06:18:26.18	281.35	3.68	-53.0	-64.9	3.8	8.46e-01	0	42	104	3868196864	76	15168
2026-01-29 06:18:30.21	281.09	3.43	-52.9	-64.9	3.8	8.46e-01	0	42	104	3868196864	76	15072
2026-01-29 06:18:34.24	280.84	3.19	-52.9	-64.9	3.8	8.47e-01	0	42	104	3868196864	76	15095
2026-01-29 06:18:38.27	280.58	2.95	-52.9	-64.8	3.8	8.45e-01	0	42	104	3868196864	76	15025
2026-01-29 06:18:42.31	280.33	2.71	-52.9	-64.8	3.8	8.46e-01	0	42	104	3868196864	76	15001
2026-01-29 06:18:46.34	280.09	2.47	-52.9	-64.8	3.8	8.46e-01	0	42	104	3868196864	76	15017
2026-01-29 06:18:50.37	279.85	2.24	-52.9	-64.8	3.8	8.46e-01	0	42	104	3868196864	76	14996
2026-01-29 06:18:54.41	279.61	2.00	-52.9	-64.8	3.8	8.46e-01	0	42	104	3868196864	76	14975

#Closed at: 2026-01-29 06:18:56
#Recorded file [3868 MB]: D:/lorett/data/31041_260129_090600.dat