passes_logs/2026/01/29/R3.2S_Murmansk/R3.2S_Murmansk__20260129_014923_SUOMI_NPP_rec.log

#Pass ID: 20260129_014923_SUOMI NPP
#Satellite: SUOMI NPP
#Configuration: NPP
#almurnet v.1.7.20251203
#Start time: 2026-01-29 01:49:24

#Version: 2.2.20231116
#Station: R3.2S_Murmansk
#Location: 33.079688 lon 68.888172 lat
#TLE: 1 37849U 11061A   26027.93236865  .00000148  00000+0  91411-4 0  9991
#TLE: 2 37849  98.7823 329.8704 0002085  41.3231 318.8102 14.19530777738546

#Time	Az	El	Level	Level2	SNR	BER	BlckErr	Temp	State	Recorded	gain1	gain2
2026-01-29 01:49:24.49	29.32	2.09	-53.9	-69.0	3.8	1.49e+00	0	40	0	0	79	20311
2026-01-29 01:49:28.51	29.22	2.35	-53.9	-68.9	3.8	1.49e+00	0	40	104	0	78	21325
2026-01-29 01:49:32.55	29.13	2.60	-53.8	-68.8	3.8	1.49e+00	0	40	104	0	78	21225
2026-01-29 01:49:36.58	29.04	2.86	-53.8	-68.8	3.8	1.49e+00	0	40	104	0	78	21175
2026-01-29 01:49:40.62	28.94	3.13	-54.1	-69.1	3.8	1.49e+00	0	40	104	0	78	21946
2026-01-29 01:49:44.65	28.84	3.39	-54.1	-69.1	3.8	1.49e+00	0	40	104	0	78	21931
2026-01-29 01:49:48.69	28.74	3.66	-54.1	-69.2	3.8	1.49e+00	0	41	104	0	78	22011
2026-01-29 01:49:52.73	28.63	3.93	-53.9	-68.9	3.8	1.49e+00	0	41	104	0	78	21441
2026-01-29 01:49:56.76	28.53	4.20	-53.4	-68.3	3.8	1.49e+00	0	41	104	0	78	20003
2026-01-29 01:50:00.79	28.42	4.48	-50.7	-56.9	8.6	1.52e-01	0	41	0	0	73	7199
2026-01-29 01:50:04.82	28.31	4.76	-50.6	-56.8	8.7	3.32e-02	0	41	0	8388608	73	7100
2026-01-29 01:50:08.85	28.19	5.04	-51.0	-58.4	7.1	1.19e-01	0	41	0	15728640	73	8542
2026-01-29 01:50:12.87	28.08	5.32	-46.9	-49.0	16.1	8.24e-01	0	41	104	18874368	65	4560
2026-01-29 01:50:16.90	27.96	5.61	-46.3	-48.3	17.5	0.00e+00	0	41	0	23068672	64	4447
2026-01-29 01:50:20.93	27.84	5.90	-45.9	-47.7	18.2	0.00e+00	0	41	0	30408704	63	4412
2026-01-29 01:50:24.96	27.72	6.19	-45.9	-47.7	18.2	0.00e+00	0	41	0	37748736	63	4421
2026-01-29 01:50:28.99	27.59	6.49	-45.9	-47.6	18.4	0.00e+00	0	41	0	46137344	63	4348
2026-01-29 01:50:33.02	27.46	6.79	-45.8	-47.5	18.6	0.00e+00	0	41	0	53477376	63	4302
2026-01-29 01:50:37.04	27.33	7.09	-45.6	-47.3	18.8	0.00e+00	0	41	0	60817408	63	4208
2026-01-29 01:50:41.07	27.19	7.39	-45.4	-47.0	19.1	0.00e+00	0	41	0	68157440	62	4294
2026-01-29 01:50:45.11	27.05	7.70	-45.4	-46.9	19.1	0.00e+00	0	42	0	76546048	62	4282
2026-01-29 01:50:49.14	26.91	8.02	-45.5	-47.1	19.0	0.00e+00	0	41	0	83886080	62	4366
2026-01-29 01:50:53.17	26.77	8.33	-45.3	-46.8	19.4	0.00e+00	0	41	0	91226112	62	4204
2026-01-29 01:50:57.20	26.62	8.65	-45.4	-46.9	19.2	0.00e+00	0	42	0	98566144	62	4283
2026-01-29 01:51:01.24	26.46	8.98	-45.3	-46.8	19.3	0.00e+00	0	41	0	105906176	62	4220
2026-01-29 01:51:05.26	26.31	9.31	-45.3	-46.8	19.4	0.00e+00	0	41	0	114294784	62	4212
2026-01-29 01:51:09.30	26.14	9.64	-45.1	-46.6	19.6	0.00e+00	0	41	0	121634816	62	4107
2026-01-29 01:51:13.33	25.98	9.98	-45.1	-46.6	19.6	0.00e+00	0	42	0	128974848	61	4343
2026-01-29 01:51:17.36	25.81	10.32	-45.0	-46.5	19.7	0.00e+00	0	41	0	136314880	61	4298
2026-01-29 01:51:21.39	25.64	10.66	-45.0	-46.5	19.7	0.00e+00	0	41	0	143654912	61	4311
2026-01-29 01:51:25.42	25.46	11.01	-45.2	-46.7	19.6	0.00e+00	0	42	0	152043520	61	4393
2026-01-29 01:51:29.46	25.27	11.37	-45.0	-46.4	19.9	0.00e+00	0	42	0	159383552	61	4256
2026-01-29 01:51:33.49	25.09	11.73	-45.0	-46.4	19.8	0.00e+00	0	42	0	166723584	61	4273
2026-01-29 01:51:37.52	24.89	12.10	-44.8	-46.2	20.0	0.00e+00	0	42	0	174063616	61	4184
2026-01-29 01:51:41.54	24.70	12.47	-44.8	-46.2	20.1	0.00e+00	0	42	0	181403648	61	4154
2026-01-29 01:51:45.58	24.49	12.84	-44.6	-45.9	20.2	0.00e+00	0	42	0	189792256	61	4041
2026-01-29 01:51:49.61	24.28	13.22	-44.5	-45.9	20.4	0.00e+00	0	42	0	197132288	61	4014
2026-01-29 01:51:53.64	24.07	13.61	-44.5	-45.8	20.4	0.00e+00	0	42	0	204472320	60	4229
2026-01-29 01:51:57.67	23.85	14.00	-44.3	-45.6	20.7	0.00e+00	0	42	0	211812352	60	4101
2026-01-29 01:52:01.70	23.62	14.40	-44.1	-45.4	20.8	0.00e+00	0	42	0	220200960	60	4022
2026-01-29 01:52:05.74	23.38	14.81	-44.2	-45.5	20.7	0.00e+00	0	42	0	227540992	60	4081
2026-01-29 01:52:09.76	23.14	15.22	-44.2	-45.5	20.8	0.00e+00	0	42	0	234881024	60	4058
2026-01-29 01:52:13.79	22.89	15.63	-44.1	-45.3	21.0	0.00e+00	0	42	0	242221056	60	3990
2026-01-29 01:52:17.81	22.64	16.06	-44.2	-45.4	20.9	0.00e+00	0	42	0	249561088	60	4046
2026-01-29 01:52:21.84	22.37	16.49	-44.2	-45.5	20.9	0.00e+00	0	42	0	256901120	60	4058
2026-01-29 01:52:25.88	22.10	16.93	-44.5	-45.8	20.7	0.00e+00	0	42	0	265289728	60	4208
2026-01-29 01:52:29.91	21.82	17.37	-44.2	-45.5	20.9	0.00e+00	0	41	0	272629760	60	4063
2026-01-29 01:52:33.94	21.53	17.82	-44.3	-45.6	20.8	0.00e+00	0	42	0	279969792	60	4121
2026-01-29 01:52:37.97	21.23	18.29	-44.4	-45.6	20.8	0.00e+00	0	42	0	287309824	60	4140
2026-01-29 01:52:41.99	20.92	18.75	-44.4	-45.7	20.7	0.00e+00	0	42	0	295698432	60	4179
2026-01-29 01:52:46.03	20.60	19.23	-44.4	-45.7	20.8	0.00e+00	0	42	0	303038464	60	4160
2026-01-29 01:52:50.07	20.27	19.72	-44.4	-45.7	20.8	0.00e+00	0	42	0	310378496	60	4147
2026-01-29 01:52:54.09	19.93	20.21	-44.4	-45.7	20.8	0.00e+00	0	42	0	317718528	60	4158
2026-01-29 01:52:58.13	19.58	20.71	-44.6	-45.9	20.7	0.00e+00	0	42	0	325058560	60	4268
2026-01-29 01:53:02.17	19.21	21.22	-45.2	-46.6	20.1	0.00e+00	0	42	0	333447168	60	4612
2026-01-29 01:53:06.20	18.83	21.74	-45.2	-46.5	20.1	0.00e+00	0	42	0	340787200	61	4339
2026-01-29 01:53:10.23	18.44	22.27	-45.4	-46.8	19.8	0.00e+00	0	42	0	348127232	61	4485
2026-01-29 01:53:14.26	18.04	22.81	-45.5	-46.9	19.7	0.00e+00	0	42	0	355467264	61	4540
2026-01-29 01:53:18.29	17.62	23.36	-45.6	-47.1	19.6	0.00e+00	0	42	0	363855872	62	4366
2026-01-29 01:53:22.32	17.18	23.92	-45.6	-47.1	19.6	0.00e+00	0	42	0	371195904	62	4376
2026-01-29 01:53:26.35	16.73	24.49	-45.9	-47.4	19.4	0.00e+00	0	42	0	378535936	63	4250
2026-01-29 01:53:30.38	16.26	25.07	-45.9	-47.3	19.5	0.00e+00	0	42	0	385875968	63	4242
2026-01-29 01:53:34.41	15.77	25.66	-45.8	-47.3	19.6	0.00e+00	0	42	0	393216000	63	4215
2026-01-29 01:53:38.44	15.26	26.26	-45.8	-47.3	19.6	0.00e+00	0	42	0	400556032	63	4206
2026-01-29 01:53:42.47	14.73	26.87	-46.2	-47.7	19.2	0.00e+00	0	42	0	408944640	63	4436
2026-01-29 01:53:46.51	14.18	27.50	-46.0	-47.5	19.4	0.00e+00	0	42	0	416284672	63	4320
2026-01-29 01:53:50.53	13.61	28.13	-45.7	-47.1	19.7	0.00e+00	0	42	0	423624704	63	4133
2026-01-29 01:53:54.57	13.01	28.78	-45.6	-47.0	19.9	0.00e+00	0	42	0	430964736	62	4321
2026-01-29 01:53:58.60	12.39	29.44	-45.9	-47.4	19.6	0.00e+00	0	42	0	439353344	63	4262
2026-01-29 01:54:02.63	11.74	30.11	-46.1	-47.7	19.3	0.00e+00	0	42	0	446693376	63	4406
2026-01-29 01:54:06.66	11.07	30.79	-46.6	-48.2	18.7	0.00e+00	0	42	0	454033408	64	4438
2026-01-29 01:54:10.69	10.36	31.48	-46.8	-48.4	18.4	0.00e+00	0	42	0	461373440	65	4283
2026-01-29 01:54:14.72	9.62	32.18	-47.2	-49.0	18.1	0.00e+00	0	42	0	468713472	65	4551
2026-01-29 01:54:18.75	8.85	32.90	-48.1	-50.2	16.9	0.00e+00	0	42	0	477102080	67	4670
2026-01-29 01:54:22.77	8.05	33.62	-47.9	-49.9	17.2	0.00e+00	0	42	0	484442112	66	4812
2026-01-29 01:54:26.81	7.20	34.36	-49.1	-52.0	15.2	0.00e+00	0	42	0	491782144	69	5113
2026-01-29 01:54:30.84	6.32	35.11	-47.9	-50.0	17.1	0.00e+00	0	42	0	499122176	67	4596
2026-01-29 01:54:34.86	5.39	35.86	-47.1	-48.9	18.0	0.00e+00	0	42	0	506462208	66	4291
2026-01-29 01:54:38.89	4.42	36.63	-46.3	-47.9	19.0	0.00e+00	0	42	0	514850816	64	4267
2026-01-29 01:54:42.92	3.40	37.40	-46.7	-48.4	18.6	0.00e+00	0	42	0	522190848	64	4522
2026-01-29 01:54:46.95	2.33	38.18	-47.4	-49.3	17.7	0.00e+00	0	42	0	529530880	65	4735
2026-01-29 01:54:50.98	1.21	38.97	-47.2	-49.1	17.9	0.00e+00	0	42	0	536870912	65	4649
2026-01-29 01:54:55.01	0.03	39.76	-47.1	-49.0	18.1	0.00e+00	0	42	0	544210944	65	4547
2026-01-29 01:54:59.03	358.79	40.55	-47.9	-50.2	16.9	0.00e+00	0	42	0	552599552	67	4685
2026-01-29 01:55:03.06	357.49	41.35	-46.5	-48.1	18.9	0.00e+00	0	42	0	559939584	64	4373
2026-01-29 01:55:07.09	356.12	42.15	-46.0	-47.6	19.5	0.00e+00	0	42	0	567279616	63	4342
2026-01-29 01:55:11.12	354.68	42.94	-47.6	-49.6	17.6	0.00e+00	0	42	0	574619648	66	4645
2026-01-29 01:55:15.15	353.16	43.73	-48.5	-51.0	16.2	0.00e+00	0	42	0	581959680	67	5122
2026-01-29 01:55:19.18	351.57	44.51	-48.8	-51.7	15.6	0.00e+00	0	42	0	590348288	68	5247
2026-01-29 01:55:23.21	349.91	45.28	-48.4	-50.7	16.6	0.00e+00	0	42	0	597688320	68	4702
2026-01-29 01:55:27.24	348.15	46.04	-48.7	-51.1	16.3	0.00e+00	0	42	0	605028352	68	4882
2026-01-29 01:55:31.27	346.31	46.78	-47.1	-48.8	18.3	0.00e+00	0	42	0	612368384	66	4226
2026-01-29 01:55:35.30	344.39	47.50	-46.4	-47.9	19.4	0.00e+00	0	42	0	620756992	63	4538
2026-01-29 01:55:39.34	342.36	48.19	-46.5	-48.1	19.1	0.00e+00	0	42	0	628097024	64	4357
2026-01-29 01:55:43.37	340.26	48.85	-47.0	-48.9	18.3	0.00e+00	0	42	0	635437056	64	4803
2026-01-29 01:55:47.40	338.06	49.48	-45.2	-46.5	20.7	0.00e+00	0	42	0	642777088	62	4073
2026-01-29 01:55:51.43	335.77	50.07	-45.3	-46.7	20.4	0.00e+00	0	42	0	650117120	62	4172
2026-01-29 01:55:55.46	333.39	50.62	-46.2	-47.8	19.4	0.00e+00	0	42	0	657457152	63	4479
2026-01-29 01:55:59.49	330.93	51.11	-47.5	-49.7	17.5	0.00e+00	0	42	0	665845760	65	4962
2026-01-29 01:56:03.53	328.38	51.56	-45.8	-47.3	19.7	0.00e+00	0	42	0	673185792	63	4228
2026-01-29 01:56:07.56	325.77	51.95	-47.2	-49.3	17.9	0.00e+00	0	42	0	680525824	64	4997
2026-01-29 01:56:11.59	323.09	52.27	-46.2	-47.9	19.1	0.00e+00	0	42	0	687865856	64	4264
2026-01-29 01:56:15.62	320.36	52.54	-43.9	-45.1	22.0	0.00e+00	0	42	0	696254464	59	4115
2026-01-29 01:56:19.65	317.59	52.73	-44.2	-45.5	21.7	0.00e+00	0	42	0	703594496	59	4338
2026-01-29 01:56:23.68	314.78	52.86	-44.0	-45.2	21.8	0.00e+00	0	42	0	710934528	59	4164
2026-01-29 01:56:27.72	311.95	52.91	-43.6	-44.8	22.3	0.00e+00	0	42	0	718274560	58	4200
2026-01-29 01:56:31.75	309.12	52.89	-45.1	-46.6	20.4	0.00e+00	0	42	0	725614592	60	4625
2026-01-29 01:56:35.78	306.31	52.80	-44.6	-45.9	21.1	0.00e+00	0	42	0	734003200	60	4247
2026-01-29 01:56:39.81	303.51	52.65	-45.5	-47.0	20.1	0.00e+00	0	42	0	741343232	62	4325
2026-01-29 01:56:43.84	300.76	52.42	-45.0	-46.5	20.5	0.00e+00	0	42	0	748683264	61	4339
2026-01-29 01:56:47.87	298.05	52.12	-43.2	-44.3	22.7	0.00e+00	0	42	0	756023296	58	3978
2026-01-29 01:56:51.90	295.40	51.77	-44.5	-45.8	21.2	0.00e+00	0	42	0	763363328	60	4204
2026-01-29 01:56:55.94	292.82	51.35	-45.0	-46.4	20.9	0.00e+00	0	42	0	771751936	60	4508
2026-01-29 01:56:59.97	290.31	50.88	-44.6	-45.9	21.4	0.00e+00	0	42	0	779091968	61	4005
2026-01-29 01:57:04.00	287.89	50.35	-47.2	-49.2	18.4	0.00e+00	0	42	0	786432000	64	4932
2026-01-29 01:57:08.03	285.55	49.79	-46.7	-48.4	19.0	0.00e+00	0	42	0	793772032	65	4252
2026-01-29 01:57:12.06	283.30	49.18	-46.5	-48.0	19.3	0.00e+00	0	42	0	801112064	63	4588
2026-01-29 01:57:16.10	281.14	48.53	-47.1	-48.9	18.5	0.00e+00	0	42	0	809500672	65	4504
2026-01-29 01:57:20.13	279.07	47.85	-46.8	-48.5	18.9	0.00e+00	0	42	0	816840704	64	4576
2026-01-29 01:57:24.17	277.09	47.14	-46.8	-48.5	18.9	0.00e+00	0	42	0	824180736	64	4550
2026-01-29 01:57:28.20	275.21	46.41	-48.6	-51.0	16.6	0.00e+00	0	42	0	831520768	67	5104
2026-01-29 01:57:32.22	273.41	45.66	-45.5	-46.8	20.6	0.00e+00	0	42	0	839909376	63	4004
2026-01-29 01:57:36.25	271.70	44.90	-47.2	-49.0	18.5	0.00e+00	0	42	0	847249408	65	4549
2026-01-29 01:57:40.28	270.07	44.12	-47.8	-49.8	17.6	0.00e+00	0	42	0	854589440	67	4465
2026-01-29 01:57:44.29	268.52	43.34	-48.5	-50.7	16.7	0.00e+00	0	42	0	861929472	67	4981
2026-01-29 01:57:48.33	267.04	42.54	-48.4	-50.6	16.9	0.00e+00	0	42	0	869269504	68	4623
2026-01-29 01:57:52.36	265.63	41.74	-46.6	-48.2	19.1	0.00e+00	0	42	0	876609536	65	4154
2026-01-29 01:57:56.39	264.29	40.94	-47.9	-50.0	17.4	0.00e+00	0	42	0	884998144	66	4828
2026-01-29 01:58:00.42	263.02	40.15	-47.5	-49.4	17.9	0.00e+00	0	42	0	892338176	66	4507
2026-01-29 01:58:04.46	261.80	39.35	-49.9	-53.3	14.2	0.00e+00	0	42	0	899678208	70	5619
2026-01-29 01:58:08.50	260.65	38.56	-50.2	-53.9	13.7	7.00e-07	0	42	0	907018240	71	5664
2026-01-29 01:58:12.52	259.55	37.77	-49.2	-51.9	15.4	0.00e+00	0	42	0	915406848	70	4793
2026-01-29 01:58:16.55	258.50	36.99	-47.2	-49.0	18.2	0.00e+00	0	42	0	922746880	66	4327
2026-01-29 01:58:20.58	257.51	36.22	-46.4	-47.9	19.4	0.00e+00	0	42	0	930086912	63	4533
2026-01-29 01:58:24.62	256.55	35.46	-48.4	-50.8	16.6	0.00e+00	0	42	0	937426944	67	4995
2026-01-29 01:58:28.65	255.64	34.70	-49.4	-52.2	15.2	0.00e+00	0	42	0	944766976	69	5237
2026-01-29 01:58:32.68	254.78	33.96	-47.8	-49.8	17.5	0.00e+00	0	42	0	953155584	67	4449
2026-01-29 01:58:36.72	253.95	33.23	-48.0	-50.1	17.2	0.00e+00	0	42	0	960495616	66	4914
2026-01-29 01:58:40.75	253.16	32.50	-48.8	-51.2	16.1	0.00e+00	0	42	0	967835648	69	4703
2026-01-29 01:58:44.78	252.40	31.79	-46.7	-48.3	18.8	0.00e+00	0	42	0	975175680	65	4222
2026-01-29 01:58:48.80	251.68	31.09	-47.0	-48.7	18.5	0.00e+00	0	42	0	983564288	64	4678
2026-01-29 01:58:52.83	250.99	30.41	-47.8	-49.8	17.4	0.00e+00	0	42	0	990904320	67	4457
2026-01-29 01:58:56.86	250.32	29.73	-47.8	-49.8	17.4	0.00e+00	0	42	0	998244352	66	4736
2026-01-29 01:59:00.89	249.69	29.06	-47.0	-48.7	18.4	0.00e+00	0	42	0	1005584384	66	4172
2026-01-29 01:59:04.92	249.08	28.41	-45.9	-47.4	19.7	0.00e+00	0	42	0	1012924416	63	4250
2026-01-29 01:59:08.94	248.49	27.77	-46.3	-47.9	19.1	0.00e+00	0	42	0	1020264448	64	4268
2026-01-29 01:59:12.97	247.93	27.14	-47.5	-49.5	17.6	0.00e+00	0	42	0	1028653056	65	4838
2026-01-29 01:59:17.00	247.39	26.52	-48.5	-50.9	16.2	0.00e+00	0	42	0	1035993088	67	5084
2026-01-29 01:59:21.03	246.87	25.91	-47.4	-49.3	17.8	0.00e+00	0	42	0	1043333120	66	4477
2026-01-29 01:59:25.04	246.37	25.32	-46.2	-47.8	19.2	0.00e+00	0	42	0	1050673152	64	4194
2026-01-29 01:59:29.08	245.89	24.73	-46.0	-47.5	19.6	0.00e+00	0	42	0	1058013184	63	4306
2026-01-29 01:59:33.11	245.43	24.15	-47.0	-48.8	18.3	0.00e+00	0	42	0	1066401792	64	4709
2026-01-29 01:59:37.14	244.98	23.59	-46.4	-47.9	19.0	0.00e+00	0	42	0	1073741824	64	4280
2026-01-29 01:59:41.18	244.55	23.03	-46.1	-47.5	19.5	0.00e+00	0	42	0	1081081856	63	4292
2026-01-29 01:59:45.21	244.14	22.49	-45.8	-47.2	19.8	0.00e+00	0	42	0	1088421888	63	4171
2026-01-29 01:59:49.25	243.73	21.95	-46.0	-47.5	19.5	0.00e+00	0	42	0	1096810496	63	4300
2026-01-29 01:59:53.28	243.35	21.42	-46.8	-48.5	18.5	0.00e+00	0	42	0	1104150528	64	4546
2026-01-29 01:59:57.31	242.98	20.91	-46.6	-48.1	18.7	0.00e+00	0	42	0	1111490560	64	4382
2026-01-29 02:00:01.35	242.61	20.40	-46.0	-47.4	19.5	0.00e+00	0	42	0	1118830592	63	4272
2026-01-29 02:00:05.37	242.27	19.90	-46.2	-47.6	19.3	0.00e+00	0	42	0	1126170624	63	4374
2026-01-29 02:00:09.40	241.93	19.41	-46.5	-48.1	18.9	0.00e+00	0	42	0	1134559232	63	4608
2026-01-29 02:00:13.44	241.60	18.93	-46.6	-48.2	18.6	0.00e+00	0	42	0	1141899264	64	4424
2026-01-29 02:00:17.47	241.29	18.46	-46.3	-47.8	19.0	0.00e+00	0	42	0	1149239296	64	4240
2026-01-29 02:00:21.50	240.98	17.99	-45.5	-46.8	19.9	0.00e+00	0	42	0	1156579328	62	4242
2026-01-29 02:00:25.53	240.68	17.53	-45.1	-46.3	20.4	0.00e+00	0	42	0	1163919360	62	3999
2026-01-29 02:00:29.55	240.40	17.09	-45.4	-46.7	20.0	0.00e+00	0	42	0	1172307968	61	4414
2026-01-29 02:00:33.58	240.12	16.64	-46.5	-48.0	18.9	0.00e+00	0	42	0	1179648000	63	4597
2026-01-29 02:00:37.61	239.85	16.21	-47.4	-49.4	17.4	0.00e+00	0	42	0	1186988032	65	4761
2026-01-29 02:00:41.65	239.59	15.78	-48.0	-50.2	16.6	0.00e+00	0	42	0	1194328064	66	4968
2026-01-29 02:00:45.68	239.33	15.36	-47.7	-49.8	17.0	0.00e+00	0	42	0	1201668096	67	4456
2026-01-29 02:00:49.71	239.09	14.94	-47.2	-49.0	17.7	0.00e+00	0	42	0	1210056704	66	4325
2026-01-29 02:00:53.74	238.85	14.53	-47.0	-48.8	17.9	0.00e+00	0	42	0	1217396736	65	4461
2026-01-29 02:00:57.77	238.61	14.13	-46.8	-48.6	18.1	0.00e+00	0	42	0	1224736768	65	4361
2026-01-29 02:01:01.80	238.39	13.74	-47.0	-48.8	17.9	0.00e+00	0	42	0	1232076800	65	4473
2026-01-29 02:01:05.83	238.17	13.35	-47.5	-49.5	17.2	0.00e+00	0	42	0	1239416832	65	4844
2026-01-29 02:01:09.86	237.95	12.96	-47.3	-49.2	17.5	0.00e+00	0	42	0	1247805440	65	4675
2026-01-29 02:01:13.89	237.74	12.58	-47.1	-49.0	17.6	0.00e+00	0	42	0	1255145472	65	4570
2026-01-29 02:01:17.92	237.54	12.21	-46.8	-48.6	18.0	0.00e+00	0	42	0	1262485504	65	4382
2026-01-29 02:01:21.96	237.34	11.84	-47.0	-48.8	17.8	0.00e+00	0	42	0	1269825536	65	4482
2026-01-29 02:01:25.99	237.15	11.48	-47.3	-49.2	17.3	0.00e+00	0	42	0	1277165568	65	4695
2026-01-29 02:01:30.02	236.96	11.12	-47.7	-49.8	16.8	0.00e+00	0	42	0	1285554176	65	5032
2026-01-29 02:01:34.05	236.78	10.76	-47.9	-50.2	16.4	0.00e+00	0	42	0	1292894208	66	4927
2026-01-29 02:01:38.08	236.60	10.42	-48.2	-50.6	16.0	0.00e+00	0	42	0	1300234240	67	4881
2026-01-29 02:01:42.12	236.43	10.07	-48.0	-50.3	16.2	0.00e+00	0	42	0	1307574272	67	4711
2026-01-29 02:01:46.15	236.26	9.73	-47.8	-50.1	16.4	0.00e+00	0	42	0	1315962880	67	4616
2026-01-29 02:01:50.18	236.09	9.40	-47.6	-49.8	16.7	0.00e+00	0	42	0	1323302912	67	4446
2026-01-29 02:01:54.22	235.93	9.06	-47.5	-49.7	16.8	0.00e+00	0	42	0	1330642944	66	4657
2026-01-29 02:01:58.25	235.77	8.74	-47.5	-49.6	16.7	0.00e+00	0	42	0	1337982976	66	4631
2026-01-29 02:02:02.28	235.62	8.41	-47.5	-49.6	16.7	0.00e+00	0	42	0	1345323008	66	4644
2026-01-29 02:02:06.31	235.47	8.09	-47.4	-49.6	16.7	0.00e+00	0	42	0	1353711616	66	4611
2026-01-29 02:02:10.35	235.32	7.78	-47.5	-49.7	16.5	0.00e+00	0	42	0	1361051648	66	4695
2026-01-29 02:02:14.38	235.18	7.47	-47.7	-50.1	16.1	0.00e+00	0	42	0	1368391680	66	4879
2026-01-29 02:02:18.41	235.04	7.16	-47.5	-49.7	16.5	0.00e+00	0	42	0	1375731712	66	4655
2026-01-29 02:02:22.44	234.90	6.85	-47.6	-49.8	16.4	0.00e+00	0	42	0	1383071744	66	4731
2026-01-29 02:02:26.47	234.77	6.55	-47.5	-49.8	16.4	0.00e+00	0	42	0	1391460352	66	4731
2026-01-29 02:02:30.49	234.64	6.26	-47.6	-50.0	16.1	0.00e+00	0	42	0	1398800384	66	4820
2026-01-29 02:02:34.52	234.51	5.96	-48.0	-50.5	15.5	0.00e+00	0	42	0	1406140416	66	5141
2026-01-29 02:02:38.56	234.39	5.67	-48.0	-50.6	15.4	0.00e+00	0	42	0	1413480448	66	5182
2026-01-29 02:02:42.59	234.27	5.38	-48.2	-51.0	15.0	0.00e+00	0	42	0	1421869056	67	5125
2026-01-29 02:02:46.63	234.15	5.10	-48.4	-51.3	14.6	7.00e-07	0	42	0	1429209088	67	5291
2026-01-29 02:02:50.66	234.03	4.81	-53.1	-68.1	3.8	1.49e+00	0	42	104	1430257664	76	21888
2026-01-29 02:02:54.68	233.92	4.53	-53.4	-68.4	3.8	1.49e+00	0	42	104	1430257664	77	21358
2026-01-29 02:02:58.71	233.80	4.26	-53.5	-68.4	3.8	1.49e+00	0	42	104	1430257664	77	21459
2026-01-29 02:03:02.75	233.69	3.98	-53.3	-68.3	3.8	1.49e+00	0	42	104	1430257664	77	21184
2026-01-29 02:03:06.78	233.59	3.71	-53.2	-68.2	3.8	1.49e+00	0	42	104	1430257664	77	20915
2026-01-29 02:03:10.82	233.48	3.44	-53.3	-68.3	3.8	1.49e+00	0	42	104	1430257664	77	21020
2026-01-29 02:03:14.84	233.38	3.17	-53.2	-68.2	3.8	1.49e+00	0	42	104	1430257664	77	20914
2026-01-29 02:03:18.87	233.28	2.91	-53.2	-68.2	3.8	1.49e+00	0	42	104	1430257664	77	20850
2026-01-29 02:03:22.90	233.18	2.65	-53.2	-68.2	3.8	1.49e+00	0	42	104	1430257664	77	20792
2026-01-29 02:03:26.94	233.08	2.39	-53.2	-68.1	3.8	1.49e+00	0	42	104	1430257664	77	20771
2026-01-29 02:03:30.97	232.99	2.13	-53.1	-68.1	3.8	1.49e+00	0	42	104	1430257664	77	20745
2026-01-29 02:03:35.00	232.89	1.88	-53.1	-68.1	3.8	1.49e+00	0	42	104	1430257664	77	20725

#Closed at: 2026-01-29 02:03:35
#Recorded file [1430 MB]: D:/lorett/data/31041_260129_044924.dat