passes_logs/2026/01/29/R3.2S_Murmansk/R3.2S_Murmansk__20260129_110303_FENGYUN_3D_rec.log

#Pass ID: 20260129_110303_FENGYUN 3D
#Satellite: FENGYUN 3D
#Configuration: FENGYUN 3D
#almurnet v.1.7.20251203
#Start time: 2026-01-29 11:03:03

#Version: 2.2.20231116
#Station: R3.2S_Murmansk
#Location: 33.079688 lon 68.888172 lat
#TLE: 1 43010U 17072A   26028.95797775  .00000451  00000+0  23492-3 0  9991
#TLE: 2 43010  98.9958   0.9922 0002505  85.7480 274.3981 14.19703224425237

#Time	Az	El	Level	Level2	SNR	BER	BlckErr	Temp	State	Recorded	gain1	gain2
2026-01-29 11:03:03.15	138.75	2.00	-53.9	-65.8	3.8	8.47e-01	0	40	0	0	79	14199
2026-01-29 11:03:07.17	138.71	2.26	-53.9	-65.8	3.8	8.45e-01	0	40	104	0	78	15004
2026-01-29 11:03:11.20	138.67	2.52	-53.8	-65.8	3.8	8.46e-01	0	40	104	0	78	14943
2026-01-29 11:03:15.24	138.62	2.79	-53.9	-65.8	3.8	8.45e-01	0	40	104	0	78	15035
2026-01-29 11:03:19.27	138.58	3.05	-54.1	-66.1	3.8	8.47e-01	0	40	104	0	78	15489
2026-01-29 11:03:23.30	138.53	3.32	-54.1	-66.0	3.8	8.44e-01	0	40	104	0	78	15361
2026-01-29 11:03:27.33	138.48	3.60	-53.9	-65.9	3.8	8.46e-01	0	41	104	0	78	15123
2026-01-29 11:03:31.37	138.43	3.87	-53.6	-65.6	3.8	8.46e-01	0	41	104	0	78	14561
2026-01-29 11:03:35.40	138.38	4.15	-53.2	-65.1	3.8	8.46e-01	0	41	104	0	78	13771
2026-01-29 11:03:39.43	138.33	4.43	-47.5	-49.6	5.7	8.16e-01	0	41	104	0	67	4390
2026-01-29 11:03:43.46	138.28	4.71	-43.4	-44.6	18.5	0.00e+00	0	41	0	20971520	58	4112
2026-01-29 11:03:47.49	138.23	5.00	-42.8	-43.9	19.1	0.00e+00	0	41	0	42991616	57	4044
2026-01-29 11:03:51.53	138.17	5.29	-43.3	-44.4	18.7	0.00e+00	0	41	0	65011712	58	4046
2026-01-29 11:03:55.57	138.11	5.58	-42.4	-43.4	19.7	0.00e+00	0	41	0	88080384	56	4040
2026-01-29 11:03:59.60	138.06	5.88	-42.2	-43.3	19.9	0.00e+00	0	41	0	111149056	56	3966
2026-01-29 11:04:03.64	138.00	6.18	-42.2	-43.2	20.0	0.00e+00	0	41	0	133169152	56	3944
2026-01-29 11:04:07.67	137.94	6.48	-42.1	-43.2	20.1	0.00e+00	0	41	0	156237824	56	3915
2026-01-29 11:04:11.70	137.87	6.78	-42.1	-43.1	20.3	0.00e+00	0	41	0	179306496	56	3869
2026-01-29 11:04:15.73	137.81	7.09	-41.8	-42.7	20.5	0.00e+00	0	41	0	201326592	55	3951
2026-01-29 11:04:19.77	137.74	7.41	-41.6	-42.5	20.7	0.00e+00	0	41	0	224395264	55	3867
2026-01-29 11:04:23.80	137.68	7.72	-41.4	-42.3	20.9	0.00e+00	0	41	0	247463936	54	4002
2026-01-29 11:04:27.84	137.61	8.05	-41.3	-42.2	21.1	0.00e+00	0	41	0	269484032	54	3935
2026-01-29 11:04:31.87	137.53	8.37	-41.2	-42.1	21.2	0.00e+00	0	41	0	292552704	54	3903
2026-01-29 11:04:35.90	137.46	8.70	-41.2	-42.1	21.2	0.00e+00	0	41	0	315621376	54	3890
2026-01-29 11:04:39.94	137.39	9.04	-41.0	-41.9	21.4	0.00e+00	0	41	0	337641472	54	3813
2026-01-29 11:04:43.97	137.31	9.37	-40.9	-41.8	21.6	0.00e+00	0	41	0	360710144	53	3979
2026-01-29 11:04:48.00	137.23	9.72	-41.0	-41.9	21.5	0.00e+00	0	42	0	383778816	53	4013
2026-01-29 11:04:52.04	137.15	10.07	-40.9	-41.8	21.7	0.00e+00	0	42	0	405798912	53	3959
2026-01-29 11:04:56.08	137.06	10.42	-40.7	-41.6	21.9	0.00e+00	0	42	0	428867584	53	3880
2026-01-29 11:05:00.11	136.98	10.78	-40.6	-41.5	22.0	0.00e+00	0	42	0	450887680	53	3826
2026-01-29 11:05:04.14	136.89	11.14	-40.4	-41.3	22.2	0.00e+00	0	42	0	473956352	52	3973
2026-01-29 11:05:08.18	136.80	11.51	-40.5	-41.3	22.1	0.00e+00	0	42	0	497025024	52	3998
2026-01-29 11:05:12.21	136.70	11.88	-40.3	-41.1	22.3	0.00e+00	0	41	0	519045120	52	3899
2026-01-29 11:05:16.24	136.61	12.26	-40.3	-41.1	22.4	0.00e+00	0	42	0	542113792	52	3899
2026-01-29 11:05:20.28	136.51	12.65	-40.1	-40.9	22.5	0.00e+00	0	42	0	565182464	52	3822
2026-01-29 11:05:24.31	136.40	13.04	-40.1	-40.9	22.6	0.00e+00	0	42	0	587202560	52	3803
2026-01-29 11:05:28.34	136.30	13.44	-40.0	-40.9	22.6	0.00e+00	0	42	0	610271232	52	3792
2026-01-29 11:05:32.37	136.19	13.84	-40.2	-41.0	22.6	0.00e+00	0	42	0	633339904	51	4082
2026-01-29 11:05:36.40	136.08	14.25	-39.9	-40.7	22.9	0.00e+00	0	42	0	655360000	51	3951
2026-01-29 11:05:40.43	135.96	14.67	-39.9	-40.7	22.9	0.00e+00	0	42	0	678428672	51	3940
2026-01-29 11:05:44.47	135.84	15.10	-39.7	-40.5	23.1	0.00e+00	0	42	0	701497344	51	3844
2026-01-29 11:05:48.51	135.72	15.53	-39.5	-40.3	23.3	0.00e+00	0	42	0	723517440	51	3760
2026-01-29 11:05:52.55	135.59	15.97	-39.3	-40.0	23.5	0.00e+00	0	42	0	746586112	50	3867
2026-01-29 11:05:56.58	135.46	16.42	-39.1	-39.8	23.7	0.00e+00	0	42	0	769654784	50	3778
2026-01-29 11:06:00.61	135.32	16.88	-39.1	-39.9	23.7	0.00e+00	0	42	0	791674880	50	3782
2026-01-29 11:06:04.63	135.18	17.34	-39.2	-40.0	23.6	0.00e+00	0	42	0	814743552	50	3833
2026-01-29 11:06:08.67	135.03	17.82	-38.9	-39.6	23.9	0.00e+00	0	42	0	836763648	49	3909
2026-01-29 11:06:12.69	134.88	18.30	-38.9	-39.6	23.9	0.00e+00	0	42	0	859832320	49	3910
2026-01-29 11:06:16.73	134.73	18.79	-38.6	-39.4	24.2	0.00e+00	0	42	0	881852416	49	3790
2026-01-29 11:06:20.77	134.56	19.30	-38.6	-39.4	24.1	0.00e+00	0	42	0	904921088	49	3786
2026-01-29 11:06:24.80	134.40	19.81	-38.4	-39.1	24.3	0.00e+00	0	42	0	927989760	48	3908
2026-01-29 11:06:28.83	134.22	20.33	-38.5	-39.3	24.2	0.00e+00	0	42	0	950009856	48	3969
2026-01-29 11:06:32.87	134.04	20.86	-38.4	-39.2	24.3	0.00e+00	0	42	0	973078528	48	3919
2026-01-29 11:06:36.89	133.85	21.41	-38.0	-38.8	24.6	0.00e+00	0	42	0	996147200	48	3757
2026-01-29 11:06:40.91	133.66	21.96	-37.7	-38.4	24.5	0.00e+00	0	42	0	1018167296	47	3811
2026-01-29 11:06:44.95	133.46	22.53	-37.5	-38.3	24.6	0.00e+00	0	42	0	1041235968	47	3766
2026-01-29 11:06:48.98	133.25	23.11	-37.5	-38.2	24.6	0.00e+00	0	42	0	1064304640	46	3957
2026-01-29 11:06:53.00	133.03	23.71	-37.4	-38.1	24.7	0.00e+00	0	42	0	1086324736	46	3902
2026-01-29 11:06:57.03	132.80	24.31	-37.4	-38.1	24.8	0.00e+00	0	42	0	1109393408	46	3907
2026-01-29 11:07:01.06	132.56	24.93	-37.4	-38.1	24.8	0.00e+00	0	42	0	1132462080	46	3904
2026-01-29 11:07:05.09	132.31	25.57	-37.2	-37.9	25.0	0.00e+00	0	42	0	1154482176	46	3820
2026-01-29 11:07:09.13	132.05	26.22	-37.1	-37.8	25.1	0.00e+00	0	42	0	1177550848	46	3780
2026-01-29 11:07:13.16	131.78	26.89	-37.2	-38.0	25.0	0.00e+00	0	42	0	1200619520	46	3827
2026-01-29 11:07:17.19	131.50	27.57	-37.4	-38.2	24.8	0.00e+00	0	42	0	1222639616	46	3922
2026-01-29 11:07:21.22	131.20	28.26	-37.1	-37.8	25.1	0.00e+00	0	42	0	1244659712	46	3766
2026-01-29 11:07:25.24	130.90	28.98	-36.8	-37.6	25.3	0.00e+00	0	42	0	1267728384	45	3880
2026-01-29 11:07:29.26	130.57	29.71	-36.8	-37.5	25.3	0.00e+00	0	42	0	1290797056	45	3864
2026-01-29 11:07:33.29	130.23	30.46	-36.5	-37.3	25.5	0.00e+00	0	42	0	1312817152	45	3751
2026-01-29 11:07:37.31	129.88	31.23	-36.5	-37.3	25.5	0.00e+00	0	42	0	1335885824	44	3959
2026-01-29 11:07:41.35	129.50	32.02	-36.5	-37.3	25.5	0.00e+00	0	42	0	1358954496	44	3967
2026-01-29 11:07:45.38	129.10	32.82	-36.5	-37.2	25.6	0.00e+00	0	42	0	1380974592	44	3949
2026-01-29 11:07:49.42	128.69	33.66	-36.6	-37.3	26.0	0.00e+00	0	42	0	1404043264	44	3987
2026-01-29 11:07:53.45	128.25	34.51	-36.4	-37.1	26.2	0.00e+00	0	42	0	1427111936	44	3900
2026-01-29 11:07:57.48	127.79	35.38	-36.5	-37.2	26.2	0.00e+00	0	42	0	1449132032	44	3933
2026-01-29 11:08:01.52	127.29	36.27	-36.4	-37.1	26.3	0.00e+00	0	42	0	1472200704	44	3896
2026-01-29 11:08:05.54	126.78	37.19	-36.5	-37.1	26.2	0.00e+00	0	42	0	1494220800	44	3909
2026-01-29 11:08:09.57	126.23	38.13	-36.5	-37.2	26.2	0.00e+00	0	42	0	1517289472	44	3930
2026-01-29 11:08:13.60	125.64	39.09	-36.8	-37.5	26.0	0.00e+00	0	42	0	1540358144	44	4054
2026-01-29 11:08:17.63	125.02	40.08	-36.8	-37.5	26.0	0.00e+00	0	42	0	1562378240	44	4059
2026-01-29 11:08:21.66	124.36	41.09	-37.3	-38.0	25.5	0.00e+00	0	42	0	1585446912	45	4096
2026-01-29 11:08:25.69	123.66	42.13	-37.3	-38.0	25.5	0.00e+00	0	42	0	1607467008	45	4076
2026-01-29 11:08:29.72	122.91	43.19	-37.1	-37.8	25.7	0.00e+00	0	42	0	1630535680	45	3976
2026-01-29 11:08:33.75	122.10	44.27	-37.1	-37.8	25.7	0.00e+00	0	42	0	1653604352	45	3980
2026-01-29 11:08:37.78	121.24	45.38	-37.1	-37.8	25.8	0.00e+00	0	42	0	1675624448	45	3964
2026-01-29 11:08:41.81	120.31	46.51	-37.0	-37.7	25.8	0.00e+00	0	42	0	1698693120	45	3941
2026-01-29 11:08:45.84	119.31	47.66	-37.1	-37.8	25.8	0.00e+00	0	42	0	1720713216	45	3965
2026-01-29 11:08:49.88	118.23	48.84	-37.3	-38.0	25.6	0.00e+00	0	42	0	1743781888	45	4067
2026-01-29 11:08:53.91	117.06	50.03	-38.0	-38.7	25.0	0.00e+00	0	42	0	1766850560	46	4163
2026-01-29 11:08:57.95	115.80	51.25	-38.3	-39.1	24.6	0.00e+00	0	42	0	1788870656	47	4116
2026-01-29 11:09:01.97	114.43	52.47	-37.8	-38.5	25.2	0.00e+00	0	42	0	1811939328	47	3851
2026-01-29 11:09:06.00	112.94	53.71	-37.7	-38.4	25.3	0.00e+00	0	42	0	1835008000	47	3804
2026-01-29 11:09:10.04	111.31	54.97	-37.6	-38.3	25.4	0.00e+00	0	42	0	1857028096	46	3979
2026-01-29 11:09:14.08	109.53	56.22	-37.5	-38.2	25.4	0.00e+00	0	42	0	1880096768	46	3949
2026-01-29 11:09:18.11	107.58	57.47	-37.6	-38.3	25.4	0.00e+00	0	42	0	1903165440	46	3993
2026-01-29 11:09:22.15	105.44	58.72	-37.7	-38.4	25.3	0.00e+00	0	42	0	1926234112	46	4042
2026-01-29 11:09:26.19	103.09	59.95	-37.9	-38.7	25.0	0.00e+00	0	42	0	1948254208	46	4156
2026-01-29 11:09:30.23	100.50	61.16	-37.2	-37.9	25.8	0.00e+00	0	42	0	1970274304	46	3804
2026-01-29 11:09:34.26	97.66	62.33	-37.0	-37.6	26.0	0.00e+00	0	42	0	1993342976	45	3911
2026-01-29 11:09:38.29	94.54	63.45	-36.5	-37.1	26.4	0.00e+00	0	42	0	2016411648	44	3907
2026-01-29 11:09:42.33	91.10	64.51	-36.2	-36.9	26.6	0.00e+00	0	42	0	2038431744	44	3811
2026-01-29 11:09:46.37	87.34	65.50	-35.6	-36.2	27.1	0.00e+00	0	42	0	2061500416	43	3734
2026-01-29 11:09:50.41	83.25	66.40	-35.5	-36.2	27.1	0.00e+00	0	42	0	2084569088	43	3700
2026-01-29 11:09:54.45	78.82	67.18	-35.5	-36.1	27.1	0.00e+00	0	42	0	2107637760	42	3911
2026-01-29 11:09:58.49	74.07	67.83	-35.6	-36.3	27.0	0.00e+00	0	42	0	2129657856	42	3978
2026-01-29 11:10:02.52	69.06	68.34	-35.6	-36.3	27.0	0.00e+00	0	42	0	2152726528	42	3962
2026-01-29 11:10:06.54	63.85	68.69	-35.4	-36.1	27.3	0.00e+00	0	42	0	2174746624	42	3874
2026-01-29 11:10:10.58	58.46	68.87	-35.6	-36.3	27.1	0.00e+00	0	42	0	2197815296	42	3972
2026-01-29 11:10:14.62	53.02	68.88	-35.5	-36.1	27.2	0.00e+00	0	42	0	2220883968	42	3905
2026-01-29 11:10:18.65	47.65	68.71	-35.5	-36.2	27.1	0.00e+00	0	42	0	2243952640	42	3935
2026-01-29 11:10:22.68	42.41	68.37	-35.7	-36.3	27.1	0.00e+00	0	42	0	2265972736	42	4002
2026-01-29 11:10:26.72	37.37	67.86	-35.6	-36.3	27.1	0.00e+00	0	42	0	2289041408	42	3983
2026-01-29 11:10:30.75	32.63	67.22	-36.0	-36.7	26.8	0.00e+00	0	42	0	2312110080	42	4146
2026-01-29 11:10:34.78	28.20	66.45	-35.8	-36.5	26.9	0.00e+00	0	42	0	2334130176	42	4060
2026-01-29 11:10:38.81	24.09	65.56	-36.0	-36.7	26.8	0.00e+00	0	42	0	2356150272	42	4155
2026-01-29 11:10:42.84	20.33	64.58	-35.7	-36.4	27.0	0.00e+00	0	42	0	2379218944	42	4020
2026-01-29 11:10:46.87	16.88	63.53	-35.8	-36.4	26.9	0.00e+00	0	42	0	2402287616	42	4044
2026-01-29 11:10:50.91	13.74	62.41	-36.5	-37.1	26.4	0.00e+00	0	42	0	2424307712	43	4139
2026-01-29 11:10:54.93	10.89	61.25	-36.9	-37.6	26.1	0.00e+00	0	42	0	2447376384	44	4109
2026-01-29 11:10:58.97	8.29	60.04	-36.8	-37.5	26.2	0.00e+00	0	42	0	2470445056	44	4074
2026-01-29 11:11:02.99	5.93	58.82	-36.8	-37.5	26.2	0.00e+00	0	42	0	2492465152	44	4053
2026-01-29 11:11:07.02	3.79	57.58	-37.1	-37.9	25.8	0.00e+00	0	42	0	2515533824	44	4245
2026-01-29 11:11:11.05	1.83	56.33	-37.3	-38.0	25.7	0.00e+00	0	42	0	2538602496	45	4079
2026-01-29 11:11:15.09	0.04	55.08	-37.3	-38.0	25.7	0.00e+00	0	42	0	2560622592	45	4059
2026-01-29 11:11:19.12	358.40	53.83	-37.4	-38.1	25.6	0.00e+00	0	42	0	2583691264	45	4133
2026-01-29 11:11:23.16	356.90	52.59	-37.1	-37.8	25.9	0.00e+00	0	42	0	2606759936	45	3965
2026-01-29 11:11:27.19	355.52	51.36	-37.4	-38.1	25.6	0.00e+00	0	42	0	2628780032	45	4136
2026-01-29 11:11:31.22	354.25	50.15	-37.5	-38.2	25.5	0.00e+00	0	42	0	2651848704	45	4176
2026-01-29 11:11:35.25	353.08	48.96	-36.7	-37.4	26.3	0.00e+00	0	42	0	2674917376	45	3790
2026-01-29 11:11:39.28	352.00	47.79	-36.6	-37.3	26.3	0.00e+00	0	42	0	2696937472	45	3760
2026-01-29 11:11:43.31	351.00	46.63	-36.7	-37.3	26.3	0.00e+00	0	42	0	2718957568	45	3770
2026-01-29 11:11:47.34	350.06	45.51	-36.6	-37.3	26.3	0.00e+00	0	42	0	2742026240	45	3761
2026-01-29 11:11:51.38	349.20	44.40	-36.4	-37.1	26.5	0.00e+00	0	42	0	2765094912	44	3889
2026-01-29 11:11:55.41	348.39	43.31	-36.5	-37.2	26.4	0.00e+00	0	42	0	2787115008	44	3917
2026-01-29 11:11:59.44	347.63	42.25	-36.3	-37.0	26.6	0.00e+00	0	42	0	2810183680	44	3828
2026-01-29 11:12:03.47	346.93	41.22	-36.4	-37.1	26.5	0.00e+00	0	42	0	2833252352	44	3893
2026-01-29 11:12:07.50	346.26	40.21	-36.2	-36.8	26.7	0.00e+00	0	42	0	2855272448	44	3779
2026-01-29 11:12:11.54	345.64	39.22	-35.9	-36.5	26.8	0.00e+00	0	42	0	2878341120	43	3860
2026-01-29 11:12:15.58	345.05	38.25	-36.0	-36.7	26.6	0.00e+00	0	42	0	2901409792	43	3954
2026-01-29 11:12:19.61	344.50	37.31	-35.8	-36.5	26.8	0.00e+00	0	42	0	2923429888	43	3840
2026-01-29 11:12:23.65	343.98	36.40	-35.9	-36.6	26.7	0.00e+00	0	42	0	2946498560	43	3895
2026-01-29 11:12:27.68	343.49	35.50	-36.1	-36.7	26.6	0.00e+00	0	42	0	2969567232	43	3955
2026-01-29 11:12:31.72	343.03	34.63	-36.3	-36.9	26.4	0.00e+00	0	42	0	2991587328	43	4039
2026-01-29 11:12:35.75	342.59	33.78	-36.4	-37.1	26.3	0.00e+00	0	42	0	3014656000	43	4124
2026-01-29 11:12:39.78	342.17	32.95	-36.4	-37.1	26.2	0.00e+00	0	42	0	3037724672	43	4129
2026-01-29 11:12:43.81	341.78	32.14	-36.3	-37.0	26.4	0.00e+00	0	42	0	3059744768	43	4064
2026-01-29 11:12:47.84	341.40	31.36	-36.3	-37.0	26.3	0.00e+00	0	42	0	3081764864	43	4078
2026-01-29 11:12:51.87	341.04	30.59	-36.3	-37.0	26.3	0.00e+00	0	42	0	3104833536	43	4089
2026-01-29 11:12:55.90	340.70	29.84	-36.3	-36.9	26.3	0.00e+00	0	42	0	3127902208	43	4035
2026-01-29 11:12:59.94	340.38	29.10	-36.4	-37.0	26.2	0.00e+00	0	42	0	3149922304	43	4084
2026-01-29 11:13:03.97	340.07	28.39	-36.8	-37.5	25.9	0.00e+00	0	42	0	3172990976	44	4060
2026-01-29 11:13:08.00	339.77	27.69	-36.2	-37.1	15.0	0.00e+00	0	42	0	3196059648	44	3906
2026-01-29 11:13:12.04	339.49	27.01	-35.9	-36.8	14.6	0.00e+00	0	42	0	3218079744	42	4225
2026-01-29 11:13:16.07	339.22	26.34	-36.4	-37.1	26.2	0.00e+00	0	42	0	3241148416	43	4101
2026-01-29 11:13:20.10	338.96	25.70	-36.6	-37.3	25.9	0.00e+00	0	42	0	3264217088	43	4220
2026-01-29 11:13:24.12	338.72	25.06	-36.9	-37.6	25.7	0.00e+00	0	42	0	3286237184	44	4140
2026-01-29 11:13:28.15	338.48	24.44	-37.0	-37.7	25.7	0.00e+00	0	42	0	3309305856	44	4149
2026-01-29 11:13:32.18	338.25	23.84	-36.9	-37.6	25.7	0.00e+00	0	42	0	3332374528	44	4132
2026-01-29 11:13:36.21	338.03	23.24	-37.1	-37.8	25.6	0.00e+00	0	42	0	3354394624	44	4224
2026-01-29 11:13:40.25	337.82	22.66	-37.1	-37.9	25.5	0.00e+00	0	42	0	3377463296	44	4245
2026-01-29 11:13:44.28	337.62	22.09	-37.2	-37.9	25.5	0.00e+00	0	42	0	3400531968	45	4037
2026-01-29 11:13:48.32	337.43	21.54	-37.4	-38.1	25.3	0.00e+00	0	42	0	3422552064	45	4123
2026-01-29 11:13:52.35	337.24	20.99	-37.6	-38.3	25.1	0.00e+00	0	42	0	3445620736	45	4216
2026-01-29 11:13:56.37	337.06	20.46	-37.7	-38.5	24.9	0.00e+00	0	42	0	3467640832	46	4052
2026-01-29 11:14:00.39	336.89	19.94	-37.8	-38.5	24.9	0.00e+00	0	42	0	3490709504	46	4087
2026-01-29 11:14:04.43	336.72	19.43	-37.9	-38.6	24.7	0.00e+00	0	42	0	3512729600	46	4139
2026-01-29 11:14:08.46	336.56	18.92	-37.9	-38.7	24.8	0.00e+00	0	42	0	3535798272	46	4147
2026-01-29 11:14:12.49	336.41	18.43	-38.0	-38.7	24.7	0.00e+00	0	42	0	3558866944	46	4178
2026-01-29 11:14:16.51	336.26	17.95	-38.1	-38.9	24.5	1.10e-06	0	42	0	3580887040	46	4252
2026-01-29 11:14:20.54	336.11	17.48	-38.4	-39.1	24.3	0.00e+00	0	42	0	3603955712	47	4145
2026-01-29 11:14:24.57	335.97	17.01	-38.4	-39.1	24.3	0.00e+00	0	42	0	3627024384	47	4139
2026-01-29 11:14:28.60	335.84	16.56	-38.5	-39.3	24.1	0.00e+00	0	42	0	3649044480	47	4223
2026-01-29 11:14:32.63	335.71	16.11	-39.0	-39.8	24.1	0.00e+00	0	42	0	3672113152	48	4206
2026-01-29 11:14:36.65	335.58	15.67	-39.0	-39.8	24.1	0.00e+00	0	42	0	3695181824	48	4211
2026-01-29 11:14:40.68	335.46	15.24	-39.1	-39.9	24.0	0.00e+00	0	42	0	3717201920	48	4261
2026-01-29 11:14:44.71	335.34	14.81	-39.2	-39.9	23.9	0.00e+00	0	42	0	3740270592	49	4026
2026-01-29 11:14:48.75	335.23	14.39	-39.4	-40.2	23.7	0.00e+00	0	42	0	3762290688	49	4148
2026-01-29 11:14:52.78	335.12	13.98	-39.5	-40.2	23.6	0.00e+00	0	42	0	3785359360	49	4188
2026-01-29 11:14:56.81	335.01	13.58	-39.7	-40.4	23.4	0.00e+00	0	42	0	3807379456	50	4044
2026-01-29 11:15:00.83	334.91	13.18	-39.8	-40.6	23.3	0.00e+00	0	42	0	3830448128	50	4114
2026-01-29 11:15:04.87	334.81	12.79	-40.0	-40.8	23.1	0.00e+00	0	42	0	3853516800	50	4201
2026-01-29 11:15:08.90	334.71	12.40	-40.0	-40.8	23.0	0.00e+00	0	42	0	3875536896	50	4214
2026-01-29 11:15:12.93	334.61	12.03	-40.0	-40.7	23.0	0.00e+00	0	42	0	3898605568	50	4185
2026-01-29 11:15:16.96	334.52	11.65	-40.3	-41.1	22.8	0.00e+00	0	42	0	3921674240	51	4102
2026-01-29 11:15:20.99	334.43	11.28	-40.2	-41.0	22.8	0.00e+00	0	42	0	3943694336	51	4062
2026-01-29 11:15:25.02	334.35	10.92	-40.3	-41.1	22.7	0.00e+00	0	42	0	3966763008	51	4100
2026-01-29 11:15:29.05	334.26	10.56	-40.4	-41.1	22.6	0.00e+00	0	42	0	3989831680	51	4144
2026-01-29 11:15:33.07	334.18	10.21	-40.5	-41.3	22.4	0.00e+00	0	42	0	4011851776	51	4232
2026-01-29 11:15:37.11	334.10	9.86	-40.6	-41.4	22.3	0.00e+00	0	42	0	4034920448	51	4282
2026-01-29 11:15:41.14	334.02	9.52	-40.5	-41.3	22.3	0.00e+00	0	42	0	4056940544	52	3972
2026-01-29 11:15:45.17	333.95	9.18	-40.7	-41.5	22.1	0.00e+00	0	42	0	4080009216	52	4066
2026-01-29 11:15:49.20	333.88	8.85	-40.9	-41.7	21.9	0.00e+00	0	42	0	4103077888	52	4171
2026-01-29 11:15:53.23	333.80	8.52	-40.9	-41.7	21.8	0.00e+00	0	42	0	4125097984	52	4183
2026-01-29 11:15:57.26	333.74	8.19	-40.9	-41.8	21.7	0.00e+00	0	42	0	4148166656	52	4212
2026-01-29 11:16:01.29	333.67	7.87	-41.1	-41.9	21.6	0.00e+00	0	42	0	4170186752	53	4046
2026-01-29 11:16:05.33	333.60	7.55	-41.2	-42.1	21.4	0.00e+00	0	42	0	4193255424	53	4111
2026-01-29 11:16:09.36	333.54	7.24	-41.2	-42.1	21.3	0.00e+00	0	42	0	4216324096	53	4136
2026-01-29 11:16:13.39	333.48	6.93	-41.2	-42.1	21.2	0.00e+00	0	42	0	4238344192	53	4143
2026-01-29 11:16:17.43	333.42	6.63	-41.5	-42.4	20.9	0.00e+00	0	42	0	4261412864	53	4281
2026-01-29 11:16:21.46	333.36	6.32	-41.9	-42.9	20.5	0.00e+00	0	42	0	4284481536	54	4248
2026-01-29 11:16:25.49	333.30	6.02	-41.8	-42.7	20.6	0.00e+00	0	42	0	4306501632	54	4178
2026-01-29 11:16:29.52	333.25	5.73	-42.0	-43.0	20.3	0.00e+00	0	42	0	4329570304	54	4310
2026-01-29 11:16:33.56	333.19	5.44	-41.9	-42.9	20.3	0.00e+00	0	42	0	4352638976	54	4264
2026-01-29 11:16:37.59	333.14	5.15	-41.9	-42.9	20.3	0.00e+00	0	42	0	4374659072	54	4279
2026-01-29 11:16:41.62	333.09	4.86	-52.8	-64.8	3.8	8.45e-01	0	42	104	4386193408	76	14925
2026-01-29 11:16:45.65	333.04	4.58	-53.4	-65.4	3.8	8.46e-01	0	42	104	4386193408	77	15081
2026-01-29 11:16:49.68	332.99	4.30	-53.4	-65.3	3.8	8.46e-01	0	42	104	4386193408	77	15024
2026-01-29 11:16:53.71	332.94	4.02	-53.3	-65.2	3.8	8.45e-01	0	42	104	4386193408	77	14825
2026-01-29 11:16:57.74	332.90	3.75	-53.4	-65.4	3.8	8.45e-01	0	42	104	4386193408	77	15055
2026-01-29 11:17:01.77	332.85	3.47	-53.4	-65.3	3.8	8.46e-01	0	42	104	4386193408	77	14960
2026-01-29 11:17:05.80	332.81	3.20	-53.3	-65.2	3.8	8.47e-01	0	42	104	4386193408	77	14800
2026-01-29 11:17:09.83	332.77	2.94	-53.2	-65.2	3.8	8.47e-01	0	42	104	4386193408	77	14769
2026-01-29 11:17:13.86	332.72	2.67	-53.2	-65.1	3.8	8.46e-01	0	42	104	4386193408	77	14695
2026-01-29 11:17:17.89	332.68	2.41	-53.2	-65.1	3.8	8.46e-01	0	42	104	4386193408	77	14692
2026-01-29 11:17:21.92	332.64	2.15	-53.2	-65.1	3.8	8.46e-01	0	42	104	4386193408	77	14625
2026-01-29 11:17:25.96	332.61	1.90	-53.2	-65.1	3.8	8.47e-01	0	42	104	4386193408	77	14600

#Closed at: 2026-01-29 11:17:26
#Recorded file [4386 MB]: D:/lorett/data/31041_260129_140302.dat