passes_logs/2026/01/29/R3.2S_Murmansk/R3.2S_Murmansk__20260129_050841_SUOMI_NPP_rec.log

#Pass ID: 20260129_050841_SUOMI NPP
#Satellite: SUOMI NPP
#Configuration: NPP
#almurnet v.1.7.20251203
#Start time: 2026-01-29 05:08:43

#Version: 2.2.20231116
#Station: R3.2S_Murmansk
#Location: 33.079688 lon 68.888172 lat
#TLE: 1 37849U 11061A   26027.93236865  .00000148  00000+0  91411-4 0  9991
#TLE: 2 37849  98.7823 329.8704 0002085  41.3231 318.8102 14.19530777738546

#Time	Az	El	Level	Level2	SNR	BER	BlckErr	Temp	State	Recorded	gain1	gain2
2026-01-29 05:08:43.42	60.59	2.13	-54.0	-69.0	3.8	1.49e+00	0	40	0	0	79	20423
2026-01-29 05:08:46.43	60.40	2.30	-54.3	-69.3	3.8	1.49e+00	0	40	104	0	79	21143
2026-01-29 05:08:49.45	60.20	2.47	-54.1	-69.1	3.8	1.49e+00	0	40	104	0	79	20759
2026-01-29 05:08:52.48	60.00	2.64	-53.9	-68.9	3.8	1.49e+00	0	40	104	0	79	20198
2026-01-29 05:08:55.50	59.80	2.82	-53.8	-68.8	3.8	1.49e+00	0	40	104	0	79	19918
2026-01-29 05:08:58.53	59.59	2.99	-53.4	-68.5	3.8	1.49e+00	0	41	104	0	78	20318
2026-01-29 05:09:01.55	59.38	3.17	-52.9	-67.8	3.8	1.49e+00	0	40	104	0	77	20051
2026-01-29 05:09:04.57	59.17	3.34	-51.9	-66.8	3.8	1.49e+00	0	41	104	0	75	19936
2026-01-29 05:09:07.60	58.96	3.52	-51.8	-66.7	3.8	1.49e+00	0	41	104	0	75	19745
2026-01-29 05:09:10.63	58.74	3.70	-51.8	-66.8	3.8	1.49e+00	0	41	104	0	75	19940
2026-01-29 05:09:13.65	58.52	3.88	-51.8	-66.7	3.8	1.49e+00	0	41	104	0	75	19813
2026-01-29 05:09:16.68	58.30	4.06	-51.8	-66.8	3.8	1.49e+00	0	41	104	0	75	19924
2026-01-29 05:09:19.71	58.08	4.24	-51.7	-65.5	3.8	1.49e+00	0	41	104	0	75	17127
2026-01-29 05:09:22.74	57.85	4.42	-51.5	-62.0	4.6	1.17e+00	0	41	0	1048576	75	11505
2026-01-29 05:09:25.76	57.62	4.60	-51.4	-61.6	4.8	7.48e-01	0	41	0	6291456	74	11557
2026-01-29 05:09:28.79	57.39	4.79	-51.6	-63.5	4.1	1.42e+00	0	41	0	9437184	74	14453
2026-01-29 05:09:31.81	57.15	4.97	-51.3	-60.2	5.6	5.79e-01	0	41	0	12582912	74	9844
2026-01-29 05:09:34.84	56.91	5.15	-51.6	-62.4	4.5	3.06e-01	6	41	0	18874368	73	13564
2026-01-29 05:09:37.87	56.67	5.34	-51.7	-66.6	3.8	6.15e-01	0	41	104	23068672	73	21979
2026-01-29 05:09:40.90	56.42	5.52	-47.8	-50.5	15.1	0.00e+00	0	41	0	26214400	66	5154
2026-01-29 05:09:43.92	56.17	5.71	-47.3	-49.7	16.0	0.00e+00	0	41	0	32505856	66	4652
2026-01-29 05:09:46.94	55.92	5.90	-47.2	-49.6	16.2	0.00e+00	0	41	0	37748736	66	4606
2026-01-29 05:09:49.96	55.66	6.09	-47.4	-49.8	16.1	0.00e+00	0	41	0	42991616	66	4713
2026-01-29 05:09:52.98	55.40	6.27	-47.6	-50.2	15.6	0.00e+00	0	41	0	49283072	66	4970
2026-01-29 05:09:56.00	55.14	6.46	-47.6	-50.2	15.6	0.00e+00	0	41	0	54525952	66	4932
2026-01-29 05:09:59.02	54.87	6.65	-47.7	-50.3	15.6	0.00e+00	0	41	0	60817408	66	4986
2026-01-29 05:10:02.04	54.60	6.85	-47.7	-50.3	15.6	0.00e+00	0	41	0	66060288	66	4992
2026-01-29 05:10:05.06	54.33	7.04	-47.7	-50.3	15.5	0.00e+00	0	42	0	71303168	66	5033
2026-01-29 05:10:08.08	54.05	7.23	-47.7	-50.3	15.6	0.00e+00	0	41	0	77594624	66	5018
2026-01-29 05:10:11.10	53.77	7.42	-47.4	-49.8	16.2	0.00e+00	0	41	0	82837504	66	4738
2026-01-29 05:10:14.12	53.49	7.62	-47.3	-49.7	16.3	0.00e+00	0	41	0	89128960	66	4653
2026-01-29 05:10:17.15	53.20	7.81	-47.2	-49.5	16.5	0.00e+00	0	42	0	94371840	66	4559
2026-01-29 05:10:20.17	52.90	8.01	-47.2	-49.5	16.5	0.00e+00	0	42	0	99614720	66	4558
2026-01-29 05:10:23.19	52.61	8.21	-47.1	-49.3	16.7	0.00e+00	0	41	0	105906176	65	4745
2026-01-29 05:10:26.21	52.30	8.41	-46.9	-49.0	17.0	0.00e+00	0	41	0	111149056	65	4587
2026-01-29 05:10:29.23	52.00	8.60	-46.7	-48.7	17.3	0.00e+00	0	41	0	117440512	65	4436
2026-01-29 05:10:32.26	51.69	8.80	-46.6	-48.6	17.5	0.00e+00	0	41	0	122683392	65	4351
2026-01-29 05:10:35.29	51.37	9.00	-46.7	-48.7	17.4	0.00e+00	0	42	0	127926272	65	4423
2026-01-29 05:10:38.31	51.05	9.20	-46.8	-48.8	17.3	0.00e+00	0	41	0	134217728	65	4474
2026-01-29 05:10:41.33	50.73	9.41	-47.1	-49.2	16.9	0.00e+00	0	42	0	139460608	65	4692
2026-01-29 05:10:44.35	50.40	9.61	-47.1	-49.3	16.9	0.00e+00	0	42	0	145752064	65	4710
2026-01-29 05:10:47.37	50.07	9.81	-47.2	-49.4	16.8	0.00e+00	0	41	0	150994944	65	4769
2026-01-29 05:10:50.39	49.73	10.01	-47.2	-49.3	16.8	0.00e+00	0	41	0	156237824	65	4758
2026-01-29 05:10:53.42	49.39	10.22	-47.3	-49.5	16.7	0.00e+00	0	42	0	162529280	65	4829
2026-01-29 05:10:56.44	49.04	10.42	-47.2	-49.3	16.9	0.00e+00	0	42	0	167772160	65	4756
2026-01-29 05:10:59.46	48.69	10.63	-46.8	-48.8	17.4	0.00e+00	0	41	0	174063616	65	4465
2026-01-29 05:11:02.48	48.33	10.84	-46.9	-49.0	17.3	0.00e+00	0	42	0	179306496	65	4546
2026-01-29 05:11:05.51	47.97	11.04	-46.7	-48.6	17.6	0.00e+00	0	42	0	184549376	65	4366
2026-01-29 05:11:08.53	47.60	11.25	-46.5	-48.4	17.8	0.00e+00	0	42	0	190840832	64	4520
2026-01-29 05:11:11.55	47.22	11.46	-46.4	-48.3	17.9	0.00e+00	0	42	0	196083712	64	4451
2026-01-29 05:11:14.57	46.84	11.67	-46.6	-48.5	17.8	0.00e+00	0	42	0	202375168	64	4583
2026-01-29 05:11:17.59	46.46	11.87	-46.3	-48.2	18.1	0.00e+00	0	42	0	207618048	64	4402
2026-01-29 05:11:20.61	46.07	12.08	-46.4	-48.2	18.0	0.00e+00	0	42	0	212860928	64	4422
2026-01-29 05:11:23.63	45.67	12.29	-46.2	-47.9	18.4	0.00e+00	0	42	0	219152384	63	4533
2026-01-29 05:11:26.66	45.27	12.51	-46.3	-48.0	18.3	0.00e+00	0	42	0	224395264	63	4584
2026-01-29 05:11:29.67	44.86	12.72	-46.2	-47.9	18.4	0.00e+00	0	42	0	230686720	63	4531
2026-01-29 05:11:32.70	44.45	12.93	-46.4	-48.1	18.2	0.00e+00	0	42	0	235929600	63	4651
2026-01-29 05:11:35.73	44.03	13.14	-46.2	-48.0	18.4	0.00e+00	0	42	0	242221056	63	4566
2026-01-29 05:11:38.75	43.60	13.35	-46.2	-48.1	18.3	0.00e+00	0	42	0	247463936	63	4599
2026-01-29 05:11:41.77	43.17	13.56	-46.0	-47.8	18.5	0.00e+00	0	42	0	252706816	63	4455
2026-01-29 05:11:44.79	42.73	13.77	-46.2	-48.0	18.4	0.00e+00	0	42	0	258998272	63	4575
2026-01-29 05:11:47.82	42.28	13.99	-46.5	-48.4	18.0	0.00e+00	0	42	0	264241152	63	4788
2026-01-29 05:11:50.84	41.83	14.20	-46.4	-48.2	18.2	0.00e+00	0	42	0	270532608	63	4680
2026-01-29 05:11:53.86	41.37	14.41	-46.3	-48.1	18.3	0.00e+00	0	42	0	275775488	63	4608
2026-01-29 05:11:56.88	40.91	14.62	-46.2	-47.9	18.5	0.00e+00	0	42	0	281018368	63	4543
2026-01-29 05:11:59.91	40.44	14.84	-46.6	-48.5	18.0	0.00e+00	0	42	0	287309824	63	4858
2026-01-29 05:12:02.93	39.96	15.05	-46.6	-48.5	17.9	0.00e+00	0	42	0	292552704	64	4567
2026-01-29 05:12:05.95	39.47	15.26	-47.0	-49.0	17.3	0.00e+00	0	42	0	298844160	64	4859
2026-01-29 05:12:08.97	38.98	15.47	-46.7	-48.7	17.7	0.00e+00	0	42	0	304087040	64	4684
2026-01-29 05:12:11.99	38.48	15.68	-46.3	-48.1	18.2	0.00e+00	0	42	0	309329920	64	4384
2026-01-29 05:12:15.02	37.97	15.89	-46.6	-48.5	17.9	0.00e+00	0	42	0	315621376	64	4549
2026-01-29 05:12:18.03	37.46	16.10	-46.5	-48.3	18.0	0.00e+00	0	42	0	320864256	64	4485
2026-01-29 05:12:21.06	36.93	16.31	-46.5	-48.3	18.0	0.00e+00	0	42	0	327155712	64	4474
2026-01-29 05:12:24.09	36.40	16.52	-46.2	-47.9	18.4	0.00e+00	0	42	0	332398592	64	4289
2026-01-29 05:12:27.11	35.87	16.73	-46.5	-48.3	18.1	0.00e+00	0	42	0	337641472	63	4732
2026-01-29 05:12:30.13	35.32	16.94	-46.8	-48.7	17.7	0.00e+00	0	42	0	343932928	64	4680
2026-01-29 05:12:33.15	34.77	17.14	-46.9	-48.9	17.5	0.00e+00	0	42	0	349175808	64	4769
2026-01-29 05:12:36.17	34.21	17.35	-46.5	-48.4	18.0	0.00e+00	0	42	0	355467264	64	4525
2026-01-29 05:12:39.19	33.64	17.55	-45.7	-47.3	19.2	0.00e+00	0	42	0	360710144	63	4221
2026-01-29 05:12:42.22	33.07	17.76	-45.8	-47.4	19.0	0.00e+00	0	42	0	367001600	63	4289
2026-01-29 05:12:45.24	32.48	17.96	-45.7	-47.4	19.1	0.00e+00	0	42	0	372244480	63	4256
2026-01-29 05:12:48.26	31.89	18.16	-45.8	-47.5	19.0	0.00e+00	0	42	0	377487360	63	4292
2026-01-29 05:12:51.28	31.29	18.36	-45.3	-46.9	19.5	0.00e+00	0	42	0	383778816	62	4261
2026-01-29 05:12:54.30	30.69	18.55	-45.0	-46.5	19.9	0.00e+00	0	42	0	389021696	61	4303
2026-01-29 05:12:57.33	30.07	18.75	-45.1	-46.6	19.8	0.00e+00	0	42	0	395313152	61	4380
2026-01-29 05:13:00.35	29.45	18.94	-44.9	-46.4	20.0	0.00e+00	0	42	0	400556032	61	4263
2026-01-29 05:13:03.37	28.82	19.13	-44.7	-46.1	20.3	0.00e+00	0	42	0	405798912	61	4101
2026-01-29 05:13:06.39	28.18	19.32	-44.5	-45.8	20.6	0.00e+00	0	42	0	412090368	60	4207
2026-01-29 05:13:09.42	27.53	19.51	-44.6	-45.9	20.4	0.00e+00	0	42	0	417333248	60	4266
2026-01-29 05:13:12.44	26.88	19.69	-44.6	-46.0	20.4	0.00e+00	0	42	0	423624704	60	4307
2026-01-29 05:13:15.46	26.21	19.87	-44.8	-46.2	20.2	0.00e+00	0	42	0	428867584	60	4439
2026-01-29 05:13:18.49	25.54	20.05	-44.4	-45.7	20.6	0.00e+00	0	42	0	434110464	60	4193
2026-01-29 05:13:21.51	24.86	20.23	-44.4	-45.7	20.7	0.00e+00	0	42	0	440401920	60	4163
2026-01-29 05:13:24.54	24.17	20.40	-44.3	-45.6	20.8	0.00e+00	0	42	0	445644800	60	4105
2026-01-29 05:13:27.56	23.48	20.57	-44.4	-45.7	20.7	0.00e+00	0	42	0	451936256	60	4164
2026-01-29 05:13:30.58	22.78	20.73	-44.2	-45.5	21.2	0.00e+00	0	42	0	457179136	59	4312
2026-01-29 05:13:33.60	22.07	20.89	-44.5	-45.8	20.9	0.00e+00	0	42	0	462422016	59	4469
2026-01-29 05:13:36.62	21.35	21.05	-44.1	-45.3	21.4	0.00e+00	0	42	0	468713472	59	4204
2026-01-29 05:13:39.64	20.63	21.21	-44.5	-45.7	21.0	0.00e+00	0	42	0	473956352	59	4426
2026-01-29 05:13:42.67	19.90	21.36	-44.5	-45.8	21.0	0.00e+00	0	42	0	480247808	59	4465
2026-01-29 05:13:45.69	19.16	21.50	-44.1	-45.4	21.1	0.00e+00	0	42	0	485490688	60	4009
2026-01-29 05:13:48.71	18.41	21.65	-44.1	-45.3	21.2	0.00e+00	0	42	0	490733568	60	3976
2026-01-29 05:13:51.72	17.66	21.78	-44.2	-45.4	21.1	0.00e+00	0	42	0	497025024	60	4028
2026-01-29 05:13:54.74	16.91	21.92	-44.2	-45.4	21.3	0.00e+00	0	42	0	502267904	59	4287
2026-01-29 05:13:57.76	16.14	22.04	-44.3	-45.5	21.2	0.00e+00	0	42	0	508559360	59	4327
2026-01-29 05:14:00.78	15.37	22.17	-44.0	-45.2	21.6	0.00e+00	0	42	0	513802240	59	4169
2026-01-29 05:14:03.80	14.59	22.28	-44.4	-45.6	21.2	0.00e+00	0	42	0	519045120	59	4391
2026-01-29 05:14:06.82	13.81	22.40	-44.6	-45.9	21.0	0.00e+00	0	42	0	525336576	59	4495
2026-01-29 05:14:09.84	13.02	22.51	-44.8	-46.1	20.5	0.00e+00	0	42	0	530579456	60	4341
2026-01-29 05:14:12.86	12.23	22.61	-45.5	-47.0	19.7	0.00e+00	0	42	0	536870912	61	4566
2026-01-29 05:14:15.88	11.43	22.70	-45.9	-47.5	19.2	0.00e+00	0	42	0	542113792	62	4582
2026-01-29 05:14:18.91	10.62	22.80	-45.5	-47.0	19.7	0.00e+00	0	42	0	547356672	62	4297
2026-01-29 05:14:21.93	9.81	22.88	-45.2	-46.6	20.0	0.00e+00	0	42	0	553648128	62	4142
2026-01-29 05:14:24.95	9.00	22.96	-45.2	-46.6	20.1	0.00e+00	0	42	0	558891008	62	4116
2026-01-29 05:14:27.97	8.18	23.03	-45.1	-46.5	20.1	0.00e+00	0	42	0	565182464	61	4333
2026-01-29 05:14:31.00	7.36	23.10	-45.7	-47.2	19.5	0.00e+00	0	42	0	570425344	62	4429
2026-01-29 05:14:34.02	6.53	23.16	-45.8	-47.3	19.4	0.00e+00	0	42	0	575668224	62	4463
2026-01-29 05:14:37.04	5.71	23.22	-46.0	-47.6	19.1	0.00e+00	0	42	0	581959680	62	4602
2026-01-29 05:14:40.07	4.87	23.26	-46.3	-48.0	18.8	0.00e+00	0	42	0	587202560	63	4555
2026-01-29 05:14:43.09	4.04	23.31	-46.1	-47.7	19.1	0.00e+00	0	42	0	593494016	63	4414
2026-01-29 05:14:46.11	3.21	23.34	-46.3	-48.0	18.8	0.00e+00	0	42	0	598736896	63	4560
2026-01-29 05:14:49.14	2.37	23.37	-46.9	-48.8	18.0	0.00e+00	0	42	0	603979776	64	4727
2026-01-29 05:14:52.16	1.53	23.39	-46.6	-48.4	18.3	0.00e+00	0	42	0	610271232	64	4541
2026-01-29 05:14:55.18	0.69	23.41	-45.9	-47.5	19.2	0.00e+00	0	42	0	615514112	63	4307
2026-01-29 05:14:58.20	359.85	23.42	-45.1	-46.5	20.0	0.00e+00	0	42	0	621805568	62	4092
2026-01-29 05:15:01.22	359.01	23.42	-45.5	-47.0	19.6	0.00e+00	0	42	0	627048448	62	4329
2026-01-29 05:15:04.24	358.17	23.41	-45.5	-47.0	19.7	0.00e+00	0	42	0	632291328	62	4305
2026-01-29 05:15:07.26	357.34	23.40	-45.5	-47.0	19.7	0.00e+00	0	42	0	638582784	62	4295
2026-01-29 05:15:10.28	356.50	23.38	-45.2	-46.6	20.0	0.00e+00	0	42	0	643825664	62	4113
2026-01-29 05:15:13.30	355.66	23.36	-45.2	-46.6	20.0	0.00e+00	0	42	0	650117120	62	4138
2026-01-29 05:15:16.32	354.83	23.33	-44.8	-46.1	20.5	0.00e+00	0	42	0	655360000	61	4127
2026-01-29 05:15:19.34	353.99	23.29	-45.0	-46.3	20.3	0.00e+00	0	42	0	660602880	61	4230
2026-01-29 05:15:22.36	353.16	23.25	-44.9	-46.2	20.4	0.00e+00	0	42	0	666894336	61	4161
2026-01-29 05:15:25.38	352.33	23.20	-44.3	-45.5	21.0	0.00e+00	0	42	0	672137216	60	4083
2026-01-29 05:15:28.41	351.50	23.14	-44.4	-45.7	20.9	0.00e+00	0	42	0	678428672	60	4164
2026-01-29 05:15:31.43	350.68	23.08	-44.4	-45.6	21.3	0.00e+00	0	42	0	683671552	59	4350
2026-01-29 05:15:34.45	349.86	23.01	-44.2	-45.4	21.4	0.00e+00	0	42	0	688914432	59	4278
2026-01-29 05:15:37.48	349.04	22.93	-44.3	-45.5	21.5	0.00e+00	0	42	0	695205888	59	4294
2026-01-29 05:15:40.48	348.24	22.85	-44.5	-45.7	20.8	0.00e+00	0	42	0	700448768	60	4187
2026-01-29 05:15:43.51	347.43	22.76	-44.7	-46.0	20.6	0.00e+00	0	42	0	706740224	60	4331
2026-01-29 05:15:46.53	346.62	22.67	-44.3	-45.5	21.4	0.00e+00	0	42	0	711983104	59	4317
2026-01-29 05:15:49.55	345.83	22.57	-44.4	-45.6	21.3	0.00e+00	0	42	0	717225984	59	4382
2026-01-29 05:15:52.57	345.03	22.47	-44.7	-46.0	20.6	0.00e+00	0	42	0	723517440	60	4309
2026-01-29 05:15:55.60	344.24	22.36	-44.1	-45.3	21.2	0.00e+00	0	42	0	728760320	60	3959
2026-01-29 05:15:58.62	343.46	22.24	-44.2	-45.4	21.1	0.00e+00	0	42	0	735051776	60	4047
2026-01-29 05:16:01.64	342.69	22.13	-44.8	-46.1	20.5	0.00e+00	0	42	0	740294656	60	4361
2026-01-29 05:16:04.67	341.92	22.00	-45.8	-47.3	19.4	0.00e+00	0	42	0	745537536	62	4470
2026-01-29 05:16:07.69	341.15	21.87	-46.2	-47.8	18.9	0.00e+00	0	42	0	751828992	63	4484
2026-01-29 05:16:10.71	340.40	21.74	-45.8	-47.3	19.4	0.00e+00	0	42	0	757071872	63	4213
2026-01-29 05:16:13.74	339.65	21.60	-45.7	-47.2	19.5	0.00e+00	0	42	0	763363328	62	4427
2026-01-29 05:16:16.75	338.91	21.45	-45.7	-47.2	19.5	0.00e+00	0	42	0	768606208	62	4428
2026-01-29 05:16:19.77	338.17	21.31	-45.5	-47.0	19.6	0.00e+00	0	42	0	773849088	62	4301
2026-01-29 05:16:22.79	337.44	21.15	-45.3	-46.8	19.9	0.00e+00	0	42	0	780140544	62	4196
2026-01-29 05:16:25.80	336.72	21.00	-45.3	-46.7	19.9	0.00e+00	0	42	0	785383424	62	4169
2026-01-29 05:16:28.83	336.01	20.84	-45.2	-46.6	20.0	0.00e+00	0	42	0	791674880	62	4138
2026-01-29 05:16:31.85	335.30	20.68	-46.0	-47.6	19.1	0.00e+00	0	42	0	796917760	62	4633
2026-01-29 05:16:34.87	334.60	20.51	-46.2	-47.9	18.8	0.00e+00	0	42	0	802160640	63	4505
2026-01-29 05:16:37.89	333.91	20.34	-46.4	-48.2	18.5	0.00e+00	0	42	0	808452096	63	4696
2026-01-29 05:16:40.91	333.23	20.17	-47.1	-49.3	17.4	0.00e+00	0	42	0	813694976	65	4710
2026-01-29 05:16:43.93	332.56	19.99	-47.3	-49.5	17.1	0.00e+00	0	42	0	819986432	66	4579
2026-01-29 05:16:46.96	331.89	19.81	-46.0	-47.7	18.9	0.00e+00	0	42	0	825229312	64	4173
2026-01-29 05:16:49.97	331.23	19.63	-45.3	-46.8	19.8	0.00e+00	0	42	0	830472192	62	4204
2026-01-29 05:16:52.99	330.58	19.45	-44.8	-46.2	20.3	0.00e+00	0	42	0	836763648	61	4158
2026-01-29 05:16:56.01	329.93	19.26	-44.6	-46.0	20.5	0.00e+00	0	42	0	842006528	61	4062
2026-01-29 05:16:59.03	329.30	19.07	-44.6	-45.9	20.4	0.00e+00	0	42	0	848297984	61	4007
2026-01-29 05:17:02.06	328.67	18.88	-44.4	-45.7	20.7	0.00e+00	0	42	0	853540864	60	4168
2026-01-29 05:17:05.08	328.05	18.68	-44.7	-46.0	20.4	0.00e+00	0	42	0	858783744	60	4318
2026-01-29 05:17:08.10	327.44	18.49	-45.8	-47.4	19.2	0.00e+00	0	42	0	865075200	62	4533
2026-01-29 05:17:11.12	326.83	18.29	-46.5	-48.3	18.4	0.00e+00	0	42	0	870318080	63	4720
2026-01-29 05:17:14.14	326.24	18.09	-45.9	-47.6	19.0	0.00e+00	0	42	0	876609536	63	4347
2026-01-29 05:17:17.17	325.65	17.89	-45.3	-46.8	19.7	0.00e+00	0	42	0	881852416	62	4196
2026-01-29 05:17:20.19	325.07	17.69	-44.8	-46.2	20.2	0.00e+00	0	42	0	887095296	61	4165
2026-01-29 05:17:23.21	324.49	17.49	-44.4	-45.7	20.7	0.00e+00	0	42	0	893386752	60	4153
2026-01-29 05:17:26.23	323.93	17.28	-45.1	-46.6	19.9	0.00e+00	0	42	0	898629632	60	4622
2026-01-29 05:17:29.25	323.37	17.08	-45.7	-47.3	19.2	0.00e+00	0	42	0	904921088	62	4472
2026-01-29 05:17:32.27	322.82	16.87	-45.3	-46.8	19.7	0.00e+00	0	42	0	910163968	62	4210
2026-01-29 05:17:35.29	322.28	16.66	-45.7	-47.3	19.3	0.00e+00	0	42	0	915406848	62	4449
2026-01-29 05:17:38.32	321.75	16.46	-45.8	-47.4	19.1	0.00e+00	0	42	0	921698304	62	4544
2026-01-29 05:17:41.33	321.22	16.25	-45.5	-47.0	19.5	0.00e+00	0	42	0	926941184	62	4307
2026-01-29 05:17:44.35	320.70	16.04	-45.3	-46.8	19.8	0.00e+00	0	42	0	933232640	62	4215
2026-01-29 05:17:47.37	320.19	15.83	-44.9	-46.2	20.2	0.00e+00	0	42	0	938475520	61	4183
2026-01-29 05:17:50.39	319.69	15.62	-45.2	-46.6	19.9	0.00e+00	0	42	0	943718400	61	4360
2026-01-29 05:17:53.42	319.19	15.40	-44.8	-46.2	20.2	0.00e+00	0	42	0	950009856	61	4152
2026-01-29 05:17:56.44	318.70	15.19	-44.2	-45.4	20.9	0.00e+00	0	42	0	955252736	60	4031
2026-01-29 05:17:59.46	318.22	14.98	-44.2	-45.4	20.9	0.00e+00	0	42	0	961544192	60	4025
2026-01-29 05:18:02.48	317.74	14.77	-44.5	-45.7	20.6	0.00e+00	0	42	0	966787072	60	4188
2026-01-29 05:18:05.50	317.27	14.56	-45.0	-46.3	20.0	0.00e+00	0	42	0	972029952	60	4486
2026-01-29 05:18:08.51	316.81	14.35	-45.0	-46.4	20.0	0.00e+00	0	42	0	978321408	60	4542
2026-01-29 05:18:11.54	316.35	14.13	-44.7	-46.0	20.4	0.00e+00	0	42	0	983564288	60	4324
2026-01-29 05:18:14.56	315.90	13.92	-44.4	-45.6	20.8	0.00e+00	0	42	0	989855744	60	4139
2026-01-29 05:18:17.59	315.46	13.71	-44.8	-46.1	20.3	0.00e+00	0	42	0	995098624	60	4361
2026-01-29 05:18:20.61	315.02	13.50	-45.6	-47.1	19.4	0.00e+00	0	42	0	1000341504	61	4623
2026-01-29 05:18:23.64	314.59	13.28	-45.6	-47.1	19.3	0.00e+00	0	42	0	1006632960	61	4623
2026-01-29 05:18:26.66	314.17	13.07	-45.7	-47.2	19.2	0.00e+00	0	42	0	1011875840	61	4697
2026-01-29 05:18:29.68	313.75	12.86	-44.9	-46.3	20.1	0.00e+00	0	42	0	1018167296	61	4209
2026-01-29 05:18:32.70	313.34	12.65	-44.6	-46.0	20.3	0.00e+00	0	42	0	1023410176	61	4059
2026-01-29 05:18:35.73	312.93	12.44	-44.5	-45.8	20.5	0.00e+00	0	42	0	1029701632	60	4201
2026-01-29 05:18:38.74	312.53	12.23	-45.5	-47.0	19.4	0.00e+00	0	42	0	1034944512	61	4567
2026-01-29 05:18:41.76	312.14	12.02	-46.3	-48.1	18.4	0.00e+00	0	42	0	1040187392	63	4616
2026-01-29 05:18:44.79	311.75	11.81	-46.1	-47.8	18.6	0.00e+00	0	42	0	1046478848	63	4444
2026-01-29 05:18:47.81	311.37	11.60	-45.7	-47.2	19.1	0.00e+00	0	42	0	1051721728	63	4181
2026-01-29 05:18:50.83	310.99	11.39	-45.3	-46.8	19.5	0.00e+00	0	42	0	1058013184	62	4194
2026-01-29 05:18:53.85	310.62	11.19	-45.3	-46.7	19.5	0.00e+00	0	42	0	1063256064	62	4187
2026-01-29 05:18:56.87	310.25	10.98	-45.4	-46.8	19.5	0.00e+00	0	42	0	1068498944	62	4228
2026-01-29 05:18:59.89	309.89	10.77	-45.6	-47.1	19.2	0.00e+00	0	42	0	1074790400	62	4349
2026-01-29 05:19:02.91	309.53	10.57	-45.8	-47.4	18.8	0.00e+00	0	42	0	1080033280	62	4528
2026-01-29 05:19:05.93	309.18	10.36	-46.2	-47.9	18.4	0.00e+00	0	42	0	1086324736	62	4784
2026-01-29 05:19:08.95	308.84	10.16	-46.3	-48.0	18.3	0.00e+00	0	42	0	1091567616	63	4596
2026-01-29 05:19:11.97	308.50	9.95	-46.2	-47.9	18.3	0.00e+00	0	42	0	1096810496	63	4545
2026-01-29 05:19:15.00	308.16	9.75	-46.5	-48.3	17.9	0.00e+00	0	42	0	1103101952	63	4756
2026-01-29 05:19:18.01	307.83	9.55	-46.8	-48.8	17.3	0.00e+00	0	42	0	1108344832	64	4751
2026-01-29 05:19:21.04	307.50	9.35	-46.9	-48.9	17.3	0.00e+00	0	42	0	1114636288	64	4793
2026-01-29 05:19:24.05	307.18	9.15	-46.7	-48.7	17.5	0.00e+00	0	42	0	1119879168	64	4677
2026-01-29 05:19:27.07	306.86	8.95	-45.9	-47.6	18.6	0.00e+00	0	42	0	1125122048	63	4352
2026-01-29 05:19:30.09	306.55	8.75	-45.9	-47.5	18.6	0.00e+00	0	42	0	1131413504	63	4327
2026-01-29 05:19:33.12	306.24	8.55	-46.2	-47.9	18.3	0.00e+00	0	42	0	1136656384	63	4526
2026-01-29 05:19:36.14	305.94	8.35	-46.6	-48.5	17.7	0.00e+00	0	42	0	1142947840	63	4820
2026-01-29 05:19:39.17	305.64	8.15	-46.6	-48.6	17.5	0.00e+00	0	42	0	1148190720	64	4613
2026-01-29 05:19:42.19	305.34	7.95	-46.7	-48.7	17.3	0.00e+00	0	42	0	1153433600	64	4669
2026-01-29 05:19:45.21	305.05	7.76	-46.3	-48.1	18.0	0.00e+00	0	42	0	1159725056	64	4352
2026-01-29 05:19:48.24	304.76	7.56	-46.2	-48.1	17.9	0.00e+00	0	42	0	1164967936	64	4345
2026-01-29 05:19:51.26	304.48	7.37	-46.4	-48.3	17.6	0.00e+00	0	42	0	1171259392	64	4492
2026-01-29 05:19:54.28	304.20	7.18	-46.5	-48.4	17.5	0.00e+00	0	42	0	1176502272	64	4524
2026-01-29 05:19:57.31	303.92	6.98	-46.8	-48.9	17.0	0.00e+00	0	42	0	1181745152	64	4774
2026-01-29 05:20:00.32	303.65	6.79	-47.2	-49.4	16.5	0.00e+00	0	42	0	1188036608	65	4782
2026-01-29 05:20:03.34	303.38	6.60	-47.6	-50.1	15.8	0.00e+00	0	42	0	1193279488	65	5183
2026-01-29 05:20:06.37	303.11	6.41	-47.8	-50.4	15.5	0.00e+00	0	42	0	1199570944	66	5049
2026-01-29 05:20:09.39	302.85	6.22	-47.9	-50.5	15.4	0.00e+00	0	42	0	1204813824	66	5122
2026-01-29 05:20:12.41	302.59	6.03	-47.9	-50.5	15.3	0.00e+00	0	42	0	1210056704	66	5139
2026-01-29 05:20:15.43	302.34	5.85	-47.8	-50.5	15.3	0.00e+00	0	42	0	1216348160	66	5123
2026-01-29 05:20:18.45	302.09	5.66	-47.6	-50.0	15.7	0.00e+00	0	42	0	1221591040	66	4864
2026-01-29 05:20:21.48	301.84	5.47	-47.7	-50.2	15.5	0.00e+00	0	42	0	1227882496	66	4965
2026-01-29 05:20:24.50	301.59	5.29	-47.7	-50.3	15.4	0.00e+00	0	42	0	1233125376	66	5000
2026-01-29 05:20:27.52	301.35	5.10	-48.1	-51.0	14.6	0.00e+00	0	42	0	1239416832	66	5437
2026-01-29 05:20:30.54	301.12	4.92	-52.1	-67.0	3.8	1.49e+00	0	42	104	1243611136	74	21636
2026-01-29 05:20:33.57	300.88	4.74	-52.5	-67.4	3.8	1.49e+00	0	42	104	1243611136	75	21378
2026-01-29 05:20:36.59	300.65	4.55	-52.8	-67.5	3.8	1.49e+00	0	42	104	1243611136	76	20483
2026-01-29 05:20:39.61	300.42	4.37	-53.0	-67.9	3.8	1.49e+00	0	42	104	1243611136	76	21469
2026-01-29 05:20:42.64	300.19	4.19	-53.1	-68.1	3.8	1.49e+00	0	42	104	1243611136	76	21868
2026-01-29 05:20:45.66	299.97	4.01	-53.2	-68.1	3.8	1.49e+00	0	42	104	1243611136	76	21972
2026-01-29 05:20:48.69	299.75	3.83	-53.1	-68.1	3.8	1.49e+00	0	42	104	1243611136	76	21817
2026-01-29 05:20:51.70	299.53	3.65	-53.1	-68.1	3.8	1.49e+00	0	42	104	1243611136	76	21769
2026-01-29 05:20:54.72	299.32	3.48	-53.1	-68.0	3.8	1.49e+00	0	42	104	1243611136	76	21707
2026-01-29 05:20:57.75	299.10	3.30	-53.1	-68.0	3.8	1.49e+00	0	42	104	1243611136	76	21694
2026-01-29 05:21:00.77	298.89	3.12	-53.1	-68.0	3.8	1.49e+00	0	42	104	1243611136	76	21686
2026-01-29 05:21:03.79	298.69	2.95	-53.0	-68.0	3.8	1.49e+00	0	42	104	1243611136	76	21651
2026-01-29 05:21:06.81	298.48	2.77	-53.0	-68.0	3.8	1.49e+00	0	42	104	1243611136	76	21676
2026-01-29 05:21:09.83	298.28	2.60	-53.0	-68.0	3.8	1.49e+00	0	42	104	1243611136	76	21574
2026-01-29 05:21:12.85	298.08	2.43	-53.0	-68.0	3.8	1.49e+00	0	42	104	1243611136	76	21568
2026-01-29 05:21:15.88	297.88	2.25	-53.0	-68.0	3.8	1.49e+00	0	42	104	1243611136	76	21562
2026-01-29 05:21:18.91	297.69	2.08	-53.0	-68.0	3.8	1.49e+00	0	42	104	1243611136	76	21588

#Closed at: 2026-01-29 05:21:21
#Recorded file [1243 MB]: D:/lorett/data/31041_260129_080843.dat