passes_logs/2026/01/29/R3.2S_Murmansk/R3.2S_Murmansk__20260129_232019_NOAA_21_JPSS-2_rec.log

#Pass ID: 20260129_232019_NOAA 21 (JPSS-2)
#Satellite: NOAA 21 (JPSS-2)
#Configuration: NOAA-21
#almurnet v.1.7.20251203
#Start time: 2026-01-29 23:20:20

#Version: 2.2.20231116
#Station: R3.2S_Murmansk
#Location: 33.079688 lon 68.888172 lat
#TLE: 1 54234U 22150A   26029.46216196  .00000141  00000+0  87503-4 0  9994
#TLE: 2 54234  98.7512 330.1880 0000955 196.3413 163.7732 14.19540905166865

#Time	Az	El	Level	Level2	SNR	BER	BlckErr	Temp	State	Recorded	gain1	gain2
2026-01-29 23:20:20.43	20.49	2.07	-54.0	-66.8	3.8	1.49e+00	0	42	0	0	79	15891
2026-01-29 23:20:24.44	20.66	2.31	-54.0	-66.7	3.8	1.49e+00	0	41	104	0	78	16645
2026-01-29 23:20:28.47	20.83	2.56	-53.9	-66.7	3.8	1.49e+00	0	42	104	0	78	16606
2026-01-29 23:20:32.50	21.00	2.81	-54.0	-66.7	3.8	1.49e+00	0	41	104	0	78	16644
2026-01-29 23:20:36.53	21.18	3.06	-53.9	-66.6	3.8	1.49e+00	0	42	104	0	78	16500
2026-01-29 23:20:40.56	21.36	3.32	-54.1	-66.9	3.8	1.49e+00	0	42	104	0	78	16975
2026-01-29 23:20:44.58	21.54	3.57	-54.2	-67.0	3.8	1.49e+00	0	41	104	0	79	16252
2026-01-29 23:20:48.61	21.72	3.83	-54.1	-66.9	3.8	1.49e+00	0	42	104	0	79	16012
2026-01-29 23:20:52.64	21.91	4.09	-54.1	-66.8	3.8	1.49e+00	0	42	104	0	79	15849
2026-01-29 23:20:56.67	22.10	4.36	-53.6	-66.3	3.8	1.49e+00	0	41	104	0	79	15006
2026-01-29 23:21:00.70	22.29	4.62	-52.5	-65.2	3.8	1.49e+00	0	42	104	0	77	14860
2026-01-29 23:21:04.73	22.49	4.89	-47.1	-49.2	14.5	7.00e-07	0	42	0	8388608	66	4403
2026-01-29 23:21:08.76	22.69	5.16	-44.7	-46.0	17.6	0.00e+00	0	41	0	20971520	61	4098
2026-01-29 23:21:12.79	22.89	5.43	-44.6	-45.8	17.7	0.00e+00	0	42	0	30408704	61	3997
2026-01-29 23:21:16.82	23.10	5.71	-44.3	-45.5	18.5	0.00e+00	0	41	0	42991616	59	4300
2026-01-29 23:21:20.85	23.31	5.99	-44.2	-45.4	18.6	0.00e+00	0	41	0	55574528	59	4249
2026-01-29 23:21:24.88	23.52	6.27	-43.9	-45.1	18.9	0.00e+00	0	41	0	68157440	59	4118
2026-01-29 23:21:28.91	23.74	6.55	-44.0	-45.1	18.9	0.00e+00	0	41	0	80740352	59	4132
2026-01-29 23:21:32.95	23.96	6.84	-43.9	-45.0	19.1	0.00e+00	0	41	0	93323264	59	4062
2026-01-29 23:21:36.99	24.19	7.13	-43.8	-44.9	19.2	0.00e+00	0	41	0	105906176	59	4046
2026-01-29 23:21:41.01	24.42	7.42	-43.6	-44.7	19.4	0.00e+00	0	41	0	118489088	59	3921
2026-01-29 23:21:45.04	24.65	7.72	-43.6	-44.6	19.5	0.00e+00	0	41	0	131072000	58	4142
2026-01-29 23:21:49.07	24.89	8.02	-43.6	-44.7	19.4	0.00e+00	0	41	0	143654912	58	4151
2026-01-29 23:21:53.09	25.13	8.32	-43.5	-44.5	19.6	0.00e+00	0	41	0	156237824	58	4087
2026-01-29 23:21:57.12	25.38	8.63	-43.5	-44.5	19.7	0.00e+00	0	41	0	168820736	58	4086
2026-01-29 23:22:01.14	25.63	8.93	-43.3	-44.3	19.8	0.00e+00	0	42	0	181403648	58	3988
2026-01-29 23:22:05.17	25.89	9.25	-43.0	-43.9	20.1	0.00e+00	0	41	0	193986560	57	4047
2026-01-29 23:22:09.19	26.15	9.56	-42.8	-43.7	20.4	0.00e+00	0	41	0	206569472	57	3945
2026-01-29 23:22:13.22	26.42	9.88	-42.7	-43.6	20.5	0.00e+00	0	41	0	219152384	57	3893
2026-01-29 23:22:17.25	26.69	10.20	-42.6	-43.5	20.7	0.00e+00	0	42	0	231735296	57	3842
2026-01-29 23:22:21.27	26.97	10.53	-42.6	-43.5	20.7	0.00e+00	0	41	0	244318208	56	4071
2026-01-29 23:22:25.30	27.26	10.86	-42.2	-43.1	21.1	0.00e+00	0	41	0	256901120	56	3871
2026-01-29 23:22:29.32	27.55	11.19	-42.1	-43.0	21.2	0.00e+00	0	41	0	269484032	56	3825
2026-01-29 23:22:33.35	27.84	11.53	-42.3	-43.1	21.1	0.00e+00	0	41	0	282066944	56	3912
2026-01-29 23:22:37.38	28.15	11.87	-41.9	-42.8	21.3	0.00e+00	0	42	0	294649856	55	3970
2026-01-29 23:22:41.41	28.46	12.22	-41.7	-42.6	21.5	0.00e+00	0	41	0	307232768	55	3881
2026-01-29 23:22:45.43	28.78	12.57	-41.6	-42.5	21.6	0.00e+00	0	41	0	319815680	55	3837
2026-01-29 23:22:49.46	29.10	12.92	-41.6	-42.4	21.7	0.00e+00	0	41	0	332398592	55	3819
2026-01-29 23:22:53.48	29.43	13.28	-41.5	-42.4	21.7	0.00e+00	0	42	0	344981504	54	4011
2026-01-29 23:22:57.51	29.77	13.65	-41.4	-42.2	21.9	0.00e+00	0	42	0	357564416	54	3942
2026-01-29 23:23:01.53	30.12	14.01	-41.5	-42.3	21.8	0.00e+00	0	41	0	370147328	54	4000
2026-01-29 23:23:05.57	30.48	14.39	-41.5	-42.3	21.8	0.00e+00	0	42	0	382730240	54	4003
2026-01-29 23:23:09.59	30.84	14.77	-41.5	-42.3	21.8	0.00e+00	0	41	0	395313152	54	3986
2026-01-29 23:23:13.62	31.22	15.15	-41.4	-42.2	22.0	0.00e+00	0	41	0	407896064	54	3945
2026-01-29 23:23:17.65	31.60	15.54	-41.5	-42.4	21.9	0.00e+00	0	42	0	420478976	54	4011
2026-01-29 23:23:21.67	31.99	15.93	-41.7	-42.5	21.7	0.00e+00	0	41	0	433061888	54	4093
2026-01-29 23:23:25.70	32.40	16.33	-41.7	-42.5	21.7	0.00e+00	0	41	0	445644800	54	4089
2026-01-29 23:23:29.73	32.81	16.73	-41.7	-42.5	21.8	0.00e+00	0	41	0	458227712	54	4089
2026-01-29 23:23:33.76	33.23	17.14	-41.8	-42.7	21.7	0.00e+00	0	41	0	470810624	54	4149
2026-01-29 23:23:37.79	33.67	17.56	-42.1	-43.0	21.4	0.00e+00	0	41	0	483393536	54	4320
2026-01-29 23:23:41.82	34.12	17.98	-42.2	-43.0	21.3	0.00e+00	0	41	0	495976448	54	4338
2026-01-29 23:23:45.86	34.58	18.40	-42.1	-42.9	21.5	0.00e+00	0	41	0	508559360	54	4277
2026-01-29 23:23:49.89	35.05	18.84	-41.9	-42.7	21.6	0.00e+00	0	41	0	521142272	54	4171
2026-01-29 23:23:53.91	35.53	19.27	-41.8	-42.6	21.7	0.00e+00	0	41	0	533725184	54	4140
2026-01-29 23:23:57.94	36.03	19.72	-41.8	-42.6	21.6	0.00e+00	0	42	0	546308096	54	4142
2026-01-29 23:24:01.97	36.54	20.16	-41.6	-42.4	21.8	0.00e+00	0	41	0	558891008	54	4046
2026-01-29 23:24:06.01	37.07	20.62	-41.5	-42.3	22.0	0.00e+00	0	41	0	571473920	54	3966
2026-01-29 23:24:10.04	37.61	21.08	-41.4	-42.2	22.0	0.00e+00	0	41	0	584056832	54	3943
2026-01-29 23:24:14.06	38.17	21.55	-41.1	-41.9	22.2	0.00e+00	0	41	0	596639744	54	3819
2026-01-29 23:24:18.10	38.75	22.02	-40.8	-41.6	22.5	0.00e+00	0	41	0	609222656	53	3892
2026-01-29 23:24:22.13	39.34	22.50	-41.0	-41.8	22.5	0.00e+00	0	41	0	621805568	53	3966
2026-01-29 23:24:26.17	39.95	22.99	-40.6	-41.4	22.7	0.00e+00	0	41	0	634388480	53	3794
2026-01-29 23:24:30.19	40.58	23.48	-40.3	-41.0	23.1	0.00e+00	0	41	0	646971392	52	3853
2026-01-29 23:24:34.22	41.23	23.98	-40.6	-41.4	22.9	0.00e+00	0	41	0	659554304	52	4005
2026-01-29 23:24:38.25	41.90	24.48	-40.7	-41.4	22.9	0.00e+00	0	41	0	672137216	52	4049
2026-01-29 23:24:42.27	42.59	24.99	-40.5	-41.3	23.1	0.00e+00	0	41	0	684720128	52	3962
2026-01-29 23:24:46.28	43.30	25.50	-40.8	-41.5	22.8	0.00e+00	0	41	0	697303040	52	4088
2026-01-29 23:24:50.32	44.04	26.02	-40.9	-41.7	22.6	0.00e+00	0	41	0	709885952	52	4167
2026-01-29 23:24:54.36	44.80	26.55	-41.3	-42.1	22.4	0.00e+00	0	41	0	722468864	53	4113
2026-01-29 23:24:58.39	45.58	27.08	-42.0	-42.8	21.8	0.00e+00	0	41	0	735051776	54	4242
2026-01-29 23:25:02.42	46.40	27.61	-41.9	-42.7	21.9	0.00e+00	0	41	0	747634688	54	4172
2026-01-29 23:25:06.44	47.23	28.15	-42.2	-43.0	21.6	0.00e+00	0	41	0	760217600	54	4334
2026-01-29 23:25:10.46	48.09	28.69	-42.2	-43.0	21.5	0.00e+00	0	41	0	772800512	55	4097
2026-01-29 23:25:14.49	48.99	29.24	-41.7	-42.5	22.1	0.00e+00	0	41	0	785383424	55	3841
2026-01-29 23:25:18.52	49.92	29.79	-41.9	-42.7	21.9	0.00e+00	0	41	0	797966336	55	3947
2026-01-29 23:25:22.55	50.87	30.34	-41.5	-42.3	22.2	0.00e+00	0	41	0	810549248	55	3777
2026-01-29 23:25:26.57	51.86	30.89	-41.6	-42.4	22.2	0.00e+00	0	41	0	823132160	54	4013
2026-01-29 23:25:30.61	52.89	31.45	-41.5	-42.3	22.2	0.00e+00	0	41	0	835715072	54	3982
2026-01-29 23:25:34.63	53.94	32.00	-41.9	-42.7	21.9	0.00e+00	0	41	0	848297984	54	4183
2026-01-29 23:25:38.66	55.04	32.56	-42.2	-43.0	21.6	0.00e+00	0	41	0	860880896	55	4082
2026-01-29 23:25:42.70	56.17	33.11	-41.8	-42.6	22.1	0.00e+00	0	41	0	873463808	55	3879
2026-01-29 23:25:46.73	57.34	33.66	-42.5	-43.4	21.4	0.00e+00	0	41	0	886046720	55	4250
2026-01-29 23:25:50.75	58.55	34.21	-42.5	-43.4	21.4	0.00e+00	0	41	0	898629632	55	4253
2026-01-29 23:25:54.78	59.80	34.75	-43.2	-44.1	20.9	0.00e+00	0	41	0	911212544	57	4132
2026-01-29 23:25:58.81	61.09	35.29	-42.9	-43.8	21.2	0.00e+00	0	42	0	923795456	57	3982
2026-01-29 23:26:02.84	62.43	35.82	-43.3	-44.3	20.7	0.00e+00	0	41	0	936378368	57	4197
2026-01-29 23:26:06.87	63.81	36.34	-43.3	-44.2	20.8	0.00e+00	0	41	0	948961280	57	4168
2026-01-29 23:26:10.90	65.23	36.85	-43.1	-44.0	20.9	0.00e+00	0	41	0	961544192	57	4098
2026-01-29 23:26:14.93	66.69	37.35	-43.6	-44.6	20.4	0.00e+00	0	41	0	975175680	58	4135
2026-01-29 23:26:18.96	68.20	37.83	-43.1	-44.0	20.9	0.00e+00	0	41	0	986710016	58	3837
2026-01-29 23:26:22.98	69.75	38.30	-43.8	-44.8	20.3	0.00e+00	0	42	0	999292928	58	4233
2026-01-29 23:26:27.01	71.35	38.75	-43.8	-44.8	20.3	0.00e+00	0	41	0	1011875840	58	4206
2026-01-29 23:26:31.05	73.00	39.19	-44.2	-45.2	20.0	0.00e+00	0	41	0	1025507328	58	4411
2026-01-29 23:26:35.08	74.68	39.60	-44.4	-45.5	19.7	0.00e+00	0	41	0	1037041664	59	4298
2026-01-29 23:26:39.11	76.41	39.98	-44.3	-45.4	19.9	0.00e+00	0	41	0	1049624576	59	4260
2026-01-29 23:26:43.14	78.18	40.35	-44.2	-45.2	19.9	0.00e+00	0	41	0	1063256064	59	4172
2026-01-29 23:26:47.17	79.98	40.68	-44.0	-45.0	20.2	0.00e+00	0	41	0	1074790400	59	4060
2026-01-29 23:26:51.20	81.82	40.99	-44.3	-45.4	19.6	0.00e+00	0	41	0	1087373312	59	4250
2026-01-29 23:26:55.23	83.69	41.26	-44.2	-45.2	19.9	0.00e+00	0	41	0	1099956224	59	4165
2026-01-29 23:26:59.25	85.59	41.51	-44.2	-45.2	20.0	0.00e+00	0	41	0	1113587712	59	4184
2026-01-29 23:27:03.28	87.52	41.72	-44.0	-45.0	20.2	0.00e+00	0	42	0	1125122048	59	4070
2026-01-29 23:27:07.32	89.48	41.89	-43.9	-44.9	20.3	0.00e+00	0	41	0	1137704960	59	4021
2026-01-29 23:27:11.35	91.45	42.03	-43.9	-44.9	20.3	0.00e+00	0	41	0	1151336448	58	4266
2026-01-29 23:27:15.37	93.44	42.13	-44.6	-45.7	19.4	0.00e+00	0	42	0	1163919360	59	4404
2026-01-29 23:27:19.41	95.44	42.20	-44.1	-45.1	19.8	0.00e+00	0	41	0	1175453696	59	4130
2026-01-29 23:27:23.44	97.44	42.22	-44.3	-45.4	19.9	0.00e+00	0	41	0	1189085184	59	4247
2026-01-29 23:27:27.48	99.45	42.21	-44.1	-45.1	20.1	0.00e+00	0	41	0	1201668096	58	4362
2026-01-29 23:27:31.51	101.45	42.16	-44.5	-45.5	19.4	0.00e+00	0	41	0	1214251008	60	4095
2026-01-29 23:27:35.54	103.44	42.07	-44.4	-45.4	19.8	0.00e+00	0	41	0	1226833920	59	4269
2026-01-29 23:27:39.57	105.42	41.94	-44.1	-45.1	20.1	0.00e+00	0	41	0	1239416832	59	4111
2026-01-29 23:27:43.61	107.39	41.78	-43.7	-44.6	20.3	0.00e+00	0	41	0	1251999744	59	3911
2026-01-29 23:27:47.64	109.33	41.58	-44.1	-45.1	19.7	0.00e+00	0	41	0	1264582656	60	3890
2026-01-29 23:27:51.68	111.25	41.34	-44.0	-45.0	20.1	0.00e+00	0	41	0	1277165568	59	4092
2026-01-29 23:27:55.72	113.14	41.08	-44.4	-45.4	19.8	0.00e+00	0	41	0	1289748480	59	4285
2026-01-29 23:27:59.75	114.99	40.78	-44.3	-45.3	19.8	0.00e+00	0	41	0	1302331392	59	4215
2026-01-29 23:28:03.77	116.81	40.45	-44.3	-45.4	19.7	0.00e+00	0	41	0	1314914304	59	4248
2026-01-29 23:28:07.80	118.59	40.10	-43.5	-44.4	20.6	0.00e+00	0	41	0	1327497216	58	4030
2026-01-29 23:28:11.83	120.33	39.72	-43.7	-44.7	20.2	0.00e+00	0	41	0	1340080128	59	3935
2026-01-29 23:28:15.86	122.03	39.31	-43.6	-44.5	20.4	0.00e+00	0	41	0	1352663040	58	4086
2026-01-29 23:28:19.89	123.69	38.89	-44.4	-45.5	19.3	0.00e+00	0	41	0	1365245952	60	4089
2026-01-29 23:28:23.92	125.31	38.44	-43.3	-44.2	20.8	0.00e+00	0	41	0	1377828864	58	3919
2026-01-29 23:28:27.95	126.88	37.97	-43.5	-44.5	20.6	0.00e+00	0	41	0	1390411776	58	4060
2026-01-29 23:28:31.99	128.41	37.49	-43.1	-44.0	21.0	0.00e+00	0	41	0	1402994688	58	3836
2026-01-29 23:28:36.02	129.89	37.00	-43.8	-44.9	20.2	0.00e+00	0	41	0	1415577600	58	4248
2026-01-29 23:28:40.05	131.33	36.49	-42.8	-43.6	21.1	0.00e+00	0	41	0	1428160512	57	3907
2026-01-29 23:28:44.08	132.73	35.97	-42.6	-43.5	21.4	0.00e+00	0	41	0	1440743424	57	3827
2026-01-29 23:28:48.11	134.08	35.44	-43.1	-44.0	20.8	0.00e+00	0	41	0	1453326336	57	4080
2026-01-29 23:28:52.14	135.39	34.90	-43.8	-44.8	20.3	0.00e+00	0	41	0	1465909248	58	4204
2026-01-29 23:28:56.18	136.66	34.35	-43.7	-44.7	20.4	0.00e+00	0	41	0	1478492160	58	4168
2026-01-29 23:29:00.21	137.89	33.80	-42.9	-43.8	21.1	0.00e+00	0	41	0	1491075072	57	3986
2026-01-29 23:29:04.24	139.07	33.25	-42.5	-43.3	21.5	0.00e+00	0	41	0	1503657984	56	3998
2026-01-29 23:29:08.27	140.22	32.69	-42.3	-43.1	21.6	0.00e+00	0	41	0	1516240896	56	3899
2026-01-29 23:29:12.29	141.32	32.14	-41.8	-42.6	22.0	0.00e+00	0	41	0	1528823808	55	3904
2026-01-29 23:29:16.32	142.40	31.58	-41.4	-42.2	22.3	0.00e+00	0	41	0	1541406720	54	3942
2026-01-29 23:29:20.34	143.43	31.02	-41.2	-41.9	22.4	0.00e+00	0	41	0	1553989632	54	3821
2026-01-29 23:29:24.37	144.43	30.47	-40.8	-41.5	22.7	0.00e+00	0	41	0	1566572544	53	3862
2026-01-29 23:29:28.39	145.40	29.91	-41.1	-41.9	22.4	0.00e+00	0	41	0	1579155456	53	4019
2026-01-29 23:29:32.42	146.34	29.36	-41.4	-42.2	22.2	0.00e+00	0	41	0	1591738368	53	4155
2026-01-29 23:29:36.46	147.25	28.81	-41.3	-42.2	22.1	0.00e+00	0	41	0	1604321280	53	4147
2026-01-29 23:29:40.48	148.12	28.26	-41.4	-42.2	22.2	0.00e+00	0	41	0	1616904192	53	4161
2026-01-29 23:29:44.51	148.97	27.72	-41.5	-42.3	22.2	0.00e+00	0	41	0	1629487104	53	4209
2026-01-29 23:29:48.54	149.79	27.18	-41.5	-42.3	22.1	0.00e+00	0	41	0	1642070016	53	4202
2026-01-29 23:29:52.57	150.58	26.64	-41.2	-42.0	22.4	0.00e+00	0	41	0	1654652928	53	4075
2026-01-29 23:29:56.60	151.35	26.11	-40.9	-41.6	22.7	0.00e+00	0	41	0	1667235840	53	3898
2026-01-29 23:30:00.63	152.10	25.59	-40.7	-41.4	22.8	0.00e+00	0	41	0	1679818752	53	3815
2026-01-29 23:30:04.65	152.82	25.07	-40.9	-41.7	22.5	0.00e+00	0	41	0	1692401664	53	3942
2026-01-29 23:30:08.68	153.52	24.56	-40.8	-41.6	22.6	0.00e+00	0	41	0	1704984576	53	3884
2026-01-29 23:30:12.70	154.19	24.05	-40.7	-41.4	22.6	0.00e+00	0	41	0	1717567488	53	3824
2026-01-29 23:30:16.73	154.85	23.55	-41.0	-41.8	22.4	0.00e+00	0	41	0	1730150400	53	3960
2026-01-29 23:30:20.75	155.48	23.06	-41.1	-41.9	22.4	0.00e+00	0	41	0	1742733312	53	4014
2026-01-29 23:30:24.79	156.10	22.56	-41.2	-42.0	22.3	0.00e+00	0	41	0	1755316224	53	4052
2026-01-29 23:30:28.83	156.70	22.08	-41.2	-42.0	22.2	0.00e+00	0	41	0	1767899136	53	4083
2026-01-29 23:30:32.86	157.28	21.60	-41.1	-41.9	22.4	0.00e+00	0	41	0	1780482048	53	4008
2026-01-29 23:30:36.89	157.84	21.13	-41.0	-41.8	22.4	0.00e+00	0	41	0	1793064960	53	3975
2026-01-29 23:30:40.92	158.39	20.66	-41.0	-41.8	22.3	0.00e+00	0	41	0	1805647872	53	3991
2026-01-29 23:30:44.94	158.92	20.21	-40.8	-41.6	22.5	0.00e+00	0	41	0	1818230784	53	3872
2026-01-29 23:30:48.97	159.44	19.75	-40.9	-41.6	22.4	0.00e+00	0	41	0	1830813696	53	3912
2026-01-29 23:30:53.00	159.94	19.30	-40.6	-41.4	22.6	0.00e+00	0	41	0	1843396608	53	3788
2026-01-29 23:30:57.03	160.43	18.86	-40.9	-41.6	22.4	0.00e+00	0	41	0	1855979520	53	3913
2026-01-29 23:31:01.05	160.91	18.43	-41.2	-42.1	22.0	0.00e+00	0	41	0	1868562432	53	4107
2026-01-29 23:31:05.09	161.37	18.00	-41.4	-42.2	21.9	0.00e+00	0	41	0	1881145344	53	4172
2026-01-29 23:31:09.12	161.82	17.57	-41.4	-42.3	21.8	0.00e+00	0	41	0	1893728256	53	4195
2026-01-29 23:31:13.14	162.26	17.16	-41.6	-42.5	21.4	0.00e+00	0	41	0	1906311168	54	4060
2026-01-29 23:31:17.17	162.68	16.74	-41.5	-42.4	21.6	0.00e+00	0	41	0	1918894080	54	4015
2026-01-29 23:31:21.19	163.10	16.34	-41.4	-42.2	21.8	0.00e+00	0	41	0	1931476992	54	3923
2026-01-29 23:31:25.22	163.50	15.93	-41.5	-42.4	21.7	0.00e+00	0	41	0	1944059904	54	4008
2026-01-29 23:31:29.25	163.90	15.54	-41.7	-42.5	21.6	0.00e+00	0	41	0	1956642816	54	4098
2026-01-29 23:31:33.28	164.28	15.15	-41.9	-42.8	21.3	0.00e+00	0	41	0	1969225728	54	4212
2026-01-29 23:31:37.30	164.66	14.76	-42.4	-43.3	20.9	0.00e+00	0	41	0	1981808640	55	4228
2026-01-29 23:31:41.33	165.03	14.38	-42.5	-43.5	20.7	0.00e+00	0	41	0	1994391552	55	4301
2026-01-29 23:31:45.37	165.39	14.00	-42.3	-43.2	20.8	0.00e+00	0	41	0	2006974464	55	4192
2026-01-29 23:31:49.39	165.73	13.63	-42.6	-43.6	20.4	0.00e+00	0	41	0	2019557376	55	4353
2026-01-29 23:31:53.41	166.07	13.26	-42.4	-43.4	20.6	0.00e+00	0	41	0	2032140288	55	4254
2026-01-29 23:31:57.45	166.41	12.90	-42.4	-43.4	20.7	0.00e+00	0	41	0	2044723200	55	4258
2026-01-29 23:32:01.48	166.73	12.54	-42.4	-43.3	20.7	0.00e+00	0	41	0	2057306112	55	4238
2026-01-29 23:32:05.51	167.05	12.19	-42.4	-43.3	20.7	0.00e+00	0	41	0	2069889024	55	4235
2026-01-29 23:32:09.55	167.36	11.84	-42.6	-43.5	20.6	0.00e+00	0	41	0	2082471936	55	4316
2026-01-29 23:32:13.57	167.67	11.49	-42.5	-43.5	20.6	0.00e+00	0	41	0	2095054848	55	4299
2026-01-29 23:32:17.60	167.97	11.15	-42.8	-43.8	20.4	0.00e+00	0	41	0	2107637760	56	4200
2026-01-29 23:32:21.63	168.26	10.81	-42.8	-43.8	20.3	0.00e+00	0	41	0	2120220672	56	4228
2026-01-29 23:32:25.65	168.54	10.48	-42.8	-43.8	20.3	0.00e+00	0	41	0	2132803584	56	4224
2026-01-29 23:32:29.68	168.82	10.15	-42.9	-43.9	20.2	0.00e+00	0	41	0	2145386496	56	4263
2026-01-29 23:32:33.70	169.09	9.83	-43.1	-44.1	20.0	0.00e+00	0	41	0	2157969408	56	4360
2026-01-29 23:32:37.72	169.36	9.51	-43.0	-44.1	20.0	0.00e+00	0	41	0	2170552320	56	4342
2026-01-29 23:32:41.75	169.62	9.19	-43.1	-44.1	19.9	0.00e+00	0	41	0	2183135232	57	4126
2026-01-29 23:32:45.78	169.88	8.87	-43.2	-44.3	19.8	0.00e+00	0	41	0	2195718144	57	4202
2026-01-29 23:32:49.82	170.13	8.56	-43.2	-44.3	19.7	0.00e+00	0	41	0	2208301056	57	4210
2026-01-29 23:32:53.83	170.38	8.26	-43.4	-44.4	19.6	0.00e+00	0	41	0	2220883968	57	4276
2026-01-29 23:32:57.86	170.62	7.95	-43.5	-44.6	19.4	0.00e+00	0	41	0	2233466880	57	4347
2026-01-29 23:33:01.89	170.86	7.65	-43.6	-44.7	19.2	0.00e+00	0	42	0	2246049792	57	4432
2026-01-29 23:33:05.93	171.09	7.35	-43.9	-45.0	18.9	0.00e+00	0	41	0	2258632704	58	4315
2026-01-29 23:33:09.96	171.32	7.06	-43.9	-45.0	18.8	0.00e+00	0	41	0	2271215616	58	4339
2026-01-29 23:33:14.00	171.54	6.76	-44.0	-45.2	18.6	0.00e+00	0	41	0	2283798528	58	4403
2026-01-29 23:33:18.02	171.76	6.48	-44.2	-45.4	18.4	0.00e+00	0	41	0	2296381440	58	4521
2026-01-29 23:33:22.05	171.98	6.19	-44.3	-45.5	18.3	0.00e+00	0	41	0	2308964352	59	4315
2026-01-29 23:33:26.08	172.19	5.91	-44.5	-45.8	18.0	0.00e+00	0	41	0	2321547264	59	4453
2026-01-29 23:33:30.11	172.40	5.63	-44.3	-45.5	18.2	0.00e+00	0	41	0	2334130176	59	4336
2026-01-29 23:33:34.15	172.61	5.35	-44.4	-45.6	18.0	0.00e+00	0	41	0	2346713088	59	4383
2026-01-29 23:33:38.18	172.81	5.07	-44.3	-45.6	17.7	0.00e+00	0	41	0	2359296000	60	4099
2026-01-29 23:33:42.21	173.00	4.80	-52.9	-65.6	3.8	1.49e+00	0	41	104	2364538880	76	16410
2026-01-29 23:33:46.24	173.20	4.53	-53.5	-66.3	3.8	1.49e+00	0	42	104	2364538880	77	16750
2026-01-29 23:33:50.26	173.39	4.26	-53.9	-66.7	3.8	1.49e+00	0	42	104	2364538880	78	16536
2026-01-29 23:33:54.29	173.58	4.00	-54.2	-67.0	3.8	1.49e+00	0	41	104	2364538880	78	17111
2026-01-29 23:33:58.31	173.76	3.74	-54.4	-67.2	3.8	1.49e+00	0	41	104	2364538880	79	16535
2026-01-29 23:34:02.34	173.94	3.47	-54.5	-67.3	3.8	1.49e+00	0	42	104	2364538880	79	16711
2026-01-29 23:34:06.37	174.12	3.22	-54.4	-67.2	3.8	1.49e+00	0	42	104	2364538880	79	16512
2026-01-29 23:34:10.40	174.30	2.96	-54.2	-67.0	3.8	1.49e+00	0	41	104	2364538880	79	16128
2026-01-29 23:34:14.43	174.47	2.71	-53.9	-66.6	3.8	1.49e+00	0	41	104	2364538880	79	15520
2026-01-29 23:34:18.45	174.64	2.45	-53.3	-66.0	3.8	1.49e+00	0	41	104	2364538880	78	15352
2026-01-29 23:34:22.48	174.81	2.20	-53.2	-66.0	3.8	1.49e+00	0	41	104	2364538880	78	15254
2026-01-29 23:34:26.51	174.98	1.96	-53.2	-65.9	3.8	1.49e+00	0	42	104	2364538880	78	15210

#Closed at: 2026-01-29 23:34:28
#Recorded file [2364 MB]: D:/lorett/data/31041_260130_022020.dat