passes_logs/2026/01/29/R3.2S_Murmansk/R3.2S_Murmansk__20260129_202226_TY-39_rec.log

#Pass ID: 20260129_202226_TY-39
#Satellite: TY-39
#Configuration: TY-39
#almurnet v.1.7.20251203
#Start time: 2026-01-29 20:22:27

#Version: 2.2.20231116
#Station: R3.2S_Murmansk
#Location: 33.079688 lon 68.888172 lat
#TLE: 1 51832U 22019J   26028.98355140  .00004481  00000-0  21254-3 0  9990
#TLE: 2 51832  97.3627  95.3313 0008690   7.4089 352.7273 15.19745294216656

#Time	Az	El	Level	Level2	SNR	BER	BlckErr	Temp	State	Recorded	gain1	gain2
2026-01-29 20:22:27.41	220.08	2.05	-52.6	-54.8	3.7	0.00e+00	0	45	0	0	77	17773
2026-01-29 20:22:30.42	220.41	2.22	-52.6	-54.7	3.7	0.00e+00	0	45	104	0	76	18774
2026-01-29 20:22:33.44	220.74	2.39	-52.6	-54.7	3.7	0.00e+00	0	45	104	0	76	18648
2026-01-29 20:22:36.45	221.08	2.57	-52.5	-54.7	3.7	0.00e+00	0	45	104	0	76	18681
2026-01-29 20:22:39.47	221.42	2.74	-52.5	-54.6	3.7	0.00e+00	0	45	104	0	76	18591
2026-01-29 20:22:42.50	221.77	2.92	-52.5	-54.6	3.7	0.00e+00	0	45	104	0	76	18588
2026-01-29 20:22:45.53	222.13	3.10	-52.5	-54.7	3.7	0.00e+00	0	45	104	0	76	18603
2026-01-29 20:22:48.55	222.49	3.27	-52.5	-54.6	3.7	0.00e+00	0	45	104	0	76	18579
2026-01-29 20:22:51.57	222.85	3.45	-52.5	-54.6	3.7	0.00e+00	0	46	104	0	76	18533
2026-01-29 20:22:54.59	223.22	3.63	-52.5	-54.6	3.7	0.00e+00	0	46	104	0	76	18560
2026-01-29 20:22:57.61	223.59	3.81	-52.5	-54.6	3.7	0.00e+00	0	46	104	0	76	18596
2026-01-29 20:23:00.63	223.98	3.99	-52.5	-54.6	3.7	0.00e+00	0	46	104	0	76	18560
2026-01-29 20:23:03.65	224.36	4.17	-52.5	-54.6	3.7	0.00e+00	0	46	104	0	76	18553
2026-01-29 20:23:06.68	224.76	4.36	-52.5	-54.6	3.7	0.00e+00	0	46	104	0	76	18539
2026-01-29 20:23:09.70	225.15	4.54	-52.5	-54.6	3.7	0.00e+00	0	46	104	0	76	18547
2026-01-29 20:23:12.72	225.56	4.72	-52.5	-54.6	3.7	0.00e+00	0	46	104	0	76	18494
2026-01-29 20:23:15.74	225.97	4.90	-52.5	-54.6	3.7	0.00e+00	0	46	104	0	76	18556
2026-01-29 20:23:18.76	226.39	5.09	-52.8	-54.9	3.7	0.00e+00	0	46	104	0	76	19203
2026-01-29 20:23:21.78	226.81	5.27	-52.5	-54.6	3.7	0.00e+00	0	46	104	0	76	18570
2026-01-29 20:23:24.80	227.24	5.46	-52.6	-54.7	3.7	0.00e+00	0	46	104	0	76	18678
2026-01-29 20:23:27.83	227.68	5.65	-52.4	-54.5	3.7	0.00e+00	0	46	104	0	76	18341
2026-01-29 20:23:30.85	228.12	5.83	-52.5	-54.6	3.7	0.00e+00	0	46	104	0	76	18477
2026-01-29 20:23:33.87	228.57	6.02	-52.6	-54.7	3.7	0.00e+00	0	47	104	0	76	18622
2026-01-29 20:23:36.89	229.03	6.21	-52.6	-54.7	3.7	0.00e+00	0	47	104	0	76	18808
2026-01-29 20:23:39.90	229.50	6.40	-52.4	-54.6	3.7	0.00e+00	0	47	104	0	76	18396
2026-01-29 20:23:42.92	229.97	6.59	-52.5	-54.6	3.7	0.00e+00	0	47	104	0	76	18578
2026-01-29 20:23:45.93	230.45	6.78	-43.1	-43.1	9.8	6.90e-06	0	47	0	92274688	56	15592
2026-01-29 20:23:48.94	230.93	6.96	-36.2	-36.2	13.8	0.00e+00	0	48	0	310378496	44	13954
2026-01-29 20:23:51.97	231.43	7.16	-36.1	-36.1	13.9	0.00e+00	0	48	0	536870912	43	14637
2026-01-29 20:23:54.99	231.93	7.35	-36.0	-35.9	14.1	0.00e+00	0	48	0	763363328	43	14360
2026-01-29 20:23:58.00	232.44	7.54	-36.1	-36.0	14.0	0.00e+00	0	48	0	989855744	43	14494
2026-01-29 20:24:01.02	232.96	7.73	-36.0	-35.9	14.1	0.00e+00	0	48	0	1224736768	43	14322
2026-01-29 20:24:04.04	233.49	7.92	-36.0	-35.9	14.1	0.00e+00	0	48	0	1442840576	43	14346
2026-01-29 20:24:07.06	234.03	8.11	-36.0	-35.9	14.1	0.00e+00	0	48	0	1669332992	43	14406
2026-01-29 20:24:10.08	234.57	8.30	-36.0	-35.9	14.2	0.00e+00	0	48	0	1895825408	43	14322
2026-01-29 20:24:13.10	235.12	8.49	-35.8	-35.7	14.2	0.00e+00	0	48	0	2122317824	43	14076
2026-01-29 20:24:16.12	235.69	8.68	-35.7	-35.6	14.3	0.00e+00	0	48	0	2357198848	43	13936
2026-01-29 20:24:19.14	236.26	8.87	-35.7	-35.6	14.3	0.00e+00	0	48	0	2575302656	43	13842
2026-01-29 20:24:22.16	236.84	9.07	-35.4	-35.3	14.5	0.00e+00	0	49	0	2801795072	42	14237
2026-01-29 20:24:25.18	237.42	9.26	-35.3	-35.3	14.5	0.00e+00	0	49	0	3028287488	42	14114
2026-01-29 20:24:28.19	238.02	9.45	-35.3	-35.2	14.6	0.00e+00	0	49	0	3254779904	42	13998
2026-01-29 20:24:31.22	238.63	9.64	-35.3	-35.2	14.5	0.00e+00	0	49	0	3489660928	42	14074
2026-01-29 20:24:34.23	239.24	9.82	-35.3	-35.2	14.5	0.00e+00	0	49	0	3707764736	42	14025
2026-01-29 20:24:37.24	239.87	10.01	-35.1	-35.1	14.6	0.00e+00	0	49	0	3934257152	42	13804
2026-01-29 20:24:40.26	240.51	10.20	-34.9	-34.8	14.7	0.00e+00	0	49	0	4160749568	41	14252
2026-01-29 20:24:43.28	241.15	10.39	-34.9	-34.9	14.7	0.00e+00	0	49	0	4387241984	41	14302
2026-01-29 20:24:46.30	241.81	10.57	-34.9	-34.9	14.7	0.00e+00	0	49	0	4613734400	41	14283
2026-01-29 20:24:49.31	242.47	10.76	-34.8	-34.8	14.8	0.00e+00	0	49	0	4840226816	41	14123
2026-01-29 20:24:52.32	243.14	10.94	-34.7	-34.6	14.8	0.00e+00	0	49	0	5066719232	41	13898
2026-01-29 20:24:55.34	243.83	11.12	-34.6	-34.5	14.9	0.00e+00	0	49	0	5293211648	41	13785
2026-01-29 20:24:58.35	244.52	11.30	-34.6	-34.5	14.9	0.00e+00	0	49	0	5519704064	41	13732
2026-01-29 20:25:01.37	245.23	11.48	-34.7	-34.6	14.9	0.00e+00	0	49	0	5746196480	41	13902
2026-01-29 20:25:04.39	245.94	11.66	-34.6	-34.5	14.9	0.00e+00	0	49	0	5972688896	41	13671
2026-01-29 20:25:07.41	246.67	11.84	-34.5	-34.4	15.0	0.00e+00	0	50	0	6199181312	40	14294
2026-01-29 20:25:10.43	247.41	12.01	-34.4	-34.3	15.0	0.00e+00	0	50	0	6425673728	40	14208
2026-01-29 20:25:13.45	248.15	12.18	-34.3	-34.2	15.0	0.00e+00	0	49	0	6652166144	40	14089
2026-01-29 20:25:16.46	248.91	12.35	-34.2	-34.1	15.1	0.00e+00	0	49	0	6878658560	40	13940
2026-01-29 20:25:19.48	249.67	12.52	-34.1	-34.0	15.1	0.00e+00	0	50	0	7105150976	40	13718
2026-01-29 20:25:22.49	250.45	12.68	-34.0	-33.9	15.2	0.00e+00	0	50	0	7323254784	40	13629
2026-01-29 20:25:25.51	251.23	12.84	-34.1	-34.0	15.1	0.00e+00	0	50	0	7549747200	40	13712
2026-01-29 20:25:28.53	252.03	13.00	-34.1	-34.0	15.2	0.00e+00	0	50	0	7784628224	39	14561
2026-01-29 20:25:31.55	252.84	13.16	-34.0	-33.9	15.2	0.00e+00	0	50	0	8011120640	39	14421
2026-01-29 20:25:34.56	253.65	13.31	-34.0	-33.9	15.2	0.00e+00	0	50	0	8237613056	39	14422
2026-01-29 20:25:37.57	254.47	13.46	-34.1	-34.0	15.2	0.00e+00	0	50	0	8455716864	39	14520
2026-01-29 20:25:40.59	255.31	13.60	-34.1	-34.0	15.2	0.00e+00	0	50	0	8682209280	39	14534
2026-01-29 20:25:43.61	256.15	13.74	-34.0	-33.9	15.3	0.00e+00	0	50	0	8908701696	39	14357
2026-01-29 20:25:46.62	257.01	13.88	-33.9	-33.8	15.3	0.00e+00	0	50	0	9143582720	39	14174
2026-01-29 20:25:49.63	257.87	14.01	-34.0	-33.9	15.3	0.00e+00	0	50	0	9370075136	39	14310
2026-01-29 20:25:52.65	258.74	14.14	-33.9	-33.8	15.3	0.00e+00	0	50	0	9588178944	39	14206
2026-01-29 20:25:55.67	259.62	14.26	-33.8	-33.7	15.4	0.00e+00	0	49	0	9814671360	39	14028
2026-01-29 20:25:58.69	260.51	14.38	-33.8	-33.7	15.3	0.00e+00	0	50	0	10041163776	39	14004
2026-01-29 20:26:01.70	261.40	14.49	-33.7	-33.6	15.4	0.00e+00	0	50	0	10267656192	39	13910
2026-01-29 20:26:04.71	262.30	14.60	-33.8	-33.7	15.3	0.00e+00	0	50	0	10494148608	39	14057
2026-01-29 20:26:07.73	263.21	14.70	-33.7	-33.6	15.4	0.00e+00	0	50	0	10720641024	39	13843
2026-01-29 20:26:10.75	264.13	14.80	-33.7	-33.6	15.4	0.00e+00	0	50	0	10947133440	39	13892
2026-01-29 20:26:13.75	265.05	14.89	-33.7	-33.6	15.4	0.00e+00	0	50	0	11173625856	39	13861
2026-01-29 20:26:16.77	265.98	14.98	-33.7	-33.6	15.4	0.00e+00	0	50	0	11400118272	39	13884
2026-01-29 20:26:19.80	266.92	15.06	-33.6	-33.5	15.4	0.00e+00	0	50	0	11626610688	39	13781
2026-01-29 20:26:22.82	267.87	15.13	-33.6	-33.5	15.5	0.00e+00	0	50	0	11853103104	39	13673
2026-01-29 20:26:25.83	268.81	15.20	-33.6	-33.5	15.5	0.00e+00	0	50	0	12079595520	39	13652
2026-01-29 20:26:28.85	269.76	15.26	-33.6	-33.5	15.4	0.00e+00	0	50	0	12306087936	39	13780
2026-01-29 20:26:31.86	270.72	15.32	-33.6	-33.5	15.4	0.00e+00	0	50	0	12532580352	39	13667
2026-01-29 20:26:34.88	271.68	15.37	-33.6	-33.5	15.5	0.00e+00	0	50	0	12759072768	39	13741
2026-01-29 20:26:37.90	272.64	15.41	-33.6	-33.5	15.4	0.00e+00	0	50	0	12985565184	39	13705
2026-01-29 20:26:40.92	273.61	15.44	-33.7	-33.6	15.4	0.00e+00	0	50	0	13212057600	39	13933
2026-01-29 20:26:43.93	274.57	15.47	-33.5	-33.4	15.5	0.00e+00	0	50	0	13438550016	39	13592
2026-01-29 20:26:46.94	275.54	15.49	-33.6	-33.5	15.5	0.00e+00	0	50	0	13665042432	39	13722
2026-01-29 20:26:49.96	276.51	15.51	-33.7	-33.6	15.4	0.00e+00	0	50	0	13891534848	39	13908
2026-01-29 20:26:52.98	277.48	15.52	-33.6	-33.5	15.5	0.00e+00	0	50	0	14118027264	39	13725
2026-01-29 20:26:55.99	278.45	15.52	-33.6	-33.5	15.5	0.00e+00	0	50	0	14336131072	39	13787
2026-01-29 20:26:59.00	279.42	15.51	-33.8	-33.7	15.4	0.00e+00	0	50	0	14562623488	39	13988
2026-01-29 20:27:02.02	280.39	15.50	-33.7	-33.6	15.4	0.00e+00	0	50	0	14797504512	39	13937
2026-01-29 20:27:05.03	281.36	15.48	-33.8	-33.7	15.5	0.00e+00	0	50	0	15023996928	39	13969
2026-01-29 20:27:08.04	282.33	15.45	-33.9	-33.8	15.4	0.00e+00	0	50	0	15250489344	39	14167
2026-01-29 20:27:11.06	283.29	15.42	-33.8	-33.7	15.4	0.00e+00	0	50	0	15468593152	39	13988
2026-01-29 20:27:14.09	284.26	15.38	-33.9	-33.8	15.4	0.00e+00	0	50	0	15695085568	39	14132
2026-01-29 20:27:17.09	285.21	15.33	-33.8	-33.7	15.5	0.00e+00	0	50	0	15921577984	39	14027
2026-01-29 20:27:20.10	286.16	15.28	-33.8	-33.7	15.5	0.00e+00	0	50	0	16148070400	39	14044
2026-01-29 20:27:23.11	287.11	15.22	-33.9	-33.8	15.4	0.00e+00	0	50	0	16382951424	39	14161
2026-01-29 20:27:26.14	288.06	15.16	-33.9	-33.8	15.4	0.00e+00	0	50	0	16601055232	39	14258
2026-01-29 20:27:29.16	289.00	15.08	-33.9	-33.8	15.4	0.00e+00	0	50	0	16827547648	39	14209
2026-01-29 20:27:32.17	289.94	15.01	-34.0	-33.9	15.4	0.00e+00	0	50	0	17054040064	39	14342
2026-01-29 20:27:35.19	290.87	14.92	-34.0	-33.9	15.4	0.00e+00	0	50	0	17280532480	39	14434
2026-01-29 20:27:38.20	291.79	14.83	-34.0	-33.9	15.4	0.00e+00	0	50	0	17507024896	39	14394
2026-01-29 20:27:41.22	292.71	14.74	-34.1	-34.0	15.4	0.00e+00	0	50	0	17733517312	39	14462
2026-01-29 20:27:44.23	293.61	14.64	-34.2	-34.1	15.3	0.00e+00	0	50	0	17960009728	39	14747
2026-01-29 20:27:47.24	294.51	14.53	-34.2	-34.1	15.3	0.00e+00	0	50	0	18186502144	39	14647
2026-01-29 20:27:50.25	295.40	14.42	-34.3	-34.2	15.3	0.00e+00	0	50	0	18412994560	39	14841
2026-01-29 20:27:53.26	296.29	14.31	-34.2	-34.1	15.3	0.00e+00	0	50	0	18639486976	39	14747
2026-01-29 20:27:56.29	297.17	14.19	-34.4	-34.3	15.2	0.00e+00	0	50	0	18857590784	39	15031
2026-01-29 20:27:59.30	298.04	14.06	-34.2	-34.1	15.3	0.00e+00	0	50	0	19084083200	39	14758
2026-01-29 20:28:02.31	298.89	13.93	-34.2	-34.1	15.3	0.00e+00	0	50	0	19318964224	39	14767
2026-01-29 20:28:05.34	299.75	13.80	-34.3	-34.2	15.2	0.00e+00	0	50	0	19545456640	39	14922
2026-01-29 20:28:08.35	300.59	13.66	-34.3	-34.2	15.2	0.00e+00	0	50	0	19771949056	39	14800
2026-01-29 20:28:11.37	301.42	13.52	-34.2	-34.1	15.2	0.00e+00	0	50	0	19990052864	39	14770
2026-01-29 20:28:14.39	302.25	13.37	-34.3	-34.2	15.2	0.00e+00	0	50	0	20216545280	39	14857
2026-01-29 20:28:17.41	303.06	13.22	-34.4	-34.3	15.1	0.00e+00	0	50	0	20451426304	39	14963
2026-01-29 20:28:20.41	303.86	13.07	-34.3	-34.2	15.2	0.00e+00	0	50	0	20677918720	39	14939
2026-01-29 20:28:23.44	304.66	12.91	-34.4	-34.3	15.1	0.00e+00	0	50	0	20904411136	39	15079
2026-01-29 20:28:26.46	305.44	12.76	-34.5	-34.5	15.0	0.00e+00	0	50	0	21122514944	39	15297
2026-01-29 20:28:29.48	306.22	12.59	-34.5	-34.4	15.1	0.00e+00	0	50	0	21349007360	39	15231
2026-01-29 20:28:32.50	306.98	12.43	-34.5	-34.4	15.1	0.00e+00	0	50	0	21575499776	39	15198
2026-01-29 20:28:35.53	307.74	12.26	-34.6	-34.5	15.0	0.00e+00	0	50	0	21810380800	39	15365
2026-01-29 20:28:38.56	308.48	12.09	-34.6	-34.5	15.0	0.00e+00	0	50	0	22036873216	39	15454
2026-01-29 20:28:41.58	309.22	11.92	-34.6	-34.6	14.9	0.00e+00	0	50	0	22254977024	40	14615
2026-01-29 20:28:44.61	309.94	11.75	-34.5	-34.4	15.0	0.00e+00	0	50	0	22481469440	40	14420
2026-01-29 20:28:47.63	310.66	11.57	-34.7	-34.6	14.9	0.00e+00	0	50	0	22716350464	40	14717
2026-01-29 20:28:50.66	311.36	11.40	-34.8	-34.7	14.8	0.00e+00	0	50	0	22942842880	40	14788
2026-01-29 20:28:53.67	312.05	11.22	-34.8	-34.7	14.8	0.00e+00	0	50	0	23169335296	40	14826
2026-01-29 20:28:56.69	312.74	11.04	-34.9	-34.8	14.8	0.00e+00	0	50	0	23387439104	40	15003
2026-01-29 20:28:59.71	313.41	10.86	-35.0	-34.9	14.7	0.00e+00	0	50	0	23622320128	40	15206
2026-01-29 20:29:02.73	314.07	10.67	-34.9	-34.8	14.7	0.00e+00	0	50	0	23848812544	40	15066
2026-01-29 20:29:05.75	314.73	10.49	-35.1	-35.0	14.6	0.00e+00	0	50	0	24075304960	40	15397
2026-01-29 20:29:08.78	315.37	10.30	-35.0	-34.9	14.6	0.00e+00	0	50	0	24301797376	40	15268
2026-01-29 20:29:11.79	316.00	10.12	-35.1	-35.0	14.6	0.00e+00	0	51	0	24519901184	40	15382
2026-01-29 20:29:14.80	316.63	9.93	-35.2	-35.1	14.6	0.00e+00	0	50	0	24746393600	41	14721
2026-01-29 20:29:17.83	317.24	9.75	-35.2	-35.1	14.6	0.00e+00	0	50	0	24981274624	41	14749
2026-01-29 20:29:20.84	317.85	9.56	-35.2	-35.1	14.6	0.00e+00	0	51	0	25207767040	41	14767
2026-01-29 20:29:23.86	318.44	9.37	-35.3	-35.2	14.5	0.00e+00	0	50	0	25434259456	41	14879
2026-01-29 20:29:26.88	319.03	9.18	-35.3	-35.2	14.5	0.00e+00	0	50	0	25652363264	41	14943
2026-01-29 20:29:29.90	319.61	9.00	-35.3	-35.3	14.4	0.00e+00	0	51	0	25878855680	41	14965
2026-01-29 20:29:32.92	320.18	8.81	-35.5	-35.4	14.3	0.00e+00	0	50	0	26113736704	41	15213
2026-01-29 20:29:35.94	320.74	8.62	-35.8	-35.7	14.2	0.00e+00	0	51	0	26340229120	42	14806
2026-01-29 20:29:38.96	321.29	8.43	-35.7	-35.6	14.2	0.00e+00	0	50	0	26566721536	42	14720
2026-01-29 20:29:41.98	321.83	8.24	-35.7	-35.6	14.3	0.00e+00	0	50	0	26784825344	42	14656
2026-01-29 20:29:45.00	322.37	8.05	-35.7	-35.6	14.2	0.00e+00	0	51	0	27011317760	42	14754
2026-01-29 20:29:48.01	322.89	7.86	-35.8	-35.7	14.1	0.00e+00	0	50	0	27246198784	42	14942
2026-01-29 20:29:51.04	323.41	7.67	-35.9	-35.8	14.1	0.00e+00	0	51	0	27472691200	43	14264
2026-01-29 20:29:54.06	323.92	7.48	-35.9	-35.9	14.1	0.00e+00	0	50	0	27699183616	43	14280
2026-01-29 20:29:57.08	324.42	7.30	-36.2	-36.1	13.9	0.00e+00	0	50	0	27917287424	43	14702
2026-01-29 20:30:00.10	324.92	7.11	-36.3	-36.2	13.8	0.00e+00	0	50	0	28143779840	43	14905
2026-01-29 20:30:03.12	325.40	6.92	-36.3	-36.3	13.7	0.00e+00	0	50	0	28378660864	44	14213
2026-01-29 20:30:06.14	325.88	6.73	-36.3	-36.2	13.8	0.00e+00	0	50	0	28605153280	44	14024
2026-01-29 20:30:09.16	326.35	6.55	-36.4	-36.4	13.6	0.00e+00	0	50	0	28831645696	44	14285
2026-01-29 20:30:12.18	326.82	6.36	-36.3	-36.3	13.7	1.38e-05	0	50	0	29049749504	44	14139
2026-01-29 20:30:15.19	327.27	6.17	-36.5	-36.4	13.6	0.00e+00	0	51	0	29276241920	44	14394
2026-01-29 20:30:18.21	327.72	5.99	-36.7	-36.6	13.5	6.90e-06	0	50	0	29511122944	44	14693
2026-01-29 20:30:21.23	328.17	5.80	-36.8	-36.7	13.4	0.00e+00	0	50	0	29737615360	44	14852
2026-01-29 20:30:24.26	328.60	5.62	-36.5	-36.5	13.5	1.38e-05	0	51	0	29964107776	44	14468
2026-01-29 20:30:27.28	329.03	5.43	-37.1	-37.1	13.1	6.90e-06	0	50	0	30182211584	44	15507
2026-01-29 20:30:30.30	329.46	5.25	-36.6	-36.5	13.5	0.00e+00	0	51	0	30408704000	44	14549
2026-01-29 20:30:33.31	329.87	5.07	-36.8	-36.8	13.2	6.90e-06	0	51	0	30643585024	44	15000
2026-01-29 20:30:36.33	330.28	4.89	-53.0	-55.2	3.7	2.08e-04	0	50	104	30744248320	76	19728
2026-01-29 20:30:39.35	330.69	4.71	-53.5	-55.6	3.7	2.08e-04	0	50	104	30744248320	77	19645
2026-01-29 20:30:42.37	331.08	4.53	-53.6	-55.8	3.7	2.08e-04	0	50	104	30744248320	77	19951
2026-01-29 20:30:45.40	331.48	4.34	-53.4	-55.5	3.7	2.08e-04	0	49	104	30744248320	77	19413
2026-01-29 20:30:48.42	331.86	4.17	-53.5	-55.6	3.7	2.08e-04	0	50	104	30744248320	77	19659
2026-01-29 20:30:51.44	332.25	3.99	-53.7	-55.8	3.7	2.08e-04	0	49	104	30744248320	77	20023
2026-01-29 20:30:54.46	332.62	3.81	-53.7	-55.8	3.7	2.08e-04	0	49	104	30744248320	77	20152
2026-01-29 20:30:57.48	332.99	3.63	-53.6	-55.7	3.7	2.08e-04	0	49	104	30744248320	77	19921
2026-01-29 20:31:00.50	333.35	3.45	-53.5	-55.7	3.7	2.08e-04	0	49	104	30744248320	77	19785
2026-01-29 20:31:03.52	333.71	3.28	-53.5	-55.6	3.7	2.08e-04	0	49	104	30744248320	77	19671
2026-01-29 20:31:06.54	334.07	3.10	-53.5	-55.6	3.7	2.08e-04	0	49	104	30744248320	77	19525
2026-01-29 20:31:09.56	334.41	2.93	-53.4	-55.6	3.7	2.08e-04	0	49	104	30744248320	77	19527
2026-01-29 20:31:12.59	334.76	2.76	-53.4	-55.5	3.7	2.08e-04	0	49	104	30744248320	77	19332
2026-01-29 20:31:15.61	335.10	2.58	-53.4	-55.5	3.7	2.08e-04	0	49	104	30744248320	77	19302
2026-01-29 20:31:18.63	335.43	2.41	-53.3	-55.5	3.7	2.08e-04	0	49	104	30744248320	77	19270
2026-01-29 20:31:21.65	335.76	2.24	-53.3	-55.4	3.7	2.08e-04	0	49	104	30744248320	77	19221
2026-01-29 20:31:24.67	336.09	2.07	-53.3	-55.4	3.7	2.08e-04	0	49	104	30744248320	77	19207
2026-01-29 20:31:27.69	336.41	1.90	-53.3	-55.4	3.7	2.08e-04	0	49	104	30744248320	77	19163

#Closed at: 2026-01-29 20:31:28
#Recorded file [30744 MB]: D:/lorett/data/31041_260129_232227.dat