passes_logs/2026/01/29/R3.2S_Murmansk/R3.2S_Murmansk__20260129_230912_KANOPUS-V_5_rec.log

#Pass ID: 20260129_230912_KANOPUS-V 5
#Satellite: KANOPUS-V 5
#Configuration: KANOPUS-V_8320
#almurnet v.1.7.20251203
#Start time: 2026-01-29 23:09:13

#Version: 2.2.20231116
#Station: R3.2S_Murmansk
#Location: 33.079688 lon 68.888172 lat
#TLE: 1 43876U 18111A   26029.55461459  .00005403  00000+0  22878-3 0  9999
#TLE: 2 43876  97.3680 297.8054 0001872  89.3369 270.8082 15.23581770393689

#Time	Az	El	Level	Level2	SNR	BER	BlckErr	Temp	State	Recorded	gain1	gain2
2026-01-29 23:09:13.83	21.35	2.12	-54.6	-63.5	3.8	7.45e-01	0	40	0	0	80	10197
2026-01-29 23:09:16.84	21.24	2.32	-54.6	-63.5	3.8	7.46e-01	0	40	104	0	80	10192
2026-01-29 23:09:19.87	21.13	2.53	-54.9	-63.7	3.8	7.43e-01	0	40	104	0	80	10533
2026-01-29 23:09:22.89	21.02	2.75	-55.0	-63.8	3.8	7.45e-01	0	40	104	0	80	10582
2026-01-29 23:09:25.91	20.90	2.96	-54.9	-63.7	3.8	7.46e-01	0	40	104	0	80	10531
2026-01-29 23:09:28.94	20.78	3.18	-54.8	-63.7	3.8	7.45e-01	0	40	104	0	80	10423
2026-01-29 23:09:31.95	20.66	3.40	-54.7	-63.5	3.8	7.46e-01	0	40	104	0	80	10283
2026-01-29 23:09:34.98	20.53	3.62	-54.4	-63.2	3.8	7.45e-01	0	40	104	0	80	9923
2026-01-29 23:09:38.00	20.41	3.84	-53.9	-62.7	3.8	7.45e-01	0	40	104	0	79	9911
2026-01-29 23:09:41.02	20.28	4.07	-52.9	-61.7	3.8	7.46e-01	0	40	104	0	77	9885
2026-01-29 23:09:44.04	20.15	4.30	-52.8	-61.6	3.8	7.46e-01	0	40	104	0	77	9822
2026-01-29 23:09:47.06	20.01	4.53	-52.8	-61.7	3.8	7.45e-01	0	40	104	0	77	9840
2026-01-29 23:09:50.08	19.87	4.76	-52.8	-61.6	3.8	7.46e-01	0	41	104	0	77	9827
2026-01-29 23:09:53.11	19.73	5.00	-52.8	-61.6	3.8	7.44e-01	0	41	104	0	77	9788
2026-01-29 23:09:56.13	19.58	5.24	-52.9	-61.7	3.8	7.46e-01	0	40	104	0	77	9921
2026-01-29 23:09:59.15	19.44	5.48	-52.8	-61.5	3.8	7.45e-01	0	41	104	0	77	9706
2026-01-29 23:10:02.18	19.29	5.73	-52.9	-61.7	3.8	7.45e-01	0	41	104	0	77	9911
2026-01-29 23:10:05.20	19.13	5.97	-52.8	-61.6	3.8	7.46e-01	0	41	104	0	77	9801
2026-01-29 23:10:08.22	18.97	6.22	-52.9	-61.7	3.8	7.46e-01	0	41	104	0	77	9938
2026-01-29 23:10:11.23	18.81	6.48	-52.8	-61.7	3.8	7.45e-01	0	41	104	0	77	9851
2026-01-29 23:10:14.25	18.64	6.73	-53.0	-61.8	3.8	7.46e-01	0	41	104	0	77	10004
2026-01-29 23:10:17.27	18.47	6.99	-52.9	-61.7	3.8	7.44e-01	0	41	104	0	77	9896
2026-01-29 23:10:20.29	18.30	7.26	-53.0	-61.9	3.8	7.46e-01	0	41	104	0	77	10076
2026-01-29 23:10:23.31	18.12	7.52	-52.9	-61.7	3.8	7.45e-01	0	41	104	0	77	9925
2026-01-29 23:10:26.32	17.94	7.79	-53.0	-61.9	3.8	7.45e-01	0	41	104	0	77	10081
2026-01-29 23:10:29.35	17.75	8.07	-53.0	-61.8	3.8	7.44e-01	0	41	104	0	77	10027
2026-01-29 23:10:32.36	17.56	8.34	-53.1	-61.9	3.8	7.46e-01	0	41	104	0	77	10115
2026-01-29 23:10:35.38	17.36	8.62	-53.0	-61.9	3.8	7.46e-01	0	41	104	0	77	10066
2026-01-29 23:10:38.40	17.16	8.91	-53.1	-61.9	3.8	7.44e-01	0	41	104	0	77	10156
2026-01-29 23:10:41.42	16.95	9.20	-53.1	-61.9	3.8	7.44e-01	0	41	104	0	77	10118
2026-01-29 23:10:44.44	16.73	9.49	-53.1	-61.9	3.8	7.44e-01	0	41	104	0	77	10127
2026-01-29 23:10:47.46	16.52	9.79	-53.1	-62.0	3.8	7.45e-01	0	41	104	0	77	10204
2026-01-29 23:10:50.48	16.29	10.10	-53.1	-62.0	3.8	7.44e-01	0	41	104	0	77	10223
2026-01-29 23:10:53.49	16.06	10.40	-53.1	-62.0	3.8	7.45e-01	0	41	104	0	77	10189
2026-01-29 23:10:56.50	15.82	10.71	-53.2	-62.0	3.8	7.45e-01	0	41	104	0	77	10227
2026-01-29 23:10:59.52	15.58	11.03	-53.2	-62.0	3.8	7.46e-01	0	41	104	0	77	10249
2026-01-29 23:11:02.54	15.33	11.35	-53.2	-62.0	3.8	7.45e-01	0	41	104	0	77	10221
2026-01-29 23:11:05.55	15.07	11.68	-53.2	-62.0	3.8	7.46e-01	0	42	104	0	77	10211
2026-01-29 23:11:08.58	14.80	12.01	-53.2	-62.0	3.8	7.46e-01	0	41	104	0	77	10290
2026-01-29 23:11:11.60	14.53	12.35	-53.3	-62.1	3.8	7.44e-01	0	41	104	0	77	10328
2026-01-29 23:11:14.63	14.24	12.70	-53.3	-62.1	3.8	7.46e-01	0	41	104	0	77	10331
2026-01-29 23:11:17.65	13.95	13.05	-53.3	-62.2	3.8	7.44e-01	0	41	104	0	77	10416
2026-01-29 23:11:20.67	13.65	13.40	-53.3	-62.1	3.8	7.45e-01	0	42	104	0	77	10355
2026-01-29 23:11:23.70	13.34	13.77	-53.4	-62.2	3.8	7.45e-01	0	42	104	0	77	10446
2026-01-29 23:11:26.73	13.02	14.14	-53.3	-62.2	3.8	7.46e-01	0	41	104	0	77	10419
2026-01-29 23:11:29.74	12.70	14.51	-53.4	-62.2	3.8	7.44e-01	0	42	104	0	77	10498
2026-01-29 23:11:32.77	12.36	14.90	-53.4	-62.2	3.8	7.44e-01	0	42	104	0	77	10477
2026-01-29 23:11:35.79	12.01	15.29	-53.4	-62.3	3.8	7.46e-01	0	42	104	0	77	10571
2026-01-29 23:11:38.80	11.65	15.68	-53.4	-62.2	3.8	7.47e-01	0	42	104	0	77	10487
2026-01-29 23:11:41.82	11.27	16.09	-53.5	-62.3	3.8	7.45e-01	0	42	104	0	77	10595
2026-01-29 23:11:44.85	10.89	16.50	-53.4	-62.3	3.8	7.46e-01	0	41	104	0	77	10535
2026-01-29 23:11:47.87	10.49	16.92	-53.5	-62.3	3.8	7.44e-01	0	42	104	0	77	10639
2026-01-29 23:11:50.88	10.07	17.35	-53.5	-62.3	3.8	7.45e-01	0	42	104	0	77	10595
2026-01-29 23:11:53.91	9.65	17.79	-53.6	-62.4	3.8	7.44e-01	0	42	104	0	77	10716
2026-01-29 23:11:56.94	9.20	18.23	-53.5	-62.3	3.8	7.45e-01	0	42	104	0	77	10618
2026-01-29 23:11:59.95	8.74	18.69	-53.6	-62.4	3.8	7.46e-01	0	42	104	0	77	10730
2026-01-29 23:12:02.97	8.27	19.15	-53.6	-62.4	3.8	7.46e-01	0	42	104	0	77	10696
2026-01-29 23:12:05.99	7.78	19.62	-53.6	-62.5	3.8	7.44e-01	0	42	104	0	77	10789
2026-01-29 23:12:09.01	7.27	20.11	-53.6	-62.4	3.8	7.46e-01	0	42	104	0	77	10760
2026-01-29 23:12:12.03	6.73	20.60	-53.7	-62.5	3.8	7.46e-01	0	42	104	0	77	10836
2026-01-29 23:12:15.04	6.19	21.10	-53.7	-62.5	3.8	7.45e-01	0	42	104	0	77	10817
2026-01-29 23:12:18.07	5.61	21.61	-53.7	-62.5	3.8	7.44e-01	0	42	104	0	78	10289
2026-01-29 23:12:21.09	5.02	22.14	-53.7	-62.5	3.8	7.43e-01	0	42	104	0	78	10258
2026-01-29 23:12:24.11	4.40	22.67	-53.8	-62.6	3.8	7.46e-01	0	42	104	0	78	10348
2026-01-29 23:12:27.14	3.75	23.22	-53.8	-62.6	3.8	7.45e-01	0	42	104	0	78	10330
2026-01-29 23:12:30.16	3.08	23.77	-53.8	-62.6	3.8	7.46e-01	0	42	104	0	78	10397
2026-01-29 23:12:33.18	2.38	24.34	-53.8	-62.6	3.8	7.45e-01	0	42	104	0	78	10398
2026-01-29 23:12:36.20	1.66	24.92	-53.9	-62.7	3.8	7.44e-01	0	42	104	0	78	10452
2026-01-29 23:12:39.23	0.89	25.51	-53.9	-62.7	3.8	7.45e-01	0	42	104	0	78	10420
2026-01-29 23:12:42.24	0.11	26.10	-53.9	-62.7	3.8	7.44e-01	0	42	104	0	78	10491
2026-01-29 23:12:45.26	359.28	26.71	-53.9	-62.7	3.8	7.45e-01	0	42	104	0	78	10469
2026-01-29 23:12:48.27	358.42	27.33	-54.0	-62.8	3.8	7.47e-01	0	42	104	0	78	10566
2026-01-29 23:12:51.30	357.52	27.96	-53.9	-62.8	3.8	7.45e-01	0	42	104	0	78	10569
2026-01-29 23:12:54.33	356.57	28.61	-54.0	-62.8	3.8	7.44e-01	0	42	104	0	78	10652
2026-01-29 23:12:57.35	355.59	29.26	-54.0	-62.8	3.8	7.44e-01	0	42	104	0	78	10598
2026-01-29 23:13:00.36	354.56	29.91	-54.1	-62.9	3.8	7.44e-01	0	42	104	0	78	10671
2026-01-29 23:13:03.38	353.49	30.58	-54.0	-62.9	3.8	7.45e-01	0	42	104	0	78	10691
2026-01-29 23:13:06.39	352.36	31.26	-54.1	-62.9	3.8	7.45e-01	0	42	104	0	78	10757
2026-01-29 23:13:09.41	351.19	31.94	-54.1	-62.9	3.8	7.43e-01	0	42	104	0	78	10702
2026-01-29 23:13:12.42	349.96	32.62	-54.2	-63.0	3.8	7.45e-01	0	42	104	0	78	10831
2026-01-29 23:13:15.44	348.66	33.31	-54.2	-63.0	3.8	7.45e-01	0	42	104	0	78	10876
2026-01-29 23:13:18.46	347.31	34.00	-54.3	-63.1	3.8	7.46e-01	0	42	104	0	79	10311
2026-01-29 23:13:21.48	345.89	34.70	-54.3	-63.1	3.8	7.45e-01	0	42	104	0	79	10351
2026-01-29 23:13:24.51	344.41	35.39	-54.3	-63.2	3.8	7.46e-01	0	42	104	0	79	10417
2026-01-29 23:13:27.53	342.86	36.08	-54.4	-63.2	3.8	7.46e-01	0	42	104	0	79	10465
2026-01-29 23:13:30.54	341.24	36.75	-54.4	-63.2	3.8	7.45e-01	0	42	104	0	79	10442
2026-01-29 23:13:33.57	339.54	37.42	-54.4	-63.2	3.8	7.46e-01	0	42	104	0	79	10422
2026-01-29 23:13:36.58	337.78	38.08	-54.4	-63.2	3.8	7.45e-01	0	42	104	0	79	10486
2026-01-29 23:13:39.60	335.93	38.72	-54.5	-63.3	3.8	7.46e-01	0	42	104	0	79	10573
2026-01-29 23:13:42.61	334.01	39.34	-54.5	-63.3	3.8	7.46e-01	0	42	104	0	79	10584
2026-01-29 23:13:45.64	332.01	39.93	-54.5	-63.3	3.8	7.46e-01	0	42	104	0	79	10638
2026-01-29 23:13:48.66	329.93	40.50	-54.5	-63.3	3.8	7.47e-01	0	42	104	0	79	10651
2026-01-29 23:13:51.68	327.78	41.03	-54.6	-63.4	3.8	7.45e-01	0	42	104	0	79	10750
2026-01-29 23:13:54.69	325.56	41.53	-54.6	-63.5	3.8	7.44e-01	0	42	104	0	79	10782
2026-01-29 23:13:57.72	323.25	41.99	-54.6	-63.4	3.8	7.46e-01	0	42	104	0	79	10768
2026-01-29 23:14:00.73	320.90	42.39	-54.6	-63.5	3.8	7.45e-01	0	42	104	0	79	10823
2026-01-29 23:14:03.75	318.47	42.75	-54.7	-63.5	3.8	7.47e-01	0	42	104	0	79	10880
2026-01-29 23:14:06.77	316.00	43.06	-54.7	-63.5	3.8	7.44e-01	0	42	104	0	79	10897
2026-01-29 23:14:09.79	313.48	43.31	-54.7	-63.5	3.8	7.47e-01	0	42	104	0	80	10253
2026-01-29 23:14:12.80	310.93	43.50	-54.7	-63.5	3.8	7.46e-01	0	42	104	0	80	10237
2026-01-29 23:14:15.83	308.33	43.63	-54.7	-63.5	3.8	7.44e-01	0	42	104	0	80	10285
2026-01-29 23:14:18.85	305.73	43.70	-54.7	-63.6	3.8	7.45e-01	0	42	104	0	80	10309
2026-01-29 23:14:21.86	303.13	43.70	-54.7	-63.6	3.8	7.45e-01	0	42	104	0	80	10294
2026-01-29 23:14:24.88	300.53	43.64	-54.7	-63.6	3.8	7.45e-01	0	42	104	0	80	10299
2026-01-29 23:14:27.90	297.94	43.51	-54.8	-63.6	3.8	7.45e-01	0	42	104	0	80	10377
2026-01-29 23:14:30.92	295.38	43.33	-54.8	-63.7	3.8	7.44e-01	0	42	104	0	80	10421
2026-01-29 23:14:33.94	292.86	43.08	-54.8	-63.6	3.8	7.45e-01	0	42	104	0	80	10404
2026-01-29 23:14:36.96	290.37	42.78	-54.8	-63.6	3.8	7.46e-01	0	42	104	0	80	10356
2026-01-29 23:14:39.99	287.94	42.42	-54.8	-63.7	3.8	7.45e-01	0	42	104	0	80	10429
2026-01-29 23:14:43.00	285.58	42.01	-54.8	-63.6	3.8	7.44e-01	0	42	104	0	80	10348
2026-01-29 23:14:46.02	283.27	41.56	-54.8	-63.6	3.8	7.47e-01	0	42	104	0	80	10343
2026-01-29 23:14:49.05	281.03	41.06	-54.7	-63.5	3.8	7.45e-01	0	42	104	0	80	10288
2026-01-29 23:14:52.07	278.87	40.53	-54.7	-63.5	3.8	7.45e-01	0	42	104	0	80	10282
2026-01-29 23:14:55.09	276.78	39.96	-54.7	-63.5	3.8	7.46e-01	0	42	104	0	80	10213
2026-01-29 23:14:58.10	274.78	39.37	-54.6	-63.5	3.8	7.45e-01	0	42	104	0	80	10254
2026-01-29 23:15:01.12	272.85	38.75	-54.6	-63.4	3.8	7.46e-01	0	42	104	0	80	10128
2026-01-29 23:15:04.15	270.99	38.10	-54.6	-63.4	3.8	7.45e-01	0	42	104	0	80	10115
2026-01-29 23:15:07.18	269.20	37.45	-54.5	-63.3	3.8	7.46e-01	0	42	104	0	80	10050
2026-01-29 23:15:10.20	267.50	36.77	-54.5	-63.3	3.8	7.45e-01	0	42	104	0	80	10030
2026-01-29 23:15:13.22	265.87	36.09	-54.4	-63.3	3.8	7.45e-01	0	42	104	0	80	9981
2026-01-29 23:15:16.25	264.31	35.40	-54.4	-63.3	3.8	7.46e-01	0	42	104	0	80	9958
2026-01-29 23:15:19.26	262.83	34.71	-54.4	-63.3	3.8	7.46e-01	0	42	104	0	80	9974
2026-01-29 23:15:22.29	261.40	34.01	-54.4	-63.2	3.8	7.44e-01	0	42	104	0	80	9914
2026-01-29 23:15:25.30	260.04	33.32	-54.3	-63.2	3.8	7.44e-01	0	42	104	0	80	9897
2026-01-29 23:15:28.33	258.74	32.63	-54.3	-63.2	3.8	7.48e-01	0	42	104	0	80	9860
2026-01-29 23:15:31.35	257.50	31.94	-54.3	-63.1	3.8	7.45e-01	0	42	104	0	80	9811
2026-01-29 23:15:34.37	256.32	31.25	-54.3	-63.1	3.8	7.45e-01	0	42	104	0	80	9821
2026-01-29 23:15:37.39	255.18	30.58	-54.3	-63.1	3.8	7.44e-01	0	42	104	0	80	9795
2026-01-29 23:15:40.40	254.11	29.91	-54.3	-63.1	3.8	7.45e-01	0	42	104	0	80	9782
2026-01-29 23:15:43.43	253.07	29.24	-54.2	-63.1	3.8	7.46e-01	0	42	104	0	80	9746
2026-01-29 23:15:46.46	252.08	28.59	-54.2	-63.0	3.8	7.46e-01	0	42	104	0	80	9713
2026-01-29 23:15:49.47	251.14	27.95	-54.1	-63.0	3.8	7.45e-01	0	42	104	0	80	9631
2026-01-29 23:15:52.50	250.23	27.31	-54.1	-63.0	3.8	7.45e-01	0	42	104	0	80	9626
2026-01-29 23:15:55.51	249.37	26.69	-54.1	-62.9	3.8	7.45e-01	0	42	104	0	80	9601
2026-01-29 23:15:58.53	248.54	26.08	-54.1	-62.9	3.8	7.45e-01	0	42	104	0	80	9586
2026-01-29 23:16:01.55	247.74	25.48	-54.0	-62.9	3.8	7.46e-01	0	42	104	0	80	9541
2026-01-29 23:16:04.57	246.98	24.89	-54.0	-62.9	3.8	7.44e-01	0	42	104	0	80	9519
2026-01-29 23:16:07.59	246.25	24.31	-54.0	-62.8	3.8	7.45e-01	0	42	104	0	80	9458
2026-01-29 23:16:10.61	245.55	23.74	-54.1	-62.9	3.8	7.45e-01	0	42	104	0	79	10131
2026-01-29 23:16:13.63	244.87	23.18	-54.0	-62.8	3.8	7.45e-01	0	42	104	0	79	10037
2026-01-29 23:16:16.65	244.23	22.63	-54.0	-62.8	3.8	7.47e-01	0	42	104	0	79	10041
2026-01-29 23:16:19.67	243.60	22.10	-54.0	-62.8	3.8	7.44e-01	0	42	104	0	79	10035
2026-01-29 23:16:22.70	243.00	21.57	-54.0	-62.8	3.8	7.45e-01	0	42	104	0	79	9993
2026-01-29 23:16:25.72	242.43	21.05	-53.9	-62.7	3.8	7.46e-01	0	42	104	0	79	9941
2026-01-29 23:16:28.74	241.88	20.55	-53.9	-62.7	3.8	7.44e-01	0	42	104	0	79	9903
2026-01-29 23:16:31.75	241.34	20.06	-53.9	-62.7	3.8	7.45e-01	0	42	104	0	79	9892
2026-01-29 23:16:34.77	240.83	19.57	-53.8	-62.7	3.8	7.44e-01	0	42	104	0	79	9847
2026-01-29 23:16:37.80	240.33	19.10	-53.8	-62.7	3.8	7.45e-01	0	42	104	0	79	9848
2026-01-29 23:16:40.82	239.86	18.63	-53.8	-62.6	3.8	7.45e-01	0	42	104	0	79	9785
2026-01-29 23:16:43.84	239.40	18.17	-53.8	-62.6	3.8	7.46e-01	0	42	104	0	79	9765
2026-01-29 23:16:46.87	238.95	17.72	-53.8	-62.6	3.8	7.45e-01	0	42	104	0	79	9757
2026-01-29 23:16:49.89	238.52	17.29	-53.7	-62.6	3.8	7.45e-01	0	42	104	0	79	9721
2026-01-29 23:16:52.91	238.10	16.86	-53.7	-62.5	3.8	7.46e-01	0	42	104	0	79	9690
2026-01-29 23:16:55.93	237.70	16.43	-53.6	-62.5	3.8	7.45e-01	0	42	104	0	79	9613
2026-01-29 23:16:58.95	237.32	16.02	-53.7	-62.5	3.8	7.45e-01	0	42	104	0	79	9675
2026-01-29 23:17:01.97	236.94	15.61	-53.6	-62.5	3.8	7.45e-01	0	42	104	0	79	9637
2026-01-29 23:17:05.00	236.58	15.21	-53.6	-62.4	3.8	7.46e-01	0	42	104	0	79	9583
2026-01-29 23:17:08.03	236.22	14.82	-53.5	-62.4	3.8	7.46e-01	0	42	104	0	79	9542
2026-01-29 23:17:11.04	235.88	14.44	-53.5	-62.3	3.8	7.45e-01	0	42	104	0	79	9463
2026-01-29 23:17:14.06	235.55	14.06	-53.5	-62.3	3.8	7.46e-01	0	42	104	0	79	9481
2026-01-29 23:17:17.09	235.23	13.69	-53.5	-62.3	3.8	7.44e-01	0	42	104	0	79	9450
2026-01-29 23:17:20.11	234.92	13.33	-53.5	-62.3	3.8	7.46e-01	0	42	104	0	78	9998
2026-01-29 23:17:23.12	234.62	12.97	-53.4	-62.3	3.8	7.45e-01	0	42	104	0	78	10015
2026-01-29 23:17:26.14	234.33	12.62	-53.4	-62.3	3.8	7.45e-01	0	42	104	0	78	9952
2026-01-29 23:17:29.16	234.04	12.27	-53.4	-62.2	3.8	7.45e-01	0	42	104	0	78	9903
2026-01-29 23:17:32.18	233.77	11.93	-53.3	-62.2	3.8	7.45e-01	0	42	104	0	78	9893
2026-01-29 23:17:35.19	233.50	11.60	-53.3	-62.1	3.8	7.45e-01	0	42	104	0	78	9823
2026-01-29 23:17:38.21	233.24	11.27	-53.3	-62.2	3.8	7.45e-01	0	42	104	0	78	9866
2026-01-29 23:17:41.23	232.99	10.95	-53.3	-62.2	3.8	7.44e-01	0	42	104	0	78	9837
2026-01-29 23:17:44.26	232.74	10.63	-53.2	-62.0	3.8	7.46e-01	0	42	104	0	78	9705
2026-01-29 23:17:47.28	232.50	10.32	-53.2	-62.0	3.8	7.46e-01	0	42	104	0	78	9675
2026-01-29 23:17:50.31	232.27	10.01	-53.2	-62.0	3.8	7.46e-01	0	42	104	0	78	9702
2026-01-29 23:17:53.33	232.04	9.70	-53.2	-62.0	3.8	7.43e-01	0	42	104	0	78	9656
2026-01-29 23:17:56.34	231.82	9.40	-53.1	-61.9	3.8	7.45e-01	0	42	104	0	78	9569
2026-01-29 23:17:59.37	231.60	9.11	-53.0	-61.9	3.8	7.45e-01	0	42	104	0	78	9529
2026-01-29 23:18:02.39	231.39	8.82	-53.0	-61.9	3.8	7.45e-01	0	42	104	0	78	9568
2026-01-29 23:18:05.41	231.19	8.53	-53.1	-61.9	3.8	7.46e-01	0	42	104	0	78	9525
2026-01-29 23:18:08.43	230.99	8.25	-53.0	-61.8	3.8	7.44e-01	0	42	104	0	77	10000
2026-01-29 23:18:11.45	230.79	7.97	-52.9	-61.7	3.8	7.46e-01	0	42	104	0	77	9932
2026-01-29 23:18:14.48	230.60	7.70	-52.9	-61.7	3.8	7.46e-01	0	42	104	0	77	9928
2026-01-29 23:18:17.50	230.42	7.42	-52.9	-61.7	3.8	7.45e-01	0	42	104	0	77	9925
2026-01-29 23:18:20.52	230.24	7.16	-52.8	-61.7	3.8	7.45e-01	0	42	104	0	77	9859
2026-01-29 23:18:23.54	230.06	6.89	-52.7	-61.6	3.8	7.47e-01	0	42	104	0	77	9775
2026-01-29 23:18:26.56	229.89	6.63	-52.7	-61.6	3.8	7.45e-01	0	42	104	0	77	9726
2026-01-29 23:18:29.59	229.72	6.38	-52.8	-61.6	3.8	7.45e-01	0	42	104	0	77	9768
2026-01-29 23:18:32.61	229.56	6.12	-52.7	-61.5	3.8	7.45e-01	0	42	104	0	77	9696
2026-01-29 23:18:35.63	229.40	5.87	-52.5	-61.4	3.8	7.45e-01	0	42	104	0	77	9564
2026-01-29 23:18:38.65	229.24	5.62	-52.5	-61.4	3.8	7.45e-01	0	42	104	0	77	9531
2026-01-29 23:18:41.67	229.09	5.38	-52.6	-61.5	3.8	7.44e-01	0	42	104	0	77	9657
2026-01-29 23:18:44.69	228.94	5.14	-52.6	-61.4	3.8	7.44e-01	0	42	104	0	76	10087
2026-01-29 23:18:47.71	228.79	4.90	-53.2	-62.0	3.8	7.45e-01	0	42	104	0	76	10862
2026-01-29 23:18:50.73	228.65	4.66	-53.9	-62.7	3.8	7.46e-01	0	42	104	0	78	10520
2026-01-29 23:18:53.76	228.51	4.43	-54.2	-63.1	3.8	7.46e-01	0	42	104	0	78	10924
2026-01-29 23:18:56.77	228.37	4.19	-54.3	-63.2	3.8	7.45e-01	0	42	104	0	79	10434
2026-01-29 23:18:59.80	228.24	3.97	-54.3	-63.2	3.8	7.47e-01	0	42	104	0	79	10462
2026-01-29 23:19:02.83	228.10	3.74	-54.3	-63.1	3.8	7.44e-01	0	42	104	0	79	10358
2026-01-29 23:19:05.85	227.98	3.51	-54.0	-62.8	3.8	7.46e-01	0	42	104	0	79	10051
2026-01-29 23:19:08.87	227.85	3.29	-54.1	-62.9	3.8	7.46e-01	0	42	104	0	79	10109
2026-01-29 23:19:11.89	227.73	3.07	-54.0	-62.8	3.8	7.46e-01	0	42	104	0	79	10020
2026-01-29 23:19:14.91	227.61	2.86	-54.0	-62.8	3.8	7.45e-01	0	42	104	0	79	10027
2026-01-29 23:19:17.94	227.49	2.64	-53.9	-62.8	3.8	7.45e-01	0	42	104	0	79	9975
2026-01-29 23:19:20.96	227.37	2.43	-53.9	-62.8	3.8	7.46e-01	0	42	104	0	79	9955
2026-01-29 23:19:23.99	227.26	2.21	-53.9	-62.7	3.8	7.44e-01	0	42	104	0	79	9917
2026-01-29 23:19:27.01	227.15	2.01	-53.9	-62.7	3.8	7.44e-01	0	42	104	0	79	9918

#Closed at: 2026-01-29 23:19:27
#Recorded file [0 MB]: D:/lorett/data/31041_260130_020913.dat