passes_logs/2026/01/27/T1/T1__20260127_074407_NOAA_20_JPSS-1_rec.log

#Pass ID: 20260127_074407_NOAA 20 (JPSS-1)
#Satellite: NOAA 20 (JPSS-1)
#Configuration: NOAA 20
#almurnet v.1.7.20251203
#Start time: 2026-01-27 07:44:07

#Version: 2.0.20230620
#Station: T1
#Location: 37.570604 lon 55.790049 lat
#TLE: 1 43013U 17073A   26026.81907703  .00000149  00000+0  91399-4 0  9998
#TLE: 2 43013  98.7647 327.6343 0000991  22.4130 337.7089 14.19540778424411

#Time	Az	El	Level	Level2	SNR	BER	BlckErr	Temp	State	Recorded	gain1	gain2
2026-01-27 07:44:07.31	89.39	4.99	-50.0	-65.4	3.8	1.49e+00	0	41	0	0	71	21428
2026-01-27 07:44:09.29	89.18	5.10	-50.0	-65.4	3.8	1.49e+00	0	41	104	0	71	21328
2026-01-27 07:44:11.28	88.97	5.20	-50.3	-65.4	3.8	1.49e+00	0	41	104	0	71	21392
2026-01-27 07:44:13.26	88.76	5.30	-50.2	-65.4	3.8	1.49e+00	0	41	104	0	71	21454
2026-01-27 07:44:15.25	88.54	5.40	-50.3	-65.4	3.8	1.49e+00	0	41	104	0	71	21362
2026-01-27 07:44:17.23	88.33	5.50	-50.2	-65.4	3.8	1.49e+00	0	41	104	0	71	21485
2026-01-27 07:44:19.22	88.11	5.61	-50.2	-65.4	3.8	1.49e+00	0	41	104	0	71	21374
2026-01-27 07:44:21.20	87.89	5.71	-50.1	-65.4	3.8	1.49e+00	0	42	104	0	71	21454
2026-01-27 07:44:23.19	87.67	5.81	-50.0	-65.4	3.8	1.49e+00	0	41	104	0	71	21425
2026-01-27 07:44:25.18	87.45	5.91	-50.0	-65.4	3.8	1.49e+00	0	42	104	0	71	21285
2026-01-27 07:44:27.16	87.22	6.01	-49.9	-65.3	3.8	1.49e+00	0	42	104	0	71	21069
2026-01-27 07:44:29.15	87.00	6.12	-49.8	-65.1	3.8	1.49e+00	0	42	104	0	71	20749
2026-01-27 07:44:31.13	86.77	6.22	-49.6	-64.8	3.8	1.49e+00	0	42	104	0	71	19947
2026-01-27 07:44:33.12	86.54	6.32	-49.5	-64.8	3.8	1.49e+00	0	42	104	0	70	21036
2026-01-27 07:44:35.10	86.31	6.42	-49.4	-64.8	3.8	1.49e+00	0	42	104	0	70	21073
2026-01-27 07:44:37.09	86.08	6.53	-49.4	-64.7	3.8	1.49e+00	0	42	104	0	70	20919
2026-01-27 07:44:39.08	85.84	6.63	-49.4	-64.8	3.8	1.49e+00	0	42	104	0	70	21035
2026-01-27 07:44:41.06	85.61	6.73	-49.4	-64.7	3.8	1.49e+00	0	42	104	0	70	21009
2026-01-27 07:44:43.05	85.37	6.83	-49.4	-64.7	3.8	1.49e+00	0	42	104	0	70	20934
2026-01-27 07:44:45.04	85.13	6.93	-49.4	-64.6	3.8	1.49e+00	0	42	104	0	70	20764
2026-01-27 07:44:47.02	84.89	7.03	-49.4	-64.5	3.8	1.49e+00	0	42	104	0	70	20515
2026-01-27 07:44:49.01	84.64	7.14	-49.4	-64.5	3.8	1.49e+00	0	42	104	0	70	20394
2026-01-27 07:44:50.99	84.40	7.24	-49.4	-64.6	3.8	1.49e+00	0	42	104	0	70	20635
2026-01-27 07:44:52.98	84.15	7.34	-49.4	-64.7	3.8	1.49e+00	0	42	104	0	70	20781
2026-01-27 07:44:54.96	83.91	7.44	-49.4	-64.6	3.8	1.49e+00	0	43	104	0	70	20691
2026-01-27 07:44:56.95	83.66	7.54	-49.4	-64.4	3.8	1.49e+00	0	43	104	0	70	20280
2026-01-27 07:44:58.94	83.40	7.64	-49.4	-64.0	3.8	1.49e+00	0	43	104	0	70	19334
2026-01-27 07:45:00.93	83.15	7.74	-49.4	-63.9	3.8	1.49e+00	0	43	104	0	70	19068
2026-01-27 07:45:02.91	82.90	7.85	-49.4	-64.1	3.8	1.49e+00	0	43	104	0	70	19443
2026-01-27 07:45:04.90	82.64	7.95	-49.4	-64.2	3.8	1.49e+00	0	43	104	0	70	19764
2026-01-27 07:45:06.88	82.38	8.05	-49.4	-64.2	3.8	1.49e+00	0	43	104	0	70	19628
2026-01-27 07:45:08.87	82.12	8.15	-49.3	-63.4	3.8	1.49e+00	0	43	104	0	70	17940
2026-01-27 07:45:10.86	81.86	8.25	-49.3	-62.9	3.8	1.49e+00	0	43	104	0	70	16893
2026-01-27 07:45:12.85	81.59	8.35	-49.3	-63.6	3.8	1.49e+00	0	43	104	0	70	18320
2026-01-27 07:45:14.83	81.33	8.45	-48.9	-58.7	5.3	1.03e+00	0	43	0	1048576	69	11102
2026-01-27 07:45:16.82	81.06	8.55	-47.3	-52.9	10.5	9.65e-03	0	43	0	4194304	66	6740
2026-01-27 07:45:18.80	80.79	8.65	-46.0	-50.1	13.3	4.73e-05	0	43	0	8388608	64	5492
2026-01-27 07:45:20.79	80.52	8.75	-46.0	-50.0	13.5	9.90e-06	0	43	0	11534336	63	5788
2026-01-27 07:45:22.78	80.24	8.85	-46.9	-52.0	11.4	2.91e-04	0	43	0	15728640	64	6838
2026-01-27 07:45:24.77	79.97	8.95	-48.4	-56.5	6.9	9.55e-02	0	43	0	18874368	67	9676
2026-01-27 07:45:26.75	79.69	9.04	-47.5	-53.4	9.7	1.25e+00	0	43	0	22020096	67	6734
2026-01-27 07:45:28.82	79.40	9.15	-49.3	-64.5	3.8	9.46e-01	0	43	104	26214400	69	21680
2026-01-27 07:45:30.81	79.12	9.25	-49.4	-62.5	4.0	5.48e-01	0	43	0	27262976	69	17099
2026-01-27 07:45:32.80	78.84	9.34	-47.0	-52.0	11.3	8.09e-04	0	43	0	28311552	65	6473
2026-01-27 07:45:34.79	78.55	9.44	-46.2	-50.4	13.0	5.26e-05	0	43	0	32505856	64	5707
2026-01-27 07:45:36.78	78.26	9.54	-46.0	-50.0	13.6	9.90e-06	0	43	0	35651584	63	5729
2026-01-27 07:45:38.77	77.97	9.64	-45.8	-49.6	14.0	7.60e-06	0	43	0	39845888	63	5487
2026-01-27 07:45:40.77	77.68	9.73	-45.1	-48.5	15.2	0.00e+00	0	43	0	42991616	62	5115
2026-01-27 07:45:42.76	77.39	9.83	-44.9	-48.2	15.4	0.00e+00	0	43	0	47185920	61	5261
2026-01-27 07:45:44.76	77.09	9.93	-44.6	-47.7	15.9	0.00e+00	0	43	0	51380224	61	4953
2026-01-27 07:45:46.75	76.79	10.02	-44.5	-47.6	16.1	0.00e+00	0	43	0	54525952	60	5168
2026-01-27 07:45:48.73	76.49	10.12	-44.2	-47.2	16.4	0.00e+00	0	44	0	58720256	60	4950
2026-01-27 07:45:50.72	76.19	10.21	-44.2	-47.1	16.5	0.00e+00	0	43	0	61865984	60	4925
2026-01-27 07:45:52.71	75.89	10.31	-44.1	-47.0	16.6	0.00e+00	0	43	0	66060288	60	4847
2026-01-27 07:45:54.70	75.58	10.40	-44.1	-47.0	16.6	0.00e+00	0	43	0	69206016	60	4868
2026-01-27 07:45:56.69	75.28	10.49	-44.1	-47.0	16.6	0.00e+00	0	43	0	73400320	60	4831
2026-01-27 07:45:58.68	74.97	10.59	-44.1	-46.9	16.7	0.00e+00	0	43	0	76546048	60	4802
2026-01-27 07:46:00.67	74.66	10.68	-44.0	-46.8	16.8	0.00e+00	0	43	0	80740352	59	4990
2026-01-27 07:46:02.67	74.34	10.77	-43.9	-46.7	16.9	0.00e+00	0	43	0	84934656	59	4972
2026-01-27 07:46:04.66	74.03	10.87	-43.9	-46.6	16.9	0.00e+00	0	44	0	88080384	59	4915
2026-01-27 07:46:06.71	73.70	10.96	-43.9	-46.7	16.9	0.00e+00	0	43	0	92274688	59	4939
2026-01-27 07:46:08.77	73.37	11.05	-43.8	-46.6	17.0	0.00e+00	0	43	0	96468992	59	4887
2026-01-27 07:46:10.77	73.05	11.14	-43.7	-46.5	17.2	0.00e+00	0	43	0	99614720	59	4817
2026-01-27 07:46:12.76	72.72	11.23	-43.8	-46.5	17.1	0.00e+00	0	43	0	103809024	59	4848
2026-01-27 07:46:14.75	72.40	11.32	-43.6	-46.3	17.3	0.00e+00	0	43	0	106954752	59	4729
2026-01-27 07:46:16.74	72.07	11.41	-43.6	-46.2	17.4	0.00e+00	0	43	0	111149056	59	4701
2026-01-27 07:46:18.73	71.74	11.50	-43.4	-46.0	17.6	0.00e+00	0	44	0	114294784	58	4856
2026-01-27 07:46:21.06	71.35	11.60	-43.4	-46.0	17.7	0.00e+00	0	43	0	119537664	58	4821
2026-01-27 07:46:23.09	71.01	11.69	-43.4	-46.0	17.7	0.00e+00	0	43	0	122683392	58	4832
2026-01-27 07:46:25.29	70.64	11.79	-43.5	-46.2	17.5	0.00e+00	0	44	0	126877696	58	4943
2026-01-27 07:46:27.56	70.26	11.88	-43.6	-46.2	17.5	0.00e+00	0	44	0	131072000	58	4965
2026-01-27 07:46:29.84	69.87	11.98	-43.7	-46.4	17.3	0.00e+00	0	43	0	135266304	58	5067
2026-01-27 07:46:32.11	69.48	12.08	-43.7	-46.3	17.4	0.00e+00	0	43	0	139460608	58	5019
2026-01-27 07:46:34.38	69.08	12.17	-43.8	-46.4	17.2	0.00e+00	0	44	0	143654912	58	5096
2026-01-27 07:46:36.94	68.64	12.28	-43.8	-46.5	17.2	0.00e+00	0	43	0	148897792	58	5131
2026-01-27 07:46:39.29	68.22	12.37	-43.9	-46.7	17.1	0.00e+00	0	44	0	153092096	58	5219
2026-01-27 07:46:41.31	67.87	12.45	-44.0	-46.8	16.9	0.00e+00	0	43	0	157286400	58	5319
2026-01-27 07:46:43.30	67.51	12.53	-43.8	-46.6	17.1	0.00e+00	0	43	0	160432128	58	5195
2026-01-27 07:46:45.30	67.15	12.61	-43.9	-46.7	17.1	0.00e+00	0	43	0	164626432	58	5220
2026-01-27 07:46:47.29	66.80	12.69	-43.7	-46.3	17.4	0.00e+00	0	43	0	167772160	58	5027
2026-01-27 07:46:49.28	66.44	12.77	-43.7	-46.3	17.4	0.00e+00	0	43	0	171966464	58	5033
2026-01-27 07:46:51.26	66.08	12.84	-43.8	-46.4	17.3	0.00e+00	0	44	0	176160768	58	5086
2026-01-27 07:46:53.29	65.71	12.92	-43.9	-46.6	17.1	0.00e+00	0	44	0	179306496	58	5181
2026-01-27 07:46:55.23	65.35	12.99	-43.8	-46.5	17.2	0.00e+00	0	43	0	183500800	58	5131
2026-01-27 07:46:57.22	64.99	13.06	-43.9	-46.6	17.1	0.00e+00	0	44	0	186646528	58	5185
2026-01-27 07:46:59.30	64.60	13.14	-43.5	-46.1	17.6	0.00e+00	0	44	0	190840832	58	4892
2026-01-27 07:47:01.33	64.22	13.21	-43.5	-46.1	17.6	0.00e+00	0	44	0	195035136	58	4925
2026-01-27 07:47:03.32	63.85	13.28	-43.6	-46.3	17.5	0.00e+00	0	43	0	198180864	58	4989
2026-01-27 07:47:05.32	63.47	13.35	-43.5	-46.1	17.6	0.00e+00	0	43	0	202375168	58	4905
2026-01-27 07:47:07.31	63.10	13.42	-43.5	-46.1	17.6	0.00e+00	0	43	0	205520896	58	4923
2026-01-27 07:47:09.31	62.72	13.49	-43.5	-46.1	17.7	0.00e+00	0	43	0	209715200	58	4881
2026-01-27 07:47:11.30	62.34	13.55	-43.3	-45.9	17.8	0.00e+00	0	44	0	212860928	58	4780
2026-01-27 07:47:13.40	61.94	13.62	-43.4	-45.9	17.8	0.00e+00	0	44	0	217055232	58	4792
2026-01-27 07:47:15.40	61.55	13.69	-43.4	-45.9	17.8	0.00e+00	0	44	0	221249536	58	4800
2026-01-27 07:47:17.39	61.17	13.75	-43.4	-45.9	17.8	0.00e+00	0	44	0	224395264	58	4812
2026-01-27 07:47:19.38	60.78	13.81	-43.4	-46.1	17.7	0.00e+00	0	44	0	228589568	58	4871
2026-01-27 07:47:21.37	60.40	13.87	-43.4	-46.0	17.7	0.00e+00	0	44	0	231735296	58	4864
2026-01-27 07:47:23.48	59.98	13.94	-43.4	-45.9	17.8	0.00e+00	0	43	0	235929600	58	4788
2026-01-27 07:47:25.65	59.56	14.00	-43.3	-45.8	17.9	0.00e+00	0	44	0	240123904	58	4757
2026-01-27 07:47:27.64	59.16	14.06	-43.4	-46.0	17.8	0.00e+00	0	43	0	244318208	58	4833
2026-01-27 07:47:29.63	58.77	14.11	-43.5	-46.1	17.7	0.00e+00	0	44	0	247463936	58	4909
2026-01-27 07:47:31.62	58.38	14.17	-43.5	-46.1	17.7	0.00e+00	0	44	0	251658240	58	4900
2026-01-27 07:47:33.61	57.98	14.22	-43.6	-46.1	17.6	0.00e+00	0	43	0	254803968	58	4926
2026-01-27 07:47:35.60	57.58	14.27	-43.8	-46.4	17.4	0.00e+00	0	44	0	258998272	58	5063
2026-01-27 07:47:37.59	57.18	14.32	-43.6	-46.2	17.6	0.00e+00	0	44	0	262144000	58	4945
2026-01-27 07:47:39.52	56.79	14.37	-43.8	-46.4	17.4	0.00e+00	0	43	0	266338304	58	5078
2026-01-27 07:47:41.61	56.37	14.42	-43.9	-46.5	17.3	7.00e-07	0	44	0	269484032	58	5143
2026-01-27 07:47:43.63	55.96	14.47	-43.8	-46.5	17.3	0.00e+00	0	44	0	273678336	58	5116
2026-01-27 07:47:45.62	55.55	14.51	-43.9	-46.6	17.2	0.00e+00	0	44	0	277872640	58	5207
2026-01-27 07:47:47.60	55.15	14.56	-44.1	-46.9	17.0	0.00e+00	0	44	0	281018368	59	5043
2026-01-27 07:47:49.59	54.74	14.60	-44.1	-46.9	17.0	0.00e+00	0	44	0	285212672	59	5047
2026-01-27 07:47:51.58	54.34	14.64	-43.8	-46.4	17.4	0.00e+00	0	44	0	288358400	59	4790
2026-01-27 07:47:53.57	53.93	14.68	-43.7	-46.3	17.5	0.00e+00	0	44	0	292552704	59	4741
2026-01-27 07:47:55.56	53.51	14.72	-43.5	-46.1	17.7	0.00e+00	0	44	0	296747008	59	4611
2026-01-27 07:47:57.55	53.10	14.76	-43.6	-46.2	17.5	0.00e+00	0	44	0	299892736	58	4982
2026-01-27 07:47:59.54	52.69	14.79	-43.4	-45.9	17.9	0.00e+00	0	44	0	304087040	58	4781
2026-01-27 07:48:01.53	52.28	14.83	-43.4	-45.9	17.8	0.00e+00	0	44	0	307232768	58	4806
2026-01-27 07:48:03.81	51.80	14.86	-43.5	-46.0	17.8	0.00e+00	0	44	0	311427072	58	4852
2026-01-27 07:48:05.83	51.38	14.90	-43.5	-46.1	17.7	0.00e+00	0	44	0	315621376	58	4904
2026-01-27 07:48:07.82	50.96	14.93	-43.6	-46.2	17.5	0.00e+00	0	44	0	318767104	58	4976
2026-01-27 07:48:09.81	50.55	14.95	-43.7	-46.4	17.5	0.00e+00	0	44	0	322961408	58	5046
2026-01-27 07:48:11.80	50.13	14.98	-43.8	-46.4	17.4	0.00e+00	0	44	0	326107136	58	5087
2026-01-27 07:48:13.79	49.71	15.01	-43.6	-46.2	17.6	0.00e+00	0	44	0	330301440	58	4954
2026-01-27 07:48:15.83	49.28	15.03	-43.6	-46.3	17.5	0.00e+00	0	44	0	334495744	58	4994
2026-01-27 07:48:17.88	48.85	15.05	-43.7	-46.4	17.4	0.00e+00	0	44	0	337641472	58	5063
2026-01-27 07:48:19.87	48.43	15.07	-43.6	-46.2	17.6	0.00e+00	0	44	0	341835776	58	4937
2026-01-27 07:48:21.83	48.01	15.09	-43.6	-46.2	17.6	0.00e+00	0	44	0	344981504	58	4968
2026-01-27 07:48:23.82	47.59	15.11	-43.7	-46.4	17.4	0.00e+00	0	43	0	349175808	58	5059
2026-01-27 07:48:25.81	47.17	15.12	-43.5	-46.2	17.7	0.00e+00	0	44	0	353370112	58	4927
2026-01-27 07:48:27.78	46.75	15.14	-43.4	-46.0	17.8	0.00e+00	0	44	0	356515840	58	4859
2026-01-27 07:48:29.77	46.33	15.15	-43.6	-46.2	17.5	0.00e+00	0	44	0	360710144	58	4976
2026-01-27 07:48:31.76	45.90	15.16	-43.9	-46.5	17.3	0.00e+00	0	44	0	363855872	58	5154
2026-01-27 07:48:33.76	45.48	15.17	-43.7	-46.4	17.5	0.00e+00	0	44	0	368050176	58	5054
2026-01-27 07:48:35.82	45.04	15.18	-43.7	-46.3	17.5	0.00e+00	0	44	0	371195904	58	5029
2026-01-27 07:48:37.80	44.62	15.19	-43.7	-46.3	17.5	0.00e+00	0	44	0	375390208	58	4996
2026-01-27 07:48:39.80	44.19	15.19	-43.6	-46.2	17.6	0.00e+00	0	44	0	379584512	58	4970
2026-01-27 07:48:41.78	43.77	15.20	-43.6	-46.3	17.5	0.00e+00	0	44	0	382730240	58	4989
2026-01-27 07:48:43.78	43.34	15.20	-43.7	-46.3	17.5	0.00e+00	0	44	0	386924544	58	5022
2026-01-27 07:48:45.77	42.92	15.20	-43.5	-46.1	17.5	0.00e+00	0	44	0	390070272	58	4921
2026-01-27 07:48:47.76	42.49	15.20	-43.5	-46.1	17.7	0.00e+00	0	44	0	394264576	58	4918
2026-01-27 07:48:49.75	42.07	15.19	-43.6	-46.3	17.5	0.00e+00	0	44	0	397410304	58	5001
2026-01-27 07:48:51.77	41.64	15.19	-43.8	-46.5	17.3	0.00e+00	0	44	0	401604608	58	5112
2026-01-27 07:48:53.96	41.17	15.18	-43.8	-46.4	17.4	0.00e+00	0	43	0	405798912	58	5095
2026-01-27 07:48:55.97	40.74	15.17	-43.8	-46.4	17.5	0.00e+00	0	44	0	409993216	58	5061
2026-01-27 07:48:57.98	40.32	15.16	-43.8	-46.4	17.4	0.00e+00	0	44	0	413138944	58	5072
2026-01-27 07:48:59.97	39.89	15.15	-43.8	-46.4	17.4	0.00e+00	0	44	0	417333248	58	5099
2026-01-27 07:49:01.98	39.47	15.14	-43.6	-46.2	17.6	0.00e+00	0	44	0	420478976	58	4977
2026-01-27 07:49:03.98	39.04	15.13	-43.6	-46.2	17.6	0.00e+00	0	44	0	424673280	58	4944
2026-01-27 07:49:05.98	38.62	15.11	-43.8	-46.4	17.4	0.00e+00	0	44	0	427819008	58	5089
2026-01-27 07:49:07.99	38.19	15.09	-43.9	-46.6	17.2	0.00e+00	0	44	0	432013312	58	5197
2026-01-27 07:49:09.99	37.77	15.07	-43.8	-46.5	17.3	0.00e+00	0	44	0	436207616	58	5145
2026-01-27 07:49:11.98	37.35	15.05	-43.6	-46.2	17.6	0.00e+00	0	44	0	439353344	58	4938
2026-01-27 07:49:13.98	36.93	15.03	-43.4	-46.0	17.8	0.00e+00	0	44	0	443547648	58	4833
2026-01-27 07:49:15.97	36.51	15.01	-43.5	-46.0	17.8	0.00e+00	0	44	0	446693376	58	4866
2026-01-27 07:49:17.99	36.08	14.98	-43.5	-46.2	17.6	0.00e+00	0	44	0	450887680	58	4955
2026-01-27 07:49:19.98	35.67	14.96	-43.5	-46.1	17.7	0.00e+00	0	44	0	454033408	58	4919
2026-01-27 07:49:22.00	35.24	14.93	-43.3	-45.9	17.9	0.00e+00	0	44	0	458227712	58	4788
2026-01-27 07:49:24.00	34.83	14.90	-43.2	-45.7	18.1	0.00e+00	0	44	0	462422016	58	4687
2026-01-27 07:49:25.99	34.41	14.87	-43.3	-45.9	17.9	0.00e+00	0	44	0	465567744	58	4776
2026-01-27 07:49:28.02	33.99	14.84	-43.4	-46.0	17.8	0.00e+00	0	44	0	469762048	58	4836
2026-01-27 07:49:30.02	33.57	14.80	-43.4	-46.0	17.9	0.00e+00	0	44	0	472907776	58	4819
2026-01-27 07:49:32.05	33.15	14.77	-43.3	-45.9	17.9	0.00e+00	0	44	0	477102080	58	4793
2026-01-27 07:49:34.07	32.73	14.73	-43.4	-46.0	17.8	0.00e+00	0	44	0	481296384	58	4839
2026-01-27 07:49:36.08	32.32	14.69	-43.5	-46.3	17.6	0.00e+00	0	44	0	484442112	58	4991
2026-01-27 07:49:38.09	31.91	14.65	-43.6	-46.3	17.5	0.00e+00	0	44	0	488636416	58	5009
2026-01-27 07:49:40.08	31.50	14.61	-43.6	-46.3	17.6	0.00e+00	0	44	0	491782144	58	4984
2026-01-27 07:49:42.09	31.09	14.57	-43.5	-46.1	17.7	0.00e+00	0	44	0	495976448	58	4909
2026-01-27 07:49:44.10	30.68	14.52	-43.5	-46.1	17.7	0.00e+00	0	44	0	500170752	58	4913
2026-01-27 07:49:46.10	30.27	14.48	-43.6	-46.2	17.6	0.00e+00	0	44	0	503316480	58	4969
2026-01-27 07:49:48.10	29.87	14.43	-43.7	-46.4	17.4	0.00e+00	0	44	0	507510784	58	5060
2026-01-27 07:49:50.11	29.46	14.38	-43.8	-46.5	17.3	0.00e+00	0	44	0	510656512	58	5137
2026-01-27 07:49:52.15	29.05	14.33	-43.9	-46.7	17.2	0.00e+00	0	44	0	514850816	58	5228
2026-01-27 07:49:54.16	28.65	14.28	-43.8	-46.7	17.1	0.00e+00	0	43	0	519045120	58	5233
2026-01-27 07:49:56.15	28.25	14.23	-43.5	-46.3	17.5	0.00e+00	0	44	0	522190848	58	5030
2026-01-27 07:49:58.16	27.85	14.17	-43.6	-46.5	17.3	0.00e+00	0	44	0	526385152	58	5119
2026-01-27 07:50:00.14	27.46	14.12	-43.6	-46.4	17.4	0.00e+00	0	44	0	529530880	58	5099
2026-01-27 07:50:02.16	27.06	14.06	-43.6	-46.4	17.4	0.00e+00	0	44	0	533725184	58	5069
2026-01-27 07:50:04.20	26.66	14.01	-43.5	-46.1	17.7	0.00e+00	0	44	0	537919488	58	4914
2026-01-27 07:50:06.20	26.27	13.95	-43.4	-46.1	17.7	0.00e+00	0	44	0	541065216	58	4894
2026-01-27 07:50:08.22	25.87	13.89	-43.3	-45.9	17.8	0.00e+00	0	44	0	545259520	58	4792
2026-01-27 07:50:10.22	25.48	13.83	-43.3	-46.0	17.8	0.00e+00	0	44	0	548405248	58	4840
2026-01-27 07:50:12.21	25.10	13.77	-43.4	-46.1	17.7	0.00e+00	0	44	0	552599552	58	4886
2026-01-27 07:50:14.21	24.71	13.70	-43.4	-46.2	17.6	0.00e+00	0	44	0	555745280	58	4928
2026-01-27 07:50:16.22	24.33	13.64	-43.3	-46.1	17.7	0.00e+00	0	44	0	559939584	58	4898
2026-01-27 07:50:18.24	23.94	13.57	-43.3	-46.0	17.8	0.00e+00	0	44	0	564133888	58	4853
2026-01-27 07:50:20.24	23.56	13.51	-43.4	-46.1	17.7	0.00e+00	0	44	0	567279616	58	4878
2026-01-27 07:50:22.23	23.18	13.44	-43.5	-46.2	17.6	0.00e+00	0	44	0	571473920	58	4929
2026-01-27 07:50:24.23	22.81	13.37	-43.6	-46.2	17.6	0.00e+00	0	44	0	574619648	58	4954
2026-01-27 07:50:26.23	22.43	13.30	-43.4	-45.9	17.9	0.00e+00	0	44	0	578813952	58	4793
2026-01-27 07:50:28.23	22.06	13.23	-43.2	-45.8	18.0	0.00e+00	0	44	0	581959680	58	4726
2026-01-27 07:50:30.26	21.68	13.16	-43.3	-45.9	17.9	0.00e+00	0	44	0	586153984	58	4808
2026-01-27 07:50:32.27	21.31	13.09	-43.3	-46.0	17.7	0.00e+00	0	44	0	590348288	58	4869
2026-01-27 07:50:34.26	20.95	13.02	-43.2	-46.1	17.7	0.00e+00	0	44	0	593494016	58	4882
2026-01-27 07:50:36.26	20.58	12.94	-43.3	-46.1	17.6	0.00e+00	0	44	0	597688320	58	4926
2026-01-27 07:50:38.25	20.22	12.87	-43.3	-46.1	17.7	0.00e+00	0	44	0	600834048	58	4918
2026-01-27 07:50:40.27	19.85	12.79	-43.4	-46.3	17.5	0.00e+00	0	44	0	605028352	58	5027
2026-01-27 07:50:42.29	19.49	12.71	-43.5	-46.4	17.3	0.00e+00	0	44	0	609222656	58	5095
2026-01-27 07:50:44.30	19.13	12.63	-43.8	-46.7	17.1	0.00e+00	0	44	0	612368384	58	5226
2026-01-27 07:50:46.29	18.77	12.56	-44.0	-46.8	17.0	0.00e+00	0	44	0	616562688	58	5309
2026-01-27 07:50:48.31	18.42	12.48	-44.1	-46.9	16.9	0.00e+00	0	44	0	619708416	59	5062
2026-01-27 07:50:50.31	18.06	12.40	-44.3	-47.1	16.7	0.00e+00	0	44	0	623902720	59	5192
2026-01-27 07:50:52.36	17.70	12.31	-44.3	-47.3	16.5	0.00e+00	0	44	0	628097024	59	5283
2026-01-27 07:50:54.36	17.36	12.23	-44.3	-47.4	16.4	0.00e+00	0	44	0	631242752	59	5344
2026-01-27 07:50:56.35	17.01	12.15	-44.3	-47.5	16.3	0.00e+00	0	44	0	635437056	59	5406
2026-01-27 07:50:58.35	16.67	12.07	-44.3	-47.7	16.0	0.00e+00	0	44	0	638582784	59	5588
2026-01-27 07:51:00.35	16.32	11.98	-44.3	-48.0	15.8	0.00e+00	0	44	0	642777088	59	5731
2026-01-27 07:51:02.35	15.98	11.90	-44.3	-48.1	15.7	0.00e+00	0	44	0	646971392	59	5838
2026-01-27 07:51:04.35	15.65	11.81	-44.4	-48.3	15.4	0.00e+00	0	44	0	650117120	59	5984
2026-01-27 07:51:06.35	15.31	11.73	-44.4	-48.3	15.4	0.00e+00	0	44	0	654311424	59	5979
2026-01-27 07:51:08.36	14.97	11.64	-44.6	-48.5	15.1	0.00e+00	0	44	0	657457152	59	6125
2026-01-27 07:51:10.36	14.64	11.55	-44.7	-48.5	15.2	0.00e+00	0	44	0	661651456	60	5740
2026-01-27 07:51:12.35	14.31	11.46	-44.7	-48.2	15.4	0.00e+00	0	44	0	664797184	60	5591
2026-01-27 07:51:14.38	13.98	11.37	-44.9	-48.5	15.1	0.00e+00	0	44	0	668991488	60	5774
2026-01-27 07:51:16.37	13.65	11.29	-45.2	-48.8	14.8	0.00e+00	0	44	0	673185792	61	5644
2026-01-27 07:51:18.38	13.33	11.20	-45.3	-49.1	14.4	7.00e-07	0	44	0	676331520	61	5845
2026-01-27 07:51:20.39	13.00	11.10	-45.3	-49.2	14.4	0.00e+00	0	44	0	680525824	61	5873
2026-01-27 07:51:22.38	12.69	11.01	-45.1	-49.1	14.5	7.00e-07	0	44	0	683671552	61	5833
2026-01-27 07:51:24.38	12.37	10.92	-45.1	-49.2	14.5	0.00e+00	0	44	0	687865856	61	5857
2026-01-27 07:51:26.37	12.05	10.83	-45.2	-49.2	14.4	1.50e-06	0	44	0	691011584	61	5922
2026-01-27 07:51:28.36	11.74	10.74	-45.1	-49.4	14.4	0.00e+00	0	44	0	695205888	61	5997
2026-01-27 07:51:30.37	11.43	10.65	-44.9	-49.4	14.4	7.00e-07	0	44	0	699400192	61	6006
2026-01-27 07:51:32.37	11.12	10.55	-44.8	-49.4	14.2	2.20e-06	0	44	0	702545920	61	6054
2026-01-27 07:51:34.38	10.81	10.46	-44.9	-49.6	14.2	0.00e+00	0	44	0	706740224	61	6133
2026-01-27 07:51:36.37	10.50	10.36	-44.7	-49.3	14.4	0.00e+00	0	44	0	709885952	61	5972
2026-01-27 07:51:38.37	10.20	10.27	-44.4	-49.1	14.7	0.00e+00	0	44	0	714080256	60	6151
2026-01-27 07:51:40.37	9.90	10.18	-44.2	-49.3	14.5	0.00e+00	0	44	0	718274560	60	6278
2026-01-27 07:51:42.39	9.59	10.08	-44.2	-49.2	14.6	7.00e-07	0	44	0	721420288	60	6236
2026-01-27 07:51:44.39	9.30	9.98	-44.3	-49.3	14.5	0.00e+00	0	44	0	725614592	60	6296
2026-01-27 07:51:46.41	9.00	9.89	-44.5	-49.1	14.5	0.00e+00	0	44	0	728760320	60	6195
2026-01-27 07:51:48.41	8.70	9.79	-44.6	-48.8	14.9	0.00e+00	0	44	0	732954624	60	5971
2026-01-27 07:51:50.41	8.41	9.69	-44.8	-48.9	14.8	0.00e+00	0	44	0	736100352	60	6060
2026-01-27 07:51:52.42	8.12	9.59	-44.9	-48.8	15.0	0.00e+00	0	44	0	740294656	60	5944
2026-01-27 07:51:54.42	7.83	9.50	-44.9	-48.7	15.0	0.00e+00	0	44	0	744488960	60	5884
2026-01-27 07:51:56.42	7.55	9.40	-45.0	-48.8	15.0	0.00e+00	0	44	0	747634688	60	5933
2026-01-27 07:51:58.42	7.26	9.30	-44.8	-48.5	15.2	0.00e+00	0	44	0	751828992	60	5754
2026-01-27 07:52:00.43	6.98	9.20	-44.6	-48.4	15.2	0.00e+00	0	44	0	754974720	60	5719
2026-01-27 07:52:02.42	6.70	9.10	-44.3	-48.4	15.3	0.00e+00	0	44	0	759169024	60	5678
2026-01-27 07:52:04.42	6.42	9.00	-44.3	-48.5	15.3	0.00e+00	0	44	0	763363328	60	5773
2026-01-27 07:52:06.44	6.14	8.90	-48.7	-65.1	3.8	1.49e+00	0	44	104	764411904	68	24454
2026-01-27 07:52:08.43	5.87	8.81	-49.6	-65.3	3.8	1.49e+00	0	44	104	764411904	69	23815
2026-01-27 07:52:10.43	5.60	8.71	-49.9	-65.4	3.8	1.49e+00	0	44	104	764411904	71	21506
2026-01-27 07:52:12.43	5.33	8.61	-49.6	-65.5	3.8	1.49e+00	0	44	104	764411904	71	21692
2026-01-27 07:52:14.42	5.06	8.51	-50.0	-65.6	3.8	1.49e+00	0	44	104	764411904	71	21799
2026-01-27 07:52:16.42	4.79	8.41	-50.3	-65.6	3.8	1.49e+00	0	44	104	764411904	71	21907
2026-01-27 07:52:18.42	4.53	8.31	-50.1	-65.6	3.8	1.49e+00	0	44	104	764411904	71	21981
2026-01-27 07:52:20.42	4.26	8.20	-50.1	-65.6	3.8	1.49e+00	0	44	104	764411904	71	21830
2026-01-27 07:52:22.41	4.00	8.10	-50.1	-65.6	3.8	1.49e+00	0	44	104	764411904	71	21841
2026-01-27 07:52:24.41	3.75	8.00	-50.3	-65.6	3.8	1.49e+00	0	44	104	764411904	71	21779
2026-01-27 07:52:26.40	3.49	7.90	-50.3	-65.6	3.8	1.49e+00	0	44	104	764411904	71	21829
2026-01-27 07:52:28.40	3.23	7.80	-50.4	-65.6	3.8	1.49e+00	0	44	104	764411904	71	21794
2026-01-27 07:52:30.40	2.98	7.70	-50.4	-65.5	3.8	1.49e+00	0	44	104	764411904	
