passes_logs/2026/01/27/T1/T1__20260127_204211_FENGYUN_3G_rec.log

#Pass ID: 20260127_204211_FENGYUN 3G
#Satellite: FENGYUN 3G
#Configuration: FENGYUN 3G
#almurnet v.1.7.20251203
#Start time: 2026-01-27 20:42:12

#Version: 2.0.20230620
#Station: T1
#Location: 37.570604 lon 55.790049 lat
#TLE: 1 56232U 23055A   26026.81668957  .00042566  00000+0  63804-3 0  9995
#TLE: 2 56232  49.9949 354.9274 0004068  91.1881 268.9553 15.54453119158037

#Time	Az	El	Level	Level2	SNR	BER	BlckErr	Temp	State	Recorded	gain1	gain2
2026-01-27 20:42:12.36	255.85	5.07	-50.4	-69.5	3.8	8.48e-01	0	40	0	0	71	34428
2026-01-27 20:42:14.34	255.53	5.19	-50.7	-69.5	3.8	8.47e-01	0	40	104	0	72	32449
2026-01-27 20:42:16.32	255.21	5.31	-50.5	-69.5	3.8	8.46e-01	0	40	104	0	72	32334
2026-01-27 20:42:18.31	254.89	5.43	-50.6	-69.4	3.8	8.48e-01	0	40	104	0	72	32134
2026-01-27 20:42:20.30	254.56	5.55	-50.5	-69.4	3.8	8.47e-01	0	40	104	0	72	32169
2026-01-27 20:42:22.28	254.23	5.66	-50.2	-69.4	3.8	8.47e-01	0	40	104	0	72	31887
2026-01-27 20:42:24.27	253.90	5.78	-50.3	-69.3	3.8	8.46e-01	0	40	104	0	72	31612
2026-01-27 20:42:26.25	253.56	5.90	-50.3	-69.2	3.8	8.46e-01	0	40	104	0	72	31137
2026-01-27 20:42:28.24	253.22	6.02	-49.5	-69.0	3.8	8.48e-01	0	40	104	0	71	32349
2026-01-27 20:42:30.22	252.87	6.14	-49.9	-68.8	3.8	8.46e-01	0	40	104	0	70	33565
2026-01-27 20:42:32.21	252.52	6.26	-49.9	-68.8	3.8	8.46e-01	0	40	104	0	70	33636
2026-01-27 20:42:34.20	252.16	6.38	-49.9	-68.8	3.8	8.46e-01	0	40	104	0	70	33554
2026-01-27 20:42:36.18	251.81	6.50	-49.9	-68.8	3.8	8.46e-01	0	41	104	0	70	33581
2026-01-27 20:42:38.17	251.44	6.62	-49.9	-68.8	3.8	8.46e-01	0	41	104	0	70	33559
2026-01-27 20:42:40.15	251.08	6.74	-49.9	-68.8	3.8	8.47e-01	0	41	104	0	70	33562
2026-01-27 20:42:42.14	250.70	6.86	-49.9	-68.8	3.8	8.47e-01	0	40	104	0	70	33528
2026-01-27 20:42:44.12	250.33	6.98	-49.9	-68.8	3.8	8.46e-01	0	41	104	0	70	33536
2026-01-27 20:42:46.11	249.95	7.10	-49.9	-68.8	3.8	8.46e-01	0	41	104	0	70	33551
2026-01-27 20:42:48.10	249.56	7.22	-49.8	-68.8	3.8	8.46e-01	0	41	104	0	70	33508
2026-01-27 20:42:50.08	249.17	7.34	-49.9	-68.8	3.8	8.47e-01	0	41	104	0	70	33441
2026-01-27 20:42:52.07	248.78	7.46	-49.8	-68.8	3.8	8.47e-01	0	41	104	0	70	33534
2026-01-27 20:42:54.06	248.38	7.58	-49.9	-68.8	3.8	8.46e-01	0	41	104	0	70	33442
2026-01-27 20:42:56.04	247.98	7.70	-49.8	-68.8	3.8	8.48e-01	0	41	104	0	70	33466
2026-01-27 20:42:58.03	247.57	7.82	-49.8	-68.8	3.8	8.46e-01	0	41	104	0	70	33445
2026-01-27 20:43:00.01	247.16	7.94	-49.9	-68.8	3.8	8.46e-01	0	41	104	0	70	33420
2026-01-27 20:43:02.00	246.74	8.06	-49.8	-68.8	3.8	8.47e-01	0	41	104	0	70	33474
2026-01-27 20:43:03.99	246.32	8.18	-49.8	-68.8	3.8	8.46e-01	0	41	104	0	70	33361
2026-01-27 20:43:05.97	245.89	8.30	-49.9	-68.8	3.8	8.46e-01	0	41	104	0	70	33415
2026-01-27 20:43:07.96	245.46	8.42	-49.8	-68.8	3.8	8.47e-01	0	41	104	0	70	33451
2026-01-27 20:43:09.94	245.02	8.53	-49.9	-68.8	3.8	8.47e-01	0	41	104	0	70	33352
2026-01-27 20:43:11.93	244.58	8.65	-49.8	-68.8	3.8	8.46e-01	0	41	104	0	70	33444
2026-01-27 20:43:13.92	244.13	8.77	-49.8	-68.8	3.8	8.47e-01	0	41	104	0	70	33418
2026-01-27 20:43:15.90	243.68	8.88	-49.8	-68.8	3.8	8.47e-01	0	41	104	0	70	33340
2026-01-27 20:43:17.89	243.23	9.00	-49.8	-68.8	3.8	8.47e-01	0	41	104	0	70	33360
2026-01-27 20:43:19.87	242.77	9.12	-49.8	-68.8	3.8	8.48e-01	0	41	104	0	70	33469
2026-01-27 20:43:21.86	242.30	9.23	-49.8	-68.8	3.8	8.48e-01	0	41	104	0	70	33425
2026-01-27 20:43:23.84	241.83	9.34	-49.7	-68.8	3.8	8.47e-01	0	41	104	0	70	33486
2026-01-27 20:43:25.83	241.35	9.46	-49.6	-68.8	3.8	8.47e-01	0	41	104	0	70	33512
2026-01-27 20:43:27.81	240.87	9.57	-49.7	-68.8	3.8	8.47e-01	0	41	104	0	70	33593
2026-01-27 20:43:29.80	240.38	9.68	-49.8	-68.8	3.8	8.48e-01	0	41	104	0	70	33568
2026-01-27 20:43:31.79	239.89	9.79	-49.9	-68.8	3.8	8.46e-01	0	41	104	0	70	33477
2026-01-27 20:43:33.77	239.40	9.91	-49.9	-68.8	3.8	8.46e-01	0	41	104	0	70	33660
2026-01-27 20:43:35.76	238.89	10.02	-49.7	-68.8	3.8	8.48e-01	0	41	104	0	70	33530
2026-01-27 20:43:37.74	238.39	10.12	-49.7	-68.8	3.8	8.47e-01	0	41	104	0	70	33611
2026-01-27 20:43:39.73	237.87	10.23	-49.7	-68.8	3.8	8.46e-01	0	41	104	0	70	33545
2026-01-27 20:43:41.71	237.36	10.34	-49.7	-68.8	3.8	8.46e-01	0	41	104	0	70	33675
2026-01-27 20:43:43.70	236.83	10.44	-49.8	-68.8	3.8	8.48e-01	0	41	104	0	70	33593
2026-01-27 20:43:45.69	236.31	10.55	-49.8	-68.9	3.8	8.47e-01	0	41	104	0	70	33806
2026-01-27 20:43:47.67	235.77	10.65	-49.7	-68.8	3.8	8.47e-01	0	41	104	0	70	33661
2026-01-27 20:43:49.66	235.24	10.75	-49.7	-68.9	3.8	8.48e-01	0	41	104	0	70	33850
2026-01-27 20:43:51.64	234.69	10.85	-49.7	-68.9	3.8	8.46e-01	0	41	104	0	70	33785
2026-01-27 20:43:53.63	234.14	10.95	-49.6	-68.9	3.8	8.46e-01	0	41	104	0	70	33754
2026-01-27 20:43:55.61	233.59	11.05	-49.6	-68.8	3.8	8.48e-01	0	41	104	0	70	33676
2026-01-27 20:43:57.60	233.03	11.15	-49.7	-68.8	3.8	8.47e-01	0	42	104	0	70	33691
2026-01-27 20:43:59.59	232.47	11.24	-49.8	-68.9	3.8	8.47e-01	0	41	104	0	70	33794
2026-01-27 20:44:01.57	231.90	11.34	-49.7	-68.9	3.8	8.46e-01	0	41	104	0	70	33706
2026-01-27 20:44:03.56	231.33	11.43	-49.9	-68.9	3.8	8.46e-01	0	41	104	0	70	33751
2026-01-27 20:44:05.55	230.75	11.52	-49.7	-68.9	3.8	8.47e-01	0	41	104	0	70	33874
2026-01-27 20:44:07.53	230.17	11.61	-49.9	-68.9	3.8	8.47e-01	0	41	104	0	70	33744
2026-01-27 20:44:09.52	229.58	11.70	-49.9	-68.9	3.8	8.47e-01	0	41	104	0	70	33861
2026-01-27 20:44:11.51	228.99	11.78	-49.8	-68.9	3.8	8.46e-01	0	42	104	0	70	33811
2026-01-27 20:44:13.49	228.40	11.86	-49.9	-68.9	3.8	8.47e-01	0	42	104	0	70	33813
2026-01-27 20:44:15.48	227.80	11.94	-49.6	-68.9	3.8	8.47e-01	0	42	104	0	70	33838
2026-01-27 20:44:17.46	227.19	12.02	-49.8	-68.9	3.8	8.47e-01	0	41	104	0	70	33881
2026-01-27 20:44:19.45	226.58	12.10	-50.0	-68.9	3.8	8.47e-01	0	41	104	0	70	33785
2026-01-27 20:44:21.44	225.97	12.17	-50.0	-68.9	3.8	8.48e-01	0	41	104	0	70	33983
2026-01-27 20:44:23.42	225.35	12.25	-49.9	-68.9	3.8	8.48e-01	0	41	104	0	70	33842
2026-01-27 20:44:25.41	224.73	12.32	-50.0	-68.9	3.8	8.46e-01	0	41	104	0	70	33816
2026-01-27 20:44:27.39	224.11	12.38	-49.9	-68.9	3.8	8.46e-01	0	41	104	0	70	33719
2026-01-27 20:44:29.38	223.48	12.45	-50.0	-68.9	3.8	8.46e-01	0	42	104	0	70	33789
2026-01-27 20:44:31.37	222.84	12.51	-49.8	-68.9	3.8	8.47e-01	0	42	104	0	70	33886
2026-01-27 20:44:33.35	222.21	12.57	-49.8	-68.9	3.8	8.47e-01	0	42	104	0	70	33872
2026-01-27 20:44:35.34	221.57	12.63	-49.8	-68.9	3.8	8.47e-01	0	41	104	0	70	33897
2026-01-27 20:44:37.32	220.93	12.69	-49.8	-68.9	3.8	8.47e-01	0	41	104	0	70	34016
2026-01-27 20:44:39.31	220.28	12.74	-49.9	-68.9	3.8	8.46e-01	0	41	104	0	70	33953
2026-01-27 20:44:41.29	219.63	12.79	-49.9	-68.9	3.8	8.45e-01	0	42	104	0	70	33959
2026-01-27 20:44:43.28	218.98	12.84	-49.9	-68.9	3.8	8.47e-01	0	42	104	0	70	33978
2026-01-27 20:44:45.27	218.32	12.88	-49.8	-68.9	3.8	8.47e-01	0	42	104	0	70	33977
2026-01-27 20:44:47.25	217.67	12.92	-49.7	-68.9	3.8	8.46e-01	0	42	104	0	70	34017
2026-01-27 20:44:49.24	217.01	12.96	-49.7	-68.9	3.8	8.46e-01	0	41	104	0	70	33899
2026-01-27 20:44:51.23	216.34	13.00	-49.9	-68.9	3.8	8.45e-01	0	42	104	0	70	33955
2026-01-27 20:44:53.21	215.68	13.03	-49.9	-68.9	3.8	8.46e-01	0	42	104	0	70	34014
2026-01-27 20:44:55.20	215.02	13.06	-49.8	-68.9	3.8	8.47e-01	0	42	104	0	70	33897
2026-01-27 20:44:57.18	214.35	13.09	-49.8	-68.9	3.8	8.46e-01	0	42	104	0	70	34026
2026-01-27 20:44:59.17	213.68	13.11	-49.7	-68.9	3.8	8.46e-01	0	41	104	0	70	33996
2026-01-27 20:45:01.15	213.01	13.13	-49.8	-68.9	3.8	8.47e-01	0	42	104	0	70	34003
2026-01-27 20:45:03.14	212.34	13.15	-49.9	-68.9	3.8	8.47e-01	0	42	104	0	70	33865
2026-01-27 20:45:05.13	211.67	13.17	-49.8	-68.9	3.8	8.47e-01	0	42	104	0	70	33803
2026-01-27 20:45:07.11	210.99	13.18	-49.9	-68.9	3.8	8.48e-01	0	42	104	0	70	33724
2026-01-27 20:45:09.10	210.32	13.19	-49.7	-68.9	3.8	8.47e-01	0	42	104	0	70	33800
2026-01-27 20:45:11.08	209.65	13.19	-49.8	-68.9	3.8	8.47e-01	0	42	104	0	70	33804
2026-01-27 20:45:13.07	208.97	13.20	-49.9	-68.9	3.8	8.47e-01	0	42	104	0	70	33940
2026-01-27 20:45:15.05	208.30	13.19	-49.8	-68.9	3.8	8.48e-01	0	42	104	0	70	33976
2026-01-27 20:45:17.04	207.62	13.19	-49.7	-68.9	3.8	8.47e-01	0	42	104	0	70	33913
2026-01-27 20:45:19.03	206.95	13.18	-49.5	-68.9	3.8	8.48e-01	0	42	104	0	70	33955
2026-01-27 20:45:21.01	206.27	13.17	-49.5	-68.9	3.8	8.47e-01	0	42	104	0	70	33945
2026-01-27 20:45:23.00	205.60	13.16	-49.5	-68.9	3.8	8.47e-01	0	42	104	0	70	33946
2026-01-27 20:45:24.98	204.93	13.15	-49.7	-68.9	3.8	8.46e-01	0	41	104	0	70	34013
2026-01-27 20:45:26.97	204.26	13.13	-49.5	-68.9	3.8	8.47e-01	0	42	104	0	70	33916
2026-01-27 20:45:28.96	203.59	13.10	-49.5	-68.9	3.8	8.47e-01	0	42	104	0	70	34010
2026-01-27 20:45:30.94	202.92	13.08	-49.4	-68.9	3.8	8.47e-01	0	42	104	0	70	33971
2026-01-27 20:45:32.93	202.25	13.05	-49.5	-68.9	3.8	8.48e-01	0	42	104	0	70	34022
2026-01-27 20:45:34.91	201.59	13.02	-49.4	-68.9	3.8	8.47e-01	0	42	104	0	70	33959
2026-01-27 20:45:36.90	200.92	12.99	-49.6	-68.9	3.8	8.47e-01	0	42	104	0	70	33956
2026-01-27 20:45:38.88	200.26	12.95	-49.3	-68.9	3.8	8.47e-01	0	42	104	0	70	33857
2026-01-27 20:45:40.87	199.60	12.91	-49.5	-68.9	3.8	8.47e-01	0	42	104	0	70	33906
2026-01-27 20:45:42.86	198.94	12.87	-49.2	-68.9	3.8	8.47e-01	0	42	104	0	70	34015
2026-01-27 20:45:44.84	198.29	12.82	-49.2	-68.9	3.8	8.48e-01	0	42	104	0	70	33989
2026-01-27 20:45:46.83	197.64	12.77	-49.2	-68.9	3.8	8.47e-01	0	41	104	0	70	33945
2026-01-27 20:45:48.81	196.99	12.72	-49.5	-68.9	3.8	8.47e-01	0	41	104	0	70	33904
2026-01-27 20:45:50.80	196.34	12.67	-49.5	-68.9	3.8	8.48e-01	0	42	104	0	70	33970
2026-01-27 20:45:52.78	195.70	12.61	-49.5	-68.9	3.8	8.46e-01	0	42	104	0	70	33938
2026-01-27 20:45:54.77	195.06	12.55	-49.2	-68.9	3.8	8.47e-01	0	41	104	0	70	33881
2026-01-27 20:45:56.76	194.42	12.49	-49.2	-68.9	3.8	8.46e-01	0	42	104	0	70	33706
2026-01-27 20:45:58.74	193.79	12.43	-49.3	-68.9	3.8	8.46e-01	0	42	104	0	70	33808
2026-01-27 20:46:00.73	193.16	12.36	-49.2	-68.8	3.8	8.46e-01	0	42	104	0	70	33425
2026-01-27 20:46:02.72	192.54	12.29	-49.3	-68.8	3.8	8.47e-01	0	42	104	0	70	33495
2026-01-27 20:46:04.70	191.92	12.22	-49.2	-68.8	3.8	8.47e-01	0	42	104	0	70	33630
2026-01-27 20:46:06.69	191.30	12.15	-48.9	-68.8	3.8	8.47e-01	0	42	104	0	69	35549
2026-01-27 20:46:08.67	190.69	12.07	-49.0	-68.9	3.8	8.48e-01	0	42	104	0	69	35695
2026-01-27 20:46:10.66	190.08	11.99	-49.1	-68.8	3.8	8.47e-01	0	42	104	0	69	35655
2026-01-27 20:46:12.64	189.48	11.91	-49.2	-68.9	3.8	8.47e-01	0	42	104	0	69	35772
2026-01-27 20:46:14.63	188.87	11.83	-49.4	-68.9	3.8	8.48e-01	0	42	104	0	69	35734
2026-01-27 20:46:16.62	188.28	11.75	-49.4	-68.9	3.8	8.46e-01	0	42	104	0	69	35720
2026-01-27 20:46:18.60	187.69	11.66	-49.4	-68.9	3.8	8.46e-01	0	42	104	0	69	35703
2026-01-27 20:46:20.59	187.10	11.57	-49.4	-68.8	3.8	8.46e-01	0	42	104	0	69	35638
2026-01-27 20:46:22.57	186.52	11.48	-49.5	-68.8	3.8	8.47e-01	0	42	104	0	69	35592
2026-01-27 20:46:24.56	185.94	11.39	-49.4	-68.8	3.8	8.48e-01	0	41	104	0	69	35601
2026-01-27 20:46:26.54	185.37	11.30	-49.3	-68.9	3.8	8.48e-01	0	42	104	0	69	35712
2026-01-27 20:46:28.53	184.80	11.21	-48.9	-68.8	3.8	8.47e-01	0	42	104	0	69	35584
2026-01-27 20:46:30.52	184.24	11.11	-49.0	-68.8	3.8	8.46e-01	0	42	104	0	69	35490
2026-01-27 20:46:32.50	183.68	11.01	-49.1	-68.8	3.8	8.47e-01	0	42	104	0	69	35554
2026-01-27 20:46:34.49	183.13	10.91	-49.1	-68.8	3.8	8.47e-01	0	41	104	0	69	35576
2026-01-27 20:46:36.47	182.58	10.81	-49.4	-68.8	3.8	8.47e-01	0	42	104	0	69	35460
2026-01-27 20:46:38.46	182.04	10.71	-49.4	-68.9	3.8	8.48e-01	0	42	104	0	69	35719
2026-01-27 20:46:40.44	181.50	10.61	-49.1	-68.8	3.8	8.47e-01	0	41	104	0	69	35576
2026-01-27 20:46:42.43	180.97	10.50	-48.9	-68.8	3.8	8.46e-01	0	42	104	0	69	35690
2026-01-27 20:46:44.42	180.44	10.40	-48.7	-68.8	3.8	8.45e-01	0	42	104	0	69	35667
2026-01-27 20:46:46.40	179.92	10.29	-48.6	-68.8	3.8	8.47e-01	0	42	104	0	69	35647
2026-01-27 20:46:48.39	179.40	10.18	-48.6	-68.8	3.8	8.46e-01	0	41	104	0	69	35532
2026-01-27 20:46:50.37	178.89	10.08	-48.6	-68.8	3.8	8.47e-01	0	41	104	0	69	35453
2026-01-27 20:46:52.36	178.38	9.97	-49.3	-68.8	3.8	8.46e-01	0	41	104	0	69	35375
2026-01-27 20:46:54.35	177.88	9.86	-49.2	-68.8	3.8	8.46e-01	0	42	104	0	69	35581
2026-01-27 20:46:56.33	177.38	9.74	-49.3	-68.8	3.8	8.47e-01	0	42	104	0	69	35430
2026-01-27 20:46:58.32	176.89	9.63	-49.2	-68.8	3.8	8.47e-01	0	41	104	0	69	35455
2026-01-27 20:47:00.30	176.40	9.52	-46.7	-68.6	3.8	8.47e-01	0	42	104	0	65	43624
2026-01-27 20:47:02.29	175.92	9.41	-46.6	-68.6	3.8	8.46e-01	0	42	104	0	64	46293
2026-01-27 20:47:04.28	175.44	9.29	-46.9	-68.6	3.8	8.48e-01	0	41	104	0	64	46094
2026-01-27 20:47:06.26	174.97	9.18	-46.4	-68.6	3.8	8.47e-01	0	42	104	0	64	46395
2026-01-27 20:47:08.25	174.51	9.06	-46.5	-68.6	3.8	8.47e-01	0	42	104	0	64	46248
2026-01-27 20:47:10.23	174.05	8.95	-48.0	-68.7	3.8	8.46e-01	0	41	104	0	66	41699
2026-01-27 20:47:12.22	173.59	8.83	-49.6	-69.1	3.8	8.48e-01	0	41	104	0	70	34739
2026-01-27 20:47:14.21	173.14	8.71	-50.2	-69.2	3.8	8.47e-01	0	42	104	0	71	33295
2026-01-27 20:47:16.19	172.69	8.59	-50.4	-69.2	3.8	8.47e-01	0	41	104	0	71	33119
2026-01-27 20:47:18.18	172.25	8.48	-50.4	-69.3	3.8	8.48e-01	0	42	104	0	71	33612
2026-01-27 20:47:20.16	171.81	8.36	-50.5	-69.4	3.8	8.47e-01	0	41	104	0	71	33871
2026-01-27 20:47:22.15	171.38	8.24	-50.5	-69.4	3.8	8.48e-01	0	42	104	0	71	33848
2026-01-27 20:47:24.13	170.95	8.12	-50.5	-69.4	3.8	8.47e-01	0	42	104	0	71	33841
2026-01-27 20:47:26.12	170.53	8.00	-50.3	-69.3	3.8	8.46e-01	0	41	104	0	71	33401
2026-01-27 20:47:28.11	170.11	7.88	-50.3	-69.3	3.8	8.47e-01	0	41	104	0	71	33667
2026-01-27 20:47:30.09	169.70	7.76	-50.3	-69.3	3.8	8.46e-01	0	42	104	0	71	33524
2026-01-27 20:47:32.08	169.29	7.64	-50.0	-69.2	3.8	8.46e-01	0	42	104	0	71	33011
2026-01-27 20:47:34.06	168.89	7.52	-49.7	-68.9	3.8	8.48e-01	0	42	104	0	71	32080
2026-01-27 20:47:36.05	168.49	7.40	-49.7	-68.9	3.8	8.48e-01	0	41	104	0	71	32005
2026-01-27 20:47:38.03	168.10	7.28	-49.7	-68.9	3.8	8.46e-01	0	42	104	0	71	32044
2026-01-27 20:47:40.02	167.71	7.16	-49.8	-68.9	3.8	8.48e-01	0	42	104	0	71	31923
2026-01-27 20:47:42.01	167.32	7.04	-49.8	-68.8	3.8	8.46e-01	0	41	104	0	70	33671
2026-01-27 20:47:43.99	166.94	6.92	-49.8	-68.8	3.8	8.47e-01	0	41	104	0	70	33599
2026-01-27 20:47:45.98	166.57	6.80	-49.8	-68.8	3.8	8.47e-01	0	41	104	0	70	33375
2026-01-27 20:47:47.96	166.20	6.68	-49.7	-68.7	3.8	8.47e-01	0	41	104	0	70	33075
2026-01-27 20:47:49.95	165.83	6.56	-49.7	-68.7	3.8	8.47e-01	0	42	104	0	70	33095
2026-01-27 20:47:51.94	165.46	6.44	-49.7	-68.7	3.8	8.47e-01	0	42	104	0	70	33137
2026-01-27 20:47:53.92	165.11	6.32	-49.7	-68.7	3.8	8.47e-01	0	42	104	0	70	33128
2026-01-27 20:47:55.91	164.75	6.20	-49.7	-68.7	3.8	8.47e-01	0	42	104	0	70	33118
2026-01-27 20:47:57.89	164.40	6.08	-49.7	-68.7	3.8	8.47e-01	0	42	104	0	70	33112
2026-01-27 20:47:59.88	164.05	5.96	-49.7	-68.7	3.8	8.48e-01	0	41	104	0	70	33193
2026-01-27 20:48:01.84	163.71	5.84	-49.7	-68.7	3.8	8.47e-01	0	41	104	0	70	33075
2026-01-27 20:48:03.83	163.37	5.72	-49.7	-68.7	3.8	8.47e-01	0	42	104	0	70	33122
2026-01-27 20:48:05.82	163.04	5.60	-49.7	-68.7	3.8	8.47e-01	0	41	104	0	70	33173
2026-01-27 20:48:07.80	162.71	5.48	-49.7	-68.7	3.8	8.47e-01	0	42	104	0	70	33127
2026-01-27 20:48:09.79	162.38	5.36	-49.7	-68.7	3.8	8.47e-01	0	41	104	0	70	33241
2026-01-27 20:48:11.77	162.06	5.24	-49.7	-68.7	3.8	8.47e-01	0	42	104	0	70	33149
2026-01-27 20:48:13.76	161.74	5.12	-49.7	-68.7	3.8	8.47e-01	0	42	104	0	70	33155
2026-01-27 20:48:15.75	161.42	5.00	-49.7	-68.7	3.8	8.46e-01	0	41	104	0	70	33095

#Closed at: 2026-01-27 20:48:16
#Recorded file [0 MB]: D:/Data/31040_260127_234212.dat