passes_logs/2026/01/27/T1/T1__20260127_104122_SUOMI_NPP_rec.log

#Pass ID: 20260127_104122_SUOMI NPP
#Satellite: SUOMI NPP
#Configuration: NPP
#almurnet v.1.7.20251203
#Start time: 2026-01-27 10:41:23

#Version: 2.0.20230620
#Station: T1
#Location: 37.570604 lon 55.790049 lat
#TLE: 1 37849U 11061A   26026.87508736  .00000176  00000+0  10464-3 0  9991
#TLE: 2 37849  98.7822 328.8221 0002127  43.3055 316.8288 14.19530452738397

#Time	Az	El	Level	Level2	SNR	BER	BlckErr	Temp	State	Recorded	gain1	gain2
2026-01-27 10:41:23.70	181.96	5.07	-50.4	-65.7	3.8	1.49e+00	0	40	0	0	71	22200
2026-01-27 10:41:27.67	182.12	5.35	-50.2	-65.7	3.8	1.49e+00	0	40	104	0	72	20918
2026-01-27 10:41:31.65	182.28	5.63	-50.1	-65.7	3.8	1.49e+00	0	40	104	0	72	20864
2026-01-27 10:41:35.62	182.44	5.92	-50.4	-65.6	3.8	1.49e+00	0	41	104	0	72	20565
2026-01-27 10:41:39.59	182.61	6.20	-50.3	-65.5	3.8	1.49e+00	0	41	104	0	72	20439
2026-01-27 10:41:43.56	182.78	6.49	-49.5	-65.3	3.8	1.49e+00	0	41	104	0	70	22373
2026-01-27 10:41:47.53	182.96	6.79	-49.0	-63.1	3.8	1.49e+00	0	41	104	0	69	18324
2026-01-27 10:41:51.50	183.13	7.08	-48.9	-62.5	4.0	1.48e+00	0	41	104	0	69	17208
2026-01-27 10:41:55.48	183.31	7.38	-48.6	-59.1	5.1	9.25e-01	0	41	0	1048576	69	11637
2026-01-27 10:41:59.45	183.50	7.68	-46.6	-51.8	11.7	2.36e-03	0	41	0	8388608	65	6302
2026-01-27 10:42:03.42	183.69	7.99	-45.1	-48.8	14.9	0.00e+00	0	42	0	16777216	61	5620
2026-01-27 10:42:07.39	183.88	8.30	-45.3	-49.1	14.5	7.00e-07	0	42	0	24117248	61	5833
2026-01-27 10:42:11.36	184.07	8.61	-46.6	-51.8	11.7	3.27e-04	0	42	0	31457280	64	6705
2026-01-27 10:42:15.34	184.27	8.93	-48.2	-57.0	6.6	1.57e-01	0	42	0	38797312	66	10859
2026-01-27 10:42:19.31	184.48	9.25	-47.9	-55.9	7.8	1.06e-02	0	42	0	46137344	66	9555
2026-01-27 10:42:23.29	184.69	9.57	-47.2	-53.5	9.9	8.44e-03	0	42	0	51380224	66	7274
2026-01-27 10:42:27.27	184.90	9.90	-46.6	-51.9	11.7	7.80e-04	0	42	0	58720256	65	6398
2026-01-27 10:42:31.25	185.12	10.23	-45.4	-49.2	14.5	7.00e-07	0	42	0	66060288	62	5581
2026-01-27 10:42:35.23	185.34	10.57	-44.7	-48.0	15.8	0.00e+00	0	42	0	73400320	61	5101
2026-01-27 10:42:39.21	185.57	10.91	-44.3	-47.4	16.4	0.00e+00	0	42	0	80740352	60	5055
2026-01-27 10:42:43.19	185.80	11.26	-44.1	-47.0	16.7	0.00e+00	0	42	0	89128960	60	4862
2026-01-27 10:42:47.16	186.04	11.61	-43.7	-46.5	17.2	0.00e+00	0	42	0	96468992	59	4834
2026-01-27 10:42:51.14	186.28	11.96	-43.4	-46.0	17.7	0.00e+00	0	42	0	103809024	58	4867
2026-01-27 10:42:55.12	186.53	12.32	-43.4	-46.0	17.7	0.00e+00	0	42	0	111149056	58	4849
2026-01-27 10:42:59.10	186.78	12.69	-43.5	-46.2	17.5	0.00e+00	0	42	0	118489088	58	4936
2026-01-27 10:43:03.08	187.04	13.06	-43.4	-46.1	17.7	0.00e+00	0	42	0	125829120	58	4901
2026-01-27 10:43:07.06	187.31	13.43	-43.4	-46.1	17.7	0.00e+00	0	42	0	133169152	58	4890
2026-01-27 10:43:11.04	187.58	13.81	-43.3	-45.9	17.8	0.00e+00	0	43	0	140509184	58	4814
2026-01-27 10:43:15.02	187.86	14.20	-43.6	-46.4	17.3	0.00e+00	0	43	0	147849216	58	5077
2026-01-27 10:43:19.00	188.15	14.59	-43.5	-46.3	17.5	0.00e+00	0	42	0	156237824	58	5018
2026-01-27 10:43:22.98	188.45	14.99	-43.4	-46.2	17.6	0.00e+00	0	42	0	163577856	58	4963
2026-01-27 10:43:26.96	188.75	15.39	-43.7	-46.5	17.3	0.00e+00	0	42	0	170917888	58	5116
2026-01-27 10:43:30.94	189.06	15.80	-43.4	-46.1	17.7	0.00e+00	0	42	0	178257920	58	4902
2026-01-27 10:43:34.92	189.38	16.22	-43.1	-45.6	18.1	0.00e+00	0	42	0	185597952	58	4651
2026-01-27 10:43:38.90	189.71	16.64	-42.9	-45.4	18.4	0.00e+00	0	43	0	192937984	57	4771
2026-01-27 10:43:42.88	190.04	17.07	-42.6	-45.1	18.6	0.00e+00	0	42	0	200278016	57	4615
2026-01-27 10:43:46.86	190.39	17.50	-42.8	-45.3	18.4	0.00e+00	0	43	0	207618048	57	4756
2026-01-27 10:43:50.84	190.74	17.94	-43.0	-45.6	18.1	0.00e+00	0	43	0	216006656	57	4879
2026-01-27 10:43:54.82	191.11	18.39	-42.8	-45.3	18.3	0.00e+00	0	43	0	223346688	57	4713
2026-01-27 10:43:58.80	191.48	18.85	-42.6	-45.0	18.7	0.00e+00	0	43	0	230686720	57	4558
2026-01-27 10:44:02.77	191.87	19.31	-42.4	-44.7	19.0	0.00e+00	0	43	0	238026752	56	4698
2026-01-27 10:44:06.75	192.27	19.78	-42.4	-44.7	19.1	0.00e+00	0	43	0	245366784	56	4698
2026-01-27 10:44:10.73	192.68	20.26	-42.7	-45.1	18.8	0.00e+00	0	43	0	252706816	56	4873
2026-01-27 10:44:14.71	193.11	20.75	-42.6	-45.0	18.8	0.00e+00	0	43	0	260046848	56	4854
2026-01-27 10:44:18.70	193.54	21.24	-42.6	-44.9	18.9	0.00e+00	0	42	0	267386880	56	4804
2026-01-27 10:44:22.68	193.99	21.75	-42.3	-44.6	19.3	0.00e+00	0	43	0	274726912	56	4612
2026-01-27 10:44:26.66	194.46	22.26	-42.2	-44.4	19.0	0.00e+00	0	43	0	283115520	56	4528
2026-01-27 10:44:30.64	194.94	22.78	-42.2	-44.4	19.4	0.00e+00	0	43	0	290455552	56	4499
2026-01-27 10:44:34.63	195.44	23.31	-42.2	-44.4	19.4	0.00e+00	0	43	0	297795584	56	4525
2026-01-27 10:44:38.61	195.95	23.84	-42.6	-44.9	18.9	0.00e+00	0	43	0	305135616	56	4810
2026-01-27 10:44:42.58	196.48	24.39	-42.7	-44.9	18.9	0.00e+00	0	43	0	312475648	56	4800
2026-01-27 10:44:46.57	197.03	24.94	-43.0	-45.4	18.6	0.00e+00	0	43	0	319815680	56	5046
2026-01-27 10:44:50.55	197.60	25.51	-43.2	-45.5	18.4	0.00e+00	0	43	0	327155712	56	5142
2026-01-27 10:44:54.53	198.19	26.08	-43.1	-45.4	18.5	0.00e+00	0	43	0	334495744	57	4790
2026-01-27 10:44:58.51	198.80	26.66	-43.4	-45.8	18.2	0.00e+00	0	43	0	342884352	57	5033
2026-01-27 10:45:02.49	199.43	27.26	-43.5	-46.1	17.9	0.00e+00	0	43	0	350224384	57	5160
2026-01-27 10:45:06.47	200.08	27.86	-43.4	-45.9	18.1	0.00e+00	0	43	0	357564416	58	4772
2026-01-27 10:45:10.45	200.76	28.47	-44.2	-46.8	17.2	0.00e+00	0	43	0	364904448	59	5039
2026-01-27 10:45:14.43	201.47	29.09	-45.1	-48.2	16.0	0.00e+00	0	43	0	372244480	60	5537
2026-01-27 10:45:18.41	202.20	29.72	-45.6	-48.8	15.5	0.00e+00	0	43	0	379584512	62	5308
2026-01-27 10:45:22.39	202.96	30.35	-45.3	-48.4	15.8	0.00e+00	0	43	0	386924544	62	5074
2026-01-27 10:45:26.37	203.76	31.00	-45.4	-48.5	15.7	0.00e+00	0	43	0	394264576	62	5137
2026-01-27 10:45:30.35	204.58	31.65	-44.6	-47.4	16.8	0.00e+00	0	43	0	401604608	61	4811
2026-01-27 10:45:34.33	205.44	32.32	-44.7	-47.6	16.6	0.00e+00	0	43	0	409993216	60	5162
2026-01-27 10:45:38.30	206.33	32.99	-44.5	-47.3	17.0	0.00e+00	0	43	0	417333248	60	4989
2026-01-27 10:45:42.28	207.26	33.66	-43.7	-46.1	18.1	0.00e+00	0	43	0	424673280	58	4885
2026-01-27 10:45:46.26	208.23	34.35	-44.0	-46.6	17.5	0.00e+00	0	43	0	432013312	59	4892
2026-01-27 10:45:50.24	209.23	35.04	-44.3	-47.0	17.2	0.00e+00	0	43	0	439353344	59	5134
2026-01-27 10:45:54.22	210.29	35.73	-43.9	-46.5	17.6	0.00e+00	0	43	0	446693376	59	4855
2026-01-27 10:45:58.19	211.38	36.43	-44.3	-46.9	17.3	0.00e+00	0	43	0	454033408	59	5069
2026-01-27 10:46:02.17	212.53	37.13	-43.7	-46.2	18.0	0.00e+00	0	43	0	461373440	58	4980
2026-01-27 10:46:06.15	213.72	37.84	-43.4	-45.8	18.2	0.00e+00	0	43	0	468713472	58	4756
2026-01-27 10:46:10.13	214.97	38.54	-43.2	-45.6	18.4	0.00e+00	0	43	0	477102080	57	4903
2026-01-27 10:46:14.10	216.26	39.24	-42.8	-45.1	19.0	0.00e+00	0	43	0	484442112	57	4602
2026-01-27 10:46:18.08	217.62	39.95	-43.1	-45.4	18.6	0.00e+00	0	43	0	491782144	57	4804
2026-01-27 10:46:22.06	219.03	40.64	-43.6	-46.1	18.0	0.00e+00	0	43	0	499122176	58	4901
2026-01-27 10:46:26.04	220.51	41.33	-43.5	-45.9	18.2	0.00e+00	0	43	0	506462208	58	4790
2026-01-27 10:46:30.02	222.05	42.01	-43.1	-45.4	18.7	0.00e+00	0	43	0	513802240	58	4510
2026-01-27 10:46:34.00	223.66	42.68	-43.7	-46.2	17.9	0.00e+00	0	43	0	521142272	58	4943
2026-01-27 10:46:37.98	225.33	43.34	-42.4	-44.5	19.4	0.00e+00	0	43	0	528482304	56	4590
2026-01-27 10:46:41.96	227.07	43.98	-43.7	-46.2	17.9	0.00e+00	0	43	0	536870912	58	4945
2026-01-27 10:46:45.94	228.87	44.60	-43.1	-45.5	18.6	0.00e+00	0	43	0	544210944	58	4558
2026-01-27 10:46:49.91	230.75	45.20	-44.0	-46.7	17.6	0.00e+00	0	43	0	551550976	58	5224
2026-01-27 10:46:53.89	232.69	45.77	-43.7	-46.1	18.0	0.00e+00	0	43	0	558891008	59	4644
2026-01-27 10:46:57.87	234.71	46.31	-45.1	-48.0	16.3	0.00e+00	0	43	0	566231040	61	5154
2026-01-27 10:47:01.82	236.78	46.81	-45.0	-47.8	16.5	0.00e+00	0	43	0	573571072	60	5333
2026-01-27 10:47:05.79	238.92	47.29	-45.9	-49.2	15.2	0.00e+00	0	43	0	580911104	62	5574
2026-01-27 10:47:09.77	241.13	47.72	-44.5	-47.2	17.1	0.00e+00	0	43	0	588251136	60	4982
2026-01-27 10:47:13.75	243.41	48.11	-45.5	-48.6	15.7	0.00e+00	0	43	0	595591168	61	5515
2026-01-27 10:47:17.73	245.73	48.46	-45.3	-48.4	15.9	0.00e+00	0	43	0	602931200	62	5061
2026-01-27 10:47:21.71	248.10	48.75	-44.6	-47.3	16.9	0.00e+00	0	43	0	611319808	60	5040
2026-01-27 10:47:25.69	250.52	49.00	-42.7	-44.9	19.1	0.00e+00	0	43	0	618659840	57	4532
2026-01-27 10:47:29.67	252.97	49.19	-43.1	-45.4	18.6	0.00e+00	0	43	0	625999872	58	4534
2026-01-27 10:47:33.65	255.44	49.33	-42.8	-45.0	19.0	0.00e+00	0	43	0	633339904	57	4593
2026-01-27 10:47:37.63	257.93	49.41	-42.7	-45.0	19.1	0.00e+00	0	43	0	640679936	56	4838
2026-01-27 10:47:41.61	260.43	49.44	-43.4	-45.8	18.3	0.00e+00	0	43	0	648019968	57	5016
2026-01-27 10:47:45.59	262.93	49.40	-44.1	-46.8	17.5	0.00e+00	0	43	0	655360000	58	5307
2026-01-27 10:47:49.56	265.41	49.32	-42.6	-44.7	19.3	0.00e+00	0	43	0	662700032	56	4699
2026-01-27 10:47:53.54	267.88	49.17	-44.9	-47.8	16.6	0.00e+00	0	43	0	670040064	60	5313
2026-01-27 10:47:57.52	270.33	48.97	-45.7	-49.0	15.5	0.00e+00	0	43	0	678428672	63	5135
2026-01-27 10:48:01.50	272.73	48.72	-44.5	-47.2	17.2	0.00e+00	0	43	0	685768704	60	4928
2026-01-27 10:48:05.48	275.10	48.41	-44.0	-46.5	17.8	0.00e+00	0	43	0	693108736	58	5117
2026-01-27 10:48:09.46	277.41	48.06	-46.1	-49.4	14.9	1.50e-06	0	43	0	700448768	64	5090
2026-01-27 10:48:13.43	279.66	47.67	-46.7	-50.5	13.8	2.20e-06	0	43	0	707788800	64	5773
2026-01-27 10:48:17.41	281.86	47.23	-46.8	-50.6	13.7	9.90e-06	0	43	0	715128832	65	5511
2026-01-27 10:48:21.39	284.00	46.75	-44.4	-47.1	17.2	0.00e+00	0	43	0	722468864	60	4876
2026-01-27 10:48:25.37	286.07	46.24	-46.3	-50.0	14.4	2.20e-06	0	43	0	729808896	64	5416
2026-01-27 10:48:29.34	288.06	45.70	-44.6	-47.4	17.0	0.00e+00	0	43	0	737148928	60	5045
2026-01-27 10:48:33.32	290.00	45.13	-43.7	-46.2	18.1	0.00e+00	0	43	0	745537536	59	4667
2026-01-27 10:48:37.29	291.86	44.53	-43.6	-46.1	18.1	0.00e+00	0	43	0	752877568	59	4604
2026-01-27 10:48:41.27	293.65	43.91	-42.9	-45.1	18.9	0.00e+00	0	43	0	760217600	57	4642
2026-01-27 10:48:45.25	295.38	43.27	-43.0	-45.3	18.9	0.00e+00	0	43	0	767557632	56	4998
2026-01-27 10:48:49.23	297.03	42.61	-41.5	-43.6	20.2	0.00e+00	0	43	0	774897664	54	4634
2026-01-27 10:48:53.21	298.62	41.95	-42.1	-44.2	19.6	0.00e+00	0	43	0	782237696	55	4689
2026-01-27 10:48:57.19	300.15	41.27	-43.3	-45.7	18.5	0.00e+00	0	43	0	789577728	57	4932
2026-01-27 10:49:01.16	301.61	40.58	-42.6	-44.9	19.1	0.00e+00	0	43	0	796917760	55	5065
2026-01-27 10:49:05.14	303.01	39.89	-43.9	-46.5	17.7	0.00e+00	0	43	0	805306368	59	4829
2026-01-27 10:49:09.12	304.36	39.19	-48.2	-53.9	10.5	8.87e-04	0	43	0	812646400	67	7169
2026-01-27 10:49:13.10	305.65	38.49	-45.7	-49.2	15.2	0.00e+00	0	43	0	819986432	62	5533
2026-01-27 10:49:17.08	306.88	37.79	-48.8	-55.6	8.7	1.06e-01	0	43	0	827326464	69	7763
2026-01-27 10:49:21.06	308.07	37.09	-45.4	-48.5	15.9	0.00e+00	0	43	0	834666496	62	5121
2026-01-27 10:49:25.04	309.20	36.39	-48.5	-54.3	10.0	2.11e-02	0	43	0	842006528	68	7041
2026-01-27 10:49:29.02	310.29	35.70	-46.7	-50.6	13.7	1.50e-06	0	43	0	849346560	64	5813
2026-01-27 10:49:33.00	311.34	35.01	-47.2	-51.7	12.5	1.14e-03	0	43	0	856686592	66	5915
2026-01-27 10:49:36.97	312.34	34.32	-43.7	-46.1	18.0	0.00e+00	0	43	0	864026624	58	4917
2026-01-27 10:49:40.95	313.30	33.64	-45.3	-48.5	15.9	0.00e+00	0	43	0	872415232	61	5405
2026-01-27 10:49:44.93	314.22	32.97	-42.4	-44.6	19.3	0.00e+00	0	43	0	879755264	56	4644
2026-01-27 10:49:48.91	315.11	32.31	-45.6	-48.9	15.5	0.00e+00	0	43	0	887095296	61	5659
2026-01-27 10:49:52.89	315.96	31.65	-43.2	-45.7	18.3	0.00e+00	0	43	0	894435328	58	4703
2026-01-27 10:49:56.86	316.77	31.00	-44.5	-47.6	16.6	0.00e+00	0	43	0	901775360	59	5523
2026-01-27 10:50:00.85	317.56	30.36	-44.0	-46.8	17.4	0.00e+00	0	43	0	909115392	60	4729
2026-01-27 10:50:04.83	318.32	29.73	-42.5	-44.8	19.2	0.00e+00	0	43	0	916455424	57	4445
2026-01-27 10:50:08.80	319.05	29.11	-45.1	-48.3	16.1	0.00e+00	0	43	0	923795456	60	5603
2026-01-27 10:50:12.78	319.75	28.49	-45.2	-48.4	15.7	0.00e+00	0	43	0	931135488	62	5096
2026-01-27 10:50:16.76	320.42	27.89	-44.1	-46.9	17.2	0.00e+00	0	43	0	939524096	59	5056
2026-01-27 10:50:20.74	321.08	27.29	-44.3	-47.1	17.0	0.00e+00	0	43	0	946864128	59	5180
2026-01-27 10:50:24.72	321.71	26.70	-43.1	-45.6	18.4	0.00e+00	0	43	0	954204160	58	4618
2026-01-27 10:50:28.69	322.31	26.13	-42.4	-44.7	19.2	0.00e+00	0	43	0	961544192	56	4701
2026-01-27 10:50:32.67	322.90	25.56	-43.5	-46.1	17.9	0.00e+00	0	43	0	968884224	57	5208
2026-01-27 10:50:36.65	323.46	25.00	-44.8	-47.8	16.5	0.00e+00	0	43	0	976224256	60	5297
2026-01-27 10:50:40.63	324.01	24.45	-45.2	-48.4	15.8	0.00e+00	0	43	0	983564288	61	5383
2026-01-27 10:50:44.61	324.54	23.91	-45.2	-48.6	15.6	0.00e+00	0	43	0	990904320	62	5212
2026-01-27 10:50:48.58	325.05	23.37	-44.0	-46.8	17.3	0.00e+00	0	43	0	998244352	59	4987
2026-01-27 10:50:52.56	325.55	22.85	-45.0	-48.3	15.9	0.00e+00	0	43	0	1006632960	60	5606
2026-01-27 10:50:56.54	326.03	22.33	-45.5	-49.3	15.0	0.00e+00	0	43	0	1013972992	61	5959
2026-01-27 10:51:00.53	326.49	21.83	-44.3	-47.4	16.8	0.00e+00	0	43	0	1021313024	60	5049
2026-01-27 10:51:04.51	326.94	21.33	-42.7	-45.0	18.8	0.00e+00	0	43	0	1028653056	57	4592
2026-01-27 10:51:08.49	327.38	20.84	-42.6	-44.9	19.0	0.00e+00	0	43	0	1035993088	56	4774
2026-01-27 10:51:12.47	327.80	20.35	-44.1	-47.2	16.9	0.00e+00	0	43	0	1043333120	58	5544
2026-01-27 10:51:16.45	328.21	19.88	-44.9	-48.4	15.8	0.00e+00	0	43	0	1050673152	60	5690
2026-01-27 10:51:20.43	328.61	19.41	-45.4	-49.2	15.0	0.00e+00	0	43	0	1058013184	61	5919
2026-01-27 10:51:24.41	329.00	18.95	-44.6	-48.0	15.9	0.00e+00	0	43	0	1066401792	61	5159
2026-01-27 10:51:28.38	329.38	18.50	-44.2	-47.3	16.9	0.00e+00	0	43	0	1073741824	60	4991
2026-01-27 10:51:32.37	329.74	18.05	-44.1	-46.9	17.2	0.00e+00	0	43	0	1081081856	60	4779
2026-01-27 10:51:36.35	330.10	17.61	-44.7	-47.7	16.3	0.00e+00	0	43	0	1088421888	60	5271
2026-01-27 10:51:40.33	330.45	17.18	-44.9	-48.1	15.9	0.00e+00	0	43	0	1095761920	60	5511
2026-01-27 10:51:44.31	330.79	16.76	-45.4	-48.9	15.2	0.00e+00	0	43	0	1103101952	61	5705
2026-01-27 10:51:48.28	331.11	16.34	-45.0	-48.4	15.6	0.00e+00	0	43	0	1110441984	61	5372
2026-01-27 10:51:52.26	331.43	15.93	-44.5	-47.7	16.4	0.00e+00	0	43	0	1117782016	60	5256
2026-01-27 10:51:56.24	331.75	15.52	-44.4	-47.4	16.6	0.00e+00	0	43	0	1125122048	60	5095
2026-01-27 10:52:00.22	332.05	15.12	-44.3	-47.2	16.8	0.00e+00	0	43	0	1133510656	60	4958
2026-01-27 10:52:04.20	332.35	14.73	-44.2	-47.1	16.9	0.00e+00	0	43	0	1140850688	59	5182
2026-01-27 10:52:08.18	332.64	14.34	-44.3	-47.1	16.8	0.00e+00	0	43	0	1148190720	59	5211
2026-01-27 10:52:12.16	332.92	13.95	-44.5	-47.5	16.5	0.00e+00	0	43	0	1155530752	59	5426
2026-01-27 10:52:16.14	333.19	13.58	-44.3	-47.1	16.8	0.00e+00	0	43	0	1162870784	59	5216
2026-01-27 10:52:20.12	333.46	13.20	-44.3	-47.2	16.7	0.00e+00	0	43	0	1170210816	59	5234
2026-01-27 10:52:24.10	333.73	12.84	-43.8	-46.5	17.3	0.00e+00	0	43	0	1177550848	59	4843
2026-01-27 10:52:28.08	333.98	12.47	-44.0	-46.8	17.0	0.00e+00	0	43	0	1184890880	59	5013
2026-01-27 10:52:32.05	334.23	12.12	-44.4	-47.3	16.5	0.00e+00	0	43	0	1193279488	59	5326
2026-01-27 10:52:36.03	334.48	11.77	-44.7	-47.8	16.1	0.00e+00	0	43	0	1200619520	60	5319
2026-01-27 10:52:40.01	334.72	11.42	-45.0	-48.4	15.5	0.00e+00	0	43	0	1207959552	60	5682
2026-01-27 10:52:43.99	334.95	11.07	-45.5	-49.2	14.7	7.00e-07	0	43	0	1215299584	61	5876
2026-01-27 10:52:47.97	335.18	10.73	-45.4	-49.3	14.6	0.00e+00	0	43	0	1222639616	61	5926
2026-01-27 10:52:51.95	335.41	10.40	-45.2	-49.2	14.7	0.00e+00	0	43	0	1229979648	61	5889
2026-01-27 10:52:55.93	335.63	10.07	-44.9	-48.8	15.0	0.00e+00	0	43	0	1237319680	61	5625
2026-01-27 10:52:59.91	335.85	9.74	-44.8	-48.7	14.9	0.00e+00	0	43	0	1244659712	61	5581
2026-01-27 10:53:03.88	336.06	9.42	-44.6	-48.4	15.3	0.00e+00	0	43	0	1251999744	61	5401
2026-01-27 10:53:07.86	336.27	9.10	-44.6	-48.6	14.6	0.00e+00	0	43	0	1260388352	60	5852
2026-01-27 10:53:11.84	336.47	8.79	-49.0	-65.1	3.8	1.49e+00	0	43	104	1263534080	69	23150
2026-01-27 10:53:15.81	336.67	8.47	-49.4	-64.9	3.8	1.49e+00	0	43	104	1263534080	69	22692
2026-01-27 10:53:19.78	336.86	8.17	-49.7	-65.0	3.8	1.49e+00	0	43	104	1263534080	70	21673
2026-01-27 10:53:23.76	337.06	7.86	-49.9	-65.1	3.8	1.49e+00	0	43	104	1263534080	70	21971
2026-01-27 10:53:27.73	337.24	7.56	-49.9	-65.2	3.8	1.49e+00	0	43	104	1263534080	70	22073
2026-01-27 10:53:31.70	337.43	7.27	-49.9	-65.2	3.8	1.49e+00	0	43	104	1263534080	70	22069
2026-01-27 10:53:35.67	337.61	6.97	-49.9	-65.2	3.8	1.49e+00	0	43	104	1263534080	70	22012
2026-01-27 10:53:39.65	337.79	6.68	-49.9	-65.1	3.8	1.49e+00	0	43	104	1263534080	70	21939
2026-01-27 10:53:43.62	337.96	6.39	-49.8	-65.1	3.8	1.49e+00	0	43	104	1263534080	70	21944
2026-01-27 10:53:47.59	338.13	6.11	-49.9	-65.2	3.8	1.49e+00	0	43	104	1263534080	70	22024
2026-01-27 10:53:51.56	338.30	5.83	-49.8	-65.1	3.8	1.49e+00	0	43	104	1263534080	70	22003
2026-01-27 10:53:55.53	338.47	5.55	-49.8	-65.1	3.8	1.49e+00	0	43	104	1263534080	70	21904
2026-01-27 10:53:59.51	338.63	5.27	-49.8	-65.1	3.8	1.49e+00	0	43	104	1263534080	70	21853
2026-01-27 10:54:03.48	338.79	5.00	-49.8	-65.1	3.8	1.49e+00	0	43	104	1263534080	70	21843

#Closed at: 2026-01-27 10:54:04
#Recorded file [1263 MB]: D:/Data/31040_260127_134123.dat