passes_logs/2026/01/27/T1/T1__20260127_150116_FENGYUN_3E_rec.log

#Pass ID: 20260127_150116_FENGYUN 3E
#Satellite: FENGYUN 3E
#Configuration: FENGYUN 3E
#almurnet v.1.7.20251203
#Start time: 2026-01-27 15:01:16

#Version: 2.0.20230620
#Station: T1
#Location: 37.570604 lon 55.790049 lat
#TLE: 1 49008U 21062A   26026.84429991  .00000247  00000+0  13693-3 0  9991
#TLE: 2 49008  98.7501  31.8345 0002501 116.3456 243.7977 14.19887781236522

#Time	Az	El	Level	Level2	SNR	BER	BlckErr	Temp	State	Recorded	gain1	gain2
2026-01-27 15:01:16.39	186.03	4.96	-50.1	-61.6	3.8	8.46e-01	0	41	0	0	70	13640
2026-01-27 15:01:20.36	186.22	5.23	-50.0	-61.3	3.8	8.46e-01	0	42	104	0	70	13235
2026-01-27 15:01:24.33	186.40	5.51	-49.4	-59.8	3.8	8.47e-01	0	42	104	0	69	11810
2026-01-27 15:01:28.30	186.60	5.79	-49.4	-60.4	3.8	8.47e-01	0	42	104	0	69	12568
2026-01-27 15:01:32.27	186.79	6.07	-49.4	-61.0	3.8	8.47e-01	0	42	104	0	69	13554
2026-01-27 15:01:36.25	186.99	6.35	-49.5	-61.1	3.8	8.46e-01	0	42	104	0	69	13706
2026-01-27 15:01:40.22	187.20	6.64	-49.4	-60.7	3.8	8.46e-01	0	42	104	0	69	13001
2026-01-27 15:01:44.19	187.40	6.93	-49.0	-57.4	4.3	8.35e-01	0	43	0	0	68	9432
2026-01-27 15:01:48.16	187.61	7.22	-48.9	-56.8	4.5	8.19e-01	0	43	0	0	68	8824
2026-01-27 15:01:52.13	187.83	7.51	-47.4	-52.1	7.6	1.14e-01	0	43	0	6291456	65	6119
2026-01-27 15:01:56.11	188.05	7.81	-42.1	-44.0	15.7	0.00e+00	0	43	0	35651584	55	4257
2026-01-27 15:02:00.08	188.27	8.12	-39.6	-41.2	18.3	0.00e+00	0	43	0	63963136	50	4107
2026-01-27 15:02:04.05	188.50	8.42	-40.4	-42.0	17.6	0.00e+00	0	43	0	93323264	50	4542
2026-01-27 15:02:08.02	188.73	8.73	-43.9	-46.2	13.6	2.20e-06	0	43	0	121634816	57	4893
2026-01-27 15:02:11.99	188.97	9.04	-47.2	-51.6	8.2	4.09e-02	0	43	0	149946368	63	6444
2026-01-27 15:02:15.97	189.21	9.36	-46.3	-50.2	9.7	2.15e-02	0	43	0	175112192	63	5471
2026-01-27 15:02:19.95	189.46	9.68	-42.8	-44.7	15.1	0.00e+00	0	43	0	203423744	56	4390
2026-01-27 15:02:23.92	189.71	10.00	-41.1	-42.8	16.8	0.00e+00	0	43	0	232783872	53	4182
2026-01-27 15:02:27.90	189.97	10.33	-40.7	-42.3	17.3	0.00e+00	0	44	0	261095424	51	4433
2026-01-27 15:02:31.88	190.23	10.66	-40.5	-42.2	17.5	0.00e+00	0	44	0	289406976	51	4374
2026-01-27 15:02:35.87	190.50	10.99	-39.4	-41.0	18.6	0.00e+00	0	44	0	318767104	49	4244
2026-01-27 15:02:39.84	190.78	11.33	-38.9	-40.5	19.0	0.00e+00	0	44	0	347078656	48	4275
2026-01-27 15:02:43.83	191.06	11.68	-38.6	-40.2	19.3	0.00e+00	0	44	0	376438784	48	4102
2026-01-27 15:02:47.80	191.35	12.02	-38.5	-40.1	19.1	0.00e+00	0	44	0	404750336	47	4301
2026-01-27 15:02:51.78	191.64	12.38	-38.4	-39.9	19.3	0.00e+00	0	44	0	433061888	47	4237
2026-01-27 15:02:55.77	191.94	12.73	-38.6	-40.2	19.0	0.00e+00	0	44	0	462422016	47	4364
2026-01-27 15:02:59.74	192.25	13.09	-38.4	-40.0	19.2	0.00e+00	0	44	0	490733568	47	4264
2026-01-27 15:03:03.72	192.57	13.46	-38.3	-39.9	19.3	0.00e+00	0	44	0	520093696	47	4220
2026-01-27 15:03:07.70	192.89	13.83	-37.9	-39.5	19.8	0.00e+00	0	44	0	548405248	46	4243
2026-01-27 15:03:11.68	193.22	14.21	-37.9	-39.4	19.8	0.00e+00	0	44	0	576716800	46	4213
2026-01-27 15:03:15.66	193.56	14.59	-37.8	-39.2	20.0	0.00e+00	0	44	0	606076928	46	4141
2026-01-27 15:03:19.64	193.91	14.97	-37.7	-39.2	20.0	0.00e+00	0	44	0	634388480	45	4350
2026-01-27 15:03:23.62	194.27	15.36	-37.6	-39.0	20.1	0.00e+00	0	44	0	663748608	45	4276
2026-01-27 15:03:27.60	194.64	15.76	-37.6	-39.1	20.1	0.00e+00	0	44	0	692060160	45	4304
2026-01-27 15:03:31.58	195.01	16.16	-37.6	-39.0	20.2	0.00e+00	0	44	0	720371712	45	4279
2026-01-27 15:03:35.56	195.40	16.57	-37.5	-38.9	20.3	0.00e+00	0	44	0	749731840	45	4241
2026-01-27 15:03:39.54	195.79	16.98	-37.3	-38.7	20.5	0.00e+00	0	44	0	778043392	45	4124
2026-01-27 15:03:43.52	196.20	17.40	-37.1	-38.5	20.6	0.00e+00	0	44	0	807403520	44	4272
2026-01-27 15:03:47.50	196.62	17.83	-36.9	-38.2	20.8	0.00e+00	0	44	0	835715072	44	4144
2026-01-27 15:03:51.48	197.05	18.26	-36.7	-38.0	20.9	0.00e+00	0	44	0	864026624	43	4266
2026-01-27 15:03:55.46	197.49	18.69	-36.5	-37.8	21.0	0.00e+00	0	44	0	893386752	43	4168
2026-01-27 15:03:59.43	197.94	19.14	-36.4	-37.8	21.0	0.00e+00	0	44	0	921698304	43	4148
2026-01-27 15:04:03.41	198.41	19.58	-36.6	-37.9	20.8	0.00e+00	0	44	0	951058432	43	4236
2026-01-27 15:04:07.39	198.89	20.04	-36.6	-37.9	20.9	0.00e+00	0	44	0	979369984	43	4235
2026-01-27 15:04:11.37	199.39	20.50	-36.5	-37.9	20.9	0.00e+00	0	44	0	1007681536	43	4224
2026-01-27 15:04:15.35	199.90	20.97	-36.4	-37.8	21.1	0.00e+00	0	44	0	1037041664	43	4156
2026-01-27 15:04:19.32	200.42	21.45	-36.4	-37.8	21.1	0.00e+00	0	44	0	1065353216	43	4153
2026-01-27 15:04:23.30	200.96	21.93	-36.3	-37.6	21.3	0.00e+00	0	44	0	1094713344	43	4069
2026-01-27 15:04:27.29	201.52	22.42	-36.4	-37.7	21.1	0.00e+00	0	45	0	1123024896	43	4143
2026-01-27 15:04:31.27	202.09	22.91	-36.1	-37.5	21.4	0.00e+00	0	44	0	1151336448	43	4009
2026-01-27 15:04:35.24	202.69	23.41	-36.3	-37.6	21.2	0.00e+00	0	44	0	1180696576	43	4083
2026-01-27 15:04:39.22	203.30	23.92	-36.3	-37.7	21.1	0.00e+00	0	44	0	1209008128	42	4361
2026-01-27 15:04:43.20	203.93	24.44	-36.2	-37.6	21.2	0.00e+00	0	44	0	1238368256	42	4304
2026-01-27 15:04:47.18	204.58	24.96	-36.0	-37.4	21.4	0.00e+00	0	44	0	1266679808	42	4198
2026-01-27 15:04:51.15	205.25	25.49	-36.0	-37.3	21.4	0.00e+00	0	44	0	1294991360	42	4166
2026-01-27 15:04:55.13	205.95	26.02	-36.0	-37.3	21.5	0.00e+00	0	44	0	1323302912	42	4180
2026-01-27 15:04:59.11	206.67	26.56	-35.9	-37.3	21.5	0.00e+00	0	44	0	1352663040	42	4164
2026-01-27 15:05:03.09	207.41	27.11	-35.7	-37.1	21.7	0.00e+00	0	44	0	1380974592	42	4061
2026-01-27 15:05:07.07	208.18	27.66	-35.4	-36.6	22.2	0.00e+00	0	44	0	1410334720	41	4092
2026-01-27 15:05:11.04	208.98	28.22	-35.4	-36.7	22.1	0.00e+00	0	44	0	1438646272	41	4100
2026-01-27 15:05:15.02	209.80	28.78	-35.5	-36.8	21.9	0.00e+00	0	44	0	1466957824	41	4170
2026-01-27 15:05:19.00	210.65	29.35	-35.6	-37.0	21.7	0.00e+00	0	44	0	1496317952	41	4268
2026-01-27 15:05:22.98	211.54	29.93	-35.8	-37.2	21.4	0.00e+00	0	44	0	1524629504	41	4377
2026-01-27 15:05:26.96	212.45	30.51	-35.9	-37.2	21.5	0.00e+00	0	44	0	1553989632	41	4370
2026-01-27 15:05:30.94	213.40	31.09	-35.6	-36.9	21.8	0.00e+00	0	44	0	1582301184	41	4218
2026-01-27 15:05:34.92	214.38	31.67	-35.7	-36.9	21.8	0.00e+00	0	44	0	1610612736	41	4242
2026-01-27 15:05:38.90	215.40	32.26	-35.5	-36.7	22.1	0.00e+00	0	44	0	1639972864	41	4131
2026-01-27 15:05:42.88	216.45	32.85	-35.2	-36.5	22.2	0.00e+00	0	44	0	1668284416	41	4036
2026-01-27 15:05:46.86	217.54	33.43	-35.4	-36.7	22.0	0.00e+00	0	44	0	1697644544	41	4135
2026-01-27 15:05:50.84	218.67	34.02	-35.3	-36.6	22.1	0.00e+00	0	44	0	1725956096	41	4093
2026-01-27 15:05:54.81	219.84	34.61	-35.3	-36.7	21.9	0.00e+00	0	44	0	1754267648	41	4108
2026-01-27 15:05:58.79	221.06	35.19	-35.3	-36.6	22.0	0.00e+00	0	44	0	1783627776	41	4081
2026-01-27 15:06:02.77	222.31	35.77	-35.3	-36.6	22.1	0.00e+00	0	44	0	1811939328	41	4069
2026-01-27 15:06:06.75	223.62	36.35	-35.5	-36.7	22.1	0.00e+00	0	44	0	1841299456	41	4131
2026-01-27 15:06:10.73	224.96	36.92	-35.4	-36.7	22.1	0.00e+00	0	44	0	1869611008	41	4113
2026-01-27 15:06:14.71	226.36	37.48	-35.5	-36.7	22.0	0.00e+00	0	44	0	1897922560	41	4138
2026-01-27 15:06:18.69	227.80	38.02	-35.8	-37.1	21.7	0.00e+00	0	44	0	1927282688	41	4313
2026-01-27 15:06:22.67	229.29	38.56	-35.8	-37.1	21.7	0.00e+00	0	44	0	1955594240	41	4296
2026-01-27 15:06:26.65	230.83	39.09	-35.8	-37.1	21.8	0.00e+00	0	44	0	1984954368	41	4303
2026-01-27 15:06:30.63	232.42	39.60	-35.4	-36.6	22.2	0.00e+00	0	44	0	2013265920	41	4082
2026-01-27 15:06:34.60	234.05	40.09	-35.8	-37.2	21.6	0.00e+00	0	44	0	2041577472	41	4366
2026-01-27 15:06:38.58	235.73	40.56	-35.6	-36.9	21.8	0.00e+00	0	44	0	2070937600	41	4216
2026-01-27 15:06:42.57	237.47	41.01	-35.8	-37.0	21.7	0.00e+00	0	44	0	2099249152	41	4267
2026-01-27 15:06:46.55	239.25	41.43	-35.9	-37.1	21.9	0.00e+00	0	44	0	2128609280	41	4318
2026-01-27 15:06:50.52	241.07	41.83	-36.0	-36.9	22.7	0.00e+00	0	44	0	2156920832	41	4207
2026-01-27 15:06:54.50	242.94	42.20	-36.0	-36.8	22.8	0.00e+00	0	44	0	2185232384	41	4167
2026-01-27 15:06:58.48	244.85	42.53	-36.4	-37.2	22.4	0.00e+00	0	44	0	2214592512	42	4145
2026-01-27 15:07:02.46	246.79	42.84	-36.3	-37.1	22.5	0.00e+00	0	44	0	2242904064	42	4078
2026-01-27 15:07:06.44	248.78	43.11	-36.1	-37.0	22.6	0.00e+00	0	44	0	2271215616	42	4006
2026-01-27 15:07:10.42	250.79	43.35	-36.7	-37.6	22.0	0.00e+00	0	44	0	2300575744	42	4311
2026-01-27 15:07:14.40	252.83	43.54	-36.7	-37.6	22.1	0.00e+00	0	44	0	2328887296	43	4059
2026-01-27 15:07:18.38	254.89	43.70	-36.6	-37.5	22.2	0.00e+00	0	45	0	2358247424	43	4006
2026-01-27 15:07:22.36	256.97	43.82	-36.5	-37.3	22.3	0.00e+00	0	45	0	2386558976	43	3947
2026-01-27 15:07:26.33	259.05	43.89	-36.6	-37.4	22.2	0.00e+00	0	44	0	2414870528	43	4004
2026-01-27 15:07:30.31	261.15	43.93	-36.3	-37.2	22.5	0.00e+00	0	45	0	2444230656	43	3886
2026-01-27 15:07:34.29	263.25	43.92	-36.8	-37.7	22.0	0.00e+00	0	44	0	2472542208	43	4134
2026-01-27 15:07:38.27	265.35	43.87	-36.8	-37.7	22.0	0.00e+00	0	44	0	2501902336	43	4103
2026-01-27 15:07:42.25	267.43	43.78	-36.8	-37.7	22.0	0.00e+00	0	44	0	2530213888	43	4119
2026-01-27 15:07:46.23	269.51	43.65	-36.3	-37.1	22.5	0.00e+00	0	44	0	2558525440	42	4076
2026-01-27 15:07:50.21	271.56	43.48	-36.8	-37.7	22.0	0.00e+00	0	45	0	2587885568	43	4127
2026-01-27 15:07:54.19	273.59	43.27	-36.8	-37.7	22.0	0.00e+00	0	44	0	2616197120	43	4110
2026-01-27 15:07:58.17	275.59	43.02	-36.7	-37.6	22.1	0.00e+00	0	45	0	2645557248	43	4085
2026-01-27 15:08:02.15	277.55	42.74	-36.5	-37.3	22.3	0.00e+00	0	44	0	2673868800	43	3945
2026-01-27 15:08:06.13	279.48	42.42	-36.4	-37.2	22.4	0.00e+00	0	44	0	2702180352	43	3913
2026-01-27 15:08:10.11	281.38	42.07	-36.2	-37.0	22.6	0.00e+00	0	44	0	2731540480	43	3802
2026-01-27 15:08:14.09	283.23	41.69	-36.7	-37.6	22.1	0.00e+00	0	44	0	2759852032	43	4067
2026-01-27 15:08:18.07	285.03	41.29	-36.0	-36.8	22.8	0.00e+00	0	44	0	2789212160	42	3929
2026-01-27 15:08:22.05	286.79	40.86	-36.0	-36.8	22.7	0.00e+00	0	44	0	2817523712	42	3949
2026-01-27 15:08:26.03	288.50	40.40	-36.0	-36.9	22.7	0.00e+00	0	44	0	2845835264	42	3977
2026-01-27 15:08:30.01	290.17	39.93	-36.5	-37.4	22.3	0.00e+00	0	44	0	2875195392	42	4196
2026-01-27 15:08:33.99	291.78	39.43	-36.3	-37.2	22.4	0.00e+00	0	44	0	2903506944	42	4122
2026-01-27 15:08:37.97	293.35	38.92	-36.4	-37.3	22.3	0.00e+00	0	44	0	2932867072	42	4165
2026-01-27 15:08:41.95	294.87	38.39	-36.1	-36.9	22.7	0.00e+00	0	44	0	2961178624	42	3992
2026-01-27 15:08:45.93	296.33	37.85	-36.1	-37.0	22.6	0.00e+00	0	45	0	2989490176	42	4013
2026-01-27 15:08:49.91	297.76	37.30	-36.1	-36.9	22.6	0.00e+00	0	44	0	3018850304	42	4002
2026-01-27 15:08:53.89	299.13	36.74	-35.8	-36.6	22.9	0.00e+00	0	44	0	3047161856	42	3835
2026-01-27 15:08:57.87	300.46	36.17	-35.8	-36.7	22.8	0.00e+00	0	44	0	3076521984	42	3886
2026-01-27 15:09:01.85	301.74	35.60	-36.0	-36.9	22.7	0.00e+00	0	45	0	3104833536	42	3976
2026-01-27 15:09:05.84	302.98	35.02	-36.0	-36.8	22.7	0.00e+00	0	44	0	3133145088	42	3950
2026-01-27 15:09:09.82	304.18	34.44	-35.7	-36.5	22.9	0.00e+00	0	44	0	3162505216	42	3824
2026-01-27 15:09:13.79	305.33	33.86	-36.1	-37.0	22.6	0.00e+00	0	44	0	3190816768	42	4025
2026-01-27 15:09:17.77	306.45	33.27	-36.5	-37.4	22.3	0.00e+00	0	44	0	3220176896	42	4194
2026-01-27 15:09:21.75	307.52	32.69	-36.1	-37.0	22.6	0.00e+00	0	44	0	3248488448	42	4017
2026-01-27 15:09:25.73	308.56	32.10	-35.9	-36.8	22.6	0.00e+00	0	44	0	3276800000	42	3920
2026-01-27 15:09:29.71	309.56	31.52	-36.2	-37.1	22.5	0.00e+00	0	44	0	3306160128	42	4060
2026-01-27 15:09:33.69	310.53	30.94	-36.2	-37.1	22.5	0.00e+00	0	44	0	3334471680	42	4075
2026-01-27 15:09:37.67	311.46	30.36	-36.2	-37.0	22.5	0.00e+00	0	45	0	3363831808	42	4042
2026-01-27 15:09:41.65	312.36	29.79	-36.3	-37.1	22.5	0.00e+00	0	44	0	3392143360	42	4076
2026-01-27 15:09:45.63	313.24	29.22	-36.3	-37.2	22.4	0.00e+00	0	44	0	3420454912	42	4112
2026-01-27 15:09:49.61	314.08	28.66	-36.2	-37.1	22.5	0.00e+00	0	45	0	3449815040	42	4065
2026-01-27 15:09:53.59	314.89	28.10	-36.4	-37.3	22.3	0.00e+00	0	44	0	3478126592	42	4153
2026-01-27 15:09:57.56	315.67	27.55	-36.7	-37.6	22.0	0.00e+00	0	44	0	3507486720	42	4307
2026-01-27 15:10:01.55	316.44	27.00	-36.4	-37.3	22.3	0.00e+00	0	45	0	3535798272	42	4152
2026-01-27 15:10:05.52	317.17	26.46	-36.1	-36.9	22.6	0.00e+00	0	44	0	3564109824	42	3989
2026-01-27 15:10:09.50	317.88	25.92	-36.2	-37.1	22.4	0.00e+00	0	44	0	3593469952	42	4065
2026-01-27 15:10:13.49	318.57	25.39	-36.6	-37.4	22.1	0.00e+00	0	45	0	3621781504	42	4235
2026-01-27 15:10:17.46	319.23	24.87	-36.6	-37.5	22.1	0.00e+00	0	44	0	3651141632	42	4256
2026-01-27 15:10:21.44	319.88	24.35	-36.6	-37.4	22.1	0.00e+00	0	44	0	3679453184	42	4242
2026-01-27 15:10:25.42	320.50	23.84	-36.3	-37.2	22.4	0.00e+00	0	45	0	3707764736	42	4104
2026-01-27 15:10:29.40	321.11	23.34	-36.4	-37.3	22.2	0.00e+00	0	45	0	3737124864	42	4193
2026-01-27 15:10:33.38	321.70	22.84	-36.7	-37.6	21.9	0.00e+00	0	44	0	3765436416	42	4321
2026-01-27 15:10:37.36	322.27	22.35	-36.7	-37.6	21.9	0.00e+00	0	45	0	3794796544	43	4081
2026-01-27 15:10:41.34	322.82	21.87	-36.5	-37.4	22.1	0.00e+00	0	44	0	3823108096	43	4001
2026-01-27 15:10:45.31	323.35	21.39	-36.7	-37.6	21.9	0.00e+00	0	44	0	3851419648	43	4064
2026-01-27 15:10:49.29	323.87	20.92	-36.9	-37.8	21.7	0.00e+00	0	44	0	3880779776	43	4168
2026-01-27 15:10:53.27	324.38	20.46	-37.2	-38.2	21.4	0.00e+00	0	44	0	3909091328	43	4359
2026-01-27 15:10:57.25	324.87	20.00	-37.4	-38.4	21.4	0.00e+00	0	44	0	3938451456	44	4201
2026-01-27 15:11:01.23	325.35	19.55	-37.4	-38.3	21.4	0.00e+00	0	44	0	3966763008	44	4180
2026-01-27 15:11:05.21	325.81	19.11	-37.5	-38.4	21.3	0.00e+00	0	44	0	3995074560	44	4218
2026-01-27 15:11:09.19	326.26	18.67	-37.5	-38.5	21.3	0.00e+00	0	44	0	4023386112	44	4245
2026-01-27 15:11:13.17	326.70	18.24	-37.7	-38.7	21.0	0.00e+00	0	44	0	4052746240	44	4377
2026-01-27 15:11:17.15	327.13	17.81	-37.8	-38.8	20.9	0.00e+00	0	44	0	4082106368	45	4168
2026-01-27 15:11:21.13	327.54	17.39	-37.9	-38.9	20.8	0.00e+00	0	44	0	4110417920	45	4204
2026-01-27 15:11:25.11	327.95	16.97	-38.0	-39.0	20.8	0.00e+00	0	44	0	4138729472	45	4265
2026-01-27 15:11:29.09	328.34	16.57	-38.0	-39.0	20.7	0.00e+00	0	44	0	4167041024	45	4285
2026-01-27 15:11:33.07	328.73	16.16	-38.2	-39.1	20.6	0.00e+00	0	45	0	4196401152	45	4318
2026-01-27 15:11:37.05	329.10	15.76	-38.2	-39.2	20.5	0.00e+00	0	44	0	4225761280	46	4108
2026-01-27 15:11:41.02	329.47	15.37	-38.2	-39.2	20.6	0.00e+00	0	44	0	4254072832	46	4113
2026-01-27 15:11:45.00	329.82	14.99	-38.5	-39.5	20.2	0.00e+00	0	44	0	4282384384	46	4270
2026-01-27 15:11:48.98	330.17	14.60	-38.7	-39.7	20.0	0.00e+00	0	44	0	4310695936	46	4360
2026-01-27 15:11:52.96	330.51	14.23	-38.9	-39.9	19.8	0.00e+00	0	44	0	4340056064	47	4229
2026-01-27 15:11:56.94	330.84	13.86	-39.0	-40.0	19.7	0.00e+00	0	45	0	4368367616	47	4288
2026-01-27 15:12:00.92	331.16	13.49	-39.2	-40.3	19.5	0.00e+00	0	44	0	4397727744	47	4393
2026-01-27 15:12:04.90	331.48	13.13	-39.2	-40.2	19.5	0.00e+00	0	44	0	4426039296	47	4369
2026-01-27 15:12:08.87	331.79	12.77	-39.3	-40.3	19.7	0.00e+00	0	44	0	4454350848	48	4168
2026-01-27 15:12:12.85	332.09	12.42	-39.1	-40.1	19.8	0.00e+00	0	44	0	4483710976	48	4098
2026-01-27 15:12:16.83	332.39	12.07	-39.4	-40.4	19.5	0.00e+00	0	44	0	4512022528	48	4235
2026-01-27 15:12:20.81	332.68	11.72	-39.3	-40.3	19.6	0.00e+00	0	44	0	4541382656	48	4192
2026-01-27 15:12:24.95	332.97	11.37	-39.4	-40.4	19.4	0.00e+00	0	44	0	4570742784	48	4238
2026-01-27 15:12:28.92	333.25	11.03	-39.6	-40.6	19.3	0.00e+00	0	44	0	4599054336	48	4336
2026-01-27 15:12:32.92	333.52	10.70	-39.8	-41.0	19.0	0.00e+00	0	44	0	4628414464	49	4247
2026-01-27 15:12:36.90	333.78	10.37	-39.7	-40.9	19.0	0.00e+00	0	44	0	4657774592	49	4209
2026-01-27 15:12:40.89	334.04	10.05	-39.9	-41.0	18.9	0.00e+00	0	44	0	4686086144	49	4274
2026-01-27 15:12:44.88	334.30	9.73	-39.8	-40.9	18.9	0.00e+00	0	44	0	4714397696	49	4236
2026-01-27 15:12:48.87	334.55	9.41	-39.9	-41.1	18.8	0.00e+00	0	44	0	4743757824	49	4304
2026-01-27 15:12:52.88	334.79	9.09	-40.0	-41.2	18.7	0.00e+00	0	44	0	4772069376	49	4351
2026-01-27 15:12:56.87	335.03	8.78	-49.4	-61.1	3.8	8.48e-01	0	44	104	4788846592	69	13593
2026-01-27 15:13:00.86	335.27	8.48	-49.9	-61.0	3.8	8.47e-01	0	44	104	4788846592	69	13527
2026-01-27 15:13:04.84	335.50	8.17	-50.2	-61.1	3.8	8.47e-01	0	44	104	4788846592	70	12937
2026-01-27 15:13:08.82	335.73	7.87	-50.6	-61.3	3.8	8.47e-01	0	44	104	4788846592	70	13148
2026-01-27 15:13:12.81	335.95	7.58	-50.5	-61.3	3.8	8.47e-01	0	44	104	4788846592	70	13189
2026-01-27 15:13:16.79	336.17	7.28	-50.5	-61.3	3.8	8.47e-01	0	44	104	4788846592	70	13239
2026-01-27 15:13:20.77	336.38	6.99	-50.5	-61.3	3.8	8.47e-01	0	44	104	4788846592	70	13113
2026-01-27 15:13:24.75	336.59	6.71	-50.4	-61.3	3.8	8.47e-01	0	44	104	4788846592	70	13126
2026-01-27 15:13:28.73	336.79	6.42	-50.4	-61.2	3.8	8.48e-01	0	44	104	4788846592	70	13104
2026-01-27 15:13:32.70	337.00	6.14	-50.4	-61.2	3.8	8.46e-01	0	44	104	4788846592	70	13102
2026-01-27 15:13:36.68	337.20	5.86	-50.4	-61.2	3.8	8.46e-01	0	44	104	4788846592	70	13055
2026-01-27 15:13:40.66	337.39	5.59	-50.4	-61.2	3.8	8.48e-01	0	44	104	4788846592	70	13107
2026-01-27 15:13:44.64	337.58	5.31	-50.4	-61.2	3.8	8.45e-01	0	44	104	4788846592	70	13104
2026-01-27 15:13:48.62	337.77	5.04	-50.4	-61.2	3.8	8.47e-01	0	44	104	4788846592	70	13013

#Closed at: 2026-01-27 15:13:50
#Recorded file [4788 MB]: D:/Data/31040_260127_180116.dat