passes_logs/2026/01/27/T1/T1__20260127_234913_FENGYUN_3D_rec.log

#Pass ID: 20260127_234913_FENGYUN 3D
#Satellite: FENGYUN 3D
#Configuration: FENGYUN 3D
#almurnet v.1.7.20251203
#Start time: 2026-01-27 23:49:15

#Version: 2.0.20230620
#Station: T1
#Location: 37.570604 lon 55.790049 lat
#TLE: 1 43010U 17072A   26027.47796828  .00000374  00000+0  19850-3 0  9992
#TLE: 2 43010  98.9960 359.4888 0002523  87.5419 272.6045 14.19701595425023

#Time	Az	El	Level	Level2	SNR	BER	BlckErr	Temp	State	Recorded	gain1	gain2
2026-01-27 23:49:15.47	37.25	5.09	-50.3	-62.4	3.8	8.48e-01	0	41	0	0	71	15133
2026-01-27 23:49:18.44	37.59	5.23	-50.3	-62.5	3.8	8.47e-01	0	41	104	0	72	14377
2026-01-27 23:49:21.42	37.93	5.37	-50.1	-62.4	3.8	8.46e-01	0	41	104	0	72	14261
2026-01-27 23:49:24.40	38.27	5.52	-50.1	-62.3	3.8	8.46e-01	0	41	104	0	72	14084
2026-01-27 23:49:27.38	38.62	5.66	-49.9	-62.2	3.8	8.47e-01	0	42	104	0	71	14870
2026-01-27 23:49:30.36	38.97	5.80	-49.6	-61.9	3.8	8.47e-01	0	42	104	0	71	14260
2026-01-27 23:49:33.34	39.33	5.94	-49.3	-61.6	3.8	8.48e-01	0	42	104	0	70	14655
2026-01-27 23:49:36.32	39.69	6.08	-49.2	-61.6	3.8	8.47e-01	0	42	104	0	70	14541
2026-01-27 23:49:39.30	40.05	6.22	-49.2	-61.5	3.8	8.48e-01	0	42	104	0	70	14536
2026-01-27 23:49:42.27	40.41	6.36	-49.2	-61.6	3.8	8.48e-01	0	42	104	0	70	14544
2026-01-27 23:49:45.25	40.78	6.50	-49.2	-61.5	3.8	8.47e-01	0	42	104	0	70	14528
2026-01-27 23:49:48.23	41.15	6.64	-49.2	-61.6	3.8	8.47e-01	0	42	104	0	70	14556
2026-01-27 23:49:51.21	41.52	6.78	-49.2	-61.6	3.8	8.47e-01	0	42	104	0	70	14542
2026-01-27 23:49:54.19	41.90	6.92	-49.2	-61.5	3.8	8.46e-01	0	42	104	0	70	14487
2026-01-27 23:49:57.17	42.28	7.06	-49.2	-61.5	3.8	8.48e-01	0	42	104	0	70	14469
2026-01-27 23:50:00.15	42.67	7.20	-49.2	-61.5	3.8	8.47e-01	0	42	104	0	70	14524
2026-01-27 23:50:03.12	43.06	7.34	-49.2	-61.5	3.8	8.46e-01	0	43	104	0	70	14383
2026-01-27 23:50:06.10	43.45	7.48	-49.2	-61.3	3.8	8.47e-01	0	43	104	0	70	14151
2026-01-27 23:50:09.08	43.85	7.62	-49.2	-61.0	3.8	8.46e-01	0	43	104	0	70	13705
2026-01-27 23:50:12.06	44.25	7.76	-49.2	-61.0	3.8	8.47e-01	0	43	104	0	70	13594
2026-01-27 23:50:15.04	44.65	7.89	-49.2	-61.4	3.8	8.48e-01	0	43	104	0	70	14227
2026-01-27 23:50:18.02	45.06	8.03	-49.2	-61.5	3.8	8.47e-01	0	43	104	0	70	14446
2026-01-27 23:50:21.00	45.47	8.17	-49.2	-61.2	3.8	8.47e-01	0	43	104	0	70	14009
2026-01-27 23:50:23.98	45.88	8.30	-49.1	-60.9	3.8	8.47e-01	0	43	104	0	70	13548
2026-01-27 23:50:26.96	46.30	8.44	-49.2	-61.4	3.8	8.48e-01	0	43	104	0	70	14277
2026-01-27 23:50:29.93	46.72	8.57	-49.2	-61.5	3.8	8.46e-01	0	43	104	0	70	14399
2026-01-27 23:50:32.91	47.15	8.71	-49.2	-61.5	3.8	8.46e-01	0	43	104	0	70	14514
2026-01-27 23:50:35.89	47.58	8.84	-49.1	-61.1	3.8	8.48e-01	0	43	104	0	70	13731
2026-01-27 23:50:38.87	48.01	8.97	-48.4	-56.4	4.8	8.30e-01	0	43	0	0	68	9010
2026-01-27 23:50:41.85	48.45	9.10	-49.2	-61.3	3.8	5.28e-01	0	43	104	11534336	68	15871
2026-01-27 23:50:44.83	48.89	9.24	-42.1	-44.4	15.8	2.05e-05	0	43	0	22020096	56	4534
2026-01-27 23:50:47.80	49.33	9.37	-40.0	-42.0	18.1	0.00e+00	0	43	0	38797312	52	4308
2026-01-27 23:50:50.78	49.78	9.50	-39.7	-41.7	18.5	0.00e+00	0	43	0	55574528	51	4413
2026-01-27 23:50:53.76	50.24	9.63	-39.6	-41.6	18.6	0.00e+00	0	43	0	72351744	51	4345
2026-01-27 23:50:56.74	50.69	9.75	-39.5	-41.4	18.8	0.00e+00	0	43	0	89128960	50	4501
2026-01-27 23:50:59.72	51.15	9.88	-39.4	-41.3	18.6	0.00e+00	0	43	0	105906176	50	4485
2026-01-27 23:51:02.70	51.62	10.01	-39.3	-41.3	18.7	0.00e+00	0	43	0	122683392	50	4482
2026-01-27 23:51:05.68	52.09	10.13	-39.3	-41.3	18.8	0.00e+00	0	43	0	139460608	50	4447
2026-01-27 23:51:08.65	52.56	10.26	-39.5	-41.5	18.6	0.00e+00	0	43	0	156237824	50	4556
2026-01-27 23:51:11.63	53.03	10.38	-39.3	-41.3	18.7	0.00e+00	0	43	0	173015040	50	4482
2026-01-27 23:51:14.61	53.51	10.50	-39.3	-41.3	18.7	0.00e+00	0	43	0	188743680	50	4484
2026-01-27 23:51:17.59	54.00	10.62	-39.4	-41.4	18.6	0.00e+00	0	43	0	206569472	50	4529
2026-01-27 23:51:20.57	54.49	10.74	-39.6	-41.7	18.4	0.00e+00	0	43	0	223346688	50	4659
2026-01-27 23:51:23.55	54.98	10.86	-39.3	-41.3	18.7	0.00e+00	0	43	0	240123904	50	4488
2026-01-27 23:51:26.53	55.47	10.98	-39.1	-41.1	18.9	0.00e+00	0	43	0	256901120	50	4364
2026-01-27 23:51:29.50	55.97	11.09	-38.7	-40.7	19.3	0.00e+00	0	44	0	272629760	49	4393
2026-01-27 23:51:32.48	56.48	11.21	-38.9	-40.9	19.2	0.00e+00	0	43	0	290455552	49	4509
2026-01-27 23:51:35.46	56.98	11.32	-39.0	-41.0	19.1	0.00e+00	0	43	0	306184192	49	4567
2026-01-27 23:51:38.44	57.49	11.43	-38.9	-40.9	19.2	0.00e+00	0	43	0	322961408	49	4514
2026-01-27 23:51:41.42	58.01	11.54	-38.9	-40.9	19.2	0.00e+00	0	44	0	340787200	49	4503
2026-01-27 23:51:44.40	58.53	11.65	-38.7	-40.6	19.5	0.00e+00	0	44	0	356515840	49	4376
2026-01-27 23:51:47.38	59.05	11.75	-38.8	-40.7	19.4	0.00e+00	0	43	0	373293056	49	4432
2026-01-27 23:51:50.35	59.58	11.86	-38.8	-40.7	19.4	0.00e+00	0	44	0	390070272	49	4423
2026-01-27 23:51:53.33	60.11	11.96	-38.7	-40.6	19.5	0.00e+00	0	44	0	406847488	49	4385
2026-01-27 23:51:56.31	60.64	12.06	-38.5	-40.4	19.7	0.00e+00	0	44	0	423624704	49	4287
2026-01-27 23:51:59.29	61.18	12.16	-38.5	-40.5	19.6	0.00e+00	0	43	0	440401920	49	4301
2026-01-27 23:52:02.27	61.72	12.26	-38.8	-40.7	19.4	0.00e+00	0	44	0	457179136	49	4434
2026-01-27 23:52:05.25	62.26	12.36	-38.7	-40.6	19.5	0.00e+00	0	43	0	473956352	49	4369
2026-01-27 23:52:08.23	62.81	12.45	-38.7	-40.6	19.4	0.00e+00	0	44	0	490733568	49	4379
2026-01-27 23:52:11.21	63.36	12.54	-38.8	-40.7	19.4	0.00e+00	0	43	0	507510784	49	4426
2026-01-27 23:52:14.19	63.91	12.63	-38.6	-40.5	19.5	0.00e+00	0	44	0	524288000	49	4327
2026-01-27 23:52:17.17	64.47	12.72	-38.6	-40.5	19.6	0.00e+00	0	43	0	541065216	49	4299
2026-01-27 23:52:20.14	65.03	12.81	-38.5	-40.4	19.7	0.00e+00	0	43	0	557842432	48	4525
2026-01-27 23:52:23.12	65.59	12.89	-38.4	-40.3	19.8	0.00e+00	0	44	0	574619648	48	4456
2026-01-27 23:52:26.10	66.16	12.97	-38.3	-40.1	20.0	0.00e+00	0	44	0	591396864	48	4365
2026-01-27 23:52:29.08	66.73	13.05	-38.2	-40.0	20.1	0.00e+00	0	44	0	608174080	48	4336
2026-01-27 23:52:32.06	67.30	13.13	-38.1	-39.9	20.1	0.00e+00	0	44	0	624951296	48	4286
2026-01-27 23:52:35.04	67.88	13.20	-38.1	-40.0	20.1	0.00e+00	0	43	0	641728512	48	4314
2026-01-27 23:52:38.02	68.46	13.27	-37.9	-39.8	20.1	0.00e+00	0	43	0	658505728	47	4442
2026-01-27 23:52:41.00	69.04	13.34	-38.0	-39.9	19.9	0.00e+00	0	43	0	675282944	47	4516
2026-01-27 23:52:43.97	69.62	13.41	-38.0	-39.9	19.9	0.00e+00	0	44	0	692060160	47	4542
2026-01-27 23:52:46.95	70.21	13.47	-38.1	-40.0	19.8	0.00e+00	0	43	0	708837376	47	4585
2026-01-27 23:52:49.93	70.80	13.53	-38.5	-40.4	19.4	0.00e+00	0	43	0	725614592	47	4813
2026-01-27 23:52:52.91	71.39	13.59	-38.3	-40.2	19.6	0.00e+00	0	43	0	742391808	47	4686
2026-01-27 23:52:55.89	71.98	13.65	-37.9	-39.8	20.0	0.00e+00	0	43	0	759169024	47	4467
2026-01-27 23:52:58.87	72.58	13.70	-38.0	-39.9	19.9	0.00e+00	0	44	0	775946240	47	4541
2026-01-27 23:53:01.85	73.18	13.75	-38.2	-40.1	19.8	0.00e+00	0	44	0	792723456	47	4625
2026-01-27 23:53:04.83	73.78	13.80	-38.0	-39.9	20.0	0.00e+00	0	44	0	809500672	47	4514
2026-01-27 23:53:07.80	74.38	13.85	-38.1	-40.0	19.8	0.00e+00	0	44	0	826277888	47	4588
2026-01-27 23:53:10.78	74.98	13.89	-37.8	-39.6	20.2	0.00e+00	0	43	0	843055104	47	4388
2026-01-27 23:53:13.76	75.59	13.93	-37.8	-39.7	20.2	0.00e+00	0	44	0	859832320	47	4393
2026-01-27 23:53:16.74	76.19	13.96	-37.9	-39.8	20.0	0.00e+00	0	44	0	876609536	47	4451
2026-01-27 23:53:19.72	76.80	14.00	-37.9	-39.8	20.1	0.00e+00	0	44	0	893386752	47	4455
2026-01-27 23:53:22.70	77.41	14.03	-37.9	-39.8	20.1	0.00e+00	0	44	0	910163968	47	4465
2026-01-27 23:53:25.68	78.02	14.06	-37.9	-39.8	20.0	0.00e+00	0	44	0	926941184	47	4467
2026-01-27 23:53:28.66	78.64	14.08	-38.0	-39.9	19.9	0.00e+00	0	44	0	943718400	47	4527
2026-01-27 23:53:31.63	79.25	14.10	-38.0	-39.9	19.9	0.00e+00	0	44	0	960495616	47	4521
2026-01-27 23:53:34.61	79.86	14.12	-37.9	-39.8	20.1	0.00e+00	0	44	0	977272832	47	4484
2026-01-27 23:53:37.59	80.48	14.14	-37.9	-39.8	20.1	0.00e+00	0	44	0	994050048	47	4467
2026-01-27 23:53:40.57	81.09	14.15	-37.8	-39.7	20.1	0.00e+00	0	44	0	1010827264	47	4419
2026-01-27 23:53:43.55	81.71	14.16	-37.9	-39.9	20.0	0.00e+00	0	44	0	1027604480	47	4494
2026-01-27 23:53:46.53	82.32	14.17	-37.9	-39.8	20.1	0.00e+00	0	44	0	1044381696	47	4454
2026-01-27 23:53:49.51	82.94	14.17	-37.9	-39.8	20.0	0.00e+00	0	44	0	1060110336	47	4485
2026-01-27 23:53:52.48	83.55	14.17	-38.0	-40.0	19.9	0.00e+00	0	43	0	1077936128	47	4557
2026-01-27 23:53:55.46	84.17	14.17	-38.1	-40.0	19.8	0.00e+00	0	44	0	1093664768	47	4594
2026-01-27 23:53:58.44	84.79	14.16	-37.8	-39.7	20.1	0.00e+00	0	44	0	1110441984	47	4436
2026-01-27 23:54:01.42	85.40	14.16	-37.9	-39.8	20.0	0.00e+00	0	44	0	1128267776	47	4492
2026-01-27 23:54:04.40	86.02	14.14	-37.9	-39.8	20.0	0.00e+00	0	43	0	1143996416	47	4489
2026-01-27 23:54:07.38	86.63	14.13	-38.1	-40.0	19.8	0.00e+00	0	44	0	1160773632	47	4586
2026-01-27 23:54:10.36	87.25	14.11	-38.1	-40.0	19.8	0.00e+00	0	44	0	1177550848	47	4584
2026-01-27 23:54:13.34	87.86	14.09	-38.0	-40.0	19.9	0.00e+00	0	44	0	1194328064	47	4553
2026-01-27 23:54:16.32	88.48	14.07	-38.1	-40.0	19.8	0.00e+00	0	44	0	1211105280	47	4586
2026-01-27 23:54:19.30	89.09	14.04	-38.1	-40.0	19.8	0.00e+00	0	44	0	1227882496	47	4566
2026-01-27 23:54:22.28	89.70	14.01	-38.1	-40.0	19.9	0.00e+00	0	44	0	1244659712	47	4549
2026-01-27 23:54:25.25	90.31	13.98	-38.1	-40.1	19.8	0.00e+00	0	44	0	1261436928	47	4606
2026-01-27 23:54:28.23	90.92	13.94	-38.0	-39.9	20.0	0.00e+00	0	44	0	1278214144	47	4508
2026-01-27 23:54:31.21	91.52	13.90	-38.0	-39.9	20.0	0.00e+00	0	44	0	1294991360	47	4526
2026-01-27 23:54:34.19	92.13	13.86	-38.0	-39.9	19.9	0.00e+00	0	43	0	1311768576	47	4533
2026-01-27 23:54:37.17	92.73	13.82	-38.2	-40.1	19.8	0.00e+00	0	44	0	1328545792	47	4623
2026-01-27 23:54:40.15	93.34	13.77	-38.2	-40.1	19.7	0.00e+00	0	44	0	1345323008	47	4626
2026-01-27 23:54:43.13	93.94	13.72	-38.2	-40.2	19.7	0.00e+00	0	44	0	1362100224	47	4655
2026-01-27 23:54:46.11	94.53	13.67	-38.5	-40.4	19.4	0.00e+00	0	44	0	1378877440	47	4801
2026-01-27 23:54:49.09	95.13	13.61	-38.5	-40.4	19.4	0.00e+00	0	44	0	1395654656	47	4811
2026-01-27 23:54:52.06	95.72	13.55	-38.5	-40.4	19.4	0.00e+00	0	44	0	1412431872	47	4801
2026-01-27 23:54:55.04	96.31	13.49	-38.6	-40.5	19.4	0.00e+00	0	44	0	1429209088	47	4845
2026-01-27 23:54:58.02	96.90	13.43	-38.6	-40.5	19.5	0.00e+00	0	44	0	1445986304	48	4597
2026-01-27 23:55:01.00	97.49	13.36	-38.6	-40.6	19.5	0.00e+00	0	44	0	1462763520	48	4607
2026-01-27 23:55:03.98	98.07	13.30	-38.5	-40.4	19.6	0.00e+00	0	44	0	1479540736	48	4543
2026-01-27 23:55:06.96	98.66	13.22	-38.4	-40.3	19.8	0.00e+00	0	44	0	1496317952	48	4475
2026-01-27 23:55:09.94	99.23	13.15	-38.6	-40.5	19.6	0.00e+00	0	44	0	1513095168	48	4568
2026-01-27 23:55:12.92	99.81	13.08	-38.8	-40.8	19.3	0.00e+00	0	44	0	1529872384	48	4729
2026-01-27 23:55:15.89	100.38	13.00	-38.6	-40.6	19.5	0.00e+00	0	44	0	1546649600	48	4599
2026-01-27 23:55:18.87	100.95	12.92	-38.6	-40.5	19.6	0.00e+00	0	44	0	1563426816	48	4560
2026-01-27 23:55:21.85	101.52	12.83	-38.6	-40.5	19.5	0.00e+00	0	44	0	1580204032	48	4593
2026-01-27 23:55:24.83	102.08	12.75	-38.6	-40.5	19.6	0.00e+00	0	44	0	1596981248	48	4566
2026-01-27 23:55:27.81	102.64	12.66	-38.7	-40.7	19.1	0.00e+00	0	44	0	1613758464	48	4663
2026-01-27 23:55:30.79	103.20	12.57	-38.8	-40.7	19.2	0.00e+00	0	44	0	1630535680	48	4702
2026-01-27 23:55:33.77	103.76	12.48	-38.8	-40.8	19.1	0.00e+00	0	44	0	1647312896	48	4707
2026-01-27 23:55:36.74	104.31	12.39	-38.8	-40.7	19.0	0.00e+00	0	44	0	1664090112	48	4684
2026-01-27 23:55:39.72	104.85	12.29	-39.2	-41.1	19.0	0.00e+00	0	44	0	1680867328	48	4914
2026-01-27 23:55:42.70	105.40	12.19	-38.9	-40.9	19.2	0.00e+00	0	44	0	1697644544	48	4789
2026-01-27 23:55:45.68	105.94	12.09	-38.9	-40.9	19.2	0.00e+00	0	44	0	1714421760	48	4791
2026-01-27 23:55:48.66	106.47	11.99	-39.1	-41.1	19.0	0.00e+00	0	44	0	1731198976	48	4873
2026-01-27 23:55:51.64	107.01	11.89	-39.0	-41.0	19.1	0.00e+00	0	44	0	1747976192	48	4837
2026-01-27 23:55:54.61	107.54	11.78	-39.0	-40.9	19.2	0.00e+00	0	44	0	1764753408	48	4792
2026-01-27 23:55:57.59	108.06	11.68	-39.1	-41.0	19.0	0.00e+00	0	44	0	1781530624	48	4865
2026-01-27 23:56:00.57	108.58	11.57	-39.3	-41.3	18.8	0.00e+00	0	44	0	1798307840	49	4749
2026-01-27 23:56:03.55	109.10	11.46	-39.2	-41.2	18.8	0.00e+00	0	43	0	1815085056	49	4674
2026-01-27 23:56:06.53	109.62	11.35	-39.2	-41.1	18.9	0.00e+00	0	44	0	1831862272	49	4641
2026-01-27 23:56:09.51	110.13	11.23	-39.3	-41.3	18.8	0.00e+00	0	44	0	1847590912	49	4711
2026-01-27 23:56:12.49	110.64	11.12	-39.3	-41.3	18.7	0.00e+00	0	44	0	1865416704	49	4731
2026-01-27 23:56:15.47	111.14	11.00	-39.7	-41.8	18.3	0.00e+00	0	44	0	1881145344	50	4721
2026-01-27 23:56:18.45	111.64	10.88	-39.8	-41.9	18.2	0.00e+00	0	44	0	1897922560	50	4788
2026-01-27 23:56:21.42	112.13	10.77	-39.8	-41.9	18.1	0.00e+00	0	44	0	1915748352	50	4785
2026-01-27 23:56:24.40	112.62	10.65	-39.6	-41.7	18.4	0.00e+00	0	44	0	1931476992	50	4664
2026-01-27 23:56:27.38	113.11	10.52	-39.5	-41.6	18.5	0.00e+00	0	44	0	1948254208	50	4600
2026-01-27 23:56:30.36	113.60	10.40	-39.6	-41.6	18.4	0.00e+00	0	44	0	1965031424	50	4637
2026-01-27 23:56:33.34	114.08	10.28	-39.8	-41.8	18.2	0.00e+00	0	44	0	1981808640	50	4758
2026-01-27 23:56:36.32	114.55	10.15	-39.7	-41.8	18.3	0.00e+00	0	44	0	1998585856	50	4721
2026-01-27 23:56:39.30	115.02	10.03	-39.8	-41.9	18.0	0.00e+00	0	44	0	2015363072	50	4797
2026-01-27 23:56:42.27	115.49	9.90	-39.8	-41.8	18.2	0.00e+00	0	44	0	2032140288	50	4751
2026-01-27 23:56:45.25	115.95	9.77	-39.7	-41.8	18.0	0.00e+00	0	44	0	2048917504	50	4724
2026-01-27 23:56:48.23	116.41	9.64	-39.8	-41.9	17.8	6.80e-06	0	44	0	2065694720	50	4801
2026-01-27 23:56:51.21	116.87	9.51	-39.7	-41.8	18.0	0.00e+00	0	44	0	2082471936	50	4732
2026-01-27 23:56:54.19	117.32	9.38	-39.9	-42.0	18.0	0.00e+00	0	44	0	2099249152	50	4869
2026-01-27 23:56:57.17	117.77	9.25	-40.0	-42.2	17.8	0.00e+00	0	44	0	2116026368	51	4665
2026-01-27 23:57:00.15	118.22	9.12	-40.1	-42.2	17.8	0.00e+00	0	44	0	2132803584	51	4681
2026-01-27 23:57:03.13	118.66	8.98	-49.4	-61.1	3.8	8.31e-01	0	44	104	2147483648	69	14640
2026-01-27 23:57:06.11	119.09	8.85	-50.0	-62.1	3.8	8.48e-01	0	44	104	2147483648	70	15572
2026-01-27 23:57:09.08	119.53	8.72	-50.1	-62.2	3.8	8.46e-01	0	44	104	2147483648	70	15679
2026-01-27 23:57:12.06	119.95	8.58	-50.2	-62.4	3.8	8.46e-01	0	44	104	2147483648	71	15180
2026-01-27 23:57:15.04	120.38	8.44	-50.3	-62.5	3.8	8.47e-01	0	44	104	2147483648	71	15293
2026-01-27 23:57:18.02	120.80	8.31	-50.4	-62.5	3.8	8.48e-01	0	44	104	2147483648	71	15346
2026-01-27 23:57:21.00	121.22	8.17	-50.3	-62.6	3.8	8.47e-01	0	44	104	2147483648	71	15453
2026-01-27 23:57:23.98	121.63	8.03	-50.4	-62.6	3.8	8.47e-01	0	44	104	2147483648	71	15446
2026-01-27 23:57:26.96	122.04	7.89	-50.4	-62.6	3.8	8.46e-01	0	44	104	2147483648	71	15500
2026-01-27 23:57:29.94	122.45	7.76	-50.3	-62.6	3.8	8.46e-01	0	44	104	2147483648	71	15558
2026-01-27 23:57:32.92	122.85	7.62	-50.4	-62.6	3.8	8.47e-01	0	44	104	2147483648	71	15465
2026-01-27 23:57:35.90	123.25	7.48	-50.4	-62.5	3.8	8.47e-01	0	44	104	2147483648	71	15358
2026-01-27 23:57:38.87	123.64	7.34	-50.1	-62.5	3.8	8.47e-01	0	44	104	2147483648	71	15230
2026-01-27 23:57:41.85	124.03	7.20	-50.1	-62.3	3.8	8.47e-01	0	44	104	2147483648	71	14995
2026-01-27 23:57:44.83	124.42	7.06	-49.6	-61.9	3.8	8.49e-01	0	44	104	2147483648	71	14256
2026-01-27 23:57:47.81	124.81	6.91	-49.5	-61.7	3.8	8.48e-01	0	44	104	2147483648	71	13971
2026-01-27 23:57:50.79	125.19	6.77	-49.5	-61.7	3.8	8.47e-01	0	44	104	2147483648	71	13915
2026-01-27 23:57:53.77	125.56	6.63	-49.5	-61.7	3.8	8.46e-01	0	44	104	2147483648	70	14733
2026-01-27 23:57:56.75	125.94	6.49	-49.5	-61.7	3.8	8.46e-01	0	44	104	2147483648	70	14753
2026-01-27 23:57:59.73	126.31	6.35	-49.4	-61.7	3.8	8.47e-01	0	44	104	2147483648	70	14745
2026-01-27 23:58:02.70	126.67	6.21	-49.4	-61.6	3.8	8.47e-01	0	44	104	2147483648	70	14693
2026-01-27 23:58:05.68	127.04	6.06	-49.4	-61.7	3.8	8.48e-01	0	44	104	2147483648	70	14730
2026-01-27 23:58:08.66	127.40	5.92	-49.4	-61.7	3.8	8.47e-01	0	44	104	2147483648	70	14753
2026-01-27 23:58:11.64	127.75	5.78	-49.4	-61.6	3.8	8.48e-01	0	44	104	2147483648	70	14626
2026-01-27 23:58:14.62	128.11	5.63	-49.4	-61.6	3.8	8.48e-01	0	44	104	2147483648	70	14700
2026-01-27 23:58:17.60	128.45	5.49	-49.4	-61.6	3.8	8.46e-01	0	44	104	2147483648	70	14647
2026-01-27 23:58:20.58	128.80	5.35	-49.4	-61.6	3.8	8.46e-01	0	44	104	2147483648	70	14645
2026-01-27 23:58:23.56	129.14	5.20	-49.4	-61.6	3.8	8.46e-01	0	44	104	2147483648	70	14703
2026-01-27 23:58:26.54	129.48	5.06	-49.4	-61.6	3.8	8.48e-01	0	44	104	2147483648	70	14635

#Closed at: 2026-01-27 23:58:29
#Recorded file [2147 MB]: D:/Data/31040_260128_024915.dat