passes_logs/2026/01/27/T1/T1__20260127_092137_NOAA_20_JPSS-1_rec.log

#Pass ID: 20260127_092137_NOAA 20 (JPSS-1)
#Satellite: NOAA 20 (JPSS-1)
#Configuration: NOAA 20
#almurnet v.1.7.20251203
#Start time: 2026-01-27 09:21:38

#Version: 2.0.20230620
#Station: T1
#Location: 37.570604 lon 55.790049 lat
#TLE: 1 43013U 17073A   26026.81907703  .00000149  00000+0  91399-4 0  9998
#TLE: 2 43013  98.7647 327.6343 0000991  22.4130 337.7089 14.19540778424411

#Time	Az	El	Level	Level2	SNR	BER	BlckErr	Temp	State	Recorded	gain1	gain2
2026-01-27 09:21:38.77	142.35	5.10	-49.4	-64.5	3.8	1.49e+00	0	38	0	0	70	20492
2026-01-27 09:21:42.76	142.23	5.39	-49.4	-64.0	3.8	1.49e+00	0	38	104	0	70	19343
2026-01-27 09:21:46.73	142.11	5.67	-49.4	-63.8	3.8	1.49e+00	0	38	104	0	70	18876
2026-01-27 09:21:50.71	141.98	5.96	-49.4	-63.8	3.8	1.49e+00	0	38	104	0	70	18826
2026-01-27 09:21:54.70	141.86	6.26	-49.4	-64.2	3.8	1.49e+00	0	38	104	0	70	19793
2026-01-27 09:21:58.69	141.73	6.55	-49.4	-64.7	3.8	1.49e+00	0	38	104	0	70	20929
2026-01-27 09:22:02.67	141.60	6.85	-49.4	-64.5	3.8	1.49e+00	0	39	104	0	70	20432
2026-01-27 09:22:06.66	141.46	7.15	-49.4	-63.9	3.8	1.49e+00	0	39	104	0	70	18956
2026-01-27 09:22:10.65	141.33	7.46	-48.9	-58.4	5.5	8.03e-01	0	39	0	2097152	69	10698
2026-01-27 09:22:14.64	141.18	7.77	-47.1	-52.4	10.9	3.11e-03	0	39	0	9437184	66	6407
2026-01-27 09:22:18.63	141.04	8.08	-45.6	-49.3	14.2	7.00e-07	0	39	0	16777216	63	5336
2026-01-27 09:22:22.62	140.89	8.40	-45.4	-49.0	14.6	0.00e+00	0	39	0	24117248	62	5444
2026-01-27 09:22:26.61	140.74	8.72	-46.8	-51.7	11.7	2.43e-04	0	39	0	31457280	64	6595
2026-01-27 09:22:30.59	140.59	9.04	-48.9	-58.5	5.5	3.05e-01	0	39	0	39845888	68	11485
2026-01-27 09:22:34.59	140.43	9.37	-47.6	-53.6	9.5	1.34e+00	0	39	0	46137344	67	6900
2026-01-27 09:22:38.58	140.27	9.71	-45.0	-48.3	15.4	1.50e-06	0	39	0	50331648	62	5025
2026-01-27 09:22:42.57	140.10	10.04	-44.2	-47.1	16.6	0.00e+00	0	39	0	57671680	60	4901
2026-01-27 09:22:46.56	139.93	10.39	-43.8	-46.5	17.2	0.00e+00	0	39	0	65011712	59	4857
2026-01-27 09:22:50.56	139.76	10.73	-43.9	-46.6	17.1	0.00e+00	0	39	0	73400320	59	4899
2026-01-27 09:22:54.55	139.58	11.08	-43.9	-46.7	17.1	0.00e+00	0	40	0	80740352	59	4941
2026-01-27 09:22:58.54	139.39	11.44	-43.8	-46.5	17.3	0.00e+00	0	40	0	88080384	59	4852
2026-01-27 09:23:02.53	139.20	11.80	-43.9	-46.6	17.2	0.00e+00	0	40	0	95420416	59	4892
2026-01-27 09:23:06.52	139.01	12.17	-43.9	-46.6	17.2	0.00e+00	0	40	0	102760448	59	4898
2026-01-27 09:23:10.51	138.81	12.54	-43.6	-46.1	17.6	0.00e+00	0	40	0	110100480	59	4643
2026-01-27 09:23:14.51	138.61	12.92	-43.6	-46.2	17.6	0.00e+00	0	40	0	117440512	59	4665
2026-01-27 09:23:18.50	138.40	13.30	-43.6	-46.2	17.6	0.00e+00	0	40	0	125829120	59	4683
2026-01-27 09:23:22.48	138.18	13.69	-43.4	-45.9	17.9	0.00e+00	0	40	0	133169152	58	4796
2026-01-27 09:23:26.48	137.96	14.08	-43.4	-46.0	17.9	0.00e+00	0	40	0	140509184	58	4831
2026-01-27 09:23:30.46	137.73	14.48	-43.6	-46.2	17.7	0.00e+00	0	40	0	147849216	58	4963
2026-01-27 09:23:34.42	137.50	14.88	-43.3	-45.9	18.0	0.00e+00	0	40	0	155189248	58	4769
2026-01-27 09:23:38.39	137.26	15.29	-42.8	-45.2	18.6	0.00e+00	0	40	0	162529280	57	4668
2026-01-27 09:23:42.36	137.02	15.71	-43.1	-45.6	18.3	0.00e+00	0	40	0	169869312	57	4896
2026-01-27 09:23:46.35	136.76	16.13	-43.4	-45.9	18.0	0.00e+00	0	40	0	177209344	57	5099
2026-01-27 09:23:50.34	136.50	16.57	-43.3	-45.8	18.1	0.00e+00	0	40	0	185597952	57	5039
2026-01-27 09:23:54.32	136.23	17.00	-43.2	-45.7	18.2	0.00e+00	0	40	0	192937984	57	4944
2026-01-27 09:23:58.30	135.95	17.45	-42.9	-45.3	18.6	0.00e+00	0	40	0	200278016	57	4735
2026-01-27 09:24:02.29	135.66	17.90	-43.0	-45.4	18.5	0.00e+00	0	40	0	207618048	57	4776
2026-01-27 09:24:06.28	135.37	18.37	-43.0	-45.5	18.4	0.00e+00	0	40	0	214958080	57	4815
2026-01-27 09:24:10.27	135.06	18.84	-43.1	-45.6	18.3	0.00e+00	0	40	0	222298112	57	4886
2026-01-27 09:24:14.26	134.74	19.31	-43.3	-45.7	18.2	0.00e+00	0	40	0	229638144	57	4982
2026-01-27 09:24:18.25	134.42	19.80	-43.3	-45.8	18.1	0.00e+00	0	40	0	236978176	57	5035
2026-01-27 09:24:22.24	134.08	20.30	-43.7	-46.3	17.7	0.00e+00	0	40	0	245366784	57	5307
2026-01-27 09:24:26.22	133.73	20.80	-43.6	-46.2	17.8	0.00e+00	0	40	0	252706816	58	4945
2026-01-27 09:24:30.21	133.37	21.31	-44.1	-46.8	17.2	0.00e+00	0	40	0	260046848	58	5340
2026-01-27 09:24:34.19	132.99	21.83	-43.9	-46.5	17.5	0.00e+00	0	40	0	267386880	59	4825
2026-01-27 09:24:38.19	132.61	22.37	-44.1	-46.8	17.2	0.00e+00	0	40	0	274726912	59	5041
2026-01-27 09:24:42.19	132.20	22.91	-43.8	-46.4	17.5	0.00e+00	0	40	0	282066944	59	4813
2026-01-27 09:24:46.17	131.79	23.46	-44.2	-46.9	17.1	0.00e+00	0	40	0	289406976	59	5086
2026-01-27 09:24:50.16	131.36	24.02	-44.4	-47.3	16.8	0.00e+00	0	40	0	296747008	59	5283
2026-01-27 09:24:54.14	130.91	24.59	-44.6	-47.5	16.6	0.00e+00	0	40	0	305135616	59	5405
2026-01-27 09:24:58.13	130.45	25.18	-44.6	-47.4	16.6	0.00e+00	0	40	0	312475648	60	5087
2026-01-27 09:25:02.12	129.97	25.77	-45.0	-48.1	16.1	0.00e+00	0	40	0	319815680	60	5466
2026-01-27 09:25:06.11	129.46	26.38	-44.8	-47.9	16.2	0.00e+00	0	40	0	327155712	60	5347
2026-01-27 09:25:10.11	128.94	27.00	-44.9	-48.0	16.1	0.00e+00	0	40	0	334495744	60	5430
2026-01-27 09:25:14.10	128.40	27.62	-44.9	-47.9	16.3	0.00e+00	0	40	0	341835776	60	5354
2026-01-27 09:25:18.09	127.83	28.26	-44.8	-47.7	16.4	0.00e+00	0	40	0	349175808	60	5232
2026-01-27 09:25:22.07	127.25	28.91	-44.8	-47.7	16.4	0.00e+00	0	40	0	357564416	60	5279
2026-01-27 09:25:26.06	126.63	29.58	-44.7	-47.6	16.5	0.00e+00	0	40	0	364904448	60	5193
2026-01-27 09:25:30.05	126.00	30.25	-44.9	-47.9	16.2	0.00e+00	0	40	0	372244480	60	5365
2026-01-27 09:25:34.04	125.33	30.94	-45.0	-47.9	16.2	0.00e+00	0	40	0	379584512	60	5398
2026-01-27 09:25:38.03	124.63	31.64	-45.0	-48.1	16.1	0.00e+00	0	40	0	386924544	60	5466
2026-01-27 09:25:42.00	123.91	32.34	-45.6	-48.9	15.3	0.00e+00	0	40	0	394264576	61	5658
2026-01-27 09:25:45.98	123.15	33.06	-45.5	-48.8	15.4	0.00e+00	0	40	0	401604608	61	5654
2026-01-27 09:25:49.96	122.35	33.79	-46.0	-49.7	14.5	0.00e+00	0	40	0	408944640	62	5856
2026-01-27 09:25:53.94	121.52	34.54	-45.5	-48.7	15.4	0.00e+00	0	40	0	417333248	62	5265
2026-01-27 09:25:57.92	120.65	35.29	-45.3	-48.3	15.8	0.00e+00	0	40	0	424673280	62	5040
2026-01-27 09:26:01.91	119.73	36.06	-44.8	-47.8	16.4	0.00e+00	0	40	0	432013312	61	4995
2026-01-27 09:26:05.89	118.78	36.83	-45.0	-48.1	16.1	0.00e+00	0	40	0	439353344	61	5179
2026-01-27 09:26:09.86	117.78	37.61	-45.0	-48.0	16.1	0.00e+00	0	40	0	446693376	61	5146
2026-01-27 09:26:13.83	116.72	38.40	-45.0	-47.9	16.3	0.00e+00	0	40	0	454033408	61	5069
2026-01-27 09:26:17.80	115.62	39.19	-45.4	-48.6	15.6	0.00e+00	0	40	0	461373440	61	5510
2026-01-27 09:26:21.78	114.46	39.99	-45.2	-48.3	15.9	0.00e+00	0	40	0	468713472	61	5315
2026-01-27 09:26:25.75	113.24	40.80	-45.1	-48.0	16.1	0.00e+00	0	40	0	476053504	61	5155
2026-01-27 09:26:29.74	111.95	41.61	-45.0	-47.9	16.2	0.00e+00	0	40	0	484442112	61	5089
2026-01-27 09:26:33.71	110.60	42.41	-46.1	-49.6	14.6	0.00e+00	0	40	0	491782144	62	5833
2026-01-27 09:26:37.70	109.18	43.22	-45.9	-49.2	15.0	0.00e+00	0	40	0	499122176	63	5268
2026-01-27 09:26:41.67	107.69	44.02	-45.3	-48.4	15.8	0.00e+00	0	40	0	506462208	62	5079
2026-01-27 09:26:45.65	106.11	44.82	-45.6	-49.0	15.3	0.00e+00	0	40	0	513802240	62	5419
2026-01-27 09:26:49.62	104.47	45.61	-46.2	-49.9	14.3	0.00e+00	0	40	0	521142272	63	5704
2026-01-27 09:26:53.60	102.73	46.38	-45.3	-48.4	15.8	0.00e+00	0	40	0	528482304	62	5065
2026-01-27 09:26:57.58	100.90	47.14	-44.6	-47.5	16.7	0.00e+00	0	40	0	535822336	61	4828
2026-01-27 09:27:01.57	98.99	47.88	-45.1	-48.2	16.0	0.00e+00	0	40	0	543162368	61	5226
2026-01-27 09:27:05.55	96.98	48.59	-44.3	-47.1	17.1	0.00e+00	0	40	0	551550976	60	4906
2026-01-27 09:27:09.53	94.88	49.28	-44.7	-47.6	16.6	0.00e+00	0	40	0	558891008	60	5206
2026-01-27 09:27:13.51	92.69	49.93	-45.2	-48.3	16.0	0.00e+00	0	40	0	566231040	61	5327
2026-01-27 09:27:17.49	90.40	50.55	-45.1	-48.3	15.9	0.00e+00	0	40	0	573571072	61	5338
2026-01-27 09:27:21.47	88.02	51.12	-44.8	-47.7	16.5	0.00e+00	0	40	0	580911104	61	4963
2026-01-27 09:27:25.46	85.55	51.64	-44.8	-47.8	16.5	0.00e+00	0	40	0	588251136	61	5005
2026-01-27 09:27:29.43	83.01	52.11	-43.7	-46.3	17.9	0.00e+00	0	40	0	595591168	59	4732
2026-01-27 09:27:33.41	80.38	52.53	-42.5	-44.8	19.3	0.00e+00	0	40	0	602931200	57	4444
2026-01-27 09:27:37.40	77.67	52.88	-40.9	-42.9	20.8	0.00e+00	0	40	0	611319808	53	4543
2026-01-27 09:27:41.39	74.91	53.17	-40.6	-42.6	21.2	0.00e+00	0	40	0	618659840	53	4349
2026-01-27 09:27:45.38	72.10	53.39	-40.6	-42.6	21.1	0.00e+00	0	40	0	625999872	52	4643
2026-01-27 09:27:49.35	69.26	53.54	-40.5	-42.5	21.2	0.00e+00	0	40	0	633339904	52	4576
2026-01-27 09:27:53.34	66.39	53.62	-41.0	-43.1	20.8	0.00e+00	0	40	0	640679936	52	4881
2026-01-27 09:27:57.32	63.52	53.63	-41.1	-43.2	20.6	0.00e+00	0	40	0	648019968	53	4678
2026-01-27 09:28:01.30	60.65	53.56	-40.9	-43.0	20.8	0.00e+00	0	40	0	655360000	53	4548
2026-01-27 09:28:05.29	57.80	53.42	-40.4	-42.4	21.4	0.00e+00	0	40	0	662700032	52	4500
2026-01-27 09:28:09.28	54.98	53.21	-40.6	-42.5	21.2	0.00e+00	0	40	0	671088640	52	4590
2026-01-27 09:28:13.26	52.22	52.93	-40.3	-42.2	21.5	0.00e+00	0	40	0	678428672	52	4426
2026-01-27 09:28:17.24	49.51	52.59	-41.1	-43.2	20.6	0.00e+00	0	40	0	685768704	52	4952
2026-01-27 09:28:21.22	46.88	52.18	-41.9	-44.1	19.8	0.00e+00	0	40	0	693108736	54	4893
2026-01-27 09:28:25.18	44.33	51.72	-43.5	-46.0	18.1	0.00e+00	0	40	0	700448768	57	5151
2026-01-27 09:28:29.17	41.85	51.21	-43.9	-46.5	17.8	0.00e+00	0	40	0	707788800	58	5104
2026-01-27 09:28:33.14	39.47	50.64	-44.1	-46.7	17.5	0.00e+00	0	40	0	715128832	59	4972
2026-01-27 09:28:37.12	37.17	50.04	-44.2	-46.9	17.3	0.00e+00	0	40	0	722468864	59	5062
2026-01-27 09:28:41.10	34.97	49.39	-44.6	-47.4	16.9	0.00e+00	0	40	0	729808896	60	5075
2026-01-27 09:28:45.07	32.87	48.72	-44.8	-47.7	16.5	0.00e+00	0	40	0	738197504	60	5237
2026-01-27 09:28:49.05	30.85	48.01	-46.0	-49.5	14.8	0.00e+00	0	40	0	745537536	62	5751
2026-01-27 09:28:53.04	28.92	47.28	-46.9	-51.0	13.2	9.90e-06	0	40	0	752877568	64	6090
2026-01-27 09:28:57.00	27.10	46.53	-46.5	-50.3	13.9	3.00e-06	0	40	0	760217600	64	5632
2026-01-27 09:29:00.98	25.35	45.76	-46.2	-49.9	14.2	7.00e-07	0	40	0	767557632	64	5400
2026-01-27 09:29:04.97	23.69	44.97	-45.9	-49.6	14.7	7.00e-07	0	40	0	774897664	63	5470
2026-01-27 09:29:08.95	22.11	44.18	-45.2	-48.2	16.0	0.00e+00	0	40	0	782237696	62	4969
2026-01-27 09:29:12.93	20.60	43.38	-45.6	-48.9	15.4	0.00e+00	0	40	0	789577728	62	5368
2026-01-27 09:29:16.90	19.18	42.58	-45.3	-48.4	15.9	0.00e+00	0	40	0	796917760	62	5062
2026-01-27 09:29:20.89	17.82	41.77	-46.1	-49.7	14.6	0.00e+00	0	40	0	805306368	62	5878
2026-01-27 09:29:24.85	16.53	40.97	-46.3	-50.1	14.2	7.00e-07	0	40	0	812646400	63	5798
2026-01-27 09:29:28.84	15.30	40.16	-46.1	-49.8	14.5	0.00e+00	0	40	0	819986432	63	5631
2026-01-27 09:29:32.82	14.13	39.37	-46.1	-49.9	14.4	7.00e-07	0	40	0	827326464	63	5681
2026-01-27 09:29:36.80	13.02	38.57	-46.1	-49.8	14.5	7.00e-07	0	40	0	834666496	63	5608
2026-01-27 09:29:40.78	11.96	37.79	-45.9	-49.5	14.8	0.00e+00	0	40	0	842006528	63	5442
2026-01-27 09:29:44.76	10.95	37.01	-46.1	-49.7	14.6	0.00e+00	0	40	0	849346560	63	5566
2026-01-27 09:29:48.75	9.99	36.23	-45.5	-48.7	15.6	0.00e+00	0	40	0	856686592	63	4945
2026-01-27 09:29:52.73	9.07	35.47	-45.3	-48.5	15.7	0.00e+00	0	40	0	865075200	62	5152
2026-01-27 09:29:56.72	8.20	34.72	-45.3	-48.6	15.7	0.00e+00	0	40	0	872415232	62	5191
2026-01-27 09:30:00.71	7.36	33.98	-45.6	-49.2	15.0	0.00e+00	0	40	0	879755264	62	5536
2026-01-27 09:30:04.71	6.56	33.24	-45.6	-49.0	15.3	0.00e+00	0	40	0	887095296	62	5422
2026-01-27 09:30:08.70	5.80	32.52	-46.1	-49.6	14.6	7.00e-07	0	40	0	894435328	62	5835
2026-01-27 09:30:12.69	5.07	31.81	-45.9	-49.5	14.8	7.00e-07	0	40	0	901775360	62	5736
2026-01-27 09:30:16.68	4.37	31.12	-46.1	-49.9	14.3	1.50e-06	0	40	0	909115392	62	6048
2026-01-27 09:30:20.66	3.70	30.43	-46.4	-50.2	14.0	3.80e-06	0	40	0	916455424	63	5919
2026-01-27 09:30:24.65	3.06	29.76	-45.5	-48.7	15.5	0.00e+00	0	40	0	924844032	63	4965
2026-01-27 09:30:28.63	2.45	29.10	-45.7	-49.1	15.2	0.00e+00	0	40	0	932184064	62	5490
2026-01-27 09:30:32.62	1.86	28.45	-44.9	-47.9	16.3	0.00e+00	0	40	0	939524096	61	5075
2026-01-27 09:30:36.62	1.30	27.81	-44.8	-47.7	16.5	0.00e+00	0	40	0	946864128	61	4969
2026-01-27 09:30:40.61	0.75	27.18	-45.0	-48.0	16.2	0.00e+00	0	40	0	954204160	61	5134
2026-01-27 09:30:44.60	0.23	26.57	-44.5	-47.3	16.8	0.00e+00	0	40	0	961544192	61	4759
2026-01-27 09:30:48.59	359.73	25.96	-44.2	-47.0	17.2	0.00e+00	0	40	0	968884224	60	4821
2026-01-27 09:30:52.58	359.25	25.37	-44.4	-47.2	16.9	0.00e+00	0	40	0	977272832	60	4982
2026-01-27 09:30:56.57	358.79	24.79	-44.0	-46.8	17.4	0.00e+00	0	40	0	984612864	60	4716
2026-01-27 09:31:00.57	358.34	24.21	-43.8	-46.5	17.6	0.00e+00	0	40	0	991952896	59	4858
2026-01-27 09:31:04.57	357.91	23.65	-44.0	-46.9	17.2	0.00e+00	0	40	0	999292928	59	5062
2026-01-27 09:31:08.56	357.49	23.10	-44.5	-47.5	16.6	0.00e+00	0	40	0	1006632960	59	5462
2026-01-27 09:31:12.56	357.09	22.56	-44.5	-47.4	16.7	0.00e+00	0	40	0	1013972992	59	5379
2026-01-27 09:31:16.55	356.70	22.03	-44.3	-47.2	16.9	0.00e+00	0	40	0	1021313024	59	5249
2026-01-27 09:31:20.55	356.33	21.50	-44.5	-47.4	16.7	0.00e+00	0	40	0	1029701632	59	5375
2026-01-27 09:31:24.54	355.97	20.99	-44.4	-47.2	16.9	0.00e+00	0	40	0	1037041664	59	5253
2026-01-27 09:31:28.53	355.62	20.49	-44.2	-47.0	17.1	0.00e+00	0	40	0	1044381696	59	5107
2026-01-27 09:31:32.52	355.29	19.99	-44.1	-46.9	17.2	0.00e+00	0	40	0	1051721728	59	5054
2026-01-27 09:31:36.51	354.96	19.51	-44.0	-46.9	17.2	0.00e+00	0	40	0	1059061760	59	5045
2026-01-27 09:31:40.50	354.65	19.03	-43.9	-46.9	17.1	0.00e+00	0	40	0	1066401792	59	5070
2026-01-27 09:31:44.49	354.34	18.56	-44.1	-47.1	16.9	0.00e+00	0	40	0	1073741824	59	5185
2026-01-27 09:31:48.49	354.05	18.10	-44.1	-47.2	16.9	0.00e+00	0	40	0	1082130432	59	5222
2026-01-27 09:31:52.48	353.76	17.64	-44.1	-47.1	16.9	0.00e+00	0	40	0	1089470464	59	5189
2026-01-27 09:31:56.48	353.48	17.20	-44.2	-47.2	16.8	0.00e+00	0	40	0	1096810496	59	5235
2026-01-27 09:32:00.47	353.22	16.76	-44.4	-47.4	16.6	0.00e+00	0	40	0	1104150528	59	5361
2026-01-27 09:32:04.47	352.95	16.33	-44.2	-47.3	16.7	0.00e+00	0	40	0	1111490560	59	5296
2026-01-27 09:32:08.46	352.70	15.90	-44.4	-47.6	16.4	0.00e+00	0	40	0	1118830592	59	5495
2026-01-27 09:32:12.46	352.46	15.48	-44.4	-47.5	16.5	0.00e+00	0	40	0	1126170624	59	5427
2026-01-27 09:32:16.46	352.22	15.07	-44.1	-47.4	16.6	0.00e+00	0	40	0	1134559232	59	5355
2026-01-27 09:32:20.44	351.99	14.66	-44.2	-47.4	16.6	0.00e+00	0	40	0	1141899264	59	5351
2026-01-27 09:32:24.44	351.76	14.26	-44.4	-47.5	16.5	0.00e+00	0	40	0	1149239296	59	5425
2026-01-27 09:32:28.42	351.54	13.87	-44.4	-47.7	16.2	0.00e+00	0	40	0	1156579328	59	5565
2026-01-27 09:32:32.42	351.33	13.48	-44.7	-47.9	16.0	0.00e+00	0	40	0	1163919360	60	5386
2026-01-27 09:32:36.41	351.12	13.10	-44.6	-48.2	15.7	0.00e+00	0	40	0	1171259392	60	5570
2026-01-27 09:32:40.41	350.92	12.73	-44.1	-48.1	15.8	0.00e+00	0	40	0	1178599424	59	5834
2026-01-27 09:32:44.40	350.73	12.36	-44.1	-48.1	15.7	0.00e+00	0	40	0	1186988032	59	5816
2026-01-27 09:32:48.39	350.54	11.99	-44.3	-47.8	16.1	0.00e+00	0	40	0	1194328064	59	5608
2026-01-27 09:32:52.38	350.35	11.63	-44.3	-48.0	15.8	0.00e+00	0	40	0	1201668096	59	5771
2026-01-27 09:32:56.37	350.17	11.27	-44.3	-48.1	15.7	0.00e+00	0	40	0	1209008128	59	5792
2026-01-27 09:33:00.37	350.00	10.92	-44.1	-48.2	15.6	0.00e+00	0	40	0	1216348160	59	5882
2026-01-27 09:33:04.35	349.83	10.58	-43.9	-48.6	15.1	0.00e+00	0	40	0	1223688192	59	6193
2026-01-27 09:33:08.34	349.66	10.24	-44.1	-48.9	14.8	0.00e+00	0	40	0	1231028224	59	6364
2026-01-27 09:33:12.33	349.50	9.90	-44.9	-49.3	14.4	1.50e-06	0	40	0	1238368256	60	6319
2026-01-27 09:33:16.33	349.34	9.57	-45.1	-49.3	14.4	1.50e-06	0	40	0	1246756864	61	5986
2026-01-27 09:33:20.31	349.18	9.24	-45.0	-49.6	14.1	7.00e-07	0	40	0	1254096896	61	6152
2026-01-27 09:33:24.31	349.03	8.91	-46.5	-64.6	3.8	9.81e-01	0	40	104	1260388352	64	29217
2026-01-27 09:33:28.31	348.88	8.59	-49.8	-65.3	3.8	1.49e+00	0	40	104	1260388352	70	22357
2026-01-27 09:33:32.30	348.74	8.28	-49.6	-65.2	3.8	1.49e+00	0	40	104	1260388352	70	22160
2026-01-27 09:33:36.30	348.60	7.96	-49.3	-64.8	3.8	1.49e+00	0	40	104	1260388352	69	22270
2026-01-27 09:33:40.30	348.46	7.65	-49.7	-64.9	3.8	1.49e+00	0	40	104	1260388352	70	21393
2026-01-27 09:33:44.29	348.33	7.35	-49.7	-65.0	3.8	1.49e+00	0	40	104	1260388352	70	21624
2026-01-27 09:33:48.29	348.20	7.04	-49.7	-65.0	3.8	1.49e+00	0	40	104	1260388352	70	21692
2026-01-27 09:33:52.28	348.07	6.74	-49.7	-64.9	3.8	1.49e+00	0	40	104	1260388352	70	21441
2026-01-27 09:33:56.27	347.95	6.45	-49.7	-65.0	3.8	1.49e+00	0	40	104	1260388352	70	21567
2026-01-27 09:34:00.27	347.82	6.16	-49.7	-64.9	3.8	1.49e+00	0	40	104	1260388352	70	21460
2026-01-27 09:34:04.26	347.70	5.87	-49.6	-64.9	3.8	1.49e+00	0	40	104	1260388352	70	21435
2026-01-27 09:34:08.26	347.59	5.58	-49.7	-64.9	3.8	1.49e+00	0	40	104	1260388352	70	21446
2026-01-27 09:34:12.25	347.47	5.30	-49.6	-65.0	3.8	1.49e+00	0	40	104	1260388352	70	21543
2026-01-27 09:34:16.25	347.36	5.02	-49.6	-64.9	3.8	1.49e+00	0	40	104	1260388352	70	21370

#Closed at: 2026-01-27 09:34:18
#Recorded file [1260 MB]: D:/Data/31040_260127_122138.dat