passes_logs/2026/01/27/T1/T1__20260127_132110_FENGYUN_3E_rec.log

#Pass ID: 20260127_132110_FENGYUN 3E
#Satellite: FENGYUN 3E
#Configuration: FENGYUN 3E
#almurnet v.1.7.20251203
#Start time: 2026-01-27 13:21:11

#Version: 2.0.20230620
#Station: T1
#Location: 37.570604 lon 55.790049 lat
#TLE: 1 49008U 21062A   26026.84429991  .00000247  00000+0  13693-3 0  9991
#TLE: 2 49008  98.7501  31.8345 0002501 116.3456 243.7977 14.19887781236522

#Time	Az	El	Level	Level2	SNR	BER	BlckErr	Temp	State	Recorded	gain1	gain2
2026-01-27 13:21:11.86	133.29	5.11	-51.2	-62.0	3.8	8.46e-01	0	42	0	0	72	12799
2026-01-27 13:21:14.84	133.16	5.31	-51.2	-62.1	3.8	8.46e-01	0	42	104	0	72	12813
2026-01-27 13:21:17.82	133.03	5.52	-51.1	-62.0	3.8	8.46e-01	0	42	104	0	72	12743
2026-01-27 13:21:20.80	132.89	5.73	-50.8	-61.9	3.8	8.49e-01	0	42	104	0	72	12641
2026-01-27 13:21:23.78	132.75	5.94	-50.9	-61.7	3.8	8.48e-01	0	42	104	0	72	12261
2026-01-27 13:21:26.76	132.61	6.15	-50.7	-61.5	3.8	8.46e-01	0	42	104	0	72	11975
2026-01-27 13:21:29.73	132.46	6.37	-50.3	-60.3	3.8	8.48e-01	0	42	104	0	71	11114
2026-01-27 13:21:32.71	132.32	6.58	-50.3	-60.8	3.8	8.47e-01	0	42	104	0	71	11773
2026-01-27 13:21:35.69	132.17	6.80	-50.3	-60.9	3.8	8.47e-01	0	42	104	0	71	11922
2026-01-27 13:21:38.67	132.02	7.02	-50.3	-60.5	3.8	8.48e-01	0	42	104	0	71	11295
2026-01-27 13:21:41.65	131.86	7.24	-50.2	-59.9	3.8	8.47e-01	0	43	104	0	71	10630
2026-01-27 13:21:44.63	131.71	7.46	-49.4	-55.8	4.9	8.01e-01	0	43	0	0	69	7437
2026-01-27 13:21:47.60	131.55	7.68	-46.6	-49.8	10.0	1.20e-02	0	43	0	16777216	64	4945
2026-01-27 13:21:50.58	131.39	7.91	-43.3	-45.2	14.6	0.00e+00	0	43	0	38797312	57	4374
2026-01-27 13:21:53.56	131.23	8.14	-41.2	-42.8	16.7	0.00e+00	0	43	0	59768832	53	4178
2026-01-27 13:21:56.54	131.06	8.37	-40.8	-42.3	17.2	0.00e+00	0	43	0	81788928	52	4189
2026-01-27 13:21:59.52	130.89	8.60	-42.7	-44.5	15.2	0.00e+00	0	43	0	102760448	54	4799
2026-01-27 13:22:02.50	130.72	8.83	-46.0	-48.9	11.0	8.30e-04	0	43	0	124780544	61	5284
2026-01-27 13:22:05.48	130.55	9.07	-48.2	-52.7	7.0	7.07e-01	0	43	0	143654912	67	5834
2026-01-27 13:22:08.46	130.37	9.30	-48.7	-53.8	6.1	8.44e-01	0	43	104	159383552	68	6239
2026-01-27 13:22:11.45	130.19	9.54	-50.2	-60.4	3.8	8.46e-01	0	43	104	165675008	70	11940
2026-01-27 13:22:14.43	130.00	9.78	-50.3	-60.9	3.8	8.47e-01	0	43	104	165675008	70	12619
2026-01-27 13:22:17.41	129.82	10.03	-50.3	-61.1	3.8	8.47e-01	0	44	104	165675008	70	12947
2026-01-27 13:22:20.38	129.63	10.27	-50.3	-60.8	3.8	8.46e-01	0	44	104	165675008	70	12398
2026-01-27 13:22:23.36	129.43	10.52	-50.3	-60.8	3.8	8.48e-01	0	44	104	165675008	70	12464
2026-01-27 13:22:26.34	129.24	10.77	-50.3	-60.9	3.8	8.47e-01	0	44	104	165675008	70	12645
2026-01-27 13:22:29.32	129.04	11.02	-50.3	-61.0	3.8	8.46e-01	0	44	104	165675008	70	12670
2026-01-27 13:22:32.30	128.83	11.27	-50.3	-61.0	3.8	8.46e-01	0	44	104	165675008	70	12766
2026-01-27 13:22:35.28	128.62	11.53	-50.3	-61.1	3.8	8.47e-01	0	44	104	165675008	70	12826
2026-01-27 13:22:38.26	128.41	11.79	-50.3	-60.9	3.8	8.47e-01	0	44	104	165675008	70	12597
2026-01-27 13:22:41.23	128.20	12.05	-50.3	-60.9	3.8	8.46e-01	0	44	104	165675008	70	12611
2026-01-27 13:22:44.21	127.98	12.31	-50.3	-61.1	3.8	8.48e-01	0	44	104	165675008	70	12943
2026-01-27 13:22:47.19	127.75	12.58	-50.3	-61.0	3.8	8.47e-01	0	44	104	165675008	70	12714
2026-01-27 13:22:50.17	127.53	12.84	-50.3	-61.0	3.8	8.47e-01	0	44	104	165675008	70	12734
2026-01-27 13:22:53.15	127.29	13.12	-50.3	-61.0	3.8	8.47e-01	0	44	104	165675008	70	12765
2026-01-27 13:22:56.13	127.06	13.39	-50.3	-61.1	3.8	8.47e-01	0	44	104	165675008	70	12844
2026-01-27 13:22:59.11	126.82	13.66	-50.3	-61.0	3.8	8.46e-01	0	44	104	165675008	70	12798
2026-01-27 13:23:02.09	126.57	13.94	-50.3	-61.0	3.8	8.47e-01	0	44	104	165675008	70	12778
2026-01-27 13:23:05.07	126.32	14.22	-50.3	-61.0	3.8	8.47e-01	0	44	104	165675008	70	12676
2026-01-27 13:23:08.05	126.06	14.51	-50.3	-61.1	3.8	8.47e-01	0	44	104	165675008	70	12812
2026-01-27 13:23:11.02	125.80	14.79	-50.3	-61.0	3.8	8.47e-01	0	44	104	165675008	70	12732
2026-01-27 13:23:14.00	125.54	15.08	-50.3	-61.0	3.8	8.46e-01	0	44	104	165675008	70	12704
2026-01-27 13:23:16.98	125.27	15.38	-50.3	-61.0	3.8	8.46e-01	0	44	104	165675008	70	12807
2026-01-27 13:23:19.96	124.99	15.67	-50.3	-61.1	3.8	8.45e-01	0	44	104	165675008	70	12843
2026-01-27 13:23:22.94	124.71	15.97	-50.3	-61.1	3.8	8.47e-01	0	44	104	165675008	70	12928
2026-01-27 13:23:25.92	124.42	16.27	-50.3	-61.1	3.8	8.46e-01	0	44	104	165675008	70	12823
2026-01-27 13:23:28.90	124.12	16.57	-50.3	-61.1	3.8	8.47e-01	0	44	104	165675008	70	12816
2026-01-27 13:23:31.88	123.82	16.88	-50.3	-61.0	3.8	8.48e-01	0	44	104	165675008	70	12732
2026-01-27 13:23:34.85	123.52	17.19	-50.3	-61.0	3.8	8.46e-01	0	44	104	165675008	70	12774
2026-01-27 13:23:37.83	123.20	17.50	-50.3	-61.1	3.8	8.46e-01	0	44	104	165675008	70	12870
2026-01-27 13:23:40.81	122.88	17.82	-50.3	-61.1	3.8	8.47e-01	0	44	104	165675008	70	12842
2026-01-27 13:23:43.79	122.56	18.14	-50.3	-61.1	3.8	8.47e-01	0	44	104	165675008	70	12885
2026-01-27 13:23:46.77	122.22	18.46	-50.3	-61.1	3.8	8.47e-01	0	44	104	165675008	70	12894
2026-01-27 13:23:49.75	121.88	18.79	-50.3	-61.1	3.8	8.47e-01	0	44	104	165675008	70	12811
2026-01-27 13:23:52.73	121.53	19.12	-50.3	-61.0	3.8	8.47e-01	0	44	104	165675008	70	12808
2026-01-27 13:23:55.71	121.18	19.45	-50.3	-61.1	3.8	8.48e-01	0	44	104	165675008	70	12914
2026-01-27 13:23:58.69	120.81	19.79	-50.3	-61.1	3.8	8.48e-01	0	44	104	165675008	70	12856
2026-01-27 13:24:01.66	120.44	20.12	-50.3	-61.1	3.8	8.47e-01	0	44	104	165675008	70	12829
2026-01-27 13:24:04.64	120.06	20.47	-50.3	-61.1	3.8	8.47e-01	0	44	104	165675008	70	12862
2026-01-27 13:24:07.62	119.67	20.81	-50.3	-61.1	3.8	8.47e-01	0	44	104	165675008	70	12816
2026-01-27 13:24:10.60	119.27	21.16	-50.3	-61.1	3.8	8.48e-01	0	44	104	165675008	70	12899
2026-01-27 13:24:13.58	118.86	21.51	-50.3	-61.1	3.8	8.47e-01	0	44	104	165675008	70	12820
2026-01-27 13:24:16.56	118.44	21.87	-50.3	-61.1	3.8	8.47e-01	0	44	104	165675008	70	12908
2026-01-27 13:24:19.54	118.01	22.23	-50.3	-61.1	3.8	8.46e-01	0	44	104	165675008	70	12890
2026-01-27 13:24:22.52	117.57	22.59	-50.3	-61.1	3.8	8.47e-01	0	44	104	165675008	70	12851
2026-01-27 13:24:25.50	117.12	22.96	-50.3	-61.1	3.8	8.46e-01	0	44	104	165675008	70	12873
2026-01-27 13:24:28.48	116.66	23.33	-50.3	-61.1	3.8	8.46e-01	0	44	104	165675008	70	12852
2026-01-27 13:24:31.46	116.19	23.70	-50.3	-61.0	3.8	8.48e-01	0	44	104	165675008	70	12769
2026-01-27 13:24:34.44	115.71	24.07	-50.3	-61.0	3.8	8.47e-01	0	44	104	165675008	70	12799
2026-01-27 13:24:37.41	115.22	24.45	-50.2	-61.0	3.8	8.47e-01	0	44	104	165675008	70	12735
2026-01-27 13:24:40.39	114.71	24.83	-50.2	-61.0	3.8	8.47e-01	0	44	104	165675008	70	12778
2026-01-27 13:24:43.37	114.19	25.22	-50.2	-61.0	3.8	8.46e-01	0	44	104	165675008	70	12800
2026-01-27 13:24:46.35	113.66	25.61	-50.2	-61.0	3.8	8.46e-01	0	44	104	165675008	70	12756
2026-01-27 13:24:49.33	113.11	26.00	-50.2	-61.0	3.8	8.47e-01	0	44	104	165675008	70	12729
2026-01-27 13:24:52.31	112.55	26.39	-50.2	-61.0	3.8	8.48e-01	0	44	104	165675008	70	12758
2026-01-27 13:24:55.29	111.98	26.79	-50.2	-61.0	3.8	8.48e-01	0	44	104	165675008	70	12766
2026-01-27 13:24:58.26	111.39	27.19	-50.2	-61.0	3.8	8.47e-01	0	44	104	165675008	70	12800
2026-01-27 13:25:01.24	110.79	27.59	-50.2	-61.0	3.8	8.46e-01	0	44	104	165675008	70	12742
2026-01-27 13:25:04.22	110.17	27.99	-50.2	-61.0	3.8	8.47e-01	0	44	104	165675008	70	12744
2026-01-27 13:25:07.20	109.53	28.40	-50.2	-61.0	3.8	8.47e-01	0	44	104	165675008	70	12746
2026-01-27 13:25:10.18	108.88	28.80	-50.2	-61.0	3.8	8.47e-01	0	44	104	165675008	70	12771
2026-01-27 13:25:13.16	108.21	29.21	-50.2	-61.0	3.8	8.47e-01	0	44	104	165675008	70	12751
2026-01-27 13:25:16.14	107.53	29.62	-50.2	-61.0	3.8	8.46e-01	0	44	104	165675008	70	12728
2026-01-27 13:25:19.12	106.82	30.04	-50.2	-61.0	3.8	8.48e-01	0	44	104	165675008	70	12697
2026-01-27 13:25:22.09	106.10	30.45	-50.2	-61.0	3.8	8.48e-01	0	44	104	165675008	70	12742
2026-01-27 13:25:25.07	105.36	30.86	-50.2	-61.0	3.8	8.46e-01	0	44	104	165675008	70	12727
2026-01-27 13:25:28.05	104.60	31.27	-50.2	-61.0	3.8	8.46e-01	0	44	104	165675008	70	12741
2026-01-27 13:25:31.03	103.82	31.69	-50.2	-61.0	3.8	8.46e-01	0	44	104	165675008	70	12757
2026-01-27 13:25:34.01	103.02	32.10	-50.2	-61.0	3.8	8.47e-01	0	44	104	165675008	70	12732
2026-01-27 13:25:36.99	102.20	32.51	-50.2	-61.0	3.8	8.47e-01	0	44	104	165675008	70	12770
2026-01-27 13:25:39.97	101.36	32.93	-50.2	-61.0	3.8	8.47e-01	0	44	104	165675008	70	12693
2026-01-27 13:25:42.95	100.50	33.33	-50.2	-61.0	3.8	8.48e-01	0	45	104	165675008	70	12728
2026-01-27 13:25:45.93	99.61	33.74	-50.2	-61.0	3.8	8.48e-01	0	44	104	165675008	70	12697
2026-01-27 13:25:48.90	98.71	34.15	-50.2	-61.0	3.8	8.47e-01	0	44	104	165675008	70	12724
2026-01-27 13:25:51.88	97.77	34.55	-50.2	-61.0	3.8	8.48e-01	0	44	104	165675008	70	12717
2026-01-27 13:25:54.86	96.82	34.95	-50.2	-61.0	3.8	8.45e-01	0	44	104	165675008	70	12688
2026-01-27 13:25:57.84	95.84	35.34	-50.2	-61.0	3.8	8.46e-01	0	44	104	165675008	70	12675
2026-01-27 13:26:00.82	94.84	35.73	-50.2	-60.9	3.8	8.47e-01	0	44	104	165675008	70	12639
2026-01-27 13:26:03.80	93.81	36.11	-50.2	-61.0	3.8	8.47e-01	0	44	104	165675008	70	12769
2026-01-27 13:26:06.78	92.76	36.49	-50.2	-61.0	3.8	8.48e-01	0	44	104	165675008	70	12676
2026-01-27 13:26:09.75	91.69	36.86	-50.2	-61.0	3.8	8.47e-01	0	44	104	165675008	70	12718
2026-01-27 13:26:12.73	90.59	37.22	-50.2	-61.0	3.8	8.46e-01	0	44	104	165675008	70	12697
2026-01-27 13:26:15.71	89.47	37.58	-50.2	-61.0	3.8	8.47e-01	0	44	104	165675008	70	12706
2026-01-27 13:26:18.69	88.32	37.92	-50.2	-61.0	3.8	8.47e-01	0	44	104	165675008	70	12716
2026-01-27 13:26:21.67	87.15	38.26	-50.2	-61.0	3.8	8.46e-01	0	44	104	165675008	70	12707
2026-01-27 13:26:24.65	85.95	38.58	-50.2	-60.9	3.8	8.46e-01	0	44	104	165675008	70	12623
2026-01-27 13:26:27.63	84.73	38.89	-50.2	-60.9	3.8	8.47e-01	0	44	104	165675008	70	12654
2026-01-27 13:26:30.61	83.49	39.19	-50.2	-61.0	3.8	8.47e-01	0	44	104	165675008	70	12698
2026-01-27 13:26:33.59	82.22	39.48	-50.2	-60.9	3.8	8.47e-01	0	44	104	165675008	70	12638
2026-01-27 13:26:36.57	80.94	39.75	-50.2	-60.9	3.8	8.47e-01	0	44	104	165675008	70	12585
2026-01-27 13:26:39.55	79.63	40.01	-50.2	-61.0	3.8	8.47e-01	0	44	104	165675008	70	12731
2026-01-27 13:26:42.52	78.30	40.25	-50.2	-60.9	3.8	8.47e-01	0	44	104	165675008	70	12633
2026-01-27 13:26:45.50	76.95	40.48	-50.2	-61.0	3.8	8.47e-01	0	44	104	165675008	70	12667
2026-01-27 13:26:48.48	75.59	40.69	-50.2	-61.0	3.8	8.46e-01	0	44	104	165675008	70	12745
2026-01-27 13:26:51.46	74.20	40.88	-50.2	-61.0	3.8	8.47e-01	0	44	104	165675008	70	12719
2026-01-27 13:26:54.44	72.80	41.06	-50.2	-61.0	3.8	8.47e-01	0	44	104	165675008	70	12669
2026-01-27 13:26:57.42	71.39	41.21	-50.2	-60.9	3.8	8.47e-01	0	45	104	165675008	70	12579
2026-01-27 13:27:00.40	69.96	41.35	-50.2	-61.0	3.8	8.47e-01	0	44	104	165675008	70	12729
2026-01-27 13:27:03.38	68.52	41.46	-50.2	-60.9	3.8	8.48e-01	0	44	104	165675008	70	12645
2026-01-27 13:27:06.35	67.08	41.56	-50.2	-60.9	3.8	8.46e-01	0	44	104	165675008	70	12646
2026-01-27 13:27:09.33	65.62	41.64	-50.2	-60.9	3.8	8.47e-01	0	44	104	165675008	70	12619
2026-01-27 13:27:12.31	64.16	41.69	-50.1	-61.0	3.8	8.48e-01	0	44	104	165675008	70	12674
2026-01-27 13:27:15.29	62.70	41.72	-50.2	-60.9	3.8	8.46e-01	0	44	104	165675008	70	12627
2026-01-27 13:27:18.27	61.23	41.74	-50.1	-61.0	3.8	8.47e-01	0	44	104	165675008	70	12684
2026-01-27 13:27:21.25	59.76	41.73	-50.1	-60.9	3.8	8.47e-01	0	45	104	165675008	70	12647
2026-01-27 13:27:24.23	58.30	41.70	-50.2	-61.0	3.8	8.46e-01	0	44	104	165675008	70	12672
2026-01-27 13:27:27.21	56.84	41.65	-50.2	-60.9	3.8	8.46e-01	0	45	104	165675008	70	12634
2026-01-27 13:27:30.19	55.38	41.57	-50.1	-61.0	3.8	8.47e-01	0	45	104	165675008	70	12686
2026-01-27 13:27:33.17	53.93	41.48	-50.2	-60.9	3.8	8.47e-01	0	44	104	165675008	70	12616
2026-01-27 13:27:36.15	52.50	41.37	-50.2	-61.0	3.8	8.47e-01	0	44	104	165675008	70	12674
2026-01-27 13:27:39.12	51.07	41.24	-50.2	-60.9	3.8	8.48e-01	0	44	104	165675008	70	12621
2026-01-27 13:27:42.10	49.66	41.08	-50.2	-61.0	3.8	8.46e-01	0	44	104	165675008	70	12698
2026-01-27 13:27:45.08	48.26	40.91	-50.2	-61.0	3.8	8.47e-01	0	44	104	165675008	70	12690
2026-01-27 13:27:48.06	46.87	40.72	-50.2	-61.0	3.8	8.47e-01	0	44	104	165675008	70	12666
2026-01-27 13:27:51.04	45.50	40.52	-50.2	-61.0	3.8	8.47e-01	0	44	104	165675008	70	12718
2026-01-27 13:27:54.02	44.15	40.29	-50.2	-61.0	3.8	8.47e-01	0	44	104	165675008	70	12666
2026-01-27 13:27:57.00	42.82	40.05	-50.2	-61.0	3.8	8.47e-01	0	45	104	165675008	70	12755
2026-01-27 13:27:59.98	41.51	39.80	-50.2	-60.9	3.8	8.47e-01	0	44	104	165675008	70	12648
2026-01-27 13:28:02.96	40.22	39.53	-50.2	-61.0	3.8	8.46e-01	0	44	104	165675008	70	12667
2026-01-27 13:28:05.94	38.96	39.24	-50.2	-60.9	3.8	8.47e-01	0	44	104	165675008	70	12649
2026-01-27 13:28:08.92	37.71	38.95	-50.2	-61.0	3.8	8.48e-01	0	44	104	165675008	70	12691
2026-01-27 13:28:11.89	36.50	38.64	-50.2	-60.9	3.8	8.48e-01	0	44	104	165675008	70	12649
2026-01-27 13:28:14.87	35.30	38.32	-50.1	-60.9	3.8	8.46e-01	0	44	104	165675008	70	12577
2026-01-27 13:28:17.85	34.12	37.98	-50.2	-61.0	3.8	8.47e-01	0	45	104	165675008	70	12699
2026-01-27 13:28:20.83	32.98	37.64	-50.1	-60.9	3.8	8.46e-01	0	44	104	165675008	70	12632
2026-01-27 13:28:23.81	31.85	37.29	-50.1	-61.0	3.8	8.47e-01	0	44	104	165675008	70	12682
2026-01-27 13:28:26.79	30.75	36.93	-50.1	-61.0	3.8	8.47e-01	0	44	104	165675008	70	12687
2026-01-27 13:28:29.77	29.68	36.56	-50.1	-60.9	3.8	8.47e-01	0	44	104	165675008	70	12649
2026-01-27 13:28:32.74	28.63	36.19	-50.1	-61.0	3.8	8.48e-01	0	44	104	165675008	70	12667
2026-01-27 13:28:35.72	27.60	35.81	-50.2	-60.9	3.8	8.46e-01	0	44	104	165675008	70	12591
2026-01-27 13:28:38.70	26.60	35.42	-50.1	-60.9	3.8	8.46e-01	0	44	104	165675008	70	12559
2026-01-27 13:28:41.68	25.62	35.03	-50.1	-61.0	3.8	8.48e-01	0	44	104	165675008	70	12665
2026-01-27 13:28:44.66	24.66	34.63	-50.2	-60.9	3.8	8.47e-01	0	44	104	165675008	70	12580
2026-01-27 13:28:47.64	23.73	34.23	-50.2	-60.9	3.8	8.46e-01	0	44	104	165675008	70	12614
2026-01-27 13:28:50.62	22.82	33.83	-50.1	-60.9	3.8	8.47e-01	0	44	104	165675008	70	12590
2026-01-27 13:28:53.60	21.94	33.42	-50.2	-60.9	3.8	8.47e-01	0	44	104	165675008	70	12662
2026-01-27 13:28:56.58	21.07	33.02	-50.1	-60.9	3.8	8.46e-01	0	45	104	165675008	70	12641
2026-01-27 13:28:59.56	20.23	32.61	-50.1	-61.0	3.8	8.47e-01	0	44	104	165675008	70	12701
2026-01-27 13:29:02.53	19.41	32.20	-50.1	-60.9	3.8	8.48e-01	0	44	104	165675008	70	12633
2026-01-27 13:29:05.51	18.61	31.79	-50.1	-60.9	3.8	8.47e-01	0	44	104	165675008	70	12609
2026-01-27 13:29:08.49	17.83	31.37	-50.1	-60.9	3.8	8.47e-01	0	44	104	165675008	70	12630
2026-01-27 13:29:11.47	17.07	30.96	-50.1	-60.9	3.8	8.47e-01	0	44	104	165675008	70	12606
2026-01-27 13:29:14.45	16.33	30.55	-50.1	-60.9	3.8	8.47e-01	0	45	104	165675008	70	12635
2026-01-27 13:29:17.43	15.61	30.14	-50.1	-60.9	3.8	8.47e-01	0	45	104	165675008	70	12549
2026-01-27 13:29:20.41	14.90	29.73	-50.1	-60.9	3.8	8.47e-01	0	44	104	165675008	70	12596
2026-01-27 13:29:23.38	14.22	29.32	-50.1	-60.9	3.8	8.46e-01	0	44	104	165675008	70	12561
2026-01-27 13:29:26.36	13.55	28.91	-50.1	-60.9	3.8	8.46e-01	0	44	104	165675008	70	12595
2026-01-27 13:29:29.34	12.90	28.51	-50.1	-60.9	3.8	8.45e-01	0	44	104	165675008	70	12573
2026-01-27 13:29:32.32	12.26	28.10	-50.1	-60.9	3.8	8.48e-01	0	44	104	165675008	70	12599
2026-01-27 13:29:35.30	11.64	27.70	-50.1	-60.9	3.8	8.46e-01	0	44	104	165675008	70	12602
2026-01-27 13:29:38.28	11.04	27.30	-50.1	-60.9	3.8	8.47e-01	0	44	104	165675008	70	12554
2026-01-27 13:29:41.26	10.45	26.90	-50.1	-60.9	3.8	8.47e-01	0	44	104	165675008	70	12586
2026-01-27 13:29:44.24	9.88	26.51	-50.1	-60.9	3.8	8.46e-01	0	45	104	165675008	70	12642
2026-01-27 13:29:47.21	9.32	26.11	-50.1	-60.9	3.8	8.47e-01	0	44	104	165675008	70	12618
2026-01-27 13:29:50.19	8.78	25.72	-50.1	-60.9	3.8	8.46e-01	0	44	104	165675008	70	12599
2026-01-27 13:29:53.17	8.24	25.34	-50.1	-60.9	3.8	8.47e-01	0	44	104	165675008	70	12582
2026-01-27 13:29:56.15	7.72	24.95	-50.1	-60.9	3.8	8.47e-01	0	44	104	165675008	70	12604
2026-01-27 13:29:59.13	7.22	24.57	-50.1	-60.9	3.8	8.48e-01	0	44	104	165675008	70	12640
2026-01-27 13:30:02.11	6.72	24.20	-50.1	-60.9	3.8	8.46e-01	0	44	104	165675008	70	12576
2026-01-27 13:30:05.09	6.24	23.82	-50.1	-60.9	3.8	8.47e-01	0	44	104	165675008	70	12572
2026-01-27 13:30:08.06	5.77	23.45	-50.1	-60.9	3.8	8.47e-01	0	45	104	165675008	70	12555
2026-01-27 13:30:11.04	5.31	23.08	-50.1	-60.9	3.8	8.47e-01	0	45	104	165675008	70	12652
2026-01-27 13:30:14.02	4.87	22.72	-50.1	-60.9	3.8	8.47e-01	0	44	104	165675008	70	12570
2026-01-27 13:30:17.00	4.43	22.36	-50.1	-60.9	3.8	8.47e-01	0	44	104	165675008	70	12527
2026-01-27 13:30:19.98	4.00	22.00	-50.1	-60.9	3.8	8.47e-01	0	44	104	165675008	70	12580
2026-01-27 13:30:22.96	3.58	21.64	-50.1	-60.8	3.8	8.47e-01	0	44	104	165675008	70	12484
2026-01-27 13:30:25.94	3.17	21.29	-50.1	-60.9	3.8	8.46e-01	0	44	104	165675008	70	12523
2026-01-27 13:30:28.91	2.78	20.94	-50.1	-60.9	3.8	8.47e-01	0	44	104	165675008	70	12549
2026-01-27 13:30:31.89	2.39	20.60	-50.1	-60.9	3.8	8.47e-01	0	44	104	165675008	70	12552
2026-01-27 13:30:34.87	2.01	20.26	-50.1	-60.8	3.8	8.47e-01	0	44	104	165675008	70	12507
2026-01-27 13:30:37.85	1.63	19.92	-50.1	-60.9	3.8	8.47e-01	0	44	104	165675008	70	12546
2026-01-27 13:30:40.83	1.27	19.58	-50.1	-60.8	3.8	8.46e-01	0	44	104	165675008	70	12494
2026-01-27 13:30:43.81	0.91	19.25	-50.1	-60.8	3.8	8.46e-01	0	44	104	165675008	70	12479
2026-01-27 13:30:46.79	0.57	18.92	-50.1	-60.8	3.8	8.47e-01	0	45	104	165675008	70	12479
2026-01-27 13:30:49.76	0.23	18.60	-50.1	-60.9	3.8	8.48e-01	0	44	104	165675008	70	12551
2026-01-27 13:30:52.74	359.89	18.28	-50.1	-60.9	3.8	8.46e-01	0	44	104	165675008	70	12523
2026-01-27 13:30:55.72	359.57	17.96	-50.1	-60.9	3.8	8.47e-01	0	44	104	165675008	70	12524
2026-01-27 13:30:58.70	359.25	17.64	-50.0	-60.8	3.8	8.47e-01	0	44	104	165675008	70	12422
2026-01-27 13:31:01.68	358.94	17.33	-50.1	-60.9	3.8	8.47e-01	0	45	104	165675008	70	12531
2026-01-27 13:31:04.66	358.63	17.02	-50.0	-60.9	3.8	8.47e-01	0	45	104	165675008	70	12632
2026-01-27 13:31:07.64	358.33	16.71	-50.0	-60.8	3.8	8.47e-01	0	44	104	165675008	70	12481
2026-01-27 13:31:10.62	358.04	16.41	-50.0	-60.9	3.8	8.47e-01	0	45	104	165675008	70	12570
2026-01-27 13:31:13.60	357.75	16.11	-50.0	-60.8	3.8	8.47e-01	0	44	104	165675008	70	12494
2026-01-27 13:31:16.57	357.47	15.81	-50.0	-60.8	3.8	8.47e-01	0	45	104	165675008	70	12475
2026-01-27 13:31:19.55	357.20	15.52	-50.0	-60.8	3.8	8.47e-01	0	45	104	165675008	70	12481
2026-01-27 13:31:22.53	356.93	15.22	-50.0	-60.8	3.8	8.48e-01	0	44	104	165675008	70	12406
2026-01-27 13:31:25.51	356.67	14.94	-50.0	-60.8	3.8	8.46e-01	0	44	104	165675008	70	12501
2026-01-27 13:31:28.49	356.41	14.65	-50.0	-60.9	3.8	8.48e-01	0	45	104	165675008	70	12536
2026-01-27 13:31:31.47	356.15	14.37	-50.0	-60.8	3.8	8.47e-01	0	44	104	165675008	70	12517
2026-01-27 13:31:34.45	355.90	14.08	-50.0	-60.8	3.8	8.47e-01	0	44	104	165675008	70	12460
2026-01-27 13:31:37.43	355.66	13.81	-50.0	-60.8	3.8	8.48e-01	0	44	104	165675008	70	12501
2026-01-27 13:31:40.41	355.42	13.53	-50.0	-60.8	3.8	8.47e-01	0	44	104	165675008	70	12412
2026-01-27 13:31:43.39	355.19	13.26	-50.0	-60.8	3.8	8.46e-01	0	44	104	165675008	70	12517
2026-01-27 13:31:46.37	354.96	12.99	-50.0	-60.8	3.8	8.48e-01	0	44	104	165675008	70	12447
2026-01-27 13:31:49.34	354.73	12.72	-50.0	-60.8	3.8	8.48e-01	0	44	104	165675008	70	12498
2026-01-27 13:31:52.32	354.51	12.46	-50.0	-60.8	3.8	8.47e-01	0	44	104	165675008	70	12471
2026-01-27 13:31:55.30	354.29	12.19	-50.0	-60.8	3.8	8.45e-01	0	44	104	165675008	70	12496
2026-01-27 13:31:58.28	354.08	11.93	-50.0	-60.8	3.8	8.47e-01	0	44	104	165675008	70	12468
2026-01-27 13:32:01.26	353.87	11.67	-50.0	-60.8	3.8	8.47e-01	0	44	104	165675008	70	12512
2026-01-27 13:32:04.24	353.66	11.42	-50.0	-60.8	3.8	8.47e-01	0	44	104	165675008	70	12479
2026-01-27 13:32:07.22	353.46	11.16	-50.0	-60.8	3.8	8.48e-01	0	45	104	165675008	70	12408
2026-01-27 13:32:10.20	353.26	10.91	-50.0	-60.8	3.8	8.48e-01	0	44	104	165675008	70	12484
2026-01-27 13:32:13.18	353.07	10.66	-50.0	-60.8	3.8	8.47e-01	0	44	104	165675008	70	12462
2026-01-27 13:32:16.15	352.88	10.42	-50.0	-60.8	3.8	8.47e-01	0	45	104	165675008	70	12479
2026-01-27 13:32:19.13	352.69	10.17	-50.0	-60.8	3.8	8.47e-01	0	44	104	165675008	70	12464
2026-01-27 13:32:22.11	352.51	9.93	-50.0	-60.8	3.8	8.47e-01	0	44	104	165675008	70	12479
2026-01-27 13:32:25.09	352.32	9.69	-50.0	-60.8	3.8	8.48e-01	0	44	104	165675008	70	12445
2026-01-27 13:32:28.07	352.15	9.45	-50.0	-60.8	3.8	8.47e-01	0	44	104	165675008	70	12492
2026-01-27 13:32:31.05	351.97	9.21	-50.0	-60.8	3.8	8.46e-01	0	44	104	165675008	70	12429
2026-01-27 13:32:34.03	351.80	8.98	-50.0	-60.8	3.8	8.46e-01	0	45	104	165675008	70	12504
2026-01-27 13:32:37.01	351.63	8.75	-50.0	-60.8	3.8	8.47e-01	0	44	104	165675008	70	12456
2026-01-27 13:32:39.99	351.46	8.52	-50.0	-60.8	3.8	8.47e-01	0	44	104	165675008	70	12493
2026-01-27 13:32:42.97	351.30	8.29	-50.0	-60.8	3.8	8.46e-01	0	44	104	165675008	70	12470
2026-01-27 13:32:45.94	351.14	8.06	-50.0	-60.8	3.8	8.48e-01	0	44	104	165675008	70	12466
2026-01-27 13:32:48.92	350.98	7.83	-50.0	-60.8	3.8	8.46e-01	0	44	104	165675008	70	12463
2026-01-27 13:32:51.90	350.83	7.61	-50.0	-60.8	3.8	8.46e-01	0	44	104	165675008	70	12482
2026-01-27 13:32:54.88	350.67	7.39	-50.0	-60.9	3.8	8.47e-01	0	45	104	165675008	70	12521
2026-01-27 13:32:57.86	350.52	7.17	-50.0	-60.8	3.8	8.47e-01	0	45	104	165675008	70	12475
2026-01-27 13:33:00.84	350.37	6.95	-50.0	-60.8	3.8	8.48e-01	0	45	104	165675008	70	12457
2026-01-27 13:33:03.82	350.23	6.73	-50.0	-60.8	3.8	8.46e-01	0	44	104	165675008	70	12499
2026-01-27 13:33:06.80	350.08	6.52	-50.0	-60.8	3.8	8.47e-01	0	45	104	165675008	70	12466
2026-01-27 13:33:09.78	349.94	6.31	-50.0	-60.8	3.8	8.46e-01	0	44	104	165675008	70	12440
2026-01-27 13:33:12.76	349.80	6.09	-50.0	-60.8	3.8	8.47e-01	0	44	104	165675008	70	12453
2026-01-27 13:33:15.74	349.67	5.88	-50.0	-60.9	3.8	8.47e-01	0	45	104	165675008	70	12528
2026-01-27 13:33:18.72	349.53	5.67	-50.0	-60.8	3.8	8.47e-01	0	44	104	165675008	70	12406
2026-01-27 13:33:21.69	349.40	5.47	-50.0	-60.8	3.8	8.46e-01	0	44	104	165675008	70	12426
2026-01-27 13:33:24.67	349.27	5.26	-50.0	-60.8	3.8	8.47e-01	0	44	104	165675008	70	12498
2026-01-27 13:33:27.65	349.14	5.06	-50.0	-60.8	3.8	8.46e-01	0	45	104	165675008	70	12475

#Closed at: 2026-01-27 13:33:29
#Recorded file [165 MB]: D:/Data/31040_260127_162111.dat