passes_logs/2026/01/27/T1/T1__20260127_011125_NOAA_20_JPSS-1_rec.log

#Pass ID: 20260127_011125_NOAA 20 (JPSS-1)
#Satellite: NOAA 20 (JPSS-1)
#Configuration: NOAA 20
#almurnet v.1.7.20251203
#Start time: 2026-01-27 01:11:26

#Version: 2.0.20230620
#Station: T1
#Location: 37.570604 lon 55.790049 lat
#TLE: 1 43013U 17073A   26026.46665230  .00000148  00000+0  91302-4 0  9998
#TLE: 2 43013  98.7646 327.2856 0001008  22.9532 337.1688 14.19540616424360

#Time	Az	El	Level	Level2	SNR	BER	BlckErr	Temp	State	Recorded	gain1	gain2
2026-01-27 01:11:26.31	7.50	5.05	-47.7	-64.4	3.8	1.49e+00	0	41	0	0	65	26797
2026-01-27 01:11:29.28	7.29	5.24	-47.6	-64.3	3.8	1.49e+00	0	41	104	0	65	26703
2026-01-27 01:11:32.26	7.07	5.43	-47.6	-64.3	3.8	1.49e+00	0	41	104	0	65	26693
2026-01-27 01:11:35.24	6.85	5.61	-47.6	-64.4	3.8	1.49e+00	0	41	104	0	65	26766
2026-01-27 01:11:38.22	6.62	5.80	-47.6	-64.4	3.8	1.49e+00	0	41	104	0	65	26841
2026-01-27 01:11:41.20	6.40	6.00	-47.6	-64.4	3.8	1.49e+00	0	42	104	0	65	26782
2026-01-27 01:11:44.18	6.17	6.19	-47.7	-64.3	3.8	1.49e+00	0	42	104	0	65	26598
2026-01-27 01:11:47.16	5.93	6.38	-47.7	-64.4	3.8	1.49e+00	0	42	104	0	66	25325
2026-01-27 01:11:50.14	5.69	6.57	-47.7	-64.4	3.8	1.49e+00	0	42	104	0	66	25339
2026-01-27 01:11:53.11	5.45	6.77	-47.6	-64.4	3.8	1.49e+00	0	42	104	0	66	25356
2026-01-27 01:11:56.09	5.21	6.96	-47.6	-64.3	3.8	1.49e+00	0	42	104	0	66	25232
2026-01-27 01:11:59.07	4.96	7.16	-47.6	-64.2	3.8	1.49e+00	0	42	104	0	66	24855
2026-01-27 01:12:02.05	4.71	7.36	-47.7	-63.8	3.8	1.49e+00	0	42	104	0	66	23806
2026-01-27 01:12:05.03	4.46	7.56	-47.6	-63.1	3.8	1.49e+00	0	42	104	0	66	21785
2026-01-27 01:12:08.01	4.20	7.76	-47.6	-62.7	3.8	1.49e+00	0	42	104	0	66	20837
2026-01-27 01:12:10.99	3.94	7.96	-47.7	-63.2	3.8	1.49e+00	0	42	104	0	66	22114
2026-01-27 01:12:13.97	3.67	8.16	-47.6	-64.1	3.8	1.49e+00	0	43	104	0	66	24489
2026-01-27 01:12:16.95	3.40	8.36	-47.5	-62.4	3.8	1.49e+00	0	43	104	0	66	20146
2026-01-27 01:12:19.93	3.13	8.57	-46.8	-55.2	7.8	2.08e-01	0	42	0	3145728	65	9368
2026-01-27 01:12:22.91	2.85	8.77	-45.7	-51.4	11.8	1.03e-03	0	43	0	9437184	63	6779
2026-01-27 01:12:25.89	2.57	8.98	-45.6	-50.8	12.4	1.20e-04	0	43	0	14680064	62	6717
2026-01-27 01:12:29.03	2.27	9.19	-46.7	-59.6	4.7	8.03e-02	0	43	0	20971520	63	17364
2026-01-27 01:12:31.87	1.99	9.39	-46.8	-53.0	10.3	2.45e-04	0	43	0	26214400	64	7688
2026-01-27 01:12:34.99	1.69	9.61	-44.2	-47.9	15.4	0.00e+00	0	43	0	31457280	60	5374
2026-01-27 01:12:37.83	1.40	9.81	-44.0	-47.8	15.5	0.00e+00	0	43	0	36700160	60	5324
2026-01-27 01:12:41.00	1.08	10.04	-44.0	-47.7	15.6	0.00e+00	0	43	0	42991616	59	5571
2026-01-27 01:12:43.85	0.78	10.24	-44.1	-47.7	15.6	0.00e+00	0	43	0	48234496	59	5571
2026-01-27 01:12:46.97	0.46	10.46	-44.1	-47.7	15.6	0.00e+00	0	43	0	54525952	59	5563
2026-01-27 01:12:49.81	0.15	10.67	-44.1	-47.8	15.5	0.00e+00	0	43	0	59768832	59	5631
2026-01-27 01:12:53.01	359.81	10.90	-44.0	-47.7	15.6	0.00e+00	0	43	0	66060288	59	5575
2026-01-27 01:12:55.85	359.50	11.10	-44.1	-47.8	15.5	0.00e+00	0	43	0	71303168	59	5621
2026-01-27 01:12:59.17	359.13	11.34	-44.1	-48.0	15.4	0.00e+00	0	43	0	77594624	59	5752
2026-01-27 01:13:01.87	358.82	11.54	-43.9	-47.8	15.6	0.00e+00	0	43	0	81788928	59	5618
2026-01-27 01:13:05.17	358.44	11.78	-44.0	-47.6	15.8	0.00e+00	0	43	0	88080384	59	5484
2026-01-27 01:13:07.88	358.12	11.98	-43.9	-47.4	15.9	0.00e+00	0	43	0	93323264	59	5392
2026-01-27 01:13:11.38	357.71	12.24	-43.9	-47.2	16.1	0.00e+00	0	43	0	99614720	59	5276
2026-01-27 01:13:14.29	357.36	12.46	-43.9	-47.2	16.2	0.00e+00	0	43	0	105906176	59	5236
2026-01-27 01:13:18.11	356.89	12.74	-44.2	-47.3	16.1	0.00e+00	0	43	0	112197632	59	5314
2026-01-27 01:13:21.14	356.51	12.97	-44.1	-47.2	16.2	0.00e+00	0	43	0	118489088	59	5268
2026-01-27 01:13:24.12	356.13	13.20	-44.2	-47.3	16.1	0.00e+00	0	43	0	123731968	59	5302
2026-01-27 01:13:27.10	355.75	13.42	-44.1	-47.2	16.3	0.00e+00	0	43	0	130023424	59	5252
2026-01-27 01:13:30.09	355.35	13.65	-44.0	-47.2	16.3	0.00e+00	0	43	0	135266304	59	5224
2026-01-27 01:13:33.07	354.96	13.88	-44.0	-47.0	16.5	0.00e+00	0	43	0	140509184	59	5124
2026-01-27 01:13:36.85	354.44	14.16	-43.9	-46.8	16.6	0.00e+00	0	43	0	147849216	59	5038
2026-01-27 01:13:39.72	354.05	14.38	-43.7	-46.7	16.8	0.00e+00	0	43	0	153092096	59	4945
2026-01-27 01:13:43.27	353.55	14.66	-43.5	-46.7	16.8	0.00e+00	0	43	0	159383552	59	4982
2026-01-27 01:13:46.10	353.15	14.88	-43.3	-46.6	16.9	0.00e+00	0	43	0	164626432	58	5182
2026-01-27 01:13:49.33	352.68	15.12	-43.3	-46.4	17.1	0.00e+00	0	43	0	170917888	58	5087
2026-01-27 01:13:52.31	352.24	15.36	-43.2	-46.2	17.3	0.00e+00	0	43	0	177209344	58	4943
2026-01-27 01:13:55.29	351.79	15.59	-43.3	-46.2	17.3	0.00e+00	0	43	0	182452224	58	4983
2026-01-27 01:13:58.28	351.34	15.82	-43.2	-46.1	17.4	0.00e+00	0	43	0	187695104	58	4924
2026-01-27 01:14:01.26	350.88	16.05	-43.3	-46.4	17.1	0.00e+00	0	43	0	193986560	58	5081
2026-01-27 01:14:04.38	350.39	16.29	-43.3	-46.3	17.2	0.00e+00	0	43	0	199229440	58	5022
2026-01-27 01:14:07.22	349.93	16.52	-43.4	-46.4	17.2	0.00e+00	0	43	0	204472320	58	5046
2026-01-27 01:14:10.35	349.42	16.76	-43.3	-46.2	17.4	0.00e+00	0	43	0	210763776	58	4934
2026-01-27 01:14:13.19	348.96	16.98	-43.5	-46.4	17.1	0.00e+00	0	43	0	216006656	58	5100
2026-01-27 01:14:16.36	348.43	17.23	-43.4	-46.4	17.2	0.00e+00	0	43	0	222298112	58	5088
2026-01-27 01:14:19.21	347.94	17.45	-43.2	-46.5	17.1	0.00e+00	0	43	0	227540992	58	5137
2026-01-27 01:14:22.33	347.40	17.70	-43.1	-46.6	17.0	0.00e+00	0	43	0	232783872	58	5162
2026-01-27 01:14:25.40	346.86	17.93	-43.4	-46.6	17.0	0.00e+00	0	43	0	239075328	58	5178
2026-01-27 01:14:28.40	346.33	18.17	-43.7	-46.7	16.9	0.00e+00	0	43	0	244318208	58	5236
2026-01-27 01:14:31.38	345.79	18.40	-43.6	-46.6	17.0	0.00e+00	0	43	0	249561088	58	5161
2026-01-27 01:14:34.37	345.24	18.63	-43.5	-46.7	16.9	0.00e+00	0	43	0	255852544	58	5232
2026-01-27 01:14:37.35	344.68	18.86	-43.5	-46.5	17.1	0.00e+00	0	43	0	261095424	58	5129
2026-01-27 01:14:40.35	344.11	19.09	-43.8	-46.6	16.9	0.00e+00	0	43	0	266338304	58	5209
2026-01-27 01:14:43.34	343.53	19.32	-43.8	-46.8	16.8	0.00e+00	0	43	0	272629760	58	5327
2026-01-27 01:14:46.32	342.95	19.55	-43.6	-46.6	17.0	0.00e+00	0	43	0	277872640	58	5190
2026-01-27 01:14:49.30	342.36	19.78	-43.5	-46.2	17.4	0.00e+00	0	43	0	283115520	58	4978
2026-01-27 01:14:52.28	341.76	20.00	-43.4	-46.2	17.5	0.00e+00	0	43	0	289406976	58	4928
2026-01-27 01:14:55.26	341.15	20.23	-43.3	-46.3	17.3	0.00e+00	0	43	0	294649856	58	5023
2026-01-27 01:14:58.25	340.52	20.45	-43.0	-45.9	17.7	0.00e+00	0	43	0	299892736	57	5053
2026-01-27 01:15:01.23	339.90	20.67	-43.0	-45.7	17.9	0.00e+00	0	43	0	306184192	57	4936
2026-01-27 01:15:04.70	339.15	20.93	-42.6	-45.4	18.2	0.00e+00	0	44	0	312475648	57	4769
2026-01-27 01:15:07.41	338.56	21.12	-42.4	-45.3	18.2	0.00e+00	0	43	0	317718528	56	5029
2026-01-27 01:15:10.65	337.85	21.36	-42.4	-45.1	18.4	0.00e+00	0	43	0	324009984	56	4909
2026-01-27 01:15:13.68	337.17	21.57	-41.7	-44.2	19.1	0.00e+00	0	43	0	329252864	55	4697
2026-01-27 01:15:16.81	336.46	21.79	-41.6	-44.2	19.2	0.00e+00	0	43	0	335544320	55	4681
2026-01-27 01:15:19.89	335.75	22.01	-41.7	-44.3	19.1	0.00e+00	0	44	0	340787200	55	4716
2026-01-27 01:15:23.17	334.98	22.23	-41.8	-44.2	19.2	0.00e+00	0	43	0	347078656	55	4685
2026-01-27 01:15:25.98	334.32	22.42	-41.7	-44.1	19.3	0.00e+00	0	44	0	352321536	55	4614
2026-01-27 01:15:29.10	333.57	22.63	-41.7	-44.2	18.7	0.00e+00	0	43	0	358612992	55	4652
2026-01-27 01:15:31.95	332.88	22.82	-41.6	-44.1	19.2	0.00e+00	0	43	0	363855872	55	4638
2026-01-27 01:15:35.14	332.09	23.02	-41.5	-43.9	19.5	0.00e+00	0	44	0	369098752	55	4509
2026-01-27 01:15:37.98	331.38	23.20	-41.7	-44.0	19.4	0.00e+00	0	43	0	374341632	55	4595
2026-01-27 01:15:41.11	330.59	23.39	-42.0	-44.4	19.0	0.00e+00	0	43	0	380633088	55	4804
2026-01-27 01:15:44.01	329.85	23.57	-42.0	-44.4	19.0	0.00e+00	0	43	0	385875968	55	4788
2026-01-27 01:15:47.00	329.08	23.74	-42.0	-44.5	19.0	0.00e+00	0	43	0	392167424	55	4819
2026-01-27 01:15:49.99	328.30	23.91	-41.8	-44.4	19.0	0.00e+00	0	43	0	397410304	55	4790
2026-01-27 01:15:52.98	327.51	24.08	-41.6	-44.1	19.3	0.00e+00	0	43	0	402653184	55	4632
2026-01-27 01:15:55.96	326.72	24.24	-41.7	-44.1	19.3	0.00e+00	0	43	0	408944640	54	4924
2026-01-27 01:15:58.95	325.91	24.40	-41.6	-43.9	19.5	0.00e+00	0	44	0	414187520	54	4790
2026-01-27 01:16:01.93	325.10	24.55	-41.4	-43.7	19.7	0.00e+00	0	43	0	419430400	54	4670
2026-01-27 01:16:04.92	324.28	24.69	-41.2	-43.6	19.8	0.00e+00	0	43	0	425721856	54	4613
2026-01-27 01:16:07.86	323.46	24.83	-41.2	-43.5	19.9	0.00e+00	0	43	0	430964736	54	4560
2026-01-27 01:16:10.98	322.59	24.97	-41.3	-43.5	19.8	0.00e+00	0	44	0	437256192	54	4591
2026-01-27 01:16:13.83	321.79	25.09	-41.5	-43.9	19.5	0.00e+00	0	43	0	442499072	54	4803
2026-01-27 01:16:16.95	320.90	25.22	-41.7	-44.1	19.2	0.00e+00	0	44	0	447741952	54	4926
2026-01-27 01:16:19.87	320.06	25.33	-41.8	-44.2	19.3	0.00e+00	0	43	0	452984832	54	4930
2026-01-27 01:16:23.19	319.10	25.45	-42.1	-44.6	18.8	0.00e+00	0	44	0	459276288	54	5210
2026-01-27 01:16:25.92	318.31	25.55	-42.3	-44.9	18.5	0.00e+00	0	44	0	464519168	55	5076
2026-01-27 01:16:29.19	317.35	25.65	-42.5	-45.1	18.4	0.00e+00	0	43	0	470810624	55	5173
2026-01-27 01:16:31.90	316.56	25.73	-43.0	-45.6	18.0	0.00e+00	0	44	0	476053504	56	5208
2026-01-27 01:16:35.27	315.56	25.82	-43.1	-45.7	17.9	0.00e+00	0	44	0	482344960	57	4963
2026-01-27 01:16:37.99	314.75	25.89	-43.0	-45.7	17.9	0.00e+00	0	44	0	487587840	57	4946
2026-01-27 01:16:41.27	313.77	25.96	-42.9	-45.7	17.9	0.00e+00	0	44	0	493879296	57	4935
2026-01-27 01:16:43.99	312.95	26.01	-43.0	-45.6	18.0	0.00e+00	0	43	0	499122176	57	4911
2026-01-27 01:16:47.26	311.97	26.07	-43.2	-45.8	17.9	0.00e+00	0	43	0	504365056	57	5004
2026-01-27 01:16:49.99	311.14	26.10	-43.5	-46.2	17.5	0.00e+00	0	44	0	509607936	57	5233
2026-01-27 01:16:53.27	310.15	26.14	-43.8	-46.5	17.2	0.00e+00	0	44	0	515899392	58	5146
2026-01-27 01:16:56.04	309.31	26.17	-43.6	-46.4	17.4	0.00e+00	0	44	0	521142272	58	5043
2026-01-27 01:16:59.36	308.30	26.19	-43.8	-46.5	17.2	0.00e+00	0	44	0	527433728	58	5131
2026-01-27 01:17:02.07	307.48	26.20	-43.7	-46.4	17.3	0.00e+00	0	43	0	532676608	58	5049
2026-01-27 01:17:05.36	306.48	26.20	-43.4	-46.0	17.6	0.00e+00	0	44	0	538968064	58	4862
2026-01-27 01:17:08.08	305.65	26.20	-42.9	-45.4	18.3	0.00e+00	0	44	0	544210944	57	4769
2026-01-27 01:17:11.43	304.63	26.18	-43.1	-45.6	18.0	0.00e+00	0	44	0	550502400	57	4898
2026-01-27 01:17:14.13	303.81	26.16	-43.0	-45.5	18.1	0.00e+00	0	44	0	554696704	57	4847
2026-01-27 01:17:17.41	302.82	26.13	-42.5	-44.9	18.6	0.00e+00	0	44	0	560988160	57	4540
2026-01-27 01:17:20.11	302.00	26.10	-42.3	-44.7	18.9	0.00e+00	0	44	0	566231040	56	4685
2026-01-27 01:17:23.40	301.01	26.05	-42.1	-44.4	19.2	0.00e+00	0	43	0	572522496	56	4519
2026-01-27 01:17:26.32	300.13	26.00	-42.1	-44.5	19.1	0.00e+00	0	43	0	577765376	56	4551
2026-01-27 01:17:30.30	298.93	25.92	-41.3	-43.5	19.8	0.00e+00	0	43	0	585105408	54	4597
2026-01-27 01:17:33.14	298.09	25.85	-41.3	-43.5	19.9	0.00e+00	0	43	0	590348288	54	4573
2026-01-27 01:17:37.24	296.87	25.74	-41.3	-43.5	19.8	0.00e+00	0	44	0	598736896	54	4596
2026-01-27 01:17:40.13	296.02	25.66	-41.3	-43.5	19.9	0.00e+00	0	44	0	603979776	54	4569
2026-01-27 01:17:44.42	294.76	25.52	-41.3	-43.5	19.9	0.00e+00	0	43	0	612368384	54	4555
2026-01-27 01:17:47.14	293.97	25.43	-41.4	-43.6	19.8	0.00e+00	0	43	0	617611264	54	4650
2026-01-27 01:17:50.45	293.01	25.30	-41.7	-43.9	19.5	0.00e+00	0	43	0	622854144	54	4803
2026-01-27 01:17:53.17	292.23	25.20	-41.7	-44.0	19.5	0.00e+00	0	43	0	628097024	54	4839
2026-01-27 01:17:56.66	291.24	25.05	-41.6	-43.8	19.5	0.00e+00	0	44	0	635437056	54	4757
2026-01-27 01:17:59.39	290.47	24.93	-41.7	-44.0	19.4	0.00e+00	0	43	0	639631360	54	4842
2026-01-27 01:18:02.67	289.55	24.79	-42.1	-44.5	18.9	0.00e+00	0	44	0	645922816	54	5104
2026-01-27 01:18:05.40	288.80	24.66	-42.3	-44.7	18.7	0.00e+00	0	44	0	651165696	55	4963
2026-01-27 01:18:08.73	287.88	24.49	-42.4	-44.9	18.6	0.00e+00	0	44	0	657457152	55	5060
2026-01-27 01:18:11.46	287.14	24.35	-42.5	-44.9	18.5	0.00e+00	0	43	0	662700032	55	5086
2026-01-27 01:18:14.97	286.19	24.16	-42.9	-45.4	18.2	0.00e+00	0	44	0	668991488	56	5075
2026-01-27 01:18:17.68	285.47	24.02	-43.1	-45.7	17.9	0.00e+00	0	44	0	674234368	56	5234
2026-01-27 01:18:20.97	284.61	23.83	-43.1	-45.6	17.9	0.00e+00	0	44	0	680525824	57	4920
2026-01-27 01:18:23.67	283.90	23.67	-43.3	-45.9	17.7	0.00e+00	0	44	0	685768704	57	5059
2026-01-27 01:18:26.92	283.06	23.48	-43.2	-45.7	17.9	0.00e+00	0	44	0	692060160	57	4977
2026-01-27 01:18:30.25	282.22	23.28	-43.3	-45.9	17.7	0.00e+00	0	44	0	698351616	57	5071
2026-01-27 01:18:33.09	281.50	23.10	-43.4	-46.0	17.6	0.00e+00	0	44	0	703594496	57	5145
2026-01-27 01:18:36.36	280.69	22.89	-43.5	-46.1	17.5	0.00e+00	0	43	0	708837376	57	5182
2026-01-27 01:18:39.20	279.99	22.71	-43.2	-45.7	17.9	0.00e+00	0	44	0	715128832	57	4980
2026-01-27 01:18:42.33	279.24	22.50	-43.3	-46.0	17.7	0.00e+00	0	44	0	720371712	57	5104
2026-01-27 01:18:45.17	278.56	22.31	-43.4	-46.0	17.6	0.00e+00	0	43	0	725614592	57	5143
2026-01-27 01:18:48.30	277.82	22.09	-43.0	-45.6	18.0	0.00e+00	0	44	0	731906048	57	4874
2026-01-27 01:18:51.14	277.16	21.90	-42.9	-45.4	18.2	0.00e+00	0	44	0	737148928	57	4788
2026-01-27 01:18:54.27	276.44	21.68	-42.7	-45.1	18.4	0.00e+00	0	44	0	743440384	57	4650
2026-01-27 01:18:57.11	275.80	21.47	-42.5	-45.0	18.5	0.00e+00	0	43	0	748683264	56	4853
2026-01-27 01:19:00.46	275.05	21.23	-42.3	-44.8	18.8	0.00e+00	0	43	0	754974720	56	4710
2026-01-27 01:19:03.33	274.42	21.02	-42.5	-45.0	18.6	0.00e+00	0	43	0	760217600	56	4819
2026-01-27 01:19:06.46	273.74	20.79	-42.4	-44.9	18.7	0.00e+00	0	44	0	765460480	56	4781
2026-01-27 01:19:09.30	273.13	20.58	-42.2	-44.7	18.9	0.00e+00	0	43	0	770703360	56	4658
2026-01-27 01:19:12.43	272.47	20.35	-42.3	-44.8	18.8	0.00e+00	0	43	0	776994816	56	4735
2026-01-27 01:19:15.27	271.88	20.14	-42.5	-45.0	18.6	0.00e+00	0	44	0	782237696	56	4843
2026-01-27 01:19:18.40	271.24	19.90	-42.5	-45.0	18.5	0.00e+00	0	43	0	788529152	56	4854
2026-01-27 01:19:21.24	270.67	19.68	-42.3	-44.8	18.8	0.00e+00	0	44	0	793772032	56	4706
2026-01-27 01:19:24.37	270.04	19.44	-42.2	-44.7	18.9	0.00e+00	0	43	0	799014912	56	4653
2026-01-27 01:19:27.21	269.49	19.23	-42.2	-44.6	18.9	0.00e+00	0	43	0	804257792	56	4647
2026-01-27 01:19:30.42	268.87	18.98	-42.0	-44.4	19.0	0.00e+00	0	44	0	810549248	56	4527
2026-01-27 01:19:33.25	268.33	18.76	-41.8	-44.2	19.1	0.00e+00	0	44	0	815792128	55	4683
2026-01-27 01:19:36.57	267.71	18.50	-41.7	-44.1	19.2	0.00e+00	0	43	0	822083584	55	4622
2026-01-27 01:19:39.68	267.14	18.26	-41.6	-43.9	19.4	0.00e+00	0	43	0	828375040	55	4536
2026-01-27 01:19:42.53	266.63	18.04	-41.4	-43.6	19.7	0.00e+00	0	43	0	833617920	54	4636
2026-01-27 01:19:45.65	266.07	17.79	-41.5	-43.7	19.6	0.00e+00	0	43	0	838860800	54	4673
2026-01-27 01:19:48.65	265.54	17.56	-41.6	-43.8	19.5	0.00e+00	0	44	0	845152256	54	4755
2026-01-27 01:19:51.72	265.01	17.32	-41.6	-43.9	19.5	0.00e+00	0	43	0	850395136	55	4510
2026-01-27 01:19:54.92	264.47	17.07	-41.5	-43.8	19.5	0.00e+00	0	43	0	856686592	55	4456
2026-01-27 01:19:57.76	264.00	16.84	-41.5	-43.8	19.5	0.00e+00	0	44	0	861929472	54	4712
2026-01-27 01:20:00.89	263.48	16.60	-41.8	-44.2	19.1	0.00e+00	0	44	0	868220928	54	4933
2026-01-27 01:20:03.73	263.02	16.38	-41.8	-44.1	19.1	0.00e+00	0	43	0	873463808	54	4910
2026-01-27 01:20:07.09	262.49	16.11	-41.7	-44.0	19.2	0.00e+00	0	44	0	879755264	54	4861
2026-01-27 01:20:09.97	262.04	15.89	-41.8	-44.1	19.1	0.00e+00	0	43	0	884998144	54	4924
2026-01-27 01:20:13.25	261.53	15.63	-41.7	-44.0	19.3	0.00e+00	0	44	0	891289600	54	4822
2026-01-27 01:20:15.98	261.12	15.42	-41.8	-44.1	19.1	0.00e+00	0	43	0	896532480	54	4916
2026-01-27 01:20:19.31	260.62	15.16	-42.0	-44.5	18.8	0.00e+00	0	43	0	902823936	54	5108
2026-01-27 01:20:22.14	260.20	14.94	-42.2	-44.7	18.5	0.00e+00	0	43	0	908066816	55	4954
2026-01-27 01:20:25.61	259.70	14.67	-42.5	-45.1	18.2	0.00e+00	0	43	0	914358272	55	5206
2026-01-27 01:20:28.36	259.31	14.46	-42.8	-45.5	17.7	0.00e+00	0	43	0	919601152	56	5101
2026-01-27 01:20:31.64	258.85	14.21	-42.7	-45.2	18.2	0.00e+00	0	43	0	925892608	56	4951
2026-01-27 01:20:34.37	258.48	14.00	-42.6	-45.1	18.3	0.00e+00	0	44	0	931135488	56	4894
2026-01-27 01:20:37.64	258.03	13.75	-42.8	-45.3	18.1	0.00e+00	0	43	0	936378368	56	4991
2026-01-27 01:20:40.37	257.67	13.54	-43.0	-45.6	17.9	0.00e+00	0	44	0	941621248	56	5164
2026-01-27 01:20:43.73	257.23	13.28	-42.9	-45.6	17.8	0.00e+00	0	44	0	947912704	56	5185
2026-01-27 01:20:46.46	256.87	13.08	-42.9	-45.6	17.8	0.00e+00	0	44	0	953155584	56	5175
2026-01-27 01:20:49.74	256.46	12.83	-42.9	-45.6	17.7	0.00e+00	0	43	0	959447040	56	5191
2026-01-27 01:20:52.60	256.10	12.61	-43.0	-45.8	17.6	0.00e+00	0	44	0	964689920	56	5284
2026-01-27 01:20:56.10	255.67	12.35	-43.1	-45.8	17.5	0.00e+00	0	44	0	970981376	56	5337
2026-01-27 01:20:58.87	255.33	12.14	-43.2	-46.0	17.4	0.00e+00	0	44	0	976224256	57	5104
2026-01-27 01:21:02.09	254.95	11.90	-43.3	-46.1	17.2	0.00e+00	0	44	0	982515712	57	5180
2026-01-27 01:21:04.93	254.61	11.69	-43.2	-45.9	17.4	0.00e+00	0	44	0	987758592	57	5093
2026-01-27 01:21:08.06	254.25	11.46	-43.3	-46.0	17.3	0.00e+00	0	43	0	994050048	57	5157
2026-01-27 01:21:10.90	253.93	11.26	-43.3	-46.2	17.1	0.00e+00	0	44	0	999292928	57	5226
2026-01-27 01:21:14.03	253.58	11.03	-43.5	-46.4	16.8	0.00e+00	0	44	0	1004535808	57	5400
2026-01-27 01:21:16.87	253.26	10.82	-43.3	-46.2	17.1	0.00e+00	0	44	0	1010827264	57	5260
2026-01-27 01:21:20.13	252.91	10.58	-43.4	-46.3	17.0	0.00e+00	0	43	0	1016070144	57	5297
2026-01-27 01:21:22.97	252.60	10.38	-43.4	-46.4	16.9	0.00e+00	0	44	0	1021313024	57	5344
2026-01-27 01:21:26.10	252.27	10.16	-43.7	-46.8	16.5	0.00e+00	0	44	0	1027604480	57	5594
2026-01-27 01:21:29.04	251.96	9.95	-44.0	-47.2	16.1	0.00e+00	0	44	0	1032847360	58	5550
2026-01-27 01:21:32.03	251.66	9.73	-44.1	-47.3	15.9	0.00e+00	0	43	0	1039138816	58	5656
2026-01-27 01:21:35.01	251.36	9.52	-44.0	-47.2	16.0	0.00e+00	0	44	0	1044381696	58	5562
2026-01-27 01:21:37.99	251.06	9.31	-44.1	-47.3	15.9	0.00e+00	0	44	0	1049624576	58	5651
2026-01-27 01:21:40.98	250.77	9.10	-44.3	-47.7	15.6	0.00e+00	0	44	0	1055916032	59	5537
2026-01-27 01:21:43.96	250.48	8.90	-49.0	-64.7	3.8	1.49e+00	0	44	104	1059061760	68	23504
2026-01-27 01:21:46.94	250.19	8.69	-49.5	-65.0	3.8	1.49e+00	0	44	104	1059061760	69	22981
2026-01-27 01:21:49.92	249.91	8.49	-49.7	-65.1	3.8	1.49e+00	0	44	104	1059061760	70	21860
2026-01-27 01:21:52.90	249.64	8.28	-49.8	-65.1	3.8	1.49e+00	0	44	104	1059061760	70	21942
2026-01-27 01:21:55.88	249.37	8.08	-49.8	-65.2	3.8	1.49e+00	0	44	104	1059061760	70	22028
2026-01-27 01:21:58.86	249.10	7.88	-49.8	-65.1	3.8	1.49e+00	0	44	104	1059061760	70	21988
2026-01-27 01:22:01.84	248.83	7.67	-49.7	-65.1	3.8	1.49e+00	0	44	104	1059061760	70	21983
2026-01-27 01:22:04.82	248.57	7.47	-49.5	-65.1	3.8	1.49e+00	0	43	104	1059061760	70	21823
2026-01-27 01:22:07.80	248.31	7.27	-49.5	-65.1	3.8	1.49e+00	0	44	104	1059061760	70	21795
2026-01-27 01:22:10.78	248.06	7.08	-49.5	-65.1	3.8	1.49e+00	0	44	104	1059061760	70	21782
2026-01-27 01:22:13.76	247.81	6.88	-49.5	-65.1	3.8	1.49e+00	0	44	104	1059061760	70	21783
2026-01-27 01:22:16.74	247.56	6.68	-49.5	-65.0	3.8	1.49e+00	0	44	104	1059061760	70	21629
2026-01-27 01:22:19.72	247.32	6.49	-49.5	-65.0	3.8	1.49e+00	0	44	104	1059061760	70	21661
2026-01-27 01:22:22.70	247.08	6.29	-49.5	-65.0	3.8	1.49e+00	0	44	104	1059061760	70	21696
2026-01-27 01:22:25.68	246.84	6.10	-49.5	-65.1	3.8	1.49e+00	0	44	104	1059061760	70	21770
2026-01-27 01:22:28.66	246.61	5.91	-49.5	-65.0	3.8	1.49e+00	0	44	104	1059061760	70	21632
2026-01-27 01:22:31.64	246.38	5.72	-49.5	-65.0	3.8	1.49e+00	0	44	104	1059061760	70	21640
2026-01-27 01:22:34.62	246.15	5.53	-49.5	-65.0	3.8	1.49e+00	0	44	104	1059061760	70	21660
2026-01-27 01:22:37.60	245.93	5.34	-49.4	-65.0	3.8	1.49e+00	0	44	104	1059061760	70	21646
2026-01-27 01:22:40.58	245.71	5.15	-49.5	-65.0	3.8	1.49e+00	0	44	104	1059061760	70	21647
2026-01-27 01:22:43.56	245.49	4.96	-49.5	-65.0	3.8	1.49e+00	0	44	104	1059061760	70	21702

#Closed at: 2026-01-27 01:22:44
#Recorded file [1059 MB]: D:/Data/31040_260127_041126.dat