passes_logs/2026/01/27/T1/T1__20260127_214315_KHAYYAM_rec.log

#Pass ID: 20260127_214315_KHAYYAM
#Satellite: KHAYYAM
#Configuration: KHAYYAM_480M
#almurnet v.1.7.20251203
#Start time: 2026-01-27 21:43:16

#Version: 2.0.20230620
#Station: T1
#Location: 37.570604 lon 55.790049 lat
#TLE: 1 53370U 22096A   26027.55771354  .00009208  00000+0  37400-3 0  9996
#TLE: 2 53370  97.3550 294.3423 0002118 106.5993 253.5477 15.24791124193159

#Time	Az	El	Level	Level2	SNR	BER	BlckErr	Temp	State	Recorded	gain1	gain2
2026-01-27 21:43:16.72	8.60	5.09	-53.2	-57.8	3.6	0.00e+00	0	42	0	0	77	25119
2026-01-27 21:43:18.70	8.52	5.25	-53.7	-58.2	3.7	0.00e+00	0	43	104	0	78	24960
2026-01-27 21:43:20.69	8.45	5.41	-53.6	-58.1	3.7	0.00e+00	0	43	104	0	78	24790
2026-01-27 21:43:22.68	8.37	5.57	-53.3	-57.9	3.7	0.00e+00	0	43	104	0	78	24075
2026-01-27 21:43:24.66	8.29	5.74	-53.3	-57.8	3.7	0.00e+00	0	43	104	0	78	23931
2026-01-27 21:43:26.65	8.21	5.90	-53.2	-57.6	3.7	0.00e+00	0	44	104	0	78	23345
2026-01-27 21:43:28.63	8.13	6.07	-52.8	-57.1	3.7	0.00e+00	0	44	104	0	77	23347
2026-01-27 21:43:30.62	8.05	6.24	-53.3	-57.7	3.7	0.00e+00	0	44	104	0	77	25052
2026-01-27 21:43:32.61	7.97	6.40	-51.6	-56.2	3.7	0.00e+00	0	44	104	0	74	24899
2026-01-27 21:43:34.59	7.88	6.57	-51.8	-56.6	3.7	0.00e+00	0	44	104	0	75	24775
2026-01-27 21:43:36.58	7.80	6.75	-50.5	-56.1	3.7	0.00e+00	0	44	104	0	71	29283
2026-01-27 21:43:38.56	7.71	6.92	-48.3	-54.7	3.8	0.00e+00	0	44	104	0	68	29565
2026-01-27 21:43:40.55	7.62	7.09	-50.1	-55.7	3.7	0.00e+00	0	44	104	0	72	26417
2026-01-27 21:43:42.54	7.53	7.27	-50.1	-55.6	3.7	0.00e+00	0	44	104	0	72	26266
2026-01-27 21:43:44.52	7.44	7.45	-50.1	-55.7	3.7	0.00e+00	0	45	104	0	72	26447
2026-01-27 21:43:46.51	7.34	7.63	-50.1	-55.7	3.7	0.00e+00	0	45	104	0	72	26453
2026-01-27 21:43:48.50	7.25	7.81	-50.1	-55.7	3.7	0.00e+00	0	45	104	0	72	26326
2026-01-27 21:43:50.48	7.15	7.99	-50.1	-55.7	3.7	0.00e+00	0	45	104	0	72	26393
2026-01-27 21:43:52.47	7.06	8.18	-50.1	-55.7	3.7	0.00e+00	0	45	104	0	72	26339
2026-01-27 21:43:54.45	6.96	8.36	-50.0	-55.7	3.7	0.00e+00	0	45	104	0	72	26303
2026-01-27 21:43:56.44	6.85	8.55	-50.1	-55.6	3.7	0.00e+00	0	45	104	0	72	26276
2026-01-27 21:43:58.42	6.75	8.74	-50.0	-55.6	3.7	0.00e+00	0	45	104	0	72	26082
2026-01-27 21:44:00.41	6.65	8.93	-50.1	-55.7	3.7	0.00e+00	0	46	104	0	72	26448
2026-01-27 21:44:02.40	6.54	9.13	-50.2	-55.7	3.7	0.00e+00	0	46	104	0	72	26431
2026-01-27 21:44:04.38	6.43	9.32	-50.0	-55.7	3.7	0.00e+00	0	46	104	0	72	26394
2026-01-27 21:44:06.37	6.32	9.52	-50.5	-56.1	3.7	0.00e+00	0	46	104	0	72	27520
2026-01-27 21:44:08.35	6.20	9.72	-49.0	-55.1	3.7	0.00e+00	0	46	104	0	70	27641
2026-01-27 21:44:10.34	6.09	9.92	-47.7	-54.1	3.8	0.00e+00	0	46	104	0	67	29283
2026-01-27 21:44:12.33	5.97	10.13	-47.7	-54.1	3.7	0.00e+00	0	46	104	0	67	29240
2026-01-27 21:44:14.31	5.85	10.33	-50.3	-56.1	3.7	0.00e+00	0	46	104	0	71	29219
2026-01-27 21:44:16.30	5.73	10.54	-48.5	-54.7	3.7	0.00e+00	0	46	104	0	69	27990
2026-01-27 21:44:18.28	5.61	10.75	-48.8	-55.0	3.7	0.00e+00	0	46	104	0	69	28881
2026-01-27 21:44:20.27	5.48	10.96	-49.1	-55.2	3.7	0.00e+00	0	46	104	0	69	29803
2026-01-27 21:44:22.25	5.35	11.18	-49.2	-55.2	3.7	0.00e+00	0	46	104	0	69	29559
2026-01-27 21:44:24.24	5.22	11.40	-49.8	-55.7	3.7	0.00e+00	0	46	104	0	71	27836
2026-01-27 21:44:26.23	5.09	11.62	-49.6	-55.5	3.7	0.00e+00	0	46	104	0	70	29052
2026-01-27 21:44:28.21	4.95	11.84	-49.3	-55.3	3.7	0.00e+00	0	46	104	0	70	28205
2026-01-27 21:44:30.19	4.81	12.07	-49.7	-55.5	3.7	0.00e+00	0	46	104	0	70	28994
2026-01-27 21:44:32.18	4.67	12.30	-50.9	-56.3	3.7	0.00e+00	0	46	104	0	72	28423
2026-01-27 21:44:34.16	4.52	12.53	-49.6	-55.5	3.7	0.00e+00	0	46	104	0	71	27506
2026-01-27 21:44:36.15	4.38	12.76	-49.7	-55.4	3.7	0.00e+00	0	47	104	0	71	26954
2026-01-27 21:44:38.14	4.22	13.00	-49.9	-55.6	3.7	0.00e+00	0	47	104	0	71	27795
2026-01-27 21:44:40.12	4.07	13.24	-50.2	-55.9	3.7	0.00e+00	0	46	104	0	71	28621
2026-01-27 21:44:42.11	3.91	13.48	-50.2	-55.7	3.7	0.00e+00	0	46	104	0	72	26406
2026-01-27 21:44:44.09	3.75	13.72	-50.0	-55.6	3.7	0.00e+00	0	47	104	0	71	27671
2026-01-27 21:44:46.08	3.59	13.97	-50.0	-55.6	3.7	0.00e+00	0	46	104	0	71	27561
2026-01-27 21:44:48.06	3.42	14.22	-50.4	-56.0	3.7	0.00e+00	0	47	104	0	71	29032
2026-01-27 21:44:50.05	3.25	14.48	-50.7	-56.2	3.7	0.00e+00	0	46	104	0	73	26385
2026-01-27 21:44:52.04	3.08	14.74	-50.4	-56.0	3.7	0.00e+00	0	47	104	0	72	27264
2026-01-27 21:44:54.02	2.90	15.00	-50.5	-55.9	3.7	0.00e+00	0	47	104	0	72	27039
2026-01-27 21:44:56.01	2.71	15.27	-50.3	-55.8	3.7	0.00e+00	0	47	104	0	72	26715
2026-01-27 21:44:57.99	2.53	15.54	-52.0	-57.2	3.7	0.00e+00	0	47	104	0	74	27872
2026-01-27 21:44:59.98	2.34	15.81	-51.0	-55.8	3.7	0.00e+00	0	47	104	0	73	25132
2026-01-27 21:45:01.96	2.14	16.08	-51.4	-56.0	3.7	0.00e+00	0	47	104	0	73	25804
2026-01-27 21:45:03.95	1.94	16.37	-51.9	-56.2	3.7	0.00e+00	0	47	104	0	74	25087
2026-01-27 21:45:05.94	1.74	16.65	-52.8	-57.6	3.7	0.00e+00	0	47	104	0	76	26000
2026-01-27 21:45:07.92	1.53	16.94	-50.6	-56.0	3.7	0.00e+00	0	47	104	0	73	25884
2026-01-27 21:45:09.91	1.31	17.23	-50.5	-56.0	3.7	0.00e+00	0	47	104	0	72	27256
2026-01-27 21:45:11.89	1.09	17.53	-50.5	-56.1	3.7	0.00e+00	0	47	104	0	72	27825
2026-01-27 21:45:13.88	0.87	17.83	-50.8	-56.3	3.7	0.00e+00	0	47	104	0	72	28353
2026-01-27 21:45:15.87	0.64	18.14	-52.8	-57.5	3.7	0.00e+00	0	47	104	0	76	25850
2026-01-27 21:45:17.85	0.40	18.44	-51.9	-57.0	3.7	0.00e+00	0	47	104	0	74	27262
2026-01-27 21:45:19.84	0.16	18.76	-51.7	-56.9	3.7	0.00e+00	0	47	104	0	75	25502
2026-01-27 21:45:21.82	359.91	19.08	-51.9	-57.0	3.7	0.00e+00	0	47	104	0	75	25840
2026-01-27 21:45:23.81	359.66	19.40	-52.8	-57.6	3.7	0.00e+00	0	47	104	0	76	26050
2026-01-27 21:45:25.80	359.40	19.73	-52.2	-57.2	3.7	0.00e+00	0	47	104	0	76	24824
2026-01-27 21:45:27.78	359.13	20.07	-52.1	-57.1	3.7	0.00e+00	0	47	104	0	76	24635
2026-01-27 21:45:29.77	358.86	20.41	-52.8	-57.6	3.7	0.00e+00	0	47	104	0	76	26236
2026-01-27 21:45:31.76	358.57	20.75	-52.1	-57.2	3.7	0.00e+00	0	47	104	0	76	24916
2026-01-27 21:45:33.74	358.28	21.10	-51.7	-57.0	3.7	0.00e+00	0	47	104	0	75	25861
2026-01-27 21:45:35.73	357.99	21.46	-52.6	-57.4	3.7	0.00e+00	0	47	104	0	75	27047
2026-01-27 21:45:37.71	357.68	21.82	-52.8	-57.7	3.7	0.00e+00	0	47	104	0	76	26373
2026-01-27 21:45:39.70	357.37	22.19	-52.4	-57.4	3.7	0.00e+00	0	47	104	0	76	25607
2026-01-27 21:45:41.69	357.04	22.56	-51.9	-57.1	3.7	0.00e+00	0	47	104	0	75	25996
2026-01-27 21:45:43.67	356.71	22.94	-51.5	-56.7	3.7	0.00e+00	0	47	104	0	75	25023
2026-01-27 21:45:45.66	356.37	23.33	-51.2	-56.6	3.7	0.00e+00	0	47	104	0	74	26202
2026-01-27 21:45:47.64	356.02	23.72	-51.6	-56.8	3.7	0.00e+00	0	47	104	0	74	26827
2026-01-27 21:45:49.63	355.66	24.11	-52.0	-57.1	3.7	0.00e+00	0	47	104	0	74	27573
2026-01-27 21:45:51.61	355.29	24.52	-52.2	-57.2	3.7	0.00e+00	0	47	104	0	75	26545
2026-01-27 21:45:53.60	354.90	24.93	-51.8	-57.0	3.7	0.00e+00	0	47	104	0	75	25844
2026-01-27 21:45:55.59	354.51	25.35	-51.9	-57.0	3.7	0.00e+00	0	47	104	0	75	25877
2026-01-27 21:45:57.57	354.10	25.77	-52.6	-57.5	3.7	0.00e+00	0	47	104	0	75	27297
2026-01-27 21:45:59.56	353.68	26.20	-53.0	-57.7	3.7	0.00e+00	0	47	104	0	76	26479
2026-01-27 21:46:01.54	353.25	26.64	-53.0	-57.7	3.7	0.00e+00	0	47	104	0	76	26392
2026-01-27 21:46:03.53	352.80	27.09	-52.4	-57.3	3.7	0.00e+00	0	47	104	0	76	25327
2026-01-27 21:46:05.52	352.34	27.54	-52.3	-57.3	3.7	0.00e+00	0	47	104	0	76	25095
2026-01-27 21:46:07.50	351.87	28.00	-52.5	-57.3	3.7	0.00e+00	0	47	104	0	76	25354
2026-01-27 21:46:09.49	351.37	28.47	-53.1	-57.9	3.7	0.00e+00	0	47	104	0	76	26982
2026-01-27 21:46:11.48	350.87	28.94	-52.3	-57.4	3.7	0.00e+00	0	47	104	0	76	25476
2026-01-27 21:46:13.46	350.34	29.42	-51.9	-57.0	3.7	0.00e+00	0	47	104	0	75	25928
2026-01-27 21:46:15.45	349.80	29.91	-52.6	-57.4	3.7	0.00e+00	0	47	104	0	76	25508
2026-01-27 21:46:17.43	349.24	30.41	-53.1	-57.8	3.7	0.00e+00	0	47	104	0	77	25322
2026-01-27 21:46:19.42	348.66	30.91	-52.4	-57.4	3.7	0.00e+00	0	47	104	0	76	25434
2026-01-27 21:46:21.41	348.06	31.43	-52.3	-57.2	3.7	0.00e+00	0	47	104	0	76	24813
2026-01-27 21:46:23.39	347.43	31.95	-52.2	-57.1	3.7	0.00e+00	0	48	104	0	76	24691
2026-01-27 21:46:25.38	346.79	32.47	-51.5	-56.9	3.7	0.00e+00	0	48	104	0	74	26939
2026-01-27 21:46:27.36	346.12	33.00	-51.2	-56.6	3.7	0.00e+00	0	48	104	0	74	26148
2026-01-27 21:46:29.35	345.43	33.55	-52.1	-57.1	3.7	0.00e+00	0	47	104	0	75	26194
2026-01-27 21:46:31.33	344.72	34.09	-52.8	-57.6	3.7	0.00e+00	0	48	104	0	76	25996
2026-01-27 21:46:33.32	343.97	34.65	-52.8	-57.6	3.7	0.00e+00	0	48	104	0	76	26063
2026-01-27 21:46:35.31	343.20	35.21	-52.8	-57.6	3.7	0.00e+00	0	48	104	0	76	26101
2026-01-27 21:46:37.29	342.40	35.77	-51.7	-56.9	3.7	0.00e+00	0	48	104	0	75	25471
2026-01-27 21:46:39.28	341.56	36.34	-51.5	-56.8	3.7	0.00e+00	0	48	104	0	74	26672
2026-01-27 21:46:41.26	340.70	36.92	-52.5	-57.4	3.7	0.00e+00	0	48	104	0	76	25451
2026-01-27 21:46:43.25	339.80	37.50	-53.2	-57.8	3.7	0.00e+00	0	48	104	0	77	25311
2026-01-27 21:46:45.24	338.87	38.08	-53.2	-57.9	3.7	0.00e+00	0	48	104	0	77	25412
2026-01-27 21:46:47.22	337.91	38.67	-52.9	-57.7	3.7	0.00e+00	0	48	104	0	77	24877
2026-01-27 21:46:49.21	336.90	39.26	-52.1	-57.2	3.7	0.00e+00	0	47	104	0	76	24936
2026-01-27 21:46:51.19	335.85	39.85	-52.5	-57.4	3.7	0.00e+00	0	48	104	0	76	25410
2026-01-27 21:46:53.18	334.77	40.45	-52.1	-57.2	3.7	0.00e+00	0	48	104	0	76	24911
2026-01-27 21:46:55.16	333.64	41.04	-52.2	-57.3	3.7	0.00e+00	0	48	104	0	76	25175
2026-01-27 21:46:57.15	332.46	41.63	-52.2	-57.3	3.6	0.00e+00	0	48	104	0	76	25220
2026-01-27 21:46:59.14	331.24	42.22	-51.6	-56.9	3.7	0.00e+00	0	48	104	0	75	25549
2026-01-27 21:47:01.12	329.98	42.80	-52.5	-57.4	3.7	0.00e+00	0	48	104	0	75	27012
2026-01-27 21:47:03.11	328.66	43.38	-52.7	-57.6	3.7	0.00e+00	0	48	104	0	76	26133
2026-01-27 21:47:05.10	327.29	43.95	-53.3	-57.8	3.7	0.00e+00	0	48	104	0	77	25288
2026-01-27 21:47:07.08	325.88	44.51	-53.3	-57.8	3.7	0.00e+00	0	48	104	0	77	25281
2026-01-27 21:47:09.07	324.40	45.07	-53.1	-57.6	3.7	0.00e+00	0	48	104	0	77	24784
2026-01-27 21:47:11.05	322.88	45.60	-52.5	-57.3	3.7	0.00e+00	0	48	104	0	76	25314
2026-01-27 21:47:13.04	321.30	46.13	-52.8	-57.4	3.7	0.00e+00	0	48	104	0	76	25671
2026-01-27 21:47:15.02	319.67	46.64	-53.1	-57.5	3.7	0.00e+00	0	48	104	0	76	25873
2026-01-27 21:47:17.01	317.98	47.13	-52.8	-57.3	3.7	0.00e+00	0	48	104	0	76	25196
2026-01-27 21:47:19.00	316.23	47.59	-52.2	-57.0	3.7	0.00e+00	0	48	104	0	76	24408
2026-01-27 21:47:20.98	314.44	48.04	-52.7	-57.4	3.7	0.00e+00	0	48	104	0	76	25587
2026-01-27 21:47:22.97	312.59	48.46	-52.9	-57.5	3.7	0.00e+00	0	48	104	0	76	25781
2026-01-27 21:47:24.95	310.69	48.85	-52.6	-57.4	3.7	0.00e+00	0	48	104	0	76	25591
2026-01-27 21:47:26.94	308.74	49.21	-53.2	-57.7	3.7	0.00e+00	0	48	104	0	77	25003
2026-01-27 21:47:28.93	306.74	49.54	-52.4	-57.3	3.7	0.00e+00	0	48	104	0	76	25213
2026-01-27 21:47:30.91	304.71	49.83	-53.1	-57.5	3.7	0.00e+00	0	48	104	0	76	25821
2026-01-27 21:47:32.90	302.63	50.09	-53.0	-57.5	3.7	0.00e+00	0	48	104	0	77	24403
2026-01-27 21:47:34.88	300.52	50.30	-52.9	-57.4	3.7	0.00e+00	0	48	104	0	77	24045
2026-01-27 21:47:36.87	298.38	50.48	-53.3	-57.8	3.7	0.00e+00	0	48	104	0	77	25220
2026-01-27 21:47:38.86	296.21	50.62	-53.1	-57.4	3.7	0.00e+00	0	48	104	0	77	24071
2026-01-27 21:47:40.84	294.04	50.72	-52.9	-57.5	3.7	0.00e+00	0	48	104	0	77	24381
2026-01-27 21:47:42.83	291.84	50.77	-53.4	-57.8	3.6	0.00e+00	0	48	104	0	77	25159
2026-01-27 21:47:44.81	289.65	50.78	-53.3	-57.8	3.7	0.00e+00	0	48	104	0	77	25341
2026-01-27 21:47:46.80	287.45	50.74	-53.2	-57.8	3.7	0.00e+00	0	48	104	0	77	25135
2026-01-27 21:47:48.78	285.27	50.67	-53.2	-57.8	3.7	0.00e+00	0	48	104	0	77	25307
2026-01-27 21:47:50.77	283.10	50.55	-53.5	-58.0	3.7	0.00e+00	0	48	104	0	77	25800
2026-01-27 21:47:52.76	280.94	50.39	-52.7	-57.5	3.7	0.00e+00	0	48	104	0	77	24402
2026-01-27 21:47:54.74	278.82	50.19	-53.2	-57.8	3.7	0.00e+00	0	48	104	0	77	25101
2026-01-27 21:47:56.73	276.72	49.95	-53.3	-57.8	3.7	0.00e+00	0	48	104	0	77	25314
2026-01-27 21:47:58.71	274.67	49.67	-53.5	-57.9	3.7	0.00e+00	0	48	104	0	77	25561
2026-01-27 21:48:00.68	272.67	49.36	-53.0	-57.7	3.7	0.00e+00	0	48	104	0	77	25007
2026-01-27 21:48:02.66	270.70	49.01	-53.1	-57.8	3.7	0.00e+00	0	48	104	0	77	25154
2026-01-27 21:48:04.65	268.77	48.63	-53.3	-57.9	3.7	0.00e+00	0	48	104	0	77	25479
2026-01-27 21:48:06.63	266.90	48.23	-53.2	-57.9	3.7	0.00e+00	0	48	104	0	77	25404
2026-01-27 21:48:08.62	265.07	47.79	-53.1	-57.8	3.7	0.00e+00	0	48	104	0	77	25251
2026-01-27 21:48:10.61	263.29	47.33	-53.2	-57.8	3.7	0.00e+00	0	48	104	0	77	25291
2026-01-27 21:48:12.59	261.58	46.85	-52.7	-57.6	3.7	0.00e+00	0	48	104	0	77	24601
2026-01-27 21:48:14.58	259.92	46.35	-53.2	-57.8	3.7	0.00e+00	0	48	104	0	77	25372
2026-01-27 21:48:16.57	258.31	45.83	-53.1	-57.8	3.7	0.00e+00	0	48	104	0	77	25111
2026-01-27 21:48:18.55	256.76	45.30	-53.2	-57.9	3.7	0.00e+00	0	48	104	0	77	25419
2026-01-27 21:48:20.54	255.25	44.75	-53.2	-57.8	3.7	0.00e+00	0	48	104	0	77	25152
2026-01-27 21:48:22.52	253.81	44.19	-53.4	-58.0	3.7	0.00e+00	0	48	104	0	77	25708
2026-01-27 21:48:24.51	252.42	43.62	-53.0	-57.7	3.7	0.00e+00	0	48	104	0	77	25003
2026-01-27 21:48:26.50	251.07	43.04	-53.5	-58.0	3.7	0.00e+00	0	48	104	0	77	25960
2026-01-27 21:48:28.46	249.80	42.46	-53.1	-57.7	3.7	0.00e+00	0	48	104	0	77	25036
2026-01-27 21:48:30.45	248.55	41.87	-53.2	-57.7	3.7	0.00e+00	0	48	104	0	77	25037
2026-01-27 21:48:32.44	247.35	41.28	-53.0	-57.6	3.7	0.00e+00	0	48	104	0	77	24630
2026-01-27 21:48:34.42	246.20	40.68	-52.9	-57.6	3.7	0.00e+00	0	48	104	0	77	24773
2026-01-27 21:48:36.41	245.09	40.09	-53.0	-57.7	3.7	0.00e+00	0	48	104	0	77	24865
2026-01-27 21:48:38.39	244.02	39.49	-52.9	-57.6	3.7	0.00e+00	0	48	104	0	77	24745
2026-01-27 21:48:40.38	242.99	38.90	-53.4	-57.8	3.7	0.00e+00	0	48	104	0	77	25354
2026-01-27 21:48:42.37	242.00	38.31	-53.3	-57.9	3.7	0.00e+00	0	48	104	0	77	25574
2026-01-27 21:48:44.35	241.06	37.72	-53.4	-57.9	3.7	0.00e+00	0	48	104	0	77	25535
2026-01-27 21:48:46.34	240.14	37.13	-53.4	-57.8	3.7	0.00e+00	0	48	104	0	77	25336
2026-01-27 21:48:48.32	239.26	36.55	-53.4	-57.7	3.7	0.00e+00	0	48	104	0	77	25076
2026-01-27 21:48:50.31	238.41	35.97	-53.1	-57.5	3.7	0.00e+00	0	48	104	0	77	24381
2026-01-27 21:48:52.30	237.59	35.40	-53.3	-57.7	3.7	0.00e+00	0	48	104	0	77	24951
2026-01-27 21:48:54.28	236.80	34.84	-52.7	-57.3	3.7	0.00e+00	0	48	104	0	77	23933
2026-01-27 21:48:56.27	236.04	34.28	-52.3	-57.3	3.7	0.00e+00	0	48	104	0	76	25164
2026-01-27 21:48:58.25	235.31	33.73	-52.9	-57.7	3.7	0.00e+00	0	48	104	0	76	26424
2026-01-27 21:49:00.24	234.61	33.18	-53.0	-57.7	3.7	0.00e+00	0	48	104	0	76	26426
2026-01-27 21:49:02.22	233.93	32.64	-53.1	-57.8	3.7	0.00e+00	0	48	104	0	76	26613
2026-01-27 21:49:04.21	233.27	32.11	-53.0	-57.7	3.7	0.00e+00	0	48	104	0	76	26522
2026-01-27 21:49:06.20	232.63	31.58	-52.6	-57.6	3.7	0.00e+00	0	48	104	0	76	26045
2026-01-27 21:49:08.18	232.02	31.07	-52.6	-57.6	3.7	0.00e+00	0	48	104	0	76	26089
2026-01-27 21:49:10.17	231.43	30.56	-53.1	-57.8	3.7	0.00e+00	0	48	104	0	76	26859
2026-01-27 21:49:12.15	230.86	30.05	-53.1	-57.9	3.7	0.00e+00	0	48	104	0	76	26905
2026-01-27 21:49:14.14	230.31	29.56	-53.1	-57.6	3.7	0.00e+00	0	48	104	0	77	24704
2026-01-27 21:49:16.12	229.77	29.07	-53.0	-57.5	3.7	0.00e+00	0	48	104	0	77	24409
2026-01-27 21:49:18.11	229.26	28.59	-52.6	-57.5	3.7	0.00e+00	0	48	104	0	77	24411
2026-01-27 21:49:20.09	228.76	28.12	-52.5	-57.4	3.7	0.00e+00	0	48	104	0	77	24099
2026-01-27 21:49:22.08	228.27	27.65	-53.0	-57.6	3.7	0.00e+00	0	48	104	0	77	24641
2026-01-27 21:49:24.07	227.80	27.19	-52.8	-57.6	3.7	0.00e+00	0	48	104	0	77	24644
2026-01-27 21:49:26.05	227.35	26.74	-52.9	-57.5	3.7	0.00e+00	0	48	104	0	77	24491
2026-01-27 21:49:28.04	226.91	26.30	-52.7	-57.4	3.7	0.00e+00	0	48	104	0	77	24130
2026-01-27 21:49:30.03	226.48	25.86	-53.1	-57.6	3.7	0.00e+00	0	48	104	0	77	24695
2026-01-27 21:49:32.01	226.06	25.43	-53.1	-57.6	3.7	0.00e+00	0	48	104	0	77	24784
2026-01-27 21:49:34.00	225.66	25.01	-53.0	-57.6	3.7	0.00e+00	0	48	104	0	77	24773
2026-01-27 21:49:35.98	225.27	24.59	-53.0	-57.6	3.7	0.00e+00	0	48	104	0	77	24595
2026-01-27 21:49:37.97	224.89	24.18	-53.0	-57.7	3.7	0.00e+00	0	48	104	0	77	24815
2026-01-27 21:49:39.96	224.52	23.78	-53.0	-57.5	3.7	0.00e+00	0	48	104	0	77	24515
2026-01-27 21:49:41.94	224.17	23.39	-53.2	-57.7	3.7	0.00e+00	0	48	104	0	77	24993
2026-01-27 21:49:43.93	223.82	23.00	-53.2	-57.7	3.7	0.00e+00	0	48	104	0	77	25004
2026-01-27 21:49:45.91	223.48	22.61	-53.3	-57.7	3.7	0.00e+00	0	48	104	0	77	25074
2026-01-27 21:49:47.90	223.15	22.23	-53.3	-57.8	3.7	0.00e+00	0	48	104	0	77	25132
2026-01-27 21:49:49.88	222.84	21.86	-53.0	-57.6	3.7	0.00e+00	0	48	104	0	77	24608
2026-01-27 21:49:51.87	222.53	21.50	-53.0	-57.6	3.7	0.00e+00	0	48	104	0	77	24582
2026-01-27 21:49:53.86	222.22	21.14	-52.9	-57.3	3.7	0.00e+00	0	48	104	0	77	23932
2026-01-27 21:49:55.84	221.93	20.78	-52.7	-57.3	3.7	0.00e+00	0	48	104	0	77	23693
2026-01-27 21:49:57.83	221.64	20.43	-52.8	-57.3	3.7	0.00e+00	0	48	104	0	77	23912
2026-01-27 21:49:59.81	221.36	20.09	-52.8	-57.3	3.7	0.00e+00	0	48	104	0	77	23889
2026-01-27 21:50:01.79	221.09	19.75	-52.6	-57.3	3.7	0.00e+00	0	48	104	0	77	23768
2026-01-27 21:50:03.78	220.83	19.42	-52.6	-57.3	3.7	0.00e+00	0	48	104	0	77	23755
2026-01-27 21:50:05.77	220.57	19.09	-52.5	-57.2	3.7	0.00e+00	0	48	104	0	77	23567
2026-01-27 21:50:07.75	220.31	18.77	-52.7	-57.2	3.7	0.00e+00	0	48	104	0	77	23490
2026-01-27 21:50:09.74	220.07	18.45	-52.6	-57.1	3.7	0.00e+00	0	48	104	0	77	23365
2026-01-27 21:50:11.72	219.83	18.14	-52.6	-57.2	3.7	0.00e+00	0	48	104	0	77	23604
2026-01-27 21:50:13.71	219.59	17.83	-52.7	-57.2	3.7	0.00e+00	0	48	104	0	76	24992
2026-01-27 21:50:15.70	219.37	17.52	-52.8	-57.3	3.7	0.00e+00	0	48	104	0	76	25282
2026-01-27 21:50:17.68	219.14	17.23	-52.8	-57.4	3.7	0.00e+00	0	48	104	0	76	25631
2026-01-27 21:50:19.67	218.92	16.93	-52.9	-57.4	3.7	0.00e+00	0	48	104	0	76	25605
2026-01-27 21:50:21.65	218.71	16.64	-52.8	-57.3	3.7	0.00e+00	0	48	104	0	76	25301
2026-01-27 21:50:23.64	218.50	16.35	-52.6	-57.3	3.7	0.00e+00	0	48	104	0	76	25362
2026-01-27 21:50:25.63	218.30	16.07	-52.6	-57.2	3.7	0.00e+00	0	48	104	0	76	24907
2026-01-27 21:50:27.61	218.10	15.79	-52.4	-57.2	3.7	0.00e+00	0	48	104	0	76	24885
2026-01-27 21:50:29.60	217.91	15.51	-52.7	-57.4	3.7	0.00e+00	0	48	104	0	76	25389
2026-01-27 21:50:31.58	217.72	15.24	-52.6	-57.3	3.7	0.00e+00	0	48	104	0	76	25235
2026-01-27 21:50:33.57	217.53	14.97	-52.5	-57.1	3.7	0.00e+00	0	48	104	0	76	24768
2026-01-27 21:50:35.55	217.35	14.71	-52.5	-57.2	3.7	0.00e+00	0	48	104	0	76	24840
2026-01-27 21:50:37.54	217.17	14.45	-52.1	-56.9	3.7	0.00e+00	0	48	104	0	76	24003
2026-01-27 21:50:39.53	217.00	14.19	-52.2	-57.0	3.7	0.00e+00	0	48	104	0	76	24294
2026-01-27 21:50:41.51	216.83	13.94	-52.2	-57.0	3.7	0.00e+00	0	48	104	0	76	24279
2026-01-27 21:50:43.50	216.66	13.68	-52.2	-56.8	3.7	0.00e+00	0	48	104	0	76	23924
2026-01-27 21:50:45.48	216.50	13.44	-52.5	-57.0	3.7	0.00e+00	0	48	104	0	76	24508
2026-01-27 21:50:47.47	216.34	13.19	-52.5	-57.1	3.7	0.00e+00	0	48	104	0	76	24606
2026-01-27 21:50:49.46	216.18	12.95	-52.5	-57.2	3.7	0.00e+00	0	48	104	0	76	24892
2026-01-27 21:50:51.44	216.02	12.71	-52.6	-57.1	3.7	0.00e+00	0	48	104	0	76	24740
2026-01-27 21:50:53.43	215.87	12.47	-52.4	-56.9	3.7	0.00e+00	0	48	104	0	76	23979
2026-01-27 21:50:55.42	215.73	12.24	-52.5	-57.1	3.7	0.00e+00	0	48	104	0	76	24708
2026-01-27 21:50:57.40	215.58	12.01	-52.4	-56.8	3.7	0.00e+00	0	48	104	0	76	23931
2026-01-27 21:50:59.39	215.44	11.78	-52.5	-56.9	3.7	0.00e+00	0	48	104	0	76	24006
2026-01-27 21:51:01.37	215.30	11.56	-52.2	-56.9	3.7	0.00e+00	0	48	104	0	76	24157
2026-01-27 21:51:03.36	215.16	11.34	-52.5	-57.0	3.7	0.00e+00	0	48	104	0	76	24312
2026-01-27 21:51:05.34	215.03	11.12	-52.3	-57.0	3.6	0.00e+00	0	48	104	0	76	24476
2026-01-27 21:51:07.33	214.90	10.90	-52.3	-56.9	3.7	0.00e+00	0	48	104	0	76	24222
2026-01-27 21:51:09.32	214.77	10.68	-52.4	-57.0	3.7	0.00e+00	0	48	104	0	76	24401
2026-01-27 21:51:11.30	214.64	10.47	-52.4	-57.0	3.7	0.00e+00	0	48	104	0	76	24412
2026-01-27 21:51:13.29	214.52	10.26	-52.3	-56.9	3.7	0.00e+00	0	48	104	0	76	24157
2026-01-27 21:51:15.27	214.40	10.05	-52.3	-57.0	3.7	0.00e+00	0	48	104	0	76	24335
2026-01-27 21:51:17.26	214.28	9.85	-52.3	-56.9	3.7	0.00e+00	0	48	104	0	76	24032
2026-01-27 21:51:19.25	214.16	9.64	-52.3	-56.9	3.7	0.00e+00	0	48	104	0	76	24228
2026-01-27 21:51:21.23	214.04	9.44	-51.8	-56.5	3.7	0.00e+00	0	48	104	0	75	24519
2026-01-27 21:51:23.22	213.93	9.24	-52.3	-56.9	3.7	0.00e+00	0	48	104	0	75	25627
2026-01-27 21:51:25.20	213.82	9.05	-51.7	-56.5	3.7	0.00e+00	0	48	104	0	75	24438
2026-01-27 21:51:27.19	213.71	8.85	-50.6	-54.3	3.7	0.00e+00	0	49	104	0	71	23862
2026-01-27 21:51:29.18	213.60	8.66	-49.8	-54.5	3.7	0.00e+00	0	48	104	0	70	25786
2026-01-27 21:51:31.16	213.49	8.47	-52.3	-56.8	3.7	0.00e+00	0	48	104	0	75	25353
2026-01-27 21:51:33.15	213.39	8.28	-52.2	-57.0	3.7	0.00e+00	0	48	104	0	75	25959
2026-01-27 21:51:35.13	213.29	8.09	-52.2	-57.3	3.7	0.00e+00	0	48	104	0	76	25121
2026-01-27 21:51:37.12	213.19	7.90	-52.5	-57.4	3.7	0.00e+00	0	49	104	0	76	25581
2026-01-27 21:51:39.11	213.09	7.72	-52.4	-57.3	3.7	0.00e+00	0	49	104	0	76	25141
2026-01-27 21:51:41.09	212.99	7.54	-52.4	-57.1	3.7	0.00e+00	0	49	104	0	76	24789
2026-01-27 21:51:43.08	212.90	7.36	-52.4	-57.2	3.7	0.00e+00	0	49	104	0	76	25088
2026-01-27 21:51:45.06	212.80	7.18	-52.5	-57.0	3.7	0.00e+00	0	49	104	0	76	24520
2026-01-27 21:51:47.05	212.71	7.00	-51.9	-56.4	3.7	0.00e+00	0	49	104	0	75	24087
2026-01-27 21:51:49.04	212.62	6.82	-52.3	-56.6	3.7	0.00e+00	0	48	104	0	75	24569
2026-01-27 21:51:51.02	212.53	6.65	-52.1	-56.1	3.7	0.00e+00	0	48	104	0	75	23161
2026-01-27 21:51:53.01	212.44	6.48	-51.5	-55.3	3.7	0.00e+00	0	48	104	0	75	21166
2026-01-27 21:51:54.99	212.35	6.31	-51.5	-55.2	3.7	0.00e+00	0	48	104	0	75	21028
2026-01-27 21:51:56.98	212.27	6.14	-51.5	-55.2	3.7	0.00e+00	0	49	104	0	75	21032
2026-01-27 21:51:58.96	212.18	5.97	-51.5	-55.3	3.7	0.00e+00	0	48	104	0	75	21116
2026-01-27 21:52:00.95	212.10	5.80	-51.5	-55.2	3.7	0.00e+00	0	49	104	0	75	21045
2026-01-27 21:52:02.94	212.02	5.64	-51.5	-55.2	3.7	0.00e+00	0	48	104	0	75	21057
2026-01-27 21:52:04.92	211.94	5.47	-51.5	-55.2	3.7	0.00e+00	0	49	104	0	75	21028
2026-01-27 21:52:06.91	211.86	5.31	-51.5	-55.2	3.7	0.00e+00	0	48	104	0	75	21080
2026-01-27 21:52:08.89	211.78	5.15	-51.5	-55.2	3.7	0.00e+00	0	48	104	0	75	21011
2026-01-27 21:52:10.88	211.70	4.99	-51.5	-55.2	3.7	0.00e+00	0	49	104	0	75	21081

#Closed at: 2026-01-27 21:52:11
#Recorded file [0 MB]: D:/Data/31040_260128_004316.dat