passes_logs/2026/01/27/T1/T1__20260127_000749_FENGYUN_3D_rec.log

#Pass ID: 20260127_000749_FENGYUN 3D
#Satellite: FENGYUN 3D
#Configuration: FENGYUN 3D
#almurnet v.1.7.20251203
#Start time: 2026-01-27 00:07:51

#Version: 2.0.20230620
#Station: T1
#Location: 37.570604 lon 55.790049 lat
#TLE: 1 43010U 17072A   26026.49129444  .00000151  00000+0  93391-4 0  9993
#TLE: 2 43010  98.9962 358.4866 0002525  88.1664 271.9801 14.19700337424889

#Time	Az	El	Level	Level2	SNR	BER	BlckErr	Temp	State	Recorded	gain1	gain2
2026-01-27 00:07:51.27	32.28	5.11	-48.9	-61.2	3.8	8.47e-01	0	41	0	0	69	14827
2026-01-27 00:07:54.24	32.57	5.28	-48.8	-61.2	3.8	8.47e-01	0	41	104	0	68	15722
2026-01-27 00:07:57.22	32.86	5.44	-48.9	-61.2	3.8	8.47e-01	0	41	104	0	68	15724
2026-01-27 00:08:00.20	33.16	5.61	-48.8	-61.2	3.8	8.47e-01	0	42	104	0	68	15729
2026-01-27 00:08:03.18	33.45	5.77	-48.8	-61.2	3.8	8.47e-01	0	42	104	0	68	15669
2026-01-27 00:08:06.16	33.76	5.94	-48.8	-61.2	3.8	8.48e-01	0	42	104	0	68	15715
2026-01-27 00:08:09.14	34.06	6.11	-48.8	-61.2	3.8	8.47e-01	0	42	104	0	68	15705
2026-01-27 00:08:12.12	34.37	6.27	-48.8	-61.2	3.8	8.47e-01	0	42	104	0	68	15716
2026-01-27 00:08:15.10	34.68	6.44	-48.8	-61.2	3.8	8.47e-01	0	42	104	0	68	15660
2026-01-27 00:08:18.08	34.99	6.61	-48.8	-61.1	3.8	8.47e-01	0	42	104	0	68	15528
2026-01-27 00:08:21.05	35.31	6.78	-48.8	-61.1	3.8	8.46e-01	0	42	104	0	68	15473
2026-01-27 00:08:24.03	35.63	6.95	-48.8	-61.1	3.8	8.47e-01	0	42	104	0	68	15521
2026-01-27 00:08:27.01	35.96	7.12	-48.8	-61.2	3.8	8.47e-01	0	42	104	0	68	15643
2026-01-27 00:08:29.99	36.28	7.29	-48.8	-61.1	3.8	8.46e-01	0	42	104	0	68	15535
2026-01-27 00:08:32.97	36.62	7.46	-48.8	-61.0	3.8	8.47e-01	0	43	104	0	68	15323
2026-01-27 00:08:35.95	36.95	7.63	-48.8	-61.1	3.8	8.48e-01	0	42	104	0	68	15414
2026-01-27 00:08:38.93	37.29	7.80	-48.8	-60.6	3.8	8.47e-01	0	43	104	0	68	14619
2026-01-27 00:08:41.91	37.64	7.97	-48.8	-60.6	3.8	8.47e-01	0	43	104	0	68	14696
2026-01-27 00:08:44.89	37.99	8.14	-48.8	-61.1	3.8	8.46e-01	0	43	104	0	68	15482
2026-01-27 00:08:47.87	38.34	8.31	-48.8	-61.1	3.8	8.47e-01	0	43	104	0	68	15457
2026-01-27 00:08:50.85	38.69	8.48	-48.7	-60.3	3.8	8.47e-01	0	43	104	0	68	14070
2026-01-27 00:08:53.83	39.05	8.65	-48.6	-59.4	3.8	8.46e-01	0	43	104	0	68	12717
2026-01-27 00:08:56.81	39.42	8.83	-48.2	-56.5	4.6	8.27e-01	0	43	0	0	68	9098
2026-01-27 00:08:59.79	39.78	9.00	-45.1	-48.6	11.2	4.60e-03	0	43	0	12582912	62	5208
2026-01-27 00:09:02.78	40.16	9.17	-43.2	-45.8	14.2	8.81e-02	0	43	0	26214400	58	4755
2026-01-27 00:09:05.76	40.53	9.35	-39.5	-41.4	18.5	0.00e+00	0	43	0	42991616	50	4539
2026-01-27 00:09:08.75	40.92	9.52	-38.7	-40.6	19.3	0.00e+00	0	43	0	59768832	49	4367
2026-01-27 00:09:11.73	41.30	9.69	-38.6	-40.5	19.4	0.00e+00	0	43	0	76546048	49	4311
2026-01-27 00:09:14.71	41.69	9.87	-38.5	-40.4	19.6	0.00e+00	0	43	0	93323264	49	4247
2026-01-27 00:09:17.78	42.10	10.04	-38.4	-40.2	19.7	0.00e+00	0	43	0	111149056	48	4418
2026-01-27 00:09:20.73	42.49	10.22	-38.6	-40.4	19.5	0.00e+00	0	43	0	127926272	48	4537
2026-01-27 00:09:24.03	42.94	10.41	-38.6	-40.5	19.5	0.00e+00	0	43	0	145752064	48	4586
2026-01-27 00:09:26.76	43.31	10.57	-38.6	-40.5	19.5	0.00e+00	0	43	0	161480704	48	4552
2026-01-27 00:09:30.06	43.77	10.76	-38.4	-40.2	19.7	0.00e+00	0	43	0	180355072	48	4441
2026-01-27 00:09:32.91	44.17	10.92	-38.4	-40.2	19.7	0.00e+00	0	43	0	196083712	48	4432
2026-01-27 00:09:36.04	44.62	11.11	-38.3	-40.2	19.8	0.00e+00	0	43	0	213909504	48	4410
2026-01-27 00:09:38.89	45.03	11.27	-38.3	-40.1	19.9	0.00e+00	0	43	0	229638144	48	4373
2026-01-27 00:09:42.13	45.50	11.46	-38.3	-40.2	19.8	0.00e+00	0	43	0	248512512	48	4397
2026-01-27 00:09:45.04	45.92	11.63	-38.2	-40.0	20.0	0.00e+00	0	43	0	264241152	48	4314
2026-01-27 00:09:48.02	46.37	11.80	-38.0	-39.8	20.1	0.00e+00	0	43	0	281018368	48	4240
2026-01-27 00:09:51.01	46.82	11.97	-37.8	-39.6	20.2	0.00e+00	0	43	0	297795584	47	4355
2026-01-27 00:09:54.00	47.27	12.14	-37.7	-39.5	20.3	0.00e+00	0	43	0	314572800	47	4309
2026-01-27 00:09:56.98	47.73	12.32	-37.7	-39.5	20.2	0.00e+00	0	43	0	331350016	47	4326
2026-01-27 00:09:59.98	48.20	12.49	-37.7	-39.5	20.3	0.00e+00	0	43	0	348127232	47	4312
2026-01-27 00:10:02.96	48.67	12.66	-37.8	-39.6	20.2	0.00e+00	0	43	0	364904448	47	4371
2026-01-27 00:10:05.95	49.14	12.83	-37.7	-39.5	20.3	0.00e+00	0	43	0	381681664	47	4312
2026-01-27 00:10:08.93	49.62	13.00	-37.6	-39.4	20.4	0.00e+00	0	43	0	398458880	47	4247
2026-01-27 00:10:11.92	50.11	13.17	-37.5	-39.2	20.5	0.00e+00	0	43	0	415236096	46	4431
2026-01-27 00:10:14.99	50.61	13.34	-37.6	-39.3	20.4	0.00e+00	0	43	0	433061888	46	4493
2026-01-27 00:10:17.83	51.09	13.50	-37.5	-39.3	20.5	0.00e+00	0	43	0	448790528	46	4447
2026-01-27 00:10:20.95	51.61	13.67	-37.5	-39.3	20.5	0.00e+00	0	43	0	466616320	46	4480
2026-01-27 00:10:23.80	52.10	13.83	-37.2	-38.9	20.8	0.00e+00	0	43	0	482344960	46	4291
2026-01-27 00:10:27.00	52.65	14.01	-37.2	-39.0	20.8	0.00e+00	0	43	0	500170752	46	4308
2026-01-27 00:10:29.94	53.16	14.17	-37.2	-39.0	20.8	0.00e+00	0	43	0	516947968	46	4329
2026-01-27 00:10:33.21	53.73	14.35	-37.2	-39.0	20.8	0.00e+00	0	44	0	534773760	46	4318
2026-01-27 00:10:36.34	54.29	14.52	-37.2	-39.0	20.8	0.00e+00	0	43	0	552599552	46	4307
2026-01-27 00:10:39.18	54.80	14.67	-37.2	-39.0	20.9	0.00e+00	0	43	0	569376768	46	4311
2026-01-27 00:10:42.31	55.37	14.84	-37.1	-38.9	20.9	0.00e+00	0	43	0	586153984	46	4273
2026-01-27 00:10:45.16	55.89	14.99	-37.0	-38.8	21.0	0.00e+00	0	43	0	601882624	46	4197
2026-01-27 00:10:48.28	56.47	15.15	-36.9	-38.6	21.2	0.00e+00	0	43	0	619708416	45	4378
2026-01-27 00:10:51.13	57.00	15.30	-36.8	-38.5	21.3	0.00e+00	0	44	0	636485632	45	4330
2026-01-27 00:10:54.38	57.62	15.46	-36.8	-38.6	21.2	0.00e+00	0	44	0	654311424	45	4351
2026-01-27 00:10:57.23	58.16	15.61	-36.9	-38.7	21.1	0.00e+00	0	43	0	670040064	45	4396
2026-01-27 00:11:00.46	58.79	15.77	-36.7	-38.4	21.3	0.00e+00	0	44	0	688914432	45	4289
2026-01-27 00:11:03.31	59.34	15.91	-36.7	-38.4	21.4	0.00e+00	0	43	0	704643072	45	4285
2026-01-27 00:11:06.43	59.96	16.06	-36.7	-38.5	21.3	0.00e+00	0	44	0	722468864	45	4304
2026-01-27 00:11:09.28	60.52	16.20	-36.8	-38.6	21.2	0.00e+00	0	43	0	738197504	45	4345
2026-01-27 00:11:12.41	61.15	16.35	-36.8	-38.6	21.3	0.00e+00	0	44	0	756023296	45	4342
2026-01-27 00:11:15.33	61.74	16.48	-36.5	-38.2	21.6	0.00e+00	0	43	0	771751936	45	4177
2026-01-27 00:11:18.62	62.42	16.63	-36.6	-38.4	21.4	0.00e+00	0	43	0	790626304	44	4508
2026-01-27 00:11:21.33	62.98	16.76	-36.7	-38.5	21.4	0.00e+00	0	44	0	806354944	44	4565
2026-01-27 00:11:24.60	63.66	16.90	-36.6	-38.3	21.5	0.00e+00	0	43	0	824180736	44	4458
2026-01-27 00:11:27.30	64.22	17.02	-36.6	-38.3	21.5	0.00e+00	0	43	0	839909376	44	4464
2026-01-27 00:11:30.57	64.92	17.16	-36.4	-38.2	21.2	0.00e+00	0	44	0	857735168	44	4441
2026-01-27 00:11:33.39	65.52	17.28	-36.2	-38.0	21.4	0.00e+00	0	43	0	873463808	44	4328
2026-01-27 00:11:36.67	66.22	17.41	-36.2	-38.0	21.3	0.00e+00	0	43	0	892338176	44	4330
2026-01-27 00:11:39.39	66.81	17.52	-36.2	-38.1	21.3	0.00e+00	0	44	0	908066816	44	4342
2026-01-27 00:11:42.66	67.53	17.65	-36.0	-37.8	21.5	0.00e+00	0	44	0	925892608	44	4228
2026-01-27 00:11:45.47	68.15	17.75	-36.2	-38.1	21.3	0.00e+00	0	43	0	941621248	44	4347
2026-01-27 00:11:48.59	68.84	17.87	-36.3	-38.1	21.2	0.00e+00	0	44	0	959447040	44	4388
2026-01-27 00:11:52.06	69.62	17.99	-36.3	-38.1	21.3	0.00e+00	0	44	0	978321408	44	4363
2026-01-27 00:11:54.76	70.22	18.08	-36.2	-38.0	21.4	0.00e+00	0	44	0	994050048	44	4294
2026-01-27 00:11:58.03	70.96	18.19	-36.2	-38.0	21.3	0.00e+00	0	44	0	1012924416	44	4324
2026-01-27 00:12:00.75	71.59	18.28	-36.2	-38.0	21.3	0.00e+00	0	43	0	1027604480	44	4316
2026-01-27 00:12:04.13	72.36	18.38	-36.3	-38.1	21.3	0.00e+00	0	43	0	1046478848	44	4374
2026-01-27 00:12:06.87	72.99	18.46	-36.1	-37.9	21.5	0.00e+00	0	43	0	1062207488	44	4267
2026-01-27 00:12:10.22	73.77	18.56	-35.9	-37.7	21.5	0.00e+00	0	43	0	1081081856	43	4396
2026-01-27 00:12:12.94	74.41	18.63	-35.9	-37.7	21.5	0.00e+00	0	44	0	1095761920	43	4433
2026-01-27 00:12:16.20	75.17	18.71	-36.0	-37.8	21.4	0.00e+00	0	44	0	1114636288	43	4472
2026-01-27 00:12:19.01	75.84	18.78	-36.0	-37.8	21.4	0.00e+00	0	44	0	1130364928	43	4476
2026-01-27 00:12:22.19	76.59	18.86	-35.7	-37.5	21.6	0.00e+00	0	44	0	1148190720	43	4335
2026-01-27 00:12:25.33	77.34	18.92	-35.9	-37.7	21.5	0.00e+00	0	44	0	1166016512	43	4402
2026-01-27 00:12:28.50	78.09	18.99	-35.8	-37.6	21.6	0.00e+00	0	44	0	1183842304	43	4384
2026-01-27 00:12:31.34	78.78	19.04	-35.9	-37.7	21.5	0.00e+00	0	44	0	1199570944	43	4405
2026-01-27 00:12:34.47	79.53	19.09	-35.6	-37.4	21.8	0.00e+00	0	44	0	1217396736	43	4253
2026-01-27 00:12:37.32	80.22	19.14	-35.5	-37.3	21.9	0.00e+00	0	44	0	1233125376	43	4219
2026-01-27 00:12:40.53	81.00	19.18	-35.6	-37.4	21.8	0.00e+00	0	44	0	1251999744	43	4255
2026-01-27 00:12:43.37	81.69	19.22	-35.6	-37.4	21.8	0.00e+00	0	44	0	1267728384	43	4283
2026-01-27 00:12:46.70	82.50	19.26	-35.7	-37.5	21.7	0.00e+00	0	44	0	1286602752	43	4314
2026-01-27 00:12:49.42	83.16	19.28	-35.6	-37.4	21.8	0.00e+00	0	43	0	1301282816	43	4255
2026-01-27 00:12:52.71	83.97	19.31	-35.7	-37.5	21.7	0.00e+00	0	44	0	1320157184	43	4331
2026-01-27 00:12:55.56	84.66	19.33	-35.8	-37.6	21.6	0.00e+00	0	43	0	1335885824	43	4388
2026-01-27 00:12:58.69	85.43	19.35	-35.7	-37.5	21.7	0.00e+00	0	43	0	1353711616	43	4338
2026-01-27 00:13:01.81	86.20	19.36	-35.8	-37.6	21.6	0.00e+00	0	44	0	1371537408	43	4361
2026-01-27 00:13:04.66	86.90	19.36	-35.7	-37.5	21.6	0.00e+00	0	44	0	1387266048	43	4332
2026-01-27 00:13:07.78	87.66	19.36	-35.7	-37.5	21.6	0.00e+00	0	44	0	1405091840	43	4335
2026-01-27 00:13:10.70	88.38	19.36	-35.9	-37.7	21.5	0.00e+00	0	44	0	1420820480	43	4427
2026-01-27 00:13:14.03	89.20	19.35	-35.8	-37.7	21.5	0.00e+00	0	43	0	1439694848	43	4404
2026-01-27 00:13:16.96	89.92	19.34	-35.6	-37.4	21.8	0.00e+00	0	44	0	1456472064	43	4274
2026-01-27 00:13:20.23	90.72	19.32	-35.5	-37.3	21.9	0.00e+00	0	44	0	1475346432	43	4223
2026-01-27 00:13:22.94	91.38	19.30	-35.6	-37.4	21.8	0.00e+00	0	43	0	1490026496	42	4504
2026-01-27 00:13:26.23	92.19	19.27	-35.9	-37.8	21.4	0.00e+00	0	44	0	1508900864	42	4706
2026-01-27 00:13:28.95	92.85	19.24	-35.8	-37.6	21.5	0.00e+00	0	44	0	1523580928	42	4649
2026-01-27 00:13:32.22	93.65	19.20	-36.0	-37.9	21.4	0.00e+00	0	43	0	1542455296	42	4760
2026-01-27 00:13:35.20	94.37	19.16	-36.3	-38.1	21.1	0.00e+00	0	44	0	1559232512	43	4647
2026-01-27 00:13:38.19	95.10	19.11	-36.3	-38.2	21.1	0.00e+00	0	43	0	1576009728	43	4669
2026-01-27 00:13:41.27	95.84	19.06	-36.0	-37.8	21.4	0.00e+00	0	44	0	1592786944	43	4450
2026-01-27 00:13:44.25	96.56	19.01	-36.0	-37.8	21.4	0.00e+00	0	44	0	1609564160	43	4489
2026-01-27 00:13:47.47	97.33	18.95	-36.0	-37.8	21.3	0.00e+00	0	44	0	1628438528	43	4481
2026-01-27 00:13:50.32	98.01	18.89	-36.0	-37.8	21.4	0.00e+00	0	44	0	1644167168	43	4468
2026-01-27 00:13:53.44	98.75	18.82	-36.0	-37.8	21.4	0.00e+00	0	44	0	1661992960	43	4467
2026-01-27 00:13:56.29	99.43	18.75	-36.0	-37.8	21.4	0.00e+00	0	43	0	1677721600	43	4471
2026-01-27 00:13:59.42	100.17	18.67	-36.0	-37.8	21.5	0.00e+00	0	44	0	1695547392	43	4461
2026-01-27 00:14:02.26	100.83	18.59	-35.9	-37.7	21.5	0.00e+00	0	44	0	1711276032	43	4398
2026-01-27 00:14:05.72	101.64	18.50	-36.1	-37.9	21.3	0.00e+00	0	44	0	1731198976	43	4498
2026-01-27 00:14:08.44	102.27	18.42	-36.2	-38.0	21.2	0.00e+00	0	44	0	1745879040	43	4562
2026-01-27 00:14:11.72	103.03	18.32	-36.2	-38.1	21.2	0.00e+00	0	44	0	1764753408	43	4600
2026-01-27 00:14:14.50	103.67	18.23	-36.2	-38.0	21.3	0.00e+00	0	44	0	1780482048	43	4558
2026-01-27 00:14:17.77	104.41	18.12	-36.3	-38.2	21.1	0.00e+00	0	44	0	1798307840	43	4659
2026-01-27 00:14:20.62	105.06	18.03	-36.4	-38.3	21.0	0.00e+00	0	44	0	1814036480	43	4720
2026-01-27 00:14:23.75	105.76	17.92	-36.4	-38.2	21.1	0.00e+00	0	43	0	1831862272	43	4678
2026-01-27 00:14:26.59	106.40	17.81	-36.4	-38.2	21.0	0.00e+00	0	44	0	1847590912	43	4699
2026-01-27 00:14:29.71	107.09	17.70	-36.5	-38.3	20.9	0.00e+00	0	44	0	1865416704	43	4741
2026-01-27 00:14:32.56	107.72	17.59	-36.4	-38.3	20.9	0.00e+00	0	44	0	1881145344	43	4724
2026-01-27 00:14:35.72	108.41	17.46	-36.5	-38.3	20.9	0.00e+00	0	44	0	1898971136	43	4748
2026-01-27 00:14:38.70	109.06	17.34	-36.4	-38.3	21.0	0.00e+00	0	44	0	1915748352	43	4727
2026-01-27 00:14:42.01	109.77	17.21	-36.5	-38.4	20.9	0.00e+00	0	44	0	1934622720	43	4782
2026-01-27 00:14:44.72	110.35	17.09	-36.5	-38.3	20.9	0.00e+00	0	44	0	1950351360	43	4754
2026-01-27 00:14:48.06	111.05	16.95	-36.7	-38.6	20.8	0.00e+00	0	44	0	1969225728	44	4617
2026-01-27 00:14:50.88	111.65	16.82	-36.7	-38.5	20.9	0.00e+00	0	44	0	1984954368	44	4580
2026-01-27 00:14:54.26	112.35	16.67	-36.5	-38.3	21.1	0.00e+00	0	44	0	2003828736	44	4468
2026-01-27 00:14:56.96	112.91	16.54	-36.7	-38.5	20.9	0.00e+00	0	44	0	2018508800	44	4580
2026-01-27 00:15:00.25	113.58	16.39	-37.0	-38.9	20.6	0.00e+00	0	44	0	2037383168	44	4780
2026-01-27 00:15:02.97	114.13	16.26	-37.0	-38.9	20.5	0.00e+00	0	44	0	2053111808	44	4813
2026-01-27 00:15:06.24	114.78	16.10	-37.1	-38.9	20.5	0.00e+00	0	44	0	2070937600	44	4802
2026-01-27 00:15:08.99	115.33	15.97	-36.9	-38.8	20.7	0.00e+00	0	44	0	2086666240	44	4707
2026-01-27 00:15:12.29	115.98	15.81	-37.0	-38.9	20.6	0.00e+00	0	44	0	2105540608	44	4768
2026-01-27 00:15:15.00	116.51	15.67	-36.8	-38.6	20.8	0.00e+00	0	44	0	2120220672	44	4651
2026-01-27 00:15:18.28	117.14	15.50	-37.0	-38.8	20.6	0.00e+00	0	44	0	2139095040	44	4752
2026-01-27 00:15:21.06	117.67	15.36	-37.1	-39.0	20.4	0.00e+00	0	44	0	2154823680	45	4585
2026-01-27 00:15:24.35	118.29	15.19	-37.2	-39.1	20.3	0.00e+00	0	44	0	2172649472	45	4632
2026-01-27 00:15:27.06	118.80	15.05	-37.5	-39.4	20.1	0.00e+00	0	44	0	2188378112	45	4773
2026-01-27 00:15:30.35	119.41	14.87	-37.8	-39.8	19.8	0.00e+00	0	44	0	2206203904	46	4718
2026-01-27 00:15:33.23	119.94	14.72	-37.6	-39.5	20.0	0.00e+00	0	44	0	2222981120	46	4597
2026-01-27 00:15:36.65	120.56	14.53	-37.3	-39.1	20.3	0.00e+00	0	44	0	2241855488	46	4385
2026-01-27 00:15:39.70	121.10	14.37	-37.3	-39.2	20.3	0.00e+00	0	44	0	2259681280	46	4422
2026-01-27 00:15:42.56	121.61	14.21	-37.4	-39.3	20.2	0.00e+00	0	44	0	2275409920	46	4456
2026-01-27 00:15:45.68	122.16	14.04	-37.5	-39.3	20.2	0.00e+00	0	44	0	2293235712	46	4493
2026-01-27 00:15:48.52	122.65	13.88	-37.5	-39.4	20.1	0.00e+00	0	44	0	2308964352	46	4536
2026-01-27 00:15:51.75	123.21	13.70	-37.6	-39.5	20.1	0.00e+00	0	44	0	2326790144	46	4552
2026-01-27 00:15:54.84	123.73	13.53	-37.8	-39.7	19.8	0.00e+00	0	44	0	2344615936	46	4691
2026-01-27 00:15:57.97	124.25	13.35	-37.8	-39.8	19.7	0.00e+00	0	44	0	2361393152	46	4708
2026-01-27 00:16:00.81	124.73	13.19	-37.9	-39.8	19.8	0.00e+00	0	44	0	2378170368	46	4724
2026-01-27 00:16:03.93	125.24	13.01	-38.1	-40.1	19.5	0.00e+00	0	44	0	2395996160	47	4626
2026-01-27 00:16:06.79	125.70	12.85	-38.0	-40.0	19.5	0.00e+00	0	44	0	2411724800	47	4573
2026-01-27 00:16:10.25	126.26	12.65	-38.0	-39.9	19.7	0.00e+00	0	44	0	2430599168	47	4512
2026-01-27 00:16:13.30	126.74	12.47	-37.8	-39.7	19.8	0.00e+00	0	44	0	2448424960	47	4421
2026-01-27 00:16:16.15	127.18	12.31	-37.9	-39.9	19.7	0.00e+00	0	44	0	2464153600	47	4496
2026-01-27 00:16:19.41	127.69	12.12	-38.0	-39.9	19.6	0.00e+00	0	44	0	2483027968	47	4540
2026-01-27 00:16:22.20	128.12	11.96	-37.9	-39.8	19.7	0.00e+00	0	44	0	2498756608	47	4478
2026-01-27 00:16:25.60	128.63	11.76	-38.0	-40.0	19.5	0.00e+00	0	44	0	2517630976	47	4576
2026-01-27 00:16:28.30	129.03	11.60	-38.1	-40.0	19.4	0.00e+00	0	44	0	2532311040	47	4593
2026-01-27 00:16:31.61	129.52	11.41	-38.2	-40.2	19.3	0.00e+00	0	44	0	2551185408	47	4668
2026-01-27 00:16:34.31	129.92	11.25	-38.5	-40.5	19.1	0.00e+00	0	44	0	2565865472	47	4826
2026-01-27 00:16:37.58	130.39	11.06	-38.6	-40.6	18.9	0.00e+00	0	44	0	2584739840	47	4908
2026-01-27 00:16:40.29	130.77	10.90	-38.5	-40.5	19.0	0.00e+00	0	44	0	2600468480	47	4858
2026-01-27 00:16:43.56	131.23	10.71	-38.5	-40.4	19.1	0.00e+00	0	44	0	2618294272	47	4799
2026-01-27 00:16:46.26	131.61	10.55	-38.5	-40.5	19.1	0.00e+00	0	44	0	2634022912	47	4832
2026-01-27 00:16:49.75	132.09	10.34	-38.7	-40.7	18.8	0.00e+00	0	44	0	2652897280	47	4946
2026-01-27 00:16:52.45	132.46	10.18	-39.0	-41.1	18.7	0.00e+00	0	44	0	2668625920	48	4879
2026-01-27 00:16:55.72	132.90	9.99	-39.1	-41.1	18.6	0.00e+00	0	44	0	2687500288	49	4647
2026-01-27 00:16:58.50	133.27	9.83	-39.3	-41.3	18.4	0.00e+00	0	44	0	2702180352	49	4742
2026-01-27 00:17:01.77	133.70	9.64	-39.2	-41.3	18.5	0.00e+00	0	44	0	2721054720	49	4722
2026-01-27 00:17:04.72	134.08	9.46	-39.2	-41.2	18.6	0.00e+00	0	44	0	2737831936	49	4677
2026-01-27 00:17:07.99	134.50	9.27	-39.2	-41.3	18.5	0.00e+00	0	44	0	2755657728	49	4709
2026-01-27 00:17:10.72	134.84	9.11	-39.4	-41.5	18.2	0.00e+00	0	44	0	2771386368	49	4831
2026-01-27 00:17:13.98	135.25	8.92	-49.3	-61.6	3.8	8.46e-01	0	44	104	2782920704	69	15530
2026-01-27 00:17:16.70	135.59	8.76	-49.6	-61.8	3.8	8.47e-01	0	44	104	2782920704	70	14997
2026-01-27 00:17:19.96	135.99	8.57	-49.8	-61.9	3.8	8.45e-01	0	44	104	2782920704	70	15200
2026-01-27 00:17:22.67	136.31	8.41	-49.9	-62.0	3.8	8.46e-01	0	44	104	2782920704	70	15297
2026-01-27 00:17:25.93	136.70	8.22	-49.9	-62.0	3.8	8.48e-01	0	44	104	2782920704	70	15382
2026-01-27 00:17:28.64	137.02	8.06	-49.3	-62.0	3.8	8.47e-01	0	44	104	2782920704	70	15335
2026-01-27 00:17:31.91	137.41	7.87	-49.5	-62.0	3.8	8.46e-01	0	44	104	2782920704	70	15348
2026-01-27 00:17:34.62	137.72	7.72	-49.6	-62.0	3.8	8.47e-01	0	44	104	2782920704	70	15343
2026-01-27 00:17:37.88	138.09	7.53	-49.5	-62.0	3.8	8.48e-01	0	44	104	2782920704	70	15302
2026-01-27 00:17:40.58	138.40	7.37	-49.5	-62.0	3.8	8.47e-01	0	44	104	2782920704	70	15263
2026-01-27 00:17:43.84	138.76	7.18	-49.5	-62.0	3.8	8.47e-01	0	44	104	2782920704	70	15262
2026-01-27 00:17:46.57	139.06	7.03	-49.5	-62.0	3.8	8.48e-01	0	44	104	2782920704	70	15260
2026-01-27 00:17:49.85	139.42	6.84	-49.5	-62.0	3.8	8.48e-01	0	44	104	2782920704	70	15262
2026-01-27 00:17:52.54	139.71	6.68	-49.5	-62.0	3.8	8.48e-01	0	44	104	2782920704	70	15262
2026-01-27 00:17:55.81	140.06	6.50	-49.5	-61.9	3.8	8.46e-01	0	44	104	2782920704	70	15210
2026-01-27 00:17:58.52	140.34	6.34	-49.5	-61.9	3.8	8.48e-01	0	44	104	2782920704	70	15183
2026-01-27 00:18:01.78	140.68	6.16	-49.5	-62.0	3.8	8.47e-01	0	44	104	2782920704	70	15283
2026-01-27 00:18:04.50	140.96	6.00	-49.5	-61.9	3.8	8.46e-01	0	44	104	2782920704	70	15222
2026-01-27 00:18:07.77	141.29	5.82	-49.5	-62.0	3.8	8.47e-01	0	44	104	2782920704	70	15241
2026-01-27 00:18:10.48	141.57	5.67	-49.5	-62.0	3.8	8.48e-01	0	44	104	2782920704	70	15268
2026-01-27 00:18:13.77	141.90	5.48	-49.5	-61.9	3.8	8.46e-01	0	44	104	2782920704	70	15210
2026-01-27 00:18:16.48	142.16	5.33	-49.5	-61.9	3.8	8.48e-01	0	44	104	2782920704	70	15205
2026-01-27 00:18:19.74	142.48	5.14	-49.5	-62.0	3.8	8.47e-01	0	44	104	2782920704	70	15270
2026-01-27 00:18:22.45	142.74	4.99	-49.5	-61.9	3.8	8.47e-01	0	44	104	2782920704	70	15170

#Closed at: 2026-01-27 00:18:23
#Recorded file [2782 MB]: D:/Data/31040_260127_030751.dat