passes_logs/2026/01/27/T1/T1__20260127_201000_KHAYYAM_rec.log

#Pass ID: 20260127_201000_KHAYYAM
#Satellite: KHAYYAM
#Configuration: KHAYYAM_480M
#almurnet v.1.7.20251203
#Start time: 2026-01-27 20:10:01

#Version: 2.0.20230620
#Station: T1
#Location: 37.570604 lon 55.790049 lat
#TLE: 1 53370U 22096A   26026.90146174  .00008867  00000+0  36041-3 0  9990
#TLE: 2 53370  97.3549 293.6979 0002070 107.3099 252.8365 15.24778957193054

#Time	Az	El	Level	Level2	SNR	BER	BlckErr	Temp	State	Recorded	gain1	gain2
2026-01-27 20:10:01.05	32.88	5.03	-52.8	-57.4	3.5	0.00e+00	0	45	0	0	77	24176
2026-01-27 20:10:03.04	33.12	5.16	-53.3	-58.0	3.7	0.00e+00	0	46	104	0	78	24442
2026-01-27 20:10:05.03	33.37	5.29	-53.8	-58.3	3.7	0.00e+00	0	46	104	0	78	25199
2026-01-27 20:10:07.02	33.61	5.43	-53.7	-58.3	3.7	0.00e+00	0	46	104	0	78	25195
2026-01-27 20:10:09.01	33.87	5.56	-53.5	-58.1	3.7	0.00e+00	0	47	104	0	78	24691
2026-01-27 20:10:10.99	34.12	5.70	-53.5	-57.8	3.7	0.00e+00	0	47	104	0	78	23915
2026-01-27 20:10:12.98	34.38	5.83	-53.5	-58.0	3.7	0.00e+00	0	47	104	0	78	24476
2026-01-27 20:10:14.97	34.64	5.97	-52.3	-55.6	3.7	0.00e+00	0	47	104	0	76	20726
2026-01-27 20:10:16.96	34.90	6.10	-53.1	-57.1	3.7	0.00e+00	0	47	104	0	77	23319
2026-01-27 20:10:18.95	35.16	6.24	-52.4	-56.5	3.7	0.00e+00	0	47	104	0	76	22956
2026-01-27 20:10:20.94	35.43	6.38	-51.2	-54.4	3.8	0.00e+00	0	47	104	0	74	20342
2026-01-27 20:10:22.92	35.70	6.51	-51.2	-54.4	3.7	0.00e+00	0	48	104	0	74	20330
2026-01-27 20:10:24.91	35.98	6.65	-51.2	-54.4	3.7	0.00e+00	0	48	104	0	74	20290
2026-01-27 20:10:26.90	36.26	6.79	-51.2	-54.4	3.7	0.00e+00	0	48	104	0	74	20370
2026-01-27 20:10:28.89	36.54	6.93	-51.2	-54.4	3.7	0.00e+00	0	48	104	0	74	20250
2026-01-27 20:10:30.88	36.83	7.07	-51.2	-54.4	3.7	0.00e+00	0	48	104	0	74	20205
2026-01-27 20:10:32.87	37.12	7.21	-51.2	-54.4	3.7	0.00e+00	0	48	104	0	74	20251
2026-01-27 20:10:34.86	37.41	7.35	-51.2	-54.4	3.8	0.00e+00	0	48	104	0	74	20265
2026-01-27 20:10:36.85	37.70	7.49	-51.2	-54.4	3.7	0.00e+00	0	48	104	0	74	20310
2026-01-27 20:10:38.83	38.00	7.63	-51.2	-54.4	3.7	0.00e+00	0	48	104	0	74	20209
2026-01-27 20:10:40.82	38.30	7.78	-51.2	-54.4	3.8	0.00e+00	0	49	104	0	74	20197
2026-01-27 20:10:42.81	38.61	7.92	-51.2	-54.4	3.7	0.00e+00	0	49	104	0	74	20202
2026-01-27 20:10:44.80	38.92	8.06	-51.2	-54.4	3.7	0.00e+00	0	49	104	0	74	20220
2026-01-27 20:10:46.79	39.24	8.21	-51.2	-54.4	3.7	0.00e+00	0	49	104	0	74	20249
2026-01-27 20:10:48.77	39.55	8.35	-51.2	-54.4	3.7	0.00e+00	0	49	104	0	74	20230
2026-01-27 20:10:50.76	39.87	8.49	-51.2	-54.4	3.7	0.00e+00	0	49	104	0	74	20256
2026-01-27 20:10:52.75	40.20	8.64	-51.2	-54.4	3.8	0.00e+00	0	49	104	0	74	20221
2026-01-27 20:10:54.74	40.53	8.79	-51.2	-54.4	3.7	0.00e+00	0	49	104	0	74	20361
2026-01-27 20:10:56.72	40.86	8.93	-51.2	-54.4	3.7	0.00e+00	0	49	104	0	74	20263
2026-01-27 20:10:58.71	41.20	9.08	-51.5	-54.9	3.7	0.00e+00	0	49	104	0	74	21487
2026-01-27 20:11:00.70	41.54	9.23	-51.6	-55.0	3.7	0.00e+00	0	49	104	0	74	21788
2026-01-27 20:11:02.69	41.89	9.37	-52.2	-56.2	3.7	0.00e+00	0	49	104	0	74	24888
2026-01-27 20:11:04.67	42.24	9.52	-49.1	-51.6	4.1	0.00e+00	0	50	104	0	70	18480
2026-01-27 20:11:06.66	42.59	9.67	-48.8	-51.3	4.1	0.00e+00	0	49	104	0	69	18877
2026-01-27 20:11:08.65	42.95	9.82	-50.0	-52.9	3.8	0.00e+00	0	50	104	0	71	20200
2026-01-27 20:11:10.64	43.31	9.97	-51.2	-54.6	3.7	0.00e+00	0	50	104	0	74	20709
2026-01-27 20:11:12.63	43.68	10.12	-50.0	-52.7	4.0	0.00e+00	0	50	104	0	71	19826
2026-01-27 20:11:14.61	44.05	10.27	-50.9	-53.9	3.8	0.00e+00	0	50	104	0	72	21491
2026-01-27 20:11:16.60	44.43	10.42	-52.1	-55.9	3.7	0.00e+00	0	50	104	0	74	24069
2026-01-27 20:11:18.59	44.81	10.57	-51.8	-55.2	3.7	0.00e+00	0	50	104	0	75	20883
2026-01-27 20:11:20.58	45.20	10.72	-52.2	-55.9	3.7	0.00e+00	0	50	104	0	75	22869
2026-01-27 20:11:22.57	45.59	10.87	-52.3	-56.2	3.7	0.00e+00	0	50	104	0	75	23480
2026-01-27 20:11:24.56	45.99	11.02	-52.8	-57.0	3.7	0.00e+00	0	50	104	0	76	24445
2026-01-27 20:11:26.54	46.39	11.17	-52.6	-57.0	3.7	0.00e+00	0	50	104	0	76	24443
2026-01-27 20:11:28.53	46.79	11.32	-52.3	-56.9	3.7	0.00e+00	0	50	104	0	76	24242
2026-01-27 20:11:30.52	47.21	11.47	-52.3	-56.5	3.7	0.00e+00	0	50	104	0	76	22916
2026-01-27 20:11:32.51	47.62	11.62	-52.6	-57.0	3.7	0.00e+00	0	50	104	0	76	24428
2026-01-27 20:11:34.50	48.05	11.78	-52.7	-57.2	3.7	0.00e+00	0	50	104	0	76	24894
2026-01-27 20:11:36.48	48.47	11.93	-52.5	-56.9	3.7	0.00e+00	0	50	104	0	76	24095
2026-01-27 20:11:38.47	48.90	12.08	-52.0	-55.7	3.7	0.00e+00	0	50	104	0	76	21110
2026-01-27 20:11:40.46	49.34	12.23	-52.2	-56.2	3.7	0.00e+00	0	50	104	0	76	22234
2026-01-27 20:11:42.45	49.79	12.38	-52.8	-57.2	3.7	0.00e+00	0	50	104	0	76	24924
2026-01-27 20:11:44.43	50.23	12.53	-52.4	-56.2	3.7	0.00e+00	0	50	104	0	76	22235
2026-01-27 20:11:46.42	50.69	12.69	-52.7	-57.0	3.7	0.00e+00	0	50	104	0	76	24330
2026-01-27 20:11:48.41	51.15	12.84	-52.7	-56.8	3.7	0.00e+00	0	51	104	0	76	23775
2026-01-27 20:11:50.39	51.61	12.99	-52.9	-57.3	3.7	0.00e+00	0	51	104	0	76	25160
2026-01-27 20:11:52.38	52.08	13.14	-52.6	-56.8	3.7	0.00e+00	0	51	104	0	76	23852
2026-01-27 20:11:54.37	52.56	13.29	-52.8	-57.5	3.7	0.00e+00	0	51	104	0	76	25733
2026-01-27 20:11:56.36	53.04	13.44	-52.8	-57.4	3.7	0.00e+00	0	50	104	0	76	25578
2026-01-27 20:11:58.35	53.53	13.59	-52.8	-57.4	3.7	0.00e+00	0	51	104	0	76	25667
2026-01-27 20:12:00.34	54.03	13.74	-52.9	-57.4	3.7	0.00e+00	0	51	104	0	76	25672
2026-01-27 20:12:02.33	54.53	13.89	-53.1	-57.6	3.7	0.00e+00	0	51	104	0	76	26211
2026-01-27 20:12:04.31	55.04	14.04	-53.1	-57.7	3.7	0.00e+00	0	51	104	0	76	26542
2026-01-27 20:12:06.30	55.55	14.19	-53.2	-57.8	3.7	0.00e+00	0	51	104	0	77	25135
2026-01-27 20:12:08.29	56.07	14.33	-53.2	-57.7	3.7	0.00e+00	0	51	104	0	77	24980
2026-01-27 20:12:10.28	56.59	14.48	-53.2	-57.6	3.7	0.00e+00	0	51	104	0	77	24745
2026-01-27 20:12:12.27	57.12	14.62	-53.2	-57.6	3.7	0.00e+00	0	51	104	0	77	24759
2026-01-27 20:12:14.25	57.66	14.77	-53.2	-57.6	3.7	0.00e+00	0	51	104	0	77	24784
2026-01-27 20:12:16.24	58.20	14.91	-53.2	-57.5	3.7	0.00e+00	0	51	104	0	77	24513
2026-01-27 20:12:18.23	58.75	15.05	-52.9	-57.0	3.7	0.00e+00	0	51	104	0	77	23090
2026-01-27 20:12:20.22	59.31	15.20	-52.8	-57.0	3.7	0.00e+00	0	51	104	0	77	23104
2026-01-27 20:12:22.21	59.87	15.34	-52.8	-57.4	3.7	0.00e+00	0	51	104	0	77	23985
2026-01-27 20:12:24.20	60.44	15.48	-52.8	-57.3	3.7	0.00e+00	0	51	104	0	77	23866
2026-01-27 20:12:26.18	61.01	15.61	-53.2	-57.7	3.7	0.00e+00	0	51	104	0	77	24889
2026-01-27 20:12:28.17	61.59	15.75	-53.1	-57.7	3.7	0.00e+00	0	51	104	0	77	24913
2026-01-27 20:12:30.16	62.18	15.88	-53.3	-57.8	3.7	0.00e+00	0	51	104	0	77	25360
2026-01-27 20:12:32.14	62.77	16.02	-53.3	-57.8	3.7	0.00e+00	0	51	104	0	77	25213
2026-01-27 20:12:34.13	63.37	16.15	-53.4	-57.8	3.7	0.00e+00	0	51	104	0	77	25381
2026-01-27 20:12:36.12	63.98	16.28	-53.3	-57.8	3.7	0.00e+00	0	51	104	0	77	25316
2026-01-27 20:12:38.11	64.59	16.41	-53.2	-57.7	3.7	0.00e+00	0	51	104	0	77	25018
2026-01-27 20:12:40.09	65.21	16.53	-53.4	-57.9	3.7	0.00e+00	0	51	104	0	77	25394
2026-01-27 20:12:42.08	65.83	16.66	-53.3	-57.7	3.7	0.00e+00	0	51	104	0	77	24996
2026-01-27 20:12:44.07	66.46	16.78	-52.9	-57.5	3.7	0.00e+00	0	51	104	0	77	24383
2026-01-27 20:12:46.06	67.10	16.90	-53.0	-57.6	3.7	0.00e+00	0	51	104	0	77	24722
2026-01-27 20:12:48.05	67.74	17.02	-53.4	-57.8	3.7	0.00e+00	0	51	104	0	77	25325
2026-01-27 20:12:50.04	68.39	17.13	-53.4	-57.7	3.7	0.00e+00	0	51	104	0	77	24845
2026-01-27 20:12:52.03	69.04	17.25	-53.3	-57.7	3.7	0.00e+00	0	51	104	0	77	25001
2026-01-27 20:12:54.01	69.70	17.36	-53.2	-57.8	3.7	0.00e+00	0	51	104	0	77	25158
2026-01-27 20:12:56.00	70.36	17.46	-53.1	-57.6	3.7	0.00e+00	0	51	104	0	77	24532
2026-01-27 20:12:58.00	71.04	17.57	-53.0	-57.4	3.7	0.00e+00	0	51	104	0	77	24050
2026-01-27 20:12:59.98	71.71	17.67	-53.3	-57.8	3.7	0.00e+00	0	51	104	0	77	25188
2026-01-27 20:13:01.97	72.39	17.77	-53.3	-57.8	3.7	0.00e+00	0	51	104	0	77	25342
2026-01-27 20:13:03.97	73.08	17.87	-53.2	-57.7	3.7	0.00e+00	0	51	104	0	77	25002
2026-01-27 20:13:05.95	73.77	17.96	-53.2	-57.6	3.7	0.00e+00	0	51	104	0	77	24783
2026-01-27 20:13:07.94	74.46	18.05	-53.5	-57.9	3.7	0.00e+00	0	51	104	0	77	25594
2026-01-27 20:13:09.93	75.16	18.14	-53.4	-57.9	3.7	0.00e+00	0	51	104	0	77	25487
2026-01-27 20:13:11.92	75.87	18.22	-53.0	-57.7	3.7	0.00e+00	0	51	104	0	77	24809
2026-01-27 20:13:13.90	76.58	18.30	-52.9	-57.6	3.7	0.00e+00	0	51	104	0	77	24567
2026-01-27 20:13:15.89	77.29	18.38	-53.3	-57.9	3.7	0.00e+00	0	51	104	0	77	25418
2026-01-27 20:13:17.88	78.01	18.45	-53.2	-57.8	3.7	0.00e+00	0	51	104	0	77	25153
2026-01-27 20:13:19.87	78.73	18.52	-53.1	-57.7	3.7	0.00e+00	0	51	104	0	77	24909
2026-01-27 20:13:21.86	79.46	18.59	-53.1	-57.5	3.7	0.00e+00	0	51	104	0	77	24498
2026-01-27 20:13:23.85	80.19	18.65	-53.0	-57.6	3.7	0.00e+00	0	51	104	0	77	24552
2026-01-27 20:13:25.83	80.92	18.71	-52.7	-57.4	3.7	0.00e+00	0	51	104	0	77	24101
2026-01-27 20:13:27.83	81.66	18.76	-52.8	-57.6	3.7	0.00e+00	0	51	104	0	76	26206
2026-01-27 20:13:29.82	82.39	18.81	-52.7	-57.6	3.7	0.00e+00	0	51	104	0	76	26048
2026-01-27 20:13:31.81	83.14	18.86	-52.4	-57.3	3.7	0.00e+00	0	51	104	0	76	25279
2026-01-27 20:13:33.80	83.88	18.90	-51.9	-57.0	3.7	0.00e+00	0	51	104	0	75	25753
2026-01-27 20:13:35.79	84.63	18.93	-52.5	-57.5	3.7	0.00e+00	0	51	104	0	75	27362
2026-01-27 20:13:37.78	85.38	18.97	-52.4	-57.3	3.7	0.00e+00	0	51	104	0	75	26871
2026-01-27 20:13:39.76	86.12	19.00	-52.4	-57.1	3.7	0.00e+00	0	51	104	0	75	26128
2026-01-27 20:13:41.75	86.88	19.02	-52.3	-56.9	3.7	0.00e+00	0	51	104	0	75	25659
2026-01-27 20:13:43.74	87.63	19.04	-52.7	-57.3	3.7	0.00e+00	0	51	104	0	75	26612
2026-01-27 20:13:45.73	88.38	19.06	-52.7	-57.4	3.7	0.00e+00	0	51	104	0	76	25547
2026-01-27 20:13:47.72	89.14	19.07	-52.7	-57.2	3.6	0.00e+00	0	51	104	0	76	24925
2026-01-27 20:13:49.71	89.89	19.08	-52.9	-57.2	3.7	0.00e+00	0	51	104	0	76	24873
2026-01-27 20:13:51.70	90.65	19.08	-52.6	-57.1	3.7	0.00e+00	0	51	104	0	76	24596
2026-01-27 20:13:53.69	91.41	19.08	-53.0	-57.5	3.6	0.00e+00	0	51	104	0	76	25680
2026-01-27 20:13:55.67	92.16	19.07	-53.4	-57.9	3.7	0.00e+00	0	51	104	0	77	25569
2026-01-27 20:13:57.66	92.92	19.06	-53.4	-57.8	3.7	0.00e+00	0	51	104	0	77	25291
2026-01-27 20:13:59.65	93.67	19.05	-52.7	-57.5	3.7	0.00e+00	0	51	104	0	77	24379
2026-01-27 20:14:01.64	94.43	19.03	-52.9	-57.6	3.7	0.00e+00	0	51	104	0	77	24689
2026-01-27 20:14:03.62	95.18	19.01	-53.2	-57.8	3.7	0.00e+00	0	52	104	0	77	25111
2026-01-27 20:14:05.61	95.93	18.98	-53.2	-57.8	3.7	0.00e+00	0	52	104	0	77	25115
2026-01-27 20:14:07.60	96.68	18.95	-53.2	-57.9	3.7	0.00e+00	0	52	104	0	77	25428
2026-01-27 20:14:09.59	97.43	18.91	-53.3	-57.8	3.7	0.00e+00	0	51	104	0	77	25182
2026-01-27 20:14:11.58	98.17	18.87	-53.3	-57.8	3.7	0.00e+00	0	51	104	0	77	25105
2026-01-27 20:14:13.57	98.92	18.83	-53.3	-57.9	3.7	0.00e+00	0	51	104	0	77	25532
2026-01-27 20:14:15.55	99.65	18.78	-53.0	-57.7	3.7	0.00e+00	0	51	104	0	77	25011
2026-01-27 20:14:17.54	100.39	18.72	-53.1	-57.6	3.7	0.00e+00	0	51	104	0	77	24754
2026-01-27 20:14:19.53	101.13	18.67	-53.5	-57.9	3.7	0.00e+00	0	51	104	0	77	25486
2026-01-27 20:14:21.51	101.86	18.61	-53.3	-57.8	3.7	0.00e+00	0	51	104	0	77	25355
2026-01-27 20:14:23.50	102.59	18.54	-53.4	-57.9	3.7	0.00e+00	0	52	104	0	77	25423
2026-01-27 20:14:25.48	103.31	18.47	-53.4	-57.9	3.7	0.00e+00	0	51	104	0	77	25613
2026-01-27 20:14:27.47	104.03	18.40	-53.4	-57.9	3.7	0.00e+00	0	51	104	0	77	25648
2026-01-27 20:14:29.46	104.75	18.33	-53.2	-57.8	3.7	0.00e+00	0	51	104	0	77	25371
2026-01-27 20:14:31.45	105.46	18.25	-53.3	-57.9	3.7	0.00e+00	0	51	104	0	77	25440
2026-01-27 20:14:33.44	106.17	18.16	-53.3	-57.9	3.7	0.00e+00	0	52	104	0	77	25586
2026-01-27 20:14:35.42	106.87	18.08	-53.1	-57.8	3.7	0.00e+00	0	52	104	0	77	25274
2026-01-27 20:14:37.41	107.58	17.99	-53.1	-57.7	3.7	0.00e+00	0	51	104	0	77	25092
2026-01-27 20:14:39.40	108.27	17.90	-53.3	-57.9	3.7	0.00e+00	0	52	104	0	77	25402
2026-01-27 20:14:41.38	108.96	17.80	-53.3	-57.8	3.7	0.00e+00	0	52	104	0	77	25173
2026-01-27 20:14:43.37	109.64	17.70	-53.0	-57.7	3.7	0.00e+00	0	51	104	0	77	24808
2026-01-27 20:14:45.36	110.33	17.60	-52.9	-57.6	3.7	0.00e+00	0	52	104	0	77	24659
2026-01-27 20:14:47.35	111.00	17.50	-52.9	-57.6	3.7	0.00e+00	0	51	104	0	77	24557
2026-01-27 20:14:49.34	111.67	17.39	-53.1	-57.7	3.7	0.00e+00	0	52	104	0	77	24923
2026-01-27 20:14:51.32	112.33	17.28	-53.1	-57.8	3.7	0.00e+00	0	51	104	0	77	25118
2026-01-27 20:14:53.31	112.99	17.17	-53.2	-57.8	3.7	0.00e+00	0	51	104	0	77	25138
2026-01-27 20:14:55.30	113.64	17.05	-53.3	-57.8	3.7	0.00e+00	0	51	104	0	77	25134
2026-01-27 20:14:57.29	114.29	16.93	-53.4	-57.9	3.7	0.00e+00	0	51	104	0	77	25406
2026-01-27 20:14:59.27	114.93	16.81	-53.3	-57.8	3.7	0.00e+00	0	51	104	0	77	25165
2026-01-27 20:15:01.27	115.57	16.69	-53.3	-57.7	3.7	0.00e+00	0	51	104	0	77	25073
2026-01-27 20:15:03.25	116.19	16.56	-53.3	-57.8	3.7	0.00e+00	0	51	104	0	77	25193
2026-01-27 20:15:05.24	116.82	16.44	-53.2	-57.7	3.7	0.00e+00	0	51	104	0	77	24987
2026-01-27 20:15:07.23	117.44	16.31	-53.1	-57.6	3.6	0.00e+00	0	51	104	0	77	24702
2026-01-27 20:15:09.22	118.05	16.18	-53.1	-57.6	3.7	0.00e+00	0	51	104	0	77	24674
2026-01-27 20:15:11.21	118.65	16.05	-53.3	-57.8	3.7	0.00e+00	0	51	104	0	77	25139
2026-01-27 20:15:13.19	119.25	15.91	-53.5	-57.9	3.7	0.00e+00	0	51	104	0	77	25635
2026-01-27 20:15:15.18	119.84	15.78	-53.4	-57.8	3.7	0.00e+00	0	51	104	0	77	25313
2026-01-27 20:15:17.17	120.43	15.64	-53.2	-57.7	3.7	0.00e+00	0	52	104	0	77	25027
2026-01-27 20:15:19.16	121.01	15.50	-53.2	-57.7	3.7	0.00e+00	0	51	104	0	77	25013
2026-01-27 20:15:21.15	121.58	15.36	-53.2	-57.7	3.7	0.00e+00	0	51	104	0	77	24839
2026-01-27 20:15:23.14	122.15	15.22	-53.1	-57.7	3.7	0.00e+00	0	51	104	0	77	24890
2026-01-27 20:15:25.13	122.71	15.08	-53.4	-57.8	3.7	0.00e+00	0	51	104	0	77	25262
2026-01-27 20:15:27.12	123.27	14.93	-53.3	-57.7	3.7	0.00e+00	0	52	104	0	77	25092
2026-01-27 20:15:29.11	123.82	14.79	-53.1	-57.6	3.7	0.00e+00	0	52	104	0	77	24547
2026-01-27 20:15:31.10	124.36	14.64	-53.1	-57.6	3.7	0.00e+00	0	52	104	0	77	24553
2026-01-27 20:15:33.09	124.90	14.50	-53.3	-57.7	3.7	0.00e+00	0	51	104	0	77	25056
2026-01-27 20:15:35.07	125.42	14.35	-53.3	-57.8	3.7	0.00e+00	0	51	104	0	77	25121
2026-01-27 20:15:37.06	125.95	14.20	-53.3	-57.6	3.7	0.00e+00	0	51	104	0	77	24781
2026-01-27 20:15:39.05	126.47	14.05	-53.2	-57.6	3.7	0.00e+00	0	52	104	0	77	24559
2026-01-27 20:15:41.03	126.98	13.90	-52.7	-57.3	3.7	0.00e+00	0	52	104	0	77	23836
2026-01-27 20:15:43.02	127.48	13.75	-52.6	-57.3	3.7	0.00e+00	0	51	104	0	77	23730
2026-01-27 20:15:45.01	127.98	13.60	-52.6	-57.2	3.7	0.00e+00	0	52	104	0	76	24940
2026-01-27 20:15:47.00	128.48	13.45	-52.3	-57.1	3.7	0.00e+00	0	51	104	0	76	24563
2026-01-27 20:15:48.98	128.96	13.30	-52.8	-57.2	3.7	0.00e+00	0	52	104	0	76	24976
2026-01-27 20:15:50.97	129.45	13.15	-52.8	-57.2	3.7	0.00e+00	0	51	104	0	76	24972
2026-01-27 20:15:52.96	129.92	13.00	-53.0	-57.3	3.7	0.00e+00	0	52	104	0	76	25201
2026-01-27 20:15:54.95	130.39	12.84	-52.9	-57.2	3.7	0.00e+00	0	51	104	0	76	25074
2026-01-27 20:15:56.94	130.86	12.69	-52.6	-57.2	3.7	0.00e+00	0	52	104	0	76	25089
2026-01-27 20:15:58.93	131.32	12.54	-52.5	-57.2	3.7	0.00e+00	0	51	104	0	76	24812
2026-01-27 20:16:00.92	131.77	12.38	-52.7	-57.2	3.7	0.00e+00	0	52	104	0	76	24910
2026-01-27 20:16:02.91	132.22	12.23	-52.9	-57.3	3.7	0.00e+00	0	51	104	0	76	25293
2026-01-27 20:16:04.90	132.66	12.08	-52.6	-57.2	3.7	0.00e+00	0	51	104	0	76	24851
2026-01-27 20:16:06.88	133.10	11.92	-52.7	-57.2	3.7	0.00e+00	0	52	104	0	76	25001
2026-01-27 20:16:08.87	133.53	11.77	-52.9	-57.4	3.7	0.00e+00	0	51	104	0	76	25654
2026-01-27 20:16:10.86	133.96	11.62	-52.8	-57.3	3.7	0.00e+00	0	52	104	0	76	25176
2026-01-27 20:16:12.85	134.38	11.46	-52.4	-57.0	3.7	0.00e+00	0	51	104	0	76	24393
2026-01-27 20:16:14.84	134.79	11.31	-52.5	-57.0	3.7	0.00e+00	0	52	104	0	76	24495
2026-01-27 20:16:16.83	135.20	11.16	-52.8	-57.3	3.7	0.00e+00	0	52	104	0	76	25113
2026-01-27 20:16:18.82	135.61	11.00	-52.8	-57.2	3.7	0.00e+00	0	51	104	0	76	25006
2026-01-27 20:16:20.81	136.01	10.85	-53.0	-57.5	3.7	0.00e+00	0	51	104	0	76	25930
2026-01-27 20:16:22.80	136.40	10.70	-52.8	-57.4	3.7	0.00e+00	0	52	104	0	76	25538
2026-01-27 20:16:24.79	136.80	10.55	-52.7	-57.2	3.7	0.00e+00	0	51	104	0	76	25090
2026-01-27 20:16:26.77	137.18	10.39	-52.9	-57.3	3.7	0.00e+00	0	51	104	0	76	25333
2026-01-27 20:16:28.76	137.56	10.24	-52.9	-57.3	3.7	0.00e+00	0	52	104	0	76	25331
2026-01-27 20:16:30.75	137.94	10.09	-52.9	-57.4	3.7	0.00e+00	0	51	104	0	76	25427
2026-01-27 20:16:32.74	138.31	9.94	-52.7	-57.3	3.7	0.00e+00	0	51	104	0	76	25127
2026-01-27 20:16:34.73	138.68	9.79	-52.7	-57.2	3.7	0.00e+00	0	51	104	0	76	25085
2026-01-27 20:16:36.72	139.04	9.64	-52.6	-57.0	3.7	0.00e+00	0	52	104	0	76	24358
2026-01-27 20:16:38.71	139.40	9.49	-52.5	-57.0	3.7	0.00e+00	0	51	104	0	76	24246
2026-01-27 20:16:40.69	139.75	9.34	-52.3	-56.8	3.7	0.00e+00	0	51	104	0	76	23875
2026-01-27 20:16:42.68	140.10	9.19	-52.4	-57.0	3.7	0.00e+00	0	52	104	0	76	24418
2026-01-27 20:16:44.67	140.44	9.04	-52.1	-56.8	3.7	0.00e+00	0	51	104	0	75	25120
2026-01-27 20:16:46.66	140.78	8.89	-53.1	-57.4	3.7	0.00e+00	0	52	104	0	76	25460
2026-01-27 20:16:48.65	141.12	8.75	-53.2	-57.6	3.7	0.00e+00	0	51	104	0	77	24772
2026-01-27 20:16:50.64	141.45	8.60	-53.2	-57.7	3.7	0.00e+00	0	52	104	0	77	25014
2026-01-27 20:16:52.62	141.78	8.45	-53.6	-58.0	3.7	0.00e+00	0	51	104	0	77	25942
2026-01-27 20:16:54.61	142.10	8.31	-53.4	-58.0	3.7	0.00e+00	0	51	104	0	78	24505
2026-01-27 20:16:56.60	142.42	8.16	-53.3	-57.9	3.7	0.00e+00	0	51	104	0	78	24085
2026-01-27 20:16:58.59	142.74	8.01	-53.6	-58.0	3.7	0.00e+00	0	51	104	0	78	24383
2026-01-27 20:17:00.58	143.05	7.87	-52.9	-57.7	3.7	0.00e+00	0	51	104	0	77	25021
2026-01-27 20:17:02.57	143.36	7.72	-53.7	-58.3	3.7	0.00e+00	0	51	104	0	78	25163
2026-01-27 20:17:04.55	143.66	7.58	-52.8	-57.5	3.7	0.00e+00	0	52	104	0	77	24448
2026-01-27 20:17:06.54	143.96	7.44	-53.6	-57.9	3.7	0.00e+00	0	52	104	0	77	25663
2026-01-27 20:17:08.53	144.26	7.29	-53.4	-57.9	3.7	0.00e+00	0	52	104	0	78	23988
2026-01-27 20:17:10.52	144.56	7.15	-54.0	-58.4	3.7	0.00e+00	0	52	104	0	78	25461
2026-01-27 20:17:12.51	144.85	7.01	-53.6	-58.2	3.7	0.00e+00	0	52	104	0	78	24912
2026-01-27 20:17:14.50	145.13	6.87	-53.5	-58.1	3.7	0.00e+00	0	52	104	0	78	24617
2026-01-27 20:17:16.49	145.42	6.73	-53.6	-58.0	3.7	0.00e+00	0	51	104	0	78	24398
2026-01-27 20:17:18.48	145.70	6.59	-53.5	-58.0	3.7	0.00e+00	0	51	104	0	78	24454
2026-01-27 20:17:20.47	145.98	6.45	-53.3	-57.9	3.7	0.00e+00	0	51	104	0	78	24050
2026-01-27 20:17:22.46	146.25	6.31	-53.0	-57.8	3.7	0.00e+00	0	51	104	0	77	25328
2026-01-27 20:17:24.45	146.52	6.17	-52.9	-57.1	3.7	0.00e+00	0	51	104	0	77	23325
2026-01-27 20:17:26.44	146.79	6.03	-52.7	-56.4	3.7	0.00e+00	0	52	104	0	77	21528
2026-01-27 20:17:28.43	147.05	5.89	-52.0	-55.8	3.7	0.00e+00	0	52	104	0	76	21160
2026-01-27 20:17:30.42	147.31	5.76	-52.0	-55.7	3.7	0.00e+00	0	52	104	0	76	21095
2026-01-27 20:17:32.41	147.57	5.62	-52.0	-55.7	3.7	0.00e+00	0	51	104	0	76	21029
2026-01-27 20:17:34.40	147.83	5.49	-51.9	-55.6	3.7	0.00e+00	0	52	104	0	75	22078
2026-01-27 20:17:36.38	148.08	5.35	-51.9	-55.7	3.7	0.00e+00	0	51	104	0	75	22160
2026-01-27 20:17:38.37	148.33	5.22	-51.9	-55.7	3.7	0.00e+00	0	51	104	0	75	22151
2026-01-27 20:17:40.36	148.58	5.08	-51.9	-55.7	3.7	0.00e+00	0	52	104	0	75	22169
2026-01-27 20:17:42.34	148.82	4.95	-51.9	-55.7	3.7	0.00e+00	0	52	104	0	75	22179

#Closed at: 2026-01-27 20:17:43
#Recorded file [0 MB]: D:/Data/31040_260127_231001.dat