passes_logs/2026/01/27/T1/T1__20260127_002054_NOAA_21_JPSS-2_rec.log

#Pass ID: 20260127_002054_NOAA 21 (JPSS-2)
#Satellite: NOAA 21 (JPSS-2)
#Configuration: NOAA 21
#almurnet v.1.7.20251203
#Start time: 2026-01-27 00:20:55

#Version: 2.0.20230620
#Station: T1
#Location: 37.570604 lon 55.790049 lat
#TLE: 1 54234U 22150A   26026.43130734  .00000179  00000+0  10559-3 0  9998
#TLE: 2 54234  98.7509 327.1934 0000805 209.8356 150.2774 14.19539635166435

#Time	Az	El	Level	Level2	SNR	BER	BlckErr	Temp	State	Recorded	gain1	gain2
2026-01-27 00:20:55.22	12.21	5.08	-46.3	-62.2	3.8	1.49e+00	0	41	0	0	64	22107
2026-01-27 00:20:58.19	12.12	5.29	-46.4	-62.2	3.8	1.49e+00	0	42	104	0	63	23502
2026-01-27 00:21:01.17	12.02	5.50	-46.5	-62.2	3.8	1.49e+00	0	42	104	0	63	23432
2026-01-27 00:21:04.15	11.93	5.71	-46.4	-62.2	3.8	1.49e+00	0	42	104	0	63	23581
2026-01-27 00:21:07.12	11.83	5.92	-46.5	-62.3	3.8	1.49e+00	0	42	104	0	63	23629
2026-01-27 00:21:10.10	11.73	6.14	-46.5	-62.2	3.8	1.49e+00	0	42	104	0	63	23479
2026-01-27 00:21:13.08	11.63	6.35	-46.5	-61.9	3.8	1.49e+00	0	42	104	0	63	22770
2026-01-27 00:21:16.06	11.52	6.57	-46.3	-61.2	3.8	1.49e+00	0	42	104	0	63	21011
2026-01-27 00:21:19.04	11.42	6.79	-46.2	-60.6	3.8	1.49e+00	0	42	104	0	63	19461
2026-01-27 00:21:22.02	11.31	7.02	-46.3	-60.3	3.9	1.49e+00	0	42	104	0	63	18834
2026-01-27 00:21:25.00	11.20	7.24	-46.3	-61.2	3.8	1.49e+00	0	42	104	0	63	20995
2026-01-27 00:21:27.98	11.09	7.46	-46.4	-62.0	3.8	1.49e+00	0	43	104	0	63	22902
2026-01-27 00:21:30.96	10.98	7.69	-46.3	-61.8	3.8	1.49e+00	0	43	104	0	63	22422
2026-01-27 00:21:33.94	10.87	7.92	-46.1	-58.0	4.4	1.45e+00	0	43	104	0	63	14477
2026-01-27 00:21:36.92	10.75	8.15	-45.4	-52.9	8.0	9.71e-02	0	43	0	0	62	8495
2026-01-27 00:21:39.90	10.63	8.39	-44.3	-49.5	11.4	1.46e-03	0	43	0	0	60	6490
2026-01-27 00:21:42.88	10.51	8.62	-43.6	-47.6	13.4	2.05e-05	0	43	0	0	59	5523
2026-01-27 00:21:45.86	10.39	8.86	-43.6	-47.7	13.3	2.36e-05	0	43	0	0	58	5890
2026-01-27 00:21:48.84	10.27	9.10	-44.8	-50.7	10.2	1.08e-03	0	43	0	0	60	7440
2026-01-27 00:21:51.82	10.14	9.34	-40.5	-43.3	17.5	0.00e+00	0	43	0	0	53	4719
2026-01-27 00:21:54.81	10.01	9.59	-40.4	-43.1	17.6	0.00e+00	0	43	0	0	52	4908
2026-01-27 00:21:57.86	9.87	9.84	-40.1	-42.7	18.0	0.00e+00	0	43	0	0	52	4683
2026-01-27 00:22:00.70	9.75	10.08	-40.0	-42.6	18.1	0.00e+00	0	43	0	0	52	4623
2026-01-27 00:22:03.83	9.60	10.34	-40.0	-42.5	18.3	0.00e+00	0	43	0	0	51	4865
2026-01-27 00:22:06.67	9.47	10.58	-40.0	-42.5	18.3	0.00e+00	0	43	0	0	51	4851
2026-01-27 00:22:09.92	9.32	10.86	-40.0	-42.4	18.5	0.00e+00	0	43	0	0	51	4783
2026-01-27 00:22:12.82	9.18	11.11	-40.0	-42.4	18.5	0.00e+00	0	43	0	0	51	4767
2026-01-27 00:22:16.08	9.01	11.40	-39.9	-42.2	18.7	0.00e+00	0	43	0	0	51	4662
2026-01-27 00:22:18.97	8.87	11.66	-39.8	-42.1	18.8	0.00e+00	0	43	0	0	51	4604
2026-01-27 00:22:22.09	8.71	11.94	-39.6	-41.8	19.0	0.00e+00	0	43	0	0	51	4493
2026-01-27 00:22:24.95	8.56	12.20	-39.5	-41.6	19.3	0.00e+00	0	43	0	0	51	4377
2026-01-27 00:22:28.08	8.39	12.48	-39.6	-41.6	19.3	0.00e+00	0	43	0	0	50	4644
2026-01-27 00:22:30.92	8.23	12.74	-39.5	-41.5	19.3	0.00e+00	0	43	0	0	50	4591
2026-01-27 00:22:34.05	8.06	13.04	-39.5	-41.5	19.4	0.00e+00	0	43	0	0	50	4554
2026-01-27 00:22:36.89	7.90	13.30	-39.5	-41.5	19.3	0.00e+00	0	43	0	0	50	4577
2026-01-27 00:22:40.02	7.71	13.60	-39.6	-41.6	19.3	0.00e+00	0	43	0	0	50	4615
2026-01-27 00:22:42.86	7.55	13.88	-39.6	-41.6	19.2	0.00e+00	0	43	0	0	50	4648
2026-01-27 00:22:45.98	7.36	14.18	-39.6	-41.6	19.2	0.00e+00	0	43	0	0	50	4637
2026-01-27 00:22:48.82	7.18	14.46	-39.7	-41.7	19.2	0.00e+00	0	43	0	0	50	4677
2026-01-27 00:22:51.95	6.98	14.77	-39.8	-41.8	19.1	0.00e+00	0	43	0	0	50	4737
2026-01-27 00:22:54.84	6.80	15.06	-39.9	-41.9	19.1	0.00e+00	0	43	0	0	50	4768
2026-01-27 00:22:58.12	6.58	15.40	-39.9	-41.9	19.1	0.00e+00	0	43	0	0	50	4763
2026-01-27 00:23:00.89	6.39	15.68	-39.9	-41.8	19.1	0.00e+00	0	43	0	0	50	4758
2026-01-27 00:23:04.15	6.17	16.02	-39.8	-41.8	19.2	0.00e+00	0	43	0	0	50	4725
2026-01-27 00:23:07.03	5.97	16.33	-39.8	-41.7	19.2	0.00e+00	0	44	0	0	50	4701
2026-01-27 00:23:10.33	5.73	16.68	-39.8	-41.7	19.3	0.00e+00	0	43	0	0	50	4681
2026-01-27 00:23:13.26	5.51	16.99	-39.9	-41.8	19.2	0.00e+00	0	43	0	0	50	4721
2026-01-27 00:23:16.25	5.29	17.32	-40.0	-41.9	19.1	0.00e+00	0	43	0	0	50	4800
2026-01-27 00:23:19.23	5.05	17.65	-40.1	-42.1	19.0	0.00e+00	0	43	0	0	50	4873
2026-01-27 00:23:22.29	4.81	17.99	-40.1	-42.0	19.0	0.00e+00	0	43	0	0	51	4579
2026-01-27 00:23:25.32	4.57	18.34	-40.0	-41.9	19.1	0.00e+00	0	43	0	0	51	4517
2026-01-27 00:23:28.45	4.31	18.70	-40.0	-41.8	19.2	0.00e+00	0	44	0	0	51	4479
2026-01-27 00:23:31.29	4.07	19.03	-40.0	-41.9	19.2	0.00e+00	0	44	0	0	51	4500
2026-01-27 00:23:34.42	3.79	19.40	-39.7	-41.5	19.5	0.00e+00	0	44	0	0	51	4317
2026-01-27 00:23:37.26	3.54	19.74	-39.6	-41.5	19.5	0.00e+00	0	43	0	0	51	4295
2026-01-27 00:23:40.50	3.24	20.13	-39.6	-41.4	19.6	0.00e+00	0	43	0	0	51	4254
2026-01-27 00:23:43.34	2.98	20.47	-39.3	-41.1	19.8	0.00e+00	0	44	0	0	50	4344
2026-01-27 00:23:46.47	2.68	20.86	-39.3	-41.0	19.9	0.00e+00	0	43	0	0	50	4310
2026-01-27 00:23:49.31	2.40	21.22	-39.2	-40.9	19.9	0.00e+00	0	43	0	0	50	4271
2026-01-27 00:23:52.44	2.08	21.62	-38.7	-40.3	20.4	0.00e+00	0	43	0	0	49	4237
2026-01-27 00:23:55.28	1.79	21.98	-38.5	-40.2	20.6	0.00e+00	0	43	0	0	49	4175
2026-01-27 00:23:58.53	1.44	22.40	-38.5	-40.3	20.6	0.00e+00	0	43	0	0	49	4194
2026-01-27 00:24:01.37	1.13	22.78	-38.3	-39.9	20.8	0.00e+00	0	43	0	0	48	4286
2026-01-27 00:24:04.67	0.76	23.22	-38.5	-40.1	20.7	0.00e+00	0	43	0	0	48	4387
2026-01-27 00:24:07.56	0.43	23.61	-38.4	-40.0	20.9	0.00e+00	0	43	0	0	48	4324
2026-01-27 00:24:10.69	0.06	24.04	-38.5	-40.2	20.8	0.00e+00	0	44	0	0	48	4402
2026-01-27 00:24:13.53	359.71	24.44	-38.4	-40.1	20.7	0.00e+00	0	43	0	0	48	4357
2026-01-27 00:24:16.65	359.32	24.88	-38.7	-40.4	20.4	0.00e+00	0	43	0	0	48	4516
2026-01-27 00:24:19.94	358.90	25.35	-39.2	-40.9	20.0	0.00e+00	0	43	0	0	48	4785
2026-01-27 00:24:22.87	358.51	25.77	-39.3	-41.0	19.9	0.00e+00	0	44	0	0	49	4595
2026-01-27 00:24:25.85	358.10	26.21	-39.3	-41.0	20.0	0.00e+00	0	43	0	0	49	4587
2026-01-27 00:24:28.83	357.68	26.65	-39.6	-41.3	19.8	0.00e+00	0	43	0	0	49	4748
2026-01-27 00:24:31.82	357.25	27.10	-39.6	-41.3	19.7	0.00e+00	0	44	0	0	49	4743
2026-01-27 00:24:34.74	356.81	27.55	-39.9	-41.7	19.4	0.00e+00	0	43	0	0	50	4668
2026-01-27 00:24:37.87	356.34	28.03	-40.1	-41.9	19.3	0.00e+00	0	43	0	0	50	4779
2026-01-27 00:24:40.71	355.89	28.47	-40.2	-42.0	19.2	0.00e+00	0	44	0	0	51	4546
2026-01-27 00:24:43.84	355.38	28.97	-40.0	-41.8	19.3	0.00e+00	0	44	0	0	51	4442
2026-01-27 00:24:46.73	354.89	29.43	-39.6	-41.3	19.7	0.00e+00	0	43	0	0	51	4236
2026-01-27 00:24:50.00	354.33	29.96	-39.7	-41.4	19.5	0.00e+00	0	44	0	0	51	4275
2026-01-27 00:24:52.72	353.84	30.40	-39.7	-41.4	19.6	0.00e+00	0	43	0	0	51	4276
2026-01-27 00:24:56.00	353.24	30.95	-39.4	-41.1	19.9	0.00e+00	0	43	0	0	50	4368
2026-01-27 00:24:58.75	352.72	31.41	-39.2	-40.9	20.1	0.00e+00	0	44	0	0	50	4267
2026-01-27 00:25:02.05	352.07	31.97	-39.5	-41.2	19.6	0.00e+00	0	43	0	0	50	4426
2026-01-27 00:25:04.74	351.53	32.43	-39.8	-41.6	19.4	0.00e+00	0	43	0	0	50	4611
2026-01-27 00:25:08.21	350.80	33.03	-39.7	-41.5	19.6	0.00e+00	0	43	0	0	50	4571
2026-01-27 00:25:10.94	350.21	33.50	-39.7	-41.5	19.6	0.00e+00	0	44	0	0	50	4574
2026-01-27 00:25:14.24	349.47	34.08	-40.3	-42.2	19.0	0.00e+00	0	43	0	0	51	4687
2026-01-27 00:25:16.96	348.84	34.56	-40.7	-42.6	18.6	0.00e+00	0	43	0	0	52	4639
2026-01-27 00:25:20.24	348.06	35.15	-40.8	-42.7	18.5	0.00e+00	0	44	0	0	52	4653
2026-01-27 00:25:22.98	347.38	35.64	-40.8	-42.7	18.5	0.00e+00	0	44	0	0	52	4671
2026-01-27 00:25:26.23	346.55	36.23	-41.1	-43.1	18.1	0.00e+00	0	44	0	0	52	4893
2026-01-27 00:25:29.07	345.80	36.75	-41.3	-43.4	17.9	0.00e+00	0	44	0	0	53	4796
2026-01-27 00:25:32.20	344.94	37.32	-41.6	-43.8	17.5	0.00e+00	0	44	0	0	53	4996
2026-01-27 00:25:35.04	344.14	37.85	-41.7	-43.7	17.6	0.00e+00	0	44	0	0	54	4697
2026-01-27 00:25:38.26	343.20	38.44	-41.4	-43.4	17.9	0.00e+00	0	44	0	0	54	4511
2026-01-27 00:25:41.20	342.30	38.99	-41.3	-43.2	18.1	0.00e+00	0	44	0	0	54	4409
2026-01-27 00:25:44.39	341.30	39.58	-40.9	-42.8	18.4	0.00e+00	0	43	0	0	53	4474
2026-01-27 00:25:47.35	340.33	40.12	-41.2	-43.3	17.9	0.00e+00	0	44	0	0	53	4708
2026-01-27 00:25:50.48	339.28	40.70	-41.4	-43.4	17.7	0.00e+00	0	44	0	0	53	4809
2026-01-27 00:25:53.32	338.29	41.22	-42.0	-44.1	17.1	0.00e+00	0	44	0	0	54	4919
2026-01-27 00:25:56.45	337.15	41.80	-42.8	-45.1	16.4	0.00e+00	0	44	0	0	56	4901
2026-01-27 00:25:59.33	336.08	42.32	-42.4	-44.6	16.8	0.00e+00	0	44	0	0	56	4628
2026-01-27 00:26:02.45	334.87	42.88	-42.4	-44.7	16.7	0.00e+00	0	44	0	0	56	4695
2026-01-27 00:26:05.39	333.69	43.40	-42.0	-44.1	17.4	0.00e+00	0	44	0	0	56	4386
2026-01-27 00:26:08.38	332.46	43.93	-42.1	-44.1	17.1	0.00e+00	0	43	0	0	55	4645
2026-01-27 00:26:11.36	331.18	44.44	-42.3	-44.4	16.9	0.00e+00	0	44	0	0	55	4798
2026-01-27 00:26:14.34	329.86	44.95	-42.1	-44.2	17.0	0.00e+00	0	44	0	0	55	4694
2026-01-27 00:26:17.37	328.48	45.45	-42.2	-44.3	17.0	0.00e+00	0	44	0	0	55	4754
2026-01-27 00:26:20.35	327.08	45.93	-42.4	-44.6	16.8	0.00e+00	0	44	0	0	55	4905
2026-01-27 00:26:23.34	325.63	46.40	-41.7	-43.8	17.5	0.00e+00	0	44	0	0	55	4451
2026-01-27 00:26:26.70	323.95	46.91	-41.1	-43.1	18.2	0.00e+00	0	44	0	0	54	4344
2026-01-27 00:26:29.43	322.54	47.31	-41.7	-43.7	17.4	0.00e+00	0	44	0	0	54	4696
2026-01-27 00:26:32.70	320.81	47.76	-42.2	-44.3	17.0	0.00e+00	0	44	0	0	55	4724
2026-01-27 00:26:35.48	319.30	48.13	-42.9	-45.1	16.2	0.00e+00	0	44	0	0	56	4922
2026-01-27 00:26:38.72	317.49	48.53	-42.6	-44.9	16.7	0.00e+00	0	44	0	0	56	4781
2026-01-27 00:26:41.80	315.73	48.89	-42.5	-44.6	16.9	0.00e+00	0	44	0	0	56	4634
2026-01-27 00:26:44.81	313.97	49.21	-41.6	-43.7	17.6	0.00e+00	0	44	0	0	55	4413
2026-01-27 00:26:47.80	312.18	49.50	-42.0	-44.1	17.3	0.00e+00	0	44	0	0	55	4612
2026-01-27 00:26:50.78	310.37	49.77	-41.8	-43.9	17.4	0.00e+00	0	44	0	0	55	4527
2026-01-27 00:26:53.78	308.52	50.00	-41.2	-43.2	17.9	0.00e+00	0	44	0	0	54	4404
2026-01-27 00:26:56.75	306.66	50.20	-41.2	-43.2	18.0	0.00e+00	0	44	0	0	54	4425
2026-01-27 00:27:00.13	304.51	50.40	-41.7	-43.7	17.6	0.00e+00	0	44	0	0	54	4702
2026-01-27 00:27:02.85	302.76	50.52	-41.7	-43.8	17.6	0.00e+00	0	44	0	0	54	4706
2026-01-27 00:27:06.12	300.65	50.63	-41.1	-43.0	18.2	0.00e+00	0	44	0	0	54	4317
2026-01-27 00:27:09.12	298.69	50.70	-41.1	-43.0	18.1	0.00e+00	0	44	0	0	54	4313
2026-01-27 00:27:12.48	296.50	50.73	-41.2	-43.2	17.9	0.00e+00	0	44	0	0	54	4403
2026-01-27 00:27:15.21	294.71	50.72	-41.8	-43.8	17.4	0.00e+00	0	44	0	0	54	4751
2026-01-27 00:27:18.49	292.57	50.67	-41.7	-43.7	17.4	0.00e+00	0	44	0	0	54	4670
2026-01-27 00:27:21.21	290.80	50.60	-41.6	-43.6	17.5	0.00e+00	0	44	0	0	54	4611
2026-01-27 00:27:24.48	288.69	50.48	-41.4	-43.4	17.7	0.00e+00	0	44	0	0	54	4510
2026-01-27 00:27:27.20	286.95	50.35	-42.0	-44.1	17.1	0.00e+00	0	44	0	0	54	4908
2026-01-27 00:27:30.64	284.77	50.14	-41.5	-43.5	17.5	0.00e+00	0	44	0	0	54	4578
2026-01-27 00:27:33.37	283.06	49.94	-41.4	-43.3	17.8	0.00e+00	0	43	0	0	54	4476
2026-01-27 00:27:36.77	280.97	49.66	-40.7	-42.6	18.4	0.00e+00	0	44	0	0	53	4347
2026-01-27 00:27:39.47	279.34	49.42	-41.3	-43.3	17.8	0.00e+00	0	44	0	0	53	4722
2026-01-27 00:27:42.74	277.40	49.08	-41.3	-43.3	17.9	0.00e+00	0	44	0	0	54	4468
2026-01-27 00:27:45.46	275.81	48.78	-41.2	-43.2	17.9	0.00e+00	0	44	0	0	54	4397
2026-01-27 00:27:48.76	273.94	48.39	-41.4	-43.3	18.0	0.00e+00	0	44	0	0	54	4460
2026-01-27 00:27:51.48	272.43	48.05	-40.1	-41.8	19.3	0.00e+00	0	44	0	0	52	4238
2026-01-27 00:27:54.74	270.66	47.61	-42.0	-44.1	17.0	0.00e+00	0	44	0	0	54	4885
2026-01-27 00:27:57.45	269.24	47.23	-41.5	-43.6	17.5	0.00e+00	0	44	0	0	55	4349
2026-01-27 00:28:00.71	267.56	46.74	-41.4	-43.3	18.0	0.00e+00	0	44	0	0	53	4745
2026-01-27 00:28:03.43	266.21	46.33	-42.0	-44.1	16.9	0.00e+00	0	44	0	0	55	4604
2026-01-27 00:28:06.72	264.62	45.81	-40.3	-42.0	19.1	0.00e+00	0	44	0	0	51	4587
2026-01-27 00:28:09.45	263.34	45.36	-43.8	-46.5	15.2	0.00e+00	0	44	0	0	58	5111
2026-01-27 00:28:12.73	261.85	44.81	-41.4	-43.4	17.1	0.00e+00	0	44	0	0	54	4532
2026-01-27 00:28:15.43	260.66	44.35	-40.6	-42.5	18.5	0.00e+00	0	44	0	0	52	4589
2026-01-27 00:28:18.70	259.26	43.78	-44.0	-46.6	14.8	0.00e+00	0	44	0	0	58	5181
2026-01-27 00:28:21.69	258.03	43.26	-42.1	-44.3	16.5	0.00e+00	0	44	0	0	56	4457
2026-01-27 00:28:24.82	256.79	42.69	-42.6	-44.8	16.5	0.00e+00	0	44	0	0	56	4736
2026-01-27 00:28:27.85	255.62	42.15	-42.6	-44.7	16.7	0.00e+00	0	44	0	0	56	4694
2026-01-27 00:28:30.97	254.46	41.57	-40.9	-42.8	18.1	0.00e+00	0	44	0	0	53	4483
2026-01-27 00:28:33.81	253.45	41.05	-42.1	-44.1	17.1	0.00e+00	0	44	0	0	54	4914
2026-01-27 00:28:36.94	252.36	40.47	-42.8	-45.0	16.3	0.00e+00	0	44	0	0	57	4582
2026-01-27 00:28:39.88	251.38	39.93	-41.5	-43.5	17.8	0.00e+00	0	44	0	0	55	4301
2026-01-27 00:28:43.00	250.37	39.35	-41.7	-43.8	17.5	0.00e+00	0	43	0	0	54	4708
2026-01-27 00:28:45.84	249.48	38.82	-42.5	-44.8	16.4	0.00e+00	0	44	0	0	55	4987
2026-01-27 00:28:48.97	248.53	38.24	-41.1	-43.1	18.0	0.00e+00	0	44	0	0	54	4347
2026-01-27 00:28:51.82	247.70	37.71	-41.2	-43.1	18.2	0.00e+00	0	44	0	0	53	4623
2026-01-27 00:28:55.01	246.80	37.12	-42.3	-44.4	16.9	0.00e+00	0	44	0	0	55	4806
2026-01-27 00:28:57.91	246.01	36.59	-41.4	-43.4	17.9	0.00e+00	0	44	0	0	54	4516
2026-01-27 00:29:01.10	245.17	36.00	-40.1	-41.9	19.1	0.00e+00	0	44	0	0	52	4269
2026-01-27 00:29:04.00	244.44	35.48	-39.5	-41.2	19.9	0.00e+00	0	44	0	0	51	4179
2026-01-27 00:29:06.99	243.70	34.94	-40.2	-42.0	19.0	0.00e+00	0	44	0	0	51	4591
2026-01-27 00:29:09.97	242.99	34.40	-39.8	-41.6	19.4	0.00e+00	0	44	0	0	51	4355
2026-01-27 00:29:12.95	242.30	33.87	-40.7	-42.6	18.4	0.00e+00	0	44	0	0	52	4602
2026-01-27 00:29:16.01	241.62	33.33	-40.4	-42.2	18.8	0.00e+00	0	44	0	0	52	4417
2026-01-27 00:29:18.86	241.01	32.83	-39.6	-41.4	19.6	0.00e+00	0	43	0	0	51	4249
2026-01-27 00:29:21.99	240.35	32.29	-39.8	-41.5	19.6	0.00e+00	0	44	0	0	51	4322
2026-01-27 00:29:24.84	239.78	31.80	-39.7	-41.5	19.5	0.00e+00	0	44	0	0	51	4314
2026-01-27 00:29:27.97	239.16	31.27	-39.7	-41.5	19.7	0.00e+00	0	44	0	0	51	4300
2026-01-27 00:29:30.81	238.62	30.80	-39.4	-41.1	19.8	0.00e+00	0	44	0	0	50	4376
2026-01-27 00:29:34.12	238.02	30.25	-39.5	-41.3	19.8	0.00e+00	0	44	0	0	50	4470
2026-01-27 00:29:36.84	237.53	29.80	-39.4	-41.1	20.0	0.00e+00	0	44	0	0	50	4364
2026-01-27 00:29:40.12	236.96	29.27	-39.8	-41.6	19.6	0.00e+00	0	44	0	0	50	4611
2026-01-27 00:29:42.88	236.50	28.82	-39.6	-41.3	19.6	0.00e+00	0	43	0	0	50	4478
2026-01-27 00:29:46.15	235.97	28.31	-39.7	-41.5	19.3	0.00e+00	0	44	0	0	50	4566
2026-01-27 00:29:49.09	235.50	27.85	-39.4	-41.2	19.7	0.00e+00	0	44	0	0	50	4410
2026-01-27 00:29:52.36	235.00	27.34	-39.2	-40.9	20.0	0.00e+00	0	44	0	0	50	4289
2026-01-27 00:29:55.06	234.60	26.93	-39.1	-40.9	20.0	0.00e+00	0	44	0	0	50	4250
2026-01-27 00:29:58.34	234.13	26.44	-39.2	-41.0	20.0	0.00e+00	0	44	0	0	49	4550
2026-01-27 00:30:01.05	233.75	26.03	-39.3	-41.1	20.0	0.00e+00	0	44	0	0	49	4600
2026-01-27 00:30:04.32	233.30	25.55	-39.5	-41.3	19.8	0.00e+00	0	44	0	0	49	4707
2026-01-27 00:30:07.02	232.95	25.16	-39.9	-41.7	19.4	0.00e+00	0	44	0	0	50	4679
2026-01-27 00:30:10.29	232.52	24.69	-40.0	-41.8	19.3	0.00e+00	0	44	0	0	50	4750
2026-01-27 00:30:12.99	232.18	24.31	-39.6	-41.4	19.7	0.00e+00	0	44	0	0	50	4535
2026-01-27 00:30:16.26	231.79	23.85	-39.4	-41.1	19.9	0.00e+00	0	44	0	0	50	4389
2026-01-27 00:30:19.01	231.46	23.48	-39.5	-41.2	19.8	0.00e+00	0	43	0	0	50	4438
2026-01-27 00:30:22.29	231.08	23.03	-39.0	-40.7	20.1	0.00e+00	0	44	0	0	50	4184
2026-01-27 00:30:25.10	230.76	22.65	-39.0	-40.7	20.1	0.00e+00	0	44	0	0	50	4179
2026-01-27 00:30:28.23	230.42	22.24	-39.4	-41.1	19.8	0.00e+00	0	44	0	0	50	4365
2026-01-27 00:30:31.07	230.11	21.87	-39.4	-41.1	19.9	0.00e+00	0	43	0	0	50	4357
2026-01-27 00:30:34.20	229.79	21.46	-39.4	-41.1	19.9	0.00e+00	0	43	0	0	50	4376
2026-01-27 00:30:37.04	229.50	21.10	-39.5	-41.2	19.7	0.00e+00	0	44	0	0	50	4439
2026-01-27 00:30:40.17	229.19	20.71	-39.4	-41.1	19.7	0.00e+00	0	44	0	0	50	4376
2026-01-27 00:30:43.33	228.88	20.31	-39.1	-40.8	19.9	0.00e+00	0	44	0	0	50	4233
2026-01-27 00:30:46.31	228.60	19.95	-38.8	-40.4	20.3	0.00e+00	0	44	0	0	49	4272
2026-01-27 00:30:49.29	228.33	19.59	-38.8	-40.5	20.3	0.00e+00	0	44	0	0	49	4308
2026-01-27 00:30:52.28	228.06	19.23	-39.1	-40.8	20.1	0.00e+00	0	44	0	0	49	4448
2026-01-27 00:30:55.26	227.80	18.88	-39.3	-41.0	19.9	0.00e+00	0	44	0	0	49	4583
2026-01-27 00:30:58.24	227.54	18.53	-39.7	-41.4	19.5	0.00e+00	0	44	0	0	49	4807
2026-01-27 00:31:01.23	227.29	18.19	-39.7	-41.5	19.4	0.00e+00	0	44	0	0	50	4581
2026-01-27 00:31:04.22	227.05	17.85	-39.9	-41.6	19.3	0.00e+00	0	43	0	0	50	4651
2026-01-27 00:31:07.56	226.78	17.47	-40.0	-41.8	19.1	0.00e+00	0	43	0	0	50	4740
2026-01-27 00:31:10.27	226.57	17.17	-40.1	-41.9	19.0	0.00e+00	0	44	0	0	50	4809
2026-01-27 00:31:13.53	226.32	16.81	-40.2	-42.0	18.9	0.00e+00	0	44	0	0	51	4592
2026-01-27 00:31:16.38	226.11	16.50	-40.2	-42.0	18.9	0.00e+00	0	44	0	0	51	4590
2026-01-27 00:31:19.78	225.86	16.14	-40.0	-41.8	19.1	0.00e+00	0	44	0	0	51	4485
2026-01-27 00:31:22.48	225.67	15.85	-39.9	-41.7	19.2	0.00e+00	0	44	0	0	51	4406
2026-01-27 00:31:25.78	225.44	15.51	-40.0	-41.8	19.1	0.00e+00	0	44	0	0	51	4473
2026-01-27 00:31:28.50	225.26	15.23	-39.8	-41.5	19.3	0.00e+00	0	44	0	0	51	4340
2026-01-27 00:31:31.77	225.04	14.89	-39.8	-41.6	19.2	0.00e+00	0	44	0	0	51	4373
2026-01-27 00:31:34.71	224.85	14.60	-39.9	-41.8	19.1	0.00e+00	0	44	0	0	51	4444
2026-01-27 00:31:38.00	224.64	14.27	-40.1	-41.9	19.0	0.00e+00	0	44	0	0	51	4509
2026-01-27 00:31:40.73	224.46	14.00	-40.3	-42.1	18.8	0.00e+00	0	44	0	0	51	4628
2026-01-27 00:31:44.03	224.26	13.68	-40.3	-42.2	18.7	0.00e+00	0	44	0	0	51	4676
2026-01-27 00:31:46.76	224.10	13.41	-40.4	-42.3	18.6	0.00e+00	0	44	0	0	51	4750
2026-01-27 00:31:50.14	223.90	13.09	-40.6	-42.5	18.3	0.00e+00	0	44	0	0	52	4584
2026-01-27 00:31:53.23	223.72	12.80	-40.6	-42.6	18.2	0.00e+00	0	44	0	0	52	4618
2026-01-27 00:31:56.36	223.55	12.51	-40.8	-42.8	17.9	0.00e+00	0	44	0	0	52	4734
2026-01-27 00:31:59.20	223.39	12.25	-40.7	-42.7	18.0	0.00e+00	0	44	0	0	52	4672
2026-01-27 00:32:02.33	223.22	11.96	-40.7	-42.7	18.0	0.00e+00	0	44	0	0	52	4672
2026-01-27 00:32:05.26	223.06	11.69	-40.6	-42.5	18.1	0.00e+00	0	44	0	0	52	4587
2026-01-27 00:32:08.39	222.90	11.41	-40.6	-42.5	18.1	0.00e+00	0	44	0	0	52	4575
2026-01-27 00:32:11.23	222.75	11.16	-40.5	-42.5	18.1	0.00e+00	0	44	0	0	52	4557
2026-01-27 00:32:14.36	222.60	10.89	-40.5	-42.5	18.0	0.00e+00	0	44	0	0	52	4590
2026-01-27 00:32:17.20	222.46	10.64	-40.5	-42.5	18.1	0.00e+00	0	44	0	0	52	4547
2026-01-27 00:32:20.37	222.30	10.37	-40.7	-42.7	17.9	0.00e+00	0	44	0	0	52	4663
2026-01-27 00:32:23.25	222.17	10.12	-40.5	-42.6	18.0	0.00e+00	0	44	0	0	52	4604
2026-01-27 00:32:26.38	222.02	9.86	-40.7	-42.7	17.9	0.00e+00	0	44	0	0	52	4688
2026-01-27 00:32:29.30	221.89	9.62	-40.8	-42.9	17.7	0.00e+00	0	44	0	0	52	4784
2026-01-27 00:32:32.49	221.74	9.35	-40.8	-43.1	17.6	0.00e+00	0	44	0	0	52	4882
2026-01-27 00:32:35.33	221.62	9.12	-40.9	-43.3	17.4	0.00e+00	0	44	0	0	52	4984
2026-01-27 00:32:38.46	221.48	8.86	-49.1	-62.5	3.8	1.49e+00	0	44	104	0	69	17266
2026-01-27 00:32:41.30	221.36	8.64	-49.5	-62.8	3.8	1.49e+00	0	44	104	0	69	17785
2026-01-27 00:32:44.48	221.23	8.38	-49.7	-62.9	3.8	1.49e+00	0	44	104	0	70	17000
2026-01-27 00:32:47.39	221.11	8.15	-49.9	-62.9	3.8	1.49e+00	0	44	104	0	70	17027
2026-01-27 00:32:50.63	220.98	7.90	-49.8	-63.0	3.8	1.49e+00	0	44	104	0	70	17136
2026-01-27 00:32:53.54	220.86	7.67	-49.8	-62.9	3.8	1.49e+00	0	44	104	0	70	17078
2026-01-27 00:32:56.66	220.74	7.43	-49.5	-62.9	3.8	1.49e+00	0	44	104	0	70	16991
2026-01-27 00:32:59.50	220.63	7.21	-49.5	-62.9	3.8	1.49e+00	0	44	104	0	70	16906
2026-01-27 00:33:02.62	220.51	6.98	-49.5	-62.8	3.8	1.49e+00	0	44	104	0	70	16878
2026-01-27 00:33:05.46	220.41	6.77	-49.5	-62.8	3.8	1.49e+00	0	44	104	0	70	16878
2026-01-27 00:33:08.58	220.29	6.53	-49.5	-62.8	3.8	1.49e+00	0	44	104	0	70	16829
2026-01-27 00:33:11.42	220.19	6.32	-49.5	-62.8	3.8	1.49e+00	0	44	104	0	70	16863
2026-01-27 00:33:14.54	220.08	6.09	-49.5	-62.8	3.8	1.49e+00	0	44	104	0	70	16856
2026-01-27 00:33:17.38	219.98	5.89	-49.5	-62.8	3.8	1.49e+00	0	44	104	0	70	16875
2026-01-27 00:33:20.50	219.87	5.66	-49.5	-62.8	3.8	1.49e+00	0	44	104	0	70	16864
2026-01-27 00:33:23.34	219.78	5.46	-49.5	-62.8	3.8	1.49e+00	0	44	104	0	70	16879
2026-01-27 00:33:26.46	219.67	5.24	-49.5	-62.8	3.8	1.49e+00	0	44	104	0	70	16836
2026-01-27 00:33:29.30	219.58	5.04	-49.5	-62.8	3.8	1.49e+00	0	44	104	0	70	16884

#Closed at: 2026-01-27 00:33:31
#Recorded file [0 MB]: D:/Data/31040_260127_032055.dat