passes_logs/2026/01/27/T1/T1__20260127_213252_NOAA_20_JPSS-1_rec.log

#Pass ID: 20260127_213252_NOAA 20 (JPSS-1)
#Satellite: NOAA 20 (JPSS-1)
#Configuration: NOAA 20
#almurnet v.1.7.20251203
#Start time: 2026-01-27 21:32:52

#Version: 2.0.20230620
#Station: T1
#Location: 37.570604 lon 55.790049 lat
#TLE: 1 43013U 17073A   26027.45344144  .00000161  00000+0  97205-4 0  9999
#TLE: 2 43013  98.7647 328.2621 0000962  21.7793 338.3424 14.19541101424503

#Time	Az	El	Level	Level2	SNR	BER	BlckErr	Temp	State	Recorded	gain1	gain2
2026-01-27 21:32:52.18	39.85	5.00	-50.0	-65.5	3.8	1.49e+00	0	37	0	0	71	21516
2026-01-27 21:32:54.16	40.09	5.08	-50.3	-65.5	3.8	1.49e+00	0	37	104	0	72	20493
2026-01-27 21:32:56.15	40.34	5.17	-50.4	-65.6	3.8	1.49e+00	0	38	104	0	72	20544
2026-01-27 21:32:58.13	40.58	5.25	-50.3	-65.5	3.8	1.49e+00	0	37	104	0	72	20517
2026-01-27 21:33:00.12	40.82	5.33	-50.3	-65.5	3.8	1.49e+00	0	38	104	0	72	20497
2026-01-27 21:33:02.11	41.07	5.42	-50.2	-65.4	3.8	1.49e+00	0	38	104	0	72	20280
2026-01-27 21:33:04.09	41.32	5.50	-50.1	-65.4	3.8	1.49e+00	0	38	104	0	72	20212
2026-01-27 21:33:06.08	41.57	5.58	-50.0	-65.4	3.8	1.49e+00	0	38	104	0	72	20126
2026-01-27 21:33:08.06	41.82	5.67	-50.0	-65.3	3.8	1.49e+00	0	38	104	0	71	21258
2026-01-27 21:33:10.05	42.07	5.75	-49.8	-65.1	3.8	1.49e+00	0	38	104	0	71	20748
2026-01-27 21:33:12.04	42.32	5.83	-49.5	-64.8	3.8	1.49e+00	0	38	104	0	71	19982
2026-01-27 21:33:14.02	42.57	5.92	-49.5	-64.8	3.8	1.49e+00	0	38	104	0	71	19987
2026-01-27 21:33:16.01	42.83	6.00	-49.5	-64.8	3.8	1.49e+00	0	38	104	0	71	19939
2026-01-27 21:33:17.99	43.09	6.08	-49.5	-64.8	3.8	1.49e+00	0	38	104	0	71	19962
2026-01-27 21:33:19.98	43.35	6.16	-49.5	-64.8	3.8	1.49e+00	0	38	104	0	71	19989
2026-01-27 21:33:21.97	43.61	6.24	-49.5	-64.8	3.8	1.49e+00	0	38	104	0	71	19954
2026-01-27 21:33:23.95	43.87	6.32	-49.5	-64.8	3.8	1.49e+00	0	39	104	0	71	19900
2026-01-27 21:33:25.94	44.13	6.41	-49.5	-64.8	3.8	1.49e+00	0	39	104	0	71	19972
2026-01-27 21:33:27.92	44.39	6.49	-49.5	-64.8	3.8	1.49e+00	0	39	104	0	71	19896
2026-01-27 21:33:29.91	44.66	6.57	-49.5	-64.8	3.8	1.49e+00	0	39	104	0	71	19892
2026-01-27 21:33:31.90	44.93	6.65	-49.5	-64.8	3.8	1.49e+00	0	39	104	0	71	19932
2026-01-27 21:33:33.88	45.20	6.73	-49.5	-64.8	3.8	1.49e+00	0	39	104	0	71	19888
2026-01-27 21:33:35.87	45.47	6.81	-49.5	-64.8	3.8	1.49e+00	0	39	104	0	71	19919
2026-01-27 21:33:37.85	45.74	6.89	-49.5	-64.8	3.8	1.49e+00	0	39	104	0	71	19896
2026-01-27 21:33:39.84	46.01	6.97	-49.5	-64.8	3.8	1.49e+00	0	39	104	0	71	19900
2026-01-27 21:33:41.83	46.28	7.05	-49.5	-64.8	3.8	1.49e+00	0	39	104	0	71	19911
2026-01-27 21:33:43.81	46.56	7.12	-49.5	-64.7	3.8	1.49e+00	0	39	104	0	71	19809
2026-01-27 21:33:45.80	46.84	7.20	-49.5	-64.8	3.8	1.49e+00	0	39	104	0	71	19901
2026-01-27 21:33:47.78	47.11	7.28	-49.5	-64.7	3.8	1.49e+00	0	39	104	0	71	19774
2026-01-27 21:33:49.77	47.40	7.36	-49.5	-64.7	3.8	1.49e+00	0	39	104	0	71	19797
2026-01-27 21:33:51.76	47.68	7.44	-49.5	-64.8	3.8	1.49e+00	0	39	104	0	71	19849
2026-01-27 21:33:53.74	47.96	7.51	-49.5	-64.8	3.8	1.49e+00	0	39	104	0	71	19844
2026-01-27 21:33:55.73	48.24	7.59	-49.5	-64.8	3.8	1.49e+00	0	39	104	0	70	21129
2026-01-27 21:33:57.71	48.53	7.67	-49.5	-64.8	3.8	1.49e+00	0	39	104	0	70	21023
2026-01-27 21:33:59.70	48.82	7.74	-49.5	-64.8	3.8	1.49e+00	0	39	104	0	70	21069
2026-01-27 21:34:01.68	49.10	7.82	-49.5	-64.7	3.8	1.49e+00	0	39	104	0	70	20848
2026-01-27 21:34:03.67	49.40	7.89	-49.5	-64.6	3.8	1.49e+00	0	39	104	0	70	20731
2026-01-27 21:34:05.66	49.69	7.97	-49.5	-64.5	3.8	1.49e+00	0	39	104	0	70	20464
2026-01-27 21:34:07.64	49.98	8.04	-49.5	-64.4	3.8	1.49e+00	0	39	104	0	70	20294
2026-01-27 21:34:09.63	50.27	8.12	-49.5	-64.4	3.8	1.49e+00	0	39	104	0	70	20287
2026-01-27 21:34:11.62	50.57	8.19	-49.5	-64.6	3.8	1.49e+00	0	39	104	0	70	20738
2026-01-27 21:34:13.60	50.87	8.26	-49.5	-64.7	3.8	1.49e+00	0	39	104	0	70	20931
2026-01-27 21:34:15.59	51.17	8.33	-49.5	-64.7	3.8	1.49e+00	0	40	104	0	70	20980
2026-01-27 21:34:17.57	51.47	8.41	-49.5	-64.6	3.8	1.49e+00	0	39	104	0	70	20733
2026-01-27 21:34:19.56	51.77	8.48	-49.5	-64.5	3.8	1.49e+00	0	39	104	0	70	20517
2026-01-27 21:34:21.55	52.07	8.55	-49.5	-64.6	3.8	1.49e+00	0	40	104	0	70	20756
2026-01-27 21:34:23.53	52.38	8.62	-49.5	-64.7	3.8	1.49e+00	0	40	104	0	70	21003
2026-01-27 21:34:25.52	52.68	8.69	-49.5	-64.8	3.8	1.49e+00	0	39	104	0	70	21018
2026-01-27 21:34:27.50	52.99	8.76	-49.5	-64.7	3.8	1.49e+00	0	40	104	0	70	20979
2026-01-27 21:34:29.49	53.30	8.83	-49.5	-64.7	3.8	1.49e+00	0	39	104	0	70	20911
2026-01-27 21:34:31.48	53.61	8.90	-49.5	-64.6	3.8	1.49e+00	0	40	104	0	70	20539
2026-01-27 21:34:33.46	53.92	8.97	-49.4	-63.2	3.8	1.49e+00	0	40	104	0	70	17494
2026-01-27 21:34:35.45	54.24	9.03	-48.1	-54.8	8.7	5.56e-01	0	40	0	1048576	68	7503
2026-01-27 21:34:37.44	54.55	9.10	-49.2	-60.6	4.0	1.29e+00	0	40	104	1048576	69	13823
2026-01-27 21:34:39.42	54.87	9.17	-48.7	-57.5	6.0	1.04e+00	0	40	0	3145728	69	9636
2026-01-27 21:34:41.41	55.18	9.23	-46.1	-50.2	13.2	2.36e-05	0	40	0	7340032	64	5580
2026-01-27 21:34:43.39	55.50	9.30	-46.0	-50.0	13.4	2.36e-05	0	40	0	11534336	64	5424
2026-01-27 21:34:45.38	55.82	9.36	-45.5	-49.1	14.4	1.50e-06	0	40	0	14680064	63	5192
2026-01-27 21:34:47.37	56.14	9.43	-45.3	-48.9	14.7	1.50e-06	0	40	0	18874368	62	5354
2026-01-27 21:34:49.35	56.47	9.49	-45.3	-48.8	14.7	7.00e-07	0	40	0	22020096	62	5328
2026-01-27 21:34:51.34	56.79	9.55	-45.2	-48.5	15.0	7.00e-07	0	40	0	26214400	62	5156
2026-01-27 21:34:53.32	57.12	9.62	-45.2	-48.7	14.9	0.00e+00	0	40	0	29360128	62	5222
2026-01-27 21:34:55.31	57.44	9.68	-45.1	-48.5	15.1	0.00e+00	0	40	0	33554432	62	5112
2026-01-27 21:34:57.30	57.77	9.74	-45.2	-48.6	15.0	0.00e+00	0	40	0	36700160	62	5189
2026-01-27 21:34:59.28	58.10	9.80	-45.2	-48.6	15.1	0.00e+00	0	40	0	40894464	62	5167
2026-01-27 21:35:01.27	58.43	9.86	-45.3	-48.7	14.9	0.00e+00	0	40	0	44040192	62	5255
2026-01-27 21:35:03.26	58.77	9.92	-45.4	-48.8	14.8	0.00e+00	0	40	0	48234496	62	5315
2026-01-27 21:35:05.24	59.10	9.97	-45.3	-48.7	14.9	0.00e+00	0	40	0	52428800	62	5259
2026-01-27 21:35:07.23	59.43	10.03	-45.2	-48.5	15.1	0.00e+00	0	40	0	55574528	62	5133
2026-01-27 21:35:09.21	59.77	10.09	-45.2	-48.5	15.1	7.00e-07	0	40	0	59768832	62	5149
2026-01-27 21:35:11.19	60.11	10.14	-45.0	-48.3	15.4	0.00e+00	0	40	0	62914560	62	5013
2026-01-27 21:35:13.18	60.45	10.20	-45.1	-48.4	15.2	0.00e+00	0	40	0	67108864	62	5066
2026-01-27 21:35:15.17	60.79	10.25	-45.1	-48.4	15.3	0.00e+00	0	40	0	70254592	62	5042
2026-01-27 21:35:17.15	61.13	10.31	-45.0	-48.3	15.4	0.00e+00	0	40	0	74448896	62	4987
2026-01-27 21:35:19.14	61.47	10.36	-44.9	-48.1	15.5	0.00e+00	0	40	0	78643200	61	5191
2026-01-27 21:35:21.12	61.81	10.41	-45.0	-48.2	15.5	0.00e+00	0	40	0	81788928	61	5255
2026-01-27 21:35:23.11	62.16	10.46	-44.9	-48.2	15.5	0.00e+00	0	40	0	85983232	61	5224
2026-01-27 21:35:25.09	62.50	10.51	-44.9	-48.2	15.5	0.00e+00	0	40	0	89128960	61	5232
2026-01-27 21:35:27.08	62.85	10.56	-44.8	-48.0	15.7	0.00e+00	0	40	0	93323264	61	5105
2026-01-27 21:35:29.07	63.20	10.61	-44.7	-47.8	15.8	0.00e+00	0	40	0	96468992	61	5041
2026-01-27 21:35:31.05	63.55	10.66	-44.6	-47.7	16.0	0.00e+00	0	40	0	100663296	61	4930
2026-01-27 21:35:33.04	63.90	10.71	-44.7	-47.8	15.9	0.00e+00	0	40	0	103809024	61	4992
2026-01-27 21:35:35.02	64.25	10.75	-44.7	-47.8	15.9	0.00e+00	0	40	0	108003328	61	4993
2026-01-27 21:35:37.01	64.60	10.80	-44.6	-47.7	16.0	0.00e+00	0	40	0	111149056	61	4951
2026-01-27 21:35:38.99	64.96	10.84	-44.8	-48.0	15.7	0.00e+00	0	40	0	115343360	61	5118
2026-01-27 21:35:40.98	65.31	10.89	-44.9	-48.1	15.5	0.00e+00	0	40	0	118489088	61	5197
2026-01-27 21:35:42.96	65.67	10.93	-44.9	-48.2	15.5	0.00e+00	0	40	0	122683392	61	5227
2026-01-27 21:35:44.95	66.02	10.97	-45.0	-48.2	15.5	0.00e+00	0	40	0	126877696	61	5230
2026-01-27 21:35:46.94	66.38	11.01	-44.9	-48.1	15.5	0.00e+00	0	40	0	130023424	61	5195
2026-01-27 21:35:48.92	66.74	11.05	-45.0	-48.3	15.3	0.00e+00	0	40	0	134217728	61	5326
2026-01-27 21:35:50.91	67.10	11.09	-45.1	-48.4	15.2	0.00e+00	0	40	0	137363456	61	5386
2026-01-27 21:35:52.90	67.46	11.13	-45.1	-48.6	15.1	0.00e+00	0	40	0	141557760	61	5482
2026-01-27 21:35:54.88	67.82	11.17	-45.3	-48.9	14.8	7.00e-07	0	40	0	144703488	61	5681
2026-01-27 21:35:56.87	68.19	11.20	-45.6	-49.2	14.4	0.00e+00	0	40	0	148897792	61	5907
2026-01-27 21:35:58.85	68.55	11.24	-45.5	-49.0	14.7	7.00e-07	0	40	0	152043520	61	5772
2026-01-27 21:36:00.84	68.92	11.27	-45.3	-48.7	15.0	0.00e+00	0	40	0	156237824	61	5536
2026-01-27 21:36:02.83	69.28	11.31	-45.4	-48.8	14.9	0.00e+00	0	40	0	160432128	61	5615
2026-01-27 21:36:04.81	69.65	11.34	-45.4	-48.9	14.8	0.00e+00	0	40	0	163577856	61	5658
2026-01-27 21:36:06.80	70.01	11.37	-45.4	-48.9	14.7	0.00e+00	0	40	0	167772160	61	5705
2026-01-27 21:36:08.78	70.38	11.40	-45.4	-48.8	14.8	7.00e-07	0	40	0	170917888	61	5650
2026-01-27 21:36:10.77	70.75	11.43	-45.5	-49.1	14.6	0.00e+00	0	40	0	175112192	61	5804
2026-01-27 21:36:12.76	71.12	11.46	-45.5	-49.1	14.5	1.50e-06	0	40	0	178257920	61	5835
2026-01-27 21:36:14.74	71.49	11.49	-45.4	-48.9	14.8	0.00e+00	0	40	0	182452224	61	5662
2026-01-27 21:36:16.73	71.86	11.51	-45.2	-48.7	15.0	0.00e+00	0	40	0	185597952	61	5556
2026-01-27 21:36:18.71	72.23	11.54	-45.2	-48.6	15.0	0.00e+00	0	40	0	189792256	61	5489
2026-01-27 21:36:20.70	72.60	11.56	-45.2	-48.6	15.1	0.00e+00	0	40	0	193986560	61	5506
2026-01-27 21:36:22.68	72.97	11.58	-45.2	-48.6	15.1	0.00e+00	0	40	0	197132288	61	5480
2026-01-27 21:36:24.67	73.35	11.61	-45.3	-48.6	15.0	0.00e+00	0	40	0	201326592	61	5523
2026-01-27 21:36:26.66	73.72	11.63	-45.2	-48.5	15.1	0.00e+00	0	40	0	204472320	61	5449
2026-01-27 21:36:28.64	74.09	11.65	-44.9	-48.2	15.5	0.00e+00	0	40	0	208666624	61	5226
2026-01-27 21:36:30.63	74.47	11.67	-44.8	-48.0	15.7	0.00e+00	0	40	0	211812352	61	5137
2026-01-27 21:36:32.61	74.84	11.68	-44.8	-48.0	15.7	0.00e+00	0	40	0	216006656	61	5115
2026-01-27 21:36:34.60	75.22	11.70	-44.9	-48.2	15.5	0.00e+00	0	40	0	219152384	61	5220
2026-01-27 21:36:36.59	75.59	11.72	-44.9	-48.0	15.6	0.00e+00	0	40	0	223346688	61	5145
2026-01-27 21:36:38.57	75.97	11.73	-44.8	-47.9	15.7	0.00e+00	0	40	0	226492416	61	5093
2026-01-27 21:36:40.56	76.35	11.74	-44.8	-47.9	15.7	0.00e+00	0	40	0	230686720	61	5090
2026-01-27 21:36:42.54	76.72	11.76	-44.7	-47.9	15.7	0.00e+00	0	40	0	234881024	61	5068
2026-01-27 21:36:44.53	77.10	11.77	-44.7	-47.9	15.8	0.00e+00	0	40	0	238026752	61	5047
2026-01-27 21:36:46.51	77.48	11.78	-44.7	-47.9	15.7	0.00e+00	0	40	0	242221056	61	5095
2026-01-27 21:36:48.50	77.85	11.79	-44.6	-47.7	16.0	0.00e+00	0	40	0	245366784	61	4933
2026-01-27 21:36:50.49	78.23	11.79	-44.4	-47.4	16.3	0.00e+00	0	40	0	249561088	60	5063
2026-01-27 21:36:52.47	78.61	11.80	-44.1	-46.9	16.7	0.00e+00	0	40	0	252706816	60	4799
2026-01-27 21:36:54.46	78.99	11.81	-44.0	-46.9	16.8	0.00e+00	0	40	0	256901120	59	5042
2026-01-27 21:36:56.44	79.37	11.81	-44.0	-46.8	16.8	0.00e+00	0	40	0	260046848	59	5012
2026-01-27 21:36:58.43	79.75	11.81	-44.0	-46.9	16.7	0.00e+00	0	40	0	264241152	59	5047
2026-01-27 21:37:00.41	80.12	11.82	-44.0	-46.9	16.7	0.00e+00	0	40	0	268435456	59	5060
2026-01-27 21:37:02.40	80.50	11.82	-44.0	-46.8	16.8	0.00e+00	0	40	0	271581184	59	5003
2026-01-27 21:37:04.38	80.88	11.82	-43.8	-46.6	17.0	0.00e+00	0	40	0	275775488	59	4881
2026-01-27 21:37:06.37	81.26	11.82	-43.7	-46.5	17.1	0.00e+00	0	40	0	278921216	59	4824
2026-01-27 21:37:08.36	81.64	11.81	-43.7	-46.4	17.2	0.00e+00	0	40	0	283115520	59	4809
2026-01-27 21:37:10.34	82.02	11.81	-43.7	-46.5	17.0	0.00e+00	0	40	0	286261248	59	4870
2026-01-27 21:37:12.33	82.40	11.81	-43.8	-46.6	17.0	0.00e+00	0	40	0	290455552	59	4911
2026-01-27 21:37:14.31	82.77	11.80	-43.8	-46.6	17.0	0.00e+00	0	40	0	293601280	59	4893
2026-01-27 21:37:16.30	83.15	11.79	-43.8	-46.7	16.9	0.00e+00	0	40	0	297795584	59	4937
2026-01-27 21:37:18.29	83.53	11.78	-43.8	-46.5	17.0	0.00e+00	0	40	0	301989888	59	4867
2026-01-27 21:37:20.27	83.91	11.78	-43.6	-46.4	17.2	0.00e+00	0	40	0	305135616	59	4775
2026-01-27 21:37:22.26	84.29	11.77	-43.6	-46.4	17.2	0.00e+00	0	40	0	309329920	59	4802
2026-01-27 21:37:24.24	84.66	11.75	-43.8	-46.7	16.9	0.00e+00	0	40	0	312475648	59	4958
2026-01-27 21:37:26.23	85.04	11.74	-43.8	-46.7	16.9	0.00e+00	0	40	0	316669952	59	4938
2026-01-27 21:37:28.21	85.42	11.73	-43.8	-46.7	16.8	0.00e+00	0	40	0	319815680	59	4980
2026-01-27 21:37:30.20	85.79	11.71	-43.9	-46.8	16.8	0.00e+00	0	40	0	324009984	59	5023
2026-01-27 21:37:32.19	86.17	11.70	-43.9	-46.8	16.8	0.00e+00	0	40	0	327155712	59	4992
2026-01-27 21:37:34.17	86.54	11.68	-43.7	-46.5	17.1	0.00e+00	0	40	0	331350016	59	4850
2026-01-27 21:37:36.16	86.92	11.66	-43.8	-46.7	16.9	0.00e+00	0	40	0	334495744	59	4930
2026-01-27 21:37:38.15	87.30	11.64	-43.7	-46.5	17.1	0.00e+00	0	40	0	338690048	59	4822
2026-01-27 21:37:40.13	87.67	11.62	-43.7	-46.5	17.1	0.00e+00	0	40	0	342884352	59	4864
2026-01-27 21:37:42.12	88.04	11.60	-44.0	-46.8	16.8	0.00e+00	0	40	0	346030080	59	5020
2026-01-27 21:37:44.10	88.42	11.58	-44.0	-46.8	16.8	0.00e+00	0	40	0	350224384	59	5025
2026-01-27 21:37:46.09	88.79	11.56	-44.2	-47.1	16.5	0.00e+00	0	40	0	353370112	59	5191
2026-01-27 21:37:48.07	89.16	11.53	-44.2	-47.1	16.4	0.00e+00	0	40	0	357564416	59	5216
2026-01-27 21:37:50.06	89.53	11.51	-44.1	-47.1	16.5	0.00e+00	0	40	0	360710144	59	5161
2026-01-27 21:37:52.05	89.90	11.48	-44.0	-46.8	16.7	0.00e+00	0	40	0	364904448	59	5035
2026-01-27 21:37:54.03	90.27	11.45	-43.8	-46.6	17.0	0.00e+00	0	40	0	368050176	59	4924
2026-01-27 21:37:56.02	90.64	11.43	-43.7	-46.5	17.1	0.00e+00	0	40	0	372244480	59	4826
2026-01-27 21:37:58.00	91.01	11.40	-43.7	-46.5	17.1	0.00e+00	0	40	0	376438784	59	4831
2026-01-27 21:37:59.99	91.38	11.37	-43.8	-46.5	17.0	0.00e+00	0	40	0	379584512	59	4838
2026-01-27 21:38:01.98	91.75	11.33	-43.8	-46.5	17.1	0.00e+00	0	40	0	383778816	59	4841
2026-01-27 21:38:03.96	92.12	11.30	-43.6	-46.3	17.3	0.00e+00	0	40	0	386924544	59	4738
2026-01-27 21:38:05.95	92.48	11.27	-43.9	-46.7	16.9	0.00e+00	0	40	0	391118848	59	4950
2026-01-27 21:38:07.94	92.85	11.23	-43.9	-46.7	16.9	0.00e+00	0	40	0	394264576	59	4940
2026-01-27 21:38:09.92	93.21	11.20	-44.1	-47.0	16.6	0.00e+00	0	40	0	398458880	59	5107
2026-01-27 21:38:11.91	93.58	11.16	-44.0	-46.9	16.7	0.00e+00	0	40	0	401604608	59	5053
2026-01-27 21:38:13.89	93.94	11.12	-44.1	-47.0	16.6	0.00e+00	0	40	0	405798912	59	5111
2026-01-27 21:38:15.88	94.30	11.09	-43.8	-46.6	17.0	0.00e+00	0	40	0	408944640	59	4881
2026-01-27 21:38:17.86	94.66	11.05	-43.8	-46.5	17.0	0.00e+00	0	40	0	413138944	59	4867
2026-01-27 21:38:19.85	95.02	11.01	-43.8	-46.6	17.0	0.00e+00	0	40	0	417333248	59	4879
2026-01-27 21:38:21.84	95.38	10.96	-43.9	-46.7	16.8	0.00e+00	0	40	0	420478976	59	4972
2026-01-27 21:38:23.82	95.74	10.92	-43.8	-46.6	16.9	0.00e+00	0	40	0	424673280	59	4909
2026-01-27 21:38:25.81	96.09	10.88	-43.8	-46.5	17.0	0.00e+00	0	40	0	427819008	59	4851
2026-01-27 21:38:27.79	96.45	10.83	-43.9	-46.6	16.9	0.00e+00	0	40	0	432013312	59	4926
2026-01-27 21:38:29.78	96.80	10.79	-43.9	-46.7	16.8	0.00e+00	0	40	0	435159040	59	4958
2026-01-27 21:38:31.76	97.16	10.74	-44.0	-46.8	16.8	0.00e+00	0	40	0	439353344	59	4985
2026-01-27 21:38:33.75	97.51	10.70	-43.8	-46.6	17.0	0.00e+00	0	40	0	442499072	59	4893
2026-01-27 21:38:35.73	97.86	10.65	-43.8	-46.5	16.9	0.00e+00	0	40	0	446693376	59	4867
2026-01-27 21:38:37.72	98.21	10.60	-43.7	-46.4	17.1	0.00e+00	0	40	0	450887680	59	4776
2026-01-27 21:38:39.71	98.56	10.55	-43.8	-46.6	16.9	0.00e+00	0	40	0	454033408	59	4898
2026-01-27 21:38:41.69	98.91	10.50	-43.9	-46.6	16.9	0.00e+00	0	40	0	458227712	59	4909
2026-01-27 21:38:43.68	99.26	10.45	-44.0	-46.8	16.7	0.00e+00	0	40	0	461373440	59	5022
2026-01-27 21:38:45.66	99.60	10.40	-43.9	-46.6	16.9	0.00e+00	0	40	0	465567744	59	4908
2026-01-27 21:38:47.65	99.95	10.35	-43.9	-46.7	16.8	0.00e+00	0	40	0	468713472	59	4938
2026-01-27 21:38:49.63	100.29	10.29	-43.9	-46.7	16.8	0.00e+00	0	40	0	472907776	59	4951
2026-01-27 21:38:51.62	100.63	10.24	-44.1	-46.9	16.6	0.00e+00	0	40	0	476053504	59	5064
2026-01-27 21:38:53.60	100.97	10.18	-44.3	-47.2	16.3	0.00e+00	0	40	0	480247808	59	5266
2026-01-27 21:38:55.59	101.31	10.13	-44.5	-47.5	16.0	0.00e+00	0	40	0	484442112	59	5441
2026-01-27 21:38:57.58	101.65	10.07	-44.6	-47.8	15.8	0.00e+00	0	40	0	487587840	60	5289
2026-01-27 21:38:59.56	101.99	10.01	-44.9	-48.1	15.4	0.00e+00	0	40	0	491782144	60	5511
2026-01-27 21:39:01.55	102.33	9.96	-45.2	-48.6	14.9	7.00e-07	0	40	0	494927872	61	5487
2026-01-27 21:39:03.53	102.66	9.90	-45.4	-48.9	14.7	0.00e+00	0	40	0	499122176	61	5676
2026-01-27 21:39:05.52	103.00	9.84	-45.4	-49.0	14.6	0.00e+00	0	40	0	502267904	61	5725
2026-01-27 21:39:07.50	103.33	9.78	-45.1	-48.5	15.0	0.00e+00	0	40	0	506462208	61	5446
2026-01-27 21:39:09.49	103.66	9.72	-45.1	-48.5	15.0	0.00e+00	0	40	0	509607936	61	5453
2026-01-27 21:39:11.48	103.99	9.66	-45.3	-48.7	14.8	7.00e-07	0	40	0	513802240	61	5575
2026-01-27 21:39:13.46	104.32	9.59	-45.4	-48.9	14.6	7.00e-07	0	40	0	516947968	61	5720
2026-01-27 21:39:15.45	104.64	9.53	-45.5	-49.2	14.3	0.00e+00	0	40	0	521142272	61	5856
2026-01-27 21:39:17.43	104.97	9.47	-45.6	-49.3	14.2	1.50e-06	0	40	0	525336576	61	5969
2026-01-27 21:39:19.42	105.29	9.40	-45.8	-49.6	13.9	2.20e-06	0	40	0	528482304	62	5847
2026-01-27 21:39:21.41	105.62	9.34	-46.1	-50.2	13.3	1.90e-05	0	40	0	532676608	62	6235
2026-01-27 21:39:23.39	105.94	9.27	-46.5	-50.9	12.6	1.09e-04	0	40	0	535822336	63	6352
2026-01-27 21:39:25.38	106.26	9.21	-46.6	-51.2	12.1	1.79e-04	0	40	0	540016640	64	6257
2026-01-27 21:39:27.37	106.58	9.14	-46.5	-51.1	12.2	2.01e-04	0	40	0	543162368	64	6153
2026-01-27 21:39:29.35	106.89	9.07	-46.2	-50.5	12.7	1.06e-04	0	40	0	547356672	64	5780
2026-01-27 21:39:31.34	107.21	9.01	-46.2	-50.6	12.8	4.34e-05	0	40	0	550502400	64	5791
2026-01-27 21:39:33.32	107.52	8.94	-49.8	-65.0	3.8	1.49e+00	0	40	104	551550976	70	21703
2026-01-27 21:39:35.31	107.84	8.87	-50.0	-65.3	3.8	1.49e+00	0	40	104	551550976	70	22342
2026-01-27 21:39:37.30	108.15	8.80	-50.0	-65.4	3.8	1.49e+00	0	40	104	551550976	70	22615
2026-01-27 21:39:39.28	108.46	8.73	-49.8	-65.5	3.8	1.49e+00	0	40	104	551550976	70	22835
2026-01-27 21:39:41.27	108.77	8.66	-50.2	-65.5	3.8	1.49e+00	0	40	104	551550976	71	21724
2026-01-27 21:39:43.26	109.07	8.59	-50.4	-65.6	3.8	1.49e+00	0	40	104	551550976	71	21820
2026-01-27 21:39:45.24	109.38	8.52	-50.4	-65.6	3.8	1.49e+00	0	40	104	551550976	71	21866
2026-01-27 21:39:47.23	109.68	8.44	-50.4	-65.6	3.8	1.49e+00	0	40	104	551550976	71	21815
2026-01-27 21:39:49.21	109.99	8.37	-50.4	-65.6	3.8	1.49e+00	0	40	104	551550976	71	21902
2026-01-27 21:39:51.20	110.29	8.30	-50.4	-65.7	3.8	1.49e+00	0	40	104	551550976	71	22016
2026-01-27 21:39:53.19	110.59	8.22	-50.4	-65.7	3.8	1.49e+00	0	40	104	551550976	71	22046
2026-01-27 21:39:55.17	110.89	8.15	-50.4	-65.7	3.8	1.49e+00	0	40	104	551550976	71	22124
2026-01-27 21:39:57.16	111.18	8.08	-50.3	-65.7	3.8	1.49e+00	0	40	104	551550976	71	22054
2026-01-27 21:39:59.15	111.48	8.00	-50.2	-65.7	3.8	1.49e+00	0	40	104	551550976	71	22033
2026-01-27 21:40:01.13	111.77	7.93	-50.3	-65.7	3.8	1.49e+00	0	40	104	551550976	71	22142
2026-01-27 21:40:03.12	112.07	7.85	-50.4	-65.7	3.8	1.49e+00	0	40	104	551550976	71	22013
2026-01-27 21:40:05.10	112.36	7.77	-50.3	-65.6	3.8	1.49e+00	0	40	104	551550976	71	21890
2026-01-27 21:40:07.09	112.65	7.70	-50.3	-65.5	3.8	1.49e+00	0	40	104	551550976	71	21748
2026-01-27 21:40:09.07	112.93	7.62	-50.0	-65.5	3.8	1.49e+00	0	40	104	551550976	71	21606
2026-01-27 21:40:11.06	113.22	7.54	-50.1	-65.4	3.8	1.49e+00	0	40	104	551550976	71	21453
2026-01-27 21:40:13.05	113.51	7.47	-49.9	-65.2	3.8	1.49e+00	0	40	104	551550976	71	20934
2026-01-27 21:40:15.03	113.79	7.39	-49.6	-64.9	3.8	1.49e+00	0	40	104	551550976	71	20240
2026-01-27 21:40:17.02	114.07	7.31	-49.6	-64.9	3.8	1.49e+00	0	40	104	551550976	71	20185
2026-01-27 21:40:19.00	114.35	7.23	-49.5	-64.9	3.8	1.49e+00	0	40	104	551550976	71	20122
2026-01-27 21:40:20.99	114.63	7.15	-49.6	-64.9	3.8	1.49e+00	0	40	104	551550976	71	20131
2026-01-27 21:40:22.98	114.91	7.07	-49.5	-64.9	3.8	1.49e+00	0	40	104	551550976	71	20106
2026-01-27 21:40:24.96	115.19	6.99	-49.5	-64.9	3.8	1.49e+00	0	40	104	551550976	71	20111
2026-01-27 21:40:26.95	115.46	6.91	-49.5	-64.8	3.8	1.49e+00	0	40	104	551550976	71	20048
2026-01-27 21:40:28.93	115.74	6.83	-49.5	-64.8	3.8	1.49e+00	0	40	104	551550976	71	20049
2026-01-27 21:40:30.92	116.01	6.75	-49.5	-64.8	3.8	1.49e+00	0	40	104	551550976	71	20027
2026-01-27 21:40:32.91	116.28	6.67	-49.5	-64.8	3.8	1.49e+00	0	40	104	551550976	71	20003
2026-01-27 21:40:34.89	116.55	6.59	-49.5	-64.8	3.8	1.49e+00	0	40	104	551550976	71	19957
2026-01-27 21:40:36.88	116.82	6.51	-49.5	-64.8	3.8	1.49e+00	0	40	104	551550976	70	21133
2026-01-27 21:40:38.86	117.08	6.43	-49.5	-64.8	3.8	1.49e+00	0	40	104	551550976	70	21179
2026-01-27 21:40:40.85	117.35	6.35	-49.5	-64.8	3.8	1.49e+00	0	40	104	551550976	70	21128
2026-01-27 21:40:42.84	117.61	6.26	-49.5	-64.8	3.8	1.49e+00	0	40	104	551550976	70	21127
2026-01-27 21:40:44.82	117.87	6.18	-49.5	-64.9	3.8	1.49e+00	0	40	104	551550976	70	21287
2026-01-27 21:40:46.81	118.13	6.10	-49.5	-64.8	3.8	1.49e+00	0	40	104	551550976	70	21044
2026-01-27 21:40:48.79	118.39	6.02	-49.5	-64.8	3.8	1.49e+00	0	40	104	551550976	70	21177
2026-01-27 21:40:50.78	118.65	5.93	-49.5	-64.8	3.8	1.49e+00	0	40	104	551550976	70	21206
2026-01-27 21:40:52.77	118.91	5.85	-49.4	-64.8	3.8	1.49e+00	0	40	104	551550976	70	21088
2026-01-27 21:40:54.75	119.16	5.77	-49.4	-64.7	3.8	1.49e+00	0	40	104	551550976	70	21017
2026-01-27 21:40:56.74	119.42	5.68	-49.4	-64.8	3.8	1.49e+00	0	40	104	551550976	70	21196
2026-01-27 21:40:58.72	119.67	5.60	-49.4	-64.8	3.8	1.49e+00	0	40	104	551550976	70	21057
2026-01-27 21:41:00.71	119.92	5.51	-49.4	-64.8	3.8	1.49e+00	0	40	104	551550976	70	21034
2026-01-27 21:41:02.70	120.17	5.43	-49.4	-64.8	3.8	1.49e+00	0	40	104	551550976	70	21101
2026-01-27 21:41:04.68	120.42	5.35	-49.4	-64.8	3.8	1.49e+00	0	40	104	551550976	70	21076
2026-01-27 21:41:06.67	120.66	5.26	-49.4	-64.8	3.8	1.49e+00	0	40	104	551550976	70	21050
2026-01-27 21:41:08.65	120.91	5.18	-49.4	-64.8	3.8	1.49e+00	0	40	104	551550976	70	21043
2026-01-27 21:41:10.64	121.15	5.09	-49.4	-64.8	3.8	1.49e+00	0	40	104	551550976	70	21052
2026-01-27 21:41:12.63	121.39	5.01	-49.4	-64.7	3.8	1.49e+00	0	40	104	551550976	70	20958

#Closed at: 2026-01-27 21:41:14
#Recorded file [551 MB]: D:/Data/31040_260128_003252.dat