passes_logs/2026/01/27/T1/T1__20260127_005044_SUOMI_NPP_rec.log

#Pass ID: 20260127_005044_SUOMI NPP
#Satellite: SUOMI NPP
#Configuration: NPP
#almurnet v.1.7.20251203
#Start time: 2026-01-27 00:50:46

#Version: 2.0.20230620
#Station: T1
#Location: 37.570604 lon 55.790049 lat
#TLE: 1 37849U 11061A   26026.52266023  .00000173  00000+0  10323-3 0  9994
#TLE: 2 37849  98.7822 328.4727 0002140  43.9411 316.1934 14.19530258738341

#Time	Az	El	Level	Level2	SNR	BER	BlckErr	Temp	State	Recorded	gain1	gain2
2026-01-27 00:50:46.01	9.86	5.09	-47.7	-64.3	3.8	1.49e+00	0	41	0	0	66	25162
2026-01-27 00:50:48.98	9.70	5.29	-47.6	-64.2	3.8	1.49e+00	0	41	104	0	65	26450
2026-01-27 00:50:51.97	9.55	5.49	-47.6	-64.2	3.8	1.49e+00	0	41	104	0	65	26317
2026-01-27 00:50:54.95	9.38	5.69	-47.6	-64.3	3.8	1.49e+00	0	41	104	0	65	26483
2026-01-27 00:50:57.93	9.22	5.90	-47.7	-64.3	3.8	1.49e+00	0	41	104	0	66	25021
2026-01-27 00:51:00.91	9.06	6.10	-47.7	-64.3	3.8	1.49e+00	0	41	104	0	66	25150
2026-01-27 00:51:03.89	8.89	6.31	-47.7	-64.3	3.8	1.49e+00	0	41	104	0	66	25059
2026-01-27 00:51:06.86	8.72	6.52	-47.7	-64.2	3.8	1.49e+00	0	42	104	0	66	24927
2026-01-27 00:51:09.84	8.54	6.73	-47.6	-64.0	3.8	1.49e+00	0	42	104	0	66	24190
2026-01-27 00:51:12.82	8.37	6.94	-47.7	-63.3	3.8	1.49e+00	0	42	104	0	66	22348
2026-01-27 00:51:15.80	8.19	7.15	-47.6	-62.6	3.8	1.49e+00	0	42	104	0	66	20580
2026-01-27 00:51:18.78	8.01	7.37	-47.6	-62.3	3.8	1.49e+00	0	42	104	0	66	19949
2026-01-27 00:51:21.76	7.82	7.58	-47.6	-62.7	3.8	1.49e+00	0	42	104	0	66	20872
2026-01-27 00:51:24.74	7.63	7.80	-47.7	-63.5	3.8	1.49e+00	0	42	104	0	66	22849
2026-01-27 00:51:27.72	7.44	8.02	-47.6	-63.2	3.8	1.49e+00	0	42	104	0	66	22213
2026-01-27 00:51:30.70	7.25	8.24	-47.2	-57.5	5.8	5.50e-01	0	42	0	2097152	66	11446
2026-01-27 00:51:33.68	7.05	8.46	-46.1	-52.8	10.2	1.00e-02	0	43	0	7340032	64	7458
2026-01-27 00:51:36.66	6.85	8.69	-45.5	-50.9	12.3	4.32e-04	0	43	0	12582912	63	6348
2026-01-27 00:51:39.64	6.65	8.91	-45.7	-51.4	11.8	4.18e-04	0	43	0	18874368	62	7128
2026-01-27 00:51:42.63	6.44	9.14	-46.8	-55.7	7.6	1.14e-04	0	43	0	24117248	64	10415
2026-01-27 00:51:45.61	6.23	9.37	-46.9	-55.8	7.5	8.05e-03	0	43	0	29360128	64	10542
2026-01-27 00:51:48.60	6.02	9.60	-45.6	-51.8	11.3	3.02e-03	0	43	0	34603008	63	7118
2026-01-27 00:51:51.52	5.81	9.83	-44.6	-49.7	13.5	7.85e-05	0	43	0	40894464	61	6222
2026-01-27 00:51:54.65	5.57	10.08	-44.6	-49.6	13.6	6.80e-06	0	43	0	46137344	60	6555
2026-01-27 00:51:57.69	5.34	10.32	-43.9	-48.2	14.9	1.50e-06	0	43	0	52428800	59	5922
2026-01-27 00:52:00.74	5.11	10.56	-43.6	-47.4	15.8	0.00e+00	0	43	0	57671680	58	5659
2026-01-27 00:52:03.59	4.89	10.79	-43.7	-47.4	15.8	0.00e+00	0	43	0	62914560	58	5692
2026-01-27 00:52:06.72	4.64	11.04	-43.7	-47.2	16.0	0.00e+00	0	43	0	69206016	58	5569
2026-01-27 00:52:09.56	4.41	11.27	-43.8	-47.2	16.0	0.00e+00	0	43	0	74448896	58	5544
2026-01-27 00:52:12.79	4.14	11.54	-43.4	-46.5	16.7	0.00e+00	0	43	0	80740352	58	5122
2026-01-27 00:52:15.63	3.91	11.78	-43.3	-46.2	17.0	0.00e+00	0	43	0	85983232	58	4972
2026-01-27 00:52:19.07	3.61	12.06	-43.6	-46.6	16.6	0.00e+00	0	43	0	92274688	58	5183
2026-01-27 00:52:21.77	3.38	12.29	-43.5	-46.6	16.7	0.00e+00	0	43	0	97517568	58	5188
2026-01-27 00:52:25.06	3.09	12.57	-43.5	-46.5	16.7	0.00e+00	0	43	0	102760448	58	5124
2026-01-27 00:52:27.77	2.84	12.80	-43.5	-46.5	16.8	0.00e+00	0	43	0	108003328	58	5109
2026-01-27 00:52:31.06	2.54	13.09	-43.3	-46.1	17.2	0.00e+00	0	43	0	114294784	58	4915
2026-01-27 00:52:34.08	2.26	13.35	-43.0	-45.7	17.5	0.00e+00	0	43	0	120586240	57	4958
2026-01-27 00:52:38.20	1.87	13.72	-43.0	-45.7	17.5	0.00e+00	0	43	0	127926272	57	4952
2026-01-27 00:52:41.04	1.59	13.97	-42.9	-45.6	17.6	0.00e+00	0	43	0	133169152	57	4902
2026-01-27 00:52:45.02	1.19	14.32	-42.6	-45.1	18.1	0.00e+00	0	43	0	140509184	57	4637
2026-01-27 00:52:48.07	0.88	14.60	-43.0	-45.7	17.6	0.00e+00	0	43	0	146800640	57	4966
2026-01-27 00:52:52.11	0.46	14.97	-43.2	-46.0	17.3	0.00e+00	0	43	0	154140672	57	5109
2026-01-27 00:52:55.24	0.12	15.26	-43.4	-46.2	17.1	0.00e+00	0	43	0	159383552	57	5250
2026-01-27 00:52:59.20	359.69	15.63	-43.8	-46.9	16.6	0.00e+00	0	43	0	167772160	58	5342
2026-01-27 00:53:02.08	359.37	15.90	-43.8	-46.8	16.5	0.00e+00	0	43	0	173015040	58	5332
2026-01-27 00:53:05.82	358.94	16.25	-43.6	-46.7	16.7	0.00e+00	0	43	0	179306496	58	5263
2026-01-27 00:53:08.52	358.63	16.51	-43.2	-46.3	17.1	0.00e+00	0	43	0	184549376	58	5006
2026-01-27 00:53:11.83	358.24	16.83	-42.7	-45.6	17.7	0.00e+00	0	43	0	190840832	57	4924
2026-01-27 00:53:14.54	357.91	17.09	-42.5	-45.4	17.9	0.00e+00	0	43	0	196083712	56	5074
2026-01-27 00:53:17.80	357.50	17.41	-42.4	-45.1	18.2	0.00e+00	0	43	0	202375168	56	4926
2026-01-27 00:53:20.52	357.16	17.68	-42.6	-45.3	18.0	0.00e+00	0	43	0	207618048	56	5034
2026-01-27 00:53:23.80	356.74	18.01	-42.8	-45.4	17.9	0.00e+00	0	43	0	213909504	56	5099
2026-01-27 00:53:27.12	356.30	18.34	-43.0	-45.8	17.6	0.00e+00	0	43	0	220200960	56	5301
2026-01-27 00:53:30.17	355.89	18.65	-42.7	-45.5	17.9	0.00e+00	0	43	0	225443840	56	5108
2026-01-27 00:53:33.44	355.44	18.98	-42.7	-45.6	17.8	0.00e+00	0	43	0	231735296	56	5207
2026-01-27 00:53:36.16	355.06	19.26	-42.7	-45.5	17.8	0.00e+00	0	43	0	236978176	56	5159
2026-01-27 00:53:39.43	354.59	19.60	-43.2	-46.1	17.3	0.00e+00	0	43	0	243269632	57	5192
2026-01-27 00:53:42.16	354.19	19.88	-43.4	-46.2	17.2	0.00e+00	0	43	0	247463936	57	5254
2026-01-27 00:53:45.44	353.70	20.23	-43.5	-46.2	17.3	0.00e+00	0	43	0	253755392	58	4953
2026-01-27 00:53:48.16	353.29	20.51	-43.6	-46.3	17.2	0.00e+00	0	43	0	258998272	58	5040
2026-01-27 00:53:51.46	352.77	20.86	-43.8	-46.6	16.9	0.00e+00	0	43	0	265289728	58	5211
2026-01-27 00:53:54.17	352.34	21.15	-44.2	-47.3	16.3	0.00e+00	0	43	0	270532608	58	5609
2026-01-27 00:53:57.46	351.81	21.51	-43.9	-46.8	16.7	0.00e+00	0	43	0	276824064	59	4987
2026-01-27 00:54:00.16	351.36	21.80	-43.6	-46.4	17.1	0.00e+00	0	43	0	282066944	59	4801
2026-01-27 00:54:03.79	350.74	22.19	-43.1	-45.8	17.7	0.00e+00	0	43	0	288358400	58	4710
2026-01-27 00:54:06.84	350.21	22.53	-43.1	-45.7	17.8	0.00e+00	0	43	0	294649856	57	4962
2026-01-27 00:54:10.82	349.50	22.96	-42.8	-45.5	18.0	0.00e+00	0	43	0	301989888	57	4818
2026-01-27 00:54:13.66	348.99	23.28	-42.5	-45.2	18.2	0.00e+00	0	43	0	307232768	56	4960
2026-01-27 00:54:18.14	348.14	23.77	-42.4	-45.0	18.4	0.00e+00	0	43	0	315621376	56	4864
2026-01-27 00:54:21.05	347.58	24.10	-43.5	-46.3	17.2	0.00e+00	0	43	0	320864256	57	5334
2026-01-27 00:54:24.04	347.00	24.43	-43.6	-46.4	17.1	0.00e+00	0	43	0	326107136	58	5094
2026-01-27 00:54:27.02	346.40	24.77	-43.8	-46.7	16.8	0.00e+00	0	43	0	332398592	58	5274
2026-01-27 00:54:30.01	345.78	25.10	-44.2	-47.4	16.2	0.00e+00	0	44	0	337641472	59	5381
2026-01-27 00:54:33.00	345.15	25.44	-44.6	-47.9	15.8	0.00e+00	0	43	0	342884352	60	5342
2026-01-27 00:54:35.98	344.51	25.78	-44.6	-47.8	15.8	0.00e+00	0	43	0	349175808	60	5307
2026-01-27 00:54:38.97	343.86	26.11	-44.2	-47.5	16.2	0.00e+00	0	43	0	354418688	60	5132
2026-01-27 00:54:41.95	343.19	26.45	-43.9	-47.2	16.4	0.00e+00	0	43	0	359661568	59	5246
2026-01-27 00:54:44.94	342.51	26.79	-43.8	-46.7	16.7	0.00e+00	0	43	0	365953024	59	4977
2026-01-27 00:54:47.92	341.81	27.12	-44.1	-46.9	16.8	0.00e+00	0	43	0	371195904	59	5075
2026-01-27 00:54:50.94	341.09	27.46	-43.6	-46.5	17.0	0.00e+00	0	43	0	376438784	58	5154
2026-01-27 00:54:53.98	340.34	27.80	-43.5	-46.5	17.1	0.00e+00	0	43	0	382730240	58	5109
2026-01-27 00:54:56.96	339.60	28.14	-44.1	-47.1	16.5	0.00e+00	0	43	0	387973120	58	5506
2026-01-27 00:54:59.95	338.84	28.47	-43.9	-46.8	16.8	0.00e+00	0	43	0	393216000	59	4991
2026-01-27 00:55:02.93	338.06	28.80	-43.8	-46.7	16.9	0.00e+00	0	43	0	399507456	59	4953
2026-01-27 00:55:05.92	337.27	29.13	-43.9	-47.0	16.6	0.00e+00	0	43	0	404750336	59	5106
2026-01-27 00:55:08.90	336.46	29.45	-44.3	-47.6	15.7	0.00e+00	0	43	0	409993216	59	5504
2026-01-27 00:55:11.95	335.62	29.78	-43.2	-46.2	17.3	0.00e+00	0	43	0	416284672	58	4970
2026-01-27 00:55:14.94	334.77	30.10	-43.6	-46.8	16.8	0.00e+00	0	44	0	421527552	58	5317
2026-01-27 00:55:17.93	333.91	30.42	-44.7	-48.0	15.7	0.00e+00	0	44	0	427819008	60	5440
2026-01-27 00:55:20.91	333.04	30.73	-44.9	-48.2	15.3	0.00e+00	0	44	0	433061888	60	5587
2026-01-27 00:55:23.94	332.13	31.04	-45.1	-48.9	14.9	7.00e-07	0	43	0	438304768	61	5697
2026-01-27 00:55:26.87	331.24	31.33	-45.1	-49.1	14.5	0.00e+00	0	44	0	444596224	61	5853
2026-01-27 00:55:30.00	330.26	31.65	-45.3	-49.1	14.7	7.00e-07	0	44	0	449839104	61	5795
2026-01-27 00:55:32.84	329.36	31.92	-45.3	-49.1	14.4	1.50e-06	0	43	0	455081984	61	5854
2026-01-27 00:55:35.96	328.35	32.22	-46.4	-50.8	12.9	4.27e-05	0	43	0	461373440	63	6313
2026-01-27 00:55:38.81	327.42	32.49	-46.4	-50.6	12.9	1.06e-04	0	43	0	466616320	64	5849
2026-01-27 00:55:42.00	326.35	32.78	-45.7	-49.7	14.0	1.50e-06	0	43	0	472907776	63	5555
2026-01-27 00:55:44.86	325.38	33.03	-45.9	-51.0	12.7	9.53e-05	0	43	0	478150656	63	6468
2026-01-27 00:55:48.16	324.24	33.31	-45.8	-50.3	13.5	1.37e-05	0	44	0	484442112	63	5941
2026-01-27 00:55:50.86	323.29	33.53	-45.8	-49.6	14.2	7.00e-07	0	44	0	489684992	62	5796
2026-01-27 00:55:54.13	322.13	33.79	-45.8	-49.5	13.9	2.20e-06	0	44	0	494927872	62	5758
2026-01-27 00:55:57.08	321.06	34.02	-44.7	-48.3	15.4	0.00e+00	0	44	0	501219328	61	5298
2026-01-27 00:56:00.78	319.70	34.28	-44.5	-48.3	15.4	0.00e+00	0	44	0	507510784	61	5324
2026-01-27 00:56:03.62	318.65	34.48	-45.0	-48.5	15.2	0.00e+00	0	44	0	512753664	60	5786
2026-01-27 00:56:07.60	317.14	34.73	-45.2	-48.6	15.1	0.00e+00	0	43	0	520093696	62	5167
2026-01-27 00:56:10.32	316.10	34.90	-43.5	-46.2	17.4	0.00e+00	0	44	0	525336576	58	4960
2026-01-27 00:56:13.66	314.81	35.08	-42.7	-45.1	18.4	0.00e+00	0	44	0	531628032	57	4639
2026-01-27 00:56:16.43	313.73	35.22	-42.5	-44.8	18.6	0.00e+00	0	44	0	536870912	56	4754
2026-01-27 00:56:19.70	312.44	35.38	-42.2	-44.6	18.7	0.00e+00	0	43	0	543162368	55	4913
2026-01-27 00:56:22.41	311.36	35.49	-43.3	-46.0	17.6	0.00e+00	0	44	0	548405248	57	5143
2026-01-27 00:56:25.67	310.05	35.62	-42.5	-45.0	18.5	0.00e+00	0	44	0	554696704	56	4829
2026-01-27 00:56:28.69	308.84	35.72	-42.5	-44.9	18.5	0.00e+00	0	43	0	559939584	56	4799
2026-01-27 00:56:31.77	307.59	35.80	-43.5	-46.2	17.4	0.00e+00	0	43	0	566231040	57	5221
2026-01-27 00:56:34.82	306.34	35.87	-41.9	-44.2	19.2	0.00e+00	0	43	0	571473920	56	4420
2026-01-27 00:56:37.95	305.06	35.93	-41.3	-43.5	19.7	0.00e+00	0	43	0	577765376	53	4856
2026-01-27 00:56:40.78	303.90	35.97	-43.0	-45.6	17.9	0.00e+00	0	44	0	583008256	56	5202
2026-01-27 00:56:43.91	302.61	35.99	-43.4	-46.1	17.5	0.00e+00	0	44	0	588251136	57	5187
2026-01-27 00:56:46.75	301.44	36.00	-43.1	-45.8	17.7	0.00e+00	0	43	0	593494016	57	5001
2026-01-27 00:56:50.10	300.06	35.99	-43.4	-46.1	17.4	0.00e+00	0	43	0	599785472	57	5209
2026-01-27 00:56:52.80	298.95	35.97	-42.9	-45.4	17.9	0.00e+00	0	43	0	605028352	58	4524
2026-01-27 00:56:56.08	297.60	35.93	-43.4	-46.1	17.4	0.00e+00	0	44	0	611319808	57	5182
2026-01-27 00:56:59.06	296.38	35.88	-43.3	-46.0	17.5	0.00e+00	0	43	0	617611264	57	5107
2026-01-27 00:57:02.04	295.17	35.81	-44.0	-47.0	16.6	0.00e+00	0	43	0	622854144	59	5118
2026-01-27 00:57:05.03	293.95	35.73	-43.8	-46.6	17.0	0.00e+00	0	43	0	628097024	59	4885
2026-01-27 00:57:08.01	292.75	35.64	-45.1	-48.5	15.3	0.00e+00	0	44	0	634388480	60	5750
2026-01-27 00:57:11.00	291.55	35.53	-44.3	-47.3	16.4	0.00e+00	0	43	0	639631360	60	4986
2026-01-27 00:57:13.98	290.36	35.40	-43.5	-46.1	17.4	0.00e+00	0	43	0	644874240	58	4913
2026-01-27 00:57:16.96	289.18	35.27	-44.1	-46.8	16.7	0.00e+00	0	44	0	651165696	59	5038
2026-01-27 00:57:19.94	288.01	35.12	-45.0	-48.2	15.5	0.00e+00	0	44	0	656408576	61	5250
2026-01-27 00:57:22.96	286.84	34.95	-44.2	-47.1	16.5	0.00e+00	0	44	0	661651456	59	5169
2026-01-27 00:57:25.95	285.69	34.77	-43.1	-45.6	17.9	0.00e+00	0	44	0	667942912	57	4922
2026-01-27 00:57:28.93	284.56	34.59	-44.5	-47.6	16.1	0.00e+00	0	43	0	673185792	59	5478
2026-01-27 00:57:31.92	283.43	34.39	-43.8	-46.5	17.1	0.00e+00	0	43	0	678428672	59	4838
2026-01-27 00:57:34.90	282.33	34.18	-42.8	-45.3	18.2	0.00e+00	0	44	0	684720128	57	4706
2026-01-27 00:57:37.93	281.22	33.96	-44.7	-47.8	15.8	0.00e+00	0	44	0	689963008	60	5333
2026-01-27 00:57:40.99	280.11	33.72	-44.2	-47.0	16.6	0.00e+00	0	44	0	695205888	60	4856
2026-01-27 00:57:43.83	279.10	33.49	-43.6	-46.3	17.3	0.00e+00	0	43	0	701497344	58	5032
2026-01-27 00:57:46.96	278.00	33.23	-44.3	-47.1	16.5	0.00e+00	0	43	0	706740224	59	5218
2026-01-27 00:57:49.80	277.02	32.99	-45.6	-49.3	14.4	0.00e+00	0	44	0	711983104	61	5973
2026-01-27 00:57:52.93	275.96	32.71	-45.3	-48.9	14.8	0.00e+00	0	44	0	718274560	62	5370
2026-01-27 00:57:55.87	274.98	32.44	-45.4	-49.0	14.7	0.00e+00	0	44	0	723517440	62	5410
2026-01-27 00:57:58.99	273.96	32.15	-45.4	-49.2	14.5	1.50e-06	0	44	0	729808896	62	5532
2026-01-27 00:58:01.84	273.04	31.87	-44.3	-47.2	16.4	0.00e+00	0	44	0	735051776	60	4972
2026-01-27 00:58:04.96	272.05	31.56	-43.9	-46.6	17.0	0.00e+00	0	43	0	740294656	59	4918
2026-01-27 00:58:07.80	271.17	31.28	-44.0	-46.8	16.8	0.00e+00	0	44	0	745537536	58	5293
2026-01-27 00:58:10.93	270.21	30.96	-45.3	-48.7	15.0	7.00e-07	0	44	0	751828992	61	5583
2026-01-27 00:58:13.77	269.36	30.67	-43.8	-46.5	17.0	0.00e+00	0	44	0	757071872	59	4854
2026-01-27 00:58:16.89	268.44	30.34	-44.1	-46.9	16.6	0.00e+00	0	44	0	763363328	58	5399
2026-01-27 00:58:19.74	267.62	30.04	-46.1	-50.3	13.4	9.90e-06	0	44	0	768606208	62	6285
2026-01-27 00:58:22.86	266.74	29.70	-44.6	-47.8	15.9	0.00e+00	0	43	0	773849088	60	5304
2026-01-27 00:58:25.71	265.95	29.39	-44.4	-47.5	16.1	0.00e+00	0	43	0	779091968	60	5147
2026-01-27 00:58:28.84	265.10	29.05	-45.7	-49.4	14.0	9.10e-06	0	44	0	785383424	63	5363
2026-01-27 00:58:31.85	264.30	28.72	-45.1	-48.6	15.1	0.00e+00	0	44	0	790626304	62	5178
2026-01-27 00:58:34.98	263.49	28.37	-43.9	-46.8	16.7	0.00e+00	0	43	0	796917760	59	5014
2026-01-27 00:58:37.82	262.77	28.05	-43.7	-46.6	17.0	0.00e+00	0	44	0	802160640	59	4883
2026-01-27 00:58:40.95	261.99	27.70	-44.3	-47.4	16.2	0.00e+00	0	43	0	808452096	59	5349
2026-01-27 00:58:43.80	261.29	27.38	-43.2	-45.9	17.7	0.00e+00	0	44	0	813694976	58	4770
2026-01-27 00:58:47.08	260.51	27.01	-42.7	-45.3	18.2	0.00e+00	0	44	0	819986432	56	5002
2026-01-27 00:58:49.98	259.83	26.68	-42.9	-45.5	18.0	0.00e+00	0	44	0	825229312	56	5133
2026-01-27 00:58:53.11	259.11	26.33	-42.4	-44.8	18.6	0.00e+00	0	44	0	830472192	56	4730
2026-01-27 00:58:55.97	258.47	26.00	-41.7	-44.0	19.2	0.00e+00	0	44	0	836763648	55	4555
2026-01-27 00:58:59.10	257.79	25.65	-42.0	-44.4	18.8	0.00e+00	0	44	0	842006528	54	5071
2026-01-27 00:59:02.25	257.11	25.29	-42.5	-45.1	18.2	0.00e+00	0	44	0	848297984	55	5194
2026-01-27 00:59:05.35	256.46	24.94	-41.9	-44.3	18.9	0.00e+00	0	43	0	853540864	55	4740
2026-01-27 00:59:08.20	255.88	24.62	-41.6	-43.8	19.3	0.00e+00	0	43	0	858783744	54	4748
2026-01-27 00:59:11.32	255.25	24.27	-41.7	-43.9	19.2	0.00e+00	0	44	0	865075200	54	4811
2026-01-27 00:59:14.17	254.70	23.95	-41.6	-43.8	19.2	0.00e+00	0	44	0	870318080	54	4714
2026-01-27 00:59:17.48	254.06	23.58	-41.5	-43.8	19.4	0.00e+00	0	43	0	876609536	54	4743
2026-01-27 00:59:20.33	253.52	23.26	-41.5	-43.8	19.3	0.00e+00	0	43	0	881852416	54	4756
2026-01-27 00:59:23.45	252.95	22.92	-41.8	-44.3	18.9	0.00e+00	0	44	0	888143872	54	4987
2026-01-27 00:59:26.29	252.44	22.60	-42.0	-44.3	18.9	0.00e+00	0	44	0	893386752	54	5040
2026-01-27 00:59:29.41	251.89	22.26	-42.2	-44.7	18.5	0.00e+00	0	43	0	898629632	55	4960
2026-01-27 00:59:32.25	251.40	21.95	-42.8	-45.5	18.0	0.00e+00	0	44	0	903872512	56	5106
2026-01-27 00:59:35.58	250.84	21.59	-42.8	-45.4	18.1	0.00e+00	0	43	0	910163968	57	4811
2026-01-27 00:59:38.48	250.36	21.27	-42.7	-45.2	18.2	0.00e+00	0	44	0	916455424	57	4677
2026-01-27 00:59:41.75	249.83	20.92	-43.5	-46.3	17.2	0.00e+00	0	44	0	921698304	57	5303
2026-01-27 00:59:44.49	249.40	20.63	-43.3	-46.0	17.4	0.00e+00	0	44	0	926941184	57	5146
2026-01-27 00:59:47.83	248.88	20.28	-42.8	-45.4	18.0	0.00e+00	0	43	0	933232640	57	4785
2026-01-27 00:59:50.59	248.46	19.98	-43.2	-45.9	17.5	0.00e+00	0	43	0	938475520	57	5077
2026-01-27 00:59:54.50	247.89	19.58	-42.8	-45.4	17.9	0.00e+00	0	43	0	945815552	57	4794
2026-01-27 00:59:57.36	247.47	19.28	-42.4	-44.9	18.5	0.00e+00	0	44	0	951058432	56	4765
2026-01-27 01:00:01.18	246.93	18.89	-42.2	-44.7	18.6	0.00e+00	0	44	0	958398464	56	4684
2026-01-27 01:00:04.02	246.54	18.59	-42.3	-44.8	18.5	0.00e+00	0	44	0	963641344	56	4747
2026-01-27 01:00:07.16	246.11	18.28	-42.3	-44.8	18.5	0.00e+00	0	44	0	969932800	56	4740
2026-01-27 01:00:10.30	245.70	17.96	-41.8	-44.3	18.8	0.00e+00	0	43	0	975175680	55	4719
2026-01-27 01:00:13.34	245.30	17.66	-41.9	-44.3	18.8	0.00e+00	0	44	0	981467136	55	4744
2026-01-27 01:00:16.69	244.88	17.32	-42.3	-44.8	18.4	0.00e+00	0	44	0	987758592	55	4992
2026-01-27 01:00:19.39	244.54	17.06	-43.1	-45.7	17.6	0.00e+00	0	43	0	993001472	57	4960
2026-01-27 01:00:22.66	244.14	16.74	-44.5	-47.6	15.8	0.00e+00	0	44	0	999292928	59	5493
2026-01-27 01:00:25.39	243.81	16.48	-44.5	-47.7	15.7	0.00e+00	0	44	0	1003487232	59	5550
2026-01-27 01:00:28.75	243.42	16.15	-42.9	-45.7	17.6	0.00e+00	0	44	0	1009778688	57	4951
2026-01-27 01:00:31.47	243.11	15.89	-42.4	-44.9	18.3	0.00e+00	0	43	0	1015021568	56	4776
2026-01-27 01:00:34.75	242.74	15.58	-42.8	-45.4	17.9	0.00e+00	0	44	0	1021313024	56	5086
2026-01-27 01:00:37.49	242.43	15.33	-43.6	-46.5	16.9	0.00e+00	0	43	0	1026555904	58	5108
2026-01-27 01:00:40.81	242.07	15.02	-44.2	-47.2	16.2	0.00e+00	0	44	0	1032847360	59	5257
2026-01-27 01:00:43.59	241.78	14.76	-43.8	-46.9	16.4	0.00e+00	0	43	0	1038090240	59	5072
2026-01-27 01:00:46.97	241.42	14.45	-43.4	-46.5	16.8	0.00e+00	0	44	0	1044381696	58	5149
2026-01-27 01:00:49.84	241.13	14.19	-43.2	-46.4	16.9	0.00e+00	0	44	0	1049624576	58	5061
2026-01-27 01:00:52.97	240.81	13.91	-43.4	-46.6	16.7	0.00e+00	0	43	0	1055916032	58	5198
2026-01-27 01:00:55.81	240.53	13.66	-43.7	-46.8	16.5	0.00e+00	0	44	0	1061158912	58	5314
2026-01-27 01:00:58.94	240.23	13.38	-43.9	-46.8	16.5	0.00e+00	0	44	0	1066401792	58	5337
2026-01-27 01:01:01.78	239.96	13.13	-44.1	-47.0	16.3	0.00e+00	0	44	0	1071644672	58	5439
2026-01-27 01:01:05.09	239.65	12.84	-44.0	-46.9	16.4	0.00e+00	0	43	0	1077936128	59	5098
2026-01-27 01:01:07.79	239.40	12.61	-43.5	-46.3	16.9	0.00e+00	0	44	0	1083179008	59	4755
2026-01-27 01:01:11.08	239.11	12.33	-43.3	-46.0	17.2	0.00e+00	0	44	0	1089470464	58	4856
2026-01-27 01:01:13.90	238.86	12.09	-43.2	-45.8	17.4	0.00e+00	0	44	0	1094713344	58	4750
2026-01-27 01:01:17.03	238.58	11.83	-43.5	-46.3	16.9	0.00e+00	0	44	0	1101004800	58	5036
2026-01-27 01:01:19.87	238.34	11.59	-44.1	-47.1	16.1	0.00e+00	0	44	0	1106247680	58	5500
2026-01-27 01:01:23.15	238.07	11.32	-44.9	-48.4	14.9	0.00e+00	0	43	0	1112539136	60	5706
2026-01-27 01:01:26.00	237.83	11.08	-45.4	-49.3	14.0	7.00e-07	0	44	0	1117782016	61	5946
2026-01-27 01:01:29.13	237.58	10.83	-45.3	-49.1	14.2	7.00e-07	0	44	0	1123024896	61	5808
2026-01-27 01:01:32.32	237.32	10.57	-45.1	-48.7	14.6	0.00e+00	0	44	0	1129316352	61	5542
2026-01-27 01:01:35.21	237.10	10.34	-45.0	-48.5	14.7	7.00e-07	0	44	0	1134559232	61	5451
2026-01-27 01:01:38.51	236.84	10.07	-44.6	-48.0	15.3	0.00e+00	0	44	0	1140850688	60	5413
2026-01-27 01:01:41.22	236.64	9.86	-44.4	-47.7	15.6	0.00e+00	0	43	0	1146093568	60	5227
2026-01-27 01:01:44.49	236.40	9.60	-44.3	-47.5	15.7	0.00e+00	0	44	0	1152385024	60	5143
2026-01-27 01:01:47.21	236.20	9.39	-44.1	-47.2	16.0	0.00e+00	0	43	0	1157627904	60	4943
2026-01-27 01:01:50.49	235.96	9.14	-44.1	-47.2	16.0	0.00e+00	0	43	0	1163919360	60	4953
2026-01-27 01:01:53.19	235.77	8.93	-49.2	-64.6	3.8	9.16e-01	0	44	104	1168113664	69	21787
2026-01-27 01:01:56.66	235.53	8.67	-49.4	-65.0	3.8	1.49e+00	0	44	104	1168113664	69	22999
2026-01-27 01:01:59.40	235.34	8.46	-49.8	-65.2	3.8	1.49e+00	0	44	104	1168113664	70	22034
2026-01-27 01:02:02.84	235.11	8.20	-49.6	-65.2	3.8	1.49e+00	0	43	104	1168113664	70	22043
2026-01-27 01:02:05.58	234.93	8.00	-49.8	-65.2	3.8	1.49e+00	0	44	104	1168113664	70	22203
2026-01-27 01:02:08.86	234.71	7.75	-50.0	-65.2	3.8	1.49e+00	0	44	104	1168113664	70	22126
2026-01-27 01:02:11.56	234.54	7.56	-49.8	-65.1	3.8	1.49e+00	0	44	104	1168113664	70	22006
2026-01-27 01:02:14.85	234.33	7.32	-49.5	-65.1	3.8	1.49e+00	0	43	104	1168113664	70	21899
2026-01-27 01:02:17.56	234.16	7.12	-49.6	-65.1	3.8	1.49e+00	0	44	104	1168113664	70	21857
2026-01-27 01:02:20.84	233.96	6.89	-49.5	-65.1	3.8	1.49e+00	0	44	104	1168113664	70	21861
2026-01-27 01:02:23.54	233.80	6.69	-49.5	-65.1	3.8	1.49e+00	0	44	104	1168113664	70	21762
2026-01-27 01:02:26.82	233.60	6.46	-49.5	-65.1	3.8	1.49e+00	0	43	104	1168113664	70	21826
2026-01-27 01:02:29.53	233.44	6.27	-49.5	-65.0	3.8	1.49e+00	0	44	104	1168113664	70	21695
2026-01-27 01:02:32.81	233.25	6.04	-49.5	-65.1	3.8	1.49e+00	0	44	104	1168113664	70	21773
2026-01-27 01:02:35.52	233.10	5.86	-49.5	-65.1	3.8	1.49e+00	0	44	104	1168113664	70	21785
2026-01-27 01:02:38.78	232.92	5.63	-49.5	-65.1	3.8	1.49e+00	0	44	104	1168113664	70	21757
2026-01-27 01:02:41.49	232.77	5.45	-49.5	-65.0	3.8	1.49e+00	0	44	104	1168113664	70	21718
2026-01-27 01:02:44.79	232.59	5.22	-49.5	-65.1	3.8	1.49e+00	0	44	104	1168113664	70	21803
2026-01-27 01:02:47.48	232.44	5.04	-49.5	-65.1	3.8	1.49e+00	0	44	104	1168113664	70	21804

#Closed at: 2026-01-27 01:02:49
#Recorded file [1168 MB]: D:/Data/31040_260127_035045.dat