passes_logs/2026/01/27/T1/T1__20260127_033014_FENGYUN_3E_rec.log

#Pass ID: 20260127_033014_FENGYUN 3E
#Satellite: FENGYUN 3E
#Configuration: FENGYUN 3E
#almurnet v.1.7.20251203
#Start time: 2026-01-27 03:30:14

#Version: 2.0.20230620
#Station: T1
#Location: 37.570604 lon 55.790049 lat
#TLE: 1 49008U 21062A   26026.49196073  .00000386  00000+0  20264-3 0  9990
#TLE: 2 49008  98.7499  31.4864 0002458 116.1468 243.9961 14.19888205236473

#Time	Az	El	Level	Level2	SNR	BER	BlckErr	Temp	State	Recorded	gain1	gain2
2026-01-27 03:30:14.43	19.63	4.96	-47.7	-60.2	3.8	8.46e-01	0	41	0	0	66	14542
2026-01-27 03:30:18.40	19.75	5.24	-47.7	-60.0	3.8	8.46e-01	0	41	104	0	64	16115
2026-01-27 03:30:22.39	19.87	5.52	-47.7	-60.0	3.8	8.46e-01	0	41	104	0	64	16044
2026-01-27 03:30:26.38	19.99	5.81	-47.6	-60.1	3.8	8.47e-01	0	42	104	0	64	16227
2026-01-27 03:30:30.36	20.11	6.10	-47.6	-60.2	3.8	8.47e-01	0	42	104	0	64	16410
2026-01-27 03:30:34.34	20.24	6.39	-47.7	-60.1	3.8	8.47e-01	0	42	104	0	64	16164
2026-01-27 03:30:38.33	20.37	6.68	-47.6	-59.5	3.8	8.48e-01	0	42	104	0	64	15184
2026-01-27 03:30:42.31	20.50	6.98	-47.4	-58.3	3.9	8.47e-01	0	42	104	0	64	13147
2026-01-27 03:30:46.30	20.63	7.28	-47.3	-56.9	4.1	8.39e-01	0	43	0	0	64	11283
2026-01-27 03:30:50.30	20.77	7.59	-47.3	-56.7	4.2	8.38e-01	0	43	0	0	64	10930
2026-01-27 03:30:54.28	20.91	7.90	-47.4	-57.6	4.0	8.45e-01	0	43	104	0	64	12198
2026-01-27 03:30:58.27	21.05	8.21	-47.5	-58.2	3.8	8.47e-01	0	43	104	0	64	12990
2026-01-27 03:31:02.25	21.19	8.52	-47.1	-55.5	4.6	8.24e-01	0	43	0	0	64	9597
2026-01-27 03:31:06.24	21.34	8.84	-46.3	-51.7	7.3	1.57e-01	0	43	0	14680064	63	6534
2026-01-27 03:31:10.23	21.49	9.17	-46.1	-51.3	7.7	8.09e-02	0	43	0	44040192	61	6960
2026-01-27 03:31:14.22	21.64	9.50	-40.8	-42.4	16.6	0.00e+00	0	43	0	63963136	51	4467
2026-01-27 03:31:18.21	21.79	9.83	-38.7	-39.9	19.1	0.00e+00	0	43	0	92274688	48	3981
2026-01-27 03:31:22.21	21.95	10.17	-38.5	-39.8	19.1	0.00e+00	0	43	0	121634816	47	4148
2026-01-27 03:31:26.21	22.11	10.51	-38.3	-39.5	19.4	0.00e+00	0	43	0	149946368	46	4267
2026-01-27 03:31:30.20	22.28	10.85	-38.4	-39.5	19.4	0.00e+00	0	43	0	179306496	46	4286
2026-01-27 03:31:34.18	22.45	11.20	-38.3	-39.4	19.5	0.00e+00	0	43	0	207618048	46	4226
2026-01-27 03:31:38.18	22.62	11.56	-38.2	-39.3	19.6	0.00e+00	0	43	0	235929600	46	4161
2026-01-27 03:31:42.17	22.80	11.92	-38.1	-39.2	19.7	0.00e+00	0	43	0	265289728	46	4118
2026-01-27 03:31:46.16	22.98	12.29	-38.1	-39.2	19.8	0.00e+00	0	43	0	294649856	46	4100
2026-01-27 03:31:50.15	23.16	12.66	-37.9	-38.9	20.1	0.00e+00	0	43	0	322961408	46	3967
2026-01-27 03:31:54.14	23.35	13.04	-37.7	-38.6	20.3	0.00e+00	0	44	0	352321536	46	3863
2026-01-27 03:31:58.13	23.54	13.42	-37.7	-38.7	20.2	0.00e+00	0	44	0	380633088	45	4131
2026-01-27 03:32:02.12	23.74	13.81	-37.4	-38.3	20.6	0.00e+00	0	44	0	408944640	45	3951
2026-01-27 03:32:06.10	23.94	14.20	-37.2	-38.2	20.8	0.00e+00	0	43	0	438304768	45	3886
2026-01-27 03:32:10.10	24.15	14.60	-37.1	-38.1	20.9	0.00e+00	0	44	0	466616320	44	4066
2026-01-27 03:32:14.09	24.36	15.01	-37.0	-38.0	20.9	0.00e+00	0	44	0	495976448	44	4034
2026-01-27 03:32:18.08	24.58	15.43	-37.0	-37.9	21.1	0.00e+00	0	44	0	524288000	44	3991
2026-01-27 03:32:22.07	24.81	15.85	-36.8	-37.7	21.3	0.00e+00	0	44	0	553648128	44	3906
2026-01-27 03:32:26.07	25.04	16.27	-36.9	-37.9	21.1	0.00e+00	0	44	0	581959680	44	3963
2026-01-27 03:32:30.06	25.27	16.71	-36.8	-37.7	21.1	0.00e+00	0	44	0	611319808	43	4141
2026-01-27 03:32:34.06	25.52	17.15	-36.7	-37.7	21.1	0.00e+00	0	44	0	639631360	43	4121
2026-01-27 03:32:38.05	25.77	17.60	-36.8	-37.8	21.0	0.00e+00	0	44	0	668991488	43	4177
2026-01-27 03:32:42.05	26.02	18.06	-36.5	-37.4	21.4	0.00e+00	0	44	0	697303040	43	3991
2026-01-27 03:32:46.04	26.29	18.53	-36.2	-37.2	21.6	0.00e+00	0	44	0	726663168	42	4114
2026-01-27 03:32:50.02	26.56	19.00	-36.0	-37.0	21.7	0.00e+00	0	44	0	754974720	42	4010
2026-01-27 03:32:54.01	26.84	19.49	-36.2	-37.1	21.7	0.00e+00	0	44	0	784334848	42	4071
2026-01-27 03:32:58.01	27.13	19.98	-35.7	-36.6	22.1	0.00e+00	0	44	0	812646400	42	3864
2026-01-27 03:33:02.00	27.43	20.49	-35.6	-36.5	22.2	0.00e+00	0	44	0	842006528	41	4021
2026-01-27 03:33:05.99	27.73	21.00	-35.6	-36.5	22.2	0.00e+00	0	44	0	870318080	41	4028
2026-01-27 03:33:09.98	28.05	21.52	-35.4	-36.3	22.4	0.00e+00	0	44	0	899678208	41	3932
2026-01-27 03:33:13.97	28.38	22.05	-35.7	-36.6	22.2	0.00e+00	0	44	0	927989760	41	4070
2026-01-27 03:33:17.95	28.71	22.59	-35.5	-36.3	22.4	0.00e+00	0	44	0	956301312	41	3954
2026-01-27 03:33:21.94	29.06	23.15	-35.4	-36.3	22.5	0.00e+00	0	44	0	985661440	41	3941
2026-01-27 03:33:25.94	29.43	23.71	-35.5	-36.3	22.5	0.00e+00	0	44	0	1015021568	40	4174
2026-01-27 03:33:29.94	29.80	24.29	-35.4	-36.2	22.6	0.00e+00	0	44	0	1043333120	40	4138
2026-01-27 03:33:33.93	30.19	24.88	-35.5	-36.3	22.5	0.00e+00	0	44	0	1072693248	40	4175
2026-01-27 03:33:37.92	30.59	25.48	-35.5	-36.4	22.5	0.00e+00	0	44	0	1101004800	40	4194
2026-01-27 03:33:41.91	31.01	26.09	-35.1	-35.9	22.9	0.00e+00	0	44	0	1129316352	40	3997
2026-01-27 03:33:45.90	31.44	26.71	-34.9	-35.7	23.1	0.00e+00	0	44	0	1158676480	40	3904
2026-01-27 03:33:49.89	31.89	27.35	-34.9	-35.7	23.1	0.00e+00	0	44	0	1186988032	39	4125
2026-01-27 03:33:53.89	32.36	28.01	-34.8	-35.7	23.1	0.00e+00	0	44	0	1216348160	40	3871
2026-01-27 03:33:57.88	32.85	28.67	-34.8	-35.7	23.2	0.00e+00	0	44	0	1244659712	39	4103
2026-01-27 03:34:01.87	33.36	29.35	-34.8	-35.6	23.3	0.00e+00	0	44	0	1274019840	39	4074
2026-01-27 03:34:05.86	33.89	30.04	-34.5	-35.4	23.5	0.00e+00	0	44	0	1302331392	39	3967
2026-01-27 03:34:09.85	34.44	30.75	-34.6	-35.4	23.4	0.00e+00	0	44	0	1331691520	39	3994
2026-01-27 03:34:13.84	35.01	31.48	-34.9	-35.7	23.2	0.00e+00	0	44	0	1360003072	39	4110
2026-01-27 03:34:17.83	35.62	32.21	-34.9	-35.7	23.2	0.00e+00	0	44	0	1389363200	39	4133
2026-01-27 03:34:21.82	36.25	32.97	-34.9	-35.8	23.1	0.00e+00	0	44	0	1417674752	39	4158
2026-01-27 03:34:25.82	36.91	33.74	-34.5	-35.3	23.5	0.00e+00	0	44	0	1447034880	39	3956
2026-01-27 03:34:29.81	37.60	34.52	-34.7	-35.5	23.4	0.00e+00	0	44	0	1475346432	39	4021
2026-01-27 03:34:33.80	38.32	35.33	-35.4	-36.3	22.7	0.00e+00	0	44	0	1504706560	40	4170
2026-01-27 03:34:37.79	39.08	36.14	-35.1	-36.0	23.0	0.00e+00	0	44	0	1533018112	39	4253
2026-01-27 03:34:41.78	39.88	36.97	-34.6	-35.5	23.4	0.00e+00	0	44	0	1562378240	40	3784
2026-01-27 03:34:45.78	40.72	37.82	-35.0	-35.8	23.1	0.00e+00	0	44	0	1590689792	39	4164
2026-01-27 03:34:49.77	41.60	38.68	-35.3	-36.2	22.8	0.00e+00	0	44	0	1619001344	40	4125
2026-01-27 03:34:53.77	42.54	39.56	-35.1	-35.9	23.0	0.00e+00	0	44	0	1648361472	40	3996
2026-01-27 03:34:57.75	43.52	40.45	-35.2	-36.1	22.8	0.00e+00	0	44	0	1677721600	40	4060
2026-01-27 03:35:01.75	44.56	41.36	-35.4	-36.3	22.7	0.00e+00	0	44	0	1706033152	40	4159
2026-01-27 03:35:05.74	45.66	42.27	-35.5	-36.4	22.6	0.00e+00	0	44	0	1735393280	41	3990
2026-01-27 03:35:09.73	46.82	43.20	-35.2	-36.1	22.9	0.00e+00	0	44	0	1763704832	40	4059
2026-01-27 03:35:13.72	48.05	44.13	-35.3	-36.1	22.9	0.00e+00	0	44	0	1792016384	40	4074
2026-01-27 03:35:17.72	49.36	45.08	-35.5	-36.4	22.6	0.00e+00	0	44	0	1821376512	40	4218
2026-01-27 03:35:21.72	50.74	46.03	-35.7	-36.5	22.5	0.00e+00	0	44	0	1849688064	41	4051
2026-01-27 03:35:25.71	52.21	46.98	-35.4	-36.2	22.7	0.00e+00	0	44	0	1879048192	41	3912
2026-01-27 03:35:29.71	53.78	47.94	-36.1	-37.0	22.1	0.00e+00	0	44	0	1908408320	41	4277
2026-01-27 03:35:33.72	55.44	48.90	-36.3	-37.2	21.9	0.00e+00	0	44	0	1936719872	42	4110
2026-01-27 03:35:37.72	57.21	49.84	-36.6	-37.6	21.6	0.00e+00	0	44	0	1966080000	43	4055
2026-01-27 03:35:41.72	59.09	50.78	-36.2	-37.1	22.0	0.00e+00	0	44	0	1994391552	43	3842
2026-01-27 03:35:45.72	61.09	51.70	-36.9	-37.8	21.3	0.00e+00	0	44	0	2023751680	43	4192
2026-01-27 03:35:49.72	63.21	52.60	-36.3	-37.2	21.9	0.00e+00	0	44	0	2052063232	43	3889
2026-01-27 03:35:53.71	65.46	53.48	-36.8	-37.7	21.3	0.00e+00	0	44	0	2081423360	43	4130
2026-01-27 03:35:57.72	67.86	54.32	-35.9	-36.7	22.3	0.00e+00	0	44	0	2109734912	42	3899
2026-01-27 03:36:01.72	70.39	55.12	-36.4	-37.3	21.8	0.00e+00	0	44	0	2139095040	42	4173
2026-01-27 03:36:05.72	73.07	55.88	-36.7	-37.6	21.6	0.00e+00	0	44	0	2167406592	43	4057
2026-01-27 03:36:09.72	75.89	56.59	-37.1	-38.0	21.3	0.00e+00	0	44	0	2196766720	44	4046
2026-01-27 03:36:13.73	78.86	57.23	-36.3	-37.2	21.9	0.00e+00	0	44	0	2226126848	43	3894
2026-01-27 03:36:17.73	81.95	57.81	-36.8	-37.8	21.3	0.00e+00	0	44	0	2254438400	43	4151
2026-01-27 03:36:21.73	85.17	58.31	-36.3	-37.2	21.9	0.00e+00	0	44	0	2283798528	42	4100
2026-01-27 03:36:25.74	88.51	58.72	-36.4	-37.3	21.9	0.00e+00	0	44	0	2312110080	42	4188
2026-01-27 03:36:29.73	91.93	59.05	-36.8	-37.7	21.3	0.00e+00	0	44	0	2341470208	43	4128
2026-01-27 03:36:33.74	95.45	59.28	-36.2	-37.1	22.0	0.00e+00	0	44	0	2369781760	42	4067
2026-01-27 03:36:37.74	99.00	59.42	-36.3	-37.2	21.9	0.00e+00	0	44	0	2399141888	42	4111
2026-01-27 03:36:41.75	102.58	59.46	-36.5	-37.5	21.6	0.00e+00	0	44	0	2428502016	42	4247
2026-01-27 03:36:45.74	106.15	59.39	-36.7	-37.6	21.5	0.00e+00	0	44	0	2456813568	43	4093
2026-01-27 03:36:49.74	109.69	59.23	-36.5	-37.4	21.7	0.00e+00	0	44	0	2486173696	43	3998
2026-01-27 03:36:53.75	113.18	58.97	-36.6	-37.5	21.5	0.00e+00	0	44	0	2514485248	43	4042
2026-01-27 03:36:57.75	116.59	58.62	-36.6	-37.5	21.6	0.00e+00	0	44	0	2543845376	43	4025
2026-01-27 03:37:01.74	119.89	58.18	-37.1	-38.0	21.1	0.00e+00	0	44	0	2572156928	43	4276
2026-01-27 03:37:05.74	123.08	57.66	-36.3	-37.2	21.9	0.00e+00	0	44	0	2601517056	43	3895
2026-01-27 03:37:09.74	126.15	57.06	-36.4	-37.3	21.7	0.00e+00	0	44	0	2629828608	43	3929
2026-01-27 03:37:13.74	129.07	56.40	-36.8	-37.7	21.5	0.00e+00	0	44	0	2659188736	43	4109
2026-01-27 03:37:17.74	131.86	55.68	-36.6	-37.5	21.6	0.00e+00	0	44	0	2687500288	43	4042
2026-01-27 03:37:21.74	134.50	54.90	-36.7	-37.6	21.5	0.00e+00	0	44	0	2716860416	43	4076
2026-01-27 03:37:25.75	137.01	54.08	-36.5	-37.4	21.7	0.00e+00	0	44	0	2745171968	43	3996
2026-01-27 03:37:29.75	139.36	53.23	-36.7	-37.6	21.5	0.00e+00	0	44	0	2774532096	43	4070
2026-01-27 03:37:33.75	141.59	52.34	-37.0	-37.9	21.2	0.00e+00	0	44	0	2802843648	43	4218
2026-01-27 03:37:37.74	143.68	51.43	-37.3	-38.3	21.0	0.00e+00	0	44	0	2832203776	44	4160
2026-01-27 03:37:41.74	145.64	50.50	-36.9	-37.8	21.5	0.00e+00	0	44	0	2861563904	44	3948
2026-01-27 03:37:45.72	147.49	49.56	-36.2	-37.1	21.9	0.00e+00	0	44	0	2889875456	43	3845
2026-01-27 03:37:49.71	149.23	48.61	-36.5	-37.4	21.7	0.00e+00	0	44	0	2918187008	43	3981
2026-01-27 03:37:53.70	150.86	47.66	-36.4	-37.3	21.8	0.00e+00	0	44	0	2947547136	43	3932
2026-01-27 03:37:57.69	152.40	46.70	-35.7	-36.5	22.5	0.00e+00	0	44	0	2975858688	42	3808
2026-01-27 03:38:01.68	153.85	45.74	-35.8	-36.6	22.4	0.00e+00	0	44	0	3005218816	41	4094
2026-01-27 03:38:05.68	155.21	44.79	-35.1	-35.9	23.0	0.00e+00	0	44	0	3033530368	41	3773
2026-01-27 03:38:09.67	156.50	43.84	-35.2	-36.1	22.2	0.00e+00	0	44	0	3062890496	40	4067
2026-01-27 03:38:13.66	157.71	42.90	-35.6	-36.4	22.6	0.00e+00	0	44	0	3091202048	41	3994
2026-01-27 03:38:17.65	158.86	41.97	-35.0	-35.8	23.1	0.00e+00	0	44	0	3120562176	40	3952
2026-01-27 03:38:21.64	159.94	41.06	-35.2	-36.0	22.9	0.00e+00	0	44	0	3148873728	40	4051
2026-01-27 03:38:25.63	160.97	40.15	-35.1	-36.0	23.0	0.00e+00	0	44	0	3178233856	40	4005
2026-01-27 03:38:29.62	161.94	39.26	-35.4	-36.2	22.7	0.00e+00	0	44	0	3206545408	40	4145
2026-01-27 03:38:33.60	162.86	38.38	-35.2	-36.1	22.9	0.00e+00	0	44	0	3235905536	40	4054
2026-01-27 03:38:37.59	163.73	37.52	-35.2	-36.1	22.9	0.00e+00	0	44	0	3264217088	40	4063
2026-01-27 03:38:41.58	164.56	36.67	-35.2	-36.1	22.9	0.00e+00	0	44	0	3293577216	40	4068
2026-01-27 03:38:45.57	165.35	35.84	-35.2	-36.1	22.9	0.00e+00	0	44	0	3321888768	40	4079
2026-01-27 03:38:49.56	166.10	35.03	-35.1	-35.9	23.0	0.00e+00	0	44	0	3350200320	40	4003
2026-01-27 03:38:53.54	166.81	34.23	-34.9	-35.8	23.1	0.00e+00	0	44	0	3379560448	40	3914
2026-01-27 03:38:57.53	167.49	33.44	-35.0	-35.8	23.1	0.00e+00	0	44	0	3407872000	40	3944
2026-01-27 03:39:01.52	168.14	32.67	-35.1	-36.0	23.0	0.00e+00	0	44	0	3437232128	40	4013
2026-01-27 03:39:05.51	168.76	31.92	-35.2	-36.0	22.8	0.00e+00	0	44	0	3465543680	40	4047
2026-01-27 03:39:09.49	169.36	31.18	-35.0	-35.9	23.0	0.00e+00	0	44	0	3494903808	40	3978
2026-01-27 03:39:13.48	169.93	30.46	-35.1	-35.9	23.0	0.00e+00	0	44	0	3523215360	40	3987
2026-01-27 03:39:17.47	170.47	29.75	-35.0	-35.9	23.0	0.00e+00	0	44	0	3551526912	40	3975
2026-01-27 03:39:21.46	170.99	29.06	-35.3	-36.1	22.8	0.00e+00	0	44	0	3580887040	40	4091
2026-01-27 03:39:25.45	171.50	28.38	-35.4	-36.3	22.7	0.00e+00	0	44	0	3609198592	40	4171
2026-01-27 03:39:29.44	171.98	27.71	-35.4	-36.2	22.7	0.00e+00	0	44	0	3638558720	40	4119
2026-01-27 03:39:33.43	172.44	27.06	-35.3	-36.1	22.8	0.00e+00	0	44	0	3667918848	40	4076
2026-01-27 03:39:37.42	172.88	26.42	-35.4	-36.2	22.7	0.00e+00	0	44	0	3696230400	40	4137
2026-01-27 03:39:41.41	173.31	25.80	-35.5	-36.4	22.6	0.00e+00	0	44	0	3724541952	40	4195
2026-01-27 03:39:45.40	173.72	25.19	-35.4	-36.3	22.6	0.00e+00	0	44	0	3753902080	40	4148
2026-01-27 03:39:49.39	174.12	24.59	-35.3	-36.1	22.8	0.00e+00	0	44	0	3782213632	40	4088
2026-01-27 03:39:53.38	174.50	24.00	-35.3	-36.1	22.8	0.00e+00	0	44	0	3811573760	40	4075
2026-01-27 03:39:57.37	174.87	23.42	-35.3	-36.2	22.7	0.00e+00	0	44	0	3839885312	40	4111
2026-01-27 03:40:01.35	175.23	22.86	-35.5	-36.3	22.6	0.00e+00	0	44	0	3869245440	40	4184
2026-01-27 03:40:05.36	175.58	22.30	-35.7	-36.6	22.3	0.00e+00	0	44	0	3897556992	40	4333
2026-01-27 03:40:09.36	175.91	21.76	-35.9	-36.8	22.1	0.00e+00	0	44	0	3926917120	41	4183
2026-01-27 03:40:13.37	176.23	21.23	-36.2	-37.1	21.9	0.00e+00	0	44	0	3955228672	41	4301
2026-01-27 03:40:17.38	176.55	20.70	-36.2	-37.1	21.9	0.00e+00	0	44	0	3984588800	41	4300
2026-01-27 03:40:21.39	176.85	20.19	-36.1	-37.0	22.0	0.00e+00	0	44	0	4013948928	42	4023
2026-01-27 03:40:25.39	177.14	19.68	-36.1	-37.0	22.0	0.00e+00	0	44	0	4042260480	42	4014
2026-01-27 03:40:29.40	177.43	19.19	-36.1	-37.0	22.0	0.00e+00	0	44	0	4071620608	42	4023
2026-01-27 03:40:33.40	177.71	18.70	-36.3	-37.2	21.7	0.00e+00	0	44	0	4099932160	42	4112
2026-01-27 03:40:37.41	177.97	18.23	-36.5	-37.4	21.6	0.00e+00	0	44	0	4129292288	42	4199
2026-01-27 03:40:41.41	178.23	17.76	-36.7	-37.6	21.3	0.00e+00	0	44	0	4157603840	42	4321
2026-01-27 03:40:45.41	178.49	17.30	-36.8	-37.8	21.2	0.00e+00	0	44	0	4186963968	43	4152
2026-01-27 03:40:49.42	178.73	16.85	-36.9	-37.8	21.1	0.00e+00	0	44	0	4215275520	43	4171
2026-01-27 03:40:53.42	178.97	16.40	-36.8	-37.8	21.2	0.00e+00	0	44	0	4244635648	43	4150
2026-01-27 03:40:57.42	179.20	15.97	-36.9	-37.8	21.1	0.00e+00	0	44	0	4272947200	43	4192
2026-01-27 03:41:01.42	179.43	15.54	-36.9	-37.9	21.1	0.00e+00	0	44	0	4302307328	43	4194
2026-01-27 03:41:05.41	179.65	15.12	-36.9	-37.9	21.1	0.00e+00	0	44	0	4331667456	43	4208
2026-01-27 03:41:09.42	179.86	14.70	-37.3	-38.3	20.8	0.00e+00	0	44	0	4359979008	44	4182
2026-01-27 03:41:13.42	180.07	14.30	-37.4	-38.4	20.7	0.00e+00	0	44	0	4389339136	44	4226
2026-01-27 03:41:17.41	180.27	13.89	-37.7	-38.7	20.4	0.00e+00	0	44	0	4417650688	45	4126
2026-01-27 03:41:21.42	180.47	13.50	-37.8	-38.8	20.3	0.00e+00	0	44	0	4447010816	45	4175
2026-01-27 03:41:25.42	180.67	13.11	-37.8	-38.9	20.2	0.00e+00	0	44	0	4475322368	45	4216
2026-01-27 03:41:29.42	180.86	12.73	-37.8	-38.9	20.2	0.00e+00	0	44	0	4504682496	45	4209
2026-01-27 03:41:33.43	181.04	12.35	-38.0	-39.0	20.0	0.00e+00	0	44	0	4534042624	45	4291
2026-01-27 03:41:37.43	181.22	11.97	-38.2	-39.3	19.8	0.00e+00	0	44	0	4562354176	45	4392
2026-01-27 03:41:41.43	181.40	11.61	-38.4	-39.5	19.6	0.00e+00	0	44	0	4591714304	46	4254
2026-01-27 03:41:45.44	181.57	11.25	-38.2	-39.2	19.8	0.00e+00	0	44	0	4620025856	46	4139
2026-01-27 03:41:49.44	181.74	10.89	-38.2	-39.3	19.8	0.00e+00	0	44	0	4649385984	46	4155
2026-01-27 03:41:53.45	181.90	10.54	-38.3	-39.4	19.7	0.00e+00	0	44	0	4677697536	46	4199
2026-01-27 03:41:57.45	182.06	10.19	-38.4	-39.5	19.5	0.00e+00	0	44	0	4707057664	46	4246
2026-01-27 03:42:01.44	182.22	9.85	-38.7	-39.8	19.2	0.00e+00	0	44	0	4735369216	47	4161
2026-01-27 03:42:05.43	182.37	9.51	-38.6	-39.7	19.3	0.00e+00	0	44	0	4764729344	47	4124
2026-01-27 03:42:09.42	182.52	9.18	-38.6	-39.7	19.2	0.00e+00	0	44	0	4793040896	47	4140
2026-01-27 03:42:13.42	182.67	8.85	-39.5	-40.7	18.6	0.00e+00	0	44	0	4822401024	48	4356
2026-01-27 03:42:17.41	182.81	8.53	-42.8	-44.6	14.6	0.00e+00	0	44	0	4850712576	55	4564
2026-01-27 03:42:21.40	182.95	8.21	-47.6	-52.8	6.5	1.90e-01	0	44	0	4880072704	64	6989
2026-01-27 03:42:25.39	183.09	7.89	-48.5	-56.7	4.3	8.36e-01	0	44	0	4884267008	66	9767
2026-01-27 03:42:29.39	183.23	7.58	-48.4	-56.0	4.5	8.18e-01	0	44	0	4884267008	66	8978
2026-01-27 03:42:33.37	183.36	7.27	-48.7	-57.7	4.0	8.42e-01	0	44	0	4884267008	66	10909
2026-01-27 03:42:37.37	183.49	6.96	-48.9	-58.9	3.8	8.47e-01	0	44	104	4884267008	67	11912
2026-01-27 03:42:41.35	183.62	6.66	-48.9	-59.3	3.8	8.47e-01	0	44	104	4884267008	67	12463
2026-01-27 03:42:45.34	183.74	6.37	-48.9	-59.2	3.8	8.48e-01	0	44	104	4884267008	67	12255
2026-01-27 03:42:49.32	183.87	6.07	-48.9	-59.2	3.8	8.47e-01	0	44	104	4884267008	67	12236
2026-01-27 03:42:53.31	183.99	5.78	-48.9	-59.4	3.8	8.48e-01	0	44	104	4884267008	67	12610
2026-01-27 03:42:57.30	184.11	5.49	-49.0	-59.9	3.8	8.47e-01	0	44	104	4884267008	67	13367
2026-01-27 03:43:01.28	184.22	5.21	-49.0	-60.2	3.8	8.46e-01	0	44	104	4884267008	67	13785

#Closed at: 2026-01-27 03:43:05
#Recorded file [4884 MB]: D:/Data/31040_260127_063014.dat