passes_logs/2026/01/27/T1/T1__20260127_072445_SUOMI_NPP_rec.log

#Pass ID: 20260127_072445_SUOMI NPP
#Satellite: SUOMI NPP
#Configuration: NPP
#almurnet v.1.7.20251203
#Start time: 2026-01-27 07:24:47

#Version: 2.0.20230620
#Station: T1
#Location: 37.570604 lon 55.790049 lat
#TLE: 1 37849U 11061A   26026.87508736  .00000176  00000+0  10464-3 0  9991
#TLE: 2 37849  98.7822 328.8221 0002127  43.3055 316.8288 14.19530452738397

#Time	Az	El	Level	Level2	SNR	BER	BlckErr	Temp	State	Recorded	gain1	gain2
2026-01-27 07:24:47.87	74.93	5.08	-50.0	-65.3	3.8	1.49e+00	0	41	0	0	71	21205
2026-01-27 07:24:49.86	74.68	5.17	-50.2	-65.4	3.8	1.49e+00	0	42	104	0	72	20168
2026-01-27 07:24:51.85	74.44	5.26	-50.0	-65.4	3.8	1.49e+00	0	42	104	0	72	20074
2026-01-27 07:24:53.85	74.19	5.34	-50.1	-65.3	3.8	1.49e+00	0	42	104	0	72	20004
2026-01-27 07:24:55.84	73.95	5.43	-50.1	-65.3	3.8	1.49e+00	0	42	104	0	72	19969
2026-01-27 07:24:57.83	73.70	5.51	-50.0	-65.3	3.8	1.49e+00	0	42	104	0	72	19867
2026-01-27 07:24:59.82	73.45	5.60	-49.9	-65.2	3.8	1.49e+00	0	42	104	0	71	21007
2026-01-27 07:25:01.81	73.20	5.68	-49.7	-65.1	3.8	1.49e+00	0	42	104	0	71	20769
2026-01-27 07:25:03.81	72.94	5.77	-49.5	-64.9	3.8	1.49e+00	0	42	104	0	71	20171
2026-01-27 07:25:05.80	72.69	5.85	-49.4	-64.8	3.8	1.49e+00	0	42	104	0	70	21126
2026-01-27 07:25:07.79	72.43	5.93	-49.4	-64.8	3.8	1.49e+00	0	42	104	0	70	21085
2026-01-27 07:25:09.78	72.18	6.02	-49.4	-64.8	3.8	1.49e+00	0	42	104	0	70	21109
2026-01-27 07:25:11.78	71.92	6.10	-49.4	-64.8	3.8	1.49e+00	0	43	104	0	70	21081
2026-01-27 07:25:13.77	71.66	6.18	-49.4	-64.8	3.8	1.49e+00	0	42	104	0	70	21058
2026-01-27 07:25:15.77	71.39	6.27	-49.4	-64.7	3.8	1.49e+00	0	42	104	0	70	21001
2026-01-27 07:25:17.76	71.13	6.35	-49.4	-64.7	3.8	1.49e+00	0	42	104	0	70	20954
2026-01-27 07:25:19.75	70.87	6.43	-49.4	-64.7	3.8	1.49e+00	0	42	104	0	70	20875
2026-01-27 07:25:21.74	70.60	6.51	-49.4	-64.8	3.8	1.49e+00	0	43	104	0	70	21026
2026-01-27 07:25:23.73	70.33	6.60	-49.3	-64.8	3.8	1.49e+00	0	43	104	0	70	21031
2026-01-27 07:25:25.73	70.06	6.68	-49.3	-64.7	3.8	1.49e+00	0	43	104	0	70	20927
2026-01-27 07:25:27.72	69.79	6.76	-49.3	-64.7	3.8	1.49e+00	0	43	104	0	70	20979
2026-01-27 07:25:29.71	69.52	6.84	-49.3	-64.7	3.8	1.49e+00	0	43	104	0	70	20889
2026-01-27 07:25:31.71	69.24	6.92	-49.3	-64.6	3.8	1.49e+00	0	43	104	0	70	20761
2026-01-27 07:25:33.70	68.97	7.00	-49.3	-64.7	3.8	1.49e+00	0	43	104	0	70	20781
2026-01-27 07:25:35.69	68.69	7.08	-49.3	-64.7	3.8	1.49e+00	0	43	104	0	70	20813
2026-01-27 07:25:37.69	68.41	7.16	-49.3	-64.7	3.8	1.49e+00	0	43	104	0	70	20845
2026-01-27 07:25:39.68	68.13	7.24	-49.3	-64.6	3.8	1.49e+00	0	43	104	0	70	20765
2026-01-27 07:25:41.68	67.85	7.31	-49.3	-64.6	3.8	1.49e+00	0	43	104	0	70	20747
2026-01-27 07:25:43.67	67.57	7.39	-49.3	-64.6	3.8	1.49e+00	0	43	104	0	70	20644
2026-01-27 07:25:45.66	67.28	7.47	-49.3	-64.6	3.8	1.49e+00	0	43	104	0	70	20542
2026-01-27 07:25:47.66	66.99	7.55	-49.3	-64.6	3.8	1.49e+00	0	43	104	0	70	20587
2026-01-27 07:25:49.65	66.71	7.62	-49.3	-64.6	3.8	1.49e+00	0	43	104	0	70	20620
2026-01-27 07:25:51.64	66.42	7.70	-49.3	-64.6	3.8	1.49e+00	0	43	104	0	70	20607
2026-01-27 07:25:53.63	66.13	7.77	-49.3	-64.5	3.8	1.49e+00	0	43	104	0	70	20368
2026-01-27 07:25:55.62	65.83	7.85	-49.3	-64.3	3.8	1.49e+00	0	43	104	0	70	19991
2026-01-27 07:25:57.62	65.54	7.92	-49.3	-64.4	3.8	1.49e+00	0	43	104	0	70	20118
2026-01-27 07:25:59.61	65.24	8.00	-49.3	-64.5	3.8	1.49e+00	0	43	104	0	70	20520
2026-01-27 07:26:01.60	64.95	8.07	-49.3	-64.6	3.8	1.49e+00	0	43	104	0	70	20718
2026-01-27 07:26:03.59	64.65	8.15	-49.3	-64.4	3.8	1.49e+00	0	43	104	0	70	20242
2026-01-27 07:26:05.58	64.35	8.22	-49.3	-64.1	3.8	1.49e+00	0	44	104	0	70	19501
2026-01-27 07:26:07.58	64.05	8.29	-49.3	-64.2	3.8	1.49e+00	0	43	104	0	70	19716
2026-01-27 07:26:09.57	63.74	8.36	-49.3	-64.3	3.8	1.49e+00	0	44	104	0	70	19984
2026-01-27 07:26:11.57	63.44	8.43	-49.3	-64.3	3.8	1.49e+00	0	44	104	0	70	19940
2026-01-27 07:26:13.56	63.13	8.50	-49.2	-63.2	3.8	1.49e+00	0	43	104	0	70	17588
2026-01-27 07:26:15.55	62.82	8.57	-49.1	-61.6	4.1	1.45e+00	0	43	0	0	70	14611
2026-01-27 07:26:17.54	62.52	8.64	-49.2	-62.9	3.8	1.49e+00	0	44	104	0	70	16958
2026-01-27 07:26:19.53	62.21	8.71	-48.4	-56.3	7.0	5.88e-01	0	43	0	1048576	68	8911
2026-01-27 07:26:21.53	61.89	8.78	-46.1	-50.4	12.8	2.90e-04	0	44	0	5242880	64	5708
2026-01-27 07:26:23.52	61.58	8.85	-44.7	-48.2	15.1	0.00e+00	0	43	0	9437184	61	5231
2026-01-27 07:26:25.51	61.26	8.91	-45.5	-49.3	14.1	0.00e+00	0	43	0	12582912	61	5979
2026-01-27 07:26:27.51	60.95	8.98	-47.4	-53.4	9.9	7.99e-04	0	44	0	16777216	65	7548
2026-01-27 07:26:29.50	60.63	9.05	-48.0	-54.7	8.9	5.07e-01	0	44	0	19922944	67	7853
2026-01-27 07:26:31.50	60.31	9.11	-48.8	-58.9	5.4	2.43e-01	0	44	0	19922944	68	12023
2026-01-27 07:26:33.51	59.99	9.17	-47.8	-54.6	9.1	9.00e-05	0	44	0	20971520	66	8219
2026-01-27 07:26:35.51	59.66	9.24	-46.2	-50.7	12.6	2.05e-04	0	44	0	23068672	64	5885
2026-01-27 07:26:37.51	59.34	9.30	-45.2	-48.9	14.6	7.00e-07	0	44	0	26214400	62	5349
2026-01-27 07:26:39.51	59.01	9.36	-45.5	-49.2	14.2	1.50e-06	0	44	0	30408704	62	5592
2026-01-27 07:26:41.52	58.68	9.43	-45.1	-48.6	14.8	0.00e+00	0	44	0	34603008	62	5203
2026-01-27 07:26:43.52	58.35	9.49	-45.1	-48.7	14.7	0.00e+00	0	44	0	37748736	62	5223
2026-01-27 07:26:45.52	58.02	9.55	-45.3	-49.0	14.4	0.00e+00	0	44	0	41943040	62	5458
2026-01-27 07:26:47.52	57.69	9.61	-45.4	-49.2	14.3	1.50e-06	0	44	0	45088768	62	5571
2026-01-27 07:26:49.52	57.36	9.66	-45.3	-49.0	14.4	0.00e+00	0	44	0	49283072	62	5403
2026-01-27 07:26:51.52	57.02	9.72	-44.9	-48.5	14.9	7.00e-07	0	44	0	52428800	61	5405
2026-01-27 07:26:53.53	56.69	9.78	-44.4	-47.6	15.8	0.00e+00	0	44	0	56623104	60	5192
2026-01-27 07:26:55.53	56.35	9.83	-44.0	-47.1	16.3	0.00e+00	0	44	0	60817408	60	4871
2026-01-27 07:26:57.53	56.01	9.89	-44.0	-47.0	16.4	0.00e+00	0	44	0	63963136	59	5118
2026-01-27 07:26:59.54	55.67	9.94	-43.9	-46.9	16.5	0.00e+00	0	44	0	68157440	59	5059
2026-01-27 07:27:01.54	55.33	10.00	-43.8	-46.7	16.6	0.00e+00	0	44	0	71303168	59	4941
2026-01-27 07:27:03.54	54.99	10.05	-43.8	-46.8	16.6	0.00e+00	0	44	0	75497472	59	4988
2026-01-27 07:27:05.55	54.64	10.10	-43.9	-46.8	16.6	0.00e+00	0	44	0	78643200	59	5010
2026-01-27 07:27:07.55	54.30	10.15	-43.8	-46.8	16.6	0.00e+00	0	44	0	82837504	59	4985
2026-01-27 07:27:09.55	53.95	10.20	-43.8	-46.7	16.7	0.00e+00	0	44	0	87031808	59	4952
2026-01-27 07:27:11.56	53.60	10.25	-43.9	-46.9	16.4	0.00e+00	0	44	0	90177536	59	5051
2026-01-27 07:27:13.56	53.25	10.30	-44.3	-47.5	15.9	0.00e+00	0	44	0	94371840	59	5413
2026-01-27 07:27:15.56	52.90	10.35	-44.5	-47.8	15.6	0.00e+00	0	44	0	97517568	59	5601
2026-01-27 07:27:17.56	52.55	10.39	-44.6	-48.0	15.5	0.00e+00	0	44	0	101711872	60	5418
2026-01-27 07:27:19.56	52.20	10.44	-44.5	-47.8	15.6	0.00e+00	0	44	0	104857600	60	5326
2026-01-27 07:27:21.57	51.85	10.48	-44.4	-47.7	15.7	0.00e+00	0	44	0	109051904	60	5233
2026-01-27 07:27:23.57	51.49	10.53	-44.5	-47.8	15.7	0.00e+00	0	44	0	113246208	60	5281
2026-01-27 07:27:25.57	51.14	10.57	-44.6	-48.0	15.5	0.00e+00	0	44	0	116391936	60	5407
2026-01-27 07:27:27.57	50.78	10.61	-44.7	-48.0	15.5	0.00e+00	0	44	0	120586240	60	5462
2026-01-27 07:27:29.58	50.42	10.65	-44.7	-48.1	15.4	0.00e+00	0	44	0	123731968	60	5477
2026-01-27 07:27:31.58	50.07	10.69	-44.7	-48.0	15.4	0.00e+00	0	44	0	127926272	60	5450
2026-01-27 07:27:33.58	49.71	10.73	-44.6	-47.9	15.5	0.00e+00	0	44	0	132120576	60	5382
2026-01-27 07:27:35.58	49.35	10.77	-44.4	-47.6	15.8	0.00e+00	0	44	0	135266304	60	5209
2026-01-27 07:27:37.58	48.99	10.80	-44.3	-47.4	16.0	0.00e+00	0	44	0	139460608	60	5085
2026-01-27 07:27:39.58	48.63	10.84	-44.1	-47.2	16.2	0.00e+00	0	44	0	142606336	60	4953
2026-01-27 07:27:41.59	48.26	10.87	-44.4	-47.6	15.9	0.00e+00	0	44	0	146800640	60	5177
2026-01-27 07:27:43.59	47.90	10.91	-44.4	-47.7	15.8	0.00e+00	0	44	0	150994944	60	5251
2026-01-27 07:27:45.60	47.53	10.94	-44.1	-47.2	16.2	0.00e+00	0	44	0	154140672	60	4979
2026-01-27 07:27:47.60	47.17	10.97	-44.1	-47.1	16.3	0.00e+00	0	44	0	158334976	59	5183
2026-01-27 07:27:49.60	46.80	11.00	-44.1	-47.1	16.3	0.00e+00	0	44	0	161480704	59	5188
2026-01-27 07:27:51.60	46.44	11.03	-44.2	-47.2	16.1	0.00e+00	0	44	0	165675008	59	5279
2026-01-27 07:27:53.60	46.07	11.06	-44.2	-47.3	16.1	0.00e+00	0	44	0	168820736	59	5300
2026-01-27 07:27:55.60	45.70	11.08	-44.0	-47.0	16.4	0.00e+00	0	44	0	173015040	59	5128
2026-01-27 07:27:57.60	45.33	11.11	-43.9	-46.9	16.5	0.00e+00	0	44	0	177209344	59	5044
2026-01-27 07:27:59.60	44.96	11.13	-43.8	-46.8	16.7	0.00e+00	0	44	0	180355072	59	4988
2026-01-27 07:28:01.60	44.60	11.16	-43.6	-46.5	16.9	0.00e+00	0	44	0	184549376	59	4840
2026-01-27 07:28:03.61	44.22	11.18	-43.9	-46.9	16.5	0.00e+00	0	44	0	187695104	59	5050
2026-01-27 07:28:05.61	43.85	11.20	-44.1	-47.2	16.2	0.00e+00	0	44	0	191889408	59	5236
2026-01-27 07:28:07.61	43.48	11.22	-43.7	-46.7	16.6	0.00e+00	0	44	0	195035136	59	4945
2026-01-27 07:28:09.61	43.11	11.24	-43.7	-46.6	16.8	0.00e+00	0	44	0	199229440	59	4900
2026-01-27 07:28:11.62	42.74	11.26	-43.5	-46.4	17.0	0.00e+00	0	44	0	203423744	59	4802
2026-01-27 07:28:13.62	42.36	11.27	-43.5	-46.3	17.1	0.00e+00	0	44	0	206569472	58	5000
2026-01-27 07:28:15.62	41.99	11.29	-43.4	-46.1	17.3	0.00e+00	0	44	0	210763776	58	4917
2026-01-27 07:28:17.62	41.62	11.30	-43.3	-46.1	17.3	0.00e+00	0	44	0	213909504	58	4874
2026-01-27 07:28:19.63	41.24	11.31	-43.4	-46.1	17.3	0.00e+00	0	44	0	218103808	58	4907
2026-01-27 07:28:21.63	40.87	11.33	-43.2	-45.9	17.5	0.00e+00	0	44	0	222298112	58	4799
2026-01-27 07:28:23.63	40.49	11.34	-43.3	-46.0	17.4	0.00e+00	0	44	0	225443840	58	4829
2026-01-27 07:28:25.63	40.12	11.35	-43.6	-46.5	16.9	0.00e+00	0	44	0	229638144	58	5104
2026-01-27 07:28:27.64	39.74	11.35	-43.8	-46.8	16.6	0.00e+00	0	44	0	232783872	58	5286
2026-01-27 07:28:29.64	39.37	11.36	-43.6	-46.6	16.8	0.00e+00	0	44	0	236978176	58	5161
2026-01-27 07:28:31.64	38.99	11.37	-43.4	-46.3	17.1	0.00e+00	0	44	0	240123904	58	5026
2026-01-27 07:28:33.65	38.62	11.37	-43.4	-46.3	17.1	0.00e+00	0	44	0	244318208	58	4991
2026-01-27 07:28:35.65	38.24	11.38	-43.4	-46.3	17.1	0.00e+00	0	44	0	248512512	58	4997
2026-01-27 07:28:37.65	37.87	11.38	-43.5	-46.4	17.0	0.00e+00	0	44	0	251658240	58	5061
2026-01-27 07:28:39.65	37.49	11.38	-43.6	-46.5	16.8	0.00e+00	0	44	0	255852544	58	5155
2026-01-27 07:28:41.66	37.11	11.38	-43.7	-46.7	16.7	0.00e+00	0	44	0	258998272	58	5231
2026-01-27 07:28:43.66	36.74	11.38	-43.6	-46.6	16.8	0.00e+00	0	44	0	263192576	58	5198
2026-01-27 07:28:45.66	36.36	11.38	-43.4	-46.4	17.0	0.00e+00	0	44	0	266338304	58	5074
2026-01-27 07:28:47.66	35.99	11.37	-43.5	-46.5	16.8	0.00e+00	0	44	0	270532608	58	5149
2026-01-27 07:28:49.66	35.61	11.37	-43.8	-46.8	16.5	0.00e+00	0	44	0	274726912	58	5337
2026-01-27 07:28:51.67	35.24	11.36	-44.0	-47.1	16.3	0.00e+00	0	44	0	277872640	58	5491
2026-01-27 07:28:53.67	34.86	11.35	-44.0	-47.0	16.4	0.00e+00	0	44	0	282066944	58	5431
2026-01-27 07:28:55.67	34.49	11.34	-43.8	-46.8	16.6	0.00e+00	0	44	0	285212672	58	5324
2026-01-27 07:28:57.66	34.12	11.34	-43.4	-46.2	17.1	0.00e+00	0	44	0	289406976	58	4983
2026-01-27 07:28:59.66	33.74	11.32	-43.4	-46.2	17.1	0.00e+00	0	44	0	292552704	58	4952
2026-01-27 07:29:01.66	33.37	11.31	-43.6	-46.6	16.8	0.00e+00	0	44	0	296747008	58	5164
2026-01-27 07:29:03.66	32.99	11.30	-43.7	-46.8	16.5	0.00e+00	0	44	0	300941312	58	5324
2026-01-27 07:29:05.67	32.62	11.28	-43.8	-47.0	16.3	0.00e+00	0	44	0	304087040	58	5464
2026-01-27 07:29:07.67	32.25	11.27	-43.8	-47.0	16.5	0.00e+00	0	44	0	308281344	58	5409
2026-01-27 07:29:09.68	31.87	11.25	-43.9	-47.0	16.5	0.00e+00	0	44	0	311427072	58	5427
2026-01-27 07:29:11.68	31.50	11.23	-44.2	-47.3	16.1	0.00e+00	0	44	0	315621376	59	5339
2026-01-27 07:29:13.69	31.13	11.22	-44.2	-47.3	16.1	0.00e+00	0	44	0	319815680	59	5326
2026-01-27 07:29:15.69	30.76	11.20	-44.2	-47.3	16.2	0.00e+00	0	44	0	322961408	59	5283
2026-01-27 07:29:17.70	30.39	11.17	-44.2	-47.2	16.2	0.00e+00	0	44	0	327155712	59	5248
2026-01-27 07:29:19.70	30.02	11.15	-43.9	-46.8	16.5	0.00e+00	0	44	0	330301440	59	5030
2026-01-27 07:29:21.70	29.65	11.13	-43.7	-46.7	16.7	0.00e+00	0	44	0	334495744	59	4961
2026-01-27 07:29:23.70	29.28	11.10	-43.6	-46.5	16.9	0.00e+00	0	44	0	337641472	59	4864
2026-01-27 07:29:25.70	28.91	11.08	-43.7	-46.7	16.7	0.00e+00	0	44	0	341835776	59	4978
2026-01-27 07:29:27.70	28.55	11.05	-43.7	-46.7	16.7	0.00e+00	0	44	0	346030080	59	4955
2026-01-27 07:29:29.71	28.18	11.02	-43.7	-46.6	16.8	0.00e+00	0	44	0	349175808	59	4901
2026-01-27 07:29:31.71	27.81	10.99	-43.7	-46.6	16.9	0.00e+00	0	44	0	353370112	59	4874
2026-01-27 07:29:33.71	27.45	10.96	-43.7	-46.6	16.8	0.00e+00	0	44	0	356515840	59	4922
2026-01-27 07:29:35.71	27.08	10.93	-43.7	-46.7	16.8	0.00e+00	0	44	0	360710144	59	4948
2026-01-27 07:29:37.71	26.72	10.90	-43.5	-46.3	17.1	0.00e+00	0	44	0	364904448	58	5029
2026-01-27 07:29:39.71	26.36	10.87	-43.5	-46.6	16.9	0.00e+00	0	44	0	368050176	58	5161
2026-01-27 07:29:41.71	26.00	10.83	-43.7	-46.9	16.6	0.00e+00	0	44	0	372244480	58	5385
2026-01-27 07:29:43.71	25.64	10.80	-44.0	-47.4	16.1	0.00e+00	0	44	0	375390208	58	5679
2026-01-27 07:29:45.72	25.27	10.76	-44.1	-47.4	16.0	0.00e+00	0	44	0	379584512	59	5393
2026-01-27 07:29:47.72	24.92	10.72	-43.8	-47.0	16.5	0.00e+00	0	44	0	382730240	59	5123
2026-01-27 07:29:49.72	24.56	10.68	-43.7	-46.7	16.7	0.00e+00	0	44	0	386924544	59	4933
2026-01-27 07:29:51.72	24.20	10.64	-43.7	-46.7	16.7	0.00e+00	0	44	0	391118848	59	4979
2026-01-27 07:29:53.72	23.85	10.60	-43.8	-46.8	16.6	0.00e+00	0	44	0	394264576	59	5002
2026-01-27 07:29:55.73	23.49	10.56	-43.8	-46.8	16.6	0.00e+00	0	44	0	398458880	59	5004
2026-01-27 07:29:57.73	23.13	10.52	-43.8	-46.7	16.6	0.00e+00	0	44	0	401604608	59	4983
2026-01-27 07:29:59.73	22.78	10.48	-43.8	-46.9	16.6	0.00e+00	0	44	0	405798912	59	5042
2026-01-27 07:30:01.74	22.43	10.43	-43.5	-46.8	16.7	0.00e+00	0	44	0	409993216	59	4991
2026-01-27 07:30:03.74	22.08	10.39	-43.4	-46.7	16.6	0.00e+00	0	44	0	413138944	58	5265
2026-01-27 07:30:05.74	21.73	10.34	-43.3	-46.8	16.4	0.00e+00	0	44	0	417333248	58	5287
2026-01-27 07:30:07.74	21.38	10.29	-43.3	-46.7	16.6	0.00e+00	0	44	0	420478976	58	5249
2026-01-27 07:30:09.74	21.03	10.24	-43.3	-46.7	16.6	0.00e+00	0	44	0	424673280	58	5257
2026-01-27 07:30:11.74	20.69	10.19	-43.4	-46.9	16.5	0.00e+00	0	44	0	427819008	58	5392
2026-01-27 07:30:13.75	20.34	10.14	-43.3	-46.7	16.5	0.00e+00	0	44	0	432013312	58	5249
2026-01-27 07:30:15.74	20.00	10.09	-43.2	-46.4	16.3	0.00e+00	0	44	0	436207616	58	5073
2026-01-27 07:30:17.75	19.66	10.04	-43.3	-46.4	16.2	0.00e+00	0	44	0	439353344	58	5045
2026-01-27 07:30:19.75	19.32	9.99	-43.6	-46.6	15.8	0.00e+00	0	44	0	443547648	58	5174
2026-01-27 07:30:21.75	18.98	9.94	-43.6	-46.7	14.9	0.00e+00	0	44	0	446693376	58	5265
2026-01-27 07:30:23.76	18.64	9.88	-43.6	-46.7	15.1	7.00e-07	0	44	0	450887680	58	5262
2026-01-27 07:30:25.76	18.30	9.83	-43.6	-46.5	16.6	0.00e+00	0	44	0	454033408	58	5143
2026-01-27 07:30:27.76	17.96	9.77	-43.5	-46.4	16.8	0.00e+00	0	44	0	458227712	58	5100
2026-01-27 07:30:29.77	17.63	9.71	-43.4	-46.5	16.7	0.00e+00	0	44	0	462422016	58	5126
2026-01-27 07:30:31.77	17.29	9.65	-43.3	-46.4	16.6	0.00e+00	0	44	0	465567744	58	5100
2026-01-27 07:30:33.77	16.96	9.60	-43.3	-46.7	15.9	0.00e+00	0	44	0	469762048	58	5242
2026-01-27 07:30:35.78	16.63	9.54	-43.2	-46.7	15.4	0.00e+00	0	44	0	472907776	58	5231
2026-01-27 07:30:37.78	16.30	9.48	-43.0	-46.4	16.2	0.00e+00	0	44	0	477102080	58	5088
2026-01-27 07:30:39.78	15.97	9.42	-43.1	-46.5	16.7	0.00e+00	0	44	0	481296384	57	5450
2026-01-27 07:30:41.79	15.65	9.35	-43.0	-46.3	16.9	0.00e+00	0	44	0	484442112	57	5311
2026-01-27 07:30:43.79	15.32	9.29	-43.3	-46.6	16.5	0.00e+00	0	44	0	488636416	57	5465
2026-01-27 07:30:45.79	15.00	9.23	-43.6	-46.9	16.2	0.00e+00	0	44	0	491782144	57	5700
2026-01-27 07:30:47.80	14.67	9.16	-43.7	-46.9	16.4	0.00e+00	0	44	0	495976448	58	5397
2026-01-27 07:30:49.80	14.35	9.10	-43.9	-47.0	16.3	0.00e+00	0	44	0	499122176	58	5461
2026-01-27 07:30:51.80	14.03	9.04	-44.1	-47.2	16.0	0.00e+00	0	44	0	503316480	58	5581
2026-01-27 07:30:53.80	13.72	8.97	-44.6	-48.0	15.3	0.00e+00	0	44	0	507510784	59	5750
2026-01-27 07:30:55.79	13.40	8.90	-46.4	-51.3	12.1	1.83e-05	0	44	0	510656512	63	6712
2026-01-27 07:30:57.79	13.09	8.84	-48.2	-56.9	6.5	9.84e-02	0	44	0	514850816	67	10106
2026-01-27 07:30:59.78	12.78	8.77	-49.0	-63.4	3.8	1.45e+00	0	44	104	516947968	68	20137
2026-01-27 07:31:01.77	12.47	8.70	-49.1	-64.6	3.8	1.49e+00	0	44	104	516947968	68	23294
2026-01-27 07:31:03.77	12.16	8.63	-49.1	-64.8	3.8	1.49e+00	0	44	104	516947968	68	23638
2026-01-27 07:31:05.76	11.85	8.56	-49.1	-64.8	3.8	1.49e+00	0	44	104	516947968	68	23852
2026-01-27 07:31:07.75	11.54	8.49	-49.1	-64.8	3.8	1.49e+00	0	44	104	516947968	68	23806
2026-01-27 07:31:09.74	11.24	8.42	-49.1	-64.7	3.8	1.49e+00	0	44	104	516947968	68	23513
2026-01-27 07:31:11.74	10.94	8.35	-49.1	-64.7	3.8	1.49e+00	0	44	104	516947968	68	23433
2026-01-27 07:31:13.73	10.63	8.28	-49.1	-64.7	3.8	1.49e+00	0	44	104	516947968	68	23488
2026-01-27 07:31:15.72	10.33	8.21	-49.1	-64.8	3.8	1.49e+00	0	44	104	516947968	68	23807
2026-01-27 07:31:17.71	10.04	8.14	-49.1	-64.8	3.8	1.49e+00	0	44	104	516947968	68	23706
2026-01-27 07:31:19.70	9.74	8.06	-49.1	-64.8	3.8	1.49e+00	0	44	104	516947968	68	23754
2026-01-27 07:31:21.70	9.44	7.99	-49.1	-64.8	3.8	1.49e+00	0	44	104	516947968	68	23748
2026-01-27 07:31:23.69	9.15	7.92	-49.1	-64.8	3.8	1.49e+00	0	44	104	516947968	68	23712
2026-01-27 07:31:25.68	8.86	7.84	-49.1	-64.8	3.8	1.49e+00	0	44	104	516947968	68	23784
2026-01-27 07:31:27.67	8.57	7.77	-49.1	-64.8	3.8	1.49e+00	0	44	104	516947968	68	23740
2026-01-27 07:31:29.67	8.28	7.69	-49.1	-64.8	3.8	1.49e+00	0	44	104	516947968	68	23839
2026-01-27 07:31:31.66	7.99	7.61	-49.1	-64.8	3.8	1.49e+00	0	44	104	516947968	68	23836
2026-01-27 07:31:33.65	7.70	7.54	-49.1	-64.8	3.8	1.49e+00	0	44	104	516947968	68	23800
2026-01-27 07:31:35.64	7.42	7.46	-49.1	-64.8	3.8	1.49e+00	0	44	104	516947968	68	23699
2026-01-27 07:31:37.63	7.14	7.38	-49.1	-64.8	3.8	1.49e+00	0	44	104	516947968	68	23642
2026-01-27 07:31:39.63	6.85	7.31	-49.1	-64.8	3.8	1.49e+00	0	44	104	516947968	68	23699
2026-01-27 07:31:41.62	6.58	7.23	-49.1	-64.8	3.8	1.49e+00	0	44	104	516947968	68	23774
2026-01-27 07:31:43.61	6.30	7.15	-49.1	-64.8	3.8	1.49e+00	0	44	104	516947968	68	23723
2026-01-27 07:31:45.61	6.02	7.07	-49.1	-64.8	3.8	1.49e+00	0	44	104	516947968	68	23782
2026-01-27 07:31:47.60	5.74	6.99	-49.1	-64.8	3.8	1.49e+00	0	44	104	516947968	68	23842
2026-01-27 07:31:49.59	5.47	6.91	-49.1	-64.9	3.8	1.49e+00	0	44	104	516947968	68	23912
2026-01-27 07:31:51.59	5.20	6.83	-49.1	-64.8	3.8	1.49e+00	0	44	104	516947968	68	23787
2026-01-27 07:31:53.58	4.93	6.75	-49.1	-64.9	3.8	1.49e+00	0	44	104	516947968	68	23865
2026-01-27 07:31:55.57	4.66	6.67	-49.1	-64.8	3.8	1.49e+00	0	44	104	516947968	68	23761
2026-01-27 07:31:57.57	4.39	6.59	-49.1	-64.8	3.8	1.49e+00	0	44	104	516947968	68	23782
2026-01-27 07:31:59.56	4.12	6.51	-49.1	-64.8	3.8	1.49e+00	0	44	104	516947968	68	23829
2026-01-27 07:32:01.55	3.86	6.42	-49.1	-64.8	3.8	1.49e+00	0	44	104	516947968	68	23777
2026-01-27 07:32:03.54	3.60	6.34	-49.1	-64.9	3.8	1.49e+00	0	44	104	516947968	68	23860
2026-01-27 07:32:05.53	3.34	6.26	-49.1	-64.9	3.8	1.49e+00	0	44	104	516947968	68	23962
2026-01-27 07:32:07.52	3.08	6.18	-49.1	-64.9	3.8	1.49e+00	0	44	104	516947968	68	23856
2026-01-27 07:32:09.52	2.82	6.09	-49.1	-64.8	3.8	1.49e+00	0	44	104	516947968	68	23782
2026-01-27 07:32:11.51	2.56	6.01	-49.1	-64.8	3.8	1.49e+00	0	44	104	516947968	68	23830
2026-01-27 07:32:13.50	2.30	5.93	-49.1	-64.8	3.8	1.49e+00	0	44	104	516947968	68	23819
2026-01-27 07:32:15.49	2.05	5.84	-49.1	-64.8	3.8	1.49e+00	0	44	104	516947968	68	23789
2026-01-27 07:32:17.49	1.80	5.76	-49.1	-64.8	3.8	1.49e+00	0	44	104	516947968	68	23811
2026-01-27 07:32:19.48	1.55	5.68	-49.1	-64.8	3.8	1.49e+00	0	44	104	516947968	68	23805
2026-01-27 07:32:21.47	1.30	5.59	-49.1	-64.8	3.8	1.49e+00	0	44	104	516947968	68	23807
2026-01-27 07:32:23.47	1.05	5.51	-49.1	-64.8	3.8	1.49e+00	0	44	104	516947968	68	23834
2026-01-27 07:32:25.46	0.80	5.42	-49.1	-64.8	3.8	1.49e+00	0	44	104	516947968	68	23833
2026-01-27 07:32:27.45	0.56	5.34	-49.1	-64.8	3.8	1.49e+00	0	44	104	516947968	68	23828
2026-01-27 07:32:29.44	0.31	5.25	-49.1	-64.9	3.8	1.49e+00	0	44	104	516947968	68	23893
2026-01-27 07:32:31.44	0.07	5.17	-49.1	-64.8	3.8	1.49e+00	0	44	104	516947968	68	23786
2026-01-27 07:32:33.43	359.83	5.08	-49.1	-64.8	3.8	1.49e+00	0	44	104	516947968	68	23805
2026-01-27 07:32:35.42	359.59	4.99	-49.1	-64.9	3.8	1.49e+00	0	44	104	516947968	68	23950

#Closed at: 2026-01-27 07:32:36
#Recorded file [516 MB]: D:/Data/31040_260127_102447.dat