passes_logs/2026/01/27/T1/T1__20260127_231201_NOAA_20_JPSS-1_rec.log

#Pass ID: 20260127_231201_NOAA 20 (JPSS-1)
#Satellite: NOAA 20 (JPSS-1)
#Configuration: NOAA 20
#almurnet v.1.7.20251203
#Start time: 2026-01-27 23:12:02

#Version: 2.0.20230620
#Station: T1
#Location: 37.570604 lon 55.790049 lat
#TLE: 1 43013U 17073A   26027.45344144  .00000161  00000+0  97205-4 0  9999
#TLE: 2 43013  98.7647 328.2621 0000962  21.7793 338.3424 14.19541101424503

#Time	Az	El	Level	Level2	SNR	BER	BlckErr	Temp	State	Recorded	gain1	gain2
2026-01-27 23:12:02.82	19.90	5.09	-50.3	-65.6	3.8	1.49e+00	0	41	0	0	71	21939
2026-01-27 23:12:06.79	20.02	5.37	-50.4	-65.6	3.8	1.49e+00	0	41	104	0	72	20735
2026-01-27 23:12:10.76	20.15	5.65	-50.3	-65.5	3.8	1.49e+00	0	41	104	0	72	20517
2026-01-27 23:12:14.73	20.27	5.93	-50.1	-65.3	3.8	1.49e+00	0	41	104	0	72	20060
2026-01-27 23:12:18.70	20.40	6.22	-49.4	-65.0	3.8	1.49e+00	0	41	104	0	70	21717
2026-01-27 23:12:22.67	20.54	6.51	-48.3	-64.8	3.8	1.49e+00	0	42	104	0	68	23802
2026-01-27 23:12:26.65	20.67	6.81	-48.3	-64.5	3.8	1.49e+00	0	42	104	0	68	22910
2026-01-27 23:12:30.62	20.81	7.10	-48.2	-63.6	3.8	1.49e+00	0	42	104	0	68	20683
2026-01-27 23:12:34.59	20.95	7.40	-48.2	-62.9	3.8	1.49e+00	0	42	104	0	68	19122
2026-01-27 23:12:38.56	21.09	7.71	-48.2	-62.6	3.8	1.49e+00	0	42	104	0	68	18330
2026-01-27 23:12:42.54	21.24	8.01	-48.2	-62.5	3.8	1.48e+00	0	42	104	0	68	18299
2026-01-27 23:12:46.51	21.38	8.33	-48.1	-61.3	4.2	1.42e+00	0	42	0	0	68	15809
2026-01-27 23:12:50.48	21.54	8.64	-47.8	-58.8	5.2	6.33e-01	0	42	0	5242880	67	12546
2026-01-27 23:12:54.45	21.69	8.96	-47.5	-56.6	6.8	1.97e-01	0	42	0	12582912	67	9801
2026-01-27 23:12:58.42	21.85	9.28	-46.0	-51.5	12.2	5.03e-05	0	42	0	17825792	63	6846
2026-01-27 23:13:02.40	22.01	9.61	-45.1	-49.5	14.1	3.00e-06	0	42	0	25165824	62	5766
2026-01-27 23:13:06.37	22.17	9.94	-44.7	-48.8	14.8	0.00e+00	0	42	0	32505856	61	5615
2026-01-27 23:13:10.34	22.33	10.28	-44.1	-47.5	16.2	0.00e+00	0	43	0	39845888	60	5145
2026-01-27 23:13:14.31	22.50	10.62	-44.1	-47.4	16.4	0.00e+00	0	43	0	47185920	60	5048
2026-01-27 23:13:18.28	22.68	10.96	-44.1	-47.2	16.6	0.00e+00	0	43	0	55574528	60	4928
2026-01-27 23:13:22.26	22.86	11.31	-44.1	-47.0	16.7	0.00e+00	0	43	0	62914560	60	4863
2026-01-27 23:13:26.23	23.04	11.66	-44.0	-46.8	16.9	0.00e+00	0	43	0	70254592	60	4725
2026-01-27 23:13:30.20	23.22	12.02	-44.0	-46.8	17.0	0.00e+00	0	43	0	77594624	59	4993
2026-01-27 23:13:34.17	23.41	12.39	-44.1	-46.9	16.8	0.00e+00	0	43	0	84934656	59	5084
2026-01-27 23:13:38.14	23.60	12.76	-43.8	-46.5	17.2	0.00e+00	0	43	0	92274688	59	4852
2026-01-27 23:13:42.11	23.80	13.13	-43.8	-46.5	17.3	0.00e+00	0	43	0	99614720	59	4858
2026-01-27 23:13:46.08	24.00	13.51	-43.6	-46.4	17.4	0.00e+00	0	43	0	106954752	59	4771
2026-01-27 23:13:50.05	24.21	13.90	-43.6	-46.4	17.5	0.00e+00	0	43	0	114294784	58	5053
2026-01-27 23:13:54.02	24.42	14.29	-43.5	-46.2	17.6	0.00e+00	0	43	0	122683392	58	4983
2026-01-27 23:13:57.99	24.64	14.69	-43.3	-46.0	17.8	0.00e+00	0	43	0	130023424	58	4835
2026-01-27 23:14:01.97	24.87	15.09	-43.3	-45.9	18.0	0.00e+00	0	43	0	137363456	58	4764
2026-01-27 23:14:05.94	25.09	15.50	-43.4	-46.0	17.8	0.00e+00	0	43	0	144703488	58	4845
2026-01-27 23:14:09.91	25.33	15.92	-43.2	-45.7	18.1	0.00e+00	0	43	0	152043520	58	4692
2026-01-27 23:14:13.88	25.57	16.35	-43.1	-45.6	18.2	0.00e+00	0	43	0	159383552	58	4635
2026-01-27 23:14:17.85	25.82	16.78	-42.8	-45.4	18.5	0.00e+00	0	43	0	166723584	57	4776
2026-01-27 23:14:21.82	26.07	17.22	-42.9	-45.5	18.4	0.00e+00	0	43	0	174063616	57	4827
2026-01-27 23:14:25.79	26.33	17.66	-42.7	-45.2	18.7	0.00e+00	0	43	0	181403648	57	4685
2026-01-27 23:14:29.76	26.60	18.12	-42.7	-45.2	18.7	0.00e+00	0	43	0	188743680	57	4679
2026-01-27 23:14:33.74	26.88	18.58	-42.5	-45.0	18.9	0.00e+00	0	43	0	197132288	56	4823
2026-01-27 23:14:37.71	27.17	19.05	-42.5	-44.9	19.0	0.00e+00	0	43	0	204472320	56	4788
2026-01-27 23:14:41.68	27.46	19.53	-42.4	-44.8	19.1	0.00e+00	0	43	0	211812352	56	4732
2026-01-27 23:14:45.65	27.76	20.02	-42.4	-44.7	19.2	0.00e+00	0	43	0	219152384	56	4701
2026-01-27 23:14:49.62	28.07	20.52	-42.2	-44.5	19.4	0.00e+00	0	43	0	226492416	56	4552
2026-01-27 23:14:53.59	28.39	21.02	-42.3	-44.5	19.4	0.00e+00	0	44	0	233832448	56	4569
2026-01-27 23:14:57.57	28.73	21.54	-42.2	-44.4	19.5	0.00e+00	0	43	0	241172480	56	4536
2026-01-27 23:15:01.54	29.07	22.06	-42.1	-44.3	19.6	0.00e+00	0	43	0	248512512	56	4470
2026-01-27 23:15:05.51	29.42	22.60	-42.0	-44.2	19.4	0.00e+00	0	43	0	255852544	56	4420
2026-01-27 23:15:09.48	29.79	23.15	-41.9	-44.1	19.7	0.00e+00	0	43	0	263192576	55	4611
2026-01-27 23:15:13.45	30.16	23.70	-41.9	-44.1	19.7	0.00e+00	0	43	0	270532608	55	4601
2026-01-27 23:15:17.42	30.56	24.27	-41.9	-44.1	19.6	0.00e+00	0	43	0	278921216	55	4642
2026-01-27 23:15:21.39	30.96	24.85	-42.0	-44.3	19.5	0.00e+00	0	43	0	286261248	55	4744
2026-01-27 23:15:25.37	31.38	25.44	-42.2	-44.4	19.3	0.00e+00	0	43	0	293601280	55	4811
2026-01-27 23:15:29.34	31.82	26.04	-42.4	-44.7	19.1	0.00e+00	0	43	0	300941312	55	4941
2026-01-27 23:15:33.31	32.27	26.66	-42.8	-45.2	18.8	0.00e+00	0	43	0	308281344	56	4965
2026-01-27 23:15:37.28	32.74	27.28	-43.3	-45.8	18.2	0.00e+00	0	43	0	315621376	57	5038
2026-01-27 23:15:41.25	33.22	27.92	-43.7	-46.3	17.8	0.00e+00	0	43	0	322961408	58	5006
2026-01-27 23:15:45.23	33.73	28.58	-44.1	-46.7	17.3	0.00e+00	0	43	0	330301440	58	5275
2026-01-27 23:15:49.20	34.26	29.24	-44.3	-47.0	17.0	0.00e+00	0	43	0	337641472	59	5157
2026-01-27 23:15:53.17	34.81	29.92	-44.7	-47.6	16.6	0.00e+00	0	43	0	346030080	60	5170
2026-01-27 23:15:57.14	35.38	30.62	-45.4	-48.6	15.5	0.00e+00	0	43	0	353370112	61	5512
2026-01-27 23:16:01.11	35.98	31.32	-45.6	-48.9	15.3	0.00e+00	0	43	0	360710144	62	5397
2026-01-27 23:16:05.08	36.60	32.04	-45.0	-48.1	16.2	0.00e+00	0	43	0	368050176	62	4873
2026-01-27 23:16:09.06	37.25	32.78	-45.1	-48.2	16.1	0.00e+00	0	43	0	375390208	62	4939
2026-01-27 23:16:13.03	37.93	33.53	-44.9	-47.8	16.4	0.00e+00	0	43	0	382730240	61	5030
2026-01-27 23:16:17.00	38.64	34.29	-44.7	-47.6	16.5	0.00e+00	0	43	0	390070272	61	4923
2026-01-27 23:16:20.97	39.39	35.07	-44.4	-47.2	17.0	0.00e+00	0	43	0	397410304	60	4940
2026-01-27 23:16:24.94	40.17	35.87	-44.3	-47.0	17.2	0.00e+00	0	43	0	404750336	60	4837
2026-01-27 23:16:28.91	40.99	36.67	-43.8	-46.4	17.8	0.00e+00	0	43	0	412090368	59	4778
2026-01-27 23:16:32.88	41.85	37.49	-43.5	-46.0	18.1	0.00e+00	0	43	0	420478976	59	4549
2026-01-27 23:16:36.86	42.76	38.33	-43.2	-45.7	18.4	0.00e+00	0	43	0	427819008	58	4662
2026-01-27 23:16:40.83	43.71	39.17	-43.7	-46.2	17.9	0.00e+00	0	43	0	435159040	58	4981
2026-01-27 23:16:44.80	44.71	40.03	-43.3	-45.7	18.4	0.00e+00	0	43	0	442499072	58	4696
2026-01-27 23:16:48.77	45.77	40.90	-43.0	-45.4	18.6	0.00e+00	0	43	0	449839104	58	4540
2026-01-27 23:16:52.74	46.89	41.78	-43.4	-45.8	18.3	0.00e+00	0	43	0	457179136	58	4738
2026-01-27 23:16:56.71	48.06	42.67	-43.6	-46.2	18.0	0.00e+00	0	43	0	464519168	58	4939
2026-01-27 23:17:00.69	49.31	43.57	-44.2	-46.9	17.3	0.00e+00	0	43	0	471859200	58	5347
2026-01-27 23:17:04.66	50.62	44.47	-44.6	-47.5	16.7	0.00e+00	0	43	0	479199232	60	5149
2026-01-27 23:17:08.63	52.01	45.38	-45.1	-48.2	16.0	0.00e+00	0	43	0	486539264	60	5557
2026-01-27 23:17:12.60	53.48	46.28	-45.6	-48.8	15.4	0.00e+00	0	44	0	494927872	62	5334
2026-01-27 23:17:16.57	55.04	47.19	-46.3	-50.0	14.2	0.00e+00	0	43	0	502267904	63	5740
2026-01-27 23:17:20.54	56.69	48.09	-46.5	-50.4	13.8	1.44e-05	0	43	0	509607936	64	5663
2026-01-27 23:17:24.51	58.44	48.98	-46.3	-49.9	14.2	7.00e-07	0	43	0	516947968	64	5390
2026-01-27 23:17:28.48	60.29	49.87	-45.6	-48.9	15.3	0.00e+00	0	43	0	524288000	63	5085
2026-01-27 23:17:32.46	62.25	50.74	-44.4	-47.1	17.0	0.00e+00	0	43	0	531628032	60	4905
2026-01-27 23:17:36.43	64.32	51.58	-43.5	-45.9	18.2	0.00e+00	0	43	0	538968064	58	4797
2026-01-27 23:17:40.40	66.51	52.40	-43.1	-45.5	18.6	0.00e+00	0	43	0	546308096	57	4833
2026-01-27 23:17:44.37	68.83	53.19	-42.5	-44.7	19.3	0.00e+00	0	43	0	553648128	56	4695
2026-01-27 23:17:48.34	71.27	53.94	-43.6	-46.1	18.0	0.00e+00	0	43	0	560988160	57	5195
2026-01-27 23:17:52.31	73.83	54.65	-42.8	-45.2	18.9	0.00e+00	0	44	0	569376768	57	4661
2026-01-27 23:17:56.29	76.53	55.31	-43.1	-45.4	18.6	0.00e+00	0	44	0	576716800	57	4801
2026-01-27 23:18:00.26	79.34	55.91	-43.2	-45.7	18.4	0.00e+00	0	44	0	584056832	57	4951
2026-01-27 23:18:04.23	82.27	56.45	-43.5	-46.0	18.0	0.00e+00	0	44	0	591396864	57	5143
2026-01-27 23:18:08.20	85.30	56.91	-43.9	-46.5	17.6	0.00e+00	0	43	0	598736896	58	5154
2026-01-27 23:18:12.17	88.43	57.31	-46.3	-50.2	14.0	0.00e+00	0	43	0	606076928	63	5886
2026-01-27 23:18:16.14	91.65	57.62	-45.5	-48.9	15.3	0.00e+00	0	44	0	613416960	63	5067
2026-01-27 23:18:20.12	94.94	57.85	-46.4	-50.1	14.0	3.00e-06	0	43	0	620756992	64	5521
2026-01-27 23:18:24.09	98.26	57.99	-45.7	-49.1	15.1	0.00e+00	0	43	0	628097024	62	5480
2026-01-27 23:18:28.04	101.60	58.04	-45.4	-48.6	15.6	0.00e+00	0	43	0	635437056	62	5188
2026-01-27 23:18:32.02	104.95	58.00	-43.5	-46.0	18.2	0.00e+00	0	43	0	643825664	58	4833
2026-01-27 23:18:35.99	108.28	57.87	-44.8	-47.8	16.4	0.00e+00	0	43	0	651165696	60	5323
2026-01-27 23:18:39.96	111.57	57.65	-46.3	-50.1	14.1	7.00e-07	0	43	0	658505728	63	5819
2026-01-27 23:18:43.93	114.80	57.34	-46.5	-50.4	13.6	1.53e-04	0	44	0	665845760	65	5372
2026-01-27 23:18:47.90	117.94	56.96	-46.6	-50.5	13.5	2.44e-05	0	44	0	673185792	64	5739
2026-01-27 23:18:51.87	120.99	56.50	-45.3	-48.5	15.7	0.00e+00	0	44	0	680525824	62	5101
2026-01-27 23:18:55.84	123.94	55.96	-43.6	-46.2	18.0	0.00e+00	0	44	0	687865856	59	4657
2026-01-27 23:18:59.82	126.77	55.37	-42.3	-44.5	19.5	0.00e+00	0	44	0	695205888	56	4596
2026-01-27 23:19:03.79	129.48	54.71	-40.7	-42.7	21.0	0.00e+00	0	43	0	702545920	53	4436
2026-01-27 23:19:07.76	132.06	54.01	-40.7	-42.7	21.0	0.00e+00	0	43	0	710934528	52	4691
2026-01-27 23:19:11.73	134.52	53.26	-41.4	-43.5	20.3	0.00e+00	0	44	0	718274560	54	4584
2026-01-27 23:19:15.70	136.85	52.47	-43.0	-45.4	18.7	0.00e+00	0	43	0	725614592	56	5080
2026-01-27 23:19:19.68	139.06	51.65	-43.2	-45.7	18.5	0.00e+00	0	44	0	732954624	57	4929
2026-01-27 23:19:23.65	141.15	50.80	-43.8	-46.3	17.9	0.00e+00	0	44	0	740294656	58	4999
2026-01-27 23:19:27.62	143.12	49.94	-44.4	-47.2	17.0	0.00e+00	0	43	0	747634688	60	4955
2026-01-27 23:19:31.59	144.99	49.05	-46.6	-50.6	13.6	1.50e-06	0	44	0	754974720	63	6164
2026-01-27 23:19:35.56	146.75	48.15	-45.1	-48.1	16.1	0.00e+00	0	43	0	762314752	61	5194
2026-01-27 23:19:39.54	148.41	47.25	-46.6	-50.6	13.6	3.80e-06	0	43	0	769654784	63	6140
2026-01-27 23:19:43.51	149.98	46.34	-45.5	-48.6	15.6	0.00e+00	0	43	0	776994816	62	5209
2026-01-27 23:19:47.48	151.46	45.43	-45.5	-48.7	15.5	0.00e+00	0	43	0	785383424	63	4949
2026-01-27 23:19:51.45	152.86	44.52	-45.3	-48.4	15.7	0.00e+00	0	44	0	792723456	61	5395
2026-01-27 23:19:55.42	154.19	43.61	-44.3	-47.1	17.0	0.00e+00	0	43	0	800063488	60	4887
2026-01-27 23:19:59.39	155.44	42.71	-45.3	-48.6	15.5	0.00e+00	0	43	0	807403520	61	5472
2026-01-27 23:20:03.37	156.63	41.81	-44.1	-46.7	17.4	0.00e+00	0	43	0	814743552	59	4952
2026-01-27 23:20:07.34	157.75	40.93	-44.6	-47.5	16.6	0.00e+00	0	43	0	822083584	60	5138
2026-01-27 23:20:11.31	158.81	40.05	-43.9	-46.5	17.5	0.00e+00	0	43	0	829423616	59	4865
2026-01-27 23:20:15.28	159.82	39.19	-45.2	-48.4	15.7	0.00e+00	0	44	0	836763648	61	5387
2026-01-27 23:20:19.25	160.78	38.34	-43.4	-45.9	18.1	0.00e+00	0	43	0	844103680	58	4784
2026-01-27 23:20:23.22	161.69	37.50	-43.2	-45.7	18.3	0.00e+00	0	43	0	851443712	57	4935
2026-01-27 23:20:27.20	162.56	36.67	-44.5	-47.4	16.7	0.00e+00	0	43	0	859832320	60	5054
2026-01-27 23:20:31.17	163.38	35.86	-43.2	-45.6	18.3	0.00e+00	0	43	0	867172352	58	4637
2026-01-27 23:20:35.14	164.17	35.06	-45.3	-48.5	15.6	0.00e+00	0	44	0	874512384	61	5441
2026-01-27 23:20:39.11	164.92	34.28	-44.3	-47.0	17.0	0.00e+00	0	44	0	881852416	60	4869
2026-01-27 23:20:43.08	165.63	33.51	-44.0	-46.6	17.5	0.00e+00	0	43	0	889192448	59	4891
2026-01-27 23:20:47.05	166.31	32.75	-44.8	-47.8	16.3	0.00e+00	0	43	0	896532480	60	5285
2026-01-27 23:20:51.02	166.97	32.01	-44.7	-47.6	16.4	0.00e+00	0	43	0	903872512	60	5196
2026-01-27 23:20:55.00	167.59	31.28	-44.9	-47.9	16.1	0.00e+00	0	43	0	911212544	60	5389
2026-01-27 23:20:58.97	168.19	30.57	-44.6	-47.5	16.5	0.00e+00	0	43	0	918552576	60	5148
2026-01-27 23:21:02.94	168.76	29.87	-44.6	-47.6	16.5	0.00e+00	0	43	0	925892608	60	5161
2026-01-27 23:21:06.91	169.31	29.19	-45.4	-48.7	15.3	0.00e+00	0	44	0	934281216	61	5546
2026-01-27 23:21:10.88	169.84	28.52	-45.0	-48.2	15.9	0.00e+00	0	43	0	941621248	61	5224
2026-01-27 23:21:14.85	170.35	27.86	-44.5	-47.4	16.6	0.00e+00	0	44	0	948961280	60	5060
2026-01-27 23:21:18.83	170.84	27.22	-44.4	-47.2	16.8	0.00e+00	0	43	0	956301312	60	4983
2026-01-27 23:21:22.80	171.31	26.59	-44.2	-46.9	17.1	0.00e+00	0	43	0	963641344	60	4789
2026-01-27 23:21:26.77	171.76	25.97	-43.9	-46.5	17.4	0.00e+00	0	43	0	970981376	59	4857
2026-01-27 23:21:30.74	172.19	25.36	-43.5	-46.1	17.8	0.00e+00	0	44	0	978321408	59	4624
2026-01-27 23:21:34.71	172.61	24.77	-43.2	-45.7	18.2	0.00e+00	0	43	0	985661440	58	4669
2026-01-27 23:21:38.68	173.02	24.18	-43.5	-46.1	17.8	0.00e+00	0	43	0	993001472	58	4874
2026-01-27 23:21:42.65	173.41	23.61	-43.8	-46.5	17.4	0.00e+00	0	43	0	1001390080	58	5142
2026-01-27 23:21:46.62	173.79	23.05	-43.7	-46.3	17.6	0.00e+00	0	44	0	1008730112	58	5009
2026-01-27 23:21:50.60	174.15	22.50	-42.7	-45.2	18.6	0.00e+00	0	43	0	1016070144	57	4661
2026-01-27 23:21:54.57	174.50	21.96	-42.3	-44.6	19.2	0.00e+00	0	43	0	1023410176	56	4622
2026-01-27 23:21:58.54	174.84	21.43	-42.2	-44.5	19.2	0.00e+00	0	43	0	1030750208	56	4593
2026-01-27 23:22:02.51	175.18	20.91	-42.4	-44.8	19.0	0.00e+00	0	43	0	1038090240	56	4718
2026-01-27 23:22:06.48	175.49	20.41	-42.7	-45.1	18.7	0.00e+00	0	44	0	1045430272	56	4874
2026-01-27 23:22:10.45	175.80	19.91	-42.7	-45.1	18.7	0.00e+00	0	43	0	1052770304	56	4895
2026-01-27 23:22:14.43	176.11	19.41	-42.7	-45.1	18.7	0.00e+00	0	44	0	1060110336	56	4903
2026-01-27 23:22:18.40	176.40	18.93	-42.5	-44.9	18.9	0.00e+00	0	43	0	1067450368	56	4763
2026-01-27 23:22:22.37	176.68	18.46	-42.3	-44.7	19.0	0.00e+00	0	43	0	1075838976	56	4663
2026-01-27 23:22:26.34	176.96	17.99	-42.5	-44.8	18.9	0.00e+00	0	43	0	1083179008	56	4741
2026-01-27 23:22:30.31	177.22	17.54	-42.7	-45.1	18.6	0.00e+00	0	44	0	1090519040	56	4925
2026-01-27 23:22:34.28	177.48	17.09	-42.9	-45.4	18.3	0.00e+00	0	43	0	1097859072	56	5083
2026-01-27 23:22:38.25	177.73	16.65	-43.1	-45.6	18.1	0.00e+00	0	43	0	1105199104	56	5198
2026-01-27 23:22:42.23	177.98	16.21	-42.9	-45.5	18.2	0.00e+00	0	43	0	1112539136	57	4827
2026-01-27 23:22:46.20	178.22	15.78	-43.0	-45.6	18.1	0.00e+00	0	43	0	1119879168	57	4914
2026-01-27 23:22:50.17	178.45	15.36	-43.1	-45.7	18.0	0.00e+00	0	43	0	1127219200	57	4975
2026-01-27 23:22:54.14	178.68	14.95	-43.2	-45.9	17.8	0.00e+00	0	43	0	1134559232	57	5060
2026-01-27 23:22:58.11	178.90	14.54	-43.3	-46.0	17.7	0.00e+00	0	44	0	1141899264	57	5147
2026-01-27 23:23:02.09	179.11	14.14	-43.6	-46.4	17.3	0.00e+00	0	43	0	1150287872	58	5081
2026-01-27 23:23:06.06	179.32	13.75	-43.7	-46.6	17.1	0.00e+00	0	43	0	1157627904	58	5168
2026-01-27 23:23:10.03	179.53	13.36	-43.7	-46.7	17.0	0.00e+00	0	43	0	1164967936	58	5221
2026-01-27 23:23:14.00	179.73	12.98	-43.8	-46.8	16.9	0.00e+00	0	43	0	1172307968	58	5292
2026-01-27 23:23:17.97	179.92	12.60	-43.8	-46.8	16.9	0.00e+00	0	43	0	1179648000	58	5307
2026-01-27 23:23:21.94	180.11	12.23	-44.1	-47.1	16.6	0.00e+00	0	44	0	1186988032	58	5508
2026-01-27 23:23:25.92	180.30	11.86	-44.2	-47.3	16.4	0.00e+00	0	43	0	1194328064	58	5597
2026-01-27 23:23:29.89	180.48	11.50	-43.9	-46.9	16.8	0.00e+00	0	43	0	1201668096	59	5068
2026-01-27 23:23:33.86	180.66	11.15	-44.0	-47.0	16.6	0.00e+00	0	43	0	1209008128	59	5142
2026-01-27 23:23:37.83	180.83	10.80	-43.9	-46.8	16.8	0.00e+00	0	43	0	1216348160	59	5019
2026-01-27 23:23:41.80	181.00	10.45	-43.9	-46.8	16.8	0.00e+00	0	44	0	1224736768	59	5011
2026-01-27 23:23:45.78	181.17	10.11	-43.9	-46.8	16.7	0.00e+00	0	43	0	1232076800	59	5037
2026-01-27 23:23:49.75	181.33	9.77	-43.8	-46.6	16.9	0.00e+00	0	43	0	1239416832	59	4923
2026-01-27 23:23:53.72	181.49	9.44	-43.7	-46.7	16.8	0.00e+00	0	43	0	1246756864	59	4961
2026-01-27 23:23:57.69	181.65	9.11	-43.6	-46.7	16.8	0.00e+00	0	44	0	1254096896	58	5273
2026-01-27 23:24:01.66	181.80	8.78	-49.3	-64.8	3.8	1.49e+00	0	43	104	1258291200	69	22481
2026-01-27 23:24:05.63	181.95	8.46	-49.8	-65.2	3.8	1.49e+00	0	44	104	1258291200	70	22019
2026-01-27 23:24:09.60	182.10	8.15	-49.8	-65.1	3.8	1.49e+00	0	44	104	1258291200	70	21882
2026-01-27 23:24:13.57	182.24	7.84	-48.5	-64.4	3.8	1.49e+00	0	44	104	1258291200	67	24055
2026-01-27 23:24:17.55	182.38	7.53	-49.8	-64.9	3.8	1.49e+00	0	44	104	1258291200	70	21410
2026-01-27 23:24:21.52	182.52	7.22	-49.6	-65.0	3.8	1.49e+00	0	43	104	1258291200	69	22945
2026-01-27 23:24:25.49	182.66	6.92	-49.5	-65.0	3.8	1.49e+00	0	44	104	1258291200	70	21725
2026-01-27 23:24:29.46	182.79	6.62	-49.4	-65.0	3.8	1.49e+00	0	43	104	1258291200	70	21633
2026-01-27 23:24:33.44	182.92	6.32	-49.8	-64.9	3.8	1.49e+00	0	43	104	1258291200	70	21495
2026-01-27 23:24:37.40	183.05	6.03	-49.5	-64.8	3.8	1.49e+00	0	44	104	1258291200	70	21034
2026-01-27 23:24:41.38	183.17	5.74	-49.5	-64.8	3.8	1.49e+00	0	44	104	1258291200	70	21100
2026-01-27 23:24:45.35	183.30	5.46	-49.5	-64.8	3.8	1.49e+00	0	44	104	1258291200	70	21145
2026-01-27 23:24:49.32	183.42	5.17	-49.5	-64.8	3.8	1.49e+00	0	44	104	1258291200	70	21178

#Closed at: 2026-01-27 23:24:53
#Recorded file [1258 MB]: D:/Data/31040_260128_021202.dat