passes_logs/2026/01/27/T1/T1__20260127_130527_AQUA_rec.log

#Pass ID: 20260127_130527_AQUA
#Satellite: AQUA
#Configuration: AQUA
#almurnet v.1.7.20251203
#Start time: 2026-01-27 13:05:28

#Version: 2.0.20230620
#Station: T1
#Location: 37.570604 lon 55.790049 lat
#TLE: 1 27424U 02022A   26026.85810808  .00001813  00000+0  37258-3 0  9999
#TLE: 2 27424  98.4101 353.4861 0001866  64.3332 317.5249 14.61864179262622

#Time	Az	El	Level	Level2	SNR	BER	BlckErr	Temp	State	Recorded	gain1	gain2
2026-01-27 13:05:28.31	209.98	5.03	-51.7	-72.3	3.8	7.45e-01	0	41	0	0	75	37535
2026-01-27 13:05:31.29	210.26	5.22	-52.0	-72.4	3.8	7.44e-01	0	41	104	0	75	37866
2026-01-27 13:05:34.26	210.56	5.40	-52.3	-72.3	3.8	7.42e-01	0	41	104	0	75	37778
2026-01-27 13:05:37.24	210.85	5.59	-52.3	-72.3	3.8	7.48e-01	0	41	104	0	75	37544
2026-01-27 13:05:40.22	211.16	5.78	-52.0	-72.2	3.8	7.47e-01	0	41	104	0	75	37179
2026-01-27 13:05:43.20	211.46	5.97	-51.4	-72.0	3.8	7.47e-01	0	41	104	0	74	38449
2026-01-27 13:05:46.18	211.77	6.16	-51.3	-71.5	3.8	7.51e-01	0	42	104	0	74	36470
2026-01-27 13:05:49.16	212.09	6.36	-51.0	-71.5	3.8	7.44e-01	0	42	104	0	74	36139
2026-01-27 13:05:52.14	212.40	6.55	-51.0	-71.4	3.8	7.45e-01	0	42	104	0	73	37965
2026-01-27 13:05:55.12	212.73	6.74	-51.0	-70.9	3.8	7.47e-01	0	42	104	0	73	35928
2026-01-27 13:05:58.10	213.05	6.94	-50.9	-69.2	3.8	7.46e-01	0	42	104	0	73	29657
2026-01-27 13:06:01.07	213.39	7.13	-50.9	-70.4	3.8	7.46e-01	0	42	104	0	73	33757
2026-01-27 13:06:04.05	213.72	7.33	-51.0	-71.5	3.8	7.44e-01	0	42	104	0	73	38274
2026-01-27 13:06:07.03	214.07	7.53	-50.9	-71.0	3.8	7.44e-01	0	42	104	0	73	36327
2026-01-27 13:06:10.01	214.41	7.73	-50.9	-69.4	3.8	7.46e-01	0	42	104	0	73	30259
2026-01-27 13:06:12.99	214.76	7.93	-50.6	-63.1	7.1	6.62e-01	0	42	0	2621440	73	14607
2026-01-27 13:06:15.97	215.12	8.13	-50.6	-63.4	6.7	6.69e-01	0	42	0	7864320	73	15106
2026-01-27 13:06:18.95	215.48	8.33	-48.0	-52.6	17.7	6.08e-01	0	42	0	13631488	68	5838
2026-01-27 13:06:21.93	215.85	8.53	-45.4	-48.5	21.7	6.06e-01	0	43	0	18874368	62	5142
2026-01-27 13:06:24.91	216.22	8.74	-46.5	-50.1	20.3	6.06e-01	0	42	0	24641536	63	5832
2026-01-27 13:06:27.89	216.60	8.94	-49.3	-55.8	14.6	6.07e-01	0	43	0	30408704	69	7944
2026-01-27 13:06:30.87	216.99	9.14	-50.1	-61.2	9.1	6.33e-01	0	43	0	35651584	70	13933
2026-01-27 13:06:33.85	217.38	9.35	-50.8	-63.3	7.3	6.64e-01	0	42	0	41418752	72	15864
2026-01-27 13:06:36.84	217.77	9.56	-46.4	-49.9	20.4	6.06e-01	0	43	0	46661632	64	5374
2026-01-27 13:06:39.82	218.17	9.76	-45.9	-49.3	21.1	6.07e-01	0	43	0	52428800	63	5313
2026-01-27 13:06:42.80	218.58	9.97	-45.2	-48.4	21.9	6.07e-01	0	43	0	58195968	62	5092
2026-01-27 13:06:45.79	219.00	10.18	-45.0	-48.2	21.1	6.09e-01	0	43	0	63438848	62	4976
2026-01-27 13:06:48.77	219.42	10.39	-44.7	-48.2	22.1	6.08e-01	0	43	0	69206016	61	5221
2026-01-27 13:06:51.76	219.84	10.60	-44.5	-47.9	22.3	6.06e-01	0	43	0	74973184	60	5387
2026-01-27 13:06:54.74	220.28	10.81	-44.8	-47.9	22.4	6.07e-01	0	43	0	80216064	60	5369
2026-01-27 13:06:57.73	220.72	11.03	-44.8	-47.7	22.6	6.08e-01	0	43	0	85983232	60	5237
2026-01-27 13:07:00.71	221.16	11.24	-44.8	-47.5	22.8	6.07e-01	0	43	0	91750400	60	5150
2026-01-27 13:07:03.70	221.62	11.45	-44.7	-47.4	22.9	6.05e-01	0	43	0	96993280	60	5096
2026-01-27 13:07:06.68	222.08	11.66	-44.8	-47.6	22.8	6.08e-01	0	43	0	102760448	60	5207
2026-01-27 13:07:09.67	222.55	11.88	-44.8	-47.5	22.9	6.09e-01	0	43	0	108527616	60	5142
2026-01-27 13:07:12.65	223.02	12.09	-44.7	-47.4	22.9	6.07e-01	0	43	0	113770496	60	5088
2026-01-27 13:07:15.64	223.50	12.31	-44.6	-47.2	23.1	6.09e-01	0	43	0	119537664	60	4973
2026-01-27 13:07:18.62	223.99	12.52	-44.8	-47.5	23.0	6.06e-01	0	43	0	125304832	60	5112
2026-01-27 13:07:21.60	224.49	12.74	-44.5	-47.2	23.2	6.08e-01	0	43	0	130547712	60	4965
2026-01-27 13:07:24.59	225.00	12.95	-44.4	-47.1	23.3	6.06e-01	0	43	0	136314880	60	4882
2026-01-27 13:07:27.57	225.51	13.17	-44.5	-47.2	23.2	6.07e-01	0	43	0	142082048	60	4946
2026-01-27 13:07:30.56	226.03	13.39	-44.5	-47.1	23.3	6.06e-01	0	43	0	147324928	60	4908
2026-01-27 13:07:33.54	226.56	13.60	-44.4	-47.0	23.4	6.07e-01	0	43	0	153092096	60	4833
2026-01-27 13:07:36.53	227.09	13.82	-44.4	-47.0	23.5	6.07e-01	0	43	0	158859264	60	4817
2026-01-27 13:07:39.51	227.64	14.03	-44.3	-46.9	23.5	6.06e-01	0	43	0	164626432	60	4771
2026-01-27 13:07:42.50	228.19	14.25	-44.3	-46.9	23.5	6.03e-01	0	43	0	169869312	60	4786
2026-01-27 13:07:45.48	228.75	14.46	-44.3	-47.0	23.5	6.07e-01	0	43	0	175636480	60	4821
2026-01-27 13:07:48.47	229.32	14.68	-44.3	-46.9	23.6	6.07e-01	0	43	0	181403648	60	4787
2026-01-27 13:07:51.45	229.90	14.89	-44.3	-46.9	23.6	6.08e-01	0	43	0	186646528	60	4761
2026-01-27 13:07:54.44	230.49	15.11	-44.2	-46.8	23.6	6.06e-01	0	43	0	192413696	60	4756
2026-01-27 13:07:57.42	231.08	15.32	-44.3	-46.9	23.6	6.05e-01	0	43	0	198180864	60	4764
2026-01-27 13:08:00.41	231.69	15.53	-44.2	-46.7	23.7	6.04e-01	0	43	0	203423744	60	4700
2026-01-27 13:08:03.39	232.30	15.75	-44.2	-46.7	23.8	6.06e-01	0	43	0	209190912	60	4704
2026-01-27 13:08:06.38	232.93	15.96	-44.1	-46.7	23.8	6.05e-01	0	43	0	214958080	60	4673
2026-01-27 13:08:09.37	233.56	16.17	-44.1	-46.7	23.8	6.07e-01	0	43	0	220200960	60	4653
2026-01-27 13:08:12.36	234.20	16.38	-44.1	-46.7	23.8	6.05e-01	0	43	0	225968128	60	4686
2026-01-27 13:08:15.34	234.85	16.58	-44.1	-46.6	23.9	6.08e-01	0	43	0	231735296	60	4620
2026-01-27 13:08:18.32	235.51	16.79	-44.3	-46.9	23.6	6.05e-01	0	43	0	236978176	60	4798
2026-01-27 13:08:21.31	236.18	16.99	-44.1	-46.7	23.8	6.05e-01	0	43	0	242745344	60	4700
2026-01-27 13:08:24.29	236.86	17.19	-44.0	-46.6	23.9	6.06e-01	0	43	0	248512512	60	4634
2026-01-27 13:08:27.28	237.55	17.39	-44.2	-46.8	23.8	6.06e-01	0	43	0	253755392	60	4709
2026-01-27 13:08:30.26	238.25	17.59	-44.2	-46.8	23.8	6.08e-01	0	43	0	259522560	60	4734
2026-01-27 13:08:33.25	238.96	17.79	-44.0	-46.6	23.9	6.07e-01	0	43	0	265289728	60	4631
2026-01-27 13:08:36.23	239.67	17.98	-44.1	-46.7	23.9	6.05e-01	0	43	0	270532608	60	4659
2026-01-27 13:08:39.21	240.40	18.17	-44.3	-46.8	23.8	6.06e-01	0	43	0	276299776	60	4729
2026-01-27 13:08:42.20	241.13	18.36	-44.2	-46.7	23.9	6.05e-01	0	43	0	282066944	60	4659
2026-01-27 13:08:45.19	241.88	18.55	-44.2	-46.7	23.9	6.08e-01	0	43	0	287309824	60	4657
2026-01-27 13:08:48.17	242.63	18.73	-44.2	-46.7	23.9	6.07e-01	0	44	0	293076992	60	4700
2026-01-27 13:08:51.15	243.39	18.91	-44.3	-46.9	23.8	6.08e-01	0	44	0	298844160	60	4765
2026-01-27 13:08:54.13	244.17	19.08	-44.2	-46.7	23.8	6.07e-01	0	44	0	304087040	60	4695
2026-01-27 13:08:57.12	244.95	19.26	-44.2	-46.7	23.9	6.05e-01	0	43	0	309854208	60	4686
2026-01-27 13:09:00.10	245.74	19.42	-44.1	-46.7	23.9	6.07e-01	0	44	0	315621376	60	4674
2026-01-27 13:09:03.09	246.54	19.59	-44.1	-46.7	23.9	6.05e-01	0	43	0	320864256	60	4671
2026-01-27 13:09:06.07	247.35	19.75	-44.1	-46.6	24.0	6.06e-01	0	43	0	326631424	60	4606
2026-01-27 13:09:09.05	248.16	19.90	-44.3	-46.9	23.7	6.07e-01	0	43	0	332398592	60	4791
2026-01-27 13:09:12.04	248.99	20.05	-44.3	-46.9	23.6	6.04e-01	0	43	0	337641472	60	4802
2026-01-27 13:09:15.03	249.83	20.20	-44.2	-46.7	23.9	6.06e-01	0	43	0	343408640	60	4679
2026-01-27 13:09:18.01	250.67	20.34	-44.2	-46.8	23.7	6.08e-01	0	43	0	349175808	60	4740
2026-01-27 13:09:21.00	251.52	20.48	-44.3	-46.9	23.7	6.07e-01	0	43	0	354418688	60	4812
2026-01-27 13:09:23.98	252.37	20.61	-44.2	-46.7	23.7	6.06e-01	0	43	0	360185856	60	4698
2026-01-27 13:09:26.96	253.24	20.73	-44.3	-46.9	23.6	6.06e-01	0	43	0	365953024	60	4811
2026-01-27 13:09:29.95	254.11	20.85	-44.2	-46.8	23.7	6.05e-01	0	43	0	371195904	60	4756
2026-01-27 13:09:32.94	254.99	20.97	-44.5	-47.1	23.6	6.08e-01	0	43	0	376963072	60	4903
2026-01-27 13:09:35.92	255.87	21.07	-44.4	-47.0	23.7	6.06e-01	0	43	0	382730240	60	4853
2026-01-27 13:09:38.91	256.77	21.17	-44.3	-46.9	23.7	6.06e-01	0	43	0	387973120	60	4801
2026-01-27 13:09:41.89	257.66	21.27	-44.3	-46.9	23.8	6.08e-01	0	43	0	393740288	60	4770
2026-01-27 13:09:44.88	258.57	21.36	-44.4	-47.0	23.7	6.04e-01	0	43	0	399507456	60	4830
2026-01-27 13:09:47.87	259.47	21.44	-44.3	-46.8	23.8	6.02e-01	0	43	0	405274624	60	4753
2026-01-27 13:09:50.85	260.39	21.52	-44.5	-47.1	23.5	6.08e-01	0	43	0	410517504	60	4909
2026-01-27 13:09:53.84	261.30	21.58	-44.3	-46.9	23.8	6.07e-01	0	43	0	416284672	60	4787
2026-01-27 13:09:56.83	262.23	21.65	-44.3	-46.9	23.7	6.09e-01	0	43	0	422051840	60	4774
2026-01-27 13:09:59.81	263.15	21.70	-44.4	-47.0	23.6	6.07e-01	0	43	0	427294720	60	4848
2026-01-27 13:10:02.79	264.07	21.75	-44.3	-46.8	23.7	6.09e-01	0	43	0	433061888	60	4727
2026-01-27 13:10:05.78	265.00	21.79	-44.4	-47.0	23.7	6.07e-01	0	43	0	438829056	60	4819
2026-01-27 13:10:08.76	265.93	21.82	-44.2	-46.8	23.8	6.07e-01	0	43	0	444071936	60	4743
2026-01-27 13:10:11.74	266.87	21.85	-44.3	-46.8	23.7	6.07e-01	0	43	0	449839104	60	4753
2026-01-27 13:10:14.73	267.80	21.86	-44.3	-46.8	23.7	6.08e-01	0	43	0	455606272	60	4755
2026-01-27 13:10:17.71	268.74	21.87	-44.2	-46.9	23.6	6.05e-01	0	43	0	460849152	60	4765
2026-01-27 13:10:20.69	269.67	21.88	-44.4	-47.0	23.6	6.07e-01	0	43	0	466616320	60	4839
2026-01-27 13:10:23.68	270.61	21.87	-44.6	-47.2	23.5	6.05e-01	0	43	0	472383488	59	5238
2026-01-27 13:10:26.66	271.54	21.86	-44.3	-46.9	23.9	6.06e-01	0	43	0	477626368	59	5043
2026-01-27 13:10:29.65	272.48	21.84	-44.3	-46.9	23.7	6.05e-01	0	43	0	483393536	59	5097
2026-01-27 13:10:32.63	273.41	21.81	-44.3	-46.9	23.8	6.05e-01	0	44	0	489160704	59	5065
2026-01-27 13:10:35.62	274.34	21.78	-44.3	-46.9	23.6	6.07e-01	0	43	0	494403584	59	5054
2026-01-27 13:10:38.61	275.27	21.74	-44.3	-46.9	23.7	6.07e-01	0	43	0	500170752	59	5088
2026-01-27 13:10:41.59	276.19	21.69	-44.3	-46.9	23.8	6.06e-01	0	44	0	505937920	59	5056
2026-01-27 13:10:44.58	277.12	21.64	-44.3	-46.8	23.9	6.06e-01	0	43	0	511180800	59	5023
2026-01-27 13:10:47.56	278.03	21.57	-42.9	-46.8	23.8	6.07e-01	0	43	0	516947968	59	4999
2026-01-27 13:10:50.54	278.94	21.50	-44.2	-46.8	23.8	6.07e-01	0	43	0	522715136	59	5019
2026-01-27 13:10:53.53	279.86	21.43	-44.4	-46.8	23.9	6.07e-01	0	43	0	527958016	59	5040
2026-01-27 13:10:56.51	280.76	21.34	-44.2	-46.8	23.9	6.05e-01	0	43	0	533725184	59	4994
2026-01-27 13:10:59.50	281.66	21.25	-44.3	-46.8	23.9	6.06e-01	0	44	0	539492352	59	5015
2026-01-27 13:11:02.48	282.55	21.16	-44.2	-46.7	24.0	6.07e-01	0	44	0	544735232	58	5231
2026-01-27 13:11:05.46	283.44	21.06	-44.3	-46.8	23.9	6.04e-01	0	43	0	550502400	59	5011
2026-01-27 13:11:08.45	284.32	20.95	-44.5	-47.1	23.4	6.07e-01	0	43	0	556269568	60	4884
2026-01-27 13:11:11.43	285.19	20.83	-44.1	-46.6	24.0	6.07e-01	0	44	0	561512448	59	4921
2026-01-27 13:11:14.42	286.06	20.71	-44.1	-46.5	24.0	6.07e-01	0	43	0	567279616	58	5155
2026-01-27 13:11:17.40	286.92	20.59	-44.2	-46.7	24.0	6.07e-01	0	44	0	573046784	59	4953
2026-01-27 13:11:20.39	287.78	20.46	-44.0	-46.4	24.2	6.04e-01	0	44	0	578289664	58	5089
2026-01-27 13:11:23.37	288.62	20.32	-44.0	-46.5	24.1	6.09e-01	0	43	0	584056832	58	5129
2026-01-27 13:11:26.35	289.46	20.18	-44.1	-46.6	24.0	6.04e-01	0	44	0	589824000	58	5196
2026-01-27 13:11:29.34	290.29	20.03	-44.1	-46.6	24.1	6.06e-01	0	43	0	595066880	58	5176
2026-01-27 13:11:32.32	291.11	19.88	-44.1	-46.6	24.1	6.05e-01	0	44	0	600834048	58	5164
2026-01-27 13:11:35.31	291.92	19.73	-43.8	-46.5	24.2	6.05e-01	0	43	0	606601216	58	5108
2026-01-27 13:11:38.29	292.72	19.57	-43.8	-46.4	24.3	6.06e-01	0	43	0	611844096	58	5055
2026-01-27 13:11:41.28	293.52	19.41	-44.0	-46.5	24.0	6.08e-01	0	44	0	617611264	58	5115
2026-01-27 13:11:44.26	294.30	19.24	-44.1	-46.6	24.1	6.08e-01	0	44	0	623378432	58	5165
2026-01-27 13:11:47.24	295.08	19.07	-44.0	-46.5	24.2	6.06e-01	0	44	0	628621312	58	5135
2026-01-27 13:11:50.23	295.85	18.89	-43.6	-46.5	24.2	6.05e-01	0	44	0	634388480	58	5101
2026-01-27 13:11:53.22	296.61	18.71	-44.0	-46.5	24.2	6.07e-01	0	44	0	640155648	58	5128
2026-01-27 13:11:56.20	297.36	18.53	-44.0	-46.5	24.0	6.05e-01	0	44	0	645398528	58	5117
2026-01-27 13:11:59.19	298.10	18.35	-43.9	-46.4	24.2	6.08e-01	0	43	0	651165696	58	5078
2026-01-27 13:12:02.17	298.83	18.16	-44.0	-46.5	24.1	6.05e-01	0	44	0	656932864	57	5421
2026-01-27 13:12:05.16	299.55	17.97	-44.1	-46.6	24.0	6.06e-01	0	44	0	662175744	58	5175
2026-01-27 13:12:08.14	300.26	17.78	-44.1	-46.6	24.1	6.06e-01	0	44	0	667942912	58	5183
2026-01-27 13:12:11.13	300.96	17.58	-43.9	-46.4	24.2	6.06e-01	0	43	0	673710080	58	5074
2026-01-27 13:12:14.11	301.65	17.39	-44.2	-46.7	23.9	6.07e-01	0	43	0	678952960	58	5241
2026-01-27 13:12:17.09	302.34	17.19	-44.5	-56.1	3.9	7.43e-01	0	43	104	683147264	59	14703
2026-01-27 13:12:20.08	303.01	16.99	-44.5	-56.4	3.7	7.51e-01	0	43	104	683147264	59	15131
2026-01-27 13:12:23.06	303.68	16.78	-48.3	-61.9	3.8	7.50e-01	0	44	104	683147264	67	18051
2026-01-27 13:12:26.04	304.33	16.58	-47.8	-60.9	3.9	7.46e-01	0	43	104	683147264	66	16903
2026-01-27 13:12:29.03	304.98	16.38	-47.8	-60.7	3.9	7.40e-01	0	43	104	683147264	66	16645
2026-01-27 13:12:32.01	305.61	16.17	-48.2	-61.4	3.8	7.34e-01	0	44	104	683147264	67	16912
2026-01-27 13:12:35.00	306.24	15.96	-46.0	-58.1	4.1	7.35e-01	0	43	104	683147264	62	15446
2026-01-27 13:12:37.98	306.86	15.75	-44.8	-56.8	3.8	7.48e-01	0	43	104	683147264	60	14934
2026-01-27 13:12:40.97	307.47	15.54	-50.1	-65.4	3.8	7.49e-01	0	44	104	683147264	70	22532
2026-01-27 13:12:43.96	308.07	15.33	-49.8	-64.5	3.8	7.46e-01	0	43	104	683147264	70	20380
2026-01-27 13:12:46.94	308.66	15.12	-50.0	-64.5	3.8	7.43e-01	0	43	104	683147264	70	20437
2026-01-27 13:12:49.92	309.24	14.91	-47.6	-61.4	3.8	7.45e-01	0	44	104	683147264	66	17986
2026-01-27 13:12:52.91	309.82	14.69	-45.5	-58.0	3.8	7.48e-01	0	44	104	683147264	61	16253
2026-01-27 13:12:55.89	310.39	14.48	-44.9	-57.0	3.8	7.48e-01	0	43	104	683147264	60	15254
2026-01-27 13:12:58.87	310.94	14.27	-47.9	-61.6	3.8	7.47e-01	0	43	104	683147264	66	18363
2026-01-27 13:13:01.86	311.49	14.06	-45.5	-57.9	3.8	7.47e-01	0	43	104	683147264	61	16085
2026-01-27 13:13:04.84	312.03	13.84	-45.3	-57.6	3.8	7.45e-01	0	44	104	683147264	61	15411
2026-01-27 13:13:07.82	312.56	13.63	-47.5	-61.4	3.8	7.45e-01	0	44	104	683147264	67	16997
2026-01-27 13:13:10.81	313.09	13.41	-45.2	-57.4	3.8	7.43e-01	0	44	104	683147264	61	15072
2026-01-27 13:13:13.79	313.61	13.20	-45.2	-57.5	3.8	7.42e-01	0	44	104	683147264	61	15280
2026-01-27 13:13:16.77	314.11	12.99	-48.0	-61.7	3.8	7.47e-01	0	44	104	683147264	67	17630
2026-01-27 13:13:19.76	314.62	12.77	-46.2	-58.7	3.8	7.48e-01	0	43	104	683147264	63	15614
2026-01-27 13:13:22.74	315.11	12.56	-37.1	-59.2	3.8	7.43e-01	0	44	104	683147264	63	16663
2026-01-27 13:13:25.73	315.60	12.35	-47.9	-61.2	3.9	7.46e-01	0	44	104	683147264	66	17657
2026-01-27 13:13:28.71	316.08	12.13	-45.3	-57.6	3.8	7.48e-01	0	44	104	683147264	60	16315
2026-01-27 13:13:31.69	316.55	11.92	-44.5	-56.8	3.8	7.44e-01	0	44	104	683147264	59	15847
2026-01-27 13:13:34.67	317.01	11.71	-47.4	-61.7	4.0	7.43e-01	0	44	104	683147264	65	19636
2026-01-27 13:13:37.66	317.47	11.50	-50.8	-70.7	3.8	7.46e-01	0	43	104	683147264	72	37373
2026-01-27 13:13:40.65	317.92	11.29	-51.2	-69.5	3.8	7.44e-01	0	44	104	683147264	72	32406
2026-01-27 13:13:43.63	318.37	11.08	-47.0	-60.3	3.8	7.45e-01	0	44	104	683147264	66	15768
2026-01-27 13:13:46.62	318.81	10.87	-45.9	-58.7	3.8	7.45e-01	0	43	104	683147264	62	16629
2026-01-27 13:13:49.60	319.24	10.66	-45.7	-58.6	3.8	7.42e-01	0	44	104	683147264	62	16433
2026-01-27 13:13:52.59	319.66	10.45	-48.4	-65.8	3.9	7.52e-01	0	44	104	683147264	68	26691
2026-01-27 13:13:55.57	320.08	10.24	-49.1	-66.2	3.8	7.48e-01	0	43	104	683147264	69	26451
2026-01-27 13:13:58.56	320.49	10.04	-48.7	-66.6	3.9	7.45e-01	0	44	104	683147264	68	29025
2026-01-27 13:14:01.55	320.90	9.83	-46.7	-60.1	3.8	7.45e-01	0	44	104	683147264	64	17378
2026-01-27 13:14:04.53	321.30	9.63	-44.6	-58.3	3.8	7.48e-01	0	44	104	683147264	62	15764
2026-01-27 13:14:07.52	321.70	9.42	-46.0	-58.7	3.8	7.45e-01	0	44	104	683147264	62	16617
2026-01-27 13:14:10.50	322.09	9.22	-48.9	-64.2	3.9	7.44e-01	0	44	104	683147264	68	22013
2026-01-27 13:14:13.48	322.47	9.01	-47.1	-60.4	3.8	7.48e-01	0	44	104	683147264	64	18020
2026-01-27 13:14:16.46	322.85	8.81	-50.5	-72.5	3.6	7.37e-01	0	44	104	683147264	72	45964
2026-01-27 13:14:19.44	323.22	8.61	-50.7	-71.1	3.8	7.46e-01	0	44	104	683147264	73	36616
2026-01-27 13:14:22.42	323.58	8.41	-50.2	-71.5	3.8	7.48e-01	0	44	104	683147264	72	40662
2026-01-27 13:14:25.40	323.94	8.21	-50.8	-71.6	3.8	7.47e-01	0	44	104	683147264	72	41107
2026-01-27 13:14:28.38	324.30	8.01	-50.6	-71.5	3.8	7.50e-01	0	44	104	683147264	72	40957
2026-01-27 13:14:31.36	324.65	7.82	-50.7	-71.6	3.8	7.48e-01	0	44	104	683147264	72	41054
2026-01-27 13:14:34.34	325.00	7.62	-50.7	-71.6	3.8	7.47e-01	0	44	104	683147264	72	41015
2026-01-27 13:14:37.31	325.34	7.42	-50.3	-71.4	3.8	7.46e-01	0	44	104	683147264	71	42607
2026-01-27 13:14:40.29	325.68	7.23	-48.1	-71.7	3.8	7.48e-01	0	44	104	683147264	72	41892
2026-01-27 13:14:43.27	326.01	7.03	-48.8	-71.1	3.7	7.44e-01	0	44	104	683147264	71	41324
2026-01-27 13:14:46.25	326.33	6.84	-50.4	-71.6	3.8	7.46e-01	0	44	104	683147264	72	41122
2026-01-27 13:14:49.23	326.66	6.65	-47.9	-71.5	3.7	7.45e-01	0	44	104	683147264	71	43165
2026-01-27 13:14:52.21	326.98	6.46	-50.7	-71.5	3.8	7.46e-01	0	44	104	683147264	72	40945
2026-01-27 13:14:55.19	327.29	6.27	-49.9	-71.5	3.8	7.44e-01	0	44	104	683147264	72	40874
2026-01-27 13:14:58.16	327.60	6.08	-50.3	-71.5	3.8	7.47e-01	0	44	104	683147264	72	40879
2026-01-27 13:15:01.14	327.90	5.89	-50.3	-71.5	3.8	7.48e-01	0	44	104	683147264	72	40805
2026-01-27 13:15:04.12	328.21	5.70	-50.5	-71.5	3.8	7.44e-01	0	44	104	683147264	72	40896
2026-01-27 13:15:07.10	328.50	5.52	-50.6	-71.5	3.9	7.46e-01	0	44	104	683147264	72	40888
2026-01-27 13:15:10.08	328.80	5.33	-50.5	-71.6	3.7	7.42e-01	0	44	104	683147264	72	41185
2026-01-27 13:15:13.06	329.09	5.14	-50.7	-71.6	3.8	7.45e-01	0	44	104	683147264	72	40996
2026-01-27 13:15:16.03	329.37	4.96	-50.6	-71.5	3.8	7.46e-01	0	44	104	683147264	72	40845

#Closed at: 2026-01-27 13:15:17
#Recorded file [683 MB]: D:/Data/31040_260127_160528.dat