passes_logs/2026/01/27/T1/T1__20260127_190532_FENGYUN_3G_rec.log

#Pass ID: 20260127_190532_FENGYUN 3G
#Satellite: FENGYUN 3G
#Configuration: FENGYUN 3G
#almurnet v.1.7.20251203
#Start time: 2026-01-27 19:05:34

#Version: 2.0.20230620
#Station: T1
#Location: 37.570604 lon 55.790049 lat
#TLE: 1 56232U 23055A   26026.81668957  .00042566  00000+0  63804-3 0  9995
#TLE: 2 56232  49.9949 354.9274 0004068  91.1881 268.9553 15.54453119158037

#Time	Az	El	Level	Level2	SNR	BER	BlckErr	Temp	State	Recorded	gain1	gain2
2026-01-27 19:05:34.26	255.77	5.15	-50.5	-69.5	3.8	8.47e-01	0	41	0	0	72	32364
2026-01-27 19:05:36.24	255.58	5.30	-50.3	-69.5	3.8	8.48e-01	0	41	104	0	72	32548
2026-01-27 19:05:38.23	255.40	5.45	-50.4	-69.5	3.8	8.46e-01	0	41	104	0	72	32481
2026-01-27 19:05:40.22	255.21	5.61	-50.5	-69.5	3.8	8.46e-01	0	41	104	0	72	32317
2026-01-27 19:05:42.27	255.01	5.77	-50.5	-69.5	3.8	8.46e-01	0	41	104	0	72	32249
2026-01-27 19:05:44.32	254.80	5.92	-50.3	-69.4	3.8	8.48e-01	0	41	104	0	72	32087
2026-01-27 19:05:46.37	254.60	6.08	-50.2	-69.3	3.8	8.47e-01	0	41	104	0	72	31671
2026-01-27 19:05:48.41	254.39	6.25	-50.0	-69.1	3.8	8.48e-01	0	41	104	0	72	31061
2026-01-27 19:05:50.46	254.18	6.41	-49.6	-69.0	3.8	8.47e-01	0	41	104	0	71	32196
2026-01-27 19:05:52.51	253.96	6.57	-49.5	-68.9	3.8	8.46e-01	0	41	104	0	71	32080
2026-01-27 19:05:54.56	253.74	6.74	-49.6	-68.9	3.8	8.47e-01	0	41	104	0	71	31974
2026-01-27 19:05:56.55	253.53	6.90	-49.6	-68.9	3.8	8.47e-01	0	42	104	0	71	32035
2026-01-27 19:05:58.54	253.31	7.06	-49.6	-68.9	3.8	8.47e-01	0	42	104	0	71	32091
2026-01-27 19:06:00.52	253.09	7.23	-49.6	-68.9	3.8	8.47e-01	0	41	104	0	71	31997
2026-01-27 19:06:02.51	252.86	7.39	-49.5	-68.9	3.8	8.47e-01	0	42	104	0	71	31998
2026-01-27 19:06:04.50	252.63	7.56	-49.6	-68.9	3.8	8.47e-01	0	42	104	0	71	31943
2026-01-27 19:06:06.49	252.39	7.73	-49.6	-68.9	3.8	8.47e-01	0	42	104	0	71	32026
2026-01-27 19:06:08.47	252.16	7.90	-49.6	-68.9	3.8	8.47e-01	0	42	104	0	71	31963
2026-01-27 19:06:10.47	251.91	8.07	-49.6	-68.9	3.8	8.48e-01	0	42	104	0	71	31985
2026-01-27 19:06:12.52	251.66	8.25	-49.5	-68.9	3.8	8.47e-01	0	42	104	0	71	31924
2026-01-27 19:06:14.54	251.41	8.43	-49.5	-68.9	3.8	8.47e-01	0	42	104	0	71	31948
2026-01-27 19:06:16.53	251.15	8.60	-49.6	-68.9	3.8	8.48e-01	0	42	104	0	71	31960
2026-01-27 19:06:18.52	250.89	8.78	-49.5	-68.9	3.8	8.48e-01	0	42	104	0	71	31898
2026-01-27 19:06:20.50	250.63	8.96	-49.6	-68.9	3.8	8.47e-01	0	42	104	0	71	31910
2026-01-27 19:06:22.49	250.36	9.14	-49.9	-68.9	3.8	8.47e-01	0	42	104	0	71	31924
2026-01-27 19:06:24.48	250.09	9.32	-49.7	-68.9	3.8	8.47e-01	0	42	104	0	71	32096
2026-01-27 19:06:26.47	249.81	9.50	-49.9	-68.9	3.8	8.47e-01	0	42	104	0	71	31977
2026-01-27 19:06:28.46	249.53	9.69	-49.9	-68.9	3.8	8.47e-01	0	42	104	0	71	31973
2026-01-27 19:06:30.45	249.24	9.87	-49.7	-68.9	3.8	8.46e-01	0	42	104	0	71	31979
2026-01-27 19:06:32.44	248.95	10.06	-49.7	-68.9	3.8	8.47e-01	0	42	104	0	71	32023
2026-01-27 19:06:34.43	248.65	10.25	-49.3	-68.9	3.8	8.48e-01	0	42	104	0	70	34005
2026-01-27 19:06:36.42	248.35	10.44	-49.5	-68.9	3.8	8.47e-01	0	42	104	0	70	34049
2026-01-27 19:06:38.41	248.04	10.63	-49.2	-68.9	3.8	8.47e-01	0	42	104	0	70	33800
2026-01-27 19:06:40.40	247.73	10.83	-49.4	-68.9	3.8	8.47e-01	0	42	104	0	70	34025
2026-01-27 19:06:42.39	247.41	11.02	-49.8	-68.9	3.8	8.46e-01	0	42	104	0	70	33918
2026-01-27 19:06:44.35	247.09	11.22	-49.9	-68.9	3.8	8.48e-01	0	42	104	0	70	34066
2026-01-27 19:06:46.33	246.76	11.42	-49.9	-68.9	3.8	8.46e-01	0	43	104	0	70	34072
2026-01-27 19:06:48.32	246.42	11.62	-49.9	-69.0	3.8	8.47e-01	0	43	104	0	70	34131
2026-01-27 19:06:50.31	246.08	11.82	-50.1	-69.0	3.8	8.47e-01	0	42	104	0	70	34232
2026-01-27 19:06:52.30	245.73	12.02	-49.9	-69.0	3.8	8.46e-01	0	42	104	0	70	34270
2026-01-27 19:06:54.28	245.37	12.23	-50.1	-69.0	3.8	8.47e-01	0	43	104	0	70	34257
2026-01-27 19:06:56.28	245.01	12.44	-50.0	-69.0	3.8	8.47e-01	0	43	104	0	70	34298
2026-01-27 19:06:58.27	244.64	12.65	-50.1	-69.0	3.8	8.47e-01	0	43	104	0	70	34171
2026-01-27 19:07:00.25	244.26	12.86	-50.0	-69.0	3.8	8.46e-01	0	43	104	0	70	34377
2026-01-27 19:07:02.32	243.86	13.08	-49.9	-68.9	3.8	8.47e-01	0	42	104	0	70	34025
2026-01-27 19:07:04.33	243.46	13.30	-49.9	-69.0	3.8	8.46e-01	0	43	104	0	70	34300
2026-01-27 19:07:06.33	243.06	13.51	-50.1	-69.0	3.8	8.48e-01	0	43	104	0	70	34129
2026-01-27 19:07:08.33	242.65	13.73	-50.1	-69.0	3.8	8.47e-01	0	43	104	0	70	34351
2026-01-27 19:07:10.32	242.24	13.95	-49.8	-69.0	3.8	8.47e-01	0	43	104	0	71	32268
2026-01-27 19:07:12.32	241.81	14.18	-49.9	-69.0	3.8	8.47e-01	0	43	104	0	71	32483
2026-01-27 19:07:14.34	241.37	14.40	-49.8	-69.0	3.8	8.47e-01	0	43	104	0	70	34339
2026-01-27 19:07:16.37	240.92	14.63	-49.6	-69.0	3.8	8.46e-01	0	43	104	0	70	34426
2026-01-27 19:07:18.37	240.47	14.86	-50.0	-69.1	3.8	8.46e-01	0	43	104	0	70	34505
2026-01-27 19:07:20.38	240.00	15.09	-49.9	-69.0	3.8	8.46e-01	0	43	104	0	70	34361
2026-01-27 19:07:22.38	239.53	15.32	-50.1	-69.1	3.8	8.47e-01	0	43	104	0	70	34555
2026-01-27 19:07:24.37	239.05	15.56	-50.1	-69.1	3.8	8.46e-01	0	43	104	0	70	34668
2026-01-27 19:07:26.36	238.57	15.79	-50.2	-69.1	3.8	8.47e-01	0	43	104	0	71	32775
2026-01-27 19:07:28.37	238.07	16.03	-50.2	-69.1	3.8	8.46e-01	0	43	104	0	71	32674
2026-01-27 19:07:30.37	237.56	16.26	-50.1	-69.1	3.8	8.47e-01	0	43	104	0	71	32712
2026-01-27 19:07:32.36	237.04	16.50	-50.1	-69.1	3.8	8.47e-01	0	43	104	0	71	32614
2026-01-27 19:07:34.38	236.50	16.74	-49.9	-69.1	3.8	8.47e-01	0	43	104	0	71	32730
2026-01-27 19:07:36.38	235.96	16.99	-49.9	-69.1	3.8	8.47e-01	0	43	104	0	71	32703
2026-01-27 19:07:38.37	235.41	17.23	-50.0	-69.1	3.8	8.47e-01	0	43	104	0	71	32851
2026-01-27 19:07:40.38	234.84	17.47	-50.1	-69.1	3.8	8.47e-01	0	43	104	0	71	32862
2026-01-27 19:07:42.41	234.26	17.72	-49.9	-69.1	3.8	8.47e-01	0	43	104	0	71	32895
2026-01-27 19:07:44.41	233.67	17.97	-49.9	-69.1	3.8	8.47e-01	0	43	104	0	71	32811
2026-01-27 19:07:46.41	233.07	18.21	-50.0	-69.2	3.8	8.46e-01	0	43	104	0	71	32997
2026-01-27 19:07:48.41	232.46	18.46	-50.1	-69.1	3.8	8.47e-01	0	43	104	0	71	32857
2026-01-27 19:07:50.41	231.84	18.71	-50.1	-69.2	3.8	8.46e-01	0	43	104	0	71	32930
2026-01-27 19:07:52.42	231.20	18.96	-50.1	-69.1	3.8	8.47e-01	0	43	104	0	71	32891
2026-01-27 19:07:54.43	230.54	19.21	-50.2	-69.1	3.8	8.47e-01	0	43	104	0	71	32785
2026-01-27 19:07:56.42	229.88	19.46	-50.1	-69.1	3.8	8.46e-01	0	43	104	0	71	32866
2026-01-27 19:07:58.43	229.20	19.71	-50.1	-69.1	3.8	8.48e-01	0	43	104	0	71	32766
2026-01-27 19:08:00.42	228.52	19.95	-50.1	-69.1	3.8	8.47e-01	0	43	104	0	71	32721
2026-01-27 19:08:02.42	227.81	20.20	-50.2	-69.1	3.8	8.46e-01	0	43	104	0	71	32882
2026-01-27 19:08:04.41	227.10	20.45	-50.2	-69.1	3.8	8.47e-01	0	43	104	0	71	32867
2026-01-27 19:08:06.42	226.36	20.70	-50.2	-69.2	3.8	8.47e-01	0	43	104	0	71	33048
2026-01-27 19:08:08.41	225.62	20.94	-50.2	-69.2	3.8	8.47e-01	0	43	104	0	71	32988
2026-01-27 19:08:10.42	224.86	21.19	-50.3	-69.2	3.8	8.48e-01	0	43	104	0	71	33097
2026-01-27 19:08:12.42	224.08	21.43	-50.3	-69.2	3.8	8.48e-01	0	43	104	0	71	33042
2026-01-27 19:08:14.42	223.29	21.68	-50.3	-69.2	3.8	8.47e-01	0	43	104	0	71	32995
2026-01-27 19:08:16.42	222.49	21.92	-50.2	-69.2	3.8	8.46e-01	0	43	104	0	71	33055
2026-01-27 19:08:18.42	221.67	22.16	-50.1	-69.2	3.8	8.48e-01	0	43	104	0	71	32996
2026-01-27 19:08:20.42	220.83	22.39	-50.1	-69.2	3.8	8.46e-01	0	43	104	0	71	33094
2026-01-27 19:08:22.44	219.97	22.63	-50.2	-69.2	3.8	8.47e-01	0	43	104	0	71	33157
2026-01-27 19:08:24.45	219.10	22.86	-50.2	-69.2	3.8	8.47e-01	0	43	104	0	71	33154
2026-01-27 19:08:26.45	218.22	23.08	-50.1	-69.2	3.8	8.47e-01	0	43	104	0	71	33051
2026-01-27 19:08:28.44	217.33	23.30	-50.1	-69.2	3.8	8.47e-01	0	43	104	0	71	33254
2026-01-27 19:08:30.44	216.42	23.52	-50.3	-69.2	3.8	8.46e-01	0	43	104	0	71	33156
2026-01-27 19:08:32.44	215.50	23.74	-50.2	-69.2	3.8	8.47e-01	0	43	104	0	71	33090
2026-01-27 19:08:34.44	214.56	23.95	-50.1	-69.2	3.8	8.47e-01	0	43	104	0	71	33083
2026-01-27 19:08:36.44	213.60	24.15	-50.1	-69.2	3.8	8.47e-01	0	43	104	0	71	33091
2026-01-27 19:08:38.44	212.63	24.35	-50.1	-69.2	3.8	8.48e-01	0	43	104	0	71	33018
2026-01-27 19:08:40.45	211.65	24.54	-50.2	-69.2	3.8	8.48e-01	0	43	104	0	71	33305
2026-01-27 19:08:42.44	210.65	24.73	-50.2	-69.2	3.8	8.46e-01	0	43	104	0	71	33244
2026-01-27 19:08:44.44	209.64	24.91	-50.2	-69.2	3.8	8.46e-01	0	43	104	0	71	33272
2026-01-27 19:08:46.47	208.60	25.08	-50.2	-69.2	3.8	8.46e-01	0	43	104	0	71	33285
2026-01-27 19:08:48.48	207.56	25.25	-50.3	-69.2	3.8	8.47e-01	0	43	104	0	71	33138
2026-01-27 19:08:50.47	206.52	25.40	-50.1	-69.2	3.8	8.46e-01	0	43	104	0	71	33288
2026-01-27 19:08:52.47	205.46	25.55	-50.2	-69.3	3.8	8.46e-01	0	43	104	0	71	33317
2026-01-27 19:08:54.49	204.37	25.69	-50.2	-69.3	3.8	8.47e-01	0	43	104	0	71	33334
2026-01-27 19:08:56.49	203.29	25.82	-50.2	-69.3	3.8	8.47e-01	0	43	104	0	71	33453
2026-01-27 19:08:58.48	202.20	25.95	-50.3	-69.3	3.8	8.46e-01	0	43	104	0	71	33412
2026-01-27 19:09:00.50	201.09	26.06	-50.4	-69.3	3.8	8.47e-01	0	43	104	0	71	33341
2026-01-27 19:09:02.53	199.96	26.16	-50.2	-69.2	3.8	8.47e-01	0	43	104	0	71	33278
2026-01-27 19:09:04.55	198.83	26.26	-50.3	-69.3	3.8	8.47e-01	0	43	104	0	71	33394
2026-01-27 19:09:06.55	197.71	26.34	-50.3	-69.3	3.8	8.48e-01	0	43	104	0	71	33345
2026-01-27 19:09:08.56	196.57	26.41	-50.4	-69.3	3.8	8.47e-01	0	43	104	0	71	33508
2026-01-27 19:09:10.55	195.43	26.47	-50.3	-69.2	3.8	8.47e-01	0	43	104	0	71	33309
2026-01-27 19:09:12.55	194.29	26.52	-50.3	-69.3	3.8	8.47e-01	0	43	104	0	71	33523
2026-01-27 19:09:14.55	193.14	26.56	-50.3	-69.3	3.8	8.46e-01	0	43	104	0	71	33483
2026-01-27 19:09:16.54	192.00	26.59	-50.4	-69.3	3.8	8.47e-01	0	43	104	0	71	33511
2026-01-27 19:09:18.55	190.84	26.61	-50.3	-69.3	3.8	8.48e-01	0	44	104	0	71	33453
2026-01-27 19:09:20.56	189.69	26.61	-50.4	-69.3	3.8	8.47e-01	0	43	104	0	71	33492
2026-01-27 19:09:22.57	188.53	26.61	-50.4	-69.3	3.8	8.47e-01	0	43	104	0	71	33557
2026-01-27 19:09:24.61	187.35	26.59	-50.4	-69.3	3.8	8.47e-01	0	43	104	0	71	33545
2026-01-27 19:09:26.62	186.20	26.56	-50.3	-69.3	3.8	8.48e-01	0	43	104	0	71	33626
2026-01-27 19:09:28.62	185.05	26.52	-50.3	-69.4	3.8	8.47e-01	0	43	104	0	71	33705
2026-01-27 19:09:30.61	183.91	26.47	-50.4	-69.3	3.8	8.47e-01	0	43	104	0	71	33531
2026-01-27 19:09:32.62	182.77	26.41	-50.4	-69.3	3.8	8.47e-01	0	43	104	0	71	33659
2026-01-27 19:09:34.64	181.63	26.34	-50.3	-69.3	3.8	8.47e-01	0	43	104	0	71	33498
2026-01-27 19:09:36.64	180.50	26.25	-50.4	-69.3	3.8	8.47e-01	0	43	104	0	71	33434
2026-01-27 19:09:38.65	179.38	26.16	-50.3	-69.3	3.8	8.47e-01	0	43	104	0	71	33533
2026-01-27 19:09:40.71	178.23	26.05	-50.3	-69.3	3.8	8.47e-01	0	43	104	0	71	33396
2026-01-27 19:09:42.71	177.13	25.94	-50.3	-69.3	3.8	8.48e-01	0	43	104	0	71	33356
2026-01-27 19:09:44.72	176.03	25.82	-50.3	-69.3	3.8	8.47e-01	0	43	104	0	71	33420
2026-01-27 19:09:46.73	174.94	25.68	-50.3	-69.2	3.8	8.46e-01	0	43	104	0	71	33281
2026-01-27 19:09:48.73	173.87	25.54	-50.3	-69.2	3.8	8.46e-01	0	43	104	0	71	33111
2026-01-27 19:09:50.74	172.80	25.39	-50.3	-69.3	3.8	8.46e-01	0	43	104	0	71	33324
2026-01-27 19:09:52.73	171.76	25.23	-50.3	-69.3	3.8	8.46e-01	0	43	104	0	71	33324
2026-01-27 19:09:54.76	170.71	25.07	-50.3	-69.2	3.8	8.49e-01	0	43	104	0	71	33299
2026-01-27 19:09:56.77	169.68	24.89	-50.3	-69.3	3.8	8.47e-01	0	43	104	0	71	33350
2026-01-27 19:09:58.77	168.67	24.71	-50.4	-69.3	3.8	8.47e-01	0	43	104	0	71	33357
2026-01-27 19:10:00.78	167.67	24.53	-50.2	-69.2	3.8	8.47e-01	0	43	104	0	71	33259
2026-01-27 19:10:02.79	166.68	24.33	-50.3	-69.2	3.8	8.46e-01	0	43	104	0	71	33240
2026-01-27 19:10:04.79	165.71	24.13	-50.1	-69.2	3.8	8.47e-01	0	43	104	0	71	33163
2026-01-27 19:10:06.79	164.76	23.93	-50.2	-69.2	3.8	8.47e-01	0	43	104	0	71	33192
2026-01-27 19:10:08.80	163.81	23.72	-50.1	-69.2	3.8	8.47e-01	0	43	104	0	71	33169
2026-01-27 19:10:10.80	162.89	23.50	-50.1	-69.2	3.8	8.47e-01	0	43	104	0	71	33243
2026-01-27 19:10:12.79	161.98	23.28	-50.2	-69.2	3.8	8.46e-01	0	43	104	0	71	33192
2026-01-27 19:10:14.83	161.07	23.06	-50.1	-69.2	3.8	8.47e-01	0	43	104	0	71	33138
2026-01-27 19:10:16.84	160.19	22.83	-50.3	-69.2	3.8	8.46e-01	0	43	104	0	71	33211
2026-01-27 19:10:18.84	159.32	22.60	-50.2	-69.2	3.8	8.45e-01	0	44	104	0	71	33089
2026-01-27 19:10:20.84	158.47	22.37	-50.2	-69.2	3.8	8.46e-01	0	43	104	0	71	33141
2026-01-27 19:10:22.85	157.63	22.13	-50.2	-69.2	3.8	8.46e-01	0	43	104	0	71	33093
2026-01-27 19:10:24.86	156.81	21.89	-50.3	-69.2	3.8	8.46e-01	0	43	104	0	71	33038
2026-01-27 19:10:26.86	156.01	21.65	-50.3	-69.2	3.8	8.47e-01	0	43	104	0	71	33042
2026-01-27 19:10:28.87	155.21	21.40	-50.2	-69.1	3.8	8.47e-01	0	43	104	0	71	32920
2026-01-27 19:10:30.87	154.44	21.16	-50.1	-69.1	3.8	8.48e-01	0	43	104	0	71	32617
2026-01-27 19:10:32.89	153.67	20.91	-50.0	-69.1	3.8	8.47e-01	0	43	104	0	71	32676
2026-01-27 19:10:34.89	152.93	20.66	-50.0	-68.9	3.8	8.47e-01	0	43	104	0	71	32177
2026-01-27 19:10:36.89	152.20	20.42	-50.0	-68.9	3.8	8.47e-01	0	43	104	0	71	31945
2026-01-27 19:10:38.88	151.48	20.17	-50.1	-69.0	3.8	8.47e-01	0	43	104	0	71	32497
2026-01-27 19:10:40.88	150.78	19.92	-50.1	-69.1	3.8	8.46e-01	0	43	104	0	71	32636
2026-01-27 19:10:42.87	150.09	19.67	-50.1	-69.1	3.8	8.47e-01	0	43	104	0	71	32778
2026-01-27 19:10:44.89	149.41	19.42	-50.0	-69.1	3.8	8.48e-01	0	43	104	0	71	32699
2026-01-27 19:10:46.89	148.75	19.17	-50.0	-69.0	3.8	8.46e-01	0	43	104	0	71	32549
2026-01-27 19:10:48.89	148.10	18.92	-50.1	-69.1	3.8	8.47e-01	0	43	104	0	71	32728
2026-01-27 19:10:50.89	147.46	18.67	-50.1	-69.1	3.8	8.48e-01	0	43	104	0	71	32853
2026-01-27 19:10:52.89	146.84	18.42	-50.0	-69.1	3.8	8.46e-01	0	43	104	0	71	32720
2026-01-27 19:10:54.91	146.22	18.17	-50.0	-69.1	3.8	8.47e-01	0	43	104	0	71	32841
2026-01-27 19:10:56.90	145.63	17.93	-50.1	-69.1	3.8	8.47e-01	0	43	104	0	71	32752
2026-01-27 19:10:58.90	145.04	17.68	-50.2	-69.0	3.8	8.46e-01	0	43	104	0	71	32504
2026-01-27 19:11:00.92	144.46	17.43	-50.1	-69.1	3.8	8.47e-01	0	43	104	0	71	32719
2026-01-27 19:11:02.91	143.90	17.19	-49.9	-69.1	3.8	8.47e-01	0	44	104	0	71	32651
2026-01-27 19:11:04.91	143.35	16.95	-49.8	-69.1	3.8	8.47e-01	0	43	104	0	71	32713
2026-01-27 19:11:06.91	142.81	16.71	-49.8	-69.0	3.8	8.47e-01	0	44	104	0	71	32543
2026-01-27 19:11:08.93	142.27	16.46	-49.7	-69.0	3.8	8.47e-01	0	43	104	0	71	32430
2026-01-27 19:11:10.92	141.75	16.23	-49.9	-69.0	3.8	8.48e-01	0	43	104	0	71	32265
2026-01-27 19:11:12.94	141.24	15.99	-49.9	-69.0	3.8	8.48e-01	0	43	104	0	71	32373
2026-01-27 19:11:14.96	140.73	15.75	-49.9	-69.0	3.8	8.47e-01	0	43	104	0	71	32292
2026-01-27 19:11:16.95	140.25	15.51	-50.0	-69.0	3.8	8.48e-01	0	43	104	0	71	32495
2026-01-27 19:11:18.95	139.77	15.28	-50.1	-69.0	3.8	8.47e-01	0	43	104	0	71	32388
2026-01-27 19:11:20.95	139.30	15.05	-50.1	-69.0	3.8	8.47e-01	0	43	104	0	71	32378
2026-01-27 19:11:22.94	138.84	14.82	-50.1	-69.0	3.8	8.48e-01	0	43	104	0	71	32313
2026-01-27 19:11:24.94	138.39	14.59	-50.1	-69.0	3.8	8.47e-01	0	43	104	0	71	32220
2026-01-27 19:11:26.95	137.94	14.37	-50.1	-69.0	3.8	8.47e-01	0	43	104	0	71	32193
2026-01-27 19:11:28.96	137.51	14.14	-50.1	-69.0	3.8	8.48e-01	0	43	104	0	71	32233
2026-01-27 19:11:30.95	137.08	13.92	-50.0	-69.0	3.8	8.46e-01	0	43	104	0	71	32232
2026-01-27 19:11:32.97	136.66	13.69	-50.0	-69.0	3.8	8.46e-01	0	43	104	0	71	32200
2026-01-27 19:11:34.97	136.25	13.47	-50.0	-68.9	3.8	8.47e-01	0	43	104	0	71	32056
2026-01-27 19:11:36.99	135.84	13.25	-49.9	-68.9	3.8	8.46e-01	0	43	104	0	71	32169
2026-01-27 19:11:38.98	135.45	13.04	-49.9	-68.9	3.8	8.46e-01	0	43	104	0	71	32175
2026-01-27 19:11:40.99	135.06	12.82	-49.9	-68.9	3.8	8.48e-01	0	43	104	0	71	31928
2026-01-27 19:11:43.01	134.68	12.61	-50.0	-68.9	3.8	8.47e-01	0	43	104	0	71	31977
2026-01-27 19:11:45.00	134.31	12.40	-50.0	-68.9	3.8	8.47e-01	0	43	104	0	71	32121
2026-01-27 19:11:47.00	133.95	12.19	-49.9	-68.9	3.8	8.47e-01	0	43	104	0	71	31934
2026-01-27 19:11:49.01	133.59	11.98	-49.9	-68.9	3.8	8.47e-01	0	43	104	0	71	31864
2026-01-27 19:11:51.01	133.23	11.78	-49.9	-68.9	3.8	8.46e-01	0	44	104	0	71	31853
2026-01-27 19:11:53.02	132.89	11.57	-49.9	-68.9	3.8	8.46e-01	0	44	104	0	71	31899
2026-01-27 19:11:55.02	132.55	11.37	-49.9	-68.9	3.8	8.46e-01	0	43	104	0	71	31872
2026-01-27 19:11:57.03	132.21	11.17	-49.9	-68.8	3.8	8.46e-01	0	43	104	0	71	31602
2026-01-27 19:11:59.03	131.89	10.97	-49.8	-68.7	3.8	8.47e-01	0	43	104	0	71	31416
2026-01-27 19:12:01.04	131.56	10.77	-49.9	-68.8	3.8	8.46e-01	0	43	104	0	71	31680
2026-01-27 19:12:03.05	131.25	10.58	-49.7	-68.8	3.8	8.48e-01	0	43	104	0	71	31524
2026-01-27 19:12:05.07	130.94	10.38	-49.8	-68.8	3.8	8.47e-01	0	43	104	0	71	31560
2026-01-27 19:12:07.06	130.63	10.19	-49.7	-68.7	3.8	8.48e-01	0	43	104	0	71	31130
2026-01-27 19:12:09.09	130.33	10.00	-49.8	-68.8	3.8	8.48e-01	0	43	104	0	71	31551
2026-01-27 19:12:11.08	130.04	9.81	-49.7	-68.7	3.8	8.47e-01	0	43	104	0	71	31152
2026-01-27 19:12:13.08	129.75	9.62	-49.8	-68.7	3.8	8.47e-01	0	43	104	0	71	31390
2026-01-27 19:12:15.08	129.47	9.44	-49.7	-68.6	3.8	8.48e-01	0	43	104	0	71	30842
2026-01-27 19:12:17.07	129.19	9.25	-49.7	-68.7	3.8	8.47e-01	0	43	104	0	71	31109
2026-01-27 19:12:19.07	128.92	9.07	-49.6	-68.6	3.8	8.46e-01	0	43	104	0	71	30976
2026-01-27 19:12:21.07	128.65	8.89	-50.2	-69.0	3.8	8.48e-01	0	43	104	0	71	32473
2026-01-27 19:12:23.07	128.39	8.71	-50.3	-69.2	3.8	8.47e-01	0	43	104	0	71	33222
2026-01-27 19:12:25.07	128.13	8.53	-50.4	-69.3	3.8	8.48e-01	0	43	104	0	71	33602
2026-01-27 19:12:27.09	127.87	8.36	-50.5	-69.4	3.8	8.47e-01	0	43	104	0	71	33885
2026-01-27 19:12:29.10	127.62	8.18	-50.6	-69.5	3.8	8.47e-01	0	43	104	0	71	34223
2026-01-27 19:12:31.11	127.37	8.01	-50.7	-69.6	3.8	8.47e-01	0	44	104	0	71	34487
2026-01-27 19:12:33.15	127.12	7.83	-50.6	-69.5	3.8	8.47e-01	0	44	104	0	72	32371
2026-01-27 19:12:35.16	126.88	7.66	-50.3	-69.5	3.8	8.47e-01	0	44	104	0	72	32355
2026-01-27 19:12:37.16	126.65	7.49	-50.4	-69.5	3.8	8.46e-01	0	43	104	0	72	32478
2026-01-27 19:12:39.15	126.42	7.32	-50.5	-69.5	3.8	8.47e-01	0	43	104	0	72	32453
2026-01-27 19:12:41.15	126.19	7.16	-50.6	-69.6	3.8	8.48e-01	0	44	104	0	72	32728
2026-01-27 19:12:43.15	125.96	6.99	-50.5	-69.5	3.8	8.47e-01	0	44	104	0	72	32526
2026-01-27 19:12:45.16	125.74	6.83	-50.6	-69.6	3.8	8.47e-01	0	43	104	0	72	32681
2026-01-27 19:12:47.16	125.53	6.66	-50.6	-69.6	3.8	8.47e-01	0	44	104	0	72	32829
2026-01-27 19:12:49.16	125.31	6.50	-50.5	-69.6	3.8	8.46e-01	0	43	104	0	72	32708
2026-01-27 19:12:51.15	125.11	6.34	-50.6	-69.6	3.8	8.48e-01	0	43	104	0	72	32723
2026-01-27 19:12:53.19	124.89	6.18	-50.6	-69.6	3.8	8.46e-01	0	43	104	0	72	32582
2026-01-27 19:12:55.19	124.69	6.02	-50.5	-69.6	3.8	8.46e-01	0	43	104	0	72	32599
2026-01-27 19:12:57.23	124.49	5.86	-50.2	-69.5	3.8	8.46e-01	0	43	104	0	72	32373
2026-01-27 19:12:59.25	124.29	5.71	-50.3	-69.4	3.8	8.47e-01	0	44	104	0	72	31919
2026-01-27 19:13:01.25	124.09	5.55	-50.2	-69.1	3.8	8.47e-01	0	43	104	0	72	31063
2026-01-27 19:13:03.26	123.90	5.40	-50.0	-69.0	3.8	8.47e-01	0	43	104	0	71	32321
2026-01-27 19:13:05.25	123.71	5.25	-49.9	-69.0	3.8	8.48e-01	0	44	104	0	71	32222
2026-01-27 19:13:07.26	123.53	5.10	-49.9	-68.9	3.8	8.48e-01	0	43	104	0	71	32160

#Closed at: 2026-01-27 19:13:09
#Recorded file [0 MB]: D:/Data/31040_260127_220534.dat