passes_logs/2026/01/27/T1/T1__20260127_051044_FENGYUN_3E_rec.log

#Pass ID: 20260127_051044_FENGYUN 3E
#Satellite: FENGYUN 3E
#Configuration: FENGYUN 3E
#almurnet v.1.7.20251203
#Start time: 2026-01-27 05:10:45

#Version: 2.0.20230620
#Station: T1
#Location: 37.570604 lon 55.790049 lat
#TLE: 1 49008U 21062A   26026.84429991  .00000247  00000+0  13693-3 0  9991
#TLE: 2 49008  98.7501  31.8345 0002501 116.3456 243.7977 14.19887781236522

#Time	Az	El	Level	Level2	SNR	BER	BlckErr	Temp	State	Recorded	gain1	gain2
2026-01-27 05:10:45.93	8.98	5.11	-50.1	-61.1	3.8	8.47e-01	0	41	0	0	70	12842
2026-01-27 05:10:48.90	8.81	5.31	-50.2	-61.1	3.8	8.47e-01	0	41	104	0	70	12867
2026-01-27 05:10:51.88	8.63	5.51	-50.3	-61.1	3.8	8.46e-01	0	42	104	0	70	12958
2026-01-27 05:10:54.86	8.45	5.71	-50.5	-61.2	3.8	8.48e-01	0	41	104	0	70	12991
2026-01-27 05:10:57.84	8.26	5.91	-50.2	-61.1	3.8	8.47e-01	0	42	104	0	70	12914
2026-01-27 05:11:00.82	8.07	6.11	-50.1	-61.1	3.8	8.47e-01	0	42	104	0	70	12814
2026-01-27 05:11:03.80	7.88	6.31	-50.1	-61.1	3.8	8.48e-01	0	42	104	0	70	12821
2026-01-27 05:11:06.78	7.69	6.52	-49.3	-60.9	3.8	8.47e-01	0	42	104	0	69	13273
2026-01-27 05:11:09.76	7.50	6.72	-49.5	-60.9	3.8	8.47e-01	0	42	104	0	69	13340
2026-01-27 05:11:12.74	7.30	6.93	-48.7	-60.7	3.8	8.48e-01	0	42	104	0	67	14575
2026-01-27 05:11:15.72	7.10	7.14	-46.6	-59.4	3.8	8.47e-01	0	42	104	0	64	14976
2026-01-27 05:11:18.70	6.89	7.35	-46.6	-58.1	4.0	8.46e-01	0	42	104	0	63	13585
2026-01-27 05:11:21.68	6.68	7.56	-46.6	-57.4	4.1	8.42e-01	0	43	0	0	63	12562
2026-01-27 05:11:24.66	6.47	7.77	-46.4	-56.6	4.3	8.34e-01	0	43	0	0	63	11518
2026-01-27 05:11:27.64	6.26	7.99	-46.4	-56.0	4.5	8.22e-01	0	43	0	0	63	10658
2026-01-27 05:11:30.62	6.04	8.20	-45.9	-52.9	6.4	2.90e-01	0	43	0	4194304	62	7971
2026-01-27 05:11:33.60	5.82	8.42	-44.0	-47.5	11.7	1.68e-03	0	43	0	26214400	58	5391
2026-01-27 05:11:36.59	5.59	8.64	-41.9	-44.2	15.0	0.00e+00	0	43	0	48234496	54	4612
2026-01-27 05:11:39.57	5.37	8.86	-41.8	-44.0	15.2	0.00e+00	0	43	0	69206016	53	4810
2026-01-27 05:11:42.55	5.13	9.08	-42.8	-45.5	13.6	8.00e-06	0	43	0	91226112	55	5099
2026-01-27 05:11:45.53	4.90	9.30	-39.8	-41.4	17.9	0.00e+00	0	43	0	112197632	50	4196
2026-01-27 05:11:48.52	4.66	9.52	-39.3	-40.7	18.5	0.00e+00	0	43	0	134217728	49	4106
2026-01-27 05:11:51.50	4.42	9.75	-39.1	-40.4	18.8	0.00e+00	0	43	0	155189248	48	4223
2026-01-27 05:11:54.49	4.17	9.98	-38.7	-39.9	19.3	0.00e+00	0	43	0	177209344	48	3977
2026-01-27 05:11:57.47	3.92	10.21	-38.5	-39.6	19.3	0.00e+00	0	43	0	198180864	47	4092
2026-01-27 05:12:00.45	3.66	10.44	-38.3	-39.4	19.6	0.00e+00	0	43	0	220200960	47	3998
2026-01-27 05:12:03.44	3.40	10.67	-38.4	-39.5	19.5	0.00e+00	0	43	0	242221056	47	4026
2026-01-27 05:12:06.42	3.14	10.90	-38.3	-39.4	19.6	0.00e+00	0	43	0	263192576	46	4204
2026-01-27 05:12:09.40	2.87	11.14	-38.4	-39.4	19.6	0.00e+00	0	43	0	285212672	46	4224
2026-01-27 05:12:12.35	2.60	11.37	-38.4	-39.5	19.6	0.00e+00	0	43	0	306184192	46	4257
2026-01-27 05:12:15.45	2.31	11.62	-38.3	-39.4	19.7	0.00e+00	0	43	0	328204288	46	4198
2026-01-27 05:12:18.29	2.04	11.85	-38.3	-39.4	19.7	0.00e+00	0	43	0	349175808	47	3965
2026-01-27 05:12:21.48	1.73	12.11	-38.5	-39.6	19.5	0.00e+00	0	44	0	371195904	47	4078
2026-01-27 05:12:24.32	1.45	12.34	-38.3	-39.4	19.7	0.00e+00	0	43	0	392167424	46	4211
2026-01-27 05:12:27.45	1.14	12.60	-38.2	-39.2	19.8	0.00e+00	0	43	0	415236096	46	4144
2026-01-27 05:12:30.30	0.85	12.83	-38.1	-39.1	20.0	0.00e+00	0	43	0	435159040	46	4071
2026-01-27 05:12:33.42	0.53	13.09	-38.1	-39.2	19.9	0.00e+00	0	44	0	458227712	46	4101
2026-01-27 05:12:36.27	0.23	13.33	-38.3	-39.4	19.6	0.00e+00	0	44	0	478150656	46	4210
2026-01-27 05:12:39.39	359.89	13.60	-38.5	-39.5	19.5	0.00e+00	0	44	0	501219328	46	4275
2026-01-27 05:12:42.29	359.58	13.84	-38.6	-39.6	19.5	0.00e+00	0	44	0	522190848	46	4321
2026-01-27 05:12:45.57	359.21	14.12	-38.5	-39.6	19.5	0.00e+00	0	44	0	545259520	47	4053
2026-01-27 05:12:48.29	358.91	14.36	-38.1	-39.2	19.9	0.00e+00	0	43	0	565182464	46	4102
2026-01-27 05:12:51.57	358.53	14.64	-38.0	-39.0	20.0	0.00e+00	0	43	0	589299712	46	4047
2026-01-27 05:12:54.28	358.21	14.88	-38.0	-39.1	20.0	0.00e+00	0	44	0	608174080	46	4058
2026-01-27 05:12:57.58	357.82	15.17	-37.9	-38.9	19.8	0.00e+00	0	44	0	632291328	46	4001
2026-01-27 05:13:00.67	357.44	15.45	-37.7	-38.7	20.0	0.00e+00	0	44	0	654311424	45	4140
2026-01-27 05:13:03.97	357.03	15.74	-37.5	-38.5	20.4	0.00e+00	0	44	0	678428672	45	4045
2026-01-27 05:13:06.70	356.69	15.99	-37.5	-38.5	20.4	0.00e+00	0	44	0	698351616	45	4012
2026-01-27 05:13:10.03	356.26	16.29	-37.5	-38.5	20.4	0.00e+00	0	44	0	722468864	44	4259
2026-01-27 05:13:12.73	355.90	16.53	-37.4	-38.3	20.6	0.00e+00	0	44	0	742391808	44	4187
2026-01-27 05:13:16.22	355.44	16.85	-37.3	-38.3	20.7	0.00e+00	0	44	0	766509056	44	4158
2026-01-27 05:13:18.94	355.06	17.10	-37.3	-38.3	20.7	0.00e+00	0	44	0	786432000	44	4168
2026-01-27 05:13:22.22	354.61	17.41	-37.3	-38.3	20.7	0.00e+00	0	44	0	810549248	44	4159
2026-01-27 05:13:24.97	354.22	17.66	-37.0	-38.0	21.0	0.00e+00	0	44	0	830472192	44	4045
2026-01-27 05:13:28.25	353.74	17.97	-36.8	-37.8	21.2	0.00e+00	0	44	0	853540864	44	3934
2026-01-27 05:13:30.98	353.34	18.23	-36.5	-37.5	21.3	0.00e+00	0	44	0	873463808	43	4013
2026-01-27 05:13:34.25	352.85	18.54	-36.5	-37.5	21.3	0.00e+00	0	44	0	897581056	43	4038
2026-01-27 05:13:37.26	352.39	18.82	-36.6	-37.6	21.2	0.00e+00	0	44	0	918552576	43	4086
2026-01-27 05:13:40.54	351.88	19.14	-36.8	-37.8	21.1	0.00e+00	0	44	0	942669824	43	4152
2026-01-27 05:13:43.27	351.44	19.40	-36.7	-37.7	21.2	0.00e+00	0	44	0	962592768	43	4111
2026-01-27 05:13:46.53	350.91	19.71	-36.6	-37.5	21.4	0.00e+00	0	44	0	985661440	43	4045
2026-01-27 05:13:49.33	350.45	19.98	-36.6	-37.5	21.4	0.00e+00	0	44	0	1005584384	43	4025
2026-01-27 05:13:52.72	349.88	20.31	-36.4	-37.3	21.6	0.00e+00	0	44	0	1030750208	43	3922
2026-01-27 05:13:55.48	349.40	20.58	-36.6	-37.5	21.4	0.00e+00	0	44	0	1050673152	43	4026
2026-01-27 05:13:58.82	348.82	20.91	-36.7	-37.7	21.3	0.00e+00	0	44	0	1074790400	43	4100
2026-01-27 05:14:01.54	348.33	21.18	-36.4	-37.3	21.6	0.00e+00	0	44	0	1094713344	43	3956
2026-01-27 05:14:04.82	347.73	21.50	-36.5	-37.4	21.5	0.00e+00	0	44	0	1117782016	43	3987
2026-01-27 05:14:07.66	347.20	21.78	-36.3	-37.3	21.7	0.00e+00	0	44	0	1138753536	43	3917
2026-01-27 05:14:11.10	346.54	22.12	-36.4	-37.3	21.7	0.00e+00	0	44	0	1162870784	43	3933
2026-01-27 05:14:13.89	346.00	22.39	-36.2	-37.2	21.8	0.00e+00	0	44	0	1183842304	43	3871
2026-01-27 05:14:17.02	345.38	22.70	-36.1	-37.1	21.9	0.00e+00	0	44	0	1205862400	42	4065
2026-01-27 05:14:19.86	344.81	22.98	-36.3	-37.3	21.7	0.00e+00	0	44	0	1226833920	42	4158
2026-01-27 05:14:22.99	344.17	23.29	-36.4	-37.3	21.6	0.00e+00	0	44	0	1248854016	42	4167
2026-01-27 05:14:25.83	343.57	23.58	-36.1	-37.1	21.9	0.00e+00	0	44	0	1269825536	42	4061
2026-01-27 05:14:28.95	342.90	23.88	-36.0	-36.9	22.0	0.00e+00	0	44	0	1291845632	42	3980
2026-01-27 05:14:31.79	342.29	24.16	-35.7	-36.5	22.4	0.00e+00	0	44	0	1312817152	42	3819
2026-01-27 05:14:34.92	341.59	24.47	-35.6	-36.5	22.4	0.00e+00	0	44	0	1334837248	42	3790
2026-01-27 05:14:37.79	340.94	24.75	-35.8	-36.7	22.2	0.00e+00	0	44	0	1355808768	41	4138
2026-01-27 05:14:41.09	340.18	25.07	-35.5	-36.4	22.5	0.00e+00	0	44	0	1379926016	41	4001
2026-01-27 05:14:44.28	339.43	25.38	-35.2	-36.1	22.7	0.00e+00	0	44	0	1402994688	41	3847
2026-01-27 05:14:47.16	338.74	25.66	-35.1	-36.0	22.8	0.00e+00	0	44	0	1423966208	41	3786
2026-01-27 05:14:50.29	337.97	25.96	-35.3	-36.1	22.7	0.00e+00	0	44	0	1445986304	40	4092
2026-01-27 05:14:53.22	337.24	26.24	-35.6	-36.5	22.4	0.00e+00	0	44	0	1466957824	40	4280
2026-01-27 05:14:56.32	336.46	26.53	-35.7	-36.6	22.3	0.00e+00	0	44	0	1490026496	40	4311
2026-01-27 05:14:59.62	335.61	26.84	-35.7	-36.5	22.4	0.00e+00	0	44	0	1513095168	40	4284
2026-01-27 05:15:02.36	334.88	27.09	-35.7	-36.6	22.3	0.00e+00	0	44	0	1533018112	40	4303
2026-01-27 05:15:05.68	334.00	27.39	-35.8	-36.7	22.2	0.00e+00	0	44	0	1557135360	41	4113
2026-01-27 05:15:08.39	333.26	27.64	-35.7	-36.6	22.3	0.00e+00	0	44	0	1577058304	41	4075
2026-01-27 05:15:11.75	332.33	27.93	-35.6	-36.5	22.4	0.00e+00	0	44	0	1601175552	41	4040
2026-01-27 05:15:14.46	331.56	28.17	-35.6	-36.6	22.3	0.00e+00	0	44	0	1620049920	41	4055
2026-01-27 05:15:17.75	330.62	28.45	-35.2	-36.0	22.8	0.00e+00	0	44	0	1644167168	41	3823
2026-01-27 05:15:20.49	329.82	28.68	-35.1	-35.9	22.9	0.00e+00	0	44	0	1664090112	40	3986
2026-01-27 05:15:23.76	328.86	28.95	-35.2	-36.1	22.8	0.00e+00	0	44	0	1688207360	40	4073
2026-01-27 05:15:26.48	328.04	29.17	-35.5	-36.4	22.5	0.00e+00	0	44	0	1707081728	40	4214
2026-01-27 05:15:29.76	327.04	29.42	-35.6	-36.4	22.4	0.00e+00	0	44	0	1731198976	40	4242
2026-01-27 05:15:32.49	326.20	29.63	-35.5	-36.4	22.5	0.00e+00	0	44	0	1751121920	40	4200
2026-01-27 05:15:35.77	325.17	29.87	-35.5	-36.4	22.6	0.00e+00	0	44	0	1774190592	40	4210
2026-01-27 05:15:38.48	324.30	30.06	-35.4	-36.3	22.6	0.00e+00	0	44	0	1794113536	40	4153
2026-01-27 05:15:41.75	323.25	30.29	-35.2	-36.1	22.8	0.00e+00	0	44	0	1817182208	40	4060
2026-01-27 05:15:44.72	322.28	30.49	-35.2	-36.1	22.8	0.00e+00	0	44	0	1839202304	40	4074
2026-01-27 05:15:47.89	321.23	30.69	-35.1	-36.0	22.9	0.00e+00	0	44	0	1862270976	40	4005
2026-01-27 05:15:50.82	320.25	30.87	-35.2	-36.0	22.9	0.00e+00	0	44	0	1883242496	40	4035
2026-01-27 05:15:53.94	319.20	31.04	-34.9	-35.8	23.0	0.00e+00	0	44	0	1905262592	40	3930
2026-01-27 05:15:56.78	318.23	31.20	-35.0	-35.8	23.0	0.00e+00	0	44	0	1926234112	40	3958
2026-01-27 05:15:59.91	317.15	31.36	-35.0	-35.9	22.9	0.00e+00	0	44	0	1948254208	40	3995
2026-01-27 05:16:02.86	316.12	31.50	-35.1	-36.0	22.8	0.00e+00	0	44	0	1970274304	40	4017
2026-01-27 05:16:05.99	315.02	31.64	-35.2	-36.1	22.8	0.00e+00	0	44	0	1992294400	40	4058
2026-01-27 05:16:08.83	314.01	31.76	-35.2	-36.1	22.8	0.00e+00	0	44	0	2013265920	40	4053
2026-01-27 05:16:11.95	312.90	31.87	-34.9	-35.8	23.0	0.00e+00	0	44	0	2035286016	40	3925
2026-01-27 05:16:14.84	311.86	31.97	-34.8	-35.6	23.2	0.00e+00	0	44	0	2056257536	40	3845
2026-01-27 05:16:18.08	310.69	32.07	-35.0	-35.9	23.0	0.00e+00	0	44	0	2079326208	40	3966
2026-01-27 05:16:20.98	309.63	32.14	-35.1	-35.9	22.9	0.00e+00	0	44	0	2101346304	40	3992
2026-01-27 05:16:24.11	308.49	32.21	-34.8	-35.6	23.1	0.00e+00	0	44	0	2123366400	40	3865
2026-01-27 05:16:27.03	307.42	32.27	-34.9	-35.7	23.0	0.00e+00	0	44	0	2144337920	40	3913
2026-01-27 05:16:30.01	306.32	32.31	-34.8	-35.6	23.2	0.00e+00	0	44	0	2166358016	40	3854
2026-01-27 05:16:33.00	305.22	32.34	-34.6	-35.5	23.3	0.00e+00	0	44	0	2187329536	39	4008
2026-01-27 05:16:35.98	304.12	32.36	-34.9	-35.8	23.1	0.00e+00	0	44	0	2209349632	39	4149
2026-01-27 05:16:38.96	303.02	32.36	-34.9	-35.8	23.1	0.00e+00	0	44	0	2230321152	39	4158
2026-01-27 05:16:41.95	301.91	32.36	-34.9	-35.7	23.1	0.00e+00	0	44	0	2252341248	39	4127
2026-01-27 05:16:44.93	300.81	32.34	-34.7	-35.6	23.2	0.00e+00	0	44	0	2274361344	39	4065
2026-01-27 05:16:47.92	299.71	32.31	-34.7	-35.6	23.2	0.00e+00	0	44	0	2295332864	39	4055
2026-01-27 05:16:50.94	298.60	32.27	-34.8	-35.7	23.1	0.00e+00	0	44	0	2317352960	39	4110
2026-01-27 05:16:53.93	297.50	32.22	-34.9	-35.7	23.1	0.00e+00	0	44	0	2338324480	39	4127
2026-01-27 05:16:56.91	296.41	32.15	-34.7	-35.6	23.2	0.00e+00	0	44	0	2360344576	39	4055
2026-01-27 05:16:59.90	295.32	32.08	-35.0	-35.8	23.0	0.00e+00	0	44	0	2381316096	39	4176
2026-01-27 05:17:02.94	294.22	31.99	-35.0	-35.8	23.0	0.00e+00	0	44	0	2403336192	39	4172
2026-01-27 05:17:05.93	293.14	31.89	-35.1	-35.9	22.9	0.00e+00	0	44	0	2425356288	39	4220
2026-01-27 05:17:08.92	292.07	31.78	-35.1	-35.9	22.9	0.00e+00	0	44	0	2446327808	39	4235
2026-01-27 05:17:11.90	291.01	31.66	-34.7	-35.6	23.2	0.00e+00	0	44	0	2468347904	39	4065
2026-01-27 05:17:14.89	289.96	31.53	-35.0	-35.8	23.0	0.00e+00	0	44	0	2490368000	39	4161
2026-01-27 05:17:17.94	288.89	31.38	-35.0	-35.9	23.0	0.00e+00	0	44	0	2512388096	39	4208
2026-01-27 05:17:20.86	287.88	31.23	-34.9	-35.8	23.1	0.00e+00	0	44	0	2533359616	39	4151
2026-01-27 05:17:23.85	286.85	31.07	-35.1	-36.0	22.9	0.00e+00	0	44	0	2554331136	39	4257
2026-01-27 05:17:26.83	285.84	30.90	-35.2	-36.1	22.8	0.00e+00	0	44	0	2576351232	39	4309
2026-01-27 05:17:29.81	284.84	30.73	-35.0	-35.8	23.0	0.00e+00	0	44	0	2597322752	40	3933
2026-01-27 05:17:32.86	283.82	30.53	-35.0	-35.8	23.0	0.00e+00	0	44	0	2619342848	40	3929
2026-01-27 05:17:35.81	282.85	30.34	-35.1	-36.0	22.8	0.00e+00	0	44	0	2641362944	40	4008
2026-01-27 05:17:39.09	281.79	30.12	-35.0	-35.8	22.9	0.00e+00	0	44	0	2664431616	40	3946
2026-01-27 05:17:41.79	280.93	29.92	-35.0	-35.8	22.9	0.00e+00	0	44	0	2684354560	40	3953
2026-01-27 05:17:45.00	279.91	29.69	-35.4	-36.2	22.6	0.00e+00	0	44	0	2707423232	40	4127
2026-01-27 05:17:47.98	278.98	29.46	-35.3	-36.2	22.7	0.00e+00	0	44	0	2728394752	40	4106
2026-01-27 05:17:50.96	278.07	29.23	-34.9	-35.7	23.0	0.00e+00	0	44	0	2750414848	40	3896
2026-01-27 05:17:53.94	277.17	28.99	-34.8	-35.6	23.1	0.00e+00	0	44	0	2772434944	40	3857
2026-01-27 05:17:56.92	276.28	28.75	-35.1	-35.9	22.8	0.00e+00	0	44	0	2793406464	40	4001
2026-01-27 05:17:59.91	275.40	28.50	-35.4	-36.2	22.6	0.00e+00	0	44	0	2814377984	40	4127
2026-01-27 05:18:02.90	274.54	28.24	-35.1	-36.0	22.8	0.00e+00	0	44	0	2836398080	40	4011
2026-01-27 05:18:05.98	273.66	27.97	-35.2	-36.0	22.7	0.00e+00	0	44	0	2858418176	40	4051
2026-01-27 05:18:08.82	272.87	27.72	-35.2	-36.1	22.7	0.00e+00	0	44	0	2879389696	40	4060
2026-01-27 05:18:11.95	272.01	27.44	-35.3	-36.2	22.6	0.00e+00	0	44	0	2901409792	40	4116
2026-01-27 05:18:14.79	271.24	27.18	-35.3	-36.1	22.7	0.00e+00	0	44	0	2922381312	40	4077
2026-01-27 05:18:18.01	270.39	26.89	-35.2	-36.1	22.7	0.00e+00	0	44	0	2945449984	40	4058
2026-01-27 05:18:20.86	269.64	26.62	-35.3	-36.2	22.6	0.00e+00	0	44	0	2966421504	40	4106
2026-01-27 05:18:23.98	268.84	26.33	-35.4	-36.2	22.6	0.00e+00	0	44	0	2988441600	40	4143
2026-01-27 05:18:26.81	268.13	26.06	-35.4	-36.3	22.5	0.00e+00	0	44	0	3009413120	40	4170
2026-01-27 05:18:29.93	267.36	25.76	-35.4	-36.3	22.5	0.00e+00	0	44	0	3031433216	40	4152
2026-01-27 05:18:32.85	266.65	25.48	-35.2	-36.0	22.7	0.00e+00	0	44	0	3052404736	40	4051
2026-01-27 05:18:36.08	265.88	25.16	-35.3	-36.1	22.7	0.00e+00	0	44	0	3076521984	40	4093
2026-01-27 05:18:39.42	265.10	24.84	-35.2	-36.0	22.8	0.00e+00	0	44	0	3100639232	40	4040
2026-01-27 05:18:42.12	264.48	24.57	-35.3	-36.1	22.7	0.00e+00	0	44	0	3119513600	40	4085
2026-01-27 05:18:45.42	263.74	24.25	-35.7	-36.6	22.3	0.00e+00	0	44	0	3143630848	40	4295
2026-01-27 05:18:48.54	263.05	23.94	-35.4	-36.3	22.5	0.00e+00	0	44	0	3165650944	40	4168
2026-01-27 05:18:51.53	262.41	23.64	-35.5	-36.4	22.5	0.00e+00	0	44	0	3187671040	40	4195
2026-01-27 05:18:54.52	261.77	23.35	-35.7	-36.6	22.2	0.00e+00	0	44	0	3209691136	40	4320
2026-01-27 05:18:57.50	261.15	23.05	-35.9	-36.8	22.1	0.00e+00	0	44	0	3230662656	41	4149
2026-01-27 05:19:00.49	260.54	22.75	-35.6	-36.4	22.4	0.00e+00	0	44	0	3252682752	41	3997
2026-01-27 05:19:03.48	259.95	22.46	-35.6	-36.5	22.3	0.00e+00	0	44	0	3273654272	41	4029
2026-01-27 05:19:06.46	259.36	22.16	-35.8	-36.6	22.2	0.00e+00	0	44	0	3295674368	41	4095
2026-01-27 05:19:09.46	258.78	21.86	-35.6	-36.5	22.3	0.00e+00	0	44	0	3316645888	41	4033
2026-01-27 05:19:12.56	258.20	21.55	-35.7	-36.6	22.2	0.00e+00	0	44	0	3339714560	41	4073
2026-01-27 05:19:15.40	257.67	21.27	-35.9	-36.8	22.0	0.00e+00	0	44	0	3359637504	41	4170
2026-01-27 05:19:18.53	257.10	20.96	-36.0	-36.9	21.9	0.00e+00	0	44	0	3382706176	41	4230
2026-01-27 05:19:21.37	256.60	20.68	-36.0	-36.9	21.9	0.00e+00	0	44	0	3403677696	41	4203
2026-01-27 05:19:24.50	256.05	20.38	-36.0	-36.9	21.8	0.00e+00	0	44	0	3425697792	41	4225
2026-01-27 05:19:27.34	255.56	20.10	-36.1	-37.0	21.8	0.00e+00	0	44	0	3445620736	41	4277
2026-01-27 05:19:30.47	255.04	19.80	-36.0	-36.9	21.8	0.00e+00	0	44	0	3468689408	41	4200
2026-01-27 05:19:33.31	254.57	19.52	-36.0	-36.9	21.9	0.00e+00	0	44	0	3488612352	41	4207
2026-01-27 05:19:36.44	254.06	19.22	-36.0	-36.9	21.8	0.00e+00	0	44	0	3511681024	41	4231
2026-01-27 05:19:39.32	253.60	18.94	-36.3	-37.3	21.5	0.00e+00	0	44	0	3532652544	42	4161
2026-01-27 05:19:42.51	253.11	18.63	-36.4	-37.4	21.4	0.00e+00	0	44	0	3555721216	42	4197
2026-01-27 05:19:45.46	252.66	18.35	-36.6	-37.5	21.3	0.00e+00	0	44	0	3576692736	42	4281
2026-01-27 05:19:48.59	252.19	18.06	-36.7	-37.6	21.2	0.00e+00	0	44	0	3599761408	42	4319
2026-01-27 05:19:51.43	251.77	17.79	-36.9	-37.8	21.0	0.00e+00	0	44	0	3619684352	43	4182
2026-01-27 05:19:54.56	251.32	17.49	-37.0	-37.9	20.8	0.00e+00	0	44	0	3642753024	43	4230
2026-01-27 05:19:57.40	250.92	17.23	-36.8	-37.8	21.0	0.00e+00	0	44	0	3662675968	43	4158
2026-01-27 05:20:00.53	250.48	16.94	-37.0	-38.0	20.8	0.00e+00	0	44	0	3685744640	43	4253
2026-01-27 05:20:03.47	250.08	16.67	-37.2	-38.2	20.6	0.00e+00	0	44	0	3706716160	43	4352
2026-01-27 05:20:06.59	249.66	16.38	-37.6	-38.5	20.4	0.00e+00	0	44	0	3729784832	44	4290
2026-01-27 05:20:09.43	249.29	16.12	-37.5	-38.4	20.4	0.00e+00	0	44	0	3749707776	44	4241
2026-01-27 05:20:12.56	248.88	15.84	-37.3	-38.3	20.6	0.00e+00	0	44	0	3772776448	44	4179
2026-01-27 05:20:15.40	248.52	15.58	-37.3	-38.2	20.6	0.00e+00	0	44	0	3792699392	44	4145
2026-01-27 05:20:18.52	248.14	15.30	-37.4	-38.4	20.5	0.00e+00	0	44	0	3815768064	44	4197
2026-01-27 05:20:21.37	247.79	15.05	-37.4	-38.3	20.6	0.00e+00	0	44	0	3836739584	44	4184
2026-01-27 05:20:24.62	247.40	14.76	-37.7	-38.6	20.3	0.00e+00	0	44	0	3859808256	44	4334
2026-01-27 05:20:27.77	247.03	14.49	-37.9	-38.9	20.0	0.00e+00	0	44	0	3882876928	45	4237
2026-01-27 05:20:30.61	246.70	14.24	-38.0	-39.0	19.9	0.00e+00	0	44	0	3902799872	45	4252
2026-01-27 05:20:33.74	246.34	13.97	-37.9	-38.9	20.0	0.00e+00	0	44	0	3925868544	45	4223
2026-01-27 05:20:36.60	246.03	13.72	-37.8	-38.8	20.1	0.00e+00	0	44	0	3945791488	45	4167
2026-01-27 05:20:40.14	245.64	13.42	-37.6	-38.6	20.2	0.00e+00	0	44	0	3972005888	45	4090
2026-01-27 05:20:42.85	245.35	13.19	-38.0	-39.0	19.8	0.00e+00	0	44	0	3990880256	45	4262
2026-01-27 05:20:46.23	244.99	12.91	-38.3	-39.3	19.6	0.00e+00	0	44	0	4016046080	46	4173
2026-01-27 05:20:48.96	244.71	12.68	-38.3	-39.3	19.6	0.00e+00	0	44	0	4034920448	46	4185
2026-01-27 05:20:52.23	244.37	12.41	-38.2	-39.2	19.6	0.00e+00	0	44	0	4059037696	46	4137
2026-01-27 05:20:54.96	244.10	12.18	-38.3	-39.3	19.6	0.00e+00	0	44	0	4078960640	46	4165
2026-01-27 05:20:58.25	243.78	11.91	-38.5	-39.5	19.3	0.00e+00	0	44	0	4102029312	46	4282
2026-01-27 05:21:01.28	243.48	11.67	-38.8	-39.8	19.0	0.00e+00	0	44	0	4124049408	47	4189
2026-01-27 05:21:04.84	243.15	11.38	-39.1	-40.2	18.7	0.00e+00	0	44	0	4150263808	47	4366
2026-01-27 05:21:07.54	242.89	11.17	-38.9	-40.1	18.7	0.00e+00	0	44	0	4169138176	47	4318
2026-01-27 05:21:11.02	242.57	10.89	-38.7	-40.0	18.8	0.00e+00	0	44	0	4194304000	47	4286
2026-01-27 05:21:13.73	242.33	10.68	-38.6	-40.0	18.8	0.00e+00	0	44	0	4214226944	47	4260
2026-01-27 05:21:17.02	242.04	10.42	-38.5	-39.8	19.0	0.00e+00	0	44	0	4238344192	47	4171
2026-01-27 05:21:19.76	241.80	10.20	-38.6	-39.7	19.1	0.00e+00	0	44	0	4257218560	47	4133
2026-01-27 05:21:23.03	241.52	9.95	-38.7	-39.8	19.0	0.00e+00	0	44	0	4281335808	47	4175
2026-01-27 05:21:25.75	241.29	9.74	-38.9	-40.0	18.9	0.00e+00	0	44	0	4301258752	47	4255
2026-01-27 05:21:29.03	241.02	9.49	-38.9	-40.0	18.9	0.00e+00	0	44	0	4324327424	47	4259
2026-01-27 05:21:31.79	240.79	9.29	-38.8	-39.9	18.9	0.00e+00	0	44	0	4344250368	47	4227
2026-01-27 05:21:35.10	240.52	9.04	-39.4	-40.5	18.6	0.00e+00	0	44	0	4368367616	48	4271
2026-01-27 05:21:37.82	240.31	8.83	-41.1	-42.4	16.7	0.00e+00	0	44	0	4388290560	51	4468
2026-01-27 05:21:41.13	240.05	8.59	-45.9	-48.8	10.3	3.49e-03	0	44	0	4412407808	61	5279
2026-01-27 05:21:43.88	239.84	8.39	-48.5	-55.8	4.5	8.16e-01	0	44	0	4423942144	66	8802
2026-01-27 05:21:47.16	239.59	8.15	-48.1	-54.1	5.4	7.13e-01	0	44	0	4426039296	66	7264