passes_logs/2026/01/27/T1/T1__20260127_090129_SUOMI_NPP_rec.log

#Pass ID: 20260127_090129_SUOMI NPP
#Satellite: SUOMI NPP
#Configuration: NPP
#almurnet v.1.7.20251203
#Start time: 2026-01-27 09:01:30

#Version: 2.0.20230620
#Station: T1
#Location: 37.570604 lon 55.790049 lat
#TLE: 1 37849U 11061A   26026.87508736  .00000176  00000+0  10464-3 0  9991
#TLE: 2 37849  98.7822 328.8221 0002127  43.3055 316.8288 14.19530452738397

#Time	Az	El	Level	Level2	SNR	BER	BlckErr	Temp	State	Recorded	gain1	gain2
2026-01-27 09:01:30.59	129.42	5.05	-49.6	-64.8	3.8	1.49e+00	0	39	0	0	71	19918
2026-01-27 09:01:33.58	129.27	5.26	-49.6	-64.7	3.8	1.49e+00	0	40	104	0	71	19658
2026-01-27 09:01:36.57	129.11	5.46	-49.6	-64.8	3.8	1.49e+00	0	39	104	0	71	19852
2026-01-27 09:01:39.56	128.96	5.67	-49.6	-64.8	3.8	1.49e+00	0	40	104	0	71	19873
2026-01-27 09:01:42.56	128.80	5.88	-49.6	-64.7	3.8	1.49e+00	0	40	104	0	71	19774
2026-01-27 09:01:45.55	128.63	6.09	-49.6	-64.6	3.8	1.49e+00	0	40	104	0	71	19572
2026-01-27 09:01:48.55	128.47	6.30	-49.6	-64.6	3.8	1.49e+00	0	40	104	0	71	19553
2026-01-27 09:01:51.55	128.30	6.51	-49.6	-64.6	3.8	1.49e+00	0	40	104	0	71	19442
2026-01-27 09:01:54.54	128.13	6.73	-49.6	-64.6	3.8	1.49e+00	0	40	104	0	71	19391
2026-01-27 09:01:57.54	127.96	6.94	-49.6	-64.4	3.8	1.49e+00	0	40	104	0	71	18999
2026-01-27 09:02:00.53	127.79	7.16	-49.6	-64.2	3.8	1.49e+00	0	40	104	0	71	18604
2026-01-27 09:02:03.52	127.61	7.38	-49.6	-64.4	3.8	1.49e+00	0	40	104	0	71	19057
2026-01-27 09:02:06.52	127.43	7.60	-49.4	-61.9	4.0	1.49e+00	0	40	104	0	70	15136
2026-01-27 09:02:09.51	127.25	7.82	-48.2	-55.0	8.4	8.02e-02	0	40	0	4194304	68	7650
2026-01-27 09:02:12.51	127.06	8.04	-45.4	-48.8	14.6	9.90e-06	0	40	0	9437184	62	5336
2026-01-27 09:02:15.50	126.87	8.27	-44.2	-47.1	16.3	0.00e+00	0	41	0	14680064	60	4876
2026-01-27 09:02:18.49	126.68	8.50	-45.7	-49.4	14.0	7.00e-07	0	41	0	20971520	61	6046
2026-01-27 09:02:21.49	126.49	8.73	-47.8	-54.2	9.2	7.80e-03	0	41	0	26214400	66	7813
2026-01-27 09:02:24.48	126.29	8.96	-49.1	-59.0	5.2	4.93e-01	0	41	0	31457280	68	12119
2026-01-27 09:02:27.47	126.09	9.19	-49.2	-59.6	4.8	8.55e-01	0	41	0	35651584	69	12256
2026-01-27 09:02:30.47	125.88	9.42	-48.4	-55.7	8.1	7.84e-03	0	41	0	38797312	67	8818
2026-01-27 09:02:33.47	125.67	9.66	-47.6	-53.2	10.2	3.26e-03	0	41	0	42991616	66	6985
2026-01-27 09:02:36.46	125.46	9.90	-48.2	-55.4	8.1	5.36e-02	0	41	0	48234496	67	8472
2026-01-27 09:02:39.45	125.25	10.14	-46.7	-51.3	12.0	1.63e-03	0	41	0	53477376	65	5987
2026-01-27 09:02:42.45	125.03	10.38	-45.5	-49.0	14.6	3.00e-06	0	41	0	59768832	62	5411
2026-01-27 09:02:45.45	124.81	10.62	-45.5	-48.9	14.7	7.00e-07	0	41	0	65011712	62	5370
2026-01-27 09:02:48.45	124.58	10.87	-46.6	-51.0	12.5	6.86e-05	0	41	0	71303168	63	6477
2026-01-27 09:02:51.45	124.35	11.12	-46.1	-50.2	13.4	4.04e-05	0	41	0	76546048	64	5584
2026-01-27 09:02:54.44	124.11	11.37	-44.9	-47.9	15.7	0.00e+00	0	41	0	81788928	61	5092
2026-01-27 09:02:57.44	123.87	11.62	-44.6	-47.6	16.0	0.00e+00	0	41	0	88080384	60	5211
2026-01-27 09:03:00.43	123.63	11.88	-45.9	-49.7	14.1	2.20e-06	0	41	0	93323264	62	5872
2026-01-27 09:03:03.43	123.38	12.13	-44.4	-47.2	16.5	0.00e+00	0	41	0	98566144	60	4964
2026-01-27 09:03:06.43	123.13	12.39	-43.3	-45.7	17.8	0.00e+00	0	41	0	104857600	58	4690
2026-01-27 09:03:09.43	122.87	12.65	-44.6	-47.5	16.1	0.00e+00	0	41	0	110100480	59	5458
2026-01-27 09:03:12.42	122.61	12.92	-44.7	-47.7	16.0	0.00e+00	0	41	0	115343360	61	4961
2026-01-27 09:03:15.41	122.35	13.18	-43.2	-45.7	17.9	0.00e+00	0	41	0	121634816	58	4672
2026-01-27 09:03:18.40	122.07	13.45	-44.1	-46.9	16.8	0.00e+00	0	41	0	126877696	58	5357
2026-01-27 09:03:21.40	121.80	13.72	-45.1	-48.4	15.4	0.00e+00	0	41	0	132120576	61	5394
2026-01-27 09:03:24.39	121.52	13.99	-43.8	-46.4	17.3	0.00e+00	0	41	0	138412032	59	4766
2026-01-27 09:03:27.39	121.23	14.27	-44.1	-46.8	16.9	0.00e+00	0	41	0	143654912	58	5284
2026-01-27 09:03:30.39	120.94	14.55	-44.9	-48.0	15.8	0.00e+00	0	41	0	149946368	60	5459
2026-01-27 09:03:33.38	120.64	14.82	-44.0	-46.8	17.0	0.00e+00	0	41	0	155189248	60	4718
2026-01-27 09:03:36.38	120.33	15.11	-43.8	-46.4	17.4	0.00e+00	0	41	0	160432128	59	4770
2026-01-27 09:03:39.38	120.02	15.39	-44.0	-46.7	17.0	0.00e+00	0	41	0	166723584	59	4976
2026-01-27 09:03:42.38	119.71	15.68	-43.3	-45.7	18.0	0.00e+00	0	41	0	171966464	58	4700
2026-01-27 09:03:45.37	119.38	15.97	-43.6	-46.2	17.5	0.00e+00	0	41	0	177209344	58	4973
2026-01-27 09:03:48.37	119.06	16.26	-43.3	-45.8	17.9	0.00e+00	0	41	0	183500800	58	4710
2026-01-27 09:03:51.38	118.72	16.56	-42.8	-45.1	18.5	0.00e+00	0	41	0	188743680	57	4629
2026-01-27 09:03:54.38	118.38	16.85	-43.9	-46.6	17.2	0.00e+00	0	41	0	193986560	58	5191
2026-01-27 09:03:57.37	118.03	17.15	-43.6	-46.2	17.5	0.00e+00	0	41	0	200278016	58	4946
2026-01-27 09:04:00.37	117.67	17.46	-43.7	-46.3	17.5	0.00e+00	0	41	0	205520896	58	5020
2026-01-27 09:04:03.37	117.31	17.76	-44.2	-47.0	16.8	0.00e+00	0	41	0	210763776	59	5126
2026-01-27 09:04:06.35	116.94	18.07	-43.3	-45.8	17.9	0.00e+00	0	41	0	217055232	58	4723
2026-01-27 09:04:09.35	116.56	18.38	-43.8	-46.5	17.3	0.00e+00	0	41	0	222298112	58	5107
2026-01-27 09:04:12.34	116.17	18.69	-43.6	-46.2	17.6	0.00e+00	0	41	0	228589568	58	4932
2026-01-27 09:04:15.33	115.78	19.01	-44.1	-46.9	16.9	0.00e+00	0	41	0	233832448	58	5368
2026-01-27 09:04:18.33	115.37	19.32	-44.4	-47.2	16.6	0.00e+00	0	41	0	239075328	59	5269
2026-01-27 09:04:21.33	114.96	19.65	-44.1	-46.8	17.0	0.00e+00	0	41	0	245366784	59	5034
2026-01-27 09:04:24.33	114.54	19.97	-44.9	-48.0	15.9	0.00e+00	0	41	0	250609664	61	5124
2026-01-27 09:04:27.33	114.10	20.29	-43.6	-46.1	17.6	0.00e+00	0	41	0	255852544	59	4642
2026-01-27 09:04:30.31	113.67	20.62	-44.6	-47.6	16.4	0.00e+00	0	41	0	262144000	60	5185
2026-01-27 09:04:33.26	113.22	20.95	-44.2	-46.9	16.9	0.00e+00	0	41	0	267386880	60	4800
2026-01-27 09:04:36.24	112.77	21.28	-44.0	-46.8	17.1	0.00e+00	0	41	0	272629760	59	4998
2026-01-27 09:04:39.21	112.30	21.61	-44.1	-46.9	16.9	0.00e+00	0	41	0	278921216	59	5088
2026-01-27 09:04:42.18	111.83	21.95	-43.7	-46.4	17.4	0.00e+00	0	41	0	284164096	59	4760
2026-01-27 09:04:45.17	111.34	22.28	-43.5	-46.1	17.7	0.00e+00	0	41	0	289406976	58	4878
2026-01-27 09:04:48.16	110.84	22.63	-43.8	-46.4	17.4	0.00e+00	0	41	0	295698432	59	4770
2026-01-27 09:04:51.16	110.32	22.97	-43.6	-46.1	17.7	0.00e+00	0	41	0	300941312	58	4887
2026-01-27 09:04:54.15	109.80	23.32	-44.4	-47.2	16.6	0.00e+00	0	41	0	306184192	59	5262
2026-01-27 09:04:57.14	109.27	23.67	-44.2	-46.9	17.0	0.00e+00	0	41	0	312475648	59	5081
2026-01-27 09:05:00.13	108.72	24.02	-45.0	-48.0	15.9	0.00e+00	0	41	0	317718528	60	5463
2026-01-27 09:05:03.12	108.16	24.37	-44.8	-47.8	16.1	0.00e+00	0	41	0	322961408	61	5010
2026-01-27 09:05:06.11	107.59	24.72	-45.7	-49.1	14.7	0.00e+00	0	41	0	329252864	62	5524
2026-01-27 09:05:09.10	107.00	25.08	-45.0	-48.1	15.9	0.00e+00	0	41	0	334495744	61	5198
2026-01-27 09:05:12.09	106.40	25.43	-45.3	-48.6	15.4	0.00e+00	0	41	0	339738624	61	5486
2026-01-27 09:05:15.08	105.79	25.79	-45.1	-48.3	15.7	0.00e+00	0	41	0	346030080	61	5303
2026-01-27 09:05:18.07	105.16	26.15	-44.9	-47.9	16.1	0.00e+00	0	41	0	351272960	61	5056
2026-01-27 09:05:21.06	104.52	26.51	-44.8	-47.8	16.2	0.00e+00	0	41	0	356515840	61	5005
2026-01-27 09:05:24.05	103.87	26.87	-44.6	-47.6	16.4	0.00e+00	0	41	0	362807296	60	5161
2026-01-27 09:05:27.04	103.19	27.23	-44.6	-47.5	16.4	0.00e+00	0	41	0	368050176	60	5154
2026-01-27 09:05:30.03	102.51	27.59	-44.6	-47.6	16.4	0.00e+00	0	41	0	373293056	60	5176
2026-01-27 09:05:33.02	101.81	27.95	-44.5	-47.3	16.6	0.00e+00	0	41	0	379584512	60	5020
2026-01-27 09:05:36.01	101.09	28.31	-44.6	-47.5	16.5	0.00e+00	0	41	0	384827392	60	5117
2026-01-27 09:05:39.00	100.35	28.67	-45.2	-48.5	15.5	0.00e+00	0	41	0	390070272	61	5429
2026-01-27 09:05:41.99	99.60	29.03	-44.8	-47.8	16.1	0.00e+00	0	41	0	396361728	61	5022
2026-01-27 09:05:44.98	98.83	29.39	-45.2	-48.3	15.7	0.00e+00	0	41	0	401604608	61	5317
2026-01-27 09:05:47.98	98.04	29.75	-44.6	-47.4	16.5	0.00e+00	0	41	0	406847488	60	5092
2026-01-27 09:05:50.97	97.24	30.11	-45.2	-48.4	15.7	0.00e+00	0	41	0	413138944	60	5658
2026-01-27 09:05:53.96	96.42	30.46	-45.1	-48.2	15.8	0.00e+00	0	41	0	418381824	61	5237
2026-01-27 09:05:56.95	95.58	30.81	-45.7	-49.0	15.0	0.00e+00	0	41	0	424673280	62	5461
2026-01-27 09:05:59.95	94.71	31.16	-46.5	-50.5	13.5	4.50e-06	0	41	0	429916160	63	6092
2026-01-27 09:06:02.94	93.84	31.50	-46.0	-49.6	14.4	6.80e-06	0	41	0	435159040	63	5498
2026-01-27 09:06:05.93	92.94	31.84	-45.8	-49.3	14.8	0.00e+00	0	41	0	441450496	63	5295
2026-01-27 09:06:08.93	92.02	32.18	-46.2	-50.0	14.0	0.00e+00	0	41	0	446693376	63	5765
2026-01-27 09:06:11.92	91.09	32.51	-47.2	-52.0	12.0	4.76e-04	0	41	0	451936256	65	6464
2026-01-27 09:06:14.92	90.13	32.84	-46.5	-50.4	13.6	1.98e-05	0	41	0	458227712	64	5690
2026-01-27 09:06:17.91	89.16	33.16	-45.4	-49.4	14.4	1.50e-06	0	41	0	463470592	62	5668
2026-01-27 09:06:20.89	88.17	33.48	-46.0	-50.6	13.4	2.82e-05	0	41	0	468713472	63	6190
2026-01-27 09:06:23.88	87.16	33.79	-46.1	-50.9	13.0	2.55e-04	0	41	0	475004928	63	6366
2026-01-27 09:06:26.88	86.12	34.09	-46.1	-51.0	12.9	2.36e-05	0	41	0	480247808	63	6431
2026-01-27 09:06:29.87	85.07	34.38	-46.1	-50.9	12.9	3.96e-05	0	41	0	485490688	63	6401
2026-01-27 09:06:32.87	84.00	34.66	-45.6	-49.9	14.0	6.10e-06	0	41	0	491782144	63	5664
2026-01-27 09:06:35.86	82.92	34.94	-44.7	-48.4	15.3	0.00e+00	0	41	0	497025024	61	5386
2026-01-27 09:06:38.86	81.81	35.21	-44.7	-48.3	15.3	0.00e+00	0	41	0	503316480	61	5340
2026-01-27 09:06:41.85	80.68	35.46	-44.6	-48.2	15.5	0.00e+00	0	41	0	508559360	61	5245
2026-01-27 09:06:44.84	79.54	35.71	-44.9	-48.8	15.2	0.00e+00	0	41	0	513802240	60	5945
2026-01-27 09:06:47.83	78.39	35.94	-44.1	-47.2	16.5	0.00e+00	0	41	0	520093696	59	5266
2026-01-27 09:06:50.81	77.22	36.16	-42.8	-45.5	18.0	0.00e+00	0	41	0	525336576	57	4838
2026-01-27 09:06:53.81	76.03	36.37	-43.1	-45.9	17.7	0.00e+00	0	41	0	530579456	57	5084
2026-01-27 09:06:56.80	74.82	36.57	-43.3	-46.1	17.5	0.00e+00	0	41	0	536870912	57	5198
2026-01-27 09:06:59.79	73.60	36.75	-42.2	-44.6	19.0	0.00e+00	0	41	0	542113792	56	4606
2026-01-27 09:07:02.78	72.37	36.92	-42.0	-44.4	19.0	0.00e+00	0	41	0	547356672	55	4771
2026-01-27 09:07:05.77	71.13	37.07	-42.5	-45.0	18.5	0.00e+00	0	41	0	553648128	55	5127
2026-01-27 09:07:08.76	69.88	37.21	-43.8	-46.7	17.2	0.00e+00	0	41	0	558891008	58	5246
2026-01-27 09:07:11.75	68.61	37.34	-42.8	-45.2	18.4	0.00e+00	0	41	0	564133888	57	4700
2026-01-27 09:07:14.75	67.33	37.44	-42.1	-44.4	19.2	0.00e+00	0	41	0	570425344	56	4519
2026-01-27 09:07:17.74	66.05	37.54	-42.8	-45.3	18.5	0.00e+00	0	41	0	575668224	56	4994
2026-01-27 09:07:20.72	64.77	37.61	-43.7	-46.3	17.5	0.00e+00	0	41	0	580911104	57	5340
2026-01-27 09:07:23.72	63.47	37.67	-44.0	-46.9	16.9	0.00e+00	0	41	0	587202560	58	5373
2026-01-27 09:07:26.71	62.18	37.72	-45.0	-48.4	15.5	0.00e+00	0	41	0	592445440	60	5703
2026-01-27 09:07:29.70	60.88	37.74	-44.5	-47.7	16.3	0.00e+00	0	41	0	597688320	60	5236
2026-01-27 09:07:32.68	59.58	37.75	-44.5	-47.7	16.2	0.00e+00	0	41	0	603979776	60	5226
2026-01-27 09:07:35.68	58.27	37.75	-44.2	-47.2	16.7	0.00e+00	0	41	0	609222656	60	4945
2026-01-27 09:07:38.67	56.97	37.72	-44.2	-47.3	16.6	0.00e+00	0	41	0	614465536	60	4986
2026-01-27 09:07:41.66	55.68	37.68	-44.7	-48.1	15.7	0.00e+00	0	41	0	620756992	60	5511
2026-01-27 09:07:44.65	54.38	37.62	-45.9	-50.2	13.8	1.14e-05	0	41	0	625999872	63	5856
2026-01-27 09:07:47.64	53.10	37.55	-45.2	-49.1	14.8	0.00e+00	0	41	0	632291328	61	5798
2026-01-27 09:07:50.63	51.81	37.46	-45.2	-49.1	14.7	7.00e-07	0	41	0	637534208	61	5826
2026-01-27 09:07:53.63	50.54	37.35	-45.2	-49.1	14.7	0.00e+00	0	41	0	642777088	61	5801
2026-01-27 09:07:56.63	49.27	37.23	-44.7	-48.4	15.3	0.00e+00	0	41	0	649068544	61	5348
2026-01-27 09:07:59.62	48.01	37.10	-45.3	-49.4	14.3	0.00e+00	0	41	0	654311424	61	6057
2026-01-27 09:08:02.61	46.77	36.94	-46.5	-52.2	11.5	1.68e-04	0	41	0	659554304	63	7419
2026-01-27 09:08:05.60	45.54	36.78	-45.0	-49.0	14.8	7.60e-06	0	41	0	665845760	62	5406
2026-01-27 09:08:08.59	44.32	36.60	-43.9	-47.1	16.4	0.00e+00	0	41	0	671088640	59	5187
2026-01-27 09:08:11.59	43.12	36.40	-44.8	-48.6	15.2	0.00e+00	0	41	0	676331520	60	5814
2026-01-27 09:08:14.57	41.93	36.20	-42.9	-45.5	18.2	0.00e+00	0	41	0	682622976	57	4823
2026-01-27 09:08:17.57	40.75	35.98	-42.9	-45.5	18.2	0.00e+00	0	41	0	687865856	56	5113
2026-01-27 09:08:20.56	39.60	35.75	-43.2	-46.1	17.6	0.00e+00	0	41	0	693108736	57	5172
2026-01-27 09:08:23.55	38.46	35.51	-44.3	-47.6	16.1	0.00e+00	0	41	0	699400192	59	5494
2026-01-27 09:08:26.55	37.33	35.25	-43.6	-46.5	17.3	0.00e+00	0	41	0	704643072	58	5107
2026-01-27 09:08:29.54	36.23	34.99	-44.4	-47.7	16.1	0.00e+00	0	41	0	709885952	59	5562
2026-01-27 09:08:32.53	35.14	34.72	-44.7	-48.1	15.7	0.00e+00	0	41	0	716177408	60	5493
2026-01-27 09:08:35.52	34.07	34.43	-43.9	-46.9	16.9	0.00e+00	0	41	0	721420288	59	5043
2026-01-27 09:08:38.51	33.02	34.14	-43.6	-46.4	17.4	0.00e+00	0	41	0	726663168	59	4775
2026-01-27 09:08:41.50	31.99	33.85	-44.6	-47.9	16.0	0.00e+00	0	41	0	732954624	60	5352
2026-01-27 09:08:44.50	30.98	33.54	-43.3	-45.9	17.8	0.00e+00	0	41	0	738197504	58	4789
2026-01-27 09:08:47.49	29.99	33.23	-44.4	-47.5	16.1	0.00e+00	0	41	0	744488960	59	5457
2026-01-27 09:08:50.48	29.01	32.91	-44.5	-47.7	16.1	0.00e+00	0	41	0	749731840	59	5555
2026-01-27 09:08:53.47	28.06	32.58	-44.2	-47.2	16.6	0.00e+00	0	41	0	754974720	59	5231
2026-01-27 09:08:56.46	27.13	32.25	-45.2	-48.8	15.1	0.00e+00	0	41	0	761266176	61	5641
2026-01-27 09:08:59.46	26.21	31.92	-45.7	-49.8	14.2	0.00e+00	0	41	0	766509056	62	5956
2026-01-27 09:09:02.44	25.31	31.58	-45.6	-49.5	14.4	3.00e-06	0	41	0	771751936	63	5445
2026-01-27 09:09:05.43	24.44	31.24	-45.6	-49.3	14.6	0.00e+00	0	41	0	778043392	62	5612
2026-01-27 09:09:08.42	23.58	30.89	-44.9	-48.1	15.8	0.00e+00	0	41	0	783286272	61	5180
2026-01-27 09:09:11.42	22.74	30.54	-43.7	-46.4	17.4	0.00e+00	0	41	0	788529152	59	4769
2026-01-27 09:09:14.42	21.91	30.19	-43.3	-45.9	17.9	0.00e+00	0	41	0	794820608	58	4787
2026-01-27 09:09:17.41	21.11	29.83	-43.8	-46.6	17.2	0.00e+00	0	41	0	800063488	58	5193
2026-01-27 09:09:20.41	20.32	29.48	-45.0	-48.3	15.6	0.00e+00	0	41	0	805306368	61	5319
2026-01-27 09:09:23.41	19.55	29.12	-45.5	-49.3	14.7	0.00e+00	0	41	0	811597824	62	5611
2026-01-27 09:09:26.39	18.80	28.76	-44.4	-47.7	16.2	0.00e+00	0	41	0	816840704	60	5231
2026-01-27 09:09:29.39	18.06	28.40	-44.3	-47.5	16.4	0.00e+00	0	41	0	822083584	60	5153
2026-01-27 09:09:32.38	17.35	28.04	-43.5	-46.3	17.5	0.00e+00	0	41	0	828375040	59	4735
2026-01-27 09:09:35.37	16.64	27.68	-43.7	-46.5	17.3	0.00e+00	0	41	0	833617920	58	5146
2026-01-27 09:09:38.37	15.96	27.32	-43.0	-45.6	18.1	0.00e+00	0	41	0	838860800	57	4882
2026-01-27 09:09:41.36	15.29	26.97	-44.3	-47.3	16.6	0.00e+00	0	41	0	845152256	59	5310
2026-01-27 09:09:44.35	14.63	26.61	-44.7	-48.1	15.9	0.00e+00	0	41	0	850395136	60	5472
2026-01-27 09:09:47.34	13.99	26.25	-44.1	-47.2	16.7	0.00e+00	0	41	0	856686592	60	4952
2026-01-27 09:09:50.33	13.36	25.89	-43.7	-46.4	17.4	0.00e+00	0	41	0	861929472	58	5082
2026-01-27 09:09:53.33	12.75	25.53	-43.4	-46.1	17.7	0.00e+00	0	41	0	867172352	58	4913
2026-01-27 09:09:56.31	12.15	25.18	-43.8	-46.7	17.2	0.00e+00	0	41	0	873463808	58	5231
2026-01-27 09:09:59.31	11.57	24.83	-44.1	-47.0	16.9	0.00e+00	0	41	0	878706688	59	5130
2026-01-27 09:10:02.29	11.00	24.48	-44.6	-47.7	16.2	0.00e+00	0	41	0	883949568	59	5583
2026-01-27 09:10:05.28	10.44	24.13	-44.7	-47.9	16.0	0.00e+00	0	41	0	890241024	60	5370
2026-01-27 09:10:08.27	9.89	23.78	-44.6	-47.8	16.2	0.00e+00	0	41	0	895483904	60	5292
2026-01-27 09:10:11.27	9.36	23.43	-45.0	-48.4	15.6	0.00e+00	0	41	0	900726784	60	5687
2026-01-27 09:10:14.25	8.84	23.09	-44.7	-48.1	15.9	0.00e+00	0	41	0	907018240	61	5183
2026-01-27 09:10:17.24	8.33	22.74	-43.6	-46.4	17.4	0.00e+00	0	41	0	912261120	59	4803
2026-01-27 09:10:20.23	7.83	22.40	-43.8	-46.6	17.3	0.00e+00	0	41	0	917504000	58	5161
2026-01-27 09:10:23.23	7.34	22.06	-44.1	-47.1	16.8	0.00e+00	0	41	0	923795456	58	5480
2026-01-27 09:10:26.22	6.86	21.73	-43.6	-46.4	17.5	0.00e+00	0	41	0	929038336	58	5085
2026-01-27 09:10:29.21	6.40	21.39	-43.7	-46.4	17.4	0.00e+00	0	41	0	934281216	58	5093
2026-01-27 09:10:32.20	5.94	21.06	-44.3	-47.6	16.3	0.00e+00	0	41	0	940572672	59	5502
2026-01-27 09:10:35.19	5.49	20.73	-45.3	-49.6	14.3	7.00e-07	0	41	0	945815552	61	6185
2026-01-27 09:10:38.18	5.05	20.41	-45.4	-49.5	14.5	1.50e-06	0	41	0	951058432	61	6065
2026-01-27 09:10:41.17	4.63	20.08	-45.1	-48.7	15.2	0.00e+00	0	41	0	957349888	61	5536
2026-01-27 09:10:44.16	4.21	19.76	-44.2	-47.4	16.5	0.00e+00	0	41	0	962592768	60	5094
2026-01-27 09:10:47.15	3.80	19.44	-44.2	-47.5	16.4	0.00e+00	0	41	0	967835648	60	5111
2026-01-27 09:10:50.14	3.40	19.13	-44.7	-48.0	15.9	0.00e+00	0	41	0	974127104	60	5458
2026-01-27 09:10:53.13	3.00	18.81	-44.5	-47.7	16.1	0.00e+00	0	40	0	979369984	60	5262
2026-01-27 09:10:56.12	2.62	18.50	-43.7	-46.6	17.1	0.00e+00	0	41	0	984612864	59	4908
2026-01-27 09:10:59.11	2.24	18.20	-43.3	-46.1	17.6	0.00e+00	0	41	0	990904320	58	4891
2026-01-27 09:11:02.11	1.87	17.89	-43.9	-46.7	17.1	0.00e+00	0	41	0	996147200	58	5270
2026-01-27 09:11:05.10	1.51	17.58	-44.3	-47.5	16.3	0.00e+00	0	41	0	1002438656	59	5408
2026-01-27 09:11:08.09	1.16	17.28	-44.1	-47.3	16.4	0.00e+00	0	41	0	1007681536	59	5314
2026-01-27 09:11:11.08	0.81	16.99	-43.9	-47.0	16.8	0.00e+00	0	41	0	1012924416	59	5114
2026-01-27 09:11:14.08	0.47	16.69	-44.3	-47.4	16.4	0.00e+00	0	41	0	1019215872	59	5359
2026-01-27 09:11:17.07	0.14	16.40	-44.1	-47.4	16.3	0.00e+00	0	41	0	1024458752	59	5383
2026-01-27 09:11:20.06	359.81	16.11	-44.2	-47.6	16.1	0.00e+00	0	41	0	1029701632	59	5491
2026-01-27 09:11:23.05	359.49	15.82	-44.6	-47.8	15.9	0.00e+00	0	41	0	1035993088	59	5634
2026-01-27 09:11:26.05	359.18	15.53	-45.1	-48.6	15.2	0.00e+00	0	41	0	1041235968	60	5851
2026-01-27 09:11:29.04	358.87	15.25	-45.1	-48.7	15.1	0.00e+00	0	41	0	1046478848	61	5539
2026-01-27 09:11:32.03	358.57	14.97	-44.5	-47.9	15.8	0.00e+00	0	41	0	1052770304	61	5089
2026-01-27 09:11:35.01	358.27	14.69	-44.0	-47.1	16.5	0.00e+00	0	40	0	1058013184	60	4875
2026-01-27 09:11:38.00	357.98	14.41	-43.7	-46.5	16.9	0.00e+00	0	41	0	1063256064	59	4866
2026-01-27 09:11:41.00	357.70	14.14	-43.6	-46.5	17.0	0.00e+00	0	40	0	1069547520	58	5151
2026-01-27 09:11:43.99	357.42	13.87	-44.0	-47.1	16.5	0.00e+00	0	41	0	1074790400	58	5505
2026-01-27 09:11:46.98	357.14	13.60	-44.2	-47.3	16.0	0.00e+00	0	41	0	1080033280	59	5289
2026-01-27 09:11:49.97	356.87	13.33	-44.1	-47.3	14.9	0.00e+00	0	41	0	1086324736	59	5288
2026-01-27 09:11:52.97	356.61	13.07	-44.1	-47.4	13.7	0.00e+00	0	41	0	1091567616	59	5358
2026-01-27 09:11:55.96	356.35	12.80	-44.5	-47.9	13.4	4.50e-06	0	41	0	1097859072	59	5715
2026-01-27 09:11:58.96	356.09	12.54	-44.5	-48.4	15.2	0.00e+00	0	40	0	1103101952	59	6016
2026-01-27 09:12:01.95	355.85	12.29	-44.6	-48.8	14.7	0.00e+00	0	40	0	1108344832	59	6296
2026-01-27 09:12:04.94	355.60	12.03	-44.7	-49.0	14.0	0.00e+00	0	41	0	1114636288	60	6080
2026-01-27 09:12:07.93	355.36	11.78	-44.8	-48.9	13.6	2.20e-06	0	41	0	1119879168	60	6042
2026-01-27 09:12:10.92	355.12	11.52	-44.7	-48.7	13.5	1.44e-05	0	41	0	1125122048	60	5896
2026-01-27 09:12:13.91	354.89	11.28	-44.8	-49.1	13.5	5.30e-06	0	41	0	1131413504	60	6171
2026-01-27 09:12:16.90	354.66	11.03	-44.4	-49.8	13.6	6.10e-06	0	41	0	1136656384	60	6658
2026-01-27 09:12:19.89	354.44	10.78	-44.2	-49.7	13.6	4.50e-06	0	41	0	1141899264	59	7001
2026-01-27 09:12:22.88	354.22	10.54	-44.4	-50.0	13.3	1.29e-05	0	41	0	1148190720	59	7222
2026-01-27 09:12:25.87	354.00	10.30	-44.7	-49.7	13.9	1.50e-06	0	41	0	1153433600	60	6589
2026-01-27 09:12:28.86	353.79	10.06	-44.5	-49.1	14.5	7.00e-07	0	40	0	1158676480	60	6163
2026-01-27 09:12:31.84	353.58	9.82	-43.6	-49.0	14.5	0.00e+00	0	41	0	1164967936	59	6434
2026-01-27 09:12:34.83	353.38	9.59	-43.2	-48.5	15.0	0.00e+00	0	41	0	1170210816	58	6470
2026-01-27 09:12:37.83	353.17	9.35	-43.4	-48.7	14.8	0.00e+00	0	41	0	1175453696	58	6580
2026-01-27 09:12:40.82	352.97	9.12	-43.8	-48.5	15.0	0.00e+00	0	41	0	1181745152	58	6444
2026-01-27 09:12:43.82	352.78	8.89	-48.2	-64.7	3.8	1.49e+00	0	41	104	1185939456	67	24972
2026-01-27 09:12:46.81	352.59	8.66	-50.0	-65.3	3.8	1.49e+00	0	41	104	1185939456	70	22369
2026-01-27 09:12:49.81	352.40	8.43	-49.9	-65.5	3.8	1.49e+00	0	41	104	1185939456	71	21537
2026-01-27 09:12:52.80	352.21	8.21	-49.9	-65.5	3.8	1.49e+00	0	41	104	1185939456	71	21754
2026-01-27 09:12:55.79	352.03	7.99	-50.3	-65.6	3.8	1.49e+00	0	41	104	1185939456	71	21901
2026-01-27 09:12:58.79	351.85	7.76	-50.4	-65.6	3.8	1.49e+00	0	41	104	1185939456	71	21946
2026-01-27 09:13:01.78	351.67	7.54	-50.2	-65.6	3.8	1.49e+00	0	40	104	1185939456	71	21891
2026-01-27 09:13:04.77	351.50	7.33	-50.3	-65.6	3.8	1.49e+00	0	41	104	1185939456	71	21903
2026-01-27 09:13:07.76	351.32	7.11	-50.4	-65.6	3.8	1.49e+00	0	41	104	1185939456	71	21847
2026-01-27 09:13:10.75	351.16	6.89	-50.3	-65.6	3.8	1.49e+00	0	41	104	1185939456	71	21842
2026-01-27 09:13:13.75	350.99	6.68	-50.1	-65.6	3.8	1.49e+00	0	41	104	1185939456	71	21775
2026-01-27 09:13:16.74	350.83	6.47	-50.1	-65.6	3.8	1.49e+00	0	40	104	1185939456	71	21825
2026-01-27 09:13:19.74	350.66	6.26	-50.1	-65.6	3.8	1.49e+00	0	40	104	1185939456	71	21762
2026-01-27 09:13:22.72	350.51	6.05	-50.1	-65.5	3.8	1.49e+00	0	41	104	1185939456	71	21710
2026-01-27 09:13:25.71	350.35	5.84	-50.1	-65.5	3.8	1.49e+00	0	40	104	1185939456	71	21729
2026-01-27 09:13:28.70	350.20	5.63	-50.1	-65.5	3.8	1.49e+00	0	41	104	1185939456	71	21667
2026-01-27 09:13:31.70	350.04	5.43	-50.1	-65.5	3.8	1.49e+00	0	40	104	1185939456	71	21673
2026-01-27 09:13:34.69	349.89	5.23	-50.1	-65.5	3.8	1.49e+00	0	41	104	1185939456	71	21717
2026-01-27 09:13:37.68	349.75	5.02	-50.1	-65.5	3.8	1.49e+00	0	41	104	1185939456	71	21597

#Closed at: 2026-01-27 09:13:39
#Recorded file [1185 MB]: D:/Data/31040_260127_120130.dat