passes_logs/2026/01/27/T1/T1__20260127_100017_FENGYUN_3D_rec.log

#Pass ID: 20260127_100017_FENGYUN 3D
#Satellite: FENGYUN 3D
#Configuration: FENGYUN 3D
#almurnet v.1.7.20251203
#Start time: 2026-01-27 10:00:19

#Version: 2.0.20230620
#Station: T1
#Location: 37.570604 lon 55.790049 lat
#TLE: 1 43010U 17072A   26026.91415486  .00000072  00000+0  55983-4 0  9991
#TLE: 2 43010  98.9962 358.9161 0002508  89.0320 271.1142 14.19700283424949

#Time	Az	El	Level	Level2	SNR	BER	BlckErr	Temp	State	Recorded	gain1	gain2
2026-01-27 10:00:19.05	96.25	5.11	-50.3	-62.5	3.8	8.47e-01	0	39	0	0	71	15275
2026-01-27 10:00:22.04	95.95	5.28	-50.0	-62.5	3.8	8.47e-01	0	39	104	0	72	14531
2026-01-27 10:00:25.03	95.66	5.44	-50.2	-62.5	3.8	8.48e-01	0	39	104	0	72	14471
2026-01-27 10:00:28.01	95.36	5.61	-50.2	-62.5	3.8	8.46e-01	0	39	104	0	72	14395
2026-01-27 10:00:31.00	95.05	5.78	-50.0	-62.4	3.8	8.48e-01	0	39	104	0	72	14271
2026-01-27 10:00:33.98	94.75	5.94	-49.8	-62.3	3.8	8.46e-01	0	39	104	0	71	14901
2026-01-27 10:00:36.97	94.44	6.11	-49.6	-61.8	3.8	8.47e-01	0	40	104	0	71	14077
2026-01-27 10:00:39.95	94.12	6.28	-49.6	-61.8	3.8	8.47e-01	0	40	104	0	71	14053
2026-01-27 10:00:42.94	93.80	6.45	-49.6	-61.7	3.8	8.46e-01	0	40	104	0	71	14017
2026-01-27 10:00:45.92	93.48	6.61	-49.5	-61.5	3.8	8.47e-01	0	40	104	0	71	13657
2026-01-27 10:00:48.91	93.16	6.78	-49.5	-61.3	3.8	8.46e-01	0	40	104	0	71	13352
2026-01-27 10:00:51.89	92.83	6.95	-49.5	-61.3	3.8	8.47e-01	0	40	104	0	71	13380
2026-01-27 10:00:54.87	92.50	7.12	-49.5	-61.4	3.8	8.46e-01	0	40	104	0	71	13542
2026-01-27 10:00:57.86	92.16	7.29	-49.4	-60.8	3.8	8.48e-01	0	40	104	0	70	13378
2026-01-27 10:01:00.84	91.82	7.46	-49.3	-60.0	3.8	8.46e-01	0	40	104	0	70	12108
2026-01-27 10:01:03.82	91.48	7.62	-49.3	-60.0	3.8	8.46e-01	0	40	104	0	70	12098
2026-01-27 10:01:06.81	91.13	7.79	-49.4	-60.4	3.8	8.46e-01	0	40	104	0	70	12714
2026-01-27 10:01:09.79	90.77	7.96	-49.3	-59.8	3.8	8.47e-01	0	40	104	0	70	11867
2026-01-27 10:01:12.78	90.41	8.13	-49.2	-58.9	3.9	8.41e-01	0	40	104	0	70	10699
2026-01-27 10:01:15.76	90.05	8.30	-48.7	-56.3	4.9	8.08e-01	0	40	0	0	69	8396
2026-01-27 10:01:18.75	89.69	8.47	-44.3	-47.3	13.1	9.04e-05	0	41	0	14680064	60	5030
2026-01-27 10:01:21.73	89.32	8.64	-40.9	-43.1	17.0	0.00e+00	0	41	0	31457280	53	4620
2026-01-27 10:01:24.72	88.94	8.81	-41.9	-44.3	16.0	0.00e+00	0	40	0	48234496	54	4994
2026-01-27 10:01:27.70	88.56	8.98	-46.5	-50.8	9.6	3.41e-03	0	41	0	65011712	63	6281
2026-01-27 10:01:30.70	88.18	9.15	-45.1	-48.5	12.0	5.14e-05	0	41	0	79691776	60	5766
2026-01-27 10:01:33.69	87.79	9.32	-48.7	-55.1	5.8	1.05e-02	0	41	0	87031808	67	8206
2026-01-27 10:01:36.69	87.39	9.49	-41.5	-43.8	16.5	0.00e+00	0	41	0	99614720	54	4710
2026-01-27 10:01:39.70	86.99	9.66	-40.3	-42.4	17.8	0.00e+00	0	41	0	116391936	52	4512
2026-01-27 10:01:42.70	86.59	9.83	-40.2	-42.3	17.8	0.00e+00	0	41	0	133169152	52	4491
2026-01-27 10:01:45.69	86.18	10.00	-40.1	-42.2	18.0	0.00e+00	0	41	0	150994944	52	4414
2026-01-27 10:01:48.69	85.77	10.17	-40.0	-42.1	18.1	0.00e+00	0	41	0	167772160	51	4628
2026-01-27 10:01:51.69	85.35	10.34	-39.9	-42.0	18.2	0.00e+00	0	41	0	184549376	51	4578
2026-01-27 10:01:54.70	84.92	10.50	-39.7	-41.8	18.4	0.00e+00	0	41	0	201326592	51	4477
2026-01-27 10:01:57.70	84.49	10.67	-39.7	-41.8	18.4	0.00e+00	0	41	0	218103808	51	4476
2026-01-27 10:02:00.70	84.06	10.84	-39.8	-41.8	18.4	0.00e+00	0	41	0	234881024	51	4482
2026-01-27 10:02:03.71	83.62	11.01	-39.6	-41.6	18.6	0.00e+00	0	41	0	251658240	51	4361
2026-01-27 10:02:06.71	83.18	11.18	-39.6	-41.6	18.6	0.00e+00	0	41	0	268435456	51	4389
2026-01-27 10:02:09.71	82.73	11.34	-39.5	-41.4	18.8	0.00e+00	0	41	0	286261248	50	4544
2026-01-27 10:02:12.71	82.27	11.51	-39.4	-41.4	18.8	0.00e+00	0	41	0	303038464	50	4540
2026-01-27 10:02:15.71	81.81	11.67	-39.3	-41.3	18.9	0.00e+00	0	41	0	319815680	50	4487
2026-01-27 10:02:18.71	81.35	11.84	-39.4	-41.4	18.9	0.00e+00	0	41	0	336592896	50	4499
2026-01-27 10:02:21.71	80.88	12.00	-39.2	-41.2	19.0	0.00e+00	0	41	0	353370112	50	4403
2026-01-27 10:02:24.71	80.40	12.16	-39.0	-41.0	19.2	0.00e+00	0	41	0	370147328	50	4314
2026-01-27 10:02:27.71	79.92	12.32	-38.8	-40.8	19.4	0.00e+00	0	41	0	386924544	49	4461
2026-01-27 10:02:30.72	79.44	12.49	-38.8	-40.8	19.4	0.00e+00	0	41	0	403701760	49	4464
2026-01-27 10:02:33.72	78.94	12.65	-38.8	-40.7	19.5	0.00e+00	0	41	0	420478976	49	4426
2026-01-27 10:02:36.72	78.45	12.80	-38.9	-40.8	19.4	0.00e+00	0	41	0	437256192	49	4491
2026-01-27 10:02:39.73	77.94	12.96	-38.9	-40.8	19.4	0.00e+00	0	41	0	454033408	49	4479
2026-01-27 10:02:42.73	77.44	13.12	-38.7	-40.7	19.5	0.00e+00	0	41	0	471859200	49	4406
2026-01-27 10:02:45.73	76.92	13.27	-38.7	-40.6	19.6	0.00e+00	0	41	0	488636416	49	4370
2026-01-27 10:02:48.73	76.41	13.43	-38.8	-40.7	19.5	0.00e+00	0	41	0	505413632	49	4437
2026-01-27 10:02:51.72	75.88	13.58	-39.0	-40.9	19.3	0.00e+00	0	41	0	522190848	49	4538
2026-01-27 10:02:54.72	75.35	13.73	-38.8	-40.8	19.4	0.00e+00	0	41	0	538968064	49	4466
2026-01-27 10:02:57.73	74.82	13.88	-38.7	-40.6	19.6	0.00e+00	0	41	0	555745280	49	4367
2026-01-27 10:03:00.73	74.28	14.03	-38.7	-40.6	19.6	0.00e+00	0	41	0	572522496	49	4359
2026-01-27 10:03:03.73	73.73	14.18	-38.8	-40.7	19.5	0.00e+00	0	41	0	589299712	49	4416
2026-01-27 10:03:06.73	73.18	14.32	-39.0	-40.9	19.4	0.00e+00	0	41	0	606076928	49	4521
2026-01-27 10:03:09.74	72.62	14.46	-38.8	-40.8	19.5	0.00e+00	0	41	0	622854144	49	4450
2026-01-27 10:03:12.74	72.06	14.61	-38.5	-40.4	19.8	0.00e+00	0	41	0	639631360	48	4496
2026-01-27 10:03:15.74	71.49	14.74	-38.4	-40.3	19.9	0.00e+00	0	41	0	657457152	48	4471
2026-01-27 10:03:18.74	70.92	14.88	-38.3	-40.2	20.0	0.00e+00	0	41	0	674234368	48	4433
2026-01-27 10:03:21.75	70.34	15.02	-38.3	-40.1	20.0	0.00e+00	0	41	0	691011584	48	4390
2026-01-27 10:03:24.74	69.76	15.15	-38.0	-39.9	20.3	0.00e+00	0	41	0	707788800	48	4263
2026-01-27 10:03:27.74	69.17	15.28	-37.8	-39.6	20.3	0.00e+00	0	41	0	724566016	47	4384
2026-01-27 10:03:30.74	68.58	15.41	-37.6	-39.5	20.4	0.00e+00	0	42	0	741343232	47	4302
2026-01-27 10:03:33.74	67.98	15.53	-37.7	-39.5	20.4	0.00e+00	0	41	0	758120448	47	4327
2026-01-27 10:03:36.74	67.37	15.66	-37.5	-39.4	20.5	0.00e+00	0	41	0	774897664	47	4244
2026-01-27 10:03:39.75	66.76	15.78	-37.8	-39.6	20.3	0.00e+00	0	42	0	791674880	47	4391
2026-01-27 10:03:42.75	66.15	15.89	-37.6	-39.5	20.5	0.00e+00	0	41	0	808452096	47	4297
2026-01-27 10:03:45.75	65.53	16.01	-37.3	-39.1	20.9	0.00e+00	0	41	0	826277888	46	4365
2026-01-27 10:03:48.76	64.91	16.12	-37.5	-39.4	20.6	0.00e+00	0	42	0	843055104	46	4506
2026-01-27 10:03:51.76	64.28	16.23	-37.7	-39.6	20.4	0.00e+00	0	42	0	859832320	46	4626
2026-01-27 10:03:54.75	63.65	16.34	-37.8	-39.7	20.3	0.00e+00	0	42	0	876609536	46	4670
2026-01-27 10:03:57.76	63.01	16.44	-37.9	-39.8	20.2	0.00e+00	0	41	0	893386752	46	4708
2026-01-27 10:04:00.76	62.37	16.54	-37.8	-39.6	20.3	0.00e+00	0	42	0	910163968	46	4639
2026-01-27 10:04:03.75	61.73	16.63	-37.6	-39.5	20.4	0.00e+00	0	41	0	926941184	46	4561
2026-01-27 10:04:06.75	61.08	16.73	-37.8	-39.7	20.3	0.00e+00	0	42	0	943718400	46	4688
2026-01-27 10:04:09.75	60.43	16.82	-37.8	-39.7	20.3	0.00e+00	0	42	0	960495616	46	4671
2026-01-27 10:04:12.76	59.77	16.90	-37.8	-39.6	20.4	0.00e+00	0	41	0	978321408	46	4631
2026-01-27 10:04:15.77	59.10	16.99	-37.8	-39.6	20.3	0.00e+00	0	42	0	995098624	46	4649
2026-01-27 10:04:18.77	58.44	17.06	-37.6	-39.4	20.9	0.00e+00	0	41	0	1011875840	46	4515
2026-01-27 10:04:21.77	57.77	17.14	-37.6	-39.4	21.0	0.00e+00	0	42	0	1028653056	46	4499
2026-01-27 10:04:24.77	57.10	17.21	-37.4	-39.2	21.1	0.00e+00	0	41	0	1045430272	46	4408
2026-01-27 10:04:27.77	56.43	17.28	-37.4	-39.2	21.1	0.00e+00	0	42	0	1062207488	46	4406
2026-01-27 10:04:30.77	55.75	17.34	-37.5	-39.2	21.1	0.00e+00	0	42	0	1078984704	46	4441
2026-01-27 10:04:33.77	55.07	17.40	-37.2	-38.9	21.4	0.00e+00	0	42	0	1095761920	46	4250
2026-01-27 10:04:36.77	54.39	17.46	-37.3	-39.0	21.3	0.00e+00	0	41	0	1112539136	46	4318
2026-01-27 10:04:39.77	53.70	17.51	-37.6	-39.3	21.0	0.00e+00	0	42	0	1129316352	46	4484
2026-01-27 10:04:42.77	53.02	17.56	-37.4	-39.1	21.2	0.00e+00	0	42	0	1147142144	46	4372
2026-01-27 10:04:45.78	52.33	17.60	-37.5	-39.2	21.1	0.00e+00	0	42	0	1163919360	46	4441
2026-01-27 10:04:48.79	51.63	17.64	-37.4	-39.2	21.2	0.00e+00	0	42	0	1180696576	46	4394
2026-01-27 10:04:51.80	50.94	17.68	-37.4	-39.1	21.2	0.00e+00	0	42	0	1197473792	46	4378
2026-01-27 10:04:54.80	50.24	17.71	-37.2	-38.9	21.4	0.00e+00	0	42	0	1214251008	46	4291
2026-01-27 10:04:57.80	49.55	17.73	-37.0	-38.7	21.6	0.00e+00	0	41	0	1231028224	45	4417
2026-01-27 10:05:00.80	48.85	17.75	-37.0	-38.7	21.6	0.00e+00	0	42	0	1247805440	45	4402
2026-01-27 10:05:03.80	48.15	17.77	-37.1	-38.8	21.4	0.00e+00	0	42	0	1264582656	45	4487
2026-01-27 10:05:06.80	47.46	17.79	-37.2	-38.9	21.4	0.00e+00	0	42	0	1281359872	45	4545
2026-01-27 10:05:09.80	46.76	17.79	-37.3	-39.1	21.2	0.00e+00	0	42	0	1298137088	45	4624
2026-01-27 10:05:12.80	46.06	17.80	-37.5	-39.3	21.1	0.00e+00	0	42	0	1314914304	45	4724
2026-01-27 10:05:15.80	45.36	17.80	-37.5	-39.2	21.1	0.00e+00	0	42	0	1332740096	45	4705
2026-01-27 10:05:18.80	44.66	17.80	-37.3	-39.1	21.2	0.00e+00	0	42	0	1349517312	45	4619
2026-01-27 10:05:21.80	43.96	17.79	-37.0	-38.7	21.5	0.00e+00	0	42	0	1366294528	45	4400
2026-01-27 10:05:24.80	43.27	17.77	-37.0	-38.8	21.5	0.00e+00	0	42	0	1383071744	45	4449
2026-01-27 10:05:27.81	42.57	17.76	-37.0	-38.8	21.5	0.00e+00	0	42	0	1399848960	45	4445
2026-01-27 10:05:30.81	41.87	17.74	-37.2	-38.9	21.4	0.00e+00	0	42	0	1416626176	45	4538
2026-01-27 10:05:33.81	41.18	17.71	-37.2	-38.9	21.4	0.00e+00	0	42	0	1433403392	45	4513
2026-01-27 10:05:36.82	40.48	17.68	-37.3	-39.0	21.3	0.00e+00	0	42	0	1451229184	45	4581
2026-01-27 10:05:39.81	39.79	17.65	-37.3	-39.1	21.2	0.00e+00	0	42	0	1468006400	45	4600
2026-01-27 10:05:42.82	39.10	17.61	-37.4	-39.2	21.2	0.00e+00	0	42	0	1484783616	45	4657
2026-01-27 10:05:45.82	38.41	17.56	-37.2	-38.9	21.4	0.00e+00	0	42	0	1501560832	45	4510
2026-01-27 10:05:48.81	37.72	17.52	-37.3	-39.0	21.3	0.00e+00	0	42	0	1518338048	45	4563
2026-01-27 10:05:51.81	37.04	17.47	-37.5	-39.3	21.1	0.00e+00	0	42	0	1535115264	45	4715
2026-01-27 10:05:54.82	36.36	17.41	-37.3	-39.1	21.3	0.00e+00	0	42	0	1551892480	45	4609
2026-01-27 10:05:57.82	35.68	17.35	-37.3	-39.1	21.3	0.00e+00	0	42	0	1568669696	45	4603
2026-01-27 10:06:00.82	35.00	17.29	-37.4	-39.2	21.1	0.00e+00	0	42	0	1585446912	45	4688
2026-01-27 10:06:03.83	34.33	17.22	-37.6	-39.4	21.0	0.00e+00	0	42	0	1602224128	45	4760
2026-01-27 10:06:06.83	33.66	17.15	-37.4	-39.1	21.2	0.00e+00	0	42	0	1619001344	45	4621
2026-01-27 10:06:09.83	32.99	17.08	-37.3	-39.0	21.3	0.00e+00	0	42	0	1636827136	45	4581
2026-01-27 10:06:12.83	32.33	17.00	-37.2	-38.9	21.4	0.00e+00	0	42	0	1653604352	45	4540
2026-01-27 10:06:15.83	31.67	16.92	-37.4	-39.2	21.1	0.00e+00	0	42	0	1670381568	45	4662
2026-01-27 10:06:18.84	31.01	16.83	-37.7	-39.5	20.9	0.00e+00	0	42	0	1687158784	45	4818
2026-01-27 10:06:21.84	30.36	16.74	-37.6	-39.4	21.0	0.00e+00	0	42	0	1703936000	45	4767
2026-01-27 10:06:24.85	29.70	16.65	-37.7	-39.4	20.9	0.00e+00	0	42	0	1720713216	46	4541
2026-01-27 10:06:27.84	29.06	16.55	-37.5	-39.3	21.1	0.00e+00	0	42	0	1737490432	46	4449
2026-01-27 10:06:30.85	28.42	16.45	-37.6	-39.4	20.9	0.00e+00	0	42	0	1754267648	46	4519
2026-01-27 10:06:33.84	27.79	16.35	-37.5	-39.3	21.0	0.00e+00	0	42	0	1771044864	46	4477
2026-01-27 10:06:36.83	27.16	16.25	-37.7	-39.5	20.9	0.00e+00	0	42	0	1787822080	46	4558
2026-01-27 10:06:39.82	26.53	16.14	-37.8	-39.6	20.8	0.00e+00	0	42	0	1804599296	46	4606
2026-01-27 10:06:42.80	25.92	16.03	-37.9	-39.7	20.6	0.00e+00	0	42	0	1821376512	46	4688
2026-01-27 10:06:45.78	25.30	15.92	-38.0	-39.8	20.6	0.00e+00	0	42	0	1838153728	46	4712
2026-01-27 10:06:48.76	24.70	15.80	-37.9	-39.7	20.6	0.00e+00	0	42	0	1854930944	46	4679
2026-01-27 10:06:51.75	24.09	15.68	-37.9	-39.7	20.7	0.00e+00	0	42	0	1871708160	46	4670
2026-01-27 10:06:54.73	23.49	15.56	-37.8	-39.7	20.7	0.00e+00	0	42	0	1888485376	46	4654
2026-01-27 10:06:57.72	22.90	15.43	-37.9	-39.7	20.7	0.00e+00	0	42	0	1905262592	46	4669
2026-01-27 10:07:00.70	22.31	15.31	-38.0	-39.8	20.5	0.00e+00	0	42	0	1922039808	46	4738
2026-01-27 10:07:03.69	21.72	15.18	-38.2	-40.1	20.3	0.00e+00	0	42	0	1938817024	47	4608
2026-01-27 10:07:06.67	21.14	15.05	-38.1	-39.9	20.5	0.00e+00	0	42	0	1955594240	47	4508
2026-01-27 10:07:09.66	20.57	14.91	-38.2	-40.1	20.3	0.00e+00	0	42	0	1973420032	47	4604
2026-01-27 10:07:12.64	20.00	14.78	-38.3	-40.3	20.1	0.00e+00	0	42	0	1989148672	47	4709
2026-01-27 10:07:15.63	19.44	14.64	-38.3	-40.2	20.2	0.00e+00	0	42	0	2006974464	47	4655
2026-01-27 10:07:18.61	18.88	14.50	-38.3	-40.2	20.2	0.00e+00	0	42	0	2023751680	47	4669
2026-01-27 10:07:21.60	18.33	14.36	-38.5	-40.3	20.1	0.00e+00	0	42	0	2039480320	47	4722
2026-01-27 10:07:24.57	17.78	14.22	-38.6	-40.4	19.9	0.00e+00	0	42	0	2057306112	47	4798
2026-01-27 10:07:27.56	17.24	14.07	-38.8	-40.7	19.9	0.00e+00	0	42	0	2074083328	48	4663
2026-01-27 10:07:30.54	16.70	13.93	-38.4	-40.3	20.3	0.00e+00	0	42	0	2089811968	48	4448
2026-01-27 10:07:33.53	16.17	13.78	-38.6	-40.6	20.0	0.00e+00	0	42	0	2107637760	48	4599
2026-01-27 10:07:36.51	15.65	13.63	-38.7	-40.6	19.9	0.00e+00	0	42	0	2124414976	48	4647
2026-01-27 10:07:39.49	15.13	13.48	-38.4	-40.2	20.3	0.00e+00	0	42	0	2140143616	48	4440
2026-01-27 10:07:42.48	14.61	13.33	-38.6	-40.5	20.0	0.00e+00	0	42	0	2157969408	48	4581
2026-01-27 10:07:45.46	14.10	13.17	-38.5	-40.4	20.2	0.00e+00	0	42	0	2174746624	48	4511
2026-01-27 10:07:48.45	13.60	13.02	-38.6	-40.5	20.0	0.00e+00	0	42	0	2190475264	48	4555
2026-01-27 10:07:51.43	13.10	12.86	-38.8	-40.6	19.8	0.00e+00	0	42	0	2208301056	48	4644
2026-01-27 10:07:54.42	12.61	12.70	-38.8	-40.7	19.8	0.00e+00	0	42	0	2225078272	48	4676
2026-01-27 10:07:57.40	12.12	12.55	-38.9	-40.8	19.7	0.00e+00	0	42	0	2240806912	48	4736
2026-01-27 10:08:00.38	11.64	12.39	-39.1	-41.0	19.5	0.00e+00	0	42	0	2258632704	48	4865
2026-01-27 10:08:03.37	11.16	12.23	-39.0	-41.0	19.6	0.00e+00	0	42	0	2275409920	49	4547
2026-01-27 10:08:06.35	10.69	12.07	-39.1	-41.1	19.4	0.00e+00	0	42	0	2291138560	49	4625
2026-01-27 10:08:09.34	10.22	11.90	-39.3	-41.3	19.2	0.00e+00	0	42	0	2308964352	49	4751
2026-01-27 10:08:12.32	9.76	11.74	-39.2	-41.2	19.3	0.00e+00	0	42	0	2325741568	49	4677
2026-01-27 10:08:15.31	9.30	11.58	-39.0	-41.1	19.4	0.00e+00	0	42	0	2342518784	49	4612
2026-01-27 10:08:18.29	8.85	11.41	-39.1	-41.2	19.3	0.00e+00	0	42	0	2359296000	49	4701
2026-01-27 10:08:21.27	8.41	11.25	-39.2	-41.2	19.3	0.00e+00	0	42	0	2376073216	49	4680
2026-01-27 10:08:24.26	7.96	11.08	-39.3	-41.4	19.2	0.00e+00	0	42	0	2392850432	49	4775
2026-01-27 10:08:27.24	7.53	10.92	-39.4	-41.4	19.1	0.00e+00	0	42	0	2409627648	49	4812
2026-01-27 10:08:30.23	7.10	10.75	-39.5	-41.5	19.0	0.00e+00	0	42	0	2426404864	49	4819
2026-01-27 10:08:33.21	6.67	10.58	-39.3	-41.3	19.2	0.00e+00	0	42	0	2443182080	49	4732
2026-01-27 10:08:36.19	6.25	10.42	-39.3	-41.4	19.0	0.00e+00	0	42	0	2459959296	49	4803
2026-01-27 10:08:39.18	5.84	10.25	-39.5	-41.6	18.9	0.00e+00	0	42	0	2476736512	49	4914
2026-01-27 10:08:42.16	5.43	10.08	-39.4	-41.5	19.0	0.00e+00	0	42	0	2493513728	49	4850
2026-01-27 10:08:45.14	5.02	9.92	-39.6	-41.7	18.7	0.00e+00	0	42	0	2510290944	49	4983
2026-01-27 10:08:48.13	4.62	9.75	-39.7	-41.8	18.7	0.00e+00	0	42	0	2527068160	50	4735
2026-01-27 10:08:51.12	4.22	9.58	-39.9	-42.0	18.5	0.00e+00	0	42	0	2543845376	50	4817
2026-01-27 10:08:54.10	3.83	9.41	-40.0	-42.1	18.3	0.00e+00	0	42	0	2560622592	50	4908
2026-01-27 10:08:57.09	3.44	9.24	-40.1	-42.3	18.1	0.00e+00	0	42	0	2577399808	50	5038
2026-01-27 10:09:00.07	3.06	9.07	-40.0	-42.2	18.2	0.00e+00	0	42	0	2594177024	50	4970
2026-01-27 10:09:03.05	2.68	8.90	-49.0	-61.7	3.8	8.46e-01	0	42	104	2604662784	69	15660
2026-01-27 10:09:06.03	2.31	8.73	-49.8	-62.3	3.8	8.47e-01	0	42	104	2604662784	70	15894
2026-01-27 10:09:09.02	1.94	8.57	-50.1	-62.5	3.8	8.47e-01	0	42	104	2604662784	71	15233
2026-01-27 10:09:12.00	1.57	8.40	-50.4	-62.5	3.8	8.47e-01	0	42	104	2604662784	71	15315
2026-01-27 10:09:14.97	1.22	8.23	-50.3	-62.6	3.8	8.47e-01	0	42	104	2604662784	71	15404
2026-01-27 10:09:17.95	0.86	8.06	-50.4	-62.6	3.8	8.47e-01	0	42	104	2604662784	71	15444
2026-01-27 10:09:20.93	0.51	7.89	-50.1	-62.5	3.8	8.46e-01	0	42	104	2604662784	71	15348
2026-01-27 10:09:23.91	0.16	7.72	-50.3	-62.5	3.8	8.46e-01	0	42	104	2604662784	71	15281
2026-01-27 10:09:26.89	359.82	7.55	-50.1	-62.4	3.8	8.47e-01	0	42	104	2604662784	71	15166
2026-01-27 10:09:29.88	359.48	7.39	-50.1	-62.3	3.8	8.47e-01	0	42	104	2604662784	71	14949
2026-01-27 10:09:32.86	359.14	7.22	-49.7	-61.9	3.8	8.46e-01	0	42	104	2604662784	71	14282
2026-01-27 10:09:35.84	358.81	7.05	-49.7	-61.9	3.8	8.48e-01	0	42	104	2604662784	71	14219
2026-01-27 10:09:38.81	358.48	6.88	-49.6	-61.8	3.8	8.46e-01	0	42	104	2604662784	71	14163
2026-01-27 10:09:41.79	358.16	6.72	-49.6	-61.8	3.8	8.47e-01	0	42	104	2604662784	71	14141
2026-01-27 10:09:44.77	357.84	6.55	-49.6	-61.9	3.8	8.48e-01	0	42	104	2604662784	71	14214
2026-01-27 10:09:47.75	357.53	6.38	-49.6	-61.8	3.8	8.46e-01	0	42	104	2604662784	71	14111
2026-01-27 10:09:50.73	357.21	6.21	-49.6	-61.8	3.8	8.46e-01	0	42	104	2604662784	71	14112
2026-01-27 10:09:53.71	356.90	6.05	-49.6	-61.8	3.8	8.47e-01	0	42	104	2604662784	71	14120
2026-01-27 10:09:56.69	356.60	5.88	-49.6	-61.7	3.8	8.46e-01	0	42	104	2604662784	71	14001
2026-01-27 10:09:59.67	356.30	5.72	-49.6	-61.7	3.8	8.47e-01	0	42	104	2604662784	71	14037
2026-01-27 10:10:02.64	356.00	5.55	-49.6	-61.8	3.8	8.48e-01	0	42	104	2604662784	71	14097
2026-01-27 10:10:05.62	355.71	5.39	-49.6	-61.8	3.8	8.47e-01	0	42	104	2604662784	71	14085
2026-01-27 10:10:08.60	355.42	5.22	-49.6	-61.8	3.8	8.46e-01	0	42	104	2604662784	71	14107
2026-01-27 10:10:11.58	355.13	5.06	-49.6	-61.8	3.8	8.47e-01	0	42	104	2604662784	71	14130

#Closed at: 2026-01-27 10:10:13
#Recorded file [2604 MB]: D:/Data/31040_260127_130019.dat