passes_logs/2026/01/27/T1/T1__20260127_115414_NOAA_21_JPSS-2_rec.log

#Pass ID: 20260127_115414_NOAA 21 (JPSS-2)
#Satellite: NOAA 21 (JPSS-2)
#Configuration: NOAA 21
#almurnet v.1.7.20251203
#Start time: 2026-01-27 11:54:13

#Version: 2.0.20230620
#Station: T1
#Location: 37.570604 lon 55.790049 lat
#TLE: 1 54234U 22150A   26026.78373243  .00000177  00000+0  10458-3 0  9996
#TLE: 2 54234  98.7509 327.5416 0000822 208.1870 151.9262 14.19539807166482

#Time	Az	El	Level	Level2	SNR	BER	BlckErr	Temp	State	Recorded	gain1	gain2
2026-01-27 11:54:13.94	227.28	4.98	-50.4	-63.6	3.8	1.49e+00	0	42	0	0	72	16429
2026-01-27 11:54:16.91	227.61	5.13	-50.7	-63.7	3.8	1.49e+00	0	42	104	0	72	16551
2026-01-27 11:54:19.89	227.93	5.28	-50.7	-63.7	3.8	1.49e+00	0	42	104	0	72	16564
2026-01-27 11:54:22.87	228.26	5.43	-50.5	-63.6	3.8	1.49e+00	0	42	104	0	72	16401
2026-01-27 11:54:25.85	228.60	5.58	-50.2	-63.6	3.8	1.49e+00	0	42	104	0	72	16322
2026-01-27 11:54:28.83	228.94	5.73	-50.4	-63.5	3.8	1.49e+00	0	42	104	0	72	16191
2026-01-27 11:54:31.81	229.28	5.88	-50.0	-63.3	3.8	1.49e+00	0	42	104	0	72	15804
2026-01-27 11:54:34.79	229.62	6.03	-50.0	-62.9	3.8	1.49e+00	0	43	104	0	71	16115
2026-01-27 11:54:37.76	229.97	6.18	-50.0	-62.9	3.8	1.49e+00	0	42	104	0	71	16093
2026-01-27 11:54:40.74	230.32	6.33	-50.0	-62.9	3.8	1.49e+00	0	43	104	0	71	16068
2026-01-27 11:54:43.72	230.67	6.48	-50.0	-63.0	3.8	1.49e+00	0	43	104	0	71	16130
2026-01-27 11:54:46.70	231.03	6.63	-50.0	-62.9	3.8	1.49e+00	0	43	104	0	71	16062
2026-01-27 11:54:49.68	231.39	6.78	-50.0	-62.9	3.8	1.49e+00	0	43	104	0	71	16061
2026-01-27 11:54:52.66	231.76	6.93	-50.0	-62.9	3.8	1.49e+00	0	43	104	0	71	16023
2026-01-27 11:54:55.64	232.13	7.08	-49.9	-62.8	3.8	1.49e+00	0	43	104	0	71	15866
2026-01-27 11:54:58.62	232.50	7.23	-49.9	-62.6	3.8	1.49e+00	0	43	104	0	71	15404
2026-01-27 11:55:01.60	232.88	7.38	-49.9	-62.9	3.8	1.49e+00	0	43	104	0	71	15976
2026-01-27 11:55:04.58	233.26	7.53	-49.9	-62.8	3.8	1.49e+00	0	43	104	0	71	15838
2026-01-27 11:55:07.56	233.64	7.68	-49.9	-62.5	3.8	1.49e+00	0	43	104	0	71	15311
2026-01-27 11:55:10.54	234.03	7.83	-49.9	-62.5	3.8	1.49e+00	0	43	104	0	71	15383
2026-01-27 11:55:13.51	234.42	7.97	-49.9	-62.3	3.8	1.49e+00	0	43	104	0	71	14928
2026-01-27 11:55:16.49	234.81	8.12	-49.9	-62.4	3.8	1.49e+00	0	43	104	0	71	15215
2026-01-27 11:55:19.47	235.21	8.27	-49.6	-59.3	4.2	1.46e+00	0	43	104	0	71	10584
2026-01-27 11:55:22.45	235.62	8.42	-49.5	-58.9	4.2	1.46e+00	0	43	104	0	71	10065
2026-01-27 11:55:25.43	236.02	8.56	-45.8	-49.0	12.6	6.54e-04	0	43	0	0	63	5130
2026-01-27 11:55:28.41	236.43	8.71	-42.9	-45.0	16.5	0.00e+00	0	43	0	0	57	4589
2026-01-27 11:55:31.39	236.85	8.86	-43.8	-46.3	15.3	0.00e+00	0	43	0	0	58	5007
2026-01-27 11:55:34.37	237.27	9.00	-46.8	-50.9	10.6	1.16e-03	0	43	0	0	64	6000
2026-01-27 11:55:37.35	237.69	9.15	-48.4	-54.3	7.2	4.31e-01	0	43	0	0	68	7066
2026-01-27 11:55:40.34	238.12	9.29	-48.8	-55.4	6.2	5.29e-01	0	43	0	0	69	7604
2026-01-27 11:55:43.32	238.55	9.44	-43.9	-46.3	15.3	0.00e+00	0	43	0	0	59	4737
2026-01-27 11:55:46.31	238.99	9.58	-43.0	-45.2	16.4	0.00e+00	0	43	0	0	58	4403
2026-01-27 11:55:49.29	239.43	9.73	-42.9	-45.1	16.5	0.00e+00	0	43	0	0	57	4605
2026-01-27 11:55:52.28	239.87	9.87	-42.3	-44.4	17.1	0.00e+00	0	43	0	0	56	4520
2026-01-27 11:55:55.27	240.32	10.01	-41.9	-43.9	17.5	0.00e+00	0	43	0	0	55	4512
2026-01-27 11:55:58.25	240.78	10.15	-42.0	-44.0	17.4	0.00e+00	0	43	0	0	55	4576
2026-01-27 11:56:01.24	241.23	10.29	-42.0	-44.0	17.5	0.00e+00	0	43	0	0	55	4549
2026-01-27 11:56:04.22	241.70	10.43	-41.9	-43.9	17.5	0.00e+00	0	43	0	0	55	4525
2026-01-27 11:56:07.21	242.16	10.57	-41.8	-43.9	17.6	0.00e+00	0	43	0	0	55	4513
2026-01-27 11:56:10.20	242.63	10.71	-41.5	-43.5	17.9	0.00e+00	0	43	0	0	54	4578
2026-01-27 11:56:13.18	243.11	10.85	-41.6	-43.5	17.9	0.00e+00	0	44	0	0	54	4581
2026-01-27 11:56:16.16	243.59	10.98	-41.4	-43.3	18.1	0.00e+00	0	43	0	0	54	4466
2026-01-27 11:56:19.15	244.07	11.12	-41.5	-43.4	18.0	0.00e+00	0	43	0	0	54	4497
2026-01-27 11:56:22.14	244.56	11.25	-41.3	-43.2	18.2	0.00e+00	0	43	0	0	54	4435
2026-01-27 11:56:25.12	245.05	11.38	-41.4	-43.3	18.1	0.00e+00	0	43	0	0	54	4470
2026-01-27 11:56:28.10	245.54	11.52	-41.6	-43.5	18.0	0.00e+00	0	43	0	0	54	4583
2026-01-27 11:56:31.09	246.04	11.65	-41.4	-43.4	18.1	0.00e+00	0	43	0	0	54	4502
2026-01-27 11:56:34.07	246.55	11.77	-41.5	-43.4	18.0	0.00e+00	0	43	0	0	54	4544
2026-01-27 11:56:37.06	247.06	11.90	-41.6	-43.6	17.9	0.00e+00	0	43	0	0	54	4605
2026-01-27 11:56:40.04	247.57	12.03	-41.7	-43.7	17.8	0.00e+00	0	43	0	0	54	4672
2026-01-27 11:56:43.03	248.09	12.15	-41.8	-43.8	17.7	0.00e+00	0	43	0	0	54	4708
2026-01-27 11:56:46.01	248.61	12.28	-41.8	-43.7	17.8	0.00e+00	0	43	0	0	54	4692
2026-01-27 11:56:49.00	249.14	12.40	-41.7	-43.7	17.9	0.00e+00	0	43	0	0	54	4660
2026-01-27 11:56:51.98	249.66	12.52	-41.5	-43.4	18.1	0.00e+00	0	44	0	0	54	4528
2026-01-27 11:56:54.96	250.20	12.64	-41.4	-43.4	18.2	0.00e+00	0	43	0	0	54	4500
2026-01-27 11:56:57.94	250.74	12.75	-41.6	-43.6	18.0	0.00e+00	0	43	0	0	54	4619
2026-01-27 11:57:00.92	251.28	12.87	-41.5	-43.4	18.1	0.00e+00	0	43	0	0	54	4529
2026-01-27 11:57:03.91	251.82	12.98	-41.5	-43.5	18.1	0.00e+00	0	43	0	0	54	4548
2026-01-27 11:57:06.89	252.37	13.09	-41.7	-43.6	18.0	0.00e+00	0	43	0	0	54	4636
2026-01-27 11:57:09.88	252.93	13.20	-41.7	-43.6	18.0	0.00e+00	0	43	0	0	54	4615
2026-01-27 11:57:12.87	253.49	13.31	-41.5	-43.4	18.1	0.00e+00	0	43	0	0	54	4535
2026-01-27 11:57:15.85	254.05	13.41	-41.6	-43.5	18.1	0.00e+00	0	43	0	0	54	4580
2026-01-27 11:57:18.83	254.62	13.52	-41.4	-43.4	18.2	0.00e+00	0	43	0	0	54	4510
2026-01-27 11:57:21.82	255.19	13.62	-41.3	-43.2	18.3	0.00e+00	0	43	0	0	54	4407
2026-01-27 11:57:24.80	255.76	13.72	-41.3	-43.2	18.4	0.00e+00	0	43	0	0	54	4403
2026-01-27 11:57:27.78	256.33	13.81	-41.3	-43.2	18.3	0.00e+00	0	43	0	0	54	4415
2026-01-27 11:57:30.77	256.92	13.91	-41.2	-43.0	18.5	0.00e+00	0	44	0	0	54	4321
2026-01-27 11:57:33.75	257.50	14.00	-41.0	-42.9	18.6	0.00e+00	0	43	0	0	54	4257
2026-01-27 11:57:36.73	258.09	14.09	-41.1	-43.0	18.5	0.00e+00	0	43	0	0	54	4311
2026-01-27 11:57:39.72	258.68	14.18	-41.2	-43.1	18.4	0.00e+00	0	43	0	0	54	4378
2026-01-27 11:57:42.70	259.27	14.26	-41.3	-43.2	18.4	0.00e+00	0	43	0	0	54	4404
2026-01-27 11:57:45.68	259.87	14.34	-41.2	-43.1	18.4	0.00e+00	0	43	0	0	54	4368
2026-01-27 11:57:48.67	260.47	14.42	-41.1	-43.0	18.5	0.00e+00	0	44	0	0	54	4320
2026-01-27 11:57:51.65	261.07	14.50	-41.0	-42.9	18.6	0.00e+00	0	43	0	0	54	4266
2026-01-27 11:57:54.63	261.68	14.57	-40.9	-42.8	18.8	0.00e+00	0	43	0	0	53	4450
2026-01-27 11:57:57.62	262.29	14.64	-40.9	-42.8	18.8	0.00e+00	0	43	0	0	53	4467
2026-01-27 11:58:00.60	262.90	14.71	-41.1	-43.0	18.5	0.00e+00	0	43	0	0	53	4589
2026-01-27 11:58:03.59	263.52	14.78	-41.2	-43.1	18.5	0.00e+00	0	43	0	0	53	4635
2026-01-27 11:58:06.57	264.14	14.84	-41.0	-42.8	18.7	0.00e+00	0	44	0	0	53	4485
2026-01-27 11:58:09.55	264.75	14.90	-40.8	-42.6	18.9	0.00e+00	0	43	0	0	53	4387
2026-01-27 11:58:12.53	265.38	14.95	-43.3	-45.5	16.8	0.00e+00	0	43	0	0	56	5110
2026-01-27 11:58:15.52	266.00	15.01	-40.8	-42.6	18.9	0.00e+00	0	43	0	0	53	4389
2026-01-27 11:58:18.50	266.63	15.06	-41.0	-42.8	18.7	0.00e+00	0	44	0	0	53	4482
2026-01-27 11:58:21.48	267.25	15.10	-41.2	-43.1	18.5	0.00e+00	0	43	0	0	53	4602
2026-01-27 11:58:24.47	267.89	15.15	-40.8	-42.6	18.8	0.00e+00	0	44	0	0	53	4384
2026-01-27 11:58:27.45	268.52	15.19	-40.7	-42.5	19.0	0.00e+00	0	44	0	0	53	4297
2026-01-27 11:58:30.44	269.15	15.23	-40.9	-42.7	18.8	0.00e+00	0	43	0	0	53	4411
2026-01-27 11:58:33.42	269.79	15.26	-40.8	-42.6	18.9	0.00e+00	0	43	0	0	53	4376
2026-01-27 11:58:36.40	270.42	15.29	-40.9	-42.8	18.7	0.00e+00	0	44	0	0	53	4460
2026-01-27 11:58:39.39	271.06	15.32	-41.0	-42.9	18.6	0.00e+00	0	43	0	0	53	4505
2026-01-27 11:58:42.37	271.70	15.34	-41.0	-42.9	18.7	0.00e+00	0	44	0	0	53	4504
2026-01-27 11:58:45.35	272.34	15.37	-40.9	-42.8	18.7	0.00e+00	0	43	0	0	53	4448
2026-01-27 11:58:48.34	272.98	15.38	-41.2	-43.1	18.4	0.00e+00	0	43	0	0	53	4621
2026-01-27 11:58:51.32	273.62	15.40	-41.2	-43.1	18.4	0.00e+00	0	43	0	0	53	4641
2026-01-27 11:58:54.30	274.26	15.41	-40.9	-42.7	18.7	0.00e+00	0	43	0	0	53	4435
2026-01-27 11:58:57.29	274.90	15.42	-41.0	-42.9	18.7	0.00e+00	0	43	0	0	53	4512
2026-01-27 11:59:00.27	275.54	15.42	-41.2	-43.1	18.5	0.00e+00	0	43	0	0	53	4605
2026-01-27 11:59:03.26	276.19	15.42	-41.2	-43.0	18.5	0.00e+00	0	43	0	0	53	4589
2026-01-27 11:59:06.24	276.83	15.42	-41.2	-43.0	18.5	0.00e+00	0	44	0	0	53	4585
2026-01-27 11:59:09.23	277.47	15.41	-41.1	-43.0	18.5	0.00e+00	0	43	0	0	53	4573
2026-01-27 11:59:12.21	278.11	15.41	-41.2	-43.1	18.5	0.00e+00	0	43	0	0	53	4602
2026-01-27 11:59:15.20	278.75	15.39	-41.3	-43.1	18.4	0.00e+00	0	44	0	0	53	4647
2026-01-27 11:59:18.18	279.39	15.38	-41.0	-42.8	18.6	0.00e+00	0	44	0	0	53	4491
2026-01-27 11:59:21.17	280.03	15.36	-41.1	-42.9	18.6	0.00e+00	0	43	0	0	53	4522
2026-01-27 11:59:24.15	280.67	15.34	-40.8	-42.6	19.0	0.00e+00	0	44	0	0	53	4342
2026-01-27 11:59:27.14	281.31	15.31	-40.9	-42.6	18.9	0.00e+00	0	44	0	0	53	4391
2026-01-27 11:59:30.12	281.94	15.28	-41.0	-42.9	18.7	0.00e+00	0	44	0	0	53	4505
2026-01-27 11:59:33.10	282.58	15.25	-41.0	-42.8	18.7	0.00e+00	0	43	0	0	53	4491
2026-01-27 11:59:36.08	283.21	15.21	-41.1	-42.9	18.6	0.00e+00	0	44	0	0	53	4539
2026-01-27 11:59:39.07	283.84	15.17	-41.2	-43.1	18.5	0.00e+00	0	43	0	0	53	4626
2026-01-27 11:59:42.05	284.47	15.13	-41.1	-43.0	18.6	0.00e+00	0	44	0	0	53	4549
2026-01-27 11:59:45.04	285.10	15.09	-41.2	-43.0	18.5	0.00e+00	0	43	0	0	53	4582
2026-01-27 11:59:48.02	285.73	15.04	-41.3	-43.2	18.4	0.00e+00	0	44	0	0	53	4672
2026-01-27 11:59:51.00	286.35	14.99	-41.4	-43.3	18.2	0.00e+00	0	44	0	0	53	4748
2026-01-27 11:59:53.99	286.97	14.93	-41.4	-43.2	18.4	0.00e+00	0	44	0	0	53	4685
2026-01-27 11:59:56.97	287.59	14.88	-41.1	-43.0	18.6	0.00e+00	0	43	0	0	53	4549
2026-01-27 11:59:59.95	288.21	14.82	-41.2	-43.0	18.6	0.00e+00	0	44	0	0	53	4572
2026-01-27 12:00:02.94	288.83	14.75	-41.4	-43.3	18.3	0.00e+00	0	44	0	0	53	4706
2026-01-27 12:00:05.92	289.44	14.69	-41.5	-43.4	18.2	0.00e+00	0	44	0	0	53	4808
2026-01-27 12:00:08.90	290.05	14.62	-41.4	-43.2	18.4	0.00e+00	0	44	0	0	53	4702
2026-01-27 12:00:11.89	290.65	14.55	-41.5	-43.4	18.2	0.00e+00	0	43	0	0	53	4768
2026-01-27 12:00:14.87	291.26	14.47	-41.5	-43.4	18.3	0.00e+00	0	44	0	0	53	4767
2026-01-27 12:00:17.86	291.86	14.39	-41.3	-43.1	18.5	0.00e+00	0	44	0	0	54	4390
2026-01-27 12:00:20.84	292.46	14.32	-41.3	-43.2	18.4	0.00e+00	0	44	0	0	54	4419
2026-01-27 12:00:23.83	293.05	14.23	-41.5	-43.4	18.2	0.00e+00	0	43	0	0	54	4515
2026-01-27 12:00:26.81	293.64	14.15	-41.4	-43.3	18.3	0.00e+00	0	44	0	0	54	4477
2026-01-27 12:00:29.79	294.23	14.06	-41.4	-43.3	18.3	0.00e+00	0	44	0	0	54	4457
2026-01-27 12:00:32.78	294.81	13.97	-41.5	-43.4	18.2	0.00e+00	0	43	0	0	54	4536
2026-01-27 12:00:35.76	295.39	13.88	-41.6	-43.5	18.1	0.00e+00	0	43	0	0	54	4567
2026-01-27 12:00:38.74	295.97	13.78	-41.8	-43.7	17.9	0.00e+00	0	43	0	0	54	4694
2026-01-27 12:00:41.73	296.54	13.69	-41.7	-43.6	18.0	0.00e+00	0	44	0	0	54	4613
2026-01-27 12:00:44.71	297.11	13.59	-41.9	-43.8	17.8	0.00e+00	0	43	0	0	54	4743
2026-01-27 12:00:47.70	297.68	13.49	-42.0	-44.0	17.7	0.00e+00	0	44	0	0	54	4815
2026-01-27 12:00:50.68	298.24	13.38	-42.0	-43.9	17.7	0.00e+00	0	44	0	0	54	4801
2026-01-27 12:00:53.67	298.80	13.28	-41.8	-43.7	17.8	0.00e+00	0	43	0	0	54	4696
2026-01-27 12:00:56.65	299.36	13.17	-41.9	-43.8	17.7	0.00e+00	0	43	0	0	54	4735
2026-01-27 12:00:59.63	299.91	13.06	-41.8	-43.8	17.8	0.00e+00	0	43	0	0	54	4722
2026-01-27 12:01:02.62	300.45	12.95	-41.9	-43.9	17.7	0.00e+00	0	44	0	0	54	4774
2026-01-27 12:01:05.60	300.99	12.84	-41.7	-43.7	17.8	0.00e+00	0	44	0	0	54	4658
2026-01-27 12:01:08.58	301.53	12.73	-41.6	-43.5	17.9	0.00e+00	0	44	0	0	54	4568
2026-01-27 12:01:11.56	302.07	12.61	-41.6	-43.5	18.0	0.00e+00	0	44	0	0	54	4586
2026-01-27 12:01:14.55	302.60	12.49	-41.8	-43.7	17.8	0.00e+00	0	44	0	0	54	4693
2026-01-27 12:01:17.53	303.12	12.37	-42.0	-43.9	17.7	0.00e+00	0	44	0	0	54	4802
2026-01-27 12:01:20.52	303.64	12.25	-42.0	-44.0	17.6	0.00e+00	0	44	0	0	54	4838
2026-01-27 12:01:23.50	304.16	12.13	-42.1	-44.1	17.4	0.00e+00	0	43	0	0	54	4908
2026-01-27 12:01:26.48	304.67	12.00	-42.2	-44.2	17.4	0.00e+00	0	44	0	0	55	4667
2026-01-27 12:01:29.47	305.18	11.88	-42.0	-44.0	17.6	0.00e+00	0	43	0	0	55	4554
2026-01-27 12:01:32.45	305.69	11.75	-42.2	-44.2	17.4	0.00e+00	0	44	0	0	55	4658
2026-01-27 12:01:35.43	306.19	11.62	-42.3	-44.4	17.2	0.00e+00	0	44	0	0	55	4771
2026-01-27 12:01:38.42	306.69	11.49	-42.2	-44.3	17.2	0.00e+00	0	44	0	0	55	4734
2026-01-27 12:01:41.40	307.18	11.36	-42.4	-44.5	17.0	0.00e+00	0	43	0	0	55	4824
2026-01-27 12:01:44.38	307.66	11.23	-42.2	-44.3	17.2	0.00e+00	0	44	0	0	55	4727
2026-01-27 12:01:47.37	308.15	11.10	-42.8	-45.0	16.7	0.00e+00	0	44	0	0	56	4857
2026-01-27 12:01:50.35	308.63	10.97	-42.5	-44.7	17.0	0.00e+00	0	44	0	0	56	4674
2026-01-27 12:01:53.34	309.10	10.83	-42.8	-45.0	16.6	0.00e+00	0	44	0	0	56	4847
2026-01-27 12:01:56.32	309.57	10.69	-42.8	-45.1	16.6	0.00e+00	0	43	0	0	56	4872
2026-01-27 12:01:59.30	310.04	10.56	-42.9	-45.1	16.5	0.00e+00	0	44	0	0	56	4892
2026-01-27 12:02:02.29	310.50	10.42	-42.7	-44.9	16.8	0.00e+00	0	44	0	0	56	4772
2026-01-27 12:02:05.27	310.96	10.28	-42.8	-44.9	16.8	0.00e+00	0	44	0	0	56	4802
2026-01-27 12:02:08.26	311.41	10.14	-42.6	-44.7	17.0	0.00e+00	0	43	0	0	56	4683
2026-01-27 12:02:11.24	311.86	10.00	-42.8	-45.0	16.6	0.00e+00	0	44	0	0	56	4867
2026-01-27 12:02:14.22	312.31	9.86	-42.7	-45.0	16.7	0.00e+00	0	44	0	0	56	4817
2026-01-27 12:02:17.21	312.75	9.72	-42.8	-45.1	16.5	0.00e+00	0	43	0	0	56	4903
2026-01-27 12:02:20.19	313.19	9.58	-42.8	-45.0	16.6	0.00e+00	0	44	0	0	56	4849
2026-01-27 12:02:23.18	313.62	9.44	-42.8	-45.0	16.6	0.00e+00	0	44	0	0	56	4839
2026-01-27 12:02:26.17	314.05	9.29	-43.2	-45.5	16.2	0.00e+00	0	44	0	0	57	4816
2026-01-27 12:02:29.15	314.47	9.15	-43.1	-45.4	16.2	0.00e+00	0	44	0	0	57	4805
2026-01-27 12:02:32.14	314.90	9.00	-43.0	-45.4	16.3	0.00e+00	0	43	0	0	57	4766
2026-01-27 12:02:35.12	315.31	8.86	-49.6	-62.8	3.8	1.49e+00	0	43	104	0	70	16815
2026-01-27 12:02:38.10	315.72	8.71	-49.9	-62.9	3.8	1.49e+00	0	43	104	0	70	16946
2026-01-27 12:02:41.08	316.13	8.57	-50.0	-62.9	3.8	1.49e+00	0	44	104	0	70	17068
2026-01-27 12:02:44.06	316.54	8.42	-49.9	-62.9	3.8	1.49e+00	0	44	104	0	70	17048
2026-01-27 12:02:47.04	316.94	8.28	-49.9	-63.0	3.8	1.49e+00	0	44	104	0	70	17128
2026-01-27 12:02:50.02	317.33	8.13	-49.9	-63.0	3.8	1.49e+00	0	44	104	0	70	17089
2026-01-27 12:02:53.00	317.73	7.98	-49.9	-63.0	3.8	1.49e+00	0	44	104	0	70	17094
2026-01-27 12:02:55.97	318.12	7.84	-49.9	-63.0	3.8	1.49e+00	0	44	104	0	70	17098
2026-01-27 12:02:58.95	318.50	7.69	-49.9	-63.0	3.8	1.49e+00	0	44	104	0	70	17134
2026-01-27 12:03:01.93	318.88	7.54	-49.9	-62.9	3.8	1.49e+00	0	44	104	0	70	17068
2026-01-27 12:03:04.91	319.26	7.40	-49.8	-63.0	3.8	1.49e+00	0	44	104	0	70	17087
2026-01-27 12:03:07.89	319.63	7.25	-49.9	-62.9	3.8	1.49e+00	0	44	104	0	70	17037
2026-01-27 12:03:10.87	320.00	7.10	-49.9	-63.0	3.8	1.49e+00	0	44	104	0	70	17143
2026-01-27 12:03:13.85	320.37	6.95	-49.9	-63.0	3.8	1.49e+00	0	44	104	0	70	17084
2026-01-27 12:03:16.82	320.73	6.81	-49.9	-62.9	3.8	1.49e+00	0	44	104	0	70	17074
2026-01-27 12:03:19.80	321.09	6.66	-49.9	-63.0	3.8	1.49e+00	0	44	104	0	70	17095
2026-01-27 12:03:22.78	321.45	6.51	-49.9	-62.9	3.8	1.49e+00	0	44	104	0	70	17076
2026-01-27 12:03:25.76	321.80	6.36	-49.9	-63.0	3.8	1.49e+00	0	44	104	0	70	17103
2026-01-27 12:03:28.74	322.15	6.21	-49.9	-63.0	3.8	1.49e+00	0	44	104	0	70	17086
2026-01-27 12:03:31.72	322.50	6.06	-49.9	-63.0	3.8	1.49e+00	0	44	104	0	70	17115
2026-01-27 12:03:34.70	322.84	5.92	-49.9	-62.9	3.8	1.49e+00	0	44	104	0	70	17015
2026-01-27 12:03:37.67	323.18	5.77	-49.9	-63.0	3.8	1.49e+00	0	43	104	0	70	17122
2026-01-27 12:03:40.65	323.51	5.62	-49.9	-63.0	3.8	1.49e+00	0	44	104	0	70	17156
2026-01-27 12:03:43.63	323.85	5.47	-49.9	-62.9	3.8	1.49e+00	0	44	104	0	70	17017
2026-01-27 12:03:46.61	324.18	5.32	-49.9	-63.0	3.8	1.49e+00	0	43	104	0	70	17122
2026-01-27 12:03:49.59	324.50	5.17	-49.9	-63.0	3.8	1.49e+00	0	44	104	0	70	17121
2026-01-27 12:03:52.57	324.83	5.03	-49.9	-63.0	3.8	1.49e+00	0	44	104	0	70	17169

#Closed at: 2026-01-27 12:03:54
#Recorded file [0 MB]: D:/Data/31040_260127_145413.dat