passes_logs/2026/01/27/T1/T1__20260127_110222_NOAA_20_JPSS-1_rec.log

#Pass ID: 20260127_110222_NOAA 20 (JPSS-1)
#Satellite: NOAA 20 (JPSS-1)
#Configuration: NOAA 20
#almurnet v.1.7.20251203
#Start time: 2026-01-27 11:02:23

#Version: 2.0.20230620
#Station: T1
#Location: 37.570604 lon 55.790049 lat
#TLE: 1 43013U 17073A   26026.81907703  .00000149  00000+0  91399-4 0  9998
#TLE: 2 43013  98.7647 327.6343 0000991  22.4130 337.7089 14.19540778424411

#Time	Az	El	Level	Level2	SNR	BER	BlckErr	Temp	State	Recorded	gain1	gain2
2026-01-27 11:02:23.40	195.94	5.06	-50.6	-65.8	3.8	1.49e+00	0	41	0	0	72	21219
2026-01-27 11:02:26.38	196.13	5.26	-50.6	-65.8	3.8	1.49e+00	0	41	104	0	72	21140
2026-01-27 11:02:29.35	196.32	5.45	-50.5	-65.8	3.8	1.49e+00	0	41	104	0	72	21030
2026-01-27 11:02:32.33	196.52	5.65	-50.4	-65.7	3.8	1.49e+00	0	41	104	0	72	20944
2026-01-27 11:02:35.31	196.71	5.85	-50.0	-65.5	3.8	1.49e+00	0	41	104	0	72	20350
2026-01-27 11:02:38.29	196.91	6.05	-49.7	-65.3	3.8	1.49e+00	0	41	104	0	71	21025
2026-01-27 11:02:41.27	197.11	6.25	-49.4	-64.8	3.8	1.49e+00	0	41	104	0	70	21098
2026-01-27 11:02:44.25	197.32	6.46	-49.4	-64.9	3.8	1.49e+00	0	41	104	0	70	21326
2026-01-27 11:02:47.23	197.53	6.66	-49.4	-65.1	3.8	1.49e+00	0	41	104	0	70	21811
2026-01-27 11:02:50.21	197.74	6.87	-49.4	-65.1	3.8	1.49e+00	0	41	104	0	70	21891
2026-01-27 11:02:53.19	197.95	7.08	-49.3	-64.4	3.8	1.49e+00	0	42	104	0	70	20221
2026-01-27 11:02:56.17	198.16	7.29	-49.2	-62.7	3.8	1.49e+00	0	42	104	0	70	16535
2026-01-27 11:02:59.15	198.38	7.50	-49.2	-62.7	4.0	1.47e+00	0	42	104	0	70	16632
2026-01-27 11:03:02.13	198.60	7.71	-49.1	-61.0	4.3	1.44e+00	0	42	0	0	70	13725
2026-01-27 11:03:05.11	198.83	7.92	-47.6	-54.0	9.6	2.52e-02	0	42	0	5242880	67	7223
2026-01-27 11:03:08.09	199.06	8.14	-46.0	-50.0	13.7	1.67e-05	0	42	0	10485760	63	5784
2026-01-27 11:03:11.06	199.29	8.35	-45.4	-49.0	14.8	0.00e+00	0	42	0	16777216	62	5447
2026-01-27 11:03:14.04	199.52	8.57	-46.1	-50.3	13.5	7.00e-07	0	42	0	22020096	62	6326
2026-01-27 11:03:17.02	199.76	8.79	-47.4	-53.3	10.4	2.09e-03	0	42	0	27262976	65	7487
2026-01-27 11:03:20.00	200.00	9.01	-48.4	-57.1	6.5	1.74e-01	0	42	0	32505856	67	10399
2026-01-27 11:03:22.99	200.25	9.23	-48.8	-58.5	5.7	2.26e-01	0	42	0	38797312	68	11459
2026-01-27 11:03:25.97	200.50	9.46	-46.9	-52.1	11.6	7.93e-02	0	42	0	42991616	65	6534
2026-01-27 11:03:28.95	200.75	9.68	-46.1	-50.3	13.5	1.90e-05	0	42	0	49283072	64	5634
2026-01-27 11:03:31.94	201.01	9.91	-45.7	-49.5	14.4	3.80e-06	0	42	0	54525952	63	5409
2026-01-27 11:03:34.92	201.27	10.14	-45.0	-48.3	15.6	0.00e+00	0	42	0	59768832	62	4989
2026-01-27 11:03:37.91	201.53	10.37	-44.7	-47.8	16.2	0.00e+00	0	43	0	66060288	61	4985
2026-01-27 11:03:40.89	201.80	10.60	-44.6	-47.7	16.3	0.00e+00	0	43	0	71303168	61	4929
2026-01-27 11:03:43.88	202.07	10.83	-44.5	-47.6	16.3	0.00e+00	0	42	0	76546048	60	5193
2026-01-27 11:03:46.86	202.35	11.07	-44.4	-47.5	16.4	0.00e+00	0	42	0	82837504	60	5115
2026-01-27 11:03:49.84	202.63	11.30	-44.3	-47.5	16.2	0.00e+00	0	42	0	88080384	60	5113
2026-01-27 11:03:52.83	202.92	11.54	-44.2	-47.4	16.3	0.00e+00	0	42	0	94371840	60	5050
2026-01-27 11:03:55.81	203.20	11.78	-44.1	-47.1	16.8	0.00e+00	0	42	0	99614720	60	4886
2026-01-27 11:03:58.80	203.50	12.03	-44.0	-46.9	17.0	0.00e+00	0	43	0	104857600	59	5044
2026-01-27 11:04:01.78	203.80	12.27	-43.8	-46.6	17.2	0.00e+00	0	43	0	111149056	59	4915
2026-01-27 11:04:04.76	204.10	12.52	-43.6	-46.3	17.5	0.00e+00	0	43	0	116391936	59	4732
2026-01-27 11:04:07.75	204.41	12.76	-43.6	-46.2	17.7	0.00e+00	0	43	0	121634816	59	4687
2026-01-27 11:04:10.73	204.73	13.01	-43.5	-46.1	17.8	0.00e+00	0	43	0	127926272	59	4624
2026-01-27 11:04:13.72	205.05	13.26	-43.7	-46.3	17.6	0.00e+00	0	43	0	133169152	59	4740
2026-01-27 11:04:16.70	205.37	13.52	-43.7	-46.3	17.7	0.00e+00	0	43	0	138412032	59	4713
2026-01-27 11:04:19.68	205.70	13.77	-43.7	-46.2	17.7	0.00e+00	0	43	0	144703488	59	4692
2026-01-27 11:04:22.66	206.03	14.03	-43.7	-46.3	17.6	0.00e+00	0	43	0	149946368	59	4748
2026-01-27 11:04:25.65	206.38	14.29	-43.8	-46.4	17.5	0.00e+00	0	43	0	155189248	59	4814
2026-01-27 11:04:28.63	206.72	14.55	-43.9	-46.6	17.4	0.00e+00	0	43	0	161480704	59	4894
2026-01-27 11:04:31.62	207.08	14.81	-43.7	-46.3	17.7	0.00e+00	0	43	0	166723584	59	4740
2026-01-27 11:04:34.60	207.44	15.07	-43.6	-46.2	17.7	0.00e+00	0	43	0	171966464	59	4683
2026-01-27 11:04:37.59	207.80	15.34	-43.6	-46.1	17.9	0.00e+00	0	43	0	178257920	59	4641
2026-01-27 11:04:40.57	208.17	15.60	-43.6	-46.1	18.0	0.00e+00	0	43	0	183500800	59	4601
2026-01-27 11:04:43.55	208.55	15.87	-43.7	-46.3	17.7	0.00e+00	0	43	0	188743680	59	4734
2026-01-27 11:04:46.54	208.94	16.14	-43.9	-46.6	17.5	0.00e+00	0	43	0	195035136	59	4877
2026-01-27 11:04:49.52	209.33	16.42	-44.1	-46.7	17.4	0.00e+00	0	43	0	200278016	59	4950
2026-01-27 11:04:52.51	209.73	16.69	-44.3	-47.0	17.1	0.00e+00	0	43	0	205520896	59	5125
2026-01-27 11:04:55.49	210.13	16.97	-44.6	-47.4	16.7	0.00e+00	0	43	0	211812352	59	5346
2026-01-27 11:04:58.47	210.54	17.25	-44.7	-47.6	16.6	0.00e+00	0	43	0	217055232	60	5167
2026-01-27 11:05:01.46	210.97	17.53	-44.8	-47.7	16.4	0.00e+00	0	43	0	222298112	60	5272
2026-01-27 11:05:04.45	211.40	17.81	-44.6	-47.5	16.7	0.00e+00	0	43	0	228589568	60	5127
2026-01-27 11:05:07.43	211.83	18.09	-44.5	-47.4	16.8	0.00e+00	0	43	0	233832448	60	5054
2026-01-27 11:05:10.41	212.27	18.38	-44.6	-47.4	16.8	0.00e+00	0	43	0	239075328	60	5096
2026-01-27 11:05:13.40	212.73	18.66	-44.8	-47.7	16.5	0.00e+00	0	43	0	245366784	60	5278
2026-01-27 11:05:16.38	213.19	18.95	-44.6	-47.4	16.8	0.00e+00	0	43	0	250609664	60	5085
2026-01-27 11:05:19.36	213.66	19.24	-44.6	-47.5	16.7	0.00e+00	0	43	0	255852544	60	5148
2026-01-27 11:05:22.35	214.13	19.53	-44.7	-47.7	16.5	0.00e+00	0	43	0	262144000	60	5246
2026-01-27 11:05:25.34	214.62	19.83	-44.6	-47.6	16.6	0.00e+00	0	43	0	267386880	60	5174
2026-01-27 11:05:28.32	215.12	20.12	-44.3	-47.1	17.1	0.00e+00	0	43	0	272629760	60	4903
2026-01-27 11:05:31.30	215.62	20.42	-44.1	-46.9	17.3	0.00e+00	0	43	0	278921216	60	4767
2026-01-27 11:05:34.29	216.14	20.71	-44.1	-46.8	17.4	0.00e+00	0	43	0	284164096	60	4726
2026-01-27 11:05:37.27	216.66	21.01	-44.1	-46.7	17.5	0.00e+00	0	43	0	289406976	60	4687
2026-01-27 11:05:40.26	217.20	21.31	-43.9	-46.5	17.6	0.00e+00	0	43	0	295698432	59	4859
2026-01-27 11:05:43.24	217.74	21.61	-43.6	-46.1	18.0	0.00e+00	0	43	0	300941312	59	4616
2026-01-27 11:05:46.23	218.30	21.91	-43.4	-45.9	18.2	0.00e+00	0	43	0	306184192	58	4799
2026-01-27 11:05:49.21	218.86	22.21	-43.5	-45.9	18.2	0.00e+00	0	43	0	312475648	58	4791
2026-01-27 11:05:52.19	219.44	22.52	-43.2	-45.6	18.5	0.00e+00	0	43	0	317718528	58	4629
2026-01-27 11:05:55.18	220.03	22.82	-43.2	-45.6	18.5	0.00e+00	0	43	0	322961408	58	4649
2026-01-27 11:05:58.16	220.63	23.12	-43.1	-45.4	18.7	0.00e+00	0	43	0	329252864	58	4539
2026-01-27 11:06:01.14	221.24	23.43	-42.7	-45.0	19.1	0.00e+00	0	43	0	334495744	57	4572
2026-01-27 11:06:04.12	221.86	23.73	-42.8	-45.1	19.0	0.00e+00	0	43	0	339738624	57	4646
2026-01-27 11:06:07.11	222.49	24.03	-42.5	-44.7	19.4	0.00e+00	0	43	0	346030080	57	4441
2026-01-27 11:06:10.09	223.14	24.34	-42.3	-44.5	19.6	0.00e+00	0	43	0	351272960	56	4569
2026-01-27 11:06:13.08	223.80	24.64	-42.4	-44.6	19.5	0.00e+00	0	43	0	356515840	56	4633
2026-01-27 11:06:16.06	224.47	24.95	-42.8	-45.1	19.1	0.00e+00	0	43	0	362807296	56	4889
2026-01-27 11:06:19.04	225.15	25.25	-42.9	-45.2	18.9	0.00e+00	0	43	0	368050176	56	4983
2026-01-27 11:06:22.03	225.85	25.55	-42.7	-44.9	19.2	0.00e+00	0	43	0	373293056	56	4811
2026-01-27 11:06:25.01	226.56	25.85	-43.0	-45.4	18.7	0.00e+00	0	43	0	379584512	56	5087
2026-01-27 11:06:27.99	227.28	26.15	-43.3	-45.8	18.4	0.00e+00	0	43	0	384827392	57	4987
2026-01-27 11:06:30.98	228.02	26.45	-43.5	-45.9	18.3	0.00e+00	0	43	0	390070272	57	5075
2026-01-27 11:06:33.96	228.77	26.74	-44.1	-46.8	17.5	0.00e+00	0	43	0	396361728	58	5284
2026-01-27 11:06:36.94	229.53	27.04	-44.3	-47.0	17.2	0.00e+00	0	43	0	401604608	59	5130
2026-01-27 11:06:39.93	230.31	27.33	-44.5	-47.2	17.0	0.00e+00	0	43	0	406847488	59	5259
2026-01-27 11:06:42.91	231.10	27.62	-45.0	-47.9	16.4	0.00e+00	0	43	0	413138944	60	5392
2026-01-27 11:06:45.90	231.91	27.91	-44.9	-47.9	16.4	0.00e+00	0	43	0	418381824	60	5395
2026-01-27 11:06:48.89	232.73	28.19	-44.7	-47.5	16.8	0.00e+00	0	43	0	423624704	60	5140
2026-01-27 11:06:51.88	233.57	28.47	-45.1	-48.1	16.3	0.00e+00	0	43	0	429916160	60	5467
2026-01-27 11:06:54.86	234.41	28.75	-45.9	-49.2	15.1	0.00e+00	0	43	0	435159040	62	5590
2026-01-27 11:06:57.84	235.28	29.02	-46.3	-49.9	14.5	1.50e-06	0	43	0	440401920	63	5661
2026-01-27 11:07:00.83	236.15	29.28	-46.2	-49.8	14.6	0.00e+00	0	43	0	446693376	63	5611
2026-01-27 11:07:03.81	237.04	29.55	-46.7	-50.6	13.8	5.30e-06	0	43	0	451936256	63	6143
2026-01-27 11:07:06.80	237.95	29.80	-47.1	-51.3	12.9	5.18e-05	0	43	0	457179136	64	6335
2026-01-27 11:07:09.78	238.87	30.06	-46.8	-50.9	13.3	2.13e-05	0	43	0	463470592	64	6036
2026-01-27 11:07:12.76	239.80	30.30	-46.8	-50.9	13.3	8.30e-06	0	43	0	468713472	64	6043
2026-01-27 11:07:15.75	240.75	30.54	-46.9	-51.1	13.1	5.34e-05	0	43	0	473956352	64	6179
2026-01-27 11:07:18.73	241.71	30.77	-46.4	-50.1	14.2	3.80e-06	0	43	0	480247808	64	5490
2026-01-27 11:07:21.72	242.69	31.00	-45.9	-49.2	15.2	0.00e+00	0	43	0	485490688	63	5224
2026-01-27 11:07:24.70	243.67	31.22	-45.5	-48.6	15.7	0.00e+00	0	43	0	490733568	63	4888
2026-01-27 11:07:27.69	244.68	31.43	-45.7	-49.0	15.4	0.00e+00	0	43	0	497025024	62	5406
2026-01-27 11:07:30.67	245.69	31.63	-45.4	-48.5	15.8	0.00e+00	0	43	0	502267904	62	5152
2026-01-27 11:07:33.66	246.72	31.83	-45.3	-48.3	16.1	0.00e+00	0	43	0	507510784	62	5027
2026-01-27 11:07:36.64	247.75	32.01	-45.9	-49.4	15.0	7.00e-07	0	43	0	513802240	62	5664
2026-01-27 11:07:39.62	248.80	32.19	-45.5	-48.6	15.7	0.00e+00	0	43	0	519045120	62	5185
2026-01-27 11:07:42.61	249.86	32.35	-45.1	-48.1	16.3	0.00e+00	0	43	0	524288000	62	4885
2026-01-27 11:07:45.59	250.93	32.51	-45.4	-48.5	15.8	0.00e+00	0	43	0	530579456	62	5139
2026-01-27 11:07:48.58	252.01	32.66	-45.5	-48.6	15.8	0.00e+00	0	43	0	535822336	62	5215
2026-01-27 11:07:51.56	253.10	32.79	-45.9	-49.4	15.0	0.00e+00	0	43	0	541065216	62	5680
2026-01-27 11:07:54.55	254.20	32.92	-46.0	-49.4	14.9	0.00e+00	0	43	0	547356672	63	5399
2026-01-27 11:07:57.54	255.31	33.03	-45.7	-48.9	15.5	0.00e+00	0	43	0	552599552	63	5065
2026-01-27 11:08:00.53	256.42	33.13	-46.1	-49.5	14.9	0.00e+00	0	43	0	557842432	63	5440
2026-01-27 11:08:03.51	257.54	33.23	-45.8	-49.0	15.3	0.00e+00	0	43	0	564133888	63	5156
2026-01-27 11:08:06.50	258.66	33.30	-45.4	-48.6	15.8	0.00e+00	0	43	0	569376768	62	5177
2026-01-27 11:08:09.48	259.79	33.37	-46.2	-49.7	14.7	7.00e-07	0	43	0	574619648	63	5532
2026-01-27 11:08:12.46	260.92	33.43	-46.0	-49.5	15.0	0.00e+00	0	43	0	580911104	63	5410
2026-01-27 11:08:15.45	262.06	33.47	-46.0	-49.5	14.9	0.00e+00	0	43	0	586153984	63	5449
2026-01-27 11:08:18.44	263.20	33.50	-45.8	-49.2	15.3	0.00e+00	0	43	0	591396864	63	5233
2026-01-27 11:08:21.42	264.34	33.52	-45.4	-48.6	15.8	0.00e+00	0	43	0	597688320	62	5186
2026-01-27 11:08:24.41	265.49	33.52	-45.6	-48.8	15.6	0.00e+00	0	43	0	602931200	62	5311
2026-01-27 11:08:27.39	266.63	33.52	-45.8	-49.0	15.4	0.00e+00	0	43	0	608174080	62	5463
2026-01-27 11:08:30.38	267.77	33.50	-45.8	-49.1	15.3	0.00e+00	0	43	0	614465536	62	5503
2026-01-27 11:08:33.36	268.91	33.47	-46.0	-49.4	15.0	0.00e+00	0	43	0	619708416	62	5689
2026-01-27 11:08:36.35	270.05	33.42	-45.5	-48.7	15.7	0.00e+00	0	43	0	624951296	62	5258
2026-01-27 11:08:39.33	271.18	33.37	-44.9	-47.8	16.6	0.00e+00	0	43	0	631242752	61	4994
2026-01-27 11:08:42.31	272.30	33.30	-44.8	-47.7	16.7	0.00e+00	0	43	0	636485632	61	4935
2026-01-27 11:08:45.29	273.42	33.22	-46.1	-49.5	14.9	0.00e+00	0	43	0	641728512	62	5749
2026-01-27 11:08:48.28	274.54	33.13	-46.1	-49.5	14.9	0.00e+00	0	43	0	648019968	62	5760
2026-01-27 11:08:51.27	275.66	33.03	-46.1	-49.6	14.7	0.00e+00	0	43	0	653262848	63	5483
2026-01-27 11:08:54.25	276.76	32.91	-46.2	-49.7	14.7	0.00e+00	0	43	0	658505728	63	5591
2026-01-27 11:08:57.23	277.85	32.79	-46.2	-49.6	14.8	0.00e+00	0	43	0	664797184	63	5500
2026-01-27 11:09:00.21	278.94	32.65	-46.4	-50.0	14.4	0.00e+00	0	43	0	670040064	63	5729
2026-01-27 11:09:03.20	280.02	32.50	-46.5	-50.1	14.3	7.00e-07	0	43	0	675282944	63	5809
2026-01-27 11:09:06.19	281.08	32.35	-46.6	-50.5	13.8	5.30e-06	0	43	0	681574400	64	5755
2026-01-27 11:09:09.17	282.14	32.18	-46.3	-49.9	14.3	2.20e-06	0	43	0	686817280	64	5390
2026-01-27 11:09:12.16	283.19	32.00	-45.6	-48.7	15.7	0.00e+00	0	43	0	693108736	63	4983
2026-01-27 11:09:15.14	284.22	31.82	-45.7	-48.9	15.5	0.00e+00	0	43	0	698351616	63	5053
2026-01-27 11:09:18.12	285.24	31.63	-45.9	-49.1	15.2	0.00e+00	0	43	0	703594496	63	5214
2026-01-27 11:09:21.11	286.25	31.42	-45.9	-49.2	15.1	0.00e+00	0	43	0	709885952	63	5278
2026-01-27 11:09:24.09	287.25	31.21	-45.7	-49.0	15.4	0.00e+00	0	43	0	715128832	63	5113
2026-01-27 11:09:27.08	288.23	31.00	-45.5	-48.6	15.8	0.00e+00	0	43	0	720371712	63	4897
2026-01-27 11:09:30.06	289.20	30.77	-45.3	-48.3	16.0	0.00e+00	0	43	0	726663168	62	5041
2026-01-27 11:09:33.04	290.16	30.54	-46.0	-49.4	15.0	0.00e+00	0	43	0	731906048	62	5687
2026-01-27 11:09:36.03	291.10	30.30	-46.4	-50.0	14.3	7.00e-07	0	43	0	737148928	63	5761
2026-01-27 11:09:39.01	292.03	30.06	-45.7	-49.1	15.3	0.00e+00	0	43	0	743440384	63	5186
2026-01-27 11:09:42.00	292.95	29.80	-45.5	-48.8	15.6	0.00e+00	0	43	0	748683264	63	4991
2026-01-27 11:09:44.99	293.85	29.55	-45.8	-49.2	15.2	0.00e+00	0	43	0	753926144	63	5232
2026-01-27 11:09:47.97	294.74	29.29	-46.1	-49.5	14.8	0.00e+00	0	43	0	760217600	63	5464
2026-01-27 11:09:50.95	295.61	29.02	-46.4	-50.1	14.3	7.00e-07	0	43	0	765460480	63	5843
2026-01-27 11:09:53.94	296.47	28.75	-46.2	-49.7	14.7	0.00e+00	0	43	0	770703360	63	5542
2026-01-27 11:09:56.92	297.31	28.48	-45.5	-48.7	15.7	0.00e+00	0	43	0	776994816	63	4945
2026-01-27 11:09:59.90	298.14	28.20	-44.7	-47.6	16.7	0.00e+00	0	43	0	782237696	61	4923
2026-01-27 11:10:02.89	298.96	27.92	-44.7	-47.5	16.8	0.00e+00	0	43	0	787480576	61	4868
2026-01-27 11:10:05.87	299.76	27.63	-45.0	-48.0	16.4	0.00e+00	0	43	0	793772032	61	5141
2026-01-27 11:10:08.86	300.55	27.35	-45.5	-48.8	15.6	0.00e+00	0	43	0	799014912	61	5601
2026-01-27 11:10:11.84	301.32	27.06	-45.5	-48.7	15.6	0.00e+00	0	43	0	804257792	62	5269
2026-01-27 11:10:14.83	302.09	26.76	-44.5	-47.3	17.0	0.00e+00	0	43	0	810549248	61	4736
2026-01-27 11:10:17.81	302.83	26.47	-44.8	-47.7	16.7	0.00e+00	0	43	0	815792128	60	5234
2026-01-27 11:10:20.80	303.57	26.17	-44.2	-46.8	17.5	0.00e+00	0	43	0	821035008	60	4740
2026-01-27 11:10:23.78	304.28	25.88	-44.4	-47.1	17.2	0.00e+00	0	43	0	827326464	60	4917
2026-01-27 11:10:26.76	304.99	25.58	-46.2	-49.7	14.7	0.00e+00	0	43	0	832569344	62	5878
2026-01-27 11:10:29.74	305.68	25.28	-45.0	-48.0	16.4	0.00e+00	0	43	0	837812224	62	4819
2026-01-27 11:10:32.73	306.36	24.98	-44.6	-47.4	17.0	0.00e+00	0	43	0	844103680	60	5060
2026-01-27 11:10:35.71	307.03	24.68	-45.1	-48.1	16.2	0.00e+00	0	43	0	849346560	61	5211
2026-01-27 11:10:38.69	307.69	24.38	-44.1	-46.7	17.6	0.00e+00	0	43	0	854589440	60	4693
2026-01-27 11:10:41.68	308.33	24.08	-44.4	-47.1	17.1	0.00e+00	0	43	0	860880896	59	5218
2026-01-27 11:10:44.66	308.96	23.77	-44.7	-47.5	16.7	0.00e+00	0	43	0	866123776	60	5123
2026-01-27 11:10:47.65	309.58	23.47	-43.7	-46.2	18.0	0.00e+00	0	43	0	871366656	59	4659
2026-01-27 11:10:50.63	310.19	23.17	-44.6	-47.4	16.8	0.00e+00	0	43	0	877658112	59	5362
2026-01-27 11:10:53.62	310.79	22.87	-44.6	-47.6	16.7	0.00e+00	0	43	0	882900992	60	5180
2026-01-27 11:10:56.60	311.37	22.57	-43.9	-46.7	17.5	0.00e+00	0	43	0	888143872	59	4945
2026-01-27 11:10:59.58	311.95	22.27	-43.6	-46.3	17.9	0.00e+00	0	43	0	894435328	59	4723
2026-01-27 11:11:02.56	312.51	21.97	-43.6	-46.2	17.9	0.00e+00	0	43	0	899678208	59	4674
2026-01-27 11:11:05.55	313.06	21.67	-43.3	-45.7	18.4	0.00e+00	0	43	0	904921088	58	4701
2026-01-27 11:11:08.53	313.61	21.37	-43.6	-46.1	18.0	0.00e+00	0	44	0	911212544	58	4919
2026-01-27 11:11:11.52	314.14	21.08	-43.6	-46.1	18.0	0.00e+00	0	43	0	916455424	58	4926
2026-01-27 11:11:14.50	314.66	20.78	-43.2	-45.7	18.5	0.00e+00	0	43	0	921698304	58	4661
2026-01-27 11:11:17.49	315.18	20.49	-43.0	-45.4	18.7	0.00e+00	0	43	0	927989760	57	4801
2026-01-27 11:11:20.47	315.68	20.20	-42.9	-45.3	18.7	0.00e+00	0	43	0	933232640	57	4758
2026-01-27 11:11:23.45	316.17	19.90	-43.0	-45.4	18.7	0.00e+00	0	43	0	938475520	57	4774
2026-01-27 11:11:26.44	316.66	19.61	-42.7	-45.0	19.0	0.00e+00	0	43	0	944766976	57	4561
2026-01-27 11:11:29.42	317.14	19.32	-42.7	-45.1	18.9	0.00e+00	0	43	0	950009856	57	4628
2026-01-27 11:11:32.41	317.61	19.04	-42.9	-45.4	18.6	0.00e+00	0	43	0	955252736	57	4793
2026-01-27 11:11:35.39	318.07	18.75	-43.0	-45.7	18.4	0.00e+00	0	43	0	961544192	57	4934
2026-01-27 11:11:38.37	318.52	18.47	-42.9	-45.4	18.6	0.00e+00	0	43	0	966787072	57	4814
2026-01-27 11:11:41.36	318.96	18.18	-42.9	-45.4	18.7	0.00e+00	0	43	0	972029952	57	4765
2026-01-27 11:11:44.34	319.40	17.90	-42.9	-45.3	18.6	0.00e+00	0	43	0	978321408	57	4758
2026-01-27 11:11:47.32	319.82	17.63	-43.2	-45.8	18.3	0.00e+00	0	43	0	983564288	57	4999
2026-01-27 11:11:50.31	320.24	17.35	-43.4	-46.1	17.9	0.00e+00	0	43	0	988807168	57	5169
2026-01-27 11:11:53.29	320.66	17.07	-43.3	-46.0	18.0	0.00e+00	0	43	0	995098624	57	5129
2026-01-27 11:11:56.28	321.06	16.80	-43.4	-46.1	17.9	0.00e+00	0	43	0	1000341504	57	5175
2026-01-27 11:11:59.26	321.46	16.53	-43.6	-46.3	17.7	0.00e+00	0	43	0	1005584384	57	5331
2026-01-27 11:12:02.24	321.85	16.26	-43.8	-46.6	17.4	0.00e+00	0	43	0	1011875840	58	5206
2026-01-27 11:12:05.22	322.23	15.99	-43.7	-46.5	17.5	0.00e+00	0	43	0	1017118720	58	5124
2026-01-27 11:12:08.21	322.61	15.72	-43.9	-46.7	17.4	0.00e+00	0	43	0	1022361600	58	5220
2026-01-27 11:12:11.19	322.98	15.45	-44.3	-47.0	17.0	0.00e+00	0	43	0	1028653056	59	5148
2026-01-27 11:12:14.18	323.35	15.19	-44.6	-47.4	16.6	0.00e+00	0	43	0	1033895936	59	5399
2026-01-27 11:12:17.16	323.71	14.93	-44.8	-47.9	16.2	0.00e+00	0	43	0	1039138816	60	5373
2026-01-27 11:12:20.14	324.06	14.67	-44.5	-47.6	16.4	0.00e+00	0	43	0	1045430272	60	5204
2026-01-27 11:12:23.12	324.41	14.41	-44.3	-47.6	16.4	0.00e+00	0	43	0	1050673152	60	5201
2026-01-27 11:12:26.11	324.75	14.16	-44.0	-47.3	16.7	0.00e+00	0	43	0	1055916032	59	5303
2026-01-27 11:12:29.09	325.09	13.90	-43.8	-47.1	16.9	0.00e+00	0	43	0	1062207488	59	5161
2026-01-27 11:12:32.08	325.42	13.65	-43.8	-46.9	17.0	0.00e+00	0	43	0	1067450368	59	5082
2026-01-27 11:12:35.06	325.74	13.40	-44.0	-47.1	16.8	0.00e+00	0	43	0	1072693248	59	5191
2026-01-27 11:12:38.05	326.06	13.15	-44.4	-47.6	16.3	0.00e+00	0	43	0	1078984704	59	5528
2026-01-27 11:12:41.03	326.38	12.90	-44.5	-47.8	16.1	0.00e+00	0	43	0	1084227584	59	5645
2026-01-27 11:12:44.01	326.69	12.66	-44.4	-47.6	16.4	0.00e+00	0	43	0	1089470464	59	5466
2026-01-27 11:12:47.00	326.99	12.41	-44.1	-47.1	16.8	0.00e+00	0	43	0	1095761920	59	5169
2026-01-27 11:12:49.98	327.29	12.17	-43.9	-46.7	17.2	0.00e+00	0	43	0	1101004800	59	4945
2026-01-27 11:12:52.97	327.59	11.93	-43.9	-46.7	17.2	0.00e+00	0	43	0	1106247680	59	4958
2026-01-27 11:12:55.95	327.88	11.69	-44.1	-46.9	16.9	0.00e+00	0	43	0	1112539136	59	5098
2026-01-27 11:12:58.93	328.17	11.46	-44.2	-47.2	16.6	0.00e+00	0	43	0	1117782016	59	5261
2026-01-27 11:13:01.92	328.45	11.22	-44.4	-47.5	16.4	0.00e+00	0	43	0	1123024896	59	5434
2026-01-27 11:13:04.90	328.73	10.99	-44.3	-47.4	16.5	0.00e+00	0	43	0	1129316352	59	5368
2026-01-27 11:13:07.88	329.00	10.76	-44.1	-47.1	16.8	0.00e+00	0	43	0	1134559232	59	5182
2026-01-27 11:13:10.87	329.27	10.53	-44.1	-47.0	16.8	0.00e+00	0	43	0	1139802112	59	5138
2026-01-27 11:13:13.85	329.54	10.30	-44.2	-47.1	16.7	0.00e+00	0	43	0	1146093568	59	5210
2026-01-27 11:13:16.83	329.80	10.07	-44.3	-47.5	16.3	0.00e+00	0	43	0	1151336448	59	5410
2026-01-27 11:13:19.81	330.06	9.85	-44.3	-47.4	16.4	0.00e+00	0	43	0	1156579328	59	5375
2026-01-27 11:13:22.79	330.31	9.62	-44.4	-47.5	16.3	0.00e+00	0	43	0	1162870784	59	5441
2026-01-27 11:13:25.77	330.56	9.40	-44.5	-47.6	16.2	0.00e+00	0	43	0	1168113664	59	5477
2026-01-27 11:13:28.75	330.81	9.18	-44.5	-47.5	16.2	0.00e+00	0	43	0	1173356544	59	5418
2026-01-27 11:13:31.74	331.05	8.96	-46.6	-51.1	13.1	0.00e+00	0	43	0	1179648000	63	6521
2026-01-27 11:13:34.72	331.29	8.74	-48.7	-64.7	3.8	1.49e+00	0	43	104	1179648000	68	23494
2026-01-27 11:13:37.70	331.53	8.53	-49.5	-64.9	3.8	1.49e+00	0	43	104	1179648000	69	22521
2026-01-27 11:13:40.68	331.76	8.31	-49.7	-65.0	3.8	1.49e+00	0	43	104	1179648000	70	21664
2026-01-27 11:13:43.65	331.99	8.10	-49.8	-65.1	3.8	1.49e+00	0	43	104	1179648000	70	21793
2026-01-27 11:13:46.63	332.22	7.89	-49.8	-65.1	3.8	1.49e+00	0	43	104	1179648000	70	21829
2026-01-27 11:13:49.61	332.44	7.68	-49.8	-65.1	3.8	1.49e+00	0	43	104	1179648000	70	21861
2026-01-27 11:13:52.59	332.66	7.47	-49.8	-65.1	3.8	1.49e+00	0	43	104	1179648000	70	21939
2026-01-27 11:13:55.57	332.88	7.26	-49.8	-65.1	3.8	1.49e+00	0	43	104	1179648000	70	21762
2026-01-27 11:13:58.55	333.10	7.06	-49.8	-65.1	3.8	1.49e+00	0	43	104	1179648000	70	21865
2026-01-27 11:14:01.53	333.31	6.85	-49.8	-65.1	3.8	1.49e+00	0	43	104	1179648000	70	21804
2026-01-27 11:14:04.51	333.52	6.65	-49.8	-65.1	3.8	1.49e+00	0	43	104	1179648000	70	21803
2026-01-27 11:14:07.49	333.72	6.45	-49.8	-65.1	3.8	1.49e+00	0	43	104	1179648000	70	21821
2026-01-27 11:14:10.47	333.93	6.25	-49.8	-65.1	3.8	1.49e+00	0	43	104	1179648000	70	21835
2026-01-27 11:14:13.45	334.13	6.05	-49.8	-65.1	3.8	1.49e+00	0	43	104	1179648000	70	21851
2026-01-27 11:14:16.42	334.33	5.85	-49.8	-65.1	3.8	1.49e+00	0	43	104	1179648000	70	21759
2026-01-27 11:14:19.40	334.53	5.65	-49.8	-65.0	3.8	1.49e+00	0	43	104	1179648000	70	21707
2026-01-27 11:14:22.38	334.72	5.46	-49.8	-65.0	3.8	1.49e+00	0	43	104	1179648000	70	21711
2026-01-27 11:14:25.36	334.91	5.26	-49.8	-65.1	3.8	1.49e+00	0	43	104	1179648000	70	21789
2026-01-27 11:14:28.34	335.10	5.07	-49.8	-65.1	3.8	1.49e+00	0	43	104	1179648000	70	21847

#Closed at: 2026-01-27 11:14:30
#Recorded file [1179 MB]: D:/Data/31040_260127_140223.dat