passes_logs/2026/01/27/T1/T1__20260127_014733_FENGYUN_3D_rec.log

#Pass ID: 20260127_014733_FENGYUN 3D
#Satellite: FENGYUN 3D
#Configuration: FENGYUN 3D
#almurnet v.1.7.20251203
#Start time: 2026-01-27 01:47:32

#Version: 2.0.20230620
#Station: T1
#Location: 37.570604 lon 55.790049 lat
#TLE: 1 43010U 17072A   26026.49129444  .00000151  00000+0  93391-4 0  9993
#TLE: 2 43010  98.9962 358.4866 0002525  88.1664 271.9801 14.19700337424889

#Time	Az	El	Level	Level2	SNR	BER	BlckErr	Temp	State	Recorded	gain1	gain2
2026-01-27 01:47:32.96	16.80	4.96	-48.3	-61.0	3.8	8.46e-01	0	41	0	0	67	16304
2026-01-27 01:47:36.93	16.82	5.24	-48.2	-61.1	3.8	8.46e-01	0	41	104	0	67	16337
2026-01-27 01:47:40.90	16.83	5.53	-48.3	-61.0	3.8	8.46e-01	0	41	104	0	67	16260
2026-01-27 01:47:44.87	16.85	5.82	-48.2	-61.0	3.8	8.47e-01	0	41	104	0	67	16178
2026-01-27 01:47:48.85	16.87	6.11	-48.2	-61.1	3.8	8.47e-01	0	42	104	0	67	16332
2026-01-27 01:47:52.82	16.88	6.41	-48.2	-60.9	3.8	8.46e-01	0	42	104	0	67	16088
2026-01-27 01:47:56.79	16.90	6.71	-48.2	-60.2	3.8	8.47e-01	0	42	104	0	67	14795
2026-01-27 01:48:00.77	16.91	7.01	-48.0	-58.7	4.0	8.46e-01	0	42	104	0	67	12514
2026-01-27 01:48:04.74	16.93	7.32	-47.8	-57.2	4.3	8.35e-01	0	42	0	0	67	10496
2026-01-27 01:48:08.71	16.95	7.63	-47.6	-55.9	4.8	7.96e-01	0	42	0	0	67	9013
2026-01-27 01:48:12.68	16.96	7.95	-47.1	-53.9	6.1	3.89e-01	0	42	0	4194304	66	7630
2026-01-27 01:48:16.66	16.98	8.27	-46.2	-51.4	8.4	5.64e-02	0	42	0	27262976	64	6365
2026-01-27 01:48:20.63	17.00	8.59	-45.0	-49.0	10.9	3.84e-03	0	42	0	49283072	62	5425
2026-01-27 01:48:24.60	17.01	8.91	-44.1	-47.5	12.5	2.00e-04	0	43	0	71303168	60	5109
2026-01-27 01:48:28.56	17.03	9.25	-44.3	-47.7	12.4	1.50e-04	0	43	0	94371840	59	5534
2026-01-27 01:48:32.54	17.05	9.58	-39.5	-41.6	18.4	0.00e+00	0	43	0	113246208	51	4342
2026-01-27 01:48:36.53	17.06	9.92	-38.6	-40.6	19.4	0.00e+00	0	43	0	136314880	49	4349
2026-01-27 01:48:40.51	17.08	10.27	-38.6	-40.6	19.3	0.00e+00	0	43	0	158334976	49	4374
2026-01-27 01:48:44.49	17.09	10.62	-38.5	-40.4	19.5	0.00e+00	0	43	0	180355072	49	4277
2026-01-27 01:48:48.40	17.11	10.97	-38.4	-40.3	19.7	0.00e+00	0	43	0	202375168	48	4459
2026-01-27 01:48:52.38	17.13	11.33	-38.3	-40.3	19.8	0.00e+00	0	43	0	225443840	48	4444
2026-01-27 01:48:56.36	17.14	11.70	-38.4	-40.3	19.7	0.00e+00	0	43	0	247463936	48	4487
2026-01-27 01:49:00.42	17.16	12.08	-38.3	-40.2	19.8	0.00e+00	0	43	0	270532608	48	4431
2026-01-27 01:49:04.40	17.18	12.46	-38.5	-40.3	19.7	0.00e+00	0	43	0	292552704	48	4485
2026-01-27 01:49:08.38	17.19	12.84	-38.2	-40.0	20.1	0.00e+00	0	43	0	315621376	48	4317
2026-01-27 01:49:12.36	17.21	13.23	-38.2	-40.0	20.0	0.00e+00	0	43	0	337641472	48	4325
2026-01-27 01:49:16.37	17.22	13.63	-38.1	-39.9	20.2	0.00e+00	0	43	0	359661568	48	4259
2026-01-27 01:49:20.47	17.24	14.05	-38.1	-39.9	20.2	0.00e+00	0	43	0	382730240	48	4255
2026-01-27 01:49:24.45	17.26	14.46	-37.7	-39.6	20.3	0.00e+00	0	43	0	405798912	47	4341
2026-01-27 01:49:28.43	17.27	14.87	-37.7	-39.5	20.4	0.00e+00	0	43	0	427819008	47	4303
2026-01-27 01:49:32.71	17.29	15.33	-37.5	-39.2	20.7	0.00e+00	0	43	0	451936256	46	4437
2026-01-27 01:49:36.69	17.31	15.76	-37.4	-39.1	20.7	0.00e+00	0	43	0	473956352	46	4386
2026-01-27 01:49:40.67	17.32	16.21	-37.5	-39.3	20.6	0.00e+00	0	43	0	497025024	46	4467
2026-01-27 01:49:44.72	17.34	16.66	-37.2	-39.0	20.9	0.00e+00	0	43	0	520093696	46	4296
2026-01-27 01:49:48.90	17.36	17.14	-37.1	-38.9	21.0	0.00e+00	0	43	0	543162368	46	4263
2026-01-27 01:49:53.23	17.37	17.65	-36.8	-38.6	21.3	0.00e+00	0	43	0	567279616	45	4345
2026-01-27 01:49:57.78	17.39	18.20	-36.6	-38.4	21.5	0.00e+00	0	44	0	593494016	45	4248
2026-01-27 01:50:02.43	17.41	18.77	-36.3	-38.0	21.8	0.00e+00	0	43	0	618659840	44	4314
2026-01-27 01:50:07.07	17.43	19.35	-36.0	-37.7	22.1	0.00e+00	0	43	0	644874240	44	4166
2026-01-27 01:50:11.90	17.45	19.97	-35.6	-37.3	22.3	0.00e+00	0	43	0	672137216	43	4226
2026-01-27 01:50:16.44	17.47	20.57	-35.5	-37.2	22.4	0.00e+00	0	43	0	698351616	43	4173
2026-01-27 01:50:20.82	17.49	21.16	-35.5	-37.1	22.5	0.00e+00	0	43	0	722468864	43	4140
2026-01-27 01:50:25.44	17.51	21.80	-35.5	-37.2	22.4	0.00e+00	0	43	0	748683264	42	4421
2026-01-27 01:50:29.98	17.52	22.45	-35.5	-37.2	22.4	0.00e+00	0	44	0	773849088	42	4428
2026-01-27 01:50:34.51	17.54	23.11	-35.1	-36.8	22.8	0.00e+00	0	44	0	800063488	42	4239
2026-01-27 01:50:38.97	17.56	23.78	-35.2	-36.8	22.8	0.00e+00	0	43	0	825229312	42	4241
2026-01-27 01:50:43.76	17.58	24.51	-35.1	-36.8	22.8	0.00e+00	0	44	0	851443712	42	4229
2026-01-27 01:50:48.31	17.60	25.23	-34.8	-36.5	23.1	0.00e+00	0	43	0	877658112	41	4301
2026-01-27 01:50:52.86	17.62	25.97	-34.7	-36.4	23.2	0.00e+00	0	43	0	902823936	41	4249
2026-01-27 01:50:57.59	17.64	26.76	-34.7	-36.4	23.2	0.00e+00	0	44	0	929038336	41	4250
2026-01-27 01:51:02.12	17.66	27.54	-34.5	-36.2	23.4	0.00e+00	0	44	0	955252736	41	4150
2026-01-27 01:51:06.66	17.68	28.35	-34.4	-36.0	23.5	0.00e+00	0	43	0	980418560	40	4320
2026-01-27 01:51:10.81	17.69	29.10	-34.8	-36.5	23.1	0.00e+00	0	44	0	1003487232	40	4558
2026-01-27 01:51:14.81	17.71	29.85	-34.9	-36.6	23.1	0.00e+00	0	44	0	1026555904	40	4604
2026-01-27 01:51:18.79	17.73	30.62	-34.9	-36.6	23.1	0.00e+00	0	44	0	1048576000	40	4611
2026-01-27 01:51:22.76	17.74	31.40	-34.9	-36.6	23.1	0.00e+00	0	44	0	1071644672	40	4605
2026-01-27 01:51:26.69	17.76	32.20	-34.5	-36.2	23.4	0.00e+00	0	44	0	1092616192	40	4407
2026-01-27 01:51:30.85	17.78	33.07	-34.1	-35.7	23.9	0.00e+00	0	44	0	1116733440	40	4165
2026-01-27 01:51:34.83	17.79	33.93	-34.4	-36.0	23.6	0.00e+00	0	44	0	1138753536	40	4340
2026-01-27 01:51:38.85	17.81	34.81	-34.3	-35.9	23.7	0.00e+00	0	44	0	1161822208	40	4270
2026-01-27 01:51:42.96	17.83	35.75	-34.3	-35.9	23.7	0.00e+00	0	44	0	1184890880	40	4282
2026-01-27 01:51:47.10	17.85	36.72	-34.0	-35.6	23.9	0.00e+00	0	44	0	1207959552	40	4134
2026-01-27 01:51:51.10	17.87	37.69	-34.1	-35.7	23.9	0.00e+00	0	44	0	1231028224	39	4409
2026-01-27 01:51:55.15	17.88	38.70	-34.3	-36.0	23.7	0.00e+00	0	44	0	1253048320	39	4547
2026-01-27 01:51:59.16	17.90	39.73	-34.1	-35.7	23.9	0.00e+00	0	44	0	1276116992	39	4430
2026-01-27 01:52:03.23	17.92	40.80	-34.6	-36.2	23.5	0.00e+00	0	44	0	1298137088	39	4672
2026-01-27 01:52:07.24	17.94	41.89	-34.4	-36.1	23.6	0.00e+00	0	44	0	1321205760	39	4610
2026-01-27 01:52:11.24	17.96	43.02	-34.8	-36.5	23.2	0.00e+00	0	44	0	1343225856	40	4561
2026-01-27 01:52:15.25	17.98	44.18	-34.7	-36.3	23.4	0.00e+00	0	44	0	1366294528	40	4461
2026-01-27 01:52:19.26	18.00	45.38	-35.2	-36.9	22.9	0.00e+00	0	44	0	1389363200	41	4521
2026-01-27 01:52:23.26	18.02	46.61	-34.9	-36.5	23.2	0.00e+00	0	43	0	1411383296	41	4340
2026-01-27 01:52:27.24	18.04	47.87	-34.5	-36.3	22.9	0.00e+00	0	44	0	1433403392	41	4209
2026-01-27 01:52:31.17	18.06	49.15	-34.5	-36.2	23.0	0.00e+00	0	44	0	1455423488	40	4407
2026-01-27 01:52:35.15	18.08	50.49	-35.3	-37.1	22.2	0.00e+00	0	44	0	1478492160	41	4620
2026-01-27 01:52:39.15	18.10	51.88	-35.4	-37.2	22.1	0.00e+00	0	44	0	1500512256	41	4678
2026-01-27 01:52:43.33	18.12	53.37	-35.7	-37.5	21.9	0.00e+00	0	44	0	1524629504	42	4547
2026-01-27 01:52:47.53	18.15	54.92	-35.6	-37.4	21.9	0.00e+00	0	44	0	1547698176	42	4518
2026-01-27 01:52:51.83	18.17	56.55	-35.8	-37.5	21.9	0.00e+00	0	44	0	1571815424	42	4595
2026-01-27 01:52:56.05	18.20	58.20	-35.5	-37.2	22.1	0.00e+00	0	44	0	1595932672	42	4428
2026-01-27 01:53:00.21	18.23	59.88	-34.5	-36.2	23.0	0.00e+00	0	44	0	1619001344	41	4164
2026-01-27 01:53:04.16	18.26	61.51	-34.8	-36.5	22.8	0.00e+00	0	44	0	1641021440	40	4569
2026-01-27 01:53:08.14	18.29	63.19	-34.4	-36.1	23.1	0.00e+00	0	44	0	1664090112	40	4363
2026-01-27 01:53:12.18	18.32	64.95	-34.0	-35.7	23.5	0.00e+00	0	44	0	1686110208	39	4394
2026-01-27 01:53:16.22	18.36	66.74	-33.8	-35.5	23.5	0.00e+00	0	43	0	1709178880	39	4334
2026-01-27 01:53:20.57	18.40	68.72	-33.8	-35.5	23.6	0.00e+00	0	44	0	1733296128	39	4313
2026-01-27 01:53:24.83	18.46	70.70	-33.2	-34.9	24.0	0.00e+00	0	44	0	1757413376	38	4255
2026-01-27 01:53:28.84	18.51	72.60	-33.3	-35.0	23.9	0.00e+00	0	44	0	1780482048	38	4306
2026-01-27 01:53:33.15	18.58	74.68	-33.0	-34.6	24.1	0.00e+00	0	44	0	1804599296	37	4378
2026-01-27 01:53:37.78	18.68	76.95	-32.6	-34.3	24.5	0.00e+00	0	44	0	1830813696	37	4213
2026-01-27 01:53:42.33	18.82	79.22	-32.3	-34.0	24.5	0.00e+00	0	44	0	1855979520	36	4313
2026-01-27 01:53:46.94	19.02	81.55	-32.5	-34.2	24.4	0.00e+00	0	44	0	1882193920	36	4434
2026-01-27 01:53:51.22	19.33	83.73	-31.0	-32.7	24.7	0.00e+00	0	44	0	1906311168	34	4173
2026-01-27 01:53:55.21	19.90	85.78	-31.5	-33.2	24.2	0.00e+00	0	44	0	1928331264	34	4415
2026-01-27 01:53:59.19	21.51	87.83	-31.7	-33.4	24.1	0.00e+00	0	44	0	1951399936	34	4527
2026-01-27 01:54:03.20	70.63	89.84	-33.6	-35.3	23.6	0.00e+00	0	44	0	1973420032	37	4746
2026-01-27 01:54:07.18	194.60	88.03	-48.1	-54.3	6.3	3.00e-01	0	44	0	1988100096	68	7091
2026-01-27 01:54:11.16	196.48	85.98	-48.9	-57.1	4.6	8.25e-01	0	44	0	2001731584	68	9719
2026-01-27 01:54:15.18	197.10	83.92	-47.3	-52.5	7.8	9.77e-02	0	44	0	2023751680	66	6475
2026-01-27 01:54:19.16	197.41	81.88	-49.1	-57.5	4.4	8.36e-01	0	44	0	2042626048	69	9707
2026-01-27 01:54:23.16	197.60	79.86	-49.6	-60.9	3.8	8.47e-01	0	44	104	2043674624	70	13520
2026-01-27 01:54:27.26	197.73	77.80	-49.3	-58.4	4.1	8.46e-01	0	44	104	2043674624	70	10118
2026-01-27 01:54:31.25	197.83	75.83	-49.1	-57.4	4.5	7.78e-01	0	44	0	2057306112	68	10116
2026-01-27 01:54:35.27	197.90	73.87	-48.3	-55.4	5.6	7.27e-01	0	44	0	2059403264	68	7993
2026-01-27 01:54:39.54	197.97	71.82	-49.0	-57.0	4.7	8.28e-01	0	44	0	2065694720	69	9072
2026-01-27 01:54:43.52	198.02	69.94	-48.3	-54.4	6.2	3.15e-01	0	44	0	2081423360	68	7178
2026-01-27 01:54:47.53	198.07	68.09	-48.5	-54.8	5.9	8.15e-01	0	44	0	2092957696	69	7106
2026-01-27 01:54:51.54	198.11	66.27	-48.9	-57.2	4.6	8.22e-01	0	44	0	2095054848	69	9306
2026-01-27 01:54:55.52	198.14	64.51	-49.1	-57.7	4.0	8.45e-01	0	44	104	2102394880	70	9374
2026-01-27 01:55:00.10	198.18	62.53	-48.3	-54.6	6.2	3.35e-01	0	44	0	2118123520	68	7289
2026-01-27 01:55:04.65	198.21	60.62	-49.0	-57.0	4.6	8.46e-01	0	44	104	2130706432	70	8637
2026-01-27 01:55:08.55	198.24	59.02	-48.4	-54.9	5.9	4.17e-01	0	44	0	2138046464	68	7558
2026-01-27 01:55:12.53	198.26	57.44	-49.6	-60.7	3.8	7.87e-01	0	44	104	2152726528	69	13976
2026-01-27 01:55:16.51	198.29	55.90	-48.9	-56.2	5.0	7.70e-01	0	44	0	2152726528	69	8347
2026-01-27 01:55:20.49	198.31	54.39	-48.8	-56.0	5.2	7.48e-01	0	44	0	2152726528	69	8116
2026-01-27 01:55:24.46	198.33	52.94	-49.5	-59.4	3.8	8.48e-01	0	44	104	2152726528	69	12090
2026-01-27 01:55:28.44	198.36	51.52	-48.6	-55.3	5.5	6.91e-01	0	44	0	2152726528	69	7543
2026-01-27 01:55:32.42	198.38	50.15	-48.4	-55.6	5.4	7.88e-01	0	44	0	2152726528	68	8208
2026-01-27 01:55:36.40	198.40	48.81	-48.6	-56.2	5.0	7.77e-01	0	44	0	2152726528	68	8860
2026-01-27 01:55:40.38	198.41	47.51	-49.4	-59.1	4.0	7.79e-01	0	44	0	2152726528	69	11661
2026-01-27 01:55:44.36	198.43	46.26	-37.1	-38.9	20.9	0.00e+00	0	44	0	2165309440	46	4290
2026-01-27 01:55:48.34	198.45	45.04	-34.4	-36.1	23.0	0.00e+00	0	44	0	2187329536	40	4373
2026-01-27 01:55:52.32	198.47	43.85	-34.2	-35.9	23.1	0.00e+00	0	44	0	2210398208	40	4259
2026-01-27 01:55:56.30	198.49	42.70	-34.6	-36.4	22.7	0.00e+00	0	44	0	2232418304	40	4495
2026-01-27 01:56:00.22	198.50	41.60	-34.1	-35.8	23.2	0.00e+00	0	44	0	2254438400	40	4204
2026-01-27 01:56:04.20	198.52	40.52	-33.9	-35.6	23.3	0.00e+00	0	44	0	2277507072	39	4367
2026-01-27 01:56:08.26	198.54	39.45	-33.8	-35.5	23.4	0.00e+00	0	44	0	2300575744	39	4328
2026-01-27 01:56:12.30	198.55	38.41	-33.5	-35.2	23.6	0.00e+00	0	44	0	2322595840	38	4409
2026-01-27 01:56:16.33	198.57	37.41	-33.5	-35.2	23.6	0.00e+00	0	44	0	2345664512	38	4404
2026-01-27 01:56:20.40	198.59	36.43	-34.1	-35.9	23.1	0.00e+00	0	44	0	2368733184	38	4768
2026-01-27 01:56:24.48	198.60	35.47	-34.0	-35.7	23.2	0.00e+00	0	44	0	2390753280	39	4409
2026-01-27 01:56:28.46	198.62	34.57	-33.8	-35.5	23.3	0.00e+00	0	44	0	2413821952	39	4326
2026-01-27 01:56:32.44	198.63	33.69	-33.9	-35.6	23.3	0.00e+00	0	44	0	2435842048	39	4351
2026-01-27 01:56:36.60	198.65	32.80	-34.3	-36.0	23.0	0.00e+00	0	44	0	2459959296	39	4566
2026-01-27 01:56:40.61	198.67	31.96	-34.6	-36.4	22.6	0.00e+00	0	44	0	2481979392	39	4782
2026-01-27 01:56:44.61	198.68	31.15	-34.8	-36.5	22.5	0.00e+00	0	44	0	2505048064	40	4592
2026-01-27 01:56:48.60	198.70	30.36	-34.7	-36.5	22.5	0.00e+00	0	44	0	2527068160	40	4553
2026-01-27 01:56:52.59	198.71	29.60	-34.6	-36.4	22.6	0.00e+00	0	44	0	2549088256	40	4522
2026-01-27 01:56:57.18	198.73	28.74	-34.3	-36.1	22.8	0.00e+00	0	44	0	2575302656	40	4354
2026-01-27 01:57:01.16	198.74	28.02	-34.0	-35.7	23.2	0.00e+00	0	44	0	2597322752	40	4164
2026-01-27 01:57:05.14	198.76	27.31	-33.9	-35.6	23.3	0.00e+00	0	44	0	2619342848	39	4385
2026-01-27 01:57:09.27	198.77	26.60	-34.1	-35.8	23.1	0.00e+00	0	44	0	2643460096	39	4491
2026-01-27 01:57:13.46	198.79	25.90	-34.3	-36.1	23.0	0.00e+00	0	44	0	2666528768	39	4606
2026-01-27 01:57:17.47	198.80	25.24	-34.5	-36.2	22.8	0.00e+00	0	44	0	2689597440	39	4682
2026-01-27 01:57:21.45	198.81	24.60	-34.6	-36.4	22.6	0.00e+00	0	44	0	2711617536	39	4760
2026-01-27 01:57:25.44	198.83	23.98	-34.7	-36.4	22.6	0.00e+00	0	44	0	2733637632	40	4535
2026-01-27 01:57:29.41	198.84	23.38	-34.8	-36.6	22.4	0.00e+00	0	44	0	2756706304	40	4614
2026-01-27 01:57:33.60	198.86	22.75	-34.9	-36.7	22.3	0.00e+00	0	44	0	2779774976	41	4411
2026-01-27 01:57:37.58	198.87	22.18	-35.1	-36.9	22.2	0.00e+00	0	44	0	2802843648	41	4499
2026-01-27 01:57:41.57	198.88	21.61	-35.3	-37.1	22.0	0.00e+00	0	44	0	2824863744	41	4623
2026-01-27 01:57:45.65	198.90	21.04	-35.6	-37.4	21.8	0.00e+00	0	44	0	2847932416	41	4762
2026-01-27 01:57:49.64	198.91	20.50	-35.6	-37.4	21.7	0.00e+00	0	44	0	2869952512	41	4813
2026-01-27 01:57:53.66	198.92	19.97	-35.9	-37.7	21.5	0.00e+00	0	44	0	2893021184	42	4683
2026-01-27 01:57:57.65	198.94	19.45	-35.9	-37.7	21.5	0.00e+00	0	44	0	2915041280	42	4687
2026-01-27 01:58:01.63	198.95	18.94	-36.0	-37.9	21.3	0.00e+00	0	44	0	2938109952	42	4772
2026-01-27 01:58:05.80	198.96	18.42	-36.2	-38.0	21.2	0.00e+00	0	44	0	2961178624	43	4580
2026-01-27 01:58:09.78	198.98	17.93	-36.3	-38.1	21.1	0.00e+00	0	44	0	2983198720	43	4625
2026-01-27 01:58:13.83	198.99	17.45	-36.5	-38.4	20.9	0.00e+00	0	44	0	3006267392	43	4769
2026-01-27 01:58:17.84	199.00	16.97	-36.5	-38.3	20.9	0.00e+00	0	44	0	3029336064	43	4747
2026-01-27 01:58:21.82	199.02	16.51	-36.8	-38.7	20.7	0.00e+00	0	44	0	3051356160	44	4686
2026-01-27 01:58:25.91	199.03	16.05	-36.8	-38.7	20.7	0.00e+00	0	44	0	3074424832	44	4682
2026-01-27 01:58:29.98	199.04	15.60	-37.0	-38.9	20.6	0.00e+00	0	44	0	3097493504	44	4763
2026-01-27 01:58:34.06	199.06	15.15	-37.0	-38.9	20.6	0.00e+00	0	44	0	3120562176	44	4769
2026-01-27 01:58:38.05	199.07	14.73	-37.1	-38.9	20.5	0.00e+00	0	44	0	3142582272	45	4539
2026-01-27 01:58:42.03	199.08	14.31	-37.1	-39.0	20.5	0.00e+00	0	44	0	3164602368	45	4569
2026-01-27 01:58:46.00	199.09	13.90	-37.2	-39.0	20.4	0.00e+00	0	44	0	3187671040	45	4596
2026-01-27 01:58:50.06	199.11	13.48	-37.4	-39.3	20.2	0.00e+00	0	44	0	3209691136	45	4725
2026-01-27 01:58:54.05	199.12	13.08	-37.3	-39.2	20.3	0.00e+00	0	44	0	3232759808	45	4682
2026-01-27 01:58:58.02	199.13	12.69	-37.3	-39.2	20.2	0.00e+00	0	44	0	3254779904	45	4702
2026-01-27 01:59:02.00	199.15	12.31	-37.4	-39.4	20.1	0.00e+00	0	44	0	3277848576	45	4768
2026-01-27 01:59:05.99	199.16	11.93	-37.5	-39.4	20.1	0.00e+00	0	44	0	3299868672	45	4794
2026-01-27 01:59:09.97	199.17	11.55	-37.6	-39.6	19.9	0.00e+00	0	44	0	3321888768	45	4872
2026-01-27 01:59:13.96	199.18	11.18	-37.6	-39.5	19.9	0.00e+00	0	44	0	3344957440	46	4598
2026-01-27 01:59:18.10	199.20	10.81	-37.8	-39.7	19.8	0.00e+00	0	44	0	3368026112	46	4694
2026-01-27 01:59:22.03	199.21	10.46	-37.9	-39.9	19.6	0.00e+00	0	44	0	3390046208	46	4779
2026-01-27 01:59:26.01	199.22	10.10	-38.2	-40.2	19.3	0.00e+00	0	44	0	3412066304	47	4657
2026-01-27 01:59:29.99	199.23	9.76	-38.1	-40.1	19.4	0.00e+00	0	44	0	3434086400	47	4607
2026-01-27 01:59:33.96	199.24	9.41	-38.2	-40.2	19.2	0.00e+00	0	44	0	3457155072	47	4703
2026-01-27 01:59:38.09	199.26	9.06	-38.3	-40.3	19.1	0.00e+00	0	44	0	3480223744	47	4724
2026-01-27 01:59:42.06	199.27	8.73	-49.3	-61.8	3.8	8.45e-01	0	44	104	3485466624	69	15806
2026-01-27 01:59:46.05	199.28	8.40	-49.6	-61.9	3.8	8.47e-01	0	44	104	3485466624	70	15161
2026-01-27 01:59:50.02	199.29	8.08	-49.7	-62.0	3.8	8.47e-01	0	44	104	3485466624	70	15285
2026-01-27 01:59:54.00	199.31	7.76	-49.5	-62.0	3.8	8.47e-01	0	44	104	3485466624	70	15236
2026-01-27 01:59:57.99	199.32	7.44	-49.8	-61.9	3.8	8.48e-01	0	44	104	3485466624	70	15204
2026-01-27 02:00:01.96	199.33	7.13	-49.6	-61.9	3.8	8.46e-01	0	44	104	3485466624	70	15133
2026-01-27 02:00:05.94	199.34	6.82	-49.6	-61.9	3.8	8.47e-01	0	44	104	3485466624	70	15055
2026-01-27 02:00:09.96	199.35	6.51	-49.5	-61.9	3.8	8.46e-01	0	44	104	3485466624	70	15089
2026-01-27 02:00:13.94	199.37	6.21	-49.5	-61.9	3.8	8.47e-01	0	44	104	3485466624	70	15100
2026-01-27 02:00:17.91	199.38	5.92	-49.5	-61.9	3.8	8.48e-01	0	44	104	3485466624	70	15060
2026-01-27 02:00:21.90	199.39	5.62	-49.5	-61.9	3.8	8.48e-01	0	44	104	3485466624	70	15094
2026-01-27 02:00:25.90	199.40	5.33	-49.5	-61.9	3.8	8.47e-01	0	44	104	3485466624	70	15088
2026-01-27 02:00:29.89	199.41	5.04	-49.4	-61.9	3.8	8.48e-01	0	44	104	3485466624	70	15076

#Closed at: 2026-01-27 02:00:31
#Recorded file [3485 MB]: D:/Data/31040_260127_044732.dat