passes_logs/2026/01/27/T1/T1__20260127_083220_NOAA_21_JPSS-2_rec.log

#Pass ID: 20260127_083220_NOAA 21 (JPSS-2)
#Satellite: NOAA 21 (JPSS-2)
#Configuration: NOAA 21
#almurnet v.1.7.20251203
#Start time: 2026-01-27 08:32:22

#Version: 2.0.20230620
#Station: T1
#Location: 37.570604 lon 55.790049 lat
#TLE: 1 54234U 22150A   26026.78373243  .00000177  00000+0  10458-3 0  9996
#TLE: 2 54234  98.7509 327.5416 0000822 208.1870 151.9262 14.19539807166482

#Time	Az	El	Level	Level2	SNR	BER	BlckErr	Temp	State	Recorded	gain1	gain2
2026-01-27 08:32:22.77	116.26	5.14	-49.5	-62.6	3.8	1.49e+00	0	41	0	0	71	15532
2026-01-27 08:32:25.75	116.04	5.34	-49.5	-62.6	3.8	1.49e+00	0	41	104	0	71	15406
2026-01-27 08:32:28.74	115.83	5.53	-49.5	-62.5	3.8	1.49e+00	0	41	104	0	71	15367
2026-01-27 08:32:31.73	115.61	5.72	-49.5	-62.5	3.8	1.49e+00	0	41	104	0	71	15382
2026-01-27 08:32:34.72	115.38	5.92	-49.5	-62.6	3.8	1.49e+00	0	42	104	0	71	15458
2026-01-27 08:32:37.70	115.16	6.11	-49.5	-62.6	3.8	1.49e+00	0	42	104	0	71	15489
2026-01-27 08:32:40.69	114.93	6.31	-49.5	-62.5	3.8	1.49e+00	0	42	104	0	71	15262
2026-01-27 08:32:43.68	114.70	6.50	-49.4	-62.0	3.8	1.49e+00	0	42	104	0	70	15375
2026-01-27 08:32:46.66	114.47	6.70	-49.4	-61.6	3.8	1.49e+00	0	42	104	0	70	14546
2026-01-27 08:32:49.65	114.23	6.90	-49.4	-61.6	3.8	1.49e+00	0	42	104	0	70	14571
2026-01-27 08:32:52.64	113.99	7.10	-49.4	-61.9	3.8	1.49e+00	0	42	104	0	70	15111
2026-01-27 08:32:55.63	113.74	7.30	-49.4	-61.8	3.8	1.49e+00	0	42	104	0	70	14986
2026-01-27 08:32:58.62	113.49	7.51	-49.4	-61.8	3.8	1.49e+00	0	42	104	0	70	15035
2026-01-27 08:33:01.61	113.24	7.71	-49.5	-62.6	3.8	1.49e+00	0	43	104	0	70	16411
2026-01-27 08:33:04.59	112.98	7.92	-48.6	-56.0	5.7	6.75e-01	0	42	0	0	69	8090
2026-01-27 08:33:07.58	112.72	8.12	-45.4	-48.7	12.7	2.12e-04	0	42	0	0	62	5244
2026-01-27 08:33:10.57	112.46	8.33	-43.0	-45.3	16.0	0.00e+00	0	43	0	0	58	4485
2026-01-27 08:33:13.56	112.19	8.54	-42.7	-44.9	16.3	0.00e+00	0	42	0	0	56	4792
2026-01-27 08:33:16.55	111.92	8.75	-44.6	-47.4	13.8	3.80e-06	0	43	0	0	59	5399
2026-01-27 08:33:19.53	111.65	8.96	-47.6	-53.2	7.9	3.48e-02	0	43	0	0	65	7447
2026-01-27 08:33:22.53	111.37	9.17	-46.1	-49.7	11.8	5.95e-05	0	43	0	0	62	5918
2026-01-27 08:33:25.53	111.08	9.38	-47.0	-51.4	10.0	2.18e-04	0	43	0	0	64	6419
2026-01-27 08:33:28.65	110.78	9.61	-45.2	-48.3	13.1	2.21e-05	0	43	0	0	62	5012
2026-01-27 08:33:31.49	110.51	9.81	-43.9	-46.5	14.9	0.00e+00	0	43	0	0	59	4832
2026-01-27 08:33:34.62	110.19	10.04	-43.2	-45.5	15.9	0.00e+00	0	43	0	0	58	4554
2026-01-27 08:33:37.46	109.91	10.25	-42.3	-44.4	16.9	0.00e+00	0	43	0	0	56	4542
2026-01-27 08:33:40.59	109.59	10.48	-41.6	-43.6	17.6	0.00e+00	0	43	0	0	55	4362
2026-01-27 08:33:43.43	109.29	10.68	-41.3	-43.2	18.0	0.00e+00	0	43	0	0	54	4414
2026-01-27 08:33:46.56	108.96	10.92	-41.0	-42.8	18.3	0.00e+00	0	43	0	0	54	4232
2026-01-27 08:33:49.41	108.66	11.13	-40.8	-42.7	18.5	0.00e+00	0	43	0	0	53	4414
2026-01-27 08:33:52.53	108.32	11.36	-40.7	-42.6	18.5	0.00e+00	0	43	0	0	53	4354
2026-01-27 08:33:55.38	108.00	11.57	-40.9	-42.8	18.3	0.00e+00	0	43	0	0	53	4468
2026-01-27 08:33:58.51	107.65	11.81	-40.8	-42.6	18.5	0.00e+00	0	43	0	0	53	4391
2026-01-27 08:34:01.35	107.33	12.03	-40.7	-42.5	18.7	0.00e+00	0	43	0	0	53	4331
2026-01-27 08:34:04.47	106.97	12.26	-40.6	-42.4	18.8	0.00e+00	0	43	0	0	53	4249
2026-01-27 08:34:07.32	106.63	12.48	-40.8	-42.6	18.6	0.00e+00	0	43	0	0	53	4383
2026-01-27 08:34:10.61	106.24	12.74	-40.8	-42.6	18.6	0.00e+00	0	43	0	0	53	4391
2026-01-27 08:34:13.31	105.91	12.94	-40.8	-42.6	18.6	0.00e+00	0	43	0	0	53	4366
2026-01-27 08:34:16.58	105.51	13.20	-40.7	-42.6	18.7	0.00e+00	0	43	0	0	53	4346
2026-01-27 08:34:19.46	105.14	13.42	-40.7	-42.5	18.7	0.00e+00	0	43	0	0	53	4325
2026-01-27 08:34:22.59	104.75	13.67	-40.5	-42.3	18.9	0.00e+00	0	43	0	0	52	4463
2026-01-27 08:34:25.81	104.33	13.92	-40.6	-42.4	18.7	0.00e+00	0	43	0	0	52	4543
2026-01-27 08:34:28.80	103.93	14.16	-40.6	-42.5	18.8	0.00e+00	0	44	0	0	52	4549
2026-01-27 08:34:31.78	103.53	14.39	-40.6	-42.4	18.9	0.00e+00	0	44	0	0	52	4513
2026-01-27 08:34:34.77	103.13	14.63	-40.5	-42.3	19.0	0.00e+00	0	43	0	0	52	4480
2026-01-27 08:34:37.86	102.70	14.88	-40.4	-42.2	19.1	0.00e+00	0	44	0	0	52	4394
2026-01-27 08:34:40.85	102.28	15.12	-40.4	-42.2	19.0	0.00e+00	0	43	0	0	52	4396
2026-01-27 08:34:43.98	101.83	15.37	-40.7	-42.5	18.8	0.00e+00	0	44	0	0	52	4575
2026-01-27 08:34:46.82	101.42	15.60	-40.7	-42.5	18.8	0.00e+00	0	44	0	0	52	4585
2026-01-27 08:34:49.94	100.95	15.85	-40.7	-42.5	18.8	0.00e+00	0	44	0	0	52	4596
2026-01-27 08:34:52.87	100.51	16.09	-40.9	-42.7	18.6	0.00e+00	0	43	0	0	52	4681
2026-01-27 08:34:56.11	100.02	16.35	-40.9	-42.8	18.5	0.00e+00	0	44	0	0	52	4726
2026-01-27 08:34:58.95	99.58	16.58	-41.0	-42.9	18.4	0.00e+00	0	44	0	0	52	4769
2026-01-27 08:35:01.99	99.10	16.83	-41.0	-42.9	18.5	0.00e+00	0	44	0	0	52	4773
2026-01-27 08:35:04.97	98.62	17.08	-41.0	-42.9	18.5	0.00e+00	0	44	0	0	52	4766
2026-01-27 08:35:07.96	98.13	17.32	-41.0	-42.9	18.5	0.00e+00	0	44	0	0	53	4520
2026-01-27 08:35:10.95	97.63	17.57	-40.7	-42.6	18.7	0.00e+00	0	44	0	0	53	4349
2026-01-27 08:35:13.93	97.13	17.81	-40.7	-42.5	18.8	0.00e+00	0	43	0	0	53	4296
2026-01-27 08:35:16.92	96.62	18.06	-40.6	-42.4	19.0	0.00e+00	0	44	0	0	53	4248
2026-01-27 08:35:19.90	96.10	18.30	-40.4	-42.1	19.2	0.00e+00	0	44	0	0	52	4391
2026-01-27 08:35:22.85	95.57	18.54	-40.3	-42.1	19.3	0.00e+00	0	43	0	0	52	4343
2026-01-27 08:35:25.93	95.02	18.80	-40.1	-41.9	19.4	0.00e+00	0	43	0	0	52	4262
2026-01-27 08:35:28.77	94.50	19.03	-40.1	-41.9	19.4	0.00e+00	0	44	0	0	52	4247
2026-01-27 08:35:31.90	93.92	19.28	-40.0	-41.7	19.7	0.00e+00	0	44	0	0	51	4429
2026-01-27 08:35:34.83	93.36	19.52	-39.8	-41.5	19.8	0.00e+00	0	44	0	0	51	4304
2026-01-27 08:35:37.95	92.76	19.78	-40.0	-41.8	19.5	0.00e+00	0	44	0	0	51	4448
2026-01-27 08:35:40.80	92.21	20.01	-40.2	-41.9	19.4	0.00e+00	0	44	0	0	51	4536
2026-01-27 08:35:43.92	91.59	20.26	-40.2	-41.9	19.5	0.00e+00	0	44	0	0	51	4530
2026-01-27 08:35:46.77	91.01	20.49	-40.0	-41.8	19.6	0.00e+00	0	44	0	0	51	4443
2026-01-27 08:35:49.91	90.37	20.74	-40.0	-41.7	19.7	0.00e+00	0	44	0	0	51	4430
2026-01-27 08:35:52.75	89.78	20.97	-39.8	-41.5	19.9	0.00e+00	0	44	0	0	51	4339
2026-01-27 08:35:55.96	89.10	21.23	-39.6	-41.3	20.0	0.00e+00	0	44	0	0	51	4210
2026-01-27 08:35:58.80	88.49	21.45	-39.5	-41.2	20.2	0.00e+00	0	43	0	0	50	4419
2026-01-27 08:36:01.93	87.81	21.69	-39.7	-41.4	20.0	0.00e+00	0	44	0	0	50	4511
2026-01-27 08:36:04.77	87.18	21.91	-39.6	-41.4	20.0	0.00e+00	0	44	0	0	50	4508
2026-01-27 08:36:07.98	86.46	22.16	-39.7	-41.4	19.9	0.00e+00	0	44	0	0	50	4540
2026-01-27 08:36:10.82	85.81	22.38	-39.7	-41.4	20.0	0.00e+00	0	44	0	0	50	4530
2026-01-27 08:36:14.02	85.07	22.62	-39.8	-41.5	19.9	0.00e+00	0	44	0	0	50	4586
2026-01-27 08:36:16.87	84.40	22.83	-39.7	-41.4	20.0	0.00e+00	0	44	0	0	50	4524
2026-01-27 08:36:19.99	83.66	23.06	-39.7	-41.5	19.9	0.00e+00	0	44	0	0	50	4567
2026-01-27 08:36:22.83	82.97	23.27	-40.0	-41.8	19.7	0.00e+00	0	44	0	0	50	4716
2026-01-27 08:36:25.96	82.20	23.49	-39.9	-41.6	19.8	0.00e+00	0	44	0	0	50	4621
2026-01-27 08:36:28.81	81.50	23.69	-40.1	-41.9	19.6	0.00e+00	0	44	0	0	50	4774
2026-01-27 08:36:31.94	80.71	23.91	-40.2	-42.0	19.6	0.00e+00	0	44	0	0	51	4555
2026-01-27 08:36:34.78	79.99	24.10	-40.0	-41.7	19.8	0.00e+00	0	44	0	0	51	4431
2026-01-27 08:36:37.97	79.16	24.31	-39.9	-41.7	19.8	0.00e+00	0	44	0	0	51	4396
2026-01-27 08:36:40.82	78.42	24.50	-40.1	-41.8	19.7	0.00e+00	0	44	0	0	51	4481
2026-01-27 08:36:44.07	77.56	24.71	-39.9	-41.6	19.8	0.00e+00	0	44	0	0	51	4355
2026-01-27 08:36:46.91	76.79	24.88	-40.2	-42.0	19.4	0.00e+00	0	44	0	0	51	4562
2026-01-27 08:36:50.04	75.95	25.07	-40.4	-42.2	19.4	0.00e+00	0	44	0	0	51	4678
2026-01-27 08:36:52.88	75.17	25.24	-40.1	-41.9	19.6	0.00e+00	0	43	0	0	51	4503
2026-01-27 08:36:56.00	74.30	25.42	-40.0	-41.7	19.8	0.00e+00	0	44	0	0	51	4410
2026-01-27 08:36:58.92	73.48	25.58	-39.7	-41.4	20.1	0.00e+00	0	44	0	0	51	4253
2026-01-27 08:37:02.08	72.59	25.74	-39.5	-41.2	20.3	0.00e+00	0	44	0	0	51	4171
2026-01-27 08:37:04.93	71.77	25.89	-39.7	-41.4	20.1	0.00e+00	0	44	0	0	51	4275
2026-01-27 08:37:08.01	70.88	26.04	-39.6	-41.3	20.2	0.00e+00	0	44	0	0	51	4214
2026-01-27 08:37:10.99	70.02	26.18	-39.7	-41.3	20.2	0.00e+00	0	44	0	0	51	4228
2026-01-27 08:37:13.97	69.14	26.31	-39.4	-41.1	20.4	0.00e+00	0	44	0	0	50	4361
2026-01-27 08:37:16.96	68.25	26.44	-39.6	-41.2	20.3	0.00e+00	0	43	0	0	50	4425
2026-01-27 08:37:19.94	67.36	26.56	-39.6	-41.3	20.3	0.00e+00	0	44	0	0	50	4450
2026-01-27 08:37:22.92	66.47	26.67	-39.8	-41.5	20.0	0.00e+00	0	44	0	0	50	4567
2026-01-27 08:37:25.91	65.56	26.77	-40.0	-41.7	19.9	0.00e+00	0	44	0	0	50	4662
2026-01-27 08:37:28.90	64.65	26.87	-39.9	-41.5	20.0	0.00e+00	0	44	0	0	50	4594
2026-01-27 08:37:31.85	63.75	26.96	-40.0	-41.8	19.7	0.00e+00	0	43	0	0	50	4714
2026-01-27 08:37:34.98	62.78	27.05	-40.0	-41.7	19.8	0.00e+00	0	44	0	0	50	4705
2026-01-27 08:37:37.82	61.90	27.11	-40.0	-41.7	19.8	0.00e+00	0	44	0	0	50	4688
2026-01-27 08:37:40.96	60.93	27.18	-40.4	-42.1	19.4	0.00e+00	0	43	0	0	51	4635
2026-01-27 08:37:43.80	60.04	27.24	-40.1	-41.9	19.6	0.00e+00	0	44	0	0	51	4504
2026-01-27 08:37:46.93	59.06	27.29	-40.0	-41.7	19.8	0.00e+00	0	43	0	0	51	4424
2026-01-27 08:37:49.77	58.17	27.33	-40.0	-41.8	19.7	0.00e+00	0	44	0	0	51	4445
2026-01-27 08:37:52.90	57.19	27.36	-39.9	-41.6	19.8	0.00e+00	0	43	0	0	51	4355
2026-01-27 08:37:55.74	56.29	27.38	-39.9	-41.6	19.9	0.00e+00	0	44	0	0	51	4358
2026-01-27 08:37:58.96	55.27	27.40	-40.0	-41.7	19.7	0.00e+00	0	43	0	0	51	4440
2026-01-27 08:38:01.83	54.37	27.40	-40.1	-41.8	19.7	0.00e+00	0	43	0	0	51	4459
2026-01-27 08:38:04.96	53.38	27.40	-39.7	-41.3	20.0	0.00e+00	0	43	0	0	51	4240
2026-01-27 08:38:07.80	52.48	27.39	-39.7	-41.3	20.1	0.00e+00	0	44	0	0	51	4239
2026-01-27 08:38:10.93	51.50	27.37	-39.8	-41.5	19.9	0.00e+00	0	44	0	0	51	4320
2026-01-27 08:38:13.77	50.60	27.34	-39.8	-41.5	20.0	0.00e+00	0	44	0	0	51	4304
2026-01-27 08:38:17.09	49.56	27.30	-40.1	-41.8	19.7	0.00e+00	0	44	0	0	51	4463
2026-01-27 08:38:20.30	48.55	27.25	-40.2	-41.9	19.6	0.00e+00	0	43	0	0	51	4544
2026-01-27 08:38:23.16	47.66	27.20	-40.2	-41.9	19.7	0.00e+00	0	44	0	0	51	4519
2026-01-27 08:38:26.37	46.66	27.13	-40.0	-41.7	19.8	0.00e+00	0	44	0	0	51	4407
2026-01-27 08:38:29.21	45.78	27.07	-40.1	-41.9	19.7	0.00e+00	0	44	0	0	51	4494
2026-01-27 08:38:32.46	44.78	26.98	-40.0	-41.7	19.9	0.00e+00	0	44	0	0	51	4401
2026-01-27 08:38:35.33	43.90	26.90	-40.2	-41.9	19.7	0.00e+00	0	44	0	0	51	4531
2026-01-27 08:38:38.46	42.95	26.80	-40.1	-41.8	19.8	0.00e+00	0	44	0	0	51	4452
2026-01-27 08:38:41.30	42.09	26.70	-39.8	-41.5	20.1	0.00e+00	0	43	0	0	51	4300
2026-01-27 08:38:44.49	41.13	26.58	-40.2	-41.9	19.7	0.00e+00	0	43	0	0	51	4519
2026-01-27 08:38:47.40	40.26	26.47	-40.3	-42.0	19.6	0.00e+00	0	44	0	0	51	4590
2026-01-27 08:38:50.59	39.32	26.33	-40.5	-42.2	19.4	0.00e+00	0	43	0	0	51	4687
2026-01-27 08:38:53.43	38.48	26.21	-40.2	-42.0	19.7	0.00e+00	0	43	0	0	51	4553
2026-01-27 08:38:56.56	37.57	26.06	-40.2	-42.0	19.6	0.00e+00	0	44	0	0	51	4558
2026-01-27 08:38:59.40	36.75	25.92	-40.4	-42.2	19.6	0.00e+00	0	44	0	0	51	4655
2026-01-27 08:39:02.53	35.86	25.77	-40.3	-42.0	19.6	0.00e+00	0	44	0	0	51	4596
2026-01-27 08:39:05.37	35.06	25.62	-40.0	-41.7	19.9	0.00e+00	0	44	0	0	51	4405
2026-01-27 08:39:08.60	34.15	25.44	-40.0	-41.8	19.7	0.00e+00	0	43	0	0	51	4447
2026-01-27 08:39:11.45	33.36	25.28	-40.1	-41.8	19.7	0.00e+00	0	43	0	0	51	4480
2026-01-27 08:39:14.57	32.51	25.10	-39.7	-41.3	20.2	0.00e+00	0	43	0	0	51	4242
2026-01-27 08:39:17.41	31.74	24.93	-40.1	-41.8	19.8	0.00e+00	0	43	0	0	51	4465
2026-01-27 08:39:20.54	30.90	24.74	-40.0	-41.7	19.6	0.00e+00	0	43	0	0	51	4436
2026-01-27 08:39:23.38	30.15	24.56	-39.9	-41.5	20.0	0.00e+00	0	43	0	0	51	4327
2026-01-27 08:39:26.68	29.29	24.34	-39.5	-41.1	20.5	0.00e+00	0	43	0	0	50	4366
2026-01-27 08:39:29.38	28.59	24.17	-39.8	-41.5	20.1	0.00e+00	0	43	0	0	50	4557
2026-01-27 08:39:32.60	27.77	23.95	-39.7	-41.3	20.2	0.00e+00	0	43	0	0	50	4488
2026-01-27 08:39:35.57	27.02	23.74	-40.1	-41.8	19.8	0.00e+00	0	43	0	0	50	4759
2026-01-27 08:39:38.55	26.28	23.54	-40.2	-41.9	19.6	0.00e+00	0	43	0	0	51	4544
2026-01-27 08:39:41.54	25.55	23.32	-39.7	-41.4	20.1	0.00e+00	0	43	0	0	51	4278
2026-01-27 08:39:44.52	24.83	23.11	-39.6	-41.4	20.2	0.00e+00	0	43	0	0	51	4244
2026-01-27 08:39:47.51	24.12	22.89	-40.2	-42.0	19.5	0.00e+00	0	43	0	0	51	4586
2026-01-27 08:39:50.50	23.42	22.67	-40.3	-42.2	19.3	0.00e+00	0	43	0	0	51	4653
2026-01-27 08:39:53.48	22.73	22.44	-40.1	-41.8	19.7	0.00e+00	0	43	0	0	51	4486
2026-01-27 08:39:56.47	22.05	22.22	-40.3	-42.1	19.5	0.00e+00	0	43	0	0	51	4625
2026-01-27 08:39:59.46	21.38	21.99	-40.3	-42.1	19.6	0.00e+00	0	43	0	0	51	4599
2026-01-27 08:40:02.38	20.74	21.76	-40.1	-41.9	19.7	0.00e+00	0	43	0	0	51	4518
2026-01-27 08:40:05.70	20.01	21.51	-40.1	-41.9	19.7	0.00e+00	0	43	0	0	51	4495
2026-01-27 08:40:08.51	19.41	21.28	-40.2	-42.0	19.5	0.00e+00	0	43	0	0	51	4556
2026-01-27 08:40:11.70	18.74	21.03	-40.2	-42.0	19.5	0.00e+00	0	43	0	0	51	4555
2026-01-27 08:40:14.72	18.11	20.79	-40.1	-41.8	19.8	0.00e+00	0	43	0	0	51	4457
2026-01-27 08:40:17.70	17.50	20.55	-40.4	-42.1	19.5	0.00e+00	0	43	0	0	51	4646
2026-01-27 08:40:20.69	16.90	20.31	-40.5	-42.3	19.3	0.00e+00	0	43	0	0	51	4748
2026-01-27 08:40:23.67	16.31	20.07	-40.3	-42.1	19.5	0.00e+00	0	43	0	0	51	4613
2026-01-27 08:40:26.66	15.73	19.83	-40.3	-42.0	19.5	0.00e+00	0	43	0	0	51	4572
2026-01-27 08:40:29.64	15.16	19.59	-40.1	-41.8	19.7	0.00e+00	0	43	0	0	51	4492
2026-01-27 08:40:32.94	14.54	19.32	-40.0	-41.7	19.7	0.00e+00	0	43	0	0	51	4432
2026-01-27 08:40:36.16	13.94	19.06	-40.0	-41.7	19.8	0.00e+00	0	43	0	0	51	4420
2026-01-27 08:40:39.82	13.28	18.76	-40.0	-41.8	19.7	0.00e+00	0	43	0	0	51	4483
2026-01-27 08:40:42.74	12.75	18.52	-40.1	-41.9	19.7	0.00e+00	0	43	0	0	51	4511
2026-01-27 08:40:46.17	12.15	18.24	-40.3	-42.1	19.5	0.00e+00	0	43	0	0	51	4616
2026-01-27 08:40:49.01	11.66	18.01	-40.5	-42.4	19.2	0.00e+00	0	43	0	0	51	4785
2026-01-27 08:40:52.32	11.10	17.74	-40.5	-42.3	19.2	0.00e+00	0	43	0	0	51	4746
2026-01-27 08:40:55.69	10.54	17.47	-40.3	-42.1	19.4	0.00e+00	0	43	0	0	51	4643
2026-01-27 08:40:58.39	10.10	17.24	-40.4	-42.3	19.3	0.00e+00	0	43	0	0	51	4716
2026-01-27 08:41:01.67	9.57	16.98	-40.7	-42.7	18.9	0.00e+00	0	43	0	0	52	4654
2026-01-27 08:41:04.40	9.14	16.76	-40.8	-42.8	18.7	0.00e+00	0	43	0	0	52	4739
2026-01-27 08:41:07.62	8.64	16.49	-40.7	-42.6	18.8	0.00e+00	0	43	0	0	52	4638
2026-01-27 08:41:10.61	8.18	16.25	-40.3	-42.1	19.3	0.00e+00	0	43	0	0	52	4387
2026-01-27 08:41:13.75	7.71	16.00	-40.6	-42.6	19.0	0.00e+00	0	43	0	0	52	4613
2026-01-27 08:41:17.03	7.22	15.73	-41.1	-43.1	18.5	0.00e+00	0	43	0	0	52	4874
2026-01-27 08:41:19.73	6.83	15.52	-40.9	-42.9	18.6	0.00e+00	0	43	0	0	52	4793
2026-01-27 08:41:23.03	6.36	15.25	-40.4	-42.3	19.0	0.00e+00	0	43	0	0	52	4460
2026-01-27 08:41:25.75	5.97	15.03	-40.4	-42.3	19.2	0.00e+00	0	43	0	0	52	4449
2026-01-27 08:41:29.03	5.52	14.77	-40.5	-42.4	19.1	0.00e+00	0	43	0	0	52	4509
2026-01-27 08:41:31.75	5.15	14.56	-40.8	-42.8	18.7	0.00e+00	0	43	0	0	52	4737
2026-01-27 08:41:35.06	4.71	14.29	-40.9	-42.9	18.6	0.00e+00	0	43	0	0	52	4780
2026-01-27 08:41:37.76	4.35	14.08	-40.8	-42.7	18.7	0.00e+00	0	43	0	0	52	4668
2026-01-27 08:41:41.28	3.89	13.81	-40.5	-42.5	18.9	0.00e+00	0	43	0	0	52	4556
2026-01-27 08:41:43.98	3.55	13.59	-40.2	-42.0	19.4	0.00e+00	0	43	0	0	52	4328
2026-01-27 08:41:47.25	3.14	13.34	-40.6	-42.5	19.0	0.00e+00	0	43	0	0	52	4546
2026-01-27 08:41:49.95	2.81	13.13	-41.0	-42.9	18.6	0.00e+00	0	43	0	0	52	4787
2026-01-27 08:41:53.25	2.41	12.88	-41.2	-43.2	18.3	0.00e+00	0	43	0	0	53	4667
2026-01-27 08:41:55.97	2.08	12.67	-41.0	-43.0	18.4	0.00e+00	0	43	0	0	53	4589
2026-01-27 08:41:59.26	1.69	12.42	-40.7	-42.6	18.7	0.00e+00	0	43	0	0	53	4388
2026-01-27 08:42:01.99	1.38	12.21	-40.5	-42.4	19.0	0.00e+00	0	43	0	0	53	4274
2026-01-27 08:42:05.28	1.00	11.96	-40.7	-42.8	18.6	0.00e+00	0	43	0	0	52	4749
2026-01-27 08:42:07.99	0.70	11.76	-41.1	-43.2	18.3	0.00e+00	0	43	0	0	52	4972
2026-01-27 08:42:11.30	0.33	11.51	-41.6	-43.7	17.8	0.00e+00	0	43	0	0	53	4963
2026-01-27 08:42:14.02	0.04	11.30	-41.9	-44.0	17.5	0.00e+00	0	43	0	0	54	4837
2026-01-27 08:42:17.31	359.69	11.06	-41.7	-43.8	17.6	0.00e+00	0	43	0	0	54	4759
2026-01-27 08:42:20.03	359.40	10.86	-41.4	-43.5	17.9	0.00e+00	0	43	0	0	54	4558
2026-01-27 08:42:23.31	359.06	10.62	-41.3	-43.4	18.1	0.00e+00	0	43	0	0	54	4512
2026-01-27 08:42:26.04	358.78	10.42	-41.5	-43.6	17.9	0.00e+00	0	43	0	0	54	4608
2026-01-27 08:42:29.33	358.45	10.18	-41.8	-43.9	17.6	0.00e+00	0	43	0	0	54	4806
2026-01-27 08:42:32.08	358.18	9.98	-42.1	-44.3	17.2	0.00e+00	0	43	0	0	54	4990
2026-01-27 08:42:35.37	357.86	9.74	-42.3	-44.6	16.9	0.00e+00	0	43	0	0	55	4922
2026-01-27 08:42:38.07	357.60	9.55	-42.3	-44.7	16.8	0.00e+00	0	43	0	0	55	4965
2026-01-27 08:42:41.35	357.29	9.32	-42.0	-44.7	16.8	0.00e+00	0	43	0	0	55	4942
2026-01-27 08:42:44.08	357.04	9.12	-41.4	-44.5	16.9	0.00e+00	0	43	0	0	54	5121
2026-01-27 08:42:47.37	356.74	8.89	-49.8	-63.2	3.8	1.49e+00	0	43	104	0	70	17518
2026-01-27 08:42:50.10	356.49	8.70	-50.1	-63.4	3.8	1.49e+00	0	43	104	0	70	17914
2026-01-27 08:42:53.40	356.20	8.47	-50.4	-63.5	3.8	1.49e+00	0	43	104	0	71	17173
2026-01-27 08:42:56.16	355.96	8.28	-50.2	-63.6	3.8	1.49e+00	0	43	104	0	71	17291
2026-01-27 08:42:59.44	355.67	8.05	-50.5	-63.5	3.8	1.49e+00	0	43	104	0	71	17268
2026-01-27 08:43:02.16	355.44	7.87	-50.5	-63.5	3.8	1.49e+00	0	43	104	0	71	17258
2026-01-27 08:43:05.44	355.17	7.64	-50.5	-63.6	3.8	1.49e+00	0	43	104	0	71	17296
2026-01-27 08:43:08.15	354.94	7.46	-50.5	-63.6	3.8	1.49e+00	0	43	104	0	71	17370
2026-01-27 08:43:11.44	354.68	7.24	-50.5	-63.6	3.8	1.49e+00	0	43	104	0	71	17289
2026-01-27 08:43:14.15	354.46	7.06	-50.3	-63.5	3.8	1.49e+00	0	43	104	0	71	17205
2026-01-27 08:43:17.45	354.20	6.84	-50.3	-63.5	3.8	1.49e+00	0	43	104	0	71	17167
2026-01-27 08:43:20.21	353.98	6.65	-50.3	-63.5	3.8	1.49e+00	0	43	104	0	71	17167
2026-01-27 08:43:23.49	353.73	6.44	-50.3	-63.5	3.8	1.49e+00	0	43	104	0	71	17176
2026-01-27 08:43:26.22	353.52	6.26	-50.3	-63.5	3.8	1.49e+00	0	43	104	0	71	17226
2026-01-27 08:43:29.52	353.28	6.04	-50.3	-63.5	3.8	1.49e+00	0	43	104	0	71	17184
2026-01-27 08:43:32.24	353.08	5.87	-50.3	-63.5	3.8	1.49e+00	0	43	104	0	71	17088
2026-01-27 08:43:35.54	352.84	5.65	-50.3	-63.5	3.8	1.49e+00	0	43	104	0	71	17138
2026-01-27 08:43:38.27	352.64	5.48	-50.3	-63.5	3.8	1.49e+00	0	43	104	0	71	17130
2026-01-27 08:43:41.55	352.41	5.27	-50.3	-63.5	3.8	1.49e+00	0	43	104	0	71	17176
2026-01-27 08:43:44.29	352.22	5.09	-50.2	-63.4	3.8	1.49e+00	0	43	104	0	71	17065

#Closed at: 2026-01-27 08:43:47
#Recorded file [0 MB]: D:/Data/31040_260127_113222.dat