passes_logs/2026/01/27/T1/T1__20260127_101124_NOAA_21_JPSS-2_rec.log

#Pass ID: 20260127_101124_NOAA 21 (JPSS-2)
#Satellite: NOAA 21 (JPSS-2)
#Configuration: NOAA 21
#almurnet v.1.7.20251203
#Start time: 2026-01-27 10:11:25

#Version: 2.0.20230620
#Station: T1
#Location: 37.570604 lon 55.790049 lat
#TLE: 1 54234U 22150A   26026.78373243  .00000177  00000+0  10458-3 0  9996
#TLE: 2 54234  98.7509 327.5416 0000822 208.1870 151.9262 14.19539807166482

#Time	Az	El	Level	Level2	SNR	BER	BlckErr	Temp	State	Recorded	gain1	gain2
2026-01-27 10:11:25.36	168.50	5.10	-50.3	-63.4	3.8	1.49e+00	0	41	0	0	71	17049
2026-01-27 10:11:28.33	168.54	5.31	-50.2	-63.4	3.8	1.49e+00	0	41	104	0	72	15981
2026-01-27 10:11:31.31	168.59	5.53	-50.4	-63.4	3.8	1.49e+00	0	41	104	0	71	16998
2026-01-27 10:11:34.29	168.64	5.75	-50.2	-63.4	3.8	1.49e+00	0	41	104	0	71	16965
2026-01-27 10:11:37.27	168.69	5.97	-50.2	-63.3	3.8	1.49e+00	0	41	104	0	71	16866
2026-01-27 10:11:40.25	168.74	6.19	-50.1	-63.3	3.8	1.49e+00	0	41	104	0	71	16815
2026-01-27 10:11:43.23	168.79	6.41	-50.1	-63.2	3.8	1.49e+00	0	41	104	0	71	16508
2026-01-27 10:11:46.20	168.85	6.64	-49.7	-62.9	3.8	1.49e+00	0	41	104	0	71	16087
2026-01-27 10:11:49.18	168.90	6.87	-46.7	-62.1	3.8	1.49e+00	0	41	104	0	65	20665
2026-01-27 10:11:52.16	168.95	7.09	-46.6	-61.4	3.8	1.49e+00	0	41	104	0	65	19113
2026-01-27 10:11:55.14	169.01	7.33	-46.5	-59.3	3.9	1.47e+00	0	41	104	0	64	15783
2026-01-27 10:11:58.12	169.06	7.56	-46.0	-54.9	6.4	2.93e-01	0	41	0	0	64	9567
2026-01-27 10:12:01.10	169.12	7.80	-45.4	-51.9	9.4	1.82e-02	0	41	0	0	62	7580
2026-01-27 10:12:04.08	169.17	8.03	-44.7	-49.9	11.4	1.22e-03	0	42	0	0	61	6412
2026-01-27 10:12:07.06	169.23	8.27	-44.5	-49.7	11.6	6.87e-04	0	42	0	0	60	6596
2026-01-27 10:12:10.03	169.29	8.52	-45.0	-50.9	10.4	3.28e-03	0	42	0	0	60	7607
2026-01-27 10:12:13.01	169.35	8.76	-45.9	-54.1	7.1	1.19e-01	0	42	0	0	62	9794
2026-01-27 10:12:15.99	169.41	9.01	-46.5	-58.7	4.3	1.44e+00	0	42	104	0	63	15744
2026-01-27 10:12:18.98	169.47	9.26	-46.4	-62.0	3.8	1.49e+00	0	42	104	0	64	21648
2026-01-27 10:12:21.96	169.53	9.51	-46.7	-61.9	3.8	1.49e+00	0	42	104	0	64	21367
2026-01-27 10:12:24.95	169.59	9.77	-47.1	-62.1	3.8	1.49e+00	0	42	104	0	65	20572
2026-01-27 10:12:27.93	169.65	10.02	-45.4	-50.3	11.0	1.30e+00	0	42	0	0	62	6293
2026-01-27 10:12:30.92	169.72	10.29	-43.3	-46.4	15.1	0.00e+00	0	42	0	0	58	5051
2026-01-27 10:12:33.90	169.78	10.55	-42.2	-44.8	16.6	7.00e-07	0	42	0	0	56	4753
2026-01-27 10:12:36.89	169.85	10.82	-41.4	-43.8	17.4	0.00e+00	0	42	0	0	54	4745
2026-01-27 10:12:39.87	169.92	11.08	-41.0	-43.2	18.1	0.00e+00	0	42	0	0	53	4668
2026-01-27 10:12:42.86	169.99	11.36	-41.1	-43.3	18.0	0.00e+00	0	42	0	0	53	4717
2026-01-27 10:12:45.85	170.06	11.63	-40.8	-42.9	18.4	0.00e+00	0	42	0	0	53	4498
2026-01-27 10:12:48.83	170.13	11.91	-41.0	-43.0	18.2	0.00e+00	0	42	0	0	53	4585
2026-01-27 10:12:51.81	170.20	12.19	-40.8	-42.7	18.5	0.00e+00	0	42	0	0	53	4425
2026-01-27 10:12:54.80	170.27	12.48	-40.8	-42.7	18.5	0.00e+00	0	42	0	0	53	4421
2026-01-27 10:12:57.78	170.35	12.76	-40.7	-42.6	18.7	0.00e+00	0	42	0	0	53	4344
2026-01-27 10:13:00.77	170.42	13.05	-40.7	-42.5	18.7	0.00e+00	0	42	0	0	53	4330
2026-01-27 10:13:03.76	170.50	13.35	-40.6	-42.4	18.8	0.00e+00	0	42	0	0	53	4278
2026-01-27 10:13:06.74	170.58	13.65	-40.6	-42.5	18.8	0.00e+00	0	42	0	0	53	4296
2026-01-27 10:13:09.73	170.66	13.95	-40.3	-42.3	18.9	0.00e+00	0	42	0	0	52	4445
2026-01-27 10:13:12.71	170.74	14.26	-40.4	-42.3	19.0	0.00e+00	0	42	0	0	52	4458
2026-01-27 10:13:15.70	170.82	14.57	-40.3	-42.2	19.1	0.00e+00	0	42	0	0	52	4406
2026-01-27 10:13:18.68	170.91	14.88	-40.4	-42.2	19.0	0.00e+00	0	42	0	0	52	4423
2026-01-27 10:13:21.67	171.00	15.20	-40.4	-42.2	19.1	0.00e+00	0	42	0	0	52	4425
2026-01-27 10:13:24.66	171.08	15.52	-40.4	-42.3	19.0	0.00e+00	0	42	0	0	52	4468
2026-01-27 10:13:27.64	171.17	15.85	-40.5	-42.3	19.0	0.00e+00	0	42	0	0	52	4490
2026-01-27 10:13:30.63	171.27	16.18	-40.6	-42.4	18.9	0.00e+00	0	42	0	0	52	4536
2026-01-27 10:13:33.61	171.36	16.51	-40.6	-42.5	18.9	0.00e+00	0	42	0	0	52	4551
2026-01-27 10:13:36.60	171.45	16.85	-40.8	-42.7	18.7	0.00e+00	0	42	0	0	52	4668
2026-01-27 10:13:39.58	171.55	17.20	-40.8	-42.6	18.7	0.00e+00	0	42	0	0	52	4650
2026-01-27 10:13:42.57	171.65	17.55	-40.9	-42.8	18.6	0.00e+00	0	42	0	0	52	4730
2026-01-27 10:13:45.56	171.75	17.90	-40.9	-42.7	18.7	0.00e+00	0	42	0	0	52	4697
2026-01-27 10:13:48.54	171.86	18.26	-40.8	-42.6	18.7	0.00e+00	0	42	0	0	52	4645
2026-01-27 10:13:51.53	171.96	18.62	-40.7	-42.5	18.8	0.00e+00	0	42	0	0	52	4587
2026-01-27 10:13:54.51	172.07	18.99	-40.7	-42.5	18.9	0.00e+00	0	42	0	0	52	4564
2026-01-27 10:13:57.50	172.18	19.37	-40.5	-42.3	19.0	0.00e+00	0	42	0	0	52	4468
2026-01-27 10:14:00.48	172.29	19.75	-40.4	-42.2	19.1	0.00e+00	0	42	0	0	52	4441
2026-01-27 10:14:03.46	172.41	20.14	-40.1	-41.9	19.4	0.00e+00	0	42	0	0	52	4252
2026-01-27 10:14:06.45	172.53	20.53	-40.1	-41.8	19.5	0.00e+00	0	42	0	0	52	4233
2026-01-27 10:14:09.43	172.65	20.93	-39.9	-41.6	19.8	0.00e+00	0	42	0	0	51	4375
2026-01-27 10:14:12.41	172.77	21.33	-39.7	-41.5	19.9	0.00e+00	0	42	0	0	51	4295
2026-01-27 10:14:15.40	172.90	21.75	-39.7	-41.4	20.0	0.00e+00	0	42	0	0	51	4254
2026-01-27 10:14:18.39	173.03	22.17	-39.5	-41.2	20.2	0.00e+00	0	42	0	0	51	4171
2026-01-27 10:14:21.37	173.17	22.59	-39.5	-41.1	20.2	0.00e+00	0	42	0	0	50	4390
2026-01-27 10:14:24.35	173.30	23.02	-39.4	-41.1	20.3	0.00e+00	0	42	0	0	50	4350
2026-01-27 10:14:27.34	173.45	23.46	-39.3	-40.9	20.4	0.00e+00	0	42	0	0	50	4271
2026-01-27 10:14:30.32	173.59	23.91	-39.3	-40.9	20.4	0.00e+00	0	42	0	0	50	4276
2026-01-27 10:14:33.30	173.74	24.36	-39.2	-40.8	20.5	0.00e+00	0	42	0	0	50	4216
2026-01-27 10:14:36.28	173.89	24.82	-39.2	-40.8	20.5	0.00e+00	0	42	0	0	50	4239
2026-01-27 10:14:39.27	174.05	25.30	-39.6	-41.2	20.2	0.00e+00	0	42	0	0	50	4434
2026-01-27 10:14:42.25	174.21	25.77	-39.8	-41.5	20.0	0.00e+00	0	42	0	0	50	4562
2026-01-27 10:14:45.24	174.38	26.26	-40.0	-41.7	19.8	0.00e+00	0	42	0	0	50	4685
2026-01-27 10:14:48.22	174.55	26.76	-40.2	-42.0	19.5	0.00e+00	0	42	0	0	51	4554
2026-01-27 10:14:51.20	174.72	27.26	-40.3	-42.1	19.4	0.00e+00	0	42	0	0	51	4608
2026-01-27 10:14:54.19	174.91	27.78	-40.6	-42.4	19.1	0.00e+00	0	42	0	0	51	4762
2026-01-27 10:14:57.18	175.09	28.30	-40.6	-42.4	19.2	0.00e+00	0	42	0	0	51	4773
2026-01-27 10:15:00.16	175.29	28.84	-40.6	-42.4	19.1	0.00e+00	0	42	0	0	51	4800
2026-01-27 10:15:03.15	175.49	29.38	-40.6	-42.4	19.1	0.00e+00	0	42	0	0	52	4495
2026-01-27 10:15:06.13	175.69	29.93	-40.4	-42.1	19.3	0.00e+00	0	42	0	0	52	4390
2026-01-27 10:15:09.12	175.91	30.50	-40.3	-42.0	19.4	0.00e+00	0	42	0	0	52	4320
2026-01-27 10:15:12.10	176.13	31.07	-40.1	-41.8	19.8	0.00e+00	0	42	0	0	51	4443
2026-01-27 10:15:15.09	176.36	31.66	-39.9	-41.6	19.9	0.00e+00	0	42	0	0	51	4361
2026-01-27 10:15:18.07	176.59	32.26	-40.0	-41.7	19.8	0.00e+00	0	42	0	0	51	4405
2026-01-27 10:15:21.06	176.84	32.87	-40.2	-41.9	19.7	0.00e+00	0	42	0	0	51	4512
2026-01-27 10:15:24.04	177.09	33.49	-40.6	-42.4	19.2	0.00e+00	0	42	0	0	51	4800
2026-01-27 10:15:27.03	177.35	34.12	-41.0	-42.8	18.8	0.00e+00	0	42	0	0	52	4720
2026-01-27 10:15:30.02	177.63	34.77	-41.4	-43.2	18.4	0.00e+00	0	42	0	0	53	4701
2026-01-27 10:15:33.00	177.91	35.43	-41.7	-43.6	18.1	0.00e+00	0	42	0	0	54	4622
2026-01-27 10:15:35.98	178.21	36.10	-42.1	-44.0	17.6	0.00e+00	0	42	0	0	54	4869
2026-01-27 10:15:38.97	178.52	36.79	-43.0	-45.1	16.8	0.00e+00	0	42	0	0	56	4907
2026-01-27 10:15:41.95	178.84	37.49	-43.3	-45.6	16.3	0.00e+00	0	42	0	0	57	4891
2026-01-27 10:15:44.94	179.17	38.20	-42.9	-45.1	16.8	0.00e+00	0	42	0	0	57	4615
2026-01-27 10:15:47.92	179.52	38.93	-42.8	-44.9	16.9	0.00e+00	0	42	0	0	57	4544
2026-01-27 10:15:50.90	179.88	39.67	-42.8	-45.0	17.0	0.00e+00	0	42	0	0	57	4552
2026-01-27 10:15:53.88	180.26	40.43	-42.7	-44.8	17.1	0.00e+00	0	42	0	0	57	4444
2026-01-27 10:15:56.87	180.66	41.20	-42.7	-44.7	17.1	0.00e+00	0	42	0	0	57	4414
2026-01-27 10:15:59.85	181.08	41.99	-42.8	-44.9	16.9	0.00e+00	0	42	0	0	57	4525
2026-01-27 10:16:02.84	181.52	42.79	-42.5	-44.5	17.3	0.00e+00	0	42	0	0	57	4338
2026-01-27 10:16:05.82	181.98	43.61	-42.3	-44.2	17.6	0.00e+00	0	42	0	0	56	4432
2026-01-27 10:16:08.80	182.47	44.44	-42.6	-44.7	17.2	0.00e+00	0	42	0	0	56	4665
2026-01-27 10:16:11.79	182.98	45.29	-42.7	-44.7	17.2	0.00e+00	0	42	0	0	56	4682
2026-01-27 10:16:14.77	183.52	46.16	-42.3	-44.2	17.7	0.00e+00	0	42	0	0	56	4428
2026-01-27 10:16:17.76	184.09	47.04	-42.3	-44.3	17.6	0.00e+00	0	42	0	0	56	4449
2026-01-27 10:16:20.74	184.69	47.94	-41.8	-43.7	17.9	0.00e+00	0	42	0	0	55	4424
2026-01-27 10:16:23.73	185.32	48.85	-42.1	-44.1	17.6	0.00e+00	0	42	0	0	55	4609
2026-01-27 10:16:26.71	186.00	49.78	-42.3	-44.3	17.3	0.00e+00	0	42	0	0	55	4729
2026-01-27 10:16:29.69	186.71	50.72	-42.9	-45.0	17.0	0.00e+00	0	42	0	0	56	4830
2026-01-27 10:16:32.68	187.48	51.68	-42.4	-44.4	17.5	0.00e+00	0	42	0	0	56	4519
2026-01-27 10:16:35.66	188.29	52.65	-42.1	-44.1	17.8	0.00e+00	0	42	0	0	56	4365
2026-01-27 10:16:38.65	189.16	53.63	-41.0	-42.8	18.8	0.00e+00	0	42	0	0	54	4233
2026-01-27 10:16:41.63	190.09	54.63	-40.0	-41.7	19.8	0.00e+00	0	42	0	0	51	4413
2026-01-27 10:16:44.62	191.08	55.64	-39.8	-41.4	20.1	0.00e+00	0	42	0	0	51	4282
2026-01-27 10:16:47.60	192.15	56.65	-39.5	-41.1	20.2	0.00e+00	0	42	0	0	51	4114
2026-01-27 10:16:50.58	193.30	57.68	-39.9	-41.6	20.0	0.00e+00	0	42	0	0	50	4641
2026-01-27 10:16:53.57	194.54	58.71	-39.8	-41.4	20.2	0.00e+00	0	42	0	0	50	4545
2026-01-27 10:16:56.55	195.88	59.75	-39.2	-40.8	20.8	0.00e+00	0	42	0	0	50	4240
2026-01-27 10:16:59.53	197.33	60.79	-38.8	-40.4	21.1	0.00e+00	0	43	0	0	49	4247
2026-01-27 10:17:02.52	198.91	61.83	-38.5	-40.1	21.3	0.00e+00	0	42	0	0	48	4347
2026-01-27 10:17:05.50	200.62	62.86	-38.3	-39.9	21.2	0.00e+00	0	42	0	0	48	4246
2026-01-27 10:17:08.49	202.49	63.89	-39.0	-40.6	20.9	0.00e+00	0	43	0	0	48	4617
2026-01-27 10:17:11.48	204.53	64.91	-38.8	-40.4	21.0	0.00e+00	0	42	0	0	48	4534
2026-01-27 10:17:14.46	206.75	65.91	-39.1	-40.8	20.7	0.00e+00	0	42	0	0	49	4454
2026-01-27 10:17:17.45	209.19	66.88	-39.0	-40.6	20.8	0.00e+00	0	42	0	0	49	4377
2026-01-27 10:17:20.43	211.85	67.82	-39.5	-41.2	20.4	0.00e+00	0	43	0	0	50	4423
2026-01-27 10:17:23.42	214.77	68.73	-39.1	-40.7	20.7	0.00e+00	0	42	0	0	49	4422
2026-01-27 10:17:26.40	217.95	69.59	-38.7	-40.3	21.1	0.00e+00	0	42	0	0	49	4206
2026-01-27 10:17:29.39	221.44	70.39	-38.9	-40.6	20.9	0.00e+00	0	42	0	0	49	4352
2026-01-27 10:17:32.37	225.21	71.13	-38.8	-40.3	20.6	0.00e+00	0	42	0	0	49	4239
2026-01-27 10:17:35.35	229.30	71.78	-39.0	-40.6	20.8	0.00e+00	0	42	0	0	49	4390
2026-01-27 10:17:38.33	233.67	72.35	-39.3	-41.0	20.2	0.00e+00	0	42	0	0	49	4569
2026-01-27 10:17:41.31	238.33	72.81	-39.3	-41.0	20.4	0.00e+00	0	42	0	0	49	4569
2026-01-27 10:17:44.30	243.24	73.16	-38.6	-40.2	21.2	0.00e+00	0	42	0	0	49	4185
2026-01-27 10:17:47.29	248.33	73.40	-38.2	-39.8	21.3	0.00e+00	0	42	0	0	48	4197
2026-01-27 10:17:50.27	253.52	73.50	-38.8	-40.4	20.9	0.00e+00	0	42	0	0	48	4528
2026-01-27 10:17:53.25	258.72	73.48	-38.5	-40.1	21.1	0.00e+00	0	42	0	0	48	4380
2026-01-27 10:17:56.24	263.89	73.32	-39.0	-40.6	21.0	0.00e+00	0	42	0	0	49	4390
2026-01-27 10:17:59.22	268.90	73.05	-38.6	-40.1	21.2	0.00e+00	0	42	0	0	48	4375
2026-01-27 10:18:02.20	273.71	72.65	-39.1	-40.7	20.8	0.00e+00	0	42	0	0	49	4439
2026-01-27 10:18:05.19	278.28	72.14	-38.0	-39.5	21.4	0.00e+00	0	42	0	0	47	4340
2026-01-27 10:18:08.17	282.54	71.54	-39.2	-40.8	20.9	0.00e+00	0	42	0	0	49	4457
2026-01-27 10:18:11.16	286.52	70.86	-38.9	-40.5	20.6	0.00e+00	0	42	0	0	49	4329
2026-01-27 10:18:14.14	290.17	70.10	-39.2	-40.9	20.8	0.00e+00	0	42	0	0	49	4507
2026-01-27 10:18:17.12	293.53	69.28	-38.3	-39.9	21.2	0.00e+00	0	42	0	0	48	4247
2026-01-27 10:18:20.11	296.62	68.40	-39.5	-41.2	20.6	0.00e+00	0	42	0	0	49	4662
2026-01-27 10:18:23.10	299.44	67.48	-39.2	-40.8	20.4	0.00e+00	0	42	0	0	50	4201
2026-01-27 10:18:26.08	302.00	66.52	-39.6	-41.3	20.4	0.00e+00	0	42	0	0	49	4713
2026-01-27 10:18:29.04	304.34	65.55	-39.6	-41.3	20.0	0.00e+00	0	43	0	0	51	4211
2026-01-27 10:18:32.02	306.48	64.55	-38.9	-40.5	21.1	0.00e+00	0	42	0	0	48	4555
2026-01-27 10:18:35.01	308.46	63.53	-41.1	-43.0	18.4	0.00e+00	0	42	0	0	53	4579
2026-01-27 10:18:37.99	310.26	62.51	-40.0	-41.7	20.0	0.00e+00	0	42	0	0	51	4405
2026-01-27 10:18:40.98	311.92	61.47	-41.1	-43.0	18.8	0.00e+00	0	42	0	0	52	4827
2026-01-27 10:18:43.96	313.44	60.43	-39.9	-41.6	19.9	0.00e+00	0	42	0	0	51	4377
2026-01-27 10:18:46.94	314.85	59.40	-39.6	-41.3	20.4	0.00e+00	0	42	0	0	50	4457
2026-01-27 10:18:49.93	316.15	58.36	-42.3	-44.4	17.5	0.00e+00	0	43	0	0	55	4798
2026-01-27 10:18:52.91	317.36	57.34	-40.3	-42.1	19.3	0.00e+00	0	42	0	0	52	4342
2026-01-27 10:18:55.89	318.48	56.32	-40.5	-42.3	19.5	0.00e+00	0	42	0	0	51	4732
2026-01-27 10:18:58.88	319.52	55.31	-43.1	-45.3	16.7	0.00e+00	0	42	0	0	57	4734
2026-01-27 10:19:01.86	320.49	54.31	-41.2	-43.0	18.6	0.00e+00	0	42	0	0	54	4330
2026-01-27 10:19:04.85	321.39	53.32	-41.2	-43.0	18.8	0.00e+00	0	42	0	0	52	4847
2026-01-27 10:19:07.83	322.24	52.34	-43.2	-45.4	16.7	0.00e+00	0	43	0	0	57	4783
2026-01-27 10:19:10.82	323.04	51.38	-42.5	-44.6	16.9	0.00e+00	0	42	0	0	57	4359
2026-01-27 10:19:13.80	323.78	50.43	-41.3	-43.2	18.6	0.00e+00	0	42	0	0	54	4392
2026-01-27 10:19:16.78	324.48	49.50	-42.4	-44.5	17.5	0.00e+00	0	42	0	0	55	4816
2026-01-27 10:19:19.77	325.14	48.58	-43.7	-46.2	15.9	0.00e+00	0	42	0	0	58	4938
2026-01-27 10:19:22.75	325.76	47.68	-42.1	-44.1	17.8	0.00e+00	0	42	0	0	56	4368
2026-01-27 10:19:25.74	326.35	46.79	-41.4	-43.3	18.3	0.00e+00	0	42	0	0	54	4477
2026-01-27 10:19:28.72	326.91	45.92	-42.3	-44.4	17.5	0.00e+00	0	42	0	0	55	4775
2026-01-27 10:19:31.70	327.44	45.06	-42.3	-44.2	17.6	0.00e+00	0	43	0	0	55	4704
2026-01-27 10:19:34.68	327.94	44.23	-42.3	-44.3	17.5	0.00e+00	0	43	0	0	55	4712
2026-01-27 10:19:37.66	328.42	43.40	-44.2	-46.6	15.4	0.00e+00	0	43	0	0	58	5197
2026-01-27 10:19:40.65	328.87	42.59	-42.9	-45.0	16.8	0.00e+00	0	42	0	0	57	4592
2026-01-27 10:19:43.63	329.30	41.80	-42.9	-45.1	16.8	0.00e+00	0	42	0	0	57	4627
2026-01-27 10:19:46.62	329.71	41.02	-43.1	-45.3	16.8	0.00e+00	0	42	0	0	57	4746
2026-01-27 10:19:49.60	330.11	40.26	-42.5	-44.7	17.3	0.00e+00	0	43	0	0	57	4401
2026-01-27 10:19:52.58	330.48	39.51	-42.6	-44.7	17.3	0.00e+00	0	42	0	0	56	4681
2026-01-27 10:19:55.57	330.84	38.77	-43.5	-45.8	16.2	0.00e+00	0	42	0	0	57	5017
2026-01-27 10:19:58.56	331.19	38.05	-43.0	-45.3	16.7	0.00e+00	0	42	0	0	57	4707
2026-01-27 10:20:01.54	331.52	37.35	-41.7	-43.6	18.0	0.00e+00	0	42	0	0	55	4391
2026-01-27 10:20:04.53	331.83	36.65	-41.8	-43.8	17.9	0.00e+00	0	43	0	0	55	4476
2026-01-27 10:20:07.52	332.14	35.97	-41.7	-43.7	18.1	0.00e+00	0	42	0	0	55	4403
2026-01-27 10:20:10.51	332.43	35.31	-41.4	-43.3	18.2	0.00e+00	0	42	0	0	54	4450
2026-01-27 10:20:13.49	332.71	34.66	-41.4	-43.3	18.2	0.00e+00	0	42	0	0	54	4463
2026-01-27 10:20:16.47	332.98	34.02	-41.7	-43.7	18.1	0.00e+00	0	42	0	0	54	4691
2026-01-27 10:20:19.45	333.25	33.39	-41.2	-43.2	18.6	0.00e+00	0	42	0	0	54	4411
2026-01-27 10:20:22.43	333.50	32.78	-41.3	-43.3	18.5	0.00e+00	0	42	0	0	54	4466
2026-01-27 10:20:25.42	333.74	32.17	-41.6	-43.7	18.1	0.00e+00	0	43	0	0	54	4665
2026-01-27 10:20:28.40	333.97	31.58	-41.6	-43.6	18.2	0.00e+00	0	42	0	0	54	4617
2026-01-27 10:20:31.39	334.20	31.00	-41.4	-43.3	18.5	0.00e+00	0	42	0	0	54	4492
2026-01-27 10:20:34.38	334.42	30.43	-40.9	-42.8	18.9	0.00e+00	0	42	0	0	53	4462
2026-01-27 10:20:37.36	334.63	29.88	-40.7	-42.6	19.0	0.00e+00	0	42	0	0	53	4351
2026-01-27 10:20:40.35	334.84	29.33	-40.5	-42.4	19.1	0.00e+00	0	42	0	0	52	4525
2026-01-27 10:20:43.34	335.04	28.79	-40.4	-42.3	19.3	0.00e+00	0	42	0	0	52	4445
2026-01-27 10:20:46.32	335.23	28.26	-40.0	-41.8	19.7	0.00e+00	0	43	0	0	52	4213
2026-01-27 10:20:49.31	335.42	27.74	-40.0	-41.7	19.8	0.00e+00	0	42	0	0	51	4423
2026-01-27 10:20:52.29	335.60	27.23	-39.7	-41.4	20.1	0.00e+00	0	43	0	0	51	4283
2026-01-27 10:20:55.27	335.77	26.73	-39.7	-41.4	20.1	0.00e+00	0	43	0	0	51	4248
2026-01-27 10:20:58.25	335.95	26.24	-39.7	-41.4	20.1	0.00e+00	0	42	0	0	51	4291
2026-01-27 10:21:01.24	336.11	25.76	-39.8	-41.6	20.0	0.00e+00	0	42	0	0	51	4346
2026-01-27 10:21:04.22	336.27	25.29	-39.7	-41.5	20.1	0.00e+00	0	42	0	0	51	4317
2026-01-27 10:21:07.21	336.43	24.82	-39.7	-41.4	20.1	0.00e+00	0	42	0	0	51	4270
2026-01-27 10:21:10.19	336.58	24.36	-39.9	-41.6	19.9	0.00e+00	0	42	0	0	51	4386
2026-01-27 10:21:13.18	336.73	23.91	-40.2	-42.0	19.6	0.00e+00	0	43	0	0	51	4549
2026-01-27 10:21:16.17	336.88	23.47	-40.3	-42.1	19.5	0.00e+00	0	42	0	0	51	4601
2026-01-27 10:21:19.15	337.02	23.03	-40.3	-42.0	19.5	0.00e+00	0	42	0	0	51	4596
2026-01-27 10:21:22.13	337.16	22.60	-40.2	-42.0	19.5	0.00e+00	0	43	0	0	51	4593
2026-01-27 10:21:25.11	337.29	22.18	-40.1	-41.9	19.6	0.00e+00	0	43	0	0	51	4525
2026-01-27 10:21:28.10	337.43	21.77	-40.2	-42.0	19.5	0.00e+00	0	43	0	0	51	4588
2026-01-27 10:21:31.08	337.55	21.36	-40.1	-41.9	19.6	0.00e+00	0	42	0	0	51	4523
2026-01-27 10:21:34.06	337.68	20.96	-40.1	-41.9	19.6	0.00e+00	0	42	0	0	51	4509
2026-01-27 10:21:37.05	337.80	20.56	-40.1	-42.0	19.5	0.00e+00	0	43	0	0	51	4558
2026-01-27 10:21:40.03	337.92	20.17	-40.2	-42.0	19.4	0.00e+00	0	42	0	0	51	4580
2026-01-27 10:21:43.02	338.04	19.79	-40.1	-41.9	19.6	0.00e+00	0	42	0	0	51	4495
2026-01-27 10:21:46.00	338.15	19.41	-40.1	-41.8	19.5	0.00e+00	0	43	0	0	51	4477
2026-01-27 10:21:48.99	338.26	19.04	-40.1	-41.9	19.5	0.00e+00	0	43	0	0	51	4499
2026-01-27 10:21:51.98	338.37	18.67	-39.9	-41.7	19.6	0.00e+00	0	42	0	0	51	4421
2026-01-27 10:21:54.96	338.48	18.31	-40.2	-42.0	19.4	0.00e+00	0	43	0	0	51	4546
2026-01-27 10:21:57.94	338.59	17.96	-40.2	-42.0	19.4	0.00e+00	0	42	0	0	51	4550
2026-01-27 10:22:00.93	338.69	17.60	-40.3	-42.1	19.3	0.00e+00	0	43	0	0	51	4639
2026-01-27 10:22:03.91	338.79	17.26	-40.5	-42.2	19.3	0.00e+00	0	43	0	0	51	4696
2026-01-27 10:22:06.89	338.89	16.92	-40.6	-42.4	19.2	0.00e+00	0	43	0	0	51	4769
2026-01-27 10:22:09.88	338.99	16.58	-40.6	-42.5	19.0	0.00e+00	0	43	0	0	52	4575
2026-01-27 10:22:12.86	339.08	16.25	-40.5	-42.4	19.1	0.00e+00	0	43	0	0	52	4514
2026-01-27 10:22:15.85	339.17	15.92	-40.6	-42.5	19.0	0.00e+00	0	43	0	0	52	4572
2026-01-27 10:22:18.84	339.27	15.60	-40.7	-42.6	18.9	0.00e+00	0	43	0	0	52	4629
2026-01-27 10:22:21.82	339.36	15.28	-40.7	-42.5	18.9	0.00e+00	0	43	0	0	52	4572
2026-01-27 10:22:24.80	339.44	14.96	-40.7	-42.6	18.9	0.00e+00	0	42	0	0	52	4601
2026-01-27 10:22:27.79	339.53	14.65	-40.7	-42.7	18.7	0.00e+00	0	43	0	0	52	4664
2026-01-27 10:22:30.77	339.62	14.34	-40.6	-42.7	18.7	0.00e+00	0	43	0	0	52	4686
2026-01-27 10:22:33.76	339.70	14.04	-40.8	-42.9	18.5	0.00e+00	0	43	0	0	52	4792
2026-01-27 10:22:36.74	339.78	13.74	-41.3	-43.3	18.1	0.00e+00	0	43	0	0	53	4757
2026-01-27 10:22:39.72	339.86	13.44	-41.3	-43.3	18.1	0.00e+00	0	43	0	0	53	4741
2026-01-27 10:22:42.70	339.94	13.15	-41.5	-43.5	17.9	0.00e+00	0	43	0	0	53	4868
2026-01-27 10:22:45.69	340.02	12.86	-41.8	-44.0	17.5	0.00e+00	0	42	0	0	54	4815
2026-01-27 10:22:48.67	340.10	12.58	-41.3	-43.7	17.8	0.00e+00	0	43	0	0	54	4673
2026-01-27 10:22:51.66	340.17	12.29	-41.3	-43.8	17.7	0.00e+00	0	43	0	0	54	4707
2026-01-27 10:22:54.64	340.25	12.01	-41.4	-43.7	17.8	0.00e+00	0	43	0	0	54	4686
2026-01-27 10:22:57.63	340.32	11.74	-41.4	-43.7	17.8	0.00e+00	0	43	0	0	54	4657
2026-01-27 10:23:00.61	340.39	11.46	-41.4	-43.6	17.8	0.00e+00	0	43	0	0	54	4600
2026-01-27 10:23:03.60	340.47	11.19	-41.7	-43.8	17.6	0.00e+00	0	42	0	0	54	4753
2026-01-27 10:23:06.58	340.54	10.93	-41.7	-43.9	17.5	0.00e+00	0	43	0	0	54	4813
2026-01-27 10:23:09.56	340.60	10.66	-41.7	-44.0	17.4	0.00e+00	0	43	0	0	54	4824
2026-01-27 10:23:12.54	340.67	10.40	-41.8	-44.0	17.3	0.00e+00	0	43	0	0	54	4863
2026-01-27 10:23:15.53	340.74	10.14	-41.8	-43.9	17.4	0.00e+00	0	42	0	0	54	4785
2026-01-27 10:23:18.52	340.81	9.89	-42.0	-44.2	17.2	0.00e+00	0	43	0	0	54	4955
2026-01-27 10:23:21.50	340.87	9.63	-41.9	-44.1	17.2	0.00e+00	0	43	0	0	54	4916
2026-01-27 10:23:24.48	340.94	9.38	-41.8	-44.3	17.1	0.00e+00	0	43	0	0	54	4993
2026-01-27 10:23:27.47	341.00	9.13	-41.7	-44.3	17.0	0.00e+00	0	43	0	0	54	5003
2026-01-27 10:23:30.45	341.06	8.89	-48.9	-62.3	3.8	1.49e+00	0	43	104	0	68	17887
2026-01-27 10:23:33.43	341.12	8.64	-48.8	-62.8	3.8	1.49e+00	0	43	104	0	69	17864
2026-01-27 10:23:36.41	341.18	8.40	-48.7	-62.6	3.8	1.49e+00	0	43	104	0	68	18326
2026-01-27 10:23:39.39	341.24	8.16	-49.1	-62.7	3.8	1.49e+00	0	43	104	0	69	17511
2026-01-27 10:23:42.37	341.30	7.93	-49.5	-62.8	3.8	1.49e+00	0	42	104	0	70	16803
2026-01-27 10:23:45.35	341.36	7.69	-49.8	-62.9	3.8	1.49e+00	0	43	104	0	70	16918
2026-01-27 10:23:48.33	341.42	7.46	-49.8	-62.9	3.8	1.49e+00	0	43	104	0	70	17049
2026-01-27 10:23:51.31	341.48	7.23	-49.8	-62.9	3.8	1.49e+00	0	43	104	0	70	16997
2026-01-27 10:23:54.28	341.53	7.00	-49.8	-62.9	3.8	1.49e+00	0	43	104	0	70	16987
2026-01-27 10:23:57.26	341.59	6.78	-49.8	-62.9	3.8	1.49e+00	0	43	104	0	70	16950
2026-01-27 10:24:00.24	341.64	6.55	-49.8	-62.9	3.8	1.49e+00	0	43	104	0	70	16946
2026-01-27 10:24:03.22	341.70	6.33	-49.8	-62.9	3.8	1.49e+00	0	43	104	0	70	16936
2026-01-27 10:24:06.20	341.75	6.11	-49.8	-62.9	3.8	1.49e+00	0	43	104	0	70	16992
2026-01-27 10:24:09.18	341.81	5.89	-49.8	-62.8	3.8	1.49e+00	0	43	104	0	70	16853
2026-01-27 10:24:12.16	341.86	5.67	-49.8	-62.8	3.8	1.49e+00	0	43	104	0	70	16883
2026-01-27 10:24:15.14	341.91	5.46	-49.8	-62.9	3.8	1.49e+00	0	43	104	0	70	16937
2026-01-27 10:24:18.12	341.96	5.25	-49.8	-62.8	3.8	1.49e+00	0	43	104	0	70	16882
2026-01-27 10:24:21.10	342.01	5.03	-49.8	-62.9	3.8	1.49e+00	0	43	104	0	70	16920

#Closed at: 2026-01-27 10:24:23
#Recorded file [0 MB]: D:/Data/31040_260127_131125.dat