passes_logs/2026/01/27/T1/T1__20260127_225134_SUOMI_NPP_rec.log

#Pass ID: 20260127_225134_SUOMI NPP
#Satellite: SUOMI NPP
#Configuration: NPP
#almurnet v.1.7.20251203
#Start time: 2026-01-27 22:51:35

#Version: 2.0.20230620
#Station: T1
#Location: 37.570604 lon 55.790049 lat
#TLE: 1 37849U 11061A   26027.50945616  .00000185  00000+0  10897-3 0  9994
#TLE: 2 37849  98.7823 329.4511 0002105  42.1421 317.9917 14.19530771738482

#Time	Az	El	Level	Level2	SNR	BER	BlckErr	Temp	State	Recorded	gain1	gain2
2026-01-27 22:51:35.63	23.42	5.08	-50.5	-65.7	3.8	1.49e+00	0	40	0	0	71	22209
2026-01-27 22:51:38.61	23.58	5.28	-50.5	-65.7	3.8	1.49e+00	0	40	104	0	72	20982
2026-01-27 22:51:41.59	23.74	5.48	-50.4	-65.7	3.8	1.49e+00	0	41	104	0	72	20833
2026-01-27 22:51:44.57	23.91	5.68	-50.4	-65.6	3.8	1.49e+00	0	41	104	0	72	20665
2026-01-27 22:51:47.54	24.08	5.88	-50.2	-65.4	3.8	1.49e+00	0	41	104	0	72	20176
2026-01-27 22:51:50.52	24.25	6.09	-49.5	-64.9	3.8	1.49e+00	0	41	104	0	70	21464
2026-01-27 22:51:53.50	24.42	6.29	-49.4	-64.8	3.8	1.49e+00	0	41	104	0	70	21215
2026-01-27 22:51:56.48	24.60	6.50	-49.4	-64.8	3.8	1.49e+00	0	41	104	0	70	21146
2026-01-27 22:51:59.46	24.78	6.71	-49.4	-64.7	3.8	1.49e+00	0	41	104	0	70	20968
2026-01-27 22:52:02.44	24.96	6.92	-49.4	-64.7	3.8	1.49e+00	0	41	104	0	70	20911
2026-01-27 22:52:05.42	25.14	7.13	-49.4	-64.9	3.8	1.49e+00	0	42	104	0	70	21318
2026-01-27 22:52:08.40	25.32	7.35	-49.4	-64.9	3.8	1.49e+00	0	42	104	0	70	21353
2026-01-27 22:52:11.38	25.51	7.56	-49.3	-64.7	3.8	1.49e+00	0	42	104	0	70	20818
2026-01-27 22:52:14.36	25.70	7.78	-49.3	-64.6	3.8	1.49e+00	0	42	104	0	70	20549
2026-01-27 22:52:17.34	25.90	8.00	-49.3	-64.5	3.8	1.49e+00	0	42	104	0	70	20332
2026-01-27 22:52:20.31	26.09	8.21	-49.3	-64.5	3.8	1.49e+00	0	42	104	0	70	20335
2026-01-27 22:52:23.29	26.29	8.44	-49.3	-63.8	3.8	1.49e+00	0	42	104	0	70	18791
2026-01-27 22:52:26.27	26.49	8.66	-49.2	-62.0	4.0	1.48e+00	0	42	104	0	70	15371
2026-01-27 22:52:29.25	26.69	8.88	-48.8	-58.8	5.3	7.21e-01	0	42	0	3145728	69	11239
2026-01-27 22:52:32.23	26.90	9.11	-48.7	-58.2	5.8	3.12e-01	0	42	0	8388608	69	10442
2026-01-27 22:52:35.21	27.11	9.34	-48.3	-55.9	7.5	1.40e-01	0	43	0	11534336	67	9030
2026-01-27 22:52:38.19	27.32	9.57	-45.5	-49.1	14.5	0.00e+00	0	42	0	16777216	62	5481
2026-01-27 22:52:41.17	27.54	9.80	-45.1	-48.4	15.2	0.00e+00	0	42	0	23068672	62	5095
2026-01-27 22:52:44.15	27.76	10.04	-44.8	-48.1	15.6	0.00e+00	0	42	0	28311552	61	5166
2026-01-27 22:52:47.12	27.98	10.27	-44.7	-47.9	15.7	0.00e+00	0	43	0	33554432	61	5079
2026-01-27 22:52:50.10	28.21	10.51	-44.4	-47.4	16.2	0.00e+00	0	42	0	39845888	60	5076
2026-01-27 22:52:53.08	28.44	10.75	-44.1	-47.1	16.6	0.00e+00	0	43	0	45088768	60	4895
2026-01-27 22:52:56.06	28.67	10.99	-44.1	-47.1	16.6	0.00e+00	0	43	0	50331648	60	4890
2026-01-27 22:52:59.04	28.91	11.23	-44.3	-47.3	16.4	0.00e+00	0	42	0	56623104	60	5024
2026-01-27 22:53:02.02	29.15	11.48	-44.2	-47.2	16.4	0.00e+00	0	43	0	61865984	59	5245
2026-01-27 22:53:04.99	29.40	11.73	-44.1	-47.0	16.6	0.00e+00	0	43	0	67108864	59	5112
2026-01-27 22:53:07.97	29.64	11.98	-44.2	-47.2	16.5	0.00e+00	0	42	0	72351744	59	5226
2026-01-27 22:53:10.95	29.90	12.23	-44.2	-47.0	16.7	0.00e+00	0	42	0	78643200	59	5136
2026-01-27 22:53:13.93	30.15	12.48	-44.0	-46.8	16.9	0.00e+00	0	43	0	83886080	59	5005
2026-01-27 22:53:16.91	30.41	12.74	-44.1	-46.8	16.9	0.00e+00	0	43	0	89128960	59	5039
2026-01-27 22:53:19.89	30.68	13.00	-43.9	-46.6	17.1	0.00e+00	0	43	0	95420416	59	4901
2026-01-27 22:53:22.86	30.95	13.26	-43.9	-46.7	17.0	0.00e+00	0	43	0	100663296	59	4949
2026-01-27 22:53:25.84	31.22	13.52	-44.0	-46.8	16.9	0.00e+00	0	43	0	105906176	59	4984
2026-01-27 22:53:28.82	31.50	13.79	-43.5	-46.2	17.4	0.00e+00	0	43	0	112197632	59	4678
2026-01-27 22:53:31.80	31.79	14.05	-43.4	-46.0	17.6	0.00e+00	0	43	0	117440512	58	4864
2026-01-27 22:53:34.78	32.08	14.32	-43.4	-46.1	17.6	0.00e+00	0	43	0	122683392	58	4902
2026-01-27 22:53:37.76	32.37	14.60	-43.5	-46.1	17.7	0.00e+00	0	43	0	128974848	58	4897
2026-01-27 22:53:40.74	32.67	14.87	-43.8	-46.5	17.3	0.00e+00	0	43	0	134217728	58	5158
2026-01-27 22:53:43.71	32.97	15.15	-43.9	-46.7	17.1	0.00e+00	0	43	0	139460608	58	5239
2026-01-27 22:53:46.69	33.28	15.43	-43.9	-46.5	17.3	0.00e+00	0	43	0	145752064	58	5157
2026-01-27 22:53:49.67	33.60	15.71	-43.9	-46.6	17.2	0.00e+00	0	43	0	150994944	58	5192
2026-01-27 22:53:52.65	33.92	16.00	-43.6	-46.2	17.6	0.00e+00	0	43	0	156237824	58	4962
2026-01-27 22:53:55.63	34.25	16.28	-43.5	-46.1	17.7	0.00e+00	0	43	0	162529280	58	4890
2026-01-27 22:53:58.61	34.58	16.57	-43.4	-46.0	17.7	0.00e+00	0	43	0	167772160	58	4861
2026-01-27 22:54:01.59	34.92	16.87	-43.7	-46.5	17.4	0.00e+00	0	43	0	173015040	58	5107
2026-01-27 22:54:04.57	35.27	17.16	-43.8	-46.5	17.4	0.00e+00	0	43	0	179306496	58	5118
2026-01-27 22:54:07.54	35.62	17.46	-43.9	-46.7	17.3	0.00e+00	0	43	0	184549376	58	5224
2026-01-27 22:54:10.52	35.98	17.76	-44.2	-46.9	16.9	0.00e+00	0	43	0	189792256	59	5086
2026-01-27 22:54:13.50	36.35	18.06	-44.3	-47.1	16.7	0.00e+00	0	43	0	196083712	59	5213
2026-01-27 22:54:16.48	36.72	18.37	-44.2	-47.0	16.8	0.00e+00	0	43	0	201326592	59	5154
2026-01-27 22:54:19.46	37.10	18.67	-44.0	-46.7	17.1	0.00e+00	0	43	0	206569472	59	4983
2026-01-27 22:54:22.44	37.49	18.99	-44.1	-46.8	17.0	0.00e+00	0	43	0	212860928	59	5018
2026-01-27 22:54:25.41	37.89	19.30	-44.1	-46.8	17.0	0.00e+00	0	43	0	218103808	59	5016
2026-01-27 22:54:28.39	38.29	19.61	-44.1	-46.8	17.1	0.00e+00	0	43	0	223346688	59	5021
2026-01-27 22:54:31.37	38.71	19.93	-44.3	-47.1	16.8	0.00e+00	0	43	0	229638144	59	5160
2026-01-27 22:54:34.35	39.13	20.26	-44.1	-46.8	17.0	0.00e+00	0	43	0	234881024	59	5038
2026-01-27 22:54:37.33	39.56	20.58	-44.2	-47.0	16.9	0.00e+00	0	43	0	240123904	59	5143
2026-01-27 22:54:40.31	40.00	20.91	-44.0	-46.7	17.1	0.00e+00	0	43	0	246415360	59	4965
2026-01-27 22:54:43.29	40.44	21.24	-44.2	-47.0	16.9	0.00e+00	0	43	0	251658240	59	5115
2026-01-27 22:54:46.27	40.90	21.57	-43.8	-46.4	17.4	0.00e+00	0	43	0	256901120	59	4791
2026-01-27 22:54:49.25	41.37	21.90	-43.9	-46.5	17.4	0.00e+00	0	43	0	263192576	59	4842
2026-01-27 22:54:52.22	41.85	22.24	-44.0	-46.7	17.1	0.00e+00	0	43	0	268435456	59	4959
2026-01-27 22:54:55.20	42.33	22.58	-44.1	-46.8	17.1	0.00e+00	0	43	0	273678336	59	4994
2026-01-27 22:54:58.18	42.83	22.92	-43.8	-46.4	17.4	0.00e+00	0	43	0	279969792	59	4781
2026-01-27 22:55:01.16	43.34	23.27	-43.3	-45.7	18.1	0.00e+00	0	43	0	285212672	58	4690
2026-01-27 22:55:04.14	43.86	23.61	-43.6	-46.2	17.7	0.00e+00	0	43	0	290455552	58	4971
2026-01-27 22:55:07.12	44.39	23.96	-44.3	-47.1	16.8	0.00e+00	0	43	0	296747008	59	5205
2026-01-27 22:55:10.10	44.93	24.32	-44.3	-47.1	16.8	0.00e+00	0	43	0	301989888	59	5215
2026-01-27 22:55:13.08	45.49	24.67	-43.7	-46.3	17.5	0.00e+00	0	43	0	307232768	59	4757
2026-01-27 22:55:16.06	46.06	25.03	-43.3	-45.8	18.1	0.00e+00	0	43	0	313524224	58	4739
2026-01-27 22:55:19.04	46.64	25.38	-43.2	-45.7	18.2	0.00e+00	0	43	0	318767104	58	4681
2026-01-27 22:55:22.01	47.23	25.74	-43.4	-45.9	18.0	0.00e+00	0	43	0	324009984	58	4766
2026-01-27 22:55:24.99	47.83	26.10	-43.6	-46.1	17.8	0.00e+00	0	43	0	330301440	58	4895
2026-01-27 22:55:27.97	48.45	26.47	-43.3	-45.8	18.1	0.00e+00	0	43	0	335544320	58	4718
2026-01-27 22:55:30.95	49.09	26.83	-43.3	-45.8	18.1	0.00e+00	0	43	0	340787200	58	4755
2026-01-27 22:55:33.93	49.73	27.20	-43.2	-45.6	18.3	0.00e+00	0	43	0	346030080	58	4606
2026-01-27 22:55:36.91	50.40	27.56	-42.9	-45.2	18.6	0.00e+00	0	43	0	352321536	57	4694
2026-01-27 22:55:39.89	51.08	27.93	-43.3	-45.7	18.2	0.00e+00	0	43	0	357564416	57	4958
2026-01-27 22:55:42.86	51.77	28.30	-43.5	-46.1	17.8	0.00e+00	0	43	0	362807296	57	5170
2026-01-27 22:55:45.84	52.48	28.66	-43.5	-46.1	17.9	0.00e+00	0	43	0	369098752	57	5160
2026-01-27 22:55:48.82	53.20	29.03	-43.9	-46.6	17.4	0.00e+00	0	43	0	374341632	58	5195
2026-01-27 22:55:51.80	53.95	29.40	-44.3	-47.0	17.0	0.00e+00	0	43	0	379584512	59	5117
2026-01-27 22:55:54.78	54.70	29.77	-44.6	-47.4	16.7	0.00e+00	0	43	0	385875968	60	5058
2026-01-27 22:55:57.76	55.48	30.14	-44.9	-47.9	16.1	0.00e+00	0	43	0	391118848	60	5387
2026-01-27 22:56:00.74	56.27	30.50	-44.9	-47.9	16.2	0.00e+00	0	43	0	396361728	60	5380
2026-01-27 22:56:03.72	57.09	30.87	-45.8	-49.2	15.0	0.00e+00	0	43	0	402653184	62	5532
2026-01-27 22:56:06.69	57.91	31.23	-46.3	-50.1	14.1	6.10e-06	0	43	0	407896064	63	5812
2026-01-27 22:56:09.67	58.76	31.59	-46.3	-50.0	14.0	2.20e-06	0	43	0	413138944	63	5783
2026-01-27 22:56:12.65	59.63	31.95	-46.4	-50.1	14.1	4.50e-06	0	43	0	419430400	63	5827
2026-01-27 22:56:15.63	60.52	32.30	-47.0	-51.2	12.8	1.67e-05	0	43	0	424673280	64	6254
2026-01-27 22:56:18.61	61.42	32.66	-46.2	-49.9	14.2	7.00e-07	0	43	0	429916160	64	5366
2026-01-27 22:56:21.59	62.35	33.00	-46.7	-50.8	13.3	1.06e-05	0	43	0	436207616	64	5926
2026-01-27 22:56:24.57	63.29	33.35	-47.0	-51.3	12.8	7.93e-05	0	43	0	441450496	65	5950
2026-01-27 22:56:27.54	64.25	33.69	-47.1	-51.4	12.6	9.53e-05	0	43	0	446693376	65	6061
2026-01-27 22:56:30.52	65.24	34.02	-46.4	-50.3	13.8	7.60e-06	0	43	0	452984832	64	5604
2026-01-27 22:56:33.50	66.24	34.35	-46.9	-51.0	13.0	1.90e-05	0	43	0	458227712	64	6113
2026-01-27 22:56:36.48	67.26	34.67	-47.4	-52.0	11.8	3.62e-04	0	43	0	463470592	65	6474
2026-01-27 22:56:39.46	68.31	34.98	-45.5	-48.6	15.6	0.00e+00	0	43	0	469762048	62	5203
2026-01-27 22:56:42.44	69.37	35.29	-45.8	-49.2	15.0	0.00e+00	0	43	0	475004928	62	5541
2026-01-27 22:56:45.42	70.46	35.59	-46.3	-50.0	14.1	4.50e-06	0	43	0	480247808	64	5434
2026-01-27 22:56:48.40	71.56	35.88	-44.2	-47.0	17.0	0.00e+00	0	43	0	486539264	60	4836
2026-01-27 22:56:51.38	72.68	36.16	-44.2	-46.8	17.2	0.00e+00	0	43	0	491782144	59	5035
2026-01-27 22:56:54.35	73.82	36.43	-44.4	-47.1	16.9	0.00e+00	0	43	0	497025024	59	5194
2026-01-27 22:56:57.33	74.98	36.69	-43.2	-45.5	18.4	0.00e+00	0	43	0	503316480	58	4595
2026-01-27 22:57:00.31	76.16	36.94	-43.4	-45.9	18.0	0.00e+00	0	43	0	508559360	57	5082
2026-01-27 22:57:03.29	77.36	37.18	-44.3	-47.0	17.1	0.00e+00	0	43	0	513802240	59	5123
2026-01-27 22:57:06.27	78.57	37.41	-44.5	-47.4	16.7	0.00e+00	0	43	0	520093696	59	5351
2026-01-27 22:57:09.25	79.80	37.62	-44.0	-46.7	17.4	0.00e+00	0	43	0	525336576	60	4654
2026-01-27 22:57:12.23	81.04	37.82	-43.5	-46.0	17.9	0.00e+00	0	43	0	530579456	58	4864
2026-01-27 22:57:15.21	82.30	38.01	-44.6	-47.6	16.5	0.00e+00	0	43	0	536870912	60	5208
2026-01-27 22:57:18.19	83.58	38.18	-45.0	-48.2	16.0	0.00e+00	0	43	0	542113792	60	5576
2026-01-27 22:57:21.16	84.86	38.33	-44.3	-47.1	17.0	0.00e+00	0	43	0	547356672	60	4920
2026-01-27 22:57:24.14	86.16	38.47	-43.7	-46.4	17.6	0.00e+00	0	43	0	553648128	58	5063
2026-01-27 22:57:27.12	87.47	38.60	-44.1	-47.0	17.0	0.00e+00	0	43	0	558891008	59	5116
2026-01-27 22:57:30.10	88.79	38.71	-45.3	-48.7	15.4	0.00e+00	0	43	0	564133888	61	5581
2026-01-27 22:57:33.08	90.11	38.80	-44.3	-47.1	17.0	0.00e+00	0	43	0	569376768	60	4906
2026-01-27 22:57:36.06	91.45	38.87	-44.3	-47.1	16.9	0.00e+00	0	43	0	575668224	60	4900
2026-01-27 22:57:39.03	92.78	38.93	-46.4	-50.3	13.9	0.00e+00	0	43	0	580911104	63	5924
2026-01-27 22:57:42.01	94.12	38.97	-45.3	-48.5	15.7	0.00e+00	0	43	0	586153984	62	5103
2026-01-27 22:57:44.99	95.47	39.00	-44.1	-46.8	17.3	0.00e+00	0	43	0	592445440	60	4718
2026-01-27 22:57:47.97	96.82	39.00	-43.1	-45.4	18.5	0.00e+00	0	43	0	597688320	58	4544
2026-01-27 22:57:50.94	98.16	38.99	-43.9	-46.5	17.5	0.00e+00	0	43	0	602931200	58	5102
2026-01-27 22:57:53.92	99.50	38.96	-43.9	-46.5	17.5	0.00e+00	0	43	0	609222656	58	5132
2026-01-27 22:57:56.90	100.85	38.92	-44.3	-47.0	17.0	0.00e+00	0	43	0	614465536	60	4861
2026-01-27 22:57:59.88	102.18	38.85	-43.5	-46.0	18.0	0.00e+00	0	43	0	619708416	58	4831
2026-01-27 22:58:02.86	103.52	38.77	-44.3	-47.0	16.9	0.00e+00	0	43	0	625999872	59	5154
2026-01-27 22:58:05.84	104.84	38.68	-44.1	-46.8	17.2	0.00e+00	0	43	0	631242752	60	4752
2026-01-27 22:58:08.82	106.16	38.56	-43.4	-45.9	18.1	0.00e+00	0	43	0	636485632	58	4774
2026-01-27 22:58:11.80	107.47	38.43	-43.4	-45.9	18.1	0.00e+00	0	43	0	642777088	58	4784
2026-01-27 22:58:14.77	108.76	38.29	-44.7	-47.7	16.4	0.00e+00	0	43	0	648019968	60	5235
2026-01-27 22:58:17.75	110.04	38.13	-42.9	-45.3	18.6	0.00e+00	0	43	0	653262848	57	4707
2026-01-27 22:58:20.73	111.32	37.95	-43.6	-46.1	17.9	0.00e+00	0	43	0	659554304	58	4907
2026-01-27 22:58:23.71	112.57	37.76	-43.2	-45.6	18.3	0.00e+00	0	43	0	664797184	57	4888
2026-01-27 22:58:26.69	113.82	37.56	-44.8	-47.8	16.4	0.00e+00	0	43	0	670040064	60	5318
2026-01-27 22:58:29.67	115.05	37.34	-43.5	-46.1	17.9	0.00e+00	0	43	0	676331520	58	4894
2026-01-27 22:58:32.65	116.26	37.11	-42.5	-44.8	19.1	0.00e+00	0	43	0	681574400	57	4462
2026-01-27 22:58:35.62	117.45	36.87	-42.1	-44.3	19.4	0.00e+00	0	43	0	686817280	54	5002
2026-01-27 22:58:38.60	118.62	36.62	-43.7	-46.2	17.7	0.00e+00	0	43	0	693108736	58	4981
2026-01-27 22:58:41.58	119.78	36.35	-42.6	-44.9	18.9	0.00e+00	0	43	0	698351616	56	4789
2026-01-27 22:58:44.56	120.92	36.08	-40.5	-42.4	20.9	0.00e+00	0	43	0	703594496	52	4542
2026-01-27 22:58:47.54	122.04	35.79	-42.2	-44.4	19.3	0.00e+00	0	43	0	709885952	54	5093
2026-01-27 22:58:50.52	123.14	35.50	-42.8	-45.2	18.6	0.00e+00	0	43	0	715128832	57	4684
2026-01-27 22:58:53.50	124.22	35.20	-44.4	-47.2	16.9	0.00e+00	0	43	0	720371712	59	5222
2026-01-27 22:58:56.48	125.29	34.89	-43.4	-45.9	18.0	0.00e+00	0	43	0	726663168	58	4771
2026-01-27 22:58:59.46	126.33	34.57	-44.9	-47.8	16.3	0.00e+00	0	43	0	731906048	60	5335
2026-01-27 22:59:02.43	127.35	34.24	-45.6	-48.8	15.3	0.00e+00	0	43	0	737148928	62	5311
2026-01-27 22:59:05.41	128.35	33.91	-46.8	-50.8	13.2	3.80e-06	0	43	0	743440384	64	5976
2026-01-27 22:59:08.39	129.33	33.57	-45.9	-49.5	14.6	1.60e-05	0	43	0	748683264	63	5405
2026-01-27 22:59:11.37	130.29	33.23	-45.4	-48.5	15.6	0.00e+00	0	43	0	753926144	62	5119
2026-01-27 22:59:14.35	131.23	32.88	-46.6	-50.6	13.4	1.14e-05	0	43	0	760217600	64	5825
2026-01-27 22:59:17.33	132.15	32.53	-47.7	-53.0	11.1	9.38e-04	0	43	0	765460480	65	7233
2026-01-27 22:59:20.30	133.05	32.18	-47.0	-51.9	12.0	3.38e-03	0	43	0	770703360	66	6032
2026-01-27 22:59:23.28	133.94	31.82	-45.0	-48.1	15.9	0.00e+00	0	43	0	776994816	62	4926
2026-01-27 22:59:26.26	134.80	31.46	-46.6	-50.6	13.4	3.05e-05	0	43	0	782237696	64	5790
2026-01-27 22:59:29.24	135.65	31.09	-45.3	-48.5	15.6	0.00e+00	0	43	0	787480576	62	5109
2026-01-27 22:59:32.22	136.47	30.73	-46.6	-50.7	13.4	5.30e-06	0	43	0	793772032	63	6206
2026-01-27 22:59:35.20	137.28	30.36	-43.8	-46.4	17.5	0.00e+00	0	43	0	799014912	59	4785
2026-01-27 22:59:38.17	138.07	29.99	-44.2	-46.4	17.7	0.00e+00	0	43	0	804257792	58	5077
2026-01-27 22:59:41.15	138.84	29.62	-45.4	-48.6	15.4	0.00e+00	0	44	0	810549248	62	5202
2026-01-27 22:59:44.13	139.60	29.25	-43.5	-46.1	17.8	0.00e+00	0	43	0	815792128	59	4603
2026-01-27 22:59:47.11	140.34	28.88	-44.9	-48.0	16.1	0.00e+00	0	43	0	821035008	60	5417
2026-01-27 22:59:50.09	141.06	28.51	-43.1	-45.5	18.3	0.00e+00	0	43	0	827326464	58	4579
2026-01-27 22:59:53.07	141.77	28.14	-42.0	-44.2	19.3	0.00e+00	0	43	0	832569344	55	4665
2026-01-27 22:59:56.05	142.46	27.77	-43.3	-45.8	18.0	0.00e+00	0	43	0	837812224	57	5018
2026-01-27 22:59:59.03	143.14	27.40	-42.2	-44.5	19.2	0.00e+00	0	43	0	843055104	56	4581
2026-01-27 23:00:02.00	143.80	27.04	-40.8	-42.8	20.5	0.00e+00	0	43	0	849346560	53	4473
2026-01-27 23:00:04.98	144.44	26.67	-42.5	-45.0	18.6	0.00e+00	0	43	0	854589440	55	5115
2026-01-27 23:00:07.96	145.07	26.30	-42.0	-44.3	19.4	0.00e+00	0	43	0	859832320	56	4452
2026-01-27 23:00:10.94	145.69	25.94	-41.0	-43.1	20.3	0.00e+00	0	43	0	866123776	53	4615
2026-01-27 23:00:13.92	146.29	25.57	-42.0	-44.3	19.1	0.00e+00	0	43	0	871366656	54	5033
2026-01-27 23:00:16.89	146.88	25.21	-42.1	-44.3	19.1	0.00e+00	0	43	0	876609536	55	4758
2026-01-27 23:00:19.87	147.46	24.85	-41.2	-43.3	20.0	0.00e+00	0	43	0	882900992	54	4461
2026-01-27 23:00:22.85	148.02	24.50	-41.0	-43.1	20.3	0.00e+00	0	43	0	888143872	53	4609
2026-01-27 23:00:25.83	148.58	24.14	-41.5	-43.7	19.7	0.00e+00	0	43	0	893386752	53	4971
2026-01-27 23:00:28.81	149.12	23.79	-41.5	-43.7	19.6	0.00e+00	0	43	0	899678208	53	4942
2026-01-27 23:00:31.79	149.64	23.44	-41.9	-44.2	19.3	0.00e+00	0	43	0	904921088	54	4941
2026-01-27 23:00:34.77	150.16	23.09	-42.0	-44.2	19.2	0.00e+00	0	43	0	910163968	54	4981
2026-01-27 23:00:37.75	150.67	22.74	-41.7	-44.0	19.4	0.00e+00	0	43	0	916455424	55	4567
2026-01-27 23:00:40.73	151.16	22.40	-41.8	-44.1	19.3	0.00e+00	0	43	0	921698304	55	4626
2026-01-27 23:00:43.71	151.65	22.05	-42.1	-44.4	19.0	0.00e+00	0	43	0	926941184	55	4807
2026-01-27 23:00:46.68	152.12	21.72	-42.1	-44.4	19.0	0.00e+00	0	43	0	933232640	55	4791
2026-01-27 23:00:49.66	152.58	21.38	-42.2	-44.5	19.0	0.00e+00	0	43	0	938475520	55	4841
2026-01-27 23:00:52.64	153.04	21.05	-43.2	-45.7	18.0	0.00e+00	0	43	0	943718400	56	5241
2026-01-27 23:00:55.62	153.48	20.71	-43.8	-46.5	17.2	0.00e+00	0	43	0	950009856	58	5149
2026-01-27 23:00:58.60	153.92	20.39	-43.9	-46.6	17.1	0.00e+00	0	43	0	955252736	58	5205
2026-01-27 23:01:01.58	154.35	20.06	-43.2	-45.8	17.9	0.00e+00	0	44	0	960495616	58	4714
2026-01-27 23:01:04.56	154.77	19.74	-43.6	-46.2	17.5	0.00e+00	0	43	0	966787072	58	4931
2026-01-27 23:01:07.54	155.18	19.42	-43.8	-46.5	17.1	0.00e+00	0	43	0	972029952	58	5153
2026-01-27 23:01:10.52	155.58	19.10	-43.8	-46.6	17.0	0.00e+00	0	43	0	977272832	58	5193
2026-01-27 23:01:13.50	155.97	18.78	-43.5	-46.1	17.5	0.00e+00	0	43	0	983564288	58	4918
2026-01-27 23:01:16.48	156.36	18.47	-43.2	-45.8	17.8	0.00e+00	0	43	0	988807168	57	4991
2026-01-27 23:01:19.46	156.74	18.16	-43.3	-45.9	17.7	0.00e+00	0	43	0	994050048	57	5062
2026-01-27 23:01:22.43	157.11	17.86	-43.6	-46.4	17.2	0.00e+00	0	44	0	1000341504	58	5045
2026-01-27 23:01:25.41	157.47	17.55	-43.8	-46.6	17.0	0.00e+00	0	43	0	1005584384	58	5199
2026-01-27 23:01:28.39	157.83	17.25	-43.3	-45.9	17.7	0.00e+00	0	43	0	1010827264	58	4807
2026-01-27 23:01:31.37	158.18	16.95	-43.3	-45.9	17.7	0.00e+00	0	43	0	1017118720	58	4771
2026-01-27 23:01:34.35	158.52	16.66	-43.0	-45.6	17.9	0.00e+00	0	43	0	1022361600	57	4921
2026-01-27 23:01:37.33	158.86	16.36	-43.2	-45.8	17.7	0.00e+00	0	43	0	1027604480	57	5031
2026-01-27 23:01:40.31	159.19	16.07	-44.0	-46.8	16.8	0.00e+00	0	43	0	1033895936	58	5299
2026-01-27 23:01:43.29	159.52	15.78	-44.2	-47.1	16.5	0.00e+00	0	43	0	1039138816	59	5173
2026-01-27 23:01:46.26	159.83	15.50	-44.2	-47.1	16.5	0.00e+00	0	43	0	1044381696	59	5198
2026-01-27 23:01:49.24	160.15	15.21	-44.1	-46.9	16.6	0.00e+00	0	44	0	1050673152	59	5093
2026-01-27 23:01:52.22	160.45	14.93	-44.3	-47.3	16.3	0.00e+00	0	43	0	1055916032	59	5307
2026-01-27 23:01:55.20	160.76	14.65	-44.4	-47.5	16.1	0.00e+00	0	43	0	1061158912	59	5412
2026-01-27 23:01:58.18	161.05	14.38	-44.6	-47.9	15.8	0.00e+00	0	43	0	1067450368	60	5348
2026-01-27 23:02:01.16	161.34	14.11	-44.5	-47.7	15.9	0.00e+00	0	43	0	1072693248	60	5237
2026-01-27 23:02:04.14	161.63	13.83	-44.2	-47.2	16.4	0.00e+00	0	43	0	1077936128	60	4955
2026-01-27 23:02:07.11	161.91	13.57	-43.7	-46.5	17.0	0.00e+00	0	43	0	1084227584	59	4832
2026-01-27 23:02:10.09	162.19	13.30	-43.8	-46.6	16.9	0.00e+00	0	43	0	1089470464	59	4882
2026-01-27 23:02:13.07	162.46	13.04	-43.4	-46.0	17.3	0.00e+00	0	43	0	1094713344	58	4843
2026-01-27 23:02:16.05	162.73	12.77	-43.4	-46.0	17.4	0.00e+00	0	43	0	1101004800	58	4866
2026-01-27 23:02:19.03	162.99	12.51	-43.1	-45.6	17.8	0.00e+00	0	43	0	1106247680	58	4651
2026-01-27 23:02:22.01	163.25	12.26	-43.2	-45.9	17.5	0.00e+00	0	43	0	1111490560	58	4777
2026-01-27 23:02:24.99	163.50	12.00	-43.6	-46.4	17.0	0.00e+00	0	43	0	1117782016	58	5091
2026-01-27 23:02:27.97	163.75	11.75	-44.0	-47.0	16.5	0.00e+00	0	43	0	1123024896	58	5420
2026-01-27 23:02:30.94	163.99	11.50	-44.4	-47.5	16.0	0.00e+00	0	43	0	1128267776	59	5439
2026-01-27 23:02:33.92	164.24	11.25	-44.9	-48.3	15.2	0.00e+00	0	43	0	1133510656	60	5629
2026-01-27 23:02:36.90	164.47	11.00	-45.1	-48.6	14.9	0.00e+00	0	43	0	1139802112	60	5801
2026-01-27 23:02:39.88	164.71	10.76	-45.3	-49.0	14.5	0.00e+00	0	43	0	1145044992	61	5771
2026-01-27 23:02:42.86	164.94	10.52	-45.1	-48.8	14.7	0.00e+00	0	43	0	1150287872	61	5651
2026-01-27 23:02:45.84	165.16	10.28	-45.0	-48.8	14.7	0.00e+00	0	43	0	1156579328	61	5623
2026-01-27 23:02:48.82	165.39	10.04	-44.5	-48.2	15.2	0.00e+00	0	44	0	1161822208	61	5269
2026-01-27 23:02:51.80	165.61	9.80	-44.3	-48.3	15.1	0.00e+00	0	43	0	1167065088	60	5620
2026-01-27 23:02:54.77	165.82	9.57	-44.0	-48.2	15.2	7.00e-07	0	43	0	1173356544	60	5588
2026-01-27 23:02:57.75	166.04	9.33	-43.9	-47.9	15.4	0.00e+00	0	43	0	1178599424	59	5691
2026-01-27 23:03:00.73	166.25	9.10	-44.1	-48.1	15.2	0.00e+00	0	43	0	1183842304	59	5845
2026-01-27 23:03:03.71	166.45	8.87	-49.2	-64.4	3.8	1.49e+00	0	43	104	1188036608	69	21318
2026-01-27 23:03:06.69	166.66	8.65	-49.9	-65.2	3.8	1.49e+00	0	43	104	1188036608	70	22114
2026-01-27 23:03:09.66	166.86	8.42	-50.2	-65.4	3.8	1.49e+00	0	44	104	1188036608	71	21506
2026-01-27 23:03:12.64	167.05	8.20	-50.2	-65.6	3.8	1.49e+00	0	43	104	1188036608	71	21770
2026-01-27 23:03:15.62	167.25	7.97	-50.3	-65.6	3.8	1.49e+00	0	43	104	1188036608	71	21818
2026-01-27 23:03:18.60	167.44	7.75	-50.4	-65.6	3.8	1.49e+00	0	43	104	1188036608	71	21844
2026-01-27 23:03:21.58	167.63	7.53	-50.0	-65.6	3.8	1.49e+00	0	44	104	1188036608	71	21964
2026-01-27 23:03:24.56	167.82	7.32	-50.3	-65.6	3.8	1.49e+00	0	43	104	1188036608	71	21949
2026-01-27 23:03:27.54	168.00	7.10	-50.3	-65.6	3.8	1.49e+00	0	43	104	1188036608	71	21767
2026-01-27 23:03:30.52	168.18	6.89	-50.2	-65.5	3.8	1.49e+00	0	44	104	1188036608	71	21679
2026-01-27 23:03:33.50	168.36	6.67	-50.2	-65.4	3.8	1.49e+00	0	43	104	1188036608	71	21343
2026-01-27 23:03:36.48	168.54	6.46	-49.8	-65.0	3.8	1.49e+00	0	43	104	1188036608	71	20385
2026-01-27 23:03:39.45	168.71	6.25	-49.5	-64.9	3.8	1.49e+00	0	44	104	1188036608	71	20112
2026-01-27 23:03:42.43	168.88	6.05	-49.5	-64.8	3.8	1.49e+00	0	43	104	1188036608	71	20015
2026-01-27 23:03:45.41	169.05	5.84	-49.5	-64.8	3.8	1.49e+00	0	43	104	1188036608	71	20023
2026-01-27 23:03:48.39	169.22	5.63	-49.5	-64.8	3.8	1.49e+00	0	43	104	1188036608	71	19974
2026-01-27 23:03:51.37	169.39	5.43	-49.5	-64.8	3.8	1.49e+00	0	44	104	1188036608	71	19929
2026-01-27 23:03:54.35	169.55	5.23	-49.5	-64.8	3.8	1.49e+00	0	43	104	1188036608	71	19883
2026-01-27 23:03:57.33	169.71	5.03	-49.5	-64.8	3.8	1.49e+00	0	43	104	1188036608	71	19913

#Closed at: 2026-01-27 23:03:59
#Recorded file [1188 MB]: D:/Data/31040_260128_015135.dat