passes_logs/2026/01/27/T1/T1__20260127_222159_NOAA_21_JPSS-2_rec.log

#Pass ID: 20260127_222159_NOAA 21 (JPSS-2)
#Satellite: NOAA 21 (JPSS-2)
#Configuration: NOAA 21
#almurnet v.1.7.20251203
#Start time: 2026-01-27 22:22:00

#Version: 2.0.20230620
#Station: T1
#Location: 37.570604 lon 55.790049 lat
#TLE: 1 54234U 22150A   26027.41809747  .00000179  00000+0  10565-3 0  9991
#TLE: 2 54234  98.7510 328.1683 0000854 205.0798 155.0336 14.19540145166571

#Time	Az	El	Level	Level2	SNR	BER	BlckErr	Temp	State	Recorded	gain1	gain2
2026-01-27 22:22:00.19	27.41	5.04	-50.0	-63.3	3.8	1.49e+00	0	40	0	0	71	16782
2026-01-27 22:22:03.17	27.64	5.23	-50.2	-63.4	3.8	1.49e+00	0	40	104	0	72	15957
2026-01-27 22:22:06.14	27.87	5.41	-50.3	-63.4	3.8	1.49e+00	0	40	104	0	72	16026
2026-01-27 22:22:09.12	28.10	5.59	-50.3	-63.4	3.8	1.49e+00	0	40	104	0	72	15975
2026-01-27 22:22:12.10	28.34	5.78	-50.2	-63.3	3.8	1.49e+00	0	40	104	0	72	15816
2026-01-27 22:22:15.08	28.58	5.97	-50.0	-63.1	3.8	1.49e+00	0	40	104	0	72	15545
2026-01-27 22:22:18.06	28.83	6.15	-49.1	-62.8	3.8	1.49e+00	0	40	104	0	70	16832
2026-01-27 22:22:21.04	29.07	6.34	-48.9	-62.6	3.8	1.49e+00	0	41	104	0	69	17471
2026-01-27 22:22:24.02	29.32	6.53	-48.9	-62.7	3.8	1.49e+00	0	41	104	0	69	17548
2026-01-27 22:22:27.00	29.58	6.72	-48.9	-62.7	3.8	1.49e+00	0	41	104	0	69	17489
2026-01-27 22:22:29.98	29.83	6.92	-48.8	-62.5	3.8	1.49e+00	0	41	104	0	69	17261
2026-01-27 22:22:32.95	30.09	7.11	-48.8	-62.4	3.8	1.49e+00	0	41	104	0	69	16987
2026-01-27 22:22:35.93	30.36	7.30	-48.8	-62.2	3.8	1.49e+00	0	41	104	0	69	16537
2026-01-27 22:22:38.91	30.62	7.50	-48.8	-61.9	3.8	1.49e+00	0	41	104	0	69	16082
2026-01-27 22:22:41.89	30.89	7.69	-48.8	-62.2	3.8	1.49e+00	0	41	104	0	69	16647
2026-01-27 22:22:44.87	31.16	7.89	-48.8	-62.6	3.8	1.49e+00	0	41	104	0	69	17351
2026-01-27 22:22:47.85	31.44	8.08	-48.9	-62.7	3.8	1.49e+00	0	41	104	0	69	17505
2026-01-27 22:22:50.83	31.72	8.28	-48.9	-62.6	3.8	1.49e+00	0	41	104	0	69	17445
2026-01-27 22:22:53.81	32.00	8.48	-48.8	-62.6	3.8	1.49e+00	0	41	104	0	69	17358
2026-01-27 22:22:56.79	32.29	8.68	-48.8	-61.8	3.8	1.49e+00	0	41	104	0	69	15891
2026-01-27 22:22:59.77	32.58	8.88	-48.4	-58.7	4.0	1.37e+00	0	42	104	0	68	11729
2026-01-27 22:23:02.74	32.88	9.09	-46.9	-51.9	9.3	3.76e-02	0	42	0	0	65	6368
2026-01-27 22:23:05.72	33.18	9.29	-47.5	-52.8	8.6	8.87e-03	0	42	0	0	65	7061
2026-01-27 22:23:08.70	33.48	9.49	-42.1	-44.2	17.0	0.00e+00	0	42	0	0	56	4434
2026-01-27 22:23:11.68	33.79	9.70	-41.6	-43.6	17.5	0.00e+00	0	42	0	0	54	4642
2026-01-27 22:23:14.66	34.10	9.91	-41.5	-43.5	17.6	0.00e+00	0	42	0	0	54	4547
2026-01-27 22:23:17.64	34.41	10.11	-41.2	-43.1	18.0	0.00e+00	0	42	0	0	54	4385
2026-01-27 22:23:20.62	34.73	10.32	-41.1	-43.1	18.1	0.00e+00	0	42	0	0	54	4346
2026-01-27 22:23:23.60	35.06	10.53	-41.2	-43.1	18.0	0.00e+00	0	42	0	0	54	4373
2026-01-27 22:23:26.57	35.39	10.74	-41.0	-42.9	18.2	0.00e+00	0	42	0	0	54	4283
2026-01-27 22:23:29.55	35.72	10.95	-40.9	-42.9	18.3	0.00e+00	0	42	0	0	53	4497
2026-01-27 22:23:32.53	36.06	11.17	-40.9	-42.8	18.4	0.00e+00	0	42	0	0	53	4472
2026-01-27 22:23:35.51	36.40	11.38	-40.8	-42.7	18.4	0.00e+00	0	42	0	0	53	4429
2026-01-27 22:23:38.49	36.75	11.59	-40.7	-42.7	18.5	0.00e+00	0	42	0	0	53	4400
2026-01-27 22:23:41.47	37.10	11.81	-40.7	-42.6	18.6	0.00e+00	0	42	0	0	53	4349
2026-01-27 22:23:44.45	37.46	12.03	-40.7	-42.5	18.7	0.00e+00	0	42	0	0	53	4319
2026-01-27 22:23:47.43	37.82	12.24	-40.6	-42.5	18.7	0.00e+00	0	42	0	0	52	4559
2026-01-27 22:23:50.41	38.19	12.46	-40.6	-42.5	18.7	0.00e+00	0	42	0	0	52	4554
2026-01-27 22:23:53.38	38.56	12.68	-40.6	-42.4	18.7	0.00e+00	0	42	0	0	52	4523
2026-01-27 22:23:56.36	38.94	12.90	-40.5	-42.4	18.7	0.00e+00	0	42	0	0	52	4507
2026-01-27 22:23:59.34	39.32	13.12	-40.5	-42.3	18.8	0.00e+00	0	42	0	0	52	4474
2026-01-27 22:24:02.32	39.71	13.34	-40.4	-42.2	19.0	0.00e+00	0	42	0	0	52	4413
2026-01-27 22:24:05.30	40.11	13.57	-40.4	-42.2	19.0	0.00e+00	0	42	0	0	52	4434
2026-01-27 22:24:08.28	40.51	13.79	-40.5	-42.3	18.9	0.00e+00	0	42	0	0	52	4455
2026-01-27 22:24:11.26	40.92	14.02	-40.5	-42.4	18.9	0.00e+00	0	42	0	0	52	4497
2026-01-27 22:24:14.24	41.33	14.24	-40.6	-42.4	18.8	0.00e+00	0	42	0	0	52	4534
2026-01-27 22:24:17.21	41.75	14.47	-40.6	-42.4	18.8	0.00e+00	0	42	0	0	52	4528
2026-01-27 22:24:20.19	42.17	14.69	-40.5	-42.3	18.9	0.00e+00	0	42	0	0	52	4486
2026-01-27 22:24:23.17	42.60	14.92	-40.6	-42.5	18.8	0.00e+00	0	42	0	0	52	4558
2026-01-27 22:24:26.15	43.04	15.15	-40.8	-42.6	18.7	0.00e+00	0	42	0	0	52	4644
2026-01-27 22:24:29.13	43.49	15.38	-40.6	-42.5	18.8	0.00e+00	0	42	0	0	52	4554
2026-01-27 22:24:32.11	43.94	15.61	-40.6	-42.4	18.9	0.00e+00	0	42	0	0	52	4504
2026-01-27 22:24:35.09	44.40	15.84	-40.6	-42.4	18.9	0.00e+00	0	42	0	0	52	4508
2026-01-27 22:24:38.07	44.86	16.07	-40.7	-42.5	18.8	0.00e+00	0	42	0	0	52	4575
2026-01-27 22:24:41.05	45.33	16.30	-40.7	-42.5	18.7	0.00e+00	0	42	0	0	52	4591
2026-01-27 22:24:44.02	45.81	16.53	-40.8	-42.6	18.7	0.00e+00	0	42	0	0	52	4627
2026-01-27 22:24:47.00	46.30	16.76	-40.8	-42.7	18.6	0.00e+00	0	42	0	0	52	4666
2026-01-27 22:24:49.98	46.79	16.99	-40.8	-42.6	18.6	0.00e+00	0	42	0	0	52	4651
2026-01-27 22:24:52.96	47.29	17.22	-40.9	-42.8	18.5	0.00e+00	0	42	0	0	52	4730
2026-01-27 22:24:55.94	47.80	17.45	-41.0	-42.9	18.5	0.00e+00	0	42	0	0	52	4764
2026-01-27 22:24:58.92	48.32	17.68	-40.8	-42.6	18.7	0.00e+00	0	42	0	0	52	4645
2026-01-27 22:25:01.89	48.84	17.91	-40.6	-42.5	18.8	0.00e+00	0	42	0	0	52	4560
2026-01-27 22:25:04.87	49.37	18.15	-40.7	-42.6	18.7	0.00e+00	0	42	0	0	52	4626
2026-01-27 22:25:07.85	49.91	18.38	-40.6	-42.4	18.9	0.00e+00	0	42	0	0	52	4545
2026-01-27 22:25:10.83	50.46	18.61	-40.6	-42.4	18.9	0.00e+00	0	42	0	0	52	4545
2026-01-27 22:25:13.81	51.02	18.84	-40.4	-42.2	19.1	0.00e+00	0	42	0	0	52	4433
2026-01-27 22:25:16.79	51.58	19.07	-40.3	-42.1	19.2	0.00e+00	0	42	0	0	52	4377
2026-01-27 22:25:19.76	52.15	19.30	-40.2	-41.9	19.4	0.00e+00	0	42	0	0	52	4268
2026-01-27 22:25:22.74	52.74	19.53	-40.2	-41.9	19.4	0.00e+00	0	43	0	0	52	4274
2026-01-27 22:25:25.72	53.33	19.75	-40.1	-41.8	19.5	0.00e+00	0	42	0	0	52	4230
2026-01-27 22:25:28.70	53.93	19.98	-40.0	-41.8	19.5	0.00e+00	0	42	0	0	52	4199
2026-01-27 22:25:31.68	54.53	20.21	-40.2	-41.9	19.4	0.00e+00	0	43	0	0	52	4271
2026-01-27 22:25:34.66	55.15	20.43	-40.2	-42.0	19.4	0.00e+00	0	42	0	0	52	4303
2026-01-27 22:25:37.64	55.77	20.66	-40.2	-42.0	19.3	0.00e+00	0	42	0	0	52	4320
2026-01-27 22:25:40.61	56.41	20.88	-40.2	-42.0	19.3	0.00e+00	0	42	0	0	52	4308
2026-01-27 22:25:43.59	57.05	21.10	-40.1	-41.9	19.4	0.00e+00	0	42	0	0	52	4260
2026-01-27 22:25:46.57	57.70	21.32	-40.0	-41.7	19.7	0.00e+00	0	42	0	0	51	4424
2026-01-27 22:25:49.55	58.36	21.54	-39.9	-41.6	19.7	0.00e+00	0	42	0	0	51	4386
2026-01-27 22:25:52.53	59.03	21.75	-39.9	-41.6	19.6	0.00e+00	0	42	0	0	51	4364
2026-01-27 22:25:55.51	59.71	21.96	-39.9	-41.6	19.7	0.00e+00	0	42	0	0	51	4378
2026-01-27 22:25:58.49	60.40	22.17	-39.8	-41.6	19.8	0.00e+00	0	42	0	0	51	4358
2026-01-27 22:26:01.46	61.10	22.38	-39.6	-41.3	19.9	0.00e+00	0	42	0	0	51	4227
2026-01-27 22:26:04.44	61.80	22.59	-39.5	-41.2	20.0	0.00e+00	0	43	0	0	50	4400
2026-01-27 22:26:07.42	62.52	22.79	-39.7	-41.4	19.9	0.00e+00	0	42	0	0	50	4532
2026-01-27 22:26:10.40	63.25	22.99	-39.8	-41.5	19.8	0.00e+00	0	42	0	0	50	4573
2026-01-27 22:26:13.38	63.98	23.19	-39.7	-41.4	20.0	0.00e+00	0	42	0	0	50	4504
2026-01-27 22:26:16.36	64.72	23.38	-40.0	-41.7	19.6	0.00e+00	0	43	0	0	50	4674
2026-01-27 22:26:19.34	65.48	23.57	-40.1	-41.9	19.5	0.00e+00	0	42	0	0	51	4501
2026-01-27 22:26:22.31	66.24	23.76	-40.0	-41.7	19.7	0.00e+00	0	43	0	0	51	4433
2026-01-27 22:26:25.29	67.01	23.94	-40.1	-41.8	19.6	0.00e+00	0	42	0	0	51	4474
2026-01-27 22:26:28.27	67.79	24.12	-40.2	-42.0	19.5	0.00e+00	0	42	0	0	51	4549
2026-01-27 22:26:31.25	68.57	24.29	-40.2	-41.9	19.5	0.00e+00	0	42	0	0	51	4512
2026-01-27 22:26:34.23	69.37	24.46	-40.0	-41.8	19.7	0.00e+00	0	43	0	0	51	4445
2026-01-27 22:26:37.21	70.18	24.62	-40.2	-42.0	19.4	0.00e+00	0	42	0	0	51	4553
2026-01-27 22:26:40.19	70.99	24.78	-40.1	-41.8	19.6	0.00e+00	0	43	0	0	51	4478
2026-01-27 22:26:43.16	71.81	24.94	-40.2	-41.9	19.5	0.00e+00	0	42	0	0	51	4512
2026-01-27 22:26:46.14	72.64	25.09	-40.2	-41.9	19.5	0.00e+00	0	43	0	0	51	4521
2026-01-27 22:26:49.12	73.47	25.23	-39.7	-41.4	19.9	0.00e+00	0	42	0	0	51	4281
2026-01-27 22:26:52.10	74.32	25.37	-39.9	-41.6	19.7	0.00e+00	0	42	0	0	51	4351
2026-01-27 22:26:55.08	75.17	25.50	-40.0	-41.7	19.7	0.00e+00	0	43	0	0	51	4423
2026-01-27 22:26:58.06	76.03	25.63	-39.8	-41.6	19.7	0.00e+00	0	42	0	0	51	4349
2026-01-27 22:27:01.04	76.89	25.75	-39.9	-41.6	19.7	0.00e+00	0	43	0	0	51	4376
2026-01-27 22:27:04.02	77.77	25.86	-39.9	-41.6	19.8	0.00e+00	0	43	0	0	51	4371
2026-01-27 22:27:07.00	78.64	25.97	-39.9	-41.7	19.7	0.00e+00	0	43	0	0	51	4394
2026-01-27 22:27:09.97	79.52	26.07	-39.9	-41.6	19.8	0.00e+00	0	42	0	0	51	4359
2026-01-27 22:27:12.95	80.41	26.16	-39.7	-41.4	20.0	0.00e+00	0	43	0	0	51	4255
2026-01-27 22:27:15.93	81.31	26.25	-39.7	-41.5	20.0	0.00e+00	0	43	0	0	51	4300
2026-01-27 22:27:18.91	82.20	26.33	-39.7	-41.4	19.9	0.00e+00	0	43	0	0	51	4287
2026-01-27 22:27:21.89	83.11	26.40	-39.6	-41.4	20.0	0.00e+00	0	43	0	0	51	4254
2026-01-27 22:27:24.86	84.01	26.47	-39.6	-41.3	20.0	0.00e+00	0	42	0	0	51	4216
2026-01-27 22:27:27.85	84.92	26.53	-39.7	-41.4	19.9	0.00e+00	0	43	0	0	51	4270
2026-01-27 22:27:30.82	85.83	26.58	-39.6	-41.4	20.0	0.00e+00	0	43	0	0	51	4247
2026-01-27 22:27:33.80	86.75	26.62	-39.7	-41.5	19.9	0.00e+00	0	43	0	0	51	4292
2026-01-27 22:27:36.78	87.67	26.66	-39.5	-41.2	20.2	0.00e+00	0	43	0	0	51	4190
2026-01-27 22:27:39.76	88.59	26.68	-39.6	-41.2	20.1	0.00e+00	0	43	0	0	50	4438
2026-01-27 22:27:42.74	89.51	26.70	-39.6	-41.3	20.1	0.00e+00	0	43	0	0	50	4489
2026-01-27 22:27:45.72	90.43	26.72	-39.6	-41.3	20.1	0.00e+00	0	42	0	0	50	4472
2026-01-27 22:27:48.70	91.36	26.72	-39.3	-41.0	20.4	0.00e+00	0	43	0	0	50	4318
2026-01-27 22:27:51.68	92.28	26.72	-39.4	-41.1	20.3	0.00e+00	0	43	0	0	50	4361
2026-01-27 22:27:54.66	93.20	26.71	-39.6	-41.3	20.0	0.00e+00	0	43	0	0	50	4472
2026-01-27 22:27:57.63	94.12	26.69	-39.4	-41.1	20.3	0.00e+00	0	43	0	0	50	4356
2026-01-27 22:28:00.61	95.05	26.66	-39.6	-41.3	20.0	0.00e+00	0	43	0	0	50	4452
2026-01-27 22:28:03.59	95.96	26.62	-39.7	-41.4	20.0	0.00e+00	0	43	0	0	50	4518
2026-01-27 22:28:06.57	96.88	26.58	-39.6	-41.3	19.9	0.00e+00	0	43	0	0	50	4442
2026-01-27 22:28:09.55	97.80	26.53	-39.4	-41.1	20.3	0.00e+00	0	43	0	0	50	4354
2026-01-27 22:28:12.53	98.71	26.47	-39.6	-41.3	20.0	0.00e+00	0	43	0	0	50	4472
2026-01-27 22:28:15.51	99.62	26.41	-39.6	-41.3	19.9	0.00e+00	0	43	0	0	50	4477
2026-01-27 22:28:18.48	100.52	26.34	-39.6	-41.3	20.0	0.00e+00	0	43	0	0	50	4457
2026-01-27 22:28:21.46	101.42	26.26	-39.4	-41.1	20.2	0.00e+00	0	43	0	0	50	4363
2026-01-27 22:28:24.44	102.32	26.17	-39.5	-41.1	20.1	0.00e+00	0	43	0	0	50	4384
2026-01-27 22:28:27.42	103.21	26.08	-39.6	-41.3	20.0	0.00e+00	0	43	0	0	50	4486
2026-01-27 22:28:30.40	104.09	25.98	-39.6	-41.3	20.0	0.00e+00	0	43	0	0	50	4487
2026-01-27 22:28:33.38	104.97	25.87	-39.8	-41.5	19.9	0.00e+00	0	43	0	0	50	4570
2026-01-27 22:28:36.36	105.85	25.76	-39.9	-41.6	19.8	0.00e+00	0	43	0	0	50	4608
2026-01-27 22:28:39.34	106.72	25.64	-39.9	-41.6	19.8	0.00e+00	0	43	0	0	50	4639
2026-01-27 22:28:42.32	107.58	25.51	-40.1	-41.9	19.6	0.00e+00	0	43	0	0	50	4792
2026-01-27 22:28:45.30	108.43	25.38	-39.9	-41.7	19.7	0.00e+00	0	43	0	0	50	4652
2026-01-27 22:28:48.28	109.28	25.24	-39.7	-41.4	19.9	0.00e+00	0	43	0	0	50	4543
2026-01-27 22:28:51.25	110.12	25.10	-39.6	-41.2	20.0	0.00e+00	0	43	0	0	50	4437
2026-01-27 22:28:54.23	110.95	24.95	-39.6	-41.3	20.1	0.00e+00	0	42	0	0	50	4447
2026-01-27 22:28:57.21	111.77	24.79	-39.6	-41.3	20.0	0.00e+00	0	43	0	0	50	4480
2026-01-27 22:29:00.19	112.59	24.63	-39.7	-41.4	19.9	0.00e+00	0	43	0	0	50	4511
2026-01-27 22:29:03.17	113.40	24.47	-39.4	-41.1	20.1	0.00e+00	0	43	0	0	50	4366
2026-01-27 22:29:06.15	114.20	24.30	-39.7	-41.4	19.9	0.00e+00	0	43	0	0	50	4502
2026-01-27 22:29:09.13	114.99	24.12	-39.4	-41.0	20.2	0.00e+00	0	43	0	0	50	4330
2026-01-27 22:29:12.11	115.77	23.94	-39.7	-41.3	20.0	0.00e+00	0	43	0	0	50	4483
2026-01-27 22:29:15.08	116.55	23.76	-40.1	-41.8	19.5	0.00e+00	0	43	0	0	50	4728
2026-01-27 22:29:18.06	117.31	23.57	-39.8	-41.6	19.8	0.00e+00	0	43	0	0	50	4605
2026-01-27 22:29:21.04	118.07	23.38	-39.7	-41.4	20.0	0.00e+00	0	43	0	0	50	4498
2026-01-27 22:29:24.02	118.82	23.19	-39.9	-41.6	19.8	0.00e+00	0	43	0	0	50	4622
2026-01-27 22:29:27.00	119.56	22.99	-40.1	-41.9	19.5	0.00e+00	0	43	0	0	50	4771
2026-01-27 22:29:29.97	120.28	22.79	-40.1	-41.8	19.6	0.00e+00	0	43	0	0	50	4733
2026-01-27 22:29:32.95	121.00	22.58	-40.2	-41.9	19.4	0.00e+00	0	43	0	0	51	4542
2026-01-27 22:29:35.93	121.71	22.38	-40.0	-41.7	19.6	0.00e+00	0	43	0	0	51	4440
2026-01-27 22:29:38.91	122.42	22.17	-39.8	-41.5	19.8	0.00e+00	0	43	0	0	51	4314
2026-01-27 22:29:41.89	123.11	21.96	-40.1	-41.8	19.5	0.00e+00	0	43	0	0	51	4486
2026-01-27 22:29:44.87	123.79	21.74	-40.1	-41.9	19.5	0.00e+00	0	43	0	0	51	4507
2026-01-27 22:29:47.85	124.47	21.52	-40.0	-41.7	19.6	0.00e+00	0	43	0	0	51	4416
2026-01-27 22:29:50.83	125.13	21.31	-40.1	-41.8	19.5	0.00e+00	0	43	0	0	51	4474
2026-01-27 22:29:53.80	125.78	21.09	-40.0	-41.8	19.6	0.00e+00	0	43	0	0	51	4448
2026-01-27 22:29:56.78	126.43	20.86	-39.7	-41.4	19.9	0.00e+00	0	43	0	0	51	4270
2026-01-27 22:29:59.76	127.07	20.64	-39.6	-41.3	20.0	0.00e+00	0	43	0	0	51	4223
2026-01-27 22:30:02.74	127.70	20.41	-39.8	-41.5	19.8	0.00e+00	0	43	0	0	51	4300
2026-01-27 22:30:05.72	128.32	20.19	-39.9	-41.6	19.7	0.00e+00	0	43	0	0	51	4381
2026-01-27 22:30:08.70	128.93	19.96	-39.6	-41.3	19.8	0.00e+00	0	43	0	0	51	4224
2026-01-27 22:30:11.67	129.53	19.73	-39.9	-41.6	19.6	0.00e+00	0	43	0	0	51	4369
2026-01-27 22:30:14.65	130.12	19.50	-40.0	-41.7	19.5	0.00e+00	0	43	0	0	51	4416
2026-01-27 22:30:17.63	130.71	19.27	-40.0	-41.7	19.5	0.00e+00	0	43	0	0	51	4426
2026-01-27 22:30:20.61	131.28	19.04	-40.1	-41.8	19.5	0.00e+00	0	43	0	0	51	4475
2026-01-27 22:30:23.59	131.85	18.80	-40.2	-41.9	19.4	0.00e+00	0	43	0	0	51	4545
2026-01-27 22:30:26.57	132.41	18.57	-40.3	-42.1	19.3	0.00e+00	0	43	0	0	51	4604
2026-01-27 22:30:29.55	132.96	18.34	-40.3	-42.1	19.2	0.00e+00	0	43	0	0	51	4641
2026-01-27 22:30:32.52	133.50	18.11	-40.4	-42.2	19.1	0.00e+00	0	43	0	0	51	4664
2026-01-27 22:30:35.50	134.04	17.87	-40.4	-42.2	19.1	0.00e+00	0	43	0	0	51	4658
2026-01-27 22:30:38.48	134.56	17.64	-40.4	-42.2	19.0	0.00e+00	0	43	0	0	51	4692
2026-01-27 22:30:41.46	135.08	17.40	-40.6	-42.4	18.9	0.00e+00	0	43	0	0	51	4777
2026-01-27 22:30:44.44	135.59	17.17	-40.5	-42.3	19.0	0.00e+00	0	43	0	0	51	4732
2026-01-27 22:30:47.42	136.10	16.94	-40.5	-42.3	18.9	0.00e+00	0	43	0	0	51	4758
2026-01-27 22:30:50.40	136.59	16.70	-40.6	-42.5	18.7	0.00e+00	0	43	0	0	52	4562
2026-01-27 22:30:53.37	137.08	16.47	-40.6	-42.5	18.7	0.00e+00	0	43	0	0	52	4551
2026-01-27 22:30:56.35	137.56	16.24	-40.4	-42.2	18.9	0.00e+00	0	43	0	0	52	4434
2026-01-27 22:30:59.33	138.03	16.00	-40.3	-42.1	19.0	0.00e+00	0	43	0	0	52	4385
2026-01-27 22:31:02.31	138.50	15.77	-40.5	-42.3	18.9	0.00e+00	0	43	0	0	52	4460
2026-01-27 22:31:05.29	138.96	15.54	-40.4	-42.2	19.0	0.00e+00	0	43	0	0	52	4393
2026-01-27 22:31:08.26	139.41	15.31	-40.5	-42.3	18.9	0.00e+00	0	43	0	0	52	4455
2026-01-27 22:31:11.24	139.86	15.08	-40.7	-42.6	18.6	0.00e+00	0	43	0	0	52	4618
2026-01-27 22:31:14.22	140.30	14.85	-40.8	-42.7	18.5	0.00e+00	0	43	0	0	52	4663
2026-01-27 22:31:17.20	140.73	14.62	-40.8	-42.6	18.5	0.00e+00	0	43	0	0	52	4640
2026-01-27 22:31:20.18	141.16	14.39	-40.8	-42.7	18.4	0.00e+00	0	43	0	0	52	4698
2026-01-27 22:31:23.16	141.58	14.16	-40.8	-42.7	18.4	0.00e+00	0	43	0	0	52	4695
2026-01-27 22:31:26.14	141.99	13.93	-40.9	-42.8	18.3	0.00e+00	0	43	0	0	52	4722
2026-01-27 22:31:29.12	142.40	13.71	-41.0	-43.0	18.2	0.00e+00	0	43	0	0	52	4818
2026-01-27 22:31:32.09	142.80	13.48	-41.0	-43.0	18.1	0.00e+00	0	43	0	0	52	4828
2026-01-27 22:31:35.07	143.20	13.26	-41.1	-43.0	18.1	0.00e+00	0	43	0	0	52	4839
2026-01-27 22:31:38.05	143.59	13.03	-41.3	-43.2	17.9	0.00e+00	0	43	0	0	53	4683
2026-01-27 22:31:41.03	143.98	12.81	-41.3	-43.2	17.9	0.00e+00	0	43	0	0	53	4690
2026-01-27 22:31:44.01	144.35	12.59	-41.3	-43.3	17.8	0.00e+00	0	43	0	0	53	4721
2026-01-27 22:31:46.99	144.73	12.37	-41.2	-43.2	17.9	0.00e+00	0	43	0	0	53	4676
2026-01-27 22:31:49.97	145.10	12.14	-41.3	-43.2	17.8	0.00e+00	0	43	0	0	53	4703
2026-01-27 22:31:52.94	145.46	11.93	-41.4	-43.4	17.7	0.00e+00	0	43	0	0	53	4806
2026-01-27 22:31:55.92	145.82	11.71	-41.5	-43.5	17.6	0.00e+00	0	43	0	0	53	4861
2026-01-27 22:31:58.90	146.17	11.49	-41.4	-43.4	17.7	0.00e+00	0	43	0	0	53	4793
2026-01-27 22:32:01.88	146.52	11.27	-41.3	-43.3	17.5	0.00e+00	0	43	0	0	53	4753
2026-01-27 22:32:04.86	146.86	11.06	-41.3	-43.3	17.8	0.00e+00	0	43	0	0	53	4728
2026-01-27 22:32:07.84	147.20	10.84	-41.5	-43.5	17.5	0.00e+00	0	43	0	0	53	4854
2026-01-27 22:32:10.82	147.53	10.63	-41.6	-43.7	17.4	0.00e+00	0	43	0	0	53	4940
2026-01-27 22:32:13.80	147.86	10.42	-41.9	-44.0	17.1	0.00e+00	0	43	0	0	54	4848
2026-01-27 22:32:16.77	148.18	10.20	-41.9	-44.0	17.1	0.00e+00	0	43	0	0	54	4828
2026-01-27 22:32:19.75	148.50	9.99	-41.9	-44.0	17.0	0.00e+00	0	43	0	0	54	4857
2026-01-27 22:32:22.73	148.82	9.78	-41.7	-43.8	17.2	0.00e+00	0	43	0	0	54	4720
2026-01-27 22:32:25.71	149.13	9.57	-41.8	-43.9	17.1	0.00e+00	0	43	0	0	54	4812
2026-01-27 22:32:28.69	149.44	9.37	-42.0	-44.1	16.9	0.00e+00	0	43	0	0	54	4914
2026-01-27 22:32:31.67	149.74	9.16	-42.1	-44.3	16.6	0.00e+00	0	43	0	0	54	5039
2026-01-27 22:32:34.65	150.04	8.96	-49.4	-62.6	3.8	1.49e+00	0	43	104	0	69	17425
2026-01-27 22:32:37.62	150.33	8.75	-50.0	-63.1	3.8	1.49e+00	0	43	104	0	70	17423
2026-01-27 22:32:40.60	150.62	8.55	-50.3	-63.3	3.8	1.49e+00	0	43	104	0	71	16714
2026-01-27 22:32:43.58	150.91	8.35	-50.4	-63.4	3.8	1.49e+00	0	43	104	0	71	16932
2026-01-27 22:32:46.56	151.19	8.14	-50.4	-63.5	3.8	1.49e+00	0	43	104	0	71	17099
2026-01-27 22:32:49.54	151.47	7.94	-50.5	-63.4	3.8	1.49e+00	0	43	104	0	71	17072
2026-01-27 22:32:52.52	151.74	7.74	-50.4	-63.5	3.8	1.49e+00	0	43	104	0	71	17193
2026-01-27 22:32:55.50	152.02	7.55	-50.3	-63.5	3.8	1.49e+00	0	43	104	0	71	17231
2026-01-27 22:32:58.48	152.28	7.35	-50.5	-63.6	3.8	1.49e+00	0	43	104	0	71	17296
2026-01-27 22:33:01.45	152.55	7.15	-50.5	-63.5	3.8	1.49e+00	0	43	104	0	71	17220
2026-01-27 22:33:04.43	152.81	6.96	-50.4	-63.4	3.8	1.49e+00	0	43	104	0	71	17071
2026-01-27 22:33:07.41	153.07	6.76	-50.1	-63.4	3.8	1.49e+00	0	43	104	0	71	16977
2026-01-27 22:33:10.39	153.32	6.57	-50.2	-63.3	3.8	1.49e+00	0	43	104	0	71	16864
2026-01-27 22:33:13.37	153.57	6.38	-49.8	-62.9	3.8	1.49e+00	0	43	104	0	71	16030
2026-01-27 22:33:16.35	153.82	6.19	-49.7	-62.8	3.8	1.49e+00	0	43	104	0	71	15824
2026-01-27 22:33:19.33	154.07	5.99	-49.6	-62.7	3.8	1.49e+00	0	43	104	0	71	15708
2026-01-27 22:33:22.31	154.31	5.81	-49.6	-62.7	3.8	1.49e+00	0	43	104	0	71	15706
2026-01-27 22:33:25.29	154.55	5.62	-49.6	-62.7	3.8	1.49e+00	0	43	104	0	71	15719
2026-01-27 22:33:28.27	154.79	5.43	-49.6	-62.7	3.8	1.49e+00	0	43	104	0	71	15714
2026-01-27 22:33:31.25	155.02	5.24	-49.6	-62.7	3.8	1.49e+00	0	43	104	0	71	15665
2026-01-27 22:33:34.23	155.25	5.06	-49.6	-62.7	3.8	1.49e+00	0	43	104	0	71	15747

#Closed at: 2026-01-27 22:33:36
#Recorded file [0 MB]: D:/Data/31040_260128_012200.dat