passes_logs/2026/01/27/T1/T1__20260127_084958_KHAYYAM_rec.log

#Pass ID: 20260127_084958_KHAYYAM
#Satellite: KHAYYAM
#Configuration: KHAYYAM_480M
#almurnet v.1.7.20251203
#Start time: 2026-01-27 08:50:00

#Version: 2.0.20230620
#Station: T1
#Location: 37.570604 lon 55.790049 lat
#TLE: 1 53370U 22096A   26026.90146174  .00008867  00000+0  36041-3 0  9990
#TLE: 2 53370  97.3549 293.6979 0002070 107.3099 252.8365 15.24778957193054

#Time	Az	El	Level	Level2	SNR	BER	BlckErr	Temp	State	Recorded	gain1	gain2
2026-01-27 08:50:00.19	202.92	5.15	-52.1	-56.8	3.5	0.00e+00	0	44	0	0	76	23949
2026-01-27 08:50:03.18	203.24	5.37	-52.1	-56.8	3.7	0.00e+00	0	45	104	0	74	26635
2026-01-27 08:50:06.16	203.55	5.59	-52.1	-56.8	3.7	0.00e+00	0	45	104	0	74	26656
2026-01-27 08:50:09.16	203.88	5.81	-52.1	-56.7	3.7	0.00e+00	0	45	104	0	74	26545
2026-01-27 08:50:12.15	204.21	6.03	-52.1	-56.8	3.7	0.00e+00	0	46	104	0	74	26699
2026-01-27 08:50:15.14	204.55	6.26	-52.1	-56.7	3.7	0.00e+00	0	46	104	0	74	26522
2026-01-27 08:50:18.14	204.90	6.48	-52.0	-56.8	3.7	0.00e+00	0	46	104	0	74	26596
2026-01-27 08:50:21.13	205.25	6.71	-52.0	-56.7	3.7	0.00e+00	0	46	104	0	74	26404
2026-01-27 08:50:24.12	205.60	6.94	-52.0	-56.8	3.7	0.00e+00	0	47	104	0	74	26648
2026-01-27 08:50:27.13	205.97	7.17	-52.0	-56.7	3.7	0.00e+00	0	46	104	0	74	26570
2026-01-27 08:50:30.13	206.35	7.41	-52.0	-56.7	3.7	0.00e+00	0	47	104	0	74	26516
2026-01-27 08:50:33.12	206.73	7.65	-52.0	-56.7	3.7	0.00e+00	0	47	104	0	74	26473
2026-01-27 08:50:36.11	207.11	7.88	-52.0	-56.7	3.7	0.00e+00	0	47	104	0	74	26461
2026-01-27 08:50:39.10	207.51	8.13	-52.1	-56.7	3.7	0.00e+00	0	47	104	0	74	26533
2026-01-27 08:50:42.10	207.91	8.37	-52.1	-56.8	3.7	0.00e+00	0	47	104	0	74	26610
2026-01-27 08:50:45.09	208.32	8.61	-52.0	-56.7	3.7	0.00e+00	0	47	104	0	74	26463
2026-01-27 08:50:48.09	208.74	8.86	-52.0	-56.7	3.7	0.00e+00	0	47	104	0	74	26392
2026-01-27 08:50:51.08	209.17	9.11	-52.3	-57.0	3.7	0.00e+00	0	47	104	0	75	25767
2026-01-27 08:50:54.07	209.61	9.36	-52.3	-56.9	3.7	0.00e+00	0	48	104	0	75	25661
2026-01-27 08:50:57.06	210.06	9.62	-52.3	-57.0	3.7	0.00e+00	0	48	104	0	75	25797
2026-01-27 08:51:00.05	210.52	9.87	-52.7	-57.5	3.7	0.00e+00	0	48	104	0	76	25690
2026-01-27 08:51:03.05	210.98	10.13	-45.8	-47.2	8.6	3.10e-02	0	48	0	33554432	62	17586
2026-01-27 08:51:06.04	211.46	10.39	-42.8	-43.9	11.8	1.53e-03	0	49	0	209715200	57	16159
2026-01-27 08:51:09.03	211.95	10.65	-39.2	-40.2	15.0	0.00e+00	0	49	0	394264576	50	15762
2026-01-27 08:51:12.03	212.45	10.92	-37.0	-37.9	16.0	0.00e+00	0	49	0	570425344	46	15245
2026-01-27 08:51:15.02	212.95	11.18	-34.6	-35.5	17.4	0.00e+00	0	49	0	754974720	41	15352
2026-01-27 08:51:18.02	213.48	11.45	-33.5	-34.3	18.1	0.00e+00	0	49	0	931135488	38	16007
2026-01-27 08:51:21.01	214.01	11.73	-33.4	-34.3	18.1	0.00e+00	0	49	0	1107296256	38	15879
2026-01-27 08:51:24.00	214.55	12.00	-33.1	-34.0	18.3	0.00e+00	0	49	0	1291845632	38	15300
2026-01-27 08:51:26.99	215.11	12.27	-33.1	-34.0	18.3	0.00e+00	0	49	0	1468006400	37	16317
2026-01-27 08:51:29.99	215.68	12.55	-32.9	-33.8	18.4	0.00e+00	0	49	0	1644167168	37	15923
2026-01-27 08:51:32.98	216.26	12.83	-32.6	-33.5	18.3	0.00e+00	0	49	0	1828716544	37	15439
2026-01-27 08:51:35.98	216.85	13.11	-32.7	-33.6	18.4	0.00e+00	0	50	0	2004877312	37	15488
2026-01-27 08:51:38.97	217.46	13.40	-32.4	-33.3	18.7	0.00e+00	0	50	0	2189426688	36	15866
2026-01-27 08:51:41.96	218.08	13.68	-32.6	-33.4	18.4	0.00e+00	0	50	0	2365587456	36	16169
2026-01-27 08:51:44.95	218.72	13.97	-32.1	-33.0	18.7	0.00e+00	0	50	0	2550136832	36	15320
2026-01-27 08:51:47.95	219.37	14.26	-30.7	-31.6	18.6	0.00e+00	0	50	0	2726297600	33	15509
2026-01-27 08:51:50.95	220.04	14.55	-30.8	-31.6	18.5	0.00e+00	0	50	0	2910846976	33	15617
2026-01-27 08:51:53.94	220.72	14.84	-30.5	-31.3	18.6	0.00e+00	0	50	0	3087007744	32	16014
2026-01-27 08:51:56.94	221.42	15.13	-30.4	-31.3	18.5	0.00e+00	0	50	0	3271557120	32	15943
2026-01-27 08:51:59.93	222.13	15.42	-30.2	-31.0	18.8	0.00e+00	0	50	0	3447717888	32	15431
2026-01-27 08:52:02.93	222.86	15.72	-30.5	-31.3	18.8	0.00e+00	0	50	0	3623878656	32	15982
2026-01-27 08:52:05.92	223.61	16.01	-29.9	-30.7	18.9	0.00e+00	0	50	0	3808428032	31	15810
2026-01-27 08:52:08.91	224.37	16.31	-29.8	-30.6	19.0	0.00e+00	0	50	0	3984588800	31	15604
2026-01-27 08:52:11.91	225.15	16.61	-30.0	-30.8	18.9	0.00e+00	0	50	0	4169138176	31	15976
2026-01-27 08:52:14.90	225.95	16.90	-29.5	-30.4	19.1	0.00e+00	0	50	0	4345298944	31	15201
2026-01-27 08:52:17.90	226.77	17.20	-29.6	-30.5	18.9	0.00e+00	0	50	0	4521459712	31	15335
2026-01-27 08:52:20.89	227.61	17.49	-29.5	-30.4	18.9	0.00e+00	0	50	0	4706009088	30	16097
2026-01-27 08:52:23.89	228.47	17.79	-29.1	-30.0	19.3	0.00e+00	0	50	0	4882169856	30	15375
2026-01-27 08:52:26.89	229.34	18.08	-29.3	-30.1	19.2	0.00e+00	0	50	0	5058330624	30	15614
2026-01-27 08:52:29.88	230.24	18.37	-29.1	-30.0	19.3	0.00e+00	0	50	0	5242880000	30	15401
2026-01-27 08:52:32.87	231.15	18.66	-29.0	-29.9	19.4	0.00e+00	0	50	0	5419040768	29	16079
2026-01-27 08:52:35.87	232.09	18.95	-29.0	-29.8	19.4	0.00e+00	0	51	0	5603590144	29	16014
2026-01-27 08:52:38.87	233.04	19.24	-28.7	-29.5	19.7	0.00e+00	0	50	0	5779750912	29	15413
2026-01-27 08:52:41.86	234.02	19.52	-28.7	-29.6	19.5	0.00e+00	0	50	0	5964300288	29	15552
2026-01-27 08:52:44.86	235.02	19.80	-28.5	-29.3	19.7	0.00e+00	0	50	0	6140461056	28	15966
2026-01-27 08:52:47.85	236.03	20.07	-28.5	-29.4	19.5	0.00e+00	0	50	0	6325010432	28	16020
2026-01-27 08:52:50.85	237.07	20.34	-28.2	-29.0	20.0	0.00e+00	0	50	0	6501171200	28	15440
2026-01-27 08:52:53.84	238.12	20.61	-28.0	-28.9	19.9	0.00e+00	0	51	0	6677331968	28	15180
2026-01-27 08:52:56.82	239.20	20.87	-28.3	-29.2	19.7	0.00e+00	0	51	0	6861881344	28	15714
2026-01-27 08:52:59.82	240.30	21.12	-28.3	-29.2	19.7	0.00e+00	0	51	0	7038042112	27	16623
2026-01-27 08:53:02.81	241.41	21.37	-28.0	-28.9	19.9	0.00e+00	0	51	0	7222591488	27	16037
2026-01-27 08:53:05.80	242.55	21.61	-27.8	-28.7	20.3	0.00e+00	0	50	0	7398752256	27	15675
2026-01-27 08:53:08.80	243.71	21.84	-27.7	-28.5	20.4	0.00e+00	0	51	0	7574913024	27	15469
2026-01-27 08:53:11.79	244.88	22.07	-27.6	-28.4	20.4	0.00e+00	0	51	0	7759462400	27	15274
2026-01-27 08:53:14.79	246.08	22.28	-27.5	-28.4	20.5	0.00e+00	0	51	0	7935623168	27	15131
2026-01-27 08:53:17.79	247.30	22.49	-27.5	-28.4	20.4	0.00e+00	0	50	0	8120172544	26	16075
2026-01-27 08:53:20.78	248.53	22.68	-27.7	-28.5	20.2	0.00e+00	0	51	0	8296333312	26	16362
2026-01-27 08:53:23.77	249.77	22.87	-27.8	-28.7	20.1	0.00e+00	0	51	0	8472494080	26	16647
2026-01-27 08:53:26.77	251.04	23.04	-27.6	-28.4	20.4	0.00e+00	0	51	0	8657043456	26	16136
2026-01-27 08:53:29.77	252.32	23.20	-27.4	-28.3	20.4	0.00e+00	0	51	0	8833204224	26	15851
2026-01-27 08:53:32.76	253.61	23.35	-27.3	-28.2	20.3	0.00e+00	0	51	0	9017753600	26	15658
2026-01-27 08:53:35.75	254.92	23.49	-27.3	-28.2	20.5	0.00e+00	0	51	0	9193914368	26	15704
2026-01-27 08:53:38.74	256.23	23.61	-27.3	-28.1	20.4	0.00e+00	0	51	0	9370075136	26	15593
2026-01-27 08:53:41.73	257.56	23.72	-27.2	-28.0	20.8	0.00e+00	0	51	0	9554624512	26	15445
2026-01-27 08:53:44.72	258.89	23.82	-27.1	-28.0	20.8	0.00e+00	0	50	0	9730785280	26	15333
2026-01-27 08:53:47.71	260.24	23.90	-27.0	-27.9	20.8	0.00e+00	0	51	0	9915334656	26	15180
2026-01-27 08:53:50.71	261.59	23.96	-26.9	-27.8	20.8	0.00e+00	0	51	0	10091495424	25	15856
2026-01-27 08:53:53.70	262.95	24.02	-53.0	-57.7	3.7	0.00e+00	0	50	104	10200547328	76	26392
2026-01-27 08:53:56.70	264.31	24.05	-53.2	-57.8	3.7	0.00e+00	0	50	104	10200547328	76	26613
2026-01-27 08:53:59.69	265.68	24.07	-53.3	-57.8	3.7	0.00e+00	0	50	104	10200547328	77	25224
2026-01-27 08:54:02.69	267.05	24.08	-53.2	-57.8	3.7	0.00e+00	0	50	104	10200547328	77	25225
2026-01-27 08:54:05.68	268.41	24.07	-53.4	-58.0	3.7	0.00e+00	0	50	104	10200547328	77	25703
2026-01-27 08:54:08.67	269.77	24.04	-53.2	-57.9	3.7	0.00e+00	0	50	104	10200547328	77	25577
2026-01-27 08:54:11.66	271.13	24.00	-53.3	-58.0	3.7	0.00e+00	0	50	104	10200547328	77	25689
2026-01-27 08:54:14.65	272.48	23.94	-53.4	-58.0	3.7	0.00e+00	0	50	104	10200547328	77	25853
2026-01-27 08:54:17.65	273.83	23.87	-53.5	-58.1	3.7	0.00e+00	0	50	104	10200547328	77	25995
2026-01-27 08:54:20.64	275.17	23.79	-53.2	-58.0	3.7	0.00e+00	0	50	104	10200547328	77	25687
2026-01-27 08:54:23.64	276.51	23.69	-53.4	-58.0	3.7	0.00e+00	0	50	104	10200547328	77	25856
2026-01-27 08:54:26.64	277.83	23.57	-53.3	-57.7	3.7	0.00e+00	0	50	104	10200547328	77	25043
2026-01-27 08:54:29.64	279.15	23.45	-53.4	-57.9	3.7	0.00e+00	0	50	104	10200547328	77	25468
2026-01-27 08:54:32.64	280.45	23.30	-53.4	-58.0	3.7	0.00e+00	0	50	104	10200547328	77	25770
2026-01-27 08:54:35.64	281.73	23.15	-53.6	-58.0	3.7	0.00e+00	0	50	104	10200547328	77	25971
2026-01-27 08:54:38.64	283.01	22.99	-53.4	-57.9	3.7	0.00e+00	0	50	104	10200547328	77	25446
2026-01-27 08:54:41.65	284.27	22.81	-53.5	-58.1	3.7	0.00e+00	0	50	104	10200547328	77	26041
2026-01-27 08:54:44.65	285.51	22.62	-53.1	-57.7	3.7	0.00e+00	0	50	104	10200547328	77	24811
2026-01-27 08:54:47.64	286.72	22.42	-53.1	-57.8	3.7	0.00e+00	0	50	104	10200547328	77	25290
2026-01-27 08:54:50.63	287.93	22.21	-53.2	-57.9	3.7	0.00e+00	0	50	104	10200547328	77	25434
2026-01-27 08:54:53.62	289.11	22.00	-53.5	-58.0	3.7	0.00e+00	0	49	104	10200547328	77	25759
2026-01-27 08:54:56.61	290.27	21.77	-53.0	-57.5	3.7	0.00e+00	0	50	104	10200547328	77	24367
2026-01-27 08:54:59.61	291.42	21.54	-53.2	-57.5	3.7	0.00e+00	0	50	104	10200547328	77	24440
2026-01-27 08:55:02.60	292.54	21.30	-52.9	-56.9	3.7	0.00e+00	0	50	104	10200547328	77	22686
2026-01-27 08:55:05.60	293.65	21.05	-53.3	-57.4	3.7	0.00e+00	0	50	104	10200547328	77	24222
2026-01-27 08:55:08.59	294.74	20.79	-53.2	-57.2	3.7	0.00e+00	0	50	104	10200547328	77	23657
2026-01-27 08:55:11.58	295.80	20.53	-53.4	-58.0	3.7	0.00e+00	0	50	104	10200547328	77	25719
2026-01-27 08:55:14.57	296.84	20.27	-53.3	-57.7	3.7	0.00e+00	0	50	104	10200547328	77	24987
2026-01-27 08:55:17.56	297.87	20.00	-52.9	-57.4	3.7	0.00e+00	0	50	104	10200547328	77	24201
2026-01-27 08:55:20.56	298.87	19.73	-53.1	-57.6	3.7	0.00e+00	0	50	104	10200547328	77	24671
2026-01-27 08:55:23.54	299.85	19.45	-53.1	-57.3	3.7	0.00e+00	0	50	104	10200547328	77	23700
2026-01-27 08:55:26.54	300.82	19.17	-53.1	-57.1	3.7	0.00e+00	0	50	104	10200547328	77	23293
2026-01-27 08:55:29.54	301.76	18.88	-53.2	-57.4	3.7	0.00e+00	0	50	104	10200547328	77	24152
2026-01-27 08:55:32.53	302.68	18.60	-52.7	-56.5	3.7	0.00e+00	0	50	104	10200547328	77	21653
2026-01-27 08:55:35.52	303.59	18.31	-53.0	-57.3	3.7	0.00e+00	0	50	104	10200547328	77	23743
2026-01-27 08:55:38.52	304.47	18.02	-53.2	-57.6	3.7	0.00e+00	0	50	104	10200547328	77	24745
2026-01-27 08:55:41.52	305.34	17.73	-53.2	-57.6	3.7	0.00e+00	0	50	104	10200547328	77	24784
2026-01-27 08:55:44.51	306.18	17.43	-53.0	-57.4	3.7	0.00e+00	0	50	104	10200547328	77	23996
2026-01-27 08:55:47.50	307.01	17.14	-53.3	-57.8	3.7	0.00e+00	0	50	104	10200547328	77	25240
2026-01-27 08:55:50.50	307.82	16.85	-53.4	-57.8	3.7	0.00e+00	0	50	104	10200547328	77	25315
2026-01-27 08:55:53.50	308.61	16.55	-53.3	-57.7	3.6	0.00e+00	0	50	104	10200547328	77	24951
2026-01-27 08:55:56.49	309.38	16.26	-52.9	-57.4	3.7	0.00e+00	0	50	104	10200547328	77	24033
2026-01-27 08:55:59.49	310.13	15.97	-52.1	-57.0	3.7	0.00e+00	0	50	104	10200547328	76	24297
2026-01-27 08:56:02.49	310.87	15.67	-52.1	-57.0	3.7	0.00e+00	0	50	104	10200547328	76	24330
2026-01-27 08:56:05.49	311.60	15.38	-52.5	-57.3	3.7	0.00e+00	0	50	104	10200547328	76	25190
2026-01-27 08:56:08.48	312.30	15.09	-53.1	-57.7	3.7	0.00e+00	0	50	104	10200547328	76	26325
2026-01-27 08:56:11.47	312.99	14.80	-52.8	-57.5	3.7	0.00e+00	0	50	104	10200547328	76	25777
2026-01-27 08:56:14.46	313.66	14.51	-52.4	-57.3	3.7	0.00e+00	0	50	104	10200547328	76	25133
2026-01-27 08:56:17.45	314.32	14.23	-51.9	-57.0	3.7	0.00e+00	0	50	104	10200547328	75	25713
2026-01-27 08:56:20.44	314.96	13.94	-52.5	-57.3	3.7	0.00e+00	0	50	104	10200547328	75	26709
2026-01-27 08:56:23.43	315.59	13.66	-52.9	-57.5	3.7	0.00e+00	0	50	104	10200547328	76	25843
2026-01-27 08:56:26.42	316.20	13.38	-52.3	-57.3	3.7	0.00e+00	0	50	104	10200547328	76	25128
2026-01-27 08:56:29.41	316.80	13.10	-51.7	-56.9	3.7	0.00e+00	0	50	104	10200547328	74	27041
2026-01-27 08:56:32.41	317.39	12.82	-52.7	-57.4	3.7	0.00e+00	0	50	104	10200547328	76	25650
2026-01-27 08:56:35.41	317.97	12.54	-52.9	-57.5	3.7	0.00e+00	0	50	104	10200547328	76	25906
2026-01-27 08:56:38.40	318.53	12.27	-52.9	-57.6	3.7	0.00e+00	0	50	104	10200547328	76	26272
2026-01-27 08:56:41.39	319.08	12.00	-52.6	-57.4	3.7	0.00e+00	0	50	104	10200547328	76	25614
2026-01-27 08:56:44.38	319.62	11.73	-52.3	-57.2	3.7	0.00e+00	0	50	104	10200547328	75	26437
2026-01-27 08:56:47.38	320.14	11.46	-50.8	-56.3	3.7	0.00e+00	0	50	104	10200547328	73	26733
2026-01-27 08:56:50.38	320.66	11.19	-50.9	-56.4	3.7	0.00e+00	0	50	104	10200547328	73	26929
2026-01-27 08:56:53.37	321.16	10.93	-51.9	-57.1	3.7	0.00e+00	0	50	104	10200547328	74	27521
2026-01-27 08:56:56.36	321.66	10.66	-52.1	-57.1	3.7	0.00e+00	0	50	104	10200547328	74	27784
2026-01-27 08:56:59.36	322.14	10.40	-51.9	-57.0	3.7	0.00e+00	0	50	104	10200547328	74	27320
2026-01-27 08:57:02.35	322.61	10.15	-52.4	-57.3	3.7	0.00e+00	0	50	104	10200547328	75	26654
2026-01-27 08:57:05.34	323.07	9.89	-52.1	-57.1	3.7	0.00e+00	0	50	104	10200547328	75	25991
2026-01-27 08:57:08.34	323.53	9.64	-51.7	-56.8	3.7	0.00e+00	0	50	104	10200547328	74	26845
2026-01-27 08:57:11.33	323.97	9.39	-50.1	-55.7	3.7	0.00e+00	0	51	104	10200547328	72	26581
2026-01-27 08:57:14.32	324.41	9.14	-49.9	-55.6	3.7	0.00e+00	0	50	104	10200547328	71	27819
2026-01-27 08:57:17.32	324.83	8.89	-52.3	-57.3	3.7	0.00e+00	0	50	104	10200547328	75	26610
2026-01-27 08:57:20.31	325.25	8.65	-52.8	-57.4	3.7	0.00e+00	0	50	104	10200547328	76	25640
2026-01-27 08:57:23.30	325.66	8.41	-53.5	-57.9	3.7	0.00e+00	0	50	104	10200547328	77	25617
2026-01-27 08:57:26.30	326.06	8.16	-52.9	-57.7	3.7	0.00e+00	0	50	104	10200547328	76	26383
2026-01-27 08:57:29.30	326.45	7.93	-53.4	-58.0	3.7	0.00e+00	0	50	104	10200547328	77	25747
2026-01-27 08:57:32.29	326.84	7.69	-53.5	-57.8	3.7	0.00e+00	0	50	104	10200547328	78	23763
2026-01-27 08:57:35.29	327.22	7.46	-53.2	-57.6	3.7	0.00e+00	0	50	104	10200547328	78	23308
2026-01-27 08:57:38.28	327.59	7.22	-53.0	-57.5	3.7	0.00e+00	0	50	104	10200547328	77	24327
2026-01-27 08:57:41.28	327.95	6.99	-53.0	-57.5	3.7	0.00e+00	0	50	104	10200547328	77	24268
2026-01-27 08:57:44.29	328.31	6.76	-52.9	-57.5	3.7	0.00e+00	0	50	104	10200547328	77	24286
2026-01-27 08:57:47.28	328.66	6.54	-52.9	-57.5	3.7	0.00e+00	0	50	104	10200547328	77	24270
2026-01-27 08:57:50.27	329.00	6.31	-53.0	-57.5	3.7	0.00e+00	0	50	104	10200547328	77	24295
2026-01-27 08:57:53.26	329.34	6.09	-52.9	-57.5	3.7	0.00e+00	0	50	104	10200547328	77	24252
2026-01-27 08:57:56.25	329.67	5.87	-52.9	-57.4	3.7	0.00e+00	0	50	104	10200547328	77	24227
2026-01-27 08:57:59.24	329.99	5.65	-53.0	-57.5	3.7	0.00e+00	0	50	104	10200547328	77	24261
2026-01-27 08:58:02.23	330.31	5.44	-52.9	-57.4	3.7	0.00e+00	0	50	104	10200547328	77	24149
2026-01-27 08:58:05.22	330.62	5.22	-53.0	-57.4	3.7	0.00e+00	0	50	104	10200547328	77	24124
2026-01-27 08:58:08.21	330.93	5.01	-52.9	-57.4	3.7	0.00e+00	0	50	104	10200547328	77	24236

#Closed at: 2026-01-27 08:58:10
#Recorded file [10200 MB]: D:/Data/31040_260127_115000.dat