passes_logs/2026/01/27/T1/T1__20260127_112649_AQUA_rec.log

#Pass ID: 20260127_112649_AQUA
#Satellite: AQUA
#Configuration: AQUA
#almurnet v.1.7.20251203
#Start time: 2026-01-27 11:26:50

#Version: 2.0.20230620
#Station: T1
#Location: 37.570604 lon 55.790049 lat
#TLE: 1 27424U 02022A   26026.85810808  .00001813  00000+0  37258-3 0  9999
#TLE: 2 27424  98.4101 353.4861 0001866  64.3332 317.5249 14.61864179262622

#Time	Az	El	Level	Level2	SNR	BER	BlckErr	Temp	State	Recorded	gain1	gain2
2026-01-27 11:26:50.98	152.43	5.13	-51.9	-72.1	3.8	7.45e-01	0	41	0	0	74	38917
2026-01-27 11:26:53.96	152.38	5.35	-52.1	-72.1	3.8	7.43e-01	0	41	104	0	74	38868
2026-01-27 11:26:56.94	152.33	5.58	-51.8	-72.0	3.8	7.47e-01	0	41	104	0	74	38466
2026-01-27 11:26:59.91	152.28	5.81	-51.5	-71.9	3.8	7.47e-01	0	41	104	0	74	37911
2026-01-27 11:27:02.89	152.23	6.04	-51.5	-71.7	3.8	7.47e-01	0	41	104	0	73	39228
2026-01-27 11:27:05.87	152.18	6.28	-50.4	-71.2	3.7	7.46e-01	0	41	104	0	72	39188
2026-01-27 11:27:08.85	152.12	6.51	-50.6	-69.9	3.8	7.42e-01	0	41	104	0	72	33864
2026-01-27 11:27:11.83	152.07	6.75	-50.6	-70.8	3.8	7.45e-01	0	41	104	0	72	37419
2026-01-27 11:27:14.81	152.01	7.00	-50.6	-70.8	3.8	7.44e-01	0	41	104	0	72	37482
2026-01-27 11:27:17.79	151.95	7.24	-50.5	-67.0	4.0	7.39e-01	0	42	104	0	72	24317
2026-01-27 11:27:20.76	151.90	7.49	-50.0	-59.8	10.2	6.25e-01	0	42	0	3670016	71	11185
2026-01-27 11:27:23.74	151.84	7.74	-48.8	-55.1	14.9	6.08e-01	0	42	0	8912896	69	7363
2026-01-27 11:27:26.72	151.78	7.99	-47.3	-51.7	18.2	6.07e-01	0	42	0	14680064	66	5912
2026-01-27 11:27:29.70	151.71	8.24	-46.8	-51.0	19.0	6.06e-01	0	42	0	20447232	65	5729
2026-01-27 11:27:32.68	151.65	8.50	-47.4	-52.0	18.0	6.04e-01	0	42	0	25690112	65	6480
2026-01-27 11:27:35.66	151.58	8.76	-48.9	-55.3	14.9	6.07e-01	0	42	0	31457280	68	7911
2026-01-27 11:27:38.64	151.52	9.03	-50.2	-61.7	8.3	6.45e-01	0	42	0	37224448	71	13942
2026-01-27 11:27:41.63	151.45	9.30	-50.5	-65.9	5.8	7.16e-01	0	42	0	42467328	71	22568
2026-01-27 11:27:44.62	151.38	9.57	-46.9	-51.2	18.9	6.06e-01	0	42	0	45088768	65	5864
2026-01-27 11:27:47.60	151.31	9.84	-46.2	-49.9	20.3	6.06e-01	0	42	0	50855936	63	5685
2026-01-27 11:27:50.59	151.24	10.12	-44.9	-48.0	22.0	6.07e-01	0	42	0	56623104	61	5118
2026-01-27 11:27:53.57	151.16	10.40	-44.0	-46.7	23.3	6.07e-01	0	42	0	61865984	60	4691
2026-01-27 11:27:56.55	151.09	10.69	-44.1	-46.9	23.3	6.08e-01	0	42	0	67633152	59	5052
2026-01-27 11:27:59.54	151.01	10.98	-44.1	-46.9	23.3	6.08e-01	0	42	0	73400320	59	5066
2026-01-27 11:28:02.53	150.93	11.27	-44.1	-46.8	23.4	6.06e-01	0	42	0	78643200	59	4997
2026-01-27 11:28:05.51	150.85	11.57	-44.1	-46.8	23.4	6.07e-01	0	42	0	84410368	59	5019
2026-01-27 11:28:08.50	150.76	11.87	-44.1	-46.9	23.3	6.07e-01	0	42	0	90177536	59	5086
2026-01-27 11:28:11.48	150.68	12.17	-43.9	-46.8	23.4	6.05e-01	0	43	0	95420416	59	5012
2026-01-27 11:28:14.47	150.59	12.48	-44.0	-46.8	23.5	6.08e-01	0	43	0	101187584	59	4985
2026-01-27 11:28:17.45	150.50	12.79	-44.0	-46.8	23.5	6.05e-01	0	42	0	106954752	59	4992
2026-01-27 11:28:20.44	150.41	13.11	-44.3	-47.0	23.3	6.08e-01	0	42	0	112721920	59	5107
2026-01-27 11:28:23.43	150.31	13.43	-44.0	-46.6	23.6	6.08e-01	0	43	0	117964800	59	4915
2026-01-27 11:28:26.41	150.22	13.76	-43.8	-46.3	23.9	6.08e-01	0	43	0	123731968	59	4745
2026-01-27 11:28:29.39	150.12	14.09	-43.9	-46.5	23.8	6.09e-01	0	43	0	129499136	59	4826
2026-01-27 11:28:32.37	150.02	14.43	-43.6	-46.3	24.0	6.07e-01	0	43	0	134742016	59	4707
2026-01-27 11:28:35.36	149.91	14.77	-43.6	-46.2	24.0	6.06e-01	0	43	0	140509184	59	4695
2026-01-27 11:28:38.34	149.80	15.12	-43.4	-46.0	24.2	6.06e-01	0	43	0	146276352	58	4847
2026-01-27 11:28:41.33	149.69	15.47	-43.5	-46.0	24.3	6.05e-01	0	43	0	151519232	58	4862
2026-01-27 11:28:44.31	149.58	15.83	-43.5	-46.0	24.2	6.07e-01	0	43	0	157286400	58	4856
2026-01-27 11:28:47.30	149.46	16.19	-43.5	-46.0	24.3	6.08e-01	0	43	0	163053568	58	4827
2026-01-27 11:28:50.29	149.34	16.56	-43.5	-45.9	24.4	6.06e-01	0	42	0	168296448	58	4797
2026-01-27 11:28:53.27	149.22	16.94	-43.5	-46.0	24.3	6.07e-01	0	43	0	174063616	58	4857
2026-01-27 11:28:56.26	149.09	17.32	-43.7	-46.3	24.0	6.08e-01	0	43	0	179830784	58	5021
2026-01-27 11:28:59.24	148.96	17.71	-43.7	-46.3	24.0	6.05e-01	0	43	0	185073664	58	5039
2026-01-27 11:29:02.23	148.82	18.11	-43.7	-46.3	24.0	6.05e-01	0	43	0	190840832	58	4997
2026-01-27 11:29:05.21	148.69	18.51	-43.4	-45.9	24.4	6.06e-01	0	43	0	196608000	58	4772
2026-01-27 11:29:08.20	148.54	18.92	-43.3	-45.7	24.6	6.07e-01	0	43	0	201850880	58	4663
2026-01-27 11:29:11.18	148.40	19.33	-43.4	-45.8	24.5	6.07e-01	0	43	0	207618048	58	4750
2026-01-27 11:29:14.16	148.24	19.76	-43.6	-46.0	24.3	6.07e-01	0	43	0	213385216	58	4865
2026-01-27 11:29:17.15	148.09	20.19	-43.8	-46.3	24.1	6.06e-01	0	43	0	218628096	58	4992
2026-01-27 11:29:20.13	147.93	20.63	-43.8	-46.3	24.2	6.06e-01	0	43	0	224395264	58	4995
2026-01-27 11:29:23.12	147.76	21.08	-43.9	-46.4	24.0	6.07e-01	0	43	0	230162432	58	5072
2026-01-27 11:29:26.10	147.59	21.54	-43.9	-46.5	23.9	6.07e-01	0	43	0	235405312	58	5135
2026-01-27 11:29:29.09	147.41	22.01	-43.8	-46.4	24.1	6.09e-01	0	43	0	241172480	58	5045
2026-01-27 11:29:32.07	147.22	22.48	-43.6	-46.3	24.2	6.05e-01	0	43	0	246939648	58	4989
2026-01-27 11:29:35.06	147.03	22.97	-43.7	-46.4	24.1	6.07e-01	0	43	0	252182528	58	5066
2026-01-27 11:29:38.04	146.84	23.46	-44.0	-46.7	23.8	6.07e-01	0	43	0	257949696	58	5251
2026-01-27 11:29:41.03	146.63	23.97	-44.3	-46.9	23.6	6.06e-01	0	43	0	263716864	59	5077
2026-01-27 11:29:44.01	146.42	24.49	-44.0	-46.5	23.9	6.07e-01	0	43	0	268959744	59	4867
2026-01-27 11:29:46.99	146.20	25.01	-43.8	-46.3	24.1	6.06e-01	0	43	0	274726912	59	4743
2026-01-27 11:29:49.98	145.97	25.55	-43.7	-46.2	24.2	6.09e-01	0	43	0	280494080	59	4673
2026-01-27 11:29:52.96	145.74	26.10	-43.9	-46.4	24.1	6.07e-01	0	43	0	285736960	59	4792
2026-01-27 11:29:55.95	145.49	26.66	-43.8	-46.4	24.1	6.05e-01	0	43	0	291504128	59	4767
2026-01-27 11:29:58.93	145.24	27.24	-43.5	-46.0	24.4	6.08e-01	0	43	0	297271296	59	4581
2026-01-27 11:30:01.92	144.97	27.82	-43.1	-45.6	24.8	6.07e-01	0	43	0	302514176	58	4606
2026-01-27 11:30:04.90	144.70	28.42	-43.6	-46.0	24.4	6.06e-01	0	43	0	308281344	58	4846
2026-01-27 11:30:07.89	144.41	29.03	-43.8	-46.2	24.3	6.06e-01	0	43	0	314048512	58	4981
2026-01-27 11:30:10.87	144.12	29.66	-43.4	-45.8	24.6	6.06e-01	0	43	0	319291392	58	4746
2026-01-27 11:30:13.86	143.80	30.30	-43.2	-45.6	24.8	6.06e-01	0	43	0	325058560	58	4635
2026-01-27 11:30:16.84	143.48	30.96	-43.3	-45.6	24.6	6.08e-01	0	43	0	330825728	58	4640
2026-01-27 11:30:19.82	143.14	31.62	-43.3	-45.7	24.7	6.06e-01	0	43	0	336068608	58	4659
2026-01-27 11:30:22.81	142.79	32.31	-43.5	-45.9	24.5	6.06e-01	0	43	0	341835776	58	4770
2026-01-27 11:30:25.79	142.42	33.01	-43.3	-45.7	24.7	6.07e-01	0	43	0	347602944	58	4675
2026-01-27 11:30:28.78	142.03	33.73	-43.9	-46.4	24.2	6.06e-01	0	43	0	352845824	58	5051
2026-01-27 11:30:31.76	141.62	34.46	-44.2	-46.7	23.8	6.07e-01	0	43	0	358612992	59	4962
2026-01-27 11:30:34.75	141.20	35.22	-44.2	-46.7	23.9	6.06e-01	0	43	0	364380160	59	4969
2026-01-27 11:30:37.73	140.75	35.99	-44.9	-47.6	22.9	6.09e-01	0	43	0	370147328	60	5218
2026-01-27 11:30:40.72	140.28	36.77	-44.6	-47.3	23.2	6.08e-01	0	43	0	375390208	60	5027
2026-01-27 11:30:43.70	139.79	37.58	-45.2	-48.0	22.7	6.06e-01	0	43	0	381157376	61	5115
2026-01-27 11:30:46.68	139.27	38.40	-45.1	-47.9	22.7	6.05e-01	0	43	0	386924544	61	5083
2026-01-27 11:30:49.67	138.72	39.24	-45.4	-48.2	22.4	6.06e-01	0	43	0	392167424	61	5242
2026-01-27 11:30:52.65	138.14	40.10	-44.9	-47.7	22.9	6.06e-01	0	43	0	397934592	61	4946
2026-01-27 11:30:55.64	137.52	40.99	-44.9	-47.7	22.9	6.07e-01	0	43	0	403701760	61	4955
2026-01-27 11:30:58.62	136.88	41.89	-44.6	-47.2	23.3	6.08e-01	0	43	0	408944640	61	4683
2026-01-27 11:31:01.60	136.19	42.80	-44.3	-46.9	23.7	6.06e-01	0	43	0	414711808	60	4777
2026-01-27 11:31:04.58	135.46	43.74	-44.0	-46.5	24.0	6.07e-01	0	43	0	419954688	59	4855
2026-01-27 11:31:07.57	134.69	44.70	-44.5	-47.1	23.5	6.08e-01	0	43	0	425721856	59	5209
2026-01-27 11:31:10.55	133.86	45.67	-44.6	-47.2	23.5	6.06e-01	0	43	0	431489024	59	5258
2026-01-27 11:31:13.54	132.98	46.67	-44.4	-47.1	23.5	6.04e-01	0	43	0	437256192	60	4877
2026-01-27 11:31:16.52	132.05	47.68	-44.4	-46.9	23.7	6.08e-01	0	43	0	442499072	59	5095
2026-01-27 11:31:19.50	131.05	48.70	-44.1	-46.6	24.0	6.05e-01	0	43	0	448266240	59	4921
2026-01-27 11:31:22.49	129.97	49.75	-44.1	-46.5	24.1	6.06e-01	0	43	0	454033408	59	4856
2026-01-27 11:31:25.47	128.82	50.80	-43.9	-46.4	24.3	6.07e-01	0	43	0	459276288	59	4764
2026-01-27 11:31:28.46	127.58	51.87	-43.6	-46.0	24.6	6.07e-01	0	43	0	465043456	59	4559
2026-01-27 11:31:31.44	126.26	52.95	-43.6	-46.1	24.5	6.08e-01	0	43	0	470810624	58	4879
2026-01-27 11:31:34.43	124.82	54.04	-43.3	-45.7	24.8	6.08e-01	0	43	0	476053504	58	4676
2026-01-27 11:31:37.41	123.27	55.12	-43.5	-45.9	24.7	6.05e-01	0	43	0	481820672	58	4779
2026-01-27 11:31:40.40	121.60	56.22	-43.8	-46.2	24.4	6.07e-01	0	43	0	487587840	58	4981
2026-01-27 11:31:43.39	119.78	57.31	-44.0	-46.4	24.2	6.05e-01	0	43	0	492830720	59	4786
2026-01-27 11:31:46.37	117.82	58.38	-44.4	-46.9	23.7	6.05e-01	0	43	0	498597888	60	4801
2026-01-27 11:31:49.36	115.68	59.45	-44.3	-46.9	23.7	6.06e-01	0	43	0	504365056	60	4776
2026-01-27 11:31:52.34	113.38	60.49	-44.7	-47.4	23.1	6.06e-01	0	43	0	509607936	61	4813
2026-01-27 11:31:55.32	110.87	61.51	-45.2	-48.0	22.7	6.07e-01	0	43	0	515375104	61	5101
2026-01-27 11:31:58.31	108.15	62.49	-45.5	-48.3	22.4	6.04e-01	0	43	0	521142272	62	4992
2026-01-27 11:32:01.29	105.21	63.43	-46.2	-49.3	21.5	6.05e-01	0	43	0	526385152	63	5323
2026-01-27 11:32:04.27	102.03	64.31	-46.4	-49.5	21.4	6.09e-01	0	43	0	532152320	63	5403
2026-01-27 11:32:07.25	98.61	65.12	-46.4	-49.8	21.1	6.07e-01	0	43	0	537919488	63	5599
2026-01-27 11:32:10.24	94.92	65.85	-46.7	-50.3	20.5	6.09e-01	0	43	0	543162368	64	5626
2026-01-27 11:32:13.22	91.02	66.50	-47.3	-51.0	19.8	6.06e-01	0	43	0	548929536	65	5749
2026-01-27 11:32:16.21	86.87	67.04	-46.7	-50.4	20.5	6.09e-01	0	43	0	554696704	64	5671
2026-01-27 11:32:19.19	82.54	67.48	-46.8	-50.4	20.4	6.06e-01	0	43	0	559939584	64	5712
2026-01-27 11:32:22.18	78.04	67.79	-47.1	-50.7	20.1	6.07e-01	0	43	0	565706752	65	5530
2026-01-27 11:32:25.16	73.44	67.97	-47.2	-50.6	20.2	6.06e-01	0	43	0	571473920	65	5513
2026-01-27 11:32:28.14	68.79	68.02	-47.2	-50.7	20.0	6.07e-01	0	43	0	576716800	65	5573
2026-01-27 11:32:31.13	64.13	67.93	-47.6	-51.3	19.5	6.07e-01	0	43	0	582483968	65	5926
2026-01-27 11:32:34.11	59.56	67.72	-47.4	-51.1	19.7	6.05e-01	0	43	0	588251136	66	5513
2026-01-27 11:32:37.10	55.09	67.37	-47.7	-51.5	19.3	6.07e-01	0	43	0	593494016	66	5750
2026-01-27 11:32:40.08	50.82	66.91	-48.0	-52.1	18.8	6.04e-01	0	43	0	599261184	66	6164
2026-01-27 11:32:43.07	46.73	66.34	-48.0	-52.1	18.6	6.05e-01	0	43	0	605028352	66	6144
2026-01-27 11:32:46.05	42.89	65.67	-47.5	-51.2	19.7	6.07e-01	0	43	0	610271232	66	5538
2026-01-27 11:32:49.03	39.29	64.91	-46.7	-50.0	20.8	6.05e-01	0	43	0	616038400	65	5116
2026-01-27 11:32:52.02	35.93	64.08	-46.6	-49.9	20.9	6.05e-01	0	43	0	621805568	64	5362
2026-01-27 11:32:55.00	32.82	63.19	-46.3	-49.4	21.4	6.09e-01	0	43	0	627048448	64	5052
2026-01-27 11:32:57.99	29.93	62.24	-46.1	-49.1	21.6	6.06e-01	0	43	0	632815616	64	4888
2026-01-27 11:33:00.97	27.28	61.26	-45.7	-48.7	22.1	6.06e-01	0	43	0	638582784	62	5235
2026-01-27 11:33:03.95	24.83	60.24	-45.4	-48.2	22.5	6.07e-01	0	43	0	643825664	61	5276
2026-01-27 11:33:06.94	22.57	59.19	-44.8	-47.5	23.2	6.07e-01	0	43	0	649592832	61	4869
2026-01-27 11:33:09.92	20.49	58.12	-44.8	-47.4	23.2	6.09e-01	0	43	0	655360000	61	4785
2026-01-27 11:33:12.90	18.57	57.04	-44.4	-47.0	23.7	6.07e-01	0	43	0	660602880	60	4843
2026-01-27 11:33:15.89	16.80	55.96	-43.3	-45.8	24.7	6.04e-01	0	43	0	666370048	58	4728
2026-01-27 11:33:18.87	15.16	54.87	-43.5	-45.9	24.8	6.07e-01	0	43	0	672137216	58	4763
2026-01-27 11:33:21.85	13.65	53.79	-43.0	-45.3	25.2	6.06e-01	0	43	0	677380096	57	4747
2026-01-27 11:33:24.84	12.24	52.70	-43.0	-45.3	25.2	6.08e-01	0	43	0	683147264	57	4727
2026-01-27 11:33:27.82	10.94	51.63	-43.2	-45.6	25.0	6.04e-01	0	43	0	688914432	57	4875
2026-01-27 11:33:30.81	9.73	50.57	-43.0	-45.4	25.1	6.05e-01	0	43	0	694157312	57	4808
2026-01-27 11:33:33.79	8.60	49.52	-44.2	-56.1	3.7	7.47e-01	0	43	104	695205888	59	14585
2026-01-27 11:33:36.78	7.55	48.49	-51.3	-68.5	3.7	7.47e-01	0	43	104	695205888	73	27337
2026-01-27 11:33:39.77	6.56	47.47	-44.8	-56.9	3.8	7.45e-01	0	43	104	695205888	61	14265
2026-01-27 11:33:42.76	5.64	46.46	-44.2	-55.9	3.7	7.67e-01	0	43	104	695205888	60	13427
2026-01-27 11:33:45.74	4.78	45.48	-51.2	-68.4	3.7	7.49e-01	0	43	104	695205888	72	28568
2026-01-27 11:33:48.73	3.97	44.51	-44.4	-56.4	3.9	7.42e-01	0	43	104	695205888	61	13477
2026-01-27 11:33:51.71	3.21	43.56	-44.3	-56.3	3.8	7.50e-01	0	43	104	695205888	59	14923
2026-01-27 11:33:54.70	2.50	42.63	-50.4	-68.0	3.7	7.52e-01	0	43	104	695205888	71	28865
2026-01-27 11:33:57.68	1.82	41.72	-45.3	-57.3	3.9	7.49e-01	0	43	104	695205888	62	14060
2026-01-27 11:34:00.67	1.19	40.83	-45.3	-57.7	3.8	7.48e-01	0	43	104	695205888	62	14739
2026-01-27 11:34:03.65	0.58	39.96	-50.7	-67.6	3.7	7.51e-01	0	43	104	695205888	72	25946
2026-01-27 11:34:06.63	0.02	39.11	-46.0	-58.0	3.8	7.49e-01	0	43	104	695205888	64	13677
2026-01-27 11:34:09.62	359.48	38.27	-47.0	-59.9	3.8	7.44e-01	0	43	104	695205888	66	15133
2026-01-27 11:34:12.60	358.96	37.46	-49.9	-65.4	3.8	7.49e-01	0	43	104	695205888	70	22573
2026-01-27 11:34:15.59	358.48	36.66	-48.4	-62.9	3.9	7.46e-01	0	43	104	695205888	68	19042
2026-01-27 11:34:18.57	358.02	35.88	-47.0	-59.9	3.8	7.46e-01	0	43	104	695205888	66	15223
2026-01-27 11:34:21.56	357.58	35.12	-48.4	-62.3	3.8	7.47e-01	0	43	104	695205888	67	18914
2026-01-27 11:34:24.54	357.16	34.38	-45.8	-58.1	3.8	7.47e-01	0	43	104	695205888	63	14613
2026-01-27 11:34:27.53	356.76	33.65	-44.7	-57.0	3.8	7.45e-01	0	43	104	695205888	61	14391
2026-01-27 11:34:30.51	356.38	32.94	-47.3	-60.3	3.8	7.48e-01	0	43	104	695205888	64	17787
2026-01-27 11:34:33.50	356.01	32.24	-47.7	-61.0	3.8	7.47e-01	0	43	104	695205888	67	16306
2026-01-27 11:34:36.48	355.66	31.57	-46.6	-59.2	3.8	7.44e-01	0	43	104	695205888	65	14735
2026-01-27 11:34:39.47	355.33	30.90	-45.9	-58.1	3.8	7.48e-01	0	43	104	695205888	62	15439
2026-01-27 11:34:42.45	355.01	30.25	-44.2	-56.2	3.8	7.45e-01	0	43	104	695205888	60	14036
2026-01-27 11:34:45.44	354.70	29.62	-43.7	-55.6	3.8	7.44e-01	0	43	104	695205888	59	13857
2026-01-27 11:34:48.42	354.41	29.00	-45.5	-57.6	3.8	7.43e-01	0	43	104	695205888	61	15511
2026-01-27 11:34:51.41	354.13	28.39	-51.2	-68.5	3.8	7.46e-01	0	43	104	695205888	73	27096
2026-01-27 11:34:54.39	353.86	27.80	-50.1	-66.0	3.8	7.49e-01	0	43	104	695205888	71	22796
2026-01-27 11:34:57.38	353.60	27.22	-47.8	-60.8	3.9	7.45e-01	0	43	104	695205888	67	15936
2026-01-27 11:35:00.37	353.35	26.65	-50.6	-67.6	3.9	7.43e-01	0	43	104	695205888	72	26124
2026-01-27 11:35:03.35	353.11	26.09	-44.2	-56.1	3.8	7.44e-01	0	43	104	695205888	59	14636
2026-01-27 11:35:06.34	352.87	25.55	-45.0	-57.3	3.8	7.45e-01	0	43	104	695205888	60	15855
2026-01-27 11:35:09.32	352.65	25.01	-47.7	-61.2	3.8	7.41e-01	0	43	104	695205888	66	17531
2026-01-27 11:35:12.31	352.44	24.49	-46.0	-58.7	3.8	7.47e-01	0	43	104	695205888	63	15650
2026-01-27 11:35:15.29	352.23	23.98	-47.3	-61.4	3.8	7.42e-01	0	43	104	695205888	65	19066
2026-01-27 11:35:18.28	352.03	23.48	-49.9	-70.7	3.8	7.42e-01	0	43	104	695205888	70	41808
2026-01-27 11:35:21.26	351.83	22.99	-45.5	-58.0	3.8	7.48e-01	0	43	104	695205888	62	15248
2026-01-27 11:35:24.25	351.65	22.50	-45.0	-57.1	3.8	7.49e-01	0	43	104	695205888	61	14647
2026-01-27 11:35:27.24	351.47	22.03	-44.6	-57.1	3.8	7.48e-01	0	43	104	695205888	60	15476
2026-01-27 11:35:30.22	351.29	21.57	-44.4	-56.5	3.8	7.44e-01	0	43	104	695205888	59	15347
2026-01-27 11:35:33.20	351.12	21.12	-44.9	-57.2	3.8	7.41e-01	0	43	104	695205888	60	15635
2026-01-27 11:35:36.19	350.96	20.67	-50.5	-68.9	3.8	7.46e-01	0	43	104	695205888	71	31931
2026-01-27 11:35:39.17	350.80	20.23	-50.4	-66.7	3.8	7.44e-01	0	43	104	695205888	72	23395
2026-01-27 11:35:42.16	350.65	19.80	-47.1	-60.1	3.8	7.43e-01	0	43	104	695205888	66	15534
2026-01-27 11:35:45.15	350.50	19.38	-51.0	-70.1	3.8	7.45e-01	0	43	104	695205888	72	34746
2026-01-27 11:35:48.13	350.35	18.97	-44.2	-56.5	3.8	7.44e-01	0	43	104	695205888	59	15249
2026-01-27 11:35:51.11	350.21	18.56	-44.5	-57.0	3.8	7.43e-01	0	43	104	695205888	59	16262
2026-01-27 11:35:54.10	350.08	18.16	-44.0	-56.4	3.8	7.48e-01	0	43	104	695205888	59	15202
2026-01-27 11:35:57.08	349.95	17.77	-44.0	-56.2	3.8	7.48e-01	0	43	104	695205888	59	14718
2026-01-27 11:36:00.07	349.82	17.38	-44.5	-56.9	3.8	7.44e-01	0	43	104	695205888	60	15094
2026-01-27 11:36:03.05	349.69	17.00	-44.3	-56.3	3.8	7.45e-01	0	43	104	695205888	59	14932
2026-01-27 11:36:06.04	349.57	16.63	-44.2	-56.2	3.8	7.48e-01	0	43	104	695205888	59	14712
2026-01-27 11:36:09.03	349.46	16.26	-44.7	-57.0	3.8	7.44e-01	0	43	104	695205888	60	15318
2026-01-27 11:36:12.01	349.34	15.90	-44.4	-56.7	3.8	7.45e-01	0	43	104	695205888	60	14774
2026-01-27 11:36:15.00	349.23	15.54	-44.6	-56.8	3.8	7.45e-01	0	43	104	695205888	60	14995
2026-01-27 11:36:17.98	349.13	15.19	-45.7	-58.6	3.8	7.43e-01	0	43	104	695205888	62	16395
2026-01-27 11:36:20.97	349.02	14.85	-49.9	-67.6	3.8	7.49e-01	0	43	104	695205888	70	29161
2026-01-27 11:36:23.95	348.92	14.51	-43.8	-56.4	3.8	7.47e-01	0	43	104	695205888	59	15172
2026-01-27 11:36:26.93	348.82	14.18	-44.5	-57.8	3.8	7.46e-01	0	43	104	695205888	60	16776
2026-01-27 11:36:29.92	348.72	13.85	-44.0	-56.5	3.8	7.43e-01	0	43	104	695205888	59	15301
2026-01-27 11:36:32.90	348.63	13.52	-44.1	-56.3	3.8	7.43e-01	0	43	104	695205888	59	14985
2026-01-27 11:36:35.89	348.54	13.20	-45.0	-57.6	3.8	7.46e-01	0	43	104	695205888	60	16432
2026-01-27 11:36:38.87	348.45	12.89	-47.8	-64.8	3.7	7.44e-01	0	43	104	695205888	66	26492
2026-01-27 11:36:41.85	348.36	12.57	-43.5	-56.7	3.8	7.46e-01	0	43	104	695205888	58	16594
2026-01-27 11:36:44.83	348.28	12.27	-43.9	-57.3	3.9	7.43e-01	0	43	104	695205888	58	17886
2026-01-27 11:36:47.82	348.19	11.97	-46.8	-63.8	3.8	7.46e-01	0	43	104	695205888	64	26629
2026-01-27 11:36:50.81	348.11	11.67	-43.1	-56.7	3.8	7.45e-01	0	43	104	695205888	57	17660
2026-01-27 11:36:53.79	348.03	11.37	-43.7	-57.8	3.8	7.49e-01	0	43	104	695205888	57	19881
2026-01-27 11:36:56.78	347.96	11.08	-45.1	-62.1	3.8	7.50e-01	0	43	104	695205888	60	27619
2026-01-27 11:36:59.76	347.88	10.79	-43.1	-57.2	3.8	7.44e-01	0	43	104	695205888	58	17516
2026-01-27 11:37:02.75	347.81	10.51	-42.9	-57.2	3.8	7.46e-01	0	43	104	695205888	57	18666
2026-01-27 11:37:05.73	347.74	10.23	-44.6	-61.2	3.8	7.48e-01	0	43	104	695205888	59	26374
2026-01-27 11:37:08.71	347.67	9.95	-43.4	-57.3	3.8	7.48e-01	0	43	104	695205888	58	17777
2026-01-27 11:37:11.70	347.60	9.68	-43.9	-58.2	3.8	7.48e-01	0	43	104	695205888	58	19833
2026-01-27 11:37:14.69	347.54	9.41	-44.8	-60.9	3.8	7.49e-01	0	43	104	695205888	60	23961
2026-01-27 11:37:17.67	347.47	9.14	-44.0	-57.0	3.9	7.43e-01	0	43	104	695205888	59	16209
2026-01-27 11:37:20.65	347.41	8.88	-45.3	-70.6	3.7	7.51e-01	0	43	104	695205888	62	65535
2026-01-27 11:37:23.63	347.35	8.62	-49.2	-56.0	15.9	6.02e-01	0	43	0	695205888	68	8600
2026-01-27 11:37:26.61	347.29	8.36	-49.0	-71.5	3.8	7.46e-01	0	43	104	695730176	70	45793
2026-01-27 11:37:29.59	347.23	8.11	-50.6	-71.2	3.8	7.48e-01	0	43	104	695730176	72	39435
2026-01-27 11:37:32.57	347.17	7.86	-50.5	-71.3	3.8	7.47e-01	0	43	104	695730176	71	42378
2026-01-27 11:37:35.55	347.11	7.61	-51.2	-71.4	3.8	7.51e-01	0	43	104	695730176	73	37959
2026-01-27 11:37:38.53	347.06	7.36	-51.0	-71.5	3.8	7.48e-01	0	43	104	695730176	73	38286
2026-01-27 11:37:41.51	347.00	7.12	-50.6	-71.5	3.8	7.46e-01	0	43	104	695730176	73	38413
2026-01-27 11:37:44.49	346.95	6.88	-50.6	-71.5	3.8	7.42e-01	0	43	104	695730176	73	38289
2026-01-27 11:37:47.46	346.90	6.64	-50.6	-71.4	3.8	7.46e-01	0	43	104	695730176	73	38242
2026-01-27 11:37:50.45	346.85	6.41	-50.6	-71.4	3.8	7.46e-01	0	43	104	695730176	73	38242
2026-01-27 11:37:53.42	346.80	6.17	-50.6	-71.4	3.8	7.45e-01	0	44	104	695730176	73	38186
2026-01-27 11:37:56.40	346.75	5.94	-50.5	-71.4	3.8	7.49e-01	0	43	104	695730176	73	38174
2026-01-27 11:37:59.38	346.71	5.71	-50.5	-71.4	3.8	7.46e-01	0	43	104	695730176	73	38157
2026-01-27 11:38:02.36	346.66	5.48	-50.6	-71.4	3.8	7.47e-01	0	43	104	695730176	73	38209
2026-01-27 11:38:05.34	346.61	5.26	-50.5	-71.5	3.8	7.46e-01	0	43	104	695730176	73	38273
2026-01-27 11:38:08.32	346.57	5.04	-50.5	-71.5	3.8	7.48e-01	0	43	104	695730176	73	38247

#Closed at: 2026-01-27 11:38:10
#Recorded file [695 MB]: D:/Data/31040_260127_142650.dat