passes_logs/2025/01/22/planumMaritime01/planumMaritime01__20250122_191048_NOAA_19_rec.log

#Pass ID: 20250122_191048_NOAA 19
#Satellite: NOAA 19
#Configuration: NOAA 19
#Start time: 2025-01-22 19:10:48.344129

#LorettStation: 1.0.0 05.05.2024
#Station: planumMaritime01
#Location: 37.49445 lon 55.92918 lat
#TLE: 1 33591U 09005A   25022.22545190  .00000382  00000+0  22773-3 0  9990
#TLE: 2 33591  99.0184  86.0433 0014227  38.0135 322.2038 14.13265658822568

#Time	Az	El	Level	SNR
2025-01-22 19:10:55.877741	199.6	10.6	-80.5	0.0
2025-01-22 19:10:58.130923	199.8	10.8	-81.5	0.0
2025-01-22 19:11:00.386364	200.0	10.9	-80.8	0.0
2025-01-22 19:11:02.639513	200.2	11.1	-80.0	0.0
2025-01-22 19:11:04.893228	200.4	11.3	-79.1	0.0
2025-01-22 19:11:07.147097	200.6	11.5	-78.9	0.0
2025-01-22 19:11:09.401407	200.8	11.7	-78.6	0.0
2025-01-22 19:11:11.656900	201.0	11.9	-78.3	0.0
2025-01-22 19:11:13.909976	201.2	12.0	-78.9	0.0
2025-01-22 19:11:16.161376	201.4	12.2	-78.7	0.0
2025-01-22 19:11:18.414372	201.6	12.4	-78.4	0.0
2025-01-22 19:11:20.668218	201.8	12.6	-78.0	0.0
2025-01-22 19:11:22.919648	202.1	12.8	-78.3	0.0
2025-01-22 19:11:25.170834	202.3	13.0	-78.6	0.0
2025-01-22 19:11:27.424835	202.5	13.2	-77.8	0.0
2025-01-22 19:11:29.673728	202.7	13.4	-78.5	0.0
2025-01-22 19:11:31.926531	203.0	13.6	-78.1	0.0
2025-01-22 19:11:34.180919	203.2	13.7	-77.9	0.0
2025-01-22 19:11:36.435177	203.5	13.9	-78.2	0.0
2025-01-22 19:11:38.688720	203.7	14.1	-78.3	0.0
2025-01-22 19:11:40.939517	203.9	14.3	-77.9	0.0
2025-01-22 19:11:43.194696	204.2	14.5	-78.1	0.0
2025-01-22 19:11:45.446942	204.4	14.7	-77.9	0.0
2025-01-22 19:11:47.700313	204.7	14.9	-78.1	0.0
2025-01-22 19:11:49.951463	205.0	15.1	-76.9	0.0
2025-01-22 19:11:52.208769	205.2	15.3	-78.6	0.0
2025-01-22 19:11:54.461134	205.5	15.5	-77.2	0.0
2025-01-22 19:11:56.717465	205.8	15.8	-78.3	0.0
2025-01-22 19:11:58.968579	206.0	16.0	-76.5	0.0
2025-01-22 19:12:01.222357	206.3	16.2	-76.9	0.0
2025-01-22 19:12:03.472611	206.6	16.4	-78.4	0.0
2025-01-22 19:12:05.728136	206.9	16.6	-78.2	0.0
2025-01-22 19:12:07.980412	207.2	16.8	-78.6	0.0
2025-01-22 19:12:10.231896	207.5	17.0	-79.0	0.0
2025-01-22 19:12:12.484576	207.7	17.2	-77.2	0.0
2025-01-22 19:12:14.734491	208.0	17.4	-78.5	0.0
2025-01-22 19:12:16.988372	208.3	17.7	-78.9	0.0
2025-01-22 19:12:19.241918	208.7	17.9	-79.0	0.0
2025-01-22 19:12:21.495672	209.0	18.1	-78.7	0.0
2025-01-22 19:12:23.748593	209.3	18.3	-79.2	0.0
2025-01-22 19:12:26.002118	209.6	18.5	-79.1	0.0
2025-01-22 19:12:28.253732	209.9	18.8	-79.5	0.0
2025-01-22 19:12:30.507009	210.3	19.0	-79.2	0.0
2025-01-22 19:12:32.760538	210.6	19.2	-78.5	0.0
2025-01-22 19:12:35.014906	210.9	19.4	-79.1	0.0
2025-01-22 19:12:37.270541	211.3	19.6	-79.6	0.0
2025-01-22 19:12:39.521571	211.6	19.9	-79.7	0.0
2025-01-22 19:12:41.775633	212.0	20.1	-79.5	0.0
2025-01-22 19:12:44.028335	212.4	20.3	-78.9	0.0
2025-01-22 19:12:46.280288	212.7	20.6	-79.5	0.0
2025-01-22 19:12:48.533040	213.1	20.8	-79.4	0.0
2025-01-22 19:12:50.788175	213.5	21.0	-78.9	0.0
2025-01-22 19:12:53.045278	213.8	21.3	-78.5	0.0
2025-01-22 19:12:55.301495	214.2	21.5	-78.7	0.0
2025-01-22 19:12:57.558542	214.6	21.7	-79.3	0.0
2025-01-22 19:12:59.812563	215.0	22.0	-78.6	0.0
2025-01-22 19:13:02.068805	215.4	22.2	-78.5	0.0
2025-01-22 19:13:04.323452	215.8	22.4	-78.3	0.0
2025-01-22 19:13:06.577313	216.3	22.7	-78.5	0.0
2025-01-22 19:13:08.831793	216.7	22.9	-78.6	0.0
2025-01-22 19:13:11.085371	217.1	23.1	-78.5	0.0
2025-01-22 19:13:13.338457	217.5	23.4	-78.9	0.0
2025-01-22 19:13:15.593436	218.0	23.6	-78.2	0.0
2025-01-22 19:13:17.846726	218.4	23.9	-79.3	0.0
2025-01-22 19:13:20.100215	218.9	24.1	-78.7	0.0
2025-01-22 19:13:22.354752	219.4	24.3	-79.1	0.0
2025-01-22 19:13:24.608398	219.8	24.6	-79.0	0.0
2025-01-22 19:13:26.859502	220.3	24.8	-79.1	0.0
2025-01-22 19:13:29.115272	220.8	25.1	-79.2	0.0
2025-01-22 19:13:31.371411	221.3	25.3	-79.2	0.0
2025-01-22 19:13:33.624387	221.8	25.5	-79.0	0.0
2025-01-22 19:13:35.879766	222.3	25.8	-79.5	0.0
2025-01-22 19:13:38.135111	222.8	26.0	-78.5	0.0
2025-01-22 19:13:40.387407	223.3	26.3	-79.5	0.0
2025-01-22 19:13:42.643374	223.8	26.5	-79.5	0.0
2025-01-22 19:13:44.899308	224.4	26.7	-79.8	0.0
2025-01-22 19:13:47.151153	224.9	27.0	-79.8	0.0
2025-01-22 19:13:49.405316	225.5	27.2	-79.7	0.0
2025-01-22 19:13:51.661395	226.0	27.5	-79.8	0.0
2025-01-22 19:13:53.915438	226.6	27.7	-79.6	0.0
2025-01-22 19:13:56.172285	227.2	27.9	-80.3	0.0
2025-01-22 19:13:58.426496	227.8	28.2	-80.1	0.0
2025-01-22 19:14:00.679955	228.4	28.4	-80.1	0.0
2025-01-22 19:14:02.935133	229.0	28.6	-80.2	0.0
2025-01-22 19:14:05.188734	229.6	28.9	-80.0	0.0
2025-01-22 19:14:07.441283	230.2	29.1	-80.0	0.0
2025-01-22 19:14:09.697621	230.8	29.3	-80.4	0.0
2025-01-22 19:14:11.951673	231.5	29.5	-80.0	0.0
2025-01-22 19:14:14.205606	232.1	29.8	-79.8	0.0
2025-01-22 19:14:16.461920	232.8	30.0	-79.8	0.0
2025-01-22 19:14:18.716633	233.4	30.2	-80.2	0.0
2025-01-22 19:14:20.971319	234.1	30.4	-80.0	0.0
2025-01-22 19:14:23.224085	234.8	30.6	-80.4	0.0
2025-01-22 19:14:25.475564	235.5	30.8	-79.3	0.0
2025-01-22 19:14:27.727123	236.2	31.0	-80.2	0.0
2025-01-22 19:14:29.979393	236.9	31.3	-79.6	0.0
2025-01-22 19:14:32.231856	237.6	31.5	-80.4	0.0
2025-01-22 19:14:34.484106	238.3	31.6	-80.5	0.0
2025-01-22 19:14:36.738920	239.0	31.8	-80.7	0.0
2025-01-22 19:14:38.993692	239.8	32.0	-80.9	0.0
2025-01-22 19:14:41.245689	240.5	32.2	-80.6	0.0
2025-01-22 19:14:43.498326	241.3	32.4	-80.9	0.0
2025-01-22 19:14:45.750740	242.0	32.6	-80.8	0.0
2025-01-22 19:14:48.005294	242.8	32.7	-80.7	0.0
2025-01-22 19:14:50.259526	243.6	32.9	-80.6	0.0
2025-01-22 19:14:52.511514	244.4	33.1	-80.7	0.0
2025-01-22 19:14:54.765339	245.2	33.2	-80.7	0.0
2025-01-22 19:14:57.019292	246.0	33.4	-80.2	0.0
2025-01-22 19:14:59.270779	246.8	33.5	-80.5	0.0
2025-01-22 19:15:01.528184	247.6	33.7	-80.3	0.0
2025-01-22 19:15:03.784474	248.4	33.8	-80.6	0.0
2025-01-22 19:15:06.038374	249.3	33.9	-80.3	0.0
2025-01-22 19:15:08.292912	250.1	34.0	-80.3	0.0
2025-01-22 19:15:10.543801	250.9	34.2	-79.9	0.0
2025-01-22 19:15:12.798158	251.8	34.3	-80.1	0.0
2025-01-22 19:15:15.050926	252.6	34.4	-80.2	0.0
2025-01-22 19:15:17.305441	253.5	34.5	-80.2	0.0
2025-01-22 19:15:19.559902	254.4	34.6	-80.0	0.0
2025-01-22 19:15:21.812595	255.2	34.6	-80.2	0.0
2025-01-22 19:15:24.066429	256.1	34.7	-80.0	0.0
2025-01-22 19:15:26.319079	257.0	34.8	-79.8	0.0
2025-01-22 19:15:28.571707	257.9	34.8	-80.4	0.0
2025-01-22 19:15:30.825684	258.7	34.9	-80.3	0.0
2025-01-22 19:15:33.078891	259.6	34.9	-79.9	0.0
2025-01-22 19:15:35.334304	260.5	35.0	-80.3	0.0
2025-01-22 19:15:37.589029	261.4	35.0	-79.9	0.0
2025-01-22 19:15:39.844663	262.3	35.0	-80.5	0.0
2025-01-22 19:15:42.099869	263.2	35.1	-80.3	0.0
2025-01-22 19:15:44.352801	264.1	35.1	-80.4	0.0
2025-01-22 19:15:46.606833	265.0	35.1	-80.1	0.0
2025-01-22 19:15:48.861159	265.9	35.1	-80.1	0.0
2025-01-22 19:15:51.111692	266.8	35.0	-80.3	0.0
2025-01-22 19:15:53.364388	267.6	35.0	-80.2	0.0
2025-01-22 19:15:55.617563	268.5	35.0	-80.2	0.0
2025-01-22 19:15:57.869318	269.4	34.9	-80.4	0.0
2025-01-22 19:16:00.123796	270.3	34.9	-80.2	0.0
2025-01-22 19:16:02.378696	271.2	34.9	-80.1	0.0
2025-01-22 19:16:04.633593	272.1	34.8	-79.6	0.0
2025-01-22 19:16:06.888713	272.9	34.7	-80.2	0.0
2025-01-22 19:16:09.140699	273.8	34.6	-79.8	0.0
2025-01-22 19:16:11.395945	274.7	34.6	-79.9	0.0
2025-01-22 19:16:13.647771	275.5	34.5	-79.7	0.0
2025-01-22 19:16:15.899698	276.4	34.4	-79.2	0.0
2025-01-22 19:16:18.152331	277.3	34.3	-79.7	0.0
2025-01-22 19:16:20.405932	278.1	34.2	-78.6	0.0
2025-01-22 19:16:22.658478	278.9	34.1	-79.8	0.0
2025-01-22 19:16:24.914872	279.8	33.9	-79.6	0.0
2025-01-22 19:16:27.168536	280.6	33.8	-79.1	0.0
2025-01-22 19:16:29.422490	281.4	33.7	-78.8	0.0
2025-01-22 19:16:31.675944	282.2	33.5	-79.9	0.0
2025-01-22 19:16:33.927110	283.1	33.4	-80.1	0.0
2025-01-22 19:16:36.178077	283.9	33.2	-80.0	0.0
2025-01-22 19:16:38.431470	284.7	33.1	-79.8	0.0
2025-01-22 19:16:40.684046	285.4	32.9	-79.0	0.0
2025-01-22 19:16:42.937355	286.2	32.8	-78.0	0.0
2025-01-22 19:16:45.190397	287.0	32.6	-80.0	0.0
2025-01-22 19:16:47.440585	287.7	32.4	-79.9	0.0
2025-01-22 19:16:49.695715	288.5	32.2	-79.9	0.0
2025-01-22 19:16:51.945131	289.2	32.1	-78.9	0.0
2025-01-22 19:16:54.198220	290.0	31.9	-79.7	0.0
2025-01-22 19:16:56.450517	290.7	31.7	-79.7	0.0
2025-01-22 19:16:58.703643	291.4	31.5	-78.3	0.0
2025-01-22 19:17:00.956246	292.1	31.3	-77.5	0.0
2025-01-22 19:17:03.209598	292.9	31.1	-79.6	0.0
2025-01-22 19:17:05.462697	293.5	30.9	-79.2	0.0
2025-01-22 19:17:07.715067	294.2	30.7	-79.2	0.0
2025-01-22 19:17:09.970401	294.9	30.5	-76.9	0.0
2025-01-22 19:17:12.223812	295.6	30.3	-79.1	0.0
2025-01-22 19:17:14.478699	296.2	30.0	-76.4	0.0
2025-01-22 19:17:16.731923	296.9	29.8	-77.8	0.0
2025-01-22 19:17:18.984752	297.5	29.6	-78.3	0.0
2025-01-22 19:17:21.239227	298.2	29.4	-77.0	0.0
2025-01-22 19:17:23.493449	298.8	29.2	-78.1	0.0
2025-01-22 19:17:25.747533	299.4	28.9	-77.8	0.0
2025-01-22 19:17:28.001829	300.0	28.7	-78.0	0.0
2025-01-22 19:17:30.252743	300.6	28.5	-77.9	0.0
2025-01-22 19:17:32.506914	301.2	28.2	-76.3	0.0
2025-01-22 19:17:34.762179	301.8	28.0	-76.2	0.0
2025-01-22 19:17:37.013699	302.4	27.8	-77.1	0.0
2025-01-22 19:17:39.266858	302.9	27.5	-77.2	0.0
2025-01-22 19:17:41.518929	303.5	27.3	-76.0	0.0
2025-01-22 19:17:43.771792	304.0	27.1	-76.8	0.0
2025-01-22 19:17:46.025640	304.6	26.8	-77.1	0.0
2025-01-22 19:17:48.277092	305.1	26.6	-75.7	0.0
2025-01-22 19:17:50.529942	305.7	26.4	-76.9	0.0
2025-01-22 19:17:52.782207	306.2	26.1	-77.2	0.0
2025-01-22 19:17:55.036330	306.7	25.9	-76.4	0.0
2025-01-22 19:17:57.291675	307.2	25.6	-77.1	0.0
2025-01-22 19:17:59.545237	307.7	25.4	-76.9	0.0
2025-01-22 19:18:01.801551	308.2	25.2	-76.5	0.0
2025-01-22 19:18:04.055203	308.7	24.9	-77.9	0.0
2025-01-22 19:18:06.305290	309.1	24.7	-78.6	0.0
2025-01-22 19:18:08.557497	309.6	24.4	-78.7	0.0
2025-01-22 19:18:10.809349	310.1	24.2	-77.9	0.0
2025-01-22 19:18:13.062689	310.5	24.0	-77.7	0.0
2025-01-22 19:18:15.316291	311.0	23.7	-77.5	0.0
2025-01-22 19:18:17.568915	311.4	23.5	-77.2	0.0
2025-01-22 19:18:19.825519	311.8	23.3	-75.9	0.0
2025-01-22 19:18:22.077430	312.3	23.0	-75.9	0.0
2025-01-22 19:18:24.330356	312.7	22.8	-76.4	0.0
2025-01-22 19:18:26.586159	313.1	22.6	-76.5	0.0
2025-01-22 19:18:28.839178	313.5	22.3	-74.6	0.0
2025-01-22 19:18:31.091609	313.9	22.1	-75.7	0.0
2025-01-22 19:18:33.341655	314.3	21.9	-76.0	0.0
2025-01-22 19:18:35.593991	314.7	21.6	-75.9	0.0
2025-01-22 19:18:37.845034	315.1	21.4	-76.6	0.0
2025-01-22 19:18:40.099590	315.5	21.2	-76.8	0.0
2025-01-22 19:18:42.353699	315.9	20.9	-75.8	0.0
2025-01-22 19:18:44.604881	316.2	20.7	-75.3	0.0
2025-01-22 19:18:46.855914	316.6	20.5	-75.0	0.0
2025-01-22 19:18:49.107233	317.0	20.3	-76.0	0.0
2025-01-22 19:18:51.359336	317.3	20.0	-76.1	0.0
2025-01-22 19:18:53.613493	317.7	19.8	-75.5	0.0
2025-01-22 19:18:55.866593	318.0	19.6	-75.5	0.0
2025-01-22 19:18:58.120005	318.3	19.4	-73.8	0.0
2025-01-22 19:19:00.371491	318.7	19.1	-74.1	0.0
2025-01-22 19:19:02.624425	319.0	18.9	-74.8	0.0
2025-01-22 19:19:04.876950	319.3	18.7	-75.0	0.0
2025-01-22 19:19:07.130155	319.7	18.5	-74.5	0.0
2025-01-22 19:19:09.381390	320.0	18.3	-76.1	0.0
2025-01-22 19:19:11.636298	320.3	18.0	-73.7	0.0
2025-01-22 19:19:13.887181	320.6	17.8	-73.3	0.0
2025-01-22 19:19:16.139695	320.9	17.6	-74.0	0.0
2025-01-22 19:19:18.389442	321.2	17.4	-74.5	0.0
2025-01-22 19:19:20.642968	321.5	17.2	-75.8	0.0
2025-01-22 19:19:22.896177	321.8	17.0	-70.2	0.0
2025-01-22 19:19:25.147786	322.1	16.8	-75.3	0.0
2025-01-22 19:19:27.401387	322.4	16.6	-75.2	0.0
2025-01-22 19:19:29.653941	322.6	16.4	-75.2	0.0
2025-01-22 19:19:31.907027	322.9	16.1	-77.6	0.0
2025-01-22 19:19:34.159010	323.2	15.9	-76.7	0.0
2025-01-22 19:19:36.410733	323.5	15.7	-76.6	0.0
2025-01-22 19:19:38.665185	323.7	15.5	-75.1	0.0
2025-01-22 19:19:40.915478	324.0	15.3	-74.2	0.0
2025-01-22 19:19:43.169347	324.2	15.1	-73.8	0.0
2025-01-22 19:19:45.422227	324.5	14.9	-76.5	0.0
2025-01-22 19:19:47.676344	324.8	14.7	-75.7	0.0
2025-01-22 19:19:49.929763	325.0	14.5	-75.8	0.0
2025-01-22 19:19:52.184032	325.3	14.3	-74.8	0.0
2025-01-22 19:19:54.438074	325.5	14.1	-73.3	0.0
2025-01-22 19:19:56.689686	325.7	14.0	-76.3	0.0
2025-01-22 19:19:58.942089	326.0	13.8	-71.9	0.0
2025-01-22 19:20:01.200949	326.2	13.6	-75.1	0.0
2025-01-22 19:20:03.454374	326.4	13.4	-73.1	0.0
2025-01-22 19:20:05.706532	326.7	13.2	-73.5	0.0
2025-01-22 19:20:07.958352	326.9	13.0	-75.0	0.0
2025-01-22 19:20:10.211103	327.1	12.8	-73.8	0.0
2025-01-22 19:20:12.466706	327.3	12.6	-74.5	0.0
2025-01-22 19:20:14.720162	327.6	12.4	-72.8	0.0
2025-01-22 19:20:16.973527	327.8	12.3	-73.9	0.0
2025-01-22 19:20:19.226326	328.0	12.1	-72.6	0.0
2025-01-22 19:20:21.479479	328.2	11.9	-72.3	0.0
2025-01-22 19:20:23.730682	328.4	11.7	-72.8	0.0
2025-01-22 19:20:25.985700	328.6	11.5	-72.2	0.0
2025-01-22 19:20:28.239548	328.8	11.3	-71.7	0.0
2025-01-22 19:20:30.493686	329.0	11.2	-71.0	0.0
2025-01-22 19:20:32.748117	329.2	11.0	-70.9	0.0
2025-01-22 19:20:35.001883	329.4	10.8	-74.3	0.0
2025-01-22 19:20:37.252765	329.6	10.6	-78.2	0.0
2025-01-22 19:20:39.506155	329.8	10.5	-79.9	0.0
2025-01-22 19:20:41.759277	330.0	10.3	-81.3	0.0
2025-01-22 19:20:44.013038	330.2	10.1	-80.8	0.0
2025-01-22 19:20:46.267871	330.4	9.9	-80.7	0.0
2025-01-22 19:20:48.520105	330.5	9.8	-80.8	0.0
#Closed at: 2025-01-22 19:10:48.665203