passes_logs/2025/01/22/planumMaritime01/planumMaritime01__20250122_112214_NOAA_18_rec.log

#Pass ID: 20250122_112214_NOAA 18
#Satellite: NOAA 18
#Configuration: NOAA 18
#Start time: 2025-01-22 11:22:19.587436

#LorettStation: 1.0.0 05.05.2024
#Station: planumMaritime01
#Location: 37.49445 lon 55.92918 lat
#TLE: 1 28654U 05018A   25021.17963601  .00000484  00000+0  28040-3 0  9994
#TLE: 2 28654  98.8557 102.1724 0014626 162.0619 198.1073 14.13492794 14053

#Time	Az	El	Level	SNR
2025-01-22 11:22:24.277525	351.1	10.2	-67.3	0.0
2025-01-22 11:22:25.404059	350.9	10.3	-63.3	0.0
2025-01-22 11:22:26.529921	350.8	10.3	-64.9	0.0
2025-01-22 11:22:27.656911	350.6	10.4	-64.2	0.0
2025-01-22 11:22:28.783093	350.4	10.4	-64.3	0.0
2025-01-22 11:22:29.911056	350.3	10.5	-68.6	0.0
2025-01-22 11:22:31.036990	350.1	10.5	-68.4	0.0
2025-01-22 11:22:32.164030	349.9	10.6	-64.9	0.0
2025-01-22 11:22:33.290370	349.8	10.6	-66.2	0.0
2025-01-22 11:22:34.417684	349.6	10.7	-67.8	0.0
2025-01-22 11:22:35.544088	349.4	10.8	-64.2	0.0
2025-01-22 11:22:36.670496	349.2	10.8	-66.5	0.0
2025-01-22 11:22:37.797117	349.1	10.9	-66.5	0.0
2025-01-22 11:22:38.922537	348.9	10.9	-69.2	0.0
2025-01-22 11:22:40.049155	348.7	11.0	-67.0	0.0
2025-01-22 11:22:41.175105	348.5	11.0	-70.6	0.0
2025-01-22 11:22:42.301113	348.4	11.1	-69.2	0.0
2025-01-22 11:22:43.425489	348.2	11.1	-64.4	0.0
2025-01-22 11:22:44.550813	348.0	11.2	-66.5	0.0
2025-01-22 11:22:45.677069	347.8	11.2	-68.7	0.0
2025-01-22 11:22:46.801741	347.6	11.3	-66.9	0.0
2025-01-22 11:22:47.931290	347.5	11.3	-64.7	0.0
2025-01-22 11:22:49.060043	347.3	11.4	-68.4	0.0
2025-01-22 11:22:50.186889	347.1	11.4	-67.7	0.0
2025-01-22 11:22:51.312498	346.9	11.5	-62.1	0.0
2025-01-22 11:22:52.438904	346.7	11.5	-66.7	0.0
2025-01-22 11:22:53.565922	346.6	11.6	-67.7	0.0
2025-01-22 11:22:54.693616	346.4	11.6	-67.9	0.0
2025-01-22 11:22:55.820969	346.2	11.7	-64.5	0.0
2025-01-22 11:22:56.949674	346.0	11.7	-68.8	0.0
2025-01-22 11:22:58.076436	345.8	11.8	-66.0	0.0
2025-01-22 11:22:59.206058	345.6	11.8	-63.0	0.0
2025-01-22 11:23:00.335691	345.4	11.9	-67.5	0.0
2025-01-22 11:23:01.463358	345.3	11.9	-69.1	0.0
2025-01-22 11:23:02.589756	345.1	12.0	-66.2	0.0
2025-01-22 11:23:03.714916	344.9	12.0	-61.7	0.0
2025-01-22 11:23:04.842675	344.7	12.1	-72.1	0.0
2025-01-22 11:23:05.968299	344.5	12.1	-70.3	0.0
2025-01-22 11:23:07.094285	344.3	12.2	-65.4	0.0
2025-01-22 11:23:08.220936	344.1	12.2	-69.8	0.0
2025-01-22 11:23:09.346212	343.9	12.2	-70.5	0.0
2025-01-22 11:23:10.474783	343.7	12.3	-64.1	0.0
2025-01-22 11:23:11.601316	343.5	12.3	-65.7	0.0
2025-01-22 11:23:12.727677	343.3	12.4	-64.2	0.0
2025-01-22 11:23:13.853180	343.2	12.4	-64.4	0.0
2025-01-22 11:23:14.981402	343.0	12.5	-63.7	0.0
2025-01-22 11:23:16.107681	342.8	12.5	-63.8	0.0
2025-01-22 11:23:17.234057	342.6	12.6	-67.5	0.0
2025-01-22 11:23:18.360981	342.4	12.6	-72.3	0.0
2025-01-22 11:23:19.487740	342.2	12.7	-66.4	0.0
2025-01-22 11:23:20.613964	342.0	12.7	-70.8	0.0
2025-01-22 11:23:21.738468	341.8	12.7	-69.9	0.0
2025-01-22 11:23:22.864270	341.6	12.8	-68.8	0.0
2025-01-22 11:23:23.991097	341.4	12.8	-68.8	0.0
2025-01-22 11:23:25.118030	341.2	12.9	-69.1	0.0
2025-01-22 11:23:26.243848	341.0	12.9	-68.9	0.0
2025-01-22 11:23:27.371185	340.8	13.0	-66.9	0.0
2025-01-22 11:23:28.495168	340.6	13.0	-66.5	0.0
2025-01-22 11:23:29.622024	340.4	13.0	-65.8	0.0
2025-01-22 11:23:30.748594	340.2	13.1	-67.4	0.0
2025-01-22 11:23:31.875299	340.0	13.1	-65.7	0.0
2025-01-22 11:23:33.002304	339.8	13.2	-68.2	0.0
2025-01-22 11:23:34.126775	339.6	13.2	-67.7	0.0
2025-01-22 11:23:35.253820	339.3	13.3	-67.2	0.0
2025-01-22 11:23:36.380849	339.1	13.3	-66.6	0.0
2025-01-22 11:23:37.507699	338.9	13.3	-67.0	0.0
2025-01-22 11:23:38.634390	338.7	13.4	-68.2	0.0
2025-01-22 11:23:39.761822	338.5	13.4	-67.7	0.0
2025-01-22 11:23:40.887425	338.3	13.5	-67.7	0.0
2025-01-22 11:23:42.013518	338.1	13.5	-72.6	0.0
2025-01-22 11:23:43.138969	337.9	13.5	-67.9	0.0
2025-01-22 11:23:44.265325	337.7	13.6	-67.5	0.0
2025-01-22 11:23:45.390088	337.5	13.6	-68.2	0.0
2025-01-22 11:23:46.514534	337.3	13.6	-69.4	0.0
2025-01-22 11:23:47.641035	337.0	13.7	-67.4	0.0
2025-01-22 11:23:48.767062	336.8	13.7	-72.3	0.0
2025-01-22 11:23:49.893259	336.6	13.8	-67.4	0.0
2025-01-22 11:23:51.020114	336.4	13.8	-70.8	0.0
2025-01-22 11:23:52.148014	336.2	13.8	-69.0	0.0
2025-01-22 11:23:53.275308	336.0	13.9	-70.2	0.0
2025-01-22 11:23:54.402753	335.8	13.9	-68.6	0.0
2025-01-22 11:23:55.528849	335.5	13.9	-67.7	0.0
2025-01-22 11:23:56.654324	335.3	14.0	-67.6	0.0
2025-01-22 11:23:57.780149	335.1	14.0	-68.8	0.0
2025-01-22 11:23:58.904541	334.9	14.0	-68.0	0.0
2025-01-22 11:24:00.031288	334.7	14.1	-67.9	0.0
2025-01-22 11:24:01.158060	334.5	14.1	-71.6	0.0
2025-01-22 11:24:02.285040	334.2	14.1	-71.8	0.0
2025-01-22 11:24:03.410737	334.0	14.2	-66.3	0.0
2025-01-22 11:24:04.534440	333.8	14.2	-68.4	0.0
2025-01-22 11:24:05.662271	333.6	14.2	-68.8	0.0
2025-01-22 11:24:06.789196	333.4	14.3	-69.8	0.0
2025-01-22 11:24:07.915216	333.1	14.3	-68.8	0.0
2025-01-22 11:24:09.039302	332.9	14.3	-70.0	0.0
2025-01-22 11:24:10.166237	332.7	14.4	-72.5	0.0
2025-01-22 11:24:11.293248	332.5	14.4	-69.3	0.0
2025-01-22 11:24:12.418439	332.2	14.4	-73.4	0.0
2025-01-22 11:24:13.543533	332.0	14.4	-69.2	0.0
2025-01-22 11:24:14.670230	331.8	14.5	-73.0	0.0
2025-01-22 11:24:15.797344	331.6	14.5	-66.7	0.0
2025-01-22 11:24:16.922365	331.4	14.5	-66.6	0.0
2025-01-22 11:24:18.046507	331.1	14.6	-72.0	0.0
2025-01-22 11:24:19.172076	330.9	14.6	-68.6	0.0
2025-01-22 11:24:20.297378	330.7	14.6	-67.3	0.0
2025-01-22 11:24:21.424340	330.4	14.6	-71.3	0.0
2025-01-22 11:24:22.550230	330.2	14.7	-73.7	0.0
2025-01-22 11:24:23.676069	330.0	14.7	-68.0	0.0
2025-01-22 11:24:24.801425	329.8	14.7	-73.9	0.0
2025-01-22 11:24:25.928021	329.5	14.7	-72.4	0.0
2025-01-22 11:24:27.055638	329.3	14.8	-72.3	0.0
2025-01-22 11:24:28.183464	329.1	14.8	-68.3	0.0
2025-01-22 11:24:29.309175	328.9	14.8	-73.9	0.0
2025-01-22 11:24:30.436928	328.6	14.8	-71.8	0.0
2025-01-22 11:24:31.562516	328.4	14.8	-69.6	0.0
2025-01-22 11:24:32.688619	328.2	14.9	-71.8	0.0
2025-01-22 11:24:33.815305	327.9	14.9	-70.3	0.0
2025-01-22 11:24:34.941938	327.7	14.9	-73.4	0.0
2025-01-22 11:24:36.068783	327.5	14.9	-68.2	0.0
2025-01-22 11:24:37.194637	327.2	15.0	-71.6	0.0
2025-01-22 11:24:38.319376	327.0	15.0	-72.3	0.0
2025-01-22 11:24:39.447511	326.8	15.0	-67.6	0.0
2025-01-22 11:24:40.573862	326.5	15.0	-68.9	0.0
2025-01-22 11:24:41.698918	326.3	15.0	-69.0	0.0
2025-01-22 11:24:42.824440	326.1	15.0	-74.2	0.0
2025-01-22 11:24:43.951100	325.8	15.1	-69.6	0.0
2025-01-22 11:24:45.080048	325.6	15.1	-76.4	0.0
2025-01-22 11:24:46.205597	325.4	15.1	-74.9	0.0
2025-01-22 11:24:47.332325	325.1	15.1	-68.1	0.0
2025-01-22 11:24:48.458873	324.9	15.1	-73.5	0.0
2025-01-22 11:24:49.583744	324.7	15.1	-74.6	0.0
2025-01-22 11:24:50.708458	324.4	15.2	-74.6	0.0
2025-01-22 11:24:51.833507	324.2	15.2	-69.6	0.0
2025-01-22 11:24:52.964006	324.0	15.2	-72.4	0.0
2025-01-22 11:24:54.090492	323.7	15.2	-71.1	0.0
2025-01-22 11:24:55.217613	323.5	15.2	-68.4	0.0
2025-01-22 11:24:56.343863	323.3	15.2	-74.9	0.0
2025-01-22 11:24:57.470994	323.0	15.2	-74.3	0.0
2025-01-22 11:24:58.597483	322.8	15.2	-71.2	0.0
2025-01-22 11:24:59.723025	322.6	15.3	-66.4	0.0
2025-01-22 11:25:00.849053	322.3	15.3	-72.8	0.0
2025-01-22 11:25:01.974507	322.1	15.3	-70.6	0.0
2025-01-22 11:25:03.100029	321.8	15.3	-74.0	0.0
2025-01-22 11:25:04.226878	321.6	15.3	-69.6	0.0
2025-01-22 11:25:05.353067	321.4	15.3	-74.8	0.0
2025-01-22 11:25:06.478663	321.1	15.3	-73.4	0.0
2025-01-22 11:25:07.605578	320.9	15.3	-70.5	0.0
2025-01-22 11:25:08.730902	320.7	15.3	-74.9	0.0
2025-01-22 11:25:09.857293	320.4	15.3	-72.0	0.0
2025-01-22 11:25:10.983521	320.2	15.3	-73.3	0.0
2025-01-22 11:25:12.111490	319.9	15.3	-71.4	0.0
2025-01-22 11:25:13.238107	319.7	15.3	-73.5	0.0
2025-01-22 11:25:14.364665	319.5	15.3	-72.5	0.0
2025-01-22 11:25:15.489970	319.2	15.3	-69.5	0.0
2025-01-22 11:25:16.615317	319.0	15.3	-70.3	0.0
2025-01-22 11:25:17.740637	318.8	15.4	-74.1	0.0
2025-01-22 11:25:18.866755	318.5	15.4	-74.2	0.0
2025-01-22 11:25:19.992334	318.3	15.4	-70.5	0.0
2025-01-22 11:25:21.118780	318.0	15.4	-72.5	0.0
2025-01-22 11:25:22.244599	317.8	15.4	-72.4	0.0
2025-01-22 11:25:23.371471	317.6	15.4	-70.0	0.0
2025-01-22 11:25:24.497456	317.3	15.4	-72.3	0.0
2025-01-22 11:25:25.623487	317.1	15.4	-75.0	0.0
2025-01-22 11:25:26.749832	316.8	15.4	-73.2	0.0
2025-01-22 11:25:27.876447	316.6	15.3	-71.5	0.0
2025-01-22 11:25:29.003673	316.4	15.3	-74.2	0.0
2025-01-22 11:25:30.131011	316.1	15.3	-74.8	0.0
2025-01-22 11:25:31.258993	315.9	15.3	-72.0	0.0
2025-01-22 11:25:32.386934	315.7	15.3	-73.5	0.0
2025-01-22 11:25:33.513058	315.4	15.3	-72.7	0.0
2025-01-22 11:25:34.637386	315.2	15.3	-71.0	0.0
2025-01-22 11:25:35.763613	314.9	15.3	-70.8	0.0
2025-01-22 11:25:36.888899	314.7	15.3	-73.7	0.0
2025-01-22 11:25:38.014473	314.5	15.3	-73.4	0.0
2025-01-22 11:25:39.141550	314.2	15.3	-71.2	0.0
2025-01-22 11:25:40.267966	314.0	15.3	-71.2	0.0
2025-01-22 11:25:41.393621	313.7	15.3	-73.7	0.0
2025-01-22 11:25:42.520372	313.5	15.3	-75.2	0.0
2025-01-22 11:25:43.647019	313.3	15.3	-72.2	0.0
2025-01-22 11:25:44.772337	313.0	15.3	-76.0	0.0
2025-01-22 11:25:45.899650	312.8	15.2	-74.4	0.0
2025-01-22 11:25:47.028245	312.6	15.2	-74.0	0.0
2025-01-22 11:25:48.154709	312.3	15.2	-73.3	0.0
2025-01-22 11:25:49.278977	312.1	15.2	-74.8	0.0
2025-01-22 11:25:50.404637	311.9	15.2	-74.1	0.0
2025-01-22 11:25:51.531963	311.6	15.2	-72.2	0.0
2025-01-22 11:25:52.658669	311.4	15.2	-75.7	0.0
2025-01-22 11:25:53.784285	311.1	15.2	-75.2	0.0
2025-01-22 11:25:54.911439	310.9	15.2	-74.8	0.0
2025-01-22 11:25:56.038548	310.7	15.1	-71.9	0.0
2025-01-22 11:25:57.164028	310.4	15.1	-74.8	0.0
2025-01-22 11:25:58.290936	310.2	15.1	-74.1	0.0
2025-01-22 11:25:59.417670	310.0	15.1	-73.1	0.0
2025-01-22 11:26:00.545813	309.7	15.1	-75.5	0.0
2025-01-22 11:26:01.672080	309.5	15.1	-73.9	0.0
2025-01-22 11:26:02.798444	309.3	15.0	-75.6	0.0
2025-01-22 11:26:03.925057	309.0	15.0	-76.1	0.0
2025-01-22 11:26:05.050324	308.8	15.0	-76.5	0.0
2025-01-22 11:26:06.176564	308.6	15.0	-76.6	0.0
2025-01-22 11:26:07.302552	308.3	15.0	-73.9	0.0
2025-01-22 11:26:08.427979	308.1	14.9	-75.7	0.0
2025-01-22 11:26:09.554458	307.9	14.9	-75.3	0.0
2025-01-22 11:26:10.682568	307.6	14.9	-77.0	0.0
2025-01-22 11:26:11.809554	307.4	14.9	-74.7	0.0
2025-01-22 11:26:12.936573	307.2	14.9	-76.2	0.0
2025-01-22 11:26:14.061851	306.9	14.8	-76.3	0.0
2025-01-22 11:26:15.187348	306.7	14.8	-74.4	0.0
2025-01-22 11:26:16.315688	306.5	14.8	-74.9	0.0
2025-01-22 11:26:17.442235	306.3	14.8	-77.5	0.0
2025-01-22 11:26:18.570349	306.0	14.8	-77.4	0.0
2025-01-22 11:26:19.695544	305.8	14.7	-76.1	0.0
2025-01-22 11:26:20.822494	305.6	14.7	-76.5	0.0
2025-01-22 11:26:21.948386	305.3	14.7	-76.3	0.0
2025-01-22 11:26:23.073441	305.1	14.7	-76.2	0.0
2025-01-22 11:26:24.199554	304.9	14.6	-74.1	0.0
2025-01-22 11:26:25.326843	304.7	14.6	-73.9	0.0
2025-01-22 11:26:26.452487	304.4	14.6	-75.6	0.0
2025-01-22 11:26:27.581745	304.2	14.5	-74.7	0.0
2025-01-22 11:26:28.706169	304.0	14.5	-73.5	0.0
2025-01-22 11:26:29.832541	303.8	14.5	-74.5	0.0
2025-01-22 11:26:30.958628	303.5	14.5	-75.1	0.0
2025-01-22 11:26:32.085085	303.3	14.4	-74.3	0.0
2025-01-22 11:26:33.214346	303.1	14.4	-76.4	0.0
2025-01-22 11:26:34.339360	302.9	14.4	-75.8	0.0
2025-01-22 11:26:35.467536	302.6	14.3	-75.9	0.0
2025-01-22 11:26:36.595929	302.4	14.3	-74.3	0.0
2025-01-22 11:26:37.721336	302.2	14.3	-75.3	0.0
2025-01-22 11:26:38.849736	302.0	14.3	-76.0	0.0
2025-01-22 11:26:39.976340	301.7	14.2	-75.4	0.0
2025-01-22 11:26:41.104743	301.5	14.2	-76.3	0.0
2025-01-22 11:26:42.232095	301.3	14.2	-75.1	0.0
2025-01-22 11:26:43.359681	301.1	14.1	-76.6	0.0
2025-01-22 11:26:44.487606	300.9	14.1	-76.3	0.0
2025-01-22 11:26:45.615629	300.6	14.1	-76.4	0.0
2025-01-22 11:26:46.742780	300.4	14.0	-74.8	0.0
2025-01-22 11:26:47.869160	300.2	14.0	-76.4	0.0
2025-01-22 11:26:48.995643	300.0	14.0	-75.8	0.0
2025-01-22 11:26:50.120975	299.8	13.9	-76.7	0.0
2025-01-22 11:26:51.249367	299.5	13.9	-76.4	0.0
2025-01-22 11:26:52.376993	299.3	13.9	-76.3	0.0
2025-01-22 11:26:53.504224	299.1	13.8	-76.3	0.0
2025-01-22 11:26:54.631177	298.9	13.8	-75.8	0.0
2025-01-22 11:26:55.757341	298.7	13.7	-76.0	0.0
2025-01-22 11:26:56.882993	298.5	13.7	-74.2	0.0
2025-01-22 11:26:58.010848	298.3	13.7	-75.6	0.0
2025-01-22 11:26:59.135354	298.0	13.6	-75.0	0.0
2025-01-22 11:27:00.261168	297.8	13.6	-76.2	0.0
2025-01-22 11:27:01.387113	297.6	13.6	-75.8	0.0
2025-01-22 11:27:02.515889	297.4	13.5	-76.3	0.0
2025-01-22 11:27:03.643052	297.2	13.5	-75.5	0.0
2025-01-22 11:27:04.768062	297.0	13.4	-75.4	0.0
2025-01-22 11:27:05.895482	296.8	13.4	-75.9	0.0
2025-01-22 11:27:07.021140	296.6	13.4	-76.0	0.0
2025-01-22 11:27:08.147884	296.4	13.3	-75.0	0.0
2025-01-22 11:27:09.275112	296.2	13.3	-73.9	0.0
2025-01-22 11:27:10.402669	295.9	13.2	-74.9	0.0
2025-01-22 11:27:11.529873	295.7	13.2	-75.9	0.0
2025-01-22 11:27:12.656094	295.5	13.2	-75.3	0.0
2025-01-22 11:27:13.782298	295.3	13.1	-74.6	0.0
2025-01-22 11:27:14.907040	295.1	13.1	-76.2	0.0
2025-01-22 11:27:16.033466	294.9	13.0	-75.8	0.0
2025-01-22 11:27:17.160919	294.7	13.0	-75.6	0.0
2025-01-22 11:27:18.287343	294.5	12.9	-75.4	0.0
2025-01-22 11:27:19.414132	294.3	12.9	-76.4	0.0
2025-01-22 11:27:20.539918	294.1	12.9	-76.3	0.0
2025-01-22 11:27:21.665351	293.9	12.8	-76.7	0.0
2025-01-22 11:27:22.791525	293.7	12.8	-76.7	0.0
2025-01-22 11:27:23.917446	293.5	12.7	-76.2	0.0
2025-01-22 11:27:25.043334	293.3	12.7	-75.0	0.0
2025-01-22 11:27:26.170114	293.1	12.6	-76.7	0.0
2025-01-22 11:27:27.296740	292.9	12.6	-77.3	0.0
2025-01-22 11:27:28.423916	292.7	12.5	-77.4	0.0
2025-01-22 11:27:29.550194	292.5	12.5	-76.3	0.0
2025-01-22 11:27:30.678272	292.3	12.5	-76.7	0.0
2025-01-22 11:27:31.807233	292.1	12.4	-75.2	0.0
2025-01-22 11:27:32.931105	291.9	12.4	-76.0	0.0
2025-01-22 11:27:34.057456	291.7	12.3	-77.1	0.0
2025-01-22 11:27:35.183205	291.5	12.3	-76.4	0.0
2025-01-22 11:27:36.309426	291.3	12.2	-76.8	0.0
2025-01-22 11:27:37.438045	291.1	12.2	-76.5	0.0
2025-01-22 11:27:38.566521	290.9	12.1	-76.1	0.0
2025-01-22 11:27:39.692053	290.8	12.1	-76.1	0.0
2025-01-22 11:27:40.819439	290.6	12.0	-77.0	0.0
2025-01-22 11:27:41.946994	290.4	12.0	-75.7	0.0
2025-01-22 11:27:43.072053	290.2	11.9	-77.4	0.0
2025-01-22 11:27:44.199546	290.0	11.9	-77.0	0.0
2025-01-22 11:27:45.324913	289.8	11.8	-77.0	0.0
2025-01-22 11:27:46.451176	289.6	11.8	-76.9	0.0
2025-01-22 11:27:47.578755	289.4	11.7	-76.1	0.0
2025-01-22 11:27:48.705118	289.2	11.7	-76.9	0.0
2025-01-22 11:27:49.831805	289.1	11.6	-76.5	0.0
2025-01-22 11:27:50.958365	288.9	11.6	-76.5	0.0
2025-01-22 11:27:52.083752	288.7	11.5	-76.8	0.0
2025-01-22 11:27:53.210554	288.5	11.5	-76.7	0.0
2025-01-22 11:27:54.337347	288.3	11.4	-75.9	0.0
2025-01-22 11:27:55.464233	288.1	11.4	-76.5	0.0
2025-01-22 11:27:56.590763	287.9	11.3	-75.7	0.0
2025-01-22 11:27:57.716984	287.8	11.3	-76.2	0.0
2025-01-22 11:27:58.843541	287.6	11.2	-75.0	0.0
2025-01-22 11:27:59.970592	287.4	11.2	-75.9	0.0
2025-01-22 11:28:01.098792	287.2	11.1	-76.3	0.0
2025-01-22 11:28:02.222917	287.0	11.1	-75.8	0.0
2025-01-22 11:28:03.347243	286.9	11.0	-76.0	0.0
2025-01-22 11:28:04.472530	286.7	11.0	-77.6	0.0
2025-01-22 11:28:05.599937	286.5	10.9	-78.6	0.0
2025-01-22 11:28:06.727544	286.3	10.9	-79.3	0.0
2025-01-22 11:28:07.853679	286.2	10.8	-79.5	0.0
2025-01-22 11:28:08.983002	286.0	10.8	-79.8	0.0
2025-01-22 11:28:10.110075	285.8	10.7	-80.0	0.0
2025-01-22 11:28:11.237272	285.6	10.7	-80.2	0.0
2025-01-22 11:28:12.364541	285.5	10.6	-80.0	0.0
2025-01-22 11:28:13.489840	285.3	10.6	-80.7	0.0
2025-01-22 11:28:14.618195	285.1	10.5	-81.2	0.0
2025-01-22 11:28:15.746604	284.9	10.5	-81.2	0.0
2025-01-22 11:28:16.875247	284.8	10.4	-79.8	0.0
2025-01-22 11:28:18.003025	284.6	10.3	-80.3	0.0
2025-01-22 11:28:19.129928	284.4	10.3	-79.9	0.0
2025-01-22 11:28:20.257281	284.3	10.2	-81.1	0.0
2025-01-22 11:28:21.381993	284.1	10.2	-80.8	0.0
2025-01-22 11:28:22.508086	283.9	10.1	-80.9	0.0
2025-01-22 11:28:23.637721	283.8	10.1	-80.6	0.0
2025-01-22 11:28:24.764362	283.6	10.0	-81.0	0.0
#Closed at: 2025-01-22 11:22:14.590130