passes_logs/2025/01/22/planumMaritime01/planumMaritime01__20250122_172006_METOP-B_rec.log

#Pass ID: 20250122_172006_METOP-B
#Satellite: METOP-B
#Configuration: METOP-B
#Start time: 2025-01-22 17:20:11.239161

#LorettStation: 1.0.0 05.05.2024
#Station: planumMaritime01
#Location: 37.49445 lon 55.92918 lat
#TLE: 1 38771U 12049A   25022.22192915  .00000342  00000+0  17605-3 0  9994
#TLE: 2 38771  98.6000  80.1937 0001632  73.2603 286.8754 14.21415579640663

#Time	Az	El	Level	SNR
2025-01-22 17:20:13.401398	145.6	10.2	-74.7	0.0
2025-01-22 17:20:15.652957	145.5	10.4	-75.6	0.0
2025-01-22 17:20:17.908655	145.5	10.6	-76.2	0.0
2025-01-22 17:20:20.160887	145.4	10.8	-74.4	0.0
2025-01-22 17:20:22.412973	145.3	11.0	-74.7	0.0
2025-01-22 17:20:24.667740	145.3	11.2	-75.0	0.0
2025-01-22 17:20:26.919554	145.2	11.4	-75.3	0.0
2025-01-22 17:20:29.173494	145.1	11.6	-74.5	0.0
2025-01-22 17:20:31.429313	145.0	11.8	-75.0	0.0
2025-01-22 17:20:33.681279	144.9	12.0	-75.6	0.0
2025-01-22 17:20:35.930939	144.9	12.2	-75.5	0.0
2025-01-22 17:20:38.180703	144.8	12.4	-75.7	0.0
2025-01-22 17:20:40.433654	144.7	12.7	-74.6	0.0
2025-01-22 17:20:42.687024	144.6	12.9	-76.3	0.0
2025-01-22 17:20:44.940994	144.5	13.1	-76.3	0.0
2025-01-22 17:20:47.196954	144.4	13.3	-75.6	0.0
2025-01-22 17:20:49.449542	144.3	13.5	-75.2	0.0
2025-01-22 17:20:51.703498	144.2	13.8	-76.2	0.0
2025-01-22 17:20:53.955375	144.2	14.0	-76.8	0.0
2025-01-22 17:20:56.207630	144.1	14.2	-76.5	0.0
2025-01-22 17:20:58.459957	144.0	14.4	-76.8	0.0
2025-01-22 17:21:00.713695	143.9	14.7	-75.8	0.0
2025-01-22 17:21:02.966602	143.8	14.9	-75.7	0.0
2025-01-22 17:21:05.220322	143.7	15.2	-77.0	0.0
2025-01-22 17:21:07.475136	143.6	15.4	-76.4	0.0
2025-01-22 17:21:09.728165	143.5	15.6	-77.8	0.0
2025-01-22 17:21:11.980940	143.4	15.9	-76.2	0.0
2025-01-22 17:21:14.235102	143.2	16.1	-77.7	0.0
2025-01-22 17:21:16.488213	143.1	16.4	-76.8	0.0
2025-01-22 17:21:18.743470	143.0	16.6	-76.2	0.0
2025-01-22 17:21:20.995489	142.9	16.9	-77.0	0.0
2025-01-22 17:21:23.247798	142.8	17.1	-76.0	0.0
2025-01-22 17:21:25.500684	142.7	17.4	-76.2	0.0
2025-01-22 17:21:27.751407	142.6	17.7	-76.8	0.0
2025-01-22 17:21:30.005040	142.4	17.9	-76.3	0.0
2025-01-22 17:21:32.258091	142.3	18.2	-76.4	0.0
2025-01-22 17:21:34.512839	142.2	18.5	-74.9	0.0
2025-01-22 17:21:36.764278	142.0	18.7	-75.2	0.0
2025-01-22 17:21:39.016339	141.9	19.0	-74.5	0.0
2025-01-22 17:21:41.269025	141.8	19.3	-75.0	0.0
2025-01-22 17:21:43.523963	141.6	19.6	-75.6	0.0
2025-01-22 17:21:45.776440	141.5	19.9	-75.5	0.0
2025-01-22 17:21:48.029100	141.4	20.2	-74.9	0.0
2025-01-22 17:21:50.282142	141.2	20.4	-75.0	0.0
2025-01-22 17:21:52.535655	141.1	20.7	-75.2	0.0
2025-01-22 17:21:54.788601	140.9	21.0	-74.8	0.0
2025-01-22 17:21:57.042510	140.8	21.3	-76.1	0.0
2025-01-22 17:21:59.295634	140.6	21.6	-74.2	0.0
2025-01-22 17:22:01.547702	140.4	22.0	-75.1	0.0
2025-01-22 17:22:03.802837	140.3	22.3	-74.9	0.0
2025-01-22 17:22:06.056492	140.1	22.6	-75.1	0.0
2025-01-22 17:22:08.307879	139.9	22.9	-74.8	0.0
2025-01-22 17:22:10.562694	139.8	23.2	-74.9	0.0
2025-01-22 17:22:12.819229	139.6	23.6	-73.9	0.0
2025-01-22 17:22:15.073849	139.4	23.9	-74.5	0.0
2025-01-22 17:22:17.327058	139.2	24.2	-75.0	0.0
2025-01-22 17:22:19.581877	139.0	24.6	-76.1	0.0
2025-01-22 17:22:21.833439	138.8	24.9	-75.6	0.0
2025-01-22 17:22:24.089225	138.6	25.2	-75.6	0.0
2025-01-22 17:22:26.342772	138.4	25.6	-75.6	0.0
2025-01-22 17:22:28.596762	138.2	26.0	-75.2	0.0
2025-01-22 17:22:30.848026	138.0	26.3	-75.5	0.0
2025-01-22 17:22:33.105391	137.8	26.7	-76.5	0.0
2025-01-22 17:22:35.355608	137.6	27.0	-76.1	0.0
2025-01-22 17:22:37.609202	137.3	27.4	-76.9	0.0
2025-01-22 17:22:39.864465	137.1	27.8	-76.6	0.0
2025-01-22 17:22:42.114697	136.9	28.2	-76.4	0.0
2025-01-22 17:22:44.369707	136.6	28.6	-77.1	0.0
2025-01-22 17:22:46.625006	136.4	29.0	-75.2	0.0
2025-01-22 17:22:48.877513	136.1	29.4	-77.3	0.0
2025-01-22 17:22:51.133324	135.8	29.8	-76.0	0.0
2025-01-22 17:22:53.388349	135.6	30.2	-76.2	0.0
2025-01-22 17:22:55.644626	135.3	30.6	-75.2	0.0
2025-01-22 17:22:57.895016	135.0	31.0	-75.5	0.0
2025-01-22 17:23:00.149723	134.7	31.4	-75.7	0.0
2025-01-22 17:23:02.402608	134.4	31.8	-74.1	0.0
2025-01-22 17:23:04.656524	134.1	32.3	-76.4	0.0
2025-01-22 17:23:06.909130	133.8	32.7	-73.8	0.0
2025-01-22 17:23:09.164025	133.4	33.2	-74.6	0.0
2025-01-22 17:23:11.419816	133.1	33.6	-72.1	0.0
2025-01-22 17:23:13.670780	132.7	34.1	-73.0	0.0
2025-01-22 17:23:15.923410	132.4	34.5	-71.6	0.0
2025-01-22 17:23:18.177730	132.0	35.0	-71.0	0.0
2025-01-22 17:23:20.430935	131.6	35.5	-71.2	0.0
2025-01-22 17:23:22.683165	131.2	35.9	-70.9	0.0
2025-01-22 17:23:24.939206	130.8	36.4	-69.9	0.0
2025-01-22 17:23:27.191209	130.4	36.9	-70.1	0.0
2025-01-22 17:23:29.444410	130.0	37.4	-69.1	0.0
2025-01-22 17:23:31.697888	129.6	37.9	-71.3	0.0
2025-01-22 17:23:33.950601	129.1	38.4	-71.5	0.0
2025-01-22 17:23:36.202762	128.6	38.9	-70.2	0.0
2025-01-22 17:23:38.456166	128.1	39.4	-71.1	0.0
2025-01-22 17:23:40.708804	127.6	40.0	-67.3	0.0
2025-01-22 17:23:42.963927	127.1	40.5	-68.0	0.0
2025-01-22 17:23:45.216510	126.6	41.0	-68.3	0.0
2025-01-22 17:23:47.467735	126.0	41.6	-68.2	0.0
2025-01-22 17:23:49.719387	125.5	42.1	-67.4	0.0
2025-01-22 17:23:51.976324	124.9	42.6	-68.2	0.0
2025-01-22 17:23:54.230166	124.2	43.2	-66.9	0.0
2025-01-22 17:23:56.482828	123.6	43.8	-67.6	0.0
2025-01-22 17:23:58.735761	123.0	44.3	-68.9	0.0
2025-01-22 17:24:00.988426	122.3	44.9	-67.2	0.0
2025-01-22 17:24:03.242390	121.6	45.4	-68.2	0.0
2025-01-22 17:24:05.496349	120.8	46.0	-69.4	0.0
2025-01-22 17:24:07.752862	120.1	46.6	-70.8	0.0
2025-01-22 17:24:10.007418	119.3	47.2	-68.1	0.0
2025-01-22 17:24:12.261894	118.5	47.7	-69.2	0.0
2025-01-22 17:24:14.517601	117.6	48.3	-69.8	0.0
2025-01-22 17:24:16.771930	116.7	48.9	-70.5	0.0
2025-01-22 17:24:19.027570	115.8	49.5	-74.2	0.0
2025-01-22 17:24:21.282972	114.9	50.0	-71.8	0.0
2025-01-22 17:24:23.537162	113.9	50.6	-73.3	0.0
2025-01-22 17:24:25.791575	112.9	51.2	-71.9	0.0
2025-01-22 17:24:28.047533	111.8	51.7	-73.3	0.0
2025-01-22 17:24:30.301578	110.7	52.3	-73.2	0.0
2025-01-22 17:24:32.553594	109.5	52.9	-76.4	0.0
2025-01-22 17:24:34.807418	108.3	53.4	-74.1	0.0
2025-01-22 17:24:37.063127	107.1	54.0	-75.3	0.0
2025-01-22 17:24:39.314762	105.8	54.5	-76.3	0.0
2025-01-22 17:24:41.568331	104.5	55.0	-74.3	0.0
2025-01-22 17:24:43.823038	103.1	55.6	-75.5	0.0
2025-01-22 17:24:46.078211	101.6	56.1	-75.8	0.0
2025-01-22 17:24:48.330259	100.1	56.5	-77.6	0.0
2025-01-22 17:24:50.585046	98.6	57.0	-76.3	0.0
2025-01-22 17:24:52.837789	97.0	57.5	-77.5	0.0
2025-01-22 17:24:55.090536	95.4	57.9	-75.2	0.0
2025-01-22 17:24:57.344924	93.6	58.3	-77.0	0.0
2025-01-22 17:24:59.599036	91.9	58.7	-76.9	0.0
2025-01-22 17:25:01.850953	90.1	59.1	-75.8	0.0
2025-01-22 17:25:04.102427	88.2	59.5	-76.7	0.0
2025-01-22 17:25:06.354676	86.3	59.8	-77.4	0.0
2025-01-22 17:25:08.609194	84.3	60.1	-78.4	0.0
2025-01-22 17:25:10.861157	82.3	60.3	-75.4	0.0
2025-01-22 17:25:13.114710	80.3	60.6	-76.2	0.0
2025-01-22 17:25:15.365844	78.2	60.8	-76.8	0.0
2025-01-22 17:25:17.619309	76.1	60.9	-77.2	0.0
2025-01-22 17:25:19.873433	74.0	61.1	-76.5	0.0
2025-01-22 17:25:22.125732	71.8	61.2	-76.7	0.0
2025-01-22 17:25:24.377440	69.7	61.2	-76.5	0.0
2025-01-22 17:25:26.630696	67.5	61.3	-76.3	0.0
2025-01-22 17:25:28.883316	65.3	61.3	-75.9	0.0
2025-01-22 17:25:31.136972	63.2	61.2	-76.0	0.0
2025-01-22 17:25:33.389773	61.0	61.1	-75.6	0.0
2025-01-22 17:25:35.644078	58.8	61.0	-76.0	0.3
2025-01-22 17:25:37.896565	56.7	60.9	-76.2	0.0
2025-01-22 17:25:40.150030	54.6	60.7	-76.0	0.0
2025-01-22 17:25:42.404704	52.6	60.5	-76.6	0.0
2025-01-22 17:25:44.660544	50.6	60.2	-76.0	0.0
2025-01-22 17:25:46.915659	48.6	60.0	-76.4	0.0
2025-01-22 17:25:49.166727	46.6	59.6	-76.9	0.0
2025-01-22 17:25:51.420684	44.7	59.3	-76.0	0.0
2025-01-22 17:25:53.674056	42.9	58.9	-75.8	0.0
2025-01-22 17:25:55.928392	41.1	58.6	-76.9	0.0
2025-01-22 17:25:58.182526	39.4	58.2	-77.1	0.0
2025-01-22 17:26:00.435760	37.7	57.7	-76.7	0.0
2025-01-22 17:26:02.689483	36.1	57.3	-75.9	0.0
2025-01-22 17:26:04.945422	34.5	56.8	-75.3	0.0
2025-01-22 17:26:07.198177	33.0	56.3	-75.8	0.0
2025-01-22 17:26:09.455129	31.5	55.8	-74.7	0.0
2025-01-22 17:26:11.709810	30.1	55.3	-76.1	0.0
2025-01-22 17:26:13.963825	28.7	54.8	-75.8	0.0
2025-01-22 17:26:16.215770	27.4	54.3	-76.3	0.0
2025-01-22 17:26:18.468607	26.2	53.7	-76.1	0.0
2025-01-22 17:26:20.722614	24.9	53.2	-77.0	0.0
2025-01-22 17:26:22.977044	23.8	52.6	-76.0	0.0
2025-01-22 17:26:25.227428	22.6	52.1	-76.6	0.0
2025-01-22 17:26:27.480621	21.6	51.5	-76.2	0.0
2025-01-22 17:26:29.733274	20.5	51.0	-74.4	0.0
2025-01-22 17:26:31.990250	19.5	50.4	-74.1	0.0
2025-01-22 17:26:34.244138	18.5	49.8	-74.8	0.0
2025-01-22 17:26:36.497392	17.6	49.2	-74.8	0.0
2025-01-22 17:26:38.751808	16.7	48.7	-74.9	0.0
2025-01-22 17:26:41.007195	15.8	48.1	-74.7	0.0
2025-01-22 17:26:43.259331	15.0	47.5	-74.8	0.0
2025-01-22 17:26:45.511473	14.2	46.9	-71.7	0.0
2025-01-22 17:26:47.765602	13.4	46.4	-74.5	0.0
2025-01-22 17:26:50.018790	12.7	45.8	-71.3	0.0
2025-01-22 17:26:52.275621	12.0	45.2	-75.4	0.0
2025-01-22 17:26:54.528583	11.3	44.7	-73.1	0.0
2025-01-22 17:26:56.783334	10.6	44.1	-73.9	0.0
2025-01-22 17:26:59.037820	10.0	43.6	-73.6	0.0
2025-01-22 17:27:01.294543	9.3	43.0	-75.0	0.0
2025-01-22 17:27:03.549740	8.7	42.5	-74.3	0.0
2025-01-22 17:27:05.804990	8.1	41.9	-73.1	0.0
2025-01-22 17:27:08.057726	7.6	41.4	-72.2	0.0
2025-01-22 17:27:10.312163	7.0	40.9	-69.8	0.0
2025-01-22 17:27:12.565449	6.5	40.3	-72.8	0.0
2025-01-22 17:27:14.819607	6.0	39.8	-73.1	0.0
2025-01-22 17:27:17.072035	5.5	39.3	-71.0	0.0
2025-01-22 17:27:19.327350	5.0	38.8	-71.9	0.0
2025-01-22 17:27:21.580972	4.6	38.3	-71.1	0.0
2025-01-22 17:27:23.834478	4.1	37.8	-68.0	0.0
2025-01-22 17:27:26.088348	3.7	37.3	-71.5	0.0
2025-01-22 17:27:28.344634	3.3	36.8	-66.8	0.0
2025-01-22 17:27:30.596806	2.9	36.3	-69.5	0.0
2025-01-22 17:27:32.849560	2.5	35.8	-67.7	0.0
2025-01-22 17:27:35.100888	2.1	35.3	-67.5	0.0
2025-01-22 17:27:37.355132	1.7	34.9	-67.5	0.0
2025-01-22 17:27:39.609026	1.3	34.4	-65.5	0.0
2025-01-22 17:27:41.862110	1.0	34.0	-67.9	0.0
2025-01-22 17:27:44.116656	0.6	33.5	-67.3	0.0
2025-01-22 17:27:46.369779	0.3	33.1	-68.4	0.0
2025-01-22 17:27:48.623449	360.0	32.6	-67.1	0.0
2025-01-22 17:27:50.879265	359.7	32.2	-70.4	0.0
2025-01-22 17:27:53.132598	359.4	31.8	-68.8	0.0
2025-01-22 17:27:55.388417	359.1	31.3	-67.6	0.0
2025-01-22 17:27:57.642793	358.8	30.9	-70.2	0.0
2025-01-22 17:27:59.896560	358.5	30.5	-66.6	0.0
2025-01-22 17:28:02.150152	358.2	30.1	-69.5	0.0
2025-01-22 17:28:04.403245	357.9	29.7	-69.2	0.0
2025-01-22 17:28:06.657585	357.7	29.3	-64.9	0.0
2025-01-22 17:28:08.910299	357.4	28.9	-66.0	0.0
2025-01-22 17:28:11.162982	357.2	28.5	-63.9	0.0
2025-01-22 17:28:13.416184	356.9	28.1	-65.5	0.0
2025-01-22 17:28:15.672830	356.7	27.7	-64.4	0.0
2025-01-22 17:28:17.925441	356.5	27.4	-66.0	0.0
2025-01-22 17:28:20.179162	356.2	27.0	-73.6	0.0
2025-01-22 17:28:22.435558	356.0	26.6	-70.6	0.0
2025-01-22 17:28:24.689768	355.8	26.3	-69.2	0.0
2025-01-22 17:28:26.944697	355.6	25.9	-71.6	0.0
2025-01-22 17:28:29.197546	355.4	25.6	-71.1	0.0
2025-01-22 17:28:31.453667	355.2	25.2	-70.7	0.0
2025-01-22 17:28:33.707218	355.0	24.9	-67.3	0.0
2025-01-22 17:28:35.959835	354.8	24.5	-69.4	0.0
2025-01-22 17:28:38.213410	354.6	24.2	-70.6	0.0
2025-01-22 17:28:40.466944	354.4	23.9	-69.8	0.0
2025-01-22 17:28:42.722933	354.3	23.5	-70.2	0.0
2025-01-22 17:28:44.976995	354.1	23.2	-68.2	0.0
2025-01-22 17:28:47.231868	353.9	22.9	-70.6	0.0
2025-01-22 17:28:49.485523	353.7	22.6	-69.9	0.0
2025-01-22 17:28:51.738388	353.6	22.3	-71.1	0.0
2025-01-22 17:28:53.991589	353.4	22.0	-70.5	0.0
2025-01-22 17:28:56.245217	353.3	21.6	-67.5	0.0
2025-01-22 17:28:58.496550	353.1	21.3	-69.7	0.0
2025-01-22 17:29:00.750871	352.9	21.0	-66.8	0.0
2025-01-22 17:29:03.006056	352.8	20.7	-69.2	0.0
2025-01-22 17:29:05.261087	352.7	20.5	-68.4	0.0
2025-01-22 17:29:07.514215	352.5	20.2	-65.7	0.0
2025-01-22 17:29:09.769742	352.4	19.9	-69.9	0.0
2025-01-22 17:29:12.022239	352.2	19.6	-64.2	0.0
2025-01-22 17:29:14.275697	352.1	19.3	-63.6	0.0
2025-01-22 17:29:16.527069	352.0	19.0	-68.4	0.0
2025-01-22 17:29:18.780140	351.8	18.8	-65.8	0.0
2025-01-22 17:29:21.032998	351.7	18.5	-70.7	0.0
2025-01-22 17:29:23.285620	351.6	18.2	-70.0	0.0
2025-01-22 17:29:25.542388	351.5	18.0	-71.9	0.0
2025-01-22 17:29:27.795085	351.3	17.7	-71.9	0.0
2025-01-22 17:29:30.048858	351.2	17.4	-68.9	0.0
2025-01-22 17:29:32.299979	351.1	17.2	-69.6	0.0
2025-01-22 17:29:34.553045	351.0	16.9	-70.7	0.0
2025-01-22 17:29:36.805139	350.9	16.7	-69.8	0.0
2025-01-22 17:29:39.057260	350.8	16.4	-68.5	0.0
2025-01-22 17:29:41.311744	350.7	16.2	-71.3	0.0
2025-01-22 17:29:43.564543	350.6	15.9	-63.0	0.0
2025-01-22 17:29:45.817845	350.5	15.7	-68.3	0.0
2025-01-22 17:29:48.069516	350.4	15.4	-64.1	0.0
2025-01-22 17:29:50.321474	350.3	15.2	-64.3	0.0
2025-01-22 17:29:52.573328	350.2	15.0	-66.0	0.0
2025-01-22 17:29:54.829727	350.1	14.7	-63.7	0.0
2025-01-22 17:29:57.081736	350.0	14.5	-69.4	0.0
2025-01-22 17:29:59.335929	349.9	14.3	-70.6	0.0
2025-01-22 17:30:01.590131	349.8	14.0	-70.0	0.0
2025-01-22 17:30:03.844957	349.7	13.8	-70.9	0.0
2025-01-22 17:30:06.099177	349.6	13.6	-70.6	0.0
2025-01-22 17:30:08.351998	349.5	13.4	-68.6	0.0
2025-01-22 17:30:10.606812	349.4	13.2	-70.2	0.0
2025-01-22 17:30:12.858281	349.3	12.9	-71.4	0.0
2025-01-22 17:30:15.112327	349.3	12.7	-66.8	0.0
2025-01-22 17:30:17.365286	349.2	12.5	-65.2	0.0
2025-01-22 17:30:19.617886	349.1	12.3	-70.7	0.0
2025-01-22 17:30:21.871502	349.0	12.1	-65.9	0.0
2025-01-22 17:30:24.124463	348.9	11.9	-72.0	0.0
2025-01-22 17:30:26.376240	348.9	11.7	-67.6	0.0
2025-01-22 17:30:28.629543	348.8	11.5	-68.7	0.0
2025-01-22 17:30:30.881640	348.7	11.3	-71.0	0.0
2025-01-22 17:30:33.132605	348.6	11.1	-68.9	0.0
2025-01-22 17:30:35.383275	348.6	10.9	-72.3	0.0
2025-01-22 17:30:37.637099	348.5	10.7	-78.2	0.0
2025-01-22 17:30:39.890741	348.4	10.5	-78.9	0.0
2025-01-22 17:30:42.145848	348.4	10.3	-79.0	0.0
2025-01-22 17:30:44.395748	348.3	10.1	-80.4	0.0
#Closed at: 2025-01-22 17:20:06.241879