passes_logs/2025/01/22/planumMaritime01/planumMaritime01__20250122_163708_METOP-C_rec.log

#Pass ID: 20250122_163708_METOP-C
#Satellite: METOP-C
#Configuration: METOP-C
#Start time: 2025-01-22 16:37:13.262339

#LorettStation: 1.0.0 05.05.2024
#Station: planumMaritime01
#Location: 37.49445 lon 55.92918 lat
#TLE: 1 43689U 18087A   25022.19067051  .00000353  00000+0  18145-3 0  9996
#TLE: 2 43689  98.6954  84.5753 0001740 150.9742 209.1532 14.21486407322236

#Time	Az	El	Level	SNR
2025-01-22 16:37:15.421301	108.7	10.2	-67.2	0.0
2025-01-22 16:37:17.675056	108.4	10.3	-67.1	0.0
2025-01-22 16:37:19.925247	108.2	10.5	-70.0	0.0
2025-01-22 16:37:22.175059	108.0	10.6	-70.1	0.0
2025-01-22 16:37:24.428612	107.7	10.8	-70.4	0.0
2025-01-22 16:37:26.679290	107.5	11.0	-70.6	0.0
2025-01-22 16:37:28.929988	107.2	11.1	-67.8	0.0
2025-01-22 16:37:31.182339	107.0	11.3	-67.6	0.0
2025-01-22 16:37:33.437509	106.7	11.5	-67.9	0.0
2025-01-22 16:37:35.688901	106.5	11.6	-67.9	0.0
2025-01-22 16:37:37.941953	106.2	11.8	-68.4	0.0
2025-01-22 16:37:40.192896	105.9	12.0	-70.6	0.0
2025-01-22 16:37:42.446111	105.7	12.2	-70.3	0.0
2025-01-22 16:37:44.697791	105.4	12.3	-69.9	0.0
2025-01-22 16:37:46.949511	105.1	12.5	-71.9	0.0
2025-01-22 16:37:49.201331	104.8	12.7	-69.5	0.0
2025-01-22 16:37:51.454313	104.6	12.8	-70.4	0.0
2025-01-22 16:37:53.706871	104.3	13.0	-70.4	0.0
2025-01-22 16:37:55.958973	104.0	13.2	-67.9	0.0
2025-01-22 16:37:58.209551	103.7	13.4	-69.7	0.0
2025-01-22 16:38:00.459927	103.4	13.5	-69.9	0.0
2025-01-22 16:38:02.713016	103.1	13.7	-69.0	0.0
2025-01-22 16:38:04.965931	102.8	13.9	-70.9	0.0
2025-01-22 16:38:07.216712	102.5	14.0	-66.7	0.0
2025-01-22 16:38:09.467749	102.2	14.2	-69.8	0.0
2025-01-22 16:38:11.719913	101.9	14.4	-67.3	0.0
2025-01-22 16:38:13.971798	101.6	14.6	-69.0	0.0
2025-01-22 16:38:16.223447	101.2	14.8	-69.5	0.0
2025-01-22 16:38:18.476167	100.9	14.9	-64.9	0.0
2025-01-22 16:38:20.727339	100.6	15.1	-69.1	0.0
2025-01-22 16:38:22.982286	100.3	15.3	-66.9	0.0
2025-01-22 16:38:25.234170	99.9	15.5	-70.2	0.0
2025-01-22 16:38:27.487496	99.6	15.6	-68.5	0.0
2025-01-22 16:38:29.740201	99.2	15.8	-66.6	0.0
2025-01-22 16:38:31.992253	98.9	16.0	-70.5	0.0
2025-01-22 16:38:34.244322	98.5	16.2	-68.3	0.0
2025-01-22 16:38:36.495903	98.2	16.4	-68.4	0.0
2025-01-22 16:38:38.750842	97.8	16.5	-70.3	0.0
2025-01-22 16:38:41.001911	97.5	16.7	-68.7	0.0
2025-01-22 16:38:43.254096	97.1	16.9	-67.8	0.0
2025-01-22 16:38:45.502932	96.7	17.1	-70.9	0.0
2025-01-22 16:38:47.754764	96.3	17.3	-68.9	0.0
2025-01-22 16:38:50.004983	96.0	17.4	-71.2	0.0
2025-01-22 16:38:52.256163	95.6	17.6	-65.5	0.0
2025-01-22 16:38:54.509344	95.2	17.8	-68.3	0.0
2025-01-22 16:38:56.763481	94.8	18.0	-69.2	0.0
2025-01-22 16:38:59.014637	94.4	18.2	-65.6	0.0
2025-01-22 16:39:01.268211	94.0	18.3	-67.7	0.0
2025-01-22 16:39:03.517568	93.6	18.5	-66.0	0.0
2025-01-22 16:39:05.771351	93.1	18.7	-70.0	0.0
2025-01-22 16:39:08.024749	92.7	18.9	-66.4	0.0
2025-01-22 16:39:10.277121	92.3	19.1	-64.8	0.0
2025-01-22 16:39:12.527793	91.9	19.2	-68.8	0.0
2025-01-22 16:39:14.778820	91.4	19.4	-68.0	0.0
2025-01-22 16:39:17.031712	91.0	19.6	-65.9	0.0
2025-01-22 16:39:19.285723	90.5	19.8	-65.2	0.0
2025-01-22 16:39:21.537817	90.1	19.9	-69.5	0.0
2025-01-22 16:39:23.790379	89.6	20.1	-69.9	0.0
2025-01-22 16:39:26.042947	89.1	20.3	-69.4	0.0
2025-01-22 16:39:28.296273	88.7	20.5	-70.4	0.0
2025-01-22 16:39:30.547285	88.2	20.6	-69.8	0.0
2025-01-22 16:39:32.800892	87.7	20.8	-69.6	0.0
2025-01-22 16:39:35.052234	87.2	21.0	-66.7	0.0
2025-01-22 16:39:37.304413	86.7	21.2	-67.5	0.0
2025-01-22 16:39:39.560344	86.2	21.3	-68.7	0.0
2025-01-22 16:39:41.812666	85.7	21.5	-68.4	0.0
2025-01-22 16:39:44.065948	85.2	21.7	-68.9	0.0
2025-01-22 16:39:46.319347	84.7	21.8	-67.1	0.0
2025-01-22 16:39:48.571718	84.2	22.0	-65.9	0.0
2025-01-22 16:39:50.826779	83.7	22.2	-67.7	0.0
2025-01-22 16:39:53.077539	83.2	22.3	-68.6	0.0
2025-01-22 16:39:55.327434	82.6	22.5	-69.0	0.0
2025-01-22 16:39:57.581749	82.1	22.6	-68.9	0.0
2025-01-22 16:39:59.836086	81.5	22.8	-69.7	0.0
2025-01-22 16:40:02.088496	81.0	22.9	-69.9	0.0
2025-01-22 16:40:04.342812	80.4	23.1	-69.5	0.0
2025-01-22 16:40:06.593430	79.9	23.2	-70.5	0.0
2025-01-22 16:40:08.845335	79.3	23.4	-66.9	0.0
2025-01-22 16:40:11.101002	78.7	23.5	-65.2	0.0
2025-01-22 16:40:13.353996	78.1	23.7	-69.9	0.0
2025-01-22 16:40:15.605957	77.6	23.8	-68.6	0.0
2025-01-22 16:40:17.858343	77.0	24.0	-69.2	0.0
2025-01-22 16:40:20.109810	76.4	24.1	-70.2	0.0
2025-01-22 16:40:22.362970	75.8	24.2	-68.6	0.0
2025-01-22 16:40:24.613882	75.2	24.4	-68.6	0.0
2025-01-22 16:40:26.866455	74.6	24.5	-69.6	0.0
2025-01-22 16:40:29.118402	73.9	24.6	-67.0	0.0
2025-01-22 16:40:31.371726	73.3	24.7	-68.9	0.0
2025-01-22 16:40:33.626541	72.7	24.9	-69.6	0.0
2025-01-22 16:40:35.880041	72.1	25.0	-69.9	0.0
2025-01-22 16:40:38.133474	71.4	25.1	-68.8	0.0
2025-01-22 16:40:40.384814	70.8	25.2	-69.7	0.0
2025-01-22 16:40:42.639764	70.2	25.3	-62.2	0.0
2025-01-22 16:40:44.890012	69.5	25.4	-67.0	0.0
2025-01-22 16:40:47.143903	68.9	25.5	-62.9	0.0
2025-01-22 16:40:49.395170	68.2	25.6	-69.5	0.0
2025-01-22 16:40:51.646509	67.5	25.7	-69.8	0.0
2025-01-22 16:40:53.899298	66.9	25.8	-71.1	0.0
2025-01-22 16:40:56.151971	66.2	25.9	-67.1	0.0
2025-01-22 16:40:58.403942	65.6	25.9	-62.1	0.0
2025-01-22 16:41:00.656843	64.9	26.0	-61.1	0.0
2025-01-22 16:41:02.909211	64.2	26.1	-67.9	0.0
2025-01-22 16:41:05.160048	63.5	26.1	-69.3	0.0
2025-01-22 16:41:07.413408	62.8	26.2	-64.2	0.0
2025-01-22 16:41:09.665015	62.2	26.3	-67.0	0.0
2025-01-22 16:41:11.917008	61.5	26.3	-64.1	0.0
2025-01-22 16:41:14.169165	60.8	26.4	-63.3	0.0
2025-01-22 16:41:16.420846	60.1	26.4	-63.0	0.0
2025-01-22 16:41:18.672922	59.4	26.4	-67.2	0.0
2025-01-22 16:41:20.926558	58.7	26.5	-67.3	0.0
2025-01-22 16:41:23.179946	58.0	26.5	-67.8	0.0
2025-01-22 16:41:25.430953	57.3	26.5	-66.5	0.0
2025-01-22 16:41:27.682230	56.6	26.6	-65.0	0.0
2025-01-22 16:41:29.935883	55.9	26.6	-65.8	0.0
2025-01-22 16:41:32.187799	55.2	26.6	-64.6	0.0
2025-01-22 16:41:34.438754	54.5	26.6	-66.1	0.0
2025-01-22 16:41:36.690675	53.8	26.6	-65.7	0.0
2025-01-22 16:41:38.942102	53.1	26.6	-66.9	0.0
2025-01-22 16:41:41.194575	52.4	26.6	-64.6	0.0
2025-01-22 16:41:43.446180	51.7	26.6	-66.5	0.0
2025-01-22 16:41:45.698692	51.0	26.6	-65.0	0.0
2025-01-22 16:41:47.949747	50.3	26.5	-65.1	0.0
2025-01-22 16:41:50.200167	49.6	26.5	-65.6	0.0
2025-01-22 16:41:52.452929	48.9	26.5	-65.3	0.0
2025-01-22 16:41:54.707597	48.3	26.5	-64.1	0.0
2025-01-22 16:41:56.957901	47.6	26.4	-66.6	0.0
2025-01-22 16:41:59.211217	46.9	26.4	-64.6	0.0
2025-01-22 16:42:01.461447	46.2	26.3	-67.0	0.0
2025-01-22 16:42:03.714096	45.5	26.3	-67.7	0.0
2025-01-22 16:42:05.966536	44.8	26.2	-64.5	0.0
2025-01-22 16:42:08.218779	44.1	26.2	-65.5	0.0
2025-01-22 16:42:10.470484	43.5	26.1	-67.3	0.0
2025-01-22 16:42:12.724117	42.8	26.0	-67.1	0.0
2025-01-22 16:42:14.974801	42.1	26.0	-65.4	0.0
2025-01-22 16:42:17.227498	41.4	25.9	-63.5	0.0
2025-01-22 16:42:19.484825	40.8	25.8	-63.4	0.0
2025-01-22 16:42:21.738864	40.1	25.7	-67.7	0.0
2025-01-22 16:42:23.992451	39.5	25.6	-63.7	0.0
2025-01-22 16:42:26.245489	38.8	25.5	-63.2	0.0
2025-01-22 16:42:28.497841	38.1	25.4	-66.1	0.0
2025-01-22 16:42:30.752837	37.5	25.3	-65.2	0.0
2025-01-22 16:42:33.006822	36.9	25.2	-67.7	0.0
2025-01-22 16:42:35.259531	36.2	25.1	-67.6	0.0
2025-01-22 16:42:37.510233	35.6	25.0	-68.9	0.0
2025-01-22 16:42:39.763859	35.0	24.9	-67.0	0.0
2025-01-22 16:42:42.016829	34.3	24.8	-69.8	0.0
2025-01-22 16:42:44.266062	33.7	24.6	-68.7	0.0
2025-01-22 16:42:46.519857	33.1	24.5	-67.4	0.0
2025-01-22 16:42:48.770795	32.5	24.4	-65.8	0.0
2025-01-22 16:42:51.024936	31.9	24.3	-65.2	0.0
2025-01-22 16:42:53.275854	31.3	24.1	-66.6	0.0
2025-01-22 16:42:55.529009	30.7	24.0	-67.2	0.0
2025-01-22 16:42:57.781530	30.1	23.9	-64.6	0.0
2025-01-22 16:43:00.035430	29.5	23.7	-64.2	0.0
2025-01-22 16:43:02.290696	28.9	23.6	-66.8	0.0
2025-01-22 16:43:04.544173	28.4	23.4	-64.0	0.0
2025-01-22 16:43:06.796182	27.8	23.3	-66.7	0.0
2025-01-22 16:43:09.049316	27.2	23.1	-61.4	0.0
2025-01-22 16:43:11.303099	26.7	23.0	-67.3	0.0
2025-01-22 16:43:13.556012	26.1	22.8	-66.3	0.0
2025-01-22 16:43:15.808099	25.6	22.7	-65.5	0.0
2025-01-22 16:43:18.064639	25.0	22.5	-64.8	0.0
2025-01-22 16:43:20.318263	24.5	22.4	-62.5	0.0
2025-01-22 16:43:22.571041	24.0	22.2	-67.6	0.0
2025-01-22 16:43:24.821911	23.5	22.0	-64.0	0.0
2025-01-22 16:43:27.074099	22.9	21.9	-65.0	0.0
2025-01-22 16:43:29.324418	22.4	21.7	-68.7	0.0
2025-01-22 16:43:31.579332	21.9	21.6	-67.1	0.0
2025-01-22 16:43:33.832835	21.4	21.4	-64.6	0.0
2025-01-22 16:43:36.085163	20.9	21.2	-70.0	0.0
2025-01-22 16:43:38.337945	20.4	21.0	-63.4	0.0
2025-01-22 16:43:40.592581	20.0	20.9	-69.2	0.0
2025-01-22 16:43:42.844485	19.5	20.7	-67.3	0.0
2025-01-22 16:43:45.094946	19.0	20.5	-65.4	0.0
2025-01-22 16:43:47.348522	18.5	20.4	-68.5	0.0
2025-01-22 16:43:49.600140	18.1	20.2	-64.2	0.0
2025-01-22 16:43:51.850381	17.6	20.0	-66.2	0.0
2025-01-22 16:43:54.101683	17.2	19.8	-65.7	0.0
2025-01-22 16:43:56.352975	16.7	19.7	-65.4	0.0
2025-01-22 16:43:58.604843	16.3	19.5	-65.5	0.0
2025-01-22 16:44:00.857870	15.8	19.3	-64.9	0.0
2025-01-22 16:44:03.109845	15.4	19.1	-64.7	0.0
2025-01-22 16:44:05.363896	15.0	18.9	-64.2	0.0
2025-01-22 16:44:07.613964	14.6	18.8	-66.1	0.0
2025-01-22 16:44:09.864498	14.1	18.6	-64.7	0.0
2025-01-22 16:44:12.118371	13.7	18.4	-67.6	0.0
2025-01-22 16:44:14.371793	13.3	18.2	-65.9	0.0
2025-01-22 16:44:16.622206	12.9	18.1	-67.1	0.0
2025-01-22 16:44:18.874937	12.5	17.9	-63.3	0.0
2025-01-22 16:44:21.125198	12.1	17.7	-67.9	0.0
2025-01-22 16:44:23.375721	11.7	17.5	-67.3	0.0
2025-01-22 16:44:25.628032	11.4	17.3	-66.2	0.0
2025-01-22 16:44:27.878193	11.0	17.2	-66.6	0.0
2025-01-22 16:44:30.130535	10.6	17.0	-67.1	0.0
2025-01-22 16:44:32.382364	10.2	16.8	-68.9	0.0
2025-01-22 16:44:34.633567	9.9	16.6	-67.5	0.0
2025-01-22 16:44:36.887782	9.5	16.4	-68.2	0.0
2025-01-22 16:44:39.141874	9.2	16.3	-66.9	0.0
2025-01-22 16:44:41.394668	8.8	16.1	-67.7	0.0
2025-01-22 16:44:43.646316	8.5	15.9	-67.8	0.0
2025-01-22 16:44:45.897011	8.1	15.7	-69.3	0.0
2025-01-22 16:44:48.147868	7.8	15.5	-64.8	0.0
2025-01-22 16:44:50.398760	7.4	15.4	-67.7	0.0
2025-01-22 16:44:52.649561	7.1	15.2	-67.8	0.0
2025-01-22 16:44:54.909757	6.8	15.0	-64.1	0.0
2025-01-22 16:44:57.159211	6.5	14.8	-65.8	0.0
2025-01-22 16:44:59.411995	6.1	14.7	-66.7	0.0
2025-01-22 16:45:01.661869	5.8	14.5	-66.0	0.0
2025-01-22 16:45:03.914596	5.5	14.3	-63.9	0.0
2025-01-22 16:45:06.169706	5.2	14.1	-65.6	0.0
2025-01-22 16:45:08.425010	4.9	14.0	-62.9	0.0
2025-01-22 16:45:10.677851	4.6	13.8	-62.7	0.0
2025-01-22 16:45:12.929864	4.3	13.6	-63.7	0.0
2025-01-22 16:45:15.180315	4.0	13.4	-66.9	0.0
2025-01-22 16:45:17.433884	3.7	13.3	-64.6	0.0
2025-01-22 16:45:19.688207	3.4	13.1	-63.3	0.0
2025-01-22 16:45:21.943184	3.2	12.9	-66.0	0.0
2025-01-22 16:45:24.195803	2.9	12.7	-61.3	0.0
2025-01-22 16:45:26.449142	2.6	12.6	-62.4	0.0
2025-01-22 16:45:28.702900	2.3	12.4	-62.2	0.0
2025-01-22 16:45:30.952126	2.1	12.2	-63.1	0.0
2025-01-22 16:45:33.203033	1.8	12.1	-69.2	0.0
2025-01-22 16:45:35.453293	1.5	11.9	-61.7	0.0
2025-01-22 16:45:37.703165	1.3	11.7	-63.8	0.0
2025-01-22 16:45:39.954672	1.0	11.6	-60.8	0.0
2025-01-22 16:45:42.208399	0.8	11.4	-64.0	0.0
2025-01-22 16:45:44.460189	0.5	11.2	-66.3	0.0
2025-01-22 16:45:46.712454	0.3	11.1	-62.4	0.0
2025-01-22 16:45:48.964197	0.0	10.9	-67.1	0.0
2025-01-22 16:45:51.214336	359.8	10.7	-69.7	0.0
2025-01-22 16:45:53.465418	359.5	10.6	-78.2	0.0
2025-01-22 16:45:55.715598	359.3	10.4	-79.2	0.0
2025-01-22 16:45:57.967345	359.1	10.2	-79.8	0.0
2025-01-22 16:46:00.219057	358.8	10.1	-80.5	0.0
#Closed at: 2025-01-22 16:37:08.265858