passes_logs/2025/01/22/planumMaritime01/planumMaritime01__20250122_181549_METOP-C_rec.log

#Pass ID: 20250122_181549_METOP-C
#Satellite: METOP-C
#Configuration: METOP-C
#Start time: 2025-01-22 18:15:54.635018

#LorettStation: 1.0.0 05.05.2024
#Station: planumMaritime01
#Location: 37.49445 lon 55.92918 lat
#TLE: 1 43689U 18087A   25022.19067051  .00000353  00000+0  18145-3 0  9996
#TLE: 2 43689  98.6954  84.5753 0001740 150.9742 209.1532 14.21486407322236

#Time	Az	El	Level	SNR
2025-01-22 18:15:56.804136	168.4	10.2	-76.2	0.0
2025-01-22 18:15:59.054731	168.5	10.4	-76.2	0.0
2025-01-22 18:16:01.310801	168.5	10.6	-76.0	0.0
2025-01-22 18:16:03.563852	168.6	10.8	-76.4	0.0
2025-01-22 18:16:05.818089	168.6	11.0	-76.1	0.0
2025-01-22 18:16:08.071500	168.6	11.2	-76.8	0.0
2025-01-22 18:16:10.323635	168.7	11.4	-76.9	0.0
2025-01-22 18:16:12.576478	168.7	11.6	-77.1	0.0
2025-01-22 18:16:14.830018	168.8	11.8	-76.9	0.0
2025-01-22 18:16:17.081991	168.8	12.0	-77.1	0.0
2025-01-22 18:16:19.337114	168.9	12.3	-76.7	0.0
2025-01-22 18:16:21.592797	168.9	12.5	-76.6	0.0
2025-01-22 18:16:23.846484	169.0	12.7	-76.9	0.0
2025-01-22 18:16:26.099416	169.0	12.9	-77.3	0.0
2025-01-22 18:16:28.354080	169.1	13.1	-76.9	0.0
2025-01-22 18:16:30.607902	169.1	13.4	-76.9	0.0
2025-01-22 18:16:32.861747	169.2	13.6	-75.6	0.0
2025-01-22 18:16:35.113452	169.2	13.8	-75.4	0.0
2025-01-22 18:16:37.367337	169.3	14.0	-75.7	0.0
2025-01-22 18:16:39.622063	169.3	14.3	-75.6	0.0
2025-01-22 18:16:41.873582	169.4	14.5	-75.7	0.0
2025-01-22 18:16:44.123758	169.4	14.7	-75.4	0.0
2025-01-22 18:16:46.377490	169.5	15.0	-75.4	0.0
2025-01-22 18:16:48.629191	169.6	15.2	-75.6	0.0
2025-01-22 18:16:50.882182	169.6	15.5	-75.5	0.0
2025-01-22 18:16:53.135986	169.7	15.7	-75.6	0.0
2025-01-22 18:16:55.390598	169.7	16.0	-76.0	0.0
2025-01-22 18:16:57.643921	169.8	16.2	-75.9	0.0
2025-01-22 18:16:59.898525	169.9	16.5	-75.8	0.0
2025-01-22 18:17:02.154010	169.9	16.7	-75.9	0.0
2025-01-22 18:17:04.409120	170.0	17.0	-75.8	0.0
2025-01-22 18:17:06.661483	170.0	17.3	-75.5	0.0
2025-01-22 18:17:08.914569	170.1	17.5	-75.8	0.0
2025-01-22 18:17:11.165132	170.2	17.8	-75.9	0.0
2025-01-22 18:17:13.419332	170.2	18.1	-75.6	0.0
2025-01-22 18:17:15.672888	170.3	18.3	-75.9	0.0
2025-01-22 18:17:17.924405	170.4	18.6	-75.7	0.0
2025-01-22 18:17:20.180366	170.5	18.9	-75.4	0.0
2025-01-22 18:17:22.434703	170.5	19.2	-75.4	0.0
2025-01-22 18:17:24.686433	170.6	19.5	-75.5	0.0
2025-01-22 18:17:26.941441	170.7	19.8	-75.7	0.0
2025-01-22 18:17:29.194921	170.7	20.1	-76.0	0.0
2025-01-22 18:17:31.451660	170.8	20.3	-76.7	0.0
2025-01-22 18:17:33.706498	170.9	20.6	-76.6	0.0
2025-01-22 18:17:35.960281	171.0	21.0	-77.1	0.0
2025-01-22 18:17:38.214318	171.1	21.3	-76.9	0.0
2025-01-22 18:17:40.467147	171.1	21.6	-75.4	0.0
2025-01-22 18:17:42.724027	171.2	21.9	-76.9	0.0
2025-01-22 18:17:44.974579	171.3	22.2	-76.7	0.0
2025-01-22 18:17:47.230315	171.4	22.5	-75.9	0.0
2025-01-22 18:17:49.485320	171.5	22.9	-76.7	0.0
2025-01-22 18:17:51.737060	171.6	23.2	-75.2	0.0
2025-01-22 18:17:53.989813	171.7	23.5	-75.3	0.0
2025-01-22 18:17:56.243816	171.8	23.9	-76.0	0.0
2025-01-22 18:17:58.494571	171.9	24.2	-75.6	0.0
2025-01-22 18:18:00.746573	172.0	24.6	-74.7	0.0
2025-01-22 18:18:02.998050	172.1	24.9	-75.2	0.0
2025-01-22 18:18:05.254457	172.2	25.3	-75.7	0.0
2025-01-22 18:18:07.508488	172.3	25.6	-75.5	0.0
2025-01-22 18:18:09.761976	172.4	26.0	-75.7	0.0
2025-01-22 18:18:12.013460	172.5	26.4	-76.1	0.0
2025-01-22 18:18:14.268965	172.6	26.8	-76.2	0.0
2025-01-22 18:18:16.522903	172.7	27.2	-74.9	0.0
2025-01-22 18:18:18.775730	172.8	27.5	-74.6	0.0
2025-01-22 18:18:21.028719	173.0	27.9	-74.8	0.0
2025-01-22 18:18:23.282024	173.1	28.3	-75.0	0.0
2025-01-22 18:18:25.535489	173.2	28.8	-74.8	0.0
2025-01-22 18:18:27.790003	173.3	29.2	-76.2	0.0
2025-01-22 18:18:30.041458	173.5	29.6	-77.3	0.0
2025-01-22 18:18:32.296022	173.6	30.0	-76.2	0.0
2025-01-22 18:18:34.545827	173.7	30.4	-76.2	0.0
2025-01-22 18:18:36.797146	173.9	30.9	-76.4	0.0
2025-01-22 18:18:39.050041	174.0	31.3	-76.0	0.0
2025-01-22 18:18:41.300980	174.2	31.8	-76.3	0.0
2025-01-22 18:18:43.554605	174.3	32.2	-76.1	0.0
2025-01-22 18:18:45.806030	174.5	32.7	-75.1	0.0
2025-01-22 18:18:48.061498	174.6	33.2	-76.7	0.0
2025-01-22 18:18:50.315167	174.8	33.6	-77.5	0.0
2025-01-22 18:18:52.567761	175.0	34.1	-77.5	0.0
2025-01-22 18:18:54.821677	175.2	34.6	-77.4	0.0
2025-01-22 18:18:57.073513	175.3	35.1	-78.1	0.0
2025-01-22 18:18:59.326828	175.5	35.6	-78.0	0.0
2025-01-22 18:19:01.581058	175.7	36.2	-78.3	0.0
2025-01-22 18:19:03.836084	175.9	36.7	-78.7	0.0
2025-01-22 18:19:06.092561	176.1	37.2	-79.1	0.0
2025-01-22 18:19:08.347885	176.3	37.8	-79.3	0.0
2025-01-22 18:19:10.599278	176.6	38.3	-79.4	0.0
2025-01-22 18:19:12.852934	176.8	38.9	-79.5	0.0
2025-01-22 18:19:15.105935	177.0	39.4	-79.2	0.0
2025-01-22 18:19:17.359623	177.3	40.0	-79.9	0.0
2025-01-22 18:19:19.613775	177.5	40.6	-79.7	0.0
2025-01-22 18:19:21.866985	177.8	41.2	-79.9	0.0
2025-01-22 18:19:24.119336	178.0	41.8	-79.7	0.0
2025-01-22 18:19:26.370243	178.3	42.4	-79.1	0.0
2025-01-22 18:19:28.623269	178.6	43.0	-79.5	0.0
2025-01-22 18:19:30.875044	178.9	43.7	-79.4	0.0
2025-01-22 18:19:33.129124	179.2	44.3	-79.4	0.0
2025-01-22 18:19:35.386545	179.6	45.0	-79.2	0.0
2025-01-22 18:19:37.639579	179.9	45.6	-79.2	0.0
2025-01-22 18:19:39.892028	180.2	46.3	-78.9	2.3
2025-01-22 18:19:42.145777	180.6	47.0	-78.5	4.0
2025-01-22 18:19:44.398788	181.0	47.7	-78.2	5.2
2025-01-22 18:19:46.649302	181.4	48.4	-77.7	5.6
2025-01-22 18:19:48.900168	181.8	49.1	-77.0	6.3
2025-01-22 18:19:51.153679	182.3	49.8	-77.1	8.2
2025-01-22 18:19:53.405886	182.7	50.6	-76.6	8.5
2025-01-22 18:19:55.660905	183.2	51.3	-76.6	9.1
2025-01-22 18:19:57.918167	183.7	52.1	-76.5	8.8
2025-01-22 18:20:00.174200	184.3	52.8	-76.3	9.2
2025-01-22 18:20:02.432140	184.8	53.6	-76.2	9.8
2025-01-22 18:20:04.685047	185.4	54.4	-76.1	10.1
2025-01-22 18:20:06.939672	186.0	55.2	-75.7	9.7
2025-01-22 18:20:09.192716	186.7	56.0	-75.8	10.6
2025-01-22 18:20:11.446991	187.4	56.8	-75.8	10.9
2025-01-22 18:20:13.702271	188.1	57.6	-75.5	11.2
2025-01-22 18:20:15.957079	188.9	58.4	-75.2	12.3
2025-01-22 18:20:18.212871	189.8	59.2	-74.7	12.2
2025-01-22 18:20:20.470215	190.7	60.0	-74.3	12.8
2025-01-22 18:20:22.726234	191.6	60.9	-74.7	13.1
2025-01-22 18:20:24.980052	192.6	61.7	-74.1	13.2
2025-01-22 18:20:27.235263	193.7	62.6	-74.0	14.5
2025-01-22 18:20:29.490466	194.9	63.4	-73.8	14.6
2025-01-22 18:20:31.742794	196.1	64.2	-74.0	14.4
2025-01-22 18:20:34.000514	197.5	65.1	-74.0	14.1
2025-01-22 18:20:36.254163	198.9	65.9	-73.9	14.5
2025-01-22 18:20:38.510259	200.5	66.8	-73.7	14.6
2025-01-22 18:20:40.762374	202.2	67.6	-73.4	14.9
2025-01-22 18:20:43.016864	204.0	68.4	-73.4	15.2
2025-01-22 18:20:45.272863	206.0	69.2	-73.8	15.0
2025-01-22 18:20:47.525563	208.2	70.0	-73.9	14.9
2025-01-22 18:20:49.777919	210.5	70.7	-73.9	14.6
2025-01-22 18:20:52.032353	213.0	71.4	-73.8	14.6
2025-01-22 18:20:54.286517	215.8	72.1	-74.2	14.4
2025-01-22 18:20:56.540547	218.7	72.8	-74.6	13.6
2025-01-22 18:20:58.793397	221.9	73.4	-74.8	13.1
2025-01-22 18:21:01.045140	225.4	74.0	-74.2	13.7
2025-01-22 18:21:03.299764	229.1	74.5	-74.3	14.5
2025-01-22 18:21:05.552219	233.0	74.9	-74.3	14.4
2025-01-22 18:21:07.806403	237.2	75.3	-74.5	14.2
2025-01-22 18:21:10.060877	241.6	75.6	-74.3	13.3
2025-01-22 18:21:12.314974	246.1	75.8	-74.2	14.4
2025-01-22 18:21:14.566255	250.7	75.9	-74.1	13.9
2025-01-22 18:21:16.821002	255.4	75.9	-74.6	13.4
2025-01-22 18:21:19.078181	260.1	75.9	-74.7	13.3
2025-01-22 18:21:21.333409	264.7	75.7	-74.4	12.7
2025-01-22 18:21:23.585466	269.2	75.5	-74.8	12.7
2025-01-22 18:21:25.835461	273.5	75.2	-75.2	12.4
2025-01-22 18:21:28.089064	277.6	74.8	-75.1	12.6
2025-01-22 18:21:30.342413	281.5	74.3	-75.1	12.6
2025-01-22 18:21:32.592682	285.1	73.8	-74.7	11.4
2025-01-22 18:21:34.844838	288.5	73.2	-75.1	10.3
2025-01-22 18:21:37.098775	291.6	72.6	-75.2	11.5
2025-01-22 18:21:39.350912	294.5	71.9	-74.9	10.9
2025-01-22 18:21:41.604059	297.2	71.2	-75.6	10.7
2025-01-22 18:21:43.860287	299.6	70.5	-75.4	10.4
2025-01-22 18:21:46.112679	301.9	69.7	-75.6	9.6
2025-01-22 18:21:48.366964	304.0	69.0	-75.1	8.1
2025-01-22 18:21:50.622145	305.9	68.2	-75.9	9.6
2025-01-22 18:21:52.874233	307.7	67.4	-76.1	8.4
2025-01-22 18:21:55.127077	309.4	66.5	-75.9	7.4
2025-01-22 18:21:57.379046	310.9	65.7	-76.3	6.2
2025-01-22 18:21:59.633049	312.3	64.9	-76.8	5.5
2025-01-22 18:22:01.885172	313.6	64.0	-76.9	4.8
2025-01-22 18:22:04.138177	314.9	63.2	-76.3	3.8
2025-01-22 18:22:06.394154	316.0	62.4	-76.6	1.9
2025-01-22 18:22:08.647080	317.1	61.5	-76.9	0.0
2025-01-22 18:22:10.899677	318.1	60.7	-77.3	0.0
2025-01-22 18:22:13.151614	319.0	59.8	-77.6	0.0
2025-01-22 18:22:15.403638	319.9	59.0	-78.0	0.0
2025-01-22 18:22:17.661226	320.7	58.2	-77.9	0.0
2025-01-22 18:22:19.911053	321.5	57.4	-78.0	0.0
2025-01-22 18:22:22.165960	322.2	56.6	-76.9	0.0
2025-01-22 18:22:24.419517	322.9	55.8	-77.3	0.0
2025-01-22 18:22:26.673765	323.6	55.0	-75.9	0.0
2025-01-22 18:22:28.926316	324.2	54.2	-78.5	0.0
2025-01-22 18:22:31.182203	324.8	53.4	-76.2	0.0
2025-01-22 18:22:33.436078	325.3	52.7	-76.0	0.0
2025-01-22 18:22:35.691416	325.9	51.9	-76.9	0.0
2025-01-22 18:22:37.946626	326.4	51.2	-77.0	0.0
2025-01-22 18:22:40.201272	326.8	50.4	-76.7	0.0
2025-01-22 18:22:42.454717	327.3	49.7	-77.5	0.0
2025-01-22 18:22:44.705262	327.7	49.0	-76.2	0.0
2025-01-22 18:22:46.957909	328.1	48.3	-76.5	0.0
2025-01-22 18:22:49.212055	328.5	47.6	-76.4	0.0
2025-01-22 18:22:51.465594	328.9	46.9	-76.3	0.0
2025-01-22 18:22:53.719186	329.3	46.2	-75.5	0.0
2025-01-22 18:22:55.972877	329.6	45.5	-76.3	0.0
2025-01-22 18:22:58.226557	330.0	44.9	-76.3	0.0
2025-01-22 18:23:00.477758	330.3	44.2	-75.6	0.0
2025-01-22 18:23:02.731091	330.6	43.6	-73.7	0.0
2025-01-22 18:23:04.983686	330.9	43.0	-74.7	0.0
2025-01-22 18:23:07.235658	331.2	42.3	-76.0	0.0
2025-01-22 18:23:09.489973	331.5	41.7	-72.2	0.0
2025-01-22 18:23:11.744369	331.7	41.1	-75.3	0.0
2025-01-22 18:23:13.998035	332.0	40.5	-75.1	0.0
2025-01-22 18:23:16.250463	332.2	40.0	-74.7	0.0
2025-01-22 18:23:18.504748	332.5	39.4	-76.8	0.0
2025-01-22 18:23:20.757208	332.7	38.8	-76.5	0.0
2025-01-22 18:23:23.011178	332.9	38.3	-73.3	0.0
2025-01-22 18:23:25.262885	333.2	37.7	-76.2	0.0
2025-01-22 18:23:27.515541	333.4	37.2	-73.5	0.0
2025-01-22 18:23:29.768491	333.6	36.7	-73.8	0.0
2025-01-22 18:23:32.022400	333.8	36.1	-72.5	0.0
2025-01-22 18:23:34.276641	334.0	35.6	-76.9	0.0
2025-01-22 18:23:36.529040	334.2	35.1	-72.9	0.0
2025-01-22 18:23:38.782678	334.3	34.6	-76.3	0.0
2025-01-22 18:23:41.036063	334.5	34.1	-75.1	0.0
2025-01-22 18:23:43.287772	334.7	33.6	-73.9	0.0
2025-01-22 18:23:45.540886	334.9	33.2	-75.0	0.0
2025-01-22 18:23:47.796605	335.0	32.7	-75.3	0.0
2025-01-22 18:23:50.049433	335.2	32.2	-72.0	0.0
2025-01-22 18:23:52.305274	335.3	31.8	-73.0	0.0
2025-01-22 18:23:54.557459	335.5	31.3	-74.3	0.0
2025-01-22 18:23:56.811180	335.6	30.9	-73.2	0.0
2025-01-22 18:23:59.067835	335.8	30.5	-73.7	0.0
2025-01-22 18:24:01.320745	335.9	30.0	-72.3	0.0
2025-01-22 18:24:03.573530	336.0	29.6	-74.7	0.0
2025-01-22 18:24:05.828608	336.2	29.2	-71.3	0.0
2025-01-22 18:24:08.084406	336.3	28.8	-71.0	0.0
2025-01-22 18:24:10.336818	336.4	28.4	-69.7	0.0
2025-01-22 18:24:12.591341	336.5	28.0	-72.2	0.0
2025-01-22 18:24:14.844312	336.7	27.6	-72.1	0.0
2025-01-22 18:24:17.095148	336.8	27.2	-71.7	0.0
2025-01-22 18:24:19.347617	336.9	26.8	-72.6	0.0
2025-01-22 18:24:21.604489	337.0	26.4	-69.1	0.0
2025-01-22 18:24:23.862157	337.1	26.1	-71.5	0.0
2025-01-22 18:24:26.115881	337.2	25.7	-72.5	0.0
2025-01-22 18:24:28.369891	337.3	25.3	-73.2	0.0
2025-01-22 18:24:30.625003	337.4	25.0	-68.3	0.0
2025-01-22 18:24:32.877414	337.5	24.6	-68.9	0.0
2025-01-22 18:24:35.130964	337.6	24.3	-72.1	0.0
2025-01-22 18:24:37.383696	337.7	23.9	-72.2	0.0
2025-01-22 18:24:39.636919	337.8	23.6	-73.2	0.0
2025-01-22 18:24:41.890203	337.9	23.3	-72.6	0.0
2025-01-22 18:24:44.142205	338.0	22.9	-73.6	0.0
2025-01-22 18:24:46.394980	338.1	22.6	-70.9	0.0
2025-01-22 18:24:48.648189	338.2	22.3	-69.0	0.0
2025-01-22 18:24:50.902733	338.3	22.0	-69.9	0.0
2025-01-22 18:24:53.156476	338.4	21.7	-72.7	0.0
2025-01-22 18:24:55.411492	338.5	21.3	-73.5	0.0
2025-01-22 18:24:57.665353	338.5	21.0	-71.1	0.0
2025-01-22 18:24:59.918543	338.6	20.7	-70.8	0.0
2025-01-22 18:25:02.172785	338.7	20.4	-70.5	0.0
2025-01-22 18:25:04.426817	338.8	20.1	-72.5	0.0
2025-01-22 18:25:06.681552	338.8	19.8	-72.3	0.0
2025-01-22 18:25:08.934439	338.9	19.6	-70.0	0.0
2025-01-22 18:25:11.188118	339.0	19.3	-72.4	0.0
2025-01-22 18:25:13.443492	339.1	19.0	-71.3	0.0
2025-01-22 18:25:15.695297	339.1	18.7	-71.0	0.0
2025-01-22 18:25:17.948534	339.2	18.4	-71.7	0.0
2025-01-22 18:25:20.201950	339.3	18.2	-71.2	0.0
2025-01-22 18:25:22.457179	339.4	17.9	-72.3	0.0
2025-01-22 18:25:24.712316	339.4	17.6	-71.1	0.0
2025-01-22 18:25:26.964641	339.5	17.4	-70.8	0.0
2025-01-22 18:25:29.217611	339.6	17.1	-69.9	0.0
2025-01-22 18:25:31.473623	339.6	16.8	-71.0	0.0
2025-01-22 18:25:33.725811	339.7	16.6	-69.9	0.0
2025-01-22 18:25:35.976874	339.7	16.3	-67.6	0.0
2025-01-22 18:25:38.229969	339.8	16.1	-69.1	0.0
2025-01-22 18:25:40.482728	339.9	15.8	-69.5	0.0
2025-01-22 18:25:42.736506	339.9	15.6	-71.3	0.0
2025-01-22 18:25:44.991586	340.0	15.3	-70.2	0.0
2025-01-22 18:25:47.243757	340.0	15.1	-72.0	0.0
2025-01-22 18:25:49.498026	340.1	14.9	-70.7	0.0
2025-01-22 18:25:51.752404	340.2	14.6	-69.3	0.0
2025-01-22 18:25:54.005177	340.2	14.4	-68.9	0.0
2025-01-22 18:25:56.257053	340.3	14.2	-71.8	0.0
2025-01-22 18:25:58.511449	340.3	13.9	-70.4	0.0
2025-01-22 18:26:00.764269	340.4	13.7	-72.0	0.0
2025-01-22 18:26:03.019824	340.4	13.5	-72.6	0.0
2025-01-22 18:26:05.274450	340.5	13.3	-68.4	0.0
2025-01-22 18:26:07.527876	340.5	13.0	-71.4	0.0
2025-01-22 18:26:09.778669	340.6	12.8	-70.3	0.0
2025-01-22 18:26:12.032088	340.6	12.6	-71.7	0.0
2025-01-22 18:26:14.288462	340.7	12.4	-73.2	0.0
2025-01-22 18:26:16.541323	340.7	12.2	-71.1	0.0
2025-01-22 18:26:18.797267	340.8	12.0	-71.1	0.0
2025-01-22 18:26:21.048466	340.8	11.7	-72.3	0.0
2025-01-22 18:26:23.303210	340.9	11.5	-71.1	0.0
2025-01-22 18:26:25.556150	340.9	11.3	-69.4	0.0
2025-01-22 18:26:27.807790	341.0	11.1	-70.2	0.0
2025-01-22 18:26:30.061258	341.0	10.9	-74.5	0.0
2025-01-22 18:26:32.316341	341.1	10.7	-75.1	0.0
2025-01-22 18:26:34.573102	341.1	10.5	-78.1	0.0
2025-01-22 18:26:36.827083	341.2	10.3	-80.1	0.0
2025-01-22 18:26:39.081661	341.2	10.1	-81.0	0.0
#Closed at: 2025-01-22 18:15:49.640671