passes_logs/2025/01/22/planumMaritime01/planumMaritime01__20250122_184237_METEOR-M2_3_rec.log

#Pass ID: 20250122_184237_METEOR-M2 3
#Satellite: METEOR-M2 3
#Configuration: METEOR-M2 3
#Start time: 2025-01-22 18:42:42.706299

#LorettStation: 1.0.0 05.05.2024
#Station: planumMaritime01
#Location: 37.49445 lon 55.92918 lat
#TLE: 1 57166U 23091A   25022.21022386  .00000083  00000+0  55255-4 0  9991
#TLE: 2 57166  98.6839  80.5850 0003565 200.3362 159.7676 14.23971113 81799

#Time	Az	El	Level	SNR
2025-01-22 18:42:44.873351	194.8	10.2	-76.6	0.0
2025-01-22 18:42:47.129567	195.0	10.4	-76.7	0.0
2025-01-22 18:42:49.384450	195.2	10.5	-76.8	0.0
2025-01-22 18:42:51.640933	195.4	10.7	-76.3	0.0
2025-01-22 18:42:53.895172	195.5	10.9	-75.3	0.0
2025-01-22 18:42:56.147875	195.7	11.1	-77.3	0.0
2025-01-22 18:42:58.405057	195.9	11.3	-77.2	0.0
2025-01-22 18:43:00.660384	196.1	11.5	-77.7	0.0
2025-01-22 18:43:02.916567	196.3	11.7	-77.7	0.0
2025-01-22 18:43:05.168177	196.5	11.9	-77.7	0.0
2025-01-22 18:43:07.421188	196.6	12.1	-77.2	0.0
2025-01-22 18:43:09.674739	196.8	12.2	-77.9	0.0
2025-01-22 18:43:11.926623	197.0	12.4	-77.9	0.0
2025-01-22 18:43:14.180310	197.2	12.6	-77.4	0.0
2025-01-22 18:43:16.433676	197.4	12.8	-77.9	0.0
2025-01-22 18:43:18.685396	197.6	13.0	-77.2	0.0
2025-01-22 18:43:20.938205	197.9	13.2	-78.5	0.0
2025-01-22 18:43:23.190043	198.1	13.4	-77.9	0.0
2025-01-22 18:43:25.443797	198.3	13.6	-78.1	0.0
2025-01-22 18:43:27.696535	198.5	13.8	-77.4	0.0
2025-01-22 18:43:29.948250	198.7	14.1	-78.2	0.0
2025-01-22 18:43:32.202827	198.9	14.3	-76.9	0.0
2025-01-22 18:43:34.455605	199.2	14.5	-77.9	0.0
2025-01-22 18:43:36.707796	199.4	14.7	-78.4	0.0
2025-01-22 18:43:38.961095	199.6	14.9	-77.3	0.0
2025-01-22 18:43:41.214329	199.8	15.1	-78.0	0.0
2025-01-22 18:43:43.466447	200.1	15.3	-77.6	0.0
2025-01-22 18:43:45.718986	200.3	15.5	-78.6	0.0
2025-01-22 18:43:47.972385	200.6	15.8	-78.1	0.0
2025-01-22 18:43:50.230113	200.8	16.0	-77.7	0.0
2025-01-22 18:43:52.482190	201.1	16.2	-78.5	0.0
2025-01-22 18:43:54.736914	201.3	16.4	-78.1	0.0
2025-01-22 18:43:56.989939	201.6	16.6	-78.6	0.0
2025-01-22 18:43:59.242533	201.8	16.9	-78.4	0.0
2025-01-22 18:44:01.494413	202.1	17.1	-78.6	0.0
2025-01-22 18:44:03.746997	202.4	17.3	-78.7	0.0
2025-01-22 18:44:05.998293	202.7	17.6	-78.4	0.0
2025-01-22 18:44:08.251668	202.9	17.8	-78.6	0.0
2025-01-22 18:44:10.506690	203.2	18.0	-78.1	0.0
2025-01-22 18:44:12.759398	203.5	18.3	-77.8	0.0
2025-01-22 18:44:15.011033	203.8	18.5	-78.5	0.0
2025-01-22 18:44:17.264068	204.1	18.7	-78.7	0.0
2025-01-22 18:44:19.515982	204.4	19.0	-78.2	0.0
2025-01-22 18:44:21.770646	204.7	19.2	-78.2	0.0
2025-01-22 18:44:24.023223	205.0	19.5	-78.7	0.0
2025-01-22 18:44:26.274409	205.3	19.7	-78.9	0.0
2025-01-22 18:44:28.530165	205.6	19.9	-78.5	0.0
2025-01-22 18:44:30.784712	206.0	20.2	-78.7	0.0
2025-01-22 18:44:33.036449	206.3	20.4	-78.9	0.0
2025-01-22 18:44:35.289562	206.6	20.7	-79.0	0.0
2025-01-22 18:44:37.541209	207.0	20.9	-78.6	0.0
2025-01-22 18:44:39.794508	207.3	21.2	-78.4	0.0
2025-01-22 18:44:42.047029	207.7	21.5	-78.7	0.0
2025-01-22 18:44:44.300573	208.0	21.7	-78.1	0.0
2025-01-22 18:44:46.550483	208.4	22.0	-78.6	0.0
2025-01-22 18:44:48.800960	208.8	22.2	-78.1	0.0
2025-01-22 18:44:51.055098	209.1	22.5	-78.4	0.0
2025-01-22 18:44:53.312366	209.5	22.8	-78.6	0.0
2025-01-22 18:44:55.564247	209.9	23.0	-78.6	0.0
2025-01-22 18:44:57.819702	210.3	23.3	-78.8	0.0
2025-01-22 18:45:00.069867	210.7	23.6	-78.7	0.0
2025-01-22 18:45:02.322257	211.1	23.8	-78.7	0.0
2025-01-22 18:45:04.576007	211.5	24.1	-78.0	0.0
2025-01-22 18:45:06.830699	211.9	24.4	-77.9	0.0
2025-01-22 18:45:09.083394	212.4	24.6	-78.0	0.0
2025-01-22 18:45:11.334179	212.8	24.9	-78.2	0.0
2025-01-22 18:45:13.586324	213.2	25.2	-78.3	0.0
2025-01-22 18:45:15.840157	213.7	25.5	-77.8	0.0
2025-01-22 18:45:18.092856	214.2	25.7	-78.6	0.0
2025-01-22 18:45:20.344460	214.6	26.0	-78.9	0.0
2025-01-22 18:45:22.597492	215.1	26.3	-78.3	0.0
2025-01-22 18:45:24.849829	215.6	26.6	-78.3	0.0
2025-01-22 18:45:27.104012	216.1	26.8	-78.1	0.0
2025-01-22 18:45:29.354706	216.6	27.1	-78.4	0.0
2025-01-22 18:45:31.608585	217.1	27.4	-78.1	0.0
2025-01-22 18:45:33.861791	217.6	27.7	-77.2	0.0
2025-01-22 18:45:36.115377	218.1	28.0	-78.7	0.0
2025-01-22 18:45:38.369793	218.7	28.3	-78.6	0.0
2025-01-22 18:45:40.625732	219.2	28.5	-79.3	0.0
2025-01-22 18:45:42.878690	219.8	28.8	-78.5	0.0
2025-01-22 18:45:45.133800	220.3	29.1	-78.4	0.0
2025-01-22 18:45:47.387623	220.9	29.4	-78.8	0.0
2025-01-22 18:45:49.640051	221.5	29.7	-79.4	0.0
2025-01-22 18:45:51.892994	222.1	30.0	-79.1	0.0
2025-01-22 18:45:54.148895	222.7	30.2	-79.1	0.0
2025-01-22 18:45:56.401966	223.3	30.5	-79.3	0.0
2025-01-22 18:45:58.656526	223.9	30.8	-79.2	0.0
2025-01-22 18:46:00.911520	224.6	31.1	-79.5	0.0
2025-01-22 18:46:03.164309	225.2	31.4	-79.3	0.0
2025-01-22 18:46:05.416081	225.9	31.6	-79.6	0.0
2025-01-22 18:46:07.669050	226.5	31.9	-80.0	0.0
2025-01-22 18:46:09.924402	227.2	32.2	-79.8	0.0
2025-01-22 18:46:12.177230	227.9	32.5	-79.3	0.0
2025-01-22 18:46:14.430972	228.6	32.7	-79.1	0.0
2025-01-22 18:46:16.685585	229.3	33.0	-79.0	0.0
2025-01-22 18:46:18.939532	230.1	33.2	-78.2	0.0
2025-01-22 18:46:21.193956	230.8	33.5	-78.0	0.0
2025-01-22 18:46:23.448559	231.6	33.8	-78.3	0.0
2025-01-22 18:46:25.703384	232.3	34.0	-79.1	0.0
2025-01-22 18:46:27.955897	233.1	34.3	-79.2	0.0
2025-01-22 18:46:30.207494	233.9	34.5	-79.3	1.0
2025-01-22 18:46:32.459793	234.7	34.8	-79.1	0.2
2025-01-22 18:46:34.709873	235.5	35.0	-79.1	0.0
2025-01-22 18:46:36.962165	236.3	35.2	-80.0	0.0
2025-01-22 18:46:39.214150	237.1	35.5	-80.2	0.0
2025-01-22 18:46:41.466381	238.0	35.7	-80.1	0.0
2025-01-22 18:46:43.719664	238.8	35.9	-80.0	0.0
2025-01-22 18:46:45.972545	239.7	36.1	-80.0	0.0
2025-01-22 18:46:48.224106	240.6	36.3	-79.5	0.0
2025-01-22 18:46:50.475696	241.5	36.5	-79.6	0.0
2025-01-22 18:46:52.726677	242.4	36.7	-79.6	0.0
2025-01-22 18:46:54.980745	243.3	36.9	-79.5	0.0
2025-01-22 18:46:57.235233	244.2	37.1	-79.5	0.0
2025-01-22 18:46:59.487073	245.1	37.3	-79.5	1.5
2025-01-22 18:47:01.737764	246.1	37.4	-79.5	2.1
2025-01-22 18:47:03.990804	247.0	37.6	-79.3	0.9
2025-01-22 18:47:06.243625	248.0	37.7	-79.9	1.1
2025-01-22 18:47:08.498499	248.9	37.9	-79.8	0.8
2025-01-22 18:47:10.752764	249.9	38.0	-79.6	0.0
2025-01-22 18:47:13.003065	250.9	38.1	-79.6	1.0
2025-01-22 18:47:15.259881	251.9	38.3	-79.9	0.0
2025-01-22 18:47:17.512559	252.9	38.4	-79.9	0.0
2025-01-22 18:47:19.768715	253.9	38.5	-80.1	0.0
2025-01-22 18:47:22.022469	254.9	38.6	-80.2	0.0
2025-01-22 18:47:24.276892	255.9	38.6	-80.1	0.0
2025-01-22 18:47:26.527716	256.9	38.7	-80.3	0.0
2025-01-22 18:47:28.780588	257.9	38.8	-80.2	0.0
2025-01-22 18:47:31.037207	259.0	38.8	-79.9	0.0
2025-01-22 18:47:33.289118	260.0	38.9	-80.1	0.0
2025-01-22 18:47:35.540139	261.0	38.9	-80.0	0.0
2025-01-22 18:47:37.796123	262.0	38.9	-80.1	0.0
2025-01-22 18:47:40.048959	263.1	38.9	-79.8	0.0
2025-01-22 18:47:42.304936	264.1	38.9	-79.8	0.0
2025-01-22 18:47:44.558964	265.1	38.9	-79.3	0.0
2025-01-22 18:47:46.811802	266.2	38.9	-79.4	0.0
2025-01-22 18:47:49.067944	267.2	38.8	-79.9	0.0
2025-01-22 18:47:51.326995	268.2	38.8	-79.8	0.0
2025-01-22 18:47:53.580260	269.2	38.8	-80.0	0.0
2025-01-22 18:47:55.831839	270.3	38.7	-80.3	0.0
2025-01-22 18:47:58.085228	271.3	38.6	-80.0	0.0
2025-01-22 18:48:00.335804	272.3	38.5	-80.3	0.0
2025-01-22 18:48:02.587192	273.3	38.4	-79.6	0.0
2025-01-22 18:48:04.840791	274.3	38.3	-79.5	0.0
2025-01-22 18:48:07.094140	275.3	38.2	-79.5	0.0
2025-01-22 18:48:09.343108	276.3	38.1	-78.7	0.0
2025-01-22 18:48:11.593794	277.2	38.0	-79.2	0.0
2025-01-22 18:48:13.846971	278.2	37.9	-78.7	0.0
2025-01-22 18:48:16.099814	279.2	37.7	-78.9	0.0
2025-01-22 18:48:18.350992	280.1	37.6	-79.5	0.0
2025-01-22 18:48:20.604629	281.1	37.4	-79.7	0.0
2025-01-22 18:48:22.860140	282.0	37.2	-79.2	0.0
2025-01-22 18:48:25.113033	282.9	37.1	-79.6	0.0
2025-01-22 18:48:27.363477	283.9	36.9	-79.4	0.0
2025-01-22 18:48:29.615887	284.8	36.7	-79.4	0.0
2025-01-22 18:48:31.865095	285.6	36.5	-79.0	0.0
2025-01-22 18:48:34.119004	286.5	36.3	-78.8	0.0
2025-01-22 18:48:36.371378	287.4	36.1	-78.6	0.0
2025-01-22 18:48:38.621423	288.3	35.9	-77.2	0.0
2025-01-22 18:48:40.870671	289.1	35.6	-79.0	0.0
2025-01-22 18:48:43.124062	290.0	35.4	-78.4	0.0
2025-01-22 18:48:45.376848	290.8	35.2	-78.7	0.0
2025-01-22 18:48:47.629256	291.6	35.0	-76.1	0.0
2025-01-22 18:48:49.882429	292.4	34.7	-78.2	0.0
2025-01-22 18:48:52.134069	293.2	34.5	-75.6	0.0
2025-01-22 18:48:54.387300	294.0	34.2	-76.7	0.0
2025-01-22 18:48:56.637264	294.7	34.0	-76.8	0.0
2025-01-22 18:48:58.888843	295.5	33.7	-77.1	0.0
2025-01-22 18:49:01.142191	296.2	33.5	-77.1	0.0
2025-01-22 18:49:03.397317	297.0	33.2	-76.2	0.0
2025-01-22 18:49:05.650061	297.7	32.9	-77.1	0.0
2025-01-22 18:49:07.901579	298.4	32.7	-77.6	0.0
2025-01-22 18:49:10.153351	299.1	32.4	-77.1	0.0
2025-01-22 18:49:12.405416	299.8	32.1	-78.7	0.0
2025-01-22 18:49:14.659797	300.5	31.9	-76.9	0.0
2025-01-22 18:49:16.912471	301.1	31.6	-77.2	0.0
2025-01-22 18:49:19.164646	301.8	31.3	-77.0	0.0
2025-01-22 18:49:21.418586	302.4	31.0	-77.7	0.0
2025-01-22 18:49:23.670358	303.1	30.8	-76.6	0.0
2025-01-22 18:49:25.922620	303.7	30.5	-76.2	0.0
2025-01-22 18:49:28.173810	304.3	30.2	-75.7	0.0
2025-01-22 18:49:30.427544	304.9	29.9	-76.4	0.0
2025-01-22 18:49:32.679189	305.5	29.6	-77.6	0.0
2025-01-22 18:49:34.932159	306.1	29.4	-77.3	0.0
2025-01-22 18:49:37.183867	306.6	29.1	-78.0	0.0
2025-01-22 18:49:39.437697	307.2	28.8	-76.7	0.0
2025-01-22 18:49:41.689116	307.7	28.5	-74.2	0.0
2025-01-22 18:49:43.944314	308.3	28.2	-75.2	0.0
2025-01-22 18:49:46.198084	308.8	28.0	-75.4	0.0
2025-01-22 18:49:48.452681	309.3	27.7	-77.0	0.0
2025-01-22 18:49:50.705509	309.9	27.4	-76.5	0.0
2025-01-22 18:49:52.956691	310.4	27.1	-77.9	0.0
2025-01-22 18:49:55.209206	310.9	26.8	-77.9	0.0
2025-01-22 18:49:57.463474	311.3	26.6	-74.6	0.0
2025-01-22 18:49:59.716583	311.8	26.3	-75.6	0.0
2025-01-22 18:50:01.971698	312.3	26.0	-76.0	0.0
2025-01-22 18:50:04.225826	312.8	25.7	-77.1	0.0
2025-01-22 18:50:06.478038	313.2	25.5	-75.0	0.0
2025-01-22 18:50:08.732507	313.7	25.2	-75.6	0.0
2025-01-22 18:50:10.984164	314.1	24.9	-74.6	0.0
2025-01-22 18:50:13.236933	314.5	24.6	-75.7	0.0
2025-01-22 18:50:15.493165	315.0	24.4	-74.7	0.0
2025-01-22 18:50:17.745746	315.4	24.1	-75.0	0.0
2025-01-22 18:50:19.999274	315.8	23.8	-75.1	0.0
2025-01-22 18:50:22.252243	316.2	23.6	-77.0	0.0
2025-01-22 18:50:24.508663	316.6	23.3	-75.5	0.0
2025-01-22 18:50:26.763488	317.0	23.0	-77.2	0.0
2025-01-22 18:50:29.013331	317.4	22.8	-75.7	0.0
2025-01-22 18:50:31.267685	317.8	22.5	-76.1	0.0
2025-01-22 18:50:33.521795	318.1	22.3	-77.0	0.0
2025-01-22 18:50:35.769941	318.5	22.0	-73.4	0.0
2025-01-22 18:50:38.025984	318.9	21.7	-75.9	0.0
2025-01-22 18:50:40.276435	319.2	21.5	-77.2	0.0
2025-01-22 18:50:42.528442	319.6	21.2	-75.5	0.0
2025-01-22 18:50:44.784825	319.9	21.0	-76.9	0.0
2025-01-22 18:50:47.037342	320.3	20.7	-74.6	0.0
2025-01-22 18:50:49.288147	320.6	20.5	-78.0	0.0
2025-01-22 18:50:51.538419	320.9	20.2	-75.1	0.0
2025-01-22 18:50:53.789420	321.2	20.0	-75.8	0.0
2025-01-22 18:50:56.041079	321.6	19.7	-75.0	0.0
2025-01-22 18:50:58.292958	321.9	19.5	-73.5	0.0
2025-01-22 18:51:00.543826	322.2	19.3	-76.1	0.0
2025-01-22 18:51:02.795378	322.5	19.0	-77.3	0.0
2025-01-22 18:51:05.048849	322.8	18.8	-76.4	0.0
2025-01-22 18:51:07.305460	323.1	18.5	-72.9	0.0
2025-01-22 18:51:09.558595	323.4	18.3	-74.1	0.0
2025-01-22 18:51:11.810201	323.7	18.1	-73.7	0.0
2025-01-22 18:51:14.060457	323.9	17.8	-68.2	0.0
2025-01-22 18:51:16.311315	324.2	17.6	-69.9	0.0
2025-01-22 18:51:18.565079	324.5	17.4	-72.4	0.0
2025-01-22 18:51:20.818063	324.8	17.2	-68.7	0.0
2025-01-22 18:51:23.069644	325.0	16.9	-65.6	0.0
2025-01-22 18:51:25.322545	325.3	16.7	-74.3	0.0
2025-01-22 18:51:27.574550	325.5	16.5	-74.6	0.0
2025-01-22 18:51:29.829063	325.8	16.3	-66.9	0.0
2025-01-22 18:51:32.080690	326.1	16.1	-72.9	0.0
2025-01-22 18:51:34.333587	326.3	15.8	-71.9	0.0
2025-01-22 18:51:36.587366	326.5	15.6	-72.0	0.0
2025-01-22 18:51:38.836578	326.8	15.4	-73.4	0.0
2025-01-22 18:51:41.093461	327.0	15.2	-71.9	0.0
2025-01-22 18:51:43.345836	327.3	15.0	-71.0	0.0
2025-01-22 18:51:45.599481	327.5	14.8	-72.3	0.0
2025-01-22 18:51:47.852496	327.7	14.6	-69.4	0.0
2025-01-22 18:51:50.107276	327.9	14.4	-69.8	0.0
2025-01-22 18:51:52.365917	328.2	14.1	-70.4	0.0
2025-01-22 18:51:54.617482	328.4	13.9	-69.2	0.0
2025-01-22 18:51:56.868328	328.6	13.7	-72.3	0.0
2025-01-22 18:51:59.119165	328.8	13.5	-73.7	0.0
2025-01-22 18:52:01.373184	329.0	13.3	-67.5	0.0
2025-01-22 18:52:03.627120	329.2	13.1	-66.5	0.0
2025-01-22 18:52:05.877150	329.4	12.9	-69.1	0.0
2025-01-22 18:52:08.127803	329.6	12.7	-68.3	0.0
2025-01-22 18:52:10.382437	329.8	12.5	-75.4	0.0
2025-01-22 18:52:12.634955	330.0	12.4	-76.1	0.0
2025-01-22 18:52:14.888096	330.2	12.2	-76.8	0.0
2025-01-22 18:52:17.142450	330.4	12.0	-75.7	0.0
2025-01-22 18:52:19.398987	330.6	11.8	-70.4	0.0
2025-01-22 18:52:21.652025	330.8	11.6	-73.9	0.0
2025-01-22 18:52:23.903754	331.0	11.4	-69.2	0.0
2025-01-22 18:52:26.156604	331.2	11.2	-66.1	0.0
2025-01-22 18:52:28.410392	331.4	11.0	-65.6	0.0
2025-01-22 18:52:30.662432	331.5	10.8	-73.7	0.0
2025-01-22 18:52:32.914440	331.7	10.7	-77.7	0.0
2025-01-22 18:52:35.164121	331.9	10.5	-79.7	0.0
2025-01-22 18:52:37.414874	332.1	10.3	-81.4	0.0
2025-01-22 18:52:39.664585	332.2	10.1	-81.0	0.0
#Closed at: 2025-01-22 18:42:37.709397