passes_logs/2025/01/22/planumMaritime01/planumMaritime01__20250122_190114_METOP-B_rec.log

#Pass ID: 20250122_190114_METOP-B
#Satellite: METOP-B
#Configuration: METOP-B
#Start time: 2025-01-22 19:01:19.241287

#LorettStation: 1.0.0 05.05.2024
#Station: planumMaritime01
#Location: 37.49445 lon 55.92918 lat
#TLE: 1 38771U 12049A   25022.22192915  .00000342  00000+0  17605-3 0  9994
#TLE: 2 38771  98.6000  80.1937 0001632  73.2603 286.8754 14.21415579640663

#Time	Az	El	Level	SNR
2025-01-22 19:01:21.404608	207.9	10.2	-78.0	0.0
2025-01-22 19:01:23.656808	208.1	10.3	-77.8	0.0
2025-01-22 19:01:25.910226	208.3	10.5	-77.0	0.0
2025-01-22 19:01:28.164198	208.6	10.7	-77.3	0.0
2025-01-22 19:01:30.417152	208.8	10.8	-77.3	0.0
2025-01-22 19:01:32.671499	209.0	11.0	-77.6	0.0
2025-01-22 19:01:34.925508	209.3	11.2	-77.3	0.0
2025-01-22 19:01:37.178107	209.5	11.3	-77.6	0.0
2025-01-22 19:01:39.431582	209.8	11.5	-76.1	0.0
2025-01-22 19:01:41.686961	210.0	11.7	-77.1	0.0
2025-01-22 19:01:43.937593	210.3	11.9	-76.7	0.0
2025-01-22 19:01:46.192353	210.5	12.0	-77.3	0.0
2025-01-22 19:01:48.446374	210.8	12.2	-77.5	0.0
2025-01-22 19:01:50.702607	211.1	12.4	-77.6	0.0
2025-01-22 19:01:52.955748	211.3	12.6	-77.4	0.0
2025-01-22 19:01:55.208958	211.6	12.7	-78.1	0.0
2025-01-22 19:01:57.461430	211.9	12.9	-77.2	0.0
2025-01-22 19:01:59.715359	212.1	13.1	-78.0	0.0
2025-01-22 19:02:01.970366	212.4	13.3	-77.3	0.0
2025-01-22 19:02:04.222834	212.7	13.4	-77.5	0.0
2025-01-22 19:02:06.476242	213.0	13.6	-76.5	0.0
2025-01-22 19:02:08.728665	213.3	13.8	-77.3	0.0
2025-01-22 19:02:10.983096	213.6	14.0	-77.6	0.0
2025-01-22 19:02:13.238216	213.8	14.2	-78.0	0.0
2025-01-22 19:02:15.494717	214.1	14.4	-77.9	0.0
2025-01-22 19:02:17.748936	214.4	14.5	-78.5	0.0
2025-01-22 19:02:20.000562	214.7	14.7	-78.1	0.0
2025-01-22 19:02:22.254286	215.1	14.9	-78.3	0.0
2025-01-22 19:02:24.509456	215.4	15.1	-78.1	0.0
2025-01-22 19:02:26.761716	215.7	15.3	-77.9	0.0
2025-01-22 19:02:29.014547	216.0	15.5	-77.6	0.0
2025-01-22 19:02:31.270720	216.3	15.7	-78.3	0.0
2025-01-22 19:02:33.526113	216.7	15.8	-77.9	0.0
2025-01-22 19:02:35.780169	217.0	16.0	-78.1	0.0
2025-01-22 19:02:38.032930	217.3	16.2	-76.0	0.0
2025-01-22 19:02:40.289824	217.7	16.4	-77.0	0.0
2025-01-22 19:02:42.541412	218.0	16.6	-77.9	0.0
2025-01-22 19:02:44.796647	218.4	16.8	-76.9	0.0
2025-01-22 19:02:47.051399	218.7	17.0	-76.1	0.0
2025-01-22 19:02:49.303633	219.1	17.2	-76.4	0.0
2025-01-22 19:02:51.559489	219.4	17.4	-78.3	0.0
2025-01-22 19:02:53.813023	219.8	17.6	-78.5	0.0
2025-01-22 19:02:56.064949	220.2	17.7	-78.0	0.0
2025-01-22 19:02:58.318134	220.5	17.9	-78.2	0.0
2025-01-22 19:03:00.572536	220.9	18.1	-78.0	0.0
2025-01-22 19:03:02.827635	221.3	18.3	-77.7	0.0
2025-01-22 19:03:05.079635	221.7	18.5	-77.0	0.0
2025-01-22 19:03:07.334404	222.1	18.7	-77.2	0.0
2025-01-22 19:03:09.585912	222.5	18.9	-76.6	0.0
2025-01-22 19:03:11.837457	222.9	19.1	-78.0	0.0
2025-01-22 19:03:14.092159	223.3	19.3	-77.8	0.0
2025-01-22 19:03:16.344445	223.7	19.5	-76.9	0.0
2025-01-22 19:03:18.599360	224.1	19.7	-78.0	0.0
2025-01-22 19:03:20.853131	224.6	19.9	-77.0	0.0
2025-01-22 19:03:23.106450	225.0	20.1	-78.0	0.0
2025-01-22 19:03:25.360952	225.4	20.3	-77.2	0.0
2025-01-22 19:03:27.616405	225.9	20.5	-78.4	0.0
2025-01-22 19:03:29.869856	226.3	20.7	-77.7	0.0
2025-01-22 19:03:32.122711	226.8	20.9	-78.4	0.0
2025-01-22 19:03:34.376435	227.2	21.1	-78.2	0.0
2025-01-22 19:03:36.630762	227.7	21.3	-77.4	0.0
2025-01-22 19:03:38.884311	228.2	21.4	-78.4	0.0
2025-01-22 19:03:41.136620	228.6	21.6	-78.4	0.0
2025-01-22 19:03:43.389686	229.1	21.8	-78.4	0.0
2025-01-22 19:03:45.641306	229.6	22.0	-78.9	0.0
2025-01-22 19:03:47.893188	230.1	22.2	-79.0	0.0
2025-01-22 19:03:50.146659	230.6	22.4	-79.1	0.0
2025-01-22 19:03:52.399175	231.1	22.6	-78.5	0.0
2025-01-22 19:03:54.653891	231.6	22.8	-78.6	0.0
2025-01-22 19:03:56.907785	232.1	23.0	-78.7	0.0
2025-01-22 19:03:59.161305	232.7	23.2	-78.1	0.0
2025-01-22 19:04:01.415310	233.2	23.3	-79.0	0.0
2025-01-22 19:04:03.671476	233.7	23.5	-79.1	0.0
2025-01-22 19:04:05.923172	234.3	23.7	-79.3	0.0
2025-01-22 19:04:08.177192	234.8	23.9	-79.0	0.0
2025-01-22 19:04:10.429701	235.4	24.1	-79.6	0.0
2025-01-22 19:04:12.681640	235.9	24.3	-78.8	0.0
2025-01-22 19:04:14.933677	236.5	24.4	-79.2	0.0
2025-01-22 19:04:17.185780	237.1	24.6	-79.1	0.0
2025-01-22 19:04:19.441411	237.6	24.8	-79.4	0.0
2025-01-22 19:04:21.692939	238.2	25.0	-79.4	0.0
2025-01-22 19:04:23.944106	238.8	25.1	-78.6	0.0
2025-01-22 19:04:26.197639	239.4	25.3	-80.0	0.0
2025-01-22 19:04:28.453776	240.0	25.5	-79.6	0.0
2025-01-22 19:04:30.705696	240.6	25.6	-79.9	0.0
2025-01-22 19:04:32.960473	241.2	25.8	-79.9	0.0
2025-01-22 19:04:35.215218	241.9	25.9	-79.9	0.0
2025-01-22 19:04:37.465549	242.5	26.1	-80.1	0.0
2025-01-22 19:04:39.720483	243.1	26.2	-79.9	0.0
2025-01-22 19:04:41.972682	243.8	26.4	-80.0	0.0
2025-01-22 19:04:44.226036	244.4	26.5	-80.2	0.0
2025-01-22 19:04:46.478328	245.1	26.7	-79.9	0.0
2025-01-22 19:04:48.733007	245.7	26.8	-79.7	0.0
2025-01-22 19:04:50.986977	246.4	27.0	-79.1	0.0
2025-01-22 19:04:53.241640	247.1	27.1	-79.9	0.0
2025-01-22 19:04:55.493033	247.7	27.2	-79.9	0.0
2025-01-22 19:04:57.745606	248.4	27.4	-79.9	0.0
2025-01-22 19:04:59.999271	249.1	27.5	-78.9	0.0
2025-01-22 19:05:02.252637	249.8	27.6	-80.0	0.0
2025-01-22 19:05:04.505475	250.5	27.7	-79.9	0.0
2025-01-22 19:05:06.760495	251.2	27.8	-79.8	0.0
2025-01-22 19:05:09.014976	251.9	27.9	-79.3	0.0
2025-01-22 19:05:11.269828	252.6	28.0	-80.0	0.0
2025-01-22 19:05:13.523680	253.3	28.1	-80.0	0.0
2025-01-22 19:05:15.777539	254.0	28.2	-80.0	0.0
2025-01-22 19:05:18.031176	254.8	28.3	-79.3	0.0
2025-01-22 19:05:20.285006	255.5	28.4	-80.0	0.0
2025-01-22 19:05:22.539632	256.2	28.5	-80.0	0.0
2025-01-22 19:05:24.794870	256.9	28.6	-80.4	0.0
2025-01-22 19:05:27.047043	257.7	28.6	-80.2	0.0
2025-01-22 19:05:29.300971	258.4	28.7	-80.2	0.0
2025-01-22 19:05:31.554663	259.2	28.8	-80.2	0.0
2025-01-22 19:05:33.807671	259.9	28.8	-80.0	0.0
2025-01-22 19:05:36.061986	260.7	28.9	-79.2	0.0
2025-01-22 19:05:38.316479	261.4	28.9	-80.2	0.0
2025-01-22 19:05:40.567553	262.2	29.0	-79.1	0.0
2025-01-22 19:05:42.821232	262.9	29.0	-79.9	0.0
2025-01-22 19:05:45.074703	263.7	29.0	-80.1	0.0
2025-01-22 19:05:47.327920	264.4	29.1	-80.3	0.0
2025-01-22 19:05:49.583781	265.2	29.1	-80.3	0.0
2025-01-22 19:05:51.835239	265.9	29.1	-79.7	0.0
2025-01-22 19:05:54.088582	266.7	29.1	-79.8	0.0
2025-01-22 19:05:56.344086	267.4	29.1	-80.2	0.0
2025-01-22 19:05:58.599979	268.2	29.1	-80.4	0.0
2025-01-22 19:06:00.853309	269.0	29.1	-79.8	0.0
2025-01-22 19:06:03.107166	269.7	29.1	-78.3	0.0
2025-01-22 19:06:05.365956	270.5	29.1	-79.6	0.0
2025-01-22 19:06:07.618416	271.2	29.0	-79.5	0.0
2025-01-22 19:06:09.872156	272.0	29.0	-78.9	0.0
2025-01-22 19:06:12.125644	272.7	29.0	-79.0	0.0
2025-01-22 19:06:14.379410	273.5	28.9	-79.7	0.0
2025-01-22 19:06:16.632604	274.2	28.9	-79.4	0.0
2025-01-22 19:06:18.884151	275.0	28.8	-78.7	0.0
2025-01-22 19:06:21.135274	275.7	28.8	-79.6	0.0
2025-01-22 19:06:23.388772	276.5	28.7	-78.8	0.0
2025-01-22 19:06:25.641050	277.2	28.7	-78.9	0.0
2025-01-22 19:06:27.894005	278.0	28.6	-79.3	0.0
2025-01-22 19:06:30.149076	278.7	28.5	-79.3	0.0
2025-01-22 19:06:32.403236	279.4	28.4	-79.6	0.0
2025-01-22 19:06:34.656648	280.1	28.4	-79.1	0.0
2025-01-22 19:06:36.907055	280.9	28.3	-79.7	0.0
2025-01-22 19:06:39.161674	281.6	28.2	-79.9	0.0
2025-01-22 19:06:41.414942	282.3	28.1	-79.4	0.0
2025-01-22 19:06:43.668493	283.0	28.0	-79.9	0.0
2025-01-22 19:06:45.923057	283.7	27.9	-79.4	0.0
2025-01-22 19:06:48.178702	284.4	27.8	-79.6	0.0
2025-01-22 19:06:50.429582	285.1	27.7	-80.0	0.0
2025-01-22 19:06:52.684463	285.8	27.5	-79.2	0.0
2025-01-22 19:06:54.938922	286.5	27.4	-79.3	0.0
2025-01-22 19:06:57.193750	287.2	27.3	-79.0	0.0
2025-01-22 19:06:59.450571	287.8	27.2	-79.2	0.0
2025-01-22 19:07:01.702205	288.5	27.0	-78.9	0.0
2025-01-22 19:07:03.955335	289.2	26.9	-79.5	0.0
2025-01-22 19:07:06.208290	289.8	26.8	-79.4	0.0
2025-01-22 19:07:08.462818	290.5	26.6	-78.9	0.0
2025-01-22 19:07:10.713432	291.1	26.5	-78.6	0.0
2025-01-22 19:07:12.967612	291.8	26.3	-78.8	0.0
2025-01-22 19:07:15.219710	292.4	26.2	-79.3	0.0
2025-01-22 19:07:17.477950	293.0	26.0	-77.3	0.0
2025-01-22 19:07:19.731409	293.7	25.9	-78.9	0.0
2025-01-22 19:07:21.984410	294.3	25.7	-78.9	0.0
2025-01-22 19:07:24.236124	294.9	25.5	-78.5	0.0
2025-01-22 19:07:26.491360	295.5	25.4	-78.7	0.0
2025-01-22 19:07:28.744580	296.1	25.2	-76.8	0.0
2025-01-22 19:07:30.999721	296.7	25.0	-77.6	0.0
2025-01-22 19:07:33.248208	297.3	24.9	-76.8	0.0
2025-01-22 19:07:35.503343	297.8	24.7	-77.6	0.0
2025-01-22 19:07:37.759568	298.4	24.5	-77.0	0.0
2025-01-22 19:07:40.012566	299.0	24.4	-77.7	0.0
2025-01-22 19:07:42.265855	299.5	24.2	-76.8	0.0
2025-01-22 19:07:44.520123	300.1	24.0	-73.8	0.0
2025-01-22 19:07:46.772311	300.6	23.8	-76.6	0.0
2025-01-22 19:07:49.023683	301.2	23.6	-77.7	0.0
2025-01-22 19:07:51.275184	301.7	23.5	-77.8	0.0
2025-01-22 19:07:53.527763	302.3	23.3	-76.5	0.0
2025-01-22 19:07:55.778713	302.8	23.1	-77.2	0.0
2025-01-22 19:07:58.032268	303.3	22.9	-76.8	0.0
2025-01-22 19:08:00.283378	303.8	22.7	-76.6	0.0
2025-01-22 19:08:02.534594	304.3	22.5	-75.8	0.0
2025-01-22 19:08:04.787471	304.8	22.3	-77.0	0.0
2025-01-22 19:08:07.040940	305.3	22.1	-77.5	0.0
2025-01-22 19:08:09.294668	305.8	22.0	-77.8	0.0
2025-01-22 19:08:11.546654	306.3	21.8	-77.8	0.0
2025-01-22 19:08:13.798301	306.7	21.6	-76.4	0.0
2025-01-22 19:08:16.050380	307.2	21.4	-76.7	0.0
2025-01-22 19:08:18.306341	307.7	21.2	-77.1	0.0
2025-01-22 19:08:20.563199	308.1	21.0	-76.3	0.0
2025-01-22 19:08:22.816170	308.6	20.8	-77.4	0.0
2025-01-22 19:08:25.068818	309.0	20.6	-75.5	0.0
2025-01-22 19:08:27.324216	309.5	20.4	-74.4	0.0
2025-01-22 19:08:29.579883	309.9	20.2	-77.3	0.0
2025-01-22 19:08:31.833325	310.4	20.0	-77.1	0.0
2025-01-22 19:08:34.087040	310.8	19.8	-76.4	0.0
2025-01-22 19:08:36.338253	311.2	19.6	-76.7	0.0
2025-01-22 19:08:38.593473	311.6	19.5	-75.0	0.0
2025-01-22 19:08:40.846282	312.0	19.3	-76.5	0.0
2025-01-22 19:08:43.099761	312.4	19.1	-77.3	0.0
2025-01-22 19:08:45.354375	312.8	18.9	-76.4	0.0
2025-01-22 19:08:47.607414	313.2	18.7	-76.8	0.0
2025-01-22 19:08:49.864242	313.6	18.5	-76.2	0.0
2025-01-22 19:08:52.117340	314.0	18.3	-76.6	0.0
2025-01-22 19:08:54.372369	314.4	18.1	-76.1	0.0
2025-01-22 19:08:56.627224	314.8	17.9	-77.0	0.0
2025-01-22 19:08:58.880167	315.1	17.7	-75.9	0.0
2025-01-22 19:09:01.134693	315.5	17.5	-76.3	0.0
2025-01-22 19:09:03.390235	315.9	17.3	-74.9	0.0
2025-01-22 19:09:05.644321	316.2	17.1	-75.3	0.0
2025-01-22 19:09:07.897477	316.6	17.0	-75.4	0.0
2025-01-22 19:09:10.150209	316.9	16.8	-75.3	0.0
2025-01-22 19:09:12.403580	317.3	16.6	-74.3	0.0
2025-01-22 19:09:14.658993	317.6	16.4	-74.7	0.0
2025-01-22 19:09:16.912442	318.0	16.2	-74.4	0.0
2025-01-22 19:09:19.166230	318.3	16.0	-74.6	0.0
2025-01-22 19:09:21.416968	318.6	15.8	-74.2	0.0
2025-01-22 19:09:23.670743	318.9	15.6	-73.3	0.0
2025-01-22 19:09:25.922887	319.3	15.5	-75.1	0.0
2025-01-22 19:09:28.179068	319.6	15.3	-74.2	0.0
2025-01-22 19:09:30.432983	319.9	15.1	-75.4	0.0
2025-01-22 19:09:32.684733	320.2	14.9	-74.5	0.0
2025-01-22 19:09:34.935980	320.5	14.7	-74.9	0.0
2025-01-22 19:09:37.191793	320.8	14.5	-69.2	0.0
2025-01-22 19:09:39.444344	321.1	14.4	-73.2	0.0
2025-01-22 19:09:41.698157	321.4	14.2	-73.3	0.0
2025-01-22 19:09:43.951263	321.7	14.0	-72.8	0.0
2025-01-22 19:09:46.204678	322.0	13.8	-75.9	0.0
2025-01-22 19:09:48.457067	322.3	13.6	-73.2	0.0
2025-01-22 19:09:50.710702	322.6	13.5	-75.6	0.0
2025-01-22 19:09:52.961921	322.8	13.3	-71.4	0.0
2025-01-22 19:09:55.213999	323.1	13.1	-77.6	0.0
2025-01-22 19:09:57.467578	323.4	12.9	-76.4	0.0
2025-01-22 19:09:59.718790	323.6	12.8	-77.2	0.0
2025-01-22 19:10:01.971571	323.9	12.6	-76.1	0.0
2025-01-22 19:10:04.225964	324.2	12.4	-76.8	0.0
2025-01-22 19:10:06.477607	324.4	12.2	-72.2	0.0
2025-01-22 19:10:08.733271	324.7	12.1	-70.2	0.0
2025-01-22 19:10:10.984963	324.9	11.9	-73.5	0.0
2025-01-22 19:10:13.237220	325.2	11.7	-70.8	0.0
2025-01-22 19:10:15.491283	325.4	11.5	-73.9	0.0
2025-01-22 19:10:17.742285	325.7	11.4	-74.0	0.0
2025-01-22 19:10:19.996635	325.9	11.2	-75.9	0.0
2025-01-22 19:10:22.250819	326.2	11.0	-72.1	0.0
2025-01-22 19:10:24.501782	326.4	10.9	-76.8	0.0
2025-01-22 19:10:26.755059	326.7	10.7	-75.8	0.0
2025-01-22 19:10:29.007237	326.9	10.5	-79.7	0.0
2025-01-22 19:10:31.261909	327.1	10.4	-81.1	0.0
2025-01-22 19:10:33.515000	327.3	10.2	-81.0	0.0
2025-01-22 19:10:35.766867	327.6	10.0	-80.5	0.0
#Closed at: 2025-01-22 19:01:14.242398