passes_logs/2025/01/22/planumMaritime01/planumMaritime01__20250122_082605_METOP-C_rec.log

#Pass ID: 20250122_082605_METOP-C
#Satellite: METOP-C
#Configuration: METOP-C
#Start time: 2025-01-22 08:26:10.445357

#LorettStation: 1.0.0 05.05.2024
#Station: planumMaritime01
#Location: 37.49445 lon 55.92918 lat
#TLE: 1 43689U 18087A   25021.13484048  .00000355  00000+0  18225-3 0  9999
#TLE: 2 43689  98.6955  83.5353 0001694 153.0622 207.0643 14.21485654322087

#Time	Az	El	Level	SNR
2025-01-22 08:26:12.599522	9.9	10.2	-71.3	0.0
2025-01-22 08:26:14.851612	9.8	10.4	-68.6	0.0
2025-01-22 08:26:17.102191	9.6	10.6	-67.8	0.0
2025-01-22 08:26:19.356162	9.5	10.8	-68.1	0.0
2025-01-22 08:26:21.612514	9.4	11.0	-70.3	0.0
2025-01-22 08:26:23.866269	9.3	11.2	-70.9	0.0
2025-01-22 08:26:26.121416	9.2	11.4	-69.5	0.0
2025-01-22 08:26:28.374463	9.1	11.6	-70.7	0.0
2025-01-22 08:26:30.630374	9.0	11.8	-70.3	0.0
2025-01-22 08:26:32.884444	8.9	12.0	-69.9	0.0
2025-01-22 08:26:35.136455	8.8	12.2	-68.6	0.0
2025-01-22 08:26:37.387914	8.7	12.4	-68.6	0.0
2025-01-22 08:26:39.638020	8.5	12.6	-71.1	0.0
2025-01-22 08:26:41.893305	8.4	12.8	-70.9	0.0
2025-01-22 08:26:44.148167	8.3	13.0	-68.9	0.0
2025-01-22 08:26:46.399502	8.2	13.2	-70.4	0.0
2025-01-22 08:26:48.652194	8.0	13.4	-68.4	0.0
2025-01-22 08:26:50.902531	7.9	13.6	-69.0	0.0
2025-01-22 08:26:53.156147	7.8	13.9	-68.5	0.0
2025-01-22 08:26:55.409191	7.7	14.1	-68.6	0.0
2025-01-22 08:26:57.663687	7.5	14.3	-69.0	0.0
2025-01-22 08:26:59.918669	7.4	14.5	-68.1	0.0
2025-01-22 08:27:02.172517	7.2	14.8	-70.2	0.0
2025-01-22 08:27:04.424820	7.1	15.0	-68.6	0.0
2025-01-22 08:27:06.677073	7.0	15.2	-70.6	0.0
2025-01-22 08:27:08.929729	6.8	15.5	-73.0	0.0
2025-01-22 08:27:11.183361	6.7	15.7	-69.9	0.0
2025-01-22 08:27:13.435993	6.5	15.9	-70.8	0.0
2025-01-22 08:27:15.689057	6.4	16.2	-70.4	0.0
2025-01-22 08:27:17.939500	6.2	16.4	-69.9	0.0
2025-01-22 08:27:20.191755	6.0	16.6	-68.5	0.0
2025-01-22 08:27:22.444355	5.9	16.9	-68.8	0.0
2025-01-22 08:27:24.698118	5.7	17.1	-70.7	0.0
2025-01-22 08:27:26.952884	5.5	17.4	-69.2	0.0
2025-01-22 08:27:29.207697	5.4	17.6	-70.6	0.0
2025-01-22 08:27:31.458537	5.2	17.9	-70.9	0.0
2025-01-22 08:27:33.709706	5.0	18.1	-70.8	0.0
2025-01-22 08:27:35.963954	4.8	18.4	-70.5	0.0
2025-01-22 08:27:38.220240	4.7	18.7	-72.1	0.0
2025-01-22 08:27:40.470479	4.5	18.9	-69.8	0.0
2025-01-22 08:27:42.723717	4.3	19.2	-69.7	0.0
2025-01-22 08:27:44.979816	4.1	19.5	-72.6	0.0
2025-01-22 08:27:47.235282	3.9	19.7	-70.7	0.0
2025-01-22 08:27:49.488401	3.7	20.0	-71.6	0.0
2025-01-22 08:27:51.742206	3.5	20.3	-68.1	0.0
2025-01-22 08:27:53.994903	3.3	20.6	-70.4	0.0
2025-01-22 08:27:56.249662	3.1	20.9	-68.2	0.0
2025-01-22 08:27:58.502414	2.9	21.1	-69.3	0.0
2025-01-22 08:28:00.757494	2.6	21.4	-69.5	0.0
2025-01-22 08:28:03.010795	2.4	21.7	-70.2	0.0
2025-01-22 08:28:05.262576	2.2	22.0	-68.5	0.0
2025-01-22 08:28:07.514574	2.0	22.3	-68.6	0.0
2025-01-22 08:28:09.766961	1.7	22.6	-69.6	0.0
2025-01-22 08:28:12.021949	1.5	22.9	-70.4	0.0
2025-01-22 08:28:14.275380	1.2	23.2	-69.7	0.0
2025-01-22 08:28:16.526121	1.0	23.5	-71.8	0.0
2025-01-22 08:28:18.778563	0.7	23.8	-70.2	0.0
2025-01-22 08:28:21.030748	0.4	24.2	-71.6	0.0
2025-01-22 08:28:23.285459	0.2	24.5	-71.8	0.0
2025-01-22 08:28:25.538285	359.9	24.8	-71.6	0.0
2025-01-22 08:28:27.793928	359.6	25.1	-70.8	0.0
2025-01-22 08:28:30.046857	359.3	25.5	-71.0	0.0
2025-01-22 08:28:32.300557	359.0	25.8	-71.8	0.0
2025-01-22 08:28:34.555758	358.7	26.1	-72.5	0.0
2025-01-22 08:28:36.810297	358.4	26.5	-72.8	0.0
2025-01-22 08:28:39.064293	358.1	26.8	-73.1	0.0
2025-01-22 08:28:41.315787	357.8	27.1	-73.2	0.0
2025-01-22 08:28:43.569998	357.5	27.5	-72.7	0.0
2025-01-22 08:28:45.822067	357.1	27.8	-74.4	0.0
2025-01-22 08:28:48.075268	356.8	28.2	-71.6	0.0
2025-01-22 08:28:50.328181	356.4	28.6	-73.5	0.0
2025-01-22 08:28:52.583706	356.1	28.9	-72.6	0.0
2025-01-22 08:28:54.836668	355.7	29.3	-73.0	0.0
2025-01-22 08:28:57.090759	355.3	29.7	-73.3	0.0
2025-01-22 08:28:59.344206	355.0	30.0	-72.4	0.0
2025-01-22 08:29:01.598216	354.6	30.4	-74.1	0.0
2025-01-22 08:29:03.852013	354.2	30.8	-74.0	0.0
2025-01-22 08:29:06.105057	353.7	31.2	-72.5	0.0
2025-01-22 08:29:08.356997	353.3	31.6	-74.8	0.0
2025-01-22 08:29:10.610997	352.9	31.9	-74.2	0.0
2025-01-22 08:29:12.864329	352.4	32.3	-74.7	0.0
2025-01-22 08:29:15.117237	352.0	32.7	-73.5	0.0
2025-01-22 08:29:17.366787	351.5	33.1	-76.1	0.0
2025-01-22 08:29:19.620997	351.0	33.5	-75.2	0.0
2025-01-22 08:29:21.873374	350.6	33.9	-73.8	0.0
2025-01-22 08:29:24.124876	350.0	34.3	-75.1	0.0
2025-01-22 08:29:26.378264	349.5	34.8	-74.5	0.0
2025-01-22 08:29:28.631106	349.0	35.2	-76.6	0.0
2025-01-22 08:29:30.883729	348.5	35.6	-76.7	0.0
2025-01-22 08:29:33.137484	347.9	36.0	-76.7	0.0
2025-01-22 08:29:35.391832	347.3	36.4	-75.0	0.0
2025-01-22 08:29:37.649242	346.7	36.8	-77.8	0.0
2025-01-22 08:29:39.902582	346.1	37.3	-77.0	0.0
2025-01-22 08:29:42.156869	345.5	37.7	-76.1	0.0
2025-01-22 08:29:44.408612	344.9	38.1	-77.8	0.0
2025-01-22 08:29:46.663418	344.2	38.6	-77.7	0.0
2025-01-22 08:29:48.914861	343.5	39.0	-77.6	0.0
2025-01-22 08:29:51.167482	342.9	39.4	-77.1	0.0
2025-01-22 08:29:53.421818	342.1	39.9	-77.5	0.0
2025-01-22 08:29:55.673145	341.4	40.3	-77.6	0.0
2025-01-22 08:29:57.925936	340.7	40.7	-78.7	0.0
2025-01-22 08:30:00.179116	339.9	41.1	-77.4	0.0
2025-01-22 08:30:02.433649	339.1	41.6	-77.1	0.0
2025-01-22 08:30:04.689774	338.3	42.0	-78.5	0.0
2025-01-22 08:30:06.944809	337.5	42.4	-78.7	0.0
2025-01-22 08:30:09.197507	336.6	42.9	-79.0	0.0
2025-01-22 08:30:11.451919	335.7	43.3	-77.7	0.0
2025-01-22 08:30:13.704434	334.8	43.7	-79.4	0.0
2025-01-22 08:30:15.958183	333.9	44.1	-78.7	0.0
2025-01-22 08:30:18.212528	332.9	44.5	-78.4	0.0
2025-01-22 08:30:20.466621	332.0	44.9	-78.7	0.0
2025-01-22 08:30:22.719429	331.0	45.3	-76.3	0.0
2025-01-22 08:30:24.973402	329.9	45.7	-78.2	0.0
2025-01-22 08:30:27.226712	328.9	46.1	-76.7	0.0
2025-01-22 08:30:29.477471	327.8	46.5	-78.3	0.0
2025-01-22 08:30:31.730853	326.7	46.9	-77.3	0.0
2025-01-22 08:30:33.986248	325.6	47.3	-78.6	0.0
2025-01-22 08:30:36.238025	324.4	47.6	-78.3	0.0
2025-01-22 08:30:38.488929	323.2	48.0	-77.1	0.0
2025-01-22 08:30:40.739773	322.0	48.3	-78.8	0.0
2025-01-22 08:30:42.991450	320.8	48.6	-77.8	0.0
2025-01-22 08:30:45.245160	319.5	48.9	-79.1	0.0
2025-01-22 08:30:47.497241	318.2	49.2	-77.6	0.0
2025-01-22 08:30:49.746915	316.9	49.5	-77.0	0.0
2025-01-22 08:30:51.999762	315.5	49.8	-77.6	0.0
2025-01-22 08:30:54.247556	314.2	50.0	-77.6	0.0
2025-01-22 08:30:56.500979	312.8	50.3	-79.1	0.0
2025-01-22 08:30:58.754593	311.4	50.5	-79.3	0.0
2025-01-22 08:31:01.007762	310.0	50.7	-78.6	0.0
2025-01-22 08:31:03.260710	308.5	50.9	-78.3	0.0
2025-01-22 08:31:05.513362	307.0	51.0	-79.0	0.0
2025-01-22 08:31:07.765048	305.6	51.2	-79.2	0.0
2025-01-22 08:31:10.018585	304.1	51.3	-79.2	0.0
2025-01-22 08:31:12.271652	302.6	51.4	-78.9	0.0
2025-01-22 08:31:14.524021	301.1	51.5	-78.2	0.0
2025-01-22 08:31:16.773874	299.5	51.5	-78.4	0.0
2025-01-22 08:31:19.025711	298.0	51.6	-78.9	0.0
2025-01-22 08:31:21.277875	296.5	51.6	-79.1	0.0
2025-01-22 08:31:23.532064	294.9	51.6	-79.2	0.0
2025-01-22 08:31:25.784445	293.4	51.6	-79.7	0.0
2025-01-22 08:31:28.039533	291.9	51.5	-79.4	0.0
2025-01-22 08:31:30.292514	290.4	51.5	-79.3	0.0
2025-01-22 08:31:32.545615	288.8	51.4	-79.0	0.0
2025-01-22 08:31:34.798240	287.3	51.3	-79.5	0.0
2025-01-22 08:31:37.047668	285.9	51.2	-79.6	0.0
2025-01-22 08:31:39.298657	284.4	51.0	-80.0	0.0
2025-01-22 08:31:41.552974	282.9	50.9	-80.1	0.0
2025-01-22 08:31:43.809948	281.5	50.7	-79.9	0.0
2025-01-22 08:31:46.062174	280.0	50.5	-80.3	0.0
2025-01-22 08:31:48.316474	278.6	50.3	-80.1	0.0
2025-01-22 08:31:50.565537	277.2	50.0	-80.0	0.0
2025-01-22 08:31:52.819786	275.9	49.8	-79.7	0.0
2025-01-22 08:31:55.070615	274.5	49.5	-80.2	0.0
2025-01-22 08:31:57.323176	273.2	49.2	-80.2	0.0
2025-01-22 08:31:59.575809	271.9	48.9	-80.1	0.0
2025-01-22 08:32:01.825987	270.6	48.6	-80.0	0.0
2025-01-22 08:32:04.078833	269.4	48.3	-80.4	0.0
2025-01-22 08:32:06.331562	268.2	47.9	-80.0	0.0
2025-01-22 08:32:08.583462	267.0	47.6	-80.4	0.0
2025-01-22 08:32:10.834973	265.8	47.2	-80.4	0.0
2025-01-22 08:32:13.085667	264.7	46.9	-80.7	0.0
2025-01-22 08:32:15.337695	263.6	46.5	-80.4	0.0
2025-01-22 08:32:17.588020	262.5	46.1	-80.6	0.0
2025-01-22 08:32:19.839198	261.4	45.7	-80.2	0.0
2025-01-22 08:32:22.093025	260.4	45.3	-80.7	0.0
2025-01-22 08:32:24.346574	259.4	44.9	-80.5	0.0
2025-01-22 08:32:26.598568	258.4	44.5	-80.6	0.0
2025-01-22 08:32:28.851685	257.5	44.1	-80.5	0.0
2025-01-22 08:32:31.103651	256.5	43.7	-80.5	0.0
2025-01-22 08:32:33.357798	255.6	43.3	-80.9	0.0
2025-01-22 08:32:35.609633	254.7	42.8	-80.7	0.0
2025-01-22 08:32:37.861707	253.9	42.4	-80.0	0.0
2025-01-22 08:32:40.115272	253.1	42.0	-79.8	0.0
2025-01-22 08:32:42.371124	252.2	41.5	-80.1	0.0
2025-01-22 08:32:44.624524	251.4	41.1	-80.1	0.0
2025-01-22 08:32:46.879834	250.7	40.7	-80.4	0.0
2025-01-22 08:32:49.135790	249.9	40.2	-79.9	0.0
2025-01-22 08:32:51.389343	249.2	39.8	-80.5	0.0
2025-01-22 08:32:53.645272	248.5	39.4	-80.4	0.0
2025-01-22 08:32:55.897455	247.8	38.9	-80.1	0.0
2025-01-22 08:32:58.150768	247.1	38.5	-79.7	0.0
2025-01-22 08:33:00.403604	246.5	38.1	-80.3	0.0
2025-01-22 08:33:02.655593	245.8	37.7	-80.4	0.0
2025-01-22 08:33:04.908139	245.2	37.2	-80.0	0.0
2025-01-22 08:33:07.159751	244.6	36.8	-80.3	0.0
2025-01-22 08:33:09.411146	244.0	36.4	-80.2	0.0
2025-01-22 08:33:11.666363	243.4	35.9	-79.9	0.0
2025-01-22 08:33:13.918421	242.9	35.5	-79.7	0.0
2025-01-22 08:33:16.172644	242.3	35.1	-79.6	0.0
2025-01-22 08:33:18.427650	241.8	34.7	-80.1	0.0
2025-01-22 08:33:20.681471	241.3	34.3	-80.2	0.0
2025-01-22 08:33:22.931525	240.8	33.9	-80.3	0.0
2025-01-22 08:33:25.185552	240.3	33.5	-79.8	0.0
2025-01-22 08:33:27.437401	239.8	33.1	-79.8	0.0
2025-01-22 08:33:29.692781	239.3	32.7	-79.8	0.0
2025-01-22 08:33:31.948103	238.9	32.3	-79.8	0.0
2025-01-22 08:33:34.201418	238.4	31.9	-79.2	0.0
2025-01-22 08:33:36.456049	238.0	31.5	-78.6	0.0
2025-01-22 08:33:38.709382	237.5	31.1	-79.0	0.0
2025-01-22 08:33:40.962181	237.1	30.7	-80.0	0.0
2025-01-22 08:33:43.212975	236.7	30.3	-79.8	0.0
2025-01-22 08:33:45.466010	236.3	29.9	-79.9	0.0
2025-01-22 08:33:47.718570	235.9	29.6	-79.6	0.0
2025-01-22 08:33:49.971666	235.6	29.2	-79.7	0.0
2025-01-22 08:33:52.227557	235.2	28.8	-79.1	0.0
2025-01-22 08:33:54.480510	234.8	28.5	-79.3	0.0
2025-01-22 08:33:56.733051	234.5	28.1	-78.9	0.0
2025-01-22 08:33:58.984146	234.1	27.8	-79.4	0.0
2025-01-22 08:34:01.236638	233.8	27.4	-78.9	0.0
2025-01-22 08:34:03.490473	233.5	27.0	-78.8	0.0
2025-01-22 08:34:05.744368	233.2	26.7	-78.9	0.0
2025-01-22 08:34:07.995959	232.8	26.4	-78.8	0.0
2025-01-22 08:34:10.248252	232.5	26.0	-79.0	0.0
2025-01-22 08:34:12.498905	232.2	25.7	-79.0	0.0
2025-01-22 08:34:14.751282	231.9	25.3	-78.7	0.0
2025-01-22 08:34:17.004627	231.6	25.0	-78.9	0.0
2025-01-22 08:34:19.255693	231.4	24.7	-78.9	0.0
2025-01-22 08:34:21.508184	231.1	24.4	-78.9	0.0
2025-01-22 08:34:23.759111	230.8	24.0	-78.8	0.0
2025-01-22 08:34:26.011834	230.5	23.7	-79.2	0.0
2025-01-22 08:34:28.262770	230.3	23.4	-79.0	0.0
2025-01-22 08:34:30.512759	230.0	23.1	-78.9	0.0
2025-01-22 08:34:32.765707	229.8	22.8	-79.3	0.0
2025-01-22 08:34:35.019923	229.5	22.5	-78.3	0.0
2025-01-22 08:34:37.270565	229.3	22.2	-79.0	0.0
2025-01-22 08:34:39.523770	229.1	21.9	-78.7	0.0
2025-01-22 08:34:41.775877	228.8	21.6	-78.4	0.0
2025-01-22 08:34:44.028125	228.6	21.3	-78.3	0.0
2025-01-22 08:34:46.283810	228.4	21.0	-79.1	0.0
2025-01-22 08:34:48.537197	228.2	20.7	-78.9	0.0
2025-01-22 08:34:50.788589	227.9	20.5	-78.8	0.0
2025-01-22 08:34:53.038609	227.7	20.2	-78.8	0.0
2025-01-22 08:34:55.291209	227.5	19.9	-78.5	0.0
2025-01-22 08:34:57.542034	227.3	19.6	-78.9	0.0
2025-01-22 08:34:59.792375	227.1	19.3	-79.0	0.0
2025-01-22 08:35:02.042717	226.9	19.1	-79.3	0.0
2025-01-22 08:35:04.295300	226.7	18.8	-79.0	0.0
2025-01-22 08:35:06.549843	226.6	18.5	-78.8	0.0
2025-01-22 08:35:08.803915	226.4	18.3	-79.1	0.0
2025-01-22 08:35:11.057887	226.2	18.0	-78.7	0.0
2025-01-22 08:35:13.312666	226.0	17.8	-78.7	0.0
2025-01-22 08:35:15.563147	225.8	17.5	-78.7	0.0
2025-01-22 08:35:17.814517	225.7	17.3	-78.7	0.0
2025-01-22 08:35:20.066379	225.5	17.0	-78.9	0.0
2025-01-22 08:35:22.321186	225.3	16.8	-78.1	0.0
2025-01-22 08:35:24.573684	225.2	16.5	-78.3	0.0
2025-01-22 08:35:26.827501	225.0	16.3	-77.1	0.0
2025-01-22 08:35:29.079895	224.9	16.0	-78.5	0.0
2025-01-22 08:35:31.330727	224.7	15.8	-78.8	0.0
2025-01-22 08:35:33.582393	224.5	15.5	-77.5	0.0
2025-01-22 08:35:35.831663	224.4	15.3	-77.8	0.0
2025-01-22 08:35:38.083638	224.2	15.1	-78.6	0.0
2025-01-22 08:35:40.334701	224.1	14.8	-78.3	0.0
2025-01-22 08:35:42.589074	224.0	14.6	-78.3	0.0
2025-01-22 08:35:44.842742	223.8	14.4	-77.3	0.0
2025-01-22 08:35:47.095857	223.7	14.2	-77.3	0.0
2025-01-22 08:35:49.347358	223.5	13.9	-78.4	0.0
2025-01-22 08:35:51.599801	223.4	13.7	-78.1	0.0
2025-01-22 08:35:53.853309	223.3	13.5	-77.5	0.0
2025-01-22 08:35:56.106551	223.1	13.3	-78.5	0.0
2025-01-22 08:35:58.357101	223.0	13.1	-78.1	0.0
2025-01-22 08:36:00.610456	222.9	12.9	-77.8	0.0
2025-01-22 08:36:02.864961	222.8	12.6	-78.4	0.0
2025-01-22 08:36:05.118715	222.6	12.4	-78.0	0.0
2025-01-22 08:36:07.370726	222.5	12.2	-78.7	0.0
2025-01-22 08:36:09.622292	222.4	12.0	-78.4	0.0
2025-01-22 08:36:11.875505	222.3	11.8	-77.9	0.0
2025-01-22 08:36:14.128445	222.2	11.6	-78.2	0.0
2025-01-22 08:36:16.377526	222.1	11.4	-78.0	0.0
2025-01-22 08:36:18.629923	221.9	11.2	-78.4	0.0
2025-01-22 08:36:20.883660	221.8	11.0	-78.7	0.0
2025-01-22 08:36:23.136682	221.7	10.8	-79.2	0.0
2025-01-22 08:36:25.387899	221.6	10.6	-80.0	0.0
2025-01-22 08:36:27.642855	221.5	10.4	-80.8	0.0
2025-01-22 08:36:29.894516	221.4	10.2	-81.6	0.0
#Closed at: 2025-01-22 08:26:05.447269