passes_logs/2025/01/22/planumMaritime01/planumMaritime01__20250122_155213_NOAA_19_rec.log

#Pass ID: 20250122_155213_NOAA 19
#Satellite: NOAA 19
#Configuration: NOAA 19
#Start time: 2025-01-22 15:52:18.859637

#LorettStation: 1.0.0 05.05.2024
#Station: planumMaritime01
#Location: 37.49445 lon 55.92918 lat
#TLE: 1 33591U 09005A   25022.22545190  .00000382  00000+0  22773-3 0  9990
#TLE: 2 33591  99.0184  86.0433 0014227  38.0135 322.2038 14.13265658822568

#Time	Az	El	Level	SNR
2025-01-22 15:52:21.017131	75.5	10.1	-61.1	0.0
2025-01-22 15:52:22.142282	75.4	10.2	-62.6	0.0
2025-01-22 15:52:23.268807	75.2	10.2	-68.1	0.0
2025-01-22 15:52:24.396402	75.0	10.3	-67.8	0.0
2025-01-22 15:52:25.522629	74.9	10.3	-66.4	0.0
2025-01-22 15:52:26.647655	74.7	10.4	-63.9	0.0
2025-01-22 15:52:27.773882	74.5	10.4	-62.5	0.0
2025-01-22 15:52:28.900240	74.3	10.5	-65.5	0.0
2025-01-22 15:52:30.026092	74.2	10.5	-65.6	0.0
2025-01-22 15:52:31.151988	74.0	10.6	-64.3	0.0
2025-01-22 15:52:32.277402	73.8	10.6	-66.0	0.0
2025-01-22 15:52:33.403962	73.6	10.7	-67.1	0.0
2025-01-22 15:52:34.529115	73.5	10.7	-65.8	0.0
2025-01-22 15:52:35.658658	73.3	10.8	-65.4	0.0
2025-01-22 15:52:36.785015	73.1	10.8	-65.1	0.0
2025-01-22 15:52:37.912560	72.9	10.9	-64.1	0.0
2025-01-22 15:52:39.038011	72.8	11.0	-67.9	0.0
2025-01-22 15:52:40.164348	72.6	11.0	-59.4	0.0
2025-01-22 15:52:41.291286	72.4	11.1	-59.3	0.0
2025-01-22 15:52:42.418153	72.2	11.1	-60.0	0.0
2025-01-22 15:52:43.544277	72.1	11.2	-66.1	0.0
2025-01-22 15:52:44.670896	71.9	11.2	-67.1	0.0
2025-01-22 15:52:45.795659	71.7	11.3	-66.0	0.0
2025-01-22 15:52:46.921991	71.5	11.3	-66.0	0.0
2025-01-22 15:52:48.049070	71.3	11.4	-62.7	0.0
2025-01-22 15:52:49.176845	71.1	11.4	-65.6	0.0
2025-01-22 15:52:50.302313	71.0	11.5	-67.0	0.0
2025-01-22 15:52:51.429091	70.8	11.5	-64.9	0.0
2025-01-22 15:52:52.556443	70.6	11.6	-65.1	0.0
2025-01-22 15:52:53.683155	70.4	11.6	-63.0	0.0
2025-01-22 15:52:54.809129	70.2	11.7	-62.3	0.0
2025-01-22 15:52:55.934960	70.0	11.7	-65.6	0.0
2025-01-22 15:52:57.061483	69.8	11.8	-57.7	0.0
2025-01-22 15:52:58.187907	69.7	11.8	-63.1	0.0
2025-01-22 15:52:59.313626	69.5	11.9	-60.2	0.0
2025-01-22 15:53:00.439664	69.3	11.9	-62.0	0.0
2025-01-22 15:53:01.565912	69.1	11.9	-62.8	0.0
2025-01-22 15:53:02.691219	68.9	12.0	-64.6	0.0
2025-01-22 15:53:03.816542	68.7	12.0	-63.0	0.0
2025-01-22 15:53:04.942591	68.5	12.1	-63.8	0.0
2025-01-22 15:53:06.069639	68.3	12.1	-63.9	0.0
2025-01-22 15:53:07.196362	68.1	12.2	-64.3	0.0
2025-01-22 15:53:08.324035	67.9	12.2	-64.5	0.0
2025-01-22 15:53:09.449332	67.7	12.3	-63.8	0.0
2025-01-22 15:53:10.575025	67.5	12.3	-64.5	0.0
2025-01-22 15:53:11.701791	67.3	12.4	-64.3	0.0
2025-01-22 15:53:12.828014	67.2	12.4	-66.9	0.0
2025-01-22 15:53:13.955507	67.0	12.5	-64.3	0.0
2025-01-22 15:53:15.082860	66.8	12.5	-63.2	0.0
2025-01-22 15:53:16.208233	66.6	12.6	-58.3	0.0
2025-01-22 15:53:17.334172	66.4	12.6	-63.8	0.0
2025-01-22 15:53:18.459693	66.2	12.6	-57.5	0.0
2025-01-22 15:53:19.586425	66.0	12.7	-57.1	0.0
2025-01-22 15:53:20.712790	65.8	12.7	-62.3	0.0
2025-01-22 15:53:21.837637	65.6	12.8	-62.2	0.0
2025-01-22 15:53:22.964483	65.4	12.8	-65.6	0.0
2025-01-22 15:53:24.090272	65.2	12.9	-64.3	0.0
2025-01-22 15:53:25.214795	65.0	12.9	-65.3	0.0
2025-01-22 15:53:26.340079	64.8	12.9	-66.9	0.0
2025-01-22 15:53:27.465679	64.5	13.0	-65.5	0.0
2025-01-22 15:53:28.589690	64.3	13.0	-66.3	0.0
2025-01-22 15:53:29.718291	64.1	13.1	-64.0	0.0
2025-01-22 15:53:30.844610	63.9	13.1	-59.1	0.0
2025-01-22 15:53:31.971836	63.7	13.2	-66.5	0.0
2025-01-22 15:53:33.097892	63.5	13.2	-65.4	0.0
2025-01-22 15:53:34.225041	63.3	13.2	-63.0	0.0
2025-01-22 15:53:35.351821	63.1	13.3	-64.8	0.0
2025-01-22 15:53:36.477944	62.9	13.3	-65.2	0.0
2025-01-22 15:53:37.603826	62.7	13.4	-65.9	0.0
2025-01-22 15:53:38.730471	62.5	13.4	-65.8	0.0
2025-01-22 15:53:39.856393	62.3	13.4	-67.9	0.0
2025-01-22 15:53:40.982139	62.1	13.5	-67.8	0.0
2025-01-22 15:53:42.109329	61.8	13.5	-63.0	0.0
2025-01-22 15:53:43.236288	61.6	13.6	-63.5	0.0
2025-01-22 15:53:44.362229	61.4	13.6	-65.7	0.0
2025-01-22 15:53:45.486406	61.2	13.6	-58.1	0.0
2025-01-22 15:53:46.614003	61.0	13.7	-57.3	0.0
2025-01-22 15:53:47.737949	60.8	13.7	-60.4	0.0
2025-01-22 15:53:48.865704	60.6	13.7	-63.6	0.0
2025-01-22 15:53:49.993136	60.3	13.8	-67.0	0.0
2025-01-22 15:53:51.118709	60.1	13.8	-67.7	0.0
2025-01-22 15:53:52.244670	59.9	13.8	-66.8	0.0
2025-01-22 15:53:53.372438	59.7	13.9	-68.6	0.0
2025-01-22 15:53:54.497773	59.5	13.9	-67.5	0.0
2025-01-22 15:53:55.624112	59.3	13.9	-63.5	0.0
2025-01-22 15:53:56.750644	59.0	14.0	-62.3	0.0
2025-01-22 15:53:57.881703	58.8	14.0	-59.6	0.0
2025-01-22 15:53:59.008001	58.6	14.0	-65.5	0.0
2025-01-22 15:54:00.134028	58.4	14.1	-63.9	0.0
2025-01-22 15:54:01.261477	58.2	14.1	-66.6	0.0
2025-01-22 15:54:02.387646	57.9	14.1	-64.5	0.0
2025-01-22 15:54:03.511530	57.7	14.2	-65.2	0.0
2025-01-22 15:54:04.637436	57.5	14.2	-64.3	0.0
2025-01-22 15:54:05.764386	57.3	14.2	-66.0	0.0
2025-01-22 15:54:06.889147	57.1	14.3	-62.4	0.0
2025-01-22 15:54:08.015012	56.8	14.3	-65.1	0.0
2025-01-22 15:54:09.140709	56.6	14.3	-67.1	0.0
2025-01-22 15:54:10.268856	56.4	14.4	-66.2	0.0
2025-01-22 15:54:11.396184	56.2	14.4	-65.3	0.0
2025-01-22 15:54:12.522694	55.9	14.4	-64.5	0.0
2025-01-22 15:54:13.648024	55.7	14.4	-65.0	0.0
2025-01-22 15:54:14.774471	55.5	14.5	-67.2	0.0
2025-01-22 15:54:15.900445	55.3	14.5	-66.4	0.0
2025-01-22 15:54:17.028432	55.0	14.5	-62.6	0.0
2025-01-22 15:54:18.155319	54.8	14.6	-65.5	0.0
2025-01-22 15:54:19.281651	54.6	14.6	-66.1	0.0
2025-01-22 15:54:20.408531	54.4	14.6	-65.1	0.0
2025-01-22 15:54:21.535464	54.1	14.6	-66.6	0.0
2025-01-22 15:54:22.665586	53.9	14.7	-66.9	0.0
2025-01-22 15:54:23.791922	53.7	14.7	-63.4	0.0
2025-01-22 15:54:24.917851	53.4	14.7	-64.8	0.0
2025-01-22 15:54:26.046967	53.2	14.7	-66.8	0.0
2025-01-22 15:54:27.174568	53.0	14.7	-65.7	0.0
2025-01-22 15:54:28.301208	52.8	14.8	-66.0	0.0
2025-01-22 15:54:29.427797	52.5	14.8	-65.7	0.0
2025-01-22 15:54:30.552292	52.3	14.8	-66.7	0.0
2025-01-22 15:54:31.677955	52.1	14.8	-64.5	0.0
2025-01-22 15:54:32.802436	51.8	14.9	-65.4	0.0
2025-01-22 15:54:33.927832	51.6	14.9	-63.9	0.0
2025-01-22 15:54:35.053670	51.4	14.9	-64.4	0.0
2025-01-22 15:54:36.179364	51.1	14.9	-64.8	0.0
2025-01-22 15:54:37.304227	50.9	14.9	-65.2	0.0
2025-01-22 15:54:38.429193	50.7	14.9	-66.7	0.0
2025-01-22 15:54:39.557090	50.4	15.0	-64.9	0.0
2025-01-22 15:54:40.683235	50.2	15.0	-64.8	0.0
2025-01-22 15:54:41.811579	50.0	15.0	-64.5	0.0
2025-01-22 15:54:42.937953	49.7	15.0	-63.6	0.0
2025-01-22 15:54:44.063960	49.5	15.0	-62.1	0.0
2025-01-22 15:54:45.190318	49.3	15.1	-65.9	0.0
2025-01-22 15:54:46.315485	49.0	15.1	-63.8	0.0
2025-01-22 15:54:47.440418	48.8	15.1	-65.0	0.0
2025-01-22 15:54:48.567893	48.6	15.1	-65.9	0.0
2025-01-22 15:54:49.691636	48.3	15.1	-65.3	0.0
2025-01-22 15:54:50.818865	48.1	15.1	-65.4	0.0
2025-01-22 15:54:51.947193	47.9	15.1	-64.1	0.0
2025-01-22 15:54:53.073488	47.6	15.1	-64.7	0.0
2025-01-22 15:54:54.200574	47.4	15.2	-61.3	0.0
2025-01-22 15:54:55.327393	47.1	15.2	-62.1	0.0
2025-01-22 15:54:56.452340	46.9	15.2	-64.2	0.0
2025-01-22 15:54:57.579404	46.7	15.2	-64.4	0.0
2025-01-22 15:54:58.704988	46.4	15.2	-61.3	0.0
2025-01-22 15:54:59.832756	46.2	15.2	-61.5	0.0
2025-01-22 15:55:00.957575	46.0	15.2	-65.7	0.0
2025-01-22 15:55:02.084053	45.7	15.2	-60.0	0.0
2025-01-22 15:55:03.210240	45.5	15.2	-61.3	0.0
2025-01-22 15:55:04.335021	45.3	15.2	-65.2	0.0
2025-01-22 15:55:05.461344	45.0	15.2	-65.3	0.0
2025-01-22 15:55:06.586030	44.8	15.3	-64.6	0.0
2025-01-22 15:55:07.712821	44.5	15.3	-60.3	0.0
2025-01-22 15:55:08.838850	44.3	15.3	-62.4	0.0
2025-01-22 15:55:09.963936	44.1	15.3	-64.0	0.0
2025-01-22 15:55:11.089593	43.8	15.3	-61.1	0.0
2025-01-22 15:55:12.213850	43.6	15.3	-65.4	0.0
2025-01-22 15:55:13.341179	43.4	15.3	-66.9	0.0
2025-01-22 15:55:14.467195	43.1	15.3	-65.1	0.0
2025-01-22 15:55:15.591462	42.9	15.3	-67.7	0.0
2025-01-22 15:55:16.719131	42.6	15.3	-67.0	0.0
2025-01-22 15:55:17.844247	42.4	15.3	-66.2	0.0
2025-01-22 15:55:18.970822	42.2	15.3	-67.0	0.0
2025-01-22 15:55:20.095910	41.9	15.3	-67.1	0.0
2025-01-22 15:55:21.222961	41.7	15.3	-66.4	0.0
2025-01-22 15:55:22.348039	41.5	15.3	-67.2	0.0
2025-01-22 15:55:23.474137	41.2	15.3	-68.0	0.0
2025-01-22 15:55:24.601095	41.0	15.3	-65.8	0.0
2025-01-22 15:55:25.725678	40.7	15.3	-66.0	0.0
2025-01-22 15:55:26.849863	40.5	15.3	-67.5	0.0
2025-01-22 15:55:27.977139	40.3	15.3	-67.3	0.0
2025-01-22 15:55:29.101836	40.0	15.3	-68.6	0.0
2025-01-22 15:55:30.228387	39.8	15.3	-62.8	0.0
2025-01-22 15:55:31.355498	39.5	15.3	-66.3	0.0
2025-01-22 15:55:32.481478	39.3	15.3	-68.3	0.0
2025-01-22 15:55:33.607521	39.1	15.3	-63.5	0.0
2025-01-22 15:55:34.734073	38.8	15.3	-66.7	0.0
2025-01-22 15:55:35.859682	38.6	15.2	-67.8	0.0
2025-01-22 15:55:36.984609	38.4	15.2	-65.8	0.0
2025-01-22 15:55:38.111338	38.1	15.2	-68.0	0.0
2025-01-22 15:55:39.238494	37.9	15.2	-67.1	0.0
2025-01-22 15:55:40.363183	37.7	15.2	-66.4	0.0
2025-01-22 15:55:41.487218	37.4	15.2	-66.9	0.0
2025-01-22 15:55:42.612966	37.2	15.2	-68.0	0.0
2025-01-22 15:55:43.740727	36.9	15.2	-69.2	0.0
2025-01-22 15:55:44.867660	36.7	15.2	-66.1	0.0
2025-01-22 15:55:45.992984	36.5	15.2	-68.2	0.0
2025-01-22 15:55:47.120115	36.2	15.2	-67.8	0.0
2025-01-22 15:55:48.245471	36.0	15.1	-66.6	0.0
2025-01-22 15:55:49.372608	35.8	15.1	-65.2	0.0
2025-01-22 15:55:50.497384	35.5	15.1	-61.6	0.0
2025-01-22 15:55:51.623741	35.3	15.1	-64.9	0.0
2025-01-22 15:55:52.750662	35.1	15.1	-64.8	0.0
2025-01-22 15:55:53.877520	34.8	15.1	-65.0	0.0
2025-01-22 15:55:55.002017	34.6	15.1	-61.3	0.0
2025-01-22 15:55:56.127376	34.4	15.0	-65.0	0.0
2025-01-22 15:55:57.253314	34.1	15.0	-66.2	0.0
2025-01-22 15:55:58.378846	33.9	15.0	-65.7	0.0
2025-01-22 15:55:59.504050	33.7	15.0	-66.7	0.0
2025-01-22 15:56:00.629516	33.4	15.0	-65.0	0.0
2025-01-22 15:56:01.755134	33.2	15.0	-63.6	0.0
2025-01-22 15:56:02.880518	33.0	14.9	-61.9	0.0
2025-01-22 15:56:04.007431	32.7	14.9	-63.2	0.0
2025-01-22 15:56:05.134930	32.5	14.9	-65.4	0.0
2025-01-22 15:56:06.261964	32.3	14.9	-68.1	0.0
2025-01-22 15:56:07.389835	32.0	14.9	-67.8	0.0
2025-01-22 15:56:08.516156	31.8	14.8	-66.7	0.0
2025-01-22 15:56:09.641523	31.6	14.8	-67.2	0.0
2025-01-22 15:56:10.768871	31.3	14.8	-65.8	0.0
2025-01-22 15:56:11.895528	31.1	14.8	-66.4	0.0
2025-01-22 15:56:13.023095	30.9	14.8	-64.7	0.0
2025-01-22 15:56:14.148607	30.6	14.7	-66.5	0.0
2025-01-22 15:56:15.274340	30.4	14.7	-67.5	0.0
2025-01-22 15:56:16.400462	30.2	14.7	-65.3	0.0
2025-01-22 15:56:17.525707	30.0	14.7	-64.2	0.0
2025-01-22 15:56:18.650946	29.7	14.6	-67.6	0.0
2025-01-22 15:56:19.777291	29.5	14.6	-68.3	0.0
2025-01-22 15:56:20.905293	29.3	14.6	-69.6	0.0
2025-01-22 15:56:22.032428	29.1	14.6	-68.6	0.0
2025-01-22 15:56:23.158731	28.8	14.5	-68.5	0.0
2025-01-22 15:56:24.285504	28.6	14.5	-69.6	0.0
2025-01-22 15:56:25.412770	28.4	14.5	-69.9	0.0
2025-01-22 15:56:26.540440	28.2	14.5	-69.5	0.0
2025-01-22 15:56:27.665406	27.9	14.4	-69.9	0.0
2025-01-22 15:56:28.791659	27.7	14.4	-70.1	0.0
2025-01-22 15:56:29.918911	27.5	14.4	-70.6	0.0
2025-01-22 15:56:31.046607	27.3	14.3	-70.1	0.0
2025-01-22 15:56:32.171861	27.0	14.3	-69.4	0.0
2025-01-22 15:56:33.297811	26.8	14.3	-68.7	0.0
2025-01-22 15:56:34.423977	26.6	14.3	-70.2	0.0
2025-01-22 15:56:35.550480	26.4	14.2	-71.1	0.0
2025-01-22 15:56:36.678846	26.1	14.2	-70.3	0.0
2025-01-22 15:56:37.804609	25.9	14.2	-70.6	0.0
2025-01-22 15:56:38.930630	25.7	14.1	-70.0	0.0
2025-01-22 15:56:40.056852	25.5	14.1	-70.6	0.0
2025-01-22 15:56:41.182447	25.3	14.1	-70.5	0.0
2025-01-22 15:56:42.306932	25.0	14.0	-69.8	0.0
2025-01-22 15:56:43.433455	24.8	14.0	-68.8	0.0
2025-01-22 15:56:44.560276	24.6	14.0	-67.5	0.0
2025-01-22 15:56:45.687094	24.4	13.9	-66.6	0.0
2025-01-22 15:56:46.815999	24.2	13.9	-71.1	0.0
2025-01-22 15:56:47.942094	24.0	13.9	-71.4	0.0
2025-01-22 15:56:49.068097	23.7	13.8	-69.8	0.0
2025-01-22 15:56:50.192666	23.5	13.8	-70.7	0.0
2025-01-22 15:56:51.320282	23.3	13.8	-67.7	0.0
2025-01-22 15:56:52.447444	23.1	13.7	-70.1	0.0
2025-01-22 15:56:53.571988	22.9	13.7	-68.1	0.0
2025-01-22 15:56:54.697102	22.7	13.7	-70.6	0.0
2025-01-22 15:56:55.822263	22.5	13.6	-68.7	0.0
2025-01-22 15:56:56.948868	22.3	13.6	-69.6	0.0
2025-01-22 15:56:58.074657	22.0	13.5	-71.2	0.0
2025-01-22 15:56:59.202637	21.8	13.5	-69.4	0.0
2025-01-22 15:57:00.327220	21.6	13.5	-69.2	0.0
2025-01-22 15:57:01.453607	21.4	13.4	-68.4	0.0
2025-01-22 15:57:02.579449	21.2	13.4	-69.5	0.0
2025-01-22 15:57:03.707646	21.0	13.3	-71.1	0.0
2025-01-22 15:57:04.833866	20.8	13.3	-67.5	0.0
2025-01-22 15:57:05.959965	20.6	13.3	-66.9	0.0
2025-01-22 15:57:07.085865	20.4	13.2	-66.1	0.0
2025-01-22 15:57:08.212946	20.2	13.2	-67.6	0.0
2025-01-22 15:57:09.339966	20.0	13.1	-67.6	0.0
2025-01-22 15:57:10.466204	19.8	13.1	-71.6	0.0
2025-01-22 15:57:11.592913	19.6	13.1	-70.6	0.0
2025-01-22 15:57:12.718655	19.3	13.0	-70.6	0.0
2025-01-22 15:57:13.846612	19.1	13.0	-70.4	0.0
2025-01-22 15:57:14.971676	18.9	12.9	-71.6	0.0
2025-01-22 15:57:16.096966	18.7	12.9	-71.9	0.0
2025-01-22 15:57:17.223279	18.5	12.9	-71.3	0.0
2025-01-22 15:57:18.349864	18.3	12.8	-70.0	0.0
2025-01-22 15:57:19.476182	18.1	12.8	-70.4	0.0
2025-01-22 15:57:20.602170	17.9	12.7	-69.5	0.0
2025-01-22 15:57:21.729462	17.7	12.7	-69.6	0.0
2025-01-22 15:57:22.854667	17.5	12.6	-68.2	0.0
2025-01-22 15:57:23.980850	17.3	12.6	-66.6	0.0
2025-01-22 15:57:25.107528	17.1	12.5	-68.2	0.0
2025-01-22 15:57:26.232561	16.9	12.5	-67.5	0.0
2025-01-22 15:57:27.357476	16.8	12.5	-67.9	0.0
2025-01-22 15:57:28.482660	16.6	12.4	-68.2	0.0
2025-01-22 15:57:29.607771	16.4	12.4	-66.9	0.0
2025-01-22 15:57:30.733438	16.2	12.3	-67.2	0.0
2025-01-22 15:57:31.859870	16.0	12.3	-67.9	0.0
2025-01-22 15:57:32.984873	15.8	12.2	-68.9	0.0
2025-01-22 15:57:34.111055	15.6	12.2	-67.9	0.0
2025-01-22 15:57:35.238032	15.4	12.1	-67.5	0.0
2025-01-22 15:57:36.363845	15.2	12.1	-65.6	0.0
2025-01-22 15:57:37.489204	15.0	12.0	-70.4	0.0
2025-01-22 15:57:38.613025	14.8	12.0	-68.1	0.0
2025-01-22 15:57:39.739694	14.6	11.9	-66.7	0.0
2025-01-22 15:57:40.866295	14.5	11.9	-67.2	0.0
2025-01-22 15:57:41.991861	14.3	11.8	-66.1	0.0
2025-01-22 15:57:43.119203	14.1	11.8	-69.3	0.0
2025-01-22 15:57:44.245163	13.9	11.8	-68.2	0.0
2025-01-22 15:57:45.371925	13.7	11.7	-70.0	0.0
2025-01-22 15:57:46.498624	13.5	11.7	-70.4	0.0
2025-01-22 15:57:47.624678	13.3	11.6	-70.3	0.0
2025-01-22 15:57:48.750242	13.1	11.6	-69.7	0.0
2025-01-22 15:57:49.876849	13.0	11.5	-69.6	0.0
2025-01-22 15:57:51.002974	12.8	11.5	-68.0	0.0
2025-01-22 15:57:52.129638	12.6	11.4	-68.6	0.0
2025-01-22 15:57:53.255558	12.4	11.4	-69.4	0.0
2025-01-22 15:57:54.382033	12.2	11.3	-70.9	0.0
2025-01-22 15:57:55.508281	12.1	11.3	-69.6	0.0
2025-01-22 15:57:56.633571	11.9	11.2	-70.2	0.0
2025-01-22 15:57:57.758759	11.7	11.2	-71.2	0.0
2025-01-22 15:57:58.886355	11.5	11.1	-69.0	0.0
2025-01-22 15:58:00.013464	11.3	11.1	-67.3	0.0
2025-01-22 15:58:01.140386	11.2	11.0	-70.0	0.0
2025-01-22 15:58:02.267247	11.0	10.9	-68.0	0.0
2025-01-22 15:58:03.394762	10.8	10.9	-70.7	0.0
2025-01-22 15:58:04.523245	10.6	10.8	-71.6	0.0
2025-01-22 15:58:05.648996	10.5	10.8	-75.9	0.0
2025-01-22 15:58:06.775271	10.3	10.7	-78.7	0.0
2025-01-22 15:58:07.901394	10.1	10.7	-78.7	0.0
2025-01-22 15:58:09.028377	9.9	10.6	-80.5	0.0
2025-01-22 15:58:10.155078	9.8	10.6	-80.6	0.0
2025-01-22 15:58:11.281009	9.6	10.5	-80.8	0.0
2025-01-22 15:58:12.407437	9.4	10.5	-80.5	0.0
2025-01-22 15:58:13.536676	9.3	10.4	-80.9	0.0
2025-01-22 15:58:14.663248	9.1	10.4	-81.0	0.0
2025-01-22 15:58:15.788523	8.9	10.3	-80.7	0.0
2025-01-22 15:58:16.915063	8.7	10.3	-80.5	0.0
2025-01-22 15:58:18.041215	8.6	10.2	-80.6	0.0
2025-01-22 15:58:19.167356	8.4	10.2	-80.6	0.0
2025-01-22 15:58:20.294097	8.2	10.1	-80.9	0.0
2025-01-22 15:58:21.420720	8.1	10.1	-80.6	0.0
#Closed at: 2025-01-22 15:52:13.861569