passes_logs/2025/01/22/planumMaritime01/planumMaritime01__20250122_105403_METEOR-M2_2_rec.log

#Pass ID: 20250122_105403_METEOR-M2 2
#Satellite: METEOR-M2 2
#Configuration: METEOR-M2 2
#Start time: 2025-01-22 10:54:08.227250

#LorettStation: 1.0.0 05.05.2024
#Station: planumMaritime01
#Location: 37.49445 lon 55.92918 lat
#TLE: 1 44387U 19038A   25021.18051176  .00000366  00000+0  17858-3 0  9992
#TLE: 2 44387  98.8576 357.6249 0002218  69.4714 290.6702 14.24121645288410

#Time	Az	El	Level	SNR
2025-01-22 10:54:10.393394	109.2	10.2	-71.0	0.0
2025-01-22 10:54:12.646900	108.9	10.3	-70.0	0.0
2025-01-22 10:54:14.896683	108.7	10.5	-67.5	0.0
2025-01-22 10:54:17.149653	108.5	10.7	-69.8	0.0
2025-01-22 10:54:19.399922	108.2	10.8	-69.5	0.0
2025-01-22 10:54:21.653633	108.0	11.0	-69.4	0.0
2025-01-22 10:54:23.905200	107.7	11.2	-69.6	0.0
2025-01-22 10:54:26.158466	107.5	11.3	-71.2	0.0
2025-01-22 10:54:28.413165	107.2	11.5	-70.6	0.0
2025-01-22 10:54:30.663020	107.0	11.7	-71.7	0.0
2025-01-22 10:54:32.912821	106.7	11.8	-67.7	0.0
2025-01-22 10:54:35.166513	106.4	12.0	-69.7	0.0
2025-01-22 10:54:37.420231	106.2	12.2	-69.4	0.0
2025-01-22 10:54:39.673457	105.9	12.4	-66.2	0.0
2025-01-22 10:54:41.923255	105.6	12.5	-69.7	0.0
2025-01-22 10:54:44.176249	105.3	12.7	-70.3	0.0
2025-01-22 10:54:46.427411	105.1	12.9	-69.6	0.0
2025-01-22 10:54:48.679496	104.8	13.0	-68.6	0.0
2025-01-22 10:54:50.933396	104.5	13.2	-68.4	0.0
2025-01-22 10:54:53.187901	104.2	13.4	-69.2	0.0
2025-01-22 10:54:55.440866	103.9	13.6	-70.7	0.0
2025-01-22 10:54:57.693339	103.6	13.8	-69.8	0.0
2025-01-22 10:54:59.945852	103.3	13.9	-69.5	0.0
2025-01-22 10:55:02.197318	103.0	14.1	-69.0	0.0
2025-01-22 10:55:04.450817	102.7	14.3	-68.0	0.0
2025-01-22 10:55:06.701727	102.4	14.5	-69.8	0.0
2025-01-22 10:55:08.957189	102.1	14.6	-69.9	0.0
2025-01-22 10:55:11.212078	101.7	14.8	-69.9	0.0
2025-01-22 10:55:13.463454	101.4	15.0	-71.2	0.0
2025-01-22 10:55:15.720036	101.1	15.2	-71.5	0.0
2025-01-22 10:55:17.973619	100.7	15.4	-69.9	0.0
2025-01-22 10:55:20.227036	100.4	15.5	-70.3	0.0
2025-01-22 10:55:22.481613	100.1	15.7	-71.6	0.0
2025-01-22 10:55:24.736595	99.7	15.9	-71.5	0.0
2025-01-22 10:55:26.987691	99.4	16.1	-69.0	0.0
2025-01-22 10:55:29.237853	99.0	16.3	-69.7	0.0
2025-01-22 10:55:31.490763	98.7	16.5	-66.8	0.0
2025-01-22 10:55:33.745400	98.3	16.6	-71.3	0.0
2025-01-22 10:55:35.999413	97.9	16.8	-71.5	0.0
2025-01-22 10:55:38.251191	97.5	17.0	-71.4	0.0
2025-01-22 10:55:40.504118	97.2	17.2	-68.0	0.0
2025-01-22 10:55:42.755278	96.8	17.4	-73.4	0.0
2025-01-22 10:55:45.008332	96.4	17.6	-72.4	0.0
2025-01-22 10:55:47.260560	96.0	17.7	-71.5	0.0
2025-01-22 10:55:49.512888	95.6	17.9	-73.3	0.0
2025-01-22 10:55:51.766125	95.2	18.1	-72.7	0.0
2025-01-22 10:55:54.018787	94.8	18.3	-73.5	0.0
2025-01-22 10:55:56.271771	94.4	18.5	-72.9	0.0
2025-01-22 10:55:58.524467	94.0	18.7	-74.5	0.0
2025-01-22 10:56:00.779078	93.6	18.8	-70.8	0.0
2025-01-22 10:56:03.032445	93.1	19.0	-72.5	0.0
2025-01-22 10:56:05.285819	92.7	19.2	-71.7	0.0
2025-01-22 10:56:07.537537	92.3	19.4	-73.5	0.0
2025-01-22 10:56:09.790501	91.8	19.6	-70.6	0.0
2025-01-22 10:56:12.040985	91.4	19.8	-69.0	0.0
2025-01-22 10:56:14.293037	90.9	19.9	-67.8	0.0
2025-01-22 10:56:16.545341	90.5	20.1	-73.5	0.0
2025-01-22 10:56:18.797959	90.0	20.3	-72.5	0.0
2025-01-22 10:56:21.048463	89.5	20.5	-72.0	0.0
2025-01-22 10:56:23.300791	89.0	20.7	-69.6	0.0
2025-01-22 10:56:25.553467	88.6	20.8	-70.0	0.0
2025-01-22 10:56:27.806484	88.1	21.0	-70.7	0.0
2025-01-22 10:56:30.059030	87.6	21.2	-71.3	0.0
2025-01-22 10:56:32.309066	87.1	21.4	-72.4	0.0
2025-01-22 10:56:34.562056	86.6	21.5	-71.1	0.0
2025-01-22 10:56:36.813202	86.1	21.7	-72.6	0.0
2025-01-22 10:56:39.065274	85.6	21.9	-71.5	0.0
2025-01-22 10:56:41.320323	85.0	22.1	-72.0	0.0
2025-01-22 10:56:43.571451	84.5	22.2	-71.6	0.0
2025-01-22 10:56:45.823374	84.0	22.4	-72.6	0.0
2025-01-22 10:56:48.075387	83.4	22.6	-70.9	0.0
2025-01-22 10:56:50.327067	82.9	22.7	-70.1	0.0
2025-01-22 10:56:52.578928	82.3	22.9	-69.8	0.0
2025-01-22 10:56:54.830658	81.8	23.0	-71.8	0.0
2025-01-22 10:56:57.084940	81.2	23.2	-71.0	0.0
2025-01-22 10:56:59.337116	80.7	23.4	-70.9	0.0
2025-01-22 10:57:01.591865	80.1	23.5	-70.4	0.0
2025-01-22 10:57:03.844362	79.5	23.7	-72.0	0.0
2025-01-22 10:57:06.098019	78.9	23.8	-70.4	0.0
2025-01-22 10:57:08.350726	78.3	24.0	-71.9	0.0
2025-01-22 10:57:10.603034	77.7	24.1	-73.2	0.0
2025-01-22 10:57:12.854571	77.1	24.2	-71.6	0.0
2025-01-22 10:57:15.106913	76.5	24.4	-73.4	0.0
2025-01-22 10:57:17.359938	75.9	24.5	-73.1	0.0
2025-01-22 10:57:19.615692	75.3	24.7	-70.3	0.0
2025-01-22 10:57:21.867221	74.7	24.8	-67.5	0.0
2025-01-22 10:57:24.120061	74.0	24.9	-69.4	0.0
2025-01-22 10:57:26.370263	73.4	25.0	-69.8	0.0
2025-01-22 10:57:28.622780	72.8	25.2	-68.0	0.0
2025-01-22 10:57:30.877340	72.1	25.3	-68.7	0.0
2025-01-22 10:57:33.131133	71.5	25.4	-67.8	0.0
2025-01-22 10:57:35.381176	70.8	25.5	-62.9	0.0
2025-01-22 10:57:37.635785	70.2	25.6	-70.7	0.0
2025-01-22 10:57:39.888734	69.5	25.7	-68.1	0.0
2025-01-22 10:57:42.142659	68.8	25.8	-65.6	0.0
2025-01-22 10:57:44.395164	68.2	25.9	-68.1	0.0
2025-01-22 10:57:46.650529	67.5	26.0	-65.4	0.0
2025-01-22 10:57:48.902356	66.8	26.1	-69.1	0.0
2025-01-22 10:57:51.155014	66.1	26.2	-67.1	0.0
2025-01-22 10:57:53.409590	65.5	26.2	-68.7	0.0
2025-01-22 10:57:55.660143	64.8	26.3	-69.0	0.0
2025-01-22 10:57:57.911318	64.1	26.4	-67.4	0.0
2025-01-22 10:58:00.165003	63.4	26.5	-65.7	0.0
2025-01-22 10:58:02.419760	62.7	26.5	-65.2	0.0
2025-01-22 10:58:04.671266	62.0	26.6	-66.8	0.0
2025-01-22 10:58:06.924396	61.3	26.6	-67.6	0.0
2025-01-22 10:58:09.174476	60.6	26.7	-66.1	0.0
2025-01-22 10:58:11.426846	59.9	26.7	-66.1	0.0
2025-01-22 10:58:13.681753	59.2	26.8	-69.1	0.0
2025-01-22 10:58:15.932173	58.5	26.8	-66.5	0.0
2025-01-22 10:58:18.184110	57.8	26.8	-67.4	0.0
2025-01-22 10:58:20.437205	57.0	26.9	-68.1	0.0
2025-01-22 10:58:22.689274	56.3	26.9	-67.1	0.0
2025-01-22 10:58:24.942499	55.6	26.9	-70.6	0.0
2025-01-22 10:58:27.195123	54.9	26.9	-68.0	0.0
2025-01-22 10:58:29.447469	54.2	26.9	-69.2	0.0
2025-01-22 10:58:31.697255	53.5	26.9	-68.0	0.0
2025-01-22 10:58:33.951600	52.8	26.9	-66.7	0.0
2025-01-22 10:58:36.204077	52.0	26.9	-69.8	0.0
2025-01-22 10:58:38.454296	51.3	26.9	-67.2	0.0
2025-01-22 10:58:40.707345	50.6	26.9	-70.3	0.0
2025-01-22 10:58:42.960042	49.9	26.8	-67.1	0.0
2025-01-22 10:58:45.210233	49.2	26.8	-70.7	0.0
2025-01-22 10:58:47.461194	48.5	26.8	-71.1	0.0
2025-01-22 10:58:49.716277	47.8	26.7	-70.2	0.0
2025-01-22 10:58:51.969815	47.1	26.7	-67.3	0.0
2025-01-22 10:58:54.221030	46.4	26.6	-68.3	0.0
2025-01-22 10:58:56.472984	45.7	26.6	-70.8	0.0
2025-01-22 10:58:58.722199	45.0	26.5	-68.3	0.0
2025-01-22 10:59:00.973262	44.3	26.5	-70.2	0.0
2025-01-22 10:59:03.227105	43.6	26.4	-67.5	0.0
2025-01-22 10:59:05.481015	42.9	26.3	-66.4	0.0
2025-01-22 10:59:07.733456	42.2	26.3	-66.0	0.0
2025-01-22 10:59:09.986334	41.5	26.2	-67.8	0.0
2025-01-22 10:59:12.236534	40.8	26.1	-68.2	0.0
2025-01-22 10:59:14.490723	40.2	26.0	-68.6	0.0
2025-01-22 10:59:16.743507	39.5	25.9	-66.3	0.0
2025-01-22 10:59:18.997553	38.8	25.8	-66.4	0.0
2025-01-22 10:59:21.248846	38.2	25.7	-67.9	0.0
2025-01-22 10:59:23.502429	37.5	25.6	-66.2	0.0
2025-01-22 10:59:25.754999	36.8	25.5	-66.0	0.0
2025-01-22 10:59:28.005916	36.2	25.4	-67.4	0.0
2025-01-22 10:59:30.256407	35.6	25.3	-66.3	0.0
2025-01-22 10:59:32.509344	34.9	25.2	-65.1	0.0
2025-01-22 10:59:34.762896	34.3	25.1	-64.8	0.0
2025-01-22 10:59:37.015287	33.6	24.9	-64.0	0.0
2025-01-22 10:59:39.267329	33.0	24.8	-66.9	0.0
2025-01-22 10:59:41.518934	32.4	24.7	-65.4	0.0
2025-01-22 10:59:43.769186	31.8	24.5	-66.3	0.0
2025-01-22 10:59:46.022887	31.2	24.4	-62.9	0.0
2025-01-22 10:59:48.274688	30.6	24.3	-68.2	0.0
2025-01-22 10:59:50.524475	30.0	24.1	-67.4	0.0
2025-01-22 10:59:52.774018	29.4	24.0	-64.5	0.0
2025-01-22 10:59:55.024649	28.8	23.8	-64.7	0.0
2025-01-22 10:59:57.279788	28.2	23.7	-67.8	0.0
2025-01-22 10:59:59.531216	27.6	23.5	-66.1	0.0
2025-01-22 11:00:01.784996	27.1	23.4	-65.7	0.0
2025-01-22 11:00:04.036116	26.5	23.2	-65.8	0.0
2025-01-22 11:00:06.288907	25.9	23.1	-70.6	0.0
2025-01-22 11:00:08.544534	25.4	22.9	-68.9	0.0
2025-01-22 11:00:10.795287	24.8	22.7	-70.3	0.0
2025-01-22 11:00:13.047851	24.3	22.6	-68.5	0.0
2025-01-22 11:00:15.302073	23.7	22.4	-70.2	0.0
2025-01-22 11:00:17.552571	23.2	22.3	-69.4	0.0
2025-01-22 11:00:19.804503	22.7	22.1	-69.1	0.0
2025-01-22 11:00:22.055086	22.2	21.9	-62.5	0.0
2025-01-22 11:00:24.308339	21.7	21.7	-68.9	0.0
2025-01-22 11:00:26.560948	21.1	21.6	-68.5	0.0
2025-01-22 11:00:28.813631	20.6	21.4	-68.7	0.0
2025-01-22 11:00:31.067146	20.1	21.2	-69.6	0.0
2025-01-22 11:00:33.321586	19.7	21.1	-67.5	0.0
2025-01-22 11:00:35.573379	19.2	20.9	-65.8	0.0
2025-01-22 11:00:37.826054	18.7	20.7	-67.0	0.0
2025-01-22 11:00:40.078652	18.2	20.5	-69.6	0.0
2025-01-22 11:00:42.329549	17.7	20.3	-69.3	0.0
2025-01-22 11:00:44.581710	17.3	20.2	-64.0	0.0
2025-01-22 11:00:46.834314	16.8	20.0	-63.4	0.0
2025-01-22 11:00:49.091689	16.4	19.8	-68.6	0.0
2025-01-22 11:00:51.344993	15.9	19.6	-68.6	0.0
2025-01-22 11:00:53.599248	15.5	19.4	-68.1	0.0
2025-01-22 11:00:55.850248	15.0	19.3	-69.0	0.0
2025-01-22 11:00:58.103242	14.6	19.1	-68.8	0.0
2025-01-22 11:01:00.356006	14.2	18.9	-66.6	0.0
2025-01-22 11:01:02.610377	13.8	18.7	-66.1	0.0
2025-01-22 11:01:04.863890	13.4	18.5	-65.7	0.0
2025-01-22 11:01:07.119496	12.9	18.4	-67.1	0.0
2025-01-22 11:01:09.373291	12.5	18.2	-66.4	0.0
2025-01-22 11:01:11.624800	12.1	18.0	-70.0	0.0
2025-01-22 11:01:13.877565	11.7	17.8	-68.0	0.0
2025-01-22 11:01:16.131525	11.4	17.6	-64.1	0.0
2025-01-22 11:01:18.383357	11.0	17.4	-68.7	0.0
2025-01-22 11:01:20.636667	10.6	17.3	-68.9	0.0
2025-01-22 11:01:22.889638	10.2	17.1	-66.9	0.0
2025-01-22 11:01:25.143764	9.8	16.9	-68.9	0.0
2025-01-22 11:01:27.394938	9.5	16.7	-70.5	0.0
2025-01-22 11:01:29.644599	9.1	16.5	-69.4	0.0
2025-01-22 11:01:31.895863	8.8	16.3	-65.4	0.0
2025-01-22 11:01:34.148527	8.4	16.2	-68.2	0.0
2025-01-22 11:01:36.400983	8.1	16.0	-71.6	0.0
2025-01-22 11:01:38.655381	7.7	15.8	-69.9	0.0
2025-01-22 11:01:40.905750	7.4	15.6	-70.3	0.0
2025-01-22 11:01:43.157123	7.0	15.4	-70.6	0.0
2025-01-22 11:01:45.408104	6.7	15.3	-70.4	0.0
2025-01-22 11:01:47.656730	6.4	15.1	-71.6	0.0
2025-01-22 11:01:49.909242	6.1	14.9	-67.7	0.0
2025-01-22 11:01:52.160837	5.7	14.7	-69.6	0.0
2025-01-22 11:01:54.412538	5.4	14.5	-71.4	0.0
2025-01-22 11:01:56.663147	5.1	14.4	-70.3	0.0
2025-01-22 11:01:58.914113	4.8	14.2	-69.8	0.0
2025-01-22 11:02:01.164122	4.5	14.0	-62.9	0.0
2025-01-22 11:02:03.414581	4.2	13.8	-70.6	0.0
2025-01-22 11:02:05.666157	3.9	13.6	-70.6	0.0
2025-01-22 11:02:07.918026	3.6	13.5	-69.2	0.0
2025-01-22 11:02:10.171396	3.3	13.3	-69.7	0.0
2025-01-22 11:02:12.424476	3.0	13.1	-70.3	0.0
2025-01-22 11:02:14.677197	2.7	12.9	-70.4	0.0
2025-01-22 11:02:16.929830	2.5	12.8	-70.7	0.0
2025-01-22 11:02:19.181412	2.2	12.6	-69.4	0.0
2025-01-22 11:02:21.432173	1.9	12.4	-70.2	0.0
2025-01-22 11:02:23.685409	1.6	12.3	-67.5	0.0
2025-01-22 11:02:25.937618	1.4	12.1	-68.9	0.0
2025-01-22 11:02:28.184916	1.1	11.9	-68.7	0.0
2025-01-22 11:02:30.435805	0.9	11.7	-67.4	0.0
2025-01-22 11:02:32.689910	0.6	11.6	-68.3	0.0
2025-01-22 11:02:34.938559	0.4	11.4	-68.2	0.0
2025-01-22 11:02:37.191571	0.1	11.2	-69.1	0.0
2025-01-22 11:02:39.442976	359.9	11.1	-69.8	0.0
2025-01-22 11:02:41.696118	359.6	10.9	-71.1	0.0
2025-01-22 11:02:43.951265	359.4	10.7	-70.3	0.0
2025-01-22 11:02:46.201965	359.1	10.6	-76.4	0.0
2025-01-22 11:02:48.452680	358.9	10.4	-77.8	0.0
2025-01-22 11:02:50.705952	358.7	10.2	-78.3	0.0
2025-01-22 11:02:52.956940	358.4	10.1	-79.7	0.0
#Closed at: 2025-01-22 10:54:03.229605