passes_logs/2025/01/22/planumMaritime01/planumMaritime01__20250122_211723_NOAA_18_rec.log

#Pass ID: 20250122_211723_NOAA 18
#Satellite: NOAA 18
#Configuration: NOAA 18
#Start time: 2025-01-22 21:17:28.619955

#LorettStation: 1.0.0 05.05.2024
#Station: planumMaritime01
#Location: 37.49445 lon 55.92918 lat
#TLE: 1 28654U 05018A   25022.24143052  .00000458  00000+0  26647-3 0  9995
#TLE: 2 28654  98.8556 103.2235 0014680 159.1096 201.0679 14.13493787 14203

#Time	Az	El	Level	SNR
2025-01-22 21:17:30.787814	241.0	10.1	-77.8	0.0
2025-01-22 21:17:31.915571	241.1	10.2	-78.2	0.0
2025-01-22 21:17:33.041334	241.3	10.2	-78.2	0.0
2025-01-22 21:17:34.167279	241.5	10.3	-77.5	0.0
2025-01-22 21:17:35.293030	241.6	10.3	-77.3	0.0
2025-01-22 21:17:36.419603	241.8	10.4	-77.8	0.0
2025-01-22 21:17:37.547562	242.0	10.4	-78.1	0.0
2025-01-22 21:17:38.673897	242.2	10.5	-78.3	0.0
2025-01-22 21:17:39.801852	242.3	10.5	-76.7	0.0
2025-01-22 21:17:40.927976	242.5	10.6	-77.1	0.0
2025-01-22 21:17:42.054592	242.7	10.6	-77.4	0.0
2025-01-22 21:17:43.179975	242.8	10.7	-77.2	0.0
2025-01-22 21:17:44.306507	243.0	10.7	-77.8	0.0
2025-01-22 21:17:45.433344	243.2	10.8	-77.4	0.0
2025-01-22 21:17:46.560087	243.4	10.8	-77.9	0.0
2025-01-22 21:17:47.688650	243.5	10.9	-77.8	0.0
2025-01-22 21:17:48.812909	243.7	10.9	-77.4	0.0
2025-01-22 21:17:49.940556	243.9	11.0	-78.0	0.0
2025-01-22 21:17:51.066127	244.1	11.0	-77.8	0.0
2025-01-22 21:17:52.192066	244.3	11.1	-77.9	0.0
2025-01-22 21:17:53.318846	244.4	11.1	-77.8	0.0
2025-01-22 21:17:54.445127	244.6	11.2	-78.4	0.0
2025-01-22 21:17:55.571030	244.8	11.2	-77.6	0.0
2025-01-22 21:17:56.697800	245.0	11.3	-77.9	0.0
2025-01-22 21:17:57.824826	245.2	11.3	-78.2	0.0
2025-01-22 21:17:58.952509	245.3	11.4	-78.4	0.0
2025-01-22 21:18:00.080028	245.5	11.4	-76.3	0.0
2025-01-22 21:18:01.206965	245.7	11.5	-78.7	0.0
2025-01-22 21:18:02.334023	245.9	11.5	-78.5	0.0
2025-01-22 21:18:03.460684	246.1	11.6	-77.9	0.0
2025-01-22 21:18:04.588101	246.3	11.6	-78.3	0.0
2025-01-22 21:18:05.715713	246.4	11.7	-78.4	0.0
2025-01-22 21:18:06.842256	246.6	11.7	-78.3	0.0
2025-01-22 21:18:07.966098	246.8	11.8	-78.1	0.0
2025-01-22 21:18:09.094221	247.0	11.8	-78.2	0.0
2025-01-22 21:18:10.219781	247.2	11.8	-77.0	0.0
2025-01-22 21:18:11.347376	247.4	11.9	-77.6	0.0
2025-01-22 21:18:12.473181	247.6	11.9	-78.1	0.0
2025-01-22 21:18:13.599836	247.8	12.0	-77.4	0.0
2025-01-22 21:18:14.727446	248.0	12.0	-78.3	0.0
2025-01-22 21:18:15.855933	248.1	12.1	-78.3	0.0
2025-01-22 21:18:16.982375	248.3	12.1	-78.2	0.0
2025-01-22 21:18:18.110499	248.5	12.2	-78.2	0.0
2025-01-22 21:18:19.237637	248.7	12.2	-78.2	0.0
2025-01-22 21:18:20.362919	248.9	12.3	-77.4	0.0
2025-01-22 21:18:21.487577	249.1	12.3	-78.0	0.0
2025-01-22 21:18:22.612690	249.3	12.4	-77.9	0.0
2025-01-22 21:18:23.740528	249.5	12.4	-78.3	0.0
2025-01-22 21:18:24.867850	249.7	12.4	-77.9	0.0
2025-01-22 21:18:25.996010	249.9	12.5	-78.1	0.0
2025-01-22 21:18:27.123007	250.1	12.5	-78.2	0.0
2025-01-22 21:18:28.249152	250.3	12.6	-78.1	0.0
2025-01-22 21:18:29.375838	250.5	12.6	-77.9	0.0
2025-01-22 21:18:30.503416	250.7	12.7	-78.2	0.0
2025-01-22 21:18:31.629375	250.9	12.7	-78.4	0.0
2025-01-22 21:18:32.755932	251.1	12.8	-78.1	0.0
2025-01-22 21:18:33.879176	251.3	12.8	-78.1	0.0
2025-01-22 21:18:35.004088	251.5	12.8	-78.2	0.0
2025-01-22 21:18:36.129529	251.7	12.9	-78.3	0.0
2025-01-22 21:18:37.255389	251.9	12.9	-78.6	0.0
2025-01-22 21:18:38.382378	252.1	13.0	-78.3	0.0
2025-01-22 21:18:39.508895	252.3	13.0	-78.5	0.0
2025-01-22 21:18:40.635076	252.5	13.0	-78.3	0.0
2025-01-22 21:18:41.760038	252.7	13.1	-78.2	0.0
2025-01-22 21:18:42.888939	252.9	13.1	-78.2	0.0
2025-01-22 21:18:44.016135	253.1	13.2	-78.2	0.0
2025-01-22 21:18:45.142830	253.3	13.2	-77.9	0.0
2025-01-22 21:18:46.268824	253.5	13.2	-77.9	0.0
2025-01-22 21:18:47.395929	253.7	13.3	-78.1	0.0
2025-01-22 21:18:48.521819	253.9	13.3	-78.0	0.0
2025-01-22 21:18:49.650079	254.1	13.4	-78.2	0.0
2025-01-22 21:18:50.777902	254.3	13.4	-78.1	0.0
2025-01-22 21:18:51.904222	254.5	13.4	-78.1	0.0
2025-01-22 21:18:53.031553	254.8	13.5	-78.2	0.0
2025-01-22 21:18:54.155895	255.0	13.5	-78.1	0.0
2025-01-22 21:18:55.283198	255.2	13.6	-78.0	0.0
2025-01-22 21:18:56.409742	255.4	13.6	-78.6	0.0
2025-01-22 21:18:57.537121	255.6	13.6	-78.2	0.0
2025-01-22 21:18:58.662628	255.8	13.7	-78.2	0.0
2025-01-22 21:18:59.789949	256.0	13.7	-78.1	0.0
2025-01-22 21:19:00.917307	256.2	13.7	-78.5	0.0
2025-01-22 21:19:02.043864	256.4	13.8	-78.0	0.0
2025-01-22 21:19:03.170104	256.7	13.8	-78.2	0.0
2025-01-22 21:19:04.298416	256.9	13.8	-78.5	0.0
2025-01-22 21:19:05.426383	257.1	13.9	-78.2	0.0
2025-01-22 21:19:06.553186	257.3	13.9	-78.6	0.0
2025-01-22 21:19:07.680283	257.5	13.9	-78.1	0.0
2025-01-22 21:19:08.806326	257.7	14.0	-78.1	0.0
2025-01-22 21:19:09.931748	258.0	14.0	-78.1	0.0
2025-01-22 21:19:11.058135	258.2	14.0	-78.0	0.0
2025-01-22 21:19:12.184953	258.4	14.1	-78.6	0.0
2025-01-22 21:19:13.312356	258.6	14.1	-78.7	0.0
2025-01-22 21:19:14.437783	258.8	14.1	-78.4	0.0
2025-01-22 21:19:15.562457	259.0	14.2	-78.5	0.0
2025-01-22 21:19:16.689002	259.3	14.2	-78.3	0.0
2025-01-22 21:19:17.815928	259.5	14.2	-78.4	0.0
2025-01-22 21:19:18.942902	259.7	14.3	-78.3	0.0
2025-01-22 21:19:20.070315	259.9	14.3	-78.3	0.0
2025-01-22 21:19:21.199756	260.1	14.3	-78.4	0.0
2025-01-22 21:19:22.329398	260.4	14.4	-78.5	0.0
2025-01-22 21:19:23.454268	260.6	14.4	-78.6	0.0
2025-01-22 21:19:24.580227	260.8	14.4	-77.8	0.0
2025-01-22 21:19:25.707800	261.0	14.4	-78.0	0.0
2025-01-22 21:19:26.832594	261.3	14.5	-78.6	0.0
2025-01-22 21:19:27.960491	261.5	14.5	-78.4	0.0
2025-01-22 21:19:29.087832	261.7	14.5	-78.6	0.0
2025-01-22 21:19:30.215207	261.9	14.6	-78.5	0.0
2025-01-22 21:19:31.342684	262.1	14.6	-78.6	0.0
2025-01-22 21:19:32.468770	262.4	14.6	-78.3	0.0
2025-01-22 21:19:33.595476	262.6	14.6	-78.8	0.0
2025-01-22 21:19:34.721151	262.8	14.7	-78.7	0.0
2025-01-22 21:19:35.847615	263.1	14.7	-78.4	0.0
2025-01-22 21:19:36.973928	263.3	14.7	-78.4	0.0
2025-01-22 21:19:38.099764	263.5	14.7	-78.5	0.0
2025-01-22 21:19:39.226969	263.7	14.8	-78.9	0.0
2025-01-22 21:19:40.355971	264.0	14.8	-78.4	0.0
2025-01-22 21:19:41.482722	264.2	14.8	-78.7	0.0
2025-01-22 21:19:42.610340	264.4	14.8	-79.0	0.0
2025-01-22 21:19:43.737066	264.6	14.8	-78.8	0.0
2025-01-22 21:19:44.866152	264.9	14.9	-79.2	0.0
2025-01-22 21:19:45.992527	265.1	14.9	-78.7	0.0
2025-01-22 21:19:47.120134	265.3	14.9	-78.7	0.0
2025-01-22 21:19:48.246098	265.6	14.9	-78.8	0.0
2025-01-22 21:19:49.373805	265.8	15.0	-78.4	0.0
2025-01-22 21:19:50.499785	266.0	15.0	-78.7	0.0
2025-01-22 21:19:51.627881	266.3	15.0	-79.0	0.0
2025-01-22 21:19:52.753724	266.5	15.0	-78.8	0.0
2025-01-22 21:19:53.881765	266.7	15.0	-78.7	0.0
2025-01-22 21:19:55.008578	266.9	15.0	-78.6	0.0
2025-01-22 21:19:56.134797	267.2	15.1	-78.8	0.0
2025-01-22 21:19:57.260310	267.4	15.1	-78.7	0.0
2025-01-22 21:19:58.387938	267.6	15.1	-78.9	0.0
2025-01-22 21:19:59.514873	267.9	15.1	-79.2	0.0
2025-01-22 21:20:00.640226	268.1	15.1	-78.8	0.0
2025-01-22 21:20:01.768148	268.3	15.1	-78.8	0.0
2025-01-22 21:20:02.895858	268.6	15.2	-78.9	0.0
2025-01-22 21:20:04.022474	268.8	15.2	-78.8	0.0
2025-01-22 21:20:05.149919	269.0	15.2	-78.7	0.0
2025-01-22 21:20:06.277993	269.3	15.2	-78.5	0.0
2025-01-22 21:20:07.405221	269.5	15.2	-79.0	0.0
2025-01-22 21:20:08.531781	269.7	15.2	-78.9	0.0
2025-01-22 21:20:09.656955	270.0	15.2	-78.9	0.0
2025-01-22 21:20:10.784105	270.2	15.3	-79.0	0.0
2025-01-22 21:20:11.911624	270.5	15.3	-79.1	0.0
2025-01-22 21:20:13.037473	270.7	15.3	-78.8	0.0
2025-01-22 21:20:14.164590	270.9	15.3	-79.0	0.0
2025-01-22 21:20:15.290940	271.2	15.3	-79.1	0.0
2025-01-22 21:20:16.418597	271.4	15.3	-79.0	0.0
2025-01-22 21:20:17.544929	271.6	15.3	-79.0	0.0
2025-01-22 21:20:18.671031	271.9	15.3	-78.9	0.0
2025-01-22 21:20:19.799262	272.1	15.3	-78.9	0.0
2025-01-22 21:20:20.926119	272.3	15.3	-79.0	0.0
2025-01-22 21:20:22.050798	272.6	15.3	-78.9	0.0
2025-01-22 21:20:23.178672	272.8	15.4	-79.2	0.0
2025-01-22 21:20:24.307517	273.0	15.4	-78.8	0.0
2025-01-22 21:20:25.433982	273.3	15.4	-78.8	0.0
2025-01-22 21:20:26.560563	273.5	15.4	-79.1	0.0
2025-01-22 21:20:27.686315	273.8	15.4	-78.8	0.0
2025-01-22 21:20:28.812121	274.0	15.4	-78.6	0.0
2025-01-22 21:20:29.939170	274.2	15.4	-78.5	0.0
2025-01-22 21:20:31.068306	274.5	15.4	-78.8	0.0
2025-01-22 21:20:32.194983	274.7	15.4	-79.0	0.0
2025-01-22 21:20:33.321621	274.9	15.4	-79.1	0.0
2025-01-22 21:20:34.449593	275.2	15.4	-78.8	0.0
2025-01-22 21:20:35.577887	275.4	15.4	-78.6	0.0
2025-01-22 21:20:36.704625	275.7	15.4	-78.9	0.0
2025-01-22 21:20:37.830998	275.9	15.4	-78.7	0.0
2025-01-22 21:20:38.957397	276.1	15.4	-78.4	0.0
2025-01-22 21:20:40.083912	276.4	15.4	-78.3	0.0
2025-01-22 21:20:41.212231	276.6	15.4	-78.7	0.0
2025-01-22 21:20:42.337065	276.8	15.4	-78.6	0.0
2025-01-22 21:20:43.462143	277.1	15.4	-78.5	0.0
2025-01-22 21:20:44.588322	277.3	15.4	-78.9	0.0
2025-01-22 21:20:45.715778	277.5	15.4	-78.9	0.0
2025-01-22 21:20:46.842796	277.8	15.4	-78.5	0.0
2025-01-22 21:20:47.969622	278.0	15.4	-78.5	0.0
2025-01-22 21:20:49.164227	278.3	15.4	-78.8	0.0
2025-01-22 21:20:50.290903	278.5	15.4	-78.8	0.0
2025-01-22 21:20:51.416991	278.7	15.4	-78.5	0.0
2025-01-22 21:20:52.544366	279.0	15.4	-78.7	0.0
2025-01-22 21:20:53.671383	279.2	15.4	-78.6	0.0
2025-01-22 21:20:54.797300	279.5	15.4	-79.0	0.0
2025-01-22 21:20:55.924393	279.7	15.4	-78.9	0.0
2025-01-22 21:20:57.052389	279.9	15.3	-78.3	0.0
2025-01-22 21:20:58.180705	280.2	15.3	-78.5	0.0
2025-01-22 21:20:59.306830	280.4	15.3	-78.4	0.0
2025-01-22 21:21:00.433305	280.6	15.3	-78.5	0.0
2025-01-22 21:21:01.560541	280.9	15.3	-78.6	0.0
2025-01-22 21:21:02.689381	281.1	15.3	-78.3	0.0
2025-01-22 21:21:03.815089	281.3	15.3	-78.4	0.0
2025-01-22 21:21:04.942013	281.6	15.3	-78.5	0.0
2025-01-22 21:21:06.067988	281.8	15.3	-78.4	0.0
2025-01-22 21:21:07.195325	282.0	15.3	-78.6	0.0
2025-01-22 21:21:08.322375	282.3	15.3	-77.9	0.0
2025-01-22 21:21:09.451283	282.5	15.2	-78.1	0.0
2025-01-22 21:21:10.577807	282.8	15.2	-78.0	0.0
2025-01-22 21:21:11.704677	283.0	15.2	-78.0	0.0
2025-01-22 21:21:12.830769	283.2	15.2	-78.0	0.0
2025-01-22 21:21:13.958444	283.5	15.2	-78.1	0.0
2025-01-22 21:21:15.084949	283.7	15.2	-77.9	0.0
2025-01-22 21:21:16.211405	283.9	15.2	-78.0	0.0
2025-01-22 21:21:17.337697	284.2	15.1	-77.8	0.0
2025-01-22 21:21:18.464831	284.4	15.1	-77.8	0.0
2025-01-22 21:21:19.590076	284.6	15.1	-78.3	0.0
2025-01-22 21:21:20.717066	284.9	15.1	-77.5	0.0
2025-01-22 21:21:21.842116	285.1	15.1	-77.9	0.0
2025-01-22 21:21:22.969570	285.3	15.1	-78.0	0.0
2025-01-22 21:21:24.096530	285.5	15.0	-77.9	0.0
2025-01-22 21:21:25.221516	285.8	15.0	-77.9	0.0
2025-01-22 21:21:26.346773	286.0	15.0	-77.7	0.0
2025-01-22 21:21:27.471863	286.2	15.0	-78.0	0.0
2025-01-22 21:21:28.597519	286.5	15.0	-77.6	0.0
2025-01-22 21:21:29.724236	286.7	15.0	-77.6	0.0
2025-01-22 21:21:30.852165	286.9	14.9	-77.9	0.0
2025-01-22 21:21:31.978154	287.2	14.9	-78.0	0.0
2025-01-22 21:21:33.104960	287.4	14.9	-78.3	0.0
2025-01-22 21:21:34.233293	287.6	14.9	-78.0	0.0
2025-01-22 21:21:35.359722	287.9	14.8	-78.0	0.0
2025-01-22 21:21:36.487342	288.1	14.8	-78.0	0.0
2025-01-22 21:21:37.616078	288.3	14.8	-78.1	0.0
2025-01-22 21:21:38.740338	288.5	14.8	-78.5	0.0
2025-01-22 21:21:39.868658	288.8	14.8	-78.8	0.0
2025-01-22 21:21:40.998339	289.0	14.7	-78.7	0.0
2025-01-22 21:21:42.125569	289.2	14.7	-77.9	0.0
2025-01-22 21:21:43.253413	289.4	14.7	-77.7	0.0
2025-01-22 21:21:44.380968	289.7	14.7	-77.6	0.0
2025-01-22 21:21:45.508353	289.9	14.6	-77.5	0.0
2025-01-22 21:21:46.636676	290.1	14.6	-77.6	0.0
2025-01-22 21:21:47.763613	290.3	14.6	-77.4	0.0
2025-01-22 21:21:48.891639	290.6	14.6	-78.2	0.0
2025-01-22 21:21:50.020075	290.8	14.5	-78.1	0.0
2025-01-22 21:21:51.148179	291.0	14.5	-78.4	0.0
2025-01-22 21:21:52.276009	291.2	14.5	-78.6	0.0
2025-01-22 21:21:53.402436	291.5	14.4	-77.9	0.0
2025-01-22 21:21:54.530475	291.7	14.4	-78.5	0.0
2025-01-22 21:21:55.660250	291.9	14.4	-78.2	0.0
2025-01-22 21:21:56.788183	292.1	14.4	-78.2	0.0
2025-01-22 21:21:57.912187	292.4	14.3	-78.2	0.0
2025-01-22 21:21:59.038855	292.6	14.3	-77.6	0.0
2025-01-22 21:22:00.165378	292.8	14.3	-77.3	0.0
2025-01-22 21:22:01.291031	293.0	14.2	-77.9	0.0
2025-01-22 21:22:02.417683	293.2	14.2	-78.2	0.0
2025-01-22 21:22:03.544881	293.5	14.2	-78.2	0.0
2025-01-22 21:22:04.670773	293.7	14.1	-77.8	0.0
2025-01-22 21:22:05.796204	293.9	14.1	-77.4	0.0
2025-01-22 21:22:06.923051	294.1	14.1	-77.8	0.0
2025-01-22 21:22:08.050442	294.3	14.0	-78.0	0.0
2025-01-22 21:22:09.178099	294.5	14.0	-78.2	0.0
2025-01-22 21:22:10.304603	294.8	14.0	-78.0	0.0
2025-01-22 21:22:11.430501	295.0	13.9	-77.7	0.0
2025-01-22 21:22:12.556728	295.2	13.9	-77.5	0.0
2025-01-22 21:22:13.683006	295.4	13.9	-78.2	0.0
2025-01-22 21:22:14.807730	295.6	13.8	-77.8	0.0
2025-01-22 21:22:15.934463	295.8	13.8	-78.0	0.0
2025-01-22 21:22:17.062134	296.0	13.8	-78.3	0.0
2025-01-22 21:22:18.192396	296.3	13.7	-77.7	0.0
2025-01-22 21:22:19.319213	296.5	13.7	-77.5	0.0
2025-01-22 21:22:20.443955	296.7	13.7	-78.1	0.0
2025-01-22 21:22:21.569410	296.9	13.6	-77.4	0.0
2025-01-22 21:22:22.695743	297.1	13.6	-77.5	0.0
2025-01-22 21:22:23.821881	297.3	13.6	-77.8	0.0
2025-01-22 21:22:24.949629	297.5	13.5	-77.4	0.0
2025-01-22 21:22:26.076036	297.7	13.5	-77.4	0.0
2025-01-22 21:22:27.203285	297.9	13.4	-77.4	0.0
2025-01-22 21:22:28.330641	298.2	13.4	-78.0	0.0
2025-01-22 21:22:29.456824	298.4	13.4	-78.1	0.0
2025-01-22 21:22:30.583640	298.6	13.3	-78.3	0.0
2025-01-22 21:22:31.709487	298.8	13.3	-78.4	0.0
2025-01-22 21:22:32.835428	299.0	13.2	-77.9	0.0
2025-01-22 21:22:33.962469	299.2	13.2	-77.7	0.0
2025-01-22 21:22:35.090402	299.4	13.2	-78.5	0.0
2025-01-22 21:22:36.217527	299.6	13.1	-78.0	0.0
2025-01-22 21:22:37.343398	299.8	13.1	-77.5	0.0
2025-01-22 21:22:38.471786	300.0	13.0	-76.8	0.0
2025-01-22 21:22:39.598183	300.2	13.0	-77.6	0.0
2025-01-22 21:22:40.725224	300.4	13.0	-77.9	0.0
2025-01-22 21:22:41.851589	300.6	12.9	-77.4	0.0
2025-01-22 21:22:42.979792	300.8	12.9	-76.2	0.0
2025-01-22 21:22:44.106499	301.0	12.8	-76.2	0.0
2025-01-22 21:22:45.231273	301.2	12.8	-77.1	0.0
2025-01-22 21:22:46.358975	301.4	12.8	-76.7	0.0
2025-01-22 21:22:47.484846	301.6	12.7	-77.1	0.0
2025-01-22 21:22:48.610099	301.8	12.7	-77.9	0.0
2025-01-22 21:22:49.736490	302.0	12.6	-77.7	0.0
2025-01-22 21:22:50.861934	302.2	12.6	-77.8	0.0
2025-01-22 21:22:51.990159	302.4	12.5	-77.5	0.0
2025-01-22 21:22:53.117374	302.6	12.5	-77.8	0.0
2025-01-22 21:22:54.244009	302.8	12.5	-77.7	0.0
2025-01-22 21:22:55.371228	303.0	12.4	-77.9	0.0
2025-01-22 21:22:56.495981	303.2	12.4	-77.5	0.0
2025-01-22 21:22:57.623559	303.4	12.3	-77.9	0.0
2025-01-22 21:22:58.749986	303.6	12.3	-77.6	0.0
2025-01-22 21:22:59.875847	303.8	12.2	-77.6	0.0
2025-01-22 21:23:01.001305	304.0	12.2	-77.5	0.0
2025-01-22 21:23:02.128005	304.2	12.1	-77.9	0.0
2025-01-22 21:23:03.254091	304.3	12.1	-77.4	0.0
2025-01-22 21:23:04.381527	304.5	12.0	-77.5	0.0
2025-01-22 21:23:05.507134	304.7	12.0	-77.4	0.0
2025-01-22 21:23:06.634883	304.9	12.0	-77.9	0.0
2025-01-22 21:23:07.762054	305.1	11.9	-77.7	0.0
2025-01-22 21:23:08.890069	305.3	11.9	-77.8	0.0
2025-01-22 21:23:10.017014	305.5	11.8	-78.0	0.0
2025-01-22 21:23:11.147963	305.7	11.8	-77.8	0.0
2025-01-22 21:23:12.273067	305.9	11.7	-78.0	0.0
2025-01-22 21:23:13.399044	306.0	11.7	-77.8	0.0
2025-01-22 21:23:14.524630	306.2	11.6	-77.8	0.0
2025-01-22 21:23:15.652944	306.4	11.6	-76.6	0.0
2025-01-22 21:23:16.781282	306.6	11.5	-77.8	0.0
2025-01-22 21:23:17.907794	306.8	11.5	-77.9	0.0
2025-01-22 21:23:19.034609	307.0	11.4	-77.9	0.0
2025-01-22 21:23:20.163063	307.1	11.4	-77.9	0.0
2025-01-22 21:23:21.290397	307.3	11.3	-78.3	0.0
2025-01-22 21:23:22.416447	307.5	11.3	-78.2	0.0
2025-01-22 21:23:23.542296	307.7	11.2	-78.1	0.0
2025-01-22 21:23:24.668377	307.9	11.2	-78.3	0.0
2025-01-22 21:23:25.794691	308.1	11.1	-77.9	0.0
2025-01-22 21:23:26.919924	308.2	11.1	-77.7	0.0
2025-01-22 21:23:28.046022	308.4	11.0	-76.7	0.0
2025-01-22 21:23:29.171350	308.6	11.0	-77.1	0.0
2025-01-22 21:23:30.299350	308.8	10.9	-78.9	0.0
2025-01-22 21:23:31.426885	308.9	10.9	-79.4	0.0
2025-01-22 21:23:32.555217	309.1	10.8	-79.9	0.0
2025-01-22 21:23:33.680643	309.3	10.8	-80.4	0.0
2025-01-22 21:23:34.807388	309.5	10.7	-80.7	0.0
2025-01-22 21:23:35.933417	309.6	10.7	-80.9	0.0
2025-01-22 21:23:37.058083	309.8	10.6	-80.9	0.0
2025-01-22 21:23:38.185366	310.0	10.6	-81.3	0.0
2025-01-22 21:23:39.311252	310.2	10.5	-81.4	0.0
2025-01-22 21:23:40.438009	310.3	10.5	-81.5	0.0
2025-01-22 21:23:41.564919	310.5	10.4	-81.4	0.0
2025-01-22 21:23:42.691435	310.7	10.4	-81.3	0.0
2025-01-22 21:23:43.819080	310.8	10.3	-81.3	0.0
2025-01-22 21:23:44.943854	311.0	10.3	-81.1	0.0
2025-01-22 21:23:46.070767	311.2	10.2	-81.5	0.0
2025-01-22 21:23:47.197487	311.4	10.2	-81.2	0.0
2025-01-22 21:23:48.323726	311.5	10.1	-81.2	0.0
2025-01-22 21:23:49.448601	311.7	10.1	-81.0	0.0
2025-01-22 21:23:50.575677	311.9	10.0	-81.3	0.0
#Closed at: 2025-01-22 21:17:23.621910