passes_logs/2025/01/22/planumMaritime01/planumMaritime01__20250122_085341_METEOR-M2_3_rec.log

#Pass ID: 20250122_085341_METEOR-M2 3
#Satellite: METEOR-M2 3
#Configuration: METEOR-M2 3
#Start time: 2025-01-22 08:53:46.542168

#LorettStation: 1.0.0 05.05.2024
#Station: planumMaritime01
#Location: 37.49445 lon 55.92918 lat
#TLE: 1 57166U 23091A   25021.15623468  .00000084  00000+0  55759-4 0  9991
#TLE: 2 57166  98.6840  79.5439 0003509 203.5188 156.5830 14.23970854 81643

#Time	Az	El	Level	SNR
2025-01-22 08:53:48.711420	2.0	10.2	-66.1	0.0
2025-01-22 08:53:50.965777	1.8	10.3	-66.7	0.0
2025-01-22 08:53:53.220203	1.6	10.5	-66.7	0.0
2025-01-22 08:53:55.473207	1.4	10.7	-67.3	0.0
2025-01-22 08:53:57.724279	1.1	10.8	-68.0	0.0
2025-01-22 08:53:59.979049	0.9	11.0	-67.5	0.0
2025-01-22 08:54:02.232152	0.7	11.2	-69.4	0.0
2025-01-22 08:54:04.483637	0.4	11.3	-67.7	0.0
2025-01-22 08:54:06.737318	0.2	11.5	-69.2	0.0
2025-01-22 08:54:08.992125	360.0	11.7	-69.0	0.0
2025-01-22 08:54:11.240549	359.7	11.9	-70.0	0.0
2025-01-22 08:54:13.493258	359.5	12.0	-69.7	0.0
2025-01-22 08:54:15.744411	359.2	12.2	-69.5	0.0
2025-01-22 08:54:17.995499	359.0	12.4	-69.4	0.0
2025-01-22 08:54:20.247329	358.7	12.6	-68.7	0.0
2025-01-22 08:54:22.497839	358.4	12.7	-69.6	0.0
2025-01-22 08:54:24.749460	358.2	12.9	-70.6	0.0
2025-01-22 08:54:27.001185	357.9	13.1	-70.2	0.0
2025-01-22 08:54:29.255085	357.6	13.3	-68.4	0.0
2025-01-22 08:54:31.506070	357.4	13.5	-69.7	0.0
2025-01-22 08:54:33.760303	357.1	13.6	-72.2	0.0
2025-01-22 08:54:36.015349	356.8	13.8	-70.3	0.0
2025-01-22 08:54:38.267998	356.5	14.0	-70.9	0.0
2025-01-22 08:54:40.519253	356.2	14.2	-71.3	0.0
2025-01-22 08:54:42.769233	356.0	14.4	-70.7	0.0
2025-01-22 08:54:45.021983	355.7	14.6	-72.4	0.0
2025-01-22 08:54:47.273243	355.4	14.8	-74.5	0.0
2025-01-22 08:54:49.526732	355.1	14.9	-71.6	0.0
2025-01-22 08:54:51.780954	354.7	15.1	-72.7	0.0
2025-01-22 08:54:54.032172	354.4	15.3	-71.4	0.0
2025-01-22 08:54:56.282163	354.1	15.5	-72.6	0.0
2025-01-22 08:54:58.535290	353.8	15.7	-69.6	0.0
2025-01-22 08:55:00.786415	353.5	15.9	-70.2	0.0
2025-01-22 08:55:03.036067	353.1	16.1	-70.7	0.0
2025-01-22 08:55:05.286968	352.8	16.3	-69.5	0.0
2025-01-22 08:55:07.538203	352.5	16.4	-69.5	0.0
2025-01-22 08:55:09.785863	352.1	16.6	-71.7	0.0
2025-01-22 08:55:12.035833	351.8	16.8	-71.9	0.0
2025-01-22 08:55:14.287101	351.4	17.0	-70.2	0.0
2025-01-22 08:55:16.540423	351.1	17.2	-70.1	0.0
2025-01-22 08:55:18.794110	350.7	17.4	-71.8	0.0
2025-01-22 08:55:21.045292	350.4	17.6	-70.5	0.0
2025-01-22 08:55:23.297538	350.0	17.8	-71.8	0.0
2025-01-22 08:55:25.551660	349.6	18.0	-70.9	0.0
2025-01-22 08:55:27.804034	349.2	18.2	-70.5	0.0
2025-01-22 08:55:30.055149	348.9	18.4	-70.7	0.0
2025-01-22 08:55:32.309968	348.5	18.6	-72.6	0.0
2025-01-22 08:55:34.563408	348.1	18.8	-73.3	0.0
2025-01-22 08:55:36.813482	347.7	19.0	-73.5	0.0
2025-01-22 08:55:39.065936	347.3	19.1	-72.2	0.0
2025-01-22 08:55:41.319164	346.9	19.3	-72.3	0.0
2025-01-22 08:55:43.569595	346.5	19.5	-73.2	0.0
2025-01-22 08:55:45.821901	346.0	19.7	-73.5	0.0
2025-01-22 08:55:48.072092	345.6	19.9	-72.7	0.0
2025-01-22 08:55:50.323342	345.2	20.1	-73.4	0.0
2025-01-22 08:55:52.577116	344.7	20.3	-71.7	0.0
2025-01-22 08:55:54.829265	344.3	20.5	-73.2	0.0
2025-01-22 08:55:57.080514	343.9	20.7	-72.9	0.0
2025-01-22 08:55:59.330465	343.4	20.9	-71.3	0.0
2025-01-22 08:56:01.580565	342.9	21.1	-71.6	0.0
2025-01-22 08:56:03.832049	342.5	21.3	-70.6	0.0
2025-01-22 08:56:06.085283	342.0	21.5	-72.9	0.0
2025-01-22 08:56:08.338525	341.5	21.7	-71.9	0.0
2025-01-22 08:56:10.592346	341.0	21.9	-73.2	0.0
2025-01-22 08:56:12.842864	340.5	22.0	-74.7	0.0
2025-01-22 08:56:15.095132	340.1	22.2	-71.6	0.0
2025-01-22 08:56:17.349190	339.5	22.4	-71.4	0.0
2025-01-22 08:56:19.600042	339.0	22.6	-76.0	0.0
2025-01-22 08:56:21.854255	338.5	22.8	-75.7	0.0
2025-01-22 08:56:24.111346	338.0	23.0	-75.4	0.0
2025-01-22 08:56:26.363155	337.5	23.2	-73.6	0.0
2025-01-22 08:56:28.616165	336.9	23.3	-74.5	0.0
2025-01-22 08:56:30.869614	336.4	23.5	-73.6	0.0
2025-01-22 08:56:33.124895	335.9	23.7	-73.3	0.0
2025-01-22 08:56:35.375984	335.3	23.9	-72.4	0.0
2025-01-22 08:56:37.626958	334.7	24.1	-74.3	0.0
2025-01-22 08:56:39.879374	334.2	24.2	-69.8	0.0
2025-01-22 08:56:42.133270	333.6	24.4	-73.0	0.0
2025-01-22 08:56:44.389431	333.0	24.6	-74.4	0.0
2025-01-22 08:56:46.640313	332.4	24.7	-74.8	0.0
2025-01-22 08:56:48.893090	331.9	24.9	-75.3	0.0
2025-01-22 08:56:51.145165	331.3	25.1	-73.7	0.0
2025-01-22 08:56:53.398321	330.7	25.2	-74.2	0.0
2025-01-22 08:56:55.651536	330.0	25.4	-74.3	0.0
2025-01-22 08:56:57.905299	329.4	25.5	-72.5	0.0
2025-01-22 08:57:00.160080	328.8	25.7	-73.6	0.0
2025-01-22 08:57:02.413316	328.2	25.8	-73.3	0.0
2025-01-22 08:57:04.667219	327.5	26.0	-73.4	0.0
2025-01-22 08:57:06.918330	326.9	26.1	-74.3	0.0
2025-01-22 08:57:09.171094	326.3	26.3	-72.0	0.0
2025-01-22 08:57:11.424626	325.6	26.4	-74.4	0.0
2025-01-22 08:57:13.679633	324.9	26.5	-71.4	0.0
2025-01-22 08:57:15.933676	324.3	26.7	-74.3	0.0
2025-01-22 08:57:18.186469	323.6	26.8	-75.3	0.0
2025-01-22 08:57:20.439735	322.9	26.9	-75.8	0.0
2025-01-22 08:57:22.691575	322.3	27.1	-74.1	0.0
2025-01-22 08:57:24.943444	321.6	27.2	-75.1	0.0
2025-01-22 08:57:27.197632	320.9	27.3	-74.3	0.0
2025-01-22 08:57:29.450938	320.2	27.4	-74.9	0.0
2025-01-22 08:57:31.702345	319.5	27.5	-76.3	0.0
2025-01-22 08:57:33.955017	318.8	27.6	-75.4	0.0
2025-01-22 08:57:36.208261	318.1	27.7	-74.8	0.0
2025-01-22 08:57:38.460989	317.4	27.8	-76.2	0.0
2025-01-22 08:57:40.713104	316.6	27.9	-73.9	0.0
2025-01-22 08:57:42.962484	315.9	27.9	-76.2	0.0
2025-01-22 08:57:45.217004	315.2	28.0	-76.2	0.0
2025-01-22 08:57:47.468237	314.5	28.1	-75.8	0.0
2025-01-22 08:57:49.719243	313.7	28.1	-75.8	0.0
2025-01-22 08:57:51.971411	313.0	28.2	-75.3	0.0
2025-01-22 08:57:54.223822	312.3	28.3	-75.8	0.0
2025-01-22 08:57:56.475000	311.5	28.3	-77.1	0.0
2025-01-22 08:57:58.725904	310.8	28.4	-76.3	0.0
2025-01-22 08:58:00.976272	310.1	28.4	-76.5	0.0
2025-01-22 08:58:03.231100	309.3	28.4	-76.3	0.0
2025-01-22 08:58:05.482178	308.6	28.5	-76.7	0.0
2025-01-22 08:58:07.733351	307.8	28.5	-76.7	0.0
2025-01-22 08:58:09.981823	307.1	28.5	-77.1	0.0
2025-01-22 08:58:12.233834	306.3	28.5	-76.7	0.0
2025-01-22 08:58:14.488863	305.6	28.5	-77.3	0.0
2025-01-22 08:58:16.741602	304.8	28.5	-77.5	0.0
2025-01-22 08:58:18.992937	304.1	28.5	-77.3	0.0
2025-01-22 08:58:21.245600	303.3	28.5	-76.5	0.0
2025-01-22 08:58:23.497676	302.6	28.5	-76.8	0.0
2025-01-22 08:58:25.747255	301.8	28.5	-76.9	0.0
2025-01-22 08:58:28.000240	301.1	28.5	-77.1	0.0
2025-01-22 08:58:30.252881	300.3	28.4	-76.9	0.0
2025-01-22 08:58:32.504654	299.6	28.4	-76.6	0.0
2025-01-22 08:58:34.755191	298.8	28.4	-74.6	0.0
2025-01-22 08:58:37.007049	298.1	28.3	-77.2	0.0
2025-01-22 08:58:39.262001	297.4	28.3	-77.0	0.0
2025-01-22 08:58:41.515315	296.6	28.2	-77.4	0.0
2025-01-22 08:58:43.769157	295.9	28.1	-76.7	0.0
2025-01-22 08:58:46.023058	295.2	28.1	-77.2	0.0
2025-01-22 08:58:48.274685	294.4	28.0	-77.0	0.0
2025-01-22 08:58:50.528732	293.7	27.9	-77.1	0.0
2025-01-22 08:58:52.781217	293.0	27.8	-77.0	0.0
2025-01-22 08:58:55.036009	292.3	27.8	-77.4	0.0
2025-01-22 08:58:57.287061	291.6	27.7	-76.7	0.0
2025-01-22 08:58:59.540364	290.8	27.6	-76.9	0.0
2025-01-22 08:59:01.790670	290.1	27.5	-77.4	0.0
2025-01-22 08:59:04.041922	289.4	27.4	-77.2	0.0
2025-01-22 08:59:06.296019	288.7	27.3	-76.9	0.0
2025-01-22 08:59:08.548679	288.1	27.1	-77.4	0.0
2025-01-22 08:59:10.798049	287.4	27.0	-76.8	0.0
2025-01-22 08:59:13.048230	286.7	26.9	-77.0	0.0
2025-01-22 08:59:15.298086	286.0	26.8	-77.2	0.0
2025-01-22 08:59:17.547073	285.3	26.7	-77.2	0.0
2025-01-22 08:59:19.799843	284.7	26.5	-76.9	0.0
2025-01-22 08:59:22.051029	284.0	26.4	-76.8	0.0
2025-01-22 08:59:24.305009	283.4	26.2	-77.1	0.0
2025-01-22 08:59:26.557509	282.7	26.1	-76.9	0.0
2025-01-22 08:59:28.807867	282.1	26.0	-76.7	0.0
2025-01-22 08:59:31.059781	281.4	25.8	-76.8	0.0
2025-01-22 08:59:33.311905	280.8	25.7	-77.6	0.0
2025-01-22 08:59:35.563248	280.2	25.5	-76.4	0.0
2025-01-22 08:59:37.817391	279.6	25.3	-76.2	0.0
2025-01-22 08:59:40.071338	279.0	25.2	-77.2	0.0
2025-01-22 08:59:42.321619	278.4	25.0	-77.2	0.0
2025-01-22 08:59:44.573352	277.8	24.9	-76.1	0.0
2025-01-22 08:59:46.823986	277.2	24.7	-76.7	0.0
2025-01-22 08:59:49.073998	276.6	24.5	-77.1	0.0
2025-01-22 08:59:51.327916	276.0	24.4	-77.2	0.0
2025-01-22 08:59:53.580450	275.4	24.2	-76.3	0.0
2025-01-22 08:59:55.832627	274.9	24.0	-76.6	0.0
2025-01-22 08:59:58.084378	274.3	23.8	-76.8	0.0
2025-01-22 09:00:00.337062	273.7	23.7	-76.4	0.0
2025-01-22 09:00:02.587656	273.2	23.5	-76.4	0.0
2025-01-22 09:00:04.840003	272.7	23.3	-76.6	0.0
2025-01-22 09:00:07.093357	272.1	23.1	-76.6	0.0
2025-01-22 09:00:09.344586	271.6	22.9	-75.2	0.0
2025-01-22 09:00:11.595143	271.1	22.7	-76.5	0.0
2025-01-22 09:00:13.844502	270.6	22.5	-76.8	0.0
2025-01-22 09:00:16.094881	270.0	22.4	-76.6	0.0
2025-01-22 09:00:18.344975	269.5	22.2	-76.5	0.0
2025-01-22 09:00:20.595011	269.0	22.0	-75.5	0.0
2025-01-22 09:00:22.846414	268.6	21.8	-76.1	0.0
2025-01-22 09:00:25.098289	268.1	21.6	-75.8	0.0
2025-01-22 09:00:27.348209	267.6	21.4	-76.4	0.0
2025-01-22 09:00:29.599325	267.1	21.2	-76.2	0.0
2025-01-22 09:00:31.850659	266.6	21.0	-76.6	0.0
2025-01-22 09:00:34.099926	266.2	20.8	-76.4	0.0
2025-01-22 09:00:36.354063	265.7	20.6	-76.0	0.0
2025-01-22 09:00:38.605813	265.3	20.4	-75.7	0.0
2025-01-22 09:00:40.858152	264.8	20.2	-75.7	0.0
2025-01-22 09:00:43.110313	264.4	20.0	-77.6	0.0
2025-01-22 09:00:45.366248	264.0	19.9	-76.7	0.0
2025-01-22 09:00:47.621325	263.5	19.7	-76.4	0.0
2025-01-22 09:00:49.873789	263.1	19.5	-76.6	0.0
2025-01-22 09:00:52.125331	262.7	19.3	-76.6	0.0
2025-01-22 09:00:54.377456	262.3	19.1	-76.4	0.0
2025-01-22 09:00:56.629820	261.9	18.9	-76.9	0.0
2025-01-22 09:00:58.882774	261.5	18.7	-76.7	0.0
2025-01-22 09:01:01.135706	261.1	18.5	-75.9	0.0
2025-01-22 09:01:03.384646	260.7	18.3	-76.4	0.0
2025-01-22 09:01:05.636230	260.3	18.1	-76.8	0.0
2025-01-22 09:01:07.885916	259.9	17.9	-76.6	0.0
2025-01-22 09:01:10.137887	259.5	17.7	-76.6	0.0
2025-01-22 09:01:12.390238	259.2	17.5	-76.3	0.0
2025-01-22 09:01:14.641231	258.8	17.3	-76.6	0.0
2025-01-22 09:01:16.893744	258.4	17.1	-76.5	0.0
2025-01-22 09:01:19.145622	258.1	16.9	-75.6	0.0
2025-01-22 09:01:21.398365	257.7	16.7	-77.0	0.0
2025-01-22 09:01:23.650601	257.4	16.5	-76.7	0.0
2025-01-22 09:01:25.904658	257.1	16.4	-76.2	0.0
2025-01-22 09:01:28.157116	256.7	16.2	-77.1	0.0
2025-01-22 09:01:30.409307	256.4	16.0	-76.4	0.0
2025-01-22 09:01:32.660716	256.0	15.8	-76.8	0.0
2025-01-22 09:01:34.911607	255.7	15.6	-76.2	0.0
2025-01-22 09:01:37.164195	255.4	15.4	-76.3	0.0
2025-01-22 09:01:39.414517	255.1	15.2	-76.5	0.0
2025-01-22 09:01:41.666960	254.8	15.0	-76.2	0.0
2025-01-22 09:01:43.916539	254.5	14.8	-76.6	0.0
2025-01-22 09:01:46.168496	254.2	14.7	-76.4	0.0
2025-01-22 09:01:48.421117	253.9	14.5	-76.3	0.0
2025-01-22 09:01:50.672896	253.6	14.3	-76.7	0.0
2025-01-22 09:01:52.925726	253.3	14.1	-76.6	0.0
2025-01-22 09:01:55.178501	253.0	13.9	-76.6	0.0
2025-01-22 09:01:57.429284	252.7	13.7	-76.4	0.0
2025-01-22 09:01:59.680523	252.4	13.5	-75.6	0.0
2025-01-22 09:02:01.931864	252.1	13.4	-76.2	0.0
2025-01-22 09:02:04.184928	251.9	13.2	-76.0	0.0
2025-01-22 09:02:06.437491	251.6	13.0	-76.3	0.0
2025-01-22 09:02:08.689172	251.3	12.8	-75.5	0.0
2025-01-22 09:02:10.942292	251.0	12.6	-76.0	0.0
2025-01-22 09:02:13.194190	250.8	12.5	-75.7	0.0
2025-01-22 09:02:15.444957	250.5	12.3	-76.7	0.0
2025-01-22 09:02:17.697251	250.3	12.1	-75.8	0.0
2025-01-22 09:02:19.951357	250.0	11.9	-75.3	0.0
2025-01-22 09:02:22.201697	249.8	11.8	-75.4	0.0
2025-01-22 09:02:24.456131	249.5	11.6	-75.6	0.0
2025-01-22 09:02:26.707752	249.3	11.4	-76.2	0.0
2025-01-22 09:02:28.958002	249.0	11.2	-75.7	0.0
2025-01-22 09:02:31.209410	248.8	11.1	-76.0	0.0
2025-01-22 09:02:33.459069	248.6	10.9	-76.6	0.0
2025-01-22 09:02:35.710546	248.3	10.7	-76.5	0.0
2025-01-22 09:02:37.960077	248.1	10.5	-78.9	0.0
2025-01-22 09:02:40.210278	247.9	10.4	-80.1	0.0
2025-01-22 09:02:42.462348	247.7	10.2	-80.7	0.0
2025-01-22 09:02:44.715875	247.4	10.0	-80.5	0.0
#Closed at: 2025-01-22 08:53:41.545024