passes_logs/2025/01/22/planumMaritime01/planumMaritime01__20250122_064604_METOP-C_rec.log

#Pass ID: 20250122_064604_METOP-C
#Satellite: METOP-C
#Configuration: METOP-C
#Start time: 2025-01-22 06:46:09.068474

#LorettStation: 1.0.0 05.05.2024
#Station: planumMaritime01
#Location: 37.49445 lon 55.92918 lat
#TLE: 1 43689U 18087A   25021.13484048  .00000355  00000+0  18225-3 0  9999
#TLE: 2 43689  98.6955  83.5353 0001694 153.0622 207.0643 14.21485654322087

#Time	Az	El	Level	SNR
2025-01-22 06:46:11.227239	29.6	10.2	-64.2	0.0
2025-01-22 06:46:13.479999	29.8	10.3	-65.9	0.0
2025-01-22 06:46:15.733632	30.0	10.5	-61.8	0.0
2025-01-22 06:46:17.985272	30.2	10.7	-65.8	0.0
2025-01-22 06:46:20.238147	30.4	10.9	-60.9	0.0
2025-01-22 06:46:22.489361	30.6	11.0	-61.8	0.0
2025-01-22 06:46:24.740933	30.8	11.2	-63.5	0.0
2025-01-22 06:46:26.993018	31.0	11.4	-69.2	0.0
2025-01-22 06:46:29.246294	31.2	11.6	-67.8	0.0
2025-01-22 06:46:31.498982	31.4	11.8	-65.6	0.0
2025-01-22 06:46:33.753275	31.6	12.0	-66.3	0.0
2025-01-22 06:46:36.005124	31.9	12.1	-66.2	0.0
2025-01-22 06:46:38.255899	32.1	12.3	-67.6	0.0
2025-01-22 06:46:40.507022	32.3	12.5	-67.4	0.0
2025-01-22 06:46:42.760753	32.5	12.7	-66.3	0.0
2025-01-22 06:46:45.012052	32.7	12.9	-65.6	0.0
2025-01-22 06:46:47.263460	33.0	13.1	-64.0	0.0
2025-01-22 06:46:49.515439	33.2	13.3	-63.6	0.0
2025-01-22 06:46:51.770830	33.4	13.5	-64.6	0.0
2025-01-22 06:46:54.023975	33.7	13.7	-62.6	0.0
2025-01-22 06:46:56.274487	33.9	13.8	-61.6	0.0
2025-01-22 06:46:58.526773	34.2	14.0	-63.6	0.0
2025-01-22 06:47:00.780042	34.4	14.2	-64.0	0.0
2025-01-22 06:47:03.030894	34.7	14.4	-62.8	0.0
2025-01-22 06:47:05.284157	34.9	14.6	-64.6	0.0
2025-01-22 06:47:07.538649	35.2	14.8	-63.8	0.0
2025-01-22 06:47:09.791268	35.4	15.0	-65.0	0.0
2025-01-22 06:47:12.044848	35.7	15.2	-66.1	0.0
2025-01-22 06:47:14.299194	36.0	15.4	-66.2	0.0
2025-01-22 06:47:16.552044	36.2	15.6	-65.1	0.0
2025-01-22 06:47:18.805084	36.5	15.8	-64.8	0.0
2025-01-22 06:47:21.056076	36.8	16.1	-64.1	0.0
2025-01-22 06:47:23.310839	37.1	16.3	-61.1	0.0
2025-01-22 06:47:25.562067	37.4	16.5	-62.8	0.0
2025-01-22 06:47:27.810231	37.7	16.7	-64.7	0.0
2025-01-22 06:47:30.062522	37.9	16.9	-66.2	0.0
2025-01-22 06:47:32.313929	38.2	17.1	-64.3	0.0
2025-01-22 06:47:34.567476	38.5	17.3	-62.5	0.0
2025-01-22 06:47:36.819180	38.9	17.5	-66.1	0.0
2025-01-22 06:47:39.072705	39.2	17.7	-63.5	0.0
2025-01-22 06:47:41.324362	39.5	18.0	-64.8	0.0
2025-01-22 06:47:43.579056	39.8	18.2	-67.6	0.0
2025-01-22 06:47:45.832396	40.1	18.4	-67.3	0.0
2025-01-22 06:47:48.088324	40.5	18.6	-66.4	0.0
2025-01-22 06:47:50.341663	40.8	18.8	-67.0	0.0
2025-01-22 06:47:52.594022	41.1	19.1	-67.7	0.0
2025-01-22 06:47:54.847477	41.5	19.3	-68.3	0.0
2025-01-22 06:47:57.100239	41.8	19.5	-66.8	0.0
2025-01-22 06:47:59.352642	42.2	19.7	-68.5	0.0
2025-01-22 06:48:01.606741	42.5	20.0	-68.1	0.0
2025-01-22 06:48:03.862769	42.9	20.2	-67.8	0.0
2025-01-22 06:48:06.114954	43.3	20.4	-70.0	0.0
2025-01-22 06:48:08.367217	43.6	20.7	-71.5	0.0
2025-01-22 06:48:10.621216	44.0	20.9	-68.5	0.0
2025-01-22 06:48:12.874041	44.4	21.1	-70.8	0.0
2025-01-22 06:48:15.125077	44.8	21.3	-71.6	0.0
2025-01-22 06:48:17.378155	45.2	21.6	-70.5	0.0
2025-01-22 06:48:19.630952	45.6	21.8	-72.0	0.0
2025-01-22 06:48:21.884081	46.0	22.1	-70.1	0.0
2025-01-22 06:48:24.136565	46.4	22.3	-69.4	0.0
2025-01-22 06:48:26.387226	46.8	22.5	-67.2	0.0
2025-01-22 06:48:28.638534	47.3	22.8	-69.5	0.0
2025-01-22 06:48:30.890914	47.7	23.0	-68.9	0.0
2025-01-22 06:48:33.144407	48.1	23.2	-68.7	0.0
2025-01-22 06:48:35.396798	48.6	23.5	-68.3	0.0
2025-01-22 06:48:37.651205	49.0	23.7	-68.2	0.0
2025-01-22 06:48:39.902279	49.5	23.9	-69.5	0.0
2025-01-22 06:48:42.153166	50.0	24.2	-69.2	0.0
2025-01-22 06:48:44.404865	50.4	24.4	-69.7	0.0
2025-01-22 06:48:46.656223	50.9	24.7	-68.6	0.0
2025-01-22 06:48:48.909933	51.4	24.9	-68.6	0.0
2025-01-22 06:48:51.162291	51.9	25.1	-68.6	0.0
2025-01-22 06:48:53.416324	52.4	25.4	-69.2	0.0
2025-01-22 06:48:55.667405	52.9	25.6	-69.7	0.0
2025-01-22 06:48:57.920241	53.4	25.9	-70.4	0.0
2025-01-22 06:49:00.173132	54.0	26.1	-71.1	0.0
2025-01-22 06:49:02.427653	54.5	26.3	-70.5	0.0
2025-01-22 06:49:04.677700	55.0	26.6	-70.4	0.0
2025-01-22 06:49:06.928384	55.6	26.8	-70.8	0.0
2025-01-22 06:49:09.182183	56.1	27.1	-70.1	0.0
2025-01-22 06:49:11.432053	56.7	27.3	-71.1	0.0
2025-01-22 06:49:13.685359	57.3	27.5	-73.3	0.0
2025-01-22 06:49:15.939892	57.9	27.8	-73.3	0.0
2025-01-22 06:49:18.192448	58.5	28.0	-71.7	0.0
2025-01-22 06:49:20.444156	59.1	28.2	-73.3	0.0
2025-01-22 06:49:22.697455	59.7	28.5	-73.4	0.0
2025-01-22 06:49:24.946173	60.3	28.7	-72.9	0.0
2025-01-22 06:49:27.198821	60.9	28.9	-73.7	0.0
2025-01-22 06:49:29.449784	61.5	29.1	-73.9	0.0
2025-01-22 06:49:31.700376	62.2	29.4	-73.8	0.0
2025-01-22 06:49:33.951059	62.8	29.6	-72.6	0.0
2025-01-22 06:49:36.202610	63.5	29.8	-75.1	0.0
2025-01-22 06:49:38.455684	64.2	30.0	-73.9	0.0
2025-01-22 06:49:40.707409	64.9	30.2	-74.8	0.0
2025-01-22 06:49:42.960083	65.5	30.5	-74.1	0.0
2025-01-22 06:49:45.214287	66.2	30.7	-74.4	0.0
2025-01-22 06:49:47.466926	66.9	30.9	-74.8	0.9
2025-01-22 06:49:49.719655	67.7	31.1	-75.0	1.1
2025-01-22 06:49:51.973048	68.4	31.3	-73.8	0.8
2025-01-22 06:49:54.225616	69.1	31.5	-72.5	0.0
2025-01-22 06:49:56.478643	69.9	31.7	-74.4	0.0
2025-01-22 06:49:58.730156	70.6	31.8	-73.1	0.0
2025-01-22 06:50:00.981714	71.4	32.0	-73.4	0.2
2025-01-22 06:50:03.234263	72.1	32.2	-73.9	0.0
2025-01-22 06:50:05.485680	72.9	32.4	-73.9	0.0
2025-01-22 06:50:07.739115	73.7	32.5	-70.0	0.0
2025-01-22 06:50:09.991703	74.5	32.7	-73.9	0.0
2025-01-22 06:50:12.246012	75.3	32.9	-73.6	0.4
2025-01-22 06:50:14.502013	76.1	33.0	-73.3	2.3
2025-01-22 06:50:16.753906	76.9	33.2	-74.0	1.9
2025-01-22 06:50:19.005416	77.7	33.3	-72.9	2.2
2025-01-22 06:50:21.260848	78.6	33.5	-73.2	1.2
2025-01-22 06:50:23.513771	79.4	33.6	-73.1	0.0
2025-01-22 06:50:25.768808	80.2	33.7	-73.1	1.6
2025-01-22 06:50:28.024318	81.1	33.8	-73.7	2.9
2025-01-22 06:50:30.273894	81.9	33.9	-73.9	0.0
2025-01-22 06:50:32.527343	82.8	34.0	-72.1	0.0
2025-01-22 06:50:34.781445	83.7	34.1	-73.5	0.4
2025-01-22 06:50:37.033447	84.5	34.2	-73.1	0.0
2025-01-22 06:50:39.287106	85.4	34.3	-73.7	0.0
2025-01-22 06:50:41.538699	86.3	34.4	-72.2	0.0
2025-01-22 06:50:43.790762	87.2	34.5	-73.6	2.1
2025-01-22 06:50:46.043839	88.1	34.5	-72.0	0.0
2025-01-22 06:50:48.295616	89.0	34.6	-73.4	4.4
2025-01-22 06:50:50.546229	89.9	34.6	-72.2	0.0
2025-01-22 06:50:52.799924	90.8	34.7	-72.8	0.0
2025-01-22 06:50:55.048636	91.6	34.7	-71.5	0.0
2025-01-22 06:50:57.301759	92.5	34.7	-72.3	0.0
2025-01-22 06:50:59.552295	93.4	34.7	-71.4	0.0
2025-01-22 06:51:01.800870	94.3	34.8	-71.7	0.0
2025-01-22 06:51:04.055029	95.3	34.8	-72.8	0.0
2025-01-22 06:51:06.308860	96.2	34.7	-71.5	0.0
2025-01-22 06:51:08.561819	97.1	34.7	-72.5	0.0
2025-01-22 06:51:10.813818	98.0	34.7	-73.3	0.0
2025-01-22 06:51:13.066027	98.9	34.7	-72.4	2.0
2025-01-22 06:51:15.319038	99.8	34.6	-73.9	3.3
2025-01-22 06:51:17.571195	100.7	34.6	-72.4	1.0
2025-01-22 06:51:19.826475	101.5	34.5	-74.4	3.1
2025-01-22 06:51:22.079073	102.4	34.5	-74.6	2.4
2025-01-22 06:51:24.330016	103.3	34.4	-74.0	2.6
2025-01-22 06:51:26.580691	104.2	34.3	-71.7	0.0
2025-01-22 06:51:28.831858	105.1	34.3	-72.2	0.0
2025-01-22 06:51:31.082888	106.0	34.2	-74.2	0.0
2025-01-22 06:51:33.333602	106.8	34.1	-73.4	0.0
2025-01-22 06:51:35.583983	107.7	34.0	-75.1	0.6
2025-01-22 06:51:37.838460	108.5	33.9	-74.3	0.0
2025-01-22 06:51:40.088374	109.4	33.8	-73.7	0.0
2025-01-22 06:51:42.342327	110.2	33.6	-75.0	0.0
2025-01-22 06:51:44.598019	111.1	33.5	-73.5	0.0
2025-01-22 06:51:46.852930	111.9	33.4	-74.1	0.0
2025-01-22 06:51:49.103488	112.8	33.2	-73.5	0.0
2025-01-22 06:51:51.354091	113.6	33.1	-74.4	0.0
2025-01-22 06:51:53.608975	114.4	32.9	-74.3	0.0
2025-01-22 06:51:55.860269	115.2	32.8	-74.6	1.7
2025-01-22 06:51:58.113797	116.0	32.6	-75.1	0.0
2025-01-22 06:52:00.367985	116.8	32.4	-75.2	0.6
2025-01-22 06:52:02.623043	117.6	32.3	-74.8	0.0
2025-01-22 06:52:04.876651	118.3	32.1	-75.8	0.0
2025-01-22 06:52:07.127609	119.1	31.9	-75.5	0.0
2025-01-22 06:52:09.381177	119.9	31.7	-75.8	0.0
2025-01-22 06:52:11.634063	120.6	31.5	-76.5	0.1
2025-01-22 06:52:13.887780	121.3	31.3	-77.0	0.0
2025-01-22 06:52:16.139096	122.1	31.1	-75.8	0.0
2025-01-22 06:52:18.390666	122.8	30.9	-76.2	0.0
2025-01-22 06:52:20.643711	123.5	30.7	-76.0	0.0
2025-01-22 06:52:22.896383	124.2	30.5	-76.1	0.0
2025-01-22 06:52:25.150211	124.9	30.3	-76.2	0.0
2025-01-22 06:52:27.402935	125.6	30.1	-76.0	0.0
2025-01-22 06:52:29.657559	126.3	29.9	-75.5	0.0
2025-01-22 06:52:31.908910	126.9	29.7	-76.1	1.0
2025-01-22 06:52:34.163094	127.6	29.4	-75.3	0.0
2025-01-22 06:52:36.417145	128.2	29.2	-76.7	0.0
2025-01-22 06:52:38.668536	128.9	29.0	-76.9	0.0
2025-01-22 06:52:40.920010	129.5	28.8	-77.0	0.0
2025-01-22 06:52:43.172386	130.1	28.5	-76.7	0.0
2025-01-22 06:52:45.423491	130.8	28.3	-76.5	0.0
2025-01-22 06:52:47.675112	131.4	28.1	-76.8	0.0
2025-01-22 06:52:49.926815	132.0	27.8	-77.6	0.0
2025-01-22 06:52:52.181491	132.5	27.6	-76.8	0.0
2025-01-22 06:52:54.435532	133.1	27.3	-77.7	0.0
2025-01-22 06:52:56.686043	133.7	27.1	-78.0	0.0
2025-01-22 06:52:58.938977	134.3	26.9	-78.2	0.0
2025-01-22 06:53:01.194227	134.8	26.6	-78.5	0.0
2025-01-22 06:53:03.445360	135.4	26.4	-78.2	0.0
2025-01-22 06:53:05.696728	135.9	26.2	-78.2	0.0
2025-01-22 06:53:07.947111	136.4	25.9	-78.0	0.0
2025-01-22 06:53:10.199814	137.0	25.7	-78.6	0.0
2025-01-22 06:53:12.450677	137.5	25.4	-78.0	0.0
2025-01-22 06:53:14.705471	138.0	25.2	-78.7	0.0
2025-01-22 06:53:16.957815	138.5	24.9	-78.6	0.0
2025-01-22 06:53:19.211242	139.0	24.7	-77.9	0.0
2025-01-22 06:53:21.462191	139.5	24.5	-78.0	0.0
2025-01-22 06:53:23.714059	139.9	24.2	-78.6	0.0
2025-01-22 06:53:25.967290	140.4	24.0	-78.7	0.0
2025-01-22 06:53:28.217111	140.9	23.7	-77.9	0.0
2025-01-22 06:53:30.468665	141.3	23.5	-78.8	0.0
2025-01-22 06:53:32.720917	141.8	23.3	-78.0	0.0
2025-01-22 06:53:34.974278	142.2	23.0	-78.7	0.0
2025-01-22 06:53:37.228025	142.7	22.8	-78.6	0.0
2025-01-22 06:53:39.481224	143.1	22.5	-78.1	0.0
2025-01-22 06:53:41.733909	143.5	22.3	-78.8	0.0
2025-01-22 06:53:43.984802	143.9	22.1	-77.8	0.0
2025-01-22 06:53:46.237815	144.3	21.8	-78.1	0.0
2025-01-22 06:53:48.493073	144.7	21.6	-78.8	0.0
2025-01-22 06:53:50.744858	145.1	21.4	-78.5	0.0
2025-01-22 06:53:52.993770	145.5	21.1	-78.7	0.0
2025-01-22 06:53:55.245299	145.9	20.9	-78.3	0.0
2025-01-22 06:53:57.497244	146.3	20.7	-78.4	0.0
2025-01-22 06:53:59.748249	146.7	20.4	-78.4	0.0
2025-01-22 06:54:01.996943	147.1	20.2	-78.5	0.0
2025-01-22 06:54:04.248770	147.4	20.0	-78.5	0.0
2025-01-22 06:54:06.502967	147.8	19.7	-78.0	0.0
2025-01-22 06:54:08.757182	148.1	19.5	-78.3	0.0
2025-01-22 06:54:11.009802	148.5	19.3	-77.8	0.0
2025-01-22 06:54:13.262341	148.8	19.0	-78.2	0.0
2025-01-22 06:54:15.513173	149.2	18.8	-78.1	0.0
2025-01-22 06:54:17.762676	149.5	18.6	-78.1	0.0
2025-01-22 06:54:20.013349	149.8	18.4	-78.0	0.0
2025-01-22 06:54:22.264789	150.2	18.2	-77.8	0.0
2025-01-22 06:54:24.516686	150.5	17.9	-77.9	0.0
2025-01-22 06:54:26.769168	150.8	17.7	-77.7	0.0
2025-01-22 06:54:29.022136	151.1	17.5	-77.6	0.0
2025-01-22 06:54:31.273989	151.4	17.3	-77.2	0.0
2025-01-22 06:54:33.528914	151.7	17.1	-76.7	0.0
2025-01-22 06:54:35.780934	152.0	16.9	-77.3	0.0
2025-01-22 06:54:38.030893	152.3	16.6	-77.2	0.0
2025-01-22 06:54:40.282841	152.6	16.4	-76.9	0.0
2025-01-22 06:54:42.533417	152.9	16.2	-76.6	0.0
2025-01-22 06:54:44.785690	153.2	16.0	-76.6	0.0
2025-01-22 06:54:47.037954	153.5	15.8	-76.7	0.0
2025-01-22 06:54:49.289272	153.7	15.6	-76.5	0.0
2025-01-22 06:54:51.540828	154.0	15.4	-76.3	0.0
2025-01-22 06:54:53.792250	154.3	15.2	-76.5	0.0
2025-01-22 06:54:56.042991	154.5	15.0	-76.1	0.0
2025-01-22 06:54:58.294736	154.8	14.8	-76.1	0.0
2025-01-22 06:55:00.548171	155.1	14.6	-76.3	0.0
2025-01-22 06:55:02.799670	155.3	14.4	-76.2	0.0
2025-01-22 06:55:05.048768	155.6	14.2	-75.8	0.0
2025-01-22 06:55:07.300860	155.8	14.0	-76.2	0.0
2025-01-22 06:55:09.553230	156.1	13.8	-76.1	0.0
2025-01-22 06:55:11.807094	156.3	13.6	-76.0	0.0
2025-01-22 06:55:14.058967	156.5	13.4	-76.1	0.0
2025-01-22 06:55:16.309936	156.8	13.2	-75.7	0.0
2025-01-22 06:55:18.563454	157.0	13.0	-76.0	0.0
2025-01-22 06:55:20.819310	157.2	12.8	-76.2	0.0
2025-01-22 06:55:23.072317	157.5	12.6	-76.0	0.0
2025-01-22 06:55:25.325104	157.7	12.4	-75.7	0.0
2025-01-22 06:55:27.577692	157.9	12.2	-76.2	0.0
2025-01-22 06:55:29.826960	158.1	12.0	-76.2	0.0
2025-01-22 06:55:32.078235	158.4	11.9	-76.3	0.0
2025-01-22 06:55:34.331594	158.6	11.7	-76.2	0.0
2025-01-22 06:55:36.582701	158.8	11.5	-76.3	0.0
2025-01-22 06:55:38.834203	159.0	11.3	-76.2	0.0
2025-01-22 06:55:41.085779	159.2	11.1	-76.1	0.0
2025-01-22 06:55:43.336310	159.4	10.9	-76.4	0.0
2025-01-22 06:55:45.586611	159.6	10.8	-79.0	0.0
2025-01-22 06:55:47.836270	159.8	10.6	-78.5	0.0
2025-01-22 06:55:50.090225	160.0	10.4	-74.8	0.0
2025-01-22 06:55:52.344126	160.2	10.2	-80.3	0.0
2025-01-22 06:55:54.597432	160.4	10.1	-81.1	0.0
#Closed at: 2025-01-22 06:46:04.070534