passes_logs/2025/01/22/planumMaritime01/planumMaritime01__20250122_091704_NOAA_19_rec.log

#Pass ID: 20250122_091704_NOAA 19
#Satellite: NOAA 19
#Configuration: NOAA 19
#Start time: 2025-01-22 09:17:09.759294

#LorettStation: 1.0.0 05.05.2024
#Station: planumMaritime01
#Location: 37.49445 lon 55.92918 lat
#TLE: 1 33591U 09005A   25021.16349212  .00000417  00000+0  24660-3 0  9995
#TLE: 2 33591  99.0186  84.9732 0014271  40.9333 319.2908 14.13264918822414

#Time	Az	El	Level	SNR
2025-01-22 09:17:11.928441	3.7	10.2	-67.1	0.0
2025-01-22 09:17:14.180262	3.5	10.3	-67.9	0.0
2025-01-22 09:17:16.433694	3.3	10.5	-68.5	0.0
2025-01-22 09:17:18.684153	3.1	10.7	-69.9	0.0
2025-01-22 09:17:20.934362	2.8	10.8	-67.1	0.0
2025-01-22 09:17:23.185361	2.6	11.0	-69.0	0.0
2025-01-22 09:17:25.441496	2.4	11.2	-67.3	0.0
2025-01-22 09:17:27.695165	2.2	11.4	-68.1	0.0
2025-01-22 09:17:29.948242	2.0	11.5	-62.0	0.0
2025-01-22 09:17:32.197847	1.7	11.7	-70.4	0.0
2025-01-22 09:17:34.449824	1.5	11.9	-70.8	0.0
2025-01-22 09:17:36.702111	1.3	12.0	-70.9	0.0
2025-01-22 09:17:38.954585	1.0	12.2	-72.0	0.0
2025-01-22 09:17:41.206837	0.8	12.4	-73.3	0.0
2025-01-22 09:17:43.459370	0.5	12.6	-70.2	0.0
2025-01-22 09:17:45.712012	0.3	12.8	-72.4	0.0
2025-01-22 09:17:47.965830	0.1	12.9	-71.0	0.0
2025-01-22 09:17:50.217000	359.8	13.1	-71.2	0.0
2025-01-22 09:17:52.469028	359.6	13.3	-71.8	0.0
2025-01-22 09:17:54.720195	359.3	13.5	-70.1	0.0
2025-01-22 09:17:56.973941	359.0	13.7	-68.6	0.0
2025-01-22 09:17:59.224568	358.8	13.8	-68.4	0.0
2025-01-22 09:18:01.474829	358.5	14.0	-71.6	0.0
2025-01-22 09:18:03.728977	358.2	14.2	-65.7	0.0
2025-01-22 09:18:05.980307	358.0	14.4	-72.6	0.0
2025-01-22 09:18:08.230315	357.7	14.6	-69.9	0.0
2025-01-22 09:18:10.482201	357.4	14.8	-66.4	0.0
2025-01-22 09:18:12.736350	357.1	15.0	-69.8	0.0
2025-01-22 09:18:14.986760	356.8	15.1	-69.8	0.0
2025-01-22 09:18:17.237160	356.5	15.3	-69.2	0.0
2025-01-22 09:18:19.486249	356.2	15.5	-68.6	0.0
2025-01-22 09:18:21.736329	355.9	15.7	-68.0	0.0
2025-01-22 09:18:23.986175	355.6	15.9	-65.4	0.0
2025-01-22 09:18:26.238711	355.3	16.1	-67.3	0.0
2025-01-22 09:18:28.494918	355.0	16.3	-67.2	0.0
2025-01-22 09:18:30.745899	354.7	16.5	-67.5	0.0
2025-01-22 09:18:32.996621	354.4	16.7	-68.3	0.0
2025-01-22 09:18:35.249210	354.1	16.9	-69.6	0.0
2025-01-22 09:18:37.501327	353.7	17.1	-69.0	0.0
2025-01-22 09:18:39.756846	353.4	17.2	-64.9	0.0
2025-01-22 09:18:42.010540	353.1	17.4	-67.5	0.0
2025-01-22 09:18:44.263600	352.7	17.6	-67.4	0.0
2025-01-22 09:18:46.516728	352.4	17.8	-65.5	0.0
2025-01-22 09:18:48.770910	352.0	18.0	-66.7	0.0
2025-01-22 09:18:51.023497	351.7	18.2	-66.7	0.0
2025-01-22 09:18:53.274001	351.3	18.4	-68.7	0.0
2025-01-22 09:18:55.527916	351.0	18.6	-69.9	0.0
2025-01-22 09:18:57.778030	350.6	18.8	-72.2	0.0
2025-01-22 09:19:00.030138	350.2	19.0	-70.9	0.0
2025-01-22 09:19:02.280485	349.8	19.2	-71.6	0.0
2025-01-22 09:19:04.530409	349.5	19.4	-70.4	0.0
2025-01-22 09:19:06.783419	349.1	19.6	-73.4	0.0
2025-01-22 09:19:09.036737	348.7	19.8	-72.4	0.0
2025-01-22 09:19:11.291155	348.3	20.0	-72.0	0.0
2025-01-22 09:19:13.544134	347.9	20.2	-73.3	0.0
2025-01-22 09:19:15.795910	347.5	20.4	-70.4	0.0
2025-01-22 09:19:18.046754	347.0	20.6	-69.5	0.0
2025-01-22 09:19:20.299145	346.6	20.8	-73.3	0.0
2025-01-22 09:19:22.548726	346.2	21.0	-70.5	0.0
2025-01-22 09:19:24.800999	345.8	21.2	-71.6	0.0
2025-01-22 09:19:27.053867	345.3	21.4	-75.5	0.0
2025-01-22 09:19:29.305629	344.9	21.6	-75.1	0.0
2025-01-22 09:19:31.557225	344.4	21.8	-73.4	0.0
2025-01-22 09:19:33.809261	344.0	22.0	-75.2	0.0
2025-01-22 09:19:36.063845	343.5	22.2	-73.2	0.0
2025-01-22 09:19:38.316455	343.1	22.4	-73.2	0.0
2025-01-22 09:19:40.565587	342.6	22.6	-74.4	0.0
2025-01-22 09:19:42.816671	342.1	22.8	-74.1	0.0
2025-01-22 09:19:45.070164	341.6	23.0	-67.4	0.0
2025-01-22 09:19:47.322058	341.1	23.2	-71.3	0.0
2025-01-22 09:19:49.575731	340.6	23.4	-73.9	0.0
2025-01-22 09:19:51.829553	340.1	23.6	-72.4	0.0
2025-01-22 09:19:54.082821	339.6	23.8	-73.0	0.0
2025-01-22 09:19:56.338272	339.1	23.9	-74.0	0.0
2025-01-22 09:19:58.589315	338.6	24.1	-74.1	0.0
2025-01-22 09:20:00.839874	338.1	24.3	-74.1	0.0
2025-01-22 09:20:03.091761	337.5	24.5	-74.1	0.0
2025-01-22 09:20:05.343276	337.0	24.7	-75.6	0.0
2025-01-22 09:20:07.596507	336.4	24.9	-73.7	0.0
2025-01-22 09:20:09.845660	335.9	25.1	-75.9	0.0
2025-01-22 09:20:12.100830	335.3	25.2	-76.1	0.0
2025-01-22 09:20:14.354061	334.8	25.4	-76.4	0.0
2025-01-22 09:20:16.605185	334.2	25.6	-70.2	0.0
2025-01-22 09:20:18.859525	333.6	25.8	-69.8	0.0
2025-01-22 09:20:21.112795	333.0	25.9	-76.3	0.0
2025-01-22 09:20:23.365747	332.4	26.1	-74.7	0.0
2025-01-22 09:20:25.616199	331.8	26.3	-77.1	0.0
2025-01-22 09:20:27.867756	331.2	26.4	-75.8	0.0
2025-01-22 09:20:30.121351	330.6	26.6	-76.8	0.0
2025-01-22 09:20:32.373747	330.0	26.8	-75.0	0.0
2025-01-22 09:20:34.628226	329.4	26.9	-74.6	0.0
2025-01-22 09:20:36.879221	328.7	27.1	-69.7	0.0
2025-01-22 09:20:39.130676	328.1	27.2	-76.7	0.0
2025-01-22 09:20:41.382636	327.5	27.4	-78.0	0.0
2025-01-22 09:20:43.636015	326.8	27.5	-75.5	0.0
2025-01-22 09:20:45.886829	326.2	27.7	-74.1	0.0
2025-01-22 09:20:48.141041	325.5	27.8	-76.0	0.0
2025-01-22 09:20:50.391965	324.8	27.9	-76.3	0.0
2025-01-22 09:20:52.645833	324.2	28.1	-76.9	0.0
2025-01-22 09:20:54.899793	323.5	28.2	-75.2	0.0
2025-01-22 09:20:57.153845	322.8	28.3	-77.2	0.0
2025-01-22 09:20:59.404214	322.1	28.4	-76.8	0.0
2025-01-22 09:21:01.656183	321.4	28.5	-77.4	0.0
2025-01-22 09:21:03.910032	320.7	28.7	-74.8	0.0
2025-01-22 09:21:06.160162	320.0	28.8	-75.8	0.0
2025-01-22 09:21:08.411430	319.3	28.9	-77.5	0.0
2025-01-22 09:21:10.663542	318.6	29.0	-77.9	0.0
2025-01-22 09:21:12.912410	317.9	29.0	-78.2	0.0
2025-01-22 09:21:15.166026	317.2	29.1	-76.3	0.0
2025-01-22 09:21:17.418857	316.5	29.2	-77.3	0.0
2025-01-22 09:21:19.671948	315.8	29.3	-75.2	0.0
2025-01-22 09:21:21.924798	315.0	29.4	-75.1	0.0
2025-01-22 09:21:24.175259	314.3	29.4	-77.4	0.0
2025-01-22 09:21:26.426053	313.6	29.5	-72.9	0.0
2025-01-22 09:21:28.676076	312.8	29.6	-77.2	0.0
2025-01-22 09:21:30.928261	312.1	29.6	-77.0	0.0
2025-01-22 09:21:33.182780	311.3	29.7	-77.8	0.0
2025-01-22 09:21:35.433079	310.6	29.7	-77.6	0.0
2025-01-22 09:21:37.683770	309.9	29.7	-78.1	0.0
2025-01-22 09:21:39.938360	309.1	29.8	-78.1	0.0
2025-01-22 09:21:42.191643	308.4	29.8	-78.0	0.0
2025-01-22 09:21:44.443126	307.6	29.8	-78.5	0.0
2025-01-22 09:21:46.695525	306.9	29.8	-78.4	0.0
2025-01-22 09:21:48.945501	306.1	29.8	-77.2	0.0
2025-01-22 09:21:51.198267	305.4	29.8	-77.0	0.0
2025-01-22 09:21:53.448285	304.6	29.8	-78.8	0.0
2025-01-22 09:21:55.698975	303.9	29.8	-79.0	0.0
2025-01-22 09:21:57.951865	303.1	29.8	-78.3	0.0
2025-01-22 09:22:00.205650	302.4	29.8	-78.4	0.0
2025-01-22 09:22:02.457261	301.6	29.8	-78.2	0.0
2025-01-22 09:22:04.710251	300.9	29.7	-78.0	0.0
2025-01-22 09:22:06.964537	300.1	29.7	-77.9	0.0
2025-01-22 09:22:09.215996	299.4	29.7	-79.3	0.0
2025-01-22 09:22:11.467034	298.6	29.6	-79.0	0.0
2025-01-22 09:22:13.719228	297.9	29.6	-77.4	0.0
2025-01-22 09:22:15.967069	297.2	29.5	-78.4	0.0
2025-01-22 09:22:18.217748	296.4	29.4	-78.8	0.0
2025-01-22 09:22:20.468687	295.7	29.4	-78.3	0.0
2025-01-22 09:22:22.721263	295.0	29.3	-78.9	0.0
2025-01-22 09:22:24.975134	294.2	29.2	-79.1	0.0
2025-01-22 09:22:27.227265	293.5	29.1	-78.6	0.0
2025-01-22 09:22:29.480097	292.8	29.1	-78.9	0.0
2025-01-22 09:22:31.733405	292.1	29.0	-78.3	0.0
2025-01-22 09:22:33.984467	291.4	28.9	-79.1	0.0
2025-01-22 09:22:36.237599	290.7	28.8	-79.1	0.0
2025-01-22 09:22:38.487817	290.0	28.7	-79.1	0.0
2025-01-22 09:22:40.741160	289.3	28.6	-79.1	0.0
2025-01-22 09:22:42.991605	288.6	28.4	-79.5	0.0
2025-01-22 09:22:45.241963	287.9	28.3	-79.0	0.0
2025-01-22 09:22:47.491127	287.2	28.2	-79.5	0.0
2025-01-22 09:22:49.742082	286.5	28.1	-79.4	0.0
2025-01-22 09:22:51.994522	285.9	27.9	-79.7	0.0
2025-01-22 09:22:54.248485	285.2	27.8	-79.0	0.0
2025-01-22 09:22:56.499172	284.5	27.7	-79.1	0.0
2025-01-22 09:22:58.752040	283.9	27.5	-79.2	0.0
2025-01-22 09:23:01.004553	283.2	27.4	-79.3	0.0
2025-01-22 09:23:03.256976	282.6	27.2	-79.0	0.0
2025-01-22 09:23:05.508697	282.0	27.1	-79.1	0.0
2025-01-22 09:23:07.761069	281.3	26.9	-79.1	0.0
2025-01-22 09:23:10.013068	280.7	26.8	-79.6	0.0
2025-01-22 09:23:12.264127	280.1	26.6	-79.4	0.0
2025-01-22 09:23:14.516254	279.5	26.5	-79.6	0.0
2025-01-22 09:23:16.768441	278.9	26.3	-79.4	0.0
2025-01-22 09:23:19.021283	278.3	26.1	-79.3	0.0
2025-01-22 09:23:21.272880	277.7	26.0	-79.7	0.0
2025-01-22 09:23:23.522201	277.1	25.8	-79.9	0.0
2025-01-22 09:23:25.771775	276.5	25.6	-79.6	0.0
2025-01-22 09:23:28.023441	275.9	25.4	-79.4	0.0
2025-01-22 09:23:30.275144	275.4	25.3	-79.6	0.0
2025-01-22 09:23:32.526137	274.8	25.1	-80.0	0.0
2025-01-22 09:23:34.780070	274.3	24.9	-79.5	0.0
2025-01-22 09:23:37.030516	273.7	24.7	-79.3	0.0
2025-01-22 09:23:39.282243	273.2	24.5	-79.6	0.0
2025-01-22 09:23:41.535956	272.6	24.4	-79.7	0.0
2025-01-22 09:23:43.788756	272.1	24.2	-79.8	0.0
2025-01-22 09:23:46.038920	271.6	24.0	-79.5	0.0
2025-01-22 09:23:48.289818	271.1	23.8	-79.4	0.0
2025-01-22 09:23:50.540861	270.6	23.6	-79.5	0.0
2025-01-22 09:23:52.790763	270.1	23.4	-79.7	0.0
2025-01-22 09:23:55.043190	269.6	23.2	-79.9	0.0
2025-01-22 09:23:57.297345	269.1	23.0	-79.7	0.0
2025-01-22 09:23:59.547189	268.6	22.8	-80.0	0.0
2025-01-22 09:24:01.802081	268.1	22.6	-79.4	0.0
2025-01-22 09:24:04.053880	267.6	22.4	-79.9	0.0
2025-01-22 09:24:06.307038	267.2	22.2	-79.7	0.0
2025-01-22 09:24:08.557786	266.7	22.0	-79.7	0.0
2025-01-22 09:24:10.808178	266.2	21.8	-79.5	0.0
2025-01-22 09:24:13.061447	265.8	21.6	-79.4	0.0
2025-01-22 09:24:15.311943	265.4	21.4	-79.4	0.0
2025-01-22 09:24:17.562702	264.9	21.2	-79.3	0.0
2025-01-22 09:24:19.817380	264.5	21.0	-78.8	0.0
2025-01-22 09:24:22.068869	264.1	20.8	-78.8	0.0
2025-01-22 09:24:24.320341	263.6	20.6	-78.9	0.0
2025-01-22 09:24:26.570342	263.2	20.4	-79.2	0.0
2025-01-22 09:24:28.823077	262.8	20.2	-79.4	0.0
2025-01-22 09:24:31.076780	262.4	20.0	-78.9	0.0
2025-01-22 09:24:33.329782	262.0	19.8	-79.6	0.0
2025-01-22 09:24:35.581038	261.6	19.7	-79.4	0.0
2025-01-22 09:24:37.832830	261.2	19.5	-79.4	0.0
2025-01-22 09:24:40.084059	260.8	19.3	-79.6	0.0
2025-01-22 09:24:42.333065	260.4	19.1	-79.3	0.0
2025-01-22 09:24:44.585259	260.1	18.9	-79.6	0.0
2025-01-22 09:24:46.837266	259.7	18.7	-79.5	0.0
2025-01-22 09:24:49.088226	259.3	18.5	-79.2	0.0
2025-01-22 09:24:51.343932	259.0	18.3	-79.5	0.0
2025-01-22 09:24:53.595864	258.6	18.1	-79.2	0.0
2025-01-22 09:24:55.852010	258.3	17.9	-79.5	0.0
2025-01-22 09:24:58.104341	257.9	17.7	-79.5	0.0
2025-01-22 09:25:00.356858	257.6	17.5	-79.4	0.0
2025-01-22 09:25:02.611685	257.2	17.3	-79.2	0.0
2025-01-22 09:25:04.864289	256.9	17.1	-79.4	0.0
2025-01-22 09:25:07.115419	256.6	16.9	-79.8	0.0
2025-01-22 09:25:09.368883	256.3	16.7	-79.5	0.0
2025-01-22 09:25:11.619542	255.9	16.5	-79.6	0.0
2025-01-22 09:25:13.872235	255.6	16.3	-79.4	0.0
2025-01-22 09:25:16.124626	255.3	16.1	-79.4	0.0
2025-01-22 09:25:18.378748	255.0	15.9	-79.2	0.0
2025-01-22 09:25:20.633829	254.7	15.7	-79.5	0.0
2025-01-22 09:25:22.883875	254.4	15.6	-79.3	0.0
2025-01-22 09:25:25.135356	254.1	15.4	-78.7	0.0
2025-01-22 09:25:27.385339	253.8	15.2	-78.9	0.0
2025-01-22 09:25:29.638948	253.5	15.0	-79.0	0.0
2025-01-22 09:25:31.891536	253.2	14.8	-78.7	0.0
2025-01-22 09:25:34.144361	252.9	14.6	-78.3	0.0
2025-01-22 09:25:36.399161	252.7	14.4	-78.6	0.0
2025-01-22 09:25:38.654271	252.4	14.2	-78.5	0.0
2025-01-22 09:25:40.906263	252.1	14.1	-78.9	0.0
2025-01-22 09:25:43.157760	251.8	13.9	-78.7	0.0
2025-01-22 09:25:45.409126	251.6	13.7	-79.0	0.0
2025-01-22 09:25:47.658546	251.3	13.5	-78.7	0.0
2025-01-22 09:25:49.908975	251.1	13.3	-79.0	0.0
2025-01-22 09:25:52.162968	250.8	13.1	-79.3	0.0
2025-01-22 09:25:54.413995	250.6	13.0	-78.6	0.0
2025-01-22 09:25:56.665011	250.3	12.8	-78.8	0.0
2025-01-22 09:25:58.919896	250.1	12.6	-78.7	0.0
2025-01-22 09:26:01.171965	249.8	12.4	-79.0	0.0
2025-01-22 09:26:03.422727	249.6	12.3	-78.9	0.0
2025-01-22 09:26:05.674015	249.3	12.1	-78.7	0.0
2025-01-22 09:26:07.927108	249.1	11.9	-78.9	0.0
2025-01-22 09:26:10.180041	248.9	11.7	-79.1	0.0
2025-01-22 09:26:12.433693	248.6	11.6	-78.4	0.0
2025-01-22 09:26:14.685132	248.4	11.4	-78.4	0.0
2025-01-22 09:26:16.937279	248.2	11.2	-78.4	0.0
2025-01-22 09:26:19.190980	248.0	11.0	-78.7	0.0
2025-01-22 09:26:21.444185	247.8	10.9	-79.2	2.0
2025-01-22 09:26:23.694994	247.5	10.7	-77.2	0.0
2025-01-22 09:26:25.945928	247.3	10.5	-80.5	0.0
2025-01-22 09:26:28.196300	247.1	10.4	-80.9	0.0
2025-01-22 09:26:30.448905	246.9	10.2	-81.3	0.0
2025-01-22 09:26:32.702026	246.7	10.0	-81.1	0.0
#Closed at: 2025-01-22 09:17:04.763408