passes_logs/2025/01/22/planumMaritime01/planumMaritime01__20250122_170229_METEOR-M2_3_rec.log

#Pass ID: 20250122_170229_METEOR-M2 3
#Satellite: METEOR-M2 3
#Configuration: METEOR-M2 3
#Start time: 2025-01-22 17:02:34.397796

#LorettStation: 1.0.0 05.05.2024
#Station: planumMaritime01
#Location: 37.49445 lon 55.92918 lat
#TLE: 1 57166U 23091A   25022.21022386  .00000083  00000+0  55255-4 0  9991
#TLE: 2 57166  98.6839  80.5850 0003565 200.3362 159.7676 14.23971113 81799

#Time	Az	El	Level	SNR
2025-01-22 17:02:36.556794	134.2	10.2	-74.1	0.0
2025-01-22 17:02:38.806785	134.1	10.4	-73.4	0.0
2025-01-22 17:02:41.059784	133.9	10.6	-75.1	0.0
2025-01-22 17:02:43.313080	133.8	10.8	-71.9	0.0
2025-01-22 17:02:45.563562	133.7	11.0	-73.8	0.0
2025-01-22 17:02:47.815635	133.5	11.1	-72.5	0.0
2025-01-22 17:02:50.067668	133.4	11.3	-73.1	0.0
2025-01-22 17:02:52.323134	133.3	11.5	-72.2	0.0
2025-01-22 17:02:54.575701	133.1	11.7	-71.7	0.0
2025-01-22 17:02:56.829315	133.0	11.9	-73.3	0.0
2025-01-22 17:02:59.078237	132.8	12.2	-72.6	0.0
2025-01-22 17:03:01.331173	132.7	12.4	-73.4	0.0
2025-01-22 17:03:03.581612	132.5	12.6	-74.0	0.0
2025-01-22 17:03:05.834663	132.4	12.8	-74.9	0.0
2025-01-22 17:03:08.087358	132.2	13.0	-73.9	0.0
2025-01-22 17:03:10.339435	132.1	13.2	-73.9	0.0
2025-01-22 17:03:12.591583	131.9	13.4	-73.9	0.0
2025-01-22 17:03:14.843821	131.8	13.6	-74.6	0.0
2025-01-22 17:03:17.097646	131.6	13.8	-73.2	0.0
2025-01-22 17:03:19.350385	131.5	14.1	-75.2	0.0
2025-01-22 17:03:21.603229	131.3	14.3	-75.7	0.0
2025-01-22 17:03:23.855899	131.1	14.5	-76.5	0.0
2025-01-22 17:03:26.107289	130.9	14.7	-75.5	0.0
2025-01-22 17:03:28.359577	130.8	14.9	-74.6	0.0
2025-01-22 17:03:30.609446	130.6	15.2	-77.1	0.0
2025-01-22 17:03:32.865371	130.4	15.4	-74.9	0.0
2025-01-22 17:03:35.119443	130.2	15.6	-75.6	0.0
2025-01-22 17:03:37.370465	130.1	15.9	-75.9	0.0
2025-01-22 17:03:39.624623	129.9	16.1	-74.7	0.0
2025-01-22 17:03:41.875591	129.7	16.3	-76.5	0.0
2025-01-22 17:03:44.128723	129.5	16.6	-76.6	0.0
2025-01-22 17:03:46.382704	129.3	16.8	-75.3	0.0
2025-01-22 17:03:48.635935	129.1	17.1	-73.8	0.0
2025-01-22 17:03:50.889979	128.9	17.3	-73.7	0.0
2025-01-22 17:03:53.141823	128.7	17.6	-73.9	0.0
2025-01-22 17:03:55.394250	128.5	17.8	-75.3	0.0
2025-01-22 17:03:57.647009	128.2	18.1	-75.4	0.0
2025-01-22 17:03:59.901403	128.0	18.3	-75.8	0.0
2025-01-22 17:04:02.156652	127.8	18.6	-75.9	0.0
2025-01-22 17:04:04.405336	127.6	18.8	-75.1	0.0
2025-01-22 17:04:06.654165	127.3	19.1	-74.9	0.0
2025-01-22 17:04:08.908034	127.1	19.3	-77.1	0.0
2025-01-22 17:04:11.160491	126.9	19.6	-75.6	0.0
2025-01-22 17:04:13.410107	126.6	19.9	-76.3	0.0
2025-01-22 17:04:15.663308	126.4	20.1	-75.1	0.0
2025-01-22 17:04:17.916516	126.1	20.4	-75.3	0.0
2025-01-22 17:04:20.166793	125.9	20.7	-76.2	0.0
2025-01-22 17:04:22.418364	125.6	21.0	-76.3	0.0
2025-01-22 17:04:24.671123	125.3	21.2	-76.1	0.0
2025-01-22 17:04:26.921250	125.1	21.5	-75.4	0.0
2025-01-22 17:04:29.171757	124.8	21.8	-75.3	0.0
2025-01-22 17:04:31.427171	124.5	22.1	-75.6	0.0
2025-01-22 17:04:33.680587	124.2	22.4	-76.0	0.0
2025-01-22 17:04:35.931552	123.9	22.7	-75.5	0.0
2025-01-22 17:04:38.182903	123.6	23.0	-75.4	0.0
2025-01-22 17:04:40.434501	123.3	23.3	-75.2	0.0
2025-01-22 17:04:42.684704	123.0	23.6	-74.9	0.0
2025-01-22 17:04:44.938091	122.7	23.9	-75.7	0.0
2025-01-22 17:04:47.190917	122.4	24.2	-75.4	0.0
2025-01-22 17:04:49.441938	122.0	24.5	-75.8	0.0
2025-01-22 17:04:51.694777	121.7	24.8	-76.1	0.0
2025-01-22 17:04:53.947046	121.4	25.1	-75.9	0.0
2025-01-22 17:04:56.199397	121.0	25.4	-75.1	0.0
2025-01-22 17:04:58.452874	120.7	25.7	-74.0	0.0
2025-01-22 17:05:00.707971	120.3	26.1	-75.5	0.0
2025-01-22 17:05:02.958396	119.9	26.4	-75.0	0.0
2025-01-22 17:05:05.211188	119.5	26.7	-75.3	0.0
2025-01-22 17:05:07.464445	119.2	27.0	-75.1	0.0
2025-01-22 17:05:09.717448	118.8	27.4	-76.0	0.0
2025-01-22 17:05:11.970671	118.4	27.7	-72.8	0.0
2025-01-22 17:05:14.223104	118.0	28.0	-75.3	0.0
2025-01-22 17:05:16.475102	117.5	28.4	-74.7	0.0
2025-01-22 17:05:18.724866	117.1	28.7	-74.6	0.0
2025-01-22 17:05:20.975237	116.7	29.0	-75.8	0.0
2025-01-22 17:05:23.229854	116.2	29.4	-72.8	0.0
2025-01-22 17:05:25.481258	115.8	29.7	-72.0	0.0
2025-01-22 17:05:27.731361	115.3	30.1	-74.3	0.0
2025-01-22 17:05:29.984119	114.8	30.4	-72.2	0.0
2025-01-22 17:05:32.236893	114.3	30.8	-72.1	0.0
2025-01-22 17:05:34.486184	113.8	31.1	-72.2	0.0
2025-01-22 17:05:36.738408	113.3	31.5	-74.8	0.0
2025-01-22 17:05:38.989938	112.8	31.9	-72.3	0.0
2025-01-22 17:05:41.244553	112.2	32.2	-71.7	0.0
2025-01-22 17:05:43.497013	111.7	32.6	-71.4	0.0
2025-01-22 17:05:45.749188	111.1	32.9	-73.2	0.0
2025-01-22 17:05:48.002077	110.6	33.3	-73.1	0.0
2025-01-22 17:05:50.255879	110.0	33.7	-73.9	0.0
2025-01-22 17:05:52.519353	109.4	34.0	-71.6	0.0
2025-01-22 17:05:54.772085	108.8	34.4	-72.9	0.0
2025-01-22 17:05:57.026070	108.1	34.8	-74.8	0.0
2025-01-22 17:05:59.279138	107.5	35.1	-73.8	0.0
2025-01-22 17:06:01.529256	106.8	35.5	-73.0	0.0
2025-01-22 17:06:03.782224	106.2	35.9	-72.9	0.0
2025-01-22 17:06:06.032122	105.5	36.2	-72.5	0.0
2025-01-22 17:06:08.283581	104.8	36.6	-71.8	0.0
2025-01-22 17:06:10.535346	104.0	37.0	-71.1	0.0
2025-01-22 17:06:12.786629	103.3	37.3	-70.2	0.0
2025-01-22 17:06:15.041266	102.6	37.7	-73.4	0.0
2025-01-22 17:06:17.291767	101.8	38.1	-74.5	0.0
2025-01-22 17:06:19.541893	101.0	38.4	-74.1	0.0
2025-01-22 17:06:21.793573	100.2	38.8	-73.1	0.0
2025-01-22 17:06:24.032723	99.4	39.1	-71.8	0.0
2025-01-22 17:06:26.276601	98.5	39.5	-71.8	0.0
2025-01-22 17:06:28.518588	97.7	39.8	-72.7	0.0
2025-01-22 17:06:30.760775	96.8	40.2	-72.3	0.0
2025-01-22 17:06:33.003776	95.9	40.5	-71.4	0.0
2025-01-22 17:06:35.257875	95.0	40.8	-73.0	0.0
2025-01-22 17:06:37.508866	94.1	41.2	-71.9	0.0
2025-01-22 17:06:39.761558	93.1	41.5	-73.3	0.0
2025-01-22 17:06:42.015447	92.2	41.8	-76.4	0.0
2025-01-22 17:06:44.271076	91.2	42.1	-78.2	0.0
2025-01-22 17:06:46.530216	90.2	42.4	-80.2	0.0
2025-01-22 17:06:48.783851	89.1	42.7	-80.2	0.0
2025-01-22 17:06:51.037285	88.1	43.0	-80.2	0.0
2025-01-22 17:06:53.289635	87.0	43.3	-80.1	0.0
2025-01-22 17:06:55.544130	85.9	43.5	-80.2	0.0
2025-01-22 17:06:57.793406	84.8	43.8	-80.3	0.0
2025-01-22 17:07:00.043933	83.7	44.0	-80.0	0.0
2025-01-22 17:07:02.296173	82.6	44.3	-79.8	0.0
2025-01-22 17:07:04.548915	81.4	44.5	-80.5	0.0
2025-01-22 17:07:06.804103	80.3	44.7	-80.5	0.0
2025-01-22 17:07:09.056150	79.1	44.9	-79.6	0.0
2025-01-22 17:07:11.307234	77.9	45.1	-79.8	0.0
2025-01-22 17:07:13.558483	76.7	45.3	-80.3	0.0
2025-01-22 17:07:15.810931	75.5	45.4	-80.2	0.0
2025-01-22 17:07:18.063932	74.2	45.6	-80.4	0.0
2025-01-22 17:07:20.314659	73.0	45.7	-80.5	0.0
2025-01-22 17:07:22.566606	71.7	45.8	-79.9	0.0
2025-01-22 17:07:24.820553	70.4	45.9	-80.1	0.0
2025-01-22 17:07:27.072815	69.2	46.0	-79.9	0.0
2025-01-22 17:07:29.324008	67.9	46.1	-78.3	0.0
2025-01-22 17:07:31.578996	66.6	46.1	-76.5	0.0
2025-01-22 17:07:33.828637	65.3	46.2	-75.6	0.0
2025-01-22 17:07:36.081235	64.0	46.2	-74.4	0.0
2025-01-22 17:07:38.333075	62.7	46.2	-75.2	0.0
2025-01-22 17:07:40.585249	61.5	46.2	-75.4	0.0
2025-01-22 17:07:42.831841	60.2	46.2	-75.9	0.0
2025-01-22 17:07:45.078187	58.9	46.1	-75.9	0.0
2025-01-22 17:07:47.325341	57.6	46.1	-76.9	0.0
2025-01-22 17:07:49.574697	56.3	46.0	-75.7	0.0
2025-01-22 17:07:51.828010	55.1	45.9	-75.4	0.0
2025-01-22 17:07:54.078987	53.8	45.8	-76.3	0.0
2025-01-22 17:07:56.331419	52.5	45.7	-76.8	0.0
2025-01-22 17:07:58.585257	51.3	45.6	-75.6	0.0
2025-01-22 17:08:00.837343	50.1	45.4	-75.3	0.0
2025-01-22 17:08:03.088904	48.8	45.2	-75.3	0.0
2025-01-22 17:08:05.341785	47.6	45.1	-73.9	0.0
2025-01-22 17:08:07.594894	46.4	44.9	-75.1	0.0
2025-01-22 17:08:09.846358	45.2	44.7	-75.2	0.0
2025-01-22 17:08:12.098216	44.1	44.5	-74.3	0.0
2025-01-22 17:08:14.352985	42.9	44.3	-73.8	0.0
2025-01-22 17:08:16.607016	41.8	44.0	-74.7	0.0
2025-01-22 17:08:18.862672	40.7	43.8	-73.7	0.0
2025-01-22 17:08:21.116776	39.6	43.5	-74.1	0.0
2025-01-22 17:08:23.373742	38.5	43.2	-73.4	0.0
2025-01-22 17:08:25.626636	37.4	43.0	-72.7	0.0
2025-01-22 17:08:27.881949	36.4	42.7	-71.4	0.0
2025-01-22 17:08:30.136886	35.4	42.4	-70.8	0.0
2025-01-22 17:08:32.388720	34.4	42.1	-73.1	0.0
2025-01-22 17:08:34.646436	33.4	41.8	-71.4	0.0
2025-01-22 17:08:36.899385	32.4	41.5	-73.1	0.0
2025-01-22 17:08:39.154438	31.5	41.1	-72.7	0.0
2025-01-22 17:08:41.406231	30.5	40.8	-71.5	0.0
2025-01-22 17:08:43.660400	29.6	40.5	-74.3	0.0
2025-01-22 17:08:45.912480	28.7	40.2	-71.9	0.0
2025-01-22 17:08:48.168263	27.9	39.8	-72.7	0.0
2025-01-22 17:08:50.420635	27.0	39.5	-71.3	0.0
2025-01-22 17:08:52.674846	26.2	39.1	-71.7	0.0
2025-01-22 17:08:54.927759	25.3	38.8	-68.6	0.0
2025-01-22 17:08:57.181791	24.5	38.4	-66.7	0.0
2025-01-22 17:08:59.437904	23.8	38.1	-65.7	0.0
2025-01-22 17:09:01.690587	23.0	37.7	-69.6	0.0
2025-01-22 17:09:03.944534	22.2	37.3	-70.8	0.0
2025-01-22 17:09:06.196346	21.5	37.0	-69.9	0.0
2025-01-22 17:09:08.450723	20.8	36.6	-71.1	0.0
2025-01-22 17:09:10.702509	20.1	36.2	-68.8	0.0
2025-01-22 17:09:12.958555	19.4	35.9	-68.9	0.0
2025-01-22 17:09:15.209376	18.7	35.5	-69.9	0.0
2025-01-22 17:09:17.463384	18.1	35.1	-70.0	0.0
2025-01-22 17:09:19.717390	17.4	34.8	-68.0	0.0
2025-01-22 17:09:21.967974	16.8	34.4	-68.9	0.0
2025-01-22 17:09:24.221759	16.2	34.0	-69.9	0.0
2025-01-22 17:09:26.479187	15.6	33.7	-68.4	0.0
2025-01-22 17:09:28.731243	15.0	33.3	-69.0	0.0
2025-01-22 17:09:30.985272	14.5	33.0	-67.2	0.0
2025-01-22 17:09:33.236683	13.9	32.6	-69.1	0.0
2025-01-22 17:09:35.488902	13.4	32.2	-68.3	0.0
2025-01-22 17:09:37.743431	12.8	31.9	-68.1	0.0
2025-01-22 17:09:39.998426	12.3	31.5	-66.9	0.0
2025-01-22 17:09:42.252218	11.8	31.2	-69.7	0.0
2025-01-22 17:09:44.505397	11.3	30.8	-69.9	0.0
2025-01-22 17:09:46.758417	10.8	30.5	-71.0	0.0
2025-01-22 17:09:49.011464	10.3	30.1	-70.8	0.0
2025-01-22 17:09:51.265425	9.9	29.8	-70.3	0.0
2025-01-22 17:09:53.518121	9.4	29.4	-71.6	0.0
2025-01-22 17:09:55.772881	9.0	29.1	-70.7	0.0
2025-01-22 17:09:58.025941	8.5	28.7	-71.8	0.0
2025-01-22 17:10:00.279825	8.1	28.4	-67.3	0.0
2025-01-22 17:10:02.533471	7.7	28.1	-71.8	0.0
2025-01-22 17:10:04.788186	7.3	27.7	-71.3	0.0
2025-01-22 17:10:07.042076	6.9	27.4	-72.6	0.0
2025-01-22 17:10:09.291972	6.5	27.1	-72.1	0.0
2025-01-22 17:10:11.541619	6.1	26.7	-71.6	0.0
2025-01-22 17:10:13.793460	5.7	26.4	-72.8	0.0
2025-01-22 17:10:16.044437	5.3	26.1	-71.7	0.0
2025-01-22 17:10:18.296378	5.0	25.8	-71.7	0.0
2025-01-22 17:10:20.547759	4.6	25.5	-73.6	0.0
2025-01-22 17:10:22.802538	4.3	25.1	-73.7	0.0
2025-01-22 17:10:25.059374	3.9	24.8	-74.0	0.0
2025-01-22 17:10:27.311170	3.6	24.5	-72.6	0.0
2025-01-22 17:10:29.563796	3.3	24.2	-71.3	0.0
2025-01-22 17:10:31.816953	3.0	23.9	-71.2	0.0
2025-01-22 17:10:34.070686	2.6	23.6	-68.0	0.0
2025-01-22 17:10:36.324348	2.3	23.3	-67.8	0.0
2025-01-22 17:10:38.578490	2.0	23.0	-68.0	0.0
2025-01-22 17:10:40.830202	1.7	22.7	-72.1	0.0
2025-01-22 17:10:43.081205	1.4	22.4	-66.8	0.0
2025-01-22 17:10:45.337729	1.2	22.2	-71.0	0.0
2025-01-22 17:10:47.588466	0.9	21.9	-71.1	0.0
2025-01-22 17:10:49.839707	0.6	21.6	-69.9	0.0
2025-01-22 17:10:52.092795	0.3	21.3	-68.5	0.0
2025-01-22 17:10:54.346461	0.1	21.0	-68.6	0.0
2025-01-22 17:10:56.596648	359.8	20.8	-69.5	0.0
2025-01-22 17:10:58.849094	359.6	20.5	-67.1	0.0
2025-01-22 17:11:01.104131	359.3	20.2	-70.0	0.0
2025-01-22 17:11:03.356091	359.1	19.9	-68.2	0.0
2025-01-22 17:11:05.608893	358.8	19.7	-70.1	0.0
2025-01-22 17:11:07.859571	358.6	19.4	-69.1	0.0
2025-01-22 17:11:10.112228	358.4	19.1	-70.0	0.0
2025-01-22 17:11:12.364169	358.1	18.9	-70.5	0.0
2025-01-22 17:11:14.617551	357.9	18.6	-70.8	0.0
2025-01-22 17:11:16.871109	357.7	18.4	-69.2	0.0
2025-01-22 17:11:19.120114	357.5	18.1	-68.5	0.0
2025-01-22 17:11:21.372047	357.3	17.9	-72.1	0.0
2025-01-22 17:11:23.624875	357.0	17.6	-70.9	0.0
2025-01-22 17:11:25.875900	356.8	17.4	-72.6	0.0
2025-01-22 17:11:28.128683	356.6	17.1	-69.2	0.0
2025-01-22 17:11:30.381421	356.4	16.9	-71.1	0.0
2025-01-22 17:11:32.634296	356.2	16.7	-72.7	0.0
2025-01-22 17:11:34.883534	356.0	16.4	-72.5	0.0
2025-01-22 17:11:37.137447	355.9	16.2	-71.0	0.0
2025-01-22 17:11:39.390613	355.7	15.9	-71.3	0.0
2025-01-22 17:11:41.641402	355.5	15.7	-71.7	0.0
2025-01-22 17:11:43.896643	355.3	15.5	-72.4	0.0
2025-01-22 17:11:46.146695	355.1	15.3	-68.8	0.0
2025-01-22 17:11:48.402231	355.0	15.0	-70.4	0.0
2025-01-22 17:11:50.657076	354.8	14.8	-70.7	0.0
2025-01-22 17:11:52.909755	354.6	14.6	-71.5	0.0
2025-01-22 17:11:55.163265	354.4	14.4	-71.3	0.0
2025-01-22 17:11:57.416825	354.3	14.1	-69.4	0.0
2025-01-22 17:11:59.669149	354.1	13.9	-68.9	0.0
2025-01-22 17:12:01.922070	354.0	13.7	-69.4	0.0
2025-01-22 17:12:04.174447	353.8	13.5	-69.6	0.0
2025-01-22 17:12:06.426053	353.7	13.3	-70.9	0.0
2025-01-22 17:12:08.679524	353.5	13.1	-70.2	0.0
2025-01-22 17:12:10.930484	353.4	12.9	-69.9	0.0
2025-01-22 17:12:13.182243	353.2	12.7	-69.9	0.0
2025-01-22 17:12:15.435093	353.1	12.4	-69.3	0.0
2025-01-22 17:12:17.689815	352.9	12.2	-70.2	0.0
2025-01-22 17:12:19.943929	352.8	12.0	-66.8	0.0
2025-01-22 17:12:22.200552	352.6	11.8	-67.6	0.0
2025-01-22 17:12:24.454719	352.5	11.6	-68.1	0.0
2025-01-22 17:12:26.706068	352.4	11.4	-68.8	0.0
2025-01-22 17:12:28.958808	352.2	11.2	-64.7	0.0
2025-01-22 17:12:31.212469	352.1	11.0	-65.1	0.0
2025-01-22 17:12:33.466343	352.0	10.9	-70.2	0.0
2025-01-22 17:12:35.718011	351.8	10.7	-77.1	0.0
2025-01-22 17:12:37.970777	351.7	10.5	-78.8	0.0
2025-01-22 17:12:40.222895	351.6	10.3	-79.6	0.0
2025-01-22 17:12:42.473293	351.5	10.1	-80.6	0.0
#Closed at: 2025-01-22 17:02:29.402368