passes_logs/2025/01/22/planumMaritime01/planumMaritime01__20250122_175402_NOAA_18_rec.log

#Pass ID: 20250122_175402_NOAA 18
#Satellite: NOAA 18
#Configuration: NOAA 18
#Start time: 2025-01-22 17:54:07.914465

#LorettStation: 1.0.0 05.05.2024
#Station: planumMaritime01
#Location: 37.49445 lon 55.92918 lat
#TLE: 1 28654U 05018A   25022.24143052  .00000458  00000+0  26647-3 0  9995
#TLE: 2 28654  98.8556 103.2235 0014680 159.1096 201.0679 14.13493787 14203

#Time	Az	El	Level	SNR
2025-01-22 17:54:10.085676	111.6	10.2	-65.5	0.0
2025-01-22 17:54:12.342793	111.4	10.3	-67.1	0.0
2025-01-22 17:54:14.595599	111.2	10.5	-69.1	0.0
2025-01-22 17:54:16.847514	111.0	10.7	-69.9	0.0
2025-01-22 17:54:19.100197	110.8	10.8	-68.0	0.0
2025-01-22 17:54:21.356118	110.5	11.0	-69.0	0.0
2025-01-22 17:54:23.610319	110.3	11.2	-68.7	0.0
2025-01-22 17:54:25.863287	110.1	11.3	-68.3	0.0
2025-01-22 17:54:28.116015	109.9	11.5	-68.1	0.0
2025-01-22 17:54:30.370650	109.6	11.7	-68.5	0.0
2025-01-22 17:54:32.623850	109.4	11.8	-67.9	0.0
2025-01-22 17:54:34.879470	109.1	12.0	-66.0	0.0
2025-01-22 17:54:37.135167	108.9	12.2	-67.9	0.0
2025-01-22 17:54:39.388295	108.7	12.4	-69.3	0.0
2025-01-22 17:54:41.640863	108.4	12.5	-66.9	0.0
2025-01-22 17:54:43.894823	108.1	12.7	-68.5	0.0
2025-01-22 17:54:46.147702	107.9	12.9	-67.4	0.0
2025-01-22 17:54:48.403436	107.6	13.1	-66.7	0.0
2025-01-22 17:54:50.658045	107.4	13.2	-66.7	0.0
2025-01-22 17:54:52.913278	107.1	13.4	-67.8	0.0
2025-01-22 17:54:55.165251	106.8	13.6	-68.4	0.0
2025-01-22 17:54:57.418356	106.6	13.8	-66.7	0.0
2025-01-22 17:54:59.670557	106.3	14.0	-67.9	0.0
2025-01-22 17:55:01.921934	106.0	14.1	-70.4	0.0
2025-01-22 17:55:04.175592	105.7	14.3	-68.9	0.0
2025-01-22 17:55:06.428632	105.4	14.5	-70.2	0.0
2025-01-22 17:55:08.686111	105.2	14.7	-70.8	0.0
2025-01-22 17:55:10.939694	104.9	14.9	-70.6	0.0
2025-01-22 17:55:13.194845	104.6	15.0	-69.4	0.0
2025-01-22 17:55:15.448128	104.3	15.2	-69.2	0.0
2025-01-22 17:55:17.701994	104.0	15.4	-67.1	0.0
2025-01-22 17:55:19.955400	103.7	15.6	-66.6	0.0
2025-01-22 17:55:22.211558	103.3	15.8	-68.1	0.0
2025-01-22 17:55:24.462371	103.0	16.0	-73.5	0.0
2025-01-22 17:55:26.718113	102.7	16.2	-69.9	0.0
2025-01-22 17:55:28.973637	102.4	16.3	-71.9	0.0
2025-01-22 17:55:31.228585	102.1	16.5	-70.4	0.0
2025-01-22 17:55:33.481142	101.7	16.7	-67.6	0.0
2025-01-22 17:55:35.734303	101.4	16.9	-69.7	0.0
2025-01-22 17:55:37.987148	101.0	17.1	-70.3	0.0
2025-01-22 17:55:40.237475	100.7	17.3	-68.2	0.0
2025-01-22 17:55:42.494790	100.4	17.5	-68.8	0.0
2025-01-22 17:55:44.747335	100.0	17.7	-67.0	0.0
2025-01-22 17:55:46.998787	99.6	17.8	-68.0	0.0
2025-01-22 17:55:49.248804	99.3	18.0	-66.0	0.0
2025-01-22 17:55:51.503357	98.9	18.2	-63.6	0.0
2025-01-22 17:55:53.755388	98.5	18.4	-65.8	0.0
2025-01-22 17:55:56.008230	98.2	18.6	-66.0	0.0
2025-01-22 17:55:58.261870	97.8	18.8	-69.6	0.0
2025-01-22 17:56:00.514346	97.4	19.0	-70.2	0.0
2025-01-22 17:56:02.766609	97.0	19.2	-68.7	0.0
2025-01-22 17:56:05.020014	96.6	19.4	-65.4	0.0
2025-01-22 17:56:07.274862	96.2	19.6	-68.3	0.0
2025-01-22 17:56:09.528212	95.8	19.8	-68.4	0.0
2025-01-22 17:56:11.780416	95.4	19.9	-70.3	0.0
2025-01-22 17:56:14.033311	95.0	20.1	-64.8	0.0
2025-01-22 17:56:16.285141	94.6	20.3	-70.0	0.0
2025-01-22 17:56:18.540130	94.1	20.5	-65.1	0.0
2025-01-22 17:56:20.793990	93.7	20.7	-69.7	0.0
2025-01-22 17:56:23.044332	93.3	20.9	-68.0	0.0
2025-01-22 17:56:25.296475	92.8	21.1	-70.7	0.0
2025-01-22 17:56:27.555013	92.4	21.3	-68.1	0.0
2025-01-22 17:56:29.808548	91.9	21.5	-69.2	0.0
2025-01-22 17:56:32.060690	91.5	21.7	-66.7	0.0
2025-01-22 17:56:34.315026	91.0	21.8	-65.0	0.0
2025-01-22 17:56:36.568338	90.5	22.0	-67.9	0.0
2025-01-22 17:56:38.821721	90.1	22.2	-68.9	0.0
2025-01-22 17:56:41.073114	89.6	22.4	-64.5	0.0
2025-01-22 17:56:43.328442	89.1	22.6	-67.6	0.0
2025-01-22 17:56:45.582356	88.6	22.8	-66.3	0.0
2025-01-22 17:56:47.838083	88.1	23.0	-67.6	0.0
2025-01-22 17:56:50.090528	87.6	23.1	-69.7	0.0
2025-01-22 17:56:52.342592	87.1	23.3	-69.9	0.0
2025-01-22 17:56:54.596092	86.6	23.5	-67.1	0.0
2025-01-22 17:56:56.848609	86.0	23.7	-66.7	0.0
2025-01-22 17:56:59.102524	85.5	23.8	-69.2	0.0
2025-01-22 17:57:01.356605	85.0	24.0	-64.3	0.0
2025-01-22 17:57:03.612962	84.4	24.2	-71.7	0.0
2025-01-22 17:57:05.865436	83.9	24.4	-67.9	0.0
2025-01-22 17:57:08.118544	83.3	24.5	-71.8	0.0
2025-01-22 17:57:10.372160	82.8	24.7	-71.9	0.0
2025-01-22 17:57:12.626877	82.2	24.9	-72.1	0.0
2025-01-22 17:57:14.880324	81.6	25.0	-67.3	0.0
2025-01-22 17:57:17.130238	81.1	25.2	-68.8	0.0
2025-01-22 17:57:19.386451	80.5	25.3	-72.5	0.0
2025-01-22 17:57:21.639525	79.9	25.5	-65.6	0.0
2025-01-22 17:57:23.892627	79.3	25.7	-66.8	0.0
2025-01-22 17:57:26.143590	78.7	25.8	-70.0	0.0
2025-01-22 17:57:28.397087	78.1	26.0	-70.8	0.0
2025-01-22 17:57:30.650671	77.5	26.1	-69.3	0.0
2025-01-22 17:57:32.902977	76.9	26.2	-70.3	0.0
2025-01-22 17:57:35.155046	76.2	26.4	-63.7	0.0
2025-01-22 17:57:37.406777	75.6	26.5	-68.4	0.0
2025-01-22 17:57:39.656918	75.0	26.7	-67.2	0.0
2025-01-22 17:57:41.907943	74.3	26.8	-63.3	0.0
2025-01-22 17:57:44.160421	73.7	26.9	-68.0	0.0
2025-01-22 17:57:46.413762	73.1	27.0	-68.2	0.0
2025-01-22 17:57:48.666637	72.4	27.2	-64.5	0.0
2025-01-22 17:57:50.921730	71.7	27.3	-68.8	0.0
2025-01-22 17:57:53.175661	71.1	27.4	-68.0	0.0
2025-01-22 17:57:55.427525	70.4	27.5	-68.4	0.0
2025-01-22 17:57:57.683756	69.7	27.6	-67.5	0.0
2025-01-22 17:57:59.937347	69.1	27.7	-66.4	0.0
2025-01-22 17:58:02.189135	68.4	27.8	-65.2	0.0
2025-01-22 17:58:04.442155	67.7	27.9	-67.0	0.0
2025-01-22 17:58:06.694878	67.0	28.0	-68.2	0.0
2025-01-22 17:58:08.947512	66.3	28.1	-63.9	0.0
2025-01-22 17:58:11.201748	65.6	28.2	-63.1	0.0
2025-01-22 17:58:13.457363	64.9	28.2	-61.4	0.0
2025-01-22 17:58:15.710332	64.2	28.3	-69.4	0.0
2025-01-22 17:58:17.961883	63.5	28.4	-70.3	0.0
2025-01-22 17:58:20.214244	62.8	28.4	-62.7	0.0
2025-01-22 17:58:22.466207	62.1	28.5	-67.1	0.0
2025-01-22 17:58:24.718961	61.4	28.5	-69.6	0.0
2025-01-22 17:58:26.968076	60.7	28.6	-65.9	0.0
2025-01-22 17:58:29.221544	59.9	28.6	-60.4	0.0
2025-01-22 17:58:31.474615	59.2	28.7	-66.6	0.0
2025-01-22 17:58:33.728721	58.5	28.7	-67.2	0.0
2025-01-22 17:58:35.980261	57.8	28.7	-61.8	0.0
2025-01-22 17:58:38.232044	57.1	28.7	-66.3	0.0
2025-01-22 17:58:40.484283	56.3	28.8	-65.9	0.0
2025-01-22 17:58:42.735995	55.6	28.8	-67.4	0.0
2025-01-22 17:58:44.990041	54.9	28.8	-65.8	0.0
2025-01-22 17:58:47.241695	54.2	28.8	-66.0	0.0
2025-01-22 17:58:49.497356	53.4	28.8	-66.2	0.0
2025-01-22 17:58:51.753156	52.7	28.8	-66.1	0.0
2025-01-22 17:58:54.003386	52.0	28.7	-66.1	0.0
2025-01-22 17:58:56.254862	51.3	28.7	-60.0	0.0
2025-01-22 17:58:58.505588	50.5	28.7	-65.8	0.0
2025-01-22 17:59:00.759849	49.8	28.7	-65.0	0.0
2025-01-22 17:59:03.011894	49.1	28.6	-62.0	0.0
2025-01-22 17:59:05.263852	48.4	28.6	-65.2	0.0
2025-01-22 17:59:07.518535	47.7	28.6	-63.6	0.0
2025-01-22 17:59:09.768869	47.0	28.5	-65.3	0.0
2025-01-22 17:59:12.022482	46.2	28.5	-67.4	0.0
2025-01-22 17:59:14.277386	45.5	28.4	-63.8	0.0
2025-01-22 17:59:16.530977	44.8	28.3	-66.1	0.0
2025-01-22 17:59:18.784783	44.1	28.3	-66.7	0.0
2025-01-22 17:59:21.036602	43.4	28.2	-60.6	0.0
2025-01-22 17:59:23.286772	42.7	28.1	-62.5	0.0
2025-01-22 17:59:25.540833	42.0	28.0	-64.6	0.0
2025-01-22 17:59:27.792128	41.3	27.9	-65.9	0.0
2025-01-22 17:59:30.045005	40.6	27.9	-63.7	0.0
2025-01-22 17:59:32.296733	40.0	27.8	-68.2	0.0
2025-01-22 17:59:34.550126	39.3	27.7	-66.2	0.0
2025-01-22 17:59:36.802171	38.6	27.6	-68.4	0.0
2025-01-22 17:59:39.054982	37.9	27.4	-66.0	0.0
2025-01-22 17:59:41.306632	37.3	27.3	-69.5	0.0
2025-01-22 17:59:43.561414	36.6	27.2	-69.9	0.0
2025-01-22 17:59:45.810640	36.0	27.1	-69.1	0.0
2025-01-22 17:59:48.062826	35.3	27.0	-71.2	0.0
2025-01-22 17:59:50.315541	34.7	26.9	-67.1	0.0
2025-01-22 17:59:52.572605	34.0	26.7	-62.4	0.0
2025-01-22 17:59:54.824268	33.4	26.6	-65.4	0.0
2025-01-22 17:59:57.077631	32.8	26.5	-69.2	0.0
2025-01-22 17:59:59.332632	32.1	26.3	-68.2	0.0
2025-01-22 18:00:01.586853	31.5	26.2	-65.4	0.0
2025-01-22 18:00:03.840978	30.9	26.0	-66.7	0.0
2025-01-22 18:00:06.091716	30.3	25.9	-68.1	0.0
2025-01-22 18:00:08.346276	29.7	25.7	-65.1	0.0
2025-01-22 18:00:10.599611	29.1	25.6	-66.6	0.0
2025-01-22 18:00:12.851948	28.5	25.4	-67.4	0.0
2025-01-22 18:00:15.106191	27.9	25.3	-62.5	0.0
2025-01-22 18:00:17.363040	27.3	25.1	-62.9	0.0
2025-01-22 18:00:19.614446	26.8	24.9	-63.3	0.0
2025-01-22 18:00:21.866959	26.2	24.8	-63.1	0.0
2025-01-22 18:00:24.119477	25.6	24.6	-64.9	0.0
2025-01-22 18:00:26.370005	25.1	24.4	-65.9	0.0
2025-01-22 18:00:28.626066	24.5	24.3	-63.1	0.0
2025-01-22 18:00:30.878469	24.0	24.1	-63.7	0.0
2025-01-22 18:00:33.129833	23.5	23.9	-61.3	0.0
2025-01-22 18:00:35.385094	22.9	23.7	-65.9	0.0
2025-01-22 18:00:37.636039	22.4	23.6	-64.1	0.0
2025-01-22 18:00:39.888871	21.9	23.4	-61.4	0.0
2025-01-22 18:00:42.146074	21.4	23.2	-60.8	0.0
2025-01-22 18:00:44.398546	20.9	23.0	-61.0	0.0
2025-01-22 18:00:46.650937	20.4	22.9	-60.8	0.0
2025-01-22 18:00:48.904152	19.9	22.7	-61.1	0.0
2025-01-22 18:00:51.157362	19.4	22.5	-63.7	0.0
2025-01-22 18:00:53.409768	18.9	22.3	-63.7	0.0
2025-01-22 18:00:55.663438	18.4	22.1	-60.9	0.0
2025-01-22 18:00:57.916218	17.9	21.9	-62.7	0.0
2025-01-22 18:01:00.168621	17.5	21.7	-65.7	0.0
2025-01-22 18:01:02.421923	17.0	21.6	-63.5	0.0
2025-01-22 18:01:04.674500	16.6	21.4	-65.5	0.0
2025-01-22 18:01:06.927280	16.1	21.2	-63.5	0.0
2025-01-22 18:01:09.181334	15.7	21.0	-65.9	0.0
2025-01-22 18:01:11.434009	15.2	20.8	-65.9	0.0
2025-01-22 18:01:13.691662	14.8	20.6	-64.1	0.0
2025-01-22 18:01:15.946866	14.4	20.4	-65.1	0.0
2025-01-22 18:01:18.199632	13.9	20.2	-66.1	0.0
2025-01-22 18:01:20.450966	13.5	20.0	-62.5	0.0
2025-01-22 18:01:22.700186	13.1	19.8	-62.2	0.0
2025-01-22 18:01:24.954366	12.7	19.7	-67.5	0.0
2025-01-22 18:01:27.205260	12.3	19.5	-68.2	0.0
2025-01-22 18:01:29.457745	11.9	19.3	-63.6	0.0
2025-01-22 18:01:31.711684	11.5	19.1	-64.0	0.0
2025-01-22 18:01:33.964307	11.1	18.9	-67.2	0.0
2025-01-22 18:01:36.217738	10.7	18.7	-64.9	0.0
2025-01-22 18:01:38.465731	10.4	18.5	-65.9	0.0
2025-01-22 18:01:40.718615	10.0	18.3	-64.5	0.0
2025-01-22 18:01:42.972968	9.6	18.1	-61.7	0.0
2025-01-22 18:01:45.227203	9.3	17.9	-63.7	0.0
2025-01-22 18:01:47.480223	8.9	17.7	-62.3	0.0
2025-01-22 18:01:49.730158	8.5	17.6	-62.2	0.0
2025-01-22 18:01:51.982577	8.2	17.4	-65.6	0.0
2025-01-22 18:01:54.240176	7.9	17.2	-64.0	0.0
2025-01-22 18:01:56.494417	7.5	17.0	-65.6	0.0
2025-01-22 18:01:58.748153	7.2	16.8	-64.0	0.0
2025-01-22 18:02:01.002858	6.8	16.6	-61.4	0.0
2025-01-22 18:02:03.254189	6.5	16.4	-60.9	0.0
2025-01-22 18:02:05.504132	6.2	16.2	-63.7	0.0
2025-01-22 18:02:07.756705	5.9	16.0	-63.9	0.0
2025-01-22 18:02:10.008208	5.6	15.9	-61.3	0.0
2025-01-22 18:02:12.261614	5.2	15.7	-65.8	0.0
2025-01-22 18:02:14.514464	4.9	15.5	-65.1	0.0
2025-01-22 18:02:16.766084	4.6	15.3	-65.1	0.0
2025-01-22 18:02:19.017576	4.3	15.1	-65.0	0.0
2025-01-22 18:02:21.272677	4.0	14.9	-64.6	0.0
2025-01-22 18:02:23.526254	3.7	14.8	-64.6	0.0
2025-01-22 18:02:25.779471	3.4	14.6	-64.5	0.0
2025-01-22 18:02:28.033773	3.2	14.4	-64.4	0.0
2025-01-22 18:02:30.286954	2.9	14.2	-62.2	0.0
2025-01-22 18:02:32.540985	2.6	14.0	-62.5	0.0
2025-01-22 18:02:34.795969	2.3	13.8	-62.1	0.0
2025-01-22 18:02:37.049540	2.0	13.7	-61.0	0.0
2025-01-22 18:02:39.302732	1.8	13.5	-63.2	0.0
2025-01-22 18:02:41.556138	1.5	13.3	-60.1	0.0
2025-01-22 18:02:43.808790	1.3	13.1	-61.4	0.0
2025-01-22 18:02:46.062834	1.0	13.0	-64.4	0.0
2025-01-22 18:02:48.315630	0.7	12.8	-66.2	0.0
2025-01-22 18:02:50.568347	0.5	12.6	-64.4	0.0
2025-01-22 18:02:52.819543	0.2	12.4	-65.9	0.0
2025-01-22 18:02:55.070595	360.0	12.3	-66.5	0.0
2025-01-22 18:02:57.322767	359.7	12.1	-64.6	0.0
2025-01-22 18:02:59.575505	359.5	11.9	-66.3	0.0
2025-01-22 18:03:01.828366	359.3	11.7	-65.5	0.0
2025-01-22 18:03:04.080073	359.0	11.6	-65.7	0.0
2025-01-22 18:03:06.332769	358.8	11.4	-66.5	0.0
2025-01-22 18:03:08.585459	358.6	11.2	-65.7	0.0
2025-01-22 18:03:10.838660	358.3	11.1	-65.5	0.0
2025-01-22 18:03:13.090915	358.1	10.9	-62.0	0.0
2025-01-22 18:03:15.345006	357.9	10.7	-70.7	0.0
2025-01-22 18:03:17.598915	357.7	10.6	-75.6	0.0
2025-01-22 18:03:19.852643	357.5	10.4	-78.2	0.0
2025-01-22 18:03:22.107068	357.2	10.2	-80.0	0.0
2025-01-22 18:03:24.358569	357.0	10.1	-79.8	0.0
#Closed at: 2025-01-22 17:54:02.916492