passes_logs/2025/01/22/planumMaritime01/planumMaritime01__20250122_024355_METEOR-M2_2_rec.log

#Pass ID: 20250122_024355_METEOR-M2 2
#Satellite: METEOR-M2 2
#Configuration: METEOR-M2 2
#Start time: 2025-01-22 02:44:00.737105

#LorettStation: 1.0.0 05.05.2024
#Station: planumMaritime01
#Location: 37.49445 lon 55.92918 lat
#TLE: 1 44387U 19038A   25021.18051176  .00000366  00000+0  17858-3 0  9992
#TLE: 2 44387  98.8576 357.6249 0002218  69.4714 290.6702 14.24121645288410

#Time	Az	El	Level	SNR
2025-01-22 02:44:02.896396	10.0	10.2	-73.3	0.0
2025-01-22 02:44:05.144992	9.9	10.4	-75.1	0.0
2025-01-22 02:44:07.392102	9.8	10.6	-73.3	0.0
2025-01-22 02:44:09.636910	9.7	10.8	-75.1	0.0
2025-01-22 02:44:11.884571	9.6	11.0	-74.2	0.0
2025-01-22 02:44:14.131993	9.4	11.2	-72.6	0.0
2025-01-22 02:44:16.378432	9.3	11.4	-73.5	0.0
2025-01-22 02:44:18.623273	9.2	11.6	-74.7	0.0
2025-01-22 02:44:20.867910	9.1	11.8	-75.0	0.0
2025-01-22 02:44:23.113125	9.0	12.0	-74.0	0.0
2025-01-22 02:44:25.355788	8.9	12.2	-70.8	0.0
2025-01-22 02:44:27.604199	8.7	12.4	-75.1	0.0
2025-01-22 02:44:29.852950	8.6	12.6	-75.2	0.0
2025-01-22 02:44:32.098885	8.5	12.8	-70.9	0.0
2025-01-22 02:44:34.341579	8.4	13.0	-74.9	0.0
2025-01-22 02:44:36.588354	8.2	13.2	-75.5	0.0
2025-01-22 02:44:38.835548	8.1	13.4	-73.5	0.0
2025-01-22 02:44:41.083999	8.0	13.7	-75.1	0.0
2025-01-22 02:44:43.332333	7.9	13.9	-75.8	0.0
2025-01-22 02:44:45.578897	7.7	14.1	-75.2	0.0
2025-01-22 02:44:47.825094	7.6	14.3	-74.4	0.0
2025-01-22 02:44:50.070824	7.4	14.5	-75.1	0.0
2025-01-22 02:44:52.318683	7.3	14.8	-74.5	0.0
2025-01-22 02:44:54.568053	7.1	15.0	-76.6	0.0
2025-01-22 02:44:56.813706	7.0	15.2	-76.1	0.0
2025-01-22 02:44:59.057445	6.9	15.5	-76.3	0.0
2025-01-22 02:45:01.304442	6.7	15.7	-76.6	0.0
2025-01-22 02:45:03.550925	6.5	15.9	-75.9	0.0
2025-01-22 02:45:05.798461	6.4	16.2	-74.8	0.0
2025-01-22 02:45:08.043715	6.2	16.4	-72.9	0.0
2025-01-22 02:45:10.292443	6.1	16.7	-75.8	0.0
2025-01-22 02:45:12.541823	5.9	16.9	-77.4	0.0
2025-01-22 02:45:14.790527	5.7	17.1	-77.7	0.0
2025-01-22 02:45:17.041433	5.6	17.4	-76.9	0.0
2025-01-22 02:45:19.286317	5.4	17.7	-78.5	0.0
2025-01-22 02:45:21.533289	5.2	17.9	-77.5	0.0
2025-01-22 02:45:23.778876	5.0	18.2	-76.6	0.0
2025-01-22 02:45:26.024879	4.8	18.4	-77.9	0.0
2025-01-22 02:45:28.271337	4.6	18.7	-79.0	0.0
2025-01-22 02:45:30.517974	4.5	19.0	-78.5	0.0
2025-01-22 02:45:32.762166	4.3	19.2	-78.9	0.0
2025-01-22 02:45:35.010977	4.1	19.5	-75.9	0.0
2025-01-22 02:45:37.258127	3.9	19.8	-77.6	0.0
2025-01-22 02:45:39.505227	3.7	20.0	-77.8	0.0
2025-01-22 02:45:41.746865	3.4	20.3	-77.6	0.0
2025-01-22 02:45:43.995572	3.2	20.6	-77.1	0.0
2025-01-22 02:45:46.243837	3.0	20.9	-78.0	0.0
2025-01-22 02:45:48.489479	2.8	21.2	-74.1	0.0
2025-01-22 02:45:50.737036	2.6	21.5	-78.6	0.0
2025-01-22 02:45:52.986319	2.3	21.7	-78.1	0.0
2025-01-22 02:45:55.233958	2.1	22.0	-78.9	0.0
2025-01-22 02:45:57.482025	1.9	22.3	-77.9	0.0
2025-01-22 02:45:59.726583	1.6	22.6	-77.9	0.0
2025-01-22 02:46:01.970457	1.4	22.9	-77.7	0.0
2025-01-22 02:46:04.218600	1.1	23.2	-78.1	0.0
2025-01-22 02:46:06.465648	0.8	23.6	-77.7	0.0
2025-01-22 02:46:08.709560	0.6	23.9	-77.7	0.0
2025-01-22 02:46:10.958025	0.3	24.2	-77.8	0.0
2025-01-22 02:46:13.202401	0.0	24.5	-77.8	0.0
2025-01-22 02:46:15.448914	359.7	24.8	-78.9	0.0
2025-01-22 02:46:17.694022	359.5	25.2	-77.7	0.0
2025-01-22 02:46:19.941614	359.2	25.5	-78.1	0.0
2025-01-22 02:46:22.189138	358.9	25.8	-77.4	0.0
2025-01-22 02:46:24.435506	358.5	26.1	-78.4	0.0
2025-01-22 02:46:26.682420	358.2	26.5	-78.2	0.0
2025-01-22 02:46:28.928903	357.9	26.8	-78.1	0.0
2025-01-22 02:46:31.174419	357.6	27.2	-78.4	0.0
2025-01-22 02:46:33.423838	357.2	27.5	-78.8	0.0
2025-01-22 02:46:35.672093	356.9	27.9	-79.3	0.0
2025-01-22 02:46:37.918703	356.5	28.2	-79.7	0.0
2025-01-22 02:46:40.165942	356.2	28.6	-79.5	0.0
2025-01-22 02:46:42.410628	355.8	29.0	-79.8	0.0
2025-01-22 02:46:44.656820	355.4	29.3	-79.6	0.0
2025-01-22 02:46:46.901052	355.0	29.7	-79.8	0.0
2025-01-22 02:46:49.150501	354.6	30.1	-79.3	0.0
2025-01-22 02:46:51.394808	354.2	30.4	-79.9	0.0
2025-01-22 02:46:53.640728	353.8	30.8	-79.7	0.0
2025-01-22 02:46:55.889970	353.4	31.2	-80.4	0.0
2025-01-22 02:46:58.134880	353.0	31.6	-79.7	0.0
2025-01-22 02:47:00.381732	352.5	32.0	-80.5	0.0
2025-01-22 02:47:02.627313	352.1	32.4	-80.5	0.0
2025-01-22 02:47:04.873306	351.6	32.8	-80.3	0.0
2025-01-22 02:47:07.117718	351.1	33.2	-79.9	0.0
2025-01-22 02:47:09.365346	350.6	33.6	-80.4	0.0
2025-01-22 02:47:11.610870	350.1	34.0	-80.2	0.0
2025-01-22 02:47:13.858478	349.6	34.4	-80.6	0.0
2025-01-22 02:47:16.105715	349.1	34.8	-80.2	0.0
2025-01-22 02:47:18.351753	348.5	35.2	-81.0	0.0
2025-01-22 02:47:20.595181	348.0	35.6	-80.7	0.0
2025-01-22 02:47:22.842826	347.4	36.0	-80.5	0.0
2025-01-22 02:47:25.087891	346.8	36.4	-81.1	0.0
2025-01-22 02:47:27.336105	346.2	36.9	-80.9	0.0
2025-01-22 02:47:29.582896	345.6	37.3	-81.3	0.0
2025-01-22 02:47:31.828898	344.9	37.7	-80.8	0.0
2025-01-22 02:47:34.074673	344.3	38.1	-80.4	0.0
2025-01-22 02:47:36.324987	343.6	38.6	-81.0	0.0
2025-01-22 02:47:38.568259	342.9	39.0	-81.0	0.0
2025-01-22 02:47:40.815102	342.2	39.4	-80.9	0.0
2025-01-22 02:47:43.060134	341.5	39.8	-80.7	0.0
2025-01-22 02:47:45.311017	340.7	40.3	-81.2	0.0
2025-01-22 02:47:47.561360	339.9	40.7	-81.0	0.0
2025-01-22 02:47:49.808963	339.1	41.1	-81.0	0.0
2025-01-22 02:47:52.052459	338.3	41.5	-80.9	0.0
2025-01-22 02:47:54.299249	337.5	42.0	-80.6	0.0
2025-01-22 02:47:56.542713	336.6	42.4	-80.8	0.0
2025-01-22 02:47:58.787134	335.8	42.8	-80.5	0.0
2025-01-22 02:48:01.031857	334.9	43.2	-80.7	0.0
2025-01-22 02:48:03.280433	333.9	43.6	-80.8	0.0
2025-01-22 02:48:05.525772	333.0	44.0	-81.0	0.0
2025-01-22 02:48:07.775205	332.0	44.4	-81.0	0.0
2025-01-22 02:48:10.019827	331.0	44.8	-81.0	0.0
2025-01-22 02:48:12.264991	330.0	45.2	-81.1	0.0
2025-01-22 02:48:14.512445	328.9	45.6	-81.2	0.0
2025-01-22 02:48:16.755530	327.9	46.0	-81.1	0.0
2025-01-22 02:48:19.002623	326.8	46.4	-81.2	0.0
2025-01-22 02:48:21.247557	325.6	46.7	-81.3	0.0
2025-01-22 02:48:23.493268	324.5	47.1	-81.1	0.0
2025-01-22 02:48:25.738758	323.3	47.4	-81.3	0.0
2025-01-22 02:48:27.986040	322.1	47.7	-81.0	0.0
2025-01-22 02:48:30.232243	320.9	48.1	-81.3	0.0
2025-01-22 02:48:32.478678	319.6	48.4	-81.2	0.0
2025-01-22 02:48:34.723816	318.3	48.6	-80.9	0.0
2025-01-22 02:48:36.973852	317.0	48.9	-81.3	0.0
2025-01-22 02:48:39.220555	315.7	49.2	-81.1	0.0
2025-01-22 02:48:41.466308	314.3	49.4	-81.2	0.0
2025-01-22 02:48:43.712686	313.0	49.7	-81.2	0.0
2025-01-22 02:48:45.962381	311.6	49.9	-81.3	0.0
2025-01-22 02:48:48.208836	310.2	50.1	-81.4	0.0
2025-01-22 02:48:50.456263	308.7	50.3	-81.3	0.0
2025-01-22 02:48:52.701681	307.3	50.4	-81.3	0.0
2025-01-22 02:48:54.948835	305.8	50.6	-81.6	0.0
2025-01-22 02:48:57.192832	304.3	50.7	-81.4	0.0
2025-01-22 02:48:59.437835	302.9	50.8	-81.1	0.0
2025-01-22 02:49:01.682019	301.4	50.9	-81.4	0.0
2025-01-22 02:49:03.926320	299.9	50.9	-81.2	0.0
2025-01-22 02:49:06.174861	298.3	51.0	-81.3	0.0
2025-01-22 02:49:08.419148	296.8	51.0	-81.2	0.0
2025-01-22 02:49:10.662678	295.3	51.0	-81.1	0.0
2025-01-22 02:49:12.910591	293.8	51.0	-81.1	0.0
2025-01-22 02:49:15.154813	292.3	50.9	-81.3	0.0
2025-01-22 02:49:17.399561	290.8	50.9	-81.4	0.0
2025-01-22 02:49:19.644655	289.3	50.8	-81.3	0.0
2025-01-22 02:49:21.889976	287.8	50.7	-81.2	0.0
2025-01-22 02:49:24.137131	286.3	50.6	-81.2	0.0
2025-01-22 02:49:26.386796	284.9	50.4	-81.3	0.0
2025-01-22 02:49:28.631646	283.4	50.3	-81.3	0.0
2025-01-22 02:49:30.875455	282.0	50.1	-81.4	0.0
2025-01-22 02:49:33.120165	280.6	49.9	-81.4	0.0
2025-01-22 02:49:35.364330	279.2	49.7	-81.5	0.0
2025-01-22 02:49:37.612523	277.8	49.4	-81.4	0.0
2025-01-22 02:49:39.858662	276.5	49.2	-81.4	0.0
2025-01-22 02:49:42.101891	275.1	48.9	-81.4	0.0
2025-01-22 02:49:44.346469	273.8	48.6	-81.5	0.0
2025-01-22 02:49:46.592209	272.5	48.3	-81.5	0.0
2025-01-22 02:49:48.841989	271.3	48.0	-81.6	0.0
2025-01-22 02:49:51.091017	270.0	47.7	-81.7	0.0
2025-01-22 02:49:53.336138	268.8	47.4	-81.7	0.0
2025-01-22 02:49:55.585951	267.7	47.0	-81.7	0.0
2025-01-22 02:49:57.831419	266.5	46.7	-81.4	0.0
2025-01-22 02:50:00.076739	265.4	46.3	-81.6	0.0
2025-01-22 02:50:02.320041	264.3	46.0	-81.6	0.0
2025-01-22 02:50:04.563775	263.2	45.6	-81.5	0.0
2025-01-22 02:50:06.808369	262.1	45.2	-81.3	0.0
2025-01-22 02:50:09.055200	261.1	44.8	-81.4	0.0
2025-01-22 02:50:11.301580	260.1	44.4	-81.1	0.0
2025-01-22 02:50:13.551327	259.1	44.0	-80.8	0.0
2025-01-22 02:50:15.795392	258.2	43.6	-81.2	0.0
2025-01-22 02:50:18.040643	257.3	43.2	-81.1	0.0
2025-01-22 02:50:20.289020	256.4	42.8	-80.8	0.0
2025-01-22 02:50:22.536890	255.5	42.4	-81.0	0.0
2025-01-22 02:50:24.786153	254.6	41.9	-80.9	0.0
2025-01-22 02:50:27.032867	253.8	41.5	-81.4	0.0
2025-01-22 02:50:29.276979	253.0	41.1	-80.7	0.0
2025-01-22 02:50:31.523112	252.2	40.7	-81.5	0.0
2025-01-22 02:50:33.768397	251.4	40.2	-81.1	0.0
2025-01-22 02:50:36.017586	250.7	39.8	-81.2	0.0
2025-01-22 02:50:38.264075	249.9	39.4	-81.1	0.0
2025-01-22 02:50:40.512442	249.2	38.9	-81.0	0.0
2025-01-22 02:50:42.758521	248.5	38.5	-80.9	0.0
2025-01-22 02:50:45.005392	247.8	38.1	-81.2	0.0
2025-01-22 02:50:47.252064	247.2	37.7	-80.8	0.0
2025-01-22 02:50:49.497597	246.5	37.2	-80.6	0.0
2025-01-22 02:50:51.743861	245.9	36.8	-80.7	0.0
2025-01-22 02:50:53.990271	245.3	36.4	-80.7	0.0
2025-01-22 02:50:56.236160	244.7	36.0	-80.6	0.0
2025-01-22 02:50:58.479749	244.1	35.5	-80.8	0.0
2025-01-22 02:51:00.725476	243.6	35.1	-80.6	0.0
2025-01-22 02:51:02.969079	243.0	34.7	-80.7	0.0
2025-01-22 02:51:05.216391	242.5	34.3	-80.7	0.0
2025-01-22 02:51:07.459867	242.0	33.9	-80.8	0.0
2025-01-22 02:51:09.705560	241.5	33.5	-80.6	0.0
2025-01-22 02:51:11.951356	241.0	33.1	-80.4	0.0
2025-01-22 02:51:14.197147	240.5	32.7	-80.3	0.0
2025-01-22 02:51:16.443843	240.0	32.3	-80.3	0.0
2025-01-22 02:51:18.691489	239.6	31.9	-80.3	0.0
2025-01-22 02:51:20.933826	239.1	31.5	-80.3	0.0
2025-01-22 02:51:23.178827	238.7	31.1	-80.3	0.0
2025-01-22 02:51:25.424926	238.2	30.7	-80.1	0.0
2025-01-22 02:51:27.672249	237.8	30.4	-80.4	0.0
2025-01-22 02:51:29.915970	237.4	30.0	-80.3	0.0
2025-01-22 02:51:32.163910	237.0	29.6	-80.5	0.0
2025-01-22 02:51:34.411922	236.6	29.2	-80.0	0.0
2025-01-22 02:51:36.658688	236.3	28.9	-80.3	0.0
2025-01-22 02:51:38.904260	235.9	28.5	-80.3	0.0
2025-01-22 02:51:41.151106	235.5	28.1	-80.4	0.0
2025-01-22 02:51:43.396114	235.2	27.8	-80.3	0.0
2025-01-22 02:51:45.640765	234.8	27.4	-79.6	0.0
2025-01-22 02:51:47.888737	234.5	27.1	-80.5	0.0
2025-01-22 02:51:50.133639	234.2	26.7	-80.3	0.0
2025-01-22 02:51:52.379413	233.8	26.4	-80.2	0.0
2025-01-22 02:51:54.624051	233.5	26.1	-80.4	0.0
2025-01-22 02:51:56.868654	233.2	25.7	-80.1	0.0
2025-01-22 02:51:59.115819	232.9	25.4	-80.5	0.0
2025-01-22 02:52:01.359575	232.6	25.1	-80.3	0.0
2025-01-22 02:52:03.605124	232.3	24.7	-80.1	0.0
2025-01-22 02:52:05.852120	232.0	24.4	-80.4	0.0
2025-01-22 02:52:08.098433	231.7	24.1	-80.4	0.0
2025-01-22 02:52:10.346233	231.5	23.8	-80.3	0.0
2025-01-22 02:52:12.591448	231.2	23.5	-80.4	0.0
2025-01-22 02:52:14.835145	230.9	23.1	-80.1	0.0
2025-01-22 02:52:17.082049	230.7	22.8	-80.5	0.0
2025-01-22 02:52:19.327937	230.4	22.5	-80.6	0.0
2025-01-22 02:52:21.574144	230.2	22.2	-80.3	0.0
2025-01-22 02:52:23.818337	229.9	21.9	-80.2	0.0
2025-01-22 02:52:26.065941	229.7	21.6	-80.1	0.0
2025-01-22 02:52:28.314922	229.5	21.3	-80.1	0.0
2025-01-22 02:52:30.562184	229.2	21.1	-80.1	0.0
2025-01-22 02:52:32.806468	229.0	20.8	-80.1	0.0
2025-01-22 02:52:35.051957	228.8	20.5	-80.2	0.0
2025-01-22 02:52:37.296618	228.6	20.2	-80.0	0.0
2025-01-22 02:52:39.541555	228.4	19.9	-80.1	0.0
2025-01-22 02:52:41.786579	228.2	19.7	-79.9	0.0
2025-01-22 02:52:44.031705	228.0	19.4	-80.0	0.0
2025-01-22 02:52:46.278190	227.8	19.1	-79.9	0.0
2025-01-22 02:52:48.522714	227.6	18.8	-79.8	0.0
2025-01-22 02:52:50.771932	227.4	18.6	-79.8	0.0
2025-01-22 02:52:53.018999	227.2	18.3	-79.9	0.0
2025-01-22 02:52:55.265208	227.0	18.1	-79.9	0.0
2025-01-22 02:52:57.514467	226.8	17.8	-80.0	0.0
2025-01-22 02:52:59.758324	226.6	17.5	-79.8	0.0
2025-01-22 02:53:02.006422	226.5	17.3	-79.8	0.0
2025-01-22 02:53:04.250846	226.3	17.0	-79.5	0.0
2025-01-22 02:53:06.496159	226.1	16.8	-79.3	0.0
2025-01-22 02:53:08.741956	225.9	16.5	-79.2	0.0
2025-01-22 02:53:10.985910	225.8	16.3	-79.3	0.0
2025-01-22 02:53:13.233439	225.6	16.1	-79.3	0.0
2025-01-22 02:53:15.478419	225.5	15.8	-79.2	0.0
2025-01-22 02:53:17.725213	225.3	15.6	-78.9	0.0
2025-01-22 02:53:19.976274	225.1	15.3	-79.0	0.0
2025-01-22 02:53:22.219369	225.0	15.1	-79.1	0.0
2025-01-22 02:53:24.465800	224.8	14.9	-78.9	0.0
2025-01-22 02:53:26.712170	224.7	14.6	-79.2	0.0
2025-01-22 02:53:28.957696	224.6	14.4	-79.1	0.0
2025-01-22 02:53:31.204345	224.4	14.2	-78.5	0.0
2025-01-22 02:53:33.446026	224.3	14.0	-79.0	0.0
2025-01-22 02:53:35.691889	224.1	13.7	-78.6	0.0
2025-01-22 02:53:37.938203	224.0	13.5	-78.5	0.0
2025-01-22 02:53:40.181763	223.9	13.3	-78.7	0.0
2025-01-22 02:53:42.428203	223.7	13.1	-74.9	0.0
2025-01-22 02:53:44.672931	223.6	12.9	-75.2	0.0
2025-01-22 02:53:46.916715	223.5	12.7	-75.3	0.0
2025-01-22 02:53:49.163391	223.3	12.5	-74.7	0.0
2025-01-22 02:53:51.409061	223.2	12.2	-75.1	0.0
2025-01-22 02:53:53.654926	223.1	12.0	-75.0	0.0
2025-01-22 02:53:55.898102	223.0	11.8	-74.1	0.0
2025-01-22 02:53:58.143202	222.9	11.6	-74.5	0.0
2025-01-22 02:54:00.388965	222.7	11.4	-76.4	0.0
2025-01-22 02:54:02.632948	222.6	11.2	-75.2	0.0
2025-01-22 02:54:04.878650	222.5	11.0	-75.1	0.0
2025-01-22 02:54:07.124845	222.4	10.8	-73.2	0.0
2025-01-22 02:54:09.372356	222.3	10.6	-75.7	0.0
2025-01-22 02:54:11.618071	222.2	10.4	-77.1	0.0
2025-01-22 02:54:13.863048	222.1	10.2	-79.9	0.0
#Closed at: 2025-01-22 02:43:55.743544