passes_logs/2025/01/22/planumMaritime01/planumMaritime01__20250122_075951_NOAA_18_rec.log

#Pass ID: 20250122_075951_NOAA 18
#Satellite: NOAA 18
#Configuration: NOAA 18
#Start time: 2025-01-22 07:59:56.871156

#LorettStation: 1.0.0 05.05.2024
#Station: planumMaritime01
#Location: 37.49445 lon 55.92918 lat
#TLE: 1 28654U 05018A   25021.17963601  .00000484  00000+0  28040-3 0  9994
#TLE: 2 28654  98.8557 102.1724 0014626 162.0619 198.1073 14.13492794 14053

#Time	Az	El	Level	SNR
2025-01-22 07:59:59.031901	29.8	10.2	-66.3	0.0
2025-01-22 08:00:01.285735	30.0	10.3	-66.1	0.0
2025-01-22 08:00:03.541978	30.2	10.5	-64.6	0.0
2025-01-22 08:00:05.796536	30.4	10.7	-64.5	0.0
2025-01-22 08:00:08.047787	30.6	10.9	-66.4	0.0
2025-01-22 08:00:10.302906	30.8	11.0	-67.2	0.0
2025-01-22 08:00:12.557262	31.0	11.2	-64.8	0.0
2025-01-22 08:00:14.812356	31.2	11.4	-64.4	0.0
2025-01-22 08:00:17.061790	31.4	11.6	-65.5	0.0
2025-01-22 08:00:19.314977	31.6	11.7	-65.2	0.0
2025-01-22 08:00:21.568102	31.8	11.9	-65.5	0.0
2025-01-22 08:00:23.821229	32.0	12.1	-64.9	0.0
2025-01-22 08:00:26.072873	32.2	12.3	-62.8	0.0
2025-01-22 08:00:28.325004	32.4	12.5	-65.8	0.0
2025-01-22 08:00:30.578778	32.7	12.7	-67.1	0.0
2025-01-22 08:00:32.828387	32.9	12.8	-65.0	0.0
2025-01-22 08:00:35.079161	33.1	13.0	-67.3	0.0
2025-01-22 08:00:37.329555	33.3	13.2	-66.8	0.0
2025-01-22 08:00:39.584369	33.6	13.4	-68.0	0.0
2025-01-22 08:00:41.837769	33.8	13.6	-66.1	0.0
2025-01-22 08:00:44.093029	34.0	13.8	-63.5	0.0
2025-01-22 08:00:46.346497	34.3	14.0	-66.0	0.0
2025-01-22 08:00:48.599675	34.5	14.2	-65.7	0.0
2025-01-22 08:00:50.850760	34.8	14.4	-67.0	0.0
2025-01-22 08:00:53.104789	35.0	14.6	-66.8	0.0
2025-01-22 08:00:55.355964	35.3	14.8	-65.9	0.0
2025-01-22 08:00:57.609251	35.5	15.0	-65.1	0.0
2025-01-22 08:00:59.858666	35.8	15.1	-67.3	0.0
2025-01-22 08:01:02.113847	36.1	15.3	-63.0	0.0
2025-01-22 08:01:04.367616	36.3	15.5	-67.7	0.0
2025-01-22 08:01:06.620972	36.6	15.8	-67.3	0.0
2025-01-22 08:01:08.871660	36.9	16.0	-68.5	0.0
2025-01-22 08:01:11.125265	37.1	16.2	-68.0	0.0
2025-01-22 08:01:13.380412	37.4	16.4	-66.6	0.0
2025-01-22 08:01:15.634790	37.7	16.6	-67.4	0.0
2025-01-22 08:01:17.890530	38.0	16.8	-68.9	0.0
2025-01-22 08:01:20.141228	38.3	17.0	-63.6	0.0
2025-01-22 08:01:22.392884	38.6	17.2	-67.6	0.0
2025-01-22 08:01:24.648724	38.9	17.4	-66.1	0.0
2025-01-22 08:01:26.900475	39.2	17.6	-66.2	0.0
2025-01-22 08:01:29.151365	39.5	17.8	-65.8	0.0
2025-01-22 08:01:31.401985	39.8	18.0	-65.8	0.0
2025-01-22 08:01:33.654925	40.1	18.3	-60.0	0.0
2025-01-22 08:01:35.906672	40.4	18.5	-67.0	0.0
2025-01-22 08:01:38.156193	40.8	18.7	-65.7	0.0
2025-01-22 08:01:40.411046	41.1	18.9	-65.4	0.0
2025-01-22 08:01:42.662697	41.4	19.1	-67.5	0.0
2025-01-22 08:01:44.915731	41.8	19.3	-66.0	0.0
2025-01-22 08:01:47.166350	42.1	19.6	-67.9	0.0
2025-01-22 08:01:49.418803	42.5	19.8	-67.1	0.0
2025-01-22 08:01:51.671337	42.8	20.0	-63.4	0.0
2025-01-22 08:01:53.922785	43.2	20.2	-65.4	0.0
2025-01-22 08:01:56.178370	43.5	20.4	-64.8	0.0
2025-01-22 08:01:58.429496	43.9	20.7	-66.5	0.0
2025-01-22 08:02:00.681542	44.3	20.9	-65.7	0.0
2025-01-22 08:02:02.933266	44.7	21.1	-64.5	0.0
2025-01-22 08:02:05.185554	45.0	21.4	-64.1	0.0
2025-01-22 08:02:07.436663	45.4	21.6	-63.6	0.0
2025-01-22 08:02:09.685531	45.8	21.8	-65.4	0.0
2025-01-22 08:02:11.940043	46.2	22.0	-64.8	0.0
2025-01-22 08:02:14.192356	46.6	22.3	-64.3	0.0
2025-01-22 08:02:16.444921	47.1	22.5	-67.9	0.0
2025-01-22 08:02:18.697315	47.5	22.7	-66.6	0.0
2025-01-22 08:02:20.948507	47.9	23.0	-64.8	0.0
2025-01-22 08:02:23.201175	48.3	23.2	-65.0	0.0
2025-01-22 08:02:25.453882	48.8	23.4	-64.4	0.0
2025-01-22 08:02:27.708034	49.2	23.7	-65.5	0.0
2025-01-22 08:02:29.960885	49.7	23.9	-66.5	0.0
2025-01-22 08:02:32.211953	50.1	24.1	-67.2	0.0
2025-01-22 08:02:34.464657	50.6	24.4	-66.4	0.0
2025-01-22 08:02:36.717986	51.1	24.6	-66.3	0.0
2025-01-22 08:02:38.966650	51.5	24.8	-67.4	0.0
2025-01-22 08:02:41.218589	52.0	25.1	-66.2	0.0
2025-01-22 08:02:43.472270	52.5	25.3	-67.1	0.0
2025-01-22 08:02:45.724431	53.0	25.5	-67.8	0.0
2025-01-22 08:02:47.975183	53.5	25.8	-65.2	0.0
2025-01-22 08:02:50.227758	54.0	26.0	-68.4	0.0
2025-01-22 08:02:52.479619	54.6	26.2	-67.1	0.0
2025-01-22 08:02:54.734684	55.1	26.5	-67.0	0.0
2025-01-22 08:02:56.986386	55.6	26.7	-64.2	0.0
2025-01-22 08:02:59.240277	56.2	26.9	-67.7	0.0
2025-01-22 08:03:01.492938	56.7	27.2	-66.9	0.0
2025-01-22 08:03:03.742016	57.3	27.4	-66.6	0.0
2025-01-22 08:03:05.993168	57.9	27.6	-67.0	0.0
2025-01-22 08:03:08.243586	58.4	27.8	-68.3	0.0
2025-01-22 08:03:10.495224	59.0	28.1	-67.8	0.0
2025-01-22 08:03:12.748766	59.6	28.3	-68.3	0.0
2025-01-22 08:03:15.001495	60.2	28.5	-68.5	0.0
2025-01-22 08:03:17.252432	60.8	28.7	-68.4	0.0
2025-01-22 08:03:19.503247	61.4	29.0	-69.3	0.0
2025-01-22 08:03:21.756196	62.1	29.2	-69.2	0.0
2025-01-22 08:03:24.007246	62.7	29.4	-70.1	0.0
2025-01-22 08:03:26.260631	63.3	29.6	-70.8	0.0
2025-01-22 08:03:28.513063	64.0	29.8	-71.1	0.0
2025-01-22 08:03:30.765638	64.6	30.0	-71.5	0.0
2025-01-22 08:03:33.017646	65.3	30.2	-70.0	0.0
2025-01-22 08:03:35.267947	66.0	30.4	-69.8	0.0
2025-01-22 08:03:37.520491	66.7	30.6	-69.6	0.0
2025-01-22 08:03:39.773119	67.4	30.8	-72.1	0.0
2025-01-22 08:03:42.022104	68.1	31.0	-71.3	0.0
2025-01-22 08:03:44.273516	68.8	31.2	-72.3	0.0
2025-01-22 08:03:46.524751	69.5	31.4	-71.3	0.0
2025-01-22 08:03:48.778299	70.2	31.6	-72.9	0.0
2025-01-22 08:03:51.030021	71.0	31.8	-72.1	0.0
2025-01-22 08:03:53.283540	71.7	32.0	-71.7	0.0
2025-01-22 08:03:55.539713	72.5	32.1	-71.5	0.0
2025-01-22 08:03:57.793897	73.2	32.3	-72.4	0.0
2025-01-22 08:04:00.046641	74.0	32.5	-72.5	0.0
2025-01-22 08:04:02.297893	74.8	32.6	-72.3	0.0
2025-01-22 08:04:04.553194	75.5	32.8	-74.1	0.0
2025-01-22 08:04:06.807754	76.3	32.9	-73.2	0.0
2025-01-22 08:04:09.062370	77.1	33.1	-74.1	0.0
2025-01-22 08:04:11.316021	77.9	33.2	-72.7	0.0
2025-01-22 08:04:13.568706	78.7	33.3	-73.3	0.0
2025-01-22 08:04:15.821313	79.5	33.5	-73.2	0.0
2025-01-22 08:04:18.073703	80.4	33.6	-72.6	0.0
2025-01-22 08:04:20.325435	81.2	33.7	-73.9	0.0
2025-01-22 08:04:22.577452	82.0	33.8	-73.3	0.0
2025-01-22 08:04:24.828536	82.9	33.9	-73.1	0.0
2025-01-22 08:04:27.079664	83.7	34.0	-72.8	0.0
2025-01-22 08:04:29.331527	84.6	34.1	-72.7	0.0
2025-01-22 08:04:31.583529	85.4	34.2	-71.8	0.0
2025-01-22 08:04:33.835974	86.3	34.2	-73.1	0.0
2025-01-22 08:04:36.088227	87.1	34.3	-73.2	0.0
2025-01-22 08:04:38.340921	88.0	34.4	-72.1	0.0
2025-01-22 08:04:40.595648	88.9	34.4	-72.6	0.0
2025-01-22 08:04:42.848322	89.7	34.5	-72.4	0.0
2025-01-22 08:04:45.103378	90.6	34.5	-72.9	0.0
2025-01-22 08:04:47.354670	91.5	34.5	-72.0	0.0
2025-01-22 08:04:49.607564	92.4	34.6	-71.2	0.0
2025-01-22 08:04:51.857842	93.2	34.6	-71.4	0.0
2025-01-22 08:04:54.111609	94.1	34.6	-71.2	0.0
2025-01-22 08:04:56.364080	95.0	34.6	-71.0	0.0
2025-01-22 08:04:58.617827	95.9	34.6	-70.9	0.0
2025-01-22 08:05:00.870946	96.7	34.6	-70.8	0.0
2025-01-22 08:05:03.122047	97.6	34.6	-71.6	0.0
2025-01-22 08:05:05.374511	98.5	34.5	-71.5	0.0
2025-01-22 08:05:07.627920	99.4	34.5	-72.0	0.0
2025-01-22 08:05:09.883112	100.3	34.5	-70.7	0.0
2025-01-22 08:05:12.136071	101.1	34.4	-71.2	0.0
2025-01-22 08:05:14.389597	102.0	34.4	-71.6	0.0
2025-01-22 08:05:16.642539	102.9	34.3	-72.3	0.0
2025-01-22 08:05:18.895488	103.7	34.2	-70.6	0.0
2025-01-22 08:05:21.148116	104.6	34.2	-72.9	0.0
2025-01-22 08:05:23.399522	105.4	34.1	-72.8	0.0
2025-01-22 08:05:25.650603	106.3	34.0	-71.4	0.0
2025-01-22 08:05:27.902852	107.1	33.9	-69.8	0.0
2025-01-22 08:05:30.154999	108.0	33.8	-70.1	0.0
2025-01-22 08:05:32.405824	108.8	33.7	-70.8	0.0
2025-01-22 08:05:34.654663	109.6	33.6	-70.4	0.0
2025-01-22 08:05:36.906599	110.5	33.4	-71.5	0.0
2025-01-22 08:05:39.158580	111.3	33.3	-72.0	0.0
2025-01-22 08:05:41.411306	112.1	33.2	-71.0	0.0
2025-01-22 08:05:43.664655	112.9	33.0	-70.9	0.0
2025-01-22 08:05:45.917438	113.7	32.9	-72.2	0.0
2025-01-22 08:05:48.172628	114.5	32.7	-72.2	0.0
2025-01-22 08:05:50.426740	115.3	32.6	-73.5	0.0
2025-01-22 08:05:52.677459	116.0	32.4	-73.4	0.0
2025-01-22 08:05:54.929544	116.8	32.3	-73.0	0.0
2025-01-22 08:05:57.182993	117.6	32.1	-72.1	0.0
2025-01-22 08:05:59.437214	118.3	31.9	-71.9	0.0
2025-01-22 08:06:01.688716	119.1	31.7	-72.7	0.0
2025-01-22 08:06:03.941368	119.8	31.6	-72.5	0.0
2025-01-22 08:06:06.193166	120.5	31.4	-71.6	0.0
2025-01-22 08:06:08.446161	121.2	31.2	-72.3	0.0
2025-01-22 08:06:10.699251	122.0	31.0	-72.4	0.0
2025-01-22 08:06:12.951647	122.7	30.8	-71.2	0.0
2025-01-22 08:06:15.203928	123.4	30.6	-72.0	0.0
2025-01-22 08:06:17.456196	124.0	30.4	-71.2	0.0
2025-01-22 08:06:19.709222	124.7	30.2	-71.5	0.0
2025-01-22 08:06:21.962485	125.4	30.0	-70.8	0.0
2025-01-22 08:06:24.214720	126.1	29.8	-70.2	0.0
2025-01-22 08:06:26.465661	126.7	29.6	-71.3	0.0
2025-01-22 08:06:28.717049	127.4	29.3	-71.7	0.0
2025-01-22 08:06:30.969277	128.0	29.1	-71.7	0.0
2025-01-22 08:06:33.225645	128.6	28.9	-70.8	0.0
2025-01-22 08:06:35.480787	129.2	28.7	-71.5	0.0
2025-01-22 08:06:37.735524	129.9	28.4	-71.2	0.0
2025-01-22 08:06:39.988871	130.5	28.2	-70.8	0.0
2025-01-22 08:06:42.242602	131.1	28.0	-71.1	0.0
2025-01-22 08:06:44.496348	131.6	27.8	-73.0	0.0
2025-01-22 08:06:46.749104	132.2	27.5	-70.8	0.0
2025-01-22 08:06:49.001423	132.8	27.3	-69.7	0.0
2025-01-22 08:06:51.254805	133.4	27.1	-72.0	0.0
2025-01-22 08:06:53.507801	133.9	26.8	-71.0	0.0
2025-01-22 08:06:55.758073	134.5	26.6	-71.1	0.0
2025-01-22 08:06:58.009814	135.0	26.4	-71.1	0.0
2025-01-22 08:07:00.262790	135.5	26.1	-71.1	0.0
2025-01-22 08:07:02.517657	136.0	25.9	-71.4	0.0
2025-01-22 08:07:04.767447	136.6	25.7	-70.7	0.0
2025-01-22 08:07:07.018052	137.1	25.4	-72.5	0.0
2025-01-22 08:07:09.270766	137.6	25.2	-72.0	0.0
2025-01-22 08:07:11.525841	138.1	25.0	-71.2	0.0
2025-01-22 08:07:13.780765	138.6	24.7	-74.2	0.0
2025-01-22 08:07:16.036159	139.0	24.5	-73.0	0.0
2025-01-22 08:07:18.290712	139.5	24.2	-73.1	0.0
2025-01-22 08:07:20.541917	140.0	24.0	-73.4	0.0
2025-01-22 08:07:22.794358	140.4	23.8	-73.5	0.0
2025-01-22 08:07:25.048836	140.9	23.5	-73.9	0.0
2025-01-22 08:07:27.300847	141.3	23.3	-74.0	0.0
2025-01-22 08:07:29.550464	141.8	23.1	-74.0	0.0
2025-01-22 08:07:31.799715	142.2	22.8	-73.2	0.0
2025-01-22 08:07:34.051502	142.6	22.6	-73.3	0.0
2025-01-22 08:07:36.304025	143.0	22.4	-73.3	0.0
2025-01-22 08:07:38.557173	143.5	22.1	-72.0	0.0
2025-01-22 08:07:40.808076	143.9	21.9	-71.9	0.0
2025-01-22 08:07:43.059496	144.3	21.7	-71.6	0.0
2025-01-22 08:07:45.312742	144.7	21.4	-71.8	0.0
2025-01-22 08:07:47.564347	145.1	21.2	-69.9	0.0
2025-01-22 08:07:49.816228	145.4	21.0	-71.1	0.0
2025-01-22 08:07:52.065903	145.8	20.7	-69.4	0.0
2025-01-22 08:07:54.316960	146.2	20.5	-69.1	0.0
2025-01-22 08:07:56.571441	146.6	20.3	-69.0	0.0
2025-01-22 08:07:58.827195	146.9	20.1	-68.2	0.0
2025-01-22 08:08:01.075826	147.3	19.8	-67.4	0.0
2025-01-22 08:08:03.328301	147.6	19.6	-69.6	0.0
2025-01-22 08:08:05.581697	148.0	19.4	-67.9	0.0
2025-01-22 08:08:07.834395	148.3	19.2	-77.6	0.0
2025-01-22 08:08:10.086921	148.7	18.9	-77.6	0.0
2025-01-22 08:08:12.339038	149.0	18.7	-77.4	0.0
2025-01-22 08:08:14.592295	149.3	18.5	-78.0	0.0
2025-01-22 08:08:16.844359	149.7	18.3	-78.1	0.0
2025-01-22 08:08:19.095562	150.0	18.1	-78.1	0.0
2025-01-22 08:08:21.347289	150.3	17.9	-77.5	0.0
2025-01-22 08:08:23.598928	150.6	17.6	-77.5	0.0
2025-01-22 08:08:25.850262	150.9	17.4	-77.8	0.0
2025-01-22 08:08:28.102479	151.2	17.2	-77.8	0.0
2025-01-22 08:08:30.353778	151.5	17.0	-77.7	0.0
2025-01-22 08:08:32.607100	151.8	16.8	-77.3	0.0
2025-01-22 08:08:34.857170	152.1	16.6	-77.3	0.0
2025-01-22 08:08:37.109412	152.4	16.4	-78.0	0.0
2025-01-22 08:08:39.362208	152.7	16.2	-77.4	0.0
2025-01-22 08:08:41.615207	153.0	16.0	-77.8	0.0
2025-01-22 08:08:43.866742	153.2	15.7	-77.4	0.0
2025-01-22 08:08:46.115362	153.5	15.5	-77.2	0.0
2025-01-22 08:08:48.368361	153.8	15.3	-77.2	0.0
2025-01-22 08:08:50.619392	154.1	15.1	-77.2	0.0
2025-01-22 08:08:52.873506	154.3	14.9	-77.4	0.0
2025-01-22 08:08:55.123678	154.6	14.7	-77.4	0.0
2025-01-22 08:08:57.376205	154.8	14.5	-77.5	0.0
2025-01-22 08:08:59.628594	155.1	14.3	-77.1	0.0
2025-01-22 08:09:01.882618	155.3	14.1	-77.3	0.0
2025-01-22 08:09:04.133629	155.6	13.9	-77.2	0.0
2025-01-22 08:09:06.387049	155.8	13.8	-77.1	0.0
2025-01-22 08:09:08.637093	156.1	13.6	-76.9	0.0
2025-01-22 08:09:10.887207	156.3	13.4	-76.4	0.0
2025-01-22 08:09:13.138900	156.5	13.2	-76.8	0.0
2025-01-22 08:09:15.390873	156.8	13.0	-76.8	0.0
2025-01-22 08:09:17.642651	157.0	12.8	-76.8	0.0
2025-01-22 08:09:19.894969	157.2	12.6	-77.0	0.0
2025-01-22 08:09:22.144751	157.4	12.4	-76.6	0.0
2025-01-22 08:09:24.394719	157.7	12.2	-76.8	0.0
2025-01-22 08:09:26.648812	157.9	12.0	-76.5	0.0
2025-01-22 08:09:28.900500	158.1	11.9	-76.5	0.0
2025-01-22 08:09:31.151161	158.3	11.7	-76.2	0.0
2025-01-22 08:09:33.402471	158.5	11.5	-76.2	0.0
2025-01-22 08:09:35.657118	158.7	11.3	-76.6	0.0
2025-01-22 08:09:37.910073	158.9	11.1	-76.0	0.0
2025-01-22 08:09:40.164418	159.1	11.0	-78.7	0.0
2025-01-22 08:09:42.417316	159.3	10.8	-76.1	0.0
2025-01-22 08:09:44.667655	159.5	10.6	-75.0	0.0
2025-01-22 08:09:46.919237	159.7	10.4	-80.8	0.0
2025-01-22 08:09:49.170714	159.9	10.3	-81.4	0.0
2025-01-22 08:09:51.424624	160.1	10.1	-80.7	0.0
#Closed at: 2025-01-22 07:59:51.873135