passes_logs/2025/01/22/planumMaritime01/planumMaritime01__20250122_001851_METEOR-M2_4_rec.log

#Pass ID: 20250122_001851_METEOR-M2 4
#Satellite: METEOR-M2 4
#Configuration: METEOR-M2 4
#Start time: 2025-01-22 00:18:56.763139

#LorettStation: 1.0.0 05.05.2024
#Station: planumMaritime01
#Location: 37.49445 lon 55.92918 lat
#TLE: 1 59051U 24039A   25021.14815225  .00000157  00000+0  89881-4 0  9996
#TLE: 2 59051  98.6303 344.0289 0006470 205.0409 155.0456 14.22327239 46470

#Time	Az	El	Level	SNR
2025-01-22 00:18:58.930445	26.7	10.2	-69.7	0.0
2025-01-22 00:19:01.177084	26.9	10.4	-70.3	0.0
2025-01-22 00:19:03.422919	27.1	10.5	-70.2	0.9
2025-01-22 00:19:05.669261	27.2	10.7	-71.0	3.3
2025-01-22 00:19:07.915898	27.4	10.9	-71.8	1.8
2025-01-22 00:19:10.163807	27.6	11.1	-72.6	3.1
2025-01-22 00:19:12.411544	27.7	11.3	-72.4	2.5
2025-01-22 00:19:14.659663	27.9	11.5	-72.3	3.8
2025-01-22 00:19:16.904128	28.1	11.7	-71.5	3.7
2025-01-22 00:19:19.149347	28.2	11.9	-71.2	0.9
2025-01-22 00:19:21.395737	28.4	12.0	-73.0	2.1
2025-01-22 00:19:23.640908	28.6	12.2	-72.1	0.0
2025-01-22 00:19:25.888849	28.8	12.4	-72.6	4.5
2025-01-22 00:19:28.134005	29.0	12.6	-72.9	3.6
2025-01-22 00:19:30.378936	29.1	12.8	-73.2	3.2
2025-01-22 00:19:32.628379	29.3	13.0	-72.0	2.7
2025-01-22 00:19:34.873075	29.5	13.2	-73.5	2.9
2025-01-22 00:19:37.119020	29.7	13.4	-73.3	2.5
2025-01-22 00:19:39.363902	29.9	13.6	-72.1	0.1
2025-01-22 00:19:41.609069	30.1	13.8	-70.7	0.0
2025-01-22 00:19:43.853987	30.3	14.0	-72.0	0.0
2025-01-22 00:19:46.099902	30.5	14.3	-73.0	3.3
2025-01-22 00:19:48.346235	30.7	14.5	-73.5	3.2
2025-01-22 00:19:50.595185	30.9	14.7	-74.5	5.1
2025-01-22 00:19:52.841966	31.1	14.9	-73.9	4.1
2025-01-22 00:19:55.089121	31.4	15.1	-74.3	2.6
2025-01-22 00:19:57.339938	31.6	15.3	-73.8	1.5
2025-01-22 00:19:59.584956	31.8	15.5	-74.7	6.1
2025-01-22 00:20:01.830134	32.0	15.7	-74.1	6.4
2025-01-22 00:20:04.076987	32.3	16.0	-72.1	1.0
2025-01-22 00:20:06.325053	32.5	16.2	-73.3	5.6
2025-01-22 00:20:08.567773	32.7	16.4	-73.7	5.4
2025-01-22 00:20:10.814167	33.0	16.6	-71.4	0.0
2025-01-22 00:20:13.060088	33.2	16.9	-74.0	4.7
2025-01-22 00:20:15.305542	33.4	17.1	-72.7	4.7
2025-01-22 00:20:17.553263	33.7	17.3	-73.8	5.9
2025-01-22 00:20:19.802195	33.9	17.6	-74.3	5.1
2025-01-22 00:20:22.051778	34.2	17.8	-74.9	7.0
2025-01-22 00:20:24.297168	34.5	18.0	-74.6	8.0
2025-01-22 00:20:26.543677	34.7	18.3	-71.5	2.3
2025-01-22 00:20:28.788617	35.0	18.5	-73.0	4.3
2025-01-22 00:20:31.033301	35.3	18.7	-75.2	7.9
2025-01-22 00:20:33.278936	35.5	19.0	-74.7	7.5
2025-01-22 00:20:35.526328	35.8	19.2	-74.6	7.5
2025-01-22 00:20:37.771867	36.1	19.5	-74.7	6.8
2025-01-22 00:20:40.020941	36.4	19.7	-75.1	7.7
2025-01-22 00:20:42.268990	36.7	20.0	-73.4	5.2
2025-01-22 00:20:44.514304	37.0	20.2	-75.7	8.2
2025-01-22 00:20:46.763332	37.3	20.5	-75.6	8.3
2025-01-22 00:20:49.010009	37.6	20.7	-73.7	5.9
2025-01-22 00:20:51.255299	37.9	21.0	-75.6	9.5
2025-01-22 00:20:53.500809	38.2	21.3	-76.3	9.6
2025-01-22 00:20:55.744531	38.5	21.5	-74.5	8.6
2025-01-22 00:20:57.991893	38.9	21.8	-76.0	9.4
2025-01-22 00:21:00.236072	39.2	22.0	-74.4	6.2
2025-01-22 00:21:02.481409	39.5	22.3	-74.5	7.6
2025-01-22 00:21:04.727799	39.9	22.6	-75.3	7.8
2025-01-22 00:21:06.974435	40.2	22.8	-75.9	10.2
2025-01-22 00:21:09.217976	40.6	23.1	-75.4	8.4
2025-01-22 00:21:11.462728	41.0	23.4	-76.0	10.0
2025-01-22 00:21:13.712394	41.3	23.7	-75.8	9.7
2025-01-22 00:21:15.958960	41.7	23.9	-76.2	10.4
2025-01-22 00:21:18.205659	42.1	24.2	-76.1	10.3
2025-01-22 00:21:20.454973	42.5	24.5	-76.1	10.8
2025-01-22 00:21:22.698681	42.9	24.8	-76.3	10.7
2025-01-22 00:21:24.945310	43.3	25.1	-76.0	10.9
2025-01-22 00:21:27.193464	43.7	25.3	-75.3	12.0
2025-01-22 00:21:29.435988	44.1	25.6	-75.3	10.8
2025-01-22 00:21:31.682075	44.5	25.9	-75.8	11.0
2025-01-22 00:21:33.928903	45.0	26.2	-75.7	11.7
2025-01-22 00:21:36.175282	45.4	26.5	-75.4	10.4
2025-01-22 00:21:38.420321	45.9	26.8	-75.5	11.5
2025-01-22 00:21:40.667214	46.3	27.1	-75.6	9.2
2025-01-22 00:21:42.915053	46.8	27.4	-76.1	10.6
2025-01-22 00:21:45.159898	47.3	27.7	-75.4	10.0
2025-01-22 00:21:47.406152	47.7	28.0	-75.6	10.7
2025-01-22 00:21:49.649171	48.2	28.3	-75.5	10.7
2025-01-22 00:21:51.893473	48.7	28.6	-75.0	10.0
2025-01-22 00:21:54.138380	49.2	28.9	-75.3	11.4
2025-01-22 00:21:56.385686	49.8	29.2	-75.5	12.9
2025-01-22 00:21:58.635141	50.3	29.5	-75.4	11.9
2025-01-22 00:22:00.882808	50.8	29.8	-75.1	10.6
2025-01-22 00:22:03.131143	51.4	30.1	-75.5	11.8
2025-01-22 00:22:05.378860	51.9	30.4	-75.4	11.0
2025-01-22 00:22:07.621257	52.5	30.7	-75.4	10.5
2025-01-22 00:22:09.868437	53.1	31.0	-75.3	11.3
2025-01-22 00:22:12.115984	53.7	31.3	-75.8	12.0
2025-01-22 00:22:14.363251	54.3	31.6	-73.8	8.6
2025-01-22 00:22:16.608481	54.9	31.9	-74.6	10.9
2025-01-22 00:22:18.854081	55.5	32.2	-73.6	8.2
2025-01-22 00:22:21.100080	56.2	32.5	-74.8	11.0
2025-01-22 00:22:23.346757	56.8	32.8	-75.2	10.8
2025-01-22 00:22:25.591683	57.5	33.1	-75.0	11.5
2025-01-22 00:22:27.836312	58.2	33.4	-73.5	7.6
2025-01-22 00:22:30.080214	58.8	33.7	-73.9	11.5
2025-01-22 00:22:32.328576	59.5	34.0	-74.2	7.1
2025-01-22 00:22:34.573120	60.3	34.3	-75.4	10.8
2025-01-22 00:22:36.822033	61.0	34.6	-72.7	9.5
2025-01-22 00:22:39.067532	61.7	34.9	-70.9	6.6
2025-01-22 00:22:41.310769	62.5	35.2	-74.7	10.8
2025-01-22 00:22:43.559212	63.2	35.5	-72.4	7.2
2025-01-22 00:22:45.805870	64.0	35.8	-73.7	7.2
2025-01-22 00:22:48.049170	64.8	36.0	-74.1	11.3
2025-01-22 00:22:50.293124	65.6	36.3	-74.3	10.8
2025-01-22 00:22:52.540019	66.4	36.6	-72.3	7.5
2025-01-22 00:22:54.787756	67.2	36.9	-73.3	9.4
2025-01-22 00:22:57.035559	68.1	37.1	-71.7	8.9
2025-01-22 00:22:59.280625	68.9	37.4	-69.4	2.5
2025-01-22 00:23:01.525144	69.8	37.6	-74.3	7.9
2025-01-22 00:23:03.773855	70.7	37.9	-72.5	6.3
2025-01-22 00:23:06.019299	71.6	38.1	-72.0	5.9
2025-01-22 00:23:08.264868	72.5	38.3	-72.4	7.2
2025-01-22 00:23:10.511616	73.4	38.6	-70.8	8.0
2025-01-22 00:23:12.757124	74.4	38.8	-74.0	7.3
2025-01-22 00:23:15.005141	75.3	39.0	-68.6	0.0
2025-01-22 00:23:17.250128	76.3	39.2	-74.7	8.1
2025-01-22 00:23:19.494205	77.3	39.4	-72.3	5.6
2025-01-22 00:23:21.743282	78.2	39.6	-74.8	7.7
2025-01-22 00:23:23.992562	79.2	39.8	-70.0	0.9
2025-01-22 00:23:26.238055	80.3	40.0	-73.6	9.1
2025-01-22 00:23:28.480827	81.3	40.1	-74.1	8.6
2025-01-22 00:23:30.727948	82.3	40.3	-72.9	9.8
2025-01-22 00:23:32.975550	83.3	40.4	-73.3	8.2
2025-01-22 00:23:35.221706	84.4	40.6	-72.2	7.2
2025-01-22 00:23:37.467510	85.4	40.7	-73.6	8.0
2025-01-22 00:23:39.713433	86.5	40.8	-73.3	9.0
2025-01-22 00:23:41.960044	87.6	40.9	-73.6	9.5
2025-01-22 00:23:44.205946	88.7	41.0	-73.4	6.9
2025-01-22 00:23:46.452631	89.7	41.1	-73.7	9.9
2025-01-22 00:23:48.697376	90.8	41.2	-74.2	10.5
2025-01-22 00:23:50.942431	91.9	41.2	-74.5	11.4
2025-01-22 00:23:53.189687	93.0	41.3	-74.9	9.6
2025-01-22 00:23:55.434905	94.1	41.3	-74.7	11.2
2025-01-22 00:23:57.680844	95.2	41.3	-75.4	11.1
2025-01-22 00:23:59.926417	96.3	41.4	-74.9	11.0
2025-01-22 00:24:02.172171	97.4	41.4	-75.2	10.7
2025-01-22 00:24:04.418251	98.5	41.4	-75.3	9.0
2025-01-22 00:24:06.668541	99.6	41.3	-67.5	0.0
2025-01-22 00:24:08.913774	100.7	41.3	-66.3	0.0
2025-01-22 00:24:11.159856	101.8	41.3	-67.8	0.0
2025-01-22 00:24:13.405980	102.9	41.2	-67.6	0.0
2025-01-22 00:24:15.653380	104.0	41.1	-67.1	0.0
2025-01-22 00:24:17.898972	105.1	41.1	-67.8	0.0
2025-01-22 00:24:20.143620	106.2	41.0	-68.1	0.0
2025-01-22 00:24:22.384835	107.3	40.9	-68.0	0.0
2025-01-22 00:24:24.632233	108.4	40.8	-67.1	0.0
2025-01-22 00:24:26.880204	109.4	40.6	-66.8	0.0
2025-01-22 00:24:29.125747	110.5	40.5	-68.1	0.0
2025-01-22 00:24:31.370461	111.5	40.4	-68.9	0.0
2025-01-22 00:24:33.616995	112.6	40.2	-70.2	0.0
2025-01-22 00:24:35.864999	113.6	40.1	-70.7	0.0
2025-01-22 00:24:38.108582	114.6	39.9	-69.2	0.0
2025-01-22 00:24:40.352845	115.6	39.7	-70.3	0.0
2025-01-22 00:24:42.600408	116.6	39.5	-70.4	0.0
2025-01-22 00:24:44.847506	117.6	39.3	-69.7	0.0
2025-01-22 00:24:47.092468	118.6	39.1	-69.3	0.0
2025-01-22 00:24:49.340113	119.5	38.9	-70.7	0.0
2025-01-22 00:24:51.585719	120.5	38.7	-69.5	0.0
2025-01-22 00:24:53.828633	121.4	38.5	-68.7	0.0
2025-01-22 00:24:56.073352	122.3	38.2	-69.2	0.0
2025-01-22 00:24:58.322340	123.2	38.0	-68.4	0.0
2025-01-22 00:25:00.565110	124.1	37.7	-67.6	0.0
2025-01-22 00:25:02.809530	125.0	37.5	-68.2	0.0
2025-01-22 00:25:05.057016	125.9	37.2	-67.0	0.0
2025-01-22 00:25:07.302352	126.7	37.0	-66.8	0.0
2025-01-22 00:25:09.549001	127.6	36.7	-66.4	0.0
2025-01-22 00:25:11.798304	128.4	36.4	-71.9	7.1
2025-01-22 00:25:14.047407	129.2	36.2	-77.7	8.2
2025-01-22 00:25:16.293486	130.0	35.9	-77.9	8.7
2025-01-22 00:25:18.540197	130.8	35.6	-77.9	7.6
2025-01-22 00:25:20.786854	131.6	35.3	-77.6	7.3
2025-01-22 00:25:23.030735	132.3	35.0	-77.5	7.9
2025-01-22 00:25:25.278051	133.1	34.7	-77.8	7.6
2025-01-22 00:25:27.522829	133.8	34.4	-77.6	7.3
2025-01-22 00:25:29.769944	134.5	34.1	-77.6	6.8
2025-01-22 00:25:32.016017	135.3	33.8	-78.1	6.5
2025-01-22 00:25:34.262870	136.0	33.5	-77.8	5.8
2025-01-22 00:25:36.512023	136.6	33.2	-77.5	5.8
2025-01-22 00:25:38.758630	137.3	32.9	-77.4	4.9
2025-01-22 00:25:41.005606	138.0	32.6	-78.0	4.8
2025-01-22 00:25:43.254808	138.6	32.3	-77.7	3.4
2025-01-22 00:25:45.496653	139.2	32.0	-77.3	4.4
2025-01-22 00:25:47.740153	139.9	31.7	-77.3	5.5
2025-01-22 00:25:49.985243	140.5	31.4	-76.7	4.7
2025-01-22 00:25:52.230664	141.1	31.1	-77.2	4.1
2025-01-22 00:25:54.477759	141.7	30.8	-77.1	3.2
2025-01-22 00:25:56.721427	142.3	30.5	-77.1	3.5
2025-01-22 00:25:58.968072	142.8	30.2	-77.4	3.5
2025-01-22 00:26:01.215071	143.4	29.9	-77.7	2.6
2025-01-22 00:26:03.460749	143.9	29.6	-78.0	0.0
2025-01-22 00:26:05.708283	144.5	29.3	-77.4	0.6
2025-01-22 00:26:07.955681	145.0	29.0	-77.8	0.0
2025-01-22 00:26:10.202582	145.5	28.7	-77.7	0.0
2025-01-22 00:26:12.447698	146.0	28.4	-77.8	1.7
2025-01-22 00:26:14.692765	146.5	28.1	-77.6	1.7
2025-01-22 00:26:16.937529	147.0	27.8	-77.4	2.6
2025-01-22 00:26:19.181848	147.5	27.5	-77.0	1.0
2025-01-22 00:26:21.431424	148.0	27.2	-77.3	2.3
2025-01-22 00:26:23.677754	148.4	26.9	-77.6	1.9
2025-01-22 00:26:25.923926	148.9	26.6	-77.3	3.0
2025-01-22 00:26:28.167652	149.3	26.3	-77.9	0.0
2025-01-22 00:26:30.414986	149.8	26.0	-77.5	1.6
2025-01-22 00:26:32.662694	150.2	25.7	-77.2	2.1
2025-01-22 00:26:34.907164	150.6	25.4	-77.0	2.2
2025-01-22 00:26:37.151690	151.0	25.1	-77.2	0.0
2025-01-22 00:26:39.397544	151.4	24.8	-76.9	0.0
2025-01-22 00:26:41.643426	151.8	24.5	-77.8	0.0
2025-01-22 00:26:43.887202	152.2	24.2	-77.7	0.0
2025-01-22 00:26:46.134871	152.6	24.0	-77.1	0.0
2025-01-22 00:26:48.378582	153.0	23.7	-77.5	0.0
2025-01-22 00:26:50.621706	153.4	23.4	-78.1	0.0
2025-01-22 00:26:52.865934	153.7	23.1	-77.6	0.0
2025-01-22 00:26:55.108622	154.1	22.9	-77.5	0.0
2025-01-22 00:26:57.355556	154.5	22.6	-77.5	0.0
2025-01-22 00:26:59.603487	154.8	22.3	-76.5	0.0
2025-01-22 00:27:01.849193	155.2	22.0	-77.6	0.0
2025-01-22 00:27:04.093871	155.5	21.8	-77.4	0.0
2025-01-22 00:27:06.343613	155.8	21.5	-77.8	0.0
2025-01-22 00:27:08.591950	156.1	21.2	-77.4	0.0
2025-01-22 00:27:10.838813	156.5	21.0	-77.9	0.0
2025-01-22 00:27:13.085228	156.8	20.7	-77.3	0.0
2025-01-22 00:27:15.332092	157.1	20.5	-77.7	0.0
2025-01-22 00:27:17.576539	157.4	20.2	-76.9	0.0
2025-01-22 00:27:19.820835	157.7	19.9	-77.9	0.0
2025-01-22 00:27:22.066400	158.0	19.7	-77.5	0.0
2025-01-22 00:27:24.313092	158.3	19.4	-77.3	2.0
2025-01-22 00:27:26.560990	158.6	19.2	-77.0	3.2
2025-01-22 00:27:28.806228	158.9	18.9	-77.8	0.0
2025-01-22 00:27:31.051417	159.1	18.7	-77.3	0.0
2025-01-22 00:27:33.300017	159.4	18.5	-77.2	0.0
2025-01-22 00:27:35.546179	159.7	18.2	-77.0	2.1
2025-01-22 00:27:37.786191	159.9	18.0	-77.4	0.0
2025-01-22 00:27:40.029663	160.2	17.7	-77.4	0.0
2025-01-22 00:27:42.275576	160.5	17.5	-77.7	0.0
2025-01-22 00:27:44.523928	160.7	17.3	-76.9	0.0
2025-01-22 00:27:46.769873	161.0	17.0	-77.9	0.0
2025-01-22 00:27:49.014762	161.2	16.8	-78.0	0.0
2025-01-22 00:27:51.260396	161.5	16.6	-77.5	0.0
2025-01-22 00:27:53.506498	161.7	16.3	-77.7	0.0
2025-01-22 00:27:55.753648	161.9	16.1	-78.0	0.0
2025-01-22 00:27:58.003815	162.2	15.9	-78.0	0.0
2025-01-22 00:28:00.248822	162.4	15.7	-78.2	0.0
2025-01-22 00:28:02.495433	162.6	15.4	-77.7	0.0
2025-01-22 00:28:04.742177	162.8	15.2	-77.3	0.0
2025-01-22 00:28:06.989993	163.1	15.0	-78.0	0.0
2025-01-22 00:28:09.234140	163.3	14.8	-75.5	0.0
2025-01-22 00:28:11.479149	163.5	14.6	-78.0	0.0
2025-01-22 00:28:13.727094	163.7	14.4	-77.9	0.0
2025-01-22 00:28:15.971615	163.9	14.2	-77.8	0.0
2025-01-22 00:28:18.217949	164.1	13.9	-78.0	0.0
2025-01-22 00:28:20.464089	164.3	13.7	-78.0	0.0
2025-01-22 00:28:22.709167	164.5	13.5	-78.1	0.0
2025-01-22 00:28:24.953968	164.7	13.3	-77.7	0.0
2025-01-22 00:28:27.202315	164.9	13.1	-77.9	0.0
2025-01-22 00:28:29.447532	165.1	12.9	-77.6	0.0
2025-01-22 00:28:31.691029	165.3	12.7	-78.0	0.0
2025-01-22 00:28:33.938202	165.5	12.5	-78.0	0.0
2025-01-22 00:28:36.185944	165.6	12.3	-77.7	0.0
2025-01-22 00:28:38.431855	165.8	12.1	-77.8	0.0
2025-01-22 00:28:40.678457	166.0	11.9	-78.1	0.0
2025-01-22 00:28:42.924557	166.2	11.7	-77.9	0.0
2025-01-22 00:28:45.171394	166.4	11.5	-77.8	0.0
2025-01-22 00:28:47.414138	166.5	11.3	-77.8	0.0
2025-01-22 00:28:49.658498	166.7	11.1	-77.6	0.0
2025-01-22 00:28:51.905236	166.9	11.0	-78.2	0.0
2025-01-22 00:28:54.151535	167.0	10.8	-78.5	0.0
2025-01-22 00:28:56.398504	167.2	10.6	-78.9	0.0
2025-01-22 00:28:58.646408	167.4	10.4	-78.2	0.0
2025-01-22 00:29:00.890946	167.5	10.2	-79.1	0.0
#Closed at: 2025-01-22 00:18:51.765378