passes_logs/2025/01/22/planumMaritime01/planumMaritime01__20250122_073005_METOP-B_rec.log

#Pass ID: 20250122_073005_METOP-B
#Satellite: METOP-B
#Configuration: METOP-B
#Start time: 2025-01-22 07:30:10.340781

#LorettStation: 1.0.0 05.05.2024
#Station: planumMaritime01
#Location: 37.49445 lon 55.92918 lat
#TLE: 1 38771U 12049A   25021.16604513  .00000353  00000+0  18102-3 0  9993
#TLE: 2 38771  98.6002  79.1650 0001655  74.6422 285.4938 14.21414824640519

#Time	Az	El	Level	SNR
2025-01-22 07:30:12.499752	16.3	10.2	-71.1	0.0
2025-01-22 07:30:14.751546	16.3	10.4	-69.7	0.0
2025-01-22 07:30:17.005296	16.3	10.6	-66.6	0.0
2025-01-22 07:30:19.255452	16.3	10.8	-70.0	0.0
2025-01-22 07:30:21.506847	16.3	11.0	-66.5	0.0
2025-01-22 07:30:23.761705	16.3	11.2	-72.3	0.0
2025-01-22 07:30:26.015476	16.3	11.4	-69.0	0.0
2025-01-22 07:30:28.269158	16.3	11.6	-71.6	0.0
2025-01-22 07:30:30.523446	16.3	11.8	-69.4	0.0
2025-01-22 07:30:32.776153	16.3	12.0	-72.2	0.0
2025-01-22 07:30:35.028680	16.3	12.2	-70.5	0.0
2025-01-22 07:30:37.280176	16.3	12.5	-71.4	0.0
2025-01-22 07:30:39.534614	16.4	12.7	-72.5	0.0
2025-01-22 07:30:41.787164	16.4	12.9	-72.8	0.0
2025-01-22 07:30:44.041401	16.4	13.1	-72.7	0.0
2025-01-22 07:30:46.293800	16.4	13.3	-70.8	0.0
2025-01-22 07:30:48.548170	16.4	13.6	-72.8	0.0
2025-01-22 07:30:50.801106	16.4	13.8	-71.9	0.0
2025-01-22 07:30:53.055342	16.4	14.0	-73.1	0.0
2025-01-22 07:30:55.308852	16.4	14.3	-71.8	0.0
2025-01-22 07:30:57.561317	16.4	14.5	-72.8	0.0
2025-01-22 07:30:59.812513	16.4	14.7	-72.8	0.0
2025-01-22 07:31:02.066319	16.4	15.0	-73.0	0.0
2025-01-22 07:31:04.318309	16.4	15.2	-72.1	0.0
2025-01-22 07:31:06.569884	16.4	15.4	-69.8	0.0
2025-01-22 07:31:08.824129	16.4	15.7	-66.9	0.0
2025-01-22 07:31:11.077549	16.4	15.9	-71.3	0.0
2025-01-22 07:31:13.331411	16.4	16.2	-72.7	0.0
2025-01-22 07:31:15.586817	16.5	16.4	-69.8	0.0
2025-01-22 07:31:17.840002	16.5	16.7	-70.1	0.0
2025-01-22 07:31:20.094411	16.5	17.0	-70.4	0.0
2025-01-22 07:31:22.346694	16.5	17.2	-68.5	0.0
2025-01-22 07:31:24.596413	16.5	17.5	-69.0	0.0
2025-01-22 07:31:26.849908	16.5	17.8	-71.8	0.0
2025-01-22 07:31:29.102862	16.5	18.0	-72.1	0.0
2025-01-22 07:31:31.354146	16.5	18.3	-71.0	0.0
2025-01-22 07:31:33.607430	16.5	18.6	-71.6	0.0
2025-01-22 07:31:35.861521	16.5	18.9	-66.7	0.0
2025-01-22 07:31:38.113697	16.5	19.1	-70.2	0.0
2025-01-22 07:31:40.365872	16.5	19.4	-69.5	0.0
2025-01-22 07:31:42.618971	16.5	19.7	-69.9	0.0
2025-01-22 07:31:44.872033	16.5	20.0	-70.6	0.0
2025-01-22 07:31:47.125474	16.5	20.3	-68.4	0.0
2025-01-22 07:31:49.380154	16.5	20.6	-70.0	0.0
2025-01-22 07:31:51.634087	16.5	20.9	-68.6	0.0
2025-01-22 07:31:53.886266	16.5	21.2	-69.1	0.0
2025-01-22 07:31:56.138894	16.5	21.5	-68.9	0.0
2025-01-22 07:31:58.390313	16.6	21.8	-70.2	0.0
2025-01-22 07:32:00.644050	16.6	22.2	-70.8	0.0
2025-01-22 07:32:02.900098	16.6	22.5	-71.0	0.0
2025-01-22 07:32:05.156914	16.6	22.8	-70.6	0.0
2025-01-22 07:32:07.411980	16.6	23.2	-70.1	0.0
2025-01-22 07:32:09.665327	16.6	23.5	-69.8	0.0
2025-01-22 07:32:11.919412	16.6	23.8	-69.4	0.0
2025-01-22 07:32:14.172009	16.6	24.2	-69.8	0.0
2025-01-22 07:32:16.424751	16.6	24.5	-68.8	0.0
2025-01-22 07:32:18.679150	16.6	24.9	-68.5	0.0
2025-01-22 07:32:20.932567	16.6	25.2	-67.1	0.0
2025-01-22 07:32:23.184816	16.6	25.6	-69.4	0.0
2025-01-22 07:32:25.439795	16.6	26.0	-67.0	0.0
2025-01-22 07:32:27.693554	16.6	26.4	-69.7	0.0
2025-01-22 07:32:29.947895	16.6	26.7	-70.5	0.0
2025-01-22 07:32:32.200241	16.6	27.1	-69.8	0.0
2025-01-22 07:32:34.453798	16.6	27.5	-68.4	0.0
2025-01-22 07:32:36.706335	16.6	27.9	-70.2	0.0
2025-01-22 07:32:38.960135	16.6	28.3	-68.8	0.0
2025-01-22 07:32:41.214210	16.6	28.7	-70.3	0.0
2025-01-22 07:32:43.468089	16.6	29.1	-71.6	0.0
2025-01-22 07:32:45.721619	16.6	29.6	-73.0	0.0
2025-01-22 07:32:47.974064	16.6	30.0	-72.7	0.0
2025-01-22 07:32:50.226196	16.6	30.4	-71.0	0.0
2025-01-22 07:32:52.478028	16.6	30.9	-71.2	0.0
2025-01-22 07:32:54.731883	16.6	31.3	-72.3	0.0
2025-01-22 07:32:56.981618	16.6	31.8	-72.9	0.0
2025-01-22 07:32:59.234108	16.6	32.2	-71.9	0.0
2025-01-22 07:33:01.487560	16.6	32.7	-70.9	0.0
2025-01-22 07:33:03.740622	16.6	33.2	-69.6	0.0
2025-01-22 07:33:05.991678	16.6	33.7	-72.0	0.0
2025-01-22 07:33:08.246314	16.6	34.2	-70.6	0.0
2025-01-22 07:33:10.498505	16.6	34.7	-73.4	0.0
2025-01-22 07:33:12.751216	16.6	35.2	-69.7	0.0
2025-01-22 07:33:15.000954	16.6	35.7	-71.5	0.0
2025-01-22 07:33:17.252806	16.6	36.2	-69.6	0.0
2025-01-22 07:33:19.504870	16.6	36.8	-71.7	0.0
2025-01-22 07:33:21.758055	16.6	37.3	-72.2	0.0
2025-01-22 07:33:24.009818	16.6	37.8	-71.5	0.0
2025-01-22 07:33:26.262059	16.6	38.4	-70.2	0.0
2025-01-22 07:33:28.513569	16.6	39.0	-68.6	0.0
2025-01-22 07:33:30.765295	16.6	39.6	-72.7	0.0
2025-01-22 07:33:33.019746	16.6	40.2	-73.7	0.0
2025-01-22 07:33:35.269686	16.6	40.8	-72.9	0.0
2025-01-22 07:33:37.521542	16.6	41.4	-71.3	0.0
2025-01-22 07:33:39.772192	16.6	42.0	-71.9	0.0
2025-01-22 07:33:42.022837	16.6	42.6	-74.3	0.0
2025-01-22 07:33:44.275588	16.6	43.3	-73.1	0.0
2025-01-22 07:33:46.529321	16.6	43.9	-72.8	0.0
2025-01-22 07:33:48.782024	16.6	44.6	-74.9	0.0
2025-01-22 07:33:51.034226	16.5	45.3	-73.1	0.0
2025-01-22 07:33:53.288188	16.5	46.0	-75.3	0.0
2025-01-22 07:33:55.541177	16.5	46.7	-74.9	0.0
2025-01-22 07:33:57.793960	16.5	47.4	-75.7	0.0
2025-01-22 07:34:00.046666	16.5	48.1	-75.3	0.0
2025-01-22 07:34:02.301835	16.5	48.8	-75.6	0.0
2025-01-22 07:34:04.554166	16.5	49.6	-76.0	0.0
2025-01-22 07:34:06.806841	16.5	50.4	-76.5	0.0
2025-01-22 07:34:09.057597	16.4	51.1	-77.4	0.0
2025-01-22 07:34:11.311016	16.4	51.9	-76.6	0.0
2025-01-22 07:34:13.561779	16.4	52.7	-77.5	0.0
2025-01-22 07:34:15.812497	16.4	53.6	-76.7	0.0
2025-01-22 07:34:18.065055	16.4	54.4	-76.7	0.0
2025-01-22 07:34:20.317244	16.3	55.2	-76.6	0.0
2025-01-22 07:34:22.570164	16.3	56.1	-76.9	0.0
2025-01-22 07:34:24.823022	16.3	57.0	-76.4	2.4
2025-01-22 07:34:27.077594	16.2	57.8	-76.6	1.7
2025-01-22 07:34:29.330986	16.2	58.7	-76.3	1.3
2025-01-22 07:34:31.584884	16.2	59.7	-76.8	3.7
2025-01-22 07:34:33.838542	16.1	60.6	-76.7	3.4
2025-01-22 07:34:36.092596	16.1	61.5	-76.4	3.7
2025-01-22 07:34:38.346891	16.0	62.5	-75.8	3.0
2025-01-22 07:34:40.598270	16.0	63.5	-75.4	4.6
2025-01-22 07:34:42.851620	15.9	64.4	-75.5	7.7
2025-01-22 07:34:45.107380	15.9	65.4	-74.1	5.3
2025-01-22 07:34:47.360324	15.8	66.4	-76.0	8.6
2025-01-22 07:34:49.611554	15.7	67.5	-75.9	8.9
2025-01-22 07:34:51.866127	15.6	68.5	-75.7	6.8
2025-01-22 07:34:54.119456	15.5	69.5	-75.7	8.2
2025-01-22 07:34:56.374529	15.4	70.6	-75.7	9.2
2025-01-22 07:34:58.625620	15.3	71.7	-75.8	9.4
2025-01-22 07:35:00.879548	15.1	72.7	-75.1	10.1
2025-01-22 07:35:03.131005	15.0	73.8	-75.5	10.2
2025-01-22 07:35:05.383143	14.8	74.9	-75.2	10.0
2025-01-22 07:35:07.635202	14.5	76.0	-75.2	11.6
2025-01-22 07:35:09.890219	14.3	77.2	-74.6	10.3
2025-01-22 07:35:12.139689	14.0	78.3	-74.5	12.0
2025-01-22 07:35:14.393783	13.6	79.4	-74.0	11.4
2025-01-22 07:35:16.646789	13.1	80.6	-74.0	13.3
2025-01-22 07:35:18.898746	12.4	81.7	-73.5	12.9
2025-01-22 07:35:21.153057	11.6	82.8	-73.7	14.6
2025-01-22 07:35:23.406064	10.4	84.0	-73.6	14.9
2025-01-22 07:35:25.657071	8.7	85.1	-73.5	15.1
2025-01-22 07:35:27.909950	5.8	86.3	-73.4	14.7
2025-01-22 07:35:30.164121	0.5	87.4	-73.6	14.5
2025-01-22 07:35:32.415937	347.0	88.5	-73.8	14.3
2025-01-22 07:35:34.671408	296.0	89.2	-73.8	15.1
2025-01-22 07:35:36.924937	233.4	88.7	-73.4	15.7
2025-01-22 07:35:39.178449	216.6	87.6	-73.4	16.1
2025-01-22 07:35:41.429738	210.3	86.5	-73.4	15.4
2025-01-22 07:35:43.682740	207.2	85.4	-73.6	15.2
2025-01-22 07:35:45.934875	205.3	84.2	-73.2	15.3
2025-01-22 07:35:48.187393	204.0	83.1	-73.0	16.1
2025-01-22 07:35:50.439101	203.1	81.9	-73.4	15.1
2025-01-22 07:35:52.692559	202.5	80.8	-73.8	15.2
2025-01-22 07:35:54.945924	202.0	79.6	-73.5	15.5
2025-01-22 07:35:57.198993	201.5	78.5	-73.2	15.8
2025-01-22 07:35:59.449462	201.2	77.4	-73.6	15.5
2025-01-22 07:36:01.703820	200.9	76.2	-74.0	15.2
2025-01-22 07:36:03.956040	200.7	75.1	-74.1	14.0
2025-01-22 07:36:06.207944	200.5	74.0	-74.3	14.0
2025-01-22 07:36:08.460203	200.3	72.9	-74.7	13.8
2025-01-22 07:36:10.712543	200.2	71.9	-74.9	13.6
2025-01-22 07:36:12.963729	200.0	70.8	-75.0	13.7
2025-01-22 07:36:15.216256	199.9	69.7	-74.9	13.3
2025-01-22 07:36:17.467892	199.8	68.7	-75.2	13.3
2025-01-22 07:36:19.720637	199.7	67.6	-75.0	13.2
2025-01-22 07:36:21.973220	199.7	66.6	-75.1	13.2
2025-01-22 07:36:24.225131	199.6	65.6	-74.9	13.0
2025-01-22 07:36:26.477982	199.5	64.6	-74.8	13.5
2025-01-22 07:36:28.732029	199.5	63.6	-74.8	13.3
2025-01-22 07:36:30.986538	199.4	62.6	-74.8	13.5
2025-01-22 07:36:33.241278	199.4	61.7	-74.8	13.2
2025-01-22 07:36:35.493647	199.3	60.7	-75.0	12.8
2025-01-22 07:36:37.746832	199.3	59.8	-75.5	12.0
2025-01-22 07:36:39.998734	199.2	58.9	-75.9	11.0
2025-01-22 07:36:42.249889	199.2	58.0	-76.5	9.7
2025-01-22 07:36:44.501227	199.2	57.1	-76.9	8.7
2025-01-22 07:36:46.754282	199.1	56.2	-76.7	9.7
2025-01-22 07:36:49.006996	199.1	55.3	-76.9	9.9
2025-01-22 07:36:51.258045	199.1	54.5	-76.7	9.7
2025-01-22 07:36:53.513465	199.0	53.7	-77.0	8.9
2025-01-22 07:36:55.763034	199.0	52.8	-76.8	9.2
2025-01-22 07:36:58.015759	199.0	52.0	-76.6	9.6
2025-01-22 07:37:00.271540	199.0	51.2	-76.8	9.8
2025-01-22 07:37:02.523572	199.0	50.4	-77.4	8.1
2025-01-22 07:37:04.777856	199.0	49.7	-77.4	7.4
2025-01-22 07:37:07.031689	198.9	48.9	-77.5	7.2
2025-01-22 07:37:09.283567	198.9	48.2	-77.3	6.7
2025-01-22 07:37:11.533835	198.9	47.4	-77.9	6.1
2025-01-22 07:37:13.783513	198.9	46.7	-78.2	5.5
2025-01-22 07:37:16.034512	198.9	46.0	-78.3	4.0
2025-01-22 07:37:18.285761	198.9	45.3	-77.9	5.4
2025-01-22 07:37:20.535769	198.9	44.6	-77.9	5.8
2025-01-22 07:37:22.789072	198.9	44.0	-77.5	6.3
2025-01-22 07:37:25.042196	198.8	43.3	-77.9	5.1
2025-01-22 07:37:27.293117	198.8	42.7	-78.3	4.3
2025-01-22 07:37:29.547596	198.8	42.0	-78.8	3.3
2025-01-22 07:37:31.802988	198.8	41.4	-78.2	4.3
2025-01-22 07:37:34.056120	198.8	40.8	-78.5	3.8
2025-01-22 07:37:36.308618	198.8	40.2	-78.2	3.4
2025-01-22 07:37:38.562652	198.8	39.6	-78.7	3.1
2025-01-22 07:37:40.815971	198.8	39.0	-79.1	0.4
2025-01-22 07:37:43.066921	198.8	38.4	-79.1	0.0
2025-01-22 07:37:45.318852	198.8	37.8	-79.1	0.0
2025-01-22 07:37:47.570887	198.8	37.3	-78.6	0.0
2025-01-22 07:37:49.819017	198.8	36.7	-78.5	0.0
2025-01-22 07:37:52.072621	198.8	36.2	-78.5	0.0
2025-01-22 07:37:54.326650	198.8	35.7	-78.7	0.0
2025-01-22 07:37:56.576904	198.8	35.1	-78.6	0.0
2025-01-22 07:37:58.828564	198.8	34.6	-78.9	0.0
2025-01-22 07:38:01.081420	198.8	34.1	-78.7	0.0
2025-01-22 07:38:03.331575	198.8	33.6	-78.8	0.0
2025-01-22 07:38:05.585114	198.8	33.1	-78.8	0.0
2025-01-22 07:38:07.837985	198.8	32.7	-78.6	0.0
2025-01-22 07:38:10.090239	198.8	32.2	-78.3	0.0
2025-01-22 07:38:12.341889	198.8	31.7	-78.5	0.0
2025-01-22 07:38:14.593850	198.8	31.3	-78.7	0.0
2025-01-22 07:38:16.846550	198.8	30.8	-78.4	0.0
2025-01-22 07:38:19.099140	198.8	30.4	-78.6	0.0
2025-01-22 07:38:21.349603	198.8	29.9	-78.5	0.0
2025-01-22 07:38:23.604170	198.8	29.5	-78.1	0.0
2025-01-22 07:38:25.856619	198.8	29.1	-78.4	0.0
2025-01-22 07:38:28.110428	198.8	28.7	-78.2	0.0
2025-01-22 07:38:30.360405	198.8	28.3	-78.6	0.0
2025-01-22 07:38:32.611099	198.8	27.8	-78.6	0.0
2025-01-22 07:38:34.862600	198.8	27.4	-78.3	0.0
2025-01-22 07:38:37.117442	198.8	27.1	-78.6	0.0
2025-01-22 07:38:39.367542	198.8	26.7	-77.7	0.0
2025-01-22 07:38:41.620613	198.8	26.3	-78.5	0.0
2025-01-22 07:38:43.872005	198.8	25.9	-79.1	0.0
2025-01-22 07:38:46.126602	198.8	25.5	-78.6	0.0
2025-01-22 07:38:48.379228	198.8	25.2	-78.2	0.0
2025-01-22 07:38:50.631896	198.8	24.8	-79.1	0.0
2025-01-22 07:38:52.884133	198.8	24.4	-79.0	0.0
2025-01-22 07:38:55.135002	198.8	24.1	-79.0	0.0
2025-01-22 07:38:57.386944	198.8	23.7	-78.0	0.0
2025-01-22 07:38:59.639537	198.8	23.4	-79.1	0.0
2025-01-22 07:39:01.891880	198.8	23.1	-77.6	0.0
2025-01-22 07:39:04.148082	198.8	22.7	-79.0	0.0
2025-01-22 07:39:06.398395	198.8	22.4	-79.3	0.0
2025-01-22 07:39:08.651346	198.8	22.1	-78.3	0.0
2025-01-22 07:39:10.903481	198.8	21.8	-78.2	0.0
2025-01-22 07:39:13.154372	198.8	21.4	-78.5	0.0
2025-01-22 07:39:15.406408	198.8	21.1	-78.6	0.0
2025-01-22 07:39:17.660696	198.8	20.8	-78.0	0.0
2025-01-22 07:39:19.914276	198.8	20.5	-78.6	0.0
2025-01-22 07:39:22.164247	198.8	20.2	-79.0	0.0
2025-01-22 07:39:24.415578	198.8	19.9	-78.8	0.0
2025-01-22 07:39:26.670933	198.8	19.6	-77.8	0.0
2025-01-22 07:39:28.922804	198.8	19.3	-79.0	0.0
2025-01-22 07:39:31.174262	198.8	19.0	-79.2	0.0
2025-01-22 07:39:33.427355	198.8	18.7	-78.9	0.0
2025-01-22 07:39:35.680074	198.8	18.5	-79.3	0.0
2025-01-22 07:39:37.932883	198.8	18.2	-79.4	0.0
2025-01-22 07:39:40.185659	198.9	17.9	-78.4	0.0
2025-01-22 07:39:42.434175	198.9	17.6	-79.1	0.0
2025-01-22 07:39:44.687082	198.9	17.4	-78.7	0.0
2025-01-22 07:39:46.938624	198.9	17.1	-79.3	0.0
2025-01-22 07:39:49.189755	198.9	16.8	-79.3	0.0
2025-01-22 07:39:51.441618	198.9	16.6	-79.4	0.0
2025-01-22 07:39:53.692983	198.9	16.3	-78.3	0.0
2025-01-22 07:39:55.947865	198.9	16.1	-78.8	0.0
2025-01-22 07:39:58.198724	198.9	15.8	-79.2	0.0
2025-01-22 07:40:00.451771	198.9	15.6	-78.9	0.0
2025-01-22 07:40:02.705896	198.9	15.3	-78.9	0.0
2025-01-22 07:40:04.957643	198.9	15.1	-78.5	0.0
2025-01-22 07:40:07.212949	198.9	14.8	-79.0	0.0
2025-01-22 07:40:09.464608	198.9	14.6	-78.9	0.0
2025-01-22 07:40:11.718176	198.9	14.4	-79.0	0.0
2025-01-22 07:40:13.972079	198.9	14.1	-78.7	0.0
2025-01-22 07:40:16.223704	198.9	13.9	-78.3	0.0
2025-01-22 07:40:18.476841	198.9	13.7	-78.6	0.0
2025-01-22 07:40:20.730056	198.9	13.4	-78.6	0.0
2025-01-22 07:40:22.985541	198.9	13.2	-77.8	0.0
2025-01-22 07:40:25.237712	198.9	13.0	-78.4	0.0
2025-01-22 07:40:27.490450	198.9	12.8	-78.4	0.0
2025-01-22 07:40:29.739883	198.9	12.5	-77.9	0.0
2025-01-22 07:40:31.992947	198.9	12.3	-78.0	0.0
2025-01-22 07:40:34.245425	199.0	12.1	-77.9	0.0
2025-01-22 07:40:36.500811	199.0	11.9	-78.3	0.0
2025-01-22 07:40:38.754687	199.0	11.7	-77.7	0.0
2025-01-22 07:40:41.008075	199.0	11.5	-78.1	0.0
2025-01-22 07:40:43.262925	199.0	11.3	-77.9	0.0
2025-01-22 07:40:45.517335	199.0	11.0	-77.8	0.0
2025-01-22 07:40:47.771105	199.0	10.8	-78.6	0.0
2025-01-22 07:40:50.025439	199.0	10.6	-80.1	0.0
2025-01-22 07:40:52.274798	199.0	10.4	-81.4	0.0
2025-01-22 07:40:54.527839	199.0	10.2	-81.6	0.0
#Closed at: 2025-01-22 07:30:05.342664