passes_logs/2025/01/22/planumMaritime01/planumMaritime01__20250122_010406_METEOR-M2_2_rec.log

#Pass ID: 20250122_010406_METEOR-M2 2
#Satellite: METEOR-M2 2
#Configuration: METEOR-M2 2
#Start time: 2025-01-22 01:04:11.053713

#LorettStation: 1.0.0 05.05.2024
#Station: planumMaritime01
#Location: 37.49445 lon 55.92918 lat
#TLE: 1 44387U 19038A   25021.18051176  .00000366  00000+0  17858-3 0  9992
#TLE: 2 44387  98.8576 357.6249 0002218  69.4714 290.6702 14.24121645288410

#Time	Az	El	Level	SNR
2025-01-22 01:04:13.214678	29.9	10.2	-73.0	0.0
2025-01-22 01:04:15.461098	30.1	10.3	-71.5	0.0
2025-01-22 01:04:17.707083	30.3	10.5	-69.0	0.0
2025-01-22 01:04:19.950680	30.5	10.7	-73.5	0.0
2025-01-22 01:04:22.194728	30.7	10.9	-73.1	0.0
2025-01-22 01:04:24.441227	30.9	11.1	-73.4	0.0
2025-01-22 01:04:26.689301	31.1	11.2	-72.0	0.0
2025-01-22 01:04:28.937885	31.3	11.4	-75.1	0.0
2025-01-22 01:04:31.184048	31.5	11.6	-74.8	0.0
2025-01-22 01:04:33.430893	31.7	11.8	-73.3	0.0
2025-01-22 01:04:35.678213	31.9	12.0	-74.3	0.0
2025-01-22 01:04:37.925548	32.1	12.1	-73.6	0.0
2025-01-22 01:04:40.171560	32.4	12.3	-75.6	0.0
2025-01-22 01:04:42.414717	32.6	12.5	-75.9	0.0
2025-01-22 01:04:44.660561	32.8	12.7	-74.8	0.0
2025-01-22 01:04:46.907799	33.0	12.9	-74.9	0.0
2025-01-22 01:04:49.155432	33.3	13.1	-74.8	0.0
2025-01-22 01:04:51.405619	33.5	13.3	-75.5	0.0
2025-01-22 01:04:53.654398	33.7	13.5	-72.1	0.0
2025-01-22 01:04:55.906000	34.0	13.7	-73.7	0.0
2025-01-22 01:04:58.150567	34.2	13.9	-73.7	0.0
2025-01-22 01:05:00.400393	34.5	14.1	-75.7	0.0
2025-01-22 01:05:02.644345	34.7	14.3	-75.2	0.0
2025-01-22 01:05:04.892321	35.0	14.5	-75.4	0.0
2025-01-22 01:05:07.138649	35.2	14.7	-75.5	0.0
2025-01-22 01:05:09.386569	35.5	14.9	-75.3	0.0
2025-01-22 01:05:11.634885	35.7	15.1	-76.2	0.0
2025-01-22 01:05:13.881062	36.0	15.3	-75.4	0.0
2025-01-22 01:05:16.129208	36.3	15.5	-74.8	0.0
2025-01-22 01:05:18.376201	36.5	15.7	-76.5	0.0
2025-01-22 01:05:20.621521	36.8	15.9	-76.0	0.0
2025-01-22 01:05:22.868719	37.1	16.1	-73.8	0.0
2025-01-22 01:05:25.114873	37.4	16.3	-76.2	0.0
2025-01-22 01:05:27.360332	37.7	16.5	-76.0	0.0
2025-01-22 01:05:29.607044	38.0	16.7	-69.8	0.0
2025-01-22 01:05:31.857016	38.3	16.9	-77.6	0.0
2025-01-22 01:05:34.105162	38.6	17.2	-74.6	0.0
2025-01-22 01:05:36.350080	38.9	17.4	-75.9	0.0
2025-01-22 01:05:38.598397	39.2	17.6	-76.9	0.0
2025-01-22 01:05:40.848215	39.5	17.8	-77.1	0.0
2025-01-22 01:05:43.095554	39.8	18.0	-76.3	0.0
2025-01-22 01:05:45.342479	40.1	18.2	-75.8	0.0
2025-01-22 01:05:47.589738	40.4	18.5	-75.6	0.0
2025-01-22 01:05:49.835618	40.8	18.7	-76.7	0.0
2025-01-22 01:05:52.081773	41.1	18.9	-76.5	0.0
2025-01-22 01:05:54.327493	41.5	19.1	-76.3	0.0
2025-01-22 01:05:56.573573	41.8	19.4	-75.9	0.0
2025-01-22 01:05:58.821670	42.1	19.6	-74.4	0.0
2025-01-22 01:06:01.072557	42.5	19.8	-75.0	0.0
2025-01-22 01:06:03.319922	42.9	20.0	-75.8	0.0
2025-01-22 01:06:05.565662	43.2	20.3	-69.7	0.0
2025-01-22 01:06:07.811538	43.6	20.5	-74.5	0.0
2025-01-22 01:06:10.055048	44.0	20.7	-74.8	0.0
2025-01-22 01:06:12.305060	44.4	21.0	-74.6	0.0
2025-01-22 01:06:14.552532	44.7	21.2	-73.7	0.0
2025-01-22 01:06:16.800091	45.1	21.4	-72.8	0.0
2025-01-22 01:06:19.048889	45.5	21.7	-74.0	0.0
2025-01-22 01:06:21.291772	45.9	21.9	-73.2	0.0
2025-01-22 01:06:23.537599	46.4	22.1	-72.0	0.0
2025-01-22 01:06:25.780956	46.8	22.4	-69.8	0.0
2025-01-22 01:06:28.030548	47.2	22.6	-73.5	0.0
2025-01-22 01:06:30.276456	47.6	22.9	-75.3	0.0
2025-01-22 01:06:32.522975	48.1	23.1	-76.4	0.0
2025-01-22 01:06:34.771187	48.5	23.3	-76.0	0.0
2025-01-22 01:06:37.013563	49.0	23.6	-76.5	0.0
2025-01-22 01:06:39.258680	49.4	23.8	-76.2	0.0
2025-01-22 01:06:41.503727	49.9	24.1	-73.2	0.0
2025-01-22 01:06:43.749841	50.4	24.3	-75.7	0.0
2025-01-22 01:06:45.995505	50.8	24.5	-75.5	0.0
2025-01-22 01:06:48.242841	51.3	24.8	-76.8	0.0
2025-01-22 01:06:50.488454	51.8	25.0	-76.5	0.0
2025-01-22 01:06:52.734543	52.3	25.3	-76.6	0.0
2025-01-22 01:06:54.978879	52.8	25.5	-77.3	0.0
2025-01-22 01:06:57.224106	53.3	25.8	-78.0	0.0
2025-01-22 01:06:59.471153	53.9	26.0	-77.0	0.0
2025-01-22 01:07:01.716806	54.4	26.2	-76.8	0.0
2025-01-22 01:07:03.962455	54.9	26.5	-78.9	0.0
2025-01-22 01:07:06.211062	55.5	26.7	-79.0	0.0
2025-01-22 01:07:08.458435	56.0	27.0	-79.3	0.0
2025-01-22 01:07:10.705038	56.6	27.2	-79.3	0.0
2025-01-22 01:07:12.949718	57.2	27.4	-79.5	0.0
2025-01-22 01:07:15.196238	57.8	27.7	-79.0	0.0
2025-01-22 01:07:17.441972	58.4	27.9	-78.3	0.0
2025-01-22 01:07:19.690188	59.0	28.2	-78.9	0.0
2025-01-22 01:07:21.934204	59.6	28.4	-78.1	0.0
2025-01-22 01:07:24.180976	60.2	28.6	-76.8	0.0
2025-01-22 01:07:26.425767	60.8	28.9	-78.3	0.0
2025-01-22 01:07:28.671767	61.4	29.1	-79.2	0.0
2025-01-22 01:07:30.917213	62.1	29.3	-79.3	0.0
2025-01-22 01:07:33.164114	62.7	29.5	-79.4	0.0
2025-01-22 01:07:35.408711	63.4	29.8	-79.8	0.0
2025-01-22 01:07:37.652864	64.1	30.0	-78.9	0.0
2025-01-22 01:07:39.898135	64.7	30.2	-80.2	0.0
2025-01-22 01:07:42.145050	65.4	30.4	-79.1	0.0
2025-01-22 01:07:44.389537	66.1	30.6	-80.0	0.0
2025-01-22 01:07:46.632633	66.8	30.8	-79.7	0.0
2025-01-22 01:07:48.876173	67.6	31.1	-79.4	0.0
2025-01-22 01:07:51.120260	68.3	31.3	-79.8	0.0
2025-01-22 01:07:53.366992	69.0	31.5	-79.6	0.0
2025-01-22 01:07:55.615289	69.8	31.7	-79.6	0.0
2025-01-22 01:07:57.863169	70.5	31.8	-79.0	0.0
2025-01-22 01:08:00.109493	71.3	32.0	-80.0	0.0
2025-01-22 01:08:02.356879	72.0	32.2	-79.1	0.0
2025-01-22 01:08:04.604515	72.8	32.4	-78.6	0.0
2025-01-22 01:08:06.853366	73.6	32.6	-78.9	0.0
2025-01-22 01:08:09.100362	74.4	32.7	-77.7	0.0
2025-01-22 01:08:11.344403	75.2	32.9	-79.3	0.0
2025-01-22 01:08:13.590202	76.0	33.1	-75.2	0.0
2025-01-22 01:08:15.838268	76.8	33.2	-78.7	0.0
2025-01-22 01:08:18.081745	77.7	33.4	-78.7	0.0
2025-01-22 01:08:20.332283	78.5	33.5	-78.9	0.0
2025-01-22 01:08:22.577205	79.4	33.6	-78.7	0.0
2025-01-22 01:08:24.826069	80.2	33.8	-78.1	0.0
2025-01-22 01:08:27.073081	81.1	33.9	-78.0	0.0
2025-01-22 01:08:29.321874	81.9	34.0	-76.6	0.0
2025-01-22 01:08:31.567959	82.8	34.1	-79.0	0.0
2025-01-22 01:08:33.813282	83.7	34.2	-76.0	0.0
2025-01-22 01:08:36.062597	84.5	34.3	-77.5	0.0
2025-01-22 01:08:38.306955	85.4	34.4	-76.6	0.0
2025-01-22 01:08:40.552174	86.3	34.5	-78.5	0.0
2025-01-22 01:08:42.799062	87.2	34.6	-78.3	0.0
2025-01-22 01:08:45.046401	88.1	34.6	-77.6	0.0
2025-01-22 01:08:47.295360	89.0	34.7	-78.4	0.0
2025-01-22 01:08:49.543440	89.9	34.8	-77.0	0.0
2025-01-22 01:08:51.790749	90.8	34.8	-77.0	0.0
2025-01-22 01:08:54.038755	91.7	34.8	-76.8	0.0
2025-01-22 01:08:56.284674	92.6	34.9	-77.4	0.0
2025-01-22 01:08:58.530060	93.5	34.9	-77.7	0.0
2025-01-22 01:09:00.775085	94.5	34.9	-78.5	0.0
2025-01-22 01:09:03.018110	95.4	34.9	-77.8	0.0
2025-01-22 01:09:05.264596	96.3	34.9	-77.6	0.0
2025-01-22 01:09:07.509507	97.2	34.9	-77.0	0.0
2025-01-22 01:09:09.755269	98.1	34.9	-73.3	0.0
2025-01-22 01:09:12.003580	99.0	34.8	-77.1	0.0
2025-01-22 01:09:14.249994	99.9	34.8	-77.8	0.0
2025-01-22 01:09:16.497452	100.8	34.8	-78.3	0.0
2025-01-22 01:09:18.741988	101.7	34.7	-77.3	0.0
2025-01-22 01:09:20.987171	102.6	34.7	-78.3	0.0
2025-01-22 01:09:23.234663	103.5	34.6	-77.4	0.0
2025-01-22 01:09:25.481347	104.4	34.5	-78.2	0.0
2025-01-22 01:09:27.726573	105.3	34.4	-78.3	0.0
2025-01-22 01:09:29.972079	106.2	34.3	-79.4	0.0
2025-01-22 01:09:32.217239	107.1	34.2	-78.3	0.0
2025-01-22 01:09:34.465298	108.0	34.1	-78.5	0.0
2025-01-22 01:09:36.711176	108.8	34.0	-78.5	0.0
2025-01-22 01:09:38.955527	109.7	33.9	-79.0	0.0
2025-01-22 01:09:41.201027	110.6	33.8	-79.3	0.0
2025-01-22 01:09:43.450027	111.4	33.7	-78.9	0.0
2025-01-22 01:09:45.695910	112.3	33.5	-78.3	0.0
2025-01-22 01:09:47.946059	113.1	33.4	-77.2	0.0
2025-01-22 01:09:50.193007	113.9	33.2	-79.5	0.0
2025-01-22 01:09:52.441395	114.8	33.1	-77.5	0.0
2025-01-22 01:09:54.688034	115.6	32.9	-79.6	0.0
2025-01-22 01:09:56.934627	116.4	32.8	-79.5	0.0
2025-01-22 01:09:59.181543	117.2	32.6	-80.0	0.0
2025-01-22 01:10:01.426173	118.0	32.4	-79.5	0.0
2025-01-22 01:10:03.670958	118.7	32.2	-79.4	0.0
2025-01-22 01:10:05.918503	119.5	32.1	-79.9	0.0
2025-01-22 01:10:08.162973	120.3	31.9	-80.1	0.0
2025-01-22 01:10:10.407721	121.0	31.7	-80.4	0.0
2025-01-22 01:10:12.652099	121.8	31.5	-78.9	0.0
2025-01-22 01:10:14.897742	122.5	31.3	-80.2	0.0
2025-01-22 01:10:17.143021	123.3	31.1	-80.5	0.0
2025-01-22 01:10:19.390589	124.0	30.9	-80.3	0.0
2025-01-22 01:10:21.633173	124.7	30.7	-79.8	0.0
2025-01-22 01:10:23.879108	125.4	30.4	-80.2	0.0
2025-01-22 01:10:26.124345	126.1	30.2	-80.0	0.0
2025-01-22 01:10:28.373005	126.8	30.0	-80.7	0.0
2025-01-22 01:10:30.617582	127.4	29.8	-80.5	0.0
2025-01-22 01:10:32.863121	128.1	29.6	-80.8	0.0
2025-01-22 01:10:35.111780	128.8	29.3	-80.4	0.0
2025-01-22 01:10:37.356567	129.4	29.1	-80.7	0.0
2025-01-22 01:10:39.604084	130.0	28.9	-80.2	0.0
2025-01-22 01:10:41.849698	130.7	28.6	-80.5	0.0
2025-01-22 01:10:44.095607	131.3	28.4	-80.3	0.0
2025-01-22 01:10:46.343121	131.9	28.2	-80.4	0.0
2025-01-22 01:10:48.589689	132.5	27.9	-80.3	0.0
2025-01-22 01:10:50.836307	133.1	27.7	-80.3	0.0
2025-01-22 01:10:53.079832	133.7	27.5	-79.8	0.0
2025-01-22 01:10:55.327260	134.3	27.2	-79.8	0.0
2025-01-22 01:10:57.572300	134.8	27.0	-79.7	0.0
2025-01-22 01:10:59.820649	135.4	26.7	-79.7	0.0
2025-01-22 01:11:02.064966	135.9	26.5	-80.1	0.0
2025-01-22 01:11:04.311378	136.5	26.2	-80.0	0.0
2025-01-22 01:11:06.557131	137.0	26.0	-80.2	0.0
2025-01-22 01:11:08.809000	137.6	25.8	-80.2	0.0
2025-01-22 01:11:11.055014	138.1	25.5	-80.2	0.0
2025-01-22 01:11:13.300117	138.6	25.3	-80.1	0.0
2025-01-22 01:11:15.548678	139.1	25.0	-80.1	0.0
2025-01-22 01:11:17.792865	139.6	24.8	-79.7	0.0
2025-01-22 01:11:20.037444	140.1	24.5	-80.2	0.0
2025-01-22 01:11:22.283161	140.6	24.3	-79.8	0.0
2025-01-22 01:11:24.527543	141.0	24.0	-79.7	0.0
2025-01-22 01:11:26.774182	141.5	23.8	-79.8	0.0
2025-01-22 01:11:29.019030	142.0	23.6	-79.7	0.0
2025-01-22 01:11:31.264866	142.4	23.3	-79.8	0.0
2025-01-22 01:11:33.509043	142.8	23.1	-79.1	0.0
2025-01-22 01:11:35.757105	143.3	22.8	-79.6	0.0
2025-01-22 01:11:38.003424	143.7	22.6	-79.6	0.0
2025-01-22 01:11:40.250666	144.1	22.3	-79.7	0.0
2025-01-22 01:11:42.496610	144.6	22.1	-79.5	0.0
2025-01-22 01:11:44.742225	145.0	21.9	-79.5	0.0
2025-01-22 01:11:46.988589	145.4	21.6	-79.6	0.0
2025-01-22 01:11:49.234810	145.8	21.4	-79.5	0.0
2025-01-22 01:11:51.480112	146.2	21.2	-79.7	0.0
2025-01-22 01:11:53.727038	146.6	20.9	-79.0	0.0
2025-01-22 01:11:55.970379	147.0	20.7	-79.3	0.0
2025-01-22 01:11:58.219061	147.3	20.5	-79.5	0.0
2025-01-22 01:12:00.464498	147.7	20.2	-79.5	0.0
2025-01-22 01:12:02.711569	148.1	20.0	-79.3	0.0
2025-01-22 01:12:04.955626	148.4	19.8	-79.2	0.0
2025-01-22 01:12:07.199156	148.8	19.5	-79.1	0.0
2025-01-22 01:12:09.445603	149.1	19.3	-78.6	0.0
2025-01-22 01:12:11.688568	149.5	19.1	-78.5	0.0
2025-01-22 01:12:13.937180	149.8	18.8	-78.2	0.0
2025-01-22 01:12:16.183845	150.2	18.6	-78.4	0.0
2025-01-22 01:12:18.430208	150.5	18.4	-78.4	0.0
2025-01-22 01:12:20.678146	150.8	18.2	-78.3	0.0
2025-01-22 01:12:22.925666	151.1	18.0	-78.4	0.0
2025-01-22 01:12:25.171966	151.5	17.7	-78.3	0.0
2025-01-22 01:12:27.417002	151.8	17.5	-78.5	0.0
2025-01-22 01:12:29.662385	152.1	17.3	-78.2	0.0
2025-01-22 01:12:31.908084	152.4	17.1	-78.6	0.0
2025-01-22 01:12:34.153139	152.7	16.9	-78.0	0.0
2025-01-22 01:12:36.401039	153.0	16.6	-78.0	0.0
2025-01-22 01:12:38.646449	153.3	16.4	-78.3	0.0
2025-01-22 01:12:40.895557	153.6	16.2	-78.1	0.0
2025-01-22 01:12:43.142022	153.8	16.0	-77.9	0.0
2025-01-22 01:12:45.388752	154.1	15.8	-78.4	0.0
2025-01-22 01:12:47.634111	154.4	15.6	-78.5	0.0
2025-01-22 01:12:49.879051	154.7	15.4	-78.3	0.0
2025-01-22 01:12:52.122159	154.9	15.2	-78.8	0.0
2025-01-22 01:12:54.366509	155.2	15.0	-78.6	0.0
2025-01-22 01:12:56.616847	155.5	14.8	-78.8	0.0
2025-01-22 01:12:58.864062	155.7	14.6	-79.0	0.0
2025-01-22 01:13:01.109255	156.0	14.4	-78.9	0.0
2025-01-22 01:13:03.354159	156.2	14.2	-79.1	0.0
2025-01-22 01:13:05.598618	156.5	14.0	-78.8	0.0
2025-01-22 01:13:07.842632	156.7	13.8	-58.5	0.0
2025-01-22 01:13:10.091894	157.0	13.6	-59.3	0.0
2025-01-22 01:13:12.335029	157.2	13.4	-59.1	0.0
2025-01-22 01:13:14.578591	157.4	13.2	-59.0	0.0
2025-01-22 01:13:16.825700	157.7	13.0	-60.3	0.0
2025-01-22 01:13:19.070060	157.9	12.8	-60.1	0.0
2025-01-22 01:13:21.318010	158.1	12.6	-59.7	0.0
2025-01-22 01:13:23.562397	158.3	12.4	-59.0	0.0
2025-01-22 01:13:25.813063	158.6	12.2	-58.4	0.0
2025-01-22 01:13:28.058886	158.8	12.0	-61.1	0.0
2025-01-22 01:13:30.304063	159.0	11.8	-59.9	0.0
2025-01-22 01:13:32.550199	159.2	11.7	-59.7	0.0
2025-01-22 01:13:34.794957	159.4	11.5	-60.4	0.0
2025-01-22 01:13:37.039576	159.6	11.3	-58.6	0.0
2025-01-22 01:13:39.286364	159.8	11.1	-60.8	0.0
2025-01-22 01:13:41.531472	160.0	10.9	-59.6	0.0
2025-01-22 01:13:43.779701	160.2	10.8	-66.2	0.0
2025-01-22 01:13:46.022719	160.4	10.6	-77.8	0.0
2025-01-22 01:13:48.269064	160.6	10.4	-64.4	0.0
2025-01-22 01:13:50.516018	160.8	10.2	-63.4	0.0
2025-01-22 01:13:52.762365	161.0	10.0	-70.9	0.0
#Closed at: 2025-01-22 01:04:06.056788