passes_logs/2025/01/22/planumMaritime01/planumMaritime01__20250122_114821_METEOR-M2_4_rec.log

#Pass ID: 20250122_114821_METEOR-M2 4
#Satellite: METEOR-M2 4
#Configuration: METEOR-M2 4
#Start time: 2025-01-22 11:48:26.561646

#LorettStation: 1.0.0 05.05.2024
#Station: planumMaritime01
#Location: 37.49445 lon 55.92918 lat
#TLE: 1 59051U 24039A   25021.14815225  .00000157  00000+0  89881-4 0  9996
#TLE: 2 59051  98.6303 344.0289 0006470 205.0409 155.0456 14.22327239 46470

#Time	Az	El	Level	SNR
2025-01-22 11:48:28.707637	174.7	10.2	-75.2	0.0
2025-01-22 11:48:30.955341	174.8	10.4	-75.4	0.0
2025-01-22 11:48:33.207502	174.8	10.6	-74.4	0.0
2025-01-22 11:48:35.461267	174.9	10.8	-75.9	0.0
2025-01-22 11:48:37.713852	175.0	11.0	-75.5	0.0
2025-01-22 11:48:39.966069	175.1	11.2	-75.2	0.0
2025-01-22 11:48:42.217904	175.2	11.4	-75.6	0.0
2025-01-22 11:48:44.471261	175.2	11.6	-75.7	0.0
2025-01-22 11:48:46.722812	175.3	11.8	-75.6	0.0
2025-01-22 11:48:48.973174	175.4	12.0	-75.4	0.0
2025-01-22 11:48:51.222233	175.5	12.2	-75.4	0.0
2025-01-22 11:48:53.474992	175.6	12.4	-74.5	0.0
2025-01-22 11:48:55.726827	175.6	12.6	-74.8	0.0
2025-01-22 11:48:57.978178	175.7	12.9	-74.7	0.0
2025-01-22 11:49:00.231649	175.8	13.1	-75.9	0.0
2025-01-22 11:49:02.483022	175.9	13.3	-75.7	0.0
2025-01-22 11:49:04.736060	176.0	13.5	-75.8	0.0
2025-01-22 11:49:06.986726	176.1	13.8	-74.7	0.0
2025-01-22 11:49:09.236655	176.2	14.0	-74.7	0.0
2025-01-22 11:49:11.491544	176.3	14.2	-74.4	0.0
2025-01-22 11:49:13.745650	176.4	14.4	-73.9	0.0
2025-01-22 11:49:15.995177	176.5	14.7	-74.7	0.0
2025-01-22 11:49:18.248669	176.6	14.9	-74.6	0.0
2025-01-22 11:49:20.502527	176.6	15.1	-74.5	0.0
2025-01-22 11:49:22.755548	176.7	15.4	-74.4	0.0
2025-01-22 11:49:25.008323	176.9	15.6	-74.3	0.0
2025-01-22 11:49:27.260038	177.0	15.9	-74.6	0.0
2025-01-22 11:49:29.513495	177.1	16.1	-74.9	0.0
2025-01-22 11:49:31.767355	177.2	16.4	-74.2	0.0
2025-01-22 11:49:34.017827	177.3	16.6	-74.7	0.0
2025-01-22 11:49:36.269839	177.4	16.9	-75.4	0.0
2025-01-22 11:49:38.522142	177.5	17.1	-75.1	0.0
2025-01-22 11:49:40.772721	177.6	17.4	-75.4	0.0
2025-01-22 11:49:43.025046	177.7	17.7	-75.9	0.0
2025-01-22 11:49:45.278711	177.8	17.9	-75.5	0.0
2025-01-22 11:49:47.531064	178.0	18.2	-75.2	0.0
2025-01-22 11:49:49.783960	178.1	18.5	-75.4	0.0
2025-01-22 11:49:52.035298	178.2	18.7	-75.6	0.0
2025-01-22 11:49:54.289494	178.3	19.0	-75.7	0.0
2025-01-22 11:49:56.541579	178.5	19.3	-76.2	0.0
2025-01-22 11:49:58.795657	178.6	19.6	-75.8	0.0
2025-01-22 11:50:01.045574	178.7	19.9	-76.4	0.0
2025-01-22 11:50:03.296421	178.8	20.1	-76.0	0.0
2025-01-22 11:50:05.546497	179.0	20.4	-76.5	0.0
2025-01-22 11:50:07.798931	179.1	20.7	-76.5	0.0
2025-01-22 11:50:10.050703	179.3	21.0	-76.2	0.0
2025-01-22 11:50:12.301872	179.4	21.3	-76.8	0.0
2025-01-22 11:50:14.551895	179.6	21.6	-76.8	0.0
2025-01-22 11:50:16.803841	179.7	21.9	-76.7	0.0
2025-01-22 11:50:19.055490	179.9	22.3	-77.1	0.0
2025-01-22 11:50:21.306329	180.0	22.6	-77.8	0.0
2025-01-22 11:50:23.557760	180.2	22.9	-77.4	0.0
2025-01-22 11:50:25.809090	180.3	23.2	-77.7	0.0
2025-01-22 11:50:28.061097	180.5	23.5	-77.0	0.0
2025-01-22 11:50:30.311064	180.7	23.9	-77.5	0.0
2025-01-22 11:50:32.562755	180.8	24.2	-76.6	0.0
2025-01-22 11:50:34.816697	181.0	24.6	-77.6	0.0
2025-01-22 11:50:37.068216	181.2	24.9	-77.6	0.0
2025-01-22 11:50:39.320128	181.4	25.2	-77.8	0.0
2025-01-22 11:50:41.570374	181.6	25.6	-78.0	0.0
2025-01-22 11:50:43.821458	181.8	26.0	-77.6	0.0
2025-01-22 11:50:46.070374	181.9	26.3	-77.8	0.0
2025-01-22 11:50:48.322095	182.1	26.7	-77.2	0.0
2025-01-22 11:50:50.573273	182.4	27.1	-77.2	0.0
2025-01-22 11:50:52.826515	182.6	27.4	-77.2	0.0
2025-01-22 11:50:55.075003	182.8	27.8	-77.9	0.0
2025-01-22 11:50:57.326864	183.0	28.2	-77.7	0.0
2025-01-22 11:50:59.578480	183.2	28.6	-76.7	0.0
2025-01-22 11:51:01.828530	183.4	29.0	-78.4	0.0
2025-01-22 11:51:04.079957	183.7	29.4	-78.2	0.0
2025-01-22 11:51:06.330752	183.9	29.8	-78.6	0.0
2025-01-22 11:51:08.582409	184.2	30.2	-77.8	0.0
2025-01-22 11:51:10.833832	184.4	30.6	-77.7	0.0
2025-01-22 11:51:13.088044	184.7	31.1	-78.5	0.0
2025-01-22 11:51:15.340942	184.9	31.5	-78.2	0.0
2025-01-22 11:51:17.594761	185.2	31.9	-77.4	0.0
2025-01-22 11:51:19.847489	185.5	32.4	-78.9	0.0
2025-01-22 11:51:22.098798	185.8	32.8	-78.8	0.0
2025-01-22 11:51:24.351652	186.1	33.3	-79.3	0.0
2025-01-22 11:51:26.604752	186.4	33.7	-79.6	0.0
2025-01-22 11:51:28.858735	186.7	34.2	-79.4	0.0
2025-01-22 11:51:31.110509	187.0	34.6	-79.3	0.0
2025-01-22 11:51:33.360217	187.3	35.1	-78.6	0.0
2025-01-22 11:51:35.610677	187.7	35.6	-79.2	0.0
2025-01-22 11:51:37.864588	188.0	36.1	-79.3	0.0
2025-01-22 11:51:40.118516	188.4	36.6	-79.3	0.0
2025-01-22 11:51:42.369439	188.8	37.1	-79.1	0.0
2025-01-22 11:51:44.618442	189.1	37.6	-79.0	0.0
2025-01-22 11:51:46.871262	189.5	38.1	-79.2	0.0
2025-01-22 11:51:49.125365	189.9	38.6	-78.9	0.0
2025-01-22 11:51:51.378267	190.4	39.2	-78.7	0.3
2025-01-22 11:51:53.628804	190.8	39.7	-78.4	1.7
2025-01-22 11:51:55.881606	191.2	40.2	-78.9	2.6
2025-01-22 11:51:58.133241	191.7	40.8	-78.9	3.3
2025-01-22 11:52:00.384484	192.2	41.3	-78.9	4.0
2025-01-22 11:52:02.635884	192.7	41.9	-79.0	4.1
2025-01-22 11:52:04.889449	193.2	42.5	-79.2	4.1
2025-01-22 11:52:07.142435	193.7	43.0	-78.9	5.6
2025-01-22 11:52:09.396019	194.3	43.6	-78.8	6.2
2025-01-22 11:52:11.647602	194.8	44.2	-78.8	5.9
2025-01-22 11:52:13.901264	195.4	44.8	-78.7	6.3
2025-01-22 11:52:16.156281	196.0	45.4	-78.9	5.1
2025-01-22 11:52:18.408131	196.7	46.0	-79.0	4.8
2025-01-22 11:52:20.658689	197.3	46.6	-78.9	4.5
2025-01-22 11:52:22.911258	198.0	47.2	-78.8	6.8
2025-01-22 11:52:25.163409	198.7	47.8	-78.4	7.7
2025-01-22 11:52:27.415499	199.5	48.4	-78.4	8.4
2025-01-22 11:52:29.667418	200.2	49.0	-78.4	8.4
2025-01-22 11:52:31.920640	201.0	49.7	-78.5	8.0
2025-01-22 11:52:34.172603	201.9	50.3	-78.4	8.1
2025-01-22 11:52:36.428248	202.7	50.9	-78.6	9.4
2025-01-22 11:52:38.681424	203.6	51.6	-78.6	9.0
2025-01-22 11:52:40.933911	204.6	52.2	-78.3	8.5
2025-01-22 11:52:43.186025	205.6	52.8	-78.6	8.4
2025-01-22 11:52:45.437394	206.6	53.4	-78.9	7.8
2025-01-22 11:52:47.689172	207.7	54.1	-78.9	8.0
2025-01-22 11:52:49.945200	208.8	54.7	-78.7	9.0
2025-01-22 11:52:52.198427	210.0	55.3	-78.3	8.8
2025-01-22 11:52:54.451205	211.2	55.9	-78.3	9.3
2025-01-22 11:52:56.705937	212.5	56.6	-78.7	9.4
2025-01-22 11:52:58.958501	213.8	57.2	-78.9	9.8
2025-01-22 11:53:01.208371	215.2	57.8	-78.4	9.6
2025-01-22 11:53:03.462243	216.6	58.3	-78.1	11.1
2025-01-22 11:53:05.711957	218.2	58.9	-78.1	11.1
2025-01-22 11:53:07.962934	219.7	59.5	-77.5	10.8
2025-01-22 11:53:10.213946	221.4	60.0	-77.9	11.8
2025-01-22 11:53:12.466661	223.1	60.5	-78.0	11.2
2025-01-22 11:53:14.719283	224.9	61.0	-78.0	12.0
2025-01-22 11:53:16.972449	226.8	61.5	-78.0	12.1
2025-01-22 11:53:19.222968	228.7	62.0	-78.0	12.1
2025-01-22 11:53:21.478243	230.7	62.4	-77.9	11.3
2025-01-22 11:53:23.731410	232.8	62.8	-78.1	11.5
2025-01-22 11:53:25.985929	235.0	63.2	-77.8	10.7
2025-01-22 11:53:28.238656	237.2	63.6	-77.8	10.5
2025-01-22 11:53:30.489677	239.5	63.9	-77.7	11.0
2025-01-22 11:53:32.742276	241.8	64.1	-77.6	10.9
2025-01-22 11:53:34.993607	244.2	64.4	-77.7	10.8
2025-01-22 11:53:37.249782	246.6	64.6	-77.7	11.5
2025-01-22 11:53:39.502913	249.1	64.7	-77.9	11.7
2025-01-22 11:53:41.752407	251.6	64.8	-78.0	11.5
2025-01-22 11:53:44.003471	254.1	64.9	-78.3	11.2
2025-01-22 11:53:46.254175	256.6	64.9	-78.3	10.5
2025-01-22 11:53:48.506843	259.2	64.9	-78.7	10.0
2025-01-22 11:53:50.759028	261.7	64.9	-78.6	9.2
2025-01-22 11:53:53.014546	264.2	64.8	-78.4	9.3
2025-01-22 11:53:55.269544	266.7	64.6	-78.4	8.9
2025-01-22 11:53:57.520247	269.1	64.4	-78.4	9.3
2025-01-22 11:53:59.770587	271.5	64.2	-78.5	9.1
2025-01-22 11:54:02.024651	273.9	63.9	-78.3	8.8
2025-01-22 11:54:04.275320	276.2	63.6	-78.3	7.1
2025-01-22 11:54:06.525049	278.4	63.3	-78.9	6.3
2025-01-22 11:54:08.775888	280.5	62.9	-77.7	4.3
2025-01-22 11:54:11.026556	282.6	62.5	-78.1	4.2
2025-01-22 11:54:13.277628	284.7	62.1	-77.9	2.8
2025-01-22 11:54:15.528638	286.6	61.7	-78.2	2.7
2025-01-22 11:54:17.778702	288.5	61.2	-78.5	3.6
2025-01-22 11:54:20.033803	290.3	60.7	-78.8	3.7
2025-01-22 11:54:22.286125	292.0	60.2	-77.9	2.2
2025-01-22 11:54:24.538370	293.7	59.6	-78.7	2.1
2025-01-22 11:54:26.791286	295.3	59.1	-78.9	2.2
2025-01-22 11:54:29.047191	296.8	58.5	-78.2	0.2
2025-01-22 11:54:31.296798	298.3	57.9	-77.7	0.0
2025-01-22 11:54:33.547021	299.7	57.3	-77.9	0.0
2025-01-22 11:54:35.799344	301.1	56.7	-78.1	0.0
2025-01-22 11:54:38.052565	302.4	56.1	-78.2	0.0
2025-01-22 11:54:40.301414	303.6	55.5	-79.1	0.0
2025-01-22 11:54:42.552963	304.8	54.9	-79.4	0.0
2025-01-22 11:54:44.806344	305.9	54.3	-78.8	0.0
2025-01-22 11:54:47.059519	307.0	53.6	-77.5	0.0
2025-01-22 11:54:49.311142	308.0	53.0	-78.9	0.0
2025-01-22 11:54:51.564726	309.0	52.4	-76.3	0.0
2025-01-22 11:54:53.815516	310.0	51.7	-78.9	0.0
2025-01-22 11:54:56.065738	310.9	51.1	-77.6	0.0
2025-01-22 11:54:58.318532	311.8	50.5	-75.7	0.0
2025-01-22 11:55:00.570742	312.6	49.9	-77.5	0.0
2025-01-22 11:55:02.822747	313.4	49.2	-79.2	0.0
2025-01-22 11:55:05.078001	314.2	48.6	-77.5	0.0
2025-01-22 11:55:07.329626	314.9	48.0	-76.4	0.0
2025-01-22 11:55:09.581917	315.7	47.4	-77.3	0.0
2025-01-22 11:55:11.835676	316.4	46.8	-77.1	0.0
2025-01-22 11:55:14.089564	317.0	46.2	-78.8	0.0
2025-01-22 11:55:16.345262	317.7	45.6	-77.9	0.0
2025-01-22 11:55:18.597988	318.3	45.0	-76.7	0.0
2025-01-22 11:55:20.851747	318.9	44.4	-74.9	0.0
2025-01-22 11:55:23.101605	319.4	43.8	-77.4	0.0
2025-01-22 11:55:25.354844	320.0	43.2	-77.7	0.0
2025-01-22 11:55:27.609511	320.5	42.7	-73.8	0.0
2025-01-22 11:55:29.858040	321.0	42.1	-77.8	0.0
2025-01-22 11:55:32.110232	321.5	41.5	-77.3	0.0
2025-01-22 11:55:34.366781	322.0	41.0	-76.4	0.0
2025-01-22 11:55:36.615271	322.5	40.4	-77.3	0.0
2025-01-22 11:55:38.863048	322.9	39.9	-74.7	0.0
2025-01-22 11:55:41.116071	323.4	39.4	-76.4	0.0
2025-01-22 11:55:43.367815	323.8	38.8	-77.4	0.0
2025-01-22 11:55:45.619085	324.2	38.3	-77.0	0.0
2025-01-22 11:55:47.872465	324.6	37.8	-75.0	0.0
2025-01-22 11:55:50.124341	325.0	37.3	-75.7	0.0
2025-01-22 11:55:52.375280	325.4	36.8	-78.5	0.0
2025-01-22 11:55:54.627182	325.7	36.3	-76.6	0.0
2025-01-22 11:55:56.878885	326.1	35.8	-76.4	0.0
2025-01-22 11:55:59.128183	326.4	35.3	-75.5	0.0
2025-01-22 11:56:01.382593	326.8	34.9	-76.3	0.0
2025-01-22 11:56:03.632209	327.1	34.4	-77.4	0.0
2025-01-22 11:56:05.881298	327.4	33.9	-73.3	0.0
2025-01-22 11:56:08.131258	327.7	33.5	-77.6	0.0
2025-01-22 11:56:10.381153	328.0	33.0	-75.4	0.0
2025-01-22 11:56:12.633498	328.3	32.6	-76.2	0.0
2025-01-22 11:56:14.885219	328.6	32.1	-77.1	0.0
2025-01-22 11:56:17.138774	328.8	31.7	-74.0	0.0
2025-01-22 11:56:19.392508	329.1	31.3	-75.9	0.0
2025-01-22 11:56:21.643201	329.4	30.8	-75.4	0.0
2025-01-22 11:56:23.896762	329.6	30.4	-75.9	0.0
2025-01-22 11:56:26.149074	329.9	30.0	-75.0	0.0
2025-01-22 11:56:28.399855	330.1	29.6	-70.1	0.0
2025-01-22 11:56:30.653674	330.4	29.2	-74.3	0.0
2025-01-22 11:56:32.908696	330.6	28.8	-74.4	0.0
2025-01-22 11:56:35.159431	330.8	28.4	-71.8	0.0
2025-01-22 11:56:37.413889	331.0	28.0	-72.4	0.0
2025-01-22 11:56:39.661915	331.2	27.7	-73.8	0.0
2025-01-22 11:56:41.914971	331.5	27.3	-73.5	0.0
2025-01-22 11:56:44.167464	331.7	26.9	-70.0	0.0
2025-01-22 11:56:46.419733	331.9	26.5	-73.6	0.0
2025-01-22 11:56:48.673905	332.1	26.2	-69.3	0.0
2025-01-22 11:56:50.930079	332.3	25.8	-71.7	0.0
2025-01-22 11:56:53.182336	332.4	25.5	-71.6	0.0
2025-01-22 11:56:55.432653	332.6	25.1	-70.4	0.0
2025-01-22 11:56:57.693255	332.8	24.8	-72.5	0.0
2025-01-22 11:56:59.946356	333.0	24.4	-71.2	0.0
2025-01-22 11:57:02.200378	333.2	24.1	-73.3	0.0
2025-01-22 11:57:04.452945	333.3	23.8	-71.1	0.0
2025-01-22 11:57:06.705791	333.5	23.4	-71.6	0.0
2025-01-22 11:57:08.955488	333.7	23.1	-70.3	0.0
2025-01-22 11:57:11.208580	333.8	22.8	-70.8	0.0
2025-01-22 11:57:13.459776	334.0	22.5	-74.2	0.0
2025-01-22 11:57:15.711555	334.1	22.2	-72.0	0.0
2025-01-22 11:57:17.963784	334.3	21.8	-75.4	0.0
2025-01-22 11:57:20.215854	334.4	21.5	-75.1	0.0
2025-01-22 11:57:22.468373	334.6	21.2	-69.7	0.0
2025-01-22 11:57:24.718890	334.7	20.9	-73.5	0.0
2025-01-22 11:57:26.969950	334.9	20.6	-72.5	0.0
2025-01-22 11:57:29.225501	335.0	20.4	-73.9	0.0
2025-01-22 11:57:31.477199	335.1	20.1	-72.9	0.0
2025-01-22 11:57:33.729426	335.3	19.8	-75.6	0.0
2025-01-22 11:57:35.981771	335.4	19.5	-72.7	0.0
2025-01-22 11:57:38.232442	335.5	19.2	-75.3	0.0
2025-01-22 11:57:40.485936	335.7	18.9	-75.9	0.0
2025-01-22 11:57:42.737556	335.8	18.7	-74.5	0.0
2025-01-22 11:57:44.990630	335.9	18.4	-73.0	0.0
2025-01-22 11:57:47.243460	336.0	18.1	-72.5	0.0
2025-01-22 11:57:49.495458	336.1	17.9	-74.2	0.0
2025-01-22 11:57:51.750623	336.3	17.6	-75.4	0.0
2025-01-22 11:57:54.003914	336.4	17.3	-75.2	0.0
2025-01-22 11:57:56.257619	336.5	17.1	-74.1	0.0
2025-01-22 11:57:58.510561	336.6	16.8	-70.0	0.0
2025-01-22 11:58:00.764262	336.7	16.6	-71.5	0.0
2025-01-22 11:58:03.020449	336.8	16.3	-72.4	0.0
2025-01-22 11:58:05.272917	336.9	16.1	-70.2	0.0
2025-01-22 11:58:07.526189	337.0	15.8	-72.0	0.0
2025-01-22 11:58:09.776495	337.1	15.6	-69.4	0.0
2025-01-22 11:58:12.029294	337.2	15.4	-71.3	0.0
2025-01-22 11:58:14.285017	337.3	15.1	-71.8	0.0
2025-01-22 11:58:16.537628	337.4	14.9	-72.8	0.0
2025-01-22 11:58:18.788160	337.5	14.7	-72.6	0.0
2025-01-22 11:58:21.041787	337.6	14.4	-73.2	0.0
2025-01-22 11:58:23.291350	337.7	14.2	-69.7	0.0
2025-01-22 11:58:25.544441	337.8	14.0	-69.8	0.0
2025-01-22 11:58:27.797010	337.9	13.7	-73.0	0.0
2025-01-22 11:58:30.050543	338.0	13.5	-68.4	0.0
2025-01-22 11:58:32.301750	338.1	13.3	-64.8	0.0
2025-01-22 11:58:34.554986	338.2	13.1	-67.3	0.0
2025-01-22 11:58:36.807993	338.3	12.9	-67.0	0.0
2025-01-22 11:58:39.063056	338.4	12.7	-66.4	0.0
2025-01-22 11:58:41.316150	338.4	12.4	-66.2	0.0
2025-01-22 11:58:43.567367	338.5	12.2	-64.4	0.0
2025-01-22 11:58:45.821384	338.6	12.0	-65.9	0.0
2025-01-22 11:58:48.071841	338.7	11.8	-65.7	0.0
2025-01-22 11:58:50.323407	338.8	11.6	-70.1	0.0
2025-01-22 11:58:52.574495	338.9	11.4	-73.2	0.0
2025-01-22 11:58:54.827391	338.9	11.2	-64.9	0.0
2025-01-22 11:58:57.082734	339.0	11.0	-67.0	0.0
2025-01-22 11:58:59.334175	339.1	10.8	-71.9	0.0
2025-01-22 11:59:01.587095	339.2	10.6	-75.3	0.0
2025-01-22 11:59:03.840043	339.2	10.4	-78.1	0.0
2025-01-22 11:59:06.093419	339.3	10.2	-80.5	0.0
#Closed at: 2025-01-22 11:48:21.563646