passes_logs/2026/01/23/R2M6_AANII_01/R2M6_AANII_01__20260123_002506_SUOMI_NPP_rec.log

#Pass ID: 20260123_002506_SUOMI NPP
#Satellite: SUOMI NPP
#Configuration: NPP
#almurnet v.1.7.20240730
#Start time: 2026-01-23 00:25:07

#Version: 2.2.20231116
#Station: R2M6_AANII_01
#Location: 30.233357 lon 59.946436 lat
#TLE: 1 37849U 11061A   26022.50498765  .00000208  00000+0  11976-3 0  9992
#TLE: 2 37849  98.7820 324.4892 0002275  50.8149 309.3229 14.19528284737775

#Time	Az	El	Level	Level2	SNR	BER	BlckErr	Temp	State	Recorded	gain1	gain2
2026-01-23 00:25:07.51	18.20	7.06	-31.9	-38.9	4.4	1.41e+00	0	41	0	0	23	8013
2026-01-23 00:25:10.53	18.21	7.30	-31.0	-37.8	5.7	3.90e-01	0	42	0	1048576	23	7889
2026-01-23 00:25:13.53	18.22	7.53	-31.9	-38.4	5.8	3.72e-01	0	42	0	7340032	23	7595
2026-01-23 00:25:16.55	18.23	7.77	-31.7	-37.1	6.8	2.09e-01	0	42	0	12582912	23	6711
2026-01-23 00:25:19.56	18.25	8.01	-31.4	-36.1	8.0	6.60e-02	0	42	0	17825792	22	6198
2026-01-23 00:25:22.57	18.26	8.25	-31.6	-36.4	7.5	1.22e-01	0	42	0	24117248	23	6245
2026-01-23 00:25:25.59	18.27	8.49	-31.6	-36.4	7.5	1.11e-01	0	42	0	29360128	23	6271
2026-01-23 00:25:28.61	18.28	8.74	-31.6	-36.6	7.3	1.04e-01	0	42	0	35651584	23	6359
2026-01-23 00:25:31.60	18.29	8.99	-31.5	-35.8	8.0	7.20e-02	0	42	0	40894464	23	5903
2026-01-23 00:25:34.61	18.31	9.24	-30.9	-34.1	9.7	1.92e-02	0	42	0	46137344	22	5192
2026-01-23 00:25:37.62	18.32	9.49	-30.7	-33.7	10.4	7.72e-03	0	42	0	52428800	21	5108
2026-01-23 00:25:40.63	18.33	9.75	-30.8	-34.2	10.1	9.39e-03	0	42	0	57671680	21	5289
2026-01-23 00:25:43.63	18.34	10.01	-30.6	-33.3	10.7	3.26e-03	0	43	0	63963136	21	4937
2026-01-23 00:25:46.64	18.36	10.27	-30.5	-33.2	10.8	5.87e-03	0	43	0	69206016	21	4893
2026-01-23 00:25:49.63	18.37	10.53	-30.5	-33.1	10.9	5.31e-03	0	43	0	74448896	21	4863
2026-01-23 00:25:52.65	18.38	10.80	-30.3	-32.9	11.4	3.62e-03	0	43	0	80740352	20	4844
2026-01-23 00:25:55.65	18.39	11.07	-30.2	-32.7	11.6	3.22e-03	0	43	0	85983232	20	4778
2026-01-23 00:25:58.66	18.41	11.34	-30.3	-33.0	11.5	3.86e-03	0	43	0	91226112	20	4875
2026-01-23 00:26:01.67	18.42	11.62	-30.4	-33.1	11.3	3.75e-03	0	43	0	97517568	20	4944
2026-01-23 00:26:04.68	18.43	11.90	-30.6	-33.3	10.8	2.37e-03	0	43	0	102760448	21	4930
2026-01-23 00:26:07.69	18.44	12.18	-30.5	-33.0	11.1	4.58e-03	0	43	0	109051904	21	4799
2026-01-23 00:26:10.70	18.46	12.47	-30.4	-33.0	11.4	3.80e-03	0	43	0	114294784	20	4881
2026-01-23 00:26:13.71	18.47	12.76	-30.6	-33.3	10.9	4.91e-03	0	43	0	119537664	21	4897
2026-01-23 00:26:16.73	18.48	13.05	-30.0	-31.8	12.3	3.07e-03	0	43	0	125829120	20	4457
2026-01-23 00:26:19.74	18.49	13.35	-29.7	-31.5	13.0	3.58e-05	0	43	0	131072000	19	4427
2026-01-23 00:26:22.75	18.50	13.65	-29.6	-31.3	13.1	1.98e-05	0	43	0	136314880	19	4340
2026-01-23 00:26:25.76	18.52	13.96	-29.6	-31.1	13.3	1.37e-05	0	43	0	142606336	19	4281
2026-01-23 00:26:28.78	18.53	14.27	-29.3	-30.3	13.7	1.06e-05	0	43	0	147849216	19	4055
2026-01-23 00:26:31.80	18.54	14.58	-29.3	-30.9	13.8	3.80e-06	0	43	0	154140672	18	4330
2026-01-23 00:26:34.79	18.55	14.89	-29.3	-30.9	13.8	2.57e-03	0	43	0	159383552	18	4313
2026-01-23 00:26:37.81	18.57	15.21	-29.3	-30.9	13.8	3.00e-06	0	43	0	164626432	18	4301
2026-01-23 00:26:40.81	18.58	15.54	-29.4	-31.0	13.7	6.10e-06	0	43	0	170917888	18	4335
2026-01-23 00:26:43.83	18.59	15.87	-29.6	-31.1	13.4	2.44e-05	0	43	0	176160768	19	4269
2026-01-23 00:26:46.83	18.60	16.20	-29.4	-31.0	13.8	1.50e-06	0	43	0	182452224	18	4343
2026-01-23 00:26:49.84	18.61	16.54	-29.3	-30.8	13.9	3.00e-06	0	43	0	187695104	18	4269
2026-01-23 00:26:52.85	18.63	16.88	-29.3	-30.8	14.0	7.00e-07	0	43	0	192937984	18	4275
2026-01-23 00:26:55.84	18.64	17.23	-29.1	-30.2	14.3	1.50e-06	0	43	0	199229440	18	4103
2026-01-23 00:26:58.85	18.65	17.58	-29.2	-30.4	14.1	0.00e+00	0	44	0	204472320	18	4158
2026-01-23 00:27:01.87	18.66	17.94	-29.2	-30.4	14.3	7.00e-07	0	44	0	209715200	18	4165
2026-01-23 00:27:04.87	18.67	18.30	-29.3	-30.9	14.0	7.00e-07	0	43	0	216006656	18	4294
2026-01-23 00:27:07.88	18.69	18.67	-29.2	-30.6	14.1	1.50e-06	0	43	0	221249536	18	4214
2026-01-23 00:27:10.88	18.70	19.04	-29.3	-30.6	14.1	1.50e-06	0	43	0	227540992	18	4221
2026-01-23 00:27:13.89	18.71	19.43	-29.4	-30.9	14.0	3.80e-06	0	44	0	232783872	18	4304
2026-01-23 00:27:16.90	18.72	19.81	-29.6	-31.0	13.7	8.54e-05	0	43	0	238026752	19	4235
2026-01-23 00:27:19.91	18.74	20.20	-29.5	-30.7	13.8	5.79e-05	0	43	0	244318208	19	4140
2026-01-23 00:27:22.91	18.75	20.60	-29.5	-30.7	13.8	5.64e-05	0	43	0	249561088	19	4152
2026-01-23 00:27:25.91	18.76	21.00	-29.6	-31.1	13.6	9.10e-06	0	43	0	254803968	19	4260
2026-01-23 00:27:28.92	18.77	21.42	-29.8	-31.6	13.3	1.14e-05	0	44	0	261095424	19	4414
2026-01-23 00:27:31.93	18.78	21.84	-30.0	-31.7	12.8	8.01e-05	0	44	0	266338304	20	4378
2026-01-23 00:27:34.93	18.80	22.26	-30.0	-31.7	12.9	5.72e-05	0	43	0	272629760	20	4360
2026-01-23 00:27:37.94	18.81	22.69	-30.1	-31.9	12.7	5.03e-05	0	43	0	277872640	20	4416
2026-01-23 00:27:40.94	18.82	23.13	-30.3	-32.4	12.3	1.13e-04	0	44	0	283115520	20	4602
2026-01-23 00:27:43.94	18.83	23.58	-30.5	-32.6	11.9	2.98e-04	0	44	0	289406976	21	4570
2026-01-23 00:27:46.95	18.84	24.03	-30.7	-33.1	11.6	5.56e-04	0	44	0	294649856	21	4752
2026-01-23 00:27:49.95	18.86	24.50	-30.9	-33.1	11.3	2.19e-03	0	44	0	299892736	22	4662
2026-01-23 00:27:52.96	18.87	24.97	-30.5	-32.6	12.0	2.82e-04	0	44	0	306184192	21	4583
2026-01-23 00:27:55.97	18.88	25.45	-30.7	-33.0	11.7	3.95e-04	0	44	0	311427072	21	4699
2026-01-23 00:27:58.98	18.89	25.94	-30.8	-33.3	11.5	8.94e-04	0	44	0	317718528	21	4833
2026-01-23 00:28:01.98	18.90	26.44	-30.7	-32.6	11.7	9.31e-04	0	44	0	322961408	22	4478
2026-01-23 00:28:04.99	18.92	26.94	-30.6	-32.6	12.0	3.39e-04	0	44	0	328204288	21	4580
2026-01-23 00:28:08.00	18.93	27.46	-30.4	-32.3	12.3	2.68e-04	0	44	0	334495744	21	4449
2026-01-23 00:28:11.01	18.94	27.99	-30.8	-33.2	11.6	4.00e-04	0	44	0	339738624	21	4786
2026-01-23 00:28:14.02	18.95	28.53	-30.6	-32.7	12.0	2.99e-04	0	44	0	346030080	21	4599
2026-01-23 00:28:17.03	18.96	29.08	-30.3	-31.8	12.6	6.02e-05	0	44	0	351272960	21	4285
2026-01-23 00:28:20.04	18.98	29.64	-30.0	-31.5	13.3	2.28e-05	0	44	0	356515840	20	4271
2026-01-23 00:28:23.05	18.99	30.21	-29.8	-30.9	13.5	1.22e-05	0	44	0	362807296	20	4105
2026-01-23 00:28:26.07	19.00	30.80	-30.2	-32.0	13.0	4.95e-05	0	44	0	368050176	20	4436
2026-01-23 00:28:29.08	19.01	31.39	-30.2	-32.0	12.9	1.17e-04	0	44	0	373293056	20	4427
2026-01-23 00:28:32.10	19.03	32.00	-30.2	-32.0	12.8	5.11e-05	0	44	0	379584512	20	4431
2026-01-23 00:28:35.11	19.04	32.62	-30.6	-32.6	12.1	2.23e-04	0	44	0	384827392	21	4540
2026-01-23 00:28:38.11	19.05	33.25	-31.1	-33.6	11.2	1.34e-03	0	44	0	391118848	22	4789
2026-01-23 00:28:41.11	19.06	33.90	-30.8	-33.2	11.2	5.59e-04	0	44	0	396361728	21	4760
2026-01-23 00:28:44.12	19.07	34.56	-30.5	-32.4	12.2	1.66e-04	0	44	0	401604608	21	4478
2026-01-23 00:28:47.13	19.09	35.23	-30.3	-32.3	12.8	1.43e-04	0	44	0	407896064	20	4520
2026-01-23 00:28:50.14	19.10	35.92	-29.6	-30.9	14.1	5.30e-06	0	44	0	413138944	19	4173
2026-01-23 00:28:53.15	19.11	36.63	-29.1	-29.9	15.0	0.00e+00	0	44	0	418381824	18	3986
2026-01-23 00:28:56.16	19.12	37.35	-29.1	-30.1	14.9	0.00e+00	0	44	0	424673280	18	4029
2026-01-23 00:28:59.17	19.13	38.09	-28.7	-29.5	15.6	3.53e-04	0	44	0	429916160	17	3952
2026-01-23 00:29:02.17	19.15	38.84	-28.4	-29.3	16.0	1.75e-03	0	44	0	436207616	16	3996
2026-01-23 00:29:05.18	19.16	39.61	-28.9	-30.2	15.2	1.71e-03	0	44	0	441450496	17	4150
2026-01-23 00:29:08.18	19.17	40.39	-29.2	-30.3	14.8	1.79e-03	0	44	0	446693376	18	4080
2026-01-23 00:29:11.19	19.18	41.20	-29.5	-30.6	14.3	0.00e+00	0	44	0	452984832	19	4076
2026-01-23 00:29:14.21	19.20	42.03	-29.7	-31.0	14.1	2.20e-06	0	44	0	458227712	19	4201
2026-01-23 00:29:17.21	19.21	42.87	-29.7	-30.7	14.0	1.31e-03	0	44	0	464519168	20	4010
2026-01-23 00:29:20.22	19.22	43.73	-30.1	-31.5	13.4	1.25e-03	0	44	0	469762048	20	4269
2026-01-23 00:29:23.23	19.23	44.61	-30.2	-32.0	13.1	1.45e-03	0	44	0	475004928	20	4396
2026-01-23 00:29:26.24	19.25	45.51	-30.9	-33.4	11.8	2.02e-03	0	44	0	481296384	21	4813
2026-01-23 00:29:29.25	19.26	46.44	-31.0	-33.3	11.6	2.03e-03	0	44	0	486539264	22	4666
2026-01-23 00:29:32.26	19.27	47.38	-30.7	-32.9	12.2	1.50e-03	0	44	0	491782144	21	4620
2026-01-23 00:29:35.26	19.28	48.34	-30.9	-32.9	11.8	5.74e-04	0	44	0	498073600	22	4540
2026-01-23 00:29:38.26	19.30	49.33	-30.8	-33.0	12.3	1.32e-03	0	44	0	503316480	21	4643
2026-01-23 00:29:41.27	19.31	50.34	-30.5	-32.7	12.8	1.21e-03	0	44	0	509607936	20	4633
2026-01-23 00:29:44.27	19.32	51.37	-30.1	-31.5	13.5	1.57e-03	0	44	0	514850816	20	4258
2026-01-23 00:29:47.28	19.34	52.43	-29.1	-30.0	15.2	1.72e-03	0	44	0	520093696	18	3989
2026-01-23 00:29:50.28	19.35	53.50	-29.8	-31.3	14.0	0.00e+00	0	44	0	526385152	19	4283
2026-01-23 00:29:53.29	19.36	54.60	-29.8	-30.7	14.0	4.50e-06	0	44	0	531628032	20	4020
2026-01-23 00:29:56.30	19.38	55.73	-28.7	-29.1	15.7	0.00e+00	0	44	0	536870912	18	3752
2026-01-23 00:29:59.31	19.39	56.88	-28.0	-28.3	16.7	1.34e-03	0	44	0	543162368	16	3742
2026-01-23 00:30:02.30	19.41	58.05	-28.9	-30.0	15.5	1.36e-03	0	44	0	548405248	17	4078
2026-01-23 00:30:05.32	19.42	59.25	-29.3	-29.9	14.9	1.05e-03	0	44	0	554696704	19	3876
2026-01-23 00:30:08.33	19.44	60.48	-28.4	-28.8	16.2	0.00e+00	0	44	0	559939584	17	3749
2026-01-23 00:30:11.33	19.45	61.72	-27.6	-27.4	17.3	0.00e+00	0	44	0	565182464	16	3507
2026-01-23 00:30:14.34	19.47	62.99	-27.5	-27.7	17.2	0.00e+00	0	44	0	571473920	15	3692
2026-01-23 00:30:17.35	19.48	64.29	-28.4	-29.2	16.3	0.00e+00	0	44	0	576716800	16	3956
2026-01-23 00:30:20.36	19.50	65.60	-29.4	-30.5	14.9	0.00e+00	0	44	0	581959680	18	4129
2026-01-23 00:30:23.37	19.52	66.94	-30.4	-31.8	13.1	3.35e-05	0	44	0	588251136	21	4241
2026-01-23 00:30:26.38	19.54	68.31	-30.3	-31.4	13.5	7.60e-06	0	44	0	593494016	21	4109
2026-01-23 00:30:29.38	19.56	69.69	-31.0	-34.1	9.9	6.60e-03	0	44	0	599785472	24	5125
2026-01-23 00:30:32.39	19.58	71.09	-32.3	-36.3	8.8	8.67e-03	0	44	0	605028352	24	5696
2026-01-23 00:30:35.41	19.60	72.52	-32.1	-35.6	9.5	4.44e-02	0	44	0	610271232	24	5380
2026-01-23 00:30:38.43	19.62	73.97	-30.7	-32.8	12.6	2.25e-04	0	44	0	616562688	21	4538
2026-01-23 00:30:41.43	19.65	75.42	-30.7	-32.7	12.8	9.90e-06	0	44	0	621805568	21	4525
2026-01-23 00:30:44.44	19.68	76.90	-31.5	-34.0	11.1	1.50e-03	0	44	0	627048448	23	4802
2026-01-23 00:30:47.44	19.72	78.38	-31.2	-33.6	11.7	7.73e-04	0	44	0	633339904	22	4733
2026-01-23 00:30:50.45	19.76	79.89	-30.9	-32.7	12.4	6.25e-04	0	44	0	638582784	22	4416
2026-01-23 00:30:53.47	19.82	81.41	-31.7	-34.0	10.8	4.72e-03	0	44	0	644874240	24	4717
2026-01-23 00:30:56.47	19.90	82.93	-30.2	-31.3	13.7	6.80e-06	0	44	0	650117120	21	4051
2026-01-23 00:30:59.49	20.01	84.47	-30.1	-31.3	14.1	0.00e+00	0	44	0	655360000	20	4147
2026-01-23 00:31:02.49	20.20	86.01	-30.9	-33.0	12.6	5.84e-04	0	44	0	661651456	21	4592
2026-01-23 00:31:05.50	20.62	87.56	-32.3	-36.1	9.1	1.70e-02	0	44	0	666894336	24	5592
2026-01-23 00:31:08.52	22.48	89.11	-32.5	-36.4	8.7	2.83e-02	0	44	0	673185792	25	5647
2026-01-23 00:31:11.54	195.72	89.33	-33.9	-42.2	4.7	1.71e-01	0	44	0	678428672	27	9394
2026-01-23 00:31:14.55	198.43	87.78	-34.1	-45.1	3.8	1.49e+00	0	44	104	678428672	28	12852
2026-01-23 00:31:17.56	198.92	86.23	-31.3	-33.0	12.3	1.76e-03	0	44	0	678428672	23	4373
2026-01-23 00:31:20.57	199.13	84.69	-30.3	-31.3	14.0	6.10e-06	0	44	0	6291456	21	4047
2026-01-23 00:31:23.58	199.25	83.15	-31.5	-33.5	11.8	7.54e-04	0	44	0	11534336	23	4569
2026-01-23 00:31:26.59	199.33	81.62	-31.5	-34.1	11.9	6.71e-04	0	44	0	16777216	22	4857
2026-01-23 00:31:29.59	199.39	80.11	-31.7	-33.6	11.3	5.94e-03	0	44	0	23068672	24	4515
2026-01-23 00:31:32.59	199.44	78.61	-31.8	-34.0	11.1	4.47e-03	0	44	0	28311552	24	4644
2026-01-23 00:31:35.59	199.47	77.12	-32.7	-36.2	8.7	6.02e-02	0	44	0	33554432	26	5392
2026-01-23 00:31:38.59	199.51	75.64	-32.2	-34.9	10.0	1.55e-02	0	44	0	39845888	25	4929
2026-01-23 00:31:41.60	199.53	74.18	-31.8	-34.1	11.0	4.05e-03	0	44	0	45088768	24	4690
2026-01-23 00:31:44.62	199.56	72.72	-32.7	-37.1	8.3	3.75e-02	0	44	0	51380224	25	5964
2026-01-23 00:31:47.63	199.58	71.29	-32.5	-36.1	9.1	1.55e-02	0	44	0	56623104	25	5483
2026-01-23 00:31:50.64	199.60	69.88	-32.2	-34.9	10.0	2.97e-02	0	44	0	61865984	25	4933
2026-01-23 00:31:53.66	199.62	68.49	-30.4	-31.5	13.6	4.50e-06	0	44	0	68157440	21	4111
2026-01-23 00:31:56.67	199.64	67.12	-31.3	-33.6	12.1	4.42e-04	0	44	0	73400320	22	4691
2026-01-23 00:31:59.69	199.66	65.77	-30.9	-32.4	12.7	1.44e-04	0	44	0	78643200	22	4295
2026-01-23 00:32:02.70	199.67	64.45	-30.3	-32.0	13.7	3.80e-06	0	44	0	84934656	20	4345
2026-01-23 00:32:05.71	199.69	63.15	-30.6	-31.6	13.3	6.86e-05	0	44	0	90177536	22	4035
2026-01-23 00:32:08.72	199.70	61.87	-29.8	-31.1	14.6	1.50e-06	0	44	0	96468992	19	4160
2026-01-23 00:32:11.72	199.72	60.62	-32.3	-35.9	9.5	1.41e-02	0	44	0	101711872	24	5467
2026-01-23 00:32:14.73	199.73	59.39	-29.6	-30.1	14.8	0.00e+00	0	44	0	106954752	20	3823
2026-01-23 00:32:17.75	199.75	58.18	-28.3	-28.4	16.7	0.00e+00	0	44	0	113246208	17	3648
2026-01-23 00:32:20.75	199.76	57.00	-28.5	-28.5	16.3	7.00e-07	0	44	0	118489088	18	3588
2026-01-23 00:32:23.77	199.77	55.84	-28.1	-27.9	16.9	1.50e-06	0	44	0	124780544	17	3533
2026-01-23 00:32:26.77	199.79	54.71	-30.3	-32.0	13.6	0.00e+00	0	44	0	130023424	20	4368
2026-01-23 00:32:29.76	199.80	53.61	-30.1	-30.9	13.8	1.67e-05	0	44	0	135266304	21	3957
2026-01-23 00:32:32.78	199.81	52.52	-31.0	-32.9	12.3	1.28e-04	0	44	0	141557760	22	4491
2026-01-23 00:32:35.79	199.83	51.46	-31.0	-32.3	12.3	9.83e-04	0	44	0	146800640	23	4215
2026-01-23 00:32:38.80	199.84	50.42	-30.4	-31.8	13.4	6.80e-06	0	44	0	152043520	21	4214
2026-01-23 00:32:41.81	199.85	49.40	-29.5	-29.9	14.8	0.00e+00	0	44	0	158334976	20	3767
2026-01-23 00:32:44.81	199.86	48.41	-32.0	-35.1	9.7	1.07e-02	0	44	0	163577856	24	5159
2026-01-23 00:32:47.82	199.88	47.44	-29.0	-29.1	15.6	0.00e+00	0	44	0	169869312	19	3653
2026-01-23 00:32:50.84	199.89	46.48	-29.5	-30.5	14.8	0.00e+00	0	44	0	175112192	19	4006
2026-01-23 00:32:53.85	199.90	45.55	-31.7	-34.8	10.6	1.87e-03	0	44	0	180355072	23	5113
2026-01-23 00:32:56.86	199.91	44.65	-30.8	-32.0	12.4	1.29e-03	0	44	0	186646528	23	4099
2026-01-23 00:32:59.87	199.92	43.76	-30.6	-32.3	12.9	2.97e-05	0	44	0	191889408	21	4369
2026-01-23 00:33:02.89	199.93	42.89	-31.8	-35.0	10.3	3.97e-03	0	44	0	198180864	23	5216
2026-01-23 00:33:05.90	199.95	42.04	-32.4	-37.1	8.2	4.21e-02	0	44	0	203423744	24	6170
2026-01-23 00:33:08.92	199.96	41.21	-32.3	-35.8	8.9	2.00e-02	0	44	0	208666624	25	5407
2026-01-23 00:33:11.93	199.97	40.40	-30.4	-31.8	13.3	9.90e-06	0	44	0	214958080	21	4219
2026-01-23 00:33:14.93	199.98	39.61	-31.4	-34.2	11.2	1.97e-04	0	44	0	220200960	22	4986
2026-01-23 00:33:17.93	199.99	38.84	-32.3	-36.6	8.6	1.61e-02	0	44	0	225443840	24	5893
2026-01-23 00:33:20.95	200.00	38.08	-32.1	-35.6	9.3	1.74e-02	0	44	0	231735296	24	5421
2026-01-23 00:33:23.96	200.01	37.34	-31.8	-34.6	10.1	1.11e-02	0	44	0	236978176	24	4995
2026-01-23 00:33:26.97	200.03	36.61	-31.4	-33.2	11.1	2.47e-03	0	44	0	243269632	24	4444
2026-01-23 00:33:29.98	200.04	35.90	-31.2	-33.6	11.5	7.19e-04	0	44	0	248512512	22	4770
2026-01-23 00:33:32.98	200.05	35.21	-30.9	-32.8	12.2	3.86e-04	0	44	0	253755392	22	4473
2026-01-23 00:33:36.00	200.06	34.53	-32.5	-36.9	7.9	3.85e-02	0	44	0	260046848	25	5995
2026-01-23 00:33:39.00	200.07	33.87	-33.1	-39.8	5.6	5.17e-01	0	44	0	265289728	26	7735
2026-01-23 00:33:42.01	200.08	33.22	-31.8	-34.6	10.1	1.77e-02	0	44	0	270532608	24	4967
2026-01-23 00:33:45.02	200.09	32.58	-30.9	-32.9	12.0	5.34e-04	0	44	0	276824064	22	4510
2026-01-23 00:33:48.02	200.10	31.96	-31.4	-34.4	10.9	1.56e-03	0	44	0	282066944	22	5070
2026-01-23 00:33:51.03	200.11	31.35	-31.5	-34.2	10.6	5.82e-03	0	44	0	288358400	23	4900
2026-01-23 00:33:54.04	200.12	30.75	-31.8	-35.2	10.0	7.84e-03	0	44	0	293601280	23	5314
2026-01-23 00:33:57.04	200.13	30.16	-31.4	-35.8	8.4	3.86e-02	0	44	0	298844160	24	6010
2026-01-23 00:34:00.05	200.14	29.59	-33.0	-39.8	5.7	3.56e-01	0	44	0	305135616	25	7863
2026-01-23 00:34:03.05	200.16	29.03	-32.7	-38.3	6.7	2.31e-01	0	44	0	310378496	25	6856
2026-01-23 00:34:06.06	200.17	28.48	-32.0	-35.7	9.0	7.00e-02	0	44	0	315621376	24	5511
2026-01-23 00:34:09.06	200.18	27.94	-30.4	-31.9	12.7	1.78e-04	0	44	0	321912832	21	4315
2026-01-23 00:34:12.07	200.19	27.41	-29.9	-31.7	13.7	3.80e-06	0	44	0	327155712	19	4391
2026-01-23 00:34:15.09	200.20	26.88	-29.7	-31.0	14.1	7.00e-07	0	44	0	333447168	19	4190
2026-01-23 00:34:18.10	200.21	26.37	-29.3	-30.6	14.6	2.23e-03	0	44	0	338690048	18	4167
2026-01-23 00:34:21.10	200.22	25.87	-29.6	-30.7	14.3	2.46e-03	0	44	0	343932928	19	4104
2026-01-23 00:34:24.12	200.23	25.38	-29.8	-31.4	13.8	2.36e-03	0	44	0	350224384	19	4321
2026-01-23 00:34:27.13	200.24	24.89	-30.2	-31.9	13.1	2.24e-03	0	44	0	355467264	20	4380
2026-01-23 00:34:30.14	200.25	24.42	-30.1	-31.7	13.2	3.28e-05	0	44	0	361758720	20	4326
2026-01-23 00:34:33.15	200.26	23.95	-30.0	-31.6	13.3	7.60e-06	0	44	0	367001600	20	4300
2026-01-23 00:34:36.16	200.27	23.50	-30.0	-31.4	13.4	2.10e-03	0	44	0	372244480	20	4224
2026-01-23 00:34:39.18	200.28	23.04	-30.2	-32.0	12.9	2.21e-03	0	44	0	378535936	20	4442
2026-01-23 00:34:42.18	200.29	22.60	-30.4	-32.5	12.8	2.04e-03	0	44	0	383778816	20	4584
2026-01-23 00:34:45.20	200.30	22.17	-29.8	-31.3	13.8	1.67e-03	0	44	0	389021696	19	4296
2026-01-23 00:34:48.21	200.31	21.74	-29.3	-30.5	14.6	1.75e-03	0	44	0	395313152	18	4146
2026-01-23 00:34:51.22	200.32	21.32	-29.0	-29.7	15.0	6.10e-06	0	44	0	400556032	18	3927
2026-01-23 00:34:54.23	200.33	20.91	-28.9	-29.7	15.1	9.10e-06	0	44	0	406847488	18	3927
2026-01-23 00:34:57.24	200.34	20.50	-29.3	-30.6	14.4	1.02e-03	0	44	0	412090368	18	4178
2026-01-23 00:35:00.24	200.35	20.10	-29.4	-30.9	14.3	5.42e-04	0	44	0	417333248	18	4272
2026-01-23 00:35:03.25	200.36	19.71	-29.5	-30.6	14.2	3.49e-04	0	44	0	423624704	19	4090
2026-01-23 00:35:06.27	200.37	19.32	-29.5	-30.7	14.1	2.04e-04	0	44	0	428867584	19	4125
2026-01-23 00:35:09.28	200.38	18.94	-29.7	-31.1	13.8	7.60e-06	0	44	0	435159040	19	4253
2026-01-23 00:35:12.29	200.39	18.56	-30.2	-32.0	12.8	3.73e-05	0	44	0	440401920	20	4453
2026-01-23 00:35:15.29	200.40	18.19	-30.6	-32.7	12.0	2.33e-04	0	44	0	445644800	21	4590
2026-01-23 00:35:18.31	200.41	17.82	-30.8	-33.5	11.4	6.74e-04	0	44	0	451936256	21	4894
2026-01-23 00:35:21.32	200.42	17.46	-30.8	-33.5	11.4	1.01e-03	0	44	0	457179136	21	4896
2026-01-23 00:35:24.32	200.43	17.11	-30.9	-33.1	11.2	9.72e-04	0	44	0	462422016	22	4667
2026-01-23 00:35:27.33	200.44	16.76	-30.4	-32.2	12.2	2.09e-04	0	44	0	468713472	21	4441
2026-01-23 00:35:30.32	200.45	16.42	-30.2	-32.0	12.7	6.40e-05	0	44	0	473956352	20	4458
2026-01-23 00:35:33.33	200.46	16.08	-30.1	-31.8	12.9	5.03e-05	0	44	0	480247808	20	4375
2026-01-23 00:35:36.34	200.47	15.75	-30.1	-31.8	12.8	7.47e-05	0	44	0	485490688	20	4402
2026-01-23 00:35:39.35	200.48	15.42	-30.3	-32.4	12.4	1.26e-04	0	44	0	490733568	20	4596
2026-01-23 00:35:42.36	200.49	15.09	-30.8	-33.3	11.5	9.64e-04	0	44	0	497025024	21	4825
2026-01-23 00:35:45.37	200.50	14.77	-30.9	-33.7	11.2	1.32e-03	0	44	0	502267904	21	4976
2026-01-23 00:35:48.37	200.51	14.45	-31.1	-33.9	10.6	5.27e-03	0	44	0	507510784	22	4987
2026-01-23 00:35:51.37	200.52	14.14	-31.4	-34.9	10.0	5.71e-03	0	44	0	513802240	22	5380
2026-01-23 00:35:54.38	200.53	13.83	-31.3	-34.5	10.2	5.15e-03	0	44	0	519045120	22	5237
2026-01-23 00:35:57.40	200.54	13.52	-31.2	-34.2	10.4	3.75e-03	0	44	0	525336576	22	5098
2026-01-23 00:36:00.41	200.55	13.22	-31.1	-34.1	10.4	3.97e-03	0	44	0	530579456	22	5075
2026-01-23 00:36:03.42	200.56	12.92	-31.1	-34.1	10.4	7.30e-03	0	44	0	535822336	22	5087
2026-01-23 00:36:06.42	200.57	12.63	-30.9	-34.0	10.8	5.11e-03	0	44	0	542113792	21	5111
2026-01-23 00:36:09.43	200.58	12.34	-30.9	-33.8	10.9	4.81e-03	0	44	0	547356672	21	5066
2026-01-23 00:36:12.44	200.59	12.05	-30.9	-34.0	10.7	4.72e-03	0	44	0	552599552	21	5136
2026-01-23 00:36:15.44	200.60	11.77	-30.7	-33.3	11.2	1.58e-03	0	44	0	558891008	21	4854
2026-01-23 00:36:18.45	200.61	11.49	-30.6	-33.0	11.5	1.37e-03	0	44	0	564133888	21	4744
2026-01-23 00:36:21.45	200.62	11.21	-30.7	-33.2	11.3	3.17e-03	0	44	0	570425344	21	4819
2026-01-23 00:36:24.47	200.63	10.94	-30.6	-33.1	11.3	3.73e-03	0	44	0	575668224	21	4809
2026-01-23 00:36:27.48	200.64	10.66	-30.6	-32.9	11.4	3.25e-03	0	44	0	580911104	21	4738
2026-01-23 00:36:30.50	200.65	10.40	-30.6	-33.2	11.2	3.04e-03	0	44	0	587202560	21	4833
2026-01-23 00:36:33.51	200.66	10.13	-30.5	-32.7	11.6	3.48e-03	0	44	0	592445440	21	4661
2026-01-23 00:36:36.51	200.67	9.87	-30.6	-33.2	11.1	4.32e-03	0	44	0	597688320	21	4840
2026-01-23 00:36:39.52	200.68	9.61	-30.4	-32.6	11.5	9.31e-04	0	44	0	603979776	21	4614
2026-01-23 00:36:42.53	200.69	9.35	-30.5	-32.9	11.3	3.61e-03	0	44	0	609222656	21	4727
2026-01-23 00:36:45.54	200.70	9.10	-30.5	-32.7	11.4	3.64e-03	0	44	0	615514112	21	4675
2026-01-23 00:36:48.55	200.71	8.84	-30.6	-33.2	11.0	3.60e-03	0	44	0	620756992	21	4861
2026-01-23 00:36:51.54	200.72	8.60	-30.6	-33.2	11.0	4.61e-03	0	44	0	625999872	21	4865
2026-01-23 00:36:54.54	200.73	8.35	-30.6	-33.3	10.9	2.12e-03	0	44	0	632291328	21	4922
2026-01-23 00:36:57.55	200.74	8.11	-30.7	-33.4	10.8	2.68e-03	0	44	0	637534208	21	4951
2026-01-23 00:37:00.55	200.75	7.86	-30.7	-33.6	10.7	2.93e-03	0	44	0	642777088	21	5017
2026-01-23 00:37:03.57	200.76	7.62	-30.7	-33.6	10.6	3.86e-03	0	44	0	649068544	21	5046
2026-01-23 00:37:06.58	200.77	7.39	-30.6	-33.4	10.7	5.52e-03	0	44	0	654311424	21	4962
2026-01-23 00:37:09.59	200.78	7.15	-30.6	-33.5	10.6	6.36e-03	0	44	0	660602880	21	5021

#Closed at: 2026-01-23 00:37:12
#Recorded file [661 MB]: D:/data/31010_260123_033117.dat