passes_logs/2026/01/23/R2M6_AANII_01/R2M6_AANII_01__20260123_125556_FENGYUN_3D_rec.log

#Pass ID: 20260123_125556_FENGYUN 3D
#Satellite: FENGYUN 3D
#Configuration: FENGYUN 3D
#almurnet v.1.7.20240730
#Start time: 2026-01-23 12:55:57

#Version: 2.2.20231116
#Station: R2M6_AANII_01
#Location: 30.233357 lon 59.946436 lat
#TLE: 1 43010U 17072A   26022.96745493  .00000490  00000+0  25355-3 0  9999
#TLE: 2 43010  98.9955 354.9072 0002484  95.6139 264.5320 14.19700039424383

#Time	Az	El	Level	Level2	SNR	BER	BlckErr	Temp	State	Recorded	gain1	gain2
2026-01-23 12:55:57.59	177.40	7.06	-27.8	-30.3	5.7	7.72e-01	0	41	0	0	15	4801
2026-01-23 12:56:00.59	177.51	7.29	-28.6	-30.6	11.7	6.44e-04	0	41	102	1048576	18	4521
2026-01-23 12:56:03.60	177.63	7.52	-27.4	-28.6	13.6	4.50e-06	0	41	102	1048576	16	4163
2026-01-23 12:56:06.62	177.74	7.76	-26.7	-28.1	14.3	2.20e-06	0	41	102	1048576	14	4233
2026-01-23 12:56:09.63	177.86	7.99	-26.7	-28.0	14.4	0.00e+00	0	41	102	1048576	14	4208
2026-01-23 12:56:12.64	177.97	8.23	-26.7	-28.1	14.4	0.00e+00	0	41	102	1048576	14	4232
2026-01-23 12:56:15.66	178.09	8.47	-26.9	-28.6	14.1	1.02e-05	0	41	102	1048576	14	4363
2026-01-23 12:56:18.67	178.21	8.71	-26.3	-27.2	14.9	1.14e-05	0	42	102	1048576	14	3985
2026-01-23 12:56:21.68	178.34	8.96	-26.3	-27.7	14.9	0.00e+00	0	42	102	1048576	13	4217
2026-01-23 12:56:24.70	178.46	9.20	-26.2	-27.5	15.0	8.00e-06	0	42	102	1048576	13	4186
2026-01-23 12:56:27.71	178.59	9.45	-26.2	-27.4	15.1	8.00e-06	0	42	102	1048576	13	4145
2026-01-23 12:56:30.73	178.72	9.71	-26.1	-27.2	15.3	6.80e-06	0	42	102	1048576	13	4082
2026-01-23 12:56:33.74	178.85	9.96	-26.1	-27.2	15.3	0.00e+00	0	42	102	1048576	13	4078
2026-01-23 12:56:36.75	178.98	10.22	-26.2	-27.4	15.2	0.00e+00	0	42	102	1048576	13	4142
2026-01-23 12:56:39.76	179.11	10.47	-26.2	-27.4	15.2	5.70e-06	0	42	102	1048576	13	4145
2026-01-23 12:56:42.78	179.25	10.74	-26.4	-28.0	14.9	0.00e+00	0	42	102	1048576	13	4291
2026-01-23 12:56:45.79	179.39	11.00	-26.2	-27.4	15.3	0.00e+00	0	42	102	1048576	13	4130
2026-01-23 12:56:48.80	179.53	11.27	-26.2	-27.4	15.2	0.00e+00	0	42	102	1048576	13	4149
2026-01-23 12:56:51.80	179.68	11.54	-26.0	-27.0	15.5	0.00e+00	0	42	102	1048576	13	4042
2026-01-23 12:56:54.81	179.82	11.81	-26.1	-27.1	15.5	0.00e+00	0	42	102	1048576	13	4062
2026-01-23 12:56:57.82	179.97	12.08	-26.0	-27.0	15.5	0.00e+00	0	42	102	1048576	13	4024
2026-01-23 12:57:00.83	180.13	12.36	-26.0	-26.9	15.6	0.00e+00	0	42	102	1048576	13	4008
2026-01-23 12:57:03.85	180.28	12.64	-25.8	-26.6	15.8	0.00e+00	0	42	102	1048576	13	3933
2026-01-23 12:57:06.87	180.44	12.93	-25.7	-26.7	16.0	0.00e+00	0	42	102	1048576	12	4054
2026-01-23 12:57:09.88	180.60	13.22	-25.5	-26.4	16.2	0.00e+00	0	42	102	1048576	12	3991
2026-01-23 12:57:12.90	180.76	13.51	-25.5	-26.4	16.2	0.00e+00	0	42	102	1048576	12	3981
2026-01-23 12:57:15.91	180.93	13.80	-25.6	-26.7	16.1	0.00e+00	0	42	102	1048576	12	4060
2026-01-23 12:57:18.91	181.10	14.10	-25.6	-26.6	16.1	0.00e+00	0	42	102	1048576	12	4036
2026-01-23 12:57:21.92	181.27	14.40	-25.6	-26.5	16.2	0.00e+00	0	42	102	1048576	12	4015
2026-01-23 12:57:24.93	181.45	14.71	-25.8	-26.9	16.0	0.00e+00	0	43	102	1048576	12	4119
2026-01-23 12:57:27.95	181.63	15.01	-25.2	-26.2	16.7	0.00e+00	0	43	102	1048576	11	4052
2026-01-23 12:57:30.96	181.81	15.33	-25.2	-26.1	16.8	0.00e+00	0	43	102	1048576	11	4021
2026-01-23 12:57:33.96	182.00	15.64	-25.1	-25.9	16.9	0.00e+00	0	43	102	1048576	11	3953
2026-01-23 12:57:36.98	182.19	15.96	-24.9	-25.5	17.1	0.00e+00	0	43	102	1048576	11	3876
2026-01-23 12:57:40.00	182.38	16.29	-24.7	-25.6	17.4	0.00e+00	0	43	102	1048576	10	3985
2026-01-23 12:57:43.01	182.58	16.62	-24.6	-25.3	17.5	0.00e+00	0	43	102	1048576	10	3931
2026-01-23 12:57:46.02	182.79	16.95	-24.6	-25.4	17.5	0.00e+00	0	43	102	1048576	10	3947
2026-01-23 12:57:49.04	182.99	17.28	-24.6	-25.4	17.5	0.00e+00	0	43	102	1048576	10	3941
2026-01-23 12:57:52.05	183.20	17.62	-24.5	-25.2	17.6	0.00e+00	0	43	102	1048576	10	3897
2026-01-23 12:57:55.07	183.42	17.97	-24.6	-25.4	17.5	0.00e+00	0	43	102	1048576	10	3949
2026-01-23 12:57:58.09	183.64	18.32	-24.2	-25.0	17.9	0.00e+00	0	43	102	1048576	9	3967
2026-01-23 12:58:01.10	183.87	18.68	-24.4	-25.6	17.7	0.00e+00	0	43	102	1048576	9	4091
2026-01-23 12:58:04.11	184.10	19.03	-24.3	-25.2	17.9	0.00e+00	0	43	102	1048576	9	4003
2026-01-23 12:58:07.11	184.34	19.40	-24.2	-25.1	17.9	0.00e+00	0	43	102	1048576	9	3991
2026-01-23 12:58:10.12	184.58	19.77	-24.2	-25.1	18.0	0.00e+00	0	43	102	1048576	9	3979
2026-01-23 12:58:13.14	184.83	20.14	-24.3	-25.4	17.9	0.00e+00	0	43	102	1048576	9	4044
2026-01-23 12:58:16.14	185.08	20.52	-24.3	-25.3	17.9	0.00e+00	0	43	102	1048576	9	4037
2026-01-23 12:58:19.15	185.34	20.90	-24.5	-25.8	17.6	0.00e+00	0	43	102	1048576	9	4156
2026-01-23 12:58:22.15	185.60	21.29	-24.1	-24.7	18.2	0.00e+00	0	43	102	1048576	9	3897
2026-01-23 12:58:25.17	185.88	21.69	-23.9	-24.4	18.4	0.00e+00	0	43	102	1048576	9	3822
2026-01-23 12:58:28.19	186.16	22.09	-23.6	-24.3	18.7	0.00e+00	0	43	102	1048576	8	3895
2026-01-23 12:58:31.20	186.44	22.50	-23.5	-24.1	18.8	0.00e+00	0	43	102	1048576	8	3852
2026-01-23 12:58:34.22	186.74	22.91	-23.6	-24.2	18.8	0.00e+00	0	43	102	1048576	8	3877
2026-01-23 12:58:37.23	187.04	23.33	-23.7	-24.5	18.6	0.00e+00	0	43	102	1048576	8	3951
2026-01-23 12:58:40.25	187.35	23.75	-23.6	-24.3	18.7	0.00e+00	0	43	102	1048576	8	3901
2026-01-23 12:58:43.25	187.66	24.18	-23.5	-24.1	18.9	0.00e+00	0	43	102	1048576	8	3842
2026-01-23 12:58:46.26	187.99	24.62	-23.3	-23.7	19.1	0.00e+00	0	43	102	1048576	8	3748
2026-01-23 12:58:49.27	188.32	25.06	-23.3	-23.6	19.1	0.00e+00	0	43	102	1048576	8	3732
2026-01-23 12:58:52.28	188.67	25.51	-23.2	-24.0	19.2	0.00e+00	0	43	102	1048576	7	3920
2026-01-23 12:58:55.29	189.02	25.97	-23.3	-24.0	19.1	0.00e+00	0	43	102	1048576	7	3926
2026-01-23 12:58:58.31	189.38	26.43	-23.4	-24.3	19.1	0.00e+00	0	43	102	1048576	7	3994
2026-01-23 12:59:01.32	189.76	26.90	-23.4	-24.2	19.1	0.00e+00	0	43	102	1048576	7	3985
2026-01-23 12:59:04.34	190.15	27.38	-23.3	-24.1	19.2	0.00e+00	0	43	102	1048576	7	3944
2026-01-23 12:59:07.35	190.54	27.87	-23.2	-23.9	19.3	0.00e+00	0	43	102	1048576	7	3904
2026-01-23 12:59:10.37	190.95	28.36	-23.1	-23.8	19.4	0.00e+00	0	43	102	1048576	7	3874
2026-01-23 12:59:13.37	191.37	28.86	-23.2	-23.9	19.3	0.00e+00	0	43	102	1048576	7	3897
2026-01-23 12:59:16.38	191.80	29.36	-23.1	-23.7	19.4	0.00e+00	0	43	102	1048576	7	3851
2026-01-23 12:59:19.39	192.25	29.88	-23.2	-23.9	19.3	0.00e+00	0	43	102	1048576	7	3896
2026-01-23 12:59:22.40	192.71	30.40	-23.2	-23.9	19.3	0.00e+00	0	43	102	1048576	7	3893
2026-01-23 12:59:25.42	193.19	30.93	-23.4	-24.2	19.2	0.00e+00	0	43	102	1048576	7	3981
2026-01-23 12:59:28.43	193.68	31.46	-23.2	-23.9	19.3	0.00e+00	0	43	102	1048576	7	3894
2026-01-23 12:59:31.44	194.19	32.01	-23.0	-23.5	19.6	0.00e+00	0	43	102	1048576	7	3806
2026-01-23 12:59:34.45	194.71	32.56	-23.0	-23.5	19.5	0.00e+00	0	43	102	1048576	7	3804
2026-01-23 12:59:37.48	195.26	33.12	-23.1	-23.6	19.5	0.00e+00	0	43	102	1048576	7	3835
2026-01-23 12:59:40.50	195.82	33.69	-23.3	-24.1	19.3	0.00e+00	0	43	102	1048576	7	3946
2026-01-23 12:59:43.51	196.41	34.27	-23.0	-23.4	19.6	0.00e+00	0	43	102	1048576	7	3796
2026-01-23 12:59:46.51	197.00	34.85	-23.0	-23.5	19.5	0.00e+00	0	43	102	1048576	7	3817
2026-01-23 12:59:49.53	197.63	35.44	-22.8	-23.2	19.7	0.00e+00	0	43	102	1048576	7	3734
2026-01-23 12:59:52.55	198.28	36.03	-22.8	-23.0	19.8	0.00e+00	0	43	102	1048576	7	3705
2026-01-23 12:59:55.56	198.95	36.64	-22.8	-23.5	19.8	0.00e+00	0	43	102	1048576	6	3915
2026-01-23 12:59:58.57	199.64	37.25	-22.6	-23.2	20.0	0.00e+00	0	43	102	1048576	6	3847
2026-01-23 13:00:01.57	200.36	37.86	-22.8	-23.5	19.8	0.00e+00	0	43	102	1048576	6	3921
2026-01-23 13:00:04.58	201.11	38.49	-22.9	-23.7	19.8	0.00e+00	0	43	102	1048576	6	3959
2026-01-23 13:00:07.59	201.88	39.12	-22.6	-23.1	20.1	0.00e+00	0	43	102	1048576	6	3813
2026-01-23 13:00:10.60	202.69	39.75	-22.7	-23.3	20.0	0.00e+00	0	43	102	1048576	6	3868
2026-01-23 13:00:13.62	203.53	40.39	-22.6	-23.1	20.1	0.00e+00	0	43	102	1048576	6	3824
2026-01-23 13:00:16.62	204.40	41.03	-22.6	-23.1	20.1	0.00e+00	0	43	102	1048576	6	3815
2026-01-23 13:00:19.63	205.31	41.68	-23.2	-24.3	19.5	0.00e+00	0	43	102	1048576	6	4104
2026-01-23 13:00:22.64	206.25	42.34	-23.2	-24.4	19.5	0.00e+00	0	43	102	1048576	6	4117
2026-01-23 13:00:25.65	207.23	42.99	-23.1	-24.2	19.6	0.00e+00	0	43	102	1048576	6	4077
2026-01-23 13:00:28.66	208.25	43.65	-22.8	-23.4	20.0	0.00e+00	0	43	102	1048576	6	3894
2026-01-23 13:00:31.67	209.32	44.30	-23.2	-24.4	19.5	0.00e+00	0	43	102	1048576	6	4119
2026-01-23 13:00:34.68	210.43	44.96	-23.0	-24.1	19.7	0.00e+00	0	43	102	1048576	6	4050
2026-01-23 13:00:37.69	211.58	45.62	-22.9	-23.8	19.8	0.00e+00	0	43	102	1048576	6	3988
2026-01-23 13:00:40.70	212.79	46.27	-23.2	-24.4	19.7	0.00e+00	0	43	102	1048576	6	4111
2026-01-23 13:00:43.71	214.04	46.92	-23.1	-23.6	19.9	0.00e+00	0	43	102	1048576	7	3816
2026-01-23 13:00:46.72	215.34	47.57	-23.5	-24.5	19.4	0.00e+00	0	43	102	1048576	7	4029
2026-01-23 13:00:49.72	216.70	48.20	-23.7	-24.9	19.3	0.00e+00	0	43	102	1048576	7	4117
2026-01-23 13:00:52.73	218.12	48.83	-23.9	-25.2	19.1	0.00e+00	0	43	102	1048576	7	4196
2026-01-23 13:00:55.75	219.60	49.45	-23.9	-24.9	19.1	0.00e+00	0	43	102	1048576	8	4010
2026-01-23 13:00:58.76	221.13	50.06	-24.0	-24.9	19.1	0.00e+00	0	43	102	1048576	8	4006
2026-01-23 13:01:01.76	222.72	50.65	-23.4	-23.7	19.7	0.00e+00	0	43	102	1048576	8	3730
2026-01-23 13:01:04.77	224.38	51.23	-23.7	-24.3	19.4	0.00e+00	0	43	102	1048576	8	3862
2026-01-23 13:01:07.78	226.10	51.78	-23.6	-24.2	19.5	0.00e+00	0	43	102	1048576	8	3839
2026-01-23 13:01:10.79	227.88	52.32	-23.4	-24.1	19.7	0.00e+00	0	43	102	1048576	7	3938
2026-01-23 13:01:13.81	229.74	52.83	-23.6	-24.7	19.4	0.00e+00	0	43	102	1048576	7	4076
2026-01-23 13:01:16.82	231.65	53.32	-23.6	-24.7	19.4	0.00e+00	0	43	102	1048576	7	4079
2026-01-23 13:01:19.83	233.62	53.78	-23.8	-25.0	19.3	0.00e+00	0	43	102	1048576	7	4154
2026-01-23 13:01:22.84	235.66	54.21	-23.6	-24.7	19.4	0.00e+00	0	43	102	1048576	7	4065
2026-01-23 13:01:25.85	237.75	54.60	-24.0	-25.5	19.0	0.00e+00	0	43	102	1048576	7	4267
2026-01-23 13:01:28.86	239.90	54.96	-23.9	-24.7	19.2	0.00e+00	0	43	102	1048576	8	3962
2026-01-23 13:01:31.87	242.10	55.28	-23.9	-24.9	19.2	0.00e+00	0	43	102	1048576	8	4000
2026-01-23 13:01:34.89	244.35	55.56	-24.1	-25.1	19.0	0.00e+00	0	43	102	1048576	8	4074
2026-01-23 13:01:37.90	246.64	55.79	-24.0	-25.0	19.1	0.00e+00	0	43	102	1048576	8	4032
2026-01-23 13:01:40.91	248.97	55.99	-24.1	-25.2	19.0	0.00e+00	0	43	102	1048576	8	4074
2026-01-23 13:01:43.92	251.32	56.13	-24.7	-26.0	18.3	0.00e+00	0	43	102	1048576	9	4181
2026-01-23 13:01:46.93	253.69	56.23	-24.2	-25.0	18.9	0.00e+00	0	43	102	1048576	9	3919
2026-01-23 13:01:49.94	256.07	56.29	-24.3	-25.2	18.8	0.00e+00	0	43	102	1048576	9	3962
2026-01-23 13:01:52.95	258.46	56.29	-23.8	-24.0	19.3	2.20e-06	0	43	102	1048576	9	3694
2026-01-23 13:01:55.97	260.86	56.25	-24.0	-25.1	19.1	0.00e+00	0	43	102	1048576	8	4059
2026-01-23 13:01:58.99	263.24	56.16	-24.0	-25.0	19.1	0.00e+00	0	43	102	1048576	8	4030
2026-01-23 13:02:02.00	265.60	56.03	-24.0	-25.0	19.1	4.50e-06	0	43	102	1048576	8	4035
2026-01-23 13:02:05.01	267.93	55.85	-23.7	-24.4	19.4	1.10e-06	0	43	102	1048576	8	3886
2026-01-23 13:02:08.03	270.23	55.62	-24.6	-25.8	18.4	3.40e-06	0	43	102	1048576	9	4131
2026-01-23 13:02:11.04	272.49	55.35	-23.8	-24.1	19.3	0.00e+00	0	43	102	1048576	9	3705
2026-01-23 13:02:14.06	274.71	55.04	-24.2	-25.0	18.9	0.00e+00	0	43	102	1048576	9	3914
2026-01-23 13:02:17.07	276.87	54.70	-24.4	-25.4	18.6	0.00e+00	0	44	102	1048576	9	4019
2026-01-23 13:02:20.09	278.98	54.31	-24.5	-25.5	18.6	0.00e+00	0	43	102	1048576	9	4043
2026-01-23 13:02:23.11	281.03	53.89	-24.6	-25.9	18.4	0.00e+00	0	43	102	1048576	9	4137
2026-01-23 13:02:26.12	283.02	53.44	-24.0	-24.5	19.1	0.00e+00	0	43	102	1048576	9	3799
2026-01-23 13:02:29.13	284.94	52.97	-24.3	-25.1	18.8	0.00e+00	0	43	102	1048576	9	3965
2026-01-23 13:02:32.14	286.81	52.46	-23.6	-24.2	19.5	0.00e+00	0	43	102	1048576	8	3843
2026-01-23 13:02:35.15	288.60	51.93	-23.6	-24.1	19.6	0.00e+00	0	43	102	1048576	8	3814
2026-01-23 13:02:38.15	290.33	51.38	-24.1	-25.1	19.1	0.00e+00	0	43	102	1048576	8	4051
2026-01-23 13:02:41.17	292.01	50.81	-23.3	-23.6	19.9	0.00e+00	0	44	102	1048576	8	3700
2026-01-23 13:02:44.18	293.62	50.23	-24.0	-25.1	19.1	0.00e+00	0	43	102	1048576	8	4048
2026-01-23 13:02:47.19	295.16	49.63	-24.2	-25.4	18.9	0.00e+00	0	43	102	1048576	8	4126
2026-01-23 13:02:50.21	296.66	49.01	-24.6	-25.7	18.5	0.00e+00	0	43	102	1048576	9	4093
2026-01-23 13:02:53.22	298.08	48.38	-23.2	-23.9	19.9	0.00e+00	0	43	102	1048576	7	3873
2026-01-23 13:02:56.24	299.46	47.75	-23.3	-24.0	19.8	0.00e+00	0	43	102	1048576	7	3905
2026-01-23 13:02:59.26	300.78	47.11	-23.5	-24.5	19.6	0.00e+00	0	43	102	1048576	7	4027
2026-01-23 13:03:02.26	302.04	46.46	-23.4	-24.2	19.7	0.00e+00	0	43	102	1048576	7	3948
2026-01-23 13:03:05.26	303.25	45.81	-23.4	-24.1	19.8	0.00e+00	0	44	102	1048576	7	3926
2026-01-23 13:03:08.27	304.42	45.16	-23.4	-24.2	19.7	0.00e+00	0	43	102	1048576	7	3964
2026-01-23 13:03:11.30	305.54	44.50	-23.6	-24.6	19.5	0.00e+00	0	43	102	1048576	7	4053
2026-01-23 13:03:14.30	306.61	43.85	-23.6	-24.6	19.5	0.00e+00	0	43	102	1048576	7	4053
2026-01-23 13:03:17.31	307.64	43.20	-23.3	-24.0	19.8	0.00e+00	0	43	102	1048576	7	3900
2026-01-23 13:03:20.32	308.63	42.54	-23.6	-24.7	19.4	0.00e+00	0	43	102	1048576	7	4091
2026-01-23 13:03:23.34	309.59	41.89	-23.5	-24.3	19.6	0.00e+00	0	43	102	1048576	7	3981
2026-01-23 13:03:26.35	310.50	41.25	-24.0	-24.9	19.1	0.00e+00	0	43	102	1048576	8	4009
2026-01-23 13:03:29.37	311.38	40.60	-23.6	-24.1	19.5	0.00e+00	0	43	102	1048576	8	3825
2026-01-23 13:03:32.39	312.23	39.96	-23.5	-23.9	19.6	0.00e+00	0	43	102	1048576	8	3774
2026-01-23 13:03:35.41	313.05	39.33	-22.7	-23.2	20.4	0.00e+00	0	43	102	1048576	6	3828
2026-01-23 13:03:38.43	313.83	38.70	-23.4	-24.7	19.7	0.00e+00	0	43	102	1048576	6	4175
2026-01-23 13:03:41.45	314.59	38.07	-23.7	-24.8	19.4	0.00e+00	0	43	102	1048576	7	4092
2026-01-23 13:03:44.46	315.31	37.46	-23.4	-24.2	19.7	0.00e+00	0	44	102	1048576	7	3950
2026-01-23 13:03:47.49	316.02	36.84	-23.6	-24.7	19.4	0.00e+00	0	44	102	1048576	7	4080
2026-01-23 13:03:50.49	316.69	36.24	-22.8	-23.1	20.2	0.00e+00	0	44	102	1048576	7	3693
2026-01-23 13:03:53.51	317.34	35.65	-22.7	-23.4	20.3	0.00e+00	0	43	102	1048576	6	3865
2026-01-23 13:03:56.52	317.97	35.06	-22.9	-23.6	20.2	0.00e+00	0	43	102	1048576	6	3930
2026-01-23 13:03:59.54	318.58	34.48	-23.0	-23.9	20.0	0.00e+00	0	44	102	1048576	6	3986
2026-01-23 13:04:02.55	319.17	33.90	-23.1	-24.1	19.9	0.00e+00	0	43	102	1048576	6	4036
2026-01-23 13:04:05.56	319.73	33.34	-23.0	-23.8	20.1	0.00e+00	0	43	102	1048576	6	3967
2026-01-23 13:04:08.57	320.28	32.78	-23.1	-24.1	20.0	0.00e+00	0	44	102	1048576	6	4031
2026-01-23 13:04:11.58	320.81	32.23	-23.2	-24.4	19.8	0.00e+00	0	44	102	1048576	6	4120
2026-01-23 13:04:14.60	321.32	31.68	-23.3	-24.5	19.7	0.00e+00	0	43	102	1048576	6	4150
2026-01-23 13:04:17.61	321.82	31.15	-23.6	-24.6	19.4	0.00e+00	0	43	102	1048576	7	4044
2026-01-23 13:04:20.63	322.30	30.62	-23.6	-24.6	19.4	0.00e+00	0	43	102	1048576	7	4053
2026-01-23 13:04:23.64	322.76	30.10	-23.4	-24.2	19.6	0.00e+00	0	43	102	1048576	7	3951
2026-01-23 13:04:26.66	323.22	29.58	-23.6	-24.6	19.4	0.00e+00	0	43	102	1048576	7	4038
2026-01-23 13:04:29.67	323.65	29.08	-23.4	-24.2	19.6	0.00e+00	0	44	102	1048576	7	3950
2026-01-23 13:04:32.68	324.08	28.58	-23.6	-24.7	19.3	0.00e+00	0	44	102	1048576	7	4074
2026-01-23 13:04:35.71	324.49	28.09	-23.4	-24.3	19.5	0.00e+00	0	43	102	1048576	7	3987
2026-01-23 13:04:38.72	324.89	27.60	-23.6	-24.6	19.4	0.00e+00	0	44	102	1048576	7	4043
2026-01-23 13:04:41.72	325.28	27.13	-23.3	-24.1	19.6	0.00e+00	0	43	102	1048576	7	3928
2026-01-23 13:04:44.73	325.66	26.66	-23.5	-24.5	19.4	0.00e+00	0	44	102	1048576	7	4019
2026-01-23 13:04:47.75	326.02	26.19	-23.6	-24.6	19.3	0.00e+00	0	43	102	1048576	7	4059
2026-01-23 13:04:50.77	326.38	25.74	-23.5	-24.4	19.4	0.00e+00	0	43	102	1048576	7	4006
2026-01-23 13:04:53.79	326.73	25.29	-23.4	-24.2	19.5	0.00e+00	0	43	102	1048576	7	3954
2026-01-23 13:04:56.80	327.07	24.84	-23.6	-24.6	19.3	0.00e+00	0	43	102	1048576	7	4044
2026-01-23 13:04:59.82	327.40	24.41	-23.9	-25.3	19.0	0.00e+00	0	43	102	1048576	7	4216
2026-01-23 13:05:02.82	327.72	23.98	-24.2	-25.4	18.6	0.00e+00	0	44	102	1048576	8	4150
2026-01-23 13:05:05.83	328.03	23.55	-24.2	-25.5	18.6	0.00e+00	0	43	102	1048576	8	4164
2026-01-23 13:05:08.84	328.33	23.13	-24.2	-25.5	18.6	0.00e+00	0	44	102	1048576	8	4162
2026-01-23 13:05:11.86	328.63	22.72	-24.2	-25.4	18.7	0.00e+00	0	43	102	1048576	8	4132
2026-01-23 13:05:14.87	328.92	22.32	-24.3	-25.7	18.5	0.00e+00	0	43	102	1048576	8	4215
2026-01-23 13:05:17.88	329.20	21.92	-24.2	-25.5	18.6	0.00e+00	0	43	102	1048576	8	4165
2026-01-23 13:05:20.90	329.48	21.52	-24.3	-25.7	18.5	0.00e+00	0	43	102	1048576	8	4209
2026-01-23 13:05:23.92	329.75	21.13	-24.4	-25.9	18.4	0.00e+00	0	43	102	1048576	8	4257
2026-01-23 13:05:26.94	330.01	20.74	-24.6	-25.8	18.1	0.00e+00	0	44	102	1048576	9	4142
2026-01-23 13:05:29.96	330.26	20.36	-24.7	-25.9	18.0	0.00e+00	0	43	102	1048576	9	4166
2026-01-23 13:05:32.97	330.52	19.99	-24.6	-25.9	18.1	0.00e+00	0	44	102	1048576	9	4149
2026-01-23 13:05:35.97	330.76	19.62	-24.7	-25.9	18.0	0.00e+00	0	43	102	1048576	9	4157
2026-01-23 13:05:38.99	331.00	19.26	-24.8	-26.2	17.9	0.00e+00	0	43	102	1048576	9	4231
2026-01-23 13:05:42.01	331.23	18.90	-25.0	-26.6	17.6	0.00e+00	0	44	102	1048576	9	4332
2026-01-23 13:05:45.03	331.46	18.54	-25.0	-26.1	17.6	0.00e+00	0	43	102	1048576	10	4090
2026-01-23 13:05:48.04	331.69	18.20	-25.0	-26.2	17.6	0.00e+00	0	43	102	1048576	10	4125
2026-01-23 13:05:51.04	331.90	17.85	-25.2	-26.5	17.4	0.00e+00	0	44	102	1048576	10	4198
2026-01-23 13:05:54.04	332.12	17.51	-25.1	-26.4	17.4	0.00e+00	0	44	102	1048576	10	4172
2026-01-23 13:05:57.06	332.33	17.18	-25.3	-26.8	17.2	0.00e+00	0	43	102	1048576	10	4277
2026-01-23 13:06:00.08	332.54	16.84	-25.4	-26.4	17.1	0.00e+00	0	44	102	1048576	11	4067
2026-01-23 13:06:03.09	332.74	16.52	-25.6	-27.0	16.8	0.00e+00	0	44	102	1048576	11	4206
2026-01-23 13:06:06.11	332.93	16.19	-25.8	-27.5	16.5	0.00e+00	0	43	102	1048576	11	4340
2026-01-23 13:06:09.11	333.13	15.87	-26.0	-27.8	16.4	0.00e+00	0	44	102	1048576	11	4422
2026-01-23 13:06:12.14	333.32	15.56	-26.0	-27.3	16.3	0.00e+00	0	43	102	1048576	12	4189
2026-01-23 13:06:15.15	333.50	15.24	-26.2	-27.9	15.9	0.00e+00	0	44	102	1048576	12	4339
2026-01-23 13:06:18.16	333.69	14.94	-26.3	-28.0	15.9	0.00e+00	0	43	102	1048576	12	4372
2026-01-23 13:06:21.16	333.87	14.63	-26.2	-27.8	15.9	0.00e+00	0	43	102	1048576	12	4329
2026-01-23 13:06:24.17	334.04	14.33	-26.2	-27.8	15.9	1.10e-06	0	43	102	1048576	12	4315
2026-01-23 13:06:27.19	334.21	14.03	-26.1	-27.6	16.0	0.00e+00	0	44	102	1048576	12	4258
2026-01-23 13:06:30.19	334.38	13.74	-26.2	-27.8	15.9	0.00e+00	0	43	102	1048576	12	4317
2026-01-23 13:06:33.21	334.55	13.45	-26.2	-27.9	15.8	0.00e+00	0	43	102	1048576	12	4341
2026-01-23 13:06:36.23	334.71	13.16	-26.2	-27.8	15.8	0.00e+00	0	43	102	1048576	12	4325
2026-01-23 13:06:39.24	334.87	12.88	-26.3	-28.0	15.7	0.00e+00	0	44	102	1048576	12	4391
2026-01-23 13:06:42.26	335.03	12.60	-26.2	-27.9	15.8	0.00e+00	0	44	102	1048576	12	4336
2026-01-23 13:06:45.26	335.19	12.32	-26.2	-27.8	15.8	0.00e+00	0	43	102	1048576	12	4326
2026-01-23 13:06:48.27	335.34	12.04	-26.4	-28.1	15.6	0.00e+00	0	43	102	1048576	12	4421
2026-01-23 13:06:51.29	335.49	11.77	-26.5	-28.0	15.4	1.10e-06	0	43	102	1048576	13	4257
2026-01-23 13:06:54.30	335.64	11.50	-26.4	-27.8	15.5	0.00e+00	0	43	102	1048576	13	4216
2026-01-23 13:06:57.31	335.78	11.23	-26.6	-28.1	15.3	0.00e+00	0	44	102	1048576	13	4303
2026-01-23 13:07:00.33	335.92	10.97	-26.5	-27.9	15.4	0.00e+00	0	43	102	1048576	13	4247
2026-01-23 13:07:03.33	336.06	10.71	-26.4	-27.7	15.5	0.00e+00	0	43	102	1048576	13	4192
2026-01-23 13:07:06.35	336.20	10.45	-26.5	-27.9	15.3	0.00e+00	0	44	102	1048576	13	4248
2026-01-23 13:07:09.36	336.34	10.19	-26.6	-28.2	15.2	0.00e+00	0	43	102	1048576	13	4333
2026-01-23 13:07:12.36	336.47	9.94	-26.8	-28.6	14.9	1.10e-06	0	43	102	1048576	13	4433
2026-01-23 13:07:15.37	336.60	9.69	-26.9	-28.9	14.7	0.00e+00	0	43	102	1048576	13	4521
2026-01-23 13:07:18.38	336.73	9.44	-27.2	-29.1	14.3	0.00e+00	0	44	102	1048576	14	4484
2026-01-23 13:07:21.39	336.86	9.20	-27.1	-28.9	14.5	0.00e+00	0	44	102	1048576	14	4404
2026-01-23 13:07:24.40	336.99	8.95	-26.9	-28.4	14.7	0.00e+00	0	43	102	1048576	14	4281
2026-01-23 13:07:27.41	337.11	8.71	-27.0	-28.6	14.6	0.00e+00	0	44	102	1048576	14	4322
2026-01-23 13:07:30.44	337.23	8.47	-27.0	-28.7	14.5	0.00e+00	0	43	102	1048576	14	4377
2026-01-23 13:07:33.45	337.35	8.23	-27.1	-28.8	14.4	1.10e-06	0	43	102	1048576	14	4396
2026-01-23 13:07:36.46	337.47	8.00	-27.2	-29.2	14.2	1.10e-06	0	43	102	1048576	14	4495
2026-01-23 13:07:39.47	337.59	7.77	-27.1	-28.9	14.3	2.20e-06	0	43	102	1048576	14	4437
2026-01-23 13:07:42.48	337.70	7.54	-27.3	-28.9	14.0	0.00e+00	0	43	102	1048576	15	4312
2026-01-23 13:07:45.50	337.82	7.31	-27.2	-28.5	14.2	1.10e-06	0	44	102	1048576	15	4211
2026-01-23 13:07:48.52	337.93	7.08	-33.2	-43.7	3.8	1.71e-05	0	44	104	1048576	26	12089

#Closed at: 2026-01-23 13:07:50
#Recorded file [1 MB]: D:/data/31010_260123_155559.dat