passes_logs/2026/01/23/R2M6_AANII_01/R2M6_AANII_01__20260123_083906_SUOMI_NPP_rec.log

#Pass ID: 20260123_083906_SUOMI NPP
#Satellite: SUOMI NPP
#Configuration: NPP
#almurnet v.1.7.20240730
#Start time: 2026-01-23 08:39:07

#Version: 2.2.20231116
#Station: R2M6_AANII_01
#Location: 30.233357 lon 59.946436 lat
#TLE: 1 37849U 11061A   26022.50498765  .00000208  00000+0  11976-3 0  9992
#TLE: 2 37849  98.7820 324.4892 0002275  50.8149 309.3229 14.19528284737775

#Time	Az	El	Level	Level2	SNR	BER	BlckErr	Temp	State	Recorded	gain1	gain2
2026-01-23 08:39:07.48	106.10	7.08	-32.2	-38.1	4.5	1.39e+00	0	41	0	0	25	7160
2026-01-23 08:39:10.48	105.84	7.28	-32.0	-37.0	6.6	2.00e-01	0	41	102	1048576	25	6383
2026-01-23 08:39:13.49	105.58	7.48	-32.1	-37.4	6.3	2.59e-01	0	41	102	1048576	25	6622
2026-01-23 08:39:16.50	105.32	7.68	-31.5	-34.8	8.6	6.30e-02	0	41	102	1048576	24	5307
2026-01-23 08:39:19.49	105.06	7.88	-31.4	-34.9	9.0	1.82e-02	0	41	102	1048576	23	5417
2026-01-23 08:39:22.50	104.79	8.09	-31.5	-35.5	8.6	5.04e-02	0	42	102	1048576	23	5686
2026-01-23 08:39:25.51	104.51	8.29	-31.5	-35.2	8.8	3.36e-02	0	42	102	1048576	23	5543
2026-01-23 08:39:28.53	104.23	8.50	-31.4	-35.0	9.0	2.44e-02	0	42	102	1048576	23	5420
2026-01-23 08:39:31.53	103.95	8.71	-31.5	-35.1	9.0	3.06e-02	0	42	102	1048576	23	5471
2026-01-23 08:39:34.56	103.66	8.92	-31.1	-33.5	10.3	5.47e-03	0	42	102	1048576	23	4784
2026-01-23 08:39:37.56	103.37	9.13	-30.9	-33.0	10.7	2.62e-03	0	42	102	1048576	23	4577
2026-01-23 08:39:40.56	103.08	9.34	-31.0	-33.3	10.5	3.06e-03	0	42	102	1048576	23	4680
2026-01-23 08:39:43.57	102.78	9.55	-30.8	-32.7	10.9	3.06e-03	0	42	102	1048576	23	4474
2026-01-23 08:39:46.59	102.47	9.77	-30.7	-32.7	11.4	8.49e-04	0	42	102	1048576	22	4535
2026-01-23 08:39:49.61	102.16	9.98	-30.9	-33.4	10.8	1.89e-03	0	42	102	1048576	22	4791
2026-01-23 08:39:52.62	101.85	10.20	-30.8	-33.1	11.1	1.37e-03	0	42	102	1048576	22	4677
2026-01-23 08:39:55.63	101.53	10.41	-30.6	-32.6	11.4	9.63e-04	0	42	102	1048576	22	4508
2026-01-23 08:39:58.64	101.21	10.63	-30.8	-32.9	11.3	1.21e-03	0	42	102	1048576	22	4605
2026-01-23 08:40:01.66	100.88	10.85	-30.8	-33.1	11.1	1.36e-03	0	42	102	1048576	22	4693
2026-01-23 08:40:04.67	100.55	11.07	-30.9	-33.3	11.0	1.77e-03	0	42	102	1048576	22	4746
2026-01-23 08:40:07.69	100.21	11.29	-30.9	-33.3	11.1	1.64e-03	0	42	102	1048576	22	4747
2026-01-23 08:40:10.69	99.87	11.51	-31.2	-34.3	10.3	4.94e-03	0	42	102	1048576	22	5147
2026-01-23 08:40:13.71	99.52	11.73	-31.4	-35.0	9.8	1.08e-02	0	43	102	1048576	22	5437
2026-01-23 08:40:16.73	99.16	11.96	-31.5	-34.9	9.6	1.03e-02	0	42	102	1048576	23	5295
2026-01-23 08:40:19.74	98.80	12.18	-31.5	-34.6	9.7	1.31e-02	0	43	102	1048576	23	5196
2026-01-23 08:40:22.75	98.43	12.40	-31.0	-33.0	11.0	3.29e-03	0	43	102	1048576	23	4552
2026-01-23 08:40:25.75	98.07	12.63	-30.7	-32.5	11.7	5.74e-04	0	43	102	1048576	22	4437
2026-01-23 08:40:28.76	97.69	12.86	-30.6	-32.1	12.0	4.62e-04	0	43	102	1048576	22	4319
2026-01-23 08:40:31.77	97.31	13.08	-30.1	-31.4	12.8	7.93e-05	0	43	102	1048576	21	4164
2026-01-23 08:40:34.78	96.92	13.31	-30.4	-32.3	12.2	1.62e-04	0	43	102	1048576	21	4474
2026-01-23 08:40:37.79	96.52	13.54	-30.6	-32.7	12.0	4.29e-04	0	43	102	1048576	21	4585
2026-01-23 08:40:40.81	96.12	13.77	-30.6	-32.6	12.1	4.13e-04	0	43	102	1048576	21	4570
2026-01-23 08:40:43.82	95.71	14.00	-30.6	-32.6	12.2	3.24e-04	0	43	102	1048576	21	4556
2026-01-23 08:40:46.84	95.29	14.24	-30.4	-32.2	12.5	1.92e-04	0	43	102	1048576	21	4413
2026-01-23 08:40:49.85	94.87	14.47	-30.3	-31.7	12.8	4.65e-05	0	43	102	1048576	21	4257
2026-01-23 08:40:52.87	94.44	14.70	-30.5	-32.5	12.3	2.08e-04	0	43	102	1048576	21	4530
2026-01-23 08:40:55.89	94.01	14.94	-30.3	-31.7	12.9	5.87e-05	0	43	102	1048576	21	4248
2026-01-23 08:40:58.89	93.57	15.17	-30.7	-32.9	12.1	2.00e-04	0	43	102	1048576	21	4653
2026-01-23 08:41:01.90	93.12	15.41	-30.9	-33.4	11.3	9.12e-04	0	43	102	1048576	22	4773
2026-01-23 08:41:04.92	92.66	15.64	-30.7	-32.7	11.8	4.16e-04	0	43	102	1048576	22	4520
2026-01-23 08:41:07.93	92.20	15.88	-31.1	-34.1	10.8	1.34e-03	0	43	102	1048576	22	5068
2026-01-23 08:41:10.94	91.73	16.11	-30.7	-32.7	11.8	7.23e-04	0	43	102	1048576	22	4539
2026-01-23 08:41:13.95	91.25	16.35	-30.9	-33.3	11.5	5.23e-04	0	43	102	1048576	22	4726
2026-01-23 08:41:16.96	90.76	16.59	-30.8	-32.9	11.7	5.76e-04	0	43	102	1048576	22	4603
2026-01-23 08:41:19.97	90.27	16.82	-31.0	-33.4	11.4	8.88e-04	0	43	102	1048576	22	4772
2026-01-23 08:41:22.97	89.77	17.06	-31.0	-33.6	11.3	1.23e-03	0	43	102	1048576	22	4849
2026-01-23 08:41:25.98	89.26	17.29	-30.9	-33.1	11.7	8.77e-04	0	43	102	1048576	22	4658
2026-01-23 08:41:29.00	88.74	17.53	-30.6	-32.3	12.2	1.94e-04	0	43	102	1048576	22	4389
2026-01-23 08:41:32.01	88.21	17.77	-30.5	-32.1	12.3	1.72e-04	0	43	102	1048576	22	4314
2026-01-23 08:41:35.02	87.68	18.00	-30.8	-33.0	11.9	3.84e-04	0	43	102	1048576	22	4592
2026-01-23 08:41:38.02	87.14	18.24	-30.8	-32.8	12.0	1.90e-04	0	43	102	1048576	22	4515
2026-01-23 08:41:41.04	86.59	18.47	-30.6	-32.1	12.4	2.36e-04	0	43	102	1048576	22	4306
2026-01-23 08:41:44.04	86.03	18.71	-30.5	-31.9	12.6	6.56e-05	0	43	102	1048576	22	4223
2026-01-23 08:41:47.05	85.46	18.94	-30.9	-33.0	11.9	2.99e-04	0	43	102	1048576	22	4582
2026-01-23 08:41:50.05	84.88	19.18	-30.6	-32.2	12.5	2.25e-04	0	43	102	1048576	22	4310
2026-01-23 08:41:53.06	84.30	19.41	-30.6	-32.1	12.5	1.49e-04	0	43	102	1048576	22	4284
2026-01-23 08:41:56.08	83.70	19.64	-30.3	-31.4	13.0	4.27e-05	0	43	102	1048576	22	4050
2026-01-23 08:41:59.10	83.09	19.87	-30.2	-31.6	13.2	2.13e-05	0	43	102	1048576	21	4201
2026-01-23 08:42:02.12	82.47	20.10	-30.0	-31.1	13.4	1.98e-05	0	43	102	1048576	21	4089
2026-01-23 08:42:05.12	81.85	20.33	-29.8	-30.6	13.7	1.06e-05	0	43	102	1048576	21	3945
2026-01-23 08:42:08.13	81.22	20.55	-29.9	-31.4	13.7	6.80e-06	0	43	102	1048576	20	4249
2026-01-23 08:42:11.14	80.58	20.78	-29.3	-29.7	14.7	0.00e+00	0	43	102	1048576	20	3773
2026-01-23 08:42:14.16	79.92	21.00	-29.6	-30.5	14.2	7.00e-07	0	43	102	1048576	20	3970
2026-01-23 08:42:17.17	79.26	21.22	-29.6	-30.4	14.3	0.00e+00	0	43	102	1048576	20	3941
2026-01-23 08:42:20.18	78.59	21.44	-29.7	-30.5	14.2	1.50e-06	0	43	102	1048576	20	3986
2026-01-23 08:42:23.19	77.91	21.65	-29.6	-30.3	14.4	0.00e+00	0	43	102	1048576	20	3906
2026-01-23 08:42:26.21	77.22	21.87	-29.2	-29.7	15.0	0.00e+00	0	43	102	1048576	19	3836
2026-01-23 08:42:29.21	76.52	22.07	-29.3	-30.0	15.0	0.00e+00	0	43	102	1048576	19	3914
2026-01-23 08:42:32.23	75.81	22.28	-29.6	-30.9	14.4	0.00e+00	0	43	102	1048576	19	4165
2026-01-23 08:42:35.24	75.10	22.49	-29.3	-30.1	15.0	0.00e+00	0	43	102	1048576	19	3923
2026-01-23 08:42:38.26	74.37	22.69	-29.2	-29.6	15.3	0.00e+00	0	43	102	1048576	19	3808
2026-01-23 08:42:41.28	73.63	22.89	-29.4	-30.2	15.0	0.00e+00	0	43	102	1048576	19	3943
2026-01-23 08:42:44.29	72.88	23.08	-29.2	-29.7	15.2	0.00e+00	0	43	102	1048576	19	3811
2026-01-23 08:42:47.31	72.12	23.27	-29.2	-29.6	15.3	0.00e+00	0	43	102	1048576	19	3794
2026-01-23 08:42:50.32	71.36	23.46	-29.2	-29.7	15.3	0.00e+00	0	43	102	1048576	19	3805
2026-01-23 08:42:53.34	70.58	23.64	-29.1	-29.5	15.4	0.00e+00	0	43	102	1048576	19	3774
2026-01-23 08:42:56.36	69.80	23.82	-29.4	-30.2	15.0	0.00e+00	0	43	102	1048576	19	3958
2026-01-23 08:42:59.37	69.00	23.99	-29.3	-29.8	15.2	0.00e+00	0	43	102	1048576	19	3847
2026-01-23 08:43:02.39	68.20	24.16	-29.3	-30.0	15.2	0.00e+00	0	43	102	1048576	19	3880
2026-01-23 08:43:05.39	67.39	24.32	-29.3	-29.9	15.2	0.00e+00	0	43	102	1048576	19	3867
2026-01-23 08:43:08.42	66.57	24.48	-29.1	-29.5	15.5	0.00e+00	0	43	102	1048576	19	3762
2026-01-23 08:43:11.43	65.75	24.63	-28.9	-29.0	15.7	0.00e+00	0	43	102	1048576	19	3646
2026-01-23 08:43:14.44	64.91	24.77	-29.1	-29.3	15.5	0.00e+00	0	43	102	1048576	19	3711
2026-01-23 08:43:17.45	64.07	24.91	-29.4	-30.1	15.1	7.00e-07	0	43	102	1048576	19	3917
2026-01-23 08:43:20.45	63.23	25.05	-29.8	-31.2	14.5	0.00e+00	0	43	102	1048576	19	4218
2026-01-23 08:43:23.47	62.37	25.17	-30.5	-32.5	13.2	1.22e-05	0	44	102	1048576	20	4575
2026-01-23 08:43:26.48	61.51	25.29	-30.8	-33.1	12.5	1.04e-04	0	43	102	1048576	21	4661
2026-01-23 08:43:29.49	60.64	25.41	-30.2	-31.2	13.7	7.60e-06	0	43	102	1048576	21	4054
2026-01-23 08:43:32.49	59.77	25.52	-30.2	-31.4	13.6	1.06e-05	0	43	102	1048576	21	4124
2026-01-23 08:43:35.50	58.89	25.62	-30.2	-31.4	13.6	1.06e-05	0	43	102	1048576	21	4123
2026-01-23 08:43:38.52	58.00	25.71	-30.3	-31.6	13.4	1.37e-05	0	43	102	1048576	21	4174
2026-01-23 08:43:41.52	57.11	25.80	-30.2	-31.5	13.5	9.90e-06	0	43	102	1048576	21	4161
2026-01-23 08:43:44.54	56.22	25.88	-30.5	-32.2	13.0	3.05e-05	0	43	102	1048576	21	4372
2026-01-23 08:43:47.55	55.32	25.95	-30.5	-32.1	13.1	2.21e-05	0	43	102	1048576	21	4361
2026-01-23 08:43:50.58	54.41	26.01	-30.4	-31.8	13.4	1.67e-05	0	43	102	1048576	21	4223
2026-01-23 08:43:53.59	53.50	26.07	-30.6	-32.4	13.0	5.34e-05	0	43	102	1048576	21	4425
2026-01-23 08:43:56.61	52.59	26.12	-31.0	-33.1	12.1	2.07e-04	0	43	102	1048576	22	4570
2026-01-23 08:43:59.63	51.67	26.16	-31.1	-33.3	12.1	1.99e-04	0	43	102	1048576	22	4627
2026-01-23 08:44:02.64	50.76	26.19	-30.3	-31.1	13.5	3.58e-05	0	43	102	1048576	22	3925
2026-01-23 08:44:05.65	49.85	26.21	-30.0	-30.9	14.0	7.00e-07	0	43	102	1048576	21	3961
2026-01-23 08:44:08.67	48.93	26.23	-30.7	-32.6	12.8	3.50e-05	0	43	102	1048576	21	4514
2026-01-23 08:44:11.69	48.01	26.24	-30.5	-32.3	13.0	3.73e-05	0	43	102	1048576	21	4412
2026-01-23 08:44:14.72	47.08	26.24	-30.5	-32.1	13.1	2.82e-05	0	43	102	1048576	21	4359
2026-01-23 08:44:17.74	46.16	26.23	-30.1	-31.0	13.9	1.50e-06	0	43	102	1048576	21	3989
2026-01-23 08:44:20.74	45.25	26.22	-29.7	-30.4	14.6	7.00e-07	0	43	102	1048576	20	3929
2026-01-23 08:44:23.75	44.33	26.19	-29.6	-30.2	14.7	0.00e+00	0	43	102	1048576	20	3850
2026-01-23 08:44:26.77	43.42	26.16	-29.5	-29.9	14.9	0.00e+00	0	43	102	1048576	20	3776
2026-01-23 08:44:29.79	42.50	26.12	-28.8	-28.6	16.0	0.00e+00	0	43	102	1048576	19	3538
2026-01-23 08:44:32.81	41.59	26.07	-29.0	-29.7	15.7	0.00e+00	0	43	102	1048576	18	3876
2026-01-23 08:44:35.83	40.68	26.01	-29.5	-30.8	15.1	0.00e+00	0	44	102	1048576	18	4190
2026-01-23 08:44:38.84	39.78	25.95	-29.5	-30.4	14.9	0.00e+00	0	43	102	1048576	19	3985
2026-01-23 08:44:41.84	38.88	25.88	-29.6	-30.6	14.8	0.00e+00	0	43	102	1048576	19	4039
2026-01-23 08:44:44.84	37.99	25.80	-29.3	-29.8	15.2	0.00e+00	0	43	102	1048576	19	3831
2026-01-23 08:44:47.85	37.10	25.72	-29.4	-30.2	15.1	0.00e+00	0	43	102	1048576	19	3922
2026-01-23 08:44:50.87	36.22	25.62	-29.8	-31.0	14.6	0.00e+00	0	43	102	1048576	19	4150
2026-01-23 08:44:53.88	35.34	25.52	-29.9	-30.9	14.3	1.50e-06	0	43	102	1048576	20	4039
2026-01-23 08:44:56.89	34.46	25.42	-29.9	-30.8	14.3	1.50e-06	0	43	102	1048576	20	4032
2026-01-23 08:44:59.91	33.59	25.30	-29.8	-30.6	14.4	2.20e-06	0	43	102	1048576	20	3970
2026-01-23 08:45:02.92	32.73	25.18	-30.0	-31.2	14.0	3.00e-06	0	43	102	1048576	20	4142
2026-01-23 08:45:05.94	31.88	25.05	-30.2	-31.8	13.7	7.60e-06	0	43	102	1048576	20	4314
2026-01-23 08:45:08.96	31.03	24.92	-30.5	-32.6	13.1	9.90e-06	0	43	102	1048576	20	4570
2026-01-23 08:45:11.96	30.19	24.78	-30.7	-32.6	12.7	6.94e-05	0	43	102	1048576	21	4496
2026-01-23 08:45:14.97	29.36	24.64	-30.6	-32.3	13.0	3.43e-05	0	43	102	1048576	21	4395
2026-01-23 08:45:18.00	28.53	24.49	-31.1	-33.2	12.0	1.66e-04	0	43	102	1048576	22	4589
2026-01-23 08:45:21.01	27.72	24.33	-30.8	-32.4	12.6	9.53e-05	0	43	102	1048576	22	4322
2026-01-23 08:45:24.02	26.91	24.17	-30.5	-31.7	13.0	6.10e-05	0	43	102	1048576	22	4098
2026-01-23 08:45:27.03	26.11	24.00	-30.4	-31.4	13.2	2.44e-05	0	43	102	1048576	22	4043
2026-01-23 08:45:30.06	25.32	23.83	-30.8	-32.4	12.5	9.76e-05	0	43	102	1048576	22	4357
2026-01-23 08:45:33.07	24.54	23.65	-30.3	-31.5	13.4	1.67e-05	0	43	102	1048576	21	4167
2026-01-23 08:45:36.08	23.76	23.47	-30.1	-31.7	13.5	6.80e-06	0	43	102	1048576	20	4319
2026-01-23 08:45:39.09	23.00	23.29	-30.7	-32.8	12.5	5.95e-05	0	43	102	1048576	21	4572
2026-01-23 08:45:42.10	22.25	23.10	-30.8	-33.0	12.4	2.19e-04	0	43	102	1048576	21	4645
2026-01-23 08:45:45.12	21.50	22.90	-30.4	-31.9	13.1	3.66e-05	0	43	102	1048576	21	4289
2026-01-23 08:45:48.14	20.76	22.71	-30.3	-31.5	13.4	2.21e-05	0	43	102	1048576	21	4166
2026-01-23 08:45:51.15	20.04	22.51	-30.8	-33.0	12.4	1.27e-04	0	43	102	1048576	21	4631
2026-01-23 08:45:54.16	19.32	22.30	-30.8	-33.2	12.2	2.66e-04	0	43	102	1048576	21	4701
2026-01-23 08:45:57.18	18.61	22.10	-29.9	-30.4	14.1	6.10e-06	0	43	102	1048576	21	3851
2026-01-23 08:46:00.19	17.92	21.89	-29.4	-29.7	14.8	0.00e+00	0	43	102	1048576	20	3739
2026-01-23 08:46:03.19	17.23	21.68	-29.6	-30.3	14.3	0.00e+00	0	43	102	1048576	20	3903
2026-01-23 08:46:06.21	16.55	21.46	-29.4	-29.8	14.7	0.00e+00	0	43	102	1048576	20	3755
2026-01-23 08:46:09.22	15.88	21.25	-29.5	-30.1	14.5	7.00e-07	0	43	102	1048576	20	3855
2026-01-23 08:46:12.24	15.22	21.03	-29.5	-30.1	14.5	0.00e+00	0	43	102	1048576	20	3846
2026-01-23 08:46:15.25	14.57	20.80	-29.7	-31.0	14.3	7.00e-07	0	43	102	1048576	19	4199
2026-01-23 08:46:18.26	13.93	20.58	-29.7	-30.7	14.1	0.00e+00	0	43	102	1048576	20	4018
2026-01-23 08:46:21.27	13.30	20.36	-29.7	-30.7	14.0	3.00e-06	0	43	102	1048576	20	4029
2026-01-23 08:46:24.28	12.68	20.13	-29.9	-31.1	13.8	3.00e-06	0	43	102	1048576	20	4145
2026-01-23 08:46:27.29	12.07	19.90	-29.6	-30.4	14.3	2.20e-06	0	43	102	1048576	20	3927
2026-01-23 08:46:30.30	11.47	19.67	-29.8	-30.7	14.1	3.00e-06	0	43	102	1048576	20	4028
2026-01-23 08:46:33.31	10.87	19.44	-29.6	-30.2	14.4	0.00e+00	0	43	102	1048576	20	3876
2026-01-23 08:46:36.33	10.29	19.21	-29.3	-29.5	14.8	0.00e+00	0	43	102	1048576	20	3687
2026-01-23 08:46:39.34	9.71	18.98	-29.5	-30.4	14.7	0.00e+00	0	43	102	1048576	19	4000
2026-01-23 08:46:42.35	9.14	18.75	-29.8	-31.2	14.2	0.00e+00	0	43	102	1048576	19	4232
2026-01-23 08:46:45.37	8.58	18.51	-29.5	-29.9	14.5	1.50e-06	0	43	102	1048576	20	3799
2026-01-23 08:46:48.38	8.03	18.28	-29.1	-29.5	15.2	0.00e+00	0	43	102	1048576	19	3768
2026-01-23 08:46:51.39	7.49	18.04	-29.2	-29.9	15.0	0.00e+00	0	43	102	1048576	19	3864
2026-01-23 08:46:54.40	6.96	17.81	-29.6	-30.8	14.4	7.00e-07	0	43	102	1048576	19	4121
2026-01-23 08:46:57.41	6.44	17.57	-29.8	-31.3	14.1	0.00e+00	0	43	102	1048576	19	4264
2026-01-23 08:47:00.43	5.92	17.34	-29.5	-30.4	14.5	0.00e+00	0	43	102	1048576	19	4021
2026-01-23 08:47:03.45	5.41	17.10	-29.1	-29.5	15.2	0.00e+00	0	43	102	1048576	19	3762
2026-01-23 08:47:06.47	4.91	16.86	-29.3	-30.0	14.8	0.00e+00	0	43	102	1048576	19	3896
2026-01-23 08:47:09.49	4.42	16.63	-30.3	-32.3	13.0	1.67e-05	0	43	102	1048576	20	4523
2026-01-23 08:47:12.49	3.94	16.39	-30.2	-31.8	13.3	3.81e-05	0	43	102	1048576	20	4355
2026-01-23 08:47:15.51	3.46	16.16	-30.0	-31.4	13.5	1.75e-05	0	43	102	1048576	20	4229
2026-01-23 08:47:18.51	2.99	15.92	-29.8	-30.9	13.8	2.20e-06	0	44	102	1048576	20	4071
2026-01-23 08:47:21.51	2.53	15.69	-29.8	-30.9	13.8	4.50e-06	0	43	102	1048576	20	4088
2026-01-23 08:47:24.52	2.08	15.45	-30.0	-31.5	13.4	1.14e-05	0	43	102	1048576	20	4259
2026-01-23 08:47:27.52	1.63	15.22	-30.5	-32.2	12.5	5.79e-05	0	43	102	1048576	21	4388
2026-01-23 08:47:30.54	1.19	14.99	-30.4	-32.1	12.7	1.07e-04	0	43	102	1048576	21	4372
2026-01-23 08:47:33.55	0.76	14.75	-29.5	-30.1	14.2	1.50e-06	0	43	102	1048576	20	3856
2026-01-23 08:47:36.56	0.34	14.52	-29.7	-30.6	14.0	1.50e-06	0	43	102	1048576	20	3992
2026-01-23 08:47:39.57	359.92	14.29	-30.0	-31.4	13.4	1.83e-05	0	43	102	1048576	20	4232
2026-01-23 08:47:42.59	359.50	14.06	-29.9	-31.1	13.5	7.60e-06	0	43	102	1048576	20	4156
2026-01-23 08:47:45.60	359.10	13.83	-29.7	-30.7	13.8	3.00e-06	0	43	102	1048576	20	4041
2026-01-23 08:47:48.62	358.70	13.60	-29.6	-30.5	13.9	4.50e-06	0	43	102	1048576	20	3974
2026-01-23 08:47:51.64	358.30	13.37	-29.7	-30.7	13.7	8.30e-06	0	43	102	1048576	20	4051
2026-01-23 08:47:54.65	357.92	13.14	-29.7	-30.7	13.7	1.06e-05	0	43	102	1048576	20	4049
2026-01-23 08:47:57.65	357.54	12.92	-30.1	-31.7	13.0	3.12e-05	0	43	102	1048576	20	4356
2026-01-23 08:48:00.66	357.16	12.69	-30.3	-32.2	12.7	7.32e-05	0	44	102	1048576	20	4527
2026-01-23 08:48:03.68	356.79	12.46	-30.3	-32.4	12.5	1.20e-04	0	44	102	1048576	20	4602
2026-01-23 08:48:06.70	356.43	12.24	-30.1	-31.9	12.9	5.18e-05	0	43	102	1048576	20	4415
2026-01-23 08:48:09.71	356.07	12.02	-30.0	-31.6	13.1	3.66e-05	0	43	102	1048576	20	4332
2026-01-23 08:48:12.73	355.72	11.79	-30.4	-32.6	12.4	9.91e-05	0	43	102	1048576	20	4670
2026-01-23 08:48:15.73	355.37	11.57	-30.9	-33.8	11.2	1.34e-03	0	43	102	1048576	21	5001
2026-01-23 08:48:18.74	355.03	11.35	-30.9	-33.3	11.2	1.58e-03	0	43	102	1048576	22	4730
2026-01-23 08:48:21.76	354.70	11.13	-30.6	-32.4	11.8	7.41e-04	0	43	102	1048576	22	4430
2026-01-23 08:48:24.78	354.36	10.91	-30.6	-32.3	11.8	3.62e-04	0	43	102	1048576	22	4382
2026-01-23 08:48:27.79	354.04	10.69	-30.7	-32.6	11.6	4.99e-04	0	43	102	1048576	22	4481
2026-01-23 08:48:30.80	353.72	10.48	-30.7	-32.8	11.5	5.56e-04	0	43	102	1048576	22	4549
2026-01-23 08:48:33.82	353.40	10.26	-31.3	-34.6	10.1	5.00e-03	0	43	102	1048576	22	5273
2026-01-23 08:48:36.83	353.09	10.05	-31.4	-34.7	9.6	1.73e-02	0	43	102	1048576	23	5218
2026-01-23 08:48:39.85	352.78	9.83	-31.5	-34.8	9.5	1.68e-02	0	43	102	1048576	23	5292
2026-01-23 08:48:42.86	352.48	9.62	-31.5	-35.0	9.4	1.58e-02	0	43	102	1048576	23	5387
2026-01-23 08:48:45.88	352.18	9.41	-31.3	-34.2	10.0	8.80e-03	0	43	102	1048576	23	5026
2026-01-23 08:48:48.90	351.89	9.20	-31.4	-34.5	9.8	8.09e-03	0	43	102	1048576	23	5133
2026-01-23 08:48:51.92	351.60	8.99	-31.0	-33.3	10.5	4.65e-03	0	43	102	1048576	23	4696
2026-01-23 08:48:54.94	351.32	8.78	-31.2	-34.0	10.1	5.70e-03	0	43	102	1048576	23	4943
2026-01-23 08:48:57.95	351.04	8.57	-31.4	-34.6	9.5	9.48e-03	0	44	102	1048576	23	5224
2026-01-23 08:49:00.96	350.76	8.37	-31.4	-34.7	9.4	1.45e-02	0	43	102	1048576	23	5258
2026-01-23 08:49:03.97	350.49	8.16	-31.3	-34.3	9.7	1.22e-02	0	43	102	1048576	23	5110
2026-01-23 08:49:06.99	350.22	7.96	-31.0	-33.3	10.5	4.69e-03	0	43	102	1048576	23	4697
2026-01-23 08:49:10.01	349.96	7.75	-30.9	-32.9	10.7	2.72e-03	0	43	102	1048576	23	4561
2026-01-23 08:49:13.01	349.70	7.55	-30.4	-31.9	11.8	5.45e-04	0	43	102	1048576	22	4286
2026-01-23 08:49:16.03	349.44	7.35	-30.4	-32.5	11.7	5.35e-04	0	43	102	1048576	21	4595
2026-01-23 08:49:19.04	349.19	7.15	-30.3	-32.2	11.8	7.61e-04	0	44	102	1048576	21	4474
2026-01-23 08:49:22.06	348.94	6.95	-33.6	-45.7	3.8	1.49e+00	0	43	104	1048576	27	14439

#Closed at: 2026-01-23 08:49:23
#Recorded file [1 MB]: D:/data/31010_260123_113909.dat