passes_logs/2026/01/23/R2M6_AANII_01/R2M6_AANII_01__20260123_041343_AQUA_rec.log

#Pass ID: 20260123_041343_AQUA
#Satellite: AQUA
#Configuration: AQUA
#almurnet v.1.7.20240730
#Start time: 2026-01-23 04:13:43

#Version: 2.2.20231116
#Station: R2M6_AANII_01
#Location: 30.233357 lon 59.946436 lat
#TLE: 1 27424U 02022A   26022.49486490  .00002153  00000+0  44069-3 0  9997
#TLE: 2 27424  98.4099 349.0485 0001970  69.5876  43.4746 14.61847233261984

#Time	Az	El	Level	Level2	SNR	BER	BlckErr	Temp	State	Recorded	gain1	gain2
2026-01-23 04:13:43.61	2.90	7.04	-33.1	-51.0	3.8	7.46e-01	0	41	0	0	26	28216
2026-01-23 04:13:45.61	2.64	7.15	-32.6	-48.8	3.8	7.43e-01	0	41	104	0	25	23416
2026-01-23 04:13:47.62	2.37	7.27	-32.6	-48.8	3.8	7.45e-01	0	41	104	0	25	23287
2026-01-23 04:13:49.63	2.11	7.38	-32.8	-49.1	3.8	7.41e-01	0	41	104	0	26	23609
2026-01-23 04:13:51.64	1.84	7.50	-32.6	-48.2	3.8	7.41e-01	0	42	104	0	26	21767
2026-01-23 04:13:53.65	1.57	7.62	-32.2	-47.0	4.0	7.35e-01	0	42	104	0	25	19852
2026-01-23 04:13:55.65	1.30	7.73	-31.8	-46.1	4.0	7.41e-01	0	41	104	0	24	18667
2026-01-23 04:13:57.66	1.02	7.85	-31.9	-46.4	3.8	7.42e-01	0	42	104	0	24	19250
2026-01-23 04:13:59.67	0.74	7.96	-31.6	-45.4	3.8	7.45e-01	0	42	104	0	24	17678
2026-01-23 04:14:01.69	0.46	8.08	-31.2	-44.7	3.8	7.44e-01	0	42	104	0	23	17058
2026-01-23 04:14:03.70	0.18	8.20	-31.5	-45.6	3.8	7.47e-01	0	42	104	0	23	18335
2026-01-23 04:14:05.71	359.89	8.31	-32.0	-46.8	3.8	7.44e-01	0	42	104	0	24	19828
2026-01-23 04:14:07.71	359.61	8.43	-32.5	-48.2	3.8	7.46e-01	0	42	104	0	25	21941
2026-01-23 04:14:09.72	359.32	8.55	-32.5	-48.5	3.8	7.41e-01	0	42	104	0	25	22615
2026-01-23 04:14:11.72	359.03	8.66	-32.6	-48.2	3.8	7.43e-01	0	42	104	0	26	21737
2026-01-23 04:14:13.72	358.73	8.78	-32.7	-48.6	3.8	7.46e-01	0	42	104	0	26	22453
2026-01-23 04:14:15.73	358.43	8.89	-32.9	-49.8	3.8	7.45e-01	0	42	104	0	26	25006
2026-01-23 04:14:17.74	358.13	9.01	-33.2	-50.6	3.8	7.44e-01	0	42	104	0	27	26637
2026-01-23 04:14:19.74	357.83	9.12	-33.4	-51.5	3.8	7.45e-01	0	42	104	0	27	29108
2026-01-23 04:14:21.75	357.53	9.24	-33.4	-51.8	3.8	7.44e-01	0	42	104	0	27	29867
2026-01-23 04:14:23.77	357.22	9.36	-33.3	-51.3	3.8	7.47e-01	0	42	104	0	27	28380
2026-01-23 04:14:25.77	356.91	9.47	-33.3	-50.9	3.8	7.44e-01	0	42	104	0	27	27332
2026-01-23 04:14:27.79	356.59	9.59	-33.2	-50.3	3.8	7.45e-01	0	42	104	0	27	25850
2026-01-23 04:14:29.79	356.27	9.70	-33.1	-49.5	3.8	7.42e-01	0	42	104	0	27	23825
2026-01-23 04:14:31.79	355.96	9.82	-32.8	-48.7	3.8	7.43e-01	0	42	104	0	26	22600
2026-01-23 04:14:33.80	355.63	9.93	-32.5	-48.2	3.8	7.47e-01	0	42	104	0	25	21790
2026-01-23 04:14:35.81	355.31	10.04	-32.7	-48.1	3.8	7.47e-01	0	42	104	0	26	21289
2026-01-23 04:14:37.82	354.98	10.16	-32.9	-49.0	3.8	7.46e-01	0	43	104	0	26	23067
2026-01-23 04:14:39.82	354.65	10.27	-32.9	-49.1	3.8	7.44e-01	0	43	104	0	26	23326
2026-01-23 04:14:41.83	354.32	10.38	-32.6	-47.7	3.8	7.47e-01	0	43	104	0	26	20461
2026-01-23 04:14:43.84	353.98	10.50	-32.1	-46.5	3.8	7.44e-01	0	43	104	0	25	18907
2026-01-23 04:14:45.85	353.64	10.61	-31.8	-46.1	3.8	7.43e-01	0	43	104	0	24	18507
2026-01-23 04:14:47.86	353.30	10.72	-31.3	-44.9	3.9	7.46e-01	0	43	104	0	23	17274
2026-01-23 04:14:49.86	352.95	10.83	-30.9	-44.3	3.8	7.44e-01	0	43	104	0	22	16829
2026-01-23 04:14:51.88	352.60	10.95	-30.7	-43.8	3.8	7.45e-01	0	43	104	0	22	16170
2026-01-23 04:14:53.89	352.25	11.06	-31.2	-44.7	3.8	7.44e-01	0	43	104	0	23	16893
2026-01-23 04:14:55.90	351.90	11.17	-31.9	-46.1	3.8	7.46e-01	0	43	104	0	24	18506
2026-01-23 04:14:57.91	351.54	11.28	-32.5	-47.7	3.8	7.44e-01	0	43	104	0	25	20753
2026-01-23 04:14:59.92	351.18	11.39	-32.5	-47.9	3.8	7.45e-01	0	43	104	0	25	21086
2026-01-23 04:15:01.94	350.82	11.50	-32.7	-47.9	3.8	7.44e-01	0	43	104	0	26	20814
2026-01-23 04:15:03.95	350.45	11.61	-32.7	-48.2	3.8	7.45e-01	0	43	104	0	26	21422
2026-01-23 04:15:05.95	350.08	11.71	-32.8	-48.6	3.8	7.46e-01	0	43	104	0	26	22125
2026-01-23 04:15:07.96	349.71	11.82	-33.2	-49.7	3.8	7.47e-01	0	43	104	0	27	24194
2026-01-23 04:15:09.97	349.34	11.93	-33.4	-50.9	3.8	7.49e-01	0	43	104	0	27	27068
2026-01-23 04:15:11.98	348.96	12.04	-33.5	-51.2	3.9	7.44e-01	0	43	104	0	27	27620
2026-01-23 04:15:14.00	348.58	12.14	-33.4	-50.7	3.8	7.45e-01	0	43	104	0	27	26558
2026-01-23 04:15:16.00	348.20	12.25	-33.3	-50.4	3.8	7.43e-01	0	43	104	0	27	25755
2026-01-23 04:15:18.02	347.81	12.35	-33.2	-49.9	3.8	7.45e-01	0	43	104	0	27	24570
2026-01-23 04:15:20.03	347.42	12.46	-33.1	-49.1	3.8	7.44e-01	0	43	104	0	27	22838
2026-01-23 04:15:22.03	347.03	12.56	-32.8	-48.4	3.8	7.42e-01	0	43	104	0	26	21676
2026-01-23 04:15:24.04	346.63	12.66	-32.7	-47.9	3.8	7.43e-01	0	43	104	0	26	20832
2026-01-23 04:15:26.05	346.23	12.76	-33.0	-48.9	3.8	7.44e-01	0	43	104	0	26	22686
2026-01-23 04:15:28.06	345.83	12.86	-33.0	-49.1	3.8	7.44e-01	0	43	104	0	26	23033
2026-01-23 04:15:30.07	345.42	12.96	-32.7	-47.9	3.8	7.42e-01	0	43	104	0	26	20700
2026-01-23 04:15:32.07	345.02	13.06	-32.1	-46.3	3.8	7.46e-01	0	43	104	0	25	18390
2026-01-23 04:15:34.07	344.61	13.16	-31.6	-45.2	3.8	7.47e-01	0	43	104	0	24	17213
2026-01-23 04:15:36.08	344.20	13.25	-31.3	-44.6	3.8	7.44e-01	0	43	104	0	23	16759
2026-01-23 04:15:38.08	343.78	13.35	-30.8	-43.3	3.8	7.43e-01	0	43	104	0	23	15138
2026-01-23 04:15:40.09	343.36	13.44	-30.6	-43.3	3.8	7.44e-01	0	43	104	0	22	15537
2026-01-23 04:15:42.11	342.94	13.54	-30.6	-43.2	3.8	7.45e-01	0	43	104	0	22	15433
2026-01-23 04:15:44.11	342.51	13.63	-31.1	-44.6	3.8	7.45e-01	0	43	104	0	22	17063
2026-01-23 04:15:46.12	342.08	13.72	-31.8	-45.8	3.8	7.42e-01	0	43	104	0	24	18043
2026-01-23 04:15:48.13	341.65	13.81	-32.4	-47.4	3.8	7.45e-01	0	43	104	0	25	20254
2026-01-23 04:15:50.13	341.22	13.90	-32.6	-47.9	3.8	7.46e-01	0	43	104	0	25	20960
2026-01-23 04:15:52.14	340.78	13.99	-32.5	-47.8	3.8	7.45e-01	0	43	104	0	25	20940
2026-01-23 04:15:54.16	340.34	14.08	-32.4	-47.2	3.8	7.43e-01	0	43	104	0	25	19877
2026-01-23 04:15:56.16	339.90	14.16	-32.7	-47.7	3.8	7.45e-01	0	43	104	0	26	20351
2026-01-23 04:15:58.17	339.46	14.25	-33.1	-49.2	3.8	7.46e-01	0	43	104	0	27	22796
2026-01-23 04:16:00.17	339.01	14.33	-33.4	-50.6	3.8	7.46e-01	0	43	104	0	27	26014
2026-01-23 04:16:02.19	338.56	14.41	-33.5	-50.8	3.8	7.43e-01	0	43	104	0	27	26412
2026-01-23 04:16:04.20	338.10	14.49	-33.4	-50.3	3.8	7.44e-01	0	43	104	0	27	25360
2026-01-23 04:16:06.21	337.65	14.57	-33.3	-50.1	3.8	7.41e-01	0	43	104	0	27	24901
2026-01-23 04:16:08.22	337.19	14.65	-33.3	-50.0	3.8	7.45e-01	0	43	104	0	27	24497
2026-01-23 04:16:10.23	336.73	14.72	-33.2	-49.5	3.8	7.45e-01	0	43	104	0	27	23469
2026-01-23 04:16:12.23	336.27	14.80	-33.0	-48.8	3.8	7.46e-01	0	43	104	0	26	22396
2026-01-23 04:16:14.25	335.80	14.87	-33.0	-49.1	3.8	7.44e-01	0	43	104	0	26	22872
2026-01-23 04:16:16.26	335.33	14.94	-33.0	-48.9	3.8	7.44e-01	0	43	104	0	26	22560
2026-01-23 04:16:18.28	334.86	15.01	-32.6	-47.6	3.8	7.44e-01	0	43	104	0	26	20095
2026-01-23 04:16:20.29	334.38	15.08	-32.4	-46.6	3.8	7.45e-01	0	43	104	0	26	18564
2026-01-23 04:16:22.30	333.91	15.15	-31.8	-45.5	3.8	7.42e-01	0	43	104	0	24	17587
2026-01-23 04:16:24.31	333.43	15.21	-31.2	-44.2	3.8	7.46e-01	0	43	104	0	23	16224
2026-01-23 04:16:26.32	332.95	15.27	-30.8	-43.2	3.8	7.46e-01	0	43	104	0	23	15072
2026-01-23 04:16:28.33	332.47	15.33	-30.6	-43.2	3.8	7.45e-01	0	43	104	0	22	15355
2026-01-23 04:16:30.34	331.98	15.39	-30.5	-43.4	3.8	7.48e-01	0	43	104	0	21	15927
2026-01-23 04:16:32.34	331.50	15.45	-30.8	-43.7	3.8	7.46e-01	0	43	104	0	22	15842
2026-01-23 04:16:34.35	331.01	15.51	-31.2	-44.4	3.8	7.47e-01	0	43	104	0	23	16368
2026-01-23 04:16:36.36	330.52	15.56	-31.7	-45.6	3.8	7.48e-01	0	43	104	0	24	17727
2026-01-23 04:16:38.37	330.03	15.61	-32.5	-47.5	3.8	7.45e-01	0	43	104	0	25	20185
2026-01-23 04:16:40.37	329.53	15.66	-32.4	-47.2	3.8	7.47e-01	0	43	104	0	25	19720
2026-01-23 04:16:42.39	329.04	15.71	-32.2	-46.6	3.8	7.43e-01	0	43	104	0	25	18868
2026-01-23 04:16:44.39	328.54	15.76	-32.3	-46.9	3.8	7.44e-01	0	44	104	0	25	19288
2026-01-23 04:16:46.40	328.04	15.80	-32.7	-48.0	3.8	7.43e-01	0	43	104	0	26	20827
2026-01-23 04:16:48.40	327.54	15.84	-33.1	-49.0	3.8	7.43e-01	0	44	104	0	27	22393
2026-01-23 04:16:50.40	327.04	15.88	-33.4	-50.2	3.8	7.46e-01	0	43	104	0	27	24937
2026-01-23 04:16:52.41	326.54	15.92	-33.4	-50.5	3.8	7.45e-01	0	43	104	0	27	25559
2026-01-23 04:16:54.41	326.04	15.96	-33.4	-50.3	3.8	7.43e-01	0	43	104	0	27	25298
2026-01-23 04:16:56.42	325.53	15.99	-33.4	-50.2	3.8	7.45e-01	0	43	104	0	27	24977
2026-01-23 04:16:58.43	325.02	16.02	-33.4	-50.1	3.8	7.43e-01	0	43	104	0	27	24706
2026-01-23 04:17:00.43	324.51	16.05	-33.4	-50.1	3.8	7.44e-01	0	44	104	0	27	24617
2026-01-23 04:17:02.43	324.01	16.08	-33.3	-49.8	3.8	7.43e-01	0	44	104	0	27	24125
2026-01-23 04:17:04.45	323.49	16.11	-33.0	-48.4	3.8	7.43e-01	0	43	104	0	27	21267
2026-01-23 04:17:06.45	322.98	16.13	-32.7	-47.6	3.8	7.46e-01	0	43	104	0	26	20073
2026-01-23 04:17:08.45	322.47	16.15	-32.4	-47.1	3.8	7.43e-01	0	43	104	0	25	19623
2026-01-23 04:17:10.47	321.96	16.17	-32.1	-46.1	3.8	7.46e-01	0	43	104	0	25	17995
2026-01-23 04:17:12.47	321.45	16.18	-31.4	-44.8	3.8	7.47e-01	0	43	104	0	23	16947
2026-01-23 04:17:14.48	320.93	16.20	-30.9	-43.9	3.8	7.47e-01	0	43	104	0	22	16198
2026-01-23 04:17:16.48	320.42	16.21	-30.7	-43.3	3.8	7.43e-01	0	43	104	0	22	15483
2026-01-23 04:17:18.50	319.90	16.22	-30.4	-43.2	3.8	7.46e-01	0	43	104	0	21	15698
2026-01-23 04:17:20.50	319.39	16.23	-30.5	-43.6	3.8	7.47e-01	0	43	104	0	21	16197
2026-01-23 04:17:22.51	318.87	16.23	-30.6	-43.7	3.8	7.46e-01	0	43	104	0	21	16328
2026-01-23 04:17:24.52	318.36	16.24	-31.0	-44.2	3.8	7.47e-01	0	44	104	0	22	16541
2026-01-23 04:17:26.53	317.84	16.24	-31.6	-45.1	3.8	7.45e-01	0	43	104	0	24	16979
2026-01-23 04:17:28.54	317.32	16.24	-32.1	-46.1	3.8	7.46e-01	0	44	104	0	25	18070
2026-01-23 04:17:30.54	316.81	16.23	-32.1	-46.2	3.8	7.48e-01	0	43	104	0	25	18240
2026-01-23 04:17:32.54	316.29	16.23	-32.3	-46.8	3.8	7.45e-01	0	44	104	0	25	19153
2026-01-23 04:17:34.55	315.78	16.22	-32.6	-47.8	3.8	7.46e-01	0	43	104	0	25	20862
2026-01-23 04:17:36.56	315.26	16.21	-32.9	-48.7	3.8	7.45e-01	0	43	104	0	26	22178
2026-01-23 04:17:38.57	314.75	16.20	-33.1	-49.1	3.8	7.43e-01	0	43	104	0	27	22717
2026-01-23 04:17:40.58	314.23	16.18	-33.3	-49.8	3.8	7.47e-01	0	43	104	0	27	24135
2026-01-23 04:17:42.59	313.72	16.17	-33.3	-50.0	3.8	7.49e-01	0	43	104	0	27	24547
2026-01-23 04:17:44.60	313.20	16.15	-33.3	-50.0	3.8	7.45e-01	0	44	104	0	27	24598
2026-01-23 04:17:46.61	312.69	16.13	-33.3	-50.3	3.8	7.48e-01	0	43	104	0	27	25280
2026-01-23 04:17:48.63	312.18	16.10	-33.3	-50.0	3.8	7.44e-01	0	44	104	0	27	24671
2026-01-23 04:17:50.63	311.67	16.08	-33.1	-49.2	3.8	7.46e-01	0	43	104	0	27	22844
2026-01-23 04:17:52.63	311.16	16.05	-32.8	-48.4	3.8	7.43e-01	0	43	104	0	26	21541
2026-01-23 04:17:54.64	310.65	16.02	-32.5	-46.8	3.8	7.48e-01	0	44	104	0	26	18728
2026-01-23 04:17:56.64	310.15	15.99	-32.2	-46.4	3.8	7.44e-01	0	44	104	0	25	18436
2026-01-23 04:17:58.66	309.64	15.95	-31.9	-45.6	3.8	7.42e-01	0	44	104	0	25	17319
2026-01-23 04:18:00.66	309.13	15.92	-31.7	-45.4	3.8	7.43e-01	0	43	104	0	24	17535
2026-01-23 04:18:02.67	308.63	15.88	-31.0	-44.0	3.8	7.45e-01	0	44	104	0	23	16097
2026-01-23 04:18:04.67	308.13	15.84	-30.4	-42.7	3.8	7.41e-01	0	43	104	0	22	14780
2026-01-23 04:18:06.68	307.63	15.80	-30.2	-42.6	3.8	7.44e-01	0	43	104	0	21	15002
2026-01-23 04:18:08.68	307.13	15.75	-30.4	-43.7	3.8	7.43e-01	0	44	104	0	21	16540
2026-01-23 04:18:10.68	306.63	15.71	-30.2	-42.9	3.8	7.42e-01	0	44	104	0	21	15549
2026-01-23 04:18:12.69	306.14	15.66	-30.2	-42.6	3.8	7.43e-01	0	43	104	0	21	15001
2026-01-23 04:18:14.70	305.64	15.61	-30.7	-43.7	3.8	7.42e-01	0	43	104	0	22	16146
2026-01-23 04:18:16.72	305.14	15.56	-31.3	-45.0	3.8	7.42e-01	0	44	104	0	23	17396
2026-01-23 04:18:18.73	304.65	15.50	-31.8	-45.7	3.8	7.43e-01	0	43	104	0	24	17867
2026-01-23 04:18:20.74	304.16	15.45	-32.0	-46.0	3.8	7.48e-01	0	43	104	0	24	18161
2026-01-23 04:18:22.74	303.68	15.39	-32.3	-46.7	3.8	7.46e-01	0	44	104	0	25	18945
2026-01-23 04:18:24.74	303.20	15.33	-32.7	-47.6	3.8	7.45e-01	0	43	104	0	26	20108
2026-01-23 04:18:26.75	302.71	15.27	-33.0	-49.0	3.8	7.43e-01	0	44	104	0	26	22933
2026-01-23 04:18:28.76	302.23	15.21	-33.1	-49.6	3.8	7.45e-01	0	43	104	0	27	23889
2026-01-23 04:18:30.77	301.75	15.14	-33.2	-50.4	3.8	7.46e-01	0	44	104	0	27	26047
2026-01-23 04:18:32.79	301.27	15.07	-33.2	-50.3	3.8	7.42e-01	0	44	104	0	27	25601
2026-01-23 04:18:34.79	300.80	15.01	-33.2	-50.0	3.8	7.43e-01	0	44	104	0	27	24808
2026-01-23 04:18:36.80	300.33	14.94	-33.2	-49.8	3.8	7.45e-01	0	44	104	0	27	24238
2026-01-23 04:18:38.81	299.86	14.86	-33.0	-49.6	3.8	7.44e-01	0	44	104	0	26	24232
2026-01-23 04:18:40.82	299.39	14.79	-32.7	-48.6	3.8	7.46e-01	0	43	104	0	26	22480
2026-01-23 04:18:42.82	298.93	14.72	-32.3	-47.7	3.8	7.47e-01	0	43	104	0	25	21200
2026-01-23 04:18:44.84	298.46	14.64	-31.9	-46.5	3.8	7.46e-01	0	44	104	0	24	19286
2026-01-23 04:18:46.85	298.01	14.56	-31.7	-45.4	3.8	7.45e-01	0	43	104	0	24	17384
2026-01-23 04:18:48.86	297.55	14.48	-31.5	-45.4	3.8	7.43e-01	0	43	104	0	23	17715
2026-01-23 04:18:50.85	297.10	14.40	-31.2	-44.7	3.8	7.43e-01	0	44	104	0	23	17039
2026-01-23 04:18:52.87	296.64	14.32	-30.6	-43.3	3.8	7.46e-01	0	44	104	0	22	15617
2026-01-23 04:18:54.87	296.20	14.24	-30.2	-42.2	3.8	7.44e-01	0	43	104	0	22	14375
2026-01-23 04:18:56.89	295.75	14.15	-30.2	-43.1	3.8	7.44e-01	0	43	104	0	21	15908
2026-01-23 04:18:58.89	295.31	14.07	-30.1	-43.1	3.8	7.42e-01	0	44	104	0	20	16126
2026-01-23 04:19:00.91	294.86	13.98	-30.2	-42.7	3.8	7.45e-01	0	43	104	0	21	15151
2026-01-23 04:19:02.91	294.43	13.89	-30.4	-43.5	3.8	7.45e-01	0	44	104	0	21	16243
2026-01-23 04:19:04.92	293.99	13.80	-30.8	-43.9	3.8	7.41e-01	0	44	104	0	22	16420
2026-01-23 04:19:06.93	293.56	13.71	-31.4	-45.0	3.8	7.45e-01	0	43	104	0	23	17321
2026-01-23 04:19:08.95	293.13	13.62	-31.8	-46.2	3.8	7.44e-01	0	44	104	0	24	18879
2026-01-23 04:19:10.95	292.70	13.53	-32.2	-46.9	3.8	7.44e-01	0	43	104	0	25	19566
2026-01-23 04:19:12.96	292.28	13.43	-32.6	-48.1	3.8	7.44e-01	0	43	104	0	25	21601
2026-01-23 04:19:14.97	291.86	13.34	-32.9	-49.4	3.8	7.44e-01	0	44	104	0	26	24205
2026-01-23 04:19:16.97	291.44	13.24	-33.0	-49.8	3.8	7.43e-01	0	44	104	0	26	24838
2026-01-23 04:19:18.99	291.03	13.15	-33.0	-49.7	3.8	7.44e-01	0	43	104	0	26	24497
2026-01-23 04:19:20.99	290.62	13.05	-33.1	-50.3	3.8	7.44e-01	0	44	104	0	26	26131
2026-01-23 04:19:23.00	290.21	12.95	-33.0	-50.4	3.8	7.46e-01	0	44	104	0	26	26657
2026-01-23 04:19:25.01	289.80	12.85	-33.0	-49.9	3.8	7.45e-01	0	44	104	0	26	25032
2026-01-23 04:19:27.02	289.40	12.75	-33.0	-50.1	3.8	7.47e-01	0	43	104	0	26	25801
2026-01-23 04:19:29.03	289.00	12.65	-32.8	-49.1	3.8	7.45e-01	0	44	104	0	26	23682
2026-01-23 04:19:31.02	288.60	12.54	-32.4	-46.7	3.8	7.43e-01	0	44	104	0	26	18828
2026-01-23 04:19:33.03	288.21	12.44	-31.8	-46.6	3.8	7.44e-01	0	43	104	0	24	19858
2026-01-23 04:19:35.04	287.82	12.34	-31.5	-44.8	3.8	7.45e-01	0	43	104	0	24	16700
2026-01-23 04:19:37.04	287.43	12.23	-31.3	-45.1	3.8	7.47e-01	0	43	104	0	23	17633
2026-01-23 04:19:39.06	287.04	12.13	-31.3	-45.5	3.8	7.43e-01	0	43	104	0	23	18384
2026-01-23 04:19:41.06	286.66	12.02	-31.0	-43.8	3.8	7.45e-01	0	43	104	0	23	15676
2026-01-23 04:19:43.07	286.28	11.91	-30.4	-43.2	3.8	7.42e-01	0	43	104	0	22	15781
2026-01-23 04:19:45.07	285.91	11.81	-30.1	-42.3	3.8	7.43e-01	0	44	104	0	21	14667
2026-01-23 04:19:47.07	285.54	11.70	-30.1	-43.4	3.8	7.45e-01	0	43	104	0	20	16731
2026-01-23 04:19:49.07	285.17	11.59	-30.3	-42.8	3.8	7.46e-01	0	44	104	0	21	15269
2026-01-23 04:19:51.08	284.80	11.48	-30.8	-44.2	3.8	7.44e-01	0	44	104	0	22	16889
2026-01-23 04:19:53.09	284.44	11.37	-31.0	-44.4	3.8	7.47e-01	0	43	104	0	22	16943
2026-01-23 04:19:55.10	284.08	11.26	-31.3	-45.0	3.8	7.44e-01	0	44	104	0	23	17596
2026-01-23 04:19:57.10	283.72	11.15	-31.7	-45.8	3.8	7.43e-01	0	44	104	0	24	18345
2026-01-23 04:19:59.11	283.36	11.04	-30.9	-45.9	3.8	7.47e-01	0	43	104	0	24	20277
2026-01-23 04:20:01.11	283.01	10.93	-32.5	-48.6	3.8	7.44e-01	0	44	104	0	25	23064
2026-01-23 04:20:03.12	282.66	10.82	-32.8	-49.3	3.8	7.49e-01	0	43	104	0	26	24040
2026-01-23 04:20:05.12	282.32	10.71	-32.5	-48.3	3.8	7.44e-01	0	44	104	0	25	22228
2026-01-23 04:20:07.13	281.97	10.59	-32.7	-48.9	3.8	7.45e-01	0	43	104	0	26	23246
2026-01-23 04:20:09.13	281.63	10.48	-32.8	-49.6	3.8	7.47e-01	0	43	104	0	26	24957
2026-01-23 04:20:11.14	281.30	10.37	-32.9	-50.1	3.8	7.44e-01	0	44	104	0	26	26199
2026-01-23 04:20:13.15	280.96	10.25	-32.9	-50.2	3.8	7.45e-01	0	43	104	0	26	26409
2026-01-23 04:20:15.16	280.63	10.14	-32.9	-50.0	3.8	7.47e-01	0	44	104	0	26	25990
2026-01-23 04:20:17.16	280.30	10.03	-32.8	-49.8	3.8	7.47e-01	0	43	104	0	26	25330
2026-01-23 04:20:19.17	279.97	9.91	-32.5	-48.9	3.8	7.43e-01	0	44	104	0	25	23842
2026-01-23 04:20:21.18	279.65	9.80	-32.1	-47.0	3.8	7.46e-01	0	43	104	0	25	20119
2026-01-23 04:20:23.19	279.33	9.68	-31.5	-46.0	3.8	7.45e-01	0	44	104	0	23	18988
2026-01-23 04:20:25.21	279.01	9.57	-31.3	-45.4	3.8	7.42e-01	0	44	104	0	23	18165
2026-01-23 04:20:27.21	278.69	9.45	-31.3	-45.5	3.8	7.44e-01	0	44	104	0	23	18379
2026-01-23 04:20:29.22	278.38	9.34	-31.4	-45.5	3.8	7.44e-01	0	43	104	0	23	18185
2026-01-23 04:20:31.23	278.07	9.22	-31.1	-44.4	3.8	7.46e-01	0	43	104	0	23	16700
2026-01-23 04:20:33.25	277.76	9.10	-30.7	-44.2	3.8	7.45e-01	0	44	104	0	22	16887
2026-01-23 04:20:35.26	277.45	8.99	-30.6	-44.2	3.8	7.47e-01	0	43	104	0	21	17298
2026-01-23 04:20:37.27	277.15	8.87	-30.7	-43.8	3.8	7.45e-01	0	44	104	0	22	16326
2026-01-23 04:20:39.27	276.85	8.76	-30.9	-36.2	5.2	7.09e-01	0	43	0	0	22	6604
2026-01-23 04:20:41.28	276.56	8.64	-30.8	-35.3	16.3	6.01e-01	0	43	104	0	22	6003
2026-01-23 04:20:43.29	276.26	8.52	-30.5	-34.9	17.0	6.01e-01	0	43	0	2621440	21	5950
2026-01-23 04:20:45.30	275.97	8.41	-30.7	-34.9	16.7	5.99e-01	0	44	0	6291456	22	5816
2026-01-23 04:20:47.30	275.68	8.29	-30.7	-34.9	16.6	6.02e-01	0	43	0	10485760	22	5850
2026-01-23 04:20:49.31	275.39	8.17	-30.7	-34.8	16.6	5.99e-01	0	43	0	14155776	22	5818
2026-01-23 04:20:51.31	275.11	8.06	-30.7	-34.9	16.5	5.99e-01	0	44	0	17825792	22	5859
2026-01-23 04:20:53.32	274.83	7.94	-30.4	-34.5	17.2	6.02e-01	0	44	0	21495808	21	5779
2026-01-23 04:20:55.32	274.55	7.82	-30.2	-34.1	17.4	6.02e-01	0	43	0	25165824	21	5605
2026-01-23 04:20:57.33	274.27	7.71	-30.3	-34.2	17.4	6.01e-01	0	44	0	28835840	21	5648
2026-01-23 04:20:59.34	274.00	7.59	-30.3	-34.4	17.2	6.01e-01	0	43	0	33030144	21	5741
2026-01-23 04:21:01.34	273.73	7.47	-30.4	-34.5	17.1	5.99e-01	0	43	0	36700160	21	5814
2026-01-23 04:21:03.34	273.46	7.36	-30.3	-34.3	17.2	5.99e-01	0	44	0	40370176	21	5727
2026-01-23 04:21:05.36	273.19	7.24	-30.3	-34.2	17.3	6.00e-01	0	44	0	44040192	21	5680
2026-01-23 04:21:07.35	272.93	7.13	-30.3	-34.2	17.2	6.02e-01	0	44	0	47710208	21	5682
2026-01-23 04:21:09.35	272.67	7.01	-33.5	-53.1	3.8	7.47e-01	0	44	104	49807360	27	34249
2026-01-23 04:21:11.36	272.41	6.89	-34.2	-53.4	3.8	7.43e-01	0	43	104	49807360	29	32882

#Closed at: 2026-01-23 04:21:11
#Recorded file [49 MB]: D:/data/31010_260123_072041.dat