passes_logs/2026/01/23/R2M6_AANII_01/R2M6_AANII_01__20260123_222637_SUOMI_NPP_rec.log

#Pass ID: 20260123_222637_SUOMI NPP
#Satellite: SUOMI NPP
#Configuration: NPP
#almurnet v.1.7.20240730
#Start time: 2026-01-23 22:26:37

#Version: 2.2.20231116
#Station: R2M6_AANII_01
#Location: 30.233357 lon 59.946436 lat
#TLE: 1 37849U 11061A   26022.92790088  .00000200  00000+0  11571-3 0  9994
#TLE: 2 37849  98.7820 324.9085 0002258  50.1112 310.0263 14.19528452737839

#Time	Az	El	Level	Level2	SNR	BER	BlckErr	Temp	State	Recorded	gain1	gain2
2026-01-23 22:26:37.29	34.65	6.99	-31.5	-35.7	5.2	1.18e+00	0	41	0	0	23	5808
2026-01-23 22:26:40.30	34.99	7.15	-32.3	-39.2	5.5	4.30e-01	0	41	102	1048576	24	7966
2026-01-23 22:26:43.31	35.34	7.31	-32.1	-37.8	6.4	3.09e-01	0	42	102	1048576	24	6950
2026-01-23 22:26:46.32	35.69	7.48	-31.6	-35.9	8.3	6.26e-02	0	42	102	1048576	23	5907
2026-01-23 22:26:49.34	36.05	7.64	-31.2	-34.6	9.7	1.12e-02	0	42	102	1048576	22	5335
2026-01-23 22:26:52.34	36.41	7.80	-31.1	-34.3	10.0	1.21e-02	0	42	102	1048576	22	5213
2026-01-23 22:26:55.35	36.78	7.97	-30.6	-33.0	11.3	1.09e-03	0	42	102	1048576	21	4779
2026-01-23 22:26:58.36	37.15	8.13	-30.4	-33.0	11.7	9.86e-04	0	42	102	1048576	20	4876
2026-01-23 22:27:01.38	37.52	8.30	-30.2	-32.4	12.2	6.60e-04	0	42	102	1048576	20	4615
2026-01-23 22:27:04.39	37.90	8.46	-30.4	-32.3	12.2	5.78e-04	0	42	102	1048576	21	4462
2026-01-23 22:27:07.39	38.28	8.62	-30.3	-32.6	12.2	5.11e-04	0	42	102	1048576	20	4690
2026-01-23 22:27:10.40	38.66	8.79	-30.5	-33.0	12.0	3.65e-04	0	42	102	1048576	20	4799
2026-01-23 22:27:13.40	39.05	8.95	-30.5	-32.6	12.0	3.51e-04	0	42	102	1048576	21	4571
2026-01-23 22:27:16.41	39.44	9.12	-30.6	-32.8	11.8	6.64e-04	0	43	102	1048576	21	4645
2026-01-23 22:27:19.42	39.84	9.28	-30.7	-33.2	11.5	5.78e-04	0	42	102	1048576	21	4795
2026-01-23 22:27:22.43	40.24	9.44	-30.8	-33.5	11.3	1.00e-03	0	42	102	1048576	21	4904
2026-01-23 22:27:25.43	40.65	9.61	-30.7	-33.2	11.5	7.31e-04	0	43	102	1048576	21	4793
2026-01-23 22:27:28.42	41.06	9.77	-30.5	-32.5	12.0	3.58e-04	0	43	102	1048576	21	4546
2026-01-23 22:27:31.43	41.47	9.93	-30.3	-31.9	12.4	1.50e-04	0	43	102	1048576	21	4344
2026-01-23 22:27:34.44	41.89	10.10	-30.3	-32.1	12.3	2.71e-04	0	43	102	1048576	21	4416
2026-01-23 22:27:37.45	42.32	10.26	-30.1	-31.5	12.7	1.28e-04	0	43	102	1048576	21	4203
2026-01-23 22:27:40.45	42.74	10.42	-30.0	-31.5	13.1	2.17e-04	0	43	102	1048576	20	4284
2026-01-23 22:27:43.46	43.18	10.58	-29.8	-30.9	13.5	2.05e-05	0	43	102	1048576	20	4100
2026-01-23 22:27:46.47	43.61	10.74	-29.5	-30.2	13.9	6.80e-06	0	43	102	1048576	20	3901
2026-01-23 22:27:49.49	44.06	10.91	-29.8	-31.0	13.4	1.44e-05	0	43	102	1048576	20	4124
2026-01-23 22:27:52.50	44.51	11.07	-30.2	-32.0	12.6	6.48e-05	0	43	102	1048576	20	4469
2026-01-23 22:27:55.52	44.96	11.23	-30.0	-31.6	13.0	2.89e-05	0	43	102	1048576	20	4326
2026-01-23 22:27:58.53	45.42	11.39	-29.9	-31.6	13.4	1.37e-05	0	43	102	1048576	19	4418
2026-01-23 22:28:01.54	45.88	11.55	-29.9	-31.4	13.2	2.89e-05	0	43	102	1048576	20	4264
2026-01-23 22:28:04.55	46.35	11.71	-29.9	-31.3	13.3	1.67e-05	0	43	102	1048576	20	4217
2026-01-23 22:28:07.55	46.82	11.86	-29.8	-31.0	13.5	1.98e-05	0	43	102	1048576	20	4134
2026-01-23 22:28:10.56	47.29	12.02	-29.9	-31.2	13.3	1.29e-05	0	43	102	1048576	20	4193
2026-01-23 22:28:13.57	47.78	12.18	-29.9	-31.4	13.2	2.51e-05	0	43	102	1048576	20	4243
2026-01-23 22:28:16.58	48.26	12.33	-29.9	-31.2	13.4	1.90e-05	0	43	102	1048576	20	4186
2026-01-23 22:28:19.58	48.75	12.49	-29.9	-31.2	13.4	1.75e-05	0	43	102	1048576	20	4204
2026-01-23 22:28:22.58	49.25	12.64	-30.0	-31.6	13.0	2.67e-05	0	43	102	1048576	20	4318
2026-01-23 22:28:25.61	49.75	12.80	-30.1	-31.8	12.9	3.35e-05	0	43	102	1048576	20	4358
2026-01-23 22:28:28.61	50.26	12.95	-30.2	-32.1	12.8	7.24e-05	0	43	102	1048576	20	4483
2026-01-23 22:28:31.62	50.77	13.10	-30.2	-32.1	12.8	8.62e-05	0	43	102	1048576	20	4483
2026-01-23 22:28:34.64	51.29	13.25	-30.2	-32.2	12.7	5.41e-05	0	43	102	1048576	20	4497
2026-01-23 22:28:37.64	51.81	13.40	-30.4	-32.7	12.5	1.34e-04	0	43	102	1048576	20	4656
2026-01-23 22:28:40.65	52.34	13.54	-30.7	-33.1	11.9	2.22e-04	0	43	102	1048576	21	4723
2026-01-23 22:28:43.67	52.87	13.69	-30.6	-32.6	12.2	2.91e-04	0	43	102	1048576	21	4542
2026-01-23 22:28:46.68	53.41	13.83	-30.6	-32.7	12.1	1.98e-04	0	44	102	1048576	21	4578
2026-01-23 22:28:49.69	53.95	13.98	-30.6	-32.8	12.1	3.55e-04	0	43	102	1048576	21	4597
2026-01-23 22:28:52.71	54.50	14.12	-30.5	-32.2	12.5	1.17e-04	0	43	102	1048576	21	4402
2026-01-23 22:28:55.72	55.06	14.26	-30.6	-32.8	12.1	2.86e-04	0	44	102	1048576	21	4600
2026-01-23 22:28:58.73	55.61	14.40	-30.5	-32.3	12.4	1.62e-04	0	44	102	1048576	21	4442
2026-01-23 22:29:01.74	56.18	14.53	-30.5	-32.3	12.4	8.92e-05	0	43	102	1048576	21	4434
2026-01-23 22:29:04.76	56.75	14.67	-30.7	-33.0	12.0	2.46e-04	0	43	102	1048576	21	4683
2026-01-23 22:29:07.77	57.32	14.80	-30.7	-33.0	12.0	3.95e-04	0	43	102	1048576	21	4666
2026-01-23 22:29:10.78	57.90	14.93	-30.8	-33.3	11.8	4.42e-04	0	44	102	1048576	21	4778
2026-01-23 22:29:13.80	58.48	15.06	-31.0	-33.2	11.4	8.35e-04	0	44	102	1048576	22	4669
2026-01-23 22:29:16.81	59.07	15.19	-30.9	-32.9	11.6	6.82e-04	0	43	102	1048576	22	4562
2026-01-23 22:29:19.82	59.67	15.31	-30.7	-32.7	12.1	2.78e-04	0	44	102	1048576	21	4578
2026-01-23 22:29:22.83	60.26	15.44	-30.8	-33.2	11.8	4.48e-04	0	44	102	1048576	21	4751
2026-01-23 22:29:25.83	60.86	15.56	-30.9	-33.1	11.6	1.09e-03	0	44	102	1048576	22	4604
2026-01-23 22:29:28.83	61.47	15.67	-30.3	-31.3	12.9	5.72e-05	0	43	102	1048576	22	4006
2026-01-23 22:29:31.85	62.08	15.79	-30.3	-31.7	13.0	2.67e-05	0	44	102	1048576	21	4220
2026-01-23 22:29:34.87	62.70	15.90	-30.0	-30.9	13.4	1.14e-05	0	44	102	1048576	21	4005
2026-01-23 22:29:37.89	63.33	16.01	-29.9	-31.2	13.2	6.80e-06	0	44	102	1048576	20	4177
2026-01-23 22:29:40.90	63.95	16.12	-29.9	-31.2	13.3	9.10e-06	0	44	102	1048576	20	4163
2026-01-23 22:29:43.91	64.58	16.22	-30.0	-31.4	13.4	1.98e-05	0	44	102	1048576	20	4222
2026-01-23 22:29:46.92	65.22	16.33	-29.9	-31.1	13.7	1.06e-05	0	44	102	1048576	20	4147
2026-01-23 22:29:49.94	65.86	16.42	-30.4	-32.5	12.9	3.01e-04	0	43	102	1048576	20	4574
2026-01-23 22:29:52.95	66.50	16.52	-30.7	-32.7	12.3	5.13e-04	0	43	102	1048576	21	4575
2026-01-23 22:29:55.96	67.15	16.61	-30.4	-32.1	12.7	7.70e-05	0	44	102	1048576	21	4346
2026-01-23 22:29:58.97	67.80	16.70	-30.3	-32.2	13.0	4.04e-05	0	44	102	1048576	20	4473
2026-01-23 22:30:01.98	68.45	16.79	-30.1	-31.7	13.3	1.06e-05	0	44	102	1048576	20	4320
2026-01-23 22:30:05.00	69.11	16.87	-30.1	-31.7	13.3	5.95e-05	0	44	102	1048576	20	4321
2026-01-23 22:30:08.01	69.77	16.95	-30.4	-32.1	12.7	1.80e-04	0	44	102	1048576	21	4349
2026-01-23 22:30:11.03	70.44	17.03	-30.2	-31.4	13.2	1.50e-04	0	44	102	1048576	21	4148
2026-01-23 22:30:14.04	71.11	17.10	-30.3	-31.6	13.0	2.47e-04	0	43	102	1048576	21	4214
2026-01-23 22:30:17.05	71.78	17.17	-29.9	-30.6	13.7	6.79e-05	0	44	102	1048576	21	3900
2026-01-23 22:30:20.07	72.45	17.24	-29.7	-30.5	14.1	1.12e-04	0	44	102	1048576	20	3970
2026-01-23 22:30:23.08	73.13	17.30	-30.1	-31.6	13.4	3.26e-04	0	44	102	1048576	20	4278
2026-01-23 22:30:26.10	73.81	17.36	-29.8	-30.9	13.9	1.98e-04	0	44	102	1048576	20	4055
2026-01-23 22:30:29.12	74.50	17.41	-30.2	-32.0	13.2	2.76e-04	0	44	102	1048576	20	4399
2026-01-23 22:30:32.13	75.18	17.46	-30.9	-33.6	11.7	5.39e-04	0	44	102	1048576	21	4878
2026-01-23 22:30:35.15	75.87	17.51	-30.7	-32.7	12.3	2.40e-04	0	44	102	1048576	21	4562
2026-01-23 22:30:38.16	76.56	17.55	-30.8	-33.2	12.0	3.76e-04	0	44	102	1048576	21	4752
2026-01-23 22:30:41.17	77.25	17.59	-30.7	-32.9	12.2	2.81e-04	0	44	102	1048576	21	4627
2026-01-23 22:30:44.18	77.94	17.63	-30.8	-33.3	11.8	4.28e-04	0	44	102	1048576	21	4765
2026-01-23 22:30:47.19	78.63	17.66	-30.6	-32.5	12.4	1.69e-04	0	44	102	1048576	21	4504
2026-01-23 22:30:50.21	79.33	17.69	-30.4	-32.1	12.7	7.78e-05	0	44	102	1048576	21	4339
2026-01-23 22:30:53.22	80.03	17.71	-30.4	-32.1	12.7	6.17e-05	0	44	102	1048576	21	4343
2026-01-23 22:30:56.25	80.73	17.73	-30.2	-31.5	13.1	4.73e-05	0	44	102	1048576	21	4174
2026-01-23 22:30:59.26	81.43	17.74	-30.2	-31.5	13.1	1.83e-05	0	44	102	1048576	21	4163
2026-01-23 22:31:02.26	82.13	17.76	-30.5	-32.2	12.7	6.40e-05	0	44	102	1048576	21	4380
2026-01-23 22:31:05.28	82.83	17.76	-30.3	-31.6	13.0	2.97e-05	0	44	102	1048576	21	4206
2026-01-23 22:31:08.28	83.52	17.77	-29.9	-30.6	13.6	8.30e-06	0	44	102	1048576	21	3899
2026-01-23 22:31:11.30	84.23	17.76	-30.2	-31.4	13.1	1.90e-05	0	44	102	1048576	21	4130
2026-01-23 22:31:14.31	84.93	17.76	-30.4	-31.9	12.9	1.32e-04	0	44	102	1048576	21	4283
2026-01-23 22:31:17.33	85.63	17.75	-30.6	-32.6	12.4	1.88e-04	0	44	102	1048576	21	4534
2026-01-23 22:31:20.34	86.33	17.74	-30.8	-33.1	11.9	3.47e-04	0	44	102	1048576	21	4703
2026-01-23 22:31:23.36	87.03	17.72	-30.9	-33.6	11.6	6.01e-04	0	44	102	1048576	21	4888
2026-01-23 22:31:26.38	87.73	17.70	-30.9	-33.0	11.7	7.76e-04	0	44	102	1048576	22	4576
2026-01-23 22:31:29.39	88.42	17.67	-30.4	-31.5	12.7	7.47e-05	0	44	102	1048576	22	4100
2026-01-23 22:31:32.40	89.12	17.64	-30.4	-31.5	12.8	9.15e-05	0	44	102	1048576	22	4077
2026-01-23 22:31:35.42	89.81	17.61	-29.9	-30.7	13.6	1.22e-05	0	44	102	1048576	21	3936
2026-01-23 22:31:38.43	90.51	17.57	-30.3	-31.6	12.9	2.89e-05	0	44	102	1048576	21	4214
2026-01-23 22:31:41.44	91.20	17.53	-30.6	-32.7	12.3	1.85e-04	0	44	102	1048576	21	4551
2026-01-23 22:31:44.45	91.88	17.48	-30.5	-32.5	12.4	1.58e-04	0	44	102	1048576	21	4520
2026-01-23 22:31:47.47	92.57	17.43	-30.4	-32.0	12.6	1.20e-04	0	44	102	1048576	21	4353
2026-01-23 22:31:50.49	93.26	17.38	-30.3	-31.9	12.7	6.48e-05	0	44	102	1048576	21	4295
2026-01-23 22:31:53.51	93.94	17.32	-30.2	-31.6	12.9	5.11e-05	0	44	102	1048576	21	4204
2026-01-23 22:31:56.52	94.62	17.26	-30.3	-31.9	12.7	1.05e-04	0	44	102	1048576	21	4294
2026-01-23 22:31:59.54	95.30	17.19	-30.6	-32.7	12.2	1.66e-04	0	44	102	1048576	21	4586
2026-01-23 22:32:02.56	95.98	17.13	-30.2	-31.4	13.0	9.30e-05	0	44	102	1048576	21	4158
2026-01-23 22:32:05.58	96.65	17.05	-30.0	-30.9	13.3	1.60e-05	0	44	102	1048576	21	4015
2026-01-23 22:32:08.59	97.32	16.98	-30.0	-31.1	13.2	2.82e-05	0	44	102	1048576	21	4051
2026-01-23 22:32:11.60	97.98	16.90	-29.6	-30.4	14.0	6.10e-06	0	44	102	1048576	20	3931
2026-01-23 22:32:14.60	98.64	16.82	-29.6	-30.4	14.0	0.00e+00	0	44	102	1048576	20	3936
2026-01-23 22:32:17.62	99.30	16.73	-29.6	-30.3	14.1	3.80e-06	0	44	102	1048576	20	3899
2026-01-23 22:32:20.64	99.95	16.64	-29.7	-30.5	13.9	6.80e-06	0	44	102	1048576	20	3982
2026-01-23 22:32:23.65	100.60	16.55	-29.9	-31.1	13.5	6.80e-06	0	44	102	1048576	20	4141
2026-01-23 22:32:26.65	101.25	16.46	-29.6	-30.5	13.9	5.30e-06	0	44	102	1048576	20	3976
2026-01-23 22:32:29.67	101.89	16.36	-29.8	-31.3	13.8	7.60e-06	0	44	102	1048576	19	4299
2026-01-23 22:32:32.68	102.53	16.26	-30.0	-31.9	13.4	9.10e-06	0	44	102	1048576	19	4478
2026-01-23 22:32:35.69	103.16	16.15	-29.6	-30.5	13.9	3.00e-06	0	44	102	1048576	20	3964
2026-01-23 22:32:38.70	103.79	16.04	-29.5	-30.1	14.1	7.00e-07	0	44	102	1048576	20	3853
2026-01-23 22:32:41.71	104.42	15.93	-29.9	-31.6	13.6	6.10e-06	0	44	102	1048576	19	4406
2026-01-23 22:32:44.71	105.04	15.82	-29.8	-31.5	13.6	1.22e-05	0	44	102	1048576	19	4355
2026-01-23 22:32:47.72	105.65	15.71	-29.9	-31.2	13.5	4.50e-06	0	44	102	1048576	20	4185
2026-01-23 22:32:50.74	106.26	15.59	-30.4	-32.8	12.4	1.43e-04	0	44	102	1048576	20	4701
2026-01-23 22:32:53.76	106.87	15.47	-30.6	-32.7	12.0	3.46e-04	0	44	102	1048576	21	4601
2026-01-23 22:32:56.77	107.47	15.35	-30.1	-31.3	13.0	3.96e-05	0	44	102	1048576	21	4133
2026-01-23 22:32:59.78	108.07	15.22	-30.0	-31.1	13.1	4.11e-05	0	44	102	1048576	21	4054
2026-01-23 22:33:02.78	108.66	15.10	-30.0	-31.5	13.1	2.13e-05	0	44	102	1048576	20	4289
2026-01-23 22:33:05.79	109.25	14.97	-30.2	-32.0	12.8	4.11e-05	0	44	102	1048576	20	4437
2026-01-23 22:33:08.81	109.83	14.84	-30.6	-32.8	11.9	1.85e-04	0	44	102	1048576	21	4629
2026-01-23 22:33:11.83	110.41	14.70	-31.0	-33.6	11.1	2.01e-03	0	44	102	1048576	22	4816
2026-01-23 22:33:14.85	110.99	14.57	-31.0	-33.6	11.0	1.62e-03	0	44	102	1048576	22	4842
2026-01-23 22:33:17.86	111.55	14.43	-30.7	-32.4	11.9	4.51e-04	0	44	102	1048576	22	4417
2026-01-23 22:33:20.88	112.12	14.29	-30.4	-32.2	12.3	1.69e-04	0	44	102	1048576	21	4435
2026-01-23 22:33:23.90	112.68	14.15	-30.2	-31.7	12.6	1.11e-04	0	44	102	1048576	21	4270
2026-01-23 22:33:26.91	113.23	14.01	-30.3	-32.0	12.4	6.56e-05	0	44	102	1048576	21	4367
2026-01-23 22:33:29.92	113.77	13.86	-30.6	-32.7	11.9	4.61e-04	0	44	102	1048576	21	4595
2026-01-23 22:33:32.94	114.32	13.72	-30.7	-33.0	11.7	3.94e-04	0	44	102	1048576	21	4729
2026-01-23 22:33:35.95	114.85	13.57	-30.6	-33.0	11.7	3.97e-04	0	44	102	1048576	21	4701
2026-01-23 22:33:38.96	115.38	13.42	-30.5	-32.7	11.9	5.08e-04	0	44	102	1048576	21	4601
2026-01-23 22:33:41.98	115.91	13.27	-30.1	-31.5	12.6	1.37e-04	0	44	102	1048576	21	4231
2026-01-23 22:33:45.00	116.43	13.12	-30.5	-32.7	11.9	2.70e-04	0	44	102	1048576	21	4608
2026-01-23 22:33:48.01	116.95	12.97	-30.2	-32.7	11.4	9.56e-04	0	44	102	1048576	21	4779
2026-01-23 22:33:51.03	117.46	12.82	-30.5	-32.5	11.8	5.87e-04	0	44	102	1048576	21	4548
2026-01-23 22:33:54.03	117.97	12.66	-30.1	-31.8	12.7	9.38e-05	0	44	102	1048576	20	4399
2026-01-23 22:33:57.04	118.47	12.51	-30.0	-31.7	12.8	5.87e-05	0	44	102	1048576	20	4383
2026-01-23 22:34:00.06	118.96	12.35	-30.2	-32.1	12.5	8.77e-05	0	44	102	1048576	20	4514
2026-01-23 22:34:03.07	119.45	12.19	-30.2	-32.2	12.5	1.29e-04	0	44	102	1048576	20	4533
2026-01-23 22:34:06.07	119.94	12.04	-30.5	-32.7	11.7	3.85e-04	0	44	102	1048576	21	4638
2026-01-23 22:34:09.07	120.42	11.88	-30.1	-31.6	12.5	1.82e-04	0	44	102	1048576	21	4261
2026-01-23 22:34:12.08	120.89	11.72	-30.1	-31.9	12.6	1.37e-04	0	44	102	1048576	20	4435
2026-01-23 22:34:15.09	121.36	11.56	-29.6	-30.7	13.4	1.49e-04	0	44	102	1048576	20	4060
2026-01-23 22:34:18.11	121.83	11.40	-29.5	-30.3	13.6	1.06e-05	0	44	102	1048576	20	3956
2026-01-23 22:34:21.13	122.29	11.24	-29.6	-30.5	13.4	1.83e-05	0	44	102	1048576	20	4009
2026-01-23 22:34:24.13	122.74	11.08	-29.9	-31.9	13.0	3.66e-05	0	44	102	1048576	19	4520
2026-01-23 22:34:27.15	123.20	10.91	-30.0	-31.8	12.5	1.21e-04	0	44	102	1048576	20	4415
2026-01-23 22:34:30.16	123.64	10.75	-29.9	-31.4	12.8	2.88e-04	0	44	102	1048576	20	4277
2026-01-23 22:34:33.19	124.09	10.59	-30.1	-31.9	12.5	5.66e-04	0	44	102	1048576	20	4458
2026-01-23 22:34:36.20	124.52	10.42	-30.2	-32.4	12.1	5.34e-04	0	44	102	1048576	20	4622
2026-01-23 22:34:39.21	124.95	10.26	-29.9	-31.6	12.7	8.16e-05	0	44	102	1048576	20	4351
2026-01-23 22:34:42.21	125.38	10.09	-30.1	-32.0	12.4	1.27e-04	0	44	102	1048576	20	4483
2026-01-23 22:34:45.22	125.80	9.93	-30.3	-32.7	11.9	3.71e-04	0	44	102	1048576	20	4762
2026-01-23 22:34:48.23	126.22	9.77	-30.5	-32.7	11.5	8.93e-04	0	44	102	1048576	21	4656
2026-01-23 22:34:51.25	126.63	9.60	-30.4	-32.4	11.7	6.23e-04	0	44	102	1048576	21	4557
2026-01-23 22:34:54.27	127.04	9.43	-30.2	-32.5	11.9	3.57e-04	0	44	102	1048576	20	4673
2026-01-23 22:34:57.28	127.45	9.27	-30.5	-32.8	11.4	9.39e-04	0	44	102	1048576	21	4696
2026-01-23 22:35:00.30	127.85	9.10	-30.6	-33.1	11.1	1.97e-03	0	44	102	1048576	21	4807
2026-01-23 22:35:03.31	128.25	8.94	-30.5	-33.0	11.2	2.37e-03	0	44	102	1048576	21	4792
2026-01-23 22:35:06.32	128.64	8.77	-30.6	-33.3	10.9	2.89e-03	0	44	102	1048576	21	4925
2026-01-23 22:35:09.33	129.02	8.61	-30.7	-33.7	10.6	2.72e-03	0	44	102	1048576	21	5064
2026-01-23 22:35:12.34	129.41	8.44	-30.8	-34.0	10.3	4.18e-03	0	44	102	1048576	21	5196
2026-01-23 22:35:15.34	129.78	8.27	-30.8	-34.1	10.2	7.38e-03	0	44	102	1048576	21	5258
2026-01-23 22:35:18.35	130.16	8.11	-30.5	-33.0	11.0	2.08e-03	0	44	102	1048576	21	4813
2026-01-23 22:35:21.36	130.53	7.94	-30.6	-33.4	10.6	2.99e-03	0	44	102	1048576	21	5007
2026-01-23 22:35:24.37	130.89	7.78	-30.8	-34.2	10.1	5.98e-03	0	44	102	1048576	21	5304
2026-01-23 22:35:27.38	131.26	7.61	-31.1	-34.9	9.1	1.67e-02	0	44	102	1048576	22	5551
2026-01-23 22:35:30.38	131.61	7.45	-31.0	-34.3	9.5	1.52e-02	0	44	102	1048576	22	5298
2026-01-23 22:35:33.39	131.97	7.28	-30.8	-34.4	9.7	1.39e-02	0	44	102	1048576	21	5443
2026-01-23 22:35:36.40	132.32	7.12	-30.6	-33.7	10.3	3.72e-03	0	44	102	1048576	21	5136
2026-01-23 22:35:39.42	132.67	6.95	-33.6	-46.0	3.8	1.49e+00	0	44	104	1048576	27	14987

#Closed at: 2026-01-23 22:35:41
#Recorded file [1 MB]: D:/data/31010_260124_012639.dat