passes_logs/2026/01/23/R2M6_AANII_01/R2M6_AANII_01__20260123_081008_NOAA_21_JPSS-2_rec.log

#Pass ID: 20260123_081008_NOAA 21 (JPSS-2)
#Satellite: NOAA 21 (JPSS-2)
#Configuration: NOAA 21
#almurnet v.1.7.20240730
#Start time: 2026-01-23 08:10:08

#Version: 2.2.20231116
#Station: R2M6_AANII_01
#Location: 30.233357 lon 59.946436 lat
#TLE: 1 54234U 22150A   26022.41365820  .00000211  00000+0  12084-3 0  9990
#TLE: 2 54234  98.7507 323.2240 0000658 234.5287 125.5828 14.19537645165864

#Time	Az	El	Level	Level2	SNR	BER	BlckErr	Temp	State	Recorded	gain1	gain2
2026-01-23 08:10:08.32	93.48	6.99	-31.4	-43.8	3.8	1.49e+00	0	41	0	0	22	14854
2026-01-23 08:10:11.33	93.17	7.18	-31.3	-43.3	3.8	1.49e+00	0	41	104	0	22	14299
2026-01-23 08:10:14.34	92.87	7.36	-31.3	-43.1	3.8	1.49e+00	0	41	104	0	22	14037
2026-01-23 08:10:17.34	92.55	7.54	-31.4	-41.3	3.9	1.49e+00	0	41	104	0	22	11298
2026-01-23 08:10:20.36	92.24	7.73	-31.1	-36.7	6.5	3.24e-01	0	41	102	1048576	22	6854
2026-01-23 08:10:23.38	91.91	7.91	-30.3	-33.9	9.3	1.79e-02	0	42	102	1048576	21	5429
2026-01-23 08:10:26.39	91.59	8.10	-30.3	-34.2	9.5	1.68e-02	0	41	102	1048576	20	5638
2026-01-23 08:10:29.40	91.26	8.28	-29.0	-31.6	11.4	1.05e-03	0	42	102	1048576	19	4896
2026-01-23 08:10:32.42	90.92	8.47	-28.8	-30.9	12.3	1.33e-04	0	42	102	1048576	18	4627
2026-01-23 08:10:35.43	90.59	8.66	-29.0	-31.4	12.2	2.72e-04	0	42	102	1048576	18	4777
2026-01-23 08:10:38.44	90.24	8.84	-28.7	-31.3	12.7	9.91e-05	0	42	102	1048576	17	4846
2026-01-23 08:10:41.45	89.90	9.03	-28.6	-31.0	12.9	3.71e-04	0	42	102	1048576	17	4751
2026-01-23 08:10:44.46	89.55	9.22	-28.5	-30.8	13.1	1.52e-05	0	42	102	1048576	17	4657
2026-01-23 08:10:47.47	89.19	9.41	-28.6	-31.0	13.0	3.12e-05	0	42	102	1048576	17	4715
2026-01-23 08:10:50.49	88.83	9.59	-28.6	-30.8	13.2	1.90e-05	0	42	102	1048576	17	4671
2026-01-23 08:10:53.50	88.46	9.78	-28.5	-30.6	13.4	5.87e-05	0	42	102	1048576	17	4576
2026-01-23 08:10:56.52	88.09	9.97	-28.4	-30.3	13.6	1.49e-04	0	42	102	1048576	17	4489
2026-01-23 08:10:59.54	87.71	10.16	-28.2	-29.9	13.9	4.50e-06	0	42	102	1048576	17	4369
2026-01-23 08:11:02.55	87.33	10.35	-28.2	-29.9	13.8	4.66e-04	0	42	102	1048576	17	4386
2026-01-23 08:11:05.56	86.95	10.54	-28.0	-29.8	14.2	0.00e+00	0	42	102	1048576	16	4455
2026-01-23 08:11:08.57	86.56	10.73	-28.0	-30.0	14.1	2.80e-04	0	43	102	1048576	16	4508
2026-01-23 08:11:11.58	86.16	10.92	-28.2	-30.3	14.0	3.00e-06	0	42	102	1048576	16	4595
2026-01-23 08:11:14.58	85.76	11.11	-28.2	-30.4	13.9	2.20e-06	0	42	102	1048576	16	4626
2026-01-23 08:11:17.59	85.36	11.30	-28.3	-30.5	13.8	6.10e-06	0	43	102	1048576	16	4667
2026-01-23 08:11:20.59	84.95	11.49	-28.2	-30.4	13.9	4.50e-06	0	43	102	1048576	16	4644
2026-01-23 08:11:23.60	84.53	11.68	-27.9	-29.6	14.4	7.00e-07	0	43	102	1048576	16	4386
2026-01-23 08:11:26.62	84.10	11.87	-28.0	-29.8	14.3	7.00e-07	0	43	102	1048576	16	4446
2026-01-23 08:11:29.63	83.68	12.06	-28.1	-30.2	14.1	3.80e-06	0	43	102	1048576	16	4555
2026-01-23 08:11:32.63	83.24	12.25	-28.1	-30.1	14.2	7.00e-07	0	43	102	1048576	16	4544
2026-01-23 08:11:35.64	82.80	12.44	-27.8	-29.4	14.6	0.00e+00	0	43	102	1048576	16	4323
2026-01-23 08:11:38.66	82.36	12.63	-27.7	-29.2	14.7	0.00e+00	0	43	102	1048576	16	4264
2026-01-23 08:11:41.67	81.91	12.82	-27.9	-29.7	14.5	7.00e-07	0	43	102	1048576	16	4411
2026-01-23 08:11:44.68	81.45	13.01	-28.1	-30.1	14.3	2.20e-06	0	43	102	1048576	16	4524
2026-01-23 08:11:47.69	80.99	13.20	-28.2	-30.2	14.2	1.50e-06	0	43	102	1048576	16	4560
2026-01-23 08:11:50.70	80.52	13.39	-28.0	-29.7	14.5	0.00e+00	0	43	102	1048576	16	4423
2026-01-23 08:11:53.72	80.04	13.58	-28.0	-29.8	14.5	0.00e+00	0	43	102	1048576	16	4440
2026-01-23 08:11:56.72	79.56	13.76	-28.0	-29.7	14.5	0.00e+00	0	43	102	1048576	16	4407
2026-01-23 08:11:59.74	79.07	13.95	-27.8	-29.4	14.8	0.00e+00	0	43	102	1048576	16	4316
2026-01-23 08:12:02.74	78.58	14.13	-27.8	-29.4	14.7	0.00e+00	0	43	102	1048576	16	4323
2026-01-23 08:12:05.76	78.08	14.32	-27.9	-29.5	14.7	0.00e+00	0	43	102	1048576	16	4349
2026-01-23 08:12:08.77	77.57	14.50	-27.8	-29.2	14.9	0.00e+00	0	43	102	1048576	16	4262
2026-01-23 08:12:11.77	77.06	14.69	-27.8	-29.4	14.8	0.00e+00	0	43	102	1048576	16	4311
2026-01-23 08:12:14.79	76.54	14.87	-27.9	-29.7	14.7	7.00e-07	0	43	102	1048576	16	4387
2026-01-23 08:12:17.81	76.01	15.05	-28.1	-30.0	14.5	0.00e+00	0	43	102	1048576	16	4480
2026-01-23 08:12:20.81	75.48	15.23	-27.9	-29.7	14.7	7.00e-07	0	43	102	1048576	16	4387
2026-01-23 08:12:23.82	74.94	15.41	-28.0	-29.8	14.7	7.00e-07	0	43	102	1048576	16	4413
2026-01-23 08:12:26.84	74.40	15.59	-28.0	-29.8	14.6	1.50e-06	0	43	102	1048576	16	4436
2026-01-23 08:12:29.86	73.84	15.77	-28.0	-29.8	14.7	0.00e+00	0	43	102	1048576	16	4421
2026-01-23 08:12:32.87	73.29	15.94	-28.1	-30.1	14.5	0.00e+00	0	43	102	1048576	16	4512
2026-01-23 08:12:35.88	72.72	16.12	-28.1	-30.1	14.5	7.00e-07	0	43	102	1048576	16	4504
2026-01-23 08:12:38.88	72.15	16.29	-28.1	-30.0	14.6	0.00e+00	0	43	102	1048576	16	4477
2026-01-23 08:12:41.89	71.57	16.46	-28.1	-30.0	14.5	0.00e+00	0	43	102	1048576	16	4491
2026-01-23 08:12:44.91	70.99	16.63	-28.0	-29.8	14.7	7.00e-07	0	43	102	1048576	16	4425
2026-01-23 08:12:47.91	70.40	16.79	-28.0	-29.8	14.7	7.00e-07	0	43	102	1048576	16	4432
2026-01-23 08:12:50.93	69.80	16.96	-27.9	-29.4	14.9	0.00e+00	0	43	102	1048576	16	4307
2026-01-23 08:12:53.94	69.19	17.12	-27.6	-28.8	15.3	0.00e+00	0	43	102	1048576	16	4130
2026-01-23 08:12:56.96	68.58	17.28	-27.4	-28.3	15.5	0.00e+00	0	43	102	1048576	16	4007
2026-01-23 08:12:59.98	67.96	17.44	-27.5	-28.6	15.4	0.00e+00	0	43	102	1048576	16	4087
2026-01-23 08:13:02.99	67.34	17.59	-27.6	-28.8	15.3	0.00e+00	0	43	102	1048576	16	4142
2026-01-23 08:13:06.00	66.71	17.74	-27.7	-29.0	15.2	0.00e+00	0	43	102	1048576	16	4201
2026-01-23 08:13:09.03	66.07	17.90	-27.8	-29.2	15.0	0.00e+00	0	43	102	1048576	16	4252
2026-01-23 08:13:12.03	65.43	18.04	-27.7	-29.0	15.2	0.00e+00	0	43	102	1048576	16	4194
2026-01-23 08:13:15.04	64.78	18.19	-27.5	-28.6	15.4	0.00e+00	0	44	102	1048576	16	4074
2026-01-23 08:13:18.06	64.12	18.33	-27.3	-28.2	15.7	0.00e+00	0	43	102	1048576	16	3964
2026-01-23 08:13:21.07	63.46	18.47	-27.1	-28.2	15.8	0.00e+00	0	43	102	1048576	15	4081
2026-01-23 08:13:24.09	62.79	18.60	-26.9	-27.9	16.0	0.00e+00	0	43	102	1048576	15	4001
2026-01-23 08:13:27.10	62.11	18.73	-27.1	-28.2	15.8	0.00e+00	0	43	102	1048576	15	4087
2026-01-23 08:13:30.10	61.44	18.86	-27.3	-28.6	15.6	0.00e+00	0	43	102	1048576	15	4197
2026-01-23 08:13:33.12	60.75	18.98	-27.5	-29.1	15.3	0.00e+00	0	43	102	1048576	15	4319
2026-01-23 08:13:36.13	60.06	19.11	-27.2	-28.4	15.7	0.00e+00	0	43	102	1048576	15	4135
2026-01-23 08:13:39.15	59.36	19.22	-27.2	-28.4	15.7	0.00e+00	0	43	102	1048576	15	4139
2026-01-23 08:13:42.17	58.66	19.34	-27.0	-27.9	16.0	0.00e+00	0	44	102	1048576	15	4014
2026-01-23 08:13:45.19	57.95	19.44	-27.0	-28.0	16.0	0.00e+00	0	43	102	1048576	15	4019
2026-01-23 08:13:48.19	57.24	19.55	-27.2	-28.5	15.7	0.00e+00	0	43	102	1048576	15	4175
2026-01-23 08:13:51.20	56.53	19.65	-27.1	-28.1	15.9	0.00e+00	0	43	102	1048576	15	4056
2026-01-23 08:13:54.21	55.81	19.75	-27.0	-28.0	15.9	0.00e+00	0	43	102	1048576	15	4032
2026-01-23 08:13:57.23	55.08	19.84	-27.1	-28.2	15.9	7.00e-07	0	43	102	1048576	15	4083
2026-01-23 08:14:00.23	54.35	19.92	-27.3	-28.6	15.6	0.00e+00	0	44	102	1048576	15	4200
2026-01-23 08:14:03.25	53.62	20.01	-27.2	-28.3	15.8	0.00e+00	0	43	102	1048576	15	4109
2026-01-23 08:14:06.24	52.88	20.09	-27.1	-28.1	15.9	0.00e+00	0	44	102	1048576	15	4059
2026-01-23 08:14:09.26	52.14	20.16	-27.1	-28.1	15.9	0.00e+00	0	43	102	1048576	15	4064
2026-01-23 08:14:12.28	51.39	20.23	-27.3	-28.7	15.6	0.00e+00	0	43	102	1048576	15	4211
2026-01-23 08:14:15.29	50.65	20.29	-27.3	-28.6	15.7	0.00e+00	0	43	102	1048576	15	4190
2026-01-23 08:14:18.30	49.90	20.35	-27.2	-28.5	15.7	0.00e+00	0	43	102	1048576	15	4162
2026-01-23 08:14:21.30	49.15	20.40	-27.3	-28.6	15.6	0.00e+00	0	43	102	1048576	15	4201
2026-01-23 08:14:24.32	48.39	20.45	-27.5	-29.0	15.4	0.00e+00	0	44	102	1048576	15	4301
2026-01-23 08:14:27.32	47.63	20.49	-27.5	-29.1	15.4	0.00e+00	0	43	102	1048576	15	4313
2026-01-23 08:14:30.34	46.87	20.53	-27.5	-29.0	15.5	0.00e+00	0	44	102	1048576	15	4304
2026-01-23 08:14:33.36	46.11	20.56	-27.0	-28.0	16.0	0.00e+00	0	44	102	1048576	15	4039
2026-01-23 08:14:36.36	45.35	20.59	-27.2	-28.3	15.8	0.00e+00	0	44	102	1048576	15	4104
2026-01-23 08:14:39.37	44.58	20.61	-27.2	-28.3	15.9	0.00e+00	0	43	102	1048576	15	4109
2026-01-23 08:14:42.38	43.82	20.63	-27.0	-28.0	16.0	0.00e+00	0	44	102	1048576	15	4023
2026-01-23 08:14:45.39	43.05	20.64	-27.1	-28.2	15.9	0.00e+00	0	44	102	1048576	15	4084
2026-01-23 08:14:48.40	42.29	20.65	-27.3	-28.7	15.6	0.00e+00	0	43	102	1048576	15	4217
2026-01-23 08:14:51.41	41.52	20.65	-27.3	-28.7	15.6	0.00e+00	0	43	102	1048576	15	4222
2026-01-23 08:14:54.42	40.76	20.64	-27.4	-29.0	15.5	0.00e+00	0	43	102	1048576	15	4292
2026-01-23 08:14:57.43	39.99	20.63	-27.3	-28.7	15.7	0.00e+00	0	44	102	1048576	15	4209
2026-01-23 08:15:00.44	39.23	20.62	-27.1	-28.1	16.0	0.00e+00	0	43	102	1048576	15	4059
2026-01-23 08:15:03.46	38.46	20.59	-27.2	-28.4	15.8	0.00e+00	0	44	102	1048576	15	4143
2026-01-23 08:15:06.48	37.69	20.57	-27.1	-28.3	15.9	0.00e+00	0	43	102	1048576	15	4104
2026-01-23 08:15:09.49	36.93	20.54	-27.1	-28.2	15.9	0.00e+00	0	43	102	1048576	15	4083
2026-01-23 08:15:12.50	36.17	20.50	-27.3	-28.7	15.6	0.00e+00	0	44	102	1048576	15	4229
2026-01-23 08:15:15.51	35.42	20.46	-27.6	-29.2	15.3	0.00e+00	0	44	102	1048576	15	4366
2026-01-23 08:15:18.52	34.66	20.41	-27.5	-29.0	15.5	0.00e+00	0	44	102	1048576	15	4293
2026-01-23 08:15:21.53	33.91	20.36	-27.2	-28.3	15.9	0.00e+00	0	44	102	1048576	15	4111
2026-01-23 08:15:24.54	33.16	20.30	-27.2	-28.4	15.8	0.00e+00	0	44	102	1048576	15	4125
2026-01-23 08:15:27.54	32.41	20.23	-27.2	-28.5	15.7	0.00e+00	0	44	102	1048576	15	4163
2026-01-23 08:15:30.56	31.67	20.17	-27.5	-29.1	15.4	0.00e+00	0	43	102	1048576	15	4324
2026-01-23 08:15:33.57	30.93	20.09	-27.5	-29.0	15.4	0.00e+00	0	44	102	1048576	15	4304
2026-01-23 08:15:36.58	30.19	20.02	-27.4	-28.9	15.5	0.00e+00	0	44	102	1048576	15	4262
2026-01-23 08:15:39.60	29.46	19.93	-27.3	-28.7	15.6	0.00e+00	0	44	102	1048576	15	4220
2026-01-23 08:15:42.62	28.73	19.85	-27.7	-29.6	15.1	7.00e-07	0	44	102	1048576	15	4473
2026-01-23 08:15:45.62	28.01	19.76	-27.5	-29.0	15.5	0.00e+00	0	43	102	1048576	15	4297
2026-01-23 08:15:48.64	27.28	19.66	-27.5	-29.2	15.4	0.00e+00	0	44	102	1048576	15	4354
2026-01-23 08:15:51.65	26.57	19.56	-27.5	-29.1	15.4	0.00e+00	0	43	102	1048576	15	4337
2026-01-23 08:15:54.67	25.86	19.46	-27.3	-28.7	15.6	0.00e+00	0	43	102	1048576	15	4204
2026-01-23 08:15:57.69	25.15	19.35	-27.4	-28.9	15.5	0.00e+00	0	44	102	1048576	15	4280
2026-01-23 08:16:00.69	24.45	19.24	-27.2	-28.5	15.7	0.00e+00	0	44	102	1048576	15	4151
2026-01-23 08:16:03.70	23.76	19.12	-27.3	-28.7	15.6	7.00e-07	0	44	102	1048576	15	4220
2026-01-23 08:16:06.71	23.07	19.00	-27.3	-28.7	15.5	0.00e+00	0	43	102	1048576	15	4230
2026-01-23 08:16:09.73	22.38	18.88	-27.3	-28.7	15.5	0.00e+00	0	44	102	1048576	15	4206
2026-01-23 08:16:12.74	21.70	18.75	-27.5	-29.1	15.1	0.00e+00	0	44	102	1048576	15	4339
2026-01-23 08:16:15.76	21.03	18.62	-27.8	-29.7	14.8	0.00e+00	0	44	102	1048576	15	4506
2026-01-23 08:16:18.77	20.36	18.48	-27.3	-28.7	15.4	0.00e+00	0	44	102	1048576	15	4226
2026-01-23 08:16:21.78	19.70	18.35	-27.5	-29.0	15.3	0.00e+00	0	44	102	1048576	15	4302
2026-01-23 08:16:24.79	19.05	18.21	-27.7	-29.5	15.0	0.00e+00	0	44	102	1048576	15	4451
2026-01-23 08:16:27.79	18.40	18.06	-27.6	-29.2	14.9	0.00e+00	0	44	102	1048576	15	4365
2026-01-23 08:16:30.81	17.76	17.92	-27.5	-29.1	14.9	7.00e-07	0	44	102	1048576	15	4339
2026-01-23 08:16:33.82	17.12	17.77	-27.3	-28.7	15.3	0.00e+00	0	43	102	1048576	15	4227
2026-01-23 08:16:36.83	16.50	17.61	-27.7	-29.6	14.9	0.00e+00	0	44	102	1048576	15	4475
2026-01-23 08:16:39.85	15.87	17.46	-27.7	-29.7	14.9	0.00e+00	0	43	102	1048576	15	4504
2026-01-23 08:16:42.86	15.25	17.30	-28.0	-30.2	14.5	0.00e+00	0	43	102	1048576	15	4657
2026-01-23 08:16:45.87	14.65	17.14	-27.6	-28.7	15.2	0.00e+00	0	44	102	1048576	16	4113
2026-01-23 08:16:48.88	14.04	16.98	-27.5	-28.5	15.3	0.00e+00	0	44	102	1048576	16	4060
2026-01-23 08:16:51.88	13.45	16.82	-27.8	-29.3	15.0	0.00e+00	0	44	102	1048576	16	4260
2026-01-23 08:16:54.89	12.86	16.65	-27.7	-28.9	15.2	0.00e+00	0	44	102	1048576	16	4175
2026-01-23 08:16:57.89	12.28	16.49	-27.7	-29.1	15.0	0.00e+00	0	44	102	1048576	16	4219
2026-01-23 08:17:00.91	11.70	16.32	-27.8	-29.2	15.0	0.00e+00	0	43	102	1048576	16	4235
2026-01-23 08:17:03.92	11.13	16.15	-27.8	-29.2	15.0	0.00e+00	0	44	102	1048576	16	4257
2026-01-23 08:17:06.94	10.56	15.97	-27.8	-29.4	14.8	0.00e+00	0	44	102	1048576	16	4300
2026-01-23 08:17:09.95	10.01	15.80	-28.0	-29.7	14.6	7.00e-07	0	43	102	1048576	16	4395
2026-01-23 08:17:12.95	9.46	15.62	-27.9	-29.4	14.8	0.00e+00	0	44	102	1048576	16	4319
2026-01-23 08:17:15.97	8.91	15.44	-27.9	-29.4	14.8	7.00e-07	0	44	102	1048576	16	4300
2026-01-23 08:17:18.98	8.38	15.27	-27.9	-29.4	14.8	1.50e-06	0	44	102	1048576	16	4316
2026-01-23 08:17:21.99	7.85	15.09	-27.8	-29.2	15.0	0.00e+00	0	43	102	1048576	16	4239
2026-01-23 08:17:25.01	7.32	14.91	-27.7	-29.0	15.0	7.00e-07	0	43	102	1048576	16	4203
2026-01-23 08:17:28.02	6.80	14.72	-27.7	-29.0	15.0	0.00e+00	0	44	102	1048576	16	4196
2026-01-23 08:17:31.04	6.29	14.54	-27.9	-29.5	14.7	0.00e+00	0	43	102	1048576	16	4338
2026-01-23 08:17:34.05	5.79	14.36	-27.9	-29.6	14.6	0.00e+00	0	44	102	1048576	16	4372
2026-01-23 08:17:37.07	5.29	14.17	-27.9	-29.5	14.7	0.00e+00	0	43	102	1048576	16	4330
2026-01-23 08:17:40.09	4.79	13.99	-27.7	-29.2	14.9	7.00e-07	0	43	102	1048576	16	4249
2026-01-23 08:17:43.08	4.31	13.80	-27.8	-29.3	14.8	7.00e-07	0	44	102	1048576	16	4276
2026-01-23 08:17:46.09	3.83	13.61	-28.0	-29.9	14.5	0.00e+00	0	43	102	1048576	16	4450
2026-01-23 08:17:49.11	3.36	13.43	-28.1	-30.0	14.4	0.00e+00	0	44	102	1048576	16	4486
2026-01-23 08:17:52.12	2.89	13.24	-27.9	-29.5	14.6	0.00e+00	0	44	102	1048576	16	4350
2026-01-23 08:17:55.13	2.43	13.05	-27.8	-29.4	14.7	0.00e+00	0	44	102	1048576	16	4304
2026-01-23 08:17:58.14	1.97	12.86	-28.0	-29.7	14.5	7.00e-07	0	43	102	1048576	16	4391
2026-01-23 08:18:01.14	1.52	12.67	-28.0	-29.8	14.4	7.00e-07	0	44	102	1048576	16	4434
2026-01-23 08:18:04.16	1.08	12.48	-28.0	-29.9	14.4	0.00e+00	0	44	102	1048576	16	4459
2026-01-23 08:18:07.17	0.64	12.30	-28.2	-30.3	14.1	3.80e-06	0	44	102	1048576	16	4593
2026-01-23 08:18:10.18	0.21	12.11	-28.3	-30.5	14.0	1.50e-06	0	44	102	1048576	16	4644
2026-01-23 08:18:13.20	359.78	11.92	-28.3	-30.5	14.0	3.00e-06	0	44	102	1048576	16	4631
2026-01-23 08:18:16.21	359.36	11.73	-28.2	-30.3	14.1	3.00e-06	0	44	102	1048576	16	4573
2026-01-23 08:18:19.21	358.95	11.54	-28.3	-30.4	14.0	4.50e-06	0	44	102	1048576	16	4630
2026-01-23 08:18:22.22	358.54	11.35	-28.5	-30.5	13.6	9.10e-06	0	44	102	1048576	17	4554
2026-01-23 08:18:25.24	358.13	11.16	-29.0	-31.2	12.9	5.72e-05	0	44	102	1048576	18	4656
2026-01-23 08:18:28.25	357.73	10.97	-28.9	-31.1	13.0	4.42e-05	0	44	102	1048576	18	4609
2026-01-23 08:18:31.26	357.34	10.78	-28.8	-30.8	13.1	2.74e-05	0	44	102	1048576	18	4540
2026-01-23 08:18:34.26	356.95	10.59	-28.9	-31.1	12.9	5.03e-05	0	44	102	1048576	18	4630
2026-01-23 08:18:37.28	356.57	10.40	-28.7	-30.6	13.3	1.98e-05	0	43	102	1048576	18	4453
2026-01-23 08:18:40.29	356.19	10.21	-28.9	-31.1	12.9	4.42e-05	0	44	102	1048576	18	4640
2026-01-23 08:18:43.30	355.81	10.02	-29.0	-31.4	12.8	6.63e-05	0	44	102	1048576	18	4710
2026-01-23 08:18:46.31	355.44	9.83	-29.2	-31.7	12.6	1.07e-04	0	44	102	1048576	18	4805
2026-01-23 08:18:49.32	355.08	9.65	-29.2	-31.7	12.5	1.40e-04	0	44	102	1048576	18	4813
2026-01-23 08:18:52.33	354.72	9.46	-29.0	-31.3	12.7	7.47e-05	0	44	102	1048576	18	4691
2026-01-23 08:18:55.34	354.37	9.27	-29.0	-31.4	12.7	7.17e-05	0	44	102	1048576	18	4716
2026-01-23 08:18:58.37	354.02	9.08	-29.0	-31.4	12.6	9.23e-05	0	44	102	1048576	18	4728
2026-01-23 08:19:01.39	353.67	8.90	-29.2	-31.7	12.4	1.36e-04	0	44	102	1048576	18	4832
2026-01-23 08:19:04.40	353.33	8.71	-29.0	-31.4	12.6	1.04e-04	0	44	102	1048576	18	4744
2026-01-23 08:19:07.41	352.99	8.52	-28.9	-31.1	12.8	8.23e-05	0	44	102	1048576	18	4626
2026-01-23 08:19:10.42	352.66	8.34	-29.0	-31.3	12.7	9.68e-05	0	44	102	1048576	18	4712
2026-01-23 08:19:13.44	352.33	8.15	-29.1	-31.6	12.4	1.23e-04	0	44	102	1048576	18	4814
2026-01-23 08:19:16.47	352.01	7.97	-29.3	-32.1	12.0	3.56e-04	0	44	102	1048576	18	4993
2026-01-23 08:19:19.48	351.69	7.78	-29.6	-32.5	11.4	1.03e-03	0	44	102	1048576	19	5025
2026-01-23 08:19:22.49	351.37	7.60	-29.4	-31.9	11.8	5.87e-04	0	44	102	1048576	19	4821
2026-01-23 08:19:25.51	351.06	7.42	-29.1	-31.2	12.2	2.59e-04	0	44	102	1048576	19	4580
2026-01-23 08:19:28.53	350.76	7.23	-29.0	-30.8	12.5	1.20e-04	0	44	102	1048576	19	4446
2026-01-23 08:19:31.55	350.45	7.05	-32.5	-40.6	5.0	3.75e-03	0	44	102	1048576	24	9083

#Closed at: 2026-01-23 08:19:33
#Recorded file [1 MB]: D:/data/31010_260123_111018.dat