passes_logs/2026/01/23/R2M6_AANII_01/R2M6_AANII_01__20260123_085903_NOAA_20_JPSS-1_rec.log

#Pass ID: 20260123_085903_NOAA 20 (JPSS-1)
#Satellite: NOAA 20 (JPSS-1)
#Configuration: NOAA 20
#almurnet v.1.7.20240730
#Start time: 2026-01-23 08:59:04

#Version: 2.2.20231116
#Station: R2M6_AANII_01
#Location: 30.233357 lon 59.946436 lat
#TLE: 1 43013U 17073A   26022.44900781  .00000193  00000+0  11233-3 0  9999
#TLE: 2 43013  98.7645 323.3100 0001197  28.8413 331.2829 14.19538802423792

#Time	Az	El	Level	Level2	SNR	BER	BlckErr	Temp	State	Recorded	gain1	gain2
2026-01-23 08:59:04.96	118.80	7.07	-32.1	-39.6	4.6	1.38e+00	0	41	0	0	25	8527
2026-01-23 08:59:07.96	118.60	7.28	-32.2	-39.7	6.0	3.14e-01	0	41	102	1048576	25	8467
2026-01-23 08:59:10.98	118.40	7.50	-32.1	-38.6	6.8	2.54e-01	0	41	102	1048576	25	7610
2026-01-23 08:59:13.98	118.19	7.72	-31.4	-35.9	9.3	2.75e-02	0	41	102	1048576	24	6044
2026-01-23 08:59:16.99	117.99	7.94	-31.2	-35.5	10.1	7.29e-03	0	41	102	1048576	23	5949
2026-01-23 08:59:20.01	117.77	8.16	-31.2	-35.6	10.0	7.72e-03	0	41	102	1048576	23	5980
2026-01-23 08:59:23.01	117.56	8.38	-31.1	-35.3	10.3	5.12e-03	0	41	102	1048576	23	5815
2026-01-23 08:59:26.01	117.34	8.60	-31.0	-35.0	10.5	4.27e-03	0	41	102	1048576	23	5708
2026-01-23 08:59:29.04	117.12	8.83	-31.1	-35.1	10.4	8.81e-03	0	41	102	1048576	23	5748
2026-01-23 08:59:32.05	116.90	9.06	-31.2	-35.4	10.4	3.55e-03	0	42	102	1048576	23	5829
2026-01-23 08:59:35.07	116.67	9.29	-30.9	-34.5	11.1	1.57e-03	0	42	102	1048576	23	5427
2026-01-23 08:59:38.07	116.43	9.52	-31.0	-34.7	11.0	1.99e-03	0	42	102	1048576	23	5513
2026-01-23 08:59:41.08	116.20	9.75	-31.1	-35.0	10.8	2.95e-03	0	42	102	1048576	23	5625
2026-01-23 08:59:44.08	115.96	9.98	-31.1	-34.8	11.0	1.56e-03	0	42	102	1048576	23	5517
2026-01-23 08:59:47.10	115.71	10.22	-30.9	-34.3	11.4	9.00e-04	0	42	102	1048576	23	5291
2026-01-23 08:59:50.12	115.47	10.46	-30.9	-34.1	11.6	7.64e-04	0	42	102	1048576	23	5223
2026-01-23 08:59:53.14	115.21	10.70	-30.8	-34.2	11.9	3.45e-04	0	42	102	1048576	22	5351
2026-01-23 08:59:56.15	114.96	10.94	-30.8	-34.2	11.9	3.55e-04	0	42	102	1048576	22	5337
2026-01-23 08:59:59.16	114.69	11.18	-30.9	-34.5	11.7	4.21e-04	0	42	102	1048576	22	5476
2026-01-23 09:00:02.17	114.43	11.42	-30.8	-34.3	11.9	3.84e-04	0	42	102	1048576	22	5393
2026-01-23 09:00:05.18	114.16	11.67	-30.8	-34.2	12.0	3.58e-04	0	42	102	1048576	22	5355
2026-01-23 09:00:08.20	113.88	11.92	-30.7	-33.9	12.2	2.24e-04	0	42	102	1048576	22	5236
2026-01-23 09:00:11.21	113.60	12.17	-30.7	-34.1	12.1	2.12e-04	0	42	102	1048576	22	5285
2026-01-23 09:00:14.21	113.32	12.42	-30.8	-34.1	12.1	3.13e-04	0	43	102	1048576	22	5313
2026-01-23 09:00:17.22	113.03	12.67	-30.6	-33.6	12.5	1.50e-04	0	42	102	1048576	22	5112
2026-01-23 09:00:20.24	112.73	12.93	-30.6	-33.5	12.6	8.01e-05	0	42	102	1048576	22	5049
2026-01-23 09:00:23.25	112.43	13.19	-30.6	-33.6	12.6	9.76e-05	0	42	102	1048576	22	5080
2026-01-23 09:00:26.26	112.13	13.45	-30.6	-33.7	12.5	1.14e-04	0	42	102	1048576	22	5123
2026-01-23 09:00:29.27	111.82	13.71	-30.7	-33.7	12.6	1.29e-04	0	42	102	1048576	22	5131
2026-01-23 09:00:32.28	111.50	13.97	-30.5	-33.3	12.8	7.01e-05	0	43	102	1048576	22	4969
2026-01-23 09:00:35.28	111.18	14.24	-30.5	-33.4	12.8	7.24e-05	0	43	102	1048576	22	4983
2026-01-23 09:00:38.30	110.85	14.51	-30.6	-33.6	12.7	8.39e-05	0	43	102	1048576	22	5090
2026-01-23 09:00:41.31	110.51	14.78	-30.8	-34.0	12.4	1.62e-04	0	43	102	1048576	22	5241
2026-01-23 09:00:44.31	110.17	15.05	-30.8	-34.0	12.4	1.73e-04	0	43	102	1048576	22	5231
2026-01-23 09:00:47.32	109.83	15.32	-30.8	-34.0	12.5	1.55e-04	0	43	102	1048576	22	5225
2026-01-23 09:00:50.35	109.47	15.60	-30.8	-34.0	12.5	1.62e-04	0	43	102	1048576	22	5227
2026-01-23 09:00:53.36	109.11	15.88	-30.7	-33.9	12.6	7.17e-05	0	43	102	1048576	22	5161
2026-01-23 09:00:56.38	108.74	16.16	-30.8	-33.9	12.6	1.04e-04	0	43	102	1048576	22	5158
2026-01-23 09:00:59.38	108.37	16.44	-30.8	-34.1	12.5	1.24e-04	0	43	102	1048576	22	5245
2026-01-23 09:01:02.39	107.98	16.72	-30.9	-34.3	12.3	1.72e-04	0	43	102	1048576	22	5340
2026-01-23 09:01:05.40	107.60	17.00	-31.0	-34.5	12.2	2.48e-04	0	43	102	1048576	22	5403
2026-01-23 09:01:08.42	107.20	17.29	-31.0	-34.6	12.1	3.37e-04	0	43	102	1048576	22	5459
2026-01-23 09:01:11.43	106.79	17.58	-30.7	-33.8	12.7	7.55e-05	0	43	102	1048576	22	5140
2026-01-23 09:01:14.43	106.38	17.87	-30.7	-33.9	12.7	7.85e-05	0	43	102	1048576	22	5152
2026-01-23 09:01:17.44	105.96	18.17	-30.6	-33.4	13.0	3.35e-05	0	43	102	1048576	22	4963
2026-01-23 09:01:20.45	105.53	18.46	-30.6	-33.4	13.0	4.04e-05	0	43	102	1048576	22	4995
2026-01-23 09:01:23.46	105.09	18.76	-30.5	-33.2	13.2	2.21e-05	0	43	102	1048576	22	4888
2026-01-23 09:01:26.49	104.64	19.06	-30.5	-33.2	13.2	2.51e-05	0	43	102	1048576	22	4895
2026-01-23 09:01:29.50	104.19	19.36	-30.5	-33.2	13.2	2.51e-05	0	43	102	1048576	22	4884
2026-01-23 09:01:32.51	103.72	19.66	-30.6	-33.3	13.1	2.82e-05	0	43	102	1048576	22	4941
2026-01-23 09:01:35.53	103.25	19.97	-30.6	-33.4	13.1	5.79e-05	0	43	102	1048576	22	4955
2026-01-23 09:01:38.54	102.76	20.27	-30.3	-32.9	13.7	7.00e-07	0	43	102	1048576	21	4895
2026-01-23 09:01:41.56	102.27	20.58	-30.2	-32.9	13.8	5.30e-06	0	43	102	1048576	21	4870
2026-01-23 09:01:44.58	101.76	20.89	-30.2	-32.7	13.9	2.20e-06	0	43	102	1048576	21	4827
2026-01-23 09:01:47.58	101.25	21.20	-30.3	-33.0	13.7	9.10e-06	0	43	102	1048576	21	4909
2026-01-23 09:01:50.59	100.72	21.51	-30.5	-33.5	13.4	1.37e-05	0	43	102	1048576	21	5097
2026-01-23 09:01:53.59	100.19	21.82	-30.5	-33.7	13.3	1.37e-05	0	43	102	1048576	21	5186
2026-01-23 09:01:56.60	99.64	22.13	-30.7	-34.0	13.1	4.42e-05	0	43	102	1048576	21	5279
2026-01-23 09:01:59.62	99.08	22.45	-30.8	-34.2	13.0	3.28e-05	0	43	102	1048576	21	5373
2026-01-23 09:02:02.63	98.52	22.76	-30.7	-34.1	13.1	3.66e-05	0	43	102	1048576	21	5330
2026-01-23 09:02:05.63	97.94	23.08	-30.8	-34.5	12.9	6.56e-05	0	43	102	1048576	21	5473
2026-01-23 09:02:08.63	97.35	23.39	-30.8	-34.4	12.9	6.86e-05	0	43	102	1048576	21	5442
2026-01-23 09:02:11.65	96.74	23.71	-30.8	-34.3	13.0	4.11e-05	0	43	102	1048576	21	5391
2026-01-23 09:02:14.66	96.12	24.03	-30.7	-34.0	13.2	1.83e-05	0	43	102	1048576	21	5289
2026-01-23 09:02:17.67	95.49	24.35	-30.8	-34.2	13.1	3.43e-05	0	43	102	1048576	21	5357
2026-01-23 09:02:20.68	94.85	24.66	-30.6	-33.8	13.4	2.05e-05	0	43	102	1048576	21	5201
2026-01-23 09:02:23.70	94.19	24.98	-30.5	-33.5	13.6	9.10e-06	0	43	102	1048576	21	5055
2026-01-23 09:02:26.70	93.52	25.30	-30.4	-33.2	13.8	5.30e-06	0	43	102	1048576	21	4966
2026-01-23 09:02:29.71	92.84	25.61	-30.3	-33.0	13.9	3.80e-06	0	43	102	1048576	21	4903
2026-01-23 09:02:32.73	92.14	25.93	-30.4	-33.3	13.8	5.30e-06	0	43	102	1048576	21	4982
2026-01-23 09:02:35.74	91.42	26.24	-30.4	-33.1	13.9	3.00e-06	0	43	102	1048576	21	4909
2026-01-23 09:02:38.76	90.70	26.56	-30.5	-33.3	13.8	2.20e-06	0	43	102	1048576	21	5002
2026-01-23 09:02:41.77	89.96	26.87	-30.7	-34.0	13.3	1.52e-05	0	43	102	1048576	21	5273
2026-01-23 09:02:44.77	89.20	27.18	-30.5	-33.4	13.8	5.30e-06	0	43	102	1048576	21	5008
2026-01-23 09:02:47.80	88.43	27.49	-30.7	-34.1	13.3	1.90e-05	0	43	102	1048576	21	5274
2026-01-23 09:02:50.81	87.64	27.79	-31.0	-34.4	12.7	5.87e-05	0	43	102	1048576	22	5299
2026-01-23 09:02:53.82	86.84	28.09	-31.3	-35.1	12.3	1.24e-04	0	43	102	1048576	22	5573
2026-01-23 09:02:56.83	86.03	28.39	-31.5	-35.3	11.9	4.23e-04	0	43	102	1048576	23	5550
2026-01-23 09:02:59.84	85.20	28.69	-31.6	-35.6	11.6	4.70e-04	0	43	102	1048576	23	5712
2026-01-23 09:03:02.85	84.35	28.98	-31.8	-36.1	11.3	1.17e-03	0	43	102	1048576	23	5927
2026-01-23 09:03:05.87	83.49	29.27	-31.8	-36.3	11.1	1.47e-03	0	43	102	1048576	23	6028
2026-01-23 09:03:08.89	82.61	29.55	-32.0	-36.7	10.9	2.11e-03	0	43	102	1048576	23	6187
2026-01-23 09:03:11.91	81.71	29.83	-32.3	-37.3	10.0	6.95e-03	0	43	102	1048576	24	6428
2026-01-23 09:03:14.93	80.80	30.11	-32.2	-37.2	10.1	8.07e-03	0	43	102	1048576	24	6345
2026-01-23 09:03:17.94	79.88	30.37	-32.2	-37.0	10.2	6.27e-03	0	43	102	1048576	24	6242
2026-01-23 09:03:20.96	78.94	30.63	-32.0	-36.3	10.8	2.31e-03	0	43	102	1048576	24	5883
2026-01-23 09:03:23.98	77.98	30.89	-31.9	-36.1	11.0	1.98e-03	0	43	102	1048576	24	5816
2026-01-23 09:03:26.99	77.01	31.14	-31.9	-36.0	11.1	1.78e-03	0	43	102	1048576	24	5756
2026-01-23 09:03:30.01	76.02	31.38	-32.0	-36.1	11.0	1.23e-03	0	43	102	1048576	24	5826
2026-01-23 09:03:33.01	75.03	31.61	-31.7	-35.1	11.7	5.52e-04	0	43	102	1048576	24	5369
2026-01-23 09:03:36.02	74.02	31.83	-31.9	-35.8	11.3	8.28e-04	0	43	102	1048576	24	5641
2026-01-23 09:03:39.03	72.99	32.05	-31.9	-35.8	11.3	1.24e-03	0	43	102	1048576	24	5645
2026-01-23 09:03:42.04	71.95	32.26	-31.6	-35.0	11.8	5.03e-04	0	43	102	1048576	24	5316
2026-01-23 09:03:45.05	70.90	32.45	-31.6	-34.8	12.0	4.77e-04	0	43	102	1048576	24	5200
2026-01-23 09:03:48.07	69.83	32.64	-31.5	-34.4	12.3	1.79e-04	0	43	102	1048576	24	5073
2026-01-23 09:03:51.07	68.76	32.82	-31.4	-34.8	12.3	1.53e-04	0	43	102	1048576	23	5334
2026-01-23 09:03:54.10	67.66	32.98	-31.5	-35.0	12.2	1.96e-04	0	43	102	1048576	23	5408
2026-01-23 09:03:57.11	66.56	33.14	-31.2	-34.2	12.7	9.61e-05	0	43	102	1048576	23	5082
2026-01-23 09:04:00.12	65.45	33.28	-30.9	-33.4	13.2	6.02e-05	0	43	102	1048576	23	4796
2026-01-23 09:04:03.13	64.33	33.42	-30.7	-33.2	13.7	3.00e-06	0	43	102	1048576	22	4844
2026-01-23 09:04:06.13	63.21	33.54	-30.8	-33.7	13.5	8.30e-06	0	43	102	1048576	22	4993
2026-01-23 09:04:09.14	62.07	33.64	-30.9	-33.9	13.2	1.67e-05	0	43	102	1048576	22	5088
2026-01-23 09:04:12.15	60.93	33.74	-31.0	-34.1	13.1	2.21e-05	0	43	102	1048576	22	5156
2026-01-23 09:04:15.16	59.78	33.82	-31.3	-35.1	12.5	1.01e-04	0	43	102	1048576	22	5531
2026-01-23 09:04:18.17	58.63	33.89	-31.3	-35.1	12.5	1.19e-04	0	43	102	1048576	22	5551
2026-01-23 09:04:21.19	57.46	33.95	-31.2	-34.6	12.9	9.00e-05	0	43	102	1048576	22	5332
2026-01-23 09:04:24.20	56.30	33.99	-31.1	-34.4	13.0	4.73e-05	0	43	102	1048576	22	5251
2026-01-23 09:04:27.20	55.14	34.02	-31.1	-34.4	13.0	4.42e-05	0	43	102	1048576	22	5239
2026-01-23 09:04:30.22	53.97	34.04	-31.2	-34.6	12.7	5.41e-05	0	43	102	1048576	22	5362
2026-01-23 09:04:33.24	52.80	34.04	-30.9	-34.0	13.3	1.29e-05	0	43	102	1048576	22	5097
2026-01-23 09:04:36.25	51.64	34.03	-31.1	-34.4	13.0	2.97e-05	0	43	102	1048576	22	5248
2026-01-23 09:04:39.27	50.47	34.01	-31.5	-35.2	12.0	2.97e-04	0	43	102	1048576	23	5502
2026-01-23 09:04:42.27	49.31	33.97	-31.4	-34.9	12.3	2.37e-04	0	43	102	1048576	23	5350
2026-01-23 09:04:45.29	48.14	33.92	-31.5	-35.2	12.0	3.15e-04	0	43	102	1048576	23	5472
2026-01-23 09:04:48.31	46.98	33.85	-31.7	-35.7	11.8	3.23e-04	0	43	102	1048576	23	5694
2026-01-23 09:04:51.32	45.83	33.78	-31.7	-35.8	11.7	7.47e-04	0	43	102	1048576	23	5738
2026-01-23 09:04:54.31	44.70	33.69	-31.7	-35.8	11.6	5.42e-04	0	43	102	1048576	23	5754
2026-01-23 09:04:57.32	43.56	33.59	-31.8	-36.0	11.6	7.13e-04	0	43	102	1048576	23	5821
2026-01-23 09:05:00.32	42.43	33.47	-31.8	-36.1	11.4	1.18e-03	0	43	102	1048576	23	5890
2026-01-23 09:05:03.34	41.31	33.34	-31.9	-36.2	11.3	1.24e-03	0	43	102	1048576	23	5935
2026-01-23 09:05:06.35	40.20	33.21	-31.7	-35.7	11.7	5.55e-04	0	43	102	1048576	23	5694
2026-01-23 09:05:09.36	39.10	33.06	-31.8	-36.1	11.4	9.82e-04	0	43	102	1048576	23	5871
2026-01-23 09:05:12.37	38.00	32.89	-31.6	-35.4	11.9	4.81e-04	0	43	102	1048576	23	5565
2026-01-23 09:05:15.38	36.92	32.72	-31.6	-35.4	11.9	4.36e-04	0	43	102	1048576	23	5567
2026-01-23 09:05:18.41	35.85	32.54	-31.6	-35.3	12.0	3.49e-04	0	43	102	1048576	23	5516
2026-01-23 09:05:21.42	34.79	32.35	-31.4	-34.9	12.3	2.10e-04	0	43	102	1048576	23	5345
2026-01-23 09:05:24.44	33.75	32.14	-31.7	-35.7	11.7	4.90e-04	0	43	102	1048576	23	5689
2026-01-23 09:05:27.44	32.72	31.93	-31.9	-36.5	11.1	1.40e-03	0	43	102	1048576	23	6072
2026-01-23 09:05:30.46	31.70	31.71	-31.9	-36.7	10.8	2.24e-03	0	43	102	1048576	23	6231
2026-01-23 09:05:33.48	30.70	31.48	-32.0	-36.4	10.7	4.17e-03	0	43	102	1048576	24	5998
2026-01-23 09:05:36.49	29.71	31.25	-30.9	-35.4	11.1	1.45e-03	0	43	102	1048576	23	6051
2026-01-23 09:05:39.52	28.73	31.00	-30.0	-36.3	10.4	3.36e-03	0	43	102	1048576	20	7465
2026-01-23 09:05:42.52	27.78	30.75	-31.3	-36.3	11.1	1.63e-03	0	43	102	1048576	22	6373
2026-01-23 09:05:45.53	26.83	30.50	-31.9	-36.4	11.1	1.83e-03	0	43	102	1048576	23	6081
2026-01-23 09:05:48.54	25.91	30.23	-31.8	-36.3	11.1	1.79e-03	0	43	102	1048576	23	6024
2026-01-23 09:05:51.55	24.99	29.96	-31.6	-35.5	11.7	5.71e-04	0	43	102	1048576	23	5645
2026-01-23 09:05:54.57	24.10	29.69	-31.7	-35.9	11.4	8.11e-04	0	43	102	1048576	23	5824
2026-01-23 09:05:57.58	23.21	29.41	-31.6	-35.5	11.6	6.40e-04	0	43	102	1048576	23	5649
2026-01-23 09:06:00.59	22.35	29.12	-31.7	-35.9	11.4	7.72e-04	0	43	102	1048576	23	5822
2026-01-23 09:06:03.59	21.50	28.83	-31.7	-35.7	11.6	8.83e-04	0	43	102	1048576	23	5720
2026-01-23 09:06:06.60	20.67	28.54	-31.7	-35.7	11.6	6.29e-04	0	43	102	1048576	23	5719
2026-01-23 09:06:09.63	19.84	28.24	-31.6	-35.6	11.6	7.25e-04	0	43	102	1048576	23	5692
2026-01-23 09:06:12.64	19.04	27.94	-31.6	-35.4	11.7	5.51e-04	0	43	102	1048576	23	5616
2026-01-23 09:06:15.65	18.25	27.64	-31.3	-34.7	12.2	5.87e-04	0	43	102	1048576	23	5327
2026-01-23 09:06:18.67	17.47	27.34	-30.7	-33.3	13.4	1.83e-05	0	43	102	1048576	22	4891
2026-01-23 09:06:21.69	16.71	27.03	-30.6	-33.0	13.6	1.29e-05	0	43	102	1048576	22	4788
2026-01-23 09:06:24.71	15.97	26.72	-30.0	-32.0	14.5	7.00e-07	0	43	102	1048576	21	4555
2026-01-23 09:06:27.72	15.24	26.41	-29.9	-31.8	14.7	1.50e-06	0	43	102	1048576	21	4494
2026-01-23 09:06:30.73	14.52	26.09	-29.6	-31.7	15.0	0.00e+00	0	43	102	1048576	20	4550
2026-01-23 09:06:33.74	13.82	25.78	-29.4	-31.4	15.5	7.00e-07	0	43	102	1048576	19	4579
2026-01-23 09:06:36.75	13.14	25.47	-29.4	-31.5	15.4	0.00e+00	0	43	102	1048576	19	4613
2026-01-23 09:06:39.75	12.46	25.15	-29.4	-31.5	15.5	0.00e+00	0	43	102	1048576	19	4608
2026-01-23 09:06:42.76	11.80	24.84	-29.2	-31.2	15.7	0.00e+00	0	44	102	1048576	19	4498
2026-01-23 09:06:45.77	11.16	24.52	-29.2	-31.0	15.8	0.00e+00	0	43	102	1048576	19	4428
2026-01-23 09:06:48.77	10.53	24.21	-29.4	-31.4	15.5	0.00e+00	0	43	102	1048576	19	4577
2026-01-23 09:06:51.79	9.90	23.89	-29.5	-31.7	15.3	1.50e-06	0	43	102	1048576	19	4671
2026-01-23 09:06:54.80	9.30	23.57	-29.6	-32.0	15.1	0.00e+00	0	44	102	1048576	19	4766
2026-01-23 09:06:57.82	8.70	23.26	-29.7	-32.3	14.9	0.00e+00	0	43	102	1048576	19	4860
2026-01-23 09:07:00.83	8.12	22.94	-29.7	-32.4	14.9	7.00e-07	0	43	102	1048576	19	4892
2026-01-23 09:07:03.84	7.54	22.63	-29.8	-32.6	14.7	0.00e+00	0	44	102	1048576	19	4966
2026-01-23 09:07:06.85	6.98	22.31	-29.9	-32.9	14.6	0.00e+00	0	43	102	1048576	19	5063
2026-01-23 09:07:09.87	6.43	22.00	-29.9	-32.5	14.4	7.00e-07	0	43	102	1048576	20	4835
2026-01-23 09:07:12.88	5.90	21.69	-29.9	-32.3	14.5	0.00e+00	0	43	102	1048576	20	4767
2026-01-23 09:07:15.90	5.37	21.38	-30.2	-33.1	14.0	2.20e-06	0	43	102	1048576	20	5032
2026-01-23 09:07:18.91	4.85	21.07	-30.1	-33.0	14.0	3.80e-06	0	43	102	1048576	20	5014
2026-01-23 09:07:21.92	4.35	20.76	-30.1	-32.9	14.1	3.00e-06	0	43	102	1048576	20	4993
2026-01-23 09:07:24.93	3.85	20.46	-30.3	-33.4	13.8	2.20e-06	0	43	102	1048576	20	5158
2026-01-23 09:07:27.94	3.37	20.15	-30.3	-33.5	13.6	7.60e-06	0	43	102	1048576	20	5217
2026-01-23 09:07:30.96	2.89	19.85	-30.5	-34.0	13.4	1.14e-05	0	43	102	1048576	20	5381
2026-01-23 09:07:33.98	2.42	19.54	-30.6	-33.9	13.1	2.82e-05	0	43	102	1048576	21	5233
2026-01-23 09:07:36.99	1.96	19.25	-30.6	-33.8	13.1	3.89e-05	0	43	102	1048576	21	5230
2026-01-23 09:07:40.00	1.52	18.95	-30.7	-34.2	12.9	7.55e-05	0	43	102	1048576	21	5357
2026-01-23 09:07:43.02	1.08	18.65	-30.8	-34.5	12.6	1.36e-04	0	43	102	1048576	21	5510
2026-01-23 09:07:46.03	0.64	18.36	-30.8	-34.5	12.6	8.69e-05	0	43	102	1048576	21	5510
2026-01-23 09:07:49.05	0.22	18.06	-30.8	-34.5	12.6	7.47e-05	0	43	102	1048576	21	5509
2026-01-23 09:07:52.07	359.81	17.77	-30.8	-34.5	12.6	7.85e-05	0	43	102	1048576	21	5508
2026-01-23 09:07:55.09	359.40	17.48	-30.9	-34.8	12.4	1.50e-04	0	43	102	1048576	21	5615
2026-01-23 09:07:58.09	359.00	17.19	-31.0	-34.7	12.2	2.38e-04	0	43	102	1048576	22	5467
2026-01-23 09:08:01.10	358.61	16.91	-31.2	-35.2	11.8	5.26e-04	0	43	102	1048576	22	5685
2026-01-23 09:08:04.12	358.23	16.62	-31.1	-34.7	12.1	3.20e-04	0	43	102	1048576	22	5495
2026-01-23 09:08:07.14	357.85	16.34	-31.1	-34.9	11.9	3.53e-04	0	43	102	1048576	22	5547
2026-01-23 09:08:10.15	357.49	16.06	-30.6	-33.5	12.9	5.72e-05	0	43	102	1048576	22	4993
2026-01-23 09:08:13.14	357.13	15.79	-30.8	-33.9	12.6	5.79e-05	0	43	102	1048576	22	5148
2026-01-23 09:08:16.14	356.77	15.51	-30.9	-34.3	12.3	1.61e-04	0	43	102	1048576	22	5336
2026-01-23 09:08:19.16	356.42	15.24	-31.0	-34.8	11.9	3.07e-04	0	43	102	1048576	22	5525
2026-01-23 09:08:22.19	356.08	14.97	-31.0	-34.7	12.0	3.27e-04	0	43	102	1048576	22	5500
2026-01-23 09:08:25.21	355.75	14.70	-31.0	-34.7	11.9	3.75e-04	0	43	102	1048576	22	5518
2026-01-23 09:08:28.22	355.42	14.43	-30.8	-34.1	12.3	2.01e-04	0	43	102	1048576	22	5265
2026-01-23 09:08:31.24	355.09	14.16	-30.8	-34.1	12.3	1.91e-04	0	43	102	1048576	22	5267
2026-01-23 09:08:34.26	354.77	13.90	-30.8	-34.1	12.3	2.33e-04	0	43	102	1048576	22	5271
2026-01-23 09:08:37.27	354.46	13.64	-30.7	-33.9	12.5	1.41e-04	0	43	102	1048576	22	5167
2026-01-23 09:08:40.29	354.16	13.38	-30.8	-34.3	12.2	2.29e-04	0	44	102	1048576	22	5356
2026-01-23 09:08:43.31	353.86	13.12	-31.0	-34.9	11.7	5.31e-04	0	43	102	1048576	22	5606
2026-01-23 09:08:46.32	353.56	12.86	-31.0	-34.8	11.8	4.38e-04	0	43	102	1048576	22	5563
2026-01-23 09:08:49.33	353.27	12.61	-31.1	-35.0	11.5	8.93e-04	0	43	102	1048576	22	5680
2026-01-23 09:08:52.34	352.99	12.36	-31.2	-35.4	11.3	1.27e-03	0	43	102	1048576	22	5848
2026-01-23 09:08:55.35	352.71	12.11	-31.1	-35.2	11.4	9.38e-04	0	43	102	1048576	22	5751
2026-01-23 09:08:58.37	352.43	11.86	-31.2	-35.3	11.3	1.10e-03	0	43	102	1048576	22	5796
2026-01-23 09:09:01.39	352.16	11.61	-31.2	-35.5	11.2	1.54e-03	0	43	102	1048576	22	5893
2026-01-23 09:09:04.40	351.90	11.37	-31.3	-35.9	10.9	2.09e-03	0	43	102	1048576	22	6079
2026-01-23 09:09:07.42	351.64	11.12	-31.2	-35.5	11.1	1.83e-03	0	43	102	1048576	22	5895
2026-01-23 09:09:10.44	351.38	10.88	-31.3	-35.9	10.7	2.02e-03	0	43	102	1048576	22	6109
2026-01-23 09:09:13.46	351.13	10.64	-31.2	-35.5	11.0	2.13e-03	0	43	102	1048576	22	5928
2026-01-23 09:09:16.48	350.88	10.40	-31.3	-35.9	10.7	2.33e-03	0	43	102	1048576	22	6114
2026-01-23 09:09:19.48	350.64	10.17	-31.4	-36.3	10.4	4.73e-03	0	43	102	1048576	22	6309
2026-01-23 09:09:22.49	350.40	9.94	-31.6	-36.6	9.8	9.21e-03	0	43	102	1048576	23	6355
2026-01-23 09:09:25.49	350.17	9.70	-31.6	-36.7	9.7	1.27e-02	0	43	102	1048576	23	6437
2026-01-23 09:09:28.51	349.93	9.47	-31.6	-36.5	9.8	1.13e-02	0	43	102	1048576	23	6345
2026-01-23 09:09:31.54	349.70	9.24	-31.6	-36.5	9.8	1.17e-02	0	44	102	1048576	23	6308
2026-01-23 09:09:34.55	349.48	9.02	-31.4	-36.0	10.2	6.17e-03	0	44	102	1048576	23	6083
2026-01-23 09:09:37.56	349.26	8.79	-31.4	-35.9	10.2	6.60e-03	0	43	102	1048576	23	6049
2026-01-23 09:09:40.55	349.05	8.57	-31.5	-36.3	9.8	9.15e-03	0	43	102	1048576	23	6254
2026-01-23 09:09:43.57	348.83	8.35	-31.6	-36.8	9.4	1.19e-02	0	43	102	1048576	23	6549
2026-01-23 09:09:46.59	348.62	8.12	-31.7	-37.0	9.2	2.26e-02	0	43	102	1048576	23	6676
2026-01-23 09:09:49.60	348.42	7.90	-31.5	-36.6	9.5	1.64e-02	0	43	102	1048576	23	6439
2026-01-23 09:09:52.60	348.21	7.69	-31.5	-36.5	9.5	1.40e-02	0	44	102	1048576	23	6400
2026-01-23 09:09:55.60	348.01	7.47	-31.7	-37.3	8.8	2.43e-02	0	43	102	1048576	23	6870
2026-01-23 09:09:58.61	347.82	7.26	-31.5	-36.5	9.5	1.61e-02	0	44	102	1048576	23	6379
2026-01-23 09:10:01.61	347.62	7.04	-33.3	-47.1	3.8	3.49e-01	0	43	104	1048576	26	17681

#Closed at: 2026-01-23 09:10:03
#Recorded file [1 MB]: D:/data/31010_260123_115906.dat