passes_logs/2026/01/23/R2M6_AANII_01/R2M6_AANII_01__20260123_023541_AQUA_rec.log

#Pass ID: 20260123_023541_AQUA
#Satellite: AQUA
#Configuration: AQUA
#almurnet v.1.7.20240730
#Start time: 2026-01-23 02:36:04

#Version: 2.2.20231116
#Station: R2M6_AANII_01
#Location: 30.233357 lon 59.946436 lat
#TLE: 1 27424U 02022A   26022.49486490  .00002153  00000+0  44069-3 0  9997
#TLE: 2 27424  98.4099 349.0485 0001970  69.5876  43.4746 14.61847233261984

#Time	Az	El	Level	Level2	SNR	BER	BlckErr	Temp	State	Recorded	gain1	gain2
2026-01-23 02:36:04.76	12.71	8.92	-34.1	-48.2	3.8	1.49e+00	0	44	0	0	28	18339
2026-01-23 02:36:07.77	12.58	9.18	-34.8	-54.2	3.8	7.43e-01	0	44	104	0	30	33486
2026-01-23 02:36:10.78	12.46	9.45	-34.8	-54.2	3.8	7.47e-01	0	44	104	0	30	33514
2026-01-23 02:36:13.79	12.33	9.71	-34.7	-54.0	3.8	7.42e-01	0	44	104	0	30	33280
2026-01-23 02:36:16.79	12.20	9.98	-34.7	-54.0	3.8	7.45e-01	0	44	104	0	30	33147
2026-01-23 02:36:19.80	12.07	10.26	-34.7	-54.0	3.8	7.45e-01	0	44	104	0	30	33237
2026-01-23 02:36:22.81	11.93	10.54	-34.9	-54.3	3.8	7.44e-01	0	44	104	0	30	33671
2026-01-23 02:36:25.82	11.79	10.82	-34.9	-54.3	3.8	7.45e-01	0	44	104	0	30	33726
2026-01-23 02:36:28.83	11.65	11.10	-34.9	-54.2	3.8	7.45e-01	0	44	104	0	30	33352
2026-01-23 02:36:31.83	11.51	11.39	-34.8	-54.1	3.8	7.46e-01	0	44	104	0	30	33072
2026-01-23 02:36:34.85	11.36	11.68	-34.6	-53.7	3.8	7.45e-01	0	44	104	0	30	32412
2026-01-23 02:36:37.86	11.20	11.98	-33.6	-44.8	4.4	7.23e-01	0	44	104	0	28	12947
2026-01-23 02:36:40.88	11.05	12.28	-33.5	-43.1	8.7	6.34e-01	0	44	0	1048576	28	10832
2026-01-23 02:36:43.88	10.89	12.58	-33.8	-46.4	6.0	6.84e-01	0	44	0	6815744	28	15304
2026-01-23 02:36:46.90	10.72	12.89	-34.0	-51.0	3.9	7.44e-01	0	44	104	7340032	28	25676
2026-01-23 02:36:49.91	10.56	13.20	-33.5	-42.9	9.4	6.24e-01	0	44	0	2621440	27	10666
2026-01-23 02:36:52.91	10.38	13.51	-32.6	-38.5	13.6	6.00e-01	0	44	0	7864320	26	7121
2026-01-23 02:36:55.93	10.21	13.83	-32.2	-37.7	14.6	6.04e-01	0	44	0	13631488	25	6724
2026-01-23 02:36:58.95	10.03	14.16	-32.5	-38.9	13.7	6.05e-01	0	44	0	19398656	25	7456
2026-01-23 02:37:01.96	9.84	14.49	-32.5	-38.7	13.9	6.03e-01	0	44	0	25165824	25	7320
2026-01-23 02:37:04.97	9.65	14.82	-32.1	-37.0	15.3	6.04e-01	0	44	0	30408704	25	6324
2026-01-23 02:37:07.99	9.46	15.16	-32.3	-37.8	14.7	6.02e-01	0	44	0	36175872	25	6763
2026-01-23 02:37:11.00	9.26	15.50	-31.2	-35.1	17.3	6.02e-01	0	44	0	41943040	23	5619
2026-01-23 02:37:14.02	9.05	15.85	-30.2	-33.3	19.1	6.02e-01	0	44	0	47710208	21	5137
2026-01-23 02:37:17.03	8.84	16.21	-29.9	-32.9	19.7	6.02e-01	0	44	0	52953088	20	5085
2026-01-23 02:37:20.03	8.62	16.56	-29.7	-32.5	19.9	6.03e-01	0	44	0	58720256	20	4951
2026-01-23 02:37:23.04	8.40	16.93	-29.8	-32.7	19.8	6.04e-01	0	44	0	64487424	20	5016
2026-01-23 02:37:26.05	8.17	17.30	-29.8	-32.6	19.8	6.02e-01	0	44	0	70254592	20	4982
2026-01-23 02:37:29.06	7.94	17.67	-29.9	-32.8	19.7	6.00e-01	0	44	0	76021760	20	5064
2026-01-23 02:37:32.07	7.70	18.06	-29.8	-32.8	19.8	6.03e-01	0	44	0	81264640	20	5052
2026-01-23 02:37:35.09	7.45	18.44	-29.9	-32.9	19.7	6.02e-01	0	44	0	87031808	20	5079
2026-01-23 02:37:38.11	7.19	18.84	-30.2	-33.2	19.3	6.01e-01	0	44	0	92798976	21	5070
2026-01-23 02:37:41.10	6.93	19.24	-30.0	-32.8	19.6	6.04e-01	0	44	0	98041856	21	4921
2026-01-23 02:37:44.10	6.66	19.64	-29.8	-32.7	19.9	6.04e-01	0	44	0	103809024	20	5020
2026-01-23 02:37:47.10	6.38	20.06	-29.8	-32.7	20.0	6.05e-01	0	44	0	109576192	20	5020
2026-01-23 02:37:50.12	6.09	20.48	-30.1	-32.9	19.6	6.00e-01	0	44	0	115343360	21	4973
2026-01-23 02:37:53.13	5.80	20.91	-30.3	-33.4	19.3	6.02e-01	0	44	0	121110528	21	5131
2026-01-23 02:37:56.13	5.49	21.34	-30.6	-33.7	18.8	6.00e-01	0	44	0	126353408	22	5122
2026-01-23 02:37:59.15	5.18	21.78	-30.2	-33.1	19.4	6.02e-01	0	44	0	132120576	21	5035
2026-01-23 02:38:02.15	4.85	22.23	-30.0	-33.0	19.1	6.03e-01	0	44	0	137887744	20	5120
2026-01-23 02:38:05.15	4.52	22.69	-30.0	-33.1	17.3	6.01e-01	0	44	0	143130624	20	5153
2026-01-23 02:38:08.16	4.17	23.15	-30.4	-33.7	19.2	6.00e-01	0	44	0	148897792	21	5235
2026-01-23 02:38:11.17	3.82	23.63	-30.4	-33.5	19.3	5.99e-01	0	44	0	154664960	21	5187
2026-01-23 02:38:14.18	3.45	24.11	-30.4	-33.7	19.1	5.99e-01	0	44	0	160432128	21	5264
2026-01-23 02:38:17.19	3.06	24.60	-30.1	-32.9	19.7	6.01e-01	0	44	0	166199296	21	4956
2026-01-23 02:38:20.20	2.67	25.10	-30.0	-33.2	19.7	6.00e-01	0	44	0	171442176	20	5184
2026-01-23 02:38:23.22	2.26	25.61	-30.0	-33.2	19.8	6.02e-01	0	44	0	177209344	20	5173
2026-01-23 02:38:26.23	1.84	26.13	-30.3	-33.2	19.5	6.01e-01	0	44	0	182976512	21	5071
2026-01-23 02:38:29.24	1.40	26.65	-30.0	-33.1	19.8	6.02e-01	0	44	0	188743680	20	5143
2026-01-23 02:38:32.26	0.94	27.19	-30.0	-33.0	19.9	6.04e-01	0	44	0	194510848	20	5101
2026-01-23 02:38:35.28	0.47	27.74	-29.9	-32.7	20.1	6.02e-01	0	44	0	199753728	20	4980
2026-01-23 02:38:38.28	359.98	28.29	-29.8	-32.5	20.2	6.02e-01	0	44	0	205520896	20	4908
2026-01-23 02:38:41.28	359.48	28.86	-30.1	-32.7	19.8	6.00e-01	0	44	0	211288064	21	4878
2026-01-23 02:38:44.28	358.95	29.43	-30.0	-33.0	19.9	6.01e-01	0	44	0	216530944	20	5114
2026-01-23 02:38:47.29	358.41	30.01	-30.0	-33.0	20.0	6.03e-01	0	44	0	222298112	20	5102
2026-01-23 02:38:50.30	357.84	30.61	-29.9	-32.9	20.1	6.00e-01	0	44	0	228065280	20	5038
2026-01-23 02:38:53.31	357.25	31.21	-29.7	-32.3	20.4	6.01e-01	0	44	0	233832448	20	4863
2026-01-23 02:38:56.32	356.64	31.83	-30.0	-33.1	20.0	6.04e-01	0	44	0	239599616	20	5114
2026-01-23 02:38:59.33	356.00	32.46	-30.2	-33.0	19.8	6.03e-01	0	44	0	244842496	21	4961
2026-01-23 02:39:02.33	355.33	33.09	-30.3	-33.2	19.6	6.03e-01	0	44	0	250609664	21	5033
2026-01-23 02:39:05.34	354.64	33.73	-30.4	-33.7	19.3	6.00e-01	0	44	0	256376832	21	5220
2026-01-23 02:39:08.34	353.92	34.39	-30.0	-33.0	20.1	6.03e-01	0	44	0	261619712	20	5070
2026-01-23 02:39:11.35	353.17	35.05	-30.7	-33.8	19.0	6.02e-01	0	44	0	267386880	22	5148
2026-01-23 02:39:14.36	352.38	35.73	-30.9	-34.4	18.6	6.03e-01	0	44	0	273154048	22	5385
2026-01-23 02:39:17.37	351.56	36.41	-30.7	-33.7	19.0	6.02e-01	0	44	0	278921216	22	5115
2026-01-23 02:39:20.39	350.70	37.10	-31.3	-34.9	18.0	6.05e-01	0	44	0	284688384	23	5443
2026-01-23 02:39:23.38	349.81	37.80	-31.0	-34.6	18.5	6.03e-01	0	44	0	289931264	22	5441
2026-01-23 02:39:26.39	348.87	38.50	-31.1	-34.3	18.4	6.00e-01	0	44	0	295698432	23	5223
2026-01-23 02:39:29.41	347.88	39.22	-31.2	-34.7	18.2	6.02e-01	0	44	0	301465600	23	5365
2026-01-23 02:39:32.41	346.86	39.94	-31.2	-34.7	18.2	6.01e-01	0	44	0	307232768	23	5364
2026-01-23 02:39:35.41	345.79	40.66	-30.8	-34.1	18.8	6.01e-01	0	44	0	312475648	22	5261
2026-01-23 02:39:38.41	344.67	41.39	-31.0	-34.1	18.5	6.03e-01	0	44	0	318242816	23	5135
2026-01-23 02:39:41.41	343.49	42.11	-30.8	-34.1	18.9	6.01e-01	0	44	0	324009984	22	5233
2026-01-23 02:39:44.43	342.26	42.85	-31.0	-34.5	18.6	6.04e-01	0	44	0	329777152	22	5409
2026-01-23 02:39:47.44	340.96	43.58	-30.8	-34.0	18.3	6.07e-01	0	44	0	335020032	22	5221
2026-01-23 02:39:50.45	339.61	44.31	-30.6	-33.9	19.2	6.03e-01	0	44	0	340787200	21	5304
2026-01-23 02:39:53.46	338.19	45.03	-31.0	-34.5	18.6	6.01e-01	0	44	0	346554368	22	5397
2026-01-23 02:39:56.47	336.70	45.75	-30.7	-33.7	19.1	6.03e-01	0	44	0	352321536	22	5108
2026-01-23 02:39:59.48	335.14	46.46	-30.7	-33.7	19.0	6.05e-01	0	44	0	357564416	22	5105
2026-01-23 02:40:02.50	333.51	47.16	-31.0	-34.6	18.5	6.05e-01	0	44	0	363331584	22	5471
2026-01-23 02:40:05.51	331.80	47.84	-30.9	-34.4	18.6	6.04e-01	0	44	0	369098752	22	5368
2026-01-23 02:40:08.52	330.02	48.51	-30.9	-34.3	18.7	6.02e-01	0	44	0	374865920	22	5334
2026-01-23 02:40:11.52	328.16	49.15	-30.9	-34.4	18.6	6.00e-01	0	44	0	380108800	22	5355
2026-01-23 02:40:14.53	326.22	49.77	-30.9	-34.2	18.7	6.03e-01	0	44	0	385875968	22	5297
2026-01-23 02:40:17.55	324.19	50.37	-30.7	-33.9	19.0	6.00e-01	0	44	0	391643136	22	5160
2026-01-23 02:40:20.57	322.08	50.93	-30.6	-33.6	19.1	6.03e-01	0	44	0	397410304	22	5085
2026-01-23 02:40:23.58	319.90	51.45	-30.4	-33.5	19.5	6.04e-01	0	44	0	403177472	21	5143
2026-01-23 02:40:26.60	317.63	51.94	-30.4	-33.6	19.4	6.04e-01	0	44	0	408420352	21	5185
2026-01-23 02:40:29.61	315.30	52.39	-30.3	-33.3	19.6	6.04e-01	0	44	0	414187520	21	5092
2026-01-23 02:40:32.63	312.89	52.79	-30.5	-33.6	19.4	6.02e-01	0	44	0	419954688	21	5199
2026-01-23 02:40:35.63	310.44	53.13	-30.3	-33.2	19.6	6.00e-01	0	44	0	425721856	21	5042
2026-01-23 02:40:38.65	307.91	53.43	-30.4	-32.9	19.5	6.02e-01	0	44	0	430964736	22	4828
2026-01-23 02:40:41.65	305.36	53.67	-30.8	-34.1	18.9	6.02e-01	0	44	0	436731904	22	5241
2026-01-23 02:40:44.64	302.77	53.85	-30.5	-33.3	19.2	6.02e-01	0	44	0	442499072	22	4966
2026-01-23 02:40:47.64	300.15	53.97	-30.2	-33.0	19.7	6.01e-01	0	44	0	448266240	21	4985
2026-01-23 02:40:50.65	297.50	54.03	-30.2	-32.4	19.9	5.99e-01	0	44	0	453509120	22	4667
2026-01-23 02:40:53.65	294.85	54.03	-30.5	-33.3	18.9	6.00e-01	0	44	0	459276288	22	4960
2026-01-23 02:40:56.66	292.20	53.97	-31.3	-35.0	18.1	6.02e-01	0	44	0	465043456	23	5532
2026-01-23 02:40:59.67	289.57	53.85	-29.7	-31.6	20.4	6.00e-01	0	44	0	470810624	21	4507
2026-01-23 02:41:02.67	286.97	53.67	-30.8	-34.3	18.7	6.01e-01	0	44	0	476053504	22	5334
2026-01-23 02:41:05.70	284.38	53.43	-30.7	-33.8	18.8	6.02e-01	0	44	0	481820672	22	5193
2026-01-23 02:41:08.71	281.86	53.13	-30.4	-33.6	19.3	6.03e-01	0	44	0	487587840	21	5224
2026-01-23 02:41:11.72	279.40	52.79	-30.4	-33.1	19.2	6.03e-01	0	44	0	493355008	22	4924
2026-01-23 02:41:14.73	276.99	52.39	-29.9	-32.9	20.1	6.03e-01	0	44	0	499122176	20	5074
2026-01-23 02:41:17.75	274.65	51.94	-29.8	-32.2	20.1	6.03e-01	0	44	0	504365056	21	4723
2026-01-23 02:41:20.76	272.39	51.45	-29.5	-31.9	20.5	6.00e-01	0	44	0	510132224	20	4730
2026-01-23 02:41:23.77	270.21	50.93	-29.5	-32.4	20.7	6.03e-01	0	44	0	515899392	19	4995
2026-01-23 02:41:26.79	268.09	50.36	-29.9	-32.7	20.1	6.03e-01	0	44	0	521666560	20	5008
2026-01-23 02:41:29.80	266.07	49.77	-29.5	-31.8	20.6	6.02e-01	0	44	0	526909440	20	4699
2026-01-23 02:41:32.81	264.12	49.14	-29.2	-31.1	20.9	6.04e-01	0	44	0	532676608	20	4490
2026-01-23 02:41:35.82	262.26	48.50	-29.3	-31.2	20.9	6.03e-01	0	44	0	538443776	20	4517
2026-01-23 02:41:38.83	260.47	47.83	-29.5	-31.8	20.6	6.03e-01	0	44	0	544210944	20	4712
2026-01-23 02:41:41.84	258.76	47.15	-29.4	-32.0	20.8	6.03e-01	0	44	0	549453824	19	4885
2026-01-23 02:41:44.85	257.13	46.45	-29.3	-31.9	20.8	6.00e-01	0	44	0	555220992	19	4858
2026-01-23 02:41:47.87	255.56	45.73	-29.4	-32.1	20.8	6.01e-01	0	44	0	560988160	19	4901
2026-01-23 02:41:50.87	254.07	45.01	-29.2	-31.5	21.0	6.03e-01	0	44	0	566755328	19	4717
2026-01-23 02:41:53.88	252.65	44.29	-29.1	-31.5	21.1	6.01e-01	0	44	0	572522496	19	4697
2026-01-23 02:41:56.89	251.29	43.56	-29.3	-31.7	20.9	6.00e-01	0	44	0	577765376	19	4786
2026-01-23 02:41:59.90	249.99	42.82	-29.5	-32.0	20.3	6.04e-01	0	44	0	583532544	20	4767
2026-01-23 02:42:02.91	248.76	42.09	-29.8	-32.7	19.9	6.01e-01	0	44	0	589299712	20	5002
2026-01-23 02:42:05.90	247.58	41.36	-30.2	-33.3	19.3	6.03e-01	0	44	0	595066880	21	5104
2026-01-23 02:42:08.92	246.45	40.63	-30.6	-33.8	18.6	6.02e-01	0	44	0	600309760	22	5174
2026-01-23 02:42:11.93	245.37	39.90	-30.7	-33.9	18.6	6.02e-01	0	44	0	606076928	22	5201
2026-01-23 02:42:14.93	244.35	39.18	-31.1	-34.7	17.8	6.01e-01	0	44	0	611844096	23	5412
2026-01-23 02:42:17.94	243.36	38.46	-30.8	-33.9	18.2	6.01e-01	0	44	0	617611264	23	5120
2026-01-23 02:42:20.94	242.43	37.75	-30.6	-34.2	18.7	6.03e-01	0	44	0	622854144	21	5473
2026-01-23 02:42:23.94	241.53	37.05	-30.0	-32.7	19.6	6.00e-01	0	44	0	628621312	21	4912
2026-01-23 02:42:26.95	240.67	36.36	-30.1	-32.5	19.4	6.03e-01	0	44	0	634388480	22	4736
2026-01-23 02:42:29.96	239.85	35.67	-30.2	-33.4	19.1	6.00e-01	0	44	0	640155648	21	5161
2026-01-23 02:42:32.98	239.05	35.00	-30.3	-33.5	19.1	6.00e-01	0	44	0	645398528	21	5218
2026-01-23 02:42:36.00	238.30	34.33	-29.4	-31.2	20.4	6.03e-01	0	44	0	651165696	21	4406
2026-01-23 02:42:39.01	237.57	33.67	-30.0	-33.2	19.5	6.02e-01	0	44	0	656932864	20	5215
2026-01-23 02:42:42.01	236.88	33.02	-29.5	-32.4	20.4	6.02e-01	0	44	0	662700032	19	5015
2026-01-23 02:42:45.02	236.21	32.38	-29.7	-32.4	20.0	6.00e-01	0	44	0	667942912	20	4930
2026-01-23 02:42:48.03	235.57	31.76	-29.8	-32.7	19.7	6.02e-01	0	44	0	673710080	20	5045
2026-01-23 02:42:51.04	234.95	31.14	-29.7	-32.3	20.1	6.01e-01	0	44	0	679477248	20	4897
2026-01-23 02:42:54.04	234.36	30.53	-29.9	-32.5	19.6	6.03e-01	0	44	0	685244416	21	4858
2026-01-23 02:42:57.05	233.79	29.94	-29.6	-32.2	20.1	6.01e-01	0	44	0	691011584	20	4870
2026-01-23 02:43:00.06	233.24	29.35	-29.4	-31.8	20.2	6.01e-01	0	44	0	696254464	20	4751
2026-01-23 02:43:03.08	232.71	28.77	-29.5	-32.5	20.2	6.01e-01	0	44	0	702021632	19	5096
2026-01-23 02:43:06.09	232.21	28.20	-28.0	-30.8	20.1	6.03e-01	0	44	0	707788800	19	4972
2026-01-23 02:43:09.10	231.72	27.65	-29.6	-32.6	20.1	5.99e-01	0	44	0	713555968	19	5136
2026-01-23 02:43:12.11	231.24	27.10	-29.9	-33.0	19.5	6.03e-01	0	44	0	718798848	20	5178
2026-01-23 02:43:15.12	230.79	26.56	-29.6	-32.3	19.9	6.03e-01	0	44	0	724566016	20	4903
2026-01-23 02:43:18.12	230.35	26.03	-29.5	-32.0	20.1	6.01e-01	0	44	0	730333184	20	4813
2026-01-23 02:43:21.13	229.93	25.51	-29.5	-32.6	20.1	6.02e-01	0	44	0	736100352	19	5150
2026-01-23 02:43:24.14	229.51	25.00	-29.7	-32.7	19.7	6.02e-01	0	44	0	741343232	20	5075
2026-01-23 02:43:27.15	229.12	24.50	-29.8	-32.9	19.5	6.01e-01	0	44	0	747110400	20	5129
2026-01-23 02:43:30.15	228.74	24.01	-29.6	-32.7	20.0	6.00e-01	0	44	0	752877568	19	5174
2026-01-23 02:43:33.16	228.36	23.53	-29.9	-33.2	19.3	6.02e-01	0	44	0	758644736	20	5246
2026-01-23 02:43:36.17	228.00	23.05	-29.9	-33.0	19.3	6.05e-01	0	44	0	763887616	20	5201
2026-01-23 02:43:39.19	227.66	22.58	-29.6	-32.5	19.7	6.03e-01	0	44	0	769654784	20	4985
2026-01-23 02:43:42.20	227.32	22.12	-29.7	-32.5	19.7	6.02e-01	0	44	0	775421952	20	5014
2026-01-23 02:43:45.19	226.99	21.68	-29.9	-33.3	19.2	6.01e-01	0	44	0	781189120	20	5298
2026-01-23 02:43:48.20	226.68	21.23	-30.1	-33.2	18.9	6.03e-01	0	44	0	786432000	21	5160
2026-01-23 02:43:51.21	226.37	20.80	-30.2	-33.5	18.7	6.00e-01	0	44	0	792199168	21	5249
2026-01-23 02:43:54.23	226.07	20.37	-29.8	-33.1	19.2	6.02e-01	0	44	0	797966336	20	5212
2026-01-23 02:43:57.23	225.78	19.94	-29.8	-33.0	19.3	6.02e-01	0	44	0	803733504	20	5184
2026-01-23 02:44:00.24	225.50	19.53	-29.8	-32.8	19.3	6.00e-01	0	44	0	808976384	20	5106
2026-01-23 02:44:03.25	225.23	19.12	-29.8	-32.9	19.3	6.00e-01	0	44	0	814743552	20	5163
2026-01-23 02:44:06.26	224.97	18.72	-29.7	-32.6	19.4	5.99e-01	0	44	0	820510720	20	5048
2026-01-23 02:44:09.27	224.71	18.32	-29.7	-32.6	19.5	6.00e-01	0	44	0	826277888	20	5046
2026-01-23 02:44:12.28	224.46	17.94	-29.7	-32.7	19.4	6.02e-01	0	44	0	831520768	20	5077
2026-01-23 02:44:15.29	224.22	17.55	-29.7	-32.6	19.5	6.02e-01	0	44	0	837287936	20	5062
2026-01-23 02:44:18.30	223.98	17.18	-29.7	-32.7	19.4	6.02e-01	0	44	0	843055104	20	5084
2026-01-23 02:44:21.31	223.75	16.81	-29.7	-32.7	19.4	6.01e-01	0	44	0	848822272	20	5082
2026-01-23 02:44:24.30	223.53	16.44	-29.8	-33.0	19.3	6.00e-01	0	44	0	854589440	20	5189
2026-01-23 02:44:27.31	223.31	16.08	-29.7	-32.7	19.4	6.03e-01	0	44	0	859832320	20	5082
2026-01-23 02:44:30.32	223.09	15.73	-29.7	-32.6	19.4	6.03e-01	0	44	0	865599488	20	5065
2026-01-23 02:44:33.33	222.89	15.38	-29.8	-32.9	19.2	6.02e-01	0	44	0	871366656	20	5156
2026-01-23 02:44:36.34	222.68	15.04	-29.7	-32.7	19.3	6.03e-01	0	44	0	876609536	20	5087
2026-01-23 02:44:39.36	222.49	14.69	-29.6	-32.5	19.4	6.00e-01	0	44	0	882376704	20	5011
2026-01-23 02:44:42.37	222.29	14.36	-29.7	-32.8	19.2	6.01e-01	0	44	0	888143872	20	5136
2026-01-23 02:44:45.37	222.11	14.03	-29.7	-32.9	19.1	6.03e-01	0	44	0	893911040	20	5170
2026-01-23 02:44:48.37	221.93	13.71	-29.7	-32.8	19.1	6.03e-01	0	44	0	899678208	20	5151
2026-01-23 02:44:51.37	221.75	13.39	-29.9	-33.2	18.5	6.03e-01	0	44	0	904921088	20	5291
2026-01-23 02:44:54.38	221.57	13.07	-29.8	-33.0	18.5	6.01e-01	0	44	0	910688256	20	5227
2026-01-23 02:44:57.38	221.40	12.76	-29.9	-33.4	18.1	6.02e-01	0	44	0	916455424	20	5363
2026-01-23 02:45:00.39	221.24	12.45	-29.8	-33.1	18.9	5.99e-01	0	44	0	921698304	20	5247
2026-01-23 02:45:03.40	221.08	12.15	-29.9	-33.3	18.7	6.02e-01	0	44	0	927465472	20	5353
2026-01-23 02:45:06.40	220.92	11.85	-29.9	-33.3	18.7	6.01e-01	0	44	0	933232640	20	5333
2026-01-23 02:45:09.41	220.76	11.55	-29.8	-33.0	18.9	5.99e-01	0	44	0	938999808	20	5234
2026-01-23 02:45:12.42	220.61	11.26	-29.9	-33.3	18.7	6.04e-01	0	44	0	944766976	20	5360
2026-01-23 02:45:15.44	220.46	10.97	-29.8	-33.2	18.7	5.99e-01	0	44	0	950009856	20	5322
2026-01-23 02:45:18.45	220.32	10.69	-29.9	-33.3	18.6	6.02e-01	0	44	0	955777024	20	5374
2026-01-23 02:45:21.46	220.18	10.41	-29.9	-33.3	18.6	6.03e-01	0	44	0	961544192	20	5372
2026-01-23 02:45:24.46	220.04	10.13	-29.9	-33.6	18.4	6.03e-01	0	44	0	967311360	20	5460
2026-01-23 02:45:27.46	219.90	9.85	-30.0	-33.4	18.2	6.00e-01	0	44	0	972554240	21	5290
2026-01-23 02:45:30.47	219.77	9.58	-30.0	-33.7	18.3	6.04e-01	0	44	0	978321408	20	5515
2026-01-23 02:45:33.48	219.64	9.31	-30.2	-33.9	17.8	6.02e-01	0	44	0	984088576	21	5514
2026-01-23 02:45:36.49	219.51	9.05	-30.0	-33.3	18.2	6.00e-01	0	44	0	989855744	21	5256
2026-01-23 02:45:39.50	219.39	8.78	-30.1	-34.1	18.0	6.00e-01	0	44	0	995098624	20	5679
2026-01-23 02:45:42.50	219.27	8.53	-30.2	-33.8	17.8	6.01e-01	0	44	0	1000865792	21	5474
2026-01-23 02:45:45.51	219.15	8.27	-30.4	-34.4	17.4	6.01e-01	0	44	0	1006632960	21	5723
2026-01-23 02:45:48.51	219.03	8.02	-30.5	-34.9	17.0	6.01e-01	0	44	0	1012400128	21	5956
2026-01-23 02:45:51.51	218.92	7.77	-30.3	-34.4	17.3	5.99e-01	0	44	0	1017643008	21	5725
2026-01-23 02:45:54.52	218.80	7.52	-30.2	-34.1	17.4	6.01e-01	0	44	0	1023410176	21	5631
2026-01-23 02:45:57.52	218.69	7.27	-30.3	-34.3	17.3	5.99e-01	0	44	0	1029177344	21	5713
2026-01-23 02:46:00.53	218.59	7.03	-33.6	-52.8	3.8	7.46e-01	0	44	104	1032323072	28	32801
2026-01-23 02:46:03.55	218.48	6.79	-34.4	-53.8	3.8	7.46e-01	0	44	104	1032323072	29	33737

#Closed at: 2026-01-23 02:46:03
#Recorded file [1032 MB]: D:/data/31010_260123_053648.dat