passes_logs/2026/01/23/R2M6_AANII_01/R2M6_AANII_01__20260123_062705_FENGYUN_3E_rec.log

#Pass ID: 20260123_062705_FENGYUN 3E
#Satellite: FENGYUN 3E
#Configuration: FENGYUN 3E
#almurnet v.1.7.20240730
#Start time: 2026-01-23 06:27:05

#Version: 2.2.20231116
#Station: R2M6_AANII_01
#Location: 30.233357 lon 59.946436 lat
#TLE: 1 49008U 21062A   26022.47529509  .00000460  00000+0  23724-3 0  9995
#TLE: 2 49008  98.7486  27.5157 0002334 123.7692 236.3707 14.19888297235908

#Time	Az	El	Level	Level2	SNR	BER	BlckErr	Temp	State	Recorded	gain1	gain2
2026-01-23 06:27:05.25	10.59	7.00	-30.3	-33.1	5.1	7.83e-01	0	40	0	0	20	5004
2026-01-23 06:27:08.26	10.33	7.19	-30.4	-33.5	8.1	5.29e-02	0	41	102	1048576	20	5158
2026-01-23 06:27:11.27	10.06	7.39	-30.1	-32.7	8.7	2.91e-02	0	41	102	1048576	20	4820
2026-01-23 06:27:14.28	9.79	7.59	-29.6	-31.7	9.8	1.24e-02	0	41	102	1048576	19	4574
2026-01-23 06:27:17.29	9.52	7.79	-29.0	-31.0	10.9	2.31e-03	0	41	102	1048576	17	4547
2026-01-23 06:27:20.31	9.24	7.99	-27.4	-27.8	13.2	3.54e-05	0	41	102	1048576	16	3760
2026-01-23 06:27:23.32	8.96	8.19	-27.0	-28.3	13.6	8.00e-06	0	41	102	1048576	13	4205
2026-01-23 06:27:26.33	8.68	8.39	-27.0	-27.8	13.6	6.80e-06	0	41	102	1048576	14	3965
2026-01-23 06:27:29.34	8.39	8.59	-27.1	-28.0	13.5	5.70e-06	0	41	102	1048576	14	4019
2026-01-23 06:27:32.34	8.09	8.79	-27.3	-28.5	13.3	3.20e-05	0	41	102	1048576	14	4140
2026-01-23 06:27:35.35	7.80	9.00	-27.0	-27.8	13.7	6.80e-06	0	41	102	1048576	14	3961
2026-01-23 06:27:38.37	7.49	9.20	-26.7	-27.8	14.0	1.10e-06	0	41	102	1048576	13	4054
2026-01-23 06:27:41.39	7.19	9.41	-26.7	-27.7	14.1	2.20e-06	0	41	102	1048576	13	4031
2026-01-23 06:27:44.38	6.88	9.62	-26.6	-27.4	14.3	5.70e-06	0	41	102	1048576	13	3958
2026-01-23 06:27:47.40	6.56	9.82	-26.5	-27.2	14.4	0.00e+00	0	41	102	1048576	13	3903
2026-01-23 06:27:50.41	6.24	10.03	-26.6	-27.4	14.3	0.00e+00	0	41	102	1048576	13	3957
2026-01-23 06:27:53.42	5.91	10.24	-26.5	-27.2	14.4	0.00e+00	0	42	102	1048576	13	3909
2026-01-23 06:27:56.43	5.58	10.45	-26.6	-27.6	14.2	1.10e-06	0	42	102	1048576	13	4002
2026-01-23 06:27:59.45	5.25	10.66	-26.7	-27.6	14.2	1.10e-06	0	42	102	1048576	13	4000
2026-01-23 06:28:02.45	4.91	10.87	-26.6	-27.4	14.3	1.10e-06	0	42	102	1048576	13	3964
2026-01-23 06:28:05.46	4.56	11.09	-25.7	-27.0	14.0	1.10e-06	0	42	102	1048576	12	4198
2026-01-23 06:28:08.47	4.21	11.30	-26.5	-27.8	14.3	2.20e-06	0	42	102	1048576	12	4167
2026-01-23 06:28:11.49	3.85	11.52	-26.1	-26.9	14.9	0.00e+00	0	42	102	1048576	12	3929
2026-01-23 06:28:14.51	3.49	11.73	-26.1	-26.7	15.0	1.85e-03	0	42	102	1048576	12	3900
2026-01-23 06:28:17.52	3.13	11.95	-26.1	-26.9	15.0	0.00e+00	0	42	102	1048576	12	3925
2026-01-23 06:28:20.54	2.75	12.17	-26.2	-27.1	14.8	0.00e+00	0	42	102	1048576	12	3979
2026-01-23 06:28:23.55	2.37	12.38	-26.3	-27.2	14.8	1.77e-03	0	42	102	1048576	12	4017
2026-01-23 06:28:26.57	1.99	12.60	-26.2	-27.1	14.9	1.71e-03	0	42	102	1048576	12	3973
2026-01-23 06:28:29.59	1.60	12.82	-26.0	-26.7	15.1	1.56e-03	0	42	102	1048576	12	3871
2026-01-23 06:28:32.60	1.20	13.04	-26.0	-27.2	15.2	1.64e-03	0	42	102	1048576	11	4096
2026-01-23 06:28:35.62	0.80	13.26	-26.2	-27.0	15.0	0.00e+00	0	42	102	1048576	12	3953
2026-01-23 06:28:38.63	0.39	13.48	-26.0	-27.1	15.2	0.00e+00	0	42	102	1048576	11	4087
2026-01-23 06:28:41.65	359.97	13.70	-25.9	-26.8	15.5	0.00e+00	0	42	102	1048576	11	3995
2026-01-23 06:28:44.67	359.55	13.93	-25.8	-26.7	15.6	0.00e+00	0	42	102	1048576	11	3972
2026-01-23 06:28:47.69	359.12	14.15	-25.6	-26.2	15.8	0.00e+00	0	42	102	1048576	11	3865
2026-01-23 06:28:50.68	358.69	14.37	-25.4	-25.8	16.0	0.00e+00	0	42	102	1048576	11	3766
2026-01-23 06:28:53.69	358.25	14.59	-25.4	-26.2	16.1	0.00e+00	0	42	102	1048576	10	3972
2026-01-23 06:28:56.70	357.80	14.81	-25.6	-26.1	15.9	0.00e+00	0	42	102	1048576	11	3835
2026-01-23 06:28:59.71	357.35	15.04	-25.6	-26.1	15.9	0.00e+00	0	42	102	1048576	11	3841
2026-01-23 06:29:02.73	356.89	15.26	-25.6	-26.1	15.9	0.00e+00	0	42	102	1048576	11	3837
2026-01-23 06:29:05.75	356.42	15.49	-25.6	-26.2	15.9	0.00e+00	0	42	102	1048576	11	3859
2026-01-23 06:29:08.76	355.94	15.71	-25.7	-26.4	15.8	0.00e+00	0	42	102	1048576	11	3896
2026-01-23 06:29:11.77	355.46	15.93	-25.7	-26.3	15.8	0.00e+00	0	43	102	1048576	11	3893
2026-01-23 06:29:14.79	354.96	16.16	-25.4	-25.8	16.1	0.00e+00	0	42	102	1048576	11	3757
2026-01-23 06:29:17.81	354.46	16.38	-25.4	-26.3	16.1	0.00e+00	0	42	102	1048576	10	3980
2026-01-23 06:29:20.81	353.96	16.60	-25.1	-25.6	16.5	0.00e+00	0	42	102	1048576	10	3808
2026-01-23 06:29:23.83	353.44	16.83	-24.9	-25.1	16.8	0.00e+00	0	43	102	1048576	10	3703
2026-01-23 06:29:26.83	352.93	17.05	-24.8	-25.5	16.8	0.00e+00	0	42	102	1048576	9	3897
2026-01-23 06:29:29.86	352.39	17.27	-24.8	-25.4	16.9	0.00e+00	0	42	102	1048576	9	3872
2026-01-23 06:29:32.88	351.85	17.50	-24.9	-25.7	16.7	0.00e+00	0	43	102	1048576	9	3935
2026-01-23 06:29:35.90	351.31	17.72	-25.1	-25.6	16.6	3.52e-04	0	43	102	1048576	10	3802
2026-01-23 06:29:38.92	350.75	17.94	-24.9	-25.2	16.7	8.25e-04	0	43	102	1048576	10	3733
2026-01-23 06:29:41.93	350.19	18.16	-24.9	-25.7	16.8	1.03e-03	0	43	102	1048576	9	3948
2026-01-23 06:29:44.95	349.62	18.38	-24.7	-25.2	17.1	6.86e-04	0	43	102	1048576	9	3821
2026-01-23 06:29:47.96	349.04	18.59	-24.5	-24.8	17.3	8.44e-04	0	43	102	1048576	9	3721
2026-01-23 06:29:50.97	348.45	18.81	-24.6	-24.9	17.2	6.06e-04	0	43	102	1048576	9	3761
2026-01-23 06:29:53.98	347.86	19.03	-24.8	-25.4	17.0	3.17e-04	0	43	102	1048576	9	3864
2026-01-23 06:29:57.01	347.25	19.24	-25.0	-26.0	16.6	0.00e+00	0	43	102	1048576	9	4009
2026-01-23 06:30:00.02	346.63	19.45	-25.4	-25.8	16.2	0.00e+00	0	43	102	1048576	11	3748
2026-01-23 06:30:03.03	346.01	19.66	-25.0	-25.4	16.7	0.00e+00	0	43	102	1048576	10	3769
2026-01-23 06:30:06.05	345.38	19.87	-24.9	-25.8	16.8	0.00e+00	0	43	102	1048576	9	3958
2026-01-23 06:30:09.05	344.74	20.08	-24.6	-25.0	17.2	0.00e+00	0	43	102	1048576	9	3784
2026-01-23 06:30:12.06	344.10	20.28	-24.9	-25.6	16.8	0.00e+00	0	43	102	1048576	9	3921
2026-01-23 06:30:15.07	343.44	20.48	-24.5	-24.9	17.2	0.00e+00	0	43	102	1048576	9	3758
2026-01-23 06:30:18.08	342.77	20.68	-24.6	-25.1	17.1	0.00e+00	0	43	102	1048576	9	3797
2026-01-23 06:30:21.09	342.10	20.88	-24.6	-25.0	17.2	0.00e+00	0	43	102	1048576	9	3771
2026-01-23 06:30:24.11	341.42	21.07	-24.4	-24.6	17.4	0.00e+00	0	43	102	1048576	9	3692
2026-01-23 06:30:27.13	340.72	21.27	-24.1	-24.5	17.7	0.00e+00	0	43	102	1048576	8	3768
2026-01-23 06:30:30.15	340.02	21.46	-23.9	-24.1	17.9	0.00e+00	0	43	102	1048576	8	3673
2026-01-23 06:30:33.16	339.31	21.64	-23.7	-24.1	18.2	0.00e+00	0	43	102	1048576	7	3767
2026-01-23 06:30:36.17	338.59	21.82	-23.9	-24.5	18.0	0.00e+00	0	43	102	1048576	7	3858
2026-01-23 06:30:39.18	337.87	22.00	-24.0	-24.7	17.8	0.00e+00	0	43	102	1048576	7	3924
2026-01-23 06:30:42.21	337.13	22.18	-24.3	-24.9	17.5	0.00e+00	0	43	102	1048576	8	3858
2026-01-23 06:30:45.20	336.39	22.34	-24.1	-24.5	17.7	0.00e+00	0	43	102	1048576	8	3766
2026-01-23 06:30:48.22	335.64	22.51	-24.2	-24.6	17.7	0.00e+00	0	43	102	1048576	8	3800
2026-01-23 06:30:51.23	334.88	22.67	-23.9	-24.2	18.0	0.00e+00	0	43	102	1048576	8	3687
2026-01-23 06:30:54.25	334.11	22.83	-23.9	-24.5	18.0	0.00e+00	0	43	102	1048576	7	3868
2026-01-23 06:30:57.27	333.33	22.98	-24.1	-24.4	17.8	0.00e+00	0	43	102	1048576	8	3744
2026-01-23 06:31:00.27	332.55	23.13	-24.0	-24.2	17.9	0.00e+00	0	43	102	1048576	8	3692
2026-01-23 06:31:03.29	331.76	23.28	-23.6	-23.9	18.3	0.00e+00	0	43	102	1048576	7	3739
2026-01-23 06:31:06.30	330.96	23.41	-23.6	-23.8	18.3	0.00e+00	0	43	102	1048576	7	3720
2026-01-23 06:31:09.31	330.16	23.55	-23.6	-24.0	18.2	0.00e+00	0	43	102	1048576	7	3756
2026-01-23 06:31:12.31	329.35	23.67	-23.8	-24.3	18.1	0.00e+00	0	43	102	1048576	7	3833
2026-01-23 06:31:15.32	328.53	23.79	-23.8	-24.4	18.0	0.00e+00	0	43	102	1048576	7	3835
2026-01-23 06:31:18.35	327.70	23.91	-24.0	-24.7	17.9	1.28e-04	0	43	102	1048576	7	3917
2026-01-23 06:31:21.36	326.87	24.02	-23.9	-24.6	18.0	1.96e-04	0	43	102	1048576	7	3885
2026-01-23 06:31:24.38	326.03	24.12	-24.2	-24.7	17.7	1.03e-04	0	43	102	1048576	8	3814
2026-01-23 06:31:27.39	325.19	24.22	-24.1	-24.4	17.8	0.00e+00	0	43	102	1048576	8	3747
2026-01-23 06:31:30.41	324.34	24.31	-24.1	-24.5	17.7	0.00e+00	0	43	102	1048576	8	3774
2026-01-23 06:31:33.43	323.49	24.40	-24.2	-24.6	17.7	0.00e+00	0	43	102	1048576	8	3799
2026-01-23 06:31:36.44	322.63	24.47	-23.9	-24.5	18.0	3.65e-04	0	43	102	1048576	7	3871
2026-01-23 06:31:39.43	321.78	24.55	-23.9	-24.5	18.0	0.00e+00	0	43	102	1048576	7	3864
2026-01-23 06:31:42.45	320.91	24.61	-23.7	-24.1	18.2	0.00e+00	0	43	102	1048576	7	3785
2026-01-23 06:31:45.46	320.05	24.67	-23.9	-24.6	17.9	0.00e+00	0	43	102	1048576	7	3899
2026-01-23 06:31:48.48	319.17	24.72	-23.8	-24.3	18.0	0.00e+00	0	43	102	1048576	7	3832
2026-01-23 06:31:51.50	318.30	24.76	-23.6	-23.8	18.3	0.00e+00	0	43	102	1048576	7	3718
2026-01-23 06:31:54.51	317.42	24.80	-23.4	-24.0	18.5	0.00e+00	0	43	102	1048576	6	3861
2026-01-23 06:31:57.52	316.55	24.82	-23.5	-24.2	18.4	0.00e+00	0	43	102	1048576	6	3896
2026-01-23 06:32:00.52	315.67	24.84	-23.6	-23.9	18.3	0.00e+00	0	43	102	1048576	7	3738
2026-01-23 06:32:03.53	314.79	24.86	-23.9	-24.5	18.0	0.00e+00	0	43	102	1048576	7	3867
2026-01-23 06:32:06.55	313.91	24.86	-23.7	-24.2	18.1	0.00e+00	0	43	102	1048576	7	3801
2026-01-23 06:32:09.57	313.03	24.86	-23.8	-24.4	18.0	0.00e+00	0	43	102	1048576	7	3849
2026-01-23 06:32:12.59	312.15	24.86	-23.7	-24.1	18.2	0.00e+00	0	43	102	1048576	7	3785
2026-01-23 06:32:15.60	311.27	24.84	-23.7	-24.2	18.2	0.00e+00	0	43	102	1048576	7	3801
2026-01-23 06:32:18.61	310.39	24.82	-23.6	-24.0	18.3	0.00e+00	0	43	102	1048576	7	3750
2026-01-23 06:32:21.62	309.51	24.79	-24.0	-24.7	17.9	0.00e+00	0	43	102	1048576	7	3911
2026-01-23 06:32:24.63	308.64	24.75	-23.9	-24.6	17.9	0.00e+00	0	43	102	1048576	7	3884
2026-01-23 06:32:27.63	307.77	24.70	-24.1	-24.6	17.7	0.00e+00	0	43	102	1048576	8	3786
2026-01-23 06:32:30.65	306.89	24.65	-24.0	-24.3	17.8	0.00e+00	0	43	102	1048576	8	3721
2026-01-23 06:32:33.67	306.02	24.59	-23.5	-24.3	18.3	1.44e-03	0	43	102	1048576	6	3923
2026-01-23 06:32:36.69	305.16	24.53	-23.5	-23.8	18.3	0.00e+00	0	43	102	1048576	7	3710
2026-01-23 06:32:39.70	304.30	24.45	-23.6	-23.9	18.2	0.00e+00	0	43	102	1048576	7	3738
2026-01-23 06:32:42.72	303.44	24.37	-23.4	-24.1	18.4	1.86e-03	0	43	102	1048576	6	3887
2026-01-23 06:32:45.74	302.59	24.29	-23.4	-24.1	18.4	1.87e-03	0	43	102	1048576	6	3875
2026-01-23 06:32:48.75	301.74	24.20	-23.5	-24.3	18.3	1.62e-03	0	43	102	1048576	6	3927
2026-01-23 06:32:51.75	300.90	24.10	-23.5	-23.8	18.3	1.68e-03	0	43	102	1048576	7	3711
2026-01-23 06:32:54.77	300.06	23.99	-23.4	-24.0	18.4	0.00e+00	0	43	102	1048576	6	3860
2026-01-23 06:32:57.79	299.23	23.88	-23.4	-24.0	18.4	3.20e-05	0	43	102	1048576	6	3868
2026-01-23 06:33:00.81	298.40	23.76	-23.5	-24.3	18.2	1.15e-03	0	43	102	1048576	6	3946
2026-01-23 06:33:03.81	297.59	23.64	-23.4	-24.1	18.3	0.00e+00	0	43	102	1048576	6	3892
2026-01-23 06:33:06.82	296.78	23.51	-24.0	-24.7	17.8	0.00e+00	0	43	102	1048576	7	3916
2026-01-23 06:33:09.83	295.97	23.38	-23.9	-24.6	17.8	0.00e+00	0	43	102	1048576	7	3888
2026-01-23 06:33:12.85	295.17	23.24	-23.8	-24.4	17.9	0.00e+00	0	43	102	1048576	7	3858
2026-01-23 06:33:15.87	294.38	23.09	-23.5	-23.7	18.3	0.00e+00	0	43	102	1048576	7	3687
2026-01-23 06:33:18.88	293.60	22.94	-23.7	-24.1	18.1	0.00e+00	0	43	102	1048576	7	3775
2026-01-23 06:33:21.90	292.82	22.78	-23.4	-23.6	18.3	0.00e+00	0	43	102	1048576	7	3666
2026-01-23 06:33:24.92	292.05	22.63	-23.5	-23.7	18.2	0.00e+00	0	43	102	1048576	7	3694
2026-01-23 06:33:27.93	291.29	22.46	-23.7	-24.1	18.0	0.00e+00	0	43	102	1048576	7	3772
2026-01-23 06:33:30.94	290.54	22.29	-23.7	-24.2	18.0	0.00e+00	0	43	102	1048576	7	3794
2026-01-23 06:33:33.95	289.80	22.12	-23.5	-23.7	18.2	0.00e+00	0	43	102	1048576	7	3688
2026-01-23 06:33:36.96	289.07	21.95	-23.4	-23.6	18.2	0.00e+00	0	43	102	1048576	7	3658
2026-01-23 06:33:39.98	288.34	21.77	-23.5	-24.1	18.2	0.00e+00	0	43	102	1048576	6	3896
2026-01-23 06:33:43.01	287.62	21.58	-23.6	-23.9	18.0	0.00e+00	0	43	102	1048576	7	3746
2026-01-23 06:33:46.03	286.90	21.39	-23.7	-24.2	17.9	0.00e+00	0	43	102	1048576	7	3816
2026-01-23 06:33:49.05	286.20	21.20	-23.8	-24.3	17.8	0.00e+00	0	43	102	1048576	7	3827
2026-01-23 06:33:52.05	285.51	21.01	-23.6	-23.9	18.0	0.00e+00	0	43	102	1048576	7	3727
2026-01-23 06:33:55.06	284.83	20.82	-23.7	-24.1	13.7	0.00e+00	0	43	102	1048576	7	3787
2026-01-23 06:33:58.08	284.15	20.62	-23.6	-24.0	18.0	1.17e-03	0	43	102	1048576	7	3761
2026-01-23 06:34:01.08	283.49	20.42	-23.7	-24.3	17.8	0.00e+00	0	43	102	1048576	7	3818
2026-01-23 06:34:04.09	282.83	20.21	-23.9	-24.5	17.7	0.00e+00	0	43	102	1048576	7	3883
2026-01-23 06:34:07.10	282.19	20.01	-24.0	-24.8	17.6	0.00e+00	0	43	102	1048576	7	3937
2026-01-23 06:34:10.11	281.55	19.80	-23.9	-24.5	17.7	2.44e-04	0	43	102	1048576	7	3878
2026-01-23 06:34:13.12	280.92	19.59	-23.9	-24.6	17.6	3.76e-04	0	43	102	1048576	7	3898
2026-01-23 06:34:16.15	280.29	19.38	-24.2	-24.6	17.4	0.00e+00	0	43	102	1048576	8	3805
2026-01-23 06:34:19.17	279.67	19.16	-24.1	-24.5	17.4	0.00e+00	0	43	102	1048576	8	3784
2026-01-23 06:34:22.19	279.07	18.95	-24.2	-24.7	17.3	0.00e+00	0	43	102	1048576	8	3819
2026-01-23 06:34:25.20	278.47	18.73	-24.2	-24.7	17.3	1.30e-03	0	43	102	1048576	8	3804
2026-01-23 06:34:28.21	277.88	18.52	-24.2	-24.7	17.3	1.54e-03	0	43	102	1048576	8	3814
2026-01-23 06:34:31.22	277.31	18.30	-24.2	-24.8	17.2	0.00e+00	0	43	102	1048576	8	3832
2026-01-23 06:34:34.24	276.73	18.08	-24.4	-25.2	17.0	0.00e+00	0	43	102	1048576	8	3930
2026-01-23 06:34:37.24	276.17	17.86	-24.5	-25.4	16.9	0.00e+00	0	43	102	1048576	8	3979
2026-01-23 06:34:40.26	275.62	17.63	-24.3	-25.0	17.1	0.00e+00	0	43	102	1048576	8	3887
2026-01-23 06:34:43.26	275.07	17.41	-24.5	-25.3	16.9	0.00e+00	0	43	102	1048576	8	3955
2026-01-23 06:34:46.26	274.54	17.19	-25.0	-25.9	16.4	0.00e+00	0	43	102	1048576	9	3988
2026-01-23 06:34:49.28	274.01	16.97	-24.9	-25.2	16.4	0.00e+00	0	43	102	1048576	10	3733
2026-01-23 06:34:52.29	273.48	16.74	-25.0	-25.8	16.3	0.00e+00	0	43	102	1048576	9	3982
2026-01-23 06:34:55.31	272.97	16.52	-25.3	-26.0	16.0	0.00e+00	0	43	102	1048576	10	3924
2026-01-23 06:34:58.32	272.46	16.30	-25.4	-26.4	15.8	0.00e+00	0	43	102	1048576	10	4012
2026-01-23 06:35:01.34	271.96	16.07	-25.0	-25.4	16.3	0.00e+00	0	43	102	1048576	10	3788
2026-01-23 06:35:04.35	271.47	15.85	-24.9	-25.7	16.4	0.00e+00	0	43	102	1048576	9	3956
2026-01-23 06:35:07.37	270.98	15.62	-25.1	-26.1	16.2	0.00e+00	0	43	102	1048576	9	4046
2026-01-23 06:35:10.39	270.51	15.40	-25.3	-26.0	15.9	0.00e+00	0	43	102	1048576	10	3925
2026-01-23 06:35:13.40	270.04	15.17	-25.3	-26.0	15.9	0.00e+00	0	43	102	1048576	10	3930
2026-01-23 06:35:16.41	269.57	14.95	-25.6	-26.7	15.5	0.00e+00	0	43	102	1048576	10	4089
2026-01-23 06:35:19.43	269.12	14.72	-25.6	-26.6	15.6	0.00e+00	0	43	102	1048576	10	4082
2026-01-23 06:35:22.44	268.67	14.50	-26.0	-27.0	15.1	0.00e+00	0	43	102	1048576	11	4074
2026-01-23 06:35:25.46	268.23	14.27	-25.7	-26.6	15.3	0.00e+00	0	43	102	1048576	11	3954
2026-01-23 06:35:28.47	267.79	14.05	-25.6	-26.3	15.4	0.00e+00	0	43	102	1048576	11	3894
2026-01-23 06:35:31.49	267.36	13.83	-25.6	-26.6	15.5	0.00e+00	0	43	102	1048576	10	4081
2026-01-23 06:35:34.51	266.94	13.60	-25.5	-26.4	15.6	1.46e-04	0	43	102	1048576	10	4028
2026-01-23 06:35:37.51	266.52	13.38	-25.6	-26.7	15.4	2.39e-04	0	43	102	1048576	10	4089
2026-01-23 06:35:40.53	266.11	13.16	-25.9	-27.0	15.0	1.72e-04	0	43	102	1048576	11	4060
2026-01-23 06:35:43.54	265.71	12.94	-25.9	-26.9	15.0	0.00e+00	0	43	102	1048576	11	4040
2026-01-23 06:35:46.55	265.31	12.72	-26.0	-26.7	14.8	0.00e+00	0	43	102	1048576	12	3900
2026-01-23 06:35:49.54	264.92	12.50	-26.1	-26.9	14.6	9.10e-06	0	43	102	1048576	12	3954
2026-01-23 06:35:52.56	264.54	12.28	-26.0	-27.2	14.8	1.88e-04	0	43	102	1048576	11	4121
2026-01-23 06:35:55.56	264.16	12.07	-25.7	-26.5	15.1	2.44e-04	0	43	102	1048576	11	3956
2026-01-23 06:35:58.58	263.79	11.85	-25.7	-26.4	15.2	9.76e-04	0	43	102	1048576	11	3932
2026-01-23 06:36:01.59	263.42	11.63	-26.0	-27.1	14.8	2.20e-06	0	43	102	1048576	11	4114
2026-01-23 06:36:04.60	263.05	11.42	-26.2	-27.2	14.4	5.70e-06	0	43	102	1048576	12	4037
2026-01-23 06:36:07.61	262.70	11.20	-26.3	-27.3	14.3	1.10e-06	0	43	102	1048576	12	4061
2026-01-23 06:36:10.62	262.35	10.99	-26.1	-27.0	14.5	0.00e+00	0	43	102	1048576	12	3973
2026-01-23 06:36:13.63	262.00	10.77	-26.0	-26.6	14.7	0.00e+00	0	43	102	1048576	12	3875
2026-01-23 06:36:16.64	261.66	10.56	-26.1	-27.3	14.6	0.00e+00	0	43	102	1048576	11	4152
2026-01-23 06:36:19.65	261.32	10.35	-26.0	-26.7	14.6	0.00e+00	0	43	102	1048576	12	3898
2026-01-23 06:36:22.66	260.99	10.14	-26.0	-27.2	14.6	0.00e+00	0	43	102	1048576	11	4124
2026-01-23 06:36:25.67	260.66	9.93	-26.0	-26.7	14.5	0.00e+00	0	43	102	1048576	12	3905
2026-01-23 06:36:28.67	260.34	9.72	-26.1	-26.9	14.4	0.00e+00	0	43	102	1048576	12	3949
2026-01-23 06:36:31.68	260.02	9.51	-26.2	-27.2	14.2	2.20e-06	0	43	102	1048576	12	4042
2026-01-23 06:36:34.69	259.71	9.30	-26.3	-27.4	14.1	1.10e-06	0	43	102	1048576	12	4074
2026-01-23 06:36:37.70	259.40	9.10	-26.3	-27.5	14.0	1.10e-06	0	43	102	1048576	12	4111
2026-01-23 06:36:40.71	259.10	8.89	-26.6	-28.0	13.7	0.00e+00	0	43	102	1048576	12	4249
2026-01-23 06:36:43.72	258.80	8.69	-26.8	-28.2	13.3	1.25e-05	0	43	102	1048576	13	4186
2026-01-23 06:36:46.73	258.50	8.48	-26.5	-27.5	13.7	1.14e-05	0	43	102	1048576	13	3997
2026-01-23 06:36:49.74	258.21	8.28	-26.6	-27.7	13.5	5.70e-06	0	43	102	1048576	13	4051
2026-01-23 06:36:52.75	257.93	8.08	-26.5	-27.8	13.7	1.10e-06	0	43	102	1048576	12	4196
2026-01-23 06:36:55.76	257.64	7.88	-26.3	-27.4	14.0	2.20e-06	0	43	102	1048576	12	4081
2026-01-23 06:36:58.77	257.36	7.68	-26.4	-27.6	13.9	3.40e-06	0	43	102	1048576	12	4130
2026-01-23 06:37:01.78	257.09	7.48	-26.4	-27.7	13.8	2.20e-06	0	43	102	1048576	12	4160
2026-01-23 06:37:04.80	256.82	7.28	-25.8	-26.9	13.2	1.25e-05	0	43	102	1048576	13	4062
2026-01-23 06:37:07.81	256.55	7.09	-26.9	-28.2	13.1	2.92e-03	0	43	102	1048576	13	4212

#Closed at: 2026-01-23 06:37:09
#Recorded file [1 MB]: D:/data/31010_260123_092707.dat