passes_logs/2026/01/23/R2M6_AANII_01/R2M6_AANII_01__20260123_094817_NOAA_21_JPSS-2_rec.log

#Pass ID: 20260123_094817_NOAA 21 (JPSS-2)
#Satellite: NOAA 21 (JPSS-2)
#Configuration: NOAA 21
#almurnet v.1.7.20240730
#Start time: 2026-01-23 09:48:16

#Version: 2.2.20231116
#Station: R2M6_AANII_01
#Location: 30.233357 lon 59.946436 lat
#TLE: 1 54234U 22150A   26022.41365820  .00000211  00000+0  12084-3 0  9990
#TLE: 2 54234  98.7507 323.2240 0000658 234.5287 125.5828 14.19537645165864

#Time	Az	El	Level	Level2	SNR	BER	BlckErr	Temp	State	Recorded	gain1	gain2
2026-01-23 09:48:16.77	144.25	6.95	-30.4	-35.0	4.6	1.41e+00	0	43	0	0	22	6138
2026-01-23 09:48:19.79	144.18	7.19	-30.5	-34.7	8.0	7.52e-02	0	43	102	1048576	22	5795
2026-01-23 09:48:22.80	144.11	7.42	-30.4	-34.0	8.5	4.82e-02	0	43	102	1048576	22	5460
2026-01-23 09:48:25.82	144.04	7.66	-30.0	-33.2	9.5	1.36e-02	0	43	102	1048576	21	5178
2026-01-23 09:48:28.84	143.96	7.89	-29.6	-32.4	10.5	4.57e-03	0	43	102	1048576	20	4980
2026-01-23 09:48:31.84	143.89	8.13	-29.8	-32.8	10.2	7.27e-03	0	43	102	1048576	20	5126
2026-01-23 09:48:34.86	143.81	8.38	-29.3	-32.2	11.1	1.19e-03	0	43	102	1048576	19	4984
2026-01-23 09:48:37.88	143.73	8.62	-29.2	-31.8	11.4	1.24e-03	0	43	102	1048576	19	4860
2026-01-23 09:48:40.88	143.65	8.87	-29.3	-32.0	11.2	1.13e-03	0	43	102	1048576	19	4939
2026-01-23 09:48:43.89	143.57	9.12	-28.7	-30.9	12.3	1.97e-04	0	43	102	1048576	18	4681
2026-01-23 09:48:46.90	143.48	9.37	-28.3	-30.1	12.9	5.79e-05	0	43	102	1048576	18	4401
2026-01-23 09:48:49.91	143.40	9.62	-28.4	-30.2	12.8	5.11e-05	0	43	102	1048576	18	4447
2026-01-23 09:48:52.93	143.31	9.88	-28.3	-30.1	13.0	5.26e-05	0	43	102	1048576	18	4391
2026-01-23 09:48:55.94	143.22	10.14	-28.3	-30.3	13.2	2.82e-05	0	43	102	1048576	17	4550
2026-01-23 09:48:58.94	143.14	10.40	-28.2	-30.0	13.4	1.22e-05	0	43	102	1048576	17	4444
2026-01-23 09:49:01.97	143.04	10.67	-28.1	-29.9	13.5	1.06e-05	0	43	102	1048576	17	4406
2026-01-23 09:49:04.98	142.95	10.93	-28.0	-29.7	13.7	9.90e-06	0	43	102	1048576	17	4338
2026-01-23 09:49:07.99	142.85	11.20	-28.0	-29.6	13.8	6.80e-06	0	43	102	1048576	17	4315
2026-01-23 09:49:11.01	142.76	11.48	-28.0	-29.5	13.8	2.20e-06	0	43	102	1048576	17	4299
2026-01-23 09:49:14.02	142.66	11.76	-28.0	-29.6	13.8	7.60e-06	0	43	102	1048576	17	4312
2026-01-23 09:49:17.04	142.56	12.04	-27.8	-29.0	14.2	1.50e-06	0	43	102	1048576	17	4118
2026-01-23 09:49:20.06	142.45	12.32	-27.8	-29.6	14.2	2.20e-06	0	43	102	1048576	16	4400
2026-01-23 09:49:23.07	142.35	12.60	-27.9	-29.9	14.0	4.50e-06	0	43	102	1048576	16	4503
2026-01-23 09:49:26.09	142.24	12.89	-27.6	-29.2	14.3	2.20e-06	0	43	102	1048576	16	4329
2026-01-23 09:49:29.10	142.13	13.19	-27.6	-29.2	14.4	2.20e-06	0	43	102	1048576	16	4327
2026-01-23 09:49:32.12	142.01	13.48	-27.6	-29.0	14.5	7.00e-07	0	43	102	1048576	16	4257
2026-01-23 09:49:35.14	141.90	13.78	-27.7	-29.2	14.5	0.00e+00	0	43	102	1048576	16	4277
2026-01-23 09:49:38.16	141.78	14.09	-27.8	-29.5	14.3	1.50e-06	0	43	102	1048576	16	4360
2026-01-23 09:49:41.18	141.66	14.40	-27.6	-29.1	14.5	0.00e+00	0	43	102	1048576	16	4274
2026-01-23 09:49:44.19	141.54	14.71	-27.7	-29.3	14.5	7.00e-07	0	43	102	1048576	16	4319
2026-01-23 09:49:47.20	141.41	15.02	-27.8	-29.5	14.4	7.00e-07	0	43	102	1048576	16	4382
2026-01-23 09:49:50.21	141.28	15.34	-27.7	-29.3	14.5	7.00e-07	0	43	102	1048576	16	4307
2026-01-23 09:49:53.23	141.15	15.66	-27.7	-29.3	14.6	0.00e+00	0	43	102	1048576	16	4303
2026-01-23 09:49:56.23	141.02	15.99	-27.8	-29.4	14.6	7.00e-07	0	43	102	1048576	16	4336
2026-01-23 09:49:59.24	140.88	16.32	-27.8	-29.4	14.6	0.00e+00	0	43	102	1048576	16	4344
2026-01-23 09:50:02.25	140.74	16.65	-27.7	-29.4	14.6	1.50e-06	0	43	102	1048576	16	4349
2026-01-23 09:50:05.27	140.59	16.99	-27.9	-29.7	14.5	0.00e+00	0	43	102	1048576	16	4436
2026-01-23 09:50:08.28	140.45	17.34	-27.9	-29.6	14.6	0.00e+00	0	43	102	1048576	16	4372
2026-01-23 09:50:11.29	140.29	17.69	-27.9	-29.7	14.6	0.00e+00	0	43	102	1048576	16	4406
2026-01-23 09:50:14.30	140.14	18.04	-28.0	-29.7	14.6	7.00e-07	0	43	102	1048576	16	4425
2026-01-23 09:50:17.31	139.98	18.40	-27.8	-29.4	14.8	0.00e+00	0	43	102	1048576	16	4338
2026-01-23 09:50:20.33	139.82	18.76	-27.8	-29.4	14.9	0.00e+00	0	43	102	1048576	16	4332
2026-01-23 09:50:23.35	139.65	19.13	-27.7	-29.1	15.1	0.00e+00	0	43	102	1048576	16	4240
2026-01-23 09:50:26.35	139.48	19.51	-27.7	-29.0	15.2	0.00e+00	0	43	102	1048576	16	4193
2026-01-23 09:50:29.35	139.30	19.89	-27.6	-29.0	15.2	0.00e+00	0	43	102	1048576	16	4194
2026-01-23 09:50:32.36	139.12	20.27	-27.6	-28.9	15.3	0.00e+00	0	43	102	1048576	16	4168
2026-01-23 09:50:35.38	138.93	20.66	-27.5	-28.7	15.4	0.00e+00	0	44	102	1048576	16	4110
2026-01-23 09:50:38.39	138.74	21.06	-27.4	-28.3	15.6	0.00e+00	0	43	102	1048576	16	4008
2026-01-23 09:50:41.39	138.55	21.46	-27.1	-28.2	15.8	0.00e+00	0	43	102	1048576	15	4101
2026-01-23 09:50:44.40	138.35	21.87	-26.9	-27.7	16.1	0.00e+00	0	43	102	1048576	15	3960
2026-01-23 09:50:47.42	138.14	22.29	-26.9	-27.8	16.0	0.00e+00	0	43	102	1048576	15	3987
2026-01-23 09:50:50.43	137.93	22.71	-26.9	-27.7	16.1	0.00e+00	0	43	102	1048576	15	3981
2026-01-23 09:50:53.45	137.71	23.14	-26.7	-27.9	16.3	0.00e+00	0	43	102	1048576	14	4109
2026-01-23 09:50:56.45	137.48	23.57	-26.4	-27.2	16.7	1.50e-06	0	43	102	1048576	14	3922
2026-01-23 09:50:59.47	137.25	24.01	-26.6	-27.6	16.5	4.50e-06	0	43	102	1048576	14	4030
2026-01-23 09:51:02.48	137.01	24.46	-26.5	-27.4	16.6	0.00e+00	0	43	102	1048576	14	3992
2026-01-23 09:51:05.50	136.76	24.92	-26.6	-27.7	16.5	0.00e+00	0	43	102	1048576	14	4067
2026-01-23 09:51:08.52	136.51	25.38	-26.9	-28.1	16.3	0.00e+00	0	43	102	1048576	14	4177
2026-01-23 09:51:11.54	136.25	25.85	-26.9	-28.3	16.2	0.00e+00	0	43	102	1048576	14	4223
2026-01-23 09:51:14.55	135.98	26.33	-27.2	-28.8	15.9	0.00e+00	0	43	102	1048576	14	4368
2026-01-23 09:51:17.56	135.70	26.82	-27.3	-29.1	15.8	0.00e+00	0	43	102	1048576	14	4436
2026-01-23 09:51:20.57	135.41	27.31	-27.4	-29.4	15.6	0.00e+00	0	43	102	1048576	14	4527
2026-01-23 09:51:23.58	135.12	27.82	-27.6	-29.2	15.5	0.00e+00	0	43	102	1048576	15	4369
2026-01-23 09:51:26.60	134.81	28.33	-27.6	-29.2	15.5	0.00e+00	0	43	102	1048576	15	4362
2026-01-23 09:51:29.61	134.49	28.85	-27.6	-29.3	15.5	0.00e+00	0	43	102	1048576	15	4387
2026-01-23 09:51:32.61	134.17	29.37	-27.5	-29.2	15.6	0.00e+00	0	44	102	1048576	15	4355
2026-01-23 09:51:35.61	133.83	29.91	-27.5	-29.1	15.6	0.00e+00	0	43	102	1048576	15	4323
2026-01-23 09:51:38.61	133.48	30.45	-27.1	-28.1	16.2	0.00e+00	0	43	102	1048576	15	4057
2026-01-23 09:51:41.63	133.12	31.01	-27.2	-28.3	16.0	0.00e+00	0	43	102	1048576	15	4123
2026-01-23 09:51:44.64	132.74	31.58	-27.4	-28.9	15.8	0.00e+00	0	44	102	1048576	15	4268
2026-01-23 09:51:47.65	132.35	32.15	-27.6	-29.3	15.6	0.00e+00	0	44	102	1048576	15	4382
2026-01-23 09:51:50.66	131.95	32.73	-27.8	-29.8	15.3	0.00e+00	0	44	102	1048576	15	4514
2026-01-23 09:51:53.68	131.53	33.33	-27.6	-29.3	15.6	0.00e+00	0	43	102	1048576	15	4354
2026-01-23 09:51:56.69	131.09	33.93	-27.9	-29.9	15.3	0.00e+00	0	43	102	1048576	15	4530
2026-01-23 09:51:59.70	130.64	34.55	-28.4	-30.5	14.9	0.00e+00	0	44	102	1048576	16	4593
2026-01-23 09:52:02.72	130.17	35.17	-29.0	-30.9	14.1	7.00e-07	0	43	102	1048576	18	4467
2026-01-23 09:52:05.74	129.68	35.81	-29.2	-31.4	13.8	7.00e-07	0	44	102	1048576	18	4627
2026-01-23 09:52:08.75	129.17	36.45	-29.3	-31.6	13.7	1.06e-05	0	44	102	1048576	18	4702
2026-01-23 09:52:11.77	128.64	37.11	-29.0	-31.0	14.1	2.20e-06	0	44	102	1048576	18	4497
2026-01-23 09:52:14.79	128.09	37.78	-29.2	-31.3	13.9	4.50e-06	0	44	102	1048576	18	4588
2026-01-23 09:52:17.79	127.52	38.45	-29.3	-31.5	13.8	5.30e-06	0	43	102	1048576	18	4667
2026-01-23 09:52:20.81	126.91	39.14	-29.3	-31.6	13.7	1.22e-05	0	43	102	1048576	18	4708
2026-01-23 09:52:23.82	126.29	39.83	-29.4	-31.9	13.6	8.30e-06	0	43	102	1048576	18	4778
2026-01-23 09:52:26.83	125.63	40.53	-29.2	-30.8	13.9	3.80e-06	0	44	102	1048576	19	4349
2026-01-23 09:52:29.84	124.95	41.25	-28.8	-29.9	14.4	7.00e-07	0	44	102	1048576	19	4083
2026-01-23 09:52:32.86	124.23	41.98	-29.1	-31.0	14.1	7.00e-07	0	43	102	1048576	18	4502
2026-01-23 09:52:35.87	123.48	42.71	-29.5	-31.6	13.5	1.06e-05	0	44	102	1048576	19	4593
2026-01-23 09:52:38.86	122.71	43.44	-30.0	-32.4	12.6	7.85e-05	0	43	102	1048576	20	4739
2026-01-23 09:52:41.88	121.88	44.20	-29.8	-31.9	12.9	5.49e-05	0	43	102	1048576	20	4578
2026-01-23 09:52:44.89	121.02	44.95	-29.8	-31.8	13.0	2.82e-05	0	43	102	1048576	20	4538
2026-01-23 09:52:47.91	120.11	45.72	-29.9	-32.0	12.9	5.41e-05	0	44	102	1048576	20	4620
2026-01-23 09:52:50.91	119.17	46.49	-29.6	-31.4	13.3	2.05e-05	0	44	102	1048576	20	4401
2026-01-23 09:52:53.92	118.17	47.26	-29.4	-30.8	13.6	1.29e-05	0	43	102	1048576	20	4255
2026-01-23 09:52:56.93	117.12	48.04	-29.6	-31.3	13.4	1.14e-05	0	43	102	1048576	20	4387
2026-01-23 09:52:59.95	116.01	48.83	-30.0	-32.2	12.8	3.96e-05	0	43	102	1048576	20	4669
2026-01-23 09:53:02.97	114.85	49.61	-29.7	-31.5	13.2	2.21e-05	0	43	102	1048576	20	4423
2026-01-23 09:53:05.98	113.63	50.40	-29.5	-31.1	13.5	8.30e-06	0	43	102	1048576	20	4324
2026-01-23 09:53:08.99	112.34	51.18	-29.5	-31.2	13.4	1.60e-05	0	44	102	1048576	20	4355
2026-01-23 09:53:12.00	110.98	51.96	-29.2	-30.9	14.0	3.80e-06	0	43	102	1048576	19	4363
2026-01-23 09:53:15.01	109.55	52.73	-28.8	-29.9	14.6	0.00e+00	0	44	102	1048576	19	4085
2026-01-23 09:53:18.02	108.04	53.50	-28.1	-29.2	15.6	0.00e+00	0	44	102	1048576	17	4087
2026-01-23 09:53:21.04	106.44	54.26	-28.5	-30.1	15.1	0.00e+00	0	44	102	1048576	17	4350
2026-01-23 09:53:24.04	104.77	55.00	-28.2	-29.6	15.4	0.00e+00	0	44	102	1048576	17	4207
2026-01-23 09:53:27.04	103.01	55.73	-28.5	-30.1	15.1	0.00e+00	0	43	102	1048576	17	4353
2026-01-23 09:53:30.05	101.15	56.44	-28.2	-29.4	15.4	9.90e-06	0	44	102	1048576	17	4153
2026-01-23 09:53:33.05	99.21	57.12	-27.7	-28.9	16.0	0.00e+00	0	43	102	1048576	16	4135
2026-01-23 09:53:36.07	97.14	57.79	-27.8	-29.1	15.9	0.00e+00	0	43	102	1048576	16	4187
2026-01-23 09:53:39.08	94.99	58.42	-27.7	-28.9	16.0	0.00e+00	0	44	102	1048576	16	4122
2026-01-23 09:53:42.09	92.73	59.02	-27.6	-28.6	16.2	0.00e+00	0	43	102	1048576	16	4051
2026-01-23 09:53:45.10	90.37	59.58	-27.8	-29.1	16.0	0.00e+00	0	43	102	1048576	16	4172
2026-01-23 09:53:48.11	87.91	60.10	-27.8	-29.0	16.0	0.00e+00	0	43	102	1048576	16	4158
2026-01-23 09:53:51.12	85.35	60.57	-27.6	-28.6	16.3	0.00e+00	0	43	102	1048576	16	4039
2026-01-23 09:53:54.15	82.68	61.00	-27.2	-28.3	16.5	0.00e+00	0	43	102	1048576	15	4086
2026-01-23 09:53:57.16	79.95	61.37	-27.5	-29.0	16.1	0.00e+00	0	44	102	1048576	15	4269
2026-01-23 09:54:00.17	77.13	61.69	-27.6	-29.2	16.0	0.00e+00	0	43	102	1048576	15	4303
2026-01-23 09:54:03.19	74.25	61.94	-28.3	-30.3	15.3	0.00e+00	0	43	102	1048576	16	4509
2026-01-23 09:54:06.19	71.33	62.13	-26.6	-27.4	17.2	0.00e+00	0	43	102	1048576	14	3959
2026-01-23 09:54:09.21	68.35	62.26	-27.4	-28.7	16.3	0.00e+00	0	44	102	1048576	15	4185
2026-01-23 09:54:12.21	65.36	62.32	-27.2	-28.3	16.5	0.00e+00	0	44	102	1048576	15	4092
2026-01-23 09:54:15.21	62.38	62.31	-27.3	-28.4	16.5	0.00e+00	0	43	102	1048576	15	4106
2026-01-23 09:54:18.21	59.40	62.24	-26.6	-27.5	17.2	0.00e+00	0	43	102	1048576	14	3986
2026-01-23 09:54:21.22	56.43	62.10	-27.2	-28.7	16.5	0.00e+00	0	44	102	1048576	14	4287
2026-01-23 09:54:24.24	53.50	61.90	-27.2	-28.2	16.6	0.00e+00	0	44	102	1048576	15	4062
2026-01-23 09:54:27.25	50.64	61.64	-27.1	-28.0	16.7	0.00e+00	0	44	102	1048576	15	3988
2026-01-23 09:54:30.27	47.83	61.31	-26.6	-27.5	17.2	0.00e+00	0	44	102	1048576	14	3972
2026-01-23 09:54:33.27	45.12	60.93	-27.4	-29.2	16.3	0.00e+00	0	43	102	1048576	14	4445
2026-01-23 09:54:36.28	42.49	60.50	-26.9	-27.7	16.8	0.00e+00	0	44	102	1048576	15	3921
2026-01-23 09:54:39.29	39.95	60.02	-27.4	-28.8	16.3	0.00e+00	0	43	102	1048576	15	4209
2026-01-23 09:54:42.29	37.52	59.49	-27.2	-28.3	16.5	0.00e+00	0	43	102	1048576	15	4065
2026-01-23 09:54:45.29	35.19	58.93	-28.3	-30.2	15.5	0.00e+00	0	43	102	1048576	16	4463
2026-01-23 09:54:48.30	32.95	58.32	-27.4	-28.1	16.5	0.00e+00	0	43	102	1048576	16	3916
2026-01-23 09:54:51.30	30.82	57.69	-27.5	-28.9	16.2	0.00e+00	0	44	102	1048576	15	4240
2026-01-23 09:54:54.31	28.78	57.02	-28.2	-29.5	15.4	0.00e+00	0	44	102	1048576	17	4166
2026-01-23 09:54:57.32	26.85	56.33	-28.0	-29.0	15.8	0.00e+00	0	44	102	1048576	17	4030
2026-01-23 09:55:00.34	25.00	55.62	-29.5	-31.6	13.7	5.30e-06	0	44	102	1048576	19	4565
2026-01-23 09:55:03.35	23.25	54.89	-27.8	-28.6	15.9	0.00e+00	0	44	102	1048576	17	3944
2026-01-23 09:55:06.36	21.60	54.15	-28.1	-29.8	15.5	7.00e-07	0	43	102	1048576	16	4375
2026-01-23 09:55:09.37	20.02	53.39	-28.6	-30.5	14.9	7.00e-07	0	44	102	1048576	17	4446
2026-01-23 09:55:12.38	18.53	52.63	-28.5	-30.2	15.0	0.00e+00	0	43	102	1048576	17	4364
2026-01-23 09:55:15.40	17.11	51.85	-29.9	-32.4	13.2	1.67e-05	0	43	102	1048576	19	4811
2026-01-23 09:55:18.42	15.76	51.07	-28.6	-29.9	14.9	0.00e+00	0	44	102	1048576	18	4178
2026-01-23 09:55:21.43	14.49	50.29	-28.6	-29.8	15.0	1.50e-06	0	44	102	1048576	18	4153
2026-01-23 09:55:24.45	13.27	49.51	-30.6	-33.4	11.8	3.11e-04	0	43	102	1048576	21	4971
2026-01-23 09:55:27.47	12.12	48.72	-29.2	-30.8	13.9	3.00e-06	0	44	102	1048576	19	4315
2026-01-23 09:55:30.48	11.03	47.94	-29.6	-31.8	13.5	1.44e-05	0	44	102	1048576	19	4609
2026-01-23 09:55:33.50	9.99	47.16	-31.3	-34.8	10.6	2.06e-03	0	44	102	1048576	22	5367
2026-01-23 09:55:36.52	9.00	46.39	-31.1	-33.7	10.9	3.10e-03	0	44	102	1048576	23	4848
2026-01-23 09:55:39.53	8.06	45.62	-29.3	-30.5	13.9	3.80e-06	0	43	102	1048576	20	4131
2026-01-23 09:55:42.54	7.16	44.86	-30.5	-33.5	12.1	1.72e-04	0	44	102	1048576	20	5086
2026-01-23 09:55:45.55	6.31	44.11	-30.9	-33.7	11.3	2.02e-03	0	44	102	1048576	22	4919
2026-01-23 09:55:48.56	5.50	43.37	-30.6	-32.8	11.8	4.14e-04	0	44	102	1048576	22	4643
2026-01-23 09:55:51.58	4.72	42.63	-29.4	-30.8	13.6	2.21e-05	0	43	102	1048576	20	4234
2026-01-23 09:55:54.59	3.98	41.90	-29.4	-31.2	13.7	3.00e-06	0	43	102	1048576	19	4452
2026-01-23 09:55:57.60	3.27	41.18	-30.0	-32.4	12.7	7.32e-05	0	44	102	1048576	20	4721
2026-01-23 09:56:00.60	2.60	40.47	-29.3	-31.1	13.7	7.60e-06	0	44	102	1048576	19	4421
2026-01-23 09:56:03.61	1.95	39.77	-28.6	-29.8	14.9	0.00e+00	0	44	102	1048576	18	4158
2026-01-23 09:56:06.63	1.33	39.08	-28.9	-30.7	14.4	2.20e-06	0	43	102	1048576	18	4395
2026-01-23 09:56:09.65	0.74	38.40	-29.3	-31.6	13.8	2.20e-06	0	43	102	1048576	18	4685
2026-01-23 09:56:12.67	0.17	37.72	-29.7	-32.1	13.2	2.51e-05	0	44	102	1048576	19	4747
2026-01-23 09:56:15.68	359.62	37.06	-29.2	-31.0	13.8	4.50e-06	0	43	102	1048576	19	4394
2026-01-23 09:56:18.68	359.10	36.42	-28.9	-30.6	14.3	3.00e-06	0	44	102	1048576	18	4379
2026-01-23 09:56:21.70	358.59	35.77	-29.3	-31.6	13.8	2.20e-06	0	44	102	1048576	18	4681
2026-01-23 09:56:24.72	358.11	35.14	-29.4	-31.3	13.7	6.80e-06	0	44	102	1048576	19	4494
2026-01-23 09:56:27.73	357.64	34.52	-29.4	-31.3	13.6	8.30e-06	0	43	102	1048576	19	4499
2026-01-23 09:56:30.74	357.20	33.91	-29.0	-30.5	14.0	7.00e-07	0	44	102	1048576	19	4256
2026-01-23 09:56:33.75	356.77	33.31	-28.8	-29.9	14.4	2.20e-06	0	43	102	1048576	19	4093
2026-01-23 09:56:36.76	356.35	32.72	-28.2	-29.4	15.2	0.00e+00	0	44	102	1048576	17	4159
2026-01-23 09:56:39.77	355.95	32.14	-28.1	-29.3	15.3	0.00e+00	0	44	102	1048576	17	4133
2026-01-23 09:56:42.77	355.57	31.58	-28.4	-30.0	14.9	0.00e+00	0	43	102	1048576	17	4324
2026-01-23 09:56:45.78	355.20	31.01	-28.5	-30.2	14.7	0.00e+00	0	43	102	1048576	17	4393
2026-01-23 09:56:48.79	354.84	30.46	-28.3	-29.7	15.0	0.00e+00	0	43	102	1048576	17	4243
2026-01-23 09:56:51.81	354.49	29.92	-27.8	-29.0	15.7	0.00e+00	0	44	102	1048576	16	4158
2026-01-23 09:56:54.83	354.15	29.38	-27.4	-28.3	16.1	0.00e+00	0	44	102	1048576	16	3963
2026-01-23 09:56:57.85	353.83	28.86	-27.2	-28.4	16.1	0.00e+00	0	44	102	1048576	15	4117
2026-01-23 09:57:00.84	353.52	28.34	-27.6	-29.2	15.6	0.00e+00	0	44	102	1048576	15	4344
2026-01-23 09:57:03.85	353.22	27.84	-27.7	-29.4	15.6	0.00e+00	0	44	102	1048576	15	4386
2026-01-23 09:57:06.86	352.92	27.34	-27.9	-29.8	15.3	7.00e-07	0	44	102	1048576	15	4517
2026-01-23 09:57:09.86	352.64	26.85	-28.0	-29.6	15.3	7.00e-07	0	43	102	1048576	16	4322
2026-01-23 09:57:12.89	352.36	26.36	-27.8	-29.1	15.5	0.00e+00	0	43	102	1048576	16	4206
2026-01-23 09:57:15.90	352.10	25.88	-27.5	-28.4	15.8	0.00e+00	0	44	102	1048576	16	4003
2026-01-23 09:57:18.91	351.84	25.42	-27.1	-28.1	16.2	0.00e+00	0	43	102	1048576	15	4029
2026-01-23 09:57:21.92	351.59	24.96	-27.1	-28.1	16.1	0.00e+00	0	44	102	1048576	15	4035
2026-01-23 09:57:24.93	351.35	24.50	-27.1	-28.0	15.9	0.00e+00	0	44	102	1048576	15	4018
2026-01-23 09:57:27.94	351.11	24.06	-27.3	-28.5	15.7	0.00e+00	0	43	102	1048576	15	4132
2026-01-23 09:57:30.95	350.88	23.62	-27.4	-28.7	15.5	0.00e+00	0	43	102	1048576	15	4206
2026-01-23 09:57:33.97	350.66	23.19	-27.4	-28.7	15.3	0.00e+00	0	43	102	1048576	15	4209
2026-01-23 09:57:36.99	350.44	22.76	-27.2	-28.4	15.6	0.00e+00	0	43	102	1048576	15	4119
2026-01-23 09:57:40.00	350.23	22.34	-27.3	-28.6	15.7	0.00e+00	0	43	102	1048576	15	4188
2026-01-23 09:57:43.02	350.03	21.93	-27.4	-28.7	15.8	0.00e+00	0	44	102	1048576	15	4203
2026-01-23 09:57:46.04	349.83	21.52	-27.3	-28.5	15.9	0.00e+00	0	43	102	1048576	15	4155
2026-01-23 09:57:49.05	349.63	21.12	-27.4	-28.7	15.7	0.00e+00	0	43	102	1048576	15	4211
2026-01-23 09:57:52.06	349.45	20.72	-27.3	-28.7	15.7	0.00e+00	0	43	102	1048576	15	4205
2026-01-23 09:57:55.07	349.26	20.34	-27.4	-28.9	15.6	0.00e+00	0	44	102	1048576	15	4255
2026-01-23 09:57:58.09	349.08	19.95	-27.5	-29.1	15.5	0.00e+00	0	44	102	1048576	15	4307
2026-01-23 09:58:01.11	348.91	19.57	-27.6	-29.4	15.3	0.00e+00	0	44	102	1048576	15	4391
2026-01-23 09:58:04.13	348.74	19.20	-27.5	-29.2	15.4	0.00e+00	0	43	102	1048576	15	4339
2026-01-23 09:58:07.15	348.58	18.83	-27.7	-29.5	15.3	0.00e+00	0	44	102	1048576	15	4436
2026-01-23 09:58:10.16	348.42	18.47	-27.8	-29.7	15.1	0.00e+00	0	43	102	1048576	15	4487
2026-01-23 09:58:13.17	348.26	18.11	-27.9	-29.9	14.9	0.00e+00	0	43	102	1048576	15	4552
2026-01-23 09:58:16.20	348.11	17.76	-27.8	-29.8	15.0	0.00e+00	0	43	102	1048576	15	4517
2026-01-23 09:58:19.21	347.96	17.41	-27.9	-30.0	14.9	0.00e+00	0	43	102	1048576	15	4569
2026-01-23 09:58:22.21	347.81	17.07	-27.8	-29.9	14.9	0.00e+00	0	44	102	1048576	15	4552
2026-01-23 09:58:25.23	347.67	16.73	-28.0	-30.1	14.8	0.00e+00	0	43	102	1048576	15	4633
2026-01-23 09:58:28.25	347.53	16.40	-28.3	-30.3	14.6	1.50e-06	0	43	102	1048576	16	4553
2026-01-23 09:58:31.26	347.40	16.07	-28.3	-30.4	14.5	7.00e-07	0	44	102	1048576	16	4574
2026-01-23 09:58:34.26	347.27	15.75	-28.3	-30.5	14.4	1.50e-06	0	43	102	1048576	16	4606
2026-01-23 09:58:37.27	347.14	15.42	-28.2	-30.3	14.5	7.00e-07	0	44	102	1048576	16	4554
2026-01-23 09:58:40.28	347.01	15.11	-28.4	-30.6	14.3	7.00e-07	0	44	102	1048576	16	4659
2026-01-23 09:58:43.29	346.89	14.80	-28.5	-30.3	14.2	0.00e+00	0	43	102	1048576	17	4442
2026-01-23 09:58:46.29	346.77	14.49	-28.4	-30.2	14.3	0.00e+00	0	43	102	1048576	17	4416
2026-01-23 09:58:49.28	346.65	14.18	-28.3	-30.0	14.3	7.00e-07	0	43	102	1048576	17	4357
2026-01-23 09:58:52.30	346.54	13.88	-28.3	-30.0	14.3	0.00e+00	0	44	102	1048576	17	4349
2026-01-23 09:58:55.30	346.42	13.58	-28.5	-30.4	14.0	6.10e-06	0	43	102	1048576	17	4494
2026-01-23 09:58:58.31	346.31	13.29	-28.4	-30.3	14.1	7.00e-07	0	43	102	1048576	17	4439
2026-01-23 09:59:01.33	346.21	13.00	-28.4	-30.2	14.1	2.20e-06	0	44	102	1048576	17	4410
2026-01-23 09:59:04.35	346.10	12.71	-28.4	-30.2	14.1	1.50e-06	0	43	102	1048576	17	4435
2026-01-23 09:59:07.37	346.00	12.42	-28.5	-30.4	13.9	2.20e-06	0	43	102	1048576	17	4498
2026-01-23 09:59:10.37	345.90	12.14	-28.5	-30.5	13.9	5.30e-06	0	44	102	1048576	17	4527
2026-01-23 09:59:13.39	345.80	11.86	-28.6	-30.7	13.7	3.00e-06	0	44	102	1048576	17	4569
2026-01-23 09:59:16.40	345.70	11.59	-28.6	-30.8	13.6	4.50e-06	0	44	102	1048576	17	4616
2026-01-23 09:59:19.42	345.61	11.32	-28.7	-31.0	13.5	1.06e-05	0	44	102	1048576	17	4677
2026-01-23 09:59:22.43	345.51	11.05	-28.7	-31.0	13.5	1.90e-05	0	44	102	1048576	17	4675
2026-01-23 09:59:25.45	345.42	10.78	-28.8	-31.2	13.4	1.83e-05	0	43	102	1048576	17	4734
2026-01-23 09:59:28.46	345.33	10.52	-28.7	-30.9	13.5	7.60e-06	0	43	102	1048576	17	4645
2026-01-23 09:59:31.47	345.25	10.25	-28.7	-31.0	13.4	1.37e-05	0	44	102	1048576	17	4679
2026-01-23 09:59:34.48	345.16	10.00	-28.7	-31.1	13.3	1.22e-05	0	44	102	1048576	17	4722
2026-01-23 09:59:37.50	345.08	9.74	-29.5	-32.5	12.2	1.75e-04	0	43	102	1048576	18	5073
2026-01-23 09:59:40.50	345.00	9.49	-29.3	-32.1	12.4	1.87e-04	0	43	102	1048576	18	4930
2026-01-23 09:59:43.50	344.92	9.24	-29.5	-32.1	12.0	2.57e-04	0	43	102	1048576	19	4836
2026-01-23 09:59:46.51	344.84	8.99	-29.1	-31.1	12.6	1.11e-04	0	43	102	1048576	19	4506
2026-01-23 09:59:49.52	344.76	8.74	-28.9	-31.1	12.9	1.60e-05	0	43	102	1048576	18	4615
2026-01-23 09:59:52.52	344.69	8.50	-28.9	-31.0	12.9	5.64e-05	0	43	102	1048576	18	4600
2026-01-23 09:59:55.54	344.61	8.26	-29.0	-31.4	12.7	6.17e-05	0	43	102	1048576	18	4717
2026-01-23 09:59:58.56	344.54	8.02	-29.1	-31.6	12.5	2.17e-04	0	44	102	1048576	18	4800
2026-01-23 10:00:01.58	344.47	7.78	-29.0	-31.3	12.7	7.70e-05	0	44	102	1048576	18	4704
2026-01-23 10:00:04.59	344.40	7.55	-29.0	-31.3	12.7	6.86e-05	0	43	102	1048576	18	4702
2026-01-23 10:00:07.61	344.33	7.31	-29.1	-31.6	12.4	1.39e-04	0	44	102	1048576	18	4788
2026-01-23 10:00:10.62	344.26	7.08	-33.2	-43.7	3.8	1.16e+00	0	43	104	1048576	26	12163

#Closed at: 2026-01-23 10:00:12
#Recorded file [1 MB]: D:/data/31010_260123_124818.dat