passes_logs/2026/01/23/R2M6_AANII_01/R2M6_AANII_01__20260123_012254_FENGYUN_3D_rec.log

#Pass ID: 20260123_012254_FENGYUN 3D
#Satellite: FENGYUN 3D
#Configuration: FENGYUN 3D
#almurnet v.1.7.20240730
#Start time: 2026-01-23 01:22:55

#Version: 2.2.20231116
#Station: R2M6_AANII_01
#Location: 30.233357 lon 59.946436 lat
#TLE: 1 43010U 17072A   26022.47411728  .00000617  00000+0  31375-3 0  9996
#TLE: 2 43010  98.9952 354.4060 0002481  95.7964 264.3494 14.19699924424319

#Time	Az	El	Level	Level2	SNR	BER	BlckErr	Temp	State	Recorded	gain1	gain2
2026-01-23 01:22:55.78	25.47	7.09	-30.0	-33.1	5.4	7.84e-01	0	42	0	0	20	5145
2026-01-23 01:22:58.78	25.67	7.30	-30.7	-34.1	8.4	6.92e-02	0	42	0	5242880	22	5342
2026-01-23 01:23:01.80	25.86	7.52	-29.5	-31.6	10.9	5.22e-03	0	42	0	22020096	20	4617
2026-01-23 01:23:04.81	26.06	7.73	-28.4	-29.9	12.8	1.03e-04	0	42	0	38797312	18	4274
2026-01-23 01:23:07.83	26.26	7.95	-27.7	-29.2	13.8	2.05e-05	0	42	0	55574528	16	4266
2026-01-23 01:23:10.84	26.47	8.17	-27.7	-29.3	13.8	4.50e-06	0	42	0	73400320	16	4300
2026-01-23 01:23:13.85	26.67	8.40	-27.0	-28.2	14.5	2.20e-06	0	42	0	90177536	15	4110
2026-01-23 01:23:16.86	26.88	8.62	-27.1	-28.8	14.5	0.00e+00	0	42	0	106954752	14	4383
2026-01-23 01:23:19.86	27.10	8.84	-26.9	-28.4	14.7	0.00e+00	0	42	0	123731968	14	4276
2026-01-23 01:23:22.88	27.31	9.07	-26.8	-28.1	14.9	0.00e+00	0	42	0	140509184	14	4202
2026-01-23 01:23:25.89	27.53	9.30	-26.8	-28.1	14.9	0.00e+00	0	43	0	158334976	14	4182
2026-01-23 01:23:28.90	27.76	9.53	-26.7	-27.8	15.1	1.10e-06	0	43	0	175112192	14	4116
2026-01-23 01:23:31.92	27.98	9.77	-26.6	-27.7	15.2	0.00e+00	0	43	0	191889408	14	4090
2026-01-23 01:23:34.93	28.21	10.00	-26.7	-28.0	15.1	0.00e+00	0	43	0	208666624	14	4161
2026-01-23 01:23:37.94	28.44	10.24	-26.6	-28.2	15.2	0.00e+00	0	43	0	225443840	13	4345
2026-01-23 01:23:40.94	28.68	10.47	-26.5	-28.0	15.3	0.00e+00	0	43	0	242221056	13	4282
2026-01-23 01:23:43.96	28.92	10.72	-26.4	-27.8	15.4	0.00e+00	0	43	0	258998272	13	4211
2026-01-23 01:23:46.96	29.16	10.96	-26.4	-27.7	15.5	0.00e+00	0	43	0	275775488	13	4200
2026-01-23 01:23:49.96	29.41	11.20	-26.3	-27.6	15.6	0.00e+00	0	43	0	293601280	13	4169
2026-01-23 01:23:52.98	29.66	11.45	-26.1	-27.1	15.9	0.00e+00	0	43	0	310378496	13	4024
2026-01-23 01:23:56.00	29.92	11.70	-26.1	-27.1	15.9	0.00e+00	0	43	0	327155712	13	4036
2026-01-23 01:23:59.02	30.18	11.95	-26.2	-27.2	15.8	0.00e+00	0	43	0	343932928	13	4058
2026-01-23 01:24:02.01	30.44	12.20	-26.1	-27.1	15.9	0.00e+00	0	43	0	360710144	13	4022
2026-01-23 01:24:05.02	30.71	12.45	-26.0	-27.3	16.1	0.00e+00	0	43	0	377487360	12	4198
2026-01-23 01:24:08.03	30.98	12.71	-26.3	-27.9	15.8	0.00e+00	0	43	0	394264576	12	4363
2026-01-23 01:24:11.03	31.26	12.97	-25.9	-27.0	16.3	0.00e+00	0	43	0	411041792	12	4120
2026-01-23 01:24:14.05	31.54	13.23	-26.0	-27.2	16.2	0.00e+00	0	43	0	428867584	12	4161
2026-01-23 01:24:17.07	31.83	13.49	-25.8	-26.8	16.4	0.00e+00	0	43	0	445644800	12	4071
2026-01-23 01:24:20.08	32.12	13.76	-25.7	-26.7	16.5	0.00e+00	0	44	0	462422016	12	4021
2026-01-23 01:24:23.08	32.42	14.03	-25.7	-26.6	16.6	0.00e+00	0	43	0	479199232	12	3993
2026-01-23 01:24:26.10	32.72	14.30	-25.7	-26.7	16.5	0.00e+00	0	43	0	495976448	12	4030
2026-01-23 01:24:29.11	33.03	14.57	-25.8	-26.8	16.5	0.00e+00	0	44	0	513802240	12	4067
2026-01-23 01:24:32.12	33.34	14.84	-25.8	-26.8	16.5	0.00e+00	0	44	0	530579456	12	4070
2026-01-23 01:24:35.13	33.66	15.12	-25.6	-26.4	16.7	1.96e-04	0	44	0	547356672	12	3971
2026-01-23 01:24:38.14	33.98	15.40	-25.6	-26.4	16.7	0.00e+00	0	44	0	564133888	12	3969
2026-01-23 01:24:41.13	34.31	15.68	-25.5	-26.3	16.8	0.00e+00	0	44	0	580911104	12	3935
2026-01-23 01:24:44.15	34.65	15.96	-25.7	-26.6	16.6	6.98e-05	0	44	0	597688320	12	4017
2026-01-23 01:24:47.16	34.99	16.25	-25.4	-26.0	17.0	1.59e-04	0	44	0	614465536	12	3864
2026-01-23 01:24:50.17	35.34	16.54	-25.3	-26.3	17.2	1.06e-04	0	44	0	631242752	11	4037
2026-01-23 01:24:53.17	35.70	16.83	-25.5	-26.6	17.0	0.00e+00	0	44	0	649068544	11	4119
2026-01-23 01:24:56.19	36.06	17.13	-25.3	-26.3	17.2	6.63e-05	0	44	0	665845760	11	4045
2026-01-23 01:24:59.19	36.43	17.42	-25.3	-26.3	17.2	1.83e-05	0	44	0	682622976	11	4028
2026-01-23 01:25:02.21	36.80	17.72	-25.4	-26.4	17.2	0.00e+00	0	44	0	699400192	11	4065
2026-01-23 01:25:05.22	37.19	18.02	-25.0	-25.7	17.5	3.40e-06	0	44	0	716177408	11	3897
2026-01-23 01:25:08.22	37.58	18.33	-25.1	-25.8	17.5	3.40e-06	0	44	0	732954624	11	3916
2026-01-23 01:25:11.23	37.97	18.63	-24.8	-25.3	17.7	0.00e+00	0	44	0	749731840	11	3789
2026-01-23 01:25:14.24	38.38	18.94	-25.0	-25.6	17.6	0.00e+00	0	44	0	767557632	11	3869
2026-01-23 01:25:17.25	38.79	19.26	-24.8	-25.3	17.8	4.11e-05	0	44	0	784334848	11	3791
2026-01-23 01:25:20.26	39.22	19.57	-24.6	-25.3	18.1	0.00e+00	0	44	0	801112064	10	3899
2026-01-23 01:25:23.27	39.65	19.89	-24.5	-25.1	18.2	0.00e+00	0	44	0	817889280	10	3844
2026-01-23 01:25:26.29	40.09	20.21	-24.5	-25.1	18.2	0.00e+00	0	44	0	834666496	10	3858
2026-01-23 01:25:29.28	40.54	20.53	-24.6	-25.3	18.1	0.00e+00	0	44	0	851443712	10	3902
2026-01-23 01:25:32.29	40.99	20.85	-24.7	-25.6	18.0	0.00e+00	0	44	0	869269504	10	3961
2026-01-23 01:25:35.31	41.46	21.18	-24.6	-25.2	18.1	0.00e+00	0	44	0	886046720	10	3883
2026-01-23 01:25:38.32	41.94	21.51	-24.4	-24.8	18.4	0.00e+00	0	44	0	902823936	10	3784
2026-01-23 01:25:41.33	42.43	21.84	-24.1	-24.8	18.6	0.00e+00	0	44	0	919601152	9	3889
2026-01-23 01:25:44.34	42.92	22.18	-24.2	-24.8	18.6	0.00e+00	0	44	0	936378368	9	3888
2026-01-23 01:25:47.34	43.43	22.51	-24.2	-24.9	18.6	0.00e+00	0	44	0	953155584	9	3898
2026-01-23 01:25:50.33	43.95	22.85	-24.1	-24.7	18.7	0.00e+00	0	44	0	969932800	9	3867
2026-01-23 01:25:53.34	44.48	23.19	-23.9	-24.2	19.0	0.00e+00	0	44	0	987758592	9	3747
2026-01-23 01:25:56.34	45.02	23.53	-23.9	-24.3	19.0	0.00e+00	0	44	0	1004535808	9	3767
2026-01-23 01:25:59.35	45.57	23.87	-24.0	-25.0	18.9	0.00e+00	0	44	0	1021313024	8	4029
2026-01-23 01:26:02.35	46.13	24.22	-24.0	-25.0	18.8	0.00e+00	0	44	0	1038090240	8	4047
2026-01-23 01:26:05.35	46.71	24.56	-23.8	-24.6	19.1	0.00e+00	0	44	0	1054867456	8	3934
2026-01-23 01:26:08.37	47.30	24.92	-23.7	-24.3	19.2	0.00e+00	0	44	0	1071644672	8	3880
2026-01-23 01:26:11.38	47.90	25.27	-23.5	-24.0	19.4	0.00e+00	0	44	0	1088421888	8	3796
2026-01-23 01:26:14.40	48.52	25.62	-23.6	-24.2	19.1	0.00e+00	0	44	0	1105199104	8	3853
2026-01-23 01:26:17.40	49.15	25.97	-23.6	-24.1	19.4	0.00e+00	0	44	0	1123024896	8	3814
2026-01-23 01:26:20.41	49.79	26.33	-23.5	-24.3	19.5	0.00e+00	0	44	0	1139802112	7	3990
2026-01-23 01:26:23.42	50.45	26.68	-23.5	-24.5	19.3	0.00e+00	0	44	0	1156579328	7	4033
2026-01-23 01:26:26.44	51.13	27.04	-23.5	-24.5	19.4	2.10e-04	0	44	0	1173356544	7	4028
2026-01-23 01:26:29.45	51.81	27.40	-23.5	-24.5	19.4	0.00e+00	0	44	0	1190133760	7	4025
2026-01-23 01:26:32.45	52.52	27.75	-23.6	-24.6	19.3	2.97e-05	0	44	0	1206910976	7	4058
2026-01-23 01:26:35.46	53.23	28.11	-23.3	-24.0	19.7	0.00e+00	0	44	0	1223688192	7	3916
2026-01-23 01:26:38.47	53.97	28.47	-23.2	-23.7	19.8	0.00e+00	0	44	0	1240465408	7	3838
2026-01-23 01:26:41.49	54.72	28.83	-23.2	-23.8	19.8	0.00e+00	0	44	0	1258291200	7	3862
2026-01-23 01:26:44.50	55.49	29.18	-22.7	-23.3	20.2	0.00e+00	0	44	0	1275068416	6	3847
2026-01-23 01:26:47.51	56.27	29.54	-23.2	-24.3	19.8	0.00e+00	0	44	0	1291845632	6	4096
2026-01-23 01:26:50.52	57.07	29.89	-22.9	-23.8	20.0	0.00e+00	0	44	0	1308622848	6	3969
2026-01-23 01:26:53.53	57.89	30.24	-22.9	-23.8	20.0	4.00e-05	0	44	0	1325400064	6	3966
2026-01-23 01:26:56.54	58.73	30.59	-23.0	-23.9	20.0	1.62e-04	0	44	0	1343225856	6	3988
2026-01-23 01:26:59.56	59.59	30.94	-23.2	-24.3	19.8	0.00e+00	0	44	0	1360003072	6	4084
2026-01-23 01:27:02.57	60.46	31.28	-23.4	-24.7	19.6	0.00e+00	0	44	0	1376780288	6	4185
2026-01-23 01:27:05.58	61.35	31.63	-23.7	-24.8	19.3	2.84e-04	0	44	0	1393557504	7	4109
2026-01-23 01:27:08.58	62.26	31.96	-23.0	-23.3	20.0	2.37e-04	0	44	0	1410334720	7	3752
2026-01-23 01:27:11.58	63.18	32.29	-23.1	-23.7	19.9	0.00e+00	0	44	0	1427111936	7	3838
2026-01-23 01:27:14.58	64.13	32.62	-23.1	-23.7	19.9	0.00e+00	0	44	0	1443889152	7	3825
2026-01-23 01:27:17.60	65.10	32.95	-23.2	-23.9	19.8	0.00e+00	0	44	0	1460666368	7	3876
2026-01-23 01:27:20.62	66.09	33.27	-22.8	-23.0	20.2	0.00e+00	0	44	0	1478492160	7	3670
2026-01-23 01:27:23.63	67.09	33.58	-22.9	-23.7	20.1	0.00e+00	0	44	0	1495269376	6	3958
2026-01-23 01:27:26.63	68.11	33.88	-23.1	-24.0	20.0	0.00e+00	0	44	0	1512046592	6	4021
2026-01-23 01:27:29.63	69.15	34.18	-22.7	-23.3	20.4	0.00e+00	0	44	0	1528823808	6	3842
2026-01-23 01:27:32.65	70.21	34.47	-22.9	-23.7	19.9	0.00e+00	0	44	0	1545601024	6	3970
2026-01-23 01:27:35.66	71.29	34.75	-22.8	-23.6	20.0	0.00e+00	0	44	0	1562378240	6	3949
2026-01-23 01:27:38.66	72.39	35.03	-22.6	-23.1	20.3	0.00e+00	0	44	0	1579155456	6	3815
2026-01-23 01:27:41.67	73.50	35.29	-23.0	-24.1	19.8	0.00e+00	0	44	0	1595932672	6	4051
2026-01-23 01:27:44.67	74.63	35.54	-22.6	-23.1	20.3	0.00e+00	0	44	0	1613758464	6	3820
2026-01-23 01:27:47.69	75.79	35.79	-22.7	-23.4	20.1	0.00e+00	0	44	0	1630535680	6	3881
2026-01-23 01:27:50.71	76.96	36.02	-22.6	-23.1	20.3	0.00e+00	0	44	0	1647312896	6	3811
2026-01-23 01:27:53.72	78.14	36.24	-22.5	-23.4	20.4	0.00e+00	0	44	0	1664090112	5	4004
2026-01-23 01:27:56.73	79.34	36.45	-22.7	-23.8	20.1	0.00e+00	0	44	0	1680867328	5	4098
2026-01-23 01:27:59.74	80.56	36.64	-22.4	-23.3	20.4	0.00e+00	0	44	0	1698693120	5	3968
2026-01-23 01:28:02.75	81.79	36.83	-22.7	-23.9	20.1	0.00e+00	0	44	0	1715470336	5	4134
2026-01-23 01:28:05.77	83.03	37.00	-22.5	-23.5	20.3	0.00e+00	0	44	0	1732247552	5	4023
2026-01-23 01:28:08.78	84.29	37.15	-22.3	-22.9	20.6	0.00e+00	0	44	0	1749024768	5	3881
2026-01-23 01:28:11.80	85.56	37.29	-22.7	-23.9	20.1	0.00e+00	0	44	0	1765801984	5	4124
2026-01-23 01:28:14.81	86.83	37.42	-22.5	-23.4	20.3	0.00e+00	0	44	0	1782579200	5	3987
2026-01-23 01:28:17.81	88.12	37.53	-22.8	-24.0	20.0	0.00e+00	0	44	0	1799356416	5	4160
2026-01-23 01:28:20.83	89.41	37.62	-22.4	-23.3	20.4	0.00e+00	0	44	0	1817182208	5	3966
2026-01-23 01:28:23.85	90.72	37.70	-22.5	-23.5	20.3	0.00e+00	0	44	0	1833959424	5	4021
2026-01-23 01:28:26.87	92.03	37.76	-22.3	-23.1	20.5	0.00e+00	0	44	0	1850736640	5	3918
2026-01-23 01:28:29.87	93.33	37.81	-22.4	-23.1	20.5	0.00e+00	0	44	0	1867513856	5	3924
2026-01-23 01:28:32.87	94.64	37.84	-22.4	-23.2	20.5	0.00e+00	0	44	0	1884291072	5	3953
2026-01-23 01:28:35.89	95.96	37.85	-22.4	-23.2	20.4	0.00e+00	0	44	0	1902116864	5	3953
2026-01-23 01:28:38.90	97.28	37.85	-22.4	-23.2	20.4	0.00e+00	0	44	0	1918894080	5	3942
2026-01-23 01:28:41.89	98.58	37.82	-22.4	-23.1	20.4	0.00e+00	0	44	0	1935671296	5	3935
2026-01-23 01:28:44.90	99.90	37.79	-22.1	-22.7	20.7	0.00e+00	0	44	0	1952448512	5	3821
2026-01-23 01:28:47.91	101.21	37.73	-22.4	-23.2	20.4	0.00e+00	0	44	0	1969225728	5	3963
2026-01-23 01:28:50.91	102.51	37.66	-22.6	-23.7	20.2	0.00e+00	0	44	0	1986002944	5	4062
2026-01-23 01:28:53.92	103.80	37.58	-22.5	-23.5	20.2	0.00e+00	0	44	0	2002780160	5	4020
2026-01-23 01:28:56.94	105.10	37.48	-22.6	-23.6	20.2	0.00e+00	0	44	0	2019557376	5	4047
2026-01-23 01:28:59.95	106.38	37.36	-22.8	-24.0	20.0	0.00e+00	0	44	0	2037383168	5	4157
2026-01-23 01:29:02.96	107.66	37.23	-22.4	-23.2	20.4	0.00e+00	0	44	0	2054160384	5	3940
2026-01-23 01:29:05.96	108.91	37.08	-22.5	-23.3	20.3	0.00e+00	0	44	0	2070937600	5	3991
2026-01-23 01:29:08.97	110.16	36.92	-22.6	-23.6	20.1	0.00e+00	0	44	0	2087714816	5	4061
2026-01-23 01:29:11.98	111.40	36.74	-22.4	-23.3	20.3	0.00e+00	0	44	0	2104492032	5	3978
2026-01-23 01:29:14.99	112.63	36.55	-22.5	-23.5	20.2	0.00e+00	0	44	0	2121269248	5	4015
2026-01-23 01:29:18.01	113.84	36.35	-22.5	-23.3	20.3	0.00e+00	0	44	0	2138046464	5	3985
2026-01-23 01:29:21.03	115.04	36.13	-22.4	-23.3	20.3	0.00e+00	0	44	0	2154823680	5	3976
2026-01-23 01:29:24.04	116.22	35.91	-22.7	-23.9	20.0	0.00e+00	0	44	0	2172649472	5	4125
2026-01-23 01:29:27.05	117.38	35.67	-22.7	-23.8	20.0	0.00e+00	0	44	0	2189426688	5	4091
2026-01-23 01:29:30.07	118.53	35.42	-22.8	-24.1	19.8	0.00e+00	0	44	0	2206203904	5	4184
2026-01-23 01:29:33.08	119.66	35.16	-22.7	-24.0	19.9	0.00e+00	0	44	0	2222981120	5	4138
2026-01-23 01:29:36.10	120.77	34.89	-22.7	-23.9	20.0	0.00e+00	0	44	0	2239758336	5	4118
2026-01-23 01:29:39.10	121.86	34.61	-22.9	-24.4	19.7	0.00e+00	0	44	0	2257584128	5	4248
2026-01-23 01:29:42.11	122.93	34.32	-23.3	-24.5	19.4	0.00e+00	0	44	0	2274361344	6	4168
2026-01-23 01:29:45.13	123.99	34.02	-22.9	-23.8	19.7	0.00e+00	0	44	0	2291138560	6	3988
2026-01-23 01:29:48.14	125.03	33.72	-23.0	-24.0	19.6	0.00e+00	0	44	0	2307915776	6	4050
2026-01-23 01:29:51.15	126.05	33.41	-23.1	-24.1	19.6	1.83e-05	0	44	0	2324692992	6	4069
2026-01-23 01:29:54.16	127.04	33.09	-23.0	-24.0	19.6	1.83e-05	0	44	0	2341470208	6	4037
2026-01-23 01:29:57.17	128.02	32.77	-23.1	-24.2	19.5	0.00e+00	0	44	0	2358247424	6	4077
2026-01-23 01:30:00.17	128.98	32.44	-23.1	-24.2	19.5	0.00e+00	0	44	0	2375024640	6	4081
2026-01-23 01:30:03.19	129.92	32.11	-23.1	-24.2	19.5	0.00e+00	0	44	0	2392850432	6	4080
2026-01-23 01:30:06.20	130.85	31.77	-22.8	-23.6	19.8	3.40e-06	0	44	0	2409627648	6	3940
2026-01-23 01:30:09.20	131.75	31.43	-23.0	-23.9	19.6	0.00e+00	0	44	0	2426404864	6	4023
2026-01-23 01:30:12.21	132.63	31.09	-23.3	-24.5	19.3	5.95e-05	0	44	0	2443182080	6	4176
2026-01-23 01:30:15.22	133.50	30.74	-23.2	-24.5	19.3	1.41e-04	0	44	0	2459959296	6	4182
2026-01-23 01:30:18.23	134.34	30.39	-23.4	-24.4	19.2	0.00e+00	0	44	0	2477785088	7	4030
2026-01-23 01:30:21.25	135.18	30.04	-23.0	-23.6	19.5	4.77e-04	0	44	0	2494562304	7	3832
2026-01-23 01:30:24.26	135.99	29.68	-23.3	-24.7	19.2	4.14e-04	0	44	0	2511339520	6	4210
2026-01-23 01:30:27.27	136.79	29.32	-23.1	-24.3	19.4	0.00e+00	0	44	0	2528116736	6	4118
2026-01-23 01:30:30.29	137.57	28.97	-23.4	-24.8	19.1	0.00e+00	0	44	0	2544893952	6	4227
2026-01-23 01:30:33.30	138.33	28.61	-23.7	-25.0	18.7	3.49e-04	0	44	0	2561671168	7	4195
2026-01-23 01:30:36.32	139.07	28.25	-23.3	-24.2	19.2	0.00e+00	0	44	0	2578448384	7	3967
2026-01-23 01:30:39.34	139.81	27.89	-23.7	-24.9	18.8	0.00e+00	0	44	0	2596274176	7	4148
2026-01-23 01:30:42.33	140.51	27.53	-23.8	-25.2	18.6	0.00e+00	0	44	0	2613051392	7	4235
2026-01-23 01:30:45.35	141.21	27.17	-23.7	-25.0	18.7	0.00e+00	0	44	0	2629828608	7	4180
2026-01-23 01:30:48.36	141.89	26.81	-23.5	-24.1	18.9	0.00e+00	0	44	0	2646605824	8	3857
2026-01-23 01:30:51.37	142.56	26.45	-23.3	-24.7	19.1	0.00e+00	0	44	0	2663383040	6	4225
2026-01-23 01:30:54.37	143.21	26.09	-23.6	-24.8	18.8	0.00e+00	0	44	0	2680160256	7	4132
2026-01-23 01:30:57.38	143.85	25.74	-23.3	-24.1	19.1	0.00e+00	0	44	0	2696937472	7	3954
2026-01-23 01:31:00.38	144.47	25.38	-23.6	-24.8	18.7	0.00e+00	0	44	0	2713714688	7	4141
2026-01-23 01:31:03.38	145.08	25.03	-23.7	-25.0	18.6	0.00e+00	0	44	0	2730491904	7	4182
2026-01-23 01:31:06.39	145.68	24.68	-23.6	-24.7	18.8	0.00e+00	0	44	0	2748317696	7	4101
2026-01-23 01:31:09.41	146.27	24.32	-23.6	-24.8	18.7	0.00e+00	0	44	0	2765094912	7	4132
2026-01-23 01:31:12.41	146.84	23.98	-23.6	-24.9	18.7	0.00e+00	0	44	0	2781872128	7	4154
2026-01-23 01:31:15.42	147.40	23.63	-23.9	-25.4	18.4	0.00e+00	0	44	0	2798649344	7	4285
2026-01-23 01:31:18.43	147.95	23.28	-23.9	-25.4	18.4	0.00e+00	0	44	0	2815426560	7	4277
2026-01-23 01:31:21.44	148.48	22.94	-23.7	-24.9	14.2	0.00e+00	0	44	0	2833252352	7	4152
2026-01-23 01:31:24.45	149.01	22.60	-23.8	-25.1	18.5	0.00e+00	0	44	0	2850029568	7	4210
2026-01-23 01:31:27.47	149.52	22.26	-23.9	-25.5	18.3	0.00e+00	0	44	0	2866806784	7	4311
2026-01-23 01:31:30.49	150.03	21.92	-24.2	-25.5	18.1	1.20e-03	0	44	0	2883584000	8	4193
2026-01-23 01:31:33.49	150.52	21.58	-24.1	-25.3	18.2	0.00e+00	0	44	0	2900361216	8	4134
2026-01-23 01:31:36.49	151.00	21.25	-24.3	-25.7	17.9	0.00e+00	0	44	0	2917138432	8	4246
2026-01-23 01:31:39.49	151.47	20.92	-24.3	-25.8	17.9	1.12e-03	0	44	0	2933915648	8	4272
2026-01-23 01:31:42.50	151.93	20.60	-24.5	-25.7	17.6	1.25e-03	0	44	0	2950692864	9	4145
2026-01-23 01:31:45.52	152.39	20.27	-24.5	-25.8	17.6	0.00e+00	0	44	0	2968518656	9	4159
2026-01-23 01:31:48.52	152.83	19.95	-24.6	-25.9	17.5	1.22e-03	0	44	0	2985295872	9	4181
2026-01-23 01:31:51.52	153.27	19.63	-24.7	-26.0	17.4	1.29e-03	0	44	0	3002073088	9	4224
2026-01-23 01:31:54.53	153.69	19.31	-24.6	-26.0	17.4	1.21e-03	0	44	0	3018850304	9	4218
2026-01-23 01:31:57.53	154.11	19.00	-24.7	-26.2	17.3	6.34e-04	0	44	0	3035627520	9	4259
2026-01-23 01:32:00.54	154.52	18.68	-24.8	-26.4	17.2	1.26e-03	0	44	0	3052404736	9	4325
2026-01-23 01:32:03.55	154.92	18.37	-24.9	-26.7	17.0	1.23e-03	0	44	0	3069181952	9	4428
2026-01-23 01:32:06.55	155.31	18.07	-25.4	-27.2	16.5	0.00e+00	0	44	0	3087007744	10	4417
2026-01-23 01:32:09.56	155.70	17.76	-25.3	-26.9	16.6	0.00e+00	0	44	0	3103784960	10	4332
2026-01-23 01:32:12.57	156.08	17.46	-25.3	-26.9	16.6	1.11e-03	0	44	0	3120562176	10	4338
2026-01-23 01:32:15.58	156.45	17.16	-25.1	-26.6	16.8	9.99e-04	0	44	0	3137339392	10	4267
2026-01-23 01:32:18.60	156.82	16.86	-24.9	-26.2	17.0	0.00e+00	0	44	0	3154116608	10	4144
2026-01-23 01:32:21.62	157.18	16.56	-25.2	-26.6	16.7	0.00e+00	0	44	0	3170893824	10	4257
2026-01-23 01:32:24.63	157.53	16.27	-25.4	-27.1	16.5	0.00e+00	0	44	0	3187671040	10	4394
2026-01-23 01:32:27.64	157.87	15.98	-25.3	-27.0	16.5	0.00e+00	0	44	0	3205496832	10	4364
2026-01-23 01:32:30.65	158.21	15.69	-25.8	-27.6	15.9	0.00e+00	0	44	0	3222274048	11	4403
2026-01-23 01:32:33.67	158.54	15.41	-25.6	-27.1	16.2	0.00e+00	0	44	0	3239051264	11	4273
2026-01-23 01:32:36.67	158.87	15.13	-25.7	-27.2	16.1	0.00e+00	0	44	0	3255828480	11	4322
2026-01-23 01:32:39.67	159.19	14.85	-25.6	-27.2	16.1	0.00e+00	0	44	0	3272605696	11	4310
2026-01-23 01:32:42.68	159.50	14.57	-25.7	-27.4	16.0	6.80e-06	0	44	0	3289382912	11	4358
2026-01-23 01:32:45.68	159.81	14.30	-25.8	-27.6	15.8	0.00e+00	0	44	0	3306160128	11	4421
2026-01-23 01:32:48.70	160.12	14.02	-25.7	-27.5	15.8	1.10e-06	0	44	0	3323985920	11	4397
2026-01-23 01:32:51.71	160.41	13.75	-25.8	-27.7	15.7	5.70e-06	0	44	0	3340763136	11	4463
2026-01-23 01:32:54.72	160.71	13.48	-25.9	-27.8	15.6	6.80e-06	0	44	0	3357540352	11	4491
2026-01-23 01:32:57.73	160.99	13.22	-26.1	-27.8	15.2	1.48e-05	0	44	0	3374317568	12	4391
2026-01-23 01:33:00.74	161.28	12.95	-26.0	-27.5	15.4	0.00e+00	0	44	0	3391094784	12	4297
2026-01-23 01:33:03.74	161.56	12.69	-25.9	-27.3	15.5	0.00e+00	0	44	0	3407872000	12	4241
2026-01-23 01:33:06.74	161.83	12.44	-26.0	-27.5	15.3	0.00e+00	0	44	0	3424649216	12	4301
2026-01-23 01:33:09.74	162.10	12.18	-25.9	-27.4	15.4	0.00e+00	0	44	0	3442475008	12	4271
2026-01-23 01:33:12.74	162.36	11.92	-26.0	-27.7	15.3	0.00e+00	0	44	0	3459252224	12	4346
2026-01-23 01:33:15.75	162.62	11.67	-26.2	-28.1	15.0	0.00e+00	0	44	0	3476029440	12	4470
2026-01-23 01:33:18.76	162.88	11.42	-26.3	-28.4	14.8	0.00e+00	0	44	0	3492806656	12	4553
2026-01-23 01:33:21.77	163.13	11.17	-26.5	-28.7	14.6	1.10e-06	0	44	0	3509583872	12	4670
2026-01-23 01:33:24.79	163.38	10.93	-26.3	-28.5	14.7	0.00e+00	0	44	0	3526361088	12	4597
2026-01-23 01:33:27.80	163.62	10.68	-26.4	-28.6	14.6	0.00e+00	0	44	0	3543138304	12	4651
2026-01-23 01:33:30.81	163.86	10.44	-26.3	-28.3	14.8	0.00e+00	0	44	0	3559915520	12	4557
2026-01-23 01:33:33.82	164.10	10.20	-26.4	-28.6	14.6	0.00e+00	0	44	0	3577741312	12	4636
2026-01-23 01:33:36.83	164.33	9.96	-26.4	-28.5	14.7	0.00e+00	0	44	0	3594518528	12	4583
2026-01-23 01:33:39.84	164.56	9.72	-26.5	-28.3	14.5	0.00e+00	0	44	0	3611295744	13	4418
2026-01-23 01:33:42.85	164.79	9.49	-26.7	-28.6	14.3	1.10e-06	0	44	0	3628072960	13	4512
2026-01-23 01:33:45.85	165.01	9.25	-26.7	-28.7	14.3	2.20e-06	0	44	0	3644850176	13	4514
2026-01-23 01:33:48.86	165.23	9.02	-26.7	-28.7	14.3	3.40e-06	0	44	0	3661627392	13	4532
2026-01-23 01:33:51.87	165.44	8.79	-26.8	-28.8	14.2	5.70e-06	0	44	0	3678404608	13	4572
2026-01-23 01:33:54.88	165.65	8.57	-26.7	-28.7	14.2	3.40e-06	0	44	0	3696230400	13	4541
2026-01-23 01:33:57.89	165.86	8.34	-26.8	-29.0	14.0	5.70e-06	0	44	0	3713007616	13	4624
2026-01-23 01:34:00.90	166.07	8.12	-26.7	-28.6	14.2	3.40e-06	0	44	0	3729784832	13	4513
2026-01-23 01:34:03.91	166.27	7.89	-26.7	-28.6	14.2	2.20e-06	0	44	0	3746562048	13	4499
2026-01-23 01:34:06.91	166.47	7.67	-26.8	-28.9	14.0	1.10e-06	0	44	0	3763339264	13	4590
2026-01-23 01:34:09.91	166.67	7.45	-26.9	-28.7	13.8	1.37e-05	0	44	0	3780116480	14	4420
2026-01-23 01:34:12.92	166.86	7.24	-32.5	-43.0	3.8	8.46e-01	0	45	104	3792699392	25	12153
2026-01-23 01:34:15.94	167.06	7.02	-32.6	-43.8	3.8	8.46e-01	0	44	104	3792699392	25	13096

#Closed at: 2026-01-23 01:34:18
#Recorded file [3792 MB]: D:/data/31010_260123_042257.dat