passes_logs/2026/01/23/R2M6_AANII_01/R2M6_AANII_01__20260123_143906_FENGYUN_3E_rec.log

#Pass ID: 20260123_143906_FENGYUN 3E
#Satellite: FENGYUN 3E
#Configuration: FENGYUN 3E
#almurnet v.1.7.20240730
#Start time: 2026-01-23 14:39:08

#Version: 2.2.20231116
#Station: R2M6_AANII_01
#Location: 30.233357 lon 59.946436 lat
#TLE: 1 49008U 21062A   26022.96857035  .00000014  00000+0  27449-4 0  9991
#TLE: 2 49008  98.7488  28.0032 0002359 122.8887 237.2516 14.19886951235971

#Time	Az	El	Level	Level2	SNR	BER	BlckErr	Temp	State	Recorded	gain1	gain2
2026-01-23 14:39:08.24	161.69	7.15	-27.7	-29.2	5.6	7.67e-01	0	41	0	0	16	4299
2026-01-23 14:39:11.24	161.71	7.38	-26.9	-27.8	12.3	2.15e-04	0	42	102	1048576	15	4023
2026-01-23 14:39:14.25	161.74	7.62	-26.7	-28.0	12.6	1.43e-04	0	42	102	1048576	14	4162
2026-01-23 14:39:17.27	161.76	7.86	-26.8	-28.3	12.4	2.12e-04	0	42	102	1048576	14	4249
2026-01-23 14:39:20.28	161.78	8.10	-26.1	-27.1	13.4	1.94e-05	0	42	102	1048576	13	4022
2026-01-23 14:39:23.27	161.81	8.34	-26.2	-27.3	13.3	2.86e-05	0	42	102	1048576	13	4097
2026-01-23 14:39:26.29	161.83	8.59	-26.3	-27.5	13.2	1.48e-05	0	42	102	1048576	13	4139
2026-01-23 14:39:29.29	161.85	8.84	-26.6	-28.2	12.8	7.20e-05	0	42	102	1048576	13	4334
2026-01-23 14:39:32.31	161.88	9.09	-25.9	-27.1	13.7	8.00e-06	0	42	102	1048576	12	4134
2026-01-23 14:39:35.33	161.90	9.35	-26.0	-27.5	13.5	8.00e-06	0	42	102	1048576	12	4243
2026-01-23 14:39:38.34	161.93	9.61	-25.7	-26.7	13.9	1.10e-06	0	43	102	1048576	12	4043
2026-01-23 14:39:41.36	161.95	9.87	-25.7	-26.7	13.9	5.70e-06	0	42	102	1048576	12	4051
2026-01-23 14:39:44.35	161.98	10.13	-26.0	-27.3	13.6	1.60e-05	0	43	102	1048576	12	4204
2026-01-23 14:39:47.37	162.00	10.39	-25.7	-26.7	14.0	4.50e-06	0	43	102	1048576	12	4040
2026-01-23 14:39:50.38	162.03	10.66	-25.6	-26.5	14.2	0.00e+00	0	43	102	1048576	12	3984
2026-01-23 14:39:53.39	162.06	10.93	-25.5	-26.3	14.3	0.00e+00	0	43	102	1048576	12	3941
2026-01-23 14:39:56.41	162.08	11.21	-25.5	-26.1	14.3	0.00e+00	0	43	102	1048576	12	3898
2026-01-23 14:39:59.42	162.11	11.49	-25.3	-26.4	14.6	1.10e-06	0	43	102	1048576	11	4059
2026-01-23 14:40:02.43	162.14	11.77	-25.4	-26.5	14.6	0.00e+00	0	43	102	1048576	11	4082
2026-01-23 14:40:05.43	162.16	12.05	-25.3	-26.2	14.7	0.00e+00	0	43	102	1048576	11	4025
2026-01-23 14:40:08.44	162.19	12.34	-25.4	-26.4	14.7	0.00e+00	0	43	102	1048576	11	4062
2026-01-23 14:40:11.45	162.22	12.63	-25.4	-26.5	14.6	2.20e-06	0	43	102	1048576	11	4076
2026-01-23 14:40:14.45	162.25	12.92	-25.2	-26.1	14.9	0.00e+00	0	43	102	1048576	11	3991
2026-01-23 14:40:17.45	162.28	13.22	-24.8	-25.6	15.3	0.00e+00	0	43	102	1048576	10	3972
2026-01-23 14:40:20.46	162.31	13.52	-24.7	-25.4	15.5	0.00e+00	0	43	102	1048576	10	3923
2026-01-23 14:40:23.47	162.34	13.83	-24.6	-25.4	15.5	0.00e+00	0	43	102	1048576	10	3916
2026-01-23 14:40:26.50	162.37	14.14	-24.5	-25.1	15.7	0.00e+00	0	43	102	1048576	10	3836
2026-01-23 14:40:29.51	162.40	14.45	-24.5	-25.6	15.6	0.00e+00	0	43	102	1048576	9	4072
2026-01-23 14:40:32.52	162.43	14.77	-24.5	-25.5	15.7	0.00e+00	0	43	102	1048576	9	4040
2026-01-23 14:40:35.53	162.46	15.09	-24.8	-26.3	15.3	0.00e+00	0	44	102	1048576	9	4259
2026-01-23 14:40:38.55	162.50	15.42	-24.5	-25.6	15.7	3.40e-06	0	43	102	1048576	9	4061
2026-01-23 14:40:41.57	162.53	15.75	-24.6	-25.7	15.7	6.80e-06	0	43	102	1048576	9	4097
2026-01-23 14:40:44.58	162.56	16.08	-24.6	-25.8	15.6	8.00e-06	0	43	102	1048576	9	4127
2026-01-23 14:40:47.60	162.60	16.42	-23.9	-24.3	16.4	0.00e+00	0	43	102	1048576	9	3766
2026-01-23 14:40:50.61	162.63	16.77	-24.1	-24.6	16.2	0.00e+00	0	44	102	1048576	9	3827
2026-01-23 14:40:53.62	162.67	17.12	-24.0	-25.0	16.3	0.00e+00	0	43	102	1048576	8	4029
2026-01-23 14:40:56.64	162.70	17.47	-24.1	-25.1	16.3	0.00e+00	0	44	102	1048576	8	4045
2026-01-23 14:40:59.65	162.74	17.83	-24.0	-25.0	16.3	0.00e+00	0	44	102	1048576	8	4023
2026-01-23 14:41:02.67	162.77	18.20	-23.9	-24.8	16.4	0.00e+00	0	43	102	1048576	8	3977
2026-01-23 14:41:05.67	162.81	18.57	-23.9	-24.7	16.5	0.00e+00	0	44	102	1048576	8	3952
2026-01-23 14:41:08.68	162.85	18.94	-23.9	-24.8	16.5	0.00e+00	0	44	102	1048576	8	3964
2026-01-23 14:41:11.69	162.89	19.32	-24.1	-25.1	16.3	0.00e+00	0	44	102	1048576	8	4054
2026-01-23 14:41:14.70	162.93	19.71	-23.8	-24.5	16.7	0.00e+00	0	44	102	1048576	8	3903
2026-01-23 14:41:17.71	162.97	20.11	-23.5	-23.9	17.0	0.00e+00	0	44	102	1048576	8	3757
2026-01-23 14:41:20.72	163.01	20.51	-23.4	-24.1	17.1	0.00e+00	0	44	102	1048576	7	3903
2026-01-23 14:41:23.73	163.05	20.91	-23.1	-23.6	17.3	0.00e+00	0	44	102	1048576	7	3793
2026-01-23 14:41:26.73	163.10	21.33	-23.1	-23.5	17.4	0.00e+00	0	44	102	1048576	7	3755
2026-01-23 14:41:29.74	163.14	21.75	-22.9	-23.7	17.5	0.00e+00	0	44	102	1048576	6	3920
2026-01-23 14:41:32.75	163.19	22.17	-22.9	-23.6	17.6	0.00e+00	0	44	102	1048576	6	3894
2026-01-23 14:41:35.77	163.23	22.61	-22.8	-23.4	17.6	0.00e+00	0	44	102	1048576	6	3862
2026-01-23 14:41:38.78	163.28	23.05	-22.8	-23.4	17.6	0.00e+00	0	44	102	1048576	6	3871
2026-01-23 14:41:41.79	163.33	23.50	-22.7	-23.3	17.7	0.00e+00	0	44	102	1048576	6	3837
2026-01-23 14:41:44.79	163.38	23.96	-22.8	-23.5	17.6	0.00e+00	0	44	102	1048576	6	3891
2026-01-23 14:41:47.80	163.43	24.42	-22.8	-23.5	17.5	0.00e+00	0	44	102	1048576	6	3901
2026-01-23 14:41:50.81	163.48	24.90	-22.9	-23.8	17.4	0.00e+00	0	44	102	1048576	6	3974
2026-01-23 14:41:53.82	163.53	25.38	-22.9	-23.7	17.4	0.00e+00	0	44	102	1048576	6	3961
2026-01-23 14:41:56.82	163.59	25.87	-22.8	-23.5	17.6	0.00e+00	0	44	102	1048576	6	3903
2026-01-23 14:41:59.84	163.64	26.38	-22.4	-22.7	18.0	0.00e+00	0	44	102	1048576	6	3716
2026-01-23 14:42:02.86	163.70	26.89	-22.3	-22.9	18.1	0.00e+00	0	44	102	1048576	5	3867
2026-01-23 14:42:05.88	163.76	27.41	-22.2	-22.7	18.3	0.00e+00	0	44	102	1048576	5	3795
2026-01-23 14:42:08.89	163.82	27.94	-22.2	-22.7	18.3	0.00e+00	0	44	102	1048576	5	3792
2026-01-23 14:42:11.89	163.88	28.48	-22.4	-23.0	18.2	0.00e+00	0	44	102	1048576	5	3867
2026-01-23 14:42:14.90	163.94	29.03	-22.1	-22.5	18.5	0.00e+00	0	44	102	1048576	5	3750
2026-01-23 14:42:17.92	164.01	29.60	-22.9	-23.5	18.7	0.00e+00	0	44	102	1048576	5	3869
2026-01-23 14:42:20.93	164.08	30.17	-23.3	-23.9	18.3	0.00e+00	0	44	102	1048576	6	3845
2026-01-23 14:42:23.95	164.15	30.76	-23.3	-23.9	18.3	0.00e+00	0	44	102	1048576	6	3855
2026-01-23 14:42:26.97	164.22	31.36	-23.2	-23.7	18.4	0.00e+00	0	44	102	1048576	6	3811
2026-01-23 14:42:29.97	164.30	31.97	-23.3	-23.9	18.3	0.00e+00	0	44	102	1048576	6	3842
2026-01-23 14:42:32.97	164.37	32.59	-23.3	-23.2	18.4	0.00e+00	0	44	102	1048576	7	3593
2026-01-23 14:42:35.98	164.45	33.23	-23.1	-22.8	18.6	0.00e+00	0	44	102	1048576	7	3505
2026-01-23 14:42:39.00	164.53	33.88	-23.3	-23.4	18.3	0.00e+00	0	44	102	1048576	7	3642
2026-01-23 14:42:42.01	164.62	34.54	-23.1	-22.9	18.6	0.00e+00	0	44	102	1048576	7	3528
2026-01-23 14:42:45.02	164.71	35.22	-23.0	-23.2	18.7	0.00e+00	0	44	102	1048576	6	3680
2026-01-23 14:42:48.02	164.80	35.91	-22.9	-23.0	18.8	0.00e+00	0	44	102	1048576	6	3640
2026-01-23 14:42:51.02	164.90	36.62	-23.0	-23.3	18.7	0.00e+00	0	44	102	1048576	6	3702
2026-01-23 14:42:54.05	165.00	37.35	-23.0	-23.3	18.7	0.00e+00	0	44	102	1048576	6	3705
2026-01-23 14:42:57.06	165.10	38.09	-23.5	-24.3	18.3	0.00e+00	0	44	102	1048576	6	3925
2026-01-23 14:43:00.06	165.21	38.84	-23.5	-23.7	18.2	0.00e+00	0	44	102	1048576	7	3701
2026-01-23 14:43:03.07	165.32	39.61	-23.6	-24.0	18.1	0.00e+00	0	44	102	1048576	7	3767
2026-01-23 14:43:06.08	165.44	40.41	-23.5	-23.8	18.2	0.00e+00	0	44	102	1048576	7	3722
2026-01-23 14:43:09.09	165.56	41.21	-23.2	-23.1	18.6	0.00e+00	0	44	102	1048576	7	3558
2026-01-23 14:43:12.10	165.69	42.04	-23.3	-23.2	18.6	0.00e+00	0	44	102	1048576	7	3587
2026-01-23 14:43:15.11	165.82	42.89	-23.3	-23.3	18.5	0.00e+00	0	44	102	1048576	7	3602
2026-01-23 14:43:18.12	165.97	43.75	-23.3	-23.3	18.6	0.00e+00	0	44	102	1048576	7	3597
2026-01-23 14:43:21.12	166.11	44.64	-23.4	-23.5	18.4	0.00e+00	0	44	102	1048576	7	3655
2026-01-23 14:43:24.13	166.27	45.54	-23.6	-24.1	18.2	0.00e+00	0	44	102	1048576	7	3776
2026-01-23 14:43:27.13	166.44	46.46	-24.1	-24.6	17.7	0.00e+00	0	44	102	1048576	8	3788
2026-01-23 14:43:30.14	166.61	47.41	-24.0	-24.2	17.9	0.00e+00	0	44	102	1048576	8	3700
2026-01-23 14:43:33.15	166.80	48.38	-24.2	-24.8	17.6	0.00e+00	0	44	102	1048576	8	3830
2026-01-23 14:43:36.17	167.00	49.37	-25.0	-25.4	16.8	0.00e+00	0	44	102	1048576	10	3772
2026-01-23 14:43:39.19	167.21	50.39	-24.6	-24.5	17.3	0.00e+00	0	44	102	1048576	10	3567
2026-01-23 14:43:42.20	167.43	51.42	-24.1	-24.0	17.7	0.00e+00	0	44	102	1048576	9	3553
2026-01-23 14:43:45.21	167.67	52.48	-24.1	-24.0	17.8	0.00e+00	0	44	102	1048576	9	3554
2026-01-23 14:43:48.22	167.93	53.56	-24.6	-25.2	17.1	0.00e+00	0	44	102	1048576	9	3820
2026-01-23 14:43:51.23	168.20	54.66	-24.2	-24.1	17.7	0.00e+00	0	44	102	1048576	9	3585
2026-01-23 14:43:54.24	168.50	55.78	-24.5	-24.9	17.3	0.00e+00	0	44	102	1048576	9	3762
2026-01-23 14:43:57.26	168.82	56.93	-24.8	-25.1	16.8	0.00e+00	0	44	102	1048576	10	3699
2026-01-23 14:44:00.28	169.17	58.11	-24.5	-24.4	17.4	0.00e+00	0	44	102	1048576	10	3540
2026-01-23 14:44:03.30	169.56	59.31	-24.5	-24.9	17.4	0.00e+00	0	44	102	1048576	9	3745
2026-01-23 14:44:06.32	169.97	60.53	-24.6	-25.1	17.3	0.00e+00	0	44	102	1048576	9	3806
2026-01-23 14:44:09.33	170.43	61.76	-23.8	-23.8	18.2	0.00e+00	0	44	102	1048576	8	3598
2026-01-23 14:44:12.33	170.93	63.02	-23.8	-23.8	18.1	0.00e+00	0	44	102	1048576	8	3616
2026-01-23 14:44:15.33	171.49	64.30	-23.2	-23.2	18.8	0.00e+00	0	44	102	1048576	7	3569
2026-01-23 14:44:18.34	172.12	65.60	-23.9	-24.0	17.7	0.00e+00	0	44	102	1048576	8	3655
2026-01-23 14:44:21.35	172.82	66.92	-23.1	-22.8	19.0	0.00e+00	0	44	102	1048576	7	3489
2026-01-23 14:44:24.36	173.62	68.25	-23.1	-23.3	18.9	0.00e+00	0	44	102	1048576	6	3710
2026-01-23 14:44:27.37	174.53	69.61	-23.4	-24.0	18.6	0.00e+00	0	44	102	1048576	6	3857
2026-01-23 14:44:30.39	175.58	70.98	-23.4	-24.1	18.6	0.00e+00	0	44	102	1048576	6	3882
2026-01-23 14:44:33.41	176.81	72.36	-23.6	-24.0	18.4	0.00e+00	0	44	102	1048576	7	3751
2026-01-23 14:44:36.42	178.24	73.75	-23.6	-23.8	18.5	0.00e+00	0	44	102	1048576	7	3715
2026-01-23 14:44:39.43	179.96	75.14	-23.2	-23.1	18.9	0.00e+00	0	44	102	1048576	7	3550
2026-01-23 14:44:42.44	182.05	76.53	-22.5	-22.1	19.6	0.00e+00	0	44	102	1048576	6	3444
2026-01-23 14:44:45.45	184.63	77.92	-21.8	-21.7	20.3	0.00e+00	0	44	102	1048576	4	3555
2026-01-23 14:44:48.46	187.89	79.28	-21.7	-21.6	20.4	0.00e+00	0	44	102	1048576	4	3533
2026-01-23 14:44:51.48	192.12	80.62	-21.5	-21.0	20.7	0.00e+00	0	44	102	1048576	4	3417
2026-01-23 14:44:54.50	197.74	81.89	-22.1	-22.3	20.0	0.00e+00	0	44	102	1048576	4	3691
2026-01-23 14:44:57.50	205.32	83.06	-21.6	-21.3	20.6	0.00e+00	0	44	102	1048576	4	3476
2026-01-23 14:45:00.51	215.77	84.08	-22.6	-23.2	19.6	0.00e+00	0	44	102	1048576	4	3892
2026-01-23 14:45:03.53	229.90	84.82	-23.7	-24.0	18.5	0.00e+00	0	44	102	1048576	7	3757
2026-01-23 14:45:06.54	247.28	85.17	-23.2	-23.1	18.9	0.00e+00	0	44	102	1048576	7	3560
2026-01-23 14:45:09.56	265.50	85.04	-22.9	-22.9	19.4	0.00e+00	0	44	102	1048576	6	3616
2026-01-23 14:45:12.59	281.33	84.45	-22.9	-23.0	19.3	0.00e+00	0	44	102	1048576	6	3629
2026-01-23 14:45:15.60	293.35	83.54	-22.5	-22.2	19.7	0.00e+00	0	44	102	1048576	6	3458
2026-01-23 14:45:18.61	302.11	82.43	-22.3	-22.1	19.9	0.00e+00	0	44	102	1048576	5	3543
2026-01-23 14:45:21.63	308.53	81.20	-22.2	-22.0	20.0	0.00e+00	0	44	102	1048576	5	3511
2026-01-23 14:45:24.65	313.31	79.88	-22.0	-21.5	20.2	0.00e+00	0	44	102	1048576	5	3425
2026-01-23 14:45:27.66	316.96	78.53	-22.1	-22.4	19.9	0.00e+00	0	44	102	1048576	4	3694
2026-01-23 14:45:30.68	319.82	77.15	-22.4	-23.0	19.6	0.00e+00	0	44	102	1048576	4	3845
2026-01-23 14:45:33.69	322.11	75.77	-22.7	-23.1	19.3	0.00e+00	0	44	102	1048576	5	3768
2026-01-23 14:45:36.71	323.98	74.37	-23.1	-22.8	19.0	0.00e+00	0	44	102	1048576	7	3496
2026-01-23 14:45:39.72	325.54	72.98	-23.5	-23.8	18.5	0.00e+00	0	44	102	1048576	7	3705
2026-01-23 14:45:42.73	326.85	71.60	-23.7	-24.2	18.2	0.00e+00	0	44	102	1048576	7	3797
2026-01-23 14:45:45.75	327.97	70.23	-23.4	-23.5	18.4	0.00e+00	0	44	102	1048576	7	3651
2026-01-23 14:45:48.76	328.94	68.87	-23.1	-23.0	18.8	0.00e+00	0	44	102	1048576	7	3529
2026-01-23 14:45:51.77	329.78	67.53	-22.9	-22.9	19.1	0.00e+00	0	44	102	1048576	6	3606
2026-01-23 14:45:54.80	330.53	66.20	-23.2	-23.6	18.7	0.00e+00	0	44	102	1048576	6	3759
2026-01-23 14:45:57.81	331.19	64.89	-23.3	-23.8	18.6	0.00e+00	0	44	102	1048576	6	3821
2026-01-23 14:46:00.83	331.78	63.60	-23.5	-23.7	18.4	0.00e+00	0	44	102	1048576	7	3677
2026-01-23 14:46:03.84	332.31	62.33	-23.7	-24.1	18.2	0.00e+00	0	44	102	1048576	7	3785
2026-01-23 14:46:06.86	332.79	61.09	-24.6	-25.1	17.2	0.00e+00	0	44	102	1048576	9	3795
2026-01-23 14:46:09.88	333.22	59.86	-25.0	-25.3	16.8	0.00e+00	0	44	102	1048576	10	3749
2026-01-23 14:46:12.89	333.62	58.66	-24.5	-24.4	17.3	0.00e+00	0	44	102	1048576	10	3538
2026-01-23 14:46:15.91	333.98	57.48	-24.7	-25.3	17.0	0.00e+00	0	44	102	1048576	9	3845
2026-01-23 14:46:18.92	334.32	56.32	-24.6	-25.1	17.0	0.00e+00	0	44	102	1048576	9	3814
2026-01-23 14:46:21.94	334.62	55.19	-24.4	-24.6	17.4	0.00e+00	0	44	102	1048576	9	3681
2026-01-23 14:46:24.96	334.91	54.07	-24.3	-24.4	17.5	0.00e+00	0	44	102	1048576	9	3635
2026-01-23 14:46:27.97	335.18	52.99	-24.4	-24.5	17.4	0.00e+00	0	44	102	1048576	9	3671
2026-01-23 14:46:30.99	335.42	51.92	-24.5	-24.9	17.2	0.00e+00	0	44	102	1048576	9	3753
2026-01-23 14:46:34.01	335.66	50.88	-24.8	-25.6	16.9	0.00e+00	0	44	102	1048576	9	3907
2026-01-23 14:46:37.02	335.87	49.86	-24.8	-25.5	16.9	1.10e-06	0	44	102	1048576	9	3890
2026-01-23 14:46:40.03	336.08	48.86	-24.5	-24.9	17.2	0.00e+00	0	44	102	1048576	9	3745
2026-01-23 14:46:43.04	336.27	47.89	-24.4	-24.6	17.2	0.00e+00	0	44	102	1048576	9	3696
2026-01-23 14:46:46.06	336.45	46.94	-23.8	-23.9	17.9	0.00e+00	0	44	102	1048576	8	3636
2026-01-23 14:46:49.08	336.62	46.00	-23.6	-23.5	18.1	0.00e+00	0	44	102	1048576	8	3540
2026-01-23 14:46:52.09	336.78	45.09	-23.2	-23.0	18.5	0.00e+00	0	44	102	1048576	7	3549
2026-01-23 14:46:55.10	336.93	44.20	-23.0	-23.1	18.8	0.00e+00	0	44	102	1048576	6	3654
2026-01-23 14:46:58.12	337.08	43.33	-23.2	-23.6	18.5	0.00e+00	0	44	102	1048576	6	3764
2026-01-23 14:47:01.12	337.22	42.48	-23.3	-23.8	18.4	0.00e+00	0	44	102	1048576	6	3814
2026-01-23 14:47:04.13	337.35	41.64	-23.1	-23.4	18.6	0.00e+00	0	44	102	1048576	6	3718
2026-01-23 14:47:07.14	337.48	40.83	-23.1	-23.4	18.6	1.10e-06	0	44	102	1048576	6	3727
2026-01-23 14:47:10.15	337.60	40.03	-23.4	-24.0	18.2	0.00e+00	0	44	102	1048576	6	3864
2026-01-23 14:47:13.17	337.71	39.25	-23.3	-23.9	18.2	0.00e+00	0	44	102	1048576	6	3837
2026-01-23 14:47:16.17	337.82	38.49	-23.4	-24.0	18.2	0.00e+00	0	44	102	1048576	6	3864
2026-01-23 14:47:19.18	337.93	37.75	-23.2	-23.7	18.4	0.00e+00	0	44	102	1048576	6	3783
2026-01-23 14:47:22.20	338.03	37.02	-23.2	-23.6	18.4	0.00e+00	0	44	102	1048576	6	3777
2026-01-23 14:47:25.21	338.13	36.31	-23.3	-23.7	18.4	0.00e+00	0	44	102	1048576	6	3796
2026-01-23 14:47:28.22	338.23	35.61	-22.8	-22.8	18.8	0.00e+00	0	44	102	1048576	6	3605
2026-01-23 14:47:31.23	338.32	34.93	-22.7	-22.6	18.7	0.00e+00	0	44	102	1048576	6	3560
2026-01-23 14:47:34.24	338.40	34.26	-22.5	-22.3	19.1	0.00e+00	0	44	102	1048576	6	3488
2026-01-23 14:47:37.26	338.49	33.60	-22.5	-22.2	19.1	0.00e+00	0	44	102	1048576	6	3470
2026-01-23 14:47:40.28	338.57	32.96	-22.7	-22.5	18.9	0.00e+00	0	44	102	1048576	6	3533
2026-01-23 14:47:43.28	338.65	32.34	-22.7	-22.5	18.9	0.00e+00	0	44	102	1048576	6	3537
2026-01-23 14:47:46.28	338.73	31.72	-22.8	-22.8	18.8	0.00e+00	0	44	102	1048576	6	3596
2026-01-23 14:47:49.28	338.80	31.12	-23.1	-23.3	18.5	0.00e+00	0	44	102	1048576	6	3711
2026-01-23 14:47:52.30	338.87	30.53	-23.1	-23.4	18.3	0.00e+00	0	44	102	1048576	6	3736
2026-01-23 14:47:55.32	338.94	29.95	-23.3	-23.8	18.2	0.00e+00	0	44	102	1048576	6	3829
2026-01-23 14:47:58.32	339.01	29.39	-23.2	-23.7	18.2	0.00e+00	0	44	102	1048576	6	3792
2026-01-23 14:48:01.34	339.08	28.83	-23.3	-23.8	18.2	0.00e+00	0	44	102	1048576	6	3813
2026-01-23 14:48:04.35	339.14	28.29	-23.2	-23.7	18.2	0.00e+00	0	44	102	1048576	6	3789
2026-01-23 14:48:07.36	339.21	27.76	-23.2	-23.6	18.3	0.00e+00	0	44	102	1048576	6	3778
2026-01-23 14:48:10.38	339.27	27.23	-23.3	-23.9	18.1	0.00e+00	0	44	102	1048576	6	3846
2026-01-23 14:48:13.39	339.33	26.72	-23.3	-23.9	18.1	0.00e+00	0	44	102	1048576	6	3835
2026-01-23 14:48:16.40	339.38	26.21	-23.4	-24.1	18.0	0.00e+00	0	44	102	1048576	6	3900
2026-01-23 14:48:19.40	339.44	25.72	-23.1	-23.4	18.4	0.00e+00	0	44	102	1048576	6	3722
2026-01-23 14:48:22.41	339.50	25.23	-23.1	-23.5	18.3	0.00e+00	0	44	102	1048576	6	3757
2026-01-23 14:48:25.43	339.55	24.76	-23.1	-23.5	18.3	0.00e+00	0	44	102	1048576	6	3756
2026-01-23 14:48:28.44	339.60	24.29	-23.1	-23.5	18.3	0.00e+00	0	44	102	1048576	6	3758
2026-01-23 14:48:31.46	339.65	23.83	-23.2	-23.6	18.3	0.00e+00	0	44	102	1048576	6	3767
2026-01-23 14:48:34.47	339.70	23.37	-23.3	-23.7	18.2	0.00e+00	0	44	102	1048576	6	3808
2026-01-23 14:48:37.48	339.75	22.93	-23.3	-23.3	18.1	0.00e+00	0	44	102	1048576	7	3606
2026-01-23 14:48:40.49	339.80	22.49	-23.2	-23.2	18.2	0.00e+00	0	44	102	1048576	7	3580
2026-01-23 14:48:43.51	339.85	22.06	-23.2	-23.2	18.2	0.00e+00	0	44	102	1048576	7	3588
2026-01-23 14:48:46.52	339.90	21.64	-23.4	-23.5	18.0	0.00e+00	0	44	102	1048576	7	3643
2026-01-23 14:48:49.53	339.94	21.23	-23.5	-23.8	17.8	0.00e+00	0	44	102	1048576	7	3730
2026-01-23 14:48:52.54	339.99	20.82	-23.6	-24.1	17.7	0.00e+00	0	44	102	1048576	7	3781
2026-01-23 14:48:55.55	340.03	20.42	-23.8	-24.5	17.4	0.00e+00	0	44	102	1048576	7	3872
2026-01-23 14:48:58.56	340.07	20.02	-23.8	-24.4	17.5	0.00e+00	0	44	102	1048576	7	3855
2026-01-23 14:49:01.58	340.11	19.63	-23.9	-24.6	17.4	0.00e+00	0	44	102	1048576	7	3896
2026-01-23 14:49:04.58	340.16	19.25	-23.9	-24.7	17.3	0.00e+00	0	44	102	1048576	7	3933
2026-01-23 14:49:07.60	340.20	18.87	-24.0	-24.8	17.2	0.00e+00	0	44	102	1048576	7	3967
2026-01-23 14:49:10.62	340.24	18.50	-24.1	-24.5	17.2	0.00e+00	0	44	102	1048576	8	3766
2026-01-23 14:49:13.64	340.28	18.13	-24.2	-24.7	17.1	0.00e+00	0	44	102	1048576	8	3825
2026-01-23 14:49:16.65	340.31	17.77	-24.3	-24.9	16.9	0.00e+00	0	44	102	1048576	8	3876
2026-01-23 14:49:19.67	340.35	17.41	-24.3	-25.0	16.9	0.00e+00	0	44	102	1048576	8	3884
2026-01-23 14:49:22.68	340.39	17.06	-24.4	-25.2	16.7	0.00e+00	0	44	102	1048576	8	3944
2026-01-23 14:49:25.70	340.43	16.71	-24.5	-25.3	16.7	0.00e+00	0	44	102	1048576	8	3975
2026-01-23 14:49:28.70	340.46	16.37	-24.8	-25.5	16.3	0.00e+00	0	44	102	1048576	9	3904
2026-01-23 14:49:31.71	340.50	16.04	-24.7	-25.2	16.5	0.00e+00	0	44	102	1048576	9	3845
2026-01-23 14:49:34.73	340.53	15.71	-24.8	-25.4	16.3	0.00e+00	0	44	102	1048576	9	3897
2026-01-23 14:49:37.73	340.57	15.38	-24.8	-25.5	16.3	0.00e+00	0	44	102	1048576	9	3924
2026-01-23 14:49:40.75	340.60	15.06	-24.8	-25.6	16.2	0.00e+00	0	44	102	1048576	9	3945
2026-01-23 14:49:43.76	340.64	14.74	-25.0	-25.9	16.0	0.00e+00	0	44	102	1048576	9	4016
2026-01-23 14:49:46.78	340.67	14.42	-25.3	-26.1	15.7	0.00e+00	0	44	102	1048576	10	3944
2026-01-23 14:49:49.80	340.70	14.11	-25.1	-25.7	15.9	0.00e+00	0	44	102	1048576	10	3859
2026-01-23 14:49:52.80	340.74	13.81	-25.4	-26.2	15.5	1.10e-06	0	44	102	1048576	10	3988
2026-01-23 14:49:55.80	340.77	13.51	-25.5	-26.5	15.4	0.00e+00	0	44	102	1048576	10	4044
2026-01-23 14:49:58.81	340.80	13.21	-25.6	-26.3	15.2	0.00e+00	0	44	102	1048576	11	3906
2026-01-23 14:50:01.83	340.83	12.91	-25.9	-26.9	14.9	0.00e+00	0	44	102	1048576	11	4049
2026-01-23 14:50:04.84	340.86	12.62	-25.6	-26.2	15.2	0.00e+00	0	44	102	1048576	11	3876
2026-01-23 14:50:07.86	340.89	12.33	-25.6	-26.4	15.1	0.00e+00	0	44	102	1048576	11	3921
2026-01-23 14:50:10.86	340.92	12.05	-25.7	-26.6	15.0	0.00e+00	0	44	102	1048576	11	3964
2026-01-23 14:50:13.87	340.95	11.76	-25.9	-26.9	14.8	0.00e+00	0	44	102	1048576	11	4064
2026-01-23 14:50:16.88	340.98	11.49	-25.8	-26.8	14.9	0.00e+00	0	44	102	1048576	11	4018
2026-01-23 14:50:19.89	341.01	11.21	-26.0	-27.1	14.7	0.00e+00	0	44	102	1048576	11	4108
2026-01-23 14:50:22.90	341.04	10.94	-26.1	-26.9	14.4	0.00e+00	0	44	102	1048576	12	3962
2026-01-23 14:50:25.91	341.07	10.67	-26.3	-27.3	14.2	0.00e+00	0	44	102	1048576	12	4063
2026-01-23 14:50:28.92	341.10	10.40	-26.4	-27.7	13.9	6.80e-06	0	44	102	1048576	12	4162
2026-01-23 14:50:31.92	341.13	10.14	-26.6	-27.5	13.7	8.00e-06	0	44	102	1048576	13	4010
2026-01-23 14:50:34.94	341.16	9.88	-26.7	-27.8	13.6	6.80e-06	0	44	102	1048576	13	4092
2026-01-23 14:50:37.96	341.18	9.62	-26.7	-27.8	13.6	2.28e-05	0	44	102	1048576	13	4073
2026-01-23 14:50:40.97	341.21	9.37	-26.7	-27.7	13.5	1.02e-05	0	44	102	1048576	13	4068
2026-01-23 14:50:43.99	341.24	9.11	-26.6	-27.5	13.7	9.10e-06	0	44	102	1048576	13	4007
2026-01-23 14:50:46.99	341.27	8.86	-26.4	-27.2	13.8	6.80e-06	0	44	102	1048576	13	3934
2026-01-23 14:50:50.00	341.29	8.62	-26.4	-27.2	13.8	3.40e-06	0	44	102	1048576	13	3940
2026-01-23 14:50:53.01	341.32	8.37	-26.5	-27.3	13.7	4.50e-06	0	44	102	1048576	13	3960
2026-01-23 14:50:56.02	341.34	8.13	-26.5	-27.4	13.7	8.00e-06	0	44	102	1048576	13	3976
2026-01-23 14:50:59.03	341.37	7.89	-26.7	-27.8	13.4	2.05e-05	0	44	102	1048576	13	4085
2026-01-23 14:51:02.04	341.40	7.65	-26.7	-27.9	13.3	2.17e-05	0	44	102	1048576	13	4132
2026-01-23 14:51:05.05	341.42	7.42	-26.9	-28.2	13.1	2.97e-05	0	44	102	1048576	13	4205
2026-01-23 14:51:08.06	341.45	7.18	-26.8	-28.1	13.2	2.63e-05	0	44	102	1048576	13	4166
2026-01-23 14:51:11.08	341.47	6.95	-33.4	-43.2	3.8	8.48e-01	0	44	104	1048576	26	11099

#Closed at: 2026-01-23 14:51:12
#Recorded file [1 MB]: D:/data/31010_260123_173910.dat