passes_logs/2026/01/23/R2M6_AANII_01/R2M6_AANII_01__20260123_013552_NOAA_21_JPSS-2_rec.log

#Pass ID: 20260123_013552_NOAA 21 (JPSS-2)
#Satellite: NOAA 21 (JPSS-2)
#Configuration: NOAA 21
#almurnet v.1.7.20240730
#Start time: 2026-01-23 01:35:52

#Version: 2.2.20231116
#Station: R2M6_AANII_01
#Location: 30.233357 lon 59.946436 lat
#TLE: 1 54234U 22150A   26022.41365820  .00000211  00000+0  12084-3 0  9990
#TLE: 2 54234  98.7507 323.2240 0000658 234.5287 125.5828 14.19537645165864

#Time	Az	El	Level	Level2	SNR	BER	BlckErr	Temp	State	Recorded	gain1	gain2
2026-01-23 01:35:52.98	12.63	7.01	-31.7	-37.9	4.3	1.43e+00	0	43	0	0	23	7360
2026-01-23 01:35:55.98	12.45	7.22	-31.7	-37.2	6.8	1.80e-01	0	43	0	3145728	23	6749
2026-01-23 01:35:58.99	12.26	7.44	-31.6	-36.4	7.3	1.30e-01	0	43	0	12582912	23	6304
2026-01-23 01:36:01.99	12.08	7.65	-31.3	-35.8	8.2	6.99e-02	0	43	0	22020096	22	6092
2026-01-23 01:36:05.01	11.88	7.87	-30.1	-33.2	10.7	8.84e-03	0	43	0	30408704	20	5161
2026-01-23 01:36:08.02	11.69	8.09	-29.3	-32.2	12.2	2.09e-04	0	43	0	39845888	18	4972
2026-01-23 01:36:11.04	11.49	8.32	-29.1	-31.6	12.6	4.73e-03	0	43	0	49283072	18	4771
2026-01-23 01:36:14.05	11.28	8.54	-29.0	-31.3	12.8	6.02e-05	0	43	0	58720256	18	4684
2026-01-23 01:36:17.06	11.08	8.77	-28.9	-31.6	12.9	7.34e-04	0	43	0	68157440	17	4903
2026-01-23 01:36:20.06	10.87	9.00	-29.0	-31.2	12.9	6.10e-05	0	43	0	77594624	18	4661
2026-01-23 01:36:23.07	10.66	9.22	-29.0	-31.3	12.8	4.65e-05	0	43	0	87031808	18	4689
2026-01-23 01:36:26.09	10.44	9.46	-29.0	-31.3	12.9	7.78e-05	0	44	0	96468992	18	4668
2026-01-23 01:36:29.09	10.22	9.69	-28.6	-30.9	13.5	9.10e-06	0	44	0	105906176	17	4650
2026-01-23 01:36:32.08	10.00	9.92	-28.7	-30.9	13.4	1.98e-05	0	44	0	115343360	17	4647
2026-01-23 01:36:35.09	9.77	10.16	-28.5	-30.4	13.7	5.30e-06	0	44	0	124780544	17	4512
2026-01-23 01:36:38.10	9.54	10.40	-28.6	-30.7	13.7	6.10e-06	0	44	0	134217728	17	4593
2026-01-23 01:36:41.11	9.31	10.64	-28.4	-30.7	13.8	8.30e-06	0	44	0	143654912	16	4717
2026-01-23 01:36:44.13	9.07	10.88	-28.7	-30.9	13.5	1.14e-05	0	44	0	153092096	17	4661
2026-01-23 01:36:47.14	8.83	11.12	-28.5	-30.4	13.9	7.00e-07	0	44	0	162529280	17	4486
2026-01-23 01:36:50.15	8.58	11.37	-28.4	-30.7	14.0	2.20e-06	0	44	0	171966464	16	4705
2026-01-23 01:36:53.16	8.33	11.62	-28.4	-30.2	14.0	2.20e-06	0	44	0	181403648	17	4421
2026-01-23 01:36:56.17	8.07	11.86	-28.3	-30.5	14.2	2.20e-06	0	44	0	190840832	16	4628
2026-01-23 01:36:59.18	7.81	12.12	-28.3	-30.4	14.2	2.20e-06	0	44	0	200278016	16	4606
2026-01-23 01:37:02.19	7.54	12.37	-28.2	-30.2	14.4	1.50e-06	0	44	0	209715200	16	4543
2026-01-23 01:37:05.20	7.27	12.63	-28.0	-29.9	14.6	1.50e-06	0	44	0	219152384	16	4437
2026-01-23 01:37:08.19	7.00	12.88	-27.7	-29.7	14.8	0.00e+00	0	44	0	228589568	15	4498
2026-01-23 01:37:11.20	6.72	13.14	-27.7	-29.6	14.7	0.00e+00	0	44	0	238026752	15	4487
2026-01-23 01:37:14.22	6.43	13.40	-27.7	-29.6	14.8	0.00e+00	0	44	0	247463936	15	4484
2026-01-23 01:37:17.24	6.14	13.67	-27.8	-29.8	14.8	0.00e+00	0	44	0	256901120	15	4546
2026-01-23 01:37:20.24	5.85	13.93	-27.7	-29.6	14.9	0.00e+00	0	44	0	266338304	15	4462
2026-01-23 01:37:23.25	5.54	14.20	-27.7	-29.6	14.9	2.89e-04	0	44	0	275775488	15	4489
2026-01-23 01:37:26.25	5.24	14.47	-27.7	-29.6	14.9	0.00e+00	0	44	0	285212672	15	4470
2026-01-23 01:37:29.25	4.92	14.74	-27.5	-29.0	15.2	2.58e-04	0	44	0	294649856	15	4306
2026-01-23 01:37:32.25	4.61	15.01	-27.6	-29.2	15.2	2.49e-04	0	44	0	303038464	15	4370
2026-01-23 01:37:35.25	4.28	15.29	-27.7	-29.6	15.0	1.78e-04	0	44	0	312475648	15	4479
2026-01-23 01:37:38.26	3.95	15.57	-27.6	-29.4	15.1	1.77e-04	0	44	0	321912832	15	4407
2026-01-23 01:37:41.26	3.61	15.85	-27.6	-29.4	15.1	0.00e+00	0	44	0	331350016	15	4404
2026-01-23 01:37:44.26	3.27	16.13	-27.6	-29.3	15.1	2.23e-04	0	44	0	340787200	15	4385
2026-01-23 01:37:47.27	2.92	16.42	-27.8	-29.8	14.9	2.34e-04	0	44	0	350224384	15	4538
2026-01-23 01:37:50.27	2.56	16.70	-27.8	-29.8	14.9	2.13e-04	0	44	0	359661568	15	4517
2026-01-23 01:37:53.28	2.19	16.99	-28.0	-29.8	14.8	1.81e-04	0	44	0	369098752	16	4402
2026-01-23 01:37:56.29	1.82	17.28	-28.1	-30.0	14.8	1.50e-06	0	44	0	378535936	16	4469
2026-01-23 01:37:59.31	1.44	17.58	-28.3	-30.3	14.5	1.52e-05	0	44	0	387973120	16	4561
2026-01-23 01:38:02.31	1.05	17.87	-28.2	-30.2	14.6	7.00e-07	0	44	0	397410304	16	4528
2026-01-23 01:38:05.33	0.65	18.17	-28.2	-30.2	14.6	0.00e+00	0	44	0	406847488	16	4517
2026-01-23 01:38:08.33	0.25	18.47	-27.7	-29.6	15.1	0.00e+00	0	44	0	416284672	15	4460
2026-01-23 01:38:11.34	359.84	18.78	-28.1	-29.9	14.8	0.00e+00	0	44	0	425721856	16	4440
2026-01-23 01:38:14.34	359.42	19.08	-28.2	-30.1	14.7	0.00e+00	0	44	0	435159040	16	4487
2026-01-23 01:38:17.36	358.99	19.39	-28.2	-30.1	14.7	7.00e-07	0	44	0	444596224	16	4498
2026-01-23 01:38:20.37	358.55	19.70	-28.0	-29.7	15.0	0.00e+00	0	44	0	454033408	16	4366
2026-01-23 01:38:23.38	358.10	20.01	-27.8	-29.7	15.1	0.00e+00	0	44	0	463470592	15	4496
2026-01-23 01:38:26.40	357.64	20.32	-27.7	-29.6	15.2	0.00e+00	0	44	0	472907776	15	4453
2026-01-23 01:38:29.42	357.17	20.64	-27.7	-29.5	15.2	0.00e+00	0	44	0	482344960	15	4441
2026-01-23 01:38:32.44	356.69	20.96	-28.2	-30.0	14.8	0.00e+00	0	44	0	491782144	16	4468
2026-01-23 01:38:35.44	356.21	21.28	-27.6	-29.2	15.4	0.00e+00	0	44	0	501219328	15	4347
2026-01-23 01:38:38.45	355.71	21.60	-27.5	-29.1	15.5	0.00e+00	0	44	0	510656512	15	4322
2026-01-23 01:38:41.47	355.20	21.92	-27.0	-28.4	16.1	0.00e+00	0	44	0	520093696	14	4248
2026-01-23 01:38:44.47	354.68	22.24	-27.1	-28.7	16.0	0.00e+00	0	44	0	529530880	14	4306
2026-01-23 01:38:47.46	354.15	22.57	-27.0	-28.3	16.2	0.00e+00	0	44	0	538968064	14	4222
2026-01-23 01:38:50.46	353.61	22.89	-26.8	-28.4	16.4	0.00e+00	0	45	0	548405248	13	4350
2026-01-23 01:38:53.48	353.06	23.22	-26.8	-28.4	16.4	0.00e+00	0	44	0	557842432	13	4350
2026-01-23 01:38:56.50	352.49	23.55	-26.9	-28.7	16.2	1.85e-03	0	44	0	567279616	13	4442
2026-01-23 01:38:59.51	351.91	23.88	-27.2	-28.8	16.0	0.00e+00	0	44	0	576716800	14	4335
2026-01-23 01:39:02.51	351.32	24.21	-27.1	-28.5	16.1	0.00e+00	0	44	0	585105408	14	4271
2026-01-23 01:39:05.51	350.72	24.55	-27.0	-28.5	16.2	2.33e-03	0	44	0	594542592	14	4248
2026-01-23 01:39:08.51	350.11	24.88	-27.2	-28.9	16.0	0.00e+00	0	44	0	603979776	14	4362
2026-01-23 01:39:11.52	349.48	25.21	-27.2	-28.9	15.9	3.05e-03	0	44	0	613416960	14	4379
2026-01-23 01:39:14.53	348.83	25.55	-27.1	-28.6	16.2	2.42e-03	0	44	0	622854144	14	4274
2026-01-23 01:39:17.54	348.18	25.88	-27.1	-28.6	16.1	1.61e-03	0	44	0	632291328	14	4278
2026-01-23 01:39:20.55	347.50	26.21	-27.1	-28.5	16.1	1.88e-04	0	44	0	641728512	14	4271
2026-01-23 01:39:23.55	346.82	26.55	-27.0	-28.3	16.3	0.00e+00	0	44	0	651165696	14	4208
2026-01-23 01:39:26.56	346.12	26.88	-27.4	-29.4	15.7	3.50e-05	0	44	0	660602880	14	4504
2026-01-23 01:39:29.58	345.40	27.21	-27.7	-29.4	15.4	0.00e+00	0	44	0	670040064	15	4394
2026-01-23 01:39:32.59	344.67	27.54	-27.8	-29.6	15.3	2.41e-03	0	44	0	679477248	15	4463
2026-01-23 01:39:35.59	343.93	27.87	-27.8	-29.6	15.4	0.00e+00	0	44	0	688914432	15	4465
2026-01-23 01:39:38.61	343.16	28.20	-27.6	-29.3	15.5	0.00e+00	0	44	0	698351616	15	4363
2026-01-23 01:39:41.60	342.39	28.53	-27.7	-29.5	15.4	0.00e+00	0	44	0	707788800	15	4435
2026-01-23 01:39:44.61	341.59	28.85	-27.9	-29.9	15.2	0.00e+00	0	44	0	717225984	15	4558
2026-01-23 01:39:47.63	340.78	29.17	-27.7	-29.5	15.4	0.00e+00	0	45	0	726663168	15	4430
2026-01-23 01:39:50.64	339.95	29.49	-27.7	-29.5	15.4	0.00e+00	0	44	0	736100352	15	4418
2026-01-23 01:39:53.63	339.12	29.81	-27.4	-28.7	15.9	0.00e+00	0	45	0	745537536	15	4201
2026-01-23 01:39:56.64	338.26	30.12	-27.2	-28.8	16.1	0.00e+00	0	44	0	754974720	14	4344
2026-01-23 01:39:59.66	337.38	30.43	-27.4	-29.3	15.8	0.00e+00	0	44	0	764411904	14	4492
2026-01-23 01:40:02.66	336.48	30.73	-27.4	-28.7	15.8	0.00e+00	0	44	0	773849088	15	4213
2026-01-23 01:40:05.67	335.57	31.03	-27.7	-29.4	15.5	0.00e+00	0	45	0	783286272	15	4396
2026-01-23 01:40:08.68	334.64	31.32	-27.5	-29.5	15.7	0.00e+00	0	44	0	792723456	14	4537
2026-01-23 01:40:11.69	333.70	31.61	-27.4	-29.3	15.8	0.00e+00	0	44	0	802160640	14	4495
2026-01-23 01:40:14.71	332.73	31.89	-27.8	-29.8	15.3	0.00e+00	0	45	0	811597824	15	4511
2026-01-23 01:40:17.73	331.75	32.16	-27.7	-29.6	15.4	0.00e+00	0	44	0	821035008	15	4437
2026-01-23 01:40:20.74	330.76	32.43	-27.8	-29.6	15.4	0.00e+00	0	45	0	830472192	15	4460
2026-01-23 01:40:23.74	329.75	32.69	-27.9	-29.9	15.2	0.00e+00	0	45	0	839909376	15	4553
2026-01-23 01:40:26.73	328.73	32.94	-28.3	-30.3	13.8	0.00e+00	0	44	0	849346560	16	4537
2026-01-23 01:40:29.73	327.68	33.18	-28.3	-30.4	14.7	0.00e+00	0	45	0	857735168	16	4553
2026-01-23 01:40:32.74	326.63	33.41	-28.2	-30.1	15.0	0.00e+00	0	44	0	867172352	16	4458
2026-01-23 01:40:35.74	325.55	33.64	-27.9	-29.5	15.3	0.00e+00	0	45	0	876609536	16	4303
2026-01-23 01:40:38.75	324.46	33.85	-27.8	-29.7	15.3	3.43e-03	0	45	0	886046720	15	4482
2026-01-23 01:40:41.75	323.36	34.06	-28.4	-30.5	14.8	7.00e-07	0	45	0	895483904	16	4583
2026-01-23 01:40:44.75	322.25	34.25	-28.4	-30.6	14.7	3.40e-03	0	45	0	904921088	16	4620
2026-01-23 01:40:47.75	321.12	34.43	-28.7	-30.7	14.4	3.20e-03	0	45	0	914358272	17	4531
2026-01-23 01:40:50.77	319.98	34.60	-28.7	-30.8	14.3	0.00e+00	0	44	0	923795456	17	4570
2026-01-23 01:40:53.78	318.82	34.75	-28.4	-30.6	14.6	3.20e-03	0	45	0	933232640	16	4624
2026-01-23 01:40:56.78	317.66	34.90	-28.1	-29.8	15.1	3.33e-03	0	45	0	942669824	16	4396
2026-01-23 01:40:59.80	316.48	35.03	-28.5	-30.3	14.6	2.79e-03	0	44	0	952107008	17	4410
2026-01-23 01:41:02.81	315.30	35.15	-28.7	-30.6	14.3	7.00e-07	0	45	0	961544192	17	4522
2026-01-23 01:41:05.82	314.10	35.25	-28.6	-30.4	14.4	2.37e-03	0	45	0	970981376	17	4464
2026-01-23 01:41:08.82	312.91	35.34	-28.4	-30.6	14.6	3.82e-03	0	45	0	980418560	16	4621
2026-01-23 01:41:11.83	311.70	35.42	-28.5	-30.2	14.6	0.00e+00	0	45	0	989855744	17	4399
2026-01-23 01:41:14.84	310.49	35.48	-28.8	-31.1	14.1	3.93e-03	0	45	0	999292928	17	4647
2026-01-23 01:41:17.85	309.28	35.53	-29.1	-31.2	13.7	3.00e-06	0	45	0	1008730112	18	4573
2026-01-23 01:41:20.86	308.06	35.56	-29.3	-31.7	13.5	1.44e-05	0	45	0	1018167296	18	4736
2026-01-23 01:41:23.87	306.84	35.58	-29.5	-31.5	13.2	1.29e-05	0	45	0	1027604480	19	4578
2026-01-23 01:41:26.89	305.61	35.58	-28.8	-30.9	14.2	7.00e-07	0	45	0	1037041664	17	4594
2026-01-23 01:41:29.89	304.39	35.57	-29.1	-31.2	13.8	3.00e-06	0	45	0	1046478848	18	4579
2026-01-23 01:41:32.90	303.17	35.55	-28.3	-30.3	14.8	7.00e-07	0	45	0	1055916032	16	4543
2026-01-23 01:41:35.90	301.96	35.50	-28.3	-30.3	14.8	0.00e+00	0	45	0	1065353216	16	4540
2026-01-23 01:41:38.92	300.74	35.45	-28.2	-30.0	15.0	0.00e+00	0	45	0	1074790400	16	4428
2026-01-23 01:41:41.93	299.53	35.38	-27.8	-29.7	15.3	7.00e-07	0	45	0	1084227584	15	4475
2026-01-23 01:41:44.94	298.33	35.29	-28.1	-29.9	15.1	0.00e+00	0	45	0	1093664768	16	4404
2026-01-23 01:41:47.96	297.13	35.19	-28.5	-30.7	14.6	1.50e-06	0	45	0	1103101952	16	4667
2026-01-23 01:41:50.97	295.94	35.08	-28.7	-30.7	14.3	7.00e-07	0	45	0	1111490560	17	4537
2026-01-23 01:41:53.98	294.76	34.96	-29.0	-31.4	13.9	3.80e-06	0	45	0	1121976320	17	4777
2026-01-23 01:41:56.99	293.58	34.82	-28.8	-30.6	14.1	2.20e-06	0	45	0	1131413504	18	4400
2026-01-23 01:42:00.01	292.42	34.66	-28.6	-30.5	14.4	3.00e-06	0	45	0	1139802112	17	4472
2026-01-23 01:42:03.03	291.27	34.50	-27.6	-29.2	15.5	0.00e+00	0	45	0	1150287872	15	4338
2026-01-23 01:42:06.04	290.13	34.32	-27.7	-29.5	15.3	0.00e+00	0	45	0	1158676480	15	4430
2026-01-23 01:42:09.05	289.00	34.13	-27.7	-29.8	15.0	0.00e+00	0	45	0	1168113664	15	4590
2026-01-23 01:42:12.06	287.89	33.93	-28.5	-30.3	14.4	2.44e-05	0	45	0	1177550848	17	4419
2026-01-23 01:42:15.08	286.79	33.72	-28.4	-30.5	14.6	0.00e+00	0	45	0	1186988032	16	4607
2026-01-23 01:42:18.08	285.71	33.50	-28.8	-31.1	14.0	3.00e-06	0	45	0	1196425216	17	4688
2026-01-23 01:42:21.09	284.64	33.27	-28.4	-30.0	14.7	0.00e+00	0	45	0	1205862400	17	4338
2026-01-23 01:42:24.10	283.59	33.03	-28.4	-30.5	14.7	0.00e+00	0	45	0	1215299584	16	4594
2026-01-23 01:42:27.10	282.55	32.79	-28.4	-30.2	14.4	7.00e-07	0	44	0	1224736768	17	4394
2026-01-23 01:42:30.11	281.53	32.53	-28.0	-29.6	15.1	0.00e+00	0	45	0	1234173952	16	4325
2026-01-23 01:42:33.12	280.53	32.26	-27.6	-29.4	15.3	4.66e-04	0	45	0	1243611136	15	4396
2026-01-23 01:42:36.13	279.54	31.99	-28.0	-30.2	14.9	3.65e-04	0	45	0	1253048320	15	4625
2026-01-23 01:42:39.13	278.57	31.71	-27.8	-29.3	15.3	6.56e-05	0	45	0	1262485504	16	4256
2026-01-23 01:42:42.14	277.62	31.43	-27.5	-29.1	15.5	0.00e+00	0	45	0	1271922688	15	4308
2026-01-23 01:42:45.16	276.67	31.13	-28.3	-30.4	14.6	0.00e+00	0	45	0	1281359872	16	4578
2026-01-23 01:42:48.16	275.76	30.84	-27.8	-29.1	15.3	0.00e+00	0	45	0	1290797056	16	4212
2026-01-23 01:42:51.17	274.85	30.54	-28.3	-30.3	14.6	0.00e+00	0	45	0	1300234240	16	4553
2026-01-23 01:42:54.17	273.97	30.23	-28.9	-31.4	13.7	4.50e-06	0	45	0	1309671424	17	4765
2026-01-23 01:42:57.18	273.10	29.92	-28.7	-30.2	14.1	5.30e-06	0	44	0	1319108608	18	4300
2026-01-23 01:43:00.19	272.24	29.60	-27.6	-28.8	15.5	0.00e+00	0	45	0	1328545792	16	4126
2026-01-23 01:43:03.19	271.41	29.29	-28.2	-30.1	14.8	0.00e+00	0	45	0	1337982976	16	4475
2026-01-23 01:43:06.20	270.59	28.96	-27.7	-29.4	15.2	0.00e+00	0	45	0	1347420160	15	4421
2026-01-23 01:43:09.21	269.78	28.64	-27.5	-29.1	15.4	0.00e+00	0	45	0	1356857344	15	4333
2026-01-23 01:43:12.22	269.00	28.31	-27.7	-29.5	15.2	0.00e+00	0	45	0	1366294528	15	4429
2026-01-23 01:43:15.22	268.23	27.98	-27.3	-28.6	15.6	0.00e+00	0	45	0	1375731712	15	4184
2026-01-23 01:43:18.24	267.47	27.65	-26.8	-28.1	16.2	0.00e+00	0	45	0	1385168896	14	4157
2026-01-23 01:43:21.26	266.73	27.32	-27.0	-28.4	16.0	0.00e+00	0	45	0	1394606080	14	4244
2026-01-23 01:43:24.27	266.00	26.99	-27.1	-28.7	15.9	0.00e+00	0	45	0	1404043264	14	4311
2026-01-23 01:43:27.29	265.29	26.65	-26.9	-28.3	16.1	0.00e+00	0	45	0	1413480448	14	4198
2026-01-23 01:43:30.30	264.59	26.32	-26.7	-28.2	16.4	0.00e+00	0	45	0	1422917632	13	4284
2026-01-23 01:43:33.31	263.91	25.98	-27.0	-28.5	15.9	0.00e+00	0	45	0	1432354816	14	4276
2026-01-23 01:43:36.32	263.25	25.64	-27.0	-28.5	15.9	0.00e+00	0	45	0	1440743424	14	4281
2026-01-23 01:43:39.32	262.60	25.31	-27.0	-28.4	16.0	0.00e+00	0	45	0	1450180608	14	4234
2026-01-23 01:43:42.33	261.96	24.97	-26.9	-28.7	16.0	0.00e+00	0	45	0	1459617792	13	4446
2026-01-23 01:43:45.34	261.34	24.64	-26.7	-28.3	16.2	0.00e+00	0	45	0	1469054976	13	4338
2026-01-23 01:43:48.35	260.72	24.31	-26.7	-28.4	16.2	0.00e+00	0	44	0	1478492160	13	4353
2026-01-23 01:43:51.37	260.12	23.97	-26.4	-27.7	16.5	0.00e+00	0	45	0	1487929344	13	4169
2026-01-23 01:43:54.39	259.54	23.64	-26.4	-28.2	16.5	0.00e+00	0	45	0	1497366528	12	4424
2026-01-23 01:43:57.40	258.96	23.31	-26.9	-28.8	15.9	0.00e+00	0	45	0	1506803712	13	4476
2026-01-23 01:44:00.40	258.40	22.98	-27.5	-29.2	15.2	8.30e-06	0	45	0	1516240896	15	4355
2026-01-23 01:44:03.40	257.86	22.65	-27.4	-29.5	15.3	7.60e-06	0	45	0	1525678080	14	4550
2026-01-23 01:44:06.41	257.32	22.32	-27.5	-29.6	15.2	4.54e-03	0	45	0	1535115264	14	4587
2026-01-23 01:44:09.42	256.79	21.99	-27.3	-29.2	15.4	4.50e-06	0	45	0	1544552448	14	4473
2026-01-23 01:44:12.43	256.28	21.67	-26.7	-28.4	16.1	3.40e-03	0	45	0	1553989632	13	4359
2026-01-23 01:44:15.43	255.77	21.35	-26.6	-28.1	16.3	9.10e-06	0	45	0	1563426816	13	4269
2026-01-23 01:44:18.44	255.28	21.03	-26.8	-28.4	16.1	7.25e-04	0	45	0	1572864000	13	4373
2026-01-23 01:44:21.45	254.79	20.71	-26.9	-28.7	15.9	3.34e-03	0	45	0	1582301184	13	4461
2026-01-23 01:44:24.46	254.32	20.39	-27.2	-28.9	15.5	4.29e-03	0	45	0	1591738368	14	4393
2026-01-23 01:44:27.48	253.86	20.07	-26.7	-28.2	16.1	4.51e-03	0	45	0	1601175552	13	4314
2026-01-23 01:44:30.49	253.40	19.76	-27.0	-28.6	15.7	0.00e+00	0	45	0	1610612736	14	4301
2026-01-23 01:44:33.49	252.96	19.45	-27.2	-29.0	15.5	5.33e-03	0	45	0	1620049920	14	4411
2026-01-23 01:44:36.50	252.52	19.14	-27.1	-28.7	15.6	0.00e+00	0	44	0	1629487104	14	4336
2026-01-23 01:44:39.50	252.09	18.84	-26.7	-28.4	16.0	0.00e+00	0	45	0	1638924288	13	4358
2026-01-23 01:44:42.51	251.68	18.53	-26.9	-28.9	15.7	5.42e-03	0	45	0	1648361472	13	4501
2026-01-23 01:44:45.53	251.26	18.23	-27.3	-29.2	15.3	0.00e+00	0	45	0	1657798656	14	4492
2026-01-23 01:44:48.54	250.86	17.93	-27.6	-29.4	14.9	0.00e+00	0	44	0	1667235840	15	4426
2026-01-23 01:44:51.55	250.47	17.63	-27.6	-29.4	14.9	0.00e+00	0	45	0	1676673024	15	4415
2026-01-23 01:44:54.57	250.08	17.33	-27.2	-29.0	15.3	0.00e+00	0	45	0	1686110208	14	4435
2026-01-23 01:44:57.57	249.70	17.04	-27.2	-29.0	15.4	0.00e+00	0	45	0	1695547392	14	4424
2026-01-23 01:45:00.58	249.33	16.75	-27.3	-29.2	15.3	0.00e+00	0	45	0	1704984576	14	4477
2026-01-23 01:45:03.60	248.97	16.45	-27.5	-29.3	14.9	0.00e+00	0	44	0	1714421760	15	4391
2026-01-23 01:45:06.60	248.61	16.17	-27.7	-29.6	14.7	0.00e+00	0	45	0	1723858944	15	4501
2026-01-23 01:45:09.61	248.26	15.88	-27.8	-29.9	14.5	7.00e-07	0	45	0	1732247552	15	4585
2026-01-23 01:45:12.60	247.92	15.60	-27.6	-29.4	14.8	0.00e+00	0	45	0	1741684736	15	4431
2026-01-23 01:45:15.61	247.58	15.32	-27.7	-29.7	14.6	0.00e+00	0	45	0	1751121920	15	4531
2026-01-23 01:45:18.63	247.25	15.04	-27.8	-29.8	14.5	7.00e-07	0	45	0	1760559104	15	4556
2026-01-23 01:45:21.65	246.92	14.76	-28.0	-30.3	14.2	7.00e-07	0	45	0	1769996288	15	4702
2026-01-23 01:45:24.67	246.60	14.49	-27.9	-30.2	14.3	7.00e-07	0	45	0	1779433472	15	4666
2026-01-23 01:45:27.68	246.29	14.22	-27.8	-30.0	14.4	7.00e-07	0	45	0	1788870656	15	4613
2026-01-23 01:45:30.68	245.99	13.95	-27.9	-30.2	14.2	7.00e-07	0	45	0	1798307840	15	4667
2026-01-23 01:45:33.70	245.68	13.68	-28.1	-30.1	14.1	1.50e-06	0	45	0	1807745024	16	4535
2026-01-23 01:45:36.70	245.39	13.42	-27.3	-29.5	13.6	2.20e-06	0	45	0	1817182208	16	4615
2026-01-23 01:45:39.70	245.10	13.15	-28.0	-30.3	13.7	3.00e-06	0	45	0	1826619392	15	4719
2026-01-23 01:45:42.70	244.82	12.89	-28.5	-31.0	13.5	4.50e-06	0	45	0	1836056576	16	4815
2026-01-23 01:45:45.70	244.54	12.63	-28.3	-30.6	13.8	4.30e-03	0	45	0	1845493760	16	4696
2026-01-23 01:45:48.71	244.26	12.38	-28.3	-30.7	13.7	5.30e-06	0	45	0	1854930944	16	4705
2026-01-23 01:45:51.72	243.99	12.12	-28.3	-30.2	13.7	1.14e-05	0	45	0	1864368128	17	4465
2026-01-23 01:45:54.73	243.73	11.87	-28.5	-31.0	13.5	2.99e-03	0	45	0	1873805312	16	4814
2026-01-23 01:45:57.74	243.47	11.62	-28.8	-31.3	13.0	3.85e-03	0	45	0	1883242496	17	4812
2026-01-23 01:46:00.75	243.21	11.37	-28.8	-31.2	13.0	4.07e-03	0	45	0	1892679680	17	4792
2026-01-23 01:46:03.76	242.96	11.12	-28.6	-30.8	13.2	2.09e-03	0	45	0	1902116864	17	4645
2026-01-23 01:46:06.77	242.71	10.88	-28.5	-30.6	13.4	3.57e-03	0	45	0	1911554048	17	4578
2026-01-23 01:46:09.79	242.47	10.63	-28.4	-30.8	13.5	3.64e-03	0	45	0	1920991232	16	4761
2026-01-23 01:46:12.80	242.23	10.39	-28.3	-30.7	13.5	3.86e-03	0	45	0	1930428416	16	4729
2026-01-23 01:46:15.81	241.99	10.15	-29.0	-31.8	12.5	3.72e-03	0	45	0	1939865600	17	4984
2026-01-23 01:46:18.82	241.76	9.91	-28.8	-31.4	12.7	5.49e-05	0	45	0	1949302784	17	4857
2026-01-23 01:46:21.83	241.54	9.68	-28.8	-31.5	12.7	3.94e-03	0	45	0	1958739968	17	4883
2026-01-23 01:46:24.85	241.31	9.44	-28.8	-31.3	12.8	5.03e-05	0	45	0	1968177152	17	4817
2026-01-23 01:46:27.86	241.09	9.21	-29.0	-31.8	12.4	1.25e-04	0	45	0	1977614336	17	5006
2026-01-23 01:46:30.87	240.88	8.98	-29.3	-32.1	11.9	3.29e-04	0	44	0	1987051520	18	4994
2026-01-23 01:46:33.88	240.66	8.75	-28.7	-31.3	12.7	9.46e-05	0	44	0	1996488704	17	4818
2026-01-23 01:46:36.89	240.45	8.52	-28.7	-31.2	12.7	8.39e-05	0	45	0	2005925888	17	4796
2026-01-23 01:46:39.90	240.25	8.30	-29.0	-31.9	12.3	1.11e-04	0	45	0	2015363072	17	5030
2026-01-23 01:46:42.91	240.04	8.07	-28.7	-31.3	12.7	7.47e-05	0	44	0	2024800256	17	4822
2026-01-23 01:46:45.93	239.84	7.85	-28.7	-31.3	12.6	9.91e-05	0	44	0	2034237440	17	4839
2026-01-23 01:46:48.93	239.65	7.63	-28.7	-31.2	12.7	7.55e-05	0	45	0	2043674624	17	4796
2026-01-23 01:46:51.93	239.46	7.41	-28.8	-31.5	12.5	9.46e-05	0	44	0	2053111808	17	4907
2026-01-23 01:46:54.94	239.27	7.19	-28.8	-31.5	12.4	1.12e-04	0	44	0	2061500416	17	4914

#Closed at: 2026-01-23 01:46:57
#Recorded file [2066 MB]: D:/data/31010_260123_043554.dat