passes_logs/2026/01/23/R2M6_AANII_01/R2M6_AANII_01__20260123_233637_NOAA_21_JPSS-2_rec.log

#Pass ID: 20260123_233637_NOAA 21 (JPSS-2)
#Satellite: NOAA 21 (JPSS-2)
#Configuration: NOAA 21
#almurnet v.1.7.20240730
#Start time: 2026-01-23 23:36:36

#Version: 2.2.20231116
#Station: R2M6_AANII_01
#Location: 30.233357 lon 59.946436 lat
#TLE: 1 54234U 22150A   26022.90705406  .00000208  00000+0  11937-3 0  9994
#TLE: 2 54234  98.7507 323.7115 0000669 231.3756 128.7360 14.19537879165931

#Time	Az	El	Level	Level2	SNR	BER	BlckErr	Temp	State	Recorded	gain1	gain2
2026-01-23 23:36:36.66	22.39	6.94	-29.7	-34.0	4.9	1.37e+00	0	41	0	0	19	5850
2026-01-23 23:36:39.67	22.53	7.17	-30.2	-34.2	9.2	2.47e-02	0	41	102	1048576	20	5703
2026-01-23 23:36:42.68	22.66	7.39	-30.0	-33.6	9.7	1.44e-02	0	42	102	1048576	20	5421
2026-01-23 23:36:45.69	22.80	7.62	-30.0	-33.6	9.7	1.31e-02	0	42	102	1048576	20	5425
2026-01-23 23:36:48.70	22.94	7.85	-30.1	-33.8	9.6	2.00e-02	0	42	102	1048576	20	5503
2026-01-23 23:36:51.71	23.08	8.08	-29.4	-32.6	11.2	4.64e-03	0	42	102	1048576	18	5233
2026-01-23 23:36:54.72	23.23	8.31	-29.2	-32.1	11.6	3.63e-03	0	42	102	1048576	18	5024
2026-01-23 23:36:57.72	23.37	8.54	-29.1	-32.0	11.7	2.70e-03	0	42	102	1048576	18	4980
2026-01-23 23:37:00.74	23.52	8.78	-29.2	-32.1	11.6	2.07e-03	0	42	102	1048576	18	5031
2026-01-23 23:37:03.75	23.67	9.02	-28.5	-30.8	12.7	8.39e-05	0	42	102	1048576	17	4709
2026-01-23 23:37:06.76	23.82	9.26	-28.3	-30.7	13.1	2.54e-04	0	42	102	1048576	16	4787
2026-01-23 23:37:09.78	23.98	9.50	-28.3	-30.9	13.0	3.81e-05	0	42	102	1048576	16	4818
2026-01-23 23:37:12.79	24.14	9.74	-28.1	-30.3	13.4	1.75e-05	0	42	102	1048576	16	4647
2026-01-23 23:37:15.81	24.30	9.99	-27.8	-30.2	13.6	1.83e-05	0	43	102	1048576	15	4742
2026-01-23 23:37:18.81	24.46	10.24	-27.6	-29.6	14.0	1.50e-06	0	43	102	1048576	15	4532
2026-01-23 23:37:21.81	24.62	10.49	-27.4	-29.2	14.2	1.50e-06	0	43	102	1048576	15	4432
2026-01-23 23:37:24.82	24.79	10.74	-27.5	-29.8	14.2	0.00e+00	0	43	102	1048576	14	4709
2026-01-23 23:37:27.85	24.96	11.00	-27.7	-29.8	13.9	6.10e-06	0	43	102	1048576	15	4585
2026-01-23 23:37:30.86	25.13	11.26	-27.6	-29.6	14.1	7.00e-07	0	43	102	1048576	15	4528
2026-01-23 23:37:33.88	25.31	11.52	-27.5	-29.5	14.1	1.50e-06	0	43	102	1048576	15	4504
2026-01-23 23:37:36.89	25.49	11.79	-27.3	-29.4	12.7	0.00e+00	0	43	102	1048576	14	4576
2026-01-23 23:37:39.90	25.67	12.06	-27.2	-29.2	14.6	0.00e+00	0	43	102	1048576	14	4539
2026-01-23 23:37:42.91	25.86	12.33	-27.4	-29.6	14.4	1.50e-06	0	43	102	1048576	14	4638
2026-01-23 23:37:45.93	26.04	12.60	-27.4	-29.7	14.3	3.40e-03	0	43	102	1048576	14	4675
2026-01-23 23:37:48.94	26.23	12.87	-27.4	-29.2	14.3	1.50e-06	0	43	102	1048576	15	4417
2026-01-23 23:37:51.95	26.43	13.15	-27.4	-29.7	14.4	3.45e-03	0	43	102	1048576	14	4679
2026-01-23 23:37:54.96	26.63	13.43	-27.4	-29.6	14.5	3.47e-03	0	43	102	1048576	14	4642
2026-01-23 23:37:57.97	26.83	13.72	-27.2	-29.2	14.7	3.53e-03	0	43	102	1048576	14	4520
2026-01-23 23:38:00.98	27.03	14.00	-27.3	-29.4	14.6	3.54e-03	0	43	102	1048576	14	4579
2026-01-23 23:38:03.99	27.24	14.29	-27.3	-29.3	13.7	7.00e-07	0	43	102	1048576	14	4562
2026-01-23 23:38:07.00	27.46	14.59	-27.3	-29.3	14.7	3.37e-03	0	43	102	1048576	14	4543
2026-01-23 23:38:10.01	27.67	14.88	-27.2	-29.1	14.8	3.35e-03	0	43	102	1048576	14	4494
2026-01-23 23:38:13.02	27.89	15.18	-27.2	-29.0	14.8	7.00e-07	0	43	102	1048576	14	4470
2026-01-23 23:38:16.04	28.12	15.49	-27.3	-29.4	14.7	9.46e-05	0	43	102	1048576	14	4566
2026-01-23 23:38:19.04	28.35	15.79	-27.4	-29.7	14.5	1.59e-04	0	43	102	1048576	14	4653
2026-01-23 23:38:22.05	28.58	16.11	-27.5	-29.4	14.4	0.00e+00	0	43	102	1048576	15	4458
2026-01-23 23:38:25.07	28.82	16.42	-27.6	-29.6	14.3	4.23e-04	0	43	102	1048576	15	4526
2026-01-23 23:38:28.09	29.07	16.74	-27.5	-29.2	14.5	7.00e-07	0	43	102	1048576	15	4391
2026-01-23 23:38:31.08	29.31	17.06	-27.7	-29.8	14.2	1.40e-03	0	43	102	1048576	15	4587
2026-01-23 23:38:34.10	29.57	17.38	-27.5	-29.4	14.5	1.18e-03	0	43	102	1048576	15	4444
2026-01-23 23:38:37.11	29.83	17.71	-27.5	-29.3	14.5	8.06e-04	0	43	102	1048576	15	4421
2026-01-23 23:38:40.12	30.09	18.05	-27.5	-29.3	14.6	2.86e-04	0	43	102	1048576	15	4411
2026-01-23 23:38:43.13	30.36	18.38	-27.4	-29.5	14.7	0.00e+00	0	44	102	1048576	14	4589
2026-01-23 23:38:46.14	30.64	18.72	-27.2	-29.2	14.9	1.04e-04	0	43	102	1048576	14	4500
2026-01-23 23:38:49.14	30.92	19.07	-27.1	-28.9	15.1	0.00e+00	0	43	102	1048576	14	4414
2026-01-23 23:38:52.16	31.21	19.42	-27.1	-28.8	15.2	0.00e+00	0	44	102	1048576	14	4383
2026-01-23 23:38:55.19	31.50	19.77	-26.7	-28.4	15.6	0.00e+00	0	44	102	1048576	13	4399
2026-01-23 23:38:58.20	31.80	20.13	-26.7	-28.5	15.6	0.00e+00	0	44	102	1048576	13	4414
2026-01-23 23:39:01.22	32.11	20.50	-26.7	-28.4	15.7	0.00e+00	0	43	102	1048576	13	4398
2026-01-23 23:39:04.23	32.43	20.86	-26.5	-28.1	15.9	0.00e+00	0	44	102	1048576	13	4291
2026-01-23 23:39:07.24	32.75	21.23	-26.4	-28.2	16.1	0.00e+00	0	44	102	1048576	12	4443
2026-01-23 23:39:10.25	33.08	21.61	-26.3	-28.0	16.2	0.00e+00	0	44	102	1048576	12	4395
2026-01-23 23:39:13.27	33.42	21.99	-26.8	-28.6	15.6	2.95e-03	0	43	102	1048576	13	4424
2026-01-23 23:39:16.28	33.76	22.38	-26.4	-28.3	16.1	0.00e+00	0	44	102	1048576	12	4473
2026-01-23 23:39:19.29	34.12	22.77	-26.7	-28.4	15.7	3.06e-03	0	44	102	1048576	13	4389
2026-01-23 23:39:22.30	34.48	23.17	-26.3	-27.9	16.3	2.59e-03	0	43	102	1048576	12	4363
2026-01-23 23:39:25.31	34.85	23.57	-26.2	-27.8	16.4	2.09e-03	0	44	102	1048576	12	4336
2026-01-23 23:39:28.32	35.23	23.97	-26.3	-28.1	16.2	1.96e-03	0	44	102	1048576	12	4393
2026-01-23 23:39:31.35	35.62	24.39	-26.3	-28.0	16.3	0.00e+00	0	44	102	1048576	12	4385
2026-01-23 23:39:34.36	36.02	24.80	-26.2	-27.8	16.4	2.18e-03	0	44	102	1048576	12	4336
2026-01-23 23:39:37.36	36.43	25.22	-26.2	-27.9	16.4	0.00e+00	0	44	102	1048576	12	4345
2026-01-23 23:39:40.38	36.86	25.65	-26.4	-28.2	16.2	0.00e+00	0	44	102	1048576	12	4424
2026-01-23 23:39:43.38	37.29	26.08	-26.7	-28.3	15.9	0.00e+00	0	44	102	1048576	13	4362
2026-01-23 23:39:46.39	37.73	26.52	-26.8	-28.6	15.7	0.00e+00	0	44	102	1048576	13	4427
2026-01-23 23:39:49.41	38.19	26.97	-26.8	-28.6	15.8	0.00e+00	0	44	102	1048576	13	4427
2026-01-23 23:39:52.42	38.66	27.41	-26.9	-28.8	15.6	0.00e+00	0	44	102	1048576	13	4489
2026-01-23 23:39:55.43	39.15	27.87	-27.1	-28.8	15.4	0.00e+00	0	44	102	1048576	14	4358
2026-01-23 23:39:58.44	39.64	28.33	-26.9	-28.8	15.7	0.00e+00	0	44	102	1048576	13	4483
2026-01-23 23:40:01.45	40.15	28.79	-27.0	-29.0	15.5	0.00e+00	0	44	102	1048576	13	4546
2026-01-23 23:40:04.47	40.68	29.26	-27.1	-28.7	15.5	0.00e+00	0	44	102	1048576	14	4335
2026-01-23 23:40:07.49	41.22	29.74	-27.0	-28.6	15.6	0.00e+00	0	44	102	1048576	14	4320
2026-01-23 23:40:10.50	41.78	30.22	-27.0	-28.6	15.5	0.00e+00	0	44	102	1048576	14	4320
2026-01-23 23:40:13.51	42.35	30.71	-27.0	-28.5	15.6	0.00e+00	0	44	102	1048576	14	4277
2026-01-23 23:40:16.51	42.94	31.20	-26.9	-28.3	15.8	0.00e+00	0	44	102	1048576	14	4220
2026-01-23 23:40:19.52	43.55	31.69	-26.7	-27.9	16.0	0.00e+00	0	44	102	1048576	14	4132
2026-01-23 23:40:22.54	44.18	32.20	-26.8	-28.2	15.8	0.00e+00	0	44	102	1048576	14	4193
2026-01-23 23:40:25.56	44.82	32.70	-26.8	-28.2	15.9	0.00e+00	0	44	102	1048576	14	4194
2026-01-23 23:40:28.56	45.49	33.21	-27.0	-28.4	15.7	0.00e+00	0	44	102	1048576	14	4256
2026-01-23 23:40:31.57	46.18	33.73	-27.1	-28.7	15.6	0.00e+00	0	44	102	1048576	14	4331
2026-01-23 23:40:34.59	46.89	34.25	-27.5	-29.6	15.1	0.00e+00	0	44	102	1048576	14	4584
2026-01-23 23:40:37.61	47.62	34.77	-27.7	-29.6	14.8	0.00e+00	0	44	102	1048576	15	4494
2026-01-23 23:40:40.62	48.38	35.30	-27.8	-29.8	14.7	0.00e+00	0	44	102	1048576	15	4557
2026-01-23 23:40:43.64	49.16	35.83	-27.8	-29.9	14.7	0.00e+00	0	44	102	1048576	15	4575
2026-01-23 23:40:46.66	49.97	36.37	-28.3	-30.4	14.3	7.00e-07	0	44	102	1048576	16	4588
2026-01-23 23:40:49.66	50.80	36.90	-28.9	-31.4	13.4	1.22e-05	0	44	102	1048576	17	4798
2026-01-23 23:40:52.68	51.66	37.44	-29.1	-31.4	13.1	2.74e-05	0	44	102	1048576	18	4672
2026-01-23 23:40:55.69	52.54	37.98	-29.0	-31.1	13.4	2.05e-05	0	44	102	1048576	18	4573
2026-01-23 23:40:58.70	53.46	38.52	-29.2	-31.6	13.0	3.05e-05	0	44	102	1048576	18	4731
2026-01-23 23:41:01.70	54.41	39.06	-29.4	-31.7	12.7	1.17e-04	0	44	102	1048576	19	4667
2026-01-23 23:41:04.70	55.38	39.60	-28.8	-30.1	13.7	1.44e-05	0	44	102	1048576	19	4192
2026-01-23 23:41:07.71	56.39	40.14	-28.9	-31.0	13.5	9.10e-06	0	44	102	1048576	18	4548
2026-01-23 23:41:10.72	57.44	40.67	-29.3	-31.8	12.9	5.41e-05	0	44	102	1048576	18	4823
2026-01-23 23:41:13.73	58.52	41.21	-29.3	-31.5	12.8	6.17e-05	0	44	102	1048576	19	4607
2026-01-23 23:41:16.74	59.63	41.74	-29.2	-31.0	13.1	4.34e-05	0	44	102	1048576	19	4459
2026-01-23 23:41:19.75	60.79	42.27	-29.1	-30.9	13.2	3.66e-05	0	44	102	1048576	19	4416
2026-01-23 23:41:22.77	61.98	42.79	-29.1	-30.8	13.3	2.08e-04	0	44	102	1048576	19	4392
2026-01-23 23:41:25.79	63.21	43.30	-29.1	-30.7	13.3	2.82e-05	0	44	102	1048576	19	4365
2026-01-23 23:41:28.80	64.48	43.81	-29.1	-30.9	13.2	1.98e-05	0	44	102	1048576	19	4414
2026-01-23 23:41:31.81	65.79	44.31	-29.5	-31.7	12.7	5.18e-05	0	44	102	1048576	19	4680
2026-01-23 23:41:34.82	67.14	44.79	-29.8	-32.7	12.1	2.46e-04	0	44	102	1048576	19	4993
2026-01-23 23:41:37.83	68.53	45.27	-29.6	-32.1	12.6	1.04e-04	0	44	102	1048576	19	4779
2026-01-23 23:41:40.85	69.97	45.73	-29.8	-32.6	12.2	1.83e-04	0	44	102	1048576	19	4953
2026-01-23 23:41:43.87	71.44	46.18	-29.3	-31.3	13.1	5.34e-05	0	44	102	1048576	19	4546
2026-01-23 23:41:46.88	72.96	46.61	-29.3	-31.3	13.1	3.20e-05	0	44	102	1048576	19	4542
2026-01-23 23:41:49.89	74.51	47.02	-28.9	-30.4	13.5	6.56e-05	0	44	102	1048576	19	4258
2026-01-23 23:41:52.90	76.11	47.42	-28.9	-30.8	13.6	4.11e-05	0	44	102	1048576	18	4477
2026-01-23 23:41:55.91	77.75	47.79	-29.0	-31.2	13.5	1.14e-05	0	44	102	1048576	18	4596
2026-01-23 23:41:58.92	79.42	48.14	-29.2	-31.5	13.3	2.67e-05	0	44	102	1048576	18	4702
2026-01-23 23:42:01.94	81.14	48.47	-29.2	-31.5	13.3	7.93e-05	0	44	102	1048576	18	4700
2026-01-23 23:42:04.96	82.89	48.77	-28.9	-30.9	13.6	1.44e-05	0	44	102	1048576	18	4510
2026-01-23 23:42:07.98	84.67	49.05	-28.9	-30.9	13.6	4.50e-06	0	44	102	1048576	18	4514
2026-01-23 23:42:10.99	86.48	49.29	-29.0	-31.0	13.6	9.90e-06	0	44	102	1048576	18	4549
2026-01-23 23:42:13.98	88.31	49.51	-28.8	-30.5	13.9	9.10e-06	0	44	102	1048576	18	4379
2026-01-23 23:42:17.00	90.18	49.70	-28.7	-30.2	14.1	2.20e-06	0	44	102	1048576	18	4306
2026-01-23 23:42:20.01	92.06	49.85	-28.7	-30.3	14.1	4.50e-06	0	44	102	1048576	18	4319
2026-01-23 23:42:23.02	93.96	49.98	-28.7	-30.2	14.1	2.20e-06	0	44	102	1048576	18	4308
2026-01-23 23:42:26.04	95.88	50.07	-28.7	-30.2	14.1	0.00e+00	0	44	102	1048576	18	4307
2026-01-23 23:42:29.04	97.80	50.12	-28.6	-30.2	14.2	1.50e-06	0	44	102	1048576	18	4286
2026-01-23 23:42:32.06	99.73	50.15	-28.5	-29.8	14.3	7.00e-07	0	44	102	1048576	18	4178
2026-01-23 23:42:35.07	101.66	50.14	-29.1	-31.2	13.5	1.14e-05	0	44	102	1048576	18	4607
2026-01-23 23:42:38.08	103.59	50.10	-28.5	-30.0	14.2	1.50e-06	0	44	102	1048576	18	4240
2026-01-23 23:42:41.09	105.50	50.02	-28.7	-30.3	14.1	7.00e-07	0	44	102	1048576	18	4335
2026-01-23 23:42:44.10	107.41	49.91	-28.5	-30.2	14.4	0.00e+00	0	44	102	1048576	17	4420
2026-01-23 23:42:47.11	109.30	49.77	-28.4	-30.0	14.5	0.00e+00	0	44	102	1048576	17	4356
2026-01-23 23:42:50.11	111.17	49.59	-28.9	-30.8	13.8	9.10e-06	0	44	102	1048576	18	4467
2026-01-23 23:42:53.12	113.02	49.39	-29.2	-31.6	13.3	1.14e-05	0	44	102	1048576	18	4720
2026-01-23 23:42:56.11	114.83	49.15	-29.4	-31.5	13.0	3.20e-05	0	44	102	1048576	19	4595
2026-01-23 23:42:59.11	116.62	48.89	-28.9	-30.3	13.8	9.10e-06	0	44	102	1048576	19	4221
2026-01-23 23:43:02.11	118.38	48.60	-29.5	-31.7	13.0	3.89e-05	0	44	102	1048576	19	4659
2026-01-23 23:43:05.13	120.12	48.28	-28.6	-30.0	14.2	3.80e-06	0	44	102	1048576	18	4248
2026-01-23 23:43:08.15	121.81	47.94	-29.3	-31.8	13.2	2.51e-05	0	44	102	1048576	18	4796
2026-01-23 23:43:11.17	123.48	47.58	-29.8	-32.6	12.4	1.84e-04	0	44	102	1048576	19	4961
2026-01-23 23:43:14.18	125.09	47.19	-29.7	-32.3	12.5	8.77e-05	0	44	102	1048576	19	4849
2026-01-23 23:43:17.19	126.67	46.78	-29.8	-32.6	12.4	1.83e-04	0	44	102	1048576	19	4955
2026-01-23 23:43:20.20	128.21	46.36	-29.8	-32.6	12.4	2.30e-04	0	44	102	1048576	19	4936
2026-01-23 23:43:23.21	129.70	45.92	-29.2	-31.0	13.3	1.60e-05	0	44	102	1048576	19	4443
2026-01-23 23:43:26.23	131.16	45.46	-29.5	-31.9	12.8	7.17e-05	0	44	102	1048576	19	4715
2026-01-23 23:43:29.24	132.57	44.99	-29.3	-31.4	13.1	1.23e-04	0	44	102	1048576	19	4555
2026-01-23 23:43:32.25	133.94	44.51	-29.4	-31.6	12.9	5.03e-05	0	44	102	1048576	19	4625
2026-01-23 23:43:35.27	135.27	44.01	-29.8	-32.6	12.3	6.23e-04	0	44	102	1048576	19	4954
2026-01-23 23:43:38.28	136.56	43.50	-29.2	-31.5	13.3	1.75e-05	0	44	102	1048576	18	4702
2026-01-23 23:43:41.30	137.82	42.99	-29.5	-31.8	12.8	5.03e-05	0	44	102	1048576	19	4691
2026-01-23 23:43:44.32	139.03	42.47	-29.0	-31.0	13.6	1.22e-05	0	44	102	1048576	18	4550
2026-01-23 23:43:47.32	140.20	41.94	-28.7	-30.8	14.0	6.10e-06	0	44	102	1048576	17	4578
2026-01-23 23:43:50.34	141.34	41.41	-29.3	-31.9	13.0	3.12e-05	0	44	102	1048576	18	4842
2026-01-23 23:43:53.36	142.44	40.87	-29.2	-31.7	13.1	2.67e-05	0	44	102	1048576	18	4763
2026-01-23 23:43:56.37	143.50	40.33	-29.6	-32.0	12.6	8.62e-05	0	44	102	1048576	19	4757
2026-01-23 23:43:59.39	144.53	39.79	-30.2	-33.0	11.5	8.62e-04	0	44	102	1048576	20	5022
2026-01-23 23:44:02.41	145.53	39.24	-29.6	-32.0	12.6	1.43e-04	0	44	102	1048576	19	4764
2026-01-23 23:44:05.42	146.49	38.70	-29.6	-32.1	12.6	6.17e-05	0	44	102	1048576	19	4782
2026-01-23 23:44:08.43	147.42	38.16	-28.7	-30.3	13.9	8.30e-06	0	44	102	1048576	18	4350
2026-01-23 23:44:11.45	148.33	37.61	-29.0	-31.5	13.5	8.30e-06	0	44	102	1048576	17	4835
2026-01-23 23:44:14.47	149.20	37.07	-28.4	-30.1	14.3	3.00e-06	0	44	102	1048576	17	4385
2026-01-23 23:44:17.47	150.05	36.53	-28.3	-30.4	14.4	3.00e-06	0	44	102	1048576	16	4597
2026-01-23 23:44:20.48	150.86	35.99	-28.7	-30.8	13.9	5.30e-06	0	44	102	1048576	17	4601
2026-01-23 23:44:23.48	151.65	35.46	-28.3	-30.0	14.4	7.00e-07	0	44	102	1048576	17	4347
2026-01-23 23:44:26.49	152.42	34.93	-28.4	-30.7	14.2	2.20e-06	0	44	102	1048576	16	4687
2026-01-23 23:44:29.50	153.16	34.40	-28.7	-31.0	13.7	4.50e-06	0	44	102	1048576	17	4670
2026-01-23 23:44:32.51	153.88	33.88	-28.2	-29.7	14.5	7.00e-07	0	44	102	1048576	17	4280
2026-01-23 23:44:35.52	154.58	33.36	-27.8	-29.3	15.0	0.00e+00	0	44	102	1048576	16	4268
2026-01-23 23:44:38.53	155.25	32.84	-27.7	-29.1	15.1	0.00e+00	0	44	102	1048576	16	4212
2026-01-23 23:44:41.53	155.91	32.33	-27.0	-28.5	15.9	0.00e+00	0	44	102	1048576	14	4261
2026-01-23 23:44:44.55	156.54	31.82	-27.4	-28.9	15.4	0.00e+00	0	44	102	1048576	15	4271
2026-01-23 23:44:47.55	157.16	31.32	-27.3	-29.2	15.4	0.00e+00	0	44	102	1048576	14	4483
2026-01-23 23:44:50.56	157.76	30.83	-27.2	-29.0	15.5	0.00e+00	0	44	102	1048576	14	4423
2026-01-23 23:44:53.57	158.34	30.34	-27.5	-29.0	15.2	0.00e+00	0	44	102	1048576	15	4322
2026-01-23 23:44:56.59	158.90	29.85	-27.5	-29.1	15.2	0.00e+00	0	44	102	1048576	15	4328
2026-01-23 23:44:59.59	159.45	29.37	-27.8	-29.9	14.7	0.00e+00	0	44	102	1048576	15	4565
2026-01-23 23:45:02.61	159.98	28.89	-27.3	-28.7	15.4	0.00e+00	0	44	102	1048576	15	4245
2026-01-23 23:45:05.61	160.50	28.43	-26.7	-28.3	16.1	0.00e+00	0	44	102	1048576	13	4331
2026-01-23 23:45:08.62	161.00	27.96	-26.8	-28.7	15.9	0.00e+00	0	44	102	1048576	13	4440
2026-01-23 23:45:11.63	161.49	27.50	-26.9	-28.8	15.8	0.00e+00	0	44	102	1048576	13	4480
2026-01-23 23:45:14.64	161.97	27.05	-27.0	-28.9	15.7	0.00e+00	0	44	102	1048576	13	4509
2026-01-23 23:45:17.66	162.43	26.60	-27.2	-28.9	15.5	0.00e+00	0	44	102	1048576	14	4394
2026-01-23 23:45:20.68	162.88	26.15	-26.8	-28.7	15.8	0.00e+00	0	44	102	1048576	13	4458
2026-01-23 23:45:23.69	163.32	25.72	-26.7	-28.5	16.0	0.00e+00	0	44	102	1048576	13	4395
2026-01-23 23:45:26.69	163.74	25.29	-26.7	-28.4	16.0	0.00e+00	0	44	102	1048576	13	4364
2026-01-23 23:45:29.70	164.16	24.86	-26.7	-28.3	16.1	0.00e+00	0	44	102	1048576	13	4345
2026-01-23 23:45:32.71	164.56	24.44	-26.8	-28.6	15.9	0.00e+00	0	44	102	1048576	13	4431
2026-01-23 23:45:35.73	164.96	24.02	-26.7	-28.4	16.0	0.00e+00	0	44	102	1048576	13	4366
2026-01-23 23:45:38.73	165.34	23.61	-26.6	-28.3	16.0	0.00e+00	0	44	102	1048576	13	4338
2026-01-23 23:45:41.75	165.72	23.21	-26.6	-28.2	16.1	0.00e+00	0	44	102	1048576	13	4318
2026-01-23 23:45:44.76	166.09	22.81	-26.6	-28.2	16.1	0.00e+00	0	44	102	1048576	13	4310
2026-01-23 23:45:47.77	166.44	22.41	-26.7	-28.5	15.9	0.00e+00	0	44	102	1048576	13	4403
2026-01-23 23:45:50.79	166.79	22.02	-26.8	-28.6	15.8	0.00e+00	0	44	102	1048576	13	4437
2026-01-23 23:45:53.80	167.13	21.63	-27.0	-28.6	15.6	0.00e+00	0	44	102	1048576	14	4318
2026-01-23 23:45:56.82	167.46	21.25	-26.9	-28.4	15.7	0.00e+00	0	44	102	1048576	14	4274
2026-01-23 23:45:59.83	167.79	20.88	-27.0	-28.6	15.5	0.00e+00	0	44	102	1048576	14	4327
2026-01-23 23:46:02.84	168.11	20.51	-27.0	-28.6	15.5	0.00e+00	0	44	102	1048576	14	4312
2026-01-23 23:46:05.85	168.42	20.14	-26.8	-28.8	14.8	3.17e-03	0	44	102	1048576	13	4500
2026-01-23 23:46:08.86	168.72	19.78	-27.1	-28.8	15.3	0.00e+00	0	44	102	1048576	14	4378
2026-01-23 23:46:11.88	169.01	19.42	-27.1	-28.7	15.5	5.75e-03	0	44	102	1048576	14	4342
2026-01-23 23:46:14.89	169.30	19.07	-27.0	-28.7	15.5	2.95e-03	0	44	102	1048576	14	4343
2026-01-23 23:46:17.91	169.59	18.72	-27.1	-28.7	15.4	5.90e-03	0	44	102	1048576	14	4345
2026-01-23 23:46:20.93	169.87	18.37	-27.1	-28.8	15.4	3.27e-03	0	44	102	1048576	14	4377
2026-01-23 23:46:23.94	170.14	18.03	-27.4	-29.5	15.0	3.27e-03	0	44	102	1048576	14	4583
2026-01-23 23:46:26.96	170.40	17.69	-27.6	-29.4	14.8	6.62e-03	0	44	102	1048576	15	4432
2026-01-23 23:46:29.98	170.66	17.36	-27.4	-29.6	14.9	3.36e-03	0	44	102	1048576	14	4605
2026-01-23 23:46:32.98	170.92	17.03	-27.4	-29.4	15.0	2.82e-03	0	44	102	1048576	14	4558
2026-01-23 23:46:35.99	171.16	16.71	-27.5	-29.7	14.8	0.00e+00	0	44	102	1048576	14	4652
2026-01-23 23:46:39.00	171.41	16.39	-27.9	-30.1	14.2	1.91e-03	0	44	102	1048576	15	4682
2026-01-23 23:46:42.01	171.65	16.07	-27.5	-29.7	14.7	0.00e+00	0	44	102	1048576	14	4665
2026-01-23 23:46:45.02	171.88	15.76	-27.6	-29.5	14.6	1.33e-03	0	44	102	1048576	15	4484
2026-01-23 23:46:48.03	172.11	15.45	-27.7	-29.8	14.4	9.10e-06	0	44	102	1048576	15	4564
2026-01-23 23:46:51.04	172.34	15.14	-27.6	-29.5	14.5	0.00e+00	0	44	102	1048576	15	4492
2026-01-23 23:46:54.05	172.56	14.84	-27.5	-29.3	14.6	1.98e-05	0	44	102	1048576	15	4438
2026-01-23 23:46:57.07	172.78	14.54	-27.5	-29.4	14.6	1.60e-05	0	44	102	1048576	15	4445
2026-01-23 23:47:00.09	172.99	14.24	-27.6	-29.5	14.5	9.90e-06	0	44	102	1048576	15	4481
2026-01-23 23:47:03.10	173.20	13.95	-27.8	-29.9	14.3	1.37e-05	0	44	102	1048576	15	4599
2026-01-23 23:47:06.11	173.40	13.66	-27.9	-30.2	14.1	7.00e-07	0	44	102	1048576	15	4690
2026-01-23 23:47:09.11	173.60	13.37	-27.7	-29.8	14.3	1.50e-06	0	44	102	1048576	15	4577
2026-01-23 23:47:12.12	173.80	13.09	-27.8	-30.0	14.2	1.50e-06	0	44	102	1048576	15	4623
2026-01-23 23:47:15.13	173.99	12.81	-27.7	-29.7	14.4	7.00e-07	0	44	102	1048576	15	4535
2026-01-23 23:47:18.15	174.19	12.53	-27.7	-29.7	14.3	0.00e+00	0	44	102	1048576	15	4542
2026-01-23 23:47:21.15	174.37	12.25	-27.7	-29.6	14.2	1.50e-06	0	44	102	1048576	15	4520
2026-01-23 23:47:24.16	174.56	11.98	-27.7	-29.7	14.3	0.00e+00	0	44	102	1048576	15	4540
2026-01-23 23:47:27.16	174.74	11.71	-27.8	-30.0	14.1	1.50e-06	0	44	102	1048576	15	4636
2026-01-23 23:47:30.17	174.91	11.45	-27.6	-29.6	14.3	1.50e-06	0	44	102	1048576	15	4508
2026-01-23 23:47:33.18	175.09	11.18	-27.9	-30.3	13.9	3.03e-03	0	44	102	1048576	15	4717
2026-01-23 23:47:36.20	175.26	10.92	-27.9	-30.3	13.9	7.00e-07	0	44	102	1048576	15	4730
2026-01-23 23:47:39.22	175.43	10.66	-28.4	-30.9	13.4	3.00e-03	0	44	102	1048576	16	4812
2026-01-23 23:47:42.24	175.60	10.40	-28.4	-30.9	13.3	3.03e-03	0	44	102	1048576	16	4815
2026-01-23 23:47:45.25	175.76	10.15	-28.2	-30.8	12.7	3.13e-03	0	44	102	1048576	17	4832
2026-01-23 23:47:48.26	175.92	9.90	-28.7	-31.1	12.9	3.25e-03	0	44	102	1048576	17	4767
2026-01-23 23:47:51.26	176.08	9.65	-28.4	-31.0	13.3	1.67e-05	0	44	102	1048576	16	4830
2026-01-23 23:47:54.28	176.24	9.40	-28.5	-30.7	13.2	3.31e-03	0	44	102	1048576	17	4618
2026-01-23 23:47:57.29	176.39	9.16	-28.3	-30.8	13.3	2.17e-03	0	44	102	1048576	16	4774
2026-01-23 23:48:00.30	176.54	8.92	-28.4	-31.0	13.2	3.28e-05	0	44	102	1048576	16	4857
2026-01-23 23:48:03.32	176.69	8.67	-28.6	-31.0	12.9	2.85e-03	0	44	102	1048576	17	4740
2026-01-23 23:48:06.33	176.84	8.44	-28.8	-31.5	12.5	3.05e-04	0	44	102	1048576	17	4907
2026-01-23 23:48:09.35	176.98	8.20	-28.9	-31.9	12.3	3.28e-03	0	44	102	1048576	17	5032
2026-01-23 23:48:12.36	177.12	7.97	-29.2	-32.0	11.9	3.35e-03	0	44	102	1048576	18	4966
2026-01-23 23:48:15.37	177.26	7.73	-29.0	-31.6	12.1	3.41e-03	0	44	102	1048576	18	4837
2026-01-23 23:48:18.39	177.40	7.50	-29.1	-31.7	12.1	3.26e-03	0	44	102	1048576	18	4858
2026-01-23 23:48:21.40	177.54	7.28	-28.9	-31.8	12.2	2.12e-04	0	44	102	1048576	17	5046
2026-01-23 23:48:24.42	177.67	7.05	-32.9	-45.0	3.8	3.39e-03	0	44	104	1048576	25	14488

#Closed at: 2026-01-23 23:48:26
#Recorded file [1 MB]: D:/data/31010_260124_023638.dat