passes_logs/2026/01/23/R2M6_AANII_01/R2M6_AANII_01__20260123_224652_NOAA_20_JPSS-1_rec.log

#Pass ID: 20260123_224652_NOAA 20 (JPSS-1)
#Satellite: NOAA 20 (JPSS-1)
#Configuration: NOAA 20
#almurnet v.1.7.20240730
#Start time: 2026-01-23 22:46:52

#Version: 2.2.20231116
#Station: R2M6_AANII_01
#Location: 30.233357 lon 59.946436 lat
#TLE: 1 43013U 17073A   26022.94240312  .00000200  00000+0  11574-3 0  9998
#TLE: 2 43013  98.7645 323.7982 0001179  28.0279 332.0961 14.19539020423863

#Time	Az	El	Level	Level2	SNR	BER	BlckErr	Temp	State	Recorded	gain1	gain2
2026-01-23 22:46:52.86	29.48	7.00	-31.6	-37.4	5.1	1.20e+00	0	41	0	0	23	7039
2026-01-23 22:46:55.87	29.75	7.19	-32.2	-39.4	6.6	1.82e-01	0	41	102	1048576	24	8318
2026-01-23 22:46:58.88	30.03	7.38	-31.8	-38.0	8.2	7.82e-02	0	41	102	1048576	23	7324
2026-01-23 22:47:01.89	30.32	7.57	-31.4	-36.4	9.4	2.01e-02	0	41	102	1048576	23	6397
2026-01-23 22:47:04.90	30.60	7.76	-31.2	-36.0	10.2	9.15e-03	0	42	102	1048576	22	6236
2026-01-23 22:47:07.92	30.89	7.96	-30.6	-34.5	11.7	9.99e-04	0	42	102	1048576	21	5633
2026-01-23 22:47:10.93	31.19	8.16	-30.7	-34.8	11.5	9.73e-04	0	42	102	1048576	21	5799
2026-01-23 22:47:13.94	31.49	8.35	-30.7	-34.9	11.5	1.27e-03	0	42	102	1048576	21	5796
2026-01-23 22:47:16.95	31.79	8.55	-30.8	-35.2	11.3	1.68e-03	0	42	102	1048576	21	5957
2026-01-23 22:47:19.95	32.09	8.75	-30.9	-35.5	11.1	1.44e-03	0	42	102	1048576	21	6067
2026-01-23 22:47:22.96	32.40	8.94	-31.2	-35.7	10.6	3.89e-03	0	42	102	1048576	22	6055
2026-01-23 22:47:25.98	32.72	9.15	-31.3	-36.0	10.4	5.50e-03	0	42	102	1048576	22	6241
2026-01-23 22:47:28.98	33.04	9.35	-30.9	-34.9	11.3	1.60e-03	0	42	102	1048576	22	5656
2026-01-23 22:47:32.00	33.36	9.55	-31.2	-35.6	10.8	1.80e-03	0	42	102	1048576	22	6001
2026-01-23 22:47:35.02	33.69	9.75	-30.9	-34.7	11.4	1.72e-03	0	42	102	1048576	22	5604
2026-01-23 22:47:38.03	34.02	9.95	-30.5	-34.1	12.2	2.54e-04	0	42	102	1048576	21	5449
2026-01-23 22:47:41.03	34.35	10.16	-30.5	-34.0	12.3	1.98e-04	0	43	102	1048576	21	5384
2026-01-23 22:47:44.03	34.69	10.36	-30.5	-33.9	12.4	2.05e-04	0	42	102	1048576	21	5346
2026-01-23 22:47:47.05	35.04	10.57	-30.4	-34.3	12.5	1.37e-04	0	43	102	1048576	20	5607
2026-01-23 22:47:50.07	35.39	10.78	-30.3	-33.9	12.8	5.56e-05	0	43	102	1048576	20	5467
2026-01-23 22:47:53.08	35.74	10.98	-30.3	-33.8	12.9	4.34e-05	0	43	102	1048576	20	5411
2026-01-23 22:47:56.11	36.10	11.19	-30.2	-33.6	13.0	4.42e-05	0	43	102	1048576	20	5318
2026-01-23 22:47:59.11	36.46	11.40	-30.2	-33.5	13.1	2.13e-05	0	43	102	1048576	20	5280
2026-01-23 22:48:02.11	36.83	11.61	-30.2	-33.6	13.1	2.51e-05	0	43	102	1048576	20	5303
2026-01-23 22:48:05.12	37.21	11.82	-30.2	-33.5	13.1	2.82e-05	0	43	102	1048576	20	5287
2026-01-23 22:48:08.15	37.59	12.03	-30.3	-33.8	12.9	4.11e-05	0	43	102	1048576	20	5394
2026-01-23 22:48:11.17	37.97	12.25	-30.2	-33.4	13.2	1.98e-05	0	43	102	1048576	20	5246
2026-01-23 22:48:14.18	38.36	12.46	-30.1	-33.4	13.3	7.93e-05	0	43	102	1048576	20	5217
2026-01-23 22:48:17.19	38.76	12.67	-30.3	-33.8	13.0	8.77e-05	0	43	102	1048576	20	5366
2026-01-23 22:48:20.21	39.16	12.89	-30.2	-33.4	13.3	2.36e-05	0	43	102	1048576	20	5237
2026-01-23 22:48:23.23	39.57	13.10	-30.2	-33.6	13.2	3.87e-04	0	43	102	1048576	20	5309
2026-01-23 22:48:26.24	39.98	13.32	-30.2	-33.6	13.2	2.89e-05	0	43	102	1048576	20	5282
2026-01-23 22:48:29.26	40.40	13.54	-30.2	-33.6	13.1	2.89e-05	0	43	102	1048576	20	5316
2026-01-23 22:48:32.27	40.82	13.75	-30.1	-33.2	13.5	9.90e-06	0	43	102	1048576	20	5145
2026-01-23 22:48:35.28	41.26	13.97	-30.1	-33.2	13.5	1.52e-05	0	43	102	1048576	20	5147
2026-01-23 22:48:38.29	41.69	14.19	-30.0	-32.9	13.7	3.80e-06	0	43	102	1048576	20	5021
2026-01-23 22:48:41.32	42.14	14.41	-30.1	-33.3	13.5	7.85e-05	0	43	102	1048576	20	5167
2026-01-23 22:48:44.33	42.59	14.62	-30.0	-33.0	13.7	4.65e-05	0	43	102	1048576	20	5055
2026-01-23 22:48:47.34	43.04	14.84	-30.0	-33.0	13.7	2.97e-05	0	43	102	1048576	20	5036
2026-01-23 22:48:50.35	43.50	15.06	-30.0	-32.9	13.8	6.10e-06	0	43	102	1048576	20	5023
2026-01-23 22:48:53.36	43.97	15.28	-30.2	-33.3	13.5	1.14e-05	0	43	102	1048576	20	5184
2026-01-23 22:48:56.38	44.45	15.50	-30.1	-33.2	13.6	5.19e-04	0	43	102	1048576	20	5109
2026-01-23 22:48:59.39	44.93	15.72	-30.2	-33.4	13.4	2.38e-04	0	43	102	1048576	20	5216
2026-01-23 22:49:02.38	45.42	15.94	-30.1	-33.2	13.6	6.10e-06	0	43	102	1048576	20	5118
2026-01-23 22:49:05.39	45.91	16.16	-30.2	-33.3	13.6	7.60e-06	0	44	102	1048576	20	5146
2026-01-23 22:49:08.39	46.41	16.38	-30.0	-32.9	13.9	4.50e-06	0	43	102	1048576	20	5017
2026-01-23 22:49:11.41	46.93	16.60	-30.1	-33.2	13.7	9.90e-06	0	43	102	1048576	20	5124
2026-01-23 22:49:14.43	47.45	16.82	-30.1	-33.2	13.7	3.80e-06	0	43	102	1048576	20	5112
2026-01-23 22:49:17.44	47.97	17.04	-30.0	-32.9	13.9	1.50e-06	0	44	102	1048576	20	4984
2026-01-23 22:49:20.45	48.50	17.26	-29.8	-32.2	14.3	2.17e-04	0	43	102	1048576	20	4768
2026-01-23 22:49:23.45	49.04	17.47	-29.8	-32.7	14.4	1.50e-06	0	44	102	1048576	19	5041
2026-01-23 22:49:26.45	49.59	17.69	-29.8	-32.8	14.3	7.00e-07	0	43	102	1048576	19	5061
2026-01-23 22:49:29.47	50.14	17.91	-29.9	-32.9	14.3	3.00e-06	0	44	102	1048576	19	5103
2026-01-23 22:49:32.49	50.71	18.13	-29.7	-32.5	14.6	7.00e-07	0	43	102	1048576	19	4943
2026-01-23 22:49:35.50	51.28	18.34	-29.6	-32.2	14.7	2.20e-06	0	44	102	1048576	19	4873
2026-01-23 22:49:38.51	51.86	18.56	-29.5	-31.9	14.9	0.00e+00	0	43	102	1048576	19	4765
2026-01-23 22:49:41.52	52.45	18.77	-29.6	-32.2	14.7	0.00e+00	0	44	102	1048576	19	4852
2026-01-23 22:49:44.53	53.04	18.98	-29.5	-32.0	14.9	0.00e+00	0	44	102	1048576	19	4787
2026-01-23 22:49:47.55	53.65	19.20	-29.6	-32.2	14.8	0.00e+00	0	44	102	1048576	19	4843
2026-01-23 22:49:50.56	54.26	19.41	-29.7	-32.5	14.6	0.00e+00	0	44	102	1048576	19	4942
2026-01-23 22:49:53.57	54.88	19.62	-29.7	-32.4	14.6	7.00e-07	0	44	102	1048576	19	4935
2026-01-23 22:49:56.58	55.51	19.82	-29.6	-32.2	14.8	0.00e+00	0	43	102	1048576	19	4841
2026-01-23 22:49:59.59	56.15	20.03	-29.8	-32.7	14.5	0.00e+00	0	43	102	1048576	19	5022
2026-01-23 22:50:02.60	56.79	20.23	-30.1	-33.0	13.9	2.20e-06	0	44	102	1048576	20	5029
2026-01-23 22:50:05.62	57.45	20.44	-30.3	-33.6	13.5	1.69e-04	0	44	102	1048576	20	5277
2026-01-23 22:50:08.64	58.11	20.64	-30.2	-33.4	13.6	2.51e-05	0	44	102	1048576	20	5180
2026-01-23 22:50:11.65	58.78	20.83	-30.6	-34.0	12.9	3.20e-05	0	44	102	1048576	21	5312
2026-01-23 22:50:14.66	59.46	21.03	-30.8	-34.4	12.7	6.10e-05	0	44	102	1048576	21	5452
2026-01-23 22:50:17.67	60.15	21.22	-30.6	-33.8	13.1	3.05e-05	0	44	102	1048576	21	5195
2026-01-23 22:50:20.68	60.84	21.41	-30.4	-33.2	13.5	1.75e-05	0	44	102	1048576	21	5001
2026-01-23 22:50:23.69	61.55	21.60	-30.2	-32.9	13.7	1.37e-05	0	44	102	1048576	21	4872
2026-01-23 22:50:26.69	62.26	21.78	-30.2	-32.7	13.8	7.00e-07	0	44	102	1048576	21	4816
2026-01-23 22:50:29.71	62.98	21.96	-30.1	-33.1	13.9	2.20e-06	0	44	102	1048576	20	5054
2026-01-23 22:50:32.73	63.71	22.14	-30.1	-32.9	14.0	5.34e-05	0	44	102	1048576	20	4995
2026-01-23 22:50:35.74	64.45	22.32	-30.1	-33.0	14.0	2.20e-06	0	44	102	1048576	20	5037
2026-01-23 22:50:38.76	65.20	22.49	-30.2	-33.2	13.9	3.80e-06	0	44	102	1048576	20	5096
2026-01-23 22:50:41.76	65.95	22.65	-30.6	-33.7	13.2	1.83e-05	0	44	102	1048576	21	5183
2026-01-23 22:50:44.76	66.71	22.82	-30.6	-33.8	13.1	2.67e-05	0	44	102	1048576	21	5230
2026-01-23 22:50:47.78	67.48	22.98	-30.5	-33.6	13.3	2.13e-05	0	44	102	1048576	21	5136
2026-01-23 22:50:50.80	68.26	23.13	-30.3	-33.1	13.7	6.02e-05	0	44	102	1048576	21	4949
2026-01-23 22:50:53.80	69.04	23.28	-30.3	-33.0	13.7	4.50e-06	0	44	102	1048576	21	4903
2026-01-23 22:50:56.82	69.83	23.43	-30.5	-33.6	13.3	2.05e-05	0	44	102	1048576	21	5132
2026-01-23 22:50:59.83	70.63	23.57	-30.5	-33.5	13.4	1.22e-05	0	44	102	1048576	21	5077
2026-01-23 22:51:02.85	71.44	23.70	-30.5	-33.5	13.4	1.37e-05	0	44	102	1048576	21	5096
2026-01-23 22:51:05.87	72.25	23.83	-30.8	-34.3	12.8	4.34e-05	0	44	102	1048576	21	5421
2026-01-23 22:51:08.88	73.07	23.96	-30.6	-33.9	13.1	2.74e-05	0	44	102	1048576	21	5244
2026-01-23 22:51:11.89	73.90	24.08	-30.8	-34.3	12.9	6.02e-05	0	44	102	1048576	21	5397
2026-01-23 22:51:14.90	74.73	24.19	-30.9	-34.7	12.6	7.17e-05	0	44	102	1048576	21	5554
2026-01-23 22:51:17.92	75.57	24.30	-31.0	-34.9	12.4	7.24e-05	0	44	102	1048576	21	5649
2026-01-23 22:51:20.93	76.41	24.40	-30.8	-33.9	12.8	7.40e-05	0	44	102	1048576	22	5116
2026-01-23 22:51:23.95	77.26	24.50	-30.8	-34.4	12.8	5.18e-05	0	44	102	1048576	21	5436
2026-01-23 22:51:26.97	78.12	24.59	-30.5	-33.5	13.3	4.19e-05	0	44	102	1048576	21	5084
2026-01-23 22:51:29.98	78.98	24.67	-30.1	-32.4	14.1	2.20e-06	0	44	102	1048576	21	4712
2026-01-23 22:51:32.98	79.84	24.75	-30.1	-32.4	14.1	7.60e-06	0	44	102	1048576	21	4710
2026-01-23 22:51:35.99	80.70	24.82	-29.9	-31.9	14.4	0.00e+00	0	44	102	1048576	21	4547
2026-01-23 22:51:38.99	81.57	24.88	-30.2	-32.7	14.0	7.00e-07	0	44	102	1048576	21	4788
2026-01-23 22:51:42.01	82.45	24.94	-30.6	-33.7	13.3	1.14e-05	0	44	102	1048576	21	5182
2026-01-23 22:51:45.02	83.32	24.99	-30.6	-33.8	13.2	3.43e-05	0	44	102	1048576	21	5193
2026-01-23 22:51:48.04	84.20	25.03	-30.5	-33.7	13.3	9.90e-06	0	44	102	1048576	21	5150
2026-01-23 22:51:51.04	85.08	25.07	-30.1	-32.4	14.1	2.20e-06	0	44	102	1048576	21	4703
2026-01-23 22:51:54.07	85.97	25.10	-30.2	-33.1	13.9	4.50e-06	0	44	102	1048576	20	5072
2026-01-23 22:51:57.08	86.85	25.12	-30.3	-33.6	13.6	1.50e-06	0	44	102	1048576	20	5248
2026-01-23 22:52:00.09	87.74	25.14	-29.6	-31.8	14.8	7.00e-07	0	44	102	1048576	20	4596
2026-01-23 22:52:03.10	88.63	25.14	-29.8	-32.2	14.5	1.90e-05	0	44	102	1048576	20	4751
2026-01-23 22:52:06.10	89.51	25.15	-30.1	-32.9	14.1	1.50e-06	0	44	102	1048576	20	4998
2026-01-23 22:52:09.11	90.40	25.14	-29.9	-32.4	14.4	7.00e-07	0	44	102	1048576	20	4814
2026-01-23 22:52:12.13	91.29	25.13	-29.8	-32.1	14.6	3.50e-05	0	44	102	1048576	20	4717
2026-01-23 22:52:15.13	92.17	25.11	-30.2	-33.2	13.9	1.50e-06	0	44	102	1048576	20	5102
2026-01-23 22:52:18.15	93.05	25.08	-30.6	-33.7	13.2	1.90e-05	0	44	102	1048576	21	5169
2026-01-23 22:52:21.17	93.94	25.05	-30.5	-33.6	13.3	1.90e-05	0	44	102	1048576	21	5141
2026-01-23 22:52:24.18	94.82	25.00	-30.3	-32.9	13.8	7.00e-07	0	44	102	1048576	21	4889
2026-01-23 22:52:27.20	95.70	24.96	-30.3	-33.0	13.7	6.10e-06	0	44	102	1048576	21	4903
2026-01-23 22:52:30.21	96.58	24.90	-30.7	-34.2	12.9	4.65e-05	0	44	102	1048576	21	5381
2026-01-23 22:52:33.23	97.45	24.84	-29.9	-32.1	14.3	2.20e-06	0	44	102	1048576	21	4594
2026-01-23 22:52:36.25	98.32	24.77	-29.9	-32.0	14.3	2.20e-06	0	44	102	1048576	21	4590
2026-01-23 22:52:39.27	99.19	24.70	-30.1	-32.5	14.0	2.20e-06	0	44	102	1048576	21	4754
2026-01-23 22:52:42.28	100.05	24.61	-30.0	-32.3	14.0	2.20e-06	0	44	102	1048576	21	4674
2026-01-23 22:52:45.29	100.91	24.53	-30.2	-32.7	13.9	5.30e-06	0	44	102	1048576	21	4802
2026-01-23 22:52:48.29	101.76	24.43	-30.2	-32.7	13.9	3.80e-06	0	44	102	1048576	21	4812
2026-01-23 22:52:51.30	102.60	24.33	-29.7	-32.1	14.5	0.00e+00	0	44	102	1048576	20	4709
2026-01-23 22:52:54.31	103.44	24.23	-29.5	-31.4	15.0	0.00e+00	0	44	102	1048576	20	4493
2026-01-23 22:52:57.32	104.28	24.11	-29.4	-31.7	15.2	1.31e-04	0	44	102	1048576	19	4675
2026-01-23 22:53:00.33	105.11	24.00	-29.1	-31.5	15.5	5.87e-05	0	44	102	1048576	18	4736
2026-01-23 22:53:03.33	105.93	23.87	-29.0	-31.3	15.7	1.90e-04	0	44	102	1048576	18	4652
2026-01-23 22:53:06.35	106.75	23.74	-29.2	-31.6	15.4	8.16e-05	0	44	102	1048576	18	4775
2026-01-23 22:53:09.37	107.56	23.61	-29.0	-31.3	15.6	0.00e+00	0	44	102	1048576	18	4665
2026-01-23 22:53:12.38	108.36	23.47	-29.4	-32.2	15.1	0.00e+00	0	44	102	1048576	18	4958
2026-01-23 22:53:15.39	109.16	23.32	-29.9	-32.9	14.3	9.23e-05	0	44	102	1048576	19	5113
2026-01-23 22:53:18.41	109.95	23.18	-29.9	-32.9	14.3	7.09e-05	0	44	102	1048576	19	5095
2026-01-23 22:53:21.41	110.73	23.02	-29.0	-31.3	15.6	2.28e-04	0	44	102	1048576	18	4668
2026-01-23 22:53:24.42	111.51	22.86	-29.4	-32.1	15.1	1.38e-04	0	44	102	1048576	18	4947
2026-01-23 22:53:27.44	112.27	22.70	-29.6	-32.2	14.8	6.40e-05	0	44	102	1048576	19	4863
2026-01-23 22:53:30.44	113.03	22.54	-30.0	-33.0	13.9	7.00e-07	0	44	102	1048576	20	5038
2026-01-23 22:53:33.46	113.78	22.37	-30.1	-33.2	13.7	6.80e-06	0	44	102	1048576	20	5120
2026-01-23 22:53:36.46	114.52	22.19	-30.1	-33.0	13.8	1.50e-06	0	44	102	1048576	20	5060
2026-01-23 22:53:39.47	115.26	22.01	-30.1	-33.3	13.6	1.81e-04	0	44	102	1048576	20	5153
2026-01-23 22:53:42.49	115.99	21.83	-29.7	-32.1	14.3	5.49e-05	0	44	102	1048576	20	4752
2026-01-23 22:53:45.50	116.70	21.65	-29.8	-32.5	14.1	3.96e-05	0	44	102	1048576	20	4875
2026-01-23 22:53:48.51	117.41	21.46	-30.0	-32.8	13.8	6.80e-06	0	44	102	1048576	20	4992
2026-01-23 22:53:51.52	118.12	21.27	-30.0	-32.9	13.7	6.80e-06	0	44	102	1048576	20	5017
2026-01-23 22:53:54.54	118.81	21.08	-29.8	-32.3	14.1	3.00e-06	0	44	102	1048576	20	4808
2026-01-23 22:53:57.55	119.49	20.88	-29.8	-32.8	14.3	1.50e-06	0	44	102	1048576	19	5071
2026-01-23 22:54:00.56	120.17	20.68	-30.1	-33.2	13.6	7.60e-06	0	44	102	1048576	20	5129
2026-01-23 22:54:03.57	120.84	20.48	-29.5	-31.4	14.7	0.00e+00	0	44	102	1048576	20	4520
2026-01-23 22:54:06.57	121.49	20.28	-29.6	-31.9	14.4	7.00e-07	0	44	102	1048576	20	4668
2026-01-23 22:54:09.59	122.15	20.07	-29.7	-32.2	14.2	7.00e-07	0	44	102	1048576	20	4792
2026-01-23 22:54:12.60	122.79	19.87	-29.9	-32.7	13.8	2.20e-06	0	44	102	1048576	20	4969
2026-01-23 22:54:15.61	123.42	19.66	-30.6	-34.3	12.4	9.84e-05	0	44	102	1048576	21	5484
2026-01-23 22:54:18.62	124.05	19.45	-30.4	-33.7	12.8	6.79e-05	0	44	102	1048576	21	5238
2026-01-23 22:54:21.63	124.66	19.24	-30.4	-33.6	12.9	5.79e-05	0	44	102	1048576	21	5181
2026-01-23 22:54:24.64	125.27	19.02	-30.8	-34.8	12.0	3.04e-04	0	44	102	1048576	21	5708
2026-01-23 22:54:27.65	125.87	18.81	-30.7	-34.4	12.3	2.17e-04	0	44	102	1048576	21	5526
2026-01-23 22:54:30.67	126.47	18.59	-30.6	-34.1	12.4	1.83e-04	0	44	102	1048576	21	5411
2026-01-23 22:54:33.67	127.05	18.38	-31.0	-34.9	11.6	5.39e-04	0	44	102	1048576	22	5607
2026-01-23 22:54:36.68	127.63	18.16	-31.0	-34.8	11.6	1.63e-03	0	44	102	1048576	22	5590
2026-01-23 22:54:39.70	128.20	17.94	-30.5	-33.9	12.5	5.18e-05	0	44	102	1048576	21	5337
2026-01-23 22:54:42.71	128.76	17.72	-30.8	-34.8	11.9	4.25e-04	0	44	102	1048576	21	5695
2026-01-23 22:54:45.72	129.31	17.50	-30.3	-33.2	13.0	1.48e-04	0	44	102	1048576	21	5060
2026-01-23 22:54:48.72	129.85	17.28	-29.7	-32.2	14.0	6.48e-05	0	44	102	1048576	20	4796
2026-01-23 22:54:51.72	130.39	17.06	-30.4	-34.2	12.7	6.33e-05	0	44	102	1048576	20	5549
2026-01-23 22:54:54.73	130.92	16.84	-30.8	-34.8	11.8	5.39e-04	0	44	102	1048576	21	5719
2026-01-23 22:54:57.74	131.44	16.62	-30.3	-33.3	12.8	2.07e-04	0	44	102	1048576	21	5105
2026-01-23 22:55:00.76	131.95	16.40	-30.2	-33.1	13.0	7.55e-05	0	44	102	1048576	21	5044
2026-01-23 22:55:03.78	132.46	16.18	-30.3	-34.0	12.6	1.23e-04	0	44	102	1048576	20	5504
2026-01-23 22:55:06.80	132.96	15.96	-30.4	-34.2	12.5	1.12e-04	0	44	102	1048576	20	5586
2026-01-23 22:55:09.82	133.46	15.73	-30.3	-33.9	12.7	1.48e-04	0	44	102	1048576	20	5479
2026-01-23 22:55:12.83	133.94	15.51	-30.5	-34.7	12.1	2.77e-04	0	44	102	1048576	20	5836
2026-01-23 22:55:15.83	134.42	15.29	-30.5	-34.3	11.8	6.51e-04	0	44	102	1048576	21	5610
2026-01-23 22:55:18.85	134.90	15.07	-30.1	-33.7	12.6	8.31e-05	0	44	102	1048576	20	5428
2026-01-23 22:55:21.86	135.36	14.85	-30.2	-33.7	12.7	8.16e-05	0	44	102	1048576	20	5388
2026-01-23 22:55:24.88	135.82	14.63	-30.3	-33.9	12.5	1.02e-04	0	44	102	1048576	20	5488
2026-01-23 22:55:27.90	136.27	14.41	-30.2	-33.8	12.6	3.04e-04	0	44	102	1048576	20	5455
2026-01-23 22:55:30.92	136.72	14.19	-30.2	-33.8	12.5	1.04e-04	0	44	102	1048576	20	5442
2026-01-23 22:55:33.94	137.16	13.96	-30.2	-33.8	12.5	1.51e-04	0	44	102	1048576	20	5444
2026-01-23 22:55:36.96	137.60	13.74	-30.2	-33.9	12.4	1.23e-04	0	44	102	1048576	20	5500
2026-01-23 22:55:39.97	138.02	13.53	-30.0	-33.4	12.7	5.56e-05	0	44	102	1048576	20	5298
2026-01-23 22:55:42.99	138.44	13.31	-30.1	-33.7	12.5	8.54e-05	0	44	102	1048576	20	5421
2026-01-23 22:55:46.00	138.86	13.09	-30.3	-34.1	12.2	1.80e-04	0	44	102	1048576	20	5617
2026-01-23 22:55:49.01	139.27	12.87	-30.3	-34.4	12.0	3.16e-04	0	44	102	1048576	20	5733
2026-01-23 22:55:52.01	139.67	12.66	-30.4	-34.5	11.9	4.97e-04	0	44	102	1048576	20	5791
2026-01-23 22:55:55.03	140.07	12.44	-30.4	-34.1	11.8	6.36e-04	0	44	102	1048576	21	5513
2026-01-23 22:55:58.04	140.46	12.23	-30.1	-33.8	12.3	1.95e-04	0	44	102	1048576	20	5502
2026-01-23 22:56:01.04	140.85	12.01	-30.3	-34.3	11.9	3.29e-04	0	44	102	1048576	20	5727
2026-01-23 22:56:04.05	141.23	11.80	-30.4	-34.7	11.6	6.58e-04	0	44	102	1048576	20	5905
2026-01-23 22:56:07.06	141.60	11.59	-30.7	-35.3	10.8	1.80e-03	0	44	102	1048576	21	6074
2026-01-23 22:56:10.07	141.97	11.37	-30.8	-35.6	10.4	4.82e-03	0	44	102	1048576	21	6279
2026-01-23 22:56:13.08	142.34	11.16	-31.0	-36.4	9.8	9.66e-03	0	44	102	1048576	21	6693
2026-01-23 22:56:16.08	142.70	10.95	-30.9	-36.2	9.9	9.39e-03	0	44	102	1048576	21	6592
2026-01-23 22:56:19.09	143.05	10.74	-30.8	-36.0	10.0	8.76e-03	0	44	102	1048576	21	6528
2026-01-23 22:56:22.10	143.40	10.54	-30.8	-35.7	10.2	7.48e-03	0	44	102	1048576	21	6329
2026-01-23 22:56:25.11	143.75	10.33	-30.6	-35.3	10.4	5.03e-03	0	44	102	1048576	21	6158
2026-01-23 22:56:28.12	144.09	10.12	-30.6	-35.1	10.6	3.42e-03	0	44	102	1048576	21	6049
2026-01-23 22:56:31.15	144.43	9.91	-30.5	-35.0	10.6	2.83e-03	0	44	102	1048576	21	6024
2026-01-23 22:56:34.17	144.76	9.71	-30.5	-35.0	10.6	3.48e-03	0	44	102	1048576	21	6032
2026-01-23 22:56:37.18	145.09	9.50	-30.7	-35.7	10.1	7.74e-03	0	44	102	1048576	21	6349
2026-01-23 22:56:40.19	145.41	9.30	-30.7	-35.6	10.2	8.91e-03	0	44	102	1048576	21	6330
2026-01-23 22:56:43.21	145.73	9.10	-30.7	-35.7	10.0	1.10e-02	0	44	102	1048576	21	6427
2026-01-23 22:56:46.22	146.05	8.89	-30.4	-35.1	10.9	4.86e-03	0	44	102	1048576	20	6206
2026-01-23 22:56:49.24	146.36	8.69	-30.2	-34.4	11.4	3.03e-03	0	44	102	1048576	20	5860
2026-01-23 22:56:52.26	146.67	8.49	-30.0	-34.0	11.6	7.22e-04	0	44	102	1048576	20	5688
2026-01-23 22:56:55.28	146.97	8.29	-30.0	-34.1	11.5	9.39e-04	0	44	102	1048576	20	5793
2026-01-23 22:56:58.29	147.27	8.09	-29.5	-34.0	10.9	4.32e-03	0	44	102	1048576	20	6055
2026-01-23 22:57:01.29	147.56	7.90	-30.1	-34.7	10.8	4.82e-03	0	44	102	1048576	20	6157
2026-01-23 22:57:04.31	147.85	7.70	-30.2	-35.3	10.4	7.31e-03	0	44	102	1048576	20	6419
2026-01-23 22:57:07.32	148.14	7.50	-30.4	-35.5	10.3	7.12e-03	0	44	102	1048576	20	6476
2026-01-23 22:57:10.32	148.42	7.31	-30.6	-35.7	9.8	1.06e-02	0	44	102	1048576	21	6464
2026-01-23 22:57:13.33	148.70	7.12	-30.1	-35.0	10.5	3.59e-03	0	44	102	1048576	20	6315

#Closed at: 2026-01-23 22:57:15
#Recorded file [1 MB]: D:/data/31010_260124_014654.dat