passes_logs/2026/01/23/R2M6_AANII_01/R2M6_AANII_01__20260123_121126_AQUA_rec.log

#Pass ID: 20260123_121126_AQUA
#Satellite: AQUA
#Configuration: AQUA
#almurnet v.1.7.20240730
#Start time: 2026-01-23 12:11:28

#Version: 2.2.20231116
#Station: R2M6_AANII_01
#Location: 30.233357 lon 59.946436 lat
#TLE: 1 27424U 02022A   26022.49486490  .00002153  00000+0  44069-3 0  9997
#TLE: 2 27424  98.4099 349.0485 0001970  69.5876  43.4746 14.61847233261984

#Time	Az	El	Level	Level2	SNR	BER	BlckErr	Temp	State	Recorded	gain1	gain2
2026-01-23 12:11:28.39	164.40	7.14	-31.5	-38.1	5.1	7.12e-01	0	42	0	0	25	7641
2026-01-23 12:11:31.41	164.44	7.39	-31.6	-37.3	13.6	6.10e-01	0	42	102	524288	25	6925
2026-01-23 12:11:34.43	164.48	7.64	-31.7	-37.8	13.2	6.11e-01	0	42	102	524288	25	7217
2026-01-23 12:11:37.44	164.52	7.89	-32.0	-38.8	12.4	6.10e-01	0	42	102	524288	25	7875
2026-01-23 12:11:40.46	164.55	8.15	-32.0	-38.6	12.6	6.09e-01	0	42	102	524288	25	7748
2026-01-23 12:11:43.46	164.59	8.41	-31.9	-38.5	12.8	6.13e-01	0	42	102	524288	25	7653
2026-01-23 12:11:46.46	164.63	8.68	-31.9	-38.1	13.0	6.09e-01	0	43	102	524288	25	7391
2026-01-23 12:11:49.48	164.67	8.94	-31.1	-35.7	15.4	6.06e-01	0	42	102	524288	24	6073
2026-01-23 12:11:52.49	164.71	9.21	-30.3	-34.1	17.1	6.04e-01	0	42	102	524288	22	5560
2026-01-23 12:11:55.49	164.75	9.49	-30.3	-34.0	17.2	6.06e-01	0	42	102	524288	22	5511
2026-01-23 12:11:58.50	164.80	9.76	-30.5	-34.5	16.9	6.06e-01	0	42	102	524288	22	5722
2026-01-23 12:12:01.49	164.84	10.04	-30.5	-34.7	16.8	6.08e-01	0	43	102	524288	22	5817
2026-01-23 12:12:04.49	164.88	10.33	-29.9	-32.8	18.1	6.05e-01	0	42	102	524288	22	5002
2026-01-23 12:12:07.52	164.93	10.62	-30.0	-33.4	18.1	6.07e-01	0	43	102	524288	21	5337
2026-01-23 12:12:10.53	164.97	10.91	-29.8	-32.9	18.4	6.08e-01	0	43	102	524288	21	5130
2026-01-23 12:12:13.53	165.02	11.20	-29.8	-33.0	18.4	6.08e-01	0	43	102	524288	21	5159
2026-01-23 12:12:16.55	165.06	11.50	-29.8	-32.7	18.6	6.08e-01	0	43	102	524288	21	5047
2026-01-23 12:12:19.56	165.11	11.81	-29.7	-32.5	18.8	6.06e-01	0	42	102	524288	21	4974
2026-01-23 12:12:22.58	165.16	12.11	-29.8	-32.7	18.7	6.06e-01	0	43	102	524288	21	5029
2026-01-23 12:12:25.59	165.21	12.43	-29.6	-32.3	18.9	6.05e-01	0	43	102	524288	21	4891
2026-01-23 12:12:28.61	165.26	12.74	-29.5	-32.0	19.1	6.05e-01	0	43	102	524288	21	4794
2026-01-23 12:12:31.63	165.31	13.07	-29.5	-31.8	19.3	6.07e-01	0	43	102	524288	21	4701
2026-01-23 12:12:34.62	165.36	13.39	-29.5	-31.8	19.4	6.06e-01	0	43	102	524288	21	4704
2026-01-23 12:12:37.63	165.42	13.72	-29.5	-32.0	19.3	6.06e-01	0	43	102	524288	21	4752
2026-01-23 12:12:40.65	165.47	14.06	-29.7	-32.4	19.0	6.07e-01	0	43	102	524288	21	4896
2026-01-23 12:12:43.65	165.52	14.40	-29.9	-32.9	18.8	6.07e-01	0	43	102	524288	21	5052
2026-01-23 12:12:46.67	165.58	14.75	-30.0	-33.2	18.6	6.07e-01	0	43	102	524288	21	5180
2026-01-23 12:12:49.68	165.64	15.10	-30.0	-33.3	18.5	6.06e-01	0	43	102	524288	21	5213
2026-01-23 12:12:52.69	165.70	15.46	-30.0	-33.2	18.5	6.06e-01	0	43	102	524288	21	5221
2026-01-23 12:12:55.70	165.76	15.82	-30.2	-33.8	18.2	6.06e-01	0	43	102	524288	21	5428
2026-01-23 12:12:58.72	165.82	16.19	-30.5	-34.6	17.8	6.07e-01	0	43	102	524288	21	5746
2026-01-23 12:13:01.74	165.88	16.57	-30.9	-35.1	17.1	6.06e-01	0	43	102	524288	22	5843
2026-01-23 12:13:04.75	165.95	16.95	-30.9	-35.2	17.1	6.04e-01	0	43	102	524288	22	5848
2026-01-23 12:13:07.76	166.01	17.34	-31.5	-36.3	16.0	6.06e-01	0	43	102	524288	23	6287
2026-01-23 12:13:10.77	166.08	17.74	-31.2	-34.8	16.7	6.07e-01	0	43	102	524288	24	5478
2026-01-23 12:13:13.77	166.15	18.14	-30.0	-32.5	18.9	6.07e-01	0	43	102	524288	22	4797
2026-01-23 12:13:16.79	166.22	18.55	-29.4	-31.3	19.9	6.08e-01	0	43	102	524288	21	4500
2026-01-23 12:13:19.78	166.29	18.97	-29.4	-31.8	20.0	6.05e-01	0	43	102	524288	20	4765
2026-01-23 12:13:22.79	166.36	19.39	-29.5	-32.1	19.8	6.06e-01	0	43	102	524288	20	4853
2026-01-23 12:13:25.78	166.44	19.83	-29.6	-32.5	19.6	6.06e-01	0	43	102	524288	20	4986
2026-01-23 12:13:28.78	166.52	20.27	-29.8	-32.8	19.5	6.07e-01	0	43	102	524288	20	5088
2026-01-23 12:13:31.78	166.60	20.72	-29.9	-33.0	19.3	6.07e-01	0	43	102	524288	20	5178
2026-01-23 12:13:34.78	166.68	21.18	-30.1	-33.7	18.9	6.07e-01	0	43	102	524288	20	5431
2026-01-23 12:13:37.80	166.77	21.65	-30.1	-33.2	18.9	6.09e-01	0	43	102	524288	21	5169
2026-01-23 12:13:40.80	166.85	22.13	-29.9	-32.6	19.3	6.08e-01	0	43	102	524288	21	4923
2026-01-23 12:13:43.81	166.94	22.62	-29.6	-31.8	19.8	6.05e-01	0	43	102	524288	21	4661
2026-01-23 12:13:46.82	167.03	23.11	-29.7	-32.0	19.7	6.09e-01	0	43	102	524288	21	4695
2026-01-23 12:13:49.83	167.13	23.63	-29.7	-32.1	19.6	6.07e-01	0	43	102	524288	21	4735
2026-01-23 12:13:52.83	167.23	24.15	-29.8	-32.4	19.5	6.07e-01	0	43	102	524288	21	4825
2026-01-23 12:13:55.82	167.33	24.67	-30.0	-32.9	19.2	6.06e-01	0	43	102	524288	21	5002
2026-01-23 12:13:58.84	167.43	25.22	-29.7	-32.1	19.7	6.06e-01	0	43	102	524288	21	4748
2026-01-23 12:14:01.83	167.54	25.78	-29.6	-31.8	19.9	6.03e-01	0	43	102	524288	21	4637
2026-01-23 12:14:04.84	167.65	26.35	-29.6	-31.8	20.0	6.07e-01	0	43	102	524288	21	4628
2026-01-23 12:14:07.84	167.77	26.93	-29.5	-31.4	20.2	6.06e-01	0	43	102	524288	21	4510
2026-01-23 12:14:10.85	167.89	27.52	-29.5	-31.6	20.1	6.08e-01	0	43	102	524288	21	4577
2026-01-23 12:14:13.85	168.01	28.13	-29.8	-32.2	19.7	6.05e-01	0	43	102	524288	21	4766
2026-01-23 12:14:16.86	168.14	28.76	-29.7	-32.1	19.8	6.07e-01	0	43	102	524288	21	4728
2026-01-23 12:14:19.87	168.27	29.40	-29.9	-32.6	19.5	6.07e-01	0	43	102	524288	21	4890
2026-01-23 12:14:22.88	168.41	30.06	-29.3	-31.5	20.5	6.07e-01	0	43	102	524288	20	4648
2026-01-23 12:14:25.89	168.56	30.73	-29.1	-31.1	20.8	6.06e-01	0	43	102	524288	20	4497
2026-01-23 12:14:28.89	168.71	31.42	-29.4	-31.7	20.4	6.08e-01	0	43	102	524288	20	4688
2026-01-23 12:14:31.89	168.86	32.12	-29.5	-31.8	20.4	6.04e-01	0	43	102	524288	20	4743
2026-01-23 12:14:34.89	169.03	32.85	-29.6	-32.1	20.2	6.06e-01	0	43	102	524288	20	4839
2026-01-23 12:14:37.91	169.20	33.59	-29.7	-32.3	20.1	6.06e-01	0	43	102	524288	20	4895
2026-01-23 12:14:40.92	169.38	34.36	-29.6	-32.3	20.1	6.06e-01	0	43	102	524288	20	4889
2026-01-23 12:14:43.93	169.56	35.14	-30.1	-33.5	19.4	6.06e-01	0	43	102	524288	20	5299
2026-01-23 12:14:46.94	169.76	35.95	-30.3	-33.3	19.2	6.05e-01	0	43	102	524288	21	5139
2026-01-23 12:14:49.95	169.97	36.77	-30.4	-33.7	19.0	6.06e-01	0	43	102	524288	21	5262
2026-01-23 12:14:52.97	170.18	37.63	-30.7	-34.1	18.5	6.08e-01	0	43	102	524288	22	5284
2026-01-23 12:14:55.99	170.41	38.50	-30.9	-34.4	18.3	6.06e-01	0	43	102	524288	22	5431
2026-01-23 12:14:58.99	170.65	39.39	-30.8	-34.4	18.3	6.07e-01	0	43	102	524288	22	5413
2026-01-23 12:15:01.99	170.90	40.31	-30.8	-34.2	18.5	6.05e-01	0	43	102	524288	22	5346
2026-01-23 12:15:05.00	171.17	41.26	-30.7	-34.0	18.6	6.06e-01	0	43	102	524288	22	5271
2026-01-23 12:15:08.01	171.46	42.23	-30.8	-34.3	18.4	6.05e-01	0	43	102	524288	22	5387
2026-01-23 12:15:11.03	171.76	43.23	-30.5	-33.5	18.9	6.06e-01	0	43	102	524288	22	5065
2026-01-23 12:15:14.05	172.08	44.26	-30.3	-32.9	19.2	6.07e-01	0	43	102	524288	22	4850
2026-01-23 12:15:17.06	172.42	45.31	-29.5	-31.4	20.5	6.07e-01	0	43	102	524288	21	4481
2026-01-23 12:15:20.07	172.79	46.40	-29.5	-31.5	20.4	6.06e-01	0	43	102	524288	21	4496
2026-01-23 12:15:23.08	173.18	47.51	-29.6	-31.6	20.3	6.05e-01	0	43	102	524288	21	4545
2026-01-23 12:15:26.10	173.60	48.65	-29.9	-32.3	19.9	6.08e-01	0	43	102	524288	21	4770
2026-01-23 12:15:29.11	174.06	49.83	-29.6	-32.1	20.4	6.06e-01	0	43	102	524288	20	4787
2026-01-23 12:15:32.12	174.55	51.03	-29.0	-30.6	21.3	6.08e-01	0	43	102	524288	20	4347
2026-01-23 12:15:35.14	175.08	52.27	-28.9	-30.8	21.5	6.08e-01	0	43	102	524288	19	4491
2026-01-23 12:15:38.14	175.65	53.53	-29.0	-31.1	21.4	6.05e-01	0	43	102	524288	19	4583
2026-01-23 12:15:41.15	176.28	54.82	-29.2	-31.5	21.2	6.07e-01	0	43	102	524288	19	4705
2026-01-23 12:15:44.15	176.97	56.14	-29.6	-32.0	20.6	6.07e-01	0	43	102	524288	20	4746
2026-01-23 12:15:47.16	177.72	57.49	-30.2	-33.0	19.7	6.05e-01	0	43	102	524288	21	4972
2026-01-23 12:15:50.18	178.56	58.88	-30.2	-33.0	19.7	6.07e-01	0	43	102	524288	21	4988
2026-01-23 12:15:53.18	179.49	60.29	-30.6	-33.7	19.0	6.07e-01	0	43	102	524288	22	5098
2026-01-23 12:15:56.19	180.53	61.72	-30.9	-34.3	18.6	6.07e-01	0	43	102	524288	22	5350
2026-01-23 12:15:59.21	181.70	63.18	-31.6	-35.6	17.2	6.05e-01	0	43	102	524288	24	5647
2026-01-23 12:16:02.22	183.02	64.66	-32.1	-36.4	16.3	6.05e-01	0	43	102	524288	25	5889
2026-01-23 12:16:05.23	184.53	66.16	-32.4	-37.6	15.5	6.06e-01	0	43	102	524288	25	6504
2026-01-23 12:16:08.24	186.25	67.67	-32.7	-37.8	15.0	6.06e-01	0	43	102	524288	26	6526
2026-01-23 12:16:11.26	188.26	69.19	-32.6	-37.4	15.4	6.07e-01	0	43	102	524288	26	6306
2026-01-23 12:16:14.27	190.60	70.70	-32.3	-36.6	15.9	6.06e-01	0	43	102	524288	26	5867
2026-01-23 12:16:17.29	193.38	72.20	-32.0	-35.6	16.7	6.07e-01	0	43	102	524288	26	5406
2026-01-23 12:16:20.29	196.66	73.67	-31.6	-34.7	17.5	6.06e-01	0	43	102	524288	25	5174
2026-01-23 12:16:23.31	200.65	75.11	-31.4	-34.5	18.0	6.05e-01	0	43	102	524288	24	5171
2026-01-23 12:16:26.32	205.48	76.47	-31.3	-34.4	18.2	6.06e-01	0	43	102	524288	24	5127
2026-01-23 12:16:29.33	211.38	77.73	-31.2	-34.1	18.4	6.07e-01	0	43	102	524288	24	5019
2026-01-23 12:16:32.35	218.60	78.85	-30.6	-33.0	19.2	6.07e-01	0	43	102	524288	23	4757
2026-01-23 12:16:35.35	227.24	79.76	-30.0	-32.0	20.1	6.07e-01	0	43	102	524288	22	4523
2026-01-23 12:16:38.36	237.35	80.41	-30.1	-32.6	20.0	6.05e-01	0	43	102	524288	21	4847
2026-01-23 12:16:41.38	248.57	80.72	-30.5	-33.7	19.3	6.05e-01	0	43	102	524288	21	5230
2026-01-23 12:16:44.39	260.10	80.68	-30.8	-33.4	19.1	6.07e-01	0	43	102	524288	23	4879
2026-01-23 12:16:47.40	271.07	80.27	-30.5	-32.8	19.5	6.07e-01	0	43	102	524288	23	4660
2026-01-23 12:16:50.41	280.82	79.55	-31.0	-34.1	18.6	6.07e-01	0	43	102	524288	23	5129
2026-01-23 12:16:53.43	289.13	78.58	-31.6	-35.7	17.6	6.07e-01	0	43	102	524288	23	5807
2026-01-23 12:16:56.45	295.99	77.42	-31.9	-36.1	17.0	6.08e-01	0	43	102	524288	24	5847
2026-01-23 12:16:59.48	301.61	76.12	-31.4	-34.8	17.8	6.06e-01	0	43	102	524288	24	5289
2026-01-23 12:17:02.48	306.18	74.74	-31.4	-34.6	17.9	6.07e-01	0	43	102	524288	24	5237
2026-01-23 12:17:05.49	309.96	73.30	-31.8	-35.9	17.0	6.06e-01	0	43	102	524288	24	5759
2026-01-23 12:17:08.50	313.10	71.82	-32.1	-36.9	16.3	6.07e-01	0	43	102	524288	24	6260
2026-01-23 12:17:11.51	315.75	70.32	-32.0	-36.7	16.4	6.08e-01	0	43	102	524288	24	6161
2026-01-23 12:17:14.52	317.99	68.81	-32.3	-37.0	15.9	6.06e-01	0	43	102	524288	25	6202
2026-01-23 12:17:17.52	319.91	67.31	-32.3	-37.0	15.8	6.06e-01	0	43	102	524288	25	6191
2026-01-23 12:17:20.53	321.58	65.80	-32.1	-36.4	16.2	6.08e-01	0	43	102	524288	25	5931
2026-01-23 12:17:23.55	323.04	64.31	-32.2	-36.8	15.9	6.05e-01	0	43	102	524288	25	6132
2026-01-23 12:17:26.56	324.31	62.84	-31.6	-35.0	17.1	6.06e-01	0	43	102	524288	25	5328
2026-01-23 12:17:29.58	325.45	61.39	-31.1	-34.0	18.1	6.06e-01	0	43	102	524288	24	5024
2026-01-23 12:17:32.60	326.46	59.96	-30.4	-33.0	19.3	6.07e-01	0	43	102	524288	22	4869
2026-01-23 12:17:35.60	327.36	58.56	-30.4	-33.0	19.4	6.06e-01	0	43	102	524288	22	4868
2026-01-23 12:17:38.62	328.18	57.19	-30.0	-32.1	19.8	6.08e-01	0	43	102	524288	22	4588
2026-01-23 12:17:41.64	328.92	55.84	-29.7	-31.8	20.3	6.08e-01	0	43	102	524288	21	4583
2026-01-23 12:17:44.65	329.59	54.53	-29.8	-32.7	20.0	6.06e-01	0	43	102	524288	20	5000
2026-01-23 12:17:47.66	330.21	53.25	-30.0	-33.2	19.8	6.06e-01	0	43	102	524288	20	5170
2026-01-23 12:17:50.67	330.77	52.00	-29.7	-31.8	20.2	6.06e-01	0	43	102	524288	21	4592
2026-01-23 12:17:53.68	331.29	50.78	-30.0	-32.6	19.8	6.06e-01	0	43	102	524288	21	4869
2026-01-23 12:17:56.69	331.77	49.59	-30.3	-33.5	19.2	6.05e-01	0	43	102	524288	21	5181
2026-01-23 12:17:59.71	332.22	48.42	-29.7	-31.9	20.2	6.06e-01	0	43	102	524288	21	4627
2026-01-23 12:18:02.73	332.63	47.29	-30.0	-32.6	19.7	6.05e-01	0	43	102	524288	21	4879
2026-01-23 12:18:05.75	333.02	46.19	-30.1	-32.9	19.5	6.05e-01	0	43	102	524288	21	4969
2026-01-23 12:18:08.76	333.38	45.11	-30.0	-32.6	19.7	6.06e-01	0	43	102	524288	21	4859
2026-01-23 12:18:11.78	333.72	44.07	-30.0	-32.5	19.7	6.06e-01	0	43	102	524288	21	4846
2026-01-23 12:18:14.80	334.03	43.05	-30.1	-33.0	19.4	6.07e-01	0	43	102	524288	21	4991
2026-01-23 12:18:17.81	334.33	42.06	-30.5	-33.9	18.9	6.06e-01	0	43	102	524288	21	5349
2026-01-23 12:18:20.84	334.61	41.09	-30.5	-33.4	18.9	6.07e-01	0	43	102	524288	22	5024
2026-01-23 12:18:23.85	334.88	40.16	-30.4	-33.3	19.0	6.05e-01	0	43	102	524288	22	4997
2026-01-23 12:18:26.87	335.13	39.25	-30.7	-33.9	18.6	6.07e-01	0	43	102	524288	22	5248
2026-01-23 12:18:29.87	335.36	38.36	-30.6	-33.7	18.7	6.07e-01	0	43	102	524288	22	5138
2026-01-23 12:18:32.89	335.59	37.50	-31.0	-34.8	18.0	6.07e-01	0	43	102	524288	22	5568
2026-01-23 12:18:35.90	335.81	36.66	-30.2	-32.6	19.3	6.06e-01	0	43	102	524288	22	4772
2026-01-23 12:18:38.92	336.01	35.84	-29.7	-32.0	20.0	6.06e-01	0	43	102	524288	21	4662
2026-01-23 12:18:41.93	336.20	35.04	-29.5	-31.4	20.3	6.08e-01	0	43	102	524288	21	4490
2026-01-23 12:18:44.94	336.39	34.26	-29.4	-31.2	20.5	6.07e-01	0	43	102	524288	21	4412
2026-01-23 12:18:47.97	336.57	33.50	-29.4	-31.2	20.4	6.08e-01	0	43	102	524288	21	4420
2026-01-23 12:18:50.98	336.74	32.77	-29.2	-31.3	20.7	6.07e-01	0	43	102	524288	20	4553
2026-01-23 12:18:53.99	336.90	32.05	-29.2	-31.1	20.7	6.04e-01	0	43	102	524288	20	4515
2026-01-23 12:18:57.00	337.06	31.35	-29.1	-31.0	20.8	6.08e-01	0	43	102	524288	20	4483
2026-01-23 12:19:00.01	337.21	30.67	-29.0	-30.8	20.9	6.06e-01	0	43	102	524288	20	4408
2026-01-23 12:19:03.02	337.35	30.00	-29.0	-30.6	20.9	6.06e-01	0	43	102	524288	20	4361
2026-01-23 12:19:06.04	337.49	29.35	-29.1	-31.0	20.8	6.07e-01	0	43	102	524288	20	4462
2026-01-23 12:19:09.05	337.62	28.71	-29.4	-31.8	20.2	6.06e-01	0	43	102	524288	20	4725
2026-01-23 12:19:12.07	337.75	28.09	-29.5	-31.9	20.1	6.06e-01	0	43	102	524288	20	4779
2026-01-23 12:19:15.08	337.88	27.49	-29.3	-31.4	20.5	6.07e-01	0	43	102	524288	20	4595
2026-01-23 12:19:18.09	338.00	26.90	-29.4	-31.7	20.3	6.06e-01	0	43	102	524288	20	4702
2026-01-23 12:19:21.11	338.11	26.32	-29.6	-32.2	20.0	6.04e-01	0	43	102	524288	20	4862
2026-01-23 12:19:24.14	338.23	25.75	-29.6	-32.2	20.0	6.07e-01	0	43	102	524288	20	4869
2026-01-23 12:19:27.15	338.33	25.20	-29.8	-32.7	19.7	6.08e-01	0	43	102	524288	20	5035
2026-01-23 12:19:30.16	338.44	24.66	-29.7	-32.7	19.7	6.06e-01	0	43	102	524288	20	5034
2026-01-23 12:19:33.17	338.54	24.13	-30.0	-33.3	19.2	6.07e-01	0	43	102	524288	20	5271
2026-01-23 12:19:36.17	338.64	23.62	-30.3	-33.6	18.7	6.05e-01	0	43	102	524288	21	5273
2026-01-23 12:19:39.19	338.74	23.11	-30.2	-33.4	18.8	6.02e-01	0	43	102	524288	21	5205
2026-01-23 12:19:42.21	338.83	22.61	-30.4	-33.5	18.5	6.04e-01	0	43	102	524288	22	5111
2026-01-23 12:19:45.22	338.92	22.13	-29.9	-32.2	19.3	6.04e-01	0	43	102	524288	22	4652
2026-01-23 12:19:48.24	339.01	21.65	-29.9	-32.5	19.3	6.02e-01	0	43	102	524288	21	4882
2026-01-23 12:19:51.25	339.09	21.19	-29.6	-31.9	19.7	6.03e-01	0	43	102	524288	21	4673
2026-01-23 12:19:54.27	339.18	20.73	-29.5	-31.6	19.8	6.03e-01	0	43	102	524288	21	4596
2026-01-23 12:19:57.29	339.26	20.28	-29.6	-31.7	19.7	6.03e-01	0	43	102	524288	21	4625
2026-01-23 12:20:00.30	339.34	19.84	-29.4	-31.4	19.9	6.01e-01	0	43	102	524288	21	4507
2026-01-23 12:20:03.32	339.41	19.41	-29.6	-31.8	19.6	6.04e-01	0	43	102	524288	21	4665
2026-01-23 12:20:06.34	339.49	18.98	-29.7	-32.0	19.5	6.02e-01	0	43	102	524288	21	4723
2026-01-23 12:20:09.35	339.56	18.57	-29.5	-31.7	19.7	6.03e-01	0	43	102	524288	21	4631
2026-01-23 12:20:12.38	339.64	18.16	-29.4	-31.4	19.9	6.03e-01	0	43	102	524288	21	4510
2026-01-23 12:20:15.39	339.71	17.76	-29.5	-32.1	19.8	6.03e-01	0	43	102	524288	20	4850
2026-01-23 12:20:18.40	339.77	17.37	-29.6	-32.5	19.5	6.02e-01	0	43	102	524288	20	5004
2026-01-23 12:20:21.41	339.84	16.98	-30.0	-33.3	19.0	6.01e-01	0	43	102	524288	20	5320
2026-01-23 12:20:24.42	339.91	16.60	-30.1	-33.7	18.7	6.02e-01	0	43	102	524288	20	5454
2026-01-23 12:20:27.45	339.97	16.23	-30.3	-33.7	18.4	6.03e-01	0	43	102	524288	21	5359
2026-01-23 12:20:30.46	340.03	15.86	-30.2	-33.4	18.5	6.03e-01	0	43	102	524288	21	5246
2026-01-23 12:20:33.47	340.10	15.50	-30.1	-33.4	18.6	6.03e-01	0	43	102	524288	21	5236
2026-01-23 12:20:36.48	340.16	15.15	-30.3	-33.8	18.2	6.00e-01	0	43	102	524288	21	5400
2026-01-23 12:20:39.49	340.22	14.80	-29.7	-32.2	19.3	6.03e-01	0	43	102	524288	21	4792
2026-01-23 12:20:42.51	340.27	14.45	-29.5	-31.7	19.5	6.02e-01	0	43	102	524288	21	4640
2026-01-23 12:20:45.53	340.33	14.11	-29.5	-31.6	19.6	6.03e-01	0	43	102	524288	21	4607
2026-01-23 12:20:48.54	340.39	13.78	-29.4	-31.5	19.6	6.02e-01	0	43	102	524288	21	4581
2026-01-23 12:20:51.55	340.44	13.45	-29.6	-32.0	19.2	6.03e-01	0	43	102	524288	21	4759
2026-01-23 12:20:54.56	340.49	13.13	-29.7	-32.2	19.1	6.00e-01	0	43	102	524288	21	4827
2026-01-23 12:20:57.56	340.55	12.81	-29.5	-31.8	19.3	6.05e-01	0	43	102	524288	21	4691
2026-01-23 12:21:00.56	340.60	12.50	-29.6	-32.1	19.2	6.02e-01	0	43	102	524288	21	4792
2026-01-23 12:21:03.57	340.65	12.19	-29.6	-31.9	19.2	6.05e-01	0	43	102	524288	21	4724
2026-01-23 12:21:06.59	340.70	11.88	-29.6	-32.1	19.1	6.03e-01	0	43	102	524288	21	4780
2026-01-23 12:21:09.61	340.75	11.58	-29.7	-32.4	18.9	6.01e-01	0	43	102	524288	21	4876
2026-01-23 12:21:12.63	340.80	11.28	-29.7	-32.2	19.0	6.03e-01	0	43	102	524288	21	4833
2026-01-23 12:21:15.64	340.85	10.99	-29.7	-32.3	18.9	6.03e-01	0	43	102	524288	21	4876
2026-01-23 12:21:18.65	340.89	10.70	-29.7	-32.4	18.8	6.02e-01	0	43	102	524288	21	4900
2026-01-23 12:21:21.67	340.94	10.41	-29.8	-32.6	18.7	6.01e-01	0	43	102	524288	21	4984
2026-01-23 12:21:24.68	340.99	10.13	-29.9	-33.0	18.4	6.02e-01	0	43	102	524288	21	5109
2026-01-23 12:21:27.69	341.03	9.85	-30.0	-33.3	18.3	6.04e-01	0	43	102	524288	21	5222
2026-01-23 12:21:30.71	341.07	9.57	-30.1	-33.5	18.1	6.02e-01	0	43	102	524288	21	5319
2026-01-23 12:21:33.73	341.12	9.30	-30.3	-33.9	17.7	6.04e-01	0	43	102	524288	21	5509
2026-01-23 12:21:36.73	341.16	9.03	-30.2	-33.9	17.8	6.01e-01	0	43	102	524288	21	5494
2026-01-23 12:21:39.74	341.20	8.77	-30.4	-34.5	17.4	6.02e-01	0	43	102	524288	21	5739
2026-01-23 12:21:42.74	341.25	8.51	-30.5	-34.3	17.2	6.02e-01	0	43	102	524288	22	5543
2026-01-23 12:21:45.75	341.29	8.25	-30.5	-34.2	17.2	6.02e-01	0	43	102	524288	22	5530
2026-01-23 12:21:48.76	341.33	7.99	-30.7	-34.9	16.7	6.02e-01	0	43	102	524288	22	5835
2026-01-23 12:21:51.78	341.37	7.74	-30.9	-35.5	16.2	6.02e-01	0	43	102	524288	22	6138
2026-01-23 12:21:54.80	341.41	7.49	-30.9	-35.6	16.2	6.03e-01	0	43	102	524288	22	6177
2026-01-23 12:21:57.81	341.45	7.24	-30.9	-35.6	16.1	6.02e-01	0	43	102	524288	22	6187
2026-01-23 12:22:00.81	341.49	6.99	-33.7	-52.9	3.8	7.47e-01	0	43	104	524288	28	32978

#Closed at: 2026-01-23 12:22:02
#Recorded file [0 MB]: D:/data/31010_260123_151130.dat