passes_logs/2026/01/23/R2M6_AANII_01/R2M6_AANII_01__20260123_020541_SUOMI_NPP_rec.log

#Pass ID: 20260123_020541_SUOMI NPP
#Satellite: SUOMI NPP
#Configuration: NPP
#almurnet v.1.7.20240730
#Start time: 2026-01-23 02:05:40

#Version: 2.2.20231116
#Station: R2M6_AANII_01
#Location: 30.233357 lon 59.946436 lat
#TLE: 1 37849U 11061A   26022.50498765  .00000208  00000+0  11976-3 0  9992
#TLE: 2 37849  98.7820 324.4892 0002275  50.8149 309.3229 14.19528284737775

#Time	Az	El	Level	Level2	SNR	BER	BlckErr	Temp	State	Recorded	gain1	gain2
2026-01-23 02:05:40.51	11.29	6.95	-32.6	-40.6	4.1	1.46e+00	0	41	0	0	25	9050
2026-01-23 02:05:43.51	11.06	7.15	-32.5	-39.7	5.1	6.38e-01	0	42	0	1048576	25	8255
2026-01-23 02:05:46.51	10.81	7.35	-32.5	-39.5	5.2	6.00e-01	0	42	0	7340032	25	8087
2026-01-23 02:05:49.52	10.57	7.56	-32.5	-39.1	5.4	5.44e-01	0	42	0	12582912	25	7735
2026-01-23 02:05:52.53	10.31	7.76	-31.9	-36.4	7.7	1.63e-01	0	42	0	17825792	24	6040
2026-01-23 02:05:55.54	10.06	7.97	-31.6	-35.5	8.8	3.10e-02	0	42	0	24117248	23	5643
2026-01-23 02:05:58.56	9.80	8.18	-31.4	-35.3	9.4	1.93e-02	0	42	0	29360128	22	5632
2026-01-23 02:06:01.56	9.54	8.38	-31.4	-35.1	9.6	1.62e-02	0	42	0	35651584	22	5515
2026-01-23 02:06:04.56	9.27	8.59	-31.0	-33.8	10.6	7.32e-03	0	42	0	40894464	22	4963
2026-01-23 02:06:07.57	9.00	8.80	-30.8	-33.6	11.1	4.20e-03	0	42	0	46137344	21	4980
2026-01-23 02:06:10.58	8.73	9.01	-31.0	-33.7	10.6	3.86e-03	0	42	0	52428800	22	4936
2026-01-23 02:06:13.58	8.45	9.23	-31.1	-34.0	10.4	7.23e-03	0	43	0	57671680	22	5053
2026-01-23 02:06:16.57	8.17	9.44	-31.1	-34.1	10.4	7.69e-03	0	43	0	62914560	22	5059
2026-01-23 02:06:19.57	7.89	9.65	-31.2	-34.4	10.2	8.75e-03	0	43	0	69206016	22	5183
2026-01-23 02:06:22.58	7.60	9.87	-31.3	-34.7	10.0	9.85e-03	0	43	0	74448896	22	5314
2026-01-23 02:06:25.60	7.30	10.09	-31.2	-34.3	10.3	4.81e-03	0	43	0	80740352	22	5133
2026-01-23 02:06:28.60	7.00	10.31	-31.2	-34.2	10.4	4.12e-03	0	43	0	85983232	22	5118
2026-01-23 02:06:31.60	6.70	10.52	-31.4	-34.6	9.7	1.27e-02	0	43	0	91226112	23	5204
2026-01-23 02:06:34.60	6.39	10.74	-30.8	-33.6	11.2	4.47e-03	0	43	0	97517568	21	4956
2026-01-23 02:06:37.59	6.07	10.96	-30.9	-33.7	11.1	3.64e-03	0	43	0	102760448	21	5003
2026-01-23 02:06:40.61	5.75	11.19	-30.9	-33.3	11.1	4.54e-03	0	43	0	108003328	22	4733
2026-01-23 02:06:43.61	5.43	11.41	-31.1	-33.8	10.7	2.90e-03	0	43	0	114294784	22	4943
2026-01-23 02:06:46.63	5.10	11.64	-30.9	-33.9	11.0	1.46e-03	0	43	0	119537664	21	5074
2026-01-23 02:06:49.63	4.76	11.86	-30.8	-33.6	11.3	1.27e-03	0	43	0	125829120	21	4945
2026-01-23 02:06:52.63	4.42	12.09	-30.8	-33.5	11.4	7.66e-04	0	43	0	131072000	21	4921
2026-01-23 02:06:55.64	4.08	12.32	-30.8	-33.4	11.4	1.22e-03	0	43	0	136314880	21	4874
2026-01-23 02:06:58.65	3.73	12.55	-30.9	-33.7	11.3	8.41e-04	0	43	0	142606336	21	4990
2026-01-23 02:07:01.67	3.37	12.78	-30.8	-33.6	11.4	8.22e-04	0	43	0	147849216	21	4939
2026-01-23 02:07:04.67	3.01	13.01	-30.8	-33.3	11.6	8.06e-04	0	43	0	153092096	21	4810
2026-01-23 02:07:07.68	2.64	13.24	-29.8	-31.7	12.3	1.81e-04	0	43	0	159383552	21	4472
2026-01-23 02:07:10.69	2.26	13.48	-30.6	-32.7	11.9	2.20e-04	0	43	0	164626432	21	4611
2026-01-23 02:07:13.70	1.88	13.71	-30.6	-32.7	12.1	2.24e-04	0	43	0	170917888	21	4577
2026-01-23 02:07:16.72	1.49	13.95	-30.6	-32.7	12.1	2.34e-04	0	43	0	176160768	21	4591
2026-01-23 02:07:19.73	1.10	14.19	-30.6	-32.7	12.1	4.70e-04	0	43	0	181403648	21	4594
2026-01-23 02:07:22.75	0.70	14.43	-30.9	-33.7	11.4	5.86e-04	0	43	0	187695104	21	4960
2026-01-23 02:07:25.75	0.29	14.66	-31.0	-33.5	11.3	1.35e-03	0	43	0	192937984	22	4771
2026-01-23 02:07:28.77	359.87	14.90	-30.8	-33.2	11.8	5.53e-04	0	44	0	199229440	21	4755
2026-01-23 02:07:31.78	359.45	15.14	-30.8	-33.3	11.8	3.03e-04	0	43	0	204472320	21	4780
2026-01-23 02:07:34.78	359.03	15.38	-30.4	-32.2	12.5	1.94e-04	0	44	0	209715200	21	4409
2026-01-23 02:07:37.78	358.59	15.63	-30.4	-32.5	12.6	2.24e-04	0	44	0	216006656	20	4622
2026-01-23 02:07:40.79	358.15	15.87	-30.2	-32.1	12.9	2.01e-04	0	44	0	221249536	20	4462
2026-01-23 02:07:43.79	357.70	16.11	-30.0	-31.6	13.4	2.27e-04	0	44	0	226492416	20	4294
2026-01-23 02:07:46.80	357.25	16.35	-30.3	-32.3	12.8	2.54e-04	0	44	0	232783872	20	4542
2026-01-23 02:07:49.81	356.78	16.60	-30.6	-32.6	12.3	3.33e-04	0	44	0	238026752	21	4551
2026-01-23 02:07:52.81	356.31	16.84	-30.7	-33.0	12.0	3.52e-04	0	44	0	244318208	21	4675
2026-01-23 02:07:55.82	355.83	17.09	-30.6	-32.6	12.4	2.04e-04	0	44	0	249561088	21	4520
2026-01-23 02:07:58.83	355.34	17.33	-30.8	-33.1	12.0	3.93e-04	0	44	0	254803968	21	4726
2026-01-23 02:08:01.84	354.84	17.58	-30.7	-32.8	12.2	3.48e-04	0	44	0	261095424	21	4606
2026-01-23 02:08:04.86	354.34	17.83	-30.8	-33.2	12.0	3.95e-04	0	44	0	266338304	21	4759
2026-01-23 02:08:07.86	353.83	18.07	-30.3	-31.8	13.0	2.36e-04	0	44	0	271581184	21	4269
2026-01-23 02:08:10.88	353.30	18.32	-30.5	-32.4	12.5	9.46e-05	0	44	0	277872640	21	4491
2026-01-23 02:08:13.88	352.77	18.56	-30.6	-32.6	12.3	2.06e-04	0	44	0	283115520	21	4549
2026-01-23 02:08:16.90	352.23	18.81	-30.8	-33.1	12.0	1.91e-04	0	44	0	289406976	21	4727
2026-01-23 02:08:19.91	351.68	19.06	-31.0	-33.7	11.7	4.92e-04	0	44	0	294649856	21	4911
2026-01-23 02:08:22.93	351.12	19.30	-31.4	-34.5	10.8	2.11e-03	0	44	0	299892736	22	5125
2026-01-23 02:08:25.94	350.56	19.55	-30.9	-32.8	12.0	3.48e-04	0	44	0	306184192	22	4499
2026-01-23 02:08:28.96	349.98	19.79	-30.7	-32.9	12.3	4.52e-04	0	44	0	311427072	21	4638
2026-01-23 02:08:31.97	349.39	20.04	-31.2	-34.0	11.2	4.52e-04	0	44	0	317718528	22	4951
2026-01-23 02:08:34.98	348.80	20.28	-31.3	-34.3	11.0	1.17e-03	0	44	0	322961408	22	5034
2026-01-23 02:08:37.99	348.19	20.52	-31.1	-33.5	11.6	7.61e-04	0	44	0	328204288	22	4723
2026-01-23 02:08:41.00	347.58	20.76	-30.9	-32.9	12.0	4.70e-04	0	44	0	334495744	22	4532
2026-01-23 02:08:44.01	346.95	21.00	-30.5	-31.7	12.9	6.48e-05	0	44	0	339738624	22	4127
2026-01-23 02:08:47.01	346.32	21.24	-30.6	-32.4	12.2	6.02e-05	0	44	0	346030080	21	4430
2026-01-23 02:08:50.02	345.68	21.47	-31.0	-33.2	11.8	3.76e-04	0	44	0	351272960	22	4613
2026-01-23 02:08:53.04	345.02	21.71	-30.4	-32.4	13.0	9.53e-05	0	44	0	356515840	20	4544
2026-01-23 02:08:56.06	344.36	21.94	-29.6	-30.7	14.4	3.00e-06	0	44	0	362807296	19	4103
2026-01-23 02:08:59.06	343.68	22.17	-29.5	-30.6	14.6	0.00e+00	0	44	0	368050176	19	4062
2026-01-23 02:09:02.06	343.00	22.40	-29.8	-31.4	14.0	1.50e-06	0	44	0	373293056	19	4306
2026-01-23 02:09:05.06	342.31	22.62	-29.8	-31.4	14.0	1.13e-03	0	44	0	379584512	19	4304
2026-01-23 02:09:08.04	341.61	22.84	-29.9	-31.2	13.8	2.59e-03	0	44	0	384827392	20	4151
2026-01-23 02:09:11.05	340.90	23.07	-29.5	-30.5	14.6	2.43e-03	0	44	0	391118848	19	4045
2026-01-23 02:09:14.06	340.17	23.28	-29.7	-31.1	14.3	2.23e-03	0	44	0	396361728	19	4199
2026-01-23 02:09:17.05	339.44	23.50	-30.0	-31.3	13.8	7.60e-06	0	44	0	401604608	20	4193
2026-01-23 02:09:20.05	338.70	23.71	-29.2	-30.2	15.1	7.00e-07	0	44	0	407896064	18	4037
2026-01-23 02:09:23.07	337.94	23.91	-29.1	-30.0	15.3	2.10e-03	0	44	0	413138944	18	3988
2026-01-23 02:09:26.07	337.18	24.12	-29.4	-30.9	14.7	2.44e-03	0	44	0	418381824	18	4240
2026-01-23 02:09:29.09	336.40	24.32	-29.3	-30.5	15.0	2.36e-03	0	44	0	424673280	18	4114
2026-01-23 02:09:32.10	335.61	24.51	-29.5	-30.5	14.6	2.14e-03	0	44	0	429916160	19	4048
2026-01-23 02:09:35.10	334.82	24.70	-30.0	-31.4	13.7	2.53e-03	0	44	0	435159040	20	4230
2026-01-23 02:09:38.10	334.02	24.89	-29.5	-30.4	14.8	2.24e-03	0	44	0	441450496	19	4006
2026-01-23 02:09:41.12	333.20	25.07	-29.8	-31.1	14.3	2.01e-03	0	44	0	446693376	19	4222
2026-01-23 02:09:44.13	332.38	25.24	-29.5	-30.5	14.8	2.21e-03	0	44	0	452984832	19	4022
2026-01-23 02:09:47.14	331.54	25.41	-29.2	-30.2	15.1	2.26e-03	0	44	0	458227712	18	4053
2026-01-23 02:09:50.15	330.70	25.58	-29.7	-30.8	14.5	1.96e-03	0	44	0	463470592	19	4130
2026-01-23 02:09:53.15	329.85	25.74	-29.3	-30.4	15.0	1.57e-03	0	44	0	469762048	18	4105
2026-01-23 02:09:56.16	329.00	25.89	-29.6	-30.6	14.6	0.00e+00	0	44	0	475004928	19	4053
2026-01-23 02:09:59.16	328.13	26.03	-30.1	-31.5	13.7	2.20e-06	0	44	0	481296384	20	4228
2026-01-23 02:10:02.16	327.26	26.17	-29.4	-30.1	14.9	0.00e+00	0	44	0	486539264	19	3920
2026-01-23 02:10:05.17	326.37	26.31	-29.4	-30.8	14.9	7.48e-04	0	44	0	491782144	18	4209
2026-01-23 02:10:08.17	325.49	26.43	-30.0	-31.2	13.9	1.21e-03	0	44	0	498073600	20	4149
2026-01-23 02:10:11.18	324.59	26.55	-30.0	-31.4	13.8	2.39e-03	0	44	0	503316480	20	4219
2026-01-23 02:10:14.19	323.69	26.66	-30.4	-32.4	13.1	1.44e-05	0	44	0	508559360	20	4530
2026-01-23 02:10:17.20	322.78	26.77	-30.6	-32.4	12.8	8.31e-05	0	44	0	514850816	21	4436
2026-01-23 02:10:20.21	321.86	26.86	-30.2	-31.8	13.6	8.30e-06	0	44	0	520093696	20	4312
2026-01-23 02:10:23.22	320.94	26.95	-30.7	-32.8	12.6	6.40e-05	0	44	0	526385152	21	4548
2026-01-23 02:10:26.22	320.01	27.03	-30.9	-32.7	12.2	2.64e-04	0	44	0	531628032	22	4430
2026-01-23 02:10:29.24	319.08	27.10	-30.9	-33.3	12.2	1.27e-04	0	44	0	536870912	21	4737
2026-01-23 02:10:32.26	318.14	27.17	-30.3	-31.6	13.3	2.13e-05	0	44	0	543162368	21	4195
2026-01-23 02:10:35.27	317.20	27.22	-30.8	-33.0	12.3	1.65e-04	0	44	0	548405248	21	4660
2026-01-23 02:10:38.29	316.26	27.27	-29.5	-31.5	12.5	4.57e-05	0	44	0	553648128	20	4517
2026-01-23 02:10:41.29	315.32	27.31	-30.6	-32.3	12.1	6.33e-05	0	44	0	559939584	21	4416
2026-01-23 02:10:44.29	314.37	27.34	-30.5	-32.7	12.9	5.11e-05	0	44	0	565182464	20	4633
2026-01-23 02:10:47.30	313.43	27.36	-31.0	-33.3	11.8	4.61e-04	0	44	0	571473920	22	4654
2026-01-23 02:10:50.32	312.47	27.38	-31.0	-33.3	11.8	5.24e-04	0	44	0	576716800	22	4652
2026-01-23 02:10:53.33	311.52	27.38	-30.8	-33.0	12.4	1.15e-03	0	44	0	581959680	21	4617
2026-01-23 02:10:56.34	310.57	27.38	-30.5	-32.1	13.0	1.44e-03	0	44	0	588251136	21	4329
2026-01-23 02:10:59.34	309.63	27.36	-30.4	-32.4	13.2	3.05e-05	0	44	0	593494016	20	4523
2026-01-23 02:11:02.36	308.68	27.34	-31.0	-33.0	12.1	2.23e-04	0	44	0	599785472	22	4548
2026-01-23 02:11:05.37	307.73	27.31	-30.4	-32.5	13.1	4.65e-05	0	44	0	605028352	20	4544
2026-01-23 02:11:08.40	306.78	27.27	-30.7	-32.5	12.7	2.42e-03	0	44	0	610271232	21	4471
2026-01-23 02:11:11.40	305.84	27.22	-30.4	-32.3	13.3	2.43e-03	0	44	0	616562688	20	4483
2026-01-23 02:11:14.41	304.90	27.17	-30.5	-32.0	13.1	2.33e-03	0	44	0	621805568	21	4308
2026-01-23 02:11:17.42	303.96	27.10	-29.8	-30.7	14.1	2.02e-03	0	44	0	627048448	20	3999
2026-01-23 02:11:20.41	303.04	27.03	-29.0	-29.8	15.5	2.23e-03	0	44	0	633339904	18	3925
2026-01-23 02:11:23.43	302.11	26.95	-29.1	-30.0	15.3	1.90e-03	0	44	0	638582784	18	3973
2026-01-23 02:11:26.43	301.19	26.86	-29.0	-29.6	15.5	2.01e-03	0	44	0	644874240	18	3881
2026-01-23 02:11:29.43	300.27	26.77	-29.7	-30.9	14.4	2.26e-03	0	44	0	650117120	19	4157
2026-01-23 02:11:32.43	299.36	26.66	-29.8	-31.2	14.4	1.86e-03	0	44	0	655360000	19	4223
2026-01-23 02:11:35.44	298.46	26.55	-29.6	-30.6	14.7	2.06e-03	0	44	0	661651456	19	4040
2026-01-23 02:11:38.44	297.56	26.43	-29.7	-31.0	14.4	2.33e-03	0	44	0	666894336	19	4179
2026-01-23 02:11:41.45	296.67	26.31	-29.8	-31.1	14.3	7.00e-07	0	44	0	672137216	19	4188
2026-01-23 02:11:44.46	295.79	26.17	-29.9	-30.9	14.1	4.50e-06	0	44	0	678428672	20	4046
2026-01-23 02:11:47.47	294.91	26.03	-29.6	-30.8	14.6	7.00e-07	0	44	0	683671552	19	4108
2026-01-23 02:11:50.48	294.04	25.89	-29.8	-31.1	14.4	1.55e-03	0	44	0	689963008	19	4187
2026-01-23 02:11:53.48	293.18	25.73	-29.8	-31.3	14.1	1.75e-03	0	44	0	695205888	19	4278
2026-01-23 02:11:56.49	292.33	25.58	-30.3	-32.0	13.3	2.36e-03	0	44	0	700448768	20	4405
2026-01-23 02:11:59.51	291.48	25.41	-30.6	-32.4	12.8	2.05e-05	0	44	0	706740224	21	4424
2026-01-23 02:12:02.52	290.65	25.24	-30.5	-32.3	12.8	5.18e-05	0	44	0	711983104	21	4418
2026-01-23 02:12:05.53	289.82	25.06	-30.4	-32.0	12.9	5.11e-05	0	44	0	717225984	21	4327
2026-01-23 02:12:08.52	289.01	24.88	-30.7	-32.9	12.3	1.13e-04	0	44	0	723517440	21	4606
2026-01-23 02:12:11.53	288.20	24.70	-30.5	-32.3	12.7	6.63e-05	0	44	0	728760320	21	4406
2026-01-23 02:12:14.54	287.41	24.51	-30.3	-31.7	13.1	2.74e-05	0	44	0	735051776	21	4230
2026-01-23 02:12:17.56	286.62	24.31	-30.4	-32.6	12.9	4.04e-05	0	44	0	740294656	20	4603
2026-01-23 02:12:20.57	285.84	24.11	-30.7	-32.8	12.2	1.54e-04	0	44	0	745537536	21	4612
2026-01-23 02:12:23.57	285.07	23.91	-30.1	-31.8	13.3	2.05e-05	0	44	0	751828992	20	4345
2026-01-23 02:12:26.57	284.32	23.70	-30.3	-32.1	13.1	2.36e-05	0	44	0	757071872	20	4467
2026-01-23 02:12:29.58	283.57	23.49	-30.8	-33.2	12.0	1.69e-04	0	44	0	762314752	21	4760
2026-01-23 02:12:32.58	282.83	23.28	-30.6	-32.6	12.4	2.65e-04	0	44	0	768606208	21	4527
2026-01-23 02:12:35.59	282.11	23.06	-30.1	-31.6	13.4	1.98e-05	0	44	0	773849088	20	4300
2026-01-23 02:12:38.58	281.39	22.84	-30.2	-31.9	13.2	3.12e-05	0	44	0	780140544	20	4404
2026-01-23 02:12:41.59	280.69	22.61	-30.7	-33.0	12.2	1.36e-04	0	44	0	785383424	21	4680
2026-01-23 02:12:44.60	279.99	22.39	-30.8	-33.1	12.0	3.37e-04	0	44	0	790626304	21	4731
2026-01-23 02:12:47.61	279.30	22.16	-29.8	-30.4	13.8	2.97e-05	0	44	0	796917760	21	3843
2026-01-23 02:12:50.62	278.63	21.93	-29.0	-29.8	15.2	0.00e+00	0	44	0	802160640	18	3956
2026-01-23 02:12:53.63	277.96	21.69	-29.3	-30.6	14.7	7.00e-07	0	44	0	807403520	18	4176
2026-01-23 02:12:56.64	277.31	21.46	-29.2	-30.4	14.8	3.50e-05	0	44	0	813694976	18	4117
2026-01-23 02:12:59.65	276.66	21.22	-29.4	-30.9	14.5	1.13e-04	0	44	0	818937856	18	4263
2026-01-23 02:13:02.66	276.02	20.98	-29.3	-30.6	14.6	8.16e-05	0	44	0	825229312	18	4192
2026-01-23 02:13:05.67	275.40	20.74	-29.4	-30.9	14.4	9.76e-05	0	44	0	830472192	18	4277
2026-01-23 02:13:08.67	274.78	20.50	-29.5	-30.7	14.2	2.78e-04	0	44	0	835715072	19	4125
2026-01-23 02:13:11.69	274.17	20.26	-29.8	-31.6	13.6	4.43e-04	0	44	0	842006528	19	4416
2026-01-23 02:13:14.69	273.58	20.02	-29.8	-31.0	13.6	6.71e-05	0	44	0	847249408	20	4126
2026-01-23 02:13:17.71	272.99	19.77	-29.4	-30.4	14.4	0.00e+00	0	44	0	853540864	19	4035
2026-01-23 02:13:20.72	272.41	19.53	-29.8	-31.6	13.6	7.60e-06	0	44	0	858783744	19	4389
2026-01-23 02:13:23.72	271.84	19.28	-29.3	-30.2	14.5	7.00e-07	0	44	0	864026624	19	3989
2026-01-23 02:13:26.72	271.28	19.04	-28.7	-29.2	15.5	0.00e+00	0	44	0	870318080	18	3793
2026-01-23 02:13:29.71	270.74	18.79	-28.7	-29.7	15.4	0.00e+00	0	44	0	875560960	17	4037
2026-01-23 02:13:32.72	270.19	18.55	-28.9	-30.0	15.2	0.00e+00	0	44	0	880803840	17	4117
2026-01-23 02:13:35.73	269.66	18.30	-29.4	-30.8	14.4	9.61e-05	0	44	0	887095296	18	4254
2026-01-23 02:13:38.74	269.14	18.05	-29.2	-30.5	14.6	7.00e-07	0	44	0	892338176	18	4145
2026-01-23 02:13:41.75	268.62	17.80	-29.3	-30.7	14.5	7.00e-07	0	44	0	898629632	18	4206
2026-01-23 02:13:44.77	268.11	17.56	-29.8	-31.5	13.7	5.30e-06	0	44	0	903872512	19	4373
2026-01-23 02:13:47.78	267.61	17.31	-29.7	-30.7	13.8	5.30e-06	0	44	0	909115392	20	4049
2026-01-23 02:13:50.80	267.12	17.06	-29.8	-31.5	13.6	6.10e-06	0	44	0	915406848	19	4360
2026-01-23 02:13:53.81	266.64	16.82	-29.8	-31.4	13.7	5.30e-06	0	44	0	920649728	19	4344
2026-01-23 02:13:56.82	266.16	16.57	-28.9	-29.6	15.1	0.00e+00	0	44	0	925892608	18	3899
2026-01-23 02:13:59.83	265.69	16.33	-29.2	-30.5	14.6	0.00e+00	0	44	0	932184064	18	4158
2026-01-23 02:14:02.84	265.23	16.08	-30.0	-31.6	13.1	1.22e-05	0	44	0	937426944	20	4320
2026-01-23 02:14:05.83	264.79	15.84	-29.1	-30.8	12.7	5.18e-05	0	44	0	943718400	20	4357
2026-01-23 02:14:08.84	264.34	15.60	-29.7	-31.3	12.9	8.30e-06	0	44	0	948961280	19	4312
2026-01-23 02:14:11.84	263.90	15.35	-30.0	-31.9	13.3	7.60e-06	0	44	0	954204160	19	4508
2026-01-23 02:14:14.85	263.47	15.11	-29.5	-31.0	14.2	7.00e-07	0	44	0	960495616	18	4319
2026-01-23 02:14:17.86	263.05	14.87	-29.9	-31.8	13.3	1.98e-05	0	44	0	965738496	19	4468
2026-01-23 02:14:20.87	262.63	14.63	-30.4	-32.7	12.4	5.58e-04	0	44	0	970981376	20	4700
2026-01-23 02:14:23.88	262.22	14.39	-30.4	-32.8	12.2	2.28e-03	0	44	0	977272832	20	4719
2026-01-23 02:14:26.89	261.82	14.15	-29.5	-30.6	14.1	5.30e-06	0	44	0	982515712	19	4113
2026-01-23 02:14:29.90	261.42	13.92	-29.4	-31.0	14.1	4.50e-06	0	44	0	988807168	18	4323
2026-01-23 02:14:32.91	261.03	13.68	-30.0	-31.7	13.0	1.44e-05	0	44	0	994050048	20	4370
2026-01-23 02:14:35.92	260.65	13.44	-29.6	-31.1	13.7	2.89e-03	0	44	0	999292928	19	4249
2026-01-23 02:14:38.91	260.28	13.21	-29.5	-31.2	14.0	3.57e-03	0	44	0	1005584384	18	4372
2026-01-23 02:14:41.92	259.90	12.98	-29.7	-31.2	13.6	4.36e-03	0	44	0	1010827264	19	4289
2026-01-23 02:14:44.94	259.54	12.74	-29.9	-31.3	13.1	4.57e-03	0	44	0	1016070144	20	4267
2026-01-23 02:14:47.96	259.18	12.51	-30.1	-31.9	12.7	4.63e-03	0	44	0	1022361600	20	4440
2026-01-23 02:14:50.96	258.82	12.28	-30.4	-32.9	12.0	3.55e-03	0	44	0	1027604480	20	4785
2026-01-23 02:14:53.97	258.47	12.05	-30.5	-32.7	11.7	3.61e-03	0	44	0	1033895936	21	4643
2026-01-23 02:14:56.99	258.13	11.82	-30.9	-33.8	11.0	3.86e-03	0	44	0	1039138816	21	5039
2026-01-23 02:14:59.99	257.79	11.60	-30.8	-33.3	11.4	1.49e-03	0	44	0	1044381696	21	4847
2026-01-23 02:15:03.01	257.46	11.37	-30.6	-32.8	11.8	3.13e-03	0	44	0	1050673152	21	4632
2026-01-23 02:15:06.02	257.13	11.15	-30.0	-31.6	12.9	3.14e-03	0	44	0	1055916032	20	4334
2026-01-23 02:15:09.02	256.81	10.92	-30.2	-32.2	12.5	1.59e-04	0	44	0	1062207488	20	4514
2026-01-23 02:15:12.03	256.49	10.70	-30.6	-32.9	11.6	4.59e-04	0	44	0	1067450368	21	4698
2026-01-23 02:15:15.03	256.18	10.48	-30.7	-33.1	11.5	1.23e-03	0	44	0	1072693248	21	4753
2026-01-23 02:15:18.04	255.88	10.26	-30.5	-32.8	11.6	7.62e-04	0	44	0	1078984704	21	4661
2026-01-23 02:15:21.05	255.57	10.04	-30.5	-32.6	11.7	5.90e-04	0	44	0	1084227584	21	4604
2026-01-23 02:15:24.05	255.27	9.82	-30.1	-32.0	12.5	3.70e-03	0	44	0	1089470464	20	4461
2026-01-23 02:15:27.05	254.98	9.61	-30.0	-31.8	12.6	8.16e-05	0	44	0	1095761920	20	4400
2026-01-23 02:15:30.06	254.69	9.39	-30.2	-32.4	12.1	1.85e-04	0	44	0	1101004800	20	4626
2026-01-23 02:15:33.07	254.41	9.18	-30.5	-32.7	11.5	6.32e-04	0	44	0	1107296256	21	4643
2026-01-23 02:15:36.07	254.13	8.96	-30.9	-33.9	10.7	1.91e-03	0	44	0	1112539136	21	5096
2026-01-23 02:15:39.07	253.85	8.75	-30.8	-33.8	10.8	2.71e-03	0	44	0	1117782016	21	5065
2026-01-23 02:15:42.07	253.58	8.54	-31.0	-33.8	10.5	3.93e-03	0	44	0	1124073472	22	4968
2026-01-23 02:15:45.08	253.31	8.33	-31.0	-34.3	10.3	4.03e-03	0	44	0	1129316352	21	5290
2026-01-23 02:15:48.09	253.05	8.12	-31.0	-34.0	10.2	4.86e-03	0	44	0	1134559232	22	5048
2026-01-23 02:15:51.09	252.79	7.92	-31.1	-34.4	9.8	7.62e-03	0	44	0	1140850688	22	5260
2026-01-23 02:15:54.10	252.53	7.71	-31.1	-34.4	9.7	1.26e-02	0	44	0	1146093568	22	5262
2026-01-23 02:15:57.10	252.28	7.51	-31.1	-34.5	9.1	1.24e-02	0	44	0	1151336448	22	5305
2026-01-23 02:16:00.11	252.03	7.30	-31.4	-35.7	8.7	2.92e-02	0	44	0	1157627904	22	5876
2026-01-23 02:16:03.12	251.78	7.10	-31.4	-35.5	8.8	3.28e-02	0	44	0	1162870784	22	5763

#Closed at: 2026-01-23 02:16:06
#Recorded file [1163 MB]: D:/data/31010_260123_050542.dat