passes_logs/2026/01/23/R2M6_AANII_01/R2M6_AANII_01__20260123_103830_NOAA_20_JPSS-1_rec.log

#Pass ID: 20260123_103830_NOAA 20 (JPSS-1)
#Satellite: NOAA 20 (JPSS-1)
#Configuration: NOAA 20
#almurnet v.1.7.20240730
#Start time: 2026-01-23 10:44:21

#Version: 2.2.20231116
#Station: R2M6_AANII_01
#Location: 30.233357 lon 59.946436 lat
#TLE: 1 43013U 17073A   26022.44900781  .00000193  00000+0  11233-3 0  9999
#TLE: 2 43013  98.7645 323.3100 0001197  28.8413 331.2829 14.19538802423792

#Time	Az	El	Level	Level2	SNR	BER	BlckErr	Temp	State	Recorded	gain1	gain2
2026-01-23 10:44:21.38	243.31	68.62	-34.1	-53.3	3.8	7.45e-01	0	42	0	0	29	32872
2026-01-23 10:44:23.39	245.95	68.79	-34.4	-47.9	3.8	1.49e+00	0	42	104	0	30	17019
2026-01-23 10:44:25.40	248.63	68.91	-34.4	-48.0	3.8	1.49e+00	0	42	104	0	30	17067
2026-01-23 10:44:27.41	251.34	68.99	-34.5	-48.0	3.8	1.49e+00	0	42	104	0	30	17115
2026-01-23 10:44:29.41	254.05	69.02	-34.5	-48.1	3.8	1.49e+00	0	42	104	0	30	17198
2026-01-23 10:44:31.42	256.77	69.02	-34.4	-48.0	3.8	1.49e+00	0	42	104	0	30	17150
2026-01-23 10:44:33.43	259.49	68.96	-34.4	-48.0	3.8	1.49e+00	0	42	104	0	30	17139
2026-01-23 10:44:35.44	262.19	68.87	-34.4	-48.0	3.8	1.49e+00	0	42	104	0	30	17089
2026-01-23 10:44:37.45	264.85	68.73	-34.4	-48.0	3.8	1.49e+00	0	42	104	0	30	17071
2026-01-23 10:44:39.47	267.49	68.55	-34.3	-47.7	3.8	1.49e+00	0	42	104	0	30	16812
2026-01-23 10:44:41.48	270.06	68.33	-34.2	-48.1	3.8	1.49e+00	0	42	104	0	29	17690
2026-01-23 10:44:43.49	272.57	68.08	-34.2	-48.5	3.8	1.49e+00	0	42	104	0	28	18725
2026-01-23 10:44:45.50	275.01	67.78	-34.1	-48.4	3.8	1.49e+00	0	42	104	0	28	18643
2026-01-23 10:44:47.50	277.37	67.46	-34.1	-48.4	3.8	1.49e+00	0	42	104	0	28	18598
2026-01-23 10:44:49.51	279.66	67.10	-34.1	-48.4	3.8	1.49e+00	0	42	104	0	28	18605
2026-01-23 10:44:51.52	281.87	66.71	-34.1	-48.4	3.8	1.49e+00	0	42	104	0	28	18595
2026-01-23 10:44:53.54	284.01	66.28	-34.1	-48.3	3.8	1.49e+00	0	42	104	0	28	18547
2026-01-23 10:44:55.55	286.06	65.84	-34.1	-48.4	3.8	1.49e+00	0	42	104	0	28	18638
2026-01-23 10:44:57.56	288.02	65.37	-34.1	-48.2	3.8	1.49e+00	0	42	104	0	28	18331
2026-01-23 10:44:59.57	289.90	64.88	-34.1	-48.3	3.8	1.49e+00	0	42	104	0	28	18528
2026-01-23 10:45:01.57	291.69	64.37	-34.1	-48.2	3.8	1.49e+00	0	42	104	0	28	18312
2026-01-23 10:45:03.58	293.40	63.84	-34.1	-48.0	3.8	1.49e+00	0	42	104	0	28	17842
2026-01-23 10:45:05.58	295.04	63.30	-34.1	-48.3	3.8	1.49e+00	0	42	104	0	28	18520
2026-01-23 10:45:07.59	296.61	62.74	-34.1	-47.8	3.8	1.49e+00	0	42	104	0	28	17439
2026-01-23 10:45:09.60	298.10	62.17	-33.9	-45.7	3.8	1.48e+00	0	42	104	0	28	13995
2026-01-23 10:45:11.60	299.52	61.59	-33.7	-42.9	4.7	1.43e+00	0	42	104	0	28	10456
2026-01-23 10:45:13.61	300.88	61.00	-33.4	-40.5	6.0	1.26e+00	0	42	104	0	28	8178
2026-01-23 10:45:15.62	302.18	60.41	-31.0	-33.7	12.9	1.06e-03	0	42	102	1048576	23	4914
2026-01-23 10:45:17.64	303.43	59.80	-30.6	-33.8	13.5	1.50e-06	0	42	102	1048576	21	5193
2026-01-23 10:45:19.65	304.61	59.19	-30.4	-33.2	14.0	1.14e-05	0	42	102	1048576	21	4954
2026-01-23 10:45:21.65	305.73	58.58	-29.7	-31.7	15.3	0.00e+00	0	42	102	1048576	20	4546
2026-01-23 10:45:23.65	306.81	57.96	-30.5	-33.8	14.0	0.00e+00	0	42	102	1048576	20	5267
2026-01-23 10:45:25.66	307.84	57.34	-29.4	-31.1	15.6	0.00e+00	0	42	102	1048576	20	4351
2026-01-23 10:45:27.67	308.82	56.72	-28.9	-30.2	16.5	0.00e+00	0	42	102	1048576	19	4188
2026-01-23 10:45:29.67	309.76	56.10	-29.5	-31.7	15.7	0.00e+00	0	42	102	1048576	19	4632
2026-01-23 10:45:31.68	310.66	55.48	-28.6	-30.1	16.8	0.00e+00	0	42	102	1048576	18	4271
2026-01-23 10:45:33.68	311.52	54.86	-28.0	-29.7	17.6	0.00e+00	0	42	102	1048576	16	4358
2026-01-23 10:45:35.69	312.34	54.24	-29.3	-31.8	15.9	0.00e+00	0	42	102	1048576	18	4779
2026-01-23 10:45:37.69	313.13	53.63	-28.6	-30.0	16.9	0.00e+00	0	42	102	1048576	18	4235
2026-01-23 10:45:39.71	313.89	53.01	-28.4	-29.6	17.1	0.00e+00	0	42	102	1048576	18	4125
2026-01-23 10:45:41.71	314.62	52.40	-28.8	-30.9	16.7	0.00e+00	0	42	102	1048576	17	4612
2026-01-23 10:45:43.72	315.32	51.79	-30.2	-32.9	14.5	0.00e+00	0	42	102	1048576	20	4940
2026-01-23 10:45:45.72	315.99	51.18	-29.1	-30.8	16.2	0.00e+00	0	42	102	1048576	19	4352
2026-01-23 10:45:47.74	316.63	50.58	-29.8	-32.4	15.2	0.00e+00	0	42	102	1048576	19	4865
2026-01-23 10:45:49.75	317.25	49.98	-31.0	-34.3	13.0	1.75e-05	0	42	102	1048576	22	5223
2026-01-23 10:45:51.76	317.85	49.39	-31.1	-34.4	12.9	5.11e-05	0	42	102	1048576	22	5290
2026-01-23 10:45:53.76	318.42	48.80	-31.0	-34.2	13.0	6.79e-05	0	42	102	1048576	22	5194
2026-01-23 10:45:55.77	318.97	48.22	-30.9	-33.8	13.4	1.52e-05	0	42	102	1048576	22	5020
2026-01-23 10:45:57.77	319.50	47.64	-32.6	-37.8	9.4	4.05e-03	0	42	102	1048576	25	6586
2026-01-23 10:45:59.79	320.02	47.06	-31.7	-35.2	11.6	4.25e-03	0	42	102	1048576	24	5388
2026-01-23 10:46:01.80	320.52	46.50	-30.2	-32.6	14.4	1.50e-06	0	42	102	1048576	21	4726
2026-01-23 10:46:03.81	321.00	45.93	-30.8	-34.0	13.5	1.37e-05	0	42	102	1048576	21	5219
2026-01-23 10:46:05.82	321.46	45.38	-31.5	-35.2	11.9	3.08e-04	0	42	102	1048576	23	5505
2026-01-23 10:46:07.83	321.90	44.83	-31.5	-35.1	12.0	4.90e-04	0	42	102	1048576	23	5474
2026-01-23 10:46:09.83	322.33	44.28	-30.7	-33.4	13.5	1.83e-05	0	42	102	1048576	22	4891
2026-01-23 10:46:11.84	322.75	43.74	-30.3	-32.8	14.3	7.00e-07	0	42	102	1048576	21	4778
2026-01-23 10:46:13.85	323.15	43.21	-30.1	-32.3	14.5	0.00e+00	0	42	102	1048576	21	4636
2026-01-23 10:46:15.85	323.54	42.69	-31.4	-35.3	12.2	1.49e-04	0	42	102	1048576	22	5658
2026-01-23 10:46:17.86	323.92	42.17	-31.2	-34.1	12.7	2.96e-04	0	42	102	1048576	23	5049
2026-01-23 10:46:19.86	324.29	41.65	-29.8	-31.4	15.1	0.00e+00	0	42	102	1048576	21	4358
2026-01-23 10:46:21.87	324.64	41.14	-29.8	-31.9	15.0	0.00e+00	0	42	102	1048576	20	4595
2026-01-23 10:46:23.87	324.99	40.64	-30.6	-33.6	13.7	6.10e-06	0	42	102	1048576	21	5075
2026-01-23 10:46:25.89	325.32	40.14	-31.3	-35.2	12.3	1.08e-04	0	42	102	1048576	22	5628
2026-01-23 10:46:27.89	325.65	39.65	-31.0	-34.3	12.9	1.70e-04	0	42	102	1048576	22	5242
2026-01-23 10:46:29.90	325.96	39.17	-29.4	-31.1	15.5	0.00e+00	0	42	102	1048576	20	4364
2026-01-23 10:46:31.91	326.27	38.69	-28.6	-30.0	16.8	0.00e+00	0	42	102	1048576	18	4248
2026-01-23 10:46:33.91	326.57	38.22	-28.9	-30.6	16.5	0.00e+00	0	42	102	1048576	18	4419
2026-01-23 10:46:35.93	326.86	37.75	-29.6	-32.0	15.3	0.00e+00	0	42	102	1048576	19	4745
2026-01-23 10:46:37.94	327.14	37.28	-30.4	-33.7	13.9	1.50e-06	0	42	102	1048576	20	5246
2026-01-23 10:46:39.95	327.41	36.83	-30.4	-33.1	14.0	6.10e-06	0	42	102	1048576	21	4917
2026-01-23 10:46:41.95	327.68	36.38	-30.1	-32.3	14.5	1.50e-06	0	42	102	1048576	21	4642
2026-01-23 10:46:43.96	327.94	35.93	-29.8	-31.5	14.9	0.00e+00	0	42	102	1048576	21	4389
2026-01-23 10:46:45.97	328.19	35.49	-29.8	-32.0	15.0	0.00e+00	0	42	102	1048576	20	4639
2026-01-23 10:46:47.98	328.44	35.06	-30.1	-32.8	14.5	1.50e-06	0	42	102	1048576	20	4915
2026-01-23 10:46:49.98	328.68	34.63	-30.7	-33.9	13.4	6.80e-06	0	42	102	1048576	21	5200
2026-01-23 10:46:51.99	328.92	34.21	-31.0	-34.2	12.9	6.25e-05	0	42	102	1048576	22	5211
2026-01-23 10:46:54.00	329.14	33.79	-30.9	-33.8	13.1	3.81e-05	0	42	102	1048576	22	5071
2026-01-23 10:46:56.01	329.37	33.38	-31.1	-34.5	12.7	6.63e-05	0	42	102	1048576	22	5340
2026-01-23 10:46:58.01	329.58	32.97	-31.2	-34.8	12.4	9.53e-05	0	42	102	1048576	22	5457
2026-01-23 10:47:00.02	329.80	32.57	-31.0	-34.3	12.8	7.09e-05	0	42	102	1048576	22	5253
2026-01-23 10:47:02.02	330.00	32.17	-31.0	-34.2	12.8	4.04e-05	0	42	102	1048576	22	5227
2026-01-23 10:47:04.04	330.21	31.78	-30.8	-33.6	13.3	2.05e-05	0	42	102	1048576	22	4971
2026-01-23 10:47:06.05	330.41	31.39	-30.8	-33.7	13.2	3.35e-05	0	42	102	1048576	22	5014
2026-01-23 10:47:08.06	330.60	31.00	-31.0	-34.2	12.8	4.65e-05	0	42	102	1048576	22	5217
2026-01-23 10:47:10.07	330.79	30.62	-31.1	-34.6	12.6	7.85e-05	0	42	102	1048576	22	5374
2026-01-23 10:47:12.09	330.98	30.25	-31.3	-35.3	12.0	2.11e-04	0	42	102	1048576	22	5679
2026-01-23 10:47:14.10	331.16	29.88	-31.4	-35.4	12.0	3.42e-04	0	42	102	1048576	22	5710
2026-01-23 10:47:16.11	331.34	29.51	-31.2	-34.8	12.4	1.53e-04	0	42	102	1048576	22	5476
2026-01-23 10:47:18.12	331.51	29.15	-30.8	-33.8	13.1	4.80e-05	0	42	102	1048576	22	5071
2026-01-23 10:47:20.13	331.68	28.80	-30.5	-32.8	13.7	1.06e-05	0	42	102	1048576	22	4728
2026-01-23 10:47:22.14	331.85	28.44	-30.5	-32.8	13.7	3.80e-06	0	42	102	1048576	22	4730
2026-01-23 10:47:24.14	332.01	28.10	-30.5	-32.8	13.7	5.30e-06	0	42	102	1048576	22	4712
2026-01-23 10:47:26.16	332.17	27.75	-30.4	-32.7	13.8	7.60e-06	0	42	102	1048576	22	4667
2026-01-23 10:47:28.17	332.33	27.41	-30.6	-33.2	13.4	9.10e-06	0	42	102	1048576	22	4857
2026-01-23 10:47:30.19	332.48	27.07	-30.8	-33.8	12.9	4.11e-05	0	42	102	1048576	22	5100
2026-01-23 10:47:32.20	332.63	26.74	-30.4	-32.6	13.8	6.80e-06	0	42	102	1048576	22	4644
2026-01-23 10:47:34.20	332.78	26.41	-30.2	-32.7	14.0	3.00e-06	0	42	102	1048576	21	4805
2026-01-23 10:47:36.20	332.92	26.09	-30.5	-33.5	13.5	1.06e-05	0	42	102	1048576	21	5073
2026-01-23 10:47:38.20	333.06	25.77	-30.2	-32.7	14.0	3.00e-06	0	42	102	1048576	21	4791
2026-01-23 10:47:40.21	333.20	25.46	-30.0	-32.1	14.3	1.50e-06	0	42	102	1048576	21	4607
2026-01-23 10:47:42.22	333.34	25.14	-29.8	-31.7	14.6	0.00e+00	0	42	102	1048576	21	4456
2026-01-23 10:47:44.23	333.47	24.83	-29.5	-31.3	15.1	0.00e+00	0	42	102	1048576	20	4441
2026-01-23 10:47:46.23	333.60	24.53	-29.1	-30.9	15.7	0.00e+00	0	42	102	1048576	19	4430
2026-01-23 10:47:48.24	333.73	24.22	-29.4	-31.6	15.3	0.00e+00	0	42	102	1048576	19	4628
2026-01-23 10:47:50.25	333.86	23.92	-29.5	-31.8	15.2	0.00e+00	0	42	102	1048576	19	4688
2026-01-23 10:47:52.26	333.99	23.63	-29.6	-32.1	15.0	0.00e+00	0	42	102	1048576	19	4792
2026-01-23 10:47:54.27	334.11	23.34	-29.7	-32.3	14.9	0.00e+00	0	42	102	1048576	19	4868
2026-01-23 10:47:56.29	334.23	23.04	-29.6	-32.0	15.0	0.00e+00	0	42	102	1048576	19	4784
2026-01-23 10:47:58.30	334.35	22.76	-29.2	-31.2	15.5	0.00e+00	0	42	102	1048576	19	4522
2026-01-23 10:48:00.31	334.46	22.47	-29.3	-31.4	15.4	0.00e+00	0	42	102	1048576	19	4573
2026-01-23 10:48:02.32	334.58	22.19	-29.2	-31.1	15.5	0.00e+00	0	42	102	1048576	19	4501
2026-01-23 10:48:04.32	334.69	21.92	-29.3	-31.4	15.4	0.00e+00	0	42	102	1048576	19	4576
2026-01-23 10:48:06.33	334.80	21.64	-29.3	-31.3	15.4	0.00e+00	0	42	102	1048576	19	4554
2026-01-23 10:48:08.34	334.91	21.37	-29.2	-31.1	15.5	0.00e+00	0	42	102	1048576	19	4480
2026-01-23 10:48:10.35	335.02	21.10	-29.1	-30.9	15.6	0.00e+00	0	42	102	1048576	19	4439
2026-01-23 10:48:12.36	335.13	20.83	-29.1	-30.9	15.6	0.00e+00	0	42	102	1048576	19	4431
2026-01-23 10:48:14.36	335.23	20.57	-29.1	-31.0	15.6	0.00e+00	0	42	102	1048576	19	4446
2026-01-23 10:48:16.37	335.33	20.31	-28.9	-30.5	15.8	0.00e+00	0	42	102	1048576	19	4312
2026-01-23 10:48:18.38	335.43	20.05	-29.0	-30.7	15.7	0.00e+00	0	42	102	1048576	19	4372
2026-01-23 10:48:20.39	335.53	19.80	-29.2	-31.0	15.5	0.00e+00	0	42	102	1048576	19	4470
2026-01-23 10:48:22.40	335.63	19.54	-29.3	-31.3	15.4	0.00e+00	0	42	102	1048576	19	4551
2026-01-23 10:48:24.41	335.73	19.29	-29.3	-31.5	15.2	0.00e+00	0	42	102	1048576	19	4625
2026-01-23 10:48:26.42	335.82	19.04	-29.4	-31.7	15.1	0.00e+00	0	42	102	1048576	19	4691
2026-01-23 10:48:28.43	335.91	18.80	-29.5	-31.9	15.0	0.00e+00	0	42	102	1048576	19	4757
2026-01-23 10:48:30.44	336.01	18.55	-29.6	-32.1	14.8	1.50e-06	0	42	102	1048576	19	4817
2026-01-23 10:48:32.45	336.10	18.31	-29.6	-32.2	14.8	0.00e+00	0	42	102	1048576	19	4853
2026-01-23 10:48:34.47	336.19	18.07	-29.8	-32.6	14.5	1.50e-06	0	42	102	1048576	19	4989
2026-01-23 10:48:36.48	336.28	17.84	-29.8	-32.8	14.4	0.00e+00	0	42	102	1048576	19	5057
2026-01-23 10:48:38.48	336.36	17.60	-29.9	-32.9	14.3	7.00e-07	0	42	102	1048576	19	5102
2026-01-23 10:48:40.49	336.45	17.37	-29.9	-32.5	14.2	7.00e-07	0	42	102	1048576	20	4843
2026-01-23 10:48:42.50	336.53	17.14	-29.8	-32.3	14.3	7.00e-07	0	42	102	1048576	20	4773
2026-01-23 10:48:44.51	336.62	16.91	-29.7	-32.0	14.4	0.00e+00	0	42	102	1048576	20	4690
2026-01-23 10:48:46.53	336.70	16.69	-29.8	-32.2	14.3	0.00e+00	0	42	102	1048576	20	4762
2026-01-23 10:48:48.53	336.78	16.46	-29.8	-32.3	14.2	7.00e-07	0	42	102	1048576	20	4806
2026-01-23 10:48:50.54	336.86	16.24	-29.9	-32.5	14.1	7.00e-07	0	42	102	1048576	20	4871
2026-01-23 10:48:52.54	336.94	16.02	-30.0	-32.9	13.9	6.10e-06	0	42	102	1048576	20	4997
2026-01-23 10:48:54.54	337.02	15.81	-30.0	-32.8	13.9	5.30e-06	0	42	102	1048576	20	4970
2026-01-23 10:48:56.56	337.10	15.59	-30.0	-33.0	13.7	6.80e-06	0	42	102	1048576	20	5035
2026-01-23 10:48:58.56	337.17	15.37	-30.2	-33.4	13.4	1.37e-05	0	42	102	1048576	20	5212
2026-01-23 10:49:00.56	337.25	15.16	-30.4	-33.9	13.1	1.90e-05	0	42	102	1048576	20	5394
2026-01-23 10:49:02.57	337.32	14.95	-30.3	-33.7	13.2	3.50e-05	0	42	102	1048576	20	5337
2026-01-23 10:49:04.56	337.39	14.75	-30.4	-34.1	13.0	5.03e-05	0	42	102	1048576	20	5471
2026-01-23 10:49:06.58	337.47	14.54	-30.6	-34.2	12.5	6.79e-05	0	42	102	1048576	21	5408
2026-01-23 10:49:08.58	337.54	14.33	-30.6	-33.9	12.7	1.06e-04	0	42	102	1048576	21	5314
2026-01-23 10:49:10.60	337.61	14.13	-30.4	-33.5	13.0	4.88e-05	0	42	102	1048576	21	5143
2026-01-23 10:49:12.61	337.68	13.93	-30.4	-33.6	12.9	4.57e-05	0	42	102	1048576	21	5171
2026-01-23 10:49:14.62	337.75	13.73	-30.5	-33.7	12.8	5.79e-05	0	42	102	1048576	21	5231
2026-01-23 10:49:16.63	337.82	13.53	-30.4	-33.5	12.9	4.19e-05	0	42	102	1048576	21	5159
2026-01-23 10:49:18.64	337.88	13.33	-30.5	-33.8	12.7	5.41e-05	0	42	102	1048576	21	5264
2026-01-23 10:49:20.65	337.95	13.13	-30.4	-33.5	12.9	6.48e-05	0	42	102	1048576	21	5141
2026-01-23 10:49:22.66	338.02	12.94	-30.4	-33.6	12.8	7.55e-05	0	42	102	1048576	21	5194
2026-01-23 10:49:24.68	338.08	12.75	-30.4	-33.6	12.8	6.63e-05	0	42	102	1048576	21	5189
2026-01-23 10:49:26.70	338.15	12.56	-30.5	-33.7	12.7	7.01e-05	0	42	102	1048576	21	5242
2026-01-23 10:49:28.70	338.21	12.37	-30.5	-33.9	12.5	9.30e-05	0	42	102	1048576	21	5335
2026-01-23 10:49:30.71	338.27	12.18	-30.5	-33.9	12.6	9.15e-05	0	42	102	1048576	21	5330
2026-01-23 10:49:32.72	338.34	11.99	-30.7	-34.4	12.2	2.39e-04	0	42	102	1048576	21	5504
2026-01-23 10:49:34.72	338.40	11.81	-30.7	-34.6	12.1	2.55e-04	0	42	102	1048576	21	5591
2026-01-23 10:49:36.72	338.46	11.62	-30.8	-34.9	11.8	5.84e-04	0	42	102	1048576	21	5722
2026-01-23 10:49:38.73	338.52	11.44	-30.7	-34.5	12.1	2.43e-04	0	42	102	1048576	21	5560
2026-01-23 10:49:40.74	338.58	11.26	-30.9	-35.0	11.7	4.20e-04	0	42	102	1048576	21	5792
2026-01-23 10:49:42.75	338.64	11.08	-30.6	-34.2	12.3	2.62e-04	0	42	102	1048576	21	5452
2026-01-23 10:49:44.76	338.70	10.90	-30.3	-33.5	12.8	6.48e-05	0	42	102	1048576	21	5150
2026-01-23 10:49:46.77	338.75	10.72	-30.3	-33.4	12.8	7.01e-05	0	42	102	1048576	21	5133
2026-01-23 10:49:48.78	338.81	10.55	-30.4	-33.5	12.7	9.07e-05	0	42	102	1048576	21	5170
2026-01-23 10:49:50.79	338.87	10.37	-30.4	-33.8	12.5	1.26e-04	0	42	102	1048576	21	5284
2026-01-23 10:49:52.80	338.93	10.20	-30.3	-33.3	12.9	5.72e-05	0	42	102	1048576	21	5082
2026-01-23 10:49:54.81	338.98	10.03	-30.2	-33.2	12.9	3.66e-05	0	42	102	1048576	21	5052
2026-01-23 10:49:56.82	339.04	9.86	-30.2	-33.2	12.9	6.86e-05	0	42	102	1048576	21	5057
2026-01-23 10:49:58.83	339.09	9.69	-30.3	-33.3	12.8	5.03e-05	0	42	102	1048576	21	5092
2026-01-23 10:50:00.84	339.14	9.52	-30.2	-33.2	12.8	7.93e-05	0	42	102	1048576	21	5081
2026-01-23 10:50:02.85	339.20	9.35	-30.1	-32.8	13.1	3.81e-05	0	42	102	1048576	21	4932
2026-01-23 10:50:04.87	339.25	9.18	-30.1	-32.9	13.0	4.57e-05	0	42	102	1048576	21	4957
2026-01-23 10:50:06.88	339.30	9.01	-30.2	-33.1	12.8	4.65e-05	0	42	102	1048576	21	5031
2026-01-23 10:50:08.89	339.36	8.85	-30.2	-33.2	12.8	8.23e-05	0	42	102	1048576	21	5063
2026-01-23 10:50:10.89	339.41	8.69	-30.4	-33.9	12.3	1.62e-04	0	42	102	1048576	21	5347
2026-01-23 10:50:12.90	339.46	8.53	-30.5	-34.0	12.1	2.77e-04	0	42	102	1048576	21	5424
2026-01-23 10:50:14.91	339.51	8.36	-30.5	-34.1	12.0	3.69e-04	0	42	102	1048576	21	5467
2026-01-23 10:50:16.92	339.56	8.20	-30.6	-34.3	11.9	3.81e-04	0	42	102	1048576	21	5529
2026-01-23 10:50:18.93	339.61	8.04	-30.3	-33.6	12.4	1.49e-04	0	42	102	1048576	21	5243
2026-01-23 10:50:20.95	339.66	7.88	-30.2	-33.3	12.6	1.01e-04	0	42	102	1048576	21	5116
2026-01-23 10:50:22.96	339.71	7.73	-30.3	-33.7	12.3	1.38e-04	0	42	102	1048576	21	5291
2026-01-23 10:50:24.97	339.76	7.57	-30.5	-34.0	12.1	2.19e-04	0	42	102	1048576	21	5419
2026-01-23 10:50:26.98	339.80	7.41	-30.3	-33.5	12.3	2.19e-04	0	42	102	1048576	21	5227
2026-01-23 10:50:29.00	339.85	7.26	-30.4	-33.8	12.1	2.10e-04	0	42	102	1048576	21	5350
2026-01-23 10:50:31.01	339.90	7.11	-30.6	-34.3	11.7	3.84e-04	0	42	102	1048576	21	5569
2026-01-23 10:50:33.02	339.95	6.95	-33.8	-48.1	3.8	1.49e+00	0	42	104	1048576	27	18729

#Closed at: 2026-01-23 10:50:34
#Recorded file [1 MB]: D:/data/31010_260123_134514.dat