passes_logs/2026/01/23/R2M6_AANII_01/R2M6_AANII_01__20260123_004544_NOAA_20_JPSS-1_rec.log

#Pass ID: 20260123_004544_NOAA 20 (JPSS-1)
#Satellite: NOAA 20 (JPSS-1)
#Configuration: NOAA 20
#almurnet v.1.7.20240730
#Start time: 2026-01-23 00:45:44

#Version: 2.2.20231116
#Station: R2M6_AANII_01
#Location: 30.233357 lon 59.946436 lat
#TLE: 1 43013U 17073A   26022.44900781  .00000193  00000+0  11233-3 0  9999
#TLE: 2 43013  98.7645 323.3100 0001197  28.8413 331.2829 14.19538802423792

#Time	Az	El	Level	Level2	SNR	BER	BlckErr	Temp	State	Recorded	gain1	gain2
2026-01-23 00:45:44.70	16.09	7.05	-32.2	-39.8	4.7	1.35e+00	0	42	0	0	24	8682
2026-01-23 00:45:47.71	16.04	7.28	-32.4	-40.5	6.0	3.30e-01	0	42	0	1048576	24	9177
2026-01-23 00:45:50.71	15.98	7.51	-32.1	-38.9	7.2	1.79e-01	0	42	0	7340032	24	7841
2026-01-23 00:45:53.72	15.92	7.75	-31.9	-38.4	8.0	6.24e-02	0	42	0	12582912	23	7531
2026-01-23 00:45:56.73	15.86	7.99	-31.9	-38.3	8.1	7.89e-02	0	42	0	17825792	23	7476
2026-01-23 00:45:59.73	15.80	8.22	-31.8	-37.4	8.9	4.14e-02	0	42	0	24117248	23	6913
2026-01-23 00:46:02.74	15.74	8.47	-31.3	-36.1	10.3	8.99e-03	0	42	0	29360128	22	6254
2026-01-23 00:46:05.73	15.68	8.71	-30.9	-35.5	11.2	4.49e-03	0	42	0	35651584	21	6065
2026-01-23 00:46:08.74	15.61	8.96	-31.0	-35.1	11.0	4.73e-03	0	43	0	40894464	22	5776
2026-01-23 00:46:11.75	15.55	9.20	-30.8	-34.9	11.6	3.26e-03	0	42	0	46137344	21	5798
2026-01-23 00:46:14.76	15.48	9.46	-30.9	-35.4	11.3	1.33e-03	0	42	0	52428800	21	5991
2026-01-23 00:46:17.77	15.41	9.71	-31.0	-35.4	11.3	4.32e-03	0	43	0	57671680	21	6019
2026-01-23 00:46:20.78	15.34	9.97	-31.2	-35.6	10.8	4.76e-03	0	43	0	62914560	22	5989
2026-01-23 00:46:23.80	15.27	10.23	-30.9	-35.3	11.4	3.72e-03	0	43	0	69206016	21	5955
2026-01-23 00:46:26.80	15.20	10.49	-30.7	-34.6	11.9	3.14e-03	0	43	0	74448896	21	5624
2026-01-23 00:46:29.81	15.12	10.75	-30.7	-34.7	11.9	3.03e-03	0	43	0	80740352	21	5657
2026-01-23 00:46:32.82	15.04	11.02	-30.8	-34.9	11.7	7.77e-04	0	43	0	85983232	21	5769
2026-01-23 00:46:35.82	14.97	11.29	-30.5	-33.9	12.5	1.46e-04	0	43	0	91226112	21	5308
2026-01-23 00:46:38.84	14.89	11.56	-30.4	-34.1	12.7	8.31e-05	0	43	0	97517568	20	5530
2026-01-23 00:46:41.84	14.81	11.84	-30.4	-33.7	12.6	2.78e-03	0	43	0	102760448	21	5240
2026-01-23 00:46:44.86	14.72	12.12	-30.5	-34.3	12.6	2.74e-03	0	43	0	109051904	20	5608
2026-01-23 00:46:47.87	14.64	12.40	-30.4	-34.0	12.9	2.67e-05	0	43	0	114294784	20	5459
2026-01-23 00:46:50.88	14.55	12.69	-30.2	-33.6	13.1	3.12e-05	0	43	0	119537664	20	5314
2026-01-23 00:46:53.90	14.46	12.98	-30.4	-34.1	12.8	4.50e-05	0	43	0	125829120	20	5500
2026-01-23 00:46:56.90	14.37	13.27	-30.0	-33.0	13.6	7.60e-06	0	43	0	131072000	20	5074
2026-01-23 00:46:59.91	14.28	13.56	-30.0	-32.8	13.7	6.10e-06	0	43	0	136314880	20	5002
2026-01-23 00:47:02.92	14.18	13.86	-30.2	-33.5	13.3	1.60e-05	0	43	0	142606336	20	5237
2026-01-23 00:47:05.93	14.09	14.17	-29.9	-32.6	13.9	2.20e-06	0	43	0	147849216	20	4903
2026-01-23 00:47:08.94	13.99	14.47	-30.0	-33.3	13.9	3.00e-06	0	43	0	154140672	19	5265
2026-01-23 00:47:11.94	13.89	14.78	-29.9	-33.1	13.8	4.50e-06	0	43	0	159383552	19	5208
2026-01-23 00:47:14.95	13.78	15.10	-30.2	-33.3	13.3	5.30e-06	0	43	0	164626432	20	5159
2026-01-23 00:47:17.96	13.68	15.41	-30.0	-33.2	13.9	6.10e-06	0	43	0	170917888	19	5237
2026-01-23 00:47:20.97	13.57	15.74	-29.9	-32.7	13.9	2.20e-06	0	43	0	176160768	20	4934
2026-01-23 00:47:23.97	13.46	16.06	-29.9	-32.9	14.2	7.00e-07	0	43	0	181403648	19	5118
2026-01-23 00:47:26.98	13.34	16.39	-30.1	-33.2	13.6	3.70e-04	0	43	0	187695104	20	5121
2026-01-23 00:47:29.98	13.22	16.73	-29.9	-32.5	14.1	3.36e-04	0	43	0	192937984	20	4854
2026-01-23 00:47:32.98	13.10	17.07	-30.0	-32.7	14.0	3.12e-04	0	44	0	199229440	20	4942
2026-01-23 00:47:35.99	12.98	17.41	-29.6	-32.2	14.7	7.00e-07	0	44	0	204472320	19	4862
2026-01-23 00:47:39.00	12.85	17.76	-29.6	-32.3	14.7	0.00e+00	0	44	0	209715200	19	4877
2026-01-23 00:47:42.00	12.73	18.12	-29.4	-31.8	15.0	0.00e+00	0	44	0	216006656	19	4722
2026-01-23 00:47:45.01	12.59	18.47	-29.4	-32.1	15.1	2.46e-04	0	44	0	221249536	18	4943
2026-01-23 00:47:48.02	12.46	18.84	-29.2	-31.7	15.4	2.18e-04	0	44	0	226492416	18	4790
2026-01-23 00:47:51.03	12.32	19.21	-29.1	-31.4	15.6	1.94e-04	0	44	0	232783872	18	4693
2026-01-23 00:47:54.04	12.17	19.58	-29.0	-31.2	15.7	1.81e-04	0	44	0	238026752	18	4619
2026-01-23 00:47:57.04	12.02	19.96	-28.9	-31.4	15.8	1.62e-04	0	44	0	244318208	17	4812
2026-01-23 00:48:00.05	11.87	20.35	-28.8	-31.3	15.9	0.00e+00	0	44	0	249561088	17	4780
2026-01-23 00:48:03.05	11.72	20.74	-28.9	-31.4	15.9	1.43e-04	0	44	0	254803968	17	4816
2026-01-23 00:48:06.06	11.56	21.14	-28.9	-31.5	15.9	1.50e-04	0	44	0	261095424	17	4823
2026-01-23 00:48:09.07	11.39	21.54	-28.9	-30.9	15.9	6.25e-05	0	44	0	266338304	18	4535
2026-01-23 00:48:12.09	11.22	21.96	-29.2	-31.7	15.5	2.51e-05	0	44	0	272629760	18	4768
2026-01-23 00:48:15.10	11.05	22.37	-28.9	-31.0	15.9	0.00e+00	0	44	0	277872640	18	4562
2026-01-23 00:48:18.11	10.87	22.80	-29.0	-31.3	15.7	0.00e+00	0	44	0	283115520	18	4652
2026-01-23 00:48:21.12	10.68	23.23	-29.0	-31.1	15.8	0.00e+00	0	44	0	289406976	18	4604
2026-01-23 00:48:24.14	10.49	23.67	-29.2	-31.6	15.6	0.00e+00	0	44	0	294649856	18	4743
2026-01-23 00:48:27.15	10.30	24.11	-29.3	-31.9	15.4	0.00e+00	0	44	0	300941312	18	4834
2026-01-23 00:48:30.16	10.09	24.56	-29.6	-32.0	15.0	0.00e+00	0	44	0	306184192	19	4783
2026-01-23 00:48:33.17	9.88	25.02	-29.6	-32.2	15.0	0.00e+00	0	44	0	311427072	19	4824
2026-01-23 00:48:36.18	9.67	25.49	-29.9	-32.9	14.5	7.00e-07	0	44	0	317718528	19	5064
2026-01-23 00:48:39.18	9.45	25.96	-30.0	-32.8	14.2	2.20e-06	0	44	0	322961408	20	4933
2026-01-23 00:48:42.19	9.22	26.45	-30.2	-33.2	13.9	7.00e-07	0	44	0	328204288	20	5091
2026-01-23 00:48:45.20	8.98	26.94	-30.3	-33.5	13.8	5.30e-06	0	44	0	334495744	20	5181
2026-01-23 00:48:48.21	8.74	27.44	-30.5	-33.5	13.4	1.22e-05	0	44	0	339738624	21	5095
2026-01-23 00:48:51.20	8.49	27.94	-30.9	-34.6	12.7	5.03e-05	0	44	0	344981504	21	5522
2026-01-23 00:48:54.22	8.23	28.46	-31.2	-35.0	12.2	2.38e-04	0	44	0	351272960	22	5557
2026-01-23 00:48:57.24	7.96	28.99	-31.4	-35.6	11.7	5.42e-04	0	44	0	356515840	22	5827
2026-01-23 00:49:00.25	7.68	29.52	-31.6	-35.6	11.4	7.86e-04	0	44	0	362807296	23	5716
2026-01-23 00:49:03.26	7.39	30.07	-31.7	-36.2	10.9	1.43e-03	0	44	0	368050176	23	5991
2026-01-23 00:49:06.25	7.09	30.62	-30.8	-35.7	10.5	3.00e-03	0	44	0	373293056	23	6335
2026-01-23 00:49:09.26	6.78	31.19	-32.1	-36.9	10.1	6.66e-03	0	44	0	379584512	24	6239
2026-01-23 00:49:12.26	6.46	31.76	-32.3	-37.5	9.6	1.15e-02	0	44	0	384827392	24	6584
2026-01-23 00:49:15.28	6.12	32.35	-32.3	-37.4	9.7	1.08e-02	0	44	0	391118848	24	6524
2026-01-23 00:49:18.28	5.78	32.94	-32.1	-36.7	10.3	9.23e-03	0	44	0	396361728	24	6102
2026-01-23 00:49:21.28	5.42	33.54	-32.2	-37.0	10.1	7.27e-03	0	44	0	401604608	24	6284
2026-01-23 00:49:24.28	5.04	34.16	-32.4	-37.7	9.5	1.16e-02	0	44	0	407896064	24	6679
2026-01-23 00:49:27.27	4.66	34.78	-32.3	-37.5	9.7	1.07e-02	0	44	0	413138944	24	6549
2026-01-23 00:49:30.29	4.25	35.42	-32.2	-37.2	10.0	8.48e-03	0	44	0	418381824	24	6353
2026-01-23 00:49:33.29	3.83	36.07	-32.2	-37.2	10.0	8.85e-03	0	44	0	424673280	24	6358
2026-01-23 00:49:36.30	3.39	36.74	-32.4	-37.7	9.5	1.44e-02	0	44	0	429916160	24	6665
2026-01-23 00:49:39.31	2.93	37.41	-32.5	-37.7	9.2	2.16e-02	0	44	0	436207616	25	6535
2026-01-23 00:49:42.32	2.45	38.09	-32.3	-37.3	9.9	1.31e-02	0	44	0	441450496	24	6398
2026-01-23 00:49:45.33	1.95	38.79	-32.3	-37.6	9.7	9.29e-03	0	44	0	446693376	24	6561
2026-01-23 00:49:48.33	1.43	39.50	-32.4	-37.7	9.5	1.62e-02	0	44	0	452984832	24	6651
2026-01-23 00:49:51.34	0.88	40.22	-31.9	-36.5	10.9	4.81e-03	0	44	0	458227712	23	6094
2026-01-23 00:49:54.35	0.31	40.95	-31.6	-35.6	11.6	3.22e-03	0	44	0	463470592	23	5683
2026-01-23 00:49:57.36	359.71	41.70	-31.7	-35.7	11.5	3.07e-03	0	44	0	469762048	23	5738
2026-01-23 00:50:00.36	359.09	42.45	-31.3	-35.3	12.2	2.52e-03	0	44	0	475004928	22	5642
2026-01-23 00:50:03.38	358.42	43.22	-31.4	-35.4	12.2	2.43e-03	0	44	0	481296384	22	5684
2026-01-23 00:50:06.39	357.73	44.00	-30.7	-33.8	13.4	1.75e-05	0	44	0	486539264	21	5168
2026-01-23 00:50:09.40	357.00	44.79	-30.3	-33.4	14.1	1.50e-06	0	44	0	491782144	20	5123
2026-01-23 00:50:12.41	356.24	45.59	-30.0	-32.5	14.7	1.65e-03	0	44	0	498073600	20	4787
2026-01-23 00:50:15.41	355.43	46.40	-30.2	-33.1	14.3	1.32e-03	0	44	0	503316480	20	5002
2026-01-23 00:50:18.42	354.58	47.22	-30.3	-33.4	14.2	1.32e-03	0	44	0	508559360	20	5107
2026-01-23 00:50:21.44	353.69	48.05	-30.5	-33.7	14.0	1.46e-03	0	44	0	514850816	20	5232
2026-01-23 00:50:24.44	352.74	48.88	-30.7	-33.8	13.5	8.30e-06	0	44	0	520093696	21	5152
2026-01-23 00:50:27.46	351.74	49.73	-30.1	-32.7	14.6	1.50e-06	0	44	0	526385152	20	4874
2026-01-23 00:50:30.46	350.68	50.58	-29.6	-32.0	15.4	0.00e+00	0	44	0	531628032	19	4748
2026-01-23 00:50:33.46	349.57	51.43	-29.3	-31.3	15.7	0.00e+00	0	44	0	536870912	19	4528
2026-01-23 00:50:36.46	348.38	52.28	-29.7	-32.2	15.2	0.00e+00	0	44	0	543162368	19	4822
2026-01-23 00:50:39.47	347.13	53.14	-28.6	-33.1	14.0	2.46e-02	0	44	0	548405248	16	6039
2026-01-23 00:50:42.47	345.80	54.00	-25.6	-32.3	12.7	3.37e-02	0	44	0	553648128	12	7712
2026-01-23 00:50:45.48	344.38	54.85	-22.6	-33.9	11.4	3.61e-02	0	44	0	559939584	4	13169
2026-01-23 00:50:48.49	342.87	55.71	-18.2	-33.3	10.2	4.27e-02	0	44	0	565182464	0	20534
2026-01-23 00:50:51.50	341.27	56.55	-16.9	-33.0	9.1	6.16e-02	0	44	0	571473920	0	22996
2026-01-23 00:50:54.52	339.57	57.39	-17.4	-34.0	8.9	1.40e-01	0	44	0	576716800	0	24317
2026-01-23 00:50:57.52	337.76	58.20	-21.8	-36.9	9.0	2.09e-01	0	44	0	581959680	0	20527
2026-01-23 00:51:00.53	335.84	59.01	-20.0	-34.8	9.2	1.74e-01	0	44	0	588251136	0	19871
2026-01-23 00:51:03.54	333.80	59.79	-20.7	-34.0	10.2	2.36e-01	0	44	0	593494016	0	16812
2026-01-23 00:51:06.54	331.64	60.54	-18.5	-31.0	12.2	3.98e-02	0	44	0	598736896	0	15222
2026-01-23 00:51:09.55	329.34	61.27	-17.3	-29.6	12.8	3.40e-02	0	44	0	605028352	0	14743
2026-01-23 00:51:12.56	326.90	61.96	-23.6	-31.3	13.5	3.41e-02	0	44	0	610271232	7	8722
2026-01-23 00:51:15.57	324.33	62.61	-26.3	-30.5	13.6	3.23e-02	0	44	0	616562688	15	5826
2026-01-23 00:51:18.59	321.61	63.22	-29.2	-32.8	13.3	2.85e-02	0	44	0	621805568	19	5403
2026-01-23 00:51:21.58	318.79	63.76	-28.3	-31.3	14.8	2.95e-02	0	44	0	627048448	16	5086
2026-01-23 00:51:24.60	315.80	64.26	-26.9	-30.8	14.4	3.07e-02	0	44	0	633339904	15	5632
2026-01-23 00:51:27.61	312.70	64.70	-28.5	-33.7	12.4	3.11e-02	0	44	0	638582784	17	6534
2026-01-23 00:51:30.61	309.49	65.06	-30.1	-32.8	14.6	0.00e+00	0	44	0	644874240	20	4910
2026-01-23 00:51:33.63	306.17	65.36	-30.8	-34.0	13.5	4.50e-06	0	44	0	650117120	21	5248
2026-01-23 00:51:36.63	302.80	65.58	-30.6	-33.6	13.8	1.61e-04	0	44	0	655360000	21	5062
2026-01-23 00:51:39.64	299.35	65.72	-29.9	-31.6	15.0	7.17e-05	0	44	0	661651456	21	4414
2026-01-23 00:51:42.65	295.87	65.78	-29.9	-32.2	15.0	3.04e-04	0	44	0	666894336	20	4689
2026-01-23 00:51:45.66	292.39	65.76	-29.6	-32.0	15.4	1.32e-03	0	44	0	672137216	19	4729
2026-01-23 00:51:48.67	288.93	65.66	-29.6	-32.0	15.4	7.51e-04	0	44	0	678428672	19	4732
2026-01-23 00:51:51.68	285.50	65.48	-30.0	-32.6	14.6	1.26e-03	0	44	0	683671552	20	4836
2026-01-23 00:51:54.69	282.15	65.22	-30.1	-32.8	14.4	2.28e-05	0	44	0	689963008	20	4900
2026-01-23 00:51:57.70	278.88	64.89	-29.8	-32.4	15.2	0.00e+00	0	44	0	695205888	19	4864
2026-01-23 00:52:00.72	275.71	64.49	-29.4	-31.6	15.6	1.57e-03	0	44	0	700448768	19	4596
2026-01-23 00:52:03.74	272.66	64.02	-28.4	-30.6	17.1	2.18e-03	0	44	0	706740224	16	4633
2026-01-23 00:52:06.74	269.75	63.50	-27.8	-29.3	17.8	1.55e-03	0	44	0	711983104	16	4253
2026-01-23 00:52:09.75	266.97	62.92	-28.2	-30.2	17.3	0.00e+00	0	44	0	717225984	16	4520
2026-01-23 00:52:12.76	264.33	62.29	-28.4	-30.0	17.1	0.00e+00	0	44	0	723517440	17	4354
2026-01-23 00:52:15.77	261.82	61.62	-29.8	-32.5	15.1	0.00e+00	0	44	0	728760320	19	4904
2026-01-23 00:52:18.78	259.45	60.91	-30.3	-33.4	14.2	1.50e-06	0	44	0	735051776	20	5118
2026-01-23 00:52:21.78	257.22	60.16	-31.4	-35.3	12.2	1.65e-04	0	44	0	740294656	22	5661
2026-01-23 00:52:24.79	255.11	59.39	-31.9	-36.2	11.2	3.42e-03	0	44	0	745537536	23	5966
2026-01-23 00:52:27.81	253.12	58.60	-32.2	-36.8	10.3	2.03e-03	0	44	0	751828992	24	6152
2026-01-23 00:52:30.82	251.25	57.78	-31.9	-35.9	11.1	2.30e-03	0	44	0	757071872	24	5731
2026-01-23 00:52:33.83	249.50	56.95	-31.3	-34.5	12.4	2.28e-04	0	44	0	763363328	23	5209
2026-01-23 00:52:36.85	247.84	56.11	-30.6	-33.2	13.6	1.22e-05	0	44	0	768606208	22	4842
2026-01-23 00:52:39.86	246.28	55.26	-29.8	-32.1	14.8	0.00e+00	0	44	0	773849088	20	4695
2026-01-23 00:52:42.86	244.83	54.40	-29.7	-32.3	15.1	0.00e+00	0	44	0	780140544	19	4863
2026-01-23 00:52:45.88	243.44	53.54	-30.5	-33.9	13.7	3.80e-06	0	44	0	785383424	20	5337
2026-01-23 00:52:48.88	242.15	52.68	-30.4	-33.6	13.9	6.10e-06	0	44	0	790626304	20	5235
2026-01-23 00:52:51.90	240.92	51.82	-30.7	-33.9	13.4	5.30e-06	0	44	0	796917760	21	5223
2026-01-23 00:52:54.90	239.77	50.96	-31.1	-34.4	12.7	1.18e-04	0	44	0	802160640	22	5321
2026-01-23 00:52:57.90	238.69	50.11	-30.9	-34.1	12.9	5.56e-05	0	44	0	808452096	22	5196
2026-01-23 00:53:00.91	237.66	49.26	-30.6	-33.6	13.5	8.30e-06	0	44	0	813694976	21	5101
2026-01-23 00:53:03.91	236.69	48.42	-31.2	-35.0	12.3	1.56e-04	0	44	0	818937856	22	5544
2026-01-23 00:53:06.92	235.76	47.58	-30.7	-34.0	13.2	1.90e-05	0	44	0	825229312	21	5258
2026-01-23 00:53:09.93	234.89	46.76	-30.4	-33.6	13.8	7.00e-07	0	44	0	830472192	20	5229
2026-01-23 00:53:12.93	234.06	45.94	-30.5	-33.5	13.5	3.00e-06	0	44	0	835715072	21	5084
2026-01-23 00:53:15.94	233.28	45.13	-30.7	-34.0	13.2	1.67e-05	0	44	0	842006528	21	5288
2026-01-23 00:53:18.94	232.53	44.34	-31.1	-34.7	12.4	3.73e-05	0	44	0	847249408	22	5463
2026-01-23 00:53:21.95	231.82	43.55	-31.4	-35.7	11.7	4.25e-04	0	44	0	853540864	22	5883
2026-01-23 00:53:24.96	231.14	42.78	-31.8	-36.3	10.9	1.64e-03	0	44	0	858783744	23	6065
2026-01-23 00:53:27.97	230.50	42.01	-31.9	-36.9	10.5	2.47e-03	0	44	0	864026624	23	6361
2026-01-23 00:53:30.98	229.88	41.26	-32.2	-37.4	9.7	1.13e-02	0	44	0	870318080	24	6548
2026-01-23 00:53:33.99	229.30	40.52	-32.6	-38.4	8.6	3.54e-02	0	44	0	875560960	25	7003
2026-01-23 00:53:37.00	228.73	39.79	-32.4	-37.8	8.9	3.21e-02	0	44	0	880803840	25	6667
2026-01-23 00:53:40.00	228.20	39.07	-32.1	-37.1	9.8	9.44e-03	0	44	0	887095296	24	6411
2026-01-23 00:53:43.00	227.69	38.37	-32.3	-37.7	9.4	2.21e-02	0	44	0	892338176	24	6746
2026-01-23 00:53:46.01	227.20	37.67	-31.9	-36.5	10.3	7.44e-03	0	44	0	898629632	24	6074
2026-01-23 00:53:49.02	226.73	36.99	-31.7	-36.1	10.9	1.89e-03	0	44	0	903872512	23	6006
2026-01-23 00:53:52.02	226.28	36.32	-31.2	-34.9	12.2	3.78e-04	0	44	0	909115392	22	5566
2026-01-23 00:53:55.04	225.85	35.66	-31.0	-34.8	12.5	9.30e-05	0	44	0	915406848	21	5629
2026-01-23 00:53:58.07	225.43	35.01	-31.7	-36.3	10.8	1.60e-03	0	44	0	920649728	23	6068
2026-01-23 00:54:01.08	225.03	34.38	-31.2	-34.6	12.0	3.66e-04	0	44	0	926941184	23	5324
2026-01-23 00:54:04.09	224.65	33.75	-31.2	-35.0	12.1	3.11e-04	0	44	0	932184064	22	5599
2026-01-23 00:54:07.10	224.28	33.14	-31.2	-35.1	12.1	2.29e-04	0	44	0	937426944	22	5656
2026-01-23 00:54:10.12	223.92	32.53	-31.6	-35.9	11.0	1.43e-03	0	44	0	943718400	23	5916
2026-01-23 00:54:13.14	223.58	31.94	-31.8	-36.6	10.5	3.88e-03	0	44	0	948961280	23	6254
2026-01-23 00:54:16.15	223.25	31.36	-31.6	-35.9	11.0	2.31e-03	0	44	0	954204160	23	5900
2026-01-23 00:54:19.15	222.93	30.79	-31.8	-36.5	10.6	2.69e-03	0	44	0	960495616	23	6205
2026-01-23 00:54:22.16	222.63	30.23	-31.5	-35.4	11.3	9.56e-04	0	44	0	965738496	23	5694
2026-01-23 00:54:25.17	222.33	29.68	-31.7	-36.2	10.8	2.05e-03	0	44	0	972029952	23	6064
2026-01-23 00:54:28.19	222.04	29.13	-31.7	-36.2	10.8	2.81e-03	0	44	0	977272832	23	6065
2026-01-23 00:54:31.19	221.77	28.60	-31.8	-36.5	10.5	3.89e-03	0	44	0	982515712	23	6244
2026-01-23 00:54:34.20	221.50	28.08	-31.8	-36.7	10.3	4.48e-03	0	44	0	988807168	23	6317
2026-01-23 00:54:37.21	221.24	27.56	-31.1	-35.0	11.9	1.66e-03	0	44	0	994050048	22	5620
2026-01-23 00:54:40.21	221.00	27.06	-30.9	-34.8	12.3	1.22e-04	0	44	0	1000341504	21	5644
2026-01-23 00:54:43.21	220.75	26.56	-31.0	-34.6	12.2	1.85e-04	0	44	0	1005584384	22	5436
2026-01-23 00:54:46.23	220.52	26.07	-31.1	-35.1	11.9	4.07e-04	0	44	0	1010827264	22	5657
2026-01-23 00:54:49.25	220.29	25.59	-31.2	-35.2	11.8	5.87e-04	0	44	0	1017118720	22	5718
2026-01-23 00:54:52.26	220.07	25.12	-31.0	-35.1	12.1	2.37e-04	0	44	0	1022361600	21	5797
2026-01-23 00:54:55.26	219.86	24.66	-30.9	-34.9	12.2	2.81e-03	0	44	0	1027604480	21	5698
2026-01-23 00:54:58.27	219.65	24.20	-30.8	-34.5	12.5	2.75e-03	0	44	0	1033895936	21	5538
2026-01-23 00:55:01.28	219.45	23.75	-30.8	-34.5	12.5	2.57e-03	0	44	0	1039138816	21	5546
2026-01-23 00:55:04.29	219.26	23.31	-30.8	-34.7	12.3	1.49e-04	0	44	0	1045430272	21	5634
2026-01-23 00:55:07.30	219.07	22.88	-30.7	-34.4	12.5	9.68e-05	0	44	0	1050673152	21	5481
2026-01-23 00:55:10.31	218.88	22.45	-30.5	-34.1	13.0	2.23e-03	0	44	0	1055916032	20	5501
2026-01-23 00:55:13.32	218.71	22.03	-30.2	-33.4	13.5	2.33e-03	0	44	0	1062207488	20	5219
2026-01-23 00:55:16.34	218.53	21.61	-30.1	-33.2	13.6	1.75e-03	0	44	0	1067450368	20	5145
2026-01-23 00:55:19.35	218.36	21.20	-30.0	-32.9	13.8	1.04e-03	0	44	0	1072693248	20	5023
2026-01-23 00:55:22.35	218.20	20.80	-30.1	-33.3	13.5	3.68e-04	0	44	0	1078984704	20	5174
2026-01-23 00:55:25.36	218.04	20.40	-30.3	-33.9	13.1	5.64e-05	0	44	0	1084227584	20	5408
2026-01-23 00:55:28.37	217.88	20.01	-30.5	-33.9	12.8	7.17e-05	0	44	0	1090519040	21	5299
2026-01-23 00:55:31.38	217.73	19.63	-30.6	-34.3	12.5	1.47e-04	0	44	0	1095761920	21	5466
2026-01-23 00:55:34.40	217.58	19.25	-30.4	-33.6	12.9	3.12e-04	0	44	0	1101004800	21	5220
2026-01-23 00:55:37.41	217.44	18.88	-30.4	-33.7	12.8	3.87e-04	0	44	0	1107296256	21	5244
2026-01-23 00:55:40.41	217.30	18.51	-30.4	-34.1	12.9	4.77e-04	0	44	0	1112539136	20	5516
2026-01-23 00:55:43.42	217.16	18.15	-30.4	-34.1	12.8	6.56e-05	0	44	0	1118830592	20	5519
2026-01-23 00:55:46.43	217.03	17.79	-30.4	-34.2	12.8	7.24e-05	0	44	0	1124073472	20	5538
2026-01-23 00:55:49.43	216.90	17.44	-30.4	-34.2	12.8	6.25e-05	0	44	0	1129316352	20	5537
2026-01-23 00:55:52.44	216.77	17.09	-30.5	-34.3	12.6	7.62e-05	0	44	0	1135607808	20	5617
2026-01-23 00:55:55.45	216.65	16.75	-30.5	-34.0	12.5	1.17e-04	0	44	0	1140850688	21	5360
2026-01-23 00:55:58.47	216.53	16.41	-30.4	-34.2	12.7	8.54e-05	0	44	0	1146093568	20	5552
2026-01-23 00:56:01.47	216.41	16.07	-30.4	-34.2	12.7	8.54e-05	0	44	0	1152385024	20	5552
2026-01-23 00:56:04.48	216.30	15.74	-30.4	-34.0	12.8	6.79e-05	0	44	0	1157627904	20	5485
2026-01-23 00:56:07.48	216.18	15.42	-30.4	-33.8	12.6	1.23e-04	0	44	0	1163919360	21	5272
2026-01-23 00:56:10.49	216.07	15.10	-30.4	-34.0	12.7	6.02e-05	0	44	0	1169162240	20	5489
2026-01-23 00:56:13.50	215.97	14.78	-30.7	-34.5	12.0	1.98e-04	0	44	0	1174405120	21	5592
2026-01-23 00:56:16.50	215.86	14.47	-30.5	-34.4	11.9	1.49e-04	0	44	0	1180696576	20	5653
2026-01-23 00:56:19.50	215.76	14.16	-30.6	-34.4	12.1	3.15e-04	0	44	0	1185939456	21	5552
2026-01-23 00:56:22.51	215.66	13.86	-30.8	-34.9	11.7	2.18e-03	0	44	0	1192230912	21	5769
2026-01-23 00:56:25.52	215.56	13.55	-30.8	-35.0	11.6	7.54e-04	0	44	0	1197473792	21	5824
2026-01-23 00:56:28.52	215.47	13.26	-30.8	-35.1	11.5	6.52e-04	0	44	0	1202716672	21	5869
2026-01-23 00:56:31.53	215.37	12.96	-30.7	-34.7	11.8	5.39e-04	0	44	0	1209008128	21	5692
2026-01-23 00:56:34.53	215.28	12.67	-30.7	-34.7	11.7	4.71e-04	0	44	0	1214251008	21	5689
2026-01-23 00:56:37.54	215.19	12.38	-30.8	-34.9	11.6	5.42e-04	0	44	0	1219493888	21	5797
2026-01-23 00:56:40.55	215.10	12.10	-30.8	-35.1	11.4	1.14e-03	0	44	0	1225785344	21	5888
2026-01-23 00:56:43.56	215.02	11.82	-30.7	-34.8	11.6	9.62e-04	0	44	0	1231028224	21	5767
2026-01-23 00:56:46.58	214.93	11.54	-30.7	-34.9	11.5	9.42e-04	0	44	0	1237319680	21	5802
2026-01-23 00:56:49.59	214.85	11.26	-30.8	-35.2	11.3	1.02e-03	0	44	0	1242562560	21	5949
2026-01-23 00:56:52.60	214.77	10.99	-30.9	-35.4	11.1	1.25e-03	0	44	0	1247805440	21	6044
2026-01-23 00:56:55.61	214.69	10.72	-30.9	-35.5	11.0	2.13e-03	0	44	0	1254096896	21	6127
2026-01-23 00:56:58.63	214.61	10.46	-31.1	-35.5	10.6	2.96e-03	0	44	0	1259339776	22	6000
2026-01-23 00:57:01.63	214.53	10.19	-31.1	-35.7	10.4	5.44e-03	0	44	0	1264582656	22	6107
2026-01-23 00:57:04.64	214.46	9.93	-31.1	-35.7	10.5	4.65e-03	0	44	0	1270874112	22	6094
2026-01-23 00:57:07.65	214.38	9.67	-31.1	-35.8	10.3	4.98e-03	0	44	0	1276116992	22	6185
2026-01-23 00:57:10.65	214.31	9.42	-31.1	-35.7	10.4	5.11e-03	0	44	0	1282408448	22	6118
2026-01-23 00:57:13.65	214.24	9.17	-31.1	-35.7	10.3	6.01e-03	0	44	0	1287651328	22	6133
2026-01-23 00:57:16.66	214.17	8.92	-31.1	-35.9	10.2	7.07e-03	0	44	0	1292894208	22	6221
2026-01-23 00:57:19.67	214.11	8.67	-31.0	-35.9	10.5	4.74e-03	0	44	0	1299185664	21	6353
2026-01-23 00:57:22.68	214.04	8.42	-31.0	-35.5	10.4	6.79e-03	0	44	0	1304428544	22	6047
2026-01-23 00:57:25.68	213.97	8.18	-31.0	-35.9	10.4	4.98e-03	0	44	0	1309671424	21	6380
2026-01-23 00:57:28.67	213.91	7.94	-31.1	-35.8	10.1	6.35e-03	0	44	0	1315962880	22	6194
2026-01-23 00:57:31.68	213.85	7.70	-31.0	-35.6	10.2	5.33e-03	0	44	0	1321205760	22	6128
2026-01-23 00:57:34.69	213.79	7.47	-31.0	-35.7	10.2	7.19e-03	0	44	0	1327497216	22	6143
2026-01-23 00:57:37.69	213.72	7.23	-31.0	-35.5	10.2	5.63e-03	0	44	0	1332740096	22	6087
2026-01-23 00:57:40.69	213.67	7.00	-33.4	-47.8	3.8	1.49e+00	0	44	104	1335885824	26	19015

#Closed at: 2026-01-23 00:57:43
#Recorded file [1335 MB]: D:/data/31010_260123_034546.dat