passes_logs/2026/01/23/R2M6_AANII_01/R2M6_AANII_01__20260123_112913_NOAA_21_JPSS-2_rec.log

#Pass ID: 20260123_112913_NOAA 21 (JPSS-2)
#Satellite: NOAA 21 (JPSS-2)
#Configuration: NOAA 21
#almurnet v.1.7.20240730
#Start time: 2026-01-23 11:29:14

#Version: 2.2.20231116
#Station: R2M6_AANII_01
#Location: 30.233357 lon 59.946436 lat
#TLE: 1 54234U 22150A   26022.41365820  .00000211  00000+0  12084-3 0  9990
#TLE: 2 54234  98.7507 323.2240 0000658 234.5287 125.5828 14.19537645165864

#Time	Az	El	Level	Level2	SNR	BER	BlckErr	Temp	State	Recorded	gain1	gain2
2026-01-23 11:29:14.67	197.61	7.07	-29.5	-33.2	4.9	1.33e+00	0	40	0	0	19	5559
2026-01-23 11:29:17.68	197.82	7.29	-29.9	-33.5	9.3	2.06e-02	0	41	102	1048576	20	5456
2026-01-23 11:29:20.68	198.03	7.50	-28.9	-31.5	10.1	6.36e-03	0	41	102	1048576	19	4876
2026-01-23 11:29:23.70	198.25	7.71	-27.9	-30.4	10.1	5.84e-03	0	41	102	1048576	17	4832
2026-01-23 11:29:26.72	198.48	7.93	-27.7	-30.8	9.6	1.16e-02	0	40	102	1048576	16	5131
2026-01-23 11:29:29.74	198.70	8.15	-25.8	-29.4	8.1	5.16e-02	0	41	102	1048576	13	5437
2026-01-23 11:29:32.74	198.93	8.37	-24.1	-29.5	6.1	3.44e-01	0	41	102	1048576	9	6677
2026-01-23 11:29:35.75	199.16	8.59	-24.0	-29.4	5.9	3.36e-01	0	41	102	1048576	9	6693
2026-01-23 11:29:38.76	199.40	8.81	-24.3	-29.5	6.3	3.02e-01	0	41	102	1048576	9	6623
2026-01-23 11:29:41.77	199.64	9.03	-25.3	-30.4	7.4	1.42e-01	0	41	102	1048576	10	6485
2026-01-23 11:29:44.78	199.88	9.26	-26.9	-30.5	10.4	8.20e-03	0	41	102	1048576	13	5460
2026-01-23 11:29:47.78	200.12	9.49	-27.7	-30.7	11.4	1.03e-03	0	41	102	1048576	15	5088
2026-01-23 11:29:50.80	200.37	9.72	-28.4	-31.4	12.0	2.70e-04	0	41	102	1048576	16	5059
2026-01-23 11:29:53.82	200.63	9.95	-28.2	-31.1	11.5	6.76e-04	0	41	102	1048576	16	5019
2026-01-23 11:29:56.84	200.89	10.18	-28.2	-30.8	12.5	1.68e-04	0	41	102	1048576	16	4852
2026-01-23 11:29:59.85	201.15	10.41	-28.5	-30.8	12.7	8.16e-05	0	41	102	1048576	17	4694
2026-01-23 11:30:02.87	201.41	10.65	-28.2	-29.9	13.6	1.14e-05	0	41	102	1048576	17	4378
2026-01-23 11:30:05.88	201.68	10.89	-28.2	-30.1	13.4	1.37e-05	0	41	102	1048576	17	4450
2026-01-23 11:30:08.88	201.96	11.13	-28.0	-29.5	13.6	8.30e-06	0	41	102	1048576	17	4286
2026-01-23 11:30:11.89	202.23	11.37	-27.9	-29.3	13.7	7.60e-06	0	41	102	1048576	17	4241
2026-01-23 11:30:14.91	202.52	11.61	-28.0	-29.5	13.7	7.60e-06	0	41	102	1048576	17	4275
2026-01-23 11:30:17.92	202.81	11.85	-27.9	-29.4	13.8	4.50e-06	0	41	102	1048576	17	4248
2026-01-23 11:30:20.93	203.10	12.10	-27.9	-29.3	14.0	1.50e-06	0	41	102	1048576	17	4206
2026-01-23 11:30:23.93	203.39	12.35	-28.2	-29.8	13.7	4.50e-06	0	41	102	1048576	17	4351
2026-01-23 11:30:26.95	203.69	12.60	-27.9	-29.1	14.2	2.20e-06	0	41	102	1048576	17	4158
2026-01-23 11:30:29.97	204.00	12.85	-27.9	-29.1	14.3	0.00e+00	0	41	102	1048576	17	4146
2026-01-23 11:30:32.97	204.31	13.10	-27.8	-29.3	14.5	7.00e-07	0	41	102	1048576	16	4311
2026-01-23 11:30:35.98	204.63	13.36	-27.8	-29.4	14.4	0.00e+00	0	42	102	1048576	16	4335
2026-01-23 11:30:39.00	204.95	13.62	-27.8	-29.5	14.3	1.50e-06	0	42	102	1048576	16	4375
2026-01-23 11:30:42.01	205.28	13.88	-27.8	-29.4	14.5	7.00e-07	0	41	102	1048576	16	4335
2026-01-23 11:30:45.02	205.61	14.14	-27.8	-29.4	14.5	0.00e+00	0	41	102	1048576	16	4326
2026-01-23 11:30:48.03	205.95	14.40	-27.8	-29.3	14.6	0.00e+00	0	41	102	1048576	16	4311
2026-01-23 11:30:51.04	206.29	14.67	-27.8	-29.4	14.5	0.00e+00	0	41	102	1048576	16	4329
2026-01-23 11:30:54.05	206.64	14.94	-27.8	-29.4	14.5	0.00e+00	0	42	102	1048576	16	4320
2026-01-23 11:30:57.06	207.00	15.20	-27.8	-29.3	14.6	0.00e+00	0	41	102	1048576	16	4306
2026-01-23 11:31:00.08	207.36	15.48	-27.8	-29.5	14.5	7.00e-07	0	42	102	1048576	16	4362
2026-01-23 11:31:03.09	207.73	15.75	-28.0	-29.8	14.3	7.00e-07	0	42	102	1048576	16	4450
2026-01-23 11:31:06.10	208.11	16.02	-27.9	-29.7	14.4	1.50e-06	0	42	102	1048576	16	4424
2026-01-23 11:31:09.11	208.49	16.30	-27.9	-29.5	14.6	0.00e+00	0	42	102	1048576	16	4358
2026-01-23 11:31:12.11	208.88	16.58	-27.9	-29.7	14.5	7.00e-07	0	41	102	1048576	16	4408
2026-01-23 11:31:15.13	209.28	16.86	-28.1	-30.1	14.2	3.80e-06	0	41	102	1048576	16	4545
2026-01-23 11:31:18.15	209.68	17.15	-28.1	-30.2	14.2	0.00e+00	0	42	102	1048576	16	4558
2026-01-23 11:31:21.17	210.10	17.43	-28.1	-30.0	14.4	7.00e-07	0	42	102	1048576	16	4507
2026-01-23 11:31:24.19	210.52	17.72	-27.8	-29.3	14.8	6.80e-06	0	42	102	1048576	16	4290
2026-01-23 11:31:27.20	210.94	18.01	-27.7	-29.1	14.9	5.30e-06	0	42	102	1048576	16	4243
2026-01-23 11:31:30.21	211.38	18.30	-27.7	-29.2	14.8	0.00e+00	0	41	102	1048576	16	4260
2026-01-23 11:31:33.23	211.82	18.59	-27.8	-29.4	14.7	9.90e-06	0	42	102	1048576	16	4325
2026-01-23 11:31:36.25	212.27	18.89	-27.9	-29.5	14.7	0.00e+00	0	42	102	1048576	16	4340
2026-01-23 11:31:39.27	212.73	19.18	-27.8	-29.3	14.9	0.00e+00	0	42	102	1048576	16	4282
2026-01-23 11:31:42.27	213.20	19.48	-27.9	-29.5	14.7	3.80e-06	0	42	102	1048576	16	4346
2026-01-23 11:31:45.27	213.68	19.78	-27.4	-28.5	15.4	0.00e+00	0	41	102	1048576	16	4059
2026-01-23 11:31:48.28	214.16	20.08	-27.4	-28.4	15.4	0.00e+00	0	42	102	1048576	16	4035
2026-01-23 11:31:51.29	214.66	20.38	-27.3	-28.3	15.5	0.00e+00	0	42	102	1048576	16	4008
2026-01-23 11:31:54.31	215.17	20.69	-27.3	-28.3	15.5	0.00e+00	0	42	102	1048576	16	4014
2026-01-23 11:31:57.33	215.68	20.99	-27.5	-28.5	15.3	0.00e+00	0	41	102	1048576	16	4077
2026-01-23 11:32:00.33	216.21	21.30	-27.0	-28.0	15.8	0.00e+00	0	42	102	1048576	15	4049
2026-01-23 11:32:03.33	216.74	21.61	-27.0	-28.1	15.7	0.00e+00	0	42	102	1048576	15	4078
2026-01-23 11:32:06.35	217.29	21.92	-26.7	-28.0	16.1	0.00e+00	0	42	102	1048576	14	4140
2026-01-23 11:32:09.35	217.84	22.23	-26.6	-27.6	16.3	0.00e+00	0	42	102	1048576	14	4039
2026-01-23 11:32:12.36	218.41	22.54	-26.5	-27.4	16.4	0.00e+00	0	42	102	1048576	14	3997
2026-01-23 11:32:15.38	218.99	22.85	-26.4	-27.1	16.5	0.00e+00	0	42	102	1048576	14	3932
2026-01-23 11:32:18.39	219.58	23.17	-26.3	-27.0	16.7	0.00e+00	0	42	102	1048576	14	3881
2026-01-23 11:32:21.41	220.19	23.48	-26.5	-27.3	16.4	0.00e+00	0	42	102	1048576	14	3979
2026-01-23 11:32:24.42	220.80	23.80	-26.4	-27.2	16.5	0.00e+00	0	42	102	1048576	14	3954
2026-01-23 11:32:27.44	221.43	24.11	-26.3	-27.0	16.7	0.00e+00	0	42	102	1048576	14	3888
2026-01-23 11:32:30.45	222.07	24.43	-26.4	-27.7	16.5	0.00e+00	0	42	102	1048576	13	4188
2026-01-23 11:32:33.46	222.72	24.74	-26.4	-27.6	16.6	0.00e+00	0	42	102	1048576	13	4152
2026-01-23 11:32:36.48	223.39	25.06	-26.5	-27.9	16.4	0.00e+00	0	42	102	1048576	13	4232
2026-01-23 11:32:39.50	224.07	25.37	-26.8	-28.6	16.1	0.00e+00	0	42	102	1048576	13	4437
2026-01-23 11:32:42.52	224.76	25.69	-26.9	-28.7	16.0	0.00e+00	0	42	102	1048576	13	4448
2026-01-23 11:32:45.53	225.46	26.00	-26.9	-28.9	15.9	0.00e+00	0	42	102	1048576	13	4497
2026-01-23 11:32:48.54	226.18	26.32	-27.2	-29.0	15.6	0.00e+00	0	42	102	1048576	14	4414
2026-01-23 11:32:51.55	226.91	26.63	-27.2	-28.9	15.7	0.00e+00	0	42	102	1048576	14	4401
2026-01-23 11:32:54.56	227.66	26.94	-27.2	-29.0	15.7	0.00e+00	0	42	102	1048576	14	4425
2026-01-23 11:32:57.57	228.42	27.25	-27.1	-28.6	15.9	0.00e+00	0	42	102	1048576	14	4317
2026-01-23 11:33:00.59	229.19	27.55	-27.3	-29.1	15.6	0.00e+00	0	42	102	1048576	14	4447
2026-01-23 11:33:03.61	229.99	27.86	-27.7	-29.5	15.1	0.00e+00	0	42	102	1048576	15	4450
2026-01-23 11:33:06.63	230.79	28.16	-27.5	-29.0	15.4	0.00e+00	0	42	102	1048576	15	4312
2026-01-23 11:33:09.64	231.61	28.46	-27.3	-28.7	15.6	0.00e+00	0	42	102	1048576	15	4231
2026-01-23 11:33:12.66	232.45	28.76	-27.2	-28.5	15.7	0.00e+00	0	42	102	1048576	15	4173
2026-01-23 11:33:15.67	233.30	29.05	-27.5	-29.1	15.4	0.00e+00	0	42	102	1048576	15	4333
2026-01-23 11:33:18.69	234.16	29.34	-27.4	-28.8	15.6	0.00e+00	0	42	102	1048576	15	4253
2026-01-23 11:33:21.69	235.04	29.62	-27.4	-28.9	15.5	0.00e+00	0	42	102	1048576	15	4272
2026-01-23 11:33:24.69	235.93	29.90	-27.4	-28.7	15.6	0.00e+00	0	42	102	1048576	15	4217
2026-01-23 11:33:27.70	236.84	30.17	-27.5	-29.0	15.4	0.00e+00	0	42	102	1048576	15	4303
2026-01-23 11:33:30.71	237.77	30.44	-27.5	-29.0	15.5	0.00e+00	0	42	102	1048576	15	4303
2026-01-23 11:33:33.71	238.70	30.71	-27.2	-28.4	15.9	0.00e+00	0	42	102	1048576	15	4120
2026-01-23 11:33:36.72	239.66	30.96	-27.3	-28.6	15.7	0.00e+00	0	42	102	1048576	15	4195
2026-01-23 11:33:39.74	240.63	31.22	-27.1	-28.2	15.9	0.00e+00	0	42	102	1048576	15	4068
2026-01-23 11:33:42.75	241.61	31.46	-27.4	-28.8	15.6	0.00e+00	0	42	102	1048576	15	4250
2026-01-23 11:33:45.76	242.61	31.70	-27.4	-28.8	15.6	7.00e-07	0	42	102	1048576	15	4241
2026-01-23 11:33:48.78	243.63	31.93	-27.3	-28.6	15.8	0.00e+00	0	42	102	1048576	15	4177
2026-01-23 11:33:51.79	244.66	32.15	-27.8	-29.7	15.2	0.00e+00	0	42	102	1048576	15	4487
2026-01-23 11:33:54.81	245.70	32.36	-28.1	-30.0	14.9	0.00e+00	0	42	102	1048576	16	4468
2026-01-23 11:33:57.82	246.75	32.56	-28.3	-30.3	14.7	0.00e+00	0	42	102	1048576	16	4550
2026-01-23 11:34:00.83	247.82	32.76	-28.2	-30.0	14.9	0.00e+00	0	42	102	1048576	16	4458
2026-01-23 11:34:03.85	248.90	32.94	-28.0	-29.7	15.0	3.00e-06	0	42	102	1048576	16	4370
2026-01-23 11:34:06.86	249.99	33.12	-28.2	-30.1	14.8	1.50e-06	0	42	102	1048576	16	4500
2026-01-23 11:34:09.87	251.09	33.28	-28.1	-30.0	14.9	3.80e-06	0	42	102	1048576	16	4445
2026-01-23 11:34:12.88	252.20	33.43	-27.9	-29.4	15.2	6.80e-06	0	42	102	1048576	16	4294
2026-01-23 11:34:15.90	253.33	33.58	-28.0	-29.6	15.1	7.00e-07	0	42	102	1048576	16	4350
2026-01-23 11:34:18.91	254.46	33.71	-28.1	-29.8	15.0	6.10e-06	0	42	102	1048576	16	4396
2026-01-23 11:34:21.93	255.60	33.82	-28.0	-29.5	15.1	0.00e+00	0	42	102	1048576	16	4323
2026-01-23 11:34:24.95	256.75	33.93	-28.0	-29.8	15.1	0.00e+00	0	42	102	1048576	16	4384
2026-01-23 11:34:27.96	257.90	34.02	-28.2	-30.1	14.9	2.20e-06	0	42	102	1048576	16	4476
2026-01-23 11:34:30.97	259.06	34.11	-28.1	-29.9	14.9	7.00e-07	0	42	102	1048576	16	4434
2026-01-23 11:34:34.00	260.24	34.17	-28.1	-30.0	14.9	0.00e+00	0	42	102	1048576	16	4439
2026-01-23 11:34:37.00	261.40	34.23	-28.4	-30.7	14.5	0.00e+00	0	42	102	1048576	16	4644
2026-01-23 11:34:40.01	262.57	34.27	-28.2	-30.2	14.8	0.00e+00	0	42	102	1048576	16	4501
2026-01-23 11:34:43.02	263.75	34.30	-28.8	-30.9	14.1	0.00e+00	0	42	102	1048576	17	4626
2026-01-23 11:34:46.03	264.93	34.32	-28.2	-29.6	14.8	7.00e-07	0	42	102	1048576	17	4245
2026-01-23 11:34:49.04	266.10	34.32	-28.2	-29.6	14.8	0.00e+00	0	42	102	1048576	17	4235
2026-01-23 11:34:52.03	267.27	34.31	-28.0	-29.1	15.2	7.00e-07	0	42	102	1048576	17	4084
2026-01-23 11:34:55.06	268.45	34.29	-28.4	-30.2	14.5	0.00e+00	0	42	102	1048576	17	4387
2026-01-23 11:34:58.07	269.63	34.25	-28.2	-29.6	14.9	7.00e-07	0	42	102	1048576	17	4223
2026-01-23 11:35:01.08	270.80	34.20	-28.1	-29.3	15.0	0.00e+00	0	42	102	1048576	17	4145
2026-01-23 11:35:04.10	271.97	34.14	-28.0	-29.1	15.2	0.00e+00	0	42	102	1048576	17	4086
2026-01-23 11:35:07.11	273.13	34.06	-28.0	-29.2	15.1	0.00e+00	0	42	102	1048576	17	4109
2026-01-23 11:35:10.12	274.28	33.97	-28.3	-29.9	14.7	0.00e+00	0	42	102	1048576	17	4321
2026-01-23 11:35:13.14	275.44	33.87	-28.3	-29.9	14.7	0.00e+00	0	42	102	1048576	17	4303
2026-01-23 11:35:16.15	276.58	33.76	-28.3	-29.7	14.8	7.00e-07	0	42	102	1048576	17	4259
2026-01-23 11:35:19.17	277.71	33.64	-28.2	-29.5	14.9	0.00e+00	0	42	102	1048576	17	4205
2026-01-23 11:35:22.18	278.84	33.50	-28.0	-29.2	15.1	0.00e+00	0	42	102	1048576	17	4110
2026-01-23 11:35:25.19	279.95	33.35	-28.3	-29.8	14.8	0.00e+00	0	42	102	1048576	17	4285
2026-01-23 11:35:28.20	281.05	33.19	-28.0	-29.2	15.1	0.00e+00	0	42	102	1048576	17	4122
2026-01-23 11:35:31.23	282.15	33.02	-27.7	-29.1	15.0	1.16e-03	0	42	102	1048576	16	4258
2026-01-23 11:35:34.25	283.24	32.85	-27.5	-29.0	14.6	1.65e-02	0	42	102	1048576	16	4237
2026-01-23 11:35:37.26	284.31	32.66	-27.8	-29.5	14.7	4.86e-03	0	42	102	1048576	16	4348
2026-01-23 11:35:40.26	285.36	32.46	-28.0	-29.6	15.2	3.45e-03	0	42	102	1048576	16	4326
2026-01-23 11:35:43.28	286.41	32.25	-28.2	-30.1	14.9	0.00e+00	0	42	102	1048576	16	4472
2026-01-23 11:35:46.30	287.44	32.03	-28.5	-30.7	14.6	1.50e-06	0	42	102	1048576	16	4658
2026-01-23 11:35:49.31	288.46	31.81	-28.2	-29.6	14.9	0.00e+00	0	42	102	1048576	17	4215
2026-01-23 11:35:52.33	289.46	31.58	-28.0	-29.0	15.2	0.00e+00	0	42	102	1048576	17	4075
2026-01-23 11:35:55.33	290.45	31.34	-28.0	-29.2	15.1	0.00e+00	0	42	102	1048576	17	4121
2026-01-23 11:35:58.35	291.42	31.09	-27.7	-29.0	15.5	0.00e+00	0	42	102	1048576	16	4169
2026-01-23 11:36:01.36	292.38	30.84	-27.6	-28.7	15.7	0.00e+00	0	42	102	1048576	16	4101
2026-01-23 11:36:04.38	293.33	30.58	-27.7	-29.0	15.5	0.00e+00	0	42	102	1048576	16	4157
2026-01-23 11:36:07.39	294.26	30.31	-27.4	-28.2	15.9	0.00e+00	0	42	102	1048576	16	3964
2026-01-23 11:36:10.41	295.17	30.04	-27.1	-28.0	16.1	0.00e+00	0	42	102	1048576	15	4023
2026-01-23 11:36:13.41	296.07	29.76	-27.1	-28.1	16.1	0.00e+00	0	42	102	1048576	15	4042
2026-01-23 11:36:16.41	296.95	29.49	-27.4	-28.8	15.7	0.00e+00	0	42	102	1048576	15	4247
2026-01-23 11:36:19.42	297.82	29.20	-27.3	-28.5	15.9	0.00e+00	0	42	102	1048576	15	4144
2026-01-23 11:36:22.43	298.67	28.91	-27.2	-28.4	15.9	0.00e+00	0	42	102	1048576	15	4117
2026-01-23 11:36:25.44	299.51	28.62	-26.9	-27.7	16.3	0.00e+00	0	42	102	1048576	15	3932
2026-01-23 11:36:28.44	300.33	28.33	-27.2	-28.5	15.9	0.00e+00	0	42	102	1048576	15	4142
2026-01-23 11:36:31.45	301.14	28.03	-26.9	-27.6	16.3	0.00e+00	0	42	102	1048576	15	3930
2026-01-23 11:36:34.46	301.93	27.73	-27.2	-28.4	15.9	0.00e+00	0	42	102	1048576	15	4116
2026-01-23 11:36:37.48	302.71	27.42	-26.9	-27.8	16.2	0.00e+00	0	42	102	1048576	15	3965
2026-01-23 11:36:40.49	303.47	27.12	-27.1	-28.1	16.1	0.00e+00	0	42	102	1048576	15	4035
2026-01-23 11:36:43.50	304.22	26.81	-26.8	-27.9	16.4	7.00e-07	0	42	102	1048576	14	4099
2026-01-23 11:36:46.50	304.96	26.50	-27.0	-28.5	16.1	0.00e+00	0	42	102	1048576	14	4253
2026-01-23 11:36:49.51	305.68	26.19	-26.6	-27.6	16.6	0.00e+00	0	42	102	1048576	14	4016
2026-01-23 11:36:52.53	306.39	25.88	-26.7	-27.7	16.5	0.00e+00	0	42	102	1048576	14	4049
2026-01-23 11:36:55.54	307.08	25.57	-26.8	-28.0	16.3	0.00e+00	0	42	102	1048576	14	4133
2026-01-23 11:36:58.55	307.76	25.26	-27.2	-28.9	15.9	0.00e+00	0	42	102	1048576	14	4382
2026-01-23 11:37:01.57	308.43	24.94	-27.4	-29.4	15.6	7.00e-07	0	42	102	1048576	14	4509
2026-01-23 11:37:04.58	309.09	24.63	-27.6	-29.4	15.3	0.00e+00	0	42	102	1048576	15	4394
2026-01-23 11:37:07.59	309.73	24.32	-27.7	-29.5	15.2	0.00e+00	0	42	102	1048576	15	4425
2026-01-23 11:37:10.61	310.37	24.00	-27.3	-28.6	15.7	0.00e+00	0	42	102	1048576	15	4179
2026-01-23 11:37:13.62	310.98	23.69	-27.1	-28.1	16.0	0.00e+00	0	42	102	1048576	15	4044
2026-01-23 11:37:16.63	311.59	23.38	-27.0	-27.8	16.1	0.00e+00	0	42	102	1048576	15	3984
2026-01-23 11:37:19.65	312.19	23.07	-26.9	-27.8	16.1	0.00e+00	0	42	102	1048576	15	3970
2026-01-23 11:37:22.67	312.77	22.75	-27.0	-28.0	16.0	0.00e+00	0	42	102	1048576	15	4034
2026-01-23 11:37:25.69	313.34	22.44	-27.0	-28.0	16.0	0.00e+00	0	42	102	1048576	15	4026
2026-01-23 11:37:28.71	313.91	22.13	-27.1	-28.3	15.8	7.00e-07	0	42	102	1048576	15	4110
2026-01-23 11:37:31.72	314.46	21.83	-27.0	-28.0	15.9	0.00e+00	0	42	102	1048576	15	4034
2026-01-23 11:37:34.73	315.00	21.52	-27.2	-28.4	15.7	0.00e+00	0	42	102	1048576	15	4136
2026-01-23 11:37:37.74	315.52	21.21	-27.2	-28.3	15.7	0.00e+00	0	42	102	1048576	15	4116
2026-01-23 11:37:40.76	316.05	20.91	-27.1	-28.3	15.7	0.00e+00	0	42	102	1048576	15	4124
2026-01-23 11:37:43.77	316.55	20.61	-27.0	-28.1	15.7	7.00e-07	0	42	102	1048576	15	4092
2026-01-23 11:37:46.79	317.06	20.30	-27.0	-27.9	16.0	0.00e+00	0	42	102	1048576	15	4011
2026-01-23 11:37:49.81	317.55	20.00	-27.0	-27.9	16.0	0.00e+00	0	42	102	1048576	15	3999
2026-01-23 11:37:52.82	318.03	19.71	-27.1	-28.1	15.9	0.00e+00	0	42	102	1048576	15	4053
2026-01-23 11:37:55.84	318.50	19.41	-27.1	-28.2	15.8	0.00e+00	0	42	102	1048576	15	4097
2026-01-23 11:37:58.85	318.96	19.11	-27.0	-28.0	16.0	0.00e+00	0	42	102	1048576	15	4026
2026-01-23 11:38:01.87	319.42	18.82	-27.1	-28.1	15.8	0.00e+00	0	42	102	1048576	15	4068
2026-01-23 11:38:04.88	319.87	18.53	-27.0	-28.0	15.9	0.00e+00	0	42	102	1048576	15	4037
2026-01-23 11:38:07.90	320.31	18.24	-27.0	-28.0	15.9	0.00e+00	0	42	102	1048576	15	4033
2026-01-23 11:38:10.91	320.74	17.95	-27.0	-28.0	15.9	0.00e+00	0	42	102	1048576	15	4036
2026-01-23 11:38:13.92	321.16	17.67	-27.1	-28.2	15.8	0.00e+00	0	42	102	1048576	15	4077
2026-01-23 11:38:16.94	321.57	17.38	-27.3	-28.7	15.5	0.00e+00	0	42	102	1048576	15	4206
2026-01-23 11:38:19.95	321.98	17.10	-27.0	-28.6	14.6	1.52e-02	0	42	102	1048576	15	4302
2026-01-23 11:38:22.97	322.38	16.82	-27.0	-28.7	14.5	1.57e-02	0	42	102	1048576	15	4357
2026-01-23 11:38:25.98	322.78	16.54	-27.2	-29.0	14.3	1.59e-02	0	42	102	1048576	15	4434
2026-01-23 11:38:29.01	323.16	16.26	-27.2	-29.1	14.2	1.58e-02	0	42	102	1048576	15	4497
2026-01-23 11:38:32.03	323.54	15.99	-27.2	-29.1	14.2	1.54e-02	0	42	102	1048576	15	4484
2026-01-23 11:38:35.04	323.92	15.72	-27.2	-29.2	14.2	1.53e-02	0	42	102	1048576	15	4505
2026-01-23 11:38:38.06	324.28	15.45	-27.4	-29.5	14.0	1.50e-02	0	42	102	1048576	15	4598
2026-01-23 11:38:41.08	324.64	15.18	-27.7	-30.2	13.7	1.50e-02	0	42	102	1048576	15	4784
2026-01-23 11:38:44.09	325.00	14.91	-28.1	-30.5	13.5	1.49e-02	0	42	102	1048576	16	4754
2026-01-23 11:38:47.10	325.35	14.65	-28.5	-30.5	13.8	2.20e-06	0	42	102	1048576	17	4515
2026-01-23 11:38:50.11	325.69	14.38	-28.3	-29.9	14.0	3.80e-06	0	42	102	1048576	17	4335
2026-01-23 11:38:53.12	326.02	14.12	-28.0	-30.4	13.1	1.60e-02	0	42	102	1048576	16	4741
2026-01-23 11:38:56.14	326.35	13.87	-27.7	-29.9	13.2	1.51e-02	0	42	102	1048576	16	4674
2026-01-23 11:38:59.16	326.68	13.61	-27.7	-30.1	12.9	1.52e-02	0	42	102	1048576	16	4728
2026-01-23 11:39:02.16	327.00	13.35	-28.0	-30.5	13.0	1.50e-02	0	42	102	1048576	16	4800
2026-01-23 11:39:05.18	327.31	13.10	-27.9	-30.2	13.2	1.46e-02	0	42	102	1048576	16	4698
2026-01-23 11:39:08.20	327.63	12.85	-27.5	-29.8	13.5	1.48e-02	0	42	102	1048576	16	4692
2026-01-23 11:39:11.21	327.93	12.60	-27.6	-30.0	13.4	1.48e-02	0	42	102	1048576	16	4751
2026-01-23 11:39:14.22	328.23	12.35	-27.8	-30.1	13.3	1.46e-02	0	42	102	1048576	16	4699
2026-01-23 11:39:17.22	328.52	12.11	-27.5	-29.7	13.2	1.43e-02	0	42	102	1048576	16	4639
2026-01-23 11:39:20.25	328.82	11.86	-27.6	-29.8	13.3	1.41e-02	0	42	102	1048576	16	4626
2026-01-23 11:39:23.26	329.10	11.62	-28.4	-30.8	13.5	9.10e-06	0	42	102	1048576	16	4729
2026-01-23 11:39:26.27	329.38	11.38	-28.6	-30.8	13.5	9.90e-06	0	42	102	1048576	17	4606
2026-01-23 11:39:29.27	329.66	11.14	-28.6	-30.7	13.5	9.90e-06	0	42	102	1048576	17	4582
2026-01-23 11:39:32.27	329.93	10.91	-28.5	-30.6	13.6	6.10e-06	0	42	102	1048576	17	4555
2026-01-23 11:39:35.28	330.20	10.67	-28.6	-30.7	13.6	1.06e-05	0	42	102	1048576	17	4578
2026-01-23 11:39:38.29	330.46	10.44	-28.6	-30.7	13.5	1.22e-05	0	42	102	1048576	17	4603
2026-01-23 11:39:41.31	330.72	10.21	-28.6	-30.8	13.5	1.14e-05	0	42	102	1048576	17	4613
2026-01-23 11:39:44.32	330.98	9.98	-28.6	-30.8	13.5	1.14e-05	0	42	102	1048576	17	4638
2026-01-23 11:39:47.34	331.23	9.75	-28.6	-30.8	13.4	1.06e-05	0	42	102	1048576	17	4641
2026-01-23 11:39:50.35	331.48	9.52	-28.5	-30.6	13.6	1.29e-05	0	42	102	1048576	17	4566
2026-01-23 11:39:53.35	331.73	9.30	-28.6	-30.8	13.4	9.10e-06	0	42	102	1048576	17	4618
2026-01-23 11:39:56.38	331.97	9.08	-28.7	-30.9	13.4	1.22e-05	0	42	102	1048576	17	4670
2026-01-23 11:39:59.39	332.21	8.85	-28.9	-31.5	12.9	4.57e-05	0	42	102	1048576	17	4872
2026-01-23 11:40:02.40	332.45	8.63	-28.9	-31.6	12.9	3.20e-05	0	42	102	1048576	17	4883
2026-01-23 11:40:05.40	332.68	8.42	-29.0	-31.4	12.7	6.17e-05	0	42	102	1048576	18	4716
2026-01-23 11:40:08.41	332.91	8.20	-29.2	-31.8	12.5	1.30e-04	0	42	102	1048576	18	4843
2026-01-23 11:40:11.43	333.13	7.98	-29.3	-31.9	12.3	1.09e-04	0	42	102	1048576	18	4901
2026-01-23 11:40:14.44	333.36	7.77	-29.1	-31.6	12.5	1.26e-04	0	42	102	1048576	18	4771
2026-01-23 11:40:17.46	333.58	7.56	-29.2	-31.9	12.3	1.78e-04	0	42	102	1048576	18	4909
2026-01-23 11:40:20.47	333.79	7.34	-29.3	-32.1	12.1	3.05e-04	0	42	102	1048576	18	4963
2026-01-23 11:40:23.47	334.01	7.14	-29.5	-32.1	11.7	4.87e-04	0	42	102	1048576	19	4874
2026-01-23 11:40:26.50	334.22	6.93	-33.9	-46.2	3.8	1.49e+00	0	42	104	1048576	27	14777

#Closed at: 2026-01-23 11:40:28
#Recorded file [1 MB]: D:/data/31010_260123_142916.dat