passes_logs/2026/01/23/R2M6_AANII_01/R2M6_AANII_01__20260123_005817_AQUA_rec.log

#Pass ID: 20260123_005817_AQUA
#Satellite: AQUA
#Configuration: AQUA
#almurnet v.1.7.20240730
#Start time: 2026-01-23 00:58:17

#Version: 2.2.20231116
#Station: R2M6_AANII_01
#Location: 30.233357 lon 59.946436 lat
#TLE: 1 27424U 02022A   26022.49486490  .00002153  00000+0  44069-3 0  9997
#TLE: 2 27424  98.4099 349.0485 0001970  69.5876  43.4746 14.61847233261984

#Time	Az	El	Level	Level2	SNR	BER	BlckErr	Temp	State	Recorded	gain1	gain2
2026-01-23 00:58:17.95	26.93	7.03	-34.7	-53.9	3.8	7.47e-01	0	44	0	0	30	32818
2026-01-23 00:58:20.96	27.16	7.25	-34.3	-53.0	3.8	7.43e-01	0	44	104	0	30	31094
2026-01-23 00:58:23.97	27.41	7.48	-33.4	-51.4	3.8	7.45e-01	0	44	104	0	28	28539
2026-01-23 00:58:26.98	27.65	7.70	-33.6	-52.9	3.8	7.46e-01	0	44	104	0	27	33124
2026-01-23 00:58:29.99	27.90	7.93	-33.3	-51.1	3.8	7.45e-01	0	44	104	0	27	27891
2026-01-23 00:58:33.00	28.15	8.16	-32.4	-47.4	3.8	7.42e-01	0	44	104	0	26	20265
2026-01-23 00:58:36.01	28.41	8.39	-31.4	-44.8	3.8	7.48e-01	0	44	104	0	24	16871
2026-01-23 00:58:39.02	28.67	8.62	-31.1	-44.6	3.8	7.47e-01	0	44	104	0	23	16964
2026-01-23 00:58:42.04	28.94	8.86	-31.6	-45.5	3.9	7.46e-01	0	44	104	0	24	17799
2026-01-23 00:58:45.06	29.21	9.10	-32.5	-48.4	3.8	7.47e-01	0	44	104	0	25	22310
2026-01-23 00:58:48.07	29.49	9.34	-32.2	-46.9	3.8	7.42e-01	0	44	104	0	25	19663
2026-01-23 00:58:51.07	29.76	9.58	-31.5	-45.2	3.8	7.46e-01	0	44	104	0	24	17430
2026-01-23 00:58:54.08	30.05	9.82	-32.3	-47.3	3.8	7.45e-01	0	44	104	0	25	20195
2026-01-23 00:58:57.10	30.34	10.07	-33.0	-49.5	3.8	7.45e-01	0	44	104	0	26	24121
2026-01-23 00:59:00.11	30.63	10.32	-33.0	-49.8	3.8	7.42e-01	0	44	104	0	26	24926
2026-01-23 00:59:03.13	30.94	10.57	-33.2	-50.1	3.8	7.44e-01	0	44	104	0	27	25272
2026-01-23 00:59:06.13	31.24	10.82	-33.0	-49.6	3.8	7.45e-01	0	44	104	0	26	24418
2026-01-23 00:59:09.15	31.55	11.08	-32.6	-48.0	3.8	7.46e-01	0	44	104	0	26	21149
2026-01-23 00:59:12.16	31.87	11.33	-32.9	-49.1	3.8	7.46e-01	0	44	104	0	26	23191
2026-01-23 00:59:15.19	32.19	11.60	-33.1	-49.8	3.8	7.47e-01	0	44	104	0	27	24387
2026-01-23 00:59:18.20	32.52	11.86	-33.3	-50.5	3.8	7.48e-01	0	44	104	0	27	26051
2026-01-23 00:59:21.21	32.85	12.12	-33.5	-51.8	3.8	7.44e-01	0	44	104	0	27	29330
2026-01-23 00:59:24.22	33.20	12.39	-33.3	-50.2	3.8	7.47e-01	0	44	104	0	27	25204
2026-01-23 00:59:27.24	33.54	12.66	-32.4	-46.9	3.8	7.45e-01	0	44	104	0	26	19174
2026-01-23 00:59:30.26	33.90	12.93	-31.5	-36.2	5.1	7.10e-01	0	44	104	0	25	6166
2026-01-23 00:59:33.28	34.26	13.20	-31.6	-36.3	15.7	6.03e-01	0	44	0	2621440	24	6189
2026-01-23 00:59:36.28	34.63	13.48	-31.4	-36.0	16.2	6.02e-01	0	44	0	8388608	23	6124
2026-01-23 00:59:39.30	35.00	13.76	-31.8	-36.7	15.3	6.03e-01	0	44	0	13631488	24	6383
2026-01-23 00:59:42.31	35.38	14.04	-30.7	-33.8	17.9	6.02e-01	0	44	0	19398656	23	5159
2026-01-23 00:59:45.31	35.77	14.32	-29.9	-32.3	19.1	6.01e-01	0	44	0	25165824	22	4706
2026-01-23 00:59:48.32	36.17	14.61	-29.8	-32.5	19.3	6.01e-01	0	44	0	30932992	21	4884
2026-01-23 00:59:51.32	36.57	14.90	-29.9	-32.7	19.2	6.01e-01	0	44	0	36175872	21	4962
2026-01-23 00:59:54.33	36.99	15.19	-30.2	-33.4	18.8	6.02e-01	0	44	0	41943040	21	5200
2026-01-23 00:59:57.34	37.41	15.48	-30.3	-33.6	18.6	6.00e-01	0	44	0	47710208	21	5298
2026-01-23 01:00:00.35	37.84	15.78	-30.1	-33.2	18.9	6.02e-01	0	44	0	53477376	21	5131
2026-01-23 01:00:03.37	38.28	16.08	-30.2	-33.5	18.8	6.02e-01	0	44	0	59244544	21	5252
2026-01-23 01:00:06.37	38.73	16.38	-29.7	-32.1	19.6	6.00e-01	0	44	0	64487424	21	4752
2026-01-23 01:00:09.36	39.19	16.68	-29.7	-32.1	19.7	6.02e-01	0	44	0	70254592	21	4729
2026-01-23 01:00:12.38	39.66	16.99	-29.7	-32.2	19.7	6.00e-01	0	44	0	76021760	21	4761
2026-01-23 01:00:15.37	40.13	17.30	-29.7	-32.6	19.7	6.02e-01	0	44	0	81264640	20	5013
2026-01-23 01:00:18.38	40.62	17.61	-29.7	-32.6	19.7	6.02e-01	0	44	0	87031808	20	5028
2026-01-23 01:00:21.40	41.12	17.93	-29.7	-32.4	19.8	6.04e-01	0	44	0	92798976	20	4956
2026-01-23 01:00:24.40	41.63	18.24	-29.6	-32.3	19.9	6.00e-01	0	44	0	98566144	20	4902
2026-01-23 01:00:27.41	42.15	18.56	-29.7	-32.4	19.8	6.03e-01	0	44	0	104333312	20	4959
2026-01-23 01:00:30.41	42.68	18.88	-29.5	-32.1	20.0	6.04e-01	0	44	0	109576192	20	4847
2026-01-23 01:00:33.42	43.22	19.21	-29.6	-32.2	20.1	6.03e-01	0	44	0	115343360	20	4864
2026-01-23 01:00:36.43	43.78	19.54	-29.7	-32.5	19.8	6.01e-01	0	44	0	121110528	20	4971
2026-01-23 01:00:39.43	44.35	19.86	-29.6	-32.3	19.9	6.02e-01	0	44	0	126353408	20	4881
2026-01-23 01:00:42.44	44.93	20.19	-29.6	-32.4	20.0	6.02e-01	0	44	0	132120576	20	4922
2026-01-23 01:00:45.45	45.52	20.53	-29.6	-32.3	20.0	6.04e-01	0	44	0	137887744	20	4908
2026-01-23 01:00:48.46	46.13	20.86	-29.8	-32.7	19.7	6.03e-01	0	44	0	143654912	20	5036
2026-01-23 01:00:51.47	46.75	21.20	-29.6	-32.3	20.0	6.02e-01	0	44	0	149422080	20	4878
2026-01-23 01:00:54.49	47.39	21.54	-29.7	-32.4	19.9	6.02e-01	0	44	0	154664960	20	4937
2026-01-23 01:00:57.50	48.04	21.88	-29.8	-32.8	19.7	6.02e-01	0	44	0	160432128	20	5072
2026-01-23 01:01:00.52	48.71	22.22	-29.8	-32.8	19.7	6.03e-01	0	44	0	166199296	20	5066
2026-01-23 01:01:03.52	49.38	22.56	-29.7	-32.5	19.9	6.05e-01	0	44	0	171966464	20	4958
2026-01-23 01:01:06.53	50.08	22.90	-29.9	-32.9	19.7	6.02e-01	0	44	0	177209344	20	5111
2026-01-23 01:01:09.54	50.79	23.25	-29.8	-32.8	19.7	6.03e-01	0	44	0	182976512	20	5060
2026-01-23 01:01:12.56	51.52	23.59	-29.8	-32.7	19.8	6.05e-01	0	44	0	188743680	20	5023
2026-01-23 01:01:15.58	52.27	23.94	-30.0	-33.1	19.6	6.02e-01	0	44	0	194510848	20	5185
2026-01-23 01:01:18.58	53.03	24.28	-29.8	-32.7	19.8	6.01e-01	0	44	0	199753728	20	5016
2026-01-23 01:01:21.60	53.81	24.63	-29.8	-32.8	19.8	6.03e-01	0	44	0	205520896	20	5049
2026-01-23 01:01:24.61	54.61	24.97	-30.0	-32.8	19.5	6.02e-01	0	44	0	211288064	21	4953
2026-01-23 01:01:27.61	55.42	25.32	-29.8	-32.3	19.8	6.02e-01	0	44	0	217055232	21	4767
2026-01-23 01:01:30.62	56.25	25.66	-29.9	-32.4	19.7	6.03e-01	0	44	0	222822400	21	4808
2026-01-23 01:01:33.64	57.11	26.00	-29.8	-32.2	19.9	6.03e-01	0	44	0	228065280	21	4735
2026-01-23 01:01:36.65	57.98	26.34	-29.9	-32.4	19.8	6.03e-01	0	44	0	233832448	21	4804
2026-01-23 01:01:39.65	58.87	26.68	-30.2	-33.1	19.4	6.02e-01	0	44	0	239599616	21	5045
2026-01-23 01:01:42.66	59.78	27.01	-30.2	-33.1	19.4	6.03e-01	0	44	0	245366784	21	5030
2026-01-23 01:01:45.67	60.71	27.34	-30.1	-32.9	19.5	6.03e-01	0	44	0	250609664	21	4990
2026-01-23 01:01:48.68	61.66	27.67	-30.2	-33.2	19.3	6.01e-01	0	44	0	256376832	21	5083
2026-01-23 01:01:51.69	62.62	27.99	-30.0	-32.8	19.6	6.03e-01	0	44	0	262144000	21	4943
2026-01-23 01:01:54.70	63.61	28.31	-30.0	-33.3	19.5	6.03e-01	0	44	0	267911168	20	5275
2026-01-23 01:01:57.70	64.62	28.63	-29.9	-33.1	19.6	6.02e-01	0	44	0	273154048	20	5199
2026-01-23 01:02:00.71	65.65	28.93	-30.1	-33.5	19.4	6.04e-01	0	44	0	278921216	20	5360
2026-01-23 01:02:03.72	66.70	29.24	-29.8	-33.1	19.6	6.02e-01	0	44	0	284688384	20	5243
2026-01-23 01:02:06.73	67.77	29.53	-29.3	-32.0	20.1	6.03e-01	0	44	0	290455552	20	4903
2026-01-23 01:02:09.74	68.86	29.82	-29.7	-32.3	20.2	6.03e-01	0	44	0	295698432	20	4879
2026-01-23 01:02:12.76	69.97	30.10	-30.0	-33.0	20.0	6.02e-01	0	44	0	301465600	20	5083
2026-01-23 01:02:15.77	71.10	30.37	-30.0	-33.1	19.9	6.02e-01	0	44	0	307232768	20	5157
2026-01-23 01:02:18.78	72.25	30.63	-29.8	-32.5	20.4	6.03e-01	0	44	0	312999936	20	4916
2026-01-23 01:02:21.79	73.42	30.88	-29.8	-32.7	20.2	6.01e-01	0	44	0	318242816	20	4994
2026-01-23 01:02:24.80	74.60	31.13	-29.9	-32.9	20.1	6.03e-01	0	44	0	324009984	20	5060
2026-01-23 01:02:27.81	75.81	31.36	-29.8	-32.7	20.2	6.04e-01	0	44	0	329777152	20	4987
2026-01-23 01:02:30.82	77.03	31.58	-29.6	-32.0	20.6	6.05e-01	0	44	0	335544320	20	4757
2026-01-23 01:02:33.84	78.27	31.78	-29.6	-32.2	20.4	6.02e-01	0	44	0	341311488	20	4820
2026-01-23 01:02:36.84	79.52	31.98	-29.7	-32.3	20.5	6.01e-01	0	44	0	346554368	20	4850
2026-01-23 01:02:39.85	80.79	32.16	-29.6	-32.1	20.5	5.99e-01	0	44	0	352321536	20	4786
2026-01-23 01:02:42.86	82.07	32.32	-29.6	-32.1	20.5	6.01e-01	0	44	0	358088704	20	4796
2026-01-23 01:02:45.87	83.37	32.47	-29.6	-32.0	20.7	6.01e-01	0	44	0	363855872	20	4744
2026-01-23 01:02:48.89	84.68	32.61	-29.5	-31.7	20.8	6.01e-01	0	44	0	369098752	20	4659
2026-01-23 01:02:51.89	85.99	32.73	-29.6	-32.1	20.6	6.00e-01	0	44	0	374865920	20	4789
2026-01-23 01:02:54.89	87.31	32.84	-29.7	-32.2	20.5	6.06e-01	0	44	0	380633088	20	4833
2026-01-23 01:02:57.89	88.64	32.92	-29.9	-32.8	20.1	6.02e-01	0	44	0	386400256	20	5021
2026-01-23 01:03:00.89	89.98	33.00	-30.1	-32.9	19.8	6.01e-01	0	44	0	391643136	21	4926
2026-01-23 01:03:03.88	91.32	33.05	-29.8	-32.0	20.3	6.03e-01	0	44	0	397410304	21	4638
2026-01-23 01:03:06.90	92.68	33.09	-29.7	-31.8	20.4	5.99e-01	0	44	0	403177472	21	4584
2026-01-23 01:03:09.90	94.03	33.11	-29.5	-31.2	20.8	6.03e-01	0	44	0	408420352	21	4401
2026-01-23 01:03:12.92	95.39	33.12	-29.5	-31.9	20.6	6.02e-01	0	44	0	414187520	20	4744
2026-01-23 01:03:15.93	96.74	33.11	-29.7	-32.4	20.4	6.03e-01	0	44	0	419954688	20	4895
2026-01-23 01:03:18.94	98.10	33.08	-29.8	-32.7	20.2	6.03e-01	0	44	0	425721856	20	4983
2026-01-23 01:03:21.95	99.45	33.03	-29.6	-32.1	20.5	6.02e-01	0	44	0	431489024	20	4804
2026-01-23 01:03:24.97	100.80	32.97	-29.4	-31.5	20.8	6.04e-01	0	44	0	436731904	20	4598
2026-01-23 01:03:27.97	102.13	32.89	-29.4	-31.5	20.9	5.99e-01	0	44	0	442499072	20	4587
2026-01-23 01:03:30.98	103.47	32.79	-29.4	-31.6	20.8	6.01e-01	0	44	0	448266240	20	4638
2026-01-23 01:03:34.00	104.80	32.68	-29.2	-31.1	21.1	6.02e-01	0	44	0	454033408	20	4485
2026-01-23 01:03:37.01	106.11	32.55	-29.3	-31.3	20.9	6.02e-01	0	44	0	459800576	20	4529
2026-01-23 01:03:40.02	107.41	32.41	-29.4	-31.4	20.9	6.02e-01	0	44	0	465043456	20	4582
2026-01-23 01:03:43.03	108.71	32.25	-29.2	-31.0	21.1	6.01e-01	0	44	0	470810624	20	4446
2026-01-23 01:03:46.04	109.98	32.07	-29.4	-31.5	20.9	6.03e-01	0	44	0	476577792	20	4595
2026-01-23 01:03:49.05	111.25	31.89	-29.2	-31.1	21.0	6.03e-01	0	44	0	482344960	20	4480
2026-01-23 01:03:52.07	112.50	31.69	-29.4	-31.5	20.8	6.04e-01	0	44	0	487587840	20	4598
2026-01-23 01:03:55.08	113.73	31.47	-29.3	-31.3	20.9	6.02e-01	0	44	0	493355008	20	4533
2026-01-23 01:03:58.11	114.96	31.25	-29.4	-31.6	20.7	6.04e-01	0	44	0	499122176	20	4649
2026-01-23 01:04:01.11	116.15	31.01	-29.2	-31.1	21.0	6.04e-01	0	44	0	504889344	20	4492
2026-01-23 01:04:04.12	117.33	30.76	-29.2	-31.6	21.1	6.03e-01	0	44	0	510656512	19	4741
2026-01-23 01:04:07.12	118.49	30.51	-29.3	-31.7	21.0	6.02e-01	0	44	0	515899392	19	4789
2026-01-23 01:04:10.11	119.63	30.24	-29.4	-32.0	20.7	6.04e-01	0	44	0	521666560	19	4879
2026-01-23 01:04:13.12	120.75	29.96	-29.5	-32.3	20.6	6.03e-01	0	44	0	527433728	19	4993
2026-01-23 01:04:16.12	121.85	29.68	-29.5	-32.3	20.7	6.01e-01	0	44	0	532676608	19	4979
2026-01-23 01:04:19.13	122.94	29.39	-29.5	-32.0	20.5	6.01e-01	0	44	0	538443776	20	4756
2026-01-23 01:04:22.13	124.00	29.09	-29.4	-31.5	20.7	6.02e-01	0	44	0	544210944	20	4620
2026-01-23 01:04:25.12	125.04	28.78	-29.5	-32.0	20.4	6.00e-01	0	44	0	549978112	20	4771
2026-01-23 01:04:28.13	126.06	28.47	-29.5	-31.9	20.5	6.02e-01	0	44	0	555220992	20	4729
2026-01-23 01:04:31.14	127.07	28.15	-29.5	-31.8	20.5	6.00e-01	0	44	0	560988160	20	4707
2026-01-23 01:04:34.15	128.05	27.83	-29.7	-32.5	20.1	6.03e-01	0	44	0	566755328	20	4941
2026-01-23 01:04:37.15	129.01	27.50	-29.4	-31.7	20.6	6.03e-01	0	44	0	572522496	20	4689
2026-01-23 01:04:40.15	129.95	27.17	-29.6	-32.1	20.3	6.01e-01	0	44	0	577765376	20	4826
2026-01-23 01:04:43.16	130.87	26.84	-29.6	-32.1	20.2	6.01e-01	0	44	0	583532544	20	4802
2026-01-23 01:04:46.17	131.78	26.50	-29.9	-33.0	19.7	6.02e-01	0	44	0	589299712	20	5135
2026-01-23 01:04:49.19	132.67	26.16	-29.9	-33.0	19.7	6.03e-01	0	44	0	595066880	20	5141
2026-01-23 01:04:52.20	133.53	25.82	-29.8	-32.8	19.7	6.04e-01	0	44	0	600309760	20	5101
2026-01-23 01:04:55.21	134.38	25.47	-29.6	-32.5	19.9	6.04e-01	0	44	0	606076928	20	5012
2026-01-23 01:04:58.22	135.21	25.13	-29.8	-33.1	19.4	6.02e-01	0	44	0	611844096	20	5238
2026-01-23 01:05:01.23	136.02	24.78	-29.7	-32.9	19.5	6.01e-01	0	44	0	617611264	20	5175
2026-01-23 01:05:04.24	136.81	24.43	-30.0	-33.4	19.2	6.04e-01	0	44	0	622854144	20	5339
2026-01-23 01:05:07.25	137.58	24.09	-29.8	-32.8	19.6	6.03e-01	0	44	0	628621312	20	5104
2026-01-23 01:05:10.26	138.34	23.74	-29.8	-32.7	19.7	6.04e-01	0	44	0	634388480	20	5027
2026-01-23 01:05:13.25	139.07	23.39	-29.9	-33.0	19.3	6.02e-01	0	44	0	640155648	20	5144
2026-01-23 01:05:16.26	139.80	23.05	-29.6	-32.4	19.8	6.02e-01	0	44	0	645922816	20	4989
2026-01-23 01:05:19.28	140.51	22.70	-29.6	-32.5	19.8	6.02e-01	0	44	0	651165696	20	5007
2026-01-23 01:05:22.29	141.20	22.36	-29.6	-32.5	19.8	6.01e-01	0	44	0	656932864	20	4988
2026-01-23 01:05:25.30	141.87	22.01	-29.8	-32.9	19.5	6.03e-01	0	44	0	662700032	20	5146
2026-01-23 01:05:28.30	142.53	21.67	-29.9	-33.0	19.4	6.02e-01	0	44	0	667942912	20	5180
2026-01-23 01:05:31.31	143.18	21.33	-30.0	-33.4	19.1	6.02e-01	0	44	0	673710080	20	5327
2026-01-23 01:05:34.31	143.81	20.99	-29.6	-32.4	19.7	6.03e-01	0	44	0	679477248	20	4978
2026-01-23 01:05:37.32	144.42	20.65	-29.7	-32.5	19.6	6.02e-01	0	44	0	685244416	20	5018
2026-01-23 01:05:40.33	145.03	20.31	-29.6	-32.5	19.6	6.02e-01	0	44	0	691011584	20	5018
2026-01-23 01:05:43.33	145.62	19.98	-29.7	-32.7	19.5	6.04e-01	0	44	0	696254464	20	5063
2026-01-23 01:05:46.33	146.19	19.65	-29.8	-32.9	19.3	6.03e-01	0	44	0	702021632	20	5165
2026-01-23 01:05:49.33	146.75	19.32	-29.6	-32.5	19.5	6.03e-01	0	44	0	707788800	20	5048
2026-01-23 01:05:52.34	147.31	18.99	-29.5	-32.4	19.6	6.01e-01	0	44	0	713031680	20	4988
2026-01-23 01:05:55.35	147.85	18.67	-29.5	-32.3	19.6	6.03e-01	0	44	0	718798848	20	4934
2026-01-23 01:05:58.37	148.38	18.34	-29.6	-32.6	19.4	6.02e-01	0	44	0	724566016	20	5035
2026-01-23 01:06:01.38	148.89	18.02	-29.7	-32.8	19.2	6.02e-01	0	44	0	730333184	20	5152
2026-01-23 01:06:04.38	149.40	17.71	-29.7	-32.8	19.2	6.03e-01	0	44	0	736100352	20	5130
2026-01-23 01:06:07.38	149.89	17.39	-29.6	-32.5	19.3	6.03e-01	0	44	0	741343232	20	5047
2026-01-23 01:06:10.39	150.38	17.08	-29.6	-32.5	19.3	6.01e-01	0	44	0	747110400	20	5051
2026-01-23 01:06:13.40	150.85	16.77	-29.5	-32.9	19.4	6.00e-01	0	44	0	752877568	19	5307
2026-01-23 01:06:16.41	151.31	16.46	-29.4	-32.7	19.5	6.03e-01	0	44	0	758644736	19	5220
2026-01-23 01:06:19.41	151.77	16.15	-29.4	-32.5	19.6	6.03e-01	0	44	0	763887616	19	5164
2026-01-23 01:06:22.42	152.21	15.85	-29.4	-32.7	19.5	6.04e-01	0	44	0	769654784	19	5223
2026-01-23 01:06:25.43	152.65	15.55	-29.4	-32.7	19.4	6.02e-01	0	44	0	775421952	19	5229
2026-01-23 01:06:28.44	153.08	15.25	-29.6	-32.8	19.0	6.03e-01	0	44	0	781189120	20	5175
2026-01-23 01:06:31.46	153.50	14.96	-29.6	-33.3	18.9	6.02e-01	0	44	0	786432000	19	5565
2026-01-23 01:06:34.47	153.91	14.66	-29.4	-33.0	19.1	6.00e-01	0	44	0	792199168	19	5413
2026-01-23 01:06:37.47	154.31	14.38	-29.5	-33.0	19.2	6.03e-01	0	44	0	797966336	19	5381
2026-01-23 01:06:40.47	154.70	14.09	-29.7	-33.0	18.8	6.02e-01	0	44	0	803733504	20	5269
2026-01-23 01:06:43.49	155.09	13.80	-29.5	-32.6	19.0	6.02e-01	0	44	0	808976384	20	5127
2026-01-23 01:06:46.49	155.46	13.52	-29.5	-32.7	18.8	6.03e-01	0	44	0	814743552	20	5187
2026-01-23 01:06:49.50	155.83	13.24	-29.7	-33.0	18.8	6.02e-01	0	44	0	820510720	20	5258
2026-01-23 01:06:52.50	156.20	12.97	-29.6	-32.9	18.8	6.03e-01	0	44	0	826277888	20	5264
2026-01-23 01:06:55.50	156.55	12.69	-29.6	-33.0	18.7	6.03e-01	0	44	0	831520768	20	5332
2026-01-23 01:06:58.51	156.90	12.42	-29.7	-33.4	18.4	6.01e-01	0	44	0	837287936	20	5488
2026-01-23 01:07:01.53	157.25	12.15	-29.8	-33.5	18.3	6.02e-01	0	44	0	843055104	20	5524
2026-01-23 01:07:04.53	157.58	11.88	-29.9	-33.6	18.3	6.02e-01	0	44	0	848822272	20	5532
2026-01-23 01:07:07.54	157.92	11.62	-30.0	-33.8	18.2	6.01e-01	0	44	0	854065152	20	5577
2026-01-23 01:07:10.53	158.24	11.36	-29.9	-33.4	18.4	6.02e-01	0	44	0	859832320	20	5429
2026-01-23 01:07:13.54	158.56	11.10	-30.0	-33.3	18.1	6.04e-01	0	44	0	865599488	21	5270
2026-01-23 01:07:16.55	158.87	10.84	-29.8	-33.3	18.5	6.01e-01	0	44	0	871366656	20	5389
2026-01-23 01:07:19.56	159.18	10.59	-29.6	-32.9	18.6	6.02e-01	0	44	0	876609536	20	5281
2026-01-23 01:07:22.58	159.48	10.33	-29.7	-33.2	18.5	6.01e-01	0	44	0	882376704	20	5389
2026-01-23 01:07:25.59	159.78	10.08	-29.7	-33.1	18.4	6.03e-01	0	44	0	888143872	20	5372
2026-01-23 01:07:28.60	160.07	9.83	-29.8	-33.4	18.3	6.02e-01	0	44	0	893911040	20	5454
2026-01-23 01:07:31.62	160.36	9.58	-29.8	-33.4	18.2	6.03e-01	0	44	0	899678208	20	5496
2026-01-23 01:07:34.63	160.64	9.34	-29.7	-33.5	18.1	6.04e-01	0	44	0	904921088	20	5567
2026-01-23 01:07:37.65	160.91	9.10	-29.8	-33.8	17.8	6.01e-01	0	44	0	910688256	20	5713
2026-01-23 01:07:40.66	161.19	8.86	-29.7	-33.7	17.8	6.04e-01	0	44	0	916455424	20	5696
2026-01-23 01:07:43.67	161.45	8.62	-29.9	-34.2	17.5	6.01e-01	0	44	0	922222592	20	5885
2026-01-23 01:07:46.68	161.72	8.38	-29.9	-33.9	17.8	6.04e-01	0	44	0	927465472	20	5700
2026-01-23 01:07:49.70	161.98	8.15	-30.1	-33.9	17.5	6.03e-01	0	44	0	933232640	21	5597
2026-01-23 01:07:52.71	162.23	7.92	-30.0	-34.2	17.6	6.03e-01	0	44	0	938999808	20	5855
2026-01-23 01:07:55.72	162.48	7.69	-30.0	-33.8	17.5	6.01e-01	0	44	0	944766976	21	5555
2026-01-23 01:07:58.73	162.73	7.46	-30.1	-34.5	17.3	6.01e-01	0	44	0	950009856	20	6030
2026-01-23 01:08:01.73	162.97	7.23	-30.1	-34.6	17.1	6.04e-01	0	44	0	955777024	20	6102
2026-01-23 01:08:04.74	163.20	7.01	-32.7	-52.2	3.8	7.45e-01	0	44	104	958922752	27	34099

#Closed at: 2026-01-23 01:08:07
#Recorded file [958 MB]: D:/data/31010_260123_035931.dat