passes_logs/2026/01/23/R2M6_AANII_01/R2M6_AANII_01__20260123_103510_AQUA_rec.log

#Pass ID: 20260123_103510_AQUA
#Satellite: AQUA
#Configuration: AQUA
#almurnet v.1.7.20240730
#Start time: 2026-01-23 10:35:10

#Version: 2.2.20231116
#Station: R2M6_AANII_01
#Location: 30.233357 lon 59.946436 lat
#TLE: 1 27424U 02022A   26022.49486490  .00002153  00000+0  44069-3 0  9997
#TLE: 2 27424  98.4099 349.0485 0001970  69.5876  43.4746 14.61847233261984

#Time	Az	El	Level	Level2	SNR	BER	BlckErr	Temp	State	Recorded	gain1	gain2
2026-01-23 10:35:10.30	110.88	6.99	-32.5	-40.8	4.8	7.19e-01	0	40	0	0	27	9372
2026-01-23 10:35:13.32	110.59	7.20	-31.8	-37.5	13.6	6.10e-01	0	40	102	1048576	25	6933
2026-01-23 10:35:16.34	110.30	7.42	-31.9	-37.7	13.5	6.09e-01	0	40	102	1048576	25	7067
2026-01-23 10:35:19.34	110.01	7.64	-31.2	-35.4	15.7	6.07e-01	0	41	102	1048576	24	5850
2026-01-23 10:35:22.36	109.71	7.85	-30.5	-33.7	17.3	6.07e-01	0	41	102	1048576	23	5187
2026-01-23 10:35:25.36	109.41	8.07	-30.4	-33.8	17.6	6.05e-01	0	41	102	1048576	22	5352
2026-01-23 10:35:28.37	109.11	8.29	-30.3	-33.5	17.9	6.05e-01	0	41	102	1048576	22	5219
2026-01-23 10:35:31.39	108.79	8.51	-30.3	-33.6	17.8	6.05e-01	0	41	102	1048576	22	5233
2026-01-23 10:35:34.40	108.47	8.74	-30.3	-33.6	17.8	6.07e-01	0	41	102	1048576	22	5266
2026-01-23 10:35:37.41	108.15	8.96	-30.3	-33.4	18.0	6.05e-01	0	41	102	1048576	22	5174
2026-01-23 10:35:40.43	107.82	9.19	-30.3	-33.4	18.0	6.06e-01	0	41	102	1048576	22	5163
2026-01-23 10:35:43.44	107.49	9.42	-30.3	-33.4	18.1	6.05e-01	0	41	102	1048576	22	5160
2026-01-23 10:35:46.45	107.15	9.65	-30.4	-33.7	17.9	6.05e-01	0	41	102	1048576	22	5289
2026-01-23 10:35:49.48	106.80	9.88	-30.2	-33.3	18.2	6.08e-01	0	41	102	1048576	22	5122
2026-01-23 10:35:52.49	106.44	10.11	-30.2	-33.2	18.3	6.05e-01	0	41	102	1048576	22	5084
2026-01-23 10:35:55.51	106.08	10.34	-30.2	-33.0	18.4	6.09e-01	0	41	102	1048576	22	5015
2026-01-23 10:35:58.52	105.72	10.58	-30.2	-33.2	18.3	6.07e-01	0	41	102	1048576	22	5066
2026-01-23 10:36:01.53	105.35	10.81	-30.0	-32.6	18.8	6.07e-01	0	41	102	1048576	22	4840
2026-01-23 10:36:04.55	104.97	11.05	-30.0	-32.5	18.8	6.07e-01	0	41	102	1048576	22	4812
2026-01-23 10:36:07.56	104.58	11.29	-29.9	-32.9	18.8	6.05e-01	0	41	102	1048576	21	5065
2026-01-23 10:36:10.57	104.19	11.53	-30.0	-33.0	18.8	6.06e-01	0	41	102	1048576	21	5091
2026-01-23 10:36:13.58	103.79	11.77	-30.1	-33.3	18.6	6.08e-01	0	42	102	1048576	21	5197
2026-01-23 10:36:16.58	103.38	12.02	-30.0	-33.0	18.9	6.06e-01	0	42	102	1048576	21	5085
2026-01-23 10:36:19.60	102.97	12.26	-30.0	-33.2	18.7	6.06e-01	0	42	102	1048576	21	5163
2026-01-23 10:36:22.63	102.54	12.51	-30.0	-33.0	18.8	6.06e-01	0	42	102	1048576	21	5115
2026-01-23 10:36:25.63	102.12	12.75	-30.0	-33.0	18.9	6.06e-01	0	42	102	1048576	21	5082
2026-01-23 10:36:28.65	101.68	13.00	-29.9	-32.8	19.0	6.08e-01	0	41	102	1048576	21	5025
2026-01-23 10:36:31.66	101.23	13.25	-29.9	-32.7	19.0	6.07e-01	0	41	102	1048576	21	4984
2026-01-23 10:36:34.67	100.78	13.50	-29.9	-32.7	19.1	6.05e-01	0	41	102	1048576	21	4959
2026-01-23 10:36:37.67	100.32	13.75	-30.0	-32.9	19.0	6.06e-01	0	41	102	1048576	21	5041
2026-01-23 10:36:40.69	99.84	14.01	-29.9	-32.7	19.2	6.05e-01	0	42	102	1048576	21	4955
2026-01-23 10:36:43.70	99.36	14.26	-29.8	-32.5	19.3	6.06e-01	0	42	102	1048576	21	4903
2026-01-23 10:36:46.70	98.88	14.52	-29.9	-32.6	19.3	6.07e-01	0	42	102	1048576	21	4911
2026-01-23 10:36:49.71	98.38	14.77	-30.0	-32.9	19.0	6.09e-01	0	42	102	1048576	21	5036
2026-01-23 10:36:52.73	97.87	15.03	-30.0	-33.1	19.0	6.05e-01	0	42	102	1048576	21	5089
2026-01-23 10:36:55.74	97.35	15.29	-29.8	-32.4	19.4	6.07e-01	0	42	102	1048576	21	4851
2026-01-23 10:36:58.76	96.83	15.55	-29.9	-32.6	19.3	6.09e-01	0	42	102	1048576	21	4925
2026-01-23 10:37:01.77	96.29	15.81	-29.8	-32.4	19.5	6.06e-01	0	42	102	1048576	21	4837
2026-01-23 10:37:04.78	95.74	16.06	-29.9	-32.5	19.4	6.07e-01	0	42	102	1048576	21	4889
2026-01-23 10:37:07.79	95.19	16.32	-30.0	-32.7	19.3	6.06e-01	0	42	102	1048576	21	4952
2026-01-23 10:37:10.81	94.62	16.59	-30.0	-32.9	19.2	6.07e-01	0	42	102	1048576	21	5019
2026-01-23 10:37:13.83	94.04	16.85	-30.2	-33.5	18.9	6.05e-01	0	42	102	1048576	21	5239
2026-01-23 10:37:16.84	93.45	17.11	-30.3	-33.6	18.8	6.06e-01	0	42	102	1048576	21	5274
2026-01-23 10:37:19.86	92.85	17.37	-30.0	-32.9	19.3	6.06e-01	0	42	102	1048576	21	5013
2026-01-23 10:37:22.87	92.23	17.63	-29.8	-32.4	19.5	6.06e-01	0	42	102	1048576	21	4839
2026-01-23 10:37:25.89	91.61	17.89	-29.9	-32.5	19.5	6.04e-01	0	42	102	1048576	21	4878
2026-01-23 10:37:28.91	90.97	18.15	-30.0	-32.8	19.3	6.06e-01	0	42	102	1048576	21	4976
2026-01-23 10:37:31.93	90.33	18.41	-30.1	-33.0	19.3	6.05e-01	0	42	102	1048576	21	5030
2026-01-23 10:37:34.95	89.67	18.67	-30.2	-33.4	19.1	6.08e-01	0	42	102	1048576	21	5178
2026-01-23 10:37:37.95	89.00	18.93	-29.9	-32.6	19.5	6.07e-01	0	42	102	1048576	21	4902
2026-01-23 10:37:40.97	88.32	19.19	-30.1	-33.1	19.2	6.06e-01	0	42	102	1048576	21	5092
2026-01-23 10:37:43.98	87.62	19.44	-30.3	-33.7	18.9	6.07e-01	0	42	102	1048576	21	5275
2026-01-23 10:37:47.01	86.91	19.70	-30.0	-32.6	19.5	6.06e-01	0	42	102	1048576	21	4908
2026-01-23 10:37:50.02	86.19	19.95	-30.1	-33.0	19.3	6.05e-01	0	42	102	1048576	21	5016
2026-01-23 10:37:53.03	85.46	20.20	-30.1	-33.0	19.3	6.06e-01	0	42	102	1048576	21	5032
2026-01-23 10:37:56.04	84.72	20.45	-30.0	-32.9	19.4	6.05e-01	0	42	102	1048576	21	4983
2026-01-23 10:37:59.06	83.96	20.70	-30.1	-33.1	19.3	6.04e-01	0	42	102	1048576	21	5083
2026-01-23 10:38:02.07	83.19	20.94	-30.2	-33.2	19.2	6.08e-01	0	42	102	1048576	21	5094
2026-01-23 10:38:05.08	82.40	21.19	-30.1	-33.1	19.3	6.05e-01	0	42	102	1048576	21	5068
2026-01-23 10:38:08.09	81.61	21.42	-30.2	-33.2	19.2	6.07e-01	0	42	102	1048576	21	5099
2026-01-23 10:38:11.10	80.80	21.66	-30.1	-33.0	19.4	6.07e-01	0	42	102	1048576	21	5025
2026-01-23 10:38:14.11	79.98	21.89	-30.3	-33.5	19.1	6.07e-01	0	42	102	1048576	21	5195
2026-01-23 10:38:17.11	79.14	22.12	-30.4	-33.7	19.0	6.05e-01	0	42	102	1048576	21	5266
2026-01-23 10:38:20.12	78.30	22.34	-30.2	-33.2	19.3	6.04e-01	0	42	102	1048576	21	5101
2026-01-23 10:38:23.14	77.43	22.56	-30.3	-33.3	19.3	6.07e-01	0	42	102	1048576	21	5135
2026-01-23 10:38:26.14	76.56	22.77	-30.3	-33.5	19.2	6.08e-01	0	42	102	1048576	21	5201
2026-01-23 10:38:29.16	75.67	22.98	-30.1	-33.0	19.4	6.08e-01	0	42	102	1048576	21	5014
2026-01-23 10:38:32.16	74.78	23.19	-30.2	-33.3	19.3	6.05e-01	0	42	102	1048576	21	5106
2026-01-23 10:38:35.18	73.87	23.38	-30.5	-43.3	3.8	7.48e-01	0	42	104	1048576	21	15666
2026-01-23 10:38:38.20	72.94	23.58	-31.4	-44.7	3.8	7.43e-01	0	42	104	1048576	23	16624
2026-01-23 10:38:41.21	72.01	23.76	-32.2	-45.9	3.8	7.44e-01	0	42	104	1048576	25	17462
2026-01-23 10:38:44.20	71.07	23.94	-32.5	-47.1	3.8	7.50e-01	0	42	104	1048576	25	19213
2026-01-23 10:38:47.21	70.11	24.11	-33.3	-48.7	3.8	7.42e-01	0	42	104	1048576	27	21252
2026-01-23 10:38:50.22	69.15	24.28	-33.5	-49.6	3.9	7.45e-01	0	42	104	1048576	28	22906
2026-01-23 10:38:53.24	68.17	24.44	-33.6	-50.0	3.8	7.47e-01	0	42	104	1048576	28	23721
2026-01-23 10:38:56.25	67.18	24.58	-33.6	-49.8	3.8	7.46e-01	0	42	104	1048576	28	23405
2026-01-23 10:38:59.27	66.18	24.73	-33.5	-49.7	3.8	7.42e-01	0	42	104	1048576	28	22991
2026-01-23 10:39:02.28	65.17	24.86	-33.1	-47.8	3.8	7.43e-01	0	42	104	1048576	28	19539
2026-01-23 10:39:05.30	64.15	24.98	-32.3	-45.9	3.8	7.44e-01	0	42	104	1048576	26	17168
2026-01-23 10:39:08.31	63.13	25.10	-32.1	-45.1	3.8	7.44e-01	0	42	104	1048576	26	16189
2026-01-23 10:39:11.33	62.10	25.20	-32.3	-45.8	3.8	7.42e-01	0	42	104	1048576	26	16967
2026-01-23 10:39:14.34	61.06	25.30	-31.6	-44.1	3.8	7.43e-01	0	42	104	1048576	25	15224
2026-01-23 10:39:17.36	60.01	25.39	-30.7	-42.7	3.8	7.44e-01	0	42	104	1048576	23	14265
2026-01-23 10:39:20.37	58.97	25.47	-30.5	-42.2	3.8	7.44e-01	0	42	104	1048576	23	13835
2026-01-23 10:39:23.38	57.91	25.53	-30.6	-42.3	3.8	7.44e-01	0	42	104	1048576	23	13867
2026-01-23 10:39:26.39	56.85	25.59	-31.1	-43.8	3.8	7.46e-01	0	42	104	1048576	23	15430
2026-01-23 10:39:29.40	55.79	25.64	-32.1	-46.0	3.8	7.44e-01	0	42	104	1048576	24	17833
2026-01-23 10:39:32.41	54.73	25.67	-32.8	-47.2	3.8	7.46e-01	0	42	104	1048576	26	19003
2026-01-23 10:39:35.42	53.66	25.70	-33.5	-49.5	3.8	7.45e-01	0	42	104	1048576	27	22745
2026-01-23 10:39:38.42	52.60	25.71	-33.5	-49.1	3.8	7.46e-01	0	42	104	1048576	28	21889
2026-01-23 10:39:41.43	51.53	25.72	-33.6	-49.9	3.8	7.46e-01	0	42	104	1048576	28	23415
2026-01-23 10:39:44.44	50.46	25.71	-33.7	-50.1	3.8	7.42e-01	0	42	104	1048576	28	23910
2026-01-23 10:39:47.46	49.39	25.70	-33.7	-50.1	3.8	7.48e-01	0	42	104	1048576	28	23835
2026-01-23 10:39:50.47	48.32	25.67	-33.5	-49.1	3.8	7.48e-01	0	42	104	1048576	28	21922
2026-01-23 10:39:53.48	47.26	25.63	-32.8	-46.9	3.8	7.46e-01	0	42	104	1048576	27	18141
2026-01-23 10:39:56.50	46.20	25.58	-32.1	-45.2	3.8	7.43e-01	0	42	104	1048576	26	16216
2026-01-23 10:39:59.51	45.14	25.53	-32.2	-45.3	3.8	7.46e-01	0	42	104	1048576	26	16333
2026-01-23 10:40:02.52	44.09	25.46	-31.9	-44.5	3.8	7.49e-01	0	42	104	1048576	26	15339
2026-01-23 10:40:05.53	43.04	25.38	-30.9	-42.7	3.8	7.42e-01	0	42	104	1048576	24	14004
2026-01-23 10:40:08.54	42.00	25.29	-30.5	-42.2	3.8	7.43e-01	0	42	104	1048576	23	13863
2026-01-23 10:40:11.56	40.96	25.20	-30.8	-42.9	3.8	7.47e-01	0	42	104	1048576	23	14520
2026-01-23 10:40:14.56	39.94	25.09	-31.7	-44.9	3.8	7.46e-01	0	42	104	1048576	24	16487
2026-01-23 10:40:17.58	38.91	24.97	-32.2	-46.1	3.8	7.42e-01	0	42	104	1048576	25	17772
2026-01-23 10:40:20.58	37.91	24.85	-32.9	-47.9	3.8	7.43e-01	0	42	104	1048576	26	20148
2026-01-23 10:40:23.60	36.90	24.72	-33.5	-49.8	3.8	7.44e-01	0	42	104	1048576	27	23466
2026-01-23 10:40:26.60	35.91	24.58	-33.0	-47.5	3.8	7.43e-01	0	42	104	1048576	28	18941
2026-01-23 10:40:29.61	34.92	24.43	-33.3	-48.9	3.8	7.44e-01	0	42	104	1048576	28	21573
2026-01-23 10:40:32.63	33.95	24.27	-33.6	-50.2	3.8	7.41e-01	0	42	104	1048576	28	24372
2026-01-23 10:40:35.65	32.98	24.10	-33.6	-50.2	3.8	7.47e-01	0	42	104	1048576	28	24152
2026-01-23 10:40:38.66	32.03	23.93	-33.6	-50.3	3.8	7.46e-01	0	42	104	1048576	28	24463
2026-01-23 10:40:41.67	31.08	23.75	-33.1	-47.8	3.8	7.45e-01	0	42	104	1048576	28	19596
2026-01-23 10:40:44.68	30.15	23.57	-32.2	-45.5	3.8	7.45e-01	0	42	104	1048576	26	16665
2026-01-23 10:40:47.69	29.24	23.38	-32.0	-44.8	3.8	7.41e-01	0	42	104	1048576	26	15650
2026-01-23 10:40:50.70	28.33	23.18	-32.0	-44.9	3.8	7.44e-01	0	42	104	1048576	26	15929
2026-01-23 10:40:53.73	27.43	22.97	-31.5	-44.0	3.8	7.43e-01	0	42	104	1048576	25	15152
2026-01-23 10:40:56.74	26.55	22.76	-30.8	-43.0	3.8	7.44e-01	0	42	104	1048576	23	14629
2026-01-23 10:40:59.75	25.68	22.55	-31.0	-43.5	3.8	7.42e-01	0	42	104	1048576	23	15187
2026-01-23 10:41:02.77	24.82	22.33	-32.1	-45.6	3.8	7.41e-01	0	42	104	1048576	25	17062
2026-01-23 10:41:05.77	23.98	22.11	-32.8	-47.3	3.8	7.43e-01	0	42	104	1048576	26	19255
2026-01-23 10:41:08.78	23.15	21.88	-33.1	-48.6	3.8	7.45e-01	0	42	104	1048576	26	21460
2026-01-23 10:41:11.78	22.34	21.65	-33.5	-50.0	3.8	7.44e-01	0	42	104	1048576	27	24014
2026-01-23 10:41:14.79	21.53	21.42	-33.1	-48.0	3.8	7.44e-01	0	42	104	1048576	27	20155
2026-01-23 10:41:17.80	20.74	21.18	-32.8	-47.3	3.8	7.47e-01	0	42	104	1048576	27	18962
2026-01-23 10:41:20.81	19.96	20.94	-33.4	-49.3	3.8	7.46e-01	0	42	104	1048576	27	22623
2026-01-23 10:41:23.84	19.19	20.70	-33.6	-50.2	3.8	7.44e-01	0	42	104	1048576	28	24418
2026-01-23 10:41:26.86	18.43	20.45	-33.5	-50.0	3.8	7.46e-01	0	42	104	1048576	28	24091
2026-01-23 10:41:29.87	17.69	20.20	-33.3	-49.0	3.8	7.43e-01	0	42	104	1048576	28	21775
2026-01-23 10:41:32.89	16.96	19.95	-32.5	-46.0	3.8	7.44e-01	0	42	104	1048576	27	17166
2026-01-23 10:41:35.89	16.25	19.70	-31.6	-44.5	3.8	7.47e-01	0	42	104	1048576	25	15863
2026-01-23 10:41:38.90	15.55	19.45	-31.7	-44.5	3.8	7.43e-01	0	42	104	1048576	25	15715
2026-01-23 10:41:41.91	14.86	19.19	-32.3	-46.5	3.8	7.45e-01	0	42	104	1048576	25	18534
2026-01-23 10:41:44.92	14.18	18.93	-31.5	-44.0	3.8	7.46e-01	0	42	104	1048576	25	15172
2026-01-23 10:41:47.93	13.52	18.68	-31.0	-43.2	3.8	7.48e-01	0	42	104	1048576	24	14606
2026-01-23 10:41:50.94	12.86	18.42	-32.1	-46.1	3.8	7.46e-01	0	42	104	1048576	25	18079
2026-01-23 10:41:53.95	12.22	18.16	-33.3	-49.1	3.8	7.46e-01	0	42	104	1048576	27	22310
2026-01-23 10:41:56.97	11.59	17.90	-33.3	-49.6	3.8	7.42e-01	0	42	104	1048576	27	23498
2026-01-23 10:41:59.99	10.97	17.64	-33.3	-49.6	3.8	7.47e-01	0	42	104	1048576	27	23263
2026-01-23 10:42:03.00	10.36	17.38	-32.9	-47.9	3.8	7.44e-01	0	42	104	1048576	27	20251
2026-01-23 10:42:06.01	9.77	17.12	-32.2	-45.8	3.8	7.47e-01	0	42	104	1048576	26	17216
2026-01-23 10:42:09.02	9.18	16.86	-32.6	-47.4	3.8	7.44e-01	0	42	104	1048576	26	19745
2026-01-23 10:42:12.03	8.61	16.60	-33.3	-49.6	3.8	7.46e-01	0	42	104	1048576	27	23571
2026-01-23 10:42:15.04	8.05	16.34	-33.4	-50.1	3.8	7.45e-01	0	42	104	1048576	27	24603
2026-01-23 10:42:18.06	7.49	16.08	-33.3	-49.9	3.8	7.46e-01	0	42	104	1048576	27	24145
2026-01-23 10:42:21.06	6.95	15.83	-32.7	-47.6	3.8	7.45e-01	0	42	104	1048576	27	19972
2026-01-23 10:42:24.08	6.42	15.57	-31.7	-45.0	3.8	7.46e-01	0	42	104	1048576	25	16685
2026-01-23 10:42:27.10	5.89	15.31	-31.5	-45.1	3.8	7.42e-01	0	42	104	1048576	24	17124
2026-01-23 10:42:30.11	5.38	15.05	-32.2	-46.5	3.8	7.45e-01	0	42	104	1048576	25	18676
2026-01-23 10:42:33.11	4.88	14.80	-32.5	-46.9	3.8	7.43e-01	0	42	104	1048576	26	19065
2026-01-23 10:42:36.14	4.38	14.54	-32.1	-45.5	3.8	7.47e-01	0	42	104	1048576	26	16905
2026-01-23 10:42:39.15	3.89	14.29	-32.4	-46.6	3.8	7.42e-01	0	42	104	1048576	26	18558
2026-01-23 10:42:42.17	3.42	14.04	-33.2	-49.5	3.8	7.48e-01	0	42	104	1048576	27	23415
2026-01-23 10:42:45.17	2.95	13.79	-32.6	-47.1	3.8	7.45e-01	0	42	104	1048576	27	19025
2026-01-23 10:42:48.18	2.49	13.54	-32.8	-48.0	3.8	7.46e-01	0	42	104	1048576	27	20607
2026-01-23 10:42:51.19	2.04	13.29	-32.8	-47.8	3.8	7.48e-01	0	42	104	1048576	27	20375
2026-01-23 10:42:54.21	1.60	13.04	-32.2	-46.0	3.8	7.43e-01	0	42	104	1048576	26	17653
2026-01-23 10:42:57.22	1.16	12.79	-31.7	-45.1	3.8	7.41e-01	0	42	104	1048576	25	16877
2026-01-23 10:43:00.24	0.74	12.54	-32.7	-48.1	3.8	7.41e-01	0	42	104	1048576	26	21194
2026-01-23 10:43:03.26	0.32	12.30	-33.2	-49.9	3.8	7.43e-01	0	42	104	1048576	27	24614
2026-01-23 10:43:06.27	359.91	12.05	-33.1	-49.6	3.8	7.46e-01	0	42	104	1048576	27	24026
2026-01-23 10:43:09.29	359.50	11.81	-33.2	-49.9	3.8	7.44e-01	0	42	104	1048576	27	24572
2026-01-23 10:43:12.30	359.11	11.57	-32.5	-47.1	3.8	7.44e-01	0	42	104	1048576	27	19261
2026-01-23 10:43:15.31	358.72	11.33	-31.8	-45.4	3.8	7.42e-01	0	42	104	1048576	25	17299
2026-01-23 10:43:18.33	358.33	11.09	-32.3	-47.4	3.8	7.47e-01	0	42	104	1048576	25	20281
2026-01-23 10:43:21.34	357.96	10.86	-32.9	-48.9	3.8	7.44e-01	0	42	104	1048576	26	22895
2026-01-23 10:43:24.37	357.59	10.62	-32.8	-48.8	3.8	7.43e-01	0	42	104	1048576	26	22533
2026-01-23 10:43:27.38	357.22	10.39	-32.7	-48.3	3.8	7.46e-01	0	42	104	1048576	26	21694
2026-01-23 10:43:30.41	356.87	10.15	-33.1	-49.6	3.8	7.43e-01	0	42	104	1048576	27	23920
2026-01-23 10:43:33.42	356.52	9.92	-32.3	-46.9	3.8	7.43e-01	0	42	104	1048576	26	19283
2026-01-23 10:43:36.44	356.17	9.69	-32.3	-46.7	3.8	7.44e-01	0	42	104	1048576	26	18923
2026-01-23 10:43:39.46	355.83	9.46	-32.6	-48.2	3.8	7.47e-01	0	42	104	1048576	26	21627
2026-01-23 10:43:42.46	355.50	9.24	-32.3	-47.0	3.8	7.46e-01	0	42	104	1048576	26	19553
2026-01-23 10:43:45.48	355.18	9.01	-31.8	-45.8	3.8	7.42e-01	0	42	104	1048576	25	17993
2026-01-23 10:43:48.49	354.86	8.79	-32.0	-46.6	3.8	7.46e-01	0	42	104	1048576	25	19158
2026-01-23 10:43:51.51	354.54	8.57	-32.8	-49.1	3.8	7.48e-01	0	42	104	1048576	26	23585
2026-01-23 10:43:54.53	354.23	8.34	-33.0	-50.4	3.8	7.45e-01	0	42	104	1048576	26	26533
2026-01-23 10:43:57.55	353.93	8.12	-33.1	-50.9	3.8	7.45e-01	0	42	104	1048576	26	27953
2026-01-23 10:44:00.56	353.63	7.91	-32.9	-50.2	3.8	7.46e-01	0	42	104	1048576	26	26307
2026-01-23 10:44:03.56	353.33	7.69	-32.6	-48.3	3.8	7.42e-01	0	42	104	1048576	26	21975
2026-01-23 10:44:06.58	353.04	7.47	-32.5	-48.0	3.8	7.45e-01	0	42	104	1048576	26	21496
2026-01-23 10:44:09.60	352.76	7.26	-32.8	-49.7	3.8	7.42e-01	0	42	104	1048576	26	25249
2026-01-23 10:44:12.61	352.48	7.05	-33.3	-52.7	3.8	7.43e-01	0	42	104	1048576	27	33685

#Closed at: 2026-01-23 10:44:14
#Recorded file [1 MB]: D:/data/31010_260123_133512.dat