passes_logs/2026/01/23/R2M6_AANII_01/R2M6_AANII_01__20260123_162113_FENGYUN_3E_rec.log

#Pass ID: 20260123_162113_FENGYUN 3E
#Satellite: FENGYUN 3E
#Configuration: FENGYUN 3E
#almurnet v.1.7.20240730
#Start time: 2026-01-23 16:21:14

#Version: 2.2.20231116
#Station: R2M6_AANII_01
#Location: 30.233357 lon 59.946436 lat
#TLE: 1 49008U 21062A   26022.96857035  .00000014  00000+0  27449-4 0  9991
#TLE: 2 49008  98.7488  28.0032 0002359 122.8887 237.2516 14.19886951235971

#Time	Az	El	Level	Level2	SNR	BER	BlckErr	Temp	State	Recorded	gain1	gain2
2026-01-23 16:21:14.22	218.21	7.05	-28.0	-28.8	5.6	7.41e-01	0	41	0	0	17	3952
2026-01-23 16:21:17.22	218.52	7.23	-29.2	-31.4	9.9	9.83e-03	0	42	0	7340032	18	4607
2026-01-23 16:21:20.22	218.83	7.41	-28.2	-29.2	11.6	1.18e-03	0	42	0	28311552	17	4041
2026-01-23 16:21:23.24	219.15	7.60	-27.9	-29.1	12.1	3.50e-04	0	42	102	49283072	16	4108
2026-01-23 16:21:26.26	219.47	7.78	-26.9	-27.3	13.3	3.08e-05	0	42	102	49283072	15	3754
2026-01-23 16:21:29.27	219.80	7.97	-26.8	-27.5	13.5	9.10e-06	0	42	102	49283072	14	3905
2026-01-23 16:21:32.28	220.13	8.15	-26.9	-27.6	13.4	2.74e-05	0	42	102	49283072	14	3932
2026-01-23 16:21:35.29	220.46	8.34	-26.5	-26.8	13.9	2.20e-06	0	42	102	49283072	14	3731
2026-01-23 16:21:38.30	220.80	8.52	-26.4	-27.2	14.0	2.20e-06	0	42	102	49283072	13	3917
2026-01-23 16:21:41.32	221.14	8.71	-26.4	-27.1	14.1	1.10e-06	0	42	102	49283072	13	3911
2026-01-23 16:21:44.33	221.49	8.90	-26.5	-27.4	13.9	4.50e-06	0	42	102	49283072	13	3983
2026-01-23 16:21:47.34	221.84	9.09	-26.5	-27.4	14.0	1.10e-06	0	42	102	49283072	13	3972
2026-01-23 16:21:50.35	222.19	9.27	-26.6	-27.5	13.9	3.40e-06	0	43	102	49283072	13	3999
2026-01-23 16:21:53.36	222.55	9.46	-26.7	-27.8	13.7	3.40e-06	0	43	102	49283072	13	4080
2026-01-23 16:21:56.37	222.92	9.65	-26.5	-27.4	14.0	3.40e-06	0	43	102	49283072	13	3966
2026-01-23 16:21:59.38	223.29	9.84	-26.4	-27.0	14.2	2.20e-06	0	43	102	49283072	13	3875
2026-01-23 16:22:02.40	223.66	10.03	-26.3	-27.0	14.3	2.20e-06	0	43	102	49283072	13	3869
2026-01-23 16:22:05.41	224.04	10.22	-26.2	-26.7	14.4	1.10e-06	0	43	102	49283072	13	3795
2026-01-23 16:22:08.42	224.42	10.41	-26.2	-26.5	14.5	2.20e-06	0	43	102	49283072	13	3756
2026-01-23 16:22:11.42	224.81	10.60	-26.3	-26.9	14.3	2.20e-06	0	43	102	49283072	13	3837
2026-01-23 16:22:14.43	225.20	10.79	-26.2	-26.7	14.5	1.10e-06	0	43	102	49283072	13	3794
2026-01-23 16:22:17.45	225.60	10.99	-26.1	-26.3	14.7	1.10e-06	0	43	102	49283072	13	3700
2026-01-23 16:22:20.46	226.00	11.18	-26.0	-26.2	14.8	1.10e-06	0	43	102	49283072	13	3677
2026-01-23 16:22:23.47	226.41	11.37	-26.1	-26.4	14.7	0.00e+00	0	43	102	49283072	13	3710
2026-01-23 16:22:26.47	226.82	11.56	-26.1	-26.3	14.7	0.00e+00	0	43	102	49283072	13	3699
2026-01-23 16:22:29.48	227.24	11.75	-26.0	-26.2	14.8	0.00e+00	0	43	102	49283072	13	3679
2026-01-23 16:22:32.50	227.67	11.95	-25.8	-26.3	15.0	0.00e+00	0	43	102	49283072	12	3794
2026-01-23 16:22:35.51	228.09	12.14	-25.8	-26.2	15.1	0.00e+00	0	43	102	49283072	12	3780
2026-01-23 16:22:38.51	228.53	12.33	-26.0	-26.6	14.9	1.10e-06	0	43	102	49283072	12	3859
2026-01-23 16:22:41.52	228.97	12.53	-26.0	-26.7	14.8	0.00e+00	0	43	102	49283072	12	3910
2026-01-23 16:22:44.52	229.41	12.72	-25.7	-25.9	15.3	0.00e+00	0	43	102	49283072	12	3706
2026-01-23 16:22:47.54	229.86	12.91	-25.3	-25.6	15.8	0.00e+00	0	43	102	49283072	11	3735
2026-01-23 16:22:50.55	230.32	13.10	-25.6	-26.2	15.5	0.00e+00	0	43	102	49283072	11	3866
2026-01-23 16:22:53.55	230.78	13.30	-25.6	-26.3	15.4	0.00e+00	0	43	102	49283072	11	3902
2026-01-23 16:22:56.56	231.25	13.49	-25.8	-26.7	15.2	0.00e+00	0	44	102	49283072	11	3990
2026-01-23 16:22:59.58	231.73	13.68	-25.7	-26.5	15.4	0.00e+00	0	44	102	49283072	11	3937
2026-01-23 16:23:02.58	232.21	13.87	-25.6	-26.2	15.5	0.00e+00	0	44	102	49283072	11	3866
2026-01-23 16:23:05.61	232.70	14.07	-25.5	-26.0	15.7	0.00e+00	0	44	102	49283072	11	3813
2026-01-23 16:23:08.62	233.19	14.26	-25.3	-25.5	15.9	0.00e+00	0	43	102	49283072	11	3709
2026-01-23 16:23:11.63	233.69	14.45	-25.2	-25.3	16.0	0.00e+00	0	44	102	49283072	11	3658
2026-01-23 16:23:14.64	234.20	14.64	-25.2	-25.4	16.0	0.00e+00	0	43	102	49283072	11	3688
2026-01-23 16:23:17.66	234.71	14.83	-25.2	-25.3	16.1	0.00e+00	0	44	102	49283072	11	3667
2026-01-23 16:23:20.68	235.23	15.02	-25.0	-25.0	16.2	0.00e+00	0	44	102	49283072	11	3594
2026-01-23 16:23:23.70	235.75	15.21	-25.0	-24.8	16.4	0.00e+00	0	44	102	49283072	11	3551
2026-01-23 16:23:26.71	236.29	15.39	-24.9	-25.1	16.5	0.00e+00	0	44	102	49283072	10	3713
2026-01-23 16:23:29.72	236.82	15.58	-24.9	-25.1	16.5	0.00e+00	0	44	102	49283072	10	3711
2026-01-23 16:23:32.74	237.37	15.77	-24.7	-24.8	16.7	1.10e-06	0	44	102	49283072	10	3651
2026-01-23 16:23:35.75	237.92	15.95	-24.7	-24.9	16.7	0.00e+00	0	44	102	49283072	10	3651
2026-01-23 16:23:38.76	238.48	16.13	-24.7	-24.8	16.7	0.00e+00	0	44	102	49283072	10	3632
2026-01-23 16:23:41.78	239.04	16.32	-24.6	-24.5	16.9	0.00e+00	0	44	102	49283072	10	3579
2026-01-23 16:23:44.78	239.61	16.50	-24.8	-25.0	16.6	0.00e+00	0	44	102	49283072	10	3678
2026-01-23 16:23:47.77	240.18	16.67	-24.6	-24.5	16.9	0.00e+00	0	44	102	49283072	10	3582
2026-01-23 16:23:50.78	240.77	16.85	-24.7	-24.8	16.7	0.00e+00	0	44	102	49283072	10	3629
2026-01-23 16:23:53.79	241.36	17.03	-24.8	-25.1	16.6	0.00e+00	0	44	102	49283072	10	3696
2026-01-23 16:23:56.81	241.96	17.20	-24.7	-24.7	16.8	0.00e+00	0	44	102	49283072	10	3615
2026-01-23 16:23:59.82	242.56	17.38	-24.5	-24.3	17.1	0.00e+00	0	44	102	49283072	10	3520
2026-01-23 16:24:02.83	243.17	17.55	-24.3	-24.4	17.2	0.00e+00	0	44	102	49283072	9	3639
2026-01-23 16:24:05.85	243.79	17.72	-24.3	-24.4	17.2	0.00e+00	0	44	102	49283072	9	3659
2026-01-23 16:24:08.86	244.42	17.88	-24.3	-24.4	17.3	0.00e+00	0	44	102	49283072	9	3645
2026-01-23 16:24:11.87	245.05	18.05	-24.3	-24.4	17.2	0.00e+00	0	44	102	49283072	9	3658
2026-01-23 16:24:14.87	245.68	18.21	-24.5	-24.8	17.1	0.00e+00	0	44	102	49283072	9	3733
2026-01-23 16:24:17.88	246.33	18.37	-24.2	-24.3	17.3	0.00e+00	0	44	102	49283072	9	3623
2026-01-23 16:24:20.89	246.98	18.53	-24.5	-24.9	17.0	0.00e+00	0	44	102	49283072	9	3753
2026-01-23 16:24:23.91	247.64	18.68	-24.8	-25.4	16.7	0.00e+00	0	44	102	49283072	9	3876
2026-01-23 16:24:26.93	248.30	18.83	-24.5	-24.8	17.1	0.00e+00	0	44	102	49283072	9	3727
2026-01-23 16:24:29.93	248.97	18.98	-24.4	-24.6	17.2	0.00e+00	0	44	102	49283072	9	3684
2026-01-23 16:24:32.93	249.64	19.13	-24.2	-24.2	17.4	0.00e+00	0	44	102	49283072	9	3596
2026-01-23 16:24:35.95	250.33	19.27	-24.2	-24.2	17.4	0.00e+00	0	44	102	49283072	9	3611
2026-01-23 16:24:38.96	251.02	19.41	-24.0	-23.9	17.6	0.00e+00	0	44	102	49283072	9	3526
2026-01-23 16:24:41.97	251.71	19.55	-24.1	-24.0	17.5	0.00e+00	0	44	102	49283072	9	3568
2026-01-23 16:24:44.98	252.41	19.68	-24.3	-24.4	17.3	0.00e+00	0	44	102	49283072	9	3637
2026-01-23 16:24:48.00	253.12	19.81	-24.3	-24.4	17.3	0.00e+00	0	44	102	49283072	9	3651
2026-01-23 16:24:51.02	253.84	19.94	-24.3	-24.5	17.3	0.00e+00	0	44	102	49283072	9	3664
2026-01-23 16:24:54.02	254.55	20.06	-24.3	-24.4	17.3	0.00e+00	0	44	102	49283072	9	3652
2026-01-23 16:24:57.03	255.28	20.18	-24.3	-24.4	17.4	0.00e+00	0	44	102	49283072	9	3639
2026-01-23 16:25:00.03	256.00	20.29	-24.4	-24.7	17.2	0.00e+00	0	44	102	49283072	9	3707
2026-01-23 16:25:03.05	256.74	20.40	-24.4	-24.7	17.2	0.00e+00	0	44	102	49283072	9	3708
2026-01-23 16:25:06.06	257.48	20.51	-24.3	-24.5	17.3	0.00e+00	0	44	102	49283072	9	3659
2026-01-23 16:25:09.07	258.22	20.61	-24.0	-23.8	17.7	0.00e+00	0	44	102	49283072	9	3508
2026-01-23 16:25:12.07	258.97	20.71	-23.9	-24.0	17.9	0.00e+00	0	44	102	49283072	8	3647
2026-01-23 16:25:15.09	259.72	20.80	-24.2	-24.7	17.5	0.00e+00	0	44	102	49283072	8	3804
2026-01-23 16:25:18.10	260.48	20.89	-24.2	-24.7	17.5	0.00e+00	0	44	102	49283072	8	3816
2026-01-23 16:25:21.11	261.24	20.97	-24.0	-24.3	17.7	0.00e+00	0	44	102	49283072	8	3722
2026-01-23 16:25:24.11	262.01	21.05	-23.9	-24.0	17.9	0.00e+00	0	44	102	49283072	8	3656
2026-01-23 16:25:27.11	262.77	21.12	-24.1	-24.5	17.7	0.00e+00	0	44	102	49283072	8	3760
2026-01-23 16:25:30.12	263.54	21.19	-24.0	-24.3	17.8	0.00e+00	0	44	102	49283072	8	3721
2026-01-23 16:25:33.13	264.32	21.25	-23.8	-23.9	17.9	0.00e+00	0	44	102	49283072	8	3636
2026-01-23 16:25:36.15	265.10	21.31	-23.9	-24.1	17.8	0.00e+00	0	44	102	49283072	8	3679
2026-01-23 16:25:39.16	265.88	21.37	-24.0	-24.3	17.8	0.00e+00	0	44	102	49283072	8	3722
2026-01-23 16:25:42.17	266.67	21.41	-24.0	-24.3	17.8	0.00e+00	0	44	102	49283072	8	3729
2026-01-23 16:25:45.17	267.45	21.46	-24.1	-24.4	17.7	0.00e+00	0	44	102	49283072	8	3741
2026-01-23 16:25:48.18	268.24	21.49	-24.2	-24.8	17.5	0.00e+00	0	44	102	49283072	8	3837
2026-01-23 16:25:51.18	269.02	21.53	-24.1	-24.6	17.6	0.00e+00	0	44	102	49283072	8	3778
2026-01-23 16:25:54.20	269.82	21.55	-24.1	-24.5	17.7	0.00e+00	0	44	102	49283072	8	3764
2026-01-23 16:25:57.22	270.61	21.57	-24.0	-24.3	17.8	0.00e+00	0	44	102	49283072	8	3719
2026-01-23 16:26:00.23	271.41	21.59	-23.9	-24.1	17.9	0.00e+00	0	44	102	49283072	8	3686
2026-01-23 16:26:03.23	272.20	21.60	-23.9	-24.0	17.9	0.00e+00	0	44	102	49283072	8	3664
2026-01-23 16:26:06.24	272.99	21.60	-24.0	-24.2	17.8	0.00e+00	0	44	102	49283072	8	3704
2026-01-23 16:26:09.26	273.79	21.60	-24.0	-24.2	17.8	0.00e+00	0	44	102	49283072	8	3707
2026-01-23 16:26:12.27	274.58	21.60	-24.0	-24.3	17.7	0.00e+00	0	44	102	49283072	8	3734
2026-01-23 16:26:15.28	275.37	21.58	-24.1	-24.5	17.7	0.00e+00	0	44	102	49283072	8	3765
2026-01-23 16:26:18.29	276.17	21.57	-24.4	-25.0	17.4	0.00e+00	0	44	102	49283072	8	3892
2026-01-23 16:26:21.29	276.95	21.54	-24.3	-24.9	17.5	0.00e+00	0	44	102	49283072	8	3854
2026-01-23 16:26:24.32	277.75	21.51	-24.2	-24.8	17.5	0.00e+00	0	44	102	49283072	8	3836
2026-01-23 16:26:27.34	278.54	21.48	-24.1	-24.4	17.7	0.00e+00	0	44	102	49283072	8	3749
2026-01-23 16:26:30.35	279.33	21.44	-24.2	-24.7	17.6	0.00e+00	0	44	102	49283072	8	3803
2026-01-23 16:26:33.37	280.11	21.40	-24.3	-24.8	17.5	0.00e+00	0	44	102	49283072	8	3837
2026-01-23 16:26:36.38	280.90	21.35	-24.0	-24.3	17.8	0.00e+00	0	44	102	49283072	8	3723
2026-01-23 16:26:39.39	281.68	21.29	-24.2	-24.8	17.5	0.00e+00	0	44	102	49283072	8	3827
2026-01-23 16:26:42.41	282.45	21.23	-24.1	-24.5	17.7	0.00e+00	0	44	102	49283072	8	3756
2026-01-23 16:26:45.42	283.23	21.17	-24.2	-24.6	17.6	0.00e+00	0	44	102	49283072	8	3792
2026-01-23 16:26:48.43	284.00	21.09	-24.3	-24.9	17.5	0.00e+00	0	44	102	49283072	8	3853
2026-01-23 16:26:51.44	284.76	21.02	-24.3	-24.9	17.5	0.00e+00	0	44	102	49283072	8	3852
2026-01-23 16:26:54.45	285.53	20.94	-24.2	-24.8	17.5	0.00e+00	0	44	102	49283072	8	3824
2026-01-23 16:26:57.47	286.29	20.85	-24.1	-24.6	17.6	0.00e+00	0	44	102	49283072	8	3777
2026-01-23 16:27:00.48	287.04	20.77	-24.3	-24.9	17.4	0.00e+00	0	44	102	49283072	8	3857
2026-01-23 16:27:03.50	287.79	20.67	-24.4	-25.1	17.3	0.00e+00	0	44	102	49283072	8	3900
2026-01-23 16:27:06.51	288.54	20.57	-24.3	-24.9	17.4	0.00e+00	0	44	102	49283072	8	3865
2026-01-23 16:27:09.51	289.28	20.47	-24.3	-25.0	17.4	0.00e+00	0	44	102	49283072	8	3878
2026-01-23 16:27:12.53	290.01	20.36	-24.5	-25.2	17.3	0.00e+00	0	44	102	49283072	8	3938
2026-01-23 16:27:15.54	290.74	20.25	-24.6	-25.5	17.1	0.00e+00	0	44	102	49283072	8	4006
2026-01-23 16:27:18.55	291.47	20.14	-24.7	-25.3	16.9	0.00e+00	0	44	102	49283072	9	3857
2026-01-23 16:27:21.55	292.18	20.02	-24.6	-25.0	17.1	0.00e+00	0	44	102	49283072	9	3769
2026-01-23 16:27:24.57	292.90	19.89	-24.6	-25.1	17.1	0.00e+00	0	44	102	49283072	9	3793
2026-01-23 16:27:27.58	293.61	19.77	-24.4	-24.7	17.3	0.00e+00	0	44	102	49283072	9	3703
2026-01-23 16:27:30.59	294.31	19.64	-24.6	-25.1	17.1	0.00e+00	0	44	102	49283072	9	3794
2026-01-23 16:27:33.61	295.01	19.50	-24.5	-24.8	17.2	0.00e+00	0	44	102	49283072	9	3730
2026-01-23 16:27:36.61	295.70	19.37	-24.6	-25.1	17.1	0.00e+00	0	44	102	49283072	9	3791
2026-01-23 16:27:39.62	296.38	19.23	-24.6	-25.1	17.0	0.00e+00	0	44	102	49283072	9	3806
2026-01-23 16:27:42.63	297.06	19.08	-24.8	-25.5	16.8	0.00e+00	0	44	102	49283072	9	3893
2026-01-23 16:27:45.63	297.73	18.94	-24.9	-25.7	16.7	0.00e+00	0	44	102	49283072	9	3943
2026-01-23 16:27:48.64	298.39	18.79	-24.7	-25.3	16.9	0.00e+00	0	44	102	49283072	9	3855
2026-01-23 16:27:51.66	299.06	18.63	-24.6	-25.0	17.1	0.00e+00	0	44	102	49283072	9	3785
2026-01-23 16:27:54.66	299.71	18.48	-24.7	-25.3	16.9	0.00e+00	0	44	102	49283072	9	3836
2026-01-23 16:27:57.66	300.35	18.32	-24.8	-25.5	16.8	0.00e+00	0	44	102	49283072	9	3894
2026-01-23 16:28:00.67	300.99	18.16	-25.0	-25.4	16.6	0.00e+00	0	44	102	49283072	10	3775
2026-01-23 16:28:03.67	301.62	18.00	-25.1	-25.6	16.5	0.00e+00	0	44	102	49283072	10	3821
2026-01-23 16:28:06.69	302.25	17.84	-25.0	-25.4	16.6	0.00e+00	0	44	102	49283072	10	3764
2026-01-23 16:28:09.70	302.87	17.67	-24.9	-25.2	16.7	0.00e+00	0	44	102	49283072	10	3725
2026-01-23 16:28:12.72	303.48	17.50	-25.0	-25.5	16.6	0.00e+00	0	44	102	49283072	10	3790
2026-01-23 16:28:15.73	304.09	17.33	-24.9	-25.2	16.7	0.00e+00	0	44	102	49283072	10	3723
2026-01-23 16:28:18.74	304.69	17.16	-24.8	-25.1	16.7	0.00e+00	0	44	102	49283072	10	3694
2026-01-23 16:28:21.75	305.28	16.98	-25.0	-25.3	16.6	0.00e+00	0	44	102	49283072	10	3752
2026-01-23 16:28:24.76	305.86	16.81	-25.1	-25.7	16.4	0.00e+00	0	44	102	49283072	10	3832
2026-01-23 16:28:27.78	306.44	16.63	-25.4	-26.3	16.1	0.00e+00	0	44	102	49283072	10	3993
2026-01-23 16:28:30.79	307.02	16.45	-25.4	-26.3	16.1	0.00e+00	0	44	102	49283072	10	3984
2026-01-23 16:28:33.80	307.58	16.27	-25.3	-26.1	16.2	0.00e+00	0	44	102	49283072	10	3942
2026-01-23 16:28:36.81	308.14	16.09	-25.3	-26.0	16.2	0.00e+00	0	44	102	49283072	10	3919
2026-01-23 16:28:39.82	308.69	15.91	-25.2	-25.9	16.3	0.00e+00	0	44	102	49283072	10	3895
2026-01-23 16:28:42.84	309.24	15.73	-25.3	-26.0	16.2	0.00e+00	0	44	102	49283072	10	3906
2026-01-23 16:28:45.85	309.78	15.54	-25.5	-26.4	16.0	0.00e+00	0	44	102	49283072	10	4004
2026-01-23 16:28:48.86	310.32	15.36	-25.8	-26.6	15.6	0.00e+00	0	44	102	49283072	11	3957
2026-01-23 16:28:51.87	310.84	15.17	-25.9	-26.9	15.5	0.00e+00	0	44	102	49283072	11	4016
2026-01-23 16:28:54.88	311.36	14.98	-25.8	-26.6	15.6	0.00e+00	0	44	102	49283072	11	3963
2026-01-23 16:28:57.89	311.88	14.80	-25.8	-26.6	15.6	0.00e+00	0	44	102	49283072	11	3950
2026-01-23 16:29:00.90	312.38	14.61	-25.6	-26.2	15.8	0.00e+00	0	44	102	49283072	11	3859
2026-01-23 16:29:03.90	312.88	14.42	-25.5	-26.0	15.9	0.00e+00	0	44	102	49283072	11	3820
2026-01-23 16:29:06.92	313.38	14.23	-25.6	-26.3	15.8	0.00e+00	0	44	102	49283072	11	3877
2026-01-23 16:29:09.93	313.87	14.04	-25.9	-26.8	15.5	0.00e+00	0	44	102	49283072	11	3992
2026-01-23 16:29:12.94	314.35	13.85	-26.1	-26.8	15.1	0.00e+00	0	45	102	49283072	12	3890
2026-01-23 16:29:15.95	314.83	13.66	-26.2	-27.1	14.9	0.00e+00	0	44	102	49283072	12	3976
2026-01-23 16:29:18.96	315.30	13.47	-26.2	-27.1	15.0	0.00e+00	0	44	102	49283072	12	3983
2026-01-23 16:29:21.97	315.77	13.28	-26.3	-27.3	14.8	0.00e+00	0	44	102	49283072	12	4025
2026-01-23 16:29:24.97	316.22	13.09	-25.6	-25.6	15.7	0.00e+00	0	44	102	49283072	12	3627
2026-01-23 16:29:28.00	316.68	12.90	-25.8	-26.1	15.5	0.00e+00	0	44	102	49283072	12	3742
2026-01-23 16:29:31.01	317.13	12.71	-25.7	-26.0	15.5	0.00e+00	0	44	102	49283072	12	3712
2026-01-23 16:29:34.03	317.57	12.51	-25.8	-26.2	15.4	0.00e+00	0	44	102	49283072	12	3760
2026-01-23 16:29:37.05	318.01	12.32	-26.2	-27.1	14.9	0.00e+00	0	44	102	49283072	12	3978
2026-01-23 16:29:40.05	318.44	12.13	-26.3	-27.2	14.8	0.00e+00	0	44	102	49283072	12	4017
2026-01-23 16:29:43.07	318.87	11.94	-26.5	-27.7	14.6	1.10e-06	0	44	102	49283072	12	4120
2026-01-23 16:29:46.08	319.29	11.75	-26.7	-27.7	14.2	1.10e-06	0	44	102	49283072	13	4024
2026-01-23 16:29:49.09	319.71	11.56	-26.5	-27.2	14.5	1.10e-06	0	44	102	49283072	13	3909
2026-01-23 16:29:52.10	320.12	11.37	-26.3	-26.8	14.7	1.10e-06	0	44	102	49283072	13	3816
2026-01-23 16:29:55.12	320.52	11.18	-26.2	-26.6	14.9	0.00e+00	0	44	102	49283072	13	3756
2026-01-23 16:29:58.12	320.92	10.99	-26.4	-26.9	14.7	0.00e+00	0	44	102	49283072	13	3828
2026-01-23 16:30:01.14	321.32	10.80	-26.6	-27.3	14.4	0.00e+00	0	44	102	49283072	13	3940
2026-01-23 16:30:04.16	321.71	10.61	-26.7	-27.6	14.2	1.71e-05	0	44	102	49283072	13	4012
2026-01-23 16:30:07.18	322.10	10.42	-26.7	-27.7	14.1	1.10e-06	0	44	102	49283072	13	4039
2026-01-23 16:30:10.19	322.48	10.23	-26.6	-27.5	14.3	0.00e+00	0	44	102	49283072	13	3979
2026-01-23 16:30:13.20	322.85	10.04	-26.6	-27.4	14.3	0.00e+00	0	44	102	49283072	13	3964
2026-01-23 16:30:16.21	323.23	9.85	-26.6	-27.5	14.3	0.00e+00	0	44	102	49283072	13	3993
2026-01-23 16:30:19.21	323.59	9.66	-26.8	-28.0	14.0	1.10e-06	0	44	102	49283072	13	4103
2026-01-23 16:30:22.23	323.95	9.48	-26.9	-28.0	13.9	9.10e-06	0	44	102	49283072	13	4116
2026-01-23 16:30:25.24	324.31	9.29	-26.8	-27.8	14.1	0.00e+00	0	44	102	49283072	13	4069
2026-01-23 16:30:28.25	324.67	9.10	-26.6	-27.5	14.3	0.00e+00	0	44	102	49283072	13	3973
2026-01-23 16:30:31.26	325.01	8.92	-26.7	-27.7	14.1	5.70e-06	0	44	102	49283072	13	4027
2026-01-23 16:30:34.27	325.36	8.73	-27.0	-28.3	13.7	6.80e-06	0	44	102	49283072	13	4193
2026-01-23 16:30:37.30	325.70	8.55	-26.9	-28.2	13.8	8.00e-06	0	44	102	49283072	13	4160
2026-01-23 16:30:40.31	326.04	8.36	-27.0	-28.3	13.7	1.14e-05	0	44	102	49283072	13	4201
2026-01-23 16:30:43.32	326.37	8.18	-27.2	-28.4	13.4	1.94e-05	0	44	102	49283072	14	4108
2026-01-23 16:30:46.34	326.70	7.99	-27.2	-28.3	13.4	1.25e-05	0	44	102	49283072	14	4103
2026-01-23 16:30:49.35	327.03	7.81	-27.2	-28.4	13.3	2.28e-05	0	44	102	49283072	14	4117
2026-01-23 16:30:52.37	327.35	7.63	-27.3	-28.6	13.2	2.28e-05	0	44	102	49283072	14	4165
2026-01-23 16:30:55.38	327.67	7.45	-27.1	-28.1	13.5	2.28e-05	0	44	102	49283072	14	4037
2026-01-23 16:30:58.39	327.98	7.27	-27.1	-28.0	13.5	1.37e-05	0	44	102	49283072	14	4022
2026-01-23 16:31:01.42	328.29	7.09	-32.8	-39.8	4.3	1.81e-03	0	44	102	49283072	25	8046

#Closed at: 2026-01-23 16:31:03
#Recorded file [49 MB]: D:/data/31010_260123_192116.dat