passes_logs/2026/01/23/R2M6_AANII_01/R2M6_AANII_01__20260123_115941_SUOMI_NPP_rec.log

#Pass ID: 20260123_115941_SUOMI NPP
#Satellite: SUOMI NPP
#Configuration: NPP
#almurnet v.1.7.20240730
#Start time: 2026-01-23 11:59:40

#Version: 2.2.20231116
#Station: R2M6_AANII_01
#Location: 30.233357 lon 59.946436 lat
#TLE: 1 37849U 11061A   26022.50498765  .00000208  00000+0  11976-3 0  9992
#TLE: 2 37849  98.7820 324.4892 0002275  50.8149 309.3229 14.19528284737775

#Time	Az	El	Level	Level2	SNR	BER	BlckErr	Temp	State	Recorded	gain1	gain2
2026-01-23 11:59:40.81	212.48	6.97	-30.7	-33.2	5.5	1.15e+00	0	40	0	0	22	4803
2026-01-23 11:59:43.81	212.76	7.16	-31.4	-35.1	8.7	3.95e-02	0	40	102	1048576	23	5543
2026-01-23 11:59:46.82	213.05	7.35	-31.2	-34.3	9.4	2.29e-02	0	40	102	1048576	23	5136
2026-01-23 11:59:49.83	213.34	7.54	-30.9	-33.9	10.1	3.47e-03	0	40	102	1048576	22	5042
2026-01-23 11:59:52.84	213.63	7.73	-30.6	-32.6	11.1	2.18e-03	0	41	102	1048576	22	4555
2026-01-23 11:59:55.85	213.93	7.93	-30.6	-32.6	11.2	1.40e-03	0	41	102	1048576	22	4533
2026-01-23 11:59:58.87	214.24	8.12	-30.4	-32.1	11.5	1.17e-03	0	41	102	1048576	22	4368
2026-01-23 12:00:01.88	214.54	8.32	-30.3	-32.2	11.9	5.05e-04	0	41	102	1048576	21	4464
2026-01-23 12:00:04.89	214.85	8.52	-30.4	-32.3	11.8	5.34e-04	0	41	102	1048576	21	4517
2026-01-23 12:00:07.91	215.17	8.72	-30.3	-32.1	12.0	3.42e-04	0	41	102	1048576	21	4436
2026-01-23 12:00:10.94	215.49	8.92	-30.6	-33.1	11.3	1.22e-03	0	41	102	1048576	21	4798
2026-01-23 12:00:13.96	215.82	9.12	-30.9	-34.0	10.7	2.66e-03	0	41	102	1048576	21	5139
2026-01-23 12:00:16.97	216.14	9.32	-30.7	-33.4	11.2	2.99e-03	0	41	102	1048576	21	4882
2026-01-23 12:00:19.99	216.48	9.52	-30.6	-32.9	11.5	8.70e-04	0	41	102	1048576	21	4710
2026-01-23 12:00:23.01	216.81	9.72	-30.5	-32.5	11.8	4.28e-04	0	41	102	1048576	21	4574
2026-01-23 12:00:26.01	217.15	9.92	-30.3	-32.2	12.1	2.35e-04	0	41	102	1048576	21	4440
2026-01-23 12:00:29.02	217.50	10.12	-30.5	-32.7	11.8	5.17e-04	0	42	102	1048576	21	4611
2026-01-23 12:00:32.04	217.85	10.33	-30.5	-32.5	11.9	3.43e-04	0	41	102	1048576	21	4552
2026-01-23 12:00:35.06	218.21	10.53	-30.7	-33.1	11.4	5.73e-04	0	42	102	1048576	21	4782
2026-01-23 12:00:38.07	218.57	10.74	-30.5	-32.6	11.8	6.22e-04	0	42	102	1048576	21	4597
2026-01-23 12:00:41.09	218.93	10.95	-30.2	-31.8	12.4	1.27e-04	0	42	102	1048576	21	4305
2026-01-23 12:00:44.10	219.30	11.15	-30.5	-32.5	11.8	2.84e-04	0	42	102	1048576	21	4559
2026-01-23 12:00:47.11	219.68	11.36	-30.2	-31.6	12.6	9.38e-05	0	42	102	1048576	21	4252
2026-01-23 12:00:50.12	220.06	11.57	-30.4	-32.2	12.2	1.43e-04	0	42	102	1048576	21	4449
2026-01-23 12:00:53.12	220.44	11.78	-30.5	-32.5	12.0	2.24e-04	0	42	102	1048576	21	4536
2026-01-23 12:00:56.13	220.83	11.99	-30.7	-33.0	11.7	4.38e-04	0	42	102	1048576	21	4718
2026-01-23 12:00:59.15	221.23	12.20	-30.5	-32.5	12.1	3.32e-04	0	42	102	1048576	21	4518
2026-01-23 12:01:02.18	221.63	12.41	-30.4	-32.2	12.3	1.38e-04	0	42	102	1048576	21	4437
2026-01-23 12:01:05.19	222.04	12.62	-30.3	-31.9	12.5	9.46e-05	0	42	102	1048576	21	4337
2026-01-23 12:01:08.21	222.45	12.84	-30.0	-31.1	13.1	2.82e-05	0	42	102	1048576	21	4076
2026-01-23 12:01:11.22	222.87	13.05	-29.8	-30.5	13.5	1.60e-05	0	42	102	1048576	21	3886
2026-01-23 12:01:14.23	223.30	13.26	-29.7	-30.6	13.7	4.50e-06	0	42	102	1048576	20	4003
2026-01-23 12:01:17.24	223.73	13.47	-29.5	-30.2	14.0	2.20e-06	0	42	102	1048576	20	3885
2026-01-23 12:01:20.26	224.16	13.69	-29.5	-30.2	14.0	1.50e-06	0	42	102	1048576	20	3907
2026-01-23 12:01:23.27	224.61	13.90	-29.6	-30.5	13.8	3.80e-06	0	42	102	1048576	20	3967
2026-01-23 12:01:26.29	225.06	14.12	-29.8	-30.9	13.6	4.50e-06	0	42	102	1048576	20	4107
2026-01-23 12:01:29.31	225.51	14.33	-30.0	-31.5	13.2	1.83e-05	0	42	102	1048576	20	4287
2026-01-23 12:01:32.32	225.98	14.55	-30.2	-32.0	13.0	6.94e-05	0	42	102	1048576	20	4418
2026-01-23 12:01:35.33	226.44	14.76	-30.2	-32.0	12.9	4.34e-05	0	42	102	1048576	20	4434
2026-01-23 12:01:38.34	226.92	14.98	-30.2	-31.9	13.0	2.97e-05	0	42	102	1048576	20	4388
2026-01-23 12:01:41.35	227.40	15.19	-30.2	-31.9	13.0	4.50e-05	0	42	102	1048576	20	4405
2026-01-23 12:01:44.35	227.89	15.41	-29.5	-30.2	14.1	7.00e-07	0	42	102	1048576	20	3891
2026-01-23 12:01:47.36	228.38	15.62	-29.7	-30.5	14.0	1.50e-06	0	42	102	1048576	20	3952
2026-01-23 12:01:50.37	228.88	15.84	-29.3	-30.1	14.6	0.00e+00	0	43	102	1048576	19	3938
2026-01-23 12:01:53.39	229.39	16.05	-29.4	-30.3	14.5	0.00e+00	0	42	102	1048576	19	4001
2026-01-23 12:01:56.39	229.91	16.27	-29.5	-30.5	14.4	7.00e-07	0	42	102	1048576	19	4030
2026-01-23 12:01:59.42	230.44	16.48	-29.9	-31.6	13.7	1.50e-06	0	42	102	1048576	19	4381
2026-01-23 12:02:02.42	230.96	16.69	-29.9	-31.1	13.7	7.60e-06	0	42	102	1048576	20	4132
2026-01-23 12:02:05.43	231.50	16.91	-29.9	-31.1	13.7	9.10e-06	0	43	102	1048576	20	4123
2026-01-23 12:02:08.43	232.05	17.12	-29.9	-31.0	13.8	1.14e-05	0	42	102	1048576	20	4102
2026-01-23 12:02:11.43	232.60	17.33	-29.6	-30.2	14.2	1.50e-06	0	42	102	1048576	20	3882
2026-01-23 12:02:14.44	233.16	17.54	-29.3	-29.9	14.8	7.00e-07	0	42	102	1048576	19	3878
2026-01-23 12:02:17.46	233.73	17.75	-29.1	-29.5	15.1	7.00e-07	0	43	102	1048576	19	3777
2026-01-23 12:02:20.46	234.30	17.96	-28.9	-29.0	15.4	0.00e+00	0	42	102	1048576	19	3634
2026-01-23 12:02:23.47	234.89	18.17	-29.0	-29.3	15.2	0.00e+00	0	43	102	1048576	19	3715
2026-01-23 12:02:26.49	235.48	18.38	-29.2	-29.7	15.0	0.00e+00	0	42	102	1048576	19	3821
2026-01-23 12:02:29.51	236.08	18.59	-29.2	-29.8	15.0	0.00e+00	0	42	102	1048576	19	3832
2026-01-23 12:02:32.51	236.69	18.79	-29.3	-29.9	14.9	1.50e-06	0	42	102	1048576	19	3883
2026-01-23 12:02:35.52	237.30	18.99	-29.5	-30.4	14.6	7.00e-07	0	43	102	1048576	19	4011
2026-01-23 12:02:38.53	237.92	19.19	-29.3	-30.0	14.9	0.00e+00	0	43	102	1048576	19	3892
2026-01-23 12:02:41.55	238.56	19.39	-29.4	-30.3	14.7	0.00e+00	0	43	102	1048576	19	3985
2026-01-23 12:02:44.56	239.20	19.59	-29.5	-30.4	14.7	0.00e+00	0	43	102	1048576	19	3991
2026-01-23 12:02:47.57	239.84	19.79	-29.3	-29.9	15.0	0.00e+00	0	43	102	1048576	19	3857
2026-01-23 12:02:50.58	240.50	19.98	-29.4	-30.1	14.8	0.00e+00	0	43	102	1048576	19	3925
2026-01-23 12:02:53.59	241.16	20.17	-29.9	-31.6	14.0	1.50e-06	0	43	102	1048576	19	4347
2026-01-23 12:02:56.59	241.83	20.36	-29.7	-30.6	14.2	3.80e-06	0	43	102	1048576	20	3975
2026-01-23 12:02:59.61	242.51	20.55	-29.8	-30.9	14.0	0.00e+00	0	43	102	1048576	20	4051
2026-01-23 12:03:02.62	243.20	20.73	-30.1	-31.6	13.5	1.60e-05	0	43	102	1048576	20	4265
2026-01-23 12:03:05.62	243.90	20.91	-29.5	-30.1	14.5	7.00e-07	0	43	102	1048576	20	3824
2026-01-23 12:03:08.64	244.60	21.09	-30.2	-31.7	13.5	3.80e-06	0	43	102	1048576	20	4305
2026-01-23 12:03:11.66	245.32	21.27	-30.6	-32.4	12.7	7.55e-05	0	42	102	1048576	21	4425
2026-01-23 12:03:14.68	246.04	21.44	-30.4	-31.9	13.1	2.51e-05	0	43	102	1048576	21	4264
2026-01-23 12:03:17.69	246.76	21.61	-30.3	-31.5	13.3	2.05e-05	0	43	102	1048576	21	4164
2026-01-23 12:03:20.70	247.50	21.77	-30.1	-30.9	13.7	3.00e-06	0	43	102	1048576	21	3980
2026-01-23 12:03:23.72	248.24	21.94	-30.7	-32.7	12.6	3.28e-05	0	43	102	1048576	21	4521
2026-01-23 12:03:26.71	248.99	22.09	-30.0	-30.8	13.8	7.60e-06	0	43	102	1048576	21	3926
2026-01-23 12:03:29.73	249.75	22.25	-29.3	-29.8	15.1	0.00e+00	0	43	102	1048576	19	3846
2026-01-23 12:03:32.75	250.51	22.40	-29.7	-30.8	14.5	1.50e-06	0	43	102	1048576	19	4109
2026-01-23 12:03:35.77	251.29	22.54	-30.1	-31.6	13.6	3.00e-06	0	43	102	1048576	20	4258
2026-01-23 12:03:38.77	252.06	22.68	-31.0	-33.0	12.2	2.68e-04	0	43	102	1048576	22	4517
2026-01-23 12:03:41.79	252.85	22.82	-30.4	-31.3	13.1	3.28e-05	0	43	102	1048576	22	4005
2026-01-23 12:03:44.79	253.64	22.95	-31.0	-32.9	12.2	7.78e-05	0	43	102	1048576	22	4481
2026-01-23 12:03:47.81	254.44	23.07	-31.2	-33.2	11.6	1.21e-03	0	43	102	1048576	23	4502
2026-01-23 12:03:50.82	255.24	23.19	-30.8	-32.4	12.6	8.39e-05	0	43	102	1048576	22	4313
2026-01-23 12:03:53.83	256.05	23.31	-30.7	-32.1	12.7	1.01e-04	0	43	102	1048576	22	4237
2026-01-23 12:03:56.84	256.87	23.42	-30.4	-31.7	13.3	2.13e-05	0	43	102	1048576	21	4179
2026-01-23 12:03:59.85	257.69	23.52	-31.5	-34.5	11.1	1.24e-03	0	43	102	1048576	22	5070
2026-01-23 12:04:02.87	258.52	23.62	-31.6	-34.4	10.7	3.73e-03	0	43	102	1048576	23	4937
2026-01-23 12:04:05.89	259.35	23.71	-31.5	-33.9	11.1	1.53e-03	0	43	102	1048576	23	4742
2026-01-23 12:04:08.90	260.19	23.80	-31.7	-34.8	10.5	3.92e-03	0	43	102	1048576	23	5094
2026-01-23 12:04:11.91	261.03	23.88	-31.7	-34.6	10.6	4.44e-03	0	43	102	1048576	23	5027
2026-01-23 12:04:14.90	261.87	23.96	-31.3	-33.3	11.6	7.38e-04	0	43	102	1048576	23	4523
2026-01-23 12:04:17.90	262.71	24.02	-31.7	-34.5	10.7	2.49e-03	0	43	102	1048576	23	4982
2026-01-23 12:04:20.91	263.56	24.09	-30.9	-32.3	12.3	2.35e-04	0	43	102	1048576	23	4188
2026-01-23 12:04:23.93	264.42	24.14	-30.4	-31.2	13.4	1.37e-05	0	43	102	1048576	22	3939
2026-01-23 12:04:26.95	265.28	24.19	-30.0	-30.6	14.0	3.00e-06	0	43	102	1048576	21	3867
2026-01-23 12:04:29.95	266.14	24.23	-30.5	-32.0	13.2	8.30e-06	0	43	102	1048576	21	4286
2026-01-23 12:04:32.95	267.00	24.27	-30.9	-32.6	12.5	2.30e-04	0	43	102	1048576	22	4375
2026-01-23 12:04:35.96	267.86	24.30	-30.4	-31.2	13.4	1.44e-05	0	43	102	1048576	22	3942
2026-01-23 12:04:38.98	268.73	24.32	-31.1	-33.2	12.1	1.78e-04	0	43	102	1048576	22	4570
2026-01-23 12:04:41.98	269.59	24.34	-30.4	-31.3	13.3	1.90e-05	0	43	102	1048576	22	3990
2026-01-23 12:04:44.99	270.45	24.35	-30.7	-32.0	12.8	5.56e-05	0	43	102	1048576	22	4191
2026-01-23 12:04:48.01	271.32	24.35	-29.7	-30.4	14.5	7.00e-07	0	43	102	1048576	20	3896
2026-01-23 12:04:51.03	272.19	24.35	-29.8	-30.6	14.3	0.00e+00	0	43	102	1048576	20	3968
2026-01-23 12:04:54.05	273.06	24.34	-30.2	-31.7	13.6	6.10e-06	0	43	102	1048576	20	4279
2026-01-23 12:04:57.06	273.93	24.32	-29.8	-30.7	14.3	2.20e-06	0	43	102	1048576	20	3989
2026-01-23 12:05:00.07	274.79	24.30	-29.5	-29.8	14.8	0.00e+00	0	43	102	1048576	20	3736
2026-01-23 12:05:03.08	275.65	24.26	-29.8	-30.6	14.3	7.00e-07	0	43	102	1048576	20	3966
2026-01-23 12:05:06.09	276.51	24.23	-29.9	-30.9	14.1	2.20e-06	0	43	102	1048576	20	4046
2026-01-23 12:05:09.11	277.37	24.18	-30.0	-31.1	14.0	7.00e-07	0	43	102	1048576	20	4102
2026-01-23 12:05:12.13	278.23	24.13	-29.8	-30.5	14.4	1.50e-06	0	43	102	1048576	20	3945
2026-01-23 12:05:15.15	279.09	24.08	-29.9	-30.9	14.1	1.50e-06	0	43	102	1048576	20	4052
2026-01-23 12:05:18.17	279.94	24.01	-30.2	-31.6	13.8	6.80e-06	0	43	102	1048576	20	4241
2026-01-23 12:05:21.17	280.78	23.94	-29.9	-31.0	14.1	3.00e-06	0	43	102	1048576	20	4063
2026-01-23 12:05:24.18	281.62	23.87	-29.7	-30.4	14.5	0.00e+00	0	43	102	1048576	20	3891
2026-01-23 12:05:27.19	282.46	23.79	-29.4	-30.1	15.0	7.00e-07	0	43	102	1048576	19	3891
2026-01-23 12:05:30.20	283.29	23.70	-29.7	-30.9	14.5	7.00e-07	0	43	102	1048576	19	4113
2026-01-23 12:05:33.21	284.12	23.60	-29.3	-30.0	15.1	0.00e+00	0	43	102	1048576	19	3872
2026-01-23 12:05:36.21	284.94	23.50	-29.7	-30.9	14.5	7.00e-07	0	43	102	1048576	19	4118
2026-01-23 12:05:39.23	285.76	23.40	-29.6	-30.6	14.7	0.00e+00	0	43	102	1048576	19	4042
2026-01-23 12:05:42.24	286.58	23.29	-29.6	-30.6	14.7	0.00e+00	0	43	102	1048576	19	4048
2026-01-23 12:05:45.24	287.38	23.17	-29.1	-29.5	15.4	0.00e+00	0	43	102	1048576	19	3748
2026-01-23 12:05:48.25	288.18	23.05	-29.6	-30.7	14.6	7.00e-07	0	43	102	1048576	19	4059
2026-01-23 12:05:51.27	288.98	22.93	-29.5	-30.5	14.8	0.00e+00	0	43	102	1048576	19	4008
2026-01-23 12:05:54.27	289.76	22.80	-29.4	-30.2	14.9	0.00e+00	0	43	102	1048576	19	3936
2026-01-23 12:05:57.28	290.54	22.66	-28.9	-29.0	15.7	0.00e+00	0	43	102	1048576	19	3616
2026-01-23 12:06:00.28	291.32	22.52	-28.6	-28.6	16.2	0.00e+00	0	43	102	1048576	18	3613
2026-01-23 12:06:03.30	292.09	22.38	-28.4	-28.1	16.4	0.00e+00	0	43	102	1048576	18	3500
2026-01-23 12:06:06.30	292.84	22.23	-28.8	-29.1	15.9	0.00e+00	0	43	102	1048576	18	3723
2026-01-23 12:06:09.31	293.60	22.08	-28.8	-29.3	15.8	0.00e+00	0	43	102	1048576	18	3782
2026-01-23 12:06:12.32	294.34	21.92	-28.9	-29.4	15.7	0.00e+00	0	43	102	1048576	18	3813
2026-01-23 12:06:15.34	295.08	21.76	-29.1	-29.9	15.4	0.00e+00	0	43	102	1048576	18	3936
2026-01-23 12:06:18.36	295.82	21.59	-29.1	-29.9	15.4	7.00e-07	0	43	102	1048576	18	3941
2026-01-23 12:06:21.37	296.54	21.42	-29.3	-30.3	15.1	7.00e-07	0	43	102	1048576	18	4044
2026-01-23 12:06:24.38	297.25	21.25	-29.2	-30.3	15.2	0.00e+00	0	43	102	1048576	18	4047
2026-01-23 12:06:27.39	297.96	21.08	-29.0	-29.7	15.5	0.00e+00	0	43	102	1048576	18	3886
2026-01-23 12:06:30.41	298.66	20.90	-29.4	-30.7	14.9	0.00e+00	0	43	102	1048576	18	4160
2026-01-23 12:06:33.42	299.35	20.72	-29.8	-31.1	14.3	7.00e-07	0	43	102	1048576	19	4189
2026-01-23 12:06:36.44	300.04	20.54	-30.1	-31.4	13.8	6.10e-06	0	43	102	1048576	20	4193
2026-01-23 12:06:39.46	300.72	20.35	-30.2	-31.7	13.6	6.80e-06	0	43	102	1048576	20	4283
2026-01-23 12:06:42.47	301.38	20.16	-29.7	-30.4	14.4	1.50e-06	0	43	102	1048576	20	3910
2026-01-23 12:06:45.46	302.04	19.97	-29.9	-30.9	14.1	3.80e-06	0	43	102	1048576	20	4053
2026-01-23 12:06:48.47	302.69	19.78	-30.2	-31.8	13.5	4.50e-06	0	43	102	1048576	20	4315
2026-01-23 12:06:51.49	303.34	19.58	-29.9	-31.0	14.0	6.10e-06	0	43	102	1048576	20	4071
2026-01-23 12:06:54.50	303.97	19.39	-30.4	-32.2	13.2	1.37e-05	0	43	102	1048576	20	4452
2026-01-23 12:06:57.51	304.60	19.19	-30.6	-32.2	12.8	6.33e-05	0	43	102	1048576	21	4367
2026-01-23 12:07:00.51	305.22	18.99	-30.3	-31.4	13.4	2.82e-05	0	43	102	1048576	21	4106
2026-01-23 12:07:03.51	305.83	18.79	-30.4	-31.8	13.1	3.66e-05	0	43	102	1048576	21	4219
2026-01-23 12:07:06.53	306.43	18.59	-30.5	-32.1	13.0	5.18e-05	0	43	102	1048576	21	4318
2026-01-23 12:07:09.54	307.03	18.38	-30.7	-32.5	12.6	8.92e-05	0	43	102	1048576	21	4463
2026-01-23 12:07:12.56	307.62	18.17	-30.4	-31.7	13.2	3.12e-05	0	43	102	1048576	21	4213
2026-01-23 12:07:15.56	308.19	17.97	-30.7	-32.5	12.6	1.20e-04	0	43	102	1048576	21	4470
2026-01-23 12:07:18.56	308.76	17.76	-30.2	-31.2	13.5	1.44e-05	0	43	102	1048576	21	4050
2026-01-23 12:07:21.58	309.33	17.55	-30.2	-31.4	13.4	9.10e-06	0	43	102	1048576	21	4115
2026-01-23 12:07:24.60	309.89	17.34	-30.4	-32.0	12.9	3.20e-05	0	43	102	1048576	21	4294
2026-01-23 12:07:27.61	310.44	17.13	-30.0	-30.8	13.7	2.20e-06	0	43	102	1048576	21	3940
2026-01-23 12:07:30.62	310.98	16.92	-29.7	-30.5	14.2	3.00e-06	0	43	102	1048576	20	3957
2026-01-23 12:07:33.62	311.51	16.71	-30.1	-31.6	13.5	6.10e-06	0	43	102	1048576	20	4277
2026-01-23 12:07:36.62	312.04	16.50	-30.4	-32.3	13.1	1.75e-05	0	43	102	1048576	20	4479
2026-01-23 12:07:39.62	312.56	16.29	-30.4	-32.5	13.0	5.79e-05	0	43	102	1048576	20	4545
2026-01-23 12:07:42.64	313.07	16.07	-31.0	-33.5	11.9	1.81e-04	0	43	102	1048576	21	4825
2026-01-23 12:07:45.65	313.58	15.86	-31.0	-33.0	11.9	4.68e-04	0	43	102	1048576	22	4556
2026-01-23 12:07:48.66	314.08	15.65	-30.9	-33.0	11.9	2.14e-04	0	43	102	1048576	22	4540
2026-01-23 12:07:51.67	314.57	15.44	-30.8	-32.6	12.1	2.24e-04	0	43	102	1048576	22	4427
2026-01-23 12:07:54.69	315.06	15.22	-31.2	-33.6	11.4	1.00e-03	0	43	102	1048576	22	4768
2026-01-23 12:07:57.71	315.54	15.01	-30.7	-32.4	12.2	5.26e-04	0	43	102	1048576	22	4342
2026-01-23 12:08:00.72	316.01	14.79	-29.7	-30.5	14.1	2.20e-06	0	43	102	1048576	20	3964
2026-01-23 12:08:03.73	316.48	14.58	-29.8	-30.7	13.9	7.00e-07	0	43	102	1048576	20	4005
2026-01-23 12:08:06.75	316.94	14.37	-30.3	-32.1	13.1	3.20e-05	0	43	102	1048576	20	4428
2026-01-23 12:08:09.76	317.39	14.16	-30.3	-32.2	13.0	3.43e-05	0	43	102	1048576	20	4481
2026-01-23 12:08:12.78	317.84	13.94	-30.3	-32.2	13.0	3.28e-05	0	43	102	1048576	20	4474
2026-01-23 12:08:15.80	318.28	13.73	-30.7	-32.9	12.2	2.27e-04	0	43	102	1048576	21	4620
2026-01-23 12:08:18.82	318.72	13.52	-31.2	-33.8	11.3	1.08e-03	0	43	102	1048576	22	4841
2026-01-23 12:08:21.84	319.15	13.31	-30.6	-31.9	12.5	1.32e-04	0	43	102	1048576	22	4192
2026-01-23 12:08:24.86	319.57	13.09	-30.3	-31.6	13.0	2.59e-05	0	43	102	1048576	21	4183
2026-01-23 12:08:27.88	319.99	12.88	-30.2	-31.5	13.0	4.04e-05	0	43	102	1048576	21	4175
2026-01-23 12:08:30.90	320.40	12.67	-30.5	-32.2	12.6	1.04e-04	0	43	102	1048576	21	4402
2026-01-23 12:08:33.92	320.81	12.46	-30.5	-32.3	12.5	1.63e-04	0	43	102	1048576	21	4429
2026-01-23 12:08:36.93	321.21	12.25	-30.7	-32.8	12.1	2.17e-04	0	43	102	1048576	21	4594
2026-01-23 12:08:39.93	321.60	12.05	-31.2	-33.8	11.1	1.31e-03	0	43	102	1048576	22	4860
2026-01-23 12:08:42.93	321.99	11.84	-31.4	-34.6	10.5	3.62e-03	0	43	102	1048576	22	5203
2026-01-23 12:08:45.94	322.37	11.63	-31.1	-33.5	11.3	2.07e-03	0	43	102	1048576	22	4779
2026-01-23 12:08:48.95	322.75	11.43	-30.8	-32.6	11.8	1.20e-03	0	43	102	1048576	22	4454
2026-01-23 12:08:51.98	323.13	11.22	-30.1	-31.2	13.1	3.20e-05	0	43	102	1048576	21	4092
2026-01-23 12:08:55.00	323.50	11.01	-30.1	-31.2	13.1	1.75e-05	0	43	102	1048576	21	4095
2026-01-23 12:08:58.02	323.86	10.81	-30.4	-32.0	12.6	5.72e-05	0	43	102	1048576	21	4338
2026-01-23 12:09:01.03	324.22	10.61	-30.4	-32.0	12.6	8.23e-05	0	43	102	1048576	21	4348
2026-01-23 12:09:04.05	324.57	10.40	-30.4	-31.9	12.6	1.12e-04	0	43	102	1048576	21	4325
2026-01-23 12:09:07.06	324.92	10.20	-30.6	-32.5	12.2	2.75e-04	0	43	102	1048576	21	4522
2026-01-23 12:09:10.06	325.27	10.00	-30.9	-33.6	11.4	7.51e-04	0	43	102	1048576	21	4905
2026-01-23 12:09:13.08	325.61	9.80	-31.0	-33.5	11.1	1.09e-03	0	43	102	1048576	22	4773
2026-01-23 12:09:16.09	325.94	9.60	-30.8	-32.8	11.6	9.56e-04	0	43	102	1048576	22	4543
2026-01-23 12:09:19.11	326.28	9.40	-30.7	-32.4	11.8	6.13e-04	0	43	102	1048576	22	4396
2026-01-23 12:09:22.12	326.60	9.20	-30.6	-32.3	11.9	3.95e-04	0	43	102	1048576	22	4348
2026-01-23 12:09:25.13	326.93	9.00	-30.8	-32.8	11.6	6.13e-04	0	43	102	1048576	22	4533
2026-01-23 12:09:28.13	327.25	8.81	-31.1	-33.8	10.8	1.45e-03	0	43	102	1048576	22	4890
2026-01-23 12:09:31.15	327.56	8.61	-31.1	-33.9	10.7	2.63e-03	0	43	102	1048576	22	4955
2026-01-23 12:09:34.15	327.87	8.42	-31.2	-34.2	10.5	3.69e-03	0	43	102	1048576	22	5083
2026-01-23 12:09:37.17	328.18	8.22	-30.9	-33.1	11.3	1.45e-03	0	43	102	1048576	22	4646
2026-01-23 12:09:40.19	328.48	8.03	-30.7	-32.7	11.5	9.69e-04	0	43	102	1048576	22	4531
2026-01-23 12:09:43.21	328.78	7.84	-30.9	-33.1	11.3	1.00e-03	0	43	102	1048576	22	4657
2026-01-23 12:09:46.23	329.08	7.64	-30.8	-32.9	11.3	1.14e-03	0	43	102	1048576	22	4597
2026-01-23 12:09:49.25	329.37	7.45	-31.0	-33.7	10.7	1.73e-03	0	43	102	1048576	22	4881
2026-01-23 12:09:52.26	329.66	7.26	-31.2	-34.3	10.2	4.38e-03	0	43	102	1048576	22	5173
2026-01-23 12:09:55.28	329.94	7.07	-31.3	-34.8	10.1	9.06e-03	0	43	102	1048576	22	5354

#Closed at: 2026-01-23 12:09:57
#Recorded file [1 MB]: D:/data/31010_260123_145942.dat