passes_logs/2026/01/23/R2M6_AANII_01/R2M6_AANII_01__20260123_022622_NOAA_20_JPSS-1_rec.log

#Pass ID: 20260123_022622_NOAA 20 (JPSS-1)
#Satellite: NOAA 20 (JPSS-1)
#Configuration: NOAA 20
#almurnet v.1.7.20240730
#Start time: 2026-01-23 02:26:23

#Version: 2.2.20231116
#Station: R2M6_AANII_01
#Location: 30.233357 lon 59.946436 lat
#TLE: 1 43013U 17073A   26022.44900781  .00000193  00000+0  11233-3 0  9999
#TLE: 2 43013  98.7645 323.3100 0001197  28.8413 331.2829 14.19538802423792

#Time	Az	El	Level	Level2	SNR	BER	BlckErr	Temp	State	Recorded	gain1	gain2
2026-01-23 02:26:23.77	9.76	7.06	-32.7	-42.6	4.1	1.45e+00	0	42	0	0	25	11206
2026-01-23 02:26:26.78	9.47	7.25	-32.7	-41.7	5.1	6.46e-01	0	42	0	1048576	25	10164
2026-01-23 02:26:29.79	9.17	7.43	-32.7	-41.5	5.2	5.87e-01	0	42	0	7340032	25	9962
2026-01-23 02:26:32.79	8.87	7.62	-32.3	-39.4	6.9	2.16e-01	0	42	0	12582912	24	8159
2026-01-23 02:26:35.79	8.56	7.81	-31.8	-37.3	9.0	3.07e-02	0	42	0	17825792	23	6821
2026-01-23 02:26:38.79	8.25	7.99	-31.4	-36.0	10.1	7.66e-03	0	42	0	24117248	23	6077
2026-01-23 02:26:41.81	7.93	8.18	-31.3	-36.2	10.4	4.63e-03	0	42	0	29360128	22	6286
2026-01-23 02:26:44.82	7.61	8.37	-31.4	-36.4	10.1	8.16e-03	0	42	0	35651584	22	6416
2026-01-23 02:26:47.84	7.29	8.56	-31.4	-36.2	10.4	5.37e-03	0	42	0	40894464	22	6290
2026-01-23 02:26:50.84	6.96	8.75	-31.4	-36.5	10.1	5.81e-03	0	42	0	46137344	22	6434
2026-01-23 02:26:53.84	6.63	8.94	-31.5	-36.4	9.8	1.03e-02	0	43	0	52428800	23	6273
2026-01-23 02:26:56.86	6.29	9.13	-31.6	-36.4	9.9	8.88e-03	0	43	0	57671680	23	6270
2026-01-23 02:26:59.87	5.95	9.32	-31.6	-36.4	9.9	7.79e-03	0	43	0	62914560	23	6259
2026-01-23 02:27:02.87	5.61	9.51	-31.4	-36.4	10.3	5.11e-03	0	43	0	69206016	22	6399
2026-01-23 02:27:05.88	5.26	9.71	-31.6	-36.4	10.0	1.15e-02	0	43	0	74448896	23	6254
2026-01-23 02:27:08.88	4.90	9.90	-31.2	-35.7	10.9	2.51e-03	0	43	0	80740352	22	6017
2026-01-23 02:27:11.89	4.54	10.09	-31.4	-36.1	10.6	3.23e-03	0	43	0	85983232	22	6219
2026-01-23 02:27:14.91	4.17	10.28	-31.2	-35.7	10.9	2.37e-03	0	43	0	91226112	22	6001
2026-01-23 02:27:17.92	3.80	10.48	-31.3	-35.7	10.9	2.13e-03	0	43	0	97517568	22	6015
2026-01-23 02:27:20.92	3.43	10.67	-31.3	-35.7	10.9	1.73e-03	0	43	0	102760448	22	5993
2026-01-23 02:27:23.93	3.05	10.87	-31.2	-35.6	11.0	2.16e-03	0	43	0	109051904	22	5950
2026-01-23 02:27:26.94	2.66	11.06	-31.2	-35.6	11.0	2.33e-03	0	43	0	114294784	22	5966
2026-01-23 02:27:29.95	2.27	11.26	-31.3	-35.7	11.0	1.90e-03	0	43	0	119537664	22	6000
2026-01-23 02:27:32.95	1.88	11.45	-31.2	-35.4	11.2	1.41e-03	0	43	0	125829120	22	5848
2026-01-23 02:27:35.96	1.47	11.65	-31.2	-35.3	11.3	1.33e-03	0	43	0	131072000	22	5802
2026-01-23 02:27:38.96	1.07	11.84	-31.1	-35.0	11.5	9.25e-04	0	43	0	136314880	22	5686
2026-01-23 02:27:41.97	0.65	12.04	-31.0	-34.7	11.8	5.05e-04	0	43	0	142606336	22	5518
2026-01-23 02:27:44.98	0.24	12.23	-30.8	-34.3	12.0	3.23e-04	0	43	0	147849216	22	5359
2026-01-23 02:27:47.99	359.81	12.43	-30.8	-34.7	12.1	4.16e-04	0	43	0	154140672	21	5648
2026-01-23 02:27:51.00	359.38	12.62	-30.8	-34.6	12.2	3.60e-04	0	43	0	159383552	21	5591
2026-01-23 02:27:54.02	358.94	12.82	-30.8	-34.6	12.2	2.22e-04	0	43	0	164626432	21	5610
2026-01-23 02:27:57.02	358.50	13.01	-30.8	-34.8	12.1	2.27e-04	0	43	0	170917888	21	5654
2026-01-23 02:28:00.03	358.05	13.21	-30.9	-34.9	12.0	2.91e-04	0	43	0	176160768	21	5706
2026-01-23 02:28:03.04	357.60	13.41	-30.9	-34.9	12.1	3.03e-04	0	44	0	181403648	21	5709
2026-01-23 02:28:06.04	357.14	13.60	-31.0	-35.1	12.0	3.28e-04	0	44	0	187695104	21	5797
2026-01-23 02:28:09.05	356.67	13.79	-31.3	-35.6	11.3	1.06e-03	0	43	0	192937984	22	5903
2026-01-23 02:28:12.05	356.20	13.99	-31.1	-34.9	11.8	5.40e-04	0	44	0	199229440	22	5598
2026-01-23 02:28:15.06	355.72	14.18	-31.1	-35.0	11.7	7.22e-04	0	43	0	204472320	22	5654
2026-01-23 02:28:18.07	355.24	14.37	-31.1	-34.9	11.8	4.44e-04	0	44	0	209715200	22	5604
2026-01-23 02:28:21.08	354.75	14.57	-31.3	-35.6	11.3	8.34e-04	0	44	0	216006656	22	5909
2026-01-23 02:28:24.10	354.24	14.76	-31.1	-35.1	11.6	5.74e-04	0	44	0	221249536	22	5663
2026-01-23 02:28:27.11	353.74	14.95	-31.4	-35.7	11.2	1.22e-03	0	44	0	226492416	22	5967
2026-01-23 02:28:30.11	353.23	15.14	-31.5	-36.0	11.1	1.53e-03	0	44	0	232783872	22	6095
2026-01-23 02:28:33.11	352.71	15.33	-31.4	-36.0	11.1	2.89e-03	0	44	0	238026752	22	6085
2026-01-23 02:28:36.12	352.19	15.52	-31.5	-35.7	11.0	2.99e-03	0	44	0	244318208	23	5814
2026-01-23 02:28:39.13	351.65	15.71	-31.4	-35.9	11.2	1.94e-03	0	44	0	249561088	22	6021
2026-01-23 02:28:42.14	351.12	15.89	-31.5	-35.5	11.1	1.58e-03	0	44	0	254803968	23	5752
2026-01-23 02:28:45.16	350.57	16.08	-31.4	-35.6	11.3	1.42e-03	0	44	0	261095424	22	5903
2026-01-23 02:28:48.18	350.01	16.26	-31.1	-35.0	11.9	4.34e-04	0	44	0	266338304	22	5593
2026-01-23 02:28:51.18	349.46	16.45	-31.1	-34.7	12.1	2.31e-03	0	44	0	272629760	22	5500
2026-01-23 02:28:54.20	348.89	16.63	-30.9	-34.8	12.3	1.70e-03	0	44	0	277872640	21	5625
2026-01-23 02:28:57.21	348.31	16.81	-30.8	-34.5	12.5	5.80e-04	0	44	0	283115520	21	5529
2026-01-23 02:29:00.22	347.73	16.99	-30.7	-34.2	12.7	2.67e-04	0	44	0	289406976	21	5395
2026-01-23 02:29:03.21	347.15	17.16	-30.4	-33.4	13.3	1.17e-04	0	44	0	294649856	21	5084
2026-01-23 02:29:06.22	346.55	17.34	-30.2	-33.3	13.7	4.00e-04	0	44	0	299892736	20	5140
2026-01-23 02:29:09.24	345.95	17.51	-30.0	-32.8	14.0	1.82e-03	0	44	0	306184192	20	4980
2026-01-23 02:29:12.25	345.34	17.68	-30.0	-32.8	14.0	2.06e-03	0	44	0	311427072	20	4973
2026-01-23 02:29:15.26	344.73	17.85	-30.0	-33.1	14.3	2.33e-03	0	44	0	317718528	19	5165
2026-01-23 02:29:18.27	344.10	18.01	-30.2	-33.4	13.7	2.30e-03	0	44	0	322961408	20	5178
2026-01-23 02:29:21.28	343.47	18.18	-30.1	-33.1	13.8	2.18e-03	0	44	0	328204288	20	5061
2026-01-23 02:29:24.29	342.84	18.34	-30.0	-32.6	14.1	7.00e-07	0	44	0	334495744	20	4893
2026-01-23 02:29:27.31	342.19	18.50	-29.8	-32.6	14.6	7.00e-07	0	44	0	339738624	19	4987
2026-01-23 02:29:30.31	341.55	18.65	-29.9	-32.5	14.2	1.50e-06	0	44	0	346030080	20	4867
2026-01-23 02:29:33.33	340.89	18.80	-30.0	-32.9	14.0	2.20e-06	0	44	0	351272960	20	4972
2026-01-23 02:29:36.32	340.23	18.95	-30.0	-32.7	14.1	2.54e-03	0	44	0	356515840	20	4931
2026-01-23 02:29:39.33	339.56	19.10	-30.2	-33.2	13.9	3.80e-06	0	44	0	362807296	20	5094
2026-01-23 02:29:42.35	338.88	19.24	-29.9	-32.4	14.4	1.50e-06	0	44	0	368050176	20	4802
2026-01-23 02:29:45.35	338.20	19.38	-29.8	-32.6	14.6	0.00e+00	0	44	0	373293056	19	4979
2026-01-23 02:29:48.36	337.51	19.52	-29.6	-32.1	14.9	0.00e+00	0	44	0	379584512	19	4806
2026-01-23 02:29:51.36	336.82	19.65	-29.5	-31.9	15.0	7.00e-07	0	44	0	384827392	19	4753
2026-01-23 02:29:54.38	336.12	19.78	-29.6	-32.1	14.9	0.00e+00	0	44	0	391118848	19	4812
2026-01-23 02:29:57.39	335.41	19.90	-29.5	-32.3	13.9	0.00e+00	0	44	0	396361728	18	4972
2026-01-23 02:30:00.41	334.69	20.02	-29.4	-32.1	13.7	2.33e-03	0	44	0	401604608	18	4923
2026-01-23 02:30:03.42	333.97	20.14	-29.3	-31.8	15.4	0.00e+00	0	44	0	407896064	18	4811
2026-01-23 02:30:06.43	333.25	20.25	-29.2	-31.5	15.6	0.00e+00	0	44	0	413138944	18	4732
2026-01-23 02:30:09.44	332.52	20.36	-29.4	-32.1	15.3	0.00e+00	0	44	0	419430400	18	4909
2026-01-23 02:30:12.45	331.79	20.46	-29.5	-32.3	15.2	0.00e+00	0	44	0	424673280	18	4977
2026-01-23 02:30:15.46	331.05	20.56	-29.4	-32.2	15.2	0.00e+00	0	44	0	429916160	18	4966
2026-01-23 02:30:18.46	330.31	20.65	-29.6	-32.1	15.0	2.23e-03	0	44	0	436207616	19	4802
2026-01-23 02:30:21.47	329.56	20.74	-29.7	-32.4	14.7	2.22e-03	0	44	0	441450496	19	4901
2026-01-23 02:30:24.47	328.81	20.83	-29.6	-32.2	14.8	2.43e-03	0	44	0	446693376	19	4855
2026-01-23 02:30:27.48	328.05	20.91	-29.8	-32.7	14.6	2.15e-03	0	44	0	452984832	19	5007
2026-01-23 02:30:30.49	327.29	20.98	-30.0	-32.7	14.2	3.00e-06	0	44	0	458227712	20	4916
2026-01-23 02:30:33.51	326.53	21.05	-30.2	-33.3	13.8	2.41e-03	0	44	0	464519168	20	5121
2026-01-23 02:30:36.53	325.76	21.12	-30.3	-33.5	13.7	2.29e-03	0	44	0	469762048	20	5190
2026-01-23 02:30:39.53	324.99	21.17	-30.4	-33.9	13.5	2.08e-03	0	44	0	475004928	20	5344
2026-01-23 02:30:42.53	324.22	21.23	-30.4	-33.8	13.5	2.04e-03	0	44	0	481296384	20	5324
2026-01-23 02:30:45.55	323.44	21.28	-30.6	-33.8	13.1	2.00e-03	0	44	0	486539264	21	5198
2026-01-23 02:30:48.56	322.66	21.32	-30.7	-34.2	12.9	2.25e-03	0	44	0	491782144	21	5348
2026-01-23 02:30:51.57	321.88	21.35	-30.7	-34.0	13.0	4.80e-05	0	44	0	498073600	21	5295
2026-01-23 02:30:54.58	321.10	21.39	-30.7	-34.1	13.0	4.34e-05	0	44	0	503316480	21	5304
2026-01-23 02:30:57.59	320.31	21.41	-30.7	-34.0	13.0	9.31e-04	0	44	0	509607936	21	5276
2026-01-23 02:31:00.59	319.53	21.43	-30.7	-34.1	13.0	2.44e-03	0	44	0	514850816	21	5307
2026-01-23 02:31:03.61	318.74	21.44	-30.5	-33.5	13.3	2.34e-03	0	44	0	520093696	21	5092
2026-01-23 02:31:06.62	317.96	21.45	-30.7	-34.0	13.1	2.59e-05	0	44	0	526385152	21	5277
2026-01-23 02:31:09.62	317.17	21.46	-30.7	-34.0	13.0	3.43e-05	0	44	0	531628032	21	5282
2026-01-23 02:31:12.63	316.38	21.45	-30.7	-34.0	13.0	3.05e-05	0	44	0	537919488	21	5295
2026-01-23 02:31:15.64	315.60	21.44	-30.5	-33.6	13.3	1.52e-05	0	44	0	543162368	21	5113
2026-01-23 02:31:18.64	314.81	21.43	-30.3	-33.5	13.7	5.30e-06	0	44	0	548405248	20	5193
2026-01-23 02:31:21.65	314.03	21.41	-30.2	-33.1	14.0	2.54e-03	0	44	0	554696704	20	5050
2026-01-23 02:31:24.67	313.24	21.38	-30.0	-32.6	14.2	7.00e-07	0	44	0	559939584	20	4876
2026-01-23 02:31:27.68	312.46	21.35	-29.9	-32.5	14.3	7.00e-07	0	44	0	565182464	20	4828
2026-01-23 02:31:30.67	311.69	21.31	-29.9	-33.0	14.5	0.00e+00	0	44	0	571473920	19	5111
2026-01-23 02:31:33.68	310.91	21.27	-29.9	-32.9	14.5	7.00e-07	0	44	0	576716800	19	5073
2026-01-23 02:31:36.68	310.13	21.22	-29.9	-32.5	14.4	1.50e-06	0	44	0	583008256	20	4852
2026-01-23 02:31:39.69	309.36	21.17	-29.7	-32.4	14.8	7.00e-07	0	44	0	588251136	19	4910
2026-01-23 02:31:42.71	308.58	21.11	-29.6	-32.2	14.8	0.00e+00	0	44	0	593494016	19	4832
2026-01-23 02:31:45.71	307.82	21.05	-29.8	-32.7	14.6	7.00e-07	0	44	0	599785472	19	5009
2026-01-23 02:31:48.71	307.06	20.98	-29.4	-31.7	15.2	0.00e+00	0	44	0	605028352	19	4667
2026-01-23 02:31:51.70	306.30	20.90	-29.3	-31.9	15.3	0.00e+00	0	44	0	610271232	18	4870
2026-01-23 02:31:54.71	305.54	20.82	-28.9	-30.8	16.0	0.00e+00	0	44	0	616562688	18	4500
2026-01-23 02:31:57.72	304.79	20.74	-29.0	-31.3	15.7	0.00e+00	0	44	0	621805568	18	4647
2026-01-23 02:32:00.74	304.04	20.65	-29.0	-31.1	15.9	2.33e-04	0	44	0	628097024	18	4591
2026-01-23 02:32:03.75	303.29	20.55	-29.1	-31.3	15.7	2.18e-04	0	44	0	633339904	18	4662
2026-01-23 02:32:06.76	302.55	20.45	-29.2	-31.7	15.5	2.56e-04	0	44	0	638582784	18	4778
2026-01-23 02:32:09.77	301.82	20.35	-29.4	-32.2	15.1	4.22e-04	0	44	0	644874240	18	4976
2026-01-23 02:32:12.78	301.09	20.24	-29.6	-32.1	14.8	4.61e-04	0	44	0	650117120	19	4794
2026-01-23 02:32:15.78	300.37	20.13	-29.9	-33.0	14.3	0.00e+00	0	44	0	655360000	19	5131
2026-01-23 02:32:18.79	299.65	20.01	-30.1	-33.0	14.0	6.06e-04	0	44	0	661651456	20	5012
2026-01-23 02:32:21.80	298.93	19.89	-30.0	-32.9	14.0	2.63e-04	0	44	0	666894336	20	4976
2026-01-23 02:32:24.81	298.22	19.77	-30.0	-32.8	14.0	2.12e-04	0	44	0	673185792	20	4975
2026-01-23 02:32:27.82	297.52	19.64	-30.1	-33.2	13.7	3.13e-04	0	44	0	678428672	20	5097
2026-01-23 02:32:30.83	296.83	19.50	-30.2	-33.2	13.8	4.20e-04	0	44	0	683671552	20	5099
2026-01-23 02:32:33.84	296.14	19.37	-30.1	-33.1	13.8	2.59e-04	0	44	0	689963008	20	5065
2026-01-23 02:32:36.84	295.45	19.23	-30.2	-33.3	13.6	9.10e-06	0	44	0	695205888	20	5138
2026-01-23 02:32:39.85	294.78	19.08	-30.3	-33.7	13.4	2.27e-04	0	44	0	700448768	20	5289
2026-01-23 02:32:42.86	294.11	18.94	-30.3	-33.7	13.4	1.24e-04	0	44	0	706740224	20	5301
2026-01-23 02:32:45.88	293.44	18.79	-30.1	-33.2	13.6	1.63e-04	0	44	0	711983104	20	5100
2026-01-23 02:32:48.89	292.78	18.63	-30.2	-33.3	13.6	6.80e-06	0	44	0	718274560	20	5139
2026-01-23 02:32:51.90	292.13	18.48	-30.4	-33.7	13.3	1.90e-05	0	44	0	723517440	20	5319
2026-01-23 02:32:54.90	291.49	18.32	-30.5	-34.1	13.1	3.05e-05	0	44	0	728760320	20	5473
2026-01-23 02:32:57.90	290.85	18.16	-30.4	-33.5	13.1	3.20e-05	0	44	0	735051776	21	5129
2026-01-23 02:33:00.91	290.22	18.00	-30.6	-34.0	12.8	5.87e-05	0	44	0	740294656	21	5305
2026-01-23 02:33:03.92	289.60	17.83	-30.7	-34.2	12.6	1.14e-04	0	44	0	745537536	21	5399
2026-01-23 02:33:06.94	288.98	17.66	-30.4	-34.0	13.1	5.90e-04	0	44	0	751828992	20	5432
2026-01-23 02:33:09.94	288.37	17.49	-30.6	-34.0	12.7	4.80e-05	0	44	0	757071872	21	5305
2026-01-23 02:33:12.96	287.76	17.32	-30.4	-33.9	13.1	2.44e-05	0	44	0	763363328	20	5394
2026-01-23 02:33:15.97	287.17	17.14	-30.5	-34.1	12.9	4.19e-05	0	44	0	768606208	20	5488
2026-01-23 02:33:18.99	286.58	16.96	-30.6	-34.2	12.6	7.17e-05	0	44	0	773849088	21	5393
2026-01-23 02:33:22.01	285.99	16.79	-30.3	-33.7	13.2	2.36e-05	0	44	0	780140544	20	5308
2026-01-23 02:33:25.01	285.42	16.61	-30.3	-33.6	12.0	2.67e-05	0	44	0	785383424	20	5303
2026-01-23 02:33:28.02	284.85	16.42	-30.4	-34.1	12.9	4.65e-05	0	44	0	791674880	20	5485
2026-01-23 02:33:31.04	284.29	16.24	-30.9	-34.9	12.0	2.70e-03	0	44	0	796917760	21	5712
2026-01-23 02:33:34.05	283.73	16.05	-30.6	-33.9	12.7	2.92e-03	0	44	0	802160640	21	5311
2026-01-23 02:33:37.07	283.18	15.87	-30.6	-34.2	12.5	9.99e-05	0	44	0	808452096	21	5416
2026-01-23 02:33:40.08	282.64	15.68	-31.0	-35.2	11.8	3.63e-04	0	44	0	813694976	21	5885
2026-01-23 02:33:43.10	282.11	15.49	-30.5	-33.9	12.6	1.36e-04	0	44	0	819986432	21	5314
2026-01-23 02:33:46.10	281.58	15.30	-30.3	-33.9	12.9	4.50e-05	0	44	0	825229312	20	5403
2026-01-23 02:33:49.11	281.06	15.11	-30.5	-33.9	12.6	2.58e-03	0	44	0	830472192	21	5319
2026-01-23 02:33:52.11	280.55	14.92	-30.8	-34.7	12.1	3.32e-03	0	44	0	836763648	21	5655
2026-01-23 02:33:55.13	280.04	14.73	-30.7	-34.5	12.2	2.81e-03	0	44	0	842006528	21	5580
2026-01-23 02:33:58.14	279.54	14.54	-30.4	-33.6	12.8	2.32e-03	0	44	0	847249408	21	5190
2026-01-23 02:34:01.14	279.05	14.34	-30.8	-34.7	12.0	3.39e-03	0	44	0	853540864	21	5635
2026-01-23 02:34:04.14	278.56	14.15	-30.3	-33.9	12.8	2.81e-03	0	44	0	858783744	20	5424
2026-01-23 02:34:07.15	278.08	13.96	-30.7	-34.6	12.1	2.28e-03	0	44	0	865075200	21	5602
2026-01-23 02:34:10.16	277.61	13.76	-30.4	-34.0	12.8	3.18e-03	0	44	0	870318080	20	5473
2026-01-23 02:34:13.17	277.14	13.57	-30.4	-34.2	12.6	3.97e-03	0	44	0	875560960	20	5568
2026-01-23 02:34:16.18	276.67	13.37	-30.1	-33.2	13.2	3.30e-03	0	44	0	881852416	20	5182
2026-01-23 02:34:19.19	276.22	13.18	-29.9	-32.8	13.5	3.13e-03	0	44	0	887095296	20	5029
2026-01-23 02:34:22.20	275.77	12.98	-30.0	-33.2	13.2	2.28e-05	0	44	0	892338176	20	5155
2026-01-23 02:34:25.20	275.33	12.78	-30.2	-33.6	12.9	3.58e-05	0	44	0	898629632	20	5325
2026-01-23 02:34:28.21	274.89	12.59	-30.2	-33.6	12.9	2.77e-03	0	44	0	903872512	20	5324
2026-01-23 02:34:31.22	274.45	12.39	-30.2	-33.5	13.0	2.34e-03	0	44	0	910163968	20	5278
2026-01-23 02:34:34.21	274.03	12.20	-29.9	-33.3	13.5	1.61e-03	0	44	0	915406848	19	5321
2026-01-23 02:34:37.22	273.61	12.00	-29.8	-33.1	13.6	8.30e-06	0	44	0	920649728	19	5237
2026-01-23 02:34:40.23	273.20	11.80	-29.9	-32.9	13.3	1.22e-05	0	44	0	926941184	20	5072
2026-01-23 02:34:43.24	272.79	11.61	-29.8	-32.9	13.7	7.60e-06	0	44	0	932184064	19	5176
2026-01-23 02:34:46.24	272.38	11.41	-29.9	-33.2	13.6	8.30e-06	0	44	0	937426944	19	5262
2026-01-23 02:34:49.25	271.98	11.22	-29.9	-33.1	13.5	3.00e-06	0	44	0	943718400	19	5256
2026-01-23 02:34:52.26	271.59	11.02	-29.9	-33.4	13.4	8.44e-04	0	44	0	948961280	19	5358
2026-01-23 02:34:55.26	271.20	10.83	-30.2	-33.6	12.8	5.79e-05	0	44	0	955252736	20	5341
2026-01-23 02:34:58.27	270.82	10.63	-30.2	-33.7	12.8	7.62e-05	0	44	0	960495616	20	5380
2026-01-23 02:35:01.28	270.44	10.44	-30.1	-33.5	12.9	3.89e-05	0	44	0	965738496	20	5297
2026-01-23 02:35:04.29	270.07	10.24	-29.2	-32.3	13.0	3.58e-05	0	44	0	972029952	20	5178
2026-01-23 02:35:07.30	269.70	10.05	-29.9	-32.8	13.0	2.44e-05	0	44	0	977272832	20	5053
2026-01-23 02:35:10.31	269.34	9.86	-30.0	-33.1	13.0	3.28e-05	0	44	0	982515712	20	5166
2026-01-23 02:35:13.32	268.98	9.66	-30.1	-33.5	12.7	6.71e-05	0	44	0	988807168	20	5329
2026-01-23 02:35:16.33	268.63	9.47	-30.1	-33.5	12.7	3.66e-03	0	44	0	994050048	20	5315
2026-01-23 02:35:19.34	268.28	9.28	-30.2	-33.8	12.4	4.62e-03	0	44	0	1000341504	20	5470
2026-01-23 02:35:22.35	267.94	9.09	-30.3	-34.3	12.1	2.37e-04	0	44	0	1005584384	20	5665
2026-01-23 02:35:25.37	267.60	8.89	-30.3	-34.1	12.2	3.39e-04	0	44	0	1010827264	20	5612
2026-01-23 02:35:28.38	267.26	8.70	-30.4	-34.3	12.0	3.05e-04	0	44	0	1017118720	20	5689
2026-01-23 02:35:31.40	266.93	8.51	-30.4	-34.6	11.8	3.66e-03	0	44	0	1022361600	20	5817
2026-01-23 02:35:34.42	266.61	8.32	-30.6	-34.6	11.5	4.25e-03	0	44	0	1028653056	21	5692
2026-01-23 02:35:37.43	266.28	8.13	-30.5	-34.3	11.7	3.96e-03	0	44	0	1033895936	21	5561
2026-01-23 02:35:40.44	265.97	7.94	-30.6	-34.7	11.3	4.78e-03	0	44	0	1039138816	21	5768
2026-01-23 02:35:43.44	265.66	7.76	-30.7	-35.0	11.1	4.70e-03	0	44	0	1045430272	21	5902
2026-01-23 02:35:46.45	265.35	7.57	-30.8	-35.6	10.6	6.86e-03	0	44	0	1050673152	21	6198
2026-01-23 02:35:49.47	265.04	7.38	-30.7	-35.0	11.1	1.68e-03	0	44	0	1056964608	21	5897
2026-01-23 02:35:52.49	264.74	7.19	-30.8	-35.3	10.7	4.27e-03	0	44	0	1062207488	21	6090
2026-01-23 02:35:55.50	264.44	7.01	-33.4	-47.8	3.8	1.49e+00	0	44	104	1065353216	26	19009

#Closed at: 2026-01-23 02:35:58
#Recorded file [1065 MB]: D:/data/31010_260123_052625.dat