passes_logs/2026/01/23/R2M6_AANII_01/R2M6_AANII_01__20260123_030308_FENGYUN_3D_rec.log

#Pass ID: 20260123_030308_FENGYUN 3D
#Satellite: FENGYUN 3D
#Configuration: FENGYUN 3D
#almurnet v.1.7.20240730
#Start time: 2026-01-23 03:03:10

#Version: 2.2.20231116
#Station: R2M6_AANII_01
#Location: 30.233357 lon 59.946436 lat
#TLE: 1 43010U 17072A   26022.47411728  .00000617  00000+0  31375-3 0  9996
#TLE: 2 43010  98.9952 354.4060 0002481  95.7964 264.3494 14.19699924424319

#Time	Az	El	Level	Level2	SNR	BER	BlckErr	Temp	State	Recorded	gain1	gain2
2026-01-23 03:03:10.32	15.71	7.11	-31.2	-35.7	4.9	8.07e-01	0	42	0	0	22	6044
2026-01-23 03:03:13.33	15.63	7.34	-31.1	-35.2	7.9	7.69e-02	0	42	0	5242880	22	5755
2026-01-23 03:03:16.34	15.54	7.57	-31.0	-35.0	8.0	5.56e-02	0	42	0	22020096	22	5687
2026-01-23 03:03:19.36	15.45	7.80	-30.5	-34.0	9.1	3.50e-02	0	42	0	38797312	21	5345
2026-01-23 03:03:22.37	15.36	8.04	-29.3	-32.1	11.5	4.13e-03	0	42	0	56623104	18	4945
2026-01-23 03:03:25.38	15.26	8.28	-28.1	-30.2	13.3	1.94e-03	0	42	0	73400320	16	4569
2026-01-23 03:03:28.39	15.17	8.52	-27.6	-29.6	13.8	6.80e-06	0	42	0	90177536	15	4496
2026-01-23 03:03:31.39	15.07	8.76	-27.6	-29.4	13.9	1.92e-03	0	42	0	106954752	15	4431
2026-01-23 03:03:34.42	14.97	9.01	-27.2	-29.0	14.5	1.80e-03	0	43	0	123731968	14	4431
2026-01-23 03:03:37.44	14.87	9.25	-27.2	-29.1	14.4	3.40e-06	0	43	0	140509184	14	4457
2026-01-23 03:03:40.45	14.77	9.50	-27.1	-28.8	14.6	0.00e+00	0	43	0	158334976	14	4386
2026-01-23 03:03:43.45	14.67	9.75	-27.1	-28.9	14.6	1.84e-03	0	43	0	175112192	14	4405
2026-01-23 03:03:46.45	14.56	10.01	-26.9	-28.9	14.9	0.00e+00	0	43	0	191889408	13	4511
2026-01-23 03:03:49.46	14.45	10.26	-26.8	-28.6	15.0	0.00e+00	0	43	0	208666624	13	4441
2026-01-23 03:03:52.48	14.34	10.52	-26.8	-28.7	15.0	0.00e+00	0	43	0	225443840	13	4476
2026-01-23 03:03:55.49	14.23	10.79	-26.9	-28.8	15.0	0.00e+00	0	43	0	242221056	13	4479
2026-01-23 03:03:58.50	14.11	11.05	-26.9	-28.8	15.0	1.10e-06	0	43	0	258998272	13	4498
2026-01-23 03:04:01.51	13.99	11.32	-27.2	-29.1	14.6	3.40e-06	0	43	0	275775488	14	4456
2026-01-23 03:04:04.51	13.87	11.59	-26.8	-28.7	15.0	0.00e+00	0	43	0	293601280	13	4456
2026-01-23 03:04:07.53	13.75	11.86	-26.9	-28.8	15.0	0.00e+00	0	43	0	310378496	13	4500
2026-01-23 03:04:10.55	13.63	12.14	-26.9	-28.3	15.1	0.00e+00	0	43	0	327155712	14	4233
2026-01-23 03:04:13.56	13.50	12.42	-27.3	-29.3	14.5	3.40e-06	0	43	0	343932928	14	4517
2026-01-23 03:04:16.57	13.37	12.70	-27.0	-28.6	14.9	0.00e+00	0	43	0	360710144	14	4314
2026-01-23 03:04:19.59	13.23	12.99	-26.9	-28.3	15.1	0.00e+00	0	43	0	378535936	14	4245
2026-01-23 03:04:22.60	13.10	13.28	-26.6	-28.2	15.4	0.00e+00	0	43	0	395313152	13	4331
2026-01-23 03:04:25.61	12.96	13.57	-26.4	-27.8	15.7	0.00e+00	0	43	0	412090368	13	4212
2026-01-23 03:04:28.62	12.82	13.86	-26.3	-27.9	15.3	1.23e-03	0	44	0	428867584	12	4341
2026-01-23 03:04:31.62	12.67	14.16	-26.3	-27.9	15.9	0.00e+00	0	43	0	445644800	12	4344
2026-01-23 03:04:34.62	12.53	14.46	-26.2	-27.7	16.1	0.00e+00	0	44	0	462422016	12	4283
2026-01-23 03:04:37.63	12.37	14.77	-25.9	-27.2	16.4	0.00e+00	0	43	0	479199232	12	4153
2026-01-23 03:04:40.64	12.22	15.08	-25.9	-27.1	16.4	1.68e-03	0	44	0	495976448	12	4138
2026-01-23 03:04:43.66	12.06	15.39	-25.8	-27.4	16.6	0.00e+00	0	43	0	513802240	11	4327
2026-01-23 03:04:46.68	11.90	15.71	-25.7	-27.1	16.8	1.45e-03	0	44	0	530579456	11	4248
2026-01-23 03:04:49.68	11.73	16.03	-25.6	-27.0	16.8	1.60e-03	0	44	0	547356672	11	4203
2026-01-23 03:04:52.69	11.56	16.35	-25.5	-26.8	17.0	1.59e-03	0	44	0	564133888	11	4158
2026-01-23 03:04:55.70	11.39	16.68	-25.6	-26.8	16.9	0.00e+00	0	44	0	580911104	11	4164
2026-01-23 03:04:58.71	11.21	17.02	-25.6	-26.9	16.9	1.55e-03	0	44	0	597688320	11	4192
2026-01-23 03:05:01.71	11.03	17.35	-25.5	-26.8	17.0	1.42e-03	0	44	0	614465536	11	4150
2026-01-23 03:05:04.73	10.84	17.70	-25.6	-26.9	17.0	1.39e-03	0	44	0	632291328	11	4193
2026-01-23 03:05:07.74	10.65	18.04	-25.3	-26.9	17.3	1.49e-03	0	44	0	649068544	10	4291
2026-01-23 03:05:10.74	10.46	18.39	-25.3	-26.9	17.3	1.50e-03	0	44	0	665845760	10	4289
2026-01-23 03:05:13.74	10.26	18.75	-25.2	-26.6	17.4	1.36e-03	0	44	0	682622976	10	4230
2026-01-23 03:05:16.75	10.05	19.11	-25.0	-26.2	17.7	0.00e+00	0	44	0	699400192	10	4117
2026-01-23 03:05:19.76	9.84	19.47	-25.0	-26.1	17.8	9.75e-04	0	44	0	716177408	10	4081
2026-01-23 03:05:22.78	9.62	19.85	-25.0	-26.0	17.8	1.19e-03	0	44	0	734003200	10	4070
2026-01-23 03:05:25.79	9.40	20.22	-24.9	-25.8	17.9	0.00e+00	0	44	0	750780416	10	4017
2026-01-23 03:05:28.79	9.17	20.60	-24.8	-26.3	17.9	0.00e+00	0	44	0	767557632	9	4243
2026-01-23 03:05:31.80	8.94	20.99	-25.0	-26.6	17.8	0.00e+00	0	44	0	784334848	9	4327
2026-01-23 03:05:34.82	8.70	21.38	-24.7	-25.9	18.1	0.00e+00	0	44	0	801112064	9	4161
2026-01-23 03:05:37.83	8.45	21.78	-24.6	-25.7	18.2	0.00e+00	0	44	0	817889280	9	4108
2026-01-23 03:05:40.83	8.20	22.18	-24.5	-25.5	18.4	0.00e+00	0	44	0	834666496	9	4042
2026-01-23 03:05:43.84	7.94	22.59	-24.4	-25.4	18.4	0.00e+00	0	44	0	851443712	9	4028
2026-01-23 03:05:46.84	7.67	23.00	-24.5	-25.5	18.4	0.00e+00	0	44	0	869269504	9	4045
2026-01-23 03:05:49.85	7.40	23.42	-24.4	-25.4	18.5	0.00e+00	0	44	0	886046720	9	4025
2026-01-23 03:05:52.86	7.12	23.85	-24.3	-25.2	18.6	0.00e+00	0	44	0	902823936	9	3981
2026-01-23 03:05:55.87	6.83	24.29	-24.5	-25.6	18.4	0.00e+00	0	44	0	919601152	9	4063
2026-01-23 03:05:58.88	6.53	24.73	-24.1	-25.2	18.8	0.00e+00	0	44	0	936378368	8	4086
2026-01-23 03:06:01.88	6.22	25.17	-24.1	-25.3	18.8	0.00e+00	0	44	0	953155584	8	4104
2026-01-23 03:06:04.88	5.90	25.62	-23.9	-24.7	19.2	0.00e+00	0	44	0	969932800	8	3959
2026-01-23 03:06:07.89	5.57	26.08	-23.8	-24.6	19.2	0.00e+00	0	44	0	987758592	8	3932
2026-01-23 03:06:10.90	5.24	26.55	-23.8	-24.5	19.3	0.00e+00	0	44	0	1004535808	8	3907
2026-01-23 03:06:13.91	4.89	27.02	-23.7	-24.8	19.3	0.00e+00	0	44	0	1021313024	7	4087
2026-01-23 03:06:16.91	4.53	27.50	-23.6	-24.7	19.4	0.00e+00	0	44	0	1038090240	7	4064
2026-01-23 03:06:19.93	4.16	27.99	-23.8	-25.0	19.0	0.00e+00	0	44	0	1054867456	7	4141
2026-01-23 03:06:22.94	3.78	28.49	-23.6	-24.7	19.4	0.00e+00	0	44	0	1071644672	7	4063
2026-01-23 03:06:25.95	3.38	28.99	-23.6	-24.7	19.4	0.00e+00	0	44	0	1088421888	7	4067
2026-01-23 03:06:28.96	2.98	29.51	-23.4	-24.1	19.7	0.00e+00	0	44	0	1105199104	7	3937
2026-01-23 03:06:31.97	2.56	30.02	-23.5	-24.5	19.5	0.00e+00	0	44	0	1123024896	7	4037
2026-01-23 03:06:34.97	2.12	30.55	-23.5	-24.5	19.5	0.00e+00	0	44	0	1139802112	7	4019
2026-01-23 03:06:37.99	1.67	31.09	-23.3	-24.0	19.8	0.00e+00	0	44	0	1156579328	7	3914
2026-01-23 03:06:40.99	1.21	31.63	-23.3	-23.9	19.8	0.00e+00	0	44	0	1173356544	7	3892
2026-01-23 03:06:44.00	0.72	32.18	-23.4	-24.1	19.7	0.00e+00	0	44	0	1190133760	7	3934
2026-01-23 03:06:47.01	0.22	32.73	-23.3	-24.0	19.8	0.00e+00	0	44	0	1206910976	7	3910
2026-01-23 03:06:50.02	359.71	33.30	-23.3	-24.1	19.7	0.00e+00	0	44	0	1223688192	7	3931
2026-01-23 03:06:53.02	359.17	33.87	-23.2	-23.9	19.8	0.00e+00	0	44	0	1241513984	7	3874
2026-01-23 03:06:56.03	358.62	34.45	-23.1	-24.2	19.9	0.00e+00	0	44	0	1258291200	6	4067
2026-01-23 03:06:59.02	358.05	35.04	-23.2	-24.4	19.8	1.60e-05	0	44	0	1275068416	6	4124
2026-01-23 03:07:02.03	357.45	35.64	-23.1	-24.1	20.0	1.37e-05	0	44	0	1291845632	6	4045
2026-01-23 03:07:05.03	356.83	36.24	-23.2	-24.3	19.9	0.00e+00	0	44	0	1308622848	6	4087
2026-01-23 03:07:08.05	356.18	36.85	-23.2	-24.3	19.9	0.00e+00	0	44	0	1325400064	6	4078
2026-01-23 03:07:11.06	355.51	37.47	-23.3	-24.4	19.9	0.00e+00	0	44	0	1342177280	6	4122
2026-01-23 03:07:14.08	354.81	38.10	-23.2	-24.4	19.9	0.00e+00	0	44	0	1360003072	6	4105
2026-01-23 03:07:17.09	354.09	38.73	-23.3	-24.5	19.8	0.00e+00	0	44	0	1376780288	6	4140
2026-01-23 03:07:20.09	353.34	39.37	-23.5	-24.4	19.7	0.00e+00	0	44	0	1393557504	7	4001
2026-01-23 03:07:23.10	352.55	40.02	-23.3	-24.0	19.9	0.00e+00	0	44	0	1410334720	7	3910
2026-01-23 03:07:26.11	351.74	40.67	-23.8	-25.0	19.3	0.00e+00	0	44	0	1427111936	7	4159
2026-01-23 03:07:29.11	350.89	41.32	-23.5	-24.4	19.7	0.00e+00	0	44	0	1443889152	7	4000
2026-01-23 03:07:32.12	350.00	41.98	-23.7	-24.7	19.5	0.00e+00	0	44	0	1460666368	7	4079
2026-01-23 03:07:35.13	349.08	42.65	-23.9	-25.2	19.3	0.00e+00	0	44	0	1478492160	7	4201
2026-01-23 03:07:38.14	348.12	43.32	-24.0	-25.0	19.1	0.00e+00	0	44	0	1495269376	8	4040
2026-01-23 03:07:41.15	347.11	43.99	-23.6	-24.2	19.6	0.00e+00	0	44	0	1512046592	8	3837
2026-01-23 03:07:44.16	346.06	44.66	-23.7	-24.9	19.4	0.00e+00	0	44	0	1528823808	7	4129
2026-01-23 03:07:47.16	344.97	45.33	-23.6	-24.5	19.6	0.00e+00	0	44	0	1545601024	7	4033
2026-01-23 03:07:50.18	343.82	46.00	-23.8	-25.1	19.3	0.00e+00	0	44	0	1562378240	7	4170
2026-01-23 03:07:53.20	342.63	46.67	-23.6	-24.7	19.6	0.00e+00	0	44	0	1579155456	7	4062
2026-01-23 03:07:56.21	341.38	47.33	-24.2	-25.4	19.0	0.00e+00	0	44	0	1595932672	8	4141
2026-01-23 03:07:59.22	340.08	47.99	-23.9	-24.8	19.3	0.00e+00	0	44	0	1613758464	8	3973
2026-01-23 03:08:02.22	338.73	48.64	-24.0	-24.9	19.2	0.00e+00	0	44	0	1630535680	8	4004
2026-01-23 03:08:05.23	337.32	49.29	-24.1	-25.1	19.2	0.00e+00	0	44	0	1647312896	8	4047
2026-01-23 03:08:08.23	335.85	49.92	-24.3	-25.6	18.9	0.00e+00	0	44	0	1664090112	8	4188
2026-01-23 03:08:11.23	334.31	50.54	-24.3	-25.5	15.1	0.00e+00	0	44	0	1680867328	8	4158
2026-01-23 03:08:14.24	332.71	51.15	-24.8	-26.2	18.3	0.00e+00	0	44	0	1697644544	9	4214
2026-01-23 03:08:17.24	331.05	51.74	-24.3	-25.1	18.9	0.00e+00	0	44	0	1714421760	9	3933
2026-01-23 03:08:20.26	329.31	52.31	-24.7	-26.0	18.4	7.90e-04	0	44	0	1731198976	9	4171
2026-01-23 03:08:23.26	327.51	52.85	-24.1	-25.3	19.1	0.00e+00	0	44	0	1749024768	8	4095
2026-01-23 03:08:26.25	325.66	53.38	-24.2	-25.4	19.0	0.00e+00	0	44	0	1765801984	8	4138
2026-01-23 03:08:29.26	323.72	53.87	-24.0	-25.0	19.2	5.76e-04	0	44	0	1782579200	8	4034
2026-01-23 03:08:32.26	321.73	54.34	-23.8	-24.6	19.4	6.19e-04	0	44	0	1799356416	8	3932
2026-01-23 03:08:35.28	319.65	54.78	-24.0	-25.0	19.2	0.00e+00	0	44	0	1816133632	8	4030
2026-01-23 03:08:38.30	317.51	55.18	-23.9	-25.2	19.4	2.92e-04	0	44	0	1832910848	7	4189
2026-01-23 03:08:41.31	315.33	55.54	-23.6	-24.6	19.7	6.10e-04	0	44	0	1849688064	7	4039
2026-01-23 03:08:44.31	313.09	55.86	-23.9	-24.8	19.3	6.92e-04	0	44	0	1867513856	8	3986
2026-01-23 03:08:47.32	310.80	56.14	-24.0	-24.9	19.3	3.44e-04	0	44	0	1884291072	8	4018
2026-01-23 03:08:50.32	308.47	56.38	-23.6	-24.7	19.7	6.42e-04	0	44	0	1901068288	7	4057
2026-01-23 03:08:53.34	306.10	56.57	-24.2	-25.3	19.1	2.62e-04	0	44	0	1917845504	8	4114
2026-01-23 03:08:56.36	303.69	56.71	-23.6	-24.1	19.7	0.00e+00	0	44	0	1934622720	8	3812
2026-01-23 03:08:59.37	301.27	56.80	-24.7	-25.9	18.5	6.60e-04	0	44	0	1951399936	9	4136
2026-01-23 03:09:02.37	298.84	56.85	-24.4	-25.4	18.8	2.80e-04	0	44	0	1969225728	9	4007
2026-01-23 03:09:05.37	296.41	56.84	-24.8	-26.2	18.3	0.00e+00	0	44	0	1986002944	9	4225
2026-01-23 03:09:08.39	293.97	56.79	-24.2	-25.4	19.0	0.00e+00	0	44	0	2002780160	8	4117
2026-01-23 03:09:11.40	291.55	56.68	-24.0	-25.0	19.2	0.00e+00	0	44	0	2019557376	8	4031
2026-01-23 03:09:14.42	289.15	56.53	-23.9	-24.7	19.4	0.00e+00	0	44	0	2036334592	8	3950
2026-01-23 03:09:17.43	286.79	56.33	-24.2	-25.4	19.0	0.00e+00	0	44	0	2053111808	8	4122
2026-01-23 03:09:20.43	284.47	56.08	-24.3	-25.5	18.9	1.10e-06	0	44	0	2069889024	8	4162
2026-01-23 03:09:23.44	282.19	55.79	-24.1	-25.2	19.1	0.00e+00	0	44	0	2087714816	8	4088
2026-01-23 03:09:26.46	279.95	55.46	-24.3	-25.5	18.9	0.00e+00	0	44	0	2104492032	8	4164
2026-01-23 03:09:29.47	277.77	55.08	-23.7	-24.8	19.5	0.00e+00	0	44	0	2121269248	7	4097
2026-01-23 03:09:32.47	275.66	54.67	-23.5	-24.4	19.7	0.00e+00	0	44	0	2138046464	7	3991
2026-01-23 03:09:35.48	273.60	54.23	-23.5	-24.5	19.6	0.00e+00	0	44	0	2154823680	7	4031
2026-01-23 03:09:38.48	271.62	53.76	-23.1	-24.2	20.0	0.00e+00	0	44	0	2171600896	6	4052
2026-01-23 03:09:41.50	269.69	53.25	-23.1	-24.1	20.1	0.00e+00	0	44	0	2188378112	6	4025
2026-01-23 03:09:44.51	267.84	52.72	-23.8	-25.0	19.3	0.00e+00	0	44	0	2205155328	7	4153
2026-01-23 03:09:47.53	266.04	52.16	-23.4	-24.3	19.7	0.00e+00	0	44	0	2222981120	7	3975
2026-01-23 03:09:50.54	264.32	51.58	-23.9	-25.3	19.2	0.00e+00	0	44	0	2239758336	7	4230
2026-01-23 03:09:53.54	262.67	50.99	-24.3	-25.5	18.9	0.00e+00	0	45	0	2256535552	8	4159
2026-01-23 03:09:56.56	261.08	50.37	-24.3	-25.6	14.4	0.00e+00	0	44	0	2273312768	8	4194
2026-01-23 03:09:59.57	259.55	49.75	-23.8	-24.5	19.4	0.00e+00	0	44	0	2290089984	8	3915
2026-01-23 03:10:02.55	258.10	49.11	-23.6	-24.7	19.5	0.00e+00	0	44	0	2306867200	7	4070
2026-01-23 03:10:05.55	256.71	48.47	-23.2	-24.2	19.9	0.00e+00	0	44	0	2323644416	6	4070
2026-01-23 03:10:08.56	255.36	47.81	-23.2	-24.3	19.9	7.31e-04	0	44	0	2340421632	6	4081
2026-01-23 03:10:11.56	254.08	47.15	-22.9	-23.7	20.1	8.26e-04	0	44	0	2358247424	6	3949
2026-01-23 03:10:14.57	252.84	46.48	-22.9	-23.6	20.2	0.00e+00	0	44	0	2375024640	6	3929
2026-01-23 03:10:17.58	251.66	45.81	-22.7	-23.8	20.3	5.68e-04	0	44	0	2391801856	5	4073
2026-01-23 03:10:20.59	250.53	45.14	-23.2	-24.2	19.9	6.49e-04	0	44	0	2408579072	6	4069
2026-01-23 03:10:23.60	249.44	44.46	-23.1	-24.1	19.9	1.31e-03	0	44	0	2425356288	6	4056
2026-01-23 03:10:26.62	248.40	43.79	-22.7	-23.8	20.3	1.41e-03	0	44	0	2443182080	5	4068
2026-01-23 03:10:29.62	247.40	43.12	-23.5	-25.0	19.4	1.65e-03	0	44	0	2459959296	6	4269
2026-01-23 03:10:32.64	246.44	42.45	-22.8	-23.5	20.1	1.57e-03	0	44	0	2476736512	6	3901
2026-01-23 03:10:35.65	245.53	41.78	-22.8	-23.5	20.2	0.00e+00	0	44	0	2493513728	6	3897
2026-01-23 03:10:38.66	244.65	41.12	-22.8	-23.5	20.2	4.89e-04	0	44	0	2510290944	6	3899
2026-01-23 03:10:41.66	243.80	40.46	-22.7	-23.7	20.3	1.14e-03	0	44	0	2527068160	5	4057
2026-01-23 03:10:44.67	242.99	39.81	-22.9	-24.3	20.0	0.00e+00	0	44	0	2543845376	5	4196
2026-01-23 03:10:47.69	242.21	39.16	-22.6	-23.5	20.4	0.00e+00	0	44	0	2560622592	5	4020
2026-01-23 03:10:50.69	241.47	38.52	-22.6	-23.5	20.4	0.00e+00	0	44	0	2578448384	5	4001
2026-01-23 03:10:53.70	240.75	37.89	-22.6	-23.6	20.3	0.00e+00	0	44	0	2595225600	5	4043
2026-01-23 03:10:56.70	240.06	37.27	-22.8	-24.1	20.1	0.00e+00	0	44	0	2612002816	5	4148
2026-01-23 03:10:59.71	239.39	36.65	-23.3	-24.5	19.6	0.00e+00	0	44	0	2628780032	6	4153
2026-01-23 03:11:02.72	238.75	36.03	-22.6	-23.1	20.3	0.00e+00	0	44	0	2645557248	6	3816
2026-01-23 03:11:05.74	238.13	35.43	-22.6	-23.6	20.3	0.00e+00	0	44	0	2662334464	5	4035
2026-01-23 03:11:08.75	237.54	34.83	-22.7	-23.7	20.2	0.00e+00	0	44	0	2679111680	5	4058
2026-01-23 03:11:11.77	236.96	34.24	-23.0	-24.4	19.9	0.00e+00	0	44	0	2696937472	5	4237
2026-01-23 03:11:14.77	236.41	33.66	-23.0	-24.0	19.9	0.00e+00	0	44	0	2713714688	6	4009
2026-01-23 03:11:17.79	235.88	33.08	-22.7	-23.3	20.2	0.00e+00	0	44	0	2730491904	6	3858
2026-01-23 03:11:20.80	235.37	32.51	-22.8	-24.1	20.0	0.00e+00	0	44	0	2747269120	5	4159
2026-01-23 03:11:23.81	234.87	31.96	-22.9	-24.3	19.9	0.00e+00	0	44	0	2764046336	5	4202
2026-01-23 03:11:26.82	234.39	31.41	-23.1	-24.2	19.7	0.00e+00	0	44	0	2780823552	6	4064
2026-01-23 03:11:29.83	233.93	30.86	-23.1	-24.1	19.8	0.00e+00	0	44	0	2798649344	6	4043
2026-01-23 03:11:32.84	233.48	30.33	-23.0	-23.9	19.8	0.00e+00	0	44	0	2815426560	6	3995
2026-01-23 03:11:35.85	233.05	29.80	-23.0	-23.9	19.8	0.00e+00	0	44	0	2832203776	6	4009
2026-01-23 03:11:38.87	232.62	29.28	-23.3	-24.6	19.5	0.00e+00	0	44	0	2848980992	6	4170
2026-01-23 03:11:41.88	232.22	28.77	-23.4	-24.8	19.4	0.00e+00	0	44	0	2865758208	6	4222
2026-01-23 03:11:44.90	231.82	28.27	-23.4	-24.2	19.4	0.00e+00	0	44	0	2882535424	7	3965
2026-01-23 03:11:47.91	231.44	27.77	-23.2	-23.8	19.6	0.00e+00	0	44	0	2899312640	7	3874
2026-01-23 03:11:50.93	231.07	27.28	-23.2	-23.8	19.5	0.00e+00	0	44	0	2917138432	7	3876
2026-01-23 03:11:53.92	230.72	26.80	-23.4	-24.2	19.4	0.00e+00	0	44	0	2933915648	7	3955
2026-01-23 03:11:56.94	230.37	26.33	-23.3	-24.0	19.5	2.63e-05	0	44	0	2950692864	7	3919
2026-01-23 03:11:59.95	230.04	25.86	-23.2	-24.4	19.5	8.23e-05	0	44	0	2967470080	6	4131
2026-01-23 03:12:02.96	229.71	25.40	-23.4	-24.2	19.3	6.40e-05	0	44	0	2984247296	7	3957
2026-01-23 03:12:05.96	229.39	24.95	-23.3	-24.1	19.4	9.10e-06	0	44	0	3001024512	7	3927
2026-01-23 03:12:08.97	229.08	24.50	-23.4	-24.2	19.3	4.92e-05	0	44	0	3018850304	7	3963
2026-01-23 03:12:12.00	228.78	24.06	-23.4	-24.3	19.2	1.13e-04	0	44	0	3035627520	7	3984
2026-01-23 03:12:15.02	228.49	23.63	-23.4	-24.4	19.2	0.00e+00	0	44	0	3052404736	7	4001
2026-01-23 03:12:18.04	228.21	23.20	-23.6	-24.6	19.1	0.00e+00	0	44	0	3069181952	7	4063
2026-01-23 03:12:21.04	227.94	22.78	-23.6	-24.8	19.0	2.13e-04	0	44	0	3085959168	7	4098
2026-01-23 03:12:24.05	227.67	22.36	-23.8	-25.0	18.8	0.00e+00	0	44	0	3102736384	7	4173
2026-01-23 03:12:27.07	227.41	21.95	-24.0	-25.5	18.6	0.00e+00	0	44	0	3120562176	7	4290
2026-01-23 03:12:30.08	227.15	21.55	-24.0	-25.1	18.5	0.00e+00	0	44	0	3137339392	8	4072
2026-01-23 03:12:33.08	226.91	21.16	-24.2	-25.4	18.4	0.00e+00	0	44	0	3154116608	8	4144
2026-01-23 03:12:36.09	226.67	20.76	-24.0	-25.1	18.5	0.00e+00	0	44	0	3170893824	8	4080
2026-01-23 03:12:39.10	226.43	20.38	-24.0	-25.1	18.5	0.00e+00	0	44	0	3187671040	8	4076
2026-01-23 03:12:42.10	226.21	20.00	-24.1	-25.3	18.3	0.00e+00	0	44	0	3204448256	8	4130
2026-01-23 03:12:45.11	225.98	19.62	-24.4	-25.9	18.1	0.00e+00	0	44	0	3221225472	8	4265
2026-01-23 03:12:48.12	225.77	19.25	-24.3	-25.6	18.2	0.00e+00	0	44	0	3239051264	8	4194
2026-01-23 03:12:51.12	225.56	18.89	-24.4	-25.8	18.1	0.00e+00	0	44	0	3255828480	8	4257
2026-01-23 03:12:54.11	225.35	18.53	-24.5	-26.0	18.0	0.00e+00	0	44	0	3272605696	8	4312
2026-01-23 03:12:57.13	225.15	18.17	-24.7	-25.9	17.7	0.00e+00	0	44	0	3289382912	9	4174
2026-01-23 03:13:00.13	224.95	17.82	-24.8	-26.2	17.6	0.00e+00	0	44	0	3306160128	9	4256
2026-01-23 03:13:03.15	224.76	17.48	-24.9	-26.5	17.4	0.00e+00	0	44	0	3322937344	9	4328
2026-01-23 03:13:06.16	224.58	17.14	-25.4	-27.0	16.9	0.00e+00	0	44	0	3339714560	10	4337
2026-01-23 03:13:09.16	224.39	16.80	-25.1	-26.4	17.2	0.00e+00	0	44	0	3356491776	10	4184
2026-01-23 03:13:12.17	224.21	16.47	-25.2	-26.6	17.1	0.00e+00	0	44	0	3374317568	10	4221
2026-01-23 03:13:15.18	224.04	16.14	-25.1	-26.5	17.1	0.00e+00	0	44	0	3391094784	10	4206
2026-01-23 03:13:18.20	223.87	15.81	-25.2	-26.6	17.0	7.52e-04	0	44	0	3407872000	10	4233
2026-01-23 03:13:21.21	223.70	15.49	-25.3	-26.8	16.9	0.00e+00	0	44	0	3424649216	10	4280
2026-01-23 03:13:24.23	223.54	15.17	-25.4	-27.0	16.8	0.00e+00	0	44	0	3441426432	10	4339
2026-01-23 03:13:27.23	223.38	14.86	-25.5	-26.7	16.6	7.92e-04	0	44	0	3458203648	11	4162
2026-01-23 03:13:30.25	223.22	14.55	-25.5	-26.9	16.6	8.47e-04	0	44	0	3474980864	11	4194
2026-01-23 03:13:33.26	223.07	14.24	-25.6	-26.9	16.5	0.00e+00	0	44	0	3492806656	11	4207
2026-01-23 03:13:36.26	222.92	13.94	-25.6	-26.9	16.5	4.37e-04	0	44	0	3509583872	11	4213
2026-01-23 03:13:39.28	222.77	13.64	-25.6	-27.0	16.4	3.97e-04	0	44	0	3526361088	11	4224
2026-01-23 03:13:42.28	222.63	13.35	-25.7	-27.2	16.3	3.70e-04	0	44	0	3543138304	11	4271
2026-01-23 03:13:45.27	222.49	13.06	-25.8	-27.3	16.2	0.00e+00	0	44	0	3559915520	11	4320
2026-01-23 03:13:48.28	222.35	12.77	-25.7	-27.3	16.2	8.22e-04	0	44	0	3576692736	11	4305
2026-01-23 03:13:51.29	222.22	12.49	-25.8	-27.4	16.1	8.55e-04	0	44	0	3593469952	11	4345
2026-01-23 03:13:54.29	222.09	12.21	-26.2	-27.9	15.5	0.00e+00	0	44	0	3610247168	12	4379
2026-01-23 03:13:57.31	221.96	11.93	-26.2	-27.9	15.4	0.00e+00	0	44	0	3628072960	12	4376
2026-01-23 03:14:00.33	221.83	11.65	-26.2	-27.9	15.4	9.28e-04	0	44	0	3644850176	12	4383
2026-01-23 03:14:03.33	221.71	11.38	-26.4	-28.4	15.1	0.00e+00	0	44	0	3661627392	12	4509
2026-01-23 03:14:06.34	221.59	11.11	-26.2	-27.9	15.4	0.00e+00	0	44	0	3678404608	12	4364
2026-01-23 03:14:09.35	221.47	10.84	-26.2	-27.8	15.5	0.00e+00	0	44	0	3695181824	12	4346
2026-01-23 03:14:12.36	221.35	10.57	-26.3	-28.0	15.3	0.00e+00	0	44	0	3711959040	12	4402
2026-01-23 03:14:15.36	221.23	10.31	-26.4	-28.3	15.2	1.10e-06	0	44	0	3728736256	12	4476
2026-01-23 03:14:18.37	221.12	10.05	-26.6	-28.3	14.8	0.00e+00	0	44	0	3746562048	13	4387
2026-01-23 03:14:21.37	221.01	9.80	-26.6	-28.3	14.8	0.00e+00	0	44	0	3763339264	13	4386
2026-01-23 03:14:24.38	220.90	9.54	-26.7	-28.5	14.7	0.00e+00	0	44	0	3780116480	13	4437
2026-01-23 03:14:27.39	220.80	9.29	-26.8	-28.8	14.5	3.40e-06	0	44	0	3796893696	13	4518
2026-01-23 03:14:30.40	220.69	9.04	-27.3	-29.5	13.8	1.37e-05	0	44	0	3813670912	14	4627
2026-01-23 03:14:33.41	220.59	8.80	-26.7	-28.6	14.5	1.10e-06	0	44	0	3830448128	13	4474
2026-01-23 03:14:36.42	220.49	8.55	-27.3	-29.3	13.8	4.50e-06	0	44	0	3848273920	14	4567
2026-01-23 03:14:39.41	220.39	8.31	-27.1	-28.9	14.0	1.10e-06	0	44	0	3864002560	14	4438
2026-01-23 03:14:42.43	220.29	8.07	-27.2	-29.3	13.8	1.37e-05	0	44	0	3881828352	14	4552
2026-01-23 03:14:45.44	220.20	7.83	-26.8	-28.3	14.4	3.40e-06	0	44	0	3898605568	14	4267
2026-01-23 03:14:48.45	220.10	7.60	-26.9	-29.0	14.2	2.20e-06	0	44	0	3915382784	13	4584
2026-01-23 03:14:51.46	220.01	7.36	-27.0	-28.8	14.0	2.20e-06	0	44	0	3932160000	14	4408
2026-01-23 03:14:54.47	219.92	7.13	-27.1	-28.9	13.9	6.80e-06	0	44	0	3948937216	14	4445

#Closed at: 2026-01-23 03:14:57
#Recorded file [3954 MB]: D:/data/31010_260123_060312.dat