passes_logs/2026/01/23/R2M6_AANII_01/R2M6_AANII_01__20260123_111607_FENGYUN_3D_rec.log

#Pass ID: 20260123_111607_FENGYUN 3D
#Satellite: FENGYUN 3D
#Configuration: FENGYUN 3D
#almurnet v.1.7.20240730
#Start time: 2026-01-23 11:16:08

#Version: 2.2.20231116
#Station: R2M6_AANII_01
#Location: 30.233357 lon 59.946436 lat
#TLE: 1 43010U 17072A   26022.47411728  .00000617  00000+0  31375-3 0  9996
#TLE: 2 43010  98.9952 354.4060 0002481  95.7964 264.3494 14.19699924424319

#Time	Az	El	Level	Level2	SNR	BER	BlckErr	Temp	State	Recorded	gain1	gain2
2026-01-23 11:16:08.88	125.78	7.10	-29.5	-32.0	5.4	7.83e-01	0	39	0	0	20	4817
2026-01-23 11:16:11.87	125.62	7.32	-29.3	-31.5	10.6	5.24e-03	0	39	102	1048576	20	4629
2026-01-23 11:16:14.89	125.45	7.54	-29.7	-32.9	10.1	6.67e-03	0	39	102	1048576	19	5251
2026-01-23 11:16:17.91	125.28	7.77	-28.4	-30.2	12.2	3.58e-04	0	39	102	1048576	18	4415
2026-01-23 11:16:20.93	125.11	8.00	-28.3	-30.3	12.5	2.41e-04	0	40	102	1048576	17	4545
2026-01-23 11:16:23.95	124.94	8.23	-28.3	-30.4	12.4	1.94e-04	0	40	102	1048576	17	4579
2026-01-23 11:16:26.96	124.76	8.46	-28.7	-31.3	11.9	4.76e-04	0	40	102	1048576	17	4870
2026-01-23 11:16:29.97	124.58	8.69	-27.6	-29.2	13.5	2.97e-05	0	39	102	1048576	16	4315
2026-01-23 11:16:32.99	124.40	8.92	-27.0	-28.3	14.2	2.20e-06	0	40	102	1048576	15	4162
2026-01-23 11:16:36.00	124.21	9.16	-27.0	-28.3	14.2	3.40e-06	0	40	102	1048576	15	4178
2026-01-23 11:16:39.02	124.02	9.40	-27.2	-28.7	14.0	4.50e-06	0	40	102	1048576	15	4289
2026-01-23 11:16:42.03	123.83	9.64	-26.9	-28.1	14.4	2.20e-06	0	40	102	1048576	15	4106
2026-01-23 11:16:45.05	123.63	9.88	-26.8	-27.8	14.6	0.00e+00	0	40	102	1048576	15	4026
2026-01-23 11:16:48.04	123.43	10.13	-26.8	-28.3	14.6	1.10e-06	0	40	102	1048576	14	4275
2026-01-23 11:16:51.05	123.23	10.37	-26.8	-28.3	14.6	2.20e-06	0	40	102	1048576	14	4261
2026-01-23 11:16:54.07	123.03	10.62	-26.6	-27.9	14.9	0.00e+00	0	40	102	1048576	14	4153
2026-01-23 11:16:57.08	122.82	10.87	-26.6	-27.8	14.9	1.10e-06	0	40	102	1048576	14	4137
2026-01-23 11:17:00.11	122.60	11.13	-26.5	-27.6	15.1	0.00e+00	0	40	102	1048576	14	4081
2026-01-23 11:17:03.12	122.38	11.38	-26.5	-27.5	15.1	0.00e+00	0	40	102	1048576	14	4053
2026-01-23 11:17:06.14	122.16	11.64	-26.6	-27.7	15.0	0.00e+00	0	40	102	1048576	14	4102
2026-01-23 11:17:09.16	121.94	11.90	-26.3	-27.2	15.4	0.00e+00	0	40	102	1048576	14	3964
2026-01-23 11:17:12.17	121.71	12.17	-26.4	-27.8	15.2	0.00e+00	0	40	102	1048576	13	4249
2026-01-23 11:17:15.19	121.47	12.43	-26.4	-27.8	15.3	1.10e-06	0	40	102	1048576	13	4246
2026-01-23 11:17:18.19	121.23	12.70	-26.5	-28.1	15.1	0.00e+00	0	40	102	1048576	13	4313
2026-01-23 11:17:21.20	120.99	12.97	-26.4	-27.9	15.3	0.00e+00	0	40	102	1048576	13	4259
2026-01-23 11:17:24.23	120.74	13.24	-26.4	-27.9	15.3	1.10e-06	0	40	102	1048576	13	4272
2026-01-23 11:17:27.25	120.49	13.52	-26.2	-27.5	15.5	2.20e-06	0	40	102	1048576	13	4168
2026-01-23 11:17:30.27	120.23	13.79	-26.2	-27.4	15.5	0.00e+00	0	40	102	1048576	13	4143
2026-01-23 11:17:33.29	119.97	14.08	-26.2	-27.4	15.6	0.00e+00	0	40	102	1048576	13	4135
2026-01-23 11:17:36.30	119.70	14.36	-26.1	-27.1	15.7	0.00e+00	0	40	102	1048576	13	4069
2026-01-23 11:17:39.31	119.43	14.64	-26.2	-27.4	15.6	0.00e+00	0	40	102	1048576	13	4144
2026-01-23 11:17:42.33	119.15	14.93	-26.0	-27.0	15.9	0.00e+00	0	41	102	1048576	13	4037
2026-01-23 11:17:45.35	118.86	15.22	-26.0	-26.9	15.9	0.00e+00	0	40	102	1048576	13	4000
2026-01-23 11:17:48.37	118.57	15.52	-25.8	-26.5	16.2	0.00e+00	0	41	102	1048576	13	3894
2026-01-23 11:17:51.39	118.28	15.81	-25.8	-26.9	16.2	0.00e+00	0	41	102	1048576	12	4105
2026-01-23 11:17:54.40	117.97	16.11	-25.8	-26.9	16.2	0.00e+00	0	40	102	1048576	12	4111
2026-01-23 11:17:57.43	117.66	16.42	-25.7	-26.7	16.3	0.00e+00	0	41	102	1048576	12	4061
2026-01-23 11:18:00.45	117.35	16.72	-25.6	-26.7	16.4	0.00e+00	0	41	102	1048576	12	4052
2026-01-23 11:18:03.46	117.03	17.03	-25.6	-26.5	16.5	0.00e+00	0	41	102	1048576	12	4016
2026-01-23 11:18:06.49	116.70	17.34	-25.4	-26.2	16.7	0.00e+00	0	40	102	1048576	12	3934
2026-01-23 11:18:09.51	116.36	17.66	-25.3	-25.9	16.8	0.00e+00	0	41	102	1048576	12	3861
2026-01-23 11:18:12.52	116.02	17.97	-25.2	-26.2	17.1	0.00e+00	0	40	102	1048576	11	4037
2026-01-23 11:18:15.53	115.67	18.29	-25.3	-26.3	17.0	0.00e+00	0	41	102	1048576	11	4050
2026-01-23 11:18:18.55	115.31	18.62	-25.3	-26.4	17.0	0.00e+00	0	40	102	1048576	11	4089
2026-01-23 11:18:21.56	114.95	18.94	-25.1	-26.0	17.2	0.00e+00	0	40	102	1048576	11	3983
2026-01-23 11:18:24.56	114.57	19.27	-24.8	-25.4	17.6	0.00e+00	0	41	102	1048576	11	3828
2026-01-23 11:18:27.58	114.19	19.60	-24.6	-25.4	17.8	0.00e+00	0	41	102	1048576	10	3953
2026-01-23 11:18:30.60	113.80	19.94	-24.6	-25.3	17.9	0.00e+00	0	40	102	1048576	10	3920
2026-01-23 11:18:33.60	113.40	20.28	-24.7	-25.6	17.7	0.00e+00	0	41	102	1048576	10	3996
2026-01-23 11:18:36.62	112.99	20.62	-24.8	-25.9	17.6	0.00e+00	0	40	102	1048576	10	4058
2026-01-23 11:18:39.63	112.58	20.96	-24.8	-25.7	17.7	0.00e+00	0	41	102	1048576	10	4018
2026-01-23 11:18:42.64	112.15	21.31	-24.7	-25.6	17.8	0.00e+00	0	41	102	1048576	10	3994
2026-01-23 11:18:45.65	111.71	21.66	-24.5	-25.2	18.0	0.00e+00	0	41	102	1048576	10	3884
2026-01-23 11:18:48.66	111.27	22.01	-24.4	-24.9	18.1	0.00e+00	0	41	102	1048576	10	3834
2026-01-23 11:18:51.69	110.81	22.37	-24.2	-24.9	18.4	0.00e+00	0	41	102	1048576	9	3935
2026-01-23 11:18:54.70	110.34	22.73	-24.0	-24.6	18.6	0.00e+00	0	41	102	1048576	9	3849
2026-01-23 11:18:57.72	109.86	23.09	-23.9	-24.4	18.7	0.00e+00	0	41	102	1048576	9	3817
2026-01-23 11:19:00.74	109.37	23.46	-24.1	-24.7	18.5	0.00e+00	0	41	102	1048576	9	3891
2026-01-23 11:19:03.76	108.86	23.83	-23.9	-24.5	18.6	0.00e+00	0	41	102	1048576	9	3829
2026-01-23 11:19:06.79	108.34	24.20	-23.9	-24.4	18.7	0.00e+00	0	41	102	1048576	9	3808
2026-01-23 11:19:09.80	107.82	24.58	-23.9	-24.3	18.8	0.00e+00	0	41	102	1048576	9	3788
2026-01-23 11:19:12.80	107.28	24.95	-24.0	-24.7	18.6	0.00e+00	0	41	102	1048576	9	3872
2026-01-23 11:19:15.79	106.73	25.33	-24.1	-24.8	18.5	0.00e+00	0	41	102	1048576	9	3912
2026-01-23 11:19:18.81	106.16	25.71	-24.0	-24.6	18.6	0.00e+00	0	41	102	1048576	9	3864
2026-01-23 11:19:21.82	105.58	26.10	-23.5	-24.1	19.2	0.00e+00	0	41	102	1048576	8	3841
2026-01-23 11:19:24.84	104.98	26.48	-23.6	-24.2	19.1	0.00e+00	0	41	102	1048576	8	3876
2026-01-23 11:19:27.85	104.37	26.87	-23.7	-24.4	19.0	0.00e+00	0	41	102	1048576	8	3925
2026-01-23 11:19:30.86	103.74	27.26	-23.7	-24.4	19.0	0.00e+00	0	41	102	1048576	8	3922
2026-01-23 11:19:33.87	103.10	27.65	-23.5	-24.1	19.1	0.00e+00	0	41	102	1048576	8	3852
2026-01-23 11:19:36.88	102.45	28.04	-23.6	-24.2	19.2	0.00e+00	0	41	102	1048576	8	3857
2026-01-23 11:19:39.90	101.77	28.44	-23.8	-24.6	18.9	0.00e+00	0	41	102	1048576	8	3967
2026-01-23 11:19:42.92	101.08	28.83	-23.7	-24.6	19.0	0.00e+00	0	41	102	1048576	8	3950
2026-01-23 11:19:45.93	100.37	29.23	-23.6	-24.2	19.1	0.00e+00	0	41	102	1048576	8	3866
2026-01-23 11:19:48.94	99.64	29.63	-23.3	-23.7	19.4	0.00e+00	0	41	102	1048576	8	3754
2026-01-23 11:19:51.95	98.90	30.02	-23.4	-23.8	19.3	0.00e+00	0	41	102	1048576	8	3778
2026-01-23 11:19:54.97	98.13	30.42	-23.4	-23.8	19.3	0.00e+00	0	41	102	1048576	8	3778
2026-01-23 11:19:57.99	97.35	30.82	-23.2	-23.9	19.6	0.00e+00	0	41	102	1048576	7	3900
2026-01-23 11:20:01.00	96.55	31.21	-23.4	-24.3	19.3	0.00e+00	0	41	102	1048576	7	4002
2026-01-23 11:20:04.01	95.73	31.61	-23.2	-24.0	19.5	0.00e+00	0	41	102	1048576	7	3918
2026-01-23 11:20:07.02	94.89	32.00	-23.2	-23.9	19.5	0.00e+00	0	41	102	1048576	7	3908
2026-01-23 11:20:10.03	94.02	32.39	-23.1	-23.7	19.7	0.00e+00	0	41	102	1048576	7	3862
2026-01-23 11:20:13.05	93.14	32.78	-23.0	-23.6	19.7	0.00e+00	0	41	102	1048576	7	3824
2026-01-23 11:20:16.07	92.23	33.17	-22.9	-23.2	19.9	0.00e+00	0	41	102	1048576	7	3743
2026-01-23 11:20:19.08	91.30	33.55	-22.8	-23.5	20.0	0.00e+00	0	41	102	1048576	6	3902
2026-01-23 11:20:22.09	90.35	33.92	-22.8	-23.6	19.9	0.00e+00	0	41	102	1048576	6	3950
2026-01-23 11:20:25.10	89.38	34.30	-23.1	-24.2	19.7	0.00e+00	0	41	102	1048576	6	4093
2026-01-23 11:20:28.13	88.38	34.67	-22.9	-23.8	19.9	0.00e+00	0	41	102	1048576	6	3995
2026-01-23 11:20:31.15	87.37	35.03	-23.3	-24.6	19.5	0.00e+00	0	41	102	1048576	6	4181
2026-01-23 11:20:34.16	86.33	35.38	-23.1	-24.2	19.6	0.00e+00	0	41	102	1048576	6	4091
2026-01-23 11:20:37.17	85.27	35.73	-23.1	-24.1	19.7	0.00e+00	0	41	102	1048576	6	4062
2026-01-23 11:20:40.19	84.18	36.07	-22.8	-23.6	20.0	0.00e+00	0	41	102	1048576	6	3934
2026-01-23 11:20:43.20	83.07	36.41	-23.0	-23.9	19.9	0.00e+00	0	41	102	1048576	6	4003
2026-01-23 11:20:46.21	81.94	36.73	-22.9	-23.9	19.8	0.00e+00	0	41	102	1048576	6	3999
2026-01-23 11:20:49.22	80.79	37.04	-22.8	-23.5	20.0	0.00e+00	0	41	102	1048576	6	3917
2026-01-23 11:20:52.24	79.61	37.35	-23.3	-24.5	19.5	0.00e+00	0	41	102	1048576	6	4170
2026-01-23 11:20:55.26	78.42	37.64	-23.2	-24.3	19.7	0.00e+00	0	41	102	1048576	6	4112
2026-01-23 11:20:58.27	77.20	37.92	-22.8	-23.6	20.0	0.00e+00	0	41	102	1048576	6	3929
2026-01-23 11:21:01.27	75.97	38.18	-22.9	-23.7	20.0	0.00e+00	0	41	102	1048576	6	3962
2026-01-23 11:21:04.28	74.71	38.43	-23.1	-24.1	19.8	0.00e+00	0	41	102	1048576	6	4066
2026-01-23 11:21:07.29	73.43	38.67	-22.9	-23.7	20.0	0.00e+00	0	41	102	1048576	6	3957
2026-01-23 11:21:10.30	72.14	38.90	-23.0	-23.9	19.9	0.00e+00	0	41	102	1048576	6	4003
2026-01-23 11:21:13.31	70.83	39.10	-23.2	-24.3	19.7	0.00e+00	0	41	102	1048576	6	4105
2026-01-23 11:21:16.31	69.51	39.30	-22.9	-23.7	20.0	0.00e+00	0	41	102	1048576	6	3955
2026-01-23 11:21:19.33	68.16	39.47	-22.8	-23.6	20.0	0.00e+00	0	41	102	1048576	6	3944
2026-01-23 11:21:22.35	66.80	39.63	-23.3	-24.4	19.8	0.00e+00	0	41	102	1048576	6	4122
2026-01-23 11:21:25.37	65.43	39.77	-23.7	-24.9	19.4	0.00e+00	0	41	102	1048576	7	4111
2026-01-23 11:21:28.39	64.04	39.89	-23.5	-24.4	19.6	0.00e+00	0	41	102	1048576	7	4014
2026-01-23 11:21:31.39	62.66	40.00	-23.1	-23.6	20.0	0.00e+00	0	41	102	1048576	7	3800
2026-01-23 11:21:34.40	61.26	40.08	-23.2	-23.9	19.9	0.00e+00	0	41	102	1048576	7	3878
2026-01-23 11:21:37.42	59.85	40.14	-23.1	-23.7	20.0	0.00e+00	0	41	102	1048576	7	3839
2026-01-23 11:21:40.43	58.44	40.19	-23.1	-23.5	20.1	0.00e+00	0	41	102	1048576	7	3801
2026-01-23 11:21:43.45	57.03	40.22	-22.8	-23.4	20.4	0.00e+00	0	41	102	1048576	6	3869
2026-01-23 11:21:46.45	55.62	40.22	-23.0	-23.9	20.1	0.00e+00	0	41	102	1048576	6	3986
2026-01-23 11:21:49.46	54.21	40.21	-23.3	-24.5	19.8	0.00e+00	0	41	102	1048576	6	4138
2026-01-23 11:21:52.48	52.79	40.17	-22.8	-23.4	20.4	0.00e+00	0	41	102	1048576	6	3870
2026-01-23 11:21:55.49	51.38	40.12	-23.0	-23.8	20.2	0.00e+00	0	41	102	1048576	6	3978
2026-01-23 11:21:58.51	49.98	40.05	-22.8	-23.6	20.3	0.00e+00	0	41	102	1048576	6	3911
2026-01-23 11:22:01.52	48.59	39.95	-22.7	-23.3	20.4	0.00e+00	0	41	102	1048576	6	3837
2026-01-23 11:22:04.52	47.21	39.84	-22.8	-23.4	20.4	0.00e+00	0	41	102	1048576	6	3884
2026-01-23 11:22:07.54	45.83	39.71	-22.6	-23.1	20.5	0.00e+00	0	41	102	1048576	6	3801
2026-01-23 11:22:10.56	44.46	39.57	-23.1	-24.2	20.0	0.00e+00	0	41	102	1048576	6	4064
2026-01-23 11:22:13.58	43.11	39.40	-22.7	-23.3	20.4	0.00e+00	0	41	102	1048576	6	3838
2026-01-23 11:22:16.59	41.77	39.22	-22.6	-23.2	20.5	0.00e+00	0	41	102	1048576	6	3818
2026-01-23 11:22:19.60	40.45	39.02	-23.2	-24.4	19.8	0.00e+00	0	41	102	1048576	6	4115
2026-01-23 11:22:22.62	39.15	38.81	-22.7	-23.2	20.4	0.00e+00	0	41	102	1048576	6	3834
2026-01-23 11:22:25.62	37.87	38.58	-22.8	-23.4	20.3	0.00e+00	0	41	102	1048576	6	3885
2026-01-23 11:22:28.65	36.59	38.33	-22.7	-23.3	20.4	0.00e+00	0	41	102	1048576	6	3846
2026-01-23 11:22:31.66	35.35	38.07	-22.8	-23.5	20.3	0.00e+00	0	41	102	1048576	6	3885
2026-01-23 11:22:34.66	34.12	37.80	-22.6	-23.1	20.5	0.00e+00	0	41	102	1048576	6	3797
2026-01-23 11:22:37.66	32.92	37.52	-23.3	-24.4	19.8	0.00e+00	0	41	102	1048576	6	4122
2026-01-23 11:22:40.67	31.74	37.23	-22.7	-23.2	20.4	0.00e+00	0	41	102	1048576	6	3832
2026-01-23 11:22:43.68	30.58	36.92	-22.4	-22.6	20.7	0.00e+00	0	41	102	1048576	6	3704
2026-01-23 11:22:46.70	29.43	36.60	-22.4	-22.7	20.6	0.00e+00	0	41	102	1048576	6	3715
2026-01-23 11:22:49.71	28.32	36.28	-22.7	-23.3	20.4	0.00e+00	0	41	102	1048576	6	3858
2026-01-23 11:22:52.72	27.22	35.94	-22.8	-23.4	20.3	0.00e+00	0	41	102	1048576	6	3878
2026-01-23 11:22:55.73	26.15	35.60	-22.8	-23.4	20.3	0.00e+00	0	41	102	1048576	6	3872
2026-01-23 11:22:58.74	25.10	35.25	-22.8	-23.4	20.3	0.00e+00	0	41	102	1048576	6	3885
2026-01-23 11:23:01.75	24.07	34.89	-22.2	-22.8	20.8	0.00e+00	0	41	102	1048576	5	3845
2026-01-23 11:23:04.77	23.07	34.53	-22.6	-23.6	20.4	0.00e+00	0	41	102	1048576	5	4038
2026-01-23 11:23:07.79	22.08	34.16	-22.6	-23.6	20.4	0.00e+00	0	41	102	1048576	5	4024
2026-01-23 11:23:10.80	21.12	33.79	-22.7	-23.7	20.3	0.00e+00	0	41	102	1048576	5	4058
2026-01-23 11:23:13.82	20.19	33.41	-22.8	-23.9	20.3	0.00e+00	0	41	102	1048576	5	4106
2026-01-23 11:23:16.85	19.26	33.02	-22.7	-23.8	20.3	0.00e+00	0	41	102	1048576	5	4070
2026-01-23 11:23:19.86	18.37	32.64	-23.0	-24.3	20.0	0.00e+00	0	41	102	1048576	5	4204
2026-01-23 11:23:22.87	17.50	32.25	-22.9	-23.8	20.1	0.00e+00	0	41	102	1048576	6	3963
2026-01-23 11:23:25.87	16.65	31.86	-22.9	-23.6	20.1	0.00e+00	0	41	102	1048576	6	3928
2026-01-23 11:23:28.89	15.82	31.47	-22.8	-23.5	20.2	0.00e+00	0	41	102	1048576	6	3903
2026-01-23 11:23:31.89	15.01	31.08	-23.1	-24.1	19.9	0.00e+00	0	41	102	1048576	6	4051
2026-01-23 11:23:34.91	14.22	30.68	-23.2	-24.2	19.8	0.00e+00	0	41	102	1048576	6	4073
2026-01-23 11:23:37.93	13.44	30.29	-23.3	-24.6	19.6	0.00e+00	0	41	102	1048576	6	4173
2026-01-23 11:23:40.94	12.69	29.89	-23.3	-24.4	19.7	0.00e+00	0	41	102	1048576	6	4126
2026-01-23 11:23:43.94	11.96	29.50	-23.2	-24.3	19.7	0.00e+00	0	41	102	1048576	6	4099
2026-01-23 11:23:46.94	11.25	29.11	-23.1	-24.1	19.8	0.00e+00	0	41	102	1048576	6	4037
2026-01-23 11:23:49.96	10.55	28.71	-23.0	-23.9	19.9	0.00e+00	0	41	102	1048576	6	4002
2026-01-23 11:23:52.98	9.86	28.32	-23.1	-24.2	19.8	0.00e+00	0	41	102	1048576	6	4055
2026-01-23 11:23:56.00	9.19	27.92	-23.3	-24.6	19.5	0.00e+00	0	41	102	1048576	6	4179
2026-01-23 11:23:59.01	8.55	27.53	-23.5	-24.6	19.3	0.00e+00	0	41	102	1048576	7	4041
2026-01-23 11:24:02.03	7.91	27.14	-23.5	-24.5	19.4	0.00e+00	0	41	102	1048576	7	4017
2026-01-23 11:24:05.05	7.29	26.75	-23.6	-24.7	19.2	0.00e+00	0	41	102	1048576	7	4086
2026-01-23 11:24:08.07	6.69	26.37	-23.6	-24.6	19.3	0.00e+00	0	41	102	1048576	7	4044
2026-01-23 11:24:11.08	6.10	25.98	-23.6	-24.6	19.2	0.00e+00	0	41	102	1048576	7	4067
2026-01-23 11:24:14.09	5.53	25.60	-23.3	-24.1	19.5	0.00e+00	0	41	102	1048576	7	3928
2026-01-23 11:24:17.11	4.97	25.22	-23.6	-24.7	19.2	0.00e+00	0	41	102	1048576	7	4065
2026-01-23 11:24:20.13	4.42	24.84	-23.7	-24.8	19.1	0.00e+00	0	41	102	1048576	7	4109
2026-01-23 11:24:23.16	3.89	24.47	-23.6	-24.6	19.2	0.00e+00	0	41	102	1048576	7	4044
2026-01-23 11:24:26.17	3.37	24.10	-23.8	-25.1	19.0	0.00e+00	0	41	102	1048576	7	4179
2026-01-23 11:24:29.17	2.86	23.73	-23.4	-24.4	19.3	0.00e+00	0	41	102	1048576	7	3996
2026-01-23 11:24:32.18	2.37	23.36	-23.5	-24.5	19.3	0.00e+00	0	41	102	1048576	7	4024
2026-01-23 11:24:35.19	1.88	23.00	-23.8	-25.1	19.0	0.00e+00	0	41	102	1048576	7	4165
2026-01-23 11:24:38.19	1.41	22.64	-24.0	-25.4	18.8	0.00e+00	0	41	102	1048576	7	4258
2026-01-23 11:24:41.20	0.95	22.29	-24.1	-25.1	18.7	0.00e+00	0	41	102	1048576	8	4066
2026-01-23 11:24:44.20	0.50	21.93	-24.0	-24.9	18.8	0.00e+00	0	41	102	1048576	8	4014
2026-01-23 11:24:47.22	0.06	21.58	-24.0	-24.9	18.8	0.00e+00	0	41	102	1048576	8	4026
2026-01-23 11:24:50.23	359.63	21.23	-24.0	-25.1	18.7	0.00e+00	0	41	102	1048576	8	4068
2026-01-23 11:24:53.23	359.21	20.89	-24.2	-25.5	18.4	0.00e+00	0	41	102	1048576	8	4173
2026-01-23 11:24:56.25	358.80	20.55	-24.4	-25.8	18.3	0.00e+00	0	41	102	1048576	8	4239
2026-01-23 11:24:59.27	358.39	20.21	-24.3	-25.6	18.4	0.00e+00	0	41	102	1048576	8	4193
2026-01-23 11:25:02.28	358.00	19.87	-24.2	-25.4	18.5	0.00e+00	0	41	102	1048576	8	4131
2026-01-23 11:25:05.30	357.62	19.54	-24.3	-25.5	18.4	0.00e+00	0	41	102	1048576	8	4177
2026-01-23 11:25:08.32	357.24	19.21	-24.7	-26.0	17.9	0.00e+00	0	41	102	1048576	9	4185
2026-01-23 11:25:11.33	356.87	18.88	-24.7	-25.6	17.8	0.00e+00	0	41	102	1048576	10	3978
2026-01-23 11:25:14.36	356.51	18.56	-24.8	-25.7	17.7	0.00e+00	0	41	102	1048576	10	4002
2026-01-23 11:25:17.36	356.16	18.24	-24.9	-25.8	17.7	0.00e+00	0	41	102	1048576	10	4024
2026-01-23 11:25:20.37	355.81	17.92	-24.9	-25.9	17.6	0.00e+00	0	42	102	1048576	10	4039
2026-01-23 11:25:23.37	355.48	17.61	-25.0	-26.1	17.5	0.00e+00	0	41	102	1048576	10	4100
2026-01-23 11:25:26.38	355.15	17.30	-25.3	-26.7	17.2	0.00e+00	0	41	102	1048576	10	4247
2026-01-23 11:25:29.39	354.83	16.99	-25.3	-26.7	17.2	0.00e+00	0	41	102	1048576	10	4250
2026-01-23 11:25:32.41	354.51	16.68	-25.7	-27.3	16.6	0.00e+00	0	41	102	1048576	11	4287
2026-01-23 11:25:35.43	354.20	16.38	-25.5	-26.7	16.9	0.00e+00	0	41	102	1048576	11	4128
2026-01-23 11:25:38.44	353.90	16.08	-25.6	-26.9	16.8	0.00e+00	0	41	102	1048576	11	4196
2026-01-23 11:25:41.46	353.60	15.78	-25.6	-26.9	16.7	0.00e+00	0	41	102	1048576	11	4189
2026-01-23 11:25:44.46	353.31	15.49	-25.5	-26.6	16.9	0.00e+00	0	41	102	1048576	11	4123
2026-01-23 11:25:47.48	353.02	15.19	-25.5	-26.7	16.8	0.00e+00	0	41	102	1048576	11	4136
2026-01-23 11:25:50.50	352.74	14.91	-25.6	-26.9	16.7	0.00e+00	0	42	102	1048576	11	4190
2026-01-23 11:25:53.51	352.47	14.62	-25.6	-27.0	16.6	0.00e+00	0	41	102	1048576	11	4213
2026-01-23 11:25:56.53	352.20	14.34	-25.8	-27.4	16.4	0.00e+00	0	42	102	1048576	11	4327
2026-01-23 11:25:59.55	351.93	14.05	-25.9	-27.2	16.1	0.00e+00	0	41	102	1048576	12	4180
2026-01-23 11:26:02.56	351.68	13.78	-26.0	-27.3	16.1	1.10e-06	0	41	102	1048576	12	4183
2026-01-23 11:26:05.58	351.42	13.50	-25.9	-27.1	16.2	0.00e+00	0	41	102	1048576	12	4132
2026-01-23 11:26:08.59	351.17	13.23	-25.9	-27.1	16.1	0.00e+00	0	42	102	1048576	12	4149
2026-01-23 11:26:11.60	350.93	12.96	-26.0	-27.4	16.0	0.00e+00	0	42	102	1048576	12	4220
2026-01-23 11:26:14.60	350.69	12.69	-25.8	-27.0	16.2	0.00e+00	0	41	102	1048576	12	4119
2026-01-23 11:26:17.62	350.46	12.42	-26.0	-27.3	16.0	0.00e+00	0	41	102	1048576	12	4192
2026-01-23 11:26:20.63	350.23	12.16	-26.0	-27.3	16.0	0.00e+00	0	41	102	1048576	12	4206
2026-01-23 11:26:23.64	350.00	11.90	-26.0	-27.4	15.9	0.00e+00	0	41	102	1048576	12	4220
2026-01-23 11:26:26.65	349.78	11.64	-26.1	-27.6	15.8	0.00e+00	0	41	102	1048576	12	4286
2026-01-23 11:26:29.66	349.56	11.39	-26.2	-27.8	15.7	0.00e+00	0	41	102	1048576	12	4324
2026-01-23 11:26:32.68	349.35	11.13	-26.3	-28.0	15.6	0.00e+00	0	41	102	1048576	12	4380
2026-01-23 11:26:35.69	349.14	10.88	-26.4	-28.3	15.3	0.00e+00	0	41	102	1048576	12	4472
2026-01-23 11:26:38.70	348.93	10.63	-26.7	-28.5	14.9	0.00e+00	0	41	102	1048576	13	4419
2026-01-23 11:26:41.72	348.73	10.38	-26.4	-27.7	15.4	1.10e-06	0	42	102	1048576	13	4209
2026-01-23 11:26:44.72	348.53	10.14	-26.5	-27.9	15.2	0.00e+00	0	41	102	1048576	13	4266
2026-01-23 11:26:47.73	348.34	9.89	-26.6	-28.1	15.1	0.00e+00	0	42	102	1048576	13	4316
2026-01-23 11:26:50.73	348.15	9.65	-26.7	-28.5	14.9	0.00e+00	0	42	102	1048576	13	4409
2026-01-23 11:26:53.75	347.96	9.41	-26.9	-28.5	14.6	2.20e-06	0	41	102	1048576	14	4300
2026-01-23 11:26:56.77	347.77	9.18	-26.5	-27.6	15.1	0.00e+00	0	41	102	1048576	14	4065
2026-01-23 11:26:59.79	347.59	8.94	-26.7	-27.9	14.9	1.10e-06	0	41	102	1048576	14	4148
2026-01-23 11:27:02.80	347.41	8.71	-26.9	-28.4	14.6	1.10e-06	0	41	102	1048576	14	4293
2026-01-23 11:27:05.81	347.23	8.47	-26.7	-28.0	14.8	0.00e+00	0	41	102	1048576	14	4172
2026-01-23 11:27:08.81	347.06	8.25	-26.9	-28.4	14.5	2.20e-06	0	41	102	1048576	14	4280
2026-01-23 11:27:11.83	346.89	8.02	-26.9	-28.4	14.5	1.10e-06	0	42	102	1048576	14	4297
2026-01-23 11:27:14.84	346.72	7.79	-26.8	-28.2	14.6	2.20e-06	0	42	102	1048576	14	4234
2026-01-23 11:27:17.85	346.56	7.57	-26.9	-28.4	14.5	1.10e-06	0	42	102	1048576	14	4277
2026-01-23 11:27:20.86	346.40	7.34	-27.0	-28.7	14.2	3.40e-06	0	41	102	1048576	14	4371
2026-01-23 11:27:23.88	346.24	7.12	-27.0	-28.8	14.2	1.10e-06	0	41	102	1048576	14	4398
2026-01-23 11:27:26.90	346.08	6.90	-33.8	-45.2	3.8	8.47e-01	0	42	104	1048576	27	13332

#Closed at: 2026-01-23 11:27:28
#Recorded file [1 MB]: D:/data/31010_260123_141610.dat