passes_logs/2026/01/23/R2M6_AANII_01/R2M6_AANII_01__20260123_093847_FENGYUN_3D_rec.log

#Pass ID: 20260123_093847_FENGYUN 3D
#Satellite: FENGYUN 3D
#Configuration: FENGYUN 3D
#almurnet v.1.7.20240730
#Start time: 2026-01-23 09:38:47

#Version: 2.2.20231116
#Station: R2M6_AANII_01
#Location: 30.233357 lon 59.946436 lat
#TLE: 1 43010U 17072A   26022.47411728  .00000617  00000+0  31375-3 0  9996
#TLE: 2 43010  98.9952 354.4060 0002481  95.7964 264.3494 14.19699924424319

#Time	Az	El	Level	Level2	SNR	BER	BlckErr	Temp	State	Recorded	gain1	gain2
2026-01-23 09:38:47.22	75.19	6.98	-31.9	-37.3	4.4	8.27e-01	0	41	0	0	25	6686
2026-01-23 09:38:49.23	74.94	7.09	-30.6	-33.9	8.6	4.64e-02	0	41	0	0	22	5273
2026-01-23 09:38:51.24	74.70	7.19	-30.5	-33.5	8.9	4.32e-02	0	41	102	1048576	22	5114
2026-01-23 09:38:53.25	74.45	7.29	-30.4	-33.2	9.1	2.69e-02	0	41	102	1048576	22	5003
2026-01-23 09:38:55.26	74.20	7.40	-30.5	-33.6	8.8	2.99e-02	0	41	102	1048576	22	5113
2026-01-23 09:38:57.28	73.95	7.50	-30.2	-33.1	9.5	2.50e-02	0	41	102	1048576	21	5056
2026-01-23 09:38:59.29	73.70	7.60	-29.1	-31.2	11.5	2.03e-03	0	41	102	1048576	19	4585
2026-01-23 09:39:01.30	73.44	7.71	-28.2	-29.9	12.9	8.92e-05	0	41	102	1048576	17	4401
2026-01-23 09:39:03.31	73.19	7.81	-27.7	-29.2	13.7	9.10e-06	0	41	102	1048576	16	4297
2026-01-23 09:39:05.32	72.93	7.91	-27.6	-29.0	13.8	8.00e-06	0	41	102	1048576	16	4234
2026-01-23 09:39:07.33	72.67	8.01	-27.7	-29.3	13.7	1.37e-05	0	41	102	1048576	16	4331
2026-01-23 09:39:09.34	72.40	8.12	-27.6	-29.1	13.8	1.48e-05	0	41	102	1048576	16	4274
2026-01-23 09:39:11.36	72.14	8.22	-28.0	-29.9	13.3	2.28e-05	0	41	102	1048576	16	4516
2026-01-23 09:39:13.37	71.87	8.32	-27.9	-29.7	13.4	3.08e-05	0	41	102	1048576	16	4440
2026-01-23 09:39:15.38	71.61	8.42	-27.7	-29.3	13.8	2.05e-05	0	42	102	1048576	16	4312
2026-01-23 09:39:17.38	71.34	8.52	-27.6	-29.1	13.9	1.02e-05	0	42	102	1048576	16	4260
2026-01-23 09:39:19.39	71.07	8.63	-27.6	-29.1	13.8	1.25e-05	0	42	102	1048576	16	4261
2026-01-23 09:39:21.40	70.79	8.73	-27.4	-28.5	14.2	3.40e-06	0	42	102	1048576	16	4102
2026-01-23 09:39:23.41	70.52	8.83	-27.2	-28.6	14.2	2.20e-06	0	42	102	1048576	15	4254
2026-01-23 09:39:25.42	70.24	8.93	-27.2	-28.7	14.2	3.40e-06	0	42	102	1048576	15	4263
2026-01-23 09:39:27.43	69.96	9.03	-27.1	-28.4	14.4	1.10e-06	0	42	102	1048576	15	4193
2026-01-23 09:39:29.44	69.68	9.13	-27.0	-28.2	14.5	0.00e+00	0	42	102	1048576	15	4120
2026-01-23 09:39:31.45	69.40	9.23	-27.0	-28.2	14.5	0.00e+00	0	42	102	1048576	15	4139
2026-01-23 09:39:33.46	69.11	9.33	-26.9	-28.0	14.7	2.20e-06	0	42	102	1048576	15	4071
2026-01-23 09:39:35.46	68.82	9.43	-27.1	-28.4	14.5	1.10e-06	0	42	102	1048576	15	4186
2026-01-23 09:39:37.46	68.54	9.53	-26.8	-27.7	14.8	0.00e+00	0	42	102	1048576	15	4004
2026-01-23 09:39:39.47	68.25	9.63	-26.9	-28.5	14.7	0.00e+00	0	42	102	1048576	14	4317
2026-01-23 09:39:41.48	67.95	9.72	-26.8	-28.3	14.8	0.00e+00	0	42	102	1048576	14	4267
2026-01-23 09:39:43.49	67.66	9.82	-26.8	-28.3	14.8	0.00e+00	0	42	102	1048576	14	4273
2026-01-23 09:39:45.50	67.36	9.92	-26.9	-28.4	14.8	0.00e+00	0	42	102	1048576	14	4283
2026-01-23 09:39:47.50	67.06	10.02	-26.8	-28.3	14.8	0.00e+00	0	42	102	1048576	14	4269
2026-01-23 09:39:49.51	66.76	10.11	-26.8	-28.2	14.9	0.00e+00	0	42	102	1048576	14	4226
2026-01-23 09:39:51.51	66.46	10.21	-26.9	-28.4	14.8	1.10e-06	0	42	102	1048576	14	4296
2026-01-23 09:39:53.52	66.15	10.31	-26.9	-28.4	14.8	0.00e+00	0	42	102	1048576	14	4276
2026-01-23 09:39:55.53	65.85	10.40	-26.8	-28.2	14.9	0.00e+00	0	42	102	1048576	14	4231
2026-01-23 09:39:57.53	65.54	10.50	-27.0	-28.7	14.7	1.10e-06	0	42	102	1048576	14	4362
2026-01-23 09:39:59.54	65.23	10.59	-26.8	-28.2	14.9	0.00e+00	0	42	102	1048576	14	4234
2026-01-23 09:40:01.55	64.91	10.69	-26.8	-28.1	15.0	0.00e+00	0	42	102	1048576	14	4216
2026-01-23 09:40:03.56	64.60	10.78	-26.7	-28.0	15.1	0.00e+00	0	42	102	1048576	14	4168
2026-01-23 09:40:05.58	64.28	10.87	-26.7	-28.1	15.0	0.00e+00	0	42	102	1048576	14	4197
2026-01-23 09:40:07.59	63.96	10.97	-26.4	-27.3	15.4	0.00e+00	0	42	102	1048576	14	4006
2026-01-23 09:40:09.59	63.64	11.06	-26.5	-27.5	15.4	0.00e+00	0	42	102	1048576	14	4038
2026-01-23 09:40:11.60	63.32	11.15	-26.6	-27.8	15.3	0.00e+00	0	42	102	1048576	14	4094
2026-01-23 09:40:13.60	62.99	11.24	-26.7	-27.8	15.3	1.10e-06	0	42	102	1048576	14	4118
2026-01-23 09:40:15.61	62.66	11.33	-26.6	-27.7	15.4	0.00e+00	0	42	102	1048576	14	4076
2026-01-23 09:40:17.63	62.33	11.42	-26.8	-28.0	15.2	0.00e+00	0	43	102	1048576	14	4169
2026-01-23 09:40:19.63	62.00	11.51	-26.7	-27.8	15.3	0.00e+00	0	42	102	1048576	14	4115
2026-01-23 09:40:21.65	61.67	11.60	-26.6	-27.7	15.4	0.00e+00	0	42	102	1048576	14	4066
2026-01-23 09:40:23.66	61.33	11.69	-26.6	-27.6	15.5	0.00e+00	0	43	102	1048576	14	4041
2026-01-23 09:40:25.66	60.99	11.78	-26.4	-27.1	15.7	0.00e+00	0	43	102	1048576	14	3927
2026-01-23 09:40:27.66	60.66	11.87	-26.4	-27.2	15.7	0.00e+00	0	43	102	1048576	14	3957
2026-01-23 09:40:29.67	60.31	11.95	-26.4	-27.2	15.7	0.00e+00	0	43	102	1048576	14	3958
2026-01-23 09:40:31.68	59.97	12.04	-26.6	-27.7	15.5	0.00e+00	0	43	102	1048576	14	4071
2026-01-23 09:40:33.70	59.62	12.12	-26.5	-27.5	15.5	0.00e+00	0	43	102	1048576	14	4041
2026-01-23 09:40:35.70	59.27	12.21	-26.6	-27.6	15.5	0.00e+00	0	43	102	1048576	14	4054
2026-01-23 09:40:37.71	58.92	12.29	-26.5	-27.4	15.6	0.00e+00	0	43	102	1048576	14	4008
2026-01-23 09:40:39.72	58.57	12.37	-26.4	-27.2	15.7	0.00e+00	0	43	102	1048576	14	3952
2026-01-23 09:40:41.73	58.22	12.45	-26.4	-27.7	15.8	0.00e+00	0	43	102	1048576	13	4173
2026-01-23 09:40:43.73	57.86	12.54	-26.3	-27.4	15.9	0.00e+00	0	43	102	1048576	13	4119
2026-01-23 09:40:45.74	57.50	12.62	-26.2	-27.4	15.9	0.00e+00	0	43	102	1048576	13	4103
2026-01-23 09:40:47.74	57.15	12.69	-26.1	-27.0	16.1	0.00e+00	0	43	102	1048576	13	4014
2026-01-23 09:40:49.74	56.79	12.77	-26.2	-27.4	15.9	0.00e+00	0	43	102	1048576	13	4095
2026-01-23 09:40:51.75	56.42	12.85	-26.1	-27.0	16.2	0.00e+00	0	43	102	1048576	13	3996
2026-01-23 09:40:53.76	56.06	12.93	-25.9	-26.6	16.4	0.00e+00	0	43	102	1048576	13	3906
2026-01-23 09:40:55.78	55.69	13.00	-25.8	-27.0	16.4	0.00e+00	0	43	102	1048576	12	4097
2026-01-23 09:40:57.79	55.32	13.08	-26.2	-27.7	16.0	0.00e+00	0	43	102	1048576	12	4294
2026-01-23 09:40:59.80	54.94	13.15	-26.3	-28.0	15.9	0.00e+00	0	43	102	1048576	12	4381
2026-01-23 09:41:01.81	54.57	13.23	-25.9	-27.2	16.3	0.00e+00	0	43	102	1048576	12	4163
2026-01-23 09:41:03.81	54.20	13.30	-26.1	-27.5	16.2	0.00e+00	0	43	102	1048576	12	4231
2026-01-23 09:41:05.82	53.82	13.37	-25.9	-27.2	16.3	0.00e+00	0	43	102	1048576	12	4158
2026-01-23 09:41:07.83	53.44	13.44	-26.2	-27.7	16.1	0.00e+00	0	43	102	1048576	12	4296
2026-01-23 09:41:09.85	53.06	13.51	-26.1	-27.5	16.1	0.00e+00	0	43	102	1048576	12	4254
2026-01-23 09:41:11.85	52.68	13.58	-26.1	-27.6	16.1	0.00e+00	0	43	102	1048576	12	4263
2026-01-23 09:41:13.85	52.29	13.64	-26.2	-27.7	16.0	0.00e+00	0	43	102	1048576	12	4308
2026-01-23 09:41:15.86	51.91	13.71	-25.9	-27.2	16.4	0.00e+00	0	43	102	1048576	12	4159
2026-01-23 09:41:17.88	51.52	13.77	-25.9	-27.1	16.4	0.00e+00	0	43	102	1048576	12	4126
2026-01-23 09:41:19.89	51.13	13.84	-26.1	-27.5	16.2	0.00e+00	0	43	102	1048576	12	4242
2026-01-23 09:41:21.89	50.74	13.90	-26.1	-27.6	16.1	0.00e+00	0	43	102	1048576	12	4270
2026-01-23 09:41:23.90	50.35	13.96	-26.2	-27.8	16.0	0.00e+00	0	43	102	1048576	12	4317
2026-01-23 09:41:25.91	49.95	14.02	-26.2	-27.8	16.0	0.00e+00	0	43	102	1048576	12	4315
2026-01-23 09:41:27.92	49.56	14.08	-26.1	-27.1	16.1	0.00e+00	0	43	102	1048576	13	4023
2026-01-23 09:41:29.93	49.16	14.14	-25.6	-26.5	16.8	0.00e+00	0	43	102	1048576	12	3982
2026-01-23 09:41:31.93	48.76	14.19	-25.8	-27.0	16.5	0.00e+00	0	43	102	1048576	12	4095
2026-01-23 09:41:33.94	48.36	14.25	-25.8	-26.8	16.6	0.00e+00	0	43	102	1048576	12	4062
2026-01-23 09:41:35.95	47.96	14.30	-25.9	-27.1	16.4	0.00e+00	0	43	102	1048576	12	4127
2026-01-23 09:41:37.95	47.56	14.35	-25.7	-26.8	16.6	0.00e+00	0	43	102	1048576	12	4051
2026-01-23 09:41:39.96	47.15	14.40	-26.0	-27.4	16.2	0.00e+00	0	43	102	1048576	12	4222
2026-01-23 09:41:41.96	46.75	14.45	-25.7	-26.6	16.7	0.00e+00	0	43	102	1048576	12	3994
2026-01-23 09:41:43.97	46.34	14.50	-25.7	-26.6	16.7	0.00e+00	0	43	102	1048576	12	4005
2026-01-23 09:41:45.98	45.93	14.55	-25.7	-26.7	16.7	0.00e+00	0	43	102	1048576	12	4024
2026-01-23 09:41:47.99	45.52	14.59	-25.4	-26.0	17.0	0.00e+00	0	43	102	1048576	12	3869
2026-01-23 09:41:49.99	45.11	14.64	-25.5	-26.1	17.0	0.00e+00	0	43	102	1048576	12	3892
2026-01-23 09:41:52.01	44.70	14.68	-25.4	-26.1	17.0	0.00e+00	0	43	102	1048576	12	3881
2026-01-23 09:41:54.02	44.28	14.72	-25.7	-26.6	16.7	0.00e+00	0	43	102	1048576	12	3998
2026-01-23 09:41:56.04	43.86	14.76	-25.7	-26.7	16.6	0.00e+00	0	43	102	1048576	12	4026
2026-01-23 09:41:58.05	43.45	14.80	-25.8	-27.0	16.5	0.00e+00	0	43	102	1048576	12	4096
2026-01-23 09:42:00.06	43.03	14.84	-25.6	-26.4	16.8	0.00e+00	0	43	102	1048576	12	3953
2026-01-23 09:42:02.06	42.61	14.88	-25.6	-26.5	16.7	0.00e+00	0	43	102	1048576	12	3977
2026-01-23 09:42:04.07	42.20	14.91	-25.6	-26.5	16.7	0.00e+00	0	43	102	1048576	12	3981
2026-01-23 09:42:06.08	41.77	14.94	-25.3	-25.9	17.1	0.00e+00	0	43	102	1048576	12	3821
2026-01-23 09:42:08.09	41.35	14.97	-25.4	-26.0	17.0	0.00e+00	0	43	102	1048576	12	3860
2026-01-23 09:42:10.09	40.93	15.00	-25.5	-26.3	16.9	0.00e+00	0	43	102	1048576	12	3923
2026-01-23 09:42:12.11	40.51	15.03	-25.5	-26.1	16.9	0.00e+00	0	43	102	1048576	12	3895
2026-01-23 09:42:14.13	40.08	15.06	-25.4	-26.0	17.0	0.00e+00	0	43	102	1048576	12	3851
2026-01-23 09:42:16.13	39.66	15.08	-25.4	-26.4	17.1	0.00e+00	0	43	102	1048576	11	4059
2026-01-23 09:42:18.14	39.24	15.11	-25.4	-26.5	17.1	0.00e+00	0	43	102	1048576	11	4081
2026-01-23 09:42:20.14	38.81	15.13	-25.4	-26.6	17.0	0.00e+00	0	43	102	1048576	11	4111
2026-01-23 09:42:22.14	38.39	15.15	-25.5	-26.6	17.0	0.00e+00	0	43	102	1048576	11	4115
2026-01-23 09:42:24.14	37.96	15.17	-25.6	-26.9	16.9	0.00e+00	0	43	102	1048576	11	4197
2026-01-23 09:42:26.15	37.54	15.18	-25.4	-26.6	17.0	0.00e+00	0	43	102	1048576	11	4113
2026-01-23 09:42:28.16	37.11	15.20	-25.5	-26.8	16.9	0.00e+00	0	43	102	1048576	11	4175
2026-01-23 09:42:30.16	36.68	15.21	-25.6	-27.0	16.8	0.00e+00	0	43	102	1048576	11	4219
2026-01-23 09:42:32.17	36.25	15.23	-25.3	-26.2	17.2	0.00e+00	0	43	102	1048576	11	4007
2026-01-23 09:42:34.18	35.82	15.24	-25.3	-26.3	17.2	0.00e+00	0	43	102	1048576	11	4024
2026-01-23 09:42:36.19	35.39	15.25	-25.4	-26.5	17.1	0.00e+00	0	43	102	1048576	11	4089
2026-01-23 09:42:38.20	34.97	15.25	-25.5	-26.8	16.9	0.00e+00	0	43	102	1048576	11	4153
2026-01-23 09:42:40.21	34.54	15.26	-25.7	-27.1	16.8	0.00e+00	0	43	102	1048576	11	4232
2026-01-23 09:42:42.21	34.11	15.26	-25.6	-27.0	16.8	0.00e+00	0	43	102	1048576	11	4209
2026-01-23 09:42:44.22	33.68	15.27	-25.5	-26.6	17.0	0.00e+00	0	43	102	1048576	11	4124
2026-01-23 09:42:46.23	33.25	15.27	-25.5	-26.7	16.9	0.00e+00	0	43	102	1048576	11	4146
2026-01-23 09:42:48.24	32.82	15.27	-25.3	-26.3	17.2	0.00e+00	0	43	102	1048576	11	4047
2026-01-23 09:42:50.25	32.39	15.27	-25.3	-26.3	17.2	0.00e+00	0	43	102	1048576	11	4043
2026-01-23 09:42:52.26	31.96	15.26	-25.4	-26.6	17.0	0.00e+00	0	43	102	1048576	11	4101
2026-01-23 09:42:54.27	31.53	15.26	-25.2	-26.1	17.3	0.00e+00	0	43	102	1048576	11	3996
2026-01-23 09:42:56.28	31.10	15.25	-25.2	-26.2	17.3	0.00e+00	0	43	102	1048576	11	3996
2026-01-23 09:42:58.30	30.67	15.24	-25.2	-26.1	17.3	0.00e+00	0	43	102	1048576	11	3979
2026-01-23 09:43:00.29	30.24	15.23	-25.3	-26.3	17.2	0.00e+00	0	43	102	1048576	11	4032
2026-01-23 09:43:02.30	29.81	15.22	-25.5	-26.7	17.0	0.00e+00	0	44	102	1048576	11	4141
2026-01-23 09:43:04.32	29.38	15.21	-25.5	-26.8	16.9	0.00e+00	0	43	102	1048576	11	4162
2026-01-23 09:43:06.33	28.96	15.19	-25.5	-26.8	16.9	0.00e+00	0	43	102	1048576	11	4159
2026-01-23 09:43:08.34	28.53	15.17	-25.4	-26.5	17.1	0.00e+00	0	43	102	1048576	11	4081
2026-01-23 09:43:10.35	28.10	15.16	-25.4	-26.5	17.1	0.00e+00	0	43	102	1048576	11	4082
2026-01-23 09:43:12.36	27.68	15.14	-25.4	-26.5	17.1	0.00e+00	0	44	102	1048576	11	4077
2026-01-23 09:43:14.37	27.25	15.12	-25.4	-26.5	17.1	0.00e+00	0	43	102	1048576	11	4076
2026-01-23 09:43:16.37	26.83	15.09	-25.4	-26.5	17.1	0.00e+00	0	43	102	1048576	11	4080
2026-01-23 09:43:18.38	26.40	15.07	-25.2	-26.1	17.2	0.00e+00	0	43	102	1048576	11	3992
2026-01-23 09:43:20.40	25.98	15.04	-25.5	-26.6	17.0	0.00e+00	0	43	102	1048576	11	4122
2026-01-23 09:43:22.41	25.55	15.01	-25.2	-26.1	17.3	0.00e+00	0	43	102	1048576	11	3982
2026-01-23 09:43:24.42	25.13	14.99	-25.1	-25.9	17.4	0.00e+00	0	43	102	1048576	11	3924
2026-01-23 09:43:26.43	24.71	14.96	-25.2	-26.1	17.3	0.00e+00	0	43	102	1048576	11	3979
2026-01-23 09:43:28.43	24.29	14.92	-25.4	-26.5	17.1	0.00e+00	0	43	102	1048576	11	4080
2026-01-23 09:43:30.44	23.87	14.89	-25.5	-26.8	16.9	0.00e+00	0	43	102	1048576	11	4160
2026-01-23 09:43:32.46	23.45	14.85	-25.5	-26.8	16.9	0.00e+00	0	43	102	1048576	11	4161
2026-01-23 09:43:34.47	23.04	14.82	-25.4	-26.6	17.0	0.00e+00	0	43	102	1048576	11	4107
2026-01-23 09:43:36.49	22.62	14.78	-25.4	-26.5	17.0	0.00e+00	0	43	102	1048576	11	4080
2026-01-23 09:43:38.50	22.20	14.74	-25.4	-26.6	17.0	0.00e+00	0	43	102	1048576	11	4114
2026-01-23 09:43:40.50	21.79	14.70	-25.5	-26.6	17.0	0.00e+00	0	43	102	1048576	11	4123
2026-01-23 09:43:42.52	21.38	14.66	-25.5	-26.6	17.0	0.00e+00	0	43	102	1048576	11	4114
2026-01-23 09:43:44.52	20.97	14.61	-25.5	-26.8	16.9	0.00e+00	0	43	102	1048576	11	4152
2026-01-23 09:43:46.54	20.55	14.57	-25.5	-26.8	16.9	0.00e+00	0	43	102	1048576	11	4156
2026-01-23 09:43:48.55	20.14	14.52	-25.4	-26.4	17.1	0.00e+00	0	43	102	1048576	11	4066
2026-01-23 09:43:50.56	19.74	14.47	-25.5	-26.7	16.9	0.00e+00	0	43	102	1048576	11	4148
2026-01-23 09:43:52.57	19.33	14.42	-25.7	-27.1	16.7	0.00e+00	0	43	102	1048576	11	4243
2026-01-23 09:43:54.58	18.93	14.37	-25.7	-27.1	16.7	0.00e+00	0	43	102	1048576	11	4250
2026-01-23 09:43:56.59	18.52	14.32	-25.7	-27.2	16.6	0.00e+00	0	43	102	1048576	11	4270
2026-01-23 09:43:58.60	18.12	14.27	-25.9	-27.6	16.4	0.00e+00	0	43	102	1048576	11	4375
2026-01-23 09:44:00.60	17.72	14.22	-25.9	-27.6	16.4	0.00e+00	0	43	102	1048576	11	4370
2026-01-23 09:44:02.61	17.32	14.16	-25.8	-27.4	16.5	0.00e+00	0	43	102	1048576	11	4310
2026-01-23 09:44:04.62	16.92	14.10	-25.7	-27.1	16.7	0.00e+00	0	43	102	1048576	11	4231
2026-01-23 09:44:06.62	16.53	14.04	-25.9	-27.1	16.3	0.00e+00	0	43	102	1048576	12	4136
2026-01-23 09:44:08.63	16.14	13.99	-25.8	-27.0	16.4	0.00e+00	0	43	102	1048576	12	4106
2026-01-23 09:44:10.64	15.74	13.92	-25.7	-26.7	16.6	0.00e+00	0	43	102	1048576	12	4019
2026-01-23 09:44:12.65	15.35	13.86	-25.9	-27.2	16.3	0.00e+00	0	43	102	1048576	12	4146
2026-01-23 09:44:14.66	14.96	13.80	-25.9	-27.1	16.3	0.00e+00	0	43	102	1048576	12	4148
2026-01-23 09:44:16.66	14.58	13.74	-26.0	-27.3	16.2	0.00e+00	0	43	102	1048576	12	4185
2026-01-23 09:44:18.67	14.19	13.67	-26.2	-27.8	15.9	0.00e+00	0	43	102	1048576	12	4315
2026-01-23 09:44:20.68	13.81	13.60	-26.0	-27.3	16.2	0.00e+00	0	44	102	1048576	12	4198
2026-01-23 09:44:22.68	13.43	13.54	-25.9	-27.2	16.2	0.00e+00	0	44	102	1048576	12	4172
2026-01-23 09:44:24.69	13.04	13.47	-26.1	-27.6	16.0	0.00e+00	0	43	102	1048576	12	4273
2026-01-23 09:44:26.69	12.67	13.40	-26.1	-27.5	16.0	0.00e+00	0	43	102	1048576	12	4252
2026-01-23 09:44:28.69	12.29	13.33	-26.2	-27.8	15.9	0.00e+00	0	43	102	1048576	12	4304
2026-01-23 09:44:30.69	11.92	13.26	-26.2	-27.8	15.9	0.00e+00	0	43	102	1048576	12	4315
2026-01-23 09:44:32.69	11.55	13.19	-25.9	-27.0	16.3	0.00e+00	0	43	102	1048576	12	4111
2026-01-23 09:44:34.70	11.18	13.11	-25.9	-27.1	16.3	0.00e+00	0	43	102	1048576	12	4133
2026-01-23 09:44:36.71	10.81	13.04	-25.9	-27.1	16.3	0.00e+00	0	43	102	1048576	12	4143
2026-01-23 09:44:38.71	10.44	12.96	-26.0	-27.4	16.1	0.00e+00	0	43	102	1048576	12	4200
2026-01-23 09:44:40.72	10.07	12.89	-25.9	-27.2	16.2	0.00e+00	0	43	102	1048576	12	4161
2026-01-23 09:44:42.73	9.71	12.81	-26.0	-27.3	16.1	0.00e+00	0	43	102	1048576	12	4181
2026-01-23 09:44:44.74	9.35	12.73	-25.9	-27.2	16.2	0.00e+00	0	43	102	1048576	12	4151
2026-01-23 09:44:46.75	8.99	12.65	-25.8	-26.9	16.4	0.00e+00	0	43	102	1048576	12	4079
2026-01-23 09:44:48.77	8.63	12.57	-25.9	-27.2	16.3	0.00e+00	0	44	102	1048576	12	4162
2026-01-23 09:44:50.77	8.27	12.49	-26.0	-27.2	16.2	0.00e+00	0	43	102	1048576	12	4167
2026-01-23 09:44:52.78	7.92	12.41	-26.0	-27.2	16.2	0.00e+00	0	43	102	1048576	12	4161
2026-01-23 09:44:54.78	7.57	12.33	-26.0	-27.4	16.1	0.00e+00	0	43	102	1048576	12	4225
2026-01-23 09:44:56.78	7.22	12.25	-26.2	-27.7	15.9	0.00e+00	0	43	102	1048576	12	4296
2026-01-23 09:44:58.79	6.87	12.16	-26.3	-27.9	15.8	0.00e+00	0	43	102	1048576	12	4367
2026-01-23 09:45:00.80	6.53	12.08	-26.3	-28.0	15.7	0.00e+00	0	43	102	1048576	12	4386
2026-01-23 09:45:02.81	6.18	11.99	-26.1	-27.5	16.0	0.00e+00	0	43	102	1048576	12	4229
2026-01-23 09:45:04.81	5.84	11.91	-26.2	-27.8	15.8	0.00e+00	0	44	102	1048576	12	4315
2026-01-23 09:45:06.82	5.50	11.82	-26.3	-28.1	15.7	0.00e+00	0	44	102	1048576	12	4393
2026-01-23 09:45:08.84	5.16	11.73	-26.3	-28.0	15.7	0.00e+00	0	44	102	1048576	12	4373
2026-01-23 09:45:10.85	4.83	11.64	-26.3	-27.9	15.8	0.00e+00	0	43	102	1048576	12	4355
2026-01-23 09:45:12.86	4.49	11.56	-26.3	-28.0	15.7	0.00e+00	0	43	102	1048576	12	4374
2026-01-23 09:45:14.86	4.16	11.47	-26.4	-28.3	15.5	0.00e+00	0	43	102	1048576	12	4467
2026-01-23 09:45:16.88	3.83	11.38	-26.4	-28.3	15.5	0.00e+00	0	44	102	1048576	12	4464
2026-01-23 09:45:18.88	3.51	11.29	-26.5	-28.0	15.4	0.00e+00	0	43	102	1048576	13	4258
2026-01-23 09:45:20.90	3.18	11.20	-26.5	-27.9	15.5	0.00e+00	0	43	102	1048576	13	4237
2026-01-23 09:45:22.91	2.86	11.10	-26.6	-28.2	15.3	0.00e+00	0	43	102	1048576	13	4318
2026-01-23 09:45:24.91	2.54	11.01	-26.6	-28.2	15.3	0.00e+00	0	43	102	1048576	13	4313
2026-01-23 09:45:26.92	2.22	10.92	-26.4	-27.8	15.5	0.00e+00	0	43	102	1048576	13	4224
2026-01-23 09:45:28.94	1.90	10.83	-26.2	-27.3	15.8	0.00e+00	0	43	102	1048576	13	4091
2026-01-23 09:45:30.94	1.58	10.73	-26.3	-27.6	15.6	0.00e+00	0	43	102	1048576	13	4160
2026-01-23 09:45:32.95	1.27	10.64	-26.6	-28.1	15.3	0.00e+00	0	44	102	1048576	13	4307
2026-01-23 09:45:34.96	0.96	10.54	-26.5	-27.9	15.4	0.00e+00	0	43	102	1048576	13	4246
2026-01-23 09:45:36.98	0.65	10.45	-26.7	-28.4	15.1	1.10e-06	0	43	102	1048576	13	4383
2026-01-23 09:45:38.99	0.34	10.35	-26.7	-28.4	15.1	0.00e+00	0	43	102	1048576	13	4390
2026-01-23 09:45:40.99	0.04	10.26	-26.7	-28.3	15.1	1.10e-06	0	43	102	1048576	13	4351
2026-01-23 09:45:42.99	359.74	10.16	-26.7	-28.4	15.1	0.00e+00	0	44	102	1048576	13	4372
2026-01-23 09:45:45.01	359.43	10.06	-26.9	-28.8	14.9	0.00e+00	0	43	102	1048576	13	4507
2026-01-23 09:45:47.02	359.14	9.97	-26.8	-28.7	14.9	0.00e+00	0	44	102	1048576	13	4456
2026-01-23 09:45:49.02	358.84	9.87	-27.3	-29.2	14.4	0.00e+00	0	44	102	1048576	14	4480
2026-01-23 09:45:51.03	358.55	9.77	-26.9	-28.4	14.8	0.00e+00	0	44	102	1048576	14	4277
2026-01-23 09:45:53.04	358.25	9.67	-27.0	-28.5	14.7	0.00e+00	0	43	102	1048576	14	4302
2026-01-23 09:45:55.06	357.96	9.58	-27.0	-28.7	14.6	0.00e+00	0	44	102	1048576	14	4355
2026-01-23 09:45:57.07	357.67	9.48	-26.8	-28.1	14.9	0.00e+00	0	43	102	1048576	14	4195
2026-01-23 09:45:59.08	357.38	9.38	-27.1	-28.8	14.6	1.10e-06	0	44	102	1048576	14	4371
2026-01-23 09:46:01.09	357.10	9.28	-27.1	-28.8	14.5	0.00e+00	0	44	102	1048576	14	4385
2026-01-23 09:46:03.10	356.82	9.18	-26.9	-28.5	14.7	0.00e+00	0	44	102	1048576	14	4290
2026-01-23 09:46:05.11	356.54	9.08	-26.9	-28.4	14.8	0.00e+00	0	44	102	1048576	14	4281
2026-01-23 09:46:07.12	356.26	8.98	-26.9	-28.4	14.8	0.00e+00	0	43	102	1048576	14	4261
2026-01-23 09:46:09.14	355.98	8.88	-27.1	-28.9	14.5	0.00e+00	0	44	102	1048576	14	4407
2026-01-23 09:46:11.15	355.70	8.78	-27.3	-29.2	14.2	3.40e-06	0	44	102	1048576	14	4507
2026-01-23 09:46:13.15	355.43	8.68	-27.3	-29.2	14.2	3.40e-06	0	44	102	1048576	14	4519
2026-01-23 09:46:15.16	355.16	8.58	-27.0	-28.7	14.5	2.20e-06	0	43	102	1048576	14	4363
2026-01-23 09:46:17.17	354.89	8.47	-27.2	-29.0	14.3	6.80e-06	0	44	102	1048576	14	4460
2026-01-23 09:46:19.17	354.63	8.37	-27.3	-29.3	14.1	6.80e-06	0	43	102	1048576	14	4533
2026-01-23 09:46:21.18	354.36	8.27	-27.2	-29.0	14.3	0.00e+00	0	44	102	1048576	14	4451
2026-01-23 09:46:23.19	354.10	8.17	-27.2	-29.2	14.2	4.50e-06	0	43	102	1048576	14	4494
2026-01-23 09:46:25.21	353.83	8.07	-27.1	-29.0	14.3	0.00e+00	0	44	102	1048576	14	4436
2026-01-23 09:46:27.22	353.58	7.97	-27.2	-29.0	14.3	1.10e-06	0	43	102	1048576	14	4456
2026-01-23 09:46:29.23	353.32	7.86	-27.3	-29.4	14.1	0.00e+00	0	43	102	1048576	14	4565
2026-01-23 09:46:31.24	353.06	7.76	-27.3	-29.2	14.1	0.00e+00	0	44	102	1048576	14	4506
2026-01-23 09:46:33.25	352.81	7.66	-27.3	-29.3	14.1	2.20e-06	0	44	102	1048576	14	4534
2026-01-23 09:46:35.25	352.56	7.56	-27.2	-29.2	14.2	5.70e-06	0	43	102	1048576	14	4510
2026-01-23 09:46:37.26	352.31	7.45	-27.5	-29.8	13.8	1.02e-05	0	43	102	1048576	14	4678
2026-01-23 09:46:39.28	352.06	7.35	-27.2	-29.2	14.1	2.20e-06	0	44	102	1048576	14	4511
2026-01-23 09:46:41.29	351.81	7.25	-27.3	-29.4	13.9	8.00e-06	0	44	102	1048576	14	4585
2026-01-23 09:46:43.29	351.57	7.14	-27.6	-29.6	13.5	1.37e-05	0	43	102	1048576	15	4506
2026-01-23 09:46:45.30	351.32	7.04	-28.9	-31.7	12.0	6.80e-06	0	44	102	1048576	17	4970
2026-01-23 09:46:47.30	351.08	6.94	-33.7	-45.0	3.8	8.47e-01	0	43	104	1048576	27	13205

#Closed at: 2026-01-23 09:46:48
#Recorded file [1 MB]: D:/data/31010_260123_123849.dat