passes_logs/2026/01/23/R2M6_AANII_01/R2M6_AANII_01__20260123_101752_SUOMI_NPP_rec.log

#Pass ID: 20260123_101752_SUOMI NPP
#Satellite: SUOMI NPP
#Configuration: NPP
#almurnet v.1.7.20240730
#Start time: 2026-01-23 10:17:54

#Version: 2.2.20231116
#Station: R2M6_AANII_01
#Location: 30.233357 lon 59.946436 lat
#TLE: 1 37849U 11061A   26022.50498765  .00000208  00000+0  11976-3 0  9992
#TLE: 2 37849  98.7820 324.4892 0002275  50.8149 309.3229 14.19528284737775

#Time	Az	El	Level	Level2	SNR	BER	BlckErr	Temp	State	Recorded	gain1	gain2
2026-01-23 10:17:54.73	157.07	7.14	-31.0	-37.6	4.7	1.36e+00	0	41	0	0	22	7648
2026-01-23 10:17:57.76	157.07	7.37	-31.1	-36.6	6.8	1.81e-01	0	41	102	1048576	23	6777
2026-01-23 10:18:00.78	157.07	7.61	-31.3	-35.6	8.1	6.21e-02	0	41	102	1048576	23	5911
2026-01-23 10:18:03.79	157.06	7.85	-31.2	-35.2	8.4	5.02e-02	0	41	102	1048576	23	5700
2026-01-23 10:18:06.79	157.06	8.09	-30.8	-33.8	9.4	1.81e-02	0	41	102	1048576	23	5099
2026-01-23 10:18:09.80	157.06	8.34	-30.7	-33.9	9.8	1.21e-02	0	41	102	1048576	22	5203
2026-01-23 10:18:12.79	157.06	8.59	-30.7	-33.8	9.9	1.04e-02	0	41	102	1048576	22	5161
2026-01-23 10:18:15.80	157.05	8.84	-30.7	-33.5	10.3	6.37e-03	0	41	102	1048576	22	4959
2026-01-23 10:18:18.81	157.05	9.09	-30.8	-33.7	10.2	6.22e-03	0	42	102	1048576	22	5042
2026-01-23 10:18:21.83	157.05	9.34	-30.9	-33.7	10.3	5.48e-03	0	42	102	1048576	22	4989
2026-01-23 10:18:24.84	157.04	9.60	-30.9	-33.8	10.3	5.46e-03	0	42	102	1048576	22	5006
2026-01-23 10:18:27.86	157.04	9.86	-31.0	-34.1	10.1	6.04e-03	0	42	102	1048576	22	5140
2026-01-23 10:18:30.87	157.03	10.12	-31.0	-33.9	10.3	5.01e-03	0	42	102	1048576	22	5070
2026-01-23 10:18:33.90	157.03	10.39	-30.9	-33.7	10.4	4.82e-03	0	42	102	1048576	22	4976
2026-01-23 10:18:36.91	157.02	10.66	-30.7	-33.0	11.0	2.45e-03	0	42	102	1048576	22	4698
2026-01-23 10:18:39.92	157.02	10.93	-30.6	-32.8	11.2	1.51e-03	0	42	102	1048576	22	4611
2026-01-23 10:18:42.93	157.01	11.21	-30.5	-32.2	11.6	7.82e-04	0	42	102	1048576	22	4402
2026-01-23 10:18:45.94	157.01	11.49	-30.4	-32.0	11.8	5.17e-04	0	42	102	1048576	22	4342
2026-01-23 10:18:48.95	157.00	11.77	-30.3	-32.2	12.0	3.29e-04	0	42	102	1048576	21	4507
2026-01-23 10:18:51.97	156.99	12.05	-30.3	-32.4	11.9	3.68e-04	0	42	102	1048576	21	4578
2026-01-23 10:18:54.98	156.99	12.34	-30.4	-32.6	11.7	4.87e-04	0	42	102	1048576	21	4640
2026-01-23 10:18:57.99	156.98	12.63	-30.4	-32.6	11.7	4.62e-04	0	42	102	1048576	21	4658
2026-01-23 10:19:01.01	156.97	12.93	-30.3	-32.3	12.0	2.66e-04	0	42	102	1048576	21	4539
2026-01-23 10:19:04.02	156.97	13.23	-30.4	-32.6	11.8	2.88e-04	0	42	102	1048576	21	4641
2026-01-23 10:19:07.04	156.96	13.53	-30.3	-32.2	12.1	2.17e-04	0	42	102	1048576	21	4480
2026-01-23 10:19:10.06	156.95	13.84	-30.2	-31.8	12.4	1.51e-04	0	42	102	1048576	21	4324
2026-01-23 10:19:13.06	156.94	14.14	-30.2	-31.8	12.5	1.30e-04	0	42	102	1048576	21	4308
2026-01-23 10:19:16.07	156.93	14.46	-30.3	-31.9	12.5	1.01e-04	0	42	102	1048576	21	4346
2026-01-23 10:19:19.08	156.92	14.78	-30.3	-31.8	12.5	1.01e-04	0	42	102	1048576	21	4318
2026-01-23 10:19:22.10	156.91	15.10	-30.1	-31.4	12.9	5.18e-05	0	43	102	1048576	21	4160
2026-01-23 10:19:25.11	156.90	15.43	-30.0	-31.0	13.2	1.67e-05	0	43	102	1048576	21	4033
2026-01-23 10:19:28.12	156.89	15.76	-29.8	-30.6	13.5	1.06e-05	0	43	102	1048576	21	3919
2026-01-23 10:19:31.13	156.88	16.09	-29.7	-30.7	13.8	8.30e-06	0	43	102	1048576	20	4025
2026-01-23 10:19:34.14	156.87	16.43	-29.8	-31.0	13.6	1.22e-05	0	42	102	1048576	20	4128
2026-01-23 10:19:37.14	156.86	16.78	-29.9	-31.2	13.4	1.67e-05	0	42	102	1048576	20	4193
2026-01-23 10:19:40.16	156.85	17.13	-30.0	-31.4	13.3	2.21e-05	0	43	102	1048576	20	4263
2026-01-23 10:19:43.17	156.83	17.48	-29.9	-31.3	13.4	2.05e-05	0	43	102	1048576	20	4230
2026-01-23 10:19:46.18	156.82	17.84	-29.9	-31.3	13.4	1.37e-05	0	42	102	1048576	20	4222
2026-01-23 10:19:49.20	156.80	18.21	-30.0	-31.5	13.3	1.75e-05	0	43	102	1048576	20	4270
2026-01-23 10:19:52.20	156.79	18.58	-30.0	-31.6	13.3	1.67e-05	0	42	102	1048576	20	4297
2026-01-23 10:19:55.21	156.77	18.96	-30.0	-31.4	13.5	1.14e-05	0	43	102	1048576	20	4227
2026-01-23 10:19:58.23	156.76	19.34	-30.0	-31.3	13.5	9.10e-06	0	43	102	1048576	20	4215
2026-01-23 10:20:01.24	156.74	19.73	-30.1	-31.6	13.4	1.29e-05	0	43	102	1048576	20	4275
2026-01-23 10:20:04.25	156.72	20.12	-30.2	-32.0	13.1	4.42e-05	0	43	102	1048576	20	4431
2026-01-23 10:20:07.26	156.71	20.52	-30.2	-32.1	13.0	4.11e-05	0	43	102	1048576	20	4469
2026-01-23 10:20:10.27	156.69	20.93	-30.3	-32.2	13.0	1.83e-05	0	43	102	1048576	20	4501
2026-01-23 10:20:13.29	156.67	21.35	-30.3	-32.1	13.1	2.21e-05	0	43	102	1048576	20	4452
2026-01-23 10:20:16.30	156.65	21.77	-30.2	-31.8	13.3	3.12e-05	0	43	102	1048576	20	4336
2026-01-23 10:20:19.31	156.63	22.20	-30.3	-32.1	13.1	3.35e-05	0	43	102	1048576	20	4446
2026-01-23 10:20:22.32	156.61	22.63	-30.3	-32.1	13.1	4.19e-05	0	43	102	1048576	20	4445
2026-01-23 10:20:25.33	156.58	23.08	-30.2	-31.9	13.3	1.83e-05	0	43	102	1048576	20	4381
2026-01-23 10:20:28.33	156.56	23.53	-29.7	-30.7	14.1	6.10e-06	0	43	102	1048576	20	4006
2026-01-23 10:20:31.34	156.54	23.99	-29.6	-30.4	14.2	7.00e-07	0	43	102	1048576	20	3922
2026-01-23 10:20:34.36	156.51	24.45	-29.7	-30.5	14.2	7.00e-07	0	43	102	1048576	20	3951
2026-01-23 10:20:37.38	156.48	24.93	-29.8	-30.7	14.1	1.50e-06	0	43	102	1048576	20	4011
2026-01-23 10:20:40.39	156.46	25.42	-29.5	-30.0	14.6	0.00e+00	0	43	102	1048576	20	3818
2026-01-23 10:20:43.40	156.43	25.91	-29.2	-29.6	15.2	1.50e-06	0	43	102	1048576	19	3801
2026-01-23 10:20:46.41	156.40	26.41	-29.3	-30.1	15.0	1.50e-06	0	43	102	1048576	19	3908
2026-01-23 10:20:49.42	156.36	26.93	-29.9	-31.4	14.1	1.50e-06	0	43	102	1048576	19	4291
2026-01-23 10:20:52.45	156.33	27.45	-30.2	-31.8	13.6	6.10e-06	0	43	102	1048576	20	4321
2026-01-23 10:20:55.46	156.30	27.98	-30.2	-31.8	13.5	1.14e-05	0	43	102	1048576	20	4327
2026-01-23 10:20:58.47	156.26	28.53	-30.0	-31.2	13.9	1.06e-05	0	43	102	1048576	20	4141
2026-01-23 10:21:01.48	156.22	29.08	-30.4	-31.9	13.2	3.43e-05	0	43	102	1048576	21	4253
2026-01-23 10:21:04.49	156.19	29.64	-31.3	-33.8	11.6	2.30e-04	0	43	102	1048576	22	4832
2026-01-23 10:21:07.50	156.14	30.22	-31.3	-33.8	11.6	8.27e-04	0	43	102	1048576	22	4803
2026-01-23 10:21:10.49	156.10	30.80	-31.3	-33.2	11.6	1.12e-03	0	43	102	1048576	23	4513
2026-01-23 10:21:13.50	156.06	31.40	-31.8	-35.1	10.3	4.14e-03	0	43	102	1048576	23	5226
2026-01-23 10:21:16.51	156.01	32.02	-32.7	-37.4	7.8	5.91e-02	0	43	102	1048576	25	6186
2026-01-23 10:21:19.52	155.96	32.64	-32.7	-37.5	7.8	7.27e-02	0	43	102	1048576	25	6247
2026-01-23 10:21:22.54	155.91	33.28	-32.5	-36.3	8.7	4.32e-02	0	43	102	1048576	25	5618
2026-01-23 10:21:25.55	155.86	33.94	-32.2	-35.4	9.3	1.57e-02	0	43	102	1048576	25	5200
2026-01-23 10:21:28.56	155.80	34.60	-31.7	-34.1	10.7	4.51e-03	0	43	102	1048576	24	4733
2026-01-23 10:21:31.57	155.74	35.28	-30.7	-31.9	13.0	7.85e-05	0	43	102	1048576	22	4160
2026-01-23 10:21:34.58	155.68	35.98	-30.3	-31.5	13.5	3.00e-06	0	43	102	1048576	21	4132
2026-01-23 10:21:37.59	155.62	36.69	-30.1	-31.0	13.9	7.60e-06	0	43	102	1048576	21	3964
2026-01-23 10:21:40.60	155.55	37.42	-29.1	-29.4	15.6	0.00e+00	0	43	102	1048576	19	3699
2026-01-23 10:21:43.61	155.48	38.16	-29.1	-29.2	15.7	0.00e+00	0	43	102	1048576	19	3668
2026-01-23 10:21:46.63	155.40	38.92	-29.3	-29.9	15.2	0.00e+00	0	43	102	1048576	19	3836
2026-01-23 10:21:49.63	155.32	39.70	-29.4	-30.1	15.1	0.00e+00	0	43	102	1048576	19	3903
2026-01-23 10:21:52.65	155.24	40.49	-29.7	-30.7	14.8	0.00e+00	0	43	102	1048576	19	4070
2026-01-23 10:21:55.67	155.15	41.31	-29.5	-30.3	15.1	7.00e-07	0	43	102	1048576	19	3933
2026-01-23 10:21:58.68	155.05	42.14	-29.9	-31.3	14.5	0.00e+00	0	43	102	1048576	19	4228
2026-01-23 10:22:01.68	154.95	42.99	-29.7	-30.4	14.7	0.00e+00	0	43	102	1048576	20	3880
2026-01-23 10:22:04.68	154.85	43.85	-29.6	-30.2	14.8	0.00e+00	0	43	102	1048576	20	3838
2026-01-23 10:22:07.70	154.73	44.74	-30.3	-31.9	13.8	6.80e-06	0	43	102	1048576	20	4309
2026-01-23 10:22:10.72	154.61	45.66	-30.4	-31.7	13.5	1.90e-05	0	43	102	1048576	21	4165
2026-01-23 10:22:13.74	154.49	46.59	-31.7	-34.5	11.0	6.44e-04	0	43	102	1048576	23	4963
2026-01-23 10:22:16.75	154.35	47.54	-32.2	-35.8	9.6	1.32e-02	0	43	102	1048576	24	5417
2026-01-23 10:22:19.77	154.20	48.52	-32.2	-35.6	9.9	8.10e-03	0	43	102	1048576	24	5313
2026-01-23 10:22:22.77	154.05	49.51	-32.0	-34.8	10.4	3.46e-03	0	43	102	1048576	24	4999
2026-01-23 10:22:25.78	153.88	50.52	-30.4	-31.2	13.7	2.05e-05	0	43	102	1048576	22	3925
2026-01-23 10:22:28.81	153.70	51.57	-29.4	-29.6	15.2	0.00e+00	0	43	102	1048576	20	3676
2026-01-23 10:22:31.82	153.51	52.63	-29.8	-30.6	14.6	7.00e-07	0	43	102	1048576	20	3945
2026-01-23 10:22:34.85	153.30	53.72	-29.5	-29.9	15.1	0.00e+00	0	43	102	1048576	20	3760
2026-01-23 10:22:37.86	153.07	54.83	-29.1	-29.3	15.7	0.00e+00	0	43	102	1048576	19	3695
2026-01-23 10:22:40.87	152.83	55.96	-29.6	-30.5	15.0	0.00e+00	0	43	102	1048576	19	4004
2026-01-23 10:22:43.87	152.56	57.12	-29.8	-31.0	14.8	0.00e+00	0	43	102	1048576	19	4152
2026-01-23 10:22:46.89	152.27	58.30	-31.2	-33.2	12.4	1.14e-04	0	43	102	1048576	22	4558
2026-01-23 10:22:49.90	151.95	59.50	-31.1	-33.0	12.5	2.28e-05	0	43	102	1048576	22	4486
2026-01-23 10:22:52.90	151.60	60.72	-31.3	-33.2	11.7	8.06e-04	0	43	102	1048576	23	4466
2026-01-23 10:22:55.92	151.21	61.97	-30.9	-32.3	12.9	3.73e-05	0	43	102	1048576	22	4272
2026-01-23 10:22:58.93	150.78	63.24	-29.2	-29.4	15.7	0.00e+00	0	43	102	1048576	19	3713
2026-01-23 10:23:01.95	150.30	64.53	-29.2	-29.5	15.8	0.00e+00	0	43	102	1048576	19	3728
2026-01-23 10:23:04.96	149.75	65.84	-30.5	-31.8	13.6	7.00e-07	0	43	102	1048576	21	4203
2026-01-23 10:23:07.97	149.14	67.17	-30.7	-32.3	13.3	1.67e-05	0	43	102	1048576	21	4344
2026-01-23 10:23:10.98	148.44	68.52	-30.7	-32.4	13.3	1.52e-05	0	43	102	1048576	21	4382
2026-01-23 10:23:13.99	147.64	69.89	-32.2	-35.6	10.1	2.97e-03	0	43	102	1048576	24	5289
2026-01-23 10:23:16.99	146.71	71.26	-32.4	-35.5	9.6	3.41e-02	0	43	102	1048576	25	5161
2026-01-23 10:23:20.01	145.62	72.66	-31.3	-33.0	12.3	6.25e-05	0	43	102	1048576	23	4371
2026-01-23 10:23:23.02	144.33	74.06	-29.4	-29.6	15.4	0.00e+00	0	43	102	1048576	20	3668
2026-01-23 10:23:26.03	142.77	75.47	-31.7	-34.3	11.3	6.11e-04	0	43	102	1048576	23	4873
2026-01-23 10:23:29.05	140.85	76.89	-32.8	-37.1	8.6	1.08e-02	0	43	102	1048576	25	5894
2026-01-23 10:23:32.07	138.45	78.30	-32.6	-35.9	9.2	1.34e-02	0	43	102	1048576	26	5223
2026-01-23 10:23:35.09	135.38	79.70	-32.4	-34.8	9.9	9.63e-03	0	43	102	1048576	26	4776
2026-01-23 10:23:38.09	131.36	81.06	-32.1	-34.4	10.7	5.45e-03	0	43	102	1048576	25	4693
2026-01-23 10:23:41.10	125.89	82.37	-29.9	-30.7	14.8	7.00e-07	0	43	102	1048576	20	3957
2026-01-23 10:23:44.11	118.21	83.59	-29.7	-30.2	15.3	0.00e+00	0	43	102	1048576	20	3821
2026-01-23 10:23:47.12	107.18	84.65	-29.7	-30.7	15.3	0.00e+00	0	43	102	1048576	19	4039
2026-01-23 10:23:50.15	91.48	85.44	-31.7	-34.1	11.8	2.88e-04	0	43	102	1048576	23	4731
2026-01-23 10:23:53.17	71.56	85.76	-31.4	-33.2	12.5	3.50e-05	0	43	102	1048576	23	4404
2026-01-23 10:23:56.18	51.23	85.54	-31.9	-34.6	11.4	6.79e-05	0	43	102	1048576	23	4900
2026-01-23 10:23:59.19	34.66	84.84	-31.8	-33.6	11.9	1.85e-04	0	43	102	1048576	24	4462
2026-01-23 10:24:02.20	22.79	83.83	-30.5	-32.1	14.4	0.00e+00	0	43	102	1048576	20	4347
2026-01-23 10:24:05.23	14.48	82.63	-32.4	-35.6	10.3	1.49e-03	0	43	102	1048576	24	5236
2026-01-23 10:24:08.24	8.65	81.33	-32.5	-35.4	10.1	9.01e-03	0	43	102	1048576	25	5062
2026-01-23 10:24:11.26	4.36	79.97	-32.9	-37.2	8.7	3.05e-02	0	43	102	1048576	25	5904
2026-01-23 10:24:14.27	1.14	78.58	-31.0	-31.9	13.1	7.27e-04	0	43	102	1048576	23	4026
2026-01-23 10:24:17.29	358.63	77.17	-30.8	-32.6	13.4	1.06e-05	0	43	102	1048576	21	4399
2026-01-23 10:24:20.30	356.64	75.76	-30.6	-31.5	13.7	1.28e-04	0	43	102	1048576	22	3991
2026-01-23 10:24:23.31	355.02	74.35	-30.7	-32.2	13.5	8.30e-06	0	43	102	1048576	21	4301
2026-01-23 10:24:26.33	353.67	72.95	-29.7	-30.7	15.3	0.00e+00	0	43	102	1048576	19	4019
2026-01-23 10:24:29.35	352.55	71.55	-31.8	-34.4	11.6	3.56e-04	0	43	102	1048576	23	4834
2026-01-23 10:24:32.35	351.59	70.17	-31.9	-34.3	11.2	8.85e-04	0	43	102	1048576	24	4736
2026-01-23 10:24:35.36	350.77	68.81	-31.9	-33.6	11.3	2.08e-03	0	43	102	1048576	25	4406
2026-01-23 10:24:38.37	350.05	67.46	-31.4	-32.8	12.2	3.29e-04	0	43	102	1048576	24	4215
2026-01-23 10:24:41.38	349.42	66.13	-30.9	-31.7	13.2	3.37e-04	0	43	102	1048576	23	3957
2026-01-23 10:24:44.38	348.87	64.82	-31.1	-32.3	12.8	1.25e-04	0	43	102	1048576	23	4147
2026-01-23 10:24:47.38	348.38	63.54	-31.4	-33.3	12.1	5.82e-04	0	43	102	1048576	23	4483
2026-01-23 10:24:50.39	347.94	62.27	-31.1	-32.4	12.7	9.68e-05	0	43	102	1048576	23	4186
2026-01-23 10:24:53.41	347.54	61.01	-30.2	-31.5	14.4	0.00e+00	0	43	102	1048576	20	4165
2026-01-23 10:24:56.42	347.18	59.79	-30.9	-32.3	13.2	4.57e-05	0	43	102	1048576	22	4235
2026-01-23 10:24:59.44	346.86	58.58	-30.4	-32.0	14.0	1.50e-06	0	43	102	1048576	20	4332
2026-01-23 10:25:02.46	346.56	57.40	-29.9	-30.3	14.7	7.00e-07	0	43	102	1048576	21	3758
2026-01-23 10:25:05.48	346.29	56.24	-29.5	-30.1	15.4	0.00e+00	0	43	102	1048576	19	3870
2026-01-23 10:25:08.50	346.04	55.11	-29.2	-30.0	15.8	0.00e+00	0	43	102	1048576	18	3943
2026-01-23 10:25:11.51	345.81	54.00	-31.2	-33.1	12.7	1.83e-05	0	43	102	1048576	22	4509
2026-01-23 10:25:14.52	345.60	52.91	-30.7	-31.8	13.4	9.90e-06	0	43	102	1048576	22	4078
2026-01-23 10:25:17.54	345.40	51.84	-32.5	-36.0	9.4	1.17e-02	0	43	102	1048576	25	5386
2026-01-23 10:25:20.55	345.22	50.80	-30.4	-31.1	13.8	3.96e-05	0	43	102	1048576	22	3877
2026-01-23 10:25:23.56	345.05	49.79	-30.7	-32.4	13.2	2.28e-05	0	43	102	1048576	21	4366
2026-01-23 10:25:26.56	344.90	48.79	-31.6	-33.8	11.7	8.92e-05	0	43	102	1048576	23	4665
2026-01-23 10:25:29.58	344.75	47.82	-31.4	-32.9	11.9	2.65e-03	0	43	102	1048576	24	4280
2026-01-23 10:25:32.60	344.61	46.86	-30.2	-31.6	14.2	7.00e-07	0	43	102	1048576	20	4216
2026-01-23 10:25:35.62	344.49	45.93	-31.7	-34.2	11.3	8.73e-04	0	43	102	1048576	23	4829
2026-01-23 10:25:38.64	344.36	45.01	-33.1	-37.8	7.0	2.45e-01	0	43	102	1048576	27	6140
2026-01-23 10:25:41.65	344.25	44.12	-31.7	-33.7	11.4	2.61e-03	0	43	102	1048576	24	4528
2026-01-23 10:25:44.66	344.15	43.25	-32.5	-36.0	9.2	2.01e-02	0	43	102	1048576	25	5403
2026-01-23 10:25:47.68	344.05	42.40	-33.1	-38.2	7.1	7.86e-02	0	43	102	1048576	26	6462
2026-01-23 10:25:50.70	343.95	41.57	-33.5	-39.8	5.7	4.62e-01	0	43	102	1048576	27	7471
2026-01-23 10:25:53.71	343.86	40.75	-33.0	-37.1	7.6	9.13e-02	0	43	102	1048576	27	5779
2026-01-23 10:25:56.73	343.78	39.96	-32.3	-34.8	9.7	1.54e-02	0	43	102	1048576	26	4782
2026-01-23 10:25:59.73	343.70	39.18	-33.3	-39.4	6.2	2.60e-01	0	43	102	1048576	26	7272
2026-01-23 10:26:02.75	343.62	38.42	-33.2	-38.0	6.8	2.07e-01	0	43	102	1048576	27	6273
2026-01-23 10:26:05.77	343.55	37.67	-33.2	-38.4	6.7	1.95e-01	0	43	102	1048576	27	6512
2026-01-23 10:26:08.78	343.48	36.94	-32.8	-36.6	8.4	6.32e-02	0	43	102	1048576	26	5606
2026-01-23 10:26:11.80	343.42	36.23	-32.4	-35.0	9.6	2.72e-02	0	43	102	1048576	26	4889
2026-01-23 10:26:14.80	343.36	35.54	-32.5	-36.1	9.1	1.88e-02	0	43	102	1048576	25	5464
2026-01-23 10:26:17.81	343.30	34.86	-33.0	-37.9	7.5	9.08e-02	0	43	102	1048576	26	6285
2026-01-23 10:26:20.83	343.24	34.19	-33.8	-42.8	4.4	6.89e-01	0	43	102	1048576	27	10170
2026-01-23 10:26:23.85	343.19	33.53	-33.2	-38.4	6.5	3.07e-01	0	43	102	1048576	27	6542
2026-01-23 10:26:26.87	343.14	32.89	-31.7	-34.0	11.0	3.05e-03	0	43	102	1048576	24	4661
2026-01-23 10:26:29.88	343.09	32.26	-31.3	-33.1	12.0	5.80e-04	0	43	102	1048576	23	4437
2026-01-23 10:26:32.89	343.05	31.65	-31.3	-33.2	11.9	7.35e-04	0	43	102	1048576	23	4468
2026-01-23 10:26:35.90	343.00	31.05	-31.1	-32.5	12.3	1.75e-04	0	43	102	1048576	23	4236
2026-01-23 10:26:38.92	342.96	30.46	-31.4	-33.5	11.6	1.79e-04	0	43	102	1048576	23	4596
2026-01-23 10:26:41.94	342.92	29.88	-32.0	-35.1	10.1	5.21e-03	0	43	102	1048576	24	5126
2026-01-23 10:26:44.95	342.88	29.32	-32.2	-35.8	9.6	1.48e-02	0	43	102	1048576	24	5428
2026-01-23 10:26:47.96	342.85	28.76	-31.9	-34.5	10.5	4.10e-03	0	43	102	1048576	24	4856
2026-01-23 10:26:50.96	342.81	28.22	-31.4	-33.6	11.5	6.81e-04	0	43	102	1048576	23	4612
2026-01-23 10:26:53.98	342.78	27.69	-30.3	-31.0	13.6	9.10e-06	0	43	102	1048576	22	3885
2026-01-23 10:26:56.99	342.75	27.17	-30.0	-30.6	14.2	7.00e-07	0	43	102	1048576	21	3855
2026-01-23 10:27:00.00	342.72	26.65	-30.1	-31.0	13.8	7.00e-07	0	43	102	1048576	21	3972
2026-01-23 10:27:03.00	342.69	26.15	-30.4	-31.7	13.4	6.10e-06	0	43	102	1048576	21	4177
2026-01-23 10:27:06.00	342.66	25.66	-30.7	-32.5	12.9	5.34e-05	0	43	102	1048576	21	4450
2026-01-23 10:27:09.02	342.63	25.17	-31.1	-33.3	12.0	2.62e-04	0	43	102	1048576	22	4605
2026-01-23 10:27:12.02	342.61	24.70	-31.0	-33.0	12.1	2.48e-04	0	43	102	1048576	22	4528
2026-01-23 10:27:15.02	342.58	24.23	-30.5	-31.5	13.1	2.82e-05	0	43	102	1048576	22	4059
2026-01-23 10:27:18.04	342.56	23.77	-30.5	-31.5	13.2	2.44e-05	0	43	102	1048576	22	4041
2026-01-23 10:27:21.05	342.54	23.32	-30.4	-31.8	13.2	2.05e-05	0	43	102	1048576	21	4231
2026-01-23 10:27:24.06	342.52	22.88	-30.2	-31.1	13.7	5.30e-06	0	43	102	1048576	21	4016
2026-01-23 10:27:27.09	342.50	22.44	-29.8	-30.7	14.3	1.50e-06	0	43	102	1048576	20	3978
2026-01-23 10:27:30.10	342.48	22.01	-29.1	-29.5	15.3	0.00e+00	0	43	102	1048576	19	3741
2026-01-23 10:27:33.12	342.46	21.59	-29.1	-29.3	15.4	0.00e+00	0	43	102	1048576	19	3698
2026-01-23 10:27:36.13	342.44	21.17	-29.4	-30.1	14.9	0.00e+00	0	43	102	1048576	19	3904
2026-01-23 10:27:39.14	342.43	20.77	-29.8	-31.1	14.2	0.00e+00	0	43	102	1048576	19	4188
2026-01-23 10:27:42.15	342.41	20.37	-30.2	-31.7	13.5	8.30e-06	0	43	102	1048576	20	4290
2026-01-23 10:27:45.16	342.39	19.97	-30.6	-32.4	12.7	5.87e-05	0	43	102	1048576	21	4442
2026-01-23 10:27:48.18	342.38	19.58	-30.9	-33.3	12.1	2.00e-04	0	43	102	1048576	21	4728
2026-01-23 10:27:51.19	342.37	19.20	-31.4	-34.2	11.2	8.49e-04	0	43	102	1048576	22	4978
2026-01-23 10:27:54.18	342.35	18.82	-31.0	-33.2	11.8	6.05e-04	0	43	102	1048576	22	4616
2026-01-23 10:27:57.19	342.34	18.45	-31.2	-33.7	11.4	9.45e-04	0	43	102	1048576	22	4793
2026-01-23 10:28:00.22	342.33	18.08	-31.7	-34.7	10.4	5.08e-03	0	43	102	1048576	23	5106
2026-01-23 10:28:03.25	342.32	17.72	-31.3	-33.4	11.2	1.19e-03	0	43	102	1048576	23	4615
2026-01-23 10:28:06.26	342.30	17.37	-31.2	-33.3	11.3	1.37e-03	0	43	102	1048576	23	4569
2026-01-23 10:28:09.27	342.29	17.02	-31.0	-32.7	11.7	6.81e-04	0	43	102	1048576	23	4381
2026-01-23 10:28:12.29	342.28	16.67	-30.9	-32.9	11.9	2.59e-04	0	43	102	1048576	22	4516
2026-01-23 10:28:15.30	342.27	16.33	-31.1	-33.3	11.6	7.72e-04	0	43	102	1048576	22	4678
2026-01-23 10:28:18.30	342.27	16.00	-30.9	-32.9	11.9	6.46e-04	0	43	102	1048576	22	4512
2026-01-23 10:28:21.32	342.26	15.66	-31.1	-33.6	11.3	9.50e-04	0	43	102	1048576	22	4782
2026-01-23 10:28:24.33	342.25	15.34	-31.2	-34.0	11.1	1.59e-03	0	43	102	1048576	22	4921
2026-01-23 10:28:27.35	342.24	15.01	-31.4	-34.6	10.6	2.87e-03	0	43	102	1048576	22	5170
2026-01-23 10:28:30.36	342.23	14.70	-31.6	-34.6	10.2	6.41e-03	0	43	102	1048576	23	5085
2026-01-23 10:28:33.36	342.23	14.38	-31.6	-34.8	10.0	7.87e-03	0	43	102	1048576	23	5190
2026-01-23 10:28:36.38	342.22	14.07	-31.7	-35.1	9.8	8.29e-03	0	43	102	1048576	23	5302
2026-01-23 10:28:39.39	342.22	13.77	-31.7	-35.2	9.6	1.37e-02	0	43	102	1048576	23	5378
2026-01-23 10:28:42.41	342.21	13.46	-31.4	-34.0	10.6	3.68e-03	0	43	102	1048576	23	4874
2026-01-23 10:28:45.41	342.20	13.17	-31.2	-33.6	10.8	3.23e-03	0	43	102	1048576	23	4725
2026-01-23 10:28:48.41	342.20	12.87	-31.0	-32.7	11.4	1.01e-03	0	43	102	1048576	23	4410
2026-01-23 10:28:51.43	342.19	12.58	-30.9	-32.6	11.5	7.85e-04	0	43	102	1048576	23	4365
2026-01-23 10:28:54.45	342.19	12.29	-30.9	-32.7	11.3	1.40e-03	0	43	102	1048576	23	4423
2026-01-23 10:28:57.46	342.19	12.01	-30.8	-32.8	11.6	6.78e-04	0	43	102	1048576	22	4534
2026-01-23 10:29:00.47	342.18	11.73	-30.7	-32.5	11.8	4.52e-04	0	43	102	1048576	22	4438
2026-01-23 10:29:03.49	342.18	11.45	-30.8	-32.9	11.5	5.63e-04	0	43	102	1048576	22	4558
2026-01-23 10:29:06.50	342.18	11.17	-30.6	-32.2	12.0	3.20e-04	0	43	102	1048576	22	4320
2026-01-23 10:29:09.51	342.17	10.90	-30.7	-32.6	11.7	4.57e-04	0	43	102	1048576	22	4457
2026-01-23 10:29:12.53	342.17	10.63	-31.0	-33.4	11.1	1.56e-03	0	43	102	1048576	22	4756
2026-01-23 10:29:15.54	342.17	10.37	-31.0	-33.5	11.0	2.28e-03	0	43	102	1048576	22	4797
2026-01-23 10:29:18.56	342.17	10.10	-30.8	-32.8	11.5	5.88e-04	0	43	102	1048576	22	4545
2026-01-23 10:29:21.57	342.17	9.84	-30.6	-32.4	11.7	5.89e-04	0	43	102	1048576	22	4424
2026-01-23 10:29:24.56	342.17	9.59	-30.5	-32.0	12.0	3.62e-04	0	43	102	1048576	22	4271
2026-01-23 10:29:27.58	342.16	9.33	-30.7	-32.8	11.5	7.93e-04	0	43	102	1048576	22	4541
2026-01-23 10:29:30.59	342.16	9.08	-30.7	-32.7	11.5	8.58e-04	0	43	102	1048576	22	4519
2026-01-23 10:29:33.60	342.16	8.83	-30.6	-32.4	11.7	6.03e-04	0	43	102	1048576	22	4421
2026-01-23 10:29:36.60	342.16	8.58	-30.5	-32.1	11.8	5.92e-04	0	43	102	1048576	22	4316
2026-01-23 10:29:39.62	342.16	8.34	-30.3	-32.1	12.1	1.84e-04	0	43	102	1048576	21	4426
2026-01-23 10:29:42.64	342.16	8.09	-30.5	-32.6	11.7	4.71e-04	0	43	102	1048576	21	4604
2026-01-23 10:29:45.65	342.16	7.85	-30.6	-33.0	11.4	8.44e-04	0	43	102	1048576	21	4754
2026-01-23 10:29:48.66	342.16	7.62	-30.5	-32.8	11.5	8.14e-04	0	43	102	1048576	21	4691
2026-01-23 10:29:51.69	342.16	7.38	-30.6	-32.9	11.4	1.11e-03	0	43	102	1048576	21	4722
2026-01-23 10:29:54.70	342.16	7.15	-30.5	-32.7	11.5	8.41e-04	0	43	102	1048576	21	4638
2026-01-23 10:29:57.72	342.17	6.91	-33.9	-46.6	3.8	1.49e+00	0	43	104	1048576	27	15424

#Closed at: 2026-01-23 10:29:59
#Recorded file [1 MB]: D:/data/31010_260123_131756.dat