passes_logs/2026/01/23/R2M6_AANII_01/R2M6_AANII_01__20260123_044346_FENGYUN_3D_rec.log

#Pass ID: 20260123_044346_FENGYUN 3D
#Satellite: FENGYUN 3D
#Configuration: FENGYUN 3D
#almurnet v.1.7.20240730
#Start time: 2026-01-23 04:43:45

#Version: 2.2.20231116
#Station: R2M6_AANII_01
#Location: 30.233357 lon 59.946436 lat
#TLE: 1 43010U 17072A   26022.47411728  .00000617  00000+0  31375-3 0  9996
#TLE: 2 43010  98.9952 354.4060 0002481  95.7964 264.3494 14.19699924424319

#Time	Az	El	Level	Level2	SNR	BER	BlckErr	Temp	State	Recorded	gain1	gain2
2026-01-23 04:43:45.73	10.00	6.98	-32.3	-39.5	4.1	8.38e-01	0	41	0	0	24	8282
2026-01-23 04:43:48.75	9.69	7.15	-31.1	-35.4	7.6	8.65e-02	0	41	0	5242880	22	5880
2026-01-23 04:43:51.76	9.37	7.33	-31.2	-35.6	7.5	1.14e-01	0	41	0	22020096	22	5960
2026-01-23 04:43:54.76	9.05	7.51	-30.4	-33.6	9.2	2.84e-02	0	41	0	38797312	21	5236
2026-01-23 04:43:57.78	8.72	7.69	-29.1	-31.5	11.7	1.23e-03	0	41	0	55574528	18	4777
2026-01-23 04:44:00.78	8.39	7.87	-29.1	-31.7	11.7	6.63e-04	0	41	0	73400320	18	4816
2026-01-23 04:44:03.79	8.06	8.05	-28.8	-30.9	12.1	4.30e-04	0	42	0	90177536	18	4570
2026-01-23 04:44:06.81	7.72	8.23	-28.7	-31.0	12.4	2.12e-04	0	42	0	106954752	17	4717
2026-01-23 04:44:09.82	7.37	8.41	-28.2	-29.8	13.1	1.27e-04	0	42	0	123731968	17	4334
2026-01-23 04:44:12.83	7.02	8.59	-27.5	-29.2	13.9	2.20e-06	0	42	0	140509184	15	4387
2026-01-23 04:44:15.85	6.67	8.77	-27.1	-28.8	14.5	0.00e+00	0	42	0	157286400	14	4392
2026-01-23 04:44:18.85	6.32	8.95	-26.9	-28.3	14.8	2.20e-06	0	42	0	175112192	14	4251
2026-01-23 04:44:21.86	5.95	9.13	-27.0	-28.6	14.6	0.00e+00	0	42	0	191889408	14	4332
2026-01-23 04:44:24.87	5.59	9.31	-27.2	-29.0	14.4	1.10e-06	0	42	0	208666624	14	4441
2026-01-23 04:44:27.88	5.22	9.49	-27.1	-28.8	14.5	1.10e-06	0	42	0	225443840	14	4399
2026-01-23 04:44:30.88	4.84	9.67	-27.1	-28.9	14.5	0.00e+00	0	42	0	242221056	14	4414
2026-01-23 04:44:33.88	4.46	9.85	-27.2	-29.0	14.4	2.20e-06	0	42	0	258998272	14	4435
2026-01-23 04:44:36.90	4.08	10.03	-27.1	-28.8	14.5	2.20e-06	0	42	0	275775488	14	4390
2026-01-23 04:44:39.89	3.69	10.21	-26.9	-28.9	14.3	2.20e-06	0	42	0	292552704	13	4538
2026-01-23 04:44:42.91	3.29	10.40	-26.8	-28.7	14.9	0.00e+00	0	42	0	310378496	13	4469
2026-01-23 04:44:45.92	2.89	10.58	-26.8	-28.7	14.9	0.00e+00	0	42	0	327155712	13	4466
2026-01-23 04:44:48.92	2.49	10.76	-26.8	-28.7	14.9	1.71e-03	0	43	0	343932928	13	4464
2026-01-23 04:44:51.94	2.08	10.94	-26.9	-28.8	14.9	1.54e-03	0	42	0	360710144	13	4503
2026-01-23 04:44:54.95	1.66	11.12	-26.7	-28.4	15.1	0.00e+00	0	42	0	377487360	13	4383
2026-01-23 04:44:57.96	1.24	11.30	-26.8	-28.6	15.0	1.53e-03	0	42	0	394264576	13	4445
2026-01-23 04:45:00.97	0.81	11.48	-26.5	-28.0	15.4	1.47e-03	0	42	0	411041792	13	4256
2026-01-23 04:45:03.97	0.38	11.66	-26.6	-28.1	15.3	1.44e-03	0	42	0	428867584	13	4305
2026-01-23 04:45:06.97	359.95	11.84	-26.6	-28.3	15.2	1.55e-03	0	42	0	445644800	13	4341
2026-01-23 04:45:09.99	359.50	12.02	-26.6	-28.1	15.3	1.48e-03	0	42	0	462422016	13	4305
2026-01-23 04:45:13.01	359.05	12.20	-26.5	-27.9	15.5	1.41e-03	0	43	0	479199232	13	4232
2026-01-23 04:45:16.03	358.60	12.38	-26.5	-28.0	15.4	0.00e+00	0	42	0	495976448	13	4274
2026-01-23 04:45:19.04	358.14	12.56	-26.5	-27.9	15.5	1.43e-03	0	43	0	513802240	13	4234
2026-01-23 04:45:22.05	357.67	12.74	-26.3	-28.1	15.7	1.23e-03	0	43	0	530579456	12	4393
2026-01-23 04:45:25.06	357.20	12.92	-26.2	-27.8	15.9	0.00e+00	0	43	0	547356672	12	4319
2026-01-23 04:45:28.07	356.72	13.10	-26.2	-27.7	15.9	0.00e+00	0	43	0	564133888	12	4304
2026-01-23 04:45:31.09	356.24	13.27	-26.2	-27.8	15.9	0.00e+00	0	43	0	580911104	12	4315
2026-01-23 04:45:34.11	355.75	13.45	-26.3	-28.1	15.7	0.00e+00	0	43	0	597688320	12	4411
2026-01-23 04:45:37.11	355.26	13.62	-26.1	-27.7	16.0	0.00e+00	0	43	0	614465536	12	4287
2026-01-23 04:45:40.12	354.76	13.80	-25.9	-27.0	16.3	0.00e+00	0	43	0	631242752	12	4117
2026-01-23 04:45:43.13	354.25	13.97	-25.8	-27.5	16.4	0.00e+00	0	43	0	649068544	11	4339
2026-01-23 04:45:46.14	353.74	14.14	-26.0	-27.3	16.2	0.00e+00	0	43	0	665845760	12	4198
2026-01-23 04:45:49.15	353.22	14.31	-26.2	-27.9	15.9	0.00e+00	0	43	0	682622976	12	4341
2026-01-23 04:45:52.15	352.69	14.48	-26.0	-27.4	16.2	0.00e+00	0	43	0	699400192	12	4207
2026-01-23 04:45:55.16	352.16	14.65	-25.8	-26.9	16.5	0.00e+00	0	43	0	716177408	12	4075
2026-01-23 04:45:58.17	351.63	14.81	-25.6	-27.0	16.7	0.00e+00	0	43	0	732954624	11	4206
2026-01-23 04:46:01.19	351.08	14.98	-25.6	-26.9	16.8	0.00e+00	0	43	0	750780416	11	4188
2026-01-23 04:46:04.20	350.53	15.14	-25.6	-27.0	16.7	0.00e+00	0	43	0	767557632	11	4228
2026-01-23 04:46:07.21	349.98	15.31	-25.7	-27.2	16.6	0.00e+00	0	43	0	784334848	11	4267
2026-01-23 04:46:10.21	349.42	15.47	-25.6	-26.9	16.8	0.00e+00	0	43	0	801112064	11	4198
2026-01-23 04:46:13.22	348.85	15.62	-25.6	-27.0	16.7	0.00e+00	0	43	0	817889280	11	4224
2026-01-23 04:46:16.23	348.27	15.78	-25.4	-27.0	17.0	0.00e+00	0	43	0	834666496	10	4328
2026-01-23 04:46:19.25	347.69	15.94	-25.6	-27.0	16.7	0.00e+00	0	43	0	851443712	11	4225
2026-01-23 04:46:22.26	347.10	16.09	-25.5	-26.6	17.0	0.00e+00	0	43	0	869269504	11	4121
2026-01-23 04:46:25.27	346.51	16.24	-25.3	-26.3	17.1	0.00e+00	0	43	0	886046720	11	4047
2026-01-23 04:46:28.28	345.91	16.39	-25.4	-26.9	17.1	0.00e+00	0	43	0	902823936	10	4309
2026-01-23 04:46:31.27	345.31	16.53	-25.3	-26.7	17.2	0.00e+00	0	43	0	919601152	10	4251
2026-01-23 04:46:34.29	344.70	16.68	-25.2	-26.7	17.2	0.00e+00	0	43	0	936378368	10	4242
2026-01-23 04:46:37.30	344.08	16.82	-25.2	-26.5	17.3	0.00e+00	0	43	0	953155584	10	4205
2026-01-23 04:46:40.31	343.46	16.96	-25.1	-26.3	17.4	0.00e+00	0	43	0	969932800	10	4143
2026-01-23 04:46:43.32	342.83	17.09	-25.1	-26.5	17.3	0.00e+00	0	43	0	986710016	10	4186
2026-01-23 04:46:46.32	342.20	17.23	-25.1	-26.3	17.4	0.00e+00	0	43	0	1004535808	10	4147
2026-01-23 04:46:49.34	341.56	17.36	-25.0	-26.0	17.5	2.20e-06	0	43	0	1021313024	10	4078
2026-01-23 04:46:52.35	340.92	17.48	-25.0	-26.2	17.5	2.20e-06	0	43	0	1038090240	10	4118
2026-01-23 04:46:55.37	340.26	17.61	-25.1	-26.3	17.4	0.00e+00	0	43	0	1054867456	10	4147
2026-01-23 04:46:58.36	339.61	17.73	-24.7	-26.1	17.8	0.00e+00	0	43	0	1071644672	9	4205
2026-01-23 04:47:01.37	338.95	17.85	-24.8	-26.3	17.7	3.77e-05	0	43	0	1088421888	9	4253
2026-01-23 04:47:04.37	338.29	17.96	-24.9	-26.5	17.6	0.00e+00	0	43	0	1105199104	9	4311
2026-01-23 04:47:07.37	337.62	18.07	-24.8	-26.3	17.7	0.00e+00	0	43	0	1121976320	9	4259
2026-01-23 04:47:10.37	336.95	18.18	-24.6	-25.7	18.0	0.00e+00	0	43	0	1139802112	9	4104
2026-01-23 04:47:13.38	336.26	18.28	-24.7	-26.0	17.9	1.10e-06	0	43	0	1156579328	9	4182
2026-01-23 04:47:16.39	335.58	18.38	-24.7	-26.0	17.9	0.00e+00	0	43	0	1173356544	9	4170
2026-01-23 04:47:19.40	334.89	18.47	-24.6	-25.9	17.9	0.00e+00	0	43	0	1190133760	9	4143
2026-01-23 04:47:22.41	334.19	18.57	-24.7	-26.1	17.8	0.00e+00	0	43	0	1206910976	9	4197
2026-01-23 04:47:25.42	333.50	18.65	-24.7	-25.9	17.8	0.00e+00	0	43	0	1223688192	9	4168
2026-01-23 04:47:28.43	332.79	18.74	-24.5	-25.6	18.0	0.00e+00	0	43	0	1241513984	9	4087
2026-01-23 04:47:31.43	332.09	18.82	-24.5	-25.5	18.1	0.00e+00	0	43	0	1258291200	9	4057
2026-01-23 04:47:34.44	331.38	18.89	-24.7	-26.0	17.9	0.00e+00	0	43	0	1275068416	9	4178
2026-01-23 04:47:37.45	330.67	18.96	-24.3	-25.2	18.2	0.00e+00	0	43	0	1291845632	9	3992
2026-01-23 04:47:40.45	329.95	19.03	-24.3	-25.7	18.2	0.00e+00	0	43	0	1308622848	8	4228
2026-01-23 04:47:43.47	329.23	19.09	-24.0	-25.1	18.6	0.00e+00	0	43	0	1325400064	8	4061
2026-01-23 04:47:46.48	328.51	19.15	-24.1	-25.2	18.6	0.00e+00	0	43	0	1342177280	8	4104
2026-01-23 04:47:49.49	327.78	19.20	-24.2	-25.4	18.4	0.00e+00	0	43	0	1360003072	8	4142
2026-01-23 04:47:52.50	327.05	19.25	-24.4	-25.8	18.3	0.00e+00	0	43	0	1376780288	8	4237
2026-01-23 04:47:55.51	326.32	19.29	-23.8	-25.1	18.0	0.00e+00	0	43	0	1393557504	8	4180
2026-01-23 04:47:58.53	325.59	19.33	-24.7	-26.1	15.8	0.00e+00	0	43	0	1410334720	9	4209
2026-01-23 04:48:01.54	324.86	19.36	-24.4	-25.5	18.2	0.00e+00	0	43	0	1427111936	9	4041
2026-01-23 04:48:04.56	324.12	19.39	-24.4	-25.8	18.2	0.00e+00	0	43	0	1443889152	8	4239
2026-01-23 04:48:07.58	323.38	19.41	-24.3	-25.2	18.3	1.41e-03	0	43	0	1460666368	9	3974
2026-01-23 04:48:10.58	322.64	19.43	-24.3	-25.6	18.3	1.53e-03	0	43	0	1478492160	8	4196
2026-01-23 04:48:13.59	321.91	19.44	-24.3	-25.6	18.4	0.00e+00	0	43	0	1495269376	8	4181
2026-01-23 04:48:16.60	321.17	19.45	-24.5	-25.7	18.0	5.43e-04	0	43	0	1512046592	9	4094
2026-01-23 04:48:19.61	320.43	19.46	-24.7	-26.0	17.8	1.18e-03	0	43	0	1528823808	9	4181
2026-01-23 04:48:22.62	319.69	19.45	-24.7	-26.1	17.8	1.25e-03	0	43	0	1545601024	9	4207
2026-01-23 04:48:25.63	318.95	19.45	-24.6	-25.8	17.9	1.16e-03	0	43	0	1562378240	9	4120
2026-01-23 04:48:28.64	318.21	19.44	-24.5	-25.1	18.1	3.34e-04	0	43	0	1580204032	10	3841
2026-01-23 04:48:31.65	317.47	19.42	-24.5	-25.6	18.0	8.04e-04	0	43	0	1596981248	9	4080
2026-01-23 04:48:34.66	316.73	19.40	-24.7	-26.0	17.8	0.00e+00	0	43	0	1613758464	9	4179
2026-01-23 04:48:37.68	316.00	19.37	-24.7	-26.0	17.8	0.00e+00	0	43	0	1630535680	9	4183
2026-01-23 04:48:40.68	315.26	19.34	-24.5	-25.5	18.1	1.24e-03	0	43	0	1647312896	9	4066
2026-01-23 04:48:43.69	314.53	19.31	-24.7	-26.0	17.8	0.00e+00	0	43	0	1664090112	9	4188
2026-01-23 04:48:46.70	313.80	19.27	-24.5	-25.5	18.1	0.00e+00	0	43	0	1680867328	9	4061
2026-01-23 04:48:49.72	313.07	19.22	-24.1	-25.2	18.5	0.00e+00	0	43	0	1698693120	8	4104
2026-01-23 04:48:52.73	312.34	19.17	-24.1	-25.3	18.4	0.00e+00	0	43	0	1715470336	8	4126
2026-01-23 04:48:55.72	311.62	19.11	-24.2	-25.5	18.4	0.00e+00	0	43	0	1732247552	8	4172
2026-01-23 04:48:58.73	310.90	19.06	-24.0	-25.0	18.6	0.00e+00	0	43	0	1749024768	8	4047
2026-01-23 04:49:01.74	310.18	18.99	-24.1	-25.3	18.4	0.00e+00	0	43	0	1765801984	8	4121
2026-01-23 04:49:04.75	309.46	18.92	-24.2	-25.5	18.4	0.00e+00	0	43	0	1782579200	8	4162
2026-01-23 04:49:07.76	308.75	18.85	-24.2	-25.5	18.3	0.00e+00	0	43	0	1799356416	8	4159
2026-01-23 04:49:10.78	308.04	18.77	-24.3	-25.7	18.2	0.00e+00	0	43	0	1816133632	8	4230
2026-01-23 04:49:13.79	307.33	18.69	-24.5	-25.7	18.0	0.00e+00	0	43	0	1833959424	9	4093
2026-01-23 04:49:16.80	306.63	18.60	-24.7	-26.0	17.8	0.00e+00	0	43	0	1850736640	9	4185
2026-01-23 04:49:19.81	305.94	18.51	-24.7	-26.1	17.7	0.00e+00	0	43	0	1867513856	9	4200
2026-01-23 04:49:22.82	305.24	18.42	-24.6	-25.8	17.9	0.00e+00	0	43	0	1884291072	9	4134
2026-01-23 04:49:25.84	304.55	18.32	-24.3	-25.1	18.3	0.00e+00	0	43	0	1901068288	9	3957
2026-01-23 04:49:28.85	303.87	18.22	-24.3	-25.6	18.2	0.00e+00	0	43	0	1918894080	8	4200
2026-01-23 04:49:31.86	303.19	18.11	-24.3	-25.2	18.1	0.00e+00	0	43	0	1935671296	9	3993
2026-01-23 04:49:34.87	302.51	18.01	-24.5	-25.5	17.4	0.00e+00	0	43	0	1952448512	9	4063
2026-01-23 04:49:37.88	301.84	17.89	-24.4	-25.4	18.1	1.91e-04	0	43	0	1969225728	9	4025
2026-01-23 04:49:40.88	301.18	17.78	-24.4	-25.3	18.1	0.00e+00	0	43	0	1986002944	9	4013
2026-01-23 04:49:43.90	300.52	17.66	-24.2	-25.3	18.3	0.00e+00	0	43	0	2002780160	8	4129
2026-01-23 04:49:46.90	299.87	17.53	-24.4	-25.9	18.0	2.95e-04	0	43	0	2019557376	8	4284
2026-01-23 04:49:49.90	299.22	17.41	-24.5	-25.5	18.0	7.47e-04	0	43	0	2036334592	9	4063
2026-01-23 04:49:52.90	298.58	17.28	-24.6	-25.9	17.8	0.00e+00	0	43	0	2054160384	9	4163
2026-01-23 04:49:55.91	297.94	17.15	-24.6	-25.8	17.8	9.34e-04	0	43	0	2070937600	9	4136
2026-01-23 04:49:58.92	297.31	17.01	-25.0	-26.1	17.4	1.25e-03	0	43	0	2087714816	10	4098
2026-01-23 04:50:01.93	296.68	16.88	-24.9	-26.0	17.4	1.28e-03	0	43	0	2104492032	10	4086
2026-01-23 04:50:04.95	296.06	16.73	-24.7	-26.1	17.6	1.12e-03	0	43	0	2121269248	9	4203
2026-01-23 04:50:07.95	295.45	16.59	-24.8	-26.3	17.5	1.22e-03	0	43	0	2138046464	9	4264
2026-01-23 04:50:10.96	294.84	16.45	-24.9	-26.4	17.4	1.51e-03	0	43	0	2154823680	9	4290
2026-01-23 04:50:13.97	294.23	16.30	-25.1	-26.3	17.2	0.00e+00	0	43	0	2171600896	10	4153
2026-01-23 04:50:16.98	293.64	16.15	-25.1	-26.5	17.2	1.10e-06	0	43	0	2189426688	10	4205
2026-01-23 04:50:19.98	293.05	16.00	-25.2	-26.6	17.0	1.75e-03	0	43	0	2206203904	10	4229
2026-01-23 04:50:22.99	292.46	15.84	-25.2	-26.0	17.1	0.00e+00	0	43	0	2222981120	11	3966
2026-01-23 04:50:26.01	291.88	15.69	-25.3	-26.8	16.9	0.00e+00	0	43	0	2239758336	10	4288
2026-01-23 04:50:29.03	291.31	15.53	-25.4	-26.6	16.8	0.00e+00	0	43	0	2256535552	11	4107
2026-01-23 04:50:32.04	290.74	15.37	-25.1	-26.3	17.1	0.00e+00	0	43	0	2274361344	10	4158
2026-01-23 04:50:35.06	290.18	15.20	-25.2	-26.6	17.0	0.00e+00	0	43	0	2291138560	10	4225
2026-01-23 04:50:38.08	289.62	15.04	-25.2	-26.6	17.0	0.00e+00	0	43	0	2307915776	10	4240
2026-01-23 04:50:41.09	289.08	14.88	-25.2	-26.7	16.9	0.00e+00	0	43	0	2324692992	10	4257
2026-01-23 04:50:44.10	288.53	14.71	-25.4	-27.1	16.7	0.00e+00	0	43	0	2341470208	10	4376
2026-01-23 04:50:47.12	288.00	14.54	-25.3	-26.8	16.8	0.00e+00	0	43	0	2358247424	10	4280
2026-01-23 04:50:50.14	287.47	14.37	-25.3	-26.9	16.8	0.00e+00	0	43	0	2376073216	10	4318
2026-01-23 04:50:53.15	286.94	14.20	-25.3	-26.9	16.8	0.00e+00	0	43	0	2392850432	10	4307
2026-01-23 04:50:56.16	286.42	14.03	-25.3	-26.9	16.7	0.00e+00	0	43	0	2409627648	10	4312
2026-01-23 04:50:59.17	285.91	13.86	-25.5	-26.8	16.5	0.00e+00	0	43	0	2426404864	11	4169
2026-01-23 04:51:02.18	285.41	13.68	-25.5	-26.9	16.5	0.00e+00	0	43	0	2443182080	11	4195
2026-01-23 04:51:05.19	284.91	13.51	-25.6	-27.0	16.4	0.00e+00	0	43	0	2459959296	11	4224
2026-01-23 04:51:08.20	284.41	13.33	-25.8	-27.5	15.4	0.00e+00	0	43	0	2477785088	11	4375
2026-01-23 04:51:11.20	283.93	13.16	-25.7	-27.1	16.3	0.00e+00	0	43	0	2494562304	11	4260
2026-01-23 04:51:14.20	283.45	12.98	-25.7	-27.3	16.2	1.10e-06	0	43	0	2511339520	11	4314
2026-01-23 04:51:17.23	282.97	12.80	-26.0	-27.4	15.8	3.55e-04	0	43	0	2528116736	12	4234
2026-01-23 04:51:20.23	282.50	12.62	-25.9	-27.6	16.0	0.00e+00	0	43	0	2544893952	11	4404
2026-01-23 04:51:23.24	282.04	12.44	-26.1	-27.7	15.6	0.00e+00	0	43	0	2561671168	12	4307
2026-01-23 04:51:26.25	281.58	12.26	-26.0	-27.4	15.7	2.05e-04	0	43	0	2578448384	12	4239
2026-01-23 04:51:29.26	281.12	12.08	-26.0	-27.4	15.8	1.68e-04	0	43	0	2595225600	12	4227
2026-01-23 04:51:32.27	280.68	11.90	-26.0	-27.3	15.8	0.00e+00	0	43	0	2613051392	12	4200
2026-01-23 04:51:35.28	280.24	11.72	-26.1	-27.6	15.6	2.07e-04	0	43	0	2629828608	12	4293
2026-01-23 04:51:38.29	279.80	11.54	-26.0	-27.5	15.7	1.48e-04	0	43	0	2646605824	12	4258
2026-01-23 04:51:41.30	279.37	11.36	-26.2	-27.8	15.5	0.00e+00	0	43	0	2663383040	12	4335
2026-01-23 04:51:44.31	278.94	11.18	-26.3	-28.1	15.3	0.00e+00	0	43	0	2680160256	12	4421
2026-01-23 04:51:47.32	278.52	11.00	-26.4	-28.3	15.2	6.29e-05	0	43	0	2696937472	12	4469
2026-01-23 04:51:50.33	278.11	10.82	-26.2	-27.7	15.5	2.86e-04	0	43	0	2713714688	12	4322
2026-01-23 04:51:53.34	277.70	10.63	-26.2	-27.9	15.4	0.00e+00	0	43	0	2731540480	12	4370
2026-01-23 04:51:56.36	277.29	10.45	-26.3	-28.1	15.3	0.00e+00	0	43	0	2748317696	12	4417
2026-01-23 04:51:59.37	276.89	10.27	-26.3	-28.1	15.2	3.05e-04	0	43	0	2765094912	12	4434
2026-01-23 04:52:02.38	276.50	10.09	-26.4	-28.4	15.1	1.10e-06	0	43	0	2781872128	12	4520
2026-01-23 04:52:05.38	276.11	9.91	-26.8	-28.7	14.6	1.10e-06	0	43	0	2798649344	13	4481
2026-01-23 04:52:08.39	275.72	9.72	-26.4	-27.9	15.0	0.00e+00	0	43	0	2815426560	13	4270
2026-01-23 04:52:11.40	275.34	9.54	-26.7	-28.6	14.6	1.10e-06	0	43	0	2833252352	13	4444
2026-01-23 04:52:14.41	274.97	9.36	-26.8	-28.7	14.5	0.00e+00	0	43	0	2850029568	13	4480
2026-01-23 04:52:17.42	274.60	9.18	-26.8	-28.3	14.5	1.10e-06	0	43	0	2866806784	14	4268
2026-01-23 04:52:20.43	274.23	9.00	-27.2	-29.1	14.0	4.50e-06	0	43	0	2883584000	14	4488
2026-01-23 04:52:23.44	273.87	8.82	-27.2	-29.3	13.9	9.10e-06	0	43	0	2900361216	14	4544
2026-01-23 04:52:26.44	273.52	8.64	-27.0	-28.6	14.2	4.50e-06	0	43	0	2917138432	14	4361
2026-01-23 04:52:29.45	273.16	8.45	-27.3	-29.3	13.8	9.10e-06	0	43	0	2933915648	14	4561
2026-01-23 04:52:32.47	272.82	8.27	-26.9	-28.5	14.3	9.10e-06	0	43	0	2950692864	14	4310
2026-01-23 04:52:35.47	272.47	8.09	-27.1	-28.9	14.1	5.70e-06	0	43	0	2968518656	14	4431
2026-01-23 04:52:38.49	272.13	7.91	-27.1	-28.9	14.0	4.50e-06	0	43	0	2985295872	14	4431
2026-01-23 04:52:41.51	271.80	7.73	-27.2	-29.2	13.8	9.10e-06	0	43	0	3002073088	14	4536
2026-01-23 04:52:44.53	271.47	7.55	-27.1	-28.9	14.0	1.10e-06	0	43	0	3018850304	14	4445
2026-01-23 04:52:47.54	271.14	7.38	-27.2	-29.3	13.7	9.10e-06	0	43	0	3035627520	14	4550
2026-01-23 04:52:50.54	270.82	7.20	-27.2	-29.2	13.8	1.71e-05	0	43	0	3053453312	14	4536
2026-01-23 04:52:53.54	270.50	7.02	-33.3	-44.7	3.8	8.46e-01	0	43	104	3062890496	26	13342

#Closed at: 2026-01-23 04:52:56
#Recorded file [3062 MB]: D:/data/31010_260123_074347.dat