passes_logs/2025/01/05/X_MFTI_02/X_MFTI_02__20250105_101630_NOAA_20_rec.log

#Pass ID: 20250105_101630_NOAA 20
#Satellite: NOAA 20
#Configuration: NOAA 20
#Start time: 2025-01-05 10:16:24

#Version: 1.5.20200625
#Station: X_MFTI_02
#Location: 37.5186 lon 55.9291 lat
#TLE: 1 43013U 17073A   23362.44808611  .00000160  00000+0  96626-4 0  9996
#TLE: 2 43013  98.7331 297.9536 0000783  57.5916 302.5335 14.19555620316533

#Time	Az	El	Level	Level2	SNR	BER	Gain	Gain2
2025-01-05 10:16:24.48	208.66	68.15	-62.2	-87.4	3.2	15440399	84	65535
2025-01-05 10:16:24.69	208.85	68.22	-62.2	-87.4	3.2	15654060	85	65535
2025-01-05 10:16:24.89	209.04	68.29	-62.0	-87.2	3.0	15654060	84	65535
2025-01-05 10:16:25.09	209.22	68.35	-61.9	-87.1	2.3	15660491	83	65535
2025-01-05 10:16:25.31	209.42	68.43	-61.9	-87.2	3.0	15660491	84	65535
2025-01-05 10:16:25.52	209.62	68.49	-61.9	-87.1	3.0	15687408	84	65535
2025-01-05 10:16:25.72	209.81	68.56	-61.9	-87.1	3.1	15687408	84	65535
2025-01-05 10:16:25.92	209.99	68.62	-61.9	-87.1	3.0	15687408	84	65535
2025-01-05 10:16:26.14	210.20	68.70	-62.3	-87.5	3.0	15686866	84	65535
2025-01-05 10:16:26.36	210.41	68.77	-62.0	-87.2	3.0	15686866	84	65535
2025-01-05 10:16:26.56	210.61	68.83	-62.3	-87.5	3.0	15677291	84	65535
2025-01-05 10:16:26.76	210.80	68.89	-62.1	-87.3	2.5	15677291	83	65535
2025-01-05 10:16:26.97	211.01	68.96	-62.2	-87.4	3.0	15673469	84	65535
2025-01-05 10:16:27.19	211.22	69.03	-62.2	-87.4	3.0	15673469	84	65535
2025-01-05 10:16:27.39	211.42	69.10	-61.9	-87.1	3.0	15674530	84	65535
2025-01-05 10:16:27.59	211.62	69.16	-61.9	-87.1	3.0	15674530	84	65535
2025-01-05 10:16:27.81	211.84	69.23	-61.9	-87.1	3.0	15690071	84	65535
2025-01-05 10:16:28.02	212.05	69.29	-62.0	-87.2	3.3	15690071	84	65535
2025-01-05 10:16:28.24	212.28	69.36	-62.2	-87.4	3.0	15677337	84	65535
2025-01-05 10:16:28.45	212.49	69.43	-62.1	-87.3	2.0	15677337	83	65535
2025-01-05 10:16:28.66	212.71	69.49	-62.2	-87.4	3.0	15683471	84	65535
2025-01-05 10:16:28.87	212.93	69.56	-62.1	-87.3	3.0	15683471	84	65535
2025-01-05 10:16:29.07	213.14	69.62	-62.1	-87.3	3.1	15679054	84	65535
2025-01-05 10:16:29.29	213.37	69.69	-61.9	-87.1	3.0	15679054	84	65535
2025-01-05 10:16:29.50	213.59	69.75	-62.0	-87.2	3.1	15672485	84	65535
2025-01-05 10:16:29.72	213.83	69.82	-62.1	-87.3	3.0	15672485	84	65535
2025-01-05 10:16:29.92	214.04	69.88	-62.1	-87.3	3.1	15682792	84	65535
2025-01-05 10:16:30.14	214.28	69.95	-61.9	-87.1	3.0	15682792	84	65535
2025-01-05 10:16:30.35	214.51	70.01	-61.9	-87.1	3.0	15670341	84	65535
2025-01-05 10:16:30.55	214.73	70.07	-61.9	-87.1	3.1	15670341	84	65535
2025-01-05 10:16:30.77	214.97	70.14	-61.8	-87.0	3.1	15684524	84	65535
2025-01-05 10:16:30.97	215.19	70.20	-62.2	-87.4	3.1	15684524	84	65535
2025-01-05 10:16:31.17	215.42	70.26	-62.2	-87.4	3.0	15684524	84	65535
2025-01-05 10:16:31.37	215.64	70.32	-62.2	-87.4	3.1	15672286	84	65535
2025-01-05 10:16:31.59	215.89	70.38	-62.1	-87.3	3.2	15672286	84	65535
2025-01-05 10:16:31.80	216.13	70.44	-62.0	-87.2	2.6	15674591	84	65535
2025-01-05 10:16:32.02	216.38	70.51	-62.1	-87.4	3.1	15674591	84	65535
2025-01-05 10:16:32.23	216.63	70.57	-62.1	-87.3	3.1	15678413	84	65535
2025-01-05 10:16:32.45	216.88	70.63	-62.2	-87.4	3.2	15678413	84	65535
2025-01-05 10:16:32.66	217.13	70.69	-62.2	-87.4	3.2	15684356	84	65535
2025-01-05 10:16:32.86	217.36	70.75	-62.2	-87.4	3.4	15684356	84	65535
2025-01-05 10:16:33.07	217.61	70.81	-62.2	-87.4	3.3	15675338	84	65535
2025-01-05 10:16:33.28	217.86	70.87	-62.2	-87.4	3.1	15675338	84	65535
2025-01-05 10:16:33.50	218.13	70.93	-62.0	-87.2	3.0	15684730	84	65535
2025-01-05 10:16:33.71	218.38	70.99	-62.0	-87.2	3.0	15684730	84	65535
2025-01-05 10:16:33.91	218.63	71.04	-62.2	-87.4	3.0	15688758	84	65535
2025-01-05 10:16:34.11	218.87	71.10	-62.3	-87.5	3.3	15688758	84	65535
2025-01-05 10:16:34.31	219.12	71.15	-62.2	-87.4	3.4	15674018	84	65535
2025-01-05 10:16:34.52	219.38	71.21	-62.1	-87.3	3.4	15674018	84	65535
2025-01-05 10:16:34.72	219.63	71.27	-62.2	-87.4	3.3	15680236	84	65535
2025-01-05 10:16:34.92	219.88	71.32	-62.0	-87.2	3.2	15680236	84	65535
2025-01-05 10:16:35.12	220.14	71.37	-60.5	-85.7	3.2	15680236	81	65535
2025-01-05 10:16:35.32	220.39	71.43	-62.2	-87.4	3.0	15687721	84	65535
2025-01-05 10:16:35.53	220.66	71.48	-62.2	-87.4	3.3	15683288	84	65535
2025-01-05 10:16:35.75	220.94	71.54	-62.2	-87.4	3.3	15683288	84	65535
2025-01-05 10:16:35.95	221.20	71.59	-62.2	-87.4	3.3	15683288	84	65535
2025-01-05 10:16:36.17	221.49	71.65	-62.2	-87.4	3.3	15680526	84	65535
2025-01-05 10:16:36.38	221.77	71.71	-62.2	-87.4	3.0	15680526	84	65535
2025-01-05 10:16:36.58	222.03	71.76	-62.2	-87.4	3.0	15679222	84	65535
2025-01-05 10:16:36.78	222.30	71.81	-62.1	-87.3	2.1	15679222	83	65535
2025-01-05 10:16:36.99	222.58	71.86	-62.2	-87.4	3.0	15701927	84	65535
2025-01-05 10:16:37.20	222.86	71.92	-62.2	-87.4	3.1	15701927	84	65535
2025-01-05 10:16:37.42	223.16	71.97	-62.2	-87.4	3.3	15685813	84	65535
2025-01-05 10:16:37.63	223.45	72.02	-62.2	-87.4	3.0	15685813	84	65535
2025-01-05 10:16:37.85	223.75	72.08	-62.2	-87.4	3.0	15682548	84	65535
2025-01-05 10:16:38.05	224.02	72.13	-62.1	-87.3	3.0	15682548	84	65535
2025-01-05 10:16:38.25	224.30	72.17	-62.2	-87.4	3.0	15677650	84	65535
2025-01-05 10:16:38.47	224.61	72.23	-60.5	-85.7	3.2	15677650	82	65535
2025-01-05 10:16:38.67	224.89	72.28	-62.2	-87.4	3.0	15682929	84	65535
2025-01-05 10:16:38.87	225.17	72.32	-62.2	-87.4	3.0	15682929	84	65535
2025-01-05 10:16:39.07	225.46	72.37	-61.9	-87.1	3.1	15673988	84	65535
2025-01-05 10:16:39.29	225.77	72.42	-62.0	-87.2	3.3	15673988	84	65535
2025-01-05 10:16:39.50	226.08	72.47	-62.2	-87.4	3.2	15672286	84	65535
2025-01-05 10:16:39.70	226.36	72.51	-62.2	-87.4	3.0	15672286	84	65535
2025-01-05 10:16:39.91	226.67	72.56	-62.1	-87.3	3.1	15672286	84	65535
2025-01-05 10:16:40.11	226.96	72.61	-60.5	-85.7	3.3	15677566	82	65535
2025-01-05 10:16:40.32	227.27	72.65	-62.2	-87.4	3.1	15677566	84	65535
2025-01-05 10:16:40.52	227.57	72.70	-62.2	-87.4	3.0	15681953	84	65535
2025-01-05 10:16:40.74	227.89	72.75	-62.1	-87.3	3.3	15681953	84	65535
2025-01-05 10:16:40.96	228.22	72.79	-62.0	-87.3	3.3	15681976	84	65535
2025-01-05 10:16:41.16	228.52	72.84	-62.2	-87.4	3.2	15681976	84	65535
2025-01-05 10:16:41.37	228.84	72.88	-61.9	-87.1	3.0	15674499	84	65535
2025-01-05 10:16:41.59	229.18	72.93	-61.9	-87.1	3.0	15674499	84	65535
2025-01-05 10:16:41.79	229.48	72.97	-61.7	-86.9	3.1	15687789	81	65535
2025-01-05 10:16:42.00	229.81	73.01	-62.0	-87.2	3.2	15687789	84	65535
2025-01-05 10:16:42.21	230.13	73.05	-62.1	-87.3	3.5	15690505	84	65535
2025-01-05 10:16:42.41	230.44	73.09	-61.9	-87.1	3.2	15690505	84	65535
2025-01-05 10:16:42.61	230.75	73.13	-61.9	-87.1	3.2	15682502	84	65535
2025-01-05 10:16:42.81	231.07	73.17	-62.0	-87.2	3.4	15682502	84	65535
2025-01-05 10:16:43.01	231.38	73.21	-62.1	-87.3	3.0	15671714	84	65535
2025-01-05 10:16:43.21	231.70	73.25	-62.1	-87.3	3.1	15671714	84	65535
2025-01-05 10:16:43.43	232.05	73.29	-60.4	-85.6	3.3	15688934	82	65535
2025-01-05 10:16:43.63	232.37	73.33	-62.0	-87.2	2.8	15688934	84	65535
2025-01-05 10:16:43.83	232.69	73.36	-61.9	-87.1	3.1	15682662	84	65535
2025-01-05 10:16:44.04	233.03	73.40	-61.9	-87.1	3.1	15682662	84	65535
2025-01-05 10:16:44.25	233.37	73.44	-61.9	-87.1	3.1	15682662	84	65535
2025-01-05 10:16:44.47	233.73	73.48	-61.9	-87.1	3.0	15681610	84	65535
2025-01-05 10:16:44.68	234.07	73.51	-61.9	-87.1	3.1	15681610	84	65535
2025-01-05 10:16:44.88	234.40	73.55	-62.0	-87.2	3.0	15685569	84	65535
2025-01-05 10:16:45.08	234.73	73.58	-61.2	-86.4	3.2	15685569	83	65535
2025-01-05 10:16:45.28	235.06	73.61	-62.0	-87.2	3.2	15677780	84	65535
2025-01-05 10:16:45.49	235.41	73.65	-61.9	-87.1	3.2	15677780	84	65535
2025-01-05 10:16:45.69	235.74	73.68	-61.9	-87.1	3.3	15683547	84	65535
2025-01-05 10:16:45.90	236.10	73.71	-61.9	-87.1	3.2	15683547	84	65535
2025-01-05 10:16:46.12	236.47	73.75	-61.8	-87.0	3.0	15685249	84	65535
2025-01-05 10:16:46.32	236.81	73.78	-61.9	-87.1	3.1	15685249	84	65535
2025-01-05 10:16:46.52	237.15	73.81	-62.0	-87.2	3.1	15676841	84	65535
2025-01-05 10:16:46.72	237.49	73.83	-61.9	-87.1	3.1	15676841	84	65535
2025-01-05 10:16:46.94	237.86	73.87	-61.9	-87.1	3.3	15695335	84	65535
2025-01-05 10:16:47.15	238.23	73.90	-61.9	-87.1	3.3	15695335	84	65535
2025-01-05 10:16:47.37	238.60	73.93	-61.9	-87.1	3.3	15669296	84	65535
2025-01-05 10:16:47.57	238.95	73.95	-62.0	-87.2	3.0	15669296	84	65535
2025-01-05 10:16:47.77	239.30	73.98	-62.2	-87.4	3.1	15669296	84	65535
2025-01-05 10:16:47.97	239.65	74.00	-61.9	-87.1	3.1	15685508	84	65535
2025-01-05 10:16:48.19	240.03	74.03	-61.9	-87.1	3.2	15685508	84	65535
2025-01-05 10:16:48.39	240.38	74.06	-62.0	-87.2	3.4	15676040	84	65535
2025-01-05 10:16:48.59	240.74	74.08	-61.9	-87.1	3.1	15676040	83	65535
2025-01-05 10:16:48.81	241.13	74.11	-62.2	-87.4	3.0	15693656	84	65535
2025-01-05 10:16:49.01	241.48	74.13	-61.9	-87.1	3.1	15693656	84	65535
2025-01-05 10:16:49.22	241.85	74.15	-61.9	-87.1	3.0	15686752	84	65535
2025-01-05 10:16:49.42	242.21	74.17	-61.9	-87.1	3.0	15686752	84	65535
2025-01-05 10:16:49.62	242.57	74.19	-62.2	-87.4	3.0	15694259	84	65535
2025-01-05 10:16:49.84	242.96	74.22	-62.0	-87.2	3.2	15694259	84	65535
2025-01-05 10:16:50.04	243.32	74.24	-62.0	-87.2	3.2	15682022	84	65535
2025-01-05 10:16:50.24	243.68	74.26	-62.2	-87.4	3.2	15682022	84	65535
2025-01-05 10:16:50.44	244.04	74.27	-62.0	-87.2	3.3	15685951	84	65535
2025-01-05 10:16:50.66	244.44	74.29	-62.2	-87.4	3.1	15685951	84	65535
2025-01-05 10:16:50.86	244.81	74.31	-62.0	-87.2	3.0	15679435	84	65535
2025-01-05 10:16:51.06	245.17	74.33	-62.0	-87.2	3.0	15679435	84	65535
2025-01-05 10:16:51.26	245.54	74.34	-62.0	-87.2	3.0	15679435	84	65535
2025-01-05 10:16:51.46	245.90	74.36	-62.2	-87.4	3.0	15668739	84	65535
2025-01-05 10:16:51.68	246.30	74.38	-62.0	-87.2	3.2	15668739	84	65535
2025-01-05 10:16:51.88	246.67	74.39	-61.9	-87.1	3.0	15678962	83	65535
2025-01-05 10:16:52.08	247.04	74.40	-62.1	-87.3	3.1	15678962	84	65535
2025-01-05 10:16:52.30	247.45	74.42	-62.0	-87.2	3.0	15680335	84	65535
2025-01-05 10:16:52.50	247.81	74.43	-62.1	-87.3	3.2	15680335	84	65535
2025-01-05 10:16:52.72	248.22	74.44	-61.9	-87.1	3.0	15691528	84	65535
2025-01-05 10:16:52.92	248.59	74.45	-61.9	-87.1	3.2	15691528	84	65535
2025-01-05 10:16:53.13	248.98	74.46	-62.0	-87.2	3.0	15695579	84	65535
2025-01-05 10:16:53.35	249.39	74.48	-62.0	-87.2	3.0	15695579	84	65535
2025-01-05 10:16:53.55	249.76	74.48	-62.0	-87.2	2.4	15690612	84	65535
2025-01-05 10:16:53.75	250.13	74.49	-61.9	-87.1	3.0	15690612	84	65535
2025-01-05 10:16:53.97	250.54	74.50	-61.9	-87.1	3.0	15686408	84	65535
2025-01-05 10:16:54.17	250.92	74.51	-62.0	-87.2	3.0	15686408	84	65535
2025-01-05 10:16:54.37	251.29	74.51	-61.9	-87.1	3.3	15670501	84	65535
2025-01-05 10:16:54.57	251.67	74.52	-61.9	-87.1	3.1	15670501	84	65535
2025-01-05 10:16:54.78	252.06	74.53	-61.9	-87.1	3.0	15668144	84	65535
2025-01-05 10:16:55.00	252.47	74.53	-62.0	-87.2	3.0	15668144	84	65535
2025-01-05 10:16:55.20	252.85	74.53	-61.9	-87.1	2.3	15668144	83	65535
2025-01-05 10:16:55.42	253.26	74.54	-61.9	-87.1	3.0	15690147	84	65535
2025-01-05 10:16:55.62	253.63	74.54	-61.9	-87.1	3.1	15690147	84	65535
2025-01-05 10:16:55.84	254.04	74.54	-62.1	-87.3	3.0	15691612	84	65535
2025-01-05 10:16:56.04	254.42	74.54	-62.0	-87.2	3.0	15691612	84	65535
2025-01-05 10:16:56.24	254.80	74.54	-62.1	-87.3	3.0	15688179	84	65535
2025-01-05 10:16:56.45	255.19	74.54	-62.1	-87.3	3.0	15688179	84	65535
2025-01-05 10:16:56.66	255.58	74.54	-62.2	-87.4	3.0	15684127	84	65535
2025-01-05 10:16:56.86	255.96	74.54	-60.4	-85.6	3.2	15684127	81	65535
2025-01-05 10:16:57.06	256.33	74.54	-62.2	-87.4	3.0	15690719	84	65535
2025-01-05 10:16:57.27	256.73	74.54	-62.0	-87.2	3.0	15690719	84	65535
2025-01-05 10:16:57.49	257.14	74.53	-62.1	-87.3	3.1	15686302	84	65535
2025-01-05 10:16:57.70	257.53	74.53	-62.0	-87.2	3.3	15686302	84	65535
2025-01-05 10:16:57.90	257.91	74.52	-62.0	-87.2	3.2	15692481	84	65535
2025-01-05 10:16:58.12	258.32	74.52	-62.0	-87.2	3.3	15692481	84	65535
2025-01-05 10:16:58.34	258.73	74.51	-62.1	-87.3	3.0	15690399	84	65535
2025-01-05 10:16:58.54	259.10	74.51	-62.0	-87.2	2.0	15690399	83	65535
2025-01-05 10:16:58.75	259.49	74.50	-62.0	-87.2	2.9	15696182	83	65535
2025-01-05 10:16:58.95	259.87	74.49	-62.0	-87.2	3.0	15696182	84	65535
2025-01-05 10:16:59.17	260.28	74.48	-62.1	-87.3	3.2	15683944	84	65535
2025-01-05 10:16:59.38	260.67	74.47	-62.1	-87.3	3.1	15683944	84	65535
2025-01-05 10:16:59.59	261.06	74.46	-61.9	-87.1	3.1	15679313	84	65535
2025-01-05 10:16:59.79	261.43	74.45	-62.2	-87.4	3.0	15679313	84	65535
2025-01-05 10:17:00.00	261.82	74.44	-62.0	-87.2	3.1	15679313	84	65535
2025-01-05 10:17:00.21	262.20	74.42	-60.4	-85.6	3.1	15676628	81	65535
2025-01-05 10:17:00.42	262.59	74.41	-61.9	-87.1	3.1	15676628	84	65535
2025-01-05 10:17:00.62	262.96	74.40	-62.0	-87.2	3.2	15684440	84	65535
2025-01-05 10:17:00.82	263.33	74.38	-61.9	-87.1	3.4	15684440	84	65535
2025-01-05 10:17:01.03	263.71	74.37	-62.1	-87.3	3.0	15655120	84	65535
2025-01-05 10:17:01.24	264.10	74.35	-62.0	-87.2	3.0	15655120	84	65535
2025-01-05 10:17:01.44	264.46	74.34	-62.2	-87.4	3.0	15681259	84	65535
2025-01-05 10:17:01.66	264.86	74.32	-62.2	-87.4	3.0	15681259	84	65535
2025-01-05 10:17:01.86	265.23	74.30	-60.4	-85.6	3.3	15675926	82	65535
2025-01-05 10:17:02.06	265.59	74.29	-62.2	-87.4	3.0	15675926	84	65535
2025-01-05 10:17:02.26	265.95	74.27	-62.2	-87.4	3.0	15682121	84	65535
2025-01-05 10:17:02.46	266.31	74.25	-62.1	-87.3	3.1	15682121	84	65535
2025-01-05 10:17:02.66	266.67	74.23	-62.1	-87.3	3.0	15679824	84	65535
2025-01-05 10:17:02.87	267.05	74.21	-62.2	-87.5	3.0	15679824	84	65535
2025-01-05 10:17:03.07	267.41	74.19	-62.1	-87.3	3.1	15679824	84	65535
2025-01-05 10:17:03.28	267.78	74.17	-62.2	-87.4	3.0	15672332	84	65535
2025-01-05 10:17:03.48	268.14	74.14	-61.4	-86.6	3.1	15672332	84	65535
2025-01-05 10:17:03.70	268.53	74.12	-62.2	-87.4	3.0	15677986	84	65535
2025-01-05 10:17:03.90	268.89	74.10	-62.2	-87.4	3.1	15677986	84	65535
2025-01-05 10:17:04.10	269.24	74.07	-62.2	-87.4	3.0	15679405	84	65535
2025-01-05 10:17:04.32	269.62	74.05	-62.2	-87.4	3.0	15679405	84	65535
2025-01-05 10:17:04.52	269.98	74.02	-62.3	-87.5	3.0	15667213	84	65535
2025-01-05 10:17:04.73	270.34	74.00	-62.2	-87.4	3.1	15667213	84	65535
2025-01-05 10:17:04.93	270.69	73.97	-62.2	-87.4	3.1	15672927	84	65535
2025-01-05 10:17:05.15	271.07	73.94	-62.1	-87.3	3.1	15672927	84	65535
2025-01-05 10:17:05.37	271.45	73.91	-62.2	-87.4	3.0	15674636	84	65535
2025-01-05 10:17:05.58	271.81	73.88	-62.2	-87.4	3.4	15674636	84	65535
2025-01-05 10:17:05.80	272.19	73.85	-62.2	-87.4	3.2	15674560	84	65535
2025-01-05 10:17:06.00	272.53	73.82	-62.2	-87.4	3.4	15674560	84	65535
2025-01-05 10:17:06.21	272.89	73.79	-62.1	-87.3	3.2	15685119	84	65535
2025-01-05 10:17:06.41	273.23	73.76	-62.2	-87.4	3.1	15685119	84	65535
2025-01-05 10:17:06.63	273.60	73.73	-62.0	-87.2	3.1	15684829	84	65535
2025-01-05 10:17:06.85	273.97	73.69	-61.5	-86.7	3.3	15684829	84	65535
2025-01-05 10:17:07.05	274.31	73.66	-62.0	-87.2	3.3	15672622	84	65535
2025-01-05 10:17:07.25	274.64	73.63	-62.0	-87.2	3.3	15672622	84	65535
2025-01-05 10:17:07.45	274.97	73.60	-62.2	-87.4	3.4	15672370	84	65535
2025-01-05 10:17:07.67	275.33	73.56	-62.0	-87.2	3.2	15672370	84	65535
2025-01-05 10:17:07.88	275.68	73.52	-62.0	-87.2	3.1	15686836	84	65535
2025-01-05 10:17:08.08	276.01	73.49	-62.2	-87.4	3.1	15686836	84	65535
2025-01-05 10:17:08.30	276.37	73.45	-62.1	-87.3	3.1	15686836	84	65535
2025-01-05 10:17:08.50	276.69	73.42	-61.9	-87.1	3.2	15674163	84	65535
2025-01-05 10:17:08.70	277.01	73.38	-61.9	-87.1	3.3	15674163	84	65535
2025-01-05 10:17:08.91	277.35	73.34	-62.0	-87.2	3.3	15682067	84	65535
2025-01-05 10:17:09.12	277.69	73.30	-62.0	-87.2	3.3	15682067	84	65535
2025-01-05 10:17:09.33	278.02	73.27	-62.0	-87.2	3.0	15676223	84	65535
2025-01-05 10:17:09.55	278.37	73.22	-62.0	-87.2	3.0	15676223	84	65535
2025-01-05 10:17:09.75	278.69	73.19	-62.2	-87.4	3.0	15684135	84	65535
2025-01-05 10:17:09.96	279.02	73.14	-62.0	-87.2	3.1	15684135	84	65535
2025-01-05 10:17:10.16	279.33	73.11	-62.3	-87.5	3.3	15668838	84	65535
2025-01-05 10:17:10.37	279.66	73.06	-61.9	-87.1	3.2	15668838	83	65535
2025-01-05 10:17:10.57	279.96	73.02	-62.2	-87.4	3.2	15688911	84	65535
2025-01-05 10:17:10.77	280.27	72.98	-61.9	-87.1	3.4	15688911	84	65535
2025-01-05 10:17:10.98	280.59	72.94	-61.9	-87.1	3.0	15668479	84	65535
2025-01-05 10:17:11.19	280.91	72.90	-61.9	-87.1	3.0	15668479	84	65535
2025-01-05 10:17:11.39	281.22	72.85	-61.9	-87.2	3.0	15671302	84	65535
2025-01-05 10:17:11.59	281.52	72.81	-61.9	-87.1	3.3	15671302	84	65535
2025-01-05 10:17:11.80	281.83	72.77	-62.0	-87.2	3.2	15671302	84	65535
2025-01-05 10:17:12.00	282.13	72.72	-62.1	-87.3	3.2	15682128	83	65535
2025-01-05 10:17:12.21	282.44	72.68	-62.1	-87.3	3.3	15682128	84	65535
2025-01-05 10:17:12.42	282.75	72.63	-61.9	-87.1	3.1	15685371	84	65535
2025-01-05 10:17:12.64	283.07	72.58	-62.0	-87.2	3.0	15685371	84	65535
2025-01-05 10:17:12.85	283.38	72.53	-62.1	-87.3	3.0	15684501	84	65535
2025-01-05 10:17:13.07	283.70	72.48	-61.9	-87.1	3.1	15684501	84	65535
2025-01-05 10:17:13.28	284.00	72.44	-61.9	-87.1	3.0	15683822	84	65535
2025-01-05 10:17:13.48	284.29	72.39	-61.9	-87.1	3.0	15683822	84	65535
2025-01-05 10:17:13.69	284.58	72.34	-61.9	-87.1	2.9	15679878	84	65535
2025-01-05 10:17:13.89	284.87	72.29	-61.9	-87.1	3.0	15679878	84	65535
2025-01-05 10:17:14.09	285.15	72.25	-61.9	-87.1	3.0	15675888	84	65535
2025-01-05 10:17:14.29	285.43	72.20	-61.9	-87.1	3.0	15675888	84	65535
2025-01-05 10:17:14.49	285.71	72.15	-61.9	-87.1	3.0	15688850	84	65535
2025-01-05 10:17:14.69	285.98	72.10	-61.9	-87.1	3.3	15688850	84	65535
2025-01-05 10:17:14.91	286.29	72.05	-62.0	-87.2	3.4	15686431	84	65535
2025-01-05 10:17:15.12	286.57	72.00	-61.9	-87.1	3.2	15686431	84	65535
2025-01-05 10:17:15.32	286.85	71.95	-61.9	-87.1	2.4	15686431	83	65535
2025-01-05 10:17:15.54	287.14	71.89	-61.8	-87.0	2.9	15680938	83	65535
2025-01-05 10:17:15.74	287.41	71.84	-61.9	-87.1	2.9	15697402	83	65535
2025-01-05 10:17:15.94	287.68	71.79	-61.9	-87.1	2.9	15697402	83	65535
2025-01-05 10:17:16.16	287.97	71.73	-61.9	-87.1	3.1	15697402	83	65535
2025-01-05 10:17:16.37	288.25	71.68	-61.9	-87.1	3.3	15702262	83	65535
2025-01-05 10:17:16.58	288.52	71.62	-61.9	-87.1	3.2	15702262	83	65535
2025-01-05 10:17:16.79	288.79	71.57	-61.9	-87.1	2.9	15684036	83	65535
2025-01-05 10:17:17.01	289.08	71.51	-61.8	-87.0	2.9	15684036	83	65535
2025-01-05 10:17:17.22	289.35	71.46	-61.9	-87.1	3.1	15688011	84	65535
2025-01-05 10:17:17.44	289.63	71.40	-62.0	-87.2	3.1	15688011	84	65535
2025-01-05 10:17:17.65	289.89	71.34	-62.0	-87.2	3.0	15687705	84	65535
2025-01-05 10:17:17.87	290.17	71.28	-61.9	-87.1	3.0	15687705	84	65535
2025-01-05 10:17:18.07	290.42	71.23	-62.0	-87.2	3.0	15680923	84	65535
2025-01-05 10:17:18.29	290.70	71.17	-61.9	-87.1	3.4	15680923	84	65535
2025-01-05 10:17:18.50	290.95	71.11	-62.0	-87.2	3.2	15678619	84	65535
2025-01-05 10:17:18.70	291.20	71.05	-61.8	-87.0	2.9	15678619	83	65535
2025-01-05 10:17:18.90	291.44	71.00	-61.9	-87.1	2.9	15679603	83	65535
2025-01-05 10:17:19.12	291.71	70.94	-61.8	-87.0	2.9	15679603	83	65535
2025-01-05 10:17:19.32	291.95	70.88	-61.8	-87.0	2.9	15699821	83	65535
2025-01-05 10:17:19.53	292.20	70.82	-61.8	-87.0	3.2	15699821	83	65535
2025-01-05 10:17:19.74	292.45	70.76	-61.8	-87.0	3.1	15683135	83	65535
2025-01-05 10:17:19.94	292.69	70.70	-61.8	-87.0	3.0	15683135	83	65535
2025-01-05 10:17:20.15	292.93	70.64	-62.0	-87.2	3.1	15683975	85	65535
2025-01-05 10:17:20.35	293.17	70.59	-61.9	-87.1	3.0	15683975	83	65535
2025-01-05 10:17:20.57	293.42	70.52	-61.8	-87.0	2.9	15689468	83	65535
2025-01-05 10:17:20.78	293.66	70.46	-61.9	-87.1	3.2	15689468	84	65535
2025-01-05 10:17:20.99	293.90	70.40	-62.1	-87.3	3.2	15690742	84	65535
2025-01-05 10:17:21.20	294.14	70.34	-61.9	-87.1	3.3	15690742	84	65535
2025-01-05 10:17:21.40	294.37	70.28	-62.0	-87.2	3.4	15690742	84	65535

#Closed at: 2025-01-05 10:17:21