passes_logs/2026/01/22/T1/T1__20260122_071844_SUOMI_NPP_rec.log

#Pass ID: 20260122_071844_SUOMI NPP
#Satellite: SUOMI NPP
#Configuration: NPP
#almurnet v.1.7.20251203
#Start time: 2026-01-22 07:18:46

#Version: 2.0.20230620
#Station: T1
#Location: 37.570604 lon 55.790049 lat
#TLE: 1 37849U 11061A   26021.51818991  .00000201  00000+0  11636-3 0  9995
#TLE: 2 37849  98.7819 323.5108 0002300  52.3548 307.7836 14.19527793737637

#Time	Az	El	Level	Level2	SNR	BER	BlckErr	Temp	State	Recorded	gain1	gain2
2026-01-22 07:18:46.24	71.21	5.09	-49.7	-65.0	3.8	1.49e+00	0	35	0	0	71	20416
2026-01-22 07:18:48.22	70.96	5.17	-49.7	-65.0	3.8	1.49e+00	0	35	104	0	71	20437
2026-01-22 07:18:50.21	70.71	5.25	-49.7	-65.0	3.8	1.49e+00	0	35	104	0	71	20396
2026-01-22 07:18:52.19	70.46	5.34	-49.7	-65.0	3.8	1.49e+00	0	35	104	0	71	20314
2026-01-22 07:18:54.18	70.20	5.42	-49.7	-65.0	3.8	1.49e+00	0	35	104	0	71	20328
2026-01-22 07:18:56.17	69.95	5.50	-49.7	-65.0	3.8	1.49e+00	0	36	104	0	71	20339
2026-01-22 07:18:58.15	69.69	5.58	-49.7	-64.9	3.8	1.49e+00	0	35	104	0	71	20297
2026-01-22 07:19:00.14	69.43	5.65	-49.7	-65.0	3.8	1.49e+00	0	36	104	0	71	20439
2026-01-22 07:19:02.12	69.18	5.73	-49.7	-65.0	3.8	1.49e+00	0	36	104	0	71	20383
2026-01-22 07:19:04.11	68.92	5.81	-49.7	-65.0	3.8	1.49e+00	0	36	104	0	71	20358
2026-01-22 07:19:06.10	68.65	5.89	-49.7	-64.9	3.8	1.49e+00	0	36	104	0	71	20299
2026-01-22 07:19:08.08	68.39	5.97	-49.7	-64.9	3.8	1.49e+00	0	36	104	0	71	20253
2026-01-22 07:19:10.07	68.13	6.05	-49.7	-64.9	3.8	1.49e+00	0	36	104	0	71	20183
2026-01-22 07:19:12.05	67.86	6.12	-49.7	-64.9	3.8	1.49e+00	0	36	104	0	71	20241
2026-01-22 07:19:14.04	67.59	6.20	-49.7	-64.9	3.8	1.49e+00	0	36	104	0	71	20301
2026-01-22 07:19:16.02	67.32	6.28	-49.7	-65.0	3.8	1.49e+00	0	36	104	0	71	20412
2026-01-22 07:19:18.01	67.05	6.35	-49.7	-65.0	3.8	1.49e+00	0	36	104	0	71	20335
2026-01-22 07:19:20.00	66.78	6.43	-49.7	-65.0	3.8	1.49e+00	0	36	104	0	71	20319
2026-01-22 07:19:21.98	66.51	6.51	-49.7	-65.0	3.8	1.49e+00	0	36	104	0	71	20349
2026-01-22 07:19:23.97	66.23	6.58	-49.7	-65.0	3.8	1.49e+00	0	36	104	0	71	20317
2026-01-22 07:19:25.95	65.96	6.66	-49.7	-64.9	3.8	1.49e+00	0	36	104	0	71	20293
2026-01-22 07:19:27.94	65.68	6.73	-49.7	-64.9	3.8	1.49e+00	0	36	104	0	71	20301
2026-01-22 07:19:29.93	65.40	6.81	-49.7	-65.0	3.8	1.49e+00	0	37	104	0	71	20334
2026-01-22 07:19:31.91	65.12	6.88	-49.7	-65.0	3.8	1.49e+00	0	36	104	0	71	20309
2026-01-22 07:19:33.90	64.84	6.95	-49.7	-64.9	3.8	1.49e+00	0	36	104	0	71	20225
2026-01-22 07:19:35.89	64.56	7.03	-49.7	-65.0	3.8	1.49e+00	0	37	104	0	71	20308
2026-01-22 07:19:37.87	64.27	7.10	-49.7	-65.0	3.8	1.49e+00	0	36	104	0	71	20372
2026-01-22 07:19:39.86	63.99	7.17	-49.7	-64.9	3.8	1.49e+00	0	37	104	0	71	20209
2026-01-22 07:19:41.85	63.70	7.24	-49.7	-64.9	3.8	1.49e+00	0	37	104	0	71	20286
2026-01-22 07:19:43.83	63.41	7.31	-49.7	-64.9	3.8	1.49e+00	0	37	104	0	71	20242
2026-01-22 07:19:45.82	63.12	7.38	-49.7	-65.0	3.8	1.49e+00	0	37	104	0	71	20324
2026-01-22 07:19:47.81	62.83	7.45	-49.7	-64.9	3.8	1.49e+00	0	37	104	0	71	20180
2026-01-22 07:19:49.79	62.53	7.52	-49.7	-64.9	3.8	1.49e+00	0	37	104	0	71	20106
2026-01-22 07:19:51.78	62.24	7.59	-49.7	-64.9	3.8	1.49e+00	0	37	104	0	71	20082
2026-01-22 07:19:53.77	61.94	7.66	-49.7	-64.8	3.8	1.49e+00	0	37	104	0	71	19866
2026-01-22 07:19:55.75	61.65	7.73	-49.7	-64.7	3.8	1.49e+00	0	37	104	0	71	19654
2026-01-22 07:19:57.74	61.35	7.79	-49.7	-64.7	3.8	1.49e+00	0	37	104	0	71	19726
2026-01-22 07:19:59.73	61.05	7.86	-49.7	-64.8	3.8	1.49e+00	0	37	104	0	71	20011
2026-01-22 07:20:01.71	60.74	7.93	-49.7	-64.8	3.8	1.49e+00	0	37	104	0	71	20023
2026-01-22 07:20:03.70	60.44	7.99	-49.7	-64.8	3.8	1.49e+00	0	37	104	0	71	19863
2026-01-22 07:20:05.69	60.14	8.06	-49.7	-64.6	3.8	1.49e+00	0	37	104	0	71	19518
2026-01-22 07:20:07.67	59.83	8.12	-49.7	-64.6	3.8	1.49e+00	0	37	104	0	71	19612
2026-01-22 07:20:09.66	59.52	8.19	-49.7	-64.8	3.8	1.49e+00	0	37	104	0	71	20052
2026-01-22 07:20:11.65	59.21	8.25	-49.7	-64.9	3.8	1.49e+00	0	37	104	0	71	20218
2026-01-22 07:20:13.63	58.91	8.31	-49.7	-64.7	3.8	1.49e+00	0	37	104	0	71	19711
2026-01-22 07:20:15.62	58.59	8.37	-49.7	-64.3	3.8	1.49e+00	0	37	104	0	71	18808
2026-01-22 07:20:17.61	58.28	8.43	-49.7	-64.4	3.8	1.49e+00	0	37	104	0	71	19091
2026-01-22 07:20:19.60	57.97	8.50	-49.7	-64.8	3.8	1.49e+00	0	37	104	0	71	20043
2026-01-22 07:20:21.58	57.65	8.56	-49.7	-64.9	3.8	1.49e+00	0	37	104	0	71	20124
2026-01-22 07:20:23.57	57.34	8.61	-49.6	-64.0	3.8	1.49e+00	0	37	104	0	71	18103
2026-01-22 07:20:25.56	57.02	8.67	-49.6	-62.9	3.8	1.49e+00	0	37	104	0	71	15958
2026-01-22 07:20:27.54	56.70	8.73	-49.7	-64.8	3.8	1.49e+00	0	37	104	0	71	19845
2026-01-22 07:20:29.53	56.38	8.79	-48.9	-57.5	6.2	6.87e-01	0	37	0	1048576	69	9677
2026-01-22 07:20:31.52	56.06	8.84	-46.8	-51.6	11.9	4.32e-03	0	37	0	4194304	65	6162
2026-01-22 07:20:33.50	55.73	8.90	-45.8	-49.7	13.9	3.80e-06	0	37	0	8388608	63	5565
2026-01-22 07:20:35.49	55.41	8.96	-46.1	-50.1	13.6	2.20e-06	0	37	0	11534336	63	5804
2026-01-22 07:20:37.48	55.08	9.01	-47.7	-53.5	10.0	2.09e-03	0	37	0	15728640	65	7634
2026-01-22 07:20:39.54	54.74	9.07	-46.9	-51.6	11.8	2.16e-02	0	37	0	19922944	65	6202
2026-01-22 07:20:41.53	54.42	9.12	-48.2	-54.5	8.7	1.15e+00	0	37	0	23068672	68	7222
2026-01-22 07:20:43.52	54.09	9.17	-46.5	-50.9	12.4	1.42e-01	0	37	0	26214400	65	5698
2026-01-22 07:20:45.51	53.76	9.22	-45.2	-48.7	14.9	1.50e-06	0	37	0	30408704	62	5245
2026-01-22 07:20:47.50	53.42	9.27	-44.9	-48.3	15.3	0.00e+00	0	37	0	33554432	61	5310
2026-01-22 07:20:49.49	53.09	9.32	-44.7	-48.0	15.6	0.00e+00	0	37	0	37748736	61	5124
2026-01-22 07:20:51.48	52.76	9.37	-45.0	-48.4	15.3	0.00e+00	0	37	0	40894464	61	5341
2026-01-22 07:20:53.58	52.40	9.42	-44.7	-48.0	15.6	0.00e+00	0	38	0	45088768	61	5141
2026-01-22 07:20:55.57	52.07	9.47	-44.6	-47.8	15.7	0.00e+00	0	37	0	49283072	61	5003
2026-01-22 07:20:57.57	51.73	9.51	-44.9	-48.4	15.2	0.00e+00	0	37	0	52428800	61	5381
2026-01-22 07:20:59.56	51.39	9.56	-45.3	-48.9	14.7	0.00e+00	0	37	0	56623104	61	5706
2026-01-22 07:21:01.55	51.05	9.60	-44.9	-48.4	15.2	0.00e+00	0	37	0	59768832	61	5373
2026-01-22 07:21:03.54	50.71	9.65	-45.0	-48.4	15.2	0.00e+00	0	38	0	63963136	61	5364
2026-01-22 07:21:05.53	50.37	9.69	-44.9	-48.3	15.3	0.00e+00	0	38	0	67108864	61	5315
2026-01-22 07:21:07.52	50.02	9.73	-45.0	-48.4	15.2	0.00e+00	0	37	0	71303168	61	5371
2026-01-22 07:21:09.57	49.67	9.77	-45.1	-48.6	15.0	0.00e+00	0	37	0	75497472	61	5505
2026-01-22 07:21:11.56	49.33	9.81	-45.2	-48.7	14.9	0.00e+00	0	37	0	78643200	61	5564
2026-01-22 07:21:13.55	48.98	9.85	-45.0	-48.5	15.1	0.00e+00	0	37	0	82837504	61	5427
2026-01-22 07:21:15.54	48.63	9.89	-45.1	-48.6	15.1	0.00e+00	0	37	0	85983232	61	5483
2026-01-22 07:21:17.53	48.29	9.93	-45.3	-48.9	14.7	0.00e+00	0	38	0	90177536	61	5694
2026-01-22 07:21:19.52	47.94	9.96	-44.6	-47.9	15.7	0.00e+00	0	37	0	94371840	61	5061
2026-01-22 07:21:21.51	47.59	10.00	-44.4	-47.6	16.1	0.00e+00	0	38	0	97517568	60	5176
2026-01-22 07:21:23.50	47.24	10.03	-44.6	-47.9	15.7	0.00e+00	0	38	0	101711872	60	5369
2026-01-22 07:21:25.49	46.89	10.06	-44.7	-47.9	15.7	0.00e+00	0	37	0	104857600	60	5394
2026-01-22 07:21:27.48	46.54	10.10	-44.8	-48.0	15.5	0.00e+00	0	37	0	109051904	60	5464
2026-01-22 07:21:29.61	46.16	10.13	-44.7	-47.9	15.7	0.00e+00	0	37	0	113246208	60	5366
2026-01-22 07:21:31.60	45.81	10.16	-44.5	-47.7	15.9	0.00e+00	0	37	0	116391936	60	5237
2026-01-22 07:21:33.61	45.45	10.19	-44.5	-47.6	16.0	0.00e+00	0	37	0	120586240	60	5204
2026-01-22 07:21:35.60	45.10	10.22	-44.4	-47.5	16.1	0.00e+00	0	37	0	123731968	60	5126
2026-01-22 07:21:37.59	44.74	10.24	-44.6	-47.8	15.8	0.00e+00	0	37	0	127926272	60	5321
2026-01-22 07:21:39.60	44.38	10.27	-44.6	-47.8	15.8	0.00e+00	0	37	0	131072000	60	5290
2026-01-22 07:21:41.59	44.02	10.30	-44.3	-47.4	16.2	0.00e+00	0	37	0	135266304	60	5085
2026-01-22 07:21:43.58	43.67	10.32	-44.3	-47.4	16.2	0.00e+00	0	38	0	139460608	60	5092
2026-01-22 07:21:45.79	43.27	10.34	-44.3	-47.4	16.3	0.00e+00	0	37	0	143654912	60	5055
2026-01-22 07:21:47.83	42.90	10.37	-44.4	-47.5	16.2	0.00e+00	0	38	0	146800640	60	5119
2026-01-22 07:21:49.82	42.55	10.39	-44.3	-47.4	16.2	0.00e+00	0	37	0	150994944	60	5072
2026-01-22 07:21:51.81	42.19	10.41	-44.3	-47.5	16.2	0.00e+00	0	38	0	154140672	60	5111
2026-01-22 07:21:53.79	41.83	10.43	-44.3	-47.4	16.2	0.00e+00	0	37	0	158334976	60	5080
2026-01-22 07:21:55.78	41.47	10.44	-44.1	-47.0	16.6	0.00e+00	0	37	0	161480704	60	4866
2026-01-22 07:21:57.77	41.11	10.46	-43.8	-46.7	16.9	0.00e+00	0	37	0	165675008	59	4932
2026-01-22 07:21:59.76	40.75	10.47	-43.8	-46.7	16.9	0.00e+00	0	37	0	168820736	59	4939
2026-01-22 07:22:01.80	40.38	10.49	-43.8	-46.6	17.0	0.00e+00	0	38	0	173015040	59	4918
2026-01-22 07:22:03.82	40.01	10.50	-43.5	-46.2	17.3	0.00e+00	0	38	0	177209344	59	4673
2026-01-22 07:22:05.83	39.64	10.51	-43.4	-46.0	17.5	0.00e+00	0	37	0	180355072	58	4861
2026-01-22 07:22:07.87	39.27	10.53	-43.5	-46.3	17.3	0.00e+00	0	38	0	184549376	58	5008
2026-01-22 07:22:09.87	38.91	10.54	-43.7	-46.6	16.9	0.00e+00	0	38	0	188743680	58	5195
2026-01-22 07:22:11.86	38.55	10.54	-43.8	-46.7	16.8	0.00e+00	0	38	0	191889408	58	5274
2026-01-22 07:22:13.85	38.18	10.55	-43.9	-46.9	16.7	0.00e+00	0	38	0	196083712	58	5367
2026-01-22 07:22:15.86	37.82	10.56	-44.0	-47.0	16.6	0.00e+00	0	38	0	199229440	58	5407
2026-01-22 07:22:17.85	37.45	10.56	-44.0	-46.9	16.7	0.00e+00	0	37	0	203423744	58	5400
2026-01-22 07:22:19.93	37.07	10.57	-43.8	-46.7	16.9	0.00e+00	0	37	0	207618048	58	5263
2026-01-22 07:22:21.93	36.71	10.57	-43.8	-46.7	16.9	0.00e+00	0	37	0	210763776	58	5233
2026-01-22 07:22:23.92	36.35	10.57	-43.9	-47.0	16.6	0.00e+00	0	38	0	214958080	58	5410
2026-01-22 07:22:25.91	35.98	10.57	-44.1	-47.2	16.4	0.00e+00	0	37	0	218103808	58	5580
2026-01-22 07:22:27.90	35.62	10.57	-44.0	-47.0	16.6	0.00e+00	0	37	0	222298112	59	5148
2026-01-22 07:22:29.99	35.24	10.57	-43.7	-46.6	17.0	0.00e+00	0	38	0	225443840	59	4881
2026-01-22 07:22:32.20	34.83	10.57	-44.0	-46.9	16.7	0.00e+00	0	38	0	230686720	59	5085
2026-01-22 07:22:34.39	34.43	10.56	-44.2	-47.2	16.4	0.00e+00	0	38	0	233832448	59	5222
2026-01-22 07:22:36.58	34.03	10.56	-44.4	-47.6	16.1	0.00e+00	0	38	0	238026752	59	5472
2026-01-22 07:22:38.78	33.63	10.55	-44.4	-47.6	15.9	0.00e+00	0	38	0	242221056	59	5516
2026-01-22 07:22:40.77	33.27	10.54	-44.3	-47.5	16.1	0.00e+00	0	38	0	246415360	59	5451
2026-01-22 07:22:42.78	32.90	10.54	-44.2	-47.3	16.3	0.00e+00	0	38	0	249561088	59	5307
2026-01-22 07:22:44.77	32.54	10.53	-44.1	-47.2	16.4	0.00e+00	0	38	0	253755392	59	5258
2026-01-22 07:22:46.76	32.18	10.52	-44.1	-47.2	16.3	0.00e+00	0	38	0	257949696	59	5262
2026-01-22 07:22:48.76	31.82	10.50	-44.4	-47.6	16.1	0.00e+00	0	38	0	261095424	59	5479
2026-01-22 07:22:50.75	31.46	10.49	-44.4	-47.6	16.0	0.00e+00	0	38	0	265289728	59	5491
2026-01-22 07:22:52.76	31.09	10.48	-44.5	-47.7	15.9	0.00e+00	0	38	0	268435456	59	5561
2026-01-22 07:22:54.76	30.73	10.46	-44.6	-47.9	15.7	0.00e+00	0	37	0	272629760	60	5387
2026-01-22 07:22:56.75	30.37	10.44	-44.7	-48.0	15.7	0.00e+00	0	38	0	275775488	60	5409
2026-01-22 07:22:58.76	30.01	10.43	-44.6	-47.9	15.8	0.00e+00	0	38	0	279969792	60	5374
2026-01-22 07:23:00.76	29.64	10.41	-44.4	-47.7	16.0	0.00e+00	0	37	0	284164096	60	5225
2026-01-22 07:23:02.76	29.28	10.39	-44.5	-47.8	15.9	0.00e+00	0	38	0	287309824	60	5285
2026-01-22 07:23:04.71	28.93	10.37	-44.4	-47.6	16.0	0.00e+00	0	38	0	291504128	60	5211
2026-01-22 07:23:06.70	28.57	10.35	-44.1	-47.2	16.4	0.00e+00	0	38	0	294649856	60	4949
2026-01-22 07:23:08.69	28.22	10.33	-44.0	-46.9	16.6	0.00e+00	0	37	0	298844160	59	5090
2026-01-22 07:23:10.68	27.86	10.30	-43.8	-46.7	16.9	0.00e+00	0	38	0	301989888	59	4940
2026-01-22 07:23:12.67	27.50	10.28	-44.0	-47.0	16.6	0.00e+00	0	38	0	306184192	59	5113
2026-01-22 07:23:14.66	27.15	10.25	-44.1	-47.1	16.5	0.00e+00	0	38	0	309329920	59	5200
2026-01-22 07:23:16.65	26.79	10.22	-44.1	-47.2	16.4	0.00e+00	0	38	0	313524224	59	5243
2026-01-22 07:23:18.63	26.44	10.20	-44.1	-47.2	16.5	0.00e+00	0	38	0	316669952	59	5227
2026-01-22 07:23:20.61	26.09	10.17	-44.1	-47.3	16.3	0.00e+00	0	38	0	320864256	59	5314
2026-01-22 07:23:22.84	25.70	10.13	-44.0	-47.2	16.5	0.00e+00	0	38	0	325058560	59	5222
2026-01-22 07:23:24.86	25.34	10.10	-43.8	-46.9	16.6	0.00e+00	0	38	0	329252864	59	5048
2026-01-22 07:23:26.98	24.96	10.07	-44.0	-47.0	16.6	0.00e+00	0	38	0	332398592	59	5143
2026-01-22 07:23:28.97	24.61	10.04	-44.3	-47.5	16.1	0.00e+00	0	38	0	336592896	59	5451
2026-01-22 07:23:30.95	24.27	10.00	-44.5	-47.9	15.7	0.00e+00	0	38	0	340787200	59	5678
2026-01-22 07:23:32.94	23.92	9.97	-44.6	-48.0	15.6	0.00e+00	0	38	0	343932928	59	5777
2026-01-22 07:23:34.93	23.57	9.93	-44.5	-47.8	15.8	0.00e+00	0	38	0	348127232	59	5616
2026-01-22 07:23:36.92	23.22	9.90	-44.3	-47.4	16.2	0.00e+00	0	38	0	351272960	60	5096
2026-01-22 07:23:39.01	22.86	9.86	-44.2	-47.6	16.0	0.00e+00	0	38	0	355467264	60	5201
2026-01-22 07:23:41.08	22.50	9.82	-43.8	-47.1	16.4	0.00e+00	0	38	0	359661568	59	5206
2026-01-22 07:23:43.10	22.15	9.77	-43.7	-47.1	16.5	0.00e+00	0	38	0	362807296	59	5204
2026-01-22 07:23:45.12	21.80	9.73	-43.7	-47.3	16.3	0.00e+00	0	37	0	367001600	59	5285
2026-01-22 07:23:47.11	21.46	9.69	-43.6	-47.1	16.5	0.00e+00	0	38	0	370147328	59	5185
2026-01-22 07:23:49.10	21.12	9.65	-43.7	-47.2	16.4	0.00e+00	0	38	0	374341632	59	5243
2026-01-22 07:23:51.09	20.78	9.61	-43.6	-47.2	16.4	0.00e+00	0	38	0	378535936	59	5239
2026-01-22 07:23:53.05	20.45	9.56	-43.7	-47.3	16.3	0.00e+00	0	38	0	381681664	59	5285
2026-01-22 07:23:55.04	20.11	9.52	-43.8	-47.3	16.3	0.00e+00	0	38	0	385875968	59	5318
2026-01-22 07:23:57.03	19.77	9.47	-43.8	-47.2	16.4	0.00e+00	0	38	0	389021696	59	5249
2026-01-22 07:23:59.02	19.44	9.42	-44.0	-47.3	16.2	0.00e+00	0	38	0	393216000	59	5336
2026-01-22 07:24:01.01	19.10	9.38	-44.1	-47.3	16.2	0.00e+00	0	38	0	396361728	59	5324
2026-01-22 07:24:03.00	18.77	9.33	-44.0	-47.2	16.4	0.00e+00	0	38	0	400556032	59	5226
2026-01-22 07:24:04.99	18.44	9.28	-44.1	-47.3	16.3	0.00e+00	0	38	0	403701760	59	5295
2026-01-22 07:24:06.98	18.11	9.23	-44.1	-47.2	16.4	0.00e+00	0	38	0	407896064	59	5239
2026-01-22 07:24:08.97	17.78	9.18	-44.2	-47.4	16.1	0.00e+00	0	38	0	412090368	59	5353
2026-01-22 07:24:10.96	17.45	9.13	-44.2	-47.4	16.1	0.00e+00	0	38	0	415236096	59	5400
2026-01-22 07:24:12.95	17.12	9.07	-44.1	-47.4	16.1	0.00e+00	0	38	0	419430400	59	5386
2026-01-22 07:24:14.94	16.79	9.02	-43.9	-47.3	16.2	0.00e+00	0	38	0	422576128	59	5305
2026-01-22 07:24:16.92	16.47	8.97	-49.2	-65.2	3.8	1.49e+00	0	38	104	424673280	69	23369
2026-01-22 07:24:18.91	16.15	8.91	-49.6	-65.4	3.8	1.49e+00	0	38	104	424673280	70	22709
2026-01-22 07:24:20.90	15.82	8.86	-50.1	-65.5	3.8	1.49e+00	0	38	104	424673280	70	22902
2026-01-22 07:24:22.88	15.51	8.80	-50.1	-65.6	3.8	1.49e+00	0	38	104	424673280	71	21883
2026-01-22 07:24:24.87	15.19	8.74	-50.3	-65.6	3.8	1.49e+00	0	38	104	424673280	71	21959
2026-01-22 07:24:26.86	14.87	8.69	-50.4	-65.7	3.8	1.49e+00	0	38	104	424673280	71	22113
2026-01-22 07:24:28.84	14.55	8.63	-50.3	-65.7	3.8	1.49e+00	0	38	104	424673280	71	22193
2026-01-22 07:24:30.83	14.23	8.57	-50.3	-65.7	3.8	1.49e+00	0	38	104	424673280	71	22188
2026-01-22 07:24:32.82	13.92	8.51	-50.4	-65.7	3.8	1.49e+00	0	38	104	424673280	71	22059
2026-01-22 07:24:34.80	13.61	8.45	-50.4	-65.7	3.8	1.49e+00	0	38	104	424673280	71	22084
2026-01-22 07:24:36.79	13.30	8.39	-50.4	-65.7	3.8	1.49e+00	0	38	104	424673280	71	22035
2026-01-22 07:24:38.78	12.98	8.33	-50.1	-65.6	3.8	1.49e+00	0	38	104	424673280	71	21964
2026-01-22 07:24:40.76	12.68	8.26	-50.2	-65.6	3.8	1.49e+00	0	38	104	424673280	71	21870
2026-01-22 07:24:42.75	12.37	8.20	-50.2	-65.6	3.8	1.49e+00	0	38	104	424673280	71	21855
2026-01-22 07:24:44.74	12.06	8.14	-50.2	-65.6	3.8	1.49e+00	0	38	104	424673280	71	21820
2026-01-22 07:24:46.72	11.76	8.07	-50.2	-65.6	3.8	1.49e+00	0	38	104	424673280	71	21886
2026-01-22 07:24:48.71	11.45	8.01	-50.2	-65.6	3.8	1.49e+00	0	38	104	424673280	71	21946
2026-01-22 07:24:50.70	11.15	7.94	-50.2	-65.5	3.8	1.49e+00	0	38	104	424673280	71	21729
2026-01-22 07:24:52.69	10.85	7.88	-50.1	-65.6	3.8	1.49e+00	0	38	104	424673280	71	21826
2026-01-22 07:24:54.67	10.55	7.81	-50.2	-65.6	3.8	1.49e+00	0	38	104	424673280	71	21828
2026-01-22 07:24:56.66	10.25	7.74	-50.2	-65.6	3.8	1.49e+00	0	38	104	424673280	71	21892
2026-01-22 07:24:58.65	9.96	7.68	-50.1	-65.6	3.8	1.49e+00	0	38	104	424673280	71	21845
2026-01-22 07:25:00.63	9.66	7.61	-50.1	-65.6	3.8	1.49e+00	0	38	104	424673280	71	21846
2026-01-22 07:25:02.62	9.37	7.54	-50.2	-65.5	3.8	1.49e+00	0	38	104	424673280	71	21692
2026-01-22 07:25:04.61	9.08	7.47	-50.2	-65.6	3.8	1.49e+00	0	38	104	424673280	71	21838
2026-01-22 07:25:06.60	8.78	7.40	-50.1	-65.6	3.8	1.49e+00	0	38	104	424673280	71	21820
2026-01-22 07:25:08.58	8.50	7.33	-50.1	-65.6	3.8	1.49e+00	0	38	104	424673280	71	21827
2026-01-22 07:25:10.57	8.21	7.26	-50.1	-65.6	3.8	1.49e+00	0	38	104	424673280	71	21822
2026-01-22 07:25:12.56	7.92	7.19	-50.1	-65.5	3.8	1.49e+00	0	38	104	424673280	71	21725
2026-01-22 07:25:14.54	7.64	7.12	-50.1	-65.5	3.8	1.49e+00	0	38	104	424673280	71	21750
2026-01-22 07:25:16.53	7.35	7.04	-50.1	-65.6	3.8	1.49e+00	0	38	104	424673280	71	21784
2026-01-22 07:25:18.52	7.07	6.97	-50.1	-65.6	3.8	1.49e+00	0	38	104	424673280	71	21780
2026-01-22 07:25:20.50	6.79	6.90	-50.2	-65.6	3.8	1.49e+00	0	38	104	424673280	71	21816
2026-01-22 07:25:22.49	6.51	6.82	-50.2	-65.6	3.8	1.49e+00	0	38	104	424673280	71	21842
2026-01-22 07:25:24.48	6.23	6.75	-50.1	-65.6	3.8	1.49e+00	0	38	104	424673280	71	21789
2026-01-22 07:25:26.46	5.96	6.68	-50.2	-65.6	3.8	1.49e+00	0	38	104	424673280	71	21825
2026-01-22 07:25:28.45	5.68	6.60	-50.2	-65.6	3.8	1.49e+00	0	38	104	424673280	71	21819
2026-01-22 07:25:30.43	5.41	6.53	-50.2	-65.5	3.8	1.49e+00	0	38	104	424673280	71	21731
2026-01-22 07:25:32.42	5.14	6.45	-50.1	-65.6	3.8	1.49e+00	0	38	104	424673280	71	21779
2026-01-22 07:25:34.41	4.86	6.37	-50.2	-65.6	3.8	1.49e+00	0	38	104	424673280	71	21797
2026-01-22 07:25:36.39	4.60	6.30	-50.2	-65.6	3.8	1.49e+00	0	38	104	424673280	71	21858
2026-01-22 07:25:38.38	4.33	6.22	-50.2	-65.6	3.8	1.49e+00	0	38	104	424673280	71	21852
2026-01-22 07:25:40.37	4.06	6.14	-50.2	-65.6	3.8	1.49e+00	0	38	104	424673280	71	21858
2026-01-22 07:25:42.35	3.80	6.07	-50.1	-65.5	3.8	1.49e+00	0	38	104	424673280	71	21728
2026-01-22 07:25:44.34	3.53	5.99	-50.2	-65.6	3.8	1.49e+00	0	38	104	424673280	71	21835
2026-01-22 07:25:46.33	3.27	5.91	-50.2	-65.6	3.8	1.49e+00	0	38	104	424673280	71	21862
2026-01-22 07:25:48.31	3.01	5.83	-50.2	-65.6	3.8	1.49e+00	0	38	104	424673280	71	21796
2026-01-22 07:25:50.30	2.75	5.76	-50.1	-65.6	3.8	1.49e+00	0	38	104	424673280	71	21848
2026-01-22 07:25:52.28	2.50	5.68	-50.2	-65.6	3.8	1.49e+00	0	38	104	424673280	71	21818
2026-01-22 07:25:54.27	2.24	5.60	-50.1	-65.6	3.8	1.49e+00	0	38	104	424673280	71	21848
2026-01-22 07:25:56.26	1.98	5.52	-50.2	-65.6	3.8	1.49e+00	0	38	104	424673280	71	21810
2026-01-22 07:25:58.24	1.73	5.44	-50.2	-65.6	3.8	1.49e+00	0	38	104	424673280	71	21794
2026-01-22 07:26:00.23	1.48	5.36	-50.2	-65.6	3.8	1.49e+00	0	38	104	424673280	71	21915
2026-01-22 07:26:02.22	1.23	5.28	-50.2	-65.6	3.8	1.49e+00	0	38	104	424673280	71	21883
2026-01-22 07:26:04.20	0.98	5.20	-50.2	-65.6	3.8	1.49e+00	0	38	104	424673280	71	21865
2026-01-22 07:26:06.19	0.73	5.12	-50.1	-65.6	3.8	1.49e+00	0	38	104	424673280	71	21841
2026-01-22 07:26:08.17	0.49	5.04	-50.1	-65.6	3.8	1.49e+00	0	38	104	424673280	71	21827

#Closed at: 2026-01-22 07:26:10
#Recorded file [424 MB]: D:/Data/31040_260122_101846.dat