passes_logs/2026/01/22/T1/T1__20260122_224515_SUOMI_NPP_rec.log

#Pass ID: 20260122_224515_SUOMI NPP
#Satellite: SUOMI NPP
#Configuration: NPP
#almurnet v.1.7.20251203
#Start time: 2026-01-22 22:45:15

#Version: 2.0.20230620
#Station: T1
#Location: 37.570604 lon 55.790049 lat
#TLE: 1 37849U 11061A   26022.50498765  .00000208  00000+0  11976-3 0  9992
#TLE: 2 37849  98.7820 324.4892 0002275  50.8149 309.3229 14.19528284737775

#Time	Az	El	Level	Level2	SNR	BER	BlckErr	Temp	State	Recorded	gain1	gain2
2026-01-22 22:45:15.92	24.37	5.06	-49.0	-64.6	3.8	1.49e+00	0	36	0	0	70	20597
2026-01-22 22:45:18.90	24.55	5.26	-49.0	-64.6	3.8	1.49e+00	0	36	104	0	68	23132
2026-01-22 22:45:21.88	24.73	5.46	-49.0	-64.5	3.8	1.49e+00	0	36	104	0	68	23027
2026-01-22 22:45:24.86	24.91	5.65	-49.0	-64.5	3.8	1.49e+00	0	37	104	0	68	22886
2026-01-22 22:45:27.84	25.10	5.85	-49.0	-64.4	3.8	1.49e+00	0	37	104	0	68	22727
2026-01-22 22:45:30.82	25.29	6.05	-49.0	-64.4	3.8	1.49e+00	0	37	104	0	68	22658
2026-01-22 22:45:33.80	25.48	6.26	-49.0	-64.4	3.8	1.49e+00	0	37	104	0	68	22719
2026-01-22 22:45:36.77	25.67	6.46	-49.0	-64.5	3.8	1.49e+00	0	37	104	0	68	22865
2026-01-22 22:45:39.75	25.87	6.66	-49.0	-64.5	3.8	1.49e+00	0	37	104	0	68	22795
2026-01-22 22:45:42.73	26.07	6.87	-49.0	-64.4	3.8	1.49e+00	0	37	104	0	68	22534
2026-01-22 22:45:45.71	26.27	7.08	-49.0	-64.4	3.8	1.49e+00	0	37	104	0	68	22622
2026-01-22 22:45:48.69	26.47	7.29	-49.0	-64.5	3.8	1.49e+00	0	37	104	0	68	22906
2026-01-22 22:45:51.67	26.68	7.50	-49.0	-64.4	3.8	1.49e+00	0	37	104	0	68	22727
2026-01-22 22:45:54.65	26.89	7.71	-49.0	-64.1	3.8	1.49e+00	0	37	104	0	68	22007
2026-01-22 22:45:57.63	27.10	7.92	-49.0	-64.0	3.8	1.49e+00	0	37	104	0	68	21601
2026-01-22 22:46:00.59	27.32	8.14	-48.9	-63.9	3.8	1.49e+00	0	38	104	0	68	21334
2026-01-22 22:46:03.57	27.54	8.35	-48.9	-63.6	3.8	1.49e+00	0	38	104	0	68	20645
2026-01-22 22:46:06.56	27.76	8.57	-48.8	-62.3	3.8	1.49e+00	0	38	104	0	68	17859
2026-01-22 22:46:09.53	27.98	8.79	-48.4	-57.8	5.7	6.67e-01	0	38	0	2097152	68	10581
2026-01-22 22:46:12.52	28.21	9.01	-47.1	-53.0	10.0	1.51e-02	0	38	0	8388608	66	6814
2026-01-22 22:46:15.50	28.44	9.23	-47.1	-53.0	9.7	2.28e-01	0	38	0	13631488	66	6828
2026-01-22 22:46:18.49	28.68	9.46	-46.5	-51.6	11.6	6.31e-04	0	38	0	18874368	64	6513
2026-01-22 22:46:21.54	28.92	9.69	-46.1	-50.9	12.2	1.94e-04	0	38	0	25165824	64	5998
2026-01-22 22:46:24.38	29.15	9.91	-45.2	-49.1	14.3	3.00e-06	0	38	0	30408704	62	5485
2026-01-22 22:46:27.51	29.41	10.15	-45.0	-48.6	14.8	1.50e-06	0	38	0	36700160	61	5476
2026-01-22 22:46:30.35	29.65	10.37	-44.5	-47.8	15.6	0.00e+00	0	38	0	41943040	61	4989
2026-01-22 22:46:33.59	29.92	10.62	-44.0	-47.1	16.2	0.00e+00	0	38	0	47185920	60	4876
2026-01-22 22:46:36.43	30.17	10.84	-43.7	-46.5	16.7	0.00e+00	0	38	0	53477376	59	4858
2026-01-22 22:46:39.56	30.44	11.09	-43.3	-46.1	17.1	0.00e+00	0	38	0	58720256	58	4878
2026-01-22 22:46:42.40	30.69	11.32	-43.2	-45.9	17.3	0.00e+00	0	38	0	63963136	58	4770
2026-01-22 22:46:45.53	30.98	11.57	-43.3	-46.1	17.2	0.00e+00	0	38	0	70254592	58	4899
2026-01-22 22:46:48.37	31.24	11.80	-43.2	-46.0	17.3	0.00e+00	0	38	0	75497472	58	4834
2026-01-22 22:46:51.69	31.55	12.07	-43.3	-46.1	17.2	0.00e+00	0	38	0	81788928	58	4882
2026-01-22 22:46:54.41	31.80	12.30	-43.2	-45.9	17.3	0.00e+00	0	38	0	87031808	58	4807
2026-01-22 22:46:57.64	32.11	12.57	-42.9	-45.6	17.6	0.00e+00	0	38	0	92274688	57	4893
2026-01-22 22:47:00.78	32.42	12.83	-42.8	-45.4	17.8	0.00e+00	0	38	0	98566144	57	4805
2026-01-22 22:47:03.83	32.72	13.09	-42.4	-44.8	18.4	0.00e+00	0	38	0	104857600	56	4753
2026-01-22 22:47:06.95	33.04	13.35	-42.4	-44.8	18.5	0.00e+00	0	38	0	110100480	56	4718
2026-01-22 22:47:09.79	33.33	13.59	-42.5	-45.0	18.3	0.00e+00	0	38	0	115343360	56	4818
2026-01-22 22:47:12.92	33.66	13.87	-42.5	-44.9	18.3	0.00e+00	0	38	0	121634816	56	4813
2026-01-22 22:47:15.86	33.97	14.12	-42.5	-44.9	18.3	0.00e+00	0	38	0	126877696	56	4809
2026-01-22 22:47:19.03	34.32	14.40	-42.9	-45.4	18.0	0.00e+00	0	38	0	133169152	56	5061
2026-01-22 22:47:21.88	34.63	14.65	-43.2	-45.8	17.4	0.00e+00	0	38	0	138412032	57	5040
2026-01-22 22:47:25.00	34.98	14.93	-43.1	-45.7	17.6	0.00e+00	0	38	0	143654912	57	4961
2026-01-22 22:47:27.85	35.30	15.19	-43.0	-45.7	17.7	0.00e+00	0	38	0	148897792	57	4941
2026-01-22 22:47:30.97	35.67	15.47	-42.8	-45.3	18.0	0.00e+00	0	38	0	155189248	57	4748
2026-01-22 22:47:33.82	36.00	15.73	-42.9	-45.5	17.8	0.00e+00	0	38	0	160432128	57	4854
2026-01-22 22:47:36.95	36.38	16.02	-43.2	-45.8	17.5	0.00e+00	0	39	0	166723584	57	5033
2026-01-22 22:47:39.79	36.73	16.28	-43.5	-46.1	17.3	0.00e+00	0	39	0	171966464	57	5211
2026-01-22 22:47:42.99	37.12	16.58	-43.4	-46.0	17.3	0.00e+00	0	38	0	178257920	57	5151
2026-01-22 22:47:45.84	37.48	16.85	-43.3	-45.9	17.5	0.00e+00	0	38	0	183500800	57	5064
2026-01-22 22:47:48.97	37.89	17.14	-43.1	-45.7	17.7	0.00e+00	0	39	0	188743680	57	4953
2026-01-22 22:47:51.81	38.26	17.41	-43.3	-45.9	17.5	0.00e+00	0	39	0	193986560	57	5063
2026-01-22 22:47:54.94	38.68	17.71	-43.2	-45.8	17.6	0.00e+00	0	39	0	200278016	57	5005
2026-01-22 22:47:57.83	39.08	17.99	-43.5	-46.2	17.2	0.00e+00	0	39	0	205520896	57	5224
2026-01-22 22:48:01.15	39.54	18.32	-43.5	-46.1	17.3	0.00e+00	0	38	0	211812352	58	4900
2026-01-22 22:48:03.86	39.92	18.58	-43.6	-46.3	17.1	0.00e+00	0	39	0	217055232	58	5001
2026-01-22 22:48:07.13	40.39	18.91	-43.5	-46.2	17.2	0.00e+00	0	39	0	223346688	58	4936
2026-01-22 22:48:10.16	40.84	19.21	-43.9	-46.7	16.8	0.00e+00	0	39	0	228589568	58	5237
2026-01-22 22:48:13.34	41.32	19.53	-43.8	-46.6	16.9	0.00e+00	0	39	0	234881024	58	5165
2026-01-22 22:48:16.31	41.77	19.83	-43.2	-45.7	17.7	0.00e+00	0	38	0	240123904	58	4684
2026-01-22 22:48:19.43	42.26	20.15	-42.8	-45.3	18.1	0.00e+00	0	38	0	246415360	57	4714
2026-01-22 22:48:22.27	42.71	20.44	-42.9	-45.4	18.0	0.00e+00	0	39	0	251658240	57	4779
2026-01-22 22:48:25.40	43.22	20.76	-42.7	-45.2	18.2	0.00e+00	0	39	0	256901120	57	4687
2026-01-22 22:48:28.24	43.69	21.05	-42.4	-44.7	18.6	0.00e+00	0	39	0	262144000	56	4704
2026-01-22 22:48:31.37	44.22	21.38	-41.6	-43.8	19.3	0.00e+00	0	39	0	268435456	55	4468
2026-01-22 22:48:34.29	44.72	21.68	-41.5	-43.7	19.5	0.00e+00	0	39	0	273678336	54	4663
2026-01-22 22:48:37.58	45.30	22.03	-41.6	-43.9	19.3	0.00e+00	0	39	0	279969792	54	4774
2026-01-22 22:48:40.29	45.78	22.32	-41.8	-44.1	19.1	0.00e+00	0	39	0	285212672	54	4874
2026-01-22 22:48:43.58	46.39	22.66	-41.7	-44.0	19.2	0.00e+00	0	38	0	291504128	54	4852
2026-01-22 22:48:46.42	46.92	22.97	-41.8	-44.0	19.2	0.00e+00	0	39	0	296747008	54	4864
2026-01-22 22:48:49.55	47.51	23.30	-41.9	-44.2	19.1	0.00e+00	0	38	0	303038464	54	4928
2026-01-22 22:48:52.39	48.06	23.61	-41.5	-43.8	19.4	0.00e+00	0	39	0	308281344	54	4711
2026-01-22 22:48:55.52	48.68	23.94	-41.1	-43.3	19.7	0.00e+00	0	38	0	313524224	54	4466
2026-01-22 22:48:58.36	49.26	24.25	-41.1	-43.3	19.9	0.00e+00	0	38	0	318767104	54	4443
2026-01-22 22:49:01.48	49.90	24.59	-41.4	-43.5	19.6	0.00e+00	0	39	0	325058560	54	4590
2026-01-22 22:49:04.32	50.50	24.89	-41.6	-43.9	19.3	0.00e+00	0	38	0	330301440	54	4770
2026-01-22 22:49:07.45	51.17	25.23	-41.7	-43.9	19.3	0.00e+00	0	38	0	336592896	54	4794
2026-01-22 22:49:10.29	51.80	25.54	-41.7	-44.0	19.2	0.00e+00	0	39	0	341835776	54	4835
2026-01-22 22:49:13.43	52.50	25.88	-41.6	-43.8	19.4	0.00e+00	0	38	0	347078656	54	4739
2026-01-22 22:49:16.27	53.15	26.19	-41.8	-44.1	19.2	0.00e+00	0	39	0	352321536	54	4921
2026-01-22 22:49:19.40	53.87	26.53	-42.0	-44.3	19.0	0.00e+00	0	38	0	358612992	54	5002
2026-01-22 22:49:22.35	54.57	26.85	-42.3	-44.6	18.7	0.00e+00	0	39	0	363855872	55	4905
2026-01-22 22:49:25.47	55.33	27.19	-42.8	-45.2	18.3	0.00e+00	0	39	0	370147328	56	4957
2026-01-22 22:49:28.31	56.03	27.49	-43.2	-45.7	17.9	0.00e+00	0	38	0	375390208	57	4950
2026-01-22 22:49:31.44	56.82	27.83	-43.6	-46.2	17.4	0.00e+00	0	39	0	380633088	57	5237
2026-01-22 22:49:34.29	57.55	28.13	-43.5	-46.1	17.4	0.00e+00	0	38	0	386924544	58	4911
2026-01-22 22:49:37.49	58.39	28.47	-44.1	-46.9	16.7	0.00e+00	0	39	0	392167424	58	5393
2026-01-22 22:49:40.33	59.15	28.77	-44.7	-47.8	15.9	0.00e+00	0	39	0	397410304	60	5308
2026-01-22 22:49:43.57	60.04	29.11	-45.3	-48.7	15.1	0.00e+00	0	39	0	403701760	61	5539
2026-01-22 22:49:46.41	60.83	29.40	-45.0	-48.2	15.5	0.00e+00	0	39	0	408944640	61	5279
2026-01-22 22:49:49.54	61.71	29.72	-45.2	-48.6	15.2	0.00e+00	0	39	0	415236096	61	5474
2026-01-22 22:49:52.38	62.53	30.01	-45.3	-48.6	15.0	0.00e+00	0	39	0	420478976	61	5520
2026-01-22 22:49:55.51	63.45	30.32	-46.1	-49.9	13.8	1.06e-05	0	39	0	426770432	63	5704
2026-01-22 22:49:58.44	64.33	30.61	-46.1	-49.8	13.9	3.80e-06	0	39	0	432013312	63	5645
2026-01-22 22:50:01.57	65.29	30.91	-46.3	-50.3	13.5	5.30e-06	0	38	0	437256192	63	5944
2026-01-22 22:50:04.41	66.17	31.18	-46.3	-50.2	13.6	9.90e-06	0	38	0	442499072	63	5895
2026-01-22 22:50:07.54	67.16	31.47	-46.0	-49.7	14.0	7.00e-07	0	39	0	448790528	63	5546
2026-01-22 22:50:10.38	68.07	31.73	-44.5	-47.4	16.2	0.00e+00	0	39	0	454033408	61	4802
2026-01-22 22:50:13.51	69.09	32.01	-44.8	-47.8	15.9	0.00e+00	0	39	0	460324864	60	5329
2026-01-22 22:50:16.46	70.07	32.27	-46.1	-49.9	13.8	0.00e+00	0	39	0	465567744	62	6054
2026-01-22 22:50:19.59	71.12	32.53	-44.7	-47.8	15.9	0.00e+00	0	39	0	471859200	61	5022
2026-01-22 22:50:22.59	72.15	32.78	-44.3	-47.1	16.5	0.00e+00	0	39	0	477102080	59	5180
2026-01-22 22:50:25.95	73.32	33.04	-46.0	-49.7	14.0	3.00e-06	0	39	0	483393536	62	5912
2026-01-22 22:50:28.69	74.28	33.25	-45.7	-49.4	14.4	0.00e+00	0	39	0	488636416	62	5657
2026-01-22 22:50:32.44	75.62	33.52	-45.5	-49.0	14.9	0.00e+00	0	39	0	495976448	62	5409
2026-01-22 22:50:35.27	76.65	33.72	-47.0	-51.8	11.8	1.77e-04	0	39	0	501219328	64	6696
2026-01-22 22:50:38.54	77.85	33.93	-46.9	-51.4	12.2	1.85e-04	0	39	0	506462208	65	6061
2026-01-22 22:50:41.26	78.87	34.10	-46.9	-51.4	12.2	1.35e-04	0	39	0	511705088	64	6412
2026-01-22 22:50:44.64	80.14	34.30	-46.0	-49.9	13.7	1.60e-05	0	39	0	517996544	64	5399
2026-01-22 22:50:47.37	81.17	34.45	-46.2	-50.3	13.5	7.00e-07	0	39	0	523239424	63	5945
2026-01-22 22:50:50.66	82.44	34.61	-45.7	-49.4	14.3	6.80e-06	0	39	0	529530880	63	5398
2026-01-22 22:50:53.48	83.53	34.74	-45.5	-49.2	14.6	0.00e+00	0	39	0	534773760	62	5534
2026-01-22 22:50:56.61	84.75	34.88	-45.4	-49.1	14.7	0.00e+00	0	39	0	541065216	62	5472
2026-01-22 22:50:59.46	85.87	34.99	-45.7	-49.5	14.2	2.20e-06	0	39	0	546308096	62	5759
2026-01-22 22:51:02.59	87.11	35.09	-46.4	-50.8	12.9	2.13e-05	0	39	0	551550976	63	6343
2026-01-22 22:51:05.44	88.25	35.17	-46.3	-50.6	13.0	8.62e-05	0	39	0	557842432	64	5831
2026-01-22 22:51:08.56	89.49	35.25	-46.3	-50.5	13.1	1.67e-05	0	39	0	563085312	64	5786
2026-01-22 22:51:11.40	90.64	35.31	-46.3	-50.5	13.2	4.11e-05	0	39	0	568328192	64	5732
2026-01-22 22:51:14.53	91.90	35.36	-47.1	-52.0	11.7	2.40e-04	0	39	0	574619648	64	6820
2026-01-22 22:51:17.37	93.05	35.39	-47.5	-53.1	10.6	3.34e-03	0	39	0	579862528	65	7301
2026-01-22 22:51:20.55	94.33	35.41	-46.0	-50.0	13.7	6.10e-06	0	39	0	586153984	64	5404
2026-01-22 22:51:23.42	95.50	35.42	-44.9	-48.0	15.7	0.00e+00	0	39	0	591396864	61	5133
2026-01-22 22:51:26.70	96.83	35.41	-45.4	-48.8	14.9	0.00e+00	0	39	0	597688320	61	5627
2026-01-22 22:51:29.48	97.95	35.38	-47.8	-53.6	10.0	1.63e-03	0	39	0	602931200	66	7325
2026-01-22 22:51:32.77	99.28	35.34	-45.7	-49.4	14.4	7.00e-07	0	39	0	608174080	63	5360
2026-01-22 22:51:35.77	100.49	35.29	-45.8	-49.3	14.5	0.00e+00	0	39	0	614465536	62	5635
2026-01-22 22:51:39.05	101.81	35.22	-46.0	-49.9	13.9	2.20e-06	0	39	0	620756992	62	6017
2026-01-22 22:51:41.87	102.93	35.14	-47.5	-52.8	10.8	4.89e-03	0	39	0	625999872	66	6682
2026-01-22 22:51:44.99	104.17	35.04	-46.3	-50.2	13.5	1.22e-05	0	39	0	631242752	64	5548
2026-01-22 22:51:47.83	105.30	34.94	-46.9	-51.4	12.2	6.10e-04	0	39	0	636485632	65	6038
2026-01-22 22:51:51.07	106.57	34.81	-46.7	-51.0	12.6	5.79e-05	0	39	0	642777088	64	6120
2026-01-22 22:51:53.94	107.69	34.68	-46.4	-50.5	13.1	1.18e-04	0	39	0	648019968	64	5782
2026-01-22 22:51:57.07	108.89	34.53	-47.2	-52.1	11.4	3.86e-04	0	39	0	654311424	65	6564
2026-01-22 22:51:59.92	109.98	34.38	-46.8	-51.3	12.3	2.12e-04	0	39	0	659554304	65	5939
2026-01-22 22:52:03.21	111.23	34.19	-46.5	-50.6	13.0	8.31e-05	0	39	0	665845760	64	5845
2026-01-22 22:52:06.17	112.34	34.01	-45.0	-48.2	15.5	0.00e+00	0	39	0	671088640	62	4981
2026-01-22 22:52:09.43	113.55	33.80	-44.8	-48.0	15.8	0.00e+00	0	39	0	677380096	61	5121
2026-01-22 22:52:12.16	114.55	33.62	-43.9	-46.6	17.0	0.00e+00	0	39	0	682622976	59	4900
2026-01-22 22:52:15.43	115.73	33.39	-45.1	-48.4	15.3	0.00e+00	0	39	0	688914432	61	5394
2026-01-22 22:52:18.16	116.70	33.18	-44.6	-47.6	16.0	0.00e+00	0	39	0	694157312	60	5196
2026-01-22 22:52:21.60	117.91	32.92	-45.3	-48.8	14.9	1.50e-06	0	39	0	700448768	61	5597
2026-01-22 22:52:24.31	118.85	32.70	-43.5	-46.1	17.5	0.00e+00	0	39	0	705691648	58	4909
2026-01-22 22:52:27.81	120.05	32.41	-44.2	-47.1	16.5	0.00e+00	0	39	0	711983104	59	5164
2026-01-22 22:52:30.54	120.96	32.18	-43.9	-46.6	17.1	0.00e+00	0	39	0	717225984	59	4902
2026-01-22 22:52:33.82	122.05	31.89	-45.2	-48.7	15.1	0.00e+00	0	39	0	723517440	61	5534
2026-01-22 22:52:36.57	122.94	31.64	-42.5	-44.8	18.7	0.00e+00	0	39	0	728760320	57	4466
2026-01-22 22:52:39.85	123.99	31.33	-44.0	-46.7	16.9	0.00e+00	0	39	0	734003200	58	5261
2026-01-22 22:52:42.57	124.85	31.08	-42.7	-45.1	18.4	0.00e+00	0	39	0	739246080	57	4614
2026-01-22 22:52:45.86	125.86	30.76	-43.3	-45.9	17.7	0.00e+00	0	39	0	745537536	57	5090
2026-01-22 22:52:48.57	126.69	30.50	-42.7	-45.2	18.3	0.00e+00	0	39	0	750780416	57	4663
2026-01-22 22:52:52.02	127.72	30.15	-42.6	-45.1	18.3	0.00e+00	0	39	0	757071872	55	5168
2026-01-22 22:52:54.84	128.54	29.87	-43.1	-45.7	17.9	0.00e+00	0	39	0	762314752	58	4674
2026-01-22 22:52:58.33	129.54	29.51	-43.0	-45.5	18.1	0.00e+00	0	39	0	768606208	56	5109
2026-01-22 22:53:01.17	130.34	29.22	-43.7	-46.6	17.0	0.00e+00	0	39	0	774897664	59	4903
2026-01-22 22:53:04.30	131.20	28.89	-42.5	-44.9	18.6	0.00e+00	0	39	0	780140544	56	4781
2026-01-22 22:53:07.14	131.97	28.59	-44.3	-47.2	16.4	0.00e+00	0	39	0	785383424	59	5275
2026-01-22 22:53:10.27	132.81	28.26	-43.3	-45.9	17.6	0.00e+00	0	39	0	791674880	58	4771
2026-01-22 22:53:13.37	133.61	27.92	-43.2	-45.8	17.7	0.00e+00	0	39	0	796917760	57	5001
2026-01-22 22:53:16.65	134.45	27.57	-41.1	-43.2	20.0	0.00e+00	0	39	0	803209216	54	4419
2026-01-22 22:53:19.53	135.17	27.26	-42.7	-45.2	18.3	0.00e+00	0	39	0	808452096	55	5234
2026-01-22 22:53:22.65	135.93	26.92	-43.6	-46.3	17.2	0.00e+00	0	39	0	814743552	58	5021
2026-01-22 22:53:26.11	136.76	26.55	-42.4	-44.8	18.7	0.00e+00	0	39	0	821035008	56	4740
2026-01-22 22:53:28.81	137.39	26.25	-42.6	-45.1	18.4	0.00e+00	0	39	0	826277888	57	4617
2026-01-22 22:53:32.08	138.14	25.89	-41.1	-43.3	19.9	0.00e+00	0	39	0	832569344	54	4447
2026-01-22 22:53:34.94	138.79	25.58	-41.5	-43.6	19.5	0.00e+00	0	39	0	837812224	53	4912
2026-01-22 22:53:38.07	139.48	25.24	-42.5	-44.9	18.5	0.00e+00	0	39	0	844103680	55	5049
2026-01-22 22:53:40.92	140.10	24.93	-42.1	-44.4	18.9	0.00e+00	0	39	0	849346560	55	4810
2026-01-22 22:53:44.09	140.77	24.58	-42.4	-44.8	18.5	0.00e+00	0	39	0	854589440	55	5008
2026-01-22 22:53:47.55	141.48	24.20	-41.8	-44.1	19.1	0.00e+00	0	39	0	860880896	55	4621
2026-01-22 22:53:50.25	142.03	23.91	-40.7	-42.8	20.2	0.00e+00	0	39	0	866123776	53	4477
2026-01-22 22:53:53.54	142.69	23.55	-40.8	-43.0	20.1	0.00e+00	0	39	0	872415232	52	4834
2026-01-22 22:53:56.27	143.22	23.26	-41.5	-43.8	19.4	0.00e+00	0	38	0	877658112	53	4999
2026-01-22 22:53:59.60	143.85	22.90	-41.0	-43.2	19.9	0.00e+00	0	38	0	883949568	53	4654
2026-01-22 22:54:02.37	144.37	22.60	-40.8	-42.8	20.2	0.00e+00	0	39	0	889192448	53	4491
2026-01-22 22:54:05.71	144.98	22.25	-41.4	-43.6	19.5	0.00e+00	0	39	0	895483904	53	4904
2026-01-22 22:54:08.42	145.47	21.96	-41.6	-43.9	19.2	0.00e+00	0	39	0	900726784	53	5083
2026-01-22 22:54:11.70	146.05	21.61	-41.1	-43.3	19.7	0.00e+00	0	39	0	907018240	53	4752
2026-01-22 22:54:14.47	146.53	21.32	-41.0	-43.2	19.8	0.00e+00	0	39	0	912261120	53	4682
2026-01-22 22:54:17.77	147.08	20.97	-41.3	-43.5	19.6	0.00e+00	0	39	0	917504000	53	4865
2026-01-22 22:54:20.48	147.53	20.69	-41.5	-43.8	19.3	0.00e+00	0	39	0	922746880	53	4992
2026-01-22 22:54:24.08	148.12	20.32	-41.5	-43.8	19.4	0.00e+00	0	39	0	930086912	53	5005
2026-01-22 22:54:26.99	148.58	20.02	-41.5	-43.7	19.4	0.00e+00	0	39	0	935329792	53	4978
2026-01-22 22:54:30.28	149.09	19.68	-41.5	-43.8	19.3	0.00e+00	0	39	0	941621248	54	4709
2026-01-22 22:54:32.98	149.51	19.41	-41.9	-44.3	18.9	0.00e+00	0	39	0	946864128	54	4987
2026-01-22 22:54:36.25	150.00	19.08	-42.6	-45.1	18.1	0.00e+00	0	38	0	952107008	55	5212
2026-01-22 22:54:39.22	150.43	18.78	-42.9	-45.4	17.9	0.00e+00	0	39	0	958398464	57	4810
2026-01-22 22:54:42.51	150.91	18.45	-43.1	-45.6	17.7	0.00e+00	0	38	0	964689920	57	4915
2026-01-22 22:54:45.38	151.31	18.17	-43.4	-46.0	17.3	0.00e+00	0	39	0	969932800	57	5131
2026-01-22 22:54:49.36	151.86	17.78	-44.0	-46.9	16.5	0.00e+00	0	39	0	977272832	59	5095
2026-01-22 22:54:52.31	152.26	17.49	-43.4	-46.1	17.3	0.00e+00	0	38	0	982515712	58	4878
2026-01-22 22:54:55.72	152.71	17.16	-42.7	-45.1	18.2	0.00e+00	0	39	0	988807168	57	4641
2026-01-22 22:54:58.57	153.08	16.89	-42.5	-45.0	18.4	0.00e+00	0	38	0	994050048	56	4839
2026-01-22 22:55:01.66	153.48	16.60	-43.1	-45.8	17.6	0.00e+00	0	38	0	1000341504	56	5281
2026-01-22 22:55:04.79	153.87	16.30	-43.0	-45.6	17.6	0.00e+00	0	39	0	1006632960	57	4924
2026-01-22 22:55:07.63	154.22	16.03	-42.9	-45.4	17.9	0.00e+00	0	39	0	1011875840	57	4800
2026-01-22 22:55:10.75	154.60	15.74	-42.9	-45.6	17.8	0.00e+00	0	38	0	1017118720	57	4876
2026-01-22 22:55:13.73	154.95	15.47	-42.7	-45.3	18.0	0.00e+00	0	39	0	1023410176	57	4745
2026-01-22 22:55:16.97	155.33	15.17	-42.9	-45.5	17.8	0.00e+00	0	39	0	1028653056	57	4843
2026-01-22 22:55:19.81	155.65	14.92	-42.9	-45.6	17.8	0.00e+00	0	39	0	1033895936	57	4871
2026-01-22 22:55:22.94	156.01	14.63	-42.9	-45.6	17.7	0.00e+00	0	39	0	1040187392	57	4875
2026-01-22 22:55:25.78	156.32	14.38	-42.7	-45.2	18.0	0.00e+00	0	39	0	1045430272	57	4703
2026-01-22 22:55:28.97	156.67	14.10	-42.7	-45.3	18.0	0.00e+00	0	39	0	1051721728	57	4725
2026-01-22 22:55:31.81	156.97	13.85	-43.1	-45.7	17.6	0.00e+00	0	39	0	1056964608	57	4970
2026-01-22 22:55:34.94	157.30	13.57	-43.7	-46.5	16.8	0.00e+00	0	39	0	1062207488	58	5140
2026-01-22 22:55:37.78	157.59	13.33	-44.2	-47.2	16.1	0.00e+00	0	38	0	1068498944	59	5278
2026-01-22 22:55:40.91	157.91	13.06	-44.6	-47.8	15.5	0.00e+00	0	39	0	1073741824	60	5310
2026-01-22 22:55:43.86	158.20	12.81	-44.3	-47.5	15.9	0.00e+00	0	39	0	1078984704	60	5120
2026-01-22 22:55:47.11	158.52	12.53	-43.9	-46.9	16.4	0.00e+00	0	39	0	1085276160	60	4797
2026-01-22 22:55:49.90	158.79	12.30	-43.5	-46.3	17.0	0.00e+00	0	38	0	1090519040	59	4725
2026-01-22 22:55:53.03	159.09	12.04	-43.3	-46.0	17.3	0.00e+00	0	39	0	1096810496	58	4823
2026-01-22 22:55:55.87	159.35	11.80	-43.2	-45.8	17.4	0.00e+00	0	39	0	1102053376	58	4754
2026-01-22 22:55:59.08	159.65	11.54	-43.0	-45.7	17.5	0.00e+00	0	38	0	1108344832	57	4932
2026-01-22 22:56:02.05	159.92	11.30	-43.2	-45.9	17.3	0.00e+00	0	39	0	1113587712	57	5060
2026-01-22 22:56:05.03	160.18	11.06	-43.2	-45.9	17.3	0.00e+00	0	39	0	1118830592	57	5066
2026-01-22 22:56:08.02	160.44	10.82	-43.2	-45.9	17.3	0.00e+00	0	39	0	1125122048	57	5075
2026-01-22 22:56:11.01	160.70	10.58	-43.6	-46.5	16.7	0.00e+00	0	38	0	1130364928	57	5423
2026-01-22 22:56:13.99	160.96	10.35	-43.7	-46.6	16.6	0.00e+00	0	39	0	1135607808	58	5180
2026-01-22 22:56:16.98	161.21	10.11	-43.8	-46.7	16.5	0.00e+00	0	39	0	1141899264	58	5243
2026-01-22 22:56:19.96	161.45	9.88	-44.1	-47.1	16.1	0.00e+00	0	39	0	1147142144	58	5513
2026-01-22 22:56:22.95	161.69	9.65	-44.1	-47.2	16.0	0.00e+00	0	39	0	1152385024	59	5237
2026-01-22 22:56:25.93	161.93	9.42	-44.1	-47.1	16.0	0.00e+00	0	39	0	1158676480	59	5217
2026-01-22 22:56:28.92	162.17	9.19	-44.2	-47.3	15.9	8.96e-03	0	39	0	1163919360	59	5280
2026-01-22 22:56:31.91	162.40	8.97	-49.0	-62.4	4.1	1.22e-02	0	39	0	1169162240	68	18080
2026-01-22 22:56:34.89	162.63	8.74	-49.5	-64.9	3.8	1.49e+00	0	39	104	1169162240	69	22620
2026-01-22 22:56:37.87	162.85	8.52	-49.6	-65.1	3.8	1.49e+00	0	39	104	1169162240	70	22006
2026-01-22 22:56:40.85	163.07	8.30	-49.9	-65.2	3.8	1.49e+00	0	39	104	1169162240	70	22170
2026-01-22 22:56:43.83	163.29	8.08	-50.0	-65.2	3.8	1.49e+00	0	39	104	1169162240	70	22246
2026-01-22 22:56:46.81	163.50	7.87	-50.1	-65.3	3.8	1.49e+00	0	39	104	1169162240	70	22300
2026-01-22 22:56:49.79	163.72	7.65	-49.9	-65.2	3.8	1.49e+00	0	39	104	1169162240	70	22211
2026-01-22 22:56:52.77	163.92	7.44	-49.6	-65.2	3.8	1.49e+00	0	39	104	1169162240	70	22222
2026-01-22 22:56:55.75	164.13	7.23	-49.8	-65.2	3.8	1.49e+00	0	38	104	1169162240	70	22178
2026-01-22 22:56:58.73	164.33	7.01	-49.8	-65.1	3.8	1.49e+00	0	39	104	1169162240	70	21960
2026-01-22 22:57:01.71	164.53	6.80	-49.8	-65.2	3.8	1.49e+00	0	39	104	1169162240	70	22039
2026-01-22 22:57:04.69	164.73	6.60	-49.7	-65.1	3.8	1.49e+00	0	39	104	1169162240	70	21887
2026-01-22 22:57:07.67	164.93	6.39	-49.8	-65.1	3.8	1.49e+00	0	39	104	1169162240	70	21845
2026-01-22 22:57:10.65	165.12	6.18	-49.7	-65.1	3.8	1.49e+00	0	39	104	1169162240	70	21796
2026-01-22 22:57:13.63	165.31	5.98	-49.7	-65.1	3.8	1.49e+00	0	39	104	1169162240	70	21897
2026-01-22 22:57:16.61	165.50	5.78	-49.7	-65.1	3.8	1.49e+00	0	39	104	1169162240	70	21844
2026-01-22 22:57:19.59	165.68	5.58	-49.7	-65.1	3.8	1.49e+00	0	39	104	1169162240	70	21926
2026-01-22 22:57:22.57	165.86	5.38	-49.7	-65.1	3.8	1.49e+00	0	39	104	1169162240	70	21817
2026-01-22 22:57:25.55	166.04	5.18	-49.7	-65.1	3.8	1.49e+00	0	39	104	1169162240	70	21798
2026-01-22 22:57:28.53	166.22	4.98	-49.7	-65.1	3.8	1.49e+00	0	39	104	1169162240	70	21876

#Closed at: 2026-01-22 22:57:29
#Recorded file [1169 MB]: D:/Data/31040_260123_014515.dat