passes_logs/2026/01/22/T1/T1__20260122_032541_FENGYUN_3E_rec.log

#Pass ID: 20260122_032541_FENGYUN 3E
#Satellite: FENGYUN 3E
#Configuration: FENGYUN 3E
#almurnet v.1.7.20251203
#Start time: 2026-01-22 03:25:41

#Version: 2.0.20230620
#Station: T1
#Location: 37.570604 lon 55.790049 lat
#TLE: 1 49008U 21062A   26021.55921410  .00000414  00000+0  21575-3 0  9991
#TLE: 2 49008  98.7483  26.6103 0002287 125.5068 234.6322 14.19887394235776

#Time	Az	El	Level	Level2	SNR	BER	BlckErr	Temp	State	Recorded	gain1	gain2
2026-01-22 03:25:41.75	20.24	5.05	-49.3	-60.8	3.8	8.46e-01	0	35	0	0	69	13181
2026-01-22 03:25:45.72	20.38	5.32	-49.1	-60.5	3.8	8.47e-01	0	36	104	0	67	14360
2026-01-22 03:25:49.69	20.51	5.60	-49.1	-60.5	3.8	8.47e-01	0	36	104	0	67	14305
2026-01-22 03:25:53.67	20.65	5.89	-49.1	-60.6	3.8	8.46e-01	0	36	104	0	67	14489
2026-01-22 03:25:57.64	20.80	6.17	-49.1	-60.7	3.8	8.46e-01	0	36	104	0	67	14676
2026-01-22 03:26:01.62	20.94	6.46	-49.1	-60.6	3.8	8.45e-01	0	36	104	0	67	14388
2026-01-22 03:26:05.59	21.09	6.75	-49.1	-59.9	3.8	8.48e-01	0	36	104	0	67	13286
2026-01-22 03:26:09.57	21.24	7.05	-48.8	-58.2	4.0	8.46e-01	0	36	104	0	67	11007
2026-01-22 03:26:13.54	21.39	7.35	-48.7	-57.0	4.2	8.36e-01	0	37	0	0	67	9512
2026-01-22 03:26:17.51	21.54	7.65	-48.6	-56.5	4.4	8.26e-01	0	37	0	0	67	8972
2026-01-22 03:26:21.49	21.70	7.96	-48.5	-56.3	4.5	8.26e-01	0	37	0	0	67	8861
2026-01-22 03:26:25.46	21.86	8.27	-48.3	-55.1	5.0	7.76e-01	0	37	0	0	67	7686
2026-01-22 03:26:29.44	22.03	8.58	-46.9	-51.1	8.3	6.24e-02	0	37	0	19922944	64	5785
2026-01-22 03:26:33.41	22.19	8.90	-44.6	-46.8	12.8	4.92e-05	0	37	0	48234496	59	4681
2026-01-22 03:26:37.39	22.37	9.22	-46.3	-49.3	10.1	2.18e-01	0	37	0	76546048	63	4975
2026-01-22 03:26:41.36	22.54	9.54	-39.9	-41.1	18.5	0.00e+00	0	37	0	105906176	50	4071
2026-01-22 03:26:45.44	22.72	9.88	-39.4	-40.4	19.1	0.00e+00	0	37	0	135266304	49	4004
2026-01-22 03:26:49.45	22.90	10.22	-39.1	-40.1	19.5	0.00e+00	0	37	0	164626432	49	3849
2026-01-22 03:26:53.43	23.09	10.56	-38.9	-39.9	19.7	0.00e+00	0	37	0	192937984	48	3972
2026-01-22 03:26:57.41	23.28	10.90	-38.8	-39.8	19.8	0.00e+00	0	37	0	222298112	48	3947
2026-01-22 03:27:01.52	23.48	11.26	-38.6	-39.6	19.7	0.00e+00	0	37	0	251658240	47	4089
2026-01-22 03:27:05.75	23.69	11.63	-38.7	-39.7	19.7	0.00e+00	0	37	0	282066944	47	4112
2026-01-22 03:27:09.74	23.89	11.99	-38.6	-39.6	19.8	0.00e+00	0	37	0	310378496	47	4083
2026-01-22 03:27:13.77	24.10	12.36	-38.5	-39.5	19.8	0.00e+00	0	37	0	339738624	47	4050
2026-01-22 03:27:17.74	24.31	12.73	-38.3	-39.3	20.1	0.00e+00	0	37	0	368050176	47	3936
2026-01-22 03:27:22.24	24.56	13.15	-38.5	-39.5	19.9	0.00e+00	0	37	0	400556032	46	4278
2026-01-22 03:27:26.23	24.78	13.53	-38.2	-39.2	20.2	0.00e+00	0	37	0	429916160	46	4142
2026-01-22 03:27:30.23	25.01	13.92	-38.3	-39.3	20.1	0.00e+00	0	38	0	458227712	46	4182
2026-01-22 03:27:34.22	25.25	14.31	-38.2	-39.2	20.3	0.00e+00	0	38	0	487587840	46	4109
2026-01-22 03:27:38.26	25.49	14.71	-38.3	-39.3	20.1	0.00e+00	0	38	0	516947968	46	4153
2026-01-22 03:27:42.73	25.77	15.16	-38.1	-39.0	20.4	0.00e+00	0	38	0	548405248	46	4039
2026-01-22 03:27:46.83	26.03	15.59	-37.7	-38.6	20.8	0.00e+00	0	38	0	578813952	46	3847
2026-01-22 03:27:50.83	26.29	16.01	-37.6	-38.5	20.9	0.00e+00	0	38	0	607125504	45	4032
2026-01-22 03:27:54.82	26.56	16.43	-37.5	-38.5	20.9	0.00e+00	0	38	0	636485632	45	4020
2026-01-22 03:27:58.85	26.84	16.87	-37.2	-38.1	21.3	0.00e+00	0	38	0	664797184	44	4092
2026-01-22 03:28:02.81	27.12	17.30	-36.9	-37.8	21.6	0.00e+00	0	38	0	694157312	44	3934
2026-01-22 03:28:06.79	27.41	17.75	-36.7	-37.6	21.8	0.00e+00	0	38	0	722468864	44	3852
2026-01-22 03:28:10.76	27.70	18.20	-36.6	-37.5	21.7	0.00e+00	0	38	0	750780416	43	4040
2026-01-22 03:28:14.74	28.01	18.66	-36.6	-37.5	21.7	0.00e+00	0	38	0	780140544	43	4020
2026-01-22 03:28:18.72	28.32	19.13	-36.5	-37.4	21.8	0.00e+00	0	38	0	808452096	43	3983
2026-01-22 03:28:22.70	28.65	19.61	-36.7	-37.6	21.6	0.00e+00	0	38	0	837812224	43	4067
2026-01-22 03:28:26.71	28.99	20.10	-36.7	-37.6	21.7	0.00e+00	0	38	0	866123776	43	4053
2026-01-22 03:28:30.71	29.33	20.60	-36.5	-37.4	21.9	0.00e+00	0	38	0	895483904	43	3959
2026-01-22 03:28:34.83	29.70	21.12	-36.5	-37.3	21.9	0.00e+00	0	38	0	924844032	43	3950
2026-01-22 03:28:38.87	30.08	21.64	-36.2	-37.1	22.1	0.00e+00	0	38	0	954204160	43	3840
2026-01-22 03:28:42.98	30.47	22.18	-36.1	-37.0	22.2	0.00e+00	0	38	0	983564288	42	4014
2026-01-22 03:28:46.96	30.86	22.71	-36.0	-36.9	22.3	0.00e+00	0	38	0	1012924416	42	3969
2026-01-22 03:28:50.94	31.27	23.26	-36.2	-37.0	22.2	0.00e+00	0	38	0	1041235968	42	4037
2026-01-22 03:28:55.41	31.74	23.88	-36.3	-37.2	22.1	0.00e+00	0	38	0	1073741824	42	4102
2026-01-22 03:28:59.52	32.19	24.46	-36.3	-37.2	22.1	0.00e+00	0	38	0	1103101952	42	4117
2026-01-22 03:29:03.56	32.65	25.05	-36.0	-36.9	22.4	0.00e+00	0	38	0	1132462080	42	3961
2026-01-22 03:29:07.75	33.14	25.67	-35.8	-36.6	22.6	0.00e+00	0	38	0	1162870784	41	4094
2026-01-22 03:29:11.74	33.63	26.27	-35.8	-36.6	22.6	0.00e+00	0	38	0	1191182336	41	4097
2026-01-22 03:29:15.75	34.14	26.89	-35.8	-36.7	22.5	0.00e+00	0	38	0	1220542464	41	4118
2026-01-22 03:29:19.77	34.67	27.52	-35.7	-36.6	22.7	0.00e+00	0	38	0	1248854016	42	3844
2026-01-22 03:29:24.04	35.26	28.20	-35.6	-36.4	22.8	0.00e+00	0	38	0	1280311296	42	3760
2026-01-22 03:29:28.03	35.83	28.85	-35.5	-36.3	22.8	0.00e+00	0	38	0	1308622848	41	3950
2026-01-22 03:29:32.01	36.42	29.51	-35.3	-36.2	23.0	0.00e+00	0	38	0	1337982976	41	3870
2026-01-22 03:29:36.04	37.05	30.19	-35.5	-36.3	22.9	0.00e+00	0	38	0	1366294528	41	3950
2026-01-22 03:29:40.14	37.71	30.90	-35.3	-36.1	23.1	0.00e+00	0	38	0	1396703232	40	4072
2026-01-22 03:29:44.26	38.40	31.62	-35.4	-36.2	23.0	0.00e+00	0	38	0	1426063360	40	4142
2026-01-22 03:29:48.25	39.11	32.34	-35.4	-36.2	23.0	0.00e+00	0	38	0	1454374912	40	4132
2026-01-22 03:29:52.25	39.84	33.07	-35.6	-36.4	22.9	0.00e+00	0	38	0	1483735040	40	4208
2026-01-22 03:29:56.51	40.66	33.85	-35.5	-36.3	22.9	0.00e+00	0	38	0	1514143744	40	4178
2026-01-22 03:30:00.76	41.52	34.66	-35.5	-36.3	22.9	0.00e+00	0	38	0	1545601024	41	3945
2026-01-22 03:30:04.75	42.37	35.42	-35.4	-36.2	22.9	0.00e+00	0	38	0	1573912576	41	3912
2026-01-22 03:30:08.74	43.25	36.20	-35.2	-36.0	23.2	0.00e+00	0	38	0	1602224128	41	3811
2026-01-22 03:30:12.78	44.19	37.00	-35.5	-36.3	22.9	0.00e+00	0	38	0	1631584256	41	3936
2026-01-22 03:30:16.71	45.15	37.79	-35.6	-36.4	22.9	0.00e+00	0	38	0	1660944384	41	3963
2026-01-22 03:30:20.81	46.20	38.62	-35.6	-36.4	22.8	0.00e+00	0	38	0	1690304512	41	3998
2026-01-22 03:30:24.79	47.28	39.43	-35.5	-36.3	23.0	0.00e+00	0	38	0	1718616064	41	3946
2026-01-22 03:30:28.77	48.40	40.26	-35.6	-36.5	22.8	0.00e+00	0	38	0	1747976192	41	4008
2026-01-22 03:30:32.78	49.60	41.10	-36.2	-37.1	22.3	0.00e+00	0	38	0	1776287744	41	4311
2026-01-22 03:30:36.79	50.86	41.94	-35.9	-36.7	22.6	0.00e+00	0	38	0	1805647872	42	3892
2026-01-22 03:30:40.95	52.23	42.82	-35.7	-36.6	22.7	0.00e+00	0	38	0	1836056576	41	4060
2026-01-22 03:30:44.95	53.63	43.67	-35.8	-36.6	22.6	0.00e+00	0	38	0	1864368128	41	4087
2026-01-22 03:30:48.98	55.11	44.52	-36.2	-37.0	22.3	0.00e+00	0	38	0	1893728256	41	4285
2026-01-22 03:30:52.97	56.65	45.36	-36.2	-37.0	22.4	0.00e+00	0	38	0	1922039808	42	4024
2026-01-22 03:30:56.95	58.28	46.19	-36.2	-37.0	22.4	0.00e+00	0	38	0	1950351360	42	4033
2026-01-22 03:31:00.93	59.99	47.02	-36.3	-37.2	22.2	0.00e+00	0	38	0	1979711488	42	4115
2026-01-22 03:31:04.91	61.79	47.83	-36.9	-37.8	21.7	0.00e+00	0	38	0	2008023040	43	4154
2026-01-22 03:31:08.91	63.70	48.63	-37.0	-37.9	21.6	0.00e+00	0	38	0	2037383168	43	4223
2026-01-22 03:31:12.93	65.72	49.41	-36.9	-37.8	21.8	0.00e+00	0	38	0	2065694720	44	3934
2026-01-22 03:31:16.95	67.84	50.16	-36.7	-37.6	21.8	0.00e+00	0	38	0	2095054848	43	4070
2026-01-22 03:31:20.97	70.06	50.89	-37.1	-38.0	21.5	0.00e+00	0	38	0	2124414976	43	4277
2026-01-22 03:31:24.96	72.38	51.57	-37.1	-37.9	21.7	0.00e+00	0	38	0	2152726528	44	3992
2026-01-22 03:31:29.08	74.88	52.24	-37.1	-37.9	21.7	0.00e+00	0	38	0	2183135232	44	3998
2026-01-22 03:31:33.22	77.50	52.85	-37.3	-38.2	21.5	0.00e+00	0	38	0	2212495360	44	4132
2026-01-22 03:31:37.46	80.30	53.43	-37.8	-38.7	21.0	0.00e+00	0	38	0	2242904064	45	4128
2026-01-22 03:31:41.44	83.03	53.91	-37.2	-38.1	21.6	0.00e+00	0	38	0	2272264192	45	3835
2026-01-22 03:31:45.46	85.86	54.33	-36.8	-37.6	22.0	0.00e+00	0	38	0	2301624320	44	3862
2026-01-22 03:31:49.57	88.85	54.69	-37.2	-38.0	21.6	0.00e+00	0	38	0	2330984448	44	4048
2026-01-22 03:31:53.81	91.99	54.98	-37.3	-38.2	21.3	0.00e+00	0	38	0	2361393152	44	4137
2026-01-22 03:31:57.79	95.00	55.18	-37.7	-38.6	21.1	0.00e+00	0	38	0	2389704704	45	4093
2026-01-22 03:32:01.77	98.04	55.30	-37.3	-38.2	21.5	0.00e+00	0	38	0	2419064832	45	3890
2026-01-22 03:32:05.75	101.10	55.34	-37.2	-38.1	21.6	0.00e+00	0	38	0	2447376384	45	3845
2026-01-22 03:32:09.84	104.24	55.30	-37.4	-38.3	21.3	0.00e+00	0	38	0	2476736512	45	3945
2026-01-22 03:32:13.83	107.29	55.18	-37.3	-38.2	21.5	0.00e+00	0	38	0	2506096640	45	3875
2026-01-22 03:32:17.81	110.29	54.98	-37.7	-38.6	21.1	0.00e+00	0	38	0	2534408192	44	4325
2026-01-22 03:32:21.79	113.25	54.71	-37.6	-38.5	21.2	0.00e+00	0	38	0	2562719744	45	4015
2026-01-22 03:32:25.77	116.15	54.37	-37.5	-38.5	21.2	0.00e+00	0	38	0	2592079872	45	4007
2026-01-22 03:32:29.76	118.98	53.96	-37.3	-38.2	21.5	0.00e+00	0	38	0	2621440000	45	3884
2026-01-22 03:32:33.74	121.72	53.48	-37.7	-38.6	21.1	0.00e+00	0	38	0	2649751552	45	4072
2026-01-22 03:32:37.71	124.35	52.95	-37.4	-38.3	21.4	0.00e+00	0	38	0	2678063104	45	3928
2026-01-22 03:32:41.69	126.90	52.37	-37.3	-38.2	21.5	0.00e+00	0	38	0	2706374656	44	4119
2026-01-22 03:32:45.67	129.35	51.73	-37.7	-38.6	21.2	0.00e+00	0	38	0	2735734784	44	4299
2026-01-22 03:32:49.74	131.74	51.04	-37.9	-38.8	20.9	0.00e+00	0	38	0	2765094912	45	4184
2026-01-22 03:32:53.77	134.00	50.32	-37.4	-38.3	21.4	0.00e+00	0	38	0	2794455040	45	3944
2026-01-22 03:32:57.84	136.18	49.56	-37.4	-38.3	21.4	0.00e+00	0	38	0	2823815168	44	4161
2026-01-22 03:33:02.31	138.44	48.69	-37.6	-38.5	21.3	0.00e+00	0	38	0	2856321024	44	4268
2026-01-22 03:33:06.29	140.36	47.89	-36.9	-37.8	21.9	0.00e+00	0	38	0	2884632576	44	3926
2026-01-22 03:33:10.27	142.17	47.08	-37.1	-38.0	21.6	0.00e+00	0	38	0	2912944128	44	4015
2026-01-22 03:33:14.25	143.90	46.25	-37.2	-38.1	21.6	0.00e+00	0	38	0	2942304256	44	4072
2026-01-22 03:33:18.23	145.54	45.42	-36.1	-37.0	22.4	0.00e+00	0	38	0	2970615808	42	4012
2026-01-22 03:33:22.27	147.11	44.56	-35.7	-36.5	22.9	0.00e+00	0	38	0	2999975936	42	3794
2026-01-22 03:33:26.25	148.59	43.72	-36.2	-37.1	22.3	0.00e+00	0	38	0	3028287488	41	4299
2026-01-22 03:33:30.23	149.98	42.87	-36.0	-36.8	22.5	0.00e+00	0	38	0	3057647616	42	3944
2026-01-22 03:33:34.21	151.31	42.02	-35.8	-36.6	22.6	0.00e+00	0	38	0	3085959168	42	3864
2026-01-22 03:33:38.30	152.61	41.16	-36.3	-37.1	22.3	0.00e+00	0	38	0	3115319296	42	4096
2026-01-22 03:33:42.28	153.80	40.32	-36.1	-37.0	22.4	0.00e+00	0	38	0	3144679424	42	4028
2026-01-22 03:33:46.26	154.94	39.49	-35.8	-36.6	22.7	0.00e+00	0	38	0	3172990976	42	3858
2026-01-22 03:33:50.33	156.05	38.65	-36.0	-36.8	22.6	0.00e+00	0	38	0	3202351104	42	3939
2026-01-22 03:33:54.67	157.17	37.76	-36.0	-36.8	22.3	0.00e+00	0	38	0	3233808384	42	3956
2026-01-22 03:33:59.11	158.25	36.87	-35.7	-36.5	22.8	0.00e+00	0	38	0	3266314240	42	3789
2026-01-22 03:34:03.69	159.31	35.96	-35.4	-36.2	23.0	0.00e+00	0	38	0	3298820096	41	3908
2026-01-22 03:34:08.44	160.35	35.03	-35.7	-36.6	22.7	0.00e+00	0	38	0	3333423104	41	4070
2026-01-22 03:34:12.83	161.26	34.19	-36.1	-37.0	22.3	0.00e+00	0	38	0	3364880384	41	4244
2026-01-22 03:34:17.00	162.09	33.41	-35.3	-36.1	23.1	0.00e+00	0	38	0	3395289088	41	3848
2026-01-22 03:34:21.00	162.84	32.67	-35.4	-36.2	23.0	0.00e+00	0	38	0	3423600640	41	3898
2026-01-22 03:34:25.09	163.58	31.92	-35.8	-36.7	22.6	0.00e+00	0	38	0	3452960768	41	4121
2026-01-22 03:34:29.30	164.31	31.17	-35.8	-36.7	22.6	0.00e+00	0	38	0	3484418048	41	4108
2026-01-22 03:34:33.49	165.00	30.44	-35.5	-36.3	22.9	0.00e+00	0	38	0	3513778176	41	3944
2026-01-22 03:34:37.49	165.63	29.75	-35.5	-36.3	22.9	0.00e+00	0	38	0	3543138304	41	3935
2026-01-22 03:34:41.47	166.24	29.08	-35.7	-36.6	22.7	0.00e+00	0	38	0	3571449856	41	4052
2026-01-22 03:34:45.80	166.87	28.36	-35.9	-36.8	22.5	0.00e+00	0	38	0	3602907136	41	4170
2026-01-22 03:34:49.80	167.43	27.72	-36.0	-36.9	22.4	0.00e+00	0	38	0	3632267264	41	4202
2026-01-22 03:34:53.92	167.98	27.06	-36.0	-36.8	22.4	0.00e+00	0	38	0	3661627392	41	4177
2026-01-22 03:34:57.90	168.49	26.44	-36.1	-37.0	22.3	0.00e+00	0	38	0	3689938944	41	4253
2026-01-22 03:35:01.88	168.99	25.83	-36.3	-37.1	22.2	0.00e+00	0	38	0	3719299072	42	4095
2026-01-22 03:35:05.87	169.47	25.23	-36.3	-37.1	22.2	0.00e+00	0	38	0	3747610624	42	4088
2026-01-22 03:35:09.85	169.93	24.65	-36.0	-36.9	22.4	0.00e+00	0	38	0	3775922176	42	3975
2026-01-22 03:35:13.83	170.37	24.07	-36.0	-36.8	22.4	0.00e+00	0	38	0	3805282304	42	3947
2026-01-22 03:35:17.81	170.80	23.51	-36.0	-36.9	22.4	0.00e+00	0	38	0	3833593856	42	3969
2026-01-22 03:35:21.85	171.22	22.95	-36.3	-37.2	22.1	0.00e+00	0	38	0	3862953984	42	4124
2026-01-22 03:35:25.89	171.63	22.40	-36.6	-37.5	21.9	0.00e+00	0	38	0	3892314112	42	4262
2026-01-22 03:35:29.87	172.02	21.86	-36.6	-37.5	21.8	0.00e+00	0	38	0	3920625664	43	4050
2026-01-22 03:35:34.09	172.41	21.31	-36.7	-37.6	21.7	0.00e+00	0	38	0	3951034368	43	4077
2026-01-22 03:35:38.10	172.78	20.79	-36.8	-37.7	21.7	0.00e+00	0	38	0	3980394496	43	4100
2026-01-22 03:35:42.08	173.13	20.29	-36.7	-37.6	21.6	0.00e+00	0	38	0	4008706048	43	4083
2026-01-22 03:35:46.05	173.47	19.79	-36.8	-37.7	21.7	0.00e+00	0	38	0	4038066176	43	4115
2026-01-22 03:35:50.07	173.80	19.30	-36.8	-37.7	21.6	0.00e+00	0	38	0	4066377728	43	4137
2026-01-22 03:35:54.23	174.13	18.80	-37.1	-38.0	21.3	0.00e+00	0	38	0	4096786432	43	4265
2026-01-22 03:35:58.76	174.49	18.27	-37.4	-38.4	21.2	0.00e+00	0	38	0	4129292288	44	4194
2026-01-22 03:36:02.89	174.80	17.79	-37.7	-38.6	20.9	0.00e+00	0	38	0	4159700992	44	4313
2026-01-22 03:36:06.90	175.09	17.34	-37.8	-38.7	20.8	0.00e+00	0	38	0	4188012544	44	4371
2026-01-22 03:36:11.02	175.38	16.88	-37.7	-38.6	20.9	0.00e+00	0	38	0	4218421248	45	4085
2026-01-22 03:36:15.00	175.66	16.44	-37.7	-38.7	20.9	0.00e+00	0	38	0	4246732800	45	4102
2026-01-22 03:36:18.98	175.92	16.01	-37.8	-38.8	20.7	0.00e+00	0	38	0	4275044352	45	4161
2026-01-22 03:36:22.96	176.18	15.59	-37.8	-38.8	20.7	0.00e+00	0	38	0	4304404480	45	4170
2026-01-22 03:36:27.05	176.44	15.17	-37.9	-38.9	20.6	0.00e+00	0	38	0	4333764608	45	4211
2026-01-22 03:36:31.03	176.69	14.76	-38.0	-39.0	20.5	0.00e+00	0	38	0	4362076160	45	4259
2026-01-22 03:36:35.01	176.93	14.35	-38.1	-39.1	20.4	0.00e+00	0	38	0	4391436288	45	4312
2026-01-22 03:36:38.98	177.16	13.96	-38.2	-39.2	20.3	0.00e+00	0	38	0	4419747840	46	4134
2026-01-22 03:36:42.96	177.39	13.57	-38.5	-39.5	20.0	0.00e+00	0	38	0	4449107968	46	4268
2026-01-22 03:36:46.93	177.62	13.18	-38.5	-39.5	20.0	0.00e+00	0	38	0	4477419520	46	4256
2026-01-22 03:36:50.91	177.83	12.81	-38.6	-39.6	19.9	0.00e+00	0	38	0	4505731072	46	4311
2026-01-22 03:36:54.88	178.05	12.43	-38.6	-39.6	19.9	0.00e+00	0	38	0	4534042624	46	4317
2026-01-22 03:36:58.91	178.26	12.06	-38.7	-39.7	19.8	0.00e+00	0	38	0	4563402752	46	4367
2026-01-22 03:37:02.97	178.46	11.69	-38.9	-39.9	19.5	0.00e+00	0	38	0	4592762880	47	4229
2026-01-22 03:37:06.94	178.66	11.33	-39.0	-40.1	19.4	0.00e+00	0	38	0	4621074432	47	4293
2026-01-22 03:37:10.92	178.85	10.98	-39.1	-40.2	19.3	0.00e+00	0	38	0	4650434560	47	4346
2026-01-22 03:37:14.90	179.04	10.63	-39.4	-40.5	19.1	0.00e+00	0	38	0	4679794688	48	4275
2026-01-22 03:37:18.96	179.23	10.28	-39.7	-40.8	19.0	0.00e+00	0	38	0	4708106240	49	4170
2026-01-22 03:37:22.94	179.41	9.94	-39.6	-40.8	18.9	0.00e+00	0	38	0	4737466368	49	4170
2026-01-22 03:37:26.92	179.59	9.61	-39.8	-41.0	18.7	0.00e+00	0	38	0	4765777920	49	4273
2026-01-22 03:37:31.08	179.77	9.26	-39.7	-40.9	18.8	0.00e+00	0	38	0	4796186624	49	4206
2026-01-22 03:37:35.06	179.94	8.94	-49.6	-58.1	3.9	6.38e-01	0	38	104	4823449600	69	9707
2026-01-22 03:37:39.04	180.11	8.62	-50.5	-61.5	3.8	8.47e-01	0	38	104	4823449600	70	13565
2026-01-22 03:37:43.01	180.27	8.30	-51.0	-61.7	3.8	8.47e-01	0	38	104	4823449600	71	12973
2026-01-22 03:37:46.98	180.43	7.99	-51.0	-61.7	3.8	8.48e-01	0	38	104	4823449600	71	13031
2026-01-22 03:37:50.96	180.58	7.68	-50.9	-61.7	3.8	8.47e-01	0	38	104	4823449600	71	13081
2026-01-22 03:37:54.93	180.74	7.37	-51.0	-61.7	3.8	8.47e-01	0	38	104	4823449600	71	13024
2026-01-22 03:37:58.90	180.89	7.07	-51.0	-61.7	3.8	8.47e-01	0	39	104	4823449600	71	13080
2026-01-22 03:38:02.87	181.03	6.77	-50.7	-61.7	3.8	8.47e-01	0	38	104	4823449600	71	13022
2026-01-22 03:38:06.85	181.18	6.47	-50.7	-61.7	3.8	8.46e-01	0	38	104	4823449600	71	12971
2026-01-22 03:38:10.82	181.32	6.18	-50.7	-61.6	3.8	8.45e-01	0	39	104	4823449600	71	12951
2026-01-22 03:38:14.79	181.46	5.89	-50.7	-61.7	3.8	8.47e-01	0	38	104	4823449600	71	12993
2026-01-22 03:38:18.77	181.60	5.60	-50.6	-61.6	3.8	8.46e-01	0	39	104	4823449600	71	12915
2026-01-22 03:38:22.74	181.73	5.32	-50.6	-61.6	3.8	8.47e-01	0	39	104	4823449600	71	12918
2026-01-22 03:38:26.72	181.86	5.04	-50.7	-61.7	3.8	8.47e-01	0	38	104	4823449600	71	13014

#Closed at: 2026-01-22 03:38:28
#Recorded file [4823 MB]: D:/Data/31040_260122_062541.dat