passes_logs/2026/01/22/T1/T1__20260122_202729_KHAYYAM_rec.log

#Pass ID: 20260122_202729_KHAYYAM
#Satellite: KHAYYAM
#Configuration: KHAYYAM_480M
#almurnet v.1.7.20251203
#Start time: 2026-01-22 20:27:31

#Version: 2.0.20230620
#Station: T1
#Location: 37.570604 lon 55.790049 lat
#TLE: 1 53370U 22096A   26022.50444257  .00007758  00000+0  31649-3 0  9992
#TLE: 2 53370  97.3554 289.3799 0001875 107.2390 252.9053 15.24700694192380

#Time	Az	El	Level	Level2	SNR	BER	BlckErr	Temp	State	Recorded	gain1	gain2
2026-01-22 20:27:31.29	27.61	5.31	-49.2	-52.4	3.6	0.00e+00	0	40	0	0	70	20216
2026-01-22 20:27:33.28	27.80	5.46	-49.2	-52.4	3.8	0.00e+00	0	40	104	0	69	21423
2026-01-22 20:27:35.27	27.99	5.61	-49.2	-52.4	3.8	0.00e+00	0	41	104	0	69	21468
2026-01-22 20:27:37.26	28.18	5.76	-49.2	-52.4	3.8	0.00e+00	0	41	104	0	69	21400
2026-01-22 20:27:39.26	28.38	5.91	-49.2	-52.4	3.8	0.00e+00	0	41	104	0	69	21418
2026-01-22 20:27:41.25	28.58	6.06	-49.2	-52.4	3.8	0.00e+00	0	41	104	0	69	21434
2026-01-22 20:27:43.23	28.77	6.21	-49.2	-52.4	3.8	0.00e+00	0	41	104	0	69	21409
2026-01-22 20:27:45.20	28.98	6.36	-49.2	-52.4	3.8	0.00e+00	0	42	104	0	69	21444
2026-01-22 20:27:47.18	29.18	6.52	-49.2	-52.4	3.8	0.00e+00	0	41	104	0	69	21368
2026-01-22 20:27:49.17	29.39	6.67	-49.2	-52.4	3.8	0.00e+00	0	41	104	0	69	21444
2026-01-22 20:27:51.16	29.60	6.83	-49.2	-52.4	3.8	0.00e+00	0	42	104	0	69	21499
2026-01-22 20:27:53.15	29.81	6.99	-49.2	-52.4	3.8	0.00e+00	0	42	104	0	69	21419
2026-01-22 20:27:55.15	30.03	7.14	-49.2	-52.4	3.8	0.00e+00	0	42	104	0	69	21400
2026-01-22 20:27:57.14	30.25	7.30	-49.2	-52.3	3.8	0.00e+00	0	42	104	0	69	21315
2026-01-22 20:27:59.13	30.47	7.46	-49.2	-52.4	3.8	0.00e+00	0	42	104	0	69	21388
2026-01-22 20:28:01.13	30.69	7.63	-49.2	-52.3	3.8	0.00e+00	0	42	104	0	69	21344
2026-01-22 20:28:03.12	30.92	7.79	-49.2	-52.4	3.8	0.00e+00	0	42	104	0	69	21364
2026-01-22 20:28:05.12	31.15	7.95	-49.2	-52.3	3.8	0.00e+00	0	43	104	0	69	21354
2026-01-22 20:28:07.11	31.39	8.12	-49.2	-52.4	3.8	0.00e+00	0	43	104	0	69	21396
2026-01-22 20:28:09.10	31.62	8.28	-49.2	-52.4	3.8	0.00e+00	0	43	104	0	69	21436
2026-01-22 20:28:11.10	31.87	8.45	-49.2	-52.4	3.8	0.00e+00	0	43	104	0	69	21402
2026-01-22 20:28:13.09	32.11	8.62	-49.2	-52.4	3.8	0.00e+00	0	43	104	0	69	21430
2026-01-22 20:28:15.08	32.36	8.79	-49.2	-52.4	3.8	0.00e+00	0	43	104	0	69	21441
2026-01-22 20:28:17.07	32.61	8.96	-49.2	-52.4	3.8	0.00e+00	0	43	104	0	69	21367
2026-01-22 20:28:19.07	32.86	9.13	-49.9	-53.0	3.8	0.00e+00	0	43	104	0	70	21799
2026-01-22 20:28:21.07	33.12	9.30	-51.9	-56.5	3.7	0.00e+00	0	43	104	0	74	25940
2026-01-22 20:28:23.06	33.38	9.48	-49.9	-52.9	3.8	0.00e+00	0	43	104	0	71	20341
2026-01-22 20:28:25.05	33.65	9.65	-50.9	-54.3	3.7	0.00e+00	0	43	104	0	72	22459
2026-01-22 20:28:27.05	33.92	9.83	-51.9	-55.9	3.7	0.00e+00	0	43	104	0	74	24217
2026-01-22 20:28:29.04	34.19	10.01	-51.3	-54.8	3.7	0.00e+00	0	44	104	0	74	21278
2026-01-22 20:28:31.04	34.47	10.19	-51.7	-55.9	3.7	0.00e+00	0	44	104	0	74	23970
2026-01-22 20:28:33.03	34.75	10.37	-51.4	-55.3	3.7	0.00e+00	0	43	104	0	73	23942
2026-01-22 20:28:35.02	35.04	10.55	-51.7	-55.9	3.7	0.00e+00	0	44	104	0	74	24226
2026-01-22 20:28:37.01	35.33	10.73	-50.4	-53.9	3.7	0.00e+00	0	44	104	0	72	21382
2026-01-22 20:28:39.00	35.62	10.92	-50.0	-53.2	3.7	0.00e+00	0	44	104	0	71	20983
2026-01-22 20:28:40.98	35.92	11.10	-50.0	-53.2	3.7	0.00e+00	0	44	104	0	71	20978
2026-01-22 20:28:42.98	36.23	11.29	-50.8	-54.2	3.7	0.00e+00	0	44	104	0	72	22344
2026-01-22 20:28:44.96	36.53	11.47	-50.0	-53.0	3.7	0.00e+00	0	44	104	0	72	19428
2026-01-22 20:28:46.95	36.85	11.66	-50.9	-54.3	3.7	0.00e+00	0	44	104	0	72	22431
2026-01-22 20:28:48.94	37.16	11.85	-45.2	-46.7	4.9	0.00e+00	0	44	104	0	62	16743
2026-01-22 20:28:50.92	37.49	12.04	-46.3	-48.0	4.7	0.00e+00	0	44	104	0	64	17177
2026-01-22 20:28:52.91	37.81	12.24	-47.9	-49.9	4.2	0.00e+00	0	44	104	0	66	19174
2026-01-22 20:28:54.89	38.15	12.43	-50.5	-53.2	3.8	0.00e+00	0	44	104	0	71	21073
2026-01-22 20:28:56.87	38.48	12.63	-49.5	-51.8	3.9	0.00e+00	0	44	104	0	71	17921
2026-01-22 20:28:58.87	38.83	12.82	-50.4	-53.2	3.7	0.00e+00	0	44	104	0	72	19915
2026-01-22 20:29:00.86	39.18	13.02	-51.2	-54.5	3.7	0.00e+00	0	44	104	0	73	21711
2026-01-22 20:29:02.84	39.53	13.22	-51.6	-55.1	3.7	0.00e+00	0	44	104	0	73	23322
2026-01-22 20:29:04.82	39.89	13.42	-50.9	-53.9	3.7	0.00e+00	0	44	104	0	73	20221
2026-01-22 20:29:06.82	40.26	13.62	-51.8	-55.5	3.7	0.00e+00	0	44	104	0	74	22992
2026-01-22 20:29:08.82	40.63	13.83	-51.2	-54.4	3.7	0.00e+00	0	44	104	0	73	21380
2026-01-22 20:29:10.81	41.01	14.03	-51.9	-55.5	3.7	0.00e+00	0	44	104	0	74	23026
2026-01-22 20:29:12.80	41.39	14.24	-52.3	-56.1	3.7	0.00e+00	0	44	104	0	75	23375
2026-01-22 20:29:14.79	41.78	14.45	-52.5	-56.5	3.7	0.00e+00	0	44	104	0	76	23076
2026-01-22 20:29:16.78	42.18	14.66	-52.9	-57.2	3.7	0.00e+00	0	44	104	0	76	25000
2026-01-22 20:29:18.79	42.59	14.87	-52.6	-56.8	3.7	0.00e+00	0	44	104	0	76	23697
2026-01-22 20:29:20.78	43.00	15.08	-52.6	-56.7	3.7	0.00e+00	0	44	104	0	76	23628
2026-01-22 20:29:22.77	43.42	15.29	-52.5	-56.5	3.7	0.00e+00	0	44	104	0	76	23123
2026-01-22 20:29:24.76	43.84	15.51	-52.5	-56.6	3.7	0.00e+00	0	44	104	0	76	23370
2026-01-22 20:29:26.76	44.28	15.72	-52.4	-56.6	3.7	0.00e+00	0	44	104	0	76	23260
2026-01-22 20:29:28.76	44.72	15.94	-51.8	-55.3	3.7	0.00e+00	0	45	104	0	75	21235
2026-01-22 20:29:30.76	45.17	16.16	-51.8	-55.4	3.7	0.00e+00	0	44	104	0	75	21408
2026-01-22 20:29:32.76	45.62	16.38	-52.7	-57.1	3.7	0.00e+00	0	45	104	0	75	26038
2026-01-22 20:29:34.75	46.09	16.60	-52.5	-56.8	3.7	0.00e+00	0	44	104	0	76	23759
2026-01-22 20:29:36.74	46.56	16.82	-52.9	-57.4	3.7	0.00e+00	0	44	104	0	76	25495
2026-01-22 20:29:38.74	47.04	17.04	-52.7	-57.1	3.7	0.00e+00	0	44	104	0	76	24744
2026-01-22 20:29:40.73	47.52	17.26	-52.7	-57.1	3.7	0.00e+00	0	45	104	0	76	24595
2026-01-22 20:29:42.72	48.02	17.48	-52.4	-56.5	3.7	0.00e+00	0	45	104	0	76	22913
2026-01-22 20:29:44.71	48.52	17.71	-52.7	-57.0	3.7	0.00e+00	0	44	104	0	76	24279
2026-01-22 20:29:46.70	49.03	17.93	-52.7	-57.1	3.7	0.00e+00	0	45	104	0	76	24707
2026-01-22 20:29:48.69	49.55	18.16	-52.9	-57.3	3.7	0.00e+00	0	45	104	0	76	25149
2026-01-22 20:29:50.69	50.09	18.39	-52.8	-57.3	3.7	0.00e+00	0	45	104	0	76	25267
2026-01-22 20:29:52.68	50.63	18.61	-52.8	-57.3	3.7	0.00e+00	0	45	104	0	76	25348
2026-01-22 20:29:54.67	51.17	18.84	-52.7	-57.2	3.7	0.00e+00	0	45	104	0	76	24971
2026-01-22 20:29:56.66	51.73	19.07	-52.7	-57.3	3.7	0.00e+00	0	45	104	0	76	25231
2026-01-22 20:29:58.65	52.30	19.29	-52.9	-57.4	3.7	0.00e+00	0	45	104	0	76	25448
2026-01-22 20:30:00.64	52.88	19.52	-52.9	-57.4	3.7	0.00e+00	0	45	104	0	76	25497
2026-01-22 20:30:02.64	53.47	19.75	-52.6	-56.8	3.7	0.00e+00	0	45	104	0	76	23859
2026-01-22 20:30:04.63	54.06	19.98	-52.4	-56.6	3.7	0.00e+00	0	45	104	0	76	23371
2026-01-22 20:30:06.63	54.67	20.21	-52.4	-56.7	3.7	0.00e+00	0	45	104	0	76	23450
2026-01-22 20:30:08.62	55.29	20.43	-52.5	-56.6	3.7	0.00e+00	0	45	104	0	76	23315
2026-01-22 20:30:10.62	55.92	20.66	-52.9	-57.3	3.7	0.00e+00	0	45	104	0	76	25359
2026-01-22 20:30:12.61	56.56	20.89	-52.9	-57.5	3.7	0.00e+00	0	45	104	0	76	25799
2026-01-22 20:30:14.60	57.21	21.11	-53.0	-57.5	3.7	0.00e+00	0	45	104	0	76	25795
2026-01-22 20:30:16.60	57.87	21.34	-53.0	-57.4	3.7	0.00e+00	0	45	104	0	76	25648
2026-01-22 20:30:18.60	58.55	21.56	-52.5	-57.1	3.7	0.00e+00	0	45	104	0	76	24705
2026-01-22 20:30:20.59	59.23	21.79	-52.2	-56.7	3.7	0.00e+00	0	45	104	0	76	23654
2026-01-22 20:30:22.58	59.92	22.01	-52.7	-57.0	3.7	0.00e+00	0	45	104	0	76	24372
2026-01-22 20:30:24.58	60.63	22.23	-52.9	-57.3	3.7	0.00e+00	0	45	104	0	76	25330
2026-01-22 20:30:26.57	61.35	22.45	-52.8	-57.4	3.7	0.00e+00	0	45	104	0	76	25512
2026-01-22 20:30:28.56	62.07	22.66	-52.8	-57.3	3.7	0.00e+00	0	45	104	0	76	25253
2026-01-22 20:30:30.55	62.81	22.88	-52.9	-57.3	3.7	0.00e+00	0	45	104	0	76	25323
2026-01-22 20:30:32.55	63.56	23.09	-53.0	-57.4	3.7	0.00e+00	0	45	104	0	76	25521
2026-01-22 20:30:34.54	64.33	23.30	-53.1	-57.6	3.7	0.00e+00	0	45	104	0	76	26066
2026-01-22 20:30:36.53	65.10	23.51	-53.1	-57.5	3.7	0.00e+00	0	45	104	0	77	24505
2026-01-22 20:30:38.52	65.88	23.71	-53.0	-57.5	3.7	0.00e+00	0	45	104	0	77	24477
2026-01-22 20:30:40.51	66.68	23.91	-53.1	-57.6	3.7	0.00e+00	0	45	104	0	77	24580
2026-01-22 20:30:42.50	67.48	24.11	-53.1	-57.5	3.7	0.00e+00	0	45	104	0	77	24332
2026-01-22 20:30:44.49	68.30	24.30	-53.1	-57.6	3.7	0.00e+00	0	45	104	0	77	24796
2026-01-22 20:30:46.48	69.13	24.49	-53.2	-57.6	3.7	0.00e+00	0	45	104	0	77	24781
2026-01-22 20:30:48.48	69.98	24.68	-53.0	-57.6	3.7	0.00e+00	0	45	104	0	77	24731
2026-01-22 20:30:50.46	70.82	24.86	-53.0	-57.5	3.7	0.00e+00	0	45	104	0	77	24520
2026-01-22 20:30:52.46	71.69	25.04	-53.2	-57.6	3.7	0.00e+00	0	45	104	0	77	24749
2026-01-22 20:30:54.44	72.56	25.21	-53.1	-57.6	3.7	0.00e+00	0	45	104	0	77	24752
2026-01-22 20:30:56.43	73.44	25.38	-53.0	-57.6	3.7	0.00e+00	0	45	104	0	77	24745
2026-01-22 20:30:58.43	74.34	25.54	-53.1	-57.5	3.7	0.00e+00	0	45	104	0	77	24448
2026-01-22 20:31:00.42	75.24	25.70	-53.0	-57.6	3.7	0.00e+00	0	45	104	0	77	24539
2026-01-22 20:31:02.41	76.16	25.85	-53.0	-57.5	3.7	0.00e+00	0	45	104	0	77	24400
2026-01-22 20:31:04.41	77.08	25.99	-53.0	-57.4	3.7	0.00e+00	0	45	104	0	77	24199
2026-01-22 20:31:06.40	78.01	26.13	-52.9	-57.3	3.7	0.00e+00	0	45	104	0	77	23936
2026-01-22 20:31:08.39	78.96	26.26	-53.0	-57.6	3.7	0.00e+00	0	45	104	0	77	24753
2026-01-22 20:31:10.38	79.90	26.38	-52.9	-57.5	3.7	0.00e+00	0	45	104	0	77	24509
2026-01-22 20:31:12.38	80.87	26.50	-52.6	-57.4	3.7	0.00e+00	0	45	104	0	77	23988
2026-01-22 20:31:14.38	81.84	26.61	-52.5	-57.3	3.7	0.00e+00	0	45	104	0	76	25313
2026-01-22 20:31:16.37	82.81	26.71	-52.4	-57.3	3.7	0.00e+00	0	45	104	0	76	25168
2026-01-22 20:31:18.36	83.79	26.81	-51.9	-57.1	3.7	0.00e+00	0	45	104	0	75	26077
2026-01-22 20:31:20.35	84.77	26.89	-52.3	-57.1	3.7	0.00e+00	0	45	104	0	75	26165
2026-01-22 20:31:22.34	85.76	26.97	-52.4	-57.2	3.7	0.00e+00	0	45	104	0	75	26573
2026-01-22 20:31:24.33	86.76	27.04	-52.3	-57.2	3.7	0.00e+00	0	45	104	0	75	26517
2026-01-22 20:31:26.32	87.76	27.10	-52.6	-57.4	3.7	0.00e+00	0	45	104	0	76	25405
2026-01-22 20:31:28.32	88.77	27.16	-52.5	-57.3	3.7	0.00e+00	0	45	104	0	76	25198
2026-01-22 20:31:30.31	89.77	27.20	-52.3	-57.1	3.7	0.00e+00	0	45	104	0	76	24740
2026-01-22 20:31:32.30	90.78	27.24	-53.0	-57.5	3.7	0.00e+00	0	45	104	0	76	25763
2026-01-22 20:31:34.29	91.80	27.27	-52.8	-57.4	3.7	0.00e+00	0	45	104	0	76	25674
2026-01-22 20:31:36.27	92.81	27.29	-52.7	-57.3	3.7	0.00e+00	0	45	104	0	76	25154
2026-01-22 20:31:38.26	93.82	27.30	-53.1	-57.5	3.7	0.00e+00	0	45	104	0	76	25746
2026-01-22 20:31:40.26	94.84	27.30	-52.9	-57.4	3.7	0.00e+00	0	45	104	0	76	25402
2026-01-22 20:31:42.24	95.85	27.29	-52.9	-57.3	3.7	0.00e+00	0	45	104	0	76	25197
2026-01-22 20:31:44.23	96.87	27.27	-52.9	-57.3	3.7	0.00e+00	0	45	104	0	76	25362
2026-01-22 20:31:46.33	97.94	27.25	-52.9	-57.2	3.7	0.00e+00	0	45	104	0	76	25078
2026-01-22 20:31:48.32	98.95	27.21	-52.5	-57.0	3.7	0.00e+00	0	46	104	0	76	24441
2026-01-22 20:31:50.31	99.96	27.17	-52.4	-56.8	3.7	0.00e+00	0	45	104	0	76	23802
2026-01-22 20:31:52.30	100.97	27.12	-53.0	-57.3	3.7	0.00e+00	0	45	104	0	76	25308
2026-01-22 20:31:54.29	101.97	27.05	-52.9	-57.2	3.7	0.00e+00	0	45	104	0	76	24815
2026-01-22 20:31:56.29	102.97	26.99	-53.0	-57.4	3.7	0.00e+00	0	45	104	0	77	23998
2026-01-22 20:31:58.29	103.97	26.91	-52.8	-57.1	3.7	0.00e+00	0	45	104	0	77	23156
2026-01-22 20:32:00.28	104.96	26.82	-52.9	-57.4	3.7	0.00e+00	0	45	104	0	77	24157
2026-01-22 20:32:02.28	105.94	26.73	-52.9	-57.3	3.7	0.00e+00	0	45	104	0	77	23803
2026-01-22 20:32:04.27	106.92	26.63	-52.6	-57.1	3.7	0.00e+00	0	45	104	0	77	23358
2026-01-22 20:32:06.25	107.88	26.52	-52.9	-57.3	3.7	0.00e+00	0	45	104	0	77	23773
2026-01-22 20:32:08.24	108.84	26.40	-53.1	-57.4	3.7	0.00e+00	0	45	104	0	77	24241
2026-01-22 20:32:10.23	109.80	26.28	-52.8	-57.2	3.7	0.00e+00	0	45	104	0	77	23573
2026-01-22 20:32:12.22	110.74	26.15	-52.8	-57.2	3.7	0.00e+00	0	45	104	0	77	23601
2026-01-22 20:32:14.20	111.67	26.01	-52.7	-57.0	3.7	0.00e+00	0	45	104	0	77	22947
2026-01-22 20:32:16.20	112.60	25.87	-52.6	-57.1	3.7	0.00e+00	0	45	104	0	77	23236
2026-01-22 20:32:18.19	113.52	25.72	-52.5	-56.8	3.7	0.00e+00	0	45	104	0	76	23846
2026-01-22 20:32:20.19	114.44	25.56	-52.6	-57.1	3.7	0.00e+00	0	45	104	0	76	24603
2026-01-22 20:32:22.18	115.33	25.40	-52.6	-56.8	3.7	0.00e+00	0	45	104	0	76	23724
2026-01-22 20:32:24.18	116.23	25.23	-52.7	-56.7	3.7	0.00e+00	0	45	104	0	76	23669
2026-01-22 20:32:26.16	117.10	25.06	-52.7	-56.9	3.7	0.00e+00	0	45	104	0	76	24023
2026-01-22 20:32:28.16	117.97	24.89	-52.7	-57.0	3.7	0.00e+00	0	45	104	0	76	24250
2026-01-22 20:32:30.14	118.83	24.70	-53.1	-57.5	3.7	0.00e+00	0	45	104	0	76	25820
2026-01-22 20:32:32.13	119.67	24.52	-53.2	-57.7	3.7	0.00e+00	0	45	104	0	77	24838
2026-01-22 20:32:34.12	120.51	24.33	-53.2	-57.6	3.7	0.00e+00	0	45	104	0	77	24645
2026-01-22 20:32:36.11	121.33	24.13	-53.1	-57.5	3.7	0.00e+00	0	45	104	0	77	24416
2026-01-22 20:32:38.11	122.15	23.93	-53.0	-57.5	3.7	0.00e+00	0	45	104	0	77	24261
2026-01-22 20:32:40.10	122.95	23.73	-52.8	-57.2	3.7	0.00e+00	0	46	104	0	77	23552
2026-01-22 20:32:42.09	123.74	23.53	-52.7	-57.1	3.7	0.00e+00	0	45	104	0	77	23222
2026-01-22 20:32:44.08	124.52	23.32	-52.8	-57.2	3.7	0.00e+00	0	46	104	0	77	23433
2026-01-22 20:32:46.07	125.28	23.11	-52.8	-57.2	3.7	0.00e+00	0	45	104	0	77	23650
2026-01-22 20:32:48.06	126.04	22.90	-52.1	-56.9	3.7	0.00e+00	0	45	104	0	76	24208
2026-01-22 20:32:50.05	126.78	22.68	-52.2	-57.0	3.7	0.00e+00	0	45	104	0	76	24443
2026-01-22 20:32:52.04	127.51	22.46	-53.0	-57.4	3.7	0.00e+00	0	45	104	0	76	25529
2026-01-22 20:32:54.04	128.24	22.24	-52.9	-57.2	3.7	0.00e+00	0	46	104	0	76	24987
2026-01-22 20:32:56.04	128.95	22.02	-52.9	-57.0	3.7	0.00e+00	0	45	104	0	76	24420
2026-01-22 20:32:58.04	129.66	21.80	-52.7	-56.8	3.7	0.00e+00	0	45	104	0	76	23768
2026-01-22 20:33:00.04	130.35	21.57	-52.3	-56.6	3.7	0.00e+00	0	45	104	0	76	23170
2026-01-22 20:33:02.02	131.02	21.35	-52.5	-56.9	3.7	0.00e+00	0	45	104	0	76	24217
2026-01-22 20:33:04.01	131.68	21.12	-52.6	-56.9	3.7	0.00e+00	0	45	104	0	76	24048
2026-01-22 20:33:06.01	132.34	20.89	-52.6	-56.7	3.7	0.00e+00	0	45	104	0	76	23484
2026-01-22 20:33:08.00	132.99	20.66	-52.5	-56.7	3.7	0.00e+00	0	45	104	0	76	23464
2026-01-22 20:33:09.99	133.62	20.43	-52.3	-56.6	3.7	0.00e+00	0	46	104	0	76	23229
2026-01-22 20:33:11.98	134.24	20.20	-52.1	-56.3	3.7	0.00e+00	0	45	104	0	76	22392
2026-01-22 20:33:13.97	134.85	19.98	-52.5	-56.6	3.7	0.00e+00	0	46	104	0	76	23169
2026-01-22 20:33:15.96	135.46	19.75	-52.8	-57.1	3.7	0.00e+00	0	45	104	0	76	24743
2026-01-22 20:33:17.95	136.05	19.52	-52.8	-57.0	3.7	0.00e+00	0	45	104	0	76	24465
2026-01-22 20:33:19.94	136.63	19.29	-52.8	-56.9	3.7	0.00e+00	0	45	104	0	76	24111
2026-01-22 20:33:21.93	137.20	19.06	-52.6	-57.0	3.7	0.00e+00	0	46	104	0	76	24378
2026-01-22 20:33:23.92	137.76	18.83	-52.8	-57.3	3.7	0.00e+00	0	45	104	0	76	25120
2026-01-22 20:33:25.90	138.31	18.60	-52.7	-57.2	3.7	0.00e+00	0	45	104	0	76	24851
2026-01-22 20:33:27.90	138.86	18.37	-52.6	-56.8	3.7	0.00e+00	0	45	104	0	76	23949
2026-01-22 20:33:29.88	139.39	18.14	-52.7	-57.1	3.7	0.00e+00	0	46	104	0	76	24619
2026-01-22 20:33:31.88	139.92	17.91	-52.7	-57.1	3.7	0.00e+00	0	45	104	0	76	24801
2026-01-22 20:33:33.87	140.44	17.69	-52.7	-57.2	3.7	0.00e+00	0	45	104	0	76	24987
2026-01-22 20:33:35.84	140.94	17.46	-52.5	-57.0	3.7	0.00e+00	0	45	104	0	76	24464
2026-01-22 20:33:37.84	141.44	17.24	-52.3	-56.9	3.7	0.00e+00	0	45	104	0	76	24131
2026-01-22 20:33:39.83	141.93	17.01	-52.0	-56.8	3.7	0.00e+00	0	45	104	0	75	25224
2026-01-22 20:33:41.83	142.41	16.79	-51.9	-56.8	3.7	0.00e+00	0	46	104	0	75	25227
2026-01-22 20:33:43.83	142.89	16.57	-52.1	-56.9	3.7	0.00e+00	0	46	104	0	75	25633
2026-01-22 20:33:45.82	143.36	16.34	-52.1	-56.8	3.7	0.00e+00	0	45	104	0	75	25376
2026-01-22 20:33:47.82	143.82	16.12	-52.3	-57.0	3.7	0.00e+00	0	45	104	0	75	25709
2026-01-22 20:33:49.80	144.26	15.90	-52.8	-57.2	3.7	0.00e+00	0	45	104	0	76	25024
2026-01-22 20:33:51.80	144.71	15.68	-52.6	-57.1	3.7	0.00e+00	0	45	104	0	76	24735
2026-01-22 20:33:53.78	145.14	15.47	-52.5	-57.0	3.7	0.00e+00	0	45	104	0	76	24423
2026-01-22 20:33:55.77	145.57	15.25	-52.6	-57.0	3.7	0.00e+00	0	45	104	0	76	24441
2026-01-22 20:33:57.76	145.99	15.04	-52.3	-56.8	3.7	0.00e+00	0	45	104	0	76	23964
2026-01-22 20:33:59.75	146.40	14.82	-52.0	-56.6	3.7	0.00e+00	0	45	104	0	75	24796
2026-01-22 20:34:01.74	146.81	14.61	-51.9	-56.6	3.7	0.00e+00	0	45	104	0	75	24572
2026-01-22 20:34:03.73	147.21	14.40	-52.1	-56.7	3.7	0.00e+00	0	45	104	0	75	24917
2026-01-22 20:34:05.71	147.60	14.19	-52.6	-57.1	3.7	0.00e+00	0	45	104	0	76	24804
2026-01-22 20:34:07.71	147.99	13.98	-52.3	-56.9	3.7	0.00e+00	0	46	104	0	75	25502
2026-01-22 20:34:09.71	148.38	13.78	-51.8	-56.5	3.6	0.00e+00	0	45	104	0	75	24311
2026-01-22 20:34:11.70	148.75	13.57	-52.1	-56.6	3.7	0.00e+00	0	45	104	0	75	24748
2026-01-22 20:34:13.69	149.12	13.37	-52.5	-57.0	3.7	0.00e+00	0	45	104	0	75	25798
2026-01-22 20:34:15.68	149.48	13.16	-52.4	-56.9	3.7	0.00e+00	0	45	104	0	75	25437
2026-01-22 20:34:17.67	149.84	12.96	-51.8	-56.5	3.7	0.00e+00	0	46	104	0	75	24365
2026-01-22 20:34:19.66	150.19	12.76	-51.7	-56.3	3.7	0.00e+00	0	45	104	0	75	23820
2026-01-22 20:34:21.66	150.54	12.56	-52.0	-56.5	3.7	0.00e+00	0	46	104	0	75	24335
2026-01-22 20:34:23.65	150.88	12.36	-52.0	-56.5	3.7	0.00e+00	0	45	104	0	75	24317
2026-01-22 20:34:25.65	151.21	12.17	-51.8	-56.0	3.7	0.00e+00	0	45	104	0	75	22965
2026-01-22 20:34:27.64	151.54	11.97	-51.6	-56.1	3.7	0.00e+00	0	45	104	0	74	24614
2026-01-22 20:34:29.64	151.87	11.78	-51.4	-55.9	3.7	0.00e+00	0	45	104	0	74	24150
2026-01-22 20:34:31.64	152.19	11.58	-51.4	-56.0	3.7	0.00e+00	0	46	104	0	74	24308
2026-01-22 20:34:33.63	152.51	11.39	-51.6	-56.3	3.7	0.00e+00	0	45	104	0	74	25357
2026-01-22 20:34:35.63	152.82	11.20	-51.1	-55.9	3.7	0.00e+00	0	45	104	0	74	24170
2026-01-22 20:34:37.63	153.12	11.01	-51.2	-56.0	3.7	0.00e+00	0	46	104	0	74	24505
2026-01-22 20:34:39.63	153.43	10.82	-51.6	-56.3	3.7	0.00e+00	0	46	104	0	74	25327
2026-01-22 20:34:41.63	153.72	10.64	-51.9	-56.5	3.7	0.00e+00	0	45	104	0	74	25919
2026-01-22 20:34:43.62	154.01	10.45	-52.0	-56.6	3.7	0.00e+00	0	46	104	0	75	24701
2026-01-22 20:34:45.61	154.30	10.27	-52.1	-56.7	3.7	0.00e+00	0	45	104	0	75	24892
2026-01-22 20:34:47.60	154.58	10.09	-51.9	-56.6	3.7	0.00e+00	0	46	104	0	75	24659
2026-01-22 20:34:49.59	154.86	9.91	-51.9	-56.6	3.7	0.00e+00	0	45	104	0	75	24529
2026-01-22 20:34:51.58	155.14	9.73	-51.9	-56.5	3.7	0.00e+00	0	45	104	0	74	25942
2026-01-22 20:34:53.58	155.41	9.55	-51.8	-56.4	3.7	0.00e+00	0	46	104	0	75	24048
2026-01-22 20:34:55.57	155.67	9.37	-52.3	-56.8	3.7	0.00e+00	0	45	104	0	75	25316
2026-01-22 20:34:57.57	155.94	9.20	-52.1	-56.6	3.7	0.00e+00	0	45	104	0	75	24759
2026-01-22 20:34:59.56	156.20	9.02	-52.4	-56.8	3.7	0.00e+00	0	46	104	0	75	25355
2026-01-22 20:35:01.55	156.45	8.85	-51.6	-56.5	3.7	0.00e+00	0	46	104	0	74	25813
2026-01-22 20:35:03.55	156.70	8.68	-52.4	-57.0	3.7	0.00e+00	0	45	104	0	76	24357
2026-01-22 20:35:05.55	156.95	8.51	-52.4	-57.3	3.7	0.00e+00	0	45	104	0	75	26690
2026-01-22 20:35:07.55	157.20	8.34	-53.2	-57.6	3.7	0.00e+00	0	46	104	0	77	24800
2026-01-22 20:35:09.54	157.44	8.17	-53.2	-57.7	3.7	0.00e+00	0	45	104	0	77	24991
2026-01-22 20:35:11.53	157.68	8.00	-53.6	-58.0	3.7	0.00e+00	0	45	104	0	77	25736
2026-01-22 20:35:13.53	157.91	7.83	-53.5	-57.9	3.7	0.00e+00	0	46	104	0	77	25604
2026-01-22 20:35:15.52	158.14	7.67	-52.8	-57.6	3.7	0.00e+00	0	46	104	0	77	24678
2026-01-22 20:35:17.51	158.37	7.50	-53.6	-58.0	3.7	0.00e+00	0	45	104	0	77	25683
2026-01-22 20:35:19.51	158.60	7.34	-53.1	-57.6	3.7	0.00e+00	0	46	104	0	76	26019
2026-01-22 20:35:21.50	158.82	7.18	-52.8	-57.2	3.7	0.00e+00	0	45	104	0	77	23578
2026-01-22 20:35:23.50	159.04	7.02	-52.6	-57.5	3.7	0.00e+00	0	45	104	0	76	25703
2026-01-22 20:35:25.49	159.25	6.86	-52.8	-57.3	3.7	0.00e+00	0	46	104	0	76	25204
2026-01-22 20:35:27.48	159.47	6.70	-52.8	-57.3	3.7	0.00e+00	0	45	104	0	76	25224
2026-01-22 20:35:29.48	159.68	6.54	-52.9	-57.3	3.7	0.00e+00	0	45	104	0	76	25200
2026-01-22 20:35:31.47	159.88	6.39	-52.8	-57.3	3.7	0.00e+00	0	45	104	0	76	25113
2026-01-22 20:35:33.47	160.09	6.23	-52.8	-57.3	3.7	0.00e+00	0	45	104	0	76	25209
2026-01-22 20:35:35.46	160.29	6.08	-52.8	-57.2	3.7	0.00e+00	0	45	104	0	76	25093
2026-01-22 20:35:37.46	160.49	5.92	-52.8	-57.3	3.7	0.00e+00	0	46	104	0	76	25155
2026-01-22 20:35:39.45	160.69	5.77	-52.8	-57.3	3.7	0.00e+00	0	45	104	0	76	25122
2026-01-22 20:35:41.44	160.88	5.62	-52.8	-57.3	3.7	0.00e+00	0	45	104	0	76	25098
2026-01-22 20:35:43.44	161.08	5.47	-52.8	-57.2	3.7	0.00e+00	0	45	104	0	76	25075
2026-01-22 20:35:45.42	161.27	5.32	-52.8	-57.2	3.7	0.00e+00	0	45	104	0	76	25083
2026-01-22 20:35:47.42	161.45	5.17	-52.8	-57.2	3.7	0.00e+00	0	45	104	0	76	25083
2026-01-22 20:35:49.42	161.64	5.02	-52.8	-57.2	3.7	0.00e+00	0	46	104	0	76	25058
2026-01-22 20:35:51.41	161.82	4.87	-52.8	-57.2	3.7	0.00e+00	0	46	104	0	76	25066

#Closed at: 2026-01-22 20:35:53
#Recorded file [0 MB]: D:/Data/31040_260122_232731.dat