passes_logs/2026/01/22/T1/T1__20260122_121849_SUOMI_NPP_rec.log

#Pass ID: 20260122_121849_SUOMI NPP
#Satellite: SUOMI NPP
#Configuration: NPP
#almurnet v.1.7.20251203
#Start time: 2026-01-22 12:18:50

#Version: 2.0.20230620
#Station: T1
#Location: 37.570604 lon 55.790049 lat
#TLE: 1 37849U 11061A   26021.51818991  .00000201  00000+0  11636-3 0  9995
#TLE: 2 37849  98.7819 323.5108 0002300  52.3548 307.7836 14.19527793737637

#Time	Az	El	Level	Level2	SNR	BER	BlckErr	Temp	State	Recorded	gain1	gain2
2026-01-22 12:18:50.48	241.85	5.04	-49.7	-65.1	3.8	1.49e+00	0	35	0	0	71	20612
2026-01-22 12:18:52.47	242.11	5.12	-49.7	-65.1	3.8	1.49e+00	0	35	104	0	71	20590
2026-01-22 12:18:54.46	242.36	5.20	-49.7	-65.1	3.8	1.49e+00	0	35	104	0	71	20644
2026-01-22 12:18:56.45	242.61	5.29	-49.7	-65.1	3.8	1.49e+00	0	35	104	0	71	20548
2026-01-22 12:18:58.45	242.87	5.37	-49.7	-65.0	3.8	1.49e+00	0	35	104	0	71	20495
2026-01-22 12:19:00.44	243.12	5.45	-49.6	-65.1	3.8	1.49e+00	0	35	104	0	71	20582
2026-01-22 12:19:02.43	243.38	5.53	-49.6	-65.1	3.8	1.49e+00	0	36	104	0	71	20600
2026-01-22 12:19:04.42	243.64	5.60	-49.6	-65.1	3.8	1.49e+00	0	36	104	0	71	20546
2026-01-22 12:19:06.41	243.90	5.68	-49.7	-65.0	3.8	1.49e+00	0	36	104	0	71	20445
2026-01-22 12:19:08.40	244.16	5.76	-49.7	-65.1	3.8	1.49e+00	0	36	104	0	71	20539
2026-01-22 12:19:10.39	244.42	5.84	-49.6	-65.0	3.8	1.49e+00	0	36	104	0	71	20517
2026-01-22 12:19:12.39	244.69	5.92	-49.7	-65.1	3.8	1.49e+00	0	36	104	0	71	20546
2026-01-22 12:19:14.38	244.96	6.00	-49.7	-65.0	3.8	1.49e+00	0	36	104	0	71	20493
2026-01-22 12:19:16.38	245.22	6.08	-49.7	-65.1	3.8	1.49e+00	0	36	104	0	71	20566
2026-01-22 12:19:18.37	245.49	6.15	-49.6	-65.0	3.8	1.49e+00	0	36	104	0	71	20524
2026-01-22 12:19:20.36	245.76	6.23	-49.7	-65.0	3.8	1.49e+00	0	36	104	0	71	20518
2026-01-22 12:19:22.35	246.03	6.31	-49.7	-65.0	3.8	1.49e+00	0	36	104	0	71	20503
2026-01-22 12:19:24.35	246.31	6.39	-49.6	-65.0	3.8	1.49e+00	0	36	104	0	71	20533
2026-01-22 12:19:26.34	246.58	6.46	-49.6	-65.0	3.8	1.49e+00	0	36	104	0	71	20502
2026-01-22 12:19:28.34	246.86	6.54	-49.7	-65.1	3.8	1.49e+00	0	36	104	0	71	20546
2026-01-22 12:19:30.33	247.13	6.61	-49.7	-65.1	3.8	1.49e+00	0	36	104	0	71	20552
2026-01-22 12:19:32.32	247.41	6.69	-49.6	-65.0	3.8	1.49e+00	0	36	104	0	71	20492
2026-01-22 12:19:34.31	247.69	6.76	-49.6	-65.0	3.8	1.49e+00	0	37	104	0	71	20493
2026-01-22 12:19:36.31	247.97	6.84	-49.7	-65.0	3.8	1.49e+00	0	36	104	0	71	20524
2026-01-22 12:19:38.31	248.26	6.91	-49.7	-65.1	3.8	1.49e+00	0	37	104	0	71	20557
2026-01-22 12:19:40.30	248.54	6.99	-49.7	-65.1	3.8	1.49e+00	0	37	104	0	71	20562
2026-01-22 12:19:42.29	248.83	7.06	-49.7	-65.0	3.8	1.49e+00	0	37	104	0	71	20503
2026-01-22 12:19:44.29	249.11	7.13	-49.6	-65.0	3.8	1.49e+00	0	37	104	0	71	20506
2026-01-22 12:19:46.28	249.40	7.21	-49.6	-65.0	3.8	1.49e+00	0	37	104	0	71	20424
2026-01-22 12:19:48.27	249.69	7.28	-49.6	-65.0	3.8	1.49e+00	0	37	104	0	71	20403
2026-01-22 12:19:50.27	249.98	7.35	-49.6	-65.0	3.8	1.49e+00	0	37	104	0	71	20387
2026-01-22 12:19:52.26	250.28	7.42	-49.6	-65.0	3.8	1.49e+00	0	37	104	0	71	20304
2026-01-22 12:19:54.25	250.57	7.49	-49.6	-65.0	3.8	1.49e+00	0	37	104	0	71	20315
2026-01-22 12:19:56.25	250.87	7.56	-49.6	-64.9	3.8	1.49e+00	0	37	104	0	71	20289
2026-01-22 12:19:58.24	251.16	7.63	-49.6	-65.0	3.8	1.49e+00	0	37	104	0	71	20397
2026-01-22 12:20:00.23	251.46	7.70	-49.6	-65.0	3.8	1.49e+00	0	37	104	0	71	20379
2026-01-22 12:20:02.22	251.76	7.77	-49.7	-65.0	3.8	1.49e+00	0	37	104	0	71	20318
2026-01-22 12:20:04.22	252.06	7.84	-49.6	-64.9	3.8	1.49e+00	0	37	104	0	71	20148
2026-01-22 12:20:06.21	252.36	7.91	-49.7	-65.0	3.8	1.49e+00	0	37	104	0	71	20406
2026-01-22 12:20:08.20	252.66	7.98	-49.7	-65.0	3.8	1.49e+00	0	37	104	0	71	20439
2026-01-22 12:20:10.19	252.97	8.04	-49.6	-65.0	3.8	1.49e+00	0	37	104	0	71	20373
2026-01-22 12:20:12.19	253.28	8.11	-49.6	-65.0	3.8	1.49e+00	0	37	104	0	71	20421
2026-01-22 12:20:14.18	253.58	8.18	-49.7	-65.1	3.8	1.49e+00	0	37	104	0	71	20559
2026-01-22 12:20:16.18	253.89	8.24	-49.7	-65.0	3.8	1.49e+00	0	37	104	0	71	20522
2026-01-22 12:20:18.17	254.20	8.31	-49.6	-65.0	3.8	1.49e+00	0	37	104	0	71	20331
2026-01-22 12:20:20.16	254.51	8.37	-49.6	-65.0	3.8	1.49e+00	0	37	104	0	71	20422
2026-01-22 12:20:22.15	254.83	8.44	-49.7	-65.0	3.8	1.49e+00	0	37	104	0	71	20487
2026-01-22 12:20:24.14	255.14	8.50	-49.7	-65.1	3.8	1.49e+00	0	37	104	0	71	20559
2026-01-22 12:20:26.13	255.45	8.56	-49.6	-64.2	3.8	1.49e+00	0	37	104	0	71	18717
2026-01-22 12:20:28.12	255.77	8.63	-49.5	-63.5	3.8	1.49e+00	0	37	104	0	71	17090
2026-01-22 12:20:30.11	256.09	8.69	-49.7	-64.9	3.8	1.49e+00	0	37	104	0	71	20183
2026-01-22 12:20:32.10	256.41	8.75	-49.0	-58.1	5.8	9.32e-01	0	37	0	1048576	70	9806
2026-01-22 12:20:34.09	256.73	8.81	-47.0	-51.9	11.7	1.48e-03	0	37	0	4194304	66	6037
2026-01-22 12:20:36.08	257.05	8.87	-45.9	-49.8	13.9	9.10e-06	0	37	0	8388608	63	5603
2026-01-22 12:20:38.07	257.37	8.93	-46.3	-50.4	13.3	8.30e-06	0	37	0	11534336	63	6038
2026-01-22 12:20:40.06	257.70	8.98	-47.8	-53.7	9.9	1.76e-03	0	37	0	15728640	66	7411
2026-01-22 12:20:42.05	258.02	9.04	-46.0	-49.9	13.9	2.59e-04	0	37	0	18874368	63	5663
2026-01-22 12:20:44.05	258.35	9.10	-48.3	-55.0	8.8	4.91e-01	0	37	0	20971520	68	7662
2026-01-22 12:20:46.04	258.68	9.16	-49.3	-60.2	4.7	1.69e-01	0	37	0	25165824	69	13203
2026-01-22 12:20:48.04	259.01	9.21	-45.6	-49.0	14.7	2.20e-06	0	37	0	28311552	63	5159
2026-01-22 12:20:50.04	259.34	9.27	-44.9	-48.0	15.7	0.00e+00	0	38	0	32505856	61	5155
2026-01-22 12:20:52.03	259.67	9.32	-44.7	-47.9	15.9	0.00e+00	0	37	0	36700160	61	5053
2026-01-22 12:20:54.03	260.00	9.37	-44.6	-47.7	16.0	0.00e+00	0	37	0	39845888	60	5223
2026-01-22 12:20:56.03	260.34	9.43	-44.8	-48.0	15.7	0.00e+00	0	37	0	44040192	60	5462
2026-01-22 12:20:58.03	260.68	9.48	-45.0	-48.4	15.4	0.00e+00	0	37	0	47185920	60	5673
2026-01-22 12:21:00.03	261.01	9.53	-45.3	-48.7	15.0	0.00e+00	0	38	0	51380224	61	5556
2026-01-22 12:21:02.03	261.35	9.58	-45.4	-48.8	15.0	7.00e-07	0	37	0	54525952	61	5629
2026-01-22 12:21:04.02	261.69	9.63	-45.2	-48.5	15.3	0.00e+00	0	37	0	58720256	61	5422
2026-01-22 12:21:06.01	262.03	9.68	-45.3	-48.7	15.1	0.00e+00	0	37	0	62914560	61	5531
2026-01-22 12:21:08.01	262.37	9.73	-45.3	-48.6	15.1	0.00e+00	0	37	0	66060288	61	5490
2026-01-22 12:21:10.02	262.72	9.78	-45.0	-48.2	15.5	0.00e+00	0	37	0	70254592	61	5266
2026-01-22 12:21:12.02	263.06	9.82	-44.8	-48.0	15.7	0.00e+00	0	38	0	73400320	61	5121
2026-01-22 12:21:14.02	263.41	9.87	-44.7	-47.9	15.8	0.00e+00	0	37	0	77594624	61	5090
2026-01-22 12:21:16.02	263.75	9.91	-44.6	-47.8	15.9	0.00e+00	0	37	0	80740352	61	5010
2026-01-22 12:21:18.02	264.10	9.96	-45.1	-48.4	15.3	0.00e+00	0	37	0	84934656	61	5382
2026-01-22 12:21:20.02	264.45	10.00	-45.5	-49.0	14.8	7.00e-07	0	38	0	89128960	61	5736
2026-01-22 12:21:22.02	264.80	10.05	-45.8	-49.5	14.3	7.00e-07	0	38	0	92274688	62	5785
2026-01-22 12:21:24.02	265.15	10.09	-45.9	-49.6	14.2	7.00e-07	0	38	0	96468992	62	5813
2026-01-22 12:21:26.02	265.50	10.13	-45.4	-48.9	14.9	1.50e-06	0	38	0	99614720	62	5394
2026-01-22 12:21:28.02	265.85	10.17	-45.0	-48.4	15.4	0.00e+00	0	38	0	103809024	62	5046
2026-01-22 12:21:30.01	266.20	10.21	-44.9	-48.2	15.5	0.00e+00	0	37	0	106954752	61	5264
2026-01-22 12:21:32.01	266.56	10.24	-45.1	-48.4	15.4	0.00e+00	0	37	0	111149056	61	5351
2026-01-22 12:21:34.01	266.91	10.28	-45.1	-48.3	15.4	0.00e+00	0	38	0	115343360	61	5326
2026-01-22 12:21:36.01	267.27	10.32	-44.7	-47.8	16.0	0.00e+00	0	37	0	118489088	61	5000
2026-01-22 12:21:38.02	267.62	10.35	-44.5	-47.5	16.3	0.00e+00	0	37	0	122683392	60	5120
2026-01-22 12:21:40.01	267.98	10.39	-44.6	-47.7	16.0	0.00e+00	0	38	0	125829120	60	5254
2026-01-22 12:21:42.01	268.34	10.42	-45.0	-48.3	15.5	0.00e+00	0	37	0	130023424	60	5635
2026-01-22 12:21:44.01	268.70	10.45	-45.3	-48.7	15.1	7.00e-07	0	37	0	133169152	61	5549
2026-01-22 12:21:46.01	269.06	10.49	-45.1	-48.3	15.5	0.00e+00	0	38	0	137363456	61	5290
2026-01-22 12:21:48.01	269.42	10.52	-44.7	-47.8	16.0	0.00e+00	0	38	0	141557760	61	4985
2026-01-22 12:21:50.01	269.78	10.55	-44.9	-48.0	15.8	0.00e+00	0	37	0	144703488	61	5127
2026-01-22 12:21:52.01	270.14	10.57	-45.5	-48.9	14.8	0.00e+00	0	37	0	148897792	61	5711
2026-01-22 12:21:54.00	270.50	10.60	-45.6	-49.1	14.7	7.00e-07	0	38	0	152043520	62	5489
2026-01-22 12:21:56.00	270.86	10.63	-45.1	-48.5	15.3	0.00e+00	0	37	0	156237824	62	5101
2026-01-22 12:21:57.99	271.23	10.65	-44.6	-47.7	16.0	0.00e+00	0	38	0	160432128	61	4956
2026-01-22 12:22:00.00	271.59	10.68	-44.6	-47.8	16.0	0.00e+00	0	38	0	163577856	60	5323
2026-01-22 12:22:01.99	271.95	10.70	-45.0	-48.3	15.5	0.00e+00	0	38	0	167772160	60	5613
2026-01-22 12:22:03.99	272.32	10.73	-45.2	-48.5	15.3	0.00e+00	0	38	0	170917888	61	5420
2026-01-22 12:22:05.99	272.69	10.75	-45.2	-48.6	15.2	0.00e+00	0	38	0	175112192	61	5509
2026-01-22 12:22:07.99	273.05	10.77	-45.3	-48.6	15.2	0.00e+00	0	37	0	178257920	61	5528
2026-01-22 12:22:09.99	273.42	10.79	-45.9	-49.7	14.2	7.00e-07	0	38	0	182452224	62	5865
2026-01-22 12:22:11.98	273.78	10.81	-46.6	-50.7	13.1	9.10e-06	0	38	0	185597952	63	6255
2026-01-22 12:22:13.98	274.15	10.82	-46.6	-50.8	13.0	4.34e-05	0	38	0	189792256	64	5938
2026-01-22 12:22:15.98	274.52	10.84	-46.3	-50.2	13.5	1.29e-05	0	38	0	193986560	64	5584
2026-01-22 12:22:17.97	274.89	10.86	-46.0	-49.7	14.1	1.50e-06	0	38	0	197132288	63	5583
2026-01-22 12:22:19.97	275.26	10.87	-45.8	-49.5	14.3	7.00e-07	0	38	0	201326592	63	5462
2026-01-22 12:22:21.97	275.63	10.88	-45.8	-49.5	14.4	0.00e+00	0	38	0	204472320	63	5407
2026-01-22 12:22:23.97	275.99	10.90	-45.8	-49.5	14.3	0.00e+00	0	38	0	208666624	63	5441
2026-01-22 12:22:25.97	276.36	10.91	-45.5	-49.0	14.8	7.00e-07	0	38	0	211812352	63	5154
2026-01-22 12:22:27.97	276.73	10.92	-45.4	-48.8	15.0	0.00e+00	0	38	0	216006656	62	5335
2026-01-22 12:22:29.96	277.10	10.93	-45.5	-49.0	14.9	0.00e+00	0	38	0	220200960	62	5414
2026-01-22 12:22:31.96	277.47	10.94	-45.4	-48.9	15.0	0.00e+00	0	38	0	223346688	62	5345
2026-01-22 12:22:33.95	277.84	10.94	-45.3	-48.7	15.1	0.00e+00	0	38	0	227540992	62	5267
2026-01-22 12:22:35.95	278.21	10.95	-45.1	-48.3	15.5	0.00e+00	0	38	0	230686720	62	4986
2026-01-22 12:22:37.95	278.58	10.95	-44.8	-47.8	15.9	0.00e+00	0	38	0	234881024	61	5037
2026-01-22 12:22:39.95	278.95	10.96	-44.8	-47.9	15.8	0.00e+00	0	38	0	239075328	61	5094
2026-01-22 12:22:41.94	279.32	10.96	-45.0	-48.2	15.6	0.00e+00	0	38	0	242221056	61	5234
2026-01-22 12:22:43.95	279.70	10.96	-45.0	-48.2	15.6	0.00e+00	0	38	0	246415360	61	5223
2026-01-22 12:22:45.95	280.07	10.96	-44.8	-47.9	15.9	0.00e+00	0	38	0	249561088	61	5073
2026-01-22 12:22:47.94	280.44	10.96	-44.7	-47.8	16.0	0.00e+00	0	38	0	253755392	61	4984
2026-01-22 12:22:49.93	280.81	10.96	-44.8	-47.8	15.9	0.00e+00	0	38	0	256901120	61	5033
2026-01-22 12:22:51.93	281.18	10.96	-44.9	-48.0	15.8	0.00e+00	0	38	0	261095424	61	5122
2026-01-22 12:22:53.92	281.55	10.96	-44.8	-47.9	15.8	0.00e+00	0	38	0	264241152	61	5085
2026-01-22 12:22:55.92	281.92	10.95	-44.5	-47.4	16.3	0.00e+00	0	38	0	268435456	60	5093
2026-01-22 12:22:57.92	282.29	10.95	-44.2	-47.1	16.7	0.00e+00	0	38	0	272629760	60	4894
2026-01-22 12:22:59.91	282.66	10.94	-44.4	-47.2	16.6	0.00e+00	0	38	0	275775488	60	4966
2026-01-22 12:23:01.91	283.03	10.93	-44.4	-47.3	16.5	0.00e+00	0	38	0	279969792	60	5028
2026-01-22 12:23:03.91	283.40	10.92	-44.3	-47.2	16.5	0.00e+00	0	38	0	283115520	60	4978
2026-01-22 12:23:05.91	283.77	10.91	-44.2	-47.0	16.7	0.00e+00	0	38	0	287309824	60	4870
2026-01-22 12:23:07.91	284.14	10.90	-44.2	-47.0	16.7	0.00e+00	0	38	0	291504128	60	4865
2026-01-22 12:23:09.90	284.50	10.89	-44.6	-47.6	16.1	0.00e+00	0	38	0	294649856	60	5212
2026-01-22 12:23:11.91	284.87	10.88	-44.7	-47.7	16.1	0.00e+00	0	38	0	298844160	60	5272
2026-01-22 12:23:13.90	285.24	10.86	-44.7	-47.8	16.0	0.00e+00	0	38	0	301989888	60	5280
2026-01-22 12:23:15.90	285.61	10.85	-44.6	-47.6	16.1	0.00e+00	0	38	0	306184192	60	5197
2026-01-22 12:23:17.90	285.98	10.83	-44.4	-47.3	16.4	0.00e+00	0	38	0	309329920	60	5041
2026-01-22 12:23:19.90	286.34	10.82	-44.4	-47.4	16.4	0.00e+00	0	38	0	313524224	60	5046
2026-01-22 12:23:21.90	286.71	10.80	-44.5	-47.5	16.3	0.00e+00	0	38	0	317718528	60	5117
2026-01-22 12:23:23.90	287.08	10.78	-44.5	-47.5	16.3	0.00e+00	0	38	0	320864256	60	5101
2026-01-22 12:23:25.89	287.44	10.76	-44.3	-47.1	16.6	0.00e+00	0	38	0	325058560	60	4899
2026-01-22 12:23:27.89	287.81	10.74	-44.1	-46.9	16.8	0.00e+00	0	38	0	328204288	60	4803
2026-01-22 12:23:29.89	288.17	10.71	-44.2	-47.1	16.7	0.00e+00	0	38	0	332398592	60	4876
2026-01-22 12:23:31.89	288.54	10.69	-44.3	-47.1	16.6	0.00e+00	0	38	0	335544320	60	4916
2026-01-22 12:23:33.89	288.90	10.67	-44.2	-47.1	16.6	0.00e+00	0	38	0	339738624	60	4872
2026-01-22 12:23:35.89	289.26	10.64	-44.1	-47.0	16.7	0.00e+00	0	38	0	343932928	60	4835
2026-01-22 12:23:37.89	289.63	10.62	-43.7	-46.4	17.2	0.00e+00	0	38	0	347078656	59	4789
2026-01-22 12:23:39.88	289.99	10.59	-43.7	-46.4	17.3	0.00e+00	0	38	0	351272960	59	4769
2026-01-22 12:23:41.88	290.35	10.56	-43.8	-46.5	17.1	0.00e+00	0	38	0	354418688	59	4859
2026-01-22 12:23:43.88	290.71	10.53	-44.0	-46.8	16.9	0.00e+00	0	38	0	358612992	59	4995
2026-01-22 12:23:45.88	291.07	10.50	-44.1	-46.9	16.7	0.00e+00	0	38	0	361758720	59	5094
2026-01-22 12:23:47.88	291.43	10.47	-44.0	-46.8	16.9	0.00e+00	0	38	0	365953024	59	4989
2026-01-22 12:23:49.88	291.79	10.44	-44.1	-46.8	16.8	0.00e+00	0	38	0	370147328	59	5030
2026-01-22 12:23:51.88	292.14	10.41	-44.1	-46.8	16.8	0.00e+00	0	38	0	373293056	59	5040
2026-01-22 12:23:53.88	292.50	10.37	-44.2	-47.0	16.6	0.00e+00	0	38	0	377487360	59	5132
2026-01-22 12:23:55.88	292.86	10.34	-44.2	-47.0	16.6	0.00e+00	0	38	0	380633088	59	5151
2026-01-22 12:23:57.88	293.21	10.30	-44.4	-47.3	16.4	0.00e+00	0	38	0	384827392	59	5286
2026-01-22 12:23:59.87	293.56	10.26	-44.3	-47.2	16.5	0.00e+00	0	38	0	387973120	59	5231
2026-01-22 12:24:01.87	293.92	10.23	-44.4	-47.3	16.4	0.00e+00	0	38	0	392167424	59	5302
2026-01-22 12:24:03.87	294.27	10.19	-44.5	-47.5	16.2	0.00e+00	0	38	0	396361728	59	5426
2026-01-22 12:24:05.87	294.62	10.15	-44.7	-47.8	15.9	0.00e+00	0	38	0	399507456	60	5307
2026-01-22 12:24:07.87	294.97	10.11	-45.0	-48.3	15.4	0.00e+00	0	38	0	403701760	60	5618
2026-01-22 12:24:09.87	295.32	10.07	-45.0	-48.3	15.4	0.00e+00	0	38	0	406847488	61	5332
2026-01-22 12:24:11.87	295.67	10.03	-45.0	-48.2	15.5	0.00e+00	0	38	0	411041792	61	5257
2026-01-22 12:24:13.87	296.02	9.98	-44.8	-47.9	15.8	0.00e+00	0	38	0	414187520	61	5055
2026-01-22 12:24:15.88	296.36	9.94	-44.4	-47.3	16.4	0.00e+00	0	38	0	418381824	60	5003
2026-01-22 12:24:17.88	296.71	9.90	-44.2	-47.1	16.5	0.00e+00	0	38	0	422576128	60	4917
2026-01-22 12:24:19.88	297.05	9.85	-44.0	-46.8	16.8	0.00e+00	0	38	0	425721856	59	5007
2026-01-22 12:24:21.88	297.40	9.80	-43.7	-46.4	17.2	0.00e+00	0	38	0	429916160	59	4775
2026-01-22 12:24:23.88	297.74	9.76	-43.5	-46.1	17.4	0.00e+00	0	38	0	433061888	59	4643
2026-01-22 12:24:25.88	298.08	9.71	-43.6	-46.3	17.3	0.00e+00	0	38	0	437256192	59	4708
2026-01-22 12:24:27.88	298.42	9.66	-43.8	-46.5	17.0	0.00e+00	0	38	0	441450496	59	4869
2026-01-22 12:24:29.89	298.76	9.61	-44.2	-47.0	16.5	0.00e+00	0	38	0	444596224	59	5135
2026-01-22 12:24:31.89	299.10	9.56	-44.3	-47.2	16.4	0.00e+00	0	38	0	448790528	59	5249
2026-01-22 12:24:33.89	299.44	9.51	-44.3	-47.2	16.4	0.00e+00	0	38	0	451936256	59	5228
2026-01-22 12:24:35.89	299.77	9.46	-44.3	-47.2	16.3	0.00e+00	0	38	0	456130560	59	5279
2026-01-22 12:24:37.89	300.11	9.41	-44.3	-47.2	16.4	0.00e+00	0	38	0	459276288	59	5246
2026-01-22 12:24:39.89	300.44	9.35	-44.4	-47.3	16.3	0.00e+00	0	37	0	463470592	59	5305
2026-01-22 12:24:41.89	300.77	9.30	-44.5	-47.4	16.2	0.00e+00	0	38	0	467664896	59	5378
2026-01-22 12:24:43.89	301.10	9.25	-44.6	-47.6	16.0	0.00e+00	0	38	0	470810624	59	5499
2026-01-22 12:24:45.90	301.43	9.19	-44.5	-47.4	16.2	0.00e+00	0	38	0	475004928	60	5090
2026-01-22 12:24:47.90	301.76	9.13	-44.3	-47.1	16.5	0.00e+00	0	38	0	478150656	60	4923
2026-01-22 12:24:49.90	302.09	9.08	-44.0	-46.8	16.8	0.00e+00	0	38	0	482344960	59	4993
2026-01-22 12:24:51.90	302.41	9.02	-43.9	-46.7	16.9	0.00e+00	0	38	0	485490688	59	4947
2026-01-22 12:24:53.90	302.74	8.96	-50.0	-65.2	3.8	1.49e+00	0	38	104	487587840	70	22246
2026-01-22 12:24:55.90	303.06	8.90	-50.3	-65.5	3.8	1.49e+00	0	38	104	487587840	71	21664
2026-01-22 12:24:57.89	303.38	8.85	-50.4	-65.7	3.8	1.49e+00	0	38	104	487587840	71	22068
2026-01-22 12:24:59.88	303.70	8.79	-50.4	-65.7	3.8	1.49e+00	0	38	104	487587840	71	22143
2026-01-22 12:25:01.88	304.02	8.73	-50.6	-65.7	3.8	1.49e+00	0	38	104	487587840	71	22245
2026-01-22 12:25:03.87	304.34	8.67	-50.4	-65.8	3.8	1.49e+00	0	38	104	487587840	71	22286
2026-01-22 12:25:05.86	304.65	8.60	-50.4	-65.8	3.8	1.49e+00	0	38	104	487587840	71	22295
2026-01-22 12:25:07.86	304.97	8.54	-50.4	-65.7	3.8	1.49e+00	0	38	104	487587840	71	22184
2026-01-22 12:25:09.85	305.28	8.48	-50.3	-65.7	3.8	1.49e+00	0	38	104	487587840	71	22240
2026-01-22 12:25:11.84	305.59	8.42	-50.3	-65.7	3.8	1.49e+00	0	38	104	487587840	71	22116
2026-01-22 12:25:13.83	305.90	8.35	-50.3	-65.6	3.8	1.49e+00	0	38	104	487587840	71	21984
2026-01-22 12:25:15.83	306.21	8.29	-50.3	-65.6	3.8	1.49e+00	0	38	104	487587840	71	21986
2026-01-22 12:25:17.82	306.52	8.22	-50.3	-65.6	3.8	1.49e+00	0	38	104	487587840	71	21931
2026-01-22 12:25:19.82	306.83	8.16	-50.2	-65.6	3.8	1.49e+00	0	38	104	487587840	71	21885
2026-01-22 12:25:21.81	307.13	8.09	-50.2	-65.6	3.8	1.49e+00	0	38	104	487587840	71	21810
2026-01-22 12:25:23.81	307.44	8.03	-50.2	-65.6	3.8	1.49e+00	0	38	104	487587840	71	21878
2026-01-22 12:25:25.80	307.74	7.96	-50.2	-65.6	3.8	1.49e+00	0	38	104	487587840	71	21788
2026-01-22 12:25:27.79	308.04	7.89	-50.2	-65.6	3.8	1.49e+00	0	38	104	487587840	71	21874
2026-01-22 12:25:29.78	308.34	7.82	-50.2	-65.6	3.8	1.49e+00	0	38	104	487587840	71	21872
2026-01-22 12:25:31.77	308.64	7.76	-50.2	-65.6	3.8	1.49e+00	0	38	104	487587840	71	21913
2026-01-22 12:25:33.77	308.94	7.69	-50.2	-65.6	3.8	1.49e+00	0	38	104	487587840	71	21853
2026-01-22 12:25:35.76	309.23	7.62	-50.2	-65.6	3.8	1.49e+00	0	38	104	487587840	71	21848
2026-01-22 12:25:37.75	309.53	7.55	-50.2	-65.6	3.8	1.49e+00	0	38	104	487587840	71	21815
2026-01-22 12:25:39.74	309.82	7.48	-50.2	-65.6	3.8	1.49e+00	0	38	104	487587840	71	21851
2026-01-22 12:25:41.74	310.11	7.41	-50.2	-65.6	3.8	1.49e+00	0	38	104	487587840	71	21838
2026-01-22 12:25:43.73	310.40	7.34	-50.2	-65.5	3.8	1.49e+00	0	38	104	487587840	71	21744
2026-01-22 12:25:45.72	310.69	7.27	-50.2	-65.6	3.8	1.49e+00	0	38	104	487587840	71	21878
2026-01-22 12:25:47.72	310.98	7.19	-50.2	-65.6	3.8	1.49e+00	0	38	104	487587840	71	21844
2026-01-22 12:25:49.71	311.26	7.12	-50.2	-65.6	3.8	1.49e+00	0	38	104	487587840	71	21858
2026-01-22 12:25:51.70	311.55	7.05	-50.2	-65.6	3.8	1.49e+00	0	38	104	487587840	71	21824
2026-01-22 12:25:53.69	311.83	6.98	-50.2	-65.6	3.8	1.49e+00	0	38	104	487587840	71	21851
2026-01-22 12:25:55.68	312.11	6.90	-50.2	-65.6	3.8	1.49e+00	0	38	104	487587840	71	21877
2026-01-22 12:25:57.67	312.39	6.83	-50.2	-65.6	3.8	1.49e+00	0	38	104	487587840	71	21812
2026-01-22 12:25:59.66	312.67	6.76	-50.2	-65.6	3.8	1.49e+00	0	38	104	487587840	71	21792
2026-01-22 12:26:01.65	312.95	6.68	-50.2	-65.6	3.8	1.49e+00	0	38	104	487587840	71	21861
2026-01-22 12:26:03.65	313.23	6.61	-50.2	-65.6	3.8	1.49e+00	0	38	104	487587840	71	21779
2026-01-22 12:26:05.64	313.50	6.53	-50.2	-65.6	3.8	1.49e+00	0	38	104	487587840	71	21889
2026-01-22 12:26:07.63	313.78	6.46	-50.2	-65.6	3.8	1.49e+00	0	38	104	487587840	71	21834
2026-01-22 12:26:09.62	314.05	6.38	-50.2	-65.6	3.8	1.49e+00	0	38	104	487587840	71	21814
2026-01-22 12:26:11.61	314.32	6.31	-50.2	-65.6	3.8	1.49e+00	0	38	104	487587840	71	21826
2026-01-22 12:26:13.60	314.59	6.23	-50.2	-65.6	3.8	1.49e+00	0	38	104	487587840	71	21777
2026-01-22 12:26:15.60	314.86	6.15	-50.2	-65.6	3.8	1.49e+00	0	38	104	487587840	71	21795
2026-01-22 12:26:17.59	315.12	6.08	-50.2	-65.5	3.8	1.49e+00	0	38	104	487587840	71	21731
2026-01-22 12:26:19.59	315.39	6.00	-50.2	-65.6	3.8	1.49e+00	0	38	104	487587840	71	21784
2026-01-22 12:26:21.58	315.65	5.92	-50.2	-65.5	3.8	1.49e+00	0	38	104	487587840	71	21718
2026-01-22 12:26:23.57	315.92	5.84	-50.2	-65.5	3.8	1.49e+00	0	38	104	487587840	71	21744
2026-01-22 12:26:25.57	316.18	5.77	-50.2	-65.6	3.8	1.49e+00	0	38	104	487587840	71	21776
2026-01-22 12:26:27.56	316.44	5.69	-50.2	-65.6	3.8	1.49e+00	0	38	104	487587840	71	21786
2026-01-22 12:26:29.55	316.70	5.61	-50.2	-65.6	3.8	1.49e+00	0	38	104	487587840	71	21809
2026-01-22 12:26:31.54	316.95	5.53	-50.2	-65.5	3.8	1.49e+00	0	38	104	487587840	71	21730
2026-01-22 12:26:33.53	317.21	5.45	-50.2	-65.6	3.8	1.49e+00	0	38	104	487587840	71	21769
2026-01-22 12:26:35.53	317.46	5.37	-50.2	-65.5	3.8	1.49e+00	0	38	104	487587840	71	21686
2026-01-22 12:26:37.52	317.72	5.29	-50.2	-65.6	3.8	1.49e+00	0	38	104	487587840	71	21797
2026-01-22 12:26:39.51	317.97	5.21	-50.2	-65.6	3.8	1.49e+00	0	38	104	487587840	71	21849
2026-01-22 12:26:41.50	318.22	5.13	-50.2	-65.6	3.8	1.49e+00	0	38	104	487587840	71	21779
2026-01-22 12:26:43.49	318.47	5.05	-50.2	-65.5	3.8	1.49e+00	0	38	104	487587840	71	21713
2026-01-22 12:26:45.48	318.72	4.97	-50.2	-65.5	3.8	1.49e+00	0	38	104	487587840	71	21748

#Closed at: 2026-01-22 12:26:46
#Recorded file [487 MB]: D:/Data/31040_260122_151850.dat