passes_logs/2026/01/22/T1/T1__20260122_082612_NOAA_21_JPSS-2_rec.log

#Pass ID: 20260122_082612_NOAA 21 (JPSS-2)
#Satellite: NOAA 21 (JPSS-2)
#Configuration: NOAA 21
#almurnet v.1.7.20251203
#Start time: 2026-01-22 08:26:13

#Version: 2.0.20230620
#Station: T1
#Location: 37.570604 lon 55.790049 lat
#TLE: 1 54234U 22150A   26021.42686626  .00000211  00000+0  12107-3 0  9996
#TLE: 2 54234  98.7506 322.2490 0000636 241.9299 118.1812 14.19537149165725

#Time	Az	El	Level	Level2	SNR	BER	BlckErr	Temp	State	Recorded	gain1	gain2
2026-01-22 08:26:13.34	113.03	5.07	-49.6	-62.8	3.8	1.49e+00	0	35	0	0	71	15788
2026-01-22 08:26:16.31	112.81	5.25	-49.6	-62.8	3.8	1.49e+00	0	35	104	0	71	15810
2026-01-22 08:26:19.30	112.58	5.44	-49.6	-62.8	3.8	1.49e+00	0	35	104	0	71	15810
2026-01-22 08:26:22.28	112.35	5.63	-49.7	-62.7	3.8	1.49e+00	0	36	104	0	71	15639
2026-01-22 08:26:25.26	112.11	5.82	-49.7	-62.6	3.8	1.49e+00	0	36	104	0	71	15562
2026-01-22 08:26:28.24	111.87	6.01	-49.7	-62.6	3.8	1.49e+00	0	36	104	0	71	15470
2026-01-22 08:26:31.22	111.63	6.20	-49.6	-62.6	3.8	1.49e+00	0	36	104	0	71	15568
2026-01-22 08:26:34.19	111.39	6.39	-49.6	-62.7	3.8	1.49e+00	0	36	104	0	71	15638
2026-01-22 08:26:37.18	111.14	6.58	-49.6	-62.7	3.8	1.49e+00	0	36	104	0	71	15656
2026-01-22 08:26:40.16	110.89	6.78	-49.7	-62.4	3.8	1.49e+00	0	36	104	0	71	15209
2026-01-22 08:26:43.13	110.63	6.97	-49.6	-62.2	3.8	1.49e+00	0	36	104	0	71	14874
2026-01-22 08:26:46.11	110.38	7.17	-49.6	-62.4	3.8	1.49e+00	0	36	104	0	71	15082
2026-01-22 08:26:49.09	110.11	7.36	-49.6	-62.4	3.8	1.49e+00	0	36	104	0	71	15141
2026-01-22 08:26:52.07	109.85	7.56	-49.6	-61.8	3.8	1.49e+00	0	37	104	0	71	14062
2026-01-22 08:26:55.05	109.58	7.76	-49.5	-61.3	3.8	1.49e+00	0	36	104	0	70	14054
2026-01-22 08:26:58.03	109.31	7.96	-49.5	-61.4	3.8	1.49e+00	0	37	104	0	70	14284
2026-01-22 08:27:01.01	109.03	8.16	-47.3	-52.2	9.1	3.52e-02	0	37	0	0	66	6232
2026-01-22 08:27:03.99	108.75	8.36	-44.0	-46.5	14.9	0.00e+00	0	37	0	0	59	4844
2026-01-22 08:27:06.97	108.46	8.56	-42.3	-44.4	17.0	0.00e+00	0	37	0	0	56	4513
2026-01-22 08:27:09.95	108.17	8.77	-43.1	-45.4	16.0	0.00e+00	0	37	0	0	56	5073
2026-01-22 08:27:12.93	107.88	8.97	-46.1	-49.7	11.7	1.34e-04	0	37	0	0	62	5914
2026-01-22 08:27:15.91	107.58	9.18	-43.4	-45.8	15.7	1.47e-04	0	37	0	0	58	4735
2026-01-22 08:27:18.90	107.28	9.38	-49.5	-60.9	3.8	1.05e+00	0	37	104	0	69	14213
2026-01-22 08:27:21.88	106.97	9.59	-49.2	-58.5	4.4	1.45e+00	0	37	104	0	69	10858
2026-01-22 08:27:24.95	106.65	9.80	-49.2	-60.0	3.9	1.46e+00	0	37	104	0	69	12844
2026-01-22 08:27:27.86	106.35	10.01	-48.0	-54.5	7.0	1.18e-02	0	37	0	0	66	8124
2026-01-22 08:27:31.14	105.99	10.24	-45.9	-49.4	12.2	2.25e-04	0	37	0	0	63	5360
2026-01-22 08:27:33.98	105.68	10.44	-45.0	-48.0	13.6	6.80e-06	0	37	0	0	61	5126
2026-01-22 08:27:37.22	105.32	10.67	-44.2	-46.7	14.9	0.00e+00	0	37	0	0	60	4698
2026-01-22 08:27:40.20	104.99	10.88	-43.4	-45.7	15.8	0.00e+00	0	37	0	0	58	4704
2026-01-22 08:27:43.19	104.65	11.10	-43.6	-45.9	15.7	0.00e+00	0	37	0	0	58	4798
2026-01-22 08:27:46.25	104.29	11.32	-42.3	-44.5	17.1	0.00e+00	0	37	0	0	56	4559
2026-01-22 08:27:49.96	103.86	11.59	-41.5	-43.4	18.0	0.00e+00	0	37	0	0	55	4269
2026-01-22 08:27:52.66	103.53	11.78	-41.1	-42.9	18.3	0.00e+00	0	37	0	0	54	4285
2026-01-22 08:27:55.93	103.14	12.02	-41.1	-43.0	18.3	0.00e+00	0	37	0	0	54	4296
2026-01-22 08:27:58.65	102.80	12.22	-40.9	-42.8	18.5	0.00e+00	0	37	0	0	53	4458
2026-01-22 08:28:02.13	102.36	12.47	-40.7	-42.6	18.8	0.00e+00	0	37	0	0	53	4349
2026-01-22 08:28:05.18	101.98	12.70	-40.6	-42.4	18.9	0.00e+00	0	37	0	0	53	4269
2026-01-22 08:28:08.02	101.61	12.91	-40.8	-42.7	18.6	0.00e+00	0	37	0	0	53	4399
2026-01-22 08:28:11.15	101.20	13.14	-40.8	-42.6	18.7	0.00e+00	0	37	0	0	53	4373
2026-01-22 08:28:14.13	100.80	13.36	-40.7	-42.5	18.8	0.00e+00	0	37	0	0	53	4328
2026-01-22 08:28:17.12	100.40	13.59	-40.7	-42.6	18.8	0.00e+00	0	37	0	0	53	4345
2026-01-22 08:28:20.11	99.98	13.81	-40.6	-42.4	18.9	0.00e+00	0	37	0	0	53	4258
2026-01-22 08:28:23.09	99.57	14.03	-40.7	-42.5	18.8	0.00e+00	0	37	0	0	53	4334
2026-01-22 08:28:26.22	99.12	14.27	-40.8	-42.7	18.7	0.00e+00	0	37	0	0	53	4393
2026-01-22 08:28:29.51	98.65	14.52	-41.0	-42.8	18.6	0.00e+00	0	37	0	0	53	4483
2026-01-22 08:28:32.21	98.25	14.72	-41.0	-42.8	18.6	0.00e+00	0	37	0	0	53	4480
2026-01-22 08:28:35.58	97.75	14.97	-41.0	-42.8	18.6	0.00e+00	0	37	0	0	53	4477
2026-01-22 08:28:38.34	97.34	15.18	-41.0	-42.9	18.5	0.00e+00	0	37	0	0	53	4520
2026-01-22 08:28:41.89	96.79	15.45	-41.0	-42.8	18.6	0.00e+00	0	37	0	0	53	4462
2026-01-22 08:28:44.73	96.35	15.67	-40.9	-42.7	18.7	0.00e+00	0	38	0	0	53	4421
2026-01-22 08:28:47.86	95.85	15.91	-41.0	-42.9	18.6	0.00e+00	0	37	0	0	53	4504
2026-01-22 08:28:50.70	95.40	16.12	-41.0	-42.8	18.6	0.00e+00	0	37	0	0	53	4466
2026-01-22 08:28:53.89	94.87	16.36	-40.8	-42.6	18.8	0.00e+00	0	37	0	0	53	4360
2026-01-22 08:28:56.83	94.39	16.59	-40.8	-42.6	18.9	0.00e+00	0	37	0	0	53	4355
2026-01-22 08:28:59.99	93.85	16.83	-40.7	-42.5	18.9	0.00e+00	0	37	0	0	53	4327
2026-01-22 08:29:02.94	93.35	17.05	-40.5	-42.3	19.1	0.00e+00	0	38	0	0	53	4205
2026-01-22 08:29:06.14	92.79	17.29	-40.5	-42.2	19.2	0.00e+00	0	37	0	0	52	4436
2026-01-22 08:29:08.98	92.29	17.51	-40.5	-42.3	19.1	0.00e+00	0	37	0	0	52	4456
2026-01-22 08:29:12.11	91.73	17.74	-40.6	-42.4	19.0	0.00e+00	0	37	0	0	52	4530
2026-01-22 08:29:14.95	91.21	17.96	-40.5	-42.3	19.2	0.00e+00	0	38	0	0	52	4445
2026-01-22 08:29:18.12	90.63	18.20	-40.3	-42.0	19.4	0.00e+00	0	37	0	0	52	4332
2026-01-22 08:29:20.96	90.09	18.41	-40.1	-41.8	19.6	0.00e+00	0	37	0	0	52	4238
2026-01-22 08:29:24.09	89.50	18.64	-40.3	-42.1	19.3	0.00e+00	0	37	0	0	52	4377
2026-01-22 08:29:27.03	88.93	18.86	-40.2	-41.9	19.5	0.00e+00	0	38	0	0	52	4287
2026-01-22 08:29:30.01	88.35	19.08	-40.4	-42.2	19.2	0.00e+00	0	37	0	0	52	4393
2026-01-22 08:29:32.99	87.75	19.30	-40.4	-42.3	19.1	0.00e+00	0	37	0	0	52	4443
2026-01-22 08:29:35.98	87.15	19.52	-40.3	-42.1	19.3	0.00e+00	0	37	0	0	52	4386
2026-01-22 08:29:38.97	86.54	19.73	-40.3	-42.2	19.3	0.00e+00	0	38	0	0	52	4400
2026-01-22 08:29:41.95	85.92	19.95	-40.5	-42.3	19.2	0.00e+00	0	37	0	0	52	4464
2026-01-22 08:29:44.94	85.29	20.16	-40.2	-42.0	19.5	0.00e+00	0	38	0	0	52	4302
2026-01-22 08:29:47.92	84.65	20.37	-40.2	-41.9	19.5	0.00e+00	0	38	0	0	52	4284
2026-01-22 08:29:50.84	84.02	20.58	-40.3	-42.0	19.4	0.00e+00	0	37	0	0	52	4338
2026-01-22 08:29:53.97	83.34	20.79	-40.1	-41.8	19.6	0.00e+00	0	38	0	0	52	4219
2026-01-22 08:29:56.81	82.70	20.99	-40.2	-42.0	19.5	0.00e+00	0	37	0	0	51	4553
2026-01-22 08:29:59.94	82.00	21.20	-40.3	-42.1	19.5	0.00e+00	0	37	0	0	51	4617
2026-01-22 08:30:02.83	81.34	21.39	-40.3	-42.1	19.5	0.00e+00	0	38	0	0	51	4599
2026-01-22 08:30:06.04	80.60	21.60	-40.3	-42.1	19.5	0.00e+00	0	37	0	0	51	4617
2026-01-22 08:30:08.93	79.92	21.79	-40.1	-41.8	19.7	0.00e+00	0	38	0	0	51	4492
2026-01-22 08:30:12.12	79.16	21.99	-40.0	-41.7	19.8	0.00e+00	0	37	0	0	51	4408
2026-01-22 08:30:14.96	78.48	22.17	-40.0	-41.7	19.8	0.00e+00	0	37	0	0	51	4399
2026-01-22 08:30:18.26	77.68	22.38	-39.9	-41.6	19.9	0.00e+00	0	37	0	0	51	4341
2026-01-22 08:30:21.20	76.96	22.55	-40.1	-41.8	19.5	0.00e+00	0	37	0	0	51	4489
2026-01-22 08:30:24.47	76.14	22.74	-40.2	-42.0	19.6	0.00e+00	0	37	0	0	51	4555
2026-01-22 08:30:27.17	75.46	22.90	-40.0	-41.7	19.8	0.00e+00	0	38	0	0	51	4414
2026-01-22 08:30:30.43	74.63	23.08	-40.0	-41.7	19.8	0.00e+00	0	37	0	0	51	4427
2026-01-22 08:30:33.16	73.93	23.23	-39.8	-41.5	20.0	0.00e+00	0	38	0	0	51	4319
2026-01-22 08:30:36.53	73.05	23.41	-39.9	-41.6	19.9	0.00e+00	0	37	0	0	51	4347
2026-01-22 08:30:39.29	72.33	23.55	-40.1	-41.8	19.7	0.00e+00	0	37	0	0	51	4467
2026-01-22 08:30:42.64	71.44	23.72	-40.1	-41.8	19.7	0.00e+00	0	38	0	0	51	4468
2026-01-22 08:30:45.69	70.62	23.86	-40.0	-41.8	19.7	0.00e+00	0	38	0	0	51	4447
2026-01-22 08:30:49.29	69.65	24.03	-40.0	-41.7	19.8	0.00e+00	0	38	0	0	51	4422
2026-01-22 08:30:52.13	68.87	24.15	-40.0	-41.7	19.8	0.00e+00	0	37	0	0	51	4407
2026-01-22 08:30:56.15	67.76	24.32	-40.0	-41.7	19.8	0.00e+00	0	38	0	0	51	4395
2026-01-22 08:30:58.99	66.97	24.43	-39.9	-41.6	19.8	0.00e+00	0	38	0	0	51	4362
2026-01-22 08:31:02.67	65.94	24.56	-40.1	-41.9	19.6	0.00e+00	0	38	0	0	51	4494
2026-01-22 08:31:05.51	65.14	24.66	-40.1	-41.8	19.8	0.00e+00	0	37	0	0	51	4455
2026-01-22 08:31:08.64	64.25	24.76	-39.9	-41.6	19.9	0.00e+00	0	37	0	0	51	4368
2026-01-22 08:31:11.48	63.44	24.85	-40.0	-41.8	19.8	0.00e+00	0	38	0	0	51	4446
2026-01-22 08:31:14.61	62.54	24.94	-39.8	-41.5	20.1	0.00e+00	0	37	0	0	51	4315
2026-01-22 08:31:17.45	61.72	25.01	-39.8	-41.5	20.0	0.00e+00	0	38	0	0	51	4328
2026-01-22 08:31:20.62	60.80	25.09	-39.5	-41.1	20.4	0.00e+00	0	38	0	0	50	4383
2026-01-22 08:31:23.47	59.97	25.15	-39.7	-41.4	20.2	0.00e+00	0	38	0	0	50	4496
2026-01-22 08:31:26.59	59.05	25.21	-39.9	-41.6	19.9	0.00e+00	0	38	0	0	50	4649
2026-01-22 08:31:29.59	58.17	25.25	-39.9	-41.6	19.9	0.00e+00	0	38	0	0	50	4618
2026-01-22 08:31:32.75	57.24	25.30	-40.0	-41.7	19.8	0.00e+00	0	38	0	0	50	4673
2026-01-22 08:31:35.60	56.40	25.33	-40.1	-41.8	19.9	0.00e+00	0	38	0	0	50	4714
2026-01-22 08:31:38.72	55.48	25.36	-40.0	-41.7	19.9	0.00e+00	0	38	0	0	50	4662
2026-01-22 08:31:41.57	54.63	25.38	-39.7	-41.4	20.1	0.00e+00	0	38	0	0	50	4531
2026-01-22 08:31:44.70	53.71	25.39	-39.7	-41.4	20.2	0.00e+00	0	38	0	0	50	4502
2026-01-22 08:31:47.67	52.83	25.39	-40.1	-41.8	19.8	0.00e+00	0	38	0	0	50	4719
2026-01-22 08:31:51.18	51.79	25.39	-40.1	-41.8	19.8	0.00e+00	0	38	0	0	51	4450
2026-01-22 08:31:53.88	50.99	25.38	-39.9	-41.6	19.9	0.00e+00	0	38	0	0	51	4367
2026-01-22 08:31:57.12	50.03	25.36	-39.8	-41.5	20.1	0.00e+00	0	38	0	0	51	4303
2026-01-22 08:32:00.25	49.10	25.33	-40.0	-41.7	20.0	0.00e+00	0	38	0	0	51	4400
2026-01-22 08:32:03.10	48.26	25.29	-39.9	-41.6	20.0	0.00e+00	0	38	0	0	51	4352
2026-01-22 08:32:06.22	47.34	25.25	-39.8	-41.5	20.1	0.00e+00	0	38	0	0	51	4298
2026-01-22 08:32:09.29	46.44	25.20	-40.1	-41.8	19.8	0.00e+00	0	38	0	0	51	4466
2026-01-22 08:32:12.55	45.49	25.14	-40.1	-41.8	19.8	0.00e+00	0	37	0	0	51	4482
2026-01-22 08:32:15.29	44.69	25.08	-40.0	-41.7	19.9	0.00e+00	0	38	0	0	51	4426
2026-01-22 08:32:18.56	43.75	25.00	-39.9	-41.6	20.0	0.00e+00	0	38	0	0	51	4346
2026-01-22 08:32:21.29	42.96	24.93	-40.0	-41.7	19.9	0.00e+00	0	38	0	0	51	4402
2026-01-22 08:32:24.64	42.00	24.83	-40.5	-42.2	19.4	0.00e+00	0	38	0	0	51	4693
2026-01-22 08:32:27.67	41.14	24.74	-40.5	-42.2	19.4	0.00e+00	0	38	0	0	51	4680
2026-01-22 08:32:30.98	40.20	24.63	-40.2	-42.0	19.7	0.00e+00	0	38	0	0	51	4550
2026-01-22 08:32:33.69	39.44	24.53	-40.0	-41.6	19.9	0.00e+00	0	38	0	0	51	4389
2026-01-22 08:32:36.97	38.52	24.41	-40.0	-41.7	19.8	0.00e+00	0	38	0	0	51	4408
2026-01-22 08:32:39.77	37.74	24.30	-40.0	-41.7	19.9	0.00e+00	0	38	0	0	51	4398
2026-01-22 08:32:43.15	36.81	24.16	-40.0	-41.7	19.8	0.00e+00	0	38	0	0	51	4426
2026-01-22 08:32:45.92	36.06	24.04	-40.1	-41.8	19.7	0.00e+00	0	38	0	0	51	4476
2026-01-22 08:32:49.19	35.18	23.89	-39.9	-41.6	19.8	0.00e+00	0	38	0	0	51	4380
2026-01-22 08:32:51.92	34.44	23.76	-40.3	-42.0	19.6	0.00e+00	0	38	0	0	51	4595
2026-01-22 08:32:55.18	33.58	23.61	-40.4	-42.1	19.5	0.00e+00	0	38	0	0	51	4628
2026-01-22 08:32:58.04	32.83	23.46	-40.2	-42.0	19.6	0.00e+00	0	38	0	0	51	4557
2026-01-22 08:33:01.11	32.03	23.30	-40.3	-42.1	19.5	0.00e+00	0	38	0	0	51	4601
2026-01-22 08:33:04.23	31.22	23.13	-40.0	-41.7	19.8	0.00e+00	0	38	0	0	51	4439
2026-01-22 08:33:07.41	30.42	22.96	-40.0	-41.7	19.8	0.00e+00	0	37	0	0	51	4436
2026-01-22 08:33:10.25	29.70	22.80	-39.8	-41.5	19.9	0.00e+00	0	38	0	0	51	4331
2026-01-22 08:33:13.48	28.90	22.61	-40.1	-41.8	19.7	0.00e+00	0	38	0	0	51	4454
2026-01-22 08:33:16.32	28.20	22.44	-40.2	-41.9	19.6	0.00e+00	0	38	0	0	51	4510
2026-01-22 08:33:19.61	27.40	22.24	-40.2	-41.9	19.7	0.00e+00	0	38	0	0	51	4524
2026-01-22 08:33:22.31	26.75	22.07	-40.2	-41.9	19.7	0.00e+00	0	38	0	0	51	4544
2026-01-22 08:33:25.58	25.97	21.86	-39.7	-41.4	20.0	0.00e+00	0	38	0	0	51	4286
2026-01-22 08:33:28.32	25.33	21.69	-39.6	-41.3	20.2	0.00e+00	0	38	0	0	51	4215
2026-01-22 08:33:31.88	24.51	21.46	-40.0	-41.8	19.8	0.00e+00	0	38	0	0	51	4455
2026-01-22 08:33:34.69	23.87	21.27	-39.8	-41.6	19.9	0.00e+00	0	38	0	0	51	4369
2026-01-22 08:33:37.82	23.16	21.06	-39.8	-41.5	20.0	0.00e+00	0	38	0	0	51	4333
2026-01-22 08:33:40.66	22.53	20.87	-39.7	-41.4	20.1	0.00e+00	0	38	0	0	51	4263
2026-01-22 08:33:43.79	21.84	20.65	-39.8	-41.5	19.9	0.00e+00	0	38	0	0	51	4328
2026-01-22 08:33:46.69	21.22	20.45	-39.6	-41.4	20.0	0.00e+00	0	38	0	0	51	4279
2026-01-22 08:33:50.23	20.46	20.20	-40.2	-42.0	19.6	0.00e+00	0	38	0	0	51	4555
2026-01-22 08:33:52.94	19.89	20.01	-40.3	-42.2	19.5	0.00e+00	0	38	0	0	51	4653
2026-01-22 08:33:56.20	19.22	19.77	-40.0	-41.8	19.8	0.00e+00	0	38	0	0	51	4455
2026-01-22 08:33:58.94	18.66	19.58	-40.1	-41.9	19.7	0.00e+00	0	38	0	0	51	4495
2026-01-22 08:34:02.26	17.99	19.34	-40.3	-42.1	19.4	0.00e+00	0	38	0	0	51	4640
2026-01-22 08:34:04.99	17.45	19.14	-40.2	-42.0	19.5	0.00e+00	0	38	0	0	51	4553
2026-01-22 08:34:08.48	16.77	18.88	-40.3	-42.0	19.5	0.00e+00	0	38	0	0	51	4596
2026-01-22 08:34:11.18	16.25	18.68	-40.6	-42.3	19.3	0.00e+00	0	38	0	0	51	4751
2026-01-22 08:34:14.47	15.63	18.44	-40.8	-42.6	19.0	0.00e+00	0	38	0	0	52	4602
2026-01-22 08:34:17.23	15.11	18.23	-40.8	-42.6	19.0	0.00e+00	0	38	0	0	52	4615
2026-01-22 08:34:20.50	14.51	17.99	-40.7	-42.5	19.0	0.00e+00	0	38	0	0	52	4596
2026-01-22 08:34:23.25	14.01	17.78	-40.8	-42.7	18.8	0.00e+00	0	38	0	0	52	4691
2026-01-22 08:34:26.74	13.39	17.52	-40.8	-42.8	18.7	0.00e+00	0	38	0	0	52	4732
2026-01-22 08:34:29.47	12.91	17.31	-40.6	-42.5	19.0	0.00e+00	0	38	0	0	52	4596
2026-01-22 08:34:32.74	12.35	17.07	-40.4	-42.4	19.2	0.00e+00	0	38	0	0	52	4501
2026-01-22 08:34:35.46	11.88	16.86	-40.3	-42.3	19.2	0.00e+00	0	38	0	0	52	4450
2026-01-22 08:34:38.72	11.34	16.61	-40.2	-42.1	19.3	0.00e+00	0	38	0	0	52	4388
2026-01-22 08:34:41.69	10.85	16.39	-40.4	-42.3	19.2	0.00e+00	0	38	0	0	52	4456
2026-01-22 08:34:45.43	10.24	16.11	-40.7	-42.6	18.9	0.00e+00	0	38	0	0	52	4622
2026-01-22 08:34:48.39	9.77	15.88	-40.8	-42.8	18.7	0.00e+00	0	38	0	0	52	4728
2026-01-22 08:34:52.37	9.15	15.58	-40.6	-42.4	19.0	0.00e+00	0	38	0	0	52	4538
2026-01-22 08:34:55.34	8.69	15.36	-40.5	-42.4	19.1	0.00e+00	0	38	0	0	52	4522
2026-01-22 08:34:58.76	8.17	15.10	-41.0	-43.0	18.6	0.00e+00	0	38	0	0	52	4863
2026-01-22 08:35:01.60	7.75	14.89	-41.2	-43.2	18.3	0.00e+00	0	38	0	0	53	4698
2026-01-22 08:35:04.73	7.29	14.65	-41.1	-43.2	18.2	0.00e+00	0	38	0	0	53	4700
2026-01-22 08:35:07.57	6.88	14.44	-40.7	-42.7	18.7	0.00e+00	0	38	0	0	53	4410
2026-01-22 08:35:10.70	6.44	14.20	-40.8	-42.8	18.7	0.00e+00	0	38	0	0	53	4462
2026-01-22 08:35:13.71	6.02	13.98	-41.1	-43.1	18.5	0.00e+00	0	38	0	0	53	4609
2026-01-22 08:35:17.19	5.54	13.72	-41.7	-43.8	17.8	0.00e+00	0	38	0	0	53	4997
2026-01-22 08:35:19.93	5.17	13.51	-41.6	-43.7	17.8	0.00e+00	0	38	0	0	54	4681
2026-01-22 08:35:23.22	4.73	13.27	-41.2	-43.2	18.2	0.00e+00	0	38	0	0	54	4413
2026-01-22 08:35:26.20	4.34	13.05	-41.2	-43.2	18.2	0.00e+00	0	38	0	0	54	4436
2026-01-22 08:35:29.24	3.95	12.83	-41.3	-43.2	18.3	0.00e+00	0	38	0	0	54	4439
2026-01-22 08:35:32.24	3.56	12.61	-41.5	-43.5	18.0	0.00e+00	0	38	0	0	54	4572
2026-01-22 08:35:35.22	3.19	12.39	-41.6	-43.6	17.8	0.00e+00	0	38	0	0	54	4631
2026-01-22 08:35:38.20	2.82	12.17	-41.3	-43.3	18.1	0.00e+00	0	38	0	0	54	4448
2026-01-22 08:35:41.19	2.46	11.95	-40.8	-42.7	18.6	0.00e+00	0	38	0	0	53	4427
2026-01-22 08:35:44.17	2.10	11.74	-40.6	-42.5	18.8	0.00e+00	0	38	0	0	53	4310
2026-01-22 08:35:47.17	1.75	11.52	-40.7	-42.7	18.7	0.00e+00	0	38	0	0	53	4428
2026-01-22 08:35:50.14	1.41	11.31	-41.2	-43.5	18.0	0.00e+00	0	38	0	0	53	4826
2026-01-22 08:35:53.26	1.05	11.08	-41.8	-44.0	17.5	0.00e+00	0	38	0	0	54	4838
2026-01-22 08:35:56.30	0.71	10.87	-41.7	-43.9	17.5	0.00e+00	0	38	0	0	54	4783
2026-01-22 08:35:59.41	0.36	10.65	-41.2	-43.3	18.0	0.00e+00	0	38	0	0	54	4459
2026-01-22 08:36:02.26	0.05	10.44	-41.3	-43.4	17.9	0.00e+00	0	38	0	0	54	4499
2026-01-22 08:36:05.39	359.72	10.22	-41.3	-43.4	18.0	0.00e+00	0	38	0	0	54	4527
2026-01-22 08:36:08.26	359.41	10.02	-41.4	-43.5	18.0	0.00e+00	0	38	0	0	54	4586
2026-01-22 08:36:11.39	359.08	9.80	-41.8	-43.9	17.6	0.00e+00	0	38	0	0	54	4784
2026-01-22 08:36:14.30	358.79	9.60	-42.2	-44.4	17.2	0.00e+00	0	38	0	0	55	4775
2026-01-22 08:36:17.79	358.43	9.36	-42.1	-44.4	17.1	0.00e+00	0	38	0	0	55	4782
2026-01-22 08:36:20.50	358.16	9.17	-41.9	-44.3	17.1	0.00e+00	0	38	0	0	55	4745
2026-01-22 08:36:23.77	357.84	8.95	-44.3	-47.7	14.2	0.00e+00	0	38	0	0	59	5550
2026-01-22 08:36:26.47	357.58	8.77	-49.8	-63.4	3.8	1.49e+00	0	38	104	0	70	18028
2026-01-22 08:36:29.74	357.27	8.54	-50.3	-63.6	3.8	1.49e+00	0	38	104	0	71	17407
2026-01-22 08:36:32.45	357.01	8.36	-50.2	-63.6	3.8	1.49e+00	0	38	104	0	71	17427
2026-01-22 08:36:35.71	356.71	8.14	-50.6	-63.7	3.8	1.49e+00	0	38	104	0	71	17583
2026-01-22 08:36:38.41	356.46	7.96	-50.6	-63.7	3.8	1.49e+00	0	38	104	0	71	17635
2026-01-22 08:36:41.70	356.17	7.74	-50.5	-63.7	3.8	1.49e+00	0	38	104	0	71	17622
2026-01-22 08:36:44.40	355.93	7.56	-50.7	-63.7	3.8	1.49e+00	0	38	104	0	72	16536
2026-01-22 08:36:47.70	355.64	7.35	-50.7	-63.7	3.8	1.49e+00	0	38	104	0	72	16581
2026-01-22 08:36:50.41	355.40	7.17	-50.5	-63.7	3.8	1.49e+00	0	38	104	0	72	16557
2026-01-22 08:36:53.67	355.12	6.95	-50.5	-63.6	3.8	1.49e+00	0	38	104	0	72	16464
2026-01-22 08:36:56.37	354.90	6.78	-50.4	-63.6	3.8	1.49e+00	0	38	104	0	72	16466
2026-01-22 08:36:59.65	354.63	6.57	-50.4	-63.6	3.8	1.49e+00	0	38	104	0	72	16462
2026-01-22 08:37:02.34	354.41	6.39	-50.4	-63.6	3.8	1.49e+00	0	38	104	0	72	16431
2026-01-22 08:37:05.62	354.14	6.18	-50.4	-63.6	3.8	1.49e+00	0	38	104	0	72	16428
2026-01-22 08:37:08.33	353.93	6.01	-50.4	-63.6	3.8	1.49e+00	0	38	104	0	72	16439
2026-01-22 08:37:11.60	353.67	5.80	-50.4	-63.6	3.8	1.49e+00	0	38	104	0	72	16418
2026-01-22 08:37:14.29	353.46	5.63	-50.4	-63.6	3.8	1.49e+00	0	38	104	0	72	16456
2026-01-22 08:37:17.56	353.21	5.43	-50.4	-63.6	3.8	1.49e+00	0	38	104	0	72	16433
2026-01-22 08:37:20.25	353.01	5.26	-50.4	-63.6	3.8	1.49e+00	0	38	104	0	72	16414
2026-01-22 08:37:23.53	352.77	5.05	-50.4	-63.6	3.8	1.49e+00	0	38	104	0	72	16418

#Closed at: 2026-01-22 08:37:26
#Recorded file [0 MB]: D:/Data/31040_260122_112613.dat