passes_logs/2026/01/22/T1/T1__20260122_105555_NOAA_20_JPSS-1_rec.log

#Pass ID: 20260122_105555_NOAA 20 (JPSS-1)
#Satellite: NOAA 20 (JPSS-1)
#Configuration: NOAA 20
#almurnet v.1.7.20251203
#Start time: 2026-01-22 10:55:57

#Version: 2.0.20230620
#Station: T1
#Location: 37.570604 lon 55.790049 lat
#TLE: 1 43013U 17073A   26021.46221703  .00000173  00000+0  10299-3 0  9999
#TLE: 2 43013  98.7644 322.3335 0001238  29.7597 330.3649 14.19538314423652

#Time	Az	El	Level	Level2	SNR	BER	BlckErr	Temp	State	Recorded	gain1	gain2
2026-01-22 10:55:57.04	192.42	5.10	-49.1	-65.0	3.8	1.49e+00	0	35	0	0	70	21645
2026-01-22 10:56:00.02	192.60	5.30	-49.0	-64.9	3.8	1.49e+00	0	35	104	0	69	22633
2026-01-22 10:56:03.00	192.77	5.50	-49.0	-64.7	3.8	1.49e+00	0	35	104	0	69	22054
2026-01-22 10:56:05.98	192.95	5.70	-49.0	-64.5	3.8	1.49e+00	0	36	104	0	69	21665
2026-01-22 10:56:08.96	193.13	5.91	-49.0	-64.6	3.8	1.49e+00	0	36	104	0	69	21926
2026-01-22 10:56:11.94	193.31	6.11	-49.0	-64.8	3.8	1.49e+00	0	36	104	0	69	22263
2026-01-22 10:56:14.92	193.49	6.32	-48.9	-64.5	3.8	1.49e+00	0	36	104	0	69	21711
2026-01-22 10:56:17.89	193.68	6.53	-49.0	-64.6	3.8	1.49e+00	0	36	104	0	69	21795
2026-01-22 10:56:20.88	193.87	6.74	-49.0	-64.7	3.8	1.49e+00	0	36	104	0	69	22222
2026-01-22 10:56:23.86	194.06	6.95	-49.0	-64.7	3.8	1.49e+00	0	36	104	0	69	22222
2026-01-22 10:56:26.84	194.25	7.16	-48.9	-63.6	3.8	1.49e+00	0	36	104	0	69	19475
2026-01-22 10:56:29.82	194.45	7.38	-48.9	-63.3	3.8	1.49e+00	0	36	104	0	69	18891
2026-01-22 10:56:32.80	194.65	7.59	-49.0	-64.7	3.8	1.49e+00	0	36	104	0	69	22181
2026-01-22 10:56:35.78	194.85	7.81	-48.2	-56.8	6.9	3.78e-01	0	36	0	2097152	68	9411
2026-01-22 10:56:38.76	195.06	8.03	-46.3	-51.2	12.3	4.14e-04	0	36	0	7340032	64	6239
2026-01-22 10:56:41.74	195.26	8.25	-45.3	-49.1	14.6	1.50e-06	0	37	0	13631488	62	5483
2026-01-22 10:56:44.72	195.47	8.47	-45.5	-49.5	14.2	7.00e-07	0	37	0	18874368	62	5751
2026-01-22 10:56:47.70	195.69	8.69	-46.6	-51.9	11.7	1.34e-04	0	37	0	24117248	64	6744
2026-01-22 10:56:50.69	195.91	8.92	-47.9	-56.0	7.4	6.32e-02	0	37	0	30408704	66	9709
2026-01-22 10:56:53.67	196.13	9.15	-48.9	-60.6	4.6	1.98e-02	0	37	0	35651584	68	14678
2026-01-22 10:56:56.65	196.35	9.38	-48.5	-59.4	5.0	1.08e-02	0	37	0	39845888	67	13525
2026-01-22 10:56:59.63	196.58	9.61	-46.1	-50.3	13.5	9.90e-06	0	37	0	42991616	63	5938
2026-01-22 10:57:02.62	196.81	9.84	-45.8	-49.7	14.1	3.80e-06	0	37	0	49283072	63	5563
2026-01-22 10:57:05.60	197.05	10.07	-45.3	-49.0	14.8	0.00e+00	0	37	0	54525952	62	5423
2026-01-22 10:57:09.00	197.32	10.34	-44.6	-48.0	15.6	0.00e+00	0	37	0	60817408	61	5141
2026-01-22 10:57:11.95	197.56	10.58	-44.3	-47.6	15.6	0.00e+00	0	37	0	66060288	60	5207
2026-01-22 10:57:15.30	197.84	10.85	-44.1	-47.4	15.8	0.00e+00	0	37	0	72351744	60	5078
2026-01-22 10:57:18.03	198.07	11.07	-44.0	-47.3	16.0	0.00e+00	0	37	0	77594624	59	5288
2026-01-22 10:57:21.31	198.35	11.34	-43.9	-47.1	16.5	0.00e+00	0	37	0	83886080	59	5162
2026-01-22 10:57:24.09	198.59	11.57	-43.9	-46.9	16.6	0.00e+00	0	37	0	89128960	59	5086
2026-01-22 10:57:27.72	198.91	11.87	-43.8	-47.0	16.2	0.00e+00	0	37	0	95420416	59	5108
2026-01-22 10:57:30.56	199.16	12.11	-43.5	-46.9	15.1	0.00e+00	0	37	0	100663296	59	5084
2026-01-22 10:57:34.54	199.53	12.45	-43.6	-46.9	15.3	0.00e+00	0	37	0	109051904	58	5354
2026-01-22 10:57:37.38	199.79	12.69	-43.9	-47.0	15.8	0.00e+00	0	37	0	114294784	58	5407
2026-01-22 10:57:41.36	200.17	13.03	-43.9	-46.8	16.4	0.00e+00	0	37	0	121634816	58	5296
2026-01-22 10:57:44.19	200.45	13.28	-43.8	-46.6	16.9	0.00e+00	0	37	0	126877696	58	5205
2026-01-22 10:57:48.74	200.90	13.68	-43.6	-46.4	17.0	0.00e+00	0	37	0	135266304	58	5060
2026-01-22 10:57:51.58	201.19	13.93	-43.7	-46.5	16.9	0.00e+00	0	37	0	140509184	58	5153
2026-01-22 10:57:55.56	201.60	14.29	-43.8	-46.6	17.3	0.00e+00	0	37	0	147849216	58	5160
2026-01-22 10:57:58.41	201.90	14.55	-43.4	-46.0	17.9	0.00e+00	0	37	0	153092096	58	4819
2026-01-22 10:58:02.64	202.35	14.93	-43.4	-46.0	17.9	0.00e+00	0	37	0	161480704	58	4846
2026-01-22 10:58:05.84	202.71	15.23	-43.4	-46.0	17.8	0.00e+00	0	37	0	167772160	58	4842
2026-01-22 10:58:08.68	203.02	15.49	-43.4	-46.1	17.7	0.00e+00	0	37	0	173015040	58	4881
2026-01-22 10:58:11.81	203.38	15.79	-43.6	-46.1	17.7	0.00e+00	0	37	0	178257920	58	4926
2026-01-22 10:58:14.65	203.71	16.06	-43.5	-46.0	17.9	0.00e+00	0	37	0	183500800	58	4860
2026-01-22 10:58:17.99	204.11	16.38	-43.5	-46.0	17.9	0.00e+00	0	37	0	189792256	58	4869
2026-01-22 10:58:20.71	204.43	16.64	-43.5	-46.0	17.9	0.00e+00	0	37	0	195035136	58	4865
2026-01-22 10:58:23.99	204.84	16.96	-43.7	-46.2	17.8	0.00e+00	0	37	0	201326592	58	4981
2026-01-22 10:58:26.71	205.18	17.22	-43.8	-46.4	17.7	0.00e+00	0	37	0	206569472	58	5049
2026-01-22 10:58:29.99	205.60	17.55	-43.7	-46.3	17.7	0.00e+00	0	37	0	212860928	58	5035
2026-01-22 10:58:32.75	205.96	17.82	-43.9	-46.5	17.4	0.00e+00	0	37	0	218103808	58	5157
2026-01-22 10:58:36.23	206.42	18.17	-43.9	-46.6	17.5	0.00e+00	0	37	0	224395264	58	5168
2026-01-22 10:58:38.94	206.78	18.45	-44.0	-46.6	17.4	0.00e+00	0	38	0	229638144	58	5209
2026-01-22 10:58:42.22	207.24	18.78	-44.0	-46.7	17.3	0.00e+00	0	37	0	235929600	58	5260
2026-01-22 10:58:44.97	207.62	19.06	-44.2	-46.9	17.2	0.00e+00	0	37	0	241172480	58	5355
2026-01-22 10:58:48.24	208.09	19.40	-44.2	-46.9	17.2	0.00e+00	0	37	0	246415360	59	5069
2026-01-22 10:58:50.99	208.50	19.69	-44.3	-47.1	17.0	0.00e+00	0	37	0	251658240	59	5173
2026-01-22 10:58:54.49	209.02	20.06	-44.5	-47.2	16.8	0.00e+00	0	37	0	258998272	59	5272
2026-01-22 10:58:57.41	209.47	20.37	-44.5	-47.4	16.8	0.00e+00	0	37	0	264241152	59	5355
2026-01-22 10:59:01.39	210.09	20.79	-44.2	-46.9	17.1	0.00e+00	0	37	0	271581184	59	5097
2026-01-22 10:59:04.35	210.56	21.11	-44.2	-47.0	17.1	0.00e+00	0	37	0	276824064	59	5105
2026-01-22 10:59:07.76	211.12	21.48	-44.2	-47.0	17.2	0.00e+00	0	37	0	283115520	59	5106
2026-01-22 10:59:10.59	211.59	21.79	-44.3	-47.0	17.1	0.00e+00	0	38	0	288358400	59	5129
2026-01-22 10:59:13.71	212.13	22.13	-44.2	-46.9	17.2	0.00e+00	0	38	0	294649856	59	5076
2026-01-22 10:59:16.56	212.62	22.44	-44.3	-47.0	17.1	0.00e+00	0	37	0	299892736	59	5155
2026-01-22 10:59:19.68	213.18	22.79	-44.2	-46.9	17.2	0.00e+00	0	38	0	306184192	59	5087
2026-01-22 10:59:22.65	213.72	23.12	-44.2	-46.9	17.2	0.00e+00	0	38	0	311427072	59	5088
2026-01-22 10:59:25.98	214.33	23.50	-44.1	-46.8	17.3	0.00e+00	0	37	0	317718528	59	5012
2026-01-22 10:59:28.95	214.90	23.83	-44.0	-46.6	17.5	0.00e+00	0	38	0	322961408	59	4926
2026-01-22 10:59:32.25	215.54	24.20	-43.9	-46.5	17.6	0.00e+00	0	38	0	329252864	59	4836
2026-01-22 10:59:34.95	216.07	24.51	-43.9	-46.5	17.6	0.00e+00	0	38	0	334495744	59	4844
2026-01-22 10:59:38.28	216.75	24.89	-43.8	-46.3	17.8	0.00e+00	0	37	0	340787200	59	4749
2026-01-22 10:59:41.21	217.35	25.23	-43.4	-45.9	18.2	0.00e+00	0	38	0	346030080	58	4797
2026-01-22 10:59:44.48	218.04	25.60	-43.3	-45.8	18.3	0.00e+00	0	37	0	352321536	58	4736
2026-01-22 10:59:47.18	218.63	25.91	-43.4	-45.9	18.3	0.00e+00	0	38	0	357564416	58	4767
2026-01-22 10:59:50.47	219.35	26.29	-43.3	-45.8	18.3	0.00e+00	0	38	0	363855872	58	4715
2026-01-22 10:59:53.18	219.96	26.60	-43.4	-45.8	18.3	0.00e+00	0	37	0	368050176	58	4753
2026-01-22 10:59:56.56	220.74	26.99	-43.5	-46.0	18.1	0.00e+00	0	37	0	375390208	58	4842
2026-01-22 10:59:59.32	221.39	27.31	-43.6	-46.1	18.0	0.00e+00	0	37	0	379584512	58	4884
2026-01-22 11:00:02.82	222.24	27.72	-44.0	-46.6	17.6	0.00e+00	0	38	0	386924544	58	5177
2026-01-22 11:00:06.06	223.03	28.09	-43.9	-46.5	17.6	0.00e+00	0	38	0	393216000	58	5136
2026-01-22 11:00:09.00	223.77	28.43	-43.9	-46.5	17.6	0.00e+00	0	38	0	398458880	58	5138
2026-01-22 11:00:11.98	224.54	28.77	-44.3	-47.0	17.1	0.00e+00	0	38	0	403701760	59	5157
2026-01-22 11:00:14.96	225.32	29.11	-44.6	-47.4	16.8	0.00e+00	0	37	0	408944640	59	5357
2026-01-22 11:00:17.94	226.12	29.44	-45.1	-48.2	16.1	0.00e+00	0	37	0	415236096	60	5543
2026-01-22 11:00:20.99	226.96	29.79	-45.4	-48.5	15.7	0.00e+00	0	38	0	420478976	61	5452
2026-01-22 11:00:23.97	227.79	30.12	-45.1	-48.2	16.1	0.00e+00	0	38	0	426770432	61	5242
2026-01-22 11:00:26.95	228.64	30.45	-45.7	-49.0	15.3	0.00e+00	0	37	0	432013312	62	5430
2026-01-22 11:00:29.94	229.51	30.78	-46.6	-50.4	13.9	3.00e-06	0	38	0	437256192	63	6001
2026-01-22 11:00:32.92	230.39	31.10	-47.0	-51.3	12.9	3.12e-05	0	38	0	443547648	64	6303
2026-01-22 11:00:35.91	231.30	31.42	-47.0	-51.3	12.9	6.56e-05	0	38	0	448790528	64	6311
2026-01-22 11:00:38.86	232.21	31.74	-47.0	-51.2	13.0	1.67e-05	0	38	0	454033408	64	6238
2026-01-22 11:00:41.96	233.18	32.06	-47.0	-51.3	12.8	7.24e-05	0	38	0	460324864	65	5964
2026-01-22 11:00:44.79	234.09	32.35	-46.7	-50.6	13.6	2.20e-06	0	38	0	465567744	65	5499
2026-01-22 11:00:47.92	235.11	32.66	-46.9	-51.0	13.1	1.06e-05	0	38	0	470810624	65	5772
2026-01-22 11:00:50.86	236.08	32.95	-46.6	-50.6	13.6	1.44e-05	0	38	0	477102080	65	5477
2026-01-22 11:00:53.98	237.14	33.25	-46.4	-50.0	14.2	2.20e-06	0	38	0	482344960	64	5447
2026-01-22 11:00:56.82	238.11	33.52	-46.3	-49.9	14.3	7.00e-07	0	38	0	487587840	64	5371
2026-01-22 11:00:59.95	239.21	33.80	-46.0	-49.4	14.9	0.00e+00	0	38	0	493879296	63	5356
2026-01-22 11:01:02.79	240.22	34.05	-45.5	-48.7	15.7	0.00e+00	0	38	0	499122176	62	5224
2026-01-22 11:01:06.04	241.39	34.33	-45.8	-49.2	15.1	0.00e+00	0	38	0	505413632	62	5562
2026-01-22 11:01:08.95	242.46	34.57	-45.2	-48.1	16.1	0.00e+00	0	38	0	510656512	62	4922
2026-01-22 11:01:12.07	243.62	34.81	-44.8	-47.7	16.6	0.00e+00	0	38	0	516947968	61	4927
2026-01-22 11:01:15.03	244.73	35.04	-44.6	-47.4	16.8	0.00e+00	0	38	0	522190848	61	4811
2026-01-22 11:01:18.01	245.87	35.25	-44.8	-47.7	16.6	0.00e+00	0	38	0	527433728	61	4948
2026-01-22 11:01:20.99	247.03	35.45	-44.7	-47.6	16.7	0.00e+00	0	38	0	532676608	61	4907
2026-01-22 11:01:23.98	248.20	35.64	-44.9	-47.8	16.5	0.00e+00	0	38	0	538968064	61	5023
2026-01-22 11:01:26.99	249.39	35.82	-44.7	-47.6	16.7	0.00e+00	0	38	0	544210944	61	4875
2026-01-22 11:01:29.97	250.58	35.99	-44.6	-47.5	16.8	0.00e+00	0	38	0	550502400	61	4825
2026-01-22 11:01:32.96	251.79	36.14	-44.4	-47.1	17.2	0.00e+00	0	38	0	555745280	60	4897
2026-01-22 11:01:35.94	253.00	36.28	-44.1	-46.8	17.5	0.00e+00	0	38	0	560988160	60	4731
2026-01-22 11:01:38.93	254.23	36.41	-44.1	-46.8	17.5	0.00e+00	0	38	0	567279616	59	4993
2026-01-22 11:01:41.97	255.49	36.52	-44.5	-47.3	17.0	0.00e+00	0	38	0	572522496	59	5300
2026-01-22 11:01:44.96	256.73	36.62	-45.6	-48.9	15.4	0.00e+00	0	38	0	577765376	61	5680
2026-01-22 11:01:47.95	257.99	36.70	-45.8	-49.2	15.2	7.00e-07	0	38	0	584056832	62	5570
2026-01-22 11:01:50.93	259.24	36.77	-45.3	-48.4	16.0	0.00e+00	0	38	0	589299712	62	5064
2026-01-22 11:01:53.91	260.50	36.82	-45.9	-49.4	15.0	0.00e+00	0	38	0	594542592	62	5690
2026-01-22 11:01:56.89	261.76	36.86	-46.0	-49.4	15.0	0.00e+00	0	38	0	600834048	62	5679
2026-01-22 11:01:59.97	263.06	36.88	-46.0	-49.5	14.8	0.00e+00	0	38	0	606076928	63	5455
2026-01-22 11:02:02.95	264.32	36.88	-45.8	-49.2	15.2	0.00e+00	0	38	0	612368384	63	5225
2026-01-22 11:02:05.93	265.59	36.87	-46.1	-49.7	14.6	0.00e+00	0	38	0	617611264	63	5571
2026-01-22 11:02:08.92	266.85	36.85	-45.0	-47.9	16.4	0.00e+00	0	38	0	622854144	62	4800
2026-01-22 11:02:11.90	268.11	36.81	-45.5	-48.6	15.7	0.00e+00	0	38	0	629145600	61	5526
2026-01-22 11:02:14.87	269.36	36.75	-44.7	-47.5	16.8	0.00e+00	0	38	0	634388480	61	4858
2026-01-22 11:02:17.85	270.62	36.68	-44.2	-46.9	17.4	0.00e+00	0	38	0	639631360	60	4804
2026-01-22 11:02:20.84	271.86	36.60	-45.1	-48.1	16.2	0.00e+00	0	38	0	645922816	60	5516
2026-01-22 11:02:23.82	273.10	36.50	-44.8	-47.6	16.7	0.00e+00	0	38	0	651165696	61	4901
2026-01-22 11:02:26.81	274.33	36.38	-44.9	-47.9	16.4	0.00e+00	0	38	0	656408576	61	5045
2026-01-22 11:02:29.83	275.57	36.25	-45.5	-48.7	15.6	0.00e+00	0	38	0	662700032	61	5551
2026-01-22 11:02:32.93	276.83	36.10	-46.4	-50.0	14.3	3.00e-06	0	38	0	667942912	63	5760
2026-01-22 11:02:35.77	277.97	35.96	-45.7	-49.0	15.4	0.00e+00	0	38	0	673185792	63	5114
2026-01-22 11:02:38.90	279.22	35.78	-45.9	-49.3	15.1	0.00e+00	0	38	0	679477248	63	5284
2026-01-22 11:02:41.74	280.34	35.61	-45.4	-48.4	15.8	0.00e+00	0	38	0	684720128	62	5096
2026-01-22 11:02:44.98	281.60	35.40	-45.8	-49.0	15.3	0.00e+00	0	38	0	691011584	62	5461
2026-01-22 11:02:47.88	282.72	35.20	-44.6	-47.4	16.9	0.00e+00	0	38	0	696254464	61	4797
2026-01-22 11:02:51.09	283.94	34.97	-44.8	-47.6	16.7	0.00e+00	0	38	0	702545920	61	4906
2026-01-22 11:02:54.36	285.16	34.72	-44.5	-47.2	17.0	0.00e+00	0	38	0	707788800	61	4701
2026-01-22 11:02:57.07	286.16	34.50	-44.4	-47.2	17.1	0.00e+00	0	38	0	713031680	60	4948
2026-01-22 11:03:00.36	287.36	34.23	-43.9	-46.5	17.7	0.00e+00	0	38	0	719323136	59	4827
2026-01-22 11:03:03.06	288.32	34.00	-44.8	-47.6	16.7	0.00e+00	0	38	0	724566016	60	5209
2026-01-22 11:03:06.36	289.48	33.71	-44.7	-47.5	16.8	0.00e+00	0	38	0	730857472	60	5112
2026-01-22 11:03:09.09	290.43	33.46	-44.8	-47.6	16.7	0.00e+00	0	38	0	736100352	60	5194
2026-01-22 11:03:12.45	291.58	33.14	-44.3	-47.0	17.2	0.00e+00	0	38	0	742391808	60	4862
2026-01-22 11:03:15.17	292.49	32.88	-44.9	-47.8	16.5	0.00e+00	0	38	0	747634688	60	5328
2026-01-22 11:03:18.55	293.60	32.55	-45.2	-48.4	15.9	0.00e+00	0	38	0	753926144	61	5357
2026-01-22 11:03:21.28	294.48	32.27	-45.8	-49.2	15.2	0.00e+00	0	38	0	759169024	62	5534
2026-01-22 11:03:24.71	295.56	31.92	-46.4	-50.1	14.1	2.20e-06	0	38	0	765460480	64	5515
2026-01-22 11:03:27.45	296.41	31.63	-45.1	-48.2	16.1	0.00e+00	0	38	0	770703360	62	4940
2026-01-22 11:03:30.74	297.42	31.29	-45.7	-49.0	15.3	0.00e+00	0	38	0	775946240	62	5443
2026-01-22 11:03:33.48	298.23	30.99	-44.5	-47.3	17.0	0.00e+00	0	38	0	781189120	60	4991
2026-01-22 11:03:36.77	299.20	30.64	-45.5	-48.7	15.6	0.00e+00	0	38	0	787480576	61	5575
2026-01-22 11:03:39.50	299.98	30.34	-45.1	-48.1	16.2	0.00e+00	0	38	0	792723456	62	4926
2026-01-22 11:03:42.80	300.91	29.97	-45.7	-49.1	15.3	0.00e+00	0	38	0	799014912	61	5796
2026-01-22 11:03:45.51	301.65	29.67	-45.7	-49.1	15.2	1.50e-06	0	38	0	804257792	63	5194
2026-01-22 11:03:48.81	302.55	29.30	-44.6	-47.4	16.8	0.00e+00	0	38	0	810549248	60	5077
2026-01-22 11:03:51.52	303.26	28.99	-45.9	-49.3	15.0	7.00e-07	0	38	0	815792128	62	5640
2026-01-22 11:03:54.81	304.11	28.62	-44.2	-47.0	17.3	0.00e+00	0	38	0	822083584	60	4821
2026-01-22 11:03:57.55	304.81	28.31	-45.3	-48.4	15.8	0.00e+00	0	38	0	827326464	61	5400
2026-01-22 11:04:01.22	305.72	27.89	-45.4	-48.6	15.6	0.00e+00	0	38	0	833617920	62	5179
2026-01-22 11:04:04.00	306.39	27.57	-44.5	-47.3	16.9	0.00e+00	0	38	0	838860800	61	4735
2026-01-22 11:04:07.52	307.23	27.17	-45.6	-49.0	15.2	0.00e+00	0	38	0	845152256	62	5443
2026-01-22 11:04:10.23	307.86	26.86	-44.3	-47.0	17.2	0.00e+00	0	38	0	850395136	60	4861
2026-01-22 11:04:13.62	308.62	26.47	-44.6	-47.4	16.8	0.00e+00	0	38	0	856686592	59	5345
2026-01-22 11:04:16.38	309.24	26.16	-44.4	-47.1	17.1	0.00e+00	0	38	0	861929472	60	4914
2026-01-22 11:04:19.78	309.98	25.77	-43.5	-46.0	18.1	0.00e+00	0	38	0	868220928	58	4869
2026-01-22 11:04:22.57	310.57	25.45	-44.2	-47.0	17.2	0.00e+00	0	38	0	873463808	59	5101
2026-01-22 11:04:25.86	311.25	25.07	-43.7	-46.3	17.9	0.00e+00	0	38	0	879755264	59	4714
2026-01-22 11:04:28.58	311.81	24.77	-42.7	-45.0	19.0	0.00e+00	0	38	0	884998144	57	4596
2026-01-22 11:04:32.17	312.52	24.36	-42.9	-45.4	18.7	0.00e+00	0	38	0	891289600	57	4781
2026-01-22 11:04:35.07	313.09	24.03	-42.5	-44.9	19.1	0.00e+00	0	38	0	897581056	57	4529
2026-01-22 11:04:38.35	313.71	23.67	-42.1	-44.3	19.7	0.00e+00	0	38	0	902823936	56	4479
2026-01-22 11:04:41.07	314.22	23.36	-42.5	-44.7	19.3	0.00e+00	0	38	0	908066816	56	4688
2026-01-22 11:04:44.47	314.84	22.99	-42.3	-44.5	19.5	0.00e+00	0	38	0	914358272	56	4589
2026-01-22 11:04:47.29	315.35	22.68	-41.8	-44.0	19.8	0.00e+00	0	38	0	919601152	55	4562
2026-01-22 11:04:50.65	315.94	22.31	-41.7	-43.9	19.9	0.00e+00	0	38	0	925892608	55	4534
2026-01-22 11:04:53.37	316.40	22.01	-42.1	-44.4	19.4	0.00e+00	0	38	0	931135488	55	4786
2026-01-22 11:04:56.67	316.96	21.65	-42.1	-44.4	19.5	0.00e+00	0	37	0	937426944	55	4766
2026-01-22 11:04:59.38	317.40	21.36	-41.8	-44.0	19.8	0.00e+00	0	38	0	942669824	55	4570
2026-01-22 11:05:02.64	317.93	21.01	-42.3	-44.6	19.2	0.00e+00	0	38	0	948961280	55	4891
2026-01-22 11:05:05.48	318.38	20.71	-42.6	-45.0	18.8	0.00e+00	0	38	0	954204160	55	5159
2026-01-22 11:05:08.60	318.86	20.38	-42.4	-45.0	18.9	0.00e+00	0	38	0	960495616	55	5105
2026-01-22 11:05:11.44	319.29	20.08	-42.1	-44.5	19.3	0.00e+00	0	38	0	965738496	55	4857
2026-01-22 11:05:14.57	319.76	19.76	-42.4	-44.8	19.0	0.00e+00	0	38	0	970981376	55	4999
2026-01-22 11:05:17.41	320.17	19.46	-42.5	-44.9	18.9	0.00e+00	0	38	0	976224256	55	5097
2026-01-22 11:05:20.53	320.62	19.14	-42.6	-45.0	18.8	0.00e+00	0	38	0	982515712	55	5144
2026-01-22 11:05:23.38	321.02	18.85	-42.8	-45.2	18.8	0.00e+00	0	38	0	987758592	56	4940
2026-01-22 11:05:26.50	321.45	18.54	-42.9	-45.3	18.7	0.00e+00	0	38	0	994050048	56	5040
2026-01-22 11:05:29.34	321.83	18.25	-43.0	-45.6	18.4	0.00e+00	0	38	0	999292928	56	5163
2026-01-22 11:05:32.47	322.25	17.94	-43.0	-45.5	18.5	0.00e+00	0	38	0	1004535808	57	4822
2026-01-22 11:05:35.31	322.62	17.66	-43.2	-45.8	18.2	0.00e+00	0	38	0	1009778688	57	5010
2026-01-22 11:05:38.49	323.02	17.35	-44.0	-46.9	17.2	0.00e+00	0	38	0	1016070144	58	5347
2026-01-22 11:05:41.39	323.39	17.07	-44.5	-47.6	16.5	0.00e+00	0	38	0	1021313024	59	5478
2026-01-22 11:05:44.71	323.79	16.75	-44.2	-46.9	17.1	0.00e+00	0	38	0	1027604480	59	5078
2026-01-22 11:05:47.42	324.12	16.49	-43.8	-46.5	17.5	0.00e+00	0	38	0	1032847360	59	4819
2026-01-22 11:05:50.71	324.51	16.18	-43.7	-46.3	17.7	0.00e+00	0	38	0	1039138816	59	4752
2026-01-22 11:05:53.50	324.83	15.91	-44.0	-47.0	17.0	0.00e+00	0	38	0	1044381696	59	5136
2026-01-22 11:05:56.63	325.19	15.62	-43.9	-47.2	16.8	0.00e+00	0	38	0	1049624576	59	5246
2026-01-22 11:05:59.99	325.57	15.31	-43.8	-46.9	17.1	0.00e+00	0	38	0	1055916032	59	5082
2026-01-22 11:06:02.84	325.88	15.05	-43.6	-46.4	17.6	0.00e+00	0	38	0	1061158912	59	4784
2026-01-22 11:06:05.96	326.22	14.77	-43.6	-46.4	17.6	0.00e+00	0	38	0	1067450368	58	5070
2026-01-22 11:06:08.80	326.52	14.51	-43.8	-46.7	17.2	0.00e+00	0	38	0	1072693248	58	5270
2026-01-22 11:06:12.01	326.86	14.22	-44.2	-47.3	16.7	0.00e+00	0	38	0	1078984704	58	5625
2026-01-22 11:06:14.93	327.16	13.97	-44.2	-47.4	16.6	0.00e+00	0	38	0	1084227584	59	5359
2026-01-22 11:06:18.08	327.47	13.69	-43.9	-46.8	17.1	0.00e+00	0	38	0	1090519040	59	5038
2026-01-22 11:06:21.01	327.76	13.43	-43.6	-46.4	17.6	0.00e+00	0	38	0	1095761920	59	4760
2026-01-22 11:06:24.00	328.05	13.18	-43.4	-46.0	17.9	0.00e+00	0	38	0	1101004800	58	4854
2026-01-22 11:06:26.98	328.34	12.92	-43.5	-46.2	17.8	0.00e+00	0	38	0	1107296256	58	4930
2026-01-22 11:06:29.97	328.62	12.67	-43.7	-46.5	17.4	0.00e+00	0	38	0	1112539136	58	5109
2026-01-22 11:06:32.95	328.90	12.41	-43.8	-46.7	17.3	0.00e+00	0	38	0	1117782016	58	5226
2026-01-22 11:06:35.94	329.17	12.16	-44.0	-46.9	17.0	0.00e+00	0	38	0	1124073472	58	5366
2026-01-22 11:06:38.92	329.44	11.92	-44.0	-46.8	17.1	0.00e+00	0	38	0	1129316352	58	5309
2026-01-22 11:06:41.90	329.70	11.67	-43.9	-46.7	17.2	0.00e+00	0	38	0	1134559232	58	5253
2026-01-22 11:06:44.97	329.97	11.42	-43.7	-46.5	17.4	0.00e+00	0	38	0	1140850688	58	5122
2026-01-22 11:06:47.83	330.21	11.19	-43.7	-46.4	17.4	0.00e+00	0	38	0	1146093568	58	5098
2026-01-22 11:06:50.95	330.48	10.94	-43.7	-46.5	17.3	0.00e+00	0	38	0	1152385024	58	5128
2026-01-22 11:06:53.80	330.71	10.71	-43.9	-46.6	17.2	0.00e+00	0	38	0	1157627904	58	5208
2026-01-22 11:06:56.92	330.97	10.46	-44.1	-46.9	16.9	0.00e+00	0	38	0	1162870784	58	5398
2026-01-22 11:06:59.77	331.20	10.24	-44.1	-47.0	16.8	0.00e+00	0	38	0	1168113664	58	5434
2026-01-22 11:07:03.09	331.46	9.98	-44.0	-47.0	16.8	0.00e+00	0	38	0	1174405120	58	5420
2026-01-22 11:07:05.79	331.67	9.77	-44.1	-47.1	16.7	0.00e+00	0	38	0	1179648000	58	5502
2026-01-22 11:07:09.06	331.92	9.52	-44.1	-47.1	16.6	0.00e+00	0	38	0	1185939456	59	5205
2026-01-22 11:07:11.90	332.14	9.30	-44.0	-47.0	16.8	0.00e+00	0	38	0	1191182336	59	5129
2026-01-22 11:07:15.02	332.37	9.07	-44.1	-47.1	16.6	0.00e+00	0	38	0	1197473792	59	5210
2026-01-22 11:07:17.86	332.58	8.86	-49.8	-65.3	3.8	1.49e+00	0	38	104	1198522368	70	22500
2026-01-22 11:07:20.98	332.81	8.62	-49.8	-65.7	3.8	1.49e+00	0	38	104	1198522368	70	23337
2026-01-22 11:07:23.82	333.01	8.41	-49.3	-65.7	3.8	1.49e+00	0	38	104	1198522368	70	23538
2026-01-22 11:07:26.94	333.23	8.18	-50.4	-65.7	3.8	1.49e+00	0	38	104	1198522368	71	22152
2026-01-22 11:07:29.78	333.43	7.98	-50.4	-65.7	3.8	1.49e+00	0	38	104	1198522368	71	22248
2026-01-22 11:07:32.90	333.64	7.75	-50.4	-65.7	3.8	1.49e+00	0	38	104	1198522368	71	22160
2026-01-22 11:07:35.74	333.84	7.55	-50.3	-65.7	3.8	1.49e+00	0	38	104	1198522368	71	22015
2026-01-22 11:07:38.86	334.04	7.33	-50.3	-65.7	3.8	1.49e+00	0	38	104	1198522368	71	22095
2026-01-22 11:07:41.70	334.23	7.12	-50.3	-65.7	3.8	1.49e+00	0	38	104	1198522368	71	22046
2026-01-22 11:07:44.83	334.43	6.90	-50.3	-65.6	3.8	1.49e+00	0	38	104	1198522368	71	21895
2026-01-22 11:07:47.67	334.62	6.71	-50.2	-65.6	3.8	1.49e+00	0	38	104	1198522368	71	21966
2026-01-22 11:07:50.79	334.81	6.49	-50.2	-65.7	3.8	1.49e+00	0	38	104	1198522368	71	22021
2026-01-22 11:07:53.63	334.99	6.29	-50.2	-65.6	3.8	1.49e+00	0	38	104	1198522368	71	21965
2026-01-22 11:07:56.75	335.18	6.08	-50.2	-65.6	3.8	1.49e+00	0	38	104	1198522368	71	21988
2026-01-22 11:07:59.59	335.36	5.89	-50.2	-65.6	3.8	1.49e+00	0	38	104	1198522368	71	21963
2026-01-22 11:08:02.71	335.54	5.68	-50.2	-65.7	3.8	1.49e+00	0	38	104	1198522368	71	22020
2026-01-22 11:08:05.55	335.71	5.49	-50.3	-65.6	3.8	1.49e+00	0	38	104	1198522368	71	21966
2026-01-22 11:08:08.67	335.90	5.28	-50.2	-65.6	3.8	1.49e+00	0	38	104	1198522368	71	21992
2026-01-22 11:08:11.51	336.06	5.09	-50.2	-65.6	3.8	1.49e+00	0	38	104	1198522368	71	21984

#Closed at: 2026-01-22 11:08:14
#Recorded file [1198 MB]: D:/Data/31040_260122_135557.dat