passes_logs/2026/01/22/T1/T1__20260122_230543_NOAA_20_JPSS-1_rec.log

#Pass ID: 20260122_230543_NOAA 20 (JPSS-1)
#Satellite: NOAA 20 (JPSS-1)
#Configuration: NOAA 20
#almurnet v.1.7.20251203
#Start time: 2026-01-22 23:05:46

#Version: 2.0.20230620
#Station: T1
#Location: 37.570604 lon 55.790049 lat
#TLE: 1 43013U 17073A   26022.44900781  .00000193  00000+0  11233-3 0  9999
#TLE: 2 43013  98.7645 323.3100 0001197  28.8413 331.2829 14.19538802423792

#Time	Az	El	Level	Level2	SNR	BER	BlckErr	Temp	State	Recorded	gain1	gain2
2026-01-22 23:05:46.04	20.75	5.16	-48.8	-64.5	3.8	1.49e+00	0	36	0	0	68	22844
2026-01-22 23:05:50.01	20.89	5.43	-48.8	-64.4	3.8	1.49e+00	0	36	104	0	68	22647
2026-01-22 23:05:53.99	21.04	5.71	-48.8	-64.4	3.8	1.49e+00	0	36	104	0	68	22640
2026-01-22 23:05:57.96	21.20	5.99	-48.8	-64.4	3.8	1.49e+00	0	36	104	0	68	22680
2026-01-22 23:06:01.93	21.35	6.28	-48.8	-64.4	3.8	1.49e+00	0	37	104	0	68	22721
2026-01-22 23:06:05.91	21.51	6.57	-48.8	-64.4	3.8	1.49e+00	0	37	104	0	68	22613
2026-01-22 23:06:09.88	21.67	6.86	-48.8	-64.1	3.8	1.49e+00	0	37	104	0	68	21818
2026-01-22 23:06:13.85	21.83	7.16	-48.7	-63.2	3.8	1.49e+00	0	37	104	0	68	19795
2026-01-22 23:06:17.82	22.00	7.45	-48.7	-62.5	3.8	1.49e+00	0	37	104	0	68	18120
2026-01-22 23:06:21.79	22.17	7.75	-48.7	-62.2	3.9	1.48e+00	0	37	104	0	68	17640
2026-01-22 23:06:25.77	22.35	8.06	-48.7	-62.3	3.8	1.49e+00	0	37	104	0	68	17708
2026-01-22 23:06:29.74	22.52	8.37	-48.6	-60.6	4.2	1.41e+00	0	37	0	0	68	14676
2026-01-22 23:06:33.71	22.70	8.68	-48.0	-56.3	6.9	2.30e-01	0	37	0	6291456	68	8897
2026-01-22 23:06:37.68	22.88	9.00	-46.7	-52.4	10.6	4.22e-03	0	38	0	13631488	65	6754
2026-01-22 23:06:41.66	23.07	9.32	-47.1	-53.0	10.2	1.51e-04	0	37	0	20971520	64	7676
2026-01-22 23:06:45.65	23.26	9.64	-44.0	-47.1	16.1	0.00e+00	0	38	0	28311552	60	4898
2026-01-22 23:06:49.62	23.46	9.97	-43.9	-46.9	16.4	0.00e+00	0	38	0	36700160	59	5056
2026-01-22 23:06:53.60	23.66	10.30	-43.6	-46.6	16.6	0.00e+00	0	38	0	44040192	59	4883
2026-01-22 23:06:57.58	23.86	10.64	-43.6	-46.4	16.8	0.00e+00	0	38	0	51380224	59	4814
2026-01-22 23:07:01.56	24.07	10.98	-43.5	-46.3	17.0	0.00e+00	0	38	0	58720256	59	4739
2026-01-22 23:07:05.54	24.28	11.32	-43.3	-46.1	17.2	0.00e+00	0	38	0	66060288	58	4914
2026-01-22 23:07:09.52	24.50	11.67	-43.2	-46.0	17.4	0.00e+00	0	38	0	73400320	58	4815
2026-01-22 23:07:13.55	24.72	12.03	-42.9	-45.7	17.7	0.00e+00	0	38	0	80740352	57	4929
2026-01-22 23:07:17.50	24.95	12.39	-42.9	-45.5	17.8	0.00e+00	0	38	0	88080384	57	4866
2026-01-22 23:07:21.48	25.18	12.76	-42.6	-45.3	18.0	0.00e+00	0	38	0	96468992	57	4750
2026-01-22 23:07:25.46	25.42	13.13	-42.5	-45.1	18.3	0.00e+00	0	38	0	103809024	56	4901
2026-01-22 23:07:29.45	25.66	13.50	-42.5	-45.0	18.4	0.00e+00	0	38	0	111149056	56	4845
2026-01-22 23:07:33.44	25.91	13.88	-42.5	-45.1	18.3	0.00e+00	0	38	0	118489088	56	4882
2026-01-22 23:07:37.42	26.17	14.27	-42.5	-45.0	18.4	0.00e+00	0	38	0	125829120	56	4847
2026-01-22 23:07:41.40	26.43	14.66	-42.4	-44.9	18.5	0.00e+00	0	38	0	133169152	56	4763
2026-01-22 23:07:45.37	26.69	15.06	-42.4	-45.0	18.4	0.00e+00	0	38	0	140509184	56	4823
2026-01-22 23:07:49.45	26.98	15.48	-42.3	-44.8	18.6	0.00e+00	0	38	0	148897792	56	4742
2026-01-22 23:07:53.69	27.28	15.91	-42.1	-44.7	18.8	0.00e+00	0	38	0	156237824	56	4665
2026-01-22 23:07:57.64	27.56	16.33	-42.1	-44.7	18.8	0.00e+00	0	38	0	163577856	56	4663
2026-01-22 23:08:01.85	27.88	16.78	-42.2	-44.7	18.7	0.00e+00	0	38	0	171966464	56	4691
2026-01-22 23:08:05.83	28.19	17.21	-42.1	-44.5	19.0	0.00e+00	0	38	0	179306496	56	4553
2026-01-22 23:08:09.81	28.50	17.65	-42.0	-44.4	19.1	0.00e+00	0	38	0	186646528	56	4499
2026-01-22 23:08:13.78	28.82	18.09	-41.8	-44.0	19.3	0.00e+00	0	38	0	193986560	55	4592
2026-01-22 23:08:17.85	29.16	18.55	-42.0	-44.4	19.0	0.00e+00	0	38	0	201326592	55	4772
2026-01-22 23:08:21.86	29.51	19.02	-42.0	-44.3	19.0	0.00e+00	0	38	0	209715200	55	4734
2026-01-22 23:08:25.85	29.86	19.49	-42.0	-44.3	19.0	0.00e+00	0	38	0	217055232	55	4749
2026-01-22 23:08:29.84	30.23	19.97	-42.0	-44.3	19.0	0.00e+00	0	38	0	224395264	55	4752
2026-01-22 23:08:33.89	30.61	20.46	-42.1	-44.4	18.9	0.00e+00	0	38	0	231735296	55	4797
2026-01-22 23:08:37.86	30.99	20.95	-42.3	-44.7	18.7	0.00e+00	0	38	0	239075328	55	4935
2026-01-22 23:08:41.84	31.39	21.45	-42.1	-44.4	18.9	0.00e+00	0	38	0	246415360	55	4806
2026-01-22 23:08:45.82	31.80	21.97	-42.0	-44.4	18.9	0.00e+00	0	38	0	253755392	55	4784
2026-01-22 23:08:49.99	32.24	22.51	-41.9	-44.3	19.1	0.00e+00	0	38	0	262144000	55	4725
2026-01-22 23:08:54.24	32.71	23.08	-42.0	-44.4	19.0	0.00e+00	0	38	0	269484032	55	4782
2026-01-22 23:08:58.23	33.17	23.62	-41.9	-44.2	19.1	0.00e+00	0	38	0	277872640	55	4698
2026-01-22 23:09:02.22	33.64	24.17	-41.9	-44.2	19.2	0.00e+00	0	38	0	285212672	55	4668
2026-01-22 23:09:06.21	34.13	24.73	-42.0	-44.4	19.0	0.00e+00	0	38	0	292552704	55	4778
2026-01-22 23:09:10.23	34.64	25.30	-42.2	-44.6	18.8	0.00e+00	0	38	0	299892736	55	4921
2026-01-22 23:09:14.48	35.19	25.92	-42.2	-44.6	18.8	0.00e+00	0	38	0	308281344	55	4877
2026-01-22 23:09:18.46	35.74	26.51	-42.4	-44.7	18.7	0.00e+00	0	38	0	315621376	55	4968
2026-01-22 23:09:22.45	36.30	27.12	-42.9	-45.4	18.2	0.00e+00	0	38	0	322961408	56	5074
2026-01-22 23:09:26.62	36.91	27.76	-43.1	-45.6	18.0	0.00e+00	0	38	0	330301440	56	5198
2026-01-22 23:09:30.85	37.56	28.42	-43.2	-45.7	17.9	0.00e+00	0	38	0	338690048	57	4958
2026-01-22 23:09:34.83	38.19	29.06	-43.6	-46.3	17.4	0.00e+00	0	38	0	346030080	57	5286
2026-01-22 23:09:38.97	38.87	29.73	-44.1	-46.9	16.8	0.00e+00	0	38	0	353370112	58	5374
2026-01-22 23:09:42.97	39.56	30.39	-44.6	-47.6	16.1	0.00e+00	0	38	0	361758720	59	5471
2026-01-22 23:09:46.99	40.28	31.06	-44.5	-47.5	16.2	0.00e+00	0	38	0	369098752	59	5452
2026-01-22 23:09:51.08	41.04	31.76	-44.5	-47.4	16.3	0.00e+00	0	38	0	376438784	59	5381
2026-01-22 23:09:55.07	41.82	32.45	-44.5	-47.4	16.3	0.00e+00	0	39	0	383778816	59	5369
2026-01-22 23:09:59.08	42.63	33.16	-43.8	-46.5	17.2	0.00e+00	0	38	0	391118848	59	4837
2026-01-22 23:10:03.04	43.47	33.86	-43.7	-46.3	17.4	0.00e+00	0	38	0	398458880	59	4746
2026-01-22 23:10:07.02	44.35	34.58	-43.2	-45.7	18.0	0.00e+00	0	38	0	406847488	58	4691
2026-01-22 23:10:11.01	45.27	35.31	-43.1	-45.7	18.0	0.00e+00	0	38	0	414187520	58	4657
2026-01-22 23:10:14.99	46.23	36.05	-42.4	-44.7	18.9	0.00e+00	0	38	0	421527552	56	4694
2026-01-22 23:10:18.96	47.23	36.79	-42.0	-44.3	19.4	0.00e+00	0	38	0	428867584	56	4470
2026-01-22 23:10:23.07	48.31	37.57	-42.5	-44.8	18.9	0.00e+00	0	38	0	436207616	56	4744
2026-01-22 23:10:27.11	49.43	38.34	-41.7	-44.0	19.4	0.00e+00	0	38	0	443547648	55	4582
2026-01-22 23:10:31.09	50.59	39.11	-42.1	-44.4	19.1	0.00e+00	0	38	0	451936256	55	4787
2026-01-22 23:10:35.02	51.78	39.87	-42.6	-45.0	18.5	0.00e+00	0	38	0	459276288	55	5147
2026-01-22 23:10:39.00	53.05	40.64	-42.6	-45.0	18.7	0.00e+00	0	38	0	466616320	56	4832
2026-01-22 23:10:42.98	54.37	41.41	-42.9	-45.4	18.3	0.00e+00	0	38	0	473956352	56	5043
2026-01-22 23:10:46.96	55.76	42.18	-43.1	-45.6	18.1	0.00e+00	0	38	0	481296384	56	5207
2026-01-22 23:10:50.94	57.22	42.95	-43.2	-45.7	18.0	0.00e+00	0	38	0	488636416	57	4962
2026-01-22 23:10:54.98	58.78	43.72	-42.9	-45.4	18.3	0.00e+00	0	38	0	495976448	57	4762
2026-01-22 23:10:58.96	60.38	44.47	-43.7	-46.3	17.4	0.00e+00	0	38	0	503316480	57	5325
2026-01-22 23:11:02.93	62.06	45.21	-43.6	-46.2	17.4	0.00e+00	0	38	0	510656512	59	4699
2026-01-22 23:11:06.91	63.81	45.94	-43.9	-46.6	17.1	0.00e+00	0	38	0	519045120	59	4901
2026-01-22 23:11:10.89	65.65	46.65	-43.8	-46.5	17.2	0.00e+00	0	38	0	526385152	59	4844
2026-01-22 23:11:15.01	67.65	47.37	-43.4	-46.1	17.7	0.00e+00	0	38	0	533725184	58	4874
2026-01-22 23:11:19.13	69.73	48.05	-43.4	-46.0	17.7	0.00e+00	0	38	0	541065216	58	4826
2026-01-22 23:11:23.11	71.83	48.69	-42.9	-45.3	18.3	0.00e+00	0	38	0	549453824	57	4740
2026-01-22 23:11:27.34	74.16	49.32	-42.5	-44.8	18.8	0.00e+00	0	39	0	556793856	57	4489
2026-01-22 23:11:31.89	76.77	49.96	-43.3	-45.8	17.9	0.00e+00	0	39	0	565182464	57	5020
2026-01-22 23:11:36.43	79.47	50.54	-43.5	-46.1	17.6	0.00e+00	0	38	0	573571072	57	5168
2026-01-22 23:11:41.50	82.61	51.11	-42.6	-45.0	18.6	0.00e+00	0	38	0	584056832	57	4589
2026-01-22 23:11:45.55	85.20	51.51	-42.5	-44.9	18.8	0.00e+00	0	38	0	591396864	56	4814
2026-01-22 23:11:49.53	87.81	51.84	-43.0	-45.5	18.1	0.00e+00	0	38	0	598736896	56	5145
2026-01-22 23:11:53.51	90.48	52.11	-41.9	-44.3	19.2	0.00e+00	0	38	0	606076928	55	4738
2026-01-22 23:11:57.49	93.18	52.32	-41.7	-44.0	19.4	0.00e+00	0	38	0	613416960	55	4578
2026-01-22 23:12:01.47	95.92	52.47	-42.1	-44.4	19.1	0.00e+00	0	38	0	620756992	54	5087
2026-01-22 23:12:05.45	98.68	52.54	-41.6	-43.9	19.5	0.00e+00	0	38	0	628097024	54	4788
2026-01-22 23:12:09.42	101.44	52.55	-41.1	-43.2	20.2	0.00e+00	0	38	0	635437056	53	4675
2026-01-22 23:12:13.40	104.21	52.50	-41.5	-43.7	19.8	0.00e+00	0	38	0	643825664	54	4657
2026-01-22 23:12:17.38	106.95	52.37	-40.9	-43.0	20.3	0.00e+00	0	38	0	651165696	53	4588
2026-01-22 23:12:21.33	109.65	52.19	-40.9	-43.1	20.2	0.00e+00	0	38	0	658505728	53	4643
2026-01-22 23:12:25.31	112.33	51.93	-41.8	-44.1	19.3	0.00e+00	0	38	0	665845760	54	4902
2026-01-22 23:12:29.29	114.96	51.62	-42.5	-44.9	18.6	0.00e+00	0	38	0	673185792	55	5053
2026-01-22 23:12:33.37	117.60	51.24	-43.1	-45.7	18.0	0.00e+00	0	38	0	680525824	57	4943
2026-01-22 23:12:37.35	120.10	50.81	-43.0	-45.5	18.2	0.00e+00	0	38	0	687865856	58	4553
2026-01-22 23:12:41.33	122.53	50.33	-44.6	-47.6	16.0	0.00e+00	0	38	0	695205888	60	5206
2026-01-22 23:12:45.31	124.88	49.81	-44.7	-47.7	16.0	0.00e+00	0	38	0	703594496	59	5573
2026-01-22 23:12:49.35	127.18	49.23	-45.6	-49.1	14.6	0.00e+00	0	39	0	710934528	61	5809
2026-01-22 23:12:53.33	129.36	48.63	-45.1	-48.4	15.3	0.00e+00	0	38	0	718274560	62	5077
2026-01-22 23:12:57.33	131.47	47.99	-46.2	-50.2	13.5	6.10e-06	0	38	0	725614592	63	5877
2026-01-22 23:13:01.46	133.56	47.29	-45.8	-49.5	14.2	7.00e-07	0	38	0	732954624	62	5784
2026-01-22 23:13:05.82	135.66	46.53	-45.1	-48.3	15.4	0.00e+00	0	38	0	741343232	62	5017
2026-01-22 23:13:09.87	137.53	45.80	-43.6	-46.2	17.4	0.00e+00	0	38	0	748683264	59	4703
2026-01-22 23:13:13.85	139.28	45.07	-43.9	-46.7	17.0	0.00e+00	0	38	0	757071872	58	5227
2026-01-22 23:13:17.83	140.95	44.32	-43.6	-46.2	17.4	0.00e+00	0	38	0	764411904	59	4697
2026-01-22 23:13:21.80	142.54	43.57	-45.1	-48.5	15.2	0.00e+00	0	38	0	771751936	60	5741
2026-01-22 23:13:25.78	144.06	42.80	-43.4	-45.9	17.7	0.00e+00	0	39	0	779091968	58	4797
2026-01-22 23:13:29.76	145.51	42.03	-46.9	-51.7	11.7	1.19e-04	0	38	0	786432000	64	6646
2026-01-22 23:13:33.78	146.91	41.25	-45.9	-49.7	14.0	7.00e-07	0	38	0	793772032	63	5554
2026-01-22 23:13:37.76	148.23	40.47	-46.6	-51.1	12.5	6.56e-04	0	38	0	801112064	65	5797
2026-01-22 23:13:41.75	149.49	39.69	-47.2	-52.2	11.2	1.68e-04	0	38	0	809500672	65	6579
2026-01-22 23:13:45.72	150.69	38.92	-45.1	-48.3	15.3	0.00e+00	0	39	0	816840704	62	5019
2026-01-22 23:13:49.70	151.83	38.15	-45.5	-48.9	14.7	0.00e+00	0	38	0	824180736	61	5718
2026-01-22 23:13:53.73	152.94	37.38	-44.8	-47.9	15.7	0.00e+00	0	39	0	831520768	61	5087
2026-01-22 23:13:57.71	153.99	36.63	-44.2	-47.2	16.4	0.00e+00	0	39	0	838860800	59	5243
2026-01-22 23:14:01.70	154.99	35.88	-44.8	-48.1	15.6	0.00e+00	0	38	0	846200832	61	5164
2026-01-22 23:14:05.69	155.95	35.13	-43.7	-46.3	17.3	0.00e+00	0	38	0	853540864	59	4745
2026-01-22 23:14:09.70	156.87	34.40	-45.1	-48.6	15.1	0.00e+00	0	38	0	861929472	60	5821
2026-01-22 23:14:14.28	157.87	33.57	-43.7	-46.4	17.2	0.00e+00	0	38	0	870318080	59	4783
2026-01-22 23:14:18.29	158.71	32.85	-45.5	-49.2	14.5	0.00e+00	0	38	0	877658112	61	5861
2026-01-22 23:14:22.43	159.54	32.12	-44.9	-48.3	15.3	0.00e+00	0	38	0	884998144	61	5316
2026-01-22 23:14:26.51	160.32	31.41	-43.5	-46.2	17.4	0.00e+00	0	38	0	893386752	58	4978
2026-01-22 23:14:30.68	161.08	30.70	-44.9	-48.3	15.3	0.00e+00	0	38	0	900726784	60	5644
2026-01-22 23:14:34.83	161.81	30.01	-44.1	-47.1	16.5	0.00e+00	0	38	0	908066816	60	4903
2026-01-22 23:14:38.82	162.49	29.35	-43.9	-46.6	16.9	0.00e+00	0	39	0	916455424	59	4923
2026-01-22 23:14:42.84	163.14	28.70	-43.5	-46.1	17.4	0.00e+00	0	38	0	923795456	58	4920
2026-01-22 23:14:46.82	163.76	28.07	-44.2	-47.1	16.4	0.00e+00	0	38	0	931135488	59	5212
2026-01-22 23:14:50.74	164.35	27.45	-44.5	-47.6	16.0	0.00e+00	0	38	0	938475520	60	5170
2026-01-22 23:14:54.71	164.93	26.84	-43.1	-45.6	17.9	0.00e+00	0	38	0	945815552	58	4635
2026-01-22 23:14:58.70	165.48	26.24	-43.8	-46.6	17.0	0.00e+00	0	39	0	953155584	58	5174
2026-01-22 23:15:02.79	166.03	25.63	-44.4	-47.4	16.1	0.00e+00	0	38	0	960495616	59	5375
2026-01-22 23:15:06.97	166.58	25.02	-44.0	-46.9	16.6	0.00e+00	0	39	0	968884224	59	5069
2026-01-22 23:15:10.96	167.07	24.45	-43.9	-46.7	16.8	0.00e+00	0	38	0	976224256	59	4948
2026-01-22 23:15:14.98	167.56	23.89	-43.1	-45.7	17.8	0.00e+00	0	38	0	983564288	58	4673
2026-01-22 23:15:19.22	168.05	23.30	-43.3	-45.9	17.6	0.00e+00	0	38	0	991952896	57	5076
2026-01-22 23:15:23.25	168.51	22.75	-44.1	-47.0	16.5	0.00e+00	0	39	0	999292928	58	5463
2026-01-22 23:15:27.25	168.94	22.22	-43.7	-46.6	16.9	0.00e+00	0	38	0	1006632960	58	5160
2026-01-22 23:15:31.36	169.37	21.68	-43.1	-45.7	17.7	0.00e+00	0	38	0	1015021568	58	4689
2026-01-22 23:15:35.35	169.78	21.17	-42.8	-45.4	18.0	0.00e+00	0	38	0	1022361600	57	4780
2026-01-22 23:15:39.36	170.18	20.67	-43.2	-45.8	17.6	0.00e+00	0	38	0	1029701632	57	5026
2026-01-22 23:15:43.64	170.59	20.14	-43.1	-45.8	17.6	0.00e+00	0	38	0	1037041664	57	5013
2026-01-22 23:15:47.57	170.95	19.66	-42.8	-45.4	18.0	0.00e+00	0	39	0	1044381696	57	4771
2026-01-22 23:15:51.55	171.31	19.18	-42.3	-44.7	18.6	0.00e+00	0	38	0	1052770304	56	4679
2026-01-22 23:15:55.53	171.65	18.71	-42.1	-44.5	18.9	0.00e+00	0	38	0	1060110336	56	4558
2026-01-22 23:15:59.51	171.99	18.25	-42.0	-44.4	19.0	0.00e+00	0	38	0	1067450368	56	4504
2026-01-22 23:16:03.49	172.32	17.80	-42.3	-44.7	18.6	0.00e+00	0	38	0	1074790400	56	4671
2026-01-22 23:16:07.47	172.64	17.35	-42.5	-45.0	18.3	0.00e+00	0	38	0	1082130432	56	4846
2026-01-22 23:16:11.42	172.94	16.92	-42.8	-45.4	17.9	0.00e+00	0	38	0	1089470464	56	5099
2026-01-22 23:16:15.39	173.24	16.49	-42.7	-45.2	18.1	0.00e+00	0	38	0	1096810496	56	4976
2026-01-22 23:16:19.37	173.54	16.06	-42.8	-45.4	17.9	0.00e+00	0	38	0	1104150528	56	5082
2026-01-22 23:16:23.35	173.82	15.65	-42.5	-45.0	18.3	0.00e+00	0	38	0	1112539136	56	4864
2026-01-22 23:16:27.41	174.11	15.23	-42.5	-45.0	18.3	0.00e+00	0	38	0	1119879168	56	4856
2026-01-22 23:16:31.45	174.38	14.81	-42.6	-45.2	18.1	0.00e+00	0	38	0	1127219200	56	4950
2026-01-22 23:16:35.43	174.64	14.42	-42.6	-45.3	18.0	0.00e+00	0	38	0	1134559232	56	5000
2026-01-22 23:16:39.40	174.90	14.02	-42.9	-45.6	17.7	0.00e+00	0	38	0	1141899264	56	5196
2026-01-22 23:16:43.38	175.15	13.64	-43.1	-45.8	17.4	0.00e+00	0	39	0	1149239296	56	5339
2026-01-22 23:16:47.47	175.40	13.24	-43.2	-45.9	17.3	0.00e+00	0	38	0	1157627904	57	5098
2026-01-22 23:16:51.49	175.64	12.86	-43.2	-45.9	17.3	0.00e+00	0	38	0	1164967936	57	5096
2026-01-22 23:16:55.49	175.88	12.49	-43.2	-45.9	17.4	0.00e+00	0	38	0	1172307968	57	5056
2026-01-22 23:16:59.46	176.11	12.13	-43.1	-45.8	17.5	0.00e+00	0	39	0	1179648000	57	5000
2026-01-22 23:17:03.45	176.33	11.77	-43.0	-45.8	17.4	0.00e+00	0	39	0	1186988032	57	5004
2026-01-22 23:17:07.43	176.55	11.41	-42.8	-45.6	17.6	0.00e+00	0	38	0	1194328064	57	4919
2026-01-22 23:17:11.41	176.76	11.06	-42.7	-45.7	17.5	0.00e+00	0	39	0	1201668096	57	4941
2026-01-22 23:17:15.39	176.97	10.71	-42.5	-45.7	17.4	0.00e+00	0	38	0	1209008128	57	4983
2026-01-22 23:17:19.41	177.17	10.37	-42.5	-45.9	17.2	0.00e+00	0	38	0	1217396736	57	5094
2026-01-22 23:17:23.42	177.37	10.03	-42.8	-46.3	16.9	0.00e+00	0	38	0	1224736768	57	5324
2026-01-22 23:17:27.41	177.57	9.70	-43.1	-46.5	16.6	0.00e+00	0	38	0	1232076800	57	5439
2026-01-22 23:17:31.39	177.76	9.37	-43.3	-46.7	16.4	0.00e+00	0	38	0	1239416832	57	5577
2026-01-22 23:17:35.37	177.94	9.04	-43.5	-47.0	16.2	0.00e+00	0	38	0	1246756864	57	5752
2026-01-22 23:17:39.64	178.14	8.70	-49.3	-64.8	3.8	1.49e+00	0	38	104	1247805440	69	22396
2026-01-22 23:17:43.84	178.33	8.36	-49.6	-64.9	3.8	1.49e+00	0	38	104	1247805440	69	22665
2026-01-22 23:17:47.83	178.50	8.05	-49.7	-65.0	3.8	1.49e+00	0	38	104	1247805440	70	21667
2026-01-22 23:17:51.80	178.67	7.74	-49.6	-65.0	3.8	1.49e+00	0	39	104	1247805440	70	21710
2026-01-22 23:17:55.78	178.84	7.44	-49.6	-65.0	3.8	1.49e+00	0	39	104	1247805440	70	21617
2026-01-22 23:17:59.83	179.01	7.13	-49.8	-65.0	3.8	1.49e+00	0	39	104	1247805440	70	21677
2026-01-22 23:18:03.82	179.17	6.83	-49.4	-65.0	3.8	1.49e+00	0	38	104	1247805440	70	21609
2026-01-22 23:18:07.80	179.33	6.53	-49.6	-64.9	3.8	1.49e+00	0	39	104	1247805440	70	21488
2026-01-22 23:18:11.78	179.48	6.24	-49.6	-65.0	3.8	1.49e+00	0	38	104	1247805440	70	21541
2026-01-22 23:18:15.76	179.64	5.95	-49.6	-64.9	3.8	1.49e+00	0	38	104	1247805440	70	21447
2026-01-22 23:18:19.73	179.79	5.67	-49.6	-65.0	3.8	1.49e+00	0	39	104	1247805440	70	21548
2026-01-22 23:18:23.70	179.93	5.39	-49.6	-64.9	3.8	1.49e+00	0	38	104	1247805440	70	21499
2026-01-22 23:18:27.68	180.08	5.11	-49.5	-64.9	3.8	1.49e+00	0	39	104	1247805440	70	21497

#Closed at: 2026-01-22 23:18:30
#Recorded file [1247 MB]: D:/Data/31040_260123_020546.dat