passes_logs/2026/01/22/T1/T1__20260122_113138_AQUA_rec.log

#Pass ID: 20260122_113138_AQUA
#Satellite: AQUA
#Configuration: AQUA
#almurnet v.1.7.20251203
#Start time: 2026-01-22 11:31:38

#Version: 2.0.20230620
#Station: T1
#Location: 37.570604 lon 55.790049 lat
#TLE: 1 27424U 02022A   26021.53721517  .00002456  00000+0  50140-3 0  9996
#TLE: 2 27424  98.4098 348.0744 0002012  70.1009  46.1672 14.61843091261845

#Time	Az	El	Level	Level2	SNR	BER	BlckErr	Temp	State	Recorded	gain1	gain2
2026-01-22 11:31:38.10	155.49	5.03	-50.1	-70.5	3.8	7.46e-01	0	35	0	0	72	36416
2026-01-22 11:31:41.07	155.46	5.26	-50.2	-68.6	3.9	7.44e-01	0	35	104	0	71	31067
2026-01-22 11:31:44.05	155.43	5.49	-50.2	-69.2	3.8	7.45e-01	0	35	104	0	71	33285
2026-01-22 11:31:47.03	155.40	5.72	-50.2	-70.9	3.8	7.45e-01	0	35	104	0	71	40483
2026-01-22 11:31:50.01	155.36	5.95	-50.2	-70.0	3.8	7.43e-01	0	35	104	0	71	36324
2026-01-22 11:31:52.99	155.33	6.18	-50.1	-66.5	4.6	7.19e-01	0	36	104	0	71	24240
2026-01-22 11:31:55.97	155.30	6.42	-50.1	-65.5	5.1	7.06e-01	0	35	0	0	71	21555
2026-01-22 11:31:58.95	155.26	6.66	-50.2	-67.7	3.9	7.44e-01	0	35	104	0	71	27719
2026-01-22 11:32:01.93	155.23	6.90	-50.2	-71.0	3.8	7.46e-01	0	35	104	0	71	40929
2026-01-22 11:32:04.91	155.19	7.15	-50.2	-70.0	3.8	7.45e-01	0	36	104	0	71	36175
2026-01-22 11:32:07.89	155.16	7.39	-50.1	-66.7	4.5	7.22e-01	0	36	104	0	71	24800
2026-01-22 11:32:10.87	155.12	7.64	-49.7	-60.7	9.1	6.33e-01	0	36	0	3145728	71	12505
2026-01-22 11:32:13.85	155.08	7.90	-48.6	-55.3	14.8	6.05e-01	0	36	0	8912896	69	7470
2026-01-22 11:32:16.83	155.04	8.15	-47.1	-51.9	18.1	6.07e-01	0	36	0	14155776	66	6017
2026-01-22 11:32:19.81	155.00	8.41	-46.5	-50.7	19.3	6.06e-01	0	36	0	19922944	65	5568
2026-01-22 11:32:22.79	154.96	8.67	-47.0	-51.5	18.5	6.05e-01	0	36	0	25690112	65	6115
2026-01-22 11:32:25.77	154.92	8.94	-48.3	-54.7	15.3	6.07e-01	0	36	0	30932992	67	7868
2026-01-22 11:32:28.75	154.88	9.20	-46.6	-50.5	19.7	6.07e-01	0	36	0	36700160	63	6085
2026-01-22 11:32:31.74	154.84	9.47	-45.5	-48.7	20.9	6.07e-01	0	36	0	40894464	63	4957
2026-01-22 11:32:34.72	154.79	9.75	-44.8	-47.7	22.3	6.08e-01	0	36	0	46661632	61	4943
2026-01-22 11:32:37.99	154.74	10.05	-44.0	-46.7	23.2	6.06e-01	0	36	0	52428800	60	4697
2026-01-22 11:32:40.72	154.70	10.31	-44.1	-46.8	23.2	6.05e-01	0	37	0	57671680	60	4710
2026-01-22 11:32:44.00	154.65	10.62	-44.1	-46.8	23.3	6.07e-01	0	37	0	63963136	59	5012
2026-01-22 11:32:46.85	154.60	10.90	-44.1	-46.8	23.3	6.06e-01	0	37	0	69206016	59	4991
2026-01-22 11:32:50.24	154.54	11.23	-43.9	-46.7	23.4	6.05e-01	0	36	0	75497472	59	4943
2026-01-22 11:32:52.96	154.49	11.50	-43.8	-46.6	23.5	6.06e-01	0	36	0	80740352	59	4906
2026-01-22 11:32:56.23	154.43	11.83	-43.9	-46.8	23.3	6.08e-01	0	37	0	87031808	59	5005
2026-01-22 11:32:58.93	154.39	12.11	-43.6	-46.4	23.7	6.09e-01	0	37	0	91750400	59	4772
2026-01-22 11:33:02.15	154.32	12.44	-43.6	-46.3	23.8	6.07e-01	0	37	0	98041856	59	4722
2026-01-22 11:33:04.99	154.27	12.74	-43.6	-46.2	23.8	6.07e-01	0	37	0	103284736	59	4684
2026-01-22 11:33:08.12	154.21	13.08	-43.4	-46.0	24.1	6.07e-01	0	37	0	109051904	58	4867
2026-01-22 11:33:10.96	154.15	13.38	-43.3	-45.9	24.2	6.08e-01	0	37	0	114294784	58	4793
2026-01-22 11:33:14.09	154.08	13.73	-43.4	-46.0	24.1	6.07e-01	0	37	0	120061952	58	4829
2026-01-22 11:33:17.12	154.02	14.07	-43.5	-46.1	24.0	6.07e-01	0	37	0	125829120	58	4911
2026-01-22 11:33:20.10	153.95	14.40	-43.3	-45.9	24.2	6.04e-01	0	37	0	131596288	58	4797
2026-01-22 11:33:23.09	153.89	14.75	-43.4	-46.0	24.2	6.06e-01	0	37	0	137363456	58	4821
2026-01-22 11:33:26.53	153.80	15.15	-43.4	-45.9	24.2	6.04e-01	0	37	0	143654912	58	4809
2026-01-22 11:33:29.25	153.74	15.48	-43.3	-45.9	24.3	6.08e-01	0	37	0	148897792	58	4764
2026-01-22 11:33:32.52	153.66	15.87	-43.4	-46.0	24.2	6.05e-01	0	37	0	154664960	58	4815
2026-01-22 11:33:35.26	153.59	16.21	-43.4	-45.9	24.3	6.06e-01	0	37	0	159907840	58	4793
2026-01-22 11:33:38.66	153.50	16.63	-43.4	-45.9	24.3	6.07e-01	0	37	0	166199296	58	4779
2026-01-22 11:33:41.68	153.42	17.02	-43.5	-46.0	24.2	6.06e-01	0	37	0	171966464	58	4855
2026-01-22 11:33:44.96	153.33	17.44	-43.6	-46.1	24.1	6.07e-01	0	37	0	178257920	58	4891
2026-01-22 11:33:47.68	153.25	17.80	-43.6	-46.1	24.2	6.04e-01	0	37	0	183500800	58	4902
2026-01-22 11:33:50.95	153.15	18.24	-43.6	-46.1	24.2	6.07e-01	0	37	0	189267968	58	4877
2026-01-22 11:33:53.83	153.06	18.64	-43.4	-45.9	24.4	6.07e-01	0	37	0	195035136	58	4766
2026-01-22 11:33:57.36	152.95	19.13	-43.5	-45.9	24.3	6.04e-01	0	37	0	201326592	58	4789
2026-01-22 11:34:00.54	152.84	19.58	-43.5	-45.9	24.3	6.09e-01	0	37	0	207618048	58	4809
2026-01-22 11:34:03.41	152.75	20.00	-43.5	-46.0	24.3	6.06e-01	0	37	0	212860928	58	4817
2026-01-22 11:34:06.54	152.64	20.46	-43.7	-46.1	24.2	6.07e-01	0	37	0	218628096	58	4918
2026-01-22 11:34:09.38	152.53	20.89	-43.5	-46.0	24.3	6.07e-01	0	37	0	223870976	58	4835
2026-01-22 11:34:12.51	152.42	21.37	-43.6	-46.0	24.2	6.09e-01	0	37	0	229638144	58	4851
2026-01-22 11:34:15.36	152.31	21.82	-43.6	-46.0	24.3	6.06e-01	0	37	0	235405312	58	4845
2026-01-22 11:34:18.50	152.18	22.32	-43.8	-46.3	24.1	6.07e-01	0	37	0	241172480	58	5006
2026-01-22 11:34:21.41	152.06	22.80	-43.8	-46.3	24.0	6.07e-01	0	37	0	246415360	58	5029
2026-01-22 11:34:24.39	151.93	23.29	-43.9	-46.4	23.9	6.08e-01	0	37	0	252182528	58	5097
2026-01-22 11:34:27.37	151.80	23.80	-43.8	-46.3	24.0	6.07e-01	0	37	0	257949696	58	5027
2026-01-22 11:34:30.36	151.66	24.32	-43.7	-46.2	24.1	6.07e-01	0	37	0	263192576	58	4959
2026-01-22 11:34:33.44	151.51	24.87	-43.6	-46.2	24.2	6.07e-01	0	37	0	268959744	58	4939
2026-01-22 11:34:36.31	151.37	25.39	-43.7	-46.3	24.1	6.05e-01	0	37	0	274726912	58	4990
2026-01-22 11:34:39.44	151.21	25.97	-43.7	-46.3	24.0	6.07e-01	0	37	0	280494080	58	5035
2026-01-22 11:34:42.28	151.05	26.51	-43.5	-46.2	24.2	6.07e-01	0	37	0	285736960	58	4960
2026-01-22 11:34:45.41	150.88	27.12	-43.4	-46.0	24.3	6.07e-01	0	37	0	291504128	58	4847
2026-01-22 11:34:48.25	150.71	27.68	-43.3	-45.8	24.5	6.06e-01	0	38	0	296747008	58	4755
2026-01-22 11:34:51.51	150.51	28.34	-43.2	-45.7	24.6	6.04e-01	0	37	0	303038464	58	4675
2026-01-22 11:34:54.74	150.31	29.02	-43.1	-45.5	24.8	6.06e-01	0	37	0	308805632	58	4563
2026-01-22 11:34:57.73	150.11	29.66	-43.1	-45.5	24.8	6.05e-01	0	37	0	314572800	58	4568
2026-01-22 11:35:00.71	149.90	30.31	-43.1	-45.5	24.8	6.09e-01	0	37	0	320339968	58	4573
2026-01-22 11:35:03.74	149.68	30.99	-43.2	-45.5	24.8	6.07e-01	0	37	0	326107136	58	4594
2026-01-22 11:35:06.72	149.46	31.67	-43.3	-45.7	24.7	6.05e-01	0	37	0	331350016	58	4684
2026-01-22 11:35:09.70	149.22	32.37	-43.3	-45.7	24.7	6.07e-01	0	37	0	337117184	58	4661
2026-01-22 11:35:12.69	148.97	33.09	-43.5	-46.0	24.4	6.05e-01	0	37	0	342884352	58	4826
2026-01-22 11:35:15.67	148.71	33.83	-43.8	-46.2	24.2	6.08e-01	0	37	0	348127232	58	4975
2026-01-22 11:35:18.66	148.44	34.59	-44.0	-46.5	23.9	6.06e-01	0	37	0	353894400	58	5140
2026-01-22 11:35:21.70	148.14	35.38	-44.2	-46.6	23.9	6.05e-01	0	37	0	359661568	58	5210
2026-01-22 11:35:25.22	147.79	36.32	-44.8	-47.4	23.1	6.07e-01	0	38	0	365953024	60	5079
2026-01-22 11:35:27.94	147.49	37.06	-44.6	-47.2	23.3	6.06e-01	0	37	0	371195904	60	4960
2026-01-22 11:35:31.21	147.12	37.98	-45.4	-48.1	22.4	6.06e-01	0	38	0	377487360	61	5216
2026-01-22 11:35:33.92	146.80	38.77	-45.2	-47.9	22.6	6.08e-01	0	37	0	382730240	61	5068
2026-01-22 11:35:37.19	146.38	39.73	-45.6	-48.5	22.1	6.06e-01	0	37	0	388497408	61	5429
2026-01-22 11:35:39.89	146.02	40.55	-45.1	-47.9	22.7	6.05e-01	0	38	0	393740288	61	5046
2026-01-22 11:35:43.22	145.55	41.59	-44.6	-47.2	23.2	6.06e-01	0	37	0	400031744	61	4655
2026-01-22 11:35:46.27	145.08	42.56	-44.4	-47.0	23.4	6.07e-01	0	37	0	405798912	60	4848
2026-01-22 11:35:49.13	144.62	43.50	-44.1	-46.6	23.9	6.05e-01	0	37	0	411041792	59	4903
2026-01-22 11:35:52.32	144.07	44.57	-43.9	-46.5	23.9	6.05e-01	0	38	0	416808960	59	4840
2026-01-22 11:35:55.16	143.55	45.55	-44.3	-46.8	23.7	6.08e-01	0	37	0	422576128	59	5034
2026-01-22 11:35:58.29	142.93	46.66	-44.0	-46.5	24.0	6.08e-01	0	37	0	428343296	59	4830
2026-01-22 11:36:01.22	142.31	47.71	-44.5	-47.1	23.5	6.04e-01	0	37	0	433586176	59	5165
2026-01-22 11:36:04.76	141.51	49.02	-43.7	-46.1	24.3	6.07e-01	0	37	0	440401920	59	4636
2026-01-22 11:36:07.49	140.83	50.06	-43.6	-46.0	24.4	6.07e-01	0	37	0	445644800	59	4567
2026-01-22 11:36:10.77	139.96	51.33	-43.7	-46.2	24.2	6.05e-01	0	37	0	451411968	58	4960
2026-01-22 11:36:13.48	139.17	52.40	-43.1	-45.4	25.0	6.04e-01	0	37	0	456654848	57	4785
2026-01-22 11:36:16.77	138.14	53.72	-42.8	-45.1	25.1	6.08e-01	0	37	0	462946304	57	4623
2026-01-22 11:36:19.72	137.12	54.93	-43.2	-45.6	24.8	6.07e-01	0	37	0	468189184	57	4895
2026-01-22 11:36:22.97	135.90	56.29	-43.8	-46.3	24.1	6.08e-01	0	37	0	474480640	58	5018
2026-01-22 11:36:25.84	134.71	57.50	-44.0	-46.6	23.8	6.08e-01	0	37	0	479723520	58	5217
2026-01-22 11:36:29.12	133.22	58.91	-44.0	-46.5	23.9	6.08e-01	0	37	0	486014976	59	4863
2026-01-22 11:36:31.87	131.83	60.10	-44.3	-46.8	23.7	6.08e-01	0	37	0	491257856	59	5025
2026-01-22 11:36:35.15	130.00	61.53	-44.4	-46.9	23.5	6.05e-01	0	37	0	497025024	60	4795
2026-01-22 11:36:37.85	128.33	62.70	-45.0	-47.7	22.8	6.04e-01	0	37	0	502267904	61	4952
2026-01-22 11:36:41.31	125.92	64.21	-45.7	-48.6	21.9	6.08e-01	0	37	0	509083648	62	5188
2026-01-22 11:36:44.01	123.82	65.37	-46.1	-49.6	21.1	6.08e-01	0	37	0	513802240	62	5804
2026-01-22 11:36:47.29	120.94	66.76	-46.6	-50.3	20.3	6.08e-01	0	37	0	520093696	64	5630
2026-01-22 11:36:49.99	118.27	67.88	-47.2	-50.7	20.0	6.07e-01	0	37	0	525336576	65	5564
2026-01-22 11:36:53.26	114.63	69.19	-47.4	-51.1	19.6	6.06e-01	0	37	0	531103744	65	5817
2026-01-22 11:36:55.96	111.24	70.21	-46.6	-50.0	20.6	6.06e-01	0	37	0	536346624	65	5133
2026-01-22 11:36:59.25	106.58	71.38	-46.2	-49.5	21.1	6.08e-01	0	37	0	542638080	64	5110
2026-01-22 11:37:01.99	102.22	72.26	-46.5	-49.7	21.0	6.07e-01	0	37	0	547356672	63	5589
2026-01-22 11:37:05.26	96.43	73.17	-46.3	-49.7	21.0	6.05e-01	0	37	0	553648128	63	5529
2026-01-22 11:37:07.97	91.15	73.80	-46.6	-50.0	20.7	6.07e-01	0	38	0	558891008	64	5425
2026-01-22 11:37:11.27	84.19	74.37	-46.1	-49.2	21.4	6.08e-01	0	37	0	565182464	63	5239
2026-01-22 11:37:13.97	78.17	74.67	-45.9	-48.9	21.7	6.06e-01	0	37	0	569901056	63	5053
2026-01-22 11:37:17.27	70.59	74.80	-46.2	-49.4	21.3	6.07e-01	0	38	0	576192512	63	5382
2026-01-22 11:37:20.19	63.87	74.70	-46.2	-49.3	21.3	6.06e-01	0	37	0	581959680	64	5007
2026-01-22 11:37:23.17	57.19	74.39	-46.3	-49.4	21.3	6.07e-01	0	38	0	587202560	64	5075
2026-01-22 11:37:26.17	50.83	73.89	-46.4	-49.7	21.0	6.07e-01	0	38	0	592969728	64	5231
2026-01-22 11:37:29.12	45.03	73.23	-46.8	-50.0	20.7	6.07e-01	0	37	0	598736896	64	5428
2026-01-22 11:37:32.63	38.80	72.25	-47.7	-51.6	19.1	6.07e-01	0	37	0	605028352	66	5805
2026-01-22 11:37:35.39	34.42	71.36	-48.0	-51.9	18.8	6.06e-01	0	37	0	610271232	67	5710
2026-01-22 11:37:38.73	29.71	70.18	-47.9	-51.9	18.8	6.07e-01	0	38	0	616562688	67	5689
2026-01-22 11:37:41.44	26.33	69.15	-48.0	-51.9	18.8	6.08e-01	0	38	0	621805568	67	5681
2026-01-22 11:37:44.71	22.70	67.85	-48.5	-53.0	18.0	6.09e-01	0	37	0	627572736	68	6066
2026-01-22 11:37:47.41	20.05	66.73	-48.9	-53.5	17.5	6.09e-01	0	38	0	632815616	68	6432
2026-01-22 11:37:50.69	17.19	65.34	-47.3	-50.8	19.9	6.07e-01	0	37	0	639107072	66	5314
2026-01-22 11:37:53.69	14.88	64.05	-45.9	-48.9	21.7	6.06e-01	0	38	0	644349952	63	5098
2026-01-22 11:37:56.96	12.63	62.63	-45.6	-48.5	22.2	6.07e-01	0	38	0	650641408	63	4829
2026-01-22 11:37:59.67	10.97	61.45	-45.1	-48.0	22.6	6.06e-01	0	37	0	655884288	62	4817
2026-01-22 11:38:02.93	9.16	60.04	-44.8	-47.4	23.1	6.07e-01	0	38	0	661651456	61	4810
2026-01-22 11:38:05.66	7.80	58.86	-44.5	-47.1	23.4	6.06e-01	0	37	0	666894336	60	4906
2026-01-22 11:38:09.17	6.22	57.36	-44.1	-46.7	23.8	6.06e-01	0	38	0	673710080	59	4976
2026-01-22 11:38:11.93	5.09	56.20	-43.3	-45.7	24.8	6.06e-01	0	38	0	678952960	58	4678
2026-01-22 11:38:15.29	3.84	54.81	-42.8	-45.1	25.1	6.06e-01	0	38	0	685244416	57	4636
2026-01-22 11:38:17.99	2.92	53.71	-42.8	-45.0	25.3	6.07e-01	0	38	0	689963008	57	4585
2026-01-22 11:38:21.26	1.90	52.40	-42.7	-45.0	25.2	6.04e-01	0	37	0	696254464	57	4587
2026-01-22 11:38:23.96	1.12	51.33	-43.2	-45.6	24.8	6.06e-01	0	38	0	701497344	57	4875
2026-01-22 11:38:27.24	0.25	50.07	-43.7	-46.1	24.3	6.06e-01	0	38	0	707264512	58	4925
2026-01-22 11:38:30.09	359.55	49.00	-43.4	-45.7	24.7	6.05e-01	0	37	0	712507392	58	4705
2026-01-22 11:38:33.21	358.84	47.84	-44.0	-46.5	24.0	6.05e-01	0	38	0	718798848	58	5139
2026-01-22 11:38:36.12	358.22	46.80	-43.6	-46.1	24.4	6.05e-01	0	38	0	724041728	58	4879
2026-01-22 11:38:39.31	357.60	45.67	-43.3	-45.7	24.7	6.07e-01	0	37	0	730333184	58	4692
2026-01-22 11:38:42.15	357.07	44.70	-43.7	-46.2	24.2	6.08e-01	0	37	0	735576064	58	4950
2026-01-22 11:38:45.50	356.50	43.58	-43.6	-46.1	24.3	6.05e-01	0	37	0	741867520	58	4918
2026-01-22 11:38:48.23	356.06	42.69	-44.1	-46.6	24.0	6.06e-01	0	37	0	746586112	58	5176
2026-01-22 11:38:51.52	355.56	41.64	-44.7	-47.4	23.1	6.04e-01	0	37	0	752877568	60	5071
2026-01-22 11:38:54.24	355.17	40.79	-44.8	-47.5	23.0	6.07e-01	0	38	0	758120448	60	5131
2026-01-22 11:38:57.51	354.73	39.80	-45.1	-47.7	22.7	6.07e-01	0	38	0	764411904	60	5278
2026-01-22 11:39:00.34	354.37	38.97	-45.2	-48.0	22.5	6.07e-01	0	37	0	769654784	61	5154
2026-01-22 11:39:03.74	353.97	37.99	-44.6	-47.7	22.8	6.06e-01	0	38	0	775946240	61	4962
2026-01-22 11:39:06.45	353.66	37.23	-44.7	-47.7	22.7	6.07e-01	0	37	0	780664832	61	4981
2026-01-22 11:39:09.73	353.31	36.34	-44.0	-46.7	23.7	6.07e-01	0	38	0	786956288	60	4675
2026-01-22 11:39:12.46	353.03	35.61	-44.2	-46.8	23.7	6.07e-01	0	38	0	792199168	59	5029
2026-01-22 11:39:15.76	352.72	34.75	-43.9	-46.4	24.0	6.05e-01	0	38	0	798490624	59	4796
2026-01-22 11:39:18.51	352.46	34.06	-43.0	-45.5	24.3	6.06e-01	0	38	0	803733504	57	4845
2026-01-22 11:39:22.07	352.15	33.18	-43.3	-45.8	24.6	6.07e-01	0	37	0	810024960	57	5002
2026-01-22 11:39:24.79	351.93	32.53	-43.2	-45.7	24.6	6.05e-01	0	37	0	815267840	57	4953
2026-01-22 11:39:28.06	351.67	31.76	-43.1	-45.6	24.8	6.07e-01	0	38	0	821559296	57	4885
2026-01-22 11:39:30.90	351.46	31.11	-42.9	-45.3	24.9	6.07e-01	0	38	0	826802176	57	4737
2026-01-22 11:39:34.03	351.23	30.41	-42.8	-45.1	25.2	6.07e-01	0	37	0	832569344	57	4629
2026-01-22 11:39:36.87	351.04	29.79	-42.8	-45.2	25.1	6.07e-01	0	37	0	837812224	57	4663
2026-01-22 11:39:40.11	350.82	29.10	-42.9	-45.3	25.0	6.06e-01	0	37	0	844103680	57	4719
2026-01-22 11:39:42.95	350.64	28.51	-43.2	-45.5	24.8	6.07e-01	0	38	0	849346560	57	4855
2026-01-22 11:39:46.08	350.46	27.88	-43.3	-45.8	24.6	6.07e-01	0	37	0	855113728	57	4985
2026-01-22 11:39:49.00	350.29	27.30	-43.5	-46.0	24.3	6.06e-01	0	38	0	860880896	57	5155
2026-01-22 11:39:51.98	350.12	26.72	-43.5	-46.0	24.3	6.05e-01	0	38	0	866123776	57	5139
2026-01-22 11:39:54.97	349.96	26.15	-43.6	-46.2	24.2	6.06e-01	0	38	0	871890944	57	5237
2026-01-22 11:39:57.95	349.81	25.60	-43.7	-46.3	24.1	6.08e-01	0	37	0	877658112	58	5010
2026-01-22 11:40:00.96	349.66	25.06	-43.6	-46.2	24.2	6.05e-01	0	38	0	883425280	58	4968
2026-01-22 11:40:03.94	349.52	24.53	-43.7	-46.3	24.1	6.05e-01	0	37	0	888668160	58	4988
2026-01-22 11:40:06.93	349.38	24.01	-43.6	-46.5	23.9	6.06e-01	0	38	0	894435328	58	5115
2026-01-22 11:40:09.91	349.25	23.50	-43.6	-46.6	23.8	6.07e-01	0	37	0	900202496	58	5175
2026-01-22 11:40:12.90	349.12	23.00	-43.6	-46.5	23.9	6.07e-01	0	38	0	905445376	58	5121
2026-01-22 11:40:15.95	348.99	22.50	-44.0	-46.5	23.9	6.06e-01	0	38	0	911212544	58	5126
2026-01-22 11:40:18.79	348.88	22.05	-43.8	-46.3	24.0	6.06e-01	0	37	0	916455424	58	5020
2026-01-22 11:40:21.91	348.76	21.56	-43.7	-46.3	24.1	6.04e-01	0	37	0	922222592	58	5015
2026-01-22 11:40:24.76	348.65	21.12	-43.7	-46.2	24.1	6.08e-01	0	37	0	927989760	58	4979
2026-01-22 11:40:28.07	348.54	20.62	-43.8	-46.2	24.1	6.05e-01	0	37	0	933756928	58	4972
2026-01-22 11:40:30.98	348.44	20.19	-43.6	-46.2	24.1	6.08e-01	0	37	0	939524096	58	4970
2026-01-22 11:40:34.25	348.33	19.72	-43.6	-46.2	24.1	6.07e-01	0	37	0	945291264	58	4974
2026-01-22 11:40:36.95	348.24	19.34	-43.6	-46.2	24.1	6.06e-01	0	37	0	950534144	58	4975
2026-01-22 11:40:40.28	348.14	18.87	-43.6	-46.1	24.2	6.06e-01	0	38	0	956825600	58	4925
2026-01-22 11:40:43.18	348.05	18.48	-43.4	-46.1	24.2	6.04e-01	0	38	0	962068480	58	4902
2026-01-22 11:40:46.46	347.95	18.04	-43.2	-46.1	24.2	6.05e-01	0	38	0	968359936	58	4910
2026-01-22 11:40:49.20	347.87	17.67	-43.1	-46.3	24.0	6.05e-01	0	37	0	973602816	58	5013
2026-01-22 11:40:52.48	347.78	17.25	-43.4	-46.4	23.9	6.06e-01	0	38	0	979894272	58	5094
2026-01-22 11:40:55.24	347.71	16.90	-43.7	-46.4	23.9	6.07e-01	0	38	0	985137152	58	5083
2026-01-22 11:40:58.57	347.63	16.48	-43.8	-46.5	23.8	6.05e-01	0	37	0	991428608	58	5144
2026-01-22 11:41:01.63	347.55	16.10	-43.6	-46.5	23.8	6.07e-01	0	38	0	996671488	58	5104
2026-01-22 11:41:05.29	347.46	15.66	-43.5	-46.4	23.8	6.08e-01	0	38	0	1004011520	58	5100
2026-01-22 11:41:08.34	347.39	15.30	-43.6	-46.5	23.7	6.01e-01	0	37	0	1009254400	58	5133
2026-01-22 11:41:11.78	347.31	14.90	-43.7	-46.5	23.6	6.03e-01	0	38	0	1016070144	58	5109
2026-01-22 11:41:14.50	347.25	14.58	-43.7	-46.4	23.8	6.02e-01	0	37	0	1021313024	58	5072
2026-01-22 11:41:17.72	347.18	14.22	-43.6	-46.4	23.8	6.02e-01	0	38	0	1027080192	58	5046
2026-01-22 11:41:20.94	347.12	13.86	-43.4	-46.4	23.8	6.01e-01	0	37	0	1032847360	58	5050
2026-01-22 11:41:23.82	347.06	13.55	-43.3	-46.4	23.8	6.04e-01	0	37	0	1038614528	58	5043
2026-01-22 11:41:26.95	347.00	13.21	-43.4	-46.2	23.9	6.01e-01	0	38	0	1044381696	58	4978
2026-01-22 11:41:29.79	346.94	12.91	-43.5	-46.2	24.0	6.02e-01	0	37	0	1049624576	58	4939
2026-01-22 11:41:32.91	346.89	12.58	-43.7	-46.3	23.8	6.02e-01	0	37	0	1055391744	58	5026
2026-01-22 11:41:35.85	346.83	12.28	-43.5	-46.3	23.9	6.05e-01	0	38	0	1061158912	58	4995
2026-01-22 11:41:38.97	346.78	11.96	-43.1	-46.3	23.8	6.01e-01	0	38	0	1066926080	58	5020
2026-01-22 11:41:41.88	346.73	11.67	-42.6	-46.4	23.7	6.02e-01	0	38	0	1072168960	57	5376
2026-01-22 11:41:45.15	346.68	11.34	-42.6	-46.4	23.7	6.02e-01	0	38	0	1078460416	57	5386
2026-01-22 11:41:48.28	346.63	11.04	-42.7	-46.5	23.6	6.05e-01	0	37	0	1084227584	57	5440
2026-01-22 11:41:51.14	346.58	10.76	-42.7	-46.6	23.5	6.03e-01	0	37	0	1089470464	57	5504
2026-01-22 11:41:54.60	346.53	10.43	-42.4	-46.6	23.4	6.03e-01	0	38	0	1096286208	56	5838
2026-01-22 11:41:57.85	346.48	10.13	-42.1	-46.8	23.2	6.04e-01	0	38	0	1102053376	56	5967
2026-01-22 11:42:00.83	346.44	9.85	-42.1	-46.8	23.2	6.00e-01	0	38	0	1107820544	56	5983
2026-01-22 11:42:03.82	346.40	9.58	-42.1	-46.8	23.1	6.00e-01	0	38	0	1113587712	56	5929
2026-01-22 11:42:06.80	346.36	9.31	-41.9	-46.9	23.0	6.02e-01	0	38	0	1119354880	55	6388
2026-01-22 11:42:09.79	346.32	9.04	-41.7	-46.9	23.0	6.02e-01	0	38	0	1124597760	55	6351
2026-01-22 11:42:12.77	346.28	8.78	-50.2	-71.7	3.9	7.39e-01	0	38	104	1127219200	71	43976
2026-01-22 11:42:15.75	346.24	8.52	-50.8	-72.2	3.9	7.42e-01	0	38	104	1127219200	72	44111
2026-01-22 11:42:18.73	346.20	8.26	-51.4	-72.0	3.9	7.43e-01	0	38	104	1127219200	73	40717
2026-01-22 11:42:21.71	346.17	8.01	-51.1	-72.0	3.8	7.47e-01	0	38	104	1127219200	74	38631
2026-01-22 11:42:24.69	346.13	7.76	-51.5	-72.0	3.8	7.45e-01	0	38	104	1127219200	74	38648
2026-01-22 11:42:27.67	346.10	7.51	-51.8	-72.1	3.8	7.46e-01	0	38	104	1127219200	74	38735
2026-01-22 11:42:30.65	346.07	7.26	-52.1	-72.1	3.8	7.47e-01	0	38	104	1127219200	74	38704
2026-01-22 11:42:33.63	346.03	7.02	-51.7	-72.0	3.8	7.48e-01	0	38	104	1127219200	75	36472
2026-01-22 11:42:36.61	346.00	6.78	-51.9	-72.0	3.8	7.45e-01	0	38	104	1127219200	75	36400
2026-01-22 11:42:39.59	345.97	6.54	-51.6	-72.0	3.8	7.46e-01	0	38	104	1127219200	74	38336
2026-01-22 11:42:42.57	345.94	6.31	-51.6	-72.0	3.8	7.47e-01	0	38	104	1127219200	74	38314
2026-01-22 11:42:45.55	345.91	6.07	-51.6	-72.0	3.8	7.45e-01	0	38	104	1127219200	74	38269
2026-01-22 11:42:48.53	345.89	5.84	-51.6	-72.0	3.8	7.46e-01	0	38	104	1127219200	74	38273
2026-01-22 11:42:51.51	345.86	5.61	-51.6	-72.0	3.8	7.46e-01	0	38	104	1127219200	74	38301
2026-01-22 11:42:54.49	345.83	5.39	-51.6	-71.9	3.8	7.46e-01	0	38	104	1127219200	74	38192
2026-01-22 11:42:57.47	345.80	5.16	-51.6	-71.9	3.8	7.46e-01	0	38	104	1127219200	74	38130
2026-01-22 11:43:00.45	345.78	4.94	-51.6	-71.9	3.8	7.48e-01	0	38	104	1127219200	74	38172

#Closed at: 2026-01-22 11:43:01
#Recorded file [1127 MB]: D:/Data/31040_260122_143138.dat