passes_logs/2026/01/22/T1/T1__20260122_050608_FENGYUN_3E_rec.log

#Pass ID: 20260122_050608_FENGYUN 3E
#Satellite: FENGYUN 3E
#Configuration: FENGYUN 3E
#almurnet v.1.7.20251203
#Start time: 2026-01-22 05:06:10

#Version: 2.0.20230620
#Station: T1
#Location: 37.570604 lon 55.790049 lat
#TLE: 1 49008U 21062A   26021.55921410  .00000414  00000+0  21575-3 0  9991
#TLE: 2 49008  98.7483  26.6103 0002287 125.5068 234.6322 14.19887394235776

#Time	Az	El	Level	Level2	SNR	BER	BlckErr	Temp	State	Recorded	gain1	gain2
2026-01-22 05:06:10.38	9.40	5.13	-48.4	-61.0	3.8	8.45e-01	0	35	0	0	66	15969
2026-01-22 05:06:13.36	9.23	5.33	-48.4	-60.9	3.8	8.47e-01	0	35	104	0	66	15939
2026-01-22 05:06:16.33	9.06	5.53	-48.4	-61.0	3.8	8.47e-01	0	36	104	0	66	16012
2026-01-22 05:06:19.32	8.89	5.73	-48.4	-60.9	3.8	8.46e-01	0	36	104	0	66	15820
2026-01-22 05:06:22.30	8.72	5.94	-48.4	-60.9	3.8	8.48e-01	0	36	104	0	66	15811
2026-01-22 05:06:25.28	8.54	6.14	-48.4	-60.9	3.8	8.48e-01	0	36	104	0	66	15879
2026-01-22 05:06:28.25	8.37	6.35	-48.4	-60.9	3.8	8.46e-01	0	36	104	0	66	15820
2026-01-22 05:06:31.23	8.19	6.55	-48.4	-60.9	3.8	8.46e-01	0	36	104	0	66	15785
2026-01-22 05:06:34.21	8.00	6.76	-48.4	-60.7	3.8	8.47e-01	0	36	104	0	66	15535
2026-01-22 05:06:37.19	7.82	6.97	-48.3	-60.0	3.8	8.48e-01	0	36	104	0	66	14318
2026-01-22 05:06:40.17	7.63	7.18	-48.1	-58.3	3.9	8.45e-01	0	36	104	0	66	11747
2026-01-22 05:06:43.15	7.43	7.39	-48.0	-57.1	4.3	8.35e-01	0	36	0	0	66	10236
2026-01-22 05:06:46.13	7.24	7.61	-48.1	-58.1	3.9	8.42e-01	0	37	104	0	66	11521
2026-01-22 05:06:49.11	7.04	7.82	-48.3	-59.8	3.8	8.47e-01	0	37	104	0	66	14041
2026-01-22 05:06:52.09	6.84	8.04	-48.4	-60.9	3.8	8.47e-01	0	37	104	0	66	15900
2026-01-22 05:06:55.07	6.63	8.26	-47.7	-55.3	5.1	8.07e-01	0	37	0	0	66	8323
2026-01-22 05:06:58.04	6.42	8.48	-45.2	-48.4	11.5	1.66e-03	0	37	0	18874368	61	5014
2026-01-22 05:07:01.02	6.21	8.70	-43.0	-44.9	15.0	0.00e+00	0	37	0	39845888	56	4477
2026-01-22 05:07:04.00	6.00	8.92	-41.9	-43.6	16.1	0.00e+00	0	37	0	61865984	54	4314
2026-01-22 05:07:06.98	5.78	9.15	-41.9	-43.6	16.2	0.00e+00	0	37	0	82837504	54	4305
2026-01-22 05:07:09.97	5.56	9.38	-40.1	-41.3	18.4	0.00e+00	0	37	0	104857600	50	4191
2026-01-22 05:07:12.95	5.33	9.60	-39.8	-41.1	18.6	0.00e+00	0	37	0	125829120	50	4075
2026-01-22 05:07:15.94	5.10	9.83	-39.6	-40.8	18.9	0.00e+00	0	37	0	147849216	49	4177
2026-01-22 05:07:19.00	4.86	10.07	-39.5	-40.6	19.1	0.00e+00	0	37	0	169869312	49	4088
2026-01-22 05:07:21.86	4.63	10.30	-39.5	-40.6	19.1	0.00e+00	0	37	0	190840832	49	4082
2026-01-22 05:07:24.98	4.38	10.54	-39.3	-40.4	19.3	0.00e+00	0	37	0	212860928	49	4000
2026-01-22 05:07:27.82	4.15	10.77	-39.5	-40.6	19.1	0.00e+00	0	37	0	232783872	49	4097
2026-01-22 05:07:31.09	3.87	11.03	-39.6	-40.7	19.0	0.00e+00	0	37	0	256901120	49	4134
2026-01-22 05:07:33.85	3.64	11.25	-39.6	-40.7	19.1	0.00e+00	0	37	0	276824064	49	4106
2026-01-22 05:07:37.14	3.35	11.52	-39.4	-40.4	19.3	0.00e+00	0	37	0	300941312	49	4002
2026-01-22 05:07:39.90	3.11	11.74	-39.3	-40.3	19.4	0.00e+00	0	37	0	320864256	49	3945
2026-01-22 05:07:43.18	2.81	12.02	-39.2	-40.3	19.4	0.00e+00	0	37	0	343932928	48	4155
2026-01-22 05:07:46.01	2.55	12.25	-39.1	-40.1	19.3	0.00e+00	0	37	0	364904448	48	4085
2026-01-22 05:07:49.14	2.26	12.51	-39.0	-40.0	19.8	0.00e+00	0	37	0	386924544	48	4021
2026-01-22 05:07:51.99	1.99	12.75	-39.0	-40.0	19.8	0.00e+00	0	37	0	407896064	48	4018
2026-01-22 05:07:55.13	1.69	13.02	-38.8	-39.8	20.0	0.00e+00	0	37	0	429916160	48	3926
2026-01-22 05:07:58.40	1.36	13.30	-38.9	-39.9	19.9	0.00e+00	0	38	0	454033408	48	3992
2026-01-22 05:08:01.12	1.09	13.54	-38.7	-39.7	20.1	0.00e+00	0	37	0	473956352	48	3888
2026-01-22 05:08:04.60	0.74	13.84	-38.7	-39.7	19.9	0.00e+00	0	38	0	499122176	47	4112
2026-01-22 05:08:07.55	0.43	14.10	-38.7	-39.7	19.9	0.00e+00	0	38	0	520093696	47	4119
2026-01-22 05:08:10.53	0.11	14.36	-38.5	-39.5	20.1	0.00e+00	0	38	0	541065216	47	4017
2026-01-22 05:08:13.51	359.79	14.63	-38.3	-39.2	20.3	0.00e+00	0	38	0	563085312	46	4141
2026-01-22 05:08:16.50	359.46	14.89	-38.3	-39.2	20.3	0.00e+00	0	38	0	585105408	46	4143
2026-01-22 05:08:19.49	359.13	15.16	-38.2	-39.2	20.3	0.00e+00	0	38	0	606076928	46	4134
2026-01-22 05:08:22.47	358.79	15.44	-38.1	-39.1	20.5	0.00e+00	0	37	0	628097024	46	4055
2026-01-22 05:08:25.46	358.44	15.71	-38.2	-39.1	20.4	0.00e+00	0	37	0	649068544	46	4098
2026-01-22 05:08:28.44	358.08	15.99	-38.2	-39.2	20.4	0.00e+00	0	38	0	671088640	46	4122
2026-01-22 05:08:31.43	357.72	16.26	-38.1	-39.1	20.5	0.00e+00	0	38	0	692060160	46	4064
2026-01-22 05:08:34.41	357.36	16.54	-38.0	-39.0	20.5	0.00e+00	0	38	0	714080256	45	4265
2026-01-22 05:08:37.40	356.98	16.83	-38.0	-39.0	20.6	0.00e+00	0	38	0	736100352	45	4276
2026-01-22 05:08:40.38	356.60	17.11	-37.9	-38.9	20.7	0.00e+00	0	38	0	757071872	45	4211
2026-01-22 05:08:43.37	356.21	17.39	-37.8	-38.8	20.8	0.00e+00	0	38	0	779091968	45	4177
2026-01-22 05:08:46.34	355.81	17.68	-37.6	-38.6	21.0	0.00e+00	0	38	0	800063488	45	4059
2026-01-22 05:08:49.43	355.39	17.98	-37.7	-38.6	21.0	0.00e+00	0	38	0	822083584	45	4076
2026-01-22 05:08:52.28	355.00	18.26	-37.6	-38.6	21.0	0.00e+00	0	38	0	843055104	45	4067
2026-01-22 05:08:55.40	354.56	18.57	-37.5	-38.5	21.0	0.00e+00	0	38	0	866123776	45	4023
2026-01-22 05:08:58.25	354.15	18.85	-37.6	-38.5	21.0	0.00e+00	0	38	0	886046720	45	4049
2026-01-22 05:09:01.37	353.69	19.16	-37.4	-38.3	21.2	0.00e+00	0	38	0	909115392	45	3951
2026-01-22 05:09:04.22	353.26	19.44	-37.2	-38.1	21.5	0.00e+00	0	38	0	929038336	45	3834
2026-01-22 05:09:07.59	352.74	19.78	-36.8	-37.7	21.8	0.00e+00	0	38	0	954204160	44	3894
2026-01-22 05:09:10.31	352.32	20.06	-36.7	-37.6	21.7	0.00e+00	0	38	0	973078528	43	4072
2026-01-22 05:09:13.61	351.79	20.39	-36.7	-37.6	21.7	0.00e+00	0	38	0	997195776	43	4084
2026-01-22 05:09:16.32	351.35	20.67	-37.0	-37.9	21.5	0.00e+00	0	38	0	1016070144	43	4208
2026-01-22 05:09:19.62	350.80	21.01	-37.2	-38.1	21.4	0.00e+00	0	38	0	1040187392	43	4300
2026-01-22 05:09:22.67	350.28	21.33	-37.3	-38.2	21.4	0.00e+00	0	38	0	1062207488	44	4119
2026-01-22 05:09:25.98	349.71	21.67	-37.1	-38.0	21.6	0.00e+00	0	38	0	1086324736	44	4031
2026-01-22 05:09:28.85	349.20	21.97	-37.1	-38.0	21.6	0.00e+00	0	38	0	1107296256	44	4023
2026-01-22 05:09:31.98	348.63	22.30	-37.0	-37.9	21.7	0.00e+00	0	38	0	1129316352	44	3978
2026-01-22 05:09:34.82	348.11	22.60	-37.0	-37.9	21.7	0.00e+00	0	38	0	1150287872	44	3961
2026-01-22 05:09:37.95	347.52	22.93	-36.8	-37.7	21.8	0.00e+00	0	38	0	1172307968	44	3907
2026-01-22 05:09:40.79	346.97	23.23	-36.8	-37.7	21.8	0.00e+00	0	38	0	1193279488	44	3899
2026-01-22 05:09:44.14	346.31	23.58	-36.9	-37.8	21.8	0.00e+00	0	38	0	1217396736	44	3933
2026-01-22 05:09:46.92	345.75	23.88	-36.8	-37.7	21.8	0.00e+00	0	38	0	1237319680	44	3897
2026-01-22 05:09:50.09	345.10	24.21	-36.3	-37.2	22.2	0.00e+00	0	38	0	1260388352	43	3870
2026-01-22 05:09:52.93	344.51	24.51	-36.0	-36.9	22.4	0.00e+00	0	38	0	1280311296	42	3982
2026-01-22 05:09:56.09	343.83	24.85	-36.0	-36.8	22.5	0.00e+00	0	38	0	1303379968	42	3940
2026-01-22 05:09:59.33	343.12	25.19	-35.9	-36.8	22.5	0.00e+00	0	38	0	1326448640	42	3914
2026-01-22 05:10:02.31	342.46	25.51	-36.0	-36.9	22.4	0.00e+00	0	38	0	1348468736	42	3986
2026-01-22 05:10:05.29	341.78	25.83	-36.1	-37.0	22.3	0.00e+00	0	38	0	1370488832	42	4009
2026-01-22 05:10:08.28	341.09	26.14	-36.1	-36.9	22.4	0.00e+00	0	38	0	1391460352	42	3997
2026-01-22 05:10:11.27	340.38	26.46	-36.2	-37.1	22.3	0.00e+00	0	38	0	1413480448	42	4055
2026-01-22 05:10:14.38	339.62	26.78	-36.3	-37.2	22.2	0.00e+00	0	38	0	1435500544	42	4109
2026-01-22 05:10:17.22	338.92	27.08	-36.4	-37.4	22.0	0.00e+00	0	38	0	1456472064	42	4203
2026-01-22 05:10:20.35	338.13	27.41	-36.2	-37.1	22.2	0.00e+00	0	38	0	1478492160	42	4077
2026-01-22 05:10:23.19	337.41	27.70	-36.4	-37.2	22.1	0.00e+00	0	38	0	1499463680	42	4136
2026-01-22 05:10:26.36	336.58	28.02	-36.4	-37.2	22.1	0.00e+00	0	38	0	1522532352	42	4137
2026-01-22 05:10:29.31	335.79	28.32	-36.4	-37.3	22.1	0.00e+00	0	38	0	1543503872	42	4153
2026-01-22 05:10:32.58	334.90	28.65	-36.2	-37.0	22.3	0.00e+00	0	38	0	1566572544	42	4048
2026-01-22 05:10:35.50	334.09	28.94	-35.9	-36.8	22.5	0.00e+00	0	38	0	1588592640	42	3921
2026-01-22 05:10:38.79	333.15	29.26	-35.8	-36.7	22.6	0.00e+00	0	38	0	1611661312	42	3881
2026-01-22 05:10:41.52	332.37	29.52	-36.0	-36.8	22.5	0.00e+00	0	38	0	1631584256	42	3951
2026-01-22 05:10:44.79	331.41	29.83	-35.9	-36.8	22.5	0.00e+00	0	38	0	1655701504	42	3916
2026-01-22 05:10:47.61	330.56	30.10	-36.2	-37.1	22.2	0.00e+00	0	38	0	1675624448	42	4068
2026-01-22 05:10:51.07	329.51	30.41	-36.1	-37.0	22.3	0.00e+00	0	38	0	1700790272	42	4042
2026-01-22 05:10:53.84	328.65	30.66	-35.8	-36.7	22.6	0.00e+00	0	38	0	1720713216	42	3887
2026-01-22 05:10:57.12	327.62	30.95	-35.7	-36.6	22.7	0.00e+00	0	38	0	1743781888	42	3828
2026-01-22 05:10:59.90	326.73	31.18	-35.8	-36.7	22.6	0.00e+00	0	38	0	1764753408	42	3869
2026-01-22 05:11:03.18	325.66	31.45	-35.7	-36.5	22.7	0.00e+00	0	38	0	1787822080	42	3805
2026-01-22 05:11:05.90	324.76	31.67	-35.9	-36.8	22.5	0.00e+00	0	38	0	1807745024	42	3920
2026-01-22 05:11:09.21	323.65	31.93	-35.6	-36.5	22.7	0.00e+00	0	38	0	1831862272	42	3799
2026-01-22 05:11:12.25	322.62	32.15	-35.3	-36.1	23.0	0.00e+00	0	38	0	1853882368	41	3853
2026-01-22 05:11:15.58	321.47	32.39	-35.4	-36.3	22.9	0.00e+00	0	38	0	1876951040	41	3917
2026-01-22 05:11:18.42	320.47	32.59	-35.6	-36.4	22.8	0.00e+00	0	38	0	1897922560	41	4001
2026-01-22 05:11:21.54	319.37	32.79	-35.7	-36.6	22.7	0.00e+00	0	38	0	1920991232	41	4068
2026-01-22 05:11:24.39	318.34	32.96	-35.4	-36.2	23.0	0.00e+00	0	38	0	1940914176	41	3899
2026-01-22 05:11:27.52	317.21	33.15	-35.3	-36.2	23.0	0.00e+00	0	38	0	1963982848	41	3874
2026-01-22 05:11:30.47	316.13	33.31	-35.5	-36.3	22.9	0.00e+00	0	38	0	1984954368	41	3948
2026-01-22 05:11:33.59	314.97	33.47	-35.6	-36.4	22.8	0.00e+00	0	38	0	2008023040	41	3989
2026-01-22 05:11:36.43	313.91	33.60	-35.6	-36.4	22.8	0.00e+00	0	38	0	2027945984	41	4004
2026-01-22 05:11:39.56	312.73	33.73	-35.7	-36.5	22.7	0.00e+00	0	38	0	2051014656	41	4034
2026-01-22 05:11:42.41	311.65	33.84	-35.4	-36.2	23.0	0.00e+00	0	38	0	2070937600	41	3879
2026-01-22 05:11:45.53	310.46	33.95	-35.4	-36.2	23.0	0.00e+00	0	38	0	2094006272	41	3902
2026-01-22 05:11:48.47	309.33	34.04	-35.5	-36.3	22.9	0.00e+00	0	38	0	2114977792	41	3943
2026-01-22 05:11:51.60	308.11	34.12	-35.4	-36.3	22.9	0.00e+00	0	38	0	2138046464	41	3923
2026-01-22 05:11:54.44	307.01	34.18	-35.7	-36.6	22.7	0.00e+00	0	38	0	2157969408	41	4063
2026-01-22 05:11:57.57	305.79	34.24	-35.6	-36.4	22.8	0.00e+00	0	38	0	2181038080	41	4004
2026-01-22 05:12:00.41	304.68	34.27	-35.5	-36.3	22.8	0.00e+00	0	38	0	2200961024	41	3950
2026-01-22 05:12:03.54	303.45	34.30	-35.4	-36.2	23.0	0.00e+00	0	38	0	2224029696	41	3891
2026-01-22 05:12:06.46	302.31	34.31	-35.4	-36.2	22.9	0.00e+00	0	38	0	2245001216	41	3906
2026-01-22 05:12:09.59	301.08	34.31	-35.5	-36.4	22.9	0.00e+00	0	38	0	2267021312	41	3962
2026-01-22 05:12:12.43	299.97	34.29	-35.6	-36.4	22.8	0.00e+00	0	38	0	2287992832	41	3988
2026-01-22 05:12:15.55	298.75	34.26	-35.7	-36.5	22.7	0.00e+00	0	38	0	2310012928	41	4020
2026-01-22 05:12:18.40	297.63	34.22	-35.6	-36.5	22.7	0.00e+00	0	38	0	2330984448	41	4014
2026-01-22 05:12:21.52	296.42	34.16	-35.8	-36.6	22.6	0.00e+00	0	38	0	2353004544	41	4091
2026-01-22 05:12:24.39	295.30	34.09	-35.4	-36.2	22.9	0.00e+00	0	38	0	2373976064	41	3908
2026-01-22 05:12:27.61	294.06	34.00	-35.3	-36.1	23.0	0.00e+00	0	38	0	2397044736	41	3855
2026-01-22 05:12:30.46	292.97	33.91	-35.4	-36.3	22.9	0.00e+00	0	38	0	2418016256	41	3920
2026-01-22 05:12:33.55	291.79	33.79	-35.3	-36.1	23.1	0.00e+00	0	38	0	2440036352	41	3832
2026-01-22 05:12:36.54	290.65	33.67	-35.6	-36.4	22.8	0.00e+00	0	38	0	2462056448	41	3981
2026-01-22 05:12:39.52	289.53	33.54	-35.3	-36.1	23.0	0.00e+00	0	38	0	2483027968	41	3863
2026-01-22 05:12:42.51	288.42	33.39	-35.3	-36.1	23.1	0.00e+00	0	38	0	2505048064	41	3840
2026-01-22 05:12:45.49	287.32	33.23	-35.5	-36.3	22.9	0.00e+00	0	38	0	2527068160	41	3927
2026-01-22 05:12:48.48	286.23	33.07	-35.4	-36.2	23.0	0.00e+00	0	38	0	2548039680	41	3880
2026-01-22 05:12:51.46	285.15	32.89	-35.5	-36.3	22.9	0.00e+00	0	38	0	2570059776	41	3928
2026-01-22 05:12:54.45	284.08	32.70	-35.7	-36.5	22.7	0.00e+00	0	38	0	2591031296	41	4021
2026-01-22 05:12:57.43	283.03	32.50	-35.6	-36.5	22.8	0.00e+00	0	38	0	2613051392	41	4014
2026-01-22 05:13:00.42	281.98	32.29	-35.3	-36.1	23.0	0.00e+00	0	38	0	2634022912	41	3842
2026-01-22 05:13:03.40	280.96	32.07	-35.3	-36.1	23.0	0.00e+00	0	38	0	2656043008	41	3843
2026-01-22 05:13:06.39	279.94	31.85	-35.4	-36.2	22.9	0.00e+00	0	38	0	2677014528	41	3902
2026-01-22 05:13:09.37	278.94	31.61	-35.5	-36.3	22.8	0.00e+00	0	38	0	2699034624	41	3946
2026-01-22 05:13:12.44	277.93	31.36	-35.7	-36.6	22.7	0.00e+00	0	38	0	2721054720	41	4057
2026-01-22 05:13:15.31	276.99	31.12	-35.5	-36.3	22.8	0.00e+00	0	38	0	2742026240	41	3957
2026-01-22 05:13:18.44	275.99	30.86	-35.5	-36.3	22.9	0.00e+00	0	38	0	2764046336	41	3943
2026-01-22 05:13:21.28	275.10	30.61	-35.5	-36.3	22.8	0.00e+00	0	38	0	2785017856	41	3949
2026-01-22 05:13:24.41	274.13	30.32	-35.6	-36.4	22.8	0.00e+00	0	38	0	2807037952	41	3975
2026-01-22 05:13:27.25	273.26	30.06	-35.7	-36.5	22.7	0.00e+00	0	38	0	2828009472	41	4034
2026-01-22 05:13:30.59	272.26	29.75	-35.6	-36.4	22.7	0.00e+00	0	38	0	2852126720	41	3997
2026-01-22 05:13:33.31	271.47	29.49	-35.6	-36.4	22.8	0.00e+00	0	38	0	2872049664	41	3993
2026-01-22 05:13:36.59	270.52	29.17	-35.7	-36.5	22.7	0.00e+00	0	38	0	2895118336	41	4023
2026-01-22 05:13:39.29	269.75	28.90	-35.6	-36.4	22.8	0.00e+00	0	38	0	2915041280	41	3986
2026-01-22 05:13:42.56	268.84	28.58	-35.5	-36.3	22.9	0.00e+00	0	38	0	2938109952	41	3929
2026-01-22 05:13:45.27	268.10	28.31	-35.6	-36.4	22.8	0.00e+00	0	38	0	2958032896	41	3979
2026-01-22 05:13:48.76	267.17	27.95	-36.1	-36.9	22.3	0.00e+00	0	38	0	2983198720	41	4227
2026-01-22 05:13:51.48	266.46	27.67	-36.1	-36.9	22.4	0.00e+00	0	38	0	3003121664	41	4219
2026-01-22 05:13:54.76	265.61	27.33	-36.0	-36.9	22.4	0.00e+00	0	38	0	3026190336	41	4219
2026-01-22 05:13:57.49	264.92	27.05	-36.0	-36.8	22.4	0.00e+00	0	38	0	3046113280	42	3942
2026-01-22 05:14:00.79	264.11	26.70	-35.8	-36.6	22.6	0.00e+00	0	38	0	3070230528	42	3853
2026-01-22 05:14:03.53	263.44	26.41	-36.0	-36.8	22.4	0.00e+00	0	38	0	3090153472	42	3947
2026-01-22 05:14:06.83	262.66	26.06	-36.1	-37.0	22.2	0.00e+00	0	38	0	3113222144	42	4024
2026-01-22 05:14:09.69	261.99	25.76	-36.0	-36.9	22.4	0.00e+00	0	38	0	3134193664	42	3975
2026-01-22 05:14:13.12	261.21	25.39	-35.8	-36.7	22.6	0.00e+00	0	38	0	3159359488	42	3872
2026-01-22 05:14:15.84	260.60	25.10	-35.9	-36.7	22.5	0.00e+00	0	38	0	3179282432	42	3902
2026-01-22 05:14:19.12	259.89	24.75	-36.1	-37.0	22.3	0.00e+00	0	38	0	3202351104	42	4014
2026-01-22 05:14:22.19	259.23	24.42	-36.2	-37.1	22.2	0.00e+00	0	38	0	3224371200	42	4073
2026-01-22 05:14:25.22	258.59	24.10	-36.3	-37.2	22.1	0.00e+00	0	38	0	3246391296	42	4123
2026-01-22 05:14:28.21	257.98	23.78	-36.1	-36.9	22.3	0.00e+00	0	38	0	3268411392	42	3990
2026-01-22 05:14:31.19	257.38	23.46	-36.0	-36.8	22.4	0.00e+00	0	38	0	3289382912	42	3936
2026-01-22 05:14:34.19	256.79	23.15	-36.2	-37.1	22.2	0.00e+00	0	38	0	3311403008	42	4061
2026-01-22 05:14:37.18	256.21	22.83	-36.2	-37.1	22.2	0.00e+00	0	38	0	3332374528	42	4054
2026-01-22 05:14:40.16	255.65	22.51	-36.1	-36.9	22.3	0.00e+00	0	38	0	3354394624	42	4001
2026-01-22 05:14:43.14	255.10	22.20	-36.4	-37.3	22.0	0.00e+00	0	38	0	3376414720	42	4169
2026-01-22 05:14:46.13	254.55	21.88	-36.4	-37.2	22.1	0.00e+00	0	38	0	3397386240	42	4139
2026-01-22 05:14:49.27	253.99	21.55	-36.4	-37.2	22.0	0.00e+00	0	38	0	3420454912	42	4129
2026-01-22 05:14:52.56	253.42	21.21	-36.5	-37.4	21.9	0.00e+00	0	38	0	3443523584	42	4203
2026-01-22 05:14:55.27	252.96	20.93	-36.7	-37.6	21.8	0.00e+00	0	38	0	3463446528	42	4318
2026-01-22 05:14:58.55	252.41	20.59	-36.9	-37.8	21.6	0.00e+00	0	38	0	3487563776	43	4166
2026-01-22 05:15:01.25	251.97	20.31	-36.7	-37.6	21.7	0.00e+00	0	38	0	3506438144	43	4072
2026-01-22 05:15:04.75	251.41	19.96	-36.7	-37.6	21.7	0.00e+00	0	38	0	3531603968	43	4055
2026-01-22 05:15:07.46	250.98	19.68	-36.8	-37.7	21.7	0.00e+00	0	38	0	3551526912	43	4103
2026-01-22 05:15:10.74	250.48	19.35	-37.0	-37.9	21.4	0.00e+00	0	38	0	3575644160	43	4237
2026-01-22 05:15:13.49	250.07	19.07	-36.9	-37.8	21.4	0.00e+00	0	38	0	3594518528	43	4167
2026-01-22 05:15:16.80	249.58	18.74	-36.9	-37.8	21.5	0.00e+00	0	38	0	3618635776	43	4167
2026-01-22 05:15:19.64	249.17	18.46	-37.5	-38.4	21.2	0.00e+00	0	38	0	3639607296	44	4199
2026-01-22 05:15:22.77	248.72	18.15	-37.8	-38.7	20.9	0.00e+00	0	38	0	3661627392	44	4356
2026-01-22 05:15:25.75	248.31	17.86	-37.7	-38.6	20.9	0.00e+00	0	38	0	3683647488	45	4086
2026-01-22 05:15:28.74	247.90	17.57	-37.6	-38.5	21.0	0.00e+00	0	38	0	3704619008	45	4017
2026-01-22 05:15:31.73	247.50	17.28	-37.4	-38.2	21.3	0.00e+00	0	38	0	3726639104	45	3913
2026-01-22 05:15:34.79	247.10	16.98	-37.6	-38.5	21.0	0.00e+00	0	38	0	3748659200	45	4036
2026-01-22 05:15:37.69	246.72	16.71	-37.8	-38.8	20.8	0.00e+00	0	38	0	3769630720	45	4155
2026-01-22 05:15:41.17	246.29	16.38	-38.1	-39.1	20.5	0.00e+00	0	38	0	3794796544	45	4310
2026-01-22 05:15:43.96	245.94	16.12	-38.5	-39.5	20.1	0.00e+00	0	38	0	3814719488	46	4280
2026-01-22 05:15:47.26	245.54	15.81	-38.3	-39.2	20.3	0.00e+00	0	38	0	3838836736	46	4139
2026-01-22 05:15:49.98	245.22	15.56	-38.3	-39.3	20.2	0.00e+00	0	38	0	3857711104	46	4161
2026-01-22 05:15:53.26	244.83	15.26	-37.8	-38.7	20.8	0.00e+00	0	38	0	3881828352	46	3900
2026-01-22 05:15:55.98	244.52	15.01	-37.9	-38.8	20.7	0.00e+00	0	38	0	3901751296	46	3931
2026-01-22 05:15:59.21	244.16	14.71	-38.1	-39.0	20.5	0.00e+00	0	38	0	3924819968	46	4033
2026-01-22 05:16:02.55	243.79	14.41	-38.4	-39.3	20.2	0.00e+00	0	38	0	3948937216	46	4181
2026-01-22 05:16:05.28	243.50	14.17	-38.4	-39.4	20.1	0.00e+00	0	38	0	3968860160	46	4201
2026-01-22 05:16:08.59	243.15	13.88	-38.5	-39.5	20.1	0.00e+00	0	38	0	3991928832	46	4251
2026-01-22 05:16:11.28	242.86	13.64	-38.6	-39.5	20.0	0.00e+00	0	38	0	4011851776	46	4283
2026-01-22 05:16:14.65	242.52	13.35	-38.9	-39.9	19.6	0.00e+00	0	38	0	4035969024	47	4233
2026-01-22 05:16:17.69	242.21	13.09	-39.2	-40.2	19.4	0.00e+00	0	38	0	4057989120	47	4358
2026-01-22 05:16:20.82	241.91	12.82	-39.2	-40.3	19.3	0.00e+00	0	38	0	4081057792	47	4399
2026-01-22 05:16:23.66	241.63	12.58	-39.0	-40.0	19.5	0.00e+00	0	38	0	4100980736	47	4283
2026-01-22 05:16:26.78	241.33	12.31	-38.8	-39.8	19.7	0.00e+00	0	38	0	4124049408	47	4178
2026-01-22 05:16:29.63	241.07	12.07	-38.8	-39.8	19.7	0.00e+00	0	38	0	4143972352	47	4169
2026-01-22 05:16:33.08	240.75	11.79	-38.9	-39.9	19.6	0.00e+00	0	38	0	4169138176	47	4200
2026-01-22 05:16:35.80	240.51	11.56	-39.1	-40.1	19.4	0.00e+00	0	38	0	4189061120	47	4322
2026-01-22 05:16:39.09	240.21	11.29	-39.3	-40.3	19.4	0.00e+00	0	38	0	4213178368	48	4164
2026-01-22 05:16:41.91	239.97	11.06	-39.6	-40.6	19.2	0.00e+00	0	38	0	4233101312	48	4331
2026-01-22 05:16:45.04	239.70	10.81	-39.3	-40.3	19.5	0.00e+00	0	38	0	4256169984	48	4175
2026-01-22 05:16:47.88	239.46	10.58	-39.6	-40.6	19.2	0.00e+00	0	38	0	4276092928	48	4323
2026-01-22 05:16:51.09	239.19	10.33	-39.9	-41.0	18.9	0.00e+00	0	38	0	4299161600	49	4249
2026-01-22 05:16:53.96	238.96	10.10	-39.8	-40.9	18.9	0.00e+00	0	38	0	4320133120	49	4207
2026-01-22 05:16:57.14	238.71	9.85	-39.9	-41.0	18.8	0.00e+00	0	38	0	4343201792	49	4244
2026-01-22 05:17:00.44	238.45	9.60	-39.9	-41.0	18.8	0.00e+00	0	38	0	4367319040	49	4247
2026-01-22 05:17:03.21	238.23	9.38	-39.7	-40.7	19.0	0.00e+00	0	38	0	4387241984	49	4107
2026-01-22 05:17:06.59	237.97	9.13	-39.4	-40.4	19.3	0.00e+00	0	38	0	4411359232	49	3980
2026-01-22 05:17:09.57	237.75	8.90	-50.7	-61.2	3.8	8.48e-01	0	38	104	4428136448	70	13089
2026-01-22 05:17:12.55	237.53	8.68	-50.9	-61.7	3.8	8.47e-01	0	38	104	4428136448	71	12967
2026-01-22 05:17:15.53	237.32	8.45	-51.0	-61.8	3.8	8.46e-01	0	38	104	4428136448	71	13174
2026-01-22 05:17:18.59	237.10	8.23	-51.1	-61.8	3.8	8.48e-01	0	38	104	4428136448	71	13218
2026-01-22 05:17:21.43	236.90	8.02	-51.1	-61.8	3.8	8.45e-01	0	38	104	4428136448	71	13153
2026-01-22 05:17:24.55	236.68	7.79	-50.9	-61.8	3.8	8.46e-01	0	38	104	4428136448	71	13185
2026-01-22 05:17:27.39	236.49	7.58	-50.8	-61.7	3.8	8.46e-01	0	38	104	4428136448	71	13109
2026-01-22 05:17:30.55	236.28	7.35	-50.7	-61.7	3.8	8.48e-01	0	38	104	4428136448	71	13045
2026-01-22 05:17:33.45	236.09	7.14	-50.7	-61.7	3.8	8.48e-01	0	39	104	4428136448	71	12968
2026-01-22 05:17:36.57	235.88	6.92	-50.7	-61.6	3.8	8.46e-01	0	38	104	4428136448	71	12936
2026-01-22 05:17:39.41	235.70	6.72	-50.7	-61.7	3.8	8.46e-01	0	38	104	4428136448	71	13002
2026-01-22 05:17:42.53	235.50	6.50	-50.7	-61.6	3.8	8.48e-01	0	38	104	4428136448	71	12945
2026-01-22 05:17:45.37	235.33	6.30	-50.7	-61.7	3.8	8.47e-01	0	38	104	4428136448	71	12970
2026-01-22 05:17:48.49	235.14	6.09	-50.7	-61.7	3.8	8.47e-01	0	38	104	4428136448	71	12967
2026-01-22 05:17:51.33	234.97	5.89	-50.7	-61.6	3.8	8.47e-01	0	38	104	4428136448	71	12935
2026-01-22 05:17:54.45	234.78	5.68	-50.7	-61.6	3.8	8.48e-01	0	38	104	4428136448	71	12896
2026-01-22 05:17:57.29	234.61	5.49	-50.7	-61.7	3.8	8.45e-01	0	38	104	4428136448	71	12981
2026-01-22 05:18:00.41	234.43	5.27	-50.7	-61.7	3.8	8.47e-01	0	38	104	4428136448	71	12966
2026-01-22 05:18:03.25	234.27	5.08	-50.7	-61.6	3.8	8.47e-01	0	38	104	4428136448	71	12952

#Closed at: 2026-01-22 05:18:06
#Recorded file [4428 MB]: D:/Data/31040_260122_080610.dat