passes_logs/2026/01/22/T1/T1__20260122_000224_FENGYUN_3D_rec.log

#Pass ID: 20260122_000224_FENGYUN 3D
#Satellite: FENGYUN 3D
#Configuration: FENGYUN 3D
#almurnet v.1.7.20251203
#Start time: 2026-01-22 00:02:25

#Version: 2.0.20230620
#Station: T1
#Location: 37.570604 lon 55.790049 lat
#TLE: 1 43010U 17072A   26021.48744220  .00000253  00000+0  14133-3 0  9991
#TLE: 2 43010  98.9948 353.4037 0002485  97.2578 262.8880 14.19697766424177

#Time	Az	El	Level	Level2	SNR	BER	BlckErr	Temp	State	Recorded	gain1	gain2
2026-01-22 00:02:25.77	33.33	5.05	-50.0	-62.4	3.8	8.47e-01	0	35	0	0	71	15109
2026-01-22 00:02:28.74	33.63	5.21	-49.9	-62.4	3.8	8.47e-01	0	35	104	0	70	16042
2026-01-22 00:02:31.72	33.93	5.37	-49.9	-62.4	3.8	8.48e-01	0	36	104	0	70	15975
2026-01-22 00:02:34.70	34.24	5.53	-49.9	-62.4	3.8	8.47e-01	0	36	104	0	70	15950
2026-01-22 00:02:37.68	34.54	5.69	-49.9	-62.4	3.8	8.47e-01	0	36	104	0	70	15956
2026-01-22 00:02:40.66	34.86	5.85	-50.0	-62.4	3.8	8.47e-01	0	36	104	0	70	15947
2026-01-22 00:02:43.64	35.17	6.01	-50.0	-62.4	3.8	8.48e-01	0	36	104	0	70	16017
2026-01-22 00:02:46.62	35.49	6.17	-49.9	-62.4	3.8	8.47e-01	0	36	104	0	70	15967
2026-01-22 00:02:49.60	35.82	6.33	-49.9	-62.3	3.8	8.47e-01	0	36	104	0	70	15929
2026-01-22 00:02:52.58	36.14	6.49	-49.9	-62.4	3.8	8.47e-01	0	36	104	0	70	15979
2026-01-22 00:02:55.57	36.47	6.66	-49.9	-62.3	3.8	8.46e-01	0	37	104	0	70	15891
2026-01-22 00:02:58.55	36.81	6.82	-49.9	-62.3	3.8	8.47e-01	0	37	104	0	70	15794
2026-01-22 00:03:01.53	37.14	6.98	-49.9	-62.3	3.8	8.46e-01	0	37	104	0	70	15783
2026-01-22 00:03:04.51	37.49	7.14	-49.9	-62.3	3.8	8.47e-01	0	37	104	0	70	15831
2026-01-22 00:03:07.49	37.83	7.31	-49.9	-62.3	3.8	8.46e-01	0	37	104	0	70	15932
2026-01-22 00:03:10.47	38.18	7.47	-49.9	-62.3	3.8	8.47e-01	0	37	104	0	70	15840
2026-01-22 00:03:13.45	38.53	7.63	-49.9	-62.3	3.8	8.47e-01	0	37	104	0	70	15767
2026-01-22 00:03:16.43	38.89	7.80	-49.9	-62.1	3.8	8.46e-01	0	37	104	0	70	15539
2026-01-22 00:03:19.40	39.24	7.96	-49.9	-61.8	3.8	8.46e-01	0	37	104	0	70	14989
2026-01-22 00:03:22.38	39.61	8.12	-49.9	-62.1	3.8	8.45e-01	0	37	104	0	70	15422
2026-01-22 00:03:25.37	39.98	8.29	-49.9	-62.3	3.8	8.46e-01	0	37	104	0	70	15854
2026-01-22 00:03:28.35	40.35	8.45	-49.9	-62.2	3.8	8.47e-01	0	37	104	0	70	15667
2026-01-22 00:03:31.32	40.72	8.61	-49.8	-61.2	3.8	8.47e-01	0	38	104	0	70	13964
2026-01-22 00:03:34.30	41.10	8.78	-49.6	-59.7	4.0	8.45e-01	0	37	104	0	70	11726
2026-01-22 00:03:37.28	41.49	8.94	-47.7	-52.7	8.1	1.56e-01	0	37	0	5242880	67	6247
2026-01-22 00:03:40.27	41.87	9.11	-44.8	-47.8	13.3	2.28e-05	0	38	0	22020096	61	5028
2026-01-22 00:03:43.25	42.27	9.27	-48.2	-53.8	6.9	7.57e-01	0	38	0	36700160	68	6715
2026-01-22 00:03:46.28	42.67	9.44	-40.8	-42.8	18.0	0.00e+00	0	37	0	54525952	53	4485
2026-01-22 00:03:49.57	43.11	9.62	-40.3	-42.3	18.5	0.00e+00	0	38	0	72351744	52	4449
2026-01-22 00:03:52.27	43.48	9.77	-40.3	-42.2	18.5	0.00e+00	0	38	0	88080384	52	4407
2026-01-22 00:03:55.56	43.93	9.95	-40.0	-41.9	18.9	0.00e+00	0	38	0	105906176	52	4258
2026-01-22 00:03:58.29	44.31	10.09	-40.2	-42.1	18.7	0.00e+00	0	38	0	121634816	51	4610
2026-01-22 00:04:01.56	44.77	10.27	-40.1	-42.0	18.8	0.00e+00	0	38	0	139460608	51	4578
2026-01-22 00:04:04.26	45.16	10.42	-40.0	-41.9	18.9	0.00e+00	0	38	0	155189248	51	4522
2026-01-22 00:04:07.72	45.65	10.61	-40.0	-41.9	18.9	0.00e+00	0	37	0	174063616	51	4534
2026-01-22 00:04:10.48	46.05	10.76	-39.8	-41.6	19.2	0.00e+00	0	37	0	189792256	51	4380
2026-01-22 00:04:13.82	46.54	10.94	-39.9	-41.8	19.1	0.00e+00	0	38	0	208666624	51	4446
2026-01-22 00:04:16.54	46.95	11.09	-40.1	-42.0	18.9	0.00e+00	0	38	0	224395264	51	4552
2026-01-22 00:04:19.81	47.44	11.26	-40.1	-42.0	18.9	0.00e+00	0	38	0	242221056	51	4553
2026-01-22 00:04:22.59	47.86	11.41	-39.9	-41.8	19.1	0.00e+00	0	38	0	257949696	51	4444
2026-01-22 00:04:26.24	48.42	11.61	-39.7	-41.5	19.3	0.00e+00	0	38	0	278921216	51	4336
2026-01-22 00:04:28.95	48.84	11.75	-39.6	-41.4	19.4	0.00e+00	0	38	0	293601280	51	4276
2026-01-22 00:04:32.22	49.35	11.93	-39.4	-41.3	19.5	0.00e+00	0	38	0	312475648	50	4457
2026-01-22 00:04:34.99	49.79	12.07	-39.6	-41.4	19.4	0.00e+00	0	38	0	328204288	50	4538
2026-01-22 00:04:38.26	50.32	12.25	-39.5	-41.4	19.5	0.00e+00	0	38	0	346030080	50	4495
2026-01-22 00:04:41.29	50.81	12.40	-39.4	-41.3	19.6	0.00e+00	0	38	0	363855872	50	4442
2026-01-22 00:04:44.45	51.33	12.57	-39.4	-41.2	19.6	0.00e+00	0	38	0	381681664	50	4438
2026-01-22 00:04:47.29	51.80	12.72	-39.3	-41.1	19.7	0.00e+00	0	38	0	397410304	50	4387
2026-01-22 00:04:50.42	52.32	12.88	-39.3	-41.1	19.7	0.00e+00	0	38	0	415236096	50	4374
2026-01-22 00:04:53.26	52.80	13.02	-39.3	-41.1	19.8	0.00e+00	0	38	0	430964736	50	4360
2026-01-22 00:04:56.39	53.33	13.18	-39.2	-41.0	19.8	0.00e+00	0	38	0	448790528	50	4315
2026-01-22 00:04:59.23	53.82	13.32	-39.1	-40.9	19.9	0.00e+00	0	38	0	464519168	50	4272
2026-01-22 00:05:02.36	54.37	13.48	-39.1	-40.9	20.0	0.00e+00	0	38	0	482344960	50	4253
2026-01-22 00:05:05.21	54.87	13.62	-38.9	-40.8	19.8	0.00e+00	0	38	0	498073600	49	4463
2026-01-22 00:05:08.34	55.42	13.78	-38.7	-40.6	19.9	0.00e+00	0	38	0	515899392	49	4363
2026-01-22 00:05:11.18	55.93	13.91	-38.6	-40.5	20.1	0.00e+00	0	38	0	531628032	49	4300
2026-01-22 00:05:14.72	56.57	14.09	-38.7	-40.5	20.0	0.00e+00	0	38	0	551550976	49	4317
2026-01-22 00:05:17.42	57.07	14.21	-38.7	-40.6	20.0	0.00e+00	0	38	0	567279616	49	4352
2026-01-22 00:05:20.69	57.67	14.37	-38.6	-40.5	20.0	0.00e+00	0	38	0	585105408	49	4306
2026-01-22 00:05:23.43	58.18	14.50	-38.8	-40.7	19.9	0.00e+00	0	38	0	600834048	49	4400
2026-01-22 00:05:26.65	58.78	14.64	-38.6	-40.4	20.1	0.00e+00	0	38	0	618659840	49	4284
2026-01-22 00:05:29.74	59.37	14.78	-38.7	-40.6	20.0	0.00e+00	0	38	0	636485632	49	4362
2026-01-22 00:05:32.72	59.94	14.92	-38.9	-40.8	19.8	0.00e+00	0	38	0	653262848	49	4457
2026-01-22 00:05:35.71	60.52	15.05	-38.6	-40.4	20.1	0.00e+00	0	38	0	668991488	49	4284
2026-01-22 00:05:38.69	61.10	15.18	-38.4	-40.2	20.3	0.00e+00	0	38	0	686817280	48	4424
2026-01-22 00:05:41.67	61.68	15.31	-38.5	-40.3	20.2	0.00e+00	0	38	0	703594496	48	4470
2026-01-22 00:05:45.02	62.35	15.45	-38.5	-40.4	20.2	0.00e+00	0	38	0	722468864	48	4507
2026-01-22 00:05:47.93	62.93	15.57	-38.3	-40.1	20.4	0.00e+00	0	38	0	738197504	48	4390
2026-01-22 00:05:51.20	63.59	15.70	-38.3	-40.1	20.4	0.00e+00	0	38	0	757071872	48	4360
2026-01-22 00:05:53.92	64.14	15.81	-38.2	-40.0	20.5	0.00e+00	0	38	0	771751936	48	4324
2026-01-22 00:05:57.20	64.81	15.93	-38.2	-40.1	20.4	0.00e+00	0	38	0	790626304	48	4344
2026-01-22 00:05:59.98	65.39	16.04	-38.3	-40.1	20.3	0.00e+00	0	38	0	806354944	48	4389
2026-01-22 00:06:03.52	66.12	16.17	-38.2	-40.0	20.5	0.00e+00	0	38	0	826277888	48	4310
2026-01-22 00:06:06.22	66.69	16.27	-38.3	-40.1	20.4	0.00e+00	0	38	0	840957952	48	4367
2026-01-22 00:06:09.52	67.38	16.38	-38.2	-40.1	20.4	0.00e+00	0	38	0	859832320	48	4341
2026-01-22 00:06:12.22	67.96	16.47	-38.4	-40.2	20.3	0.00e+00	0	38	0	875560960	48	4426
2026-01-22 00:06:15.49	68.65	16.58	-38.3	-40.2	20.3	0.00e+00	0	38	0	893386752	48	4406
2026-01-22 00:06:18.27	69.25	16.67	-38.2	-40.1	20.4	0.00e+00	0	38	0	909115392	48	4344
2026-01-22 00:06:21.54	69.96	16.77	-38.2	-40.1	20.4	0.00e+00	0	38	0	926941184	48	4341
2026-01-22 00:06:24.41	70.59	16.86	-38.2	-40.1	20.4	0.00e+00	0	38	0	943718400	48	4364
2026-01-22 00:06:27.82	71.33	16.96	-38.1	-40.0	20.5	0.00e+00	0	38	0	962592768	48	4293
2026-01-22 00:06:30.53	71.93	17.03	-37.8	-39.7	20.5	0.00e+00	0	38	0	978321408	47	4393
2026-01-22 00:06:33.84	72.66	17.12	-37.9	-39.8	20.4	0.00e+00	0	38	0	996147200	47	4447
2026-01-22 00:06:36.56	73.27	17.19	-38.1	-40.0	20.2	0.00e+00	0	38	0	1011875840	47	4556
2026-01-22 00:06:39.82	74.00	17.27	-38.0	-39.8	20.4	0.00e+00	0	38	0	1030750208	47	4477
2026-01-22 00:06:42.62	74.63	17.33	-37.9	-39.7	20.5	0.00e+00	0	38	0	1046478848	47	4432
2026-01-22 00:06:45.75	75.34	17.40	-38.0	-39.8	20.4	0.00e+00	0	38	0	1063256064	47	4461
2026-01-22 00:06:48.62	75.99	17.46	-37.8	-39.6	20.5	0.00e+00	0	38	0	1080033280	47	4389
2026-01-22 00:06:51.90	76.73	17.53	-37.8	-39.6	20.5	0.00e+00	0	38	0	1097859072	47	4390
2026-01-22 00:06:54.67	77.37	17.58	-37.8	-39.7	20.5	0.00e+00	0	38	0	1113587712	47	4397
2026-01-22 00:06:58.39	78.22	17.64	-37.7	-39.5	20.6	0.00e+00	0	38	0	1134559232	47	4306
2026-01-22 00:07:01.11	78.85	17.68	-37.5	-39.4	20.7	0.00e+00	0	38	0	1150287872	47	4255
2026-01-22 00:07:04.45	79.62	17.73	-37.8	-39.6	20.5	0.00e+00	0	38	0	1169162240	47	4364
2026-01-22 00:07:07.15	80.24	17.76	-37.7	-39.5	20.6	0.00e+00	0	38	0	1183842304	47	4305
2026-01-22 00:07:10.44	81.01	17.80	-37.8	-39.6	20.5	0.00e+00	0	38	0	1202716672	47	4385
2026-01-22 00:07:13.15	81.64	17.83	-37.7	-39.6	20.6	0.00e+00	0	38	0	1217396736	47	4365
2026-01-22 00:07:17.09	82.56	17.86	-37.7	-39.5	20.6	0.00e+00	0	38	0	1239416832	47	4335
2026-01-22 00:07:19.95	83.22	17.88	-37.7	-39.6	20.6	0.00e+00	0	38	0	1256194048	47	4358
2026-01-22 00:07:23.38	84.03	17.90	-37.7	-39.5	20.6	0.00e+00	0	38	0	1275068416	47	4319
2026-01-22 00:07:26.22	84.69	17.91	-37.7	-39.6	20.6	0.00e+00	0	38	0	1290797056	47	4377
2026-01-22 00:07:29.34	85.42	17.92	-37.9	-39.8	20.4	0.00e+00	0	38	0	1308622848	47	4460
2026-01-22 00:07:32.18	86.09	17.92	-37.9	-39.7	20.4	0.00e+00	0	38	0	1324351488	47	4433
2026-01-22 00:07:35.31	86.82	17.92	-37.9	-39.7	20.4	0.00e+00	0	38	0	1342177280	47	4435
2026-01-22 00:07:38.15	87.49	17.92	-37.9	-39.8	20.4	0.00e+00	0	38	0	1357905920	47	4447
2026-01-22 00:07:41.28	88.22	17.91	-37.8	-39.6	20.6	0.00e+00	0	38	0	1375731712	47	4356
2026-01-22 00:07:44.12	88.89	17.90	-37.6	-39.4	20.7	0.00e+00	0	38	0	1392508928	47	4259
2026-01-22 00:07:47.25	89.62	17.88	-37.7	-39.6	20.6	0.00e+00	0	38	0	1409286144	47	4347
2026-01-22 00:07:50.09	90.28	17.86	-37.7	-39.6	20.6	0.00e+00	0	38	0	1425014784	47	4349
2026-01-22 00:07:53.22	91.01	17.83	-37.8	-39.7	20.5	0.00e+00	0	38	0	1442840576	47	4417
2026-01-22 00:07:56.06	91.67	17.81	-38.0	-39.9	20.3	0.00e+00	0	38	0	1458569216	47	4497
2026-01-22 00:07:59.19	92.40	17.77	-37.9	-39.8	20.4	0.00e+00	0	38	0	1476395008	47	4450
2026-01-22 00:08:02.03	93.06	17.74	-38.1	-40.0	20.3	0.00e+00	0	38	0	1493172224	47	4559
2026-01-22 00:08:05.16	93.78	17.69	-38.3	-40.2	20.1	0.00e+00	0	38	0	1509949440	47	4696
2026-01-22 00:08:08.00	94.44	17.65	-38.2	-40.1	20.1	0.00e+00	0	38	0	1525678080	47	4645
2026-01-22 00:08:11.13	95.16	17.60	-38.1	-39.9	20.3	0.00e+00	0	38	0	1543503872	47	4518
2026-01-22 00:08:13.97	95.81	17.55	-38.0	-39.8	20.3	0.00e+00	0	38	0	1560281088	47	4476
2026-01-22 00:08:17.30	96.57	17.49	-37.9	-39.8	20.4	0.00e+00	0	38	0	1578106880	47	4442
2026-01-22 00:08:20.21	97.24	17.43	-38.0	-39.9	20.3	0.00e+00	0	38	0	1594884096	47	4511
2026-01-22 00:08:23.77	98.04	17.35	-38.3	-40.2	20.0	0.00e+00	0	38	0	1614807040	47	4671
2026-01-22 00:08:26.64	98.69	17.29	-38.3	-40.1	20.1	0.00e+00	0	38	0	1631584256	47	4640
2026-01-22 00:08:30.60	99.58	17.19	-38.1	-39.9	20.2	0.00e+00	0	38	0	1653604352	47	4529
2026-01-22 00:08:33.32	100.19	17.12	-38.0	-39.9	20.2	0.00e+00	0	38	0	1668284416	47	4520
2026-01-22 00:08:36.60	100.92	17.03	-38.2	-40.1	20.1	0.00e+00	0	38	0	1687158784	47	4608
2026-01-22 00:08:39.70	101.60	16.95	-38.3	-40.2	20.0	0.00e+00	0	38	0	1704984576	47	4657
2026-01-22 00:08:42.83	102.29	16.85	-38.2	-40.1	20.1	0.00e+00	0	38	0	1721761792	47	4610
2026-01-22 00:08:45.66	102.91	16.77	-38.2	-40.0	20.2	0.00e+00	0	38	0	1737490432	47	4589
2026-01-22 00:08:48.91	103.61	16.67	-38.2	-40.1	20.1	0.00e+00	0	38	0	1756364800	47	4601
2026-01-22 00:08:51.83	104.24	16.57	-38.4	-40.2	20.0	0.00e+00	0	38	0	1773142016	47	4702
2026-01-22 00:08:55.17	104.96	16.46	-38.5	-40.4	19.9	0.00e+00	0	38	0	1790967808	47	4765
2026-01-22 00:08:57.98	105.56	16.37	-38.8	-40.7	19.7	0.00e+00	0	38	0	1807745024	48	4678
2026-01-22 00:09:01.25	106.25	16.25	-38.7	-40.6	20.0	0.00e+00	0	38	0	1825570816	48	4626
2026-01-22 00:09:03.95	106.82	16.15	-38.6	-40.5	20.0	0.00e+00	0	38	0	1841299456	48	4562
2026-01-22 00:09:07.26	107.51	16.03	-38.6	-40.5	20.0	0.00e+00	0	38	0	1859125248	48	4597
2026-01-22 00:09:09.96	108.07	15.92	-38.6	-40.5	20.0	0.00e+00	0	38	0	1874853888	48	4549
2026-01-22 00:09:13.23	108.74	15.80	-38.5	-40.4	20.1	0.00e+00	0	38	0	1893728256	48	4512
2026-01-22 00:09:15.96	109.29	15.69	-38.7	-40.5	20.0	0.00e+00	0	38	0	1908408320	48	4597
2026-01-22 00:09:19.23	109.96	15.56	-38.6	-40.4	20.0	0.00e+00	0	38	0	1927282688	48	4538
2026-01-22 00:09:21.95	110.50	15.44	-38.5	-40.4	20.0	0.00e+00	0	38	0	1941962752	48	4526
2026-01-22 00:09:25.23	111.16	15.30	-38.6	-40.5	20.0	0.00e+00	0	38	0	1960837120	48	4553
2026-01-22 00:09:28.03	111.71	15.18	-38.7	-40.6	19.9	0.00e+00	0	38	0	1976565760	48	4619
2026-01-22 00:09:31.15	112.32	15.05	-38.8	-40.7	19.9	0.00e+00	0	38	0	1994391552	48	4683
2026-01-22 00:09:34.00	112.87	14.92	-39.1	-41.1	19.5	0.00e+00	0	38	0	2010120192	48	4872
2026-01-22 00:09:37.12	113.47	14.78	-39.0	-41.0	19.6	0.00e+00	0	38	0	2027945984	49	4549
2026-01-22 00:09:39.97	114.02	14.65	-39.1	-41.0	19.6	0.00e+00	0	38	0	2043674624	49	4553
2026-01-22 00:09:43.09	114.61	14.51	-39.0	-40.9	19.6	0.00e+00	0	38	0	2061500416	49	4535
2026-01-22 00:09:45.93	115.14	14.37	-38.9	-40.8	19.7	0.00e+00	0	38	0	2077229056	49	4487
2026-01-22 00:09:49.32	115.77	14.21	-39.1	-41.0	19.6	0.00e+00	0	38	0	2096103424	49	4549
2026-01-22 00:09:52.48	116.35	14.06	-39.2	-41.1	19.4	0.00e+00	0	38	0	2113929216	49	4638
2026-01-22 00:09:55.33	116.87	13.92	-39.3	-41.2	19.3	0.00e+00	0	38	0	2129657856	49	4695
2026-01-22 00:09:58.46	117.43	13.77	-39.4	-41.4	19.3	0.00e+00	0	38	0	2147483648	49	4763
2026-01-22 00:10:01.30	117.94	13.63	-39.5	-41.4	19.2	0.00e+00	0	38	0	2163212288	49	4796
2026-01-22 00:10:04.50	118.50	13.47	-39.7	-41.7	18.9	0.00e+00	0	38	0	2181038080	50	4688
2026-01-22 00:10:07.34	119.00	13.32	-39.4	-41.4	19.2	0.00e+00	0	38	0	2197815296	50	4504
2026-01-22 00:10:10.58	119.56	13.16	-39.3	-41.3	19.3	0.00e+00	0	38	0	2215641088	50	4447
2026-01-22 00:10:13.42	120.05	13.01	-39.4	-41.4	19.2	0.00e+00	0	38	0	2231369728	50	4494
2026-01-22 00:10:16.55	120.58	12.85	-39.4	-41.3	19.3	0.00e+00	0	38	0	2249195520	50	4468
2026-01-22 00:10:19.39	121.06	12.71	-39.4	-41.4	19.2	0.00e+00	0	38	0	2264924160	50	4503
2026-01-22 00:10:22.51	121.57	12.54	-39.4	-41.4	19.1	0.00e+00	0	38	0	2282749952	50	4537
2026-01-22 00:10:25.36	122.04	12.39	-39.6	-41.5	19.1	0.00e+00	0	38	0	2298478592	50	4595
2026-01-22 00:10:28.69	122.59	12.22	-39.8	-41.8	18.8	0.00e+00	0	38	0	2317352960	50	4715
2026-01-22 00:10:31.41	123.02	12.07	-39.9	-42.0	18.7	0.00e+00	0	38	0	2333081600	50	4817
2026-01-22 00:10:34.67	123.54	11.90	-40.1	-42.1	18.6	0.00e+00	0	38	0	2350907392	50	4896
2026-01-22 00:10:37.50	123.99	11.75	-40.0	-42.0	18.7	0.00e+00	0	39	0	2366636032	50	4831
2026-01-22 00:10:40.63	124.48	11.58	-40.1	-42.1	18.5	0.00e+00	0	38	0	2384461824	50	4926
2026-01-22 00:10:43.47	124.92	11.42	-40.0	-42.0	18.6	0.00e+00	0	38	0	2401239040	51	4557
2026-01-22 00:10:46.60	125.40	11.25	-40.0	-42.0	18.6	0.00e+00	0	38	0	2418016256	51	4565
2026-01-22 00:10:49.44	125.82	11.10	-40.1	-42.0	18.5	0.00e+00	0	38	0	2434793472	51	4594
2026-01-22 00:10:52.57	126.29	10.93	-40.1	-42.1	18.5	0.00e+00	0	38	0	2451570688	51	4616
2026-01-22 00:10:55.41	126.71	10.77	-40.0	-42.0	18.6	0.00e+00	0	38	0	2467299328	51	4585
2026-01-22 00:10:58.54	127.17	10.60	-40.1	-42.1	18.4	0.00e+00	0	38	0	2485125120	51	4621
2026-01-22 00:11:01.44	127.59	10.44	-40.1	-42.1	18.4	0.00e+00	0	38	0	2501902336	51	4627
2026-01-22 00:11:04.57	128.04	10.27	-40.3	-42.4	18.2	0.00e+00	0	38	0	2519728128	51	4766
2026-01-22 00:11:07.41	128.44	10.11	-40.3	-42.5	18.1	0.00e+00	0	38	0	2535456768	51	4828
2026-01-22 00:11:10.54	128.88	9.94	-40.6	-42.7	17.9	0.00e+00	0	38	0	2553282560	51	4975
2026-01-22 00:11:13.39	129.27	9.78	-40.7	-42.9	17.7	0.00e+00	0	38	0	2569011200	52	4772
2026-01-22 00:11:16.52	129.70	9.61	-40.7	-42.8	17.7	0.00e+00	0	38	0	2586836992	52	4753
2026-01-22 00:11:19.44	130.10	9.45	-40.7	-42.8	17.7	0.00e+00	0	38	0	2602565632	52	4742
2026-01-22 00:11:22.57	130.52	9.27	-40.8	-42.9	17.6	0.00e+00	0	38	0	2620391424	52	4774
2026-01-22 00:11:25.41	130.89	9.11	-40.7	-42.8	17.7	0.00e+00	0	38	0	2636120064	52	4729
2026-01-22 00:11:28.53	131.30	8.94	-50.2	-62.5	3.8	8.47e-01	0	39	104	2650800128	71	15397
2026-01-22 00:11:31.37	131.67	8.78	-50.6	-62.9	3.8	8.47e-01	0	38	104	2650800128	72	15195
2026-01-22 00:11:34.57	132.08	8.61	-50.8	-63.0	3.8	8.47e-01	0	38	104	2650800128	72	15389
2026-01-22 00:11:37.48	132.45	8.44	-51.0	-63.1	3.8	8.47e-01	0	38	104	2650800128	72	15534
2026-01-22 00:11:40.66	132.85	8.27	-50.9	-63.2	3.8	8.48e-01	0	38	104	2650800128	72	15599
2026-01-22 00:11:43.50	133.20	8.11	-50.7	-63.2	3.8	8.47e-01	0	38	104	2650800128	72	15684
2026-01-22 00:11:46.62	133.58	7.94	-50.7	-63.2	3.8	8.47e-01	0	38	104	2650800128	72	15732
2026-01-22 00:11:49.46	133.93	7.78	-50.7	-63.1	3.8	8.45e-01	0	38	104	2650800128	72	15545
2026-01-22 00:11:52.59	134.30	7.60	-50.6	-63.1	3.8	8.46e-01	0	38	104	2650800128	72	15429
2026-01-22 00:11:55.42	134.64	7.45	-50.7	-63.1	3.8	8.46e-01	0	38	104	2650800128	72	15462
2026-01-22 00:11:58.54	135.01	7.28	-50.6	-63.1	3.8	8.47e-01	0	38	104	2650800128	72	15461
2026-01-22 00:12:01.38	135.34	7.12	-50.6	-63.1	3.8	8.47e-01	0	38	104	2650800128	72	15520
2026-01-22 00:12:04.50	135.69	6.95	-50.6	-63.1	3.8	8.49e-01	0	38	104	2650800128	72	15473
2026-01-22 00:12:07.34	136.02	6.79	-50.6	-63.1	3.8	8.47e-01	0	38	104	2650800128	72	15435
2026-01-22 00:12:10.46	136.37	6.62	-50.6	-63.1	3.8	8.47e-01	0	38	104	2650800128	72	15445
2026-01-22 00:12:13.30	136.68	6.46	-50.6	-63.1	3.8	8.47e-01	0	38	104	2650800128	72	15506
2026-01-22 00:12:16.42	137.03	6.29	-50.6	-63.1	3.8	8.47e-01	0	38	104	2650800128	72	15487
2026-01-22 00:12:19.26	137.34	6.13	-50.6	-63.1	3.8	8.47e-01	0	38	104	2650800128	72	15491
2026-01-22 00:12:22.39	137.67	5.96	-50.6	-63.0	3.8	8.45e-01	0	38	104	2650800128	72	15377
2026-01-22 00:12:25.23	137.97	5.81	-50.6	-63.0	3.8	8.46e-01	0	38	104	2650800128	72	15389
2026-01-22 00:12:28.35	138.30	5.64	-50.6	-63.1	3.8	8.47e-01	0	38	104	2650800128	72	15431
2026-01-22 00:12:31.18	138.60	5.48	-50.6	-63.1	3.8	8.46e-01	0	38	104	2650800128	72	15414
2026-01-22 00:12:34.30	138.92	5.31	-50.6	-63.1	3.8	8.47e-01	0	38	104	2650800128	72	15440
2026-01-22 00:12:37.14	139.21	5.16	-50.6	-63.1	3.8	8.46e-01	0	38	104	2650800128	72	15440
2026-01-22 00:12:40.26	139.52	4.99	-50.6	-63.1	3.8	8.45e-01	0	38	104	2650800128	72	15450

#Closed at: 2026-01-22 00:12:41
#Recorded file [2650 MB]: D:/Data/31040_260122_030225.dat