passes_logs/2026/01/22/T1/T1__20260122_001433_NOAA_21_JPSS-2_rec.log

#Pass ID: 20260122_001433_NOAA 21 (JPSS-2)
#Satellite: NOAA 21 (JPSS-2)
#Configuration: NOAA 21
#almurnet v.1.7.20251203
#Start time: 2026-01-22 00:14:36

#Version: 2.0.20230620
#Station: T1
#Location: 37.570604 lon 55.790049 lat
#TLE: 1 54234U 22150A   26020.93347024  .00000206  00000+0  11859-3 0  9994
#TLE: 2 54234  98.7506 321.7615 0000627 245.8100 114.3011 14.19536899165654

#Time	Az	El	Level	Level2	SNR	BER	BlckErr	Temp	State	Recorded	gain1	gain2
2026-01-22 00:14:36.03	12.80	5.16	-48.7	-63.4	3.8	1.49e+00	0	36	0	0	69	19055
2026-01-22 00:14:39.01	12.72	5.38	-48.5	-63.2	3.8	1.49e+00	0	36	104	0	67	20820
2026-01-22 00:14:41.99	12.65	5.59	-48.6	-63.2	3.8	1.49e+00	0	37	104	0	67	20975
2026-01-22 00:14:44.97	12.57	5.80	-48.6	-63.3	3.8	1.49e+00	0	36	104	0	67	21062
2026-01-22 00:14:47.95	12.48	6.02	-48.6	-63.2	3.8	1.49e+00	0	37	104	0	67	20928
2026-01-22 00:14:50.93	12.40	6.24	-48.5	-63.0	3.8	1.49e+00	0	37	104	0	67	20334
2026-01-22 00:14:53.91	12.32	6.45	-48.5	-62.4	3.8	1.49e+00	0	37	104	0	67	19138
2026-01-22 00:14:56.88	12.23	6.67	-48.4	-61.9	3.8	1.49e+00	0	37	104	0	67	17899
2026-01-22 00:14:59.86	12.14	6.90	-48.4	-61.8	3.8	1.49e+00	0	37	104	0	67	17790
2026-01-22 00:15:02.84	12.05	7.12	-48.5	-62.3	3.8	1.49e+00	0	37	104	0	67	18873
2026-01-22 00:15:05.82	11.96	7.35	-48.5	-62.9	3.8	1.49e+00	0	37	104	0	67	20184
2026-01-22 00:15:08.81	11.87	7.58	-48.6	-63.1	3.8	1.49e+00	0	37	104	0	67	20694
2026-01-22 00:15:11.79	11.78	7.81	-48.4	-61.5	3.8	1.49e+00	0	37	104	0	67	17255
2026-01-22 00:15:14.77	11.68	8.04	-47.9	-56.6	5.6	5.82e-01	0	37	0	0	67	9743
2026-01-22 00:15:17.75	11.59	8.28	-46.7	-52.1	9.7	1.24e-02	0	37	0	0	65	6538
2026-01-22 00:15:20.73	11.49	8.51	-45.5	-49.5	12.5	1.88e-04	0	37	0	0	63	5445
2026-01-22 00:15:23.71	11.39	8.75	-44.9	-48.5	13.5	1.29e-05	0	37	0	0	61	5438
2026-01-22 00:15:26.69	11.28	8.99	-45.1	-48.9	13.1	2.82e-05	0	37	0	0	61	5665
2026-01-22 00:15:29.67	11.18	9.24	-46.1	-50.6	11.5	8.30e-06	0	38	0	0	62	6545
2026-01-22 00:15:32.69	11.07	9.49	-42.4	-44.9	16.9	0.00e+00	0	37	0	0	56	4782
2026-01-22 00:15:35.61	10.96	9.73	-42.0	-44.5	17.3	0.00e+00	0	38	0	0	56	4579
2026-01-22 00:15:39.17	10.83	10.03	-41.8	-44.2	17.5	0.00e+00	0	37	0	0	55	4669
2026-01-22 00:15:41.96	10.73	10.27	-41.7	-44.1	17.5	0.00e+00	0	38	0	0	55	4642
2026-01-22 00:15:45.23	10.60	10.55	-41.6	-43.9	17.8	0.00e+00	0	38	0	0	55	4510
2026-01-22 00:15:47.94	10.49	10.78	-41.6	-43.9	17.8	0.00e+00	0	38	0	0	55	4507
2026-01-22 00:15:51.21	10.36	11.07	-41.5	-43.8	18.0	0.00e+00	0	38	0	0	54	4711
2026-01-22 00:15:54.03	10.24	11.32	-41.3	-43.5	18.2	0.00e+00	0	38	0	0	54	4586
2026-01-22 00:15:57.16	10.11	11.60	-41.4	-43.6	18.2	0.00e+00	0	38	0	0	54	4610
2026-01-22 00:16:00.49	9.97	11.90	-41.4	-43.5	18.3	0.00e+00	0	38	0	0	54	4572
2026-01-22 00:16:03.34	9.85	12.16	-41.3	-43.4	18.4	0.00e+00	0	38	0	0	54	4515
2026-01-22 00:16:06.47	9.71	12.45	-41.3	-43.4	18.4	0.00e+00	0	38	0	0	54	4516
2026-01-22 00:16:09.31	9.58	12.71	-41.3	-43.4	18.4	0.00e+00	0	38	0	0	54	4494
2026-01-22 00:16:12.47	9.43	13.01	-41.1	-43.1	18.7	0.00e+00	0	38	0	0	54	4342
2026-01-22 00:16:15.31	9.30	13.28	-41.0	-43.0	18.8	0.00e+00	0	38	0	0	54	4313
2026-01-22 00:16:18.44	9.14	13.59	-41.0	-42.9	18.8	0.00e+00	0	38	0	0	53	4537
2026-01-22 00:16:21.28	9.00	13.86	-40.9	-42.9	18.9	0.00e+00	0	38	0	0	53	4496
2026-01-22 00:16:24.41	8.85	14.17	-41.0	-42.9	18.8	0.00e+00	0	38	0	0	53	4524
2026-01-22 00:16:27.26	8.70	14.46	-40.8	-42.7	19.0	0.00e+00	0	38	0	0	53	4437
2026-01-22 00:16:30.38	8.53	14.77	-40.9	-42.8	18.9	0.00e+00	0	38	0	0	53	4482
2026-01-22 00:16:33.23	8.38	15.06	-40.8	-42.7	19.0	0.00e+00	0	38	0	0	53	4433
2026-01-22 00:16:36.72	8.19	15.43	-40.9	-42.8	18.9	0.00e+00	0	38	0	0	53	4484
2026-01-22 00:16:39.45	8.03	15.71	-41.0	-42.9	18.9	0.00e+00	0	38	0	0	53	4498
2026-01-22 00:16:42.72	7.84	16.06	-41.0	-42.9	18.8	0.00e+00	0	38	0	0	53	4541
2026-01-22 00:16:45.50	7.68	16.36	-41.2	-43.1	18.6	0.00e+00	0	38	0	0	53	4645
2026-01-22 00:16:48.69	7.49	16.70	-41.4	-43.4	18.5	0.00e+00	0	38	0	0	53	4786
2026-01-22 00:16:51.79	7.29	17.05	-41.4	-43.3	18.5	0.00e+00	0	38	0	0	53	4756
2026-01-22 00:16:54.80	7.10	17.38	-41.5	-43.4	18.4	0.00e+00	0	38	0	0	53	4807
2026-01-22 00:16:57.79	6.91	17.72	-41.5	-43.4	18.5	0.00e+00	0	38	0	0	53	4781
2026-01-22 00:17:00.78	6.71	18.06	-41.4	-43.3	18.6	0.00e+00	0	38	0	0	53	4742
2026-01-22 00:17:03.76	6.51	18.41	-41.4	-43.2	18.7	0.00e+00	0	38	0	0	53	4703
2026-01-22 00:17:06.73	6.30	18.76	-41.4	-43.3	18.6	0.00e+00	0	38	0	0	53	4729
2026-01-22 00:17:09.82	6.08	19.13	-41.3	-43.2	18.6	0.00e+00	0	38	0	0	53	4686
2026-01-22 00:17:12.68	5.87	19.47	-41.2	-43.0	18.8	0.00e+00	0	38	0	0	53	4588
2026-01-22 00:17:15.81	5.63	19.85	-41.1	-43.0	18.9	0.00e+00	0	38	0	0	53	4558
2026-01-22 00:17:18.66	5.41	20.21	-41.0	-42.9	18.9	0.00e+00	0	38	0	0	53	4503
2026-01-22 00:17:21.88	5.16	20.61	-41.0	-42.8	19.0	0.00e+00	0	38	0	0	53	4483
2026-01-22 00:17:24.72	4.92	20.97	-40.7	-42.6	19.2	0.00e+00	0	38	0	0	53	4349
2026-01-22 00:17:27.97	4.65	21.39	-40.5	-42.3	19.4	0.00e+00	0	38	0	0	53	4216
2026-01-22 00:17:30.81	4.41	21.77	-40.4	-42.2	19.5	0.00e+00	0	38	0	0	52	4409
2026-01-22 00:17:33.93	4.14	22.18	-40.1	-41.8	19.8	0.00e+00	0	38	0	0	52	4222
2026-01-22 00:17:36.78	3.88	22.56	-40.1	-41.8	19.8	0.00e+00	0	38	0	0	52	4238
2026-01-22 00:17:39.90	3.59	22.99	-40.1	-41.8	19.9	0.00e+00	0	38	0	0	52	4210
2026-01-22 00:17:42.79	3.31	23.39	-40.0	-41.7	20.0	0.00e+00	0	38	0	0	51	4424
2026-01-22 00:17:46.04	2.99	23.85	-40.0	-41.7	20.0	0.00e+00	0	38	0	0	51	4434
2026-01-22 00:17:48.88	2.71	24.25	-40.2	-41.9	19.9	0.00e+00	0	38	0	0	51	4512
2026-01-22 00:17:52.01	2.38	24.71	-40.1	-41.9	19.9	0.00e+00	0	38	0	0	51	4495
2026-01-22 00:17:54.85	2.08	25.12	-40.4	-42.2	19.6	0.00e+00	0	38	0	0	51	4658
2026-01-22 00:17:57.98	1.73	25.59	-40.6	-42.3	19.5	0.00e+00	0	38	0	0	51	4728
2026-01-22 00:18:00.88	1.40	26.03	-40.7	-42.5	19.3	0.00e+00	0	38	0	0	52	4579
2026-01-22 00:18:04.09	1.03	26.52	-40.9	-42.7	19.2	0.00e+00	0	38	0	0	52	4693
2026-01-22 00:18:06.93	0.69	26.96	-40.8	-42.6	19.4	0.00e+00	0	38	0	0	52	4608
2026-01-22 00:18:09.97	0.31	27.44	-40.9	-42.7	19.3	0.00e+00	0	38	0	0	52	4657
2026-01-22 00:18:12.96	359.92	27.92	-41.1	-42.8	19.1	0.00e+00	0	38	0	0	52	4744
2026-01-22 00:18:15.94	359.53	28.41	-41.0	-42.8	19.0	0.00e+00	0	38	0	0	52	4718
2026-01-22 00:18:18.93	359.12	28.90	-40.9	-42.7	19.1	0.00e+00	0	38	0	0	52	4671
2026-01-22 00:18:21.91	358.71	29.40	-41.0	-42.8	19.1	0.00e+00	0	38	0	0	52	4745
2026-01-22 00:18:24.93	358.27	29.91	-41.0	-42.8	19.1	0.00e+00	0	38	0	0	52	4740
2026-01-22 00:18:27.92	357.82	30.43	-40.8	-42.5	19.4	0.00e+00	0	38	0	0	52	4579
2026-01-22 00:18:30.90	357.36	30.95	-41.0	-42.8	19.1	0.00e+00	0	38	0	0	52	4717
2026-01-22 00:18:33.88	356.88	31.47	-41.4	-43.2	18.8	0.00e+00	0	38	0	0	53	4677
2026-01-22 00:18:36.86	356.38	32.01	-41.4	-43.3	18.8	0.00e+00	0	38	0	0	53	4727
2026-01-22 00:18:39.83	355.88	32.55	-41.1	-42.9	19.1	0.00e+00	0	38	0	0	53	4519
2026-01-22 00:18:42.82	355.35	33.10	-41.1	-43.0	19.0	0.00e+00	0	38	0	0	53	4549
2026-01-22 00:18:45.80	354.80	33.66	-41.4	-43.3	18.6	0.00e+00	0	38	0	0	53	4748
2026-01-22 00:18:48.78	354.23	34.22	-41.9	-43.8	18.3	0.00e+00	0	38	0	0	54	4743
2026-01-22 00:18:51.77	353.64	34.79	-42.1	-44.0	18.2	0.00e+00	0	38	0	0	55	4591
2026-01-22 00:18:54.69	353.05	35.36	-42.0	-43.9	18.3	0.00e+00	0	38	0	0	55	4516
2026-01-22 00:18:57.82	352.38	35.97	-42.1	-44.0	18.1	0.00e+00	0	38	0	0	55	4574
2026-01-22 00:19:00.86	351.71	36.58	-42.4	-44.3	17.8	0.00e+00	0	38	0	0	55	4758
2026-01-22 00:19:04.13	350.97	37.23	-42.3	-44.3	17.9	0.00e+00	0	38	0	0	55	4739
2026-01-22 00:19:06.85	350.32	37.78	-42.1	-44.0	18.1	0.00e+00	0	38	0	0	55	4588
2026-01-22 00:19:10.34	349.46	38.50	-42.6	-44.6	17.5	0.00e+00	0	38	0	0	55	4926
2026-01-22 00:19:13.18	348.73	39.09	-42.9	-44.8	17.5	0.00e+00	0	38	0	0	56	4752
2026-01-22 00:19:16.57	347.82	39.79	-43.0	-45.0	17.5	0.00e+00	0	38	0	0	56	4858
2026-01-22 00:19:19.32	347.05	40.37	-42.7	-44.7	17.8	0.00e+00	0	38	0	0	56	4663
2026-01-22 00:19:22.62	346.10	41.07	-42.8	-44.8	17.7	0.00e+00	0	38	0	0	56	4719
2026-01-22 00:19:25.36	345.27	41.65	-43.1	-45.1	17.4	0.00e+00	0	38	0	0	56	4905
2026-01-22 00:19:28.60	344.25	42.34	-43.3	-45.4	17.2	0.00e+00	0	38	0	0	57	4788
2026-01-22 00:19:31.69	343.24	43.00	-43.7	-45.8	16.6	0.00e+00	0	38	0	0	57	5037
2026-01-22 00:19:35.06	342.08	43.73	-43.6	-45.9	16.6	0.00e+00	0	38	0	0	58	4766
2026-01-22 00:19:37.79	341.11	44.31	-43.4	-45.5	17.0	0.00e+00	0	38	0	0	58	4579
2026-01-22 00:19:41.07	339.89	45.01	-44.4	-46.8	15.5	0.00e+00	0	38	0	0	59	5007
2026-01-22 00:19:43.80	338.83	45.60	-43.8	-46.0	16.5	0.00e+00	0	38	0	0	59	4567
2026-01-22 00:19:47.09	337.50	46.29	-44.1	-46.4	16.1	0.00e+00	0	38	0	0	58	5059
2026-01-22 00:19:50.11	336.23	46.93	-44.0	-46.3	16.2	0.00e+00	0	38	0	0	59	4723
2026-01-22 00:19:53.10	334.92	47.55	-43.5	-45.7	16.8	0.00e+00	0	38	0	0	58	4658
2026-01-22 00:19:56.76	333.24	48.30	-42.9	-44.9	17.5	0.00e+00	0	38	0	0	57	4509
2026-01-22 00:19:59.60	331.88	48.87	-43.0	-45.0	17.4	0.00e+00	0	38	0	0	57	4575
2026-01-22 00:20:03.55	329.91	49.65	-42.7	-44.8	17.6	0.00e+00	0	38	0	0	57	4466
2026-01-22 00:20:06.39	328.42	50.20	-42.7	-44.7	17.7	0.00e+00	0	38	0	0	57	4439
2026-01-22 00:20:10.38	326.25	50.94	-42.9	-44.9	17.5	0.00e+00	0	38	0	0	57	4542
2026-01-22 00:20:13.22	324.63	51.44	-42.8	-44.8	17.6	0.00e+00	0	38	0	0	57	4455
2026-01-22 00:20:17.19	322.28	52.11	-42.3	-44.2	18.2	0.00e+00	0	38	0	0	56	4406
2026-01-22 00:20:20.03	320.54	52.57	-41.5	-43.4	18.8	0.00e+00	0	38	0	0	55	4255
2026-01-22 00:20:24.01	318.00	53.16	-41.9	-43.8	18.4	0.00e+00	0	38	0	0	54	4755
2026-01-22 00:20:26.95	316.06	53.57	-41.4	-43.2	19.0	0.00e+00	0	38	0	0	54	4402
2026-01-22 00:20:30.36	313.74	54.00	-41.1	-42.9	19.3	0.00e+00	0	38	0	0	54	4247
2026-01-22 00:20:33.36	311.65	54.34	-41.5	-43.3	18.7	0.00e+00	0	38	0	0	54	4463
2026-01-22 00:20:36.48	309.42	54.66	-41.7	-43.5	18.7	0.00e+00	0	38	0	0	54	4568
2026-01-22 00:20:39.32	307.35	54.91	-41.7	-43.6	18.7	0.00e+00	0	38	0	0	54	4627
2026-01-22 00:20:42.45	305.03	55.15	-41.2	-42.9	19.2	0.00e+00	0	38	0	0	54	4285
2026-01-22 00:20:45.29	302.89	55.32	-41.3	-43.1	19.1	0.00e+00	0	38	0	0	54	4350
2026-01-22 00:20:48.42	300.51	55.46	-41.4	-43.2	18.8	0.00e+00	0	38	0	0	54	4414
2026-01-22 00:20:51.26	298.33	55.55	-41.1	-42.8	19.3	0.00e+00	0	38	0	0	54	4225
2026-01-22 00:20:54.38	295.93	55.60	-41.4	-43.2	19.0	0.00e+00	0	38	0	0	54	4394
2026-01-22 00:20:57.22	293.73	55.60	-41.0	-42.7	19.2	0.00e+00	0	38	0	0	53	4440
2026-01-22 00:21:00.35	291.32	55.56	-42.1	-44.0	18.2	0.00e+00	0	38	0	0	54	4837
2026-01-22 00:21:03.19	289.14	55.47	-41.5	-43.3	18.8	0.00e+00	0	38	0	0	54	4491
2026-01-22 00:21:06.32	286.75	55.33	-41.4	-43.2	18.8	0.00e+00	0	38	0	0	54	4409
2026-01-22 00:21:09.16	284.61	55.16	-41.3	-43.1	18.9	0.00e+00	0	38	0	0	54	4366
2026-01-22 00:21:12.29	282.29	54.93	-41.7	-43.6	18.5	0.00e+00	0	38	0	0	54	4599
2026-01-22 00:21:15.13	280.21	54.68	-41.6	-43.5	18.5	0.00e+00	0	38	0	0	54	4564
2026-01-22 00:21:18.29	277.95	54.37	-40.8	-42.5	19.4	0.00e+00	0	38	0	0	53	4326
2026-01-22 00:21:21.14	275.95	54.04	-41.2	-42.9	19.2	0.00e+00	0	38	0	0	53	4530
2026-01-22 00:21:24.37	273.75	53.64	-41.2	-42.9	19.2	0.00e+00	0	38	0	0	53	4522
2026-01-22 00:21:27.22	271.85	53.25	-42.3	-44.2	18.1	0.00e+00	0	38	0	0	55	4667
2026-01-22 00:21:30.77	269.57	52.73	-41.1	-42.8	19.3	0.00e+00	0	38	0	0	54	4218
2026-01-22 00:21:33.47	267.88	52.30	-42.2	-44.1	18.1	0.00e+00	0	38	0	0	55	4649
2026-01-22 00:21:36.75	265.90	51.76	-41.1	-42.8	19.0	0.00e+00	0	38	0	0	54	4222
2026-01-22 00:21:39.47	264.32	51.29	-42.4	-44.3	17.9	0.00e+00	0	38	0	0	55	4744
2026-01-22 00:21:42.77	262.46	50.69	-42.7	-44.7	17.4	0.00e+00	0	38	0	0	56	4675
2026-01-22 00:21:45.61	260.92	50.16	-42.5	-44.4	18.0	0.00e+00	0	38	0	0	56	4533
2026-01-22 00:21:48.74	259.29	49.56	-43.2	-45.2	17.1	0.00e+00	0	38	0	0	57	4704
2026-01-22 00:21:51.58	257.86	49.00	-42.2	-44.0	18.4	0.00e+00	0	38	0	0	56	4329
2026-01-22 00:21:54.74	256.33	48.36	-43.6	-45.7	16.7	0.00e+00	0	38	0	0	57	4958
2026-01-22 00:21:57.58	255.02	47.78	-43.4	-45.5	16.6	0.00e+00	0	38	0	0	58	4559
2026-01-22 00:22:01.06	253.47	47.05	-42.7	-44.6	17.8	0.00e+00	0	38	0	0	56	4637
2026-01-22 00:22:03.98	252.22	46.44	-45.0	-47.6	15.1	0.00e+00	0	38	0	0	60	5173
2026-01-22 00:22:07.28	250.87	45.73	-43.4	-45.5	16.3	0.00e+00	0	38	0	0	58	4566
2026-01-22 00:22:10.00	249.80	45.15	-43.0	-45.0	17.4	0.00e+00	0	38	0	0	57	4580
2026-01-22 00:22:13.27	248.57	44.45	-45.4	-48.1	14.5	2.20e-06	0	38	0	0	61	5192
2026-01-22 00:22:16.07	247.56	43.85	-43.9	-46.1	16.3	0.00e+00	0	38	0	0	59	4625
2026-01-22 00:22:19.50	246.37	43.11	-42.1	-43.9	18.4	0.00e+00	0	38	0	0	56	4257
2026-01-22 00:22:22.47	245.38	42.47	-43.9	-46.2	16.4	0.00e+00	0	38	0	0	58	4929
2026-01-22 00:22:25.76	244.33	41.76	-43.2	-45.2	16.9	0.00e+00	0	38	0	0	58	4425
2026-01-22 00:22:28.48	243.50	41.18	-43.5	-45.7	16.8	0.00e+00	0	38	0	0	57	4927
2026-01-22 00:22:31.75	242.54	40.49	-43.6	-45.8	16.7	0.00e+00	0	38	0	0	58	4732
2026-01-22 00:22:34.47	241.77	39.91	-43.1	-45.2	17.2	0.00e+00	0	38	0	0	58	4413
2026-01-22 00:22:37.97	240.82	39.18	-41.6	-43.4	18.4	0.00e+00	0	38	0	0	55	4285
2026-01-22 00:22:40.69	240.11	38.61	-42.2	-44.1	18.0	0.00e+00	0	38	0	0	55	4619
2026-01-22 00:22:43.96	239.29	37.94	-43.9	-46.1	16.2	0.00e+00	0	38	0	0	58	4921
2026-01-22 00:22:46.72	238.63	37.37	-43.2	-45.3	17.1	0.00e+00	0	38	0	0	58	4461
2026-01-22 00:22:50.04	237.85	36.70	-42.7	-44.7	17.5	0.00e+00	0	38	0	0	57	4398
2026-01-22 00:22:52.79	237.24	36.15	-41.7	-43.5	18.4	0.00e+00	0	38	0	0	55	4340
2026-01-22 00:22:56.24	236.50	35.47	-43.2	-45.2	17.2	0.00e+00	0	38	0	0	57	4693
2026-01-22 00:22:58.96	235.93	34.94	-43.5	-45.6	16.6	0.00e+00	0	38	0	0	57	4903
2026-01-22 00:23:02.26	235.27	34.30	-42.1	-43.9	18.3	0.00e+00	0	38	0	0	56	4279
2026-01-22 00:23:04.96	234.75	33.78	-41.6	-43.4	18.6	0.00e+00	0	38	0	0	55	4289
2026-01-22 00:23:08.25	234.14	33.17	-42.4	-44.4	17.7	0.00e+00	0	38	0	0	55	4771
2026-01-22 00:23:11.17	233.61	32.62	-41.7	-43.5	18.4	0.00e+00	0	38	0	0	55	4337
2026-01-22 00:23:14.15	233.09	32.08	-41.4	-43.2	18.7	0.00e+00	0	38	0	0	54	4422
2026-01-22 00:23:17.15	232.59	31.53	-41.6	-43.5	18.3	0.00e+00	0	38	0	0	54	4570
2026-01-22 00:23:20.14	232.10	31.00	-41.8	-43.6	18.4	0.00e+00	0	38	0	0	54	4642
2026-01-22 00:23:23.13	231.63	30.47	-41.6	-43.4	18.6	0.00e+00	0	38	0	0	54	4543
2026-01-22 00:23:26.22	231.17	29.94	-41.4	-43.2	18.8	0.00e+00	0	38	0	0	54	4413
2026-01-22 00:23:29.35	230.71	29.40	-41.3	-43.1	18.7	0.00e+00	0	38	0	0	54	4359
2026-01-22 00:23:32.19	230.30	28.92	-41.1	-42.9	18.9	0.00e+00	0	38	0	0	54	4268
2026-01-22 00:23:35.86	229.80	28.31	-40.7	-42.4	19.4	0.00e+00	0	38	0	0	53	4270
2026-01-22 00:23:38.57	229.44	27.87	-40.6	-42.4	19.4	0.00e+00	0	38	0	0	53	4246
2026-01-22 00:23:41.84	229.01	27.34	-40.6	-42.3	19.4	0.00e+00	0	38	0	0	53	4222
2026-01-22 00:23:44.59	228.67	26.91	-40.8	-42.6	18.5	0.00e+00	0	38	0	0	53	4345
2026-01-22 00:23:48.17	228.24	26.35	-41.0	-42.7	19.1	0.00e+00	0	38	0	0	53	4439
2026-01-22 00:23:50.89	227.92	25.93	-40.8	-42.6	19.2	0.00e+00	0	38	0	0	53	4357
2026-01-22 00:23:54.16	227.54	25.43	-40.6	-42.3	19.5	0.00e+00	0	38	0	0	53	4226
2026-01-22 00:23:56.90	227.24	25.02	-40.6	-42.4	19.5	0.00e+00	0	38	0	0	53	4246
2026-01-22 00:24:00.14	226.89	24.55	-40.4	-42.1	19.7	0.00e+00	0	38	0	0	52	4349
2026-01-22 00:24:03.39	226.55	24.07	-40.2	-41.8	19.9	0.00e+00	0	38	0	0	52	4230
2026-01-22 00:24:06.29	226.26	23.66	-40.3	-42.0	19.7	0.00e+00	0	38	0	0	52	4313
2026-01-22 00:24:09.85	225.91	23.16	-40.6	-42.3	19.5	0.00e+00	0	38	0	0	52	4492
2026-01-22 00:24:12.63	225.64	22.77	-40.9	-42.6	19.3	0.00e+00	0	38	0	0	52	4636
2026-01-22 00:24:15.93	225.34	22.32	-41.2	-43.0	18.9	0.00e+00	0	38	0	0	52	4826
2026-01-22 00:24:18.81	225.08	21.93	-41.2	-43.0	18.8	0.00e+00	0	38	0	0	53	4595
2026-01-22 00:24:22.20	224.78	21.48	-41.2	-43.1	18.7	0.00e+00	0	38	0	0	53	4614
2026-01-22 00:24:24.91	224.55	21.13	-41.2	-43.0	18.6	0.00e+00	0	38	0	0	53	4592
2026-01-22 00:24:28.19	224.27	20.71	-40.6	-42.4	19.2	0.00e+00	0	38	0	0	53	4265
2026-01-22 00:24:30.90	224.05	20.36	-40.3	-42.0	19.5	0.00e+00	0	38	0	0	52	4316
2026-01-22 00:24:34.16	223.79	19.95	-40.2	-41.8	19.6	0.00e+00	0	38	0	0	52	4237
2026-01-22 00:24:37.20	223.56	19.58	-40.2	-41.8	19.6	0.00e+00	0	38	0	0	51	4486
2026-01-22 00:24:40.33	223.32	19.19	-40.2	-41.9	19.6	0.00e+00	0	38	0	0	51	4540
2026-01-22 00:24:43.40	223.10	18.82	-40.4	-42.1	19.5	0.00e+00	0	38	0	0	51	4618
2026-01-22 00:24:46.24	222.89	18.49	-40.6	-42.3	19.4	0.00e+00	0	38	0	0	51	4749
2026-01-22 00:24:49.37	222.67	18.12	-40.7	-42.5	19.2	0.00e+00	0	38	0	0	52	4571
2026-01-22 00:24:52.26	222.48	17.78	-41.1	-42.9	18.9	0.00e+00	0	38	0	0	52	4776
2026-01-22 00:24:55.49	222.26	17.41	-41.3	-43.1	18.7	0.00e+00	0	38	0	0	53	4623
2026-01-22 00:24:58.33	222.08	17.09	-41.5	-43.3	18.5	0.00e+00	0	38	0	0	53	4754
2026-01-22 00:25:01.46	221.88	16.75	-41.6	-43.5	18.3	0.00e+00	0	38	0	0	53	4826
2026-01-22 00:25:04.38	221.69	16.42	-41.6	-43.5	18.3	0.00e+00	0	38	0	0	53	4867
2026-01-22 00:25:07.36	221.51	16.10	-41.7	-43.6	18.2	0.00e+00	0	38	0	0	54	4617
2026-01-22 00:25:10.35	221.34	15.78	-41.6	-43.5	18.2	0.00e+00	0	38	0	0	54	4563
2026-01-22 00:25:13.33	221.16	15.46	-41.4	-43.3	18.4	0.00e+00	0	38	0	0	54	4457
2026-01-22 00:25:16.59	220.98	15.12	-41.4	-43.3	18.3	0.00e+00	0	38	0	0	54	4470
2026-01-22 00:25:19.30	220.83	14.84	-41.3	-43.1	18.4	0.00e+00	0	38	0	0	54	4385
2026-01-22 00:25:22.61	220.65	14.50	-41.3	-43.2	18.4	0.00e+00	0	38	0	0	54	4397
2026-01-22 00:25:25.46	220.49	14.22	-41.3	-43.1	18.5	0.00e+00	0	38	0	0	54	4372
2026-01-22 00:25:28.59	220.33	13.90	-41.3	-43.2	18.4	0.00e+00	0	38	0	0	54	4422
2026-01-22 00:25:31.93	220.16	13.57	-41.2	-43.0	18.5	0.00e+00	0	38	0	0	54	4336
2026-01-22 00:25:34.81	220.02	13.29	-41.3	-43.1	18.4	0.00e+00	0	38	0	0	54	4385
2026-01-22 00:25:37.93	219.86	12.99	-41.3	-43.2	18.4	0.00e+00	0	38	0	0	54	4401
2026-01-22 00:25:40.77	219.73	12.72	-41.3	-43.2	18.3	0.00e+00	0	38	0	0	54	4414
2026-01-22 00:25:43.92	219.58	12.43	-41.5	-43.4	18.2	0.00e+00	0	38	0	0	54	4500
2026-01-22 00:25:46.84	219.45	12.15	-41.5	-43.4	18.2	0.00e+00	0	38	0	0	54	4510
2026-01-22 00:25:50.09	219.30	11.85	-41.5	-43.5	18.1	0.00e+00	0	38	0	0	54	4548
2026-01-22 00:25:53.34	219.16	11.56	-41.7	-43.6	17.9	0.00e+00	0	38	0	0	54	4651
2026-01-22 00:25:56.19	219.03	11.30	-41.9	-43.8	17.7	0.00e+00	0	38	0	0	54	4745
2026-01-22 00:25:59.32	218.90	11.02	-41.8	-43.8	17.7	0.00e+00	0	38	0	0	54	4738
2026-01-22 00:26:02.16	218.78	10.77	-41.8	-43.8	17.7	0.00e+00	0	38	0	0	54	4754
2026-01-22 00:26:05.28	218.65	10.50	-41.9	-43.9	17.6	0.00e+00	0	38	0	0	54	4797
2026-01-22 00:26:08.28	218.53	10.24	-42.0	-44.1	17.4	0.00e+00	0	38	0	0	54	4891
2026-01-22 00:26:11.76	218.40	9.94	-42.2	-44.3	17.2	0.00e+00	0	38	0	0	55	4728
2026-01-22 00:26:14.47	218.29	9.71	-42.3	-44.5	17.0	0.00e+00	0	38	0	0	55	4817
2026-01-22 00:26:17.75	218.17	9.44	-42.3	-44.4	17.0	0.00e+00	0	38	0	0	55	4805
2026-01-22 00:26:20.48	218.07	9.21	-42.3	-44.4	17.1	0.00e+00	0	38	0	0	55	4773
2026-01-22 00:26:23.75	217.95	8.94	-46.8	-50.9	11.6	0.00e+00	0	38	0	0	64	6016
2026-01-22 00:26:26.45	217.85	8.72	-50.6	-63.7	3.8	1.49e+00	0	38	104	0	72	16591
2026-01-22 00:26:29.81	217.73	8.45	-50.8	-63.9	3.8	1.49e+00	0	38	104	0	72	16963
2026-01-22 00:26:32.55	217.64	8.23	-50.9	-64.0	3.8	1.49e+00	0	38	104	0	72	17141
2026-01-22 00:26:35.82	217.53	7.97	-51.0	-64.0	3.8	1.49e+00	0	38	104	0	72	17188
2026-01-22 00:26:38.51	217.44	7.76	-50.9	-64.0	3.8	1.49e+00	0	38	104	0	72	17174
2026-01-22 00:26:41.78	217.33	7.50	-50.7	-64.0	3.8	1.49e+00	0	38	104	0	72	17153
2026-01-22 00:26:44.48	217.24	7.30	-50.6	-63.9	3.8	1.49e+00	0	38	104	0	72	17059
2026-01-22 00:26:47.74	217.14	7.05	-50.6	-63.9	3.8	1.49e+00	0	38	104	0	72	17001
2026-01-22 00:26:50.47	217.06	6.84	-50.6	-63.9	3.8	1.49e+00	0	38	104	0	72	16925
2026-01-22 00:26:53.73	216.96	6.59	-50.5	-63.9	3.8	1.49e+00	0	38	104	0	72	16938
2026-01-22 00:26:56.44	216.87	6.39	-50.6	-63.9	3.8	1.49e+00	0	38	104	0	72	16974
2026-01-22 00:26:59.72	216.78	6.15	-50.5	-63.9	3.8	1.49e+00	0	38	104	0	72	16943
2026-01-22 00:27:02.43	216.70	5.95	-50.5	-63.9	3.8	1.49e+00	0	38	104	0	72	16921
2026-01-22 00:27:05.70	216.60	5.71	-50.6	-63.9	3.8	1.49e+00	0	38	104	0	72	16897
2026-01-22 00:27:08.39	216.53	5.52	-50.5	-63.9	3.8	1.49e+00	0	38	104	0	72	16908
2026-01-22 00:27:11.66	216.44	5.28	-50.5	-63.9	3.8	1.49e+00	0	38	104	0	72	16935
2026-01-22 00:27:14.35	216.36	5.09	-50.5	-63.9	3.8	1.49e+00	0	38	104	0	72	16901

#Closed at: 2026-01-22 00:27:16
#Recorded file [0 MB]: D:/Data/31040_260122_031436.dat