passes_logs/2026/01/22/T1/T1__20260122_215144_FENGYUN_3G_rec.log

#Pass ID: 20260122_215144_FENGYUN 3G
#Satellite: FENGYUN 3G
#Configuration: FENGYUN 3G
#almurnet v.1.7.20251203
#Start time: 2026-01-22 21:51:44

#Version: 2.0.20230620
#Station: T1
#Location: 37.570604 lon 55.790049 lat
#TLE: 1 56232U 23055A   26022.50924442  .00035566  00000+0  54215-3 0  9999
#TLE: 2 56232  49.9945  17.1750 0004072  65.8313 294.3080 15.54075298157364

#Time	Az	El	Level	Level2	SNR	BER	BlckErr	Temp	State	Recorded	gain1	gain2
2026-01-22 21:51:44.95	258.48	5.26	-49.5	-68.5	3.8	8.46e-01	0	38	0	0	71	30654
2026-01-22 21:51:46.93	258.25	5.40	-49.5	-68.4	3.8	8.48e-01	0	39	104	0	71	30299
2026-01-22 21:51:48.91	258.01	5.54	-49.5	-68.5	3.8	8.48e-01	0	39	104	0	71	30511
2026-01-22 21:51:50.90	257.77	5.68	-49.5	-68.5	3.8	8.47e-01	0	39	104	0	71	30389
2026-01-22 21:51:52.89	257.53	5.83	-49.5	-68.3	3.8	8.45e-01	0	39	104	0	71	30006
2026-01-22 21:51:54.87	257.28	5.97	-49.5	-68.2	3.8	8.47e-01	0	39	104	0	71	29684
2026-01-22 21:51:56.86	257.03	6.12	-49.5	-68.2	3.8	8.48e-01	0	39	104	0	71	29560
2026-01-22 21:51:58.84	256.78	6.27	-49.5	-68.4	3.8	8.46e-01	0	39	104	0	71	30035
2026-01-22 21:52:00.83	256.52	6.42	-49.5	-68.5	3.8	8.47e-01	0	39	104	0	71	30532
2026-01-22 21:52:02.82	256.26	6.57	-49.5	-68.5	3.8	8.46e-01	0	39	104	0	71	30563
2026-01-22 21:52:04.80	256.00	6.71	-49.5	-68.4	3.8	8.46e-01	0	39	104	0	71	30353
2026-01-22 21:52:06.79	255.73	6.87	-49.5	-68.2	3.8	8.49e-01	0	39	104	0	71	29518
2026-01-22 21:52:08.78	255.46	7.02	-49.5	-68.1	3.8	8.48e-01	0	39	104	0	71	29203
2026-01-22 21:52:10.77	255.18	7.17	-49.5	-68.2	3.8	8.47e-01	0	39	104	0	71	29679
2026-01-22 21:52:12.75	254.90	7.32	-49.5	-68.4	3.8	8.47e-01	0	40	104	0	70	31826
2026-01-22 21:52:14.74	254.62	7.48	-49.5	-68.4	3.8	8.47e-01	0	40	104	0	70	32171
2026-01-22 21:52:16.72	254.33	7.63	-49.5	-68.5	3.8	8.47e-01	0	40	104	0	70	32258
2026-01-22 21:52:18.71	254.03	7.79	-49.5	-68.5	3.8	8.47e-01	0	40	104	0	70	32295
2026-01-22 21:52:20.70	253.73	7.95	-49.5	-68.1	3.8	8.47e-01	0	40	104	0	70	30774
2026-01-22 21:52:22.68	253.43	8.10	-49.4	-67.5	3.8	8.48e-01	0	40	104	0	70	28798
2026-01-22 21:52:24.67	253.13	8.26	-49.5	-68.2	3.8	8.46e-01	0	40	104	0	70	31360
2026-01-22 21:52:26.66	252.81	8.42	-49.5	-68.1	3.8	8.47e-01	0	40	104	0	70	30958
2026-01-22 21:52:28.64	252.50	8.58	-49.4	-66.6	3.8	8.46e-01	0	40	104	0	70	26018
2026-01-22 21:52:30.63	252.18	8.74	-49.2	-61.9	5.5	8.40e-01	0	40	0	0	70	15149
2026-01-22 21:52:32.62	251.85	8.91	-48.1	-55.3	11.9	4.41e-01	0	40	0	0	68	7905
2026-01-22 21:52:34.61	251.52	9.07	-46.9	-52.2	15.1	2.28e-05	0	40	0	0	65	6632
2026-01-22 21:52:36.59	251.18	9.24	-47.0	-52.2	15.9	0.00e+00	0	40	0	0	64	7006
2026-01-22 21:52:38.90	250.78	9.43	-44.4	-47.7	19.5	7.59e-04	0	40	0	0	60	5270
2026-01-22 21:52:41.24	250.37	9.62	-44.2	-47.4	20.3	0.00e+00	0	40	0	0	59	5346
2026-01-22 21:52:43.23	250.02	9.79	-44.0	-47.0	20.3	0.00e+00	0	40	0	0	59	5146
2026-01-22 21:52:45.22	249.66	9.96	-43.3	-46.1	21.2	0.00e+00	0	40	0	0	58	4897
2026-01-22 21:52:47.21	249.29	10.13	-42.1	-44.5	22.8	0.00e+00	0	40	0	0	56	4589
2026-01-22 21:52:49.20	248.92	10.30	-41.3	-43.6	23.4	0.00e+00	0	40	0	0	54	4648
2026-01-22 21:52:51.18	248.54	10.47	-41.3	-43.7	23.3	0.00e+00	0	40	0	0	54	4654
2026-01-22 21:52:53.17	248.16	10.64	-41.1	-43.4	23.7	0.00e+00	0	40	0	0	54	4514
2026-01-22 21:52:55.10	247.78	10.81	-40.7	-42.9	24.1	0.00e+00	0	40	0	0	53	4538
2026-01-22 21:52:57.29	247.34	11.00	-40.4	-42.6	24.4	0.00e+00	0	40	0	0	52	4640
2026-01-22 21:52:59.34	246.92	11.18	-40.5	-42.8	24.3	0.00e+00	0	40	0	0	52	4710
2026-01-22 21:53:01.54	246.47	11.37	-40.6	-42.8	24.3	0.00e+00	0	40	0	0	52	4725
2026-01-22 21:53:03.53	246.05	11.55	-40.7	-42.9	24.2	0.00e+00	0	40	0	0	52	4796
2026-01-22 21:53:05.52	245.63	11.73	-40.4	-42.6	24.4	0.00e+00	0	40	0	0	52	4643
2026-01-22 21:53:07.51	245.20	11.90	-40.2	-42.4	24.5	0.00e+00	0	40	0	0	52	4534
2026-01-22 21:53:09.50	244.76	12.08	-40.1	-42.3	24.8	0.00e+00	0	40	0	0	52	4450
2026-01-22 21:53:11.49	244.31	12.26	-40.1	-42.3	24.8	0.00e+00	0	40	0	0	52	4468
2026-01-22 21:53:13.56	243.84	12.45	-40.4	-42.6	24.5	0.00e+00	0	41	0	0	52	4631
2026-01-22 21:53:15.55	243.38	12.63	-40.2	-42.4	24.6	0.00e+00	0	40	0	0	52	4521
2026-01-22 21:53:17.54	242.91	12.81	-40.0	-42.1	24.9	0.00e+00	0	41	0	0	52	4389
2026-01-22 21:53:19.54	242.43	12.99	-39.6	-41.8	25.3	0.00e+00	0	41	0	0	51	4445
2026-01-22 21:53:21.53	241.95	13.17	-39.5	-41.6	25.5	0.00e+00	0	40	0	0	50	4607
2026-01-22 21:53:23.52	241.46	13.35	-39.7	-41.8	25.3	0.00e+00	0	41	0	0	50	4729
2026-01-22 21:53:25.51	240.96	13.53	-39.9	-42.0	25.2	0.00e+00	0	41	0	0	50	4838
2026-01-22 21:53:27.50	240.45	13.72	-39.9	-42.0	25.1	0.00e+00	0	40	0	0	50	4861
2026-01-22 21:53:29.49	239.94	13.90	-39.7	-41.8	25.3	0.00e+00	0	40	0	0	50	4747
2026-01-22 21:53:31.60	239.38	14.09	-39.4	-41.4	25.6	0.00e+00	0	41	0	0	50	4539
2026-01-22 21:53:33.54	238.86	14.27	-39.1	-41.1	25.9	0.00e+00	0	41	0	0	50	4389
2026-01-22 21:53:35.53	238.32	14.45	-39.5	-41.6	25.5	0.00e+00	0	41	0	0	50	4632
2026-01-22 21:53:37.52	237.77	14.63	-39.6	-41.7	25.4	0.00e+00	0	41	0	0	50	4668
2026-01-22 21:53:39.52	237.21	14.82	-39.6	-41.7	25.5	0.00e+00	0	41	0	0	50	4660
2026-01-22 21:53:41.50	236.65	15.00	-39.0	-41.1	26.0	0.00e+00	0	41	0	0	50	4353
2026-01-22 21:53:43.49	236.07	15.18	-38.8	-40.8	26.2	0.00e+00	0	41	0	0	49	4460
2026-01-22 21:53:45.52	235.47	15.36	-38.8	-40.9	26.1	0.00e+00	0	41	0	0	49	4507
2026-01-22 21:53:47.57	234.86	15.55	-38.9	-41.0	26.1	0.00e+00	0	41	0	0	49	4554
2026-01-22 21:53:49.56	234.26	15.73	-39.3	-41.4	25.7	0.00e+00	0	41	0	0	49	4761
2026-01-22 21:53:51.56	233.64	15.91	-39.1	-41.2	25.8	0.00e+00	0	41	0	0	49	4673
2026-01-22 21:53:53.55	233.02	16.09	-39.0	-41.0	26.0	0.00e+00	0	41	0	0	49	4589
2026-01-22 21:53:55.54	232.39	16.27	-38.7	-40.7	26.3	0.00e+00	0	41	0	0	49	4422
2026-01-22 21:53:57.53	231.75	16.44	-38.5	-40.5	26.5	0.00e+00	0	41	0	0	49	4312
2026-01-22 21:53:59.52	231.09	16.62	-38.3	-40.3	26.4	0.00e+00	0	41	0	0	48	4474
2026-01-22 21:54:01.51	230.43	16.79	-38.7	-40.7	26.3	0.00e+00	0	41	0	0	48	4687
2026-01-22 21:54:03.58	229.74	16.97	-38.9	-40.9	26.1	0.00e+00	0	41	0	0	48	4785
2026-01-22 21:54:05.57	229.06	17.14	-38.9	-40.9	26.1	0.00e+00	0	41	0	0	48	4786
2026-01-22 21:54:07.56	228.37	17.31	-38.6	-40.6	26.3	0.00e+00	0	41	0	0	48	4651
2026-01-22 21:54:09.55	227.67	17.47	-38.2	-40.1	26.8	0.00e+00	0	41	0	0	48	4391
2026-01-22 21:54:11.54	226.96	17.64	-37.9	-39.9	26.9	0.00e+00	0	41	0	0	47	4506
2026-01-22 21:54:13.53	226.24	17.80	-37.5	-39.5	27.2	0.00e+00	0	41	0	0	47	4302
2026-01-22 21:54:15.52	225.51	17.96	-37.6	-39.5	27.3	0.00e+00	0	41	0	0	46	4590
2026-01-22 21:54:17.51	224.77	18.12	-38.0	-40.0	26.7	0.00e+00	0	41	0	0	46	4850
2026-01-22 21:54:19.51	224.02	18.27	-38.4	-40.4	26.4	0.00e+00	0	40	0	0	47	4813
2026-01-22 21:54:21.51	223.26	18.43	-38.7	-40.7	26.3	0.00e+00	0	41	0	0	48	4686
2026-01-22 21:54:23.50	222.50	18.57	-38.8	-40.8	26.2	0.00e+00	0	41	0	0	48	4748
2026-01-22 21:54:25.49	221.72	18.72	-38.7	-40.7	26.3	0.00e+00	0	41	0	0	48	4678
2026-01-22 21:54:27.48	220.94	18.86	-38.4	-40.4	26.5	0.00e+00	0	41	0	0	48	4538
2026-01-22 21:54:29.47	220.15	19.00	-38.3	-40.3	26.7	0.00e+00	0	41	0	0	48	4457
2026-01-22 21:54:31.45	219.35	19.13	-38.0	-40.0	26.9	0.00e+00	0	41	0	0	48	4310
2026-01-22 21:54:33.44	218.54	19.26	-37.9	-39.9	27.0	0.00e+00	0	41	0	0	47	4509
2026-01-22 21:54:35.43	217.72	19.39	-38.0	-39.9	26.9	0.00e+00	0	41	0	0	47	4532
2026-01-22 21:54:37.58	216.83	19.52	-37.9	-39.9	26.9	0.00e+00	0	41	0	0	47	4539
2026-01-22 21:54:39.57	215.99	19.64	-37.6	-39.6	27.1	0.00e+00	0	41	0	0	47	4367
2026-01-22 21:54:41.56	215.15	19.75	-37.6	-39.5	27.2	0.00e+00	0	41	0	0	47	4333
2026-01-22 21:54:43.57	214.29	19.86	-37.8	-39.7	27.1	0.00e+00	0	41	0	0	47	4428
2026-01-22 21:54:45.57	213.43	19.96	-37.8	-39.7	27.1	0.00e+00	0	41	0	0	47	4432
2026-01-22 21:54:47.57	212.56	20.06	-37.9	-39.9	26.9	0.00e+00	0	41	0	0	47	4511
2026-01-22 21:54:49.57	211.68	20.15	-38.0	-40.0	26.8	0.00e+00	0	41	0	0	47	4565
2026-01-22 21:54:51.63	210.77	20.24	-38.0	-39.9	26.9	0.00e+00	0	41	0	0	47	4538
2026-01-22 21:54:53.62	209.89	20.32	-38.0	-40.0	26.8	0.00e+00	0	41	0	0	47	4579
2026-01-22 21:54:55.74	208.94	20.40	-38.2	-40.2	26.8	0.00e+00	0	41	0	0	47	4655
2026-01-22 21:54:57.83	208.00	20.47	-38.4	-40.4	26.6	0.00e+00	0	41	0	0	47	4779
2026-01-22 21:54:59.82	207.10	20.54	-38.3	-40.4	26.6	0.00e+00	0	41	0	0	47	4766
2026-01-22 21:55:01.81	206.20	20.59	-38.3	-40.3	26.6	0.00e+00	0	41	0	0	47	4706
2026-01-22 21:55:03.80	205.29	20.64	-38.4	-40.4	26.6	0.00e+00	0	41	0	0	47	4782
2026-01-22 21:55:05.79	204.38	20.69	-38.3	-40.3	26.6	0.00e+00	0	41	0	0	47	4715
2026-01-22 21:55:07.79	203.47	20.72	-38.3	-40.3	26.6	0.00e+00	0	41	0	0	47	4755
2026-01-22 21:55:09.79	202.55	20.75	-38.0	-39.9	26.9	0.00e+00	0	41	0	0	47	4545
2026-01-22 21:55:11.78	201.63	20.78	-37.8	-39.8	27.0	0.00e+00	0	41	0	0	47	4468
2026-01-22 21:55:13.77	200.71	20.80	-37.7	-39.6	27.2	0.00e+00	0	41	0	0	47	4382
2026-01-22 21:55:15.77	199.78	20.81	-37.3	-39.2	27.5	0.00e+00	0	41	0	0	46	4417
2026-01-22 21:55:17.76	198.86	20.81	-37.3	-39.2	27.5	0.00e+00	0	41	0	0	46	4423
2026-01-22 21:55:19.77	197.93	20.81	-37.3	-39.3	27.4	0.00e+00	0	41	0	0	46	4457
2026-01-22 21:55:21.98	196.91	20.80	-37.6	-39.5	27.2	0.00e+00	0	41	0	0	46	4588
2026-01-22 21:55:23.99	195.98	20.78	-37.6	-39.5	27.3	0.00e+00	0	41	0	0	46	4583
2026-01-22 21:55:25.98	195.07	20.76	-37.6	-39.6	27.2	0.00e+00	0	41	0	0	46	4621
2026-01-22 21:55:27.97	194.15	20.73	-37.5	-39.5	27.2	0.00e+00	0	41	0	0	46	4573
2026-01-22 21:55:29.97	193.23	20.69	-37.3	-39.2	27.5	0.00e+00	0	41	0	0	46	4440
2026-01-22 21:55:32.06	192.27	20.65	-37.4	-39.4	27.4	0.00e+00	0	41	0	0	46	4509
2026-01-22 21:55:34.03	191.38	20.60	-37.8	-39.8	27.0	0.00e+00	0	41	0	0	46	4739
2026-01-22 21:55:36.02	190.47	20.54	-38.0	-40.0	26.9	0.00e+00	0	41	0	0	46	4827
2026-01-22 21:55:38.01	189.57	20.48	-38.0	-40.0	26.9	0.00e+00	0	41	0	0	46	4838
2026-01-22 21:55:40.03	188.66	20.41	-37.9	-39.9	26.9	0.00e+00	0	41	0	0	46	4765
2026-01-22 21:55:42.02	187.77	20.34	-38.2	-40.2	26.8	0.00e+00	0	41	0	0	46	4938
2026-01-22 21:55:44.01	186.89	20.26	-38.7	-40.8	26.3	0.00e+00	0	41	0	0	48	4709
2026-01-22 21:55:46.00	186.01	20.18	-38.4	-40.4	26.4	0.00e+00	0	41	0	0	48	4538
2026-01-22 21:55:47.99	185.13	20.09	-38.2	-40.2	26.7	0.00e+00	0	41	0	0	48	4429
2026-01-22 21:55:49.98	184.27	19.99	-38.1	-40.1	26.7	0.00e+00	0	41	0	0	47	4640
2026-01-22 21:55:51.97	183.41	19.89	-38.0	-40.0	26.9	0.00e+00	0	41	0	0	47	4555
2026-01-22 21:55:53.96	182.55	19.78	-37.7	-39.7	27.1	0.00e+00	0	41	0	0	47	4429
2026-01-22 21:55:55.95	181.71	19.67	-37.9	-39.9	27.0	0.00e+00	0	41	0	0	47	4528
2026-01-22 21:55:57.94	180.87	19.56	-37.8	-39.8	27.0	0.00e+00	0	41	0	0	47	4461
2026-01-22 21:55:59.93	180.04	19.44	-37.7	-39.7	27.1	0.00e+00	0	41	0	0	47	4410
2026-01-22 21:56:01.92	179.22	19.31	-37.8	-39.8	27.0	0.00e+00	0	41	0	0	47	4474
2026-01-22 21:56:03.91	178.40	19.18	-37.9	-40.0	26.8	0.00e+00	0	41	0	0	47	4546
2026-01-22 21:56:05.90	177.60	19.05	-38.0	-40.0	26.9	0.00e+00	0	41	0	0	47	4563
2026-01-22 21:56:07.94	176.78	18.91	-38.1	-40.1	26.7	0.00e+00	0	41	0	0	47	4642
2026-01-22 21:56:09.91	176.00	18.77	-38.3	-40.3	26.6	0.00e+00	0	41	0	0	47	4749
2026-01-22 21:56:11.90	175.22	18.62	-38.0	-40.0	26.2	0.00e+00	0	41	0	0	47	4595
2026-01-22 21:56:13.89	174.45	18.48	-38.0	-40.0	26.7	0.00e+00	0	41	0	0	47	4594
2026-01-22 21:56:15.88	173.69	18.33	-37.9	-39.9	26.8	0.00e+00	0	41	0	0	47	4529
2026-01-22 21:56:17.87	172.94	18.17	-37.4	-39.3	27.3	0.00e+00	0	41	0	0	46	4484
2026-01-22 21:56:19.86	172.20	18.02	-37.4	-39.4	27.3	0.00e+00	0	41	0	0	46	4507
2026-01-22 21:56:21.88	171.45	17.85	-37.9	-39.9	26.8	0.00e+00	0	41	0	0	46	4786
2026-01-22 21:56:23.87	170.73	17.69	-38.3	-40.4	26.5	0.00e+00	0	41	0	0	47	4773
2026-01-22 21:56:25.83	170.03	17.53	-38.3	-40.3	26.5	0.00e+00	0	41	0	0	47	4734
2026-01-22 21:56:27.82	169.32	17.37	-38.0	-40.0	26.7	0.00e+00	0	41	0	0	47	4594
2026-01-22 21:56:29.81	168.63	17.20	-38.3	-40.3	26.5	0.00e+00	0	41	0	0	47	4716
2026-01-22 21:56:31.80	167.94	17.03	-38.4	-40.5	26.4	0.00e+00	0	41	0	0	47	4817
2026-01-22 21:56:33.79	167.27	16.86	-38.5	-40.6	26.3	0.00e+00	0	41	0	0	47	4871
2026-01-22 21:56:35.78	166.60	16.68	-38.6	-40.6	26.3	0.00e+00	0	41	0	0	47	4920
2026-01-22 21:56:37.77	165.95	16.51	-38.5	-40.5	26.0	0.00e+00	0	41	0	0	47	4869
2026-01-22 21:56:39.76	165.30	16.33	-38.4	-40.4	26.4	0.00e+00	0	41	0	0	47	4804
2026-01-22 21:56:41.75	164.66	16.16	-38.6	-40.6	26.2	0.00e+00	0	41	0	0	47	4923
2026-01-22 21:56:43.74	164.04	15.98	-38.9	-40.9	26.0	0.00e+00	0	41	0	0	48	4806
2026-01-22 21:56:45.75	163.41	15.80	-38.9	-41.0	25.9	0.00e+00	0	41	0	0	48	4852
2026-01-22 21:56:47.77	162.80	15.61	-39.0	-41.0	25.9	0.00e+00	0	41	0	0	48	4854
2026-01-22 21:56:49.76	162.20	15.43	-38.9	-41.0	25.9	0.00e+00	0	41	0	0	48	4821
2026-01-22 21:56:51.75	161.61	15.25	-38.9	-41.0	26.0	0.00e+00	0	41	0	0	48	4824
2026-01-22 21:56:53.76	161.02	15.07	-38.9	-40.9	26.0	0.00e+00	0	41	0	0	48	4800
2026-01-22 21:56:55.86	160.42	14.88	-39.1	-41.2	25.7	0.00e+00	0	41	0	0	48	4962
2026-01-22 21:56:57.84	159.86	14.70	-39.3	-41.5	25.6	0.00e+00	0	41	0	0	49	4821
2026-01-22 21:57:00.26	159.18	14.47	-39.3	-41.4	25.6	0.00e+00	0	41	0	0	49	4791
2026-01-22 21:57:02.25	158.64	14.29	-39.2	-41.3	25.6	0.00e+00	0	41	0	0	49	4744
2026-01-22 21:57:04.24	158.11	14.11	-39.6	-41.7	25.3	0.00e+00	0	41	0	0	49	4969
2026-01-22 21:57:06.23	157.58	13.93	-39.9	-42.0	25.0	0.00e+00	0	41	0	0	50	4848
2026-01-22 21:57:08.22	157.06	13.74	-39.9	-42.1	25.0	1.10e-06	0	41	0	0	50	4872
2026-01-22 21:57:10.27	156.54	13.55	-39.7	-41.8	25.2	6.52e-05	0	41	0	0	50	4741
2026-01-22 21:57:12.18	156.06	13.38	-39.6	-41.8	25.2	0.00e+00	0	41	0	0	50	4707
2026-01-22 21:57:14.17	155.56	13.20	-39.8	-42.0	25.0	0.00e+00	0	41	0	0	50	4852
2026-01-22 21:57:16.16	155.08	13.02	-39.9	-42.2	24.9	0.00e+00	0	41	0	0	50	4927
2026-01-22 21:57:18.15	154.60	12.84	-40.1	-42.3	24.8	0.00e+00	0	41	0	0	50	4992
2026-01-22 21:57:20.14	154.13	12.65	-40.1	-42.3	24.7	0.00e+00	0	41	0	0	50	5027
2026-01-22 21:57:22.12	153.67	12.48	-40.1	-42.4	24.7	0.00e+00	0	41	0	0	50	5045
2026-01-22 21:57:24.18	153.20	12.29	-40.3	-42.5	24.5	0.00e+00	0	41	0	0	51	4834
2026-01-22 21:57:26.15	152.75	12.11	-40.4	-42.6	24.4	0.00e+00	0	41	0	0	51	4914
2026-01-22 21:57:28.12	152.31	11.94	-40.6	-42.9	24.2	0.00e+00	0	41	0	0	51	5059
2026-01-22 21:57:30.14	151.87	11.75	-40.5	-42.8	24.2	0.00e+00	0	41	0	0	51	5008
2026-01-22 21:57:32.34	151.40	11.56	-40.6	-42.9	24.2	0.00e+00	0	41	0	0	52	4765
2026-01-22 21:57:34.34	150.98	11.38	-40.3	-42.6	24.4	0.00e+00	0	41	0	0	52	4599
2026-01-22 21:57:36.52	150.53	11.19	-40.2	-42.5	24.5	0.00e+00	0	41	0	0	52	4549
2026-01-22 21:57:38.54	150.12	11.01	-40.4	-42.6	24.4	0.00e+00	0	41	0	0	52	4637
2026-01-22 21:57:40.53	149.72	10.84	-40.5	-42.8	24.2	0.00e+00	0	41	0	0	52	4729
2026-01-22 21:57:42.54	149.32	10.66	-40.8	-43.1	23.9	0.00e+00	0	41	0	0	52	4905
2026-01-22 21:57:44.54	148.93	10.49	-41.1	-43.4	23.6	0.00e+00	0	41	0	0	52	5093
2026-01-22 21:57:46.57	148.55	10.31	-41.4	-43.8	23.2	0.00e+00	0	41	0	0	53	5034
2026-01-22 21:57:48.57	148.17	10.14	-41.3	-43.7	23.3	0.00e+00	0	41	0	0	53	4970
2026-01-22 21:57:50.56	147.80	9.97	-41.3	-43.7	23.3	0.00e+00	0	41	0	0	53	4945
2026-01-22 21:57:52.55	147.44	9.80	-41.3	-43.7	22.3	0.00e+00	0	41	0	0	53	4978
2026-01-22 21:57:54.54	147.08	9.64	-41.4	-43.8	23.1	0.00e+00	0	41	0	0	53	5027
2026-01-22 21:57:56.53	146.73	9.47	-41.6	-44.1	22.9	0.00e+00	0	41	0	0	53	5187
2026-01-22 21:57:58.58	146.37	9.30	-41.6	-44.0	22.9	0.00e+00	0	41	0	0	53	5148
2026-01-22 21:58:00.59	146.03	9.13	-41.5	-44.0	23.0	0.00e+00	0	41	0	0	53	5102
2026-01-22 21:58:02.58	145.69	8.97	-42.1	-44.7	22.5	0.00e+00	0	41	0	0	54	5259
2026-01-22 21:58:04.58	145.36	8.80	-49.7	-68.7	3.8	3.90e-01	0	41	104	0	70	33133
2026-01-22 21:58:06.57	145.04	8.64	-50.1	-68.9	3.8	8.46e-01	0	41	104	0	70	33925
2026-01-22 21:58:08.55	144.72	8.48	-50.1	-69.0	3.8	8.47e-01	0	41	104	0	70	34168
2026-01-22 21:58:10.54	144.40	8.32	-50.2	-69.1	3.8	8.47e-01	0	41	104	0	71	32633
2026-01-22 21:58:12.52	144.09	8.16	-50.3	-69.1	3.8	8.47e-01	0	41	104	0	71	32831
2026-01-22 21:58:14.53	143.79	8.00	-50.3	-69.1	3.8	8.46e-01	0	41	104	0	71	32817
2026-01-22 21:58:16.53	143.48	7.84	-50.2	-69.2	3.8	8.46e-01	0	41	104	0	71	32963
2026-01-22 21:58:18.51	143.19	7.68	-50.0	-69.1	3.8	8.46e-01	0	41	104	0	71	32855
2026-01-22 21:58:20.52	142.89	7.53	-50.3	-69.1	3.8	8.47e-01	0	41	104	0	71	32885
2026-01-22 21:58:22.52	142.60	7.37	-50.1	-69.1	3.8	8.48e-01	0	41	104	0	71	32927
2026-01-22 21:58:24.51	142.32	7.22	-50.1	-69.1	3.8	8.47e-01	0	41	104	0	71	32734
2026-01-22 21:58:26.56	142.03	7.06	-50.1	-69.1	3.8	8.48e-01	0	41	104	0	71	32680
2026-01-22 21:58:28.55	141.76	6.91	-50.1	-69.1	3.8	8.46e-01	0	41	104	0	71	32659
2026-01-22 21:58:30.53	141.49	6.75	-50.1	-69.1	3.8	8.46e-01	0	41	104	0	71	32581
2026-01-22 21:58:32.52	141.22	6.60	-50.1	-69.0	3.8	8.47e-01	0	41	104	0	71	32541
2026-01-22 21:58:34.52	140.95	6.45	-50.1	-69.1	3.8	8.46e-01	0	42	104	0	71	32565
2026-01-22 21:58:36.51	140.70	6.30	-50.1	-69.1	3.8	8.48e-01	0	41	104	0	71	32638
2026-01-22 21:58:38.50	140.44	6.16	-50.0	-69.0	3.8	8.47e-01	0	41	104	0	71	32499
2026-01-22 21:58:40.50	140.19	6.01	-50.1	-69.0	3.8	8.47e-01	0	41	104	0	71	32550
2026-01-22 21:58:42.49	139.94	5.86	-50.1	-69.0	3.8	8.47e-01	0	41	104	0	71	32533
2026-01-22 21:58:44.47	139.69	5.72	-50.1	-69.0	3.8	8.47e-01	0	41	104	0	71	32481
2026-01-22 21:58:46.46	139.45	5.57	-50.1	-69.0	3.8	8.47e-01	0	42	104	0	71	32481
2026-01-22 21:58:48.44	139.22	5.43	-50.1	-69.0	3.8	8.47e-01	0	41	104	0	71	32537
2026-01-22 21:58:50.43	138.98	5.29	-50.1	-69.0	3.8	8.47e-01	0	41	104	0	71	32495
2026-01-22 21:58:52.43	138.75	5.15	-50.1	-69.1	3.8	8.46e-01	0	41	104	0	71	32557
2026-01-22 21:58:54.42	138.52	5.00	-50.1	-69.0	3.8	8.47e-01	0	41	104	0	71	32510
2026-01-22 21:58:56.41	138.29	4.86	-50.0	-69.0	3.8	8.46e-01	0	42	104	0	71	32385

#Closed at: 2026-01-22 21:58:58
#Recorded file [0 MB]: D:/Data/31040_260123_005144.dat