passes_logs/2026/01/22/T1/T1__20260122_091523_NOAA_20_JPSS-1_rec.log

#Pass ID: 20260122_091523_NOAA 20 (JPSS-1)
#Satellite: NOAA 20 (JPSS-1)
#Configuration: NOAA 20
#almurnet v.1.7.20251203
#Start time: 2026-01-22 09:15:23

#Version: 2.0.20230620
#Station: T1
#Location: 37.570604 lon 55.790049 lat
#TLE: 1 43013U 17073A   26021.46221703  .00000173  00000+0  10299-3 0  9999
#TLE: 2 43013  98.7644 322.3335 0001238  29.7597 330.3649 14.19538314423652

#Time	Az	El	Level	Level2	SNR	BER	BlckErr	Temp	State	Recorded	gain1	gain2
2026-01-22 09:15:23.97	139.17	5.01	-49.8	-65.1	3.8	1.49e+00	0	35	0	0	71	20772
2026-01-22 09:15:26.95	139.06	5.22	-49.9	-65.1	3.8	1.49e+00	0	35	104	0	71	20646
2026-01-22 09:15:29.95	138.96	5.44	-49.9	-65.0	3.8	1.49e+00	0	35	104	0	71	20452
2026-01-22 09:15:32.94	138.85	5.65	-49.9	-64.9	3.8	1.49e+00	0	35	104	0	71	20246
2026-01-22 09:15:35.93	138.74	5.86	-49.8	-64.7	3.8	1.49e+00	0	36	104	0	71	19733
2026-01-22 09:15:38.93	138.63	6.08	-49.8	-64.3	3.8	1.49e+00	0	36	104	0	71	18762
2026-01-22 09:15:41.92	138.52	6.30	-49.8	-64.0	3.8	1.49e+00	0	36	104	0	71	18113
2026-01-22 09:15:44.91	138.40	6.52	-49.8	-64.1	3.8	1.49e+00	0	36	104	0	71	18510
2026-01-22 09:15:47.92	138.29	6.74	-49.8	-64.9	3.8	1.49e+00	0	36	104	0	71	20279
2026-01-22 09:15:50.92	138.17	6.97	-49.8	-64.9	3.8	1.49e+00	0	36	104	0	71	20262
2026-01-22 09:15:53.91	138.05	7.19	-49.8	-63.6	3.8	1.49e+00	0	36	104	0	71	17401
2026-01-22 09:15:56.90	137.92	7.42	-49.7	-62.1	3.9	1.47e+00	0	36	104	0	71	14624
2026-01-22 09:15:59.89	137.80	7.65	-49.3	-58.9	5.4	6.56e-01	0	36	0	3145728	70	10718
2026-01-22 09:16:02.89	137.67	7.88	-48.3	-54.5	9.3	2.63e-02	0	36	0	8388608	68	7232
2026-01-22 09:16:05.89	137.54	8.11	-46.7	-50.9	12.8	1.88e-04	0	37	0	13631488	65	5721
2026-01-22 09:16:08.88	137.41	8.35	-45.8	-49.4	14.4	0.00e+00	0	36	0	19922944	63	5376
2026-01-22 09:16:11.88	137.28	8.59	-45.9	-49.6	14.3	1.50e-06	0	37	0	25165824	63	5477
2026-01-22 09:16:14.87	137.15	8.83	-46.8	-51.3	12.5	4.27e-05	0	36	0	31457280	64	6294
2026-01-22 09:16:17.86	137.01	9.07	-48.3	-54.9	8.7	2.03e-02	0	37	0	36700160	67	8044
2026-01-22 09:16:20.85	136.87	9.31	-48.6	-55.8	8.1	4.94e-02	0	37	0	41943040	68	8382
2026-01-22 09:16:23.85	136.73	9.56	-46.2	-50.1	13.6	8.21e-02	0	37	0	46137344	64	5515
2026-01-22 09:16:26.84	136.58	9.81	-44.9	-47.9	16.0	0.00e+00	0	37	0	51380224	61	5100
2026-01-22 09:16:29.84	136.43	10.06	-44.9	-47.9	16.0	0.00e+00	0	37	0	57671680	61	5080
2026-01-22 09:16:32.84	136.28	10.31	-44.6	-47.6	16.4	0.00e+00	0	37	0	62914560	61	4892
2026-01-22 09:16:35.83	136.13	10.57	-44.4	-47.2	16.7	0.00e+00	0	37	0	68157440	60	4963
2026-01-22 09:16:38.82	135.97	10.83	-44.3	-47.1	16.9	0.00e+00	0	37	0	74448896	60	4871
2026-01-22 09:16:41.82	135.81	11.09	-44.1	-46.8	17.2	0.00e+00	0	37	0	79691776	60	4726
2026-01-22 09:16:44.81	135.65	11.35	-44.3	-47.1	16.9	0.00e+00	0	37	0	84934656	60	4900
2026-01-22 09:16:47.81	135.49	11.62	-44.4	-47.3	16.7	0.00e+00	0	37	0	91226112	60	5010
2026-01-22 09:16:50.80	135.32	11.88	-44.3	-47.1	16.9	0.00e+00	0	37	0	96468992	60	4897
2026-01-22 09:16:53.80	135.15	12.16	-44.0	-46.6	17.4	0.00e+00	0	37	0	101711872	59	4892
2026-01-22 09:16:56.79	134.97	12.43	-44.1	-46.8	17.2	0.00e+00	0	37	0	108003328	59	5011
2026-01-22 09:16:59.79	134.79	12.71	-44.1	-46.8	17.2	0.00e+00	0	37	0	113246208	59	4996
2026-01-22 09:17:02.78	134.61	12.99	-43.8	-46.3	17.7	0.00e+00	0	37	0	118489088	59	4753
2026-01-22 09:17:05.76	134.43	13.27	-43.5	-46.0	18.0	0.00e+00	0	37	0	124780544	59	4590
2026-01-22 09:17:08.75	134.24	13.55	-43.6	-46.1	17.9	0.00e+00	0	37	0	130023424	58	4905
2026-01-22 09:17:11.75	134.04	13.84	-43.9	-46.6	17.5	0.00e+00	0	37	0	135266304	58	5172
2026-01-22 09:17:14.75	133.85	14.14	-43.8	-46.5	17.6	0.00e+00	0	37	0	141557760	58	5102
2026-01-22 09:17:17.74	133.65	14.43	-43.8	-46.3	17.7	0.00e+00	0	37	0	146800640	58	5038
2026-01-22 09:17:20.74	133.44	14.73	-43.4	-45.8	18.2	0.00e+00	0	37	0	153092096	58	4732
2026-01-22 09:17:23.73	133.23	15.03	-43.6	-46.1	18.0	0.00e+00	0	37	0	158334976	58	4901
2026-01-22 09:17:26.73	133.02	15.34	-43.8	-46.4	17.7	0.00e+00	0	37	0	163577856	58	5055
2026-01-22 09:17:29.73	132.80	15.65	-43.7	-46.2	17.9	0.00e+00	0	37	0	169869312	58	4964
2026-01-22 09:17:32.72	132.57	15.96	-43.6	-46.1	18.0	0.00e+00	0	37	0	175112192	58	4913
2026-01-22 09:17:35.71	132.35	16.27	-43.6	-46.0	18.1	0.00e+00	0	37	0	180355072	58	4870
2026-01-22 09:17:38.70	132.11	16.59	-43.7	-46.3	17.8	0.00e+00	0	37	0	186646528	58	5006
2026-01-22 09:17:41.70	131.87	16.92	-43.5	-45.9	18.2	0.00e+00	0	37	0	191889408	58	4787
2026-01-22 09:17:44.68	131.63	17.24	-43.3	-45.7	18.4	0.00e+00	0	37	0	197132288	58	4666
2026-01-22 09:17:47.67	131.38	17.57	-43.8	-46.3	17.8	0.00e+00	0	37	0	203423744	58	5023
2026-01-22 09:17:50.67	131.13	17.91	-43.7	-46.1	18.0	0.00e+00	0	37	0	208666624	58	4925
2026-01-22 09:17:53.66	130.87	18.25	-43.7	-46.2	18.0	0.00e+00	0	37	0	213909504	58	4952
2026-01-22 09:17:56.66	130.60	18.59	-44.2	-46.8	17.3	0.00e+00	0	37	0	220200960	58	5336
2026-01-22 09:17:59.66	130.33	18.94	-44.0	-46.7	17.5	0.00e+00	0	38	0	225443840	59	4938
2026-01-22 09:18:02.65	130.05	19.29	-43.9	-46.5	17.6	0.00e+00	0	37	0	231735296	59	4851
2026-01-22 09:18:05.65	129.76	19.64	-44.4	-47.2	17.0	0.00e+00	0	38	0	236978176	59	5234
2026-01-22 09:18:08.64	129.47	20.00	-44.4	-47.1	17.1	0.00e+00	0	37	0	242221056	59	5207
2026-01-22 09:18:11.62	129.17	20.36	-44.2	-46.9	17.3	0.00e+00	0	37	0	248512512	59	5065
2026-01-22 09:18:14.62	128.86	20.73	-44.6	-47.3	16.9	0.00e+00	0	37	0	253755392	59	5339
2026-01-22 09:18:17.62	128.54	21.11	-44.3	-47.0	17.2	0.00e+00	0	38	0	258998272	59	5146
2026-01-22 09:18:20.61	128.22	21.49	-44.4	-47.1	17.1	0.00e+00	0	38	0	265289728	59	5206
2026-01-22 09:18:23.61	127.89	21.87	-44.5	-47.2	17.0	0.00e+00	0	38	0	270532608	59	5267
2026-01-22 09:18:26.59	127.55	22.25	-44.3	-47.1	17.1	0.00e+00	0	38	0	275775488	59	5203
2026-01-22 09:18:29.59	127.20	22.65	-44.3	-47.2	17.1	0.00e+00	0	37	0	282066944	59	5238
2026-01-22 09:18:32.58	126.84	23.04	-44.5	-47.3	17.0	0.00e+00	0	37	0	287309824	59	5290
2026-01-22 09:18:35.58	126.47	23.45	-44.5	-47.3	17.0	0.00e+00	0	37	0	292552704	59	5282
2026-01-22 09:18:38.57	126.09	23.85	-44.4	-47.1	17.1	0.00e+00	0	38	0	298844160	59	5211
2026-01-22 09:18:41.57	125.71	24.26	-44.7	-47.5	16.8	0.00e+00	0	38	0	304087040	60	5148
2026-01-22 09:18:44.56	125.31	24.68	-44.5	-47.2	17.1	0.00e+00	0	38	0	310378496	60	4983
2026-01-22 09:18:47.55	124.90	25.10	-44.5	-47.2	17.1	0.00e+00	0	37	0	315621376	60	4979
2026-01-22 09:18:50.55	124.48	25.53	-44.8	-47.7	16.7	0.00e+00	0	38	0	320864256	60	5244
2026-01-22 09:18:53.54	124.05	25.96	-44.5	-47.3	17.1	0.00e+00	0	38	0	327155712	60	4987
2026-01-22 09:18:56.52	123.61	26.40	-44.7	-47.5	16.8	0.00e+00	0	37	0	332398592	60	5122
2026-01-22 09:18:59.51	123.15	26.84	-44.5	-47.2	17.1	0.00e+00	0	38	0	337641472	60	4969
2026-01-22 09:19:02.51	122.68	27.29	-44.4	-47.1	17.3	0.00e+00	0	37	0	343932928	60	4903
2026-01-22 09:19:05.50	122.20	27.74	-44.5	-47.3	17.1	0.00e+00	0	37	0	349175808	60	4990
2026-01-22 09:19:08.49	121.70	28.20	-44.9	-47.7	16.7	0.00e+00	0	37	0	354418688	60	5259
2026-01-22 09:19:11.48	121.19	28.66	-44.4	-47.1	17.2	0.00e+00	0	38	0	360710144	60	4896
2026-01-22 09:19:14.47	120.66	29.13	-44.6	-47.3	17.1	0.00e+00	0	37	0	365953024	60	5030
2026-01-22 09:19:17.46	120.12	29.60	-44.5	-47.3	17.1	0.00e+00	0	38	0	371195904	60	5007
2026-01-22 09:19:20.46	119.56	30.08	-44.8	-47.7	16.7	0.00e+00	0	38	0	377487360	60	5236
2026-01-22 09:19:23.46	118.98	30.57	-45.5	-48.6	15.8	0.00e+00	0	38	0	382730240	61	5487
2026-01-22 09:19:26.46	118.38	31.06	-45.7	-48.8	15.7	0.00e+00	0	38	0	387973120	62	5337
2026-01-22 09:19:29.45	117.77	31.55	-46.0	-49.3	15.2	0.00e+00	0	37	0	394264576	62	5637
2026-01-22 09:19:32.44	117.14	32.05	-46.2	-49.6	14.9	0.00e+00	0	37	0	399507456	63	5503
2026-01-22 09:19:35.43	116.49	32.55	-46.1	-49.5	15.0	0.00e+00	0	37	0	404750336	63	5412
2026-01-22 09:19:38.43	115.81	33.05	-45.8	-49.0	15.5	0.00e+00	0	38	0	411041792	63	5144
2026-01-22 09:19:41.42	115.12	33.56	-45.9	-49.2	15.1	0.00e+00	0	38	0	416284672	63	5272
2026-01-22 09:19:44.41	114.40	34.08	-45.9	-49.1	15.4	0.00e+00	0	38	0	422576128	63	5203
2026-01-22 09:19:47.41	113.66	34.59	-45.8	-49.2	15.2	7.00e-07	0	38	0	427819008	63	5242
2026-01-22 09:19:50.40	112.90	35.11	-45.8	-49.1	15.4	0.00e+00	0	38	0	433061888	63	5191
2026-01-22 09:19:53.40	112.11	35.63	-45.6	-48.8	15.7	0.00e+00	0	38	0	439353344	63	4991
2026-01-22 09:19:56.40	111.29	36.16	-45.5	-48.6	15.9	0.00e+00	0	38	0	444596224	62	5181
2026-01-22 09:19:59.40	110.44	36.69	-45.2	-48.1	16.3	0.00e+00	0	37	0	449839104	62	4922
2026-01-22 09:20:02.39	109.58	37.21	-45.1	-48.0	16.5	0.00e+00	0	38	0	456130560	62	4844
2026-01-22 09:20:05.38	108.68	37.74	-45.1	-48.1	16.4	0.00e+00	0	37	0	461373440	61	5178
2026-01-22 09:20:08.37	107.75	38.26	-44.8	-47.6	16.9	0.00e+00	0	37	0	466616320	61	4893
2026-01-22 09:20:11.37	106.79	38.79	-45.1	-48.0	16.4	0.00e+00	0	38	0	472907776	61	5153
2026-01-22 09:20:14.36	105.80	39.32	-45.3	-48.3	16.2	0.00e+00	0	38	0	478150656	61	5293
2026-01-22 09:20:17.36	104.78	39.84	-45.5	-48.7	15.8	0.00e+00	0	38	0	483393536	61	5537
2026-01-22 09:20:20.35	103.72	40.36	-45.2	-48.3	16.2	0.00e+00	0	38	0	489684992	61	5306
2026-01-22 09:20:23.34	102.63	40.88	-45.9	-49.2	15.3	0.00e+00	0	38	0	494927872	62	5583
2026-01-22 09:20:26.33	101.51	41.39	-45.9	-49.2	15.3	0.00e+00	0	38	0	500170752	62	5579
2026-01-22 09:20:29.33	100.34	41.89	-46.0	-49.4	15.1	0.00e+00	0	38	0	506462208	63	5373
2026-01-22 09:20:32.32	99.14	42.39	-45.4	-48.5	16.1	0.00e+00	0	38	0	511705088	62	5106
2026-01-22 09:20:35.32	97.90	42.88	-44.4	-47.1	17.4	0.00e+00	0	37	0	517996544	60	4907
2026-01-22 09:20:38.31	96.63	43.36	-43.6	-46.1	18.3	0.00e+00	0	38	0	523239424	59	4616
2026-01-22 09:20:41.31	95.31	43.83	-43.3	-45.6	18.7	0.00e+00	0	38	0	528482304	58	4625
2026-01-22 09:20:44.30	93.96	44.29	-43.6	-46.1	18.3	0.00e+00	0	38	0	534773760	58	4892
2026-01-22 09:20:47.29	92.57	44.74	-43.9	-46.4	18.0	0.00e+00	0	38	0	540016640	58	5070
2026-01-22 09:20:50.28	91.15	45.17	-43.4	-45.7	18.6	0.00e+00	0	38	0	545259520	58	4705
2026-01-22 09:20:53.28	89.67	45.58	-44.0	-46.7	17.7	0.00e+00	0	38	0	551550976	58	5230
2026-01-22 09:20:56.27	88.17	45.98	-45.1	-48.1	16.4	0.00e+00	0	38	0	556793856	60	5517
2026-01-22 09:20:59.27	86.62	46.36	-45.1	-48.2	16.3	0.00e+00	0	38	0	562036736	60	5547
2026-01-22 09:21:02.26	85.04	46.72	-45.3	-48.4	16.1	0.00e+00	0	38	0	568328192	61	5393
2026-01-22 09:21:05.26	83.42	47.05	-46.1	-49.5	15.1	0.00e+00	0	37	0	573571072	62	5785
2026-01-22 09:21:08.26	81.77	47.37	-46.3	-49.9	14.7	0.00e+00	0	38	0	578813952	63	5668
2026-01-22 09:21:11.25	80.09	47.66	-46.6	-50.3	14.3	7.00e-07	0	38	0	585105408	63	5932
2026-01-22 09:21:14.24	78.37	47.92	-46.9	-50.7	13.8	6.80e-06	0	38	0	590348288	64	5921
2026-01-22 09:21:17.24	76.63	48.16	-46.0	-49.3	15.3	0.00e+00	0	38	0	595591168	63	5311
2026-01-22 09:21:20.23	74.87	48.37	-45.9	-49.1	15.5	0.00e+00	0	38	0	601882624	63	5208
2026-01-22 09:21:23.22	73.08	48.55	-45.8	-49.0	15.5	0.00e+00	0	38	0	607125504	63	5156
2026-01-22 09:21:26.21	71.27	48.70	-45.7	-48.9	15.7	0.00e+00	0	38	0	612368384	63	5047
2026-01-22 09:21:29.20	69.45	48.82	-45.3	-48.3	16.3	0.00e+00	0	38	0	618659840	62	4986
2026-01-22 09:21:32.20	67.61	48.90	-45.4	-48.4	16.2	0.00e+00	0	38	0	623902720	62	5070
2026-01-22 09:21:35.18	65.78	48.96	-45.3	-48.2	16.3	0.00e+00	0	38	0	630194176	62	4973
2026-01-22 09:21:38.18	63.92	48.99	-45.3	-48.2	16.4	0.00e+00	0	38	0	635437056	62	4937
2026-01-22 09:21:41.17	62.07	48.98	-45.4	-48.4	16.1	0.00e+00	0	38	0	640679936	62	5068
2026-01-22 09:21:44.16	60.23	48.94	-45.3	-48.3	16.2	0.00e+00	0	38	0	646971392	62	5034
2026-01-22 09:21:47.16	58.39	48.87	-45.3	-48.2	16.4	0.00e+00	0	38	0	652214272	62	4955
2026-01-22 09:21:50.15	56.56	48.76	-45.0	-47.8	16.6	0.00e+00	0	38	0	657457152	62	4756
2026-01-22 09:21:53.14	54.75	48.63	-45.2	-48.0	16.5	0.00e+00	0	38	0	663748608	62	4858
2026-01-22 09:21:56.13	52.95	48.47	-45.5	-48.5	16.1	0.00e+00	0	38	0	668991488	62	5134
2026-01-22 09:21:59.13	51.17	48.27	-45.2	-48.0	16.6	0.00e+00	0	38	0	674234368	62	4855
2026-01-22 09:22:02.12	49.42	48.05	-45.3	-48.2	16.4	0.00e+00	0	38	0	680525824	62	4978
2026-01-22 09:22:05.11	47.70	47.80	-45.3	-48.3	16.3	0.00e+00	0	38	0	685768704	62	5001
2026-01-22 09:22:08.11	46.00	47.52	-45.6	-48.7	15.9	0.00e+00	0	38	0	691011584	62	5237
2026-01-22 09:22:11.11	44.33	47.22	-45.6	-48.8	15.9	0.00e+00	0	38	0	697303040	62	5280
2026-01-22 09:22:14.10	42.70	46.90	-45.8	-49.1	15.5	0.00e+00	0	38	0	702545920	62	5477
2026-01-22 09:22:17.10	41.10	46.55	-45.3	-48.2	16.4	0.00e+00	0	38	0	708837376	62	4962
2026-01-22 09:22:20.09	39.54	46.18	-45.1	-47.9	16.7	0.00e+00	0	38	0	714080256	62	4805
2026-01-22 09:22:23.09	38.01	45.80	-44.6	-47.4	17.2	0.00e+00	0	38	0	719323136	61	4778
2026-01-22 09:22:26.08	36.53	45.39	-44.5	-47.2	17.4	0.00e+00	0	38	0	725614592	60	4935
2026-01-22 09:22:29.08	35.08	44.97	-44.3	-47.0	17.6	0.00e+00	0	38	0	730857472	60	4839
2026-01-22 09:22:32.07	33.67	44.53	-44.0	-46.5	17.9	0.00e+00	0	38	0	736100352	59	4863
2026-01-22 09:22:35.06	32.30	44.08	-44.2	-46.7	17.7	0.00e+00	0	38	0	742391808	59	4961
2026-01-22 09:22:38.05	30.98	43.62	-44.1	-46.6	17.8	0.00e+00	0	38	0	747634688	59	4910
2026-01-22 09:22:41.04	29.69	43.15	-44.6	-47.3	17.3	0.00e+00	0	38	0	752877568	59	5288
2026-01-22 09:22:44.04	28.43	42.66	-44.5	-47.2	17.4	0.00e+00	0	38	0	759169024	59	5227
2026-01-22 09:22:47.03	27.22	42.17	-44.2	-46.8	17.7	0.00e+00	0	38	0	764411904	59	5011
2026-01-22 09:22:50.03	26.04	41.67	-44.0	-46.5	18.0	0.00e+00	0	37	0	769654784	59	4835
2026-01-22 09:22:53.02	24.90	41.17	-44.4	-47.0	17.4	0.00e+00	0	38	0	775946240	59	5133
2026-01-22 09:22:56.01	23.79	40.66	-44.2	-46.8	17.6	0.00e+00	0	38	0	781189120	59	5011
2026-01-22 09:22:59.00	22.72	40.14	-44.8	-47.6	17.0	0.00e+00	0	38	0	786432000	60	5170
2026-01-22 09:23:01.99	21.69	39.62	-45.3	-48.5	16.1	0.00e+00	0	38	0	792723456	61	5410
2026-01-22 09:23:04.98	20.68	39.10	-45.6	-48.8	15.8	0.00e+00	0	38	0	797966336	61	5610
2026-01-22 09:23:07.98	19.71	38.58	-45.5	-48.7	15.9	0.00e+00	0	38	0	804257792	62	5231
2026-01-22 09:23:10.98	18.77	38.05	-45.9	-49.2	15.3	0.00e+00	0	38	0	809500672	62	5581
2026-01-22 09:23:13.97	17.86	37.53	-45.7	-49.2	15.4	0.00e+00	0	38	0	814743552	62	5552
2026-01-22 09:23:16.97	16.97	37.00	-46.0	-49.5	15.1	0.00e+00	0	38	0	821035008	62	5748
2026-01-22 09:23:19.96	16.12	36.48	-46.5	-50.2	14.4	7.00e-07	0	38	0	826277888	63	5911
2026-01-22 09:23:22.96	15.29	35.96	-45.9	-49.2	15.3	0.00e+00	0	38	0	831520768	63	5251
2026-01-22 09:23:25.96	14.49	35.43	-46.0	-49.3	15.3	0.00e+00	0	38	0	837812224	63	5320
2026-01-22 09:23:28.95	13.72	34.92	-46.3	-49.8	14.8	7.00e-07	0	38	0	843055104	63	5631
2026-01-22 09:23:31.95	12.97	34.40	-45.9	-49.2	15.4	0.00e+00	0	38	0	848297984	63	5220
2026-01-22 09:23:34.94	12.24	33.89	-45.9	-49.3	15.3	0.00e+00	0	38	0	854589440	63	5286
2026-01-22 09:23:37.94	11.54	33.38	-45.7	-49.0	15.5	0.00e+00	0	38	0	859832320	63	5155
2026-01-22 09:23:40.93	10.85	32.87	-45.3	-48.5	16.0	0.00e+00	0	38	0	865075200	62	5138
2026-01-22 09:23:43.93	10.19	32.37	-45.6	-48.7	15.8	0.00e+00	0	38	0	871366656	62	5279
2026-01-22 09:23:46.92	9.55	31.87	-45.9	-49.2	15.4	0.00e+00	0	38	0	876609536	62	5547
2026-01-22 09:23:49.91	8.93	31.38	-45.9	-49.2	15.3	0.00e+00	0	38	0	882900992	62	5557
2026-01-22 09:23:52.92	8.33	30.89	-46.1	-49.5	15.0	0.00e+00	0	38	0	888143872	62	5787
2026-01-22 09:23:55.91	7.75	30.41	-45.9	-49.2	15.3	0.00e+00	0	38	0	893386752	63	5271
2026-01-22 09:23:58.91	7.18	29.93	-45.8	-49.1	15.4	0.00e+00	0	38	0	899678208	63	5200
2026-01-22 09:24:01.91	6.63	29.45	-45.9	-49.2	15.3	0.00e+00	0	38	0	904921088	63	5267
2026-01-22 09:24:04.91	6.09	28.98	-45.6	-48.8	15.7	0.00e+00	0	38	0	910163968	63	5026
2026-01-22 09:24:07.90	5.58	28.52	-45.3	-48.3	16.2	0.00e+00	0	38	0	916455424	62	5027
2026-01-22 09:24:10.88	5.08	28.06	-45.1	-48.1	16.4	0.00e+00	0	38	0	921698304	62	4886
2026-01-22 09:24:13.88	4.59	27.61	-45.0	-47.8	16.7	0.00e+00	0	38	0	926941184	61	5036
2026-01-22 09:24:16.88	4.11	27.16	-44.8	-47.6	16.9	0.00e+00	0	38	0	933232640	61	4881
2026-01-22 09:24:19.87	3.65	26.72	-44.8	-47.6	16.9	0.00e+00	0	38	0	938475520	61	4878
2026-01-22 09:24:22.86	3.20	26.28	-44.7	-47.6	16.9	0.00e+00	0	38	0	943718400	61	4884
2026-01-22 09:24:25.87	2.77	25.84	-44.7	-47.6	16.9	0.00e+00	0	38	0	950009856	61	4896
2026-01-22 09:24:28.86	2.34	25.41	-44.5	-47.3	17.2	0.00e+00	0	38	0	955252736	61	4710
2026-01-22 09:24:31.86	1.93	24.99	-44.3	-47.1	17.4	0.00e+00	0	38	0	960495616	60	4891
2026-01-22 09:24:34.86	1.53	24.57	-44.4	-47.2	17.2	0.00e+00	0	38	0	966787072	60	4954
2026-01-22 09:24:37.85	1.14	24.16	-44.7	-47.6	16.8	0.00e+00	0	38	0	972029952	60	5212
2026-01-22 09:24:40.84	0.76	23.75	-44.6	-47.4	17.0	0.00e+00	0	38	0	978321408	60	5093
2026-01-22 09:24:43.84	0.39	23.35	-44.4	-47.2	17.2	0.00e+00	0	37	0	983564288	60	4942
2026-01-22 09:24:46.83	0.03	22.95	-44.3	-47.1	17.3	0.00e+00	0	38	0	988807168	60	4910
2026-01-22 09:24:49.83	359.67	22.56	-44.3	-47.1	17.3	0.00e+00	0	38	0	995098624	60	4922
2026-01-22 09:24:52.82	359.33	22.17	-44.5	-47.3	17.1	0.00e+00	0	38	0	1000341504	60	5013
2026-01-22 09:24:55.82	359.00	21.79	-44.5	-47.4	17.0	0.00e+00	0	38	0	1005584384	60	5058
2026-01-22 09:24:58.82	358.67	21.41	-44.5	-47.4	17.0	0.00e+00	0	38	0	1011875840	60	5052
2026-01-22 09:25:01.81	358.36	21.03	-44.5	-47.3	17.1	0.00e+00	0	38	0	1017118720	60	5018
2026-01-22 09:25:04.80	358.05	20.67	-44.5	-47.3	17.1	0.00e+00	0	38	0	1022361600	60	5030
2026-01-22 09:25:07.79	357.75	20.30	-44.6	-47.5	16.9	0.00e+00	0	38	0	1028653056	60	5113
2026-01-22 09:25:10.79	357.45	19.94	-44.8	-47.7	16.7	0.00e+00	0	38	0	1033895936	60	5245
2026-01-22 09:25:13.78	357.16	19.58	-44.9	-47.8	16.6	0.00e+00	0	38	0	1039138816	60	5328
2026-01-22 09:25:16.77	356.88	19.23	-44.9	-48.0	16.4	0.00e+00	0	38	0	1045430272	60	5438
2026-01-22 09:25:19.77	356.61	18.88	-44.6	-47.8	16.6	0.00e+00	0	38	0	1050673152	60	5336
2026-01-22 09:25:22.76	356.34	18.54	-44.4	-47.3	17.1	0.00e+00	0	38	0	1056964608	60	5021
2026-01-22 09:25:25.75	356.08	18.20	-44.3	-47.1	17.2	0.00e+00	0	38	0	1062207488	60	4908
2026-01-22 09:25:28.74	355.82	17.87	-44.3	-47.2	17.1	0.00e+00	0	38	0	1067450368	60	4975
2026-01-22 09:25:31.73	355.58	17.54	-44.4	-47.4	16.9	0.00e+00	0	38	0	1073741824	60	5088
2026-01-22 09:25:34.73	355.33	17.21	-44.5	-47.5	16.9	0.00e+00	0	38	0	1078984704	60	5121
2026-01-22 09:25:37.72	355.09	16.89	-44.8	-47.8	16.6	0.00e+00	0	38	0	1084227584	60	5328
2026-01-22 09:25:40.71	354.86	16.57	-44.7	-47.8	16.5	0.00e+00	0	38	0	1090519040	60	5340
2026-01-22 09:25:43.71	354.63	16.25	-45.0	-48.2	16.2	0.00e+00	0	38	0	1095761920	60	5552
2026-01-22 09:25:46.70	354.41	15.94	-45.0	-48.3	16.0	0.00e+00	0	38	0	1101004800	60	5629
2026-01-22 09:25:49.68	354.19	15.63	-45.1	-48.4	16.0	0.00e+00	0	38	0	1107296256	60	5668
2026-01-22 09:25:52.68	353.98	15.32	-45.1	-48.4	16.0	0.00e+00	0	38	0	1112539136	61	5342
2026-01-22 09:25:55.67	353.77	15.02	-44.9	-48.2	16.2	0.00e+00	0	38	0	1117782016	61	5221
2026-01-22 09:25:58.67	353.56	14.72	-44.9	-48.2	16.1	0.00e+00	0	38	0	1124073472	61	5253
2026-01-22 09:26:01.66	353.36	14.42	-45.0	-48.3	16.0	0.00e+00	0	38	0	1129316352	61	5340
2026-01-22 09:26:04.65	353.17	14.13	-45.2	-48.4	15.9	0.00e+00	0	38	0	1134559232	61	5380
2026-01-22 09:26:07.64	352.97	13.84	-45.0	-48.5	15.9	0.00e+00	0	38	0	1140850688	61	5403
2026-01-22 09:26:10.63	352.79	13.56	-45.0	-48.3	16.0	0.00e+00	0	38	0	1146093568	61	5323
2026-01-22 09:26:13.63	352.60	13.27	-44.5	-48.2	16.1	0.00e+00	0	38	0	1151336448	61	5235
2026-01-22 09:26:16.63	352.42	12.99	-44.3	-48.4	15.9	0.00e+00	0	38	0	1157627904	60	5663
2026-01-22 09:26:19.62	352.24	12.71	-44.1	-48.0	16.2	0.00e+00	0	38	0	1162870784	59	5787
2026-01-22 09:26:22.61	352.07	12.44	-44.3	-48.0	16.2	0.00e+00	0	38	0	1169162240	59	5785
2026-01-22 09:26:25.60	351.90	12.17	-44.6	-48.3	16.0	0.00e+00	0	38	0	1174405120	59	5936
2026-01-22 09:26:28.60	351.73	11.90	-44.7	-48.8	15.4	0.00e+00	0	38	0	1179648000	60	5964
2026-01-22 09:26:31.59	351.57	11.63	-44.6	-48.9	15.4	0.00e+00	0	38	0	1185939456	60	6005
2026-01-22 09:26:34.58	351.41	11.37	-44.5	-49.0	15.3	0.00e+00	0	38	0	1191182336	60	6099
2026-01-22 09:26:37.59	351.25	11.11	-44.0	-48.9	15.2	7.00e-07	0	38	0	1196425216	59	6402
2026-01-22 09:26:40.58	351.09	10.85	-43.5	-48.9	15.3	0.00e+00	0	38	0	1202716672	58	6748
2026-01-22 09:26:43.57	350.94	10.59	-43.4	-48.8	15.4	0.00e+00	0	38	0	1207959552	58	6651
2026-01-22 09:26:46.57	350.79	10.34	-43.7	-48.8	15.4	0.00e+00	0	38	0	1213202432	58	6682
2026-01-22 09:26:49.56	350.65	10.09	-44.2	-48.6	15.5	0.00e+00	0	38	0	1219493888	59	6191
2026-01-22 09:26:52.56	350.50	9.84	-44.5	-48.7	15.4	0.00e+00	0	38	0	1224736768	59	6233
2026-01-22 09:26:55.55	350.36	9.59	-44.6	-48.7	15.5	0.00e+00	0	38	0	1229979648	60	5872
2026-01-22 09:26:58.54	350.22	9.35	-44.7	-48.8	15.3	0.00e+00	0	38	0	1236271104	60	5964
2026-01-22 09:27:01.54	350.09	9.10	-44.8	-49.3	14.8	0.00e+00	0	38	0	1241513984	60	6306
2026-01-22 09:27:04.54	349.95	8.86	-49.1	-65.7	3.8	1.49e+00	0	38	104	1244659712	70	23448
2026-01-22 09:27:07.54	349.82	8.63	-49.4	-65.9	3.8	1.49e+00	0	38	104	1244659712	70	23906
2026-01-22 09:27:10.52	349.69	8.39	-50.3	-66.0	3.8	1.49e+00	0	38	104	1244659712	71	22872
2026-01-22 09:27:13.52	349.57	8.16	-50.5	-66.0	3.8	1.49e+00	0	38	104	1244659712	72	21579
2026-01-22 09:27:16.51	349.44	7.92	-50.6	-66.0	3.8	1.49e+00	0	38	104	1244659712	72	21518
2026-01-22 09:27:19.51	349.32	7.69	-50.3	-66.0	3.8	1.49e+00	0	38	104	1244659712	72	21567
2026-01-22 09:27:22.51	349.20	7.47	-50.6	-66.0	3.8	1.49e+00	0	38	104	1244659712	72	21527
2026-01-22 09:27:25.51	349.08	7.24	-50.8	-65.9	3.8	1.49e+00	0	38	104	1244659712	72	21503
2026-01-22 09:27:28.50	348.97	7.02	-50.6	-65.9	3.8	1.49e+00	0	38	104	1244659712	72	21462
2026-01-22 09:27:31.49	348.85	6.79	-50.5	-65.9	3.8	1.49e+00	0	38	104	1244659712	72	21361
2026-01-22 09:27:34.48	348.74	6.57	-50.5	-65.9	3.8	1.49e+00	0	38	104	1244659712	72	21355
2026-01-22 09:27:37.48	348.63	6.35	-50.5	-65.9	3.8	1.49e+00	0	38	104	1244659712	72	21350
2026-01-22 09:27:40.47	348.52	6.14	-50.5	-65.9	3.8	1.49e+00	0	38	104	1244659712	72	21390
2026-01-22 09:27:43.46	348.41	5.92	-50.5	-65.9	3.8	1.49e+00	0	38	104	1244659712	72	21339
2026-01-22 09:27:46.46	348.31	5.71	-50.5	-65.9	3.8	1.49e+00	0	38	104	1244659712	72	21326
2026-01-22 09:27:49.46	348.21	5.49	-50.5	-65.9	3.8	1.49e+00	0	38	104	1244659712	72	21277
2026-01-22 09:27:52.45	348.10	5.28	-50.5	-65.9	3.8	1.49e+00	0	38	104	1244659712	72	21340
2026-01-22 09:27:55.44	348.00	5.08	-50.5	-65.9	3.8	1.49e+00	0	38	104	1244659712	72	21301

#Closed at: 2026-01-22 09:27:58
#Recorded file [1244 MB]: D:/Data/31040_260122_121523.dat