passes_logs/2026/01/22/T1/T1__20260122_234352_FENGYUN_3D_rec.log

#Pass ID: 20260122_234352_FENGYUN 3D
#Satellite: FENGYUN 3D
#Configuration: FENGYUN 3D
#almurnet v.1.7.20251203
#Start time: 2026-01-22 23:43:51

#Version: 2.0.20230620
#Station: T1
#Location: 37.570604 lon 55.790049 lat
#TLE: 1 43010U 17072A   26022.47411728  .00000617  00000+0  31375-3 0  9996
#TLE: 2 43010  98.9952 354.4060 0002481  95.7964 264.3494 14.19699924424319

#Time	Az	El	Level	Level2	SNR	BER	BlckErr	Temp	State	Recorded	gain1	gain2
2026-01-22 23:43:51.77	38.53	4.99	-49.1	-61.4	3.8	8.46e-01	0	36	0	0	70	14373
2026-01-22 23:43:54.74	38.88	5.13	-49.1	-61.4	3.8	8.47e-01	0	36	104	0	70	14334
2026-01-22 23:43:57.72	39.23	5.26	-49.1	-61.4	3.8	8.47e-01	0	36	104	0	70	14317
2026-01-22 23:44:00.70	39.58	5.40	-49.1	-61.4	3.8	8.48e-01	0	36	104	0	70	14282
2026-01-22 23:44:03.68	39.94	5.53	-49.1	-61.4	3.8	8.48e-01	0	36	104	0	70	14292
2026-01-22 23:44:06.66	40.30	5.67	-49.1	-61.4	3.8	8.47e-01	0	36	104	0	70	14308
2026-01-22 23:44:09.64	40.67	5.80	-49.1	-61.4	3.8	8.46e-01	0	36	104	0	70	14228
2026-01-22 23:44:12.62	41.03	5.93	-49.1	-61.4	3.8	8.47e-01	0	37	104	0	70	14242
2026-01-22 23:44:15.61	41.41	6.07	-49.1	-61.4	3.8	8.46e-01	0	37	104	0	70	14239
2026-01-22 23:44:18.59	41.78	6.20	-49.1	-61.4	3.8	8.47e-01	0	37	104	0	70	14269
2026-01-22 23:44:21.57	42.16	6.33	-49.1	-61.4	3.8	8.47e-01	0	37	104	0	70	14259
2026-01-22 23:44:24.55	42.54	6.46	-49.1	-61.4	3.8	8.48e-01	0	37	104	0	70	14238
2026-01-22 23:44:27.53	42.92	6.59	-49.1	-61.4	3.8	8.47e-01	0	37	104	0	70	14274
2026-01-22 23:44:30.51	43.31	6.73	-49.1	-61.4	3.8	8.47e-01	0	37	104	0	70	14227
2026-01-22 23:44:33.49	43.70	6.86	-49.1	-61.4	3.8	8.47e-01	0	37	104	0	70	14228
2026-01-22 23:44:36.47	44.10	6.99	-49.1	-61.3	3.8	8.47e-01	0	37	104	0	70	14201
2026-01-22 23:44:39.45	44.50	7.12	-49.1	-61.4	3.8	8.47e-01	0	37	104	0	70	14302
2026-01-22 23:44:42.43	44.90	7.25	-49.1	-61.3	3.8	8.47e-01	0	37	104	0	70	14186
2026-01-22 23:44:45.41	45.30	7.38	-49.1	-61.4	3.8	8.48e-01	0	37	104	0	70	14244
2026-01-22 23:44:48.39	45.71	7.50	-49.1	-61.4	3.8	8.46e-01	0	37	104	0	70	14222
2026-01-22 23:44:51.37	46.12	7.63	-49.1	-61.3	3.8	8.47e-01	0	37	104	0	70	14099
2026-01-22 23:44:54.35	46.54	7.76	-49.1	-61.1	3.8	8.46e-01	0	38	104	0	70	13865
2026-01-22 23:44:57.33	46.96	7.89	-49.0	-61.1	3.8	8.47e-01	0	38	104	0	70	13833
2026-01-22 23:45:00.31	47.38	8.01	-49.1	-61.3	3.8	8.47e-01	0	38	104	0	70	14146
2026-01-22 23:45:03.29	47.80	8.14	-49.1	-61.4	3.8	8.47e-01	0	38	104	0	70	14309
2026-01-22 23:45:06.27	48.23	8.26	-49.1	-61.2	3.8	8.48e-01	0	38	104	0	70	14044
2026-01-22 23:45:09.25	48.67	8.38	-49.0	-61.1	3.8	8.47e-01	0	38	104	0	70	13784
2026-01-22 23:45:12.23	49.10	8.51	-49.1	-61.3	3.8	8.47e-01	0	38	104	0	70	14192
2026-01-22 23:45:15.21	49.54	8.63	-49.1	-61.3	3.8	8.46e-01	0	38	104	0	70	14073
2026-01-22 23:45:18.19	49.99	8.75	-49.0	-60.3	3.8	8.47e-01	0	38	104	0	70	12632
2026-01-22 23:45:21.17	50.44	8.87	-48.7	-58.5	4.0	8.46e-01	0	38	104	0	69	10843
2026-01-22 23:45:24.15	50.89	8.99	-45.7	-49.6	10.3	1.72e-02	0	38	0	8388608	63	5515
2026-01-22 23:45:27.29	51.37	9.11	-47.2	-52.6	7.3	3.08e-01	0	38	0	26214400	66	6522
2026-01-22 23:45:30.13	51.80	9.23	-39.9	-42.0	17.9	0.00e+00	0	38	0	41943040	51	4583
2026-01-22 23:45:33.26	52.29	9.35	-40.1	-42.3	17.7	0.00e+00	0	38	0	59768832	51	4724
2026-01-22 23:45:36.17	52.74	9.46	-39.5	-41.6	18.3	0.00e+00	0	38	0	75497472	51	4366
2026-01-22 23:45:39.42	53.25	9.59	-39.0	-41.0	18.9	0.00e+00	0	38	0	94371840	49	4556
2026-01-22 23:45:42.26	53.70	9.69	-39.1	-41.1	18.8	0.00e+00	0	38	0	110100480	49	4610
2026-01-22 23:45:45.39	54.20	9.81	-38.9	-40.9	18.9	0.00e+00	0	38	0	127926272	49	4521
2026-01-22 23:45:48.23	54.66	9.92	-38.8	-40.8	19.1	0.00e+00	0	38	0	143654912	49	4452
2026-01-22 23:45:51.36	55.17	10.03	-38.6	-40.5	19.3	0.00e+00	0	38	0	161480704	49	4336
2026-01-22 23:45:54.39	55.67	10.14	-38.6	-40.6	19.3	0.00e+00	0	38	0	178257920	49	4343
2026-01-22 23:45:57.66	56.20	10.26	-38.6	-40.5	19.3	0.00e+00	0	38	0	196083712	49	4339
2026-01-22 23:46:00.44	56.67	10.36	-38.6	-40.5	19.3	0.00e+00	0	38	0	211812352	49	4327
2026-01-22 23:46:03.71	57.21	10.47	-38.5	-40.4	19.4	0.00e+00	0	38	0	230686720	48	4530
2026-01-22 23:46:06.55	57.69	10.57	-38.5	-40.4	19.5	0.00e+00	0	38	0	246415360	48	4513
2026-01-22 23:46:09.68	58.22	10.67	-38.5	-40.4	19.4	0.00e+00	0	38	0	264241152	48	4542
2026-01-22 23:46:12.53	58.71	10.77	-38.7	-40.7	19.2	0.00e+00	0	38	0	279969792	48	4662
2026-01-22 23:46:15.66	59.24	10.87	-38.6	-40.5	19.4	0.00e+00	0	38	0	297795584	48	4590
2026-01-22 23:46:18.82	59.79	10.97	-38.4	-40.3	19.6	0.00e+00	0	38	0	315621376	48	4461
2026-01-22 23:46:21.65	60.28	11.06	-38.4	-40.4	19.5	0.00e+00	0	38	0	331350016	48	4511
2026-01-22 23:46:24.78	60.83	11.16	-38.5	-40.5	19.4	0.00e+00	0	38	0	349175808	48	4575
2026-01-22 23:46:27.62	61.33	11.24	-38.4	-40.3	19.6	0.00e+00	0	38	0	364904448	48	4473
2026-01-22 23:46:30.75	61.88	11.34	-38.3	-40.3	19.6	0.00e+00	0	38	0	382730240	48	4450
2026-01-22 23:46:33.75	62.42	11.42	-38.5	-40.4	19.4	0.00e+00	0	38	0	399507456	48	4545
2026-01-22 23:46:36.97	63.00	11.51	-38.4	-40.4	19.5	0.00e+00	0	38	0	418381824	48	4510
2026-01-22 23:46:39.82	63.51	11.59	-38.4	-40.3	19.5	0.00e+00	0	38	0	434110464	48	4489
2026-01-22 23:46:42.95	64.08	11.68	-38.2	-40.1	19.8	0.00e+00	0	38	0	450887680	48	4376
2026-01-22 23:46:45.79	64.60	11.75	-38.0	-39.9	20.0	0.00e+00	0	38	0	467664896	48	4253
2026-01-22 23:46:48.91	65.17	11.83	-37.8	-39.7	20.0	0.00e+00	0	38	0	484442112	47	4403
2026-01-22 23:46:51.80	65.70	11.91	-37.8	-39.7	20.0	0.00e+00	0	38	0	501219328	47	4402
2026-01-22 23:46:55.07	66.31	11.99	-37.8	-39.7	19.9	0.00e+00	0	38	0	520093696	47	4421
2026-01-22 23:46:57.86	66.83	12.05	-37.6	-39.5	20.1	0.00e+00	0	38	0	534773760	47	4318
2026-01-22 23:47:00.99	67.41	12.12	-37.5	-39.4	20.2	0.00e+00	0	38	0	552599552	47	4266
2026-01-22 23:47:03.88	67.95	12.19	-37.7	-39.5	20.1	0.00e+00	0	38	0	569376768	47	4338
2026-01-22 23:47:07.07	68.55	12.25	-37.9	-39.8	19.9	0.00e+00	0	38	0	587202560	47	4457
2026-01-22 23:47:09.97	69.10	12.31	-37.9	-39.8	19.9	0.00e+00	0	38	0	603979776	47	4460
2026-01-22 23:47:13.12	69.70	12.38	-37.9	-39.8	19.8	0.00e+00	0	38	0	620756992	47	4483
2026-01-22 23:47:16.39	70.33	12.44	-37.9	-39.8	19.8	0.00e+00	0	38	0	639631360	47	4465
2026-01-22 23:47:19.24	70.87	12.49	-37.8	-39.7	20.0	0.00e+00	0	38	0	655360000	47	4411
2026-01-22 23:47:22.66	71.53	12.55	-37.9	-39.8	19.8	0.00e+00	0	38	0	674234368	47	4486
2026-01-22 23:47:25.36	72.05	12.59	-37.9	-39.8	19.9	0.00e+00	0	38	0	689963008	47	4474
2026-01-22 23:47:28.74	72.71	12.64	-37.8	-39.7	20.0	0.00e+00	0	38	0	708837376	47	4420
2026-01-22 23:47:31.46	73.24	12.68	-37.8	-39.7	19.9	0.00e+00	0	38	0	724566016	47	4438
2026-01-22 23:47:34.75	73.88	12.73	-37.9	-39.8	19.9	0.00e+00	0	38	0	742391808	47	4457
2026-01-22 23:47:37.56	74.43	12.76	-37.8	-39.7	20.0	0.00e+00	0	38	0	758120448	47	4395
2026-01-22 23:47:40.69	75.04	12.80	-37.5	-39.4	20.2	0.00e+00	0	38	0	775946240	47	4274
2026-01-22 23:47:43.53	75.60	12.83	-37.7	-39.6	20.0	0.00e+00	0	38	0	792723456	47	4366
2026-01-22 23:47:46.66	76.21	12.86	-37.7	-39.6	20.1	0.00e+00	0	38	0	809500672	47	4366
2026-01-22 23:47:49.51	76.77	12.89	-37.6	-39.5	20.1	0.00e+00	0	38	0	825229312	47	4312
2026-01-22 23:47:52.64	77.39	12.91	-37.7	-39.6	20.1	0.00e+00	0	38	0	843055104	47	4355
2026-01-22 23:47:55.48	77.95	12.93	-37.6	-39.5	20.1	0.00e+00	0	38	0	859832320	47	4335
2026-01-22 23:47:58.60	78.57	12.95	-37.7	-39.7	20.0	0.00e+00	0	38	0	876609536	47	4395
2026-01-22 23:48:01.44	79.14	12.97	-37.7	-39.6	20.1	0.00e+00	0	38	0	893386752	47	4373
2026-01-22 23:48:04.57	79.76	12.98	-37.7	-39.6	20.1	0.00e+00	0	38	0	910163968	47	4347
2026-01-22 23:48:07.41	80.32	12.99	-37.8	-39.7	20.0	0.00e+00	0	38	0	926941184	47	4414
2026-01-22 23:48:10.52	80.94	13.00	-37.9	-39.8	19.9	0.00e+00	0	38	0	943718400	47	4492
2026-01-22 23:48:13.36	81.50	13.01	-37.8	-39.8	19.9	0.00e+00	0	38	0	960495616	47	4468
2026-01-22 23:48:16.56	82.14	13.01	-37.6	-39.5	20.1	0.00e+00	0	38	0	978321408	47	4336
2026-01-22 23:48:19.40	82.71	13.01	-37.7	-39.6	20.0	0.00e+00	0	38	0	994050048	47	4391
2026-01-22 23:48:22.53	83.33	13.00	-37.9	-39.9	19.8	0.00e+00	0	38	0	1011875840	47	4503
2026-01-22 23:48:25.37	83.89	13.00	-37.8	-39.8	19.9	0.00e+00	0	38	0	1027604480	47	4456
2026-01-22 23:48:28.50	84.52	12.99	-37.8	-39.7	20.0	0.00e+00	0	38	0	1045430272	47	4434
2026-01-22 23:48:31.85	85.18	12.98	-37.9	-39.9	19.8	0.00e+00	0	38	0	1064304640	47	4494
2026-01-22 23:48:34.62	85.73	12.96	-37.9	-39.8	19.9	0.00e+00	0	38	0	1080033280	47	4461
2026-01-22 23:48:37.89	86.38	12.94	-37.9	-39.8	19.9	0.00e+00	0	38	0	1097859072	47	4478
2026-01-22 23:48:40.61	86.92	12.92	-37.8	-39.7	19.9	0.00e+00	0	38	0	1113587712	47	4435
2026-01-22 23:48:44.02	87.59	12.90	-37.8	-39.7	19.9	0.00e+00	0	38	0	1132462080	47	4438
2026-01-22 23:48:46.84	88.15	12.87	-37.8	-39.8	19.9	0.00e+00	0	38	0	1148190720	47	4444
2026-01-22 23:48:50.38	88.85	12.84	-37.8	-39.7	20.0	0.00e+00	0	38	0	1168113664	47	4422
2026-01-22 23:48:53.38	89.44	12.81	-37.9	-39.8	19.9	0.00e+00	0	38	0	1184890880	47	4468
2026-01-22 23:48:56.36	90.02	12.77	-37.7	-39.5	20.1	0.00e+00	0	38	0	1201668096	47	4340
2026-01-22 23:48:59.35	90.61	12.73	-37.7	-39.6	20.1	0.00e+00	0	38	0	1218445312	47	4355
2026-01-22 23:49:02.39	91.20	12.69	-37.8	-39.7	20.0	0.00e+00	0	38	0	1236271104	47	4406
2026-01-22 23:49:05.28	91.77	12.65	-37.9	-39.8	19.8	0.00e+00	0	38	0	1251999744	47	4483
2026-01-22 23:49:08.58	92.41	12.60	-37.9	-39.9	19.8	0.00e+00	0	38	0	1270874112	47	4503
2026-01-22 23:49:11.28	92.93	12.56	-38.1	-40.0	19.7	0.00e+00	0	38	0	1285554176	47	4572
2026-01-22 23:49:14.56	93.56	12.50	-38.2	-40.1	19.5	0.00e+00	0	38	0	1304428544	47	4650
2026-01-22 23:49:17.36	94.10	12.45	-38.2	-40.1	19.6	0.00e+00	0	38	0	1320157184	47	4630
2026-01-22 23:49:20.75	94.75	12.39	-38.3	-40.3	19.5	0.00e+00	0	38	0	1339031552	47	4715
2026-01-22 23:49:23.45	95.27	12.34	-38.2	-40.1	19.6	0.00e+00	0	38	0	1354760192	47	4651
2026-01-22 23:49:26.82	95.91	12.27	-38.2	-40.1	19.6	0.00e+00	0	38	0	1373634560	47	4647
2026-01-22 23:49:29.55	96.43	12.21	-38.2	-40.1	19.6	0.00e+00	0	38	0	1388314624	47	4619
2026-01-22 23:49:32.81	97.04	12.14	-38.2	-40.2	19.5	0.00e+00	0	38	0	1407188992	47	4658
2026-01-22 23:49:35.54	97.55	12.08	-38.2	-40.1	19.6	0.00e+00	0	38	0	1421869056	47	4623
2026-01-22 23:49:38.84	98.17	12.00	-38.2	-40.2	19.5	0.00e+00	0	38	0	1440743424	47	4654
2026-01-22 23:49:41.67	98.70	11.93	-38.4	-40.4	19.3	0.00e+00	0	38	0	1456472064	47	4763
2026-01-22 23:49:44.79	99.28	11.86	-38.4	-40.4	19.3	0.00e+00	0	38	0	1474297856	47	4792
2026-01-22 23:49:47.71	99.81	11.78	-38.3	-40.2	19.4	0.00e+00	0	38	0	1491075072	47	4702
2026-01-22 23:49:50.96	100.41	11.70	-38.4	-40.4	19.3	0.00e+00	0	38	0	1508900864	47	4773
2026-01-22 23:49:53.87	100.94	11.62	-38.3	-40.3	19.4	0.00e+00	0	38	0	1525678080	47	4726
2026-01-22 23:49:57.06	101.52	11.53	-38.3	-40.2	19.4	0.00e+00	0	38	0	1543503872	47	4699
2026-01-22 23:49:59.90	102.03	11.45	-38.5	-40.5	19.2	0.00e+00	0	38	0	1559232512	47	4837
2026-01-22 23:50:03.02	102.59	11.36	-38.4	-40.4	19.3	0.00e+00	0	38	0	1577058304	47	4795
2026-01-22 23:50:05.86	103.10	11.27	-38.5	-40.5	19.2	0.00e+00	0	38	0	1592786944	47	4830
2026-01-22 23:50:08.99	103.65	11.18	-38.6	-40.6	19.1	0.00e+00	0	38	0	1610612736	47	4916
2026-01-22 23:50:11.89	104.16	11.09	-38.8	-40.8	19.2	0.00e+00	0	38	0	1626341376	48	4714
2026-01-22 23:50:15.09	104.72	10.99	-38.7	-40.6	19.3	0.00e+00	0	38	0	1645215744	48	4639
2026-01-22 23:50:17.99	105.23	10.89	-38.8	-40.7	19.1	0.00e+00	0	38	0	1660944384	48	4704
2026-01-22 23:50:21.01	105.75	10.79	-38.9	-40.9	19.1	0.00e+00	0	38	0	1677721600	48	4760
2026-01-22 23:50:23.99	106.26	10.69	-38.8	-40.8	19.1	0.00e+00	0	38	0	1694498816	48	4728
2026-01-22 23:50:26.98	106.77	10.59	-38.9	-40.9	19.0	0.00e+00	0	38	0	1711276032	48	4770
2026-01-22 23:50:29.96	107.28	10.49	-38.9	-40.9	19.0	0.00e+00	0	38	0	1728053248	48	4782
2026-01-22 23:50:32.95	107.78	10.39	-39.0	-41.1	18.8	0.00e+00	0	38	0	1745879040	48	4873
2026-01-22 23:50:35.93	108.28	10.28	-39.1	-41.1	18.8	0.00e+00	0	38	0	1761607680	48	4917
2026-01-22 23:50:38.92	108.77	10.17	-39.0	-41.0	18.9	0.00e+00	0	38	0	1778384896	48	4858
2026-01-22 23:50:41.90	109.26	10.07	-39.0	-41.0	18.9	0.00e+00	0	38	0	1796210688	48	4852
2026-01-22 23:50:44.88	109.75	9.96	-38.9	-40.9	18.9	0.00e+00	0	38	0	1811939328	48	4793
2026-01-22 23:50:47.87	110.24	9.85	-38.7	-41.1	18.8	0.00e+00	0	38	0	1828716544	48	4900
2026-01-22 23:50:50.85	110.72	9.73	-39.1	-41.4	18.5	0.00e+00	0	38	0	1846542336	48	5071
2026-01-22 23:50:53.84	111.20	9.62	-39.4	-41.5	18.3	0.00e+00	0	38	0	1862270976	49	4865
2026-01-22 23:50:56.86	111.67	9.50	-39.4	-41.5	18.4	0.00e+00	0	38	0	1880096768	49	4816
2026-01-22 23:50:59.95	112.16	9.38	-39.4	-41.5	18.4	0.00e+00	0	38	0	1896873984	49	4819
2026-01-22 23:51:02.80	112.61	9.27	-39.5	-41.6	18.3	0.00e+00	0	38	0	1912602624	49	4890
2026-01-22 23:51:05.92	113.09	9.15	-39.6	-41.7	18.2	0.00e+00	0	38	0	1930428416	49	4929
2026-01-22 23:51:08.83	113.54	9.03	-39.6	-41.8	18.1	0.00e+00	0	38	0	1947205632	49	4986
2026-01-22 23:51:12.00	114.02	8.90	-49.7	-61.9	3.8	8.47e-01	0	38	104	1952448512	70	15215
2026-01-22 23:51:14.83	114.45	8.79	-49.8	-62.1	3.8	8.48e-01	0	38	104	1952448512	70	15494
2026-01-22 23:51:17.96	114.92	8.66	-49.9	-62.2	3.8	8.46e-01	0	38	104	1952448512	70	15593
2026-01-22 23:51:20.79	115.34	8.54	-49.6	-62.2	3.8	8.47e-01	0	38	104	1952448512	70	15646
2026-01-22 23:51:23.92	115.81	8.41	-49.7	-62.2	3.8	8.47e-01	0	38	104	1952448512	70	15620
2026-01-22 23:51:26.76	116.22	8.30	-49.6	-62.2	3.8	8.46e-01	0	38	104	1952448512	70	15633
2026-01-22 23:51:29.88	116.68	8.16	-49.8	-62.2	3.8	8.46e-01	0	38	104	1952448512	70	15611
2026-01-22 23:51:32.71	117.08	8.04	-49.8	-62.1	3.8	8.47e-01	0	38	104	1952448512	70	15552
2026-01-22 23:51:35.84	117.53	7.91	-49.8	-62.1	3.8	8.47e-01	0	38	104	1952448512	70	15509
2026-01-22 23:51:38.68	117.93	7.79	-49.8	-62.1	3.8	8.46e-01	0	38	104	1952448512	70	15493
2026-01-22 23:51:41.80	118.37	7.65	-49.8	-62.1	3.8	8.47e-01	0	38	104	1952448512	70	15471
2026-01-22 23:51:44.64	118.77	7.53	-49.8	-62.1	3.8	8.46e-01	0	38	104	1952448512	70	15442
2026-01-22 23:51:47.76	119.20	7.40	-49.8	-62.1	3.8	8.48e-01	0	38	104	1952448512	70	15429
2026-01-22 23:51:50.60	119.59	7.27	-49.8	-62.1	3.8	8.47e-01	0	38	104	1952448512	70	15466
2026-01-22 23:51:53.72	120.01	7.14	-49.8	-62.1	3.8	8.47e-01	0	38	104	1952448512	70	15438
2026-01-22 23:51:56.56	120.39	7.01	-49.8	-62.1	3.8	8.47e-01	0	38	104	1952448512	70	15453
2026-01-22 23:51:59.68	120.81	6.87	-49.8	-62.0	3.8	8.47e-01	0	39	104	1952448512	70	15355
2026-01-22 23:52:02.52	121.19	6.75	-49.8	-62.1	3.8	8.48e-01	0	38	104	1952448512	70	15414
2026-01-22 23:52:05.64	121.60	6.61	-49.8	-62.1	3.8	8.47e-01	0	38	104	1952448512	70	15452
2026-01-22 23:52:08.48	121.96	6.48	-49.8	-62.1	3.8	8.47e-01	0	38	104	1952448512	70	15450
2026-01-22 23:52:11.60	122.37	6.34	-49.8	-62.0	3.8	8.47e-01	0	38	104	1952448512	70	15401
2026-01-22 23:52:14.44	122.73	6.21	-49.8	-62.1	3.8	8.47e-01	0	38	104	1952448512	70	15451
2026-01-22 23:52:17.56	123.12	6.07	-49.8	-62.1	3.8	8.46e-01	0	38	104	1952448512	70	15494
2026-01-22 23:52:20.40	123.48	5.95	-49.8	-62.1	3.8	8.47e-01	0	38	104	1952448512	70	15445
2026-01-22 23:52:23.52	123.87	5.80	-49.8	-62.1	3.8	8.47e-01	0	38	104	1952448512	70	15427
2026-01-22 23:52:26.36	124.22	5.68	-49.8	-62.1	3.8	8.47e-01	0	38	104	1952448512	70	15424
2026-01-22 23:52:29.48	124.60	5.53	-49.8	-62.1	3.8	8.46e-01	0	39	104	1952448512	70	15424
2026-01-22 23:52:32.32	124.94	5.40	-49.8	-62.1	3.8	8.47e-01	0	38	104	1952448512	70	15404
2026-01-22 23:52:35.44	125.32	5.26	-49.8	-62.1	3.8	8.45e-01	0	38	104	1952448512	70	15405
2026-01-22 23:52:38.28	125.65	5.13	-49.8	-62.0	3.8	8.47e-01	0	38	104	1952448512	70	15289
2026-01-22 23:52:41.40	126.02	4.99	-49.8	-62.1	3.8	8.47e-01	0	38	104	1952448512	70	15408

#Closed at: 2026-01-22 23:52:43
#Recorded file [1952 MB]: D:/Data/31040_260123_024351.dat