passes_logs/2026/01/22/T1/T1__20260122_085516_SUOMI_NPP_rec.log

#Pass ID: 20260122_085516_SUOMI NPP
#Satellite: SUOMI NPP
#Configuration: NPP
#almurnet v.1.7.20251203
#Start time: 2026-01-22 08:55:18

#Version: 2.0.20230620
#Station: T1
#Location: 37.570604 lon 55.790049 lat
#TLE: 1 37849U 11061A   26021.51818991  .00000201  00000+0  11636-3 0  9995
#TLE: 2 37849  98.7819 323.5108 0002300  52.3548 307.7836 14.19527793737637

#Time	Az	El	Level	Level2	SNR	BER	BlckErr	Temp	State	Recorded	gain1	gain2
2026-01-22 08:55:18.38	126.09	5.15	-49.9	-65.2	3.8	1.49e+00	0	35	0	0	70	22031
2026-01-22 08:55:21.36	125.93	5.35	-49.5	-65.1	3.8	1.49e+00	0	35	104	0	70	21949
2026-01-22 08:55:24.34	125.76	5.55	-49.5	-65.0	3.8	1.49e+00	0	35	104	0	70	21679
2026-01-22 08:55:27.31	125.58	5.75	-49.9	-65.0	3.8	1.49e+00	0	35	104	0	70	21545
2026-01-22 08:55:30.29	125.41	5.96	-49.9	-65.1	3.8	1.49e+00	0	35	104	0	70	21955
2026-01-22 08:55:33.28	125.23	6.17	-49.4	-65.1	3.8	1.49e+00	0	35	104	0	70	21970
2026-01-22 08:55:36.26	125.05	6.37	-49.5	-65.1	3.8	1.49e+00	0	36	104	0	70	21851
2026-01-22 08:55:39.23	124.87	6.58	-49.4	-65.1	3.8	1.49e+00	0	36	104	0	70	21823
2026-01-22 08:55:42.21	124.68	6.79	-49.9	-65.0	3.8	1.49e+00	0	36	104	0	70	21595
2026-01-22 08:55:45.20	124.49	7.00	-49.9	-65.1	3.8	1.49e+00	0	36	104	0	70	21837
2026-01-22 08:55:48.17	124.30	7.22	-49.4	-64.6	3.8	1.49e+00	0	36	104	0	70	20729
2026-01-22 08:55:51.16	124.10	7.43	-49.4	-64.1	3.8	1.49e+00	0	36	104	0	70	19467
2026-01-22 08:55:54.13	123.91	7.65	-49.3	-63.3	3.8	1.49e+00	0	36	104	0	70	17850
2026-01-22 08:55:57.11	123.71	7.86	-48.9	-56.8	7.0	3.67e-01	0	36	0	2097152	69	8893
2026-01-22 08:56:00.09	123.50	8.08	-46.2	-49.9	13.8	4.11e-05	0	36	0	8388608	64	5383
2026-01-22 08:56:03.07	123.29	8.31	-45.3	-48.9	14.9	0.00e+00	0	36	0	13631488	62	5346
2026-01-22 08:56:06.05	123.08	8.53	-46.2	-50.6	13.2	1.37e-05	0	37	0	18874368	63	6142
2026-01-22 08:56:09.03	122.87	8.75	-46.7	-51.1	12.6	5.64e-05	0	37	0	25165824	64	6150
2026-01-22 08:56:12.01	122.65	8.98	-47.7	-52.9	10.7	1.03e-03	0	37	0	30408704	65	7184
2026-01-22 08:56:14.99	122.43	9.20	-48.3	-55.5	8.2	7.46e-03	0	37	0	35651584	67	8610
2026-01-22 08:56:17.98	122.21	9.43	-49.8	-64.6	3.8	1.03e+00	0	37	104	40894464	70	20711
2026-01-22 08:56:20.97	121.98	9.67	-48.9	-63.7	3.8	1.49e+00	0	37	104	40894464	69	19777
2026-01-22 08:56:23.95	121.74	9.90	-49.1	-59.4	5.1	7.76e-01	0	37	0	41943040	70	11343
2026-01-22 08:56:26.94	121.51	10.13	-49.5	-62.5	3.8	6.96e-03	0	37	104	47185920	69	17155
2026-01-22 08:56:29.92	121.27	10.37	-46.6	-51.9	12.0	3.56e-04	0	37	0	51380224	65	6359
2026-01-22 08:56:32.90	121.02	10.61	-45.8	-49.4	14.4	7.00e-07	0	37	0	56623104	63	5376
2026-01-22 08:56:35.95	120.77	10.85	-44.6	-47.5	16.3	0.00e+00	0	37	0	62914560	61	4849
2026-01-22 08:56:38.87	120.52	11.09	-46.2	-50.1	13.8	3.00e-06	0	37	0	68157440	63	5798
2026-01-22 08:56:41.85	120.27	11.33	-46.0	-49.7	14.3	1.22e-05	0	37	0	73400320	63	5540
2026-01-22 08:56:44.84	120.01	11.58	-43.9	-46.6	17.2	0.00e+00	0	37	0	79691776	59	4875
2026-01-22 08:56:47.82	119.74	11.82	-44.5	-47.4	16.4	0.00e+00	0	37	0	84934656	59	5371
2026-01-22 08:56:50.86	119.47	12.08	-45.3	-48.6	15.5	0.00e+00	0	37	0	90177536	61	5480
2026-01-22 08:56:53.80	119.19	12.33	-44.0	-46.6	17.3	0.00e+00	0	37	0	96468992	60	4622
2026-01-22 08:56:56.79	118.91	12.58	-43.8	-46.4	17.4	0.00e+00	0	37	0	101711872	58	5075
2026-01-22 08:56:59.78	118.63	12.83	-44.9	-48.0	16.0	0.00e+00	0	37	0	106954752	60	5408
2026-01-22 08:57:02.77	118.34	13.09	-44.4	-47.2	16.7	0.00e+00	0	37	0	113246208	60	4977
2026-01-22 08:57:05.74	118.04	13.35	-43.9	-46.5	17.3	0.00e+00	0	37	0	118489088	59	4867
2026-01-22 08:57:08.86	117.73	13.62	-44.2	-46.9	17.0	0.00e+00	0	37	0	123731968	59	5077
2026-01-22 08:57:11.69	117.44	13.87	-44.0	-46.7	17.2	0.00e+00	0	37	0	130023424	59	4945
2026-01-22 08:57:14.82	117.11	14.15	-44.1	-46.8	17.2	0.00e+00	0	37	0	135266304	59	5007
2026-01-22 08:57:17.66	116.81	14.40	-44.4	-47.1	16.8	0.00e+00	0	37	0	140509184	59	5218
2026-01-22 08:57:20.92	116.46	14.70	-43.9	-46.4	17.5	0.00e+00	0	37	0	146800640	59	4811
2026-01-22 08:57:23.62	116.16	14.94	-44.4	-47.2	16.8	0.00e+00	0	37	0	152043520	59	5223
2026-01-22 08:57:26.89	115.79	15.24	-44.3	-47.1	16.9	0.00e+00	0	37	0	158334976	59	5172
2026-01-22 08:57:29.86	115.45	15.52	-44.0	-46.6	17.3	0.00e+00	0	37	0	163577856	59	4892
2026-01-22 08:57:33.87	114.98	15.89	-44.4	-47.1	16.8	0.00e+00	0	37	0	170917888	59	5216
2026-01-22 08:57:36.71	114.64	16.16	-44.1	-46.8	17.2	0.00e+00	0	37	0	176160768	59	4992
2026-01-22 08:57:40.69	114.15	16.53	-44.2	-46.8	17.2	0.00e+00	0	37	0	183500800	59	5035
2026-01-22 08:57:43.53	113.79	16.80	-43.8	-46.3	17.6	0.00e+00	0	37	0	188743680	59	4731
2026-01-22 08:57:47.50	113.29	17.19	-43.8	-46.3	17.6	0.00e+00	0	37	0	197132288	59	4752
2026-01-22 08:57:50.42	112.90	17.47	-43.8	-46.3	17.7	0.00e+00	0	37	0	202375168	58	5029
2026-01-22 08:57:54.48	112.36	17.87	-44.8	-47.8	16.4	0.00e+00	0	38	0	209715200	60	5297
2026-01-22 08:57:57.32	111.97	18.15	-44.5	-47.4	16.8	0.00e+00	0	37	0	214958080	60	5052
2026-01-22 08:58:01.67	111.36	18.58	-45.2	-48.3	15.8	0.00e+00	0	37	0	223346688	61	5335
2026-01-22 08:58:04.51	110.95	18.87	-44.4	-47.2	16.9	0.00e+00	0	38	0	228589568	60	4944
2026-01-22 08:58:08.49	110.37	19.27	-44.6	-47.4	16.8	0.00e+00	0	37	0	235929600	60	5054
2026-01-22 08:58:11.51	109.91	19.57	-44.3	-47.0	17.1	0.00e+00	0	37	0	241172480	60	4864
2026-01-22 08:58:15.57	109.28	19.99	-44.3	-47.1	17.0	0.00e+00	0	37	0	249561088	60	4891
2026-01-22 08:58:19.06	108.73	20.35	-44.5	-47.4	16.7	0.00e+00	0	38	0	255852544	60	5083
2026-01-22 08:58:22.05	108.25	20.66	-44.1	-46.8	17.4	0.00e+00	0	37	0	261095424	60	4710
2026-01-22 08:58:25.03	107.76	20.97	-44.3	-47.1	17.0	0.00e+00	0	38	0	267386880	60	4907
2026-01-22 08:58:28.01	107.25	21.28	-44.3	-47.0	17.1	0.00e+00	0	37	0	272629760	60	4853
2026-01-22 08:58:31.00	106.74	21.60	-44.6	-47.4	16.7	0.00e+00	0	37	0	277872640	60	5082
2026-01-22 08:58:33.98	106.22	21.92	-44.9	-47.9	16.3	0.00e+00	0	38	0	284164096	60	5358
2026-01-22 08:58:36.97	105.68	22.23	-45.3	-48.3	15.9	0.00e+00	0	37	0	289406976	61	5332
2026-01-22 08:58:39.95	105.14	22.55	-45.0	-48.0	16.2	0.00e+00	0	38	0	294649856	61	5114
2026-01-22 08:58:42.94	104.58	22.87	-44.8	-47.7	16.5	0.00e+00	0	37	0	300941312	61	4929
2026-01-22 08:58:45.92	104.01	23.19	-44.8	-47.7	16.5	0.00e+00	0	38	0	306184192	61	4958
2026-01-22 08:58:48.91	103.43	23.51	-44.4	-47.0	17.1	0.00e+00	0	38	0	311427072	60	4866
2026-01-22 08:58:51.97	102.82	23.84	-44.0	-46.6	17.5	0.00e+00	0	37	0	317718528	60	4613
2026-01-22 08:58:54.82	102.24	24.15	-44.4	-47.0	17.1	0.00e+00	0	38	0	322961408	59	5135
2026-01-22 08:58:57.95	101.59	24.49	-44.4	-47.0	17.1	0.00e+00	0	38	0	329252864	60	4844
2026-01-22 08:59:00.78	100.99	24.80	-44.6	-47.3	16.8	0.00e+00	0	38	0	334495744	60	5017
2026-01-22 08:59:04.07	100.28	25.16	-44.1	-46.7	17.4	0.00e+00	0	38	0	339738624	60	4700
2026-01-22 08:59:06.92	99.65	25.46	-44.3	-47.0	17.1	0.00e+00	0	38	0	346030080	59	5142
2026-01-22 08:59:10.05	98.95	25.80	-44.2	-46.8	17.4	0.00e+00	0	38	0	351272960	60	4735
2026-01-22 08:59:12.89	98.29	26.11	-44.5	-47.3	16.9	0.00e+00	0	38	0	356515840	59	5303
2026-01-22 08:59:16.01	97.56	26.45	-44.9	-47.8	16.4	0.00e+00	0	37	0	362807296	60	5312
2026-01-22 08:59:18.86	96.88	26.75	-44.9	-47.8	16.4	0.00e+00	0	38	0	368050176	61	5036
2026-01-22 08:59:21.98	96.12	27.09	-43.8	-46.3	17.8	0.00e+00	0	37	0	374341632	59	4732
2026-01-22 08:59:24.82	95.41	27.39	-43.3	-45.6	18.5	0.00e+00	0	38	0	379584512	58	4650
2026-01-22 08:59:27.94	94.61	27.72	-43.4	-45.8	18.3	0.00e+00	0	38	0	384827392	58	4711
2026-01-22 08:59:30.78	93.88	28.02	-44.1	-46.7	17.5	0.00e+00	0	38	0	390070272	59	4956
2026-01-22 08:59:33.91	93.05	28.35	-44.1	-46.8	17.4	0.00e+00	0	37	0	396361728	59	4996
2026-01-22 08:59:36.79	92.27	28.65	-45.4	-48.5	15.8	0.00e+00	0	38	0	401604608	61	5408
2026-01-22 08:59:40.30	91.30	29.01	-45.8	-49.1	15.3	0.00e+00	0	37	0	407896064	62	5523
2026-01-22 08:59:43.00	90.55	29.28	-45.3	-48.4	15.9	0.00e+00	0	38	0	413138944	62	5100
2026-01-22 08:59:46.30	89.60	29.61	-45.2	-48.3	16.0	0.00e+00	0	38	0	419430400	61	5307
2026-01-22 08:59:49.02	88.81	29.88	-45.3	-48.4	15.9	0.00e+00	0	38	0	424673280	62	5078
2026-01-22 08:59:52.29	87.84	30.19	-46.7	-50.8	13.6	3.00e-06	0	38	0	430964736	64	5973
2026-01-22 08:59:55.10	86.99	30.46	-46.6	-51.2	13.0	5.11e-05	0	37	0	436207616	64	6252
2026-01-22 08:59:58.22	86.03	30.75	-46.6	-51.2	12.9	3.81e-05	0	38	0	441450496	64	6257
2026-01-22 09:00:01.07	85.13	31.01	-46.1	-50.2	13.9	6.10e-06	0	38	0	446693376	63	5920
2026-01-22 09:00:04.19	84.14	31.29	-45.7	-49.7	14.6	0.00e+00	0	38	0	452984832	62	5858
2026-01-22 09:00:07.03	83.22	31.54	-45.7	-49.5	14.7	7.00e-07	0	38	0	458227712	62	5743
2026-01-22 09:00:10.16	82.19	31.81	-45.5	-49.3	14.9	7.00e-07	0	38	0	464519168	62	5630
2026-01-22 09:00:13.25	81.16	32.06	-46.6	-51.3	12.9	2.97e-05	0	38	0	469762048	63	6688
2026-01-22 09:00:16.10	80.19	32.29	-46.0	-50.4	13.8	6.80e-06	0	38	0	475004928	63	5994
2026-01-22 09:00:19.22	79.12	32.53	-46.0	-50.1	14.1	3.00e-06	0	38	0	481296384	63	5851
2026-01-22 09:00:22.07	78.12	32.74	-45.7	-49.5	14.6	7.00e-07	0	38	0	486539264	63	5453
2026-01-22 09:00:25.19	77.02	32.96	-44.5	-47.6	16.5	0.00e+00	0	38	0	492830720	61	4900
2026-01-22 09:00:28.15	75.96	33.16	-43.9	-46.8	17.2	0.00e+00	0	38	0	498073600	59	5005
2026-01-22 09:00:31.52	74.74	33.37	-43.8	-46.6	17.3	0.00e+00	0	38	0	504365056	59	4882
2026-01-22 09:00:34.25	73.74	33.54	-44.4	-47.4	16.7	0.00e+00	0	38	0	509607936	59	5356
2026-01-22 09:00:37.52	72.52	33.72	-45.0	-48.4	15.8	0.00e+00	0	38	0	515899392	61	5370
2026-01-22 09:00:40.42	71.44	33.87	-43.8	-46.4	17.6	0.00e+00	0	38	0	521142272	59	4807
2026-01-22 09:00:44.18	70.01	34.05	-44.1	-46.9	17.2	0.00e+00	0	38	0	527433728	59	5051
2026-01-22 09:00:46.96	68.95	34.17	-43.8	-46.5	17.6	0.00e+00	0	38	0	532676608	59	4831
2026-01-22 09:00:50.22	67.70	34.30	-44.8	-48.0	16.1	0.00e+00	0	38	0	538968064	61	5119
2026-01-22 09:00:53.29	66.51	34.41	-44.1	-46.9	17.2	0.00e+00	0	38	0	545259520	60	4812
2026-01-22 09:00:56.57	65.23	34.51	-44.5	-47.5	16.8	0.00e+00	0	38	0	551550976	60	5131
2026-01-22 09:00:59.29	64.16	34.58	-44.4	-47.3	16.9	0.00e+00	0	38	0	555745280	60	4987
2026-01-22 09:01:02.56	62.87	34.64	-44.1	-46.9	17.3	0.00e+00	0	38	0	562036736	59	5046
2026-01-22 09:01:05.29	61.79	34.69	-44.5	-47.3	16.9	0.00e+00	0	38	0	567279616	60	5030
2026-01-22 09:01:08.65	60.46	34.73	-45.1	-48.2	16.0	0.00e+00	0	38	0	573571072	60	5586
2026-01-22 09:01:11.46	59.35	34.75	-44.5	-47.5	16.8	0.00e+00	0	38	0	578813952	60	5125
2026-01-22 09:01:14.75	58.04	34.76	-44.6	-47.5	16.7	0.00e+00	0	38	0	585105408	60	5149
2026-01-22 09:01:17.49	56.95	34.75	-45.1	-48.4	15.8	0.00e+00	0	38	0	590348288	60	5685
2026-01-22 09:01:20.79	55.64	34.72	-44.8	-47.9	16.2	0.00e+00	0	38	0	596639744	61	5095
2026-01-22 09:01:23.52	54.56	34.69	-44.0	-46.8	17.3	0.00e+00	0	38	0	601882624	59	5009
2026-01-22 09:01:26.79	53.27	34.64	-45.8	-49.7	14.6	0.00e+00	0	38	0	608174080	62	5883
2026-01-22 09:01:29.51	52.20	34.58	-45.2	-48.6	15.6	0.00e+00	0	38	0	612368384	62	5193
2026-01-22 09:01:32.80	50.91	34.50	-44.2	-47.2	16.8	0.00e+00	0	38	0	618659840	60	4953
2026-01-22 09:01:35.52	49.85	34.41	-45.1	-48.4	15.7	0.00e+00	0	38	0	623902720	61	5383
2026-01-22 09:01:38.85	48.56	34.30	-44.9	-48.3	15.8	0.00e+00	0	38	0	630194176	61	5284
2026-01-22 09:01:41.59	47.51	34.19	-44.5	-47.7	16.4	0.00e+00	0	38	0	635437056	60	5234
2026-01-22 09:01:44.86	46.26	34.05	-44.6	-47.8	16.3	0.00e+00	0	38	0	641728512	59	5606
2026-01-22 09:01:47.58	45.23	33.92	-44.5	-47.6	16.5	0.00e+00	0	38	0	646971392	60	5200
2026-01-22 09:01:50.85	44.01	33.75	-44.1	-47.1	17.0	0.00e+00	0	38	0	653262848	60	4905
2026-01-22 09:01:53.56	43.00	33.60	-44.0	-46.9	17.1	0.00e+00	0	38	0	657457152	59	5078
2026-01-22 09:01:56.83	41.80	33.41	-46.0	-50.2	14.3	0.00e+00	0	38	0	663748608	62	6210
2026-01-22 09:01:59.55	40.81	33.24	-44.4	-47.4	16.8	0.00e+00	0	38	0	668991488	60	5079
2026-01-22 09:02:02.84	39.63	33.03	-44.5	-47.6	16.6	0.00e+00	0	38	0	675282944	60	5179
2026-01-22 09:02:05.68	38.62	32.83	-45.4	-48.8	15.3	0.00e+00	0	38	0	680525824	61	5644
2026-01-22 09:02:08.89	37.50	32.60	-46.4	-50.8	13.4	1.06e-05	0	38	0	686817280	63	6332
2026-01-22 09:02:11.73	36.52	32.38	-46.2	-50.3	14.0	0.00e+00	0	38	0	692060160	63	5963
2026-01-22 09:02:15.08	35.38	32.12	-46.3	-50.7	13.5	6.80e-06	0	38	0	698351616	63	6221
2026-01-22 09:02:17.98	34.41	31.88	-45.2	-48.7	15.5	0.00e+00	0	38	0	703594496	62	5219
2026-01-22 09:02:21.28	33.33	31.61	-44.7	-48.0	16.1	0.00e+00	0	38	0	709885952	61	5108
2026-01-22 09:02:23.98	32.45	31.37	-43.9	-46.7	17.4	0.00e+00	0	38	0	715128832	59	4942
2026-01-22 09:02:27.26	31.41	31.08	-45.8	-49.7	14.6	0.00e+00	0	38	0	721420288	62	5862
2026-01-22 09:02:30.09	30.52	30.83	-45.1	-48.6	15.6	0.00e+00	0	38	0	726663168	62	5164
2026-01-22 09:02:33.74	29.40	30.49	-44.4	-47.5	16.7	0.00e+00	0	38	0	732954624	60	5139
2026-01-22 09:02:36.80	28.48	30.20	-46.4	-50.6	13.6	5.30e-06	0	38	0	739246080	63	6196
2026-01-22 09:02:39.64	27.64	29.92	-45.9	-49.8	14.5	0.00e+00	0	38	0	744488960	63	5618
2026-01-22 09:02:42.88	26.69	29.60	-45.5	-49.1	15.2	0.00e+00	0	38	0	750780416	62	5521
2026-01-22 09:02:45.72	25.88	29.32	-46.0	-49.9	14.4	7.00e-07	0	38	0	756023296	62	6023
2026-01-22 09:02:48.99	24.97	28.99	-45.7	-49.2	15.1	7.00e-07	0	38	0	762314752	63	5248
2026-01-22 09:02:51.71	24.22	28.71	-45.0	-48.2	16.0	0.00e+00	0	38	0	766509056	61	5228
2026-01-22 09:02:55.00	23.34	28.37	-45.2	-48.5	15.7	0.00e+00	0	38	0	772800512	61	5433
2026-01-22 09:02:57.73	22.62	28.09	-45.3	-48.7	15.6	0.00e+00	0	38	0	778043392	61	5530
2026-01-22 09:03:01.01	21.77	27.75	-43.8	-46.5	17.6	0.00e+00	0	38	0	784334848	59	4821
2026-01-22 09:03:03.89	21.04	27.44	-43.7	-46.5	17.6	0.00e+00	0	38	0	789577728	58	5111
2026-01-22 09:03:07.27	20.20	27.08	-43.9	-46.7	17.4	0.00e+00	0	38	0	795869184	59	4972
2026-01-22 09:03:09.97	19.54	26.80	-43.3	-45.8	18.2	0.00e+00	0	37	0	801112064	58	4745
2026-01-22 09:03:13.25	18.76	26.45	-43.1	-45.6	18.4	0.00e+00	0	38	0	807403520	58	4635
2026-01-22 09:03:15.96	18.13	26.15	-44.3	-47.2	17.0	0.00e+00	0	38	0	812646400	59	5273
2026-01-22 09:03:19.24	17.38	25.80	-43.5	-46.1	18.0	0.00e+00	0	38	0	818937856	58	4898
2026-01-22 09:03:21.94	16.77	25.51	-43.0	-45.4	18.6	0.00e+00	0	38	0	824180736	57	4792
2026-01-22 09:03:25.24	16.05	25.15	-43.0	-45.5	18.5	0.00e+00	0	38	0	829423616	57	4868
2026-01-22 09:03:27.96	15.46	24.86	-42.9	-45.5	18.6	0.00e+00	0	38	0	834666496	57	4816
2026-01-22 09:03:31.26	14.77	24.51	-43.0	-45.5	18.5	0.00e+00	0	38	0	840957952	57	4815
2026-01-22 09:03:33.97	14.21	24.21	-42.8	-45.2	18.7	0.00e+00	0	38	0	846200832	57	4702
2026-01-22 09:03:37.52	13.49	23.83	-43.4	-46.0	18.1	0.00e+00	0	38	0	852492288	57	5104
2026-01-22 09:03:40.24	12.96	23.54	-43.3	-45.8	18.3	0.00e+00	0	38	0	857735168	57	5034
2026-01-22 09:03:43.51	12.32	23.19	-43.7	-46.4	17.8	0.00e+00	0	38	0	864026624	57	5342
2026-01-22 09:03:46.21	11.81	22.90	-44.4	-47.2	16.8	0.00e+00	0	38	0	869269504	59	5276
2026-01-22 09:03:49.49	11.21	22.55	-44.2	-46.9	17.3	0.00e+00	0	38	0	875560960	60	4813
2026-01-22 09:03:52.56	10.65	22.22	-44.2	-47.1	17.1	0.00e+00	0	38	0	880803840	60	4904
2026-01-22 09:03:55.55	10.12	21.91	-44.5	-47.8	16.4	0.00e+00	0	38	0	887095296	60	5315
2026-01-22 09:03:58.53	9.60	21.59	-44.6	-47.8	16.5	0.00e+00	0	38	0	892338176	60	5293
2026-01-22 09:04:01.52	9.09	21.28	-44.9	-48.3	16.0	0.00e+00	0	38	0	897581056	60	5617
2026-01-22 09:04:04.50	8.59	20.97	-44.7	-48.2	16.0	0.00e+00	0	38	0	903872512	60	5569
2026-01-22 09:04:07.49	8.11	20.66	-43.7	-46.6	17.5	0.00e+00	0	38	0	909115392	59	4875
2026-01-22 09:04:10.47	7.63	20.35	-43.6	-46.3	17.8	0.00e+00	0	38	0	914358272	58	5021
2026-01-22 09:04:13.46	7.16	20.05	-44.0	-46.9	17.2	0.00e+00	0	38	0	920649728	58	5386
2026-01-22 09:04:16.47	6.70	19.74	-43.5	-46.4	17.6	0.00e+00	0	38	0	925892608	58	5086
2026-01-22 09:04:19.54	6.23	19.43	-43.1	-45.7	18.3	0.00e+00	0	38	0	932184064	58	4665
2026-01-22 09:04:22.38	5.81	19.14	-43.1	-45.6	18.4	0.00e+00	0	38	0	937426944	57	4919
2026-01-22 09:04:25.50	5.36	18.83	-43.9	-46.9	17.3	0.00e+00	0	38	0	942669824	58	5343
2026-01-22 09:04:28.35	4.96	18.54	-45.2	-48.9	15.3	0.00e+00	0	38	0	947912704	60	6017
2026-01-22 09:04:31.48	4.52	18.23	-46.2	-50.6	13.7	6.10e-06	0	38	0	954204160	63	6143
2026-01-22 09:04:34.32	4.14	17.96	-45.7	-49.6	14.7	7.00e-07	0	38	0	959447040	63	5525
2026-01-22 09:04:37.45	3.72	17.65	-44.2	-47.4	16.8	0.00e+00	0	38	0	965738496	60	5044
2026-01-22 09:04:40.29	3.35	17.37	-44.2	-47.2	17.0	0.00e+00	0	38	0	970981376	60	4932
2026-01-22 09:04:43.50	2.94	17.07	-44.9	-48.2	16.0	0.00e+00	0	38	0	976224256	60	5541
2026-01-22 09:04:46.34	2.58	16.79	-45.2	-48.8	15.4	0.00e+00	0	38	0	981467136	61	5595
2026-01-22 09:04:49.47	2.19	16.50	-44.6	-47.8	16.4	0.00e+00	0	37	0	987758592	61	5005
2026-01-22 09:04:52.42	1.83	16.22	-44.3	-47.3	16.8	0.00e+00	0	38	0	993001472	60	5010
2026-01-22 09:04:55.55	1.46	15.93	-44.3	-47.5	16.7	0.00e+00	0	38	0	999292928	60	5115
2026-01-22 09:04:58.39	1.13	15.66	-44.4	-47.8	16.3	0.00e+00	0	38	0	1004535808	60	5326
2026-01-22 09:05:01.52	0.77	15.38	-44.6	-47.9	16.2	0.00e+00	0	38	0	1010827264	60	5373
2026-01-22 09:05:04.36	0.46	15.12	-44.8	-48.0	16.1	0.00e+00	0	38	0	1016070144	60	5448
2026-01-22 09:05:07.49	0.11	14.83	-44.9	-48.2	16.0	0.00e+00	0	38	0	1021313024	60	5536
2026-01-22 09:05:10.32	359.81	14.58	-44.6	-47.8	16.3	0.00e+00	0	38	0	1026555904	60	5311
2026-01-22 09:05:13.45	359.47	14.30	-44.3	-47.3	16.8	0.00e+00	0	38	0	1032847360	60	4995
2026-01-22 09:05:16.29	359.18	14.05	-44.3	-47.2	16.9	0.00e+00	0	38	0	1038090240	60	4961
2026-01-22 09:05:19.42	358.86	13.77	-44.6	-47.6	16.4	0.00e+00	0	38	0	1044381696	60	5210
2026-01-22 09:05:22.26	358.57	13.52	-45.1	-48.8	15.3	0.00e+00	0	38	0	1049624576	61	5612
2026-01-22 09:05:25.50	358.25	13.24	-45.8	-50.1	14.1	0.00e+00	0	38	0	1054867456	62	6187
2026-01-22 09:05:28.34	357.98	13.00	-45.9	-50.0	14.1	2.20e-06	0	38	0	1061158912	62	6101
2026-01-22 09:05:31.48	357.68	12.73	-45.4	-49.1	15.1	0.00e+00	0	37	0	1066401792	62	5484
2026-01-22 09:05:34.34	357.42	12.49	-44.9	-48.5	15.6	0.00e+00	0	38	0	1071644672	61	5437
2026-01-22 09:05:37.47	357.13	12.23	-44.3	-48.0	16.1	0.00e+00	0	37	0	1077936128	60	5407
2026-01-22 09:05:40.32	356.87	11.99	-44.2	-47.9	16.1	0.00e+00	0	38	0	1083179008	60	5373
2026-01-22 09:05:43.45	356.60	11.73	-44.2	-48.0	15.9	0.00e+00	0	38	0	1089470464	60	5420
2026-01-22 09:05:46.30	356.35	11.50	-44.4	-48.1	15.9	0.00e+00	0	38	0	1094713344	60	5475
2026-01-22 09:05:49.43	356.08	11.24	-44.3	-47.9	16.1	0.00e+00	0	38	0	1099956224	60	5362
2026-01-22 09:05:52.28	355.84	11.01	-44.2	-48.0	16.0	0.00e+00	0	38	0	1105199104	60	5437
2026-01-22 09:05:55.42	355.58	10.76	-44.1	-48.3	15.7	0.00e+00	0	38	0	1111490560	59	5928
2026-01-22 09:05:58.27	355.35	10.53	-44.1	-48.6	15.4	0.00e+00	0	38	0	1116733440	59	6165
2026-01-22 09:06:01.40	355.10	10.29	-44.0	-48.6	15.3	0.00e+00	0	38	0	1123024896	59	6168
2026-01-22 09:06:04.25	354.88	10.06	-43.9	-48.7	15.2	0.00e+00	0	38	0	1128267776	59	6249
2026-01-22 09:06:07.39	354.64	9.82	-43.2	-48.5	15.4	0.00e+00	0	38	0	1133510656	58	6483
2026-01-22 09:06:10.24	354.42	9.60	-43.1	-49.2	14.7	0.00e+00	0	38	0	1139802112	58	7028
2026-01-22 09:06:13.38	354.19	9.36	-43.4	-49.5	14.4	0.00e+00	0	38	0	1145044992	58	7266
2026-01-22 09:06:16.23	353.98	9.14	-44.8	-50.7	13.4	4.50e-06	0	37	0	1150287872	59	7896
2026-01-22 09:06:19.36	353.75	8.90	-45.8	-65.4	3.8	1.23e+00	0	38	104	1155530752	63	33748
2026-01-22 09:06:22.22	353.55	8.69	-49.6	-65.8	3.8	1.49e+00	0	38	104	1155530752	70	23681
2026-01-22 09:06:25.36	353.33	8.45	-50.5	-65.8	3.8	1.49e+00	0	38	104	1155530752	71	22470
2026-01-22 09:06:28.21	353.13	8.24	-50.5	-65.9	3.8	1.49e+00	0	38	104	1155530752	71	22775
2026-01-22 09:06:31.35	352.92	8.01	-50.3	-65.9	3.8	1.49e+00	0	38	104	1155530752	72	21474
2026-01-22 09:06:34.19	352.73	7.81	-50.4	-66.0	3.8	1.49e+00	0	38	104	1155530752	72	21511
2026-01-22 09:06:37.33	352.52	7.58	-50.7	-65.9	3.8	1.49e+00	0	38	104	1155530752	72	21486
2026-01-22 09:06:40.17	352.34	7.37	-50.7	-65.9	3.8	1.49e+00	0	38	104	1155530752	72	21505
2026-01-22 09:06:43.31	352.14	7.15	-50.4	-65.9	3.8	1.49e+00	0	38	104	1155530752	72	21473
2026-01-22 09:06:46.14	351.97	6.95	-50.6	-65.9	3.8	1.49e+00	0	38	104	1155530752	72	21410
2026-01-22 09:06:49.27	351.77	6.73	-50.5	-65.9	3.8	1.49e+00	0	38	104	1155530752	72	21375
2026-01-22 09:06:52.11	351.60	6.53	-50.5	-65.9	3.8	1.49e+00	0	38	104	1155530752	72	21303
2026-01-22 09:06:55.25	351.41	6.31	-50.5	-65.9	3.8	1.49e+00	0	38	104	1155530752	72	21330
2026-01-22 09:06:58.10	351.25	6.11	-50.5	-65.9	3.8	1.49e+00	0	38	104	1155530752	72	21274
2026-01-22 09:07:01.24	351.06	5.90	-50.5	-65.9	3.8	1.49e+00	0	38	104	1155530752	72	21309
2026-01-22 09:07:04.09	350.90	5.70	-50.5	-65.9	3.8	1.49e+00	0	38	104	1155530752	72	21262
2026-01-22 09:07:07.22	350.72	5.49	-50.5	-65.9	3.8	1.49e+00	0	38	104	1155530752	72	21301
2026-01-22 09:07:10.07	350.57	5.30	-50.4	-65.9	3.8	1.49e+00	0	38	104	1155530752	72	21306
2026-01-22 09:07:13.21	350.40	5.09	-50.4	-65.8	3.8	1.49e+00	0	38	104	1155530752	72	21193

#Closed at: 2026-01-22 09:07:16
#Recorded file [1155 MB]: D:/Data/31040_260122_115518.dat