passes_logs/2026/01/22/T1/T1__20260122_114736_NOAA_21_JPSS-2_rec.log

#Pass ID: 20260122_114736_NOAA 21 (JPSS-2)
#Satellite: NOAA 21 (JPSS-2)
#Configuration: NOAA 21
#almurnet v.1.7.20251203
#Start time: 2026-01-22 11:47:36

#Version: 2.0.20230620
#Station: T1
#Location: 37.570604 lon 55.790049 lat
#TLE: 1 54234U 22150A   26021.42686626  .00000211  00000+0  12107-3 0  9996
#TLE: 2 54234  98.7506 322.2490 0000636 241.9299 118.1812 14.19537149165725

#Time	Az	El	Level	Level2	SNR	BER	BlckErr	Temp	State	Recorded	gain1	gain2
2026-01-22 11:47:36.90	223.08	5.04	-49.8	-63.0	3.8	1.49e+00	0	35	0	0	71	16166
2026-01-22 11:47:39.87	223.39	5.20	-49.8	-62.9	3.8	1.49e+00	0	35	104	0	71	16067
2026-01-22 11:47:42.85	223.70	5.35	-49.8	-62.9	3.8	1.49e+00	0	35	104	0	71	16091
2026-01-22 11:47:45.83	224.01	5.51	-49.8	-62.9	3.8	1.49e+00	0	35	104	0	71	16122
2026-01-22 11:47:48.82	224.33	5.67	-49.8	-62.9	3.8	1.49e+00	0	36	104	0	71	16008
2026-01-22 11:47:51.80	224.66	5.83	-49.7	-62.8	3.8	1.49e+00	0	36	104	0	71	15915
2026-01-22 11:47:54.78	224.98	5.99	-49.8	-62.8	3.8	1.49e+00	0	36	104	0	71	15882
2026-01-22 11:47:57.76	225.31	6.15	-49.8	-62.8	3.8	1.49e+00	0	36	104	0	71	15930
2026-01-22 11:48:00.74	225.64	6.31	-49.7	-62.8	3.8	1.49e+00	0	36	104	0	71	15827
2026-01-22 11:48:03.71	225.98	6.47	-49.7	-62.8	3.8	1.49e+00	0	36	104	0	71	15809
2026-01-22 11:48:06.69	226.32	6.63	-49.7	-62.7	3.8	1.49e+00	0	36	104	0	71	15752
2026-01-22 11:48:09.66	226.66	6.79	-49.7	-62.8	3.8	1.49e+00	0	36	104	0	71	15783
2026-01-22 11:48:12.64	227.01	6.94	-49.7	-62.5	3.8	1.49e+00	0	36	104	0	71	15389
2026-01-22 11:48:15.62	227.36	7.10	-49.7	-62.6	3.8	1.49e+00	0	36	104	0	71	15520
2026-01-22 11:48:18.61	227.71	7.27	-49.7	-62.9	3.8	1.49e+00	0	37	104	0	71	15956
2026-01-22 11:48:21.59	228.07	7.43	-49.7	-62.7	3.8	1.49e+00	0	37	104	0	71	15684
2026-01-22 11:48:24.57	228.43	7.59	-49.7	-62.7	3.8	1.49e+00	0	37	104	0	71	15717
2026-01-22 11:48:27.55	228.80	7.75	-49.7	-62.8	3.8	1.49e+00	0	37	104	0	71	15865
2026-01-22 11:48:30.53	229.17	7.91	-49.7	-62.8	3.8	1.49e+00	0	37	104	0	71	15885
2026-01-22 11:48:33.51	229.54	8.07	-49.6	-61.6	3.8	1.49e+00	0	37	104	0	71	13797
2026-01-22 11:48:36.49	229.92	8.23	-49.6	-61.4	3.8	1.49e+00	0	37	104	0	71	13482
2026-01-22 11:48:39.46	230.30	8.39	-49.1	-57.5	4.8	1.46e+00	0	37	104	0	70	9119
2026-01-22 11:48:42.44	230.68	8.55	-45.0	-48.0	13.5	2.36e-05	0	37	0	0	62	4835
2026-01-22 11:48:45.42	231.07	8.71	-43.3	-45.6	15.8	0.00e+00	0	37	0	0	58	4641
2026-01-22 11:48:48.41	231.47	8.87	-45.0	-47.9	13.6	2.20e-06	0	37	0	0	60	5393
2026-01-22 11:48:51.39	231.87	9.02	-47.6	-52.7	8.6	3.85e-02	0	37	0	0	65	6987
2026-01-22 11:48:54.37	232.27	9.18	-46.4	-50.2	11.1	8.32e-03	0	37	0	0	64	5543
2026-01-22 11:48:57.42	232.69	9.35	-43.7	-46.2	15.4	0.00e+00	0	37	0	0	59	4684
2026-01-22 11:49:00.35	233.09	9.50	-42.6	-44.8	16.8	0.00e+00	0	37	0	0	57	4444
2026-01-22 11:49:03.51	233.53	9.67	-41.8	-43.8	17.5	0.00e+00	0	37	0	0	55	4470
2026-01-22 11:49:06.35	233.93	9.82	-41.8	-43.8	17.6	0.00e+00	0	37	0	0	55	4469
2026-01-22 11:49:09.48	234.38	9.99	-41.7	-43.7	17.6	0.00e+00	0	37	0	0	55	4438
2026-01-22 11:49:12.32	234.78	10.14	-41.7	-43.7	17.7	0.00e+00	0	37	0	0	55	4399
2026-01-22 11:49:15.48	235.24	10.30	-41.7	-43.7	17.6	0.00e+00	0	37	0	0	55	4417
2026-01-22 11:49:18.31	235.66	10.45	-41.7	-43.7	17.6	0.00e+00	0	37	0	0	55	4438
2026-01-22 11:49:21.68	236.16	10.63	-41.8	-43.8	17.6	0.00e+00	0	37	0	0	55	4464
2026-01-22 11:49:24.39	236.57	10.77	-41.7	-43.6	17.7	0.00e+00	0	37	0	0	55	4383
2026-01-22 11:49:27.66	237.06	10.94	-41.5	-43.4	18.0	0.00e+00	0	37	0	0	55	4286
2026-01-22 11:49:30.54	237.50	11.09	-41.3	-43.2	18.2	0.00e+00	0	37	0	0	54	4426
2026-01-22 11:49:33.67	237.99	11.25	-41.2	-43.1	18.2	0.00e+00	0	37	0	0	54	4373
2026-01-22 11:49:37.09	238.52	11.43	-41.3	-43.2	18.1	0.00e+00	0	37	0	0	54	4437
2026-01-22 11:49:39.82	238.95	11.57	-41.3	-43.2	18.2	0.00e+00	0	37	0	0	54	4402
2026-01-22 11:49:43.12	239.48	11.73	-41.4	-43.3	18.0	0.00e+00	0	37	0	0	54	4461
2026-01-22 11:49:45.86	239.92	11.87	-41.3	-43.2	18.2	0.00e+00	0	37	0	0	54	4441
2026-01-22 11:49:49.10	240.45	12.03	-41.3	-43.2	18.2	0.00e+00	0	37	0	0	54	4426
2026-01-22 11:49:52.19	240.96	12.19	-41.2	-43.0	18.4	0.00e+00	0	37	0	0	54	4338
2026-01-22 11:49:55.41	241.50	12.35	-41.1	-43.0	18.4	0.00e+00	0	37	0	0	54	4322
2026-01-22 11:49:58.29	241.98	12.49	-41.1	-43.0	18.5	0.00e+00	0	37	0	0	54	4305
2026-01-22 11:50:01.41	242.51	12.64	-40.9	-42.8	18.6	0.00e+00	0	38	0	0	53	4455
2026-01-22 11:50:04.25	243.00	12.78	-41.0	-42.8	18.6	0.00e+00	0	38	0	0	53	4468
2026-01-22 11:50:07.38	243.54	12.93	-41.2	-43.0	18.4	0.00e+00	0	37	0	0	53	4592
2026-01-22 11:50:10.22	244.03	13.06	-41.1	-43.0	18.5	0.00e+00	0	37	0	0	53	4557
2026-01-22 11:50:13.57	244.62	13.22	-41.1	-43.0	18.5	0.00e+00	0	37	0	0	53	4553
2026-01-22 11:50:16.46	245.14	13.35	-41.1	-42.9	18.5	0.00e+00	0	37	0	0	53	4541
2026-01-22 11:50:19.77	245.73	13.51	-41.1	-43.0	18.4	0.00e+00	0	37	0	0	53	4582
2026-01-22 11:50:22.47	246.22	13.63	-41.4	-43.3	18.2	0.00e+00	0	37	0	0	53	4706
2026-01-22 11:50:25.76	246.82	13.78	-41.4	-43.3	18.1	0.00e+00	0	37	0	0	53	4749
2026-01-22 11:50:28.55	247.34	13.90	-41.3	-43.2	18.3	0.00e+00	0	37	0	0	53	4670
2026-01-22 11:50:31.72	247.93	14.04	-41.1	-43.0	18.5	0.00e+00	0	37	0	0	53	4549
2026-01-22 11:50:34.57	248.46	14.16	-41.1	-43.0	18.5	0.00e+00	0	38	0	0	53	4554
2026-01-22 11:50:37.69	249.05	14.29	-41.3	-43.1	18.3	0.00e+00	0	37	0	0	53	4650
2026-01-22 11:50:40.53	249.59	14.41	-41.3	-43.2	18.3	0.00e+00	0	38	0	0	53	4677
2026-01-22 11:50:43.66	250.19	14.54	-41.1	-43.0	18.5	0.00e+00	0	37	0	0	53	4579
2026-01-22 11:50:46.63	250.77	14.66	-41.0	-42.9	18.6	0.00e+00	0	38	0	0	53	4504
2026-01-22 11:50:49.71	251.37	14.78	-41.0	-42.9	18.5	0.00e+00	0	38	0	0	53	4509
2026-01-22 11:50:53.21	252.06	14.92	-41.2	-43.0	18.4	0.00e+00	0	37	0	0	53	4597
2026-01-22 11:50:56.26	252.67	15.04	-41.0	-42.9	18.6	0.00e+00	0	38	0	0	53	4524
2026-01-22 11:50:59.24	253.26	15.15	-40.9	-42.7	18.8	0.00e+00	0	37	0	0	53	4429
2026-01-22 11:51:02.22	253.86	15.26	-40.9	-42.7	18.7	0.00e+00	0	37	0	0	53	4434
2026-01-22 11:51:05.27	254.48	15.36	-40.8	-42.7	18.8	0.00e+00	0	38	0	0	53	4402
2026-01-22 11:51:08.57	255.16	15.48	-40.9	-42.7	18.7	0.00e+00	0	37	0	0	53	4435
2026-01-22 11:51:11.29	255.72	15.57	-40.7	-42.6	18.9	0.00e+00	0	38	0	0	53	4349
2026-01-22 11:51:14.56	256.39	15.68	-40.5	-42.2	19.1	0.00e+00	0	38	0	0	52	4441
2026-01-22 11:51:17.29	256.96	15.77	-40.6	-42.4	19.0	0.00e+00	0	37	0	0	52	4525
2026-01-22 11:51:20.59	257.65	15.87	-40.7	-42.5	18.9	0.00e+00	0	37	0	0	52	4575
2026-01-22 11:51:23.57	258.28	15.96	-40.6	-42.5	19.0	0.00e+00	0	38	0	0	52	4548
2026-01-22 11:51:26.98	259.01	16.05	-40.5	-42.3	19.1	0.00e+00	0	38	0	0	52	4469
2026-01-22 11:51:29.89	259.63	16.14	-40.4	-42.2	19.2	0.00e+00	0	37	0	0	52	4420
2026-01-22 11:51:33.20	260.34	16.22	-40.3	-42.1	19.3	0.00e+00	0	38	0	0	52	4356
2026-01-22 11:51:35.92	260.93	16.29	-40.3	-42.1	19.3	0.00e+00	0	38	0	0	52	4356
2026-01-22 11:51:39.21	261.64	16.37	-40.5	-42.3	19.1	0.00e+00	0	37	0	0	52	4469
2026-01-22 11:51:41.97	262.24	16.44	-40.3	-42.1	19.3	0.00e+00	0	38	0	0	52	4342
2026-01-22 11:51:45.24	262.96	16.51	-40.3	-42.0	19.2	0.00e+00	0	38	0	0	52	4335
2026-01-22 11:51:47.96	263.55	16.57	-40.3	-42.1	19.3	0.00e+00	0	37	0	0	52	4346
2026-01-22 11:51:51.24	264.28	16.64	-40.2	-41.9	19.5	0.00e+00	0	37	0	0	52	4285
2026-01-22 11:51:53.96	264.88	16.69	-40.3	-42.1	19.2	0.00e+00	0	38	0	0	52	4364
2026-01-22 11:51:57.26	265.61	16.74	-40.5	-42.3	19.1	0.00e+00	0	38	0	0	52	4493
2026-01-22 11:51:59.97	266.22	16.79	-40.3	-42.1	19.3	0.00e+00	0	38	0	0	52	4383
2026-01-22 11:52:03.24	266.95	16.84	-40.3	-42.1	19.2	0.00e+00	0	37	0	0	52	4357
2026-01-22 11:52:06.21	267.61	16.88	-40.5	-42.3	19.1	0.00e+00	0	38	0	0	52	4453
2026-01-22 11:52:09.24	268.29	16.92	-40.5	-42.3	19.2	0.00e+00	0	38	0	0	52	4464
2026-01-22 11:52:12.51	269.03	16.96	-40.3	-42.1	19.3	0.00e+00	0	38	0	0	52	4356
2026-01-22 11:52:15.25	269.65	16.98	-40.4	-42.2	19.2	0.00e+00	0	38	0	0	52	4420
2026-01-22 11:52:18.62	270.41	17.01	-40.3	-42.1	19.4	0.00e+00	0	38	0	0	52	4371
2026-01-22 11:52:21.34	271.03	17.03	-40.4	-42.2	19.2	0.00e+00	0	38	0	0	52	4399
2026-01-22 11:52:24.72	271.79	17.06	-40.6	-42.4	19.0	0.00e+00	0	38	0	0	52	4498
2026-01-22 11:52:27.45	272.41	17.07	-40.5	-42.3	19.0	0.00e+00	0	38	0	0	52	4485
2026-01-22 11:52:30.73	273.16	17.08	-40.4	-42.2	19.2	0.00e+00	0	38	0	0	52	4395
2026-01-22 11:52:33.45	273.78	17.09	-40.3	-42.1	19.2	0.00e+00	0	38	0	0	52	4385
2026-01-22 11:52:36.75	274.53	17.09	-40.3	-42.1	19.2	0.00e+00	0	38	0	0	52	4364
2026-01-22 11:52:39.73	275.20	17.09	-40.4	-42.1	19.2	0.00e+00	0	38	0	0	52	4382
2026-01-22 11:52:42.68	275.87	17.09	-40.3	-42.1	19.3	0.00e+00	0	38	0	0	52	4370
2026-01-22 11:52:45.66	276.55	17.08	-40.4	-42.2	19.2	0.00e+00	0	37	0	0	52	4399
2026-01-22 11:52:48.65	277.23	17.07	-40.5	-42.2	19.1	0.00e+00	0	38	0	0	52	4438
2026-01-22 11:52:51.60	277.90	17.05	-40.5	-42.3	19.0	0.00e+00	0	38	0	0	52	4475
2026-01-22 11:52:54.73	278.61	17.03	-40.4	-42.1	19.1	0.00e+00	0	38	0	0	52	4389
2026-01-22 11:52:57.78	279.30	17.00	-40.5	-42.3	19.1	0.00e+00	0	38	0	0	52	4488
2026-01-22 11:53:00.84	279.99	16.98	-40.4	-42.1	19.3	0.00e+00	0	38	0	0	52	4379
2026-01-22 11:53:03.82	280.66	16.94	-40.4	-42.2	19.2	0.00e+00	0	38	0	0	52	4425
2026-01-22 11:53:06.81	281.33	16.91	-40.4	-42.1	19.3	0.00e+00	0	38	0	0	52	4384
2026-01-22 11:53:09.79	282.00	16.87	-40.4	-42.2	19.2	0.00e+00	0	38	0	0	52	4413
2026-01-22 11:53:12.84	282.68	16.83	-40.6	-42.4	18.9	0.00e+00	0	38	0	0	52	4516
2026-01-22 11:53:15.92	283.37	16.78	-40.4	-42.2	19.2	0.00e+00	0	38	0	0	52	4392
2026-01-22 11:53:18.82	284.01	16.73	-40.6	-42.5	18.9	0.00e+00	0	38	0	0	52	4556
2026-01-22 11:53:21.95	284.71	16.67	-40.8	-42.7	18.7	0.00e+00	0	38	0	0	52	4680
2026-01-22 11:53:24.80	285.34	16.62	-40.7	-42.5	18.8	0.00e+00	0	38	0	0	52	4587
2026-01-22 11:53:27.92	286.02	16.56	-40.6	-42.4	18.9	0.00e+00	0	38	0	0	52	4501
2026-01-22 11:53:30.81	286.65	16.49	-40.5	-42.3	19.0	0.00e+00	0	38	0	0	52	4456
2026-01-22 11:53:34.00	287.35	16.42	-40.5	-42.3	19.0	0.00e+00	0	38	0	0	52	4442
2026-01-22 11:53:36.95	287.99	16.35	-40.8	-42.6	18.7	0.00e+00	0	38	0	0	52	4617
2026-01-22 11:53:40.08	288.67	16.28	-40.6	-42.4	18.9	0.00e+00	0	38	0	0	52	4535
2026-01-22 11:53:43.03	289.30	16.20	-40.5	-42.3	19.0	0.00e+00	0	38	0	0	52	4490
2026-01-22 11:53:46.02	289.94	16.12	-40.6	-42.4	18.9	0.00e+00	0	38	0	0	52	4538
2026-01-22 11:53:49.00	290.57	16.04	-40.6	-42.4	19.0	0.00e+00	0	38	0	0	52	4500
2026-01-22 11:53:51.99	291.20	15.95	-40.6	-42.4	19.0	0.00e+00	0	38	0	0	52	4496
2026-01-22 11:53:54.98	291.83	15.86	-40.5	-42.3	19.0	0.00e+00	0	38	0	0	52	4479
2026-01-22 11:53:57.96	292.45	15.77	-40.4	-42.2	19.1	0.00e+00	0	38	0	0	52	4419
2026-01-22 11:54:00.95	293.07	15.67	-40.5	-42.3	19.0	0.00e+00	0	38	0	0	52	4476
2026-01-22 11:54:03.93	293.69	15.58	-40.5	-42.3	19.0	0.00e+00	0	38	0	0	52	4456
2026-01-22 11:54:06.91	294.30	15.48	-40.4	-42.2	19.1	0.00e+00	0	38	0	0	52	4399
2026-01-22 11:54:09.95	294.92	15.37	-40.4	-42.2	19.1	0.00e+00	0	38	0	0	52	4432
2026-01-22 11:54:12.93	295.52	15.27	-40.7	-42.5	18.9	0.00e+00	0	38	0	0	52	4572
2026-01-22 11:54:15.92	296.12	15.16	-40.7	-42.6	18.8	0.00e+00	0	38	0	0	52	4606
2026-01-22 11:54:18.90	296.71	15.05	-40.7	-42.6	18.8	0.00e+00	0	38	0	0	52	4603
2026-01-22 11:54:21.89	297.31	14.93	-40.5	-42.3	19.0	0.00e+00	0	38	0	0	52	4461
2026-01-22 11:54:24.88	297.89	14.82	-40.6	-42.4	18.9	0.00e+00	0	38	0	0	52	4512
2026-01-22 11:54:27.91	298.48	14.70	-40.7	-42.6	18.7	0.00e+00	0	38	0	0	52	4615
2026-01-22 11:54:30.89	299.06	14.58	-40.7	-42.5	18.8	0.00e+00	0	38	0	0	52	4591
2026-01-22 11:54:33.87	299.63	14.46	-40.6	-42.5	18.8	0.00e+00	0	38	0	0	52	4551
2026-01-22 11:54:36.86	300.20	14.34	-40.6	-42.4	18.8	0.00e+00	0	38	0	0	52	4524
2026-01-22 11:54:39.98	300.79	14.21	-40.7	-42.5	18.8	0.00e+00	0	38	0	0	52	4576
2026-01-22 11:54:42.82	301.32	14.09	-40.9	-42.7	18.6	0.00e+00	0	38	0	0	52	4703
2026-01-22 11:54:45.95	301.90	13.95	-41.0	-42.9	18.5	0.00e+00	0	37	0	0	52	4762
2026-01-22 11:54:48.79	302.42	13.83	-40.9	-42.8	18.5	0.00e+00	0	38	0	0	52	4712
2026-01-22 11:54:52.03	303.01	13.68	-40.9	-42.7	18.5	0.00e+00	0	38	0	0	52	4681
2026-01-22 11:54:54.87	303.53	13.55	-41.2	-43.1	18.2	0.00e+00	0	38	0	0	52	4907
2026-01-22 11:54:58.00	304.09	13.41	-41.2	-43.1	18.2	0.00e+00	0	38	0	0	53	4627
2026-01-22 11:55:00.84	304.59	13.28	-41.4	-43.3	18.0	0.00e+00	0	38	0	0	53	4758
2026-01-22 11:55:03.97	305.14	13.14	-41.4	-43.3	17.9	0.00e+00	0	38	0	0	53	4746
2026-01-22 11:55:06.81	305.64	13.00	-41.2	-43.1	18.2	0.00e+00	0	38	0	0	53	4605
2026-01-22 11:55:09.94	306.18	12.86	-41.2	-43.1	18.1	0.00e+00	0	38	0	0	53	4645
2026-01-22 11:55:12.78	306.66	12.72	-41.3	-43.3	18.0	0.00e+00	0	37	0	0	53	4708
2026-01-22 11:55:15.90	307.19	12.57	-41.6	-43.6	17.7	0.00e+00	0	38	0	0	53	4915
2026-01-22 11:55:18.74	307.67	12.43	-41.6	-43.5	17.7	0.00e+00	0	38	0	0	53	4864
2026-01-22 11:55:21.98	308.21	12.27	-41.7	-43.7	17.5	0.00e+00	0	38	0	0	54	4695
2026-01-22 11:55:24.87	308.68	12.13	-41.5	-43.5	17.6	0.00e+00	0	38	0	0	54	4596
2026-01-22 11:55:28.08	309.20	11.97	-41.6	-43.7	17.6	0.00e+00	0	38	0	0	54	4664
2026-01-22 11:55:30.99	309.67	11.83	-41.8	-43.9	17.4	0.00e+00	0	38	0	0	54	4768
2026-01-22 11:55:34.12	310.17	11.67	-41.9	-44.0	17.3	0.00e+00	0	38	0	0	54	4816
2026-01-22 11:55:36.99	310.63	11.53	-41.9	-44.0	17.2	0.00e+00	0	38	0	0	54	4852
2026-01-22 11:55:40.15	311.12	11.37	-41.9	-44.0	17.3	0.00e+00	0	38	0	0	54	4821
2026-01-22 11:55:43.42	311.63	11.20	-41.7	-43.8	17.5	0.00e+00	0	38	0	0	54	4730
2026-01-22 11:55:46.26	312.06	11.06	-41.7	-43.7	17.5	0.00e+00	0	38	0	0	54	4694
2026-01-22 11:55:49.38	312.54	10.90	-41.8	-43.8	17.4	0.00e+00	0	38	0	0	54	4739
2026-01-22 11:55:52.22	312.96	10.75	-41.7	-43.8	17.5	0.00e+00	0	38	0	0	54	4715
2026-01-22 11:55:55.35	313.43	10.59	-41.9	-44.0	17.3	0.00e+00	0	38	0	0	54	4817
2026-01-22 11:55:58.19	313.85	10.44	-41.8	-43.9	17.3	0.00e+00	0	38	0	0	54	4806
2026-01-22 11:56:01.32	314.30	10.28	-42.0	-44.1	17.1	0.00e+00	0	38	0	0	54	4871
2026-01-22 11:56:04.16	314.71	10.13	-42.1	-44.2	17.1	0.00e+00	0	38	0	0	54	4952
2026-01-22 11:56:07.28	315.16	9.97	-42.1	-44.2	17.0	0.00e+00	0	38	0	0	54	4982
2026-01-22 11:56:10.16	315.56	9.81	-42.1	-44.2	17.0	0.00e+00	0	38	0	0	54	4971
2026-01-22 11:56:13.29	316.00	9.65	-42.1	-44.3	17.0	0.00e+00	0	38	0	0	55	4730
2026-01-22 11:56:16.13	316.39	9.50	-42.2	-44.4	16.9	0.00e+00	0	38	0	0	55	4769
2026-01-22 11:56:19.46	316.85	9.33	-42.0	-44.1	17.1	0.00e+00	0	38	0	0	55	4649
2026-01-22 11:56:22.16	317.21	9.18	-41.9	-44.0	17.1	0.00e+00	0	38	0	0	55	4590
2026-01-22 11:56:25.43	317.65	9.01	-42.3	-44.5	16.8	0.00e+00	0	38	0	0	55	4831
2026-01-22 11:56:28.14	318.01	8.87	-50.0	-63.2	3.8	1.49e+00	0	38	104	0	70	17514
2026-01-22 11:56:31.42	318.44	8.69	-50.3	-63.4	3.8	1.49e+00	0	38	104	0	71	17019
2026-01-22 11:56:34.13	318.79	8.55	-50.3	-63.5	3.8	1.49e+00	0	38	104	0	71	17167
2026-01-22 11:56:37.40	319.21	8.38	-50.3	-63.5	3.8	1.49e+00	0	38	104	0	71	17198
2026-01-22 11:56:40.11	319.56	8.23	-50.1	-63.5	3.8	1.49e+00	0	38	104	0	71	17248
2026-01-22 11:56:43.37	319.97	8.06	-50.4	-63.5	3.8	1.49e+00	0	38	104	0	71	17190
2026-01-22 11:56:46.08	320.30	7.91	-50.2	-63.4	3.8	1.49e+00	0	38	104	0	71	17023
2026-01-22 11:56:49.36	320.71	7.74	-50.2	-63.4	3.8	1.49e+00	0	38	104	0	71	16982
2026-01-22 11:56:52.07	321.04	7.60	-50.2	-63.4	3.8	1.49e+00	0	38	104	0	71	16989
2026-01-22 11:56:55.33	321.43	7.42	-50.2	-63.4	3.8	1.49e+00	0	38	104	0	71	17003
2026-01-22 11:56:58.04	321.75	7.28	-50.2	-63.4	3.8	1.49e+00	0	38	104	0	71	17015
2026-01-22 11:57:01.31	322.14	7.11	-50.2	-63.4	3.8	1.49e+00	0	38	104	0	71	16941
2026-01-22 11:57:04.00	322.45	6.96	-50.2	-63.4	3.8	1.49e+00	0	38	104	0	71	16997
2026-01-22 11:57:07.26	322.83	6.79	-50.2	-63.4	3.8	1.49e+00	0	38	104	0	71	16941
2026-01-22 11:57:09.96	323.14	6.65	-50.2	-63.4	3.8	1.49e+00	0	38	104	0	71	16997
2026-01-22 11:57:13.22	323.51	6.48	-50.2	-63.4	3.8	1.49e+00	0	38	104	0	71	16951
2026-01-22 11:57:15.93	323.81	6.33	-50.2	-63.3	3.8	1.49e+00	0	38	104	0	71	16868
2026-01-22 11:57:19.20	324.18	6.16	-50.2	-63.4	3.8	1.49e+00	0	38	104	0	71	16932
2026-01-22 11:57:21.89	324.47	6.02	-50.2	-63.3	3.8	1.49e+00	0	38	104	0	71	16882
2026-01-22 11:57:25.16	324.83	5.85	-50.2	-63.3	3.8	1.49e+00	0	38	104	0	71	16883
2026-01-22 11:57:27.85	325.12	5.71	-50.2	-63.4	3.8	1.49e+00	0	38	104	0	71	16913
2026-01-22 11:57:31.12	325.47	5.53	-50.2	-63.3	3.8	1.49e+00	0	38	104	0	71	16886
2026-01-22 11:57:33.83	325.75	5.39	-50.2	-63.4	3.8	1.49e+00	0	38	104	0	71	16928
2026-01-22 11:57:37.09	326.09	5.22	-50.2	-63.4	3.8	1.49e+00	0	38	104	0	71	16923
2026-01-22 11:57:39.82	326.37	5.08	-50.2	-63.3	3.8	1.49e+00	0	38	104	0	71	16863

#Closed at: 2026-01-22 11:57:43
#Recorded file [0 MB]: D:/Data/31040_260122_144736.dat