passes_logs/2026/01/22/T1/T1__20260122_100503_NOAA_21_JPSS-2_rec.log

#Pass ID: 20260122_100503_NOAA 21 (JPSS-2)
#Satellite: NOAA 21 (JPSS-2)
#Configuration: NOAA 21
#almurnet v.1.7.20251203
#Start time: 2026-01-22 10:05:04

#Version: 2.0.20230620
#Station: T1
#Location: 37.570604 lon 55.790049 lat
#TLE: 1 54234U 22150A   26021.42686626  .00000211  00000+0  12107-3 0  9996
#TLE: 2 54234  98.7506 322.2490 0000636 241.9299 118.1812 14.19537149165725

#Time	Az	El	Level	Level2	SNR	BER	BlckErr	Temp	State	Recorded	gain1	gain2
2026-01-22 10:05:04.60	165.18	5.06	-50.1	-63.3	3.8	1.49e+00	0	35	0	0	71	16727
2026-01-22 10:05:07.59	165.21	5.27	-48.4	-62.4	3.8	1.49e+00	0	35	104	0	67	19081
2026-01-22 10:05:10.58	165.24	5.49	-48.6	-62.7	3.8	1.49e+00	0	35	104	0	68	18639
2026-01-22 10:05:13.57	165.28	5.71	-48.7	-63.0	3.8	1.49e+00	0	35	104	0	68	19241
2026-01-22 10:05:16.55	165.31	5.93	-48.7	-62.8	3.8	1.49e+00	0	35	104	0	68	18851
2026-01-22 10:05:19.54	165.34	6.15	-48.6	-62.1	3.8	1.49e+00	0	36	104	0	68	17404
2026-01-22 10:05:22.53	165.37	6.38	-48.6	-61.7	3.8	1.49e+00	0	35	104	0	68	16528
2026-01-22 10:05:25.52	165.41	6.60	-48.7	-61.9	3.8	1.49e+00	0	36	104	0	68	17067
2026-01-22 10:05:28.51	165.44	6.83	-48.6	-62.7	3.8	1.49e+00	0	36	104	0	68	18617
2026-01-22 10:05:31.50	165.47	7.06	-48.8	-63.1	3.8	1.49e+00	0	36	104	0	68	19397
2026-01-22 10:05:34.49	165.51	7.30	-48.8	-62.9	3.8	1.49e+00	0	36	104	0	68	19073
2026-01-22 10:05:37.48	165.54	7.53	-48.4	-61.1	3.9	1.49e+00	0	36	104	0	68	15471
2026-01-22 10:05:40.47	165.58	7.77	-48.0	-56.0	5.9	3.92e-01	0	36	0	0	68	8616
2026-01-22 10:05:43.46	165.61	8.01	-46.6	-51.9	9.7	1.74e-02	0	36	0	0	65	6357
2026-01-22 10:05:46.45	165.65	8.25	-45.8	-50.0	11.7	7.08e-04	0	36	0	0	63	5723
2026-01-22 10:05:49.44	165.68	8.49	-45.6	-49.6	12.1	2.78e-04	0	36	0	0	63	5509
2026-01-22 10:05:52.43	165.72	8.74	-46.3	-51.2	10.5	2.74e-03	0	36	0	0	63	6607
2026-01-22 10:05:55.42	165.76	8.99	-47.4	-54.7	6.9	1.41e-01	0	36	0	0	65	8778
2026-01-22 10:05:58.43	165.80	9.24	-47.8	-57.6	4.6	1.48e+00	0	37	104	0	67	10995
2026-01-22 10:06:01.43	165.83	9.50	-46.6	-53.3	8.0	1.48e+00	0	37	104	0	65	7538
2026-01-22 10:06:04.44	165.87	9.76	-41.8	-44.3	17.2	0.00e+00	0	36	0	0	55	4708
2026-01-22 10:06:07.44	165.91	10.02	-41.4	-43.7	17.8	0.00e+00	0	37	0	0	54	4663
2026-01-22 10:06:10.44	165.95	10.28	-41.5	-43.7	17.8	0.00e+00	0	37	0	0	54	4689
2026-01-22 10:06:13.45	165.99	10.55	-41.4	-43.5	18.0	0.00e+00	0	37	0	0	54	4547
2026-01-22 10:06:16.45	166.04	10.82	-41.5	-43.5	18.0	1.66e-02	0	37	0	0	54	4565
2026-01-22 10:06:19.45	166.08	11.09	-41.3	-43.3	18.2	1.06e-02	0	37	0	0	54	4446
2026-01-22 10:06:22.45	166.12	11.36	-41.3	-43.2	18.3	0.00e+00	0	37	0	0	54	4421
2026-01-22 10:06:25.45	166.16	11.64	-41.2	-43.1	18.4	0.00e+00	0	37	0	0	54	4366
2026-01-22 10:06:28.45	166.21	11.92	-41.0	-42.9	18.6	0.00e+00	0	37	0	0	54	4246
2026-01-22 10:06:31.45	166.25	12.21	-41.0	-42.9	18.6	0.00e+00	0	37	0	0	53	4518
2026-01-22 10:06:34.45	166.30	12.49	-40.9	-42.8	18.7	0.00e+00	0	37	0	0	53	4463
2026-01-22 10:06:37.46	166.34	12.79	-41.0	-42.9	18.6	0.00e+00	0	37	0	0	53	4532
2026-01-22 10:06:40.46	166.39	13.08	-40.9	-42.8	18.7	0.00e+00	0	37	0	0	53	4486
2026-01-22 10:06:43.46	166.44	13.38	-40.9	-42.7	18.8	0.00e+00	0	37	0	0	53	4430
2026-01-22 10:06:46.46	166.49	13.68	-40.9	-42.8	18.7	0.00e+00	0	37	0	0	53	4453
2026-01-22 10:06:49.46	166.54	13.99	-40.8	-42.6	18.9	0.00e+00	0	37	0	0	53	4386
2026-01-22 10:06:52.47	166.59	14.30	-40.8	-42.7	18.8	0.00e+00	0	37	0	0	53	4415
2026-01-22 10:06:55.47	166.64	14.61	-40.8	-42.6	18.9	0.00e+00	0	37	0	0	53	4368
2026-01-22 10:06:58.47	166.69	14.93	-40.8	-42.6	18.9	0.00e+00	0	37	0	0	53	4387
2026-01-22 10:07:01.48	166.74	15.25	-40.8	-42.6	18.9	0.00e+00	0	37	0	0	53	4381
2026-01-22 10:07:04.48	166.79	15.58	-40.9	-42.7	18.8	0.00e+00	0	37	0	0	53	4428
2026-01-22 10:07:07.48	166.85	15.91	-40.8	-42.6	19.0	0.00e+00	0	37	0	0	53	4360
2026-01-22 10:07:10.49	166.91	16.24	-40.9	-42.7	18.9	0.00e+00	0	37	0	0	53	4421
2026-01-22 10:07:13.49	166.96	16.58	-40.9	-42.8	18.8	0.00e+00	0	37	0	0	53	4444
2026-01-22 10:07:16.50	167.02	16.93	-40.8	-42.7	18.9	0.00e+00	0	37	0	0	53	4402
2026-01-22 10:07:19.49	167.08	17.28	-40.9	-42.8	18.9	0.00e+00	0	37	0	0	53	4442
2026-01-22 10:07:22.50	167.14	17.63	-40.9	-42.8	18.8	0.00e+00	0	37	0	0	53	4464
2026-01-22 10:07:25.50	167.20	17.99	-40.9	-42.8	18.9	0.00e+00	0	37	0	0	53	4457
2026-01-22 10:07:28.50	167.26	18.36	-40.9	-42.8	18.9	0.00e+00	0	37	0	0	53	4442
2026-01-22 10:07:31.51	167.33	18.73	-40.9	-42.7	18.9	0.00e+00	0	37	0	0	53	4429
2026-01-22 10:07:34.51	167.39	19.11	-40.8	-42.7	18.9	0.00e+00	0	37	0	0	53	4400
2026-01-22 10:07:37.52	167.46	19.49	-40.7	-42.6	19.0	0.00e+00	0	37	0	0	53	4351
2026-01-22 10:07:40.52	167.53	19.88	-40.5	-42.3	19.2	0.00e+00	0	37	0	0	53	4222
2026-01-22 10:07:43.51	167.60	20.27	-40.3	-42.1	19.5	0.00e+00	0	37	0	0	52	4349
2026-01-22 10:07:46.52	167.67	20.67	-40.3	-42.0	19.5	0.00e+00	0	37	0	0	52	4325
2026-01-22 10:07:49.52	167.74	21.08	-40.0	-41.7	19.9	0.00e+00	0	37	0	0	51	4419
2026-01-22 10:07:52.52	167.82	21.49	-39.8	-41.5	20.0	0.00e+00	0	37	0	0	51	4316
2026-01-22 10:07:55.52	167.90	21.91	-39.7	-41.4	20.2	0.00e+00	0	37	0	0	51	4255
2026-01-22 10:07:58.53	167.97	22.34	-39.5	-41.2	20.3	0.00e+00	0	37	0	0	51	4167
2026-01-22 10:08:01.53	168.05	22.78	-39.6	-41.3	20.3	0.00e+00	0	37	0	0	51	4203
2026-01-22 10:08:04.54	168.14	23.22	-39.4	-41.0	20.4	0.00e+00	0	37	0	0	50	4338
2026-01-22 10:08:07.54	168.22	23.67	-39.2	-40.9	20.6	0.00e+00	0	37	0	0	50	4249
2026-01-22 10:08:10.54	168.31	24.13	-39.3	-40.9	20.6	0.00e+00	0	37	0	0	50	4276
2026-01-22 10:08:13.55	168.40	24.60	-39.3	-41.0	20.5	0.00e+00	0	37	0	0	50	4310
2026-01-22 10:08:16.55	168.49	25.07	-39.5	-41.1	20.4	0.00e+00	0	37	0	0	50	4385
2026-01-22 10:08:19.54	168.58	25.55	-39.7	-41.3	20.3	0.00e+00	0	37	0	0	50	4493
2026-01-22 10:08:22.55	168.68	26.04	-40.0	-41.7	20.0	0.00e+00	0	37	0	0	50	4675
2026-01-22 10:08:25.55	168.78	26.54	-40.4	-42.2	19.6	0.00e+00	0	37	0	0	51	4659
2026-01-22 10:08:28.56	168.88	27.06	-40.8	-42.6	19.2	0.00e+00	0	37	0	0	52	4604
2026-01-22 10:08:31.57	168.99	27.58	-41.0	-42.8	18.9	0.00e+00	0	37	0	0	52	4740
2026-01-22 10:08:34.57	169.10	28.11	-41.1	-43.0	18.7	0.00e+00	0	37	0	0	52	4831
2026-01-22 10:08:37.58	169.21	28.65	-40.9	-42.7	19.0	0.00e+00	0	37	0	0	53	4433
2026-01-22 10:08:40.59	169.33	29.20	-40.8	-42.5	19.1	0.00e+00	0	38	0	0	53	4331
2026-01-22 10:08:43.59	169.44	29.76	-40.6	-42.3	19.4	0.00e+00	0	37	0	0	53	4235
2026-01-22 10:08:46.59	169.57	30.34	-40.4	-42.2	19.5	0.00e+00	0	37	0	0	52	4403
2026-01-22 10:08:49.60	169.70	30.92	-40.5	-42.2	19.4	0.00e+00	0	37	0	0	52	4436
2026-01-22 10:08:52.60	169.83	31.52	-40.2	-41.9	19.7	0.00e+00	0	37	0	0	52	4273
2026-01-22 10:08:55.61	169.96	32.13	-40.1	-41.8	19.8	0.00e+00	0	38	0	0	52	4201
2026-01-22 10:08:58.62	170.11	32.75	-40.1	-41.8	19.7	0.00e+00	0	37	0	0	52	4223
2026-01-22 10:09:01.62	170.25	33.38	-40.4	-42.1	19.5	0.00e+00	0	37	0	0	52	4382
2026-01-22 10:09:04.63	170.40	34.03	-40.6	-42.3	19.3	0.00e+00	0	37	0	0	52	4457
2026-01-22 10:09:07.64	170.56	34.70	-40.9	-42.6	19.1	0.00e+00	0	37	0	0	52	4647
2026-01-22 10:09:10.64	170.73	35.37	-41.2	-43.0	18.7	0.00e+00	0	37	0	0	53	4590
2026-01-22 10:09:13.65	170.90	36.06	-41.5	-43.4	18.4	0.00e+00	0	37	0	0	53	4792
2026-01-22 10:09:16.65	171.07	36.76	-41.9	-43.9	18.0	0.00e+00	0	37	0	0	54	4765
2026-01-22 10:09:19.65	171.26	37.48	-42.1	-44.1	17.8	0.00e+00	0	37	0	0	54	4911
2026-01-22 10:09:22.65	171.45	38.22	-42.2	-44.3	17.7	0.00e+00	0	38	0	0	55	4707
2026-01-22 10:09:25.65	171.65	38.97	-41.9	-43.9	18.0	0.00e+00	0	38	0	0	55	4495
2026-01-22 10:09:28.66	171.86	39.74	-41.9	-43.8	18.1	0.00e+00	0	37	0	0	55	4469
2026-01-22 10:09:31.66	172.08	40.52	-42.0	-44.0	17.9	0.00e+00	0	37	0	0	55	4552
2026-01-22 10:09:34.66	172.32	41.32	-42.3	-44.3	17.6	0.00e+00	0	37	0	0	55	4710
2026-01-22 10:09:37.67	172.56	42.14	-42.9	-44.9	17.1	0.00e+00	0	37	0	0	56	4802
2026-01-22 10:09:40.67	172.81	42.98	-43.4	-45.6	16.5	0.00e+00	0	38	0	0	57	4892
2026-01-22 10:09:43.68	173.08	43.83	-43.8	-46.1	16.0	0.00e+00	0	38	0	0	58	4876
2026-01-22 10:09:46.68	173.36	44.71	-43.7	-45.9	16.2	0.00e+00	0	37	0	0	58	4807
2026-01-22 10:09:49.69	173.66	45.60	-43.8	-46.2	16.1	0.00e+00	0	38	0	0	58	4932
2026-01-22 10:09:52.69	173.97	46.51	-44.0	-46.3	15.8	0.00e+00	0	37	0	0	58	5002
2026-01-22 10:09:55.70	174.31	47.45	-43.6	-45.9	16.3	0.00e+00	0	38	0	0	58	4763
2026-01-22 10:09:58.69	174.66	48.39	-43.0	-45.1	17.0	0.00e+00	0	37	0	0	58	4350
2026-01-22 10:10:01.70	175.03	49.37	-42.2	-44.2	17.9	0.00e+00	0	37	0	0	56	4415
2026-01-22 10:10:04.70	175.43	50.36	-41.8	-43.7	18.2	0.00e+00	0	38	0	0	55	4410
2026-01-22 10:10:07.70	175.86	51.37	-41.7	-43.6	18.3	0.00e+00	0	38	0	0	55	4371
2026-01-22 10:10:10.70	176.31	52.40	-41.8	-43.7	18.2	0.00e+00	0	37	0	0	55	4419
2026-01-22 10:10:13.71	176.80	53.45	-41.2	-43.0	18.8	0.00e+00	0	38	0	0	54	4312
2026-01-22 10:10:16.71	177.32	54.52	-40.9	-42.8	19.0	0.00e+00	0	37	0	0	53	4442
2026-01-22 10:10:19.72	177.89	55.62	-40.4	-42.2	19.5	0.00e+00	0	38	0	0	52	4392
2026-01-22 10:10:22.72	178.50	56.73	-41.0	-42.8	19.0	0.00e+00	0	38	0	0	52	4715
2026-01-22 10:10:25.72	179.15	57.86	-40.6	-42.4	19.4	0.00e+00	0	37	0	0	52	4518
2026-01-22 10:10:28.72	179.87	59.01	-40.3	-42.0	19.5	0.00e+00	0	38	0	0	52	4338
2026-01-22 10:10:31.72	180.65	60.17	-39.7	-41.3	20.3	0.00e+00	0	37	0	0	51	4242
2026-01-22 10:10:34.72	181.51	61.36	-39.6	-41.2	20.4	0.00e+00	0	38	0	0	50	4413
2026-01-22 10:10:37.73	182.45	62.56	-39.4	-41.1	20.5	0.00e+00	0	38	0	0	50	4341
2026-01-22 10:10:40.73	183.48	63.77	-39.0	-40.6	20.9	0.00e+00	0	38	0	0	50	4132
2026-01-22 10:10:43.73	184.63	64.99	-38.5	-40.0	21.3	0.00e+00	0	38	0	0	49	4097
2026-01-22 10:10:46.73	185.92	66.23	-39.2	-40.8	20.8	0.00e+00	0	38	0	0	49	4471
2026-01-22 10:10:49.74	187.36	67.47	-38.6	-40.2	21.1	0.00e+00	0	37	0	0	49	4179
2026-01-22 10:10:52.74	188.98	68.72	-39.0	-40.6	20.6	0.00e+00	0	38	0	0	49	4378
2026-01-22 10:10:55.75	190.82	69.96	-38.9	-40.5	20.9	0.00e+00	0	37	0	0	49	4302
2026-01-22 10:10:58.74	192.91	71.20	-38.7	-40.3	20.9	0.00e+00	0	38	0	0	49	4236
2026-01-22 10:11:01.75	195.32	72.43	-39.6	-41.3	20.4	0.00e+00	0	37	0	0	49	4728
2026-01-22 10:11:04.75	198.10	73.63	-39.0	-40.6	21.0	0.00e+00	0	38	0	0	50	4141
2026-01-22 10:11:07.75	201.34	74.81	-38.9	-40.5	21.1	0.00e+00	0	38	0	0	49	4326
2026-01-22 10:11:10.76	205.14	75.94	-38.9	-40.5	21.2	0.00e+00	0	38	0	0	49	4309
2026-01-22 10:11:13.76	209.60	77.01	-39.1	-40.7	20.9	0.00e+00	0	38	0	0	49	4437
2026-01-22 10:11:16.76	214.84	78.00	-38.4	-40.0	21.5	0.00e+00	0	38	0	0	48	4307
2026-01-22 10:11:19.77	221.01	78.87	-38.6	-40.2	21.2	0.00e+00	0	38	0	0	48	4420
2026-01-22 10:11:22.77	228.14	79.61	-38.8	-40.4	20.9	0.00e+00	0	38	0	0	48	4509
2026-01-22 10:11:25.78	236.25	80.17	-39.0	-40.6	20.8	0.00e+00	0	37	0	0	49	4365
2026-01-22 10:11:28.78	245.12	80.51	-38.9	-40.5	21.0	0.00e+00	0	38	0	0	49	4308
2026-01-22 10:11:31.79	254.45	80.62	-39.1	-40.7	20.9	0.00e+00	0	38	0	0	49	4428
2026-01-22 10:11:34.79	263.73	80.48	-39.1	-40.8	20.9	0.00e+00	0	38	0	0	49	4448
2026-01-22 10:11:37.80	272.54	80.11	-38.4	-39.9	21.6	0.00e+00	0	37	0	0	48	4265
2026-01-22 10:11:40.80	280.50	79.52	-39.1	-40.8	20.9	0.00e+00	0	38	0	0	49	4458
2026-01-22 10:11:43.81	287.52	78.77	-39.9	-41.6	20.2	0.00e+00	0	37	0	0	51	4379
2026-01-22 10:11:46.81	293.54	77.88	-38.9	-40.5	21.0	0.00e+00	0	37	0	0	49	4295
2026-01-22 10:11:49.82	298.69	76.88	-38.6	-40.2	21.1	0.00e+00	0	37	0	0	48	4405
2026-01-22 10:11:52.82	303.05	75.80	-39.2	-40.8	20.7	0.00e+00	0	37	0	0	49	4492
2026-01-22 10:11:55.83	306.78	74.66	-38.9	-40.5	21.1	0.00e+00	0	37	0	0	49	4320
2026-01-22 10:11:58.83	309.95	73.49	-39.3	-41.0	20.7	0.00e+00	0	37	0	0	49	4546
2026-01-22 10:12:01.84	312.69	72.28	-39.2	-40.8	21.0	0.00e+00	0	38	0	0	49	4451
2026-01-22 10:12:04.85	315.05	71.05	-38.2	-39.8	21.7	0.00e+00	0	38	0	0	48	4196
2026-01-22 10:12:07.85	317.11	69.81	-39.4	-41.1	20.3	0.00e+00	0	38	0	0	49	4628
2026-01-22 10:12:10.85	318.91	68.57	-38.8	-40.4	21.1	0.00e+00	0	38	0	0	49	4249
2026-01-22 10:12:13.85	320.50	67.33	-38.9	-40.5	21.1	0.00e+00	0	38	0	0	48	4561
2026-01-22 10:12:16.85	321.92	66.09	-39.4	-41.1	20.5	0.00e+00	0	37	0	0	49	4607
2026-01-22 10:12:19.86	323.19	64.86	-38.5	-40.1	21.4	0.00e+00	0	37	0	0	49	4109
2026-01-22 10:12:22.86	324.32	63.64	-41.0	-42.9	18.9	0.00e+00	0	37	0	0	52	4804
2026-01-22 10:12:25.87	325.35	62.43	-39.5	-41.2	20.4	0.00e+00	0	38	0	0	51	4169
2026-01-22 10:12:28.87	326.27	61.24	-40.0	-41.6	20.3	0.00e+00	0	38	0	0	50	4640
2026-01-22 10:12:31.88	327.12	60.06	-42.0	-44.0	18.1	0.00e+00	0	38	0	0	54	4825
2026-01-22 10:12:34.89	327.90	58.89	-39.4	-41.0	20.3	0.00e+00	0	38	0	0	51	4095
2026-01-22 10:12:37.90	328.61	57.75	-40.5	-42.2	19.6	0.00e+00	0	37	0	0	51	4701
2026-01-22 10:12:40.91	329.26	56.62	-43.1	-45.3	16.9	0.00e+00	0	37	0	0	56	5024
2026-01-22 10:12:43.91	329.86	55.52	-41.3	-43.2	18.1	0.00e+00	0	38	0	0	54	4441
2026-01-22 10:12:46.92	330.42	54.43	-40.1	-41.8	20.1	0.00e+00	0	38	0	0	51	4447
2026-01-22 10:12:49.92	330.94	53.36	-41.3	-43.2	18.8	0.00e+00	0	38	0	0	53	4680
2026-01-22 10:12:52.92	331.42	52.32	-42.4	-44.5	17.6	0.00e+00	0	37	0	0	55	4818
2026-01-22 10:12:55.93	331.87	51.29	-41.5	-43.4	18.4	0.00e+00	0	38	0	0	55	4248
2026-01-22 10:12:58.93	332.29	50.29	-41.4	-43.3	18.7	0.00e+00	0	38	0	0	54	4458
2026-01-22 10:13:01.93	332.69	49.31	-42.0	-44.0	18.0	0.00e+00	0	38	0	0	54	4837
2026-01-22 10:13:04.94	333.06	48.34	-42.2	-44.1	17.7	0.00e+00	0	38	0	0	55	4622
2026-01-22 10:13:07.95	333.41	47.39	-42.9	-45.0	17.2	0.00e+00	0	38	0	0	56	4825
2026-01-22 10:13:10.96	333.74	46.46	-42.4	-44.4	17.7	0.00e+00	0	38	0	0	56	4540
2026-01-22 10:13:13.96	334.06	45.56	-43.2	-45.5	16.8	0.00e+00	0	38	0	0	57	4816
2026-01-22 10:13:16.97	334.35	44.67	-44.1	-46.4	15.6	0.00e+00	0	38	0	0	58	5096
2026-01-22 10:13:19.97	334.63	43.80	-44.0	-46.4	15.7	0.00e+00	0	38	0	0	59	4770
2026-01-22 10:13:22.98	334.90	42.95	-42.3	-44.3	17.9	0.00e+00	0	37	0	0	56	4471
2026-01-22 10:13:25.98	335.15	42.12	-42.4	-44.4	17.7	0.00e+00	0	38	0	0	56	4536
2026-01-22 10:13:28.99	335.40	41.31	-42.2	-44.1	17.9	0.00e+00	0	38	0	0	56	4390
2026-01-22 10:13:31.99	335.63	40.51	-42.8	-44.8	17.3	0.00e+00	0	37	0	0	56	4758
2026-01-22 10:13:34.99	335.85	39.74	-43.6	-45.9	16.4	0.00e+00	0	38	0	0	57	5045
2026-01-22 10:13:37.99	336.06	38.97	-43.7	-46.0	16.3	0.00e+00	0	38	0	0	58	4823
2026-01-22 10:13:41.00	336.26	38.23	-42.4	-44.4	17.7	0.00e+00	0	38	0	0	56	4511
2026-01-22 10:13:44.01	336.45	37.50	-41.7	-43.5	18.4	0.00e+00	0	38	0	0	55	4335
2026-01-22 10:13:47.01	336.64	36.78	-41.5	-43.3	18.6	0.00e+00	0	38	0	0	54	4487
2026-01-22 10:13:50.01	336.81	36.08	-41.5	-43.3	18.5	0.00e+00	0	38	0	0	54	4492
2026-01-22 10:13:53.01	336.98	35.40	-41.1	-43.0	18.7	0.00e+00	0	38	0	0	54	4323
2026-01-22 10:13:56.01	337.15	34.73	-41.5	-43.5	18.4	0.00e+00	0	38	0	0	54	4571
2026-01-22 10:13:59.02	337.31	34.07	-41.5	-43.5	18.4	0.00e+00	0	38	0	0	54	4572
2026-01-22 10:14:02.02	337.46	33.43	-41.7	-43.6	18.4	0.00e+00	0	38	0	0	54	4612
2026-01-22 10:14:05.02	337.61	32.80	-41.0	-42.9	19.0	0.00e+00	0	38	0	0	54	4245
2026-01-22 10:14:08.02	337.75	32.18	-40.5	-42.3	19.3	0.00e+00	0	38	0	0	53	4194
2026-01-22 10:14:11.02	337.88	31.58	-40.3	-42.2	19.4	0.00e+00	0	38	0	0	52	4398
2026-01-22 10:14:14.03	338.02	30.99	-40.0	-41.8	19.9	0.00e+00	0	38	0	0	51	4449
2026-01-22 10:14:17.03	338.15	30.41	-40.1	-41.8	19.8	0.00e+00	0	38	0	0	51	4491
2026-01-22 10:14:20.04	338.27	29.83	-40.4	-42.1	19.7	0.00e+00	0	38	0	0	51	4636
2026-01-22 10:14:23.05	338.39	29.27	-40.5	-42.3	19.6	0.00e+00	0	38	0	0	51	4712
2026-01-22 10:14:26.05	338.51	28.73	-40.7	-42.5	19.3	0.00e+00	0	38	0	0	52	4569
2026-01-22 10:14:29.05	338.62	28.19	-41.0	-42.8	19.0	0.00e+00	0	37	0	0	52	4754
2026-01-22 10:14:32.05	338.73	27.66	-41.0	-42.9	19.0	0.00e+00	0	38	0	0	52	4771
2026-01-22 10:14:35.05	338.84	27.15	-40.7	-42.6	19.3	0.00e+00	0	38	0	0	52	4611
2026-01-22 10:14:38.06	338.94	26.64	-40.6	-42.5	19.2	0.00e+00	0	38	0	0	52	4577
2026-01-22 10:14:41.06	339.04	26.14	-40.5	-42.3	19.3	0.00e+00	0	38	0	0	52	4484
2026-01-22 10:14:44.06	339.14	25.65	-40.3	-42.1	19.5	0.00e+00	0	38	0	0	52	4369
2026-01-22 10:14:47.06	339.24	25.17	-40.4	-42.3	19.3	0.00e+00	0	38	0	0	52	4444
2026-01-22 10:14:50.07	339.33	24.70	-40.4	-42.2	19.3	0.00e+00	0	38	0	0	52	4430
2026-01-22 10:14:53.07	339.42	24.24	-40.4	-42.2	19.3	0.00e+00	0	38	0	0	52	4439
2026-01-22 10:14:56.07	339.51	23.78	-40.2	-42.1	19.5	0.00e+00	0	38	0	0	52	4344
2026-01-22 10:14:59.08	339.59	23.33	-40.3	-42.0	19.4	0.00e+00	0	38	0	0	52	4339
2026-01-22 10:15:02.08	339.68	22.89	-40.3	-42.1	19.3	0.00e+00	0	38	0	0	52	4376
2026-01-22 10:15:05.08	339.76	22.46	-40.0	-41.8	19.6	0.00e+00	0	38	0	0	52	4223
2026-01-22 10:15:08.09	339.84	22.03	-40.1	-42.0	19.6	0.00e+00	0	38	0	0	51	4558
2026-01-22 10:15:11.09	339.92	21.62	-40.0	-41.9	19.8	0.00e+00	0	38	0	0	51	4501
2026-01-22 10:15:14.09	340.00	21.21	-40.1	-41.9	19.8	0.00e+00	0	38	0	0	51	4516
2026-01-22 10:15:17.10	340.07	20.80	-40.1	-41.8	19.9	0.00e+00	0	38	0	0	51	4483
2026-01-22 10:15:20.10	340.14	20.40	-40.2	-42.0	19.7	0.00e+00	0	38	0	0	51	4552
2026-01-22 10:15:23.11	340.22	20.01	-40.2	-42.0	19.7	0.00e+00	0	38	0	0	51	4570
2026-01-22 10:15:26.11	340.29	19.62	-40.3	-42.2	19.5	0.00e+00	0	38	0	0	51	4663
2026-01-22 10:15:29.12	340.36	19.24	-40.6	-42.4	19.3	0.00e+00	0	38	0	0	52	4528
2026-01-22 10:15:32.12	340.42	18.87	-40.8	-42.6	19.1	0.00e+00	0	38	0	0	52	4618
2026-01-22 10:15:35.13	340.49	18.50	-40.9	-42.8	19.0	0.00e+00	0	38	0	0	52	4720
2026-01-22 10:15:38.13	340.56	18.13	-41.0	-42.9	18.8	0.00e+00	0	38	0	0	52	4786
2026-01-22 10:15:41.14	340.62	17.77	-41.0	-42.9	18.8	0.00e+00	0	38	0	0	52	4796
2026-01-22 10:15:44.14	340.68	17.42	-41.0	-43.0	18.7	0.00e+00	0	38	0	0	52	4826
2026-01-22 10:15:47.14	340.74	17.07	-41.2	-43.1	18.5	0.00e+00	0	38	0	0	52	4916
2026-01-22 10:15:50.15	340.80	16.73	-41.2	-43.1	18.5	0.00e+00	0	38	0	0	53	4649
2026-01-22 10:15:53.15	340.86	16.39	-41.2	-43.2	18.4	0.00e+00	0	38	0	0	53	4675
2026-01-22 10:15:56.16	340.92	16.06	-41.3	-43.3	18.3	0.00e+00	0	38	0	0	53	4741
2026-01-22 10:15:59.16	340.98	15.73	-41.1	-43.2	18.4	0.00e+00	0	38	0	0	53	4696
2026-01-22 10:16:02.17	341.03	15.40	-41.1	-43.2	18.4	0.00e+00	0	38	0	0	53	4692
2026-01-22 10:16:05.17	341.09	15.08	-41.2	-43.2	18.3	0.00e+00	0	38	0	0	53	4705
2026-01-22 10:16:08.17	341.14	14.76	-41.2	-43.2	18.3	0.00e+00	0	38	0	0	53	4697
2026-01-22 10:16:11.18	341.20	14.45	-41.3	-43.3	18.2	0.00e+00	0	38	0	0	53	4740
2026-01-22 10:16:14.18	341.25	14.14	-41.4	-43.5	18.1	0.00e+00	0	38	0	0	53	4827
2026-01-22 10:16:17.18	341.30	13.84	-41.3	-43.5	18.1	0.00e+00	0	38	0	0	53	4838
2026-01-22 10:16:20.18	341.35	13.54	-41.3	-43.5	18.0	0.00e+00	0	38	0	0	53	4860
2026-01-22 10:16:23.19	341.40	13.24	-41.2	-43.4	18.2	0.00e+00	0	38	0	0	53	4796
2026-01-22 10:16:26.19	341.45	12.95	-41.3	-43.5	18.1	0.00e+00	0	38	0	0	53	4815
2026-01-22 10:16:29.20	341.50	12.66	-41.4	-43.6	18.0	0.00e+00	0	38	0	0	53	4877
2026-01-22 10:16:32.20	341.55	12.37	-41.4	-43.5	18.1	0.00e+00	0	38	0	0	53	4842
2026-01-22 10:16:35.20	341.60	12.09	-41.3	-43.4	18.1	0.00e+00	0	38	0	0	53	4809
2026-01-22 10:16:38.21	341.64	11.81	-41.3	-43.5	18.1	0.00e+00	0	38	0	0	53	4824
2026-01-22 10:16:41.22	341.69	11.53	-41.2	-43.4	18.1	0.00e+00	0	38	0	0	53	4787
2026-01-22 10:16:44.22	341.73	11.25	-41.3	-43.4	18.1	0.00e+00	0	38	0	0	53	4814
2026-01-22 10:16:47.22	341.78	10.98	-41.5	-43.7	17.9	0.00e+00	0	38	0	0	53	4940
2026-01-22 10:16:50.22	341.82	10.72	-41.3	-43.5	18.0	0.00e+00	0	38	0	0	53	4833
2026-01-22 10:16:53.22	341.87	10.45	-41.6	-43.8	17.8	0.00e+00	0	38	0	0	53	4990
2026-01-22 10:16:56.23	341.91	10.19	-41.6	-43.9	17.6	0.00e+00	0	38	0	0	54	4795
2026-01-22 10:16:59.23	341.95	9.93	-41.5	-43.9	17.7	0.00e+00	0	38	0	0	54	4760
2026-01-22 10:17:02.24	342.00	9.67	-41.4	-43.9	17.6	0.00e+00	0	37	0	0	54	4806
2026-01-22 10:17:05.24	342.04	9.42	-41.4	-44.1	17.5	0.00e+00	0	38	0	0	54	4890
2026-01-22 10:17:08.25	342.08	9.17	-41.4	-44.2	17.4	0.00e+00	0	38	0	0	54	4951
2026-01-22 10:17:11.25	342.12	8.92	-48.9	-62.5	3.8	2.66e-01	0	37	104	0	68	18120
2026-01-22 10:17:14.24	342.16	8.67	-49.9	-63.5	3.8	1.49e+00	0	38	104	0	71	17104
2026-01-22 10:17:17.23	342.20	8.43	-50.0	-63.7	3.8	1.49e+00	0	38	104	0	71	17524
2026-01-22 10:17:20.21	342.24	8.19	-50.3	-63.7	3.8	1.49e+00	0	38	104	0	71	17645
2026-01-22 10:17:23.20	342.28	7.95	-50.6	-63.7	3.8	1.49e+00	0	38	104	0	71	17661
2026-01-22 10:17:26.19	342.31	7.71	-50.5	-63.7	3.8	1.49e+00	0	38	104	0	72	16592
2026-01-22 10:17:29.18	342.35	7.48	-50.6	-63.7	3.8	1.49e+00	0	38	104	0	72	16593
2026-01-22 10:17:32.18	342.39	7.25	-50.7	-63.7	3.8	1.49e+00	0	38	104	0	72	16576
2026-01-22 10:17:35.16	342.43	7.02	-50.6	-63.7	3.8	1.49e+00	0	38	104	0	72	16535
2026-01-22 10:17:38.15	342.46	6.79	-50.4	-63.6	3.8	1.49e+00	0	38	104	0	72	16468
2026-01-22 10:17:41.14	342.50	6.56	-50.4	-63.6	3.8	1.49e+00	0	38	104	0	72	16475
2026-01-22 10:17:44.13	342.54	6.34	-50.4	-63.6	3.8	1.49e+00	0	38	104	0	72	16436
2026-01-22 10:17:47.12	342.57	6.12	-50.4	-63.6	3.8	1.49e+00	0	38	104	0	72	16398
2026-01-22 10:17:50.10	342.61	5.90	-50.4	-63.6	3.8	1.49e+00	0	38	104	0	72	16428
2026-01-22 10:17:53.09	342.64	5.68	-50.3	-63.6	3.8	1.49e+00	0	38	104	0	72	16419
2026-01-22 10:17:56.08	342.68	5.46	-50.4	-63.6	3.8	1.49e+00	0	38	104	0	72	16464
2026-01-22 10:17:59.06	342.71	5.25	-50.4	-63.6	3.8	1.49e+00	0	38	104	0	72	16348
2026-01-22 10:18:02.05	342.74	5.04	-50.4	-63.6	3.8	1.49e+00	0	38	104	0	72	16355

#Closed at: 2026-01-22 10:18:04
#Recorded file [0 MB]: D:/Data/31040_260122_130504.dat