passes_logs/2026/01/22/T1/T1__20260122_221544_NOAA_21_JPSS-2_rec.log

#Pass ID: 20260122_221544_NOAA 21 (JPSS-2)
#Satellite: NOAA 21 (JPSS-2)
#Configuration: NOAA 21
#almurnet v.1.7.20251203
#Start time: 2026-01-22 22:15:43

#Version: 2.0.20230620
#Station: T1
#Location: 37.570604 lon 55.790049 lat
#TLE: 1 54234U 22150A   26022.41365820  .00000211  00000+0  12084-3 0  9990
#TLE: 2 54234  98.7507 323.2240 0000658 234.5287 125.5828 14.19537645165864

#Time	Az	El	Level	Level2	SNR	BER	BlckErr	Temp	State	Recorded	gain1	gain2
2026-01-22 22:15:43.79	28.49	4.98	-49.2	-62.6	3.8	1.49e+00	0	39	0	0	70	16438
2026-01-22 22:15:46.77	28.74	5.15	-49.2	-62.6	3.8	1.49e+00	0	39	104	0	69	17310
2026-01-22 22:15:49.75	28.98	5.33	-49.2	-62.6	3.8	1.49e+00	0	39	104	0	69	17336
2026-01-22 22:15:52.73	29.24	5.51	-49.2	-62.6	3.8	1.49e+00	0	39	104	0	69	17296
2026-01-22 22:15:55.71	29.49	5.69	-49.2	-62.5	3.8	1.49e+00	0	39	104	0	69	17230
2026-01-22 22:15:58.69	29.75	5.87	-49.2	-62.5	3.8	1.49e+00	0	39	104	0	69	17138
2026-01-22 22:16:01.67	30.01	6.06	-49.1	-62.4	3.8	1.49e+00	0	39	104	0	69	17042
2026-01-22 22:16:04.65	30.27	6.24	-49.2	-62.4	3.8	1.49e+00	0	39	104	0	69	17019
2026-01-22 22:16:07.63	30.54	6.42	-49.1	-62.4	3.8	1.49e+00	0	40	104	0	69	17027
2026-01-22 22:16:10.61	30.81	6.61	-49.1	-62.5	3.8	1.49e+00	0	40	104	0	69	17139
2026-01-22 22:16:13.59	31.08	6.79	-49.1	-62.5	3.8	1.49e+00	0	40	104	0	69	17119
2026-01-22 22:16:16.57	31.36	6.98	-49.1	-62.4	3.8	1.49e+00	0	40	104	0	69	16943
2026-01-22 22:16:19.55	31.64	7.16	-49.1	-62.4	3.8	1.49e+00	0	40	104	0	69	16898
2026-01-22 22:16:22.53	31.92	7.35	-49.1	-62.4	3.8	1.49e+00	0	40	104	0	69	17003
2026-01-22 22:16:25.51	32.21	7.54	-49.1	-62.2	3.8	1.49e+00	0	40	104	0	69	16526
2026-01-22 22:16:28.49	32.50	7.73	-49.1	-62.2	3.8	1.49e+00	0	40	104	0	69	16595
2026-01-22 22:16:31.47	32.79	7.92	-49.1	-62.5	3.8	1.49e+00	0	40	104	0	69	17112
2026-01-22 22:16:34.45	33.09	8.11	-49.1	-62.4	3.8	1.49e+00	0	40	104	0	69	17080
2026-01-22 22:16:37.43	33.39	8.30	-49.1	-62.3	3.8	1.49e+00	0	40	104	0	69	16836
2026-01-22 22:16:40.41	33.70	8.49	-49.1	-61.9	3.8	1.49e+00	0	40	104	0	69	16019
2026-01-22 22:16:43.39	34.00	8.68	-49.0	-61.0	3.8	1.49e+00	0	40	104	0	69	14404
2026-01-22 22:16:46.37	34.32	8.88	-48.2	-55.4	6.0	4.95e-01	0	40	0	0	68	8003
2026-01-22 22:16:49.35	34.63	9.07	-45.5	-49.1	12.2	7.95e-04	0	40	0	0	63	5171
2026-01-22 22:16:52.46	34.97	9.28	-45.9	-49.6	11.8	8.85e-05	0	40	0	0	62	5835
2026-01-22 22:16:55.30	35.28	9.46	-41.7	-43.8	17.2	0.00e+00	0	40	0	0	55	4469
2026-01-22 22:16:58.43	35.63	9.67	-41.4	-43.4	17.6	0.00e+00	0	41	0	0	54	4540
2026-01-22 22:17:01.27	35.94	9.86	-41.3	-43.3	17.7	0.00e+00	0	40	0	0	54	4488
2026-01-22 22:17:04.40	36.30	10.07	-41.2	-43.2	17.8	0.00e+00	0	40	0	0	54	4439
2026-01-22 22:17:07.24	36.63	10.26	-41.1	-43.1	17.9	0.00e+00	0	41	0	0	54	4346
2026-01-22 22:17:10.37	36.99	10.47	-41.0	-42.9	18.0	0.00e+00	0	40	0	0	53	4529
2026-01-22 22:17:13.21	37.33	10.66	-40.9	-42.8	18.2	0.00e+00	0	41	0	0	53	4475
2026-01-22 22:17:16.50	37.72	10.88	-40.8	-42.7	18.2	0.00e+00	0	40	0	0	53	4427
2026-01-22 22:17:19.42	38.07	11.08	-40.9	-42.9	18.2	0.00e+00	0	40	0	0	53	4507
2026-01-22 22:17:22.70	38.48	11.30	-40.6	-42.6	18.5	0.00e+00	0	41	0	0	53	4341
2026-01-22 22:17:25.43	38.82	11.49	-40.6	-42.5	18.5	0.00e+00	0	41	0	0	53	4323
2026-01-22 22:17:28.75	39.24	11.72	-40.5	-42.4	18.6	0.00e+00	0	41	0	0	53	4261
2026-01-22 22:17:31.46	39.58	11.90	-40.5	-42.3	18.7	0.00e+00	0	40	0	0	52	4485
2026-01-22 22:17:34.75	40.01	12.13	-40.3	-42.1	18.9	0.00e+00	0	41	0	0	52	4384
2026-01-22 22:17:37.46	40.37	12.32	-40.1	-41.9	19.1	0.00e+00	0	40	0	0	52	4273
2026-01-22 22:17:40.83	40.82	12.55	-40.1	-41.9	19.1	0.00e+00	0	41	0	0	52	4272
2026-01-22 22:17:43.53	41.18	12.74	-40.2	-42.0	19.0	0.00e+00	0	41	0	0	52	4304
2026-01-22 22:17:46.81	41.63	12.97	-40.3	-42.2	18.9	0.00e+00	0	41	0	0	52	4402
2026-01-22 22:17:49.53	42.01	13.16	-40.3	-42.1	18.9	0.00e+00	0	41	0	0	52	4357
2026-01-22 22:17:53.11	42.52	13.41	-40.2	-42.0	19.0	0.00e+00	0	41	0	0	52	4307
2026-01-22 22:17:55.82	42.90	13.60	-40.3	-42.1	18.9	0.00e+00	0	41	0	0	52	4359
2026-01-22 22:17:59.14	43.39	13.83	-40.5	-42.4	18.7	0.00e+00	0	41	0	0	52	4506
2026-01-22 22:18:01.85	43.79	14.02	-40.3	-42.1	19.0	0.00e+00	0	41	0	0	52	4367
2026-01-22 22:18:05.14	44.28	14.25	-40.2	-42.0	19.1	0.00e+00	0	41	0	0	52	4307
2026-01-22 22:18:07.87	44.69	14.44	-40.0	-41.8	19.3	0.00e+00	0	41	0	0	52	4194
2026-01-22 22:18:11.31	45.22	14.69	-40.1	-41.8	19.3	0.00e+00	0	41	0	0	51	4492
2026-01-22 22:18:14.03	45.64	14.88	-40.0	-41.8	19.3	0.00e+00	0	41	0	0	51	4479
2026-01-22 22:18:17.30	46.16	15.11	-40.2	-42.0	19.1	0.00e+00	0	41	0	0	51	4546
2026-01-22 22:18:20.03	46.59	15.30	-40.1	-41.9	19.2	0.00e+00	0	41	0	0	51	4530
2026-01-22 22:18:23.31	47.13	15.53	-40.1	-41.9	19.3	0.00e+00	0	41	0	0	51	4516
2026-01-22 22:18:26.01	47.57	15.72	-40.1	-41.9	19.3	0.00e+00	0	40	0	0	51	4506
2026-01-22 22:18:29.28	48.12	15.96	-40.0	-41.8	19.4	0.00e+00	0	41	0	0	51	4458
2026-01-22 22:18:31.99	48.57	16.15	-39.9	-41.7	19.4	0.00e+00	0	41	0	0	51	4411
2026-01-22 22:18:35.28	49.14	16.38	-39.8	-41.5	19.5	0.00e+00	0	41	0	0	51	4339
2026-01-22 22:18:37.98	49.61	16.57	-39.8	-41.5	19.6	0.00e+00	0	41	0	0	51	4331
2026-01-22 22:18:41.23	50.18	16.80	-39.9	-41.6	19.5	0.00e+00	0	41	0	0	51	4378
2026-01-22 22:18:44.07	50.69	16.99	-39.8	-41.5	19.7	0.00e+00	0	41	0	0	51	4304
2026-01-22 22:18:47.21	51.26	17.21	-39.8	-41.5	19.6	0.00e+00	0	41	0	0	51	4335
2026-01-22 22:18:50.14	51.79	17.42	-39.9	-41.6	19.6	0.00e+00	0	41	0	0	51	4357
2026-01-22 22:18:53.27	52.38	17.63	-39.9	-41.6	19.5	0.00e+00	0	41	0	0	51	4368
2026-01-22 22:18:56.16	52.92	17.83	-39.9	-41.6	19.5	0.00e+00	0	41	0	0	51	4378
2026-01-22 22:18:59.43	53.55	18.06	-40.0	-41.7	19.5	0.00e+00	0	41	0	0	51	4420
2026-01-22 22:19:02.15	54.07	18.24	-40.0	-41.8	19.5	0.00e+00	0	41	0	0	51	4446
2026-01-22 22:19:05.43	54.72	18.47	-39.8	-41.5	19.6	0.00e+00	0	41	0	0	51	4334
2026-01-22 22:19:08.21	55.27	18.66	-39.8	-41.5	19.7	0.00e+00	0	41	0	0	51	4320
2026-01-22 22:19:11.48	55.93	18.87	-40.0	-41.8	19.4	0.00e+00	0	41	0	0	51	4466
2026-01-22 22:19:14.21	56.49	19.06	-40.2	-42.0	19.3	0.00e+00	0	41	0	0	51	4572
2026-01-22 22:19:17.48	57.16	19.27	-40.2	-42.0	19.3	0.00e+00	0	41	0	0	51	4546
2026-01-22 22:19:20.21	57.73	19.45	-40.1	-41.8	19.4	0.00e+00	0	41	0	0	51	4489
2026-01-22 22:19:23.51	58.43	19.66	-40.1	-41.8	19.4	0.00e+00	0	41	0	0	51	4467
2026-01-22 22:19:26.21	59.01	19.84	-40.2	-42.0	19.2	0.00e+00	0	41	0	0	51	4580
2026-01-22 22:19:29.63	59.76	20.05	-40.0	-41.8	19.4	0.00e+00	0	41	0	0	51	4472
2026-01-22 22:19:32.66	60.42	20.24	-39.8	-41.5	19.7	0.00e+00	0	41	0	0	51	4311
2026-01-22 22:19:35.93	61.15	20.45	-39.9	-41.6	19.6	0.00e+00	0	41	0	0	51	4364
2026-01-22 22:19:38.63	61.76	20.61	-39.9	-41.7	19.5	0.00e+00	0	41	0	0	51	4407
2026-01-22 22:19:42.17	62.57	20.82	-39.8	-41.5	19.7	0.00e+00	0	40	0	0	51	4340
2026-01-22 22:19:44.98	63.22	20.99	-39.7	-41.4	19.9	0.00e+00	0	41	0	0	51	4244
2026-01-22 22:19:48.24	63.98	21.18	-39.7	-41.4	19.8	0.00e+00	0	41	0	0	51	4249
2026-01-22 22:19:50.99	64.63	21.34	-39.6	-41.3	19.9	0.00e+00	0	41	0	0	51	4226
2026-01-22 22:19:54.27	65.42	21.52	-39.5	-41.1	20.0	0.00e+00	0	41	0	0	50	4387
2026-01-22 22:19:57.00	66.08	21.67	-39.3	-41.0	20.1	0.00e+00	0	40	0	0	50	4317
2026-01-22 22:20:00.26	66.87	21.84	-39.5	-41.2	19.9	0.00e+00	0	41	0	0	50	4436
2026-01-22 22:20:02.97	67.54	21.98	-39.5	-41.1	20.0	0.00e+00	0	40	0	0	50	4389
2026-01-22 22:20:06.24	68.36	22.15	-39.5	-41.2	20.0	0.00e+00	0	41	0	0	50	4399
2026-01-22 22:20:08.96	69.04	22.29	-39.7	-41.4	19.8	0.00e+00	0	41	0	0	50	4509
2026-01-22 22:20:12.25	69.87	22.45	-39.7	-41.4	19.9	0.00e+00	0	41	0	0	50	4504
2026-01-22 22:20:14.98	70.57	22.57	-39.5	-41.1	20.0	0.00e+00	0	40	0	0	50	4390
2026-01-22 22:20:18.25	71.42	22.72	-39.6	-41.3	19.9	0.00e+00	0	41	0	0	50	4473
2026-01-22 22:20:20.98	72.13	22.84	-39.6	-41.2	20.0	0.00e+00	0	41	0	0	50	4437
2026-01-22 22:20:24.25	72.99	22.98	-39.4	-41.1	20.1	0.00e+00	0	41	0	0	50	4372
2026-01-22 22:20:26.95	73.70	23.09	-39.4	-41.1	20.0	0.00e+00	0	41	0	0	50	4376
2026-01-22 22:20:30.24	74.58	23.22	-39.5	-41.2	20.1	0.00e+00	0	41	0	0	50	4399
2026-01-22 22:20:32.94	75.30	23.32	-39.4	-41.1	20.0	0.00e+00	0	41	0	0	50	4375
2026-01-22 22:20:36.24	76.20	23.43	-39.3	-40.9	20.2	0.00e+00	0	41	0	0	50	4289
2026-01-22 22:20:39.04	76.96	23.53	-39.2	-40.8	20.3	0.00e+00	0	40	0	0	50	4228
2026-01-22 22:20:42.17	77.82	23.63	-39.3	-40.9	20.2	0.00e+00	0	41	0	0	50	4286
2026-01-22 22:20:45.31	78.68	23.72	-39.3	-41.0	20.2	0.00e+00	0	41	0	0	50	4329
2026-01-22 22:20:48.29	79.51	23.80	-39.0	-40.7	20.4	0.00e+00	0	40	0	0	50	4171
2026-01-22 22:20:51.27	80.34	23.88	-39.0	-40.6	20.5	0.00e+00	0	40	0	0	50	4127
2026-01-22 22:20:54.26	81.18	23.95	-39.1	-40.7	20.3	0.00e+00	0	40	0	0	49	4430
2026-01-22 22:20:57.24	82.01	24.01	-39.3	-41.0	20.1	0.00e+00	0	40	0	0	49	4578
2026-01-22 22:21:00.23	82.86	24.07	-39.0	-40.7	20.3	0.00e+00	0	41	0	0	49	4414
2026-01-22 22:21:03.52	83.79	24.13	-39.4	-41.1	20.0	0.00e+00	0	41	0	0	49	4632
2026-01-22 22:21:06.43	84.62	24.17	-39.3	-41.1	20.0	0.00e+00	0	40	0	0	49	4605
2026-01-22 22:21:09.70	85.55	24.21	-39.4	-41.1	20.1	0.00e+00	0	40	0	0	49	4612
2026-01-22 22:21:12.43	86.33	24.24	-39.3	-41.1	20.1	0.00e+00	0	41	0	0	49	4599
2026-01-22 22:21:15.70	87.26	24.27	-39.1	-40.8	20.3	0.00e+00	0	41	0	0	49	4451
2026-01-22 22:21:18.42	88.04	24.29	-39.3	-41.0	20.2	0.00e+00	0	41	0	0	49	4556
2026-01-22 22:21:21.70	88.99	24.30	-39.2	-40.9	20.2	0.00e+00	0	41	0	0	49	4514
2026-01-22 22:21:24.45	89.77	24.30	-39.3	-41.0	20.0	0.00e+00	0	40	0	0	49	4595
2026-01-22 22:21:27.71	90.71	24.30	-39.1	-40.8	20.3	0.00e+00	0	40	0	0	49	4477
2026-01-22 22:21:30.46	91.50	24.30	-39.2	-40.9	20.2	0.00e+00	0	40	0	0	49	4522
2026-01-22 22:21:33.74	92.44	24.28	-39.1	-40.8	20.3	0.00e+00	0	41	0	0	49	4484
2026-01-22 22:21:36.47	93.22	24.26	-38.9	-40.5	20.5	0.00e+00	0	41	0	0	49	4337
2026-01-22 22:21:39.75	94.16	24.23	-39.0	-40.7	20.5	0.00e+00	0	40	0	0	49	4404
2026-01-22 22:21:42.50	94.95	24.20	-38.9	-40.6	20.4	0.00e+00	0	41	0	0	49	4351
2026-01-22 22:21:45.78	95.88	24.15	-38.8	-40.5	20.6	0.00e+00	0	41	0	0	49	4303
2026-01-22 22:21:48.77	96.73	24.11	-38.8	-40.4	20.6	0.00e+00	0	41	0	0	49	4285
2026-01-22 22:21:51.83	97.60	24.05	-38.8	-40.4	20.5	0.00e+00	0	41	0	0	49	4282
2026-01-22 22:21:54.82	98.44	23.99	-38.9	-40.5	20.6	0.00e+00	0	40	0	0	49	4334
2026-01-22 22:21:57.80	99.28	23.92	-39.2	-40.8	20.3	0.00e+00	0	40	0	0	49	4490
2026-01-22 22:22:00.79	100.12	23.85	-39.0	-40.6	20.5	0.00e+00	0	41	0	0	49	4372
2026-01-22 22:22:03.86	100.97	23.77	-39.3	-41.0	20.3	0.00e+00	0	40	0	0	49	4549
2026-01-22 22:22:06.74	101.77	23.69	-39.4	-41.1	20.1	0.00e+00	0	40	0	0	49	4611
2026-01-22 22:22:09.86	102.63	23.59	-39.2	-40.8	20.3	0.00e+00	0	40	0	0	49	4490
2026-01-22 22:22:12.71	103.42	23.50	-39.1	-40.7	20.4	0.00e+00	0	41	0	0	49	4426
2026-01-22 22:22:15.83	104.27	23.40	-39.2	-40.8	20.4	0.00e+00	0	41	0	0	49	4477
2026-01-22 22:22:18.67	105.03	23.29	-39.4	-41.1	20.1	0.00e+00	0	40	0	0	49	4603
2026-01-22 22:22:21.95	105.92	23.17	-39.2	-40.9	20.3	0.00e+00	0	40	0	0	49	4507
2026-01-22 22:22:24.79	106.67	23.06	-39.2	-40.9	20.2	0.00e+00	0	40	0	0	49	4524
2026-01-22 22:22:27.92	107.50	22.93	-39.3	-41.0	20.2	0.00e+00	0	40	0	0	49	4561
2026-01-22 22:22:30.76	108.25	22.81	-39.3	-41.0	20.1	0.00e+00	0	40	0	0	49	4586
2026-01-22 22:22:34.06	109.11	22.66	-39.5	-41.2	20.0	0.00e+00	0	40	0	0	49	4673
2026-01-22 22:22:36.78	109.81	22.53	-39.5	-41.2	20.0	0.00e+00	0	40	0	0	49	4663
2026-01-22 22:22:40.05	110.65	22.38	-39.6	-41.3	19.9	0.00e+00	0	40	0	0	49	4752
2026-01-22 22:22:42.90	111.38	22.24	-39.5	-41.3	19.9	0.00e+00	0	40	0	0	49	4708
2026-01-22 22:22:46.03	112.16	22.08	-39.4	-41.0	20.0	0.00e+00	0	40	0	0	49	4597
2026-01-22 22:22:48.87	112.87	21.93	-39.4	-41.1	20.0	0.00e+00	0	40	0	0	49	4634
2026-01-22 22:22:52.06	113.66	21.77	-39.5	-41.2	19.9	0.00e+00	0	40	0	0	49	4686
2026-01-22 22:22:54.90	114.35	21.61	-39.3	-41.0	20.1	0.00e+00	0	40	0	0	49	4586
2026-01-22 22:22:58.03	115.11	21.44	-39.3	-41.0	20.1	0.00e+00	0	40	0	0	49	4586
2026-01-22 22:23:00.87	115.79	21.28	-39.6	-41.3	19.8	0.00e+00	0	40	0	0	49	4737
2026-01-22 22:23:04.06	116.54	21.09	-39.5	-41.2	19.9	0.00e+00	0	40	0	0	50	4438
2026-01-22 22:23:06.91	117.21	20.92	-39.4	-41.0	20.1	0.00e+00	0	41	0	0	50	4333
2026-01-22 22:23:10.03	117.93	20.74	-39.4	-41.1	20.0	0.00e+00	0	40	0	0	50	4353
2026-01-22 22:23:12.88	118.58	20.56	-39.7	-41.4	19.8	0.00e+00	0	41	0	0	50	4498
2026-01-22 22:23:16.00	119.29	20.37	-39.7	-41.5	19.7	0.00e+00	0	41	0	0	50	4549
2026-01-22 22:23:18.84	119.92	20.19	-39.5	-41.2	19.8	0.00e+00	0	40	0	0	50	4402
2026-01-22 22:23:21.97	120.61	20.00	-39.4	-41.1	19.9	0.00e+00	0	40	0	0	50	4374
2026-01-22 22:23:24.81	121.23	19.81	-39.4	-41.1	20.0	0.00e+00	0	40	0	0	50	4352
2026-01-22 22:23:27.95	121.91	19.61	-39.4	-41.1	20.0	0.00e+00	0	40	0	0	50	4369
2026-01-22 22:23:30.79	122.51	19.43	-39.5	-41.2	19.9	0.00e+00	0	40	0	0	50	4399
2026-01-22 22:23:33.97	123.18	19.22	-39.5	-41.3	19.8	0.00e+00	0	40	0	0	50	4445
2026-01-22 22:23:36.80	123.77	19.03	-39.5	-41.2	19.9	0.00e+00	0	40	0	0	50	4416
2026-01-22 22:23:40.01	124.43	18.81	-39.3	-41.0	20.1	0.00e+00	0	40	0	0	50	4319
2026-01-22 22:23:42.85	125.00	18.62	-39.5	-41.2	19.9	0.00e+00	0	40	0	0	50	4395
2026-01-22 22:23:45.97	125.62	18.41	-39.5	-41.2	19.9	0.00e+00	0	40	0	0	50	4440
2026-01-22 22:23:48.82	126.19	18.21	-39.6	-41.3	19.8	0.00e+00	0	40	0	0	50	4488
2026-01-22 22:23:52.02	126.81	17.99	-39.7	-41.4	19.7	0.00e+00	0	40	0	0	50	4504
2026-01-22 22:23:54.86	127.35	17.79	-39.6	-41.4	19.7	0.00e+00	0	40	0	0	50	4496
2026-01-22 22:23:58.13	127.97	17.56	-39.7	-41.4	19.6	0.00e+00	0	40	0	0	50	4517
2026-01-22 22:24:00.97	128.50	17.37	-39.7	-41.4	19.6	0.00e+00	0	41	0	0	50	4536
2026-01-22 22:24:04.04	129.07	17.15	-39.7	-41.5	19.6	0.00e+00	0	40	0	0	50	4550
2026-01-22 22:24:07.02	129.61	16.94	-39.9	-41.7	19.4	0.00e+00	0	40	0	0	50	4672
2026-01-22 22:24:10.01	130.14	16.73	-39.8	-41.5	19.5	0.00e+00	0	40	0	0	50	4586
2026-01-22 22:24:12.99	130.67	16.52	-40.0	-41.8	19.2	0.00e+00	0	40	0	0	50	4725
2026-01-22 22:24:15.97	131.19	16.31	-40.1	-41.9	19.1	0.00e+00	0	40	0	0	50	4804
2026-01-22 22:24:18.95	131.70	16.09	-40.3	-42.1	18.9	0.00e+00	0	40	0	0	51	4623
2026-01-22 22:24:21.94	132.21	15.88	-40.2	-42.0	19.0	0.00e+00	0	40	0	0	51	4584
2026-01-22 22:24:24.92	132.71	15.67	-40.3	-42.1	18.9	0.00e+00	0	40	0	0	51	4620
2026-01-22 22:24:27.91	133.20	15.46	-40.4	-42.2	18.8	0.00e+00	0	40	0	0	51	4678
2026-01-22 22:24:30.86	133.68	15.25	-40.2	-42.0	19.1	0.00e+00	0	40	0	0	51	4565
2026-01-22 22:24:33.96	134.18	15.02	-40.1	-41.9	19.2	0.00e+00	0	40	0	0	51	4509
2026-01-22 22:24:36.80	134.63	14.82	-40.3	-42.1	18.9	0.00e+00	0	40	0	0	51	4621
2026-01-22 22:24:39.93	135.12	14.60	-40.6	-42.4	18.6	0.00e+00	0	40	0	0	51	4783
2026-01-22 22:24:42.78	135.56	14.39	-40.8	-42.7	18.3	0.00e+00	0	40	0	0	52	4668
2026-01-22 22:24:46.11	136.06	14.16	-40.6	-42.4	18.5	0.00e+00	0	40	0	0	52	4545
2026-01-22 22:24:48.80	136.47	13.97	-40.5	-42.4	18.6	0.00e+00	0	40	0	0	52	4511
2026-01-22 22:24:52.08	136.95	13.73	-40.4	-42.2	18.7	0.00e+00	0	40	0	0	52	4441
2026-01-22 22:24:54.87	137.36	13.54	-40.4	-42.2	18.7	0.00e+00	0	40	0	0	52	4426
2026-01-22 22:24:58.00	137.81	13.31	-40.6	-42.5	18.5	0.00e+00	0	40	0	0	52	4558
2026-01-22 22:25:00.84	138.21	13.11	-40.8	-42.7	18.3	0.00e+00	0	40	0	0	52	4682
2026-01-22 22:25:03.97	138.65	12.89	-40.8	-42.7	18.3	0.00e+00	0	40	0	0	52	4679
2026-01-22 22:25:06.81	139.04	12.69	-40.8	-42.7	18.3	0.00e+00	0	40	0	0	52	4654
2026-01-22 22:25:09.96	139.46	12.47	-40.8	-42.7	18.2	0.00e+00	0	40	0	0	52	4680
2026-01-22 22:25:12.80	139.84	12.27	-40.7	-42.6	18.3	0.00e+00	0	40	0	0	52	4631
2026-01-22 22:25:15.93	140.26	12.05	-40.9	-42.8	18.1	0.00e+00	0	40	0	0	52	4735
2026-01-22 22:25:18.77	140.63	11.86	-41.0	-42.9	18.0	0.00e+00	0	40	0	0	52	4801
2026-01-22 22:25:21.90	141.03	11.64	-40.9	-42.8	18.1	0.00e+00	0	40	0	0	52	4746
2026-01-22 22:25:24.74	141.39	11.44	-40.9	-42.8	18.1	0.00e+00	0	40	0	0	52	4755
2026-01-22 22:25:27.87	141.78	11.23	-41.0	-43.0	18.0	0.00e+00	0	40	0	0	52	4837
2026-01-22 22:25:30.71	142.13	11.03	-41.0	-42.9	18.0	0.00e+00	0	40	0	0	52	4811
2026-01-22 22:25:33.84	142.51	10.81	-41.0	-43.0	18.0	0.00e+00	0	40	0	0	52	4828
2026-01-22 22:25:36.78	142.87	10.61	-40.9	-42.9	18.0	0.00e+00	0	40	0	0	52	4767
2026-01-22 22:25:40.00	143.25	10.39	-41.0	-43.0	17.9	0.00e+00	0	40	0	0	52	4815
2026-01-22 22:25:42.92	143.59	10.20	-41.2	-43.2	17.7	0.00e+00	0	40	0	0	52	4943
2026-01-22 22:25:46.05	143.95	9.98	-41.5	-43.5	17.3	0.00e+00	0	40	0	0	53	4855
2026-01-22 22:25:48.89	144.27	9.79	-41.5	-43.5	17.3	0.00e+00	0	40	0	0	53	4860
2026-01-22 22:25:52.02	144.63	9.58	-41.6	-43.7	17.2	0.00e+00	0	40	0	0	53	4937
2026-01-22 22:25:54.86	144.94	9.39	-41.5	-43.7	17.2	0.00e+00	0	40	0	0	53	4931
2026-01-22 22:25:57.99	145.28	9.19	-41.5	-43.7	17.2	0.00e+00	0	40	0	0	53	4934
2026-01-22 22:26:00.83	145.59	9.00	-47.7	-54.7	7.0	6.60e-03	0	40	0	0	65	8763
2026-01-22 22:26:03.95	145.92	8.79	-49.8	-62.9	3.8	1.49e+00	0	40	104	0	70	17050
2026-01-22 22:26:06.79	146.22	8.60	-50.0	-63.1	3.8	1.49e+00	0	40	104	0	70	17300
2026-01-22 22:26:09.92	146.55	8.40	-50.1	-63.1	3.8	1.49e+00	0	40	104	0	70	17440
2026-01-22 22:26:12.76	146.84	8.21	-50.1	-63.2	3.8	1.49e+00	0	40	104	0	71	16561
2026-01-22 22:26:15.88	147.15	8.01	-49.9	-63.2	3.8	1.49e+00	0	40	104	0	71	16595
2026-01-22 22:26:18.71	147.43	7.83	-50.1	-63.2	3.8	1.49e+00	0	40	104	0	71	16624
2026-01-22 22:26:21.84	147.74	7.63	-50.0	-63.2	3.8	1.49e+00	0	40	104	0	71	16504
2026-01-22 22:26:24.68	148.02	7.44	-50.0	-63.1	3.8	1.49e+00	0	40	104	0	71	16412
2026-01-22 22:26:27.80	148.32	7.25	-49.9	-63.1	3.8	1.49e+00	0	40	104	0	71	16408
2026-01-22 22:26:30.64	148.59	7.06	-49.9	-63.1	3.8	1.49e+00	0	40	104	0	71	16377
2026-01-22 22:26:33.76	148.88	6.87	-49.9	-63.1	3.8	1.49e+00	0	40	104	0	71	16317
2026-01-22 22:26:36.60	149.15	6.69	-49.9	-63.1	3.8	1.49e+00	0	40	104	0	71	16374
2026-01-22 22:26:39.72	149.43	6.49	-49.9	-63.0	3.8	1.49e+00	0	40	104	0	71	16306
2026-01-22 22:26:42.56	149.69	6.32	-49.9	-63.1	3.8	1.49e+00	0	40	104	0	71	16326
2026-01-22 22:26:45.68	149.97	6.12	-49.9	-63.0	3.8	1.49e+00	0	40	104	0	71	16276
2026-01-22 22:26:48.52	150.22	5.95	-49.9	-63.0	3.8	1.49e+00	0	40	104	0	71	16241
2026-01-22 22:26:51.64	150.49	5.75	-49.9	-63.0	3.8	1.49e+00	0	40	104	0	71	16290
2026-01-22 22:26:54.48	150.73	5.58	-49.9	-63.0	3.8	1.49e+00	0	40	104	0	71	16291
2026-01-22 22:26:57.60	151.00	5.39	-49.9	-63.0	3.8	1.49e+00	0	40	104	0	71	16268
2026-01-22 22:27:00.44	151.24	5.22	-49.9	-63.0	3.8	1.49e+00	0	40	104	0	71	16277
2026-01-22 22:27:03.56	151.50	5.03	-49.9	-63.1	3.8	1.49e+00	0	40	104	0	71	16325

#Closed at: 2026-01-22 22:27:05
#Recorded file [0 MB]: D:/Data/31040_260123_011543.dat