passes_logs/2026/01/22/T1/T1__20260122_232218_AQUA_rec.log

#Pass ID: 20260122_232218_AQUA
#Satellite: AQUA
#Configuration: AQUA
#almurnet v.1.7.20251203
#Start time: 2026-01-22 23:22:18

#Version: 2.0.20230620
#Station: T1
#Location: 37.570604 lon 55.790049 lat
#TLE: 1 27424U 02022A   26022.49486490  .00002153  00000+0  44069-3 0  9997
#TLE: 2 27424  98.4099 349.0485 0001970  69.5876  43.4746 14.61847233261984

#Time	Az	El	Level	Level2	SNR	BER	BlckErr	Temp	State	Recorded	gain1	gain2
2026-01-22 23:22:18.73	44.26	5.05	-50.6	-70.7	3.8	7.44e-01	0	36	0	0	72	37093
2026-01-22 23:22:20.71	44.54	5.13	-50.6	-70.8	3.8	7.44e-01	0	36	104	0	71	39921
2026-01-22 23:22:22.70	44.83	5.21	-50.6	-70.8	3.8	7.47e-01	0	36	104	0	71	39761
2026-01-22 23:22:24.68	45.11	5.30	-50.6	-70.8	3.8	7.43e-01	0	36	104	0	71	39810
2026-01-22 23:22:26.67	45.40	5.38	-50.6	-70.5	3.8	7.44e-01	0	36	104	0	71	38474
2026-01-22 23:22:28.66	45.69	5.46	-50.6	-70.8	3.8	7.47e-01	0	36	104	0	71	39928
2026-01-22 23:22:30.65	45.98	5.54	-50.6	-70.7	3.8	7.46e-01	0	36	104	0	71	39403
2026-01-22 23:22:32.63	46.27	5.62	-50.6	-70.7	3.8	7.44e-01	0	36	104	0	71	39412
2026-01-22 23:22:34.62	46.56	5.71	-50.6	-70.8	3.8	7.43e-01	0	36	104	0	71	39902
2026-01-22 23:22:36.61	46.86	5.79	-50.6	-70.7	3.8	7.45e-01	0	36	104	0	71	39581
2026-01-22 23:22:38.59	47.15	5.87	-50.6	-70.9	3.8	7.41e-01	0	36	104	0	71	40110
2026-01-22 23:22:40.58	47.45	5.95	-50.6	-70.8	3.8	7.45e-01	0	36	104	0	71	39989
2026-01-22 23:22:42.57	47.76	6.03	-50.6	-70.8	3.8	7.45e-01	0	37	104	0	71	39779
2026-01-22 23:22:44.55	48.06	6.11	-50.6	-70.7	3.8	7.46e-01	0	36	104	0	71	39524
2026-01-22 23:22:46.54	48.36	6.19	-50.6	-70.8	3.8	7.47e-01	0	37	104	0	71	39942
2026-01-22 23:22:48.53	48.67	6.26	-50.6	-70.7	3.8	7.46e-01	0	37	104	0	71	39274
2026-01-22 23:22:50.51	48.97	6.34	-50.6	-70.8	3.8	7.46e-01	0	37	104	0	71	39859
2026-01-22 23:22:52.50	49.28	6.42	-50.6	-70.8	3.8	7.47e-01	0	37	104	0	71	40034
2026-01-22 23:22:54.49	49.60	6.50	-50.6	-70.7	3.8	7.46e-01	0	37	104	0	71	39452
2026-01-22 23:22:56.47	49.91	6.58	-50.6	-70.8	3.8	7.44e-01	0	37	104	0	71	39847
2026-01-22 23:22:58.46	50.22	6.65	-50.6	-70.8	3.8	7.45e-01	0	37	104	0	71	39682
2026-01-22 23:23:00.45	50.54	6.73	-50.6	-70.9	3.8	7.45e-01	0	37	104	0	71	40128
2026-01-22 23:23:02.43	50.86	6.80	-50.6	-70.8	3.8	7.43e-01	0	37	104	0	71	39999
2026-01-22 23:23:04.42	51.18	6.88	-50.6	-70.7	3.8	7.47e-01	0	37	104	0	71	39387
2026-01-22 23:23:06.41	51.50	6.96	-50.6	-70.8	3.8	7.43e-01	0	37	104	0	71	39780
2026-01-22 23:23:08.40	51.83	7.03	-50.6	-70.8	3.8	7.48e-01	0	37	104	0	71	39615
2026-01-22 23:23:10.38	52.15	7.10	-50.6	-70.6	3.8	7.45e-01	0	37	104	0	71	38715
2026-01-22 23:23:12.37	52.48	7.18	-50.6	-70.8	3.8	7.45e-01	0	37	104	0	71	39889
2026-01-22 23:23:14.35	52.81	7.25	-50.6	-70.9	3.8	7.45e-01	0	37	104	0	71	40179
2026-01-22 23:23:16.34	53.14	7.32	-50.6	-70.8	3.8	7.44e-01	0	37	104	0	71	39954
2026-01-22 23:23:18.33	53.47	7.39	-50.6	-70.9	3.8	7.48e-01	0	37	104	0	71	40251
2026-01-22 23:23:20.32	53.80	7.47	-50.6	-70.9	3.8	7.46e-01	0	37	104	0	71	40108
2026-01-22 23:23:22.30	54.14	7.54	-50.6	-70.7	3.8	7.47e-01	0	37	104	0	71	39391
2026-01-22 23:23:24.29	54.48	7.61	-50.6	-70.8	3.8	7.49e-01	0	37	104	0	71	39758
2026-01-22 23:23:26.27	54.81	7.68	-50.6	-70.9	3.8	7.49e-01	0	37	104	0	71	40152
2026-01-22 23:23:28.26	55.16	7.75	-50.6	-70.8	3.8	7.45e-01	0	37	104	0	71	39959
2026-01-22 23:23:30.25	55.50	7.81	-50.6	-70.7	3.8	7.46e-01	0	37	104	0	71	39588
2026-01-22 23:23:32.23	55.84	7.88	-50.6	-70.7	3.8	7.46e-01	0	37	104	0	71	39258
2026-01-22 23:23:34.22	56.19	7.95	-50.6	-70.6	3.8	7.44e-01	0	37	104	0	71	39057
2026-01-22 23:23:36.21	56.54	8.02	-50.6	-70.6	3.8	7.49e-01	0	37	104	0	71	39074
2026-01-22 23:23:38.19	56.89	8.08	-50.6	-70.7	3.8	7.45e-01	0	37	104	0	71	39513
2026-01-22 23:23:40.18	57.24	8.15	-50.6	-70.9	3.8	7.47e-01	0	38	104	0	71	40217
2026-01-22 23:23:42.16	57.59	8.21	-50.6	-70.8	3.8	7.48e-01	0	38	104	0	71	39957
2026-01-22 23:23:44.15	57.95	8.28	-50.6	-70.6	3.8	7.47e-01	0	38	104	0	71	39119
2026-01-22 23:23:46.13	58.30	8.34	-50.6	-70.4	3.8	7.44e-01	0	38	104	0	71	37828
2026-01-22 23:23:48.12	58.66	8.40	-50.6	-70.3	3.8	7.44e-01	0	38	104	0	71	37445
2026-01-22 23:23:50.11	59.02	8.46	-50.6	-70.6	3.8	7.46e-01	0	38	104	0	71	38953
2026-01-22 23:23:52.09	59.38	8.52	-50.6	-70.7	3.8	7.43e-01	0	38	104	0	71	39566
2026-01-22 23:23:54.08	59.74	8.58	-50.6	-70.8	3.8	7.44e-01	0	38	104	0	71	39836
2026-01-22 23:23:56.06	60.10	8.64	-50.6	-70.8	3.8	7.44e-01	0	37	104	0	71	39807
2026-01-22 23:23:58.05	60.47	8.70	-50.6	-70.8	3.8	7.45e-01	0	38	104	0	71	40021
2026-01-22 23:24:00.03	60.84	8.76	-50.6	-70.9	3.8	7.43e-01	0	38	104	0	71	40214
2026-01-22 23:24:02.02	61.21	8.82	-50.6	-70.2	3.8	7.45e-01	0	38	104	0	71	37325
2026-01-22 23:24:04.01	61.58	8.87	-50.6	-67.7	4.1	7.32e-01	0	38	104	0	71	27786
2026-01-22 23:24:05.99	61.95	8.93	-50.5	-66.7	4.4	7.44e-01	0	38	104	0	71	24786
2026-01-22 23:24:07.98	62.32	8.98	-49.8	-59.0	10.4	6.12e-01	0	38	0	1572864	71	10262
2026-01-22 23:24:09.97	62.70	9.03	-47.2	-51.6	18.0	6.02e-01	0	38	0	5242880	66	5831
2026-01-22 23:24:11.95	63.07	9.09	-46.2	-49.9	19.5	6.00e-01	0	38	0	8912896	64	5370
2026-01-22 23:24:13.94	63.45	9.14	-49.8	-58.8	10.6	6.13e-01	0	38	0	11010048	71	10040
2026-01-22 23:24:15.93	63.83	9.19	-49.7	-58.7	11.0	6.13e-01	0	38	0	14680064	71	9890
2026-01-22 23:24:17.92	64.21	9.24	-48.9	-55.7	14.1	6.04e-01	0	38	0	18350080	69	7831
2026-01-22 23:24:19.93	64.60	9.29	-47.7	-52.6	17.1	6.02e-01	0	38	0	22544384	67	6165
2026-01-22 23:24:21.92	64.98	9.34	-46.6	-50.5	19.2	6.01e-01	0	38	0	25690112	65	5434
2026-01-22 23:24:23.91	65.37	9.38	-45.7	-48.9	20.8	6.03e-01	0	38	0	29884416	63	5074
2026-01-22 23:24:25.90	65.76	9.43	-44.6	-47.4	22.2	6.03e-01	0	38	0	33554432	61	4799
2026-01-22 23:24:27.89	66.14	9.48	-44.1	-46.8	22.9	6.02e-01	0	38	0	37224448	60	4707
2026-01-22 23:24:29.88	66.53	9.52	-44.1	-46.8	22.9	6.05e-01	0	38	0	40894464	59	5004
2026-01-22 23:24:31.88	66.93	9.56	-44.0	-46.7	23.0	6.02e-01	0	38	0	44564480	59	4980
2026-01-22 23:24:33.83	67.31	9.60	-44.0	-46.8	22.9	6.00e-01	0	38	0	48234496	59	4996
2026-01-22 23:24:35.79	67.70	9.64	-43.9	-46.7	23.1	5.99e-01	0	38	0	51904512	59	4937
2026-01-22 23:24:37.78	68.09	9.68	-44.0	-46.7	23.1	6.03e-01	0	38	0	55574528	59	4942
2026-01-22 23:24:39.77	68.49	9.72	-44.0	-46.7	23.0	6.01e-01	0	38	0	59244544	59	4981
2026-01-22 23:24:41.75	68.88	9.76	-44.1	-46.8	23.0	6.01e-01	0	38	0	62914560	59	5014
2026-01-22 23:24:43.74	69.28	9.80	-44.0	-46.7	23.1	6.06e-01	0	38	0	67108864	59	4930
2026-01-22 23:24:45.72	69.67	9.83	-43.9	-46.7	23.1	6.03e-01	0	38	0	70778880	59	4929
2026-01-22 23:24:47.71	70.07	9.87	-43.9	-46.6	23.1	6.00e-01	0	38	0	74448896	59	4924
2026-01-22 23:24:49.78	70.49	9.90	-43.9	-46.6	23.2	6.01e-01	0	38	0	78118912	59	4905
2026-01-22 23:24:51.97	70.93	9.94	-44.0	-46.8	23.0	5.99e-01	0	38	0	82313216	59	4999
2026-01-22 23:24:53.99	71.34	9.97	-44.0	-46.8	23.0	6.05e-01	0	38	0	85983232	59	4988
2026-01-22 23:24:56.00	71.75	10.00	-43.9	-46.6	23.2	6.04e-01	0	38	0	89653248	59	4919
2026-01-22 23:24:58.02	72.16	10.03	-43.8	-46.7	23.1	6.01e-01	0	38	0	93847552	59	4927
2026-01-22 23:25:00.01	72.56	10.06	-43.8	-46.6	23.2	6.04e-01	0	38	0	97517568	59	4873
2026-01-22 23:25:02.02	72.97	10.08	-43.9	-46.6	23.2	6.02e-01	0	38	0	101187584	59	4901
2026-01-22 23:25:04.10	73.40	10.11	-43.8	-46.5	23.3	6.02e-01	0	38	0	104857600	59	4849
2026-01-22 23:25:06.27	73.84	10.14	-43.8	-46.5	22.8	6.02e-01	0	38	0	109051904	59	4843
2026-01-22 23:25:08.32	74.26	10.16	-43.8	-46.5	23.3	6.00e-01	0	38	0	112721920	59	4832
2026-01-22 23:25:10.31	74.67	10.18	-43.8	-46.6	23.2	6.02e-01	0	38	0	116916224	59	4904
2026-01-22 23:25:12.30	75.08	10.20	-43.7	-46.4	23.3	6.01e-01	0	38	0	120586240	59	4807
2026-01-22 23:25:14.29	75.49	10.22	-43.8	-46.5	23.3	6.01e-01	0	38	0	124256256	59	4864
2026-01-22 23:25:16.28	75.90	10.24	-43.9	-46.5	23.2	6.01e-01	0	38	0	127926272	59	4860
2026-01-22 23:25:18.27	76.32	10.26	-43.9	-46.5	23.3	5.99e-01	0	38	0	131596288	59	4861
2026-01-22 23:25:20.33	76.74	10.27	-43.7	-46.5	23.3	6.02e-01	0	38	0	135790592	59	4842
2026-01-22 23:25:22.43	77.18	10.29	-43.7	-46.5	23.3	6.00e-01	0	38	0	139460608	59	4860
2026-01-22 23:25:24.49	77.61	10.30	-43.6	-46.4	23.4	6.03e-01	0	38	0	143130624	59	4773
2026-01-22 23:25:26.54	78.03	10.31	-43.8	-46.6	23.2	6.02e-01	0	38	0	147324928	59	4875
2026-01-22 23:25:28.53	78.44	10.32	-43.9	-46.6	23.2	6.02e-01	0	38	0	150994944	59	4874
2026-01-22 23:25:30.52	78.86	10.33	-43.8	-46.5	23.4	6.02e-01	0	38	0	154664960	59	4828
2026-01-22 23:25:32.63	79.30	10.34	-43.8	-46.5	23.3	6.01e-01	0	38	0	158859264	59	4828
2026-01-22 23:25:34.69	79.73	10.35	-43.7	-46.4	23.4	6.01e-01	0	38	0	162529280	59	4777
2026-01-22 23:25:36.73	80.15	10.35	-43.8	-46.5	23.3	6.00e-01	0	38	0	166199296	59	4868
2026-01-22 23:25:38.72	80.57	10.36	-43.7	-46.5	23.3	6.02e-01	0	38	0	169869312	59	4854
2026-01-22 23:25:40.71	80.98	10.36	-43.7	-46.5	23.3	6.01e-01	0	38	0	173539328	59	4836
2026-01-22 23:25:42.71	81.40	10.36	-43.6	-46.4	23.4	6.01e-01	0	38	0	177209344	59	4783
2026-01-22 23:25:44.70	81.81	10.36	-43.8	-46.6	23.3	6.02e-01	0	38	0	181403648	59	4873
2026-01-22 23:25:46.72	82.24	10.36	-43.8	-46.5	23.3	6.02e-01	0	38	0	185073664	59	4856
2026-01-22 23:25:48.71	82.65	10.36	-43.8	-46.5	23.2	6.02e-01	0	38	0	188743680	59	4867
2026-01-22 23:25:50.70	83.07	10.35	-43.7	-46.4	23.4	6.02e-01	0	38	0	192413696	59	4791
2026-01-22 23:25:52.71	83.48	10.35	-43.7	-46.4	23.4	6.02e-01	0	38	0	196083712	59	4812
2026-01-22 23:25:54.94	83.95	10.34	-43.7	-46.5	23.3	6.02e-01	0	38	0	200278016	59	4855
2026-01-22 23:25:56.94	84.37	10.33	-43.7	-46.5	23.3	6.00e-01	0	38	0	203948032	59	4829
2026-01-22 23:25:58.93	84.78	10.32	-43.7	-46.4	23.4	6.02e-01	0	38	0	208142336	59	4796
2026-01-22 23:26:00.92	85.19	10.31	-43.7	-46.5	23.3	6.01e-01	0	38	0	211812352	59	4833
2026-01-22 23:26:02.92	85.61	10.30	-43.7	-46.5	23.2	6.03e-01	0	38	0	215482368	59	4867
2026-01-22 23:26:05.01	86.04	10.29	-43.7	-46.5	23.2	6.02e-01	0	38	0	219152384	59	4849
2026-01-22 23:26:07.19	86.50	10.27	-43.7	-46.4	23.3	5.99e-01	0	38	0	223346688	59	4797
2026-01-22 23:26:09.43	86.96	10.26	-43.7	-46.6	23.2	6.02e-01	0	38	0	227540992	59	4880
2026-01-22 23:26:11.45	87.38	10.24	-43.7	-46.5	23.3	6.01e-01	0	38	0	231211008	59	4821
2026-01-22 23:26:13.44	87.79	10.22	-43.9	-46.6	23.1	6.02e-01	0	38	0	234881024	59	4914
2026-01-22 23:26:15.43	88.20	10.20	-43.8	-46.5	23.2	6.04e-01	0	38	0	239075328	59	4850
2026-01-22 23:26:17.43	88.61	10.18	-43.8	-46.6	23.2	6.01e-01	0	38	0	242745344	59	4879
2026-01-22 23:26:19.46	89.03	10.16	-43.8	-46.5	23.2	6.00e-01	0	38	0	246415360	59	4850
2026-01-22 23:26:21.45	89.44	10.14	-43.9	-46.6	23.1	6.02e-01	0	38	0	250085376	59	4908
2026-01-22 23:26:23.55	89.87	10.11	-43.9	-46.6	23.1	6.00e-01	0	38	0	254279680	59	4895
2026-01-22 23:26:25.60	90.29	10.09	-43.9	-46.6	23.1	6.00e-01	0	38	0	257949696	59	4890
2026-01-22 23:26:27.66	90.71	10.06	-43.8	-46.5	23.3	6.00e-01	0	38	0	261619712	59	4850
2026-01-22 23:26:29.72	91.13	10.03	-43.9	-46.5	23.2	6.04e-01	0	38	0	265814016	59	4853
2026-01-22 23:26:31.78	91.55	10.00	-44.0	-46.6	23.1	6.01e-01	0	38	0	269484032	59	4924
2026-01-22 23:26:33.83	91.97	9.97	-43.8	-46.5	23.2	6.02e-01	0	38	0	273154048	59	4847
2026-01-22 23:26:35.82	92.37	9.94	-43.9	-46.6	23.1	6.02e-01	0	38	0	276824064	59	4876
2026-01-22 23:26:37.83	92.78	9.90	-44.0	-46.7	22.9	6.02e-01	0	38	0	281018368	59	4948
2026-01-22 23:26:39.82	93.18	9.87	-43.9	-46.6	23.1	6.03e-01	0	38	0	284688384	59	4905
2026-01-22 23:26:41.81	93.58	9.84	-43.9	-46.6	23.0	5.99e-01	0	38	0	288358400	59	4916
2026-01-22 23:26:43.87	94.00	9.80	-43.9	-46.6	22.9	6.01e-01	0	38	0	292028416	59	4886
2026-01-22 23:26:45.86	94.39	9.76	-44.0	-46.7	22.8	6.01e-01	0	38	0	295698432	59	4981
2026-01-22 23:26:47.88	94.80	9.72	-44.0	-46.7	22.9	6.00e-01	0	38	0	299368448	59	4980
2026-01-22 23:26:49.86	95.19	9.68	-43.9	-46.7	23.0	6.00e-01	0	38	0	303562752	59	4943
2026-01-22 23:26:51.85	95.59	9.64	-44.0	-46.8	22.9	5.99e-01	0	38	0	307232768	59	4989
2026-01-22 23:26:53.84	95.98	9.60	-44.0	-46.8	22.9	6.01e-01	0	38	0	310902784	59	5014
2026-01-22 23:26:55.88	96.39	9.56	-44.1	-46.8	22.9	6.03e-01	0	38	0	314572800	59	5015
2026-01-22 23:26:57.87	96.78	9.52	-44.0	-46.7	22.9	6.02e-01	0	38	0	318242816	59	4952
2026-01-22 23:26:59.86	97.17	9.47	-44.1	-46.8	22.8	5.99e-01	0	38	0	321912832	59	5013
2026-01-22 23:27:01.85	97.56	9.43	-44.1	-46.8	22.5	6.03e-01	0	38	0	326107136	59	5019
2026-01-22 23:27:04.09	97.99	9.37	-44.2	-46.9	22.7	6.02e-01	0	38	0	330301440	59	5076
2026-01-22 23:27:06.08	98.38	9.33	-44.2	-47.0	22.7	6.02e-01	0	38	0	333971456	59	5119
2026-01-22 23:27:08.08	98.77	9.28	-44.2	-46.9	22.8	6.01e-01	0	38	0	337641472	59	5071
2026-01-22 23:27:10.09	99.16	9.23	-44.2	-46.9	22.8	6.03e-01	0	38	0	341311488	59	5069
2026-01-22 23:27:12.08	99.54	9.18	-44.2	-47.0	22.8	6.05e-01	0	38	0	344981504	59	5103
2026-01-22 23:27:14.07	99.92	9.13	-44.3	-47.1	22.6	6.04e-01	0	38	0	348651520	59	5164
2026-01-22 23:27:16.06	100.30	9.07	-44.2	-47.0	22.7	6.01e-01	0	38	0	352321536	59	5121
2026-01-22 23:27:18.26	100.72	9.02	-44.3	-47.1	22.6	6.01e-01	0	38	0	356515840	59	5208
2026-01-22 23:27:20.24	101.09	8.96	-51.1	-71.3	3.8	7.49e-01	0	38	104	358088704	72	39854
2026-01-22 23:27:22.23	101.47	8.91	-51.0	-71.4	3.8	7.45e-01	0	38	104	358088704	73	38166
2026-01-22 23:27:24.22	101.84	8.85	-50.7	-71.5	3.8	7.46e-01	0	38	104	358088704	73	38554
2026-01-22 23:27:26.24	102.22	8.79	-50.6	-71.6	3.8	7.44e-01	0	38	104	358088704	72	41097
2026-01-22 23:27:28.29	102.60	8.73	-50.5	-71.6	3.8	7.42e-01	0	38	104	358088704	72	41189
2026-01-22 23:27:30.35	102.98	8.67	-50.6	-71.6	3.8	7.49e-01	0	38	104	358088704	72	41332
2026-01-22 23:27:32.40	103.36	8.61	-50.8	-71.6	3.8	7.44e-01	0	38	104	358088704	72	41358
2026-01-22 23:27:34.59	103.76	8.55	-51.0	-71.6	3.8	7.46e-01	0	38	104	358088704	72	41327
2026-01-22 23:27:36.80	104.17	8.48	-50.6	-71.6	3.8	7.45e-01	0	38	104	358088704	72	41317
2026-01-22 23:27:38.79	104.53	8.42	-50.8	-71.6	3.8	7.45e-01	0	38	104	358088704	72	41406
2026-01-22 23:27:40.79	104.89	8.35	-51.1	-71.6	3.8	7.48e-01	0	38	104	358088704	72	41185
2026-01-22 23:27:42.79	105.25	8.29	-51.0	-71.6	3.8	7.50e-01	0	38	104	358088704	72	41064
2026-01-22 23:27:44.79	105.61	8.22	-51.0	-71.6	3.8	7.46e-01	0	38	104	358088704	72	41016
2026-01-22 23:27:46.78	105.97	8.16	-51.0	-71.5	3.8	7.43e-01	0	38	104	358088704	72	40950
2026-01-22 23:27:48.78	106.33	8.09	-51.0	-71.6	3.8	7.44e-01	0	38	104	358088704	72	41073
2026-01-22 23:27:50.77	106.68	8.03	-51.0	-71.6	3.8	7.47e-01	0	38	104	358088704	72	41016
2026-01-22 23:27:52.76	107.03	7.96	-51.0	-71.5	3.8	7.44e-01	0	38	104	358088704	72	40977
2026-01-22 23:27:54.76	107.38	7.89	-51.0	-71.5	3.8	7.49e-01	0	38	104	358088704	72	40946
2026-01-22 23:27:56.74	107.72	7.82	-51.0	-71.5	3.8	7.47e-01	0	38	104	358088704	72	40929
2026-01-22 23:27:58.73	108.07	7.76	-51.0	-71.5	3.8	7.45e-01	0	38	104	358088704	72	40893
2026-01-22 23:28:00.72	108.41	7.69	-51.0	-71.5	3.8	7.44e-01	0	38	104	358088704	72	40898
2026-01-22 23:28:02.70	108.75	7.62	-51.0	-71.5	3.8	7.47e-01	0	38	104	358088704	72	40894
2026-01-22 23:28:04.69	109.09	7.54	-51.0	-71.5	3.8	7.44e-01	0	38	104	358088704	72	40835
2026-01-22 23:28:06.68	109.43	7.47	-51.0	-71.5	3.8	7.46e-01	0	38	104	358088704	72	40833
2026-01-22 23:28:08.68	109.77	7.40	-51.0	-71.5	3.8	7.49e-01	0	38	104	358088704	72	40822
2026-01-22 23:28:10.67	110.11	7.33	-51.0	-71.5	3.8	7.44e-01	0	38	104	358088704	72	40739
2026-01-22 23:28:12.67	110.44	7.26	-51.0	-71.5	3.8	7.45e-01	0	38	104	358088704	72	40858
2026-01-22 23:28:14.67	110.78	7.18	-51.0	-71.5	3.8	7.49e-01	0	38	104	358088704	72	40835
2026-01-22 23:28:16.67	111.11	7.11	-51.0	-71.5	3.8	7.44e-01	0	38	104	358088704	72	40814
2026-01-22 23:28:18.66	111.44	7.03	-51.0	-71.5	3.8	7.46e-01	0	38	104	358088704	72	40858
2026-01-22 23:28:20.64	111.76	6.96	-50.9	-71.5	3.8	7.48e-01	0	38	104	358088704	72	40764
2026-01-22 23:28:22.63	112.08	6.88	-51.0	-71.5	3.8	7.48e-01	0	38	104	358088704	72	40884
2026-01-22 23:28:24.63	112.41	6.80	-50.9	-71.5	3.8	7.43e-01	0	38	104	358088704	72	40764
2026-01-22 23:28:26.63	112.73	6.73	-51.0	-71.5	3.8	7.45e-01	0	38	104	358088704	72	40699
2026-01-22 23:28:28.62	113.05	6.65	-50.9	-71.5	3.8	7.49e-01	0	38	104	358088704	72	40737
2026-01-22 23:28:30.61	113.37	6.57	-51.0	-71.5	3.8	7.43e-01	0	38	104	358088704	72	40644
2026-01-22 23:28:32.59	113.68	6.50	-50.9	-71.5	3.8	7.46e-01	0	38	104	358088704	72	40709
2026-01-22 23:28:34.58	114.00	6.42	-50.9	-71.5	3.8	7.44e-01	0	38	104	358088704	72	40777
2026-01-22 23:28:36.57	114.31	6.34	-50.9	-71.5	3.8	7.48e-01	0	38	104	358088704	72	40709
2026-01-22 23:28:38.55	114.62	6.26	-50.9	-71.5	3.8	7.45e-01	0	38	104	358088704	72	40656
2026-01-22 23:28:40.54	114.93	6.18	-50.9	-71.5	3.8	7.45e-01	0	38	104	358088704	72	40701
2026-01-22 23:28:42.54	115.23	6.10	-50.9	-71.5	3.8	7.45e-01	0	38	104	358088704	72	40692
2026-01-22 23:28:44.53	115.54	6.02	-50.9	-71.5	3.8	7.45e-01	0	38	104	358088704	72	40653
2026-01-22 23:28:46.51	115.84	5.94	-50.9	-71.5	3.8	7.46e-01	0	38	104	358088704	72	40671
2026-01-22 23:28:48.50	116.14	5.86	-50.9	-71.5	3.8	7.46e-01	0	38	104	358088704	72	40638
2026-01-22 23:28:50.49	116.44	5.78	-50.9	-71.5	3.8	7.45e-01	0	38	104	358088704	72	40665
2026-01-22 23:28:52.48	116.74	5.69	-50.9	-71.5	3.8	7.45e-01	0	38	104	358088704	72	40639
2026-01-22 23:28:54.46	117.03	5.61	-50.9	-71.5	3.8	7.43e-01	0	38	104	358088704	72	40604
2026-01-22 23:28:56.46	117.33	5.53	-50.9	-71.5	3.8	7.46e-01	0	38	104	358088704	72	40578
2026-01-22 23:28:58.45	117.62	5.45	-50.9	-71.5	3.8	7.44e-01	0	38	104	358088704	72	40653
2026-01-22 23:29:00.44	117.91	5.36	-50.9	-71.5	3.8	7.46e-01	0	38	104	358088704	72	40625
2026-01-22 23:29:02.42	118.20	5.28	-50.9	-71.5	3.8	7.45e-01	0	38	104	358088704	72	40647
2026-01-22 23:29:04.42	118.49	5.20	-50.9	-71.4	3.8	7.46e-01	0	38	104	358088704	72	40496
2026-01-22 23:29:06.41	118.78	5.11	-50.9	-71.4	3.8	7.44e-01	0	38	104	358088704	72	40508
2026-01-22 23:29:08.40	119.06	5.03	-50.9	-71.4	3.8	7.45e-01	0	38	104	358088704	72	40503
2026-01-22 23:29:10.38	119.34	4.94	-50.9	-71.5	3.8	7.46e-01	0	38	104	358088704	72	40540

#Closed at: 2026-01-22 23:29:11
#Recorded file [358 MB]: D:/Data/31040_260123_022218.dat