passes_logs/2026/01/22/T1/T1__20260122_145638_FENGYUN_3E_rec.log

#Pass ID: 20260122_145638_FENGYUN 3E
#Satellite: FENGYUN 3E
#Configuration: FENGYUN 3E
#almurnet v.1.7.20251203
#Start time: 2026-01-22 14:56:38

#Version: 2.0.20230620
#Station: T1
#Location: 37.570604 lon 55.790049 lat
#TLE: 1 49008U 21062A   26021.55921410  .00000414  00000+0  21575-3 0  9991
#TLE: 2 49008  98.7483  26.6103 0002287 125.5068 234.6322 14.19887394235776

#Time	Az	El	Level	Level2	SNR	BER	BlckErr	Temp	State	Recorded	gain1	gain2
2026-01-22 14:56:38.34	183.57	5.01	-49.4	-60.7	3.8	8.48e-01	0	35	104	0	69	13086
2026-01-22 14:56:41.32	183.70	5.21	-49.3	-60.7	3.8	8.47e-01	0	35	104	0	69	13059
2026-01-22 14:56:44.29	183.82	5.42	-49.3	-60.5	3.8	8.46e-01	0	36	104	0	69	12771
2026-01-22 14:56:47.27	183.95	5.63	-49.3	-60.6	3.8	8.46e-01	0	36	104	0	69	12876
2026-01-22 14:56:50.25	184.09	5.84	-49.3	-60.7	3.8	8.47e-01	0	36	104	0	69	13045
2026-01-22 14:56:53.23	184.22	6.05	-49.3	-60.5	3.8	8.46e-01	0	36	104	0	69	12749
2026-01-22 14:56:56.21	184.35	6.27	-49.3	-60.3	3.8	8.47e-01	0	36	104	0	69	12493
2026-01-22 14:56:59.19	184.49	6.49	-49.3	-60.6	3.8	8.47e-01	0	36	104	0	69	12926
2026-01-22 14:57:02.17	184.63	6.70	-49.2	-60.0	3.8	8.47e-01	0	36	104	0	69	12017
2026-01-22 14:57:05.15	184.77	6.92	-48.9	-57.7	4.1	8.42e-01	0	36	0	0	68	9777
2026-01-22 14:57:08.13	184.92	7.14	-49.0	-58.2	3.8	8.44e-01	0	37	104	0	68	10365
2026-01-22 14:57:11.11	185.06	7.37	-49.3	-60.1	3.8	8.47e-01	0	37	104	0	68	12831
2026-01-22 14:57:14.09	185.21	7.59	-46.3	-49.9	9.6	3.47e-02	0	37	0	9437184	63	5296
2026-01-22 14:57:17.07	185.36	7.82	-42.1	-43.9	15.3	0.00e+00	0	37	0	30408704	55	4230
2026-01-22 14:57:20.05	185.51	8.05	-39.7	-41.2	18.0	0.00e+00	0	37	0	52428800	50	4099
2026-01-22 14:57:23.03	185.66	8.28	-39.3	-40.8	18.3	0.00e+00	0	37	0	73400320	49	4168
2026-01-22 14:57:26.01	185.82	8.51	-40.7	-42.3	16.9	0.00e+00	0	37	0	95420416	50	4702
2026-01-22 14:57:28.99	185.98	8.74	-43.7	-45.9	13.6	2.20e-06	0	37	0	116391936	56	5028
2026-01-22 14:57:31.96	186.14	8.98	-46.4	-50.1	9.3	1.31e-02	0	37	0	138412032	62	5770
2026-01-22 14:57:34.95	186.30	9.22	-42.7	-44.7	14.8	1.10e-06	0	37	0	159383552	56	4358
2026-01-22 14:57:37.95	186.47	9.46	-42.1	-43.9	15.5	0.00e+00	0	37	0	177209344	54	4467
2026-01-22 14:57:40.93	186.64	9.70	-40.9	-42.5	16.8	0.00e+00	0	37	0	198180864	52	4272
2026-01-22 14:57:43.92	186.81	9.95	-40.0	-41.5	17.8	0.00e+00	0	37	0	220200960	50	4289
2026-01-22 14:57:46.90	186.99	10.20	-38.8	-40.3	18.9	0.00e+00	0	37	0	242221056	48	4154
2026-01-22 14:57:49.89	187.16	10.45	-39.0	-40.5	18.7	0.00e+00	0	37	0	263192576	48	4251
2026-01-22 14:57:52.85	187.34	10.70	-38.6	-40.0	19.1	0.00e+00	0	37	0	285212672	48	4045
2026-01-22 14:57:55.84	187.53	10.95	-38.3	-39.8	19.1	0.00e+00	0	37	0	306184192	47	4153
2026-01-22 14:57:58.82	187.71	11.21	-38.3	-39.7	19.1	0.00e+00	0	37	0	328204288	47	4135
2026-01-22 14:58:01.80	187.90	11.47	-38.2	-39.7	19.2	0.00e+00	0	38	0	349175808	46	4346
2026-01-22 14:58:04.79	188.10	11.73	-38.2	-39.7	19.2	0.00e+00	0	38	0	371195904	46	4370
2026-01-22 14:58:07.82	188.29	12.00	-38.1	-39.5	19.3	0.00e+00	0	37	0	393216000	46	4279
2026-01-22 14:58:11.09	188.51	12.29	-38.1	-39.6	19.3	0.00e+00	0	38	0	416284672	46	4309
2026-01-22 14:58:13.82	188.70	12.54	-37.9	-39.4	19.4	0.00e+00	0	38	0	436207616	46	4236
2026-01-22 14:58:17.09	188.93	12.84	-38.0	-39.5	19.4	0.00e+00	0	37	0	460324864	46	4244
2026-01-22 14:58:19.82	189.12	13.09	-37.9	-39.4	19.4	0.00e+00	0	38	0	479199232	46	4234
2026-01-22 14:58:23.10	189.35	13.40	-37.7	-39.2	19.6	0.00e+00	0	38	0	503316480	46	4145
2026-01-22 14:58:25.85	189.55	13.66	-37.7	-39.2	19.6	0.00e+00	0	38	0	523239424	45	4364
2026-01-22 14:58:29.26	189.81	13.98	-37.6	-39.1	19.8	0.00e+00	0	38	0	547356672	45	4298
2026-01-22 14:58:31.96	190.01	14.24	-37.6	-39.1	19.8	0.00e+00	0	38	0	567279616	45	4307
2026-01-22 14:58:35.26	190.27	14.56	-37.4	-38.8	20.0	0.00e+00	0	38	0	591396864	45	4190
2026-01-22 14:58:37.98	190.48	14.83	-37.2	-38.7	20.1	0.00e+00	0	38	0	610271232	45	4121
2026-01-22 14:58:41.26	190.75	15.16	-37.1	-38.5	20.3	0.00e+00	0	38	0	634388480	45	4042
2026-01-22 14:58:44.10	190.98	15.44	-37.1	-38.6	20.3	0.00e+00	0	38	0	654311424	44	4298
2026-01-22 14:58:47.23	191.24	15.76	-36.7	-38.1	20.6	0.00e+00	0	38	0	677380096	44	4082
2026-01-22 14:58:50.07	191.48	16.05	-37.0	-38.4	20.4	0.00e+00	0	38	0	697303040	44	4217
2026-01-22 14:58:53.19	191.76	16.38	-36.7	-38.1	20.7	0.00e+00	0	38	0	720371712	44	4085
2026-01-22 14:58:56.03	192.01	16.68	-36.8	-38.2	20.6	0.00e+00	0	38	0	740294656	44	4114
2026-01-22 14:58:59.36	192.31	17.03	-36.4	-37.8	20.8	0.00e+00	0	38	0	764411904	43	4170
2026-01-22 14:59:02.30	192.58	17.35	-36.5	-37.9	20.6	0.00e+00	0	38	0	786432000	43	4228
2026-01-22 14:59:05.45	192.88	17.69	-36.4	-37.7	20.9	0.00e+00	0	38	0	808452096	43	4140
2026-01-22 14:59:08.29	193.15	18.00	-36.1	-37.5	21.1	0.00e+00	0	38	0	829423616	43	4013
2026-01-22 14:59:11.42	193.46	18.35	-36.1	-37.5	21.1	0.00e+00	0	38	0	851443712	42	4250
2026-01-22 14:59:14.26	193.75	18.67	-36.0	-37.3	21.3	0.00e+00	0	38	0	872415232	42	4158
2026-01-22 14:59:17.39	194.07	19.03	-36.0	-37.3	21.2	0.00e+00	0	38	0	895483904	42	4178
2026-01-22 14:59:20.27	194.37	19.36	-36.0	-37.3	21.2	0.00e+00	0	38	0	915406848	41	4435
2026-01-22 14:59:23.53	194.72	19.74	-35.9	-37.2	21.1	0.00e+00	0	38	0	939524096	41	4390
2026-01-22 14:59:26.28	195.02	20.06	-35.9	-37.2	21.2	0.00e+00	0	38	0	959447040	41	4389
2026-01-22 14:59:29.55	195.39	20.45	-35.8	-37.2	21.3	0.00e+00	0	38	0	982515712	41	4346
2026-01-22 14:59:32.28	195.71	20.78	-36.1	-37.5	20.9	0.00e+00	0	38	0	1002438656	41	4525
2026-01-22 14:59:35.55	196.09	21.18	-36.0	-37.5	20.9	0.00e+00	0	38	0	1026555904	42	4247
2026-01-22 14:59:38.64	196.46	21.56	-35.8	-37.2	21.2	0.00e+00	0	38	0	1048576000	42	4102
2026-01-22 14:59:42.26	196.91	22.02	-35.6	-37.0	21.4	0.00e+00	0	38	0	1074790400	41	4266
2026-01-22 14:59:45.10	197.27	22.38	-35.6	-37.0	21.3	0.00e+00	0	38	0	1094713344	41	4256
2026-01-22 14:59:49.11	197.79	22.89	-35.4	-36.7	21.6	0.00e+00	0	38	0	1124073472	41	4136
2026-01-22 14:59:51.83	198.16	23.25	-35.4	-36.7	21.6	0.00e+00	0	38	0	1143996416	41	4143
2026-01-22 14:59:55.13	198.61	23.68	-35.5	-36.8	21.5	0.00e+00	0	38	0	1167065088	41	4179
2026-01-22 14:59:58.51	199.09	24.13	-35.5	-36.8	21.6	0.00e+00	0	38	0	1192230912	41	4177
2026-01-22 15:00:01.40	199.51	24.52	-35.6	-36.9	21.5	0.00e+00	0	38	0	1213202432	40	4473
2026-01-22 15:00:05.17	200.07	25.04	-35.2	-36.4	21.9	0.00e+00	0	38	0	1239416832	40	4234
2026-01-22 15:00:07.88	200.48	25.41	-35.0	-36.3	22.0	0.00e+00	0	38	0	1259339776	40	4154
2026-01-22 15:00:11.18	201.00	25.88	-35.1	-36.4	21.9	0.00e+00	0	38	0	1283457024	40	4210
2026-01-22 15:00:13.91	201.44	26.26	-35.0	-36.3	21.9	0.00e+00	0	38	0	1303379968	40	4148
2026-01-22 15:00:17.20	201.99	26.73	-35.2	-36.5	21.7	0.00e+00	0	38	0	1326448640	40	4267
2026-01-22 15:00:20.20	202.50	27.17	-34.8	-36.1	22.0	0.00e+00	0	38	0	1348468736	40	4072
2026-01-22 15:00:23.48	203.07	27.65	-34.8	-36.0	22.2	0.00e+00	0	38	0	1371537408	40	4041
2026-01-22 15:00:26.21	203.56	28.05	-34.7	-36.0	22.2	0.00e+00	0	38	0	1391460352	40	4015
2026-01-22 15:00:29.51	204.17	28.54	-34.7	-36.0	22.3	0.00e+00	0	38	0	1415577600	40	4013
2026-01-22 15:00:32.23	204.69	28.95	-34.7	-36.0	22.3	0.00e+00	0	38	0	1435500544	40	4020
2026-01-22 15:00:35.51	205.33	29.45	-34.8	-36.1	22.3	0.00e+00	0	38	0	1458569216	39	4314
2026-01-22 15:00:38.44	205.92	29.90	-35.0	-36.3	22.1	0.00e+00	0	38	0	1480589312	39	4393
2026-01-22 15:00:41.72	206.60	30.41	-34.9	-36.2	22.2	0.00e+00	0	38	0	1503657984	39	4345
2026-01-22 15:00:44.47	207.18	30.84	-34.8	-36.1	22.2	0.00e+00	0	38	0	1523580928	39	4315
2026-01-22 15:00:47.75	207.90	31.36	-34.9	-36.2	22.0	0.00e+00	0	38	0	1547698176	39	4384
2026-01-22 15:00:50.48	208.52	31.79	-34.6	-36.0	22.2	0.00e+00	0	38	0	1566572544	39	4250
2026-01-22 15:00:53.72	209.27	32.31	-34.7	-36.0	22.2	0.00e+00	0	38	0	1590689792	39	4260
2026-01-22 15:00:56.81	210.01	32.81	-34.6	-35.9	22.3	0.00e+00	0	38	0	1612709888	39	4223
2026-01-22 15:00:59.81	210.75	33.29	-34.7	-35.9	22.3	0.00e+00	0	38	0	1634729984	39	4227
2026-01-22 15:01:02.79	211.51	33.78	-34.6	-35.8	22.3	0.00e+00	0	38	0	1655701504	39	4185
2026-01-22 15:01:05.77	212.28	34.26	-34.6	-35.8	22.4	0.00e+00	0	38	0	1677721600	39	4168
2026-01-22 15:01:08.76	213.09	34.75	-34.9	-36.1	22.2	0.00e+00	0	38	0	1698693120	39	4330
2026-01-22 15:01:11.86	213.95	35.26	-34.9	-36.2	22.2	0.00e+00	0	38	0	1721761792	39	4343
2026-01-22 15:01:14.84	214.80	35.75	-35.2	-36.5	21.8	0.00e+00	0	38	0	1742733312	40	4290
2026-01-22 15:01:17.82	215.68	36.24	-34.9	-36.2	22.2	0.00e+00	0	38	0	1764753408	40	4108
2026-01-22 15:01:20.80	216.58	36.73	-34.9	-36.1	22.2	0.00e+00	0	38	0	1785724928	40	4095
2026-01-22 15:01:23.88	217.55	37.24	-34.8	-36.1	22.1	0.00e+00	0	38	0	1807745024	40	4066
2026-01-22 15:01:26.79	218.48	37.72	-35.0	-36.3	21.9	0.00e+00	0	38	0	1829765120	40	4179
2026-01-22 15:01:30.54	219.73	38.33	-35.1	-36.3	21.9	0.00e+00	0	38	0	1855979520	40	4181
2026-01-22 15:01:33.26	220.66	38.77	-35.2	-36.4	21.9	0.00e+00	0	38	0	1875902464	40	4230
2026-01-22 15:01:36.54	221.83	39.30	-35.0	-36.3	22.1	0.00e+00	0	38	0	1900019712	40	4152
2026-01-22 15:01:39.25	222.81	39.73	-35.0	-36.3	22.1	0.00e+00	0	38	0	1918894080	40	4167
2026-01-22 15:01:42.52	224.04	40.25	-35.0	-36.3	22.1	0.00e+00	0	38	0	1943011328	40	4162
2026-01-22 15:01:45.24	225.09	40.67	-35.0	-36.3	22.0	0.00e+00	0	38	0	1962934272	40	4183
2026-01-22 15:01:48.73	226.47	41.21	-34.9	-36.2	22.1	0.00e+00	0	38	0	1987051520	40	4102
2026-01-22 15:01:51.47	227.59	41.62	-34.7	-36.0	22.2	0.00e+00	0	38	0	2006974464	40	4017
2026-01-22 15:01:54.75	228.97	42.10	-35.2	-36.4	22.0	0.00e+00	0	38	0	2031091712	40	4210
2026-01-22 15:01:57.59	230.20	42.51	-35.0	-36.2	22.3	0.00e+00	0	38	0	2052063232	40	4110
2026-01-22 15:02:01.21	231.80	43.01	-34.8	-36.0	22.4	0.00e+00	0	38	0	2077229056	40	4027
2026-01-22 15:02:03.97	233.06	43.39	-35.5	-36.9	21.7	0.00e+00	0	38	0	2097152000	40	4456
2026-01-22 15:02:07.24	234.59	43.81	-36.2	-37.1	22.2	0.00e+00	0	38	0	2121269248	42	4058
2026-01-22 15:02:09.96	235.89	44.15	-36.1	-37.0	22.3	0.00e+00	0	38	0	2141192192	42	4017
2026-01-22 15:02:13.23	237.50	44.54	-35.8	-36.6	22.6	0.00e+00	0	38	0	2164260864	42	3852
2026-01-22 15:02:16.10	238.93	44.87	-35.8	-36.6	22.6	0.00e+00	0	38	0	2185232384	42	3862
2026-01-22 15:02:19.23	240.53	45.20	-35.8	-36.6	22.7	0.00e+00	0	38	0	2207252480	42	3847
2026-01-22 15:02:22.07	242.01	45.49	-35.5	-36.4	22.8	0.00e+00	0	38	0	2228224000	41	3964
2026-01-22 15:02:25.30	243.73	45.79	-36.2	-37.1	22.2	0.00e+00	0	38	0	2251292672	41	4312
2026-01-22 15:02:28.14	245.26	46.03	-36.4	-37.3	21.9	0.00e+00	0	38	0	2272264192	42	4162
2026-01-22 15:02:31.38	247.03	46.29	-36.4	-37.3	22.1	0.00e+00	0	38	0	2295332864	42	4170
2026-01-22 15:02:34.22	248.61	46.48	-36.1	-36.9	22.3	0.00e+00	0	38	0	2316304384	42	3991
2026-01-22 15:02:37.35	250.37	46.67	-36.1	-36.9	22.3	0.00e+00	0	38	0	2338324480	42	3991
2026-01-22 15:02:40.19	251.99	46.82	-36.1	-36.9	22.3	0.00e+00	0	38	0	2359296000	42	4002
2026-01-22 15:02:43.31	253.78	46.96	-36.3	-37.1	22.2	0.00e+00	0	38	0	2381316096	42	4097
2026-01-22 15:02:46.16	255.43	47.05	-35.8	-36.6	22.7	0.00e+00	0	38	0	2402287616	42	3838
2026-01-22 15:02:49.52	257.38	47.14	-36.1	-37.0	22.3	0.00e+00	0	38	0	2426404864	42	4006
2026-01-22 15:02:52.66	259.21	47.18	-36.4	-37.3	22.0	0.00e+00	0	38	0	2449473536	42	4169
2026-01-22 15:02:55.96	261.14	47.19	-36.2	-37.1	22.3	0.00e+00	0	38	0	2472542208	42	4066
2026-01-22 15:02:58.72	262.76	47.18	-36.0	-36.8	22.5	0.00e+00	0	38	0	2492465152	42	3935
2026-01-22 15:03:02.04	264.69	47.13	-36.0	-36.8	22.5	0.00e+00	0	38	0	2516582400	42	3938
2026-01-22 15:03:04.77	266.28	47.06	-36.4	-37.2	22.1	0.00e+00	0	38	0	2536505344	42	4137
2026-01-22 15:03:08.15	268.23	46.94	-35.8	-36.6	22.6	0.00e+00	0	38	0	2560622592	42	3848
2026-01-22 15:03:11.21	269.98	46.81	-35.9	-36.8	22.5	0.00e+00	0	38	0	2582642688	42	3931
2026-01-22 15:03:15.11	272.19	46.59	-35.9	-36.8	22.5	0.00e+00	0	38	0	2610954240	42	3918
2026-01-22 15:03:17.95	273.78	46.41	-36.0	-36.9	22.4	0.00e+00	0	38	0	2631925760	42	3960
2026-01-22 15:03:21.93	275.98	46.12	-36.3	-37.2	22.1	0.00e+00	0	38	0	2660237312	42	4126
2026-01-22 15:03:24.77	277.51	45.88	-36.3	-37.1	22.2	0.00e+00	0	38	0	2681208832	42	4085
2026-01-22 15:03:28.92	279.72	45.50	-36.0	-36.9	22.4	0.00e+00	0	38	0	2710568960	42	3973
2026-01-22 15:03:31.76	281.20	45.22	-36.0	-36.8	22.5	0.00e+00	0	38	0	2731540480	42	3941
2026-01-22 15:03:35.74	283.23	44.79	-35.9	-36.8	22.5	0.00e+00	0	38	0	2759852032	42	3914
2026-01-22 15:03:38.63	284.66	44.46	-35.8	-36.7	22.6	0.00e+00	0	38	0	2780823552	42	3870
2026-01-22 15:03:42.17	286.38	44.03	-36.0	-36.8	22.5	0.00e+00	0	38	0	2805989376	42	3949
2026-01-22 15:03:44.89	287.67	43.69	-35.5	-36.3	22.9	0.00e+00	0	38	0	2825912320	41	3927
2026-01-22 15:03:48.17	289.19	43.26	-35.7	-36.6	22.7	0.00e+00	0	38	0	2850029568	41	4056
2026-01-22 15:03:50.89	290.41	42.89	-35.8	-36.7	22.4	0.00e+00	0	38	0	2869952512	41	4106
2026-01-22 15:03:54.16	291.85	42.43	-35.8	-36.7	22.4	0.00e+00	0	38	0	2893021184	41	4101
2026-01-22 15:03:57.03	293.08	42.02	-35.9	-36.7	22.4	0.00e+00	0	38	0	2913992704	41	4130
2026-01-22 15:04:00.16	294.39	41.56	-35.9	-36.7	22.3	0.00e+00	0	38	0	2936012800	41	4132
2026-01-22 15:04:03.00	295.54	41.13	-35.7	-36.5	22.6	0.00e+00	0	38	0	2956984320	41	4021
2026-01-22 15:04:06.19	296.80	40.64	-35.6	-36.4	22.7	0.00e+00	0	38	0	2980052992	41	3991
2026-01-22 15:04:09.31	297.99	40.16	-35.4	-36.3	22.8	0.00e+00	0	38	0	3002073088	41	3917
2026-01-22 15:04:12.15	299.05	39.71	-35.5	-36.3	22.8	0.00e+00	0	38	0	3023044608	41	3957
2026-01-22 15:04:15.32	300.20	39.21	-35.7	-36.5	22.6	0.00e+00	0	38	0	3046113280	41	4033
2026-01-22 15:04:18.27	301.23	38.73	-35.9	-36.8	22.2	0.00e+00	0	38	0	3067084800	41	4166
2026-01-22 15:04:21.52	302.34	38.21	-35.3	-36.1	22.9	0.00e+00	0	38	0	3090153472	41	3862
2026-01-22 15:04:24.28	303.25	37.76	-35.3	-36.1	23.0	0.00e+00	0	38	0	3110076416	41	3836
2026-01-22 15:04:27.82	304.38	37.18	-35.6	-36.4	22.7	0.00e+00	0	38	0	3136290816	41	3982
2026-01-22 15:04:30.55	305.23	36.74	-35.3	-36.1	22.9	0.00e+00	0	38	0	3155165184	41	3850
2026-01-22 15:04:33.83	306.22	36.20	-34.9	-35.7	23.3	0.00e+00	0	38	0	3179282432	40	3871
2026-01-22 15:04:36.56	307.02	35.75	-34.9	-35.7	23.1	0.00e+00	0	38	0	3199205376	40	3911
2026-01-22 15:04:39.86	307.96	35.21	-35.4	-36.2	22.8	0.00e+00	0	38	0	3223322624	40	4127
2026-01-22 15:04:42.68	308.74	34.75	-35.8	-36.6	22.6	0.00e+00	0	38	0	3243245568	41	4074
2026-01-22 15:04:46.43	309.74	34.14	-35.6	-36.5	22.7	0.00e+00	0	38	0	3270508544	41	4016
2026-01-22 15:04:49.21	310.45	33.69	-35.2	-36.0	22.9	0.00e+00	0	38	0	3290431488	41	3817
2026-01-22 15:04:52.48	311.27	33.16	-35.1	-35.9	23.2	0.00e+00	0	38	0	3313500160	40	3978
2026-01-22 15:04:55.21	311.94	32.72	-35.1	-35.9	23.1	0.00e+00	0	38	0	3333423104	40	3973
2026-01-22 15:04:58.58	312.74	32.19	-35.2	-36.0	23.0	0.00e+00	0	38	0	3357540352	40	4047
2026-01-22 15:05:01.31	313.36	31.75	-35.5	-36.3	22.7	0.00e+00	0	38	0	3377463296	40	4189
2026-01-22 15:05:04.75	314.13	31.21	-35.6	-36.4	22.6	0.00e+00	0	38	0	3402629120	40	4236
2026-01-22 15:05:07.46	314.72	30.79	-35.6	-36.4	22.7	0.00e+00	0	38	0	3422552064	40	4217
2026-01-22 15:05:10.77	315.41	30.28	-35.4	-36.3	22.8	0.00e+00	0	38	0	3445620736	40	4165
2026-01-22 15:05:13.49	315.97	29.86	-35.3	-36.2	22.9	0.00e+00	0	38	0	3465543680	40	4108
2026-01-22 15:05:16.71	316.61	29.37	-35.5	-36.3	22.7	0.00e+00	0	38	0	3488612352	40	4182
2026-01-22 15:05:19.95	317.24	28.88	-35.8	-36.6	22.5	0.00e+00	0	38	0	3512729600	41	4078
2026-01-22 15:05:22.85	317.78	28.45	-36.0	-36.8	22.3	0.00e+00	0	38	0	3533701120	41	4192
2026-01-22 15:05:26.12	318.38	27.96	-35.9	-36.8	22.4	0.00e+00	0	38	0	3556769792	41	4156
2026-01-22 15:05:28.94	318.88	27.55	-35.6	-36.5	22.6	0.00e+00	0	38	0	3577741312	41	4015
2026-01-22 15:05:32.07	319.42	27.10	-35.4	-36.2	22.9	0.00e+00	0	38	0	3599761408	41	3893
2026-01-22 15:05:34.91	319.90	26.69	-35.4	-36.2	22.8	0.00e+00	0	38	0	3619684352	41	3912
2026-01-22 15:05:38.04	320.42	26.25	-35.5	-36.3	22.7	0.00e+00	0	38	0	3642753024	41	3952
2026-01-22 15:05:40.88	320.87	25.85	-35.7	-36.5	22.6	0.00e+00	0	38	0	3663724544	41	4033
2026-01-22 15:05:44.01	321.36	25.41	-35.6	-36.5	22.6	0.00e+00	0	38	0	3685744640	41	4039
2026-01-22 15:05:46.84	321.79	25.02	-35.8	-36.7	22.4	0.00e+00	0	38	0	3706716160	41	4101
2026-01-22 15:05:49.97	322.26	24.60	-35.7	-36.6	22.5	0.00e+00	0	38	0	3728736256	41	4058
2026-01-22 15:05:52.83	322.67	24.22	-35.7	-36.5	22.5	0.00e+00	0	38	0	3749707776	41	4039
2026-01-22 15:05:56.12	323.14	23.78	-35.8	-36.7	22.4	0.00e+00	0	38	0	3772776448	41	4128
2026-01-22 15:05:58.88	323.52	23.42	-36.0	-36.9	22.3	0.00e+00	0	38	0	3793747968	41	4194
2026-01-22 15:06:02.15	323.96	22.99	-36.0	-36.9	22.0	0.00e+00	0	38	0	3816816640	41	4230
2026-01-22 15:06:05.10	324.34	22.62	-36.0	-36.8	22.3	0.00e+00	0	38	0	3837788160	41	4192
2026-01-22 15:06:08.75	324.81	22.15	-35.8	-36.7	22.4	0.00e+00	0	38	0	3865051136	41	4122
2026-01-22 15:06:11.59	325.16	21.80	-35.9	-36.7	22.2	0.00e+00	0	38	0	3884974080	41	4132
2026-01-22 15:06:15.58	325.65	21.31	-36.0	-36.9	22.2	0.00e+00	0	38	0	3913285632	41	4218
2026-01-22 15:06:18.42	325.98	20.96	-36.2	-37.1	22.0	0.00e+00	0	38	0	3934257152	41	4320
2026-01-22 15:06:22.19	326.42	20.51	-36.4	-37.3	21.8	0.00e+00	0	38	0	3961520128	42	4190
2026-01-22 15:06:25.12	326.75	20.16	-36.4	-37.3	21.8	0.00e+00	0	38	0	3982491648	42	4181
2026-01-22 15:06:28.10	327.07	19.81	-36.5	-37.4	21.8	0.00e+00	0	38	0	4004511744	42	4197
2026-01-22 15:06:31.09	327.40	19.47	-36.4	-37.3	21.8	0.00e+00	0	38	0	4025483264	42	4181
2026-01-22 15:06:34.07	327.71	19.13	-36.5	-37.4	21.8	0.00e+00	0	38	0	4047503360	42	4220
2026-01-22 15:06:37.18	328.03	18.77	-36.4	-37.3	21.8	0.00e+00	0	38	0	4069523456	42	4188
2026-01-22 15:06:40.03	328.32	18.46	-36.5	-37.4	21.7	0.00e+00	0	38	0	4090494976	42	4216
2026-01-22 15:06:43.15	328.63	18.11	-36.5	-37.4	21.7	0.00e+00	0	38	0	4112515072	42	4222
2026-01-22 15:06:46.37	328.94	17.76	-36.6	-37.6	21.3	0.00e+00	0	38	0	4135583744	42	4307
2026-01-22 15:06:49.43	329.23	17.43	-36.7	-37.6	21.5	0.00e+00	0	38	0	4157603840	42	4331
2026-01-22 15:06:52.69	329.53	17.08	-37.0	-37.9	21.3	0.00e+00	0	38	0	4181721088	43	4194
2026-01-22 15:06:55.50	329.78	16.78	-37.1	-38.0	21.2	0.00e+00	0	38	0	4201644032	43	4267
2026-01-22 15:06:58.63	330.06	16.46	-37.2	-38.1	21.0	0.00e+00	0	38	0	4224712704	43	4328
2026-01-22 15:07:01.83	330.34	16.13	-37.5	-38.5	20.9	0.00e+00	0	38	0	4247781376	44	4252
2026-01-22 15:07:04.67	330.58	15.84	-37.6	-38.6	20.8	0.00e+00	0	38	0	4267704320	44	4301
2026-01-22 15:07:07.79	330.84	15.52	-37.7	-38.7	20.7	0.00e+00	0	38	0	4290772992	44	4341
2026-01-22 15:07:10.64	331.08	15.24	-37.6	-38.6	20.8	0.00e+00	0	38	0	4311744512	44	4317
2026-01-22 15:07:13.76	331.33	14.93	-37.7	-38.6	20.7	0.00e+00	0	38	0	4333764608	45	4083
2026-01-22 15:07:16.60	331.56	14.65	-37.7	-38.7	20.6	0.00e+00	0	38	0	4354736128	45	4116
2026-01-22 15:07:20.16	331.83	14.31	-37.8	-38.7	20.5	0.00e+00	0	38	0	4379901952	45	4139
2026-01-22 15:07:22.93	332.04	14.05	-37.9	-38.9	20.4	0.00e+00	0	38	0	4399824896	45	4212
2026-01-22 15:07:26.22	332.29	13.73	-38.0	-39.0	20.3	0.00e+00	0	38	0	4423942144	45	4260
2026-01-22 15:07:29.01	332.49	13.47	-38.1	-39.1	20.2	0.00e+00	0	38	0	4443865088	45	4311
2026-01-22 15:07:32.37	332.74	13.16	-38.3	-39.3	20.0	0.00e+00	0	38	0	4467982336	46	4161
2026-01-22 15:07:35.24	332.94	12.90	-38.3	-39.3	20.0	0.00e+00	0	38	0	4488953856	46	4158
2026-01-22 15:07:38.59	333.17	12.60	-38.4	-39.4	19.9	0.00e+00	0	38	0	4513071104	46	4239
2026-01-22 15:07:41.32	333.36	12.35	-38.4	-39.4	19.8	0.00e+00	0	38	0	4532994048	46	4242
2026-01-22 15:07:44.59	333.58	12.06	-38.6	-39.6	19.7	0.00e+00	0	38	0	4556062720	46	4320
2026-01-22 15:07:47.32	333.76	11.82	-38.6	-39.6	19.7	0.00e+00	0	38	0	4575985664	46	4302
2026-01-22 15:07:50.58	333.97	11.54	-38.7	-39.8	19.5	0.00e+00	0	38	0	4600102912	46	4393
2026-01-22 15:07:53.31	334.15	11.30	-38.6	-39.6	19.6	0.00e+00	0	38	0	4618977280	46	4334
2026-01-22 15:07:56.59	334.35	11.02	-38.6	-39.7	19.6	0.00e+00	0	38	0	4643094528	46	4357
2026-01-22 15:07:59.32	334.52	10.79	-38.7	-39.8	19.5	0.00e+00	0	38	0	4663017472	46	4410
2026-01-22 15:08:02.52	334.72	10.52	-38.7	-39.8	19.5	0.00e+00	0	38	0	4686086144	47	4166
2026-01-22 15:08:05.50	334.90	10.27	-38.8	-39.9	19.3	0.00e+00	0	38	0	4707057664	47	4230
2026-01-22 15:08:08.49	335.07	10.03	-38.9	-40.1	19.2	0.00e+00	0	38	0	4729077760	47	4307
2026-01-22 15:08:11.55	335.25	9.78	-39.0	-40.1	19.0	0.00e+00	0	38	0	4751097856	47	4335
2026-01-22 15:08:14.40	335.41	9.55	-39.0	-40.2	19.0	0.00e+00	0	38	0	4771020800	47	4345
2026-01-22 15:08:17.53	335.59	9.30	-39.2	-40.4	18.8	0.00e+00	0	38	0	4794089472	47	4461
2026-01-22 15:08:20.37	335.75	9.07	-39.2	-40.5	18.7	0.00e+00	0	38	0	4814012416	47	4514
2026-01-22 15:08:23.49	335.92	8.83	-50.0	-61.0	3.8	8.46e-01	0	38	104	4826595328	69	13441
2026-01-22 15:08:26.33	336.07	8.60	-50.3	-61.3	3.8	8.46e-01	0	38	104	4826595328	70	13207
2026-01-22 15:08:29.45	336.24	8.36	-50.0	-61.5	3.8	8.47e-01	0	38	104	4826595328	70	13426
2026-01-22 15:08:32.28	336.39	8.15	-50.5	-61.5	3.8	8.47e-01	0	38	104	4826595328	70	13495
2026-01-22 15:08:35.41	336.55	7.91	-50.7	-61.5	3.8	8.46e-01	0	38	104	4826595328	70	13567
2026-01-22 15:08:38.24	336.69	7.69	-50.8	-61.5	3.8	8.46e-01	0	38	104	4826595328	71	12734
2026-01-22 15:08:41.37	336.85	7.46	-50.8	-61.5	3.8	8.49e-01	0	38	104	4826595328	71	12707
2026-01-22 15:08:44.20	336.99	7.25	-50.7	-61.4	3.8	8.46e-01	0	38	104	4826595328	71	12589
2026-01-22 15:08:47.32	337.14	7.02	-50.6	-61.4	3.8	8.47e-01	0	38	104	4826595328	71	12663
2026-01-22 15:08:50.16	337.28	6.81	-50.6	-61.4	3.8	8.47e-01	0	38	104	4826595328	71	12549
2026-01-22 15:08:53.28	337.43	6.59	-50.6	-61.4	3.8	8.47e-01	0	38	104	4826595328	71	12623
2026-01-22 15:08:56.12	337.56	6.38	-50.6	-61.4	3.8	8.46e-01	0	38	104	4826595328	71	12533
2026-01-22 15:08:59.24	337.70	6.16	-50.5	-61.4	3.8	8.46e-01	0	38	104	4826595328	71	12520
2026-01-22 15:09:02.08	337.83	5.96	-50.6	-61.4	3.8	8.48e-01	0	38	104	4826595328	71	12570
2026-01-22 15:09:05.20	337.97	5.74	-50.6	-61.3	3.8	8.48e-01	0	38	104	4826595328	71	12517
2026-01-22 15:09:08.04	338.10	5.54	-50.6	-61.3	3.8	8.46e-01	0	38	104	4826595328	71	12508
2026-01-22 15:09:11.16	338.24	5.32	-50.6	-61.3	3.8	8.46e-01	0	38	104	4826595328	71	12516
2026-01-22 15:09:14.00	338.36	5.13	-50.6	-61.4	3.8	8.46e-01	0	38	104	4826595328	71	12529

#Closed at: 2026-01-22 15:09:17
#Recorded file [4826 MB]: D:/Data/31040_260122_175638.dat