passes_logs/2026/01/22/T1/T1__20260122_235543_NOAA_21_JPSS-2_rec.log

#Pass ID: 20260122_235543_NOAA 21 (JPSS-2)
#Satellite: NOAA 21 (JPSS-2)
#Configuration: NOAA 21
#almurnet v.1.7.20251203
#Start time: 2026-01-22 23:55:43

#Version: 2.0.20230620
#Station: T1
#Location: 37.570604 lon 55.790049 lat
#TLE: 1 54234U 22150A   26022.41365820  .00000211  00000+0  12084-3 0  9990
#TLE: 2 54234  98.7507 323.2240 0000658 234.5287 125.5828 14.19537645165864

#Time	Az	El	Level	Level2	SNR	BER	BlckErr	Temp	State	Recorded	gain1	gain2
2026-01-22 23:55:43.99	14.77	5.05	-48.2	-62.2	3.8	1.49e+00	0	35	0	0	67	18522
2026-01-22 23:55:46.97	14.74	5.26	-48.2	-62.1	3.8	1.49e+00	0	36	104	0	67	18513
2026-01-22 23:55:49.95	14.71	5.47	-48.2	-62.3	3.8	1.49e+00	0	36	104	0	67	18749
2026-01-22 23:55:52.93	14.69	5.69	-48.2	-62.3	3.8	1.49e+00	0	36	104	0	67	18906
2026-01-22 23:55:55.91	14.66	5.91	-48.2	-62.3	3.8	1.49e+00	0	36	104	0	67	18800
2026-01-22 23:55:58.88	14.63	6.13	-48.2	-62.2	3.8	1.49e+00	0	36	104	0	67	18639
2026-01-22 23:56:01.87	14.60	6.35	-48.2	-62.1	3.8	1.49e+00	0	36	104	0	67	18475
2026-01-22 23:56:04.85	14.57	6.57	-48.2	-61.9	3.8	1.49e+00	0	36	104	0	67	17984
2026-01-22 23:56:07.83	14.53	6.80	-48.2	-61.8	3.8	1.49e+00	0	36	104	0	67	17737
2026-01-22 23:56:10.81	14.50	7.03	-48.1	-61.7	3.8	1.49e+00	0	36	104	0	67	17620
2026-01-22 23:56:13.78	14.47	7.25	-48.2	-61.8	3.8	1.49e+00	0	37	104	0	67	17690
2026-01-22 23:56:16.76	14.44	7.49	-48.2	-61.4	3.8	1.49e+00	0	37	104	0	67	16966
2026-01-22 23:56:19.74	14.40	7.72	-48.0	-59.7	4.0	1.49e+00	0	37	104	0	67	13918
2026-01-22 23:56:22.73	14.37	7.96	-47.6	-56.6	5.1	1.03e+00	0	37	0	0	67	9738
2026-01-22 23:56:25.71	14.33	8.19	-46.8	-53.0	8.0	8.97e-02	0	37	0	0	65	7208
2026-01-22 23:56:28.69	14.29	8.43	-45.7	-50.2	10.9	3.21e-03	0	37	0	0	63	5871
2026-01-22 23:56:31.67	14.26	8.68	-44.7	-48.3	12.8	7.24e-05	0	37	0	0	61	5331
2026-01-22 23:56:34.65	14.22	8.92	-44.1	-47.4	13.8	6.10e-06	0	37	0	0	60	5062
2026-01-22 23:56:37.63	14.18	9.17	-46.6	-52.6	8.5	1.71e-03	0	37	0	0	63	7797
2026-01-22 23:56:40.85	14.13	9.44	-44.6	-47.9	13.4	0.00e+00	0	37	0	0	59	5703
2026-01-22 23:56:43.69	14.09	9.68	-41.4	-43.6	17.3	0.00e+00	0	37	0	0	54	4613
2026-01-22 23:56:46.91	14.05	9.95	-41.0	-43.1	17.8	0.00e+00	0	37	0	0	54	4364
2026-01-22 23:56:49.75	14.01	10.20	-40.8	-42.9	18.0	0.00e+00	0	37	0	0	53	4505
2026-01-22 23:56:53.07	13.96	10.49	-40.5	-42.5	18.4	0.00e+00	0	37	0	0	53	4324
2026-01-22 23:56:55.94	13.92	10.74	-40.5	-42.4	18.4	0.00e+00	0	37	0	0	53	4286
2026-01-22 23:56:59.26	13.86	11.04	-40.4	-42.4	18.5	0.00e+00	0	37	0	0	52	4509
2026-01-22 23:57:01.99	13.82	11.29	-40.3	-42.3	18.6	0.00e+00	0	37	0	0	52	4457
2026-01-22 23:57:05.26	13.77	11.59	-40.2	-42.2	18.7	0.00e+00	0	37	0	0	52	4397
2026-01-22 23:57:08.04	13.72	11.84	-40.3	-42.3	18.7	0.00e+00	0	37	0	0	52	4455
2026-01-22 23:57:11.31	13.66	12.15	-40.2	-42.1	18.8	0.00e+00	0	37	0	0	52	4374
2026-01-22 23:57:14.32	13.61	12.43	-40.0	-41.9	19.0	0.00e+00	0	37	0	0	52	4291
2026-01-22 23:57:17.60	13.55	12.75	-40.0	-42.0	19.0	0.00e+00	0	37	0	0	52	4295
2026-01-22 23:57:20.30	13.50	13.01	-40.0	-42.0	19.0	0.00e+00	0	37	0	0	52	4300
2026-01-22 23:57:23.59	13.44	13.33	-40.0	-41.9	19.1	0.00e+00	0	37	0	0	51	4517
2026-01-22 23:57:26.30	13.39	13.60	-40.0	-42.0	19.0	0.00e+00	0	37	0	0	51	4576
2026-01-22 23:57:29.62	13.32	13.93	-39.8	-41.8	19.2	0.00e+00	0	38	0	0	51	4456
2026-01-22 23:57:32.86	13.26	14.26	-39.9	-41.9	19.1	0.00e+00	0	38	0	0	51	4512
2026-01-22 23:57:35.84	13.20	14.57	-39.8	-41.7	19.3	0.00e+00	0	38	0	0	51	4430
2026-01-22 23:57:38.83	13.13	14.88	-39.7	-41.6	19.4	0.00e+00	0	38	0	0	51	4371
2026-01-22 23:57:41.81	13.07	15.20	-39.7	-41.7	19.3	0.00e+00	0	37	0	0	51	4412
2026-01-22 23:57:44.82	13.00	15.52	-39.8	-41.7	19.3	0.00e+00	0	37	0	0	51	4441
2026-01-22 23:57:47.95	12.93	15.86	-39.8	-41.8	19.2	0.00e+00	0	37	0	0	51	4448
2026-01-22 23:57:50.79	12.86	16.17	-39.9	-41.8	19.2	0.00e+00	0	38	0	0	51	4478
2026-01-22 23:57:53.92	12.78	16.52	-39.9	-41.8	19.2	0.00e+00	0	37	0	0	51	4478
2026-01-22 23:57:56.76	12.71	16.84	-40.0	-41.9	19.1	0.00e+00	0	38	0	0	51	4539
2026-01-22 23:58:00.01	12.63	17.21	-40.1	-42.0	19.0	0.00e+00	0	38	0	0	51	4578
2026-01-22 23:58:03.22	12.55	17.59	-40.2	-42.1	18.9	0.00e+00	0	38	0	0	51	4650
2026-01-22 23:58:06.34	12.46	17.96	-40.2	-42.1	19.0	0.00e+00	0	38	0	0	51	4623
2026-01-22 23:58:09.19	12.38	18.30	-40.2	-42.1	18.9	0.00e+00	0	38	0	0	51	4638
2026-01-22 23:58:12.32	12.29	18.68	-40.3	-42.2	18.9	0.00e+00	0	38	0	0	51	4676
2026-01-22 23:58:15.25	12.21	19.04	-40.2	-42.1	19.0	0.00e+00	0	38	0	0	51	4625
2026-01-22 23:58:18.38	12.11	19.43	-40.1	-42.1	19.0	0.00e+00	0	38	0	0	51	4605
2026-01-22 23:58:21.28	12.02	19.80	-40.1	-42.0	19.1	0.00e+00	0	38	0	0	51	4570
2026-01-22 23:58:24.58	11.92	20.23	-39.8	-41.7	19.3	0.00e+00	0	38	0	0	51	4428
2026-01-22 23:58:27.29	11.83	20.58	-39.7	-41.6	19.4	0.00e+00	0	38	0	0	51	4349
2026-01-22 23:58:30.58	11.72	21.02	-39.6	-41.4	19.6	0.00e+00	0	38	0	0	51	4274
2026-01-22 23:58:33.31	11.62	21.39	-39.2	-40.9	20.0	0.00e+00	0	38	0	0	50	4277
2026-01-22 23:58:36.59	11.50	21.84	-39.0	-40.7	20.2	0.00e+00	0	38	0	0	50	4177
2026-01-22 23:58:39.37	11.40	22.23	-38.8	-40.4	20.4	0.00e+00	0	38	0	0	49	4290
2026-01-22 23:58:42.65	11.28	22.70	-38.6	-40.3	20.5	0.00e+00	0	38	0	0	49	4211
2026-01-22 23:58:45.64	11.16	23.13	-38.8	-40.5	20.4	0.00e+00	0	38	0	0	49	4295
2026-01-22 23:58:48.62	11.04	23.57	-38.6	-40.2	20.7	0.00e+00	0	38	0	0	49	4169
2026-01-22 23:58:51.95	10.90	24.07	-38.5	-40.2	20.7	0.00e+00	0	38	0	0	49	4150
2026-01-22 23:58:54.87	10.77	24.51	-38.6	-40.3	20.7	0.00e+00	0	38	0	0	49	4206
2026-01-22 23:58:58.28	10.62	25.04	-38.8	-40.4	20.6	0.00e+00	0	38	0	0	49	4288
2026-01-22 23:59:00.98	10.49	25.47	-39.0	-40.7	20.3	0.00e+00	0	38	0	0	49	4411
2026-01-22 23:59:04.27	10.34	26.00	-39.3	-41.0	20.1	0.00e+00	0	38	0	0	49	4560
2026-01-22 23:59:06.96	10.20	26.44	-39.6	-41.4	19.7	0.00e+00	0	38	0	0	49	4760
2026-01-22 23:59:10.25	10.04	26.98	-40.1	-41.9	19.3	0.00e+00	0	38	0	0	50	4769
2026-01-22 23:59:13.11	9.88	27.47	-40.3	-42.2	19.0	0.00e+00	0	38	0	0	51	4673
2026-01-22 23:59:16.41	9.70	28.04	-40.7	-42.6	18.6	0.00e+00	0	38	0	0	51	4887
2026-01-22 23:59:19.55	9.52	28.59	-40.6	-42.6	18.5	0.00e+00	0	38	0	0	52	4618
2026-01-22 23:59:22.39	9.36	29.10	-40.5	-42.5	18.6	0.00e+00	0	38	0	0	52	4566
2026-01-22 23:59:25.52	9.17	29.68	-40.4	-42.3	18.8	0.00e+00	0	38	0	0	52	4461
2026-01-22 23:59:28.36	8.99	30.21	-40.0	-41.8	19.2	0.00e+00	0	38	0	0	52	4221
2026-01-22 23:59:31.49	8.78	30.80	-39.7	-41.4	19.6	0.00e+00	0	38	0	0	51	4273
2026-01-22 23:59:34.33	8.59	31.35	-39.6	-41.3	19.8	0.00e+00	0	38	0	0	51	4237
2026-01-22 23:59:37.46	8.37	31.97	-39.3	-41.0	20.2	0.00e+00	0	38	0	0	50	4302
2026-01-22 23:59:40.30	8.16	32.54	-39.4	-41.1	20.1	0.00e+00	0	38	0	0	50	4356
2026-01-22 23:59:43.43	7.92	33.19	-39.8	-41.5	19.8	0.00e+00	0	38	0	0	50	4579
2026-01-22 23:59:46.27	7.69	33.78	-40.1	-41.9	19.4	0.00e+00	0	37	0	0	50	4798
2026-01-22 23:59:49.40	7.43	34.45	-40.4	-42.2	19.0	0.00e+00	0	38	0	0	51	4704
2026-01-22 23:59:52.24	7.19	35.07	-40.7	-42.7	18.6	0.00e+00	0	38	0	0	52	4658
2026-01-22 23:59:55.37	6.90	35.76	-41.1	-43.1	18.1	0.00e+00	0	38	0	0	52	4885
2026-01-22 23:59:58.27	6.63	36.42	-41.2	-43.2	18.0	0.00e+00	0	38	0	0	53	4654
2026-01-23 00:00:01.49	6.31	37.17	-41.3	-43.2	18.0	0.00e+00	0	38	0	0	53	4665
2026-01-23 00:00:04.43	6.01	37.86	-41.4	-43.3	18.0	0.00e+00	0	38	0	0	53	4743
2026-01-23 00:00:07.55	5.67	38.61	-41.3	-43.2	18.1	0.00e+00	0	38	0	0	53	4696
2026-01-23 00:00:10.40	5.35	39.31	-40.9	-42.8	18.4	0.00e+00	0	38	0	0	53	4464
2026-01-23 00:00:13.52	4.98	40.09	-40.9	-42.8	18.4	0.00e+00	0	38	0	0	53	4470
2026-01-23 00:00:16.36	4.63	40.82	-41.1	-43.0	18.3	0.00e+00	0	38	0	0	53	4557
2026-01-23 00:00:19.49	4.22	41.64	-41.5	-43.5	17.8	0.00e+00	0	38	0	0	53	4845
2026-01-23 00:00:22.39	3.83	42.41	-42.0	-44.1	17.2	0.00e+00	0	38	0	0	54	4915
2026-01-23 00:00:25.57	3.37	43.27	-42.3	-44.5	16.9	0.00e+00	0	38	0	0	55	4816
2026-01-23 00:00:28.41	2.93	44.06	-42.7	-45.0	16.6	0.00e+00	0	38	0	0	56	4842
2026-01-23 00:00:31.53	2.43	44.93	-42.6	-44.7	16.8	0.00e+00	0	38	0	0	56	4698
2026-01-23 00:00:34.38	1.95	45.75	-42.5	-44.7	16.9	0.00e+00	0	38	0	0	56	4668
2026-01-23 00:00:37.51	1.39	46.67	-42.0	-44.0	17.5	0.00e+00	0	38	0	0	56	4319
2026-01-23 00:00:40.46	0.83	47.55	-41.2	-43.1	18.2	0.00e+00	0	38	0	0	54	4368
2026-01-23 00:00:43.59	0.20	48.50	-41.3	-43.2	17.8	0.00e+00	0	38	0	0	54	4410
2026-01-23 00:00:46.43	359.59	49.37	-41.1	-43.0	18.3	0.00e+00	0	38	0	0	54	4302
2026-01-23 00:00:49.55	358.88	50.35	-41.0	-42.9	18.2	0.00e+00	0	38	0	0	53	4503
2026-01-23 00:00:52.39	358.19	51.25	-41.2	-43.1	18.2	0.00e+00	0	38	0	0	53	4602
2026-01-23 00:00:55.52	357.37	52.26	-40.9	-42.7	18.5	0.00e+00	0	38	0	0	53	4441
2026-01-23 00:00:58.36	356.59	53.19	-41.3	-43.3	18.0	0.00e+00	0	38	0	0	53	4721
2026-01-23 00:01:01.71	355.59	54.31	-40.2	-41.9	19.3	0.00e+00	0	38	0	0	52	4291
2026-01-23 00:01:04.42	354.73	55.22	-39.9	-41.6	19.7	0.00e+00	0	38	0	0	51	4364
2026-01-23 00:01:07.73	353.59	56.34	-39.4	-41.1	20.2	0.00e+00	0	38	0	0	50	4362
2026-01-23 00:01:10.49	352.57	57.29	-38.5	-40.1	20.7	0.00e+00	0	38	0	0	49	4131
2026-01-23 00:01:13.74	351.27	58.41	-39.3	-41.0	20.2	0.00e+00	0	38	0	0	49	4578
2026-01-23 00:01:16.58	350.04	59.39	-39.3	-41.0	20.3	0.00e+00	0	38	0	0	49	4587
2026-01-23 00:01:19.71	348.57	60.48	-39.1	-40.7	20.4	0.00e+00	0	38	0	0	49	4430
2026-01-23 00:01:22.54	347.13	61.47	-38.8	-40.5	20.8	0.00e+00	0	38	0	0	49	4292
2026-01-23 00:01:25.67	345.39	62.56	-38.4	-40.0	21.0	0.00e+00	0	38	0	0	48	4324
2026-01-23 00:01:28.51	343.68	63.54	-38.3	-39.9	21.2	0.00e+00	0	38	0	0	48	4276
2026-01-23 00:01:31.64	341.61	64.61	-38.5	-40.1	21.0	0.00e+00	0	38	0	0	48	4350
2026-01-23 00:01:34.48	339.57	65.56	-38.0	-39.6	21.5	0.00e+00	0	38	0	0	48	4130
2026-01-23 00:01:37.61	337.10	66.59	-38.2	-39.8	21.1	0.00e+00	0	38	0	0	47	4451
2026-01-23 00:01:40.61	334.49	67.55	-38.4	-40.0	21.0	0.00e+00	0	38	0	0	47	4565
2026-01-23 00:01:43.67	331.58	68.48	-38.8	-40.5	20.7	0.00e+00	0	38	0	0	48	4569
2026-01-23 00:01:47.43	327.62	69.57	-37.9	-39.5	21.1	0.00e+00	0	38	0	0	47	4303
2026-01-23 00:01:50.22	324.38	70.32	-38.0	-39.6	20.8	0.00e+00	0	38	0	0	47	4389
2026-01-23 00:01:53.51	320.23	71.13	-38.9	-40.6	20.6	0.00e+00	0	38	0	0	48	4608
2026-01-23 00:01:56.24	316.49	71.73	-38.6	-40.3	20.7	0.00e+00	0	38	0	0	48	4451
2026-01-23 00:01:59.63	311.51	72.36	-38.6	-40.2	20.7	0.00e+00	0	38	0	0	48	4430
2026-01-23 00:02:02.68	306.72	72.82	-39.3	-41.0	19.9	0.00e+00	0	38	0	0	49	4578
2026-01-23 00:02:05.85	301.50	73.17	-39.0	-40.6	20.6	0.00e+00	0	38	0	0	49	4380
2026-01-23 00:02:08.84	296.39	73.38	-38.2	-39.8	21.2	0.00e+00	0	38	0	0	48	4214
2026-01-23 00:02:11.82	291.22	73.45	-38.7	-40.3	20.5	0.00e+00	0	38	0	0	48	4454
2026-01-23 00:02:14.84	285.96	73.39	-38.1	-39.7	21.3	0.00e+00	0	38	0	0	48	4147
2026-01-23 00:02:17.91	280.70	73.20	-38.2	-39.8	21.2	0.00e+00	0	38	0	0	48	4221
2026-01-23 00:02:20.94	275.68	72.88	-38.0	-39.5	21.4	0.00e+00	0	38	0	0	48	4092
2026-01-23 00:02:23.92	270.96	72.45	-38.0	-39.6	21.0	0.00e+00	0	38	0	0	47	4377
2026-01-23 00:02:26.90	266.50	71.92	-37.8	-39.4	21.3	0.00e+00	0	38	0	0	47	4251
2026-01-23 00:02:29.89	262.33	71.28	-38.7	-40.4	20.7	0.00e+00	0	38	0	0	48	4500
2026-01-23 00:02:32.87	258.47	70.57	-38.0	-39.6	21.2	0.00e+00	0	38	0	0	47	4356
2026-01-23 00:02:35.89	254.87	69.78	-38.1	-39.7	21.2	0.00e+00	0	38	0	0	47	4416
2026-01-23 00:02:38.85	251.64	68.94	-37.5	-39.1	21.3	0.00e+00	0	38	0	0	46	4341
2026-01-23 00:02:42.15	248.36	67.95	-38.9	-40.6	20.5	0.00e+00	0	38	0	0	48	4636
2026-01-23 00:02:44.89	245.87	67.09	-38.2	-39.8	21.1	0.00e+00	0	38	0	0	48	4221
2026-01-23 00:02:48.18	243.15	66.02	-38.6	-40.3	20.7	0.00e+00	0	38	0	0	47	4736
2026-01-23 00:02:50.91	241.09	65.11	-38.3	-39.9	20.7	0.00e+00	0	38	0	0	48	4291
2026-01-23 00:02:54.29	238.76	63.96	-39.0	-40.7	20.6	0.00e+00	0	38	0	0	48	4679
2026-01-23 00:02:56.99	237.06	63.03	-38.8	-40.4	20.3	0.00e+00	0	38	0	0	49	4290
2026-01-23 00:03:00.27	235.17	61.89	-38.1	-39.7	21.3	0.00e+00	0	38	0	0	47	4395
2026-01-23 00:03:03.01	233.72	60.93	-40.1	-41.8	19.6	0.00e+00	0	38	0	0	50	4745
2026-01-23 00:03:06.28	232.13	59.79	-38.6	-40.2	21.0	0.00e+00	0	38	0	0	49	4163
2026-01-23 00:03:09.01	230.90	58.84	-39.2	-40.8	20.5	0.00e+00	0	38	0	0	48	4736
2026-01-23 00:03:12.29	229.54	57.70	-39.8	-41.5	19.2	0.00e+00	0	38	0	0	51	4329
2026-01-23 00:03:15.04	228.49	56.75	-38.6	-40.2	20.7	0.00e+00	0	38	0	0	49	4174
2026-01-23 00:03:18.32	227.32	55.63	-39.5	-41.2	20.1	0.00e+00	0	38	0	0	49	4678
2026-01-23 00:03:21.05	226.42	54.70	-41.7	-43.8	17.2	1.75e-05	0	38	0	0	54	4752
2026-01-23 00:03:24.34	225.41	53.60	-40.2	-42.0	18.9	0.00e+00	0	38	0	0	52	4327
2026-01-23 00:03:27.34	224.55	52.61	-40.5	-42.5	18.7	2.21e-05	0	38	0	0	52	4546
2026-01-23 00:03:30.62	223.68	51.54	-40.6	-42.5	18.6	1.52e-05	0	38	0	0	52	4587
2026-01-23 00:03:33.37	222.99	50.66	-40.8	-42.7	18.1	4.45e-04	0	38	0	0	52	4679
2026-01-23 00:03:36.62	222.24	49.63	-41.1	-43.0	18.3	0.00e+00	0	38	0	0	53	4563
2026-01-23 00:03:39.73	221.55	48.66	-42.5	-44.7	16.8	0.00e+00	0	38	0	0	55	4954
2026-01-23 00:03:42.95	220.89	47.68	-42.5	-44.7	16.6	0.00e+00	0	38	0	0	55	4974
2026-01-23 00:03:45.83	220.34	46.81	-42.4	-44.5	17.1	0.00e+00	0	38	0	0	56	4559
2026-01-23 00:03:48.95	219.77	45.89	-40.8	-42.6	18.7	0.00e+00	0	38	0	0	53	4356
2026-01-23 00:03:51.80	219.28	45.07	-41.1	-43.0	18.4	0.00e+00	0	38	0	0	52	4835
2026-01-23 00:03:54.92	218.77	44.18	-43.8	-46.3	15.3	0.00e+00	0	38	0	0	58	4997
2026-01-23 00:03:57.79	218.32	43.38	-43.2	-45.5	16.2	0.00e+00	0	38	0	0	58	4557
2026-01-23 00:04:01.08	217.84	42.48	-42.0	-44.0	17.6	0.00e+00	0	38	0	0	56	4295
2026-01-23 00:04:03.92	217.45	41.72	-40.9	-42.8	18.4	0.00e+00	0	38	0	0	53	4463
2026-01-23 00:04:07.04	217.03	40.90	-40.3	-42.0	19.3	0.00e+00	0	38	0	0	52	4330
2026-01-23 00:04:09.89	216.68	40.16	-41.3	-43.2	18.3	0.00e+00	0	38	0	0	53	4663
2026-01-23 00:04:13.01	216.30	39.37	-43.0	-45.3	16.3	0.00e+00	0	38	0	0	56	5015
2026-01-23 00:04:15.86	215.97	38.67	-42.8	-45.0	16.7	0.00e+00	0	38	0	0	56	4840
2026-01-23 00:04:18.98	215.63	37.91	-41.2	-43.1	18.2	0.00e+00	0	38	0	0	54	4388
2026-01-23 00:04:21.82	215.34	37.23	-40.8	-42.7	18.7	0.00e+00	0	38	0	0	53	4397
2026-01-23 00:04:25.04	215.01	36.48	-40.3	-42.1	19.2	0.00e+00	0	38	0	0	52	4376
2026-01-23 00:04:27.88	214.74	35.83	-40.3	-42.1	19.2	0.00e+00	0	38	0	0	52	4350
2026-01-23 00:04:31.01	214.46	35.13	-40.5	-42.3	19.0	0.00e+00	0	38	0	0	52	4457
2026-01-23 00:04:33.86	214.21	34.50	-40.2	-42.0	19.3	0.00e+00	0	38	0	0	52	4305
2026-01-23 00:04:36.98	213.94	33.83	-40.1	-41.8	19.4	0.00e+00	0	38	0	0	51	4472
2026-01-23 00:04:39.83	213.71	33.23	-40.4	-42.2	19.1	0.00e+00	0	38	0	0	51	4697
2026-01-23 00:04:42.95	213.47	32.58	-40.4	-42.2	19.2	0.00e+00	0	38	0	0	51	4665
2026-01-23 00:04:45.79	213.26	32.01	-39.9	-41.7	19.6	0.00e+00	0	38	0	0	51	4415
2026-01-23 00:04:48.92	213.03	31.38	-39.8	-41.5	19.7	0.00e+00	0	38	0	0	51	4340
2026-01-23 00:04:51.76	212.83	30.83	-39.9	-41.7	19.4	0.00e+00	0	38	0	0	51	4421
2026-01-23 00:04:54.90	212.62	30.22	-40.4	-42.3	19.0	0.00e+00	0	38	0	0	51	4719
2026-01-23 00:04:57.79	212.44	29.68	-40.3	-42.1	19.1	0.00e+00	0	38	0	0	51	4644
2026-01-23 00:05:00.92	212.24	29.10	-39.9	-41.7	19.5	0.00e+00	0	38	0	0	51	4405
2026-01-23 00:05:04.25	212.04	28.50	-39.6	-41.2	19.9	0.00e+00	0	38	0	0	51	4186
2026-01-23 00:05:07.42	211.86	27.94	-38.8	-40.5	20.5	0.00e+00	0	38	0	0	49	4292
2026-01-23 00:05:10.27	211.70	27.44	-38.5	-40.1	20.9	0.00e+00	0	38	0	0	49	4125
2026-01-23 00:05:13.39	211.53	26.91	-38.4	-40.0	21.0	0.00e+00	0	38	0	0	48	4325
2026-01-23 00:05:16.24	211.39	26.43	-38.5	-40.1	20.9	0.00e+00	0	38	0	0	48	4382
2026-01-23 00:05:19.37	211.23	25.91	-38.9	-40.5	20.5	0.00e+00	0	38	0	0	48	4598
2026-01-23 00:05:22.40	211.08	25.42	-39.3	-41.0	20.1	0.00e+00	0	38	0	0	49	4574
2026-01-23 00:05:25.69	210.93	24.90	-39.6	-41.4	19.8	0.00e+00	0	38	0	0	49	4766
2026-01-23 00:05:28.45	210.80	24.47	-39.7	-41.4	19.8	0.00e+00	0	38	0	0	50	4518
2026-01-23 00:05:31.71	210.66	23.97	-39.9	-41.7	19.5	0.00e+00	0	38	0	0	50	4675
2026-01-23 00:05:34.73	210.53	23.52	-39.9	-41.6	19.6	0.00e+00	0	38	0	0	50	4648
2026-01-23 00:05:37.80	210.40	23.06	-39.8	-41.5	19.7	0.00e+00	0	38	0	0	50	4585
2026-01-23 00:05:40.92	210.27	22.61	-39.9	-41.6	19.6	0.00e+00	0	38	0	0	50	4641
2026-01-23 00:05:43.77	210.16	22.20	-39.6	-41.3	19.9	0.00e+00	0	38	0	0	50	4489
2026-01-23 00:05:46.89	210.04	21.76	-39.3	-41.1	20.1	0.00e+00	0	38	0	0	50	4341
2026-01-23 00:05:49.74	209.94	21.36	-39.4	-41.1	20.0	0.00e+00	0	38	0	0	50	4363
2026-01-23 00:05:52.86	209.83	20.94	-39.5	-41.2	19.8	0.00e+00	0	38	0	0	50	4434
2026-01-23 00:05:55.70	209.73	20.56	-39.4	-41.1	20.0	0.00e+00	0	38	0	0	50	4355
2026-01-23 00:05:58.83	209.62	20.14	-39.2	-40.9	20.1	0.00e+00	0	38	0	0	50	4284
2026-01-23 00:06:01.68	209.53	19.77	-39.3	-41.0	20.0	0.00e+00	0	38	0	0	50	4317
2026-01-23 00:06:04.80	209.43	19.37	-39.3	-41.0	19.9	0.00e+00	0	38	0	0	50	4335
2026-01-23 00:06:07.64	209.34	19.01	-39.5	-41.2	19.8	0.00e+00	0	38	0	0	50	4434
2026-01-23 00:06:10.98	209.24	18.60	-39.6	-41.3	19.7	0.00e+00	0	38	0	0	50	4473
2026-01-23 00:06:13.96	209.15	18.23	-39.7	-41.4	19.6	0.00e+00	0	38	0	0	50	4527
2026-01-23 00:06:17.27	209.06	17.83	-39.8	-41.5	19.5	0.00e+00	0	38	0	0	50	4595
2026-01-23 00:06:19.98	208.98	17.51	-40.0	-41.7	19.4	0.00e+00	0	38	0	0	50	4689
2026-01-23 00:06:23.24	208.89	17.13	-40.0	-41.8	19.3	0.00e+00	0	38	0	0	50	4716
2026-01-23 00:06:25.97	208.82	16.81	-40.1	-41.9	19.2	0.00e+00	0	38	0	0	50	4769
2026-01-23 00:06:29.27	208.73	16.44	-40.3	-42.1	19.1	0.00e+00	0	38	0	0	51	4605
2026-01-23 00:06:32.19	208.66	16.11	-40.2	-42.0	19.2	0.00e+00	0	38	0	0	51	4547
2026-01-23 00:06:35.44	208.58	15.75	-40.2	-42.0	19.1	0.00e+00	0	38	0	0	51	4571
2026-01-23 00:06:38.28	208.51	15.44	-40.3	-42.1	19.0	0.00e+00	0	38	0	0	51	4622
2026-01-23 00:06:41.41	208.44	15.10	-40.4	-42.2	18.9	0.00e+00	0	38	0	0	51	4684
2026-01-23 00:06:44.25	208.37	14.80	-40.4	-42.2	19.0	0.00e+00	0	38	0	0	51	4669
2026-01-23 00:06:47.49	208.30	14.46	-40.5	-42.4	18.8	0.00e+00	0	38	0	0	51	4786
2026-01-23 00:06:50.33	208.24	14.17	-40.5	-42.4	18.7	0.00e+00	0	38	0	0	51	4774
2026-01-23 00:06:53.46	208.17	13.85	-40.6	-42.5	18.5	0.00e+00	0	38	0	0	52	4579
2026-01-23 00:06:56.30	208.11	13.56	-40.5	-42.4	18.6	0.00e+00	0	38	0	0	52	4523
2026-01-23 00:06:59.42	208.05	13.25	-40.5	-42.4	18.5	0.00e+00	0	38	0	0	52	4534
2026-01-23 00:07:02.26	207.99	12.97	-40.6	-42.5	18.5	0.00e+00	0	38	0	0	52	4567
2026-01-23 00:07:05.39	207.93	12.66	-40.5	-42.4	18.5	0.00e+00	0	38	0	0	52	4512
2026-01-23 00:07:08.23	207.88	12.39	-40.6	-42.5	18.4	0.00e+00	0	38	0	0	52	4551
2026-01-23 00:07:11.36	207.82	12.09	-40.5	-42.4	18.4	0.00e+00	0	38	0	0	52	4538
2026-01-23 00:07:14.21	207.77	11.82	-40.7	-42.6	18.3	0.00e+00	0	38	0	0	52	4616
2026-01-23 00:07:17.70	207.70	11.49	-40.7	-42.6	18.2	0.00e+00	0	38	0	0	52	4629
2026-01-23 00:07:20.43	207.66	11.24	-40.7	-42.6	18.2	0.00e+00	0	38	0	0	52	4627
2026-01-23 00:07:23.70	207.60	10.95	-40.7	-42.7	18.1	0.00e+00	0	38	0	0	52	4660
2026-01-23 00:07:26.61	207.55	10.68	-40.7	-42.7	18.1	0.00e+00	0	38	0	0	52	4655
2026-01-23 00:07:29.68	207.50	10.41	-40.7	-42.7	18.1	0.00e+00	0	38	0	0	52	4655
2026-01-23 00:07:33.43	207.44	10.08	-40.8	-42.7	18.0	0.00e+00	0	38	0	0	52	4704
2026-01-23 00:07:36.28	207.40	9.83	-40.7	-42.7	18.0	0.00e+00	0	38	0	0	52	4665
2026-01-23 00:07:39.55	207.35	9.55	-40.8	-42.8	17.9	0.00e+00	0	38	0	0	52	4728
2026-01-23 00:07:42.30	207.31	9.32	-40.9	-42.8	17.8	0.00e+00	0	38	0	0	52	4747
2026-01-23 00:07:45.68	207.26	9.03	-40.9	-42.9	17.7	0.00e+00	0	38	0	0	52	4801
2026-01-23 00:07:48.39	207.22	8.81	-49.6	-62.6	3.8	1.49e+00	0	38	104	0	69	17434
2026-01-23 00:07:51.66	207.17	8.54	-49.8	-63.0	3.8	1.49e+00	0	38	104	0	70	17138
2026-01-23 00:07:54.38	207.14	8.31	-50.0	-63.0	3.8	1.49e+00	0	38	104	0	70	17252
2026-01-23 00:07:57.69	207.09	8.05	-50.0	-63.0	3.8	1.49e+00	0	38	104	0	70	17255
2026-01-23 00:08:00.44	207.05	7.83	-50.1	-63.0	3.8	1.49e+00	0	38	104	0	70	17216
2026-01-23 00:08:03.86	207.01	7.55	-50.0	-63.0	3.8	1.49e+00	0	38	104	0	70	17170
2026-01-23 00:08:06.56	206.98	7.34	-49.6	-63.0	3.8	1.49e+00	0	38	104	0	70	17156
2026-01-23 00:08:09.84	206.93	7.09	-49.7	-62.9	3.8	1.49e+00	0	38	104	0	70	17010
2026-01-23 00:08:12.55	206.90	6.88	-49.7	-62.9	3.8	1.49e+00	0	38	104	0	70	17075
2026-01-23 00:08:15.82	206.86	6.63	-49.7	-62.9	3.8	1.49e+00	0	38	104	0	70	17014
2026-01-23 00:08:18.51	206.83	6.42	-49.7	-62.9	3.8	1.49e+00	0	38	104	0	70	17053
2026-01-23 00:08:21.78	206.79	6.18	-49.7	-62.9	3.8	1.49e+00	0	38	104	0	70	16944
2026-01-23 00:08:24.47	206.76	5.98	-49.7	-62.9	3.8	1.49e+00	0	38	104	0	70	17039
2026-01-23 00:08:27.74	206.73	5.73	-49.7	-62.9	3.8	1.49e+00	0	38	104	0	70	17013
2026-01-23 00:08:30.43	206.70	5.54	-49.7	-62.9	3.8	1.49e+00	0	38	104	0	70	16914
2026-01-23 00:08:33.73	206.66	5.30	-49.7	-62.9	3.8	1.49e+00	0	38	104	0	70	16944
2026-01-23 00:08:36.44	206.63	5.10	-49.7	-62.9	3.8	1.49e+00	0	38	104	0	70	16946

#Closed at: 2026-01-23 00:08:39
#Recorded file [0 MB]: D:/Data/31040_260123_025543.dat