passes_logs/2026/01/22/T1/T1__20260122_103456_SUOMI_NPP_rec.log

#Pass ID: 20260122_103456_SUOMI NPP
#Satellite: SUOMI NPP
#Configuration: NPP
#almurnet v.1.7.20251203
#Start time: 2026-01-22 10:34:56

#Version: 2.0.20230620
#Station: T1
#Location: 37.570604 lon 55.790049 lat
#TLE: 1 37849U 11061A   26021.51818991  .00000201  00000+0  11636-3 0  9995
#TLE: 2 37849  98.7819 323.5108 0002300  52.3548 307.7836 14.19527793737637

#Time	Az	El	Level	Level2	SNR	BER	BlckErr	Temp	State	Recorded	gain1	gain2
2026-01-22 10:34:56.26	178.52	4.98	-49.5	-65.4	3.8	1.49e+00	0	35	0	0	71	21277
2026-01-22 10:35:00.23	178.65	5.26	-47.6	-64.4	3.8	1.49e+00	0	35	104	0	67	24116
2026-01-22 10:35:04.20	178.79	5.55	-47.7	-64.3	3.8	1.49e+00	0	35	104	0	67	23646
2026-01-22 10:35:08.17	178.93	5.83	-47.7	-64.5	3.8	1.49e+00	0	35	104	0	67	24202
2026-01-22 10:35:12.15	179.07	6.12	-47.7	-64.6	3.8	1.49e+00	0	36	104	0	67	24538
2026-01-22 10:35:16.12	179.22	6.41	-47.6	-64.3	3.8	1.49e+00	0	36	104	0	67	23637
2026-01-22 10:35:20.09	179.36	6.71	-47.6	-63.1	3.8	1.49e+00	0	36	104	0	67	20541
2026-01-22 10:35:24.06	179.52	7.00	-47.6	-63.6	3.8	1.49e+00	0	36	104	0	67	21839
2026-01-22 10:35:28.03	179.67	7.31	-47.6	-61.4	3.9	1.49e+00	0	36	104	0	67	17027
2026-01-22 10:35:32.01	179.82	7.61	-46.3	-53.0	10.4	1.49e-02	0	36	0	6291456	64	7665
2026-01-22 10:35:35.98	179.98	7.92	-44.7	-49.1	14.4	2.20e-06	0	36	0	13631488	61	5840
2026-01-22 10:35:39.95	180.15	8.23	-44.5	-48.8	14.8	0.00e+00	0	36	0	20971520	60	5925
2026-01-22 10:35:43.93	180.31	8.55	-45.8	-51.4	12.3	1.32e-04	0	36	0	28311552	62	7129
2026-01-22 10:35:47.90	180.48	8.87	-47.0	-56.2	7.3	9.06e-02	0	37	0	35651584	64	11044
2026-01-22 10:35:51.88	180.65	9.19	-47.4	-60.2	4.5	7.53e-01	0	37	0	42991616	65	16585
2026-01-22 10:35:55.85	180.83	9.52	-46.4	-52.9	10.1	1.46e+00	0	37	104	48234496	64	7619
2026-01-22 10:35:59.89	181.01	9.86	-45.3	-49.2	14.5	0.00e+00	0	37	0	54525952	61	5868
2026-01-22 10:36:03.96	181.20	10.20	-44.1	-47.0	16.6	0.00e+00	0	37	0	62914560	60	4865
2026-01-22 10:36:08.04	181.39	10.55	-44.0	-46.9	16.7	0.00e+00	0	37	0	70254592	59	5063
2026-01-22 10:36:12.03	181.59	10.90	-43.7	-46.6	17.0	0.00e+00	0	37	0	77594624	59	4886
2026-01-22 10:36:16.00	181.78	11.25	-43.5	-46.3	17.3	0.00e+00	0	37	0	84934656	58	5013
2026-01-22 10:36:19.98	181.99	11.61	-43.3	-46.1	17.6	0.00e+00	0	37	0	92274688	58	4876
2026-01-22 10:36:24.11	182.20	11.98	-43.2	-46.0	17.7	0.00e+00	0	37	0	100663296	58	4829
2026-01-22 10:36:28.10	182.41	12.35	-43.2	-45.9	17.7	0.00e+00	0	37	0	108003328	58	4803
2026-01-22 10:36:32.09	182.63	12.72	-43.2	-45.9	17.8	0.00e+00	0	37	0	115343360	58	4769
2026-01-22 10:36:36.12	182.85	13.10	-43.2	-45.9	17.8	0.00e+00	0	37	0	122683392	58	4774
2026-01-22 10:36:40.10	183.08	13.48	-43.0	-45.6	18.0	0.00e+00	0	37	0	130023424	57	4899
2026-01-22 10:36:44.08	183.31	13.87	-43.2	-45.8	17.9	0.00e+00	0	37	0	137363456	57	5014
2026-01-22 10:36:48.04	183.55	14.26	-43.2	-45.8	17.9	0.00e+00	0	37	0	145752064	57	5015
2026-01-22 10:36:52.02	183.79	14.66	-42.9	-45.4	18.2	0.00e+00	0	37	0	153092096	57	4813
2026-01-22 10:36:56.01	184.05	15.07	-43.3	-45.9	17.8	0.00e+00	0	37	0	160432128	57	5093
2026-01-22 10:37:00.32	184.33	15.52	-43.6	-46.3	17.4	0.00e+00	0	37	0	168820736	57	5331
2026-01-22 10:37:04.30	184.59	15.94	-43.6	-46.3	17.4	0.00e+00	0	37	0	176160768	58	5015
2026-01-22 10:37:08.36	184.87	16.37	-43.4	-46.1	17.6	0.00e+00	0	37	0	183500800	58	4887
2026-01-22 10:37:12.34	185.15	16.81	-43.3	-45.9	17.8	0.00e+00	0	37	0	190840832	58	4810
2026-01-22 10:37:16.32	185.44	17.25	-43.4	-46.1	17.7	0.00e+00	0	37	0	198180864	58	4892
2026-01-22 10:37:20.31	185.73	17.70	-43.6	-46.4	17.4	0.00e+00	0	37	0	205520896	58	5042
2026-01-22 10:37:24.29	186.04	18.15	-43.3	-45.9	17.8	0.00e+00	0	37	0	212860928	58	4796
2026-01-22 10:37:28.27	186.35	18.62	-43.3	-45.9	17.8	0.00e+00	0	37	0	221249536	58	4807
2026-01-22 10:37:32.36	186.68	19.10	-43.2	-45.7	18.0	0.00e+00	0	37	0	228589568	58	4693
2026-01-22 10:37:36.34	187.02	19.58	-42.9	-45.4	18.3	0.00e+00	0	37	0	235929600	57	4786
2026-01-22 10:37:40.32	187.36	20.07	-42.4	-44.7	18.9	0.00e+00	0	37	0	243269632	56	4697
2026-01-22 10:37:44.41	187.72	20.58	-41.5	-43.7	19.7	0.00e+00	0	37	0	250609664	54	4653
2026-01-22 10:37:48.51	188.10	21.10	-41.5	-43.7	19.7	0.00e+00	0	38	0	258998272	54	4662
2026-01-22 10:37:52.45	188.48	21.61	-41.7	-43.9	19.5	0.00e+00	0	37	0	266338304	54	4778
2026-01-22 10:37:56.43	188.87	22.14	-41.7	-44.0	19.5	0.00e+00	0	38	0	273678336	54	4818
2026-01-22 10:38:00.41	189.27	22.68	-41.9	-44.2	19.4	0.00e+00	0	37	0	281018368	54	4933
2026-01-22 10:38:04.40	189.69	23.22	-41.8	-44.1	19.4	0.00e+00	0	37	0	288358400	54	4875
2026-01-22 10:38:08.37	190.12	23.78	-41.6	-43.8	19.7	0.00e+00	0	38	0	295698432	54	4724
2026-01-22 10:38:12.48	190.58	24.36	-41.7	-43.9	19.5	0.00e+00	0	38	0	304087040	54	4784
2026-01-22 10:38:16.46	191.04	24.94	-41.4	-43.5	19.9	0.00e+00	0	37	0	311427072	54	4572
2026-01-22 10:38:20.43	191.52	25.53	-41.3	-43.4	20.0	0.00e+00	0	37	0	318767104	54	4531
2026-01-22 10:38:24.41	192.02	26.13	-41.4	-43.5	19.9	0.00e+00	0	38	0	326107136	54	4581
2026-01-22 10:38:28.47	192.55	26.75	-41.5	-43.7	19.8	0.00e+00	0	37	0	333447168	54	4668
2026-01-22 10:38:32.45	193.08	27.37	-41.5	-43.6	19.8	0.00e+00	0	38	0	340787200	54	4651
2026-01-22 10:38:36.44	193.64	28.01	-41.9	-44.1	19.4	0.00e+00	0	37	0	348127232	54	4907
2026-01-22 10:38:40.51	194.24	28.67	-42.9	-45.2	18.7	0.00e+00	0	38	0	356515840	56	4952
2026-01-22 10:38:44.62	194.86	29.35	-43.3	-45.7	18.2	0.00e+00	0	38	0	363855872	57	4965
2026-01-22 10:38:48.66	195.50	30.03	-43.9	-46.5	17.5	0.00e+00	0	38	0	371195904	58	5134
2026-01-22 10:38:52.69	196.16	30.72	-44.5	-47.3	16.7	0.00e+00	0	38	0	378535936	59	5328
2026-01-22 10:38:56.77	196.86	31.43	-44.9	-47.9	16.2	0.00e+00	0	37	0	386924544	60	5350
2026-01-22 10:39:01.16	197.65	32.22	-45.0	-48.1	16.0	0.00e+00	0	38	0	395313152	60	5472
2026-01-22 10:39:05.46	198.46	33.00	-44.6	-47.5	16.7	0.00e+00	0	38	0	402653184	60	5105
2026-01-22 10:39:10.12	199.39	33.86	-44.4	-47.2	16.9	0.00e+00	0	38	0	412090368	60	4937
2026-01-22 10:39:14.65	200.33	34.71	-44.0	-46.6	17.4	0.00e+00	0	37	0	420478976	59	4909
2026-01-22 10:39:18.69	201.22	35.48	-44.2	-46.9	17.1	0.00e+00	0	38	0	427819008	59	5062
2026-01-22 10:39:22.99	202.21	36.32	-44.6	-47.4	16.6	0.00e+00	0	38	0	436207616	59	5381
2026-01-22 10:39:27.00	203.17	37.11	-43.9	-46.5	17.5	0.00e+00	0	38	0	443547648	59	4829
2026-01-22 10:39:31.07	204.21	37.92	-44.0	-46.6	17.5	0.00e+00	0	38	0	450887680	59	4882
2026-01-22 10:39:35.11	205.28	38.73	-44.4	-47.2	16.8	0.00e+00	0	38	0	458227712	60	4979
2026-01-22 10:39:39.26	206.44	39.58	-44.3	-47.1	17.0	0.00e+00	0	38	0	466616320	60	4909
2026-01-22 10:39:43.27	207.62	40.40	-42.9	-45.2	18.7	0.00e+00	0	38	0	473956352	57	4658
2026-01-22 10:39:47.27	208.86	41.23	-44.1	-46.8	17.2	0.00e+00	0	38	0	481296384	59	5041
2026-01-22 10:39:51.26	210.16	42.05	-43.5	-46.0	18.1	0.00e+00	0	38	0	488636416	58	4826
2026-01-22 10:39:55.25	211.52	42.88	-43.8	-46.3	17.7	0.00e+00	0	38	0	495976448	58	5028
2026-01-22 10:39:59.25	212.96	43.71	-44.6	-47.4	16.7	0.00e+00	0	38	0	503316480	59	5367
2026-01-22 10:40:03.26	214.48	44.54	-45.5	-48.8	15.3	0.00e+00	0	37	0	511705088	61	5623
2026-01-22 10:40:07.26	216.08	45.37	-44.8	-47.6	16.5	0.00e+00	0	38	0	519045120	60	5188
2026-01-22 10:40:11.24	217.75	46.18	-45.9	-49.4	14.8	7.00e-07	0	37	0	526385152	63	5347
2026-01-22 10:40:15.22	219.51	46.97	-46.0	-49.4	14.9	0.00e+00	0	38	0	533725184	63	5394
2026-01-22 10:40:19.20	221.35	47.76	-45.5	-48.7	15.5	7.00e-07	0	38	0	541065216	62	5243
2026-01-22 10:40:23.13	223.27	48.51	-44.9	-47.9	16.3	0.00e+00	0	38	0	548405248	60	5351
2026-01-22 10:40:27.24	225.37	49.28	-44.0	-46.6	17.5	0.00e+00	0	38	0	556793856	59	4877
2026-01-22 10:40:31.50	227.66	50.04	-44.4	-47.1	17.0	0.00e+00	0	38	0	564133888	60	4922
2026-01-22 10:40:35.50	229.92	50.71	-43.3	-45.8	18.2	0.00e+00	0	38	0	571473920	57	5005
2026-01-22 10:40:39.53	232.29	51.36	-42.2	-44.3	19.4	0.00e+00	0	38	0	579862528	56	4493
2026-01-22 10:40:43.65	234.82	51.97	-42.3	-44.5	19.2	0.00e+00	0	37	0	587202560	55	4853
2026-01-22 10:40:47.83	237.48	52.54	-42.4	-44.8	19.0	0.00e+00	0	38	0	594542592	55	4997
2026-01-22 10:40:51.91	240.18	53.04	-42.9	-45.3	18.7	0.00e+00	0	37	0	602931200	56	5008
2026-01-22 10:40:55.89	242.90	53.47	-43.2	-45.6	18.4	0.00e+00	0	38	0	610271232	57	4919
2026-01-22 10:40:59.89	245.71	53.84	-43.7	-46.2	17.9	0.00e+00	0	38	0	617611264	57	5264
2026-01-22 10:41:03.94	248.61	54.14	-44.0	-46.6	17.4	0.00e+00	0	38	0	624951296	59	4916
2026-01-22 10:41:07.92	251.52	54.36	-44.2	-46.9	17.2	0.00e+00	0	38	0	632291328	59	5051
2026-01-22 10:41:11.92	254.48	54.51	-43.4	-45.8	18.2	0.00e+00	0	38	0	639631360	58	4752
2026-01-22 10:41:15.99	257.52	54.59	-44.2	-46.9	17.2	0.00e+00	0	38	0	648019968	59	5069
2026-01-22 10:41:19.97	260.50	54.59	-43.4	-45.9	18.2	0.00e+00	0	38	0	655360000	58	4782
2026-01-22 10:41:24.01	263.51	54.51	-42.7	-45.0	19.0	0.00e+00	0	38	0	662700032	57	4562
2026-01-22 10:41:28.01	266.47	54.36	-43.2	-45.6	18.4	0.00e+00	0	38	0	670040064	57	4893
2026-01-22 10:41:31.99	269.37	54.13	-42.8	-45.0	19.0	0.00e+00	0	38	0	677380096	57	4572
2026-01-22 10:41:36.00	272.25	53.83	-43.5	-46.0	18.1	0.00e+00	0	38	0	684720128	57	5148
2026-01-22 10:41:39.98	275.03	53.47	-44.1	-46.7	17.5	0.00e+00	0	38	0	693108736	58	5228
2026-01-22 10:41:43.99	277.77	53.04	-43.9	-46.6	17.6	0.00e+00	0	38	0	700448768	59	4879
2026-01-22 10:41:48.01	280.42	52.55	-43.7	-46.2	17.9	0.00e+00	0	38	0	707788800	58	4981
2026-01-22 10:41:52.00	282.97	52.01	-43.3	-45.8	18.3	0.00e+00	0	37	0	715128832	58	4707
2026-01-22 10:41:56.01	285.43	51.42	-43.2	-45.6	18.4	0.00e+00	0	38	0	722468864	58	4614
2026-01-22 10:42:00.02	287.79	50.78	-42.1	-44.3	19.5	0.00e+00	0	38	0	729808896	56	4461
2026-01-22 10:42:04.11	290.10	50.09	-42.2	-44.4	19.3	0.00e+00	0	38	0	738197504	55	4796
2026-01-22 10:42:08.08	292.24	49.39	-42.4	-44.6	19.2	0.00e+00	0	38	0	745537536	56	4630
2026-01-22 10:42:12.06	294.29	48.66	-44.3	-47.0	17.0	0.00e+00	0	38	0	752877568	59	5148
2026-01-22 10:42:16.04	296.24	47.90	-45.6	-48.8	15.5	0.00e+00	0	38	0	760217600	62	5337
2026-01-22 10:42:20.02	298.10	47.12	-46.2	-49.7	14.5	0.00e+00	0	38	0	767557632	63	5588
2026-01-22 10:42:24.00	299.87	46.33	-45.6	-49.0	15.1	7.00e-07	0	38	0	774897664	63	5125
2026-01-22 10:42:27.98	301.55	45.53	-47.1	-51.5	12.6	4.04e-05	0	38	0	782237696	64	6456
2026-01-22 10:42:32.40	303.32	44.62	-46.9	-51.1	13.1	1.22e-05	0	38	0	790626304	64	6159
2026-01-22 10:42:36.44	304.85	43.79	-47.3	-51.8	12.0	7.04e-04	0	38	0	799014912	66	5992
2026-01-22 10:42:40.47	306.30	42.96	-49.1	-56.9	7.4	6.86e-02	0	38	0	806354944	68	9561
2026-01-22 10:42:44.75	307.76	42.07	-45.5	-48.8	15.3	0.00e+00	0	38	0	813694976	62	5337
2026-01-22 10:42:48.72	309.05	41.25	-45.9	-49.5	14.6	1.50e-06	0	38	0	822083584	63	5431
2026-01-22 10:42:52.72	310.28	40.43	-44.2	-46.9	17.1	0.00e+00	0	38	0	829423616	59	5096
2026-01-22 10:42:56.79	311.47	39.60	-43.8	-46.4	17.6	0.00e+00	0	38	0	836763648	59	4775
2026-01-22 10:43:00.77	312.58	38.80	-46.3	-50.2	14.0	1.50e-06	0	38	0	844103680	63	5898
2026-01-22 10:43:04.73	313.64	38.00	-43.7	-46.3	17.7	0.00e+00	0	38	0	851443712	59	4735
2026-01-22 10:43:08.72	314.65	37.21	-44.9	-48.1	16.1	0.00e+00	0	38	0	858783744	60	5465
2026-01-22 10:43:12.78	315.63	36.42	-43.9	-46.6	17.5	0.00e+00	0	38	0	867172352	59	4873
2026-01-22 10:43:16.76	316.55	35.65	-43.2	-45.6	18.3	0.00e+00	0	38	0	874512384	57	4921
2026-01-22 10:43:21.28	317.54	34.79	-44.8	-47.8	16.3	0.00e+00	0	38	0	882900992	61	5016
2026-01-22 10:43:25.29	318.37	34.04	-44.3	-47.3	16.7	0.00e+00	0	38	0	890241024	59	5331
2026-01-22 10:43:29.27	319.17	33.30	-45.7	-50.0	14.2	0.00e+00	0	38	0	897581056	62	6082
2026-01-22 10:43:33.28	319.94	32.58	-44.3	-47.2	16.8	0.00e+00	0	38	0	904921088	60	4979
2026-01-22 10:43:37.27	320.67	31.86	-44.2	-47.0	17.0	0.00e+00	0	38	0	912261120	59	5156
2026-01-22 10:43:41.26	321.37	31.16	-45.7	-49.4	14.7	0.00e+00	0	38	0	919601152	62	5691
2026-01-22 10:43:45.29	322.05	30.47	-45.2	-48.7	15.4	0.00e+00	0	38	0	927989760	62	5253
2026-01-22 10:43:49.22	322.68	29.81	-44.8	-48.1	16.0	0.00e+00	0	38	0	935329792	60	5498
2026-01-22 10:43:53.20	323.30	29.14	-45.7	-49.4	14.8	0.00e+00	0	38	0	942669824	62	5684
2026-01-22 10:43:57.18	323.89	28.50	-45.1	-48.7	15.4	0.00e+00	0	38	0	950009856	62	5253
2026-01-22 10:44:01.13	324.46	27.86	-43.6	-46.3	17.6	0.00e+00	0	38	0	957349888	59	4750
2026-01-22 10:44:05.35	325.04	27.20	-42.5	-44.8	19.0	0.00e+00	0	38	0	964689920	56	4741
2026-01-22 10:44:09.88	325.64	26.50	-43.7	-46.7	17.3	0.00e+00	0	38	0	974127104	58	5222
2026-01-22 10:44:13.82	326.14	25.91	-44.7	-47.8	16.2	0.00e+00	0	38	0	981467136	60	5316
2026-01-22 10:44:17.80	326.63	25.32	-43.4	-46.0	17.9	0.00e+00	0	38	0	988807168	58	4847
2026-01-22 10:44:21.83	327.11	24.73	-43.2	-45.8	18.1	0.00e+00	0	38	0	996147200	57	4989
2026-01-22 10:44:25.78	327.56	24.17	-43.0	-45.6	18.3	0.00e+00	0	38	0	1003487232	57	4901
2026-01-22 10:44:29.76	328.00	23.61	-44.1	-47.2	16.8	0.00e+00	0	38	0	1010827264	58	5533
2026-01-22 10:44:33.77	328.43	23.06	-44.1	-46.9	17.1	0.00e+00	0	38	0	1018167296	59	5093
2026-01-22 10:44:37.74	328.84	22.52	-43.6	-46.3	17.6	0.00e+00	0	38	0	1025507328	59	4708
2026-01-22 10:44:42.20	329.28	21.93	-43.0	-45.5	18.3	0.00e+00	0	38	0	1033895936	57	4857
2026-01-22 10:44:46.14	329.66	21.42	-43.4	-46.0	17.9	0.00e+00	0	38	0	1041235968	57	5130
2026-01-22 10:44:50.19	330.04	20.91	-44.3	-47.3	16.6	0.00e+00	0	38	0	1049624576	59	5338
2026-01-22 10:44:54.15	330.40	20.41	-44.5	-47.8	16.2	0.00e+00	0	38	0	1056964608	59	5634
2026-01-22 10:44:58.13	330.75	19.92	-44.1	-47.1	16.9	0.00e+00	0	38	0	1064304640	59	5163
2026-01-22 10:45:02.20	331.09	19.43	-43.7	-46.4	17.5	0.00e+00	0	38	0	1071644672	58	5043
2026-01-22 10:45:06.18	331.42	18.96	-43.2	-45.7	18.0	0.00e+00	0	38	0	1078984704	58	4689
2026-01-22 10:45:10.19	331.74	18.49	-43.6	-46.3	17.5	0.00e+00	0	38	0	1086324736	58	5025
2026-01-22 10:45:14.30	332.06	18.02	-43.8	-46.7	17.2	0.00e+00	0	38	0	1094713344	58	5228
2026-01-22 10:45:18.41	332.37	17.56	-43.5	-46.3	17.5	0.00e+00	0	38	0	1102053376	58	5037
2026-01-22 10:45:22.40	332.67	17.11	-43.0	-45.7	18.1	0.00e+00	0	38	0	1109393408	58	4667
2026-01-22 10:45:26.58	332.97	16.66	-42.5	-44.9	18.8	0.00e+00	0	38	0	1117782016	56	4781
2026-01-22 10:45:30.56	333.24	16.23	-42.2	-44.5	19.1	0.00e+00	0	38	0	1125122048	56	4580
2026-01-22 10:45:34.64	333.52	15.80	-42.2	-44.6	19.0	0.00e+00	0	38	0	1132462080	56	4621
2026-01-22 10:45:38.85	333.80	15.36	-42.7	-45.1	18.6	0.00e+00	0	38	0	1140850688	56	4894
2026-01-22 10:45:42.83	334.05	14.96	-43.4	-46.0	17.7	0.00e+00	0	38	0	1148190720	57	5129
2026-01-22 10:45:46.81	334.30	14.56	-44.1	-47.0	16.8	0.00e+00	0	38	0	1155530752	58	5416
2026-01-22 10:45:50.80	334.55	14.16	-44.5	-47.7	16.1	0.00e+00	0	38	0	1162870784	59	5558
2026-01-22 10:45:54.85	334.79	13.77	-44.8	-48.1	15.7	0.00e+00	0	38	0	1170210816	60	5524
2026-01-22 10:45:58.84	335.02	13.39	-44.7	-47.9	15.9	0.00e+00	0	38	0	1177550848	60	5398
2026-01-22 10:46:02.80	335.25	13.01	-44.6	-47.7	16.2	0.00e+00	0	38	0	1185939456	60	5223
2026-01-22 10:46:06.77	335.47	12.64	-44.0	-46.9	16.8	0.00e+00	0	38	0	1193279488	60	4808
2026-01-22 10:46:10.86	335.69	12.27	-43.3	-46.1	17.6	0.00e+00	0	38	0	1200619520	58	4914
2026-01-22 10:46:14.90	335.90	11.90	-43.0	-46.0	17.7	0.00e+00	0	38	0	1207959552	57	5101
2026-01-22 10:46:18.94	336.11	11.54	-42.8	-45.8	17.9	0.00e+00	0	38	0	1215299584	57	4995
2026-01-22 10:46:22.92	336.31	11.19	-42.9	-45.9	17.7	0.00e+00	0	38	0	1223688192	57	5065
2026-01-22 10:46:26.90	336.51	10.84	-42.8	-45.7	17.8	0.00e+00	0	38	0	1231028224	57	4983
2026-01-22 10:46:30.88	336.71	10.50	-42.8	-45.8	17.7	0.00e+00	0	38	0	1238368256	57	5037
2026-01-22 10:46:35.43	336.92	10.12	-43.0	-46.1	17.5	0.00e+00	0	38	0	1246756864	57	5184
2026-01-22 10:46:39.43	337.11	9.78	-43.3	-46.4	17.2	0.00e+00	0	38	0	1254096896	57	5363
2026-01-22 10:46:43.63	337.30	9.44	-43.4	-46.6	17.0	0.00e+00	0	38	0	1262485504	57	5472
2026-01-22 10:46:47.56	337.47	9.12	-43.5	-46.7	16.8	0.00e+00	0	38	0	1269825536	57	5590
2026-01-22 10:46:51.53	337.65	8.80	-49.5	-65.3	3.8	1.49e+00	0	38	104	1274019840	69	23584
2026-01-22 10:46:55.51	337.82	8.48	-49.5	-65.5	3.8	1.49e+00	0	38	104	1274019840	69	24346
2026-01-22 10:46:59.48	337.98	8.17	-50.0	-65.6	3.8	1.49e+00	0	38	104	1274019840	70	23296
2026-01-22 10:47:03.46	338.15	7.87	-50.0	-65.7	3.8	1.49e+00	0	38	104	1274019840	71	22026
2026-01-22 10:47:07.43	338.31	7.56	-50.4	-65.6	3.8	1.49e+00	0	38	104	1274019840	71	21912
2026-01-22 10:47:11.40	338.47	7.26	-50.3	-65.6	3.8	1.49e+00	0	38	104	1274019840	71	21826
2026-01-22 10:47:15.38	338.62	6.96	-50.2	-65.6	3.8	1.49e+00	0	38	104	1274019840	71	21810
2026-01-22 10:47:19.35	338.77	6.67	-50.2	-65.6	3.8	1.49e+00	0	38	104	1274019840	71	21759
2026-01-22 10:47:23.33	338.92	6.38	-50.2	-65.5	3.8	1.49e+00	0	38	104	1274019840	71	21732
2026-01-22 10:47:27.30	339.07	6.09	-50.2	-65.6	3.8	1.49e+00	0	38	104	1274019840	71	21767
2026-01-22 10:47:31.27	339.21	5.81	-50.2	-65.6	3.8	1.49e+00	0	38	104	1274019840	71	21762
2026-01-22 10:47:35.24	339.36	5.52	-50.2	-65.5	3.8	1.49e+00	0	38	104	1274019840	71	21698
2026-01-22 10:47:39.22	339.50	5.24	-50.1	-65.5	3.8	1.49e+00	0	38	104	1274019840	71	21643
2026-01-22 10:47:43.19	339.63	4.97	-50.1	-65.5	3.8	1.49e+00	0	38	104	1274019840	71	21676

#Closed at: 2026-01-22 10:47:44
#Recorded file [1274 MB]: D:/Data/31040_260122_133456.dat