passes_logs/2026/01/22/T1/T1__20260122_015800_AQUA_rec.log

#Pass ID: 20260122_015800_AQUA
#Satellite: AQUA
#Configuration: AQUA
#almurnet v.1.7.20251203
#Start time: 2026-01-22 01:57:59

#Version: 2.0.20230620
#Station: T1
#Location: 37.570604 lon 55.790049 lat
#TLE: 1 27424U 02022A   26020.90316333  .00002787  00000+0  56766-3 0  9999
#TLE: 2 27424  98.4095 347.4297 0002000  71.6339 309.8236 14.61840001261750

#Time	Az	El	Level	Level2	SNR	BER	BlckErr	Temp	State	Recorded	gain1	gain2
2026-01-22 01:57:59.73	10.88	4.98	-50.5	-71.8	3.8	7.46e-01	0	35	0	0	71	44769
2026-01-22 01:58:02.71	10.77	5.20	-45.8	-70.6	3.5	7.61e-01	0	36	104	0	62	65535
2026-01-22 01:58:05.69	10.67	5.42	-45.8	-70.6	3.5	7.56e-01	0	36	104	0	62	65535
2026-01-22 01:58:08.67	10.56	5.65	-45.8	-70.6	3.6	7.56e-01	0	36	104	0	62	65535
2026-01-22 01:58:11.65	10.45	5.87	-45.8	-70.6	3.6	7.56e-01	0	36	104	0	62	65534
2026-01-22 01:58:14.63	10.33	6.10	-45.8	-70.6	3.6	7.57e-01	0	36	104	0	62	65535
2026-01-22 01:58:17.61	10.22	6.32	-45.8	-70.6	3.6	7.57e-01	0	36	104	0	62	65534
2026-01-22 01:58:20.59	10.10	6.55	-45.8	-70.6	3.6	7.53e-01	0	36	104	0	62	65535
2026-01-22 01:58:23.57	9.98	6.79	-45.8	-70.6	3.7	7.49e-01	0	36	104	0	62	65535
2026-01-22 01:58:26.55	9.86	7.02	-45.8	-70.6	3.8	7.51e-01	0	36	104	0	62	65530
2026-01-22 01:58:29.53	9.74	7.26	-45.8	-70.6	3.8	7.48e-01	0	37	104	0	62	65529
2026-01-22 01:58:32.51	9.61	7.50	-45.8	-70.6	3.6	7.53e-01	0	37	104	0	62	65535
2026-01-22 01:58:35.49	9.48	7.74	-45.7	-70.6	3.6	7.57e-01	0	37	104	0	62	65535
2026-01-22 01:58:38.48	9.35	7.99	-45.7	-70.4	3.8	7.47e-01	0	37	104	0	62	63575
2026-01-22 01:58:41.46	9.22	8.23	-45.5	-66.7	3.8	7.44e-01	0	37	104	0	62	41933
2026-01-22 01:58:44.44	9.08	8.48	-44.9	-63.2	3.8	7.46e-01	0	37	104	0	61	29481
2026-01-22 01:58:47.41	8.94	8.74	-44.5	-61.3	3.8	7.43e-01	0	37	104	0	61	23732
2026-01-22 01:58:50.40	8.80	8.99	-44.6	-61.4	3.8	7.48e-01	0	37	104	0	60	25491
2026-01-22 01:58:53.38	8.65	9.25	-45.3	-65.1	4.0	7.39e-01	0	37	104	0	61	36563
2026-01-22 01:58:56.36	8.51	9.51	-45.5	-63.5	3.9	7.45e-01	0	37	104	0	62	28908
2026-01-22 01:58:59.34	8.35	9.77	-44.2	-57.7	3.8	7.42e-01	0	37	104	0	59	17628
2026-01-22 01:59:02.46	8.19	10.05	-44.9	-60.0	3.8	7.48e-01	0	37	104	0	60	21710
2026-01-22 01:59:05.30	8.04	10.31	-46.0	-62.8	3.9	7.44e-01	0	37	104	0	63	25118
2026-01-22 01:59:08.42	7.87	10.59	-44.1	-57.3	3.8	7.45e-01	0	37	104	0	60	15859
2026-01-22 01:59:11.26	7.72	10.86	-44.6	-58.2	3.9	7.40e-01	0	37	104	0	60	17559
2026-01-22 01:59:14.42	7.54	11.15	-46.5	-54.2	16.1	6.00e-01	0	37	0	0	63	9283
2026-01-22 01:59:17.26	7.37	11.42	-46.6	-53.0	17.2	6.01e-01	0	37	0	5242880	64	7695
2026-01-22 01:59:20.71	7.17	11.75	-46.6	-52.5	18.0	6.00e-01	0	37	0	11534336	64	7266
2026-01-22 01:59:23.77	6.98	12.05	-46.5	-51.9	18.7	6.01e-01	0	37	0	17301504	63	7185
2026-01-22 01:59:26.61	6.81	12.33	-45.9	-50.4	19.8	6.01e-01	0	37	0	22544384	63	6051
2026-01-22 01:59:29.73	6.61	12.64	-44.6	-48.3	21.8	6.01e-01	0	37	0	28835840	60	5650
2026-01-22 01:59:32.69	6.41	12.94	-44.3	-47.6	22.6	6.02e-01	0	37	0	34078720	59	5478
2026-01-22 01:59:35.87	6.20	13.27	-43.8	-46.8	23.4	6.05e-01	0	37	0	40370176	59	4989
2026-01-22 01:59:38.79	6.00	13.57	-43.5	-46.4	23.7	5.99e-01	0	37	0	45613056	58	5061
2026-01-22 01:59:42.07	5.77	13.91	-43.7	-46.5	23.6	6.01e-01	0	37	0	51904512	58	5139
2026-01-22 01:59:44.87	5.57	14.21	-43.7	-46.5	23.7	5.99e-01	0	37	0	57147392	58	5120
2026-01-22 01:59:48.00	5.34	14.55	-43.7	-46.6	23.6	5.99e-01	0	37	0	62914560	58	5161
2026-01-22 01:59:50.84	5.13	14.86	-43.7	-46.5	23.6	6.00e-01	0	38	0	68157440	58	5159
2026-01-22 01:59:53.99	4.89	15.21	-43.7	-46.4	23.8	6.01e-01	0	37	0	73924608	58	5058
2026-01-22 01:59:56.83	4.66	15.53	-43.7	-46.3	23.9	5.99e-01	0	37	0	79691776	58	4998
2026-01-22 01:59:59.96	4.41	15.89	-43.6	-46.2	23.9	6.01e-01	0	37	0	85458944	58	4975
2026-01-22 02:00:02.80	4.17	16.21	-43.6	-46.1	24.1	5.99e-01	0	38	0	90701824	58	4901
2026-01-22 02:00:05.92	3.91	16.58	-43.6	-46.1	23.2	6.01e-01	0	38	0	96468992	58	4923
2026-01-22 02:00:08.83	3.65	16.93	-43.6	-46.1	24.0	6.01e-01	0	38	0	101711872	58	4911
2026-01-22 02:00:12.08	3.36	17.32	-43.7	-46.3	23.9	6.01e-01	0	37	0	108003328	58	4996
2026-01-22 02:00:14.97	3.09	17.67	-43.5	-46.2	24.0	6.01e-01	0	38	0	113246208	58	4949
2026-01-22 02:00:18.17	2.79	18.07	-43.7	-46.3	23.9	6.02e-01	0	38	0	119537664	58	5031
2026-01-22 02:00:21.68	2.44	18.52	-43.7	-46.4	23.9	6.04e-01	0	38	0	125829120	58	5049
2026-01-22 02:00:24.39	2.17	18.86	-43.7	-46.4	23.8	6.03e-01	0	37	0	131072000	58	5075
2026-01-22 02:00:27.68	1.83	19.29	-43.8	-46.4	23.9	6.01e-01	0	37	0	137363456	58	5054
2026-01-22 02:00:30.56	1.52	19.67	-43.8	-46.3	24.0	6.00e-01	0	38	0	142606336	58	4992
2026-01-22 02:00:33.68	1.18	20.09	-43.7	-46.2	24.1	6.01e-01	0	37	0	148373504	58	4942
2026-01-22 02:00:36.81	0.82	20.52	-43.8	-46.3	23.9	6.02e-01	0	38	0	154664960	58	5039
2026-01-22 02:00:39.65	0.49	20.92	-43.9	-46.5	23.8	6.00e-01	0	38	0	159907840	58	5128
2026-01-22 02:00:42.78	0.11	21.36	-43.9	-46.6	23.6	6.01e-01	0	37	0	165675008	58	5210
2026-01-22 02:00:45.72	359.75	21.78	-44.0	-46.5	23.8	6.01e-01	0	37	0	170917888	58	5149
2026-01-22 02:00:48.84	359.35	22.23	-43.9	-46.4	23.9	6.00e-01	0	38	0	177209344	58	5079
2026-01-22 02:00:51.69	358.98	22.65	-43.9	-46.5	23.9	6.00e-01	0	38	0	182452224	58	5107
2026-01-22 02:00:54.81	358.55	23.12	-44.0	-46.6	23.8	6.00e-01	0	38	0	188219392	58	5195
2026-01-22 02:00:57.66	358.16	23.56	-44.2	-46.8	23.6	6.00e-01	0	38	0	193462272	58	5337
2026-01-22 02:01:00.96	357.68	24.07	-44.0	-46.6	23.8	6.01e-01	0	38	0	199753728	59	4897
2026-01-22 02:01:03.68	357.27	24.50	-44.0	-46.5	23.8	6.02e-01	0	38	0	204996608	59	4835
2026-01-22 02:01:07.45	356.69	25.10	-44.1	-46.6	23.8	6.01e-01	0	38	0	211812352	59	4874
2026-01-22 02:01:10.23	356.24	25.55	-43.9	-46.5	23.9	6.02e-01	0	38	0	217055232	59	4822
2026-01-22 02:01:13.51	355.70	26.10	-43.6	-46.0	24.3	6.02e-01	0	38	0	223346688	59	4589
2026-01-22 02:01:16.28	355.23	26.56	-43.8	-46.3	24.1	6.01e-01	0	38	0	228589568	59	4708
2026-01-22 02:01:19.63	354.63	27.13	-44.0	-46.5	23.9	6.04e-01	0	38	0	234881024	59	4819
2026-01-22 02:01:22.66	354.08	27.66	-43.5	-45.9	24.4	6.01e-01	0	37	0	240123904	59	4516
2026-01-22 02:01:25.94	353.45	28.24	-43.6	-46.0	23.9	6.02e-01	0	38	0	246415360	59	4559
2026-01-22 02:01:28.66	352.91	28.72	-43.6	-45.9	24.4	6.01e-01	0	38	0	251658240	59	4530
2026-01-22 02:01:31.94	352.24	29.32	-43.5	-45.9	24.4	6.00e-01	0	38	0	257949696	59	4530
2026-01-22 02:01:35.10	351.57	29.90	-43.3	-45.8	24.5	6.03e-01	0	38	0	263716864	58	4730
2026-01-22 02:01:38.09	350.91	30.46	-43.3	-45.7	24.6	6.01e-01	0	38	0	269484032	58	4676
2026-01-22 02:01:41.07	350.23	31.02	-43.3	-45.6	24.6	6.03e-01	0	38	0	274726912	58	4648
2026-01-22 02:01:44.05	349.52	31.59	-43.1	-45.5	24.7	6.02e-01	0	37	0	280494080	58	4591
2026-01-22 02:01:47.04	348.79	32.17	-43.7	-46.1	24.3	5.98e-01	0	38	0	286261248	58	4909
2026-01-22 02:01:50.02	348.02	32.76	-43.6	-46.2	24.2	6.02e-01	0	38	0	291504128	58	4942
2026-01-22 02:01:53.01	347.23	33.35	-43.3	-45.9	24.5	6.01e-01	0	38	0	297271296	58	4784
2026-01-22 02:01:55.99	346.41	33.95	-44.0	-46.6	23.7	6.02e-01	0	38	0	303038464	58	5172
2026-01-22 02:01:58.97	345.55	34.55	-44.0	-46.5	24.0	5.99e-01	0	38	0	308281344	58	5140
2026-01-22 02:02:01.96	344.66	35.16	-44.5	-47.1	23.5	6.00e-01	0	38	0	314048512	59	5182
2026-01-22 02:02:04.94	343.74	35.77	-44.6	-47.2	23.3	6.00e-01	0	38	0	319815680	59	5259
2026-01-22 02:02:07.93	342.78	36.39	-44.3	-47.2	23.2	6.02e-01	0	38	0	325058560	60	4977
2026-01-22 02:02:10.98	341.76	37.02	-44.5	-47.3	23.2	6.02e-01	0	38	0	330825728	60	5005
2026-01-22 02:02:13.96	340.72	37.65	-45.1	-47.8	21.9	6.00e-01	0	38	0	336592896	61	4992
2026-01-22 02:02:16.95	339.63	38.27	-45.0	-47.7	22.9	6.03e-01	0	38	0	342360064	61	4940
2026-01-22 02:02:19.93	338.51	38.90	-45.4	-48.3	22.3	6.04e-01	0	38	0	347602944	61	5294
2026-01-22 02:02:22.97	337.31	39.53	-45.0	-47.9	22.7	6.02e-01	0	37	0	353370112	61	5059
2026-01-22 02:02:25.95	336.10	40.15	-45.4	-48.2	22.4	6.00e-01	0	38	0	359137280	61	5277
2026-01-22 02:02:28.94	334.83	40.77	-45.1	-47.9	22.7	6.02e-01	0	38	0	364904448	61	5083
2026-01-22 02:02:31.92	333.51	41.38	-44.8	-47.7	22.8	6.03e-01	0	38	0	370147328	61	4968
2026-01-22 02:02:34.90	332.14	41.99	-44.7	-47.6	22.9	6.02e-01	0	38	0	375914496	61	4916
2026-01-22 02:02:37.93	330.70	42.59	-44.6	-47.3	23.2	6.00e-01	0	38	0	381681664	61	4713
2026-01-22 02:02:40.89	329.23	43.17	-44.7	-47.3	23.2	5.97e-01	0	38	0	386924544	61	4735
2026-01-22 02:02:43.92	327.67	43.76	-44.5	-47.1	23.3	6.03e-01	0	38	0	392691712	60	4911
2026-01-22 02:02:46.90	326.08	44.32	-44.5	-47.2	23.3	6.03e-01	0	38	0	398458880	60	4945
2026-01-22 02:02:49.89	324.43	44.86	-44.3	-46.9	23.5	6.02e-01	0	38	0	404226048	60	4789
2026-01-22 02:02:52.87	322.72	45.38	-44.4	-47.1	23.3	6.00e-01	0	38	0	409468928	60	4914
2026-01-22 02:02:55.87	320.95	45.88	-44.5	-47.4	23.1	6.03e-01	0	38	0	415236096	60	5081
2026-01-22 02:02:58.98	319.05	46.38	-44.4	-46.9	23.5	6.03e-01	0	38	0	421003264	60	4785
2026-01-22 02:03:01.83	317.26	46.81	-44.5	-47.2	23.3	6.03e-01	0	38	0	426246144	60	4944
2026-01-22 02:03:04.95	315.24	47.24	-44.7	-47.4	23.0	6.02e-01	0	38	0	432013312	60	5097
2026-01-22 02:03:07.79	313.35	47.61	-44.4	-47.0	23.4	6.02e-01	0	38	0	437780480	60	4829
2026-01-22 02:03:10.92	311.22	47.98	-44.7	-47.4	23.1	6.01e-01	0	38	0	443547648	60	5086
2026-01-22 02:03:13.87	309.16	48.29	-44.5	-47.2	23.2	6.04e-01	0	38	0	448790528	60	4953
2026-01-22 02:03:16.99	306.95	48.58	-44.5	-47.1	23.3	6.01e-01	0	38	0	454557696	60	4881
2026-01-22 02:03:19.84	304.89	48.80	-44.4	-47.0	23.4	6.00e-01	0	38	0	460324864	60	4820
2026-01-22 02:03:22.97	302.60	49.00	-44.9	-47.6	23.0	6.01e-01	0	38	0	466092032	60	5162
2026-01-22 02:03:25.81	300.49	49.14	-44.9	-47.7	22.9	6.02e-01	0	38	0	471334912	60	5244
2026-01-22 02:03:29.11	298.03	49.25	-44.5	-47.0	23.5	6.02e-01	0	38	0	477626368	60	4821
2026-01-22 02:03:31.82	295.99	49.30	-43.8	-46.3	24.1	6.02e-01	0	38	0	482344960	59	4706
2026-01-22 02:03:35.15	293.49	49.31	-45.7	-48.8	22.0	6.01e-01	0	38	0	488636416	62	5280
2026-01-22 02:03:37.89	291.43	49.27	-43.6	-45.8	24.3	6.02e-01	0	38	0	493879296	59	4490
2026-01-22 02:03:41.18	288.97	49.17	-43.8	-46.1	24.2	6.01e-01	0	38	0	500170752	59	4616
2026-01-22 02:03:43.90	286.94	49.05	-45.5	-48.5	21.9	6.00e-01	0	38	0	505413632	61	5431
2026-01-22 02:03:47.28	284.46	48.85	-45.4	-48.2	22.2	6.03e-01	0	38	0	511705088	61	5256
2026-01-22 02:03:50.00	282.49	48.65	-44.2	-46.6	23.2	6.02e-01	0	38	0	516423680	60	4633
2026-01-22 02:03:53.27	280.15	48.35	-44.6	-47.3	23.0	6.00e-01	0	38	0	522715136	60	4998
2026-01-22 02:03:56.01	278.23	48.07	-44.6	-47.2	23.3	6.00e-01	0	38	0	527958016	59	5246
2026-01-22 02:03:59.65	275.74	47.65	-44.1	-46.6	23.7	6.02e-01	0	38	0	534773760	60	4601
2026-01-22 02:04:02.70	273.71	47.26	-44.1	-46.4	24.0	5.98e-01	0	38	0	540540928	59	4800
2026-01-22 02:04:05.68	271.77	46.84	-44.4	-46.9	23.5	6.00e-01	0	38	0	546308096	60	4793
2026-01-22 02:04:08.67	269.88	46.39	-44.1	-46.6	23.7	6.00e-01	0	38	0	551550976	59	4892
2026-01-22 02:04:11.74	268.00	45.90	-44.2	-46.7	23.7	5.99e-01	0	38	0	557318144	60	4662
2026-01-22 02:04:14.65	266.27	45.42	-44.4	-47.0	23.4	6.01e-01	0	38	0	563085312	60	4822
2026-01-22 02:04:18.13	264.28	44.81	-44.9	-47.6	22.8	6.00e-01	0	38	0	569376768	60	5193
2026-01-22 02:04:20.88	262.75	44.30	-43.9	-46.3	24.0	6.02e-01	0	38	0	574619648	59	4746
2026-01-22 02:04:24.26	260.95	43.67	-43.8	-46.3	24.1	6.00e-01	0	38	0	580911104	59	4727
2026-01-22 02:04:26.98	259.55	43.14	-44.5	-47.0	23.5	6.01e-01	0	38	0	586153984	59	5116
2026-01-22 02:04:30.26	257.93	42.49	-44.3	-46.8	23.7	6.00e-01	0	38	0	591921152	59	5010
2026-01-22 02:04:33.04	256.60	41.93	-44.6	-47.1	23.4	6.01e-01	0	38	0	597164032	60	4879
2026-01-22 02:04:36.32	255.10	41.27	-44.2	-46.7	23.7	6.03e-01	0	38	0	603455488	60	4664
2026-01-22 02:04:39.17	253.84	40.68	-44.4	-46.9	23.5	6.01e-01	0	38	0	608698368	60	4775
2026-01-22 02:04:42.67	252.36	39.95	-44.8	-47.4	23.0	6.03e-01	0	38	0	615514112	60	5084
2026-01-22 02:04:45.38	251.26	39.38	-45.0	-47.6	22.9	6.01e-01	0	38	0	620756992	60	5170
2026-01-22 02:04:48.65	249.99	38.70	-45.5	-48.3	22.3	6.00e-01	0	38	0	626524160	62	4992
2026-01-22 02:04:51.39	248.96	38.12	-45.2	-47.9	22.6	6.02e-01	0	38	0	631767040	62	4807
2026-01-22 02:04:54.66	247.78	37.43	-45.5	-48.3	22.3	6.01e-01	0	38	0	638058496	62	4985
2026-01-22 02:04:57.40	246.83	36.86	-45.3	-48.0	22.5	6.00e-01	0	38	0	642777088	62	4860
2026-01-22 02:05:00.87	245.68	36.14	-45.1	-47.7	22.8	6.02e-01	0	38	0	649592832	62	4701
2026-01-22 02:05:03.81	244.74	35.53	-45.1	-47.8	22.6	6.04e-01	0	38	0	654835712	62	4731
2026-01-22 02:05:07.44	243.63	34.78	-45.0	-47.7	22.8	6.03e-01	0	38	0	661651456	61	4935
2026-01-22 02:05:10.15	242.84	34.23	-44.6	-47.2	23.3	6.02e-01	0	38	0	666894336	61	4660
2026-01-22 02:05:13.54	241.88	33.54	-44.7	-47.2	23.2	6.02e-01	0	38	0	673185792	61	4691
2026-01-22 02:05:16.26	241.14	33.00	-44.2	-46.7	23.6	6.02e-01	0	38	0	678428672	60	4683
2026-01-22 02:05:19.64	240.26	32.33	-44.7	-47.3	23.0	6.01e-01	0	38	0	684720128	60	5015
2026-01-22 02:05:22.46	239.55	31.78	-44.2	-46.7	23.7	6.02e-01	0	38	0	689963008	59	4937
2026-01-22 02:05:25.73	238.76	31.14	-44.4	-46.8	23.6	6.00e-01	0	38	0	696254464	59	5034
2026-01-22 02:05:28.47	238.13	30.62	-44.5	-47.0	23.4	5.99e-01	0	38	0	701497344	59	5122
2026-01-22 02:05:31.77	237.39	30.00	-44.1	-46.5	23.9	6.03e-01	0	38	0	707264512	59	4827
2026-01-22 02:05:34.61	236.77	29.47	-44.3	-46.9	23.5	6.02e-01	0	38	0	713031680	59	5049
2026-01-22 02:05:37.74	236.12	28.90	-44.3	-46.8	23.6	6.02e-01	0	38	0	718798848	59	4994
2026-01-22 02:05:40.86	235.49	28.33	-44.4	-47.0	23.4	6.02e-01	0	38	0	724566016	59	5108
2026-01-22 02:05:44.13	234.86	27.75	-44.4	-46.9	23.5	6.01e-01	0	38	0	730857472	59	5056
2026-01-22 02:05:46.85	234.35	27.28	-44.1	-46.6	23.7	6.02e-01	0	38	0	735576064	59	4903
2026-01-22 02:05:50.13	233.76	26.71	-44.5	-47.1	23.3	6.02e-01	0	38	0	741867520	59	5204
2026-01-22 02:05:52.87	233.28	26.24	-44.3	-46.8	23.5	5.99e-01	0	38	0	747110400	60	4736
2026-01-22 02:05:56.25	232.71	25.68	-44.1	-46.7	23.6	6.04e-01	0	38	0	753401856	60	4671
2026-01-22 02:05:58.95	232.27	25.23	-44.6	-47.2	23.1	6.03e-01	0	38	0	758644736	60	4965
2026-01-22 02:06:02.23	231.75	24.70	-44.3	-46.8	23.5	6.03e-01	0	38	0	764411904	60	4733
2026-01-22 02:06:04.94	231.33	24.27	-44.4	-47.0	23.4	6.01e-01	0	38	0	769654784	60	4815
2026-01-22 02:06:08.21	230.85	23.76	-44.6	-47.2	23.1	6.01e-01	0	38	0	775946240	60	4975
2026-01-22 02:06:11.02	230.45	23.32	-44.5	-47.1	23.2	6.01e-01	0	38	0	781189120	60	4885
2026-01-22 02:06:14.18	230.01	22.84	-44.4	-47.0	23.3	6.02e-01	0	38	0	786956288	60	4824
2026-01-22 02:06:17.30	229.59	22.37	-44.5	-47.0	23.2	6.02e-01	0	38	0	792723456	60	4853
2026-01-22 02:06:20.14	229.22	21.95	-44.6	-47.2	23.1	6.01e-01	0	38	0	797966336	60	4963
2026-01-22 02:06:23.38	228.81	21.48	-44.5	-47.1	23.2	6.04e-01	0	38	0	804257792	60	4918
2026-01-22 02:06:26.22	228.46	21.08	-44.6	-47.2	23.1	6.00e-01	0	38	0	809500672	60	4931
2026-01-22 02:06:29.35	228.08	20.64	-44.6	-47.2	23.1	6.02e-01	0	38	0	815267840	60	4978
2026-01-22 02:06:32.19	227.75	20.25	-44.2	-46.7	23.5	6.03e-01	0	38	0	821035008	60	4698
2026-01-22 02:06:35.32	227.40	19.82	-44.3	-46.8	23.4	5.99e-01	0	38	0	826802176	60	4750
2026-01-22 02:06:38.16	227.09	19.44	-44.4	-46.9	23.3	6.00e-01	0	38	0	832045056	60	4806
2026-01-22 02:06:41.30	226.75	19.02	-44.6	-47.2	23.0	5.97e-01	0	38	0	837812224	60	4931
2026-01-22 02:06:44.19	226.46	18.65	-44.5	-47.1	23.2	6.02e-01	0	38	0	843055104	60	4896
2026-01-22 02:06:47.32	226.14	18.24	-44.5	-47.0	23.2	6.00e-01	0	38	0	849346560	60	4870
2026-01-22 02:06:50.23	225.85	17.88	-44.4	-47.0	23.2	6.02e-01	0	38	0	854589440	60	4824
2026-01-22 02:06:53.49	225.54	17.47	-44.4	-47.0	23.2	6.01e-01	0	38	0	860880896	60	4849
2026-01-22 02:06:56.19	225.29	17.14	-44.4	-47.0	23.2	6.02e-01	0	38	0	865599488	60	4816
2026-01-22 02:06:59.46	225.00	16.74	-44.5	-47.0	23.2	6.02e-01	0	38	0	871890944	60	4861
2026-01-22 02:07:02.16	224.76	16.42	-44.5	-47.1	23.0	6.01e-01	0	38	0	877133824	60	4924
2026-01-22 02:07:05.43	224.48	16.04	-44.4	-47.0	23.1	6.00e-01	0	38	0	882900992	60	4860
2026-01-22 02:07:08.15	224.25	15.72	-44.4	-47.0	23.1	6.03e-01	0	38	0	888143872	60	4846
2026-01-22 02:07:11.44	223.98	15.35	-44.5	-47.2	23.0	6.00e-01	0	38	0	894435328	60	4938
2026-01-22 02:07:14.38	223.75	15.02	-44.5	-47.1	23.0	6.02e-01	0	38	0	899678208	60	4903
2026-01-22 02:07:17.82	223.48	14.64	-44.5	-47.1	23.0	6.01e-01	0	38	0	906493952	60	4900
2026-01-22 02:07:20.54	223.28	14.34	-44.6	-47.2	22.9	6.03e-01	0	38	0	911212544	60	4978
2026-01-22 02:07:23.83	223.03	13.98	-44.5	-47.1	23.0	6.02e-01	0	38	0	917504000	60	4892
2026-01-22 02:07:26.57	222.84	13.69	-44.5	-47.2	23.0	6.02e-01	0	38	0	922746880	60	4936
2026-01-22 02:07:29.86	222.61	13.35	-44.6	-47.2	22.9	6.02e-01	0	38	0	929038336	60	4961
2026-01-22 02:07:32.72	222.41	13.05	-44.6	-47.2	23.0	6.02e-01	0	38	0	934281216	60	4938
2026-01-22 02:07:35.84	222.20	12.73	-44.6	-47.2	22.9	6.01e-01	0	38	0	940048384	60	4969
2026-01-22 02:07:38.69	222.01	12.44	-44.8	-47.5	22.6	5.99e-01	0	38	0	945291264	60	5130
2026-01-22 02:07:41.81	221.81	12.13	-44.7	-47.4	22.7	5.99e-01	0	38	0	951058432	60	5050
2026-01-22 02:07:44.66	221.63	11.85	-44.6	-47.3	22.8	6.01e-01	0	38	0	956825600	60	5034
2026-01-22 02:07:48.23	221.42	11.51	-44.7	-47.4	22.6	6.03e-01	0	38	0	963117056	60	5089
2026-01-22 02:07:51.26	221.24	11.21	-44.8	-47.5	22.6	6.02e-01	0	38	0	968884224	60	5135
2026-01-22 02:07:54.56	221.04	10.90	-44.8	-47.7	22.4	6.01e-01	0	38	0	975175680	60	5262
2026-01-22 02:07:57.29	220.89	10.65	-44.7	-47.8	22.3	6.01e-01	0	38	0	980418560	60	5291
2026-01-22 02:08:00.57	220.70	10.34	-44.6	-47.7	22.3	5.97e-01	0	38	0	986185728	60	5277
2026-01-22 02:08:03.33	220.55	10.09	-44.7	-47.7	22.3	6.00e-01	0	38	0	991428608	60	5266
2026-01-22 02:08:06.85	220.36	9.77	-44.7	-47.6	22.4	6.03e-01	0	38	0	998244352	60	5188
2026-01-22 02:08:09.84	220.21	9.51	-44.9	-47.8	22.2	6.01e-01	0	38	0	1004011520	60	5323
2026-01-22 02:08:12.82	220.06	9.24	-44.4	-47.9	22.0	6.01e-01	0	38	0	1009254400	60	5379
2026-01-22 02:08:15.80	219.91	8.98	-50.5	-59.4	13.4	6.02e-01	0	38	0	1015021568	71	10684
2026-01-22 02:08:18.78	219.76	8.73	-52.1	-72.0	3.8	7.42e-01	0	38	104	1015021568	74	38444
2026-01-22 02:08:21.76	219.62	8.47	-52.1	-72.2	3.8	7.43e-01	0	38	104	1015021568	75	37005
2026-01-22 02:08:24.74	219.47	8.22	-52.3	-72.3	3.8	7.48e-01	0	38	104	1015021568	75	37428
2026-01-22 02:08:27.72	219.34	7.97	-52.4	-72.3	3.8	7.45e-01	0	38	104	1015021568	75	37483
2026-01-22 02:08:30.70	219.20	7.73	-51.7	-72.3	3.8	7.47e-01	0	38	104	1015021568	75	37442
2026-01-22 02:08:33.68	219.07	7.48	-51.8	-72.2	3.8	7.46e-01	0	38	104	1015021568	74	39589
2026-01-22 02:08:36.67	218.94	7.24	-51.6	-72.2	3.8	7.46e-01	0	38	104	1015021568	74	39406
2026-01-22 02:08:39.65	218.81	7.00	-51.6	-72.2	3.8	7.45e-01	0	38	104	1015021568	74	39364
2026-01-22 02:08:42.63	218.68	6.76	-51.6	-72.2	3.8	7.46e-01	0	38	104	1015021568	74	39242
2026-01-22 02:08:45.61	218.56	6.53	-51.6	-72.2	3.8	7.44e-01	0	38	104	1015021568	74	39287
2026-01-22 02:08:48.59	218.44	6.30	-51.6	-72.2	3.8	7.45e-01	0	38	104	1015021568	74	39291
2026-01-22 02:08:51.57	218.32	6.07	-51.6	-72.2	3.8	7.46e-01	0	38	104	1015021568	74	39258
2026-01-22 02:08:54.55	218.20	5.84	-51.5	-72.2	3.8	7.45e-01	0	38	104	1015021568	74	39163
2026-01-22 02:08:57.53	218.09	5.61	-51.6	-72.1	3.8	7.48e-01	0	38	104	1015021568	74	39121
2026-01-22 02:09:00.51	217.98	5.39	-51.5	-72.1	3.8	7.47e-01	0	38	104	1015021568	74	39127
2026-01-22 02:09:03.49	217.87	5.17	-51.6	-72.1	3.8	7.49e-01	0	38	104	1015021568	74	39065
2026-01-22 02:09:06.47	217.76	4.95	-51.5	-72.1	3.8	7.49e-01	0	38	104	1015021568	74	39115

#Closed at: 2026-01-22 02:09:07
#Recorded file [1015 MB]: D:/Data/31040_260122_045759.dat