passes_logs/2026/01/22/T1/T1__20260122_010504_NOAA_20_JPSS-1_rec.log

#Pass ID: 20260122_010504_NOAA 20 (JPSS-1)
#Satellite: NOAA 20 (JPSS-1)
#Configuration: NOAA 20
#almurnet v.1.7.20251203
#Start time: 2026-01-22 01:05:06

#Version: 2.0.20230620
#Station: T1
#Location: 37.570604 lon 55.790049 lat
#TLE: 1 43013U 17073A   26021.46221703  .00000173  00000+0  10299-3 0  9999
#TLE: 2 43013  98.7644 322.3335 0001238  29.7597 330.3649 14.19538314423652

#Time	Az	El	Level	Level2	SNR	BER	BlckErr	Temp	State	Recorded	gain1	gain2
2026-01-22 01:05:06.05	8.04	5.09	-48.9	-65.6	3.8	1.49e+00	0	35	0	0	69	24586
2026-01-22 01:05:09.03	7.84	5.28	-49.7	-65.5	3.8	1.49e+00	0	36	104	0	71	21661
2026-01-22 01:05:12.01	7.63	5.47	-49.7	-65.5	3.8	1.49e+00	0	36	104	0	71	21618
2026-01-22 01:05:14.99	7.43	5.67	-49.7	-65.5	3.8	1.49e+00	0	36	104	0	71	21584
2026-01-22 01:05:17.97	7.22	5.86	-49.8	-65.5	3.8	1.49e+00	0	36	104	0	71	21579
2026-01-22 01:05:20.95	7.00	6.06	-49.7	-65.5	3.8	1.49e+00	0	36	104	0	71	21508
2026-01-22 01:05:23.93	6.79	6.25	-49.7	-65.5	3.8	1.49e+00	0	36	104	0	71	21596
2026-01-22 01:05:26.91	6.57	6.45	-49.7	-65.5	3.8	1.49e+00	0	36	104	0	71	21558
2026-01-22 01:05:29.89	6.34	6.65	-49.7	-65.5	3.8	1.49e+00	0	36	104	0	71	21527
2026-01-22 01:05:32.87	6.12	6.85	-49.7	-65.4	3.8	1.49e+00	0	36	104	0	71	21350
2026-01-22 01:05:35.84	5.89	7.05	-49.7	-65.3	3.8	1.49e+00	0	37	104	0	71	21025
2026-01-22 01:05:38.82	5.66	7.25	-49.7	-64.8	3.8	1.49e+00	0	36	104	0	71	19845
2026-01-22 01:05:41.80	5.42	7.45	-49.7	-63.9	3.8	1.49e+00	0	37	104	0	71	18049
2026-01-22 01:05:44.78	5.18	7.66	-49.7	-63.9	3.8	1.49e+00	0	37	104	0	71	17924
2026-01-22 01:05:47.76	4.94	7.86	-49.7	-64.7	3.8	1.49e+00	0	37	104	0	71	19826
2026-01-22 01:05:50.74	4.69	8.07	-49.7	-65.4	3.8	1.49e+00	0	37	104	0	71	21426
2026-01-22 01:05:53.72	4.44	8.28	-49.6	-63.2	3.8	1.49e+00	0	37	104	0	71	16529
2026-01-22 01:05:56.70	4.19	8.48	-48.7	-56.4	7.7	2.04e-01	0	37	0	3145728	69	8507
2026-01-22 01:05:59.68	3.93	8.69	-47.3	-52.5	11.5	1.57e-03	0	37	0	9437184	66	6457
2026-01-22 01:06:02.66	3.67	8.91	-46.9	-51.7	12.4	1.45e-04	0	37	0	14680064	65	6209
2026-01-22 01:06:05.65	3.41	9.12	-48.6	-56.0	8.2	3.41e-03	0	37	0	20971520	67	9073
2026-01-22 01:06:08.64	3.14	9.33	-46.2	-51.4	12.9	0.00e+00	0	37	0	26214400	63	6763
2026-01-22 01:06:11.64	2.86	9.55	-45.3	-49.1	15.1	7.00e-07	0	37	0	31457280	62	5519
2026-01-22 01:06:14.77	2.57	9.78	-45.2	-49.0	15.1	0.00e+00	0	37	0	37748736	62	5456
2026-01-22 01:06:17.74	2.29	9.99	-45.2	-48.9	15.3	0.00e+00	0	37	0	42991616	62	5363
2026-01-22 01:06:20.87	1.98	10.22	-45.0	-48.6	15.6	0.00e+00	0	37	0	49283072	62	5197
2026-01-22 01:06:23.85	1.69	10.44	-45.1	-48.6	15.6	0.00e+00	0	37	0	54525952	62	5186
2026-01-22 01:06:26.83	1.40	10.66	-45.0	-48.5	15.7	0.00e+00	0	37	0	59768832	61	5428
2026-01-22 01:06:29.82	1.10	10.88	-45.1	-48.5	15.7	0.00e+00	0	37	0	66060288	61	5440
2026-01-22 01:06:32.83	0.79	11.11	-45.1	-48.5	15.7	0.00e+00	0	37	0	71303168	61	5445
2026-01-22 01:06:35.85	0.47	11.34	-45.1	-48.6	15.7	0.00e+00	0	37	0	77594624	61	5476
2026-01-22 01:06:38.95	0.14	11.57	-45.1	-48.5	15.8	0.00e+00	0	37	0	82837504	61	5436
2026-01-22 01:06:41.80	359.84	11.79	-45.2	-48.7	15.5	0.00e+00	0	37	0	88080384	61	5583
2026-01-22 01:06:44.92	359.49	12.03	-45.1	-48.7	15.6	0.00e+00	0	37	0	94371840	61	5539
2026-01-22 01:06:47.76	359.18	12.25	-45.1	-48.6	15.7	0.00e+00	0	37	0	99614720	61	5507
2026-01-22 01:06:51.03	358.81	12.50	-45.1	-48.5	15.8	0.00e+00	0	37	0	105906176	61	5440
2026-01-22 01:06:53.87	358.48	12.72	-45.2	-48.6	15.8	0.00e+00	0	38	0	111149056	61	5478
2026-01-22 01:06:57.21	358.09	12.98	-45.2	-48.6	15.7	0.00e+00	0	37	0	117440512	61	5517
2026-01-22 01:06:59.92	357.77	13.20	-45.3	-48.7	15.6	0.00e+00	0	37	0	122683392	61	5579
2026-01-22 01:07:03.16	357.38	13.45	-45.4	-48.8	15.6	0.00e+00	0	37	0	127926272	61	5603
2026-01-22 01:07:06.00	357.03	13.68	-45.4	-48.8	15.6	0.00e+00	0	37	0	133169152	61	5596
2026-01-22 01:07:09.12	356.64	13.93	-45.4	-48.6	15.7	0.00e+00	0	37	0	139460608	61	5522
2026-01-22 01:07:11.97	356.28	14.15	-45.1	-48.4	15.9	0.00e+00	0	37	0	144703488	61	5396
2026-01-22 01:07:15.09	355.88	14.41	-44.9	-48.3	16.1	0.00e+00	0	37	0	150994944	61	5286
2026-01-22 01:07:18.01	355.49	14.64	-45.0	-48.3	16.0	0.00e+00	0	38	0	156237824	61	5334
2026-01-22 01:07:21.00	355.10	14.88	-45.0	-48.3	16.1	0.00e+00	0	38	0	161480704	61	5336
2026-01-22 01:07:23.98	354.69	15.13	-45.1	-48.4	16.0	0.00e+00	0	38	0	167772160	61	5400
2026-01-22 01:07:26.97	354.28	15.37	-45.1	-48.4	16.0	0.00e+00	0	38	0	173015040	61	5366
2026-01-22 01:07:29.95	353.86	15.62	-45.1	-48.3	16.1	0.00e+00	0	37	0	178257920	61	5333
2026-01-22 01:07:33.03	353.42	15.87	-44.8	-47.8	16.6	0.00e+00	0	38	0	184549376	61	5035
2026-01-22 01:07:35.91	353.00	16.11	-44.7	-47.7	16.7	0.00e+00	0	37	0	189792256	61	4951
2026-01-22 01:07:39.03	352.54	16.37	-44.7	-47.6	16.8	0.00e+00	0	38	0	196083712	61	4909
2026-01-22 01:07:41.88	352.11	16.60	-44.8	-47.8	16.7	0.00e+00	0	38	0	201326592	61	4984
2026-01-22 01:07:45.00	351.64	16.86	-44.8	-47.6	16.8	0.00e+00	0	37	0	206569472	61	4900
2026-01-22 01:07:47.84	351.20	17.10	-44.6	-47.5	17.0	0.00e+00	0	38	0	211812352	61	4830
2026-01-22 01:07:50.97	350.70	17.36	-44.3	-47.2	17.2	0.00e+00	0	38	0	218103808	60	4956
2026-01-22 01:07:53.81	350.25	17.60	-44.5	-47.5	16.9	0.00e+00	0	38	0	223346688	60	5147
2026-01-22 01:07:56.94	349.74	17.87	-44.4	-47.4	17.1	0.00e+00	0	37	0	229638144	60	5079
2026-01-22 01:07:59.79	349.26	18.11	-44.2	-47.3	17.2	0.00e+00	0	38	0	234881024	60	4998
2026-01-22 01:08:02.96	348.73	18.38	-44.2	-47.2	17.3	0.00e+00	0	37	0	240123904	60	4936
2026-01-22 01:08:05.80	348.24	18.62	-44.4	-47.3	17.2	0.00e+00	0	38	0	245366784	60	5028
2026-01-22 01:08:08.93	347.69	18.88	-44.6	-47.4	17.1	0.00e+00	0	38	0	251658240	60	5089
2026-01-22 01:08:11.77	347.19	19.12	-44.7	-47.6	16.9	0.00e+00	0	37	0	256901120	60	5168
2026-01-22 01:08:14.90	346.62	19.38	-44.8	-47.7	16.8	0.00e+00	0	38	0	263192576	60	5275
2026-01-22 01:08:17.74	346.10	19.62	-45.0	-47.9	16.6	0.00e+00	0	38	0	268435456	60	5393
2026-01-22 01:08:21.01	345.49	19.90	-45.0	-47.9	16.6	0.00e+00	0	38	0	274726912	60	5387
2026-01-22 01:08:23.73	344.97	20.13	-44.9	-47.9	16.6	0.00e+00	0	38	0	278921216	60	5371
2026-01-22 01:08:27.01	344.33	20.41	-44.7	-47.5	17.0	0.00e+00	0	37	0	285212672	60	5154
2026-01-22 01:08:29.73	343.80	20.63	-44.9	-47.7	16.8	0.00e+00	0	38	0	290455552	60	5279
2026-01-22 01:08:33.08	343.13	20.91	-44.7	-47.5	17.0	0.00e+00	0	38	0	296747008	60	5134
2026-01-22 01:08:36.01	342.53	21.16	-44.4	-47.5	17.1	0.00e+00	0	37	0	301989888	60	5114
2026-01-22 01:08:39.00	341.91	21.41	-44.3	-47.3	17.2	0.00e+00	0	38	0	308281344	60	5013
2026-01-22 01:08:41.98	341.29	21.65	-44.4	-47.1	17.4	0.00e+00	0	38	0	313524224	60	4911
2026-01-22 01:08:44.97	340.65	21.90	-44.1	-46.9	17.6	0.00e+00	0	38	0	318767104	60	4798
2026-01-22 01:08:47.95	340.00	22.14	-43.9	-46.9	17.3	0.00e+00	0	38	0	325058560	59	5054
2026-01-22 01:08:50.93	339.34	22.38	-43.9	-46.5	17.9	0.00e+00	0	38	0	330301440	59	4863
2026-01-22 01:08:53.91	338.67	22.62	-43.6	-46.2	18.2	0.00e+00	0	38	0	335544320	59	4657
2026-01-22 01:08:56.98	337.98	22.87	-43.7	-46.4	18.0	0.00e+00	0	38	0	341835776	59	4765
2026-01-22 01:08:59.82	337.32	23.09	-43.7	-46.4	18.0	0.00e+00	0	38	0	347078656	59	4786
2026-01-22 01:09:02.94	336.59	23.34	-43.5	-46.1	18.3	0.00e+00	0	38	0	353370112	59	4615
2026-01-22 01:09:05.78	335.91	23.56	-43.4	-45.9	18.5	0.00e+00	0	38	0	358612992	58	4780
2026-01-22 01:09:09.03	335.12	23.80	-43.5	-46.0	18.4	0.00e+00	0	38	0	363855872	58	4862
2026-01-22 01:09:11.96	334.40	24.02	-43.6	-46.2	18.2	0.00e+00	0	38	0	370147328	58	4973
2026-01-22 01:09:15.13	333.61	24.26	-43.5	-46.1	18.3	0.00e+00	0	38	0	375390208	58	4896
2026-01-22 01:09:18.48	332.77	24.50	-43.7	-46.3	18.2	0.00e+00	0	38	0	381681664	58	5011
2026-01-22 01:09:21.18	332.07	24.70	-43.8	-46.3	18.1	0.00e+00	0	38	0	386924544	58	5022
2026-01-22 01:09:24.46	331.22	24.93	-43.7	-46.2	18.2	0.00e+00	0	38	0	393216000	58	4970
2026-01-22 01:09:27.17	330.51	25.12	-43.7	-46.3	18.1	0.00e+00	0	38	0	398458880	58	5008
2026-01-22 01:09:30.44	329.63	25.34	-43.8	-46.5	17.9	0.00e+00	0	38	0	404750336	58	5159
2026-01-22 01:09:33.17	328.89	25.52	-43.9	-46.7	17.7	0.00e+00	0	38	0	409993216	58	5279
2026-01-22 01:09:36.47	327.99	25.73	-43.8	-46.4	18.1	0.00e+00	0	38	0	416284672	58	5051
2026-01-22 01:09:39.17	327.24	25.90	-43.6	-46.1	18.3	0.00e+00	0	38	0	420478976	58	4871
2026-01-22 01:09:42.46	326.32	26.10	-43.6	-46.1	18.3	0.00e+00	0	38	0	426770432	58	4895
2026-01-22 01:09:45.42	325.47	26.27	-43.3	-45.9	18.5	0.00e+00	0	37	0	433061888	58	4766
2026-01-22 01:09:48.69	324.53	26.46	-43.5	-46.0	18.4	0.00e+00	0	38	0	438304768	58	4838
2026-01-22 01:09:51.41	323.74	26.60	-43.4	-45.9	18.5	0.00e+00	0	38	0	443547648	58	4775
2026-01-22 01:09:54.69	322.78	26.78	-43.2	-45.8	18.7	0.00e+00	0	38	0	449839104	58	4717
2026-01-22 01:09:57.56	321.93	26.92	-43.5	-46.1	18.3	0.00e+00	0	38	0	455081984	58	4919
2026-01-22 01:10:00.69	320.99	27.07	-43.6	-46.2	18.3	0.00e+00	0	38	0	461373440	58	4934
2026-01-22 01:10:03.53	320.14	27.20	-43.7	-46.3	18.1	0.00e+00	0	38	0	466616320	58	5018
2026-01-22 01:10:06.66	319.18	27.33	-44.4	-47.1	17.4	0.00e+00	0	38	0	472907776	59	5207
2026-01-22 01:10:09.50	318.31	27.45	-44.4	-47.1	17.4	0.00e+00	0	38	0	478150656	59	5214
2026-01-22 01:10:12.63	317.35	27.57	-44.5	-47.2	17.3	0.00e+00	0	38	0	483393536	59	5248
2026-01-22 01:10:15.48	316.46	27.67	-44.7	-47.5	17.1	0.00e+00	0	38	0	488636416	60	5134
2026-01-22 01:10:18.60	315.48	27.77	-44.3	-47.0	17.5	0.00e+00	0	38	0	494927872	60	4854
2026-01-22 01:10:21.81	314.47	27.87	-44.5	-47.5	17.0	0.00e+00	0	38	0	501219328	60	5124
2026-01-22 01:10:24.66	313.57	27.94	-44.5	-47.4	17.2	0.00e+00	0	38	0	506462208	60	5090
2026-01-22 01:10:27.87	312.54	28.02	-44.9	-47.7	16.9	0.00e+00	0	38	0	511705088	60	5266
2026-01-22 01:10:30.72	311.63	28.08	-45.0	-48.0	16.7	0.00e+00	0	38	0	517996544	61	5105
2026-01-22 01:10:33.85	310.63	28.14	-45.2	-48.1	16.5	0.00e+00	0	38	0	523239424	61	5204
2026-01-22 01:10:36.69	309.71	28.18	-45.3	-48.3	16.3	0.00e+00	0	38	0	528482304	61	5311
2026-01-22 01:10:39.81	308.70	28.22	-45.1	-48.0	16.7	0.00e+00	0	38	0	534773760	61	5108
2026-01-22 01:10:42.66	307.78	28.25	-44.9	-47.6	16.9	0.00e+00	0	38	0	540016640	61	4923
2026-01-22 01:10:45.78	306.77	28.27	-45.3	-48.3	16.4	0.00e+00	0	38	0	545259520	61	5301
2026-01-22 01:10:48.62	305.85	28.27	-45.3	-48.3	16.3	0.00e+00	0	38	0	551550976	61	5326
2026-01-22 01:10:51.75	304.83	28.28	-45.1	-48.1	16.5	0.00e+00	0	38	0	556793856	61	5173
2026-01-22 01:10:54.59	303.91	28.27	-44.9	-47.8	16.8	0.00e+00	0	38	0	562036736	61	4984
2026-01-22 01:10:57.72	302.89	28.25	-44.8	-47.6	16.9	0.00e+00	0	38	0	568328192	61	4909
2026-01-22 01:11:00.67	301.94	28.22	-44.6	-47.4	17.2	0.00e+00	0	38	0	573571072	61	4785
2026-01-22 01:11:03.84	300.91	28.18	-44.7	-47.5	17.1	0.00e+00	0	38	0	579862528	61	4823
2026-01-22 01:11:06.69	299.99	28.14	-44.6	-47.4	17.2	0.00e+00	0	38	0	585105408	61	4768
2026-01-22 01:11:09.82	298.99	28.08	-44.8	-47.6	17.0	0.00e+00	0	38	0	590348288	61	4887
2026-01-22 01:11:12.66	298.08	28.02	-44.3	-46.9	17.7	0.00e+00	0	38	0	596639744	60	4760
2026-01-22 01:11:15.79	297.08	27.95	-44.2	-46.8	17.7	0.00e+00	0	38	0	601882624	60	4743
2026-01-22 01:11:18.63	296.18	27.87	-43.8	-46.2	18.2	0.00e+00	0	38	0	607125504	59	4673
2026-01-22 01:11:21.75	295.19	27.78	-43.5	-46.0	18.4	0.00e+00	0	38	0	613416960	59	4564
2026-01-22 01:11:24.60	294.30	27.69	-43.7	-46.2	18.3	0.00e+00	0	38	0	618659840	59	4660
2026-01-22 01:11:27.72	293.32	27.58	-43.6	-46.0	18.4	0.00e+00	0	38	0	623902720	59	4571
2026-01-22 01:11:30.56	292.44	27.47	-43.6	-46.0	18.4	0.00e+00	0	38	0	630194176	59	4552
2026-01-22 01:11:33.69	291.48	27.34	-43.6	-46.0	18.4	0.00e+00	0	38	0	635437056	59	4567
2026-01-22 01:11:36.72	290.56	27.21	-43.4	-45.8	18.6	0.00e+00	0	38	0	641728512	58	4730
2026-01-22 01:11:39.70	289.65	27.08	-43.7	-46.0	18.4	0.00e+00	0	38	0	646971392	58	4864
2026-01-22 01:11:42.69	288.76	26.93	-43.9	-46.4	18.1	0.00e+00	0	38	0	652214272	58	5053
2026-01-22 01:11:45.67	287.87	26.78	-44.2	-46.7	17.8	0.00e+00	0	38	0	658505728	59	4946
2026-01-22 01:11:48.65	286.99	26.63	-44.1	-46.6	17.8	0.00e+00	0	38	0	663748608	59	4899
2026-01-22 01:11:51.73	286.10	26.46	-44.5	-47.1	17.4	0.00e+00	0	38	0	668991488	59	5181
2026-01-22 01:11:54.59	285.27	26.30	-45.0	-47.8	16.8	0.00e+00	0	38	0	674234368	60	5307
2026-01-22 01:11:57.87	284.34	26.11	-44.8	-47.5	17.1	0.00e+00	0	38	0	680525824	60	5122
2026-01-22 01:12:00.79	283.51	25.93	-44.7	-47.4	17.1	0.00e+00	0	38	0	686817280	60	5084
2026-01-22 01:12:04.77	282.40	25.68	-45.2	-48.2	16.4	0.00e+00	0	38	0	694157312	61	5225
2026-01-22 01:12:07.61	281.63	25.50	-45.2	-48.1	16.4	0.00e+00	0	38	0	699400192	61	5207
2026-01-22 01:12:11.59	280.55	25.23	-45.2	-48.0	16.5	0.00e+00	0	38	0	706740224	61	5150
2026-01-22 01:12:14.45	279.79	25.04	-45.0	-47.9	16.7	0.00e+00	0	38	0	711983104	61	5055
2026-01-22 01:12:17.59	278.96	24.82	-45.0	-47.8	16.7	0.00e+00	0	38	0	718274560	61	5041
2026-01-22 01:12:20.44	278.22	24.61	-44.8	-47.6	16.9	0.00e+00	0	38	0	723517440	61	4919
2026-01-22 01:12:23.57	277.42	24.39	-44.7	-47.4	17.2	0.00e+00	0	38	0	728760320	61	4774
2026-01-22 01:12:26.41	276.70	24.18	-44.7	-47.4	17.1	0.00e+00	0	38	0	734003200	61	4777
2026-01-22 01:12:29.54	275.92	23.94	-44.5	-47.2	17.3	0.00e+00	0	38	0	740294656	61	4692
2026-01-22 01:12:32.39	275.22	23.73	-44.1	-46.6	17.8	0.00e+00	0	38	0	745537536	60	4637
2026-01-22 01:12:35.51	274.47	23.49	-44.0	-46.6	17.8	0.00e+00	0	38	0	751828992	60	4628
2026-01-22 01:12:38.36	273.79	23.26	-43.9	-46.4	17.9	0.00e+00	0	38	0	757071872	59	4808
2026-01-22 01:12:41.48	273.06	23.02	-43.8	-46.3	18.1	0.00e+00	0	38	0	762314752	59	4731
2026-01-22 01:12:44.33	272.40	22.79	-43.7	-46.1	18.3	0.00e+00	0	38	0	767557632	59	4611
2026-01-22 01:12:47.46	271.68	22.54	-43.5	-45.9	18.4	0.00e+00	0	38	0	773849088	59	4538
2026-01-22 01:12:50.36	271.03	22.31	-43.6	-46.0	18.4	0.00e+00	0	38	0	779091968	58	4838
2026-01-22 01:12:53.61	270.32	22.04	-43.5	-45.9	18.5	0.00e+00	0	38	0	785383424	58	4771
2026-01-22 01:12:56.38	269.72	21.81	-43.7	-46.1	18.2	0.00e+00	0	38	0	790626304	58	4925
2026-01-22 01:12:59.65	269.02	21.54	-43.5	-45.9	18.5	0.00e+00	0	38	0	796917760	58	4775
2026-01-22 01:13:02.48	268.42	21.31	-43.4	-45.8	18.5	0.00e+00	0	38	0	802160640	58	4741
2026-01-22 01:13:05.64	267.77	21.05	-43.2	-45.5	18.8	0.00e+00	0	38	0	808452096	58	4591
2026-01-22 01:13:09.05	267.08	20.76	-42.8	-45.1	19.1	0.00e+00	0	38	0	814743552	57	4621
2026-01-22 01:13:11.76	266.54	20.53	-42.8	-45.0	19.2	0.00e+00	0	38	0	819986432	57	4581
2026-01-22 01:13:15.29	265.84	20.23	-42.7	-45.0	19.2	0.00e+00	0	38	0	826277888	57	4555
2026-01-22 01:13:17.99	265.32	20.01	-42.6	-44.8	19.4	0.00e+00	0	38	0	831520768	57	4480
2026-01-22 01:13:21.28	264.70	19.73	-42.3	-44.5	19.6	0.00e+00	0	38	0	837812224	56	4582
2026-01-22 01:13:24.12	264.17	19.49	-42.6	-44.8	19.4	0.00e+00	0	38	0	843055104	56	4739
2026-01-22 01:13:27.24	263.60	19.22	-42.5	-44.7	19.5	0.00e+00	0	38	0	848297984	56	4691
2026-01-22 01:13:30.40	263.03	18.95	-42.4	-44.6	19.6	0.00e+00	0	38	0	854589440	56	4604
2026-01-22 01:13:33.24	262.52	18.71	-42.5	-44.6	19.5	0.00e+00	0	38	0	859832320	56	4650
2026-01-22 01:13:36.37	261.98	18.45	-42.7	-44.9	19.3	0.00e+00	0	38	0	866123776	56	4792
2026-01-22 01:13:39.21	261.49	18.21	-42.7	-45.0	19.2	0.00e+00	0	38	0	871366656	56	4844
2026-01-22 01:13:42.42	260.95	17.93	-42.6	-44.8	19.3	0.00e+00	0	38	0	876609536	56	4754
2026-01-22 01:13:45.26	260.48	17.69	-42.8	-45.1	19.1	0.00e+00	0	38	0	881852416	56	4891
2026-01-22 01:13:48.75	259.91	17.40	-43.0	-45.3	18.9	0.00e+00	0	38	0	889192448	56	5018
2026-01-22 01:13:51.51	259.47	17.17	-43.0	-45.3	18.9	0.00e+00	0	38	0	894435328	56	4988
2026-01-22 01:13:54.85	258.95	16.88	-43.2	-45.5	18.7	0.00e+00	0	38	0	900726784	56	5148
2026-01-22 01:13:57.57	258.53	16.66	-43.5	-46.0	18.2	0.00e+00	0	38	0	904921088	57	5116
2026-01-22 01:14:00.86	258.03	16.38	-43.7	-46.1	18.1	0.00e+00	0	38	0	911212544	58	4918
2026-01-22 01:14:03.57	257.62	16.16	-43.7	-46.2	18.1	0.00e+00	0	38	0	916455424	58	4948
2026-01-22 01:14:06.85	257.14	15.88	-43.7	-46.2	18.1	0.00e+00	0	38	0	922746880	58	4938
2026-01-22 01:14:09.56	256.75	15.66	-43.6	-46.0	18.2	0.00e+00	0	38	0	927989760	58	4862
2026-01-22 01:14:12.84	256.28	15.39	-43.8	-46.3	17.9	0.00e+00	0	38	0	934281216	58	5020
2026-01-22 01:14:15.55	255.91	15.16	-43.9	-46.5	17.7	0.00e+00	0	38	0	939524096	58	5122
2026-01-22 01:14:18.83	255.46	14.90	-43.8	-46.4	17.8	0.00e+00	0	38	0	944766976	58	5074
2026-01-22 01:14:21.60	255.08	14.67	-43.8	-46.4	17.9	0.00e+00	0	38	0	950009856	58	5053
2026-01-22 01:14:25.18	254.61	14.38	-44.3	-47.0	17.2	0.00e+00	0	38	0	957349888	59	5118
2026-01-22 01:14:27.88	254.25	14.16	-44.4	-47.2	17.1	0.00e+00	0	38	0	962592768	59	5241
2026-01-22 01:14:31.16	253.83	13.90	-44.4	-47.1	17.1	0.00e+00	0	38	0	967835648	59	5216
2026-01-22 01:14:34.00	253.48	13.67	-44.3	-47.0	17.2	0.00e+00	0	38	0	974127104	59	5124
2026-01-22 01:14:37.12	253.09	13.42	-44.3	-47.0	17.2	0.00e+00	0	38	0	979369984	59	5110
2026-01-22 01:14:40.23	252.71	13.17	-44.4	-47.2	17.0	0.00e+00	0	38	0	985661440	59	5233
2026-01-22 01:14:43.50	252.32	12.92	-44.4	-47.2	17.0	0.00e+00	0	38	0	990904320	59	5226
2026-01-22 01:14:46.35	251.98	12.69	-44.5	-47.2	16.9	0.00e+00	0	38	0	997195776	59	5263
2026-01-22 01:14:49.47	251.62	12.45	-44.5	-47.2	16.9	0.00e+00	0	38	0	1002438656	59	5276
2026-01-22 01:14:52.31	251.30	12.23	-44.6	-47.4	16.8	0.00e+00	0	38	0	1007681536	59	5386
2026-01-22 01:14:55.44	250.94	11.99	-44.9	-47.8	16.4	0.00e+00	0	38	0	1013972992	60	5326
2026-01-22 01:14:58.30	250.63	11.77	-45.2	-48.2	16.1	0.00e+00	0	38	0	1019215872	61	5236
2026-01-22 01:15:01.81	250.25	11.50	-45.2	-48.2	16.0	0.00e+00	0	38	0	1025507328	61	5263
2026-01-22 01:15:04.52	249.96	11.29	-45.3	-48.4	15.9	0.00e+00	0	38	0	1030750208	61	5351
2026-01-22 01:15:07.80	249.61	11.04	-45.2	-48.2	16.0	0.00e+00	0	38	0	1037041664	61	5255
2026-01-22 01:15:10.54	249.33	10.84	-45.4	-48.6	15.6	0.00e+00	0	38	0	1042284544	61	5503
2026-01-22 01:15:13.82	248.99	10.59	-45.5	-48.7	15.5	0.00e+00	0	38	0	1048576000	61	5560
2026-01-22 01:15:16.59	248.71	10.39	-45.6	-48.9	15.3	0.00e+00	0	38	0	1053818880	61	5658
2026-01-22 01:15:19.86	248.39	10.14	-45.4	-48.6	15.5	0.00e+00	0	38	0	1060110336	61	5510
2026-01-22 01:15:22.59	248.13	9.94	-45.4	-48.6	15.5	0.00e+00	0	38	0	1064304640	61	5518
2026-01-22 01:15:25.86	247.81	9.71	-45.4	-48.6	15.5	0.00e+00	0	38	0	1070596096	61	5490
2026-01-22 01:15:28.57	247.56	9.51	-45.5	-48.7	15.4	0.00e+00	0	38	0	1075838976	61	5568
2026-01-22 01:15:31.86	247.25	9.27	-45.6	-48.9	15.2	0.00e+00	0	38	0	1082130432	61	5669
2026-01-22 01:15:34.59	247.00	9.07	-45.7	-49.1	15.0	0.00e+00	0	38	0	1087373312	62	5509
2026-01-22 01:15:37.85	246.71	8.84	-50.5	-65.8	3.8	1.49e+00	0	38	104	1089470464	71	22448
2026-01-22 01:15:40.55	246.47	8.65	-50.6	-66.0	3.8	1.49e+00	0	38	104	1089470464	72	21685
2026-01-22 01:15:43.83	246.18	8.42	-50.8	-66.1	3.8	1.49e+00	0	38	104	1089470464	72	21918
2026-01-22 01:15:46.54	245.95	8.23	-50.9	-66.2	3.8	1.49e+00	0	38	104	1089470464	72	22063
2026-01-22 01:15:49.80	245.67	8.00	-50.7	-66.1	3.8	1.49e+00	0	38	104	1089470464	72	21993
2026-01-22 01:15:52.50	245.44	7.81	-50.7	-66.2	3.8	1.49e+00	0	38	104	1089470464	72	22015
2026-01-22 01:15:55.77	245.17	7.59	-50.6	-66.1	3.8	1.49e+00	0	38	104	1089470464	72	21893
2026-01-22 01:15:58.48	244.95	7.40	-50.5	-66.1	3.8	1.49e+00	0	38	104	1089470464	72	21777
2026-01-22 01:16:01.76	244.69	7.18	-50.5	-66.1	3.8	1.49e+00	0	38	104	1089470464	72	21793
2026-01-22 01:16:04.45	244.48	6.99	-50.5	-66.0	3.8	1.49e+00	0	38	104	1089470464	72	21694
2026-01-22 01:16:07.72	244.22	6.77	-50.5	-66.0	3.8	1.49e+00	0	38	104	1089470464	72	21737
2026-01-22 01:16:10.41	244.01	6.59	-50.5	-66.0	3.8	1.49e+00	0	38	104	1089470464	72	21695
2026-01-22 01:16:13.68	243.77	6.37	-50.5	-66.0	3.8	1.49e+00	0	38	104	1089470464	72	21714
2026-01-22 01:16:16.40	243.56	6.19	-50.5	-66.0	3.8	1.49e+00	0	38	104	1089470464	72	21723
2026-01-22 01:16:19.67	243.32	5.98	-50.5	-66.0	3.8	1.49e+00	0	38	104	1089470464	72	21688
2026-01-22 01:16:22.38	243.13	5.80	-50.5	-66.0	3.8	1.49e+00	0	38	104	1089470464	72	21669
2026-01-22 01:16:25.65	242.89	5.58	-50.5	-66.0	3.8	1.49e+00	0	38	104	1089470464	72	21676
2026-01-22 01:16:28.34	242.70	5.41	-50.5	-66.0	3.8	1.49e+00	0	38	104	1089470464	72	21561
2026-01-22 01:16:31.64	242.47	5.20	-50.5	-66.0	3.8	1.49e+00	0	38	104	1089470464	72	21626
2026-01-22 01:16:34.35	242.29	5.02	-50.5	-66.0	3.8	1.49e+00	0	38	104	1089470464	72	21633

#Closed at: 2026-01-22 01:16:36
#Recorded file [1089 MB]: D:/Data/31040_260122_040506.dat