passes_logs/2026/01/22/T1/T1__20260122_131641_FENGYUN_3E_rec.log

#Pass ID: 20260122_131641_FENGYUN 3E
#Satellite: FENGYUN 3E
#Configuration: FENGYUN 3E
#almurnet v.1.7.20251203
#Start time: 2026-01-22 13:16:40

#Version: 2.0.20230620
#Station: T1
#Location: 37.570604 lon 55.790049 lat
#TLE: 1 49008U 21062A   26021.55921410  .00000414  00000+0  21575-3 0  9991
#TLE: 2 49008  98.7483  26.6103 0002287 125.5068 234.6322 14.19887394235776

#Time	Az	El	Level	Level2	SNR	BER	BlckErr	Temp	State	Recorded	gain1	gain2
2026-01-22 13:16:40.63	131.04	4.99	-49.6	-60.4	3.8	8.46e-01	0	35	0	0	70	11868
2026-01-22 13:16:43.61	130.89	5.19	-49.6	-60.4	3.8	8.47e-01	0	35	104	0	70	11937
2026-01-22 13:16:46.59	130.75	5.39	-49.7	-60.5	3.8	8.47e-01	0	35	104	0	70	11968
2026-01-22 13:16:49.57	130.60	5.60	-49.7	-60.5	3.8	8.47e-01	0	35	104	0	70	12077
2026-01-22 13:16:52.55	130.45	5.81	-49.7	-60.6	3.8	8.47e-01	0	36	104	0	70	12232
2026-01-22 13:16:55.53	130.30	6.02	-49.6	-60.5	3.8	8.47e-01	0	36	104	0	70	12070
2026-01-22 13:16:58.51	130.14	6.23	-49.5	-60.3	3.8	8.46e-01	0	36	104	0	69	12409
2026-01-22 13:17:01.49	129.99	6.44	-49.6	-59.9	3.8	8.47e-01	0	36	104	0	69	11853
2026-01-22 13:17:04.47	129.83	6.66	-49.6	-59.8	3.8	8.47e-01	0	36	104	0	69	11742
2026-01-22 13:17:07.45	129.66	6.87	-49.6	-60.5	3.8	8.46e-01	0	36	104	0	69	12675
2026-01-22 13:17:10.43	129.50	7.09	-49.5	-60.3	3.8	8.47e-01	0	36	104	0	69	12406
2026-01-22 13:17:13.41	129.33	7.31	-49.3	-58.1	4.0	8.44e-01	0	36	104	0	69	9634
2026-01-22 13:17:16.39	129.16	7.53	-48.8	-55.9	4.6	8.15e-01	0	37	0	0	68	7915
2026-01-22 13:17:19.37	128.99	7.75	-47.2	-51.5	7.7	1.11e-01	0	37	0	10485760	65	5699
2026-01-22 13:17:22.35	128.82	7.97	-44.2	-46.5	12.8	1.38e-04	0	37	0	31457280	59	4540
2026-01-22 13:17:25.33	128.64	8.20	-41.3	-43.0	16.1	0.00e+00	0	37	0	53477376	53	4284
2026-01-22 13:17:28.31	128.46	8.43	-40.2	-41.8	17.3	0.00e+00	0	37	0	74448896	51	4172
2026-01-22 13:17:31.29	128.27	8.65	-41.0	-42.8	16.4	0.00e+00	0	37	0	96468992	51	4656
2026-01-22 13:17:34.27	128.09	8.89	-43.5	-45.7	13.6	2.20e-06	0	37	0	117440512	56	4898
2026-01-22 13:17:37.39	127.89	9.13	-41.0	-42.8	16.4	0.00e+00	0	37	0	140509184	52	4397
2026-01-22 13:17:40.30	127.70	9.36	-42.5	-44.5	14.8	0.00e+00	0	37	0	161480704	54	4793
2026-01-22 13:17:43.77	127.47	9.63	-42.6	-44.6	14.9	0.00e+00	0	37	0	182452224	56	4303
2026-01-22 13:17:46.50	127.29	9.85	-40.9	-42.6	16.6	0.00e+00	0	37	0	202375168	52	4326
2026-01-22 13:17:49.77	127.06	10.12	-40.1	-41.7	17.5	0.00e+00	0	37	0	225443840	50	4367
2026-01-22 13:17:52.58	126.87	10.35	-40.0	-41.5	17.7	0.00e+00	0	37	0	246415360	49	4537
2026-01-22 13:17:56.21	126.61	10.64	-39.3	-40.8	18.3	0.00e+00	0	37	0	272629760	49	4175
2026-01-22 13:17:58.97	126.41	10.87	-39.3	-40.8	18.3	0.00e+00	0	37	0	292552704	49	4163
2026-01-22 13:18:02.24	126.17	11.15	-39.0	-40.5	18.6	0.00e+00	0	37	0	315621376	48	4266
2026-01-22 13:18:04.97	125.97	11.38	-38.6	-40.1	19.0	0.00e+00	0	37	0	335544320	48	4096
2026-01-22 13:18:08.24	125.72	11.65	-38.4	-40.0	18.8	0.00e+00	0	37	0	359661568	47	4254
2026-01-22 13:18:11.15	125.49	11.90	-38.4	-40.0	18.9	0.00e+00	0	37	0	380633088	47	4245
2026-01-22 13:18:14.14	125.25	12.16	-38.4	-40.0	18.9	0.00e+00	0	38	0	401604608	46	4497
2026-01-22 13:18:17.12	125.01	12.42	-38.3	-39.8	19.0	0.00e+00	0	37	0	423624704	46	4433
2026-01-22 13:18:20.11	124.77	12.69	-38.2	-39.8	19.1	0.00e+00	0	38	0	444596224	46	4392
2026-01-22 13:18:23.10	124.52	12.95	-38.2	-39.7	19.2	0.00e+00	0	38	0	466616320	46	4379
2026-01-22 13:18:26.08	124.27	13.22	-38.0	-39.5	19.4	0.00e+00	0	38	0	487587840	46	4256
2026-01-22 13:18:29.07	124.01	13.49	-37.8	-39.3	19.5	0.00e+00	0	38	0	509607936	46	4154
2026-01-22 13:18:32.06	123.74	13.76	-37.8	-39.3	19.5	0.00e+00	0	38	0	530579456	46	4168
2026-01-22 13:18:35.04	123.48	14.04	-37.8	-39.2	19.6	0.00e+00	0	38	0	552599552	45	4384
2026-01-22 13:18:38.02	123.20	14.32	-37.6	-39.1	19.8	0.00e+00	0	38	0	574619648	45	4296
2026-01-22 13:18:41.00	122.92	14.60	-37.6	-39.0	19.8	0.00e+00	0	38	0	595591168	45	4291
2026-01-22 13:18:43.99	122.64	14.88	-37.4	-38.9	19.9	0.00e+00	0	38	0	617611264	44	4457
2026-01-22 13:18:46.97	122.35	15.16	-37.4	-38.9	20.0	0.00e+00	0	38	0	638582784	44	4450
2026-01-22 13:18:49.96	122.05	15.45	-37.3	-38.7	20.1	0.00e+00	0	38	0	660602880	44	4362
2026-01-22 13:18:52.91	121.76	15.74	-37.2	-38.6	20.2	0.00e+00	0	38	0	681574400	44	4322
2026-01-22 13:18:56.23	121.41	16.07	-37.0	-38.4	20.4	0.00e+00	0	38	0	705691648	44	4223
2026-01-22 13:18:58.95	121.13	16.33	-36.9	-38.3	20.5	0.00e+00	0	38	0	725614592	44	4176
2026-01-22 13:19:02.21	120.78	16.66	-36.9	-38.3	20.5	0.00e+00	0	38	0	748683264	44	4165
2026-01-22 13:19:04.93	120.48	16.94	-36.5	-37.9	20.7	0.00e+00	0	38	0	768606208	43	4215
2026-01-22 13:19:08.26	120.11	17.28	-36.5	-37.9	20.7	0.00e+00	0	38	0	792723456	43	4211
2026-01-22 13:19:10.97	119.80	17.55	-36.5	-37.9	20.7	0.00e+00	0	38	0	812646400	43	4195
2026-01-22 13:19:14.24	119.41	17.89	-36.6	-38.0	20.6	0.00e+00	0	38	0	835715072	43	4255
2026-01-22 13:19:16.97	119.09	18.18	-36.5	-37.9	20.6	0.00e+00	0	38	0	855638016	43	4240
2026-01-22 13:19:20.26	118.69	18.53	-36.5	-37.9	20.7	0.00e+00	0	38	0	878706688	43	4212
2026-01-22 13:19:23.06	118.34	18.83	-36.1	-37.5	21.0	0.00e+00	0	38	0	898629632	43	4014
2026-01-22 13:19:26.19	117.94	19.16	-36.1	-37.5	21.0	0.00e+00	0	38	0	921698304	42	4244
2026-01-22 13:19:29.07	117.57	19.48	-36.1	-37.4	21.1	0.00e+00	0	38	0	942669824	42	4238
2026-01-22 13:19:32.35	117.13	19.84	-36.1	-37.5	21.1	0.00e+00	0	38	0	966787072	42	4270
2026-01-22 13:19:35.25	116.74	20.16	-36.4	-37.8	20.8	0.00e+00	0	38	0	986710016	42	4410
2026-01-22 13:19:38.45	116.29	20.51	-36.5	-37.9	20.7	0.00e+00	0	38	0	1010827264	42	4473
2026-01-22 13:19:41.29	115.89	20.83	-36.4	-37.9	20.7	0.00e+00	0	38	0	1030750208	42	4450
2026-01-22 13:19:44.42	115.43	21.19	-36.2	-37.6	20.9	0.00e+00	0	38	0	1053818880	42	4327
2026-01-22 13:19:47.26	115.01	21.51	-35.9	-37.3	21.2	0.00e+00	0	38	0	1073741824	42	4170
2026-01-22 13:19:50.39	114.54	21.87	-35.9	-37.3	21.2	0.00e+00	0	38	0	1096810496	42	4166
2026-01-22 13:19:53.24	114.09	22.21	-35.9	-37.3	21.2	0.00e+00	0	38	0	1116733440	42	4180
2026-01-22 13:19:56.36	113.60	22.57	-36.0	-37.4	21.1	0.00e+00	0	38	0	1139802112	42	4200
2026-01-22 13:19:59.24	113.13	22.91	-35.8	-37.2	21.2	0.00e+00	0	38	0	1160773632	42	4132
2026-01-22 13:20:02.68	112.56	23.32	-36.2	-37.1	22.1	0.00e+00	0	38	0	1184890880	42	4075
2026-01-22 13:20:05.40	112.09	23.65	-36.2	-37.1	22.1	0.00e+00	0	38	0	1204813824	42	4085
2026-01-22 13:20:08.67	111.52	24.04	-36.0	-36.9	22.3	0.00e+00	0	38	0	1228931072	42	3966
2026-01-22 13:20:11.50	111.01	24.38	-35.8	-36.6	22.5	0.00e+00	0	38	0	1248854016	42	3845
2026-01-22 13:20:14.83	110.40	24.79	-35.5	-36.3	22.8	0.00e+00	0	38	0	1272971264	41	3931
2026-01-22 13:20:17.53	109.90	25.12	-35.3	-36.1	22.9	0.00e+00	0	38	0	1292894208	41	3864
2026-01-22 13:20:20.83	109.26	25.53	-35.6	-36.4	22.7	0.00e+00	0	38	0	1315962880	41	3990
2026-01-22 13:20:23.53	108.73	25.87	-35.8	-36.6	22.5	0.00e+00	0	38	0	1335885824	41	4077
2026-01-22 13:20:26.80	108.07	26.27	-35.9	-36.7	22.4	0.00e+00	0	38	0	1358954496	41	4135
2026-01-22 13:20:29.50	107.52	26.61	-35.9	-36.8	22.4	0.00e+00	0	38	0	1378877440	41	4147
2026-01-22 13:20:32.99	106.78	27.05	-35.9	-36.8	22.4	0.00e+00	0	38	0	1404043264	41	4150
2026-01-22 13:20:35.69	106.19	27.39	-36.2	-37.1	22.2	0.00e+00	0	38	0	1423966208	41	4294
2026-01-22 13:20:38.98	105.46	27.81	-36.2	-37.0	22.2	0.00e+00	0	38	0	1447034880	42	4045
2026-01-22 13:20:41.74	104.84	28.16	-36.0	-36.9	22.3	0.00e+00	0	38	0	1466957824	42	3972
2026-01-22 13:20:45.01	104.07	28.58	-36.0	-36.8	22.4	0.00e+00	0	38	0	1491075072	42	3939
2026-01-22 13:20:47.77	103.42	28.93	-35.7	-36.6	22.6	0.00e+00	0	38	0	1510998016	42	3837
2026-01-22 13:20:51.06	102.61	29.35	-35.4	-36.2	22.9	0.00e+00	0	38	0	1535115264	41	3909
2026-01-22 13:20:53.80	101.93	29.70	-35.4	-36.2	22.9	0.00e+00	0	38	0	1553989632	41	3884
2026-01-22 13:20:57.06	101.09	30.11	-35.5	-36.3	22.8	0.00e+00	0	38	0	1578106880	41	3946
2026-01-22 13:20:59.76	100.38	30.45	-35.2	-36.0	23.1	0.00e+00	0	38	0	1596981248	41	3802
2026-01-22 13:21:03.14	99.47	30.88	-35.1	-35.9	23.2	0.00e+00	0	38	0	1622147072	40	3989
2026-01-22 13:21:05.92	98.71	31.23	-35.1	-36.0	23.1	0.00e+00	0	38	0	1642070016	40	4005
2026-01-22 13:21:09.24	97.77	31.64	-35.2	-36.0	23.1	0.00e+00	0	38	0	1666187264	40	4019
2026-01-22 13:21:12.22	96.91	32.01	-35.4	-36.3	22.9	0.00e+00	0	38	0	1687158784	40	4150
2026-01-22 13:21:15.23	96.02	32.39	-35.8	-36.7	22.5	0.00e+00	0	38	0	1709178880	41	4109
2026-01-22 13:21:18.30	95.09	32.76	-35.8	-36.7	22.5	0.00e+00	0	38	0	1731198976	41	4108
2026-01-22 13:21:21.36	94.14	33.13	-35.5	-36.3	22.8	0.00e+00	0	38	0	1753219072	41	3952
2026-01-22 13:21:24.21	93.24	33.47	-35.4	-36.3	22.9	0.00e+00	0	38	0	1774190592	41	3914
2026-01-22 13:21:27.65	92.13	33.87	-35.2	-36.0	23.1	0.00e+00	0	38	0	1798307840	40	4021
2026-01-22 13:21:30.51	91.18	34.20	-34.8	-35.6	23.4	0.00e+00	0	38	0	1819279360	40	3856
2026-01-22 13:21:33.78	90.07	34.57	-35.3	-36.2	23.0	0.00e+00	0	38	0	1843396608	40	4105
2026-01-22 13:21:36.50	89.13	34.88	-35.6	-36.4	22.8	0.00e+00	0	38	0	1862270976	40	4227
2026-01-22 13:21:39.78	87.97	35.23	-35.5	-36.3	22.9	0.00e+00	0	38	0	1886388224	40	4190
2026-01-22 13:21:42.77	86.90	35.55	-35.3	-36.1	23.0	0.00e+00	0	38	0	1908408320	40	4093
2026-01-22 13:21:46.05	85.69	35.89	-35.4	-36.3	22.9	0.00e+00	0	38	0	1931476992	40	4154
2026-01-22 13:21:48.75	84.68	36.15	-35.4	-36.2	23.0	0.00e+00	0	38	0	1951399936	40	4132
2026-01-22 13:21:52.02	83.44	36.47	-35.4	-36.3	22.9	0.00e+00	0	38	0	1974468608	40	4162
2026-01-22 13:21:54.81	82.36	36.73	-35.5	-36.3	22.9	0.00e+00	0	38	0	1995440128	40	4189
2026-01-22 13:21:58.32	80.97	37.04	-35.5	-36.3	22.9	0.00e+00	0	38	0	2020605952	40	4189
2026-01-22 13:22:01.16	79.83	37.28	-35.7	-36.6	22.6	0.00e+00	0	38	0	2040528896	41	4076
2026-01-22 13:22:04.28	78.56	37.53	-35.7	-36.5	22.7	0.00e+00	0	38	0	2063597568	41	4023
2026-01-22 13:22:07.13	77.38	37.74	-35.4	-36.2	22.9	0.00e+00	0	38	0	2083520512	41	3903
2026-01-22 13:22:10.30	76.05	37.97	-35.1	-35.9	23.2	0.00e+00	0	38	0	2106589184	41	3780
2026-01-22 13:22:13.17	74.84	38.16	-35.3	-36.2	23.0	0.00e+00	0	38	0	2127560704	41	3872
2026-01-22 13:22:16.69	73.32	38.37	-35.5	-36.3	22.9	0.00e+00	0	38	0	2152726528	41	3944
2026-01-22 13:22:19.40	72.15	38.52	-35.7	-36.5	22.7	0.00e+00	0	38	0	2172649472	41	4037
2026-01-22 13:22:22.68	70.71	38.68	-35.5	-36.3	22.8	0.00e+00	0	38	0	2195718144	41	3949
2026-01-22 13:22:25.45	69.48	38.80	-35.7	-36.5	22.8	0.00e+00	0	38	0	2215641088	41	4029
2026-01-22 13:22:28.72	68.03	38.93	-35.5	-36.3	22.9	0.00e+00	0	38	0	2239758336	41	3927
2026-01-22 13:22:31.41	66.82	39.02	-35.4	-36.3	22.9	0.00e+00	0	38	0	2258632704	41	3918
2026-01-22 13:22:34.92	65.24	39.11	-35.3	-36.1	23.0	0.00e+00	0	38	0	2284847104	41	3855
2026-01-22 13:22:37.81	63.93	39.17	-35.4	-36.2	22.9	0.00e+00	0	38	0	2304770048	41	3912
2026-01-22 13:22:41.79	62.12	39.22	-35.6	-36.4	22.8	0.00e+00	0	38	0	2334130176	41	3988
2026-01-22 13:22:44.63	60.82	39.24	-35.9	-36.8	22.5	0.00e+00	0	38	0	2354053120	41	4164
2026-01-22 13:22:48.72	58.96	39.23	-35.5	-36.3	22.9	0.00e+00	0	38	0	2384461824	41	3954
2026-01-22 13:22:51.60	57.65	39.21	-35.8	-36.6	22.6	0.00e+00	0	38	0	2404384768	41	4068
2026-01-22 13:22:55.35	55.95	39.15	-35.1	-35.9	23.2	0.00e+00	0	38	0	2431647744	41	3768
2026-01-22 13:22:58.13	54.69	39.09	-35.2	-36.0	23.1	0.00e+00	0	38	0	2451570688	40	4031
2026-01-22 13:23:01.42	53.21	39.00	-35.6	-36.5	22.8	0.00e+00	0	38	0	2475687936	40	4244
2026-01-22 13:23:04.12	52.00	38.91	-35.3	-36.1	23.0	0.00e+00	0	38	0	2495610880	40	4092
2026-01-22 13:23:07.52	50.49	38.77	-35.8	-36.6	22.6	0.00e+00	0	38	0	2519728128	41	4096
2026-01-22 13:23:10.22	49.30	38.65	-35.0	-35.8	23.3	0.00e+00	0	38	0	2539651072	40	3937
2026-01-22 13:23:13.74	47.76	38.47	-35.4	-36.2	23.0	0.00e+00	0	38	0	2564816896	40	4119
2026-01-22 13:23:16.45	46.59	38.31	-35.5	-36.3	22.9	0.00e+00	0	38	0	2583691264	40	4172
2026-01-22 13:23:19.74	45.18	38.11	-35.2	-36.0	23.2	0.00e+00	0	38	0	2607808512	40	4029
2026-01-22 13:23:22.47	44.03	37.93	-34.9	-35.7	23.4	0.00e+00	0	38	0	2627731456	40	3906
2026-01-22 13:23:25.80	42.64	37.69	-35.1	-35.9	23.2	0.00e+00	0	38	0	2651848704	40	3982
2026-01-22 13:23:28.63	41.48	37.47	-35.1	-35.9	23.2	0.00e+00	0	38	0	2671771648	40	3978
2026-01-22 13:23:32.38	39.96	37.17	-35.1	-35.9	23.2	0.00e+00	0	38	0	2699034624	40	3966
2026-01-22 13:23:35.16	38.86	36.93	-34.9	-35.7	23.4	0.00e+00	0	38	0	2718957568	40	3897
2026-01-22 13:23:38.43	37.58	36.63	-35.0	-35.8	23.3	0.00e+00	0	38	0	2743074816	40	3936
2026-01-22 13:23:41.14	36.53	36.38	-35.2	-36.0	23.1	0.00e+00	0	38	0	2761949184	40	4045
2026-01-22 13:23:44.43	35.29	36.06	-35.4	-36.2	22.9	0.00e+00	0	38	0	2786066432	40	4135
2026-01-22 13:23:47.14	34.29	35.79	-35.2	-36.1	22.9	0.00e+00	0	38	0	2805989376	40	4058
2026-01-22 13:23:50.76	32.97	35.41	-35.2	-36.1	23.0	0.00e+00	0	38	0	2831155200	40	4052
2026-01-22 13:23:53.60	31.96	35.11	-35.4	-36.2	22.9	0.00e+00	0	38	0	2852126720	40	4123
2026-01-22 13:23:57.58	30.57	34.68	-35.0	-35.8	23.2	0.00e+00	0	38	0	2881486848	40	3941
2026-01-22 13:24:00.58	29.55	34.34	-35.2	-36.0	23.1	0.00e+00	0	38	0	2902458368	40	4024
2026-01-22 13:24:04.67	28.20	33.87	-35.2	-36.0	23.1	0.00e+00	0	38	0	2931818496	40	4043
2026-01-22 13:24:07.51	27.28	33.54	-35.3	-36.1	22.9	0.00e+00	0	38	0	2952790016	40	4066
2026-01-22 13:24:11.49	26.03	33.06	-34.9	-35.7	23.3	0.00e+00	0	38	0	2981101568	40	3909
2026-01-22 13:24:14.33	25.15	32.72	-34.9	-35.8	23.3	0.00e+00	0	38	0	3002073088	40	3921
2026-01-22 13:24:18.56	23.89	32.21	-35.0	-35.8	23.2	0.00e+00	0	38	0	3032481792	40	3923
2026-01-22 13:24:21.51	23.03	31.84	-35.1	-35.9	23.2	0.00e+00	0	38	0	3053453312	40	3983
2026-01-22 13:24:24.92	22.06	31.42	-35.4	-36.2	22.9	0.00e+00	0	38	0	3078619136	40	4112
2026-01-22 13:24:27.64	21.30	31.08	-35.2	-36.0	23.1	0.00e+00	0	38	0	3097493504	40	4030
2026-01-22 13:24:30.91	20.42	30.67	-35.3	-36.1	23.0	0.00e+00	0	38	0	3121610752	40	4073
2026-01-22 13:24:33.63	19.70	30.32	-35.4	-36.2	22.9	0.00e+00	0	38	0	3141533696	40	4122
2026-01-22 13:24:36.90	18.85	29.91	-35.7	-36.5	22.6	0.00e+00	0	38	0	3164602368	40	4287
2026-01-22 13:24:39.65	18.16	29.56	-35.5	-36.4	22.7	0.00e+00	0	38	0	3184525312	40	4220
2026-01-22 13:24:43.39	17.24	29.09	-35.3	-36.1	23.0	0.00e+00	0	39	0	3211788288	40	4083
2026-01-22 13:24:46.11	16.59	28.74	-35.6	-36.5	22.7	0.00e+00	0	38	0	3230662656	40	4252
2026-01-22 13:24:49.39	15.82	28.33	-35.5	-36.3	22.7	0.00e+00	0	38	0	3254779904	40	4188
2026-01-22 13:24:52.10	15.20	27.99	-35.4	-36.3	22.8	0.00e+00	0	38	0	3274702848	40	4160
2026-01-22 13:24:55.39	14.47	27.57	-35.7	-36.6	22.6	0.00e+00	0	38	0	3297771520	40	4297
2026-01-22 13:24:58.10	13.88	27.23	-35.7	-36.5	22.6	0.00e+00	0	38	0	3317694464	41	4044
2026-01-22 13:25:01.38	13.18	26.82	-35.4	-36.2	22.9	0.00e+00	0	38	0	3341811712	41	3887
2026-01-22 13:25:04.14	12.61	26.47	-35.5	-36.3	22.8	0.00e+00	0	38	0	3361734656	41	3930
2026-01-22 13:25:07.41	11.95	26.06	-35.6	-36.5	22.7	0.00e+00	0	38	0	3384803328	41	4011
2026-01-22 13:25:10.12	11.41	25.73	-35.4	-36.2	22.9	0.00e+00	0	38	0	3404726272	41	3889
2026-01-22 13:25:13.74	10.71	25.28	-35.3	-36.2	22.9	0.00e+00	0	38	0	3430940672	41	3878
2026-01-22 13:25:16.58	10.18	24.93	-35.8	-36.7	22.5	0.00e+00	0	38	0	3450863616	41	4105
2026-01-22 13:25:20.56	9.45	24.45	-35.8	-36.6	22.5	0.00e+00	0	38	0	3480223744	41	4093
2026-01-22 13:25:23.53	8.92	24.09	-35.5	-36.3	22.8	0.00e+00	0	38	0	3501195264	41	3950
2026-01-22 13:25:27.55	8.23	23.61	-35.5	-36.3	22.8	0.00e+00	0	38	0	3530555392	41	3940
2026-01-22 13:25:30.50	7.73	23.25	-35.6	-36.4	22.6	0.00e+00	0	38	0	3551526912	41	3990
2026-01-22 13:25:33.96	7.16	22.85	-35.7	-36.6	22.5	0.00e+00	0	38	0	3576692736	41	4076
2026-01-22 13:25:36.66	6.72	22.53	-35.7	-36.5	22.5	0.00e+00	0	38	0	3595567104	41	4050
2026-01-22 13:25:39.93	6.21	22.15	-35.5	-36.4	22.7	0.00e+00	0	38	0	3619684352	41	3962
2026-01-22 13:25:42.71	5.79	21.83	-35.8	-36.7	22.4	0.00e+00	0	38	0	3639607296	41	4110
2026-01-22 13:25:46.11	5.28	21.44	-36.3	-37.3	21.9	0.00e+00	0	38	0	3663724544	42	4146
2026-01-22 13:25:48.81	4.88	21.13	-36.4	-37.3	21.9	0.00e+00	0	38	0	3683647488	42	4160
2026-01-22 13:25:52.22	4.39	20.75	-36.4	-37.3	21.9	0.00e+00	0	38	0	3708813312	42	4165
2026-01-22 13:25:54.92	4.01	20.45	-36.6	-37.5	21.7	0.00e+00	0	38	0	3727687680	42	4285
2026-01-22 13:25:58.19	3.57	20.08	-36.7	-37.6	21.6	0.00e+00	0	38	0	3751804928	42	4330
2026-01-22 13:26:00.92	3.20	19.78	-36.5	-37.4	21.7	0.00e+00	0	38	0	3771727872	42	4234
2026-01-22 13:26:04.25	2.77	19.42	-36.4	-37.2	21.9	0.00e+00	0	38	0	3794796544	42	4144
2026-01-22 13:26:07.11	2.40	19.11	-36.6	-37.5	21.7	0.00e+00	0	38	0	3815768064	42	4278
2026-01-22 13:26:10.52	1.97	18.75	-36.8	-37.8	21.4	0.00e+00	0	38	0	3840933888	43	4155
2026-01-22 13:26:13.25	1.64	18.46	-37.0	-37.9	21.2	0.00e+00	0	38	0	3859808256	43	4238
2026-01-22 13:26:16.52	1.25	18.12	-37.1	-38.0	21.2	0.00e+00	0	38	0	3883925504	43	4258
2026-01-22 13:26:19.24	0.93	17.83	-37.0	-37.9	21.2	0.00e+00	0	38	0	3903848448	43	4212
2026-01-22 13:26:22.60	0.54	17.49	-37.2	-38.1	21.0	0.00e+00	0	39	0	3927965696	43	4317
2026-01-22 13:26:25.36	0.23	17.20	-37.1	-38.1	21.1	0.00e+00	0	38	0	3947888640	43	4304
2026-01-22 13:26:28.70	359.87	16.87	-37.2	-38.2	20.9	0.00e+00	0	38	0	3972005888	43	4370
2026-01-22 13:26:31.40	359.57	16.60	-37.5	-38.5	20.8	0.00e+00	0	38	0	3990880256	44	4254
2026-01-22 13:26:34.67	359.23	16.27	-37.6	-38.6	20.7	0.00e+00	0	38	0	4014997504	44	4301
2026-01-22 13:26:37.38	358.95	16.01	-37.8	-38.7	20.6	0.00e+00	0	38	0	4034920448	45	4144
2026-01-22 13:26:40.60	358.62	15.69	-38.0	-39.0	20.4	0.00e+00	0	38	0	4057989120	45	4254
2026-01-22 13:26:43.89	358.30	15.37	-38.0	-39.0	20.3	0.00e+00	0	38	0	4081057792	45	4284
2026-01-22 13:26:46.78	358.02	15.10	-37.9	-38.9	20.4	0.00e+00	0	38	0	4102029312	45	4210
2026-01-22 13:26:50.30	357.68	14.76	-37.7	-38.7	20.6	0.00e+00	0	38	0	4127195136	45	4117
2026-01-22 13:26:53.00	357.43	14.51	-37.7	-38.7	20.6	0.00e+00	0	38	0	4147118080	45	4110
2026-01-22 13:26:56.27	357.13	14.21	-37.7	-38.7	20.5	0.00e+00	0	38	0	4171235328	45	4139
2026-01-22 13:26:58.98	356.89	13.96	-37.9	-38.9	20.4	0.00e+00	0	38	0	4190109696	45	4215
2026-01-22 13:27:02.53	356.58	13.63	-38.2	-39.2	20.1	0.00e+00	0	38	0	4216324096	45	4356
2026-01-22 13:27:05.23	356.34	13.39	-38.2	-39.2	20.1	0.00e+00	0	38	0	4235198464	45	4350
2026-01-22 13:27:08.72	356.05	13.08	-38.3	-39.3	20.0	0.00e+00	0	38	0	4260364288	46	4172
2026-01-22 13:27:11.43	355.82	12.83	-38.2	-39.4	19.9	0.00e+00	0	38	0	4280287232	46	4209
2026-01-22 13:27:14.71	355.56	12.55	-38.3	-39.6	19.7	0.00e+00	0	38	0	4303355904	46	4298
2026-01-22 13:27:17.47	355.34	12.31	-38.3	-39.6	19.7	0.00e+00	0	38	0	4324327424	46	4324
2026-01-22 13:27:20.76	355.08	12.02	-38.6	-39.9	19.4	0.00e+00	0	38	0	4347396096	46	4460
2026-01-22 13:27:23.46	354.87	11.79	-38.8	-40.0	19.3	0.00e+00	0	38	0	4367319040	47	4291
2026-01-22 13:27:26.75	354.62	11.51	-39.0	-40.2	19.1	0.00e+00	0	38	0	4390387712	47	4367
2026-01-22 13:27:29.46	354.42	11.28	-38.9	-40.2	19.1	0.00e+00	0	38	0	4410310656	47	4353
2026-01-22 13:27:32.73	354.19	11.01	-38.8	-40.2	19.0	0.00e+00	0	38	0	4434427904	47	4390
2026-01-22 13:27:35.46	353.99	10.78	-38.7	-40.5	18.8	0.00e+00	0	38	0	4454350848	47	4511
2026-01-22 13:27:38.73	353.76	10.51	-38.8	-40.5	18.8	0.00e+00	0	38	0	4477419520	47	4503
2026-01-22 13:27:41.72	353.56	10.27	-38.7	-40.2	19.1	0.00e+00	0	38	0	4499439616	47	4352
2026-01-22 13:27:45.28	353.31	9.98	-38.7	-40.2	19.0	0.00e+00	0	38	0	4524605440	47	4372
2026-01-22 13:27:48.24	353.12	9.75	-38.7	-40.4	18.9	0.00e+00	0	38	0	4545576960	47	4456
2026-01-22 13:27:51.22	352.92	9.51	-38.6	-40.3	18.9	0.00e+00	0	38	0	4567597056	47	4430
2026-01-22 13:27:54.25	352.73	9.27	-38.8	-40.4	18.8	0.00e+00	0	38	0	4589617152	47	4467
2026-01-22 13:27:57.17	352.55	9.04	-39.0	-40.5	18.7	0.00e+00	0	38	0	4610588672	47	4499
2026-01-22 13:28:00.15	352.36	8.81	-49.8	-61.1	3.8	8.46e-01	0	38	104	4615831552	69	13593
2026-01-22 13:28:03.13	352.18	8.58	-50.3	-61.4	3.8	8.47e-01	0	38	104	4615831552	70	13300
2026-01-22 13:28:06.11	352.00	8.36	-50.1	-61.5	3.8	8.47e-01	0	38	104	4615831552	70	13452
2026-01-22 13:28:09.09	351.83	8.13	-50.6	-61.5	3.8	8.47e-01	0	38	104	4615831552	71	12718
2026-01-22 13:28:12.07	351.65	7.91	-50.7	-61.5	3.8	8.48e-01	0	38	104	4615831552	71	12726
2026-01-22 13:28:15.05	351.48	7.69	-50.3	-61.5	3.8	8.47e-01	0	38	104	4615831552	71	12744
2026-01-22 13:28:18.03	351.32	7.47	-50.8	-61.5	3.8	8.48e-01	0	38	104	4615831552	71	12690
2026-01-22 13:28:21.01	351.15	7.25	-50.9	-61.5	3.8	8.47e-01	0	38	104	4615831552	71	12734
2026-01-22 13:28:23.99	350.99	7.03	-50.8	-61.5	3.8	8.47e-01	0	38	104	4615831552	71	12694
2026-01-22 13:28:26.97	350.83	6.82	-50.6	-61.4	3.8	8.46e-01	0	38	104	4615831552	71	12522
2026-01-22 13:28:29.95	350.67	6.60	-50.6	-61.4	3.8	8.47e-01	0	38	104	4615831552	71	12647
2026-01-22 13:28:32.93	350.52	6.39	-50.6	-61.4	3.8	8.46e-01	0	38	104	4615831552	71	12584
2026-01-22 13:28:35.91	350.37	6.18	-50.6	-61.4	3.8	8.46e-01	0	38	104	4615831552	71	12584
2026-01-22 13:28:38.89	350.22	5.97	-50.6	-61.4	3.8	8.46e-01	0	38	104	4615831552	71	12642
2026-01-22 13:28:41.87	350.07	5.76	-50.6	-61.4	3.8	8.45e-01	0	38	104	4615831552	71	12572
2026-01-22 13:28:44.85	349.92	5.56	-50.6	-61.4	3.8	8.47e-01	0	38	104	4615831552	71	12599
2026-01-22 13:28:47.83	349.78	5.35	-50.6	-61.4	3.8	8.47e-01	0	38	104	4615831552	71	12548
2026-01-22 13:28:50.81	349.64	5.15	-50.6	-61.4	3.8	8.47e-01	0	38	104	4615831552	71	12526
2026-01-22 13:28:53.79	349.50	4.94	-50.6	-61.4	3.8	8.46e-01	0	38	104	4615831552	71	12553

#Closed at: 2026-01-22 13:28:54
#Recorded file [4615 MB]: D:/Data/31040_260122_161640.dat