passes_logs/2026/01/22/T1/T1__20260122_183941_FENGYUN_3G_rec.log

#Pass ID: 20260122_183941_FENGYUN 3G
#Satellite: FENGYUN 3G
#Configuration: FENGYUN 3G
#almurnet v.1.7.20251203
#Start time: 2026-01-22 18:39:41

#Version: 2.0.20230620
#Station: T1
#Location: 37.570604 lon 55.790049 lat
#TLE: 1 56232U 23055A   26021.54475475  .00062179  00000+0  94164-3 0  9996
#TLE: 2 56232  49.9941  22.1547 0004002  61.8305 298.3066 15.54008241157216

#Time	Az	El	Level	Level2	SNR	BER	BlckErr	Temp	State	Recorded	gain1	gain2
2026-01-22 18:39:41.81	218.02	5.45	-49.5	-68.6	3.8	8.48e-01	0	34	0	0	70	32759
2026-01-22 18:39:43.79	217.77	5.59	-49.5	-68.5	3.8	8.46e-01	0	35	104	0	70	32372
2026-01-22 18:39:45.78	217.52	5.73	-49.5	-68.4	3.8	8.47e-01	0	35	104	0	70	31977
2026-01-22 18:39:47.76	217.26	5.87	-49.5	-68.4	3.8	8.47e-01	0	35	104	0	70	32124
2026-01-22 18:39:49.75	217.00	6.02	-49.5	-68.4	3.8	8.48e-01	0	35	104	0	70	32086
2026-01-22 18:39:51.74	216.74	6.16	-49.5	-68.5	3.8	8.46e-01	0	35	104	0	70	32210
2026-01-22 18:39:53.72	216.47	6.31	-49.4	-68.5	3.8	8.47e-01	0	35	104	0	70	32517
2026-01-22 18:39:55.71	216.20	6.45	-49.5	-68.5	3.8	8.46e-01	0	35	104	0	70	32406
2026-01-22 18:39:57.70	215.92	6.60	-49.5	-68.5	3.8	8.46e-01	0	35	104	0	70	32476
2026-01-22 18:39:59.69	215.64	6.75	-49.4	-68.4	3.8	8.47e-01	0	35	104	0	70	32156
2026-01-22 18:40:01.67	215.36	6.90	-49.4	-68.3	3.8	8.46e-01	0	35	104	0	70	31719
2026-01-22 18:40:03.66	215.08	7.05	-49.4	-68.2	3.8	8.47e-01	0	35	104	0	70	31154
2026-01-22 18:40:05.65	214.78	7.20	-49.4	-67.9	3.8	8.47e-01	0	35	104	0	70	30260
2026-01-22 18:40:07.63	214.49	7.35	-49.4	-67.7	3.8	8.47e-01	0	35	104	0	70	29603
2026-01-22 18:40:09.62	214.19	7.50	-49.4	-67.9	3.8	8.47e-01	0	36	104	0	70	30266
2026-01-22 18:40:11.61	213.88	7.65	-49.4	-68.3	3.8	8.47e-01	0	36	104	0	70	31764
2026-01-22 18:40:13.60	213.58	7.81	-49.4	-68.5	3.8	8.47e-01	0	36	104	0	70	32348
2026-01-22 18:40:15.58	213.26	7.96	-49.4	-68.4	3.8	8.48e-01	0	36	104	0	70	31991
2026-01-22 18:40:17.57	212.95	8.12	-49.4	-68.3	3.8	8.48e-01	0	36	104	0	70	31519
2026-01-22 18:40:19.55	212.62	8.27	-49.4	-66.9	3.8	8.47e-01	0	36	104	0	70	26872
2026-01-22 18:40:21.54	212.30	8.43	-49.4	-67.2	3.8	8.47e-01	0	36	104	0	70	27910
2026-01-22 18:40:23.53	211.96	8.59	-49.4	-68.5	3.8	8.46e-01	0	36	104	0	70	32237
2026-01-22 18:40:25.51	211.63	8.75	-49.4	-67.4	3.8	8.47e-01	0	36	104	0	70	28367
2026-01-22 18:40:27.50	211.28	8.91	-49.3	-65.1	4.2	8.46e-01	0	36	0	0	70	21878
2026-01-22 18:40:29.49	210.94	9.07	-48.8	-58.9	8.4	8.14e-01	0	36	0	0	69	11293
2026-01-22 18:40:31.48	210.58	9.23	-49.1	-61.2	5.4	4.77e-01	0	36	0	0	69	14724
2026-01-22 18:40:33.47	210.22	9.39	-47.2	-52.8	15.3	1.21e-01	0	36	0	0	64	7495
2026-01-22 18:40:35.46	209.86	9.55	-47.3	-53.0	14.2	3.19e-02	0	36	0	0	66	6871
2026-01-22 18:40:37.45	209.49	9.72	-46.8	-51.8	15.8	1.10e-06	0	36	0	0	65	6287
2026-01-22 18:40:39.43	209.11	9.88	-46.8	-51.9	15.7	0.00e+00	0	36	0	0	64	6749
2026-01-22 18:40:41.42	208.73	10.04	-46.7	-51.8	15.6	0.00e+00	0	36	0	0	64	6650
2026-01-22 18:40:43.41	208.35	10.21	-46.6	-51.5	15.9	0.00e+00	0	36	0	0	64	6494
2026-01-22 18:40:45.40	207.95	10.38	-46.5	-51.3	16.0	0.00e+00	0	36	0	0	64	6283
2026-01-22 18:40:47.40	207.55	10.54	-46.9	-52.3	15.0	0.00e+00	0	36	0	0	64	7041
2026-01-22 18:40:49.39	207.14	10.71	-46.7	-51.7	15.7	0.00e+00	0	36	0	0	64	6586
2026-01-22 18:40:51.38	206.73	10.88	-46.6	-51.7	15.8	0.00e+00	0	36	0	0	64	6574
2026-01-22 18:40:53.37	206.31	11.05	-46.4	-51.3	16.1	0.00e+00	0	36	0	0	64	6284
2026-01-22 18:40:55.36	205.89	11.22	-45.7	-49.8	17.8	0.00e+00	0	37	0	0	63	5640
2026-01-22 18:40:57.35	205.46	11.39	-45.4	-49.2	18.2	0.00e+00	0	36	0	0	62	5545
2026-01-22 18:40:59.34	205.02	11.56	-45.4	-49.3	18.1	0.00e+00	0	37	0	0	62	5615
2026-01-22 18:41:01.33	204.57	11.73	-45.3	-49.2	18.2	0.00e+00	0	37	0	0	61	5906
2026-01-22 18:41:03.32	204.12	11.90	-45.8	-50.0	17.9	0.00e+00	0	36	0	0	62	6112
2026-01-22 18:41:05.31	203.66	12.07	-45.5	-49.4	18.2	0.00e+00	0	37	0	0	62	5713
2026-01-22 18:41:07.30	203.20	12.24	-45.2	-48.9	18.4	0.00e+00	0	37	0	0	62	5402
2026-01-22 18:41:09.29	202.72	12.41	-45.4	-49.3	18.2	0.00e+00	0	37	0	0	62	5631
2026-01-22 18:41:11.22	202.26	12.58	-45.2	-48.9	18.7	0.00e+00	0	36	0	0	61	5702
2026-01-22 18:41:13.21	201.77	12.75	-44.8	-48.3	19.0	0.00e+00	0	37	0	0	61	5290
2026-01-22 18:41:15.20	201.27	12.93	-45.6	-49.5	18.0	0.00e+00	0	37	0	0	62	5746
2026-01-22 18:41:17.19	200.77	13.10	-45.0	-48.4	19.1	0.00e+00	0	37	0	0	61	5369
2026-01-22 18:41:19.18	200.26	13.27	-44.6	-47.9	19.8	0.00e+00	0	36	0	0	61	5054
2026-01-22 18:41:21.17	199.74	13.45	-44.1	-47.2	20.4	0.00e+00	0	37	0	0	59	5236
2026-01-22 18:41:23.18	199.21	13.62	-43.0	-45.8	21.8	0.00e+00	0	37	0	0	58	4729
2026-01-22 18:41:25.17	198.67	13.79	-43.0	-45.8	21.7	0.00e+00	0	37	0	0	57	5025
2026-01-22 18:41:27.22	198.11	13.97	-42.7	-45.4	22.0	0.00e+00	0	37	0	0	57	4812
2026-01-22 18:41:29.23	197.56	14.15	-41.8	-44.3	23.1	0.00e+00	0	37	0	0	55	4748
2026-01-22 18:41:31.44	196.93	14.34	-42.1	-44.8	22.6	0.00e+00	0	37	0	0	55	5014
2026-01-22 18:41:33.49	196.35	14.51	-41.3	-43.8	23.5	0.00e+00	0	37	0	0	54	4716
2026-01-22 18:41:35.55	195.75	14.69	-40.2	-42.4	24.7	0.00e+00	0	37	0	0	52	4533
2026-01-22 18:41:37.54	195.16	14.86	-39.3	-41.5	25.5	0.00e+00	0	37	0	0	50	4558
2026-01-22 18:41:39.54	194.56	15.03	-39.3	-41.4	25.6	0.00e+00	0	36	0	0	50	4520
2026-01-22 18:41:41.54	193.95	15.20	-39.4	-41.5	25.6	0.00e+00	0	37	0	0	50	4568
2026-01-22 18:41:43.53	193.34	15.37	-39.7	-41.8	25.3	0.00e+00	0	37	0	0	50	4758
2026-01-22 18:41:45.53	192.72	15.54	-39.7	-41.8	25.3	0.00e+00	0	37	0	0	50	4752
2026-01-22 18:41:47.68	192.03	15.71	-39.4	-41.5	25.6	0.00e+00	0	37	0	0	50	4575
2026-01-22 18:41:49.83	191.34	15.89	-38.9	-40.9	26.0	0.00e+00	0	37	0	0	49	4529
2026-01-22 18:41:51.83	190.69	16.05	-38.6	-40.7	26.3	0.00e+00	0	37	0	0	49	4409
2026-01-22 18:41:53.82	190.03	16.21	-38.4	-40.5	26.4	0.00e+00	0	37	0	0	48	4564
2026-01-22 18:41:55.87	189.34	16.38	-38.8	-40.9	26.1	0.00e+00	0	37	0	0	48	4786
2026-01-22 18:41:57.89	188.66	16.54	-38.9	-40.9	26.1	0.00e+00	0	37	0	0	48	4798
2026-01-22 18:41:59.88	187.97	16.69	-38.8	-40.9	26.1	0.00e+00	0	37	0	0	48	4777
2026-01-22 18:42:01.87	187.27	16.85	-38.7	-40.7	26.2	0.00e+00	0	37	0	0	48	4685
2026-01-22 18:42:03.88	186.56	17.00	-38.6	-40.6	26.3	0.00e+00	0	37	0	0	48	4651
2026-01-22 18:42:06.10	185.77	17.16	-38.5	-40.6	26.4	0.00e+00	0	37	0	0	48	4600
2026-01-22 18:42:08.09	185.05	17.31	-38.5	-40.5	26.3	0.00e+00	0	37	0	0	48	4570
2026-01-22 18:42:10.21	184.27	17.46	-38.1	-40.1	26.7	0.00e+00	0	37	0	0	48	4355
2026-01-22 18:42:12.20	183.53	17.60	-38.0	-40.0	26.7	0.00e+00	0	37	0	0	47	4574
2026-01-22 18:42:14.19	182.78	17.74	-38.4	-40.4	26.5	0.00e+00	0	37	0	0	47	4791
2026-01-22 18:42:16.18	182.02	17.87	-38.6	-40.6	26.3	0.00e+00	0	37	0	0	47	4909
2026-01-22 18:42:18.20	181.25	18.01	-38.3	-40.4	26.5	0.00e+00	0	37	0	0	47	4773
2026-01-22 18:42:20.19	180.47	18.13	-38.3	-40.4	26.5	0.00e+00	0	37	0	0	47	4773
2026-01-22 18:42:22.20	179.69	18.26	-38.5	-40.5	26.3	0.00e+00	0	37	0	0	47	4847
2026-01-22 18:42:24.20	178.89	18.38	-38.6	-40.6	19.4	0.00e+00	0	37	0	0	47	4901
2026-01-22 18:42:26.20	178.09	18.49	-38.7	-40.7	26.3	0.00e+00	0	37	0	0	48	4674
2026-01-22 18:42:28.43	177.19	18.62	-38.2	-40.2	26.7	0.00e+00	0	36	0	0	48	4422
2026-01-22 18:42:30.44	176.37	18.73	-38.0	-40.0	26.8	0.00e+00	0	37	0	0	48	4323
2026-01-22 18:42:32.43	175.55	18.83	-38.1	-40.1	26.7	0.00e+00	0	37	0	0	47	4649
2026-01-22 18:42:34.43	174.72	18.93	-37.6	-39.6	27.1	0.00e+00	0	37	0	0	47	4350
2026-01-22 18:42:36.44	173.88	19.02	-37.8	-39.7	26.9	0.00e+00	0	37	0	0	47	4433
2026-01-22 18:42:38.49	173.02	19.11	-38.1	-40.1	26.6	0.00e+00	0	37	0	0	47	4632
2026-01-22 18:42:40.57	172.14	19.20	-37.8	-39.8	26.8	0.00e+00	0	37	0	0	47	4454
2026-01-22 18:42:42.74	171.21	19.28	-37.5	-39.5	27.1	0.00e+00	0	37	0	0	46	4552
2026-01-22 18:42:44.93	170.27	19.36	-37.3	-39.2	27.3	0.00e+00	0	37	0	0	46	4428
2026-01-22 18:42:46.95	169.40	19.43	-37.3	-39.2	27.3	0.00e+00	0	37	0	0	46	4426
2026-01-22 18:42:48.95	168.53	19.49	-37.6	-39.6	27.1	0.00e+00	0	37	0	0	46	4631
2026-01-22 18:42:50.93	167.67	19.54	-37.6	-39.5	27.0	0.00e+00	0	37	0	0	46	4594
2026-01-22 18:42:52.92	166.80	19.59	-37.6	-39.5	24.6	0.00e+00	0	37	0	0	46	4596
2026-01-22 18:42:54.92	165.92	19.64	-37.6	-39.5	27.1	0.00e+00	0	37	0	0	46	4588
2026-01-22 18:42:56.91	165.04	19.67	-37.7	-39.6	27.0	0.00e+00	0	37	0	0	46	4637
2026-01-22 18:42:59.01	164.11	19.71	-37.8	-39.8	26.9	0.00e+00	0	37	0	0	46	4746
2026-01-22 18:43:01.08	163.20	19.73	-37.7	-39.7	27.0	0.00e+00	0	37	0	0	46	4682
2026-01-22 18:43:03.07	162.31	19.75	-37.8	-39.7	26.9	0.00e+00	0	37	0	0	46	4694
2026-01-22 18:43:05.06	161.43	19.77	-38.0	-40.0	26.8	0.00e+00	0	37	0	0	46	4841
2026-01-22 18:43:07.05	160.54	19.77	-37.9	-39.9	26.7	0.00e+00	0	37	0	0	46	4794
2026-01-22 18:43:09.04	159.66	19.78	-37.9	-39.9	26.8	0.00e+00	0	37	0	0	46	4799
2026-01-22 18:43:11.03	158.77	19.77	-37.7	-39.7	27.0	0.00e+00	0	37	0	0	46	4678
2026-01-22 18:43:13.01	157.89	19.76	-37.8	-39.8	25.4	0.00e+00	0	37	0	0	46	4706
2026-01-22 18:43:15.02	157.00	19.74	-37.7	-39.7	26.9	0.00e+00	0	37	0	0	46	4685
2026-01-22 18:43:17.01	156.11	19.72	-37.3	-39.2	27.3	0.00e+00	0	37	0	0	46	4415
2026-01-22 18:43:19.00	155.23	19.69	-37.3	-39.2	27.4	0.00e+00	0	37	0	0	46	4430
2026-01-22 18:43:21.00	154.35	19.66	-37.2	-39.1	27.4	0.00e+00	0	37	0	0	46	4377
2026-01-22 18:43:22.99	153.48	19.62	-37.7	-39.7	27.0	0.00e+00	0	37	0	0	46	4656
2026-01-22 18:43:24.98	152.60	19.57	-38.2	-40.2	26.5	0.00e+00	0	37	0	0	47	4705
2026-01-22 18:43:26.97	151.73	19.52	-38.0	-40.0	26.7	0.00e+00	0	37	0	0	47	4552
2026-01-22 18:43:28.95	150.87	19.46	-37.6	-39.6	27.1	0.00e+00	0	37	0	0	47	4354
2026-01-22 18:43:31.01	149.98	19.40	-37.6	-39.6	27.1	0.00e+00	0	37	0	0	46	4614
2026-01-22 18:43:33.07	149.09	19.33	-37.8	-39.8	26.8	0.00e+00	0	37	0	0	46	4725
2026-01-22 18:43:35.13	148.21	19.25	-38.5	-40.6	26.3	0.00e+00	0	37	0	0	47	4875
2026-01-22 18:43:37.12	147.37	19.17	-38.2	-40.2	26.5	0.00e+00	0	37	0	0	47	4705
2026-01-22 18:43:39.11	146.53	19.09	-37.7	-39.6	26.9	0.00e+00	0	37	0	0	47	4386
2026-01-22 18:43:41.10	145.69	19.00	-37.6	-39.5	27.1	0.00e+00	0	37	0	0	46	4596
2026-01-22 18:43:43.01	144.90	18.91	-37.6	-39.6	27.0	0.00e+00	0	37	0	0	46	4600
2026-01-22 18:43:45.00	144.07	18.81	-37.7	-39.6	27.0	0.00e+00	0	37	0	0	46	4650
2026-01-22 18:43:46.99	143.26	18.70	-37.6	-39.6	27.0	0.00e+00	0	37	0	0	46	4606
2026-01-22 18:43:48.98	142.45	18.60	-37.4	-39.4	27.1	0.00e+00	0	37	0	0	46	4533
2026-01-22 18:43:50.97	141.65	18.49	-37.3	-39.3	27.3	0.00e+00	0	37	0	0	46	4444
2026-01-22 18:43:52.96	140.85	18.37	-37.7	-39.6	26.9	0.00e+00	0	37	0	0	46	4646
2026-01-22 18:43:54.94	140.07	18.25	-37.8	-39.8	26.7	0.00e+00	0	37	0	0	46	4753
2026-01-22 18:43:56.93	139.29	18.13	-37.7	-39.7	27.0	0.00e+00	0	37	0	0	46	4654
2026-01-22 18:43:58.86	138.54	18.01	-37.9	-39.9	26.8	0.00e+00	0	37	0	0	46	4772
2026-01-22 18:44:00.85	137.78	17.88	-38.3	-40.4	26.4	0.00e+00	0	37	0	0	47	4776
2026-01-22 18:44:02.84	137.03	17.74	-38.4	-40.5	26.3	0.00e+00	0	37	0	0	47	4841
2026-01-22 18:44:04.83	136.28	17.60	-38.5	-40.5	26.3	0.00e+00	0	37	0	0	47	4854
2026-01-22 18:44:06.82	135.54	17.47	-38.6	-40.7	26.2	0.00e+00	0	37	0	0	48	4663
2026-01-22 18:44:08.81	134.81	17.32	-38.5	-40.5	26.3	0.00e+00	0	37	0	0	48	4564
2026-01-22 18:44:10.80	134.09	17.18	-38.0	-40.0	26.7	0.00e+00	0	37	0	0	48	4302
2026-01-22 18:44:12.84	133.36	17.03	-37.9	-39.9	26.7	0.00e+00	0	37	0	0	47	4518
2026-01-22 18:44:14.84	132.65	16.88	-38.2	-40.2	26.5	0.00e+00	0	37	0	0	47	4676
2026-01-22 18:44:16.84	131.96	16.72	-38.4	-40.5	26.3	0.00e+00	0	37	0	0	47	4845
2026-01-22 18:44:18.88	131.25	16.56	-38.4	-40.4	26.3	0.00e+00	0	37	0	0	47	4800
2026-01-22 18:44:20.98	130.54	16.40	-38.5	-40.5	26.2	0.00e+00	0	37	0	0	47	4838
2026-01-22 18:44:23.16	129.81	16.23	-38.6	-40.6	26.2	0.00e+00	0	37	0	0	48	4639
2026-01-22 18:44:25.35	129.09	16.05	-38.7	-40.8	26.1	0.00e+00	0	37	0	0	48	4723
2026-01-22 18:44:27.31	128.45	15.89	-38.8	-40.9	26.0	0.00e+00	0	37	0	0	48	4768
2026-01-22 18:44:29.30	127.81	15.73	-38.7	-40.7	26.1	0.00e+00	0	37	0	0	48	4686
2026-01-22 18:44:31.69	127.06	15.53	-38.8	-40.8	26.0	0.00e+00	0	37	0	0	48	4752
2026-01-22 18:44:33.69	126.43	15.36	-38.9	-40.9	25.9	0.00e+00	0	37	0	0	48	4804
2026-01-22 18:44:35.68	125.82	15.19	-39.2	-41.3	25.6	0.00e+00	0	37	0	0	48	4991
2026-01-22 18:44:37.68	125.22	15.03	-39.3	-41.4	25.5	0.00e+00	0	37	0	0	49	4790
2026-01-22 18:44:39.62	124.64	14.86	-39.3	-41.3	25.6	0.00e+00	0	37	0	0	49	4747
2026-01-22 18:44:41.61	124.06	14.69	-39.3	-41.4	25.5	0.00e+00	0	37	0	0	49	4765
2026-01-22 18:44:43.74	123.44	14.51	-39.3	-41.4	25.5	0.00e+00	0	37	0	0	49	4772
2026-01-22 18:44:45.73	122.87	14.34	-39.4	-41.4	25.5	0.00e+00	0	37	0	0	49	4813
2026-01-22 18:44:47.72	122.31	14.17	-39.5	-41.6	25.3	0.00e+00	0	37	0	0	49	4909
2026-01-22 18:44:49.71	121.76	13.99	-39.7	-41.9	25.0	0.00e+00	0	37	0	0	50	4809
2026-01-22 18:44:51.70	121.22	13.82	-39.8	-41.9	25.0	0.00e+00	0	37	0	0	50	4802
2026-01-22 18:44:53.69	120.69	13.65	-39.4	-41.5	25.4	0.00e+00	0	37	0	0	50	4587
2026-01-22 18:44:55.68	120.16	13.48	-39.7	-41.8	25.2	0.00e+00	0	37	0	0	50	4730
2026-01-22 18:44:57.67	119.64	13.31	-40.1	-42.2	24.8	0.00e+00	0	37	0	0	50	4973
2026-01-22 18:44:59.66	119.13	13.13	-40.1	-42.3	24.7	0.00e+00	0	37	0	0	51	4729
2026-01-22 18:45:01.93	118.56	12.94	-40.1	-42.3	24.7	0.00e+00	0	37	0	0	51	4730
2026-01-22 18:45:03.95	118.06	12.76	-39.9	-42.1	24.9	0.00e+00	0	37	0	0	51	4627
2026-01-22 18:45:05.96	117.57	12.59	-40.2	-42.4	24.6	0.00e+00	0	37	0	0	51	4760
2026-01-22 18:45:07.96	117.09	12.41	-40.3	-42.5	24.4	0.00e+00	0	37	0	0	51	4853
2026-01-22 18:45:09.96	116.61	12.24	-40.3	-42.5	24.5	0.00e+00	0	37	0	0	51	4818
2026-01-22 18:45:11.96	116.15	12.07	-40.6	-42.8	24.3	0.00e+00	0	37	0	0	51	5023
2026-01-22 18:45:14.06	115.67	11.89	-40.5	-42.7	24.3	0.00e+00	0	37	0	0	51	4969
2026-01-22 18:45:16.05	115.22	11.72	-40.6	-42.9	24.2	0.00e+00	0	37	0	0	51	5047
2026-01-22 18:45:18.04	114.78	11.55	-40.6	-42.9	24.1	0.00e+00	0	37	0	0	52	4773
2026-01-22 18:45:20.03	114.34	11.38	-40.8	-43.0	23.9	0.00e+00	0	37	0	0	52	4863
2026-01-22 18:45:22.02	113.91	11.21	-40.8	-43.1	23.9	0.00e+00	0	37	0	0	52	4904
2026-01-22 18:45:24.01	113.49	11.04	-41.0	-43.3	23.7	0.00e+00	0	37	0	0	52	5032
2026-01-22 18:45:26.00	113.07	10.87	-40.8	-43.1	23.8	0.00e+00	0	37	0	0	52	4893
2026-01-22 18:45:27.99	112.66	10.71	-40.5	-42.8	24.1	0.00e+00	0	37	0	0	52	4725
2026-01-22 18:45:29.98	112.26	10.54	-40.7	-43.0	23.9	0.00e+00	0	37	0	0	52	4864
2026-01-22 18:45:31.96	111.87	10.37	-40.9	-43.3	23.7	0.00e+00	0	37	0	0	52	5002
2026-01-22 18:45:33.95	111.47	10.21	-41.1	-43.4	23.6	0.00e+00	0	37	0	0	52	5080
2026-01-22 18:45:35.98	111.08	10.04	-41.3	-43.7	23.2	0.00e+00	0	37	0	0	53	4974
2026-01-22 18:45:37.96	110.70	9.88	-41.6	-44.1	22.9	0.00e+00	0	37	0	0	53	5168
2026-01-22 18:45:39.95	110.33	9.71	-41.7	-44.2	22.8	0.00e+00	0	37	0	0	54	4952
2026-01-22 18:45:41.94	109.96	9.55	-41.6	-44.1	22.9	0.00e+00	0	37	0	0	54	4881
2026-01-22 18:45:43.94	109.60	9.39	-41.6	-44.1	22.8	0.00e+00	0	37	0	0	54	4887
2026-01-22 18:45:45.93	109.24	9.23	-41.8	-44.3	22.7	0.00e+00	0	37	0	0	54	5011
2026-01-22 18:45:47.91	108.89	9.07	-42.0	-44.5	22.5	0.00e+00	0	37	0	0	54	5123
2026-01-22 18:45:49.90	108.55	8.91	-49.8	-68.6	3.8	8.71e-04	0	37	104	0	70	32691
