passes_logs/2026/01/22/T1/T1__20260122_014204_FENGYUN_3D_rec.log

#Pass ID: 20260122_014204_FENGYUN 3D
#Satellite: FENGYUN 3D
#Configuration: FENGYUN 3D
#almurnet v.1.7.20251203
#Start time: 2026-01-22 01:42:03

#Version: 2.0.20230620
#Station: T1
#Location: 37.570604 lon 55.790049 lat
#TLE: 1 43010U 17072A   26021.48744220  .00000253  00000+0  14133-3 0  9991
#TLE: 2 43010  98.9948 353.4037 0002485  97.2578 262.8880 14.19697766424177

#Time	Az	El	Level	Level2	SNR	BER	BlckErr	Temp	State	Recorded	gain1	gain2
2026-01-22 01:42:03.85	17.34	4.97	-49.4	-62.2	3.8	8.46e-01	0	35	0	0	69	16634
2026-01-22 01:42:07.82	17.37	5.25	-49.4	-62.3	3.8	8.47e-01	0	35	104	0	69	16726
2026-01-22 01:42:11.79	17.41	5.54	-49.4	-62.1	3.8	8.47e-01	0	36	104	0	69	16354
2026-01-22 01:42:15.77	17.44	5.83	-49.4	-62.1	3.8	8.47e-01	0	36	104	0	69	16317
2026-01-22 01:42:19.74	17.48	6.12	-49.4	-62.2	3.8	8.47e-01	0	36	104	0	69	16543
2026-01-22 01:42:23.71	17.51	6.42	-49.4	-62.1	3.8	8.46e-01	0	36	104	0	69	16417
2026-01-22 01:42:27.69	17.55	6.72	-49.3	-61.5	3.8	8.47e-01	0	36	104	0	69	15398
2026-01-22 01:42:31.66	17.59	7.02	-49.2	-60.3	3.8	8.47e-01	0	36	104	0	69	13401
2026-01-22 01:42:35.63	17.62	7.33	-49.0	-58.9	4.1	8.41e-01	0	36	0	0	69	11412
2026-01-22 01:42:39.61	17.66	7.64	-48.8	-57.6	4.6	8.19e-01	0	36	0	0	69	9809
2026-01-22 01:42:43.58	17.70	7.95	-48.4	-55.8	5.5	7.07e-01	0	37	0	0	68	8406
2026-01-22 01:42:47.56	17.74	8.27	-47.3	-52.7	8.0	8.98e-02	0	37	0	20971520	66	6638
2026-01-22 01:42:51.53	17.77	8.59	-45.9	-49.8	11.1	2.52e-03	0	37	0	42991616	63	5626
2026-01-22 01:42:55.50	17.81	8.92	-44.7	-47.8	13.2	5.26e-05	0	37	0	66060288	61	5008
2026-01-22 01:42:59.48	17.85	9.25	-44.5	-47.5	13.5	1.90e-04	0	37	0	88080384	60	5113
2026-01-22 01:43:03.46	17.89	9.59	-40.8	-42.9	17.8	0.00e+00	0	37	0	110100480	53	4517
2026-01-22 01:43:07.44	17.93	9.93	-40.6	-42.6	18.1	0.00e+00	0	37	0	132120576	53	4378
2026-01-22 01:43:11.38	17.97	10.27	-40.0	-42.0	18.8	0.00e+00	0	37	0	155189248	51	4552
2026-01-22 01:43:15.35	18.01	10.62	-39.9	-41.9	18.9	0.00e+00	0	37	0	177209344	51	4504
2026-01-22 01:43:19.33	18.06	10.98	-39.8	-41.7	19.1	0.00e+00	0	37	0	199229440	51	4398
2026-01-22 01:43:23.31	18.10	11.34	-39.8	-41.8	19.1	0.00e+00	0	37	0	222298112	51	4443
2026-01-22 01:43:27.31	18.14	11.70	-39.8	-41.7	19.1	0.00e+00	0	37	0	244318208	51	4439
2026-01-22 01:43:31.31	18.19	12.08	-39.9	-41.8	19.1	0.00e+00	0	37	0	267386880	51	4455
2026-01-22 01:43:35.29	18.23	12.46	-39.7	-41.6	19.3	0.00e+00	0	37	0	289406976	51	4349
2026-01-22 01:43:39.43	18.28	12.85	-39.7	-41.6	19.3	0.00e+00	0	38	0	312475648	51	4352
2026-01-22 01:43:43.42	18.33	13.25	-39.4	-41.2	19.6	0.00e+00	0	37	0	334495744	50	4420
2026-01-22 01:43:47.45	18.38	13.65	-39.3	-41.1	19.7	0.00e+00	0	37	0	357564416	50	4385
2026-01-22 01:43:51.51	18.42	14.06	-39.0	-40.8	20.0	0.00e+00	0	37	0	380633088	50	4224
2026-01-22 01:43:55.62	18.48	14.48	-38.8	-40.7	20.1	0.00e+00	0	37	0	403701760	49	4399
2026-01-22 01:43:59.61	18.53	14.90	-38.7	-40.5	20.2	0.00e+00	0	37	0	425721856	49	4327
2026-01-22 01:44:03.85	18.58	15.35	-38.6	-40.4	20.4	0.00e+00	0	38	0	449839104	49	4271
2026-01-22 01:44:08.00	18.63	15.80	-38.4	-40.2	20.6	0.00e+00	0	37	0	472907776	48	4412
2026-01-22 01:44:11.98	18.69	16.24	-38.4	-40.2	20.6	0.00e+00	0	37	0	495976448	48	4416
2026-01-22 01:44:16.32	18.75	16.73	-38.1	-39.9	20.9	0.00e+00	0	38	0	520093696	48	4254
2026-01-22 01:44:20.31	18.80	17.19	-37.9	-39.7	20.8	0.00e+00	0	38	0	542113792	47	4413
2026-01-22 01:44:24.29	18.86	17.66	-37.8	-39.6	20.9	0.00e+00	0	37	0	565182464	47	4368
2026-01-22 01:44:28.28	18.92	18.14	-37.9	-39.6	20.6	0.00e+00	0	38	0	587202560	47	4377
2026-01-22 01:44:32.26	18.98	18.62	-37.7	-39.5	21.0	0.00e+00	0	38	0	610271232	47	4299
2026-01-22 01:44:36.24	19.04	19.12	-37.5	-39.3	21.2	0.00e+00	0	38	0	632291328	47	4216
2026-01-22 01:44:40.22	19.10	19.63	-37.6	-39.3	21.2	0.00e+00	0	38	0	654311424	47	4230
2026-01-22 01:44:44.20	19.16	20.14	-37.5	-39.3	21.2	0.00e+00	0	38	0	677380096	46	4468
2026-01-22 01:44:48.78	19.24	20.75	-37.5	-39.3	21.2	0.00e+00	0	38	0	702545920	46	4443
2026-01-22 01:44:52.76	19.31	21.29	-37.2	-38.9	21.5	0.00e+00	0	38	0	724566016	46	4279
2026-01-22 01:44:56.77	19.38	21.84	-37.0	-38.7	21.7	0.00e+00	0	38	0	747634688	46	4184
2026-01-22 01:45:00.75	19.45	22.41	-36.8	-38.5	21.9	0.00e+00	0	38	0	769654784	45	4310
2026-01-22 01:45:04.84	19.52	23.00	-36.7	-38.4	22.0	0.00e+00	0	38	0	792723456	45	4276
2026-01-22 01:45:09.27	19.61	23.66	-36.7	-38.4	22.0	0.00e+00	0	38	0	817889280	45	4271
2026-01-22 01:45:13.25	19.69	24.27	-36.8	-38.5	21.8	0.00e+00	0	38	0	839909376	45	4324
2026-01-22 01:45:17.23	19.77	24.89	-36.8	-38.5	21.9	0.00e+00	0	38	0	862978048	45	4333
2026-01-22 01:45:21.26	19.85	25.53	-36.7	-38.4	22.0	0.00e+00	0	38	0	884998144	45	4259
2026-01-22 01:45:25.27	19.94	26.19	-36.2	-37.9	22.4	0.00e+00	0	38	0	908066816	44	4264
2026-01-22 01:45:29.28	20.03	26.86	-36.2	-37.8	22.5	0.00e+00	0	38	0	930086912	44	4233
2026-01-22 01:45:33.27	20.12	27.55	-36.3	-37.9	22.4	0.00e+00	0	38	0	953155584	44	4290
2026-01-22 01:45:37.26	20.22	28.25	-36.4	-38.0	22.3	0.00e+00	0	38	0	975175680	44	4335
2026-01-22 01:45:41.22	20.32	28.97	-36.3	-38.0	22.3	0.00e+00	0	38	0	997195776	44	4318
2026-01-22 01:45:45.20	20.42	29.71	-36.5	-38.1	22.2	0.00e+00	0	38	0	1020264448	44	4391
2026-01-22 01:45:49.20	20.53	30.47	-36.4	-38.1	22.2	0.00e+00	0	38	0	1042284544	44	4379
2026-01-22 01:45:53.21	20.64	31.26	-36.5	-38.2	22.2	0.00e+00	0	38	0	1065353216	44	4399
2026-01-22 01:45:57.19	20.76	32.06	-36.3	-38.0	22.4	0.00e+00	0	38	0	1087373312	44	4313
2026-01-22 01:46:01.15	20.88	32.88	-36.2	-37.9	22.5	0.00e+00	0	38	0	1109393408	44	4249
2026-01-22 01:46:05.18	21.01	33.74	-35.6	-37.2	22.8	0.00e+00	0	38	0	1132462080	43	4184
2026-01-22 01:46:09.15	21.14	34.60	-35.4	-37.0	23.0	0.00e+00	0	38	0	1154482176	42	4314
2026-01-22 01:46:13.23	21.29	35.52	-35.8	-37.5	22.6	0.00e+00	0	38	0	1177550848	42	4577
2026-01-22 01:46:17.33	21.44	36.47	-35.8	-37.4	22.7	0.00e+00	0	38	0	1200619520	42	4526
2026-01-22 01:46:21.39	21.60	37.44	-35.5	-37.1	22.9	0.00e+00	0	38	0	1223688192	42	4366
2026-01-22 01:46:25.49	21.77	38.45	-35.8	-37.4	22.7	0.00e+00	0	38	0	1246756864	42	4544
2026-01-22 01:46:29.47	21.94	39.46	-36.1	-37.8	22.4	0.00e+00	0	38	0	1268776960	42	4745
2026-01-22 01:46:33.45	22.13	40.50	-35.9	-37.6	22.6	0.00e+00	0	38	0	1290797056	42	4614
2026-01-22 01:46:37.43	22.32	41.57	-35.7	-37.4	22.8	0.00e+00	0	38	0	1313865728	42	4501
2026-01-22 01:46:41.41	22.53	42.67	-36.0	-37.6	22.6	0.00e+00	0	38	0	1335885824	42	4639
2026-01-22 01:46:45.40	22.76	43.81	-36.3	-37.9	22.4	0.00e+00	0	38	0	1358954496	43	4539
2026-01-22 01:46:49.38	23.00	44.98	-36.3	-38.1	21.7	0.00e+00	0	38	0	1380974592	43	4633
2026-01-22 01:46:53.40	23.25	46.20	-35.9	-37.7	22.0	0.00e+00	0	38	0	1404043264	43	4393
2026-01-22 01:46:57.81	23.56	47.57	-36.3	-38.0	21.9	0.00e+00	0	38	0	1428160512	43	4582
2026-01-22 01:47:01.79	23.86	48.86	-36.1	-37.8	22.1	0.00e+00	0	38	0	1451229184	43	4478
2026-01-22 01:47:05.76	24.19	50.17	-36.3	-38.1	21.9	0.00e+00	0	38	0	1473249280	43	4604
2026-01-22 01:47:09.74	24.54	51.53	-37.1	-38.9	21.3	0.00e+00	0	38	0	1495269376	45	4530
2026-01-22 01:47:13.72	24.93	52.93	-37.4	-39.2	21.0	0.00e+00	0	38	0	1518338048	45	4690
2026-01-22 01:47:17.70	25.35	54.36	-37.4	-39.2	21.1	0.00e+00	0	38	0	1540358144	45	4659
2026-01-22 01:47:21.67	25.82	55.83	-37.6	-39.4	20.9	0.00e+00	0	38	0	1562378240	45	4808
2026-01-22 01:47:25.62	26.33	57.34	-37.4	-39.2	21.0	0.00e+00	0	38	0	1584398336	46	4434
2026-01-22 01:47:30.25	27.02	59.15	-36.3	-38.1	22.0	0.00e+00	0	38	0	1610612736	44	4347
2026-01-22 01:47:34.52	27.73	60.86	-36.1	-37.8	22.2	0.00e+00	0	38	0	1634729984	44	4229
2026-01-22 01:47:38.51	28.49	62.50	-36.2	-37.9	22.1	0.00e+00	0	38	0	1657798656	44	4289
2026-01-22 01:47:42.63	29.40	64.23	-35.3	-37.0	22.7	0.00e+00	0	38	0	1680867328	42	4308
2026-01-22 01:47:46.96	30.50	66.09	-35.3	-37.0	22.6	0.00e+00	0	38	0	1704984576	42	4308
2026-01-22 01:47:50.97	31.71	67.84	-35.2	-36.9	22.6	0.00e+00	0	38	0	1727004672	42	4286
2026-01-22 01:47:55.03	33.17	69.64	-35.0	-36.7	22.8	0.00e+00	0	38	0	1750073344	41	4413
2026-01-22 01:47:59.47	35.11	71.64	-35.0	-36.7	22.8	0.00e+00	0	38	0	1775239168	41	4437
2026-01-22 01:48:03.51	37.31	73.46	-34.6	-36.3	23.0	0.00e+00	0	38	0	1798307840	40	4489
2026-01-22 01:48:07.50	40.04	75.26	-34.2	-35.9	23.3	0.00e+00	0	38	0	1820327936	40	4244
2026-01-22 01:48:11.49	43.56	77.04	-33.9	-35.6	23.6	0.00e+00	0	38	0	1843396608	39	4365
2026-01-22 01:48:15.50	48.24	78.80	-33.4	-35.0	23.9	0.00e+00	0	38	0	1865416704	38	4327
2026-01-22 01:48:19.78	55.16	80.57	-32.9	-34.6	24.1	0.00e+00	0	38	0	1889533952	37	4361
2026-01-22 01:48:23.80	64.41	82.08	-33.2	-34.9	23.9	0.00e+00	0	38	0	1912602624	37	4516
2026-01-22 01:48:27.80	77.44	83.29	-33.0	-34.7	24.0	0.00e+00	0	38	0	1934622720	37	4413
2026-01-22 01:48:31.86	95.20	84.04	-33.4	-35.0	23.8	0.00e+00	0	38	0	1957691392	38	4334
2026-01-22 01:48:36.50	118.40	84.06	-33.5	-35.1	23.7	0.00e+00	0	38	0	1983905792	38	4385
2026-01-22 01:48:41.05	138.20	83.21	-32.9	-34.5	24.2	0.00e+00	0	38	0	2009071616	37	4328
2026-01-22 01:48:45.60	152.33	81.77	-33.0	-34.7	24.0	0.00e+00	0	38	0	2035286016	37	4417
2026-01-22 01:48:50.30	162.09	79.94	-33.0	-34.6	24.1	0.00e+00	0	38	0	2061500416	37	4374
2026-01-22 01:48:54.47	168.06	78.17	-34.0	-35.7	23.4	0.00e+00	0	38	0	2084569088	38	4654
2026-01-22 01:48:58.40	172.21	76.43	-33.8	-35.5	23.6	0.00e+00	0	38	0	2106589184	39	4309
2026-01-22 01:49:02.39	175.43	74.64	-34.3	-35.9	23.3	0.00e+00	0	38	0	2129657856	40	4281
2026-01-22 01:49:06.51	178.02	72.77	-34.5	-36.2	23.1	0.00e+00	0	38	0	2152726528	40	4403
2026-01-22 01:49:10.78	180.16	70.85	-34.6	-36.3	23.1	0.00e+00	0	38	0	2176843776	40	4466
2026-01-22 01:49:14.82	181.80	69.04	-34.7	-36.4	23.0	0.00e+00	0	38	0	2198863872	40	4515
2026-01-22 01:49:18.85	183.16	67.25	-35.1	-36.8	22.7	0.00e+00	0	38	0	2221932544	40	4756
2026-01-22 01:49:23.16	184.39	65.38	-35.5	-37.2	22.4	0.00e+00	0	38	0	2246049792	41	4704
2026-01-22 01:49:27.47	185.43	63.54	-35.3	-37.0	22.7	0.00e+00	0	38	0	2270167040	41	4583
2026-01-22 01:49:32.10	186.38	61.60	-35.7	-37.5	22.3	0.00e+00	0	38	0	2296381440	42	4558
2026-01-22 01:49:36.64	187.18	59.76	-35.6	-37.3	22.5	0.00e+00	0	38	0	2321547264	42	4452
2026-01-22 01:49:40.75	187.82	58.13	-36.0	-37.7	22.1	0.00e+00	0	38	0	2344615936	42	4705
2026-01-22 01:49:44.71	188.37	56.59	-36.8	-38.6	21.5	0.00e+00	0	38	0	2367684608	44	4638
2026-01-22 01:49:48.69	188.86	55.09	-37.4	-39.3	21.0	0.00e+00	0	38	0	2389704704	45	4714
2026-01-22 01:49:52.68	189.31	53.63	-37.0	-38.8	21.4	0.00e+00	0	38	0	2411724800	45	4461
2026-01-22 01:49:56.75	189.72	52.17	-37.2	-39.0	21.2	0.00e+00	0	38	0	2434793472	45	4586
2026-01-22 01:50:00.87	190.11	50.74	-36.8	-38.6	21.6	0.00e+00	0	38	0	2457862144	45	4347
2026-01-22 01:50:04.85	190.44	49.40	-36.1	-37.8	22.2	0.00e+00	0	38	0	2480930816	44	4207
2026-01-22 01:50:08.82	190.75	48.10	-36.1	-37.8	22.1	0.00e+00	0	38	0	2502950912	44	4230
2026-01-22 01:50:12.84	191.04	46.82	-35.5	-37.2	22.5	0.00e+00	0	38	0	2526019584	43	4167
2026-01-22 01:50:16.82	191.31	45.59	-35.6	-37.3	22.4	0.00e+00	0	38	0	2548039680	42	4492
2026-01-22 01:50:20.80	191.56	44.40	-35.8	-37.6	22.1	0.00e+00	0	38	0	2570059776	42	4599
2026-01-22 01:50:24.78	191.79	43.24	-35.6	-37.3	22.2	0.00e+00	0	38	0	2592079872	42	4484
2026-01-22 01:50:28.86	192.01	42.08	-35.8	-37.6	22.1	0.00e+00	0	38	0	2615148544	42	4616
2026-01-22 01:50:32.91	192.21	40.97	-35.6	-37.3	22.2	0.00e+00	0	38	0	2638217216	42	4476
2026-01-22 01:50:36.88	192.40	39.92	-35.2	-36.9	22.6	0.00e+00	0	38	0	2661285888	42	4271
2026-01-22 01:50:40.86	192.58	38.89	-35.5	-37.3	22.3	0.00e+00	0	38	0	2683305984	42	4444
2026-01-22 01:50:44.84	192.75	37.89	-35.4	-37.1	22.4	0.00e+00	0	38	0	2705326080	42	4360
2026-01-22 01:50:48.82	192.91	36.92	-35.2	-36.9	22.6	0.00e+00	0	38	0	2727346176	42	4246
2026-01-22 01:50:52.80	193.06	35.98	-35.5	-37.3	22.2	0.00e+00	0	38	0	2750414848	42	4469
2026-01-22 01:50:56.78	193.21	35.06	-35.3	-37.0	22.4	0.00e+00	0	38	0	2772434944	42	4309
2026-01-22 01:51:00.80	193.34	34.16	-35.4	-37.2	22.3	0.00e+00	0	38	0	2795503616	42	4403
2026-01-22 01:51:04.81	193.47	33.29	-35.8	-37.6	22.0	0.00e+00	0	38	0	2817523712	42	4625
2026-01-22 01:51:08.80	193.60	32.45	-36.0	-37.8	21.8	0.00e+00	0	38	0	2840592384	42	4721
2026-01-22 01:51:12.80	193.72	31.62	-36.1	-37.9	21.8	0.00e+00	0	38	0	2862612480	42	4770
2026-01-22 01:51:16.86	193.83	30.81	-35.9	-37.7	21.9	0.00e+00	0	38	0	2885681152	42	4664
2026-01-22 01:51:21.13	193.95	29.98	-35.8	-37.5	22.0	0.00e+00	0	38	0	2909798400	42	4577
2026-01-22 01:51:25.15	194.05	29.22	-35.9	-37.7	21.9	0.00e+00	0	38	0	2931818496	42	4652
2026-01-22 01:51:29.13	194.15	28.49	-36.0	-37.7	21.9	0.00e+00	0	38	0	2954887168	42	4698
2026-01-22 01:51:33.35	194.25	27.73	-35.8	-37.6	22.0	0.00e+00	0	38	0	2977955840	42	4612
2026-01-22 01:51:37.45	194.35	27.02	-35.8	-37.5	22.0	0.00e+00	0	38	0	3001024512	42	4568
2026-01-22 01:51:41.43	194.44	26.34	-35.9	-37.6	21.9	0.00e+00	0	38	0	3024093184	42	4648
2026-01-22 01:51:45.41	194.52	25.68	-36.0	-37.8	21.8	0.00e+00	0	38	0	3046113280	42	4724
2026-01-22 01:51:49.38	194.60	25.03	-36.2	-38.0	21.6	0.00e+00	0	38	0	3068133376	43	4557
2026-01-22 01:51:53.57	194.69	24.37	-36.3	-38.0	21.6	0.00e+00	0	38	0	3092250624	43	4592
2026-01-22 01:51:57.76	194.77	23.73	-36.5	-38.3	21.4	0.00e+00	0	38	0	3115319296	43	4710
2026-01-22 01:52:01.74	194.84	23.13	-36.4	-38.2	21.5	0.00e+00	0	38	0	3138387968	43	4678
2026-01-22 01:52:05.74	194.92	22.54	-36.6	-38.4	21.3	0.00e+00	0	38	0	3160408064	43	4773
2026-01-22 01:52:09.70	194.99	21.97	-36.8	-38.6	21.2	0.00e+00	0	38	0	3182428160	44	4643
2026-01-22 01:52:13.83	195.06	21.39	-37.0	-38.8	21.1	0.00e+00	0	38	0	3205496832	44	4735
2026-01-22 01:52:17.82	195.12	20.84	-37.1	-38.9	21.0	0.00e+00	0	38	0	3228565504	44	4800
2026-01-22 01:52:21.79	195.18	20.31	-37.1	-38.9	21.1	0.00e+00	0	38	0	3250585600	44	4771
2026-01-22 01:52:25.74	195.25	19.78	-37.1	-38.9	21.0	0.00e+00	0	38	0	3273654272	44	4808
2026-01-22 01:52:29.80	195.31	19.26	-37.2	-39.0	20.9	0.00e+00	0	38	0	3295674368	45	4593
2026-01-22 01:52:33.80	195.37	18.76	-37.3	-39.1	20.8	0.00e+00	0	38	0	3318743040	45	4632
2026-01-22 01:52:37.89	195.43	18.25	-37.5	-39.4	20.6	0.00e+00	0	38	0	3341811712	45	4771
2026-01-22 01:52:41.92	195.48	17.76	-37.5	-39.4	20.7	0.00e+00	0	38	0	3363831808	45	4772
2026-01-22 01:52:45.90	195.54	17.29	-37.7	-39.6	20.4	0.00e+00	0	38	0	3386900480	46	4626
2026-01-22 01:52:49.88	195.59	16.82	-37.9	-39.8	20.3	0.00e+00	0	38	0	3408920576	46	4726
2026-01-22 01:52:53.86	195.64	16.37	-38.0	-39.9	20.2	0.00e+00	0	38	0	3430940672	46	4811
2026-01-22 01:52:57.84	195.69	15.92	-38.2	-40.1	20.0	0.00e+00	0	38	0	3454009344	46	4904
2026-01-22 01:53:01.83	195.74	15.48	-38.2	-40.2	20.0	0.00e+00	0	38	0	3476029440	47	4663
2026-01-22 01:53:05.81	195.79	15.05	-38.4	-40.4	19.8	0.00e+00	0	39	0	3498049536	47	4774
2026-01-22 01:53:09.79	195.84	14.62	-38.4	-40.4	19.8	0.00e+00	0	38	0	3521118208	47	4768
2026-01-22 01:53:13.82	195.88	14.20	-38.6	-40.5	19.7	0.00e+00	0	38	0	3543138304	47	4839
2026-01-22 01:53:17.86	195.93	13.79	-38.7	-40.6	19.7	0.00e+00	0	38	0	3566206976	48	4635
2026-01-22 01:53:21.95	195.98	13.37	-38.8	-40.7	19.7	0.00e+00	0	38	0	3589275648	48	4685
2026-01-22 01:53:26.21	196.02	12.95	-38.9	-40.8	19.6	0.00e+00	0	38	0	3613392896	48	4751
2026-01-22 01:53:30.19	196.07	12.56	-39.1	-41.0	19.4	0.00e+00	0	38	0	3635412992	48	4846
2026-01-22 01:53:34.17	196.11	12.18	-39.1	-41.0	19.4	0.00e+00	0	38	0	3657433088	49	4597
2026-01-22 01:53:38.15	196.15	11.80	-39.1	-41.1	19.3	0.00e+00	0	38	0	3680501760	49	4616
2026-01-22 01:53:42.13	196.19	11.43	-39.4	-41.4	19.0	0.00e+00	0	38	0	3702521856	49	4792
2026-01-22 01:53:46.11	196.23	11.06	-39.3	-41.3	19.2	0.00e+00	0	38	0	3725590528	49	4719
2026-01-22 01:53:50.09	196.27	10.70	-39.4	-41.4	19.0	0.00e+00	0	38	0	3747610624	49	4795
2026-01-22 01:53:54.05	196.30	10.35	-39.4	-41.4	19.0	0.00e+00	0	38	0	3769630720	49	4782
2026-01-22 01:53:58.12	196.34	9.99	-39.7	-41.7	18.8	0.00e+00	0	38	0	3792699392	50	4666
2026-01-22 01:54:02.10	196.38	9.64	-39.7	-41.7	18.8	0.00e+00	0	38	0	3814719488	50	4666
2026-01-22 01:54:06.54	196.42	9.26	-40.0	-42.0	18.4	0.00e+00	0	38	0	3839885312	50	4864
2026-01-22 01:54:10.52	196.46	8.93	-49.3	-59.7	3.8	8.39e-01	0	38	104	3858759680	69	12426
2026-01-22 01:54:14.54	196.49	8.60	-50.5	-62.8	3.8	8.47e-01	0	38	104	3858759680	71	15845
2026-01-22 01:54:18.64	196.53	8.26	-50.6	-62.9	3.8	8.47e-01	0	38	104	3858759680	72	15160
2026-01-22 01:54:22.77	196.56	7.92	-50.8	-62.9	3.8	8.47e-01	0	38	104	3858759680	72	15151
2026-01-22 01:54:26.86	196.60	7.60	-50.8	-62.9	3.8	8.47e-01	0	38	104	3858759680	72	15064
2026-01-22 01:54:30.83	196.63	7.28	-50.8	-62.9	3.8	8.47e-01	0	38	104	3858759680	72	15117
2026-01-22 01:54:34.80	196.66	6.98	-50.4	-62.8	3.8	8.47e-01	0	38	104	3858759680	72	15030
2026-01-22 01:54:38.78	196.69	6.67	-50.4	-62.8	3.8	8.47e-01	0	38	104	3858759680	72	15026
2026-01-22 01:54:42.75	196.73	6.37	-50.4	-62.8	3.8	8.47e-01	0	38	104	3858759680	72	15015
2026-01-22 01:54:46.74	196.76	6.07	-50.4	-62.8	3.8	8.46e-01	0	38	104	3858759680	72	15006
2026-01-22 01:54:50.73	196.79	5.77	-50.4	-62.8	3.8	8.47e-01	0	38	104	3858759680	72	14955
2026-01-22 01:54:54.73	196.82	5.48	-50.4	-62.8	3.8	8.48e-01	0	38	104	3858759680	72	15044
2026-01-22 01:54:58.73	196.85	5.19	-50.4	-62.9	3.8	8.48e-01	0	38	104	3858759680	72	15064

#Closed at: 2026-01-22 01:55:02
#Recorded file [3858 MB]: D:/Data/31040_260122_044203.dat