passes_logs/2026/01/22/T1/T1__20260122_022523_SUOMI_NPP_rec.log

#Pass ID: 20260122_022523_SUOMI NPP
#Satellite: SUOMI NPP
#Configuration: NPP
#almurnet v.1.7.20251203
#Start time: 2026-01-22 02:25:23

#Version: 2.0.20230620
#Station: T1
#Location: 37.570604 lon 55.790049 lat
#TLE: 1 37849U 11061A   26021.51818991  .00000201  00000+0  11636-3 0  9995
#TLE: 2 37849  98.7819 323.5108 0002300  52.3548 307.7836 14.19527793737637

#Time	Az	El	Level	Level2	SNR	BER	BlckErr	Temp	State	Recorded	gain1	gain2
2026-01-22 02:25:23.18	0.67	5.01	-45.8	-65.4	3.8	1.49e+00	0	35	0	0	62	35991
2026-01-22 02:25:25.16	0.44	5.09	-45.8	-65.4	3.8	1.49e+00	0	35	104	0	62	36092
2026-01-22 02:25:27.14	0.20	5.18	-45.8	-65.4	3.8	1.49e+00	0	35	104	0	62	35949
2026-01-22 02:25:29.13	359.96	5.27	-45.8	-65.4	3.8	1.49e+00	0	35	104	0	62	35950
2026-01-22 02:25:31.12	359.72	5.36	-45.8	-65.4	3.8	1.49e+00	0	36	104	0	62	36000
2026-01-22 02:25:33.10	359.48	5.44	-45.8	-65.4	3.8	1.49e+00	0	36	104	0	62	36002
2026-01-22 02:25:35.09	359.24	5.53	-45.8	-65.4	3.8	1.49e+00	0	36	104	0	62	35975
2026-01-22 02:25:37.07	359.00	5.62	-45.8	-65.4	3.8	1.49e+00	0	36	104	0	62	35984
2026-01-22 02:25:39.06	358.75	5.70	-45.8	-65.4	3.8	1.49e+00	0	36	104	0	62	36001
2026-01-22 02:25:41.05	358.50	5.79	-45.8	-65.4	3.8	1.49e+00	0	36	104	0	62	36061
2026-01-22 02:25:43.03	358.25	5.87	-45.8	-65.4	3.8	1.49e+00	0	36	104	0	62	36011
2026-01-22 02:25:45.02	358.00	5.96	-45.8	-65.4	3.8	1.49e+00	0	36	104	0	62	36007
2026-01-22 02:25:47.01	357.75	6.05	-45.8	-65.4	3.8	1.49e+00	0	36	104	0	62	35993
2026-01-22 02:25:48.99	357.50	6.13	-45.8	-65.4	3.8	1.49e+00	0	36	104	0	62	36010
2026-01-22 02:25:50.98	357.24	6.22	-45.8	-65.4	3.8	1.49e+00	0	36	104	0	62	36065
2026-01-22 02:25:52.97	356.98	6.30	-45.8	-65.4	3.8	1.49e+00	0	36	104	0	62	35847
2026-01-22 02:25:54.95	356.73	6.38	-45.8	-65.4	3.8	1.49e+00	0	36	104	0	62	35978
2026-01-22 02:25:56.94	356.47	6.47	-45.8	-65.5	3.8	1.49e+00	0	36	104	0	62	36127
2026-01-22 02:25:58.93	356.20	6.55	-45.8	-65.4	3.8	1.49e+00	0	36	104	0	62	35967
2026-01-22 02:26:00.91	355.94	6.64	-45.8	-65.4	3.8	1.49e+00	0	36	104	0	62	35809
2026-01-22 02:26:02.90	355.68	6.72	-45.8	-65.4	3.8	1.49e+00	0	37	104	0	62	35797
2026-01-22 02:26:04.89	355.41	6.80	-45.8	-65.4	3.8	1.49e+00	0	36	104	0	62	35859
2026-01-22 02:26:06.87	355.14	6.88	-45.8	-65.4	3.8	1.49e+00	0	37	104	0	62	35861
2026-01-22 02:26:08.86	354.87	6.97	-45.8	-65.4	3.8	1.49e+00	0	37	104	0	62	35770
2026-01-22 02:26:10.85	354.60	7.05	-45.8	-65.3	3.8	1.49e+00	0	37	104	0	62	35663
2026-01-22 02:26:12.83	354.33	7.13	-45.8	-65.4	3.8	1.49e+00	0	37	104	0	62	35714
2026-01-22 02:26:14.82	354.06	7.21	-45.8	-65.4	3.8	1.49e+00	0	37	104	0	62	35860
2026-01-22 02:26:16.81	353.78	7.29	-45.8	-65.4	3.8	1.49e+00	0	37	104	0	62	35943
2026-01-22 02:26:18.80	353.50	7.37	-45.8	-65.4	3.8	1.49e+00	0	37	104	0	62	35850
2026-01-22 02:26:20.78	353.23	7.45	-45.8	-65.4	3.8	1.49e+00	0	37	104	0	62	35849
2026-01-22 02:26:22.77	352.95	7.53	-45.8	-65.4	3.8	1.49e+00	0	37	104	0	62	36016
2026-01-22 02:26:24.76	352.66	7.61	-45.8	-65.4	3.8	1.49e+00	0	37	104	0	62	35958
2026-01-22 02:26:26.74	352.38	7.69	-45.8	-65.4	3.8	1.49e+00	0	37	104	0	62	35793
2026-01-22 02:26:28.73	352.10	7.77	-45.8	-65.4	3.8	1.49e+00	0	37	104	0	62	35949
2026-01-22 02:26:30.72	351.81	7.85	-45.8	-65.3	3.8	1.49e+00	0	37	104	0	62	35652
2026-01-22 02:26:32.70	351.52	7.92	-45.8	-65.2	3.8	1.49e+00	0	37	104	0	62	35086
2026-01-22 02:26:34.69	351.23	8.00	-45.7	-65.1	3.8	1.49e+00	0	37	104	0	62	34771
2026-01-22 02:26:36.68	350.94	8.08	-45.8	-65.3	3.8	1.49e+00	0	37	104	0	62	35309
2026-01-22 02:26:38.66	350.65	8.15	-45.8	-65.4	3.8	1.49e+00	0	37	104	0	62	35711
2026-01-22 02:26:40.65	350.36	8.23	-45.8	-65.3	3.8	1.49e+00	0	37	104	0	62	35555
2026-01-22 02:26:42.64	350.06	8.31	-45.8	-65.2	3.8	1.49e+00	0	37	104	0	62	35271
2026-01-22 02:26:44.62	349.76	8.38	-45.8	-65.3	3.8	1.49e+00	0	37	104	0	62	35490
2026-01-22 02:26:46.61	349.46	8.45	-45.8	-65.2	3.8	1.49e+00	0	37	104	0	62	35004
2026-01-22 02:26:48.60	349.16	8.53	-45.7	-64.3	3.8	1.49e+00	0	37	104	0	62	31484
2026-01-22 02:26:50.59	348.86	8.60	-45.7	-63.4	3.8	1.49e+00	0	37	104	0	62	28358
2026-01-22 02:26:52.57	348.56	8.67	-45.7	-62.7	3.9	1.48e+00	0	37	104	0	62	26388
2026-01-22 02:26:54.56	348.25	8.75	-45.7	-61.9	4.2	1.41e+00	0	37	0	0	62	23855
2026-01-22 02:26:56.54	347.95	8.82	-45.6	-60.8	4.5	1.26e+00	0	37	0	1048576	62	21087
2026-01-22 02:26:58.53	347.64	8.89	-45.5	-57.6	6.5	3.42e-01	0	37	0	5242880	62	14648
2026-01-22 02:27:00.51	347.33	8.96	-44.7	-52.7	11.2	1.34e-02	0	37	0	8388608	61	8825
2026-01-22 02:27:02.50	347.02	9.03	-43.9	-49.5	14.4	0.00e+00	0	37	0	12582912	59	6842
2026-01-22 02:27:04.49	346.70	9.10	-44.3	-50.9	13.0	9.51e-02	0	37	0	15728640	60	7629
2026-01-22 02:27:06.48	346.39	9.17	-45.9	-57.1	6.9	8.55e-01	0	37	0	19922944	63	13045
2026-01-22 02:27:08.47	346.07	9.23	-45.2	-53.4	10.5	4.49e-03	0	37	0	23068672	62	9034
2026-01-22 02:27:10.46	345.76	9.30	-44.6	-51.2	12.8	3.30e-04	0	37	0	27262976	61	7413
2026-01-22 02:27:12.45	345.44	9.37	-43.7	-48.6	15.3	0.00e+00	0	38	0	31457280	59	6159
2026-01-22 02:27:14.44	345.12	9.43	-43.3	-47.5	16.4	7.00e-07	0	38	0	34603008	58	5731
2026-01-22 02:27:16.43	344.79	9.50	-43.5	-47.3	16.5	0.00e+00	0	37	0	38797312	58	5656
2026-01-22 02:27:18.36	344.48	9.56	-43.2	-47.1	16.8	0.00e+00	0	37	0	41943040	58	5485
2026-01-22 02:27:20.41	344.14	9.63	-42.9	-46.9	16.9	0.00e+00	0	38	0	46137344	57	5704
2026-01-22 02:27:22.40	343.82	9.69	-42.9	-47.1	16.8	0.00e+00	0	37	0	49283072	57	5799
2026-01-22 02:27:24.40	343.49	9.75	-43.1	-47.2	16.6	0.00e+00	0	37	0	53477376	57	5918
2026-01-22 02:27:26.43	343.15	9.82	-43.5	-47.4	16.5	0.00e+00	0	37	0	57671680	57	6035
2026-01-22 02:27:28.57	342.80	9.88	-43.6	-47.3	16.6	0.00e+00	0	37	0	60817408	57	5970
2026-01-22 02:27:30.56	342.46	9.94	-43.4	-47.0	16.9	0.00e+00	0	37	0	65011712	57	5740
2026-01-22 02:27:32.56	342.13	10.00	-43.5	-47.1	16.8	0.00e+00	0	37	0	68157440	57	5799
2026-01-22 02:27:34.55	341.79	10.06	-43.9	-47.5	16.4	0.00e+00	0	37	0	72351744	58	5781
2026-01-22 02:27:36.54	341.46	10.12	-44.4	-48.1	15.8	0.00e+00	0	38	0	76546048	59	5840
2026-01-22 02:27:38.54	341.12	10.17	-44.7	-48.5	15.5	0.00e+00	0	37	0	79691776	60	5727
2026-01-22 02:27:40.52	340.78	10.23	-44.5	-48.0	15.9	0.00e+00	0	38	0	83886080	60	5447
2026-01-22 02:27:42.51	340.44	10.28	-44.2	-47.6	16.3	0.00e+00	0	38	0	87031808	60	5216
2026-01-22 02:27:44.69	340.06	10.34	-44.4	-47.8	16.2	0.00e+00	0	37	0	91226112	60	5283
2026-01-22 02:27:46.69	339.72	10.40	-44.9	-48.4	15.6	0.00e+00	0	38	0	95420416	60	5695
2026-01-22 02:27:48.68	339.37	10.45	-45.0	-48.6	15.4	0.00e+00	0	38	0	98566144	60	5818
2026-01-22 02:27:50.67	339.03	10.50	-44.7	-48.4	15.6	0.00e+00	0	38	0	102760448	60	5717
2026-01-22 02:27:52.66	338.68	10.55	-44.3	-48.1	15.9	0.00e+00	0	37	0	105906176	60	5485
2026-01-22 02:27:54.65	338.33	10.60	-44.1	-47.6	16.4	0.00e+00	0	38	0	110100480	60	5203
2026-01-22 02:27:56.64	337.98	10.65	-44.2	-47.5	16.5	0.00e+00	0	38	0	114294784	60	5112
2026-01-22 02:27:58.63	337.63	10.70	-43.9	-47.1	16.7	0.00e+00	0	38	0	117440512	59	5218
2026-01-22 02:28:00.70	337.27	10.75	-43.5	-46.6	17.3	0.00e+00	0	38	0	121634816	58	5195
2026-01-22 02:28:02.69	336.91	10.79	-43.3	-46.4	17.4	0.00e+00	0	38	0	124780544	58	5099
2026-01-22 02:28:04.71	336.56	10.84	-43.4	-46.6	17.3	0.00e+00	0	38	0	128974848	58	5196
2026-01-22 02:28:06.92	336.16	10.89	-43.6	-46.7	17.1	0.00e+00	0	38	0	133169152	58	5275
2026-01-22 02:28:08.97	335.79	10.93	-43.7	-46.8	17.1	0.00e+00	0	38	0	137363456	58	5303
2026-01-22 02:28:11.02	335.43	10.97	-43.7	-46.6	17.2	0.00e+00	0	38	0	140509184	58	5209
2026-01-22 02:28:13.03	335.06	11.01	-43.9	-46.8	17.1	0.00e+00	0	38	0	144703488	58	5292
2026-01-22 02:28:15.05	334.70	11.05	-44.3	-47.3	16.6	0.00e+00	0	38	0	147849216	59	5319
2026-01-22 02:28:17.07	334.33	11.09	-44.7	-48.0	16.1	0.00e+00	0	38	0	152043520	60	5411
2026-01-22 02:28:19.25	333.94	11.13	-44.9	-48.2	15.8	0.00e+00	0	37	0	156237824	60	5582
2026-01-22 02:28:21.25	333.57	11.17	-44.8	-48.1	15.9	0.00e+00	0	38	0	160432128	60	5526
2026-01-22 02:28:23.25	333.21	11.21	-44.7	-48.0	16.0	0.00e+00	0	38	0	163577856	60	5423
2026-01-22 02:28:25.24	332.84	11.24	-44.6	-47.9	16.1	0.00e+00	0	38	0	167772160	60	5379
2026-01-22 02:28:27.25	332.47	11.27	-44.8	-48.2	15.8	0.00e+00	0	38	0	170917888	60	5543
2026-01-22 02:28:29.25	332.11	11.31	-45.0	-48.4	15.7	0.00e+00	0	38	0	175112192	60	5687
2026-01-22 02:28:31.25	331.74	11.34	-45.1	-48.5	15.5	0.00e+00	0	38	0	178257920	60	5783
2026-01-22 02:28:33.25	331.37	11.37	-45.0	-48.4	15.7	0.00e+00	0	38	0	182452224	60	5685
2026-01-22 02:28:35.26	331.00	11.40	-44.7	-47.8	16.2	0.00e+00	0	38	0	186646528	60	5310
2026-01-22 02:28:37.25	330.63	11.43	-44.4	-47.4	16.6	0.00e+00	0	37	0	189792256	60	5096
2026-01-22 02:28:39.37	330.23	11.45	-44.5	-47.5	16.4	0.00e+00	0	37	0	193986560	60	5151
2026-01-22 02:28:41.42	329.85	11.48	-44.6	-47.8	16.2	0.00e+00	0	38	0	198180864	60	5323
2026-01-22 02:28:43.41	329.48	11.50	-44.7	-47.9	16.1	0.00e+00	0	38	0	201326592	60	5380
2026-01-22 02:28:45.41	329.11	11.53	-44.5	-47.5	16.5	0.00e+00	0	38	0	205520896	60	5142
2026-01-22 02:28:47.40	328.73	11.55	-44.4	-47.4	16.6	0.00e+00	0	38	0	208666624	60	5084
2026-01-22 02:28:49.39	328.36	11.57	-44.3	-47.4	16.6	0.00e+00	0	38	0	212860928	60	5073
2026-01-22 02:28:51.51	327.96	11.59	-44.5	-47.6	16.4	0.00e+00	0	38	0	217055232	60	5200
2026-01-22 02:28:53.69	327.55	11.61	-44.4	-47.5	16.5	0.00e+00	0	38	0	221249536	60	5150
2026-01-22 02:28:55.68	327.18	11.63	-44.4	-47.7	16.3	0.00e+00	0	38	0	224395264	60	5236
2026-01-22 02:28:57.79	326.78	11.64	-43.9	-47.0	16.9	0.00e+00	0	38	0	228589568	59	5154
2026-01-22 02:28:59.95	326.37	11.66	-43.7	-46.8	17.1	0.00e+00	0	38	0	232783872	59	5030
2026-01-22 02:29:01.97	325.99	11.67	-43.8	-47.0	16.9	0.00e+00	0	38	0	235929600	59	5148
2026-01-22 02:29:03.96	325.62	11.68	-43.9	-47.1	16.8	0.00e+00	0	38	0	240123904	59	5199
2026-01-22 02:29:05.96	325.24	11.70	-44.1	-47.5	16.5	0.00e+00	0	38	0	244318208	59	5446
2026-01-22 02:29:07.96	324.86	11.71	-44.1	-47.5	16.4	0.00e+00	0	38	0	247463936	59	5441
2026-01-22 02:29:09.96	324.48	11.71	-43.9	-47.1	16.9	0.00e+00	0	38	0	251658240	59	5161
2026-01-22 02:29:12.08	324.08	11.72	-43.6	-46.7	17.2	0.00e+00	0	38	0	255852544	59	4955
2026-01-22 02:29:14.21	323.67	11.73	-43.4	-46.4	17.5	0.00e+00	0	38	0	258998272	58	5071
2026-01-22 02:29:16.20	323.30	11.73	-43.5	-46.3	17.5	0.00e+00	0	38	0	263192576	58	5036
2026-01-22 02:29:18.21	322.92	11.74	-43.6	-46.3	17.5	0.00e+00	0	38	0	266338304	58	5017
2026-01-22 02:29:20.20	322.54	11.74	-43.7	-46.4	17.5	0.00e+00	0	38	0	270532608	58	5045
2026-01-22 02:29:22.20	322.16	11.74	-43.8	-46.6	17.3	0.00e+00	0	38	0	274726912	58	5208
2026-01-22 02:29:24.21	321.78	11.74	-44.0	-47.1	16.9	0.00e+00	0	38	0	277872640	58	5473
2026-01-22 02:29:26.20	321.40	11.74	-44.2	-47.2	16.7	0.00e+00	0	38	0	282066944	59	5276
2026-01-22 02:29:28.19	321.02	11.74	-44.1	-47.1	16.9	0.00e+00	0	38	0	285212672	59	5164
2026-01-22 02:29:30.33	320.61	11.73	-43.9	-46.8	17.1	0.00e+00	0	38	0	289406976	59	5012
2026-01-22 02:29:32.67	320.17	11.72	-43.8	-46.8	17.1	0.00e+00	0	38	0	293601280	59	5018
2026-01-22 02:29:34.70	319.79	11.72	-43.9	-46.9	17.0	0.00e+00	0	38	0	297795584	59	5085
2026-01-22 02:29:36.70	319.41	11.71	-44.0	-47.1	16.8	0.00e+00	0	37	0	300941312	59	5199
2026-01-22 02:29:38.69	319.03	11.70	-44.3	-47.5	16.4	0.00e+00	0	38	0	305135616	59	5448
2026-01-22 02:29:40.67	318.65	11.69	-44.4	-47.5	16.4	0.00e+00	0	37	0	309329920	59	5442
2026-01-22 02:29:42.74	318.26	11.68	-44.3	-47.2	16.7	0.00e+00	0	38	0	312475648	59	5267
2026-01-22 02:29:44.73	317.89	11.67	-44.2	-47.2	16.8	0.00e+00	0	38	0	316669952	59	5228
2026-01-22 02:29:46.81	317.49	11.65	-44.3	-47.3	16.6	0.00e+00	0	38	0	320864256	59	5319
2026-01-22 02:29:48.80	317.12	11.64	-44.6	-47.7	16.2	0.00e+00	0	38	0	324009984	59	5560
2026-01-22 02:29:50.79	316.74	11.62	-44.6	-47.8	16.2	0.00e+00	0	38	0	328204288	60	5318
2026-01-22 02:29:52.78	316.37	11.60	-44.4	-47.6	16.3	0.00e+00	0	38	0	331350016	60	5207
2026-01-22 02:29:54.78	315.99	11.58	-44.3	-47.4	16.6	0.00e+00	0	38	0	335544320	60	5058
2026-01-22 02:29:56.96	315.58	11.56	-44.1	-47.0	16.9	0.00e+00	0	38	0	339738624	60	4858
2026-01-22 02:29:58.92	315.22	11.54	-44.1	-47.0	16.9	0.00e+00	0	38	0	342884352	59	5129
2026-01-22 02:30:00.90	314.85	11.52	-44.4	-47.4	16.5	0.00e+00	0	38	0	347078656	59	5358
2026-01-22 02:30:02.89	314.47	11.50	-44.6	-47.8	16.2	0.00e+00	0	38	0	350224384	60	5286
2026-01-22 02:30:04.98	314.08	11.47	-44.6	-47.8	16.1	0.00e+00	0	38	0	354418688	60	5321
2026-01-22 02:30:06.97	313.71	11.45	-44.6	-47.8	16.1	0.00e+00	0	38	0	358612992	60	5337
2026-01-22 02:30:08.95	313.34	11.42	-44.6	-47.8	16.2	0.00e+00	0	38	0	361758720	60	5322
2026-01-22 02:30:10.99	312.97	11.39	-44.7	-47.9	16.0	0.00e+00	0	38	0	365953024	60	5357
2026-01-22 02:30:13.02	312.59	11.36	-44.9	-48.1	16.0	0.00e+00	0	38	0	369098752	60	5468
2026-01-22 02:30:15.01	312.22	11.33	-44.6	-47.8	16.2	0.00e+00	0	38	0	373293056	60	5302
2026-01-22 02:30:17.01	311.85	11.30	-44.7	-47.9	16.1	0.00e+00	0	38	0	377487360	60	5402
2026-01-22 02:30:19.00	311.49	11.27	-44.6	-47.8	16.2	0.00e+00	0	38	0	380633088	60	5307
2026-01-22 02:30:20.99	311.12	11.23	-44.5	-47.5	16.5	0.00e+00	0	38	0	384827392	60	5134
2026-01-22 02:30:22.98	310.76	11.20	-44.8	-47.9	16.1	0.00e+00	0	38	0	387973120	60	5375
2026-01-22 02:30:24.97	310.39	11.16	-44.9	-48.1	15.9	0.00e+00	0	38	0	392167424	60	5513
2026-01-22 02:30:26.96	310.03	11.13	-44.8	-47.9	16.1	0.00e+00	0	38	0	395313152	60	5359
2026-01-22 02:30:28.95	309.67	11.09	-44.8	-48.0	16.0	0.00e+00	0	38	0	399507456	60	5438
2026-01-22 02:30:30.94	309.31	11.05	-44.9	-48.1	15.8	0.00e+00	0	38	0	402653184	60	5525
2026-01-22 02:30:32.93	308.95	11.01	-45.0	-48.3	15.7	0.00e+00	0	38	0	406847488	60	5633
2026-01-22 02:30:34.92	308.59	10.97	-44.9	-48.1	15.9	0.00e+00	0	38	0	411041792	60	5500
2026-01-22 02:30:36.94	308.22	10.93	-44.6	-47.8	16.2	0.00e+00	0	38	0	414187520	60	5290
2026-01-22 02:30:38.96	307.86	10.88	-44.7	-48.0	16.0	0.00e+00	0	38	0	418381824	60	5407
2026-01-22 02:30:40.95	307.51	10.84	-45.2	-48.6	15.5	0.00e+00	0	38	0	421527552	61	5479
2026-01-22 02:30:42.94	307.15	10.79	-45.3	-48.8	15.2	0.00e+00	0	38	0	425721856	61	5593
2026-01-22 02:30:44.93	306.80	10.75	-45.4	-48.8	15.2	7.00e-07	0	38	0	429916160	61	5654
2026-01-22 02:30:46.91	306.45	10.70	-44.8	-48.0	16.0	0.00e+00	0	38	0	433061888	61	5103
2026-01-22 02:30:48.90	306.10	10.65	-44.8	-47.9	16.1	0.00e+00	0	38	0	437256192	61	5048
2026-01-22 02:30:50.89	305.75	10.61	-44.8	-47.8	16.1	0.00e+00	0	38	0	440401920	61	5035
2026-01-22 02:30:52.90	305.39	10.55	-44.7	-47.7	16.2	0.00e+00	0	38	0	444596224	61	4947
2026-01-22 02:30:54.89	305.04	10.50	-45.0	-48.2	15.8	0.00e+00	0	38	0	447741952	61	5255
2026-01-22 02:30:56.82	304.71	10.45	-45.0	-48.2	15.8	0.00e+00	0	38	0	451936256	61	5236
2026-01-22 02:30:58.89	304.35	10.40	-44.8	-48.0	16.0	0.00e+00	0	38	0	455081984	61	5124
2026-01-22 02:31:00.89	304.00	10.35	-44.9	-48.2	15.8	0.00e+00	0	38	0	459276288	61	5223
2026-01-22 02:31:02.90	303.66	10.29	-44.9	-48.1	15.9	0.00e+00	0	38	0	463470592	61	5164
2026-01-22 02:31:04.89	303.32	10.24	-44.8	-48.1	15.9	0.00e+00	0	38	0	466616320	61	5171
2026-01-22 02:31:06.90	302.97	10.18	-44.9	-48.2	15.7	0.00e+00	0	38	0	470810624	61	5267
2026-01-22 02:31:09.09	302.60	10.12	-44.8	-48.0	16.0	0.00e+00	0	38	0	475004928	61	5117
2026-01-22 02:31:11.09	302.26	10.06	-44.9	-48.2	15.8	0.00e+00	0	38	0	478150656	61	5237
2026-01-22 02:31:13.29	301.89	10.00	-45.0	-48.2	15.7	0.00e+00	0	38	0	482344960	61	5244
2026-01-22 02:31:16.12	301.41	9.91	-44.9	-48.1	15.8	0.00e+00	0	38	0	487587840	61	5202
2026-01-22 02:31:18.11	301.08	9.85	-44.9	-48.1	15.8	0.00e+00	0	38	0	491782144	61	5181
2026-01-22 02:31:20.14	300.74	9.79	-45.2	-48.5	15.4	0.00e+00	0	38	0	494927872	61	5437
2026-01-22 02:31:22.13	300.41	9.73	-45.3	-48.6	15.3	0.00e+00	0	38	0	499122176	61	5484
2026-01-22 02:31:24.12	300.08	9.66	-45.1	-48.4	15.5	0.00e+00	0	38	0	503316480	61	5386
2026-01-22 02:31:26.11	299.76	9.60	-45.3	-48.7	15.2	0.00e+00	0	38	0	506462208	61	5545
2026-01-22 02:31:28.10	299.43	9.54	-45.0	-48.1	15.8	7.00e-07	0	38	0	510656512	61	5207
2026-01-22 02:31:30.09	299.11	9.47	-45.1	-48.3	15.6	0.00e+00	0	38	0	513802240	61	5337
2026-01-22 02:31:32.08	298.78	9.41	-45.2	-48.4	15.5	0.00e+00	0	38	0	517996544	61	5379
2026-01-22 02:31:34.09	298.46	9.34	-45.2	-48.5	15.4	0.00e+00	0	38	0	521142272	61	5462
2026-01-22 02:31:36.16	298.13	9.27	-45.3	-48.7	15.1	0.00e+00	0	38	0	525336576	61	5575
2026-01-22 02:31:38.15	297.81	9.20	-45.2	-48.4	15.4	0.00e+00	0	38	0	529530880	61	5398
2026-01-22 02:31:40.13	297.49	9.13	-45.1	-48.3	15.5	0.00e+00	0	38	0	532676608	61	5336
2026-01-22 02:31:42.12	297.18	9.06	-45.0	-48.2	15.6	0.00e+00	0	38	0	536870912	61	5272
2026-01-22 02:31:44.44	296.81	8.98	-50.3	-65.4	3.8	1.09e+00	0	38	104	540016640	71	21496
2026-01-22 02:31:46.77	296.45	8.90	-50.5	-65.9	3.8	1.49e+00	0	38	104	540016640	71	22594
2026-01-22 02:31:49.27	296.06	8.81	-50.7	-66.0	3.8	1.49e+00	0	38	104	540016640	72	21602
2026-01-22 02:31:51.54	295.71	8.73	-50.7	-66.1	3.8	1.49e+00	0	38	104	540016640	72	21756
2026-01-22 02:31:53.81	295.36	8.65	-50.8	-66.1	3.8	1.49e+00	0	38	104	540016640	72	21810
2026-01-22 02:31:56.08	295.01	8.56	-50.8	-66.1	3.8	1.49e+00	0	38	104	540016640	72	21902
2026-01-22 02:31:58.35	294.67	8.48	-50.7	-66.1	3.8	1.49e+00	0	38	104	540016640	72	21884
2026-01-22 02:32:00.62	294.32	8.40	-50.7	-66.1	3.8	1.49e+00	0	38	104	540016640	72	21798
2026-01-22 02:32:03.12	293.95	8.30	-50.6	-66.0	3.8	1.49e+00	0	38	104	540016640	72	21753
2026-01-22 02:32:05.03	293.66	8.23	-50.5	-66.0	3.8	1.49e+00	0	38	104	540016640	72	21673
2026-01-22 02:32:07.02	293.37	8.15	-50.5	-66.0	3.8	1.49e+00	0	38	104	540016640	72	21644
2026-01-22 02:32:09.01	293.07	8.08	-50.4	-66.0	3.8	1.49e+00	0	38	104	540016640	72	21542
2026-01-22 02:32:10.99	292.78	8.00	-50.5	-66.0	3.8	1.49e+00	0	38	104	540016640	72	21623
2026-01-22 02:32:12.98	292.49	7.92	-50.5	-66.0	3.8	1.49e+00	0	38	104	540016640	72	21626
2026-01-22 02:32:14.97	292.20	7.85	-50.5	-65.9	3.8	1.49e+00	0	38	104	540016640	72	21469
2026-01-22 02:32:16.95	291.91	7.77	-50.4	-66.0	3.8	1.49e+00	0	38	104	540016640	72	21676
2026-01-22 02:32:18.94	291.63	7.69	-50.4	-65.9	3.8	1.49e+00	0	38	104	540016640	72	21490
2026-01-22 02:32:20.92	291.34	7.61	-50.4	-66.0	3.8	1.49e+00	0	38	104	540016640	72	21590
2026-01-22 02:32:22.91	291.06	7.53	-50.4	-65.9	3.8	1.49e+00	0	38	104	540016640	72	21372
2026-01-22 02:32:24.90	290.78	7.45	-50.4	-65.9	3.8	1.49e+00	0	38	104	540016640	72	21450
2026-01-22 02:32:26.88	290.50	7.37	-50.4	-66.0	3.8	1.49e+00	0	38	104	540016640	72	21526
2026-01-22 02:32:28.87	290.22	7.29	-50.4	-65.9	3.8	1.49e+00	0	38	104	540016640	72	21461
2026-01-22 02:32:30.86	289.94	7.21	-50.4	-66.0	3.8	1.49e+00	0	38	104	540016640	72	21515
2026-01-22 02:32:32.84	289.67	7.13	-50.4	-65.9	3.8	1.49e+00	0	38	104	540016640	72	21424
2026-01-22 02:32:34.83	289.39	7.05	-50.4	-66.0	3.8	1.49e+00	0	38	104	540016640	72	21533
2026-01-22 02:32:36.82	289.12	6.96	-50.4	-65.9	3.8	1.49e+00	0	38	104	540016640	72	21433
2026-01-22 02:32:38.80	288.85	6.88	-50.4	-65.9	3.8	1.49e+00	0	38	104	540016640	72	21428
2026-01-22 02:32:40.79	288.58	6.80	-50.4	-65.9	3.8	1.49e+00	0	38	104	540016640	72	21444
2026-01-22 02:32:42.78	288.32	6.72	-50.4	-65.9	3.8	1.49e+00	0	38	104	540016640	72	21491
2026-01-22 02:32:44.76	288.05	6.63	-50.4	-65.9	3.8	1.49e+00	0	38	104	540016640	72	21441
2026-01-22 02:32:46.75	287.79	6.55	-50.4	-66.0	3.8	1.49e+00	0	38	104	540016640	72	21523
2026-01-22 02:32:48.74	287.52	6.46	-50.4	-65.9	3.8	1.49e+00	0	38	104	540016640	72	21502
2026-01-22 02:32:50.72	287.26	6.38	-50.4	-65.9	3.8	1.49e+00	0	38	104	540016640	72	21456
2026-01-22 02:32:52.71	287.00	6.30	-50.4	-65.9	3.8	1.49e+00	0	38	104	540016640	72	21358
2026-01-22 02:32:54.70	286.74	6.21	-50.4	-65.9	3.8	1.49e+00	0	38	104	540016640	72	21398
2026-01-22 02:32:56.68	286.49	6.13	-50.4	-65.9	3.8	1.49e+00	0	38	104	540016640	72	21503
2026-01-22 02:32:58.67	286.23	6.04	-50.4	-65.9	3.8	1.49e+00	0	38	104	540016640	72	21446
2026-01-22 02:33:00.66	285.98	5.96	-50.4	-66.0	3.8	1.49e+00	0	38	104	540016640	72	21575
2026-01-22 02:33:02.64	285.73	5.87	-50.4	-65.9	3.8	1.49e+00	0	38	104	540016640	72	21428
2026-01-22 02:33:04.63	285.48	5.78	-50.4	-65.9	3.8	1.49e+00	0	38	104	540016640	72	21500
2026-01-22 02:33:06.62	285.23	5.70	-50.4	-65.9	3.8	1.49e+00	0	38	104	540016640	72	21373
2026-01-22 02:33:08.60	284.98	5.61	-50.4	-66.0	3.8	1.49e+00	0	38	104	540016640	72	21526
2026-01-22 02:33:10.59	284.73	5.53	-50.4	-65.9	3.8	1.49e+00	0	38	104	540016640	72	21330
2026-01-22 02:33:12.58	284.49	5.44	-50.4	-65.9	3.8	1.49e+00	0	38	104	540016640	72	21472
2026-01-22 02:33:14.56	284.25	5.35	-50.4	-65.9	3.8	1.49e+00	0	38	104	540016640	72	21413
2026-01-22 02:33:16.55	284.00	5.26	-50.4	-65.9	3.8	1.49e+00	0	38	104	540016640	72	21436
2026-01-22 02:33:18.54	283.76	5.18	-50.4	-65.9	3.8	1.49e+00	0	38	104	540016640	72	21427
2026-01-22 02:33:20.53	283.52	5.09	-50.4	-65.9	3.8	1.49e+00	0	38	104	540016640	72	21504
2026-01-22 02:33:22.51	283.29	5.00	-50.4	-66.0	3.8	1.49e+00	0	38	104	540016640	72	21550

#Closed at: 2026-01-22 02:33:23
#Recorded file [540 MB]: D:/Data/31040_260122_052523.dat