passes_logs/2026/01/22/T1/T1__20260122_004421_SUOMI_NPP_rec.log

#Pass ID: 20260122_004421_SUOMI NPP
#Satellite: SUOMI NPP
#Configuration: NPP
#almurnet v.1.7.20251203
#Start time: 2026-01-22 00:44:20

#Version: 2.0.20230620
#Station: T1
#Location: 37.570604 lon 55.790049 lat
#TLE: 1 37849U 11061A   26021.51818991  .00000201  00000+0  11636-3 0  9995
#TLE: 2 37849  98.7819 323.5108 0002300  52.3548 307.7836 14.19527793737637

#Time	Az	El	Level	Level2	SNR	BER	BlckErr	Temp	State	Recorded	gain1	gain2
2026-01-22 00:44:20.91	10.53	4.97	-49.6	-65.7	3.8	1.49e+00	0	35	0	0	70	23482
2026-01-22 00:44:23.89	10.39	5.17	-48.3	-65.3	3.8	1.49e+00	0	35	104	0	67	26645
2026-01-22 00:44:26.87	10.25	5.38	-48.3	-65.3	3.8	1.49e+00	0	36	104	0	67	26640
2026-01-22 00:44:29.85	10.11	5.58	-48.3	-65.3	3.8	1.49e+00	0	36	104	0	67	26692
2026-01-22 00:44:32.83	9.96	5.79	-48.3	-65.3	3.8	1.49e+00	0	36	104	0	67	26682
2026-01-22 00:44:35.81	9.81	6.00	-48.3	-65.3	3.8	1.49e+00	0	36	104	0	67	26678
2026-01-22 00:44:38.78	9.66	6.21	-48.3	-65.3	3.8	1.49e+00	0	36	104	0	67	26578
2026-01-22 00:44:41.76	9.51	6.42	-48.3	-65.2	3.8	1.49e+00	0	36	104	0	67	26419
2026-01-22 00:44:44.74	9.36	6.63	-48.3	-65.0	3.8	1.49e+00	0	36	104	0	67	25671
2026-01-22 00:44:47.72	9.20	6.84	-48.3	-64.3	3.8	1.49e+00	0	36	104	0	67	23706
2026-01-22 00:44:50.70	9.04	7.06	-48.2	-63.3	3.9	1.49e+00	0	36	104	0	67	21170
2026-01-22 00:44:53.68	8.88	7.27	-48.2	-63.4	3.8	1.49e+00	0	36	104	0	67	21298
2026-01-22 00:44:56.66	8.71	7.49	-48.3	-64.2	3.8	1.49e+00	0	36	104	0	67	23378
2026-01-22 00:44:59.64	8.54	7.71	-48.3	-65.0	3.8	1.49e+00	0	37	104	0	67	25704
2026-01-22 00:45:02.63	8.37	7.94	-48.3	-65.0	3.8	1.49e+00	0	37	104	0	67	25836
2026-01-22 00:45:05.61	8.20	8.16	-48.1	-60.5	4.6	1.25e+00	0	37	0	0	67	15365
2026-01-22 00:45:08.59	8.02	8.38	-47.3	-55.0	8.9	3.84e-02	0	37	0	5242880	66	8608
2026-01-22 00:45:11.57	7.84	8.61	-46.2	-51.8	12.2	8.49e-04	0	37	0	11534336	64	6658
2026-01-22 00:45:14.55	7.66	8.84	-45.9	-50.9	13.2	4.19e-05	0	37	0	16777216	63	6361
2026-01-22 00:45:17.53	7.47	9.07	-46.5	-52.1	11.9	3.87e-04	0	37	0	22020096	63	7337
2026-01-22 00:45:20.52	7.28	9.30	-47.2	-54.7	9.3	9.24e-02	0	37	0	28311552	65	8766
2026-01-22 00:45:23.50	7.09	9.54	-44.7	-48.1	15.9	0.00e+00	0	37	0	33554432	61	5164
2026-01-22 00:45:26.49	6.89	9.78	-44.8	-48.2	15.8	0.00e+00	0	37	0	38797312	61	5263
2026-01-22 00:45:29.48	6.70	10.01	-44.6	-48.0	16.1	0.00e+00	0	37	0	45088768	61	5104
2026-01-22 00:45:32.49	6.49	10.26	-44.7	-48.0	16.0	0.00e+00	0	37	0	50331648	61	5157
2026-01-22 00:45:35.48	6.28	10.50	-44.4	-47.8	16.3	0.00e+00	0	37	0	56623104	60	5299
2026-01-22 00:45:38.46	6.08	10.74	-44.5	-47.9	16.2	0.00e+00	0	37	0	61865984	60	5365
2026-01-22 00:45:41.44	5.86	10.99	-44.4	-47.7	16.4	0.00e+00	0	37	0	67108864	60	5231
2026-01-22 00:45:44.42	5.65	11.24	-44.3	-47.5	16.5	0.00e+00	0	37	0	73400320	60	5136
2026-01-22 00:45:47.44	5.42	11.49	-44.2	-47.3	16.7	0.00e+00	0	37	0	78643200	60	5031
2026-01-22 00:45:50.49	5.19	11.75	-44.3	-47.5	16.6	0.00e+00	0	37	0	83886080	60	5108
2026-01-22 00:45:53.53	4.96	12.01	-44.3	-47.4	16.7	0.00e+00	0	37	0	90177536	60	5077
2026-01-22 00:45:56.38	4.73	12.26	-44.4	-47.4	16.6	0.00e+00	0	37	0	95420416	60	5097
2026-01-22 00:45:59.50	4.49	12.53	-44.2	-47.2	16.8	0.00e+00	0	37	0	100663296	60	4980
2026-01-22 00:46:02.32	4.26	12.78	-44.3	-47.3	16.8	0.00e+00	0	37	0	106954752	60	5029
2026-01-22 00:46:05.55	3.99	13.06	-44.2	-47.1	17.0	0.00e+00	0	37	0	112197632	60	4909
2026-01-22 00:46:08.40	3.75	13.32	-44.1	-47.0	17.1	0.00e+00	0	37	0	117440512	60	4858
2026-01-22 00:46:11.53	3.48	13.60	-44.2	-47.1	17.0	0.00e+00	0	37	0	123731968	59	5183
2026-01-22 00:46:14.37	3.23	13.86	-44.3	-47.3	16.8	0.00e+00	0	37	0	128974848	59	5288
2026-01-22 00:46:17.50	2.95	14.14	-44.4	-47.5	16.7	0.00e+00	0	38	0	135266304	59	5411
2026-01-22 00:46:20.34	2.69	14.41	-44.5	-47.6	16.5	0.00e+00	0	37	0	140509184	59	5494
2026-01-22 00:46:23.61	2.39	14.71	-44.4	-47.5	16.7	0.00e+00	0	37	0	146800640	59	5406
2026-01-22 00:46:26.31	2.13	14.97	-44.5	-47.7	16.5	0.00e+00	0	38	0	150994944	59	5550
2026-01-22 00:46:29.58	1.82	15.28	-44.3	-47.4	16.8	0.00e+00	0	37	0	157286400	59	5349
2026-01-22 00:46:32.46	1.53	15.55	-44.2	-47.2	17.0	0.00e+00	0	38	0	162529280	59	5244
2026-01-22 00:46:35.59	1.22	15.86	-44.1	-47.1	17.0	0.00e+00	0	37	0	168820736	59	5178
2026-01-22 00:46:38.43	0.92	16.14	-44.3	-47.2	17.0	0.00e+00	0	37	0	174063616	59	5248
2026-01-22 00:46:41.56	0.60	16.44	-44.5	-47.5	16.7	0.00e+00	0	38	0	180355072	59	5412
2026-01-22 00:46:44.40	0.29	16.73	-44.4	-47.2	17.0	0.00e+00	0	38	0	185597952	59	5255
2026-01-22 00:46:47.53	359.95	17.04	-44.4	-47.3	17.0	0.00e+00	0	38	0	190840832	59	5288
2026-01-22 00:46:50.37	359.63	17.33	-44.4	-47.2	16.9	0.00e+00	0	38	0	197132288	59	5262
2026-01-22 00:46:53.50	359.28	17.65	-44.3	-47.2	17.0	0.00e+00	0	37	0	202375168	59	5252
2026-01-22 00:46:56.35	358.95	17.94	-44.4	-47.3	16.9	0.00e+00	0	38	0	207618048	59	5314
2026-01-22 00:46:59.56	358.57	18.28	-44.4	-47.4	16.9	0.00e+00	0	37	0	213909504	59	5348
2026-01-22 00:47:02.41	358.22	18.58	-44.5	-47.4	16.8	0.00e+00	0	38	0	219152384	59	5393
2026-01-22 00:47:05.54	357.83	18.91	-44.3	-47.1	17.2	0.00e+00	0	37	0	225443840	59	5172
2026-01-22 00:47:08.38	357.47	19.21	-44.4	-47.2	17.1	0.00e+00	0	38	0	230686720	59	5241
2026-01-22 00:47:11.51	357.07	19.55	-44.3	-47.0	17.2	0.00e+00	0	38	0	235929600	59	5131
2026-01-22 00:47:14.35	356.69	19.86	-44.2	-46.9	17.4	0.00e+00	0	38	0	241172480	59	5042
2026-01-22 00:47:17.55	356.26	20.21	-44.8	-47.7	16.6	0.00e+00	0	38	0	247463936	60	5241
2026-01-22 00:47:20.39	355.87	20.53	-44.8	-47.7	16.7	0.00e+00	0	38	0	252706816	60	5221
2026-01-22 00:47:23.52	355.43	20.88	-45.3	-48.3	16.1	0.00e+00	0	38	0	258998272	61	5326
2026-01-22 00:47:26.36	355.02	21.20	-45.2	-48.2	16.2	0.00e+00	0	38	0	264241152	61	5262
2026-01-22 00:47:29.49	354.55	21.55	-44.8	-47.7	16.7	0.00e+00	0	38	0	269484032	61	4939
2026-01-22 00:47:32.33	354.13	21.88	-44.6	-47.5	16.9	0.00e+00	0	38	0	275775488	60	5130
2026-01-22 00:47:35.60	353.62	22.25	-44.9	-48.0	16.3	0.00e+00	0	38	0	281018368	60	5444
2026-01-22 00:47:38.33	353.19	22.57	-45.0	-48.0	16.4	0.00e+00	0	38	0	286261248	61	5111
2026-01-22 00:47:41.60	352.66	22.95	-45.1	-48.2	16.2	0.00e+00	0	38	0	292552704	61	5240
2026-01-22 00:47:44.66	352.15	23.32	-44.6	-47.6	16.8	0.00e+00	0	38	0	298844160	61	4875
2026-01-22 00:47:47.77	351.62	23.68	-44.5	-47.6	16.8	0.00e+00	0	38	0	304087040	60	5185
2026-01-22 00:47:51.10	351.04	24.08	-44.8	-48.1	16.4	0.00e+00	0	38	0	310378496	60	5465
2026-01-22 00:47:53.82	350.56	24.41	-45.0	-48.1	16.4	0.00e+00	0	38	0	315621376	60	5500
2026-01-22 00:47:57.10	349.96	24.81	-44.1	-46.7	17.6	0.00e+00	0	38	0	321912832	60	4682
2026-01-22 00:47:59.90	349.44	25.15	-44.0	-46.5	17.8	0.00e+00	0	38	0	327155712	59	4848
2026-01-22 00:48:03.02	348.84	25.53	-44.2	-46.8	17.5	0.00e+00	0	38	0	332398592	59	5013
2026-01-22 00:48:05.86	348.28	25.88	-44.7	-47.6	16.9	0.00e+00	0	38	0	338690048	60	5173
2026-01-22 00:48:08.97	347.66	26.27	-45.3	-48.3	16.2	0.00e+00	0	38	0	343932928	61	5313
2026-01-22 00:48:11.82	347.08	26.62	-45.4	-48.6	15.9	0.00e+00	0	38	0	349175808	61	5480
2026-01-22 00:48:14.95	346.42	27.01	-45.3	-48.6	15.9	0.00e+00	0	38	0	355467264	61	5488
2026-01-22 00:48:17.79	345.81	27.37	-45.7	-49.1	15.5	0.00e+00	0	38	0	360710144	62	5488
2026-01-22 00:48:20.92	345.12	27.76	-46.4	-49.9	14.5	7.00e-07	0	38	0	365953024	63	5684
2026-01-22 00:48:23.77	344.47	28.12	-46.3	-50.0	14.6	7.00e-07	0	38	0	372244480	64	5428
2026-01-22 00:48:26.89	343.75	28.51	-46.2	-50.2	14.4	0.00e+00	0	38	0	377487360	63	5866
2026-01-22 00:48:29.74	343.08	28.87	-46.3	-50.5	14.2	7.00e-07	0	38	0	382730240	63	6074
2026-01-22 00:48:32.88	342.31	29.27	-46.6	-50.4	14.1	3.80e-06	0	38	0	389021696	64	5682
2026-01-22 00:48:35.73	341.61	29.63	-45.9	-49.3	15.3	0.00e+00	0	38	0	394264576	63	5318
2026-01-22 00:48:39.04	340.76	30.04	-45.0	-47.9	16.6	0.00e+00	0	38	0	400556032	61	5078
2026-01-22 00:48:41.76	340.06	30.39	-45.0	-48.0	16.5	0.00e+00	0	38	0	405798912	61	5119
2026-01-22 00:48:45.05	339.18	30.80	-46.1	-50.0	14.7	1.50e-06	0	38	0	412090368	62	6118
2026-01-22 00:48:47.92	338.39	31.15	-45.9	-49.8	14.8	0.00e+00	0	38	0	417333248	63	5614
2026-01-22 00:48:51.05	337.52	31.54	-45.6	-49.0	15.6	0.00e+00	0	38	0	422576128	62	5439
2026-01-22 00:48:54.57	336.51	31.98	-46.1	-49.5	15.1	0.00e+00	0	38	0	429916160	63	5413
2026-01-22 00:48:57.27	335.71	32.30	-45.5	-48.6	15.9	0.00e+00	0	38	0	434110464	63	4888
2026-01-22 00:49:00.55	334.73	32.70	-45.4	-48.6	16.0	0.00e+00	0	38	0	440401920	62	5177
2026-01-22 00:49:03.30	333.88	33.03	-45.3	-48.7	15.8	0.00e+00	0	38	0	445644800	62	5244
2026-01-22 00:49:06.51	332.87	33.41	-45.7	-49.1	15.6	0.00e+00	0	38	0	451936256	62	5473
2026-01-22 00:49:09.49	331.91	33.76	-46.2	-49.7	14.9	0.00e+00	0	38	0	457179136	63	5533
2026-01-22 00:49:12.47	330.93	34.10	-46.4	-50.0	14.7	0.00e+00	0	38	0	463470592	63	5738
2026-01-22 00:49:15.46	329.93	34.43	-47.5	-52.1	12.5	7.09e-05	0	38	0	468713472	65	6496
2026-01-22 00:49:18.45	328.91	34.76	-47.8	-52.9	11.8	6.43e-04	0	38	0	473956352	67	6372
2026-01-22 00:49:21.43	327.87	35.08	-47.7	-52.7	11.9	2.99e-04	0	38	0	480247808	67	6217
2026-01-22 00:49:24.42	326.80	35.40	-47.4	-52.1	12.5	2.28e-04	0	38	0	485490688	66	6155
2026-01-22 00:49:27.40	325.72	35.70	-46.4	-50.0	14.5	1.50e-06	0	38	0	490733568	64	5412
2026-01-22 00:49:30.39	324.61	36.00	-46.4	-50.1	14.4	7.00e-07	0	38	0	497025024	64	5501
2026-01-22 00:49:33.31	323.51	36.28	-46.3	-50.2	14.4	0.00e+00	0	38	0	502267904	63	5873
2026-01-22 00:49:36.44	322.31	36.57	-46.0	-49.8	14.8	0.00e+00	0	38	0	507510784	63	5619
2026-01-22 00:49:39.28	321.20	36.82	-45.5	-48.8	15.8	0.00e+00	0	38	0	513802240	62	5305
2026-01-22 00:49:42.41	319.96	37.09	-45.1	-48.0	16.5	0.00e+00	0	38	0	519045120	62	4857
2026-01-22 00:49:45.25	318.82	37.32	-45.1	-48.0	16.6	0.00e+00	0	38	0	524288000	61	5103
2026-01-22 00:49:48.38	317.54	37.56	-44.8	-47.5	17.0	0.00e+00	0	38	0	530579456	61	4850
2026-01-22 00:49:51.28	316.34	37.77	-44.3	-46.9	17.6	0.00e+00	0	38	0	535822336	60	4791
2026-01-22 00:49:54.82	314.86	38.01	-44.1	-46.7	17.7	0.00e+00	0	38	0	542113792	59	4936
2026-01-22 00:49:57.52	313.71	38.17	-44.2	-46.9	17.5	0.00e+00	0	38	0	547356672	60	4764
2026-01-22 00:50:00.79	312.30	38.36	-44.8	-47.8	16.7	0.00e+00	0	38	0	553648128	60	5298
2026-01-22 00:50:03.54	311.11	38.50	-44.5	-47.3	17.1	0.00e+00	0	38	0	558891008	61	4750
2026-01-22 00:50:06.87	309.65	38.65	-41.9	-43.9	19.9	0.00e+00	0	38	0	565182464	55	4533
2026-01-22 00:50:09.79	308.36	38.77	-43.3	-45.7	18.6	0.00e+00	0	38	0	570425344	57	4933
2026-01-22 00:50:13.37	306.76	38.89	-43.4	-45.8	18.5	0.00e+00	0	38	0	576716800	57	5002
2026-01-22 00:50:16.07	305.56	38.96	-43.4	-45.9	18.4	0.00e+00	0	38	0	581959680	58	4787
2026-01-22 00:50:19.43	304.04	39.04	-43.2	-45.5	18.6	0.00e+00	0	38	0	588251136	58	4593
2026-01-22 00:50:22.16	302.81	39.08	-44.0	-46.5	17.8	0.00e+00	0	38	0	593494016	58	5123
2026-01-22 00:50:25.44	301.33	39.11	-43.2	-45.5	18.8	0.00e+00	0	38	0	599785472	58	4547
2026-01-22 00:50:28.43	299.97	39.12	-43.2	-45.5	18.8	0.00e+00	0	38	0	605028352	57	4822
2026-01-22 00:50:31.71	298.48	39.11	-44.8	-47.6	16.9	0.00e+00	0	38	0	611319808	60	5181
2026-01-22 00:50:34.41	297.26	39.08	-45.2	-48.2	16.4	0.00e+00	0	38	0	616562688	60	5533
2026-01-22 00:50:37.73	295.76	39.03	-45.0	-47.9	16.7	0.00e+00	0	38	0	622854144	61	5051
2026-01-22 00:50:40.46	294.53	38.97	-45.2	-48.1	16.4	0.00e+00	0	38	0	628097024	61	5191
2026-01-22 00:50:43.76	293.05	38.88	-45.3	-48.3	16.3	0.00e+00	0	38	0	634388480	62	5002
2026-01-22 00:50:46.69	291.75	38.78	-45.8	-48.9	15.7	0.00e+00	0	38	0	639631360	62	5362
2026-01-22 00:50:49.97	290.30	38.65	-46.5	-49.9	14.7	7.00e-07	0	38	0	645922816	63	5706
2026-01-22 00:50:52.68	289.11	38.53	-46.7	-50.3	14.2	7.00e-07	0	38	0	651165696	64	5599
2026-01-22 00:50:56.05	287.64	38.36	-47.0	-50.7	13.8	3.00e-06	0	38	0	657457152	65	5591
2026-01-22 00:50:58.75	286.48	38.21	-46.6	-50.1	14.4	0.00e+00	0	38	0	662700032	64	5513
2026-01-22 00:51:02.22	285.00	37.99	-46.2	-49.4	15.2	0.00e+00	0	38	0	668991488	63	5399
2026-01-22 00:51:05.27	283.72	37.79	-47.3	-51.4	13.2	1.14e-05	0	38	0	674234368	65	6056
2026-01-22 00:51:08.12	282.53	37.58	-48.1	-53.3	11.3	3.27e-03	0	38	0	679477248	67	6679
2026-01-22 00:51:11.28	281.24	37.34	-45.3	-48.2	16.3	0.00e+00	0	38	0	685768704	62	4965
2026-01-22 00:51:14.12	280.09	37.11	-45.3	-48.2	16.2	0.00e+00	0	38	0	691011584	61	5257
2026-01-22 00:51:17.45	278.77	36.83	-44.7	-47.3	17.1	0.00e+00	0	38	0	697303040	61	4740
2026-01-22 00:51:20.16	277.71	36.59	-43.8	-46.2	18.1	0.00e+00	0	38	0	702545920	58	4933
2026-01-22 00:51:23.43	276.45	36.29	-44.3	-46.8	17.5	0.00e+00	0	38	0	708837376	59	5031
2026-01-22 00:51:26.13	275.43	36.03	-44.6	-47.4	17.0	0.00e+00	0	38	0	714080256	60	5071
2026-01-22 00:51:29.40	274.21	35.70	-44.5	-47.2	17.3	0.00e+00	0	38	0	719323136	60	4956
2026-01-22 00:51:32.12	273.22	35.42	-45.5	-48.6	15.9	0.00e+00	0	38	0	724566016	61	5525
2026-01-22 00:51:35.38	272.05	35.08	-45.8	-49.0	15.5	0.00e+00	0	38	0	730857472	63	5135
2026-01-22 00:51:38.28	271.04	34.77	-45.8	-48.9	15.6	0.00e+00	0	38	0	736100352	62	5384
2026-01-22 00:51:42.26	269.67	34.33	-44.6	-47.3	17.1	0.00e+00	0	38	0	743440384	61	4726
2026-01-22 00:51:45.10	268.72	34.00	-45.0	-47.8	16.7	0.00e+00	0	38	0	749731840	60	5322
2026-01-22 00:51:49.08	267.42	33.54	-44.5	-47.1	17.3	0.00e+00	0	38	0	757071872	60	4871
2026-01-22 00:51:52.13	266.45	33.18	-45.0	-47.8	16.7	0.00e+00	0	38	0	762314752	61	4994
2026-01-22 00:51:56.04	265.24	32.72	-45.2	-48.1	16.4	0.00e+00	0	38	0	769654784	62	4890
2026-01-22 00:51:59.02	264.34	32.36	-45.7	-48.8	15.7	0.00e+00	0	38	0	774897664	61	5632
2026-01-22 00:52:02.01	263.45	31.99	-46.1	-49.4	15.2	7.00e-07	0	38	0	781189120	63	5391
2026-01-22 00:52:04.99	262.59	31.62	-46.9	-50.9	13.7	1.50e-06	0	38	0	786432000	64	6061
2026-01-22 00:52:07.97	261.75	31.25	-46.7	-50.5	13.9	9.90e-06	0	38	0	791674880	65	5429
2026-01-22 00:52:10.97	260.92	30.88	-46.4	-50.0	14.4	0.00e+00	0	38	0	797966336	64	5456
2026-01-22 00:52:13.96	260.11	30.50	-45.7	-48.8	15.8	0.00e+00	0	38	0	803209216	63	4995
2026-01-22 00:52:16.94	259.33	30.13	-44.6	-47.3	17.1	0.00e+00	0	38	0	809500672	61	4730
2026-01-22 00:52:19.93	258.56	29.75	-43.9	-46.3	17.9	0.00e+00	0	38	0	814743552	59	4737
2026-01-22 00:52:22.91	257.81	29.37	-44.2	-46.8	17.5	0.00e+00	0	38	0	819986432	59	5032
2026-01-22 00:52:25.90	257.07	29.00	-45.4	-48.5	16.0	0.00e+00	0	38	0	826277888	61	5414
2026-01-22 00:52:28.82	256.37	28.63	-45.6	-48.7	15.9	0.00e+00	0	38	0	831520768	62	5250
2026-01-22 00:52:31.95	255.64	28.23	-44.7	-47.4	17.0	0.00e+00	0	38	0	836763648	61	4791
2026-01-22 00:52:34.79	254.99	27.87	-45.0	-47.9	16.5	0.00e+00	0	38	0	842006528	61	5077
2026-01-22 00:52:37.91	254.29	27.48	-44.2	-46.8	17.5	0.00e+00	0	38	0	848297984	60	4731
2026-01-22 00:52:40.76	253.67	27.12	-43.8	-46.3	17.9	0.00e+00	0	38	0	853540864	59	4733
2026-01-22 00:52:43.99	252.98	26.71	-44.0	-46.5	17.8	0.00e+00	0	38	0	859832320	59	4827
2026-01-22 00:52:46.84	252.39	26.36	-44.3	-46.9	17.5	0.00e+00	0	38	0	865075200	59	5053
2026-01-22 00:52:50.17	251.71	25.94	-44.7	-47.5	16.9	0.00e+00	0	38	0	871366656	60	5144
2026-01-22 00:52:52.94	251.16	25.60	-44.6	-47.4	17.0	0.00e+00	0	38	0	876609536	60	5064
2026-01-22 00:52:56.22	250.53	25.20	-44.3	-46.9	17.4	0.00e+00	0	38	0	882900992	60	4805
2026-01-22 00:52:58.92	250.02	24.86	-44.1	-46.8	17.5	0.00e+00	0	38	0	888143872	60	4712
2026-01-22 00:53:02.22	249.41	24.46	-44.0	-46.5	17.8	0.00e+00	0	38	0	893386752	59	4830
2026-01-22 00:53:04.94	248.92	24.13	-44.2	-46.8	17.5	0.00e+00	0	38	0	898629632	59	5010
2026-01-22 00:53:08.20	248.34	23.74	-44.5	-47.1	17.1	0.00e+00	0	38	0	904921088	59	5208
2026-01-22 00:53:10.93	247.87	23.41	-44.3	-46.9	17.4	0.00e+00	0	38	0	910163968	59	5081
2026-01-22 00:53:14.21	247.32	23.02	-44.8	-47.6	16.8	0.00e+00	0	38	0	916455424	60	5212
2026-01-22 00:53:16.92	246.88	22.70	-45.1	-48.0	16.4	0.00e+00	0	38	0	921698304	60	5445
2026-01-22 00:53:20.55	246.29	22.28	-45.4	-48.4	15.9	0.00e+00	0	38	0	927989760	61	5395
2026-01-22 00:53:23.26	245.87	21.96	-45.3	-48.3	16.0	0.00e+00	0	38	0	933232640	61	5327
2026-01-22 00:53:26.54	245.37	21.59	-44.0	-46.6	17.7	0.00e+00	0	38	0	939524096	60	4615
2026-01-22 00:53:29.27	244.96	21.27	-43.9	-46.4	17.8	0.00e+00	0	38	0	944766976	59	4790
2026-01-22 00:53:32.64	244.47	20.89	-44.7	-47.4	16.9	0.00e+00	0	38	0	951058432	60	5067
2026-01-22 00:53:35.42	244.07	20.58	-44.3	-46.9	17.3	0.00e+00	0	38	0	956301312	60	4778
2026-01-22 00:53:38.69	243.61	20.22	-43.4	-45.8	18.3	0.00e+00	0	38	0	962592768	58	4717
2026-01-22 00:53:41.39	243.24	19.92	-43.7	-46.2	18.0	0.00e+00	0	38	0	966787072	58	4930
2026-01-22 00:53:44.67	242.80	19.56	-44.7	-47.4	16.8	0.00e+00	0	38	0	973078528	60	5100
2026-01-22 00:53:47.51	242.43	19.25	-46.0	-49.4	15.1	7.00e-07	0	38	0	978321408	62	5665
2026-01-22 00:53:50.64	242.03	18.91	-46.7	-50.6	13.8	7.60e-06	0	38	0	984612864	64	5799
2026-01-22 00:53:53.80	241.63	18.58	-46.1	-49.5	14.8	7.00e-07	0	38	0	990904320	64	5119
2026-01-22 00:53:56.83	241.26	18.26	-45.4	-48.4	15.9	0.00e+00	0	38	0	996147200	62	5046
2026-01-22 00:53:59.97	240.89	17.93	-44.9	-47.8	16.5	0.00e+00	0	38	0	1002438656	61	4992
2026-01-22 00:54:02.81	240.55	17.63	-45.2	-48.3	16.0	0.00e+00	0	38	0	1007681536	61	5285
2026-01-22 00:54:05.97	240.19	17.31	-46.0	-49.3	15.0	0.00e+00	0	38	0	1012924416	62	5641
2026-01-22 00:54:08.81	239.87	17.02	-45.3	-48.3	16.0	0.00e+00	0	38	0	1019215872	62	5005
2026-01-22 00:54:11.94	239.52	16.70	-44.2	-46.9	17.3	0.00e+00	0	38	0	1024458752	60	4774
2026-01-22 00:54:14.78	239.21	16.42	-44.4	-47.2	17.0	0.00e+00	0	38	0	1029701632	60	4943
2026-01-22 00:54:17.91	238.88	16.11	-44.9	-47.8	16.4	0.00e+00	0	38	0	1035993088	60	5282
2026-01-22 00:54:20.75	238.59	15.83	-45.1	-48.1	16.2	0.00e+00	0	38	0	1041235968	61	5170
2026-01-22 00:54:23.99	238.26	15.51	-45.1	-48.1	16.1	0.00e+00	0	38	0	1047527424	61	5206
2026-01-22 00:54:26.95	237.96	15.23	-45.5	-48.6	15.6	0.00e+00	0	38	0	1052770304	61	5486
2026-01-22 00:54:30.12	237.65	14.92	-45.5	-48.6	15.7	0.00e+00	0	38	0	1059061760	61	5495
2026-01-22 00:54:33.47	237.33	14.61	-45.0	-48.0	16.2	0.00e+00	0	38	0	1065353216	61	5105
2026-01-22 00:54:36.19	237.08	14.35	-44.8	-47.6	16.6	0.00e+00	0	38	0	1069547520	61	4894
2026-01-22 00:54:39.47	236.77	14.05	-44.7	-47.5	16.7	0.00e+00	0	38	0	1075838976	61	4818
2026-01-22 00:54:42.37	236.51	13.78	-45.2	-48.3	15.9	0.00e+00	0	38	0	1081081856	61	5299
2026-01-22 00:54:45.66	236.22	13.48	-46.3	-49.9	14.4	7.00e-07	0	38	0	1087373312	63	5698
2026-01-22 00:54:48.36	235.99	13.24	-46.6	-50.5	13.7	3.00e-06	0	38	0	1092616192	63	6086
2026-01-22 00:54:51.58	235.71	12.95	-46.4	-50.1	14.2	7.00e-07	0	38	0	1098907648	63	5844
2026-01-22 00:54:54.57	235.46	12.68	-45.9	-49.3	14.8	7.00e-07	0	38	0	1104150528	63	5336
2026-01-22 00:54:57.55	235.22	12.42	-45.4	-48.7	15.5	0.00e+00	0	38	0	1110441984	62	5222
2026-01-22 00:55:00.54	234.98	12.16	-45.1	-48.1	16.0	0.00e+00	0	38	0	1115684864	62	4925
2026-01-22 00:55:03.52	234.74	11.90	-44.8	-47.8	16.3	0.00e+00	0	38	0	1120927744	61	5001
2026-01-22 00:55:06.50	234.51	11.65	-44.9	-47.9	16.2	0.00e+00	0	38	0	1127219200	61	5062
2026-01-22 00:55:09.49	234.28	11.39	-45.0	-48.0	16.1	0.00e+00	0	38	0	1132462080	61	5113
2026-01-22 00:55:12.48	234.06	11.14	-45.0	-47.9	16.1	0.00e+00	0	38	0	1137704960	61	5087
2026-01-22 00:55:15.46	233.84	10.89	-45.1	-48.1	16.0	0.00e+00	0	38	0	1143996416	61	5171
2026-01-22 00:55:18.45	233.62	10.64	-45.2	-48.2	15.8	0.00e+00	0	38	0	1149239296	61	5270
2026-01-22 00:55:21.43	233.41	10.40	-45.2	-48.3	15.7	0.00e+00	0	38	0	1154482176	61	5304
2026-01-22 00:55:24.42	233.20	10.16	-45.5	-48.8	15.2	0.00e+00	0	38	0	1160773632	61	5628
2026-01-22 00:55:27.40	232.99	9.92	-45.5	-48.8	15.1	0.00e+00	0	38	0	1166016512	61	5648
2026-01-22 00:55:30.46	232.79	9.67	-45.7	-49.1	15.0	0.00e+00	0	38	0	1171259392	62	5488
2026-01-22 00:55:33.45	232.59	9.43	-46.0	-49.5	14.6	0.00e+00	0	38	0	1177550848	62	5739
2026-01-22 00:55:36.44	232.39	9.20	-46.1	-49.7	14.4	7.00e-07	0	38	0	1182793728	62	5867
2026-01-22 00:55:39.42	232.20	8.96	-50.3	-65.6	3.8	1.49e+00	0	38	104	1186988032	71	21794
2026-01-22 00:55:42.43	232.01	8.73	-50.8	-66.0	3.8	1.49e+00	0	38	104	1186988032	72	21537
2026-01-22 00:55:45.51	231.82	8.49	-50.8	-66.1	3.8	1.49e+00	0	38	104	1186988032	72	21899
2026-01-22 00:55:48.55	231.63	8.26	-50.8	-66.2	3.8	1.49e+00	0	38	104	1186988032	72	22052
2026-01-22 00:55:51.53	231.45	8.04	-50.8	-66.2	3.8	1.49e+00	0	38	104	1186988032	72	22075
2026-01-22 00:55:54.51	231.28	7.81	-50.7	-66.2	3.8	1.49e+00	0	38	104	1186988032	72	22135
2026-01-22 00:55:57.49	231.10	7.59	-50.7	-66.2	3.8	1.49e+00	0	38	104	1186988032	72	22034
2026-01-22 00:56:00.47	230.93	7.37	-50.6	-66.1	3.8	1.49e+00	0	38	104	1186988032	72	21916
2026-01-22 00:56:03.45	230.76	7.15	-50.6	-66.1	3.8	1.49e+00	0	38	104	1186988032	72	21818
2026-01-22 00:56:06.43	230.60	6.93	-50.6	-66.1	3.8	1.49e+00	0	38	104	1186988032	72	21957
2026-01-22 00:56:09.41	230.43	6.72	-50.6	-66.1	3.8	1.49e+00	0	38	104	1186988032	72	21872
2026-01-22 00:56:12.39	230.27	6.50	-50.6	-66.1	3.8	1.49e+00	0	38	104	1186988032	72	21771
2026-01-22 00:56:15.37	230.12	6.29	-50.6	-66.1	3.8	1.49e+00	0	38	104	1186988032	72	21761
2026-01-22 00:56:18.35	229.96	6.08	-50.5	-66.1	3.8	1.49e+00	0	38	104	1186988032	72	21798
2026-01-22 00:56:21.33	229.81	5.87	-50.5	-66.1	3.8	1.49e+00	0	38	104	1186988032	72	21835
2026-01-22 00:56:24.31	229.65	5.66	-50.6	-66.0	3.8	1.49e+00	0	38	104	1186988032	72	21738
2026-01-22 00:56:27.29	229.51	5.46	-50.6	-66.1	3.8	1.49e+00	0	38	104	1186988032	72	21891
2026-01-22 00:56:30.27	229.36	5.25	-50.5	-66.0	3.8	1.49e+00	0	38	104	1186988032	72	21747
2026-01-22 00:56:33.25	229.21	5.05	-50.5	-66.1	3.8	1.49e+00	0	38	104	1186988032	72	21798

#Closed at: 2026-01-22 00:56:35
#Recorded file [1186 MB]: D:/Data/31040_260122_034420.dat