passes_logs/2025/01/04/LEX_Murmansk/LEX_Murmansk__20250104_132813_NOAA_18_rec.log

#Pass ID: 20250104_132813_NOAA 18
#Satellite: NOAA 18
#Configuration: NOAA 18
#Start time: 2025-01-04 13:28:08.557924

#LorettStation: 1.0.0 05.05.2024
#Station: LEX_Murmansk
#Location: 33.156738 lon 68.926811 lat
#TLE: 1 28654U 05018A   25003.76610367  .00000568  00000+0  32493-3 0  9997
#TLE: 2 28654  98.8583  84.9311 0013827 211.1121 148.9234 14.13475198 11594

#Time	Az	El	Level	SNR
2025-01-04 13:28:20.843652	29.6	15.9	-90.5	5.5
2025-01-04 13:28:22.002086	29.4	16.0	-90.9	3.2
2025-01-04 13:28:23.151459	29.2	16.1	-89.8	4.6
2025-01-04 13:28:24.300318	29.1	16.2	-90.4	5.4
2025-01-04 13:28:25.453968	28.9	16.3	-90.1	7.2
2025-01-04 13:28:26.606421	28.7	16.4	-90.6	6.4
2025-01-04 13:28:27.757252	28.5	16.5	-90.6	4.6
2025-01-04 13:28:28.904108	28.3	16.6	-90.8	6.7
2025-01-04 13:28:30.052735	28.2	16.6	-90.5	5.8
2025-01-04 13:28:31.197070	28.0	16.7	-90.7	8.5
2025-01-04 13:28:32.357191	27.8	16.8	-89.3	7.3
2025-01-04 13:28:33.514025	27.6	16.9	-89.6	6.4
2025-01-04 13:28:34.674849	27.4	17.0	-91.2	7.7
2025-01-04 13:28:35.828536	27.2	17.1	-90.9	10.7
2025-01-04 13:28:36.991173	27.0	17.2	-90.4	9.0
2025-01-04 13:28:38.150025	26.9	17.3	-90.0	9.0
2025-01-04 13:28:39.303882	26.7	17.4	-90.2	10.4
2025-01-04 13:28:40.459970	26.5	17.4	-90.3	7.4
2025-01-04 13:28:41.615044	26.3	17.5	-90.7	6.0
2025-01-04 13:28:42.770170	26.1	17.6	-90.7	9.8
2025-01-04 13:28:43.931217	25.9	17.7	-90.3	9.8
2025-01-04 13:28:45.080062	25.7	17.8	-90.0	4.9
2025-01-04 13:28:46.240348	25.5	17.9	-90.5	6.3
2025-01-04 13:28:47.405134	25.3	18.0	-90.6	7.5
2025-01-04 13:28:48.563537	25.1	18.1	-90.7	5.7
2025-01-04 13:28:49.716124	24.9	18.2	-90.6	7.0
2025-01-04 13:28:50.872572	24.7	18.2	-90.7	8.8
2025-01-04 13:28:52.030302	24.5	18.3	-90.4	8.0
2025-01-04 13:28:53.191044	24.3	18.4	-90.4	8.1
2025-01-04 13:28:54.350855	24.1	18.5	-90.4	14.6
2025-01-04 13:28:55.504561	23.9	18.6	-90.3	10.5
2025-01-04 13:28:56.657783	23.7	18.7	-90.4	14.5
2025-01-04 13:28:57.822918	23.5	18.8	-90.7	14.7
2025-01-04 13:28:58.984011	23.2	18.9	-90.7	13.7
2025-01-04 13:29:00.144385	23.0	19.0	-90.5	11.5
2025-01-04 13:29:01.291317	22.8	19.0	-90.0	11.0
2025-01-04 13:29:02.449156	22.6	19.1	-90.6	10.2
2025-01-04 13:29:03.597936	22.4	19.2	-90.6	6.7
2025-01-04 13:29:04.751115	22.2	19.3	-90.2	10.4
2025-01-04 13:29:05.911800	22.0	19.4	-90.7	8.3
2025-01-04 13:29:07.063042	21.7	19.5	-90.3	4.5
2025-01-04 13:29:08.222333	21.5	19.6	-89.7	7.5
2025-01-04 13:29:09.378862	21.3	19.7	-90.6	8.7
2025-01-04 13:29:10.536788	21.1	19.7	-91.0	8.5
2025-01-04 13:29:11.688737	20.9	19.8	-90.5	8.2
2025-01-04 13:29:12.846977	20.6	19.9	-90.7	10.5
2025-01-04 13:29:14.004883	20.4	20.0	-90.3	10.5
2025-01-04 13:29:15.156477	20.2	20.1	-90.6	8.9
2025-01-04 13:29:16.320593	19.9	20.2	-90.5	11.9
2025-01-04 13:29:17.473295	19.7	20.3	-91.0	7.6
2025-01-04 13:29:18.629537	19.5	20.3	-90.9	7.9
2025-01-04 13:29:19.790851	19.2	20.4	-90.7	8.6
2025-01-04 13:29:20.943363	19.0	20.5	-91.1	7.8
2025-01-04 13:29:22.103727	18.8	20.6	-90.7	8.2
2025-01-04 13:29:23.257730	18.5	20.7	-90.5	11.7
2025-01-04 13:29:24.415774	18.3	20.8	-91.0	8.9
2025-01-04 13:29:25.571200	18.1	20.8	-90.1	8.1
2025-01-04 13:29:26.725657	17.8	20.9	-90.7	10.0
2025-01-04 13:29:27.886391	17.6	21.0	-90.8	12.0
2025-01-04 13:29:29.042136	17.3	21.1	-90.7	5.9
2025-01-04 13:29:30.196823	17.1	21.2	-90.1	9.4
2025-01-04 13:29:31.347073	16.8	21.3	-90.7	7.2
2025-01-04 13:29:32.504011	16.6	21.3	-91.0	7.1
2025-01-04 13:29:33.666488	16.3	21.4	-91.2	7.1
2025-01-04 13:29:34.823864	16.1	21.5	-90.9	8.7
2025-01-04 13:29:35.980882	15.8	21.6	-90.5	7.0
2025-01-04 13:29:37.142161	15.6	21.7	-90.9	6.1
2025-01-04 13:29:38.306354	15.3	21.8	-90.5	8.4
2025-01-04 13:29:39.465374	15.1	21.8	-90.9	4.5
2025-01-04 13:29:40.619140	14.8	21.9	-91.2	4.9
2025-01-04 13:29:41.773295	14.6	22.0	-91.2	9.5
2025-01-04 13:29:42.930682	14.3	22.1	-91.5	10.3
2025-01-04 13:29:44.088053	14.0	22.1	-90.8	7.1
2025-01-04 13:29:45.245468	13.8	22.2	-90.9	9.2
2025-01-04 13:29:46.404115	13.5	22.3	-91.0	11.7
2025-01-04 13:29:47.566462	13.2	22.4	-91.1	12.3
2025-01-04 13:29:48.721738	13.0	22.5	-90.8	14.6
2025-01-04 13:29:49.883286	12.7	22.5	-91.1	13.5
2025-01-04 13:29:51.033456	12.4	22.6	-91.0	12.1
2025-01-04 13:29:52.190358	12.2	22.7	-90.5	8.3
2025-01-04 13:29:53.347082	11.9	22.8	-90.3	11.2
2025-01-04 13:29:54.501227	11.6	22.8	-91.1	8.2
2025-01-04 13:29:55.657195	11.4	22.9	-90.9	7.9
2025-01-04 13:29:56.815106	11.1	23.0	-90.9	13.2
2025-01-04 13:29:57.967284	10.8	23.1	-91.0	9.9
2025-01-04 13:29:59.132593	10.5	23.1	-90.8	9.6
2025-01-04 13:30:00.283578	10.2	23.2	-90.6	15.6
2025-01-04 13:30:01.447680	10.0	23.3	-91.2	14.3
2025-01-04 13:30:02.608067	9.7	23.3	-91.1	14.4
2025-01-04 13:30:03.765700	9.4	23.4	-91.0	16.2
2025-01-04 13:30:04.925055	9.1	23.5	-91.4	17.2
2025-01-04 13:30:06.083718	8.8	23.6	-91.0	11.3
2025-01-04 13:30:07.237788	8.5	23.6	-90.6	13.4
2025-01-04 13:30:08.391399	8.2	23.7	-91.0	17.9
2025-01-04 13:30:09.543846	8.0	23.8	-91.1	10.9
2025-01-04 13:30:10.697828	7.7	23.8	-91.1	13.3
2025-01-04 13:30:11.852095	7.4	23.9	-90.1	14.7
2025-01-04 13:30:13.012257	7.1	24.0	-90.8	11.7
2025-01-04 13:30:14.173158	6.8	24.0	-90.5	10.3
2025-01-04 13:30:15.327356	6.5	24.1	-90.5	13.8
2025-01-04 13:30:16.481119	6.2	24.1	-91.3	11.4
2025-01-04 13:30:17.635945	5.9	24.2	-91.1	13.4
2025-01-04 13:30:18.786715	5.6	24.3	-91.2	10.1
2025-01-04 13:30:19.944484	5.3	24.3	-91.3	11.3
2025-01-04 13:30:21.095989	5.0	24.4	-90.8	9.3
2025-01-04 13:30:22.258347	4.7	24.5	-90.7	10.7
2025-01-04 13:30:23.408647	4.4	24.5	-91.6	12.2
2025-01-04 13:30:24.563575	4.1	24.6	-91.1	8.0
2025-01-04 13:30:25.721209	3.8	24.6	-91.2	9.6
2025-01-04 13:30:26.879175	3.5	24.7	-91.2	13.0
2025-01-04 13:30:28.026975	3.2	24.7	-91.2	7.7
2025-01-04 13:30:29.184630	2.9	24.8	-90.9	10.1
2025-01-04 13:30:30.336754	2.5	24.8	-90.6	14.7
2025-01-04 13:30:31.488118	2.2	24.9	-91.4	11.2
2025-01-04 13:30:32.646059	1.9	25.0	-91.2	11.4
2025-01-04 13:30:33.803320	1.6	25.0	-91.2	13.7
2025-01-04 13:30:34.962448	1.3	25.1	-91.4	13.1
2025-01-04 13:30:36.119047	1.0	25.1	-91.0	15.5
2025-01-04 13:30:37.279429	0.7	25.2	-91.3	12.1
2025-01-04 13:30:38.427482	0.3	25.2	-90.9	14.3
2025-01-04 13:30:39.585286	0.0	25.3	-91.0	10.8
2025-01-04 13:30:40.738921	359.7	25.3	-91.5	14.9
2025-01-04 13:30:41.899443	359.4	25.3	-91.4	13.9
2025-01-04 13:30:43.053804	359.1	25.4	-91.3	8.7
2025-01-04 13:30:44.212910	358.7	25.4	-91.0	12.5
2025-01-04 13:30:45.363200	358.4	25.5	-91.2	14.0
2025-01-04 13:30:46.518687	358.1	25.5	-90.9	7.9
2025-01-04 13:30:47.676034	357.8	25.6	-91.1	9.9
2025-01-04 13:30:48.827298	357.4	25.6	-91.2	14.7
2025-01-04 13:30:49.984653	357.1	25.6	-91.1	11.1
2025-01-04 13:30:51.137152	356.8	25.7	-90.6	9.8
2025-01-04 13:30:52.296176	356.4	25.7	-90.9	16.0
2025-01-04 13:30:53.449938	356.1	25.7	-91.4	14.3
2025-01-04 13:30:54.602542	355.8	25.8	-91.4	14.5
2025-01-04 13:30:55.756445	355.5	25.8	-91.2	10.7
2025-01-04 13:30:56.910001	355.1	25.8	-91.0	12.4
2025-01-04 13:30:58.068915	354.8	25.9	-90.1	9.7
2025-01-04 13:30:59.233060	354.5	25.9	-90.5	11.9
2025-01-04 13:31:00.373969	354.1	25.9	-91.1	12.9
2025-01-04 13:31:01.533580	353.8	26.0	-91.1	11.2
2025-01-04 13:31:02.689925	353.5	26.0	-91.3	10.2
2025-01-04 13:31:03.845977	353.1	26.0	-91.5	12.4
2025-01-04 13:31:05.006636	352.8	26.1	-91.3	7.3
2025-01-04 13:31:06.166618	352.4	26.1	-91.1	5.9
2025-01-04 13:31:07.322473	352.1	26.1	-91.0	11.9
2025-01-04 13:31:08.482881	351.8	26.1	-91.2	7.7
2025-01-04 13:31:09.639479	351.4	26.1	-91.4	7.1
2025-01-04 13:31:10.797197	351.1	26.2	-91.6	13.9
2025-01-04 13:31:11.949400	350.8	26.2	-91.4	7.0
2025-01-04 13:31:13.102494	350.4	26.2	-91.1	8.2
2025-01-04 13:31:14.258384	350.1	26.2	-91.1	12.9
2025-01-04 13:31:15.418626	349.7	26.2	-91.1	12.7
2025-01-04 13:31:16.567836	349.4	26.2	-91.3	10.2
2025-01-04 13:31:17.730793	349.1	26.3	-90.8	10.1
2025-01-04 13:31:18.887309	348.7	26.3	-91.2	12.6
2025-01-04 13:31:20.039355	348.4	26.3	-91.1	9.2
2025-01-04 13:31:21.196727	348.0	26.3	-90.8	12.2
2025-01-04 13:31:22.347934	347.7	26.3	-90.7	13.0
2025-01-04 13:31:23.503603	347.4	26.3	-91.0	11.8
2025-01-04 13:31:24.652885	347.0	26.3	-91.2	11.0
2025-01-04 13:31:25.815257	346.7	26.3	-91.1	10.1
2025-01-04 13:31:26.967368	346.3	26.3	-90.8	11.9
2025-01-04 13:31:28.124724	346.0	26.3	-90.0	10.5
2025-01-04 13:31:29.290542	345.6	26.3	-90.9	14.2
2025-01-04 13:31:30.450045	345.3	26.3	-91.1	10.9
2025-01-04 13:31:31.607278	344.9	26.3	-90.1	9.5
2025-01-04 13:31:32.763901	344.6	26.3	-90.6	10.3
2025-01-04 13:31:33.925263	344.3	26.3	-90.4	10.6
2025-01-04 13:31:35.081284	343.9	26.3	-90.6	8.2
2025-01-04 13:31:36.242270	343.6	26.3	-90.7	6.3
2025-01-04 13:31:37.400365	343.2	26.3	-90.8	10.0
2025-01-04 13:31:38.560779	342.9	26.3	-90.8	7.4
2025-01-04 13:31:39.721557	342.5	26.3	-91.3	9.1
2025-01-04 13:31:40.879113	342.2	26.3	-91.2	12.2
2025-01-04 13:31:42.025634	341.9	26.3	-91.5	7.8
2025-01-04 13:31:43.184307	341.5	26.3	-91.2	8.9
2025-01-04 13:31:44.340490	341.2	26.3	-90.9	9.4
2025-01-04 13:31:45.493200	340.8	26.3	-90.6	9.4
2025-01-04 13:31:46.654438	340.5	26.2	-91.3	5.8
2025-01-04 13:31:47.809263	340.2	26.2	-91.6	10.9
2025-01-04 13:31:48.971381	339.8	26.2	-91.5	10.5
2025-01-04 13:31:50.122925	339.5	26.2	-91.1	7.4
2025-01-04 13:31:51.286402	339.1	26.2	-90.8	12.3
2025-01-04 13:31:52.443974	338.8	26.1	-90.4	13.4
2025-01-04 13:31:53.599792	338.5	26.1	-91.1	8.8
2025-01-04 13:31:54.768083	338.1	26.1	-91.1	12.6
2025-01-04 13:31:55.919890	337.8	26.1	-90.9	10.5
2025-01-04 13:31:57.076430	337.4	26.1	-91.3	9.3
2025-01-04 13:31:58.228937	337.1	26.0	-91.2	8.9
2025-01-04 13:31:59.385991	336.8	26.0	-90.9	11.7
2025-01-04 13:32:00.536744	336.4	26.0	-90.8	8.6
2025-01-04 13:32:01.692229	336.1	25.9	-91.4	11.9
2025-01-04 13:32:02.851263	335.8	25.9	-90.7	12.9
2025-01-04 13:32:03.988330	335.4	25.9	-91.2	10.8
2025-01-04 13:32:05.153243	335.1	25.9	-90.5	12.1
2025-01-04 13:32:06.307005	334.8	25.8	-90.8	8.3
2025-01-04 13:32:07.466641	334.4	25.8	-91.1	11.8
2025-01-04 13:32:08.625332	334.1	25.7	-90.8	11.7
2025-01-04 13:32:09.780300	333.8	25.7	-91.1	11.1
2025-01-04 13:32:10.938970	333.4	25.7	-91.0	8.0
2025-01-04 13:32:12.088825	333.1	25.6	-90.6	12.9
2025-01-04 13:32:13.245590	332.8	25.6	-91.1	11.9
2025-01-04 13:32:14.393324	332.5	25.6	-90.6	10.5
2025-01-04 13:32:15.550861	332.1	25.5	-90.0	11.2
2025-01-04 13:32:16.704958	331.8	25.5	-90.8	10.1
2025-01-04 13:32:17.855706	331.5	25.4	-90.4	12.0
2025-01-04 13:32:19.009613	331.2	25.4	-91.3	11.8
2025-01-04 13:32:20.170780	330.8	25.3	-90.7	12.6
2025-01-04 13:32:21.327566	330.5	25.3	-90.4	14.4
2025-01-04 13:32:22.486989	330.2	25.3	-91.1	15.1
2025-01-04 13:32:23.650296	329.9	25.2	-89.7	10.7
2025-01-04 13:32:24.819148	329.6	25.2	-90.4	13.7
2025-01-04 13:32:25.972765	329.2	25.1	-91.1	10.0
2025-01-04 13:32:27.130247	328.9	25.1	-90.5	11.2
2025-01-04 13:32:28.288862	328.6	25.0	-90.5	10.4
2025-01-04 13:32:29.445071	328.3	25.0	-91.2	13.8
2025-01-04 13:32:30.599525	328.0	24.9	-91.2	13.7
2025-01-04 13:32:31.760280	327.7	24.8	-91.1	13.1
2025-01-04 13:32:32.913431	327.4	24.8	-90.6	12.4
2025-01-04 13:32:34.075123	327.0	24.7	-91.1	9.3
2025-01-04 13:32:35.235640	326.7	24.7	-90.4	10.0
2025-01-04 13:32:36.392622	326.4	24.6	-87.8	9.0
2025-01-04 13:32:37.544023	326.1	24.6	-89.9	7.3
2025-01-04 13:32:38.708522	325.8	24.5	-91.4	11.1
2025-01-04 13:32:39.863173	325.5	24.5	-91.2	8.9
2025-01-04 13:32:41.023429	325.2	24.4	-91.6	12.2
2025-01-04 13:32:42.175981	324.9	24.3	-90.5	12.1
2025-01-04 13:32:43.330781	324.6	24.3	-90.8	12.8
2025-01-04 13:32:44.491136	324.3	24.2	-90.5	12.4
2025-01-04 13:32:45.647129	324.0	24.1	-90.4	8.4
2025-01-04 13:32:46.803974	323.7	24.1	-90.2	13.2
2025-01-04 13:32:47.969395	323.4	24.0	-91.3	11.2
2025-01-04 13:32:49.127352	323.1	23.9	-90.4	11.8
2025-01-04 13:32:50.276223	322.8	23.9	-90.0	10.5
2025-01-04 13:32:51.428113	322.5	23.8	-90.7	11.6
2025-01-04 13:32:52.582494	322.2	23.8	-90.8	8.2
2025-01-04 13:32:53.737655	321.9	23.7	-91.2	10.6
2025-01-04 13:32:54.889017	321.6	23.6	-91.4	13.4
2025-01-04 13:32:56.042982	321.4	23.5	-91.4	5.9
2025-01-04 13:32:57.197061	321.1	23.5	-90.8	5.8
2025-01-04 13:32:58.355142	320.8	23.4	-90.7	10.1
2025-01-04 13:32:59.502601	320.5	23.3	-90.8	5.4
2025-01-04 13:33:00.651996	320.2	23.3	-91.0	3.7
2025-01-04 13:33:01.813345	319.9	23.2	-91.2	7.6
2025-01-04 13:33:02.962556	319.7	23.1	-89.0	6.6
2025-01-04 13:33:04.116838	319.4	23.1	-89.4	4.9
2025-01-04 13:33:05.277219	319.1	23.0	-89.4	7.0
2025-01-04 13:33:06.426110	318.8	22.9	-89.8	5.4
2025-01-04 13:33:07.587340	318.5	22.8	-90.0	3.6
2025-01-04 13:33:08.747189	318.3	22.8	-89.8	6.9
2025-01-04 13:33:09.911995	318.0	22.7	-89.3	7.3
2025-01-04 13:33:11.073162	317.7	22.6	-89.6	4.7
2025-01-04 13:33:12.225323	317.5	22.5	-89.7	9.2
2025-01-04 13:33:13.377631	317.2	22.4	-90.1	4.9
2025-01-04 13:33:14.540640	316.9	22.4	-90.5	4.7
2025-01-04 13:33:15.690414	316.7	22.3	-89.8	7.5
2025-01-04 13:33:16.847653	316.4	22.2	-89.9	9.9
2025-01-04 13:33:18.008483	316.1	22.1	-90.3	5.4
2025-01-04 13:33:19.164506	315.9	22.1	-89.7	4.8
2025-01-04 13:33:20.321711	315.6	22.0	-90.9	8.1
2025-01-04 13:33:21.478026	315.3	21.9	-91.4	6.0
2025-01-04 13:33:22.627539	315.1	21.8	-90.0	5.8
2025-01-04 13:33:23.775671	314.8	21.7	-90.1	4.8
2025-01-04 13:33:24.936439	314.6	21.7	-90.1	6.1
2025-01-04 13:33:26.096574	314.3	21.6	-89.8	4.8
2025-01-04 13:33:27.251656	314.1	21.5	-90.1	5.9
2025-01-04 13:33:28.418154	313.8	21.4	-89.6	5.8
2025-01-04 13:33:29.582396	313.6	21.3	-90.0	4.5
2025-01-04 13:33:30.742939	313.3	21.2	-91.5	4.6
2025-01-04 13:33:31.902484	313.1	21.2	-91.3	6.9
2025-01-04 13:33:33.056807	312.8	21.1	-91.2	6.8
2025-01-04 13:33:34.210023	312.6	21.0	-91.2	4.8
2025-01-04 13:33:35.366123	312.3	20.9	-91.2	3.2
2025-01-04 13:33:36.524763	312.1	20.8	-91.5	5.3
2025-01-04 13:33:37.679391	311.8	20.7	-91.7	5.3
2025-01-04 13:33:38.837054	311.6	20.7	-91.6	3.3
2025-01-04 13:33:39.995449	311.4	20.6	-91.6	2.3
2025-01-04 13:33:41.153301	311.1	20.5	-91.3	4.8
2025-01-04 13:33:42.306412	310.9	20.4	-90.6	4.7
2025-01-04 13:33:43.458916	310.7	20.3	-91.4	5.2
2025-01-04 13:33:44.615048	310.4	20.2	-91.3	5.5
2025-01-04 13:33:45.775087	310.2	20.1	-91.4	6.1
2025-01-04 13:33:46.923605	310.0	20.1	-91.7	5.2
2025-01-04 13:33:48.083272	309.7	20.0	-91.2	5.3
2025-01-04 13:33:49.244445	309.5	19.9	-91.1	5.1
2025-01-04 13:33:50.393139	309.3	19.8	-91.5	7.6
2025-01-04 13:33:51.544470	309.1	19.7	-91.8	3.9
2025-01-04 13:33:52.700981	308.8	19.6	-91.6	3.5
2025-01-04 13:33:53.854103	308.6	19.5	-91.1	4.1
2025-01-04 13:33:55.011892	308.4	19.5	-91.3	4.1
2025-01-04 13:33:56.165023	308.2	19.4	-90.9	3.4
2025-01-04 13:33:57.320944	307.9	19.3	-90.6	5.3
2025-01-04 13:33:58.478235	307.7	19.2	-91.1	3.6
2025-01-04 13:33:59.632758	307.5	19.1	-91.1	6.6
2025-01-04 13:34:00.777621	307.3	19.0	-91.9	5.2
2025-01-04 13:34:01.934234	307.1	18.9	-91.1	5.8
2025-01-04 13:34:03.077298	306.9	18.8	-91.1	6.1
2025-01-04 13:34:04.238112	306.7	18.7	-90.5	6.8
2025-01-04 13:34:05.393289	306.5	18.7	-91.4	9.4
2025-01-04 13:34:06.543005	306.2	18.6	-91.4	7.0
2025-01-04 13:34:07.704783	306.0	18.5	-91.8	8.9
2025-01-04 13:34:08.869344	305.8	18.4	-91.7	6.7
2025-01-04 13:34:10.028139	305.6	18.3	-91.5	6.1
2025-01-04 13:34:11.193607	305.4	18.2	-90.9	7.2
2025-01-04 13:34:12.346847	305.2	18.1	-91.0	8.2
2025-01-04 13:34:13.502449	305.0	18.0	-91.5	5.5
2025-01-04 13:34:14.650739	304.8	17.9	-91.4	4.5
2025-01-04 13:34:15.805196	304.6	17.9	-91.5	8.6
2025-01-04 13:34:16.970916	304.4	17.8	-91.3	6.4
2025-01-04 13:34:18.129454	304.2	17.7	-91.4	8.2
2025-01-04 13:34:19.286618	304.0	17.6	-90.6	6.5
2025-01-04 13:34:20.447189	303.8	17.5	-91.7	7.4
2025-01-04 13:34:21.604864	303.6	17.4	-91.7	3.3
2025-01-04 13:34:22.760829	303.4	17.3	-91.1	11.5
2025-01-04 13:34:23.922523	303.2	17.2	-91.1	8.9
2025-01-04 13:34:25.090852	303.0	17.1	-90.8	7.4
2025-01-04 13:34:26.252358	302.9	17.1	-90.9	10.9
2025-01-04 13:34:27.414372	302.7	17.0	-91.3	12.7
2025-01-04 13:34:28.579111	302.5	16.9	-91.2	7.9
2025-01-04 13:34:29.740983	302.3	16.8	-90.6	5.5
2025-01-04 13:34:30.893771	302.1	16.7	-91.4	4.5
2025-01-04 13:34:32.047235	301.9	16.6	-91.5	12.9
2025-01-04 13:34:33.197947	301.7	16.5	-90.8	5.6
2025-01-04 13:34:34.356405	301.6	16.4	-91.3	8.8
2025-01-04 13:34:35.515615	301.4	16.3	-91.8	5.6
2025-01-04 13:34:36.675088	301.2	16.2	-91.5	7.0
2025-01-04 13:34:37.828747	301.0	16.2	-91.2	7.4
2025-01-04 13:34:38.989405	300.8	16.1	-91.3	6.0
2025-01-04 13:34:40.145408	300.7	16.0	-90.5	5.6
2025-01-04 13:34:41.306526	300.5	15.9	-91.1	6.3
2025-01-04 13:34:42.445694	300.3	15.8	-91.5	6.2
2025-01-04 13:34:43.600872	300.2	15.7	-91.7	3.6
2025-01-04 13:34:44.754869	300.0	15.6	-91.5	3.7
2025-01-04 13:34:45.913559	299.8	15.5	-91.6	10.1
2025-01-04 13:34:47.072427	299.6	15.4	-91.1	7.0
2025-01-04 13:34:48.233250	299.5	15.4	-90.8	7.1
2025-01-04 13:34:49.392519	299.3	15.3	-90.7	8.1
2025-01-04 13:34:50.551511	299.1	15.2	-91.2	11.1
2025-01-04 13:34:51.711368	299.0	15.1	-91.2	5.8
2025-01-04 13:34:52.867989	298.8	15.0	-91.7	10.8
2025-01-04 13:34:54.037592	298.6	14.9	-91.2	11.4
2025-01-04 13:34:55.194976	298.5	14.8	-90.7	6.9
2025-01-04 13:34:56.346447	298.3	14.7	-90.7	9.8
2025-01-04 13:34:57.507107	298.2	14.6	-91.8	6.9
2025-01-04 13:34:58.681182	298.0	14.6	-91.4	3.1
#Closed at: 2025-01-04 13:28:13.643832