passes_logs/2025/01/04/LEX_Murmansk/LEX_Murmansk__20250104_100654_NOAA_18_rec.log

#Pass ID: 20250104_100654_NOAA 18
#Satellite: NOAA 18
#Configuration: NOAA 18
#Start time: 2025-01-04 10:06:49.639096

#LorettStation: 1.0.0 05.05.2024
#Station: LEX_Murmansk
#Location: 33.156738 lon 68.926811 lat
#TLE: 1 28654U 05018A   25003.76610367  .00000568  00000+0  32493-3 0  9997
#TLE: 2 28654  98.8583  84.9311 0013827 211.1121 148.9234 14.13475198 11594

#Time	Az	El	Level	SNR
2025-01-04 10:07:01.768177	25.3	16.3	-90.4	8.1
2025-01-04 10:07:04.093780	25.3	16.6	-90.1	7.4
2025-01-04 10:07:06.422255	25.3	16.8	-91.9	7.2
2025-01-04 10:07:08.749178	25.2	17.1	-92.3	6.6
2025-01-04 10:07:11.073200	25.2	17.3	-92.1	7.9
2025-01-04 10:07:13.400580	25.2	17.6	-91.4	7.5
2025-01-04 10:07:15.724981	25.2	17.9	-91.9	7.3
2025-01-04 10:07:18.047032	25.2	18.2	-92.0	8.4
2025-01-04 10:07:20.370285	25.2	18.4	-91.6	10.6
2025-01-04 10:07:22.688162	25.2	18.7	-91.5	6.6
2025-01-04 10:07:25.011019	25.2	19.0	-92.1	9.6
2025-01-04 10:07:27.336902	25.2	19.3	-91.1	10.0
2025-01-04 10:07:29.663848	25.2	19.6	-92.0	11.5
2025-01-04 10:07:31.984611	25.2	19.9	-92.1	8.8
2025-01-04 10:07:34.313622	25.2	20.2	-91.8	10.0
2025-01-04 10:07:36.636932	25.2	20.5	-92.3	12.0
2025-01-04 10:07:38.954114	25.2	20.8	-92.3	7.7
2025-01-04 10:07:41.275116	25.2	21.1	-92.1	12.8
2025-01-04 10:07:43.594825	25.2	21.4	-91.9	12.6
2025-01-04 10:07:45.924572	25.2	21.7	-92.2	11.7
2025-01-04 10:07:48.252119	25.2	22.0	-91.5	16.2
2025-01-04 10:07:50.578212	25.2	22.3	-92.4	9.6
2025-01-04 10:07:52.905784	25.2	22.7	-92.5	8.1
2025-01-04 10:07:55.230105	25.2	23.0	-92.1	11.1
2025-01-04 10:07:57.534185	25.2	23.3	-91.8	7.7
2025-01-04 10:07:59.859124	25.2	23.7	-91.6	10.0
2025-01-04 10:08:02.169710	25.2	24.0	-91.7	10.8
2025-01-04 10:08:04.497529	25.1	24.4	-92.4	10.8
2025-01-04 10:08:06.825564	25.1	24.7	-92.2	6.6
2025-01-04 10:08:09.150956	25.1	25.1	-92.1	11.0
2025-01-04 10:08:11.477024	25.1	25.4	-92.2	8.7
2025-01-04 10:08:13.807335	25.1	25.8	-92.3	12.2
2025-01-04 10:08:16.130348	25.1	26.2	-92.1	7.6
2025-01-04 10:08:18.456671	25.1	26.6	-92.1	11.3
2025-01-04 10:08:20.777627	25.1	27.0	-91.5	16.8
2025-01-04 10:08:23.105484	25.1	27.3	-91.9	9.8
2025-01-04 10:08:25.437712	25.1	27.7	-91.0	12.6
2025-01-04 10:08:27.767379	25.0	28.1	-91.1	17.9
2025-01-04 10:08:30.089832	25.0	28.5	-92.2	7.4
2025-01-04 10:08:32.409554	25.0	29.0	-92.5	13.9
2025-01-04 10:08:34.745399	25.0	29.4	-92.1	15.6
2025-01-04 10:08:37.072169	25.0	29.8	-90.8	5.8
2025-01-04 10:08:39.397713	25.0	30.2	-90.9	8.8
2025-01-04 10:08:41.715905	25.0	30.7	-91.1	5.0
2025-01-04 10:08:44.046821	24.9	31.1	-92.5	5.8
2025-01-04 10:08:46.380069	24.9	31.6	-91.6	6.2
2025-01-04 10:08:48.714463	24.9	32.0	-92.6	9.3
2025-01-04 10:08:51.035064	24.9	32.5	-92.0	9.2
2025-01-04 10:08:53.376663	24.9	33.0	-91.9	13.7
2025-01-04 10:08:55.700906	24.9	33.5	-92.6	13.9
2025-01-04 10:08:58.022400	24.8	33.9	-92.5	9.9
2025-01-04 10:09:00.341236	24.8	34.4	-91.8	12.7
2025-01-04 10:09:02.668924	24.8	34.9	-92.2	6.9
2025-01-04 10:09:04.997419	24.8	35.5	-92.1	9.2
2025-01-04 10:09:07.316920	24.7	36.0	-91.9	7.9
2025-01-04 10:09:09.641094	24.7	36.5	-92.1	15.5
2025-01-04 10:09:11.960469	24.7	37.0	-92.2	12.8
2025-01-04 10:09:14.281521	24.6	37.6	-91.8	9.9
2025-01-04 10:09:16.605544	24.6	38.1	-92.0	20.2
2025-01-04 10:09:18.930043	24.6	38.7	-92.6	17.1
2025-01-04 10:09:21.246303	24.6	39.3	-91.6	15.9
2025-01-04 10:09:23.571777	24.5	39.9	-92.1	11.1
2025-01-04 10:09:25.900727	24.5	40.5	-91.9	18.1
2025-01-04 10:09:28.238924	24.4	41.1	-91.5	13.3
2025-01-04 10:09:30.560971	24.4	41.7	-92.5	18.7
2025-01-04 10:09:32.890061	24.4	42.3	-92.1	17.6
2025-01-04 10:09:35.233840	24.3	43.0	-91.9	15.1
2025-01-04 10:09:37.552487	24.3	43.6	-92.0	13.2
2025-01-04 10:09:39.870967	24.2	44.3	-92.5	12.5
2025-01-04 10:09:42.195302	24.2	44.9	-91.9	15.2
2025-01-04 10:09:44.518192	24.1	45.6	-92.3	15.2
2025-01-04 10:09:46.843466	24.1	46.3	-91.8	18.9
2025-01-04 10:09:49.169728	24.0	47.0	-90.4	14.2
2025-01-04 10:09:51.488568	23.9	47.7	-91.4	13.5
2025-01-04 10:09:53.810877	23.9	48.4	-91.8	11.4
2025-01-04 10:09:56.139054	23.8	49.2	-91.4	12.9
2025-01-04 10:09:58.471228	23.7	49.9	-92.0	7.7
2025-01-04 10:10:00.785086	23.7	50.7	-92.5	16.0
2025-01-04 10:10:03.117132	23.6	51.5	-92.1	10.5
2025-01-04 10:10:05.448969	23.5	52.3	-92.5	15.4
2025-01-04 10:10:07.763510	23.4	53.1	-92.4	11.8
2025-01-04 10:10:10.087226	23.3	53.9	-92.1	11.7
2025-01-04 10:10:12.422929	23.2	54.7	-91.5	14.8
2025-01-04 10:10:14.767981	23.1	55.6	-92.0	14.8
2025-01-04 10:10:17.090430	23.0	56.4	-91.7	15.2
2025-01-04 10:10:19.413902	22.8	57.3	-91.6	14.0
2025-01-04 10:10:21.736301	22.7	58.2	-92.1	10.5
2025-01-04 10:10:24.064423	22.5	59.1	-92.1	7.0
2025-01-04 10:10:26.397368	22.4	60.0	-92.0	12.4
2025-01-04 10:10:28.714966	22.2	60.9	-92.3	19.1
2025-01-04 10:10:31.030156	22.0	61.8	-92.4	20.6
2025-01-04 10:10:33.359820	21.8	62.8	-91.9	18.5
2025-01-04 10:10:35.688660	21.6	63.7	-92.5	12.5
2025-01-04 10:10:38.008118	21.4	64.7	-92.0	14.5
2025-01-04 10:10:40.341212	21.1	65.7	-92.2	22.2
2025-01-04 10:10:42.670987	20.8	66.7	-92.0	20.3
2025-01-04 10:10:45.011454	20.5	67.7	-92.1	19.7
2025-01-04 10:10:47.341139	20.2	68.7	-92.2	16.7
2025-01-04 10:10:49.671300	19.8	69.8	-91.6	9.1
2025-01-04 10:10:51.991858	19.4	70.8	-91.8	7.9
2025-01-04 10:10:54.319066	18.9	71.8	-91.5	11.9
2025-01-04 10:10:56.652997	18.3	72.9	-92.3	14.3
2025-01-04 10:10:58.979348	17.7	74.0	-91.8	16.6
2025-01-04 10:11:01.290035	17.0	75.0	-90.3	16.1
2025-01-04 10:11:03.622106	16.1	76.1	-92.4	14.8
2025-01-04 10:11:05.929739	15.2	77.2	-92.5	20.8
2025-01-04 10:11:08.247712	14.0	78.3	-91.9	20.9
2025-01-04 10:11:10.576291	12.5	79.4	-91.7	13.8
2025-01-04 10:11:12.897645	10.8	80.5	-92.1	20.0
2025-01-04 10:11:15.223411	8.5	81.6	-91.9	19.1
2025-01-04 10:11:17.548264	5.6	82.6	-91.6	20.9
2025-01-04 10:11:19.868950	1.7	83.7	-92.5	23.6
2025-01-04 10:11:22.185583	356.3	84.7	-91.5	22.8
2025-01-04 10:11:24.535261	348.3	85.7	-91.3	24.9
2025-01-04 10:11:26.860191	336.3	86.5	-91.9	24.1
2025-01-04 10:11:29.186313	318.4	87.1	-91.9	23.3
2025-01-04 10:11:31.514478	295.1	87.3	-92.7	20.9
2025-01-04 10:11:33.852308	272.5	87.0	-92.2	25.7
2025-01-04 10:11:36.183292	255.8	86.3	-92.2	18.4
2025-01-04 10:11:38.514152	244.7	85.5	-92.1	16.0
2025-01-04 10:11:40.836338	237.4	84.5	-92.2	23.6
2025-01-04 10:11:43.155543	232.4	83.5	-89.1	12.2
2025-01-04 10:11:45.487455	228.7	82.4	-90.7	12.4
2025-01-04 10:11:47.814987	225.9	81.3	-90.4	19.3
2025-01-04 10:11:50.131108	223.8	80.3	-90.9	11.5
2025-01-04 10:11:52.451183	222.1	79.2	-90.8	12.5
2025-01-04 10:11:54.777291	220.7	78.1	-91.1	19.3
2025-01-04 10:11:57.104299	219.6	77.0	-92.1	11.5
2025-01-04 10:11:59.427664	218.6	75.9	-92.2	13.2
2025-01-04 10:12:01.745437	217.8	74.8	-92.3	12.0
2025-01-04 10:12:04.074588	217.1	73.7	-92.7	12.2
2025-01-04 10:12:06.407600	216.5	72.7	-92.3	18.7
2025-01-04 10:12:08.739418	216.0	71.6	-92.6	17.5
2025-01-04 10:12:11.070888	215.5	70.5	-92.4	10.6
2025-01-04 10:12:13.393582	215.1	69.5	-91.9	18.2
2025-01-04 10:12:15.725844	214.7	68.5	-92.5	19.3
2025-01-04 10:12:18.054313	214.3	67.4	-92.2	11.0
2025-01-04 10:12:20.381711	214.0	66.4	-92.4	18.0
2025-01-04 10:12:22.706558	213.8	65.4	-92.3	20.1
2025-01-04 10:12:25.032869	213.5	64.4	-92.7	15.1
2025-01-04 10:12:27.354452	213.3	63.5	-92.1	20.2
2025-01-04 10:12:29.701731	213.1	62.5	-92.6	20.5
2025-01-04 10:12:32.021475	212.9	61.6	-92.9	19.2
2025-01-04 10:12:34.358595	212.7	60.6	-92.1	17.2
2025-01-04 10:12:36.684137	212.5	59.7	-91.6	19.9
2025-01-04 10:12:39.015179	212.4	58.8	-92.8	17.7
2025-01-04 10:12:41.356963	212.2	57.9	-92.1	15.2
2025-01-04 10:12:43.668051	212.1	57.0	-92.7	19.0
2025-01-04 10:12:45.995389	212.0	56.1	-92.3	15.9
2025-01-04 10:12:48.322810	211.8	55.3	-91.9	19.7
2025-01-04 10:12:50.651843	211.7	54.4	-92.8	11.7
2025-01-04 10:12:52.975725	211.6	53.6	-92.9	10.0
2025-01-04 10:12:55.304374	211.5	52.8	-92.4	16.6
2025-01-04 10:12:57.634740	211.4	52.0	-91.9	9.5
2025-01-04 10:12:59.953786	211.3	51.2	-91.2	12.8
2025-01-04 10:13:02.262139	211.3	50.4	-92.0	14.3
2025-01-04 10:13:04.585248	211.2	49.6	-92.4	14.1
2025-01-04 10:13:06.907201	211.1	48.9	-92.6	15.1
2025-01-04 10:13:09.230565	211.0	48.2	-90.8	13.1
2025-01-04 10:13:11.554754	211.0	47.4	-91.3	10.3
2025-01-04 10:13:13.881143	210.9	46.7	-89.9	11.1
2025-01-04 10:13:16.206669	210.9	46.0	-90.2	14.5
2025-01-04 10:13:18.539352	210.8	45.3	-90.9	11.0
2025-01-04 10:13:20.864625	210.8	44.6	-90.8	15.9
2025-01-04 10:13:23.184387	210.7	44.0	-91.8	15.2
2025-01-04 10:13:25.510198	210.7	43.3	-92.1	17.5
2025-01-04 10:13:27.842276	210.6	42.7	-91.3	18.8
2025-01-04 10:13:30.174341	210.6	42.0	-89.5	15.3
2025-01-04 10:13:32.491209	210.5	41.4	-93.0	9.2
2025-01-04 10:13:34.807843	210.5	40.8	-92.6	13.5
2025-01-04 10:13:37.142913	210.4	40.2	-92.4	6.6
2025-01-04 10:13:39.466598	210.4	39.6	-92.5	12.6
2025-01-04 10:13:41.794364	210.4	39.0	-92.2	15.8
2025-01-04 10:13:44.122648	210.3	38.4	-92.3	11.2
2025-01-04 10:13:46.456582	210.3	37.8	-92.6	15.7
2025-01-04 10:13:48.788449	210.3	37.3	-92.2	14.0
2025-01-04 10:13:51.115635	210.2	36.7	-92.4	10.5
2025-01-04 10:13:53.443996	210.2	36.2	-92.8	8.3
2025-01-04 10:13:55.769522	210.2	35.7	-89.5	9.2
2025-01-04 10:13:58.083802	210.2	35.2	-91.8	8.4
2025-01-04 10:14:00.397393	210.1	34.6	-92.5	5.4
2025-01-04 10:14:02.715387	210.1	34.1	-92.6	11.3
2025-01-04 10:14:05.039812	210.1	33.6	-92.3	9.2
2025-01-04 10:14:07.359274	210.1	33.2	-92.0	5.9
2025-01-04 10:14:09.690499	210.0	32.7	-92.4	8.1
2025-01-04 10:14:12.013804	210.0	32.2	-92.2	4.3
2025-01-04 10:14:14.331021	210.0	31.7	-91.9	4.1
2025-01-04 10:14:16.656986	210.0	31.3	-92.4	4.1
2025-01-04 10:14:18.983832	210.0	30.8	-92.2	5.9
2025-01-04 10:14:21.306071	210.0	30.4	-92.0	5.3
2025-01-04 10:14:23.630137	209.9	29.9	-92.7	5.3
2025-01-04 10:14:25.957440	209.9	29.5	-92.6	6.3
2025-01-04 10:14:28.279341	209.9	29.1	-92.0	7.7
2025-01-04 10:14:30.610952	209.9	28.7	-92.4	7.7
2025-01-04 10:14:32.942458	209.9	28.2	-91.8	8.1
2025-01-04 10:14:35.273273	209.9	27.8	-91.4	6.6
2025-01-04 10:14:37.600022	209.8	27.4	-92.5	3.9
2025-01-04 10:14:39.933999	209.8	27.0	-92.5	6.3
2025-01-04 10:14:42.257684	209.8	26.6	-91.1	6.8
2025-01-04 10:14:44.597995	209.8	26.3	-92.6	6.0
2025-01-04 10:14:46.923144	209.8	25.9	-92.6	8.6
2025-01-04 10:14:49.260351	209.8	25.5	-91.7	9.4
2025-01-04 10:14:51.580277	209.8	25.1	-92.3	7.9
2025-01-04 10:14:53.899934	209.8	24.8	-92.3	12.0
2025-01-04 10:14:56.227224	209.8	24.4	-92.3	9.3
2025-01-04 10:14:58.548494	209.8	24.1	-92.5	10.9
2025-01-04 10:15:00.860508	209.7	23.7	-93.0	14.1
2025-01-04 10:15:03.186714	209.7	23.4	-91.7	12.2
2025-01-04 10:15:05.509179	209.7	23.0	-92.7	10.2
2025-01-04 10:15:07.842785	209.7	22.7	-92.3	11.2
2025-01-04 10:15:10.172298	209.7	22.3	-91.5	5.0
2025-01-04 10:15:12.496554	209.7	22.0	-92.4	8.6
2025-01-04 10:15:14.821464	209.7	21.7	-92.5	9.3
2025-01-04 10:15:17.149710	209.7	21.4	-90.3	8.6
2025-01-04 10:15:19.472446	209.7	21.1	-91.0	8.1
2025-01-04 10:15:21.794005	209.7	20.7	-91.2	6.3
2025-01-04 10:15:24.124202	209.7	20.4	-90.5	4.4
2025-01-04 10:15:26.445760	209.7	20.1	-92.5	7.3
2025-01-04 10:15:28.781507	209.7	19.8	-92.4	8.1
2025-01-04 10:15:31.105218	209.7	19.5	-91.7	6.1
2025-01-04 10:15:33.431917	209.7	19.2	-90.8	4.6
2025-01-04 10:15:35.771799	209.7	18.9	-90.8	5.3
2025-01-04 10:15:38.104001	209.7	18.7	-90.7	5.0
2025-01-04 10:15:40.429539	209.6	18.4	-92.6	5.8
2025-01-04 10:15:42.762260	209.6	18.1	-90.8	4.4
2025-01-04 10:15:45.088141	209.6	17.8	-90.7	6.6
2025-01-04 10:15:47.416777	209.6	17.5	-90.7	5.8
2025-01-04 10:15:49.743822	209.6	17.3	-91.2	5.8
2025-01-04 10:15:52.068148	209.6	17.0	-91.8	4.6
2025-01-04 10:15:54.394527	209.6	16.7	-92.4	6.4
2025-01-04 10:15:56.733258	209.6	16.5	-92.4	4.0
2025-01-04 10:15:59.060039	209.6	16.2	-92.4	4.5
2025-01-04 10:16:01.375740	209.6	16.0	-91.8	5.1
2025-01-04 10:16:03.699028	209.6	15.7	-92.9	2.7
2025-01-04 10:16:06.027248	209.6	15.4	-92.7	3.1
2025-01-04 10:16:08.363653	209.6	15.2	-92.2	5.2
2025-01-04 10:16:10.691382	209.6	15.0	-92.8	5.3
2025-01-04 10:16:13.013390	209.6	14.7	-92.8	5.7
2025-01-04 10:16:15.333455	209.6	14.5	-92.4	4.5
#Closed at: 2025-01-04 10:06:54.558940