passes_logs/2025/01/04/LEX_Murmansk/LEX_Murmansk__20250104_150744_NOAA_18_rec.log

#Pass ID: 20250104_150744_NOAA 18
#Satellite: NOAA 18
#Configuration: NOAA 18
#Start time: 2025-01-04 15:07:39.410952

#LorettStation: 1.0.0 05.05.2024
#Station: LEX_Murmansk
#Location: 33.156738 lon 68.926811 lat
#TLE: 1 28654U 05018A   25003.76610367  .00000568  00000+0  32493-3 0  9997
#TLE: 2 28654  98.8583  84.9311 0013827 211.1121 148.9234 14.13475198 11594

#Time	Az	El	Level	SNR
2025-01-04 15:07:51.677816	51.9	15.9	-90.6	6.9
2025-01-04 15:07:52.842551	51.7	16.0	-90.2	8.2
2025-01-04 15:07:54.003333	51.5	16.1	-91.0	6.1
2025-01-04 15:07:55.166663	51.3	16.2	-90.7	6.3
2025-01-04 15:07:56.314880	51.1	16.2	-90.0	5.7
2025-01-04 15:07:57.474305	50.9	16.3	-90.8	6.6
2025-01-04 15:07:58.628142	50.8	16.4	-90.7	7.3
2025-01-04 15:07:59.797230	50.6	16.5	-90.9	10.2
2025-01-04 15:08:00.948735	50.4	16.6	-90.8	8.6
2025-01-04 15:08:02.108101	50.2	16.7	-90.9	5.5
2025-01-04 15:08:03.267610	50.0	16.8	-90.3	8.0
2025-01-04 15:08:04.428134	49.8	16.8	-90.5	8.2
2025-01-04 15:08:05.584707	49.6	16.9	-89.1	6.6
2025-01-04 15:08:06.732629	49.4	17.0	-89.8	9.7
2025-01-04 15:08:07.872618	49.2	17.1	-89.8	10.5
2025-01-04 15:08:09.034932	49.0	17.2	-89.8	7.5
2025-01-04 15:08:10.190932	48.8	17.3	-89.1	7.3
2025-01-04 15:08:11.345451	48.7	17.3	-88.9	5.3
2025-01-04 15:08:12.503056	48.5	17.4	-90.3	7.8
2025-01-04 15:08:13.663903	48.3	17.5	-90.2	9.8
2025-01-04 15:08:14.820861	48.1	17.6	-90.1	10.4
2025-01-04 15:08:15.979304	47.8	17.7	-91.0	6.8
2025-01-04 15:08:17.132147	47.6	17.8	-90.0	6.9
2025-01-04 15:08:18.288825	47.4	17.9	-90.2	8.2
2025-01-04 15:08:19.440987	47.2	17.9	-89.9	7.7
2025-01-04 15:08:20.602973	47.0	18.0	-90.9	6.8
2025-01-04 15:08:21.748412	46.8	18.1	-90.7	11.2
2025-01-04 15:08:22.913822	46.6	18.2	-91.2	11.0
2025-01-04 15:08:24.066003	46.4	18.3	-91.0	6.1
2025-01-04 15:08:25.222585	46.2	18.4	-90.4	8.6
2025-01-04 15:08:26.383279	46.0	18.4	-90.2	8.4
2025-01-04 15:08:27.546340	45.8	18.5	-91.0	5.1
2025-01-04 15:08:28.698553	45.5	18.6	-90.7	6.7
2025-01-04 15:08:29.857366	45.3	18.7	-90.8	11.5
2025-01-04 15:08:31.019944	45.1	18.8	-90.7	6.2
2025-01-04 15:08:32.177446	44.9	18.9	-90.5	7.8
2025-01-04 15:08:33.327430	44.7	18.9	-90.4	7.3
2025-01-04 15:08:34.493607	44.5	19.0	-90.5	10.6
2025-01-04 15:08:35.645046	44.2	19.1	-91.1	10.2
2025-01-04 15:08:36.801362	44.0	19.2	-90.8	8.0
2025-01-04 15:08:37.961419	43.8	19.3	-90.5	9.5
2025-01-04 15:08:39.127073	43.6	19.3	-89.9	5.8
2025-01-04 15:08:40.285766	43.3	19.4	-90.5	10.3
2025-01-04 15:08:41.438464	43.1	19.5	-90.2	10.7
2025-01-04 15:08:42.594304	42.9	19.6	-90.4	7.2
2025-01-04 15:08:43.755926	42.6	19.7	-90.4	6.4
2025-01-04 15:08:44.914254	42.4	19.7	-90.7	10.9
2025-01-04 15:08:46.071257	42.2	19.8	-90.2	8.9
2025-01-04 15:08:47.235009	41.9	19.9	-90.3	7.4
2025-01-04 15:08:48.397274	41.7	20.0	-90.5	10.3
2025-01-04 15:08:49.554639	41.5	20.1	-90.8	5.4
2025-01-04 15:08:50.710050	41.2	20.1	-90.7	8.6
2025-01-04 15:08:51.863502	41.0	20.2	-91.0	14.7
2025-01-04 15:08:53.021628	40.8	20.3	-90.7	7.2
2025-01-04 15:08:54.178739	40.5	20.4	-90.2	12.1
2025-01-04 15:08:55.344625	40.3	20.5	-90.5	12.4
2025-01-04 15:08:56.496951	40.0	20.5	-91.0	10.6
2025-01-04 15:08:57.659868	39.8	20.6	-90.6	8.9
2025-01-04 15:08:58.819384	39.5	20.7	-91.0	10.8
2025-01-04 15:08:59.973522	39.3	20.8	-90.2	11.8
2025-01-04 15:09:01.119119	39.0	20.8	-89.7	8.7
2025-01-04 15:09:02.280716	38.8	20.9	-90.5	9.4
2025-01-04 15:09:03.440435	38.5	21.0	-90.6	9.5
2025-01-04 15:09:04.598753	38.3	21.1	-91.0	8.6
2025-01-04 15:09:05.755810	38.0	21.1	-90.8	9.5
2025-01-04 15:09:06.911548	37.8	21.2	-90.0	7.5
2025-01-04 15:09:08.072312	37.5	21.3	-91.0	13.6
2025-01-04 15:09:09.234557	37.3	21.4	-90.6	10.5
2025-01-04 15:09:10.396269	37.0	21.4	-91.1	12.3
2025-01-04 15:09:11.558737	36.7	21.5	-91.0	10.3
2025-01-04 15:09:12.718953	36.5	21.6	-91.0	9.5
2025-01-04 15:09:13.878043	36.2	21.7	-91.1	10.2
2025-01-04 15:09:15.036028	35.9	21.7	-91.2	10.5
2025-01-04 15:09:16.193342	35.7	21.8	-90.5	8.6
2025-01-04 15:09:17.347574	35.4	21.9	-90.4	8.4
2025-01-04 15:09:18.516742	35.1	21.9	-91.1	6.1
2025-01-04 15:09:19.669906	34.9	22.0	-91.0	10.3
2025-01-04 15:09:20.831536	34.6	22.1	-89.6	9.9
2025-01-04 15:09:21.995097	34.3	22.1	-90.1	4.9
2025-01-04 15:09:23.148460	34.1	22.2	-91.0	7.0
2025-01-04 15:09:24.305250	33.8	22.3	-89.9	10.4
2025-01-04 15:09:25.463144	33.5	22.3	-90.3	13.8
2025-01-04 15:09:26.614393	33.2	22.4	-90.3	14.2
2025-01-04 15:09:27.780024	33.0	22.5	-91.0	14.7
2025-01-04 15:09:28.939023	32.7	22.5	-90.6	14.6
2025-01-04 15:09:30.100955	32.4	22.6	-90.2	10.7
2025-01-04 15:09:31.288796	32.1	22.7	-90.3	14.2
2025-01-04 15:09:32.450005	31.8	22.7	-90.5	10.0
2025-01-04 15:09:33.611932	31.5	22.8	-90.8	7.9
2025-01-04 15:09:34.771985	31.3	22.9	-91.1	11.3
2025-01-04 15:09:35.932865	31.0	22.9	-91.0	9.8
2025-01-04 15:09:37.090451	30.7	23.0	-90.3	11.4
2025-01-04 15:09:38.230422	30.4	23.0	-91.1	15.5
2025-01-04 15:09:39.366001	30.1	23.1	-90.2	12.9
2025-01-04 15:09:40.530632	29.8	23.2	-90.8	12.7
2025-01-04 15:09:41.682513	29.5	23.2	-90.8	16.0
2025-01-04 15:09:42.839482	29.2	23.3	-90.9	13.4
2025-01-04 15:09:43.994177	29.0	23.3	-91.0	15.6
2025-01-04 15:09:45.155802	28.7	23.4	-90.5	6.8
2025-01-04 15:09:46.313045	28.4	23.4	-90.0	12.1
2025-01-04 15:09:47.468706	28.1	23.5	-91.2	9.6
2025-01-04 15:09:48.621118	27.8	23.6	-91.2	7.7
2025-01-04 15:09:49.782793	27.5	23.6	-90.9	11.4
2025-01-04 15:09:50.936679	27.2	23.7	-91.1	8.7
2025-01-04 15:09:52.095826	26.9	23.7	-91.1	6.5
2025-01-04 15:09:53.250354	26.6	23.8	-90.7	13.9
2025-01-04 15:09:54.411715	26.3	23.8	-89.9	13.0
2025-01-04 15:09:55.567295	26.0	23.9	-89.4	7.2
2025-01-04 15:09:56.728208	25.7	23.9	-89.7	8.7
2025-01-04 15:09:57.880626	25.4	24.0	-89.9	12.9
2025-01-04 15:09:59.043480	25.0	24.0	-89.6	11.8
2025-01-04 15:10:00.199335	24.7	24.1	-89.2	12.6
2025-01-04 15:10:01.345060	24.4	24.1	-90.5	11.6
2025-01-04 15:10:02.507914	24.1	24.1	-90.7	16.0
2025-01-04 15:10:03.671479	23.8	24.2	-90.4	13.9
2025-01-04 15:10:04.827444	23.5	24.2	-90.5	13.4
2025-01-04 15:10:05.981631	23.2	24.3	-90.5	10.3
2025-01-04 15:10:07.142099	22.9	24.3	-90.4	8.7
2025-01-04 15:10:08.303293	22.6	24.4	-90.5	15.0
2025-01-04 15:10:09.455153	22.3	24.4	-90.1	9.4
2025-01-04 15:10:10.618764	21.9	24.4	-90.3	9.9
2025-01-04 15:10:11.774779	21.6	24.5	-91.3	13.8
2025-01-04 15:10:12.938982	21.3	24.5	-90.4	12.0
2025-01-04 15:10:14.094152	21.0	24.5	-90.4	10.0
2025-01-04 15:10:15.253171	20.7	24.6	-90.9	12.9
2025-01-04 15:10:16.411894	20.4	24.6	-91.2	11.8
2025-01-04 15:10:17.570487	20.0	24.6	-90.7	13.1
2025-01-04 15:10:18.732015	19.7	24.7	-91.2	12.4
2025-01-04 15:10:19.897202	19.4	24.7	-91.4	12.8
2025-01-04 15:10:21.057659	19.1	24.7	-90.8	12.6
2025-01-04 15:10:22.219779	18.7	24.8	-90.8	11.3
2025-01-04 15:10:23.372881	18.4	24.8	-90.9	12.2
2025-01-04 15:10:24.540249	18.1	24.8	-91.3	9.4
2025-01-04 15:10:25.694806	17.8	24.9	-91.1	11.9
2025-01-04 15:10:26.869621	17.4	24.9	-90.7	11.8
2025-01-04 15:10:28.027482	17.1	24.9	-91.3	8.0
2025-01-04 15:10:29.175831	16.8	24.9	-90.7	7.9
2025-01-04 15:10:30.333387	16.5	24.9	-90.8	10.1
2025-01-04 15:10:31.486016	16.2	25.0	-90.7	7.4
2025-01-04 15:10:32.642653	15.8	25.0	-91.1	7.1
2025-01-04 15:10:33.809199	15.5	25.0	-90.8	9.0
2025-01-04 15:10:34.967619	15.2	25.0	-91.1	7.8
2025-01-04 15:10:36.135294	14.8	25.0	-89.5	7.4
2025-01-04 15:10:37.287719	14.5	25.1	-90.7	8.1
2025-01-04 15:10:38.452031	14.2	25.1	-90.6	7.3
2025-01-04 15:10:39.613437	13.9	25.1	-91.1	8.4
2025-01-04 15:10:40.771064	13.5	25.1	-90.9	11.5
2025-01-04 15:10:41.928625	13.2	25.1	-91.0	8.4
2025-01-04 15:10:43.081864	12.9	25.1	-90.8	7.1
2025-01-04 15:10:44.236546	12.5	25.1	-90.8	11.1
2025-01-04 15:10:45.397256	12.2	25.1	-91.3	12.5
2025-01-04 15:10:46.548688	11.9	25.2	-91.2	11.7
2025-01-04 15:10:47.709097	11.6	25.2	-91.1	10.8
2025-01-04 15:10:48.861630	11.2	25.2	-90.4	12.3
2025-01-04 15:10:50.013874	10.9	25.2	-90.6	11.9
2025-01-04 15:10:51.171890	10.6	25.2	-90.4	9.2
2025-01-04 15:10:52.337433	10.2	25.2	-90.4	10.1
2025-01-04 15:10:53.493336	9.9	25.2	-91.0	8.9
2025-01-04 15:10:54.647745	9.6	25.2	-90.6	9.0
2025-01-04 15:10:55.809767	9.2	25.2	-90.4	10.5
2025-01-04 15:10:56.963497	8.9	25.2	-90.6	10.6
2025-01-04 15:10:58.120151	8.6	25.2	-89.5	9.3
2025-01-04 15:10:59.277290	8.3	25.2	-90.6	10.9
2025-01-04 15:11:00.426044	7.9	25.2	-90.9	10.5
2025-01-04 15:11:01.591876	7.6	25.2	-91.4	10.5
2025-01-04 15:11:02.748728	7.3	25.2	-91.6	12.4
2025-01-04 15:11:03.910039	6.9	25.1	-91.5	12.6
2025-01-04 15:11:05.067243	6.6	25.1	-91.0	8.4
2025-01-04 15:11:06.227062	6.3	25.1	-90.9	10.4
2025-01-04 15:11:07.382182	5.9	25.1	-91.3	12.2
2025-01-04 15:11:08.540846	5.6	25.1	-91.5	9.1
2025-01-04 15:11:09.704454	5.3	25.1	-91.8	14.5
2025-01-04 15:11:10.865600	5.0	25.1	-91.3	12.0
2025-01-04 15:11:12.029084	4.6	25.1	-91.4	8.1
2025-01-04 15:11:13.186619	4.3	25.1	-91.0	11.2
2025-01-04 15:11:14.342995	4.0	25.0	-90.9	15.9
2025-01-04 15:11:15.498548	3.6	25.0	-91.4	8.2
2025-01-04 15:11:16.655103	3.3	25.0	-91.3	10.7
2025-01-04 15:11:17.812829	3.0	25.0	-91.4	11.4
2025-01-04 15:11:18.968418	2.7	25.0	-91.5	9.0
2025-01-04 15:11:20.124680	2.3	24.9	-89.8	8.9
2025-01-04 15:11:21.282258	2.0	24.9	-89.9	13.8
2025-01-04 15:11:22.437202	1.7	24.9	-90.3	9.2
2025-01-04 15:11:23.595540	1.4	24.9	-90.3	10.1
2025-01-04 15:11:24.754014	1.0	24.8	-90.0	13.1
2025-01-04 15:11:25.911695	0.7	24.8	-90.5	9.0
2025-01-04 15:11:27.066040	0.4	24.8	-90.0	9.3
2025-01-04 15:11:28.225211	0.1	24.8	-89.8	12.7
2025-01-04 15:11:29.379208	359.7	24.7	-89.7	10.5
2025-01-04 15:11:30.537404	359.4	24.7	-89.4	9.2
2025-01-04 15:11:31.699478	359.1	24.7	-89.3	11.9
2025-01-04 15:11:32.857025	358.8	24.6	-89.5	12.6
2025-01-04 15:11:34.011725	358.5	24.6	-89.6	11.2
2025-01-04 15:11:35.171475	358.1	24.6	-89.1	13.5
2025-01-04 15:11:36.334681	357.8	24.5	-90.5	17.0
2025-01-04 15:11:37.494084	357.5	24.5	-90.9	12.9
2025-01-04 15:11:38.652394	357.2	24.4	-90.8	16.3
2025-01-04 15:11:39.809213	356.9	24.4	-89.5	14.1
2025-01-04 15:11:40.970819	356.6	24.4	-91.2	15.1
2025-01-04 15:11:42.129152	356.3	24.3	-90.8	14.4
2025-01-04 15:11:43.291569	355.9	24.3	-89.3	13.0
2025-01-04 15:11:44.458364	355.6	24.2	-91.0	13.5
2025-01-04 15:11:45.608842	355.3	24.2	-90.7	14.7
2025-01-04 15:11:46.770935	355.0	24.2	-90.9	14.4
2025-01-04 15:11:47.925147	354.7	24.1	-91.0	15.2
2025-01-04 15:11:49.086763	354.4	24.1	-91.4	16.0
2025-01-04 15:11:50.249145	354.1	24.0	-90.4	16.9
2025-01-04 15:11:51.414305	353.8	24.0	-90.9	17.2
2025-01-04 15:11:52.573138	353.5	23.9	-91.2	17.6
2025-01-04 15:11:53.741529	353.2	23.9	-91.2	16.2
2025-01-04 15:11:54.898474	352.8	23.8	-90.9	13.0
2025-01-04 15:11:56.058656	352.5	23.8	-90.5	12.2
2025-01-04 15:11:57.213416	352.2	23.7	-90.8	16.4
2025-01-04 15:11:58.372540	351.9	23.7	-91.1	14.3
2025-01-04 15:11:59.531339	351.6	23.6	-91.4	13.9
2025-01-04 15:12:00.676104	351.3	23.6	-91.4	10.7
2025-01-04 15:12:01.834365	351.0	23.5	-90.7	13.4
2025-01-04 15:12:02.992302	350.7	23.5	-91.3	8.1
2025-01-04 15:12:04.146112	350.5	23.4	-91.0	12.6
2025-01-04 15:12:05.315430	350.2	23.4	-90.9	14.1
2025-01-04 15:12:06.474399	349.9	23.3	-91.1	13.9
2025-01-04 15:12:07.637072	349.6	23.2	-90.4	12.1
2025-01-04 15:12:08.794750	349.3	23.2	-91.1	14.7
2025-01-04 15:12:09.953618	349.0	23.1	-91.1	12.8
2025-01-04 15:12:11.131727	348.7	23.1	-91.1	10.1
2025-01-04 15:12:12.290026	348.4	23.0	-90.9	12.2
2025-01-04 15:12:13.452470	348.1	22.9	-91.2	12.8
2025-01-04 15:12:14.605927	347.8	22.9	-91.5	10.9
2025-01-04 15:12:15.763750	347.5	22.8	-90.9	11.6
2025-01-04 15:12:16.921711	347.3	22.8	-91.2	10.3
2025-01-04 15:12:18.083786	347.0	22.7	-91.2	9.0
2025-01-04 15:12:19.237783	346.7	22.6	-90.4	8.9
2025-01-04 15:12:20.406945	346.4	22.6	-91.0	10.2
2025-01-04 15:12:21.567377	346.1	22.5	-90.7	9.2
2025-01-04 15:12:22.732128	345.8	22.4	-89.8	9.3
2025-01-04 15:12:23.890670	345.6	22.4	-90.4	14.6
2025-01-04 15:12:25.052339	345.3	22.3	-90.9	8.2
2025-01-04 15:12:26.213274	345.0	22.2	-90.8	13.9
2025-01-04 15:12:27.368871	344.7	22.2	-90.8	13.5
2025-01-04 15:12:28.527788	344.5	22.1	-89.9	8.4
2025-01-04 15:12:29.687458	344.2	22.0	-90.9	14.2
2025-01-04 15:12:30.848877	343.9	22.0	-91.0	13.7
2025-01-04 15:12:32.005669	343.7	21.9	-90.4	6.0
2025-01-04 15:12:33.164484	343.4	21.8	-90.5	9.9
2025-01-04 15:12:34.321062	343.1	21.7	-90.8	16.8
2025-01-04 15:12:35.483902	342.9	21.7	-90.8	6.9
2025-01-04 15:12:36.647581	342.6	21.6	-91.0	8.2
2025-01-04 15:12:37.802611	342.3	21.5	-90.9	13.9
2025-01-04 15:12:38.961818	342.1	21.5	-91.0	7.7
2025-01-04 15:12:40.122907	341.8	21.4	-90.8	6.9
2025-01-04 15:12:41.284535	341.6	21.3	-90.2	10.8
2025-01-04 15:12:42.445915	341.3	21.2	-90.7	5.6
2025-01-04 15:12:43.605723	341.0	21.2	-91.1	7.9
2025-01-04 15:12:44.772222	340.8	21.1	-90.6	10.8
2025-01-04 15:12:45.923609	340.5	21.0	-91.0	7.9
2025-01-04 15:12:47.084471	340.3	20.9	-90.7	9.3
2025-01-04 15:12:48.243812	340.0	20.9	-90.6	10.2
2025-01-04 15:12:49.406959	339.8	20.8	-91.0	9.6
2025-01-04 15:12:50.570561	339.5	20.7	-91.2	10.5
2025-01-04 15:12:51.727418	339.3	20.6	-91.0	8.2
2025-01-04 15:12:52.885608	339.0	20.6	-91.2	9.5
2025-01-04 15:12:54.042738	338.8	20.5	-89.9	7.9
2025-01-04 15:12:55.200196	338.5	20.4	-89.3	8.7
2025-01-04 15:12:56.361319	338.3	20.3	-90.2	9.5
2025-01-04 15:12:57.513182	338.1	20.2	-90.5	7.3
2025-01-04 15:12:58.676757	337.8	20.2	-89.2	8.1
2025-01-04 15:12:59.840093	337.6	20.1	-89.7	5.9
2025-01-04 15:13:00.993275	337.3	20.0	-89.9	5.9
2025-01-04 15:13:02.146736	337.1	19.9	-91.5	4.8
2025-01-04 15:13:03.313941	336.9	19.8	-90.7	8.5
2025-01-04 15:13:04.471118	336.6	19.8	-91.5	7.7
2025-01-04 15:13:05.632822	336.4	19.7	-91.0	6.2
2025-01-04 15:13:06.792385	336.2	19.6	-91.4	3.8
2025-01-04 15:13:07.946794	335.9	19.5	-91.5	4.4
2025-01-04 15:13:09.108517	335.7	19.4	-90.9	6.2
2025-01-04 15:13:10.260888	335.5	19.4	-90.7	6.4
2025-01-04 15:13:11.422225	335.2	19.3	-90.7	4.9
2025-01-04 15:13:12.587824	335.0	19.2	-91.2	4.3
2025-01-04 15:13:13.764316	334.8	19.1	-90.4	6.1
2025-01-04 15:13:14.922996	334.6	19.0	-91.5	6.4
2025-01-04 15:13:16.081024	334.3	18.9	-90.9	6.5
2025-01-04 15:13:17.237633	334.1	18.9	-91.2	9.0
2025-01-04 15:13:18.389289	333.9	18.8	-91.0	9.2
2025-01-04 15:13:19.546250	333.7	18.7	-90.7	5.4
2025-01-04 15:13:20.700316	333.5	18.6	-90.8	8.1
2025-01-04 15:13:21.856255	333.3	18.5	-91.3	9.1
2025-01-04 15:13:23.008904	333.0	18.4	-91.2	8.1
2025-01-04 15:13:24.161345	332.8	18.4	-91.3	6.7
2025-01-04 15:13:25.317435	332.6	18.3	-91.1	7.8
2025-01-04 15:13:26.470878	332.4	18.2	-91.4	4.6
2025-01-04 15:13:27.627010	332.2	18.1	-91.4	4.8
2025-01-04 15:13:28.781346	332.0	18.0	-90.8	6.3
2025-01-04 15:13:29.944913	331.8	17.9	-90.6	2.7
2025-01-04 15:13:31.100761	331.6	17.9	-90.5	6.2
2025-01-04 15:13:32.259229	331.4	17.8	-90.0	3.9
2025-01-04 15:13:33.415658	331.2	17.7	-90.4	3.9
2025-01-04 15:13:34.573310	331.0	17.6	-90.5	4.3
2025-01-04 15:13:35.726254	330.8	17.5	-91.7	5.4
2025-01-04 15:13:36.888096	330.6	17.4	-91.8	5.1
2025-01-04 15:13:38.041754	330.4	17.4	-91.8	4.9
2025-01-04 15:13:39.199651	330.2	17.3	-91.3	5.4
2025-01-04 15:13:40.352863	330.0	17.2	-91.1	6.9
2025-01-04 15:13:41.513734	329.8	17.1	-91.5	4.5
2025-01-04 15:13:42.670195	329.6	17.0	-91.7	4.5
2025-01-04 15:13:43.831065	329.4	16.9	-91.2	3.8
2025-01-04 15:13:44.986851	329.2	16.8	-90.5	6.7
2025-01-04 15:13:46.144889	329.0	16.8	-91.4	3.3
2025-01-04 15:13:47.302760	328.8	16.7	-90.9	5.2
2025-01-04 15:13:48.459908	328.6	16.6	-91.1	6.3
2025-01-04 15:13:49.618694	328.4	16.5	-91.0	5.1
2025-01-04 15:13:50.778831	328.2	16.4	-91.1	4.2
2025-01-04 15:13:51.941278	328.0	16.3	-90.8	9.8
2025-01-04 15:13:53.103825	327.9	16.2	-91.0	8.1
2025-01-04 15:13:54.266760	327.7	16.2	-90.9	6.3
2025-01-04 15:13:55.422577	327.5	16.1	-91.3	9.5
2025-01-04 15:13:56.577550	327.3	16.0	-90.9	6.5
2025-01-04 15:13:57.736612	327.1	15.9	-91.1	10.4
2025-01-04 15:13:58.892555	326.9	15.8	-90.9	10.7
2025-01-04 15:14:00.054269	326.8	15.7	-91.4	6.9
2025-01-04 15:14:01.198107	326.6	15.6	-91.0	7.9
2025-01-04 15:14:02.358513	326.4	15.6	-90.2	7.1
2025-01-04 15:14:03.515215	326.2	15.5	-91.2	7.1
2025-01-04 15:14:04.673045	326.1	15.4	-91.5	4.3
2025-01-04 15:14:05.831139	325.9	15.3	-90.4	6.0
2025-01-04 15:14:06.990261	325.7	15.2	-91.6	5.5
2025-01-04 15:14:08.146747	325.5	15.1	-91.3	8.1
2025-01-04 15:14:09.303842	325.4	15.0	-91.2	7.9
2025-01-04 15:14:10.460918	325.2	15.0	-91.4	4.6
2025-01-04 15:14:11.623390	325.0	14.9	-91.5	4.6
2025-01-04 15:14:12.784575	324.9	14.8	-91.6	6.6
2025-01-04 15:14:13.945557	324.7	14.7	-91.6	6.7
2025-01-04 15:14:15.105939	324.5	14.6	-89.9	6.0
#Closed at: 2025-01-04 15:07:44.462199