passes_logs/2025/01/04/LEX_Murmansk/LEX_Murmansk__20250104_130019_NOAA_19_rec.log

#Pass ID: 20250104_130019_NOAA 19
#Satellite: NOAA 19
#Configuration: NOAA 19
#Start time: 2025-01-04 13:00:14.190630

#LorettStation: 1.0.0 05.05.2024
#Station: LEX_Murmansk
#Location: 33.156738 lon 68.926811 lat
#TLE: 1 33591U 09005A   25003.74725296  .00000502  00000+0  29188-3 0  9994
#TLE: 2 33591  99.0215  67.4219 0014696  87.4906 272.7948 14.13249552819955

#Time	Az	El	Level	SNR
2025-01-04 13:00:26.447119	36.6	15.9	-91.7	3.0
2025-01-04 13:00:27.604058	36.4	16.0	-91.5	4.0
2025-01-04 13:00:28.762228	36.2	16.1	-91.4	1.7
2025-01-04 13:00:29.918408	36.0	16.1	-91.4	3.4
2025-01-04 13:00:31.078448	35.9	16.2	-91.2	1.6
2025-01-04 13:00:32.240250	35.7	16.3	-91.3	3.0
2025-01-04 13:00:33.393248	35.5	16.4	-91.6	1.0
2025-01-04 13:00:34.556112	35.3	16.5	-91.7	2.9
2025-01-04 13:00:35.719826	35.1	16.6	-92.0	1.7
2025-01-04 13:00:36.879719	34.9	16.7	-92.0	1.4
2025-01-04 13:00:38.040816	34.7	16.7	-92.2	2.0
2025-01-04 13:00:39.208893	34.5	16.8	-91.2	2.2
2025-01-04 13:00:40.367978	34.3	16.9	-91.0	1.9
2025-01-04 13:00:41.531926	34.1	17.0	-91.8	4.6
2025-01-04 13:00:42.690631	33.9	17.1	-91.7	2.9
2025-01-04 13:00:43.848606	33.7	17.2	-91.8	5.1
2025-01-04 13:00:45.014244	33.5	17.2	-91.8	5.8
2025-01-04 13:00:46.167467	33.3	17.3	-91.6	3.7
2025-01-04 13:00:47.330551	33.1	17.4	-91.6	5.1
2025-01-04 13:00:48.485060	32.9	17.5	-91.4	2.8
2025-01-04 13:00:49.647055	32.7	17.6	-91.4	4.0
2025-01-04 13:00:50.807949	32.4	17.7	-91.8	2.2
2025-01-04 13:00:51.988882	32.2	17.7	-91.9	4.5
2025-01-04 13:00:53.148766	32.0	17.8	-91.5	2.5
2025-01-04 13:00:54.305051	31.8	17.9	-91.6	3.8
2025-01-04 13:00:55.456015	31.6	18.0	-92.2	3.0
2025-01-04 13:00:56.616140	31.4	18.1	-92.1	5.5
2025-01-04 13:00:57.768627	31.2	18.2	-92.3	3.6
2025-01-04 13:00:58.928373	30.9	18.2	-91.5	1.5
2025-01-04 13:01:00.078024	30.7	18.3	-91.8	1.9
2025-01-04 13:01:01.225936	30.5	18.4	-91.7	1.1
2025-01-04 13:01:02.384858	30.3	18.5	-91.9	1.2
2025-01-04 13:01:03.543730	30.1	18.6	-91.8	3.4
2025-01-04 13:01:04.707969	29.8	18.6	-92.0	4.8
2025-01-04 13:01:05.868105	29.6	18.7	-89.2	4.5
2025-01-04 13:01:07.029885	29.4	18.8	-89.3	7.0
2025-01-04 13:01:08.189969	29.2	18.9	-88.6	6.0
2025-01-04 13:01:09.354515	28.9	19.0	-88.8	6.5
2025-01-04 13:01:10.512995	28.7	19.1	-89.0	6.5
2025-01-04 13:01:11.674158	28.5	19.1	-89.2	4.6
2025-01-04 13:01:12.842287	28.2	19.2	-89.4	3.9
2025-01-04 13:01:14.000989	28.0	19.3	-89.7	6.1
2025-01-04 13:01:15.164498	27.8	19.4	-89.6	6.5
2025-01-04 13:01:16.329156	27.5	19.5	-89.4	4.8
2025-01-04 13:01:17.480707	27.3	19.5	-89.6	6.6
2025-01-04 13:01:18.641752	27.1	19.6	-89.0	4.4
2025-01-04 13:01:19.797505	26.8	19.7	-88.7	6.0
2025-01-04 13:01:20.955982	26.6	19.8	-89.0	5.3
2025-01-04 13:01:22.121177	26.3	19.8	-88.6	5.0
2025-01-04 13:01:23.281791	26.1	19.9	-88.6	1.7
2025-01-04 13:01:24.440074	25.8	20.0	-88.9	3.0
2025-01-04 13:01:25.606424	25.6	20.1	-88.9	5.0
2025-01-04 13:01:26.765048	25.3	20.2	-89.4	2.4
2025-01-04 13:01:27.924583	25.1	20.2	-89.3	6.5
2025-01-04 13:01:29.088852	24.8	20.3	-89.1	4.6
2025-01-04 13:01:30.249689	24.6	20.4	-89.2	5.0
2025-01-04 13:01:31.408381	24.3	20.5	-89.0	6.4
2025-01-04 13:01:32.565331	24.1	20.5	-89.4	7.2
2025-01-04 13:01:33.719137	23.8	20.6	-89.6	7.5
2025-01-04 13:01:34.879471	23.6	20.7	-89.3	6.3
2025-01-04 13:01:36.036939	23.3	20.7	-89.5	6.3
2025-01-04 13:01:37.195718	23.1	20.8	-90.0	6.2
2025-01-04 13:01:38.354430	22.8	20.9	-89.3	3.9
2025-01-04 13:01:39.513512	22.5	21.0	-88.4	6.7
2025-01-04 13:01:40.671232	22.3	21.0	-89.2	6.8
2025-01-04 13:01:41.828278	22.0	21.1	-88.9	4.5
2025-01-04 13:01:42.982055	21.8	21.2	-89.3	6.4
2025-01-04 13:01:44.144228	21.5	21.3	-88.8	6.8
2025-01-04 13:01:45.305686	21.2	21.3	-88.6	6.2
2025-01-04 13:01:46.466019	21.0	21.4	-89.8	6.8
2025-01-04 13:01:47.629048	20.7	21.5	-89.9	5.9
2025-01-04 13:01:48.782324	20.4	21.5	-90.1	3.8
2025-01-04 13:01:49.941226	20.1	21.6	-90.2	2.2
2025-01-04 13:01:51.100972	19.9	21.7	-89.1	3.1
2025-01-04 13:01:52.262210	19.6	21.7	-89.4	2.6
2025-01-04 13:01:53.418144	19.3	21.8	-89.9	2.0
2025-01-04 13:01:54.583070	19.0	21.9	-90.3	2.0
2025-01-04 13:01:55.750956	18.8	21.9	-90.3	3.5
2025-01-04 13:01:56.919408	18.5	22.0	-89.7	5.5
2025-01-04 13:01:58.078721	18.2	22.1	-89.8	4.8
2025-01-04 13:01:59.238432	17.9	22.1	-89.9	6.6
2025-01-04 13:02:00.385605	17.6	22.2	-90.0	5.3
2025-01-04 13:02:01.544243	17.4	22.2	-89.6	8.3
2025-01-04 13:02:02.704070	17.1	22.3	-89.5	7.1
2025-01-04 13:02:03.847812	16.8	22.4	-89.7	6.7
2025-01-04 13:02:05.008926	16.5	22.4	-90.0	9.2
2025-01-04 13:02:06.173214	16.2	22.5	-89.5	3.3
2025-01-04 13:02:07.331393	15.9	22.6	-89.3	2.9
2025-01-04 13:02:08.486750	15.6	22.6	-89.4	3.0
2025-01-04 13:02:09.649716	15.3	22.7	-89.1	3.6
2025-01-04 13:02:10.800711	15.1	22.7	-89.2	0.3
2025-01-04 13:02:11.965605	14.8	22.8	-89.6	5.1
2025-01-04 13:02:13.129023	14.5	22.8	-88.8	5.1
2025-01-04 13:02:14.284470	14.2	22.9	-88.7	7.3
2025-01-04 13:02:15.450162	13.9	22.9	-88.7	6.9
2025-01-04 13:02:16.611477	13.6	23.0	-89.5	10.6
2025-01-04 13:02:17.763508	13.3	23.1	-89.8	9.7
2025-01-04 13:02:18.931820	13.0	23.1	-89.3	7.7
2025-01-04 13:02:20.086432	12.7	23.2	-89.2	6.4
2025-01-04 13:02:21.250055	12.4	23.2	-88.7	5.0
2025-01-04 13:02:22.410261	12.1	23.3	-89.0	4.7
2025-01-04 13:02:23.565744	11.8	23.3	-89.3	3.3
2025-01-04 13:02:24.727422	11.5	23.4	-89.1	2.4
2025-01-04 13:02:25.887967	11.2	23.4	-89.6	3.3
2025-01-04 13:02:27.048831	10.9	23.5	-89.3	5.2
2025-01-04 13:02:28.212782	10.5	23.5	-88.8	3.2
2025-01-04 13:02:29.375049	10.2	23.5	-89.5	3.6
2025-01-04 13:02:30.544321	9.9	23.6	-89.4	5.0
2025-01-04 13:02:31.700188	9.6	23.6	-89.6	5.4
2025-01-04 13:02:32.859677	9.3	23.7	-89.8	6.8
2025-01-04 13:02:34.022933	9.0	23.7	-89.7	9.4
2025-01-04 13:02:35.182660	8.7	23.8	-89.7	8.3
2025-01-04 13:02:36.343881	8.4	23.8	-89.4	9.3
2025-01-04 13:02:37.500772	8.0	23.8	-90.0	9.0
2025-01-04 13:02:38.660279	7.7	23.9	-89.5	11.2
2025-01-04 13:02:39.822342	7.4	23.9	-89.3	5.2
2025-01-04 13:02:40.983876	7.1	24.0	-89.7	8.6
2025-01-04 13:02:42.141978	6.8	24.0	-89.2	7.9
2025-01-04 13:02:43.298069	6.5	24.0	-89.2	5.4
2025-01-04 13:02:44.450510	6.1	24.1	-89.4	3.7
2025-01-04 13:02:45.610391	5.8	24.1	-89.4	3.6
2025-01-04 13:02:46.777280	5.5	24.1	-89.1	4.1
2025-01-04 13:02:47.938024	5.2	24.2	-89.1	4.1
2025-01-04 13:02:49.091782	4.9	24.2	-87.8	3.9
2025-01-04 13:02:50.250806	4.5	24.2	-88.1	4.9
2025-01-04 13:02:51.411573	4.2	24.2	-88.7	6.7
2025-01-04 13:02:52.573466	3.9	24.3	-88.8	8.5
2025-01-04 13:02:53.735797	3.6	24.3	-89.2	6.3
2025-01-04 13:02:54.881387	3.2	24.3	-89.3	7.6
2025-01-04 13:02:56.042588	2.9	24.3	-89.1	10.2
2025-01-04 13:02:57.209192	2.6	24.4	-89.0	10.2
2025-01-04 13:02:58.371185	2.3	24.4	-88.3	7.7
2025-01-04 13:02:59.533028	1.9	24.4	-89.4	9.5
2025-01-04 13:03:00.684454	1.6	24.4	-89.5	6.0
2025-01-04 13:03:01.846554	1.3	24.5	-89.6	5.1
2025-01-04 13:03:03.004959	1.0	24.5	-88.9	7.1
2025-01-04 13:03:04.154595	0.6	24.5	-88.6	6.5
2025-01-04 13:03:05.313974	0.3	24.5	-88.9	7.7
2025-01-04 13:03:06.469650	360.0	24.5	-88.4	4.6
2025-01-04 13:03:07.627727	359.7	24.5	-88.1	5.7
2025-01-04 13:03:08.788230	359.3	24.5	-89.3	2.4
2025-01-04 13:03:09.943392	359.0	24.6	-89.5	3.6
2025-01-04 13:03:11.094094	358.7	24.6	-89.0	4.8
2025-01-04 13:03:12.247868	358.3	24.6	-89.3	1.8
2025-01-04 13:03:13.410290	358.0	24.6	-89.5	3.6
2025-01-04 13:03:14.570827	357.7	24.6	-89.7	5.1
2025-01-04 13:03:15.735739	357.3	24.6	-89.8	4.5
2025-01-04 13:03:16.914933	357.0	24.6	-89.6	3.7
2025-01-04 13:03:18.074611	356.7	24.6	-89.3	4.9
2025-01-04 13:03:19.237089	356.3	24.6	-89.1	3.4
2025-01-04 13:03:20.388770	356.0	24.6	-89.3	4.6
2025-01-04 13:03:21.549990	355.7	24.6	-89.0	7.9
2025-01-04 13:03:22.715116	355.4	24.6	-89.4	5.1
2025-01-04 13:03:23.870760	355.0	24.6	-89.4	8.5
2025-01-04 13:03:25.023376	354.7	24.6	-89.8	8.0
2025-01-04 13:03:26.183206	354.4	24.6	-89.4	9.8
2025-01-04 13:03:27.343548	354.0	24.6	-87.9	8.6
2025-01-04 13:03:28.501293	353.7	24.6	-89.4	9.6
2025-01-04 13:03:29.649482	353.4	24.6	-89.4	11.2
2025-01-04 13:03:30.808290	353.0	24.6	-89.5	10.6
2025-01-04 13:03:31.964081	352.7	24.6	-89.5	13.9
2025-01-04 13:03:33.127675	352.4	24.6	-89.3	9.9
2025-01-04 13:03:34.288030	352.1	24.6	-89.2	8.0
2025-01-04 13:03:35.446695	351.7	24.6	-89.3	11.8
2025-01-04 13:03:36.612141	351.4	24.6	-89.1	9.7
2025-01-04 13:03:37.775006	351.1	24.5	-89.1	11.2
2025-01-04 13:03:38.932460	350.7	24.5	-88.9	7.4
2025-01-04 13:03:40.093490	350.4	24.5	-88.8	8.3
2025-01-04 13:03:41.257048	350.1	24.5	-88.2	8.4
2025-01-04 13:03:42.415894	349.7	24.5	-89.2	9.9
2025-01-04 13:03:43.580045	349.4	24.5	-89.7	10.5
2025-01-04 13:03:44.735356	349.1	24.4	-89.3	5.9
2025-01-04 13:03:45.896139	348.8	24.4	-88.7	7.1
2025-01-04 13:03:47.054271	348.4	24.4	-89.0	5.6
2025-01-04 13:03:48.216353	348.1	24.4	-89.4	6.8
2025-01-04 13:03:49.375816	347.8	24.4	-89.1	5.7
2025-01-04 13:03:50.535531	347.5	24.3	-89.0	7.2
2025-01-04 13:03:51.694507	347.1	24.3	-89.6	5.0
2025-01-04 13:03:52.857079	346.8	24.3	-89.5	4.7
2025-01-04 13:03:54.012734	346.5	24.3	-89.5	6.6
2025-01-04 13:03:55.166369	346.2	24.2	-88.8	3.7
2025-01-04 13:03:56.328112	345.8	24.2	-89.3	3.0
2025-01-04 13:03:57.497976	345.5	24.2	-89.9	6.4
2025-01-04 13:03:58.653452	345.2	24.1	-89.3	5.6
2025-01-04 13:03:59.808358	344.9	24.1	-89.2	3.5
2025-01-04 13:04:00.953413	344.6	24.1	-90.0	4.4
2025-01-04 13:04:02.079476	344.3	24.0	-89.7	4.9
2025-01-04 13:04:03.200636	343.9	24.0	-89.6	2.5
2025-01-04 13:04:04.322352	343.6	24.0	-89.1	2.9
2025-01-04 13:04:05.442890	343.3	23.9	-89.4	4.1
2025-01-04 13:04:06.563231	343.0	23.9	-89.5	6.6
2025-01-04 13:04:07.682477	342.7	23.9	-89.8	3.2
2025-01-04 13:04:08.802558	342.4	23.8	-89.0	3.2
2025-01-04 13:04:09.929550	342.1	23.8	-88.3	4.4
2025-01-04 13:04:11.079795	341.8	23.8	-89.6	4.5
2025-01-04 13:04:12.246150	341.5	23.7	-88.9	3.5
2025-01-04 13:04:13.403034	341.2	23.7	-88.9	3.2
2025-01-04 13:04:14.557300	340.9	23.6	-89.1	4.1
2025-01-04 13:04:15.703018	340.6	23.6	-89.8	5.2
2025-01-04 13:04:16.868613	340.2	23.5	-89.7	3.9
2025-01-04 13:04:18.026607	339.9	23.5	-90.3	7.3
2025-01-04 13:04:19.187044	339.6	23.5	-89.5	4.4
2025-01-04 13:04:20.345878	339.3	23.4	-89.3	3.9
2025-01-04 13:04:21.503189	339.0	23.4	-89.9	6.3
2025-01-04 13:04:22.659490	338.7	23.3	-89.8	5.5
2025-01-04 13:04:23.826493	338.4	23.3	-88.9	3.1
2025-01-04 13:04:24.983067	338.1	23.2	-88.5	2.9
2025-01-04 13:04:26.141174	337.8	23.2	-88.5	5.6
2025-01-04 13:04:27.300441	337.5	23.1	-89.1	6.2
2025-01-04 13:04:28.453973	337.2	23.1	-88.4	7.4
2025-01-04 13:04:29.610142	336.9	23.0	-88.5	5.6
2025-01-04 13:04:30.773831	336.6	22.9	-89.4	4.7
2025-01-04 13:04:31.931907	336.3	22.9	-89.5	5.1
2025-01-04 13:04:33.096109	336.0	22.8	-89.4	5.1
2025-01-04 13:04:34.251104	335.7	22.8	-89.7	2.5
2025-01-04 13:04:35.408289	335.4	22.7	-89.4	3.5
2025-01-04 13:04:36.570693	335.1	22.7	-89.1	6.8
2025-01-04 13:04:37.733803	334.8	22.6	-89.8	3.9
2025-01-04 13:04:38.889010	334.6	22.6	-88.6	5.2
2025-01-04 13:04:40.045699	334.3	22.5	-88.8	5.7
2025-01-04 13:04:41.209256	334.0	22.4	-89.3	3.7
2025-01-04 13:04:42.369799	333.7	22.4	-89.1	4.2
2025-01-04 13:04:43.531784	333.4	22.3	-89.2	4.4
2025-01-04 13:04:44.682410	333.1	22.2	-89.1	4.9
2025-01-04 13:04:45.840874	332.8	22.2	-89.6	3.3
2025-01-04 13:04:46.998582	332.6	22.1	-89.2	6.1
2025-01-04 13:04:48.156226	332.3	22.1	-89.6	4.9
2025-01-04 13:04:49.314742	332.0	22.0	-89.5	4.7
2025-01-04 13:04:50.471853	331.7	21.9	-89.6	6.8
2025-01-04 13:04:51.635942	331.4	21.9	-89.8	7.2
2025-01-04 13:04:52.795729	331.2	21.8	-89.6	4.0
2025-01-04 13:04:53.957848	330.9	21.7	-89.5	6.2
2025-01-04 13:04:55.114914	330.6	21.7	-89.6	4.9
2025-01-04 13:04:56.275999	330.3	21.6	-89.5	3.8
2025-01-04 13:04:57.436069	330.1	21.5	-89.3	8.8
2025-01-04 13:04:58.592489	329.8	21.5	-89.5	6.5
2025-01-04 13:04:59.736632	329.5	21.4	-89.0	8.0
2025-01-04 13:05:00.887665	329.3	21.3	-89.3	8.3
2025-01-04 13:05:02.044539	329.0	21.3	-89.5	8.6
2025-01-04 13:05:03.202826	328.7	21.2	-89.2	6.5
2025-01-04 13:05:04.353503	328.5	21.1	-88.9	5.6
2025-01-04 13:05:05.500823	328.2	21.0	-89.0	5.9
2025-01-04 13:05:06.621640	328.0	21.0	-87.7	6.7
2025-01-04 13:05:07.740807	327.7	20.9	-87.1	4.7
2025-01-04 13:05:08.860942	327.5	20.8	-88.6	2.9
2025-01-04 13:05:09.981745	327.2	20.8	-88.9	3.9
2025-01-04 13:05:11.102859	327.0	20.7	-88.7	4.9
2025-01-04 13:05:12.226204	326.7	20.6	-88.6	8.1
2025-01-04 13:05:13.353423	326.5	20.5	-88.9	3.9
2025-01-04 13:05:14.483120	326.2	20.5	-89.2	3.1
2025-01-04 13:05:15.638575	326.0	20.4	-89.2	3.4
2025-01-04 13:05:16.789214	325.7	20.3	-89.3	2.8
2025-01-04 13:05:17.950158	325.5	20.3	-89.3	2.6
2025-01-04 13:05:19.101754	325.2	20.2	-89.1	3.6
2025-01-04 13:05:20.263531	325.0	20.1	-89.6	1.6
2025-01-04 13:05:21.421196	324.7	20.0	-89.4	2.8
2025-01-04 13:05:22.577279	324.5	19.9	-89.8	2.1
2025-01-04 13:05:23.741242	324.2	19.9	-89.5	3.6
2025-01-04 13:05:24.898174	324.0	19.8	-90.1	3.3
2025-01-04 13:05:26.062029	323.7	19.7	-89.8	0.4
2025-01-04 13:05:27.222567	323.5	19.6	-89.3	2.0
2025-01-04 13:05:28.385606	323.3	19.6	-89.1	2.5
2025-01-04 13:05:29.546372	323.0	19.5	-89.2	3.2
2025-01-04 13:05:30.709588	322.8	19.4	-88.8	3.2
2025-01-04 13:05:31.874574	322.6	19.3	-89.0	3.2
2025-01-04 13:05:33.038995	322.3	19.2	-88.3	3.6
2025-01-04 13:05:34.185914	322.1	19.2	-88.6	3.3
2025-01-04 13:05:35.354180	321.9	19.1	-88.9	3.4
2025-01-04 13:05:36.503753	321.6	19.0	-89.1	5.1
2025-01-04 13:05:37.661090	321.4	18.9	-89.3	1.6
2025-01-04 13:05:38.820827	321.2	18.8	-89.2	1.6
2025-01-04 13:05:39.986562	320.9	18.8	-89.2	0.8
2025-01-04 13:05:41.136599	320.7	18.7	-89.2	5.3
2025-01-04 13:05:42.286101	320.5	18.6	-89.1	1.2
2025-01-04 13:05:43.445934	320.3	18.5	-89.5	2.2
2025-01-04 13:05:44.606626	320.1	18.4	-89.5	4.3
2025-01-04 13:05:45.761949	319.8	18.4	-89.3	1.9
2025-01-04 13:05:46.919681	319.6	18.3	-89.0	2.2
2025-01-04 13:05:48.080580	319.4	18.2	-89.1	4.0
2025-01-04 13:05:49.244072	319.2	18.1	-89.6	3.3
2025-01-04 13:05:50.401038	319.0	18.0	-89.8	4.2
2025-01-04 13:05:51.566440	318.7	17.9	-90.2	4.4
2025-01-04 13:05:52.723287	318.5	17.9	-89.9	2.2
2025-01-04 13:05:53.882445	318.3	17.8	-90.1	3.3
2025-01-04 13:05:55.037651	318.1	17.7	-89.9	3.5
2025-01-04 13:05:56.194272	317.9	17.6	-89.5	1.7
2025-01-04 13:05:57.357844	317.7	17.5	-89.7	2.2
2025-01-04 13:05:58.525020	317.5	17.4	-90.1	1.4
2025-01-04 13:05:59.680857	317.3	17.4	-90.2	4.3
2025-01-04 13:06:00.829957	317.1	17.3	-89.9	1.8
2025-01-04 13:06:01.988807	316.9	17.2	-89.0	3.9
2025-01-04 13:06:03.155121	316.7	17.1	-88.3	4.6
2025-01-04 13:06:04.309321	316.5	17.0	-89.8	3.7
2025-01-04 13:06:05.472761	316.3	16.9	-90.2	3.2
2025-01-04 13:06:06.637155	316.1	16.9	-90.1	2.6
2025-01-04 13:06:07.799493	315.9	16.8	-90.2	1.4
2025-01-04 13:06:08.962554	315.7	16.7	-90.3	1.5
2025-01-04 13:06:10.114631	315.5	16.6	-90.2	3.1
2025-01-04 13:06:11.277079	315.3	16.5	-89.9	2.5
2025-01-04 13:06:12.429890	315.1	16.4	-89.6	5.1
2025-01-04 13:06:13.587311	314.9	16.3	-89.5	0.9
2025-01-04 13:06:14.747801	314.7	16.3	-89.6	4.9
2025-01-04 13:06:15.906032	314.5	16.2	-89.5	4.6
2025-01-04 13:06:17.069186	314.3	16.1	-89.2	4.1
2025-01-04 13:06:18.234513	314.1	16.0	-89.0	1.6
2025-01-04 13:06:19.394037	313.9	15.9	-89.3	3.6
2025-01-04 13:06:20.558547	313.8	15.8	-89.3	4.9
2025-01-04 13:06:21.719192	313.6	15.8	-88.6	1.5
2025-01-04 13:06:22.879880	313.4	15.7	-89.3	5.5
2025-01-04 13:06:24.044132	313.2	15.6	-88.6	3.2
2025-01-04 13:06:25.199396	313.0	15.5	-88.8	3.2
2025-01-04 13:06:26.359184	312.8	15.4	-88.9	3.2
2025-01-04 13:06:27.524391	312.7	15.3	-88.5	4.7
2025-01-04 13:06:28.688749	312.5	15.2	-89.1	2.4
2025-01-04 13:06:29.846256	312.3	15.2	-88.0	0.7
2025-01-04 13:06:31.000960	312.1	15.1	-89.0	4.5
2025-01-04 13:06:32.159160	311.9	15.0	-88.6	3.2
2025-01-04 13:06:33.314060	311.8	14.9	-89.0	1.6
2025-01-04 13:06:34.476652	311.6	14.8	-89.1	2.1
2025-01-04 13:06:35.632889	311.4	14.7	-89.7	2.8
2025-01-04 13:06:36.797154	311.3	14.7	-89.6	6.1
#Closed at: 2025-01-04 13:00:19.246687