passes_logs/2025/01/04/LEX_Murmansk/LEX_Murmansk__20250104_194059_NOAA_19_rec.log

#Pass ID: 20250104_194059_NOAA 19
#Satellite: NOAA 19
#Configuration: NOAA 19
#Start time: 2025-01-04 19:40:54.693971

#LorettStation: 1.0.0 05.05.2024
#Station: LEX_Murmansk
#Location: 33.156738 lon 68.926811 lat
#TLE: 1 33591U 09005A   25003.74725296  .00000502  00000+0  29188-3 0  9994
#TLE: 2 33591  99.0215  67.4219 0014696  87.4906 272.7948 14.13249552819955

#Time	Az	El	Level	SNR
2025-01-04 19:41:06.866008	219.3	16.0	-92.3	3.0
2025-01-04 19:41:08.036040	219.5	16.1	-91.9	5.6
2025-01-04 19:41:09.206660	219.6	16.2	-92.3	4.1
2025-01-04 19:41:10.367339	219.8	16.3	-92.1	7.3
2025-01-04 19:41:11.530052	220.0	16.4	-92.0	5.8
2025-01-04 19:41:12.698080	220.1	16.5	-91.4	5.3
2025-01-04 19:41:13.859930	220.3	16.6	-92.1	5.5
2025-01-04 19:41:15.015561	220.5	16.7	-92.3	4.0
2025-01-04 19:41:16.182208	220.7	16.8	-91.9	7.3
2025-01-04 19:41:17.346733	220.8	16.9	-91.6	10.7
2025-01-04 19:41:18.512988	221.0	17.0	-91.9	3.6
2025-01-04 19:41:19.673915	221.2	17.1	-92.5	5.5
2025-01-04 19:41:20.840744	221.4	17.2	-92.4	4.8
2025-01-04 19:41:22.009176	221.6	17.3	-92.4	2.8
2025-01-04 19:41:23.177699	221.7	17.4	-92.0	2.3
2025-01-04 19:41:24.346235	221.9	17.5	-91.7	2.1
2025-01-04 19:41:25.509669	222.1	17.6	-91.8	2.8
2025-01-04 19:41:26.678127	222.3	17.7	-92.1	8.3
2025-01-04 19:41:27.846805	222.5	17.8	-92.2	13.2
2025-01-04 19:41:29.007374	222.7	17.9	-92.2	10.9
2025-01-04 19:41:30.173204	222.9	18.0	-91.0	8.5
2025-01-04 19:41:31.340803	223.1	18.1	-91.8	7.6
2025-01-04 19:41:32.502911	223.3	18.2	-91.7	6.4
2025-01-04 19:41:33.667218	223.4	18.3	-92.2	8.1
2025-01-04 19:41:34.826294	223.6	18.3	-92.3	11.6
2025-01-04 19:41:35.991242	223.8	18.4	-92.3	9.9
2025-01-04 19:41:37.162283	224.0	18.5	-92.2	12.7
2025-01-04 19:41:38.333767	224.2	18.6	-92.0	12.5
2025-01-04 19:41:39.496569	224.4	18.7	-92.3	7.6
2025-01-04 19:41:40.664115	224.6	18.8	-92.4	5.0
2025-01-04 19:41:41.819752	224.8	18.9	-92.0	3.6
2025-01-04 19:41:42.981475	225.0	19.0	-92.2	1.7
2025-01-04 19:41:44.143649	225.2	19.1	-92.4	3.8
2025-01-04 19:41:45.305090	225.4	19.2	-92.4	5.0
2025-01-04 19:41:46.471212	225.6	19.3	-92.0	4.9
2025-01-04 19:41:47.635301	225.9	19.4	-92.3	7.3
2025-01-04 19:41:48.804306	226.1	19.5	-92.2	7.9
2025-01-04 19:41:49.959463	226.3	19.6	-91.9	6.2
2025-01-04 19:41:51.127247	226.5	19.7	-91.7	8.0
2025-01-04 19:41:52.287131	226.7	19.8	-92.1	7.8
2025-01-04 19:41:53.449096	226.9	19.9	-91.6	5.2
2025-01-04 19:41:54.611019	227.1	20.0	-92.2	5.6
2025-01-04 19:41:55.759803	227.3	20.1	-91.8	10.1
2025-01-04 19:41:56.915062	227.6	20.2	-92.1	8.7
2025-01-04 19:41:58.039260	227.8	20.3	-92.2	15.0
2025-01-04 19:41:59.160535	228.0	20.4	-92.1	10.7
2025-01-04 19:42:00.288787	228.2	20.5	-92.2	10.5
2025-01-04 19:42:01.408848	228.4	20.6	-92.1	4.0
2025-01-04 19:42:02.529865	228.6	20.7	-91.4	2.0
2025-01-04 19:42:03.650956	228.9	20.8	-92.1	3.7
2025-01-04 19:42:04.772573	229.1	20.9	-92.0	5.4
2025-01-04 19:42:05.892758	229.3	21.0	-92.6	2.0
2025-01-04 19:42:07.043758	229.5	21.1	-92.0	5.0
2025-01-04 19:42:08.210468	229.8	21.2	-92.5	8.4
2025-01-04 19:42:09.370390	230.0	21.3	-92.8	7.7
2025-01-04 19:42:10.525999	230.2	21.4	-92.2	15.9
2025-01-04 19:42:11.685663	230.5	21.5	-92.2	4.2
2025-01-04 19:42:12.843420	230.7	21.6	-91.8	3.8
2025-01-04 19:42:14.015418	230.9	21.7	-92.4	6.6
2025-01-04 19:42:15.178789	231.2	21.8	-92.8	3.7
2025-01-04 19:42:16.345745	231.4	21.9	-91.8	10.3
2025-01-04 19:42:17.506023	231.7	22.0	-92.0	4.8
2025-01-04 19:42:18.667030	231.9	22.1	-92.3	7.6
2025-01-04 19:42:19.833000	232.2	22.2	-92.5	10.1
2025-01-04 19:42:20.992959	232.4	22.3	-92.2	11.0
2025-01-04 19:42:22.149803	232.7	22.4	-92.5	6.2
2025-01-04 19:42:23.315109	232.9	22.5	-91.9	14.5
2025-01-04 19:42:24.473911	233.2	22.6	-92.3	8.7
2025-01-04 19:42:25.638731	233.4	22.7	-92.5	2.0
2025-01-04 19:42:26.803979	233.7	22.8	-92.5	3.1
2025-01-04 19:42:27.972450	233.9	22.9	-92.6	1.2
2025-01-04 19:42:29.138293	234.2	23.0	-92.2	3.8
2025-01-04 19:42:30.301044	234.5	23.1	-92.5	8.2
2025-01-04 19:42:31.483427	234.7	23.2	-92.3	5.1
2025-01-04 19:42:32.646928	235.0	23.3	-91.9	6.8
2025-01-04 19:42:33.811266	235.3	23.4	-92.5	7.9
2025-01-04 19:42:34.988544	235.5	23.5	-92.9	10.1
2025-01-04 19:42:36.150785	235.8	23.5	-91.8	4.7
2025-01-04 19:42:37.312316	236.1	23.6	-92.7	8.4
2025-01-04 19:42:38.472594	236.3	23.7	-92.1	2.8
2025-01-04 19:42:39.634160	236.6	23.8	-92.2	4.6
2025-01-04 19:42:40.795762	236.9	23.9	-92.2	3.9
2025-01-04 19:42:41.964937	237.2	24.0	-91.8	5.0
2025-01-04 19:42:43.126799	237.4	24.1	-92.2	1.6
2025-01-04 19:42:44.290586	237.7	24.2	-92.1	8.5
2025-01-04 19:42:45.455689	238.0	24.3	-91.8	5.4
2025-01-04 19:42:46.621321	238.3	24.4	-92.0	3.4
2025-01-04 19:42:47.789520	238.6	24.5	-92.7	2.5
2025-01-04 19:42:48.954671	238.9	24.6	-92.7	4.0
2025-01-04 19:42:50.121855	239.2	24.7	-92.5	1.4
2025-01-04 19:42:51.275997	239.4	24.7	-92.1	2.1
2025-01-04 19:42:52.423342	239.7	24.8	-92.1	0.9
2025-01-04 19:42:53.547587	240.0	24.9	-92.0	1.8
2025-01-04 19:42:54.668200	240.3	25.0	-91.5	3.5
2025-01-04 19:42:55.788569	240.6	25.1	-92.6	4.7
2025-01-04 19:42:56.909649	240.9	25.2	-92.5	4.2
2025-01-04 19:42:58.030584	241.2	25.3	-92.8	3.9
2025-01-04 19:42:59.154456	241.4	25.3	-92.3	12.4
2025-01-04 19:43:00.281778	241.7	25.4	-92.4	8.6
2025-01-04 19:43:01.402299	242.0	25.5	-92.0	6.5
2025-01-04 19:43:02.530086	242.3	25.6	-92.1	9.3
2025-01-04 19:43:03.683241	242.6	25.7	-92.4	10.2
2025-01-04 19:43:04.815001	242.9	25.8	-90.6	10.2
2025-01-04 19:43:05.954300	243.2	25.8	-92.6	6.5
2025-01-04 19:43:07.117387	243.6	25.9	-92.8	5.1
2025-01-04 19:43:08.255743	243.9	26.0	-92.4	6.0
2025-01-04 19:43:09.405306	244.2	26.1	-91.4	7.8
2025-01-04 19:43:10.556683	244.5	26.2	-92.0	8.2
2025-01-04 19:43:11.722667	244.8	26.2	-92.4	9.8
2025-01-04 19:43:12.887015	245.1	26.3	-92.1	12.3
2025-01-04 19:43:14.041150	245.4	26.4	-92.2	7.3
2025-01-04 19:43:15.199241	245.8	26.5	-92.1	17.5
2025-01-04 19:43:16.354483	246.1	26.6	-92.0	11.6
2025-01-04 19:43:17.514713	246.4	26.6	-92.3	9.7
2025-01-04 19:43:18.669574	246.7	26.7	-92.0	9.8
2025-01-04 19:43:19.829904	247.1	26.8	-92.4	10.5
2025-01-04 19:43:20.961626	247.4	26.9	-92.2	5.8
2025-01-04 19:43:22.103399	247.7	26.9	-92.8	2.5
2025-01-04 19:43:23.254799	248.0	27.0	-91.9	8.4
2025-01-04 19:43:24.400844	248.4	27.1	-92.0	9.3
2025-01-04 19:43:25.555368	248.7	27.1	-92.0	5.9
2025-01-04 19:43:26.710006	249.0	27.2	-92.5	5.2
2025-01-04 19:43:27.863681	249.4	27.3	-92.2	10.4
2025-01-04 19:43:29.022708	249.7	27.3	-92.3	16.6
2025-01-04 19:43:30.195957	250.1	27.4	-91.4	11.4
2025-01-04 19:43:31.357071	250.4	27.5	-91.6	11.3
2025-01-04 19:43:32.515312	250.7	27.5	-91.2	17.1
2025-01-04 19:43:33.676811	251.1	27.6	-92.4	15.9
2025-01-04 19:43:34.839212	251.4	27.7	-92.1	19.5
2025-01-04 19:43:35.999706	251.8	27.7	-92.3	16.7
2025-01-04 19:43:37.165476	252.1	27.8	-92.3	8.4
2025-01-04 19:43:38.328162	252.5	27.9	-92.2	7.2
2025-01-04 19:43:39.493343	252.8	27.9	-92.1	5.7
2025-01-04 19:43:40.657132	253.2	28.0	-92.3	4.4
2025-01-04 19:43:41.817257	253.5	28.0	-92.7	7.2
2025-01-04 19:43:42.981739	253.9	28.1	-92.4	8.5
2025-01-04 19:43:44.148036	254.3	28.1	-92.0	6.4
2025-01-04 19:43:45.324831	254.6	28.2	-92.4	11.0
2025-01-04 19:43:46.483924	255.0	28.3	-90.2	7.7
2025-01-04 19:43:47.636340	255.3	28.3	-91.4	10.7
2025-01-04 19:43:48.798703	255.7	28.4	-92.0	16.4
2025-01-04 19:43:49.966648	256.1	28.4	-92.5	10.9
2025-01-04 19:43:51.130696	256.4	28.5	-92.3	16.0
2025-01-04 19:43:52.299099	256.8	28.5	-92.2	7.8
2025-01-04 19:43:53.456429	257.2	28.6	-92.0	9.0
2025-01-04 19:43:54.611307	257.5	28.6	-92.3	5.8
2025-01-04 19:43:55.737620	257.9	28.6	-92.4	10.2
2025-01-04 19:43:56.858765	258.2	28.7	-91.3	5.5
2025-01-04 19:43:57.979071	258.6	28.7	-91.4	3.0
2025-01-04 19:43:59.099209	259.0	28.8	-92.4	2.7
2025-01-04 19:44:00.220235	259.3	28.8	-91.9	2.9
2025-01-04 19:44:01.341292	259.7	28.8	-92.1	2.0
2025-01-04 19:44:02.465829	260.0	28.9	-91.8	2.5
2025-01-04 19:44:03.590540	260.4	28.9	-92.1	2.7
2025-01-04 19:44:04.748895	260.8	28.9	-92.4	2.5
2025-01-04 19:44:05.899480	261.1	29.0	-92.6	6.4
2025-01-04 19:44:07.042720	261.5	29.0	-92.7	7.7
2025-01-04 19:44:08.164315	261.9	29.0	-92.8	4.5
2025-01-04 19:44:09.325778	262.3	29.1	-92.2	8.5
2025-01-04 19:44:10.472291	262.6	29.1	-91.7	6.4
2025-01-04 19:44:11.635108	263.0	29.1	-92.5	6.9
2025-01-04 19:44:12.785778	263.4	29.1	-92.6	5.0
2025-01-04 19:44:13.944741	263.8	29.2	-92.5	10.1
2025-01-04 19:44:15.107090	264.1	29.2	-92.4	7.1
2025-01-04 19:44:16.268298	264.5	29.2	-92.3	7.4
2025-01-04 19:44:17.422328	264.9	29.2	-92.2	10.9
2025-01-04 19:44:18.584777	265.3	29.3	-92.2	5.9
2025-01-04 19:44:19.744117	265.7	29.3	-91.9	4.1
2025-01-04 19:44:20.895141	266.1	29.3	-92.0	1.6
2025-01-04 19:44:22.062197	266.4	29.3	-92.7	1.0
2025-01-04 19:44:23.222784	266.8	29.3	-92.3	6.2
2025-01-04 19:44:24.391152	267.2	29.3	-92.5	4.1
2025-01-04 19:44:25.555332	267.6	29.3	-92.3	5.2
2025-01-04 19:44:26.722569	268.0	29.3	-92.4	6.8
2025-01-04 19:44:27.883093	268.4	29.4	-92.2	3.4
2025-01-04 19:44:29.046499	268.7	29.4	-92.4	2.8
2025-01-04 19:44:30.201469	269.1	29.4	-92.3	1.9
2025-01-04 19:44:31.354449	269.5	29.4	-92.3	6.1
2025-01-04 19:44:32.479614	269.9	29.4	-92.2	4.6
2025-01-04 19:44:33.745499	270.3	29.4	-92.8	1.4
2025-01-04 19:44:34.910157	270.7	29.4	-92.7	4.0
2025-01-04 19:44:36.058660	271.1	29.4	-92.7	3.4
2025-01-04 19:44:37.204713	271.5	29.4	-92.5	3.1
2025-01-04 19:44:38.366619	271.8	29.4	-92.2	7.3
2025-01-04 19:44:39.517720	272.2	29.4	-92.2	4.3
2025-01-04 19:44:40.682583	272.6	29.4	-92.5	4.4
2025-01-04 19:44:41.844555	273.0	29.3	-92.2	6.2
2025-01-04 19:44:43.022453	273.4	29.3	-92.7	4.1
2025-01-04 19:44:44.185356	273.8	29.3	-92.2	7.5
2025-01-04 19:44:45.351301	274.1	29.3	-92.2	6.3
2025-01-04 19:44:46.509398	274.5	29.3	-91.9	4.7
2025-01-04 19:44:47.674316	274.9	29.3	-92.2	6.4
2025-01-04 19:44:48.829303	275.3	29.3	-92.4	9.2
2025-01-04 19:44:49.966873	275.7	29.2	-92.7	10.5
2025-01-04 19:44:51.100295	276.0	29.2	-92.5	8.5
2025-01-04 19:44:52.256851	276.4	29.2	-90.9	12.2
2025-01-04 19:44:53.406197	276.8	29.2	-92.3	10.5
2025-01-04 19:44:54.562130	277.2	29.2	-92.1	6.7
2025-01-04 19:44:55.716931	277.6	29.1	-92.3	2.4
2025-01-04 19:44:56.875072	277.9	29.1	-91.9	4.1
2025-01-04 19:44:58.042640	278.3	29.1	-92.5	3.9
2025-01-04 19:44:59.201587	278.7	29.1	-91.4	3.9
2025-01-04 19:45:00.354106	279.1	29.0	-92.0	7.5
2025-01-04 19:45:01.516393	279.4	29.0	-92.3	5.1
2025-01-04 19:45:02.676053	279.8	29.0	-92.1	4.2
2025-01-04 19:45:03.839941	280.2	28.9	-92.4	6.0
2025-01-04 19:45:04.998142	280.6	28.9	-92.2	4.7
2025-01-04 19:45:06.154306	280.9	28.9	-92.4	8.5
2025-01-04 19:45:07.318454	281.3	28.8	-92.1	5.0
2025-01-04 19:45:08.497437	281.7	28.8	-91.8	3.0
2025-01-04 19:45:09.673041	282.1	28.7	-92.6	8.1
2025-01-04 19:45:10.836304	282.4	28.7	-92.1	7.7
2025-01-04 19:45:11.998893	282.8	28.7	-92.4	4.2
2025-01-04 19:45:13.163022	283.2	28.6	-92.4	10.2
2025-01-04 19:45:14.329180	283.5	28.6	-92.1	4.7
2025-01-04 19:45:15.490006	283.9	28.5	-90.4	5.3
2025-01-04 19:45:16.656472	284.3	28.5	-92.0	5.1
2025-01-04 19:45:17.811760	284.6	28.4	-92.4	6.1
2025-01-04 19:45:18.938487	285.0	28.4	-92.3	3.4
2025-01-04 19:45:20.098804	285.3	28.3	-92.1	3.8
2025-01-04 19:45:21.248900	285.7	28.3	-91.8	3.4
2025-01-04 19:45:22.408869	286.1	28.2	-92.2	6.0
2025-01-04 19:45:23.562830	286.4	28.2	-92.5	3.6
2025-01-04 19:45:24.714273	286.8	28.1	-92.5	8.6
2025-01-04 19:45:25.865691	287.1	28.1	-92.1	6.0
2025-01-04 19:45:27.028338	287.5	28.0	-92.6	1.2
2025-01-04 19:45:28.185682	287.8	27.9	-92.2	5.9
2025-01-04 19:45:29.345658	288.2	27.9	-92.3	6.0
2025-01-04 19:45:30.514217	288.5	27.8	-92.4	4.7
2025-01-04 19:45:31.679335	288.9	27.8	-92.5	7.2
2025-01-04 19:45:32.840981	289.2	27.7	-92.3	9.2
2025-01-04 19:45:34.002928	289.6	27.6	-92.3	1.9
2025-01-04 19:45:35.167942	289.9	27.6	-92.3	6.2
2025-01-04 19:45:36.327098	290.3	27.5	-92.2	5.9
2025-01-04 19:45:37.488692	290.6	27.4	-92.3	5.3
2025-01-04 19:45:38.650576	291.0	27.4	-92.2	3.7
2025-01-04 19:45:39.805775	291.3	27.3	-91.3	6.7
2025-01-04 19:45:40.968099	291.6	27.2	-92.7	5.7
2025-01-04 19:45:42.145149	292.0	27.2	-92.7	6.4
2025-01-04 19:45:43.307910	292.3	27.1	-92.2	3.5
2025-01-04 19:45:44.469541	292.6	27.0	-92.3	6.3
2025-01-04 19:45:45.633249	293.0	27.0	-92.4	7.8
2025-01-04 19:45:46.793042	293.3	26.9	-92.4	7.8
2025-01-04 19:45:47.957938	293.6	26.8	-90.3	6.3
2025-01-04 19:45:49.118356	294.0	26.7	-92.3	8.8
2025-01-04 19:45:50.284556	294.3	26.7	-92.2	5.8
2025-01-04 19:45:51.443111	294.6	26.6	-91.9	3.4
2025-01-04 19:45:52.603009	294.9	26.5	-90.8	5.1
2025-01-04 19:45:53.766822	295.3	26.4	-92.6	11.1
2025-01-04 19:45:54.925893	295.6	26.4	-92.5	8.5
2025-01-04 19:45:56.086836	295.9	26.3	-91.8	7.8
2025-01-04 19:45:57.247077	296.2	26.2	-92.5	10.3
2025-01-04 19:45:58.408476	296.5	26.1	-92.2	9.9
2025-01-04 19:45:59.582239	296.9	26.0	-92.3	10.2
2025-01-04 19:46:00.725811	297.2	26.0	-92.6	13.7
2025-01-04 19:46:01.888957	297.5	25.9	-92.4	4.1
2025-01-04 19:46:03.053461	297.8	25.8	-92.5	7.9
2025-01-04 19:46:04.217061	298.1	25.7	-92.3	8.6
2025-01-04 19:46:05.385378	298.4	25.6	-92.0	12.8
2025-01-04 19:46:06.543268	298.7	25.5	-92.1	9.6
2025-01-04 19:46:07.707660	299.0	25.4	-91.3	2.8
2025-01-04 19:46:08.873539	299.3	25.4	-92.8	14.5
2025-01-04 19:46:10.037187	299.6	25.3	-89.9	6.7
2025-01-04 19:46:11.202922	299.9	25.2	-92.2	9.8
2025-01-04 19:46:12.364140	300.2	25.1	-92.1	7.9
2025-01-04 19:46:13.528138	300.5	25.0	-92.1	9.7
2025-01-04 19:46:14.680081	300.8	24.9	-92.7	3.6
2025-01-04 19:46:15.848073	301.1	24.8	-92.4	5.6
2025-01-04 19:46:16.999001	301.4	24.7	-92.5	4.4
2025-01-04 19:46:18.161899	301.7	24.7	-92.6	6.3
2025-01-04 19:46:19.323029	301.9	24.6	-92.3	5.2
2025-01-04 19:46:20.487753	302.2	24.5	-92.3	1.0
2025-01-04 19:46:21.651475	302.5	24.4	-92.2	3.0
2025-01-04 19:46:22.811084	302.8	24.3	-92.5	5.7
2025-01-04 19:46:23.978102	303.1	24.2	-92.6	5.2
2025-01-04 19:46:25.140468	303.4	24.1	-92.7	3.3
2025-01-04 19:46:26.303177	303.6	24.0	-92.1	2.6
2025-01-04 19:46:27.462135	303.9	23.9	-91.9	2.7
2025-01-04 19:46:28.625837	304.2	23.8	-92.0	6.4
2025-01-04 19:46:29.788442	304.5	23.7	-92.2	5.3
2025-01-04 19:46:30.953039	304.7	23.6	-92.3	4.1
2025-01-04 19:46:32.114996	305.0	23.6	-92.5	4.2
2025-01-04 19:46:33.280619	305.3	23.5	-88.7	4.8
2025-01-04 19:46:34.428753	305.5	23.4	-92.1	4.6
2025-01-04 19:46:35.594797	305.8	23.3	-91.2	4.6
2025-01-04 19:46:36.748067	306.1	23.2	-92.4	3.0
2025-01-04 19:46:37.911357	306.3	23.1	-92.1	6.2
2025-01-04 19:46:39.070951	306.6	23.0	-92.4	4.0
2025-01-04 19:46:40.234730	306.8	22.9	-91.9	4.5
2025-01-04 19:46:41.400034	307.1	22.8	-91.6	6.5
2025-01-04 19:46:42.556297	307.4	22.7	-91.8	5.9
2025-01-04 19:46:43.719577	307.6	22.6	-92.1	4.3
2025-01-04 19:46:44.881304	307.9	22.5	-92.8	6.9
2025-01-04 19:46:46.048977	308.1	22.4	-92.9	10.8
2025-01-04 19:46:47.207184	308.4	22.3	-92.3	6.5
2025-01-04 19:46:48.368470	308.6	22.2	-92.0	10.6
2025-01-04 19:46:49.504763	308.9	22.1	-91.9	8.7
2025-01-04 19:46:50.624936	309.1	22.0	-92.3	7.0
2025-01-04 19:46:51.779403	309.3	21.9	-92.3	6.7
2025-01-04 19:46:52.938612	309.6	21.8	-92.0	4.6
2025-01-04 19:46:54.101309	309.8	21.7	-92.2	4.9
2025-01-04 19:46:55.261523	310.1	21.6	-92.4	3.9
2025-01-04 19:46:56.414987	310.3	21.5	-92.3	4.1
2025-01-04 19:46:57.577538	310.5	21.4	-92.3	3.5
2025-01-04 19:46:58.741974	310.8	21.3	-91.6	2.2
2025-01-04 19:46:59.903601	311.0	21.2	-91.5	2.5
2025-01-04 19:47:01.055581	311.2	21.1	-92.4	2.5
2025-01-04 19:47:02.215334	311.5	21.0	-92.4	3.1
2025-01-04 19:47:03.372952	311.7	20.9	-92.0	3.2
2025-01-04 19:47:04.536135	311.9	20.8	-91.9	1.9
2025-01-04 19:47:05.694398	312.1	20.7	-92.5	3.7
2025-01-04 19:47:06.842589	312.4	20.6	-92.7	2.5
2025-01-04 19:47:07.973664	312.6	20.5	-92.5	4.3
2025-01-04 19:47:09.095114	312.8	20.5	-92.3	1.1
2025-01-04 19:47:10.215264	313.0	20.4	-92.7	4.5
2025-01-04 19:47:11.336189	313.2	20.3	-92.4	4.4
2025-01-04 19:47:12.457829	313.4	20.2	-92.1	3.4
2025-01-04 19:47:13.578364	313.6	20.1	-92.2	2.9
2025-01-04 19:47:14.702976	313.8	20.0	-92.4	6.1
2025-01-04 19:47:15.824286	314.1	19.9	-92.7	4.7
2025-01-04 19:47:16.975153	314.3	19.8	-92.6	4.2
2025-01-04 19:47:18.125205	314.5	19.7	-92.5	5.3
2025-01-04 19:47:19.250926	314.7	19.6	-92.5	1.8
2025-01-04 19:47:20.402886	314.9	19.5	-91.8	2.9
2025-01-04 19:47:21.560320	315.1	19.4	-92.6	3.6
2025-01-04 19:47:22.721055	315.3	19.3	-93.0	3.4
2025-01-04 19:47:23.872577	315.5	19.2	-92.4	1.0
2025-01-04 19:47:25.024330	315.7	19.1	-92.3	1.7
2025-01-04 19:47:26.183075	315.9	19.0	-92.6	3.1
2025-01-04 19:47:27.337092	316.1	18.9	-92.0	1.8
2025-01-04 19:47:28.499464	316.3	18.8	-92.1	1.6
2025-01-04 19:47:29.661420	316.5	18.7	-92.2	1.8
2025-01-04 19:47:30.827915	316.7	18.6	-92.3	3.8
2025-01-04 19:47:31.986421	316.9	18.5	-92.8	3.3
2025-01-04 19:47:33.152190	317.1	18.4	-92.8	1.7
2025-01-04 19:47:34.319192	317.3	18.3	-92.5	7.8
2025-01-04 19:47:35.479097	317.5	18.2	-92.4	2.0
2025-01-04 19:47:36.635824	317.7	18.1	-92.6	3.6
2025-01-04 19:47:37.793161	317.9	18.0	-92.5	3.9
2025-01-04 19:47:38.954352	318.0	17.9	-92.7	1.7
2025-01-04 19:47:40.120316	318.2	17.8	-92.4	3.4
2025-01-04 19:47:41.282064	318.4	17.7	-92.3	2.6
2025-01-04 19:47:42.441373	318.6	17.6	-92.0	2.0
2025-01-04 19:47:43.609685	318.8	17.5	-92.1	1.7
2025-01-04 19:47:44.773318	319.0	17.4	-92.5	0.5
2025-01-04 19:47:45.939059	319.2	17.3	-91.7	0.7
2025-01-04 19:47:47.095540	319.3	17.2	-92.5	3.1
2025-01-04 19:47:48.255452	319.5	17.1	-92.9	2.8
2025-01-04 19:47:49.418321	319.7	17.0	-92.6	2.1
2025-01-04 19:47:50.579039	319.9	16.9	-92.0	1.8
2025-01-04 19:47:51.739517	320.1	16.8	-92.0	4.4
2025-01-04 19:47:52.893188	320.2	16.7	-92.6	2.2
2025-01-04 19:47:54.028202	320.4	16.6	-92.4	0.7
2025-01-04 19:47:55.149712	320.6	16.6	-92.5	6.9
2025-01-04 19:47:56.270386	320.7	16.5	-92.4	4.1
2025-01-04 19:47:57.390934	320.9	16.4	-92.2	3.4
2025-01-04 19:47:58.511852	321.1	16.3	-91.8	5.7
2025-01-04 19:47:59.631083	321.2	16.2	-92.3	8.2
2025-01-04 19:48:00.751474	321.4	16.1	-92.4	4.5
2025-01-04 19:48:01.872342	321.5	16.0	-92.6	1.9
2025-01-04 19:48:03.020643	321.7	15.9	-92.6	2.4
2025-01-04 19:48:04.185571	321.9	15.8	-92.3	6.4
2025-01-04 19:48:05.341134	322.0	15.7	-92.0	1.8
2025-01-04 19:48:06.496276	322.2	15.6	-91.8	1.4
2025-01-04 19:48:07.646106	322.4	15.5	-92.4	3.5
2025-01-04 19:48:08.807394	322.5	15.4	-92.3	1.9
2025-01-04 19:48:09.968951	322.7	15.3	-92.0	1.9
2025-01-04 19:48:11.241324	322.9	15.2	-92.5	2.9
2025-01-04 19:48:12.401417	323.0	15.1	-92.2	3.8
2025-01-04 19:48:13.568925	323.2	15.0	-91.8	4.2
2025-01-04 19:48:14.725103	323.3	15.0	-92.3	3.9
2025-01-04 19:48:15.891961	323.5	14.9	-92.1	4.1
2025-01-04 19:48:17.046350	323.6	14.8	-92.7	4.3
2025-01-04 19:48:18.214083	323.8	14.7	-90.9	4.1
2025-01-04 19:48:19.348769	323.9	14.6	-92.3	3.5
#Closed at: 2025-01-04 19:40:59.655848