passes_logs/2025/01/04/LEX_Murmansk/LEX_Murmansk__20250104_093923_NOAA_19_rec.log

#Pass ID: 20250104_093923_NOAA 19
#Satellite: NOAA 19
#Configuration: NOAA 19
#Start time: 2025-01-04 09:39:18.291567

#LorettStation: 1.0.0 05.05.2024
#Station: LEX_Murmansk
#Location: 33.156738 lon 68.926811 lat
#TLE: 1 33591U 09005A   25003.74725296  .00000502  00000+0  29188-3 0  9994
#TLE: 2 33591  99.0215  67.4219 0014696  87.4906 272.7948 14.13249552819955

#Time	Az	El	Level	SNR
2025-01-04 09:39:30.507871	24.1	16.3	-91.3	4.1
2025-01-04 09:39:32.805813	24.0	16.6	-91.9	2.4
2025-01-04 09:39:35.103011	23.9	16.8	-91.7	3.5
2025-01-04 09:39:37.416326	23.8	17.1	-92.0	3.8
2025-01-04 09:39:39.706439	23.7	17.3	-91.2	1.4
2025-01-04 09:39:42.009111	23.6	17.6	-91.8	2.5
2025-01-04 09:39:44.306116	23.4	17.9	-91.0	2.7
2025-01-04 09:39:46.598753	23.3	18.1	-92.6	7.0
2025-01-04 09:39:48.910874	23.2	18.4	-92.3	2.9
2025-01-04 09:39:51.211988	23.1	18.7	-92.3	14.0
2025-01-04 09:39:53.514111	23.0	18.9	-92.7	7.8
2025-01-04 09:39:55.814594	22.8	19.2	-92.6	2.2
2025-01-04 09:39:58.105842	22.7	19.5	-90.8	5.4
2025-01-04 09:40:00.392947	22.6	19.8	-93.0	9.2
2025-01-04 09:40:02.696209	22.5	20.1	-92.6	4.8
2025-01-04 09:40:04.998135	22.3	20.4	-92.7	8.5
2025-01-04 09:40:07.296169	22.2	20.7	-92.3	12.4
2025-01-04 09:40:09.588831	22.1	21.0	-92.4	7.9
2025-01-04 09:40:11.885095	21.9	21.3	-92.7	3.4
2025-01-04 09:40:14.182392	21.8	21.6	-92.0	3.1
2025-01-04 09:40:16.484434	21.6	21.9	-92.5	8.3
2025-01-04 09:40:18.780107	21.5	22.2	-92.3	5.2
2025-01-04 09:40:21.083119	21.3	22.5	-92.1	9.3
2025-01-04 09:40:23.381078	21.2	22.8	-92.4	14.3
2025-01-04 09:40:25.676176	21.0	23.1	-93.0	6.7
2025-01-04 09:40:27.974686	20.8	23.5	-91.2	2.7
2025-01-04 09:40:30.269743	20.7	23.8	-91.3	0.7
2025-01-04 09:40:32.568602	20.5	24.1	-91.4	16.3
2025-01-04 09:40:34.869604	20.3	24.5	-92.7	11.0
2025-01-04 09:40:37.175203	20.1	24.8	-91.4	5.0
2025-01-04 09:40:39.469222	20.0	25.2	-92.1	10.6
2025-01-04 09:40:41.765043	19.8	25.5	-91.8	8.5
2025-01-04 09:40:44.071927	19.6	25.9	-92.2	1.7
2025-01-04 09:40:46.367998	19.4	26.2	-92.5	3.4
2025-01-04 09:40:48.682417	19.2	26.6	-92.4	11.8
2025-01-04 09:40:50.975100	19.0	27.0	-92.9	10.2
2025-01-04 09:40:53.270562	18.8	27.3	-92.5	7.5
2025-01-04 09:40:55.570908	18.6	27.7	-92.3	5.3
2025-01-04 09:40:57.870120	18.3	28.1	-92.7	7.4
2025-01-04 09:41:00.164230	18.1	28.5	-92.4	6.8
2025-01-04 09:41:02.454631	17.9	28.9	-92.9	3.7
2025-01-04 09:41:04.750367	17.6	29.3	-92.5	2.3
2025-01-04 09:41:07.051573	17.4	29.7	-92.6	7.8
2025-01-04 09:41:09.355644	17.1	30.1	-91.9	3.6
2025-01-04 09:41:11.653225	16.9	30.5	-92.6	6.9
2025-01-04 09:41:13.948995	16.6	30.9	-92.7	13.6
2025-01-04 09:41:16.248147	16.3	31.3	-92.2	7.1
2025-01-04 09:41:18.550773	16.1	31.8	-92.7	7.9
2025-01-04 09:41:20.844826	15.8	32.2	-92.7	1.6
2025-01-04 09:41:23.153750	15.5	32.6	-92.1	5.5
2025-01-04 09:41:25.454433	15.2	33.1	-92.9	16.1
2025-01-04 09:41:27.757889	14.8	33.5	-92.7	10.6
2025-01-04 09:41:30.053389	14.5	34.0	-92.8	7.9
2025-01-04 09:41:32.354647	14.2	34.5	-92.9	17.2
2025-01-04 09:41:34.654612	13.9	34.9	-92.6	14.0
2025-01-04 09:41:36.964582	13.5	35.4	-93.0	5.0
2025-01-04 09:41:39.264670	13.1	35.9	-92.3	1.1
2025-01-04 09:41:41.558911	12.8	36.4	-92.6	6.2
2025-01-04 09:41:43.849230	12.4	36.9	-92.9	10.3
2025-01-04 09:41:46.151688	12.0	37.4	-92.5	13.5
2025-01-04 09:41:48.452354	11.6	37.9	-92.5	11.6
2025-01-04 09:41:50.761374	11.1	38.4	-93.1	11.7
2025-01-04 09:41:53.060969	10.7	38.9	-92.4	18.6
2025-01-04 09:41:55.356980	10.3	39.4	-92.2	12.5
2025-01-04 09:41:57.663446	9.8	39.9	-92.5	6.1
2025-01-04 09:41:59.954407	9.3	40.5	-93.1	6.3
2025-01-04 09:42:02.244501	8.8	41.0	-92.4	17.2
2025-01-04 09:42:04.541024	8.3	41.5	-92.7	15.8
2025-01-04 09:42:06.835526	7.8	42.1	-93.0	10.5
2025-01-04 09:42:09.136170	7.2	42.7	-92.0	14.1
2025-01-04 09:42:11.436195	6.6	43.2	-92.7	14.9
2025-01-04 09:42:13.747142	6.0	43.8	-92.9	20.6
2025-01-04 09:42:16.041475	5.4	44.3	-92.7	14.1
2025-01-04 09:42:18.338936	4.8	44.9	-92.4	5.3
2025-01-04 09:42:20.632597	4.1	45.5	-93.1	9.1
2025-01-04 09:42:22.933823	3.4	46.1	-93.2	11.2
2025-01-04 09:42:25.235449	2.7	46.7	-92.6	16.5
2025-01-04 09:42:27.532850	2.0	47.2	-92.0	3.0
2025-01-04 09:42:29.829751	1.2	47.8	-92.6	8.6
2025-01-04 09:42:32.126543	0.4	48.4	-92.4	11.7
2025-01-04 09:42:34.427122	359.6	49.0	-93.0	13.7
2025-01-04 09:42:36.740250	358.7	49.6	-92.9	6.4
2025-01-04 09:42:39.033265	357.8	50.2	-93.1	4.8
2025-01-04 09:42:41.330909	356.9	50.8	-92.7	1.5
2025-01-04 09:42:43.631020	355.9	51.4	-92.8	4.3
2025-01-04 09:42:45.942714	354.9	52.0	-92.9	7.3
2025-01-04 09:42:48.240158	353.9	52.6	-92.2	5.5
2025-01-04 09:42:50.531155	352.8	53.2	-92.9	7.2
2025-01-04 09:42:52.818551	351.6	53.8	-91.5	11.7
2025-01-04 09:42:55.120726	350.4	54.3	-91.6	11.2
2025-01-04 09:42:57.423435	349.2	54.9	-91.8	5.5
2025-01-04 09:42:59.717361	347.9	55.5	-91.6	3.9
2025-01-04 09:43:02.009039	346.6	56.0	-91.7	11.7
2025-01-04 09:43:04.303702	345.2	56.6	-91.5	11.9
2025-01-04 09:43:06.598577	343.7	57.1	-91.3	15.4
2025-01-04 09:43:08.890615	342.2	57.6	-93.2	6.4
2025-01-04 09:43:11.187513	340.7	58.1	-91.5	3.1
2025-01-04 09:43:13.486058	339.1	58.6	-91.6	3.9
2025-01-04 09:43:15.779797	337.4	59.1	-92.2	4.0
2025-01-04 09:43:18.076923	335.6	59.5	-92.1	10.4
2025-01-04 09:43:20.376686	333.8	59.9	-92.0	18.7
2025-01-04 09:43:22.666680	332.0	60.3	-92.8	17.5
2025-01-04 09:43:24.963212	330.1	60.7	-93.0	13.2
2025-01-04 09:43:27.258257	328.1	61.1	-92.2	16.7
2025-01-04 09:43:29.557136	326.0	61.4	-92.4	13.6
2025-01-04 09:43:31.847690	324.0	61.7	-92.4	12.1
2025-01-04 09:43:34.144480	321.9	61.9	-92.3	11.2
2025-01-04 09:43:36.443863	319.7	62.2	-91.6	8.9
2025-01-04 09:43:38.744377	317.5	62.3	-90.8	7.0
2025-01-04 09:43:41.055465	315.2	62.5	-91.6	8.4
2025-01-04 09:43:43.354977	313.0	62.6	-91.4	11.1
2025-01-04 09:43:45.655566	310.7	62.7	-92.0	7.8
2025-01-04 09:43:47.951003	308.4	62.7	-92.3	18.1
2025-01-04 09:43:50.247315	306.1	62.7	-91.1	13.0
2025-01-04 09:43:52.538980	303.8	62.7	-91.6	13.8
2025-01-04 09:43:54.835791	301.5	62.6	-92.6	9.6
2025-01-04 09:43:57.125381	299.3	62.5	-91.9	13.2
2025-01-04 09:43:59.415627	297.1	62.3	-91.6	12.0
2025-01-04 09:44:01.710221	294.9	62.1	-91.6	9.1
2025-01-04 09:44:04.006262	292.7	61.9	-91.2	9.4
2025-01-04 09:44:06.306861	290.6	61.7	-91.9	4.6
2025-01-04 09:44:08.600883	288.5	61.4	-91.8	2.0
2025-01-04 09:44:10.902913	286.5	61.1	-92.0	3.3
2025-01-04 09:44:13.198176	284.5	60.7	-91.8	3.0
2025-01-04 09:44:15.499471	282.6	60.3	-92.7	5.7
2025-01-04 09:44:17.800590	280.7	59.9	-91.7	5.1
2025-01-04 09:44:20.099693	278.9	59.5	-91.9	6.8
2025-01-04 09:44:22.398827	277.2	59.0	-92.4	7.4
2025-01-04 09:44:24.691506	275.5	58.6	-92.7	7.5
2025-01-04 09:44:26.984576	273.9	58.1	-92.4	8.8
2025-01-04 09:44:29.283653	272.3	57.6	-91.5	6.3
2025-01-04 09:44:31.578144	270.8	57.1	-91.3	8.7
2025-01-04 09:44:33.877265	269.4	56.5	-92.7	10.7
2025-01-04 09:44:36.175531	268.0	56.0	-92.3	6.8
2025-01-04 09:44:38.475346	266.6	55.4	-92.8	12.1
2025-01-04 09:44:40.765981	265.3	54.9	-92.9	11.9
2025-01-04 09:44:43.060937	264.1	54.3	-92.3	15.3
2025-01-04 09:44:45.358031	262.9	53.7	-92.6	16.7
2025-01-04 09:44:47.656574	261.8	53.1	-93.0	22.6
2025-01-04 09:44:49.954065	260.7	52.6	-92.9	23.0
2025-01-04 09:44:52.247427	259.6	52.0	-92.1	22.5
2025-01-04 09:44:54.546066	258.6	51.4	-93.2	20.6
2025-01-04 09:44:56.844752	257.7	50.8	-92.9	19.4
2025-01-04 09:44:59.137597	256.7	50.2	-92.4	19.3
2025-01-04 09:45:01.431737	255.8	49.6	-93.1	16.0
2025-01-04 09:45:03.739528	255.0	49.0	-93.0	9.3
2025-01-04 09:45:06.037668	254.1	48.4	-92.7	8.5
2025-01-04 09:45:08.336186	253.3	47.8	-92.7	5.8
2025-01-04 09:45:10.635133	252.6	47.2	-92.5	14.3
2025-01-04 09:45:12.932066	251.8	46.6	-92.9	13.4
2025-01-04 09:45:15.227000	251.1	46.0	-92.4	14.3
2025-01-04 09:45:17.530780	250.4	45.4	-93.2	21.1
2025-01-04 09:45:19.839214	249.8	44.9	-92.2	22.5
2025-01-04 09:45:22.138850	249.1	44.3	-92.6	23.5
2025-01-04 09:45:24.433142	248.5	43.7	-92.7	19.8
2025-01-04 09:45:26.729826	247.9	43.2	-92.7	18.5
2025-01-04 09:45:29.034356	247.4	42.6	-92.1	14.9
2025-01-04 09:45:31.337243	246.8	42.0	-92.4	18.7
2025-01-04 09:45:33.638202	246.3	41.5	-92.5	9.6
2025-01-04 09:45:35.947264	245.8	41.0	-92.9	11.9
2025-01-04 09:45:38.246218	245.3	40.4	-92.9	16.1
2025-01-04 09:45:40.549593	244.8	39.9	-92.1	13.6
2025-01-04 09:45:42.849678	244.3	39.4	-93.1	16.6
2025-01-04 09:45:45.146144	243.9	38.8	-92.5	11.6
2025-01-04 09:45:47.446698	243.4	38.3	-91.6	10.6
2025-01-04 09:45:49.739820	243.0	37.8	-91.5	11.3
2025-01-04 09:45:52.041990	242.6	37.3	-92.2	4.9
2025-01-04 09:45:54.334229	242.2	36.8	-92.2	4.7
2025-01-04 09:45:56.631685	241.8	36.3	-92.3	2.4
2025-01-04 09:45:58.935199	241.4	35.8	-91.7	5.5
2025-01-04 09:46:01.226786	241.1	35.4	-91.4	9.5
2025-01-04 09:46:03.523921	240.7	34.9	-91.8	9.7
2025-01-04 09:46:05.823629	240.4	34.4	-92.1	11.4
2025-01-04 09:46:08.130749	240.0	33.9	-91.8	12.2
2025-01-04 09:46:10.431941	239.7	33.5	-92.0	8.0
2025-01-04 09:46:12.731028	239.4	33.0	-91.6	9.2
2025-01-04 09:46:15.028209	239.1	32.6	-91.4	4.9
2025-01-04 09:46:17.327536	238.8	32.1	-90.7	7.8
2025-01-04 09:46:19.625949	238.5	31.7	-91.7	5.9
2025-01-04 09:46:21.921940	238.2	31.3	-91.0	4.6
2025-01-04 09:46:24.230896	238.0	30.9	-91.7	3.7
2025-01-04 09:46:26.528714	237.7	30.4	-91.4	3.2
2025-01-04 09:46:28.827633	237.4	30.0	-91.2	4.8
2025-01-04 09:46:31.126544	237.2	29.6	-91.0	3.2
2025-01-04 09:46:33.422197	236.9	29.2	-91.0	3.1
2025-01-04 09:46:35.718631	236.7	28.8	-91.0	7.4
2025-01-04 09:46:38.016178	236.5	28.4	-90.9	9.7
2025-01-04 09:46:40.315122	236.2	28.0	-90.9	11.4
2025-01-04 09:46:42.610454	236.0	27.7	-91.1	8.5
2025-01-04 09:46:44.903642	235.8	27.3	-92.0	8.4
2025-01-04 09:46:47.206042	235.6	26.9	-91.4	10.5
2025-01-04 09:46:49.502087	235.4	26.5	-92.1	7.5
2025-01-04 09:46:51.796848	235.2	26.2	-91.9	6.6
2025-01-04 09:46:54.084920	235.0	25.8	-92.0	5.5
2025-01-04 09:46:56.370821	234.8	25.5	-92.6	6.9
2025-01-04 09:46:58.663012	234.6	25.1	-92.7	6.1
2025-01-04 09:47:00.956298	234.4	24.8	-92.4	5.4
2025-01-04 09:47:03.250224	234.2	24.4	-92.4	8.9
2025-01-04 09:47:05.549111	234.1	24.1	-92.5	5.1
2025-01-04 09:47:07.850784	233.9	23.7	-92.5	9.9
2025-01-04 09:47:10.153390	233.7	23.4	-92.4	10.0
2025-01-04 09:47:12.446485	233.6	23.1	-93.2	10.0
2025-01-04 09:47:14.748364	233.4	22.8	-92.7	11.1
2025-01-04 09:47:17.042759	233.2	22.4	-92.7	7.1
2025-01-04 09:47:19.346518	233.1	22.1	-92.6	12.5
2025-01-04 09:47:21.642976	232.9	21.8	-92.6	12.5
2025-01-04 09:47:23.940447	232.8	21.5	-93.0	13.1
2025-01-04 09:47:26.237255	232.6	21.2	-92.0	11.9
2025-01-04 09:47:28.548684	232.5	20.9	-92.7	4.4
2025-01-04 09:47:30.842684	232.4	20.6	-93.1	9.4
2025-01-04 09:47:33.139370	232.2	20.3	-92.1	7.3
2025-01-04 09:47:35.429510	232.1	20.0	-92.8	6.7
2025-01-04 09:47:37.722972	232.0	19.7	-92.9	8.8
2025-01-04 09:47:40.015544	231.8	19.4	-92.6	6.7
2025-01-04 09:47:42.311382	231.7	19.2	-93.0	9.1
2025-01-04 09:47:44.609554	231.6	18.9	-92.8	6.9
2025-01-04 09:47:46.910351	231.5	18.6	-92.7	8.2
2025-01-04 09:47:49.209038	231.3	18.3	-92.6	10.4
2025-01-04 09:47:51.508755	231.2	18.1	-92.7	8.7
2025-01-04 09:47:53.811978	231.1	17.8	-93.0	6.8
2025-01-04 09:47:56.095799	231.0	17.5	-92.7	3.3
2025-01-04 09:47:58.393129	230.9	17.3	-92.7	2.9
2025-01-04 09:48:00.675898	230.8	17.0	-93.1	4.8
2025-01-04 09:48:02.963536	230.7	16.8	-92.9	6.3
2025-01-04 09:48:05.255392	230.6	16.5	-92.5	6.4
2025-01-04 09:48:07.552170	230.5	16.2	-92.9	5.8
2025-01-04 09:48:09.848140	230.4	16.0	-93.0	5.9
2025-01-04 09:48:12.143737	230.3	15.8	-92.7	6.7
2025-01-04 09:48:14.440680	230.2	15.5	-92.8	4.9
2025-01-04 09:48:16.735825	230.1	15.3	-92.8	5.9
2025-01-04 09:48:19.037480	230.0	15.0	-93.2	6.0
2025-01-04 09:48:21.339139	229.9	14.8	-92.9	7.0
2025-01-04 09:48:23.619453	229.8	14.6	-92.7	4.8
#Closed at: 2025-01-04 09:39:23.334071