passes_logs/2025/01/04/LEX_Murmansk/LEX_Murmansk__20250104_161826_NOAA_19_rec.log

#Pass ID: 20250104_161826_NOAA 19
#Satellite: NOAA 19
#Configuration: NOAA 19
#Start time: 2025-01-04 16:18:21.092399

#LorettStation: 1.0.0 05.05.2024
#Station: LEX_Murmansk
#Location: 33.156738 lon 68.926811 lat
#TLE: 1 33591U 09005A   25003.74725296  .00000502  00000+0  29188-3 0  9994
#TLE: 2 33591  99.0215  67.4219 0014696  87.4906 272.7948 14.13249552819955

#Time	Az	El	Level	SNR
2025-01-04 16:18:35.335268	110.4	16.4	-90.5	7.2
2025-01-04 16:18:36.499261	110.3	16.6	-90.9	9.7
2025-01-04 16:18:37.659469	110.2	16.7	-91.2	6.6
2025-01-04 16:18:38.826123	110.1	16.8	-91.0	5.6
2025-01-04 16:18:39.992315	110.0	16.9	-90.9	7.3
2025-01-04 16:18:41.157280	109.9	17.1	-90.6	10.5
2025-01-04 16:18:42.315670	109.8	17.2	-91.1	9.2
2025-01-04 16:18:43.475899	109.7	17.3	-90.8	8.5
2025-01-04 16:18:44.634777	109.6	17.4	-90.9	6.0
2025-01-04 16:18:45.798129	109.5	17.6	-90.9	2.6
2025-01-04 16:18:46.969457	109.4	17.7	-90.9	3.5
2025-01-04 16:18:48.125686	109.3	17.8	-91.1	5.0
2025-01-04 16:18:49.284868	109.2	17.9	-90.9	4.7
2025-01-04 16:18:50.456258	109.1	18.1	-91.3	10.5
2025-01-04 16:18:51.620528	109.0	18.2	-90.8	11.9
2025-01-04 16:18:52.786411	108.9	18.3	-90.8	8.5
2025-01-04 16:18:53.941712	108.7	18.5	-91.1	8.6
2025-01-04 16:18:55.105588	108.6	18.6	-90.6	7.6
2025-01-04 16:18:56.271084	108.5	18.7	-90.9	4.6
2025-01-04 16:18:57.438736	108.4	18.8	-90.1	10.7
2025-01-04 16:18:58.597799	108.3	19.0	-91.0	10.3
2025-01-04 16:18:59.759986	108.2	19.1	-91.3	8.2
2025-01-04 16:19:00.912089	108.1	19.2	-91.2	6.2
2025-01-04 16:19:02.077025	108.0	19.4	-90.8	2.3
2025-01-04 16:19:03.237694	107.8	19.5	-90.0	1.3
2025-01-04 16:19:04.402163	107.7	19.6	-89.9	4.7
2025-01-04 16:19:05.565735	107.6	19.8	-90.5	4.2
2025-01-04 16:19:06.726316	107.5	19.9	-90.3	7.3
2025-01-04 16:19:07.891555	107.4	20.1	-90.2	6.3
2025-01-04 16:19:09.051444	107.2	20.2	-90.6	8.0
2025-01-04 16:19:10.213329	107.1	20.3	-90.3	5.6
2025-01-04 16:19:11.375188	107.0	20.5	-91.0	6.0
2025-01-04 16:19:12.542546	106.9	20.6	-90.9	5.3
2025-01-04 16:19:13.706704	106.7	20.7	-91.0	4.9
2025-01-04 16:19:14.865612	106.6	20.9	-90.6	8.1
2025-01-04 16:19:16.028027	106.5	21.0	-91.4	8.6
2025-01-04 16:19:17.188829	106.3	21.2	-90.3	8.6
2025-01-04 16:19:18.349872	106.2	21.3	-90.2	3.9
2025-01-04 16:19:19.507347	106.1	21.5	-91.0	3.7
2025-01-04 16:19:20.667457	105.9	21.6	-91.1	2.7
2025-01-04 16:19:21.825449	105.8	21.7	-90.9	1.1
2025-01-04 16:19:22.986262	105.7	21.9	-90.1	3.4
2025-01-04 16:19:24.130267	105.5	22.0	-91.3	6.3
2025-01-04 16:19:25.250560	105.4	22.2	-91.1	6.6
2025-01-04 16:19:26.404756	105.2	22.3	-91.1	5.9
2025-01-04 16:19:27.566397	105.1	22.5	-91.3	8.2
2025-01-04 16:19:28.728402	105.0	22.6	-91.1	1.2
2025-01-04 16:19:29.889317	104.8	22.8	-91.2	3.6
2025-01-04 16:19:31.042939	104.7	22.9	-91.1	1.7
2025-01-04 16:19:32.205821	104.5	23.1	-91.0	3.3
2025-01-04 16:19:33.346834	104.4	23.2	-90.9	2.4
2025-01-04 16:19:34.467441	104.2	23.3	-91.2	2.4
2025-01-04 16:19:35.587352	104.1	23.5	-91.1	3.9
2025-01-04 16:19:36.707677	103.9	23.6	-91.4	3.6
2025-01-04 16:19:37.827926	103.8	23.8	-90.9	2.2
2025-01-04 16:19:38.949344	103.6	23.9	-91.1	3.7
2025-01-04 16:19:40.070033	103.5	24.1	-90.7	3.4
2025-01-04 16:19:41.201146	103.3	24.2	-91.0	2.7
2025-01-04 16:19:42.349844	103.2	24.4	-91.1	4.2
2025-01-04 16:19:43.514309	103.0	24.5	-91.4	7.5
2025-01-04 16:19:44.664406	102.8	24.7	-90.7	5.2
2025-01-04 16:19:45.818454	102.7	24.9	-91.2	5.6
2025-01-04 16:19:46.969307	102.5	25.0	-91.0	4.7
2025-01-04 16:19:48.136067	102.3	25.2	-90.9	2.2
2025-01-04 16:19:49.295074	102.1	25.3	-90.6	4.1
2025-01-04 16:19:50.461440	102.0	25.5	-90.8	7.4
2025-01-04 16:19:51.623783	101.8	25.6	-91.1	7.5
2025-01-04 16:19:52.787574	101.6	25.8	-91.3	5.7
2025-01-04 16:19:53.951296	101.4	26.0	-91.2	4.8
2025-01-04 16:19:55.111389	101.3	26.1	-91.2	1.7
2025-01-04 16:19:56.275223	101.1	26.3	-91.0	1.9
2025-01-04 16:19:57.439889	100.9	26.5	-90.7	3.9
2025-01-04 16:19:58.601000	100.7	26.6	-90.5	3.8
2025-01-04 16:19:59.766491	100.5	26.8	-90.7	9.3
2025-01-04 16:20:00.915978	100.3	27.0	-90.6	11.2
2025-01-04 16:20:02.076724	100.1	27.1	-90.7	16.0
2025-01-04 16:20:03.245440	99.9	27.3	-91.3	14.4
2025-01-04 16:20:04.407569	99.7	27.5	-90.9	10.6
2025-01-04 16:20:05.576241	99.5	27.6	-90.9	11.4
2025-01-04 16:20:06.738022	99.3	27.8	-91.1	8.5
2025-01-04 16:20:07.900428	99.1	28.0	-90.9	13.3
2025-01-04 16:20:09.065271	98.9	28.1	-90.9	8.7
2025-01-04 16:20:10.229073	98.7	28.3	-90.8	7.9
2025-01-04 16:20:11.393925	98.5	28.5	-90.2	5.1
2025-01-04 16:20:12.557300	98.3	28.6	-90.4	6.4
2025-01-04 16:20:13.721720	98.1	28.8	-90.7	3.4
2025-01-04 16:20:14.879644	97.9	29.0	-90.9	3.8
2025-01-04 16:20:16.042481	97.6	29.2	-90.8	2.6
2025-01-04 16:20:17.192845	97.4	29.3	-90.4	3.4
2025-01-04 16:20:18.357512	97.2	29.5	-90.5	3.2
2025-01-04 16:20:19.519547	97.0	29.7	-91.4	7.7
2025-01-04 16:20:20.683469	96.7	29.9	-91.3	13.6
2025-01-04 16:20:21.843994	96.5	30.0	-90.9	9.0
2025-01-04 16:20:23.011708	96.3	30.2	-91.4	11.0
2025-01-04 16:20:24.171713	96.0	30.4	-91.0	10.2
2025-01-04 16:20:25.335958	95.8	30.6	-90.7	11.5
2025-01-04 16:20:26.497951	95.5	30.8	-91.0	12.7
2025-01-04 16:20:27.660947	95.3	30.9	-90.9	7.2
2025-01-04 16:20:28.827857	95.1	31.1	-91.2	7.3
2025-01-04 16:20:29.990669	94.8	31.3	-91.0	10.0
2025-01-04 16:20:31.153397	94.5	31.5	-91.3	8.8
2025-01-04 16:20:32.314832	94.3	31.7	-91.3	9.6
2025-01-04 16:20:33.478778	94.0	31.8	-91.3	6.9
2025-01-04 16:20:34.641558	93.8	32.0	-91.0	4.2
2025-01-04 16:20:35.806983	93.5	32.2	-91.0	2.3
2025-01-04 16:20:36.969845	93.2	32.4	-91.1	4.5
2025-01-04 16:20:38.134934	93.0	32.6	-91.0	3.9
2025-01-04 16:20:39.301392	92.7	32.8	-90.7	6.0
2025-01-04 16:20:40.465988	92.4	32.9	-90.7	17.7
2025-01-04 16:20:41.627923	92.1	33.1	-91.4	9.0
2025-01-04 16:20:42.793400	91.8	33.3	-91.2	10.2
2025-01-04 16:20:43.966568	91.5	33.5	-91.0	8.5
2025-01-04 16:20:45.121365	91.3	33.7	-90.9	16.6
2025-01-04 16:20:46.292087	91.0	33.9	-90.9	5.6
2025-01-04 16:20:47.447477	90.7	34.1	-91.1	6.3
2025-01-04 16:20:48.611880	90.4	34.2	-91.1	9.4
2025-01-04 16:20:49.779249	90.1	34.4	-91.2	8.3
2025-01-04 16:20:50.939985	89.7	34.6	-91.2	14.5
2025-01-04 16:20:52.106114	89.4	34.8	-90.9	16.0
2025-01-04 16:20:53.273265	89.1	35.0	-90.8	8.9
2025-01-04 16:20:54.429075	88.8	35.2	-90.7	8.6
2025-01-04 16:20:55.592144	88.5	35.4	-91.1	8.2
2025-01-04 16:20:56.757370	88.1	35.5	-90.7	1.6
2025-01-04 16:20:57.923062	87.8	35.7	-90.7	5.8
2025-01-04 16:20:59.086298	87.5	35.9	-90.9	5.5
2025-01-04 16:21:00.245490	87.1	36.1	-91.0	7.6
2025-01-04 16:21:01.399818	86.8	36.3	-90.6	8.2
2025-01-04 16:21:02.560904	86.5	36.5	-90.9	13.7
2025-01-04 16:21:03.724762	86.1	36.7	-91.2	12.1
2025-01-04 16:21:04.883787	85.7	36.9	-91.1	11.2
2025-01-04 16:21:06.049900	85.4	37.0	-91.0	13.0
2025-01-04 16:21:07.221529	85.0	37.2	-90.6	6.9
2025-01-04 16:21:08.381035	84.7	37.4	-90.4	7.2
2025-01-04 16:21:09.550850	84.3	37.6	-90.6	4.4
2025-01-04 16:21:10.714930	83.9	37.8	-90.8	6.8
2025-01-04 16:21:11.879010	83.5	38.0	-91.3	8.0
2025-01-04 16:21:13.042453	83.1	38.2	-90.9	10.1
2025-01-04 16:21:14.203184	82.8	38.3	-91.0	4.9
2025-01-04 16:21:15.365192	82.4	38.5	-91.2	11.7
2025-01-04 16:21:16.531466	82.0	38.7	-91.3	11.4
2025-01-04 16:21:17.703057	81.6	38.9	-90.6	10.9
2025-01-04 16:21:18.863419	81.2	39.1	-90.3	4.5
2025-01-04 16:21:20.027152	80.7	39.2	-90.9	5.4
2025-01-04 16:21:21.195817	80.3	39.4	-91.3	3.1
2025-01-04 16:21:22.359169	79.9	39.6	-91.2	3.0
2025-01-04 16:21:23.527813	79.5	39.8	-91.1	7.5
2025-01-04 16:21:24.689860	79.0	40.0	-91.0	6.2
2025-01-04 16:21:25.849473	78.6	40.1	-91.1	6.6
2025-01-04 16:21:27.016080	78.2	40.3	-91.1	10.1
2025-01-04 16:21:28.176715	77.7	40.5	-90.7	13.7
2025-01-04 16:21:29.343929	77.3	40.7	-91.1	15.1
2025-01-04 16:21:30.506919	76.8	40.8	-91.0	14.9
2025-01-04 16:21:31.665620	76.4	41.0	-90.8	13.6
2025-01-04 16:21:32.827690	75.9	41.2	-91.4	7.0
2025-01-04 16:21:33.989808	75.4	41.3	-91.4	9.3
2025-01-04 16:21:35.149860	75.0	41.5	-91.5	7.5
2025-01-04 16:21:36.323039	74.5	41.7	-91.2	7.0
2025-01-04 16:21:37.486631	74.0	41.8	-91.4	9.6
2025-01-04 16:21:38.643470	73.5	42.0	-91.2	12.0
2025-01-04 16:21:39.767960	73.0	42.1	-90.8	14.0
2025-01-04 16:21:40.887962	72.6	42.3	-91.3	11.7
2025-01-04 16:21:42.008185	72.1	42.4	-91.0	13.3
2025-01-04 16:21:43.128614	71.6	42.6	-90.8	13.3
2025-01-04 16:21:44.249621	71.1	42.7	-90.9	10.9
2025-01-04 16:21:45.371239	70.6	42.9	-90.9	13.0
2025-01-04 16:21:46.495561	70.1	43.0	-90.9	9.7
2025-01-04 16:21:47.620955	69.6	43.2	-91.1	7.7
2025-01-04 16:21:48.778626	69.1	43.3	-91.4	5.1
2025-01-04 16:21:49.943528	68.5	43.5	-91.5	6.5
2025-01-04 16:21:51.101703	68.0	43.6	-90.9	5.3
2025-01-04 16:21:52.247562	67.5	43.7	-91.0	1.8
2025-01-04 16:21:53.412134	66.9	43.9	-91.3	5.2
2025-01-04 16:21:54.574585	66.4	44.0	-91.0	7.6
2025-01-04 16:21:55.734191	65.8	44.1	-91.1	4.9
2025-01-04 16:21:56.896909	65.2	44.3	-90.9	7.9
2025-01-04 16:21:58.061524	64.7	44.4	-91.3	9.1
2025-01-04 16:21:59.230572	64.1	44.5	-91.1	12.4
2025-01-04 16:22:00.377107	63.5	44.6	-91.1	13.5
2025-01-04 16:22:01.545469	62.9	44.7	-91.2	14.6
2025-01-04 16:22:02.709132	62.4	44.8	-91.2	16.0
2025-01-04 16:22:03.874236	61.8	45.0	-91.4	14.7
2025-01-04 16:22:05.034431	61.2	45.1	-91.2	11.1
2025-01-04 16:22:06.196477	60.6	45.2	-90.6	9.4
2025-01-04 16:22:07.356254	60.0	45.3	-90.7	8.7
2025-01-04 16:22:08.514250	59.4	45.4	-91.3	10.1
2025-01-04 16:22:09.679567	58.8	45.5	-91.3	6.5
2025-01-04 16:22:10.841321	58.2	45.5	-91.0	4.0
2025-01-04 16:22:12.006576	57.6	45.6	-90.8	9.4
2025-01-04 16:22:13.170363	56.9	45.7	-90.8	9.7
2025-01-04 16:22:14.334767	56.3	45.8	-90.9	6.3
2025-01-04 16:22:15.494144	55.7	45.9	-91.2	10.9
2025-01-04 16:22:16.658661	55.1	45.9	-91.4	10.5
2025-01-04 16:22:17.824157	54.4	46.0	-91.0	10.1
2025-01-04 16:22:18.989182	53.8	46.1	-90.9	13.6
2025-01-04 16:22:20.157096	53.2	46.1	-90.9	13.9
2025-01-04 16:22:21.320253	52.5	46.2	-91.2	14.4
2025-01-04 16:22:22.482306	51.9	46.3	-91.6	16.7
2025-01-04 16:22:23.645432	51.2	46.3	-91.6	10.8
2025-01-04 16:22:24.808713	50.6	46.4	-91.1	8.4
2025-01-04 16:22:25.969694	50.0	46.4	-91.4	11.3
2025-01-04 16:22:27.130273	49.3	46.4	-91.3	9.1
2025-01-04 16:22:28.284404	48.7	46.5	-91.2	7.4
2025-01-04 16:22:29.450063	48.0	46.5	-91.0	6.5
2025-01-04 16:22:30.576380	47.4	46.5	-91.2	10.4
2025-01-04 16:22:31.696790	46.8	46.5	-91.2	5.8
2025-01-04 16:22:32.817424	46.1	46.6	-91.0	4.5
2025-01-04 16:22:33.937898	45.5	46.6	-91.4	7.1
2025-01-04 16:22:35.058094	44.9	46.6	-91.0	7.7
2025-01-04 16:22:36.178576	44.2	46.6	-91.2	3.5
2025-01-04 16:22:37.302777	43.6	46.6	-91.1	3.6
2025-01-04 16:22:38.423308	43.0	46.6	-90.7	5.5
2025-01-04 16:22:39.579496	42.3	46.6	-91.4	5.8
2025-01-04 16:22:40.738333	41.7	46.6	-91.1	3.6
2025-01-04 16:22:41.866945	41.0	46.6	-91.1	4.4
2025-01-04 16:22:42.995737	40.4	46.5	-91.2	6.6
2025-01-04 16:22:44.146236	39.8	46.5	-90.9	6.1
2025-01-04 16:22:45.291733	39.1	46.5	-91.2	4.0
2025-01-04 16:22:46.444295	38.5	46.5	-91.5	6.7
2025-01-04 16:22:47.596456	37.8	46.4	-91.1	8.1
2025-01-04 16:22:48.760263	37.2	46.4	-91.0	6.3
2025-01-04 16:22:49.919422	36.5	46.4	-90.9	8.2
2025-01-04 16:22:51.077442	35.9	46.3	-91.4	9.6
2025-01-04 16:22:52.240386	35.2	46.3	-91.0	11.9
2025-01-04 16:22:53.395335	34.6	46.2	-91.2	11.5
2025-01-04 16:22:54.557625	34.0	46.1	-91.3	14.1
2025-01-04 16:22:55.715371	33.3	46.1	-91.4	13.5
2025-01-04 16:22:56.877803	32.7	46.0	-91.6	13.6
2025-01-04 16:22:58.041270	32.1	46.0	-91.6	14.2
2025-01-04 16:22:59.199736	31.5	45.9	-91.2	13.3
2025-01-04 16:23:00.354254	30.8	45.8	-91.5	12.0
2025-01-04 16:23:01.519225	30.2	45.7	-91.6	14.4
2025-01-04 16:23:02.681933	29.6	45.6	-91.8	13.1
2025-01-04 16:23:03.847067	29.0	45.6	-91.6	14.0
2025-01-04 16:23:05.003821	28.4	45.5	-91.4	17.8
2025-01-04 16:23:06.174841	27.8	45.4	-91.3	14.2
2025-01-04 16:23:07.333692	27.2	45.3	-91.2	14.7
2025-01-04 16:23:08.491397	26.6	45.2	-91.1	15.4
2025-01-04 16:23:09.659509	26.0	45.1	-91.2	15.9
2025-01-04 16:23:10.822602	25.4	45.0	-91.5	14.5
2025-01-04 16:23:11.986664	24.8	44.9	-91.5	18.7
2025-01-04 16:23:13.150995	24.2	44.7	-91.6	16.4
2025-01-04 16:23:14.315101	23.6	44.6	-91.3	16.7
2025-01-04 16:23:15.472903	23.0	44.5	-91.4	17.6
2025-01-04 16:23:16.636786	22.5	44.4	-91.3	18.8
2025-01-04 16:23:17.798202	21.9	44.3	-91.1	16.5
2025-01-04 16:23:18.970179	21.3	44.1	-91.3	18.2
2025-01-04 16:23:20.135518	20.8	44.0	-91.4	18.4
2025-01-04 16:23:21.299521	20.2	43.9	-91.1	19.8
2025-01-04 16:23:22.463413	19.7	43.7	-91.2	15.9
2025-01-04 16:23:23.628781	19.1	43.6	-91.3	18.5
2025-01-04 16:23:24.791629	18.6	43.5	-91.5	14.3
2025-01-04 16:23:25.945289	18.1	43.3	-91.3	15.7
2025-01-04 16:23:27.105896	17.5	43.2	-91.3	16.8
2025-01-04 16:23:28.269362	17.0	43.0	-91.0	17.3
2025-01-04 16:23:29.431634	16.5	42.9	-90.9	13.4
2025-01-04 16:23:30.596479	16.0	42.7	-90.6	15.6
2025-01-04 16:23:31.761194	15.5	42.6	-90.8	15.6
2025-01-04 16:23:32.929461	15.0	42.4	-90.7	13.7
2025-01-04 16:23:34.082769	14.5	42.3	-91.1	16.4
2025-01-04 16:23:35.244324	14.0	42.1	-91.0	13.1
2025-01-04 16:23:36.404747	13.5	42.0	-91.2	11.6
2025-01-04 16:23:37.568889	13.0	41.8	-91.3	12.8
2025-01-04 16:23:38.733082	12.5	41.6	-91.4	8.9
2025-01-04 16:23:39.897519	12.0	41.5	-91.3	9.6
2025-01-04 16:23:41.061562	11.6	41.3	-91.1	9.9
2025-01-04 16:23:42.229865	11.1	41.1	-91.0	9.3
2025-01-04 16:23:43.394298	10.6	41.0	-91.0	10.0
2025-01-04 16:23:44.560218	10.2	40.8	-91.5	7.6
2025-01-04 16:23:45.723183	9.7	40.6	-91.5	6.3
2025-01-04 16:23:46.882900	9.3	40.5	-91.3	4.0
2025-01-04 16:23:48.049682	8.8	40.3	-91.2	9.7
2025-01-04 16:23:49.211324	8.4	40.1	-90.2	3.0
2025-01-04 16:23:50.375631	8.0	39.9	-90.3	4.0
2025-01-04 16:23:51.536987	7.5	39.7	-90.5	7.5
2025-01-04 16:23:52.704644	7.1	39.6	-90.5	5.6
2025-01-04 16:23:53.870920	6.7	39.4	-91.0	6.4
2025-01-04 16:23:55.032538	6.3	39.2	-90.8	7.8
2025-01-04 16:23:56.191794	5.9	39.0	-91.4	5.7
2025-01-04 16:23:57.356106	5.5	38.9	-91.1	8.0
2025-01-04 16:23:58.522132	5.1	38.7	-90.7	8.6
2025-01-04 16:23:59.677797	4.7	38.5	-91.0	7.5
2025-01-04 16:24:00.832602	4.3	38.3	-91.2	8.8
2025-01-04 16:24:01.997134	3.9	38.1	-91.2	7.9
2025-01-04 16:24:03.160985	3.5	37.9	-90.9	8.4
2025-01-04 16:24:04.322257	3.1	37.8	-90.8	9.6
2025-01-04 16:24:05.485922	2.8	37.6	-91.0	13.1
2025-01-04 16:24:06.646987	2.4	37.4	-90.9	14.9
2025-01-04 16:24:07.811729	2.0	37.2	-90.9	11.4
2025-01-04 16:24:08.979674	1.7	37.0	-91.6	16.1
2025-01-04 16:24:10.140429	1.3	36.8	-90.5	12.2
2025-01-04 16:24:11.303941	0.9	36.6	-90.1	9.8
2025-01-04 16:24:12.468071	0.6	36.5	-90.1	16.6
2025-01-04 16:24:13.627061	0.3	36.3	-90.1	14.4
2025-01-04 16:24:14.785727	359.9	36.1	-90.4	11.4
2025-01-04 16:24:15.945646	359.6	35.9	-90.2	12.2
2025-01-04 16:24:17.114135	359.2	35.7	-90.3	10.0
2025-01-04 16:24:18.272680	358.9	35.5	-90.1	6.9
2025-01-04 16:24:19.437622	358.6	35.3	-90.0	7.8
2025-01-04 16:24:20.599264	358.3	35.2	-89.9	9.3
2025-01-04 16:24:21.760464	357.9	35.0	-90.4	6.0
2025-01-04 16:24:22.917494	357.6	34.8	-90.8	5.7
2025-01-04 16:24:24.085632	357.3	34.6	-90.6	7.2
2025-01-04 16:24:25.243472	357.0	34.4	-90.5	3.2
2025-01-04 16:24:26.409414	356.7	34.2	-90.5	3.6
2025-01-04 16:24:27.571156	356.4	34.0	-90.5	4.2
2025-01-04 16:24:28.732251	356.1	33.9	-90.8	3.8
2025-01-04 16:24:29.893248	355.8	33.7	-90.9	5.4
2025-01-04 16:24:31.055984	355.5	33.5	-90.7	3.5
2025-01-04 16:24:32.221489	355.2	33.3	-90.7	3.3
2025-01-04 16:24:33.384368	355.0	33.1	-90.3	2.9
2025-01-04 16:24:34.551434	354.7	32.9	-90.7	8.2
2025-01-04 16:24:35.710358	354.4	32.7	-90.5	12.6
2025-01-04 16:24:36.882003	354.1	32.6	-90.5	10.6
2025-01-04 16:24:38.052303	353.9	32.4	-90.8	6.4
2025-01-04 16:24:39.216742	353.6	32.2	-90.6	5.1
2025-01-04 16:24:40.385210	353.3	32.0	-90.2	6.9
2025-01-04 16:24:41.544048	353.1	31.8	-90.4	6.1
2025-01-04 16:24:42.704997	352.8	31.7	-91.1	5.3
2025-01-04 16:24:43.875247	352.5	31.5	-90.7	3.7
2025-01-04 16:24:45.033648	352.3	31.3	-90.6	7.3
2025-01-04 16:24:46.193379	352.0	31.1	-90.2	4.4
2025-01-04 16:24:47.360643	351.8	30.9	-90.6	2.7
2025-01-04 16:24:48.523039	351.5	30.8	-90.8	5.1
2025-01-04 16:24:49.690920	351.3	30.6	-90.2	3.0
2025-01-04 16:24:50.853877	351.1	30.4	-90.1	6.2
2025-01-04 16:24:52.019588	350.8	30.2	-90.3	3.6
2025-01-04 16:24:53.184143	350.6	30.0	-90.5	1.9
2025-01-04 16:24:54.343983	350.4	29.9	-90.5	3.8
2025-01-04 16:24:55.508565	350.1	29.7	-91.0	3.4
2025-01-04 16:24:56.669440	349.9	29.5	-91.1	10.1
2025-01-04 16:24:57.837250	349.7	29.3	-91.0	5.8
2025-01-04 16:24:59.001760	349.5	29.2	-91.0	10.5
2025-01-04 16:25:00.157096	349.2	29.0	-90.7	8.9
2025-01-04 16:25:01.307730	349.0	28.8	-90.6	5.8
2025-01-04 16:25:02.467571	348.8	28.6	-91.0	5.2
2025-01-04 16:25:03.631982	348.6	28.5	-90.9	4.5
2025-01-04 16:25:04.799345	348.4	28.3	-91.1	5.3
2025-01-04 16:25:05.966221	348.2	28.1	-90.8	4.7
2025-01-04 16:25:07.122069	348.0	28.0	-90.9	6.6
2025-01-04 16:25:08.288934	347.8	27.8	-91.1	2.0
2025-01-04 16:25:09.454237	347.6	27.6	-91.3	2.8
2025-01-04 16:25:10.618145	347.4	27.5	-91.4	4.8
2025-01-04 16:25:11.781327	347.2	27.3	-91.3	4.0
2025-01-04 16:25:12.946468	347.0	27.1	-91.1	5.3
2025-01-04 16:25:14.105298	346.8	27.0	-91.1	8.8
2025-01-04 16:25:15.264939	346.6	26.8	-91.1	7.0
2025-01-04 16:25:16.428632	346.4	26.6	-91.4	13.6
2025-01-04 16:25:17.588743	346.2	26.5	-91.2	14.0
2025-01-04 16:25:18.756151	346.0	26.3	-91.4	12.4
2025-01-04 16:25:19.921339	345.9	26.1	-91.5	4.3
2025-01-04 16:25:21.083413	345.7	26.0	-91.3	6.9
2025-01-04 16:25:22.246426	345.5	25.8	-91.1	4.9
2025-01-04 16:25:23.407062	345.3	25.7	-91.4	3.0
2025-01-04 16:25:24.568521	345.1	25.5	-91.4	6.5
2025-01-04 16:25:25.727154	345.0	25.3	-91.4	3.1
2025-01-04 16:25:26.889172	344.8	25.2	-91.5	3.9
2025-01-04 16:25:28.053965	344.6	25.0	-91.5	6.4
2025-01-04 16:25:29.218999	344.5	24.9	-91.2	2.0
2025-01-04 16:25:30.382879	344.3	24.7	-91.0	2.2
2025-01-04 16:25:31.554322	344.1	24.5	-91.2	9.5
2025-01-04 16:25:32.718089	344.0	24.4	-91.5	3.4
2025-01-04 16:25:33.885603	343.8	24.2	-91.6	5.6
2025-01-04 16:25:35.049221	343.6	24.1	-91.2	3.0
2025-01-04 16:25:36.212686	343.5	23.9	-91.1	4.6
2025-01-04 16:25:37.375694	343.3	23.8	-91.1	6.8
2025-01-04 16:25:38.536859	343.2	23.6	-90.9	3.9
2025-01-04 16:25:39.708502	343.0	23.5	-91.0	4.9
2025-01-04 16:25:40.867332	342.9	23.3	-91.3	5.1
2025-01-04 16:25:42.033145	342.7	23.2	-91.7	3.1
2025-01-04 16:25:43.190331	342.6	23.0	-91.4	2.1
2025-01-04 16:25:44.355802	342.4	22.9	-91.4	2.1
2025-01-04 16:25:45.518305	342.3	22.7	-91.1	5.1
2025-01-04 16:25:46.677084	342.1	22.6	-90.9	1.9
2025-01-04 16:25:47.846640	342.0	22.4	-90.8	3.9
2025-01-04 16:25:49.009306	341.8	22.3	-91.0	5.8
2025-01-04 16:25:50.172199	341.7	22.1	-90.8	3.5
2025-01-04 16:25:51.335624	341.6	22.0	-90.8	6.6
2025-01-04 16:25:52.495441	341.4	21.8	-91.0	16.0
2025-01-04 16:25:53.659318	341.3	21.7	-91.4	7.1
2025-01-04 16:25:54.824424	341.1	21.6	-91.6	5.9
2025-01-04 16:25:55.984947	341.0	21.4	-91.7	5.3
2025-01-04 16:25:57.153643	340.9	21.3	-91.2	5.4
2025-01-04 16:25:58.318629	340.7	21.1	-91.2	2.3
2025-01-04 16:25:59.476462	340.6	21.0	-91.6	1.8
2025-01-04 16:26:00.628685	340.5	20.8	-91.5	2.9
2025-01-04 16:26:01.900554	340.3	20.7	-90.7	3.4
2025-01-04 16:26:03.064560	340.2	20.6	-90.8	3.7
2025-01-04 16:26:04.231693	340.1	20.4	-90.8	2.0
2025-01-04 16:26:05.388047	340.0	20.3	-90.9	5.9
2025-01-04 16:26:06.544151	339.9	20.1	-91.0	2.9
2025-01-04 16:26:07.707522	339.7	20.0	-91.0	6.0
2025-01-04 16:26:08.872235	339.6	19.9	-91.1	2.8
2025-01-04 16:26:10.033377	339.5	19.7	-91.3	3.4
2025-01-04 16:26:11.198495	339.4	19.6	-90.7	3.2
2025-01-04 16:26:12.361235	339.3	19.5	-91.3	1.5
2025-01-04 16:26:13.528336	339.1	19.3	-91.0	2.3
2025-01-04 16:26:14.792757	339.0	19.2	-91.6	1.7
2025-01-04 16:26:15.955402	338.9	19.1	-91.3	3.6
2025-01-04 16:26:17.119574	338.8	18.9	-91.3	4.8
2025-01-04 16:26:18.284227	338.7	18.8	-91.3	3.1
2025-01-04 16:26:19.446410	338.6	18.7	-91.2	3.4
2025-01-04 16:26:20.606289	338.4	18.5	-91.3	3.3
2025-01-04 16:26:21.770862	338.3	18.4	-91.2	2.5
2025-01-04 16:26:22.931632	338.2	18.3	-91.1	2.6
2025-01-04 16:26:24.096314	338.1	18.1	-91.2	4.5
2025-01-04 16:26:25.251755	338.0	18.0	-91.3	1.3
2025-01-04 16:26:26.411542	337.9	17.9	-91.1	2.5
2025-01-04 16:26:27.584906	337.8	17.8	-91.4	3.7
2025-01-04 16:26:28.751068	337.7	17.6	-91.4	2.3
2025-01-04 16:26:29.913472	337.6	17.5	-91.1	2.1
2025-01-04 16:26:31.084157	337.5	17.4	-91.2	3.8
2025-01-04 16:26:32.250243	337.4	17.3	-90.8	1.7
2025-01-04 16:26:33.411380	337.3	17.1	-90.7	3.1
2025-01-04 16:26:34.574248	337.2	17.0	-91.2	2.4
2025-01-04 16:26:35.734517	337.1	16.9	-91.0	2.9
2025-01-04 16:26:36.896519	337.0	16.8	-91.3	3.3
2025-01-04 16:26:38.060834	336.9	16.6	-91.7	1.7
2025-01-04 16:26:39.226241	336.8	16.5	-91.6	3.0
2025-01-04 16:26:40.393976	336.7	16.4	-91.4	0.8
2025-01-04 16:26:41.556962	336.6	16.3	-91.4	0.6
2025-01-04 16:26:42.828510	336.5	16.2	-91.4	2.6
2025-01-04 16:26:43.988341	336.4	16.0	-91.3	1.7
2025-01-04 16:26:45.262587	336.3	15.9	-91.5	1.3
2025-01-04 16:26:46.419466	336.2	15.8	-91.1	2.1
2025-01-04 16:26:47.587475	336.1	15.7	-91.1	3.0
2025-01-04 16:26:48.750409	336.0	15.5	-91.4	1.5
2025-01-04 16:26:49.909566	336.0	15.4	-91.3	1.6
2025-01-04 16:26:51.066008	335.9	15.3	-90.8	2.5
2025-01-04 16:26:52.226208	335.8	15.2	-91.5	2.3
2025-01-04 16:26:53.392083	335.7	15.1	-91.5	3.9
2025-01-04 16:26:54.549523	335.6	15.0	-91.3	2.9
2025-01-04 16:26:55.730024	335.5	14.9	-91.3	3.1
2025-01-04 16:26:56.883356	335.4	14.7	-91.7	4.5
2025-01-04 16:26:58.052001	335.3	14.6	-91.4	2.9
2025-01-04 16:26:59.209856	335.3	14.5	-91.1	2.6
#Closed at: 2025-01-04 16:18:26.130926