passes_logs/2025/01/04/LEX_Murmansk/LEX_Murmansk__20250104_061838_NOAA_19_rec.log

#Pass ID: 20250104_061838_NOAA 19
#Satellite: NOAA 19
#Configuration: NOAA 19
#Start time: 2025-01-04 06:18:33.075793

#LorettStation: 1.0.0 05.05.2024
#Station: LEX_Murmansk
#Location: 33.156738 lon 68.926811 lat
#TLE: 1 33591U 09005A   25003.74725296  .00000502  00000+0  29188-3 0  9994
#TLE: 2 33591  99.0215  67.4219 0014696  87.4906 272.7948 14.13249552819955

#Time	Az	El	Level	SNR
2025-01-04 06:18:45.329479	48.4	15.7	-91.7	3.2
2025-01-04 06:18:46.481116	48.6	15.7	-91.0	7.2
2025-01-04 06:18:47.632075	48.8	15.8	-91.5	8.6
2025-01-04 06:18:48.780298	49.0	15.9	-92.1	4.5
2025-01-04 06:18:49.927858	49.2	15.9	-91.9	5.4
2025-01-04 06:18:51.071767	49.5	16.0	-91.5	5.1
2025-01-04 06:18:52.219127	49.7	16.0	-91.8	3.5
2025-01-04 06:18:53.361455	49.9	16.1	-91.7	3.6
2025-01-04 06:18:54.504684	50.1	16.2	-91.3	5.6
2025-01-04 06:18:55.651011	50.3	16.2	-92.3	3.2
2025-01-04 06:18:56.799299	50.6	16.3	-91.9	4.6
2025-01-04 06:18:57.947808	50.8	16.3	-91.8	5.2
2025-01-04 06:18:59.091248	51.0	16.4	-91.9	4.3
2025-01-04 06:19:00.229609	51.2	16.5	-91.8	10.1
2025-01-04 06:19:01.373852	51.4	16.5	-91.8	4.6
2025-01-04 06:19:02.519280	51.7	16.6	-91.7	4.2
2025-01-04 06:19:03.662292	51.9	16.6	-92.0	5.5
2025-01-04 06:19:04.813956	52.1	16.7	-92.1	2.8
2025-01-04 06:19:05.956071	52.3	16.7	-91.7	1.3
2025-01-04 06:19:07.103470	52.6	16.8	-91.6	1.8
2025-01-04 06:19:08.230479	52.8	16.9	-91.5	1.4
2025-01-04 06:19:09.351404	53.0	16.9	-91.2	3.2
2025-01-04 06:19:10.471876	53.3	17.0	-91.5	4.4
2025-01-04 06:19:11.592453	53.5	17.0	-91.2	3.5
2025-01-04 06:19:12.713572	53.7	17.1	-91.8	4.5
2025-01-04 06:19:13.835507	53.9	17.1	-91.9	4.7
2025-01-04 06:19:14.956385	54.2	17.2	-91.9	11.0
2025-01-04 06:19:16.080739	54.4	17.2	-92.0	11.0
2025-01-04 06:19:17.221280	54.6	17.3	-91.0	4.9
2025-01-04 06:19:18.365179	54.9	17.3	-91.8	6.8
2025-01-04 06:19:19.511069	55.1	17.4	-92.0	6.6
2025-01-04 06:19:20.650570	55.3	17.5	-91.4	6.7
2025-01-04 06:19:21.794731	55.6	17.5	-91.5	2.8
2025-01-04 06:19:22.941437	55.8	17.6	-91.7	5.4
2025-01-04 06:19:24.089758	56.1	17.6	-91.8	6.6
2025-01-04 06:19:25.234244	56.3	17.7	-91.6	6.4
2025-01-04 06:19:26.377486	56.5	17.7	-91.7	4.1
2025-01-04 06:19:27.525780	56.8	17.8	-91.9	14.7
2025-01-04 06:19:28.670470	57.0	17.8	-91.6	7.7
2025-01-04 06:19:29.816158	57.3	17.9	-91.7	12.6
2025-01-04 06:19:30.963007	57.5	17.9	-91.5	12.3
2025-01-04 06:19:32.111670	57.8	18.0	-91.6	6.5
2025-01-04 06:19:33.260403	58.0	18.0	-92.0	6.4
2025-01-04 06:19:34.406964	58.3	18.1	-91.2	3.7
2025-01-04 06:19:35.549201	58.5	18.1	-91.6	6.8
2025-01-04 06:19:36.697110	58.8	18.2	-91.7	3.1
2025-01-04 06:19:37.839704	59.0	18.2	-91.6	1.0
2025-01-04 06:19:38.988831	59.3	18.2	-91.6	3.2
2025-01-04 06:19:40.134046	59.5	18.3	-91.4	4.0
2025-01-04 06:19:41.283049	59.8	18.3	-91.4	4.4
2025-01-04 06:19:42.428571	60.0	18.4	-91.3	8.2
2025-01-04 06:19:43.574575	60.3	18.4	-92.0	7.4
2025-01-04 06:19:44.724780	60.5	18.5	-92.3	3.9
2025-01-04 06:19:45.864592	60.8	18.5	-91.5	10.5
2025-01-04 06:19:47.018150	61.0	18.6	-91.8	13.7
2025-01-04 06:19:48.165888	61.3	18.6	-91.8	12.3
2025-01-04 06:19:49.313951	61.6	18.6	-91.5	5.4
2025-01-04 06:19:50.463800	61.8	18.7	-91.9	9.7
2025-01-04 06:19:51.607520	62.1	18.7	-92.5	9.8
2025-01-04 06:19:52.757944	62.3	18.8	-91.6	9.2
2025-01-04 06:19:53.901977	62.6	18.8	-91.9	5.9
2025-01-04 06:19:55.048954	62.9	18.9	-90.7	8.8
2025-01-04 06:19:56.199112	63.1	18.9	-91.1	6.2
2025-01-04 06:19:57.347379	63.4	18.9	-91.5	4.4
2025-01-04 06:19:58.497775	63.6	19.0	-91.7	5.3
2025-01-04 06:19:59.645805	63.9	19.0	-91.6	4.7
2025-01-04 06:20:00.786344	64.2	19.0	-91.8	7.6
2025-01-04 06:20:01.933375	64.4	19.1	-92.0	5.6
2025-01-04 06:20:03.083932	64.7	19.1	-91.3	6.1
2025-01-04 06:20:04.231866	65.0	19.2	-91.4	6.0
2025-01-04 06:20:05.375711	65.2	19.2	-91.8	16.2
2025-01-04 06:20:06.525873	65.5	19.2	-91.3	15.1
2025-01-04 06:20:07.673770	65.8	19.3	-91.8	15.9
2025-01-04 06:20:08.819719	66.0	19.3	-91.8	2.7
2025-01-04 06:20:09.971975	66.3	19.3	-92.1	7.1
2025-01-04 06:20:11.121073	66.6	19.4	-91.7	8.7
2025-01-04 06:20:12.267618	66.9	19.4	-91.4	5.0
2025-01-04 06:20:13.417474	67.1	19.4	-92.0	4.8
2025-01-04 06:20:14.564587	67.4	19.5	-91.3	5.8
2025-01-04 06:20:15.715407	67.7	19.5	-91.7	2.2
2025-01-04 06:20:16.859073	67.9	19.5	-92.1	3.0
2025-01-04 06:20:18.010300	68.2	19.5	-91.9	5.1
2025-01-04 06:20:19.154527	68.5	19.6	-91.3	3.3
2025-01-04 06:20:20.303060	68.8	19.6	-91.8	4.5
2025-01-04 06:20:21.451444	69.0	19.6	-91.9	8.9
2025-01-04 06:20:22.600490	69.3	19.7	-92.3	5.6
2025-01-04 06:20:23.759777	69.6	19.7	-92.0	11.9
2025-01-04 06:20:24.911049	69.9	19.7	-91.7	8.4
2025-01-04 06:20:26.059936	70.1	19.7	-91.7	12.5
2025-01-04 06:20:27.203434	70.4	19.8	-92.0	11.2
2025-01-04 06:20:28.352868	70.7	19.8	-92.3	4.1
2025-01-04 06:20:29.500009	71.0	19.8	-92.1	6.7
2025-01-04 06:20:30.648988	71.3	19.8	-92.1	9.6
2025-01-04 06:20:31.797789	71.5	19.8	-92.6	5.6
2025-01-04 06:20:32.944473	71.8	19.9	-92.1	13.2
2025-01-04 06:20:34.088113	72.1	19.9	-91.9	7.1
2025-01-04 06:20:35.234335	72.4	19.9	-92.3	6.9
2025-01-04 06:20:36.383588	72.6	19.9	-92.2	4.9
2025-01-04 06:20:37.530092	72.9	19.9	-92.4	8.1
2025-01-04 06:20:38.673485	73.2	20.0	-92.4	7.9
2025-01-04 06:20:39.820620	73.5	20.0	-92.1	4.6
2025-01-04 06:20:40.968338	73.8	20.0	-92.1	2.4
2025-01-04 06:20:42.112176	74.0	20.0	-92.4	10.7
2025-01-04 06:20:43.261178	74.3	20.0	-92.6	3.1
2025-01-04 06:20:44.402608	74.6	20.0	-92.2	6.6
2025-01-04 06:20:45.548276	74.9	20.0	-92.1	7.2
2025-01-04 06:20:46.699188	75.2	20.1	-92.7	9.2
2025-01-04 06:20:47.848044	75.5	20.1	-92.0	10.4
2025-01-04 06:20:48.995912	75.7	20.1	-92.6	9.8
2025-01-04 06:20:50.144550	76.0	20.1	-92.3	11.9
2025-01-04 06:20:51.290132	76.3	20.1	-92.1	7.6
2025-01-04 06:20:52.435583	76.6	20.1	-92.1	12.8
2025-01-04 06:20:53.586412	76.9	20.1	-92.7	13.6
2025-01-04 06:20:54.741141	77.2	20.1	-92.6	11.9
2025-01-04 06:20:55.885065	77.4	20.1	-92.3	13.3
2025-01-04 06:20:57.036864	77.7	20.1	-92.6	13.1
2025-01-04 06:20:58.200535	78.0	20.1	-91.9	11.1
2025-01-04 06:20:59.351019	78.3	20.2	-91.9	10.3
2025-01-04 06:21:00.492255	78.6	20.2	-92.7	8.6
2025-01-04 06:21:01.638046	78.9	20.2	-92.6	9.3
2025-01-04 06:21:02.788487	79.2	20.2	-92.6	4.1
2025-01-04 06:21:03.932252	79.4	20.2	-92.6	7.6
2025-01-04 06:21:05.083080	79.7	20.2	-92.1	7.7
2025-01-04 06:21:06.230337	80.0	20.2	-91.5	1.6
2025-01-04 06:21:07.376906	80.3	20.2	-92.5	3.2
2025-01-04 06:21:08.524222	80.6	20.2	-92.3	3.8
2025-01-04 06:21:09.670899	80.9	20.2	-92.2	2.4
2025-01-04 06:21:10.821044	81.1	20.2	-92.5	2.6
2025-01-04 06:21:11.971417	81.4	20.2	-92.2	2.9
2025-01-04 06:21:13.120583	81.7	20.2	-92.1	4.4
2025-01-04 06:21:14.269313	82.0	20.2	-92.4	2.2
2025-01-04 06:21:15.412034	82.3	20.1	-92.3	4.6
2025-01-04 06:21:16.564540	82.6	20.1	-92.5	7.2
2025-01-04 06:21:17.708999	82.9	20.1	-92.3	5.6
2025-01-04 06:21:18.858247	83.1	20.1	-92.6	4.1
2025-01-04 06:21:20.002647	83.4	20.1	-91.9	7.2
2025-01-04 06:21:21.150799	83.7	20.1	-92.1	9.4
2025-01-04 06:21:22.300883	84.0	20.1	-92.1	6.0
2025-01-04 06:21:23.446831	84.3	20.1	-92.5	8.7
2025-01-04 06:21:24.589555	84.6	20.1	-92.6	7.9
2025-01-04 06:21:25.731063	84.8	20.1	-92.6	9.0
2025-01-04 06:21:26.874308	85.1	20.1	-92.3	6.1
2025-01-04 06:21:28.024778	85.4	20.1	-92.5	9.3
2025-01-04 06:21:29.172956	85.7	20.0	-92.2	10.9
2025-01-04 06:21:30.325248	86.0	20.0	-91.7	9.8
2025-01-04 06:21:31.470720	86.2	20.0	-92.8	8.4
2025-01-04 06:21:32.619133	86.5	20.0	-92.4	8.0
2025-01-04 06:21:33.771770	86.8	20.0	-92.8	5.9
2025-01-04 06:21:34.913804	87.1	20.0	-91.7	5.1
2025-01-04 06:21:36.060571	87.4	19.9	-92.7	10.9
2025-01-04 06:21:37.209093	87.7	19.9	-92.3	10.2
2025-01-04 06:21:38.358393	87.9	19.9	-92.2	12.6
2025-01-04 06:21:39.500814	88.2	19.9	-92.6	8.8
2025-01-04 06:21:40.645359	88.5	19.9	-91.1	9.1
2025-01-04 06:21:41.796023	88.8	19.9	-92.5	9.9
2025-01-04 06:21:42.944633	89.0	19.8	-92.7	8.9
2025-01-04 06:21:44.094260	89.3	19.8	-92.4	9.2
2025-01-04 06:21:45.256181	89.6	19.8	-92.0	9.3
2025-01-04 06:21:46.408097	89.9	19.8	-92.5	10.2
2025-01-04 06:21:47.554425	90.2	19.7	-92.3	9.0
2025-01-04 06:21:48.699016	90.4	19.7	-92.4	12.2
2025-01-04 06:21:49.850796	90.7	19.7	-92.6	11.0
2025-01-04 06:21:50.995716	91.0	19.7	-92.2	9.3
2025-01-04 06:21:52.139943	91.3	19.6	-92.2	10.9
2025-01-04 06:21:53.283794	91.5	19.6	-92.3	8.2
2025-01-04 06:21:54.431498	91.8	19.6	-92.0	11.5
2025-01-04 06:21:55.577955	92.1	19.6	-92.3	8.8
2025-01-04 06:21:56.726897	92.4	19.5	-92.6	12.9
2025-01-04 06:21:57.879375	92.6	19.5	-92.3	9.0
2025-01-04 06:21:59.026843	92.9	19.5	-92.6	10.7
2025-01-04 06:22:00.171466	93.2	19.4	-92.4	9.8
2025-01-04 06:22:01.319702	93.5	19.4	-91.0	9.6
2025-01-04 06:22:02.467862	93.7	19.4	-92.2	10.1
2025-01-04 06:22:03.614262	94.0	19.3	-92.9	7.8
2025-01-04 06:22:04.775310	94.3	19.3	-92.4	8.1
2025-01-04 06:22:05.921905	94.5	19.3	-92.7	6.4
2025-01-04 06:22:07.068645	94.8	19.2	-92.4	9.0
2025-01-04 06:22:08.212051	95.1	19.2	-92.4	6.3
2025-01-04 06:22:09.362739	95.3	19.2	-92.8	7.4
2025-01-04 06:22:10.506166	95.6	19.1	-92.6	4.1
2025-01-04 06:22:11.653841	95.9	19.1	-92.5	5.9
2025-01-04 06:22:12.802127	96.1	19.1	-92.5	11.1
2025-01-04 06:22:13.950744	96.4	19.0	-92.3	6.9
2025-01-04 06:22:15.094747	96.7	19.0	-92.1	8.8
2025-01-04 06:22:16.237166	96.9	19.0	-92.3	10.0
2025-01-04 06:22:17.383351	97.2	18.9	-92.3	7.7
2025-01-04 06:22:18.532095	97.5	18.9	-92.3	7.7
2025-01-04 06:22:19.678426	97.7	18.8	-92.5	5.6
2025-01-04 06:22:20.825126	98.0	18.8	-92.3	8.1
2025-01-04 06:22:21.974893	98.2	18.8	-92.2	6.0
2025-01-04 06:22:23.124212	98.5	18.7	-92.2	6.6
2025-01-04 06:22:24.272131	98.8	18.7	-92.2	8.1
2025-01-04 06:22:25.417501	99.0	18.6	-92.7	7.9
2025-01-04 06:22:26.564299	99.3	18.6	-92.9	4.7
2025-01-04 06:22:27.716774	99.5	18.5	-92.5	5.4
2025-01-04 06:22:28.863027	99.8	18.5	-92.1	7.6
2025-01-04 06:22:30.012026	100.1	18.5	-91.5	3.8
2025-01-04 06:22:31.157549	100.3	18.4	-91.4	2.2
2025-01-04 06:22:32.307472	100.6	18.4	-91.0	4.4
2025-01-04 06:22:33.454591	100.8	18.3	-91.4	4.6
2025-01-04 06:22:34.596827	101.1	18.3	-91.9	3.7
2025-01-04 06:22:35.746128	101.3	18.2	-91.2	2.0
2025-01-04 06:22:36.894228	101.6	18.2	-91.5	1.5
2025-01-04 06:22:38.047753	101.8	18.1	-91.3	4.7
2025-01-04 06:22:39.193207	102.1	18.1	-91.3	3.9
2025-01-04 06:22:40.338544	102.3	18.0	-92.2	1.7
2025-01-04 06:22:41.481527	102.6	18.0	-92.7	2.5
2025-01-04 06:22:42.634168	102.8	17.9	-92.7	4.2
2025-01-04 06:22:43.791485	103.1	17.9	-92.4	4.1
2025-01-04 06:22:44.932280	103.3	17.8	-92.6	2.4
2025-01-04 06:22:46.078659	103.6	17.8	-92.3	5.3
2025-01-04 06:22:47.225160	103.8	17.7	-92.2	7.0
2025-01-04 06:22:48.369846	104.0	17.7	-91.6	8.0
2025-01-04 06:22:49.520439	104.3	17.6	-92.3	9.3
2025-01-04 06:22:50.665047	104.5	17.6	-92.5	7.7
2025-01-04 06:22:51.814275	104.8	17.5	-92.4	7.9
2025-01-04 06:22:52.956647	105.0	17.5	-92.5	5.1
2025-01-04 06:22:54.104383	105.2	17.4	-92.5	7.5
2025-01-04 06:22:55.251037	105.5	17.4	-91.9	7.6
2025-01-04 06:22:56.408569	105.7	17.3	-92.6	9.6
2025-01-04 06:22:57.556868	106.0	17.3	-92.4	7.9
2025-01-04 06:22:58.700270	106.2	17.2	-92.3	7.5
2025-01-04 06:22:59.848239	106.4	17.2	-92.2	10.2
2025-01-04 06:23:00.982583	106.7	17.1	-92.5	7.8
2025-01-04 06:23:02.130031	106.9	17.0	-92.3	4.9
2025-01-04 06:23:03.255182	107.1	17.0	-92.1	7.0
2025-01-04 06:23:04.377148	107.4	16.9	-92.2	6.8
2025-01-04 06:23:05.497645	107.6	16.9	-92.3	5.3
2025-01-04 06:23:06.618098	107.8	16.8	-92.2	7.0
2025-01-04 06:23:07.738619	108.0	16.8	-92.2	11.1
2025-01-04 06:23:08.858724	108.3	16.7	-92.5	8.5
2025-01-04 06:23:09.979154	108.5	16.7	-92.4	6.5
2025-01-04 06:23:11.099978	108.7	16.6	-91.7	5.9
2025-01-04 06:23:12.237900	108.9	16.5	-92.3	8.8
2025-01-04 06:23:13.381059	109.1	16.5	-91.5	7.3
2025-01-04 06:23:14.526261	109.4	16.4	-92.5	2.9
2025-01-04 06:23:15.670481	109.6	16.4	-92.3	4.0
2025-01-04 06:23:16.807800	109.8	16.3	-92.4	6.4
2025-01-04 06:23:17.956931	110.0	16.2	-92.3	6.0
2025-01-04 06:23:19.098372	110.3	16.2	-92.3	1.1
2025-01-04 06:23:20.246582	110.5	16.1	-92.1	6.0
2025-01-04 06:23:21.394001	110.7	16.1	-92.5	7.6
2025-01-04 06:23:22.541175	110.9	16.0	-92.6	5.3
2025-01-04 06:23:23.692394	111.1	15.9	-92.3	6.3
2025-01-04 06:23:24.841971	111.4	15.9	-92.4	7.9
2025-01-04 06:23:25.981426	111.6	15.8	-91.9	4.6
2025-01-04 06:23:27.132456	111.8	15.8	-91.9	10.6
2025-01-04 06:23:28.279990	112.0	15.7	-92.3	7.4
2025-01-04 06:23:29.442551	112.2	15.6	-92.1	8.7
2025-01-04 06:23:30.585822	112.4	15.6	-92.4	10.4
2025-01-04 06:23:31.737119	112.6	15.5	-92.6	6.9
2025-01-04 06:23:32.889385	112.8	15.4	-92.5	1.7
2025-01-04 06:23:34.040833	113.1	15.4	-92.2	7.7
2025-01-04 06:23:35.190014	113.3	15.3	-92.6	5.3
2025-01-04 06:23:36.341959	113.5	15.3	-92.4	5.9
2025-01-04 06:23:37.490003	113.7	15.2	-92.3	3.6
2025-01-04 06:23:38.631335	113.9	15.1	-92.7	5.5
2025-01-04 06:23:39.774207	114.1	15.1	-92.2	7.7
2025-01-04 06:23:40.919679	114.3	15.0	-92.5	4.3
2025-01-04 06:23:42.065781	114.5	14.9	-92.8	6.1
2025-01-04 06:23:43.214244	114.7	14.9	-91.4	3.5
2025-01-04 06:23:44.360218	114.9	14.8	-92.2	4.4
2025-01-04 06:23:45.501119	115.1	14.7	-92.1	5.6
#Closed at: 2025-01-04 06:18:38.129613