passes_logs/2025/01/04/LEX_Murmansk/LEX_Murmansk__20250104_200720_NOAA_18_rec.log

#Pass ID: 20250104_200720_NOAA 18
#Satellite: NOAA 18
#Configuration: NOAA 18
#Start time: 2025-01-04 20:07:15.743718

#LorettStation: 1.0.0 05.05.2024
#Station: LEX_Murmansk
#Location: 33.156738 lon 68.926811 lat
#TLE: 1 28654U 05018A   25003.76610367  .00000568  00000+0  32493-3 0  9997
#TLE: 2 28654  98.8583  84.9311 0013827 211.1121 148.9234 14.13475198 11594

#Time	Az	El	Level	SNR
2025-01-04 20:07:27.985021	192.3	16.2	-92.3	5.9
2025-01-04 20:07:30.297272	192.5	16.4	-91.5	7.9
2025-01-04 20:07:32.590507	192.7	16.7	-92.3	3.1
2025-01-04 20:07:34.900984	192.9	16.9	-92.5	6.3
2025-01-04 20:07:37.201758	193.2	17.1	-91.8	5.1
2025-01-04 20:07:39.503998	193.4	17.4	-92.4	6.5
2025-01-04 20:07:41.810003	193.6	17.6	-92.1	7.9
2025-01-04 20:07:44.115139	193.8	17.9	-91.8	4.7
2025-01-04 20:07:46.410525	194.0	18.1	-92.5	7.2
2025-01-04 20:07:48.721308	194.3	18.4	-92.1	9.2
2025-01-04 20:07:51.021715	194.5	18.6	-92.2	10.1
2025-01-04 20:07:53.317903	194.8	18.9	-91.6	13.3
2025-01-04 20:07:55.618124	195.0	19.1	-92.3	7.6
2025-01-04 20:07:57.928609	195.2	19.4	-92.3	9.2
2025-01-04 20:08:00.232196	195.5	19.6	-91.7	5.6
2025-01-04 20:08:02.540346	195.8	19.9	-92.4	5.9
2025-01-04 20:08:04.840326	196.0	20.1	-92.5	7.9
2025-01-04 20:08:07.149590	196.3	20.4	-91.7	4.5
2025-01-04 20:08:09.452107	196.5	20.7	-92.1	5.0
2025-01-04 20:08:11.757413	196.8	20.9	-92.4	4.5
2025-01-04 20:08:14.061270	197.1	21.2	-92.3	6.6
2025-01-04 20:08:16.360496	197.4	21.5	-92.0	5.8
2025-01-04 20:08:18.661844	197.7	21.8	-92.2	6.7
2025-01-04 20:08:20.936001	198.0	22.0	-92.3	7.1
2025-01-04 20:08:23.235941	198.3	22.3	-92.0	10.0
2025-01-04 20:08:25.544583	198.6	22.6	-92.0	11.6
2025-01-04 20:08:27.841178	198.9	22.9	-91.8	15.5
2025-01-04 20:08:30.108036	199.2	23.2	-91.9	5.8
2025-01-04 20:08:32.349415	199.5	23.4	-92.1	12.3
2025-01-04 20:08:34.591109	199.8	23.7	-92.3	8.4
2025-01-04 20:08:36.833203	200.1	24.0	-92.1	8.9
2025-01-04 20:08:39.129525	200.4	24.3	-91.9	4.1
2025-01-04 20:08:41.421801	200.8	24.6	-92.0	10.3
2025-01-04 20:08:43.720602	201.1	24.9	-92.0	10.6
2025-01-04 20:08:46.023646	201.5	25.2	-91.9	11.9
2025-01-04 20:08:48.322706	201.9	25.5	-92.2	10.2
2025-01-04 20:08:50.618617	202.2	25.8	-92.0	17.3
2025-01-04 20:08:52.926033	202.6	26.1	-92.6	8.0
2025-01-04 20:08:55.215844	203.0	26.4	-92.2	11.8
2025-01-04 20:08:57.517136	203.4	26.7	-92.3	5.6
2025-01-04 20:08:59.813255	203.8	27.1	-92.3	11.8
2025-01-04 20:09:02.108591	204.2	27.4	-92.6	8.0
2025-01-04 20:09:04.401218	204.6	27.7	-92.3	13.0
2025-01-04 20:09:06.702774	205.0	28.0	-92.1	8.1
2025-01-04 20:09:08.974514	205.4	28.3	-92.0	9.5
2025-01-04 20:09:11.272014	205.8	28.6	-92.2	7.1
2025-01-04 20:09:13.566160	206.3	29.0	-92.8	7.0
2025-01-04 20:09:15.864301	206.7	29.3	-92.5	8.8
2025-01-04 20:09:18.159350	207.2	29.6	-92.4	3.9
2025-01-04 20:09:20.471768	207.7	30.0	-93.2	5.6
2025-01-04 20:09:22.772264	208.2	30.3	-92.9	6.5
2025-01-04 20:09:25.076633	208.6	30.6	-92.1	5.6
2025-01-04 20:09:27.382186	209.1	31.0	-92.7	8.6
2025-01-04 20:09:29.689791	209.7	31.3	-92.5	6.7
2025-01-04 20:09:31.988174	210.2	31.7	-92.7	6.6
2025-01-04 20:09:34.280124	210.7	32.0	-92.3	7.7
2025-01-04 20:09:36.571712	211.3	32.3	-92.5	3.5
2025-01-04 20:09:38.871257	211.8	32.7	-92.5	8.7
2025-01-04 20:09:41.187479	212.4	33.0	-92.1	5.2
2025-01-04 20:09:43.482008	213.0	33.4	-92.3	10.8
2025-01-04 20:09:45.775349	213.5	33.7	-93.0	10.7
2025-01-04 20:09:48.077913	214.1	34.1	-92.2	5.0
2025-01-04 20:09:50.380588	214.8	34.4	-92.8	3.9
2025-01-04 20:09:52.680417	215.4	34.8	-92.4	13.1
2025-01-04 20:09:54.978413	216.0	35.1	-92.4	13.2
2025-01-04 20:09:57.279622	216.7	35.5	-92.5	12.1
2025-01-04 20:09:59.571584	217.4	35.8	-92.2	6.5
2025-01-04 20:10:01.867615	218.0	36.1	-91.9	13.9
2025-01-04 20:10:04.157725	218.7	36.5	-91.9	13.4
2025-01-04 20:10:06.402577	219.4	36.8	-92.0	15.8
2025-01-04 20:10:08.642828	220.1	37.2	-92.4	12.9
2025-01-04 20:10:10.884330	220.9	37.5	-92.4	14.0
2025-01-04 20:10:13.129369	221.6	37.8	-92.5	9.6
2025-01-04 20:10:15.426338	222.4	38.2	-92.4	13.8
2025-01-04 20:10:17.712614	223.1	38.5	-92.1	17.2
2025-01-04 20:10:19.995763	223.9	38.8	-92.2	13.1
2025-01-04 20:10:22.268724	224.7	39.1	-91.8	15.7
2025-01-04 20:10:24.561051	225.6	39.5	-92.1	9.1
2025-01-04 20:10:26.846101	226.4	39.8	-91.8	17.5
2025-01-04 20:10:29.143064	227.3	40.1	-92.2	14.2
2025-01-04 20:10:31.450005	228.2	40.4	-92.5	13.6
2025-01-04 20:10:33.758139	229.1	40.7	-92.1	11.4
2025-01-04 20:10:36.065091	230.0	41.0	-92.2	12.1
2025-01-04 20:10:38.374068	230.9	41.3	-92.6	14.1
2025-01-04 20:10:40.680761	231.9	41.6	-92.5	13.2
2025-01-04 20:10:42.986007	232.9	41.9	-92.9	10.7
2025-01-04 20:10:45.283949	233.8	42.2	-92.5	16.5
2025-01-04 20:10:47.574757	234.8	42.4	-92.6	10.3
2025-01-04 20:10:49.882253	235.9	42.7	-93.0	14.5
2025-01-04 20:10:52.174223	236.9	43.0	-92.4	5.1
2025-01-04 20:10:54.479460	237.9	43.2	-92.9	7.4
2025-01-04 20:10:56.783255	239.0	43.4	-92.0	21.6
2025-01-04 20:10:59.088729	240.1	43.7	-92.6	12.1
2025-01-04 20:11:01.372251	241.2	43.9	-92.4	18.0
2025-01-04 20:11:03.678963	242.3	44.1	-92.6	20.7
2025-01-04 20:11:05.977478	243.4	44.3	-92.4	22.9
2025-01-04 20:11:08.282544	244.6	44.5	-92.2	21.9
2025-01-04 20:11:10.594510	245.7	44.6	-93.0	8.5
2025-01-04 20:11:12.893724	246.9	44.8	-92.3	25.0
2025-01-04 20:11:15.189766	248.0	44.9	-92.1	23.3
2025-01-04 20:11:17.492885	249.2	45.1	-92.3	13.4
2025-01-04 20:11:19.796824	250.4	45.2	-92.8	27.4
2025-01-04 20:11:22.101634	251.6	45.3	-92.1	22.9
2025-01-04 20:11:24.417247	252.8	45.4	-92.2	26.4
2025-01-04 20:11:26.723878	254.1	45.5	-92.5	25.8
2025-01-04 20:11:29.030180	255.3	45.6	-92.3	20.9
2025-01-04 20:11:31.331257	256.5	45.6	-91.8	16.2
2025-01-04 20:11:33.629059	257.7	45.6	-92.4	24.7
2025-01-04 20:11:35.896866	258.9	45.7	-92.6	21.2
2025-01-04 20:11:38.138454	260.1	45.7	-91.9	19.8
2025-01-04 20:11:40.381493	261.3	45.7	-92.4	18.5
2025-01-04 20:11:42.632471	262.6	45.7	-92.5	14.0
2025-01-04 20:11:44.898424	263.8	45.6	-92.3	23.9
2025-01-04 20:11:47.202982	265.0	45.6	-92.1	19.2
2025-01-04 20:11:49.506094	266.2	45.5	-92.8	14.4
2025-01-04 20:11:51.825738	267.4	45.5	-92.7	20.7
2025-01-04 20:11:54.129415	268.7	45.4	-92.4	12.3
2025-01-04 20:11:56.439426	269.9	45.3	-92.0	14.9
2025-01-04 20:11:58.738786	271.1	45.1	-92.7	17.9
2025-01-04 20:12:01.045766	272.3	45.0	-92.3	11.6
2025-01-04 20:12:03.359627	273.4	44.9	-92.0	9.7
2025-01-04 20:12:05.654187	274.6	44.7	-92.8	17.4
2025-01-04 20:12:07.948822	275.8	44.6	-92.6	12.9
2025-01-04 20:12:10.213994	276.9	44.4	-92.4	16.2
2025-01-04 20:12:12.503577	278.0	44.2	-92.4	11.1
2025-01-04 20:12:14.804913	279.1	44.0	-92.5	15.2
2025-01-04 20:12:17.100137	280.2	43.8	-92.3	16.6
2025-01-04 20:12:19.403566	281.3	43.6	-92.1	13.4
2025-01-04 20:12:21.704228	282.4	43.3	-92.9	18.8
2025-01-04 20:12:24.009329	283.4	43.1	-92.7	12.2
2025-01-04 20:12:26.318801	284.5	42.9	-92.0	20.5
2025-01-04 20:12:28.621346	285.5	42.6	-93.3	11.1
2025-01-04 20:12:30.917346	286.5	42.3	-92.8	16.8
2025-01-04 20:12:33.201485	287.5	42.1	-91.9	19.9
2025-01-04 20:12:35.475574	288.5	41.8	-92.1	18.7
2025-01-04 20:12:37.766146	289.4	41.5	-92.8	21.7
2025-01-04 20:12:40.052762	290.4	41.2	-92.9	9.8
2025-01-04 20:12:42.360853	291.3	40.9	-92.2	10.8
2025-01-04 20:12:44.660012	292.2	40.6	-92.4	11.0
2025-01-04 20:12:46.963474	293.1	40.3	-91.8	12.5
2025-01-04 20:12:49.277026	294.0	40.0	-92.4	16.1
2025-01-04 20:12:51.583980	294.9	39.7	-92.5	9.4
2025-01-04 20:12:53.877827	295.7	39.4	-92.7	12.7
2025-01-04 20:12:56.176699	296.5	39.0	-92.4	7.8
2025-01-04 20:12:58.479853	297.3	38.7	-92.8	10.2
2025-01-04 20:13:00.773405	298.1	38.4	-92.6	21.0
2025-01-04 20:13:03.074259	298.9	38.0	-92.2	9.4
2025-01-04 20:13:05.401340	299.7	37.7	-92.6	15.8
2025-01-04 20:13:07.703940	300.4	37.4	-92.5	10.6
2025-01-04 20:13:09.996619	301.2	37.0	-92.7	13.0
2025-01-04 20:13:12.300214	301.9	36.7	-92.1	10.2
2025-01-04 20:13:14.601099	302.6	36.3	-92.5	9.8
2025-01-04 20:13:16.913912	303.3	36.0	-92.6	12.6
2025-01-04 20:13:19.209548	304.0	35.6	-90.8	16.1
2025-01-04 20:13:21.511765	304.6	35.3	-92.7	7.4
2025-01-04 20:13:23.817710	305.3	34.9	-92.7	8.3
2025-01-04 20:13:26.122132	305.9	34.6	-92.5	8.2
2025-01-04 20:13:28.424217	306.5	34.2	-92.1	10.8
2025-01-04 20:13:30.726521	307.1	33.9	-92.9	7.5
2025-01-04 20:13:33.024785	307.7	33.6	-91.3	8.2
2025-01-04 20:13:35.322655	308.3	33.2	-92.1	6.6
2025-01-04 20:13:37.582080	308.9	32.9	-92.4	10.2
2025-01-04 20:13:39.823034	309.4	32.5	-92.7	6.5
2025-01-04 20:13:42.065552	310.0	32.2	-92.3	11.5
2025-01-04 20:13:44.309975	310.5	31.9	-92.6	5.9
2025-01-04 20:13:46.591784	311.0	31.5	-92.6	15.6
2025-01-04 20:13:48.904423	311.5	31.2	-92.5	14.8
2025-01-04 20:13:51.196009	312.0	30.9	-92.7	11.0
2025-01-04 20:13:53.488255	312.5	30.5	-92.7	10.4
2025-01-04 20:13:55.784831	313.0	30.2	-92.6	11.8
2025-01-04 20:13:58.078400	313.5	29.9	-92.6	12.2
2025-01-04 20:14:00.366714	314.0	29.5	-92.2	13.4
2025-01-04 20:14:02.674000	314.4	29.2	-93.0	10.9
2025-01-04 20:14:04.977716	314.9	28.9	-93.1	7.3
2025-01-04 20:14:07.276153	315.3	28.5	-92.2	14.4
2025-01-04 20:14:09.574111	315.7	28.2	-91.9	11.0
2025-01-04 20:14:11.893934	316.2	27.9	-92.0	17.6
2025-01-04 20:14:14.192052	316.6	27.6	-92.2	8.1
2025-01-04 20:14:16.499375	317.0	27.3	-92.8	9.0
2025-01-04 20:14:18.786889	317.4	26.9	-92.4	11.9
2025-01-04 20:14:21.054141	317.8	26.6	-90.7	9.2
2025-01-04 20:14:23.339852	318.2	26.3	-91.8	10.5
2025-01-04 20:14:25.633444	318.5	26.0	-92.6	12.2
2025-01-04 20:14:27.930761	318.9	25.7	-92.4	17.1
2025-01-04 20:14:30.229972	319.3	25.4	-90.6	8.6
2025-01-04 20:14:32.521619	319.6	25.1	-91.2	9.8
2025-01-04 20:14:34.821089	320.0	24.8	-90.1	11.6
2025-01-04 20:14:37.122354	320.3	24.5	-90.8	6.0
2025-01-04 20:14:39.434546	320.7	24.2	-91.3	6.8
2025-01-04 20:14:41.734479	321.0	23.9	-92.5	12.2
2025-01-04 20:14:44.047637	321.3	23.6	-90.8	7.6
2025-01-04 20:14:46.342520	321.6	23.3	-91.4	5.6
2025-01-04 20:14:48.643006	322.0	23.0	-93.0	5.3
2025-01-04 20:14:50.945902	322.3	22.8	-92.5	8.5
2025-01-04 20:14:53.217808	322.6	22.5	-89.9	8.1
2025-01-04 20:14:55.460106	322.9	22.2	-91.9	10.3
2025-01-04 20:14:57.701373	323.2	21.9	-92.3	15.1
2025-01-04 20:14:59.941763	323.4	21.7	-93.1	7.3
2025-01-04 20:15:02.212344	323.7	21.4	-92.5	7.1
2025-01-04 20:15:04.506693	324.0	21.1	-92.2	8.0
2025-01-04 20:15:06.789997	324.3	20.9	-92.8	8.4
2025-01-04 20:15:09.088687	324.5	20.6	-92.1	7.5
2025-01-04 20:15:11.369112	324.8	20.3	-92.6	5.5
2025-01-04 20:15:13.656059	325.1	20.1	-93.0	3.1
2025-01-04 20:15:15.955206	325.3	19.8	-89.0	4.7
2025-01-04 20:15:18.248913	325.6	19.6	-92.7	6.2
2025-01-04 20:15:20.550748	325.8	19.3	-92.5	3.3
2025-01-04 20:15:22.849734	326.1	19.1	-92.9	4.9
2025-01-04 20:15:25.144863	326.3	18.8	-92.1	3.8
2025-01-04 20:15:27.452295	326.6	18.6	-92.7	2.9
2025-01-04 20:15:29.750660	326.8	18.3	-92.5	5.1
2025-01-04 20:15:32.048139	327.0	18.1	-92.2	5.5
2025-01-04 20:15:34.316070	327.2	17.8	-92.2	5.6
2025-01-04 20:15:36.604005	327.5	17.6	-92.9	5.1
2025-01-04 20:15:38.889630	327.7	17.3	-93.1	4.9
2025-01-04 20:15:41.190675	327.9	17.1	-92.2	4.4
2025-01-04 20:15:43.480993	328.1	16.9	-93.3	4.1
2025-01-04 20:15:45.788618	328.3	16.6	-93.0	6.8
2025-01-04 20:15:48.085652	328.5	16.4	-92.3	7.3
2025-01-04 20:15:50.387292	328.8	16.2	-92.3	7.1
2025-01-04 20:15:52.694036	329.0	15.9	-92.7	6.4
2025-01-04 20:15:54.997175	329.2	15.7	-91.7	5.5
2025-01-04 20:15:57.314584	329.4	15.5	-91.2	7.6
2025-01-04 20:15:59.619571	329.6	15.3	-92.1	3.8
2025-01-04 20:16:01.916187	329.7	15.0	-92.8	6.7
2025-01-04 20:16:04.217509	329.9	14.8	-92.5	6.3
2025-01-04 20:16:06.516964	330.1	14.6	-92.9	8.4
#Closed at: 2025-01-04 20:07:20.783421