passes_logs/2025/01/04/LEX_Murmansk/LEX_Murmansk__20250104_114744_NOAA_18_rec.log

#Pass ID: 20250104_114744_NOAA 18
#Satellite: NOAA 18
#Configuration: NOAA 18
#Start time: 2025-01-04 11:47:39.540109

#LorettStation: 1.0.0 05.05.2024
#Station: LEX_Murmansk
#Location: 33.156738 lon 68.926811 lat
#TLE: 1 28654U 05018A   25003.76610367  .00000568  00000+0  32493-3 0  9997
#TLE: 2 28654  98.8583  84.9311 0013827 211.1121 148.9234 14.13475198 11594

#Time	Az	El	Level	SNR
2025-01-04 11:47:51.766589	23.2	16.2	-92.1	9.0
2025-01-04 11:47:52.926335	23.1	16.3	-91.9	9.8
2025-01-04 11:47:54.092986	23.0	16.4	-91.8	8.6
2025-01-04 11:47:55.262890	22.8	16.5	-91.6	6.0
2025-01-04 11:47:56.432768	22.7	16.6	-92.0	5.6
2025-01-04 11:47:57.592976	22.6	16.7	-92.0	10.6
2025-01-04 11:47:58.759599	22.5	16.9	-91.9	9.0
2025-01-04 11:47:59.918692	22.4	17.0	-91.8	6.2
2025-01-04 11:48:01.067294	22.3	17.1	-91.6	7.3
2025-01-04 11:48:02.231211	22.1	17.2	-91.4	7.5
2025-01-04 11:48:03.397905	22.0	17.3	-91.6	6.5
2025-01-04 11:48:04.560609	21.9	17.4	-92.0	8.7
2025-01-04 11:48:05.724386	21.8	17.6	-92.5	7.3
2025-01-04 11:48:06.889324	21.7	17.7	-91.8	9.1
2025-01-04 11:48:08.048964	21.5	17.8	-91.5	6.9
2025-01-04 11:48:09.217597	21.4	17.9	-91.8	8.6
2025-01-04 11:48:10.382126	21.3	18.0	-92.1	7.8
2025-01-04 11:48:11.549854	21.2	18.2	-92.1	12.1
2025-01-04 11:48:12.714174	21.0	18.3	-92.1	12.9
2025-01-04 11:48:13.881969	20.9	18.4	-91.9	13.0
2025-01-04 11:48:15.042024	20.8	18.5	-91.9	10.6
2025-01-04 11:48:16.197329	20.6	18.7	-91.8	14.3
2025-01-04 11:48:17.362927	20.5	18.8	-92.1	11.9
2025-01-04 11:48:18.522233	20.4	18.9	-92.1	16.0
2025-01-04 11:48:19.688746	20.2	19.0	-92.3	13.1
2025-01-04 11:48:20.847129	20.1	19.1	-92.3	14.2
2025-01-04 11:48:22.005675	20.0	19.3	-92.4	8.3
2025-01-04 11:48:23.162469	19.8	19.4	-91.8	7.2
2025-01-04 11:48:24.322859	19.7	19.5	-91.9	7.7
2025-01-04 11:48:25.483314	19.5	19.6	-91.7	7.8
2025-01-04 11:48:26.649298	19.4	19.8	-92.4	11.2
2025-01-04 11:48:27.810358	19.3	19.9	-92.2	6.9
2025-01-04 11:48:28.977054	19.1	20.0	-92.2	6.6
2025-01-04 11:48:30.141054	19.0	20.2	-92.0	7.5
2025-01-04 11:48:31.304621	18.8	20.3	-92.0	7.4
2025-01-04 11:48:32.474670	18.7	20.4	-92.6	8.4
2025-01-04 11:48:33.637762	18.5	20.5	-92.5	9.4
2025-01-04 11:48:34.802429	18.4	20.7	-92.4	6.3
2025-01-04 11:48:35.961471	18.2	20.8	-92.2	10.3
2025-01-04 11:48:37.128901	18.1	20.9	-91.6	11.6
2025-01-04 11:48:38.290337	17.9	21.1	-91.6	10.0
2025-01-04 11:48:39.453858	17.7	21.2	-92.1	6.0
2025-01-04 11:48:40.617519	17.6	21.3	-92.1	6.4
2025-01-04 11:48:41.778796	17.4	21.5	-92.3	8.0
2025-01-04 11:48:42.944356	17.3	21.6	-92.2	6.0
2025-01-04 11:48:44.118075	17.1	21.7	-91.7	7.3
2025-01-04 11:48:45.278003	16.9	21.9	-91.6	10.3
2025-01-04 11:48:46.444038	16.8	22.0	-92.1	9.0
2025-01-04 11:48:47.615569	16.6	22.1	-92.1	11.2
2025-01-04 11:48:48.779406	16.4	22.3	-92.3	11.1
2025-01-04 11:48:49.938030	16.3	22.4	-92.5	7.3
2025-01-04 11:48:51.103977	16.1	22.5	-92.1	6.7
2025-01-04 11:48:52.269491	15.9	22.7	-91.9	13.4
2025-01-04 11:48:53.432062	15.8	22.8	-92.0	8.1
2025-01-04 11:48:54.590680	15.6	22.9	-92.3	9.8
2025-01-04 11:48:55.711793	15.4	23.1	-91.9	10.7
2025-01-04 11:48:56.853577	15.2	23.2	-92.3	10.6
2025-01-04 11:48:58.017659	15.1	23.3	-92.5	5.8
2025-01-04 11:48:59.187554	14.9	23.5	-91.9	8.9
2025-01-04 11:49:00.336315	14.7	23.6	-92.0	11.2
2025-01-04 11:49:01.500913	14.5	23.8	-92.2	6.0
2025-01-04 11:49:02.668555	14.3	23.9	-92.3	9.5
2025-01-04 11:49:03.833014	14.1	24.0	-92.1	11.8
2025-01-04 11:49:05.001825	13.9	24.2	-92.3	12.8
2025-01-04 11:49:06.157173	13.8	24.3	-91.5	9.9
2025-01-04 11:49:07.324446	13.6	24.5	-92.2	12.7
2025-01-04 11:49:08.479551	13.4	24.6	-92.6	9.6
2025-01-04 11:49:09.640103	13.2	24.7	-92.4	8.8
2025-01-04 11:49:10.804618	13.0	24.9	-92.3	12.3
2025-01-04 11:49:11.970605	12.8	25.0	-92.4	8.6
2025-01-04 11:49:13.131286	12.6	25.2	-91.9	10.9
2025-01-04 11:49:14.295917	12.4	25.3	-91.8	10.3
2025-01-04 11:49:15.468432	12.2	25.5	-91.8	10.1
2025-01-04 11:49:16.595707	12.0	25.6	-92.2	10.9
2025-01-04 11:49:17.732393	11.8	25.7	-92.2	11.1
2025-01-04 11:49:18.852898	11.6	25.9	-91.7	9.5
2025-01-04 11:49:19.973621	11.3	26.0	-92.6	6.4
2025-01-04 11:49:21.095490	11.1	26.2	-91.7	7.4
2025-01-04 11:49:22.216044	10.9	26.3	-91.7	7.1
2025-01-04 11:49:23.336902	10.7	26.4	-91.5	7.9
2025-01-04 11:49:24.457588	10.5	26.6	-92.2	12.4
2025-01-04 11:49:25.583440	10.3	26.7	-92.2	7.0
2025-01-04 11:49:26.728274	10.1	26.9	-92.2	8.2
2025-01-04 11:49:27.888284	9.8	27.0	-92.4	11.9
2025-01-04 11:49:29.049941	9.6	27.2	-92.0	7.3
2025-01-04 11:49:30.209282	9.4	27.3	-92.0	12.0
2025-01-04 11:49:31.369032	9.1	27.5	-92.2	12.4
2025-01-04 11:49:32.535766	8.9	27.6	-92.5	13.1
2025-01-04 11:49:33.699440	8.7	27.8	-92.1	11.8
2025-01-04 11:49:34.866783	8.4	27.9	-91.4	10.7
2025-01-04 11:49:36.029684	8.2	28.1	-92.1	9.3
2025-01-04 11:49:37.195799	7.9	28.2	-91.7	8.0
2025-01-04 11:49:38.360802	7.7	28.4	-91.8	7.1
2025-01-04 11:49:39.527942	7.4	28.5	-92.4	4.5
2025-01-04 11:49:40.695052	7.2	28.7	-92.3	9.2
2025-01-04 11:49:41.860077	6.9	28.8	-92.3	5.8
2025-01-04 11:49:43.024795	6.7	29.0	-92.5	4.9
2025-01-04 11:49:44.190447	6.4	29.1	-91.9	7.7
2025-01-04 11:49:45.351096	6.2	29.3	-91.9	7.3
2025-01-04 11:49:46.504533	5.9	29.4	-92.2	9.0
2025-01-04 11:49:47.663070	5.6	29.6	-92.1	10.7
2025-01-04 11:49:48.825391	5.4	29.7	-92.5	10.5
2025-01-04 11:49:49.988778	5.1	29.9	-92.6	9.2
2025-01-04 11:49:51.157287	4.8	30.0	-91.8	9.5
2025-01-04 11:49:52.322677	4.5	30.2	-92.0	10.1
2025-01-04 11:49:53.487163	4.2	30.3	-92.4	8.1
2025-01-04 11:49:54.651747	4.0	30.5	-92.4	11.3
2025-01-04 11:49:55.808159	3.7	30.6	-90.5	10.6
2025-01-04 11:49:56.977616	3.4	30.8	-90.9	7.1
2025-01-04 11:49:58.138283	3.1	30.9	-90.6	9.1
2025-01-04 11:49:59.302420	2.8	31.1	-90.3	10.7
2025-01-04 11:50:00.450062	2.5	31.2	-90.9	6.0
2025-01-04 11:50:01.621499	2.2	31.4	-91.0	8.1
2025-01-04 11:50:02.777793	1.9	31.5	-92.6	10.8
2025-01-04 11:50:03.942333	1.6	31.7	-92.1	7.7
2025-01-04 11:50:05.104531	1.3	31.8	-92.1	9.0
2025-01-04 11:50:06.256332	1.0	32.0	-91.9	8.9
2025-01-04 11:50:07.418215	0.7	32.1	-92.4	7.8
2025-01-04 11:50:08.584500	0.4	32.3	-92.5	9.4
2025-01-04 11:50:09.744123	0.0	32.4	-92.4	10.1
2025-01-04 11:50:10.903678	359.7	32.6	-92.4	10.6
2025-01-04 11:50:12.062375	359.4	32.7	-91.8	8.0
2025-01-04 11:50:13.242771	359.1	32.9	-92.0	13.9
2025-01-04 11:50:14.408121	358.7	33.0	-92.8	12.9
2025-01-04 11:50:15.569842	358.4	33.2	-92.5	11.4
2025-01-04 11:50:16.724787	358.1	33.3	-92.4	14.9
2025-01-04 11:50:17.889765	357.7	33.5	-92.3	14.9
2025-01-04 11:50:19.054621	357.4	33.6	-92.2	16.5
2025-01-04 11:50:20.212506	357.0	33.7	-92.0	17.4
2025-01-04 11:50:21.378060	356.7	33.9	-92.1	15.7
2025-01-04 11:50:22.543875	356.3	34.0	-92.2	12.2
2025-01-04 11:50:23.708429	356.0	34.2	-92.2	13.3
2025-01-04 11:50:24.866248	355.6	34.3	-92.4	13.6
2025-01-04 11:50:26.026195	355.3	34.5	-92.1	8.4
2025-01-04 11:50:27.194022	354.9	34.6	-91.9	14.4
2025-01-04 11:50:28.353085	354.5	34.7	-92.0	14.1
2025-01-04 11:50:29.513830	354.1	34.9	-92.6	10.2
2025-01-04 11:50:30.673590	353.8	35.0	-92.5	8.1
2025-01-04 11:50:31.838706	353.4	35.2	-92.5	15.7
2025-01-04 11:50:33.000957	353.0	35.3	-92.5	15.3
2025-01-04 11:50:34.165927	352.6	35.4	-91.0	14.2
2025-01-04 11:50:35.330666	352.2	35.6	-91.1	11.4
2025-01-04 11:50:36.492956	351.8	35.7	-91.6	11.2
2025-01-04 11:50:37.661121	351.5	35.9	-92.2	10.0
2025-01-04 11:50:38.823407	351.1	36.0	-92.5	16.8
2025-01-04 11:50:39.994396	350.6	36.1	-92.3	9.6
2025-01-04 11:50:41.157308	350.2	36.2	-91.7	14.4
2025-01-04 11:50:42.318561	349.8	36.4	-91.5	17.9
2025-01-04 11:50:43.486956	349.4	36.5	-92.2	10.8
2025-01-04 11:50:44.658808	349.0	36.6	-92.4	14.3
2025-01-04 11:50:45.821828	348.6	36.8	-92.4	14.1
2025-01-04 11:50:46.978099	348.2	36.9	-92.3	12.4
2025-01-04 11:50:48.141969	347.7	37.0	-91.4	15.0
2025-01-04 11:50:49.307613	347.3	37.1	-91.6	13.2
2025-01-04 11:50:50.472828	346.9	37.3	-92.1	9.7
2025-01-04 11:50:51.635122	346.4	37.4	-92.0	8.2
2025-01-04 11:50:52.800035	346.0	37.5	-92.0	11.6
2025-01-04 11:50:53.961310	345.6	37.6	-91.4	11.0
2025-01-04 11:50:55.126863	345.1	37.7	-91.6	7.0
2025-01-04 11:50:56.292323	344.7	37.8	-91.5	18.1
2025-01-04 11:50:57.454494	344.2	37.9	-92.4	10.5
2025-01-04 11:50:58.621599	343.8	38.1	-92.4	9.6
2025-01-04 11:50:59.785951	343.3	38.2	-92.4	19.1
2025-01-04 11:51:00.945539	342.9	38.3	-92.3	16.5
2025-01-04 11:51:02.102814	342.4	38.4	-91.6	16.1
2025-01-04 11:51:03.259493	341.9	38.5	-91.7	18.7
2025-01-04 11:51:04.426500	341.5	38.6	-91.7	18.3
2025-01-04 11:51:05.590872	341.0	38.7	-91.8	17.2
2025-01-04 11:51:06.748271	340.5	38.8	-91.4	11.5
2025-01-04 11:51:07.926859	340.0	38.9	-90.9	11.8
2025-01-04 11:51:09.084055	339.6	39.0	-91.3	13.2
2025-01-04 11:51:10.253220	339.1	39.1	-91.1	17.8
2025-01-04 11:51:11.417712	338.6	39.2	-91.4	15.0
2025-01-04 11:51:12.578537	338.1	39.2	-92.3	13.2
2025-01-04 11:51:13.752223	337.6	39.3	-91.9	19.6
2025-01-04 11:51:14.918515	337.1	39.4	-92.5	15.2
2025-01-04 11:51:16.078540	336.6	39.5	-91.4	13.3
2025-01-04 11:51:17.238531	336.1	39.6	-91.6	18.9
2025-01-04 11:51:18.401085	335.6	39.6	-91.5	15.4
2025-01-04 11:51:19.565874	335.1	39.7	-92.0	20.0
2025-01-04 11:51:20.725753	334.6	39.8	-92.3	13.7
2025-01-04 11:51:21.891903	334.1	39.9	-92.0	14.7
2025-01-04 11:51:23.053568	333.6	39.9	-91.8	20.4
2025-01-04 11:51:24.221838	333.1	40.0	-91.4	14.0
2025-01-04 11:51:25.382285	332.6	40.0	-92.0	17.3
2025-01-04 11:51:26.537596	332.1	40.1	-91.7	13.5
2025-01-04 11:51:27.705367	331.5	40.2	-92.2	16.2
2025-01-04 11:51:28.869880	331.0	40.2	-92.2	19.3
2025-01-04 11:51:30.034839	330.5	40.3	-91.5	11.7
2025-01-04 11:51:31.194781	330.0	40.3	-91.0	15.2
2025-01-04 11:51:32.353827	329.5	40.4	-91.9	17.4
2025-01-04 11:51:33.513749	328.9	40.4	-92.0	10.4
2025-01-04 11:51:34.675577	328.4	40.4	-92.2	15.4
2025-01-04 11:51:35.839933	327.9	40.5	-91.4	17.2
2025-01-04 11:51:37.000617	327.4	40.5	-91.4	11.6
2025-01-04 11:51:38.166118	326.8	40.5	-91.4	13.8
2025-01-04 11:51:39.340160	326.3	40.6	-91.5	15.5
2025-01-04 11:51:40.501559	325.8	40.6	-91.7	10.2
2025-01-04 11:51:41.663743	325.2	40.6	-91.9	10.0
2025-01-04 11:51:42.828176	324.7	40.6	-92.1	16.5
2025-01-04 11:51:43.991898	324.2	40.7	-92.1	12.6
2025-01-04 11:51:45.166322	323.6	40.7	-91.4	12.2
2025-01-04 11:51:46.325678	323.1	40.7	-91.4	14.6
2025-01-04 11:51:47.493387	322.5	40.7	-91.9	15.7
2025-01-04 11:51:48.653216	322.0	40.7	-92.2	16.4
2025-01-04 11:51:49.816412	321.5	40.7	-92.0	14.9
2025-01-04 11:51:50.980235	320.9	40.7	-91.8	12.9
2025-01-04 11:51:52.147341	320.4	40.7	-91.8	13.3
2025-01-04 11:51:53.308051	319.9	40.7	-91.8	14.7
2025-01-04 11:51:54.472599	319.3	40.7	-92.3	15.7
2025-01-04 11:51:55.632519	318.8	40.7	-91.9	14.5
2025-01-04 11:51:56.796624	318.3	40.7	-92.0	12.2
2025-01-04 11:51:57.958384	317.7	40.7	-92.3	14.7
2025-01-04 11:51:59.125169	317.2	40.6	-92.1	18.2
2025-01-04 11:52:00.277658	316.7	40.6	-92.3	19.3
2025-01-04 11:52:01.438618	316.1	40.6	-91.9	16.5
2025-01-04 11:52:02.598166	315.6	40.6	-92.1	15.7
2025-01-04 11:52:03.762694	315.1	40.5	-92.4	19.8
2025-01-04 11:52:04.929508	314.5	40.5	-92.3	17.6
2025-01-04 11:52:06.088742	314.0	40.5	-92.1	16.6
2025-01-04 11:52:07.249236	313.5	40.4	-91.7	21.5
2025-01-04 11:52:08.414417	312.9	40.4	-91.7	15.2
2025-01-04 11:52:09.580760	312.4	40.3	-92.0	11.3
2025-01-04 11:52:10.743013	311.9	40.3	-91.9	19.9
2025-01-04 11:52:11.910757	311.4	40.2	-92.1	12.5
2025-01-04 11:52:13.074591	310.8	40.2	-91.4	9.2
2025-01-04 11:52:14.243332	310.3	40.1	-91.7	13.0
2025-01-04 11:52:15.401922	309.8	40.1	-92.4	12.0
2025-01-04 11:52:16.559525	309.3	40.0	-92.5	9.1
2025-01-04 11:52:17.718610	308.8	40.0	-92.6	12.9
2025-01-04 11:52:18.878257	308.3	39.9	-92.4	19.1
2025-01-04 11:52:20.045980	307.8	39.8	-92.3	10.8
2025-01-04 11:52:21.202582	307.3	39.8	-91.7	14.3
2025-01-04 11:52:22.367337	306.8	39.7	-92.3	16.7
2025-01-04 11:52:23.530481	306.3	39.6	-92.4	11.5
2025-01-04 11:52:24.689404	305.8	39.5	-92.6	12.8
2025-01-04 11:52:25.855008	305.3	39.5	-92.6	19.8
2025-01-04 11:52:27.014768	304.8	39.4	-92.3	11.9
2025-01-04 11:52:28.183272	304.3	39.3	-91.9	13.1
2025-01-04 11:52:29.349708	303.8	39.2	-92.2	18.2
2025-01-04 11:52:30.514804	303.3	39.1	-92.3	12.2
2025-01-04 11:52:31.680353	302.8	39.0	-92.2	15.6
2025-01-04 11:52:32.842154	302.3	38.9	-92.3	16.7
2025-01-04 11:52:34.007694	301.8	38.8	-92.2	8.3
2025-01-04 11:52:35.177358	301.4	38.7	-91.9	16.8
2025-01-04 11:52:36.336916	300.9	38.6	-92.2	16.9
2025-01-04 11:52:37.500990	300.4	38.5	-92.8	10.1
2025-01-04 11:52:38.663501	299.9	38.4	-92.6	10.2
2025-01-04 11:52:39.828017	299.5	38.3	-92.7	19.1
2025-01-04 11:52:40.995455	299.0	38.2	-92.3	10.6
2025-01-04 11:52:42.160953	298.5	38.1	-92.2	11.0
2025-01-04 11:52:43.324949	298.1	38.0	-91.7	19.2
2025-01-04 11:52:44.487860	297.6	37.9	-92.8	12.0
2025-01-04 11:52:45.652159	297.2	37.8	-92.5	10.7
2025-01-04 11:52:46.806383	296.7	37.7	-91.7	18.5
2025-01-04 11:52:47.965285	296.3	37.6	-92.2	11.2
2025-01-04 11:52:49.135181	295.9	37.4	-92.0	11.9
2025-01-04 11:52:50.300192	295.4	37.3	-91.8	18.8
2025-01-04 11:52:51.465654	295.0	37.2	-92.1	12.5
2025-01-04 11:52:52.621160	294.6	37.1	-92.4	9.7
2025-01-04 11:52:53.781388	294.1	37.0	-91.9	18.7
2025-01-04 11:52:54.949670	293.7	36.8	-90.9	9.3
2025-01-04 11:52:56.110628	293.3	36.7	-90.3	9.9
2025-01-04 11:52:57.273419	292.9	36.6	-89.7	15.1
2025-01-04 11:52:58.439904	292.4	36.4	-90.5	9.2
2025-01-04 11:52:59.604082	292.0	36.3	-91.2	11.7
2025-01-04 11:53:00.759470	291.6	36.2	-91.3	17.4
2025-01-04 11:53:01.917486	291.2	36.1	-92.4	13.3
2025-01-04 11:53:03.078274	290.8	35.9	-92.2	12.7
2025-01-04 11:53:04.244502	290.4	35.8	-92.1	14.6
2025-01-04 11:53:05.404316	290.0	35.7	-92.6	13.6
2025-01-04 11:53:06.565055	289.6	35.5	-92.5	13.7
2025-01-04 11:53:07.739659	289.2	35.4	-92.4	17.1
2025-01-04 11:53:08.899324	288.9	35.2	-92.1	13.6
2025-01-04 11:53:10.060484	288.5	35.1	-92.1	15.4
2025-01-04 11:53:11.240246	288.1	35.0	-91.8	11.0
2025-01-04 11:53:12.407297	287.7	34.8	-92.3	11.2
2025-01-04 11:53:13.569625	287.3	34.7	-92.3	12.7
2025-01-04 11:53:14.734750	287.0	34.5	-92.2	11.9
2025-01-04 11:53:15.894138	286.6	34.4	-92.3	11.3
2025-01-04 11:53:17.050594	286.2	34.2	-91.9	10.4
2025-01-04 11:53:18.211713	285.9	34.1	-91.6	12.6
2025-01-04 11:53:19.380767	285.5	34.0	-91.8	13.1
2025-01-04 11:53:20.546807	285.2	33.8	-92.0	14.5
2025-01-04 11:53:21.715263	284.8	33.7	-92.4	11.4
2025-01-04 11:53:22.873793	284.5	33.5	-92.4	13.7
2025-01-04 11:53:24.042197	284.1	33.4	-91.9	6.9
2025-01-04 11:53:25.205829	283.8	33.2	-91.8	11.2
2025-01-04 11:53:26.363382	283.5	33.1	-92.3	8.6
2025-01-04 11:53:27.527918	283.1	32.9	-92.8	7.4
2025-01-04 11:53:28.688443	282.8	32.8	-92.5	8.6
2025-01-04 11:53:29.850810	282.5	32.6	-92.2	8.6
2025-01-04 11:53:31.016514	282.1	32.5	-92.7	6.8
2025-01-04 11:53:32.180827	281.8	32.3	-92.1	8.1
2025-01-04 11:53:33.344476	281.5	32.2	-91.9	9.0
2025-01-04 11:53:34.503700	281.2	32.0	-92.6	8.1
2025-01-04 11:53:35.671071	280.9	31.9	-92.8	7.2
2025-01-04 11:53:36.821424	280.6	31.7	-92.6	9.8
2025-01-04 11:53:37.989116	280.2	31.6	-92.5	8.3
2025-01-04 11:53:39.164667	279.9	31.4	-92.2	4.3
2025-01-04 11:53:40.325048	279.6	31.3	-92.5	8.1
2025-01-04 11:53:41.486531	279.3	31.1	-92.7	8.7
2025-01-04 11:53:42.656600	279.0	31.0	-92.7	8.2
2025-01-04 11:53:43.819090	278.7	30.8	-92.4	8.0
2025-01-04 11:53:44.983372	278.4	30.7	-92.6	10.7
2025-01-04 11:53:46.144668	278.2	30.5	-91.5	7.8
2025-01-04 11:53:47.302439	277.9	30.4	-91.8	10.9
2025-01-04 11:53:48.468010	277.6	30.2	-91.9	10.6
2025-01-04 11:53:49.632219	277.3	30.1	-92.2	8.8
2025-01-04 11:53:50.797663	277.0	29.9	-92.4	5.5
2025-01-04 11:53:51.955708	276.8	29.8	-92.5	7.1
2025-01-04 11:53:53.117460	276.5	29.6	-92.2	6.8
2025-01-04 11:53:54.281068	276.2	29.4	-92.2	9.9
2025-01-04 11:53:55.443148	276.0	29.3	-92.8	6.9
2025-01-04 11:53:56.602074	275.7	29.1	-93.0	7.2
2025-01-04 11:53:57.766664	275.4	29.0	-92.7	6.7
2025-01-04 11:53:58.925816	275.2	28.8	-92.7	7.3
2025-01-04 11:54:00.081579	274.9	28.7	-91.9	6.0
2025-01-04 11:54:01.228258	274.7	28.5	-91.8	10.3
2025-01-04 11:54:02.387993	274.4	28.4	-91.9	9.2
2025-01-04 11:54:03.553694	274.2	28.2	-92.6	6.0
2025-01-04 11:54:04.713353	273.9	28.1	-92.8	11.4
2025-01-04 11:54:05.878998	273.7	27.9	-92.8	12.5
2025-01-04 11:54:07.039846	273.4	27.8	-92.4	10.3
2025-01-04 11:54:08.198816	273.2	27.6	-91.9	12.1
2025-01-04 11:54:09.358813	272.9	27.5	-92.2	13.2
2025-01-04 11:54:10.534070	272.7	27.3	-92.2	14.2
2025-01-04 11:54:11.696058	272.5	27.2	-92.1	14.4
2025-01-04 11:54:12.860027	272.2	27.0	-92.3	16.7
2025-01-04 11:54:14.024818	272.0	26.9	-91.9	17.9
2025-01-04 11:54:15.189508	271.8	26.7	-91.8	17.4
2025-01-04 11:54:16.352424	271.5	26.6	-91.9	16.9
2025-01-04 11:54:17.522159	271.3	26.4	-92.0	13.6
2025-01-04 11:54:18.694905	271.1	26.3	-92.4	16.1
2025-01-04 11:54:19.855966	270.9	26.2	-92.5	16.5
2025-01-04 11:54:21.024206	270.7	26.0	-92.5	11.9
2025-01-04 11:54:22.187244	270.4	25.9	-91.7	11.5
2025-01-04 11:54:23.349714	270.2	25.7	-91.8	14.8
2025-01-04 11:54:24.520349	270.0	25.6	-92.2	12.7
2025-01-04 11:54:25.686720	269.8	25.4	-92.1	15.7
2025-01-04 11:54:26.849127	269.6	25.3	-91.9	18.6
2025-01-04 11:54:28.012184	269.4	25.1	-92.2	14.8
2025-01-04 11:54:29.180112	269.2	25.0	-91.8	17.6
2025-01-04 11:54:30.343796	269.0	24.8	-92.1	19.2
2025-01-04 11:54:31.502875	268.8	24.7	-92.5	12.2
2025-01-04 11:54:32.663960	268.6	24.6	-92.6	18.9
2025-01-04 11:54:33.824702	268.4	24.4	-92.1	17.3
2025-01-04 11:54:34.993326	268.2	24.3	-92.3	14.2
2025-01-04 11:54:36.155421	268.0	24.1	-92.1	13.5
2025-01-04 11:54:37.315630	267.8	24.0	-91.9	14.9
2025-01-04 11:54:38.479825	267.6	23.8	-92.3	11.4
2025-01-04 11:54:39.643938	267.4	23.7	-92.7	9.7
2025-01-04 11:54:40.813852	267.3	23.6	-92.5	14.5
2025-01-04 11:54:41.978871	267.1	23.4	-92.5	7.5
2025-01-04 11:54:43.144914	266.9	23.3	-92.0	9.1
2025-01-04 11:54:44.304189	266.7	23.1	-91.9	12.2
2025-01-04 11:54:45.468798	266.5	23.0	-92.3	10.0
2025-01-04 11:54:46.636070	266.3	22.9	-92.8	10.6
2025-01-04 11:54:47.791571	266.2	22.7	-91.9	14.4
2025-01-04 11:54:48.958917	266.0	22.6	-92.4	15.2
2025-01-04 11:54:50.119341	265.8	22.5	-92.5	5.7
2025-01-04 11:54:51.283915	265.6	22.3	-92.1	13.7
2025-01-04 11:54:52.449007	265.5	22.2	-92.6	15.6
2025-01-04 11:54:53.617831	265.3	22.0	-92.2	14.5
2025-01-04 11:54:54.776028	265.1	21.9	-91.8	14.5
2025-01-04 11:54:55.940203	265.0	21.8	-92.3	11.0
2025-01-04 11:54:57.099452	264.8	21.6	-92.1	7.0
2025-01-04 11:54:58.262411	264.6	21.5	-92.1	12.1
2025-01-04 11:54:59.433479	264.5	21.4	-92.3	10.2
2025-01-04 11:55:00.577512	264.3	21.2	-92.2	7.6
2025-01-04 11:55:01.747462	264.2	21.1	-92.5	9.4
2025-01-04 11:55:02.903270	264.0	21.0	-92.6	11.0
2025-01-04 11:55:04.070967	263.9	20.8	-91.8	7.0
2025-01-04 11:55:05.230504	263.7	20.7	-91.5	5.6
2025-01-04 11:55:06.392056	263.5	20.6	-92.0	10.2
2025-01-04 11:55:07.547897	263.4	20.5	-92.7	10.2
2025-01-04 11:55:08.714552	263.2	20.3	-92.5	6.4
2025-01-04 11:55:09.869826	263.1	20.2	-92.2	5.7
2025-01-04 11:55:11.038637	262.9	20.1	-92.4	10.2
2025-01-04 11:55:12.199501	262.8	19.9	-91.8	10.5
2025-01-04 11:55:13.367662	262.7	19.8	-92.1	8.2
2025-01-04 11:55:14.534353	262.5	19.7	-92.0	5.8
2025-01-04 11:55:15.703087	262.4	19.6	-92.6	8.4
2025-01-04 11:55:16.867300	262.2	19.4	-92.5	7.0
2025-01-04 11:55:18.026933	262.1	19.3	-92.4	2.9
2025-01-04 11:55:19.199648	261.9	19.2	-91.8	4.9
2025-01-04 11:55:20.357065	261.8	19.0	-92.1	4.7
2025-01-04 11:55:21.521373	261.7	18.9	-92.0	4.4
2025-01-04 11:55:22.686524	261.5	18.8	-92.2	5.3
2025-01-04 11:55:23.850355	261.4	18.7	-92.6	4.2
2025-01-04 11:55:25.006765	261.3	18.6	-92.7	4.2
2025-01-04 11:55:26.170912	261.1	18.4	-92.2	5.2
2025-01-04 11:55:27.335562	261.0	18.3	-92.0	0.9
2025-01-04 11:55:28.495532	260.9	18.2	-92.4	5.0
2025-01-04 11:55:29.654829	260.7	18.1	-92.4	5.7
2025-01-04 11:55:30.818226	260.6	17.9	-92.5	7.1
2025-01-04 11:55:31.976482	260.5	17.8	-92.6	6.6
2025-01-04 11:55:33.142913	260.4	17.7	-91.9	3.7
2025-01-04 11:55:34.302418	260.2	17.6	-92.1	9.6
2025-01-04 11:55:35.469493	260.1	17.5	-92.8	7.6
2025-01-04 11:55:36.631596	260.0	17.3	-92.5	9.4
2025-01-04 11:55:37.797682	259.9	17.2	-92.4	9.2
2025-01-04 11:55:38.959470	259.7	17.1	-92.9	5.8
2025-01-04 11:55:40.124234	259.6	17.0	-92.7	7.5
2025-01-04 11:55:41.289864	259.5	16.9	-92.6	5.2
2025-01-04 11:55:42.461667	259.4	16.7	-92.5	9.4
2025-01-04 11:55:43.615704	259.3	16.6	-92.7	5.9
2025-01-04 11:55:44.778295	259.1	16.5	-92.7	8.1
2025-01-04 11:55:45.939884	259.0	16.4	-92.5	6.8
2025-01-04 11:55:47.100071	258.9	16.3	-92.0	6.1
2025-01-04 11:55:48.263214	258.8	16.2	-91.8	9.1
2025-01-04 11:55:49.422670	258.7	16.1	-92.3	7.8
2025-01-04 11:55:50.587737	258.6	15.9	-92.6	5.7
2025-01-04 11:55:51.748927	258.5	15.8	-93.0	8.5
2025-01-04 11:55:52.911328	258.4	15.7	-92.9	11.7
2025-01-04 11:55:54.071457	258.2	15.6	-92.6	6.6
2025-01-04 11:55:55.230939	258.1	15.5	-90.7	9.4
2025-01-04 11:55:56.380342	258.0	15.4	-91.0	9.5
2025-01-04 11:55:57.540524	257.9	15.3	-91.1	8.8
2025-01-04 11:55:58.703753	257.8	15.2	-91.5	12.6
2025-01-04 11:55:59.867083	257.7	15.0	-90.6	10.3
2025-01-04 11:56:01.002410	257.6	14.9	-91.2	10.1
2025-01-04 11:56:02.155657	257.5	14.8	-92.1	8.9
2025-01-04 11:56:03.320652	257.4	14.7	-91.2	6.9
2025-01-04 11:56:04.499125	257.3	14.6	-91.7	4.6
#Closed at: 2025-01-04 11:47:44.554929