passes_logs/2025/01/04/LEX_Murmansk/LEX_Murmansk__20250104_164634_NOAA_18_rec.log

#Pass ID: 20250104_164634_NOAA 18
#Satellite: NOAA 18
#Configuration: NOAA 18
#Start time: 2025-01-04 16:46:29.190916

#LorettStation: 1.0.0 05.05.2024
#Station: LEX_Murmansk
#Location: 33.156738 lon 68.926811 lat
#TLE: 1 28654U 05018A   25003.76610367  .00000568  00000+0  32493-3 0  9997
#TLE: 2 28654  98.8583  84.9311 0013827 211.1121 148.9234 14.13475198 11594

#Time	Az	El	Level	SNR
2025-01-04 16:46:41.300631	91.0	16.1	-90.6	12.4
2025-01-04 16:46:42.461537	90.9	16.2	-91.3	4.9
2025-01-04 16:46:43.625957	90.7	16.3	-91.1	5.5
2025-01-04 16:46:44.789095	90.6	16.4	-91.3	13.3
2025-01-04 16:46:45.949489	90.5	16.5	-91.4	11.5
2025-01-04 16:46:47.108370	90.3	16.7	-91.1	15.0
2025-01-04 16:46:48.266139	90.2	16.8	-91.0	10.2
2025-01-04 16:46:49.428062	90.1	16.9	-91.0	5.2
2025-01-04 16:46:50.586151	89.9	17.0	-91.2	6.6
2025-01-04 16:46:51.756381	89.8	17.1	-91.3	10.0
2025-01-04 16:46:52.917427	89.6	17.2	-91.0	11.4
2025-01-04 16:46:54.079038	89.5	17.3	-90.9	6.1
2025-01-04 16:46:55.235948	89.4	17.4	-90.8	7.4
2025-01-04 16:46:56.403985	89.2	17.5	-90.5	17.6
2025-01-04 16:46:57.569843	89.1	17.7	-91.0	12.4
2025-01-04 16:46:58.731743	88.9	17.8	-91.2	9.4
2025-01-04 16:46:59.892484	88.8	17.9	-91.0	9.7
2025-01-04 16:47:01.041134	88.6	18.0	-90.6	11.6
2025-01-04 16:47:02.211123	88.5	18.1	-90.5	7.7
2025-01-04 16:47:03.366959	88.3	18.2	-90.8	12.1
2025-01-04 16:47:04.524924	88.2	18.3	-91.1	10.6
2025-01-04 16:47:05.695060	88.0	18.4	-91.1	10.6
2025-01-04 16:47:06.861553	87.9	18.6	-91.0	6.2
2025-01-04 16:47:08.027526	87.7	18.7	-91.1	4.5
2025-01-04 16:47:09.167399	87.6	18.8	-91.0	3.8
2025-01-04 16:47:10.324962	87.4	18.9	-91.2	5.6
2025-01-04 16:47:11.487404	87.2	19.0	-91.3	6.0
2025-01-04 16:47:12.648007	87.1	19.1	-91.4	7.3
2025-01-04 16:47:13.815335	86.9	19.3	-91.1	7.0
2025-01-04 16:47:14.977667	86.8	19.4	-91.0	8.9
2025-01-04 16:47:16.141378	86.6	19.5	-91.0	7.3
2025-01-04 16:47:17.307649	86.4	19.6	-90.6	7.9
2025-01-04 16:47:18.467512	86.3	19.7	-90.9	5.2
2025-01-04 16:47:19.633248	86.1	19.8	-91.2	13.4
2025-01-04 16:47:20.796089	85.9	20.0	-91.0	10.4
2025-01-04 16:47:21.953931	85.8	20.1	-90.6	8.6
2025-01-04 16:47:23.117877	85.6	20.2	-91.0	5.2
2025-01-04 16:47:24.277289	85.4	20.3	-91.0	8.8
2025-01-04 16:47:25.438015	85.2	20.4	-91.1	4.2
2025-01-04 16:47:26.606757	85.1	20.6	-91.0	4.4
2025-01-04 16:47:27.769275	84.9	20.7	-91.1	14.2
2025-01-04 16:47:28.934166	84.7	20.8	-91.1	7.3
2025-01-04 16:47:30.094269	84.5	20.9	-90.4	4.8
2025-01-04 16:47:31.254935	84.3	21.0	-90.8	5.2
2025-01-04 16:47:32.423119	84.2	21.2	-90.7	2.3
2025-01-04 16:47:33.587457	84.0	21.3	-91.3	5.1
2025-01-04 16:47:34.750515	83.8	21.4	-90.3	5.1
2025-01-04 16:47:35.914993	83.6	21.5	-91.0	7.2
2025-01-04 16:47:37.075156	83.4	21.6	-91.3	6.5
2025-01-04 16:47:38.239113	83.2	21.8	-90.9	7.0
2025-01-04 16:47:39.397185	83.0	21.9	-90.3	4.9
2025-01-04 16:47:40.561463	82.8	22.0	-90.9	4.0
2025-01-04 16:47:41.720355	82.6	22.1	-90.7	10.6
2025-01-04 16:47:42.884838	82.5	22.3	-90.7	3.3
2025-01-04 16:47:44.047938	82.3	22.4	-90.7	4.7
2025-01-04 16:47:45.214897	82.1	22.5	-90.8	9.8
2025-01-04 16:47:46.378469	81.9	22.6	-91.0	4.9
2025-01-04 16:47:47.546734	81.7	22.8	-91.3	5.0
2025-01-04 16:47:48.713023	81.4	22.9	-91.3	7.2
2025-01-04 16:47:49.875150	81.2	23.0	-91.0	7.0
2025-01-04 16:47:51.032379	81.0	23.1	-91.3	5.9
2025-01-04 16:47:52.197472	80.8	23.3	-91.1	9.6
2025-01-04 16:47:53.365512	80.6	23.4	-91.3	4.0
2025-01-04 16:47:54.526287	80.4	23.5	-91.0	7.5
2025-01-04 16:47:55.691279	80.2	23.6	-91.4	4.6
2025-01-04 16:47:56.853441	80.0	23.8	-91.5	4.3
2025-01-04 16:47:58.017106	79.8	23.9	-91.1	3.9
2025-01-04 16:47:59.181634	79.5	24.0	-90.7	5.6
2025-01-04 16:48:00.333265	79.3	24.1	-90.9	12.1
2025-01-04 16:48:01.491873	79.1	24.3	-90.9	5.3
2025-01-04 16:48:02.650845	78.9	24.4	-91.7	6.5
2025-01-04 16:48:03.827612	78.6	24.5	-91.5	4.8
2025-01-04 16:48:04.990582	78.4	24.6	-91.3	5.8
2025-01-04 16:48:06.156070	78.2	24.8	-90.8	4.7
2025-01-04 16:48:07.315154	77.9	24.9	-91.0	4.7
2025-01-04 16:48:08.478130	77.7	25.0	-91.0	4.9
2025-01-04 16:48:09.638993	77.5	25.1	-91.5	2.9
2025-01-04 16:48:10.786995	77.2	25.3	-91.1	4.1
2025-01-04 16:48:11.945781	77.0	25.4	-91.3	7.8
2025-01-04 16:48:13.109740	76.8	25.5	-89.8	6.0
2025-01-04 16:48:14.270719	76.5	25.6	-91.4	6.5
2025-01-04 16:48:15.432843	76.3	25.8	-91.1	3.8
2025-01-04 16:48:16.602185	76.0	25.9	-91.6	4.9
2025-01-04 16:48:17.763428	75.8	26.0	-91.7	6.3
2025-01-04 16:48:18.926759	75.5	26.2	-91.8	5.3
2025-01-04 16:48:20.089845	75.3	26.3	-90.9	4.4
2025-01-04 16:48:21.253233	75.0	26.4	-91.2	5.8
2025-01-04 16:48:22.412020	74.8	26.5	-91.0	8.0
2025-01-04 16:48:23.577989	74.5	26.7	-91.4	9.6
2025-01-04 16:48:24.744764	74.2	26.8	-91.5	9.2
2025-01-04 16:48:25.911360	74.0	26.9	-91.6	6.4
2025-01-04 16:48:27.074307	73.7	27.0	-91.2	4.3
2025-01-04 16:48:28.241544	73.4	27.2	-91.3	6.9
2025-01-04 16:48:29.411041	73.2	27.3	-91.4	3.4
2025-01-04 16:48:30.574247	72.9	27.4	-91.5	4.1
2025-01-04 16:48:31.732519	72.6	27.5	-91.7	4.3
2025-01-04 16:48:32.888826	72.3	27.7	-91.5	4.5
2025-01-04 16:48:34.054400	72.1	27.8	-91.4	7.3
2025-01-04 16:48:35.218970	71.8	27.9	-90.3	6.3
2025-01-04 16:48:36.386526	71.5	28.0	-91.1	9.0
2025-01-04 16:48:37.549847	71.2	28.2	-91.3	5.2
2025-01-04 16:48:38.715924	70.9	28.3	-91.3	5.9
2025-01-04 16:48:39.880058	70.6	28.4	-91.3	4.4
2025-01-04 16:48:41.040484	70.3	28.5	-91.8	5.1
2025-01-04 16:48:42.207507	70.0	28.7	-91.4	15.4
2025-01-04 16:48:43.367857	69.7	28.8	-91.1	7.2
2025-01-04 16:48:44.532042	69.4	28.9	-91.2	8.6
2025-01-04 16:48:45.695491	69.1	29.0	-91.5	12.3
2025-01-04 16:48:46.853656	68.8	29.2	-90.8	10.7
2025-01-04 16:48:48.013591	68.5	29.3	-91.4	11.7
2025-01-04 16:48:49.157744	68.2	29.4	-91.1	8.9
2025-01-04 16:48:50.276919	67.9	29.5	-91.1	9.2
2025-01-04 16:48:51.396643	67.6	29.6	-91.1	10.0
2025-01-04 16:48:52.516516	67.3	29.7	-91.3	6.5
2025-01-04 16:48:53.636270	67.0	29.9	-91.3	5.1
2025-01-04 16:48:54.757252	66.7	30.0	-91.2	6.1
2025-01-04 16:48:55.877189	66.4	30.1	-91.4	13.6
2025-01-04 16:48:57.001481	66.1	30.2	-91.0	5.5
2025-01-04 16:48:58.143264	65.8	30.3	-90.8	8.3
2025-01-04 16:48:59.306122	65.4	30.4	-91.0	15.8
2025-01-04 16:49:00.454742	65.1	30.6	-91.5	11.0
2025-01-04 16:49:01.610177	64.8	30.7	-91.4	13.8
2025-01-04 16:49:02.759900	64.4	30.8	-91.2	10.0
2025-01-04 16:49:03.924347	64.1	30.9	-90.8	13.0
2025-01-04 16:49:05.084418	63.8	31.0	-90.9	10.2
2025-01-04 16:49:06.250584	63.4	31.1	-91.0	12.8
2025-01-04 16:49:07.407634	63.1	31.2	-91.1	16.0
2025-01-04 16:49:08.569607	62.7	31.3	-91.7	12.5
2025-01-04 16:49:09.730706	62.4	31.5	-91.2	10.2
2025-01-04 16:49:10.893862	62.0	31.6	-91.2	11.1
2025-01-04 16:49:12.052589	61.7	31.7	-91.5	14.3
2025-01-04 16:49:13.207396	61.3	31.8	-90.2	13.9
2025-01-04 16:49:14.372606	60.9	31.9	-91.3	17.3
2025-01-04 16:49:15.541858	60.6	32.0	-91.4	16.1
2025-01-04 16:49:16.709868	60.2	32.1	-90.0	15.9
2025-01-04 16:49:17.870333	59.8	32.2	-91.1	15.7
2025-01-04 16:49:19.025670	59.5	32.3	-91.2	10.9
2025-01-04 16:49:20.188186	59.1	32.4	-91.0	12.6
2025-01-04 16:49:21.356083	58.7	32.5	-91.3	16.1
2025-01-04 16:49:22.511600	58.4	32.6	-91.5	9.0
2025-01-04 16:49:23.676739	58.0	32.7	-91.5	13.6
2025-01-04 16:49:24.836700	57.6	32.8	-91.0	15.0
2025-01-04 16:49:26.001935	57.2	32.9	-90.6	8.6
2025-01-04 16:49:27.170466	56.8	33.0	-90.8	13.9
2025-01-04 16:49:28.330716	56.4	33.1	-90.7	18.7
2025-01-04 16:49:29.495597	56.0	33.2	-91.2	15.4
2025-01-04 16:49:30.659574	55.7	33.3	-91.1	18.1
2025-01-04 16:49:31.809539	55.3	33.4	-91.4	19.3
2025-01-04 16:49:32.963591	54.9	33.5	-91.1	18.1
2025-01-04 16:49:34.127225	54.5	33.5	-91.2	16.0
2025-01-04 16:49:35.289252	54.1	33.6	-91.1	18.2
2025-01-04 16:49:36.453708	53.7	33.7	-91.1	15.5
2025-01-04 16:49:37.612706	53.3	33.8	-91.2	11.4
2025-01-04 16:49:38.771583	52.9	33.9	-91.1	18.0
2025-01-04 16:49:39.935294	52.4	34.0	-90.2	11.3
2025-01-04 16:49:41.100293	52.0	34.0	-90.8	10.9
2025-01-04 16:49:42.263913	51.6	34.1	-91.1	17.5
2025-01-04 16:49:43.425187	51.2	34.2	-91.8	15.0
2025-01-04 16:49:44.590713	50.8	34.3	-91.5	14.9
2025-01-04 16:49:45.753755	50.4	34.3	-91.7	16.7
2025-01-04 16:49:46.917268	49.9	34.4	-91.4	19.8
2025-01-04 16:49:48.084189	49.5	34.5	-90.9	15.7
2025-01-04 16:49:49.242504	49.1	34.6	-89.6	14.1
2025-01-04 16:49:50.408668	48.7	34.6	-91.0	12.4
2025-01-04 16:49:51.567367	48.2	34.7	-91.1	12.0
2025-01-04 16:49:52.732634	47.8	34.7	-91.0	18.3
2025-01-04 16:49:53.895419	47.4	34.8	-90.4	14.2
2025-01-04 16:49:55.058889	46.9	34.9	-90.2	10.3
2025-01-04 16:49:56.222910	46.5	34.9	-89.8	16.6
2025-01-04 16:49:57.390108	46.1	35.0	-90.3	16.9
2025-01-04 16:49:58.553593	45.6	35.0	-90.3	7.0
2025-01-04 16:49:59.722120	45.2	35.1	-90.2	13.3
2025-01-04 16:50:00.874879	44.7	35.1	-90.1	15.1
2025-01-04 16:50:02.030228	44.3	35.2	-89.6	7.0
2025-01-04 16:50:03.194102	43.9	35.2	-90.7	11.4
2025-01-04 16:50:04.353565	43.4	35.3	-91.1	15.8
2025-01-04 16:50:05.516736	43.0	35.3	-91.4	9.9
2025-01-04 16:50:06.679780	42.5	35.4	-91.4	13.7
2025-01-04 16:50:07.843708	42.1	35.4	-89.9	14.1
2025-01-04 16:50:09.012653	41.6	35.4	-89.9	12.1
2025-01-04 16:50:10.175374	41.2	35.5	-90.1	14.3
2025-01-04 16:50:11.335056	40.7	35.5	-90.0	13.8
2025-01-04 16:50:12.488254	40.3	35.5	-90.8	15.6
2025-01-04 16:50:13.648605	39.8	35.6	-90.3	13.7
2025-01-04 16:50:14.811899	39.4	35.6	-90.0	14.9
2025-01-04 16:50:15.973104	38.9	35.6	-89.7	14.6
2025-01-04 16:50:17.134586	38.5	35.6	-89.3	12.7
2025-01-04 16:50:18.300799	38.0	35.7	-89.4	16.7
2025-01-04 16:50:19.459016	37.6	35.7	-90.3	12.3
2025-01-04 16:50:20.624318	37.1	35.7	-89.8	10.1
2025-01-04 16:50:21.781539	36.6	35.7	-89.7	15.8
2025-01-04 16:50:22.945843	36.2	35.7	-90.8	11.7
2025-01-04 16:50:24.108162	35.7	35.7	-90.7	12.5
2025-01-04 16:50:25.265769	35.3	35.7	-90.5	13.7
2025-01-04 16:50:26.430965	34.8	35.8	-90.2	12.2
2025-01-04 16:50:27.595659	34.3	35.8	-90.9	9.8
2025-01-04 16:50:28.754161	33.9	35.8	-90.9	14.1
2025-01-04 16:50:29.924881	33.4	35.8	-89.7	14.5
2025-01-04 16:50:31.092659	33.0	35.8	-89.8	9.9
2025-01-04 16:50:32.251035	32.5	35.8	-89.7	15.4
2025-01-04 16:50:33.418774	32.0	35.7	-89.4	14.0
2025-01-04 16:50:34.581808	31.6	35.7	-89.8	9.0
2025-01-04 16:50:35.747917	31.1	35.7	-89.7	15.1
2025-01-04 16:50:36.911741	30.7	35.7	-89.7	12.4
2025-01-04 16:50:38.076480	30.2	35.7	-89.8	10.7
2025-01-04 16:50:39.236245	29.8	35.7	-89.1	13.6
2025-01-04 16:50:40.389824	29.3	35.7	-89.1	12.8
2025-01-04 16:50:41.549128	28.8	35.6	-90.6	13.1
2025-01-04 16:50:42.706657	28.4	35.6	-90.7	13.9
2025-01-04 16:50:43.870639	27.9	35.6	-90.6	16.0
2025-01-04 16:50:45.043949	27.5	35.6	-90.5	16.7
2025-01-04 16:50:46.209437	27.0	35.5	-90.3	15.4
2025-01-04 16:50:47.374517	26.6	35.5	-90.1	11.1
2025-01-04 16:50:48.538907	26.1	35.5	-90.8	16.0
2025-01-04 16:50:49.705697	25.7	35.4	-90.7	13.6
2025-01-04 16:50:50.869213	25.2	35.4	-90.5	12.6
2025-01-04 16:50:52.036507	24.8	35.4	-90.9	7.8
2025-01-04 16:50:53.192267	24.3	35.3	-90.6	12.2
2025-01-04 16:50:54.353208	23.9	35.3	-90.0	11.7
2025-01-04 16:50:55.510615	23.4	35.2	-90.8	13.4
2025-01-04 16:50:56.674539	23.0	35.2	-90.6	15.0
2025-01-04 16:50:57.837365	22.5	35.1	-89.6	13.2
2025-01-04 16:50:58.999694	22.1	35.1	-89.7	10.4
2025-01-04 16:51:00.158670	21.7	35.0	-89.1	10.7
2025-01-04 16:51:01.313115	21.2	35.0	-89.2	11.3
2025-01-04 16:51:02.469129	20.8	34.9	-89.5	12.2
2025-01-04 16:51:03.632982	20.4	34.9	-89.6	10.8
2025-01-04 16:51:04.799692	19.9	34.8	-89.6	8.7
2025-01-04 16:51:05.963875	19.5	34.8	-90.6	9.4
2025-01-04 16:51:07.127649	19.1	34.7	-90.2	13.8
2025-01-04 16:51:08.295773	18.6	34.6	-90.2	13.8
2025-01-04 16:51:09.456950	18.2	34.6	-90.1	12.8
2025-01-04 16:51:10.618057	17.8	34.5	-91.1	13.6
2025-01-04 16:51:11.784922	17.4	34.4	-91.3	13.4
2025-01-04 16:51:12.939666	16.9	34.3	-91.3	14.6
2025-01-04 16:51:14.103937	16.5	34.3	-90.9	14.0
2025-01-04 16:51:15.265273	16.1	34.2	-91.1	12.7
2025-01-04 16:51:16.431250	15.7	34.1	-91.5	15.8
2025-01-04 16:51:17.587163	15.3	34.0	-91.2	9.1
2025-01-04 16:51:18.747774	14.9	34.0	-91.3	13.3
2025-01-04 16:51:19.911714	14.4	33.9	-91.5	15.1
2025-01-04 16:51:21.071675	14.0	33.8	-91.5	11.7
2025-01-04 16:51:22.234467	13.6	33.7	-91.2	13.0
2025-01-04 16:51:23.398646	13.2	33.6	-91.2	16.4
2025-01-04 16:51:24.554313	12.8	33.5	-91.6	16.6
2025-01-04 16:51:25.712492	12.4	33.5	-91.4	14.3
2025-01-04 16:51:26.879423	12.0	33.4	-91.5	19.6
2025-01-04 16:51:28.042415	11.6	33.3	-91.1	16.7
2025-01-04 16:51:29.206394	11.2	33.2	-91.3	14.8
2025-01-04 16:51:30.367323	10.9	33.1	-91.1	12.3
2025-01-04 16:51:31.532587	10.5	33.0	-91.1	11.6
2025-01-04 16:51:32.689501	10.1	32.9	-91.1	12.5
2025-01-04 16:51:33.851029	9.7	32.8	-90.9	11.8
2025-01-04 16:51:35.012815	9.3	32.7	-91.1	15.3
2025-01-04 16:51:36.178848	8.9	32.6	-90.8	12.9
2025-01-04 16:51:37.343469	8.6	32.5	-90.9	11.8
2025-01-04 16:51:38.510368	8.2	32.4	-91.4	12.8
2025-01-04 16:51:39.684373	7.8	32.3	-91.5	12.7
2025-01-04 16:51:40.849834	7.4	32.2	-91.3	12.3
2025-01-04 16:51:42.014708	7.1	32.1	-91.5	12.7
2025-01-04 16:51:43.172863	6.7	32.0	-91.5	13.1
2025-01-04 16:51:44.335498	6.3	31.9	-91.5	14.6
2025-01-04 16:51:45.501119	6.0	31.8	-91.3	10.3
2025-01-04 16:51:46.666564	5.6	31.7	-91.8	12.5
2025-01-04 16:51:47.825022	5.3	31.6	-91.8	12.3
2025-01-04 16:51:48.988468	4.9	31.5	-91.4	15.6
2025-01-04 16:51:50.157039	4.6	31.3	-91.4	14.7
2025-01-04 16:51:51.320733	4.2	31.2	-91.2	13.6
2025-01-04 16:51:52.482508	3.9	31.1	-91.3	10.2
2025-01-04 16:51:53.646587	3.5	31.0	-91.5	9.2
2025-01-04 16:51:54.807988	3.2	30.9	-91.7	10.3
2025-01-04 16:51:55.978245	2.8	30.8	-91.8	7.4
2025-01-04 16:51:57.135752	2.5	30.7	-91.4	5.7
2025-01-04 16:51:58.303327	2.2	30.5	-91.2	7.6
2025-01-04 16:51:59.465697	1.8	30.4	-91.2	5.5
2025-01-04 16:52:00.619424	1.5	30.3	-91.0	8.8
2025-01-04 16:52:01.783261	1.2	30.2	-90.8	6.5
2025-01-04 16:52:02.947698	0.9	30.1	-90.9	6.3
2025-01-04 16:52:04.112747	0.5	30.0	-90.9	5.4
2025-01-04 16:52:05.278260	0.2	29.8	-91.2	9.5
2025-01-04 16:52:06.444485	359.9	29.7	-91.1	7.1
2025-01-04 16:52:07.606823	359.6	29.6	-91.3	7.6
2025-01-04 16:52:08.770815	359.3	29.5	-91.1	10.5
2025-01-04 16:52:09.937232	359.0	29.4	-91.0	7.1
2025-01-04 16:52:11.105839	358.6	29.2	-91.3	7.8
2025-01-04 16:52:12.262959	358.3	29.1	-91.2	8.0
2025-01-04 16:52:13.428861	358.0	29.0	-91.3	6.5
2025-01-04 16:52:14.589949	357.7	28.9	-91.6	6.3
2025-01-04 16:52:15.757105	357.4	28.7	-91.8	13.3
2025-01-04 16:52:16.922313	357.1	28.6	-91.7	9.1
2025-01-04 16:52:18.075241	356.8	28.5	-91.3	12.8
2025-01-04 16:52:19.238606	356.6	28.4	-91.5	7.7
2025-01-04 16:52:20.403231	356.3	28.3	-91.6	14.0
2025-01-04 16:52:21.566834	356.0	28.1	-91.6	13.6
2025-01-04 16:52:22.723317	355.7	28.0	-91.5	15.4
2025-01-04 16:52:23.885309	355.4	27.9	-91.1	14.6
2025-01-04 16:52:25.044246	355.1	27.8	-91.8	10.5
2025-01-04 16:52:26.205440	354.9	27.6	-91.1	11.6
2025-01-04 16:52:27.365953	354.6	27.5	-91.3	10.9
2025-01-04 16:52:28.533357	354.3	27.4	-91.2	15.4
2025-01-04 16:52:29.698480	354.0	27.3	-91.2	15.7
2025-01-04 16:52:30.860575	353.8	27.1	-91.3	12.3
2025-01-04 16:52:32.026716	353.5	27.0	-91.4	9.9
2025-01-04 16:52:33.182818	353.2	26.9	-91.0	12.5
2025-01-04 16:52:34.348425	353.0	26.7	-91.2	15.8
2025-01-04 16:52:35.502530	352.7	26.6	-91.7	6.0
2025-01-04 16:52:36.662875	352.4	26.5	-91.8	10.0
2025-01-04 16:52:37.825359	352.2	26.4	-91.4	8.5
2025-01-04 16:52:38.990368	351.9	26.2	-91.4	6.2
2025-01-04 16:52:40.151458	351.7	26.1	-91.3	8.8
2025-01-04 16:52:41.315187	351.4	26.0	-91.6	14.0
2025-01-04 16:52:42.477924	351.2	25.9	-91.8	7.2
2025-01-04 16:52:43.649584	350.9	25.7	-91.7	8.9
2025-01-04 16:52:44.813690	350.7	25.6	-91.8	10.7
2025-01-04 16:52:45.977844	350.4	25.5	-91.8	11.5
2025-01-04 16:52:47.144007	350.2	25.3	-91.7	9.6
2025-01-04 16:52:48.310605	350.0	25.2	-91.0	10.8
2025-01-04 16:52:49.477434	349.7	25.1	-91.3	13.6
2025-01-04 16:52:50.642054	349.5	25.0	-91.3	7.5
2025-01-04 16:52:51.808865	349.2	24.8	-91.3	12.2
2025-01-04 16:52:52.970470	349.0	24.7	-91.5	9.3
2025-01-04 16:52:54.133955	348.8	24.6	-91.7	6.5
2025-01-04 16:52:55.305735	348.6	24.5	-91.4	13.1
2025-01-04 16:52:56.470218	348.3	24.3	-91.2	9.3
2025-01-04 16:52:57.633657	348.1	24.2	-90.8	10.3
2025-01-04 16:52:58.797576	347.9	24.1	-91.2	12.6
2025-01-04 16:52:59.960673	347.7	24.0	-91.5	6.1
2025-01-04 16:53:01.117592	347.4	23.8	-91.1	4.2
2025-01-04 16:53:02.279292	347.2	23.7	-91.4	10.0
2025-01-04 16:53:03.443887	347.0	23.6	-92.0	6.0
2025-01-04 16:53:04.603136	346.8	23.5	-91.8	8.1
2025-01-04 16:53:05.767925	346.6	23.3	-91.8	12.1
2025-01-04 16:53:06.929556	346.4	23.2	-88.7	7.2
2025-01-04 16:53:08.090655	346.2	23.1	-91.6	6.2
2025-01-04 16:53:09.252718	346.0	23.0	-91.3	11.8
2025-01-04 16:53:10.416005	345.8	22.8	-91.3	12.2
2025-01-04 16:53:11.581989	345.5	22.7	-91.9	10.2
2025-01-04 16:53:12.741588	345.3	22.6	-91.9	15.7
2025-01-04 16:53:13.906662	345.1	22.5	-91.7	10.6
2025-01-04 16:53:15.070480	344.9	22.3	-91.4	11.2
2025-01-04 16:53:16.234938	344.8	22.2	-91.0	5.4
2025-01-04 16:53:17.399080	344.6	22.1	-91.1	11.9
2025-01-04 16:53:18.569690	344.4	22.0	-91.3	14.0
2025-01-04 16:53:19.733692	344.2	21.8	-91.5	8.3
2025-01-04 16:53:20.896657	344.0	21.7	-91.5	6.2
2025-01-04 16:53:22.062269	343.8	21.6	-91.5	8.0
2025-01-04 16:53:23.221352	343.6	21.5	-91.5	12.7
2025-01-04 16:53:24.384324	343.4	21.3	-91.0	12.1
2025-01-04 16:53:25.548292	343.2	21.2	-91.3	5.5
2025-01-04 16:53:26.714294	343.0	21.1	-91.3	10.7
2025-01-04 16:53:27.885499	342.9	21.0	-91.5	7.6
2025-01-04 16:53:29.053369	342.7	20.9	-91.1	6.6
2025-01-04 16:53:30.222893	342.5	20.7	-91.5	6.8
2025-01-04 16:53:31.385442	342.3	20.6	-91.2	5.2
2025-01-04 16:53:32.543233	342.1	20.5	-91.6	5.6
2025-01-04 16:53:33.700337	342.0	20.4	-91.7	6.5
2025-01-04 16:53:34.863415	341.8	20.3	-91.4	4.7
2025-01-04 16:53:36.028086	341.6	20.1	-91.5	6.8
2025-01-04 16:53:37.194698	341.5	20.0	-91.3	4.7
2025-01-04 16:53:38.353950	341.3	19.9	-91.1	4.4
2025-01-04 16:53:39.507073	341.1	19.8	-91.3	4.7
2025-01-04 16:53:40.671102	340.9	19.7	-91.4	7.1
2025-01-04 16:53:41.834970	340.8	19.6	-91.2	4.6
2025-01-04 16:53:42.995269	340.6	19.4	-90.9	4.8
2025-01-04 16:53:44.156231	340.5	19.3	-90.3	4.1
2025-01-04 16:53:45.313108	340.3	19.2	-90.7	5.4
2025-01-04 16:53:46.470441	340.1	19.1	-91.0	3.9
2025-01-04 16:53:47.632978	340.0	19.0	-91.2	3.3
2025-01-04 16:53:48.793410	339.8	18.9	-91.1	3.7
2025-01-04 16:53:49.956068	339.7	18.7	-91.3	3.0
2025-01-04 16:53:51.116536	339.5	18.6	-91.4	3.1
2025-01-04 16:53:52.285837	339.3	18.5	-91.4	4.3
2025-01-04 16:53:53.442731	339.2	18.4	-91.7	5.5
2025-01-04 16:53:54.603458	339.0	18.3	-91.7	5.0
2025-01-04 16:53:55.768389	338.9	18.2	-91.2	5.6
2025-01-04 16:53:56.931224	338.7	18.0	-91.4	8.1
2025-01-04 16:53:58.092006	338.6	17.9	-91.3	5.1
2025-01-04 16:53:59.259598	338.4	17.8	-91.1	3.7
2025-01-04 16:54:00.414674	338.3	17.7	-91.3	4.2
2025-01-04 16:54:01.575442	338.2	17.6	-91.7	5.3
2025-01-04 16:54:02.738920	338.0	17.5	-91.6	5.0
2025-01-04 16:54:03.898525	337.9	17.4	-91.7	5.0
2025-01-04 16:54:05.063786	337.7	17.3	-91.4	3.8
2025-01-04 16:54:06.221225	337.6	17.1	-91.5	5.6
2025-01-04 16:54:07.382680	337.4	17.0	-91.4	3.8
2025-01-04 16:54:08.545462	337.3	16.9	-91.8	6.9
2025-01-04 16:54:09.705856	337.2	16.8	-91.4	5.7
2025-01-04 16:54:10.866460	337.0	16.7	-91.4	5.1
2025-01-04 16:54:12.031499	336.9	16.6	-91.7	5.1
2025-01-04 16:54:13.193323	336.8	16.5	-91.1	5.3
2025-01-04 16:54:14.356643	336.6	16.4	-91.0	3.2
2025-01-04 16:54:15.519629	336.5	16.3	-90.7	3.6
2025-01-04 16:54:16.704065	336.4	16.2	-91.1	4.4
2025-01-04 16:54:17.864094	336.2	16.0	-91.3	3.9
2025-01-04 16:54:19.024352	336.1	15.9	-91.7	6.0
2025-01-04 16:54:20.185549	336.0	15.8	-91.6	4.8
2025-01-04 16:54:21.348022	335.8	15.7	-91.3	3.5
2025-01-04 16:54:22.509328	335.7	15.6	-91.4	4.7
2025-01-04 16:54:23.671192	335.6	15.5	-91.4	3.6
2025-01-04 16:54:24.832852	335.5	15.4	-91.5	5.8
2025-01-04 16:54:25.997604	335.3	15.3	-91.3	4.3
2025-01-04 16:54:27.160538	335.2	15.2	-91.6	4.2
2025-01-04 16:54:28.329738	335.1	15.1	-91.4	2.8
2025-01-04 16:54:29.490179	335.0	15.0	-88.6	3.9
2025-01-04 16:54:30.657330	334.8	14.9	-92.1	6.1
2025-01-04 16:54:31.813440	334.7	14.8	-91.8	5.8
2025-01-04 16:54:32.973794	334.6	14.7	-92.0	4.0
2025-01-04 16:54:34.127715	334.5	14.6	-91.5	5.0
#Closed at: 2025-01-04 16:46:34.124807