passes_logs/2025/01/04/LEX_Murmansk/LEX_Murmansk__20250104_112009_NOAA_19_rec.log

#Pass ID: 20250104_112009_NOAA 19
#Satellite: NOAA 19
#Configuration: NOAA 19
#Start time: 2025-01-04 11:20:04.298220

#LorettStation: 1.0.0 05.05.2024
#Station: LEX_Murmansk
#Location: 33.156738 lon 68.926811 lat
#TLE: 1 33591U 09005A   25003.74725296  .00000502  00000+0  29188-3 0  9994
#TLE: 2 33591  99.0215  67.4219 0014696  87.4906 272.7948 14.13249552819955

#Time	Az	El	Level	SNR
2025-01-04 11:20:17.035416	24.6	16.1	-91.4	0.3
2025-01-04 11:20:18.299002	24.5	16.2	-91.8	2.8
2025-01-04 11:20:19.456398	24.3	16.3	-92.2	3.7
2025-01-04 11:20:20.605448	24.2	16.5	-92.2	3.1
2025-01-04 11:20:21.749292	24.0	16.6	-92.0	1.1
2025-01-04 11:20:22.900453	23.9	16.7	-91.9	3.0
2025-01-04 11:20:24.059847	23.7	16.8	-91.7	2.7
2025-01-04 11:20:25.211631	23.6	16.9	-91.7	2.1
2025-01-04 11:20:26.372143	23.4	17.0	-91.6	4.0
2025-01-04 11:20:27.526697	23.3	17.1	-92.0	9.4
2025-01-04 11:20:28.675948	23.1	17.2	-91.9	6.2
2025-01-04 11:20:29.830556	23.0	17.3	-91.8	5.1
2025-01-04 11:20:30.993741	22.8	17.4	-91.8	5.9
2025-01-04 11:20:32.153446	22.6	17.5	-91.0	1.8
2025-01-04 11:20:33.311528	22.5	17.6	-91.5	3.9
2025-01-04 11:20:34.462709	22.3	17.7	-92.3	9.2
2025-01-04 11:20:35.622704	22.2	17.8	-92.1	9.5
2025-01-04 11:20:36.776167	22.0	17.9	-91.8	3.0
2025-01-04 11:20:37.948206	21.8	18.1	-91.8	2.9
2025-01-04 11:20:39.104144	21.7	18.2	-91.6	2.7
2025-01-04 11:20:40.266897	21.5	18.3	-91.7	2.6
2025-01-04 11:20:41.421660	21.3	18.4	-91.9	2.1
2025-01-04 11:20:42.568024	21.1	18.5	-92.2	2.8
2025-01-04 11:20:43.722157	21.0	18.6	-92.0	5.3
2025-01-04 11:20:44.881456	20.8	18.7	-92.2	4.1
2025-01-04 11:20:46.029753	20.6	18.8	-91.9	4.5
2025-01-04 11:20:47.186859	20.5	18.9	-91.6	5.6
2025-01-04 11:20:48.337241	20.3	19.0	-91.7	7.0
2025-01-04 11:20:49.494066	20.1	19.1	-92.0	5.2
2025-01-04 11:20:50.641740	19.9	19.3	-92.1	5.1
2025-01-04 11:20:51.801184	19.7	19.4	-92.0	2.3
2025-01-04 11:20:52.957270	19.6	19.5	-92.3	8.6
2025-01-04 11:20:54.107019	19.4	19.6	-91.3	0.7
2025-01-04 11:20:55.258182	19.2	19.7	-91.6	6.8
2025-01-04 11:20:56.414919	19.0	19.8	-91.9	4.4
2025-01-04 11:20:57.569486	18.8	19.9	-91.5	3.2
2025-01-04 11:20:58.727230	18.6	20.0	-91.9	0.8
2025-01-04 11:20:59.881281	18.4	20.1	-92.1	1.6
2025-01-04 11:21:01.030007	18.2	20.3	-91.9	3.4
2025-01-04 11:21:02.180191	18.1	20.4	-91.6	3.4
2025-01-04 11:21:03.335089	17.9	20.5	-91.6	3.6
2025-01-04 11:21:04.487561	17.7	20.6	-91.7	8.6
2025-01-04 11:21:05.641850	17.5	20.7	-92.1	8.4
2025-01-04 11:21:06.793015	17.3	20.8	-91.9	8.0
2025-01-04 11:21:07.939776	17.1	20.9	-92.0	10.2
2025-01-04 11:21:09.084484	16.9	21.0	-91.5	4.9
2025-01-04 11:21:10.235082	16.7	21.1	-91.7	5.3
2025-01-04 11:21:11.389683	16.5	21.3	-92.3	5.0
2025-01-04 11:21:12.553062	16.2	21.4	-92.2	7.0
2025-01-04 11:21:13.700382	16.0	21.5	-91.8	11.6
2025-01-04 11:21:14.860883	15.8	21.6	-92.3	7.0
2025-01-04 11:21:16.021141	15.6	21.7	-92.4	6.1
2025-01-04 11:21:17.177288	15.4	21.8	-91.6	4.3
2025-01-04 11:21:18.436934	15.2	22.0	-92.1	2.5
2025-01-04 11:21:19.593091	15.0	22.1	-92.1	2.0
2025-01-04 11:21:20.744335	14.7	22.2	-92.0	1.3
2025-01-04 11:21:21.896149	14.5	22.3	-91.9	1.1
2025-01-04 11:21:23.047891	14.3	22.4	-92.2	5.2
2025-01-04 11:21:24.207277	14.1	22.5	-91.6	4.4
2025-01-04 11:21:25.356855	13.9	22.6	-91.9	9.6
2025-01-04 11:21:26.517428	13.6	22.7	-92.2	5.0
2025-01-04 11:21:27.668452	13.4	22.9	-91.9	7.1
2025-01-04 11:21:28.817317	13.2	23.0	-92.0	7.7
2025-01-04 11:21:29.966407	12.9	23.1	-91.8	7.2
2025-01-04 11:21:31.130972	12.7	23.2	-91.7	9.0
2025-01-04 11:21:32.284876	12.5	23.3	-91.7	6.4
2025-01-04 11:21:33.441040	12.2	23.4	-91.7	6.2
2025-01-04 11:21:34.594166	12.0	23.5	-92.0	13.1
2025-01-04 11:21:35.751536	11.8	23.7	-91.9	11.5
2025-01-04 11:21:36.912926	11.5	23.8	-92.0	12.4
2025-01-04 11:21:38.066517	11.3	23.9	-91.5	8.1
2025-01-04 11:21:39.221817	11.0	24.0	-91.5	1.8
2025-01-04 11:21:40.378338	10.8	24.1	-92.1	3.6
2025-01-04 11:21:41.534800	10.5	24.2	-92.2	4.6
2025-01-04 11:21:42.691772	10.3	24.3	-92.2	2.4
2025-01-04 11:21:43.844997	10.0	24.5	-92.3	1.9
2025-01-04 11:21:45.001637	9.8	24.6	-92.2	5.4
2025-01-04 11:21:46.159056	9.5	24.7	-91.5	3.3
2025-01-04 11:21:47.314029	9.3	24.8	-91.6	8.1
2025-01-04 11:21:48.460610	9.0	24.9	-92.0	7.5
2025-01-04 11:21:49.615781	8.7	25.0	-92.0	10.1
2025-01-04 11:21:50.771035	8.5	25.1	-92.1	5.6
2025-01-04 11:21:51.924438	8.2	25.2	-92.3	6.3
2025-01-04 11:21:53.070715	7.9	25.3	-91.5	8.0
2025-01-04 11:21:54.229668	7.7	25.5	-91.2	2.9
2025-01-04 11:21:55.380335	7.4	25.6	-91.6	6.8
2025-01-04 11:21:56.530261	7.1	25.7	-92.1	6.7
2025-01-04 11:21:57.685754	6.9	25.8	-92.6	6.9
2025-01-04 11:21:58.837139	6.6	25.9	-92.4	8.2
2025-01-04 11:21:59.987806	6.3	26.0	-92.0	10.0
2025-01-04 11:22:01.133119	6.0	26.1	-91.4	6.7
2025-01-04 11:22:02.301843	5.7	26.2	-92.0	3.2
2025-01-04 11:22:03.457095	5.5	26.3	-92.1	3.6
2025-01-04 11:22:04.606778	5.2	26.4	-91.7	2.3
2025-01-04 11:22:05.760681	4.9	26.6	-91.1	1.0
2025-01-04 11:22:06.915941	4.6	26.7	-92.1	3.9
2025-01-04 11:22:08.071084	4.3	26.8	-92.1	1.7
2025-01-04 11:22:09.227778	4.0	26.9	-91.5	5.9
2025-01-04 11:22:10.376459	3.7	27.0	-91.8	5.3
2025-01-04 11:22:11.523110	3.4	27.1	-90.5	5.4
2025-01-04 11:22:12.667928	3.1	27.2	-92.0	9.7
2025-01-04 11:22:13.827401	2.8	27.3	-91.9	5.4
2025-01-04 11:22:14.976675	2.5	27.4	-92.2	8.1
2025-01-04 11:22:16.135271	2.2	27.5	-92.2	7.9
2025-01-04 11:22:17.285726	1.9	27.6	-91.6	4.6
2025-01-04 11:22:18.443564	1.6	27.7	-91.2	6.1
2025-01-04 11:22:19.586536	1.3	27.8	-92.3	5.3
2025-01-04 11:22:20.739737	1.0	27.9	-91.5	2.3
2025-01-04 11:22:21.899422	0.6	28.0	-91.8	7.1
2025-01-04 11:22:23.054118	0.3	28.1	-91.6	10.4
2025-01-04 11:22:24.200410	0.0	28.2	-91.7	9.8
2025-01-04 11:22:25.352624	359.7	28.3	-91.2	7.7
2025-01-04 11:22:26.507163	359.4	28.4	-92.2	7.7
2025-01-04 11:22:27.663304	359.0	28.5	-91.7	3.0
2025-01-04 11:22:28.818842	358.7	28.6	-91.5	3.5
2025-01-04 11:22:29.972380	358.4	28.7	-91.5	2.4
2025-01-04 11:22:31.126649	358.0	28.8	-91.2	3.3
2025-01-04 11:22:32.278214	357.7	28.9	-91.5	3.0
2025-01-04 11:22:33.435390	357.4	29.0	-91.8	5.0
2025-01-04 11:22:34.589563	357.0	29.1	-92.0	4.1
2025-01-04 11:22:35.744420	356.7	29.2	-91.1	3.6
2025-01-04 11:22:36.902544	356.3	29.3	-92.2	8.8
2025-01-04 11:22:38.058257	356.0	29.4	-91.3	4.1
2025-01-04 11:22:39.209773	355.7	29.5	-91.2	4.1
2025-01-04 11:22:40.362646	355.3	29.6	-91.6	5.2
2025-01-04 11:22:41.515433	355.0	29.6	-91.8	4.6
2025-01-04 11:22:42.665569	354.6	29.7	-92.0	9.7
2025-01-04 11:22:43.815032	354.3	29.8	-91.5	4.8
2025-01-04 11:22:44.971537	353.9	29.9	-92.0	7.4
2025-01-04 11:22:46.128945	353.5	30.0	-89.8	5.4
2025-01-04 11:22:47.283226	353.2	30.1	-91.6	5.2
2025-01-04 11:22:48.440545	352.8	30.2	-91.6	5.2
2025-01-04 11:22:49.588856	352.5	30.2	-91.1	6.3
2025-01-04 11:22:50.744459	352.1	30.3	-92.1	5.5
2025-01-04 11:22:51.900693	351.7	30.4	-92.1	10.3
2025-01-04 11:22:53.051198	351.4	30.5	-92.0	11.7
2025-01-04 11:22:54.202783	351.0	30.5	-91.6	11.9
2025-01-04 11:22:55.354153	350.6	30.6	-91.5	8.8
2025-01-04 11:22:56.510571	350.2	30.7	-91.8	6.7
2025-01-04 11:22:57.665184	349.9	30.8	-91.9	7.6
2025-01-04 11:22:58.821884	349.5	30.8	-91.4	5.5
2025-01-04 11:22:59.975770	349.1	30.9	-92.0	7.0
2025-01-04 11:23:01.141149	348.7	31.0	-91.8	2.2
2025-01-04 11:23:02.292328	348.3	31.1	-91.9	3.2
2025-01-04 11:23:03.447856	347.9	31.1	-91.4	5.2
2025-01-04 11:23:04.600105	347.6	31.2	-92.0	3.0
2025-01-04 11:23:05.754845	347.2	31.3	-91.9	1.7
2025-01-04 11:23:06.906902	346.8	31.3	-91.5	3.2
2025-01-04 11:23:08.062503	346.4	31.4	-91.9	3.8
2025-01-04 11:23:09.218484	346.0	31.4	-91.3	7.3
2025-01-04 11:23:10.371740	345.6	31.5	-92.0	7.9
2025-01-04 11:23:11.516810	345.2	31.6	-91.7	9.9
2025-01-04 11:23:12.664474	344.8	31.6	-92.0	11.8
2025-01-04 11:23:13.819216	344.4	31.7	-92.2	11.7
2025-01-04 11:23:14.970560	344.0	31.7	-92.2	12.2
2025-01-04 11:23:16.122914	343.6	31.8	-91.6	9.5
2025-01-04 11:23:17.283126	343.2	31.8	-91.7	11.2
2025-01-04 11:23:18.448443	342.8	31.9	-91.6	6.0
2025-01-04 11:23:19.598835	342.4	31.9	-92.1	10.9
2025-01-04 11:23:20.755652	342.0	32.0	-92.4	9.1
2025-01-04 11:23:21.903730	341.6	32.0	-91.9	5.9
2025-01-04 11:23:23.053973	341.2	32.0	-91.9	7.6
2025-01-04 11:23:24.201750	340.8	32.1	-92.2	3.7
2025-01-04 11:23:25.362733	340.4	32.1	-92.2	5.4
2025-01-04 11:23:26.516600	340.0	32.2	-92.4	6.9
2025-01-04 11:23:27.672683	339.6	32.2	-92.4	4.6
2025-01-04 11:23:28.823526	339.1	32.2	-91.9	6.4
2025-01-04 11:23:29.983217	338.7	32.3	-90.3	4.9
2025-01-04 11:23:31.142424	338.3	32.3	-91.8	6.2
2025-01-04 11:23:32.295344	337.9	32.3	-92.0	9.1
2025-01-04 11:23:33.452596	337.5	32.4	-92.2	9.0
2025-01-04 11:23:34.603068	337.1	32.4	-91.9	8.0
2025-01-04 11:23:35.759024	336.7	32.4	-92.5	10.1
2025-01-04 11:23:36.917053	336.2	32.4	-92.4	11.0
2025-01-04 11:23:38.068415	335.8	32.5	-92.0	11.7
2025-01-04 11:23:39.210616	335.4	32.5	-92.1	12.6
2025-01-04 11:23:40.371032	335.0	32.5	-92.4	6.0
2025-01-04 11:23:41.523567	334.6	32.5	-92.2	7.2
2025-01-04 11:23:42.679171	334.1	32.5	-92.6	15.1
2025-01-04 11:23:43.834249	333.7	32.5	-92.3	11.2
2025-01-04 11:23:44.986069	333.3	32.5	-92.4	13.4
2025-01-04 11:23:46.154806	332.9	32.5	-91.8	15.3
2025-01-04 11:23:47.309526	332.5	32.6	-92.1	5.6
2025-01-04 11:23:48.458154	332.0	32.6	-91.9	11.4
2025-01-04 11:23:49.611623	331.6	32.6	-92.1	10.6
2025-01-04 11:23:50.764183	331.2	32.6	-91.5	5.3
2025-01-04 11:23:51.921475	330.8	32.6	-92.3	4.5
2025-01-04 11:23:53.074336	330.3	32.6	-92.2	4.2
2025-01-04 11:23:54.222153	329.9	32.6	-91.9	2.6
2025-01-04 11:23:55.379315	329.5	32.6	-92.1	4.6
2025-01-04 11:23:56.537067	329.1	32.5	-92.2	5.8
2025-01-04 11:23:57.696429	328.7	32.5	-92.4	3.6
2025-01-04 11:23:58.848845	328.2	32.5	-91.4	2.8
2025-01-04 11:24:00.000983	327.8	32.5	-92.3	6.4
2025-01-04 11:24:01.150369	327.4	32.5	-92.2	7.7
2025-01-04 11:24:02.303983	327.0	32.5	-92.1	3.3
2025-01-04 11:24:03.457258	326.6	32.5	-92.2	6.2
2025-01-04 11:24:04.611352	326.1	32.4	-92.6	3.8
2025-01-04 11:24:05.756476	325.7	32.4	-92.1	2.9
2025-01-04 11:24:06.904446	325.3	32.4	-92.3	3.7
2025-01-04 11:24:08.062764	324.9	32.4	-92.5	6.9
2025-01-04 11:24:09.211062	324.5	32.4	-91.5	4.8
2025-01-04 11:24:10.361624	324.1	32.3	-91.7	9.1
2025-01-04 11:24:11.509338	323.7	32.3	-91.8	7.2
2025-01-04 11:24:12.676301	323.2	32.3	-92.1	7.7
2025-01-04 11:24:13.822940	322.8	32.2	-92.2	8.0
2025-01-04 11:24:14.973215	322.4	32.2	-92.4	10.9
2025-01-04 11:24:16.121219	322.0	32.2	-91.4	3.7
2025-01-04 11:24:17.276537	321.6	32.1	-91.0	9.4
2025-01-04 11:24:18.424207	321.2	32.1	-92.0	9.7
2025-01-04 11:24:19.572806	320.8	32.0	-92.1	10.0
2025-01-04 11:24:20.741897	320.4	32.0	-92.5	7.7
2025-01-04 11:24:21.899226	320.0	32.0	-91.7	13.3
2025-01-04 11:24:23.057991	319.6	31.9	-92.2	16.2
2025-01-04 11:24:24.215271	319.2	31.9	-91.9	8.2
2025-01-04 11:24:25.380657	318.7	31.8	-91.9	11.5
2025-01-04 11:24:26.534941	318.3	31.8	-91.2	11.2
2025-01-04 11:24:27.689321	317.9	31.7	-92.5	8.7
2025-01-04 11:24:28.845906	317.5	31.7	-92.4	16.1
2025-01-04 11:24:29.993791	317.1	31.6	-92.2	9.7
2025-01-04 11:24:31.138772	316.8	31.6	-91.8	9.1
2025-01-04 11:24:32.292909	316.4	31.5	-91.8	14.4
2025-01-04 11:24:33.446935	316.0	31.4	-92.4	7.1
2025-01-04 11:24:34.603914	315.6	31.4	-92.0	14.2
2025-01-04 11:24:35.756049	315.2	31.3	-92.1	8.6
2025-01-04 11:24:36.914556	314.8	31.2	-92.2	12.3
2025-01-04 11:24:38.062189	314.4	31.2	-92.2	10.6
2025-01-04 11:24:39.211012	314.0	31.1	-92.0	12.3
2025-01-04 11:24:40.364444	313.6	31.1	-92.1	14.0
2025-01-04 11:24:41.510561	313.3	31.0	-92.4	9.5
2025-01-04 11:24:42.675238	312.9	30.9	-92.6	12.0
2025-01-04 11:24:43.829426	312.5	30.8	-92.0	12.2
2025-01-04 11:24:44.988485	312.1	30.8	-91.8	14.6
2025-01-04 11:24:46.142429	311.7	30.7	-92.0	8.7
2025-01-04 11:24:47.302141	311.4	30.6	-92.2	13.5
2025-01-04 11:24:48.452415	311.0	30.5	-92.3	7.8
2025-01-04 11:24:49.603672	310.6	30.5	-92.3	12.5
2025-01-04 11:24:50.757639	310.3	30.4	-92.6	8.2
2025-01-04 11:24:51.911447	309.9	30.3	-92.3	6.8
2025-01-04 11:24:53.058075	309.5	30.2	-91.9	13.1
2025-01-04 11:24:54.216019	309.2	30.1	-91.7	7.8
2025-01-04 11:24:55.370693	308.8	30.1	-92.2	9.3
2025-01-04 11:24:56.524951	308.4	30.0	-92.2	12.4
2025-01-04 11:24:57.680919	308.1	29.9	-92.4	6.3
2025-01-04 11:24:58.845655	307.7	29.8	-92.3	8.1
2025-01-04 11:25:00.004610	307.4	29.7	-92.3	11.5
2025-01-04 11:25:01.148920	307.0	29.6	-91.9	8.2
2025-01-04 11:25:02.302194	306.7	29.5	-92.1	7.3
2025-01-04 11:25:03.460857	306.3	29.5	-92.4	9.7
2025-01-04 11:25:04.617625	306.0	29.4	-92.3	6.5
2025-01-04 11:25:05.771395	305.6	29.3	-91.8	5.9
2025-01-04 11:25:06.933659	305.3	29.2	-92.2	8.2
2025-01-04 11:25:08.090411	304.9	29.1	-92.0	6.3
2025-01-04 11:25:09.253161	304.6	29.0	-91.7	5.4
2025-01-04 11:25:10.409407	304.3	28.9	-91.8	5.0
2025-01-04 11:25:11.562307	303.9	28.8	-91.3	6.4
2025-01-04 11:25:12.709282	303.6	28.7	-91.6	2.5
2025-01-04 11:25:13.866378	303.3	28.6	-92.0	4.6
2025-01-04 11:25:15.012269	302.9	28.5	-91.3	2.7
2025-01-04 11:25:16.165152	302.6	28.4	-92.0	4.0
2025-01-04 11:25:17.313199	302.3	28.3	-91.9	1.7
2025-01-04 11:25:18.467231	302.0	28.2	-92.0	4.9
2025-01-04 11:25:19.618890	301.6	28.1	-92.4	6.6
2025-01-04 11:25:20.774846	301.3	28.0	-91.4	4.8
2025-01-04 11:25:21.932912	301.0	27.9	-92.1	6.0
2025-01-04 11:25:23.084290	300.7	27.8	-91.7	8.7
2025-01-04 11:25:24.239197	300.4	27.7	-91.8	4.2
2025-01-04 11:25:25.388416	300.1	27.6	-92.7	7.5
2025-01-04 11:25:26.544764	299.8	27.5	-90.5	4.5
2025-01-04 11:25:27.696851	299.5	27.4	-92.2	6.4
2025-01-04 11:25:28.854471	299.1	27.3	-92.1	6.2
2025-01-04 11:25:30.003961	298.8	27.2	-92.6	8.6
2025-01-04 11:25:31.151919	298.5	27.1	-91.4	5.2
2025-01-04 11:25:32.313700	298.2	27.0	-91.5	13.4
2025-01-04 11:25:33.470053	297.9	26.9	-92.5	9.2
2025-01-04 11:25:34.628019	297.7	26.8	-92.3	8.5
2025-01-04 11:25:35.778681	297.4	26.7	-92.6	12.7
2025-01-04 11:25:36.930679	297.1	26.5	-91.7	14.5
2025-01-04 11:25:38.083390	296.8	26.4	-92.0	11.4
2025-01-04 11:25:39.240744	296.5	26.3	-91.8	11.7
2025-01-04 11:25:40.397284	296.2	26.2	-92.4	11.9
2025-01-04 11:25:41.554757	295.9	26.1	-91.7	10.1
2025-01-04 11:25:42.711856	295.6	26.0	-92.2	13.8
2025-01-04 11:25:43.870136	295.4	25.9	-92.2	13.5
2025-01-04 11:25:45.018874	295.1	25.8	-92.3	10.3
2025-01-04 11:25:46.175774	294.8	25.7	-92.3	8.3
2025-01-04 11:25:47.335381	294.5	25.6	-92.1	3.2
2025-01-04 11:25:48.488649	294.3	25.4	-92.5	5.9
2025-01-04 11:25:49.637408	294.0	25.3	-92.1	6.0
2025-01-04 11:25:50.795952	293.7	25.2	-92.2	2.0
2025-01-04 11:25:51.954663	293.5	25.1	-92.1	4.1
2025-01-04 11:25:53.117421	293.2	25.0	-92.0	3.4
2025-01-04 11:25:54.274040	292.9	24.9	-91.8	2.4
2025-01-04 11:25:55.439394	292.7	24.8	-92.7	5.8
2025-01-04 11:25:56.597021	292.4	24.7	-92.5	4.4
2025-01-04 11:25:57.756099	292.2	24.5	-91.9	2.6
2025-01-04 11:25:58.909275	291.9	24.4	-92.1	3.5
2025-01-04 11:26:00.069712	291.7	24.3	-92.2	5.2
2025-01-04 11:26:01.216111	291.4	24.2	-91.9	2.8
2025-01-04 11:26:02.370916	291.2	24.1	-92.7	2.6
2025-01-04 11:26:03.517770	290.9	24.0	-92.6	8.1
2025-01-04 11:26:04.669916	290.7	23.9	-92.1	10.8
2025-01-04 11:26:05.822437	290.4	23.8	-92.2	7.4
2025-01-04 11:26:06.976596	290.2	23.6	-92.4	7.2
2025-01-04 11:26:08.127687	289.9	23.5	-92.0	8.7
2025-01-04 11:26:09.278374	289.7	23.4	-92.1	10.0
2025-01-04 11:26:10.428929	289.5	23.3	-92.3	11.3
2025-01-04 11:26:11.578417	289.2	23.2	-92.2	13.4
2025-01-04 11:26:12.738782	289.0	23.1	-92.0	11.2
2025-01-04 11:26:13.895124	288.8	23.0	-92.4	6.9
2025-01-04 11:26:15.052167	288.5	22.8	-92.1	7.8
2025-01-04 11:26:16.200661	288.3	22.7	-92.3	2.6
2025-01-04 11:26:17.355291	288.1	22.6	-92.3	3.3
2025-01-04 11:26:18.511720	287.9	22.5	-92.2	6.1
2025-01-04 11:26:19.668814	287.6	22.4	-92.4	5.2
2025-01-04 11:26:20.820642	287.4	22.3	-92.0	2.8
2025-01-04 11:26:21.982393	287.2	22.2	-91.9	4.5
2025-01-04 11:26:23.134479	287.0	22.0	-92.1	7.8
2025-01-04 11:26:24.286026	286.8	21.9	-92.1	3.0
2025-01-04 11:26:25.443443	286.6	21.8	-92.7	6.3
2025-01-04 11:26:26.610107	286.3	21.7	-92.4	7.1
2025-01-04 11:26:27.764228	286.1	21.6	-92.2	6.4
2025-01-04 11:26:28.930516	285.9	21.5	-92.1	6.3
2025-01-04 11:26:30.088739	285.7	21.4	-92.0	4.5
2025-01-04 11:26:31.254592	285.5	21.2	-91.9	8.6
2025-01-04 11:26:32.406578	285.3	21.1	-92.2	7.2
2025-01-04 11:26:33.562260	285.1	21.0	-92.2	4.2
2025-01-04 11:26:34.719586	284.9	20.9	-92.7	3.7
2025-01-04 11:26:35.874132	284.7	20.8	-92.5	4.2
2025-01-04 11:26:37.034783	284.5	20.7	-92.3	5.8
2025-01-04 11:26:38.196488	284.3	20.6	-92.0	2.9
2025-01-04 11:26:39.349863	284.1	20.5	-92.4	2.6
2025-01-04 11:26:40.503835	283.9	20.3	-92.4	2.6
2025-01-04 11:26:41.655761	283.7	20.2	-92.1	1.7
2025-01-04 11:26:42.805466	283.5	20.1	-91.5	2.1
2025-01-04 11:26:43.960725	283.3	20.0	-92.2	3.9
2025-01-04 11:26:45.123688	283.1	19.9	-92.1	0.6
2025-01-04 11:26:46.288144	282.9	19.8	-92.4	2.1
2025-01-04 11:26:47.444779	282.8	19.7	-92.1	3.0
2025-01-04 11:26:48.597936	282.6	19.6	-91.2	4.2
2025-01-04 11:26:49.746911	282.4	19.5	-92.3	4.4
2025-01-04 11:26:50.898407	282.2	19.3	-92.5	4.5
2025-01-04 11:26:52.050757	282.0	19.2	-92.0	4.9
2025-01-04 11:26:53.212734	281.8	19.1	-91.9	5.5
2025-01-04 11:26:54.362565	281.7	19.0	-91.9	5.7
2025-01-04 11:26:55.511004	281.5	18.9	-92.4	6.2
2025-01-04 11:26:56.668262	281.3	18.8	-92.2	5.6
2025-01-04 11:26:57.832175	281.1	18.7	-92.5	3.2
2025-01-04 11:26:58.992736	281.0	18.6	-92.2	3.7
2025-01-04 11:27:00.148636	280.8	18.5	-91.9	3.8
2025-01-04 11:27:01.287460	280.6	18.4	-91.3	0.7
2025-01-04 11:27:02.445489	280.5	18.2	-92.4	2.4
2025-01-04 11:27:03.605841	280.3	18.1	-92.6	4.2
2025-01-04 11:27:04.758109	280.1	18.0	-92.2	1.8
2025-01-04 11:27:05.918074	280.0	17.9	-92.5	3.8
2025-01-04 11:27:07.073287	279.8	17.8	-92.2	6.6
2025-01-04 11:27:08.229601	279.6	17.7	-92.0	6.4
2025-01-04 11:27:09.387225	279.5	17.6	-92.5	7.1
2025-01-04 11:27:10.533727	279.3	17.5	-92.5	2.1
2025-01-04 11:27:11.691866	279.1	17.4	-92.4	8.7
2025-01-04 11:27:12.843452	279.0	17.3	-91.9	6.3
2025-01-04 11:27:13.999058	278.8	17.2	-92.3	8.2
2025-01-04 11:27:15.149534	278.7	17.1	-91.9	5.8
2025-01-04 11:27:16.302620	278.5	17.0	-91.7	4.0
2025-01-04 11:27:17.463189	278.4	16.9	-92.1	5.0
2025-01-04 11:27:18.620505	278.2	16.8	-92.2	2.2
2025-01-04 11:27:19.774535	278.1	16.6	-92.5	0.3
2025-01-04 11:27:20.918499	277.9	16.5	-92.7	3.5
2025-01-04 11:27:22.083113	277.8	16.4	-92.5	5.9
2025-01-04 11:27:23.240565	277.6	16.3	-92.6	2.8
2025-01-04 11:27:24.407965	277.5	16.2	-92.1	6.0
2025-01-04 11:27:25.556542	277.3	16.1	-92.1	2.3
2025-01-04 11:27:26.711673	277.2	16.0	-92.3	5.9
2025-01-04 11:27:27.871231	277.0	15.9	-92.0	5.0
2025-01-04 11:27:29.026330	276.9	15.8	-92.3	5.9
2025-01-04 11:27:30.179718	276.7	15.7	-92.2	10.6
2025-01-04 11:27:31.339617	276.6	15.6	-92.0	4.1
2025-01-04 11:27:32.494395	276.4	15.5	-92.0	8.5
2025-01-04 11:27:33.649354	276.3	15.4	-92.6	7.1
2025-01-04 11:27:34.812306	276.2	15.3	-92.1	5.0
2025-01-04 11:27:35.971670	276.0	15.2	-92.1	6.6
2025-01-04 11:27:37.129019	275.9	15.1	-91.7	7.5
2025-01-04 11:27:38.280617	275.8	15.0	-92.0	3.4
2025-01-04 11:27:39.432545	275.6	14.9	-92.4	3.1
2025-01-04 11:27:40.583663	275.5	14.8	-92.0	7.7
2025-01-04 11:27:41.740245	275.4	14.7	-92.0	5.0
2025-01-04 11:27:42.903126	275.2	14.6	-91.5	6.4
#Closed at: 2025-01-04 11:20:09.363845