passes_logs/2025/01/04/LEX_Murmansk/LEX_Murmansk__20250104_182604_NOAA_18_rec.log

#Pass ID: 20250104_182604_NOAA 18
#Satellite: NOAA 18
#Configuration: NOAA 18
#Start time: 2025-01-04 18:25:59.482598

#LorettStation: 1.0.0 05.05.2024
#Station: LEX_Murmansk
#Location: 33.156738 lon 68.926811 lat
#TLE: 1 28654U 05018A   25003.76610367  .00000568  00000+0  32493-3 0  9997
#TLE: 2 28654  98.8583  84.9311 0013827 211.1121 148.9234 14.13475198 11594

#Time	Az	El	Level	SNR
2025-01-04 18:26:11.665035	138.7	16.3	-90.0	5.8
2025-01-04 18:26:14.000666	138.6	16.6	-90.4	4.8
2025-01-04 18:26:16.329643	138.6	16.8	-89.6	4.8
2025-01-04 18:26:18.655895	138.5	17.1	-90.8	6.3
2025-01-04 18:26:20.983115	138.4	17.3	-90.1	4.5
2025-01-04 18:26:23.307491	138.4	17.6	-90.0	7.0
2025-01-04 18:26:25.628096	138.3	17.9	-90.6	7.2
2025-01-04 18:26:27.949104	138.2	18.2	-90.8	8.0
2025-01-04 18:26:30.279763	138.2	18.4	-88.8	8.9
2025-01-04 18:26:32.611559	138.1	18.7	-90.7	8.6
2025-01-04 18:26:34.944187	138.0	19.0	-90.5	7.2
2025-01-04 18:26:37.260220	137.9	19.3	-90.9	11.6
2025-01-04 18:26:39.588158	137.9	19.6	-91.0	10.8
2025-01-04 18:26:41.918177	137.8	19.9	-91.1	8.9
2025-01-04 18:26:44.255678	137.7	20.2	-90.6	11.0
2025-01-04 18:26:46.582464	137.6	20.5	-90.6	11.7
2025-01-04 18:26:48.909630	137.6	20.8	-91.2	8.8
2025-01-04 18:26:51.234561	137.5	21.1	-90.9	10.1
2025-01-04 18:26:53.561424	137.4	21.4	-90.3	4.9
2025-01-04 18:26:55.891009	137.3	21.7	-90.8	14.5
2025-01-04 18:26:58.211491	137.2	22.0	-90.7	17.6
2025-01-04 18:27:00.526350	137.1	22.3	-91.1	11.3
2025-01-04 18:27:02.868841	137.0	22.7	-91.4	12.0
2025-01-04 18:27:05.200343	136.9	23.0	-90.7	12.5
2025-01-04 18:27:07.515253	136.8	23.3	-91.1	6.2
2025-01-04 18:27:09.806129	136.7	23.6	-90.8	10.4
2025-01-04 18:27:12.048821	136.6	24.0	-90.6	8.9
2025-01-04 18:27:14.290096	136.5	24.3	-90.5	11.2
2025-01-04 18:27:16.532249	136.4	24.6	-90.5	10.1
2025-01-04 18:27:18.788785	136.3	25.0	-91.1	8.6
2025-01-04 18:27:21.106801	136.2	25.3	-90.0	10.8
2025-01-04 18:27:23.420392	136.1	25.7	-90.6	10.2
2025-01-04 18:27:25.742719	136.0	26.1	-91.4	10.3
2025-01-04 18:27:28.061568	135.9	26.4	-91.3	8.9
2025-01-04 18:27:30.378483	135.8	26.8	-90.8	9.0
2025-01-04 18:27:32.649077	135.6	27.2	-91.0	7.6
2025-01-04 18:27:34.954586	135.5	27.6	-90.9	11.3
2025-01-04 18:27:37.267315	135.4	28.0	-90.7	7.3
2025-01-04 18:27:39.580784	135.2	28.4	-91.4	5.2
2025-01-04 18:27:41.898680	135.1	28.8	-91.3	4.8
2025-01-04 18:27:44.219909	135.0	29.2	-91.1	5.5
2025-01-04 18:27:46.539419	134.8	29.6	-91.2	1.6
2025-01-04 18:27:48.862228	134.7	30.0	-91.2	5.0
2025-01-04 18:27:51.185950	134.5	30.4	-90.6	6.1
2025-01-04 18:27:53.510750	134.3	30.9	-91.3	8.8
2025-01-04 18:27:55.836286	134.2	31.3	-90.9	11.4
2025-01-04 18:27:58.154248	134.0	31.7	-90.6	5.5
2025-01-04 18:28:00.470587	133.8	32.2	-90.8	8.4
2025-01-04 18:28:02.814062	133.7	32.7	-90.7	6.9
2025-01-04 18:28:05.141684	133.5	33.1	-91.1	7.3
2025-01-04 18:28:07.473551	133.3	33.6	-91.0	8.7
2025-01-04 18:28:09.790994	133.1	34.1	-90.6	5.3
2025-01-04 18:28:12.121561	132.9	34.6	-90.9	9.5
2025-01-04 18:28:14.450932	132.7	35.1	-90.5	7.7
2025-01-04 18:28:16.749208	132.5	35.5	-91.4	11.7
2025-01-04 18:28:19.076443	132.3	36.1	-90.8	10.0
2025-01-04 18:28:21.399832	132.0	36.6	-90.9	19.5
2025-01-04 18:28:23.725760	131.8	37.1	-91.0	11.7
2025-01-04 18:28:26.054105	131.5	37.6	-90.7	10.5
2025-01-04 18:28:28.381943	131.3	38.2	-90.9	8.9
2025-01-04 18:28:30.707741	131.0	38.7	-90.9	11.8
2025-01-04 18:28:33.030689	130.8	39.3	-91.0	8.3
2025-01-04 18:28:35.352351	130.5	39.8	-90.8	4.9
2025-01-04 18:28:37.675953	130.2	40.4	-90.4	8.8
2025-01-04 18:28:40.005964	129.9	41.0	-91.0	18.9
2025-01-04 18:28:42.329706	129.6	41.6	-90.8	12.5
2025-01-04 18:28:44.649891	129.3	42.1	-91.4	13.3
2025-01-04 18:28:46.965972	128.9	42.7	-91.1	11.5
2025-01-04 18:28:49.288533	128.6	43.4	-90.8	10.5
2025-01-04 18:28:51.607191	128.2	44.0	-90.8	5.1
2025-01-04 18:28:53.936684	127.8	44.6	-91.0	5.7
2025-01-04 18:28:56.278696	127.4	45.3	-91.3	17.9
2025-01-04 18:28:58.610095	127.0	45.9	-91.3	12.5
2025-01-04 18:29:00.929845	126.6	46.6	-91.5	18.2
2025-01-04 18:29:03.258880	126.1	47.2	-89.1	11.3
2025-01-04 18:29:05.586089	125.7	47.9	-89.6	5.7
2025-01-04 18:29:07.906913	125.2	48.6	-89.6	6.6
2025-01-04 18:29:10.192717	124.7	49.2	-90.2	10.7
2025-01-04 18:29:12.434623	124.2	49.9	-89.3	6.1
2025-01-04 18:29:14.677258	123.6	50.6	-90.9	11.5
2025-01-04 18:29:16.923098	123.1	51.3	-90.7	10.5
2025-01-04 18:29:19.201096	122.5	52.0	-90.1	12.6
2025-01-04 18:29:21.522946	121.8	52.7	-90.8	9.0
2025-01-04 18:29:23.839470	121.2	53.4	-91.3	7.3
2025-01-04 18:29:26.170217	120.5	54.2	-90.6	9.9
2025-01-04 18:29:28.468521	119.7	54.9	-90.9	5.6
2025-01-04 18:29:30.755388	118.9	55.6	-91.3	20.1
2025-01-04 18:29:33.063323	118.1	56.4	-91.4	14.7
2025-01-04 18:29:35.369471	117.2	57.1	-91.3	14.2
2025-01-04 18:29:37.692676	116.3	57.9	-91.3	14.5
2025-01-04 18:29:40.027766	115.3	58.7	-91.4	9.8
2025-01-04 18:29:42.354272	114.3	59.4	-91.1	16.7
2025-01-04 18:29:44.680412	113.2	60.2	-91.1	17.3
2025-01-04 18:29:46.999896	112.0	61.0	-90.4	8.4
2025-01-04 18:29:49.326883	110.8	61.7	-90.8	13.1
2025-01-04 18:29:51.646723	109.4	62.5	-91.1	9.7
2025-01-04 18:29:53.968036	108.0	63.2	-90.2	12.3
2025-01-04 18:29:56.298609	106.5	64.0	-87.5	11.2
2025-01-04 18:29:58.619411	104.9	64.7	-90.7	14.2
2025-01-04 18:30:00.931504	103.2	65.4	-91.4	16.0
2025-01-04 18:30:03.258806	101.4	66.1	-90.8	7.4
2025-01-04 18:30:05.584759	99.5	66.8	-91.2	13.2
2025-01-04 18:30:07.897174	97.4	67.5	-91.2	17.0
2025-01-04 18:30:10.201958	95.2	68.1	-90.8	12.3
2025-01-04 18:30:12.443005	92.9	68.7	-91.2	11.9
2025-01-04 18:30:14.687864	90.5	69.3	-91.5	15.6
2025-01-04 18:30:16.930077	88.0	69.8	-91.0	13.0
2025-01-04 18:30:19.206313	85.3	70.3	-90.8	12.5
2025-01-04 18:30:21.519000	82.3	70.8	-91.0	13.7
2025-01-04 18:30:23.833829	79.3	71.2	-90.9	12.9
2025-01-04 18:30:26.164483	76.0	71.6	-90.9	10.2
2025-01-04 18:30:28.501218	72.6	71.9	-91.5	7.2
2025-01-04 18:30:30.820340	69.2	72.2	-91.3	13.3
2025-01-04 18:30:33.141157	65.6	72.3	-90.7	8.6
2025-01-04 18:30:35.466747	62.0	72.5	-91.1	9.2
2025-01-04 18:30:37.794788	58.3	72.5	-90.9	9.0
2025-01-04 18:30:40.123726	54.6	72.5	-90.9	8.0
2025-01-04 18:30:42.434454	51.0	72.4	-91.6	8.5
2025-01-04 18:30:44.728270	47.4	72.3	-91.3	17.0
2025-01-04 18:30:47.013888	43.9	72.1	-91.2	8.8
2025-01-04 18:30:49.308734	40.5	71.8	-91.6	18.3
2025-01-04 18:30:51.614560	37.2	71.5	-91.3	12.4
2025-01-04 18:30:53.934555	34.1	71.1	-91.8	10.1
2025-01-04 18:30:56.255988	31.0	70.6	-90.7	19.0
2025-01-04 18:30:58.565713	28.2	70.2	-90.9	16.4
2025-01-04 18:31:00.842646	25.5	69.6	-91.0	16.1
2025-01-04 18:31:03.144729	22.9	69.1	-90.8	17.6
2025-01-04 18:31:05.462329	20.5	68.5	-90.9	17.3
2025-01-04 18:31:07.769645	18.2	67.9	-91.0	14.2
2025-01-04 18:31:10.094194	16.1	67.2	-90.7	12.6
2025-01-04 18:31:12.417235	14.1	66.5	-90.9	16.8
2025-01-04 18:31:14.740847	12.2	65.8	-91.0	14.9
2025-01-04 18:31:17.072362	10.4	65.1	-90.8	15.3
2025-01-04 18:31:19.402480	8.7	64.4	-90.3	15.9
2025-01-04 18:31:21.739132	7.2	63.6	-91.3	15.4
2025-01-04 18:31:24.063797	5.7	62.9	-91.0	9.8
2025-01-04 18:31:26.347515	4.4	62.2	-90.7	17.3
2025-01-04 18:31:28.640415	3.1	61.4	-91.1	9.6
2025-01-04 18:31:30.951617	1.9	60.6	-90.7	10.4
2025-01-04 18:31:33.272691	0.7	59.9	-91.5	12.1
2025-01-04 18:31:35.598413	359.7	59.1	-91.2	10.1
2025-01-04 18:31:37.912002	358.6	58.4	-91.5	11.5
2025-01-04 18:31:40.240157	357.7	57.6	-91.0	12.6
2025-01-04 18:31:42.560706	356.8	56.8	-91.5	7.0
2025-01-04 18:31:44.856930	355.9	56.1	-91.3	9.8
2025-01-04 18:31:47.149218	355.1	55.4	-91.1	12.0
2025-01-04 18:31:49.444963	354.4	54.6	-91.2	10.5
2025-01-04 18:31:51.759584	353.6	53.9	-91.1	8.9
2025-01-04 18:31:54.075709	352.9	53.1	-91.2	11.7
2025-01-04 18:31:56.397965	352.3	52.4	-91.1	9.3
2025-01-04 18:31:58.718305	351.7	51.7	-91.4	12.5
2025-01-04 18:32:01.031360	351.1	51.0	-91.5	14.4
2025-01-04 18:32:03.360085	350.5	50.3	-91.0	8.9
2025-01-04 18:32:05.695139	349.9	49.6	-91.2	4.9
2025-01-04 18:32:08.010424	349.4	48.9	-91.2	8.1
2025-01-04 18:32:10.332599	348.9	48.2	-91.3	17.5
2025-01-04 18:32:12.647246	348.5	47.5	-90.8	11.6
2025-01-04 18:32:14.952983	348.0	46.9	-91.0	11.6
2025-01-04 18:32:17.281501	347.6	46.2	-90.7	15.5
2025-01-04 18:32:19.598190	347.2	45.6	-90.9	18.1
2025-01-04 18:32:21.917029	346.8	44.9	-91.1	17.1
2025-01-04 18:32:24.240328	346.4	44.3	-90.5	21.7
2025-01-04 18:32:26.580463	346.0	43.7	-91.3	12.6
2025-01-04 18:32:28.905930	345.6	43.0	-90.9	21.3
2025-01-04 18:32:31.233864	345.3	42.4	-90.0	16.1
2025-01-04 18:32:33.561789	345.0	41.8	-90.7	9.6
2025-01-04 18:32:35.883082	344.7	41.2	-91.7	18.7
2025-01-04 18:32:38.209065	344.3	40.7	-90.8	15.3
2025-01-04 18:32:40.536959	344.1	40.1	-91.1	13.5
2025-01-04 18:32:42.868187	343.8	39.5	-90.6	16.3
2025-01-04 18:32:45.188464	343.5	39.0	-90.1	20.9
2025-01-04 18:32:47.509949	343.2	38.4	-91.0	15.2
2025-01-04 18:32:49.842047	343.0	37.9	-91.0	16.9
2025-01-04 18:32:52.166622	342.7	37.3	-90.7	11.1
2025-01-04 18:32:54.497425	342.5	36.8	-90.4	9.3
2025-01-04 18:32:56.823133	342.3	36.3	-90.7	11.2
2025-01-04 18:32:59.149340	342.0	35.8	-90.9	8.2
2025-01-04 18:33:01.461655	341.8	35.3	-90.7	18.6
2025-01-04 18:33:03.791090	341.6	34.8	-90.5	14.3
2025-01-04 18:33:06.111110	341.4	34.3	-90.9	8.2
2025-01-04 18:33:08.437979	341.2	33.8	-90.3	6.0
2025-01-04 18:33:10.769755	341.0	33.4	-91.0	11.8
2025-01-04 18:33:13.097891	340.8	32.9	-90.5	11.3
2025-01-04 18:33:15.421921	340.6	32.4	-91.4	12.8
2025-01-04 18:33:17.747132	340.5	32.0	-91.3	9.2
2025-01-04 18:33:20.073126	340.3	31.5	-90.2	9.9
2025-01-04 18:33:22.387835	340.1	31.1	-90.7	13.7
2025-01-04 18:33:24.717084	340.0	30.6	-91.3	8.8
2025-01-04 18:33:27.046496	339.8	30.2	-91.0	11.1
2025-01-04 18:33:29.361328	339.7	29.8	-91.2	8.7
2025-01-04 18:33:31.698360	339.5	29.4	-91.2	11.4
2025-01-04 18:33:34.036269	339.4	29.0	-90.9	12.2
2025-01-04 18:33:36.361871	339.2	28.6	-90.1	13.0
2025-01-04 18:33:38.685149	339.1	28.2	-90.9	8.1
2025-01-04 18:33:41.009642	339.0	27.8	-90.9	5.4
2025-01-04 18:33:43.340069	338.8	27.4	-90.5	5.3
2025-01-04 18:33:45.659547	338.7	27.0	-91.1	6.0
2025-01-04 18:33:47.984304	338.6	26.6	-91.1	11.8
2025-01-04 18:33:50.314602	338.5	26.2	-90.5	20.4
2025-01-04 18:33:52.638464	338.4	25.9	-91.2	9.1
2025-01-04 18:33:54.966789	338.2	25.5	-90.8	6.5
2025-01-04 18:33:57.292576	338.1	25.1	-90.9	16.2
2025-01-04 18:33:59.612400	338.0	24.8	-91.1	6.6
2025-01-04 18:34:01.929899	337.9	24.4	-91.4	8.4
2025-01-04 18:34:04.257963	337.8	24.1	-91.1	9.5
2025-01-04 18:34:06.585706	337.7	23.7	-91.4	12.1
2025-01-04 18:34:08.912298	337.6	23.4	-90.9	5.2
2025-01-04 18:34:11.250343	337.5	23.1	-90.7	7.1
2025-01-04 18:34:13.580662	337.4	22.7	-91.2	7.5
2025-01-04 18:34:15.903871	337.3	22.4	-90.9	15.2
2025-01-04 18:34:18.222198	337.2	22.1	-90.8	16.1
2025-01-04 18:34:20.536023	337.1	21.8	-91.4	14.0
2025-01-04 18:34:22.863410	337.1	21.5	-91.4	5.3
2025-01-04 18:34:25.192974	337.0	21.2	-91.1	5.6
2025-01-04 18:34:27.530347	336.9	20.8	-91.3	8.7
2025-01-04 18:34:29.866655	336.8	20.5	-90.9	6.6
2025-01-04 18:34:32.190077	336.7	20.2	-91.2	5.6
2025-01-04 18:34:34.515311	336.7	19.9	-91.6	8.0
2025-01-04 18:34:36.840059	336.6	19.7	-91.5	5.8
2025-01-04 18:34:39.154956	336.5	19.4	-91.1	6.1
2025-01-04 18:34:41.480178	336.4	19.1	-90.3	8.1
2025-01-04 18:34:43.806228	336.4	18.8	-91.2	8.3
2025-01-04 18:34:46.140294	336.3	18.5	-90.8	4.7
2025-01-04 18:34:48.467232	336.2	18.2	-91.4	7.4
2025-01-04 18:34:50.798538	336.2	18.0	-91.4	5.4
2025-01-04 18:34:53.125914	336.1	17.7	-91.2	2.3
2025-01-04 18:34:55.449580	336.0	17.4	-91.4	5.3
2025-01-04 18:34:57.773196	336.0	17.2	-91.5	5.4
2025-01-04 18:35:00.066928	335.9	16.9	-91.0	5.9
2025-01-04 18:35:02.383269	335.8	16.6	-91.0	6.4
2025-01-04 18:35:04.715028	335.8	16.4	-91.4	10.5
2025-01-04 18:35:07.044858	335.7	16.1	-91.2	3.8
2025-01-04 18:35:09.368955	335.7	15.9	-90.9	4.2
2025-01-04 18:35:11.691781	335.6	15.6	-90.9	3.2
2025-01-04 18:35:14.010487	335.6	15.4	-91.0	6.9
2025-01-04 18:35:16.339504	335.5	15.1	-91.1	5.1
2025-01-04 18:35:18.658568	335.5	14.9	-91.6	8.2
2025-01-04 18:35:20.978807	335.4	14.7	-91.4	5.4
2025-01-04 18:35:23.296165	335.4	14.4	-91.3	5.3
#Closed at: 2025-01-04 18:26:04.463200