passes_logs/2025/01/04/LEX_Murmansk/LEX_Murmansk__20250104_143926_NOAA_19_rec.log

#Pass ID: 20250104_143926_NOAA 19
#Satellite: NOAA 19
#Configuration: NOAA 19
#Start time: 2025-01-04 14:39:21.812687

#LorettStation: 1.0.0 05.05.2024
#Station: LEX_Murmansk
#Location: 33.156738 lon 68.926811 lat
#TLE: 1 33591U 09005A   25003.74725296  .00000502  00000+0  29188-3 0  9994
#TLE: 2 33591  99.0215  67.4219 0014696  87.4906 272.7948 14.13249552819955

#Time	Az	El	Level	SNR
2025-01-04 14:39:34.003029	66.8	16.0	-89.8	7.5
2025-01-04 14:39:35.165504	66.6	16.1	-90.2	4.3
2025-01-04 14:39:36.323039	66.4	16.2	-89.9	5.7
2025-01-04 14:39:37.479554	66.3	16.3	-89.9	6.1
2025-01-04 14:39:38.630875	66.1	16.4	-90.6	4.6
2025-01-04 14:39:39.782099	65.9	16.5	-89.7	3.7
2025-01-04 14:39:40.941123	65.8	16.6	-90.2	3.2
2025-01-04 14:39:42.091566	65.6	16.6	-90.0	4.2
2025-01-04 14:39:43.243172	65.4	16.7	-89.9	3.7
2025-01-04 14:39:44.401172	65.2	16.8	-89.8	3.8
2025-01-04 14:39:45.561958	65.0	16.9	-89.6	6.7
2025-01-04 14:39:46.718255	64.9	17.0	-90.2	9.4
2025-01-04 14:39:47.872421	64.7	17.1	-90.8	13.0
2025-01-04 14:39:49.031441	64.5	17.2	-89.3	10.0
2025-01-04 14:39:50.190723	64.3	17.3	-88.7	4.9
2025-01-04 14:39:51.348220	64.1	17.4	-88.8	4.5
2025-01-04 14:39:52.504693	63.9	17.5	-89.9	9.2
2025-01-04 14:39:53.663934	63.8	17.6	-89.2	6.5
2025-01-04 14:39:54.818615	63.6	17.7	-89.4	9.0
2025-01-04 14:39:55.978651	63.4	17.8	-89.3	8.0
2025-01-04 14:39:57.134737	63.2	17.9	-89.3	7.3
2025-01-04 14:39:58.282421	63.0	18.0	-89.4	5.6
2025-01-04 14:39:59.428374	62.8	18.1	-90.2	4.7
2025-01-04 14:40:00.572941	62.6	18.2	-90.2	2.9
2025-01-04 14:40:01.721277	62.4	18.3	-90.3	2.4
2025-01-04 14:40:02.878136	62.2	18.4	-89.9	5.6
2025-01-04 14:40:04.030793	62.0	18.5	-90.6	4.2
2025-01-04 14:40:05.185953	61.8	18.6	-89.9	8.0
2025-01-04 14:40:06.343295	61.6	18.6	-90.2	10.3
2025-01-04 14:40:07.496069	61.4	18.7	-90.1	7.2
2025-01-04 14:40:08.651355	61.2	18.8	-90.2	7.6
2025-01-04 14:40:09.799733	61.0	18.9	-90.8	7.6
2025-01-04 14:40:10.960103	60.8	19.0	-90.5	8.1
2025-01-04 14:40:12.118865	60.6	19.1	-90.2	5.1
2025-01-04 14:40:13.278802	60.4	19.2	-90.5	4.7
2025-01-04 14:40:14.437272	60.2	19.3	-90.5	11.4
2025-01-04 14:40:15.597446	60.0	19.4	-90.4	12.4
2025-01-04 14:40:16.749379	59.8	19.5	-91.2	11.1
2025-01-04 14:40:17.905373	59.5	19.6	-91.1	8.9
2025-01-04 14:40:19.059024	59.3	19.7	-91.3	7.1
2025-01-04 14:40:20.217879	59.1	19.8	-90.8	2.3
2025-01-04 14:40:21.380225	58.9	19.9	-90.9	2.4
2025-01-04 14:40:22.533394	58.7	20.0	-91.0	2.5
2025-01-04 14:40:23.696175	58.4	20.1	-90.8	3.1
2025-01-04 14:40:24.851113	58.2	20.2	-89.7	2.6
2025-01-04 14:40:26.006745	58.0	20.3	-90.9	5.9
2025-01-04 14:40:27.160081	57.8	20.4	-90.8	8.8
2025-01-04 14:40:28.310741	57.5	20.5	-90.1	11.3
2025-01-04 14:40:29.463196	57.3	20.6	-89.9	11.7
2025-01-04 14:40:30.618255	57.1	20.6	-90.7	10.8
2025-01-04 14:40:31.769888	56.9	20.7	-90.4	6.2
2025-01-04 14:40:32.918582	56.6	20.8	-89.9	6.1
2025-01-04 14:40:34.071546	56.4	20.9	-90.4	7.6
2025-01-04 14:40:35.231164	56.2	21.0	-90.3	6.0
2025-01-04 14:40:36.379966	55.9	21.1	-90.7	5.8
2025-01-04 14:40:37.534510	55.7	21.2	-90.6	9.7
2025-01-04 14:40:38.689829	55.5	21.3	-90.7	9.4
2025-01-04 14:40:39.847988	55.2	21.4	-90.8	14.6
2025-01-04 14:40:41.004347	55.0	21.5	-91.0	9.1
2025-01-04 14:40:42.159344	54.7	21.6	-90.7	7.2
2025-01-04 14:40:43.314641	54.5	21.7	-91.0	3.9
2025-01-04 14:40:44.471614	54.2	21.8	-90.5	4.3
2025-01-04 14:40:45.628609	54.0	21.9	-90.8	4.5
2025-01-04 14:40:46.786874	53.7	21.9	-90.8	3.3
2025-01-04 14:40:47.939852	53.5	22.0	-90.7	4.4
2025-01-04 14:40:49.093845	53.2	22.1	-90.6	7.9
2025-01-04 14:40:50.257713	53.0	22.2	-90.2	7.5
2025-01-04 14:40:51.413863	52.7	22.3	-90.6	8.5
2025-01-04 14:40:52.568703	52.5	22.4	-90.4	9.3
2025-01-04 14:40:53.718393	52.2	22.5	-90.9	10.4
2025-01-04 14:40:54.877335	51.9	22.6	-90.8	7.4
2025-01-04 14:40:56.032143	51.7	22.7	-90.7	9.1
2025-01-04 14:40:57.186424	51.4	22.8	-90.7	6.1
2025-01-04 14:40:58.342631	51.2	22.8	-89.6	3.1
2025-01-04 14:40:59.503473	50.9	22.9	-90.6	6.1
2025-01-04 14:41:00.649637	50.6	23.0	-89.9	5.6
2025-01-04 14:41:01.807143	50.4	23.1	-90.5	8.5
2025-01-04 14:41:02.962079	50.1	23.2	-90.9	11.7
2025-01-04 14:41:04.117298	49.8	23.3	-90.6	11.0
2025-01-04 14:41:05.267006	49.5	23.4	-91.1	8.7
2025-01-04 14:41:06.415190	49.3	23.5	-91.2	6.2
2025-01-04 14:41:07.569482	49.0	23.5	-90.6	8.2
2025-01-04 14:41:08.727149	48.7	23.6	-89.9	3.1
2025-01-04 14:41:09.870319	48.4	23.7	-90.5	5.0
2025-01-04 14:41:11.018675	48.2	23.8	-90.3	4.7
2025-01-04 14:41:12.169708	47.9	23.9	-90.4	4.1
2025-01-04 14:41:13.319150	47.6	24.0	-90.4	3.4
2025-01-04 14:41:14.473261	47.3	24.0	-91.0	5.0
2025-01-04 14:41:15.637552	47.0	24.1	-90.6	5.5
2025-01-04 14:41:16.786913	46.7	24.2	-90.9	6.2
2025-01-04 14:41:17.934684	46.4	24.3	-90.4	6.3
2025-01-04 14:41:19.084967	46.1	24.4	-90.0	8.9
2025-01-04 14:41:20.234221	45.9	24.4	-89.7	7.2
2025-01-04 14:41:21.384159	45.6	24.5	-90.1	6.6
2025-01-04 14:41:22.543479	45.3	24.6	-90.2	7.2
2025-01-04 14:41:23.701136	45.0	24.7	-89.9	6.9
2025-01-04 14:41:24.849993	44.7	24.8	-89.4	4.8
2025-01-04 14:41:26.005124	44.4	24.8	-89.2	6.4
2025-01-04 14:41:27.158279	44.1	24.9	-89.5	3.3
2025-01-04 14:41:28.311455	43.8	25.0	-89.9	5.1
2025-01-04 14:41:29.466197	43.5	25.1	-89.8	7.8
2025-01-04 14:41:30.623003	43.2	25.1	-89.7	5.4
2025-01-04 14:41:31.779257	42.8	25.2	-90.0	6.5
2025-01-04 14:41:32.934652	42.5	25.3	-90.4	6.7
2025-01-04 14:41:34.091073	42.2	25.3	-91.2	8.3
2025-01-04 14:41:35.240382	41.9	25.4	-90.4	4.7
2025-01-04 14:41:36.392861	41.6	25.5	-90.4	5.9
2025-01-04 14:41:37.553733	41.3	25.6	-88.9	3.9
2025-01-04 14:41:38.709116	41.0	25.6	-89.6	4.0
2025-01-04 14:41:39.872468	40.7	25.7	-89.9	2.5
2025-01-04 14:41:41.031504	40.3	25.8	-90.2	3.8
2025-01-04 14:41:42.183839	40.0	25.8	-90.3	3.4
2025-01-04 14:41:43.334904	39.7	25.9	-90.3	3.1
2025-01-04 14:41:44.483035	39.4	26.0	-89.4	4.3
2025-01-04 14:41:45.636545	39.0	26.0	-89.3	7.5
2025-01-04 14:41:46.791924	38.7	26.1	-89.0	6.3
2025-01-04 14:41:47.951069	38.4	26.1	-90.1	9.6
2025-01-04 14:41:49.105609	38.1	26.2	-90.1	8.5
2025-01-04 14:41:50.256839	37.7	26.3	-89.8	7.4
2025-01-04 14:41:51.410891	37.4	26.3	-90.4	10.2
2025-01-04 14:41:52.562439	37.1	26.4	-90.7	10.4
2025-01-04 14:41:53.720052	36.7	26.4	-91.0	5.3
2025-01-04 14:41:54.874521	36.4	26.5	-90.7	6.5
2025-01-04 14:41:56.020685	36.1	26.6	-91.0	8.0
2025-01-04 14:41:57.174726	35.7	26.6	-90.8	3.8
2025-01-04 14:41:58.334712	35.4	26.7	-90.8	1.6
2025-01-04 14:41:59.485104	35.1	26.7	-90.9	4.8
2025-01-04 14:42:00.634978	34.7	26.8	-90.9	4.6
2025-01-04 14:42:01.795536	34.4	26.8	-91.2	5.3
2025-01-04 14:42:02.952574	34.0	26.9	-90.9	7.0
2025-01-04 14:42:04.101277	33.7	26.9	-90.4	6.4
2025-01-04 14:42:05.261239	33.4	27.0	-90.3	6.6
2025-01-04 14:42:06.413942	33.0	27.0	-90.9	8.6
2025-01-04 14:42:07.569518	32.7	27.1	-91.1	8.5
2025-01-04 14:42:08.726852	32.3	27.1	-90.7	4.8
2025-01-04 14:42:09.877451	32.0	27.1	-91.1	8.1
2025-01-04 14:42:11.029436	31.6	27.2	-90.1	5.8
2025-01-04 14:42:12.179775	31.3	27.2	-90.3	6.1
2025-01-04 14:42:13.331291	30.9	27.3	-90.1	4.8
2025-01-04 14:42:14.481463	30.6	27.3	-90.7	7.5
2025-01-04 14:42:15.638508	30.2	27.3	-90.8	5.9
2025-01-04 14:42:16.792345	29.9	27.4	-91.3	4.0
2025-01-04 14:42:17.941300	29.5	27.4	-90.5	4.1
2025-01-04 14:42:19.104051	29.2	27.4	-89.9	3.4
2025-01-04 14:42:20.255019	28.8	27.5	-90.5	2.2
2025-01-04 14:42:21.414548	28.4	27.5	-90.7	1.7
2025-01-04 14:42:22.567110	28.1	27.5	-90.5	3.1
2025-01-04 14:42:23.724643	27.7	27.6	-90.8	1.5
2025-01-04 14:42:24.886062	27.4	27.6	-90.0	3.4
2025-01-04 14:42:26.048779	27.0	27.6	-90.6	4.6
2025-01-04 14:42:27.202255	26.6	27.6	-90.2	3.5
2025-01-04 14:42:28.363171	26.3	27.7	-90.3	2.1
2025-01-04 14:42:29.509900	25.9	27.7	-91.2	4.8
2025-01-04 14:42:30.664134	25.6	27.7	-90.3	6.2
2025-01-04 14:42:31.813267	25.2	27.7	-90.6	8.8
2025-01-04 14:42:32.965511	24.8	27.8	-90.8	7.0
2025-01-04 14:42:34.120719	24.5	27.8	-90.4	10.1
2025-01-04 14:42:35.277332	24.1	27.8	-90.5	7.7
2025-01-04 14:42:36.431856	23.8	27.8	-90.6	9.7
2025-01-04 14:42:37.594651	23.4	27.8	-90.5	6.5
2025-01-04 14:42:38.748246	23.0	27.8	-90.7	7.4
2025-01-04 14:42:39.899594	22.7	27.8	-90.8	7.7
2025-01-04 14:42:41.052340	22.3	27.9	-90.4	9.9
2025-01-04 14:42:42.206514	21.9	27.9	-89.9	7.3
2025-01-04 14:42:43.362678	21.6	27.9	-90.2	4.8
2025-01-04 14:42:44.522797	21.2	27.9	-90.9	5.8
2025-01-04 14:42:45.680178	20.8	27.9	-91.0	3.4
2025-01-04 14:42:46.838982	20.5	27.9	-91.1	2.7
2025-01-04 14:42:47.991598	20.1	27.9	-91.5	3.8
2025-01-04 14:42:49.146036	19.7	27.9	-90.7	3.7
2025-01-04 14:42:50.298925	19.4	27.9	-90.9	2.1
2025-01-04 14:42:51.447020	19.0	27.9	-90.2	3.8
2025-01-04 14:42:52.609074	18.7	27.9	-91.0	5.1
2025-01-04 14:42:53.750927	18.3	27.9	-90.9	3.6
2025-01-04 14:42:54.904249	17.9	27.9	-91.3	6.4
2025-01-04 14:42:56.055550	17.6	27.9	-91.0	5.3
2025-01-04 14:42:57.219105	17.2	27.9	-90.5	4.8
2025-01-04 14:42:58.378074	16.8	27.8	-91.3	3.9
2025-01-04 14:42:59.543384	16.5	27.8	-91.0	5.5
2025-01-04 14:43:00.678017	16.1	27.8	-91.1	4.6
2025-01-04 14:43:01.832897	15.7	27.8	-90.9	2.9
2025-01-04 14:43:02.983245	15.4	27.8	-90.9	5.7
2025-01-04 14:43:04.142174	15.0	27.8	-91.1	3.7
2025-01-04 14:43:05.311343	14.6	27.8	-90.8	3.1
2025-01-04 14:43:06.476280	14.3	27.7	-91.2	7.8
2025-01-04 14:43:07.635410	13.9	27.7	-90.7	3.3
2025-01-04 14:43:08.792650	13.6	27.7	-90.6	8.2
2025-01-04 14:43:09.947266	13.2	27.7	-90.4	7.1
2025-01-04 14:43:11.111725	12.8	27.7	-90.7	7.1
2025-01-04 14:43:12.264791	12.5	27.6	-90.6	5.7
2025-01-04 14:43:13.416163	12.1	27.6	-90.6	6.5
2025-01-04 14:43:14.577341	11.8	27.6	-90.7	5.1
2025-01-04 14:43:15.734211	11.4	27.6	-90.8	6.6
2025-01-04 14:43:16.888647	11.0	27.5	-90.7	6.6
2025-01-04 14:43:18.049121	10.7	27.5	-90.8	5.7
2025-01-04 14:43:19.208459	10.3	27.5	-90.8	8.6
2025-01-04 14:43:20.355791	10.0	27.4	-90.7	8.8
2025-01-04 14:43:21.503621	9.6	27.4	-90.8	9.7
2025-01-04 14:43:22.660082	9.3	27.4	-90.7	9.0
2025-01-04 14:43:23.817437	8.9	27.3	-90.1	9.5
2025-01-04 14:43:24.972201	8.6	27.3	-90.0	8.3
2025-01-04 14:43:26.121594	8.2	27.3	-89.6	6.2
2025-01-04 14:43:27.278072	7.9	27.2	-89.9	4.8
2025-01-04 14:43:28.445178	7.5	27.2	-89.9	4.0
2025-01-04 14:43:29.605332	7.2	27.1	-89.8	4.3
2025-01-04 14:43:30.755503	6.8	27.1	-90.7	4.8
2025-01-04 14:43:31.907188	6.5	27.0	-91.0	7.6
2025-01-04 14:43:33.058535	6.1	27.0	-90.6	6.0
2025-01-04 14:43:34.217593	5.8	26.9	-90.3	6.7
2025-01-04 14:43:35.376336	5.4	26.9	-90.3	8.1
2025-01-04 14:43:36.537975	5.1	26.9	-90.7	8.4
2025-01-04 14:43:37.683827	4.7	26.8	-90.9	7.8
2025-01-04 14:43:38.836104	4.4	26.8	-90.8	6.3
2025-01-04 14:43:39.982029	4.1	26.7	-91.0	5.0
2025-01-04 14:43:41.131284	3.7	26.6	-90.6	5.7
2025-01-04 14:43:42.291163	3.4	26.6	-90.0	7.1
2025-01-04 14:43:43.440008	3.1	26.5	-91.0	6.9
2025-01-04 14:43:44.602033	2.7	26.5	-90.9	9.3
2025-01-04 14:43:45.760941	2.4	26.4	-90.6	6.1
2025-01-04 14:43:46.920501	2.1	26.4	-91.1	6.7
2025-01-04 14:43:48.076049	1.7	26.3	-90.5	7.5
2025-01-04 14:43:49.235548	1.4	26.2	-91.0	8.8
2025-01-04 14:43:50.383568	1.1	26.2	-91.2	8.6
2025-01-04 14:43:51.545237	0.7	26.1	-90.7	11.8
2025-01-04 14:43:52.694967	0.4	26.1	-91.1	11.8
2025-01-04 14:43:53.867898	0.1	26.0	-91.3	10.2
2025-01-04 14:43:55.017729	359.8	25.9	-90.7	11.6
2025-01-04 14:43:56.173549	359.4	25.9	-90.6	8.0
2025-01-04 14:43:57.323860	359.1	25.8	-90.8	10.1
2025-01-04 14:43:58.481989	358.8	25.7	-90.9	8.2
2025-01-04 14:43:59.634135	358.5	25.7	-90.8	7.2
2025-01-04 14:44:00.780526	358.2	25.6	-90.6	8.0
2025-01-04 14:44:01.930049	357.9	25.5	-90.5	8.7
2025-01-04 14:44:03.081471	357.5	25.5	-90.4	11.0
2025-01-04 14:44:04.237748	357.2	25.4	-90.5	8.9
2025-01-04 14:44:05.400790	356.9	25.3	-90.7	11.9
2025-01-04 14:44:06.557608	356.6	25.3	-90.7	10.8
2025-01-04 14:44:07.713159	356.3	25.2	-90.9	13.4
2025-01-04 14:44:08.867517	356.0	25.1	-90.9	11.2
2025-01-04 14:44:10.020116	355.7	25.0	-91.2	12.4
2025-01-04 14:44:11.179219	355.4	25.0	-91.1	11.5
2025-01-04 14:44:12.333296	355.1	24.9	-90.6	13.8
2025-01-04 14:44:13.479450	354.8	24.8	-91.0	12.2
2025-01-04 14:44:14.626190	354.5	24.7	-91.1	9.5
2025-01-04 14:44:15.775558	354.2	24.7	-91.4	12.0
2025-01-04 14:44:16.925730	353.9	24.6	-91.4	10.4
2025-01-04 14:44:18.080188	353.6	24.5	-91.0	11.5
2025-01-04 14:44:19.230988	353.3	24.4	-90.4	11.3
2025-01-04 14:44:20.385488	353.0	24.3	-89.9	11.8
2025-01-04 14:44:21.540837	352.7	24.3	-90.7	8.9
2025-01-04 14:44:22.698705	352.4	24.2	-90.7	7.9
2025-01-04 14:44:23.859454	352.1	24.1	-91.0	4.2
2025-01-04 14:44:25.007826	351.9	24.0	-91.2	7.5
2025-01-04 14:44:26.168469	351.6	23.9	-91.0	5.4
2025-01-04 14:44:27.324766	351.3	23.9	-90.9	3.1
2025-01-04 14:44:28.483655	351.0	23.8	-91.0	3.5
2025-01-04 14:44:29.631804	350.7	23.7	-90.2	5.8
2025-01-04 14:44:30.784739	350.4	23.6	-91.1	3.1
2025-01-04 14:44:31.939215	350.2	23.5	-90.8	4.3
2025-01-04 14:44:33.093311	349.9	23.4	-91.1	6.2
2025-01-04 14:44:34.243658	349.6	23.3	-90.9	2.7
2025-01-04 14:44:35.402208	349.3	23.3	-91.2	5.2
2025-01-04 14:44:36.557089	349.1	23.2	-91.4	7.2
2025-01-04 14:44:37.716048	348.8	23.1	-91.0	2.9
2025-01-04 14:44:38.867660	348.5	23.0	-91.2	2.6
2025-01-04 14:44:40.015544	348.3	22.9	-89.9	7.2
2025-01-04 14:44:41.168950	348.0	22.8	-90.9	4.7
2025-01-04 14:44:42.328921	347.7	22.7	-90.2	1.5
2025-01-04 14:44:43.484349	347.5	22.6	-90.9	3.9
2025-01-04 14:44:44.633405	347.2	22.6	-91.0	1.5
2025-01-04 14:44:45.787776	347.0	22.5	-90.7	4.7
2025-01-04 14:44:46.938455	346.7	22.4	-89.0	4.6
2025-01-04 14:44:48.089313	346.4	22.3	-91.0	5.3
2025-01-04 14:44:49.245012	346.2	22.2	-91.0	7.2
2025-01-04 14:44:50.407536	345.9	22.1	-91.2	5.4
2025-01-04 14:44:51.560558	345.7	22.0	-91.2	3.5
2025-01-04 14:44:52.718174	345.4	21.9	-91.2	4.8
2025-01-04 14:44:53.867910	345.2	21.8	-91.4	7.0
2025-01-04 14:44:55.025467	344.9	21.7	-91.2	7.0
2025-01-04 14:44:56.180209	344.7	21.6	-90.4	9.4
2025-01-04 14:44:57.337100	344.5	21.6	-90.7	8.8
2025-01-04 14:44:58.491622	344.2	21.5	-91.1	10.9
2025-01-04 14:44:59.646924	344.0	21.4	-90.9	8.9
2025-01-04 14:45:00.787858	343.7	21.3	-90.8	3.4
2025-01-04 14:45:01.944575	343.5	21.2	-90.7	6.5
2025-01-04 14:45:03.095499	343.3	21.1	-90.9	5.3
2025-01-04 14:45:04.250839	343.0	21.0	-90.0	1.9
2025-01-04 14:45:05.397654	342.8	20.9	-91.0	1.9
2025-01-04 14:45:06.544395	342.6	20.8	-90.6	1.4
2025-01-04 14:45:07.698939	342.3	20.7	-89.5	3.8
2025-01-04 14:45:08.853656	342.1	20.6	-90.4	1.2
2025-01-04 14:45:10.004660	341.9	20.5	-90.4	3.1
2025-01-04 14:45:11.161675	341.6	20.4	-90.7	2.5
2025-01-04 14:45:12.305668	341.4	20.3	-90.9	1.9
2025-01-04 14:45:13.458444	341.2	20.2	-89.6	2.5
2025-01-04 14:45:14.611473	341.0	20.2	-89.8	1.5
2025-01-04 14:45:15.765894	340.7	20.1	-89.7	1.8
2025-01-04 14:45:16.919130	340.5	20.0	-89.8	4.4
2025-01-04 14:45:18.077540	340.3	19.9	-89.5	2.6
2025-01-04 14:45:19.232657	340.1	19.8	-89.6	1.4
2025-01-04 14:45:20.375427	339.9	19.7	-90.5	1.3
2025-01-04 14:45:21.532920	339.7	19.6	-90.8	2.1
2025-01-04 14:45:22.694672	339.4	19.5	-90.8	1.5
2025-01-04 14:45:23.851282	339.2	19.4	-90.7	0.1
2025-01-04 14:45:25.013086	339.0	19.3	-90.6	2.3
2025-01-04 14:45:26.163838	338.8	19.2	-90.2	0.5
2025-01-04 14:45:27.319007	338.6	19.1	-90.4	2.7
2025-01-04 14:45:28.476046	338.4	19.0	-91.0	1.1
2025-01-04 14:45:29.632302	338.2	18.9	-90.8	3.4
2025-01-04 14:45:30.793684	338.0	18.8	-90.8	3.4
2025-01-04 14:45:31.956986	337.8	18.7	-90.9	2.3
2025-01-04 14:45:33.108920	337.6	18.6	-91.0	2.6
2025-01-04 14:45:34.270196	337.4	18.5	-90.8	3.1
2025-01-04 14:45:35.425196	337.2	18.4	-90.1	1.5
2025-01-04 14:45:36.584129	337.0	18.3	-91.0	2.3
2025-01-04 14:45:37.735200	336.8	18.2	-90.9	2.4
2025-01-04 14:45:38.889811	336.6	18.2	-91.3	1.8
2025-01-04 14:45:40.049076	336.4	18.1	-91.0	1.7
2025-01-04 14:45:41.202442	336.2	18.0	-90.3	2.0
2025-01-04 14:45:42.350576	336.0	17.9	-90.0	3.8
2025-01-04 14:45:43.503662	335.8	17.8	-90.5	2.7
2025-01-04 14:45:44.649922	335.6	17.7	-90.7	1.8
2025-01-04 14:45:45.809317	335.5	17.6	-89.8	1.9
2025-01-04 14:45:46.964065	335.3	17.5	-90.8	2.8
2025-01-04 14:45:48.125091	335.1	17.4	-90.6	1.6
2025-01-04 14:45:49.288113	334.9	17.3	-91.1	0.5
2025-01-04 14:45:50.442302	334.7	17.2	-91.3	1.5
2025-01-04 14:45:51.596135	334.5	17.1	-90.5	3.1
2025-01-04 14:45:52.761619	334.3	17.0	-91.0	2.5
2025-01-04 14:45:53.917965	334.2	16.9	-90.8	1.6
2025-01-04 14:45:55.088566	334.0	16.8	-90.1	1.0
2025-01-04 14:45:56.235870	333.8	16.7	-91.1	2.9
2025-01-04 14:45:57.389157	333.6	16.6	-90.4	2.1
2025-01-04 14:45:58.540763	333.5	16.5	-90.7	3.6
2025-01-04 14:45:59.693050	333.3	16.4	-90.9	2.3
2025-01-04 14:46:00.833126	333.1	16.3	-90.9	1.6
2025-01-04 14:46:01.986460	332.9	16.3	-91.0	2.9
2025-01-04 14:46:03.139504	332.8	16.2	-90.5	2.4
2025-01-04 14:46:04.297674	332.6	16.1	-90.7	0.4
2025-01-04 14:46:05.453077	332.4	16.0	-90.8	2.3
2025-01-04 14:46:06.605456	332.3	15.9	-90.8	0.8
2025-01-04 14:46:07.756010	332.1	15.8	-91.1	3.9
2025-01-04 14:46:08.906103	331.9	15.7	-90.9	0.3
2025-01-04 14:46:10.068730	331.8	15.6	-90.7	2.3
2025-01-04 14:46:11.323939	331.6	15.5	-90.5	1.8
2025-01-04 14:46:12.481959	331.4	15.4	-90.3	1.6
2025-01-04 14:46:13.634846	331.3	15.3	-90.3	2.9
2025-01-04 14:46:14.788737	331.1	15.2	-90.9	1.2
2025-01-04 14:46:15.941031	331.0	15.1	-91.0	2.4
2025-01-04 14:46:17.098565	330.8	15.0	-90.1	4.1
2025-01-04 14:46:18.270326	330.6	14.9	-90.2	0.9
2025-01-04 14:46:19.421900	330.5	14.8	-90.9	2.0
2025-01-04 14:46:20.575524	330.3	14.8	-90.7	1.9
2025-01-04 14:46:21.733695	330.2	14.7	-90.5	3.0
#Closed at: 2025-01-04 14:39:26.825045