passes_logs/2025/01/04/LEX_Murmansk/LEX_Murmansk__20250104_082616_NOAA_18_rec.log

#Pass ID: 20250104_082616_NOAA 18
#Satellite: NOAA 18
#Configuration: NOAA 18
#Start time: 2025-01-04 08:26:11.223562

#LorettStation: 1.0.0 05.05.2024
#Station: LEX_Murmansk
#Location: 33.156738 lon 68.926811 lat
#TLE: 1 28654U 05018A   25003.76610367  .00000568  00000+0  32493-3 0  9997
#TLE: 2 28654  98.8583  84.9311 0013827 211.1121 148.9234 14.13475198 11594

#Time	Az	El	Level	SNR
2025-01-04 08:26:23.487254	34.2	16.1	-92.6	7.8
2025-01-04 08:26:24.649793	34.3	16.2	-93.1	7.3
2025-01-04 08:26:25.807943	34.4	16.3	-92.7	5.0
2025-01-04 08:26:26.974530	34.6	16.4	-93.1	5.4
2025-01-04 08:26:28.135066	34.7	16.5	-92.5	6.4
2025-01-04 08:26:29.297205	34.8	16.6	-92.0	10.0
2025-01-04 08:26:30.463245	35.0	16.8	-92.0	6.3
2025-01-04 08:26:31.632579	35.1	16.9	-92.9	6.2
2025-01-04 08:26:32.789774	35.3	17.0	-92.0	6.7
2025-01-04 08:26:33.950245	35.4	17.1	-89.8	9.0
2025-01-04 08:26:35.114529	35.6	17.2	-91.6	7.4
2025-01-04 08:26:36.273924	35.7	17.3	-92.3	5.3
2025-01-04 08:26:37.429935	35.9	17.4	-90.7	6.4
2025-01-04 08:26:38.605173	36.0	17.5	-90.2	6.2
2025-01-04 08:26:39.767597	36.1	17.6	-91.1	6.4
2025-01-04 08:26:40.923348	36.3	17.7	-92.3	8.0
2025-01-04 08:26:42.089675	36.4	17.9	-91.6	9.0
2025-01-04 08:26:43.253703	36.6	18.0	-89.4	8.7
2025-01-04 08:26:44.418829	36.8	18.1	-91.7	7.8
2025-01-04 08:26:45.574359	36.9	18.2	-91.6	10.1
2025-01-04 08:26:46.740535	37.1	18.3	-91.8	11.3
2025-01-04 08:26:47.903326	37.2	18.4	-92.3	9.0
2025-01-04 08:26:49.058867	37.4	18.5	-91.9	9.6
2025-01-04 08:26:50.221224	37.5	18.6	-92.3	9.3
2025-01-04 08:26:51.377627	37.7	18.8	-92.2	9.2
2025-01-04 08:26:52.540233	37.8	18.9	-92.4	6.2
2025-01-04 08:26:53.698382	38.0	19.0	-92.4	9.6
2025-01-04 08:26:54.858749	38.2	19.1	-92.2	12.5
2025-01-04 08:26:56.024159	38.3	19.2	-92.5	7.4
2025-01-04 08:26:57.185769	38.5	19.3	-91.2	9.1
2025-01-04 08:26:58.347188	38.7	19.4	-92.5	11.7
2025-01-04 08:26:59.511277	38.8	19.6	-91.0	14.9
2025-01-04 08:27:00.659484	39.0	19.7	-91.7	14.4
2025-01-04 08:27:01.826746	39.2	19.8	-90.7	12.6
2025-01-04 08:27:02.990818	39.3	19.9	-91.9	12.7
2025-01-04 08:27:04.148271	39.5	20.0	-90.8	14.8
2025-01-04 08:27:05.304098	39.7	20.1	-92.6	12.7
2025-01-04 08:27:06.467009	39.9	20.3	-92.5	17.3
2025-01-04 08:27:07.637827	40.0	20.4	-92.6	10.3
2025-01-04 08:27:08.795181	40.2	20.5	-92.5	16.4
2025-01-04 08:27:09.960937	40.4	20.6	-92.5	14.8
2025-01-04 08:27:11.122544	40.6	20.7	-92.7	9.4
2025-01-04 08:27:12.289397	40.8	20.9	-92.6	12.0
2025-01-04 08:27:13.447955	40.9	21.0	-92.7	12.7
2025-01-04 08:27:14.610064	41.1	21.1	-92.9	9.4
2025-01-04 08:27:15.766582	41.3	21.2	-92.5	12.8
2025-01-04 08:27:16.927731	41.5	21.3	-93.2	11.7
2025-01-04 08:27:18.085252	41.7	21.5	-92.8	14.3
2025-01-04 08:27:19.241809	41.9	21.6	-92.3	16.3
2025-01-04 08:27:20.402047	42.1	21.7	-92.6	14.3
2025-01-04 08:27:21.562887	42.3	21.8	-93.1	13.4
2025-01-04 08:27:22.725525	42.5	21.9	-93.2	12.2
2025-01-04 08:27:23.887952	42.6	22.1	-93.0	12.2
2025-01-04 08:27:25.048812	42.8	22.2	-92.9	14.2
2025-01-04 08:27:26.210270	43.0	22.3	-92.9	16.5
2025-01-04 08:27:27.374629	43.2	22.4	-93.1	11.4
2025-01-04 08:27:28.535688	43.4	22.5	-92.8	7.0
2025-01-04 08:27:29.694966	43.6	22.7	-93.0	15.2
2025-01-04 08:27:30.857507	43.9	22.8	-93.1	14.4
2025-01-04 08:27:32.025518	44.1	22.9	-92.9	9.8
2025-01-04 08:27:33.184017	44.3	23.0	-92.4	15.4
2025-01-04 08:27:34.343467	44.5	23.2	-92.4	13.2
2025-01-04 08:27:35.500381	44.7	23.3	-92.9	18.0
2025-01-04 08:27:36.664740	44.9	23.4	-92.9	17.2
2025-01-04 08:27:37.824324	45.1	23.5	-93.2	20.1
2025-01-04 08:27:38.982687	45.3	23.7	-92.9	14.9
2025-01-04 08:27:40.143248	45.5	23.8	-92.3	12.0
2025-01-04 08:27:41.301864	45.8	23.9	-89.4	13.9
2025-01-04 08:27:42.465647	46.0	24.0	-93.4	14.3
2025-01-04 08:27:43.622474	46.2	24.2	-92.8	10.5
2025-01-04 08:27:44.783279	46.4	24.3	-92.9	12.0
2025-01-04 08:27:45.947691	46.7	24.4	-93.0	13.8
2025-01-04 08:27:47.110566	46.9	24.5	-92.9	11.5
2025-01-04 08:27:48.274363	47.1	24.7	-93.1	15.4
2025-01-04 08:27:49.436361	47.4	24.8	-93.1	13.2
2025-01-04 08:27:50.600295	47.6	24.9	-93.1	7.9
2025-01-04 08:27:51.741792	47.8	25.0	-93.1	12.5
2025-01-04 08:27:52.905049	48.1	25.2	-93.1	11.0
2025-01-04 08:27:54.063587	48.3	25.3	-89.0	6.6
2025-01-04 08:27:55.217669	48.5	25.4	-92.7	12.2
2025-01-04 08:27:56.381231	48.8	25.5	-93.2	13.4
2025-01-04 08:27:57.542965	49.0	25.7	-93.2	11.7
2025-01-04 08:27:58.710899	49.3	25.8	-93.4	9.8
2025-01-04 08:27:59.867489	49.5	25.9	-93.3	12.6
2025-01-04 08:28:01.012744	49.8	26.1	-93.3	13.8
2025-01-04 08:28:02.175648	50.0	26.2	-92.8	12.5
2025-01-04 08:28:03.334834	50.3	26.3	-92.9	11.2
2025-01-04 08:28:04.500922	50.5	26.4	-93.0	9.4
2025-01-04 08:28:05.669876	50.8	26.6	-93.1	8.1
2025-01-04 08:28:06.830678	51.0	26.7	-92.9	9.8
2025-01-04 08:28:07.997589	51.3	26.8	-93.1	8.3
2025-01-04 08:28:09.161219	51.6	26.9	-92.7	10.5
2025-01-04 08:28:10.321163	51.8	27.1	-90.0	7.3
2025-01-04 08:28:11.485102	52.1	27.2	-89.9	6.6
2025-01-04 08:28:12.649328	52.4	27.3	-92.6	7.7
2025-01-04 08:28:13.813711	52.7	27.4	-93.1	11.6
2025-01-04 08:28:14.974902	52.9	27.6	-93.1	5.8
2025-01-04 08:28:16.139409	53.2	27.7	-92.8	4.3
2025-01-04 08:28:17.303444	53.5	27.8	-92.8	5.3
2025-01-04 08:28:18.463172	53.8	28.0	-92.9	8.0
2025-01-04 08:28:19.629089	54.0	28.1	-93.0	6.0
2025-01-04 08:28:20.793122	54.3	28.2	-93.0	8.9
2025-01-04 08:28:21.958097	54.6	28.3	-93.1	5.7
2025-01-04 08:28:23.122141	54.9	28.5	-92.9	8.4
2025-01-04 08:28:24.283847	55.2	28.6	-93.0	7.5
2025-01-04 08:28:25.448073	55.5	28.7	-93.4	6.9
2025-01-04 08:28:26.610590	55.8	28.8	-93.1	5.2
2025-01-04 08:28:27.772080	56.1	29.0	-93.2	9.1
2025-01-04 08:28:28.937996	56.4	29.1	-92.9	7.4
2025-01-04 08:28:30.102867	56.7	29.2	-92.7	8.3
2025-01-04 08:28:31.272238	57.0	29.3	-93.3	11.7
2025-01-04 08:28:32.438884	57.3	29.5	-93.5	11.9
2025-01-04 08:28:33.602498	57.6	29.6	-93.4	11.6
2025-01-04 08:28:34.771169	57.9	29.7	-93.2	13.1
2025-01-04 08:28:35.928441	58.3	29.8	-93.0	13.4
2025-01-04 08:28:37.095121	58.6	29.9	-91.2	9.5
2025-01-04 08:28:38.256419	58.9	30.1	-92.7	15.3
2025-01-04 08:28:39.421083	59.2	30.2	-92.8	10.3
2025-01-04 08:28:40.587715	59.6	30.3	-93.1	8.7
2025-01-04 08:28:41.742621	59.9	30.4	-93.6	14.0
2025-01-04 08:28:42.904847	60.2	30.5	-93.3	12.7
2025-01-04 08:28:44.066262	60.5	30.7	-93.1	10.1
2025-01-04 08:28:45.229313	60.9	30.8	-92.8	13.2
2025-01-04 08:28:46.388649	61.2	30.9	-93.1	16.0
2025-01-04 08:28:47.554454	61.5	31.0	-92.9	16.4
2025-01-04 08:28:48.716730	61.9	31.1	-93.2	12.8
2025-01-04 08:28:49.882067	62.2	31.2	-92.8	12.7
2025-01-04 08:28:51.045271	62.6	31.4	-92.8	16.0
2025-01-04 08:28:52.212546	62.9	31.5	-92.6	14.6
2025-01-04 08:28:53.364770	63.3	31.6	-92.3	15.3
2025-01-04 08:28:54.532203	63.6	31.7	-92.7	11.4
2025-01-04 08:28:55.691930	64.0	31.8	-92.7	13.9
2025-01-04 08:28:56.855562	64.3	31.9	-92.9	17.1
2025-01-04 08:28:58.017951	64.7	32.0	-93.0	19.0
2025-01-04 08:28:59.182946	65.1	32.1	-92.4	19.1
2025-01-04 08:29:00.338846	65.4	32.3	-92.8	17.1
2025-01-04 08:29:01.496632	65.8	32.4	-93.1	16.0
2025-01-04 08:29:02.662974	66.2	32.5	-93.0	13.8
2025-01-04 08:29:03.822293	66.5	32.6	-92.1	15.1
2025-01-04 08:29:04.984062	66.9	32.7	-93.1	12.5
2025-01-04 08:29:06.144893	67.3	32.8	-92.1	9.1
2025-01-04 08:29:07.305231	67.7	32.9	-92.5	15.8
2025-01-04 08:29:08.465350	68.1	33.0	-92.9	11.6
2025-01-04 08:29:09.628566	68.4	33.1	-93.0	8.8
2025-01-04 08:29:10.792841	68.8	33.2	-92.7	19.7
2025-01-04 08:29:11.958167	69.2	33.3	-92.9	15.3
2025-01-04 08:29:13.127727	69.6	33.4	-92.6	15.4
2025-01-04 08:29:14.287558	70.0	33.5	-92.3	19.7
2025-01-04 08:29:15.449650	70.4	33.6	-93.0	19.2
2025-01-04 08:29:16.609566	70.8	33.7	-93.0	21.3
2025-01-04 08:29:17.772380	71.2	33.8	-92.7	21.9
2025-01-04 08:29:18.930352	71.6	33.9	-92.0	17.2
2025-01-04 08:29:20.094929	72.0	33.9	-92.4	18.4
2025-01-04 08:29:21.261977	72.4	34.0	-92.4	18.5
2025-01-04 08:29:22.427900	72.8	34.1	-92.6	13.1
2025-01-04 08:29:23.593221	73.3	34.2	-93.1	12.7
2025-01-04 08:29:24.752919	73.7	34.3	-92.7	17.5
2025-01-04 08:29:25.903351	74.1	34.4	-92.4	17.3
2025-01-04 08:29:27.065650	74.5	34.5	-92.3	12.8
2025-01-04 08:29:28.243062	74.9	34.5	-92.5	23.3
2025-01-04 08:29:29.411974	75.3	34.6	-92.8	16.4
2025-01-04 08:29:30.566736	75.8	34.7	-92.5	23.6
2025-01-04 08:29:31.731483	76.2	34.8	-92.5	20.0
2025-01-04 08:29:32.906747	76.6	34.8	-93.2	18.1
2025-01-04 08:29:34.069831	77.1	34.9	-92.6	13.2
2025-01-04 08:29:35.235318	77.5	35.0	-92.6	18.3
2025-01-04 08:29:36.394777	77.9	35.1	-93.1	9.2
2025-01-04 08:29:37.567171	78.4	35.1	-92.9	14.4
2025-01-04 08:29:38.734539	78.8	35.2	-92.8	17.4
2025-01-04 08:29:39.900782	79.2	35.3	-93.1	12.8
2025-01-04 08:29:41.059802	79.7	35.3	-92.6	9.9
2025-01-04 08:29:42.221006	80.1	35.4	-92.7	13.7
2025-01-04 08:29:43.388519	80.6	35.4	-92.7	15.9
2025-01-04 08:29:44.557446	81.0	35.5	-92.6	11.6
2025-01-04 08:29:45.715585	81.5	35.6	-92.9	21.2
2025-01-04 08:29:46.875708	81.9	35.6	-92.9	18.9
2025-01-04 08:29:48.033721	82.4	35.7	-90.2	9.3
2025-01-04 08:29:49.191395	82.8	35.7	-92.5	15.1
2025-01-04 08:29:50.352349	83.3	35.8	-92.4	16.5
2025-01-04 08:29:51.512502	83.7	35.8	-92.5	12.5
2025-01-04 08:29:52.674362	84.2	35.9	-92.8	14.6
2025-01-04 08:29:53.834299	84.6	35.9	-92.8	13.3
2025-01-04 08:29:54.993435	85.1	35.9	-92.8	16.6
2025-01-04 08:29:56.148446	85.6	36.0	-92.4	13.8
2025-01-04 08:29:57.315665	86.0	36.0	-92.3	16.6
2025-01-04 08:29:58.482170	86.5	36.0	-93.0	20.0
2025-01-04 08:29:59.645771	86.9	36.1	-93.2	18.6
2025-01-04 08:30:00.799755	87.4	36.1	-92.7	14.6
2025-01-04 08:30:01.967432	87.9	36.1	-93.2	18.3
2025-01-04 08:30:03.129430	88.3	36.2	-93.0	15.6
2025-01-04 08:30:04.295366	88.8	36.2	-92.8	20.1
2025-01-04 08:30:05.457987	89.3	36.2	-93.1	16.5
2025-01-04 08:30:06.617348	89.7	36.2	-93.1	13.9
2025-01-04 08:30:07.779756	90.2	36.2	-93.0	21.5
2025-01-04 08:30:08.938659	90.7	36.3	-93.0	15.1
2025-01-04 08:30:10.101789	91.1	36.3	-92.5	13.7
2025-01-04 08:30:11.261883	91.6	36.3	-92.2	19.6
2025-01-04 08:30:12.425133	92.1	36.3	-93.0	17.0
2025-01-04 08:30:13.588582	92.6	36.3	-93.1	13.9
2025-01-04 08:30:14.758005	93.0	36.3	-90.6	14.3
2025-01-04 08:30:15.913395	93.5	36.3	-93.2	18.3
2025-01-04 08:30:17.075384	94.0	36.3	-92.7	12.3
2025-01-04 08:30:18.239071	94.4	36.3	-92.8	16.7
2025-01-04 08:30:19.399749	94.9	36.3	-93.3	17.5
2025-01-04 08:30:20.566703	95.4	36.3	-93.1	11.1
2025-01-04 08:30:21.728770	95.8	36.3	-93.3	17.1
2025-01-04 08:30:22.893287	96.3	36.3	-93.1	18.8
2025-01-04 08:30:24.059291	96.8	36.3	-92.6	17.1
2025-01-04 08:30:25.226843	97.3	36.3	-92.8	17.1
2025-01-04 08:30:26.390149	97.7	36.2	-93.1	17.1
2025-01-04 08:30:27.550168	98.2	36.2	-93.1	13.7
2025-01-04 08:30:28.715652	98.7	36.2	-93.1	10.3
2025-01-04 08:30:29.873307	99.1	36.2	-93.1	18.5
2025-01-04 08:30:31.031078	99.6	36.2	-93.4	7.1
2025-01-04 08:30:32.191606	100.1	36.1	-93.0	18.1
2025-01-04 08:30:33.350973	100.5	36.1	-91.8	14.0
2025-01-04 08:30:34.512334	101.0	36.1	-93.3	18.2
2025-01-04 08:30:35.687490	101.5	36.0	-92.2	21.2
2025-01-04 08:30:36.843815	101.9	36.0	-92.0	18.4
2025-01-04 08:30:38.005932	102.4	36.0	-92.9	14.9
2025-01-04 08:30:39.167304	102.8	35.9	-92.5	17.8
2025-01-04 08:30:40.329401	103.3	35.9	-92.8	19.0
2025-01-04 08:30:41.491569	103.8	35.9	-93.1	19.0
2025-01-04 08:30:42.644542	104.2	35.8	-92.0	14.8
2025-01-04 08:30:43.810582	104.7	35.8	-92.9	21.0
2025-01-04 08:30:44.975360	105.1	35.7	-93.1	15.4
2025-01-04 08:30:46.132461	105.6	35.7	-92.8	14.9
2025-01-04 08:30:47.291629	106.0	35.6	-89.4	21.0
2025-01-04 08:30:48.455716	106.5	35.6	-93.1	14.3
2025-01-04 08:30:49.619370	106.9	35.5	-93.4	19.2
2025-01-04 08:30:50.780407	107.4	35.4	-93.1	16.8
2025-01-04 08:30:51.943248	107.8	35.4	-93.2	7.7
2025-01-04 08:30:53.112416	108.3	35.3	-92.8	18.6
2025-01-04 08:30:54.277110	108.7	35.3	-92.6	15.2
2025-01-04 08:30:55.448277	109.2	35.2	-93.2	15.5
2025-01-04 08:30:56.614828	109.6	35.1	-93.3	8.6
2025-01-04 08:30:57.777337	110.0	35.1	-92.9	13.6
2025-01-04 08:30:58.942695	110.5	35.0	-93.1	12.4
2025-01-04 08:31:00.099164	110.9	34.9	-93.1	13.6
2025-01-04 08:31:01.247565	111.3	34.9	-93.0	16.3
2025-01-04 08:31:02.406382	111.8	34.8	-93.4	18.1
2025-01-04 08:31:03.566812	112.2	34.7	-93.4	10.9
2025-01-04 08:31:04.733065	112.6	34.6	-93.4	19.8
2025-01-04 08:31:05.898950	113.0	34.5	-93.4	17.9
2025-01-04 08:31:07.053112	113.5	34.5	-93.1	14.3
2025-01-04 08:31:08.217091	113.9	34.4	-92.9	18.8
2025-01-04 08:31:09.378862	114.3	34.3	-92.9	11.0
2025-01-04 08:31:10.537102	114.7	34.2	-92.9	16.7
2025-01-04 08:31:11.698582	115.1	34.1	-93.1	10.8
2025-01-04 08:31:12.860216	115.5	34.0	-92.7	13.6
2025-01-04 08:31:14.028132	116.0	33.9	-93.1	10.5
2025-01-04 08:31:15.188605	116.4	33.9	-92.5	11.9
2025-01-04 08:31:16.350202	116.8	33.8	-92.9	18.4
2025-01-04 08:31:17.512817	117.2	33.7	-92.8	18.8
2025-01-04 08:31:18.673151	117.6	33.6	-92.6	19.4
2025-01-04 08:31:19.844910	118.0	33.5	-93.3	14.0
2025-01-04 08:31:21.004977	118.4	33.4	-93.3	11.3
2025-01-04 08:31:22.175014	118.8	33.3	-92.7	5.9
2025-01-04 08:31:23.331003	119.1	33.2	-92.7	23.8
2025-01-04 08:31:24.474240	119.5	33.1	-93.3	13.6
2025-01-04 08:31:25.597343	119.9	33.0	-93.3	14.1
2025-01-04 08:31:26.718116	120.3	32.9	-93.4	14.2
2025-01-04 08:31:27.837844	120.6	32.8	-93.4	16.5
2025-01-04 08:31:28.957704	121.0	32.7	-93.5	24.2
2025-01-04 08:31:30.078096	121.4	32.6	-93.2	14.5
2025-01-04 08:31:31.197490	121.7	32.5	-92.8	10.4
2025-01-04 08:31:32.324062	122.1	32.4	-93.3	15.5
2025-01-04 08:31:33.466754	122.5	32.3	-93.3	14.9
2025-01-04 08:31:34.615086	122.8	32.2	-93.1	19.8
2025-01-04 08:31:35.775825	123.2	32.1	-93.0	16.6
2025-01-04 08:31:36.931965	123.6	31.9	-92.9	13.9
2025-01-04 08:31:38.090639	123.9	31.8	-92.8	19.8
2025-01-04 08:31:39.244977	124.3	31.7	-92.9	18.0
2025-01-04 08:31:40.407993	124.6	31.6	-93.0	5.8
2025-01-04 08:31:41.570861	125.0	31.5	-92.9	12.8
2025-01-04 08:31:42.738955	125.3	31.4	-93.0	13.9
2025-01-04 08:31:43.903269	125.7	31.3	-93.3	19.6
2025-01-04 08:31:45.068324	126.0	31.1	-92.6	7.9
2025-01-04 08:31:46.225721	126.4	31.0	-92.9	12.4
2025-01-04 08:31:47.384309	126.7	30.9	-92.9	8.5
2025-01-04 08:31:48.548030	127.1	30.8	-93.1	7.2
2025-01-04 08:31:49.717567	127.4	30.7	-93.4	8.1
2025-01-04 08:31:50.874523	127.7	30.6	-93.0	11.0
2025-01-04 08:31:52.041995	128.1	30.4	-92.8	6.7
2025-01-04 08:31:53.201508	128.4	30.3	-92.6	11.1
2025-01-04 08:31:54.366571	128.7	30.2	-92.8	11.1
2025-01-04 08:31:55.530447	129.0	30.1	-93.5	7.3
2025-01-04 08:31:56.680894	129.4	29.9	-93.1	7.4
2025-01-04 08:31:57.830556	129.7	29.8	-93.3	4.7
2025-01-04 08:31:58.988805	130.0	29.7	-93.1	4.7
2025-01-04 08:32:00.146945	130.3	29.6	-93.2	1.6
2025-01-04 08:32:01.296704	130.6	29.5	-93.0	5.0
2025-01-04 08:32:02.454817	130.9	29.3	-93.6	5.5
2025-01-04 08:32:03.614763	131.2	29.2	-92.8	3.6
2025-01-04 08:32:04.775678	131.6	29.1	-93.7	10.6
2025-01-04 08:32:05.942265	131.9	29.0	-93.4	12.8
2025-01-04 08:32:07.099124	132.2	28.8	-93.0	11.8
2025-01-04 08:32:08.265679	132.5	28.7	-92.6	11.3
2025-01-04 08:32:09.417464	132.8	28.6	-92.8	9.7
2025-01-04 08:32:10.584170	133.1	28.5	-92.6	10.0
2025-01-04 08:32:11.747346	133.3	28.3	-93.3	14.3
2025-01-04 08:32:12.916700	133.6	28.2	-93.5	10.8
2025-01-04 08:32:14.080825	133.9	28.1	-92.7	10.7
2025-01-04 08:32:15.243410	134.2	28.0	-92.9	9.0
2025-01-04 08:32:16.404595	134.5	27.8	-93.0	9.4
2025-01-04 08:32:17.563683	134.8	27.7	-93.3	9.5
2025-01-04 08:32:18.727138	135.1	27.6	-93.1	14.2
2025-01-04 08:32:19.887419	135.3	27.4	-93.1	13.1
2025-01-04 08:32:21.044037	135.6	27.3	-93.1	11.9
2025-01-04 08:32:22.208462	135.9	27.2	-93.0	11.4
2025-01-04 08:32:23.382980	136.2	27.1	-92.9	8.0
2025-01-04 08:32:24.540691	136.4	26.9	-92.9	6.4
2025-01-04 08:32:25.708856	136.7	26.8	-92.9	7.7
2025-01-04 08:32:26.870208	137.0	26.7	-92.7	7.5
2025-01-04 08:32:28.031177	137.2	26.5	-93.3	7.0
2025-01-04 08:32:29.172011	137.5	26.4	-92.1	9.1
2025-01-04 08:32:30.328419	137.7	26.3	-92.9	14.7
2025-01-04 08:32:31.475794	138.0	26.2	-93.4	4.7
2025-01-04 08:32:32.637958	138.2	26.0	-93.7	7.9
2025-01-04 08:32:33.796708	138.5	25.9	-93.5	17.5
2025-01-04 08:32:34.963281	138.7	25.8	-93.4	9.6
2025-01-04 08:32:36.129383	139.0	25.7	-93.0	12.0
2025-01-04 08:32:37.286058	139.2	25.5	-92.9	14.8
2025-01-04 08:32:38.454699	139.5	25.4	-92.9	13.8
2025-01-04 08:32:39.616938	139.7	25.3	-93.3	12.4
2025-01-04 08:32:40.777355	140.0	25.1	-93.2	13.2
2025-01-04 08:32:41.939679	140.2	25.0	-93.2	14.4
2025-01-04 08:32:43.100516	140.4	24.9	-93.3	13.9
2025-01-04 08:32:44.262631	140.7	24.8	-93.3	15.3
2025-01-04 08:32:45.424419	140.9	24.6	-93.2	15.0
2025-01-04 08:32:46.581904	141.1	24.5	-93.3	12.1
2025-01-04 08:32:47.757878	141.4	24.4	-93.4	14.3
2025-01-04 08:32:48.917472	141.6	24.2	-93.4	12.8
2025-01-04 08:32:50.088060	141.8	24.1	-92.9	8.8
2025-01-04 08:32:51.255184	142.1	24.0	-93.2	13.5
2025-01-04 08:32:52.416640	142.3	23.9	-93.4	10.2
2025-01-04 08:32:53.583624	142.5	23.7	-93.3	6.0
2025-01-04 08:32:54.741493	142.7	23.6	-93.6	12.6
2025-01-04 08:32:55.907306	142.9	23.5	-93.6	11.7
2025-01-04 08:32:57.063827	143.2	23.4	-93.1	9.0
2025-01-04 08:32:58.226979	143.4	23.2	-92.9	14.7
2025-01-04 08:32:59.390985	143.6	23.1	-93.3	12.8
2025-01-04 08:33:00.544128	143.8	23.0	-93.0	10.3
2025-01-04 08:33:01.704562	144.0	22.9	-93.3	13.8
2025-01-04 08:33:02.863099	144.2	22.7	-93.4	13.1
2025-01-04 08:33:04.023169	144.4	22.6	-93.3	9.9
2025-01-04 08:33:05.184646	144.6	22.5	-92.8	7.9
2025-01-04 08:33:06.349804	144.8	22.4	-92.7	10.9
2025-01-04 08:33:07.511643	145.0	22.2	-93.2	13.3
2025-01-04 08:33:08.673481	145.2	22.1	-93.1	14.5
2025-01-04 08:33:09.838890	145.4	22.0	-93.5	13.6
2025-01-04 08:33:11.003725	145.6	21.9	-93.1	10.4
2025-01-04 08:33:12.169079	145.8	21.7	-93.2	11.0
2025-01-04 08:33:13.330592	146.0	21.6	-93.2	14.8
2025-01-04 08:33:14.496220	146.2	21.5	-93.2	9.3
2025-01-04 08:33:15.660986	146.4	21.4	-93.3	10.4
2025-01-04 08:33:16.821828	146.6	21.3	-93.2	12.9
2025-01-04 08:33:17.980546	146.8	21.1	-93.2	8.6
2025-01-04 08:33:19.146355	147.0	21.0	-92.9	9.0
2025-01-04 08:33:20.311757	147.2	20.9	-92.7	13.8
2025-01-04 08:33:21.473080	147.3	20.8	-93.0	12.4
2025-01-04 08:33:22.639745	147.5	20.6	-93.4	10.8
2025-01-04 08:33:23.801712	147.7	20.5	-93.6	13.8
2025-01-04 08:33:24.966060	147.9	20.4	-93.1	12.0
2025-01-04 08:33:26.131785	148.1	20.3	-93.1	9.7
2025-01-04 08:33:27.288685	148.2	20.2	-93.2	11.3
2025-01-04 08:33:28.453142	148.4	20.0	-93.1	9.1
2025-01-04 08:33:29.612457	148.6	19.9	-93.3	7.6
2025-01-04 08:33:30.774149	148.8	19.8	-93.3	10.1
2025-01-04 08:33:31.937984	148.9	19.7	-93.3	6.5
2025-01-04 08:33:33.102718	149.1	19.6	-93.4	5.6
2025-01-04 08:33:34.268286	149.3	19.5	-93.2	6.4
2025-01-04 08:33:35.431678	149.4	19.3	-93.1	4.1
2025-01-04 08:33:36.597123	149.6	19.2	-91.8	5.5
2025-01-04 08:33:37.757024	149.8	19.1	-93.5	7.8
2025-01-04 08:33:38.919854	149.9	19.0	-93.2	6.4
2025-01-04 08:33:40.079310	150.1	18.9	-92.6	7.0
2025-01-04 08:33:41.243546	150.3	18.8	-92.6	8.8
2025-01-04 08:33:42.403822	150.4	18.6	-93.1	8.2
2025-01-04 08:33:43.567841	150.6	18.5	-93.2	8.1
2025-01-04 08:33:44.736370	150.8	18.4	-93.9	7.2
2025-01-04 08:33:45.896684	150.9	18.3	-93.7	7.2
2025-01-04 08:33:47.063021	151.1	18.2	-93.1	4.5
2025-01-04 08:33:48.226364	151.2	18.1	-93.3	6.4
2025-01-04 08:33:49.386031	151.4	18.0	-93.2	4.0
2025-01-04 08:33:50.548898	151.5	17.8	-93.5	4.4
2025-01-04 08:33:51.712925	151.7	17.7	-93.2	3.8
2025-01-04 08:33:52.873084	151.8	17.6	-93.5	4.4
2025-01-04 08:33:54.037223	152.0	17.5	-93.2	4.6
2025-01-04 08:33:55.202845	152.1	17.4	-93.2	4.7
2025-01-04 08:33:56.361320	152.3	17.3	-90.5	7.5
2025-01-04 08:33:57.515612	152.4	17.2	-91.7	5.2
2025-01-04 08:33:58.677427	152.6	17.1	-93.2	6.2
2025-01-04 08:33:59.832624	152.7	16.9	-92.8	2.3
2025-01-04 08:34:00.980970	152.9	16.8	-93.4	5.4
2025-01-04 08:34:02.145724	153.0	16.7	-93.0	4.9
2025-01-04 08:34:03.308850	153.1	16.6	-93.0	5.4
2025-01-04 08:34:04.473347	153.3	16.5	-93.5	3.5
2025-01-04 08:34:05.630588	153.4	16.4	-92.5	4.6
2025-01-04 08:34:06.790400	153.6	16.3	-93.2	1.7
2025-01-04 08:34:07.981457	153.7	16.2	-93.3	4.4
2025-01-04 08:34:09.148024	153.8	16.1	-92.5	4.5
2025-01-04 08:34:10.309129	154.0	16.0	-91.9	3.3
2025-01-04 08:34:11.469375	154.1	15.9	-93.3	3.9
2025-01-04 08:34:12.632237	154.2	15.7	-92.8	3.4
2025-01-04 08:34:13.792696	154.4	15.6	-92.6	4.5
2025-01-04 08:34:14.952250	154.5	15.5	-92.8	5.3
2025-01-04 08:34:16.121194	154.6	15.4	-93.2	6.0
2025-01-04 08:34:17.282953	154.8	15.3	-93.0	6.6
2025-01-04 08:34:18.444785	154.9	15.2	-92.9	8.2
2025-01-04 08:34:19.605467	155.0	15.1	-93.3	7.3
2025-01-04 08:34:20.763434	155.2	15.0	-93.0	6.6
2025-01-04 08:34:21.925413	155.3	14.9	-91.1	6.5
2025-01-04 08:34:23.094750	155.4	14.8	-92.5	5.9
2025-01-04 08:34:24.259553	155.5	14.7	-89.4	7.8
2025-01-04 08:34:25.412356	155.7	14.6	-92.9	7.0
#Closed at: 2025-01-04 08:26:16.300309