passes_logs/2025/01/09/X_MFTI_01/X_MFTI_01__20250109_095727_SUOMI_NPP_rec.log

#Pass ID: 20250109_095727_SUOMI NPP
#Satellite: SUOMI NPP
#Configuration: NPP
#Start time: 2025-01-09 09:57:23

#Version: 1.5.20200625
#Station: X_MFTI_01
#Location: 37.5186 lon 55.9291 lat
#TLE: 1 37849U 11061A   23362.48341244  .00000167  00000+0  99749-4 0  9991
#TLE: 2 37849  98.7252 298.0509 0001500  77.1966 282.9377 14.19535461630502

#Time	Az	El	Level	Level2	SNR	BER	Gain	Gain2
2025-01-09 09:57:23.02	148.21	68.25	-71.4	-96.3	3.8	14936073	99	63081
2025-01-09 09:57:23.44	148.09	68.44	-71.5	-96.4	3.8	14908912	99	63031
2025-01-09 09:57:23.87	147.96	68.63	-71.5	-96.3	3.8	14902099	99	62538
2025-01-09 09:57:24.29	147.83	68.82	-71.4	-96.3	3.8	14904556	99	62955
2025-01-09 09:57:24.72	147.70	69.01	-71.4	-96.2	3.8	14908699	99	62045
2025-01-09 09:57:25.14	147.57	69.20	-71.5	-96.2	3.9	14899078	99	61915
2025-01-09 09:57:25.57	147.43	69.40	-71.4	-96.2	3.8	14908889	99	62286
2025-01-09 09:57:26.00	147.28	69.59	-71.4	-96.2	3.8	14905105	99	62248
2025-01-09 09:57:26.43	147.14	69.78	-71.4	-96.1	3.8	14904251	99	62068
2025-01-09 09:57:26.86	146.99	69.98	-71.4	-95.0	3.8	14897384	99	54191
2025-01-09 09:57:27.29	146.84	70.17	-71.5	-96.2	3.8	14888206	99	62004
2025-01-09 09:57:27.72	146.69	70.37	-71.4	-96.1	3.8	14911193	99	61901
2025-01-09 09:57:28.15	146.53	70.56	-71.5	-96.2	3.8	14906311	99	62268
2025-01-09 09:57:28.58	146.37	70.76	-71.5	-96.1	3.9	14905921	99	61767
2025-01-09 09:57:29.01	146.20	70.96	-71.4	-96.1	3.8	14897171	99	62042
2025-01-09 09:57:29.41	146.05	71.14	-71.4	-96.2	3.8	14901924	99	62120
2025-01-09 09:57:29.83	145.88	71.33	-71.4	-96.0	3.9	14921989	99	61338
2025-01-09 09:57:30.26	145.71	71.53	-71.5	-96.1	3.8	14913093	99	61755
2025-01-09 09:57:30.67	145.53	71.71	-71.4	-96.2	3.8	14901550	99	62011
2025-01-09 09:57:31.09	145.36	71.91	-71.5	-96.2	3.8	14912574	99	61953
2025-01-09 09:57:31.52	145.17	72.10	-71.5	-96.2	3.8	14901832	99	62159
2025-01-09 09:57:31.95	144.98	72.30	-71.4	-96.2	3.8	14898368	99	62059
2025-01-09 09:57:32.37	144.78	72.49	-71.4	-96.2	3.8	14905303	99	62217
2025-01-09 09:57:32.77	144.60	72.68	-71.4	-96.2	3.8	14907295	99	62289
2025-01-09 09:57:33.18	144.40	72.86	-71.4	-96.2	3.8	14907295	99	62262
2025-01-09 09:57:33.62	144.19	73.07	-71.4	-96.2	3.8	14897636	99	62187
2025-01-09 09:57:34.03	143.98	73.26	-71.4	-96.1	3.8	14904762	99	62157
2025-01-09 09:57:34.46	143.76	73.45	-71.4	-96.1	3.8	14904464	99	61794
2025-01-09 09:57:34.89	143.53	73.65	-71.4	-96.0	3.8	14917861	99	61165
2025-01-09 09:57:35.31	143.30	73.84	-71.4	-96.0	3.8	14898979	99	61666
2025-01-09 09:57:35.74	143.07	74.04	-71.4	-96.1	3.8	14912437	99	61535
2025-01-09 09:57:36.15	142.83	74.23	-71.4	-96.0	3.9	14918815	99	61330
2025-01-09 09:57:36.58	142.58	74.43	-71.4	-96.1	3.8	14894592	99	61646
2025-01-09 09:57:37.00	142.33	74.62	-71.4	-96.2	3.8	14906433	99	62158
2025-01-09 09:57:37.43	142.06	74.82	-71.4	-96.2	3.8	14912765	99	62179
2025-01-09 09:57:37.86	141.79	75.02	-71.5	-96.2	3.8	14899024	99	62139
2025-01-09 09:57:38.26	141.53	75.20	-71.4	-96.2	3.8	14907608	99	62354
2025-01-09 09:57:38.69	141.24	75.40	-71.4	-96.2	3.8	14910369	99	62220
2025-01-09 09:57:39.11	140.96	75.60	-71.5	-96.2	3.8	14898582	99	62120
2025-01-09 09:57:39.54	140.65	75.79	-71.5	-96.2	3.9	14914657	99	61742
2025-01-09 09:57:39.97	140.34	75.99	-71.4	-96.2	3.8	14909645	99	62019
2025-01-09 09:57:40.39	140.03	76.18	-71.5	-96.2	3.9	14918197	99	61798
2025-01-09 09:57:40.80	139.71	76.37	-71.4	-96.1	3.9	14906532	99	61676
2025-01-09 09:57:41.23	139.37	76.57	-71.4	-96.1	3.8	14903419	99	61835
2025-01-09 09:57:41.66	139.02	76.77	-71.4	-96.1	3.8	14912063	99	61848
2025-01-09 09:57:42.08	138.66	76.96	-71.5	-96.4	3.8	14906311	99	62929
2025-01-09 09:57:42.50	138.30	77.15	-71.4	-96.3	3.8	14903991	99	62839
2025-01-09 09:57:42.91	137.93	77.34	-71.4	-96.3	3.8	14906898	99	62879
2025-01-09 09:57:43.33	137.54	77.53	-71.5	-96.3	3.8	14910980	99	63017
2025-01-09 09:57:43.76	137.13	77.73	-71.4	-96.3	3.8	14905204	99	62897
2025-01-09 09:57:44.19	136.71	77.92	-71.4	-96.2	3.9	14897010	99	62363
2025-01-09 09:57:44.59	136.30	78.10	-71.4	-96.2	3.8	14916793	99	62812
2025-01-09 09:57:45.01	135.86	78.29	-71.4	-96.2	3.8	14916793	99	62391
2025-01-09 09:57:45.42	135.41	78.48	-71.5	-96.2	3.9	14895034	99	62501
2025-01-09 09:57:45.85	134.93	78.67	-71.4	-96.2	3.8	14911636	99	62278
2025-01-09 09:57:46.28	134.43	78.86	-71.4	-96.3	3.8	14915710	99	62831
2025-01-09 09:57:46.72	133.90	79.06	-71.5	-96.3	3.8	14911407	99	62745
2025-01-09 09:57:47.15	133.36	79.25	-71.4	-96.1	3.8	14902214	99	62098
2025-01-09 09:57:47.55	132.85	79.43	-71.4	-96.1	3.8	14903205	99	62030
2025-01-09 09:57:47.98	132.27	79.62	-71.4	-96.1	3.8	14908798	99	61983
2025-01-09 09:57:48.41	131.67	79.81	-71.4	-96.1	3.8	14909988	99	61878
2025-01-09 09:57:48.84	131.05	79.99	-71.3	-96.0	3.8	14907638	99	61746
2025-01-09 09:57:49.27	130.40	80.18	-71.4	-96.1	3.8	14913513	99	62112
2025-01-09 09:57:49.69	129.75	80.36	-71.4	-96.1	3.9	14914634	99	61946
2025-01-09 09:57:50.12	129.05	80.55	-71.3	-96.0	3.9	14909835	99	61839
2025-01-09 09:57:50.55	128.32	80.73	-71.4	-96.1	3.8	14900329	99	62089
2025-01-09 09:57:50.98	127.57	80.91	-71.4	-96.0	3.8	14912139	99	61402
2025-01-09 09:57:51.41	126.78	81.09	-71.4	-96.1	3.8	14924331	99	61406
2025-01-09 09:57:51.84	125.96	81.27	-71.4	-96.0	3.8	14905220	99	61153
2025-01-09 09:57:52.27	125.11	81.45	-71.4	-96.1	3.8	14894432	99	61982
2025-01-09 09:57:52.70	124.22	81.62	-71.4	-96.1	3.8	14914962	99	61946
2025-01-09 09:57:53.12	123.31	81.79	-71.5	-96.1	3.8	14906700	99	61769
2025-01-09 09:57:53.55	122.34	81.97	-71.4	-96.0	3.8	14910911	99	61214
2025-01-09 09:57:53.98	121.33	82.13	-71.4	-96.0	3.8	14896331	99	61510
2025-01-09 09:57:54.41	120.28	82.30	-71.4	-96.0	3.8	14917266	99	61577
2025-01-09 09:57:54.82	119.23	82.46	-71.4	-96.0	3.9	14894676	99	61282
2025-01-09 09:57:55.25	118.08	82.62	-71.4	-96.1	3.8	14905693	99	61618
2025-01-09 09:57:55.69	116.85	82.78	-71.4	-96.0	3.8	14905319	99	61598
2025-01-09 09:57:56.12	115.59	82.94	-71.4	-96.0	3.8	14915534	99	61426
2025-01-09 09:57:56.55	114.28	83.09	-71.4	-96.1	3.8	14901557	99	61702
2025-01-09 09:57:56.98	112.91	83.24	-71.4	-96.1	3.8	14909317	99	62018
2025-01-09 09:57:57.41	111.48	83.38	-71.4	-96.2	3.8	14918930	99	62357
2025-01-09 09:57:57.84	109.99	83.52	-71.4	-96.1	3.9	14900955	99	61957
2025-01-09 09:57:58.27	108.43	83.66	-71.4	-96.1	3.8	14914932	99	62187
2025-01-09 09:57:58.69	106.84	83.78	-71.4	-96.1	3.8	14906990	99	62156
2025-01-09 09:57:59.12	105.14	83.91	-71.4	-96.1	3.8	14912574	99	62140
2025-01-09 09:57:59.55	103.38	84.03	-71.4	-96.2	3.8	14895965	99	62129
2025-01-09 09:57:59.98	101.54	84.14	-71.4	-96.2	3.8	14896339	99	62151
2025-01-09 09:58:00.39	99.73	84.25	-71.4	-96.2	3.8	14927215	99	62098
2025-01-09 09:58:00.82	97.75	84.35	-71.5	-96.2	3.9	14914207	99	62119
2025-01-09 09:58:01.24	95.76	84.44	-71.4	-96.1	3.8	14907829	99	61648
2025-01-09 09:58:01.67	93.64	84.53	-71.4	-96.1	3.8	14915855	99	62209
2025-01-09 09:58:02.09	91.52	84.61	-71.4	-96.2	3.8	14916000	99	62119
2025-01-09 09:58:02.52	89.28	84.68	-71.4	-96.1	3.9	14890953	99	61774
2025-01-09 09:58:02.95	86.98	84.74	-71.4	-96.1	3.8	14899215	99	61893
2025-01-09 09:58:03.38	84.63	84.80	-71.4	-96.1	3.8	14918594	99	61928
2025-01-09 09:58:03.79	82.34	84.84	-71.4	-96.1	3.8	14918594	99	61957
2025-01-09 09:58:04.22	79.91	84.88	-71.4	-96.1	3.9	14903327	99	61568
2025-01-09 09:58:04.64	77.50	84.91	-71.4	-96.1	3.8	14903327	99	61969
2025-01-09 09:58:05.06	75.07	84.93	-71.4	-96.2	3.8	14898834	99	61992
2025-01-09 09:58:05.49	72.56	84.94	-71.4	-96.1	3.9	14914100	99	61719
2025-01-09 09:58:05.92	70.06	84.94	-71.4	-96.1	3.8	14889175	99	61609
2025-01-09 09:58:06.35	67.55	84.93	-71.4	-96.1	3.8	14905090	99	62206
2025-01-09 09:58:06.78	65.06	84.91	-71.4	-96.1	3.8	14917602	99	62004
2025-01-09 09:58:07.20	62.65	84.88	-71.4	-96.3	3.8	14910202	99	63038
2025-01-09 09:58:07.63	60.22	84.84	-71.4	-96.2	3.8	14905700	99	63075
2025-01-09 09:58:08.06	57.82	84.79	-71.5	-96.3	3.8	14907691	99	62925
2025-01-09 09:58:08.49	55.48	84.74	-71.4	-96.1	3.9	14912528	99	61926
2025-01-09 09:58:08.90	53.29	84.68	-71.4	-96.1	3.9	14902107	99	61805
2025-01-09 09:58:09.33	51.05	84.61	-71.4	-96.1	3.8	14909896	99	62200
2025-01-09 09:58:09.77	48.82	84.52	-71.4	-96.2	3.8	14901832	99	62288
2025-01-09 09:58:10.20	46.71	84.44	-71.4	-96.1	3.8	14911987	99	62238
2025-01-09 09:58:10.63	44.67	84.34	-71.4	-96.1	3.8	14896675	99	61667
2025-01-09 09:58:11.06	42.71	84.24	-71.4	-96.1	3.8	14907875	99	62296
2025-01-09 09:58:11.49	40.81	84.13	-71.4	-96.1	3.8	14909233	99	62129
2025-01-09 09:58:11.92	38.98	84.01	-71.4	-96.2	3.8	14910346	99	62188
2025-01-09 09:58:12.34	37.27	83.90	-71.4	-96.1	3.8	14905586	99	61620
2025-01-09 09:58:12.77	35.58	83.77	-71.4	-96.1	3.8	14908828	99	61590
2025-01-09 09:58:13.18	34.03	83.65	-71.4	-96.0	3.8	14912139	99	61518
2025-01-09 09:58:13.60	32.52	83.51	-71.4	-96.0	3.8	14893913	99	60656
2025-01-09 09:58:14.03	31.03	83.37	-71.4	-96.0	3.8	14914108	99	61589
2025-01-09 09:58:14.45	29.63	83.23	-71.4	-96.0	3.8	14916534	99	61473
2025-01-09 09:58:14.88	28.26	83.08	-71.4	-96.1	3.8	14917320	99	61683
2025-01-09 09:58:15.31	26.95	82.93	-71.4	-96.0	3.8	14911323	99	61515
2025-01-09 09:58:15.71	25.78	82.79	-71.3	-96.0	3.8	14909454	99	61652
2025-01-09 09:58:16.13	24.61	82.63	-71.4	-96.1	3.8	14925872	99	61612
2025-01-09 09:58:16.53	23.53	82.48	-71.4	-96.1	3.8	14900154	99	61629
2025-01-09 09:58:16.94	22.48	82.33	-71.4	-96.1	3.8	14902732	99	61682
2025-01-09 09:58:17.36	21.44	82.17	-71.4	-96.1	3.8	14910583	99	61557
2025-01-09 09:58:17.78	20.44	82.00	-71.4	-96.1	3.8	14899230	99	61663
2025-01-09 09:58:18.19	19.51	81.84	-71.4	-96.0	3.8	14899230	99	61481
2025-01-09 09:58:18.62	18.58	81.67	-71.4	-96.1	3.8	14902313	99	61822
2025-01-09 09:58:19.05	17.68	81.49	-71.4	-96.1	3.8	14907020	99	61632
2025-01-09 09:58:19.47	16.83	81.32	-71.4	-96.1	3.9	14918853	99	61436
2025-01-09 09:58:19.89	16.03	81.14	-71.4	-96.0	3.8	14901145	99	61429
2025-01-09 09:58:20.32	15.23	80.96	-71.4	-96.1	3.8	14900779	99	61752
2025-01-09 09:58:20.73	14.50	80.79	-71.4	-96.1	3.8	14914939	99	61608
2025-01-09 09:58:21.13	13.82	80.62	-71.4	-96.1	3.9	14912170	99	61507
2025-01-09 09:58:21.54	13.14	80.45	-71.4	-96.0	3.8	14913040	99	61077
2025-01-09 09:58:21.95	12.49	80.27	-71.4	-96.1	3.8	14916069	99	61714
2025-01-09 09:58:22.38	11.83	80.08	-71.4	-96.1	3.8	14920600	99	62063
2025-01-09 09:58:22.81	11.20	79.90	-71.4	-96.1	3.9	14903137	99	61979
2025-01-09 09:58:23.24	10.59	79.71	-71.4	-96.1	3.8	14913780	99	62189
2025-01-09 09:58:23.67	10.01	79.52	-71.4	-96.1	3.8	14914337	99	62197
2025-01-09 09:58:24.10	9.44	79.33	-71.4	-96.1	3.8	14915328	99	62227
2025-01-09 09:58:24.52	8.91	79.14	-71.4	-96.1	3.8	14907623	99	61722
2025-01-09 09:58:24.95	8.38	78.95	-71.4	-96.1	3.8	14912399	99	62207
2025-01-09 09:58:25.38	7.87	78.76	-71.4	-96.2	3.8	14909774	99	62197
2025-01-09 09:58:25.78	7.42	78.58	-71.4	-96.1	3.9	14902465	99	62038
2025-01-09 09:58:26.20	6.95	78.39	-71.4	-96.1	3.8	14895141	99	61645
2025-01-09 09:58:26.63	6.49	78.20	-71.4	-96.1	3.8	14912902	99	62222
2025-01-09 09:58:27.05	6.06	78.01	-71.4	-96.1	3.8	14908340	99	62052
2025-01-09 09:58:27.48	5.63	77.81	-71.4	-96.1	3.8	14902114	99	62124
2025-01-09 09:58:27.91	5.22	77.62	-71.4	-96.2	3.8	14909744	99	62295
2025-01-09 09:58:28.34	4.81	77.42	-71.4	-96.2	3.8	14920494	99	62405
2025-01-09 09:58:28.75	4.44	77.24	-71.4	-96.2	3.8	14904159	99	62384
2025-01-09 09:58:29.18	4.06	77.04	-71.5	-96.1	3.8	14902130	99	61774
2025-01-09 09:58:29.61	3.70	76.84	-71.4	-96.1	3.8	14903709	99	62177
2025-01-09 09:58:30.03	3.35	76.65	-71.4	-96.1	3.8	14913276	99	61991
2025-01-09 09:58:30.45	3.01	76.46	-71.4	-96.1	3.9	14913276	99	61929
2025-01-09 09:58:30.86	2.69	76.27	-71.3	-96.0	3.8	14904197	99	61607
2025-01-09 09:58:31.28	2.38	76.08	-71.4	-96.2	3.8	14909942	99	62336
2025-01-09 09:58:31.69	2.07	75.89	-71.4	-96.2	3.9	14921081	99	62193
2025-01-09 09:58:32.12	1.77	75.69	-71.4	-96.2	3.8	14904060	99	62135
2025-01-09 09:58:32.54	1.47	75.50	-71.4	-96.2	3.8	14898239	99	62204
2025-01-09 09:58:32.96	1.19	75.31	-71.4	-96.1	3.8	14908508	99	62213
2025-01-09 09:58:33.37	0.92	75.12	-71.4	-96.2	3.8	14907997	99	62280
2025-01-09 09:58:33.80	0.65	74.92	-71.4	-96.1	3.8	14896675	99	61822
2025-01-09 09:58:34.23	0.38	74.72	-71.4	-96.1	3.8	14899749	99	62144
2025-01-09 09:58:34.66	0.12	74.52	-71.4	-96.2	3.8	14918037	99	62350
2025-01-09 09:58:35.10	359.86	74.32	-71.4	-96.2	3.9	14908447	99	62039
2025-01-09 09:58:35.53	359.61	74.12	-71.4	-96.1	3.8	14902565	99	62295
2025-01-09 09:58:35.93	359.39	73.94	-71.4	-96.1	3.8	14904922	99	62284
2025-01-09 09:58:36.34	359.16	73.75	-71.4	-96.1	3.8	14906158	99	62142
2025-01-09 09:58:36.78	358.93	73.55	-71.4	-96.2	3.8	14897483	99	62465
2025-01-09 09:58:37.19	358.71	73.36	-71.4	-96.1	3.8	14905868	99	61850
2025-01-09 09:58:37.62	358.50	73.16	-71.4	-96.2	3.8	14905380	99	62255
2025-01-09 09:58:38.04	358.29	72.97	-71.5	-96.2	3.8	14904808	99	62250
2025-01-09 09:58:38.47	358.08	72.77	-71.4	-96.2	3.9	14892723	99	61969
2025-01-09 09:58:38.90	357.88	72.58	-71.4	-96.1	3.8	14899688	99	61716
2025-01-09 09:58:39.31	357.69	72.39	-71.4	-96.1	3.8	14914657	99	61727
2025-01-09 09:58:39.75	357.49	72.19	-71.4	-96.0	3.9	14906471	99	61396
2025-01-09 09:58:40.16	357.31	72.00	-71.4	-96.0	3.9	14893699	99	61189
2025-01-09 09:58:40.59	357.12	71.80	-71.4	-96.1	3.8	14911338	99	61819
2025-01-09 09:58:41.02	356.94	71.61	-71.4	-96.1	3.8	14916435	99	61675
2025-01-09 09:58:41.45	356.77	71.41	-71.4	-96.2	3.8	14903968	99	62435
2025-01-09 09:58:41.87	356.60	71.22	-71.4	-96.1	3.8	14904388	99	62373
2025-01-09 09:58:42.30	356.43	71.02	-71.4	-96.2	3.8	14907096	99	62319
2025-01-09 09:58:42.72	356.27	70.83	-71.4	-96.2	3.8	14913635	99	62268
2025-01-09 09:58:43.13	356.11	70.65	-71.5	-96.1	3.8	14910774	99	61684
2025-01-09 09:58:43.55	355.96	70.46	-71.4	-96.1	3.8	14910774	99	62278
2025-01-09 09:58:43.98	355.80	70.26	-71.4	-96.2	3.9	14909225	99	62078

#Closed at: 2025-01-09 09:58:44