passes_logs/2025/01/09/X_MFTI_01/X_MFTI_01__20250109_234757_SUOMI_NPP_rec.log

#Pass ID: 20250109_234757_SUOMI NPP
#Satellite: SUOMI NPP
#Configuration: NPP
#Start time: 2025-01-09 23:47:54

#Version: 1.5.20200625
#Station: X_MFTI_01
#Location: 37.5186 lon 55.9291 lat
#TLE: 1 37849U 11061A   23362.48341244  .00000167  00000+0  99749-4 0  9991
#TLE: 2 37849  98.7252 298.0509 0001500  77.1966 282.9377 14.19535461630502

#Time	Az	El	Level	Level2	SNR	BER	Gain	Gain2
2025-01-09 23:47:54.17	12.58	68.70	-71.2	-96.0	3.8	14916305	99	62301
2025-01-09 23:47:54.59	12.53	68.89	-71.4	-96.0	3.8	14912826	99	61233
2025-01-09 23:47:55.00	12.48	69.08	-71.4	-96.1	3.8	14900962	99	61364
2025-01-09 23:47:55.42	12.43	69.27	-71.4	-96.1	3.8	14904411	99	61628
2025-01-09 23:47:55.84	12.37	69.47	-71.4	-96.1	3.8	14913818	99	61652
2025-01-09 23:47:56.26	12.31	69.66	-71.5	-96.1	3.9	14915145	99	61288
2025-01-09 23:47:56.67	12.26	69.85	-71.4	-96.1	3.8	14899635	99	61514
2025-01-09 23:47:57.09	12.20	70.04	-71.4	-96.1	3.8	14916984	99	61549
2025-01-09 23:47:57.51	12.14	70.24	-71.5	-96.1	3.8	14911575	99	61351
2025-01-09 23:47:57.93	12.07	70.43	-71.5	-96.1	3.8	14901168	99	61554
2025-01-09 23:47:58.34	12.01	70.63	-71.5	-96.3	3.8	14909255	99	62734
2025-01-09 23:47:58.76	11.95	70.82	-71.5	-96.3	3.8	14912078	99	62725
2025-01-09 23:47:59.18	11.88	71.02	-71.5	-96.3	3.9	14911376	99	62569
2025-01-09 23:47:59.59	11.82	71.21	-71.5	-96.3	3.9	14902542	99	62465
2025-01-09 23:48:00.01	11.75	71.41	-71.3	-96.1	3.8	14902542	99	62192
2025-01-09 23:48:00.42	11.68	71.60	-71.4	-96.3	3.8	14895896	99	62726
2025-01-09 23:48:00.84	11.61	71.80	-71.5	-96.3	3.8	14895896	99	62815
2025-01-09 23:48:01.26	11.53	71.99	-71.5	-96.3	3.8	14903724	99	62820
2025-01-09 23:48:01.67	11.46	72.19	-71.5	-96.3	3.8	14910964	99	62674
2025-01-09 23:48:02.09	11.38	72.39	-71.5	-96.3	3.8	14904182	99	62845
2025-01-09 23:48:02.50	11.30	72.58	-71.5	-96.3	3.9	14909156	99	62660
2025-01-09 23:48:02.92	11.22	72.78	-71.5	-96.3	3.8	14912315	99	62767
2025-01-09 23:48:03.34	11.14	72.98	-71.4	-96.1	3.8	14906532	99	61645
2025-01-09 23:48:03.76	11.05	73.18	-71.4	-96.1	3.8	14914161	99	61484
2025-01-09 23:48:04.17	10.97	73.38	-71.5	-96.1	3.9	14923408	99	61184
2025-01-09 23:48:04.59	10.88	73.58	-71.5	-96.1	3.8	14895027	99	61157
2025-01-09 23:48:05.00	10.79	73.77	-71.4	-96.1	3.8	14901115	99	61692
2025-01-09 23:48:05.42	10.69	73.97	-71.5	-96.1	3.8	14914337	99	61597
2025-01-09 23:48:05.84	10.59	74.18	-71.4	-96.1	3.8	14914657	99	61630
2025-01-09 23:48:06.25	10.50	74.37	-71.4	-96.0	3.8	14912734	99	61145
2025-01-09 23:48:06.67	10.39	74.57	-71.4	-96.1	3.8	14904541	99	61549
2025-01-09 23:48:07.09	10.29	74.78	-71.4	-96.1	3.9	14913436	99	61433
2025-01-09 23:48:07.51	10.18	74.98	-71.4	-96.1	3.9	14910873	99	61437
2025-01-09 23:48:07.92	10.07	75.18	-71.5	-96.1	3.8	14911041	99	61654
2025-01-09 23:48:08.34	9.96	75.38	-71.5	-96.3	3.8	14904655	99	62873
2025-01-09 23:48:08.76	9.84	75.58	-71.5	-96.3	3.8	14897651	99	62854
2025-01-09 23:48:09.18	9.72	75.79	-71.5	-96.1	3.9	14893157	99	61185
2025-01-09 23:48:09.59	9.59	75.99	-71.3	-95.9	3.8	14893157	99	60894
2025-01-09 23:48:10.01	9.46	76.19	-71.4	-96.1	3.8	14904113	99	61535
2025-01-09 23:48:10.43	9.33	76.39	-71.5	-96.1	3.8	14909469	99	61698
2025-01-09 23:48:10.84	9.20	76.59	-71.4	-96.1	3.8	14907882	99	61530
2025-01-09 23:48:11.26	9.05	76.80	-71.4	-96.1	3.8	14899154	99	61541
2025-01-09 23:48:11.67	8.91	77.00	-71.4	-96.1	3.8	14905807	99	61529
2025-01-09 23:48:12.09	8.76	77.20	-71.4	-96.1	3.9	14908744	99	61407
2025-01-09 23:48:12.50	8.61	77.40	-71.5	-96.1	3.9	14904388	99	61111
2025-01-09 23:48:12.92	8.45	77.61	-71.4	-96.1	3.8	14908851	99	61692
2025-01-09 23:48:13.34	8.28	77.81	-71.4	-96.1	3.8	14902496	99	62121
2025-01-09 23:48:13.76	8.10	78.02	-71.4	-96.1	3.9	14906753	99	61870
2025-01-09 23:48:14.17	7.93	78.22	-71.5	-96.2	3.8	14897720	99	62224
2025-01-09 23:48:14.59	7.74	78.43	-71.5	-96.2	3.8	14903915	99	61779
2025-01-09 23:48:15.01	7.55	78.63	-71.5	-96.2	3.8	14901809	99	62037
2025-01-09 23:48:15.43	7.35	78.84	-71.4	-96.1	3.8	14909187	99	61866
2025-01-09 23:48:15.84	7.15	79.04	-71.5	-96.2	3.8	14900650	99	62089
2025-01-09 23:48:16.26	6.93	79.25	-71.5	-96.2	3.8	14903564	99	62157
2025-01-09 23:48:16.68	6.71	79.45	-71.5	-96.2	3.8	14906799	99	61880
2025-01-09 23:48:17.10	6.47	79.66	-71.4	-96.1	3.9	14901504	99	61698
2025-01-09 23:48:17.51	6.23	79.86	-74.8	-99.4	3.8	14906982	99	61366
2025-01-09 23:48:17.93	5.98	80.07	-71.4	-96.1	3.8	14906448	99	62123
2025-01-09 23:48:18.35	5.71	80.28	-71.4	-96.2	3.8	14906448	99	62090
2025-01-09 23:48:18.77	5.44	80.48	-71.5	-96.1	3.9	14901130	99	61503
2025-01-09 23:48:19.18	5.15	80.68	-71.5	-96.1	3.8	14901130	99	61756
2025-01-09 23:48:19.60	4.85	80.89	-71.5	-96.1	3.8	14903495	99	61531
2025-01-09 23:48:20.02	4.53	81.10	-71.4	-96.1	3.8	14908226	99	61651
2025-01-09 23:48:20.43	4.21	81.30	-71.4	-96.1	3.8	14907257	99	61272
2025-01-09 23:48:20.85	3.86	81.51	-71.4	-96.1	3.8	14901199	99	61790
2025-01-09 23:48:21.27	3.50	81.71	-71.5	-96.2	3.8	14899085	99	61842
2025-01-09 23:48:21.68	3.12	81.91	-71.5	-96.1	3.8	14909927	99	61635
2025-01-09 23:48:22.10	2.72	82.12	-71.5	-96.1	3.8	14899841	99	61699
2025-01-09 23:48:22.52	2.29	82.32	-71.4	-96.1	3.8	14905700	99	61766
2025-01-09 23:48:22.94	1.84	82.53	-71.4	-96.0	3.9	14912910	99	60953
2025-01-09 23:48:23.36	1.36	82.74	-71.4	-96.0	3.9	14898735	99	60885
2025-01-09 23:48:23.77	0.87	82.94	-71.4	-96.0	3.8	14901611	99	61149
2025-01-09 23:48:24.19	0.34	83.14	-71.4	-96.0	3.8	14908927	99	61241
2025-01-09 23:48:24.61	359.77	83.34	-71.4	-96.1	3.8	14915847	99	61291
2025-01-09 23:48:25.03	359.16	83.55	-71.3	-95.9	3.9	14898597	99	60828
2025-01-09 23:48:25.45	358.52	83.75	-73.9	-98.4	3.8	14905624	99	60558
2025-01-09 23:48:25.86	357.85	83.95	-71.4	-96.1	3.8	14901840	99	61395
2025-01-09 23:48:26.28	357.12	84.15	-71.4	-96.1	3.8	14901596	99	61246
2025-01-09 23:48:26.70	356.33	84.35	-71.4	-96.1	3.8	14912544	99	61445
2025-01-09 23:48:27.11	355.51	84.54	-71.4	-96.1	3.8	14906242	99	61299
2025-01-09 23:48:27.53	354.61	84.74	-71.4	-96.0	3.8	14905754	99	61472
2025-01-09 23:48:27.95	353.63	84.94	-71.4	-96.0	3.9	14905754	99	61276
2025-01-09 23:48:28.36	352.60	85.13	-71.4	-96.0	3.9	14915336	99	60929
2025-01-09 23:48:28.78	351.46	85.32	-71.4	-96.0	3.8	14902946	99	61466
2025-01-09 23:48:29.20	350.22	85.51	-71.4	-96.1	3.8	14903770	99	61559
2025-01-09 23:48:29.61	348.90	85.70	-71.4	-96.1	3.8	14931892	99	61517
2025-01-09 23:48:30.03	347.42	85.88	-71.4	-96.0	3.8	14904258	99	60905
2025-01-09 23:48:30.45	345.81	86.07	-71.4	-96.1	3.8	14902191	99	61461
2025-01-09 23:48:30.86	344.09	86.24	-71.4	-96.0	3.8	14905303	99	61337
2025-01-09 23:48:31.28	342.14	86.42	-71.4	-96.1	3.8	14909202	99	61545
2025-01-09 23:48:31.70	340.00	86.59	-71.4	-96.0	3.8	14910568	99	61596
2025-01-09 23:48:32.11	337.69	86.76	-71.5	-96.1	3.8	14897422	99	61580
2025-01-09 23:48:32.53	335.07	86.92	-71.5	-96.1	3.8	14909835	99	61550
2025-01-09 23:48:32.95	332.18	87.07	-71.5	-96.1	3.8	14903915	99	61607
2025-01-09 23:48:33.36	329.04	87.22	-71.5	-96.3	3.8	14908576	99	62850
2025-01-09 23:48:33.78	325.49	87.35	-71.4	-96.2	3.8	14900787	99	62653
2025-01-09 23:48:34.20	321.57	87.48	-71.5	-96.3	3.8	14903533	99	62835
2025-01-09 23:48:34.62	317.27	87.59	-71.5	-96.3	3.9	14906623	99	62712
2025-01-09 23:48:35.03	312.68	87.69	-71.4	-96.3	3.8	14906555	99	62757
2025-01-09 23:48:35.45	307.62	87.77	-71.4	-96.3	3.8	14907890	99	62849
2025-01-09 23:48:35.87	302.21	87.83	-71.5	-96.3	3.9	14907363	99	62626
2025-01-09 23:48:36.29	296.54	87.87	-71.5	-96.3	3.8	14910156	99	62647
2025-01-09 23:48:36.70	290.84	87.89	-71.5	-96.3	3.8	14910156	99	62937
2025-01-09 23:48:37.12	284.95	87.89	-71.5	-96.3	3.8	14912643	99	62899
2025-01-09 23:48:37.53	279.26	87.87	-71.5	-96.3	3.8	14912643	99	62845
2025-01-09 23:48:37.95	273.61	87.82	-71.5	-96.3	3.8	14897644	99	62967
2025-01-09 23:48:38.37	268.23	87.76	-71.4	-96.3	3.8	14903709	99	62900
2025-01-09 23:48:38.79	263.20	87.68	-71.5	-96.3	3.9	14905525	99	62720
2025-01-09 23:48:39.20	258.66	87.58	-71.4	-96.1	3.8	14907752	99	61834
2025-01-09 23:48:39.62	254.39	87.47	-71.5	-96.2	3.8	14895675	99	62316
2025-01-09 23:48:40.03	250.60	87.34	-71.5	-96.2	3.8	14905914	99	62242
2025-01-09 23:48:40.45	247.07	87.21	-71.5	-96.2	3.8	14912887	99	62086
2025-01-09 23:48:40.87	243.89	87.06	-71.5	-96.2	3.9	14904411	99	61810
2025-01-09 23:48:41.28	241.09	86.91	-73.0	-97.6	3.8	14913894	99	61367
2025-01-09 23:48:41.70	238.49	86.75	-71.4	-96.2	3.8	14901077	99	62145
2025-01-09 23:48:42.12	236.15	86.58	-71.4	-96.1	3.8	14906768	99	61661
2025-01-09 23:48:42.53	234.07	86.41	-71.4	-96.2	3.8	14909790	99	62123
2025-01-09 23:48:42.95	232.14	86.23	-71.4	-96.1	3.8	14904541	99	62073
2025-01-09 23:48:43.36	230.43	86.05	-71.4	-96.3	3.8	14908622	99	62968
2025-01-09 23:48:43.78	228.83	85.87	-71.5	-96.3	3.8	14907394	99	62844
2025-01-09 23:48:44.19	227.40	85.69	-71.4	-96.2	3.8	14895805	99	62437
2025-01-09 23:48:44.61	226.05	85.50	-71.5	-96.3	3.8	14910385	99	62900
2025-01-09 23:48:45.02	224.85	85.31	-71.5	-96.4	3.8	14901550	99	62843
2025-01-09 23:48:45.44	223.71	85.12	-71.5	-96.3	3.8	14902168	99	62917
2025-01-09 23:48:45.86	222.66	84.92	-71.5	-96.3	3.8	14902168	99	62916
2025-01-09 23:48:46.27	221.71	84.73	-71.4	-96.2	3.8	14903244	99	62783
2025-01-09 23:48:46.69	220.81	84.53	-71.5	-96.3	3.8	14902153	99	62911
2025-01-09 23:48:47.11	219.97	84.33	-71.5	-96.3	3.8	14905166	99	63004
2025-01-09 23:48:47.52	219.21	84.14	-73.8	-98.5	3.8	14897430	99	61932
2025-01-09 23:48:47.94	218.48	83.93	-71.5	-96.3	3.8	14914962	99	62805
2025-01-09 23:48:48.36	217.80	83.73	-71.5	-96.3	3.9	14904228	99	62560
2025-01-09 23:48:48.77	217.17	83.53	-71.5	-96.3	3.8	14912612	99	62870
2025-01-09 23:48:49.19	216.57	83.33	-71.5	-96.3	3.8	14904342	99	62871
2025-01-09 23:48:49.61	216.00	83.13	-71.4	-96.3	3.8	14911872	99	62886
2025-01-09 23:48:50.02	215.48	82.93	-71.5	-96.3	3.9	14899734	99	62666
2025-01-09 23:48:50.44	214.98	82.72	-71.5	-96.3	3.9	14907493	99	62360
2025-01-09 23:48:50.86	214.50	82.52	-71.5	-96.3	3.8	14906890	99	62928
2025-01-09 23:48:51.27	214.07	82.32	-71.5	-96.3	3.8	14911407	99	62901
2025-01-09 23:48:51.69	213.64	82.11	-71.5	-96.3	3.8	14914634	99	62841
2025-01-09 23:48:52.11	213.23	81.90	-71.5	-96.3	3.8	14907508	99	62938
2025-01-09 23:48:52.52	212.86	81.70	-71.4	-96.3	3.8	14914001	99	62850
2025-01-09 23:48:52.94	212.49	81.50	-71.4	-96.3	3.8	14905982	99	62843
2025-01-09 23:48:53.36	212.15	81.29	-71.4	-96.0	3.9	14916603	99	61367
2025-01-09 23:48:53.78	211.82	81.08	-71.4	-96.1	3.8	14896881	99	61604
2025-01-09 23:48:54.19	211.51	80.88	-71.4	-96.1	3.8	14899971	99	61647
2025-01-09 23:48:54.61	211.20	80.67	-71.4	-96.1	3.8	14899971	99	61633
2025-01-09 23:48:55.03	210.92	80.47	-71.4	-96.1	3.8	14924591	99	61304
2025-01-09 23:48:55.44	210.65	80.27	-71.5	-96.2	3.8	14912117	99	61549
2025-01-09 23:48:55.86	210.38	80.06	-71.5	-96.2	3.8	14899505	99	62200
2025-01-09 23:48:56.28	210.13	79.85	-71.5	-96.2	3.8	14901290	99	62207
2025-01-09 23:48:56.69	209.89	79.65	-71.4	-96.2	3.8	14915336	99	62167
2025-01-09 23:48:57.11	209.65	79.44	-71.5	-96.2	3.8	14902938	99	62305
2025-01-09 23:48:57.52	209.44	79.24	-71.5	-96.2	3.8	14896743	99	62079
2025-01-09 23:48:57.94	209.22	79.03	-71.5	-96.2	3.9	14912780	99	61959
2025-01-09 23:48:58.36	209.01	78.83	-71.5	-96.2	3.8	14895446	99	61955
2025-01-09 23:48:58.77	208.82	78.63	-71.4	-96.1	3.8	14906120	99	61945
2025-01-09 23:48:59.19	208.62	78.42	-71.4	-96.1	3.8	14905494	99	61392
2025-01-09 23:48:59.61	208.44	78.21	-71.4	-96.1	3.8	14917930	99	61416
2025-01-09 23:49:00.03	208.26	78.01	-71.1	-95.4	3.8	14899658	99	59144
2025-01-09 23:49:00.44	208.09	77.81	-71.4	-96.1	3.8	14902267	99	61511
2025-01-09 23:49:00.86	207.92	77.60	-71.4	-96.0	3.8	14901962	99	61416
2025-01-09 23:49:01.27	207.76	77.40	-71.4	-96.1	3.8	14914306	99	61627
2025-01-09 23:49:01.69	207.61	77.19	-71.4	-96.1	3.8	14910316	99	61619
2025-01-09 23:49:02.11	207.45	76.99	-71.4	-96.1	3.8	14905563	99	61588
2025-01-09 23:49:02.53	207.31	76.78	-71.5	-96.1	3.8	14916259	99	61670
2025-01-09 23:49:02.94	207.17	76.58	-71.4	-96.1	3.8	14907737	99	61578
2025-01-09 23:49:03.36	207.03	76.38	-71.4	-96.1	3.8	14907737	99	61586
2025-01-09 23:49:03.77	206.90	76.18	-71.4	-96.1	3.8	14906005	99	61624
2025-01-09 23:49:04.19	206.77	75.97	-71.4	-96.2	3.9	14906005	99	62033
2025-01-09 23:49:04.61	206.65	75.77	-71.5	-96.2	3.9	14909721	99	62297
2025-01-09 23:49:05.03	206.52	75.57	-71.5	-96.3	3.8	14901390	99	62532
2025-01-09 23:49:05.44	206.41	75.37	-71.5	-96.3	3.8	14901718	99	62554
2025-01-09 23:49:05.86	206.29	75.16	-71.4	-96.2	3.8	14914932	99	62494
2025-01-09 23:49:06.28	206.18	74.96	-71.5	-96.2	3.8	14909225	99	62339
2025-01-09 23:49:06.70	206.07	74.76	-71.4	-96.1	3.8	14905487	99	61877
2025-01-09 23:49:07.11	205.97	74.56	-71.5	-96.2	3.8	14901504	99	62258
2025-01-09 23:49:07.53	205.87	74.36	-71.5	-96.2	3.9	14915046	99	62368
2025-01-09 23:49:07.94	205.77	74.16	-71.5	-96.2	3.9	14913520	99	62176
2025-01-09 23:49:08.36	205.67	73.96	-71.4	-96.2	3.8	14912422	99	62507
2025-01-09 23:49:08.78	205.58	73.76	-71.3	-96.1	3.8	14906272	99	62365
2025-01-09 23:49:09.20	205.49	73.56	-71.5	-96.3	3.8	14892738	99	62804
2025-01-09 23:49:09.61	205.40	73.36	-71.5	-96.4	3.8	14905128	99	62839
2025-01-09 23:49:10.03	205.31	73.16	-71.5	-96.3	3.8	14899269	99	62637
2025-01-09 23:49:10.44	205.23	72.96	-71.4	-96.2	3.8	14907821	99	62591
2025-01-09 23:49:10.86	205.14	72.76	-71.4	-96.2	3.9	14911117	99	62538
2025-01-09 23:49:11.28	205.06	72.56	-71.5	-96.3	3.8	14907836	99	62871
2025-01-09 23:49:11.70	204.98	72.37	-71.4	-96.3	3.8	14920837	99	62888
2025-01-09 23:49:12.11	204.91	72.17	-71.5	-96.2	3.8	14918624	99	62269
2025-01-09 23:49:12.53	204.83	71.97	-71.4	-96.1	3.9	14903930	99	62001
2025-01-09 23:49:12.95	204.76	71.77	-71.5	-96.1	3.9	14903930	99	61618
2025-01-09 23:49:13.36	204.69	71.58	-71.4	-96.2	3.8	14909255	99	62326
2025-01-09 23:49:13.78	204.62	71.38	-71.4	-96.2	3.9	14910453	99	62121
2025-01-09 23:49:14.20	204.55	71.19	-71.5	-96.2	3.8	14902908	99	62211
2025-01-09 23:49:14.61	204.48	70.99	-71.9	-96.6	3.8	14895935	99	61719
2025-01-09 23:49:15.03	204.41	70.80	-71.5	-96.2	3.8	14911354	99	62418
2025-01-09 23:49:15.44	204.35	70.60	-71.4	-96.2	3.8	14901336	99	62372
2025-01-09 23:49:15.86	204.29	70.41	-71.5	-96.3	3.8	14906440	99	62508
2025-01-09 23:49:16.28	204.23	70.21	-71.5	-96.2	3.8	14899795	99	62334

#Closed at: 2025-01-09 23:49:16