passes_logs/2026/01/27/R3.2S_Murmansk/R3.2S_Murmansk__20260127_001241_KANOPUS-V_5_rec.log

#Pass ID: 20260127_001241_KANOPUS-V 5
#Satellite: KANOPUS-V 5
#Configuration: KANOPUS-V_8320
#almurnet v.1.7.20251203
#Start time: 2026-01-27 00:12:41

#Version: 2.2.20231116
#Station: R3.2S_Murmansk
#Location: 33.079688 lon 68.888172 lat
#TLE: 1 43876U 18111A   26026.53344362  .00004964  00000+0  21063-3 0  9993
#TLE: 2 43876  97.3674 294.8392 0001826  89.2862 270.8585 15.23550007393227

#Time	Az	El	Level	Level2	SNR	BER	BlckErr	Temp	State	Recorded	gain1	gain2
2026-01-27 00:12:41.34	23.97	1.97	-55.1	-64.0	3.8	7.47e-01	0	42	0	0	81	10206
2026-01-27 00:12:44.37	23.74	2.16	-55.1	-63.9	3.8	7.47e-01	0	41	104	0	81	10155
2026-01-27 00:12:47.39	23.51	2.36	-55.1	-64.0	3.8	7.47e-01	0	41	104	0	81	10190
2026-01-27 00:12:50.41	23.27	2.55	-55.3	-64.1	3.8	7.46e-01	0	42	104	0	81	10376
2026-01-27 00:12:53.44	23.02	2.75	-55.2	-64.1	3.8	7.47e-01	0	42	104	0	81	10337
2026-01-27 00:12:56.46	22.78	2.95	-55.2	-64.0	3.8	7.46e-01	0	42	104	0	81	10282
2026-01-27 00:12:59.48	22.52	3.15	-55.1	-63.9	3.8	7.45e-01	0	42	104	0	81	10153
2026-01-27 00:13:02.50	22.27	3.35	-54.9	-63.8	3.8	7.44e-01	0	42	104	0	81	9947
2026-01-27 00:13:05.52	22.00	3.55	-54.7	-63.5	3.8	7.46e-01	0	42	104	0	81	9632
2026-01-27 00:13:08.55	21.74	3.76	-54.1	-62.9	3.8	7.45e-01	0	42	104	0	80	9605
2026-01-27 00:13:11.57	21.47	3.96	-53.3	-62.1	3.8	7.46e-01	0	42	104	0	78	9753
2026-01-27 00:13:14.60	21.19	4.17	-53.3	-62.1	3.8	7.46e-01	0	42	104	0	78	9771
2026-01-27 00:13:17.63	20.90	4.38	-53.2	-62.1	3.8	7.48e-01	0	43	104	0	78	9765
2026-01-27 00:13:20.65	20.62	4.59	-53.2	-62.0	3.8	7.44e-01	0	43	104	0	78	9707
2026-01-27 00:13:23.67	20.32	4.80	-53.2	-62.1	3.8	7.46e-01	0	43	104	0	78	9739
2026-01-27 00:13:26.69	20.02	5.02	-53.2	-62.1	3.8	7.44e-01	0	43	104	0	78	9733
2026-01-27 00:13:29.71	19.72	5.23	-53.3	-62.1	3.8	7.44e-01	0	43	104	0	78	9757
2026-01-27 00:13:32.73	19.41	5.45	-53.3	-62.2	3.8	7.45e-01	0	43	104	0	78	9861
2026-01-27 00:13:35.76	19.09	5.67	-53.2	-62.1	3.8	7.44e-01	0	43	104	0	78	9731
2026-01-27 00:13:38.78	18.77	5.89	-53.5	-62.3	3.8	7.46e-01	0	43	104	0	78	10026
2026-01-27 00:13:41.81	18.44	6.11	-53.4	-62.2	3.8	7.44e-01	0	43	104	0	78	9884
2026-01-27 00:13:44.82	18.10	6.34	-53.5	-62.3	3.8	7.44e-01	0	43	104	0	78	10001
2026-01-27 00:13:47.84	17.76	6.56	-53.4	-62.2	3.8	7.45e-01	0	43	104	0	78	9907
2026-01-27 00:13:50.86	17.41	6.79	-53.6	-62.4	3.8	7.43e-01	0	43	104	0	78	10175
2026-01-27 00:13:53.89	17.05	7.02	-53.5	-62.3	3.8	7.46e-01	0	43	104	0	78	10043
2026-01-27 00:13:56.91	16.68	7.25	-53.6	-62.5	3.8	7.44e-01	0	43	104	0	78	10204
2026-01-27 00:13:59.93	16.31	7.49	-53.6	-62.4	3.8	7.43e-01	0	43	104	0	78	10136
2026-01-27 00:14:02.96	15.93	7.72	-53.7	-62.6	3.8	7.46e-01	0	43	104	0	78	10343
2026-01-27 00:14:05.98	15.54	7.96	-53.6	-62.5	3.8	7.46e-01	0	43	104	0	78	10216
2026-01-27 00:14:09.00	15.14	8.20	-53.7	-62.5	3.8	7.45e-01	0	43	104	0	78	10246
2026-01-27 00:14:12.02	14.74	8.44	-53.7	-62.5	3.8	7.45e-01	0	43	104	0	78	10231
2026-01-27 00:14:15.04	14.32	8.69	-53.8	-62.6	3.8	7.44e-01	0	43	104	0	78	10410
2026-01-27 00:14:18.05	13.90	8.93	-53.7	-62.6	3.8	7.45e-01	0	43	104	0	78	10300
2026-01-27 00:14:21.07	13.47	9.18	-53.8	-62.6	3.8	7.46e-01	0	43	104	0	78	10402
2026-01-27 00:14:24.10	13.02	9.43	-53.8	-62.6	3.8	7.47e-01	0	43	104	0	78	10294
2026-01-27 00:14:27.12	12.57	9.68	-53.9	-62.7	3.8	7.45e-01	0	43	104	0	78	10490
2026-01-27 00:14:30.14	12.11	9.93	-53.8	-62.6	3.8	7.46e-01	0	43	104	0	78	10376
2026-01-27 00:14:33.17	11.64	10.19	-53.9	-62.7	3.8	7.45e-01	0	43	104	0	78	10463
2026-01-27 00:14:36.19	11.15	10.44	-53.9	-62.7	3.8	7.44e-01	0	44	104	0	78	10500
2026-01-27 00:14:39.22	10.66	10.70	-53.9	-62.8	3.8	7.46e-01	0	44	104	0	78	10578
2026-01-27 00:14:42.24	10.16	10.97	-53.9	-62.7	3.8	7.46e-01	0	43	104	0	78	10494
2026-01-27 00:14:45.26	9.64	11.23	-53.9	-62.8	3.8	7.46e-01	0	43	104	0	78	10548
2026-01-27 00:14:48.29	9.11	11.49	-53.9	-62.7	3.8	7.47e-01	0	43	104	0	78	10516
2026-01-27 00:14:51.32	8.57	11.76	-54.0	-62.8	3.8	7.44e-01	0	44	104	0	78	10628
2026-01-27 00:14:54.34	8.02	12.03	-54.0	-62.8	3.8	7.44e-01	0	44	104	0	78	10568
2026-01-27 00:14:57.36	7.45	12.30	-54.0	-62.9	3.8	7.46e-01	0	43	104	0	78	10700
2026-01-27 00:15:00.39	6.87	12.57	-54.0	-62.8	3.8	7.44e-01	0	44	104	0	78	10638
2026-01-27 00:15:03.41	6.28	12.84	-54.1	-62.9	3.8	7.45e-01	0	43	104	0	78	10718
2026-01-27 00:15:06.43	5.68	13.12	-54.0	-62.8	3.8	7.45e-01	0	44	104	0	78	10645
2026-01-27 00:15:09.45	5.06	13.39	-54.1	-62.9	3.8	7.45e-01	0	44	104	0	78	10721
2026-01-27 00:15:12.48	4.43	13.67	-54.1	-62.9	3.8	7.45e-01	0	43	104	0	78	10687
2026-01-27 00:15:15.50	3.78	13.95	-54.1	-62.9	3.8	7.45e-01	0	43	104	0	78	10777
2026-01-27 00:15:18.53	3.11	14.22	-54.1	-62.9	3.8	7.45e-01	0	44	104	0	78	10758
2026-01-27 00:15:21.55	2.44	14.50	-54.1	-62.9	3.8	7.45e-01	0	43	104	0	78	10776
2026-01-27 00:15:24.58	1.74	14.78	-54.1	-62.9	3.8	7.43e-01	0	44	104	0	78	10740
2026-01-27 00:15:27.61	1.03	15.07	-54.2	-63.0	3.8	7.46e-01	0	44	104	0	78	10808
2026-01-27 00:15:30.63	0.31	15.35	-54.2	-63.0	3.8	7.46e-01	0	44	104	0	78	10815
2026-01-27 00:15:33.65	359.56	15.63	-54.2	-63.0	3.8	7.45e-01	0	44	104	0	78	10803
2026-01-27 00:15:36.67	358.81	15.91	-54.2	-63.0	3.8	7.44e-01	0	44	104	0	78	10827
2026-01-27 00:15:39.70	358.03	16.19	-54.2	-63.0	3.8	7.47e-01	0	44	104	0	79	10270
2026-01-27 00:15:42.72	357.23	16.47	-54.2	-63.1	3.8	7.44e-01	0	44	104	0	79	10317
2026-01-27 00:15:45.74	356.42	16.75	-54.2	-63.0	3.8	7.45e-01	0	44	104	0	79	10274
2026-01-27 00:15:48.75	355.60	17.02	-54.2	-63.0	3.8	7.44e-01	0	44	104	0	79	10289
2026-01-27 00:15:51.78	354.75	17.30	-54.2	-63.1	3.8	7.45e-01	0	44	104	0	79	10314
2026-01-27 00:15:54.81	353.88	17.58	-54.3	-63.1	3.8	7.46e-01	0	44	104	0	79	10330
2026-01-27 00:15:57.82	352.99	17.85	-54.2	-63.1	3.8	7.45e-01	0	44	104	0	79	10344
2026-01-27 00:16:00.84	352.09	18.12	-54.3	-63.1	3.8	7.46e-01	0	44	104	0	79	10383
2026-01-27 00:16:03.87	351.17	18.39	-54.3	-63.1	3.8	7.45e-01	0	44	104	0	79	10323
2026-01-27 00:16:06.90	350.22	18.65	-54.3	-63.1	3.8	7.47e-01	0	44	104	0	79	10390
2026-01-27 00:16:09.92	349.26	18.91	-54.3	-63.1	3.8	7.46e-01	0	44	104	0	79	10368
2026-01-27 00:16:12.94	348.28	19.17	-54.3	-63.2	3.8	7.46e-01	0	44	104	0	79	10428
2026-01-27 00:16:15.96	347.28	19.42	-54.3	-63.1	3.8	7.46e-01	0	44	104	0	79	10400
2026-01-27 00:16:18.99	346.26	19.66	-54.4	-63.2	3.8	7.48e-01	0	44	104	0	79	10458
2026-01-27 00:16:22.02	345.22	19.91	-54.3	-63.2	3.8	7.46e-01	0	44	104	0	79	10430
2026-01-27 00:16:25.03	344.17	20.14	-54.4	-63.2	3.8	7.44e-01	0	44	104	0	79	10455
2026-01-27 00:16:28.06	343.09	20.37	-54.4	-63.2	3.8	7.44e-01	0	44	104	0	79	10432
2026-01-27 00:16:31.08	341.99	20.59	-54.4	-63.2	3.8	7.46e-01	0	44	104	0	79	10493
2026-01-27 00:16:34.10	340.88	20.80	-54.4	-63.2	3.8	7.46e-01	0	44	104	0	79	10475
2026-01-27 00:16:37.12	339.75	21.01	-54.4	-63.2	3.8	7.44e-01	0	44	104	0	79	10519
2026-01-27 00:16:40.15	338.60	21.21	-54.4	-63.2	3.8	7.44e-01	0	44	104	0	79	10467
2026-01-27 00:16:43.17	337.44	21.39	-54.5	-63.3	3.8	7.46e-01	0	44	104	0	79	10550
2026-01-27 00:16:46.19	336.26	21.57	-54.4	-63.2	3.8	7.45e-01	0	44	104	0	79	10502
2026-01-27 00:16:49.21	335.07	21.74	-54.5	-63.3	3.8	7.45e-01	0	44	104	0	79	10550
2026-01-27 00:16:52.24	333.86	21.89	-54.5	-63.3	3.8	7.45e-01	0	44	104	0	79	10581
2026-01-27 00:16:55.27	332.63	22.04	-54.5	-63.3	3.8	7.44e-01	0	44	104	0	79	10629
2026-01-27 00:16:58.29	331.40	22.17	-54.5	-63.3	3.8	7.47e-01	0	44	104	0	79	10612
2026-01-27 00:17:01.31	330.15	22.30	-54.5	-63.3	3.8	7.44e-01	0	44	104	0	79	10615
2026-01-27 00:17:04.34	328.89	22.41	-54.5	-63.3	3.8	7.45e-01	0	44	104	0	79	10607
2026-01-27 00:17:07.37	327.62	22.50	-54.5	-63.4	3.8	7.45e-01	0	44	104	0	79	10656
2026-01-27 00:17:10.39	326.35	22.59	-54.5	-63.3	3.8	7.43e-01	0	44	104	0	79	10631
2026-01-27 00:17:13.41	325.07	22.66	-54.6	-63.4	3.8	7.44e-01	0	44	104	0	79	10718
2026-01-27 00:17:16.43	323.78	22.71	-54.6	-63.4	3.8	7.44e-01	0	44	104	0	79	10715
2026-01-27 00:17:19.46	322.48	22.75	-54.6	-63.5	3.8	7.45e-01	0	44	104	0	79	10785
2026-01-27 00:17:22.48	321.19	22.78	-54.6	-63.4	3.8	7.44e-01	0	44	104	0	79	10737
2026-01-27 00:17:25.50	319.89	22.80	-54.6	-63.4	3.8	7.44e-01	0	44	104	0	79	10750
2026-01-27 00:17:28.53	318.59	22.80	-54.6	-63.5	3.8	7.43e-01	0	44	104	0	79	10782
2026-01-27 00:17:31.55	317.29	22.78	-54.7	-63.5	3.8	7.44e-01	0	44	104	0	79	10831
2026-01-27 00:17:34.58	315.99	22.75	-54.7	-63.5	3.8	7.45e-01	0	44	104	0	79	10843
2026-01-27 00:17:37.60	314.70	22.71	-54.7	-63.5	3.8	7.46e-01	0	44	104	0	79	10810
2026-01-27 00:17:40.63	313.40	22.65	-54.7	-63.5	3.8	7.46e-01	0	44	104	0	79	10833
2026-01-27 00:17:43.65	312.12	22.58	-54.7	-63.5	3.8	7.44e-01	0	44	104	0	79	10874
2026-01-27 00:17:46.67	310.85	22.50	-54.7	-63.5	3.8	7.45e-01	0	44	104	0	80	10211
2026-01-27 00:17:49.70	309.57	22.40	-54.7	-63.5	3.8	7.44e-01	0	44	104	0	80	10227
2026-01-27 00:17:52.73	308.31	22.29	-54.7	-63.5	3.8	7.45e-01	0	44	104	0	80	10268
2026-01-27 00:17:55.75	307.07	22.17	-54.7	-63.5	3.8	7.44e-01	0	44	104	0	80	10222
2026-01-27 00:17:58.78	305.83	22.03	-54.7	-63.5	3.8	7.44e-01	0	44	104	0	80	10260
2026-01-27 00:18:01.80	304.61	21.88	-54.7	-63.5	3.8	7.44e-01	0	44	104	0	80	10257
2026-01-27 00:18:04.83	303.39	21.73	-54.7	-63.5	3.8	7.44e-01	0	44	104	0	80	10293
2026-01-27 00:18:07.85	302.20	21.56	-54.7	-63.5	3.8	7.47e-01	0	44	104	0	80	10259
2026-01-27 00:18:10.87	301.02	21.38	-54.8	-63.6	3.8	7.45e-01	0	44	104	0	80	10313
2026-01-27 00:18:13.90	299.85	21.19	-54.7	-63.6	3.8	7.45e-01	0	44	104	0	80	10325
2026-01-27 00:18:16.92	298.70	20.99	-54.8	-63.6	3.8	7.46e-01	0	44	104	0	80	10358
2026-01-27 00:18:19.95	297.57	20.79	-54.7	-63.6	3.8	7.44e-01	0	44	104	0	80	10314
2026-01-27 00:18:22.98	296.45	20.57	-54.8	-63.7	3.8	7.43e-01	0	44	104	0	80	10423
2026-01-27 00:18:26.01	295.36	20.35	-54.8	-63.6	3.8	7.45e-01	0	44	104	0	80	10365
2026-01-27 00:18:29.03	294.28	20.12	-54.8	-63.6	3.8	7.45e-01	0	44	104	0	80	10407
2026-01-27 00:18:32.05	293.22	19.88	-54.8	-63.6	3.8	7.44e-01	0	44	104	0	80	10374
2026-01-27 00:18:35.08	292.18	19.64	-54.8	-63.6	3.8	7.46e-01	0	44	104	0	80	10406
2026-01-27 00:18:38.11	291.16	19.39	-54.8	-63.6	3.8	7.44e-01	0	44	104	0	80	10389
2026-01-27 00:18:41.12	290.16	19.14	-54.8	-63.6	3.8	7.45e-01	0	44	104	0	80	10394
2026-01-27 00:18:44.15	289.17	18.88	-54.8	-63.6	3.8	7.45e-01	0	44	104	0	80	10393
2026-01-27 00:18:47.18	288.21	18.62	-54.8	-63.6	3.8	7.45e-01	0	44	104	0	80	10370
2026-01-27 00:18:50.21	287.26	18.36	-54.7	-63.6	3.8	7.45e-01	0	44	104	0	80	10304
2026-01-27 00:18:53.23	286.34	18.09	-54.7	-63.5	3.8	7.46e-01	0	44	104	0	80	10268
2026-01-27 00:18:56.25	285.43	17.82	-54.6	-63.5	3.8	7.44e-01	0	44	104	0	80	10211
2026-01-27 00:18:59.27	284.55	17.54	-54.6	-63.4	3.8	7.46e-01	0	44	104	0	80	10155
2026-01-27 00:19:02.29	283.68	17.27	-54.6	-63.4	3.8	7.43e-01	0	44	104	0	80	10144
2026-01-27 00:19:05.32	282.83	16.99	-54.5	-63.3	3.8	7.45e-01	0	44	104	0	80	10058
2026-01-27 00:19:08.34	282.00	16.71	-54.5	-63.4	3.8	7.46e-01	0	44	104	0	80	10081
2026-01-27 00:19:11.36	281.19	16.43	-54.5	-63.3	3.8	7.45e-01	0	44	104	0	80	10055
2026-01-27 00:19:14.39	280.39	16.15	-54.5	-63.3	3.8	7.46e-01	0	44	104	0	80	10017
2026-01-27 00:19:17.40	279.61	15.87	-54.4	-63.3	3.8	7.45e-01	0	44	104	0	80	9948
2026-01-27 00:19:20.43	278.85	15.59	-54.4	-63.3	3.8	7.45e-01	0	44	104	0	80	9954
2026-01-27 00:19:23.45	278.11	15.30	-54.4	-63.2	3.8	7.45e-01	0	44	104	0	80	9943
2026-01-27 00:19:26.48	277.38	15.02	-54.4	-63.2	3.8	7.45e-01	0	44	104	0	80	9887
2026-01-27 00:19:29.50	276.67	14.74	-54.4	-63.2	3.8	7.47e-01	0	44	104	0	80	9871
2026-01-27 00:19:32.53	275.97	14.46	-54.3	-63.1	3.8	7.44e-01	0	44	104	0	80	9829
2026-01-27 00:19:35.56	275.29	14.18	-54.3	-63.1	3.8	7.43e-01	0	44	104	0	80	9827
2026-01-27 00:19:38.59	274.63	13.90	-54.3	-63.1	3.8	7.45e-01	0	44	104	0	80	9764
2026-01-27 00:19:41.61	273.98	13.62	-54.3	-63.1	3.8	7.48e-01	0	44	104	0	80	9757
2026-01-27 00:19:44.64	273.34	13.34	-54.2	-63.1	3.8	7.46e-01	0	44	104	0	80	9726
2026-01-27 00:19:47.66	272.72	13.07	-54.2	-63.1	3.8	7.44e-01	0	44	104	0	80	9727
2026-01-27 00:19:50.69	272.11	12.79	-54.2	-63.0	3.8	7.45e-01	0	44	104	0	80	9708
2026-01-27 00:19:53.71	271.52	12.52	-54.2	-63.0	3.8	7.45e-01	0	44	104	0	80	9666
2026-01-27 00:19:56.73	270.94	12.24	-54.1	-62.9	3.8	7.44e-01	0	44	104	0	80	9591
2026-01-27 00:19:59.76	270.38	11.97	-54.1	-62.9	3.8	7.46e-01	0	44	104	0	80	9592
2026-01-27 00:20:02.78	269.82	11.70	-54.1	-62.9	3.8	7.45e-01	0	44	104	0	80	9577
2026-01-27 00:20:05.81	269.28	11.44	-54.1	-62.9	3.8	7.45e-01	0	44	104	0	79	10139
2026-01-27 00:20:08.83	268.75	11.17	-53.9	-62.8	3.8	7.45e-01	0	44	104	0	79	9995
2026-01-27 00:20:11.86	268.23	10.91	-53.8	-62.6	3.8	7.45e-01	0	44	104	0	79	9773
2026-01-27 00:20:14.89	267.73	10.65	-54.0	-62.8	3.8	7.46e-01	0	44	104	0	79	10017
2026-01-27 00:20:17.91	267.23	10.39	-53.7	-62.6	3.8	7.44e-01	0	44	104	0	78	10334
2026-01-27 00:20:20.94	266.75	10.13	-53.9	-62.7	3.8	7.45e-01	0	44	104	0	78	10517
2026-01-27 00:20:23.97	266.27	9.87	-53.9	-62.7	3.8	7.46e-01	0	44	104	0	78	10483
2026-01-27 00:20:27.00	265.81	9.62	-54.0	-62.8	3.8	7.44e-01	0	44	104	0	78	10600
2026-01-27 00:20:30.02	265.35	9.36	-53.9	-62.8	3.8	7.45e-01	0	44	104	0	78	10537
2026-01-27 00:20:33.04	264.91	9.11	-53.9	-62.7	3.8	7.44e-01	0	44	104	0	78	10504
2026-01-27 00:20:36.07	264.48	8.87	-53.8	-62.7	3.8	7.45e-01	0	44	104	0	78	10449
2026-01-27 00:20:39.09	264.05	8.62	-53.9	-62.7	3.8	7.45e-01	0	44	104	0	78	10479
2026-01-27 00:20:42.11	263.64	8.38	-53.8	-62.7	3.8	7.46e-01	0	44	104	0	78	10414
2026-01-27 00:20:45.14	263.23	8.13	-53.8	-62.6	3.8	7.45e-01	0	44	104	0	78	10371
2026-01-27 00:20:48.17	262.83	7.89	-53.7	-62.6	3.8	7.46e-01	0	44	104	0	78	10299
2026-01-27 00:20:51.19	262.44	7.65	-53.8	-62.6	3.8	7.46e-01	0	44	104	0	78	10375
2026-01-27 00:20:54.21	262.06	7.42	-53.7	-62.6	3.8	7.45e-01	0	44	104	0	78	10332
2026-01-27 00:20:57.23	261.68	7.18	-53.7	-62.5	3.8	7.46e-01	0	44	104	0	78	10248
2026-01-27 00:21:00.27	261.31	6.95	-53.6	-62.5	3.8	7.45e-01	0	44	104	0	78	10180
2026-01-27 00:21:03.28	260.96	6.72	-53.7	-62.5	3.8	7.45e-01	0	44	104	0	78	10263
2026-01-27 00:21:06.30	260.60	6.49	-53.6	-62.4	3.8	7.44e-01	0	44	104	0	78	10175
2026-01-27 00:21:09.32	260.26	6.27	-53.6	-62.4	3.8	7.44e-01	0	44	104	0	78	10101
2026-01-27 00:21:12.34	259.92	6.04	-53.5	-62.3	3.8	7.46e-01	0	44	104	0	78	10019
2026-01-27 00:21:15.37	259.59	5.82	-53.5	-62.3	3.8	7.46e-01	0	44	104	0	78	10054
2026-01-27 00:21:18.39	259.26	5.60	-53.5	-62.3	3.8	7.46e-01	0	44	104	0	78	10026
2026-01-27 00:21:21.41	258.95	5.38	-53.4	-62.2	3.8	7.46e-01	0	44	104	0	78	9939
2026-01-27 00:21:24.44	258.63	5.16	-53.3	-62.1	3.8	7.45e-01	0	44	104	0	78	9806
2026-01-27 00:21:27.46	258.33	4.94	-53.6	-62.4	3.8	7.45e-01	0	44	104	0	78	10148
2026-01-27 00:21:30.48	258.03	4.73	-53.8	-62.7	3.8	7.46e-01	0	44	104	0	78	10423
2026-01-27 00:21:33.51	257.73	4.51	-53.8	-62.7	3.8	7.46e-01	0	44	104	0	78	10459
2026-01-27 00:21:36.53	257.44	4.30	-54.0	-62.8	3.8	7.45e-01	0	44	104	0	78	10596
2026-01-27 00:21:39.56	257.16	4.09	-54.2	-63.0	3.8	7.44e-01	0	44	104	0	78	10832
2026-01-27 00:21:42.58	256.88	3.89	-54.3	-63.1	3.8	7.45e-01	0	44	104	0	79	10366
2026-01-27 00:21:45.61	256.61	3.68	-54.4	-63.3	3.8	7.47e-01	0	44	104	0	79	10555
2026-01-27 00:21:48.64	256.34	3.47	-54.5	-63.3	3.8	7.44e-01	0	44	104	0	79	10602
2026-01-27 00:21:51.66	256.07	3.27	-54.4	-63.3	3.8	7.44e-01	0	44	104	0	79	10611
2026-01-27 00:21:54.69	255.81	3.07	-54.4	-63.3	3.8	7.46e-01	0	44	104	0	79	10541
2026-01-27 00:21:57.71	255.56	2.87	-54.4	-63.3	3.8	7.44e-01	0	44	104	0	79	10539
2026-01-27 00:22:00.73	255.31	2.67	-54.4	-63.3	3.8	7.44e-01	0	44	104	0	79	10538
2026-01-27 00:22:03.76	255.07	2.47	-54.4	-63.2	3.8	7.45e-01	0	44	104	0	79	10524
2026-01-27 00:22:06.79	254.82	2.28	-54.4	-63.2	3.8	7.47e-01	0	44	104	0	79	10488
2026-01-27 00:22:09.82	254.59	2.08	-54.4	-63.3	3.8	7.45e-01	0	44	104	0	79	10534
2026-01-27 00:22:12.83	254.36	1.89	-54.4	-63.2	3.8	7.44e-01	0	44	104	0	79	10511

#Closed at: 2026-01-27 00:22:13
#Recorded file [0 MB]: D:/lorett/data/31041_260127_031241.dat