passes_logs/2026/01/27/R3.2S_Murmansk/R3.2S_Murmansk__20260127_210649_SUOMI_NPP_rec.log

#Pass ID: 20260127_210649_SUOMI NPP
#Satellite: SUOMI NPP
#Configuration: NPP
#almurnet v.1.7.20251203
#Start time: 2026-01-27 21:06:49

#Version: 2.2.20231116
#Station: R3.2S_Murmansk
#Location: 33.079688 lon 68.888172 lat
#TLE: 1 37849U 11061A   26027.29799992  .00000188  00000+0  11027-3 0  9993
#TLE: 2 37849  98.7822 329.2414 0002113  42.5791 317.5548 14.19530708738457

#Time	Az	El	Level	Level2	SNR	BER	BlckErr	Temp	State	Recorded	gain1	gain2
2026-01-27 21:06:49.70	18.73	2.00	-51.9	-66.9	3.8	1.49e+00	0	41	0	0	75	20073
2026-01-27 21:06:52.72	19.04	2.12	-51.9	-66.9	3.8	1.49e+00	0	41	104	0	74	21332
2026-01-27 21:06:55.74	19.36	2.25	-51.9	-66.9	3.8	1.49e+00	0	41	104	0	74	21282
2026-01-27 21:06:58.75	19.68	2.37	-51.9	-66.8	3.8	1.49e+00	0	42	104	0	74	21222
2026-01-27 21:07:01.78	20.01	2.49	-51.9	-66.8	3.8	1.49e+00	0	42	104	0	74	21196
2026-01-27 21:07:04.81	20.33	2.62	-51.9	-66.8	3.8	1.49e+00	0	42	104	0	74	21039
2026-01-27 21:07:07.83	20.66	2.74	-51.9	-66.7	3.8	1.49e+00	0	42	104	0	74	20822
2026-01-27 21:07:10.85	20.99	2.86	-51.9	-66.6	3.8	1.49e+00	0	42	104	0	74	20640
2026-01-27 21:07:13.88	21.33	2.99	-51.9	-66.5	3.8	1.49e+00	0	42	104	0	74	20339
2026-01-27 21:07:16.91	21.67	3.11	-51.9	-66.4	3.8	1.49e+00	0	42	104	0	74	20286
2026-01-27 21:07:19.93	22.01	3.23	-51.9	-66.4	3.8	1.49e+00	0	42	104	0	74	20299
2026-01-27 21:07:22.96	22.35	3.35	-51.9	-66.6	3.8	1.49e+00	0	42	104	0	74	20611
2026-01-27 21:07:25.98	22.69	3.48	-51.9	-66.6	3.8	1.49e+00	0	42	104	0	74	20693
2026-01-27 21:07:29.01	23.04	3.60	-51.9	-66.6	3.8	1.49e+00	0	42	104	0	74	20695
2026-01-27 21:07:32.03	23.39	3.72	-51.9	-66.8	3.8	1.49e+00	0	42	104	0	74	21037
2026-01-27 21:07:35.05	23.74	3.84	-51.9	-66.9	3.8	1.49e+00	0	42	104	0	74	21271
2026-01-27 21:07:38.07	24.10	3.96	-51.9	-66.8	3.8	1.49e+00	0	43	104	0	74	21168
2026-01-27 21:07:41.09	24.46	4.08	-51.9	-66.8	3.8	1.49e+00	0	42	104	0	74	21032
2026-01-27 21:07:44.12	24.82	4.20	-51.9	-66.8	3.8	1.49e+00	0	42	104	0	74	21130
2026-01-27 21:07:47.14	25.18	4.32	-51.9	-66.5	3.8	1.49e+00	0	43	104	0	74	20311
2026-01-27 21:07:50.16	25.55	4.44	-51.8	-64.5	3.8	1.49e+00	0	43	104	0	74	16292
2026-01-27 21:07:53.18	25.92	4.56	-51.6	-61.7	4.8	9.53e-01	0	43	0	2097152	74	11723
2026-01-27 21:07:56.21	26.29	4.68	-51.0	-58.1	7.4	2.35e-01	0	43	0	8388608	74	7784
2026-01-27 21:07:59.24	26.67	4.79	-50.3	-55.5	10.1	1.03e-02	0	43	0	13631488	72	6471
2026-01-27 21:08:02.27	27.05	4.91	-50.3	-55.6	10.1	4.19e-03	0	43	0	18874368	72	6538
2026-01-27 21:08:05.30	27.43	5.03	-50.6	-56.3	8.8	4.08e-01	0	43	0	25165824	73	6692
2026-01-27 21:08:08.33	27.82	5.14	-48.4	-51.1	14.7	8.34e-04	0	43	0	27262976	68	4904
2026-01-27 21:08:11.34	28.21	5.26	-47.2	-49.3	16.7	0.00e+00	0	43	0	33554432	66	4454
2026-01-27 21:08:14.36	28.60	5.38	-47.2	-49.3	16.7	0.00e+00	0	43	0	38797312	66	4472
2026-01-27 21:08:17.38	28.99	5.49	-47.2	-49.4	16.6	0.00e+00	0	43	0	44040192	66	4497
2026-01-27 21:08:20.41	29.39	5.60	-47.4	-49.5	16.4	0.00e+00	0	43	0	50331648	66	4593
2026-01-27 21:08:23.43	29.78	5.72	-47.6	-49.9	16.2	0.00e+00	0	43	0	55574528	66	4786
2026-01-27 21:08:26.46	30.19	5.83	-47.5	-49.7	16.3	0.00e+00	0	43	0	61865984	66	4697
2026-01-27 21:08:29.48	30.59	5.94	-47.4	-49.6	16.5	0.00e+00	0	43	0	67108864	66	4627
2026-01-27 21:08:32.50	31.00	6.05	-47.4	-49.6	16.5	0.00e+00	0	43	0	73400320	66	4630
2026-01-27 21:08:35.53	31.41	6.16	-47.7	-50.0	16.0	0.00e+00	0	43	0	78643200	66	4827
2026-01-27 21:08:38.55	31.83	6.27	-47.8	-50.2	15.8	0.00e+00	0	43	0	83886080	66	4975
2026-01-27 21:08:41.58	32.25	6.38	-47.9	-50.3	15.8	0.00e+00	0	43	0	90177536	66	4992
2026-01-27 21:08:44.60	32.67	6.49	-47.6	-49.9	16.2	0.00e+00	0	43	0	95420416	66	4765
2026-01-27 21:08:47.62	33.09	6.60	-47.4	-49.6	16.5	0.00e+00	0	43	0	101711872	66	4630
2026-01-27 21:08:50.64	33.52	6.70	-47.5	-49.8	16.3	0.00e+00	0	43	0	106954752	66	4728
2026-01-27 21:08:53.66	33.94	6.81	-47.5	-49.7	16.4	0.00e+00	0	43	0	112197632	66	4692
2026-01-27 21:08:56.64	34.37	6.91	-47.7	-50.0	16.1	0.00e+00	0	43	0	118489088	66	4854
2026-01-27 21:08:59.58	34.79	7.01	-47.7	-49.9	16.2	0.00e+00	0	44	0	123731968	66	4787
2026-01-27 21:09:02.48	35.21	7.11	-47.6	-49.8	16.4	0.00e+00	0	43	0	128974848	66	4708
2026-01-27 21:09:05.38	35.64	7.21	-47.6	-49.8	16.4	0.00e+00	0	43	0	134217728	66	4737
2026-01-27 21:09:08.30	36.07	7.31	-47.6	-49.8	16.4	0.00e+00	0	43	0	139460608	66	4753
2026-01-27 21:09:11.20	36.49	7.40	-47.8	-50.0	16.2	0.00e+00	0	43	0	145752064	66	4860
2026-01-27 21:09:14.11	36.93	7.50	-47.6	-49.8	16.3	0.00e+00	0	43	0	150994944	66	4736
2026-01-27 21:09:17.01	37.36	7.59	-47.6	-49.9	16.4	0.00e+00	0	43	0	156237824	66	4761
2026-01-27 21:09:19.92	37.80	7.69	-47.5	-49.7	16.7	0.00e+00	0	43	0	161480704	66	4657
2026-01-27 21:09:22.82	38.24	7.78	-47.6	-49.8	16.5	0.00e+00	0	43	0	167772160	66	4726
2026-01-27 21:09:25.73	38.68	7.87	-47.8	-50.0	16.2	0.00e+00	0	43	0	173015040	66	4867
2026-01-27 21:09:28.63	39.13	7.96	-48.0	-50.3	16.0	0.00e+00	0	43	0	178257920	66	5019
2026-01-27 21:09:31.54	39.58	8.05	-47.6	-49.8	16.5	0.00e+00	0	43	0	183500800	66	4733
2026-01-27 21:09:34.45	40.03	8.13	-47.5	-49.6	16.8	0.00e+00	0	43	0	188743680	66	4634
2026-01-27 21:09:37.35	40.48	8.22	-47.3	-49.4	16.9	0.00e+00	0	43	0	193986560	66	4510
2026-01-27 21:09:40.26	40.94	8.30	-47.7	-49.9	16.4	0.00e+00	0	43	0	200278016	66	4790
2026-01-27 21:09:43.16	41.40	8.39	-48.1	-50.5	15.9	0.00e+00	0	43	0	205520896	66	5125
2026-01-27 21:09:46.07	41.86	8.47	-48.1	-50.4	16.0	0.00e+00	0	43	0	210763776	66	5085
2026-01-27 21:09:48.97	42.32	8.55	-48.0	-50.3	16.1	0.00e+00	0	43	0	216006656	66	5015
2026-01-27 21:09:51.88	42.79	8.63	-47.9	-50.2	16.1	0.00e+00	0	43	0	221249536	66	4980
2026-01-27 21:09:54.79	43.26	8.71	-47.5	-49.6	16.8	0.00e+00	0	43	0	227540992	66	4610
2026-01-27 21:09:57.69	43.73	8.79	-47.3	-49.3	17.0	0.00e+00	0	43	0	232783872	66	4488
2026-01-27 21:10:00.60	44.20	8.86	-47.3	-49.3	17.0	0.00e+00	0	43	0	238026752	66	4489
2026-01-27 21:10:03.50	44.68	8.94	-47.8	-50.0	16.4	0.00e+00	0	43	0	243269632	66	4848
2026-01-27 21:10:06.41	45.15	9.01	-48.4	-51.0	15.4	0.00e+00	0	43	0	248512512	67	5136
2026-01-27 21:10:09.31	45.63	9.08	-48.6	-51.2	15.2	0.00e+00	0	43	0	254803968	67	5264
2026-01-27 21:10:12.22	46.12	9.15	-47.9	-50.1	16.3	0.00e+00	0	43	0	260046848	67	4645
2026-01-27 21:10:15.13	46.60	9.22	-47.4	-49.4	17.0	0.00e+00	0	43	0	265289728	66	4524
2026-01-27 21:10:18.04	47.09	9.28	-47.5	-49.7	16.8	0.00e+00	0	43	0	270532608	66	4656
2026-01-27 21:10:20.94	47.58	9.35	-47.3	-49.3	17.2	0.00e+00	0	43	0	275775488	66	4467
2026-01-27 21:10:23.84	48.07	9.41	-47.1	-49.0	17.4	0.00e+00	0	43	0	282066944	65	4552
2026-01-27 21:10:26.75	48.56	9.47	-47.1	-49.1	17.3	0.00e+00	0	43	0	287309824	65	4615
2026-01-27 21:10:29.66	49.06	9.53	-47.8	-50.0	16.5	0.00e+00	0	43	0	292552704	66	4840
2026-01-27 21:10:32.56	49.56	9.59	-47.4	-49.4	16.9	0.00e+00	0	43	0	297795584	66	4543
2026-01-27 21:10:35.46	50.05	9.64	-46.9	-48.7	17.7	0.00e+00	0	43	0	303038464	65	4422
2026-01-27 21:10:38.36	50.55	9.70	-47.4	-49.5	17.0	0.00e+00	0	43	0	309329920	65	4818
2026-01-27 21:10:41.27	51.06	9.75	-47.6	-49.7	16.8	0.00e+00	0	43	0	314572800	65	4939
2026-01-27 21:10:44.17	51.56	9.80	-46.9	-48.8	17.6	0.00e+00	0	43	0	319815680	65	4447
2026-01-27 21:10:47.07	52.07	9.85	-46.8	-48.6	17.7	0.00e+00	0	43	0	325058560	65	4387
2026-01-27 21:10:49.98	52.57	9.90	-47.1	-49.1	17.4	0.00e+00	0	43	0	330301440	65	4619
2026-01-27 21:10:52.89	53.08	9.94	-47.3	-49.3	17.1	0.00e+00	0	43	0	335544320	65	4727
2026-01-27 21:10:55.79	53.59	9.99	-47.3	-49.3	17.0	0.00e+00	0	43	0	341835776	65	4749
2026-01-27 21:10:58.70	54.11	10.03	-48.4	-50.9	15.6	0.00e+00	0	43	0	347078656	67	5089
2026-01-27 21:11:01.61	54.62	10.07	-49.0	-51.9	14.7	0.00e+00	0	43	0	352321536	68	5359
2026-01-27 21:11:04.52	55.14	10.10	-48.6	-51.2	15.3	0.00e+00	0	43	0	357564416	68	4954
2026-01-27 21:11:07.42	55.65	10.14	-48.4	-50.8	15.8	0.00e+00	0	43	0	363855872	68	4730
2026-01-27 21:11:10.33	56.17	10.17	-48.4	-50.9	15.6	0.00e+00	0	43	0	369098752	68	4774
2026-01-27 21:11:13.23	56.69	10.20	-48.4	-50.8	15.8	0.00e+00	0	43	0	374341632	68	4745
2026-01-27 21:11:16.14	57.21	10.23	-48.1	-50.4	16.1	0.00e+00	0	43	0	379584512	68	4519
2026-01-27 21:11:19.04	57.73	10.26	-48.0	-50.3	16.2	0.00e+00	0	43	0	384827392	67	4744
2026-01-27 21:11:21.95	58.25	10.29	-48.0	-50.3	16.3	0.00e+00	0	43	0	390070272	67	4710
2026-01-27 21:11:24.86	58.77	10.31	-47.8	-50.0	16.5	0.00e+00	0	43	0	396361728	67	4583
2026-01-27 21:11:27.77	59.30	10.33	-47.3	-49.4	17.2	0.00e+00	0	43	0	401604608	66	4500
2026-01-27 21:11:30.67	59.82	10.35	-47.4	-49.4	17.1	0.00e+00	0	43	0	406847488	66	4525
2026-01-27 21:11:33.58	60.35	10.37	-47.4	-49.4	17.0	0.00e+00	0	43	0	412090368	66	4536
2026-01-27 21:11:36.49	60.87	10.38	-47.0	-48.9	17.5	0.00e+00	0	43	0	417333248	66	4271
2026-01-27 21:11:39.39	61.40	10.39	-47.2	-49.2	17.2	0.00e+00	0	43	0	423624704	66	4427
2026-01-27 21:11:42.30	61.92	10.41	-47.3	-49.3	17.1	0.00e+00	0	43	0	428867584	66	4490
2026-01-27 21:11:45.21	62.45	10.41	-47.0	-48.8	17.7	0.00e+00	0	43	0	434110464	65	4491
2026-01-27 21:11:48.10	62.98	10.42	-46.7	-48.5	17.9	0.00e+00	0	43	0	439353344	65	4318
2026-01-27 21:11:51.01	63.50	10.43	-46.6	-48.4	18.0	0.00e+00	0	43	0	445644800	64	4496
2026-01-27 21:11:53.91	64.03	10.43	-46.5	-48.2	18.3	0.00e+00	0	43	0	450887680	64	4412
2026-01-27 21:11:56.81	64.56	10.43	-46.1	-47.7	18.7	0.00e+00	0	43	0	456130560	64	4157
2026-01-27 21:11:59.72	65.08	10.43	-46.5	-48.2	18.3	0.00e+00	0	43	0	461373440	64	4415
2026-01-27 21:12:02.63	65.61	10.42	-46.8	-48.7	17.6	0.00e+00	0	43	0	466616320	64	4669
2026-01-27 21:12:05.54	66.14	10.42	-46.5	-48.2	18.1	0.00e+00	0	43	0	471859200	64	4422
2026-01-27 21:12:08.44	66.67	10.41	-46.5	-48.2	18.1	0.00e+00	0	43	0	478150656	64	4425
2026-01-27 21:12:11.35	67.19	10.40	-46.6	-48.4	18.0	0.00e+00	0	43	0	483393536	64	4499
2026-01-27 21:12:14.25	67.72	10.38	-46.8	-48.6	17.8	0.00e+00	0	43	0	488636416	64	4637
2026-01-27 21:12:17.16	68.24	10.37	-46.4	-48.2	18.3	0.00e+00	0	43	0	493879296	64	4406
2026-01-27 21:12:20.07	68.77	10.35	-46.0	-47.9	18.6	0.00e+00	0	43	0	499122176	63	4503
2026-01-27 21:12:22.97	69.29	10.33	-45.6	-48.1	18.3	0.00e+00	0	43	0	505413632	63	4620
2026-01-27 21:12:25.87	69.82	10.31	-45.6	-47.8	18.5	0.00e+00	0	43	0	510656512	62	4737
2026-01-27 21:12:28.78	70.34	10.29	-45.5	-47.0	19.4	0.00e+00	0	43	0	515899392	62	4308
2026-01-27 21:12:31.69	70.86	10.26	-45.5	-47.0	19.5	0.00e+00	0	43	0	521142272	62	4292
2026-01-27 21:12:34.59	71.38	10.24	-45.9	-47.5	18.9	0.00e+00	0	43	0	526385152	62	4572
2026-01-27 21:12:37.50	71.90	10.21	-46.0	-47.6	18.8	0.00e+00	0	43	0	532676608	62	4648
2026-01-27 21:12:40.42	72.43	10.18	-46.0	-47.6	18.8	0.00e+00	0	43	0	537919488	62	4616
2026-01-27 21:12:43.32	72.94	10.14	-46.0	-47.6	18.9	0.00e+00	0	43	0	543162368	62	4606
2026-01-27 21:12:46.23	73.46	10.11	-46.0	-47.6	18.8	0.00e+00	0	43	0	548405248	62	4619
2026-01-27 21:12:49.13	73.98	10.07	-46.1	-47.7	18.7	0.00e+00	0	43	0	553648128	62	4660
2026-01-27 21:12:52.04	74.49	10.03	-46.0	-47.6	18.8	0.00e+00	0	43	0	559939584	62	4609
2026-01-27 21:12:54.95	75.01	9.99	-46.3	-47.9	18.4	0.00e+00	0	43	0	565182464	63	4542
2026-01-27 21:12:57.85	75.52	9.95	-46.6	-48.4	18.0	0.00e+00	0	43	0	570425344	63	4786
2026-01-27 21:13:00.76	76.03	9.90	-46.8	-48.7	17.6	0.00e+00	0	43	0	575668224	64	4686
2026-01-27 21:13:03.67	76.54	9.85	-46.3	-48.0	18.4	0.00e+00	0	43	0	580911104	64	4326
2026-01-27 21:13:06.57	77.04	9.81	-45.9	-47.5	18.9	0.00e+00	0	43	0	587202560	63	4323
2026-01-27 21:13:09.47	77.55	9.76	-45.8	-47.4	18.9	0.00e+00	0	43	0	592445440	63	4257
2026-01-27 21:13:12.38	78.05	9.70	-45.3	-46.7	19.6	0.00e+00	0	43	0	597688320	62	4165
2026-01-27 21:13:15.28	78.55	9.65	-45.1	-46.4	19.9	0.00e+00	0	43	0	602931200	61	4273
2026-01-27 21:13:18.19	79.05	9.59	-45.0	-46.4	19.9	0.00e+00	0	43	0	608174080	61	4256
2026-01-27 21:13:21.10	79.55	9.53	-45.5	-47.0	19.3	0.00e+00	0	43	0	614465536	61	4553
2026-01-27 21:13:24.01	80.05	9.47	-45.6	-47.1	19.2	0.00e+00	0	43	0	619708416	61	4612
2026-01-27 21:13:26.92	80.55	9.41	-45.7	-47.3	19.1	0.00e+00	0	43	0	624951296	62	4452
2026-01-27 21:13:29.84	81.04	9.35	-45.6	-47.1	19.2	0.00e+00	0	43	0	630194176	62	4346
2026-01-27 21:13:32.74	81.53	9.29	-45.7	-47.3	19.1	0.00e+00	0	43	0	635437056	62	4447
2026-01-27 21:13:35.64	82.02	9.22	-45.8	-47.3	19.0	0.00e+00	0	43	0	641728512	62	4470
2026-01-27 21:13:38.55	82.50	9.15	-45.4	-46.8	19.4	0.00e+00	0	43	0	646971392	62	4232
2026-01-27 21:13:41.45	82.99	9.08	-45.0	-46.4	19.8	0.00e+00	0	43	0	652214272	61	4283
2026-01-27 21:13:44.36	83.47	9.01	-45.2	-46.6	19.5	0.00e+00	0	43	0	657457152	61	4350
2026-01-27 21:13:47.27	83.95	8.94	-45.4	-46.9	19.3	0.00e+00	0	43	0	662700032	61	4513
2026-01-27 21:13:50.18	84.43	8.86	-45.6	-47.2	19.1	0.00e+00	0	43	0	667942912	61	4658
2026-01-27 21:13:53.09	84.90	8.79	-45.5	-47.0	19.2	0.00e+00	0	43	0	674234368	61	4596
2026-01-27 21:13:56.00	85.38	8.71	-46.1	-47.7	18.6	0.00e+00	0	43	0	679477248	62	4673
2026-01-27 21:13:58.91	85.85	8.63	-46.3	-48.0	18.1	0.00e+00	0	43	0	684720128	63	4588
2026-01-27 21:14:01.81	86.31	8.55	-46.7	-48.6	17.6	0.00e+00	0	43	0	689963008	64	4635
2026-01-27 21:14:04.71	86.78	8.47	-47.1	-49.1	17.2	0.00e+00	0	43	0	696254464	64	4912
2026-01-27 21:14:07.62	87.24	8.39	-47.0	-48.9	17.3	0.00e+00	0	43	0	701497344	64	4812
2026-01-27 21:14:10.54	87.70	8.30	-47.0	-49.0	17.2	0.00e+00	0	43	0	706740224	64	4848
2026-01-27 21:14:13.44	88.16	8.22	-47.2	-49.2	17.0	0.00e+00	0	43	0	711983104	65	4683
2026-01-27 21:14:16.35	88.62	8.13	-46.8	-48.8	17.4	0.00e+00	0	43	0	717225984	65	4443
2026-01-27 21:14:19.26	89.07	8.05	-47.0	-49.0	17.2	0.00e+00	0	43	0	723517440	65	4581
2026-01-27 21:14:22.17	89.52	7.96	-47.3	-49.4	16.8	0.00e+00	0	43	0	728760320	65	4774
2026-01-27 21:14:25.07	89.97	7.87	-47.4	-49.5	16.6	0.00e+00	0	43	0	734003200	65	4851
2026-01-27 21:14:27.98	90.41	7.78	-47.4	-49.5	16.6	0.00e+00	0	43	0	739246080	65	4815
2026-01-27 21:14:30.88	90.85	7.68	-48.1	-50.6	15.5	0.00e+00	0	43	0	744488960	66	5184
2026-01-27 21:14:33.78	91.29	7.59	-48.5	-51.3	14.9	0.00e+00	0	43	0	749731840	67	5320
2026-01-27 21:14:36.69	91.73	7.50	-48.4	-51.1	15.1	0.00e+00	0	43	0	756023296	67	5201
2026-01-27 21:14:39.60	92.16	7.40	-48.1	-50.6	15.6	0.00e+00	0	43	0	761266176	67	4889
2026-01-27 21:14:42.51	92.59	7.30	-47.9	-50.3	15.9	0.00e+00	0	43	0	766509056	67	4724
2026-01-27 21:14:45.42	93.02	7.21	-48.0	-50.4	15.7	0.00e+00	0	43	0	771751936	67	4796
2026-01-27 21:14:48.33	93.45	7.11	-47.8	-50.2	15.9	0.00e+00	0	43	0	778043392	67	4686
2026-01-27 21:14:51.24	93.87	7.01	-48.0	-50.5	15.5	0.00e+00	0	43	0	783286272	67	4866
2026-01-27 21:14:54.15	94.29	6.91	-48.1	-50.7	15.3	0.00e+00	0	43	0	788529152	67	4948
2026-01-27 21:14:57.06	94.71	6.81	-48.2	-50.8	15.3	0.00e+00	0	43	0	793772032	67	4993
2026-01-27 21:14:59.96	95.12	6.70	-48.1	-50.6	15.3	0.00e+00	0	43	0	799014912	67	4924
2026-01-27 21:15:02.87	95.53	6.60	-47.8	-50.2	15.8	0.00e+00	0	43	0	804257792	67	4694
2026-01-27 21:15:05.77	95.94	6.50	-47.6	-49.9	16.0	0.00e+00	0	43	0	810549248	67	4525
2026-01-27 21:15:08.68	96.35	6.39	-47.7	-50.1	15.8	0.00e+00	0	43	0	815792128	67	4639
2026-01-27 21:15:11.59	96.75	6.29	-47.6	-49.9	16.1	0.00e+00	0	43	0	821035008	67	4514
2026-01-27 21:15:14.50	97.15	6.18	-47.6	-49.9	16.0	0.00e+00	0	43	0	826277888	66	4805
2026-01-27 21:15:17.41	97.55	6.07	-47.3	-49.6	16.3	0.00e+00	0	43	0	832569344	66	4603
2026-01-27 21:15:20.32	97.95	5.97	-47.3	-49.6	16.3	0.00e+00	0	43	0	837812224	66	4613
2026-01-27 21:15:23.22	98.34	5.86	-47.3	-49.5	16.3	0.00e+00	0	43	0	843055104	66	4592
2026-01-27 21:15:26.13	98.73	5.75	-47.4	-49.7	16.1	0.00e+00	0	43	0	848297984	66	4702
2026-01-27 21:15:29.07	99.12	5.64	-47.4	-49.7	16.1	0.00e+00	0	43	0	853540864	66	4667
2026-01-27 21:15:31.98	99.50	5.53	-47.4	-49.8	16.0	0.00e+00	0	43	0	859832320	66	4728
2026-01-27 21:15:34.90	99.89	5.42	-47.7	-50.2	15.6	0.00e+00	0	43	0	865075200	66	4975
2026-01-27 21:15:37.83	100.27	5.31	-47.6	-50.0	15.8	0.00e+00	0	43	0	870318080	66	4847
2026-01-27 21:15:40.74	100.64	5.19	-47.0	-49.1	16.6	0.00e+00	0	43	0	875560960	65	4642
2026-01-27 21:15:43.66	101.02	5.08	-46.7	-48.7	17.0	0.00e+00	0	43	0	880803840	65	4413
2026-01-27 21:15:46.59	101.39	4.97	-52.3	-67.1	3.8	1.18e+00	0	43	104	886046720	75	20554
2026-01-27 21:15:49.50	101.76	4.85	-53.0	-68.0	3.8	1.49e+00	0	43	104	886046720	76	21543
2026-01-27 21:15:52.42	102.12	4.74	-53.4	-68.4	3.8	1.49e+00	0	43	104	886046720	77	21279
2026-01-27 21:15:55.33	102.49	4.62	-53.7	-68.7	3.8	1.49e+00	0	43	104	886046720	77	22080
2026-01-27 21:15:58.25	102.85	4.51	-53.9	-68.8	3.8	1.49e+00	0	43	104	886046720	78	21242
2026-01-27 21:16:01.16	103.20	4.39	-54.0	-68.9	3.8	1.49e+00	0	43	104	886046720	78	21503
2026-01-27 21:16:04.08	103.56	4.28	-54.1	-69.1	3.8	1.49e+00	0	43	104	886046720	78	21816
2026-01-27 21:16:07.00	103.91	4.16	-54.2	-69.1	3.8	1.49e+00	0	43	104	886046720	78	21984
2026-01-27 21:16:09.91	104.26	4.05	-54.2	-69.2	3.8	1.49e+00	0	43	104	886046720	78	22065
2026-01-27 21:16:12.84	104.61	3.93	-54.2	-69.2	3.8	1.49e+00	0	43	104	886046720	79	20895
2026-01-27 21:16:15.75	104.95	3.81	-54.3	-69.3	3.8	1.49e+00	0	43	104	886046720	79	21044
2026-01-27 21:16:18.66	105.29	3.69	-54.3	-69.3	3.8	1.49e+00	0	43	104	886046720	79	21196
2026-01-27 21:16:21.58	105.63	3.58	-54.4	-69.4	3.8	1.49e+00	0	43	104	886046720	79	21307
2026-01-27 21:16:24.50	105.97	3.46	-54.4	-69.3	3.8	1.49e+00	0	43	104	886046720	79	21217
2026-01-27 21:16:27.40	106.30	3.34	-54.3	-69.3	3.8	1.49e+00	0	43	104	886046720	79	21210
2026-01-27 21:16:30.32	106.63	3.22	-54.2	-69.2	3.8	1.49e+00	0	43	104	886046720	79	20875
2026-01-27 21:16:33.23	106.96	3.10	-54.1	-69.0	3.8	1.49e+00	0	43	104	886046720	79	20502
2026-01-27 21:16:36.16	107.29	2.98	-54.0	-68.9	3.8	1.49e+00	0	43	104	886046720	79	20224
2026-01-27 21:16:39.07	107.61	2.86	-53.7	-68.7	3.8	1.49e+00	0	43	104	886046720	79	19782
2026-01-27 21:16:41.98	107.93	2.74	-53.3	-68.3	3.8	1.49e+00	0	43	104	886046720	78	19955
2026-01-27 21:16:44.90	108.25	2.62	-53.2	-68.1	3.8	1.49e+00	0	43	104	886046720	78	19509
2026-01-27 21:16:47.81	108.56	2.50	-53.1	-68.1	3.8	1.49e+00	0	43	104	886046720	78	19454
2026-01-27 21:16:50.72	108.88	2.38	-53.1	-68.1	3.8	1.49e+00	0	43	104	886046720	78	19441
2026-01-27 21:16:53.63	109.19	2.26	-53.1	-68.0	3.8	1.49e+00	0	43	104	886046720	78	19384
2026-01-27 21:16:56.54	109.50	2.14	-53.1	-68.1	3.8	1.49e+00	0	43	104	886046720	78	19396
2026-01-27 21:16:59.47	109.80	2.02	-53.1	-68.0	3.8	1.49e+00	0	43	104	886046720	78	19384

#Closed at: 2026-01-27 21:17:00
#Recorded file [886 MB]: D:/lorett/data/31041_260128_000649.dat