passes_logs/2026/01/27/R3.2S_Murmansk/R3.2S_Murmansk__20260127_235800_NOAA_21_JPSS-2_rec.log

#Pass ID: 20260127_235800_NOAA 21 (JPSS-2)
#Satellite: NOAA 21 (JPSS-2)
#Configuration: NOAA-21
#almurnet v.1.7.20251203
#Start time: 2026-01-27 23:58:01

#Version: 2.2.20231116
#Station: R3.2S_Murmansk
#Location: 33.079688 lon 68.888172 lat
#TLE: 1 54234U 22150A   26027.27712747  .00000181  00000+0  10656-3 0  9992
#TLE: 2 54234  98.7510 328.0291 0000845 205.5277 154.5858 14.19540098166550

#Time	Az	El	Level	Level2	SNR	BER	BlckErr	Temp	State	Recorded	gain1	gain2
2026-01-27 23:58:01.49	22.09	2.05	-53.8	-66.6	3.8	1.49e+00	0	42	0	0	79	15502
2026-01-27 23:58:05.51	22.19	2.31	-54.2	-66.9	3.8	1.49e+00	0	42	104	0	78	17071
2026-01-27 23:58:09.53	22.28	2.57	-54.0	-66.8	3.8	1.49e+00	0	42	104	0	78	16726
2026-01-27 23:58:13.56	22.38	2.82	-53.9	-66.6	3.8	1.49e+00	0	42	104	0	78	16496
2026-01-27 23:58:17.59	22.48	3.09	-53.5	-66.2	3.8	1.49e+00	0	42	104	0	78	15696
2026-01-27 23:58:21.62	22.58	3.35	-52.5	-65.2	3.8	1.49e+00	0	42	104	0	77	14864
2026-01-27 23:58:25.66	22.68	3.62	-51.9	-63.2	3.8	1.49e+00	0	42	104	0	75	13125
2026-01-27 23:58:29.68	22.78	3.89	-50.6	-56.1	7.3	1.75e-01	0	42	0	5242880	73	6515
2026-01-27 23:58:33.71	22.89	4.16	-47.8	-50.2	13.4	3.20e-05	0	42	0	17825792	67	4670
2026-01-27 23:58:37.73	23.00	4.43	-45.9	-47.5	16.1	0.00e+00	0	42	0	30408704	63	4329
2026-01-27 23:58:41.77	23.11	4.71	-46.2	-47.9	15.7	0.00e+00	0	43	0	42991616	63	4536
2026-01-27 23:58:45.80	23.22	4.99	-48.5	-51.5	12.1	1.40e-04	0	43	0	55574528	67	5409
2026-01-27 23:58:49.83	23.33	5.27	-46.0	-47.6	16.0	3.05e-03	0	43	0	68157440	64	4141
2026-01-27 23:58:53.86	23.44	5.56	-45.4	-46.8	16.9	0.00e+00	0	43	0	76546048	62	4238
2026-01-27 23:58:57.88	23.56	5.85	-44.8	-46.1	17.7	0.00e+00	0	43	0	89128960	61	4114
2026-01-27 23:59:01.91	23.67	6.14	-44.6	-45.9	17.9	0.00e+00	0	43	0	101711872	61	4020
2026-01-27 23:59:05.94	23.79	6.43	-44.5	-45.8	18.1	0.00e+00	0	43	0	114294784	61	3962
2026-01-27 23:59:09.96	23.92	6.73	-44.5	-45.7	18.1	0.00e+00	0	43	0	126877696	60	4177
2026-01-27 23:59:13.99	24.04	7.03	-44.4	-45.6	18.3	0.00e+00	0	43	0	139460608	60	4137
2026-01-27 23:59:18.01	24.17	7.34	-44.3	-45.5	18.4	0.00e+00	0	43	0	152043520	60	4091
2026-01-27 23:59:22.04	24.29	7.65	-44.3	-45.5	18.5	0.00e+00	0	43	0	164626432	60	4077
2026-01-27 23:59:26.08	24.43	7.96	-44.3	-45.4	18.6	0.00e+00	0	43	0	177209344	60	4041
2026-01-27 23:59:30.10	24.56	8.28	-44.1	-45.3	18.7	0.00e+00	0	43	0	189792256	60	3964
2026-01-27 23:59:34.12	24.69	8.60	-44.1	-45.3	18.7	0.00e+00	0	43	0	202375168	60	3965
2026-01-27 23:59:38.15	24.83	8.92	-44.3	-45.5	18.9	0.00e+00	0	43	0	214958080	59	4293
2026-01-27 23:59:42.18	24.97	9.25	-44.2	-45.3	19.1	0.00e+00	0	43	0	227540992	59	4231
2026-01-27 23:59:46.20	25.12	9.58	-43.9	-45.0	19.4	0.00e+00	0	43	0	240123904	59	4088
2026-01-27 23:59:50.23	25.26	9.92	-43.8	-44.9	19.6	0.00e+00	0	43	0	252706816	59	4023
2026-01-27 23:59:54.26	25.41	10.26	-43.7	-44.8	19.7	0.00e+00	0	43	0	265289728	59	3959
2026-01-27 23:59:58.28	25.57	10.61	-43.6	-44.6	19.8	0.00e+00	0	43	0	277872640	59	3907
2026-01-28 00:00:02.31	25.72	10.96	-43.6	-44.6	19.9	0.00e+00	0	43	0	290455552	59	3898
2026-01-28 00:00:06.34	25.88	11.32	-43.5	-44.6	19.9	0.00e+00	0	43	0	303038464	59	3872
2026-01-28 00:00:10.36	26.05	11.68	-43.4	-44.4	20.1	0.00e+00	0	43	0	315621376	58	4008
2026-01-28 00:00:14.39	26.21	12.05	-43.2	-44.2	20.3	0.00e+00	0	43	0	328204288	58	3927
2026-01-28 00:00:18.41	26.38	12.42	-43.2	-44.2	20.3	0.00e+00	0	43	0	340787200	58	3928
2026-01-28 00:00:22.44	26.56	12.80	-43.1	-44.0	20.4	0.00e+00	0	43	0	353370112	58	3859
2026-01-28 00:00:26.47	26.74	13.18	-43.1	-44.0	20.5	0.00e+00	0	43	0	365953024	58	3862
2026-01-28 00:00:30.50	26.92	13.57	-43.0	-43.9	20.5	0.00e+00	0	43	0	378535936	58	3818
2026-01-28 00:00:34.53	27.10	13.96	-42.9	-43.8	20.7	0.00e+00	0	43	0	391118848	57	3976
2026-01-28 00:00:38.56	27.30	14.37	-42.9	-43.8	20.8	0.00e+00	0	43	0	403701760	57	3970
2026-01-28 00:00:42.59	27.49	14.77	-42.9	-43.9	20.7	0.00e+00	0	43	0	416284672	57	4006
2026-01-28 00:00:46.62	27.69	15.19	-42.9	-43.8	20.7	0.00e+00	0	43	0	428867584	57	4003
2026-01-28 00:00:50.65	27.90	15.61	-42.9	-43.8	20.7	0.00e+00	0	43	0	441450496	57	3999
2026-01-28 00:00:54.68	28.11	16.04	-42.6	-43.6	21.0	0.00e+00	0	43	0	454033408	57	3869
2026-01-28 00:00:58.71	28.33	16.48	-42.8	-43.7	20.9	0.00e+00	0	43	0	467664896	57	3935
2026-01-28 00:01:02.73	28.55	16.92	-42.6	-43.5	21.1	0.00e+00	0	43	0	479199232	57	3862
2026-01-28 00:01:06.76	28.78	17.37	-42.8	-43.7	21.0	0.00e+00	0	43	0	491782144	57	3931
2026-01-28 00:01:10.79	29.02	17.83	-42.8	-43.7	21.0	0.00e+00	0	43	0	505413632	57	3933
2026-01-28 00:01:14.82	29.26	18.30	-42.9	-43.8	20.9	0.00e+00	0	43	0	517996544	57	3980
2026-01-28 00:01:18.86	29.52	18.78	-43.0	-43.9	20.8	0.00e+00	0	43	0	529530880	57	4027
2026-01-28 00:01:22.89	29.77	19.27	-43.1	-44.1	20.7	0.00e+00	0	43	0	542113792	57	4099
2026-01-28 00:01:26.92	30.04	19.76	-43.1	-44.0	20.7	0.00e+00	0	43	0	555745280	57	4088
2026-01-28 00:01:30.94	30.31	20.26	-43.0	-44.0	20.8	0.00e+00	0	43	0	567279616	57	4055
2026-01-28 00:01:34.98	30.60	20.78	-42.6	-43.5	21.2	0.00e+00	0	43	0	579862528	57	3829
2026-01-28 00:01:39.01	30.89	21.30	-42.3	-43.2	21.5	0.00e+00	0	43	0	593494016	56	3916
2026-01-28 00:01:43.04	31.19	21.84	-41.8	-42.7	21.8	0.00e+00	0	43	0	606076928	55	3926
2026-01-28 00:01:47.07	31.50	22.39	-41.6	-42.4	22.1	0.00e+00	0	43	0	617611264	55	3792
2026-01-28 00:01:51.11	31.82	22.94	-41.4	-42.2	22.3	0.00e+00	0	43	0	631242752	54	3923
2026-01-28 00:01:55.14	32.15	23.51	-41.4	-42.2	22.3	0.00e+00	0	43	0	643825664	54	3925
2026-01-28 00:01:59.16	32.50	24.09	-41.4	-42.2	22.4	0.00e+00	0	43	0	656408576	54	3918
2026-01-28 00:02:03.19	32.85	24.68	-41.5	-42.3	22.2	0.00e+00	0	43	0	667942912	54	3986
2026-01-28 00:02:07.21	33.22	25.29	-41.8	-42.6	21.9	0.00e+00	0	43	0	681574400	54	4145
2026-01-28 00:02:11.25	33.61	25.91	-42.1	-42.9	21.7	0.00e+00	0	43	0	694157312	54	4291
2026-01-28 00:02:15.26	34.01	26.54	-42.4	-43.2	21.5	0.00e+00	0	43	0	706740224	55	4191
2026-01-28 00:02:19.29	34.42	27.18	-42.9	-43.8	21.1	0.00e+00	0	43	0	719323136	56	4215
2026-01-28 00:02:23.32	34.85	27.84	-43.3	-44.2	20.6	0.00e+00	0	43	0	731906048	57	4192
2026-01-28 00:02:27.35	35.30	28.51	-43.2	-44.2	20.7	0.00e+00	0	43	0	744488960	57	4147
2026-01-28 00:02:31.38	35.77	29.20	-43.2	-44.1	20.8	0.00e+00	0	43	0	757071872	57	4118
2026-01-28 00:02:35.40	36.25	29.90	-42.8	-43.7	21.1	0.00e+00	0	43	0	769654784	57	3939
2026-01-28 00:02:39.44	36.76	30.62	-42.9	-43.8	21.1	0.00e+00	0	43	0	782237696	57	3983
2026-01-28 00:02:43.47	37.29	31.36	-42.8	-43.7	21.2	0.00e+00	0	43	0	794820608	57	3933
2026-01-28 00:02:47.51	37.85	32.11	-42.8	-43.7	21.2	0.00e+00	0	43	0	807403520	57	3947
2026-01-28 00:02:51.52	38.42	32.87	-42.7	-43.6	21.4	0.00e+00	0	43	0	819986432	57	3875
2026-01-28 00:02:55.54	39.03	33.66	-43.2	-44.1	20.9	0.00e+00	0	43	0	832569344	57	4116
2026-01-28 00:02:59.58	39.67	34.46	-43.7	-44.6	20.5	0.00e+00	0	43	0	845152256	57	4379
2026-01-28 00:03:03.61	40.33	35.28	-43.9	-44.9	20.3	0.00e+00	0	43	0	857735168	58	4266
2026-01-28 00:03:07.64	41.04	36.12	-44.3	-45.3	20.1	0.00e+00	0	43	0	870318080	59	4224
2026-01-28 00:03:11.66	41.77	36.97	-44.4	-45.5	19.6	0.00e+00	0	43	0	882900992	60	4052
2026-01-28 00:03:15.69	42.55	37.84	-44.3	-45.3	20.0	0.00e+00	0	43	0	895483904	59	4239
2026-01-28 00:03:19.72	43.37	38.72	-44.5	-45.8	19.6	0.00e+00	0	43	0	908066816	59	4444
2026-01-28 00:03:23.76	44.24	39.63	-44.6	-45.6	19.3	0.00e+00	0	43	0	920649728	60	4130
2026-01-28 00:03:27.79	45.15	40.55	-44.4	-45.4	19.6	0.00e+00	0	43	0	933232640	60	4036
2026-01-28 00:03:31.82	46.12	41.49	-45.4	-46.6	18.6	0.00e+00	0	43	0	945815552	61	4358
2026-01-28 00:03:35.85	47.14	42.44	-45.0	-46.1	19.0	0.00e+00	0	43	0	958398464	61	4131
2026-01-28 00:03:39.87	48.23	43.41	-45.7	-46.9	18.4	0.00e+00	0	43	0	970981376	62	4278
2026-01-28 00:03:43.89	49.37	44.38	-45.6	-46.7	18.3	0.00e+00	0	43	0	983564288	62	4190
2026-01-28 00:03:47.93	50.60	45.38	-44.9	-45.9	19.1	0.00e+00	0	43	0	996147200	61	4051
2026-01-28 00:03:51.96	51.91	46.38	-45.5	-46.7	18.4	0.00e+00	0	43	0	1008730112	61	4418
2026-01-28 00:03:56.00	53.30	47.39	-44.2	-45.2	19.9	0.00e+00	0	43	0	1021313024	60	3921
2026-01-28 00:04:00.03	54.78	48.41	-45.4	-46.5	18.7	0.00e+00	0	43	0	1033895936	61	4339
2026-01-28 00:04:04.05	56.36	49.42	-44.5	-45.5	19.6	0.00e+00	0	43	0	1046478848	60	4077
2026-01-28 00:04:08.08	58.04	50.44	-44.2	-45.3	19.9	0.00e+00	0	43	0	1059061760	60	3959
2026-01-28 00:04:12.11	59.85	51.45	-44.4	-45.5	19.9	0.00e+00	0	43	0	1071644672	59	4293
2026-01-28 00:04:16.14	61.77	52.45	-44.3	-45.3	19.9	0.00e+00	0	43	0	1084227584	60	3961
2026-01-28 00:04:20.17	63.84	53.43	-44.5	-45.5	20.0	0.00e+00	0	43	0	1096810496	59	4304
2026-01-28 00:04:24.19	66.03	54.40	-43.2	-44.0	21.3	0.00e+00	0	43	0	1109393408	58	3858
2026-01-28 00:04:28.23	68.39	55.34	-43.8	-44.7	20.7	0.00e+00	0	43	0	1121976320	58	4179
2026-01-28 00:04:32.26	70.91	56.25	-43.0	-43.9	21.4	0.00e+00	0	43	0	1134559232	58	3802
2026-01-28 00:04:36.29	73.58	57.11	-43.2	-44.1	21.3	0.00e+00	0	43	0	1147142144	58	3885
2026-01-28 00:04:40.32	76.43	57.92	-42.6	-43.4	21.6	0.00e+00	0	43	0	1159725056	56	4022
2026-01-28 00:04:44.35	79.44	58.68	-42.4	-43.2	21.9	0.00e+00	0	43	0	1172307968	56	3931
2026-01-28 00:04:48.38	82.63	59.37	-42.5	-43.3	21.9	0.00e+00	0	43	0	1184890880	56	3976
2026-01-28 00:04:52.41	85.97	59.98	-42.2	-43.0	22.1	0.00e+00	0	43	0	1197473792	56	3860
2026-01-28 00:04:56.43	89.46	60.50	-42.4	-43.3	22.0	0.00e+00	0	43	0	1210056704	56	3975
2026-01-28 00:05:00.45	93.08	60.93	-41.9	-42.7	22.4	0.00e+00	0	43	0	1222639616	55	3941
2026-01-28 00:05:04.47	96.81	61.26	-41.9	-42.7	22.2	0.00e+00	0	43	0	1235222528	55	3917
2026-01-28 00:05:08.51	100.64	61.49	-41.9	-42.7	22.2	0.00e+00	0	43	0	1247805440	55	3914
2026-01-28 00:05:12.53	104.51	61.60	-42.4	-43.2	21.9	0.00e+00	0	43	0	1260388352	55	4173
2026-01-28 00:05:16.55	108.39	61.60	-42.4	-43.2	21.7	0.00e+00	0	43	0	1272971264	55	4187
2026-01-28 00:05:20.58	112.27	61.49	-41.9	-42.7	22.3	0.00e+00	0	43	0	1285554176	55	3926
2026-01-28 00:05:24.61	116.10	61.27	-42.1	-42.9	22.2	0.00e+00	0	43	0	1298137088	54	4254
2026-01-28 00:05:28.64	119.85	60.94	-41.9	-42.7	22.3	0.00e+00	0	43	0	1310720000	54	4182
2026-01-28 00:05:32.68	123.49	60.51	-42.2	-43.0	22.0	0.00e+00	0	43	0	1323302912	54	4303
2026-01-28 00:05:36.71	126.99	59.99	-42.1	-42.9	22.1	0.00e+00	0	43	0	1335885824	55	4042
2026-01-28 00:05:40.74	130.35	59.38	-41.6	-42.4	22.5	0.00e+00	0	43	0	1348468736	55	3789
2026-01-28 00:05:44.77	133.54	58.69	-41.6	-42.3	22.5	0.00e+00	0	43	0	1361051648	55	3777
2026-01-28 00:05:48.80	136.56	57.94	-43.1	-44.0	21.1	0.00e+00	0	43	0	1373634560	56	4340
2026-01-28 00:05:52.82	139.41	57.13	-42.3	-43.1	22.0	0.00e+00	0	43	0	1386217472	56	3908
2026-01-28 00:05:56.85	142.09	56.26	-43.1	-44.0	21.2	0.00e+00	0	43	0	1398800384	57	4084
2026-01-28 00:06:00.87	144.61	55.36	-43.2	-44.1	21.1	0.00e+00	0	43	0	1411383296	57	4131
2026-01-28 00:06:04.90	146.97	54.42	-43.9	-44.9	20.3	0.00e+00	0	43	0	1423966208	59	4026
2026-01-28 00:06:08.93	149.18	53.45	-43.3	-44.3	20.9	0.00e+00	0	43	0	1436549120	58	3966
2026-01-28 00:06:12.96	151.25	52.46	-43.5	-44.4	20.7	0.00e+00	0	43	0	1449132032	58	4051
2026-01-28 00:06:16.98	153.18	51.46	-43.7	-44.7	20.6	0.00e+00	0	43	0	1461714944	58	4162
2026-01-28 00:06:21.01	154.99	50.44	-44.6	-45.7	19.2	0.00e+00	0	43	0	1474297856	60	4168
2026-01-28 00:06:25.03	156.68	49.43	-44.0	-44.9	20.2	0.00e+00	0	43	0	1486880768	59	4039
2026-01-28 00:06:29.06	158.26	48.41	-44.6	-45.6	19.4	0.00e+00	0	43	0	1499463680	61	3903
2026-01-28 00:06:33.09	159.75	47.39	-44.4	-45.4	19.9	0.00e+00	0	43	0	1512046592	59	4249
2026-01-28 00:06:37.12	161.14	46.37	-45.4	-46.6	18.5	0.00e+00	0	43	0	1524629504	61	4346
2026-01-28 00:06:41.15	162.45	45.37	-45.6	-46.8	18.2	0.00e+00	0	43	0	1537212416	62	4237
2026-01-28 00:06:45.18	163.68	44.37	-44.6	-45.7	19.3	0.00e+00	0	43	0	1549795328	61	3924
2026-01-28 00:06:49.21	164.84	43.39	-45.1	-46.3	18.8	0.00e+00	0	43	0	1562378240	61	4207
2026-01-28 00:06:53.23	165.92	42.42	-44.1	-45.1	20.1	0.00e+00	0	43	0	1574961152	59	4109
2026-01-28 00:06:57.27	166.95	41.46	-44.7	-45.8	19.2	0.00e+00	0	43	0	1587544064	60	4206
2026-01-28 00:07:01.29	167.92	40.52	-44.0	-45.0	19.7	0.00e+00	0	43	0	1600126976	60	3846
2026-01-28 00:07:05.31	168.83	39.60	-44.7	-45.8	19.0	0.00e+00	0	43	0	1612709888	60	4216
2026-01-28 00:07:09.34	169.70	38.69	-44.7	-45.7	19.2	0.00e+00	0	43	0	1625292800	60	4191
2026-01-28 00:07:13.36	170.52	37.80	-45.2	-46.4	18.5	0.00e+00	0	43	0	1637875712	61	4279
2026-01-28 00:07:17.39	171.30	36.93	-44.3	-45.3	19.9	0.00e+00	0	43	0	1650458624	59	4213
2026-01-28 00:07:21.42	172.04	36.07	-43.8	-44.7	20.4	0.00e+00	0	43	0	1663041536	58	4191
2026-01-28 00:07:25.44	172.74	35.23	-44.2	-45.3	19.9	0.00e+00	0	43	0	1675624448	59	4208
2026-01-28 00:07:29.46	173.41	34.41	-44.4	-45.5	19.6	0.00e+00	0	43	0	1688207360	59	4325
2026-01-28 00:07:33.48	174.04	33.61	-43.9	-44.9	20.1	0.00e+00	0	43	0	1700790272	59	4037
2026-01-28 00:07:37.51	174.65	32.82	-42.8	-43.7	21.2	0.00e+00	0	43	0	1713373184	57	3939
2026-01-28 00:07:41.54	175.23	32.05	-42.6	-43.4	21.5	0.00e+00	0	43	0	1725956096	57	3816
2026-01-28 00:07:45.56	175.79	31.30	-42.6	-43.4	21.4	0.00e+00	0	43	0	1738539008	56	4043
2026-01-28 00:07:49.59	176.32	30.56	-42.9	-43.8	21.0	0.00e+00	0	43	0	1751121920	56	4234
2026-01-28 00:07:53.62	176.82	29.84	-42.7	-43.6	21.2	0.00e+00	0	43	0	1763704832	56	4118
2026-01-28 00:07:57.65	177.31	29.13	-42.2	-43.1	21.6	0.00e+00	0	43	0	1776287744	56	3872
2026-01-28 00:08:01.67	177.78	28.44	-42.4	-43.2	21.5	0.00e+00	0	43	0	1788870656	56	3950
2026-01-28 00:08:05.70	178.23	27.76	-42.5	-43.3	21.4	0.00e+00	0	43	0	1801453568	56	3988
2026-01-28 00:08:09.74	178.66	27.10	-42.1	-42.9	21.8	0.00e+00	0	43	0	1814036480	56	3797
2026-01-28 00:08:13.77	179.07	26.45	-42.3	-43.2	21.5	0.00e+00	0	43	0	1826619392	56	3936
2026-01-28 00:08:17.79	179.47	25.82	-42.5	-43.4	21.4	0.00e+00	0	43	0	1839202304	56	4015
2026-01-28 00:08:21.82	179.85	25.20	-42.4	-43.2	21.4	0.00e+00	0	43	0	1851785216	56	3947
2026-01-28 00:08:25.84	180.22	24.59	-42.4	-43.3	21.3	0.00e+00	0	43	0	1864368128	56	3978
2026-01-28 00:08:29.87	180.58	24.00	-42.1	-42.9	21.6	0.00e+00	0	43	0	1876951040	56	3813
2026-01-28 00:08:33.89	180.92	23.42	-41.9	-42.7	21.6	0.00e+00	0	43	0	1889533952	55	3958
2026-01-28 00:08:37.91	181.25	22.85	-42.0	-42.8	21.5	0.00e+00	0	43	0	1902116864	55	4004
2026-01-28 00:08:41.94	181.57	22.29	-42.1	-42.9	21.5	0.00e+00	0	43	0	1914699776	55	4031
2026-01-28 00:08:45.97	181.88	21.74	-42.3	-43.2	21.3	0.00e+00	0	43	0	1927282688	55	4183
2026-01-28 00:08:50.01	182.18	21.20	-42.9	-43.8	20.8	0.00e+00	0	43	0	1939865600	56	4211
2026-01-28 00:08:54.04	182.47	20.67	-42.6	-43.5	21.0	0.00e+00	0	43	0	1952448512	56	4096
2026-01-28 00:08:58.08	182.75	20.15	-42.3	-43.2	21.3	0.00e+00	0	43	0	1965031424	56	3946
2026-01-28 00:09:02.10	183.03	19.65	-42.4	-43.3	21.2	0.00e+00	0	43	0	1977614336	56	3981
2026-01-28 00:09:06.13	183.29	19.15	-42.5	-43.4	21.1	0.00e+00	0	43	0	1990197248	56	4036
2026-01-28 00:09:10.15	183.55	18.66	-42.6	-43.5	20.9	0.00e+00	0	43	0	2002780160	56	4097
2026-01-28 00:09:14.18	183.80	18.19	-42.9	-43.8	20.7	0.00e+00	0	43	0	2015363072	56	4241
2026-01-28 00:09:18.21	184.04	17.72	-43.0	-43.9	20.6	0.00e+00	0	43	0	2027945984	56	4275
2026-01-28 00:09:22.24	184.27	17.25	-42.9	-43.8	20.6	0.00e+00	0	43	0	2040528896	56	4237
2026-01-28 00:09:26.25	184.50	16.80	-42.8	-43.7	20.7	0.00e+00	0	43	0	2053111808	56	4191
2026-01-28 00:09:30.29	184.72	16.35	-42.9	-43.8	20.6	0.00e+00	0	43	0	2065694720	56	4209
2026-01-28 00:09:34.32	184.94	15.92	-43.2	-44.1	20.3	0.00e+00	0	43	0	2078277632	56	4388
2026-01-28 00:09:38.35	185.15	15.49	-42.9	-43.9	20.5	0.00e+00	0	43	0	2090860544	56	4258
2026-01-28 00:09:42.39	185.36	15.06	-43.1	-44.0	20.3	0.00e+00	0	43	0	2103443456	56	4329
2026-01-28 00:09:46.41	185.55	14.64	-43.2	-44.2	20.2	0.00e+00	0	44	0	2116026368	56	4404
2026-01-28 00:09:50.44	185.75	14.23	-43.3	-44.2	20.1	0.00e+00	0	43	0	2128609280	57	4192
2026-01-28 00:09:54.47	185.94	13.83	-43.3	-44.3	20.1	0.00e+00	0	43	0	2141192192	57	4237
2026-01-28 00:09:58.50	186.12	13.43	-43.2	-44.2	20.2	0.00e+00	0	43	0	2153775104	57	4183
2026-01-28 00:10:02.53	186.31	13.04	-43.2	-44.2	20.2	0.00e+00	0	43	0	2166358016	57	4155
2026-01-28 00:10:06.55	186.48	12.66	-43.1	-44.1	20.3	0.00e+00	0	43	0	2178940928	57	4127
2026-01-28 00:10:10.57	186.65	12.28	-43.2	-44.1	20.2	0.00e+00	0	43	0	2191523840	57	4134
2026-01-28 00:10:14.60	186.82	11.91	-43.2	-44.1	20.2	0.00e+00	0	43	0	2204106752	57	4144
2026-01-28 00:10:18.63	186.99	11.54	-43.3	-44.3	20.0	0.00e+00	0	43	0	2216689664	57	4239
2026-01-28 00:10:22.67	187.15	11.18	-43.4	-44.4	19.9	0.00e+00	0	43	0	2229272576	57	4257
2026-01-28 00:10:26.70	187.30	10.82	-43.6	-44.6	19.7	0.00e+00	0	43	0	2241855488	57	4376
2026-01-28 00:10:30.73	187.46	10.46	-43.7	-44.8	19.5	0.00e+00	0	43	0	2254438400	58	4209
2026-01-28 00:10:34.76	187.61	10.12	-43.9	-45.0	19.3	0.00e+00	0	43	0	2267021312	58	4328
2026-01-28 00:10:38.79	187.76	9.77	-44.1	-45.3	19.0	0.00e+00	0	43	0	2279604224	58	4452
2026-01-28 00:10:42.83	187.90	9.43	-44.3	-45.5	18.8	0.00e+00	0	43	0	2292187136	59	4306
2026-01-28 00:10:46.86	188.04	9.10	-44.3	-45.5	18.8	0.00e+00	0	44	0	2304770048	59	4302
2026-01-28 00:10:50.89	188.18	8.77	-44.4	-45.6	18.6	0.00e+00	0	43	0	2317352960	59	4382
2026-01-28 00:10:54.92	188.32	8.44	-44.6	-45.8	18.4	0.00e+00	0	43	0	2329935872	59	4457
2026-01-28 00:10:58.96	188.45	8.12	-44.4	-45.6	18.5	0.00e+00	0	43	0	2342518784	59	4381
2026-01-28 00:11:02.99	188.58	7.80	-44.5	-45.7	18.5	0.00e+00	0	43	0	2355101696	59	4403
2026-01-28 00:11:07.03	188.71	7.49	-44.7	-45.9	18.2	0.00e+00	0	43	0	2367684608	59	4543
2026-01-28 00:11:11.06	188.84	7.18	-44.3	-45.5	18.2	0.00e+00	0	43	0	2380267520	60	4087
2026-01-28 00:11:15.09	188.96	6.87	-44.4	-45.6	18.1	0.00e+00	0	43	0	2393899008	60	4134
2026-01-28 00:11:19.12	189.08	6.57	-44.6	-45.9	17.8	0.00e+00	0	43	0	2405433344	60	4249
2026-01-28 00:11:23.16	189.20	6.27	-44.7	-46.0	17.7	0.00e+00	0	43	0	2418016256	60	4303
2026-01-28 00:11:27.20	189.32	5.97	-44.8	-46.1	17.5	0.00e+00	0	43	0	2431647744	60	4391
2026-01-28 00:11:31.23	189.43	5.68	-44.9	-46.2	17.4	0.00e+00	0	44	0	2444230656	60	4423
2026-01-28 00:11:35.27	189.54	5.39	-44.8	-46.2	17.4	0.00e+00	0	43	0	2455764992	60	4412
2026-01-28 00:11:39.31	189.66	5.10	-45.1	-46.6	16.9	0.00e+00	0	44	0	2469396480	60	4613
2026-01-28 00:11:43.34	189.76	4.82	-53.0	-65.7	3.8	1.49e+00	0	44	104	2473590784	76	16625
2026-01-28 00:11:47.37	189.87	4.54	-53.4	-66.2	3.8	1.49e+00	0	43	104	2473590784	77	16549
2026-01-28 00:11:51.40	189.98	4.26	-53.5	-66.3	3.8	1.49e+00	0	44	104	2473590784	77	16702
2026-01-28 00:11:55.44	190.08	3.98	-53.5	-66.2	3.8	1.49e+00	0	44	104	2473590784	77	16676
2026-01-28 00:11:59.47	190.18	3.71	-53.4	-66.2	3.8	1.49e+00	0	43	104	2473590784	77	16580
2026-01-28 00:12:03.50	190.28	3.44	-53.2	-66.0	3.8	1.49e+00	0	44	104	2473590784	77	16204
2026-01-28 00:12:07.53	190.38	3.17	-51.7	-64.4	3.8	1.49e+00	0	44	104	2473590784	75	15123
2026-01-28 00:12:11.57	190.48	2.91	-48.5	-61.1	3.8	1.49e+00	0	44	104	2473590784	68	15528
2026-01-28 00:12:15.60	190.58	2.64	-48.3	-60.9	3.8	1.49e+00	0	43	104	2473590784	68	15215
2026-01-28 00:12:19.63	190.67	2.38	-48.3	-61.0	3.8	1.49e+00	0	44	104	2473590784	68	15244
2026-01-28 00:12:23.67	190.76	2.13	-48.3	-60.9	3.8	1.49e+00	0	44	104	2473590784	68	15180

#Closed at: 2026-01-28 00:12:25
#Recorded file [2473 MB]: D:/lorett/data/31041_260128_025801.dat