passes_logs/2026/01/27/R3.2S_Murmansk/R3.2S_Murmansk__20260127_230752_NOAA_20_JPSS-1_rec.log

#Pass ID: 20260127_230752_NOAA 20 (JPSS-1)
#Satellite: NOAA 20 (JPSS-1)
#Configuration: NOAA 20
#almurnet v.1.7.20251203
#Start time: 2026-01-27 23:07:53

#Version: 2.2.20231116
#Station: R3.2S_Murmansk
#Location: 33.079688 lon 68.888172 lat
#TLE: 1 43013U 17073A   26027.31247158  .00000160  00000+0  97001-4 0  9994
#TLE: 2 43013  98.7647 328.1226 0000969  21.9986 338.1231 14.19541059424489

#Time	Az	El	Level	Level2	SNR	BER	BlckErr	Temp	State	Recorded	gain1	gain2
2026-01-27 23:07:53.79	20.09	2.07	-53.5	-68.5	3.8	1.49e+00	0	41	0	0	79	19211
2026-01-27 23:07:57.82	20.28	2.31	-52.0	-66.8	3.8	1.49e+00	0	41	104	0	75	19945
2026-01-27 23:08:01.84	20.48	2.55	-52.0	-66.8	3.8	1.49e+00	0	41	104	0	75	19885
2026-01-27 23:08:05.88	20.68	2.80	-52.0	-66.8	3.8	1.49e+00	0	41	104	0	74	21169
2026-01-27 23:08:09.91	20.88	3.05	-52.0	-66.9	3.8	1.49e+00	0	42	104	0	74	21349
2026-01-27 23:08:13.93	21.08	3.30	-51.9	-66.6	3.8	1.49e+00	0	42	104	0	74	20700
2026-01-27 23:08:17.95	21.29	3.55	-51.9	-66.6	3.8	1.49e+00	0	42	104	0	74	20712
2026-01-27 23:08:21.98	21.50	3.80	-51.4	-60.3	5.6	8.07e-01	0	42	0	2097152	74	9994
2026-01-27 23:08:26.01	21.72	4.06	-49.9	-54.4	11.4	1.62e-03	0	42	0	9437184	71	6019
2026-01-27 23:08:30.03	21.94	4.31	-48.7	-51.9	14.0	2.20e-06	0	42	0	16777216	69	5056
2026-01-27 23:08:34.06	22.16	4.58	-49.3	-53.1	12.8	1.52e-05	0	42	0	24117248	69	5796
2026-01-27 23:08:38.09	22.38	4.84	-51.1	-58.5	7.1	6.56e-02	0	42	0	31457280	72	9139
2026-01-27 23:08:42.11	22.61	5.10	-51.5	-60.3	5.8	5.75e-01	0	42	0	34603008	74	9965
2026-01-27 23:08:46.14	22.84	5.37	-51.9	-65.3	3.8	1.49e+00	0	42	104	36700160	74	17791
2026-01-27 23:08:50.15	23.08	5.64	-49.2	-52.5	13.6	1.22e-05	0	42	0	41943040	70	5133
2026-01-27 23:08:54.17	23.32	5.91	-48.7	-51.5	14.6	0.00e+00	0	42	0	49283072	68	5157
2026-01-27 23:08:58.19	23.57	6.18	-48.7	-51.6	14.6	0.00e+00	0	42	0	56623104	68	5185
2026-01-27 23:09:02.22	23.81	6.46	-48.1	-50.7	15.6	0.00e+00	0	42	0	63963136	68	4657
2026-01-27 23:09:06.24	24.07	6.74	-48.0	-50.4	15.8	0.00e+00	0	43	0	71303168	67	4781
2026-01-27 23:09:10.27	24.33	7.02	-47.6	-49.8	16.4	0.00e+00	0	43	0	79691776	67	4468
2026-01-27 23:09:14.29	24.59	7.31	-47.6	-49.8	16.5	0.00e+00	0	43	0	87031808	66	4728
2026-01-27 23:09:18.32	24.86	7.59	-47.4	-49.6	16.7	0.00e+00	0	43	0	94371840	66	4605
2026-01-27 23:09:22.34	25.13	7.88	-47.3	-49.4	16.9	0.00e+00	0	43	0	101711872	66	4508
2026-01-27 23:09:26.37	25.41	8.18	-47.3	-49.3	17.0	0.00e+00	0	43	0	109051904	66	4489
2026-01-27 23:09:30.39	25.69	8.47	-47.1	-49.1	17.2	0.00e+00	0	43	0	116391936	65	4642
2026-01-27 23:09:34.40	25.98	8.77	-47.1	-49.0	17.4	0.00e+00	0	43	0	124780544	65	4582
2026-01-27 23:09:38.43	26.27	9.07	-47.0	-48.9	17.6	0.00e+00	0	43	0	132120576	65	4495
2026-01-27 23:09:42.45	26.57	9.38	-46.7	-48.5	18.0	0.00e+00	0	43	0	139460608	65	4294
2026-01-27 23:09:46.47	26.88	9.68	-46.6	-48.3	18.1	0.00e+00	0	43	0	146800640	65	4218
2026-01-27 23:09:50.49	27.19	10.00	-46.5	-48.3	18.2	0.00e+00	0	43	0	155189248	64	4444
2026-01-27 23:09:54.53	27.51	10.31	-46.4	-48.1	18.5	0.00e+00	0	43	0	162529280	64	4354
2026-01-27 23:09:58.55	27.83	10.63	-46.4	-48.1	18.5	0.00e+00	0	43	0	169869312	64	4354
2026-01-27 23:10:02.58	28.16	10.95	-46.5	-48.2	18.4	0.00e+00	0	43	0	177209344	64	4409
2026-01-27 23:10:06.61	28.50	11.28	-46.3	-47.9	18.7	0.00e+00	0	43	0	184549376	64	4263
2026-01-27 23:10:10.63	28.85	11.60	-46.2	-47.7	18.9	0.00e+00	0	43	0	192937984	64	4186
2026-01-27 23:10:14.66	29.20	11.93	-46.0	-47.5	19.2	0.00e+00	0	43	0	200278016	63	4310
2026-01-27 23:10:18.69	29.56	12.27	-45.8	-47.2	19.5	0.00e+00	0	43	0	207618048	63	4177
2026-01-27 23:10:22.71	29.93	12.61	-45.7	-47.1	19.6	0.00e+00	0	43	0	214958080	62	4363
2026-01-27 23:10:26.75	30.31	12.95	-45.5	-46.9	19.9	0.00e+00	0	43	0	222298112	62	4261
2026-01-27 23:10:30.77	30.69	13.30	-45.5	-46.9	19.9	0.00e+00	0	43	0	229638144	62	4255
2026-01-27 23:10:34.79	31.08	13.65	-45.5	-46.9	19.8	0.00e+00	0	43	0	238026752	62	4284
2026-01-27 23:10:38.81	31.49	14.00	-45.7	-47.2	19.7	0.00e+00	0	43	0	245366784	62	4394
2026-01-27 23:10:42.84	31.90	14.36	-45.8	-47.2	19.6	0.00e+00	0	43	0	252706816	62	4423
2026-01-27 23:10:46.87	32.32	14.72	-45.8	-47.2	19.6	0.00e+00	0	43	0	260046848	62	4437
2026-01-27 23:10:50.89	32.75	15.09	-45.8	-47.2	19.7	0.00e+00	0	43	0	268435456	62	4416
2026-01-27 23:10:54.92	33.20	15.46	-45.7	-47.1	19.8	0.00e+00	0	43	0	275775488	62	4376
2026-01-27 23:10:58.94	33.65	15.84	-45.8	-47.2	19.7	0.00e+00	0	43	0	283115520	62	4413
2026-01-27 23:11:02.97	34.11	16.21	-45.9	-47.3	19.5	0.00e+00	0	43	0	290455552	62	4490
2026-01-27 23:11:06.99	34.59	16.60	-46.1	-47.6	19.3	0.00e+00	0	43	0	297795584	62	4619
2026-01-27 23:11:11.03	35.07	16.99	-46.3	-47.9	19.0	0.00e+00	0	43	0	306184192	63	4511
2026-01-27 23:11:15.05	35.57	17.38	-46.5	-48.1	18.8	0.00e+00	0	43	0	313524224	63	4629
2026-01-27 23:11:19.08	36.09	17.77	-46.7	-48.3	18.6	0.00e+00	0	43	0	320864256	64	4489
2026-01-27 23:11:23.10	36.61	18.17	-46.7	-48.4	18.5	0.00e+00	0	43	0	328204288	64	4513
2026-01-27 23:11:27.13	37.15	18.58	-46.6	-48.2	18.7	0.00e+00	0	43	0	335544320	64	4424
2026-01-27 23:11:31.16	37.70	18.99	-46.5	-48.0	18.8	0.00e+00	0	43	0	342884352	64	4340
2026-01-27 23:11:35.19	38.27	19.40	-46.6	-48.2	18.7	0.00e+00	0	43	0	351272960	64	4417
2026-01-27 23:11:39.22	38.85	19.82	-46.6	-48.2	18.7	0.00e+00	0	43	0	358612992	64	4429
2026-01-27 23:11:43.24	39.45	20.24	-46.5	-48.1	18.8	0.00e+00	0	43	0	365953024	64	4376
2026-01-27 23:11:47.27	40.06	20.66	-46.6	-48.2	18.7	0.00e+00	0	43	0	373293056	64	4440
2026-01-27 23:11:51.30	40.70	21.09	-46.4	-47.9	19.0	0.00e+00	0	43	0	381681664	64	4277
2026-01-27 23:11:55.33	41.34	21.53	-46.0	-47.5	19.4	0.00e+00	0	43	0	389021696	64	4077
2026-01-27 23:11:59.36	42.01	21.96	-45.6	-47.0	20.1	0.00e+00	0	43	0	396361728	63	4075
2026-01-27 23:12:03.39	42.70	22.41	-45.9	-47.4	19.8	0.00e+00	0	43	0	403701760	63	4247
2026-01-27 23:12:07.41	43.40	22.85	-45.9	-47.3	19.8	0.00e+00	0	43	0	411041792	63	4212
2026-01-27 23:12:11.44	44.12	23.30	-45.3	-46.6	20.5	0.00e+00	0	43	0	419430400	62	4113
2026-01-27 23:12:15.47	44.87	23.75	-45.4	-46.7	20.4	0.00e+00	0	43	0	426770432	62	4175
2026-01-27 23:12:19.50	45.63	24.20	-45.4	-46.7	20.5	0.00e+00	0	43	0	434110464	62	4155
2026-01-27 23:12:23.53	46.42	24.66	-44.9	-46.2	20.9	0.00e+00	0	43	0	441450496	61	4151
2026-01-27 23:12:27.55	47.23	25.12	-44.9	-46.1	21.0	0.00e+00	0	43	0	448790528	61	4122
2026-01-27 23:12:31.59	48.07	25.58	-44.8	-46.0	21.1	0.00e+00	0	43	0	456130560	61	4091
2026-01-27 23:12:35.60	48.92	26.04	-44.8	-46.0	21.1	0.00e+00	0	43	0	464519168	61	4091
2026-01-27 23:12:39.62	49.80	26.50	-45.4	-46.8	20.4	0.00e+00	0	43	0	471859200	61	4451
2026-01-27 23:12:43.65	50.71	26.97	-45.3	-46.6	20.6	0.00e+00	0	43	0	479199232	61	4363
2026-01-27 23:12:47.67	51.64	27.43	-45.5	-46.8	20.4	0.00e+00	0	43	0	486539264	61	4458
2026-01-27 23:12:51.70	52.60	27.90	-45.8	-47.1	20.1	0.00e+00	0	43	0	494927872	62	4372
2026-01-27 23:12:55.73	53.59	28.36	-46.3	-47.8	19.5	0.00e+00	0	43	0	502267904	63	4447
2026-01-27 23:12:59.75	54.61	28.82	-46.8	-48.4	18.8	0.00e+00	0	43	0	509607936	64	4510
2026-01-27 23:13:03.78	55.66	29.28	-46.7	-48.3	18.8	0.00e+00	0	43	0	516947968	64	4489
2026-01-27 23:13:07.82	56.74	29.74	-48.2	-50.2	17.0	0.00e+00	0	43	0	524288000	67	4695
2026-01-27 23:13:11.85	57.84	30.20	-49.2	-51.7	15.6	0.00e+00	0	43	0	532676608	68	5227
2026-01-27 23:13:15.88	58.98	30.64	-50.2	-53.5	13.8	1.50e-06	0	43	0	540016640	71	5424
2026-01-27 23:13:19.91	60.15	31.09	-50.1	-53.2	14.1	7.00e-07	0	43	0	547356672	71	5225
2026-01-27 23:13:23.93	61.35	31.52	-50.0	-53.1	14.3	7.00e-07	0	43	0	554696704	71	5181
2026-01-27 23:13:27.97	62.58	31.95	-49.6	-52.4	15.0	0.00e+00	0	43	0	562036736	71	4778
2026-01-27 23:13:32.00	63.85	32.37	-49.4	-52.1	15.3	0.00e+00	0	43	0	570425344	70	4895
2026-01-27 23:13:36.03	65.15	32.79	-48.5	-50.7	16.6	0.00e+00	0	43	0	577765376	69	4429
2026-01-27 23:13:40.06	66.48	33.19	-47.6	-49.5	17.8	0.00e+00	0	43	0	585105408	67	4300
2026-01-27 23:13:44.08	67.84	33.57	-47.8	-49.7	17.6	0.00e+00	0	43	0	592445440	67	4439
2026-01-27 23:13:48.10	69.23	33.95	-47.2	-48.8	18.4	0.00e+00	0	43	0	599785472	66	4229
2026-01-27 23:13:52.12	70.65	34.31	-47.4	-49.2	18.1	0.00e+00	0	43	0	608174080	66	4394
2026-01-27 23:13:56.15	72.11	34.65	-46.4	-47.9	19.3	0.00e+00	0	43	0	615514112	64	4255
2026-01-27 23:14:00.17	73.59	34.98	-47.5	-49.3	18.0	0.00e+00	0	43	0	622854144	65	4744
2026-01-27 23:14:04.20	75.10	35.29	-47.1	-48.8	18.4	0.00e+00	0	43	0	630194176	65	4461
2026-01-27 23:14:08.22	76.64	35.58	-47.1	-48.8	18.4	0.00e+00	0	43	0	637534208	65	4476
2026-01-27 23:14:12.24	78.21	35.85	-47.0	-48.6	18.7	0.00e+00	0	43	0	645922816	65	4364
2026-01-27 23:14:16.26	79.80	36.10	-46.2	-47.7	19.7	0.00e+00	0	43	0	653262848	63	4401
2026-01-27 23:14:20.29	81.42	36.32	-46.5	-48.0	19.3	0.00e+00	0	43	0	660602880	63	4574
2026-01-27 23:14:24.31	83.05	36.52	-46.7	-48.2	19.1	0.00e+00	0	43	0	667942912	64	4428
2026-01-27 23:14:28.34	84.71	36.70	-48.8	-51.0	16.4	0.00e+00	0	43	0	675282944	68	4857
2026-01-27 23:14:32.37	86.38	36.85	-47.6	-49.4	18.0	0.00e+00	0	43	0	682622976	67	4263
2026-01-27 23:14:36.40	88.07	36.97	-49.0	-51.5	16.0	0.00e+00	0	43	0	691011584	68	5108
2026-01-27 23:14:40.43	89.77	37.07	-48.7	-50.9	16.4	0.00e+00	0	43	0	698351616	68	4810
2026-01-27 23:14:44.45	91.47	37.14	-48.5	-50.6	16.8	0.00e+00	0	43	0	705691648	68	4633
2026-01-27 23:14:48.48	93.19	37.18	-49.0	-51.3	16.1	0.00e+00	0	43	0	713031680	69	4747
2026-01-27 23:14:52.51	94.90	37.19	-47.4	-49.1	18.3	0.00e+00	0	43	0	721420288	66	4370
2026-01-27 23:14:56.53	96.62	37.18	-47.1	-48.7	18.6	0.00e+00	0	43	0	728760320	66	4189
2026-01-27 23:15:00.56	98.33	37.13	-46.8	-48.4	18.9	0.00e+00	0	43	0	736100352	65	4282
2026-01-27 23:15:04.58	100.03	37.06	-47.3	-49.0	18.3	0.00e+00	0	43	0	743440384	65	4577
2026-01-27 23:15:08.61	101.73	36.96	-47.3	-49.0	18.4	0.00e+00	0	43	0	750780416	65	4557
2026-01-27 23:15:12.63	103.42	36.84	-49.1	-51.6	15.8	0.00e+00	0	43	0	759169024	68	5190
2026-01-27 23:15:16.66	105.09	36.68	-48.2	-50.1	17.3	0.00e+00	0	43	0	766509056	68	4386
2026-01-27 23:15:20.69	106.75	36.50	-47.7	-49.6	17.7	0.00e+00	0	43	0	773849088	67	4348
2026-01-27 23:15:24.71	108.38	36.30	-47.9	-49.8	17.5	0.00e+00	0	43	0	781189120	67	4489
2026-01-27 23:15:28.73	110.00	36.08	-47.2	-48.9	18.4	0.00e+00	0	43	0	788529152	66	4261
2026-01-27 23:15:32.75	111.59	35.83	-45.8	-47.1	20.2	0.00e+00	0	43	0	796917760	63	4134
2026-01-27 23:15:36.78	113.16	35.55	-45.5	-46.8	20.5	0.00e+00	0	43	0	804257792	62	4221
2026-01-27 23:15:40.81	114.70	35.26	-45.3	-46.5	20.7	0.00e+00	0	43	0	811597824	61	4322
2026-01-27 23:15:44.83	116.21	34.95	-45.4	-46.6	20.6	0.00e+00	0	43	0	818937856	62	4136
2026-01-27 23:15:48.85	117.70	34.62	-46.6	-48.2	19.0	0.00e+00	0	43	0	826277888	64	4422
2026-01-27 23:15:52.88	119.15	34.27	-45.7	-47.1	20.3	0.00e+00	0	43	0	833617920	62	4351
2026-01-27 23:15:56.90	120.57	33.91	-46.1	-47.6	19.7	0.00e+00	0	43	0	842006528	64	4102
2026-01-27 23:16:00.92	121.97	33.53	-47.2	-48.9	18.3	0.00e+00	0	43	0	849346560	64	4790
2026-01-27 23:16:04.94	123.32	33.14	-46.4	-47.8	19.4	0.00e+00	0	43	0	856686592	64	4220
2026-01-27 23:16:08.97	124.65	32.74	-47.0	-48.6	18.6	0.00e+00	0	43	0	864026624	66	4139
2026-01-27 23:16:12.99	125.95	32.33	-47.4	-49.2	18.0	0.00e+00	0	43	0	872415232	65	4704
2026-01-27 23:16:17.01	127.21	31.90	-47.3	-49.0	18.3	0.00e+00	0	43	0	879755264	66	4296
2026-01-27 23:16:21.02	128.44	31.47	-48.7	-50.9	16.4	0.00e+00	0	43	0	887095296	68	4797
2026-01-27 23:16:25.04	129.64	31.04	-47.0	-48.6	18.7	0.00e+00	0	43	0	894435328	65	4382
2026-01-27 23:16:29.07	130.81	30.59	-46.9	-48.5	18.7	0.00e+00	0	43	0	901775360	65	4304
2026-01-27 23:16:33.08	131.94	30.14	-48.0	-50.0	17.3	0.00e+00	0	43	0	909115392	66	4829
2026-01-27 23:16:37.11	133.05	29.68	-47.4	-49.2	18.1	0.00e+00	0	43	0	917504000	66	4415
2026-01-27 23:16:41.13	134.12	29.23	-49.4	-52.1	15.1	0.00e+00	0	43	0	924844032	69	5213
2026-01-27 23:16:45.15	135.17	28.76	-45.8	-47.1	20.0	0.00e+00	0	43	0	932184064	63	4134
2026-01-27 23:16:49.16	136.18	28.30	-48.0	-50.1	17.0	0.00e+00	0	43	0	939524096	66	4921
2026-01-27 23:16:53.18	137.17	27.84	-45.7	-47.0	20.1	0.00e+00	0	43	0	946864128	63	4094
2026-01-27 23:16:57.19	138.13	27.37	-46.4	-47.9	19.1	0.00e+00	0	43	0	955252736	64	4276
2026-01-27 23:17:01.22	139.06	26.90	-45.1	-46.3	20.7	0.00e+00	0	43	0	962592768	61	4217
2026-01-27 23:17:05.23	139.97	26.44	-45.9	-47.3	19.8	0.00e+00	0	43	0	969932800	62	4473
2026-01-27 23:17:09.25	140.85	25.97	-44.4	-45.6	21.4	0.00e+00	0	43	0	977272832	60	4125
2026-01-27 23:17:13.28	141.71	25.51	-45.1	-46.4	20.6	0.00e+00	0	43	0	984612864	60	4509
2026-01-27 23:17:17.29	142.54	25.05	-43.6	-44.7	22.5	0.00e+00	0	43	0	993001472	59	3926
2026-01-27 23:17:21.32	143.35	24.59	-44.6	-45.8	21.5	0.00e+00	0	43	0	1000341504	59	4462
2026-01-27 23:17:25.35	144.14	24.13	-44.2	-45.3	21.6	0.00e+00	0	43	0	1007681536	60	3997
2026-01-27 23:17:29.36	144.90	23.67	-44.1	-45.2	22.0	0.00e+00	0	43	0	1015021568	59	4190
2026-01-27 23:17:33.38	145.64	23.22	-44.7	-46.0	20.9	0.00e+00	0	43	0	1022361600	60	4292
2026-01-27 23:17:37.41	146.37	22.77	-44.0	-45.1	22.1	0.00e+00	0	43	0	1029701632	59	4119
2026-01-27 23:17:41.42	147.07	22.32	-44.7	-45.9	21.3	0.00e+00	0	43	0	1038090240	59	4509
2026-01-27 23:17:45.45	147.75	21.88	-44.5	-45.7	21.1	0.00e+00	0	43	0	1045430272	60	4190
2026-01-27 23:17:49.47	148.42	21.44	-44.5	-45.6	21.2	0.00e+00	0	43	0	1052770304	60	4138
2026-01-27 23:17:53.49	149.06	21.01	-44.9	-46.2	20.7	0.00e+00	0	43	0	1060110336	60	4402
2026-01-27 23:17:57.52	149.69	20.58	-44.2	-45.4	21.4	0.00e+00	0	43	0	1067450368	60	4009
2026-01-27 23:18:01.54	150.31	20.15	-44.6	-45.8	21.0	0.00e+00	0	43	0	1075838976	60	4229
2026-01-27 23:18:05.57	150.91	19.72	-45.4	-46.8	20.0	0.00e+00	0	43	0	1083179008	61	4476
2026-01-27 23:18:09.59	151.49	19.31	-45.3	-46.7	20.1	0.00e+00	0	43	0	1090519040	61	4404
2026-01-27 23:18:13.62	152.05	18.89	-46.1	-47.6	19.2	0.00e+00	0	43	0	1097859072	62	4623
2026-01-27 23:18:17.64	152.61	18.48	-46.4	-48.0	18.9	0.00e+00	0	43	0	1105199104	63	4554
2026-01-27 23:18:21.66	153.14	18.07	-45.3	-46.6	20.1	0.00e+00	0	43	0	1113587712	62	4141
2026-01-27 23:18:25.69	153.67	17.67	-45.2	-46.5	20.2	0.00e+00	0	43	0	1120927744	62	4093
2026-01-27 23:18:29.71	154.18	17.28	-45.8	-47.3	19.5	0.00e+00	0	43	0	1128267776	62	4481
2026-01-27 23:18:33.74	154.68	16.88	-46.1	-47.6	19.1	0.00e+00	0	43	0	1135607808	62	4625
2026-01-27 23:18:37.77	155.16	16.49	-45.6	-47.0	19.7	0.00e+00	0	43	0	1142947840	62	4330
2026-01-27 23:18:41.79	155.64	16.11	-45.4	-46.8	19.9	0.00e+00	0	43	0	1151336448	62	4206
2026-01-27 23:18:45.82	156.10	15.73	-45.7	-47.1	19.6	0.00e+00	0	43	0	1158676480	62	4378
2026-01-27 23:18:49.86	156.55	15.35	-45.9	-47.4	19.2	0.00e+00	0	43	0	1166016512	62	4545
2026-01-27 23:18:53.89	156.99	14.98	-45.9	-47.4	19.3	0.00e+00	0	43	0	1173356544	62	4508
2026-01-27 23:18:57.91	157.42	14.61	-45.7	-47.2	19.4	0.00e+00	0	43	0	1180696576	62	4428
2026-01-27 23:19:01.93	157.84	14.25	-45.9	-47.4	19.3	0.00e+00	0	43	0	1189085184	62	4525
2026-01-27 23:19:05.96	158.26	13.89	-46.2	-47.8	18.9	0.00e+00	0	43	0	1196425216	62	4728
2026-01-27 23:19:09.99	158.66	13.53	-46.3	-48.0	18.6	0.00e+00	0	43	0	1203765248	63	4565
2026-01-27 23:19:14.01	159.05	13.18	-46.1	-47.6	19.0	0.00e+00	0	43	0	1211105280	63	4386
2026-01-27 23:19:18.03	159.43	12.83	-45.9	-47.5	19.1	0.00e+00	0	43	0	1218445312	63	4299
2026-01-27 23:19:22.07	159.81	12.48	-46.0	-47.5	19.1	0.00e+00	0	43	0	1226833920	63	4319
2026-01-27 23:19:26.09	160.17	12.14	-46.0	-47.6	19.0	0.00e+00	0	43	0	1234173952	63	4347
2026-01-27 23:19:30.11	160.53	11.81	-46.3	-47.9	18.7	0.00e+00	0	43	0	1241513984	63	4513
2026-01-27 23:19:34.14	160.88	11.47	-46.5	-48.2	18.4	0.00e+00	0	43	0	1248854016	63	4664
2026-01-27 23:19:38.16	161.23	11.15	-46.5	-48.2	18.3	0.00e+00	0	43	0	1256194048	63	4674
2026-01-27 23:19:42.18	161.56	10.82	-46.6	-48.4	18.0	0.00e+00	0	43	0	1263534080	64	4526
2026-01-27 23:19:46.20	161.89	10.50	-46.6	-48.4	18.0	0.00e+00	0	43	0	1271922688	64	4518
2026-01-27 23:19:50.23	162.22	10.18	-46.8	-48.6	17.7	0.00e+00	0	43	0	1279262720	64	4644
2026-01-27 23:19:54.25	162.53	9.86	-46.9	-48.8	17.5	0.00e+00	0	43	0	1286602752	64	4749
2026-01-27 23:19:58.28	162.84	9.55	-47.0	-48.9	17.4	0.00e+00	0	43	0	1293942784	64	4810
2026-01-27 23:20:02.31	163.15	9.24	-47.3	-49.3	17.0	0.00e+00	0	43	0	1302331392	65	4745
2026-01-27 23:20:06.34	163.44	8.93	-47.4	-49.5	16.8	0.00e+00	0	43	0	1309671424	65	4860
2026-01-27 23:20:10.37	163.74	8.63	-47.4	-49.5	16.7	0.00e+00	0	43	0	1317011456	65	4870
2026-01-27 23:20:14.39	164.02	8.33	-47.3	-49.4	16.8	0.00e+00	0	43	0	1324351488	65	4796
2026-01-27 23:20:18.42	164.30	8.03	-47.3	-49.3	16.9	0.00e+00	0	43	0	1331691520	65	4757
2026-01-27 23:20:22.45	164.58	7.74	-47.4	-49.5	16.7	0.00e+00	0	43	0	1340080128	65	4846
2026-01-27 23:20:26.48	164.85	7.45	-47.3	-49.5	16.7	0.00e+00	0	43	0	1347420160	65	4845
2026-01-27 23:20:30.51	165.11	7.16	-47.6	-49.9	16.2	0.00e+00	0	43	0	1354760192	65	5088
2026-01-27 23:20:34.53	165.37	6.87	-48.0	-50.5	15.6	0.00e+00	0	43	0	1362100224	66	5105
2026-01-27 23:20:38.55	165.63	6.59	-48.7	-51.1	15.2	0.00e+00	0	43	0	1369440256	67	5172
2026-01-27 23:20:42.58	165.88	6.31	-48.4	-51.2	14.8	0.00e+00	0	43	0	1376780288	67	5269
2026-01-27 23:20:46.61	166.13	6.03	-48.6	-51.7	14.3	0.00e+00	0	43	0	1385168896	67	5551
2026-01-27 23:20:50.63	166.37	5.75	-48.7	-51.8	14.1	7.00e-07	0	43	0	1392508928	67	5614
2026-01-27 23:20:54.66	166.61	5.48	-48.7	-51.7	14.3	7.00e-07	0	43	0	1399848960	68	5261
2026-01-27 23:20:58.70	166.84	5.21	-48.5	-51.4	14.5	7.00e-07	0	43	0	1407188992	68	5085
2026-01-27 23:21:02.72	167.07	4.94	-48.6	-63.5	3.8	1.49e+00	0	43	104	1413480448	69	19338
2026-01-27 23:21:06.75	167.30	4.68	-48.7	-63.6	3.8	1.49e+00	0	43	104	1413480448	69	19572
2026-01-27 23:21:10.77	167.52	4.41	-48.7	-63.6	3.8	1.49e+00	0	43	104	1413480448	69	19547
2026-01-27 23:21:14.80	167.74	4.15	-48.7	-63.6	3.8	1.49e+00	0	43	104	1413480448	69	19475
2026-01-27 23:21:18.83	167.95	3.89	-48.7	-63.6	3.8	1.49e+00	0	43	104	1413480448	69	19401
2026-01-27 23:21:22.85	168.17	3.64	-48.7	-63.6	3.8	1.49e+00	0	43	104	1413480448	69	19409
2026-01-27 23:21:26.87	168.37	3.38	-48.7	-63.6	3.8	1.49e+00	0	43	104	1413480448	69	19432
2026-01-27 23:21:30.90	168.58	3.13	-48.7	-63.6	3.8	1.49e+00	0	44	104	1413480448	69	19410
2026-01-27 23:21:34.92	168.78	2.88	-48.7	-63.5	3.8	1.49e+00	0	43	104	1413480448	69	19352
2026-01-27 23:21:38.95	168.98	2.63	-48.7	-63.6	3.8	1.49e+00	0	43	104	1413480448	69	19422
2026-01-27 23:21:42.99	169.17	2.38	-48.7	-63.6	3.8	1.49e+00	0	44	104	1413480448	69	19522
2026-01-27 23:21:47.01	169.37	2.14	-48.7	-63.5	3.8	1.49e+00	0	43	104	1413480448	69	19282

#Closed at: 2026-01-27 23:21:49
#Recorded file [1413 MB]: D:/lorett/data/31041_260128_020753.dat