passes_logs/2026/01/27/R3.2S_Murmansk/R3.2S_Murmansk__20260127_122655_SUOMI_NPP_rec.log

#Pass ID: 20260127_122655_SUOMI NPP
#Satellite: SUOMI NPP
#Configuration: NPP
#almurnet v.1.7.20251203
#Start time: 2026-01-27 12:26:57

#Version: 2.2.20231116
#Station: R3.2S_Murmansk
#Location: 33.079688 lon 68.888172 lat
#TLE: 1 37849U 11061A   26027.29799992  .00000188  00000+0  11027-3 0  9993
#TLE: 2 37849  98.7822 329.2414 0002113  42.5791 317.5548 14.19530708738457

#Time	Az	El	Level	Level2	SNR	BER	BlckErr	Temp	State	Recorded	gain1	gain2
2026-01-27 12:26:57.08	224.83	2.11	-54.1	-69.1	3.8	1.49e+00	0	41	0	0	79	20543
2026-01-27 12:27:00.05	225.08	2.26	-54.4	-69.4	3.8	1.49e+00	0	41	104	0	79	21297
2026-01-27 12:27:03.04	225.33	2.41	-54.4	-69.3	3.8	1.49e+00	0	41	104	0	79	21170
2026-01-27 12:27:06.02	225.58	2.57	-54.2	-69.2	3.8	1.49e+00	0	41	104	0	79	20889
2026-01-27 12:27:09.04	225.84	2.72	-54.1	-69.1	3.8	1.49e+00	0	41	104	0	79	20600
2026-01-27 12:27:12.07	226.11	2.88	-53.9	-68.9	3.8	1.49e+00	0	41	104	0	79	20135
2026-01-27 12:27:15.09	226.37	3.04	-53.7	-68.7	3.8	1.49e+00	0	41	104	0	79	19651
2026-01-27 12:27:18.12	226.64	3.20	-53.1	-68.0	3.8	1.49e+00	0	41	104	0	78	19326
2026-01-27 12:27:21.14	226.92	3.35	-52.6	-67.5	3.8	1.49e+00	0	41	104	0	76	20466
2026-01-27 12:27:24.17	227.19	3.51	-52.5	-67.5	3.8	1.49e+00	0	42	104	0	75	21604
2026-01-27 12:27:27.19	227.47	3.67	-52.5	-67.5	3.8	1.49e+00	0	42	104	0	75	21581
2026-01-27 12:27:30.21	227.75	3.83	-52.5	-67.4	3.8	1.49e+00	0	42	104	0	75	21296
2026-01-27 12:27:33.23	228.03	3.99	-52.5	-67.4	3.8	1.49e+00	0	42	104	0	75	21349
2026-01-27 12:27:36.26	228.32	4.15	-52.5	-67.4	3.8	1.49e+00	0	42	104	0	75	21352
2026-01-27 12:27:39.29	228.61	4.31	-52.5	-67.4	3.8	1.49e+00	0	42	104	0	75	21367
2026-01-27 12:27:42.31	228.90	4.47	-52.5	-66.6	3.8	1.49e+00	0	42	104	0	75	19428
2026-01-27 12:27:45.33	229.19	4.64	-52.4	-65.6	3.8	1.49e+00	0	42	104	0	75	17410
2026-01-27 12:27:48.35	229.49	4.80	-52.1	-61.8	5.0	1.23e+00	0	42	0	1048576	75	11243
2026-01-27 12:27:51.38	229.79	4.96	-50.5	-55.0	11.2	6.46e-03	0	42	0	6291456	73	5764
2026-01-27 12:27:54.40	230.10	5.12	-51.6	-58.6	7.5	1.13e-01	0	42	0	12582912	74	8267
2026-01-27 12:27:57.42	230.41	5.28	-49.9	-54.5	11.3	5.97e-01	0	42	0	17825792	71	6118
2026-01-27 12:28:00.45	230.72	5.45	-48.3	-50.7	15.6	0.00e+00	0	42	0	23068672	68	4700
2026-01-27 12:28:03.47	231.03	5.61	-48.0	-50.3	16.1	0.00e+00	0	42	0	29360128	66	5018
2026-01-27 12:28:06.49	231.35	5.77	-47.9	-50.1	16.3	0.00e+00	0	42	0	34603008	66	4915
2026-01-27 12:28:09.52	231.67	5.94	-47.5	-49.5	16.9	0.00e+00	0	42	0	40894464	66	4592
2026-01-27 12:28:12.54	232.00	6.10	-47.5	-49.6	16.9	0.00e+00	0	42	0	46137344	66	4632
2026-01-27 12:28:15.57	232.33	6.27	-47.5	-49.6	16.8	0.00e+00	0	42	0	51380224	66	4618
2026-01-27 12:28:18.59	232.66	6.43	-47.6	-49.7	16.8	0.00e+00	0	42	0	57671680	66	4700
2026-01-27 12:28:21.62	233.00	6.60	-47.8	-50.0	16.5	0.00e+00	0	42	0	62914560	66	4853
2026-01-27 12:28:24.65	233.34	6.76	-48.1	-50.3	16.2	0.00e+00	0	42	0	69206016	66	5028
2026-01-27 12:28:27.67	233.68	6.93	-47.8	-49.9	16.6	0.00e+00	0	42	0	74448896	66	4795
2026-01-27 12:28:30.69	234.03	7.09	-47.8	-49.9	16.7	0.00e+00	0	42	0	79691776	66	4792
2026-01-27 12:28:33.71	234.38	7.26	-47.4	-49.3	17.2	0.00e+00	0	42	0	85983232	66	4487
2026-01-27 12:28:36.72	234.73	7.42	-47.1	-49.0	17.5	0.00e+00	0	43	0	91226112	66	4329
2026-01-27 12:28:39.74	235.09	7.59	-46.7	-48.4	18.1	0.00e+00	0	42	0	97517568	65	4281
2026-01-27 12:28:42.75	235.45	7.76	-46.6	-48.3	18.3	0.00e+00	0	43	0	102760448	65	4194
2026-01-27 12:28:45.78	235.81	7.92	-46.8	-48.6	17.9	0.00e+00	0	42	0	108003328	65	4372
2026-01-27 12:28:48.80	236.18	8.09	-46.9	-48.7	17.9	0.00e+00	0	42	0	114294784	65	4431
2026-01-27 12:28:51.82	236.56	8.26	-46.6	-48.3	18.3	0.00e+00	0	43	0	119537664	65	4218
2026-01-27 12:28:54.84	236.94	8.42	-46.8	-48.6	18.1	0.00e+00	0	42	0	125829120	65	4352
2026-01-27 12:28:57.87	237.32	8.59	-46.8	-48.5	18.2	0.00e+00	0	42	0	131072000	65	4307
2026-01-27 12:29:00.89	237.71	8.76	-46.8	-48.5	18.2	0.00e+00	0	43	0	136314880	65	4324
2026-01-27 12:29:03.91	238.10	8.92	-46.9	-48.6	18.1	0.00e+00	0	42	0	142606336	65	4365
2026-01-27 12:29:06.93	238.49	9.09	-46.9	-48.6	18.1	0.00e+00	0	42	0	147849216	65	4368
2026-01-27 12:29:09.96	238.89	9.26	-46.7	-48.4	18.3	0.00e+00	0	43	0	154140672	65	4262
2026-01-27 12:29:12.98	239.30	9.42	-46.6	-48.3	18.5	0.00e+00	0	42	0	159383552	65	4200
2026-01-27 12:29:16.00	239.71	9.59	-46.4	-48.0	18.7	0.00e+00	0	43	0	164626432	64	4320
2026-01-27 12:29:19.02	240.12	9.75	-46.7	-48.4	18.3	0.00e+00	0	42	0	170917888	64	4530
2026-01-27 12:29:22.04	240.54	9.92	-46.5	-48.1	18.6	0.00e+00	0	43	0	176160768	64	4351
2026-01-27 12:29:25.06	240.96	10.09	-46.5	-48.2	18.5	0.00e+00	0	42	0	182452224	64	4402
2026-01-27 12:29:28.08	241.39	10.25	-46.6	-48.3	18.4	0.00e+00	0	42	0	187695104	64	4480
2026-01-27 12:29:31.11	241.82	10.42	-46.5	-48.1	18.6	0.00e+00	0	42	0	192937984	64	4379
2026-01-27 12:29:34.13	242.25	10.58	-46.6	-48.2	18.5	0.00e+00	0	43	0	199229440	64	4420
2026-01-27 12:29:37.15	242.69	10.75	-46.8	-48.5	18.3	0.00e+00	0	42	0	204472320	64	4573
2026-01-27 12:29:40.17	243.14	10.91	-46.9	-48.7	18.1	0.00e+00	0	42	0	210763776	64	4662
2026-01-27 12:29:43.19	243.59	11.07	-47.0	-48.8	18.0	0.00e+00	0	42	0	216006656	65	4466
2026-01-27 12:29:46.21	244.05	11.24	-46.7	-48.3	18.5	0.00e+00	0	43	0	221249536	65	4229
2026-01-27 12:29:49.22	244.50	11.40	-46.4	-48.0	18.8	0.00e+00	0	43	0	227540992	64	4293
2026-01-27 12:29:52.25	244.97	11.56	-46.2	-47.7	19.0	0.00e+00	0	42	0	232783872	64	4187
2026-01-27 12:29:55.26	245.44	11.72	-46.1	-47.7	19.1	0.00e+00	0	43	0	239075328	64	4158
2026-01-27 12:29:58.28	245.91	11.88	-45.7	-47.1	19.7	0.00e+00	0	43	0	244318208	63	4143
2026-01-27 12:30:01.31	246.40	12.04	-45.3	-46.6	20.2	0.00e+00	0	43	0	249561088	62	4134
2026-01-27 12:30:04.33	246.88	12.20	-45.6	-47.0	19.8	0.00e+00	0	43	0	255852544	62	4303
2026-01-27 12:30:07.36	247.37	12.36	-45.9	-47.3	19.6	0.00e+00	0	43	0	261095424	62	4463
2026-01-27 12:30:10.37	247.87	12.52	-45.9	-47.4	19.5	0.00e+00	0	43	0	267386880	62	4513
2026-01-27 12:30:13.39	248.37	12.67	-45.8	-47.2	19.7	0.00e+00	0	43	0	272629760	62	4408
2026-01-27 12:30:16.41	248.87	12.83	-45.7	-47.1	19.7	0.00e+00	0	43	0	277872640	62	4391
2026-01-27 12:30:19.44	249.38	12.98	-45.7	-47.1	19.7	0.00e+00	0	42	0	284164096	62	4391
2026-01-27 12:30:22.47	249.90	13.14	-45.8	-47.2	19.6	0.00e+00	0	43	0	289406976	62	4426
2026-01-27 12:30:25.48	250.42	13.29	-46.0	-47.4	19.3	0.00e+00	0	42	0	295698432	62	4529
2026-01-27 12:30:28.51	250.95	13.44	-46.0	-47.5	19.3	0.00e+00	0	42	0	300941312	62	4584
2026-01-27 12:30:31.52	251.48	13.59	-45.9	-47.4	19.4	0.00e+00	0	43	0	306184192	62	4508
2026-01-27 12:30:34.54	252.02	13.74	-46.0	-47.5	19.4	0.00e+00	0	43	0	312475648	62	4554
2026-01-27 12:30:37.55	252.56	13.88	-46.1	-47.6	19.3	0.00e+00	0	43	0	317718528	62	4632
2026-01-27 12:30:40.57	253.10	14.03	-46.3	-47.8	19.2	0.00e+00	0	43	0	324009984	63	4465
2026-01-27 12:30:43.60	253.66	14.17	-46.3	-47.8	19.2	0.00e+00	0	43	0	329252864	63	4462
2026-01-27 12:30:46.62	254.21	14.32	-46.5	-48.1	19.0	0.00e+00	0	43	0	334495744	63	4607
2026-01-27 12:30:49.64	254.78	14.46	-46.8	-48.5	18.4	0.00e+00	0	43	0	340787200	64	4574
2026-01-27 12:30:52.66	255.34	14.60	-46.7	-48.3	18.6	0.00e+00	0	43	0	346030080	64	4483
2026-01-27 12:30:55.68	255.92	14.73	-46.5	-48.1	18.8	0.00e+00	0	43	0	352321536	64	4373
2026-01-27 12:30:58.71	256.50	14.87	-46.4	-48.0	18.9	0.00e+00	0	43	0	357564416	64	4318
2026-01-27 12:31:01.73	257.08	15.00	-46.6	-48.1	18.8	0.00e+00	0	43	0	362807296	64	4391
2026-01-27 12:31:04.75	257.67	15.13	-46.7	-48.4	18.6	0.00e+00	0	43	0	369098752	64	4506
2026-01-27 12:31:07.77	258.26	15.26	-47.0	-48.8	18.2	0.00e+00	0	43	0	374341632	64	4714
2026-01-27 12:31:10.79	258.86	15.39	-46.5	-48.0	18.9	0.00e+00	0	42	0	380633088	64	4335
2026-01-27 12:31:13.81	259.46	15.51	-46.7	-48.4	18.6	0.00e+00	0	43	0	385875968	64	4495
2026-01-27 12:31:16.83	260.07	15.63	-47.1	-48.8	18.2	0.00e+00	0	43	0	391118848	64	4730
2026-01-27 12:31:19.85	260.68	15.75	-47.1	-48.8	18.2	0.00e+00	0	43	0	397410304	64	4743
2026-01-27 12:31:22.87	261.30	15.87	-47.3	-49.1	17.9	0.00e+00	0	43	0	402653184	65	4631
2026-01-27 12:31:25.89	261.92	15.98	-47.3	-49.0	18.0	0.00e+00	0	43	0	408944640	65	4586
2026-01-27 12:31:28.91	262.54	16.10	-46.5	-48.0	18.9	0.00e+00	0	43	0	414187520	65	4090
2026-01-27 12:31:31.93	263.17	16.20	-46.9	-48.6	18.4	0.00e+00	0	43	0	419430400	64	4602
2026-01-27 12:31:34.96	263.81	16.31	-46.9	-48.6	18.4	0.00e+00	0	43	0	425721856	64	4601
2026-01-27 12:31:37.98	264.45	16.41	-46.1	-47.6	19.3	0.00e+00	0	43	0	430964736	64	4127
2026-01-27 12:31:41.00	265.09	16.51	-46.3	-47.8	19.2	0.00e+00	0	43	0	437256192	63	4490
2026-01-27 12:31:44.02	265.74	16.61	-46.4	-47.9	19.2	0.00e+00	0	43	0	442499072	63	4528
2026-01-27 12:31:47.04	266.39	16.71	-46.0	-47.5	19.5	0.00e+00	0	43	0	447741952	63	4308
2026-01-27 12:31:50.05	267.05	16.80	-46.2	-47.6	19.4	0.00e+00	0	43	0	454033408	63	4375
2026-01-27 12:31:53.07	267.71	16.88	-45.9	-47.3	19.7	0.00e+00	0	43	0	459276288	63	4207
2026-01-27 12:31:56.09	268.37	16.97	-45.9	-47.2	19.8	0.00e+00	0	43	0	465567744	63	4188
2026-01-27 12:31:59.12	269.04	17.05	-46.7	-48.3	18.8	0.00e+00	0	42	0	470810624	63	4724
2026-01-27 12:32:02.14	269.71	17.13	-46.6	-48.2	18.8	0.00e+00	0	43	0	476053504	64	4409
2026-01-27 12:32:05.16	270.38	17.20	-46.4	-47.9	19.1	0.00e+00	0	43	0	482344960	64	4259
2026-01-27 12:32:08.18	271.06	17.27	-45.8	-47.1	19.8	0.00e+00	0	43	0	487587840	63	4145
2026-01-27 12:32:11.20	271.73	17.34	-45.4	-46.7	20.3	0.00e+00	0	43	0	493879296	62	4169
2026-01-27 12:32:14.23	272.42	17.40	-46.0	-47.5	19.6	0.00e+00	0	43	0	499122176	62	4557
2026-01-27 12:32:17.24	273.10	17.46	-46.1	-47.6	19.5	0.00e+00	0	43	0	504365056	63	4354
2026-01-27 12:32:20.26	273.79	17.52	-46.2	-47.6	19.4	0.00e+00	0	43	0	510656512	63	4389
2026-01-27 12:32:23.29	274.48	17.57	-46.4	-48.0	19.1	0.00e+00	0	43	0	515899392	63	4560
2026-01-27 12:32:26.31	275.17	17.62	-45.8	-47.2	19.8	0.00e+00	0	43	0	522190848	63	4166
2026-01-27 12:32:29.33	275.86	17.66	-46.2	-47.7	19.4	0.00e+00	0	43	0	527433728	63	4426
2026-01-27 12:32:32.34	276.56	17.70	-46.2	-47.6	19.4	0.00e+00	0	43	0	532676608	63	4375
2026-01-27 12:32:35.36	277.25	17.74	-46.2	-47.6	19.4	0.00e+00	0	42	0	538968064	63	4380
2026-01-27 12:32:38.38	277.95	17.77	-47.3	-49.0	18.0	0.00e+00	0	43	0	544210944	65	4588
2026-01-27 12:32:41.40	278.65	17.80	-47.5	-49.3	17.8	0.00e+00	0	43	0	550502400	65	4752
2026-01-27 12:32:44.42	279.35	17.82	-47.4	-49.2	17.8	0.00e+00	0	43	0	555745280	65	4685
2026-01-27 12:32:47.44	280.05	17.84	-47.4	-49.1	18.0	0.00e+00	0	43	0	560988160	66	4375
2026-01-27 12:32:50.46	280.76	17.86	-46.7	-48.3	18.8	0.00e+00	0	43	0	567279616	65	4205
2026-01-27 12:32:53.49	281.46	17.87	-46.7	-48.3	18.8	0.00e+00	0	43	0	572522496	65	4210
2026-01-27 12:32:56.50	282.16	17.87	-46.2	-47.7	19.4	0.00e+00	0	43	0	578813952	64	4158
2026-01-27 12:32:59.52	282.87	17.88	-46.7	-48.3	18.8	0.00e+00	0	43	0	584056832	64	4468
2026-01-27 12:33:02.55	283.57	17.88	-46.7	-48.2	18.8	0.00e+00	0	43	0	589299712	64	4437
2026-01-27 12:33:05.57	284.28	17.87	-46.8	-48.4	18.7	0.00e+00	0	43	0	595591168	64	4521
2026-01-27 12:33:08.59	284.98	17.86	-47.0	-48.6	18.5	0.00e+00	0	43	0	600834048	64	4639
2026-01-27 12:33:11.61	285.68	17.85	-46.5	-48.0	19.1	0.00e+00	0	43	0	607125504	64	4327
2026-01-27 12:33:14.64	286.39	17.83	-46.1	-47.5	19.5	0.00e+00	0	43	0	612368384	64	4077
2026-01-27 12:33:17.66	287.09	17.81	-46.5	-48.0	19.1	0.00e+00	0	43	0	617611264	64	4305
2026-01-27 12:33:20.68	287.79	17.78	-46.6	-48.2	19.0	0.00e+00	0	43	0	623902720	64	4415
2026-01-27 12:33:23.70	288.49	17.75	-47.1	-48.8	18.4	0.00e+00	0	43	0	629145600	64	4750
2026-01-27 12:33:26.73	289.19	17.72	-47.6	-49.4	17.8	0.00e+00	0	43	0	635437056	65	4811
2026-01-27 12:33:29.74	289.88	17.68	-47.5	-49.3	17.9	0.00e+00	0	43	0	640679936	65	4751
2026-01-27 12:33:32.76	290.57	17.64	-47.6	-49.5	17.8	0.00e+00	0	43	0	645922816	66	4549
2026-01-27 12:33:35.78	291.26	17.59	-46.7	-48.3	18.9	0.00e+00	0	43	0	652214272	65	4214
2026-01-27 12:33:38.81	291.96	17.54	-46.1	-47.5	19.8	0.00e+00	0	43	0	657457152	63	4307
2026-01-27 12:33:41.83	292.64	17.49	-45.7	-47.0	20.1	0.00e+00	0	43	0	663748608	63	4088
2026-01-27 12:33:44.85	293.33	17.43	-45.8	-47.1	20.1	0.00e+00	0	43	0	668991488	62	4386
2026-01-27 12:33:47.88	294.01	17.37	-46.5	-47.9	19.4	0.00e+00	0	43	0	674234368	63	4542
2026-01-27 12:33:50.90	294.69	17.31	-46.5	-48.0	19.2	0.00e+00	0	43	0	680525824	64	4332
2026-01-27 12:33:53.92	295.37	17.24	-46.6	-48.1	19.1	0.00e+00	0	43	0	685768704	64	4383
2026-01-27 12:33:56.95	296.04	17.17	-46.0	-47.3	19.8	0.00e+00	0	43	0	692060160	64	4003
2026-01-27 12:33:59.97	296.71	17.09	-45.6	-46.9	20.3	0.00e+00	0	43	0	697303040	63	4045
2026-01-27 12:34:02.99	297.38	17.01	-45.9	-47.3	19.9	0.00e+00	0	43	0	703594496	63	4200
2026-01-27 12:34:06.02	298.04	16.93	-46.0	-47.4	19.8	0.00e+00	0	43	0	708837376	63	4270
2026-01-27 12:34:09.03	298.70	16.84	-46.0	-47.4	19.8	0.00e+00	0	43	0	714080256	63	4243
2026-01-27 12:34:12.05	299.36	16.75	-45.6	-47.0	20.2	0.00e+00	0	43	0	720371712	63	4060
2026-01-27 12:34:15.08	300.01	16.66	-45.7	-47.0	20.1	0.00e+00	0	42	0	725614592	63	4084
2026-01-27 12:34:18.10	300.66	16.57	-45.8	-47.2	19.9	0.00e+00	0	42	0	731906048	63	4162
2026-01-27 12:34:21.12	301.30	16.47	-45.1	-46.3	20.6	0.00e+00	0	43	0	737148928	62	3992
2026-01-27 12:34:24.14	301.94	16.37	-45.1	-46.3	20.6	0.00e+00	0	43	0	742391808	61	4224
2026-01-27 12:34:27.17	302.58	16.26	-45.2	-46.5	20.5	0.00e+00	0	43	0	748683264	61	4295
2026-01-27 12:34:30.19	303.21	16.15	-45.4	-46.7	20.2	0.00e+00	0	43	0	753926144	61	4428
2026-01-27 12:34:33.22	303.84	16.04	-45.3	-46.6	20.3	0.00e+00	0	43	0	760217600	61	4370
2026-01-27 12:34:36.24	304.46	15.93	-45.6	-46.9	19.9	0.00e+00	0	43	0	765460480	61	4526
2026-01-27 12:34:39.26	305.08	15.82	-45.8	-47.2	19.4	0.00e+00	0	43	0	770703360	62	4402
2026-01-27 12:34:42.28	305.69	15.70	-45.6	-46.9	19.4	0.00e+00	0	43	0	776994816	62	4272
2026-01-27 12:34:45.30	306.30	15.58	-45.0	-46.6	12.2	0.00e+00	0	42	0	782237696	61	4390
2026-01-27 12:34:48.32	306.90	15.46	-43.3	-45.9	5.4	5.65e-01	0	43	0	788529152	57	5077
2026-01-27 12:34:51.35	307.50	15.33	-45.3	-46.7	16.4	0.00e+00	0	43	0	793772032	61	4438
2026-01-27 12:34:54.36	308.09	15.20	-45.5	-46.8	19.6	0.00e+00	0	43	0	799014912	61	4487
2026-01-27 12:34:57.38	308.68	15.08	-45.8	-47.2	19.7	0.00e+00	0	43	0	805306368	62	4401
2026-01-27 12:35:00.40	309.26	14.94	-46.6	-48.3	18.7	0.00e+00	0	43	0	810549248	63	4711
2026-01-27 12:35:03.43	309.84	14.81	-46.6	-48.2	18.6	0.00e+00	0	43	0	816840704	64	4428
2026-01-27 12:35:06.46	310.42	14.68	-46.0	-47.4	19.4	0.00e+00	0	43	0	822083584	64	4049
2026-01-27 12:35:09.49	310.99	14.54	-45.8	-47.2	19.7	0.00e+00	0	43	0	828375040	63	4165
2026-01-27 12:35:12.51	311.55	14.40	-46.3	-47.8	19.0	0.00e+00	0	43	0	833617920	63	4472
2026-01-27 12:35:15.53	312.11	14.26	-46.4	-47.9	19.0	0.00e+00	0	43	0	838860800	63	4512
2026-01-27 12:35:18.55	312.66	14.12	-46.5	-48.0	18.8	0.00e+00	0	43	0	845152256	64	4338
2026-01-27 12:35:21.58	313.21	13.97	-47.1	-48.9	18.0	0.00e+00	0	43	0	850395136	64	4762
2026-01-27 12:35:24.60	313.75	13.83	-46.9	-48.6	18.2	0.00e+00	0	43	0	856686592	64	4646
2026-01-27 12:35:27.62	314.29	13.68	-46.9	-48.7	18.1	0.00e+00	0	43	0	861929472	64	4658
2026-01-27 12:35:30.64	314.82	13.53	-47.2	-49.0	17.8	0.00e+00	0	43	0	867172352	65	4575
2026-01-27 12:35:33.66	315.35	13.38	-47.2	-49.0	17.8	0.00e+00	0	43	0	873463808	65	4565
2026-01-27 12:35:36.68	315.87	13.23	-46.6	-48.3	18.5	0.00e+00	0	43	0	878706688	65	4216
2026-01-27 12:35:39.71	316.38	13.08	-46.6	-48.3	18.5	0.00e+00	0	43	0	884998144	64	4461
2026-01-27 12:35:42.74	316.90	12.93	-46.6	-48.3	18.5	0.00e+00	0	43	0	890241024	64	4458
2026-01-27 12:35:45.76	317.40	12.77	-46.8	-48.6	18.2	0.00e+00	0	43	0	895483904	64	4601
2026-01-27 12:35:48.79	317.91	12.62	-47.3	-49.2	17.7	0.00e+00	0	43	0	901775360	65	4656
2026-01-27 12:35:51.80	318.40	12.46	-47.4	-49.3	17.5	0.00e+00	0	43	0	907018240	65	4711
2026-01-27 12:35:54.81	318.89	12.31	-47.2	-49.0	17.8	0.00e+00	0	43	0	913309696	65	4569
2026-01-27 12:35:57.84	319.38	12.15	-46.9	-48.7	18.1	0.00e+00	0	43	0	918552576	65	4403
2026-01-27 12:36:00.86	319.86	11.99	-47.0	-48.7	18.1	0.00e+00	0	43	0	923795456	65	4435
2026-01-27 12:36:03.88	320.33	11.83	-46.8	-48.6	18.2	0.00e+00	0	43	0	930086912	65	4350
2026-01-27 12:36:06.90	320.80	11.67	-46.1	-47.6	19.0	0.00e+00	0	43	0	935329792	64	4124
2026-01-27 12:36:09.93	321.27	11.51	-46.1	-47.6	19.1	0.00e+00	0	43	0	941621248	63	4358
2026-01-27 12:36:12.95	321.73	11.35	-46.2	-47.8	18.9	0.00e+00	0	43	0	946864128	63	4456
2026-01-27 12:36:15.97	322.19	11.19	-46.1	-47.6	19.1	0.00e+00	0	43	0	952107008	63	4384
2026-01-27 12:36:18.98	322.64	11.03	-45.9	-47.4	19.2	0.00e+00	0	43	0	958398464	63	4275
2026-01-27 12:36:22.00	323.08	10.87	-46.1	-47.6	19.1	0.00e+00	0	43	0	963641344	63	4358
2026-01-27 12:36:25.02	323.53	10.70	-46.4	-48.0	18.7	0.00e+00	0	43	0	969932800	63	4594
2026-01-27 12:36:28.05	323.96	10.54	-46.3	-47.8	18.8	0.00e+00	0	43	0	975175680	63	4492
2026-01-27 12:36:31.07	324.40	10.38	-45.9	-47.4	19.2	0.00e+00	0	43	0	980418560	63	4270
2026-01-27 12:36:34.08	324.82	10.21	-45.6	-47.0	19.6	0.00e+00	0	43	0	986710016	63	4059
2026-01-27 12:36:37.11	325.25	10.05	-45.6	-47.1	19.5	0.00e+00	0	43	0	991952896	62	4344
2026-01-27 12:36:40.13	325.66	9.88	-45.6	-47.0	19.6	0.00e+00	0	43	0	998244352	62	4318
2026-01-27 12:36:43.15	326.08	9.72	-45.9	-47.4	19.2	0.00e+00	0	43	0	1003487232	62	4499
2026-01-27 12:36:46.17	326.49	9.55	-46.2	-47.8	18.8	0.00e+00	0	43	0	1008730112	63	4452
2026-01-27 12:36:49.20	326.89	9.39	-46.5	-48.2	18.3	0.00e+00	0	43	0	1015021568	64	4412
2026-01-27 12:36:52.22	327.29	9.22	-46.6	-48.4	18.1	0.00e+00	0	43	0	1020264448	64	4503
2026-01-27 12:36:55.24	327.69	9.06	-46.1	-47.7	18.7	0.00e+00	0	43	0	1026555904	64	4175
2026-01-27 12:36:58.26	328.08	8.89	-45.8	-47.3	19.2	0.00e+00	0	43	0	1031798784	63	4213
2026-01-27 12:37:01.28	328.47	8.73	-45.8	-47.2	19.3	0.00e+00	0	43	0	1037041664	63	4188
2026-01-27 12:37:04.30	328.85	8.56	-46.3	-47.9	18.6	0.00e+00	0	43	0	1043333120	63	4526
2026-01-27 12:37:07.31	329.23	8.40	-46.5	-48.2	18.2	0.00e+00	0	43	0	1048576000	64	4405
2026-01-27 12:37:10.33	329.61	8.23	-46.5	-48.2	18.2	0.00e+00	0	43	0	1054867456	64	4437
2026-01-27 12:37:13.35	329.98	8.07	-46.6	-48.3	18.1	0.00e+00	0	43	0	1060110336	64	4468
2026-01-27 12:37:16.37	330.35	7.90	-47.0	-48.8	17.6	0.00e+00	0	43	0	1065353216	64	4752
2026-01-27 12:37:19.40	330.71	7.74	-47.4	-49.4	17.1	0.00e+00	0	43	0	1071644672	65	4780
2026-01-27 12:37:22.42	331.07	7.57	-47.5	-49.6	16.8	0.00e+00	0	43	0	1076887552	65	4874
2026-01-27 12:37:25.44	331.43	7.41	-47.4	-49.5	16.9	0.00e+00	0	43	0	1083179008	65	4843
2026-01-27 12:37:28.47	331.78	7.24	-47.3	-49.4	17.0	0.00e+00	0	43	0	1088421888	65	4786
2026-01-27 12:37:31.49	332.13	7.08	-47.4	-49.5	16.8	0.00e+00	0	43	0	1093664768	65	4822
2026-01-27 12:37:34.51	332.47	6.92	-47.7	-49.9	16.4	0.00e+00	0	43	0	1099956224	66	4810
2026-01-27 12:37:37.54	332.81	6.75	-47.5	-49.6	16.7	0.00e+00	0	43	0	1105199104	66	4647
2026-01-27 12:37:40.55	333.15	6.59	-46.8	-48.7	17.5	0.00e+00	0	43	0	1111490560	65	4414
2026-01-27 12:37:43.57	333.48	6.43	-46.8	-48.6	17.6	0.00e+00	0	43	0	1116733440	65	4389
2026-01-27 12:37:46.60	333.81	6.26	-47.0	-49.0	17.2	0.00e+00	0	43	0	1121976320	65	4577
2026-01-27 12:37:49.62	334.14	6.10	-47.9	-50.2	15.9	0.00e+00	0	43	0	1128267776	66	4967
2026-01-27 12:37:52.65	334.46	5.94	-48.5	-51.2	14.9	0.00e+00	0	43	0	1133510656	67	5271
2026-01-27 12:37:55.67	334.78	5.77	-48.5	-51.3	14.9	0.00e+00	0	43	0	1139802112	68	5018
2026-01-27 12:37:58.69	335.10	5.61	-48.0	-50.5	15.8	0.00e+00	0	43	0	1145044992	68	4550
2026-01-27 12:38:01.71	335.41	5.45	-47.6	-49.8	16.3	0.00e+00	0	43	0	1150287872	67	4449
2026-01-27 12:38:04.72	335.72	5.29	-47.5	-49.7	16.4	0.00e+00	0	43	0	1156579328	66	4672
2026-01-27 12:38:07.74	336.02	5.13	-47.8	-50.2	15.9	0.00e+00	0	43	0	1161822208	66	4936
2026-01-27 12:38:10.77	336.33	4.97	-52.2	-64.6	4.1	2.22e-03	41	43	0	1167065088	75	15459
2026-01-27 12:38:13.79	336.63	4.81	-53.2	-68.2	3.8	1.49e+00	0	43	104	1167065088	76	22098
2026-01-27 12:38:16.82	336.93	4.65	-53.5	-68.5	3.8	1.49e+00	0	43	104	1167065088	77	21539
2026-01-27 12:38:19.84	337.22	4.49	-53.5	-68.4	3.8	1.49e+00	0	43	104	1167065088	77	21505
2026-01-27 12:38:22.87	337.51	4.33	-53.4	-68.3	3.8	1.49e+00	0	43	104	1167065088	77	21119
2026-01-27 12:38:25.90	337.80	4.17	-53.3	-68.2	3.8	1.49e+00	0	43	104	1167065088	77	21017
2026-01-27 12:38:28.92	338.08	4.01	-53.4	-68.4	3.8	1.49e+00	0	43	104	1167065088	77	21304
2026-01-27 12:38:31.95	338.37	3.85	-53.5	-68.4	3.8	1.49e+00	0	43	104	1167065088	77	21427
2026-01-27 12:38:34.97	338.65	3.69	-53.4	-68.4	3.8	1.49e+00	0	43	104	1167065088	77	21287
2026-01-27 12:38:37.99	338.92	3.54	-53.4	-68.4	3.8	1.49e+00	0	43	104	1167065088	77	21275
2026-01-27 12:38:41.02	339.20	3.38	-53.4	-68.3	3.8	1.49e+00	0	43	104	1167065088	77	21257
2026-01-27 12:38:44.04	339.47	3.22	-53.3	-68.3	3.8	1.49e+00	0	43	104	1167065088	77	21143
2026-01-27 12:38:47.06	339.73	3.07	-53.3	-68.3	3.8	1.49e+00	0	43	104	1167065088	77	21171
2026-01-27 12:38:50.08	340.00	2.91	-53.3	-68.3	3.8	1.49e+00	0	43	104	1167065088	77	21154
2026-01-27 12:38:53.10	340.26	2.75	-53.3	-68.3	3.8	1.49e+00	0	43	104	1167065088	77	21067
2026-01-27 12:38:56.13	340.52	2.60	-53.3	-68.3	3.7	1.49e+00	0	43	104	1167065088	77	21184
2026-01-27 12:38:59.15	340.78	2.44	-53.3	-68.3	3.8	1.49e+00	0	43	104	1167065088	77	21106
2026-01-27 12:39:02.17	341.04	2.29	-53.3	-68.3	3.8	1.49e+00	0	43	104	1167065088	77	21026
2026-01-27 12:39:05.19	341.29	2.14	-53.3	-68.2	3.8	1.49e+00	0	43	104	1167065088	77	21011

#Closed at: 2026-01-27 12:39:08
#Recorded file [1167 MB]: D:/lorett/data/31041_260127_152656.dat