passes_logs/2026/01/27/R3.2S_Murmansk/R3.2S_Murmansk__20260127_101422_NOAA_21_JPSS-2_rec.log

#Pass ID: 20260127_101422_NOAA 21 (JPSS-2)
#Satellite: NOAA 21 (JPSS-2)
#Configuration: NOAA-21
#almurnet v.1.7.20251203
#Start time: 2026-01-27 10:15:16

#Version: 2.2.20231116
#Station: R3.2S_Murmansk
#Location: 33.079688 lon 68.888172 lat
#TLE: 1 54234U 22150A   26026.43130734  .00000179  00000+0  10559-3 0  9998
#TLE: 2 54234  98.7509 327.1934 0000805 209.8356 150.2774 14.19539635166435

#Time	Az	El	Level	Level2	SNR	BER	BlckErr	Temp	State	Recorded	gain1	gain2
2026-01-27 10:15:16.28	170.42	5.66	-53.1	-65.0	3.8	8.46e-01	0	42	0	0	76	15288
2026-01-27 10:15:20.31	170.53	5.96	-54.1	-66.9	3.8	1.49e+00	0	43	104	0	78	16930
2026-01-27 10:15:24.33	170.65	6.25	-54.2	-67.0	3.8	1.49e+00	0	43	104	0	78	17111
2026-01-27 10:15:28.36	170.76	6.55	-54.3	-67.0	3.8	1.49e+00	0	43	104	0	79	16289
2026-01-27 10:15:32.40	170.88	6.86	-54.3	-67.1	3.8	1.49e+00	0	43	104	0	79	16394
2026-01-27 10:15:36.43	171.01	7.16	-54.3	-67.0	3.8	1.49e+00	0	43	104	0	79	16282
2026-01-27 10:15:40.46	171.13	7.47	-54.2	-67.0	3.8	1.49e+00	0	43	104	0	79	16197
2026-01-27 10:15:44.49	171.26	7.79	-54.1	-66.9	3.8	1.49e+00	0	43	104	0	79	16029
2026-01-27 10:15:48.52	171.39	8.10	-54.2	-66.9	3.8	1.49e+00	0	43	104	0	79	16026
2026-01-27 10:15:52.55	171.52	8.43	-54.1	-66.9	3.8	1.49e+00	0	43	104	0	79	15998
2026-01-27 10:15:56.58	171.65	8.75	-54.1	-66.9	3.8	1.49e+00	0	43	104	0	79	15953
2026-01-27 10:16:00.62	171.79	9.08	-54.0	-66.8	3.8	1.49e+00	0	43	104	0	79	15838
2026-01-27 10:16:04.66	171.93	9.42	-54.1	-66.8	3.8	1.49e+00	0	43	104	0	79	15853
2026-01-27 10:16:08.69	172.08	9.75	-54.0	-66.8	3.8	1.49e+00	0	43	104	0	79	15803
2026-01-27 10:16:12.71	172.22	10.10	-54.0	-66.7	3.8	1.49e+00	0	43	104	0	79	15734
2026-01-27 10:16:16.74	172.37	10.44	-54.1	-66.8	3.8	1.49e+00	0	43	104	0	79	15912
2026-01-27 10:16:20.77	172.52	10.80	-54.2	-67.0	3.8	1.49e+00	0	43	104	0	79	16152
2026-01-27 10:16:24.80	172.68	11.15	-54.1	-66.8	3.8	1.49e+00	0	43	104	0	79	15932
2026-01-27 10:16:28.84	172.84	11.52	-54.0	-66.7	3.8	1.49e+00	0	43	104	0	79	15736
2026-01-27 10:16:32.87	173.00	11.88	-53.8	-66.4	3.8	1.49e+00	0	43	104	0	79	15146
2026-01-27 10:16:36.90	173.17	12.26	-44.9	-45.9	17.8	2.50e-01	0	43	104	0	61	4019
2026-01-27 10:16:40.93	173.34	12.64	-47.2	-48.9	15.9	0.00e+00	0	43	0	11534336	64	4800
2026-01-27 10:16:44.95	173.51	13.02	-43.8	-44.7	20.1	0.00e+00	0	43	0	24117248	59	3958
2026-01-27 10:16:48.98	173.69	13.41	-43.6	-44.6	20.3	0.00e+00	0	43	0	36700160	59	3869
2026-01-27 10:16:53.01	173.88	13.81	-43.2	-44.2	20.7	0.00e+00	0	43	0	49283072	58	3920
2026-01-27 10:16:57.03	174.06	14.21	-43.2	-44.1	20.7	0.00e+00	0	43	0	61865984	58	3911
2026-01-27 10:17:01.07	174.26	14.62	-43.3	-44.2	20.7	0.00e+00	0	43	0	74448896	58	3922
2026-01-27 10:17:05.10	174.46	15.04	-43.1	-44.0	20.9	0.00e+00	0	43	0	87031808	58	3842
2026-01-27 10:17:09.13	174.66	15.46	-43.2	-44.1	20.8	0.00e+00	0	43	0	99614720	58	3888
2026-01-27 10:17:13.16	174.87	15.89	-43.2	-44.1	20.8	0.00e+00	0	43	0	112197632	58	3889
2026-01-27 10:17:17.20	175.08	16.33	-43.2	-44.1	20.8	0.00e+00	0	43	0	124780544	58	3911
2026-01-27 10:17:21.23	175.30	16.77	-43.4	-44.3	20.7	0.00e+00	0	43	0	137363456	58	3978
2026-01-27 10:17:25.25	175.53	17.23	-43.4	-44.4	20.6	0.00e+00	0	43	0	149946368	58	4006
2026-01-27 10:17:29.29	175.76	17.69	-43.4	-44.4	20.6	0.00e+00	0	43	0	162529280	58	4012
2026-01-27 10:17:33.33	176.00	18.16	-43.6	-44.6	20.4	0.00e+00	0	43	0	175112192	58	4121
2026-01-27 10:17:37.37	176.25	18.64	-43.5	-44.4	20.5	0.00e+00	0	43	0	187695104	58	4051
2026-01-27 10:17:41.40	176.50	19.13	-43.2	-44.1	20.8	0.00e+00	0	43	0	201326592	58	3910
2026-01-27 10:17:45.43	176.76	19.62	-43.0	-43.9	21.0	0.00e+00	0	43	0	212860928	58	3806
2026-01-27 10:17:49.47	177.03	20.13	-42.9	-43.8	21.2	0.00e+00	0	43	0	225443840	57	3969
2026-01-27 10:17:53.50	177.31	20.65	-42.5	-43.3	21.6	0.00e+00	0	43	0	239075328	57	3770
2026-01-27 10:17:57.53	177.60	21.17	-42.3	-43.2	21.7	0.00e+00	0	43	0	251658240	56	3923
2026-01-27 10:18:01.56	177.90	21.71	-42.1	-42.9	21.9	0.00e+00	0	43	0	263192576	56	3810
2026-01-27 10:18:05.59	178.20	22.26	-41.9	-42.7	22.1	0.00e+00	0	43	0	276824064	55	3922
2026-01-27 10:18:09.62	178.52	22.82	-41.8	-42.6	22.2	0.00e+00	0	43	0	289406976	55	3903
2026-01-27 10:18:13.66	178.85	23.39	-41.7	-42.5	22.3	0.00e+00	0	43	0	301989888	55	3855
2026-01-27 10:18:17.69	179.19	23.97	-41.7	-42.5	22.3	0.00e+00	0	43	0	314572800	55	3860
2026-01-27 10:18:21.73	179.54	24.57	-41.8	-42.6	22.2	0.00e+00	0	43	0	327155712	55	3891
2026-01-27 10:18:25.76	179.91	25.18	-41.9	-42.7	22.2	0.00e+00	0	43	0	339738624	55	3922
2026-01-27 10:18:29.79	180.29	25.80	-42.2	-43.0	21.9	0.00e+00	0	43	0	352321536	55	4080
2026-01-27 10:18:33.82	180.68	26.43	-42.5	-43.4	21.6	0.00e+00	0	43	0	364904448	55	4249
2026-01-27 10:18:37.84	181.09	27.08	-42.8	-43.7	21.4	0.00e+00	0	43	0	377487360	56	4188
2026-01-27 10:18:41.86	181.52	27.74	-43.1	-44.1	21.1	0.00e+00	0	43	0	390070272	56	4342
2026-01-27 10:18:45.89	181.96	28.41	-43.1	-44.0	21.1	0.00e+00	0	43	0	402653184	56	4319
2026-01-27 10:18:49.93	182.43	29.10	-43.0	-43.9	21.2	0.00e+00	0	43	0	415236096	56	4280
2026-01-27 10:18:53.95	182.91	29.81	-43.1	-43.9	21.2	0.00e+00	0	43	0	427819008	56	4289
2026-01-27 10:18:57.98	183.41	30.53	-42.8	-43.6	21.5	0.00e+00	0	43	0	440401920	56	4145
2026-01-27 10:19:02.00	183.93	31.27	-42.4	-43.3	21.8	0.00e+00	0	43	0	452984832	56	3968
2026-01-27 10:19:06.03	184.48	32.02	-42.5	-43.3	21.8	0.00e+00	0	43	0	465567744	56	3993
2026-01-27 10:19:10.05	185.05	32.79	-42.8	-43.7	21.5	0.00e+00	0	43	0	478150656	56	4148
2026-01-27 10:19:14.07	185.66	33.58	-43.0	-43.8	21.3	0.00e+00	0	43	0	490733568	56	4241
2026-01-27 10:19:18.10	186.29	34.38	-43.3	-44.2	21.1	0.00e+00	0	43	0	503316480	57	4146
2026-01-27 10:19:22.13	186.95	35.21	-44.0	-45.0	20.4	0.00e+00	0	43	0	515899392	58	4301
2026-01-27 10:19:26.15	187.64	36.04	-44.5	-45.6	19.5	0.00e+00	0	43	0	528482304	60	4109
2026-01-27 10:19:30.17	188.37	36.90	-44.3	-45.4	19.7	0.00e+00	0	43	0	541065216	60	4017
2026-01-27 10:19:34.19	189.14	37.77	-44.7	-45.8	19.4	0.00e+00	0	43	0	553648128	60	4212
2026-01-27 10:19:38.21	189.95	38.66	-44.8	-45.9	19.3	0.00e+00	0	43	0	566231040	60	4251
2026-01-27 10:19:42.23	190.81	39.57	-44.3	-45.3	19.8	0.00e+00	0	43	0	578813952	60	3990
2026-01-27 10:19:46.26	191.72	40.50	-44.2	-45.1	19.9	0.00e+00	0	43	0	590348288	60	3909
2026-01-27 10:19:50.27	192.67	41.43	-44.4	-45.4	20.0	0.00e+00	0	43	0	602931200	59	4279
2026-01-27 10:19:54.30	193.69	42.39	-44.4	-45.4	20.0	0.00e+00	0	43	0	616562688	59	4268
2026-01-27 10:19:58.32	194.76	43.36	-45.1	-46.2	19.0	0.00e+00	0	43	0	629145600	60	4420
2026-01-27 10:20:02.36	195.91	44.35	-45.9	-47.1	18.2	0.00e+00	0	43	0	640679936	62	4385
2026-01-27 10:20:06.38	197.12	45.35	-46.0	-47.3	17.9	0.00e+00	0	43	0	653262848	63	4211
2026-01-27 10:20:10.41	198.42	46.36	-46.4	-47.8	17.5	0.00e+00	0	43	0	666894336	63	4460
2026-01-27 10:20:14.44	199.80	47.37	-44.4	-45.4	19.6	0.00e+00	0	43	0	679477248	60	4017
2026-01-27 10:20:18.47	201.27	48.40	-44.5	-45.6	19.9	0.00e+00	0	43	0	691011584	59	4342
2026-01-27 10:20:22.50	202.84	49.42	-44.7	-45.7	19.5	0.00e+00	0	43	0	704643072	60	4188
2026-01-27 10:20:26.53	204.52	50.45	-44.7	-45.8	19.4	0.00e+00	0	43	0	717225984	60	4219
2026-01-27 10:20:30.57	206.32	51.47	-44.6	-45.7	19.5	0.00e+00	0	43	0	729808896	60	4162
2026-01-27 10:20:34.60	208.24	52.48	-44.2	-45.2	20.3	0.00e+00	0	43	0	742391808	59	4178
2026-01-27 10:20:38.64	210.30	53.48	-43.4	-44.3	21.1	0.00e+00	0	43	0	754974720	58	3986
2026-01-27 10:20:42.67	212.49	54.46	-43.3	-44.2	21.2	0.00e+00	0	43	0	767557632	58	3942
2026-01-27 10:20:46.70	214.84	55.41	-43.3	-44.2	21.2	0.00e+00	0	43	0	780140544	57	4151
2026-01-27 10:20:50.73	217.35	56.33	-43.1	-44.0	21.1	0.00e+00	0	43	0	792723456	57	4080
2026-01-27 10:20:54.77	220.03	57.20	-42.9	-43.8	21.3	0.00e+00	0	43	0	805306368	57	3960
2026-01-27 10:20:58.81	222.89	58.03	-42.4	-43.2	22.0	0.00e+00	0	43	0	817889280	56	3923
2026-01-27 10:21:02.85	225.92	58.80	-42.5	-43.4	21.7	0.00e+00	0	43	0	830472192	56	4009
2026-01-27 10:21:06.89	229.11	59.50	-42.0	-42.7	22.4	0.00e+00	0	43	0	843055104	55	3958
2026-01-27 10:21:10.91	232.46	60.12	-42.3	-43.1	22.0	0.00e+00	0	43	0	855638016	55	4139
2026-01-27 10:21:14.95	235.98	60.66	-41.9	-42.6	22.5	0.00e+00	0	43	0	868220928	55	3911
2026-01-27 10:21:18.98	239.63	61.11	-42.4	-43.2	22.1	0.00e+00	0	43	0	880803840	55	4165
2026-01-27 10:21:23.02	243.40	61.45	-41.9	-42.7	22.5	0.00e+00	0	43	0	893386752	55	3918
2026-01-27 10:21:27.06	247.26	61.68	-42.1	-42.9	22.3	0.00e+00	0	43	0	905969664	55	4034
2026-01-27 10:21:31.09	251.17	61.80	-42.0	-42.8	22.4	0.00e+00	0	43	0	918552576	55	3985
2026-01-27 10:21:35.13	255.10	61.81	-42.5	-43.4	21.8	0.00e+00	0	43	0	931135488	55	4261
2026-01-27 10:21:39.17	259.02	61.70	-42.7	-43.6	21.7	0.00e+00	0	43	0	943718400	56	4126
2026-01-27 10:21:43.20	262.88	61.49	-41.8	-42.5	22.6	0.00e+00	0	43	0	956301312	55	3862
2026-01-27 10:21:47.24	266.66	61.16	-42.3	-43.1	22.2	0.00e+00	0	43	0	968884224	55	4113
2026-01-27 10:21:51.27	270.33	60.73	-41.9	-42.7	22.4	0.00e+00	0	43	0	981467136	55	3938
2026-01-27 10:21:55.29	273.85	60.21	-42.1	-42.9	22.2	0.00e+00	0	43	0	994050048	55	4045
2026-01-27 10:21:59.32	277.22	59.60	-42.2	-43.0	22.2	0.00e+00	0	43	0	1006632960	55	4086
2026-01-27 10:22:03.35	280.43	58.91	-42.1	-42.9	22.3	0.00e+00	0	43	0	1019215872	55	4037
2026-01-27 10:22:07.38	283.47	58.15	-42.4	-43.2	22.1	0.00e+00	0	43	0	1031798784	55	4155
2026-01-27 10:22:11.41	286.34	57.33	-43.2	-44.1	21.4	0.00e+00	0	43	0	1044381696	57	4108
2026-01-27 10:22:15.45	289.04	56.46	-42.5	-43.3	22.1	0.00e+00	0	43	0	1056964608	56	3976
2026-01-27 10:22:19.48	291.57	55.56	-42.9	-43.7	21.7	0.00e+00	0	43	0	1069547520	56	4192
2026-01-27 10:22:23.50	293.94	54.61	-43.5	-44.3	21.1	0.00e+00	0	43	0	1082130432	57	4234
2026-01-27 10:22:27.53	296.15	53.64	-44.1	-45.0	20.5	0.00e+00	0	43	0	1094713344	59	4090
2026-01-27 10:22:31.57	298.23	52.65	-43.9	-44.8	20.8	0.00e+00	0	43	0	1107296256	59	3974
2026-01-27 10:22:35.60	300.17	51.64	-44.1	-45.1	20.5	0.00e+00	0	43	0	1119879168	59	4105
2026-01-27 10:22:39.63	301.98	50.63	-44.3	-45.3	20.4	0.00e+00	0	43	0	1132462080	59	4216
2026-01-27 10:22:43.66	303.67	49.60	-46.1	-47.4	18.1	0.00e+00	0	43	0	1145044992	62	4497
2026-01-27 10:22:47.69	305.26	48.58	-44.6	-45.6	19.6	0.00e+00	0	43	0	1157627904	61	3891
2026-01-27 10:22:51.72	306.74	47.56	-45.9	-47.1	18.2	0.00e+00	0	43	0	1170210816	62	4385
2026-01-27 10:22:55.75	308.13	46.55	-44.9	-46.0	19.5	0.00e+00	0	43	0	1182793728	61	4053
2026-01-27 10:22:59.78	309.44	45.54	-45.1	-46.2	19.1	0.00e+00	0	43	0	1195376640	60	4397
2026-01-27 10:23:03.81	310.67	44.54	-46.0	-47.3	18.0	0.00e+00	0	43	0	1207959552	62	4459
2026-01-27 10:23:07.85	311.82	43.56	-44.7	-45.7	19.5	0.00e+00	0	43	0	1220542464	61	3938
2026-01-27 10:23:11.88	312.91	42.58	-44.5	-45.4	20.2	0.00e+00	0	43	0	1233125376	59	4279
2026-01-27 10:23:15.91	313.93	41.63	-44.8	-45.9	19.2	0.00e+00	0	43	0	1245708288	60	4249
2026-01-27 10:23:19.93	314.90	40.69	-44.0	-44.9	20.2	0.00e+00	0	43	0	1258291200	59	4029
2026-01-27 10:23:23.96	315.81	39.76	-45.0	-46.1	19.1	0.00e+00	0	43	0	1270874112	60	4351
2026-01-27 10:23:27.99	316.68	38.85	-45.1	-46.2	18.9	0.00e+00	0	43	0	1284505600	60	4414
2026-01-27 10:23:32.02	317.50	37.96	-44.6	-45.6	19.6	0.00e+00	0	43	0	1296039936	60	4121
2026-01-27 10:23:36.05	318.27	37.09	-44.3	-45.3	20.2	0.00e+00	0	43	0	1308622848	59	4227
2026-01-27 10:23:40.07	319.01	36.23	-44.7	-45.8	19.7	0.00e+00	0	43	0	1321205760	59	4476
2026-01-27 10:23:44.10	319.71	35.39	-44.1	-45.0	20.4	0.00e+00	0	43	0	1333788672	59	4091
2026-01-27 10:23:48.13	320.38	34.57	-43.4	-44.2	21.0	0.00e+00	0	43	0	1346371584	58	3948
2026-01-27 10:23:52.16	321.01	33.77	-44.1	-45.0	20.4	0.00e+00	0	43	0	1358954496	58	4330
2026-01-27 10:23:56.18	321.62	32.98	-44.1	-45.1	20.3	0.00e+00	0	43	0	1371537408	59	4108
2026-01-27 10:24:00.21	322.20	32.21	-43.3	-44.2	21.0	0.00e+00	0	43	0	1384120320	58	3915
2026-01-27 10:24:04.25	322.75	31.45	-42.7	-43.6	21.5	0.00e+00	0	43	0	1396703232	57	3879
2026-01-27 10:24:08.28	323.28	30.71	-42.7	-43.6	21.5	0.00e+00	0	43	0	1409286144	57	3881
2026-01-27 10:24:12.32	323.79	29.99	-42.7	-43.5	21.6	0.00e+00	0	43	0	1422917632	57	3860
2026-01-27 10:24:16.34	324.27	29.29	-42.9	-43.8	21.4	0.00e+00	0	43	0	1434451968	57	3975
2026-01-27 10:24:20.37	324.74	28.60	-43.0	-43.8	21.3	0.00e+00	0	43	0	1447034880	57	4004
2026-01-27 10:24:24.40	325.18	27.92	-43.0	-43.9	21.2	0.00e+00	0	43	0	1460666368	57	4042
2026-01-27 10:24:28.44	325.61	27.26	-42.5	-43.3	21.7	0.00e+00	0	43	0	1473249280	57	3777
2026-01-27 10:24:32.47	326.03	26.61	-42.1	-42.9	21.9	0.00e+00	0	43	0	1484783616	56	3818
2026-01-27 10:24:36.50	326.42	25.98	-41.9	-42.7	22.1	0.00e+00	0	43	0	1498415104	55	3930
2026-01-27 10:24:40.54	326.81	25.36	-41.8	-42.6	22.2	0.00e+00	0	43	0	1510998016	55	3901
2026-01-27 10:24:44.57	327.18	24.75	-41.9	-42.7	22.1	0.00e+00	0	43	0	1522532352	55	3926
2026-01-27 10:24:48.60	327.53	24.15	-42.3	-43.1	21.7	0.00e+00	0	43	0	1536163840	55	4145
2026-01-27 10:24:52.63	327.87	23.57	-42.5	-43.3	21.6	0.00e+00	0	43	0	1548746752	55	4230
2026-01-27 10:24:56.67	328.21	23.00	-42.7	-43.6	21.4	0.00e+00	0	43	0	1561329664	55	4343
2026-01-27 10:25:00.70	328.53	22.44	-42.6	-43.5	21.3	0.00e+00	0	43	0	1573912576	55	4317
2026-01-27 10:25:04.74	328.84	21.89	-42.7	-43.6	21.1	0.00e+00	0	43	0	1586495488	56	4134
2026-01-27 10:25:08.77	329.14	21.36	-42.8	-43.7	21.1	0.00e+00	0	43	0	1599078400	56	4152
2026-01-27 10:25:12.81	329.43	20.83	-42.5	-43.4	21.5	0.00e+00	0	43	0	1611661312	56	4026
2026-01-27 10:25:16.83	329.71	20.31	-42.3	-43.2	21.6	0.00e+00	0	43	0	1624244224	56	3927
2026-01-27 10:25:20.87	329.98	19.81	-42.0	-42.9	21.8	0.00e+00	0	43	0	1636827136	55	4006
2026-01-27 10:25:24.90	330.25	19.31	-42.3	-43.1	21.6	0.00e+00	0	43	0	1649410048	55	4127
2026-01-27 10:25:28.93	330.50	18.82	-42.5	-43.3	21.4	0.00e+00	0	43	0	1661992960	55	4236
2026-01-27 10:25:32.96	330.75	18.35	-42.6	-43.5	21.2	0.00e+00	0	43	0	1674575872	55	4301
2026-01-27 10:25:36.99	330.99	17.88	-42.7	-43.6	21.1	0.00e+00	0	43	0	1687158784	55	4375
2026-01-27 10:25:41.02	331.23	17.41	-43.0	-43.9	20.9	0.00e+00	0	43	0	1699741696	56	4274
2026-01-27 10:25:45.05	331.46	16.96	-43.1	-44.0	20.8	0.00e+00	0	43	0	1712324608	56	4317
2026-01-27 10:25:49.08	331.68	16.52	-43.1	-44.0	20.8	0.00e+00	0	43	0	1724907520	56	4337
2026-01-27 10:25:53.11	331.90	16.08	-43.2	-44.1	20.6	0.00e+00	0	43	0	1737490432	56	4380
2026-01-27 10:25:57.14	332.11	15.65	-43.2	-44.1	20.6	0.00e+00	0	43	0	1750073344	56	4380
2026-01-27 10:26:01.17	332.31	15.23	-43.4	-44.4	20.4	0.00e+00	0	43	0	1762656256	57	4264
2026-01-27 10:26:05.20	332.51	14.81	-43.5	-44.5	20.2	0.00e+00	0	43	0	1775239168	57	4321
2026-01-27 10:26:09.22	332.71	14.40	-43.7	-44.7	20.1	0.00e+00	0	43	0	1787822080	57	4398
2026-01-27 10:26:13.24	332.90	14.00	-43.7	-44.8	20.1	0.00e+00	0	43	0	1800404992	58	4197
2026-01-27 10:26:17.27	333.09	13.60	-43.7	-44.7	20.1	0.00e+00	0	43	0	1812987904	57	4410
2026-01-27 10:26:21.31	333.27	13.21	-43.8	-44.8	20.0	0.00e+00	0	43	0	1825570816	58	4219
2026-01-27 10:26:25.34	333.45	12.83	-43.7	-44.8	20.0	0.00e+00	0	43	0	1838153728	58	4198
2026-01-27 10:26:29.36	333.62	12.45	-43.9	-44.9	19.8	0.00e+00	0	43	0	1850736640	58	4269
2026-01-27 10:26:33.40	333.79	12.08	-43.7	-44.7	20.0	0.00e+00	0	43	0	1863319552	58	4183
2026-01-27 10:26:37.43	333.95	11.71	-43.8	-44.8	19.8	0.00e+00	0	43	0	1875902464	58	4227
2026-01-27 10:26:41.46	334.12	11.35	-43.9	-44.9	19.7	0.00e+00	0	43	0	1888485376	58	4274
2026-01-27 10:26:45.50	334.28	10.99	-43.8	-44.8	19.7	0.00e+00	0	43	0	1901068288	58	4241
2026-01-27 10:26:49.53	334.43	10.64	-43.8	-44.9	19.7	0.00e+00	0	43	0	1913651200	58	4260
2026-01-27 10:26:53.56	334.58	10.29	-44.0	-45.0	19.5	0.00e+00	0	43	0	1926234112	58	4338
2026-01-27 10:26:57.59	334.73	9.95	-43.9	-45.0	19.6	0.00e+00	0	43	0	1938817024	58	4302
2026-01-27 10:27:01.62	334.88	9.61	-44.0	-45.1	19.4	0.00e+00	0	43	0	1951399936	58	4380
2026-01-27 10:27:05.65	335.02	9.27	-44.1	-45.2	19.4	0.00e+00	0	43	0	1963982848	58	4397
2026-01-27 10:27:09.69	335.16	8.94	-44.1	-45.2	19.3	0.00e+00	0	43	0	1976565760	59	4167
2026-01-27 10:27:13.72	335.30	8.62	-44.0	-45.1	19.4	0.00e+00	0	43	0	1989148672	58	4381
2026-01-27 10:27:17.75	335.44	8.30	-44.1	-45.2	19.2	0.00e+00	0	43	0	2001731584	58	4426
2026-01-27 10:27:21.78	335.57	7.98	-44.2	-45.3	19.2	0.00e+00	0	43	0	2014314496	58	4447
2026-01-27 10:27:25.81	335.70	7.67	-44.2	-45.4	19.1	0.00e+00	0	43	0	2026897408	59	4244
2026-01-27 10:27:29.84	335.83	7.36	-44.3	-45.5	18.9	0.00e+00	0	43	0	2039480320	59	4296
2026-01-27 10:27:33.87	335.95	7.05	-44.3	-45.4	19.0	0.00e+00	0	43	0	2052063232	59	4258
2026-01-27 10:27:37.91	336.07	6.75	-44.5	-45.7	18.7	7.00e-07	0	43	0	2064646144	59	4393
2026-01-27 10:27:41.94	336.20	6.45	-44.4	-45.6	18.4	0.00e+00	0	43	0	2077229056	60	4124
2026-01-27 10:27:45.98	336.32	6.15	-44.5	-45.7	18.2	0.00e+00	0	43	0	2089811968	60	4191
2026-01-27 10:27:50.01	336.43	5.86	-44.6	-45.9	18.0	0.00e+00	0	43	0	2102394880	60	4246
2026-01-27 10:27:54.04	336.55	5.57	-44.9	-46.2	17.7	0.00e+00	0	43	0	2114977792	60	4413
2026-01-27 10:27:58.06	336.66	5.29	-45.3	-46.7	17.1	7.00e-07	0	43	0	2127560704	61	4409
2026-01-27 10:28:02.09	336.77	5.00	-45.4	-46.8	17.0	0.00e+00	0	43	0	2140143616	61	4473
2026-01-27 10:28:06.13	336.88	4.72	-53.1	-65.9	3.8	1.49e+00	0	43	104	2142240768	76	17021
2026-01-27 10:28:10.17	336.99	4.44	-53.4	-66.2	3.8	1.49e+00	0	43	104	2142240768	77	16566
2026-01-27 10:28:14.19	337.10	4.17	-53.3	-66.1	3.8	1.49e+00	0	43	104	2142240768	77	16378
2026-01-27 10:28:18.22	337.20	3.90	-53.2	-66.0	3.8	1.49e+00	0	43	104	2142240768	77	16188
2026-01-27 10:28:22.24	337.30	3.63	-53.4	-66.1	3.8	1.49e+00	0	43	104	2142240768	77	16443
2026-01-27 10:28:26.28	337.40	3.36	-53.3	-66.1	3.8	1.49e+00	0	43	104	2142240768	77	16315
2026-01-27 10:28:30.31	337.51	3.10	-53.3	-66.0	3.8	1.49e+00	0	43	104	2142240768	77	16291
2026-01-27 10:28:34.34	337.60	2.83	-53.3	-66.0	3.8	1.49e+00	0	43	104	2142240768	77	16219
2026-01-27 10:28:38.37	337.70	2.58	-53.2	-66.0	3.8	1.49e+00	0	43	104	2142240768	77	16225
2026-01-27 10:28:42.41	337.80	2.32	-53.2	-66.0	3.8	1.49e+00	0	43	104	2142240768	77	16165
2026-01-27 10:28:46.44	337.89	2.06	-53.2	-66.0	3.8	1.49e+00	0	43	104	2142240768	77	16149

#Closed at: 2026-01-27 10:28:49
#Recorded file [2142 MB]: D:/lorett/data/31041_260127_131516.dat