passes_logs/2026/01/27/R3.2S_Murmansk/R3.2S_Murmansk__20260127_051620_NOAA_21_JPSS-2_rec.log

#Pass ID: 20260127_051620_NOAA 21 (JPSS-2)
#Satellite: NOAA 21 (JPSS-2)
#Configuration: NOAA-21
#almurnet v.1.7.20251203
#Start time: 2026-01-27 05:16:20

#Version: 2.2.20231116
#Station: R3.2S_Murmansk
#Location: 33.079688 lon 68.888172 lat
#TLE: 1 54234U 22150A   26026.43130734  .00000179  00000+0  10559-3 0  9998
#TLE: 2 54234  98.7509 327.1934 0000805 209.8356 150.2774 14.19539635166435

#Time	Az	El	Level	Level2	SNR	BER	BlckErr	Temp	State	Recorded	gain1	gain2
2026-01-27 05:16:20.18	63.83	1.97	-54.1	-66.8	3.8	1.49e+00	0	43	0	0	79	15934
2026-01-27 05:16:23.19	63.64	2.14	-54.1	-66.8	3.8	1.49e+00	0	43	104	0	78	16817
2026-01-27 05:16:26.22	63.44	2.31	-54.0	-66.8	3.8	1.49e+00	0	43	104	0	78	16767
2026-01-27 05:16:29.25	63.24	2.49	-54.0	-66.8	3.8	1.49e+00	0	43	104	0	78	16763
2026-01-27 05:16:32.27	63.04	2.66	-54.0	-66.8	3.8	1.49e+00	0	43	104	0	78	16736
2026-01-27 05:16:35.29	62.84	2.83	-54.0	-66.8	3.8	1.49e+00	0	43	104	0	78	16718
2026-01-27 05:16:38.30	62.64	3.01	-54.0	-66.7	3.8	1.49e+00	0	43	104	0	78	16645
2026-01-27 05:16:41.33	62.43	3.19	-54.2	-66.9	3.8	1.49e+00	0	43	104	0	78	17067
2026-01-27 05:16:44.35	62.22	3.36	-54.2	-66.9	3.8	1.49e+00	0	43	104	0	78	17080
2026-01-27 05:16:47.37	62.00	3.54	-54.1	-66.8	3.8	1.49e+00	0	43	104	0	78	16865
2026-01-27 05:16:50.40	61.79	3.72	-53.9	-66.6	3.8	1.49e+00	0	43	104	0	78	16467
2026-01-27 05:16:53.42	61.57	3.89	-53.7	-66.4	3.8	1.49e+00	0	43	104	0	78	16121
2026-01-27 05:16:56.43	61.35	4.07	-53.5	-66.2	3.8	1.49e+00	0	43	104	0	78	15667
2026-01-27 05:16:59.46	61.12	4.25	-53.0	-65.7	3.8	1.49e+00	0	43	104	0	78	14842
2026-01-27 05:17:02.47	60.90	4.43	-51.8	-60.9	4.3	1.43e+00	0	43	104	0	75	10098
2026-01-27 05:17:05.50	60.67	4.62	-51.7	-60.1	4.6	1.30e+00	0	43	104	0	75	9245
2026-01-27 05:17:08.53	60.43	4.80	-50.3	-55.0	8.6	6.05e-02	0	43	0	6291456	72	6064
2026-01-27 05:17:11.55	60.20	4.98	-48.8	-51.6	12.1	3.77e-04	0	43	0	15728640	69	4915
2026-01-27 05:17:14.57	59.96	5.17	-48.9	-51.8	11.9	1.17e-01	0	43	0	25165824	69	5017
2026-01-27 05:17:17.59	59.71	5.35	-47.5	-49.6	13.7	1.48e+00	2	43	104	32505856	67	4347
2026-01-27 05:17:20.62	59.47	5.54	-44.7	-46.0	17.9	0.00e+00	0	43	0	40894464	61	4061
2026-01-27 05:17:23.64	59.22	5.72	-44.6	-45.8	18.0	0.00e+00	0	43	0	50331648	61	3993
2026-01-27 05:17:26.66	58.97	5.91	-44.3	-45.5	18.3	0.00e+00	0	43	0	59768832	60	4087
2026-01-27 05:17:29.69	58.71	6.10	-44.6	-45.9	18.0	0.00e+00	0	43	0	69206016	60	4251
2026-01-27 05:17:32.71	58.45	6.29	-44.5	-45.8	18.2	0.00e+00	0	43	0	78643200	60	4204
2026-01-27 05:17:35.74	58.19	6.48	-44.4	-45.6	18.3	0.00e+00	0	43	0	88080384	60	4130
2026-01-27 05:17:38.76	57.92	6.67	-44.2	-45.3	18.7	0.00e+00	0	43	0	97517568	60	3983
2026-01-27 05:17:41.79	57.65	6.86	-44.1	-45.3	18.7	0.00e+00	0	43	0	106954752	60	3967
2026-01-27 05:17:44.82	57.38	7.05	-44.3	-45.4	18.6	0.00e+00	0	43	0	116391936	60	4037
2026-01-27 05:17:47.85	57.10	7.24	-44.5	-45.7	18.6	0.00e+00	0	43	0	125829120	59	4409
2026-01-27 05:17:50.87	56.82	7.44	-44.2	-45.3	19.0	0.00e+00	0	43	0	135266304	59	4227
2026-01-27 05:17:53.89	56.53	7.63	-44.1	-45.3	19.1	0.00e+00	0	43	0	144703488	59	4203
2026-01-27 05:17:56.92	56.24	7.83	-44.1	-45.2	19.1	0.00e+00	0	43	0	154140672	59	4191
2026-01-27 05:17:59.94	55.95	8.02	-44.1	-45.2	19.2	0.00e+00	0	43	0	163577856	59	4151
2026-01-27 05:18:02.97	55.65	8.22	-44.0	-45.1	19.3	0.00e+00	0	43	0	173015040	59	4125
2026-01-27 05:18:05.99	55.35	8.42	-43.7	-44.8	19.6	0.00e+00	0	43	0	182452224	59	3960
2026-01-27 05:18:09.01	55.04	8.62	-43.7	-44.7	19.7	0.00e+00	0	43	0	191889408	59	3945
2026-01-27 05:18:12.03	54.73	8.82	-43.8	-44.8	19.6	0.00e+00	0	43	0	201326592	59	3993
2026-01-27 05:18:15.06	54.42	9.02	-43.8	-44.8	19.6	0.00e+00	0	43	0	210763776	58	4230
2026-01-27 05:18:18.09	54.10	9.22	-43.5	-44.6	19.9	0.00e+00	0	43	0	220200960	58	4108
2026-01-27 05:18:21.12	53.77	9.42	-43.3	-44.3	20.1	0.00e+00	0	43	0	229638144	58	3997
2026-01-27 05:18:24.13	53.44	9.62	-43.5	-44.5	20.0	0.00e+00	0	43	0	239075328	58	4081
2026-01-27 05:18:27.16	53.11	9.82	-43.5	-44.6	19.9	0.00e+00	0	43	0	248512512	58	4104
2026-01-27 05:18:30.18	52.77	10.03	-43.3	-44.3	20.2	0.00e+00	0	43	0	257949696	58	3962
2026-01-27 05:18:33.21	52.43	10.23	-43.6	-44.6	19.9	0.00e+00	0	43	0	267386880	58	4128
2026-01-27 05:18:36.23	52.08	10.44	-43.3	-44.3	20.2	0.00e+00	0	43	0	276824064	58	3981
2026-01-27 05:18:39.24	51.73	10.64	-43.1	-44.0	20.5	0.00e+00	0	43	0	286261248	58	3850
2026-01-27 05:18:42.27	51.37	10.85	-43.0	-43.9	20.6	0.00e+00	0	43	0	295698432	58	3811
2026-01-27 05:18:45.30	51.01	11.05	-43.0	-43.9	20.5	0.00e+00	0	43	0	305135616	57	4038
2026-01-27 05:18:48.33	50.64	11.26	-43.1	-44.1	20.4	0.00e+00	0	43	0	314572800	57	4125
2026-01-27 05:18:51.35	50.26	11.47	-43.1	-44.1	20.5	0.00e+00	0	43	0	324009984	57	4113
2026-01-27 05:18:54.38	49.88	11.68	-43.0	-43.9	20.7	0.00e+00	0	43	0	333447168	57	4032
2026-01-27 05:18:57.41	49.50	11.89	-42.9	-43.8	20.7	0.00e+00	0	43	0	342884352	57	3978
2026-01-27 05:19:00.43	49.11	12.10	-43.1	-44.0	20.5	0.00e+00	0	43	0	352321536	57	4083
2026-01-27 05:19:03.45	48.71	12.31	-43.0	-43.9	20.6	0.00e+00	0	43	0	361758720	57	4028
2026-01-27 05:19:06.47	48.31	12.52	-42.7	-43.6	20.9	0.00e+00	0	43	0	371195904	57	3898
2026-01-27 05:19:09.49	47.90	12.73	-42.8	-43.7	20.8	0.00e+00	0	43	0	380633088	57	3948
2026-01-27 05:19:12.51	47.49	12.94	-42.8	-43.7	20.9	0.00e+00	0	43	0	390070272	57	3932
2026-01-27 05:19:15.54	47.07	13.15	-42.7	-43.6	20.8	0.00e+00	0	43	0	399507456	57	3906
2026-01-27 05:19:18.56	46.64	13.36	-42.9	-43.8	20.7	0.00e+00	0	43	0	408944640	57	3985
2026-01-27 05:19:21.58	46.21	13.57	-42.9	-43.9	20.7	0.00e+00	0	43	0	418381824	57	4011
2026-01-27 05:19:24.60	45.77	13.78	-42.9	-43.8	20.8	0.00e+00	0	43	0	427819008	57	3994
2026-01-27 05:19:27.63	45.33	14.00	-42.9	-43.8	20.7	0.00e+00	0	43	0	437256192	57	3999
2026-01-27 05:19:30.65	44.87	14.21	-43.0	-43.9	20.7	0.00e+00	0	43	0	446693376	57	4051
2026-01-27 05:19:33.67	44.42	14.42	-43.0	-44.0	20.7	0.00e+00	0	43	0	456130560	57	4065
2026-01-27 05:19:36.70	43.95	14.63	-42.9	-43.8	20.9	0.00e+00	0	43	0	465567744	57	3967
2026-01-27 05:19:39.73	43.48	14.84	-43.0	-43.9	20.7	0.00e+00	0	43	0	475004928	57	4049
2026-01-27 05:19:42.75	43.00	15.06	-43.1	-44.0	20.7	0.00e+00	0	43	0	484442112	57	4068
2026-01-27 05:19:45.76	42.52	15.27	-43.0	-43.9	20.8	0.00e+00	0	43	0	493879296	57	4048
2026-01-27 05:19:48.79	42.02	15.48	-42.9	-43.8	20.9	0.00e+00	0	43	0	503316480	57	3970
2026-01-27 05:19:51.81	41.52	15.69	-43.1	-44.0	20.7	0.00e+00	0	43	0	512753664	57	4073
2026-01-27 05:19:54.83	41.02	15.90	-43.2	-44.1	20.6	0.00e+00	0	43	0	522190848	57	4142
2026-01-27 05:19:57.86	40.50	16.11	-42.9	-43.8	20.9	0.00e+00	0	43	0	531628032	57	3974
2026-01-27 05:20:00.88	39.98	16.32	-42.8	-43.7	21.0	0.00e+00	0	43	0	541065216	57	3918
2026-01-27 05:20:03.91	39.45	16.53	-42.8	-43.7	21.0	0.00e+00	0	43	0	550502400	57	3924
2026-01-27 05:20:06.94	38.91	16.74	-42.7	-43.6	21.2	0.00e+00	0	43	0	559939584	57	3874
2026-01-27 05:20:09.96	38.37	16.94	-42.3	-43.2	21.4	0.00e+00	0	43	0	569376768	56	3935
2026-01-27 05:20:12.98	37.81	17.15	-42.5	-43.4	21.3	0.00e+00	0	43	0	578813952	56	4007
2026-01-27 05:20:16.00	37.26	17.35	-42.4	-43.3	21.4	0.00e+00	0	43	0	588251136	56	3969
2026-01-27 05:20:19.03	36.69	17.56	-42.5	-43.3	21.3	0.00e+00	0	43	0	597688320	56	3995
2026-01-27 05:20:22.04	36.11	17.76	-42.6	-43.5	21.1	0.00e+00	0	43	0	607125504	56	4062
2026-01-27 05:20:25.06	35.53	17.96	-42.7	-43.6	21.0	0.00e+00	0	43	0	616562688	56	4128
2026-01-27 05:20:28.08	34.94	18.16	-42.6	-43.5	21.2	0.00e+00	0	43	0	625999872	56	4065
2026-01-27 05:20:31.11	34.34	18.36	-42.7	-43.6	21.1	0.00e+00	0	43	0	635437056	56	4123
2026-01-27 05:20:34.12	33.74	18.55	-42.8	-43.6	21.1	0.00e+00	0	43	0	644874240	56	4144
2026-01-27 05:20:37.15	33.12	18.75	-42.5	-43.3	21.3	0.00e+00	0	43	0	654311424	56	3991
2026-01-27 05:20:40.18	32.50	18.94	-42.6	-43.5	21.2	0.00e+00	0	43	0	664797184	56	4077
2026-01-27 05:20:43.19	31.87	19.13	-42.3	-43.1	21.5	0.00e+00	0	43	0	673185792	56	3907
2026-01-27 05:20:46.22	31.23	19.32	-42.3	-43.2	21.5	0.00e+00	0	43	0	682622976	56	3919
2026-01-27 05:20:49.24	30.58	19.51	-42.2	-43.1	21.6	0.00e+00	0	43	0	692060160	56	3878
2026-01-27 05:20:52.27	29.93	19.69	-42.4	-43.2	21.5	0.00e+00	0	43	0	701497344	56	3942
2026-01-27 05:20:55.29	29.27	19.87	-42.4	-43.3	21.4	0.00e+00	0	43	0	711983104	56	3975
2026-01-27 05:20:58.32	28.60	20.05	-42.3	-43.2	21.5	0.00e+00	0	43	0	720371712	56	3925
2026-01-27 05:21:01.34	27.92	20.22	-42.3	-43.1	21.5	0.00e+00	0	43	0	729808896	56	3910
2026-01-27 05:21:04.36	27.23	20.39	-42.3	-43.1	21.5	0.00e+00	0	43	0	739246080	56	3907
2026-01-27 05:21:07.38	26.54	20.56	-42.3	-43.1	21.6	0.00e+00	0	43	0	748683264	56	3902
2026-01-27 05:21:10.40	25.84	20.73	-42.1	-42.9	21.7	0.00e+00	0	43	0	759169024	56	3802
2026-01-27 05:21:13.42	25.13	20.89	-42.2	-43.1	21.5	0.00e+00	0	43	0	767557632	56	3886
2026-01-27 05:21:16.44	24.42	21.05	-42.3	-43.2	21.6	0.00e+00	0	43	0	776994816	56	3929
2026-01-27 05:21:19.47	23.69	21.20	-42.1	-42.9	21.8	0.00e+00	0	43	0	786432000	56	3818
2026-01-27 05:21:22.49	22.96	21.35	-42.1	-43.0	21.7	0.00e+00	0	43	0	796917760	56	3840
2026-01-27 05:21:25.51	22.22	21.50	-42.0	-42.8	21.9	0.00e+00	0	43	0	806354944	56	3776
2026-01-27 05:21:28.53	21.48	21.64	-41.7	-42.5	22.0	0.00e+00	0	43	0	814743552	55	3865
2026-01-27 05:21:31.54	20.73	21.78	-41.9	-42.7	21.9	0.00e+00	0	43	0	824180736	55	3932
2026-01-27 05:21:34.57	19.97	21.91	-41.8	-42.6	21.9	0.00e+00	0	43	0	833617920	55	3886
2026-01-27 05:21:37.59	19.21	22.04	-41.9	-42.7	21.8	0.00e+00	0	43	0	844103680	55	3953
2026-01-27 05:21:40.61	18.44	22.16	-41.9	-42.7	21.9	0.00e+00	0	43	0	853540864	55	3943
2026-01-27 05:21:43.63	17.66	22.28	-42.0	-42.8	21.8	0.00e+00	0	43	0	861929472	55	4003
2026-01-27 05:21:46.65	16.88	22.39	-42.0	-42.8	21.9	0.00e+00	0	43	0	871366656	55	3975
2026-01-27 05:21:49.67	16.09	22.50	-42.0	-42.9	21.8	0.00e+00	0	43	0	880803840	55	4006
2026-01-27 05:21:52.70	15.30	22.60	-41.8	-42.6	22.1	0.00e+00	0	43	0	891289600	55	3878
2026-01-27 05:21:55.71	14.50	22.69	-41.8	-42.6	22.1	0.00e+00	0	43	0	900726784	55	3881
2026-01-27 05:21:58.73	13.70	22.79	-41.7	-42.5	22.1	0.00e+00	0	43	0	909115392	55	3843
2026-01-27 05:22:01.76	12.89	22.87	-41.7	-42.5	22.2	0.00e+00	0	43	0	918552576	55	3830
2026-01-27 05:22:04.78	12.08	22.95	-41.8	-42.7	22.0	0.00e+00	0	43	0	927989760	55	3914
2026-01-27 05:22:07.79	11.27	23.02	-41.7	-42.5	22.1	0.00e+00	0	43	0	938475520	55	3856
2026-01-27 05:22:10.81	10.45	23.09	-41.6	-42.4	22.1	0.00e+00	0	43	0	947912704	55	3820
2026-01-27 05:22:13.83	9.62	23.15	-41.7	-42.6	22.0	0.00e+00	0	43	0	956301312	55	3873
2026-01-27 05:22:16.84	8.80	23.20	-42.0	-42.9	21.7	0.00e+00	0	43	0	965738496	55	4026
2026-01-27 05:22:19.87	7.97	23.25	-42.1	-42.9	21.7	0.00e+00	0	43	0	975175680	55	4048
2026-01-27 05:22:22.88	7.14	23.29	-42.0	-42.9	21.8	0.00e+00	0	43	0	984612864	55	4021
2026-01-27 05:22:25.90	6.31	23.33	-42.1	-42.9	21.8	0.00e+00	0	43	0	995098624	55	4030
2026-01-27 05:22:28.92	5.47	23.36	-41.7	-42.5	22.1	0.00e+00	0	43	0	1003487232	55	3852
2026-01-27 05:22:31.94	4.64	23.38	-41.7	-42.6	22.1	0.00e+00	0	43	0	1012924416	55	3871
2026-01-27 05:22:34.96	3.80	23.40	-41.9	-42.7	21.9	0.00e+00	0	43	0	1022361600	55	3943
2026-01-27 05:22:37.99	2.96	23.40	-42.1	-42.9	21.8	0.00e+00	0	43	0	1032847360	55	4041
2026-01-27 05:22:41.02	2.12	23.41	-42.2	-43.0	21.7	0.00e+00	0	43	0	1042284544	55	4077
2026-01-27 05:22:44.04	1.28	23.40	-42.0	-42.8	21.9	0.00e+00	0	43	0	1050673152	55	3976
2026-01-27 05:22:47.07	0.44	23.39	-41.9	-42.7	22.0	0.00e+00	0	43	0	1060110336	55	3925
2026-01-27 05:22:50.10	359.60	23.37	-41.6	-42.4	22.1	0.00e+00	0	43	0	1070596096	55	3784
2026-01-27 05:22:53.12	358.77	23.35	-41.7	-42.5	22.1	0.00e+00	0	43	0	1080033280	55	3834
2026-01-27 05:22:56.13	357.94	23.32	-41.7	-42.5	22.1	0.00e+00	0	43	0	1089470464	55	3844
2026-01-27 05:22:59.16	357.10	23.28	-41.7	-42.5	22.1	0.00e+00	0	43	0	1097859072	55	3837
2026-01-27 05:23:02.19	356.27	23.24	-41.6	-42.4	22.2	0.00e+00	0	43	0	1108344832	55	3801
2026-01-27 05:23:05.21	355.44	23.19	-41.6	-42.4	22.1	0.00e+00	0	43	0	1117782016	55	3820
2026-01-27 05:23:08.23	354.61	23.13	-41.8	-42.6	22.1	0.00e+00	0	43	0	1127219200	55	3883
2026-01-27 05:23:11.26	353.79	23.07	-41.7	-42.6	22.0	0.00e+00	0	43	0	1136656384	55	3870
2026-01-27 05:23:14.29	352.97	23.00	-42.1	-42.9	21.8	0.00e+00	0	43	0	1146093568	55	4026
2026-01-27 05:23:17.31	352.16	22.92	-42.0	-42.8	21.8	0.00e+00	0	43	0	1155530752	55	4000
2026-01-27 05:23:20.34	351.34	22.84	-42.0	-42.8	21.9	0.00e+00	0	43	0	1164967936	55	3973
2026-01-27 05:23:23.37	350.53	22.76	-41.8	-42.6	22.0	0.00e+00	0	43	0	1174405120	55	3910
2026-01-27 05:23:26.38	349.74	22.66	-41.8	-42.7	22.0	0.00e+00	0	43	0	1183842304	55	3917
2026-01-27 05:23:29.41	348.94	22.57	-41.7	-42.5	22.0	0.00e+00	0	43	0	1193279488	55	3864
2026-01-27 05:23:32.43	348.15	22.46	-42.0	-42.8	21.8	0.00e+00	0	43	0	1202716672	55	3996
2026-01-27 05:23:35.45	347.36	22.35	-42.1	-42.9	21.8	0.00e+00	0	43	0	1212153856	55	4033
2026-01-27 05:23:38.47	346.58	22.24	-42.0	-42.9	21.8	0.00e+00	0	43	0	1221591040	55	4015
2026-01-27 05:23:41.50	345.80	22.12	-42.2	-43.0	21.7	0.00e+00	0	43	0	1231028224	55	4097
2026-01-27 05:23:44.52	345.03	21.99	-42.1	-42.9	21.8	0.00e+00	0	43	0	1240465408	55	4037
2026-01-27 05:23:47.54	344.27	21.86	-42.0	-42.8	21.8	0.00e+00	0	43	0	1249902592	55	4001
2026-01-27 05:23:50.56	343.52	21.73	-42.4	-43.2	21.5	0.00e+00	0	43	0	1259339776	55	4184
2026-01-27 05:23:53.59	342.77	21.59	-42.3	-43.2	21.5	0.00e+00	0	43	0	1268776960	55	4157
2026-01-27 05:23:56.61	342.03	21.45	-42.3	-43.1	21.5	0.00e+00	0	43	0	1278214144	55	4129
2026-01-27 05:23:59.64	341.29	21.30	-42.5	-43.4	21.3	0.00e+00	0	43	0	1287651328	55	4253
2026-01-27 05:24:02.65	340.56	21.15	-42.3	-43.2	21.5	0.00e+00	0	43	0	1297088512	55	4158
2026-01-27 05:24:05.67	339.84	20.99	-42.0	-42.8	21.8	0.00e+00	0	43	0	1306525696	55	3998
2026-01-27 05:24:08.69	339.13	20.84	-42.2	-43.1	21.6	0.00e+00	0	43	0	1315962880	55	4100
2026-01-27 05:24:11.70	338.43	20.67	-42.6	-43.5	21.3	0.00e+00	0	43	0	1325400064	55	4297
2026-01-27 05:24:14.73	337.73	20.51	-42.6	-43.5	21.2	0.00e+00	0	43	0	1334837248	55	4302
2026-01-27 05:24:17.76	337.03	20.34	-42.5	-43.4	21.3	0.00e+00	0	43	0	1344274432	55	4244
2026-01-27 05:24:20.79	336.35	20.16	-42.3	-43.2	21.5	0.00e+00	0	43	0	1353711616	55	4177
2026-01-27 05:24:23.80	335.68	19.99	-42.2	-43.1	21.5	0.00e+00	0	43	0	1363148800	55	4106
2026-01-27 05:24:26.83	335.01	19.81	-42.0	-42.8	21.8	0.00e+00	0	43	0	1372585984	55	4004
2026-01-27 05:24:29.84	334.35	19.63	-42.3	-43.2	21.5	0.00e+00	0	43	0	1382023168	55	4165
2026-01-27 05:24:32.86	333.70	19.44	-42.3	-43.2	21.5	0.00e+00	0	43	0	1391460352	55	4153
2026-01-27 05:24:35.88	333.06	19.26	-41.9	-42.7	21.8	0.00e+00	0	43	0	1400897536	55	3957
2026-01-27 05:24:38.90	332.42	19.07	-41.9	-42.7	21.9	0.00e+00	0	43	0	1410334720	55	3949
2026-01-27 05:24:41.92	331.80	18.88	-42.3	-43.1	21.6	0.00e+00	0	43	0	1419771904	55	4129
2026-01-27 05:24:44.94	331.18	18.69	-42.3	-43.2	21.5	0.00e+00	0	43	0	1429209088	55	4166
2026-01-27 05:24:47.96	330.56	18.49	-42.2	-43.1	21.6	0.00e+00	0	43	0	1438646272	55	4119
2026-01-27 05:24:50.98	329.96	18.29	-42.3	-43.1	21.5	0.00e+00	0	43	0	1448083456	55	4129
2026-01-27 05:24:54.00	329.37	18.10	-42.1	-43.0	21.6	0.00e+00	0	43	0	1457520640	55	4075
2026-01-27 05:24:57.03	328.78	17.89	-42.0	-42.8	21.7	0.00e+00	0	43	0	1466957824	55	4000
2026-01-27 05:25:00.05	328.20	17.69	-42.3	-43.2	21.4	0.00e+00	0	43	0	1476395008	55	4154
2026-01-27 05:25:03.07	327.62	17.49	-42.9	-43.8	20.9	0.00e+00	0	43	0	1485832192	56	4236
2026-01-27 05:25:06.08	327.06	17.29	-42.9	-43.8	20.9	0.00e+00	0	43	0	1495269376	56	4225
2026-01-27 05:25:09.10	326.51	17.08	-42.6	-43.5	21.2	0.00e+00	0	43	0	1504706560	56	4061
2026-01-27 05:25:12.12	325.96	16.88	-42.4	-43.2	21.4	0.00e+00	0	43	0	1514143744	56	3948
2026-01-27 05:25:15.14	325.42	16.67	-42.4	-43.3	21.3	0.00e+00	0	43	0	1523580928	56	3962
2026-01-27 05:25:18.16	324.88	16.46	-42.3	-43.2	21.3	0.00e+00	0	43	0	1533018112	56	3936
2026-01-27 05:25:21.18	324.36	16.25	-42.3	-43.1	21.4	0.00e+00	0	43	0	1542455296	56	3901
2026-01-27 05:25:24.20	323.84	16.04	-42.5	-43.4	21.2	0.00e+00	0	43	0	1551892480	56	4009
2026-01-27 05:25:27.22	323.32	15.83	-42.7	-43.6	21.0	0.00e+00	0	43	0	1561329664	56	4138
2026-01-27 05:25:30.25	322.82	15.62	-42.9	-43.8	20.8	0.00e+00	0	43	0	1570766848	56	4233
2026-01-27 05:25:33.27	322.32	15.41	-43.0	-43.9	20.7	0.00e+00	0	43	0	1580204032	56	4282
2026-01-27 05:25:36.28	321.83	15.20	-43.0	-43.9	20.6	0.00e+00	0	43	0	1589641216	56	4284
2026-01-27 05:25:39.31	321.35	14.99	-42.9	-43.8	20.7	0.00e+00	0	43	0	1599078400	56	4233
2026-01-27 05:25:42.33	320.87	14.78	-42.8	-43.7	20.8	0.00e+00	0	43	0	1608515584	56	4186
2026-01-27 05:25:45.36	320.40	14.56	-42.7	-43.6	20.9	0.00e+00	0	43	0	1617952768	56	4136
2026-01-27 05:25:48.38	319.94	14.35	-42.7	-43.6	21.0	0.00e+00	0	43	0	1627389952	56	4117
2026-01-27 05:25:51.40	319.48	14.14	-42.8	-43.7	20.8	0.00e+00	0	43	0	1636827136	56	4182
2026-01-27 05:25:54.41	319.03	13.93	-43.0	-43.9	20.7	0.00e+00	0	43	0	1646264320	56	4265
2026-01-27 05:25:57.44	318.59	13.72	-42.7	-43.6	20.9	0.00e+00	0	43	0	1655701504	56	4116
2026-01-27 05:26:00.46	318.15	13.50	-42.9	-43.8	20.8	0.00e+00	0	43	0	1665138688	56	4220
2026-01-27 05:26:03.48	317.72	13.29	-43.3	-44.3	20.3	0.00e+00	0	43	0	1674575872	57	4233
2026-01-27 05:26:06.50	317.30	13.08	-43.7	-44.8	19.9	0.00e+00	0	43	0	1684013056	58	4212
2026-01-27 05:26:09.53	316.88	12.87	-43.8	-44.8	19.8	0.00e+00	0	43	0	1693450240	58	4224
2026-01-27 05:26:12.55	316.47	12.66	-43.4	-44.4	20.2	0.00e+00	0	43	0	1702887424	58	4027
2026-01-27 05:26:15.57	316.06	12.45	-43.4	-44.4	20.2	0.00e+00	0	43	0	1712324608	58	4029
2026-01-27 05:26:18.59	315.66	12.24	-43.7	-44.7	19.9	0.00e+00	0	43	0	1721761792	58	4176
2026-01-27 05:26:21.61	315.27	12.03	-43.9	-45.0	19.7	0.00e+00	0	43	0	1731198976	58	4315
2026-01-27 05:26:24.64	314.88	11.82	-43.8	-44.8	19.7	0.00e+00	0	43	0	1740636160	58	4238
2026-01-27 05:26:27.66	314.50	11.61	-43.5	-44.5	20.0	0.00e+00	0	43	0	1750073344	58	4055
2026-01-27 05:26:30.70	314.12	11.40	-43.2	-44.2	20.3	0.00e+00	0	43	0	1759510528	58	3933
2026-01-27 05:26:33.73	313.74	11.19	-43.5	-44.5	20.0	0.00e+00	0	43	0	1768947712	58	4079
2026-01-27 05:26:36.75	313.38	10.99	-43.7	-44.7	19.8	0.00e+00	0	43	0	1778384896	58	4181
2026-01-27 05:26:39.78	313.02	10.78	-43.6	-44.7	19.8	0.00e+00	0	43	0	1787822080	58	4152
2026-01-27 05:26:42.81	312.66	10.57	-43.7	-44.7	19.8	0.00e+00	0	43	0	1797259264	58	4188
2026-01-27 05:26:45.83	312.31	10.37	-43.6	-44.7	19.8	0.00e+00	0	43	0	1806696448	58	4150
2026-01-27 05:26:48.85	311.96	10.16	-43.7	-44.8	19.7	0.00e+00	0	43	0	1816133632	58	4198
2026-01-27 05:26:51.88	311.62	9.96	-43.9	-45.0	19.5	0.00e+00	0	43	0	1825570816	58	4310
2026-01-27 05:26:54.91	311.28	9.76	-44.3	-45.4	19.1	0.00e+00	0	43	0	1835008000	59	4283
2026-01-27 05:26:57.93	310.95	9.55	-44.4	-45.6	19.0	0.00e+00	0	43	0	1844445184	59	4353
2026-01-27 05:27:00.96	310.62	9.35	-44.4	-45.5	19.0	0.00e+00	0	43	0	1853882368	59	4323
2026-01-27 05:27:03.99	310.30	9.15	-44.2	-45.3	19.1	0.00e+00	0	43	0	1863319552	59	4228
2026-01-27 05:27:07.02	309.98	8.95	-44.0	-45.1	19.3	0.00e+00	0	43	0	1872756736	59	4112
2026-01-27 05:27:10.04	309.67	8.75	-43.9	-44.9	19.5	0.00e+00	0	43	0	1882193920	59	4033
2026-01-27 05:27:13.07	309.36	8.55	-44.1	-45.1	19.3	0.00e+00	0	43	0	1891631104	59	4135
2026-01-27 05:27:16.10	309.05	8.35	-44.4	-45.5	18.9	0.00e+00	0	43	0	1901068288	59	4329
2026-01-27 05:27:19.12	308.75	8.15	-44.5	-45.7	18.5	0.00e+00	0	43	0	1910505472	60	4153
2026-01-27 05:27:22.14	308.46	7.96	-44.8	-46.1	18.1	0.00e+00	0	43	0	1919942656	60	4344
2026-01-27 05:27:25.16	308.17	7.76	-44.6	-45.8	18.2	0.00e+00	0	43	0	1929379840	60	4208
2026-01-27 05:27:28.19	307.88	7.57	-44.1	-45.2	18.8	0.00e+00	0	43	0	1938817024	60	3934
2026-01-27 05:27:31.22	307.59	7.37	-44.1	-45.2	19.1	0.00e+00	0	43	0	1948254208	59	4193
2026-01-27 05:27:34.25	307.31	7.18	-44.0	-45.0	19.3	0.00e+00	0	43	0	1957691392	59	4089
2026-01-27 05:27:37.27	307.04	6.99	-44.2	-45.3	19.1	0.00e+00	0	43	0	1967128576	59	4210
2026-01-27 05:27:40.29	306.76	6.80	-44.7	-45.9	18.5	0.00e+00	0	43	0	1977614336	59	4503
2026-01-27 05:27:43.32	306.49	6.60	-44.7	-46.0	18.0	0.00e+00	0	43	0	1986002944	60	4316
2026-01-27 05:27:46.34	306.23	6.41	-44.6	-45.9	18.1	0.00e+00	0	43	0	1995440128	60	4251
2026-01-27 05:27:49.37	305.97	6.22	-44.7	-46.0	18.0	0.00e+00	0	43	0	2004877312	60	4303
2026-01-27 05:27:52.39	305.71	6.04	-44.9	-46.2	17.7	0.00e+00	0	43	0	2015363072	60	4413
2026-01-27 05:27:55.41	305.45	5.85	-44.6	-45.8	18.0	0.00e+00	0	43	0	2024800256	60	4226
2026-01-27 05:27:58.44	305.20	5.66	-44.6	-45.9	17.9	0.00e+00	0	43	0	2033188864	60	4270
2026-01-27 05:28:01.46	304.95	5.47	-44.6	-45.9	18.0	0.00e+00	0	43	0	2042626048	60	4263
2026-01-27 05:28:04.49	304.71	5.29	-44.7	-45.9	17.9	0.00e+00	0	43	0	2053111808	60	4282
2026-01-27 05:28:07.51	304.47	5.10	-44.9	-46.2	17.7	0.00e+00	0	43	0	2062548992	60	4412
2026-01-27 05:28:10.53	304.23	4.92	-52.3	-64.9	3.8	1.49e+00	0	43	104	2069889024	75	16092
2026-01-27 05:28:13.56	303.99	4.74	-52.5	-65.3	3.8	1.49e+00	0	43	104	2069889024	75	16705
2026-01-27 05:28:16.58	303.76	4.56	-52.8	-65.5	3.8	1.49e+00	0	43	104	2069889024	76	16274
2026-01-27 05:28:19.60	303.53	4.37	-53.0	-65.7	3.8	1.49e+00	0	43	104	2069889024	76	16576
2026-01-27 05:28:22.63	303.30	4.19	-53.1	-65.8	3.8	1.49e+00	0	43	104	2069889024	76	16804
2026-01-27 05:28:25.65	303.08	4.01	-53.2	-65.9	3.8	1.49e+00	0	43	104	2069889024	76	17062
2026-01-27 05:28:28.67	302.86	3.83	-53.2	-65.9	3.8	1.49e+00	0	43	104	2069889024	76	16932
2026-01-27 05:28:31.69	302.64	3.66	-53.2	-65.9	3.8	1.49e+00	0	43	104	2069889024	76	16950
2026-01-27 05:28:34.71	302.43	3.48	-53.2	-65.9	3.8	1.49e+00	0	43	104	2069889024	76	16938
2026-01-27 05:28:37.73	302.22	3.30	-53.1	-65.9	3.8	1.49e+00	0	43	104	2069889024	76	16922
2026-01-27 05:28:40.76	302.01	3.13	-53.1	-65.9	3.8	1.49e+00	0	43	104	2069889024	76	16940
2026-01-27 05:28:43.78	301.80	2.95	-53.1	-65.9	3.8	1.49e+00	0	43	104	2069889024	76	16902
2026-01-27 05:28:46.80	301.59	2.78	-53.1	-65.9	3.8	1.49e+00	0	43	104	2069889024	76	16934
2026-01-27 05:28:49.82	301.39	2.60	-53.1	-65.8	3.8	1.49e+00	0	43	104	2069889024	76	16878
2026-01-27 05:28:52.85	301.19	2.43	-53.1	-65.8	3.8	1.49e+00	0	44	104	2069889024	76	16866
2026-01-27 05:28:55.87	300.99	2.26	-53.1	-65.8	3.8	1.49e+00	0	43	104	2069889024	76	16812
2026-01-27 05:28:58.90	300.80	2.08	-53.1	-65.8	3.8	1.49e+00	0	44	104	2069889024	76	16881

#Closed at: 2026-01-27 05:29:01
#Recorded file [2069 MB]: D:/lorett/data/31041_260127_081620.dat