passes_logs/2026/01/27/R3.2S_Murmansk/R3.2S_Murmansk__20260127_224716_SUOMI_NPP_rec.log

#Pass ID: 20260127_224716_SUOMI NPP
#Satellite: SUOMI NPP
#Configuration: NPP
#almurnet v.1.7.20251203
#Start time: 2026-01-27 22:47:18

#Version: 2.2.20231116
#Station: R3.2S_Murmansk
#Location: 33.079688 lon 68.888172 lat
#TLE: 1 37849U 11061A   26027.29799992  .00000188  00000+0  11027-3 0  9993
#TLE: 2 37849  98.7822 329.2414 0002113  42.5791 317.5548 14.19530708738457

#Time	Az	El	Level	Level2	SNR	BER	BlckErr	Temp	State	Recorded	gain1	gain2
2026-01-27 22:47:18.99	19.48	2.13	-53.9	-68.9	3.8	1.49e+00	0	41	0	0	79	20179
2026-01-27 22:47:23.02	19.72	2.36	-53.9	-68.9	3.8	1.49e+00	0	41	104	0	78	21292
2026-01-27 22:47:27.05	19.97	2.59	-53.9	-68.9	3.8	1.49e+00	0	41	104	0	78	21348
2026-01-27 22:47:31.06	20.22	2.83	-53.9	-68.9	3.8	1.49e+00	0	42	104	0	78	21311
2026-01-27 22:47:35.09	20.47	3.07	-53.9	-68.9	3.8	1.49e+00	0	42	104	0	78	21275
2026-01-27 22:47:39.13	20.73	3.31	-53.8	-68.8	3.8	1.49e+00	0	42	104	0	78	21208
2026-01-27 22:47:43.16	20.99	3.55	-54.1	-69.0	3.8	1.49e+00	0	42	104	0	78	21683
2026-01-27 22:47:47.18	21.26	3.79	-53.8	-69.1	3.8	1.49e+00	0	42	104	0	78	21880
2026-01-27 22:47:51.21	21.53	4.03	-54.1	-69.0	3.8	1.49e+00	0	42	104	0	78	21650
2026-01-27 22:47:55.23	21.80	4.28	-54.0	-68.9	3.8	1.49e+00	0	42	104	0	78	21415
2026-01-27 22:47:59.26	22.08	4.53	-53.7	-68.6	3.8	1.49e+00	0	42	104	0	78	20735
2026-01-27 22:48:03.29	22.36	4.78	-53.0	-68.0	3.8	1.49e+00	0	42	104	0	78	19179
2026-01-27 22:48:07.32	22.65	5.03	-50.4	-55.5	10.2	2.22e-02	0	42	0	3145728	72	6460
2026-01-27 22:48:11.35	22.94	5.28	-48.4	-51.1	14.5	7.89e-04	0	43	0	7340032	68	4901
2026-01-27 22:48:15.38	23.24	5.54	-47.3	-49.4	16.6	0.00e+00	0	42	0	14680064	66	4522
2026-01-27 22:48:19.39	23.54	5.79	-46.8	-48.8	17.2	0.00e+00	0	42	0	23068672	65	4459
2026-01-27 22:48:23.40	23.85	6.05	-46.7	-48.6	17.4	0.00e+00	0	42	0	30408704	64	4639
2026-01-27 22:48:27.43	24.16	6.31	-46.3	-48.0	18.0	0.00e+00	0	42	0	37748736	64	4334
2026-01-27 22:48:31.45	24.47	6.57	-46.5	-48.3	17.8	0.00e+00	0	43	0	45088768	64	4458
2026-01-27 22:48:35.48	24.80	6.84	-46.5	-48.4	17.8	0.00e+00	0	42	0	52428800	64	4503
2026-01-27 22:48:39.50	25.12	7.10	-46.7	-48.6	17.6	0.00e+00	0	43	0	60817408	64	4604
2026-01-27 22:48:43.52	25.46	7.37	-46.6	-48.5	17.6	0.00e+00	0	43	0	68157440	64	4584
2026-01-27 22:48:47.54	25.80	7.64	-46.5	-48.4	17.8	0.00e+00	0	43	0	75497472	64	4496
2026-01-27 22:48:51.57	26.14	7.91	-46.5	-48.3	17.9	0.00e+00	0	43	0	82837504	64	4448
2026-01-27 22:48:55.59	26.49	8.19	-46.2	-47.9	18.3	0.00e+00	0	43	0	91226112	64	4284
2026-01-27 22:48:59.62	26.85	8.47	-46.0	-47.7	18.6	0.00e+00	0	43	0	98566144	64	4154
2026-01-27 22:49:03.65	27.22	8.74	-46.1	-47.7	18.6	0.00e+00	0	43	0	105906176	63	4433
2026-01-27 22:49:07.68	27.59	9.03	-46.3	-48.0	18.4	0.00e+00	0	43	0	113246208	63	4557
2026-01-27 22:49:11.71	27.97	9.31	-46.1	-47.7	18.7	0.00e+00	0	43	0	120586240	63	4419
2026-01-27 22:49:15.73	28.35	9.59	-46.1	-47.7	18.7	0.00e+00	0	43	0	127926272	63	4431
2026-01-27 22:49:19.76	28.74	9.88	-45.8	-47.4	19.0	0.00e+00	0	43	0	136314880	63	4249
2026-01-27 22:49:23.78	29.14	10.17	-45.6	-47.1	19.3	0.00e+00	0	43	0	143654912	63	4119
2026-01-27 22:49:27.81	29.55	10.47	-45.9	-47.4	19.0	0.00e+00	0	43	0	150994944	63	4288
2026-01-27 22:49:31.83	29.96	10.76	-46.3	-48.0	18.5	0.00e+00	0	43	0	158334976	63	4553
2026-01-27 22:49:35.85	30.39	11.06	-46.5	-48.3	18.2	0.00e+00	0	43	0	165675008	64	4459
2026-01-27 22:49:39.88	30.82	11.35	-46.4	-48.1	18.4	0.00e+00	0	43	0	174063616	64	4358
2026-01-27 22:49:43.89	31.26	11.65	-46.3	-48.0	18.5	0.00e+00	0	43	0	181403648	64	4301
2026-01-27 22:49:47.91	31.71	11.96	-46.2	-47.8	18.7	0.00e+00	0	43	0	188743680	64	4200
2026-01-27 22:49:51.94	32.16	12.26	-45.8	-47.3	19.2	0.00e+00	0	43	0	196083712	63	4208
2026-01-27 22:49:55.96	32.63	12.57	-45.6	-47.0	19.5	0.00e+00	0	43	0	203423744	63	4089
2026-01-27 22:49:59.98	33.11	12.88	-45.6	-47.0	19.5	0.00e+00	0	43	0	210763776	62	4308
2026-01-27 22:50:04.00	33.59	13.19	-45.7	-47.1	19.5	0.00e+00	0	43	0	219152384	62	4383
2026-01-27 22:50:08.02	34.09	13.51	-45.7	-47.2	19.3	0.00e+00	0	43	0	226492416	62	4401
2026-01-27 22:50:12.04	34.59	13.82	-45.6	-47.0	19.6	0.00e+00	0	43	0	233832448	62	4333
2026-01-27 22:50:16.07	35.11	14.14	-46.0	-47.6	19.1	0.00e+00	0	43	0	241172480	62	4599
2026-01-27 22:50:20.10	35.64	14.47	-46.7	-48.4	18.3	0.00e+00	0	43	0	249561088	63	4777
2026-01-27 22:50:24.13	36.18	14.79	-46.5	-48.2	18.5	0.00e+00	0	43	0	256901120	64	4426
2026-01-27 22:50:28.16	36.73	15.11	-46.2	-47.8	18.8	0.00e+00	0	43	0	264241152	64	4211
2026-01-27 22:50:32.18	37.29	15.44	-46.2	-47.7	19.0	0.00e+00	0	43	0	271581184	63	4433
2026-01-27 22:50:36.20	37.86	15.77	-45.3	-46.7	20.0	0.00e+00	0	43	0	278921216	62	4156
2026-01-27 22:50:40.23	38.45	16.10	-45.0	-46.3	20.3	0.00e+00	0	43	0	287309824	62	3997
2026-01-27 22:50:44.25	39.05	16.43	-44.9	-46.2	20.4	0.00e+00	0	43	0	294649856	61	4174
2026-01-27 22:50:48.28	39.66	16.77	-44.6	-45.9	20.7	0.00e+00	0	43	0	301989888	61	4022
2026-01-27 22:50:52.32	40.29	17.10	-44.8	-46.1	20.5	0.00e+00	0	43	0	309329920	61	4100
2026-01-27 22:50:56.34	40.92	17.44	-45.1	-46.4	20.3	0.00e+00	0	43	0	316669952	61	4249
2026-01-27 22:51:00.36	41.58	17.78	-45.3	-46.6	20.1	0.00e+00	0	43	0	324009984	61	4380
2026-01-27 22:51:04.38	42.24	18.12	-45.3	-46.6	20.1	0.00e+00	0	43	0	332398592	61	4368
2026-01-27 22:51:08.41	42.92	18.46	-44.8	-46.1	20.6	0.00e+00	0	43	0	339738624	61	4122
2026-01-27 22:51:12.44	43.62	18.80	-45.0	-46.3	20.4	0.00e+00	0	43	0	347078656	61	4219
2026-01-27 22:51:16.46	44.33	19.14	-44.7	-46.0	20.7	0.00e+00	0	43	0	354418688	60	4303
2026-01-27 22:51:20.49	45.06	19.48	-44.8	-46.1	20.6	0.00e+00	0	43	0	361758720	60	4354
2026-01-27 22:51:24.53	45.81	19.82	-44.7	-45.9	20.8	0.00e+00	0	43	0	370147328	60	4250
2026-01-27 22:51:28.56	46.57	20.17	-44.7	-45.9	20.8	0.00e+00	0	43	0	377487360	60	4267
2026-01-27 22:51:32.59	47.35	20.51	-44.5	-45.7	20.9	0.00e+00	0	43	0	384827392	60	4190
2026-01-27 22:51:36.61	48.14	20.85	-44.3	-45.4	21.2	0.00e+00	0	43	0	392167424	60	4048
2026-01-27 22:51:40.64	48.95	21.19	-44.7	-45.9	20.8	0.00e+00	0	43	0	400556032	60	4257
2026-01-27 22:51:44.66	49.78	21.53	-44.4	-45.6	21.1	0.00e+00	0	43	0	407896064	60	4122
2026-01-27 22:51:48.69	50.63	21.87	-44.6	-45.8	20.9	0.00e+00	0	43	0	415236096	60	4225
2026-01-27 22:51:52.71	51.49	22.20	-44.6	-45.8	20.9	0.00e+00	0	43	0	422576128	60	4202
2026-01-27 22:51:56.73	52.37	22.53	-44.6	-45.8	20.9	0.00e+00	0	43	0	429916160	60	4241
2026-01-27 22:52:00.75	53.27	22.86	-44.8	-46.0	20.7	0.00e+00	0	43	0	437256192	60	4340
2026-01-27 22:52:04.78	54.19	23.19	-44.4	-45.5	21.2	0.00e+00	0	43	0	445644800	60	4097
2026-01-27 22:52:08.81	55.13	23.52	-44.4	-45.6	21.1	0.00e+00	0	43	0	452984832	60	4126
2026-01-27 22:52:12.84	56.09	23.84	-45.2	-46.5	20.4	0.00e+00	0	43	0	460324864	60	4568
2026-01-27 22:52:16.87	57.07	24.15	-45.3	-46.6	20.3	0.00e+00	0	43	0	467664896	61	4344
2026-01-27 22:52:20.89	58.07	24.46	-44.6	-45.8	21.0	0.00e+00	0	43	0	476053504	60	4233
2026-01-27 22:52:24.91	59.08	24.77	-44.5	-45.7	21.1	0.00e+00	0	43	0	483393536	60	4160
2026-01-27 22:52:28.93	60.12	25.07	-45.6	-47.0	19.9	0.00e+00	0	43	0	490733568	61	4582
2026-01-27 22:52:32.95	61.17	25.36	-44.6	-45.7	21.1	0.00e+00	0	43	0	498073600	60	4186
2026-01-27 22:52:36.97	62.24	25.65	-45.9	-47.4	19.6	0.00e+00	0	43	0	505413632	62	4496
2026-01-27 22:52:41.00	63.34	25.93	-45.4	-46.8	20.1	0.00e+00	0	43	0	513802240	62	4203
2026-01-27 22:52:45.03	64.45	26.20	-45.7	-47.1	19.7	0.00e+00	0	43	0	521142272	62	4385
2026-01-27 22:52:49.05	65.58	26.46	-46.5	-48.0	19.0	0.00e+00	0	43	0	528482304	63	4582
2026-01-27 22:52:53.07	66.72	26.71	-45.9	-47.3	19.7	0.00e+00	0	43	0	535822336	63	4238
2026-01-27 22:52:57.11	67.89	26.95	-46.1	-47.5	19.4	0.00e+00	0	43	0	543162368	63	4334
2026-01-27 22:53:01.14	69.08	27.18	-46.5	-48.1	18.9	0.00e+00	0	43	0	550502400	64	4342
2026-01-27 22:53:05.17	70.28	27.40	-45.5	-46.9	20.1	0.00e+00	0	43	0	558891008	62	4243
2026-01-27 22:53:09.20	71.50	27.61	-47.1	-48.9	18.2	0.00e+00	0	43	0	566231040	64	4778
2026-01-27 22:53:13.23	72.73	27.81	-47.7	-49.6	17.5	0.00e+00	0	43	0	573571072	65	4886
2026-01-27 22:53:17.25	73.97	27.99	-48.5	-50.8	16.3	0.00e+00	0	43	0	580911104	68	4739
2026-01-27 22:53:21.27	75.23	28.16	-48.6	-50.9	16.2	0.00e+00	0	43	0	588251136	68	4798
2026-01-27 22:53:25.30	76.51	28.32	-47.1	-48.8	18.3	0.00e+00	0	43	0	596639744	66	4195
2026-01-27 22:53:29.33	77.79	28.46	-48.2	-50.3	16.8	0.00e+00	0	43	0	603979776	67	4743
2026-01-27 22:53:33.35	79.08	28.59	-47.6	-49.5	17.5	0.00e+00	0	43	0	611319808	66	4590
2026-01-27 22:53:37.38	80.39	28.70	-46.9	-48.6	18.4	0.00e+00	0	43	0	618659840	65	4353
2026-01-27 22:53:41.40	81.70	28.80	-46.8	-48.4	18.6	0.00e+00	0	43	0	627048448	64	4523
2026-01-27 22:53:45.44	83.03	28.88	-46.4	-47.9	19.1	0.00e+00	0	43	0	634388480	64	4255
2026-01-27 22:53:49.46	84.35	28.94	-46.3	-47.8	19.2	0.00e+00	0	43	0	641728512	64	4214
2026-01-27 22:53:53.49	85.68	28.99	-46.5	-48.0	19.0	0.00e+00	0	43	0	649068544	63	4577
2026-01-27 22:53:57.52	87.02	29.02	-46.3	-47.8	19.2	0.00e+00	0	43	0	656408576	64	4210
2026-01-27 22:54:01.55	88.36	29.04	-46.7	-48.4	18.7	0.00e+00	0	43	0	663748608	64	4495
2026-01-27 22:54:05.57	89.69	29.04	-47.3	-49.0	18.0	0.00e+00	0	43	0	672137216	65	4573
2026-01-27 22:54:09.60	91.03	29.02	-46.7	-48.2	18.8	0.00e+00	0	43	0	679477248	65	4179
2026-01-27 22:54:13.63	92.37	28.99	-46.0	-47.4	19.7	0.00e+00	0	43	0	686817280	63	4260
2026-01-27 22:54:17.66	93.70	28.93	-47.8	-49.7	17.4	0.00e+00	0	43	0	694157312	66	4689
2026-01-27 22:54:21.69	95.03	28.87	-47.8	-49.7	17.5	0.00e+00	0	43	0	701497344	66	4700
2026-01-27 22:54:25.71	96.34	28.78	-47.7	-49.6	17.5	0.00e+00	0	43	0	709885952	66	4641
2026-01-27 22:54:29.74	97.66	28.69	-49.4	-52.2	15.0	0.00e+00	0	43	0	717225984	69	5264
2026-01-27 22:54:33.77	98.96	28.57	-48.9	-51.3	15.9	0.00e+00	0	43	0	724566016	69	4719
2026-01-27 22:54:37.81	100.26	28.44	-47.5	-49.4	17.7	0.00e+00	0	43	0	731906048	66	4506
2026-01-27 22:54:41.85	101.55	28.29	-48.1	-50.2	16.9	0.00e+00	0	43	0	740294656	67	4685
2026-01-27 22:54:45.88	102.83	28.14	-47.0	-48.7	18.4	0.00e+00	0	43	0	747634688	65	4395
2026-01-27 22:54:49.91	104.09	27.96	-46.2	-47.7	19.3	0.00e+00	0	43	0	754974720	64	4171
2026-01-27 22:54:53.93	105.33	27.78	-46.9	-48.6	18.3	0.00e+00	0	43	0	762314752	64	4636
2026-01-27 22:54:57.96	106.56	27.58	-46.4	-48.0	19.0	0.00e+00	0	43	0	769654784	64	4304
2026-01-27 22:55:01.99	107.78	27.37	-46.6	-48.2	18.7	0.00e+00	0	43	0	778043392	64	4405
2026-01-27 22:55:06.01	108.98	27.14	-46.2	-47.6	19.3	0.00e+00	0	43	0	785383424	64	4139
2026-01-27 22:55:10.04	110.16	26.91	-46.3	-47.7	19.2	0.00e+00	0	43	0	792723456	64	4193
2026-01-27 22:55:14.07	111.33	26.66	-46.5	-48.0	19.1	0.00e+00	0	43	0	800063488	63	4591
2026-01-27 22:55:18.10	112.48	26.41	-47.0	-48.7	18.4	0.00e+00	0	43	0	807403520	65	4404
2026-01-27 22:55:22.12	113.61	26.15	-46.4	-47.9	19.1	0.00e+00	0	43	0	815792128	64	4281
2026-01-27 22:55:26.14	114.72	25.87	-46.0	-47.4	19.6	0.00e+00	0	43	0	823132160	63	4247
2026-01-27 22:55:30.17	115.81	25.59	-47.0	-48.7	18.3	0.00e+00	0	43	0	830472192	64	4678
2026-01-27 22:55:34.20	116.89	25.30	-46.0	-47.4	19.6	0.00e+00	0	43	0	837812224	63	4283
2026-01-27 22:55:38.23	117.94	25.01	-45.8	-47.2	19.7	0.00e+00	0	43	0	845152256	63	4175
2026-01-27 22:55:42.25	118.97	24.71	-45.3	-46.6	20.4	0.00e+00	0	43	0	853540864	62	4113
2026-01-27 22:55:46.28	119.99	24.40	-46.1	-47.6	19.3	0.00e+00	0	43	0	860880896	63	4352
2026-01-27 22:55:50.31	120.99	24.09	-44.3	-45.4	21.6	0.00e+00	0	43	0	868220928	59	4260
2026-01-27 22:55:54.34	121.97	23.77	-45.6	-46.9	20.0	0.00e+00	0	43	0	875560960	61	4525
2026-01-27 22:55:58.36	122.92	23.45	-44.9	-46.2	20.6	0.00e+00	0	43	0	882900992	61	4150
2026-01-27 22:56:02.39	123.86	23.12	-45.3	-46.6	20.3	0.00e+00	0	43	0	891289600	62	4121
2026-01-27 22:56:06.42	124.78	22.79	-44.6	-45.8	20.9	0.00e+00	0	43	0	898629632	60	4217
2026-01-27 22:56:10.44	125.68	22.46	-46.4	-48.0	18.8	0.00e+00	0	43	0	905969664	64	4326
2026-01-27 22:56:14.47	126.57	22.12	-44.8	-46.0	20.7	0.00e+00	0	43	0	913309696	61	4056
2026-01-27 22:56:18.49	127.43	21.78	-44.6	-45.8	20.8	0.00e+00	0	43	0	920649728	60	4229
2026-01-27 22:56:22.52	128.28	21.44	-45.1	-46.4	20.3	0.00e+00	0	43	0	929038336	60	4507
2026-01-27 22:56:26.54	129.10	21.10	-47.4	-49.4	17.4	0.00e+00	0	43	0	936378368	65	4786
2026-01-27 22:56:30.56	129.91	20.76	-45.6	-47.0	19.7	0.00e+00	0	43	0	943718400	63	4056
2026-01-27 22:56:34.59	130.71	20.42	-45.5	-46.9	19.8	0.00e+00	0	43	0	951058432	62	4251
2026-01-27 22:56:38.61	131.48	20.07	-44.6	-45.8	20.8	0.00e+00	0	43	0	958398464	61	3982
2026-01-27 22:56:42.62	132.24	19.73	-44.9	-46.2	20.4	0.00e+00	0	43	0	966787072	60	4418
2026-01-27 22:56:46.64	132.98	19.39	-45.0	-46.4	20.2	0.00e+00	0	43	0	974127104	61	4244
2026-01-27 22:56:50.67	133.71	19.04	-45.2	-46.6	20.0	0.00e+00	0	43	0	981467136	61	4342
2026-01-27 22:56:54.70	134.42	18.70	-45.5	-47.0	19.7	0.00e+00	0	43	0	988807168	62	4297
2026-01-27 22:56:58.73	135.11	18.36	-44.6	-45.8	20.7	0.00e+00	0	43	0	996147200	60	4226
2026-01-27 22:57:02.75	135.79	18.01	-44.3	-45.5	20.9	0.00e+00	0	43	0	1004535808	60	4074
2026-01-27 22:57:06.78	136.46	17.67	-44.1	-45.3	21.1	0.00e+00	0	43	0	1011875840	60	3979
2026-01-27 22:57:10.81	137.11	17.33	-44.5	-45.7	21.0	0.00e+00	0	43	0	1019215872	59	4420
2026-01-27 22:57:14.83	137.75	17.00	-44.8	-46.0	20.4	0.00e+00	0	43	0	1026555904	60	4336
2026-01-27 22:57:18.85	138.37	16.66	-44.7	-46.0	20.4	0.00e+00	0	43	0	1033895936	60	4319
2026-01-27 22:57:22.88	138.98	16.32	-44.4	-45.6	20.7	0.00e+00	0	43	0	1041235968	60	4130
2026-01-27 22:57:26.90	139.58	15.99	-44.4	-45.6	20.7	0.00e+00	0	43	0	1049624576	60	4126
2026-01-27 22:57:30.93	140.16	15.66	-44.4	-45.6	20.7	0.00e+00	0	43	0	1056964608	60	4139
2026-01-27 22:57:34.95	140.74	15.33	-44.2	-45.4	20.9	0.00e+00	0	43	0	1064304640	60	4009
2026-01-27 22:57:38.98	141.30	15.00	-44.6	-45.9	20.4	0.00e+00	0	43	0	1071644672	60	4262
2026-01-27 22:57:43.01	141.85	14.67	-45.6	-47.1	19.3	0.00e+00	0	43	0	1080033280	61	4646
2026-01-27 22:57:47.03	142.38	14.35	-45.6	-47.1	19.2	0.00e+00	0	43	0	1087373312	62	4387
2026-01-27 22:57:51.05	142.91	14.02	-45.1	-46.4	20.0	0.00e+00	0	43	0	1094713344	62	4023
2026-01-27 22:57:55.07	143.42	13.70	-45.6	-47.0	19.3	0.00e+00	0	43	0	1102053376	62	4338
2026-01-27 22:57:59.10	143.93	13.38	-46.6	-48.4	18.0	0.00e+00	0	43	0	1109393408	64	4513
2026-01-27 22:58:03.12	144.42	13.07	-46.8	-48.7	17.6	0.00e+00	0	43	0	1117782016	64	4677
2026-01-27 22:58:07.15	144.90	12.75	-46.6	-48.4	17.9	0.00e+00	0	43	0	1125122048	64	4509
2026-01-27 22:58:11.18	145.38	12.44	-46.4	-48.1	18.2	0.00e+00	0	43	0	1132462080	64	4371
2026-01-27 22:58:15.21	145.85	12.13	-46.4	-48.2	18.1	0.00e+00	0	43	0	1139802112	64	4395
2026-01-27 22:58:19.24	146.30	11.82	-45.9	-47.5	18.8	0.00e+00	0	43	0	1147142144	63	4321
2026-01-27 22:58:23.27	146.75	11.52	-45.7	-47.3	19.0	0.00e+00	0	43	0	1154482176	63	4196
2026-01-27 22:58:27.30	147.19	11.22	-45.7	-47.2	19.1	0.00e+00	0	43	0	1162870784	63	4151
2026-01-27 22:58:31.32	147.62	10.92	-46.2	-47.8	18.5	0.00e+00	0	43	0	1170210816	63	4465
2026-01-27 22:58:35.35	148.04	10.62	-46.6	-48.4	17.9	0.00e+00	0	43	0	1177550848	63	4778
2026-01-27 22:58:39.37	148.45	10.32	-46.7	-48.5	17.7	0.00e+00	0	43	0	1184890880	64	4580
2026-01-27 22:58:43.40	148.85	10.03	-46.4	-48.1	18.0	0.00e+00	0	43	0	1193279488	64	4389
2026-01-27 22:58:47.43	149.25	9.74	-46.0	-47.6	18.5	0.00e+00	0	43	0	1200619520	63	4388
2026-01-27 22:58:51.44	149.64	9.45	-46.3	-48.1	18.1	0.00e+00	0	43	0	1207959552	63	4611
2026-01-27 22:58:55.47	150.02	9.16	-46.3	-48.0	18.1	0.00e+00	0	43	0	1215299584	63	4556
2026-01-27 22:58:59.49	150.40	8.88	-46.4	-48.2	17.9	0.00e+00	0	43	0	1222639616	63	4701
2026-01-27 22:59:03.51	150.77	8.60	-46.1	-47.8	18.3	0.00e+00	0	43	0	1231028224	63	4450
2026-01-27 22:59:07.53	151.13	8.32	-46.0	-47.7	18.4	0.00e+00	0	43	0	1238368256	63	4412
2026-01-27 22:59:11.55	151.48	8.04	-45.9	-47.5	18.5	0.00e+00	0	43	0	1245708288	63	4320
2026-01-27 22:59:15.57	151.83	7.76	-46.4	-48.2	17.9	0.00e+00	0	44	0	1253048320	63	4686
2026-01-27 22:59:19.59	152.17	7.49	-46.4	-48.3	17.7	0.00e+00	0	43	0	1260388352	63	4724
2026-01-27 22:59:23.61	152.51	7.22	-46.7	-48.6	17.3	0.00e+00	0	43	0	1267728384	64	4639
2026-01-27 22:59:27.64	152.84	6.95	-46.5	-48.4	17.5	0.00e+00	0	43	0	1276116992	64	4508
2026-01-27 22:59:31.66	153.17	6.68	-46.6	-48.6	17.3	0.00e+00	0	43	0	1283457024	64	4600
2026-01-27 22:59:35.68	153.49	6.42	-46.4	-48.3	17.4	0.00e+00	0	43	0	1290797056	64	4487
2026-01-27 22:59:39.70	153.80	6.15	-46.7	-48.7	17.0	0.00e+00	0	43	0	1298137088	64	4701
2026-01-27 22:59:43.73	154.11	5.89	-46.8	-48.9	16.9	0.00e+00	0	43	0	1305477120	64	4762
2026-01-27 22:59:47.76	154.41	5.63	-47.0	-49.2	16.5	0.00e+00	0	43	0	1313865728	64	4934
2026-01-27 22:59:51.77	154.71	5.37	-46.7	-48.8	16.9	0.00e+00	0	43	0	1321205760	64	4729
2026-01-27 22:59:55.79	155.00	5.12	-46.5	-48.5	17.1	0.00e+00	0	43	0	1328545792	64	4579
2026-01-27 22:59:59.82	155.29	4.86	-52.8	-67.8	3.8	1.49e+00	0	43	104	1331691520	76	21077
2026-01-27 23:00:03.85	155.58	4.61	-53.4	-68.4	3.8	1.49e+00	0	44	104	1331691520	77	21274
2026-01-27 23:00:07.88	155.86	4.36	-53.8	-68.7	3.8	1.49e+00	0	43	104	1331691520	78	20926
2026-01-27 23:00:11.91	156.13	4.11	-54.0	-69.0	3.8	1.49e+00	0	44	104	1331691520	78	21620
2026-01-27 23:00:15.94	156.40	3.87	-54.2	-69.2	3.8	1.49e+00	0	44	104	1331691520	78	22110
2026-01-27 23:00:19.96	156.67	3.62	-54.3	-69.3	3.8	1.49e+00	0	43	104	1331691520	79	21179
2026-01-27 23:00:24.00	156.93	3.38	-54.3	-69.3	3.8	1.49e+00	0	44	104	1331691520	79	21140
2026-01-27 23:00:28.02	157.19	3.14	-53.7	-69.2	3.8	1.49e+00	0	43	104	1331691520	77	23421
2026-01-27 23:00:32.05	157.45	2.90	-54.2	-69.2	3.8	1.49e+00	0	44	104	1331691520	79	20801
2026-01-27 23:00:36.07	157.70	2.66	-54.0	-69.0	3.8	1.49e+00	0	44	104	1331691520	79	20359
2026-01-27 23:00:40.10	157.94	2.42	-53.7	-68.6	3.8	1.49e+00	0	44	104	1331691520	79	19570
2026-01-27 23:00:44.13	158.19	2.19	-53.2	-68.2	3.8	1.49e+00	0	44	104	1331691520	78	19634

#Closed at: 2026-01-27 23:00:48
#Recorded file [1331 MB]: D:/lorett/data/31041_260128_014718.dat