passes_logs/2026/01/27/R3.2S_Murmansk/R3.2S_Murmansk__20260127_123532_2024-095A_rec.log

#Pass ID: 20260127_123532_2024-095A
#Satellite: 2024-095A
#Configuration: WH1_900M
#almurnet v.1.7.20251203
#Start time: 2026-01-27 12:39:15

#Version: 2.2.20231116
#Station: R3.2S_Murmansk
#Location: 33.079688 lon 68.888172 lat
#TLE: 1 59810U 24095A   26027.31094692  .00009034  00000+0  53675-3 0  9998
#TLE: 2 59810  97.5461 108.2138 0001383 248.5076 111.6006 15.11518484 92865

#Time	Az	El	Level	Level2	SNR	BER	BlckErr	Temp	State	Recorded	gain1	gain2
2026-01-27 12:39:15.11	349.99	16.03	-53.3	-68.2	3.8	1.49e+00	0	42	0	0	77	20995
2026-01-27 12:39:17.12	349.39	16.12	-55.0	-57.2	6.2	0.00e+00	0	44	104	0	81	18707
2026-01-27 12:39:19.13	348.78	16.20	-55.1	-57.2	6.2	0.00e+00	0	44	104	0	81	18733
2026-01-27 12:39:21.15	348.17	16.29	-55.1	-57.3	6.2	0.00e+00	0	44	104	0	81	18834
2026-01-27 12:39:23.16	347.56	16.36	-55.1	-57.3	6.2	0.00e+00	0	44	104	0	81	18905
2026-01-27 12:39:25.17	346.94	16.44	-55.2	-57.3	6.2	0.00e+00	0	44	104	0	81	18875
2026-01-27 12:39:27.19	346.32	16.51	-55.2	-57.3	6.2	0.00e+00	0	44	104	0	81	18973
2026-01-27 12:39:29.21	345.70	16.59	-55.2	-57.3	6.2	0.00e+00	0	44	104	0	81	18986
2026-01-27 12:39:31.22	345.07	16.65	-55.2	-57.3	6.2	0.00e+00	0	44	104	0	81	19011
2026-01-27 12:39:33.24	344.44	16.72	-55.2	-57.3	6.2	0.00e+00	0	44	104	0	81	18989
2026-01-27 12:39:35.25	343.81	16.78	-55.2	-57.3	6.2	0.00e+00	0	44	104	0	81	18992
2026-01-27 12:39:37.27	343.17	16.84	-55.2	-57.3	6.2	0.00e+00	0	44	104	0	81	18968
2026-01-27 12:39:39.29	342.53	16.90	-55.2	-57.3	6.2	0.00e+00	0	44	104	0	81	18960
2026-01-27 12:39:41.30	341.89	16.95	-55.2	-57.3	6.2	0.00e+00	0	44	104	0	81	18888
2026-01-27 12:39:43.31	341.24	17.00	-55.1	-57.2	6.2	0.00e+00	0	44	104	0	81	18804
2026-01-27 12:39:45.33	340.59	17.05	-55.1	-57.2	6.2	0.00e+00	0	45	104	0	81	18776
2026-01-27 12:39:47.35	339.94	17.09	-55.1	-57.2	6.2	0.00e+00	0	44	104	0	81	18759
2026-01-27 12:39:49.37	339.29	17.13	-55.1	-57.2	6.2	0.00e+00	0	45	104	0	81	18763
2026-01-27 12:39:51.38	338.64	17.17	-55.1	-57.2	6.2	0.00e+00	0	45	104	0	81	18740
2026-01-27 12:39:53.40	337.98	17.20	-55.1	-57.2	6.2	0.00e+00	0	45	104	0	81	18722
2026-01-27 12:39:55.42	337.32	17.23	-55.1	-57.2	6.2	0.00e+00	0	45	104	0	81	18649
2026-01-27 12:39:57.44	336.66	17.26	-55.1	-57.2	6.2	0.00e+00	0	45	104	0	81	18634
2026-01-27 12:39:59.45	336.00	17.28	-55.0	-57.2	6.2	0.00e+00	0	44	104	0	81	18651
2026-01-27 12:40:01.47	335.34	17.30	-55.0	-57.2	6.2	0.00e+00	0	45	104	0	81	18622
2026-01-27 12:40:03.48	334.68	17.32	-55.0	-57.2	6.2	0.00e+00	0	45	104	0	81	18607
2026-01-27 12:40:05.50	334.02	17.33	-55.0	-57.2	6.2	0.00e+00	0	45	104	0	81	18610
2026-01-27 12:40:07.52	333.35	17.34	-55.0	-57.1	6.2	0.00e+00	0	45	104	0	81	18585
2026-01-27 12:40:09.53	332.69	17.34	-55.0	-57.1	6.2	0.00e+00	0	45	104	0	81	18560
2026-01-27 12:40:11.54	332.03	17.35	-55.1	-57.2	6.2	0.00e+00	0	45	104	0	81	18661
2026-01-27 12:40:13.56	331.36	17.34	-55.2	-57.3	6.2	0.00e+00	0	45	104	0	81	18980
2026-01-27 12:40:15.57	330.70	17.34	-55.3	-57.4	6.2	0.00e+00	0	45	104	0	81	19106
2026-01-27 12:40:17.59	330.04	17.33	-55.2	-57.4	6.2	0.00e+00	0	45	104	0	81	19100
2026-01-27 12:40:19.61	329.37	17.32	-55.2	-57.3	6.2	0.00e+00	0	45	104	0	81	19019
2026-01-27 12:40:21.63	328.71	17.30	-55.2	-57.3	6.2	0.00e+00	0	45	104	0	81	18988
2026-01-27 12:40:23.64	328.05	17.29	-55.1	-57.1	6.2	0.00e+00	0	45	104	0	81	18579
2026-01-27 12:40:25.65	327.39	17.26	-55.0	-57.1	6.2	0.00e+00	0	45	104	0	81	18531
2026-01-27 12:40:27.67	326.73	17.24	-54.9	-57.0	6.2	0.00e+00	0	45	104	0	81	18289
2026-01-27 12:40:29.69	326.07	17.21	-54.7	-56.9	6.2	0.00e+00	0	45	104	0	81	17977
2026-01-27 12:40:31.70	325.42	17.18	-54.7	-56.9	6.2	0.00e+00	0	45	104	0	81	18078
2026-01-27 12:40:33.72	324.76	17.14	-54.7	-56.8	6.2	0.00e+00	0	45	104	0	81	17907
2026-01-27 12:40:35.73	324.11	17.10	-54.7	-56.8	6.2	0.00e+00	0	45	104	0	81	17942
2026-01-27 12:40:37.74	323.46	17.06	-54.6	-56.8	6.2	0.00e+00	0	45	104	0	81	17834
2026-01-27 12:40:39.76	322.81	17.01	-54.6	-56.8	6.2	0.00e+00	0	45	104	0	81	17794
2026-01-27 12:40:41.77	322.16	16.96	-54.6	-56.8	6.2	0.00e+00	0	45	104	0	81	17767
2026-01-27 12:40:43.78	321.52	16.91	-54.6	-56.7	6.2	0.00e+00	0	45	104	0	81	17699
2026-01-27 12:40:45.79	320.88	16.86	-54.6	-56.7	6.2	0.00e+00	0	45	104	0	81	17643
2026-01-27 12:40:47.81	320.24	16.80	-54.5	-56.7	6.2	0.00e+00	0	45	104	0	80	18669
2026-01-27 12:40:49.82	319.61	16.74	-54.5	-56.7	6.2	0.00e+00	0	45	104	0	80	18664
2026-01-27 12:40:51.84	318.98	16.67	-54.5	-56.7	6.2	0.00e+00	0	45	104	0	80	18657
2026-01-27 12:40:53.85	318.35	16.61	-54.5	-56.6	6.2	0.00e+00	0	45	104	0	80	18553
2026-01-27 12:40:55.86	317.72	16.54	-54.5	-56.6	6.2	0.00e+00	0	45	104	0	80	18588
2026-01-27 12:40:57.88	317.10	16.46	-54.5	-56.6	6.2	0.00e+00	0	45	104	0	80	18425
2026-01-27 12:40:59.89	316.48	16.39	-54.5	-56.6	6.2	0.00e+00	0	46	104	0	80	18556
2026-01-27 12:41:01.91	315.86	16.31	-54.4	-56.6	6.2	0.00e+00	0	45	104	0	80	18393
2026-01-27 12:41:03.93	315.25	16.23	-54.4	-56.6	6.2	0.00e+00	0	45	104	0	80	18469
2026-01-27 12:41:05.94	314.65	16.14	-54.4	-56.5	6.2	0.00e+00	0	45	104	0	80	18383
2026-01-27 12:41:07.96	314.04	16.06	-54.4	-56.6	6.2	0.00e+00	0	45	104	0	80	18396
2026-01-27 12:41:09.98	313.44	15.97	-54.4	-56.5	6.2	0.00e+00	0	45	104	0	80	18304
2026-01-27 12:41:11.99	312.85	15.88	-54.4	-56.6	6.2	0.00e+00	0	45	104	0	80	18418
2026-01-27 12:41:14.01	312.25	15.78	-54.4	-56.5	6.2	0.00e+00	0	45	104	0	80	18274
2026-01-27 12:41:16.03	311.66	15.69	-54.4	-56.5	6.2	0.00e+00	0	45	104	0	80	18327
2026-01-27 12:41:18.04	311.08	15.59	-54.4	-56.4	6.2	0.00e+00	0	45	104	0	80	18172
2026-01-27 12:41:20.05	310.51	15.49	-54.4	-56.5	6.2	0.00e+00	0	45	104	0	80	18265
2026-01-27 12:41:22.07	309.93	15.39	-54.3	-56.4	6.2	0.00e+00	0	45	104	0	80	18159
2026-01-27 12:41:24.08	309.36	15.28	-54.3	-56.5	6.2	0.00e+00	0	45	104	0	80	18214
2026-01-27 12:41:26.09	308.80	15.18	-54.3	-56.4	6.2	0.00e+00	0	45	104	0	80	18146
2026-01-27 12:41:28.11	308.24	15.07	-54.3	-56.4	6.2	0.00e+00	0	46	104	0	80	18137
2026-01-27 12:41:30.13	307.68	14.96	-54.3	-56.4	6.2	0.00e+00	0	46	104	0	80	18050
2026-01-27 12:41:32.14	307.13	14.85	-54.3	-56.4	6.2	0.00e+00	0	45	104	0	80	18065
2026-01-27 12:41:34.15	306.59	14.74	-54.3	-56.4	6.2	0.00e+00	0	45	104	0	80	18104
2026-01-27 12:41:36.17	306.05	14.62	-54.3	-56.4	6.2	0.00e+00	0	46	104	0	80	18047
2026-01-27 12:41:38.18	305.51	14.51	-54.3	-56.4	6.2	0.00e+00	0	45	104	0	80	17999
2026-01-27 12:41:40.20	304.98	14.39	-54.2	-56.4	6.2	0.00e+00	0	45	104	0	80	18041
2026-01-27 12:41:42.20	304.46	14.27	-54.2	-56.4	6.2	0.00e+00	0	46	104	0	80	17993
2026-01-27 12:41:44.22	303.94	14.15	-54.3	-56.4	6.2	0.00e+00	0	45	104	0	80	18020
2026-01-27 12:41:46.24	303.42	14.03	-54.2	-56.3	6.2	0.00e+00	0	45	104	0	80	17943
2026-01-27 12:41:48.25	302.91	13.91	-54.2	-56.4	6.2	0.00e+00	0	46	104	0	80	17985
2026-01-27 12:41:50.27	302.40	13.78	-54.2	-56.4	6.2	0.00e+00	0	45	104	0	80	17986
2026-01-27 12:41:52.28	301.90	13.66	-54.2	-56.3	6.2	0.00e+00	0	46	104	0	80	17953
2026-01-27 12:41:54.29	301.41	13.53	-54.2	-56.3	6.2	0.00e+00	0	45	104	0	80	17892
2026-01-27 12:41:56.30	300.92	13.40	-54.2	-56.3	6.2	0.00e+00	0	46	104	0	80	17950
2026-01-27 12:41:58.32	300.43	13.27	-54.2	-56.3	6.2	0.00e+00	0	45	104	0	80	17867
2026-01-27 12:42:00.33	299.95	13.15	-54.1	-56.3	6.2	0.00e+00	0	46	104	0	80	17851
2026-01-27 12:42:02.34	299.48	13.02	-54.2	-56.3	6.2	0.00e+00	0	46	104	0	80	17884
2026-01-27 12:42:04.36	299.01	12.88	-54.1	-56.3	6.2	0.00e+00	0	45	104	0	80	17853
2026-01-27 12:42:06.38	298.54	12.75	-54.2	-56.3	6.2	0.00e+00	0	46	104	0	80	17800
2026-01-27 12:42:08.39	298.08	12.62	-54.1	-56.3	6.2	0.00e+00	0	46	104	0	80	17842
2026-01-27 12:42:10.41	297.62	12.49	-54.1	-56.3	6.2	0.00e+00	0	46	104	0	80	17801
2026-01-27 12:42:12.43	297.17	12.35	-54.1	-56.3	6.2	0.00e+00	0	45	104	0	80	17782
2026-01-27 12:42:14.45	296.72	12.22	-54.1	-56.3	6.2	0.00e+00	0	46	104	0	80	17835
2026-01-27 12:42:16.47	296.28	12.08	-54.1	-56.3	6.2	0.00e+00	0	46	104	0	80	17798
2026-01-27 12:42:18.48	295.84	11.95	-54.1	-56.3	6.2	0.00e+00	0	46	104	0	80	17799
2026-01-27 12:42:20.49	295.41	11.81	-54.1	-56.3	6.2	0.00e+00	0	46	104	0	80	17825
2026-01-27 12:42:22.51	294.98	11.68	-54.2	-56.3	6.2	0.00e+00	0	46	104	0	80	17821
2026-01-27 12:42:24.52	294.56	11.54	-54.1	-56.3	6.2	0.00e+00	0	46	104	0	80	17802
2026-01-27 12:42:26.54	294.14	11.40	-54.2	-56.3	6.2	0.00e+00	0	46	104	0	80	17859
2026-01-27 12:42:28.55	293.73	11.27	-54.2	-56.3	6.2	0.00e+00	0	46	104	0	80	17818
2026-01-27 12:42:30.57	293.32	11.13	-54.1	-56.3	6.2	0.00e+00	0	46	104	0	80	17812
2026-01-27 12:42:32.59	292.92	10.99	-54.1	-56.3	6.2	0.00e+00	0	45	104	0	80	17805
2026-01-27 12:42:34.60	292.52	10.85	-54.2	-56.3	6.2	0.00e+00	0	45	104	0	80	17845
2026-01-27 12:42:36.62	292.12	10.72	-54.2	-56.3	6.2	0.00e+00	0	46	104	0	79	19011
2026-01-27 12:42:38.64	291.73	10.58	-54.3	-56.4	6.2	0.00e+00	0	46	104	0	79	19150
2026-01-27 12:42:40.66	291.34	10.44	-54.2	-56.3	6.2	0.00e+00	0	45	104	0	79	19026
2026-01-27 12:42:42.67	290.96	10.30	-54.3	-56.4	6.2	0.00e+00	0	46	104	0	79	19178
2026-01-27 12:42:44.68	290.58	10.16	-54.2	-56.4	6.2	0.00e+00	0	46	104	0	79	19056
2026-01-27 12:42:46.69	290.21	10.02	-54.3	-56.4	6.2	0.00e+00	0	45	104	0	79	19209
2026-01-27 12:42:48.71	289.84	9.89	-54.2	-56.3	6.2	0.00e+00	0	46	104	0	79	18877
2026-01-27 12:42:50.72	289.48	9.75	-54.2	-56.4	6.2	0.00e+00	0	46	104	0	79	19050
2026-01-27 12:42:52.73	289.12	9.61	-54.1	-56.2	6.2	0.00e+00	0	46	104	0	79	18700
2026-01-27 12:42:54.75	288.76	9.47	-54.1	-56.3	6.2	0.00e+00	0	45	104	0	79	18841
2026-01-27 12:42:56.76	288.41	9.33	-53.9	-56.1	6.2	0.00e+00	0	46	104	0	79	18442
2026-01-27 12:42:58.78	288.06	9.19	-54.0	-56.1	6.2	0.00e+00	0	46	104	0	79	18558
2026-01-27 12:43:00.79	287.72	9.06	-53.8	-55.9	6.2	0.00e+00	0	46	104	0	78	19231
2026-01-27 12:43:02.80	287.38	8.92	-53.9	-56.0	6.2	0.00e+00	0	46	104	0	78	19454
2026-01-27 12:43:04.82	287.04	8.78	-53.7	-55.9	6.2	0.00e+00	0	46	104	0	78	19041
2026-01-27 12:43:06.83	286.71	8.64	-53.8	-56.0	6.2	0.00e+00	0	46	104	0	78	19279
2026-01-27 12:43:08.84	286.38	8.51	-53.7	-55.8	6.2	0.00e+00	0	46	104	0	78	18962
2026-01-27 12:43:10.85	286.06	8.37	-53.8	-55.9	6.2	0.00e+00	0	46	104	0	78	19142
2026-01-27 12:43:12.87	285.74	8.23	-53.6	-55.7	6.2	0.00e+00	0	46	104	0	77	19887
2026-01-27 12:43:14.88	285.42	8.10	-53.7	-55.8	6.2	0.00e+00	0	46	104	0	77	20110
2026-01-27 12:43:16.89	285.11	7.96	-53.5	-55.7	6.2	0.00e+00	0	46	104	0	77	19736
2026-01-27 12:43:18.91	284.80	7.82	-53.6	-55.8	6.2	0.00e+00	0	46	104	0	77	19945
2026-01-27 12:43:20.93	284.49	7.69	-53.4	-55.6	6.2	0.00e+00	0	46	104	0	77	19544
2026-01-27 12:43:22.94	284.19	7.55	-53.5	-55.6	6.2	0.00e+00	0	46	104	0	77	19664
2026-01-27 12:43:24.96	283.88	7.42	-53.4	-55.5	6.2	0.00e+00	0	46	104	0	77	19349
2026-01-27 12:43:26.97	283.59	7.28	-53.5	-55.6	6.2	0.00e+00	0	46	104	0	77	19527
2026-01-27 12:43:28.99	283.30	7.15	-53.3	-55.4	6.2	0.00e+00	0	46	104	0	77	19144
2026-01-27 12:43:31.01	283.01	7.01	-53.4	-55.5	6.2	0.00e+00	0	46	104	0	77	19369
2026-01-27 12:43:33.02	282.72	6.88	-53.2	-55.3	6.2	0.00e+00	0	46	104	0	77	18922
2026-01-27 12:43:35.03	282.44	6.74	-53.3	-55.5	6.2	0.00e+00	0	46	104	0	77	19278
2026-01-27 12:43:37.05	282.16	6.61	-53.1	-55.2	6.2	0.00e+00	0	46	104	0	77	18710
2026-01-27 12:43:39.06	281.88	6.48	-53.3	-55.4	6.2	0.00e+00	0	46	104	0	77	19150
2026-01-27 12:43:41.08	281.61	6.34	-53.2	-55.3	6.2	0.00e+00	0	46	104	0	76	20099
2026-01-27 12:43:43.09	281.34	6.21	-53.2	-55.4	6.2	0.00e+00	0	46	104	0	77	19074
2026-01-27 12:43:45.11	281.07	6.08	-53.1	-55.2	6.2	0.00e+00	0	46	104	0	77	18800
2026-01-27 12:43:47.13	280.80	5.95	-53.2	-55.3	6.2	0.00e+00	0	45	104	0	77	18982
2026-01-27 12:43:49.15	280.54	5.81	-52.8	-55.2	6.2	0.00e+00	0	46	104	0	77	18797
2026-01-27 12:43:51.16	280.28	5.68	-53.2	-55.3	6.2	0.00e+00	0	45	104	0	77	18974
2026-01-27 12:43:53.18	280.03	5.55	-53.1	-55.2	6.2	0.00e+00	0	46	104	0	77	18739
2026-01-27 12:43:55.19	279.78	5.42	-53.1	-55.3	6.2	0.00e+00	0	46	104	0	76	19941
2026-01-27 12:43:57.20	279.53	5.29	-53.0	-55.2	6.2	0.00e+00	0	46	104	0	76	19720
2026-01-27 12:43:59.22	279.28	5.16	-53.1	-55.2	6.2	0.00e+00	0	46	104	0	76	19929
2026-01-27 12:44:01.24	279.03	5.03	-53.0	-55.1	6.2	0.00e+00	0	46	104	0	76	19561
2026-01-27 12:44:03.26	278.79	4.90	-53.0	-55.2	6.2	0.00e+00	0	46	104	0	76	19759
2026-01-27 12:44:05.28	278.55	4.78	-53.3	-55.4	6.2	0.00e+00	0	46	104	0	77	19169
2026-01-27 12:44:07.29	278.32	4.65	-53.5	-55.6	6.2	0.00e+00	0	46	104	0	77	19566
2026-01-27 12:44:09.31	278.08	4.52	-53.6	-55.7	6.2	0.00e+00	0	46	104	0	77	19855
2026-01-27 12:44:11.33	277.85	4.39	-53.7	-55.8	6.2	0.00e+00	0	46	104	0	77	20041
2026-01-27 12:44:13.34	277.62	4.27	-53.8	-56.0	6.2	0.00e+00	0	46	104	0	78	19266
2026-01-27 12:44:15.36	277.40	4.14	-53.9	-56.0	6.2	0.00e+00	0	46	104	0	78	19456
2026-01-27 12:44:17.37	277.17	4.01	-54.0	-56.2	6.2	0.00e+00	0	46	104	0	78	19749
2026-01-27 12:44:19.39	276.95	3.89	-54.1	-56.2	6.2	0.00e+00	0	46	104	0	78	19893
2026-01-27 12:44:21.40	276.73	3.76	-54.1	-56.2	6.2	0.00e+00	0	46	104	0	78	19824
2026-01-27 12:44:23.42	276.52	3.64	-54.0	-56.2	6.2	0.00e+00	0	45	104	0	78	19751
2026-01-27 12:44:25.44	276.30	3.51	-54.0	-56.1	6.2	0.00e+00	0	46	104	0	78	19687
2026-01-27 12:44:27.45	276.09	3.39	-54.0	-56.1	6.2	0.00e+00	0	46	104	0	78	19664
2026-01-27 12:44:29.47	275.88	3.27	-54.0	-56.1	6.2	0.00e+00	0	46	104	0	78	19679
2026-01-27 12:44:31.48	275.67	3.14	-54.0	-56.1	6.2	0.00e+00	0	46	104	0	78	19639
2026-01-27 12:44:33.49	275.47	3.02	-54.0	-56.1	6.2	0.00e+00	0	46	104	0	78	19588
2026-01-27 12:44:35.51	275.26	2.90	-54.0	-56.1	6.2	0.00e+00	0	46	104	0	78	19629
2026-01-27 12:44:37.53	275.06	2.78	-54.0	-56.1	6.2	0.00e+00	0	46	104	0	78	19631
2026-01-27 12:44:39.55	274.86	2.65	-54.0	-56.1	6.2	0.00e+00	0	46	104	0	78	19600
2026-01-27 12:44:41.56	274.67	2.53	-54.0	-56.1	6.2	0.00e+00	0	45	104	0	78	19570
2026-01-27 12:44:43.58	274.47	2.41	-54.0	-56.1	6.2	0.00e+00	0	46	104	0	78	19520
2026-01-27 12:44:45.59	274.28	2.29	-54.0	-56.1	6.2	0.00e+00	0	46	104	0	78	19530
2026-01-27 12:44:47.61	274.09	2.17	-53.9	-56.1	6.2	0.00e+00	0	46	104	0	78	19577
2026-01-27 12:44:49.62	273.90	2.05	-53.9	-56.1	6.2	0.00e+00	0	46	104	0	78	19571
2026-01-27 12:44:51.64	273.71	1.93	-53.9	-56.1	6.2	0.00e+00	0	46	104	0	78	19501

#Closed at: 2026-01-27 12:44:52
#Recorded file [0 MB]: D:/lorett/data/31041_260127_153914.dat