passes_logs/2026/01/27/R3.2S_Murmansk/R3.2S_Murmansk__20260127_050358_AQUA_rec.log

#Pass ID: 20260127_050358_AQUA
#Satellite: AQUA
#Configuration: AQUA
#almurnet v.1.7.20251203
#Start time: 2026-01-27 05:04:01

#Version: 2.2.20231116
#Station: R3.2S_Murmansk
#Location: 33.079688 lon 68.888172 lat
#TLE: 1 27424U 02022A   26026.53345137  .00001758  00000+0  36150-3 0  9990
#TLE: 2 27424  98.4100 353.1559 0001880  64.8012  49.4917 14.61862630262575

#Time	Az	El	Level	Level2	SNR	BER	BlckErr	Temp	State	Recorded	gain1	gain2
2026-01-27 05:04:01.10	37.08	2.14	-55.5	-73.4	3.8	7.45e-01	0	41	0	0	82	28444
2026-01-27 05:04:04.11	36.87	2.32	-55.7	-73.5	3.8	7.44e-01	0	41	104	0	81	30599
2026-01-27 05:04:07.14	36.67	2.50	-55.7	-73.5	3.8	7.46e-01	0	41	104	0	81	30444
2026-01-27 05:04:10.15	36.46	2.68	-55.5	-73.3	3.8	7.46e-01	0	41	104	0	81	29994
2026-01-27 05:04:13.18	36.25	2.87	-55.4	-73.3	3.8	7.45e-01	0	41	104	0	81	29708
2026-01-27 05:04:16.20	36.04	3.05	-55.2	-73.0	3.8	7.45e-01	0	41	104	0	81	28890
2026-01-27 05:04:19.23	35.82	3.24	-54.7	-72.5	3.8	7.45e-01	0	42	104	0	81	27262
2026-01-27 05:04:22.25	35.60	3.43	-53.7	-71.4	3.8	7.44e-01	0	42	104	0	79	26927
2026-01-27 05:04:25.28	35.38	3.62	-53.6	-71.4	3.8	7.41e-01	0	42	104	0	79	26982
2026-01-27 05:04:28.30	35.15	3.81	-53.6	-71.4	3.8	7.46e-01	0	42	104	0	79	26971
2026-01-27 05:04:31.32	34.92	4.00	-53.5	-71.0	3.8	7.44e-01	0	42	104	0	79	25583
2026-01-27 05:04:34.34	34.69	4.19	-53.2	-69.6	3.8	7.45e-01	0	42	104	0	78	23082
2026-01-27 05:04:37.37	34.45	4.39	-53.2	-69.5	3.8	7.45e-01	0	42	104	0	78	22871
2026-01-27 05:04:40.39	34.21	4.58	-53.0	-68.8	3.8	7.50e-01	0	42	104	0	78	21219
2026-01-27 05:04:43.41	33.96	4.77	-52.1	-66.4	3.8	7.46e-01	0	42	104	0	76	17922
2026-01-27 05:04:46.43	33.71	4.97	-52.3	-66.7	3.8	7.46e-01	0	42	104	0	76	18642
2026-01-27 05:04:49.46	33.46	5.17	-50.4	-63.0	3.8	7.45e-01	0	42	104	0	71	16310
2026-01-27 05:04:52.48	33.21	5.37	-49.2	-61.1	3.9	7.42e-01	0	42	104	0	70	13776
2026-01-27 05:04:55.50	32.95	5.57	-46.5	-57.6	3.8	7.46e-01	0	42	104	0	65	12299
2026-01-27 05:04:58.52	32.68	5.77	-52.4	-66.7	3.9	7.37e-01	0	42	104	0	76	18716
2026-01-27 05:05:01.54	32.41	5.97	-47.4	-58.6	3.8	7.43e-01	0	42	104	0	66	13100
2026-01-27 05:05:04.56	32.14	6.17	-46.3	-57.4	3.9	7.43e-01	0	42	104	0	64	12697
2026-01-27 05:05:07.58	31.86	6.38	-46.5	-57.5	3.8	7.44e-01	0	42	104	0	64	12844
2026-01-27 05:05:10.61	31.58	6.58	-46.5	-57.5	3.8	7.46e-01	0	42	104	0	64	12879
2026-01-27 05:05:13.63	31.30	6.79	-53.5	-69.9	3.7	7.46e-01	0	42	104	0	77	25458
2026-01-27 05:05:16.66	31.00	7.00	-47.1	-58.3	3.8	7.45e-01	0	42	104	0	66	12606
2026-01-27 05:05:19.68	30.71	7.21	-46.1	-57.1	3.8	7.43e-01	0	42	104	0	63	12998
2026-01-27 05:05:22.71	30.41	7.42	-48.6	-60.2	3.8	7.46e-01	0	43	104	0	69	13116
2026-01-27 05:05:25.73	30.10	7.63	-46.0	-57.0	3.9	7.44e-01	0	42	104	0	63	12873
2026-01-27 05:05:28.75	29.79	7.84	-45.5	-56.4	3.8	7.43e-01	0	43	104	0	63	11997
2026-01-27 05:05:31.77	29.48	8.06	-47.0	-58.1	3.8	7.49e-01	0	43	104	0	64	13739
2026-01-27 05:05:34.80	29.16	8.27	-46.3	-57.3	3.8	7.42e-01	0	42	104	0	63	13305
2026-01-27 05:05:37.82	28.83	8.49	-53.7	-70.5	3.8	7.45e-01	0	43	104	0	78	25764
2026-01-27 05:05:40.84	28.50	8.71	-46.4	-57.4	3.9	7.45e-01	0	43	104	0	64	12741
2026-01-27 05:05:43.87	28.16	8.93	-46.3	-57.3	3.8	7.47e-01	0	43	104	0	63	13377
2026-01-27 05:05:46.89	27.82	9.15	-48.4	-59.8	3.8	7.43e-01	0	43	104	0	68	13318
2026-01-27 05:05:49.91	27.47	9.37	-45.9	-56.8	3.8	7.44e-01	0	42	104	0	63	12644
2026-01-27 05:05:52.93	27.11	9.59	-45.2	-56.0	3.8	7.43e-01	0	43	104	0	62	12198
2026-01-27 05:05:55.95	26.75	9.82	-48.8	-60.0	3.8	7.41e-01	0	43	104	0	67	14528
2026-01-27 05:05:58.98	26.39	10.04	-45.6	-56.4	3.8	7.44e-01	0	43	104	0	63	12092
2026-01-27 05:06:02.00	26.01	10.27	-53.9	-70.6	3.8	7.47e-01	0	43	104	0	78	25991
2026-01-27 05:06:05.01	25.63	10.49	-45.3	-56.1	3.8	7.44e-01	0	43	104	0	62	12314
2026-01-27 05:06:08.03	25.25	10.72	-46.0	-56.9	3.8	7.41e-01	0	43	104	0	62	13538
2026-01-27 05:06:11.06	24.85	10.95	-48.5	-60.0	3.8	7.44e-01	0	43	104	0	68	13583
2026-01-27 05:06:14.08	24.45	11.18	-44.7	-55.4	3.8	7.46e-01	0	43	104	0	61	12054
2026-01-27 05:06:17.10	24.05	11.41	-44.8	-55.6	3.8	7.45e-01	0	43	104	0	61	12239
2026-01-27 05:06:20.13	23.63	11.65	-47.0	-58.0	3.8	7.43e-01	0	43	104	0	64	13675
2026-01-27 05:06:23.15	23.21	11.88	-44.7	-55.5	3.8	7.45e-01	0	43	104	0	61	12201
2026-01-27 05:06:26.18	22.78	12.12	-54.0	-70.4	3.8	7.48e-01	0	43	104	0	78	25403
2026-01-27 05:06:29.19	22.35	12.35	-44.9	-55.8	3.8	7.41e-01	0	43	104	0	61	12525
2026-01-27 05:06:32.21	21.90	12.59	-45.3	-56.2	3.9	7.47e-01	0	43	104	0	61	13192
2026-01-27 05:06:35.24	21.45	12.83	-47.2	-58.3	3.8	7.45e-01	0	43	104	0	66	12645
2026-01-27 05:06:38.25	20.99	13.07	-44.7	-55.4	3.8	7.43e-01	0	43	104	0	61	12034
2026-01-27 05:06:41.28	20.52	13.31	-45.0	-55.7	3.8	7.43e-01	0	43	104	0	61	12490
2026-01-27 05:06:44.29	20.04	13.55	-46.5	-57.5	3.8	7.46e-01	0	43	104	0	64	12856
2026-01-27 05:06:47.31	19.56	13.79	-44.8	-55.5	3.8	7.41e-01	0	43	104	0	60	12903
2026-01-27 05:06:50.33	19.06	14.03	-54.2	-70.6	3.8	7.45e-01	0	43	104	0	78	25885
2026-01-27 05:06:53.36	18.56	14.27	-44.8	-55.5	3.8	7.42e-01	0	43	104	0	61	12170
2026-01-27 05:06:56.37	18.05	14.51	-45.8	-56.7	3.9	7.46e-01	0	43	104	0	63	12430
2026-01-27 05:06:59.40	17.53	14.76	-44.9	-55.4	3.9	7.43e-01	0	43	104	0	61	12067
2026-01-27 05:07:02.42	17.00	15.00	-44.1	-54.8	3.9	7.43e-01	0	43	104	0	60	11876
2026-01-27 05:07:05.44	16.46	15.25	-48.0	-59.4	3.8	7.42e-01	0	43	104	0	66	14314
2026-01-27 05:07:08.47	15.91	15.49	-45.6	-56.5	3.9	7.46e-01	0	43	104	0	63	12197
2026-01-27 05:07:11.50	15.34	15.74	-44.2	-55.0	3.8	7.44e-01	0	43	104	0	60	12120
2026-01-27 05:07:14.52	14.77	15.98	-49.8	-62.0	3.9	7.42e-01	0	43	104	0	72	13695
2026-01-27 05:07:17.54	14.19	16.22	-44.2	-54.9	3.8	7.43e-01	0	43	104	0	60	12055
2026-01-27 05:07:20.57	13.60	16.47	-45.3	-56.1	3.9	7.45e-01	0	43	104	0	62	12327
2026-01-27 05:07:23.59	13.00	16.71	-44.6	-55.3	3.9	7.49e-01	0	43	104	0	61	11954
2026-01-27 05:07:26.61	12.39	16.95	-44.7	-55.5	3.8	7.45e-01	0	43	104	0	61	12169
2026-01-27 05:07:29.63	11.77	17.20	-53.8	-68.6	3.8	7.51e-01	0	43	104	0	77	21972
2026-01-27 05:07:32.65	11.14	17.44	-44.9	-55.5	3.8	7.44e-01	0	43	104	0	61	12112
2026-01-27 05:07:35.68	10.49	17.68	-44.6	-55.3	3.8	7.42e-01	0	43	104	0	60	12650
2026-01-27 05:07:38.71	9.84	17.92	-49.2	-60.7	3.8	7.40e-01	0	43	104	0	70	13135
2026-01-27 05:07:41.72	9.17	18.16	-44.6	-55.3	3.8	7.42e-01	0	43	104	0	61	11900
2026-01-27 05:07:44.74	8.50	18.40	-44.8	-55.5	3.8	7.47e-01	0	43	104	0	61	12222
2026-01-27 05:07:47.77	7.80	18.63	-44.6	-55.3	3.8	7.48e-01	0	43	104	0	60	12623
2026-01-27 05:07:50.79	7.10	18.87	-44.5	-55.2	3.8	7.47e-01	0	43	104	0	60	12490
2026-01-27 05:07:53.82	6.39	19.10	-54.4	-71.1	3.8	7.45e-01	0	43	104	0	79	26109
2026-01-27 05:07:56.85	5.67	19.33	-44.7	-55.4	3.8	7.41e-01	0	43	104	0	61	12022
2026-01-27 05:07:59.87	4.93	19.56	-44.7	-55.4	3.8	7.42e-01	0	43	104	0	60	12734
2026-01-27 05:08:02.89	4.18	19.78	-50.0	-61.8	3.8	7.47e-01	0	43	104	0	71	14078
2026-01-27 05:08:05.90	3.43	20.00	-44.6	-55.4	3.8	7.43e-01	0	43	104	0	61	12003
2026-01-27 05:08:08.93	2.66	20.22	-44.7	-55.5	3.8	7.42e-01	0	43	104	0	61	12137
2026-01-27 05:08:11.95	1.87	20.44	-45.8	-56.7	3.8	7.45e-01	0	43	104	0	62	13210
2026-01-27 05:08:14.97	1.08	20.65	-44.6	-55.3	3.9	7.48e-01	0	43	104	0	61	11923
2026-01-27 05:08:17.99	0.28	20.86	-54.5	-71.3	3.8	7.45e-01	0	43	104	0	79	26471
2026-01-27 05:08:21.01	359.46	21.06	-44.6	-55.4	3.8	7.46e-01	0	43	104	0	61	12037
2026-01-27 05:08:24.03	358.63	21.27	-45.5	-56.4	3.8	7.43e-01	0	43	104	0	61	13416
2026-01-27 05:08:27.06	357.79	21.46	-50.3	-62.2	3.8	7.44e-01	0	43	104	0	72	13993
2026-01-27 05:08:30.08	356.94	21.65	-44.6	-55.4	3.8	7.46e-01	0	43	104	0	61	11959
2026-01-27 05:08:33.11	356.08	21.84	-44.9	-55.5	3.8	7.43e-01	0	43	104	0	61	12181
2026-01-27 05:08:36.12	355.21	22.02	-46.1	-56.9	3.8	7.43e-01	0	43	104	0	62	13547
2026-01-27 05:08:39.14	354.32	22.20	-44.7	-55.5	3.8	7.46e-01	0	43	104	0	61	12111
2026-01-27 05:08:42.16	353.43	22.36	-54.6	-71.6	3.8	7.46e-01	0	43	104	0	79	27549
2026-01-27 05:08:45.19	352.52	22.53	-45.1	-55.9	3.8	7.45e-01	0	43	104	0	62	12086
2026-01-27 05:08:48.21	351.61	22.69	-45.8	-56.7	3.9	7.43e-01	0	43	104	0	63	12441
2026-01-27 05:08:51.24	350.68	22.84	-48.8	-60.0	3.9	7.42e-01	0	43	104	0	69	12930
2026-01-27 05:08:54.26	349.75	22.98	-44.8	-55.6	3.8	7.44e-01	0	43	104	0	61	12293
2026-01-27 05:08:57.28	348.81	23.12	-45.2	-56.0	3.8	7.43e-01	0	43	104	0	62	12192
2026-01-27 05:09:00.31	347.86	23.25	-46.0	-56.9	3.8	7.45e-01	0	43	104	0	63	12682
2026-01-27 05:09:03.33	346.90	23.37	-44.7	-55.5	3.8	7.44e-01	0	43	104	0	61	12114
2026-01-27 05:09:06.35	345.93	23.48	-54.0	-69.6	3.9	7.40e-01	0	43	104	0	80	20755
2026-01-27 05:09:09.37	344.96	23.59	-45.1	-55.9	3.8	7.43e-01	0	43	104	0	62	11966
2026-01-27 05:09:12.40	343.98	23.68	-46.1	-57.0	3.8	7.46e-01	0	43	104	0	64	12151
2026-01-27 05:09:15.43	342.99	23.77	-46.1	-57.0	3.8	7.44e-01	0	43	104	0	64	12204
2026-01-27 05:09:18.45	342.00	23.85	-45.0	-55.7	3.8	7.42e-01	0	43	104	0	61	12408
2026-01-27 05:09:21.47	341.00	23.93	-47.2	-58.1	3.8	7.45e-01	0	43	104	0	64	13792
2026-01-27 05:09:24.48	340.00	23.99	-45.5	-56.4	3.8	7.44e-01	0	43	104	0	62	12777
2026-01-27 05:09:27.50	339.00	24.04	-45.8	-56.8	3.8	7.44e-01	0	43	104	0	62	13369
2026-01-27 05:09:30.52	337.99	24.09	-51.6	-64.2	3.9	7.42e-01	0	43	104	0	75	14805
2026-01-27 05:09:33.54	336.98	24.12	-45.0	-55.7	3.8	7.44e-01	0	43	104	0	61	12440
2026-01-27 05:09:36.57	335.96	24.15	-46.5	-57.5	3.8	7.44e-01	0	43	104	0	64	12826
2026-01-27 05:09:39.59	334.95	24.16	-45.2	-56.0	3.8	7.46e-01	0	43	104	0	62	12104
2026-01-27 05:09:42.62	333.93	24.17	-45.1	-55.8	3.8	7.45e-01	0	43	104	0	61	12646
2026-01-27 05:09:45.63	332.91	24.17	-52.7	-65.9	3.8	7.45e-01	0	43	104	0	75	17913
2026-01-27 05:09:48.66	331.90	24.16	-45.1	-55.9	3.8	7.42e-01	0	43	104	0	62	11978
2026-01-27 05:09:51.67	330.89	24.14	-45.7	-56.5	3.8	7.42e-01	0	43	104	0	62	12901
2026-01-27 05:09:54.70	329.87	24.10	-51.5	-63.9	3.8	7.46e-01	0	43	104	0	74	15123
2026-01-27 05:09:57.73	328.86	24.07	-45.4	-56.2	3.8	7.43e-01	0	43	104	0	62	12407
2026-01-27 05:10:00.75	327.85	24.02	-46.7	-57.6	3.9	7.43e-01	0	43	104	0	63	13757
2026-01-27 05:10:03.76	326.85	23.96	-53.7	-67.7	3.8	7.48e-01	0	43	104	0	77	19794
2026-01-27 05:10:06.78	325.85	23.89	-45.3	-56.1	3.8	7.46e-01	0	43	104	0	62	12295
2026-01-27 05:10:09.81	324.85	23.81	-54.7	-71.5	3.8	7.52e-01	0	43	104	0	80	25628
2026-01-27 05:10:12.83	323.86	23.73	-45.3	-56.1	3.8	7.44e-01	0	43	104	0	62	12345
2026-01-27 05:10:15.85	322.88	23.64	-47.9	-59.1	3.8	7.45e-01	0	43	104	0	66	13824
2026-01-27 05:10:18.87	321.90	23.54	-52.4	-65.2	3.8	7.42e-01	0	43	104	0	76	15674
2026-01-27 05:10:21.89	320.93	23.43	-45.4	-56.0	3.8	7.43e-01	0	43	104	0	62	12213
2026-01-27 05:10:24.91	319.97	23.31	-47.2	-58.3	3.8	7.47e-01	0	43	104	0	66	12564
2026-01-27 05:10:27.93	319.02	23.18	-46.1	-57.3	3.8	7.44e-01	0	43	104	0	63	13338
2026-01-27 05:10:30.96	318.07	23.05	-45.4	-56.2	3.8	7.51e-01	0	43	104	0	62	12395
2026-01-27 05:10:33.97	317.13	22.91	-52.5	-56.8	15.1	6.03e-01	0	43	0	1572864	75	6304
2026-01-27 05:10:36.99	316.20	22.76	-44.7	-45.9	25.7	6.02e-01	0	43	0	6815744	61	4026
2026-01-27 05:10:40.01	315.28	22.61	-46.4	-47.8	24.0	6.02e-01	0	43	0	12582912	63	4489
2026-01-27 05:10:43.03	314.37	22.45	-45.6	-46.9	24.4	6.01e-01	0	43	0	18350080	62	4250
2026-01-27 05:10:46.06	313.47	22.28	-45.0	-46.2	25.2	5.99e-01	0	43	0	24117248	62	3936
2026-01-27 05:10:49.08	312.58	22.11	-44.5	-45.6	25.8	6.01e-01	0	43	0	29360128	61	3903
2026-01-27 05:10:52.10	311.70	21.93	-45.1	-46.3	25.5	6.00e-01	0	43	0	35651584	61	4213
2026-01-27 05:10:55.12	310.83	21.75	-44.7	-45.9	25.6	6.02e-01	0	43	0	40894464	61	4037
2026-01-27 05:10:58.14	309.97	21.56	-45.1	-46.4	25.4	6.02e-01	0	43	0	46661632	61	4249
2026-01-27 05:11:01.15	309.13	21.37	-45.0	-46.2	25.5	6.01e-01	0	43	0	52428800	61	4173
2026-01-27 05:11:04.17	308.30	21.17	-44.8	-46.1	25.7	6.01e-01	0	43	0	57671680	61	4102
2026-01-27 05:11:07.19	307.47	20.97	-45.3	-46.6	25.1	6.02e-01	0	43	0	63438848	61	4352
2026-01-27 05:11:10.22	306.66	20.76	-44.7	-45.9	25.7	6.02e-01	0	43	0	69206016	60	4287
2026-01-27 05:11:13.24	305.86	20.55	-44.5	-45.7	25.9	6.01e-01	0	43	0	74973184	61	3933
2026-01-27 05:11:16.26	305.07	20.33	-44.4	-45.6	25.6	6.00e-01	0	43	0	80740352	60	4100
2026-01-27 05:11:19.28	304.29	20.11	-44.7	-45.9	25.5	6.03e-01	0	43	0	85983232	61	4017
2026-01-27 05:11:22.30	303.53	19.89	-44.9	-46.2	25.3	6.00e-01	0	43	0	92274688	61	4157
2026-01-27 05:11:25.32	302.77	19.67	-44.8	-46.1	25.4	6.00e-01	0	43	0	97517568	60	4345
2026-01-27 05:11:28.33	302.03	19.44	-45.5	-46.9	24.8	6.03e-01	0	43	0	103284736	61	4495
2026-01-27 05:11:31.35	301.30	19.22	-45.2	-46.4	25.0	6.02e-01	0	43	0	109051904	62	4028
2026-01-27 05:11:34.37	300.58	18.98	-45.0	-46.2	24.9	6.01e-01	0	43	0	114294784	61	4155
2026-01-27 05:11:37.38	299.88	18.75	-44.7	-45.9	25.2	6.00e-01	0	43	0	120061952	61	4025
2026-01-27 05:11:40.40	299.18	18.52	-45.3	-46.6	25.0	6.01e-01	0	43	0	125829120	61	4345
2026-01-27 05:11:43.42	298.50	18.28	-44.4	-45.6	25.9	6.02e-01	0	43	0	131596288	60	4111
2026-01-27 05:11:46.44	297.83	18.04	-45.0	-46.3	25.3	6.00e-01	0	43	0	137363456	60	4462
2026-01-27 05:11:49.45	297.17	17.80	-45.1	-46.3	25.2	6.02e-01	0	43	0	142606336	61	4221
2026-01-27 05:11:52.47	296.52	17.56	-45.0	-46.2	25.3	6.00e-01	0	43	0	148373504	61	4158
2026-01-27 05:11:55.49	295.88	17.32	-44.5	-45.6	26.1	6.04e-01	0	43	0	154140672	60	4125
2026-01-27 05:11:58.51	295.25	17.08	-44.8	-46.0	25.7	6.00e-01	0	43	0	159907840	60	4338
2026-01-27 05:12:01.53	294.63	16.84	-44.9	-46.1	25.6	6.01e-01	0	43	0	165675008	60	4379
2026-01-27 05:12:04.55	294.02	16.59	-44.4	-45.6	25.8	6.02e-01	0	43	0	170917888	60	4130
2026-01-27 05:12:07.57	293.42	16.35	-44.5	-45.6	25.8	6.01e-01	0	43	0	176685056	60	4132
2026-01-27 05:12:10.59	292.84	16.10	-44.3	-45.4	26.1	6.00e-01	0	43	0	182452224	60	4036
2026-01-27 05:12:13.60	292.26	15.86	-44.3	-45.4	26.2	6.02e-01	0	43	0	188219392	60	4051
2026-01-27 05:12:16.63	291.70	15.61	-44.3	-45.4	26.0	6.01e-01	0	43	0	193986560	60	4028
2026-01-27 05:12:19.65	291.14	15.37	-44.8	-46.0	25.5	6.03e-01	0	43	0	199229440	61	4060
2026-01-27 05:12:22.66	290.59	15.13	-44.5	-45.7	25.7	6.02e-01	0	43	0	204996608	61	3930
2026-01-27 05:12:25.68	290.06	14.88	-44.7	-45.9	25.5	6.00e-01	0	43	0	210763776	61	4022
2026-01-27 05:12:28.71	289.53	14.64	-45.3	-46.6	24.7	5.99e-01	0	43	0	216530944	61	4365
2026-01-27 05:12:31.73	289.01	14.39	-45.9	-47.3	24.4	6.00e-01	0	43	0	222298112	62	4480
2026-01-27 05:12:34.76	288.50	14.15	-45.1	-46.3	25.1	6.02e-01	0	43	0	227540992	60	4475
2026-01-27 05:12:37.77	288.00	13.91	-44.9	-46.1	25.5	5.99e-01	0	43	0	233308160	61	4108
2026-01-27 05:12:40.80	287.51	13.67	-45.6	-46.9	24.5	6.02e-01	0	43	0	239075328	62	4270
2026-01-27 05:12:43.81	287.03	13.43	-46.3	-47.7	24.0	6.01e-01	0	43	0	244842496	63	4425
2026-01-27 05:12:46.83	286.55	13.19	-45.7	-47.0	24.7	6.01e-01	0	43	0	250609664	63	4053
2026-01-27 05:12:49.86	286.09	12.94	-45.7	-47.0	24.5	6.01e-01	0	43	0	255852544	63	4079
2026-01-27 05:12:52.88	285.63	12.71	-45.9	-47.3	24.3	6.02e-01	0	43	0	261619712	63	4221
2026-01-27 05:12:55.90	285.18	12.47	-45.4	-46.7	24.9	6.00e-01	0	43	0	267386880	62	4160
2026-01-27 05:12:58.92	284.74	12.23	-45.9	-47.3	24.4	5.99e-01	0	43	0	273154048	62	4465
2026-01-27 05:13:01.94	284.30	12.00	-44.9	-46.1	25.4	6.02e-01	0	43	0	278921216	61	4133
2026-01-27 05:13:04.97	283.87	11.76	-45.5	-46.9	24.7	6.02e-01	0	43	0	284164096	61	4498
2026-01-27 05:13:07.99	283.45	11.53	-45.1	-46.4	25.1	6.03e-01	0	43	0	289931264	61	4270
2026-01-27 05:13:11.02	283.04	11.29	-45.7	-47.1	24.4	6.01e-01	0	43	0	295698432	62	4349
2026-01-27 05:13:14.04	282.64	11.06	-45.2	-46.5	24.8	6.01e-01	0	43	0	301465600	62	4076
2026-01-27 05:13:17.07	282.24	10.83	-45.3	-46.7	24.8	6.01e-01	0	43	0	307232768	61	4400
2026-01-27 05:13:20.09	281.85	10.60	-45.7	-47.0	24.3	6.01e-01	0	43	0	312475648	61	4589
2026-01-27 05:13:23.11	281.46	10.37	-45.5	-46.8	24.5	6.01e-01	0	43	0	318767104	61	4455
2026-01-27 05:13:26.12	281.09	10.15	-45.6	-47.0	24.4	6.01e-01	0	43	0	324009984	61	4557
2026-01-27 05:13:29.15	280.71	9.92	-45.8	-47.2	24.2	5.99e-01	0	43	0	329777152	62	4413
2026-01-27 05:13:32.18	280.35	9.69	-45.5	-46.9	24.5	6.02e-01	0	43	0	335544320	62	4250
2026-01-27 05:13:35.21	279.99	9.47	-45.9	-47.3	24.0	6.04e-01	0	43	0	341311488	62	4490
2026-01-27 05:13:38.23	279.63	9.25	-45.8	-47.2	24.1	5.99e-01	0	43	0	347078656	62	4417
2026-01-27 05:13:41.25	279.29	9.03	-45.8	-47.2	24.0	6.03e-01	0	43	0	352321536	62	4429
2026-01-27 05:13:44.27	278.95	8.81	-45.8	-47.3	24.0	6.01e-01	0	43	0	358088704	62	4449
2026-01-27 05:13:47.29	278.61	8.59	-45.9	-47.3	24.0	6.01e-01	0	43	0	363855872	63	4203
2026-01-27 05:13:50.32	278.28	8.37	-46.2	-47.6	23.6	6.00e-01	0	43	0	369623040	63	4386
2026-01-27 05:13:53.34	277.95	8.15	-46.2	-47.7	23.5	6.01e-01	0	43	0	375390208	63	4425
2026-01-27 05:13:56.36	277.64	7.94	-46.5	-48.0	23.1	6.00e-01	0	43	0	380633088	63	4594
2026-01-27 05:13:59.38	277.32	7.72	-46.4	-47.9	23.2	6.02e-01	0	43	0	386400256	63	4518
2026-01-27 05:14:02.40	277.01	7.51	-46.4	-47.9	23.2	6.02e-01	0	43	0	392167424	63	4524
2026-01-27 05:14:05.42	276.71	7.30	-46.0	-47.5	23.6	6.01e-01	0	43	0	397934592	63	4312
2026-01-27 05:14:08.44	276.41	7.09	-46.3	-47.8	23.2	6.02e-01	0	43	0	403701760	63	4488
2026-01-27 05:14:11.47	276.11	6.88	-46.4	-48.0	23.1	6.01e-01	0	43	0	408944640	63	4555
2026-01-27 05:14:14.49	275.82	6.67	-46.5	-48.0	23.0	6.00e-01	0	43	0	414711808	63	4592
2026-01-27 05:14:17.52	275.54	6.47	-46.4	-47.9	23.1	5.99e-01	0	43	0	420478976	63	4534
2026-01-27 05:14:20.54	275.26	6.26	-46.5	-48.1	22.8	6.04e-01	0	43	0	426246144	64	4349
2026-01-27 05:14:23.55	274.98	6.06	-46.5	-48.1	22.5	5.99e-01	0	43	0	432013312	64	4378
2026-01-27 05:14:26.57	274.71	5.85	-46.7	-48.4	22.2	5.99e-01	0	43	0	437256192	64	4518
2026-01-27 05:14:29.59	274.44	5.65	-46.5	-48.2	22.3	6.00e-01	0	43	0	443023360	64	4415
2026-01-27 05:14:32.62	274.18	5.45	-46.7	-48.4	22.3	6.02e-01	0	43	0	448790528	64	4494
2026-01-27 05:14:35.64	273.92	5.25	-47.0	-48.8	21.8	6.00e-01	0	43	0	454557696	64	4718
2026-01-27 05:14:38.65	273.67	5.05	-47.1	-48.9	21.6	6.04e-01	0	43	0	460324864	66	4269
2026-01-27 05:14:41.67	273.41	4.86	-53.7	-70.7	3.9	7.45e-01	0	43	104	462422016	78	26216
2026-01-27 05:14:44.69	273.17	4.66	-54.1	-71.5	3.8	7.46e-01	0	43	104	462422016	78	28930
2026-01-27 05:14:47.72	272.92	4.46	-54.4	-71.8	3.8	7.46e-01	0	43	104	462422016	79	28084
2026-01-27 05:14:50.74	272.68	4.27	-54.5	-72.4	3.8	7.47e-01	0	43	104	462422016	79	30145
2026-01-27 05:14:53.77	272.44	4.08	-54.7	-72.4	3.8	7.46e-01	0	43	104	462422016	79	30284
2026-01-27 05:14:56.79	272.21	3.89	-54.7	-72.4	3.8	7.44e-01	0	43	104	462422016	80	28501
2026-01-27 05:14:59.81	271.98	3.70	-54.8	-72.5	3.8	7.47e-01	0	43	104	462422016	80	28687
2026-01-27 05:15:02.83	271.75	3.51	-54.8	-72.4	3.8	7.45e-01	0	43	104	462422016	80	28427
2026-01-27 05:15:05.85	271.53	3.32	-54.7	-72.4	3.8	7.42e-01	0	43	104	462422016	80	28557
2026-01-27 05:15:08.88	271.31	3.13	-54.7	-72.4	3.8	7.41e-01	0	43	104	462422016	80	28487
2026-01-27 05:15:11.90	271.09	2.94	-54.7	-72.4	3.8	7.46e-01	0	43	104	462422016	80	28647
2026-01-27 05:15:14.92	270.88	2.76	-54.7	-72.4	3.8	7.42e-01	0	43	104	462422016	80	28409
2026-01-27 05:15:17.94	270.67	2.57	-54.7	-72.4	3.8	7.47e-01	0	43	104	462422016	80	28480
2026-01-27 05:15:20.97	270.46	2.39	-54.7	-72.5	3.8	7.48e-01	0	43	104	462422016	80	28749
2026-01-27 05:15:23.98	270.26	2.21	-54.7	-72.5	3.8	7.46e-01	0	43	104	462422016	80	28925
2026-01-27 05:15:27.01	270.06	2.03	-54.7	-72.5	3.8	7.45e-01	0	43	104	462422016	80	28809

#Closed at: 2026-01-27 05:15:30
#Recorded file [462 MB]: D:/lorett/data/31041_260127_080400.dat