passes_logs/2026/01/27/R3.2S_Murmansk/R3.2S_Murmansk__20260127_144845_AQUA_rec.log

#Pass ID: 20260127_144845_AQUA
#Satellite: AQUA
#Configuration: AQUA
#almurnet v.1.7.20251203
#Start time: 2026-01-27 14:48:44

#Version: 2.2.20231116
#Station: R3.2S_Murmansk
#Location: 33.079688 lon 68.888172 lat
#TLE: 1 27424U 02022A   26027.29059822  .00001896  00000+0  38917-3 0  9993
#TLE: 2 27424  98.4102 353.9260 0001849  63.9098  72.6772 14.61866390262689

#Time	Az	El	Level	Level2	SNR	BER	BlckErr	Temp	State	Recorded	gain1	gain2
2026-01-27 14:48:44.62	249.84	1.97	-49.6	-67.5	3.8	7.48e-01	0	40	0	0	69	30454
2026-01-27 14:48:46.64	250.09	2.06	-49.6	-67.5	3.8	7.49e-01	0	41	104	0	69	30482
2026-01-27 14:48:48.66	250.33	2.14	-49.6	-67.5	3.8	7.44e-01	0	40	104	0	69	30408
2026-01-27 14:48:50.67	250.57	2.23	-49.6	-67.5	3.8	7.47e-01	0	41	104	0	69	30507
2026-01-27 14:48:52.69	250.82	2.31	-49.6	-67.5	3.8	7.47e-01	0	41	104	0	69	30413
2026-01-27 14:48:54.71	251.06	2.39	-49.6	-67.5	3.8	7.48e-01	0	41	104	0	69	30456
2026-01-27 14:48:56.72	251.31	2.48	-49.6	-67.5	3.8	7.45e-01	0	41	104	0	69	30455
2026-01-27 14:48:58.74	251.56	2.56	-49.6	-67.5	3.8	7.42e-01	0	41	104	0	69	30404
2026-01-27 14:49:00.76	251.81	2.64	-52.2	-70.1	3.8	7.46e-01	0	41	104	0	74	30756
2026-01-27 14:49:02.77	252.06	2.73	-52.4	-70.2	3.8	7.41e-01	0	41	104	0	75	29552
2026-01-27 14:49:04.79	252.32	2.81	-52.4	-70.2	3.8	7.47e-01	0	41	104	0	75	29539
2026-01-27 14:49:06.81	252.58	2.89	-52.4	-70.2	3.8	7.45e-01	0	41	104	0	75	29494
2026-01-27 14:49:08.83	252.83	2.98	-52.4	-70.2	3.8	7.50e-01	0	41	104	0	75	29531
2026-01-27 14:49:10.84	253.09	3.06	-52.4	-70.2	3.8	7.46e-01	0	41	104	0	75	29512
2026-01-27 14:49:12.86	253.35	3.14	-52.4	-70.2	3.8	7.45e-01	0	41	104	0	75	29496
2026-01-27 14:49:14.87	253.61	3.22	-52.4	-70.2	3.8	7.47e-01	0	41	104	0	75	29497
2026-01-27 14:49:16.89	253.88	3.30	-52.4	-70.2	3.8	7.46e-01	0	41	104	0	75	29438
2026-01-27 14:49:18.91	254.14	3.39	-52.3	-70.2	3.8	7.47e-01	0	41	104	0	75	29472
2026-01-27 14:49:20.92	254.41	3.47	-52.8	-70.7	3.9	7.43e-01	0	41	104	0	76	29381
2026-01-27 14:49:22.93	254.67	3.55	-54.1	-72.0	3.8	7.45e-01	0	41	104	0	78	30406
2026-01-27 14:49:24.95	254.94	3.63	-54.6	-72.4	3.8	7.45e-01	0	41	104	0	79	30274
2026-01-27 14:49:26.97	255.22	3.71	-54.8	-72.7	3.8	7.47e-01	0	41	104	0	80	29418
2026-01-27 14:49:28.98	255.49	3.79	-55.0	-72.9	3.8	7.47e-01	0	42	104	0	80	30051
2026-01-27 14:49:30.99	255.76	3.87	-55.2	-73.0	3.8	7.48e-01	0	42	104	0	80	30597
2026-01-27 14:49:33.01	256.04	3.95	-55.3	-73.1	3.8	7.45e-01	0	41	104	0	81	29247
2026-01-27 14:49:35.03	256.32	4.03	-55.3	-73.1	3.8	7.45e-01	0	42	104	0	81	29263
2026-01-27 14:49:37.04	256.59	4.11	-55.3	-73.1	3.8	7.49e-01	0	42	104	0	81	29151
2026-01-27 14:49:39.05	256.87	4.19	-55.4	-73.3	3.8	7.45e-01	0	42	104	0	81	29732
2026-01-27 14:49:41.07	257.16	4.27	-55.5	-73.4	3.8	7.42e-01	0	42	104	0	81	30077
2026-01-27 14:49:43.08	257.44	4.35	-55.6	-73.5	3.8	7.45e-01	0	42	104	0	81	30426
2026-01-27 14:49:45.10	257.72	4.43	-55.7	-73.6	3.8	7.48e-01	0	42	104	0	81	30754
2026-01-27 14:49:47.11	258.01	4.51	-55.8	-73.7	3.8	7.47e-01	0	42	104	0	82	29359
2026-01-27 14:49:49.13	258.30	4.59	-55.9	-73.7	3.8	7.46e-01	0	42	104	0	82	29467
2026-01-27 14:49:51.14	258.59	4.66	-55.9	-73.7	3.8	7.49e-01	0	42	104	0	82	29501
2026-01-27 14:49:53.15	258.88	4.74	-55.8	-73.6	3.8	7.46e-01	0	42	104	0	82	29315
2026-01-27 14:49:55.17	259.17	4.82	-55.8	-73.6	3.8	7.43e-01	0	42	104	0	82	29263
2026-01-27 14:49:57.18	259.47	4.89	-55.9	-73.7	3.8	7.46e-01	0	42	104	0	82	29575
2026-01-27 14:49:59.20	259.77	4.97	-55.8	-73.7	3.8	7.44e-01	0	42	104	0	82	29444
2026-01-27 14:50:01.21	260.06	5.05	-55.8	-73.6	3.8	7.49e-01	0	42	104	0	82	29299
2026-01-27 14:50:03.22	260.36	5.12	-55.7	-73.6	3.8	7.47e-01	0	42	104	0	82	29123
2026-01-27 14:50:05.24	260.66	5.20	-55.7	-73.6	3.8	7.45e-01	0	42	104	0	82	29068
2026-01-27 14:50:07.26	260.97	5.27	-55.7	-73.5	3.8	7.45e-01	0	42	104	0	82	28988
2026-01-27 14:50:09.28	261.27	5.35	-55.7	-73.5	3.8	7.46e-01	0	42	104	0	82	28884
2026-01-27 14:50:11.29	261.58	5.42	-55.7	-73.5	3.8	7.45e-01	0	42	104	0	82	28975
2026-01-27 14:50:13.31	261.89	5.49	-55.7	-73.5	3.8	7.44e-01	0	42	104	0	82	28826
2026-01-27 14:50:15.33	262.20	5.57	-55.6	-73.5	3.8	7.45e-01	0	42	104	0	82	28756
2026-01-27 14:50:17.34	262.51	5.64	-55.6	-73.5	3.8	7.44e-01	0	42	104	0	82	28811
2026-01-27 14:50:19.36	262.82	5.71	-55.6	-73.5	3.8	7.46e-01	0	42	104	0	82	28778
2026-01-27 14:50:21.37	263.14	5.78	-55.6	-73.5	3.8	7.47e-01	0	42	104	0	82	28702
2026-01-27 14:50:23.39	263.45	5.86	-55.6	-73.5	3.8	7.44e-01	0	42	104	0	82	28768
2026-01-27 14:50:25.41	263.77	5.93	-55.6	-73.4	3.8	7.48e-01	0	42	104	0	82	28678
2026-01-27 14:50:27.43	264.09	6.00	-55.6	-73.4	3.8	7.46e-01	0	42	104	0	82	28679
2026-01-27 14:50:29.44	264.41	6.07	-55.6	-73.5	3.8	7.44e-01	0	42	104	0	82	28747
2026-01-27 14:50:31.46	264.74	6.14	-55.6	-73.5	3.8	7.42e-01	0	42	104	0	82	28685
2026-01-27 14:50:33.47	265.06	6.21	-55.6	-73.4	3.8	7.42e-01	0	42	104	0	82	28588
2026-01-27 14:50:35.49	265.39	6.28	-55.6	-73.4	3.8	7.45e-01	0	42	104	0	82	28579
2026-01-27 14:50:37.50	265.71	6.34	-55.6	-73.4	3.8	7.44e-01	0	42	104	0	82	28655
2026-01-27 14:50:39.51	266.04	6.41	-55.6	-73.4	3.8	7.44e-01	0	42	104	0	82	28655
2026-01-27 14:50:41.53	266.37	6.48	-55.6	-73.4	3.8	7.46e-01	0	42	104	0	82	28602
2026-01-27 14:50:43.55	266.71	6.54	-55.6	-73.4	3.8	7.47e-01	0	42	104	0	82	28593
2026-01-27 14:50:45.57	267.04	6.61	-55.6	-73.4	3.8	7.46e-01	0	42	104	0	82	28573
2026-01-27 14:50:47.58	267.37	6.67	-55.6	-73.4	3.8	7.39e-01	0	42	104	0	82	28557
2026-01-27 14:50:49.60	267.71	6.74	-55.8	-73.6	3.8	7.45e-01	0	42	104	0	82	29254
2026-01-27 14:50:51.61	268.05	6.80	-55.9	-73.7	3.8	7.46e-01	0	42	104	0	82	29626
2026-01-27 14:50:53.63	268.39	6.87	-55.9	-73.8	3.8	7.46e-01	0	42	104	0	82	29715
2026-01-27 14:50:55.64	268.73	6.93	-55.9	-73.7	3.8	7.45e-01	0	42	104	0	82	29495
2026-01-27 14:50:57.66	269.08	6.99	-55.8	-73.6	3.8	7.44e-01	0	42	104	0	82	29259
2026-01-27 14:50:59.66	269.42	7.05	-55.7	-73.5	3.8	7.47e-01	0	42	104	0	82	29002
2026-01-27 14:51:01.67	269.76	7.11	-55.5	-73.4	3.8	7.46e-01	0	42	104	0	82	28501
2026-01-27 14:51:03.69	270.11	7.17	-55.4	-73.2	3.8	7.47e-01	0	43	104	0	82	27945
2026-01-27 14:51:05.70	270.46	7.23	-55.1	-73.0	3.8	7.47e-01	0	42	104	0	82	27141
2026-01-27 14:51:07.72	270.81	7.29	-54.9	-72.8	3.8	7.47e-01	0	42	104	0	81	28053
2026-01-27 14:51:09.73	271.16	7.35	-54.8	-72.6	3.8	7.44e-01	0	42	104	0	81	27412
2026-01-27 14:51:11.75	271.52	7.41	-53.9	-71.6	3.9	7.46e-01	0	42	104	0	79	27498
2026-01-27 14:51:13.77	271.87	7.46	-46.7	-57.7	3.8	7.45e-01	0	43	104	0	65	12480
2026-01-27 14:51:15.78	272.23	7.52	-50.8	-62.9	3.9	7.46e-01	0	42	104	0	71	16115
2026-01-27 14:51:17.79	272.59	7.57	-52.2	-65.4	3.8	7.46e-01	0	43	104	0	74	17901
2026-01-27 14:51:19.79	272.94	7.63	-46.7	-57.7	3.8	7.44e-01	0	42	104	0	65	12512
2026-01-27 14:51:21.80	273.30	7.68	-46.6	-57.6	3.8	7.46e-01	0	42	104	0	65	12268
2026-01-27 14:51:23.82	273.67	7.73	-46.8	-57.8	3.8	7.47e-01	0	42	104	0	65	12634
2026-01-27 14:51:25.83	274.03	7.78	-51.2	-63.8	3.8	7.48e-01	0	43	104	0	72	16788
2026-01-27 14:51:27.85	274.39	7.83	-47.0	-58.1	3.8	7.46e-01	0	42	104	0	66	12324
2026-01-27 14:51:29.86	274.76	7.88	-46.4	-57.4	3.8	7.39e-01	0	42	104	0	64	12770
2026-01-27 14:51:31.86	275.12	7.93	-46.7	-57.7	3.8	7.45e-01	0	42	104	0	64	13169
2026-01-27 14:51:33.88	275.49	7.98	-51.2	-63.7	3.8	7.46e-01	0	43	104	0	72	16567
2026-01-27 14:51:35.88	275.86	8.03	-46.9	-58.0	3.9	7.46e-01	0	42	104	0	65	12883
2026-01-27 14:51:37.90	276.23	8.07	-46.6	-57.5	3.8	7.43e-01	0	42	104	0	65	12155
2026-01-27 14:51:39.91	276.60	8.12	-46.6	-57.7	3.8	7.45e-01	0	43	104	0	65	12419
2026-01-27 14:51:41.92	276.98	8.17	-51.4	-64.0	3.8	7.44e-01	0	42	104	0	73	16304
2026-01-27 14:51:43.93	277.35	8.21	-46.7	-57.6	3.8	7.45e-01	0	43	104	0	65	12361
2026-01-27 14:51:45.93	277.72	8.25	-46.3	-57.3	3.8	7.45e-01	0	42	104	0	64	12655
2026-01-27 14:51:47.95	278.10	8.29	-46.7	-57.7	3.8	7.43e-01	0	42	104	0	64	13220
2026-01-27 14:51:49.96	278.48	8.34	-51.9	-64.9	3.8	7.44e-01	0	43	104	0	74	17078
2026-01-27 14:51:51.98	278.86	8.38	-46.6	-57.6	3.8	7.41e-01	0	42	104	0	65	12361
2026-01-27 14:51:53.99	279.24	8.41	-46.1	-57.0	3.8	7.45e-01	0	42	104	0	64	12208
2026-01-27 14:51:56.01	279.62	8.45	-46.7	-57.7	3.8	7.45e-01	0	42	104	0	64	13185
2026-01-27 14:51:58.01	280.00	8.49	-51.9	-65.0	3.9	7.45e-01	0	43	104	0	74	17193
2026-01-27 14:52:00.03	280.38	8.53	-46.5	-57.5	3.8	7.46e-01	0	43	104	0	65	12105
2026-01-27 14:52:02.04	280.77	8.56	-46.3	-57.2	3.8	7.46e-01	0	43	104	0	64	12459
2026-01-27 14:52:04.05	281.15	8.60	-47.0	-58.1	3.8	7.44e-01	0	42	104	0	65	13083
2026-01-27 14:52:06.06	281.54	8.63	-52.1	-65.3	3.8	7.46e-01	0	43	104	0	74	17845
2026-01-27 14:52:08.08	281.92	8.66	-46.8	-57.7	3.8	7.46e-01	0	42	104	0	65	12519
2026-01-27 14:52:10.10	282.31	8.69	-47.0	-58.0	3.8	7.45e-01	0	42	104	0	65	12870
2026-01-27 14:52:12.11	282.70	8.72	-49.5	-61.2	3.8	7.47e-01	0	43	104	0	69	14749
2026-01-27 14:52:14.13	283.09	8.75	-52.3	-65.5	3.9	7.44e-01	0	43	104	0	76	16225
2026-01-27 14:52:16.13	283.48	8.78	-46.8	-57.9	3.8	7.47e-01	0	43	104	0	65	12670
2026-01-27 14:52:18.15	283.87	8.81	-46.5	-57.4	3.8	7.48e-01	0	43	104	0	64	12753
2026-01-27 14:52:20.16	284.26	8.83	-47.3	-58.5	3.8	7.46e-01	0	42	104	0	65	13656
2026-01-27 14:52:22.17	284.66	8.86	-52.3	-65.7	3.8	7.44e-01	0	43	104	0	75	17498
2026-01-27 14:52:24.19	285.05	8.88	-46.7	-57.6	3.8	7.46e-01	0	42	104	0	65	12262
2026-01-27 14:52:26.20	285.44	8.91	-46.6	-57.6	3.8	7.43e-01	0	43	104	0	65	12312
2026-01-27 14:52:28.21	285.84	8.93	-48.2	-59.6	3.9	7.45e-01	0	43	104	0	68	12994
2026-01-27 14:52:30.22	286.23	8.95	-50.5	-62.5	3.9	7.42e-01	0	43	104	0	73	13623
2026-01-27 14:52:32.24	286.63	8.97	-46.6	-57.5	3.8	7.43e-01	0	43	104	0	65	12227
2026-01-27 14:52:34.25	287.02	8.99	-46.6	-57.6	3.8	7.42e-01	0	43	104	0	65	12349
2026-01-27 14:52:36.26	287.42	9.00	-47.7	-58.9	3.9	7.43e-01	0	43	104	0	67	12669
2026-01-27 14:52:38.28	287.82	9.02	-52.2	-65.3	3.9	7.45e-01	0	43	104	0	76	15796
2026-01-27 14:52:40.29	288.21	9.03	-46.6	-57.7	3.8	7.46e-01	0	42	104	0	65	12414
2026-01-27 14:52:42.31	288.61	9.05	-46.6	-57.5	3.8	7.44e-01	0	43	104	0	64	12932
2026-01-27 14:52:44.32	289.01	9.06	-47.8	-59.0	3.9	7.43e-01	0	43	104	0	67	12904
2026-01-27 14:52:46.33	289.41	9.07	-51.8	-64.4	3.9	7.44e-01	0	43	104	0	75	15055
2026-01-27 14:52:48.34	289.81	9.08	-46.7	-57.7	3.8	7.45e-01	0	43	104	0	65	12505
2026-01-27 14:52:50.36	290.21	9.09	-46.3	-57.1	3.9	7.45e-01	0	42	104	0	64	12364
2026-01-27 14:52:52.38	290.61	9.10	-46.7	-57.8	3.8	7.45e-01	0	42	104	0	65	12520
2026-01-27 14:52:54.39	291.01	9.11	-48.3	-59.4	3.9	7.43e-01	0	43	104	0	68	12772
2026-01-27 14:52:56.40	291.41	9.11	-46.9	-57.9	3.8	7.45e-01	0	42	104	0	65	12782
2026-01-27 14:52:58.42	291.81	9.12	-46.7	-57.7	3.9	7.47e-01	0	42	104	0	65	12411
2026-01-27 14:53:00.43	292.21	9.12	-48.2	-59.4	3.9	7.46e-01	0	43	104	0	68	12669
2026-01-27 14:53:02.45	292.61	9.13	-49.9	-61.7	3.9	7.41e-01	0	43	104	0	72	13233
2026-01-27 14:53:04.46	293.01	9.13	-46.5	-57.5	3.8	7.45e-01	0	42	104	0	65	12157
2026-01-27 14:53:06.47	293.41	9.13	-46.5	-57.5	3.9	7.44e-01	0	42	104	0	64	12887
2026-01-27 14:53:08.49	293.81	9.13	-47.2	-58.2	3.8	7.46e-01	0	43	104	0	64	13938
2026-01-27 14:53:10.50	294.21	9.12	-47.0	-58.0	3.8	7.43e-01	0	43	104	0	66	12100
2026-01-27 14:53:12.51	294.61	9.12	-46.8	-57.7	3.8	7.39e-01	0	43	104	0	65	12502
2026-01-27 14:53:14.52	295.01	9.12	-46.4	-57.3	3.8	7.44e-01	0	43	104	0	64	12579
2026-01-27 14:53:16.53	295.40	9.11	-49.4	-61.2	3.8	7.46e-01	0	43	104	0	69	14819
2026-01-27 14:53:18.55	295.81	9.10	-46.6	-57.6	3.9	7.47e-01	0	43	104	0	65	12260
2026-01-27 14:53:20.56	296.20	9.10	-46.8	-57.8	3.8	7.42e-01	0	42	104	0	65	12599
2026-01-27 14:53:22.58	296.60	9.09	-46.4	-57.4	3.8	7.45e-01	0	43	104	0	64	12701
2026-01-27 14:53:24.60	297.00	9.08	-49.8	-61.3	3.8	7.44e-01	0	42	104	0	69	14932
2026-01-27 14:53:26.61	297.40	9.07	-46.5	-57.4	3.8	7.45e-01	0	42	104	0	64	12679
2026-01-27 14:53:28.62	297.80	9.05	-46.7	-57.7	3.8	7.43e-01	0	43	104	0	65	12459
2026-01-27 14:53:30.63	298.20	9.04	-47.6	-58.7	3.8	7.45e-01	0	43	104	0	65	13988
2026-01-27 14:53:32.65	298.60	9.03	-52.0	-65.0	3.8	7.42e-01	0	43	104	0	74	17086
2026-01-27 14:53:34.66	298.99	9.01	-47.1	-58.1	3.8	7.48e-01	0	43	104	0	64	13776
2026-01-27 14:53:36.67	299.39	8.99	-46.7	-57.7	3.8	7.43e-01	0	42	104	0	64	13172
2026-01-27 14:53:38.69	299.78	8.98	-46.9	-57.9	3.8	7.45e-01	0	43	104	0	64	13477
2026-01-27 14:53:40.70	300.18	8.96	-52.0	-64.9	3.8	7.49e-01	0	43	104	0	74	17055
2026-01-27 14:53:42.71	300.57	8.94	-47.2	-58.2	3.8	7.48e-01	0	43	104	0	64	14041
2026-01-27 14:53:44.72	300.97	8.92	-46.5	-57.5	3.8	7.45e-01	0	43	104	0	64	12869
2026-01-27 14:53:46.73	301.36	8.89	-47.4	-58.5	3.8	7.45e-01	0	43	104	0	65	13621
2026-01-27 14:53:48.75	301.75	8.87	-53.6	-68.4	3.8	7.47e-01	0	42	104	0	77	21356
2026-01-27 14:53:50.75	302.14	8.85	-48.3	-59.4	3.8	7.46e-01	0	42	104	0	66	14365
2026-01-27 14:53:52.77	302.54	8.82	-46.2	-57.2	3.8	7.45e-01	0	43	104	0	64	12398
2026-01-27 14:53:54.78	302.93	8.79	-47.8	-59.1	3.8	7.42e-01	0	43	104	0	66	13874
2026-01-27 14:53:56.79	303.31	8.77	-53.5	-68.3	3.8	7.49e-01	0	43	104	0	77	21226
2026-01-27 14:53:58.80	303.70	8.74	-48.3	-59.9	3.8	7.45e-01	0	43	104	0	67	14231
2026-01-27 14:54:00.81	304.09	8.71	-46.3	-57.3	3.8	7.47e-01	0	43	104	0	64	12572
2026-01-27 14:54:02.82	304.48	8.68	-47.7	-58.9	3.8	7.46e-01	0	43	104	0	65	14221
2026-01-27 14:54:04.84	304.86	8.65	-54.1	-70.7	3.7	7.51e-01	0	43	104	0	78	26346
2026-01-27 14:54:06.85	305.25	8.61	-49.1	-60.5	3.8	7.47e-01	0	43	104	0	68	14483
2026-01-27 14:54:08.85	305.63	8.58	-46.7	-57.7	3.8	7.41e-01	0	43	104	0	64	13127
2026-01-27 14:54:10.87	306.02	8.54	-48.4	-59.7	3.8	7.46e-01	0	43	104	0	67	14010
2026-01-27 14:54:12.88	306.40	8.51	-54.1	-70.7	3.8	7.47e-01	0	43	104	0	78	26335
2026-01-27 14:54:14.90	306.78	8.47	-49.1	-60.6	3.8	7.44e-01	0	42	104	0	68	14708
2026-01-27 14:54:16.91	307.16	8.43	-46.6	-57.6	3.8	7.42e-01	0	43	104	0	64	12977
2026-01-27 14:54:18.92	307.54	8.40	-48.5	-59.9	3.8	7.43e-01	0	43	104	0	67	14346
2026-01-27 14:54:20.94	307.92	8.36	-54.2	-71.4	3.8	7.46e-01	0	43	104	0	78	28505
2026-01-27 14:54:22.96	308.30	8.32	-49.8	-61.8	3.9	7.44e-01	0	43	104	0	70	14921
2026-01-27 14:54:24.98	308.68	8.27	-46.5	-57.5	3.9	7.44e-01	0	43	104	0	64	12911
2026-01-27 14:54:26.99	309.05	8.23	-48.3	-59.7	3.8	7.44e-01	0	43	104	0	67	13976
2026-01-27 14:54:29.01	309.43	8.19	-54.2	-71.4	3.8	7.47e-01	0	43	104	0	78	28424
2026-01-27 14:54:31.02	309.80	8.14	-50.2	-62.2	3.8	7.44e-01	0	42	104	0	70	15642
2026-01-27 14:54:33.03	310.17	8.10	-46.4	-57.4	3.8	7.45e-01	0	43	104	0	64	12727
2026-01-27 14:54:35.05	310.54	8.05	-48.6	-60.1	3.8	7.46e-01	0	43	104	0	68	13765
2026-01-27 14:54:37.06	310.91	8.01	-54.1	-71.5	3.8	7.45e-01	0	43	104	0	78	28865
2026-01-27 14:54:39.07	311.28	7.96	-49.9	-61.8	3.8	7.45e-01	0	43	104	0	70	15035
2026-01-27 14:54:41.08	311.64	7.91	-46.1	-57.0	3.8	7.46e-01	0	42	104	0	64	12220
2026-01-27 14:54:43.10	312.01	7.86	-46.9	-58.0	3.8	7.44e-01	0	43	104	0	64	13574
2026-01-27 14:54:45.12	312.37	7.81	-54.1	-71.3	3.8	7.48e-01	0	43	104	0	78	28296
2026-01-27 14:54:47.14	312.74	7.76	-50.1	-62.1	3.8	7.45e-01	0	43	104	0	70	15558
2026-01-27 14:54:49.16	313.10	7.71	-46.4	-57.5	3.8	7.42e-01	0	42	104	0	64	12837
2026-01-27 14:54:51.17	313.46	7.65	-47.8	-59.1	3.8	7.43e-01	0	43	104	0	66	13842
2026-01-27 14:54:53.19	313.82	7.60	-54.0	-71.2	3.8	7.43e-01	0	43	104	0	78	27833
2026-01-27 14:54:55.20	314.17	7.55	-50.0	-62.0	3.8	7.44e-01	0	43	104	0	70	15272
2026-01-27 14:54:57.21	314.53	7.49	-46.0	-56.8	3.8	7.41e-01	0	42	104	0	64	11923
2026-01-27 14:54:59.23	314.88	7.44	-48.2	-59.7	3.9	7.45e-01	0	43	104	0	68	13168
2026-01-27 14:55:01.24	315.24	7.38	-53.8	-70.4	3.9	7.43e-01	0	43	104	0	78	25453
2026-01-27 14:55:03.26	315.59	7.32	-49.4	-61.2	3.8	7.45e-01	0	43	104	0	70	14044
2026-01-27 14:55:05.27	315.94	7.26	-46.0	-56.9	3.8	7.47e-01	0	43	104	0	64	12066
2026-01-27 14:55:07.29	316.29	7.21	-48.3	-59.6	3.9	7.42e-01	0	43	104	0	68	13055
2026-01-27 14:55:09.30	316.63	7.15	-53.7	-70.3	3.9	7.44e-01	0	42	104	0	78	25201
2026-01-27 14:55:11.32	316.98	7.09	-49.5	-61.3	3.8	7.44e-01	0	43	104	0	70	14180
2026-01-27 14:55:13.33	317.32	7.03	-46.4	-57.4	3.8	7.45e-01	0	43	104	0	64	12708
2026-01-27 14:55:15.35	317.67	6.96	-47.2	-58.5	3.8	7.43e-01	0	43	104	0	66	12812
2026-01-27 14:55:17.36	318.01	6.90	-53.1	-68.3	3.9	7.44e-01	0	43	104	0	78	20065
2026-01-27 14:55:19.38	318.35	6.84	-48.9	-60.3	3.9	7.44e-01	0	43	104	0	69	13324
2026-01-27 14:55:21.39	318.68	6.78	-46.3	-57.3	3.8	7.45e-01	0	43	104	0	64	12642
2026-01-27 14:55:23.41	319.02	6.71	-48.2	-59.6	3.9	7.45e-01	0	43	104	0	68	13074
2026-01-27 14:55:25.43	319.36	6.65	-51.6	-64.9	3.9	7.39e-01	0	43	104	0	75	16114
2026-01-27 14:55:27.44	319.69	6.58	-48.0	-59.4	3.9	7.39e-01	0	43	104	0	68	12791
2026-01-27 14:55:29.45	320.02	6.52	-46.5	-57.6	3.8	7.44e-01	0	43	104	0	64	13007
2026-01-27 14:55:31.47	320.35	6.45	-47.5	-58.9	3.8	7.44e-01	0	43	104	0	67	12711
2026-01-27 14:55:33.48	320.68	6.39	-51.3	-64.9	4.0	7.42e-01	0	43	104	0	74	17006
2026-01-27 14:55:35.50	321.01	6.32	-46.9	-59.0	3.8	7.44e-01	0	42	104	0	66	13690
2026-01-27 14:55:37.51	321.33	6.25	-41.9	-55.9	3.8	7.46e-01	0	43	104	0	55	17921
2026-01-27 14:55:39.53	321.65	6.18	-44.5	-56.8	3.8	7.43e-01	0	43	104	0	59	15809
2026-01-27 14:55:41.54	321.98	6.11	-48.4	-61.7	3.9	7.42e-01	0	43	104	0	69	15632
2026-01-27 14:55:43.56	322.30	6.04	-47.3	-58.8	3.9	7.46e-01	0	43	104	0	66	13314
2026-01-27 14:55:45.57	322.62	5.97	-46.4	-57.5	3.8	7.44e-01	0	42	104	0	64	12950
2026-01-27 14:55:47.59	322.93	5.90	-47.1	-58.3	3.8	7.45e-01	0	43	104	0	66	12631
2026-01-27 14:55:49.59	323.25	5.83	-49.5	-61.5	3.9	7.43e-01	0	43	104	0	71	13686
2026-01-27 14:55:51.61	323.56	5.76	-46.8	-58.0	3.9	7.46e-01	0	43	104	0	65	12853
2026-01-27 14:55:53.62	323.87	5.69	-46.4	-57.5	3.8	7.42e-01	0	43	104	0	64	12931
2026-01-27 14:55:55.63	324.18	5.62	-46.3	-57.3	3.8	7.42e-01	0	43	104	0	64	12574
2026-01-27 14:55:57.65	324.49	5.55	-48.1	-59.5	3.9	7.48e-01	0	43	104	0	68	12899
2026-01-27 14:55:59.67	324.80	5.47	-47.1	-58.3	3.8	7.45e-01	0	43	104	0	66	12645
2026-01-27 14:56:01.68	325.11	5.40	-46.8	-58.1	3.8	7.43e-01	0	43	104	0	65	13002
2026-01-27 14:56:03.70	325.41	5.33	-46.4	-57.4	3.8	7.44e-01	0	43	104	0	64	12749
2026-01-27 14:56:05.71	325.71	5.25	-48.2	-59.7	3.9	7.46e-01	0	43	104	0	68	13250
2026-01-27 14:56:07.72	326.01	5.18	-46.8	-57.9	3.8	7.44e-01	0	43	104	0	65	12780
2026-01-27 14:56:09.74	326.31	5.10	-46.6	-57.6	3.8	7.47e-01	0	42	104	0	64	13052
2026-01-27 14:56:11.75	326.61	5.03	-46.7	-57.8	3.8	7.48e-01	0	43	104	0	65	12607
2026-01-27 14:56:13.76	326.91	4.95	-54.2	-71.9	3.8	7.46e-01	0	43	104	0	78	30257
2026-01-27 14:56:15.77	327.20	4.88	-54.5	-72.4	3.8	7.47e-01	0	43	104	0	79	30052
2026-01-27 14:56:17.79	327.49	4.80	-54.7	-72.6	3.8	7.41e-01	0	43	104	0	79	30757
2026-01-27 14:56:19.80	327.78	4.72	-54.6	-72.5	3.8	7.44e-01	0	43	104	0	80	28705
2026-01-27 14:56:21.82	328.07	4.65	-54.5	-72.3	3.8	7.43e-01	0	43	104	0	80	28237
2026-01-27 14:56:23.83	328.36	4.57	-54.5	-72.4	3.8	7.48e-01	0	43	104	0	80	28415
2026-01-27 14:56:25.85	328.65	4.49	-54.6	-72.5	3.8	7.45e-01	0	43	104	0	80	28724
2026-01-27 14:56:27.87	328.93	4.41	-54.8	-72.5	3.8	7.46e-01	0	43	104	0	80	29010
2026-01-27 14:56:29.88	329.22	4.34	-54.8	-72.7	3.8	7.43e-01	0	43	104	0	80	29445
2026-01-27 14:56:31.90	329.50	4.26	-54.9	-72.7	3.8	7.45e-01	0	43	104	0	80	29522
2026-01-27 14:56:33.92	329.78	4.18	-54.9	-72.7	3.8	7.47e-01	0	43	104	0	80	29653
2026-01-27 14:56:35.94	330.06	4.10	-54.9	-72.7	3.8	7.44e-01	0	43	104	0	80	29547
2026-01-27 14:56:37.96	330.34	4.02	-54.9	-72.7	3.8	7.43e-01	0	43	104	0	80	29534
2026-01-27 14:56:39.97	330.61	3.94	-54.9	-72.7	3.8	7.46e-01	0	43	104	0	80	29555
2026-01-27 14:56:41.99	330.89	3.86	-54.9	-72.7	3.8	7.49e-01	0	43	104	0	80	29475
2026-01-27 14:56:44.01	331.16	3.78	-54.8	-72.6	3.8	7.44e-01	0	43	104	0	80	29328
2026-01-27 14:56:46.02	331.43	3.70	-54.8	-72.7	3.8	7.45e-01	0	43	104	0	80	29360
2026-01-27 14:56:48.04	331.70	3.62	-54.8	-72.6	3.8	7.46e-01	0	43	104	0	80	29261
2026-01-27 14:56:50.05	331.97	3.54	-54.8	-72.6	3.8	7.45e-01	0	43	104	0	80	29213
2026-01-27 14:56:52.07	332.23	3.46	-54.8	-72.6	3.8	7.44e-01	0	43	104	0	80	29239
2026-01-27 14:56:54.09	332.50	3.38	-54.8	-72.6	3.8	7.45e-01	0	43	104	0	80	29241
2026-01-27 14:56:56.10	332.76	3.30	-54.8	-72.6	3.8	7.46e-01	0	43	104	0	80	29250
2026-01-27 14:56:58.11	333.02	3.21	-54.8	-72.6	3.8	7.45e-01	0	43	104	0	80	29288
2026-01-27 14:57:00.13	333.28	3.13	-54.8	-72.6	3.8	7.42e-01	0	43	104	0	80	29216
2026-01-27 14:57:02.14	333.54	3.05	-54.8	-72.6	3.8	7.45e-01	0	43	104	0	80	29144
2026-01-27 14:57:04.15	333.79	2.97	-54.8	-72.6	3.8	7.46e-01	0	43	104	0	80	29198
2026-01-27 14:57:06.17	334.05	2.89	-54.8	-72.6	3.8	7.47e-01	0	43	104	0	80	29119
2026-01-27 14:57:08.18	334.30	2.81	-54.8	-72.6	3.8	7.44e-01	0	43	104	0	80	29077
2026-01-27 14:57:10.20	334.56	2.72	-54.8	-72.6	3.8	7.46e-01	0	43	104	0	80	29175
2026-01-27 14:57:12.21	334.81	2.64	-54.8	-72.6	3.8	7.49e-01	0	43	104	0	80	29082
2026-01-27 14:57:14.23	335.06	2.56	-54.7	-72.6	3.8	7.42e-01	0	43	104	0	80	29067
2026-01-27 14:57:16.24	335.30	2.48	-54.8	-72.6	3.8	7.44e-01	0	43	104	0	80	29116
2026-01-27 14:57:18.26	335.55	2.39	-54.7	-72.6	3.8	7.46e-01	0	43	104	0	80	29098
2026-01-27 14:57:20.27	335.80	2.31	-54.7	-72.5	3.8	7.46e-01	0	43	104	0	80	28969
2026-01-27 14:57:22.28	336.04	2.23	-54.7	-72.5	3.8	7.48e-01	0	43	104	0	80	28964
2026-01-27 14:57:24.30	336.28	2.14	-54.7	-72.5	3.8	7.45e-01	0	43	104	0	80	28993
2026-01-27 14:57:26.31	336.52	2.06	-54.7	-72.6	3.8	7.43e-01	0	43	104	0	80	29016

#Closed at: 2026-01-27 14:57:27
#Recorded file [0 MB]: D:/lorett/data/31041_260127_174844.dat