passes_logs/2026/01/27/R3.2S_Murmansk/R3.2S_Murmansk__20260127_014912_AQUA_rec.log

#Pass ID: 20260127_014912_AQUA
#Satellite: AQUA
#Configuration: AQUA
#almurnet v.1.7.20251203
#Start time: 2026-01-27 01:49:13

#Version: 2.2.20231116
#Station: R3.2S_Murmansk
#Location: 33.079688 lon 68.888172 lat
#TLE: 1 27424U 02022A   26026.53345137  .00001758  00000+0  36150-3 0  9990
#TLE: 2 27424  98.4100 353.1559 0001880  64.8012  49.4917 14.61862630262575

#Time	Az	El	Level	Level2	SNR	BER	BlckErr	Temp	State	Recorded	gain1	gain2
2026-01-27 01:49:13.14	22.40	2.04	-54.5	-72.2	3.8	7.44e-01	0	40	0	0	81	26377
2026-01-27 01:49:17.17	22.48	2.31	-53.8	-71.5	3.8	7.48e-01	0	41	104	0	78	28981
2026-01-27 01:49:21.20	22.57	2.58	-53.8	-70.5	3.8	7.47e-01	0	41	104	0	78	25798
2026-01-27 01:49:25.24	22.66	2.85	-53.8	-70.4	3.8	7.45e-01	0	41	104	0	78	25351
2026-01-27 01:49:29.27	22.75	3.12	-53.8	-70.6	3.8	7.44e-01	0	41	104	0	78	26077
2026-01-27 01:49:33.30	22.85	3.40	-53.7	-68.6	4.1	7.37e-01	0	41	104	0	78	20630
2026-01-27 01:49:37.33	22.94	3.68	-53.4	-64.1	6.2	6.78e-01	130	42	0	0	78	12321
2026-01-27 01:49:41.36	23.04	3.96	-51.0	-54.9	15.6	6.04e-01	0	41	0	7864320	74	5344
2026-01-27 01:49:45.39	23.14	4.25	-47.8	-49.8	20.9	6.03e-01	0	42	0	15204352	67	4466
2026-01-27 01:49:49.42	23.24	4.54	-46.5	-48.1	22.2	6.00e-01	0	42	0	23068672	64	4378
2026-01-27 01:49:53.46	23.34	4.83	-48.3	-50.5	15.4	6.04e-01	0	42	0	30408704	67	4850
2026-01-27 01:49:57.49	23.44	5.13	-47.4	-49.1	17.1	6.01e-01	0	42	0	38273024	66	4388
2026-01-27 01:50:01.52	23.55	5.43	-47.0	-48.7	21.8	6.02e-01	0	42	0	42467328	66	4162
2026-01-27 01:50:05.55	23.66	5.74	-46.1	-47.6	22.7	6.01e-01	0	42	0	50331648	63	4374
2026-01-27 01:50:09.58	23.77	6.04	-46.0	-47.4	21.7	6.02e-01	0	42	0	57671680	63	4291
2026-01-27 01:50:13.60	23.88	6.36	-45.9	-47.3	22.6	6.03e-01	0	42	0	65011712	63	4226
2026-01-27 01:50:17.63	23.99	6.67	-45.8	-47.2	22.2	6.03e-01	0	42	0	72876032	63	4175
2026-01-27 01:50:21.65	24.11	6.99	-45.8	-47.2	22.7	6.00e-01	0	42	0	80216064	63	4158
2026-01-27 01:50:25.69	24.23	7.32	-45.7	-47.1	22.9	6.04e-01	0	42	0	87556096	63	4118
2026-01-27 01:50:29.72	24.35	7.65	-45.9	-47.4	22.8	6.02e-01	0	42	0	95420416	63	4248
2026-01-27 01:50:33.75	24.47	7.98	-45.5	-46.9	23.0	6.03e-01	0	42	0	102760448	63	4017
2026-01-27 01:50:37.78	24.60	8.32	-45.3	-46.7	23.4	6.03e-01	0	42	0	110624768	62	4168
2026-01-27 01:50:41.81	24.73	8.67	-45.4	-46.8	23.4	6.04e-01	0	42	0	117964800	62	4213
2026-01-27 01:50:45.84	24.86	9.02	-45.2	-46.5	22.9	6.03e-01	0	43	0	125829120	62	4090
2026-01-27 01:50:49.87	24.99	9.38	-45.2	-46.5	22.9	6.03e-01	0	42	0	133169152	62	4053
2026-01-27 01:50:53.91	25.13	9.74	-45.1	-46.4	23.3	5.99e-01	0	42	0	140509184	62	4040
2026-01-27 01:50:57.94	25.27	10.10	-45.3	-46.6	23.4	6.00e-01	0	43	0	148373504	62	4111
2026-01-27 01:51:01.98	25.42	10.48	-45.1	-46.5	23.3	6.04e-01	0	42	0	155713536	62	4053
2026-01-27 01:51:06.00	25.57	10.86	-45.0	-46.3	23.7	6.00e-01	0	42	0	163577856	62	3984
2026-01-27 01:51:10.03	25.72	11.24	-44.7	-45.9	24.1	6.01e-01	0	42	0	170917888	61	4041
2026-01-27 01:51:14.06	25.88	11.64	-44.6	-45.9	24.4	6.05e-01	0	42	0	178782208	61	4016
2026-01-27 01:51:18.09	26.04	12.04	-44.6	-45.8	24.5	6.04e-01	0	43	0	186122240	61	3971
2026-01-27 01:51:22.12	26.20	12.44	-44.5	-45.7	24.6	6.06e-01	0	43	0	193462272	61	3950
2026-01-27 01:51:26.16	26.37	12.86	-44.7	-45.9	23.9	6.03e-01	0	43	0	201326592	61	4039
2026-01-27 01:51:30.19	26.54	13.28	-44.6	-45.8	23.4	6.02e-01	0	42	0	208666624	61	3999
2026-01-27 01:51:34.22	26.72	13.71	-44.6	-45.9	23.3	6.03e-01	0	42	0	216006656	61	4010
2026-01-27 01:51:38.25	26.90	14.15	-44.4	-45.6	24.0	6.03e-01	0	43	0	223870976	60	4109
2026-01-27 01:51:42.27	27.09	14.60	-44.1	-45.3	24.7	6.06e-01	0	43	0	231211008	60	3968
2026-01-27 01:51:46.30	27.29	15.05	-44.2	-45.3	24.8	6.01e-01	0	43	0	239075328	60	4001
2026-01-27 01:51:50.34	27.49	15.52	-44.4	-45.6	22.6	6.02e-01	0	42	0	246415360	60	4118
2026-01-27 01:51:54.37	27.70	16.00	-44.3	-45.5	24.8	6.03e-01	0	43	0	254279680	60	4055
2026-01-27 01:51:58.40	27.91	16.48	-44.0	-45.2	24.9	6.03e-01	0	43	0	261619712	60	3926
2026-01-27 01:52:02.43	28.13	16.98	-44.1	-45.3	24.9	6.03e-01	0	43	0	268959744	60	3989
2026-01-27 01:52:06.45	28.36	17.49	-44.3	-45.4	24.5	6.03e-01	0	43	0	276824064	60	4042
2026-01-27 01:52:10.49	28.59	18.01	-44.3	-45.5	25.2	6.04e-01	0	43	0	284164096	60	4087
2026-01-27 01:52:14.51	28.84	18.54	-44.2	-45.3	25.8	6.02e-01	0	43	0	292028416	60	4003
2026-01-27 01:52:18.54	29.09	19.08	-44.0	-45.2	26.0	6.04e-01	0	42	0	299368448	60	3933
2026-01-27 01:52:22.58	29.35	19.64	-44.2	-45.3	25.6	6.01e-01	0	43	0	307232768	60	3994
2026-01-27 01:52:26.61	29.62	20.21	-44.0	-45.2	26.1	6.03e-01	0	43	0	314572800	60	3932
2026-01-27 01:52:30.64	29.90	20.79	-44.2	-45.3	26.0	6.02e-01	0	43	0	322437120	59	4231
2026-01-27 01:52:34.67	30.19	21.39	-44.4	-45.6	25.9	6.03e-01	0	43	0	329777152	59	4341
2026-01-27 01:52:38.70	30.50	22.01	-44.4	-45.6	25.9	6.02e-01	0	43	0	337117184	59	4344
2026-01-27 01:52:42.73	30.81	22.64	-44.5	-45.7	25.7	6.03e-01	0	43	0	344457216	59	4411
2026-01-27 01:52:46.76	31.14	23.28	-44.5	-45.7	25.8	6.05e-01	0	43	0	352321536	59	4392
2026-01-27 01:52:50.79	31.48	23.95	-44.6	-45.8	25.7	6.05e-01	0	43	0	359661568	59	4445
2026-01-27 01:52:54.82	31.84	24.63	-44.5	-45.7	25.9	6.04e-01	0	43	0	367525888	60	4154
2026-01-27 01:52:58.85	32.21	25.33	-44.5	-45.7	25.9	6.02e-01	0	43	0	374865920	60	4157
2026-01-27 01:53:02.87	32.60	26.04	-44.7	-45.9	25.6	6.04e-01	0	43	0	382730240	60	4269
2026-01-27 01:53:06.90	33.01	26.78	-44.3	-45.4	26.1	6.04e-01	0	43	0	390070272	60	4034
2026-01-27 01:53:10.93	33.44	27.54	-44.6	-45.7	25.7	6.06e-01	0	43	0	397410304	60	4179
2026-01-27 01:53:14.96	33.89	28.33	-44.2	-45.3	26.2	6.02e-01	0	43	0	405274624	60	4000
2026-01-27 01:53:19.00	34.36	29.13	-44.2	-45.3	26.3	6.03e-01	0	43	0	412614656	60	3985
2026-01-27 01:53:23.02	34.85	29.96	-44.2	-45.3	26.4	6.02e-01	0	43	0	420478976	60	3985
2026-01-27 01:53:27.06	35.38	30.81	-44.2	-45.4	26.3	6.01e-01	0	43	0	427819008	60	4023
2026-01-27 01:53:31.07	35.93	31.69	-44.3	-45.5	26.2	6.00e-01	0	43	0	435683328	59	4308
2026-01-27 01:53:35.10	36.51	32.59	-44.6	-45.7	25.9	6.04e-01	0	43	0	443023360	59	4427
2026-01-27 01:53:39.13	37.12	33.52	-44.6	-45.8	25.8	6.01e-01	0	43	0	450363392	60	4220
2026-01-27 01:53:43.16	37.78	34.48	-44.8	-46.0	25.7	6.01e-01	0	43	0	458227712	60	4328
2026-01-27 01:53:47.19	38.47	35.47	-45.4	-46.6	25.1	6.02e-01	0	43	0	465567744	61	4378
2026-01-27 01:53:51.21	39.20	36.48	-45.5	-46.8	24.9	6.02e-01	0	43	0	472907776	61	4444
2026-01-27 01:53:55.24	39.99	37.52	-45.9	-47.2	24.7	6.01e-01	0	43	0	480772096	62	4397
2026-01-27 01:53:59.27	40.83	38.60	-46.2	-47.6	24.5	6.02e-01	0	43	0	488112128	63	4343
2026-01-27 01:54:03.31	41.72	39.70	-46.0	-47.3	24.6	6.02e-01	0	43	0	495976448	63	4209
2026-01-27 01:54:07.33	42.68	40.83	-45.6	-46.9	25.0	6.06e-01	0	43	0	503316480	63	4015
2026-01-27 01:54:11.36	43.71	42.00	-45.4	-46.6	25.3	6.03e-01	0	43	0	511180800	62	4114
2026-01-27 01:54:15.40	44.82	43.19	-44.5	-45.6	26.2	6.04e-01	0	43	0	518520832	61	3904
2026-01-27 01:54:19.43	46.01	44.41	-44.2	-45.3	26.5	6.03e-01	0	43	0	525860864	60	3991
2026-01-27 01:54:23.45	47.30	45.66	-43.8	-44.9	26.8	6.02e-01	0	43	0	533725184	59	4049
2026-01-27 01:54:27.49	48.70	46.93	-44.0	-45.1	26.5	6.01e-01	0	43	0	541065216	59	4138
2026-01-27 01:54:31.51	50.21	48.22	-44.1	-45.2	26.5	6.03e-01	0	43	0	548929536	59	4180
2026-01-27 01:54:35.54	51.86	49.53	-43.8	-44.9	26.7	6.06e-01	0	43	0	556269568	59	4024
2026-01-27 01:54:39.56	53.66	50.86	-43.6	-44.7	27.0	6.03e-01	0	43	0	564133888	59	3948
2026-01-27 01:54:43.59	55.62	52.19	-43.8	-44.8	26.8	6.03e-01	0	43	0	571473920	59	4003
2026-01-27 01:54:47.63	57.78	53.53	-43.9	-45.0	26.7	6.02e-01	0	43	0	578813952	59	4062
2026-01-27 01:54:51.65	60.13	54.85	-43.8	-44.9	26.8	6.02e-01	0	43	0	586678272	59	4029
2026-01-27 01:54:55.68	62.72	56.17	-44.3	-45.5	26.4	6.03e-01	0	43	0	594018304	59	4304
2026-01-27 01:54:59.71	65.56	57.45	-45.2	-46.5	25.6	6.04e-01	0	43	0	601358336	60	4548
2026-01-27 01:55:03.73	68.67	58.68	-46.1	-47.5	24.7	6.00e-01	0	43	0	609222656	62	4554
2026-01-27 01:55:07.76	72.09	59.86	-46.5	-47.9	24.3	6.01e-01	0	43	0	616562688	63	4498
2026-01-27 01:55:11.79	75.82	60.97	-46.6	-48.0	24.1	6.04e-01	0	42	0	624427008	64	4328
2026-01-27 01:55:15.83	79.89	61.98	-47.5	-49.0	23.2	6.02e-01	0	43	0	631767040	65	4572
2026-01-27 01:55:19.86	84.28	62.86	-47.3	-48.7	23.5	6.02e-01	0	43	0	639631360	66	4186
2026-01-27 01:55:23.89	88.98	63.61	-47.4	-48.9	23.2	6.02e-01	0	43	0	646971392	66	4264
2026-01-27 01:55:27.91	93.95	64.20	-47.9	-49.5	22.8	6.02e-01	0	42	0	654311424	66	4564
2026-01-27 01:55:31.95	99.16	64.62	-47.6	-49.2	23.1	6.03e-01	0	43	0	662175744	66	4396
2026-01-27 01:55:35.97	104.50	64.84	-47.3	-48.7	23.4	6.03e-01	0	43	0	669515776	66	4181
2026-01-27 01:55:40.01	109.92	64.87	-47.3	-48.8	23.4	6.00e-01	0	43	0	677380096	66	4206
2026-01-27 01:55:44.04	115.29	64.70	-47.2	-48.7	23.4	6.03e-01	0	43	0	684720128	65	4427
2026-01-27 01:55:48.08	120.56	64.34	-46.8	-48.3	23.9	6.03e-01	0	43	0	692060160	65	4199
2026-01-27 01:55:52.11	125.61	63.79	-46.3	-47.6	24.3	6.02e-01	0	43	0	699924480	64	4135
2026-01-27 01:55:56.13	130.38	63.08	-46.5	-47.9	24.2	6.02e-01	0	43	0	707264512	64	4275
2026-01-27 01:56:00.16	134.86	62.23	-46.0	-47.3	24.9	6.03e-01	0	43	0	715128832	63	4212
2026-01-27 01:56:04.20	139.03	61.25	-45.8	-47.1	25.1	6.01e-01	0	43	0	722468864	63	4115
2026-01-27 01:56:08.23	142.85	60.17	-45.4	-46.6	25.5	6.06e-01	0	43	0	729808896	62	4128
2026-01-27 01:56:12.26	146.36	59.01	-45.7	-47.0	25.1	6.03e-01	0	43	0	737673216	62	4322
2026-01-27 01:56:16.30	149.57	57.78	-45.3	-46.5	25.3	6.06e-01	0	43	0	745013248	62	4076
2026-01-27 01:56:20.31	152.47	56.51	-45.3	-46.5	25.5	6.03e-01	0	43	0	752877568	61	4330
2026-01-27 01:56:24.34	155.13	55.20	-44.3	-45.4	26.3	6.04e-01	0	43	0	760217600	59	4288
2026-01-27 01:56:28.37	157.55	53.87	-44.1	-45.2	26.5	6.04e-01	0	43	0	768081920	59	4170
2026-01-27 01:56:32.41	159.77	52.53	-44.4	-45.6	26.2	6.02e-01	0	43	0	775421952	59	4351
2026-01-27 01:56:36.44	161.78	51.19	-44.7	-45.8	25.9	6.03e-01	0	43	0	783286272	60	4242
2026-01-27 01:56:40.47	163.63	49.86	-44.7	-45.8	25.9	6.02e-01	0	43	0	790626304	60	4240
2026-01-27 01:56:44.50	165.32	48.54	-45.0	-46.2	25.9	6.05e-01	0	43	0	797966336	60	4396
2026-01-27 01:56:48.53	166.87	47.24	-44.8	-46.0	25.9	6.04e-01	0	43	0	805830656	60	4316
2026-01-27 01:56:52.56	168.30	45.96	-44.8	-46.0	25.9	6.00e-01	0	43	0	813170688	60	4322
2026-01-27 01:56:56.60	169.62	44.70	-44.6	-45.8	26.2	6.02e-01	0	43	0	820510720	60	4195
2026-01-27 01:57:00.62	170.84	43.47	-44.8	-46.0	25.9	6.02e-01	0	43	0	828375040	60	4301
2026-01-27 01:57:04.65	171.97	42.26	-44.9	-46.1	25.8	6.02e-01	0	43	0	835715072	60	4366
2026-01-27 01:57:08.68	173.01	41.09	-44.9	-46.0	25.8	6.03e-01	0	43	0	843579392	60	4337
2026-01-27 01:57:12.72	173.99	39.94	-45.4	-46.6	25.2	6.04e-01	0	43	0	850919424	61	4384
2026-01-27 01:57:16.75	174.91	38.83	-45.5	-46.8	25.1	6.04e-01	0	43	0	858783744	61	4461
2026-01-27 01:57:20.78	175.76	37.74	-45.0	-46.2	25.6	6.03e-01	0	43	0	866123776	61	4177
2026-01-27 01:57:24.81	176.55	36.68	-44.5	-45.7	26.1	6.04e-01	0	43	0	873463808	61	3924
2026-01-27 01:57:28.84	177.30	35.66	-44.4	-45.6	26.2	6.02e-01	0	43	0	881328128	60	4104
2026-01-27 01:57:32.87	178.01	34.66	-43.9	-45.0	26.4	6.04e-01	0	43	0	888668160	59	4073
2026-01-27 01:57:36.89	178.67	33.70	-43.9	-45.1	26.5	6.02e-01	0	43	0	896532480	59	4105
2026-01-27 01:57:40.92	179.29	32.76	-43.5	-44.6	26.8	6.04e-01	0	43	0	903872512	59	3888
2026-01-27 01:57:44.96	179.88	31.84	-43.4	-44.5	26.8	6.02e-01	0	43	0	911736832	58	4084
2026-01-27 01:57:48.99	180.44	30.95	-43.3	-44.4	27.0	6.01e-01	0	43	0	919076864	58	4024
2026-01-27 01:57:53.03	180.97	30.09	-43.3	-44.4	27.1	6.02e-01	0	43	0	926416896	58	4023
2026-01-27 01:57:57.06	181.48	29.25	-43.8	-44.9	26.6	6.03e-01	0	43	0	934281216	58	4262
2026-01-27 01:58:01.09	181.95	28.44	-43.6	-44.7	26.6	6.02e-01	0	43	0	941621248	58	4190
2026-01-27 01:58:05.12	182.41	27.65	-43.7	-44.8	26.5	6.03e-01	0	43	0	948961280	58	4228
2026-01-27 01:58:09.16	182.84	26.88	-43.8	-44.9	26.5	6.01e-01	0	43	0	956825600	58	4286
2026-01-27 01:58:13.18	183.25	26.13	-44.1	-45.3	26.2	6.04e-01	0	43	0	964165632	58	4454
2026-01-27 01:58:17.20	183.64	25.41	-44.3	-45.5	26.0	6.02e-01	0	43	0	972029952	59	4296
2026-01-27 01:58:21.23	184.02	24.70	-44.5	-45.7	25.7	6.07e-01	0	43	0	979369984	59	4424
2026-01-27 01:58:25.26	184.38	24.01	-44.5	-45.7	25.7	6.03e-01	0	43	0	987234304	59	4412
2026-01-27 01:58:29.29	184.73	23.34	-44.4	-45.6	25.8	6.01e-01	0	43	0	994574336	59	4358
2026-01-27 01:58:33.32	185.06	22.69	-44.3	-45.5	26.0	6.03e-01	0	43	0	1001914368	59	4293
2026-01-27 01:58:37.34	185.37	22.06	-44.3	-45.5	26.0	6.01e-01	0	43	0	1009778688	59	4296
2026-01-27 01:58:41.38	185.68	21.44	-44.3	-45.5	25.9	6.03e-01	0	43	0	1017118720	59	4319
2026-01-27 01:58:45.42	185.97	20.83	-44.4	-45.6	25.9	6.02e-01	0	43	0	1024983040	59	4345
2026-01-27 01:58:49.44	186.25	20.24	-44.3	-45.5	25.9	6.03e-01	0	43	0	1032323072	59	4293
2026-01-27 01:58:53.48	186.53	19.67	-44.4	-45.6	25.8	5.99e-01	0	43	0	1040187392	59	4359
2026-01-27 01:58:57.51	186.79	19.11	-44.1	-45.3	26.0	6.00e-01	0	43	0	1047527424	59	4226
2026-01-27 01:59:01.55	187.04	18.56	-44.1	-45.2	26.0	6.04e-01	0	43	0	1054867456	59	4179
2026-01-27 01:59:05.58	187.29	18.02	-43.9	-45.0	26.2	6.01e-01	0	43	0	1062731776	59	4077
2026-01-27 01:59:09.62	187.52	17.50	-43.9	-45.1	26.2	6.03e-01	0	43	0	1070071808	59	4103
2026-01-27 01:59:13.64	187.75	16.99	-44.0	-45.1	26.1	6.02e-01	0	43	0	1077936128	59	4130
2026-01-27 01:59:17.67	187.97	16.48	-43.9	-45.1	26.0	6.03e-01	0	43	0	1085276160	59	4115
2026-01-27 01:59:21.70	188.18	15.99	-44.0	-45.2	26.1	6.05e-01	0	43	0	1092616192	59	4157
2026-01-27 01:59:25.73	188.39	15.52	-44.0	-45.2	26.0	6.02e-01	0	43	0	1100480512	59	4178
2026-01-27 01:59:29.76	188.59	15.05	-44.1	-45.3	25.8	6.04e-01	0	43	0	1107820544	59	4231
2026-01-27 01:59:33.79	188.78	14.59	-44.2	-45.4	25.8	6.03e-01	0	43	0	1115684864	59	4275
2026-01-27 01:59:37.82	188.97	14.13	-44.2	-45.4	25.8	6.02e-01	0	43	0	1123024896	59	4262
2026-01-27 01:59:41.85	189.16	13.69	-44.2	-45.4	25.7	6.04e-01	0	43	0	1130889216	59	4266
2026-01-27 01:59:45.88	189.33	13.26	-44.3	-45.5	25.7	5.99e-01	0	43	0	1138229248	59	4295
2026-01-27 01:59:49.90	189.51	12.83	-44.3	-45.5	25.6	6.02e-01	0	43	0	1145569280	59	4298
2026-01-27 01:59:53.94	189.67	12.42	-44.4	-45.7	25.5	6.05e-01	0	43	0	1153433600	59	4396
2026-01-27 01:59:57.96	189.84	12.01	-44.5	-45.8	25.2	6.03e-01	0	43	0	1160773632	59	4453
2026-01-27 02:00:01.99	190.00	11.61	-44.4	-45.6	25.4	6.04e-01	0	43	0	1168113664	59	4363
2026-01-27 02:00:06.03	190.15	11.21	-44.5	-45.7	25.4	6.00e-01	0	43	0	1175977984	59	4420
2026-01-27 02:00:10.06	190.30	10.82	-44.5	-45.7	25.3	6.01e-01	0	43	0	1183318016	59	4441
2026-01-27 02:00:14.08	190.45	10.44	-44.5	-45.8	25.4	6.05e-01	0	43	0	1191182336	60	4198
2026-01-27 02:00:18.11	190.59	10.06	-44.6	-45.9	25.3	6.03e-01	0	43	0	1198522368	60	4258
2026-01-27 02:00:22.14	190.73	9.69	-44.6	-45.9	25.2	6.01e-01	0	43	0	1206386688	60	4254
2026-01-27 02:00:26.17	190.87	9.33	-44.7	-46.0	25.1	6.02e-01	0	43	0	1213726720	60	4299
2026-01-27 02:00:30.20	191.00	8.97	-44.8	-46.0	25.0	6.05e-01	0	43	0	1221066752	60	4335
2026-01-27 02:00:34.23	191.13	8.62	-45.0	-46.3	24.7	6.04e-01	0	43	0	1228931072	60	4457
2026-01-27 02:00:38.27	191.26	8.27	-45.1	-46.5	24.5	6.03e-01	0	43	0	1236271104	60	4560
2026-01-27 02:00:42.30	191.39	7.93	-45.1	-46.4	24.5	6.03e-01	0	43	0	1244135424	60	4509
2026-01-27 02:00:46.33	191.51	7.59	-45.3	-46.7	24.2	6.01e-01	0	43	0	1251475456	61	4422
2026-01-27 02:00:50.37	191.63	7.26	-45.3	-46.7	24.2	6.01e-01	0	43	0	1259339776	61	4415
2026-01-27 02:00:54.40	191.75	6.93	-45.3	-46.7	24.2	6.01e-01	0	43	0	1266679808	61	4409
2026-01-27 02:00:58.42	191.86	6.61	-45.4	-46.8	24.1	6.03e-01	0	43	0	1274019840	61	4475
2026-01-27 02:01:02.45	191.97	6.29	-45.6	-47.1	23.8	5.99e-01	0	43	0	1281884160	61	4610
2026-01-27 02:01:06.48	192.08	5.98	-45.7	-47.2	23.6	6.03e-01	0	43	0	1289224192	62	4409
2026-01-27 02:01:10.51	192.19	5.67	-45.8	-47.3	23.6	6.00e-01	0	43	0	1296564224	62	4442
2026-01-27 02:01:14.54	192.29	5.36	-45.9	-47.4	23.4	6.02e-01	0	43	0	1304428544	62	4515
2026-01-27 02:01:18.57	192.40	5.06	-46.1	-47.6	23.1	6.03e-01	0	43	0	1311768576	62	4623
2026-01-27 02:01:22.60	192.50	4.76	-54.8	-72.6	3.8	7.44e-01	0	43	104	1313865728	80	29198
2026-01-27 02:01:26.63	192.60	4.47	-55.2	-73.0	3.8	7.45e-01	0	43	104	1313865728	80	30605
2026-01-27 02:01:30.66	192.69	4.18	-55.4	-73.3	3.8	7.48e-01	0	43	104	1313865728	81	29713
2026-01-27 02:01:34.69	192.79	3.89	-55.6	-73.4	3.8	7.42e-01	0	43	104	1313865728	81	30231
2026-01-27 02:01:38.72	192.88	3.60	-55.7	-73.5	3.8	7.44e-01	0	43	104	1313865728	81	30509
2026-01-27 02:01:42.75	192.98	3.32	-55.6	-73.5	3.8	7.44e-01	0	43	104	1313865728	81	30463
2026-01-27 02:01:46.77	193.07	3.04	-55.5	-73.3	3.8	7.45e-01	0	43	104	1313865728	81	29998
2026-01-27 02:01:50.81	193.16	2.77	-55.0	-72.9	3.8	7.43e-01	0	43	104	1313865728	81	28393
2026-01-27 02:01:54.83	193.24	2.50	-54.9	-72.8	3.8	7.45e-01	0	43	104	1313865728	81	28138
2026-01-27 02:01:58.87	193.33	2.23	-54.9	-72.8	3.8	7.41e-01	0	43	104	1313865728	81	28076
2026-01-27 02:02:02.89	193.41	1.96	-54.9	-72.8	3.8	7.46e-01	0	43	104	1313865728	81	28041

#Closed at: 2026-01-27 02:02:03
#Recorded file [1313 MB]: D:/lorett/data/31041_260127_044912.dat