passes_logs/2026/01/27/R3.2S_Murmansk/R3.2S_Murmansk__20260127_215551_JL1KF02B04_rec.log

#Pass ID: 20260127_215551_JL1KF02B04
#Satellite: JL1KF02B04
#Configuration: 01B_900M
#almurnet v.1.7.20251203
#Start time: 2026-01-27 21:55:52

#Version: 2.2.20231116
#Station: R3.2S_Murmansk
#Location: 33.079688 lon 68.888172 lat
#TLE: 1 61189U 24169A   26026.84397647  .00007462  00000+0  46757-3 0  9991
#TLE: 2 61189  97.5621 118.4131 0007706 130.6672 229.5228 15.09619028 74508

#Time	Az	El	Level	Level2	SNR	BER	BlckErr	Temp	State	Recorded	gain1	gain2
2026-01-27 21:55:52.46	215.55	2.04	-54.7	-56.8	6.2	0.00e+00	0	43	0	0	80	18922
2026-01-27 21:55:55.49	215.85	2.22	-54.7	-56.7	6.2	0.00e+00	0	44	104	0	80	18817
2026-01-27 21:55:58.51	216.15	2.39	-54.7	-56.8	6.2	0.00e+00	0	44	104	0	80	18852
2026-01-27 21:56:01.53	216.46	2.57	-54.9	-57.0	6.2	0.00e+00	0	44	104	0	80	19436
2026-01-27 21:56:04.55	216.76	2.75	-54.9	-57.0	6.2	0.00e+00	0	44	104	0	80	19297
2026-01-27 21:56:07.57	217.08	2.93	-54.8	-56.8	6.2	0.00e+00	0	44	104	0	80	19013
2026-01-27 21:56:10.60	217.40	3.11	-54.6	-56.7	6.2	0.00e+00	0	44	104	0	80	18755
2026-01-27 21:56:13.62	217.72	3.29	-54.4	-56.5	6.2	0.00e+00	0	44	104	0	80	18374
2026-01-27 21:56:16.64	218.05	3.47	-54.2	-56.3	6.2	0.00e+00	0	44	104	0	80	17857
2026-01-27 21:56:19.66	218.38	3.66	-53.9	-56.0	6.2	0.00e+00	0	44	104	0	79	18222
2026-01-27 21:56:22.69	218.72	3.84	-53.3	-55.4	6.2	0.00e+00	0	44	104	0	78	18075
2026-01-27 21:56:25.71	219.06	4.03	-53.3	-55.4	6.2	0.00e+00	0	44	104	0	78	18004
2026-01-27 21:56:28.73	219.41	4.21	-53.3	-55.3	6.2	0.00e+00	0	45	104	0	78	17951
2026-01-27 21:56:31.76	219.76	4.40	-53.2	-55.3	6.2	0.00e+00	0	45	104	0	78	17935
2026-01-27 21:56:34.78	220.12	4.59	-53.2	-55.3	6.2	0.00e+00	0	45	104	0	78	17937
2026-01-27 21:56:37.80	220.49	4.78	-53.2	-55.3	6.2	0.00e+00	0	45	104	0	78	17962
2026-01-27 21:56:40.82	220.86	4.97	-53.2	-55.3	6.2	0.00e+00	0	45	104	0	78	17940
2026-01-27 21:56:43.85	221.23	5.16	-53.2	-55.3	6.2	0.00e+00	0	45	104	0	78	17816
2026-01-27 21:56:46.87	221.61	5.35	-53.2	-55.3	6.2	0.00e+00	0	45	104	0	78	17925
2026-01-27 21:56:49.89	222.00	5.54	-53.3	-55.4	6.2	0.00e+00	0	45	104	0	78	18033
2026-01-27 21:56:52.91	222.39	5.73	-53.3	-55.4	6.2	0.00e+00	0	45	104	0	78	18083
2026-01-27 21:56:55.94	222.80	5.93	-53.1	-55.2	6.2	0.00e+00	0	45	104	0	78	17695
2026-01-27 21:56:58.96	223.20	6.12	-53.2	-55.3	6.2	0.00e+00	0	45	104	0	78	17785
2026-01-27 21:57:01.97	223.61	6.32	-53.2	-55.3	6.2	0.00e+00	0	45	104	0	78	17893
2026-01-27 21:57:04.99	224.03	6.51	-53.3	-55.4	6.2	0.00e+00	0	45	104	0	78	18017
2026-01-27 21:57:08.01	224.46	6.71	-53.1	-55.2	6.2	0.00e+00	0	45	104	0	78	17701
2026-01-27 21:57:11.03	224.89	6.91	-53.2	-55.3	6.2	0.00e+00	0	45	104	0	78	17800
2026-01-27 21:57:14.05	225.33	7.10	-53.2	-55.3	6.2	0.00e+00	0	45	104	0	78	17919
2026-01-27 21:57:17.07	225.78	7.30	-53.3	-55.4	6.2	0.00e+00	0	45	104	0	78	17994
2026-01-27 21:57:20.09	226.23	7.50	-53.2	-55.2	6.2	0.00e+00	0	45	104	0	78	17729
2026-01-27 21:57:23.11	226.69	7.70	-53.2	-55.3	6.2	0.00e+00	0	46	104	0	78	17816
2026-01-27 21:57:26.14	227.16	7.91	-53.2	-55.3	6.2	0.00e+00	0	46	104	0	78	17912
2026-01-27 21:57:29.15	227.64	8.11	-53.3	-55.4	6.2	0.00e+00	0	46	104	0	78	18019
2026-01-27 21:57:32.18	228.12	8.31	-53.2	-55.3	6.2	0.00e+00	0	45	104	0	78	17817
2026-01-27 21:57:35.19	228.61	8.51	-53.2	-55.3	6.2	0.00e+00	0	45	104	0	78	17863
2026-01-27 21:57:38.21	229.11	8.72	-53.2	-55.3	6.2	0.00e+00	0	45	104	0	78	17921
2026-01-27 21:57:41.24	229.62	8.92	-52.0	-53.6	6.2	0.00e+00	0	46	104	0	75	17466
2026-01-27 21:57:44.27	230.14	9.12	-52.1	-53.7	6.2	0.00e+00	0	46	104	0	75	17684
2026-01-27 21:57:47.29	230.67	9.33	-52.8	-54.7	6.2	0.00e+00	0	46	104	0	76	18785
2026-01-27 21:57:50.30	231.20	9.53	-52.2	-53.9	6.3	0.00e+00	0	46	104	0	76	16995
2026-01-27 21:57:53.32	231.74	9.74	-53.1	-55.1	6.2	0.00e+00	0	46	104	0	77	18502
2026-01-27 21:57:56.35	232.30	9.95	-29.4	-29.2	17.6	1.90e-06	0	46	0	25165824	30	14045
2026-01-27 21:57:59.37	232.86	10.15	-28.8	-28.7	17.7	0.00e+00	0	46	0	369098752	29	13980
2026-01-27 21:58:02.40	233.43	10.36	-28.5	-28.4	17.9	0.00e+00	0	46	0	713031680	29	13526
2026-01-27 21:58:05.43	234.01	10.56	-28.4	-28.3	18.0	0.00e+00	0	46	0	1048576000	28	14120
2026-01-27 21:58:08.45	234.60	10.77	-28.3	-28.1	18.1	0.00e+00	0	46	0	1384120320	28	13879
2026-01-27 21:58:11.47	235.20	10.97	-28.1	-27.9	18.0	0.00e+00	0	46	0	1736441856	28	13587
2026-01-27 21:58:14.50	235.81	11.18	-28.1	-27.9	18.2	0.00e+00	0	46	0	2071986176	27	14349
2026-01-27 21:58:17.52	236.43	11.38	-28.1	-27.9	18.2	0.00e+00	0	46	0	2407530496	27	14410
2026-01-27 21:58:20.54	237.06	11.59	-28.2	-28.1	18.1	0.00e+00	0	46	0	2743074816	27	14656
2026-01-27 21:58:23.56	237.69	11.79	-28.0	-27.8	18.2	0.00e+00	0	46	0	3095396352	27	14201
2026-01-27 21:58:26.58	238.34	11.99	-27.9	-27.7	18.3	0.00e+00	0	46	0	3430940672	27	14035
2026-01-27 21:58:29.59	239.00	12.19	-27.9	-27.7	18.4	0.00e+00	0	46	0	3766484992	27	14074
2026-01-27 21:58:32.61	239.67	12.39	-27.8	-27.6	18.2	0.00e+00	0	46	0	4110417920	27	13921
2026-01-27 21:58:35.64	240.35	12.60	-27.7	-27.5	18.2	0.00e+00	0	47	0	4445962240	27	13742
2026-01-27 21:58:38.66	241.04	12.79	-27.7	-27.6	18.0	0.00e+00	0	47	0	4789895168	27	13806
2026-01-27 21:58:41.68	241.75	12.99	-27.7	-27.6	17.9	0.00e+00	0	46	0	5133828096	27	13814
2026-01-27 21:58:44.69	242.46	13.19	-27.7	-27.6	17.8	0.00e+00	0	47	0	5469372416	27	13832
2026-01-27 21:58:47.72	243.18	13.38	-27.6	-27.5	17.7	0.00e+00	0	46	0	5804916736	27	13645
2026-01-27 21:58:50.74	243.92	13.57	-27.6	-27.4	17.7	0.00e+00	0	47	0	6140461056	27	13543
2026-01-27 21:58:53.76	244.66	13.76	-27.7	-27.5	17.6	0.00e+00	0	47	0	6492782592	27	13683
2026-01-27 21:58:56.78	245.42	13.95	-27.5	-27.4	17.3	1.90e-06	0	47	0	6828326912	26	14317
2026-01-27 21:58:59.81	246.19	14.14	-27.5	-27.3	17.3	0.00e+00	0	47	0	7163871232	26	14222
2026-01-27 21:59:02.84	246.97	14.32	-27.3	-27.2	17.4	0.00e+00	0	47	0	7507804160	26	13991
2026-01-27 21:59:05.86	247.75	14.50	-27.3	-27.1	17.2	0.00e+00	0	47	0	7851737088	26	13861
2026-01-27 21:59:08.88	248.55	14.68	-27.2	-27.0	17.1	0.00e+00	0	47	0	8187281408	26	13751
2026-01-27 21:59:11.90	249.36	14.85	-27.2	-27.0	16.9	1.90e-06	0	47	0	8531214336	26	13774
2026-01-27 21:59:14.92	250.19	15.02	-27.1	-27.0	16.9	1.90e-06	0	47	0	8866758656	26	13648
2026-01-27 21:59:17.94	251.02	15.19	-27.0	-26.8	16.7	1.90e-06	0	47	0	9202302976	25	14160
2026-01-27 21:59:20.96	251.86	15.35	-26.9	-26.8	16.7	0.00e+00	0	47	0	9554624512	25	14162
2026-01-27 21:59:23.99	252.72	15.51	-26.9	-26.8	16.5	1.90e-06	0	47	0	9890168832	25	14138
2026-01-27 21:59:27.01	253.58	15.67	-26.9	-26.7	16.4	0.00e+00	0	47	0	10225713152	25	14015
2026-01-27 21:59:30.03	254.45	15.82	-26.9	-26.7	16.2	0.00e+00	0	47	0	10561257472	25	14025
2026-01-27 21:59:33.04	255.33	15.96	-26.8	-26.6	16.1	9.50e-06	0	47	0	10905190400	25	13903
2026-01-27 21:59:36.05	256.22	16.11	-26.7	-26.5	15.9	1.90e-06	0	47	0	11240734720	25	13738
2026-01-27 21:59:39.07	257.12	16.24	-26.8	-26.6	15.6	1.90e-06	0	47	0	11584667648	25	13877
2026-01-27 21:59:42.09	258.03	16.37	-26.6	-26.5	15.6	1.90e-06	0	47	0	11928600576	25	13683
2026-01-27 21:59:45.11	258.95	16.50	-26.7	-26.5	15.7	1.90e-06	0	47	0	12264144896	25	13760
2026-01-27 21:59:48.14	259.88	16.62	-26.8	-26.6	15.5	1.90e-06	0	47	0	12599689216	25	13891
2026-01-27 21:59:51.15	260.82	16.74	-26.6	-26.4	15.7	1.90e-06	0	47	0	12935233536	25	13578
2026-01-27 21:59:54.18	261.76	16.84	-26.6	-26.4	15.9	3.80e-06	0	47	0	13287555072	25	13617
2026-01-27 21:59:57.20	262.71	16.95	-26.7	-26.5	16.0	1.90e-06	0	47	0	13623099392	25	13774
2026-01-27 22:00:00.22	263.67	17.04	-26.6	-26.5	16.1	1.90e-06	0	47	0	13958643712	25	13640
2026-01-27 22:00:03.24	264.64	17.13	-26.6	-26.4	16.3	0.00e+00	0	47	0	14302576640	25	13614
2026-01-27 22:00:06.26	265.61	17.21	-26.7	-26.5	16.4	0.00e+00	0	47	0	14646509568	25	13687
2026-01-27 22:00:09.29	266.59	17.29	-26.7	-26.5	16.5	0.00e+00	0	47	0	14982053888	25	13681
2026-01-27 22:00:12.31	267.57	17.36	-26.8	-26.6	16.8	0.00e+00	0	47	0	15325986816	25	13870
2026-01-27 22:00:15.33	268.56	17.42	-26.7	-26.5	16.9	0.00e+00	0	47	0	15661531136	25	13703
2026-01-27 22:00:18.36	269.55	17.47	-26.6	-26.5	17.2	0.00e+00	0	47	0	16005464064	25	13652
2026-01-27 22:00:21.39	270.55	17.52	-26.7	-26.5	17.3	1.90e-06	0	47	0	16349396992	25	13764
2026-01-27 22:00:24.41	271.55	17.56	-26.9	-26.7	17.5	0.00e+00	0	47	0	16684941312	25	13995
2026-01-27 22:00:27.44	272.55	17.59	-26.9	-26.7	17.8	0.00e+00	0	47	0	17020485632	25	14099
2026-01-27 22:00:30.46	273.56	17.62	-26.9	-26.7	18.1	0.00e+00	0	47	0	17372807168	25	14091
2026-01-27 22:00:33.48	274.56	17.63	-26.9	-26.7	18.4	0.00e+00	0	47	0	17708351488	25	14104
2026-01-27 22:00:36.50	275.56	17.64	-26.9	-26.7	18.6	0.00e+00	0	47	0	18043895808	25	14074
2026-01-27 22:00:39.52	276.57	17.64	-26.9	-26.8	18.9	0.00e+00	0	47	0	18379440128	25	14126
2026-01-27 22:00:42.54	277.57	17.64	-26.9	-26.8	19.1	0.00e+00	0	47	0	18723373056	25	14133
2026-01-27 22:00:45.56	278.58	17.62	-27.0	-26.8	19.3	0.00e+00	0	47	0	19067305984	25	14199
2026-01-27 22:00:48.57	279.58	17.60	-27.1	-26.9	19.4	0.00e+00	0	47	0	19402850304	25	14392
2026-01-27 22:00:51.59	280.58	17.57	-27.1	-27.0	19.5	0.00e+00	0	47	0	19746783232	25	14460
2026-01-27 22:00:54.62	281.58	17.53	-27.2	-27.0	19.7	0.00e+00	0	47	0	20082327552	25	14573
2026-01-27 22:00:57.65	282.58	17.49	-27.3	-27.1	19.8	0.00e+00	0	47	0	20417871872	25	14729
2026-01-27 22:01:00.67	283.57	17.44	-27.3	-27.2	19.8	0.00e+00	0	47	0	20770193408	25	14820
2026-01-27 22:01:03.69	284.56	17.38	-27.4	-27.2	19.8	0.00e+00	0	47	0	21105737728	25	14829
2026-01-27 22:01:06.71	285.54	17.31	-27.4	-27.2	19.8	0.00e+00	0	47	0	21441282048	25	14898
2026-01-27 22:01:09.73	286.52	17.24	-27.5	-27.3	19.6	0.00e+00	0	47	0	21776826368	25	15045
2026-01-27 22:01:12.75	287.49	17.16	-27.6	-27.4	19.4	0.00e+00	0	47	0	22120759296	25	15292
2026-01-27 22:01:15.77	288.46	17.07	-27.7	-27.5	19.4	0.00e+00	0	47	0	22464692224	25	15416
2026-01-27 22:01:18.79	289.41	16.98	-27.9	-27.7	19.3	0.00e+00	0	47	0	22800236544	26	14868
2026-01-27 22:01:21.81	290.37	16.87	-27.9	-27.7	19.1	0.00e+00	0	47	0	23144169472	26	14911
2026-01-27 22:01:24.84	291.31	16.77	-28.0	-27.8	18.8	0.00e+00	0	47	0	23479713792	26	15045
2026-01-27 22:01:27.86	292.25	16.66	-28.1	-27.9	18.4	0.00e+00	0	47	0	23832035328	26	15208
2026-01-27 22:01:30.89	293.18	16.54	-28.2	-28.0	18.4	0.00e+00	0	47	0	24167579648	26	15391
2026-01-27 22:01:33.91	294.10	16.41	-28.3	-28.2	18.3	0.00e+00	0	47	0	24503123968	27	14784
2026-01-27 22:01:36.93	295.02	16.28	-28.2	-28.1	18.3	0.00e+00	0	47	0	24838668288	27	14653
2026-01-27 22:01:39.95	295.92	16.15	-28.3	-28.2	18.1	0.00e+00	0	47	0	25174212608	27	14778
2026-01-27 22:01:42.97	296.81	16.01	-28.3	-28.2	17.9	1.90e-06	0	47	0	25526534144	27	14846
2026-01-27 22:01:46.00	297.70	15.86	-28.4	-28.2	17.8	0.00e+00	0	47	0	25862078464	27	14855
2026-01-27 22:01:49.02	298.57	15.71	-28.3	-28.2	17.9	0.00e+00	0	47	0	26197622784	27	14803
2026-01-27 22:01:52.04	299.44	15.56	-28.4	-28.2	18.2	0.00e+00	0	47	0	26541555712	27	14845
2026-01-27 22:01:55.06	300.29	15.40	-28.3	-28.2	18.4	0.00e+00	0	47	0	26877100032	27	14790
2026-01-27 22:01:58.08	301.13	15.24	-28.3	-28.1	18.3	0.00e+00	0	47	0	27229421568	27	14774
2026-01-27 22:02:01.10	301.97	15.07	-28.4	-28.3	18.3	0.00e+00	0	47	0	27564965888	27	14950
2026-01-27 22:02:04.12	302.79	14.90	-28.3	-28.2	18.6	0.00e+00	0	47	0	27900510208	27	14778
2026-01-27 22:02:07.13	303.60	14.73	-28.3	-28.2	18.4	0.00e+00	0	47	0	28236054528	27	14820
2026-01-27 22:02:10.16	304.40	14.56	-28.5	-28.3	18.3	0.00e+00	0	47	0	28571598848	27	15079
2026-01-27 22:02:13.17	305.19	14.38	-28.5	-28.4	18.3	0.00e+00	0	47	0	28923920384	27	15144
2026-01-27 22:02:16.20	305.97	14.20	-28.4	-28.3	18.5	0.00e+00	0	47	0	29259464704	28	14132
2026-01-27 22:02:19.23	306.74	14.01	-28.6	-28.4	18.4	0.00e+00	0	47	0	29595009024	28	14330
2026-01-27 22:02:22.24	307.50	13.83	-28.6	-28.4	18.4	0.00e+00	0	47	0	29938941952	28	14418
2026-01-27 22:02:25.27	308.24	13.64	-28.6	-28.4	18.4	0.00e+00	0	47	0	30282874880	28	14407
2026-01-27 22:02:28.29	308.98	13.45	-28.7	-28.6	18.2	0.00e+00	0	47	0	30626807808	28	14653
2026-01-27 22:02:31.30	309.70	13.25	-28.8	-28.6	18.1	0.00e+00	0	47	0	30962352128	28	14769
2026-01-27 22:02:34.33	310.42	13.06	-28.9	-28.7	18.0	0.00e+00	0	47	0	31297896448	28	14890
2026-01-27 22:02:37.35	311.12	12.86	-29.1	-28.9	17.8	0.00e+00	0	47	0	31633440768	28	15258
2026-01-27 22:02:40.37	311.81	12.67	-29.0	-28.9	17.8	3.80e-06	0	47	0	31985762304	29	14326
2026-01-27 22:02:43.40	312.50	12.47	-29.1	-28.9	17.8	0.00e+00	0	47	0	32321306624	29	14382
2026-01-27 22:02:46.42	313.17	12.27	-29.1	-29.0	17.8	1.90e-06	0	47	0	32656850944	29	14492
2026-01-27 22:02:49.45	313.83	12.07	-29.3	-29.2	17.7	0.00e+00	0	47	0	32992395264	29	14786
2026-01-27 22:02:52.47	314.48	11.87	-29.3	-29.1	17.7	0.00e+00	0	47	0	33344716800	29	14732
2026-01-27 22:02:55.49	315.12	11.66	-29.5	-29.4	17.6	1.90e-06	0	47	0	33680261120	29	15171
2026-01-27 22:02:58.52	315.76	11.46	-29.4	-29.3	17.6	1.90e-06	0	47	0	34024194048	29	14950
2026-01-27 22:03:01.51	316.37	11.26	-29.4	-29.3	17.6	0.00e+00	0	47	0	34359738368	29	15011
2026-01-27 22:03:04.53	316.98	11.05	-29.7	-29.5	17.5	1.90e-06	0	47	0	34695282688	29	15442
2026-01-27 22:03:07.54	317.58	10.85	-29.6	-29.5	17.7	1.90e-06	0	47	0	35030827008	30	14456
2026-01-27 22:03:10.57	318.17	10.65	-29.8	-29.6	17.6	1.90e-06	0	47	0	35383148544	30	14685
2026-01-27 22:03:13.60	318.75	10.44	-53.8	-55.9	6.2	0.00e+00	0	47	104	35399925760	78	19225
2026-01-27 22:03:16.63	319.33	10.24	-53.9	-56.0	6.2	0.00e+00	0	47	104	35399925760	78	19463
2026-01-27 22:03:19.64	319.89	10.03	-53.9	-56.0	6.2	0.00e+00	0	47	104	35399925760	78	19339
2026-01-27 22:03:22.66	320.44	9.83	-53.9	-56.0	6.2	0.00e+00	0	47	104	35399925760	78	19313
2026-01-27 22:03:25.69	320.99	9.62	-53.7	-55.8	6.2	0.00e+00	0	47	104	35399925760	78	18994
2026-01-27 22:03:28.71	321.52	9.42	-53.7	-55.8	6.2	0.00e+00	0	47	104	35399925760	78	18853
2026-01-27 22:03:31.73	322.05	9.21	-53.6	-55.7	6.2	0.00e+00	0	47	104	35399925760	78	18780
2026-01-27 22:03:34.75	322.57	9.01	-53.6	-55.7	6.2	0.00e+00	0	47	104	35399925760	78	18799
2026-01-27 22:03:37.77	323.08	8.81	-53.5	-55.6	6.2	0.00e+00	0	47	104	35399925760	78	18521
2026-01-27 22:03:40.80	323.58	8.61	-53.5	-55.6	6.2	0.00e+00	0	47	104	35399925760	78	18431
2026-01-27 22:03:43.81	324.08	8.40	-53.4	-55.5	6.2	0.00e+00	0	47	104	35399925760	78	18312
2026-01-27 22:03:46.83	324.56	8.20	-53.4	-55.5	6.2	0.00e+00	0	46	104	35399925760	78	18385
2026-01-27 22:03:49.86	325.04	8.00	-53.4	-55.4	6.2	0.00e+00	0	46	104	35399925760	78	18121
2026-01-27 22:03:52.88	325.51	7.80	-53.3	-55.4	6.2	0.00e+00	0	46	104	35399925760	78	18126
2026-01-27 22:03:55.89	325.97	7.60	-53.3	-55.4	6.2	0.00e+00	0	47	104	35399925760	78	18099
2026-01-27 22:03:58.91	326.43	7.40	-53.3	-55.5	6.2	0.00e+00	0	47	104	35399925760	78	18187
2026-01-27 22:04:01.92	326.88	7.20	-53.2	-55.3	6.2	0.00e+00	0	46	104	35399925760	78	17910
2026-01-27 22:04:04.93	327.32	7.01	-53.2	-55.3	6.2	0.00e+00	0	47	104	35399925760	78	17890
2026-01-27 22:04:07.95	327.75	6.81	-53.2	-55.3	6.2	0.00e+00	0	46	104	35399925760	78	17836
2026-01-27 22:04:10.97	328.18	6.61	-53.2	-55.3	6.2	0.00e+00	0	47	104	35399925760	78	17939
2026-01-27 22:04:13.99	328.60	6.42	-53.1	-55.2	6.2	0.00e+00	0	46	104	35399925760	78	17665
2026-01-27 22:04:17.01	329.01	6.22	-53.1	-55.2	6.2	0.00e+00	0	47	104	35399925760	78	17618
2026-01-27 22:04:20.02	329.42	6.03	-53.0	-55.2	6.2	0.00e+00	0	46	104	35399925760	78	17563
2026-01-27 22:04:23.04	329.82	5.84	-53.1	-55.2	6.2	0.00e+00	0	47	104	35399925760	78	17682
2026-01-27 22:04:26.06	330.22	5.65	-52.9	-55.0	6.2	0.00e+00	0	46	104	35399925760	77	18322
2026-01-27 22:04:29.07	330.61	5.45	-52.9	-55.0	6.2	0.00e+00	0	47	104	35399925760	77	18273
2026-01-27 22:04:32.09	330.99	5.26	-52.8	-54.9	6.2	0.00e+00	0	47	104	35399925760	77	18110
2026-01-27 22:04:35.12	331.37	5.07	-52.9	-55.0	6.2	0.00e+00	0	46	104	35399925760	77	18341
2026-01-27 22:04:38.14	331.74	4.89	-53.6	-55.7	6.2	0.00e+00	0	46	104	35399925760	77	19834
2026-01-27 22:04:41.17	332.11	4.70	-54.3	-56.4	6.2	0.00e+00	0	46	104	35399925760	79	19085
2026-01-27 22:04:44.19	332.47	4.51	-54.4	-56.5	6.2	0.00e+00	0	47	104	35399925760	79	19319
2026-01-27 22:04:47.21	332.82	4.32	-54.2	-56.3	6.2	0.00e+00	0	46	104	35399925760	79	18863
2026-01-27 22:04:50.24	333.17	4.14	-54.1	-56.2	6.2	0.00e+00	0	46	104	35399925760	79	18724
2026-01-27 22:04:53.26	333.52	3.95	-54.2	-56.2	6.2	0.00e+00	0	46	104	35399925760	79	18789
2026-01-27 22:04:56.28	333.86	3.77	-54.2	-56.2	6.2	0.00e+00	0	46	104	35399925760	79	18796
2026-01-27 22:04:59.31	334.19	3.59	-54.1	-56.2	6.2	0.00e+00	0	46	104	35399925760	79	18791
2026-01-27 22:05:02.31	334.52	3.41	-54.1	-56.2	6.2	0.00e+00	0	46	104	35399925760	79	18640
2026-01-27 22:05:05.32	334.85	3.23	-54.1	-56.1	6.2	0.00e+00	0	46	104	35399925760	79	18552
2026-01-27 22:05:08.34	335.17	3.05	-54.0	-56.1	6.2	0.00e+00	0	46	104	35399925760	79	18597
2026-01-27 22:05:11.36	335.48	2.87	-54.0	-56.1	6.2	0.00e+00	0	47	104	35399925760	79	18446
2026-01-27 22:05:14.38	335.79	2.69	-54.0	-56.1	6.2	0.00e+00	0	46	104	35399925760	79	18438
2026-01-27 22:05:17.41	336.10	2.51	-54.0	-56.1	6.2	0.00e+00	0	47	104	35399925760	79	18460
2026-01-27 22:05:20.42	336.40	2.34	-54.0	-56.1	6.2	0.00e+00	0	46	104	35399925760	79	18456
2026-01-27 22:05:23.44	336.70	2.16	-54.0	-56.0	6.2	0.00e+00	0	47	104	35399925760	79	18373
2026-01-27 22:05:26.47	337.00	1.99	-53.9	-56.0	6.2	0.00e+00	0	46	104	35399925760	79	18386

#Closed at: 2026-01-27 22:05:27
#Recorded file [35399 MB]: D:/lorett/data/31041_260128_005552.dat