passes_logs/2026/01/27/R3.2S_Murmansk/R3.2S_Murmansk__20260127_042657_NOAA_20_JPSS-1_rec.log

#Pass ID: 20260127_042657_NOAA 20 (JPSS-1)
#Satellite: NOAA 20 (JPSS-1)
#Configuration: NOAA 20
#almurnet v.1.7.20251203
#Start time: 2026-01-27 04:26:57

#Version: 2.2.20231116
#Station: R3.2S_Murmansk
#Location: 33.079688 lon 68.888172 lat
#TLE: 1 43013U 17073A   26026.46665230  .00000148  00000+0  91302-4 0  9998
#TLE: 2 43013  98.7646 327.2856 0001008  22.9532 337.1688 14.19540616424360

#Time	Az	El	Level	Level2	SNR	BER	BlckErr	Temp	State	Recorded	gain1	gain2
2026-01-27 04:26:57.27	52.34	1.99	-54.0	-69.0	3.8	1.49e+00	0	41	0	0	79	20318
2026-01-27 04:27:01.29	52.09	2.22	-53.9	-68.9	3.8	1.49e+00	0	41	104	0	78	21395
2026-01-27 04:27:05.32	51.84	2.45	-54.0	-69.0	3.8	1.49e+00	0	41	104	0	78	21513
2026-01-27 04:27:09.35	51.58	2.69	-54.1	-69.1	3.8	1.49e+00	0	41	104	0	78	21886
2026-01-27 04:27:13.38	51.31	2.92	-54.1	-69.1	3.8	1.49e+00	0	41	104	0	78	21785
2026-01-27 04:27:17.41	51.05	3.16	-53.9	-68.9	3.8	1.49e+00	0	41	104	0	78	21273
2026-01-27 04:27:21.44	50.77	3.39	-53.7	-68.6	3.8	1.49e+00	0	42	104	0	78	20744
2026-01-27 04:27:25.47	50.50	3.63	-53.1	-68.0	3.8	1.49e+00	0	42	104	0	78	19273
2026-01-27 04:27:29.51	50.21	3.87	-52.1	-66.9	3.8	1.49e+00	0	42	104	0	76	19053
2026-01-27 04:27:33.53	49.93	4.11	-52.0	-64.9	3.9	1.49e+00	0	42	104	0	76	15115
2026-01-27 04:27:37.57	49.63	4.36	-51.9	-64.7	3.8	1.46e+00	0	42	104	0	75	15599
2026-01-27 04:27:41.60	49.33	4.60	-51.6	-61.0	5.2	6.75e-01	0	42	0	2097152	75	10293
2026-01-27 04:27:45.63	49.03	4.85	-50.8	-56.9	8.8	3.51e-02	0	42	0	9437184	73	7162
2026-01-27 04:27:49.66	48.72	5.09	-49.0	-52.0	13.9	4.25e-02	0	42	0	16777216	70	4858
2026-01-27 04:27:53.69	48.41	5.34	-48.9	-52.0	14.3	2.20e-06	0	42	0	22020096	68	5461
2026-01-27 04:27:57.71	48.09	5.59	-48.4	-51.0	15.2	0.00e+00	0	42	0	29360128	68	4862
2026-01-27 04:28:01.74	47.77	5.84	-48.0	-50.5	15.7	0.00e+00	0	42	0	36700160	67	4838
2026-01-27 04:28:05.77	47.43	6.10	-48.1	-50.6	15.7	0.00e+00	0	42	0	44040192	67	4894
2026-01-27 04:28:09.81	47.10	6.35	-47.9	-50.2	16.1	7.00e-07	0	42	0	52428800	67	4697
2026-01-27 04:28:13.84	46.75	6.61	-47.8	-50.2	16.2	0.00e+00	0	42	0	59768832	67	4656
2026-01-27 04:28:17.87	46.40	6.87	-47.8	-50.0	16.3	0.00e+00	0	42	0	67108864	67	4581
2026-01-27 04:28:21.89	46.05	7.12	-47.7	-49.9	16.4	0.00e+00	0	43	0	74448896	67	4520
2026-01-27 04:28:25.91	45.69	7.38	-47.8	-50.1	16.2	0.00e+00	0	42	0	82837504	66	4890
2026-01-27 04:28:29.94	45.32	7.65	-47.8	-50.0	16.4	0.00e+00	0	42	0	90177536	66	4854
2026-01-27 04:28:33.97	44.94	7.91	-47.7	-49.9	16.6	0.00e+00	0	42	0	97517568	66	4773
2026-01-27 04:28:38.00	44.55	8.18	-47.8	-50.0	16.4	0.00e+00	0	43	0	104857600	66	4854
2026-01-27 04:28:42.02	44.16	8.44	-47.8	-50.0	16.5	0.00e+00	0	43	0	112197632	66	4823
2026-01-27 04:28:46.05	43.77	8.71	-47.8	-50.0	16.4	0.00e+00	0	42	0	120586240	66	4859
2026-01-27 04:28:50.08	43.36	8.98	-47.6	-49.7	16.8	0.00e+00	0	43	0	127926272	66	4652
2026-01-27 04:28:54.11	42.94	9.25	-47.2	-49.1	17.4	0.00e+00	0	43	0	135266304	66	4372
2026-01-27 04:28:58.13	42.52	9.53	-47.3	-49.2	17.4	0.00e+00	0	43	0	142606336	66	4415
2026-01-27 04:29:02.16	42.09	9.80	-47.1	-49.0	17.6	0.00e+00	0	43	0	149946368	66	4305
2026-01-27 04:29:06.19	41.65	10.08	-47.3	-49.3	17.3	0.00e+00	0	43	0	158334976	66	4452
2026-01-27 04:29:10.23	41.21	10.35	-47.3	-49.2	17.4	0.00e+00	0	43	0	165675008	66	4422
2026-01-27 04:29:14.26	40.75	10.63	-47.4	-49.3	17.3	0.00e+00	0	43	0	173015040	66	4482
2026-01-27 04:29:18.28	40.28	10.91	-47.4	-49.4	17.2	0.00e+00	0	43	0	180355072	66	4510
2026-01-27 04:29:22.32	39.81	11.19	-47.3	-49.2	17.3	0.00e+00	0	43	0	187695104	66	4440
2026-01-27 04:29:26.35	39.32	11.48	-47.3	-49.2	17.4	0.00e+00	0	43	0	196083712	66	4432
2026-01-27 04:29:30.38	38.83	11.76	-47.1	-49.0	17.6	0.00e+00	0	43	0	203423744	66	4328
2026-01-27 04:29:34.41	38.33	12.04	-47.0	-48.8	17.9	0.00e+00	0	43	0	210763776	65	4458
2026-01-27 04:29:38.44	37.81	12.33	-46.8	-48.5	18.2	0.00e+00	0	43	0	218103808	65	4311
2026-01-27 04:29:42.48	37.29	12.62	-46.5	-48.2	18.6	0.00e+00	0	43	0	226492416	65	4151
2026-01-27 04:29:46.50	36.75	12.91	-46.7	-48.4	18.4	0.00e+00	0	43	0	233832448	65	4247
2026-01-27 04:29:50.52	36.21	13.19	-46.6	-48.3	18.6	0.00e+00	0	43	0	241172480	65	4195
2026-01-27 04:29:54.55	35.65	13.48	-46.5	-48.1	18.7	0.00e+00	0	43	0	248512512	64	4368
2026-01-27 04:29:58.59	35.08	13.77	-46.2	-47.8	19.0	0.00e+00	0	43	0	255852544	64	4208
2026-01-27 04:30:02.61	34.51	14.06	-46.2	-47.8	19.1	0.00e+00	0	43	0	264241152	64	4204
2026-01-27 04:30:06.65	33.91	14.36	-46.1	-47.6	19.2	0.00e+00	0	43	0	271581184	64	4126
2026-01-27 04:30:10.67	33.31	14.65	-46.1	-47.6	19.2	0.00e+00	0	43	0	278921216	64	4139
2026-01-27 04:30:14.69	32.70	14.94	-46.4	-47.9	18.9	0.00e+00	0	43	0	286261248	64	4278
2026-01-27 04:30:18.72	32.07	15.23	-46.4	-48.0	18.9	0.00e+00	0	43	0	293601280	64	4310
2026-01-27 04:30:22.76	31.43	15.52	-46.5	-48.1	18.8	0.00e+00	0	43	0	300941312	64	4366
2026-01-27 04:30:26.79	30.78	15.81	-46.7	-48.3	18.6	0.00e+00	0	43	0	309329920	64	4491
2026-01-27 04:30:30.81	30.11	16.10	-46.7	-48.4	18.5	0.00e+00	0	43	0	316669952	64	4500
2026-01-27 04:30:34.84	29.43	16.39	-46.7	-48.3	18.6	0.00e+00	0	43	0	324009984	64	4465
2026-01-27 04:30:38.87	28.74	16.68	-46.8	-48.5	18.5	0.00e+00	0	43	0	331350016	64	4564
2026-01-27 04:30:42.90	28.03	16.97	-46.9	-48.6	18.4	0.00e+00	0	43	0	339738624	64	4600
2026-01-27 04:30:46.93	27.31	17.26	-46.9	-48.6	18.4	0.00e+00	0	43	0	347078656	64	4624
2026-01-27 04:30:50.97	26.58	17.55	-46.9	-48.6	18.4	0.00e+00	0	43	0	354418688	64	4606
2026-01-27 04:30:54.99	25.83	17.83	-46.8	-48.5	18.5	0.00e+00	0	43	0	361758720	64	4578
2026-01-27 04:30:59.03	25.07	18.11	-46.8	-48.4	18.6	0.00e+00	0	43	0	369098752	64	4528
2026-01-27 04:31:03.05	24.29	18.39	-46.6	-48.2	18.8	0.00e+00	0	43	0	377487360	64	4396
2026-01-27 04:31:07.09	23.50	18.67	-46.0	-47.5	19.5	0.00e+00	0	43	0	384827392	64	4066
2026-01-27 04:31:11.12	22.69	18.95	-45.8	-47.2	19.9	0.00e+00	0	43	0	392167424	63	4162
2026-01-27 04:31:15.15	21.87	19.22	-45.1	-46.4	20.6	0.00e+00	0	43	0	399507456	62	4018
2026-01-27 04:31:19.18	21.03	19.49	-45.0	-46.2	20.8	0.00e+00	0	43	0	406847488	61	4186
2026-01-27 04:31:23.21	20.18	19.75	-44.9	-46.1	21.0	0.00e+00	0	43	0	415236096	61	4105
2026-01-27 04:31:27.23	19.32	20.01	-44.8	-46.0	21.1	0.00e+00	0	43	0	422576128	61	4061
2026-01-27 04:31:31.27	18.43	20.27	-44.7	-45.9	21.2	0.00e+00	0	43	0	429916160	61	4013
2026-01-27 04:31:35.29	17.54	20.52	-44.6	-45.7	21.4	0.00e+00	0	43	0	437256192	61	3951
2026-01-27 04:31:39.32	16.63	20.77	-44.5	-45.6	21.5	0.00e+00	0	43	0	444596224	60	4134
2026-01-27 04:31:43.35	15.70	21.01	-44.4	-45.6	21.5	0.00e+00	0	43	0	452984832	60	4110
2026-01-27 04:31:47.37	14.77	21.24	-44.6	-45.8	21.3	0.00e+00	0	43	0	460324864	60	4201
2026-01-27 04:31:51.40	13.81	21.47	-44.8	-46.0	21.1	0.00e+00	0	43	0	467664896	60	4297
2026-01-27 04:31:55.42	12.85	21.69	-44.7	-45.9	21.2	0.00e+00	0	43	0	475004928	60	4276
2026-01-27 04:31:59.44	11.87	21.91	-44.3	-45.4	21.6	0.00e+00	0	43	0	482344960	60	4036
2026-01-27 04:32:03.48	10.87	22.12	-44.2	-45.3	21.7	0.00e+00	0	43	0	490733568	60	4001
2026-01-27 04:32:07.50	9.86	22.32	-44.1	-45.2	21.8	0.00e+00	0	43	0	498073600	60	3953
2026-01-27 04:32:11.53	8.84	22.51	-44.3	-45.4	22.0	0.00e+00	0	43	0	505413632	59	4251
2026-01-27 04:32:15.56	7.80	22.69	-44.4	-45.5	21.9	0.00e+00	0	43	0	512753664	59	4331
2026-01-27 04:32:19.58	6.76	22.87	-44.3	-45.4	22.0	0.00e+00	0	43	0	520093696	59	4254
2026-01-27 04:32:23.61	5.70	23.04	-44.4	-45.5	21.6	0.00e+00	0	43	0	528482304	60	4074
2026-01-27 04:32:27.64	4.63	23.19	-44.3	-45.4	21.7	0.00e+00	0	43	0	535822336	60	4044
2026-01-27 04:32:31.66	3.55	23.34	-44.4	-45.5	21.6	0.00e+00	0	43	0	543162368	60	4073
2026-01-27 04:32:35.68	2.47	23.47	-45.4	-46.7	20.5	0.00e+00	0	43	0	550502400	61	4398
2026-01-27 04:32:39.71	1.37	23.60	-45.4	-46.6	20.6	0.00e+00	0	43	0	557842432	61	4381
2026-01-27 04:32:43.73	0.26	23.71	-45.7	-47.0	20.2	0.00e+00	0	43	0	566231040	61	4579
2026-01-27 04:32:47.76	359.15	23.81	-45.8	-47.1	20.1	0.00e+00	0	43	0	573571072	62	4372
2026-01-27 04:32:51.78	358.03	23.91	-45.9	-47.3	19.9	0.00e+00	0	43	0	580911104	62	4478
2026-01-27 04:32:55.80	356.90	23.99	-46.3	-47.7	19.5	0.00e+00	0	43	0	588251136	63	4436
2026-01-27 04:32:59.82	355.77	24.05	-46.4	-47.9	19.3	0.00e+00	0	43	0	595591168	63	4528
2026-01-27 04:33:03.85	354.63	24.11	-46.0	-47.3	19.9	0.00e+00	0	43	0	603979776	63	4237
2026-01-27 04:33:07.88	353.49	24.15	-46.3	-47.8	19.5	0.00e+00	0	43	0	611319808	63	4450
2026-01-27 04:33:11.90	352.35	24.18	-46.2	-47.6	19.7	0.00e+00	0	43	0	618659840	63	4385
2026-01-27 04:33:15.94	351.20	24.20	-46.0	-47.4	19.9	0.00e+00	0	43	0	625999872	63	4253
2026-01-27 04:33:19.97	350.05	24.21	-45.7	-47.1	20.2	0.00e+00	0	43	0	633339904	63	4103
2026-01-27 04:33:23.99	348.91	24.20	-45.5	-46.8	20.4	0.00e+00	0	43	0	641728512	63	4004
2026-01-27 04:33:28.01	347.76	24.18	-45.2	-46.4	20.8	0.00e+00	0	43	0	649068544	62	4024
2026-01-27 04:33:32.04	346.62	24.15	-45.2	-46.4	20.8	0.00e+00	0	43	0	656408576	61	4272
2026-01-27 04:33:36.07	345.47	24.11	-44.8	-45.9	21.3	0.00e+00	0	43	0	663748608	61	4048
2026-01-27 04:33:40.10	344.34	24.05	-44.4	-45.5	21.7	0.00e+00	0	43	0	671088640	60	4068
2026-01-27 04:33:44.12	343.20	23.99	-44.3	-45.4	22.1	0.00e+00	0	43	0	679477248	59	4268
2026-01-27 04:33:48.15	342.08	23.91	-44.1	-45.1	22.3	0.00e+00	0	43	0	686817280	59	4141
2026-01-27 04:33:52.17	340.96	23.81	-44.1	-45.1	22.3	0.00e+00	0	43	0	694157312	59	4126
2026-01-27 04:33:56.19	339.84	23.71	-43.9	-45.0	22.4	0.00e+00	0	43	0	701497344	59	4068
2026-01-27 04:34:00.22	338.74	23.60	-44.3	-45.4	22.0	0.00e+00	0	43	0	708837376	59	4286
2026-01-27 04:34:04.25	337.64	23.47	-44.3	-45.5	22.0	0.00e+00	0	43	0	717225984	59	4295
2026-01-27 04:34:08.28	336.55	23.34	-44.6	-45.8	21.7	0.00e+00	0	43	0	724566016	59	4459
2026-01-27 04:34:12.31	335.47	23.19	-44.6	-45.8	21.4	0.00e+00	0	43	0	731906048	60	4225
2026-01-27 04:34:16.34	334.40	23.04	-44.9	-46.1	21.1	0.00e+00	0	43	0	739246080	60	4347
2026-01-27 04:34:20.35	333.34	22.87	-44.9	-46.1	21.1	0.00e+00	0	43	0	746586112	60	4357
2026-01-27 04:34:24.38	332.29	22.70	-45.4	-46.6	20.6	0.00e+00	0	43	0	754974720	61	4375
2026-01-27 04:34:28.40	331.26	22.51	-45.5	-46.8	20.4	0.00e+00	0	43	0	762314752	61	4450
2026-01-27 04:34:32.42	330.24	22.32	-45.6	-46.9	20.3	0.00e+00	0	43	0	769654784	61	4499
2026-01-27 04:34:36.45	329.23	22.12	-45.8	-47.1	20.1	0.00e+00	0	43	0	776994816	62	4388
2026-01-27 04:34:40.49	328.23	21.91	-46.1	-47.5	19.7	0.00e+00	0	43	0	784334848	62	4558
2026-01-27 04:34:44.51	327.25	21.70	-45.7	-47.0	20.2	0.00e+00	0	43	0	792723456	62	4333
2026-01-27 04:34:48.53	326.29	21.47	-46.1	-47.6	19.6	0.00e+00	0	43	0	800063488	62	4619
2026-01-27 04:34:52.56	325.33	21.24	-46.0	-47.4	19.9	0.00e+00	0	43	0	807403520	62	4499
2026-01-27 04:34:56.59	324.39	21.01	-45.7	-47.0	20.2	0.00e+00	0	43	0	814743552	62	4319
2026-01-27 04:35:00.62	323.46	20.77	-45.8	-47.1	20.1	0.00e+00	0	43	0	822083584	62	4369
2026-01-27 04:35:04.64	322.56	20.52	-45.4	-46.7	20.5	0.00e+00	0	43	0	830472192	62	4184
2026-01-27 04:35:08.67	321.66	20.27	-45.4	-46.6	20.5	0.00e+00	0	43	0	837812224	62	4143
2026-01-27 04:35:12.70	320.78	20.01	-45.5	-46.8	20.4	0.00e+00	0	43	0	845152256	62	4200
2026-01-27 04:35:16.72	319.91	19.75	-45.4	-46.7	20.5	0.00e+00	0	43	0	852492288	62	4153
2026-01-27 04:35:20.75	319.06	19.49	-45.5	-46.8	20.4	0.00e+00	0	43	0	859832320	62	4210
2026-01-27 04:35:24.77	318.23	19.22	-45.4	-46.7	20.5	0.00e+00	0	43	0	868220928	62	4159
2026-01-27 04:35:28.81	317.40	18.95	-45.4	-46.7	20.4	0.00e+00	0	43	0	875560960	62	4176
2026-01-27 04:35:32.84	316.60	18.67	-45.5	-46.9	20.3	0.00e+00	0	43	0	882900992	62	4255
2026-01-27 04:35:36.86	315.81	18.39	-45.7	-47.1	20.1	0.00e+00	0	43	0	890241024	62	4360
2026-01-27 04:35:40.89	315.03	18.11	-45.5	-46.8	20.3	0.00e+00	0	43	0	897581056	62	4236
2026-01-27 04:35:44.92	314.26	17.83	-45.4	-46.7	20.4	0.00e+00	0	43	0	905969664	62	4162
2026-01-27 04:35:48.94	313.52	17.55	-45.3	-46.5	20.5	0.00e+00	0	43	0	913309696	62	4097
2026-01-27 04:35:52.97	312.78	17.26	-45.3	-46.6	20.4	0.00e+00	0	43	0	920649728	62	4134
2026-01-27 04:35:56.99	312.06	16.97	-44.6	-45.8	21.2	0.00e+00	0	43	0	927989760	61	3979
2026-01-27 04:36:01.03	311.35	16.68	-44.7	-46.0	21.0	0.00e+00	0	43	0	935329792	61	4063
2026-01-27 04:36:05.05	310.66	16.40	-44.9	-46.1	20.9	0.00e+00	0	43	0	943718400	61	4138
2026-01-27 04:36:09.07	309.99	16.11	-44.6	-45.8	21.2	0.00e+00	0	43	0	951058432	61	3960
2026-01-27 04:36:13.09	309.32	15.82	-44.5	-45.7	21.3	0.00e+00	0	43	0	958398464	60	4162
2026-01-27 04:36:17.12	308.67	15.52	-44.7	-45.8	21.1	0.00e+00	0	43	0	965738496	60	4240
2026-01-27 04:36:21.16	308.02	15.23	-44.6	-45.8	21.1	0.00e+00	0	43	0	973078528	60	4211
2026-01-27 04:36:25.19	307.40	14.94	-44.6	-45.8	21.1	0.00e+00	0	43	0	981467136	60	4208
2026-01-27 04:36:29.22	306.78	14.65	-44.8	-46.0	20.9	0.00e+00	0	43	0	988807168	60	4329
2026-01-27 04:36:33.25	306.18	14.36	-44.8	-46.1	20.8	0.00e+00	0	43	0	996147200	60	4356
2026-01-27 04:36:37.28	305.58	14.07	-45.0	-46.2	20.7	0.00e+00	0	43	0	1003487232	60	4430
2026-01-27 04:36:41.31	305.00	13.77	-45.4	-46.7	20.2	0.00e+00	0	43	0	1010827264	61	4423
2026-01-27 04:36:45.33	304.44	13.48	-45.5	-46.8	20.1	0.00e+00	0	43	0	1019215872	61	4484
2026-01-27 04:36:49.36	303.88	13.20	-45.3	-46.6	20.3	0.00e+00	0	43	0	1026555904	61	4381
2026-01-27 04:36:53.37	303.34	12.91	-45.3	-46.7	20.2	0.00e+00	0	43	0	1033895936	61	4406
2026-01-27 04:36:57.40	302.80	12.62	-45.8	-47.3	19.7	0.00e+00	0	43	0	1041235968	62	4449
2026-01-27 04:37:01.42	302.28	12.33	-45.7	-47.1	19.8	0.00e+00	0	43	0	1048576000	62	4344
2026-01-27 04:37:05.45	301.76	12.05	-45.7	-47.2	19.6	0.00e+00	0	43	0	1056964608	62	4406
2026-01-27 04:37:09.47	301.26	11.76	-46.0	-47.4	19.4	0.00e+00	0	43	0	1064304640	62	4537
2026-01-27 04:37:13.50	300.77	11.48	-45.9	-47.3	19.5	0.00e+00	0	43	0	1071644672	62	4474
2026-01-27 04:37:17.53	300.28	11.20	-46.1	-47.6	19.3	0.00e+00	0	43	0	1078984704	62	4612
2026-01-27 04:37:21.57	299.80	10.91	-46.3	-47.9	18.9	0.00e+00	0	43	0	1086324736	63	4539
2026-01-27 04:37:25.59	299.34	10.64	-46.4	-48.1	18.7	0.00e+00	0	43	0	1094713344	63	4603
2026-01-27 04:37:29.61	298.88	10.36	-46.3	-47.8	18.9	0.00e+00	0	43	0	1102053376	63	4487
2026-01-27 04:37:33.65	298.43	10.08	-46.2	-47.7	19.1	0.00e+00	0	43	0	1109393408	63	4436
2026-01-27 04:37:37.67	297.99	9.80	-46.5	-48.2	18.6	0.00e+00	0	43	0	1116733440	63	4653
2026-01-27 04:37:41.70	297.56	9.53	-46.7	-48.5	18.2	0.00e+00	0	43	0	1124073472	64	4564
2026-01-27 04:37:45.73	297.14	9.26	-46.9	-48.7	17.9	0.00e+00	0	43	0	1132462080	64	4674
2026-01-27 04:37:49.74	296.73	8.99	-47.0	-48.8	17.8	0.00e+00	0	43	0	1139802112	64	4747
2026-01-27 04:37:53.77	296.32	8.72	-47.1	-49.1	17.5	0.00e+00	0	43	0	1147142144	64	4876
2026-01-27 04:37:57.79	295.92	8.45	-47.4	-49.4	17.2	0.00e+00	0	43	0	1154482176	65	4764
2026-01-27 04:38:01.81	295.53	8.18	-47.4	-49.4	17.2	0.00e+00	0	43	0	1161822208	65	4785
2026-01-27 04:38:05.84	295.15	7.92	-46.9	-48.8	17.7	0.00e+00	0	43	0	1170210816	65	4462
2026-01-27 04:38:09.87	294.77	7.65	-47.3	-49.3	17.3	0.00e+00	0	43	0	1177550848	65	4711
2026-01-27 04:38:13.90	294.40	7.39	-47.5	-49.5	17.0	0.00e+00	0	43	0	1184890880	65	4853
2026-01-27 04:38:17.93	294.03	7.13	-47.6	-49.7	16.8	0.00e+00	0	43	0	1192230912	65	4950
2026-01-27 04:38:21.95	293.68	6.87	-47.8	-50.0	16.4	0.00e+00	0	43	0	1199570944	66	4867
2026-01-27 04:38:25.98	293.33	6.61	-48.0	-50.3	16.1	0.00e+00	0	43	0	1207959552	66	5014
2026-01-27 04:38:30.01	292.98	6.35	-48.0	-50.3	16.1	0.00e+00	0	43	0	1215299584	66	5033
2026-01-27 04:38:34.03	292.64	6.10	-48.1	-50.5	15.9	0.00e+00	0	43	0	1222639616	66	5131
2026-01-27 04:38:38.06	292.31	5.85	-48.2	-50.8	15.6	7.00e-07	0	43	0	1229979648	67	4990
2026-01-27 04:38:42.09	291.99	5.60	-48.3	-51.0	15.3	0.00e+00	0	43	0	1237319680	67	5103
2026-01-27 04:38:46.12	291.67	5.35	-48.5	-51.2	15.0	0.00e+00	0	43	0	1245708288	67	5277
2026-01-27 04:38:50.15	291.35	5.10	-48.6	-51.3	14.9	0.00e+00	0	43	0	1253048320	67	5340
2026-01-27 04:38:54.17	291.04	4.85	-53.1	-67.9	3.8	1.49e+00	0	43	104	1256194048	76	21264
2026-01-27 04:38:58.20	290.74	4.60	-53.1	-67.9	3.8	1.49e+00	0	43	104	1256194048	76	21459
2026-01-27 04:39:02.23	290.44	4.36	-53.1	-67.9	3.8	1.49e+00	0	43	104	1256194048	76	21446
2026-01-27 04:39:06.25	290.15	4.12	-53.1	-68.0	3.8	1.49e+00	0	43	104	1256194048	76	21510
2026-01-27 04:39:10.29	289.86	3.88	-53.1	-67.9	3.8	1.49e+00	0	43	104	1256194048	76	21481
2026-01-27 04:39:14.32	289.58	3.64	-53.1	-67.9	3.8	1.49e+00	0	43	104	1256194048	76	21453
2026-01-27 04:39:18.34	289.30	3.40	-53.1	-67.9	3.8	1.49e+00	0	43	104	1256194048	76	21384
2026-01-27 04:39:22.38	289.02	3.16	-53.1	-68.0	3.8	1.49e+00	0	43	104	1256194048	76	21511
2026-01-27 04:39:26.41	288.75	2.92	-53.0	-68.0	3.8	1.49e+00	0	43	104	1256194048	76	21593
2026-01-27 04:39:30.44	288.49	2.69	-53.0	-68.0	3.8	1.49e+00	0	43	104	1256194048	76	21585
2026-01-27 04:39:34.47	288.23	2.46	-53.0	-68.0	3.8	1.49e+00	0	43	104	1256194048	76	21570
2026-01-27 04:39:38.51	287.97	2.22	-53.0	-68.0	3.8	1.49e+00	0	43	104	1256194048	76	21579
2026-01-27 04:39:42.53	287.72	1.99	-53.0	-67.9	3.8	1.49e+00	0	43	104	1256194048	76	21484

#Closed at: 2026-01-27 04:39:44
#Recorded file [1256 MB]: D:/lorett/data/31041_260127_072657.dat