passes_logs/2026/01/27/R3.2S_Murmansk/R3.2S_Murmansk__20260127_045038_KANOPUS-V_5_rec.log

#Pass ID: 20260127_045038_KANOPUS-V 5
#Satellite: KANOPUS-V 5
#Configuration: KANOPUS-V_8320
#almurnet v.1.7.20251203
#Start time: 2026-01-27 04:50:39

#Version: 2.2.20231116
#Station: R3.2S_Murmansk
#Location: 33.079688 lon 68.888172 lat
#TLE: 1 43876U 18111A   26026.53344362  .00004964  00000+0  21063-3 0  9993
#TLE: 2 43876  97.3674 294.8392 0001826  89.2862 270.8585 15.23550007393227

#Time	Az	El	Level	Level2	SNR	BER	BlckErr	Temp	State	Recorded	gain1	gain2
2026-01-27 04:50:39.13	83.17	2.03	-54.8	-63.6	3.8	7.45e-01	0	41	0	0	80	10347
2026-01-27 04:50:42.14	82.86	2.21	-54.8	-63.6	3.8	7.45e-01	0	41	104	0	80	10369
2026-01-27 04:50:45.16	82.54	2.38	-54.8	-63.6	3.8	7.46e-01	0	41	104	0	80	10367
2026-01-27 04:50:48.19	82.21	2.56	-54.9	-63.8	3.8	7.45e-01	0	42	104	0	80	10550
2026-01-27 04:50:51.21	81.88	2.74	-54.9	-63.7	3.8	7.45e-01	0	42	104	0	80	10503
2026-01-27 04:50:54.23	81.55	2.92	-54.8	-63.6	3.8	7.45e-01	0	42	104	0	80	10392
2026-01-27 04:50:57.25	81.20	3.10	-54.6	-63.5	3.8	7.44e-01	0	42	104	0	80	10197
2026-01-27 04:51:00.28	80.86	3.28	-54.4	-63.3	3.8	7.47e-01	0	42	104	0	80	9949
2026-01-27 04:51:03.30	80.50	3.47	-54.0	-62.8	3.8	7.44e-01	0	42	104	0	79	10020
2026-01-27 04:51:06.32	80.14	3.65	-53.4	-62.2	3.8	7.46e-01	0	42	104	0	78	9848
2026-01-27 04:51:09.34	79.78	3.83	-53.0	-61.9	3.8	7.45e-01	0	42	104	0	78	9541
2026-01-27 04:51:12.37	79.41	4.02	-53.0	-61.8	3.8	7.45e-01	0	42	104	0	78	9460
2026-01-27 04:51:15.39	79.03	4.20	-53.0	-61.8	3.8	7.46e-01	0	42	104	0	78	9495
2026-01-27 04:51:18.41	78.65	4.39	-53.0	-61.8	3.8	7.45e-01	0	42	104	0	78	9494
2026-01-27 04:51:21.44	78.25	4.57	-52.7	-60.6	3.8	7.45e-01	0	42	104	0	77	8742
2026-01-27 04:51:24.45	77.86	4.76	-52.6	-60.1	3.8	7.45e-01	0	42	104	0	77	8270
2026-01-27 04:51:27.48	77.45	4.95	-51.2	-56.3	5.0	7.07e-01	0	43	0	2097152	74	6303
2026-01-27 04:51:30.50	77.05	5.14	-51.0	-55.8	5.3	6.93e-01	0	43	0	48234496	72	6712
2026-01-27 04:51:33.52	76.63	5.32	-47.4	-50.2	10.5	6.08e-01	0	42	0	83886080	65	5267
2026-01-27 04:51:36.54	76.20	5.51	-44.6	-46.8	13.8	5.99e-01	0	43	0	113246208	60	4740
2026-01-27 04:51:39.55	75.77	5.70	-44.5	-46.8	13.8	6.01e-01	0	43	0	157286400	60	4720
2026-01-27 04:51:42.57	75.34	5.89	-44.4	-46.7	13.9	6.01e-01	0	43	0	203423744	60	4665
2026-01-27 04:51:45.59	74.89	6.09	-44.2	-46.4	14.3	5.83e-01	0	43	0	249561088	60	4522
2026-01-27 04:51:48.62	74.44	6.28	-44.2	-46.4	14.3	5.84e-01	0	43	0	295698432	60	4509
2026-01-27 04:51:51.64	73.97	6.47	-44.2	-46.3	14.4	5.86e-01	0	43	0	343932928	60	4476
2026-01-27 04:51:54.66	73.50	6.66	-45.2	-46.3	14.5	5.84e-01	0	43	0	390070272	61	4200
2026-01-27 04:51:57.68	73.03	6.86	-53.3	-62.1	3.8	7.44e-01	0	43	104	398458880	77	10380
2026-01-27 04:52:00.71	72.54	7.05	-53.3	-62.1	3.8	7.45e-01	0	43	104	398458880	77	10360
2026-01-27 04:52:03.73	72.05	7.24	-53.3	-62.1	3.8	7.46e-01	0	43	104	398458880	77	10388
2026-01-27 04:52:06.75	71.54	7.44	-53.4	-62.2	3.8	7.45e-01	0	43	104	398458880	77	10506
2026-01-27 04:52:09.77	71.03	7.63	-53.3	-62.2	3.8	7.46e-01	0	43	104	398458880	77	10413
2026-01-27 04:52:12.80	70.51	7.83	-53.4	-62.2	3.8	7.45e-01	0	43	104	398458880	77	10487
2026-01-27 04:52:15.82	69.98	8.02	-53.3	-62.2	3.8	7.44e-01	0	43	104	398458880	77	10471
2026-01-27 04:52:18.84	69.45	8.22	-53.4	-62.3	3.8	7.45e-01	0	43	104	398458880	77	10577
2026-01-27 04:52:21.86	68.90	8.41	-53.4	-62.2	3.8	7.45e-01	0	43	104	398458880	77	10458
2026-01-27 04:52:24.88	68.34	8.61	-53.4	-62.2	3.8	7.47e-01	0	43	104	398458880	77	10498
2026-01-27 04:52:27.88	67.78	8.80	-53.4	-62.2	3.8	7.45e-01	0	43	104	398458880	77	10497
2026-01-27 04:52:30.90	67.21	8.99	-53.5	-62.3	3.8	7.45e-01	0	43	104	398458880	77	10618
2026-01-27 04:52:33.92	66.62	9.19	-53.4	-62.2	3.8	7.45e-01	0	43	104	398458880	77	10526
2026-01-27 04:52:36.94	66.03	9.38	-53.5	-62.3	3.8	7.46e-01	0	43	104	398458880	77	10573
2026-01-27 04:52:39.96	65.42	9.57	-53.4	-62.3	3.8	7.47e-01	0	43	104	398458880	77	10554
2026-01-27 04:52:42.99	64.81	9.77	-53.6	-62.4	3.8	7.43e-01	0	43	104	398458880	77	10692
2026-01-27 04:52:46.01	64.18	9.96	-53.5	-62.3	3.8	7.46e-01	0	43	104	398458880	77	10601
2026-01-27 04:52:49.03	63.55	10.15	-53.5	-62.3	3.8	7.46e-01	0	43	104	398458880	77	10648
2026-01-27 04:52:52.05	62.90	10.34	-53.5	-62.3	3.8	7.44e-01	0	43	104	398458880	77	10600
2026-01-27 04:52:55.08	62.24	10.53	-53.6	-62.4	3.8	7.44e-01	0	43	104	398458880	77	10763
2026-01-27 04:52:58.09	61.58	10.71	-53.5	-62.3	3.8	7.45e-01	0	43	104	398458880	77	10644
2026-01-27 04:53:01.12	60.90	10.90	-53.6	-62.4	3.8	7.46e-01	0	43	104	398458880	77	10736
2026-01-27 04:53:04.14	60.21	11.08	-53.5	-62.4	3.8	7.44e-01	0	43	104	398458880	77	10687
2026-01-27 04:53:07.16	59.51	11.27	-53.6	-62.5	3.8	7.45e-01	0	43	104	398458880	77	10782
2026-01-27 04:53:10.18	58.80	11.45	-53.6	-62.4	3.8	7.45e-01	0	43	104	398458880	77	10741
2026-01-27 04:53:13.20	58.08	11.63	-53.6	-62.4	3.8	7.44e-01	0	43	104	398458880	77	10746
2026-01-27 04:53:16.22	57.35	11.80	-53.6	-62.5	3.8	7.45e-01	0	43	104	398458880	77	10779
2026-01-27 04:53:19.23	56.62	11.98	-53.6	-62.5	3.8	7.46e-01	0	43	104	398458880	77	10811
2026-01-27 04:53:22.25	55.86	12.15	-53.6	-62.4	3.8	7.46e-01	0	43	104	398458880	77	10767
2026-01-27 04:53:25.27	55.10	12.32	-53.6	-62.5	3.8	7.46e-01	0	43	104	398458880	77	10807
2026-01-27 04:53:28.29	54.33	12.49	-53.6	-62.4	3.8	7.45e-01	0	43	104	398458880	77	10774
2026-01-27 04:53:31.31	53.54	12.65	-53.7	-62.5	3.8	7.45e-01	0	44	104	398458880	77	10825
2026-01-27 04:53:34.33	52.75	12.81	-53.7	-62.5	3.8	7.44e-01	0	43	104	398458880	77	10796
2026-01-27 04:53:37.36	51.94	12.97	-53.7	-62.5	3.8	7.45e-01	0	44	104	398458880	77	10840
2026-01-27 04:53:40.38	51.12	13.13	-53.7	-62.5	3.8	7.46e-01	0	43	104	398458880	77	10818
2026-01-27 04:53:43.40	50.30	13.28	-53.7	-62.5	3.8	7.45e-01	0	44	104	398458880	78	10284
2026-01-27 04:53:46.42	49.46	13.42	-53.7	-62.5	3.8	7.44e-01	0	44	104	398458880	78	10263
2026-01-27 04:53:49.44	48.61	13.57	-53.7	-62.5	3.8	7.44e-01	0	43	104	398458880	78	10257
2026-01-27 04:53:52.46	47.76	13.70	-53.7	-62.5	3.8	7.45e-01	0	43	104	398458880	78	10252
2026-01-27 04:53:55.48	46.89	13.84	-53.7	-62.5	3.8	7.44e-01	0	44	104	398458880	78	10275
2026-01-27 04:53:58.49	46.02	13.97	-53.7	-62.6	3.8	7.44e-01	0	44	104	398458880	78	10296
2026-01-27 04:54:01.52	45.13	14.09	-53.7	-62.5	3.8	7.46e-01	0	44	104	398458880	78	10277
2026-01-27 04:54:04.54	44.24	14.21	-53.7	-62.5	3.8	7.44e-01	0	44	104	398458880	78	10260
2026-01-27 04:54:07.56	43.34	14.32	-53.7	-62.6	3.8	7.45e-01	0	43	104	398458880	78	10304
2026-01-27 04:54:10.59	42.43	14.43	-53.7	-62.6	3.8	7.46e-01	0	43	104	398458880	78	10295
2026-01-27 04:54:13.60	41.51	14.53	-53.7	-62.5	3.8	7.46e-01	0	43	104	398458880	78	10229
2026-01-27 04:54:16.62	40.59	14.63	-53.7	-62.6	3.8	7.44e-01	0	43	104	398458880	78	10318
2026-01-27 04:54:19.65	39.66	14.72	-53.7	-62.6	3.8	7.45e-01	0	43	104	398458880	78	10311
2026-01-27 04:54:22.67	38.72	14.80	-53.7	-62.6	3.8	7.45e-01	0	44	104	398458880	78	10324
2026-01-27 04:54:25.70	37.77	14.88	-53.7	-62.5	3.8	7.43e-01	0	43	104	398458880	78	10279
2026-01-27 04:54:28.72	36.82	14.95	-53.7	-62.5	3.8	7.44e-01	0	44	104	398458880	78	10241
2026-01-27 04:54:31.74	35.87	15.02	-53.6	-62.6	3.8	7.46e-01	0	43	104	398458880	78	10294
2026-01-27 04:54:34.77	34.90	15.08	-53.8	-62.6	3.8	7.44e-01	0	43	104	398458880	78	10348
2026-01-27 04:54:37.79	33.94	15.13	-53.7	-62.6	3.8	7.47e-01	0	44	104	398458880	78	10299
2026-01-27 04:54:40.82	32.97	15.17	-53.6	-62.6	3.8	7.45e-01	0	43	104	398458880	78	10296
2026-01-27 04:54:43.84	32.00	15.21	-53.6	-62.6	3.8	7.46e-01	0	43	104	398458880	78	10305
2026-01-27 04:54:46.87	31.02	15.24	-53.7	-62.6	3.8	7.44e-01	0	44	104	398458880	78	10362
2026-01-27 04:54:49.89	30.05	15.26	-53.6	-62.6	3.8	7.45e-01	0	44	104	398458880	78	10302
2026-01-27 04:54:52.91	29.07	15.28	-53.5	-62.6	3.8	7.45e-01	0	44	104	398458880	78	10301
2026-01-27 04:54:55.94	28.09	15.29	-53.6	-62.5	3.8	7.44e-01	0	44	104	398458880	78	10267
2026-01-27 04:54:58.96	27.12	15.29	-49.2	-62.5	3.8	7.46e-01	0	44	104	398458880	70	16132
2026-01-27 04:55:01.98	26.14	15.28	-53.2	-62.5	3.8	7.45e-01	0	44	104	398458880	77	10872
2026-01-27 04:55:05.01	25.16	15.27	-53.6	-62.6	3.8	7.45e-01	0	44	104	398458880	77	10918
2026-01-27 04:55:08.04	24.18	15.25	-53.7	-62.5	3.8	7.46e-01	0	44	104	398458880	78	10256
2026-01-27 04:55:11.06	23.21	15.22	-53.8	-62.6	3.8	7.45e-01	0	44	104	398458880	78	10332
2026-01-27 04:55:14.09	22.23	15.18	-53.7	-62.6	3.8	7.45e-01	0	44	104	398458880	78	10331
2026-01-27 04:55:17.11	21.27	15.14	-53.7	-62.6	3.8	7.45e-01	0	44	104	398458880	78	10333
2026-01-27 04:55:20.13	20.30	15.09	-53.7	-62.5	3.8	7.45e-01	0	44	104	398458880	78	10288
2026-01-27 04:55:23.15	19.34	15.04	-53.8	-62.6	3.8	7.45e-01	0	44	104	398458880	78	10382
2026-01-27 04:55:26.17	18.39	14.98	-53.7	-62.5	3.8	7.45e-01	0	43	104	398458880	78	10282
2026-01-27 04:55:29.19	17.44	14.91	-53.7	-62.5	3.8	7.45e-01	0	43	104	398458880	78	10292
2026-01-27 04:55:32.21	16.49	14.83	-53.7	-62.6	3.8	7.46e-01	0	44	104	398458880	78	10322
2026-01-27 04:55:35.24	15.55	14.75	-53.8	-62.6	3.8	7.46e-01	0	44	104	398458880	78	10309
2026-01-27 04:55:38.25	14.62	14.66	-53.7	-62.6	3.8	7.43e-01	0	44	104	398458880	78	10321
2026-01-27 04:55:41.27	13.69	14.57	-53.7	-62.5	3.8	7.46e-01	0	44	104	398458880	78	10264
2026-01-27 04:55:44.30	12.77	14.46	-53.7	-62.5	3.8	7.44e-01	0	44	104	398458880	78	10270
2026-01-27 04:55:47.32	11.86	14.36	-53.7	-62.5	3.8	7.46e-01	0	44	104	398458880	78	10264
2026-01-27 04:55:50.34	10.96	14.25	-53.7	-62.5	3.8	7.44e-01	0	44	104	398458880	78	10247
2026-01-27 04:55:53.36	10.07	14.13	-53.7	-62.5	3.8	7.45e-01	0	44	104	398458880	78	10236
2026-01-27 04:55:56.38	9.18	14.01	-53.7	-62.5	3.8	7.46e-01	0	44	104	398458880	78	10202
2026-01-27 04:55:59.41	8.30	13.88	-53.7	-62.5	3.8	7.44e-01	0	44	104	398458880	78	10275
2026-01-27 04:56:02.43	7.44	13.75	-53.7	-62.5	3.8	7.46e-01	0	44	104	398458880	78	10280
2026-01-27 04:56:05.45	6.58	13.61	-53.7	-62.5	3.8	7.46e-01	0	44	104	398458880	78	10263
2026-01-27 04:56:08.46	5.73	13.47	-53.6	-62.5	3.8	7.44e-01	0	43	104	398458880	78	10208
2026-01-27 04:56:11.49	4.89	13.33	-53.7	-62.5	3.8	7.45e-01	0	44	104	398458880	78	10230
2026-01-27 04:56:14.51	4.06	13.18	-53.7	-62.5	3.8	7.45e-01	0	44	104	398458880	78	10246
2026-01-27 04:56:17.54	3.24	13.03	-53.6	-62.5	3.8	7.46e-01	0	44	104	398458880	78	10180
2026-01-27 04:56:20.56	2.44	12.87	-53.6	-62.4	3.8	7.46e-01	0	43	104	398458880	78	10148
2026-01-27 04:56:23.59	1.64	12.71	-53.6	-62.4	3.8	7.46e-01	0	44	104	398458880	78	10141
2026-01-27 04:56:26.61	0.85	12.55	-53.6	-62.4	3.8	7.44e-01	0	44	104	398458880	78	10148
2026-01-27 04:56:29.63	0.08	12.38	-53.6	-62.4	3.8	7.44e-01	0	43	104	398458880	78	10150
2026-01-27 04:56:32.66	359.31	12.21	-53.6	-62.4	3.8	7.44e-01	0	43	104	398458880	78	10106
2026-01-27 04:56:35.69	358.55	12.04	-53.6	-62.4	3.8	7.45e-01	0	44	104	398458880	78	10076
2026-01-27 04:56:38.71	357.81	11.87	-53.6	-62.4	3.8	7.46e-01	0	44	104	398458880	78	10162
2026-01-27 04:56:41.73	357.08	11.69	-53.6	-62.4	3.8	7.43e-01	0	44	104	398458880	78	10117
2026-01-27 04:56:44.75	356.35	11.51	-53.5	-62.3	3.8	7.46e-01	0	44	104	398458880	78	10035
2026-01-27 04:56:47.77	355.64	11.33	-53.5	-62.4	3.8	7.46e-01	0	44	104	398458880	78	10063
2026-01-27 04:56:50.79	354.94	11.15	-53.5	-62.4	3.8	7.45e-01	0	44	104	398458880	78	10065
2026-01-27 04:56:53.81	354.26	10.97	-53.5	-62.4	3.8	7.45e-01	0	44	104	398458880	78	10066
2026-01-27 04:56:56.84	353.57	10.78	-53.5	-62.3	3.8	7.45e-01	0	44	104	398458880	78	10010
2026-01-27 04:56:59.85	352.91	10.59	-53.5	-62.3	3.8	7.45e-01	0	44	104	398458880	78	10007
2026-01-27 04:57:02.88	352.25	10.41	-53.5	-62.3	3.8	7.45e-01	0	44	104	398458880	78	10057
2026-01-27 04:57:05.90	351.60	10.22	-53.5	-62.3	3.8	7.45e-01	0	44	104	398458880	78	9998
2026-01-27 04:57:08.92	350.97	10.03	-53.4	-62.3	3.8	7.45e-01	0	44	104	398458880	78	9975
2026-01-27 04:57:11.95	350.34	9.84	-53.4	-62.2	3.8	7.44e-01	0	44	104	398458880	78	9898
2026-01-27 04:57:14.97	349.72	9.64	-53.5	-62.3	3.8	7.44e-01	0	44	104	398458880	78	9974
2026-01-27 04:57:17.99	349.12	9.45	-53.4	-62.2	3.8	7.44e-01	0	44	104	398458880	78	9919
2026-01-27 04:57:21.02	348.52	9.26	-53.4	-62.2	3.8	7.46e-01	0	44	104	398458880	78	9872
2026-01-27 04:57:24.03	347.94	9.07	-53.3	-62.1	3.8	7.46e-01	0	44	104	398458880	78	9805
2026-01-27 04:57:27.06	347.36	8.87	-53.4	-62.2	3.8	7.45e-01	0	44	104	398458880	78	9904
2026-01-27 04:57:30.08	346.79	8.68	-53.3	-62.1	3.8	7.46e-01	0	44	104	398458880	78	9817
2026-01-27 04:57:33.09	346.24	8.49	-53.3	-62.1	3.8	7.44e-01	0	44	104	398458880	78	9763
2026-01-27 04:57:36.12	345.69	8.29	-53.3	-62.1	3.8	7.46e-01	0	44	104	398458880	78	9777
2026-01-27 04:57:39.14	345.15	8.10	-53.3	-62.1	3.8	7.45e-01	0	44	104	398458880	78	9802
2026-01-27 04:57:42.16	344.62	7.90	-53.3	-62.1	3.8	7.46e-01	0	44	104	398458880	78	9797
2026-01-27 04:57:45.19	344.10	7.71	-53.3	-62.1	3.8	7.45e-01	0	44	104	398458880	78	9752
2026-01-27 04:57:48.21	343.58	7.51	-53.2	-62.0	3.8	7.44e-01	0	43	104	398458880	78	9680
2026-01-27 04:57:51.23	343.08	7.32	-53.2	-62.1	3.8	7.46e-01	0	44	104	398458880	78	9741
2026-01-27 04:57:54.26	342.58	7.13	-53.2	-62.1	3.8	7.45e-01	0	44	104	398458880	78	9760
2026-01-27 04:57:57.28	342.10	6.93	-53.2	-62.0	3.8	7.45e-01	0	44	104	398458880	78	9639
2026-01-27 04:58:00.30	341.62	6.74	-53.1	-62.0	3.8	7.45e-01	0	44	104	398458880	78	9608
2026-01-27 04:58:03.32	341.15	6.55	-53.2	-62.0	3.8	7.44e-01	0	44	104	398458880	78	9687
2026-01-27 04:58:06.35	340.69	6.36	-53.2	-62.0	3.8	7.45e-01	0	44	104	398458880	78	9615
2026-01-27 04:58:09.37	340.23	6.16	-53.1	-61.9	3.8	7.46e-01	0	44	104	398458880	78	9548
2026-01-27 04:58:12.39	339.79	5.97	-52.9	-61.7	3.8	7.45e-01	0	44	104	398458880	77	9942
2026-01-27 04:58:15.41	339.35	5.78	-53.0	-61.8	3.8	7.44e-01	0	44	104	398458880	77	10010
2026-01-27 04:58:18.43	338.92	5.59	-53.0	-61.8	3.8	7.46e-01	0	44	104	398458880	77	10034
2026-01-27 04:58:21.45	338.49	5.40	-52.9	-61.7	3.8	7.46e-01	0	44	104	398458880	77	9905
2026-01-27 04:58:24.47	338.07	5.21	-52.8	-61.6	3.8	7.46e-01	0	44	104	398458880	77	9809
2026-01-27 04:58:27.50	337.66	5.03	-53.0	-61.8	3.8	7.43e-01	0	44	104	398458880	77	10026
2026-01-27 04:58:30.52	337.26	4.84	-53.8	-62.6	3.8	7.43e-01	0	44	104	398458880	78	10398
2026-01-27 04:58:33.55	336.86	4.65	-54.2	-63.0	3.8	7.45e-01	0	44	104	398458880	78	10809
2026-01-27 04:58:36.57	336.47	4.47	-54.3	-63.1	3.8	7.46e-01	0	43	104	398458880	79	10305
2026-01-27 04:58:39.60	336.09	4.28	-54.1	-63.0	3.8	7.46e-01	0	44	104	398458880	79	10179
2026-01-27 04:58:42.62	335.71	4.09	-54.0	-62.8	3.8	7.45e-01	0	44	104	398458880	79	10045
2026-01-27 04:58:45.64	335.34	3.91	-54.1	-63.0	3.8	7.47e-01	0	44	104	398458880	79	10178
2026-01-27 04:58:48.67	334.97	3.73	-54.1	-63.0	3.8	7.45e-01	0	44	104	398458880	79	10196
2026-01-27 04:58:51.69	334.61	3.54	-54.1	-62.9	3.8	7.46e-01	0	44	104	398458880	79	10103
2026-01-27 04:58:54.71	334.26	3.36	-54.1	-62.9	3.8	7.47e-01	0	43	104	398458880	79	10118
2026-01-27 04:58:57.74	333.91	3.18	-54.1	-62.9	3.8	7.44e-01	0	44	104	398458880	79	10125
2026-01-27 04:59:00.77	333.57	3.00	-54.1	-62.9	3.8	7.44e-01	0	44	104	398458880	79	10113
2026-01-27 04:59:03.79	333.23	2.82	-54.1	-62.9	3.8	7.45e-01	0	43	104	398458880	79	10086
2026-01-27 04:59:06.81	332.90	2.64	-54.1	-62.9	3.8	7.46e-01	0	44	104	398458880	79	10134
2026-01-27 04:59:09.83	332.57	2.47	-54.1	-62.9	3.8	7.47e-01	0	43	104	398458880	79	10116
2026-01-27 04:59:12.85	332.25	2.29	-54.0	-62.9	3.8	7.45e-01	0	44	104	398458880	79	10111
2026-01-27 04:59:15.88	331.94	2.11	-54.0	-62.9	3.8	7.44e-01	0	44	104	398458880	79	10069
2026-01-27 04:59:18.90	331.63	1.94	-54.0	-62.9	3.8	7.46e-01	0	44	104	398458880	79	10097

#Closed at: 2026-01-27 04:59:19
#Recorded file [398 MB]: D:/lorett/data/31041_260127_075038.dat