passes_logs/2026/01/27/R3.2S_Murmansk/R3.2S_Murmansk__20260127_100113_FENGYUN_3D_rec.log

#Pass ID: 20260127_100113_FENGYUN 3D
#Satellite: FENGYUN 3D
#Configuration: FENGYUN 3D
#almurnet v.1.7.20251203
#Start time: 2026-01-27 10:01:12

#Version: 2.2.20231116
#Station: R3.2S_Murmansk
#Location: 33.079688 lon 68.888172 lat
#TLE: 1 43010U 17072A   26026.49129444  .00000151  00000+0  93391-4 0  9993
#TLE: 2 43010  98.9962 358.4866 0002525  88.1664 271.9801 14.19700337424889

#Time	Az	El	Level	Level2	SNR	BER	BlckErr	Temp	State	Recorded	gain1	gain2
2026-01-27 10:01:12.70	115.37	1.98	-54.0	-65.9	3.8	8.45e-01	0	41	0	0	79	14339
2026-01-27 10:01:16.72	115.23	2.23	-53.9	-65.9	3.8	8.47e-01	0	41	104	0	78	15123
2026-01-27 10:01:20.75	115.10	2.49	-53.9	-65.9	3.8	8.46e-01	0	41	104	0	78	15066
2026-01-27 10:01:24.78	114.95	2.74	-54.2	-66.1	3.8	8.47e-01	0	41	104	0	78	15544
2026-01-27 10:01:28.81	114.81	3.00	-54.1	-66.0	3.8	8.45e-01	0	41	104	0	78	15393
2026-01-27 10:01:32.84	114.66	3.26	-53.9	-65.9	3.8	8.47e-01	0	41	104	0	78	15126
2026-01-27 10:01:36.88	114.51	3.52	-53.8	-65.7	3.8	8.46e-01	0	41	104	0	78	14861
2026-01-27 10:01:40.91	114.36	3.79	-53.6	-65.6	3.8	8.46e-01	0	41	104	0	78	14582
2026-01-27 10:01:44.95	114.20	4.06	-53.4	-65.3	3.8	8.46e-01	0	42	104	0	78	14197
2026-01-27 10:01:48.97	114.05	4.32	-53.0	-65.0	3.8	8.46e-01	0	42	104	0	78	13573
2026-01-27 10:01:53.01	113.88	4.60	-46.0	-47.6	15.5	0.00e+00	0	42	0	2097152	63	4352
2026-01-27 10:01:57.03	113.72	4.87	-44.5	-45.9	17.2	0.00e+00	0	42	0	24117248	60	4264
2026-01-27 10:02:01.06	113.55	5.15	-46.6	-48.4	15.0	0.00e+00	0	42	0	47185920	63	4776
2026-01-27 10:02:05.09	113.38	5.43	-44.1	-45.3	18.3	0.00e+00	0	42	0	69206016	59	4215
2026-01-27 10:02:09.13	113.20	5.71	-43.7	-44.9	18.6	0.00e+00	0	42	0	92274688	59	4022
2026-01-27 10:02:13.17	113.02	6.00	-43.6	-44.8	18.8	0.00e+00	0	42	0	115343360	58	4203
2026-01-27 10:02:17.20	112.84	6.29	-43.3	-44.4	19.2	0.00e+00	0	42	0	137363456	58	4039
2026-01-27 10:02:21.22	112.65	6.58	-43.3	-44.3	19.4	0.00e+00	0	42	0	160432128	58	3996
2026-01-27 10:02:25.25	112.46	6.87	-43.2	-44.3	19.5	0.00e+00	0	42	0	183500800	58	3973
2026-01-27 10:02:29.29	112.26	7.17	-43.4	-44.5	19.3	0.00e+00	0	42	0	205520896	58	4081
2026-01-27 10:02:33.32	112.06	7.47	-43.2	-44.3	19.5	0.00e+00	0	42	0	228589568	58	3971
2026-01-27 10:02:37.35	111.86	7.78	-43.0	-44.1	19.7	0.00e+00	0	42	0	251658240	58	3881
2026-01-27 10:02:41.37	111.65	8.08	-42.8	-43.9	19.9	0.00e+00	0	42	0	273678336	57	4021
2026-01-27 10:02:45.41	111.43	8.39	-42.8	-43.9	20.0	0.00e+00	0	42	0	296747008	57	4013
2026-01-27 10:02:49.45	111.21	8.71	-42.9	-44.0	19.9	0.00e+00	0	42	0	318767104	57	4063
2026-01-27 10:02:53.49	110.99	9.03	-42.7	-43.7	20.2	0.00e+00	0	42	0	341835776	57	3950
2026-01-27 10:02:57.53	110.76	9.35	-42.7	-43.7	20.2	0.00e+00	0	42	0	364904448	57	3937
2026-01-27 10:03:01.57	110.53	9.68	-42.6	-43.6	20.3	0.00e+00	0	42	0	386924544	57	3882
2026-01-27 10:03:05.59	110.29	10.00	-42.5	-43.5	20.4	0.00e+00	0	42	0	409993216	56	4090
2026-01-27 10:03:09.62	110.04	10.34	-42.3	-43.3	20.6	0.00e+00	0	42	0	433061888	56	3962
2026-01-27 10:03:13.65	109.79	10.67	-42.1	-43.0	20.9	0.00e+00	0	42	0	455081984	56	3866
2026-01-27 10:03:17.68	109.53	11.01	-42.0	-43.0	20.9	0.00e+00	0	43	0	478150656	56	3843
2026-01-27 10:03:21.70	109.27	11.36	-41.8	-42.7	21.1	0.00e+00	0	43	0	501219328	55	3949
2026-01-27 10:03:25.73	108.99	11.71	-41.5	-42.4	21.3	0.00e+00	0	42	0	523239424	55	3807
2026-01-27 10:03:29.76	108.72	12.06	-41.4	-42.3	21.5	0.00e+00	0	42	0	546308096	54	3990
2026-01-27 10:03:33.80	108.43	12.42	-41.4	-42.3	21.5	0.00e+00	0	43	0	568328192	54	3982
2026-01-27 10:03:37.82	108.14	12.78	-41.3	-42.2	21.7	0.00e+00	0	42	0	591396864	54	3920
2026-01-27 10:03:41.85	107.84	13.15	-41.3	-42.2	21.7	0.00e+00	0	42	0	614465536	54	3914
2026-01-27 10:03:45.88	107.53	13.52	-41.2	-42.1	21.7	0.00e+00	0	43	0	636485632	54	3898
2026-01-27 10:03:49.91	107.21	13.90	-41.2	-42.0	21.8	0.00e+00	0	42	0	659554304	54	3868
2026-01-27 10:03:53.94	106.89	14.28	-41.0	-41.9	21.9	0.00e+00	0	43	0	681574400	54	3806
2026-01-27 10:03:57.97	106.56	14.67	-40.9	-41.8	22.0	0.00e+00	0	43	0	704643072	53	3963
2026-01-27 10:04:02.00	106.21	15.06	-40.8	-41.6	22.2	0.00e+00	0	42	0	727711744	53	3911
2026-01-27 10:04:06.03	105.86	15.46	-40.4	-41.2	22.5	0.00e+00	0	43	0	749731840	52	3947
2026-01-27 10:04:10.05	105.50	15.86	-40.3	-41.2	22.6	0.00e+00	0	43	0	772800512	52	3920
2026-01-27 10:04:14.09	105.13	16.27	-40.5	-41.3	22.5	0.00e+00	0	42	0	794820608	52	3988
2026-01-27 10:04:18.11	104.74	16.68	-40.5	-41.3	22.5	0.00e+00	0	43	0	817889280	52	3992
2026-01-27 10:04:22.14	104.35	17.10	-40.3	-41.1	22.9	0.00e+00	0	43	0	840957952	52	3884
2026-01-27 10:04:26.17	103.94	17.53	-40.1	-40.8	23.3	0.00e+00	0	43	0	862978048	51	3996
2026-01-27 10:04:30.20	103.53	17.96	-40.0	-40.7	23.4	0.00e+00	0	43	0	886046720	51	3947
2026-01-27 10:04:34.23	103.10	18.40	-39.9	-40.6	23.5	0.00e+00	0	43	0	909115392	51	3905
2026-01-27 10:04:38.26	102.65	18.84	-39.9	-40.7	23.4	0.00e+00	0	42	0	931135488	51	3915
2026-01-27 10:04:42.26	102.20	19.29	-39.6	-40.4	23.7	0.00e+00	0	43	0	954204160	51	3797
2026-01-27 10:04:46.29	101.73	19.75	-39.5	-40.3	23.8	0.00e+00	0	43	0	976224256	51	3738
2026-01-27 10:04:50.31	101.24	20.21	-39.5	-40.3	23.8	0.00e+00	0	43	0	999292928	50	3971
2026-01-27 10:04:54.34	100.74	20.68	-39.2	-39.9	24.1	0.00e+00	0	43	0	1021313024	50	3802
2026-01-27 10:04:58.37	100.23	21.15	-39.2	-39.9	24.1	0.00e+00	0	43	0	1044381696	50	3821
2026-01-27 10:05:02.40	99.69	21.63	-39.2	-39.9	24.2	0.00e+00	0	43	0	1067450368	50	3800
2026-01-27 10:05:06.44	99.14	22.12	-39.3	-40.0	24.1	0.00e+00	0	43	0	1089470464	50	3841
2026-01-27 10:05:10.46	98.57	22.62	-38.7	-39.4	24.6	0.00e+00	0	43	0	1112539136	49	3806
2026-01-27 10:05:14.49	97.98	23.12	-38.6	-39.3	24.7	0.00e+00	0	43	0	1134559232	49	3752
2026-01-27 10:05:18.52	97.38	23.63	-38.8	-39.5	24.5	0.00e+00	0	43	0	1157627904	49	3867
2026-01-27 10:05:22.55	96.75	24.14	-38.8	-39.5	24.6	0.00e+00	0	43	0	1180696576	49	3835
2026-01-27 10:05:26.59	96.10	24.66	-38.7	-39.4	24.6	0.00e+00	0	43	0	1202716672	49	3815
2026-01-27 10:05:30.63	95.42	25.19	-38.7	-39.4	24.7	0.00e+00	0	43	0	1225785344	49	3798
2026-01-27 10:05:34.65	94.73	25.72	-38.5	-39.2	24.8	0.00e+00	0	43	0	1248854016	49	3729
2026-01-27 10:05:38.68	94.01	26.26	-38.3	-39.0	25.0	0.00e+00	0	43	0	1270874112	48	3860
2026-01-27 10:05:42.71	93.27	26.81	-38.7	-39.4	24.7	0.00e+00	0	43	0	1293942784	48	4016
2026-01-27 10:05:46.74	92.50	27.36	-38.5	-39.2	24.8	0.00e+00	0	43	0	1317011456	48	3935
2026-01-27 10:05:50.77	91.70	27.91	-38.1	-38.8	25.2	0.00e+00	0	43	0	1339031552	48	3774
2026-01-27 10:05:54.80	90.87	28.47	-38.2	-38.9	25.1	0.00e+00	0	43	0	1361051648	48	3797
2026-01-27 10:05:58.82	90.02	29.03	-38.3	-39.0	25.1	0.00e+00	0	43	0	1384120320	48	3850
2026-01-27 10:06:02.86	89.13	29.60	-38.2	-39.0	25.1	0.00e+00	0	43	0	1407188992	48	3830
2026-01-27 10:06:06.88	88.21	30.17	-38.0	-38.7	25.3	0.00e+00	0	43	0	1429209088	48	3735
2026-01-27 10:06:10.91	87.25	30.75	-38.1	-38.8	25.3	0.00e+00	0	43	0	1452277760	48	3764
2026-01-27 10:06:14.94	86.27	31.32	-37.6	-38.4	25.2	0.00e+00	0	43	0	1475346432	47	3783
2026-01-27 10:06:18.97	85.24	31.90	-37.7	-38.4	25.2	0.00e+00	0	43	0	1497366528	47	3790
2026-01-27 10:06:23.01	84.18	32.48	-37.6	-38.3	25.2	0.00e+00	0	43	0	1520435200	47	3775
2026-01-27 10:06:27.04	83.07	33.06	-37.7	-38.4	25.1	0.00e+00	0	43	0	1543503872	47	3822
2026-01-27 10:06:31.07	81.93	33.63	-37.5	-38.2	25.3	0.00e+00	0	43	0	1565523968	47	3727
2026-01-27 10:06:35.09	80.75	34.20	-37.2	-37.9	25.6	0.00e+00	0	43	0	1588592640	46	3815
2026-01-27 10:06:39.12	79.53	34.77	-37.4	-38.2	25.4	0.00e+00	0	43	0	1611661312	46	3914
2026-01-27 10:06:43.14	78.26	35.34	-37.3	-38.0	25.5	0.00e+00	0	43	0	1633681408	46	3867
2026-01-27 10:06:47.16	76.95	35.89	-37.4	-38.1	25.5	0.00e+00	0	43	0	1656750080	46	3883
2026-01-27 10:06:51.19	75.59	36.44	-37.7	-38.4	25.2	0.00e+00	0	43	0	1678770176	46	4038
2026-01-27 10:06:55.22	74.19	36.98	-38.0	-38.8	24.9	0.00e+00	0	43	0	1701838848	46	4203
2026-01-27 10:06:59.24	72.74	37.50	-37.7	-38.4	25.2	0.00e+00	0	43	0	1723858944	46	4034
2026-01-27 10:07:03.27	71.24	38.02	-37.7	-38.4	25.2	0.00e+00	0	43	0	1746927616	46	4025
2026-01-27 10:07:07.30	69.69	38.52	-37.9	-38.6	25.1	0.00e+00	0	43	0	1769996288	46	4108
2026-01-27 10:07:11.32	68.10	38.99	-37.6	-38.3	25.3	0.00e+00	0	43	0	1792016384	46	3989
2026-01-27 10:07:15.35	66.46	39.46	-37.6	-38.3	25.3	0.00e+00	0	43	0	1815085056	46	3961
2026-01-27 10:07:19.38	64.78	39.89	-37.5	-38.2	25.3	0.00e+00	0	43	0	1837105152	46	3956
2026-01-27 10:07:23.40	63.05	40.31	-37.5	-38.2	25.4	0.00e+00	0	43	0	1860173824	46	3921
2026-01-27 10:07:27.44	61.27	40.70	-37.2	-37.9	25.7	0.00e+00	0	43	0	1883242496	46	3782
2026-01-27 10:07:31.47	59.45	41.06	-37.5	-38.2	25.4	0.00e+00	0	43	0	1905262592	46	3956
2026-01-27 10:07:35.51	57.59	41.39	-37.4	-38.2	25.5	0.00e+00	0	43	0	1928331264	46	3914
2026-01-27 10:07:39.54	55.69	41.69	-37.1	-37.8	25.7	0.00e+00	0	43	0	1951399936	46	3776
2026-01-27 10:07:43.57	53.77	41.95	-37.1	-37.7	25.8	0.00e+00	0	43	0	1973420032	46	3737
2026-01-27 10:07:47.61	51.80	42.18	-37.4	-38.1	25.5	0.00e+00	0	43	0	1996488704	46	3906
2026-01-27 10:07:51.64	49.82	42.38	-37.4	-38.1	25.5	0.00e+00	0	43	0	2019557376	46	3904
2026-01-27 10:07:55.67	47.82	42.53	-37.2	-37.9	25.7	0.00e+00	0	43	0	2041577472	45	4032
2026-01-27 10:07:59.71	45.79	42.64	-37.2	-38.0	25.6	0.00e+00	0	43	0	2064646144	45	4053
2026-01-27 10:08:03.74	43.76	42.72	-37.5	-38.2	25.4	0.00e+00	0	43	0	2086666240	45	4159
2026-01-27 10:08:07.77	41.72	42.75	-37.0	-37.7	25.9	0.00e+00	0	43	0	2109734912	45	3917
2026-01-27 10:08:11.81	39.67	42.74	-37.0	-37.6	25.9	0.00e+00	0	43	0	2132803584	45	3910
2026-01-27 10:08:15.83	37.64	42.69	-37.2	-37.9	25.7	0.00e+00	0	43	0	2154823680	45	4036
2026-01-27 10:08:19.85	35.62	42.60	-36.8	-37.5	26.0	0.00e+00	0	43	0	2177892352	45	3834
2026-01-27 10:08:23.89	33.60	42.47	-36.8	-37.5	26.0	0.00e+00	0	43	0	2199912448	45	3858
2026-01-27 10:08:27.91	31.61	42.31	-37.2	-37.9	25.7	0.00e+00	0	43	0	2222981120	45	4034
2026-01-27 10:08:31.95	29.63	42.10	-36.8	-37.5	26.0	0.00e+00	0	43	0	2246049792	45	3853
2026-01-27 10:08:35.98	27.69	41.86	-37.0	-37.7	25.9	0.00e+00	0	43	0	2268069888	45	3943
2026-01-27 10:08:40.02	25.77	41.58	-37.3	-37.9	25.7	0.00e+00	0	43	0	2291138560	45	4043
2026-01-27 10:08:44.06	23.88	41.27	-36.9	-37.6	26.0	0.00e+00	0	43	0	2314207232	45	3881
2026-01-27 10:08:48.09	22.04	40.93	-36.8	-37.5	26.1	0.00e+00	0	43	0	2336227328	45	3827
2026-01-27 10:08:52.13	20.24	40.55	-37.0	-37.7	25.9	0.00e+00	0	43	0	2359296000	45	3924
2026-01-27 10:08:56.16	18.48	40.15	-36.8	-37.5	26.1	0.00e+00	0	43	0	2382364672	45	3838
2026-01-27 10:09:00.20	16.77	39.73	-36.9	-37.6	26.0	0.00e+00	0	43	0	2405433344	45	3875
2026-01-27 10:09:04.23	15.10	39.28	-36.9	-37.6	25.9	0.00e+00	0	43	0	2427453440	45	3909
2026-01-27 10:09:08.26	13.48	38.81	-37.3	-38.0	25.6	0.00e+00	0	43	0	2450522112	45	4082
2026-01-27 10:09:12.29	11.90	38.33	-37.2	-37.9	25.7	0.00e+00	0	43	0	2472542208	45	4030
2026-01-27 10:09:16.32	10.38	37.83	-37.1	-37.8	25.8	0.00e+00	0	43	0	2495610880	45	3998
2026-01-27 10:09:20.35	8.90	37.31	-37.2	-37.8	25.8	0.00e+00	0	43	0	2517630976	45	4004
2026-01-27 10:09:24.37	7.47	36.78	-37.2	-37.9	25.7	0.00e+00	0	43	0	2540699648	45	4016
2026-01-27 10:09:28.41	6.09	36.23	-37.3	-38.0	25.6	0.00e+00	0	43	0	2563768320	45	4071
2026-01-27 10:09:32.43	4.75	35.69	-36.8	-37.5	26.0	0.00e+00	0	43	0	2585788416	45	3854
2026-01-27 10:09:36.47	3.45	35.13	-36.4	-37.1	26.3	0.00e+00	0	43	0	2608857088	44	3899
2026-01-27 10:09:40.49	2.21	34.56	-36.8	-37.4	26.1	0.00e+00	0	43	0	2630877184	44	4044
2026-01-27 10:09:44.53	1.00	33.99	-37.1	-37.8	25.7	0.00e+00	0	43	0	2653945856	44	4242
2026-01-27 10:09:48.55	359.84	33.42	-36.9	-37.6	25.9	0.00e+00	0	43	0	2677014528	44	4134
2026-01-27 10:09:52.59	358.71	32.84	-37.0	-37.7	25.8	0.00e+00	0	43	0	2699034624	44	4179
2026-01-27 10:09:56.62	357.63	32.27	-37.1	-37.8	25.7	0.00e+00	0	43	0	2722103296	45	4000
2026-01-27 10:10:00.65	356.58	31.69	-37.2	-37.9	25.6	0.00e+00	0	43	0	2745171968	45	4046
2026-01-27 10:10:04.68	355.58	31.12	-37.1	-37.8	25.8	0.00e+00	0	43	0	2767192064	45	3968
2026-01-27 10:10:08.71	354.60	30.54	-37.3	-38.0	25.6	0.00e+00	0	43	0	2790260736	45	4067
2026-01-27 10:10:12.74	353.67	29.97	-37.6	-38.3	25.2	0.00e+00	0	43	0	2813329408	45	4242
2026-01-27 10:10:16.77	352.76	29.40	-37.7	-38.4	25.2	0.00e+00	0	43	0	2835349504	45	4252
2026-01-27 10:10:20.80	351.89	28.84	-37.4	-38.1	25.4	0.00e+00	0	43	0	2858418176	45	4136
2026-01-27 10:10:24.83	351.04	28.27	-37.6	-38.3	25.3	0.00e+00	0	43	0	2880438272	45	4207
2026-01-27 10:10:28.86	350.23	27.72	-37.7	-38.4	25.2	0.00e+00	0	43	0	2903506944	46	4045
2026-01-27 10:10:32.89	349.45	27.17	-37.8	-38.6	25.0	0.00e+00	0	43	0	2925527040	46	4099
2026-01-27 10:10:36.92	348.69	26.62	-38.0	-38.7	24.9	0.00e+00	0	43	0	2948595712	46	4184
2026-01-27 10:10:40.94	347.96	26.08	-37.9	-38.6	25.0	0.00e+00	0	43	0	2971664384	46	4122
2026-01-27 10:10:44.97	347.25	25.55	-37.9	-38.6	25.0	0.00e+00	0	43	0	2993684480	46	4120
2026-01-27 10:10:49.00	346.57	25.02	-37.9	-38.6	25.0	0.00e+00	0	43	0	3016753152	46	4128
2026-01-27 10:10:53.03	345.91	24.49	-37.9	-38.6	24.9	0.00e+00	0	43	0	3039821824	46	4127
2026-01-27 10:10:57.06	345.27	23.98	-37.8	-38.5	25.0	0.00e+00	0	43	0	3061841920	46	4060
2026-01-27 10:11:01.09	344.65	23.47	-37.9	-38.6	24.9	0.00e+00	0	43	0	3084910592	46	4112
2026-01-27 10:11:05.12	344.05	22.96	-38.1	-38.9	24.7	0.00e+00	0	43	0	3107979264	46	4247
2026-01-27 10:11:09.14	343.47	22.47	-38.2	-38.9	24.6	0.00e+00	0	43	0	3129999360	47	4050
2026-01-27 10:11:13.18	342.91	21.97	-38.3	-39.1	24.5	0.00e+00	0	43	0	3153068032	47	4101
2026-01-27 10:11:17.22	342.37	21.49	-38.3	-39.0	24.5	0.00e+00	0	43	0	3176136704	47	4090
2026-01-27 10:11:21.26	341.84	21.01	-38.2	-38.9	24.6	0.00e+00	0	43	0	3198156800	47	4045
2026-01-27 10:11:25.29	341.33	20.54	-38.5	-39.3	24.3	0.00e+00	0	43	0	3220176896	47	4214
2026-01-27 10:11:29.33	340.84	20.07	-39.1	-39.9	24.2	0.00e+00	0	43	0	3243245568	48	4266
2026-01-27 10:11:33.36	340.36	19.61	-39.3	-40.0	24.0	0.00e+00	0	43	0	3266314240	49	4092
2026-01-27 10:11:37.39	339.90	19.16	-39.3	-40.1	24.0	0.00e+00	0	43	0	3288334336	49	4114
2026-01-27 10:11:41.42	339.45	18.71	-39.7	-40.4	23.7	0.00e+00	0	43	0	3311403008	50	4050
2026-01-27 10:11:45.45	339.01	18.27	-39.5	-40.3	23.8	0.00e+00	0	43	0	3334471680	50	3982
2026-01-27 10:11:49.49	338.59	17.84	-39.6	-40.3	23.7	0.00e+00	0	43	0	3356491776	50	3989
2026-01-27 10:11:53.53	338.18	17.41	-39.5	-40.2	23.8	0.00e+00	0	43	0	3379560448	50	3950
2026-01-27 10:11:57.56	337.78	16.98	-39.8	-40.6	23.5	0.00e+00	0	43	0	3402629120	50	4101
2026-01-27 10:12:01.59	337.39	16.57	-40.1	-40.9	23.1	0.00e+00	0	43	0	3424649216	50	4278
2026-01-27 10:12:05.62	337.01	16.16	-40.1	-40.8	23.2	0.00e+00	0	43	0	3447717888	50	4228
2026-01-27 10:12:09.66	336.65	15.75	-40.1	-40.8	23.2	0.00e+00	0	43	0	3470786560	50	4240
2026-01-27 10:12:13.69	336.29	15.35	-40.3	-41.1	23.0	0.00e+00	0	43	0	3492806656	51	4107
2026-01-27 10:12:17.73	335.94	14.95	-40.4	-41.2	22.8	0.00e+00	0	43	0	3515875328	51	4167
2026-01-27 10:12:21.76	335.60	14.56	-40.4	-41.1	22.8	0.00e+00	0	43	0	3538944000	51	4142
2026-01-27 10:12:25.79	335.28	14.18	-40.4	-41.1	22.9	0.00e+00	0	43	0	3560964096	51	4138
2026-01-27 10:12:29.82	334.96	13.80	-40.6	-41.3	22.6	0.00e+00	0	43	0	3584032768	51	4240
2026-01-27 10:12:33.87	334.64	13.42	-40.7	-41.5	22.5	0.00e+00	0	43	0	3606052864	51	4310
2026-01-27 10:12:37.90	334.34	13.06	-40.6	-41.4	22.5	4.50e-06	0	43	0	3629121536	52	4011
2026-01-27 10:12:41.93	334.05	12.69	-40.4	-41.2	22.6	0.00e+00	0	43	0	3652190208	52	3955
2026-01-27 10:12:45.96	333.76	12.33	-40.8	-41.6	22.2	0.00e+00	0	43	0	3674210304	52	4135
2026-01-27 10:12:49.99	333.48	11.97	-40.9	-41.7	22.1	0.00e+00	0	43	0	3697278976	52	4179
2026-01-27 10:12:54.01	333.21	11.62	-41.1	-42.0	21.8	0.00e+00	0	43	0	3720347648	52	4299
2026-01-27 10:12:58.03	332.94	11.28	-41.2	-42.1	21.7	0.00e+00	0	43	0	3742367744	53	4124
2026-01-27 10:13:02.06	332.68	10.94	-41.4	-42.3	21.5	0.00e+00	0	43	0	3765436416	53	4209
2026-01-27 10:13:06.09	332.43	10.60	-41.3	-42.2	21.5	0.00e+00	0	43	0	3787456512	53	4170
2026-01-27 10:13:10.11	332.18	10.26	-41.3	-42.2	21.5	0.00e+00	0	43	0	3810525184	53	4159
2026-01-27 10:13:14.14	331.94	9.93	-41.3	-42.1	21.6	0.00e+00	0	43	0	3833593856	53	4139
2026-01-27 10:13:18.17	331.70	9.61	-41.4	-42.2	21.5	0.00e+00	0	43	0	3855613952	53	4191
2026-01-27 10:13:22.20	331.47	9.28	-41.4	-42.3	21.3	0.00e+00	0	43	0	3878682624	53	4229
2026-01-27 10:13:26.23	331.25	8.96	-41.5	-42.4	21.3	0.00e+00	0	43	0	3901751296	53	4248
2026-01-27 10:13:30.26	331.03	8.65	-41.6	-42.5	21.1	0.00e+00	0	43	0	3923771392	53	4317
2026-01-27 10:13:34.28	330.81	8.34	-41.6	-42.5	21.1	0.00e+00	0	43	0	3945791488	53	4330
2026-01-27 10:13:38.31	330.60	8.03	-41.7	-42.6	20.9	0.00e+00	0	43	0	3968860160	54	4145
2026-01-27 10:13:42.33	330.40	7.72	-41.8	-42.7	20.9	0.00e+00	0	43	0	3991928832	54	4163
2026-01-27 10:13:46.37	330.20	7.42	-41.9	-42.8	20.7	0.00e+00	0	43	0	4013948928	54	4211
2026-01-27 10:13:50.39	330.00	7.12	-42.3	-43.3	20.2	0.00e+00	0	43	0	4037017600	55	4210
2026-01-27 10:13:54.43	329.81	6.83	-42.3	-43.3	20.2	0.00e+00	0	43	0	4060086272	55	4202
2026-01-27 10:13:58.45	329.62	6.53	-42.3	-43.3	20.1	0.00e+00	0	43	0	4082106368	55	4220
2026-01-27 10:14:02.49	329.44	6.24	-42.5	-43.6	19.8	0.00e+00	0	43	0	4105175040	55	4352
2026-01-27 10:14:06.51	329.26	5.96	-42.6	-43.6	19.8	0.00e+00	0	43	0	4128243712	55	4359
2026-01-27 10:14:10.54	329.08	5.67	-42.5	-43.6	19.8	0.00e+00	0	43	0	4150263808	56	4099
2026-01-27 10:14:14.57	328.91	5.39	-42.6	-43.6	19.7	0.00e+00	0	43	0	4173332480	55	4367
2026-01-27 10:14:18.60	328.74	5.11	-43.0	-44.0	19.3	0.00e+00	0	43	0	4196401152	56	4339
2026-01-27 10:14:22.63	328.58	4.84	-52.7	-64.7	3.8	8.47e-01	0	43	104	4207935488	75	15610
2026-01-27 10:14:26.67	328.42	4.56	-53.1	-65.1	3.8	8.45e-01	0	43	104	4207935488	76	15423
2026-01-27 10:14:30.71	328.26	4.29	-52.9	-64.8	3.8	8.45e-01	0	43	104	4207935488	76	14977
2026-01-27 10:14:34.73	328.10	4.02	-53.0	-65.0	3.8	8.45e-01	0	43	104	4207935488	76	15240
2026-01-27 10:14:38.76	327.95	3.76	-53.2	-65.1	3.8	8.46e-01	0	43	104	4207935488	76	15568
2026-01-27 10:14:42.78	327.80	3.49	-53.2	-65.1	3.8	8.45e-01	0	43	104	4207935488	77	14588
2026-01-27 10:14:46.81	327.66	3.23	-53.2	-65.1	3.8	8.46e-01	0	43	104	4207935488	76	15415
2026-01-27 10:14:50.84	327.51	2.97	-53.1	-65.1	3.8	8.46e-01	0	43	104	4207935488	76	15413
2026-01-27 10:14:54.87	327.37	2.72	-53.1	-65.0	3.8	8.46e-01	0	43	104	4207935488	76	15363
2026-01-27 10:14:58.91	327.23	2.46	-53.1	-65.0	3.8	8.45e-01	0	43	104	4207935488	76	15346
2026-01-27 10:15:02.94	327.10	2.21	-53.1	-65.0	3.8	8.45e-01	0	43	104	4207935488	76	15311
2026-01-27 10:15:06.97	326.96	1.96	-53.1	-65.0	3.8	8.47e-01	0	43	104	4207935488	76	15297

#Closed at: 2026-01-27 10:15:09
#Recorded file [4207 MB]: D:/lorett/data/31041_260127_130112.dat