passes_logs/2026/01/27/R3.2S_Murmansk/R3.2S_Murmansk__20260127_212721_NOAA_20_JPSS-1_rec.log

#Pass ID: 20260127_212721_NOAA 20 (JPSS-1)
#Satellite: NOAA 20 (JPSS-1)
#Configuration: NOAA 20
#almurnet v.1.7.20251203
#Start time: 2026-01-27 21:27:21

#Version: 2.2.20231116
#Station: R3.2S_Murmansk
#Location: 33.079688 lon 68.888172 lat
#TLE: 1 43013U 17073A   26027.31247158  .00000160  00000+0  97001-4 0  9994
#TLE: 2 43013  98.7647 328.1226 0000969  21.9986 338.1231 14.19541059424489

#Time	Az	El	Level	Level2	SNR	BER	BlckErr	Temp	State	Recorded	gain1	gain2
2026-01-27 21:27:21.88	18.37	2.01	-54.0	-69.0	3.8	1.49e+00	0	41	0	0	79	20411
2026-01-27 21:27:24.80	18.64	2.14	-54.0	-69.0	3.8	1.49e+00	0	41	104	0	78	21608
2026-01-27 21:27:27.72	18.92	2.28	-54.0	-68.9	3.8	1.49e+00	0	41	104	0	78	21495
2026-01-27 21:27:30.63	19.20	2.41	-54.2	-69.2	3.8	1.49e+00	0	41	104	0	78	22070
2026-01-27 21:27:33.55	19.48	2.55	-54.2	-69.2	3.8	1.49e+00	0	41	104	0	78	22078
2026-01-27 21:27:36.47	19.76	2.68	-54.1	-69.1	3.8	1.49e+00	0	41	104	0	78	21932
2026-01-27 21:27:39.39	20.05	2.82	-54.0	-69.0	3.8	1.49e+00	0	41	104	0	79	20382
2026-01-27 21:27:42.31	20.34	2.95	-53.8	-68.8	3.8	1.49e+00	0	41	104	0	79	19997
2026-01-27 21:27:45.23	20.63	3.09	-53.5	-68.5	3.8	1.49e+00	0	41	104	0	79	19280
2026-01-27 21:27:48.15	20.92	3.23	-53.2	-68.1	3.8	1.49e+00	0	42	104	0	78	19507
2026-01-27 21:27:51.07	21.22	3.36	-52.1	-66.8	3.8	1.49e+00	0	42	104	0	76	18744
2026-01-27 21:27:53.98	21.52	3.50	-51.9	-66.6	3.8	1.49e+00	0	42	104	0	75	19611
2026-01-27 21:27:56.90	21.82	3.63	-51.9	-66.7	3.8	1.49e+00	0	42	104	0	75	19703
2026-01-27 21:27:59.81	22.12	3.77	-51.9	-66.6	3.8	1.49e+00	0	42	104	0	75	19493
2026-01-27 21:28:02.72	22.43	3.91	-51.9	-66.6	3.8	1.49e+00	0	42	104	0	75	19575
2026-01-27 21:28:05.64	22.74	4.04	-51.9	-66.7	3.8	1.49e+00	0	42	104	0	75	19836
2026-01-27 21:28:08.55	23.05	4.18	-51.8	-66.1	3.8	1.49e+00	0	42	104	0	75	18346
2026-01-27 21:28:11.47	23.37	4.32	-51.7	-63.6	4.1	1.47e+00	0	42	0	0	75	13780
2026-01-27 21:28:14.39	23.69	4.45	-51.3	-60.1	5.6	6.06e-01	0	42	0	4194304	74	9803
2026-01-27 21:28:17.30	24.01	4.59	-50.6	-56.6	9.0	4.21e-02	0	42	0	9437184	73	6882
2026-01-27 21:28:20.22	24.33	4.72	-49.7	-53.9	11.8	5.94e-04	0	42	0	14680064	71	5720
2026-01-27 21:28:23.15	24.66	4.86	-49.9	-54.4	11.4	5.81e-04	0	42	0	19922944	71	5997
2026-01-27 21:28:26.06	24.99	5.00	-51.1	-59.0	6.7	1.07e-01	0	43	0	25165824	72	9663
2026-01-27 21:28:28.97	25.32	5.13	-51.4	-65.3	3.8	2.32e-01	0	43	104	30408704	73	18843
2026-01-27 21:28:31.89	25.66	5.27	-51.9	-64.4	4.0	2.04e-04	50	43	0	33554432	74	16004
2026-01-27 21:28:34.81	26.00	5.41	-47.5	-49.8	16.2	0.00e+00	0	43	0	37748736	67	4467
2026-01-27 21:28:37.73	26.34	5.54	-47.4	-49.6	16.5	0.00e+00	0	43	0	42991616	66	4621
2026-01-27 21:28:40.64	26.68	5.68	-47.4	-49.6	16.5	0.00e+00	0	43	0	48234496	66	4617
2026-01-27 21:28:43.56	27.03	5.81	-47.2	-49.4	16.7	0.00e+00	0	43	0	53477376	66	4510
2026-01-27 21:28:46.48	27.38	5.95	-47.4	-49.6	16.5	0.00e+00	0	43	0	58720256	66	4604
2026-01-27 21:28:49.40	27.74	6.08	-47.1	-49.2	17.0	0.00e+00	0	42	0	65011712	66	4399
2026-01-27 21:28:52.31	28.09	6.22	-47.1	-49.2	16.9	0.00e+00	0	43	0	70254592	66	4417
2026-01-27 21:28:55.24	28.45	6.35	-47.0	-49.1	17.1	0.00e+00	0	43	0	75497472	65	4603
2026-01-27 21:28:58.16	28.82	6.49	-46.9	-48.9	17.3	0.00e+00	0	43	0	80740352	65	4524
2026-01-27 21:29:01.07	29.18	6.62	-46.7	-48.5	17.6	0.00e+00	0	43	0	87031808	65	4332
2026-01-27 21:29:03.98	29.55	6.76	-46.7	-48.6	17.6	0.00e+00	0	43	0	92274688	65	4381
2026-01-27 21:29:06.90	29.93	6.89	-46.8	-48.7	17.5	0.00e+00	0	43	0	97517568	65	4419
2026-01-27 21:29:09.81	30.30	7.02	-46.8	-48.7	17.5	0.00e+00	0	43	0	102760448	65	4399
2026-01-27 21:29:12.73	30.68	7.16	-46.6	-48.4	17.9	0.00e+00	0	43	0	108003328	65	4252
2026-01-27 21:29:15.64	31.06	7.29	-46.5	-48.3	18.0	0.00e+00	0	43	0	114294784	64	4447
2026-01-27 21:29:18.55	31.45	7.42	-46.6	-48.4	17.8	0.00e+00	0	43	0	119537664	64	4527
2026-01-27 21:29:21.46	31.84	7.55	-46.7	-48.5	17.7	0.00e+00	0	43	0	124780544	64	4590
2026-01-27 21:29:24.38	32.23	7.68	-46.6	-48.5	17.8	0.00e+00	0	43	0	130023424	64	4548
2026-01-27 21:29:27.28	32.63	7.81	-46.6	-48.4	17.8	0.00e+00	0	43	0	136314880	64	4533
2026-01-27 21:29:30.20	33.03	7.94	-46.5	-48.2	18.0	0.00e+00	0	43	0	141557760	64	4436
2026-01-27 21:29:33.11	33.43	8.07	-46.5	-48.3	17.9	0.00e+00	0	43	0	146800640	64	4479
2026-01-27 21:29:36.02	33.84	8.20	-46.6	-48.4	17.8	0.00e+00	0	43	0	152043520	64	4537
2026-01-27 21:29:38.94	34.25	8.33	-46.5	-48.3	18.0	0.00e+00	0	43	0	157286400	64	4472
2026-01-27 21:29:41.86	34.66	8.46	-46.6	-48.5	17.8	0.00e+00	0	43	0	162529280	64	4559
2026-01-27 21:29:44.77	35.08	8.59	-46.7	-48.5	17.8	0.00e+00	0	43	0	168820736	64	4579
2026-01-27 21:29:47.70	35.50	8.72	-46.6	-48.5	17.8	0.00e+00	0	43	0	174063616	64	4561
2026-01-27 21:29:50.61	35.93	8.84	-46.7	-48.6	17.7	0.00e+00	0	43	0	179306496	64	4616
2026-01-27 21:29:53.53	36.35	8.97	-46.9	-48.8	17.6	0.00e+00	0	43	0	184549376	64	4713
2026-01-27 21:29:56.45	36.79	9.09	-46.6	-48.5	17.9	0.00e+00	0	43	0	190840832	64	4556
2026-01-27 21:29:59.37	37.22	9.22	-46.6	-48.4	18.0	0.00e+00	0	43	0	196083712	64	4507
2026-01-27 21:30:02.29	37.66	9.34	-46.7	-48.5	17.8	0.00e+00	0	43	0	201326592	64	4562
2026-01-27 21:30:05.21	38.10	9.46	-46.8	-48.7	17.7	0.00e+00	0	43	0	206569472	64	4676
2026-01-27 21:30:08.13	38.55	9.58	-47.0	-49.0	17.5	0.00e+00	0	43	0	212860928	64	4833
2026-01-27 21:30:11.06	39.00	9.71	-47.0	-48.8	17.7	0.00e+00	0	43	0	218103808	64	4751
2026-01-27 21:30:13.98	39.46	9.83	-46.8	-48.6	17.8	0.00e+00	0	43	0	223346688	64	4637
2026-01-27 21:30:16.91	39.92	9.94	-46.9	-48.8	17.7	0.00e+00	0	43	0	228589568	64	4743
2026-01-27 21:30:19.83	40.38	10.06	-46.9	-48.7	17.8	0.00e+00	0	43	0	233832448	64	4698
2026-01-27 21:30:22.76	40.84	10.18	-46.9	-48.8	17.8	0.00e+00	0	43	0	240123904	64	4729
2026-01-27 21:30:25.69	41.31	10.30	-46.9	-48.8	17.8	0.00e+00	0	43	0	245366784	64	4712
2026-01-27 21:30:28.62	41.79	10.41	-46.9	-48.8	17.8	0.00e+00	0	43	0	250609664	64	4731
2026-01-27 21:30:31.56	42.27	10.52	-47.0	-48.9	17.7	0.00e+00	0	43	0	255852544	64	4765
2026-01-27 21:30:34.49	42.75	10.64	-47.1	-49.0	17.6	0.00e+00	0	43	0	262144000	64	4830
2026-01-27 21:30:37.43	43.23	10.75	-47.0	-48.8	17.7	0.00e+00	0	43	0	267386880	64	4757
2026-01-27 21:30:40.36	43.72	10.86	-46.9	-48.7	17.9	0.00e+00	0	43	0	272629760	64	4674
2026-01-27 21:30:43.29	44.21	10.97	-46.8	-48.6	18.0	0.00e+00	0	43	0	277872640	64	4626
2026-01-27 21:30:46.22	44.71	11.07	-46.8	-48.6	18.0	0.00e+00	0	43	0	284164096	64	4601
2026-01-27 21:30:49.17	45.21	11.18	-46.8	-48.5	18.1	0.00e+00	0	43	0	289406976	64	4587
2026-01-27 21:30:52.10	45.71	11.28	-47.0	-48.9	17.7	0.00e+00	0	43	0	294649856	64	4768
2026-01-27 21:30:55.04	46.22	11.39	-47.1	-49.0	17.6	0.00e+00	0	43	0	299892736	64	4865
2026-01-27 21:30:57.97	46.73	11.49	-47.0	-48.9	17.7	0.00e+00	0	43	0	306184192	65	4518
2026-01-27 21:31:00.93	47.24	11.59	-47.0	-48.9	17.7	0.00e+00	0	43	0	311427072	65	4508
2026-01-27 21:31:03.88	47.76	11.69	-47.2	-49.1	17.5	0.00e+00	0	43	0	316669952	65	4629
2026-01-27 21:31:06.84	48.29	11.78	-47.1	-48.9	17.7	0.00e+00	0	43	0	321912832	65	4543
2026-01-27 21:31:09.82	48.82	11.88	-47.0	-48.8	17.9	0.00e+00	0	43	0	328204288	65	4461
2026-01-27 21:31:12.81	49.35	11.98	-47.2	-49.1	17.6	0.00e+00	0	43	0	333447168	65	4624
2026-01-27 21:31:15.82	49.90	12.07	-47.3	-49.3	17.5	0.00e+00	0	43	0	339738624	65	4710
2026-01-27 21:31:18.83	50.44	12.16	-47.2	-49.1	17.6	0.00e+00	0	43	0	344981504	65	4603
2026-01-27 21:31:21.85	51.00	12.25	-46.7	-48.5	18.2	0.00e+00	0	43	0	350224384	65	4314
2026-01-27 21:31:24.87	51.55	12.34	-46.5	-48.2	18.5	0.00e+00	0	43	0	356515840	64	4411
2026-01-27 21:31:27.88	52.11	12.42	-46.6	-48.3	18.4	0.00e+00	0	43	0	361758720	64	4448
2026-01-27 21:31:30.90	52.67	12.51	-46.6	-48.3	18.3	0.00e+00	0	43	0	368050176	64	4482
2026-01-27 21:31:33.92	53.23	12.59	-46.5	-48.2	18.4	0.00e+00	0	43	0	373293056	64	4424
2026-01-27 21:31:36.95	53.80	12.67	-46.3	-47.9	18.8	0.00e+00	0	43	0	378535936	64	4291
2026-01-27 21:31:39.97	54.37	12.74	-46.1	-47.7	19.1	0.00e+00	0	43	0	384827392	63	4396
2026-01-27 21:31:42.99	54.95	12.82	-46.3	-47.9	18.9	0.00e+00	0	43	0	390070272	63	4517
2026-01-27 21:31:46.01	55.52	12.89	-46.6	-48.3	18.3	0.00e+00	0	43	0	396361728	64	4476
2026-01-27 21:31:49.03	56.10	12.96	-47.1	-48.9	17.8	0.00e+00	0	43	0	401604608	64	4811
2026-01-27 21:31:52.05	56.68	13.02	-47.0	-48.8	17.9	0.00e+00	0	43	0	406847488	64	4743
2026-01-27 21:31:55.07	57.26	13.09	-46.8	-48.5	18.2	0.00e+00	0	43	0	413138944	64	4585
2026-01-27 21:31:58.09	57.85	13.15	-47.0	-48.8	17.9	0.00e+00	0	43	0	418381824	64	4738
2026-01-27 21:32:01.11	58.44	13.21	-47.3	-49.3	17.5	0.00e+00	0	43	0	424673280	65	4717
2026-01-27 21:32:04.13	59.03	13.27	-47.4	-49.4	17.4	0.00e+00	0	43	0	429916160	65	4783
2026-01-27 21:32:07.15	59.62	13.32	-47.3	-49.3	17.5	0.00e+00	0	43	0	435159040	65	4725
2026-01-27 21:32:10.17	60.22	13.37	-47.0	-48.8	17.9	0.00e+00	0	43	0	441450496	65	4462
2026-01-27 21:32:13.19	60.82	13.42	-47.0	-48.8	18.0	0.00e+00	0	43	0	446693376	65	4459
2026-01-27 21:32:16.21	61.41	13.47	-47.2	-49.0	17.6	0.00e+00	0	43	0	452984832	65	4589
2026-01-27 21:32:19.23	62.02	13.51	-46.9	-48.6	18.1	0.00e+00	0	43	0	458227712	65	4376
2026-01-27 21:32:22.25	62.62	13.55	-46.8	-48.6	18.1	0.00e+00	0	43	0	463470592	65	4366
2026-01-27 21:32:25.27	63.22	13.59	-46.8	-48.6	18.2	0.00e+00	0	43	0	469762048	65	4359
2026-01-27 21:32:28.29	63.83	13.62	-46.7	-48.4	18.3	0.00e+00	0	43	0	475004928	65	4269
2026-01-27 21:32:31.32	64.44	13.65	-46.8	-48.5	18.2	0.00e+00	0	43	0	481296384	65	4325
2026-01-27 21:32:34.34	65.04	13.68	-46.6	-48.3	18.4	0.00e+00	0	43	0	486539264	65	4230
2026-01-27 21:32:37.37	65.66	13.71	-46.4	-48.1	18.7	0.00e+00	0	43	0	491782144	64	4341
2026-01-27 21:32:40.39	66.27	13.73	-46.6	-48.3	18.4	0.00e+00	0	43	0	498073600	64	4458
2026-01-27 21:32:43.41	66.88	13.75	-46.6	-48.2	18.5	0.00e+00	0	43	0	503316480	64	4437
2026-01-27 21:32:46.43	67.49	13.77	-46.3	-47.9	18.8	0.00e+00	0	43	0	509607936	64	4279
2026-01-27 21:32:49.45	68.10	13.78	-46.3	-47.9	18.8	0.00e+00	0	43	0	514850816	64	4262
2026-01-27 21:32:52.48	68.72	13.79	-46.0	-47.6	19.1	0.00e+00	0	43	0	520093696	64	4108
2026-01-27 21:32:55.49	69.33	13.80	-46.1	-47.6	19.0	0.00e+00	0	43	0	526385152	64	4120
2026-01-27 21:32:58.51	69.94	13.80	-45.8	-47.3	19.5	0.00e+00	0	43	0	531628032	63	4198
2026-01-27 21:33:01.53	70.55	13.81	-45.9	-47.4	19.5	0.00e+00	0	43	0	537919488	63	4254
2026-01-27 21:33:04.56	71.17	13.81	-46.2	-47.8	19.0	0.00e+00	0	43	0	543162368	63	4480
2026-01-27 21:33:07.58	71.78	13.80	-46.2	-47.7	19.0	0.00e+00	0	43	0	548405248	63	4432
2026-01-27 21:33:10.61	72.40	13.79	-45.7	-47.1	19.6	0.00e+00	0	43	0	554696704	63	4140
2026-01-27 21:33:13.63	73.01	13.78	-45.5	-46.9	19.9	0.00e+00	0	43	0	559939584	62	4267
2026-01-27 21:33:16.65	73.63	13.77	-45.4	-46.8	19.9	0.00e+00	0	43	0	566231040	62	4204
2026-01-27 21:33:19.67	74.24	13.76	-45.4	-46.8	20.0	0.00e+00	0	43	0	571473920	62	4201
2026-01-27 21:33:22.70	74.85	13.74	-45.6	-47.1	19.7	0.00e+00	0	43	0	577765376	62	4356
2026-01-27 21:33:25.73	75.46	13.71	-46.0	-47.6	19.2	0.00e+00	0	43	0	583008256	62	4617
2026-01-27 21:33:28.75	76.07	13.69	-46.0	-47.5	19.3	0.00e+00	0	43	0	588251136	62	4570
2026-01-27 21:33:31.77	76.68	13.66	-45.7	-47.1	19.7	0.00e+00	0	43	0	594542592	62	4372
2026-01-27 21:33:34.78	77.29	13.63	-45.8	-47.3	19.6	0.00e+00	0	43	0	599785472	62	4453
2026-01-27 21:33:37.81	77.90	13.60	-45.8	-47.3	19.5	0.00e+00	0	43	0	606076928	62	4466
2026-01-27 21:33:40.83	78.50	13.56	-45.5	-46.9	19.9	0.00e+00	0	43	0	611319808	62	4269
2026-01-27 21:33:43.85	79.11	13.52	-45.7	-47.1	19.7	0.00e+00	0	43	0	616562688	62	4370
2026-01-27 21:33:46.87	79.71	13.48	-46.2	-47.8	19.0	0.00e+00	0	43	0	622854144	63	4454
2026-01-27 21:33:49.89	80.31	13.43	-46.3	-47.9	18.8	0.00e+00	0	43	0	628097024	63	4534
2026-01-27 21:33:52.91	80.91	13.38	-45.9	-47.5	19.3	0.00e+00	0	43	0	634388480	63	4293
2026-01-27 21:33:55.93	81.50	13.33	-45.5	-46.9	19.8	0.00e+00	0	43	0	639631360	63	4030
2026-01-27 21:33:58.94	82.10	13.28	-45.3	-46.7	20.0	0.00e+00	0	43	0	644874240	62	4173
2026-01-27 21:34:01.97	82.69	13.22	-45.2	-46.5	20.2	0.00e+00	0	43	0	651165696	62	4087
2026-01-27 21:34:04.99	83.28	13.17	-45.5	-47.0	19.8	0.00e+00	0	43	0	656408576	62	4294
2026-01-27 21:34:08.01	83.87	13.11	-45.4	-46.8	19.9	0.00e+00	0	43	0	662700032	62	4211
2026-01-27 21:34:11.03	84.46	13.04	-45.6	-47.0	19.7	0.00e+00	0	43	0	667942912	62	4332
2026-01-27 21:34:14.05	85.04	12.97	-45.4	-46.8	19.8	0.00e+00	0	43	0	673185792	62	4236
2026-01-27 21:34:17.07	85.62	12.91	-45.2	-46.5	20.1	0.00e+00	0	43	0	679477248	62	4087
2026-01-27 21:34:20.09	86.20	12.83	-45.3	-46.7	20.0	0.00e+00	0	43	0	684720128	62	4179
2026-01-27 21:34:23.10	86.77	12.76	-45.4	-46.9	19.8	0.00e+00	0	43	0	691011584	62	4244
2026-01-27 21:34:26.12	87.34	12.69	-45.6	-47.0	19.6	0.00e+00	0	43	0	696254464	62	4330
2026-01-27 21:34:29.14	87.91	12.61	-45.4	-46.8	19.9	0.00e+00	0	43	0	701497344	62	4199
2026-01-27 21:34:32.16	88.48	12.53	-45.1	-46.5	20.2	0.00e+00	0	43	0	707788800	62	4054
2026-01-27 21:34:35.18	89.04	12.44	-45.1	-46.4	20.2	0.00e+00	0	43	0	713031680	62	4050
2026-01-27 21:34:38.20	89.60	12.36	-45.3	-46.6	20.0	0.00e+00	0	43	0	719323136	62	4136
2026-01-27 21:34:41.22	90.16	12.27	-45.3	-46.6	20.0	0.00e+00	0	43	0	724566016	62	4140
2026-01-27 21:34:44.24	90.71	12.18	-45.4	-46.8	19.8	0.00e+00	0	43	0	729808896	62	4215
2026-01-27 21:34:47.26	91.27	12.09	-45.7	-47.2	19.4	0.00e+00	0	43	0	736100352	62	4426
2026-01-27 21:34:50.27	91.81	12.00	-46.0	-47.6	19.0	0.00e+00	0	43	0	741343232	62	4627
2026-01-27 21:34:53.29	92.36	11.90	-46.2	-47.8	18.9	0.00e+00	0	43	0	747634688	62	4715
2026-01-27 21:34:56.31	92.90	11.80	-46.5	-48.1	18.5	0.00e+00	0	43	0	752877568	63	4639
2026-01-27 21:34:59.33	93.43	11.70	-46.6	-48.3	18.3	0.00e+00	0	43	0	758120448	63	4757
2026-01-27 21:35:02.35	93.97	11.60	-46.5	-48.2	18.5	0.00e+00	0	43	0	764411904	63	4680
2026-01-27 21:35:05.38	94.50	11.50	-46.6	-48.3	18.4	0.00e+00	0	43	0	769654784	63	4752
2026-01-27 21:35:08.40	95.03	11.40	-47.0	-48.8	17.6	0.00e+00	0	43	0	775946240	64	4751
2026-01-27 21:35:11.42	95.55	11.29	-47.3	-49.3	17.2	0.00e+00	0	43	0	781189120	65	4759
2026-01-27 21:35:14.44	96.07	11.18	-47.6	-49.7	16.7	0.00e+00	0	43	0	786432000	65	4947
2026-01-27 21:35:17.46	96.58	11.07	-48.1	-50.5	16.0	0.00e+00	0	43	0	792723456	66	5135
2026-01-27 21:35:20.48	97.10	10.96	-48.3	-50.7	15.8	0.00e+00	0	43	0	797966336	67	4973
2026-01-27 21:35:23.50	97.60	10.85	-47.7	-49.9	16.6	0.00e+00	0	43	0	804257792	67	4527
2026-01-27 21:35:26.52	98.11	10.73	-47.4	-49.4	17.1	0.00e+00	0	43	0	809500672	66	4515
2026-01-27 21:35:29.55	98.61	10.62	-47.6	-49.7	16.9	0.00e+00	0	43	0	814743552	66	4669
2026-01-27 21:35:32.57	99.11	10.50	-47.7	-49.9	16.6	0.00e+00	0	43	0	821035008	66	4783
2026-01-27 21:35:35.59	99.60	10.38	-47.9	-50.2	16.4	0.00e+00	0	43	0	826277888	66	4948
2026-01-27 21:35:38.61	100.09	10.26	-48.1	-50.4	16.0	0.00e+00	0	43	0	832569344	66	5097
2026-01-27 21:35:41.63	100.58	10.14	-47.8	-50.1	16.4	0.00e+00	0	43	0	837812224	66	4882
2026-01-27 21:35:44.65	101.06	10.02	-47.5	-49.5	16.9	0.00e+00	0	43	0	843055104	66	4587
2026-01-27 21:35:47.67	101.53	9.90	-47.5	-49.6	16.8	0.00e+00	0	43	0	849346560	66	4622
2026-01-27 21:35:50.69	102.01	9.78	-47.5	-49.5	16.9	0.00e+00	0	43	0	854589440	66	4588
2026-01-27 21:35:53.71	102.48	9.65	-47.0	-48.9	17.5	0.00e+00	0	43	0	860880896	65	4514
2026-01-27 21:35:56.73	102.94	9.52	-46.7	-48.5	18.0	0.00e+00	0	43	0	866123776	65	4294
2026-01-27 21:35:59.74	103.40	9.40	-46.7	-48.5	18.0	0.00e+00	0	43	0	871366656	64	4555
2026-01-27 21:36:02.76	103.86	9.27	-47.0	-48.9	17.6	0.00e+00	0	43	0	877658112	64	4776
2026-01-27 21:36:05.78	104.32	9.14	-47.0	-49.0	17.3	0.00e+00	0	43	0	882900992	64	4844
2026-01-27 21:36:08.80	104.77	9.01	-47.1	-49.1	17.3	0.00e+00	0	43	0	889192448	64	4897
2026-01-27 21:36:11.83	105.22	8.88	-46.9	-48.8	17.5	0.00e+00	0	43	0	894435328	64	4759
2026-01-27 21:36:14.84	105.66	8.75	-46.7	-48.5	18.0	0.00e+00	0	43	0	899678208	64	4553
2026-01-27 21:36:17.86	106.10	8.62	-46.2	-47.8	18.5	0.00e+00	0	43	0	905969664	64	4226
2026-01-27 21:36:20.87	106.53	8.48	-46.2	-47.8	18.6	0.00e+00	0	43	0	911212544	63	4470
2026-01-27 21:36:23.89	106.96	8.35	-46.5	-48.3	18.2	0.00e+00	0	43	0	917504000	63	4706
2026-01-27 21:36:26.92	107.39	8.22	-46.6	-48.4	17.9	0.00e+00	0	43	0	922746880	64	4545
2026-01-27 21:36:29.95	107.82	8.08	-46.4	-48.2	18.1	0.00e+00	0	43	0	927989760	64	4401
2026-01-27 21:36:32.97	108.24	7.95	-46.3	-48.0	18.3	0.00e+00	0	43	0	934281216	64	4308
2026-01-27 21:36:35.99	108.65	7.81	-46.4	-48.2	18.1	0.00e+00	0	43	0	939524096	64	4393
2026-01-27 21:36:39.01	109.06	7.67	-46.6	-48.4	18.0	0.00e+00	0	43	0	945815552	64	4524
2026-01-27 21:36:42.04	109.47	7.54	-46.4	-48.1	18.2	0.00e+00	0	43	0	951058432	64	4369
2026-01-27 21:36:45.06	109.88	7.40	-46.2	-47.9	18.4	0.00e+00	0	43	0	956301312	64	4262
2026-01-27 21:36:48.08	110.28	7.26	-46.4	-48.2	18.0	0.00e+00	0	43	0	962592768	64	4415
2026-01-27 21:36:51.10	110.68	7.12	-46.7	-48.5	17.7	0.00e+00	0	43	0	967835648	64	4589
2026-01-27 21:36:54.12	111.07	6.98	-46.5	-48.3	17.9	0.00e+00	0	43	0	974127104	64	4485
2026-01-27 21:36:57.14	111.46	6.84	-46.3	-48.0	18.3	0.00e+00	0	43	0	979369984	64	4314
2026-01-27 21:37:00.15	111.85	6.70	-46.4	-48.2	18.1	0.00e+00	0	43	0	984612864	64	4405
2026-01-27 21:37:03.17	112.23	6.56	-46.6	-48.5	17.8	0.00e+00	0	43	0	990904320	64	4559
2026-01-27 21:37:06.20	112.62	6.42	-46.7	-48.6	17.6	0.00e+00	0	43	0	996147200	64	4648
2026-01-27 21:37:09.22	112.99	6.28	-46.8	-48.7	17.4	0.00e+00	0	43	0	1002438656	64	4702
2026-01-27 21:37:12.24	113.36	6.14	-46.8	-48.7	17.4	0.00e+00	0	43	0	1007681536	64	4684
2026-01-27 21:37:15.26	113.73	6.00	-47.0	-49.1	17.0	0.00e+00	0	43	0	1012924416	64	4888
2026-01-27 21:37:18.29	114.10	5.86	-47.5	-49.8	16.3	0.00e+00	0	43	0	1019215872	65	5014
2026-01-27 21:37:21.31	114.46	5.72	-47.4	-49.6	16.5	0.00e+00	0	43	0	1024458752	65	4896
2026-01-27 21:37:24.34	114.83	5.58	-47.3	-49.5	16.5	0.00e+00	0	43	0	1030750208	65	4852
2026-01-27 21:37:27.36	115.18	5.43	-47.0	-49.2	16.7	0.00e+00	0	43	0	1035993088	65	4666
2026-01-27 21:37:30.37	115.53	5.29	-47.2	-49.5	16.4	0.00e+00	0	43	0	1041235968	65	4831
2026-01-27 21:37:33.39	115.88	5.15	-47.2	-49.5	16.3	0.00e+00	0	43	0	1047527424	65	4835
2026-01-27 21:37:36.41	116.23	5.01	-47.6	-50.1	15.8	0.00e+00	0	43	0	1052770304	65	5191
2026-01-27 21:37:39.43	116.57	4.87	-52.9	-67.9	3.8	1.49e+00	0	43	104	1053818880	76	21291
2026-01-27 21:37:42.45	116.91	4.73	-53.4	-68.4	3.8	1.49e+00	0	43	104	1053818880	77	21384
2026-01-27 21:37:45.48	117.25	4.58	-53.6	-68.6	3.8	1.49e+00	0	43	104	1053818880	77	21836
2026-01-27 21:37:48.50	117.58	4.44	-53.8	-68.7	3.8	1.49e+00	0	43	104	1053818880	78	20958
2026-01-27 21:37:51.52	117.92	4.30	-53.9	-68.9	3.8	1.49e+00	0	43	104	1053818880	78	21272
2026-01-27 21:37:54.53	118.24	4.16	-54.0	-68.9	3.8	1.49e+00	0	43	104	1053818880	78	21422
2026-01-27 21:37:57.56	118.57	4.01	-54.0	-69.0	3.8	1.49e+00	0	43	104	1053818880	78	21565
2026-01-27 21:38:00.58	118.89	3.87	-54.0	-69.0	3.8	1.49e+00	0	43	104	1053818880	78	21593
2026-01-27 21:38:03.60	119.21	3.73	-54.1	-69.1	3.8	1.49e+00	0	43	104	1053818880	78	21802
2026-01-27 21:38:06.62	119.52	3.59	-54.2	-69.1	3.8	1.49e+00	0	43	104	1053818880	78	22002
2026-01-27 21:38:09.65	119.84	3.44	-54.3	-69.2	3.8	1.49e+00	0	43	104	1053818880	79	21000
2026-01-27 21:38:12.67	120.15	3.30	-54.3	-69.3	3.8	1.49e+00	0	43	104	1053818880	79	21191
2026-01-27 21:38:15.69	120.45	3.16	-54.3	-69.3	3.8	1.49e+00	0	43	104	1053818880	79	21173
2026-01-27 21:38:18.72	120.76	3.02	-54.3	-69.3	3.8	1.49e+00	0	43	104	1053818880	79	21173
2026-01-27 21:38:21.75	121.06	2.87	-54.2	-69.2	3.8	1.49e+00	0	43	104	1053818880	79	20992
2026-01-27 21:38:24.77	121.36	2.73	-54.2	-69.1	3.8	1.49e+00	0	43	104	1053818880	79	20697
2026-01-27 21:38:27.79	121.66	2.59	-54.0	-69.0	3.8	1.49e+00	0	44	104	1053818880	79	20440
2026-01-27 21:38:30.81	121.95	2.45	-53.8	-68.8	3.8	1.49e+00	0	43	104	1053818880	79	19998
2026-01-27 21:38:33.83	122.24	2.31	-53.4	-68.4	3.8	1.49e+00	0	43	104	1053818880	78	20142
2026-01-27 21:38:36.85	122.53	2.17	-53.3	-68.2	3.8	1.49e+00	0	43	104	1053818880	78	19780
2026-01-27 21:38:39.89	122.81	2.02	-53.2	-68.2	3.8	1.49e+00	0	43	104	1053818880	78	19742

#Closed at: 2026-01-27 21:38:41
#Recorded file [1053 MB]: D:/lorett/data/31041_260128_002721.dat