passes_logs/2026/01/27/R3.2S_Murmansk/R3.2S_Murmansk__20260127_004638_SUOMI_NPP_rec.log

#Pass ID: 20260127_004638_SUOMI NPP
#Satellite: SUOMI NPP
#Configuration: NPP
#almurnet v.1.7.20251203
#Start time: 2026-01-27 00:46:40

#Version: 2.2.20231116
#Station: R3.2S_Murmansk
#Location: 33.079688 lon 68.888172 lat
#TLE: 1 37849U 11061A   26026.52266023  .00000173  00000+0  10323-3 0  9994
#TLE: 2 37849  98.7822 328.4727 0002140  43.9411 316.1934 14.19530258738341

#Time	Az	El	Level	Level2	SNR	BER	BlckErr	Temp	State	Recorded	gain1	gain2
2026-01-27 00:46:40.47	24.60	2.14	-54.1	-69.1	3.8	1.49e+00	0	41	0	0	79	20679
2026-01-27 00:46:44.49	24.62	2.40	-54.3	-69.3	3.8	1.49e+00	0	41	104	0	79	21108
2026-01-27 00:46:48.52	24.63	2.66	-54.2	-69.2	3.8	1.49e+00	0	41	104	0	79	20823
2026-01-27 00:46:52.56	24.64	2.93	-54.1	-69.0	3.8	1.49e+00	0	41	104	0	79	20521
2026-01-27 00:46:56.58	24.66	3.20	-53.8	-68.7	3.8	1.49e+00	0	41	104	0	79	19780
2026-01-27 00:47:00.62	24.67	3.47	-53.1	-68.0	3.8	1.49e+00	0	41	104	0	78	19364
2026-01-27 00:47:04.66	24.69	3.74	-51.8	-61.7	4.9	1.03e+00	0	42	0	1048576	75	11126
2026-01-27 00:47:08.69	24.70	4.01	-50.8	-56.6	9.2	2.93e-02	0	42	0	9437184	73	6930
2026-01-27 00:47:12.72	24.71	4.29	-49.7	-53.6	12.4	1.49e-04	0	42	0	16777216	71	5515
2026-01-27 00:47:16.76	24.73	4.57	-49.4	-52.9	13.1	1.75e-05	0	42	0	24117248	70	5372
2026-01-27 00:47:20.77	24.74	4.85	-50.2	-54.7	11.2	2.55e-04	0	42	0	31457280	70	6644
2026-01-27 00:47:24.81	24.75	5.14	-49.0	-52.1	14.1	0.00e+00	0	42	0	38797312	69	5203
2026-01-27 00:47:28.84	24.77	5.43	-48.8	-51.6	14.5	5.67e-03	0	42	0	44040192	69	4920
2026-01-27 00:47:32.87	24.78	5.73	-48.6	-51.3	14.9	0.00e+00	0	42	0	51380224	69	4750
2026-01-27 00:47:36.89	24.79	6.02	-48.8	-51.6	14.6	0.00e+00	0	42	0	58720256	68	5199
2026-01-27 00:47:40.92	24.81	6.32	-48.6	-51.2	15.1	7.00e-07	0	42	0	66060288	68	4965
2026-01-27 00:47:44.95	24.82	6.62	-48.2	-50.7	15.7	0.00e+00	0	42	0	74448896	68	4683
2026-01-27 00:47:48.98	24.83	6.93	-49.3	-52.5	13.9	7.00e-07	0	42	0	81788928	69	5444
2026-01-27 00:47:53.01	24.84	7.24	-48.9	-51.7	14.7	0.00e+00	0	42	0	89128960	69	4969
2026-01-27 00:47:57.04	24.86	7.56	-48.3	-50.6	15.9	0.00e+00	0	42	0	96468992	68	4643
2026-01-27 00:48:01.05	24.87	7.87	-48.6	-51.2	15.4	0.00e+00	0	42	0	103809024	68	4967
2026-01-27 00:48:05.08	24.88	8.20	-48.3	-50.6	16.0	0.00e+00	0	42	0	112197632	68	4650
2026-01-27 00:48:09.11	24.89	8.52	-48.3	-50.7	15.9	0.00e+00	0	42	0	119537664	68	4702
2026-01-27 00:48:13.15	24.91	8.85	-48.1	-50.4	16.2	0.00e+00	0	42	0	126877696	67	4799
2026-01-27 00:48:17.18	24.92	9.19	-47.9	-50.1	16.5	0.00e+00	0	43	0	134217728	67	4630
2026-01-27 00:48:21.21	24.93	9.53	-47.8	-49.9	16.6	0.00e+00	0	42	0	141557760	67	4538
2026-01-27 00:48:25.25	24.94	9.87	-47.7	-49.8	16.8	0.00e+00	0	42	0	149946368	67	4483
2026-01-27 00:48:29.29	24.95	10.23	-47.7	-49.8	16.9	0.00e+00	0	43	0	157286400	67	4465
2026-01-27 00:48:33.32	24.96	10.58	-47.6	-49.6	17.1	0.00e+00	0	42	0	164626432	66	4605
2026-01-27 00:48:37.35	24.98	10.94	-47.5	-49.4	17.3	0.00e+00	0	42	0	171966464	66	4542
2026-01-27 00:48:41.39	24.99	11.31	-47.1	-48.9	17.7	0.00e+00	0	43	0	180355072	66	4271
2026-01-27 00:48:45.42	25.00	11.68	-47.2	-49.1	17.7	0.00e+00	0	42	0	187695104	66	4349
2026-01-27 00:48:49.44	25.01	12.05	-47.0	-48.8	18.0	0.00e+00	0	43	0	195035136	66	4198
2026-01-27 00:48:53.48	25.02	12.44	-46.7	-48.4	18.4	0.00e+00	0	43	0	202375168	65	4254
2026-01-27 00:48:57.51	25.03	12.82	-46.6	-48.3	18.5	0.00e+00	0	43	0	209715200	65	4219
2026-01-27 00:49:01.54	25.04	13.22	-46.5	-48.1	18.6	0.00e+00	0	43	0	218103808	64	4375
2026-01-27 00:49:05.57	25.05	13.62	-46.3	-47.8	18.9	0.00e+00	0	43	0	225443840	64	4224
2026-01-27 00:49:09.60	25.06	14.03	-46.3	-47.8	19.0	0.00e+00	0	43	0	232783872	64	4209
2026-01-27 00:49:13.63	25.07	14.44	-46.2	-47.7	19.2	0.00e+00	0	43	0	240123904	63	4393
2026-01-27 00:49:17.67	25.08	14.87	-45.8	-47.3	19.6	0.00e+00	0	43	0	247463936	63	4194
2026-01-27 00:49:21.70	25.09	15.30	-45.7	-47.1	19.8	0.00e+00	0	43	0	255852544	63	4121
2026-01-27 00:49:25.74	25.10	15.73	-45.4	-46.8	20.1	0.00e+00	0	43	0	263192576	62	4205
2026-01-27 00:49:29.76	25.10	16.18	-45.6	-47.0	19.9	0.00e+00	0	43	0	270532608	62	4295
2026-01-27 00:49:33.79	25.11	16.63	-45.6	-46.9	19.9	0.00e+00	0	43	0	277872640	62	4284
2026-01-27 00:49:37.83	25.12	17.09	-45.4	-46.8	20.0	0.00e+00	0	43	0	285212672	62	4214
2026-01-27 00:49:41.85	25.13	17.56	-45.3	-46.6	20.2	0.00e+00	0	43	0	293601280	62	4145
2026-01-27 00:49:45.89	25.14	18.05	-45.4	-46.7	20.2	0.00e+00	0	43	0	300941312	62	4187
2026-01-27 00:49:49.92	25.14	18.54	-45.4	-46.7	20.2	0.00e+00	0	43	0	308281344	62	4166
2026-01-27 00:49:53.95	25.15	19.04	-45.7	-47.1	19.9	0.00e+00	0	43	0	315621376	62	4373
2026-01-27 00:49:57.99	25.16	19.55	-45.6	-47.0	20.0	0.00e+00	0	43	0	324009984	62	4319
2026-01-27 00:50:02.03	25.16	20.07	-45.6	-47.0	20.0	0.00e+00	0	43	0	331350016	62	4314
2026-01-27 00:50:06.05	25.17	20.60	-45.4	-46.8	20.2	0.00e+00	0	43	0	338690048	62	4201
2026-01-27 00:50:10.08	25.17	21.15	-45.5	-46.8	20.2	0.00e+00	0	43	0	346030080	62	4230
2026-01-27 00:50:14.10	25.18	21.70	-45.7	-47.1	20.0	0.00e+00	0	43	0	353370112	62	4361
2026-01-27 00:50:18.13	25.18	22.27	-45.8	-47.2	19.9	0.00e+00	0	43	0	361758720	62	4411
2026-01-27 00:50:22.16	25.19	22.85	-45.7	-47.1	20.0	0.00e+00	0	43	0	369098752	62	4352
2026-01-27 00:50:26.19	25.19	23.44	-45.6	-46.9	20.2	0.00e+00	0	43	0	376438784	62	4255
2026-01-27 00:50:30.22	25.19	24.05	-45.6	-47.0	20.1	0.00e+00	0	43	0	383778816	62	4295
2026-01-27 00:50:34.25	25.20	24.68	-45.7	-47.1	20.1	0.00e+00	0	43	0	391118848	62	4342
2026-01-27 00:50:38.28	25.20	25.31	-45.3	-46.6	20.5	0.00e+00	0	43	0	399507456	62	4103
2026-01-27 00:50:42.31	25.20	25.97	-45.6	-46.8	20.3	0.00e+00	0	43	0	406847488	62	4238
2026-01-27 00:50:46.35	25.20	26.64	-46.0	-47.3	19.8	0.00e+00	0	43	0	414187520	63	4235
2026-01-27 00:50:50.38	25.20	27.33	-45.8	-47.1	20.1	0.00e+00	0	43	0	421527552	63	4108
2026-01-27 00:50:54.41	25.20	28.03	-45.8	-47.1	20.1	0.00e+00	0	43	0	428867584	63	4138
2026-01-27 00:50:58.44	25.20	28.76	-46.5	-48.0	19.1	0.00e+00	0	43	0	437256192	64	4335
2026-01-27 00:51:02.47	25.20	29.50	-47.0	-48.6	18.6	0.00e+00	0	43	0	444596224	65	4358
2026-01-27 00:51:06.50	25.19	30.27	-46.9	-48.5	18.8	0.00e+00	0	43	0	451936256	65	4326
2026-01-27 00:51:10.54	25.19	31.05	-47.7	-49.5	17.9	0.00e+00	0	43	0	459276288	66	4571
2026-01-27 00:51:14.57	25.18	31.86	-47.4	-49.1	18.3	0.00e+00	0	43	0	467664896	66	4360
2026-01-27 00:51:18.60	25.18	32.69	-47.2	-48.8	18.5	0.00e+00	0	43	0	475004928	65	4476
2026-01-27 00:51:22.63	25.17	33.54	-47.7	-49.6	17.8	0.00e+00	0	43	0	482344960	66	4612
2026-01-27 00:51:26.65	25.16	34.41	-46.3	-47.7	19.6	0.00e+00	0	43	0	489684992	64	4162
2026-01-27 00:51:30.68	25.15	35.32	-46.0	-47.3	20.0	0.00e+00	0	43	0	497025024	63	4241
2026-01-27 00:51:34.71	25.14	36.24	-45.1	-46.4	20.9	0.00e+00	0	43	0	505413632	62	4006
2026-01-27 00:51:38.74	25.12	37.20	-44.5	-45.7	21.5	0.00e+00	0	43	0	512753664	60	4159
2026-01-27 00:51:42.77	25.11	38.19	-44.9	-46.0	21.2	0.00e+00	0	43	0	520093696	60	4328
2026-01-27 00:51:46.79	25.09	39.20	-44.3	-45.4	21.7	0.00e+00	0	43	0	527433728	60	4038
2026-01-27 00:51:50.83	25.07	40.25	-45.0	-46.2	21.1	0.00e+00	0	43	0	534773760	61	4181
2026-01-27 00:51:54.86	25.05	41.32	-45.3	-46.5	20.9	0.00e+00	0	43	0	542113792	61	4327
2026-01-27 00:51:58.89	25.02	42.43	-44.9	-46.1	21.2	0.00e+00	0	43	0	550502400	61	4109
2026-01-27 00:52:02.92	24.99	43.58	-44.8	-45.9	21.3	0.00e+00	0	43	0	557842432	61	4039
2026-01-27 00:52:06.95	24.96	44.76	-45.7	-46.9	20.5	0.00e+00	0	43	0	565182464	61	4531
2026-01-27 00:52:10.98	24.93	45.97	-47.3	-49.0	18.6	0.00e+00	0	43	0	572522496	65	4546
2026-01-27 00:52:15.00	24.89	47.22	-46.6	-48.1	19.4	0.00e+00	0	43	0	580911104	65	4114
2026-01-27 00:52:19.04	24.85	48.52	-48.0	-49.9	17.7	0.00e+00	0	43	0	588251136	66	4760
2026-01-27 00:52:23.07	24.80	49.85	-46.8	-48.3	19.2	0.00e+00	0	43	0	595591168	65	4210
2026-01-27 00:52:27.09	24.74	51.22	-45.7	-47.0	20.5	0.00e+00	0	43	0	602931200	62	4317
2026-01-27 00:52:31.13	24.68	52.63	-45.3	-46.6	20.8	0.00e+00	0	43	0	610271232	62	4101
2026-01-27 00:52:35.16	24.61	54.09	-44.1	-45.2	22.3	0.00e+00	0	43	0	618659840	59	4149
2026-01-27 00:52:39.18	24.53	55.58	-44.7	-45.9	21.5	0.00e+00	0	43	0	625999872	60	4244
2026-01-27 00:52:43.21	24.44	57.12	-44.4	-45.5	22.1	0.00e+00	0	43	0	633339904	59	4312
2026-01-27 00:52:47.23	24.34	58.70	-45.7	-47.0	20.4	0.00e+00	0	43	0	640679936	62	4324
2026-01-27 00:52:51.27	24.22	60.32	-45.7	-47.0	20.6	0.00e+00	0	43	0	648019968	62	4299
2026-01-27 00:52:55.29	24.08	61.99	-44.4	-45.4	21.9	0.00e+00	0	43	0	656408576	60	4032
2026-01-27 00:52:59.32	23.92	63.70	-42.9	-43.8	23.5	0.00e+00	0	43	0	663748608	57	3959
2026-01-27 00:53:03.35	23.73	65.45	-44.5	-45.6	21.8	0.00e+00	0	43	0	671088640	60	4101
2026-01-27 00:53:07.38	23.51	67.24	-45.2	-46.4	21.0	0.00e+00	0	43	0	678428672	62	4028
2026-01-27 00:53:11.41	23.24	69.07	-46.8	-48.2	19.4	0.00e+00	0	43	0	685768704	64	4428
2026-01-27 00:53:15.43	22.91	70.93	-49.0	-51.1	16.8	0.00e+00	0	43	0	694157312	69	4619
2026-01-27 00:53:19.47	22.50	72.83	-50.1	-53.0	14.6	5.30e-06	0	43	0	701497344	72	4853
2026-01-27 00:53:23.50	21.98	74.76	-47.3	-48.9	18.7	0.00e+00	0	43	0	708837376	66	4261
2026-01-27 00:53:27.54	21.29	76.73	-49.2	-51.4	16.4	0.00e+00	0	43	0	716177408	69	4810
2026-01-27 00:53:31.57	20.35	78.71	-50.8	-54.2	13.6	3.00e-06	0	43	0	724566016	72	5584
2026-01-27 00:53:35.60	18.98	80.71	-46.2	-47.5	20.1	0.00e+00	0	43	0	731906048	64	4082
2026-01-27 00:53:39.64	16.84	82.73	-47.3	-48.9	18.8	0.00e+00	0	43	0	739246080	66	4266
2026-01-27 00:53:43.68	13.01	84.75	-45.3	-46.5	21.1	0.00e+00	0	43	0	746586112	61	4308
2026-01-27 00:53:47.71	4.48	86.71	-45.5	-46.6	20.9	0.00e+00	0	43	0	753926144	61	4377
2026-01-27 00:53:51.74	334.77	88.42	-48.9	-51.1	16.7	0.00e+00	0	43	0	761266176	69	4617
2026-01-27 00:53:55.77	255.14	88.34	-45.8	-47.0	20.6	0.00e+00	0	43	0	769654784	63	4097
2026-01-27 00:53:59.80	228.06	86.60	-46.9	-48.3	19.3	0.00e+00	0	43	0	776994816	65	4229
2026-01-27 00:54:03.82	220.04	84.63	-45.2	-46.3	21.2	0.00e+00	0	43	0	784334848	62	4003
2026-01-27 00:54:07.84	216.37	82.62	-45.7	-46.9	20.7	0.00e+00	0	43	0	791674880	61	4538
2026-01-27 00:54:11.87	214.28	80.61	-45.4	-46.6	20.9	0.00e+00	0	43	0	799014912	62	4111
2026-01-27 00:54:15.90	212.94	78.61	-47.6	-49.3	18.4	0.00e+00	0	43	0	807403520	67	4200
2026-01-27 00:54:19.93	212.02	76.62	-47.4	-49.0	18.9	0.00e+00	0	43	0	814743552	65	4585
2026-01-27 00:54:23.96	211.34	74.66	-47.3	-48.9	19.1	0.00e+00	0	43	0	822083584	65	4499
2026-01-27 00:54:27.99	210.82	72.73	-47.8	-49.5	18.4	0.00e+00	0	43	0	829423616	66	4572
2026-01-27 00:54:32.02	210.42	70.83	-51.5	-55.6	12.4	6.10e-06	0	43	0	837812224	73	6147
2026-01-27 00:54:36.05	210.09	68.96	-46.5	-47.8	19.8	0.00e+00	0	43	0	845152256	65	3999
2026-01-27 00:54:40.08	209.83	67.13	-46.1	-47.4	20.3	0.00e+00	0	43	0	852492288	64	4019
2026-01-27 00:54:44.10	209.60	65.34	-44.1	-45.1	22.3	0.00e+00	0	43	0	859832320	60	3880
2026-01-27 00:54:48.13	209.42	63.59	-45.1	-46.3	21.4	0.00e+00	0	43	0	867172352	60	4448
2026-01-27 00:54:52.16	209.26	61.88	-43.9	-44.9	22.7	0.00e+00	0	43	0	874512384	59	4016
2026-01-27 00:54:56.19	209.12	60.21	-48.5	-50.6	17.1	0.00e+00	0	43	0	882900992	67	4898
2026-01-27 00:55:00.22	209.00	58.59	-46.0	-47.3	20.3	0.00e+00	0	43	0	890241024	63	4219
2026-01-27 00:55:04.24	208.90	57.01	-44.4	-45.4	21.9	0.00e+00	0	43	0	897581056	60	4042
2026-01-27 00:55:08.28	208.81	55.47	-43.1	-44.0	23.4	0.00e+00	0	43	0	904921088	58	3833
2026-01-27 00:55:12.30	208.73	53.97	-46.5	-47.9	19.8	0.00e+00	0	43	0	913309696	63	4519
2026-01-27 00:55:16.34	208.66	52.51	-45.9	-47.2	20.4	0.00e+00	0	43	0	920649728	62	4413
2026-01-27 00:55:20.37	208.60	51.10	-47.7	-49.5	18.1	0.00e+00	0	43	0	927989760	67	4327
2026-01-27 00:55:24.40	208.54	49.73	-46.2	-47.5	20.0	0.00e+00	0	43	0	935329792	64	4091
2026-01-27 00:55:28.44	208.49	48.39	-49.8	-52.5	15.3	0.00e+00	0	43	0	942669824	70	5157
2026-01-27 00:55:32.47	208.45	47.10	-44.7	-45.7	21.6	0.00e+00	0	43	0	951058432	61	3950
2026-01-27 00:55:36.49	208.41	45.85	-47.3	-48.9	18.6	0.00e+00	0	43	0	958398464	65	4537
2026-01-27 00:55:40.52	208.37	44.64	-49.3	-51.7	16.0	0.00e+00	0	43	0	965738496	70	4665
2026-01-27 00:55:44.55	208.34	43.45	-47.8	-49.6	18.0	0.00e+00	0	43	0	973078528	66	4614
2026-01-27 00:55:48.58	208.31	42.31	-50.2	-53.3	14.4	0.00e+00	0	43	0	981467136	70	5653
2026-01-27 00:55:52.61	208.29	41.20	-50.0	-53.1	14.4	6.10e-06	0	43	0	988807168	72	4892
2026-01-27 00:55:56.65	208.26	40.12	-46.2	-47.5	20.0	0.00e+00	0	43	0	996147200	63	4331
2026-01-27 00:56:00.68	208.24	39.07	-48.3	-50.3	17.3	0.00e+00	0	43	0	1003487232	67	4714
2026-01-27 00:56:04.71	208.22	38.06	-49.4	-51.9	15.8	0.00e+00	0	43	0	1010827264	70	4783
2026-01-27 00:56:08.74	208.21	37.07	-47.7	-49.5	17.9	0.00e+00	0	43	0	1018167296	67	4317
2026-01-27 00:56:12.77	208.19	36.12	-46.6	-48.0	19.3	0.00e+00	0	43	0	1026555904	65	4093
2026-01-27 00:56:16.80	208.18	35.19	-47.2	-48.8	18.5	0.00e+00	0	43	0	1033895936	65	4470
2026-01-27 00:56:20.82	208.17	34.29	-50.9	-54.7	12.8	7.60e-06	0	43	0	1041235968	72	5918
2026-01-27 00:56:24.85	208.16	33.41	-50.7	-54.3	13.3	1.29e-05	0	43	0	1048576000	72	5621
2026-01-27 00:56:28.87	208.15	32.56	-46.6	-48.1	19.2	0.00e+00	0	43	0	1056964608	65	4131
2026-01-27 00:56:32.90	208.14	31.73	-47.3	-49.0	18.4	0.00e+00	0	43	0	1064304640	65	4586
2026-01-27 00:56:36.93	208.14	30.92	-47.5	-49.2	18.1	0.00e+00	0	43	0	1071644672	66	4416
2026-01-27 00:56:40.96	208.13	30.14	-48.6	-50.8	16.6	0.00e+00	0	43	0	1078984704	67	4991
2026-01-27 00:56:45.00	208.13	29.37	-50.5	-53.9	13.6	2.20e-06	0	43	0	1086324736	71	5688
2026-01-27 00:56:49.03	208.12	28.63	-48.6	-50.8	16.6	0.00e+00	0	43	0	1094713344	69	4481
2026-01-27 00:56:53.06	208.12	27.90	-46.0	-47.5	19.7	0.00e+00	0	43	0	1102053376	64	4054
2026-01-27 00:56:57.10	208.12	27.20	-45.5	-46.8	20.4	0.00e+00	0	43	0	1109393408	62	4221
2026-01-27 00:57:01.13	208.12	26.51	-45.0	-46.2	20.9	0.00e+00	0	43	0	1116733440	61	4179
2026-01-27 00:57:05.16	208.11	25.84	-45.3	-46.6	20.5	0.00e+00	0	43	0	1124073472	61	4342
2026-01-27 00:57:09.19	208.11	25.18	-46.0	-47.4	19.9	0.00e+00	0	43	0	1132462080	62	4498
2026-01-27 00:57:13.21	208.11	24.55	-46.0	-47.4	19.7	0.00e+00	0	43	0	1139802112	63	4275
2026-01-27 00:57:17.25	208.12	23.92	-45.7	-47.1	20.0	0.00e+00	0	43	0	1147142144	63	4107
2026-01-27 00:57:21.27	208.12	23.31	-45.9	-47.3	19.8	0.00e+00	0	43	0	1154482176	62	4465
2026-01-27 00:57:25.31	208.12	22.72	-46.2	-47.6	19.5	0.00e+00	0	43	0	1161822208	63	4374
2026-01-27 00:57:29.34	208.12	22.13	-45.5	-46.8	20.3	0.00e+00	0	43	0	1170210816	62	4202
2026-01-27 00:57:33.38	208.12	21.56	-44.6	-45.8	21.2	0.00e+00	0	43	0	1177550848	60	4195
2026-01-27 00:57:37.40	208.13	21.01	-44.6	-45.8	21.1	0.00e+00	0	43	0	1184890880	60	4216
2026-01-27 00:57:41.43	208.13	20.47	-44.6	-45.7	21.1	0.00e+00	0	43	0	1192230912	60	4190
2026-01-27 00:57:45.47	208.14	19.93	-45.0	-46.3	20.7	0.00e+00	0	43	0	1199570944	60	4446
2026-01-27 00:57:49.50	208.14	19.41	-45.1	-46.4	20.5	0.00e+00	0	43	0	1207959552	61	4267
2026-01-27 00:57:53.53	208.14	18.90	-45.6	-47.0	20.0	0.00e+00	0	43	0	1215299584	61	4563
2026-01-27 00:57:57.56	208.15	18.40	-46.3	-47.8	19.3	0.00e+00	0	43	0	1222639616	63	4445
2026-01-27 00:58:01.60	208.16	17.91	-47.1	-48.8	18.2	0.00e+00	0	43	0	1229979648	64	4733
2026-01-27 00:58:05.62	208.16	17.43	-47.0	-48.7	18.3	0.00e+00	0	43	0	1237319680	65	4398
2026-01-27 00:58:09.66	208.17	16.96	-46.5	-48.1	18.8	0.00e+00	0	43	0	1245708288	65	4101
2026-01-27 00:58:13.70	208.17	16.49	-46.1	-47.6	19.2	0.00e+00	0	43	0	1253048320	64	4124
2026-01-27 00:58:17.74	208.18	16.04	-45.9	-47.4	19.6	0.00e+00	0	43	0	1260388352	63	4244
2026-01-27 00:58:21.77	208.19	15.59	-46.2	-47.7	19.3	0.00e+00	0	43	0	1267728384	63	4409
2026-01-27 00:58:25.80	208.19	15.15	-46.6	-48.2	18.7	0.00e+00	0	43	0	1276116992	63	4681
2026-01-27 00:58:29.83	208.20	14.72	-47.1	-48.8	18.1	0.00e+00	0	43	0	1283457024	64	4736
2026-01-27 00:58:33.86	208.21	14.30	-47.3	-49.1	17.8	0.00e+00	0	43	0	1290797056	65	4645
2026-01-27 00:58:37.89	208.21	13.89	-47.4	-49.3	17.6	0.00e+00	0	43	0	1298137088	65	4733
2026-01-27 00:58:41.92	208.22	13.48	-47.5	-49.4	17.5	0.00e+00	0	43	0	1305477120	65	4789
2026-01-27 00:58:45.95	208.23	13.08	-47.4	-49.3	17.5	0.00e+00	0	43	0	1313865728	65	4744
2026-01-27 00:58:49.99	208.24	12.68	-47.2	-49.1	17.7	0.00e+00	0	43	0	1321205760	65	4617
2026-01-27 00:58:54.02	208.25	12.29	-47.0	-48.8	18.0	0.00e+00	0	43	0	1328545792	65	4459
2026-01-27 00:58:58.05	208.25	11.91	-47.0	-48.8	18.0	0.00e+00	0	43	0	1335885824	65	4456
2026-01-27 00:59:02.08	208.26	11.53	-46.8	-48.6	18.1	0.00e+00	0	43	0	1344274432	65	4372
2026-01-27 00:59:06.11	208.27	11.16	-46.7	-48.5	18.2	0.00e+00	0	43	0	1351614464	65	4300
2026-01-27 00:59:10.14	208.28	10.80	-46.7	-48.5	18.1	0.00e+00	0	43	0	1358954496	65	4303
2026-01-27 00:59:14.17	208.29	10.44	-46.9	-48.7	17.9	0.00e+00	0	43	0	1366294528	65	4435
2026-01-27 00:59:18.19	208.30	10.08	-46.8	-48.6	18.0	0.00e+00	0	43	0	1373634560	65	4366
2026-01-27 00:59:22.23	208.31	9.73	-47.1	-49.0	17.6	0.00e+00	0	43	0	1380974592	65	4557
2026-01-27 00:59:26.26	208.32	9.39	-46.9	-48.7	17.9	0.00e+00	0	43	0	1389363200	65	4406
2026-01-27 00:59:30.29	208.32	9.05	-47.0	-48.9	17.7	0.00e+00	0	43	0	1396703232	65	4512
2026-01-27 00:59:34.32	208.33	8.71	-46.8	-48.6	17.9	0.00e+00	0	43	0	1404043264	65	4369
2026-01-27 00:59:38.35	208.34	8.38	-47.0	-48.9	17.6	0.00e+00	0	43	0	1411383296	65	4542
2026-01-27 00:59:42.38	208.35	8.05	-47.1	-49.0	17.5	0.00e+00	0	43	0	1419771904	65	4573
2026-01-27 00:59:46.41	208.36	7.73	-47.1	-49.1	17.4	0.00e+00	0	43	0	1427111936	65	4614
2026-01-27 00:59:50.44	208.37	7.41	-47.3	-49.4	17.1	0.00e+00	0	43	0	1434451968	65	4774
2026-01-27 00:59:54.47	208.38	7.10	-47.3	-49.3	17.0	0.00e+00	0	43	0	1441792000	65	4749
2026-01-27 00:59:58.50	208.39	6.79	-47.4	-49.5	16.9	0.00e+00	0	43	0	1449132032	65	4829
2026-01-27 01:00:02.53	208.40	6.48	-47.5	-49.6	16.8	0.00e+00	0	43	0	1457520640	66	4618
2026-01-27 01:00:06.55	208.41	6.18	-47.5	-49.6	16.6	0.00e+00	0	43	0	1464860672	66	4646
2026-01-27 01:00:10.59	208.42	5.88	-47.4	-49.6	16.7	0.00e+00	0	43	0	1472200704	66	4601
2026-01-27 01:00:14.62	208.43	5.58	-47.6	-49.8	16.4	0.00e+00	0	43	0	1479540736	66	4732
2026-01-27 01:00:18.65	208.44	5.29	-47.9	-50.2	15.9	0.00e+00	0	43	0	1486880768	66	4963
2026-01-27 01:00:22.68	208.45	5.00	-52.5	-67.4	3.7	4.65e-05	12	43	0	1494220800	75	21465
2026-01-27 01:00:26.72	208.46	4.71	-53.5	-68.5	3.8	1.49e+00	0	43	104	1494220800	77	21714
2026-01-27 01:00:30.75	208.47	4.43	-53.9	-68.8	3.8	1.49e+00	0	43	104	1494220800	78	21209
2026-01-27 01:00:34.78	208.48	4.14	-54.0	-69.0	3.8	1.49e+00	0	43	104	1494220800	78	21579
2026-01-27 01:00:38.81	208.49	3.87	-54.1	-69.1	3.8	1.49e+00	0	43	104	1494220800	78	21822
2026-01-27 01:00:42.84	208.51	3.59	-54.1	-69.1	3.8	1.49e+00	0	43	104	1494220800	78	21809
2026-01-27 01:00:46.87	208.52	3.32	-53.9	-68.8	3.8	1.49e+00	0	43	104	1494220800	78	21240
2026-01-27 01:00:50.90	208.53	3.05	-53.6	-68.5	3.8	1.49e+00	0	43	104	1494220800	78	20492
2026-01-27 01:00:54.93	208.54	2.78	-53.5	-68.5	3.8	1.49e+00	0	43	104	1494220800	78	20367
2026-01-27 01:00:58.95	208.55	2.52	-53.5	-68.5	3.8	1.49e+00	0	43	104	1494220800	78	20360
2026-01-27 01:01:02.98	208.56	2.26	-53.5	-68.5	3.8	1.49e+00	0	43	104	1494220800	78	20314
2026-01-27 01:01:07.01	208.57	2.00	-53.5	-68.5	3.8	1.49e+00	0	43	104	1494220800	78	20314

#Closed at: 2026-01-27 01:01:09
#Recorded file [1494 MB]: D:/lorett/data/31041_260127_034640.dat