passes_logs/2026/01/27/R3.2S_Murmansk/R3.2S_Murmansk__20260127_234401_FENGYUN_3D_rec.log

#Pass ID: 20260127_234401_FENGYUN 3D
#Satellite: FENGYUN 3D
#Configuration: FENGYUN 3D
#almurnet v.1.7.20251203
#Start time: 2026-01-27 23:44:03

#Version: 2.2.20231116
#Station: R3.2S_Murmansk
#Location: 33.079688 lon 68.888172 lat
#TLE: 1 43010U 17072A   26027.26653803  .00000472  00000+0  24513-3 0  9995
#TLE: 2 43010  98.9961 359.2743 0002530  88.0161 272.1305 14.19701760424993

#Time	Az	El	Level	Level2	SNR	BER	BlckErr	Temp	State	Recorded	gain1	gain2
2026-01-27 23:44:03.81	19.29	2.10	-53.8	-65.8	3.8	8.47e-01	0	41	0	0	78	14968
2026-01-27 23:44:06.82	19.56	2.24	-54.0	-66.0	3.8	8.45e-01	0	41	104	0	78	15295
2026-01-27 23:44:09.84	19.84	2.39	-54.0	-65.9	3.8	8.46e-01	0	41	104	0	78	15186
2026-01-27 23:44:12.85	20.12	2.53	-53.9	-65.9	3.8	8.46e-01	0	41	104	0	78	15095
2026-01-27 23:44:15.87	20.40	2.68	-53.8	-65.7	3.8	8.46e-01	0	42	104	0	78	14859
2026-01-27 23:44:18.89	20.69	2.83	-53.5	-65.5	3.8	8.46e-01	0	42	104	0	78	14400
2026-01-27 23:44:21.91	20.97	2.97	-53.0	-64.9	3.8	8.46e-01	0	42	104	0	78	13527
2026-01-27 23:44:24.93	21.26	3.12	-51.9	-63.2	3.8	8.47e-01	0	42	104	0	75	13155
2026-01-27 23:44:27.95	21.56	3.27	-51.9	-63.5	3.8	8.46e-01	0	42	104	0	75	13632
2026-01-27 23:44:30.98	21.85	3.41	-51.9	-63.6	3.8	8.46e-01	0	42	104	0	75	13765
2026-01-27 23:44:34.00	22.15	3.56	-51.9	-63.4	3.8	8.46e-01	0	42	104	0	75	13519
2026-01-27 23:44:37.01	22.45	3.71	-51.8	-63.0	3.8	8.47e-01	0	42	104	0	75	12929
2026-01-27 23:44:40.03	22.76	3.85	-51.8	-63.3	3.8	8.46e-01	0	42	104	0	75	13305
2026-01-27 23:44:43.05	23.06	4.00	-51.8	-63.3	3.8	8.47e-01	0	42	104	0	75	13368
2026-01-27 23:44:46.08	23.37	4.15	-51.7	-61.9	3.8	8.45e-01	0	42	104	0	75	11289
2026-01-27 23:44:49.09	23.69	4.30	-51.3	-59.0	4.6	8.15e-01	0	42	0	0	74	8655
2026-01-27 23:44:52.12	24.00	4.45	-50.0	-54.3	8.2	1.16e-01	0	42	0	9437184	71	5990
2026-01-27 23:44:55.13	24.32	4.59	-46.8	-48.9	13.8	4.00e-05	0	42	0	26214400	65	4498
2026-01-27 23:44:58.15	24.64	4.74	-44.6	-45.9	16.9	0.00e+00	0	42	0	42991616	61	4048
2026-01-27 23:45:01.17	24.97	4.89	-45.7	-47.4	15.5	0.00e+00	0	42	0	59768832	61	4760
2026-01-27 23:45:04.19	25.30	5.04	-49.6	-53.6	9.0	7.52e-03	0	43	0	76546048	69	6181
2026-01-27 23:45:07.22	25.63	5.19	-46.5	-48.3	14.5	3.40e-06	0	43	0	85983232	65	4223
2026-01-27 23:45:10.24	25.96	5.34	-43.7	-44.8	18.6	0.00e+00	0	43	0	100663296	59	3975
2026-01-27 23:45:13.26	26.30	5.49	-43.2	-44.3	19.1	0.00e+00	0	43	0	117440512	58	3978
2026-01-27 23:45:16.29	26.65	5.64	-43.0	-44.1	19.3	0.00e+00	0	43	0	134217728	57	4111
2026-01-27 23:45:19.31	26.99	5.78	-43.0	-44.1	19.3	0.00e+00	0	43	0	150994944	57	4110
2026-01-27 23:45:22.33	27.34	5.93	-43.1	-44.2	19.3	0.00e+00	0	43	0	168820736	57	4154
2026-01-27 23:45:25.36	27.69	6.08	-43.2	-44.3	19.2	0.00e+00	0	43	0	185597952	57	4219
2026-01-27 23:45:28.37	28.04	6.23	-42.7	-43.7	19.8	0.00e+00	0	43	0	202375168	57	3939
2026-01-27 23:45:31.39	28.40	6.38	-42.9	-43.9	19.5	0.00e+00	0	43	0	219152384	57	4044
2026-01-27 23:45:34.41	28.77	6.53	-42.8	-43.8	19.6	0.00e+00	0	43	0	235929600	57	4004
2026-01-27 23:45:37.43	29.13	6.68	-42.7	-43.7	19.8	0.00e+00	0	43	0	253755392	57	3953
2026-01-27 23:45:40.45	29.50	6.82	-42.7	-43.8	19.8	0.00e+00	0	43	0	270532608	57	3970
2026-01-27 23:45:43.48	29.87	6.97	-42.6	-43.6	19.9	0.00e+00	0	43	0	287309824	57	3907
2026-01-27 23:45:46.50	30.25	7.12	-42.6	-43.6	20.0	0.00e+00	0	43	0	304087040	56	4102
2026-01-27 23:45:49.52	30.63	7.27	-42.6	-43.6	20.0	0.00e+00	0	43	0	321912832	56	4135
2026-01-27 23:45:52.54	31.02	7.42	-42.6	-43.6	20.0	0.00e+00	0	43	0	338690048	56	4140
2026-01-27 23:45:55.57	31.40	7.56	-42.1	-43.0	20.6	0.00e+00	0	43	0	355467264	56	3867
2026-01-27 23:45:58.59	31.80	7.71	-42.1	-43.0	20.6	0.00e+00	0	43	0	372244480	56	3853
2026-01-27 23:46:01.61	32.19	7.86	-42.0	-42.9	20.6	0.00e+00	0	43	0	390070272	55	4020
2026-01-27 23:46:04.63	32.59	8.01	-42.1	-43.0	20.5	0.00e+00	0	43	0	406847488	55	4094
2026-01-27 23:46:07.66	32.99	8.15	-42.0	-42.9	20.7	0.00e+00	0	43	0	423624704	55	4038
2026-01-27 23:46:10.67	33.40	8.30	-42.1	-43.0	20.5	0.00e+00	0	43	0	440401920	55	4091
2026-01-27 23:46:13.69	33.81	8.44	-42.0	-43.0	20.6	0.00e+00	0	43	0	457179136	55	4073
2026-01-27 23:46:16.70	34.22	8.59	-42.1	-43.1	20.5	0.00e+00	0	43	0	473956352	55	4113
2026-01-27 23:46:19.73	34.64	8.73	-42.0	-43.0	20.6	0.00e+00	0	43	0	491782144	55	4064
2026-01-27 23:46:22.75	35.07	8.88	-41.9	-42.8	20.8	0.00e+00	0	43	0	508559360	55	3998
2026-01-27 23:46:25.77	35.49	9.02	-42.0	-43.0	20.7	0.00e+00	0	43	0	525336576	55	4055
2026-01-27 23:46:28.79	35.93	9.17	-41.8	-42.8	20.9	0.00e+00	0	43	0	542113792	55	3966
2026-01-27 23:46:31.81	36.36	9.31	-41.7	-42.6	21.0	0.00e+00	0	43	0	559939584	55	3900
2026-01-27 23:46:34.83	36.80	9.45	-41.6	-42.5	21.1	0.00e+00	0	43	0	576716800	55	3848
2026-01-27 23:46:37.85	37.24	9.59	-41.6	-42.5	21.2	0.00e+00	0	43	0	593494016	54	4054
2026-01-27 23:46:40.87	37.69	9.73	-41.5	-42.4	21.3	0.00e+00	0	43	0	610271232	54	4016
2026-01-27 23:46:43.89	38.14	9.87	-41.7	-42.6	21.1	0.00e+00	0	43	0	627048448	54	4105
2026-01-27 23:46:46.92	38.60	10.01	-41.6	-42.5	21.2	0.00e+00	0	43	0	644874240	54	4076
2026-01-27 23:46:49.94	39.06	10.15	-41.4	-42.3	21.4	0.00e+00	0	43	0	661651456	54	3968
2026-01-27 23:46:52.96	39.52	10.29	-41.3	-42.1	21.6	0.00e+00	0	43	0	678428672	54	3907
2026-01-27 23:46:55.98	39.99	10.43	-41.3	-42.2	21.5	0.00e+00	0	43	0	695205888	54	3920
2026-01-27 23:46:59.00	40.47	10.56	-41.3	-42.1	21.6	0.00e+00	0	43	0	711983104	54	3907
2026-01-27 23:47:02.03	40.94	10.70	-41.3	-42.2	21.5	0.00e+00	0	43	0	729808896	54	3927
2026-01-27 23:47:05.05	41.43	10.83	-41.1	-41.9	21.8	0.00e+00	0	43	0	746586112	54	3804
2026-01-27 23:47:08.08	41.91	10.96	-41.0	-41.9	21.8	0.00e+00	0	43	0	763363328	53	4018
2026-01-27 23:47:11.09	42.40	11.09	-41.0	-41.9	21.8	0.00e+00	0	43	0	780140544	53	4005
2026-01-27 23:47:14.11	42.90	11.23	-41.1	-41.9	21.8	0.00e+00	0	43	0	796917760	53	4032
2026-01-27 23:47:17.12	43.39	11.35	-40.8	-41.7	22.0	0.00e+00	0	43	0	814743552	53	3916
2026-01-27 23:47:20.15	43.90	11.48	-40.8	-41.6	22.1	0.00e+00	0	44	0	831520768	53	3902
2026-01-27 23:47:23.17	44.40	11.61	-41.0	-41.8	21.9	0.00e+00	0	43	0	848297984	53	3981
2026-01-27 23:47:26.18	44.91	11.73	-41.2	-42.1	21.7	0.00e+00	0	43	0	865075200	53	4108
2026-01-27 23:47:29.20	45.43	11.86	-41.0	-41.9	21.8	0.00e+00	0	43	0	881852416	53	4023
2026-01-27 23:47:32.22	45.95	11.98	-40.9	-41.7	22.0	0.00e+00	0	43	0	899678208	53	3947
2026-01-27 23:47:35.25	46.47	12.10	-40.9	-41.8	21.9	0.00e+00	0	43	0	916455424	53	3975
2026-01-27 23:47:38.26	47.00	12.22	-40.6	-41.4	22.3	0.00e+00	0	43	0	933232640	53	3820
2026-01-27 23:47:41.28	47.53	12.34	-40.8	-41.7	22.1	0.00e+00	0	43	0	950009856	53	3916
2026-01-27 23:47:44.30	48.07	12.46	-41.0	-41.9	21.9	0.00e+00	0	43	0	966787072	53	4020
2026-01-27 23:47:47.31	48.61	12.57	-40.9	-41.7	22.0	0.00e+00	0	43	0	983564288	53	3946
2026-01-27 23:47:50.33	49.15	12.68	-40.4	-41.2	22.5	0.00e+00	0	43	0	1001390080	52	3941
2026-01-27 23:47:53.35	49.70	12.79	-40.3	-41.1	22.6	0.00e+00	0	43	0	1018167296	52	3888
2026-01-27 23:47:56.37	50.25	12.90	-40.7	-41.5	22.2	0.00e+00	0	43	0	1034944512	52	4082
2026-01-27 23:47:59.40	50.81	13.01	-40.8	-41.6	22.2	0.00e+00	0	43	0	1051721728	52	4124
2026-01-27 23:48:02.42	51.37	13.12	-40.6	-41.4	22.3	0.00e+00	0	43	0	1069547520	52	4043
2026-01-27 23:48:05.44	51.94	13.22	-40.4	-41.2	22.5	0.00e+00	0	43	0	1086324736	52	3955
2026-01-27 23:48:08.45	52.50	13.32	-40.3	-41.1	22.6	0.00e+00	0	43	0	1103101952	52	3908
2026-01-27 23:48:11.48	53.08	13.42	-40.6	-41.4	22.5	0.00e+00	0	43	0	1119879168	52	4017
2026-01-27 23:48:14.50	53.65	13.52	-40.4	-41.2	22.5	0.00e+00	0	43	0	1136656384	52	3951
2026-01-27 23:48:17.52	54.23	13.61	-40.6	-41.4	22.4	0.00e+00	0	43	0	1154482176	52	4029
2026-01-27 23:48:20.54	54.82	13.70	-40.6	-41.4	22.4	0.00e+00	0	43	0	1171259392	52	4018
2026-01-27 23:48:23.58	55.41	13.79	-40.5	-41.4	22.4	0.00e+00	0	43	0	1188036608	52	4014
2026-01-27 23:48:26.60	56.00	13.88	-40.4	-41.2	22.6	0.00e+00	0	43	0	1204813824	52	3944
2026-01-27 23:48:29.62	56.59	13.97	-40.4	-41.2	22.6	0.00e+00	0	43	0	1222639616	52	3925
2026-01-27 23:48:32.64	57.19	14.05	-40.2	-41.0	22.8	0.00e+00	0	43	0	1239416832	52	3830
2026-01-27 23:48:35.67	57.79	14.13	-40.2	-41.0	22.8	0.00e+00	0	43	0	1256194048	52	3834
2026-01-27 23:48:38.69	58.39	14.20	-40.2	-41.0	22.8	0.00e+00	0	43	0	1272971264	52	3865
2026-01-27 23:48:41.71	59.00	14.28	-40.1	-40.9	22.9	0.00e+00	0	43	0	1289748480	52	3790
2026-01-27 23:48:44.73	59.60	14.35	-40.1	-40.9	23.0	0.00e+00	0	43	0	1307574272	51	4030
2026-01-27 23:48:47.75	60.22	14.42	-40.2	-41.0	22.9	0.00e+00	0	43	0	1324351488	51	4065
2026-01-27 23:48:50.77	60.83	14.49	-40.3	-41.1	22.8	0.00e+00	0	43	0	1341128704	51	4115
2026-01-27 23:48:53.79	61.45	14.55	-40.4	-41.3	22.6	0.00e+00	0	43	0	1357905920	51	4205
2026-01-27 23:48:56.81	62.07	14.61	-40.6	-41.4	22.5	0.00e+00	0	43	0	1374683136	51	4257
2026-01-27 23:48:59.83	62.69	14.67	-40.3	-41.1	22.8	0.00e+00	0	43	0	1392508928	51	4114
2026-01-27 23:49:02.85	63.31	14.72	-40.2	-41.0	22.9	0.00e+00	0	43	0	1409286144	51	4074
2026-01-27 23:49:05.87	63.94	14.77	-40.5	-41.3	22.6	0.00e+00	0	43	0	1426063360	51	4210
2026-01-27 23:49:08.89	64.57	14.82	-40.2	-41.0	22.8	0.00e+00	0	43	0	1442840576	51	4094
2026-01-27 23:49:11.92	65.20	14.86	-40.2	-40.9	22.9	0.00e+00	0	43	0	1460666368	51	4047
2026-01-27 23:49:14.93	65.83	14.91	-40.3	-41.1	22.8	0.00e+00	0	43	0	1477443584	51	4121
2026-01-27 23:49:17.96	66.47	14.95	-40.0	-40.8	23.1	0.00e+00	0	43	0	1494220800	51	3987
2026-01-27 23:49:20.97	67.10	14.98	-40.0	-40.8	23.1	0.00e+00	0	43	0	1510998016	51	3976
2026-01-27 23:49:23.99	67.74	15.01	-40.2	-41.0	22.9	0.00e+00	0	43	0	1527775232	51	4063
2026-01-27 23:49:27.01	68.38	15.04	-40.1	-40.8	23.0	0.00e+00	0	44	0	1545601024	51	3999
2026-01-27 23:49:30.02	69.01	15.07	-40.2	-41.0	22.9	0.00e+00	0	43	0	1562378240	51	4077
2026-01-27 23:49:33.05	69.66	15.09	-40.3	-41.2	22.8	0.00e+00	0	43	0	1579155456	51	4153
2026-01-27 23:49:36.06	70.29	15.11	-40.3	-41.1	22.8	0.00e+00	0	43	0	1595932672	51	4116
2026-01-27 23:49:39.08	70.94	15.13	-40.3	-41.1	22.8	0.00e+00	0	43	0	1612709888	51	4127
2026-01-27 23:49:42.10	71.58	15.14	-40.2	-41.0	22.9	0.00e+00	0	43	0	1629487104	51	4077
2026-01-27 23:49:45.12	72.22	15.15	-40.1	-40.9	23.0	0.00e+00	0	43	0	1647312896	51	4017
2026-01-27 23:49:48.14	72.87	15.15	-40.3	-41.1	22.8	0.00e+00	0	43	0	1664090112	51	4142
2026-01-27 23:49:51.16	73.51	15.15	-40.4	-41.2	22.7	0.00e+00	0	43	0	1680867328	51	4156
2026-01-27 23:49:54.19	74.16	15.15	-40.4	-41.2	22.7	0.00e+00	0	44	0	1697644544	51	4168
2026-01-27 23:49:57.21	74.80	15.15	-40.3	-41.1	22.8	0.00e+00	0	43	0	1714421760	51	4100
2026-01-27 23:50:00.22	75.44	15.14	-40.4	-41.2	22.7	0.00e+00	0	43	0	1732247552	51	4183
2026-01-27 23:50:03.24	76.08	15.13	-40.3	-41.1	22.8	0.00e+00	0	43	0	1749024768	51	4123
2026-01-27 23:50:06.26	76.73	15.12	-40.1	-40.9	23.0	0.00e+00	0	43	0	1765801984	51	4035
2026-01-27 23:50:09.28	77.37	15.10	-40.3	-41.1	22.8	0.00e+00	0	43	0	1782579200	51	4115
2026-01-27 23:50:12.31	78.01	15.08	-40.3	-41.1	22.8	0.00e+00	0	43	0	1799356416	51	4104
2026-01-27 23:50:15.33	78.65	15.05	-40.3	-41.1	22.8	0.00e+00	0	43	0	1817182208	51	4101
2026-01-27 23:50:18.35	79.29	15.03	-40.2	-41.0	22.8	0.00e+00	0	43	0	1833959424	51	4094
2026-01-27 23:50:21.38	79.93	14.99	-40.3	-41.1	22.8	0.00e+00	0	43	0	1850736640	51	4101
2026-01-27 23:50:24.40	80.57	14.96	-40.4	-41.2	22.6	0.00e+00	0	43	0	1867513856	51	4175
2026-01-27 23:50:27.43	81.21	14.92	-40.3	-41.1	22.8	0.00e+00	0	43	0	1885339648	51	4116
2026-01-27 23:50:30.45	81.84	14.88	-40.4	-41.2	22.7	0.00e+00	0	43	0	1902116864	51	4193
2026-01-27 23:50:33.47	82.47	14.84	-40.5	-41.4	22.6	0.00e+00	0	43	0	1918894080	51	4243
2026-01-27 23:50:36.50	83.11	14.79	-40.4	-41.3	22.6	0.00e+00	0	43	0	1935671296	51	4194
2026-01-27 23:50:39.52	83.73	14.74	-40.4	-41.3	22.7	0.00e+00	0	43	0	1952448512	51	4201
2026-01-27 23:50:42.53	84.36	14.69	-40.4	-41.2	22.6	0.00e+00	0	43	0	1970274304	51	4191
2026-01-27 23:50:45.56	84.98	14.63	-40.5	-41.3	22.6	0.00e+00	0	43	0	1987051520	51	4220
2026-01-27 23:50:48.58	85.60	14.57	-40.5	-41.3	22.5	0.00e+00	0	43	0	2003828736	51	4242
2026-01-27 23:50:51.60	86.22	14.51	-40.6	-41.4	22.3	0.00e+00	0	43	0	2020605952	52	4034
2026-01-27 23:50:54.62	86.84	14.44	-40.5	-41.3	22.5	0.00e+00	0	43	0	2037383168	52	3974
2026-01-27 23:50:57.65	87.46	14.38	-40.6	-41.5	22.3	0.00e+00	0	43	0	2055208960	52	4066
2026-01-27 23:51:00.68	88.07	14.31	-40.5	-41.4	22.2	0.00e+00	0	44	0	2071986176	52	4025
2026-01-27 23:51:03.71	88.68	14.23	-40.5	-41.3	22.2	0.00e+00	0	43	0	2088763392	52	3996
2026-01-27 23:51:06.72	89.28	14.16	-40.5	-41.3	22.2	0.00e+00	0	43	0	2105540608	52	3990
2026-01-27 23:51:09.75	89.89	14.08	-40.3	-41.2	22.3	0.00e+00	0	43	0	2122317824	52	3930
2026-01-27 23:51:12.77	90.49	14.00	-40.4	-41.3	22.3	0.00e+00	0	43	0	2140143616	52	3964
2026-01-27 23:51:15.79	91.08	13.91	-40.5	-41.4	22.1	0.00e+00	0	43	0	2156920832	52	4035
2026-01-27 23:51:18.82	91.68	13.82	-40.5	-41.4	22.1	0.00e+00	0	44	0	2173698048	52	4020
2026-01-27 23:51:21.83	92.26	13.74	-40.7	-41.5	22.1	0.00e+00	0	43	0	2190475264	52	4090
2026-01-27 23:51:24.85	92.85	13.64	-40.7	-41.6	22.0	0.00e+00	0	43	0	2207252480	52	4136
2026-01-27 23:51:27.87	93.43	13.55	-40.6	-41.5	22.0	0.00e+00	0	43	0	2225078272	52	4064
2026-01-27 23:51:30.90	94.01	13.45	-40.9	-41.8	21.7	0.00e+00	0	43	0	2241855488	52	4218
2026-01-27 23:51:33.92	94.59	13.35	-40.8	-41.6	21.9	0.00e+00	0	43	0	2258632704	52	4141
2026-01-27 23:51:36.94	95.16	13.25	-40.7	-41.6	22.0	0.00e+00	0	43	0	2275409920	52	4103
2026-01-27 23:51:39.97	95.73	13.15	-40.8	-41.7	21.8	0.00e+00	0	43	0	2292187136	52	4156
2026-01-27 23:51:42.99	96.29	13.05	-40.9	-41.9	21.7	0.00e+00	0	43	0	2310012928	52	4250
2026-01-27 23:51:46.01	96.85	12.94	-41.0	-41.9	21.7	0.00e+00	0	43	0	2326790144	52	4287
2026-01-27 23:51:49.03	97.41	12.83	-41.2	-42.1	21.6	0.00e+00	0	43	0	2343567360	53	4132
2026-01-27 23:51:52.05	97.96	12.72	-41.2	-42.1	21.5	0.00e+00	0	43	0	2360344576	53	4124
2026-01-27 23:51:55.07	98.51	12.61	-41.1	-42.0	21.6	0.00e+00	0	43	0	2377121792	53	4082
2026-01-27 23:51:58.10	99.05	12.49	-41.0	-41.8	21.7	0.00e+00	0	43	0	2394947584	53	4001
2026-01-27 23:52:01.12	99.59	12.37	-41.2	-42.1	21.5	0.00e+00	0	43	0	2411724800	53	4127
2026-01-27 23:52:04.15	100.13	12.26	-41.1	-42.1	21.5	0.00e+00	0	43	0	2428502016	53	4105
2026-01-27 23:52:07.17	100.66	12.14	-41.2	-42.1	21.4	0.00e+00	0	43	0	2445279232	53	4105
2026-01-27 23:52:10.19	101.19	12.01	-41.1	-42.0	21.5	0.00e+00	0	43	0	2462056448	53	4085
2026-01-27 23:52:13.21	101.71	11.89	-41.3	-42.2	21.4	0.00e+00	0	43	0	2479882240	53	4165
2026-01-27 23:52:16.23	102.23	11.77	-41.4	-42.3	21.3	0.00e+00	0	43	0	2496659456	53	4237
2026-01-27 23:52:19.25	102.75	11.64	-41.5	-42.4	21.1	0.00e+00	0	43	0	2513436672	53	4281
2026-01-27 23:52:22.27	103.26	11.51	-41.7	-42.6	21.0	0.00e+00	0	43	0	2530213888	53	4368
2026-01-27 23:52:25.29	103.76	11.39	-41.7	-42.7	20.9	0.00e+00	0	43	0	2546991104	54	4155
2026-01-27 23:52:28.32	104.26	11.26	-41.7	-42.7	20.9	0.00e+00	0	43	0	2564816896	54	4166
2026-01-27 23:52:31.34	104.76	11.13	-41.8	-42.7	20.9	0.00e+00	0	43	0	2581594112	54	4168
2026-01-27 23:52:34.37	105.26	10.99	-41.6	-42.5	21.0	0.00e+00	0	44	0	2598371328	54	4094
2026-01-27 23:52:37.39	105.75	10.86	-41.7	-42.6	21.0	0.00e+00	0	43	0	2615148544	54	4140
2026-01-27 23:52:40.41	106.23	10.72	-41.7	-42.7	20.9	0.00e+00	0	43	0	2631925760	54	4164
2026-01-27 23:52:43.43	106.71	10.59	-41.7	-42.6	20.9	0.00e+00	0	43	0	2649751552	54	4132
2026-01-27 23:52:46.45	107.19	10.45	-41.7	-42.7	20.9	0.00e+00	0	43	0	2666528768	54	4165
2026-01-27 23:52:49.48	107.66	10.31	-41.7	-42.6	21.0	0.00e+00	0	43	0	2683305984	54	4120
2026-01-27 23:52:52.50	108.13	10.18	-41.9	-42.9	20.7	0.00e+00	0	44	0	2700083200	54	4261
2026-01-27 23:52:55.52	108.59	10.04	-41.9	-42.9	20.6	0.00e+00	0	43	0	2717908992	54	4268
2026-01-27 23:52:58.53	109.05	9.90	-41.9	-42.9	20.6	0.00e+00	0	43	0	2734686208	54	4258
2026-01-27 23:53:01.56	109.50	9.76	-42.0	-43.0	20.5	0.00e+00	0	43	0	2751463424	54	4322
2026-01-27 23:53:04.59	109.95	9.61	-42.0	-43.0	20.5	0.00e+00	0	43	0	2768240640	54	4317
2026-01-27 23:53:07.60	110.40	9.47	-42.1	-43.1	20.4	0.00e+00	0	43	0	2785017856	54	4346
2026-01-27 23:53:10.62	110.84	9.33	-42.1	-43.1	20.4	0.00e+00	0	43	0	2802843648	54	4351
2026-01-27 23:53:13.65	111.28	9.19	-42.1	-43.1	20.4	0.00e+00	0	43	0	2819620864	55	4121
2026-01-27 23:53:16.67	111.71	9.04	-42.3	-43.3	20.2	0.00e+00	0	43	0	2836398080	55	4210
2026-01-27 23:53:19.69	112.14	8.90	-42.5	-43.6	20.0	0.00e+00	0	43	0	2853175296	55	4351
2026-01-27 23:53:22.71	112.57	8.75	-42.4	-43.4	20.1	0.00e+00	0	43	0	2871001088	55	4282
2026-01-27 23:53:25.74	112.99	8.61	-42.4	-43.5	20.0	0.00e+00	0	43	0	2887778304	55	4299
2026-01-27 23:53:28.75	113.41	8.46	-42.4	-43.4	20.0	0.00e+00	0	43	0	2904555520	55	4285
2026-01-27 23:53:31.77	113.82	8.31	-42.4	-43.5	20.0	0.00e+00	0	43	0	2921332736	55	4300
2026-01-27 23:53:34.79	114.23	8.17	-42.5	-43.5	19.9	0.00e+00	0	43	0	2938109952	55	4337
2026-01-27 23:53:37.81	114.64	8.02	-42.5	-43.6	19.9	0.00e+00	0	43	0	2955935744	55	4364
2026-01-27 23:53:40.84	115.04	7.87	-42.5	-43.5	19.9	0.00e+00	0	43	0	2972712960	55	4335
2026-01-27 23:53:43.86	115.44	7.72	-42.3	-43.3	20.0	0.00e+00	0	43	0	2989490176	55	4236
2026-01-27 23:53:46.88	115.83	7.57	-42.4	-43.4	19.9	0.00e+00	0	43	0	3006267392	55	4255
2026-01-27 23:53:49.91	116.22	7.42	-42.4	-43.5	19.8	0.00e+00	0	43	0	3023044608	55	4311
2026-01-27 23:53:52.93	116.61	7.28	-42.7	-43.8	19.5	0.00e+00	0	43	0	3040870400	55	4443
2026-01-27 23:53:55.95	116.99	7.13	-42.9	-44.0	19.3	0.00e+00	0	43	0	3057647616	56	4305
2026-01-27 23:53:58.97	117.37	6.98	-43.1	-44.2	19.0	0.00e+00	0	44	0	3074424832	56	4424
2026-01-27 23:54:02.00	117.74	6.83	-43.2	-44.4	18.9	0.00e+00	0	43	0	3091202048	56	4494
2026-01-27 23:54:05.01	118.11	6.68	-43.0	-44.2	19.0	0.00e+00	0	43	0	3107979264	57	4164
2026-01-27 23:54:08.03	118.48	6.53	-43.1	-44.3	18.9	0.00e+00	0	43	0	3125805056	57	4198
2026-01-27 23:54:11.06	118.85	6.38	-43.1	-44.2	18.9	0.00e+00	0	43	0	3142582272	57	4162
2026-01-27 23:54:14.08	119.21	6.23	-43.1	-44.3	18.8	0.00e+00	0	43	0	3159359488	57	4212
2026-01-27 23:54:17.10	119.56	6.08	-43.1	-44.3	18.8	0.00e+00	0	43	0	3176136704	57	4199
2026-01-27 23:54:20.12	119.92	5.93	-43.1	-44.3	18.8	0.00e+00	0	44	0	3193962496	57	4198
2026-01-27 23:54:23.15	120.27	5.78	-43.1	-44.3	18.6	0.00e+00	0	43	0	3210739712	57	4239
2026-01-27 23:54:26.17	120.62	5.63	-43.1	-44.3	18.6	0.00e+00	0	43	0	3227516928	57	4235
2026-01-27 23:54:29.19	120.96	5.48	-43.2	-44.4	18.5	0.00e+00	0	43	0	3244294144	57	4280
2026-01-27 23:54:32.22	121.30	5.33	-43.1	-44.3	18.6	0.00e+00	0	43	0	3262119936	57	4195
2026-01-27 23:54:35.25	121.64	5.18	-43.1	-44.3	18.5	0.00e+00	0	44	0	3278897152	57	4223
2026-01-27 23:54:38.27	121.97	5.03	-43.1	-44.3	18.5	0.00e+00	0	43	0	3295674368	57	4213
2026-01-27 23:54:41.29	122.30	4.88	-52.6	-64.5	3.8	8.46e-01	0	43	104	3298820096	75	15359
2026-01-27 23:54:44.31	122.63	4.73	-53.2	-65.1	3.8	8.45e-01	0	43	104	3298820096	76	15428
2026-01-27 23:54:47.33	122.95	4.58	-53.5	-65.4	3.8	8.46e-01	0	43	104	3298820096	77	15189
2026-01-27 23:54:50.35	123.27	4.43	-53.7	-65.6	3.8	8.47e-01	0	44	104	3298820096	77	15561
2026-01-27 23:54:53.37	123.59	4.28	-53.9	-65.8	3.8	8.46e-01	0	43	104	3298820096	78	15027
2026-01-27 23:54:56.39	123.90	4.13	-54.0	-65.9	3.8	8.46e-01	0	43	104	3298820096	78	15219
2026-01-27 23:54:59.41	124.21	3.98	-54.0	-66.0	3.8	8.46e-01	0	43	104	3298820096	78	15251
2026-01-27 23:55:02.44	124.52	3.83	-54.1	-66.0	3.8	8.46e-01	0	44	104	3298820096	78	15330
2026-01-27 23:55:05.45	124.82	3.68	-54.1	-66.1	3.8	8.46e-01	0	43	104	3298820096	78	15437
2026-01-27 23:55:08.48	125.13	3.53	-54.2	-66.1	3.8	8.44e-01	0	43	104	3298820096	78	15518
2026-01-27 23:55:11.50	125.43	3.39	-54.2	-66.2	3.8	8.46e-01	0	43	104	3298820096	79	14772
2026-01-27 23:55:14.53	125.72	3.24	-54.3	-66.2	3.8	8.46e-01	0	43	104	3298820096	79	14787
2026-01-27 23:55:17.54	126.02	3.09	-54.3	-66.2	3.8	8.47e-01	0	43	104	3298820096	79	14848
2026-01-27 23:55:20.56	126.31	2.94	-54.2	-66.1	3.8	8.45e-01	0	44	104	3298820096	79	14687
2026-01-27 23:55:23.58	126.59	2.79	-54.1	-66.1	3.8	8.46e-01	0	43	104	3298820096	79	14558
2026-01-27 23:55:26.60	126.88	2.65	-54.0	-65.9	3.8	8.46e-01	0	43	104	3298820096	79	14363
2026-01-27 23:55:29.62	127.16	2.50	-53.8	-65.8	3.8	8.46e-01	0	44	104	3298820096	79	14062
2026-01-27 23:55:32.63	127.44	2.35	-53.6	-65.5	3.8	8.47e-01	0	44	104	3298820096	78	14441
2026-01-27 23:55:35.65	127.72	2.21	-53.1	-65.0	3.8	8.46e-01	0	44	104	3298820096	78	13713
2026-01-27 23:55:38.67	127.99	2.06	-53.1	-65.0	3.8	8.46e-01	0	43	104	3298820096	78	13640

#Closed at: 2026-01-27 23:55:41
#Recorded file [3298 MB]: D:/lorett/data/31041_260128_024403.dat