passes_logs/2026/01/27/R3.2S_Murmansk/R3.2S_Murmansk__20260127_092413_NOAA_20_JPSS-1_rec.log

#Pass ID: 20260127_092413_NOAA 20 (JPSS-1)
#Satellite: NOAA 20 (JPSS-1)
#Configuration: NOAA 20
#almurnet v.1.7.20251203
#Start time: 2026-01-27 09:24:13

#Version: 2.2.20231116
#Station: R3.2S_Murmansk
#Location: 33.079688 lon 68.888172 lat
#TLE: 1 43013U 17073A   26026.46665230  .00000148  00000+0  91302-4 0  9998
#TLE: 2 43013  98.7646 327.2856 0001008  22.9532 337.1688 14.19540616424360

#Time	Az	El	Level	Level2	SNR	BER	BlckErr	Temp	State	Recorded	gain1	gain2
2026-01-27 09:24:13.19	148.70	1.99	-54.1	-69.1	3.8	1.49e+00	0	40	0	0	79	20662
2026-01-27 09:24:17.23	148.70	2.25	-54.3	-69.3	3.8	1.49e+00	0	41	104	0	79	21030
2026-01-27 09:24:21.26	148.70	2.51	-54.1	-69.1	3.8	1.49e+00	0	41	104	0	79	20648
2026-01-27 09:24:25.29	148.70	2.77	-53.9	-68.9	3.8	1.49e+00	0	41	104	0	79	20183
2026-01-27 09:24:29.32	148.70	3.04	-53.5	-68.5	3.8	1.49e+00	0	41	104	0	79	19275
2026-01-27 09:24:33.35	148.69	3.31	-52.8	-67.8	3.8	1.49e+00	0	41	104	0	77	19878
2026-01-27 09:24:37.38	148.69	3.58	-52.2	-66.7	3.8	1.49e+00	0	41	104	0	76	18666
2026-01-27 09:24:41.42	148.69	3.86	-52.2	-67.1	3.8	1.49e+00	0	41	104	0	76	19506
2026-01-27 09:24:45.44	148.68	4.14	-51.8	-61.8	4.8	1.21e+00	0	41	0	0	75	11265
2026-01-27 09:24:49.47	148.68	4.42	-50.4	-55.2	10.6	8.29e-03	0	41	0	7340032	72	6272
2026-01-27 09:24:53.50	148.67	4.70	-49.0	-52.2	13.9	8.30e-06	0	42	0	14680064	70	4966
2026-01-27 09:24:57.52	148.67	4.99	-48.6	-51.4	14.8	7.00e-07	0	41	0	23068672	69	4780
2026-01-27 09:25:01.56	148.66	5.28	-50.1	-54.6	11.1	1.41e-01	0	42	0	30408704	72	5802
2026-01-27 09:25:05.59	148.66	5.57	-48.6	-51.4	14.9	0.00e+00	0	42	0	37748736	69	4770
2026-01-27 09:25:09.62	148.65	5.87	-48.6	-51.3	15.1	0.00e+00	0	42	0	45088768	68	5001
2026-01-27 09:25:13.65	148.65	6.17	-48.5	-51.1	15.3	0.00e+00	0	42	0	52428800	68	4926
2026-01-27 09:25:17.67	148.64	6.47	-48.4	-50.9	15.5	0.00e+00	0	42	0	60817408	68	4806
2026-01-27 09:25:21.69	148.63	6.78	-48.4	-50.9	15.6	0.00e+00	0	42	0	68157440	68	4777
2026-01-27 09:25:25.71	148.63	7.09	-48.2	-50.6	15.9	0.00e+00	0	42	0	75497472	68	4610
2026-01-27 09:25:29.74	148.62	7.40	-48.1	-50.5	16.1	0.00e+00	0	42	0	82837504	68	4547
2026-01-27 09:25:33.76	148.61	7.72	-48.3	-50.7	15.9	0.00e+00	0	42	0	90177536	68	4661
2026-01-27 09:25:37.79	148.60	8.04	-48.1	-50.3	16.3	0.00e+00	0	42	0	97517568	68	4488
2026-01-27 09:25:41.83	148.59	8.37	-48.0	-50.2	16.4	0.00e+00	0	42	0	105906176	67	4680
2026-01-27 09:25:45.84	148.58	8.70	-47.9	-50.1	16.6	0.00e+00	0	42	0	113246208	67	4616
2026-01-27 09:25:49.88	148.57	9.04	-47.7	-49.8	16.8	0.00e+00	0	42	0	120586240	67	4477
2026-01-27 09:25:53.90	148.56	9.38	-47.6	-49.7	17.0	0.00e+00	0	42	0	127926272	67	4420
2026-01-27 09:25:57.93	148.55	9.72	-47.6	-49.7	17.0	0.00e+00	0	42	0	136314880	67	4397
2026-01-27 09:26:01.95	148.54	10.07	-47.6	-49.6	17.1	0.00e+00	0	42	0	143654912	67	4375
2026-01-27 09:26:05.98	148.52	10.43	-47.5	-49.5	17.2	0.00e+00	0	42	0	150994944	66	4574
2026-01-27 09:26:10.01	148.51	10.79	-47.5	-49.5	17.2	0.00e+00	0	42	0	158334976	66	4582
2026-01-27 09:26:14.03	148.50	11.15	-47.4	-49.4	17.4	0.00e+00	0	42	0	165675008	66	4513
2026-01-27 09:26:18.06	148.48	11.52	-47.3	-49.1	17.7	0.00e+00	0	42	0	174063616	66	4382
2026-01-27 09:26:22.09	148.46	11.90	-47.1	-49.0	17.8	0.00e+00	0	42	0	181403648	66	4298
2026-01-27 09:26:26.12	148.45	12.28	-47.1	-48.9	17.9	0.00e+00	0	42	0	188743680	66	4282
2026-01-27 09:26:30.15	148.43	12.67	-47.1	-48.9	17.9	0.00e+00	0	42	0	196083712	66	4279
2026-01-27 09:26:34.18	148.41	13.06	-47.0	-48.8	18.1	0.00e+00	0	42	0	203423744	65	4445
2026-01-27 09:26:38.21	148.39	13.47	-46.9	-48.6	18.3	0.00e+00	0	42	0	211812352	65	4367
2026-01-27 09:26:42.24	148.37	13.87	-46.9	-48.6	18.3	0.00e+00	0	42	0	219152384	65	4360
2026-01-27 09:26:46.27	148.35	14.29	-46.7	-48.3	18.5	0.00e+00	0	42	0	226492416	65	4239
2026-01-27 09:26:50.30	148.33	14.71	-46.8	-48.4	18.5	0.00e+00	0	42	0	233832448	65	4287
2026-01-27 09:26:54.34	148.31	15.14	-46.4	-48.0	18.9	0.00e+00	0	42	0	241172480	64	4305
2026-01-27 09:26:58.37	148.28	15.58	-46.2	-47.7	19.2	0.00e+00	0	42	0	249561088	64	4186
2026-01-27 09:27:02.39	148.26	16.02	-46.1	-47.5	19.5	0.00e+00	0	42	0	256901120	63	4333
2026-01-27 09:27:06.42	148.23	16.48	-46.0	-47.5	19.6	0.00e+00	0	42	0	264241152	63	4305
2026-01-27 09:27:10.46	148.21	16.94	-45.9	-47.4	19.7	0.00e+00	0	42	0	271581184	63	4256
2026-01-27 09:27:14.49	148.18	17.41	-45.8	-47.2	19.9	0.00e+00	0	43	0	278921216	63	4160
2026-01-27 09:27:18.53	148.15	17.89	-45.7	-47.0	20.0	0.00e+00	0	43	0	287309824	63	4098
2026-01-27 09:27:22.56	148.12	18.38	-45.6	-47.0	20.1	0.00e+00	0	42	0	294649856	63	4072
2026-01-27 09:27:26.59	148.08	18.88	-45.6	-47.0	20.1	0.00e+00	0	42	0	301989888	63	4058
2026-01-27 09:27:30.62	148.05	19.39	-45.4	-46.7	20.4	0.00e+00	0	42	0	309329920	62	4178
2026-01-27 09:27:34.66	148.01	19.92	-45.5	-46.9	20.2	0.00e+00	0	42	0	316669952	62	4249
2026-01-27 09:27:38.69	147.97	20.45	-45.4	-46.7	20.4	0.00e+00	0	42	0	325058560	62	4188
2026-01-27 09:27:42.73	147.93	20.99	-45.4	-46.7	20.4	0.00e+00	0	43	0	332398592	62	4189
2026-01-27 09:27:46.77	147.89	21.55	-45.3	-46.6	20.6	0.00e+00	0	42	0	339738624	62	4101
2026-01-27 09:27:50.79	147.85	22.12	-45.3	-46.6	20.5	0.00e+00	0	43	0	347078656	62	4132
2026-01-27 09:27:54.83	147.80	22.70	-45.3	-46.6	20.6	0.00e+00	0	43	0	355467264	62	4116
2026-01-27 09:27:58.86	147.75	23.29	-45.2	-46.5	20.7	0.00e+00	0	43	0	362807296	62	4076
2026-01-27 09:28:02.89	147.70	23.90	-45.4	-46.6	20.5	0.00e+00	0	42	0	370147328	62	4132
2026-01-27 09:28:06.93	147.65	24.53	-45.4	-46.7	20.4	0.00e+00	0	42	0	377487360	62	4187
2026-01-27 09:28:10.95	147.59	25.16	-45.6	-46.9	20.4	0.00e+00	0	42	0	384827392	62	4243
2026-01-27 09:28:14.99	147.53	25.82	-45.6	-46.9	20.3	0.00e+00	0	42	0	393216000	62	4281
2026-01-27 09:28:19.01	147.47	26.49	-45.8	-47.1	20.1	0.00e+00	0	42	0	400556032	62	4368
2026-01-27 09:28:23.04	147.40	27.17	-45.9	-47.3	20.0	0.00e+00	0	42	0	407896064	62	4465
2026-01-27 09:28:27.08	147.33	27.88	-46.1	-47.5	19.9	0.00e+00	0	43	0	415236096	62	4553
2026-01-27 09:28:31.11	147.26	28.60	-46.6	-48.1	19.2	0.00e+00	0	43	0	423624704	63	4621
2026-01-27 09:28:35.14	147.18	29.34	-47.0	-48.7	18.6	0.00e+00	0	43	0	430964736	64	4663
2026-01-27 09:28:39.17	147.10	30.11	-47.5	-49.3	18.0	0.00e+00	0	42	0	438304768	65	4732
2026-01-27 09:28:43.21	147.02	30.89	-48.2	-50.3	17.1	0.00e+00	0	43	0	445644800	67	4728
2026-01-27 09:28:47.24	146.93	31.70	-48.1	-50.1	17.2	0.00e+00	0	43	0	452984832	67	4646
2026-01-27 09:28:51.26	146.83	32.52	-48.2	-50.3	17.1	0.00e+00	0	43	0	460324864	67	4720
2026-01-27 09:28:55.29	146.73	33.37	-47.8	-49.7	17.6	0.00e+00	0	43	0	468713472	67	4430
2026-01-27 09:28:59.33	146.62	34.25	-47.3	-49.0	18.3	0.00e+00	0	43	0	476053504	66	4318
2026-01-27 09:29:03.36	146.50	35.15	-46.7	-48.3	19.0	0.00e+00	0	43	0	483393536	65	4223
2026-01-27 09:29:07.38	146.38	36.07	-45.4	-46.7	20.7	0.00e+00	0	43	0	490733568	62	4161
2026-01-27 09:29:11.41	146.25	37.02	-44.8	-45.9	21.4	0.00e+00	0	42	0	499122176	61	4049
2026-01-27 09:29:15.45	146.11	38.01	-44.3	-45.4	21.8	0.00e+00	0	43	0	506462208	60	4049
2026-01-27 09:29:19.47	145.96	39.01	-44.7	-45.8	21.6	0.00e+00	0	43	0	513802240	60	4212
2026-01-27 09:29:23.50	145.80	40.05	-44.9	-46.1	21.3	0.00e+00	0	43	0	521142272	60	4346
2026-01-27 09:29:27.53	145.62	41.13	-45.7	-46.9	20.5	0.00e+00	0	42	0	528482304	61	4540
2026-01-27 09:29:31.56	145.44	42.23	-46.0	-47.3	20.1	0.00e+00	0	43	0	536870912	62	4484
2026-01-27 09:29:35.58	145.24	43.36	-45.8	-47.1	20.3	0.00e+00	0	43	0	544210944	62	4388
2026-01-27 09:29:39.62	145.02	44.54	-46.8	-48.4	19.1	0.00e+00	0	42	0	551550976	64	4516
2026-01-27 09:29:43.64	144.79	45.74	-47.2	-48.8	18.7	0.00e+00	0	42	0	558891008	64	4744
2026-01-27 09:29:47.67	144.54	46.99	-48.2	-50.1	17.4	0.00e+00	0	43	0	566231040	66	4915
2026-01-27 09:29:51.70	144.26	48.27	-48.7	-50.8	16.7	0.00e+00	0	42	0	574619648	68	4744
2026-01-27 09:29:55.73	143.96	49.58	-47.3	-49.0	18.6	0.00e+00	0	42	0	581959680	66	4301
2026-01-27 09:29:59.75	143.63	50.94	-45.4	-46.6	20.9	0.00e+00	0	43	0	589299712	62	4134
2026-01-27 09:30:03.79	143.26	52.34	-44.2	-45.3	22.1	0.00e+00	0	43	0	596639744	60	3973
2026-01-27 09:30:07.82	142.86	53.77	-44.5	-45.6	22.1	0.00e+00	0	43	0	603979776	59	4348
2026-01-27 09:30:11.85	142.42	55.25	-44.7	-45.8	21.6	0.00e+00	0	43	0	612368384	60	4239
2026-01-27 09:30:15.88	141.92	56.76	-46.8	-48.3	19.2	0.00e+00	0	43	0	619708416	64	4475
2026-01-27 09:30:19.91	141.36	58.32	-49.4	-51.9	15.9	0.00e+00	0	42	0	627048448	69	5050
2026-01-27 09:30:23.94	140.73	59.91	-48.2	-50.2	17.5	0.00e+00	0	43	0	634388480	68	4394
2026-01-27 09:30:27.97	140.02	61.54	-46.0	-47.4	20.2	0.00e+00	0	43	0	641728512	63	4248
2026-01-27 09:30:32.01	139.20	63.21	-44.7	-45.8	21.7	0.00e+00	0	43	0	650117120	61	3991
2026-01-27 09:30:36.04	138.25	64.91	-44.6	-45.6	21.9	0.00e+00	0	42	0	657457152	60	4139
2026-01-27 09:30:40.07	137.14	66.65	-46.6	-48.0	19.7	0.00e+00	0	43	0	664797184	63	4591
2026-01-27 09:30:44.10	135.84	68.41	-46.6	-48.1	19.5	0.00e+00	0	43	0	672137216	64	4346
2026-01-27 09:30:48.12	134.28	70.18	-45.9	-47.2	20.4	0.00e+00	0	42	0	680525824	63	4158
2026-01-27 09:30:52.16	132.38	71.99	-46.1	-47.4	20.3	0.00e+00	0	42	0	687865856	63	4268
2026-01-27 09:30:56.19	130.03	73.79	-46.5	-47.9	19.8	0.00e+00	0	42	0	695205888	63	4514
2026-01-27 09:31:00.22	127.05	75.59	-46.5	-47.9	19.7	0.00e+00	0	42	0	702545920	64	4283
2026-01-27 09:31:04.25	123.20	77.36	-47.6	-49.3	18.3	0.00e+00	0	43	0	709885952	65	4756
2026-01-27 09:31:08.29	118.06	79.08	-46.1	-47.4	20.2	0.00e+00	0	43	0	717225984	64	4031
2026-01-27 09:31:12.32	111.03	80.69	-45.5	-46.7	20.9	0.00e+00	0	43	0	725614592	62	4175
2026-01-27 09:31:16.35	101.22	82.12	-46.5	-47.9	19.8	0.00e+00	0	43	0	732954624	63	4525
2026-01-27 09:31:20.39	87.56	83.24	-46.0	-47.3	20.4	0.00e+00	0	43	0	740294656	63	4203
2026-01-27 09:31:24.42	69.98	83.85	-46.4	-47.8	20.0	0.00e+00	0	42	0	747634688	63	4443
2026-01-27 09:31:28.45	50.75	83.79	-47.0	-48.6	19.2	0.00e+00	0	43	0	756023296	65	4350
2026-01-27 09:31:32.49	33.64	83.10	-47.8	-49.6	18.2	0.00e+00	0	43	0	763363328	66	4621
2026-01-27 09:31:36.52	20.64	81.93	-47.9	-49.6	18.1	0.00e+00	0	43	0	770703360	67	4381
2026-01-27 09:31:40.55	11.31	80.47	-46.3	-47.6	20.0	0.00e+00	0	43	0	778043392	64	4130
2026-01-27 09:31:44.58	4.62	78.83	-46.0	-47.3	20.4	0.00e+00	0	43	0	785383424	62	4473
2026-01-27 09:31:48.62	359.70	77.10	-46.8	-48.3	19.4	0.00e+00	0	43	0	793772032	64	4488
2026-01-27 09:31:52.65	356.00	75.33	-46.2	-47.5	20.1	0.00e+00	0	43	0	801112064	64	4056
2026-01-27 09:31:56.69	353.12	73.53	-46.6	-48.0	19.7	0.00e+00	0	43	0	808452096	64	4340
2026-01-27 09:32:00.71	350.85	71.73	-44.4	-45.5	22.2	0.00e+00	0	43	0	815792128	60	4069
2026-01-27 09:32:04.74	349.01	69.94	-46.1	-47.4	20.4	0.00e+00	0	42	0	823132160	62	4544
2026-01-27 09:32:08.77	347.49	68.16	-47.6	-49.2	18.6	0.00e+00	0	43	0	831520768	65	4677
2026-01-27 09:32:12.81	346.22	66.40	-48.5	-50.4	17.5	0.00e+00	0	43	0	838860800	68	4504
2026-01-27 09:32:16.84	345.14	64.68	-45.8	-47.1	20.7	0.00e+00	0	42	0	846200832	63	4112
2026-01-27 09:32:20.87	344.21	62.99	-44.6	-45.7	22.3	0.00e+00	0	42	0	853540864	59	4419
2026-01-27 09:32:24.91	343.41	61.33	-44.3	-45.4	22.6	0.00e+00	0	43	0	861929472	59	4256
2026-01-27 09:32:28.94	342.71	59.70	-47.3	-48.9	18.9	0.00e+00	0	43	0	869269504	65	4526
2026-01-27 09:32:32.97	342.09	58.12	-47.4	-49.0	18.9	0.00e+00	0	42	0	876609536	65	4560
2026-01-27 09:32:37.01	341.54	56.57	-47.8	-49.6	18.3	0.00e+00	0	42	0	883949568	67	4346
2026-01-27 09:32:41.03	341.06	55.07	-45.5	-46.7	21.0	0.00e+00	0	43	0	891289600	63	3946
2026-01-27 09:32:45.06	340.62	53.60	-44.8	-45.9	21.8	0.00e+00	0	43	0	899678208	61	4030
2026-01-27 09:32:49.08	340.22	52.18	-44.9	-46.1	21.6	0.00e+00	0	43	0	907018240	60	4347
2026-01-27 09:32:53.11	339.87	50.79	-47.4	-49.1	18.6	0.00e+00	0	42	0	914358272	65	4630
2026-01-27 09:32:57.14	339.54	49.45	-47.2	-48.7	18.9	0.00e+00	0	43	0	921698304	65	4424
2026-01-27 09:33:01.17	339.24	48.14	-49.0	-51.1	16.7	0.00e+00	0	43	0	929038336	68	4921
2026-01-27 09:33:05.20	338.97	46.87	-47.1	-48.7	18.9	0.00e+00	0	43	0	937426944	66	4153
2026-01-27 09:33:09.23	338.72	45.63	-47.2	-48.8	18.8	0.00e+00	0	43	0	944766976	64	4742
2026-01-27 09:33:13.25	338.49	44.44	-48.0	-49.9	17.8	0.00e+00	0	42	0	952107008	67	4524
2026-01-27 09:33:17.29	338.28	43.27	-46.0	-47.3	20.2	0.00e+00	0	43	0	959447040	64	3994
2026-01-27 09:33:21.31	338.08	42.14	-47.3	-49.0	18.6	0.00e+00	0	42	0	966787072	65	4552
2026-01-27 09:33:25.33	337.90	41.05	-48.5	-50.6	17.1	0.00e+00	0	43	0	975175680	67	4883
2026-01-27 09:33:29.36	337.73	39.99	-47.7	-49.5	18.1	0.00e+00	0	43	0	982515712	67	4294
2026-01-27 09:33:33.39	337.57	38.95	-47.7	-49.4	18.2	0.00e+00	0	43	0	989855744	66	4532
2026-01-27 09:33:37.42	337.43	37.95	-48.8	-51.1	16.6	0.00e+00	0	42	0	997195776	68	4873
2026-01-27 09:33:41.45	337.29	36.98	-48.6	-50.7	17.0	0.00e+00	0	43	0	1004535808	68	4673
2026-01-27 09:33:45.48	337.16	36.03	-47.3	-49.0	18.6	0.00e+00	0	43	0	1012924416	66	4300
2026-01-27 09:33:49.49	337.04	35.11	-47.3	-49.0	18.5	0.00e+00	0	43	0	1020264448	66	4306
2026-01-27 09:33:53.52	336.92	34.22	-48.3	-50.3	17.3	0.00e+00	0	43	0	1027604480	67	4736
2026-01-27 09:33:57.55	336.82	33.35	-49.0	-51.4	16.2	0.00e+00	0	43	0	1034944512	68	5061
2026-01-27 09:34:01.58	336.72	32.51	-49.0	-51.3	16.3	0.00e+00	0	43	0	1042284544	68	5027
2026-01-27 09:34:05.61	336.62	31.69	-48.1	-50.0	17.6	0.00e+00	0	43	0	1050673152	68	4300
2026-01-27 09:34:09.63	336.53	30.89	-47.8	-49.6	17.8	0.00e+00	0	43	0	1058013184	67	4360
2026-01-27 09:34:13.66	336.45	30.11	-47.9	-49.7	17.7	0.00e+00	0	43	0	1065353216	67	4433
2026-01-27 09:34:17.70	336.37	29.35	-47.8	-49.6	17.8	0.00e+00	0	43	0	1072693248	67	4375
2026-01-27 09:34:21.73	336.29	28.61	-47.7	-49.6	17.8	0.00e+00	0	43	0	1080033280	67	4342
2026-01-27 09:34:25.75	336.22	27.90	-47.1	-48.7	18.7	0.00e+00	0	43	0	1088421888	66	4161
2026-01-27 09:34:29.78	336.16	27.20	-46.1	-47.5	19.7	0.00e+00	0	43	0	1095761920	64	4079
2026-01-27 09:34:33.81	336.09	26.51	-45.9	-47.3	20.0	0.00e+00	0	43	0	1103101952	63	4202
2026-01-27 09:34:37.84	336.03	25.85	-45.7	-47.0	20.2	0.00e+00	0	43	0	1110441984	63	4092
2026-01-27 09:34:41.86	335.97	25.20	-45.8	-47.2	20.1	0.00e+00	0	43	0	1117782016	63	4154
2026-01-27 09:34:45.89	335.92	24.56	-45.9	-47.3	19.9	0.00e+00	0	43	0	1126170624	63	4229
2026-01-27 09:34:49.92	335.87	23.94	-45.7	-47.1	20.1	0.00e+00	0	43	0	1133510656	63	4121
2026-01-27 09:34:53.95	335.82	23.34	-45.6	-46.9	20.3	0.00e+00	0	43	0	1140850688	63	4023
2026-01-27 09:34:57.98	335.77	22.75	-45.2	-46.5	20.6	0.00e+00	0	43	0	1148190720	62	4074
2026-01-27 09:35:02.01	335.73	22.17	-45.1	-46.4	20.7	0.00e+00	0	43	0	1156579328	62	4017
2026-01-27 09:35:06.03	335.69	21.61	-45.0	-46.3	20.8	0.00e+00	0	42	0	1163919360	61	4198
2026-01-27 09:35:10.06	335.65	21.05	-45.5	-46.8	20.3	0.00e+00	0	42	0	1171259392	61	4458
2026-01-27 09:35:14.08	335.61	20.51	-45.8	-47.2	19.9	0.00e+00	0	43	0	1178599424	62	4394
2026-01-27 09:35:18.11	335.57	19.98	-45.8	-47.2	19.9	0.00e+00	0	43	0	1185939456	62	4430
2026-01-27 09:35:22.14	335.54	19.47	-46.0	-47.4	19.7	0.00e+00	0	43	0	1193279488	62	4517
2026-01-27 09:35:26.17	335.50	18.96	-45.9	-47.3	19.7	0.00e+00	0	43	0	1201668096	62	4479
2026-01-27 09:35:30.20	335.47	18.46	-46.2	-47.6	19.5	0.00e+00	0	43	0	1209008128	62	4638
2026-01-27 09:35:34.22	335.44	17.97	-46.0	-47.5	19.6	0.00e+00	0	42	0	1216348160	62	4548
2026-01-27 09:35:38.25	335.42	17.49	-46.1	-47.5	19.5	0.00e+00	0	43	0	1223688192	62	4589
2026-01-27 09:35:42.28	335.39	17.03	-46.3	-47.8	19.2	0.00e+00	0	43	0	1231028224	63	4489
2026-01-27 09:35:46.32	335.36	16.56	-46.4	-47.9	19.2	0.00e+00	0	43	0	1239416832	63	4520
2026-01-27 09:35:50.34	335.34	16.11	-46.4	-48.0	19.1	0.00e+00	0	43	0	1246756864	63	4549
2026-01-27 09:35:54.37	335.32	15.67	-46.4	-48.0	19.0	0.00e+00	0	43	0	1254096896	63	4558
2026-01-27 09:35:58.40	335.29	15.23	-46.4	-47.9	19.0	0.00e+00	0	43	0	1261436928	63	4528
2026-01-27 09:36:02.43	335.27	14.81	-46.4	-48.0	19.0	0.00e+00	0	43	0	1269825536	63	4546
2026-01-27 09:36:06.46	335.25	14.38	-46.5	-48.0	18.9	0.00e+00	0	43	0	1277165568	63	4596
2026-01-27 09:36:10.49	335.24	13.97	-46.4	-48.0	18.9	0.00e+00	0	43	0	1284505600	63	4567
2026-01-27 09:36:14.52	335.22	13.56	-46.4	-48.0	18.9	0.00e+00	0	43	0	1291845632	63	4569
2026-01-27 09:36:18.55	335.20	13.16	-46.7	-48.4	18.5	0.00e+00	0	42	0	1299185664	63	4766
2026-01-27 09:36:22.58	335.19	12.77	-46.7	-48.5	18.3	0.00e+00	0	43	0	1306525696	64	4549
2026-01-27 09:36:26.61	335.17	12.38	-46.9	-48.6	18.1	3.80e-06	0	43	0	1314914304	64	4636
2026-01-27 09:36:30.64	335.16	12.00	-47.0	-48.8	17.9	0.00e+00	0	43	0	1322254336	64	4723
2026-01-27 09:36:34.67	335.14	11.63	-47.1	-48.9	17.8	0.00e+00	0	43	0	1329594368	64	4792
2026-01-27 09:36:38.70	335.13	11.26	-47.2	-49.1	17.6	4.50e-06	0	42	0	1336934400	65	4623
2026-01-27 09:36:42.73	335.12	10.89	-47.3	-49.2	17.4	0.00e+00	0	43	0	1345323008	65	4688
2026-01-27 09:36:46.76	335.11	10.54	-47.2	-49.1	17.6	0.00e+00	0	43	0	1352663040	65	4609
2026-01-27 09:36:50.79	335.10	10.18	-47.1	-49.0	17.6	0.00e+00	0	43	0	1360003072	65	4579
2026-01-27 09:36:54.83	335.09	9.83	-47.1	-48.9	17.6	0.00e+00	0	43	0	1367343104	65	4535
2026-01-27 09:36:58.86	335.08	9.49	-47.1	-49.0	17.6	0.00e+00	0	43	0	1374683136	64	4855
2026-01-27 09:37:02.89	335.07	9.15	-47.2	-49.2	17.4	0.00e+00	0	43	0	1383071744	65	4670
2026-01-27 09:37:06.92	335.06	8.81	-47.0	-48.9	17.6	0.00e+00	0	43	0	1390411776	65	4526
2026-01-27 09:37:10.94	335.05	8.48	-46.7	-48.5	17.9	7.00e-07	0	43	0	1397751808	65	4334
2026-01-27 09:37:14.98	335.05	8.16	-46.7	-48.5	18.0	0.00e+00	0	43	0	1405091840	65	4292
2026-01-27 09:37:19.01	335.04	7.84	-46.7	-48.5	17.9	0.00e+00	0	43	0	1412431872	64	4552
2026-01-27 09:37:23.04	335.04	7.52	-46.8	-48.6	17.8	6.10e-06	0	43	0	1420820480	64	4621
2026-01-27 09:37:27.07	335.03	7.20	-46.6	-48.4	18.0	0.00e+00	0	42	0	1428160512	64	4523
2026-01-27 09:37:31.10	335.03	6.89	-46.7	-48.6	17.7	5.30e-06	0	43	0	1435500544	64	4610
2026-01-27 09:37:35.14	335.02	6.59	-46.7	-48.6	17.7	0.00e+00	0	43	0	1442840576	64	4599
2026-01-27 09:37:39.17	335.02	6.29	-46.7	-48.5	17.7	0.00e+00	0	43	0	1450180608	64	4578
2026-01-27 09:37:43.20	335.01	5.99	-46.8	-48.7	17.5	0.00e+00	0	43	0	1458569216	64	4679
2026-01-27 09:37:47.23	335.01	5.69	-46.9	-48.8	17.3	0.00e+00	0	43	0	1465909248	64	4747
2026-01-27 09:37:51.26	335.01	5.40	-47.0	-49.0	17.1	0.00e+00	0	43	0	1473249280	64	4840
2026-01-27 09:37:55.29	335.01	5.11	-46.9	-48.9	17.0	0.00e+00	0	43	0	1480589312	64	4797
2026-01-27 09:37:59.32	335.01	4.82	-53.0	-68.0	3.8	1.49e+00	0	42	104	1483735040	76	21603
2026-01-27 09:38:03.35	335.00	4.54	-53.4	-68.4	3.8	1.49e+00	0	43	104	1483735040	77	21294
2026-01-27 09:38:07.38	335.00	4.26	-53.4	-68.3	3.8	1.49e+00	0	43	104	1483735040	77	21154
2026-01-27 09:38:11.41	335.00	3.98	-53.2	-68.2	3.8	1.49e+00	0	43	104	1483735040	77	20915
2026-01-27 09:38:15.45	335.00	3.71	-53.4	-68.3	3.8	1.49e+00	0	43	104	1483735040	77	21145
2026-01-27 09:38:19.48	335.00	3.43	-53.3	-68.2	3.8	1.49e+00	0	43	104	1483735040	77	21004
2026-01-27 09:38:23.51	335.00	3.16	-53.3	-68.2	3.8	1.49e+00	0	43	104	1483735040	77	20998
2026-01-27 09:38:27.54	335.00	2.90	-53.2	-68.2	3.8	1.49e+00	0	43	104	1483735040	77	20941
2026-01-27 09:38:31.58	335.00	2.63	-53.2	-68.2	3.8	1.49e+00	0	43	104	1483735040	77	20832
2026-01-27 09:38:35.62	335.01	2.37	-53.2	-68.2	3.8	1.49e+00	0	43	104	1483735040	77	20824
2026-01-27 09:38:39.64	335.01	2.11	-53.2	-68.1	3.8	1.49e+00	0	43	104	1483735040	76	21999

#Closed at: 2026-01-27 09:38:42
#Recorded file [1483 MB]: D:/lorett/data/31041_260127_122413.dat