passes_logs/2026/01/27/R3.2S_Murmansk/R3.2S_Murmansk__20260127_065506_NOAA_21_JPSS-2_rec.log

#Pass ID: 20260127_065506_NOAA 21 (JPSS-2)
#Satellite: NOAA 21 (JPSS-2)
#Configuration: NOAA-21
#almurnet v.1.7.20251203
#Start time: 2026-01-27 06:55:06

#Version: 2.2.20231116
#Station: R3.2S_Murmansk
#Location: 33.079688 lon 68.888172 lat
#TLE: 1 54234U 22150A   26026.43130734  .00000179  00000+0  10559-3 0  9998
#TLE: 2 54234  98.7509 327.1934 0000805 209.8356 150.2774 14.19539635166435

#Time	Az	El	Level	Level2	SNR	BER	BlckErr	Temp	State	Recorded	gain1	gain2
2026-01-27 06:55:06.86	93.28	2.03	-54.1	-66.8	3.8	1.49e+00	0	42	0	0	79	15919
2026-01-27 06:55:10.90	93.07	2.27	-54.0	-66.8	3.8	1.49e+00	0	42	104	0	78	16775
2026-01-27 06:55:14.93	92.85	2.51	-54.2	-67.0	3.8	1.49e+00	0	42	104	0	79	16245
2026-01-27 06:55:18.96	92.64	2.75	-54.2	-67.0	3.8	1.49e+00	0	42	104	0	79	16129
2026-01-27 06:55:22.99	92.41	3.00	-54.0	-66.8	3.8	1.49e+00	0	42	104	0	79	15921
2026-01-27 06:55:27.03	92.19	3.25	-53.8	-66.6	3.8	1.49e+00	0	42	104	0	79	15410
2026-01-27 06:55:31.05	91.96	3.50	-53.3	-66.0	3.8	1.49e+00	0	42	104	0	78	15343
2026-01-27 06:55:35.09	91.72	3.75	-52.4	-65.2	3.8	1.49e+00	0	42	104	0	76	15593
2026-01-27 06:55:39.12	91.49	4.00	-51.9	-62.8	3.9	1.49e+00	0	42	104	0	75	12644
2026-01-27 06:55:43.15	91.24	4.25	-51.7	-61.1	4.2	1.46e+00	0	42	104	0	75	10360
2026-01-27 06:55:47.19	90.99	4.51	-51.4	-59.4	4.9	9.33e-01	0	43	104	0	74	9019
2026-01-27 06:55:51.21	90.74	4.77	-49.7	-53.5	10.0	1.14e-02	0	43	0	11534336	71	5459
2026-01-27 06:55:55.25	90.49	5.03	-48.7	-51.5	11.9	3.27e-04	0	43	0	24117248	69	4861
2026-01-27 06:55:59.27	90.23	5.29	-47.0	-48.9	14.8	3.88e-04	0	43	0	28311552	66	4253
2026-01-27 06:56:03.31	89.96	5.55	-44.6	-45.9	17.9	0.00e+00	0	43	0	40894464	61	4022
2026-01-27 06:56:07.33	89.69	5.82	-44.7	-46.0	17.8	0.00e+00	0	43	0	53477376	60	4310
2026-01-27 06:56:11.36	89.41	6.09	-44.6	-45.8	18.0	0.00e+00	0	43	0	66060288	60	4237
2026-01-27 06:56:15.39	89.13	6.36	-44.5	-45.7	18.1	0.00e+00	0	43	0	78643200	60	4180
2026-01-27 06:56:19.40	88.84	6.63	-44.2	-45.4	18.4	0.00e+00	0	43	0	91226112	60	4051
2026-01-27 06:56:23.42	88.55	6.90	-44.3	-45.5	18.4	0.00e+00	0	43	0	103809024	60	4082
2026-01-27 06:56:27.45	88.25	7.18	-44.2	-45.4	18.6	0.00e+00	0	43	0	116391936	60	4010
2026-01-27 06:56:31.48	87.95	7.46	-44.4	-45.6	18.8	0.00e+00	0	43	0	128974848	59	4345
2026-01-27 06:56:35.51	87.64	7.74	-44.3	-45.4	18.9	0.00e+00	0	43	0	141557760	59	4278
2026-01-27 06:56:39.54	87.32	8.02	-44.3	-45.5	18.9	0.00e+00	0	43	0	154140672	59	4297
2026-01-27 06:56:43.58	86.99	8.31	-44.2	-45.3	19.0	0.00e+00	0	43	0	166723584	59	4240
2026-01-27 06:56:47.61	86.66	8.60	-44.1	-45.2	19.2	0.00e+00	0	43	0	179306496	59	4151
2026-01-27 06:56:51.64	86.33	8.89	-44.2	-45.3	19.2	0.00e+00	0	43	0	191889408	59	4206
2026-01-27 06:56:55.66	85.98	9.18	-43.9	-45.0	19.5	0.00e+00	0	43	0	204472320	59	4057
2026-01-27 06:56:59.69	85.63	9.47	-44.1	-45.2	19.3	0.00e+00	0	43	0	217055232	59	4148
2026-01-27 06:57:03.72	85.27	9.77	-43.9	-44.9	19.6	0.00e+00	0	43	0	229638144	59	4030
2026-01-27 06:57:07.74	84.91	10.07	-43.7	-44.7	19.7	0.00e+00	0	43	0	242221056	59	3952
2026-01-27 06:57:11.77	84.53	10.37	-43.6	-44.6	19.9	0.00e+00	0	43	0	254803968	59	3898
2026-01-27 06:57:15.79	84.15	10.68	-43.6	-44.6	19.9	0.00e+00	0	43	0	267386880	59	3895
2026-01-27 06:57:19.82	83.76	10.99	-43.7	-44.8	19.8	0.00e+00	0	43	0	279969792	59	3966
2026-01-27 06:57:23.84	83.36	11.30	-43.3	-44.3	20.2	0.00e+00	0	43	0	292552704	58	3992
2026-01-27 06:57:27.87	82.95	11.61	-43.4	-44.3	20.2	0.00e+00	0	43	0	305135616	58	4003
2026-01-27 06:57:31.89	82.53	11.92	-43.3	-44.3	20.3	0.00e+00	0	43	0	317718528	58	3971
2026-01-27 06:57:35.92	82.11	12.24	-43.1	-44.1	20.6	0.00e+00	0	43	0	330301440	58	3874
2026-01-27 06:57:39.94	81.67	12.56	-43.0	-43.9	20.7	0.00e+00	0	43	0	342884352	58	3810
2026-01-27 06:57:43.97	81.22	12.88	-42.9	-43.8	20.7	0.00e+00	0	43	0	355467264	57	4003
2026-01-27 06:57:48.00	80.77	13.21	-42.7	-43.6	21.0	0.00e+00	0	43	0	368050176	57	3882
2026-01-27 06:57:52.03	80.30	13.54	-42.7	-43.6	21.0	0.00e+00	0	43	0	380633088	57	3886
2026-01-27 06:57:56.06	79.82	13.87	-42.6	-43.5	21.1	0.00e+00	0	43	0	393216000	57	3863
2026-01-27 06:58:00.09	79.33	14.20	-42.5	-43.4	21.2	0.00e+00	0	43	0	405798912	57	3798
2026-01-27 06:58:04.11	78.84	14.53	-42.5	-43.4	21.2	0.00e+00	0	43	0	418381824	56	4044
2026-01-27 06:58:08.14	78.32	14.87	-42.7	-43.5	21.1	0.00e+00	0	43	0	430964736	56	4095
2026-01-27 06:58:12.17	77.80	15.21	-42.9	-43.8	20.9	0.00e+00	0	43	0	443547648	56	4220
2026-01-27 06:58:16.20	77.26	15.55	-42.8	-43.7	21.0	0.00e+00	0	43	0	456130560	56	4176
2026-01-27 06:58:20.23	76.71	15.90	-42.7	-43.6	21.1	0.00e+00	0	43	0	468713472	56	4116
2026-01-27 06:58:24.26	76.15	16.24	-42.8	-43.7	21.0	0.00e+00	0	43	0	481296384	56	4154
2026-01-27 06:58:28.30	75.58	16.59	-42.9	-43.8	20.9	0.00e+00	0	43	0	493879296	56	4229
2026-01-27 06:58:32.33	74.99	16.94	-42.9	-43.8	21.0	0.00e+00	0	43	0	506462208	56	4203
2026-01-27 06:58:36.36	74.38	17.29	-42.7	-43.6	21.1	0.00e+00	0	43	0	519045120	56	4135
2026-01-27 06:58:40.39	73.77	17.65	-42.8	-43.7	21.1	0.00e+00	0	43	0	531628032	56	4153
2026-01-27 06:58:44.43	73.13	18.00	-42.7	-43.6	21.1	0.00e+00	0	43	0	544210944	56	4111
2026-01-27 06:58:48.45	72.48	18.36	-42.5	-43.4	21.4	0.00e+00	0	43	0	556793856	56	4017
2026-01-27 06:58:52.48	71.82	18.72	-42.7	-43.6	21.1	0.00e+00	0	43	0	569376768	56	4129
2026-01-27 06:58:56.52	71.14	19.08	-42.6	-43.5	21.3	0.00e+00	0	43	0	581959680	56	4058
2026-01-27 06:59:00.55	70.44	19.44	-42.5	-43.4	21.4	0.00e+00	0	43	0	594542592	56	4015
2026-01-27 06:59:04.57	69.73	19.79	-42.4	-43.2	21.5	0.00e+00	0	43	0	607125504	56	3938
2026-01-27 06:59:08.61	69.00	20.16	-42.2	-43.0	21.7	0.00e+00	0	43	0	619708416	56	3868
2026-01-27 06:59:12.64	68.25	20.52	-42.2	-43.1	21.7	0.00e+00	0	43	0	632291328	56	3878
2026-01-27 06:59:16.67	67.49	20.88	-42.3	-43.1	21.7	0.00e+00	0	43	0	644874240	56	3902
2026-01-27 06:59:20.71	66.70	21.24	-42.1	-42.9	21.8	0.00e+00	0	43	0	657457152	56	3801
2026-01-27 06:59:24.74	65.90	21.60	-41.8	-42.6	22.0	0.00e+00	0	43	0	670040064	55	3896
2026-01-27 06:59:28.77	65.08	21.96	-41.9	-42.7	21.9	0.00e+00	0	43	0	682622976	54	4188
2026-01-27 06:59:32.80	64.23	22.31	-41.8	-42.7	22.0	0.00e+00	0	43	0	695205888	54	4153
2026-01-27 06:59:36.83	63.37	22.67	-41.6	-42.4	22.3	0.00e+00	0	43	0	707788800	54	4020
2026-01-27 06:59:40.86	62.49	23.02	-41.6	-42.4	22.2	0.00e+00	0	43	0	720371712	53	4275
2026-01-27 06:59:44.89	61.59	23.37	-41.7	-42.5	22.2	0.00e+00	0	43	0	732954624	54	4075
2026-01-27 06:59:48.92	60.67	23.72	-41.5	-42.3	22.3	0.00e+00	0	43	0	745537536	53	4207
2026-01-27 06:59:52.94	59.73	24.06	-41.6	-42.4	22.2	0.00e+00	0	43	0	758120448	53	4272
2026-01-27 06:59:56.97	58.77	24.40	-41.9	-42.7	22.0	0.00e+00	0	43	0	770703360	54	4187
2026-01-27 07:00:01.00	57.78	24.73	-42.0	-42.8	21.9	0.00e+00	0	43	0	783286272	54	4225
2026-01-27 07:00:05.04	56.78	25.06	-42.2	-43.1	21.7	0.00e+00	0	43	0	795869184	55	4109
2026-01-27 07:00:09.06	55.75	25.39	-42.2	-43.1	21.7	0.00e+00	0	43	0	808452096	55	4109
2026-01-27 07:00:13.10	54.70	25.70	-42.2	-43.0	21.8	0.00e+00	0	43	0	821035008	54	4313
2026-01-27 07:00:17.13	53.63	26.01	-42.1	-42.9	21.9	0.00e+00	0	43	0	833617920	55	4016
2026-01-27 07:00:21.15	52.55	26.31	-42.3	-43.2	21.6	0.00e+00	0	43	0	846200832	55	4152
2026-01-27 07:00:25.18	51.44	26.61	-42.6	-43.4	21.4	0.00e+00	0	43	0	858783744	55	4284
2026-01-27 07:00:29.21	50.30	26.89	-42.4	-43.2	21.6	0.00e+00	0	43	0	871366656	55	4178
2026-01-27 07:00:33.24	49.15	27.17	-42.2	-43.1	21.8	0.00e+00	0	43	0	883949568	55	4121
2026-01-27 07:00:37.27	47.98	27.43	-42.1	-43.0	21.8	0.00e+00	0	43	0	896532480	55	4058
2026-01-27 07:00:41.30	46.79	27.68	-42.0	-42.8	22.0	0.00e+00	0	43	0	909115392	55	3973
2026-01-27 07:00:45.32	45.59	27.93	-42.2	-43.0	21.8	0.00e+00	0	43	0	921698304	54	4337
2026-01-27 07:00:49.34	44.36	28.15	-42.1	-43.0	21.9	0.00e+00	0	43	0	934281216	55	4057
2026-01-27 07:00:53.37	43.12	28.37	-42.1	-42.9	21.9	0.00e+00	0	43	0	946864128	55	4051
2026-01-27 07:00:57.41	41.86	28.57	-42.3	-43.1	21.7	0.00e+00	0	43	0	959447040	55	4120
2026-01-27 07:01:01.44	40.58	28.76	-42.6	-43.4	21.5	0.00e+00	0	43	0	972029952	55	4286
2026-01-27 07:01:05.47	39.29	28.93	-42.4	-43.2	21.7	0.00e+00	0	43	0	984612864	55	4179
2026-01-27 07:01:09.50	37.99	29.09	-42.3	-43.1	21.8	0.00e+00	0	43	0	997195776	55	4110
2026-01-27 07:01:13.53	36.67	29.23	-42.7	-43.5	21.4	0.00e+00	0	43	0	1009778688	55	4340
2026-01-27 07:01:17.57	35.34	29.36	-43.0	-43.9	21.0	0.00e+00	0	43	0	1022361600	56	4289
2026-01-27 07:01:21.60	34.01	29.47	-42.8	-43.7	21.3	0.00e+00	0	43	0	1034944512	56	4182
2026-01-27 07:01:25.63	32.66	29.56	-42.5	-43.4	21.5	0.00e+00	0	43	0	1047527424	55	4269
2026-01-27 07:01:29.66	31.31	29.63	-42.5	-43.3	21.6	0.00e+00	0	43	0	1060110336	55	4227
2026-01-27 07:01:33.69	29.95	29.69	-42.1	-42.9	21.9	0.00e+00	0	43	0	1072693248	55	4018
2026-01-27 07:01:37.72	28.59	29.72	-42.1	-42.9	21.9	0.00e+00	0	43	0	1085276160	55	4043
2026-01-27 07:01:41.75	27.23	29.74	-42.2	-43.0	21.8	0.00e+00	0	43	0	1097859072	55	4078
2026-01-27 07:01:45.78	25.87	29.75	-42.1	-42.9	21.9	0.00e+00	0	43	0	1110441984	55	4026
2026-01-27 07:01:49.81	24.50	29.73	-42.1	-43.0	21.9	0.00e+00	0	43	0	1123024896	55	4054
2026-01-27 07:01:53.84	23.14	29.69	-42.7	-43.5	21.3	0.00e+00	0	43	0	1135607808	55	4332
2026-01-27 07:01:57.87	21.78	29.64	-42.9	-43.8	21.3	0.00e+00	0	43	0	1149239296	56	4198
2026-01-27 07:02:01.90	20.43	29.57	-42.4	-43.3	21.7	0.00e+00	0	43	0	1160773632	56	3971
2026-01-27 07:02:05.93	19.09	29.48	-42.4	-43.3	21.7	0.00e+00	0	43	0	1173356544	56	3973
2026-01-27 07:02:09.96	17.75	29.37	-42.5	-43.4	21.6	0.00e+00	0	43	0	1185939456	56	4005
2026-01-27 07:02:13.99	16.42	29.25	-42.8	-43.7	21.3	0.00e+00	0	43	0	1199570944	56	4171
2026-01-27 07:02:18.01	15.11	29.11	-42.5	-43.3	21.6	0.00e+00	0	43	0	1211105280	56	3995
2026-01-27 07:02:22.05	13.80	28.96	-42.4	-43.3	21.7	0.00e+00	0	43	0	1223688192	56	3971
2026-01-27 07:02:26.07	12.52	28.79	-42.7	-43.6	21.4	0.00e+00	0	43	0	1237319680	56	4123
2026-01-27 07:02:30.10	11.24	28.60	-42.7	-43.5	21.4	0.00e+00	0	43	0	1249902592	56	4098
2026-01-27 07:02:34.13	9.98	28.40	-42.5	-43.3	21.7	0.00e+00	0	43	0	1261436928	56	3979
2026-01-27 07:02:38.16	8.73	28.19	-42.4	-43.3	21.5	0.00e+00	0	43	0	1274019840	55	4213
2026-01-27 07:02:42.20	7.50	27.96	-42.4	-43.2	21.5	0.00e+00	0	43	0	1287651328	55	4193
2026-01-27 07:02:46.21	6.30	27.72	-42.2	-43.0	21.8	0.00e+00	0	43	0	1299185664	55	4098
2026-01-27 07:02:50.25	5.10	27.47	-42.1	-43.0	21.7	0.00e+00	0	43	0	1311768576	55	4054
2026-01-27 07:02:54.28	3.93	27.21	-41.6	-42.4	22.3	0.00e+00	0	43	0	1325400064	54	4029
2026-01-27 07:02:58.31	2.78	26.93	-42.6	-43.5	21.3	0.00e+00	0	43	0	1337982976	55	4328
2026-01-27 07:03:02.34	1.65	26.65	-42.3	-43.2	21.7	0.00e+00	0	43	0	1349517312	56	3927
2026-01-27 07:03:06.37	0.54	26.36	-41.7	-42.6	22.2	0.00e+00	0	43	0	1363148800	54	4099
2026-01-27 07:03:10.40	359.45	26.06	-41.7	-42.5	22.1	0.00e+00	0	43	0	1375731712	53	4320
2026-01-27 07:03:14.43	358.38	25.75	-42.5	-43.3	21.5	0.00e+00	0	43	0	1388314624	55	4233
2026-01-27 07:03:18.46	357.33	25.43	-42.2	-43.1	21.6	0.00e+00	0	43	0	1399848960	55	4111
2026-01-27 07:03:22.50	356.30	25.11	-41.5	-42.2	22.3	0.00e+00	0	43	0	1413480448	53	4186
2026-01-27 07:03:26.53	355.29	24.78	-42.1	-42.9	21.8	0.00e+00	0	43	0	1426063360	54	4279
2026-01-27 07:03:30.56	354.30	24.45	-41.8	-42.6	22.1	0.00e+00	0	43	0	1438646272	54	4114
2026-01-27 07:03:34.59	353.34	24.11	-41.9	-42.8	21.9	0.00e+00	0	43	0	1451229184	54	4199
2026-01-27 07:03:38.62	352.40	23.77	-41.6	-42.4	22.2	0.00e+00	0	43	0	1463812096	53	4279
2026-01-27 07:03:42.65	351.47	23.42	-41.8	-42.6	22.1	0.00e+00	0	43	0	1476395008	54	4110
2026-01-27 07:03:46.68	350.57	23.07	-42.4	-43.3	21.5	0.00e+00	0	43	0	1488977920	55	4208
2026-01-27 07:03:50.71	349.69	22.72	-42.1	-42.9	21.8	0.00e+00	0	43	0	1501560832	54	4276
2026-01-27 07:03:54.74	348.83	22.37	-41.9	-42.7	21.9	0.00e+00	0	43	0	1514143744	54	4191
2026-01-27 07:03:58.77	347.99	22.01	-41.9	-42.7	21.9	0.00e+00	0	43	0	1526726656	54	4191
2026-01-27 07:04:02.79	347.17	21.66	-42.1	-42.9	21.8	0.00e+00	0	43	0	1539309568	54	4288
2026-01-27 07:04:06.82	346.36	21.30	-42.2	-43.1	21.7	0.00e+00	0	43	0	1551892480	55	4110
2026-01-27 07:04:10.85	345.58	20.94	-42.2	-43.1	21.6	0.00e+00	0	43	0	1564475392	55	4107
2026-01-27 07:04:14.87	344.81	20.58	-42.3	-43.1	21.6	0.00e+00	0	43	0	1577058304	55	4145
2026-01-27 07:04:18.90	344.06	20.22	-42.4	-43.3	21.4	0.00e+00	0	43	0	1589641216	55	4222
2026-01-27 07:04:22.93	343.33	19.86	-42.4	-43.2	21.5	0.00e+00	0	43	0	1602224128	55	4188
2026-01-27 07:04:26.96	342.62	19.50	-42.1	-42.9	21.7	0.00e+00	0	43	0	1614807040	55	4047
2026-01-27 07:04:30.99	341.92	19.14	-41.8	-42.7	21.9	0.00e+00	0	43	0	1627389952	54	4154
2026-01-27 07:04:35.01	341.24	18.78	-42.1	-42.9	21.7	0.00e+00	0	43	0	1639972864	54	4272
2026-01-27 07:04:39.04	340.58	18.42	-42.7	-43.6	21.1	0.00e+00	0	43	0	1652555776	55	4374
2026-01-27 07:04:43.07	339.93	18.07	-42.7	-43.6	21.1	0.00e+00	0	43	0	1665138688	56	4121
2026-01-27 07:04:47.11	339.29	17.71	-42.5	-43.3	21.3	0.00e+00	0	43	0	1677721600	55	4230
2026-01-27 07:04:51.13	338.68	17.36	-42.6	-43.5	21.2	0.00e+00	0	43	0	1690304512	55	4317
2026-01-27 07:04:55.17	338.07	17.01	-43.0	-43.9	20.9	0.00e+00	0	43	0	1702887424	56	4269
2026-01-27 07:04:59.20	337.48	16.66	-42.6	-43.5	21.3	0.00e+00	0	43	0	1715470336	56	4054
2026-01-27 07:05:03.23	336.91	16.31	-42.4	-43.3	21.4	0.00e+00	0	43	0	1728053248	55	4194
2026-01-27 07:05:07.25	336.35	15.96	-43.0	-44.0	20.9	0.00e+00	0	43	0	1740636160	56	4294
2026-01-27 07:05:11.28	335.80	15.62	-43.1	-44.0	20.8	0.00e+00	0	43	0	1753219072	56	4304
2026-01-27 07:05:15.31	335.26	15.28	-42.5	-43.4	21.2	0.00e+00	0	43	0	1765801984	55	4275
2026-01-27 07:05:19.34	334.74	14.94	-42.5	-43.3	21.3	0.00e+00	0	43	0	1778384896	55	4226
2026-01-27 07:05:23.37	334.22	14.60	-43.0	-44.0	20.8	0.00e+00	0	43	0	1790967808	56	4292
2026-01-27 07:05:27.40	333.72	14.27	-43.2	-44.2	20.6	0.00e+00	0	43	0	1803550720	57	4146
2026-01-27 07:05:31.43	333.23	13.93	-42.9	-43.8	20.8	0.00e+00	0	43	0	1816133632	56	4227
2026-01-27 07:05:35.45	332.76	13.61	-42.4	-43.3	21.2	0.00e+00	0	43	0	1828716544	55	4200
2026-01-27 07:05:39.48	332.29	13.28	-42.5	-43.3	21.2	0.00e+00	0	43	0	1841299456	55	4240
2026-01-27 07:05:43.52	331.83	12.95	-43.1	-44.1	20.6	0.00e+00	0	43	0	1853882368	56	4352
2026-01-27 07:05:47.54	331.39	12.63	-43.6	-44.6	20.1	0.00e+00	0	43	0	1866465280	57	4388
2026-01-27 07:05:51.58	330.95	12.31	-43.8	-44.8	19.9	0.00e+00	0	43	0	1879048192	58	4241
2026-01-27 07:05:55.60	330.52	11.99	-43.5	-44.5	20.1	0.00e+00	0	43	0	1891631104	57	4321
2026-01-27 07:05:59.63	330.11	11.68	-43.4	-44.4	20.3	0.00e+00	0	43	0	1904214016	57	4257
2026-01-27 07:06:03.67	329.70	11.36	-43.5	-44.5	20.2	0.00e+00	0	43	0	1916796928	57	4312
2026-01-27 07:06:07.70	329.30	11.05	-44.0	-45.1	19.6	0.00e+00	0	43	0	1929379840	58	4367
2026-01-27 07:06:11.72	328.91	10.75	-44.4	-45.5	19.2	0.00e+00	0	43	0	1941962752	59	4313
2026-01-27 07:06:15.75	328.52	10.44	-44.3	-45.4	19.3	0.00e+00	0	43	0	1954545664	59	4243
2026-01-27 07:06:19.78	328.15	10.14	-44.2	-45.3	19.3	0.00e+00	0	43	0	1967128576	59	4216
2026-01-27 07:06:23.81	327.78	9.84	-44.0	-45.0	19.5	0.00e+00	0	43	0	1979711488	58	4326
2026-01-27 07:06:27.84	327.43	9.54	-43.9	-45.0	19.6	0.00e+00	0	43	0	1992294400	58	4293
2026-01-27 07:06:31.86	327.07	9.25	-44.4	-45.5	19.1	0.00e+00	0	43	0	2004877312	59	4316
2026-01-27 07:06:35.89	326.73	8.95	-44.4	-45.6	18.7	0.00e+00	0	43	0	2017460224	60	4103
2026-01-27 07:06:39.91	326.39	8.66	-44.5	-45.7	18.6	0.00e+00	0	43	0	2030043136	60	4166
2026-01-27 07:06:43.94	326.06	8.38	-44.7	-45.9	18.4	0.00e+00	0	43	0	2042626048	60	4246
2026-01-27 07:06:47.96	325.74	8.09	-44.4	-45.5	18.6	0.00e+00	0	43	0	2055208960	60	4078
2026-01-27 07:06:51.99	325.43	7.81	-44.5	-45.6	18.8	0.00e+00	0	43	0	2067791872	59	4386
2026-01-27 07:06:56.02	325.11	7.53	-44.5	-45.6	18.8	0.00e+00	0	43	0	2080374784	59	4385
2026-01-27 07:07:00.05	324.81	7.25	-44.4	-45.5	18.6	0.00e+00	0	43	0	2092957696	60	4086
2026-01-27 07:07:04.08	324.51	6.97	-44.6	-45.8	18.3	0.00e+00	0	43	0	2105540608	60	4231
2026-01-27 07:07:08.11	324.22	6.70	-44.6	-45.8	18.2	0.00e+00	0	43	0	2118123520	60	4235
2026-01-27 07:07:12.14	323.93	6.42	-44.7	-46.0	18.1	0.00e+00	0	43	0	2130706432	60	4313
2026-01-27 07:07:16.17	323.65	6.15	-44.8	-46.1	17.9	0.00e+00	0	43	0	2143289344	60	4384
2026-01-27 07:07:20.19	323.38	5.89	-44.6	-45.9	18.1	0.00e+00	0	43	0	2155872256	60	4254
2026-01-27 07:07:24.23	323.11	5.62	-44.8	-46.1	17.8	0.00e+00	0	43	0	2168455168	60	4347
2026-01-27 07:07:28.26	322.84	5.36	-45.0	-46.3	17.6	0.00e+00	0	43	0	2181038080	60	4454
2026-01-27 07:07:32.30	322.58	5.09	-44.6	-45.8	18.0	0.00e+00	0	43	0	2193620992	61	3994
2026-01-27 07:07:36.33	322.32	4.83	-52.9	-65.7	3.8	1.49e+00	0	43	104	2198863872	76	16567
2026-01-27 07:07:40.36	322.07	4.58	-53.1	-65.8	3.8	1.49e+00	0	43	104	2198863872	76	16758
2026-01-27 07:07:44.39	321.83	4.32	-53.0	-65.7	3.8	1.49e+00	0	43	104	2198863872	76	16651
2026-01-27 07:07:48.42	321.59	4.07	-53.2	-65.9	3.8	1.49e+00	0	43	104	2198863872	76	16983
2026-01-27 07:07:52.45	321.35	3.81	-53.3	-66.0	3.8	1.49e+00	0	43	104	2198863872	77	16283
2026-01-27 07:07:56.49	321.12	3.56	-53.2	-65.9	3.8	1.49e+00	0	43	104	2198863872	76	17057
2026-01-27 07:08:00.52	320.89	3.31	-53.2	-65.9	3.8	1.49e+00	0	43	104	2198863872	76	17041
2026-01-27 07:08:04.55	320.66	3.07	-53.2	-65.9	3.8	1.49e+00	0	43	104	2198863872	76	17062
2026-01-27 07:08:08.57	320.44	2.82	-53.2	-65.9	3.8	1.49e+00	0	43	104	2198863872	76	16997
2026-01-27 07:08:12.61	320.22	2.58	-53.2	-65.9	3.8	1.49e+00	0	43	104	2198863872	76	16994
2026-01-27 07:08:16.64	320.01	2.34	-53.2	-65.9	3.8	1.49e+00	0	43	104	2198863872	76	16988
2026-01-27 07:08:20.67	319.80	2.10	-53.2	-65.9	3.8	1.49e+00	0	43	104	2198863872	76	16973

#Closed at: 2026-01-27 07:08:23
#Recorded file [2198 MB]: D:/lorett/data/31041_260127_095506.dat