passes_logs/2026/01/27/R3.2S_Murmansk/R3.2S_Murmansk__20260127_054544_SUOMI_NPP_rec.log

#Pass ID: 20260127_054544_SUOMI NPP
#Satellite: SUOMI NPP
#Configuration: NPP
#almurnet v.1.7.20251203
#Start time: 2026-01-27 05:45:45

#Version: 2.2.20231116
#Station: R3.2S_Murmansk
#Location: 33.079688 lon 68.888172 lat
#TLE: 1 37849U 11061A   26026.52266023  .00000173  00000+0  10323-3 0  9994
#TLE: 2 37849  98.7822 328.4727 0002140  43.9411 316.1934 14.19530258738341

#Time	Az	El	Level	Level2	SNR	BER	BlckErr	Temp	State	Recorded	gain1	gain2
2026-01-27 05:45:45.59	70.32	2.08	-52.0	-66.9	3.8	1.49e+00	0	41	0	0	76	19124
2026-01-27 05:45:48.61	70.13	2.26	-52.0	-66.9	3.8	1.49e+00	0	41	104	0	74	21340
2026-01-27 05:45:51.63	69.93	2.43	-51.9	-66.9	3.8	1.49e+00	0	41	104	0	74	21348
2026-01-27 05:45:54.65	69.74	2.60	-51.9	-66.9	3.8	1.49e+00	0	41	104	0	74	21323
2026-01-27 05:45:57.68	69.54	2.78	-51.9	-66.9	3.8	1.49e+00	0	41	104	0	74	21294
2026-01-27 05:46:00.71	69.34	2.96	-51.9	-66.9	3.8	1.49e+00	0	41	104	0	74	21313
2026-01-27 05:46:03.73	69.13	3.13	-51.9	-66.9	3.8	1.49e+00	0	41	104	0	74	21306
2026-01-27 05:46:06.75	68.93	3.31	-51.9	-66.8	3.8	1.49e+00	0	41	104	0	74	21212
2026-01-27 05:46:09.77	68.72	3.49	-51.9	-66.8	3.8	1.49e+00	0	41	104	0	74	21227
2026-01-27 05:46:12.79	68.51	3.67	-51.9	-66.9	3.8	1.49e+00	0	41	104	0	74	21279
2026-01-27 05:46:15.81	68.29	3.85	-51.9	-66.8	3.8	1.49e+00	0	41	104	0	74	21226
2026-01-27 05:46:18.84	68.07	4.03	-51.9	-66.7	3.8	1.49e+00	0	42	104	0	74	20985
2026-01-27 05:46:21.86	67.85	4.21	-51.9	-65.2	3.8	1.49e+00	0	42	104	0	74	17646
2026-01-27 05:46:24.89	67.63	4.39	-51.8	-63.9	4.1	1.45e+00	0	42	0	0	74	15118
2026-01-27 05:46:27.91	67.41	4.57	-51.8	-64.3	3.8	1.47e+00	0	42	104	0	74	15803
2026-01-27 05:46:30.93	67.18	4.76	-51.3	-59.9	5.9	4.34e-01	0	41	0	3145728	74	9516
2026-01-27 05:46:33.95	66.95	4.94	-50.5	-56.4	9.1	2.07e-02	0	42	0	8388608	73	6745
2026-01-27 05:46:36.97	66.71	5.13	-48.3	-51.1	14.9	2.20e-06	0	42	0	13631488	68	4887
2026-01-27 05:46:39.98	66.47	5.31	-48.4	-51.4	14.5	5.86e-03	0	42	0	16777216	68	5083
2026-01-27 05:46:43.01	66.23	5.50	-47.7	-50.3	15.6	0.00e+00	0	42	0	23068672	67	4715
2026-01-27 05:46:46.03	65.99	5.69	-47.9	-50.6	15.3	0.00e+00	0	42	0	28311552	67	4898
2026-01-27 05:46:49.04	65.74	5.88	-47.3	-49.6	16.3	0.00e+00	0	42	0	33554432	66	4626
2026-01-27 05:46:52.06	65.49	6.06	-47.3	-49.5	16.5	0.00e+00	0	42	0	39845888	66	4586
2026-01-27 05:46:55.07	65.24	6.25	-47.1	-49.3	16.7	0.00e+00	0	42	0	45088768	66	4468
2026-01-27 05:46:58.09	64.98	6.45	-47.6	-50.0	16.0	0.00e+00	0	42	0	51380224	66	4849
2026-01-27 05:47:01.12	64.72	6.64	-47.5	-49.9	16.2	0.00e+00	0	42	0	56623104	66	4801
2026-01-27 05:47:04.13	64.45	6.83	-47.4	-49.7	16.3	0.00e+00	0	42	0	61865984	66	4702
2026-01-27 05:47:07.14	64.18	7.02	-47.6	-50.0	16.0	0.00e+00	0	42	0	68157440	66	4865
2026-01-27 05:47:10.16	63.91	7.22	-48.0	-50.6	15.5	0.00e+00	0	42	0	73400320	66	5200
2026-01-27 05:47:13.18	63.64	7.41	-47.7	-50.1	16.1	0.00e+00	0	42	0	79691776	66	4901
2026-01-27 05:47:16.20	63.36	7.61	-47.3	-49.5	16.6	0.00e+00	0	42	0	84934656	66	4592
2026-01-27 05:47:19.21	63.07	7.81	-47.5	-49.9	16.3	0.00e+00	0	42	0	90177536	66	4793
2026-01-27 05:47:22.24	62.78	8.00	-47.3	-49.6	16.6	0.00e+00	0	42	0	96468992	66	4639
2026-01-27 05:47:25.26	62.49	8.20	-46.9	-48.9	17.2	0.00e+00	0	42	0	101711872	65	4530
2026-01-27 05:47:28.29	62.19	8.40	-46.7	-48.8	17.4	0.00e+00	0	42	0	108003328	65	4452
2026-01-27 05:47:31.31	61.89	8.60	-46.8	-48.9	17.3	0.00e+00	0	42	0	113246208	65	4528
2026-01-27 05:47:34.32	61.59	8.80	-46.7	-48.6	17.6	0.00e+00	0	42	0	118489088	65	4361
2026-01-27 05:47:37.34	61.28	9.01	-46.6	-48.4	17.8	0.00e+00	0	42	0	124780544	65	4285
2026-01-27 05:47:40.36	60.97	9.21	-46.9	-49.0	17.4	0.00e+00	0	42	0	130023424	65	4550
2026-01-27 05:47:43.38	60.65	9.41	-46.7	-48.6	17.7	0.00e+00	0	42	0	136314880	65	4361
2026-01-27 05:47:46.39	60.33	9.62	-46.8	-48.7	17.6	0.00e+00	0	42	0	141557760	65	4434
2026-01-27 05:47:49.41	60.00	9.82	-47.1	-49.2	17.2	0.00e+00	0	43	0	146800640	65	4671
2026-01-27 05:47:52.43	59.67	10.03	-47.1	-49.1	17.3	0.00e+00	0	42	0	153092096	65	4628
2026-01-27 05:47:55.44	59.33	10.23	-47.1	-49.1	17.3	0.00e+00	0	42	0	158334976	65	4634
2026-01-27 05:47:58.46	58.99	10.44	-47.1	-49.2	17.2	0.00e+00	0	42	0	164626432	65	4659
2026-01-27 05:48:01.47	58.65	10.65	-47.1	-49.1	17.3	0.00e+00	0	42	0	169869312	65	4629
2026-01-27 05:48:04.49	58.29	10.86	-46.9	-48.8	17.5	0.00e+00	0	42	0	175112192	65	4487
2026-01-27 05:48:07.51	57.94	11.07	-46.9	-48.8	17.6	0.00e+00	0	42	0	181403648	65	4463
2026-01-27 05:48:10.53	57.57	11.28	-46.6	-48.4	18.0	0.00e+00	0	43	0	186646528	65	4291
2026-01-27 05:48:13.56	57.21	11.49	-46.6	-48.4	18.0	0.00e+00	0	43	0	192937984	64	4535
2026-01-27 05:48:16.57	56.83	11.70	-46.5	-48.3	18.1	0.00e+00	0	42	0	198180864	64	4484
2026-01-27 05:48:19.60	56.45	11.91	-46.3	-48.1	18.3	0.00e+00	0	42	0	203423744	64	4361
2026-01-27 05:48:22.62	56.07	12.13	-46.0	-47.7	18.7	0.00e+00	0	42	0	209715200	64	4182
2026-01-27 05:48:25.63	55.68	12.34	-46.0	-47.7	18.8	0.00e+00	0	43	0	214958080	63	4401
2026-01-27 05:48:28.65	55.28	12.55	-46.2	-47.9	18.7	0.00e+00	0	43	0	221249536	63	4507
2026-01-27 05:48:31.67	54.88	12.77	-46.1	-47.8	18.7	0.00e+00	0	43	0	226492416	63	4462
2026-01-27 05:48:34.70	54.47	12.98	-46.0	-47.6	18.9	0.00e+00	0	42	0	231735296	63	4391
2026-01-27 05:48:37.72	54.06	13.20	-46.2	-47.9	18.7	0.00e+00	0	43	0	238026752	63	4504
2026-01-27 05:48:40.74	53.64	13.41	-46.0	-47.6	18.8	0.00e+00	0	43	0	243269632	63	4382
2026-01-27 05:48:43.76	53.21	13.63	-46.1	-47.8	18.6	0.00e+00	0	43	0	249561088	63	4483
2026-01-27 05:48:46.78	52.78	13.85	-46.0	-47.7	18.5	0.00e+00	0	43	0	254803968	63	4404
2026-01-27 05:48:49.79	52.34	14.06	-46.2	-47.9	18.3	0.00e+00	0	43	0	260046848	63	4534
2026-01-27 05:48:52.81	51.89	14.28	-46.2	-48.0	18.4	0.00e+00	0	42	0	266338304	63	4565
2026-01-27 05:48:55.83	51.44	14.49	-46.3	-48.2	18.3	0.00e+00	0	42	0	271581184	63	4654
2026-01-27 05:48:58.85	50.98	14.71	-46.3	-48.0	18.3	0.00e+00	0	42	0	277872640	63	4597
2026-01-27 05:49:01.87	50.52	14.93	-46.2	-47.9	18.1	0.00e+00	0	43	0	283115520	63	4514
2026-01-27 05:49:04.89	50.04	15.15	-46.3	-48.1	18.1	0.00e+00	0	43	0	288358400	63	4599
2026-01-27 05:49:07.91	49.56	15.36	-46.8	-48.8	16.9	0.00e+00	0	42	0	294649856	64	4735
2026-01-27 05:49:10.92	49.08	15.58	-47.1	-49.3	17.0	0.00e+00	0	43	0	299892736	65	4721
2026-01-27 05:49:13.95	48.58	15.80	-47.0	-49.0	17.5	0.00e+00	0	43	0	306184192	65	4572
2026-01-27 05:49:16.97	48.08	16.01	-46.4	-48.1	18.3	0.00e+00	0	43	0	311427072	64	4391
2026-01-27 05:49:19.98	47.57	16.23	-46.2	-47.9	18.5	0.00e+00	0	43	0	316669952	64	4289
2026-01-27 05:49:22.99	47.05	16.44	-46.1	-47.8	18.6	0.00e+00	0	43	0	322961408	64	4241
2026-01-27 05:49:26.01	46.53	16.66	-46.2	-47.9	18.6	0.00e+00	0	43	0	328204288	64	4263
2026-01-27 05:49:29.03	46.00	16.87	-46.1	-47.8	18.8	0.00e+00	0	43	0	334495744	63	4456
2026-01-27 05:49:32.05	45.46	17.08	-46.3	-47.9	18.7	0.00e+00	0	43	0	339738624	63	4540
2026-01-27 05:49:35.07	44.91	17.30	-46.6	-48.4	18.2	0.00e+00	0	43	0	344981504	63	4786
2026-01-27 05:49:38.08	44.36	17.51	-47.0	-49.0	17.6	0.00e+00	0	43	0	351272960	64	4852
2026-01-27 05:49:41.10	43.79	17.72	-46.0	-47.6	18.9	0.00e+00	0	43	0	356515840	64	4141
2026-01-27 05:49:44.12	43.22	17.93	-46.1	-47.8	18.8	0.00e+00	0	43	0	362807296	63	4446
2026-01-27 05:49:47.14	42.64	18.14	-45.6	-47.2	19.4	0.00e+00	0	43	0	368050176	63	4153
2026-01-27 05:49:50.15	42.06	18.34	-45.8	-47.5	19.1	0.00e+00	0	43	0	373293056	63	4294
2026-01-27 05:49:53.17	41.46	18.55	-45.7	-47.3	19.3	0.00e+00	0	43	0	379584512	63	4204
2026-01-27 05:49:56.18	40.86	18.75	-45.4	-46.9	19.6	0.00e+00	0	43	0	384827392	62	4275
2026-01-27 05:49:59.20	40.25	18.95	-44.9	-46.3	20.2	0.00e+00	0	43	0	391118848	61	4238
2026-01-27 05:50:02.20	39.63	19.15	-45.0	-46.4	20.1	0.00e+00	0	43	0	396361728	61	4280
2026-01-27 05:50:05.20	39.01	19.35	-45.0	-46.5	20.1	0.00e+00	0	43	0	401604608	61	4310
2026-01-27 05:50:08.21	38.37	19.55	-44.9	-46.3	20.2	0.00e+00	0	43	0	407896064	61	4213
2026-01-27 05:50:11.23	37.73	19.74	-44.4	-45.6	20.8	0.00e+00	0	43	0	413138944	60	4142
2026-01-27 05:50:14.24	37.08	19.93	-44.6	-45.9	20.6	0.00e+00	0	43	0	418381824	60	4266
2026-01-27 05:50:17.26	36.42	20.12	-44.6	-45.9	20.6	0.00e+00	0	43	0	424673280	60	4283
2026-01-27 05:50:20.29	35.74	20.31	-44.7	-46.1	20.4	0.00e+00	0	42	0	429916160	60	4379
2026-01-27 05:50:23.30	35.07	20.49	-44.2	-45.5	21.0	0.00e+00	0	43	0	436207616	60	4084
2026-01-27 05:50:26.32	34.38	20.67	-44.3	-45.5	20.9	0.00e+00	0	43	0	441450496	60	4094
2026-01-27 05:50:29.34	33.69	20.85	-44.4	-45.7	21.1	0.00e+00	0	43	0	446693376	59	4394
2026-01-27 05:50:32.37	32.98	21.03	-44.4	-45.7	21.1	0.00e+00	0	43	0	452984832	59	4405
2026-01-27 05:50:35.39	32.27	21.20	-44.1	-45.3	21.5	0.00e+00	0	43	0	458227712	59	4221
2026-01-27 05:50:38.41	31.56	21.36	-44.2	-45.4	21.4	0.00e+00	0	43	0	464519168	59	4279
2026-01-27 05:50:41.43	30.83	21.53	-44.0	-45.1	21.6	0.00e+00	0	43	0	469762048	59	4142
2026-01-27 05:50:44.44	30.10	21.69	-44.3	-45.6	21.2	0.00e+00	0	43	0	475004928	59	4361
2026-01-27 05:50:47.45	29.36	21.84	-44.6	-45.9	21.0	0.00e+00	0	43	0	481296384	59	4517
2026-01-27 05:50:50.48	28.61	21.99	-44.6	-45.9	21.1	0.00e+00	0	43	0	486539264	59	4497
2026-01-27 05:50:53.50	27.85	22.14	-44.0	-45.2	21.3	0.00e+00	0	43	0	492830720	60	3940
2026-01-27 05:50:56.52	27.09	22.28	-44.4	-45.7	21.2	0.00e+00	0	43	0	498073600	59	4398
2026-01-27 05:50:59.54	26.32	22.42	-44.2	-45.4	21.5	0.00e+00	0	42	0	503316480	59	4247
2026-01-27 05:51:02.57	25.54	22.55	-44.0	-45.2	21.6	0.00e+00	0	43	0	509607936	59	4171
2026-01-27 05:51:05.59	24.76	22.68	-43.9	-45.0	21.8	0.00e+00	0	43	0	514850816	59	4093
2026-01-27 05:51:08.61	23.97	22.80	-44.1	-45.2	21.6	0.00e+00	0	43	0	521142272	59	4184
2026-01-27 05:51:11.64	23.17	22.92	-44.5	-45.7	21.3	0.00e+00	0	42	0	526385152	59	4398
2026-01-27 05:51:14.67	22.37	23.03	-44.8	-46.1	20.6	0.00e+00	0	43	0	531628032	60	4341
2026-01-27 05:51:17.68	21.56	23.14	-45.7	-47.2	19.6	0.00e+00	0	43	0	537919488	61	4669
2026-01-27 05:51:20.70	20.75	23.24	-45.9	-47.4	19.4	0.00e+00	0	43	0	543162368	62	4528
2026-01-27 05:51:23.72	19.93	23.33	-45.3	-46.7	20.0	0.00e+00	0	42	0	549453824	62	4191
2026-01-27 05:51:26.74	19.11	23.42	-45.1	-46.5	20.3	0.00e+00	0	42	0	554696704	62	4079
2026-01-27 05:51:29.76	18.28	23.50	-45.1	-46.5	20.3	0.00e+00	0	43	0	559939584	61	4293
2026-01-27 05:51:32.78	17.45	23.58	-45.1	-46.4	20.3	0.00e+00	0	42	0	566231040	61	4278
2026-01-27 05:51:35.80	16.61	23.65	-45.7	-47.3	19.4	0.00e+00	0	43	0	571473920	62	4445
2026-01-27 05:51:38.81	15.78	23.71	-45.5	-46.9	19.8	0.00e+00	0	43	0	577765376	62	4286
2026-01-27 05:51:41.83	14.94	23.77	-46.2	-47.9	18.9	0.00e+00	0	43	0	583008256	63	4502
2026-01-27 05:51:44.85	14.09	23.82	-46.3	-48.0	18.9	0.00e+00	0	43	0	588251136	63	4550
2026-01-27 05:51:47.87	13.24	23.86	-45.8	-47.3	19.5	0.00e+00	0	42	0	594542592	63	4224
2026-01-27 05:51:50.88	12.40	23.90	-46.2	-47.9	19.0	0.00e+00	0	43	0	599785472	63	4511
2026-01-27 05:51:53.90	11.55	23.93	-46.3	-48.0	18.8	0.00e+00	0	43	0	606076928	64	4326
2026-01-27 05:51:56.92	10.69	23.95	-46.2	-47.9	19.0	0.00e+00	0	43	0	611319808	64	4247
2026-01-27 05:51:59.95	9.84	23.97	-45.2	-46.7	20.1	0.00e+00	0	43	0	616562688	62	4146
2026-01-27 05:52:02.98	8.98	23.98	-45.0	-46.4	20.3	0.00e+00	0	43	0	622854144	61	4272
2026-01-27 05:52:06.00	8.13	23.98	-45.9	-47.4	19.4	0.00e+00	0	43	0	628097024	62	4542
2026-01-27 05:52:09.02	7.27	23.97	-45.2	-46.6	20.0	0.00e+00	0	43	0	634388480	62	4138
2026-01-27 05:52:12.04	6.42	23.96	-45.6	-47.1	19.7	0.00e+00	0	43	0	639631360	62	4391
2026-01-27 05:52:15.06	5.56	23.94	-45.3	-46.7	20.0	0.00e+00	0	43	0	644874240	62	4163
2026-01-27 05:52:18.08	4.71	23.92	-45.3	-46.7	20.1	0.00e+00	0	43	0	651165696	62	4170
2026-01-27 05:52:21.10	3.86	23.89	-44.9	-46.2	20.5	0.00e+00	0	43	0	656408576	61	4150
2026-01-27 05:52:24.11	3.02	23.85	-44.9	-46.2	20.5	0.00e+00	0	42	0	662700032	61	4160
2026-01-27 05:52:27.14	2.17	23.80	-44.3	-45.5	21.2	0.00e+00	0	43	0	667942912	60	4062
2026-01-27 05:52:30.15	1.33	23.75	-44.2	-45.4	21.3	0.00e+00	0	43	0	673185792	60	4014
2026-01-27 05:52:33.16	0.49	23.69	-44.1	-45.2	21.7	0.00e+00	0	42	0	679477248	59	4175
2026-01-27 05:52:36.18	359.65	23.62	-44.1	-45.2	21.7	0.00e+00	0	43	0	684720128	59	4171
2026-01-27 05:52:39.21	358.81	23.55	-44.2	-45.3	21.6	0.00e+00	0	43	0	691011584	59	4220
2026-01-27 05:52:42.23	357.99	23.47	-44.4	-45.6	21.4	0.00e+00	0	43	0	696254464	59	4355
2026-01-27 05:52:45.25	357.16	23.39	-44.4	-45.5	21.4	0.00e+00	0	43	0	701497344	59	4339
2026-01-27 05:52:48.27	356.34	23.30	-44.3	-45.5	21.2	0.00e+00	0	43	0	707788800	60	4058
2026-01-27 05:52:51.29	355.52	23.20	-44.3	-45.5	21.5	0.00e+00	0	43	0	713031680	59	4306
2026-01-27 05:52:54.32	354.71	23.10	-44.4	-45.6	21.1	0.00e+00	0	43	0	719323136	60	4125
2026-01-27 05:52:57.34	353.91	22.99	-44.4	-45.5	21.1	0.00e+00	0	43	0	724566016	60	4091
2026-01-27 05:53:00.36	353.11	22.88	-44.4	-45.6	21.1	0.00e+00	0	43	0	729808896	60	4110
2026-01-27 05:53:03.38	352.31	22.76	-44.7	-46.0	20.7	0.00e+00	0	43	0	736100352	60	4295
2026-01-27 05:53:06.39	351.53	22.63	-45.4	-46.8	19.9	0.00e+00	0	43	0	741343232	61	4487
2026-01-27 05:53:09.41	350.75	22.50	-46.1	-47.7	19.2	0.00e+00	0	43	0	747634688	62	4660
2026-01-27 05:53:12.43	349.98	22.37	-46.1	-47.7	19.1	0.00e+00	0	43	0	752877568	63	4435
2026-01-27 05:53:15.46	349.21	22.23	-45.4	-46.8	19.9	0.00e+00	0	43	0	758120448	62	4239
2026-01-27 05:53:18.48	348.45	22.09	-45.7	-47.2	19.6	0.00e+00	0	43	0	764411904	62	4411
2026-01-27 05:53:21.50	347.70	21.94	-45.9	-47.5	19.3	0.00e+00	0	43	0	769654784	62	4553
2026-01-27 05:53:24.52	346.95	21.78	-45.5	-46.9	19.8	0.00e+00	0	43	0	775946240	62	4265
2026-01-27 05:53:27.53	346.22	21.63	-45.3	-46.7	20.0	0.00e+00	0	43	0	781189120	62	4172
2026-01-27 05:53:30.55	345.49	21.47	-45.4	-46.8	19.9	0.00e+00	0	43	0	786432000	62	4217
2026-01-27 05:53:33.57	344.76	21.30	-46.2	-47.9	19.0	0.00e+00	0	43	0	792723456	62	4798
2026-01-27 05:53:36.59	344.05	21.13	-45.9	-47.5	19.3	0.00e+00	0	43	0	797966336	63	4307
2026-01-27 05:53:39.62	343.34	20.96	-45.8	-47.4	19.4	0.00e+00	0	43	0	804257792	63	4257
2026-01-27 05:53:42.63	342.64	20.79	-47.0	-49.1	17.6	0.00e+00	0	43	0	809500672	64	4897
2026-01-27 05:53:45.64	341.96	20.61	-47.3	-49.5	17.2	0.00e+00	0	43	0	814743552	65	4842
2026-01-27 05:53:48.66	341.27	20.43	-45.8	-47.4	19.3	0.00e+00	0	43	0	821035008	63	4279
2026-01-27 05:53:51.69	340.60	20.24	-45.2	-46.6	20.1	0.00e+00	0	43	0	826277888	62	4131
2026-01-27 05:53:54.70	339.93	20.05	-44.8	-46.2	20.4	0.00e+00	0	43	0	832569344	61	4154
2026-01-27 05:53:57.73	339.27	19.86	-44.7	-46.0	20.6	0.00e+00	0	43	0	837812224	61	4090
2026-01-27 05:54:00.75	338.62	19.67	-44.4	-45.6	20.9	0.00e+00	0	43	0	843055104	60	4121
2026-01-27 05:54:03.78	337.98	19.48	-44.0	-45.2	21.2	0.00e+00	0	43	0	849346560	60	3943
2026-01-27 05:54:06.79	337.35	19.28	-44.6	-46.0	20.6	0.00e+00	0	43	0	854589440	60	4306
2026-01-27 05:54:09.81	336.73	19.08	-45.7	-47.3	19.4	0.00e+00	0	43	0	860880896	61	4716
2026-01-27 05:54:12.83	336.11	18.88	-45.8	-47.5	19.2	0.00e+00	0	43	0	866123776	62	4562
2026-01-27 05:54:15.85	335.50	18.68	-45.6	-47.1	19.6	0.00e+00	0	43	0	871366656	62	4378
2026-01-27 05:54:18.87	334.90	18.47	-45.0	-46.4	20.1	0.00e+00	0	43	0	877658112	61	4276
2026-01-27 05:54:21.89	334.31	18.27	-44.6	-45.9	20.6	0.00e+00	0	43	0	882900992	61	4016
2026-01-27 05:54:24.92	333.72	18.06	-44.4	-45.6	20.8	0.00e+00	0	43	0	889192448	60	4137
2026-01-27 05:54:27.94	333.15	17.85	-45.2	-46.6	20.0	0.00e+00	0	43	0	894435328	60	4628
2026-01-27 05:54:30.96	332.58	17.64	-45.3	-46.7	19.8	0.00e+00	0	43	0	899678208	61	4431
2026-01-27 05:54:33.98	332.02	17.43	-45.3	-46.8	19.9	0.00e+00	0	43	0	905969664	61	4448
2026-01-27 05:54:37.00	331.47	17.22	-45.7	-47.3	19.4	0.00e+00	0	43	0	911212544	61	4710
2026-01-27 05:54:40.02	330.93	17.00	-45.3	-46.8	19.8	0.00e+00	0	43	0	917504000	61	4476
2026-01-27 05:54:43.04	330.39	16.79	-45.0	-46.4	20.2	0.00e+00	0	43	0	922746880	61	4257
2026-01-27 05:54:46.07	329.86	16.57	-44.6	-45.9	20.6	0.00e+00	0	43	0	927989760	61	4026
2026-01-27 05:54:49.08	329.34	16.36	-44.5	-45.7	20.8	0.00e+00	0	43	0	934281216	60	4182
2026-01-27 05:54:52.10	328.83	16.15	-44.8	-46.1	20.4	0.00e+00	0	43	0	939524096	60	4377
2026-01-27 05:54:55.12	328.32	15.93	-44.2	-45.4	21.1	0.00e+00	0	43	0	945815552	60	4021
2026-01-27 05:54:58.14	327.82	15.71	-44.3	-45.4	21.3	0.00e+00	0	43	0	951058432	59	4283
2026-01-27 05:55:01.15	327.33	15.50	-44.4	-45.6	21.2	0.00e+00	0	43	0	956301312	59	4384
2026-01-27 05:55:04.17	326.85	15.28	-44.3	-45.6	20.9	0.00e+00	0	43	0	962592768	60	4112
2026-01-27 05:55:07.20	326.37	15.06	-44.6	-45.9	20.6	0.00e+00	0	43	0	967835648	60	4259
2026-01-27 05:55:10.23	325.90	14.85	-44.7	-46.0	20.5	0.00e+00	0	43	0	974127104	60	4308
2026-01-27 05:55:13.25	325.44	14.63	-44.3	-45.5	21.2	0.00e+00	0	43	0	979369984	59	4306
2026-01-27 05:55:16.27	324.98	14.41	-44.5	-45.8	21.0	0.00e+00	0	43	0	984612864	59	4450
2026-01-27 05:55:19.29	324.53	14.20	-45.3	-46.7	19.8	0.00e+00	0	43	0	990904320	61	4438
2026-01-27 05:55:22.31	324.09	13.98	-45.5	-47.0	19.5	0.00e+00	0	43	0	996147200	61	4584
2026-01-27 05:55:25.32	323.65	13.77	-45.1	-46.6	19.9	0.00e+00	0	43	0	1002438656	61	4349
2026-01-27 05:55:28.35	323.22	13.55	-45.0	-46.4	20.0	0.00e+00	0	43	0	1007681536	61	4274
2026-01-27 05:55:31.36	322.80	13.33	-44.6	-45.9	20.5	0.00e+00	0	43	0	1012924416	61	4021
2026-01-27 05:55:34.37	322.39	13.12	-44.5	-45.7	20.7	0.00e+00	0	43	0	1019215872	60	4183
2026-01-27 05:55:37.39	321.98	12.90	-45.6	-47.1	19.5	0.00e+00	0	43	0	1024458752	61	4616
2026-01-27 05:55:40.42	321.57	12.69	-46.4	-48.1	18.5	0.00e+00	0	43	0	1030750208	63	4628
2026-01-27 05:55:43.45	321.17	12.47	-46.0	-47.7	18.9	0.00e+00	0	43	0	1035993088	63	4393
2026-01-27 05:55:46.47	320.78	12.26	-45.5	-47.0	19.5	0.00e+00	0	43	0	1041235968	63	4057
2026-01-27 05:55:49.49	320.39	12.05	-45.0	-46.4	20.0	0.00e+00	0	43	0	1047527424	61	4276
2026-01-27 05:55:52.50	320.01	11.84	-45.1	-46.5	19.9	0.00e+00	0	43	0	1052770304	61	4335
2026-01-27 05:55:55.51	319.63	11.63	-45.3	-46.7	19.7	0.00e+00	0	43	0	1059061760	61	4412
2026-01-27 05:55:58.54	319.26	11.41	-45.3	-46.8	19.6	0.00e+00	0	43	0	1064304640	61	4451
2026-01-27 05:56:01.56	318.90	11.20	-45.8	-47.3	19.1	0.00e+00	0	43	0	1069547520	62	4467
2026-01-27 05:56:04.58	318.54	10.99	-46.3	-48.0	18.5	0.00e+00	0	43	0	1075838976	63	4569
2026-01-27 05:56:07.60	318.18	10.78	-46.1	-47.8	18.7	0.00e+00	0	43	0	1081081856	63	4442
2026-01-27 05:56:10.62	317.83	10.58	-46.0	-47.6	18.8	0.00e+00	0	43	0	1087373312	63	4370
2026-01-27 05:56:13.64	317.49	10.37	-46.6	-48.4	18.1	0.00e+00	0	43	0	1092616192	63	4773
2026-01-27 05:56:16.66	317.15	10.16	-46.7	-48.6	17.8	0.00e+00	0	43	0	1097859072	64	4615
2026-01-27 05:56:19.69	316.81	9.95	-46.6	-48.4	17.9	0.00e+00	0	43	0	1104150528	64	4530
2026-01-27 05:56:22.71	316.49	9.75	-46.3	-48.1	18.3	0.00e+00	0	43	0	1109393408	64	4349
2026-01-27 05:56:25.73	316.16	9.54	-46.1	-47.8	18.6	0.00e+00	0	43	0	1115684864	63	4462
2026-01-27 05:56:28.74	315.84	9.34	-46.0	-47.7	18.7	0.00e+00	0	43	0	1120927744	63	4392
2026-01-27 05:56:31.76	315.53	9.14	-46.5	-48.3	18.1	0.00e+00	0	43	0	1126170624	63	4709
2026-01-27 05:56:34.78	315.21	8.94	-46.5	-48.3	18.1	0.00e+00	0	43	0	1132462080	63	4711
2026-01-27 05:56:37.79	314.91	8.73	-46.8	-48.7	17.6	0.00e+00	0	43	0	1137704960	64	4682
2026-01-27 05:56:40.81	314.61	8.53	-46.5	-48.3	17.9	0.00e+00	0	43	0	1143996416	64	4454
2026-01-27 05:56:43.83	314.31	8.33	-46.3	-48.1	18.1	0.00e+00	0	43	0	1149239296	64	4371
2026-01-27 05:56:46.85	314.01	8.14	-46.4	-48.1	18.1	0.00e+00	0	43	0	1154482176	63	4644
2026-01-27 05:56:49.86	313.73	7.94	-46.5	-48.3	18.0	0.00e+00	0	43	0	1160773632	63	4757
2026-01-27 05:56:52.88	313.44	7.74	-46.6	-48.4	17.9	0.00e+00	0	43	0	1166016512	63	4791
2026-01-27 05:56:55.90	313.16	7.54	-47.1	-49.2	17.0	0.00e+00	0	43	0	1172307968	64	4938
2026-01-27 05:56:58.90	312.88	7.35	-47.1	-49.2	17.0	0.00e+00	0	43	0	1177550848	64	4942
2026-01-27 05:57:01.93	312.61	7.15	-47.4	-49.6	16.5	0.00e+00	0	43	0	1182793728	65	4895
2026-01-27 05:57:04.95	312.34	6.96	-47.6	-50.0	16.1	0.00e+00	0	43	0	1189085184	66	4823
2026-01-27 05:57:07.97	312.07	6.77	-47.8	-50.2	15.9	0.00e+00	0	43	0	1194328064	66	4939
2026-01-27 05:57:10.99	311.81	6.57	-47.6	-49.9	16.1	0.00e+00	0	43	0	1200619520	66	4810
2026-01-27 05:57:14.01	311.55	6.38	-47.4	-49.6	16.4	0.00e+00	0	43	0	1205862400	66	4635
2026-01-27 05:57:17.02	311.29	6.19	-47.5	-49.8	16.2	0.00e+00	0	43	0	1211105280	66	4727
2026-01-27 05:57:20.04	311.04	6.00	-47.5	-49.8	16.2	0.00e+00	0	43	0	1217396736	66	4734
2026-01-27 05:57:23.06	310.79	5.81	-47.9	-50.4	15.6	0.00e+00	0	43	0	1222639616	66	5051
2026-01-27 05:57:26.08	310.55	5.63	-47.9	-50.5	15.5	0.00e+00	0	43	0	1227882496	67	4835
2026-01-27 05:57:29.10	310.30	5.44	-47.9	-50.5	15.5	1.50e-06	0	43	0	1234173952	67	4819
2026-01-27 05:57:32.11	310.07	5.25	-47.7	-50.2	15.7	0.00e+00	0	43	0	1239416832	67	4660
2026-01-27 05:57:35.14	309.83	5.07	-47.5	-49.9	15.9	0.00e+00	0	43	0	1245708288	66	4800
2026-01-27 05:57:38.15	309.60	4.88	-52.4	-67.4	3.8	1.49e+00	0	43	104	1248854016	75	21305
2026-01-27 05:57:41.17	309.37	4.70	-52.5	-67.4	3.8	1.49e+00	0	43	104	1248854016	75	21418
2026-01-27 05:57:44.20	309.14	4.52	-52.7	-67.6	3.8	1.49e+00	0	43	104	1248854016	75	21990
2026-01-27 05:57:47.22	308.92	4.33	-52.9	-67.8	3.8	1.49e+00	0	43	104	1248854016	76	21180
2026-01-27 05:57:50.23	308.70	4.15	-53.0	-68.0	3.8	1.49e+00	0	43	104	1248854016	76	21587
2026-01-27 05:57:53.26	308.48	3.97	-53.1	-68.0	3.8	1.49e+00	0	43	104	1248854016	76	21740
2026-01-27 05:57:56.29	308.26	3.79	-53.1	-68.1	3.8	1.49e+00	0	43	104	1248854016	76	21821
2026-01-27 05:57:59.31	308.05	3.61	-53.1	-68.0	3.8	1.49e+00	0	43	104	1248854016	76	21726
2026-01-27 05:58:02.33	307.84	3.43	-53.1	-68.0	3.8	1.49e+00	0	43	104	1248854016	76	21681
2026-01-27 05:58:05.35	307.63	3.26	-53.1	-68.0	3.8	1.49e+00	0	43	104	1248854016	76	21630
2026-01-27 05:58:08.38	307.43	3.08	-53.0	-68.0	3.8	1.49e+00	0	43	104	1248854016	76	21632
2026-01-27 05:58:11.40	307.22	2.90	-53.1	-68.0	3.8	1.49e+00	0	43	104	1248854016	76	21581
2026-01-27 05:58:14.42	307.02	2.73	-53.0	-68.0	3.8	1.49e+00	0	43	104	1248854016	76	21597
2026-01-27 05:58:17.44	306.83	2.55	-53.0	-68.0	3.8	1.49e+00	0	43	104	1248854016	76	21658
2026-01-27 05:58:20.47	306.63	2.38	-53.0	-68.0	3.8	1.49e+00	0	43	104	1248854016	76	21602
2026-01-27 05:58:23.49	306.44	2.21	-53.0	-68.0	3.8	1.49e+00	0	43	104	1248854016	76	21615
2026-01-27 05:58:26.52	306.25	2.03	-53.0	-68.0	3.8	1.49e+00	0	43	104	1248854016	76	21574

#Closed at: 2026-01-27 05:58:29
#Recorded file [1248 MB]: D:/lorett/data/31041_260127_084545.dat