passes_logs/2026/01/27/R3.2S_Murmansk/R3.2S_Murmansk__20260127_062250_KANOPUS-V_5_rec.log

#Pass ID: 20260127_062250_KANOPUS-V 5
#Satellite: KANOPUS-V 5
#Configuration: KANOPUS-V_8320
#almurnet v.1.7.20251203
#Start time: 2026-01-27 06:22:52

#Version: 2.2.20231116
#Station: R3.2S_Murmansk
#Location: 33.079688 lon 68.888172 lat
#TLE: 1 43876U 18111A   26026.53344362  .00004964  00000+0  21063-3 0  9993
#TLE: 2 43876  97.3674 294.8392 0001826  89.2862 270.8585 15.23550007393227

#Time	Az	El	Level	Level2	SNR	BER	BlckErr	Temp	State	Recorded	gain1	gain2
2026-01-27 06:22:52.31	121.65	2.12	-54.2	-63.0	3.8	7.44e-01	0	41	0	0	80	9645
2026-01-27 06:22:55.32	121.48	2.32	-53.7	-62.6	3.8	7.44e-01	0	42	104	0	79	9785
2026-01-27 06:22:58.34	121.31	2.53	-53.0	-61.8	3.8	7.43e-01	0	42	104	0	78	9481
2026-01-27 06:23:01.36	121.14	2.74	-52.9	-61.8	3.8	7.45e-01	0	42	104	0	77	9946
2026-01-27 06:23:04.38	120.96	2.95	-52.9	-61.7	3.8	7.46e-01	0	42	104	0	77	9915
2026-01-27 06:23:07.39	120.79	3.16	-52.9	-61.7	3.8	7.46e-01	0	42	104	0	77	9902
2026-01-27 06:23:10.42	120.60	3.37	-52.9	-61.7	3.8	7.46e-01	0	42	104	0	77	9902
2026-01-27 06:23:13.44	120.42	3.59	-52.9	-61.7	3.8	7.46e-01	0	42	104	0	77	9920
2026-01-27 06:23:16.46	120.23	3.81	-52.9	-61.7	3.8	7.45e-01	0	42	104	0	77	9919
2026-01-27 06:23:19.48	120.03	4.03	-52.9	-61.7	3.8	7.46e-01	0	42	104	0	77	9882
2026-01-27 06:23:22.51	119.83	4.25	-52.9	-61.7	3.8	7.45e-01	0	42	104	0	77	9893
2026-01-27 06:23:25.53	119.63	4.48	-52.9	-61.7	3.8	7.45e-01	0	42	104	0	77	9895
2026-01-27 06:23:28.55	119.43	4.70	-52.9	-61.7	3.8	7.46e-01	0	42	104	0	77	9881
2026-01-27 06:23:31.58	119.22	4.93	-52.9	-61.7	3.8	7.46e-01	0	42	104	0	77	9885
2026-01-27 06:23:34.59	119.00	5.16	-53.0	-61.8	3.8	7.46e-01	0	42	104	0	77	9989
2026-01-27 06:23:37.61	118.78	5.40	-51.1	-61.6	3.8	7.44e-01	0	43	104	0	72	13015
2026-01-27 06:23:40.63	118.56	5.64	-45.2	-47.1	13.4	6.11e-01	0	43	0	33554432	62	4370
2026-01-27 06:23:43.66	118.33	5.88	-44.6	-46.4	14.0	6.10e-01	0	43	0	54525952	61	4266
2026-01-27 06:23:46.68	118.09	6.12	-44.4	-46.2	14.3	6.10e-01	0	43	0	73400320	60	4410
2026-01-27 06:23:49.71	117.85	6.36	-44.5	-46.3	14.2	6.09e-01	0	43	0	119537664	60	4466
2026-01-27 06:23:52.73	117.61	6.61	-44.2	-46.0	14.5	6.09e-01	0	43	0	165675008	60	4307
2026-01-27 06:23:55.76	117.36	6.86	-44.0	-45.8	14.7	6.09e-01	0	43	0	211812352	60	4237
2026-01-27 06:23:58.78	117.10	7.11	-44.3	-46.4	14.4	5.87e-01	0	43	0	257949696	60	4541
2026-01-27 06:24:01.80	116.84	7.37	-44.4	-46.6	14.3	5.89e-01	0	43	0	304087040	60	4611
2026-01-27 06:24:04.81	116.57	7.63	-44.2	-46.3	14.5	5.88e-01	0	43	0	352321536	60	4475
2026-01-27 06:24:07.84	116.30	7.89	-44.2	-46.4	14.6	5.88e-01	0	43	0	398458880	59	4777
2026-01-27 06:24:10.86	116.01	8.16	-44.2	-46.3	14.6	5.88e-01	0	43	0	444596224	59	4743
2026-01-27 06:24:13.87	115.73	8.42	-44.0	-46.1	14.9	5.87e-01	0	43	0	490733568	59	4627
2026-01-27 06:24:16.90	115.43	8.70	-44.0	-46.1	14.9	5.88e-01	0	43	0	536870912	59	4616
2026-01-27 06:24:19.92	115.13	8.97	-44.0	-46.1	14.9	5.88e-01	0	43	0	583008256	59	4642
2026-01-27 06:24:22.95	114.82	9.25	-44.0	-46.1	15.0	5.87e-01	0	43	0	629145600	59	4615
2026-01-27 06:24:25.97	114.50	9.53	-44.1	-46.2	14.9	5.87e-01	0	43	0	675282944	59	4668
2026-01-27 06:24:29.00	114.18	9.82	-43.9	-46.0	15.1	5.87e-01	0	43	0	721420288	59	4579
2026-01-27 06:24:32.01	113.85	10.11	-43.8	-45.8	15.3	5.88e-01	0	43	0	767557632	59	4492
2026-01-27 06:24:35.03	113.50	10.40	-43.7	-45.8	15.3	5.86e-01	0	43	0	815792128	59	4485
2026-01-27 06:24:38.05	113.15	10.70	-43.5	-45.7	15.5	5.87e-01	0	43	0	861929472	59	4408
2026-01-27 06:24:41.07	112.80	11.00	-43.5	-45.6	15.5	5.87e-01	0	43	0	908066816	58	4619
2026-01-27 06:24:44.09	112.43	11.30	-43.2	-45.3	15.8	5.87e-01	0	43	0	954204160	58	4463
2026-01-27 06:24:47.10	112.05	11.61	-43.0	-45.0	16.0	5.87e-01	0	43	0	1000341504	57	4563
2026-01-27 06:24:50.12	111.66	11.92	-42.8	-44.7	16.3	5.87e-01	0	43	0	1048576000	57	4408
2026-01-27 06:24:53.15	111.26	12.24	-42.6	-44.5	16.5	5.87e-01	0	43	0	1094713344	57	4302
2026-01-27 06:24:56.17	110.85	12.56	-42.5	-44.4	16.6	5.87e-01	0	43	0	1140850688	57	4246
2026-01-27 06:24:59.19	110.43	12.89	-42.3	-44.1	16.8	5.87e-01	0	43	0	1186988032	56	4351
2026-01-27 06:25:02.23	109.99	13.22	-42.1	-43.9	16.9	5.87e-01	0	44	0	1233125376	56	4281
2026-01-27 06:25:05.25	109.55	13.55	-42.0	-43.9	16.9	5.87e-01	0	44	0	1279262720	56	4271
2026-01-27 06:25:08.27	109.09	13.89	-42.0	-44.0	17.0	5.86e-01	0	43	0	1325400064	55	4569
2026-01-27 06:25:11.29	108.62	14.24	-42.0	-44.0	17.0	5.87e-01	0	43	0	1371537408	55	4578
2026-01-27 06:25:14.31	108.14	14.59	-41.9	-43.9	17.2	5.87e-01	0	43	0	1417674752	55	4503
2026-01-27 06:25:17.33	107.64	14.94	-41.8	-43.8	17.3	5.87e-01	0	43	0	1465909248	55	4464
2026-01-27 06:25:20.35	107.12	15.30	-41.6	-43.5	17.4	5.86e-01	0	43	0	1512046592	55	4308
2026-01-27 06:25:23.37	106.60	15.66	-41.6	-43.5	17.4	5.96e-01	0	43	0	1558183936	55	4298
2026-01-27 06:25:26.38	106.05	16.03	-41.4	-43.3	17.5	5.98e-01	0	43	0	1604321280	54	4475
2026-01-27 06:25:29.39	105.50	16.40	-41.4	-43.3	17.5	5.95e-01	0	44	0	1650458624	54	4456
2026-01-27 06:25:32.41	104.92	16.78	-41.2	-43.2	17.6	5.98e-01	0	44	0	1696595968	54	4395
2026-01-27 06:25:35.43	104.32	17.16	-41.1	-43.0	17.7	6.03e-01	0	44	0	1742733312	54	4312
2026-01-27 06:25:38.45	103.71	17.55	-41.0	-42.9	17.8	6.02e-01	0	44	0	1788870656	54	4268
2026-01-27 06:25:41.47	103.08	17.95	-40.9	-42.8	17.9	6.01e-01	0	43	0	1835008000	53	4442
2026-01-27 06:25:44.48	102.43	18.34	-40.7	-42.6	18.0	6.03e-01	0	43	0	1881145344	53	4343
2026-01-27 06:25:47.51	101.76	18.75	-40.5	-42.3	18.2	6.01e-01	0	43	0	1929379840	53	4239
2026-01-27 06:25:50.53	101.06	19.15	-40.3	-42.2	18.3	6.01e-01	0	43	0	1975517184	52	4396
2026-01-27 06:25:53.56	100.34	19.57	-40.6	-42.4	18.1	6.01e-01	0	44	0	2021654528	52	4531
2026-01-27 06:25:56.57	99.61	19.98	-40.2	-42.1	18.4	6.02e-01	0	44	0	2067791872	52	4359
2026-01-27 06:25:59.59	98.85	20.40	-40.2	-42.0	18.4	6.02e-01	0	44	0	2113929216	52	4299
2026-01-27 06:26:02.61	98.06	20.83	-40.0	-41.8	18.6	6.01e-01	0	44	0	2160066560	52	4195
2026-01-27 06:26:05.63	97.25	21.26	-39.8	-41.4	18.8	6.02e-01	0	44	0	2208301056	51	4285
2026-01-27 06:26:08.65	96.41	21.69	-39.8	-41.5	18.8	6.02e-01	0	43	0	2254438400	51	4312
2026-01-27 06:26:11.68	95.54	22.13	-40.0	-41.8	18.6	6.02e-01	0	44	0	2300575744	51	4459
2026-01-27 06:26:14.71	94.65	22.57	-39.8	-41.8	18.6	6.02e-01	0	44	0	2346713088	51	4453
2026-01-27 06:26:17.73	93.72	23.01	-39.9	-41.7	18.7	6.02e-01	0	44	0	2392850432	51	4419
2026-01-27 06:26:20.75	92.77	23.45	-39.9	-41.7	18.7	6.02e-01	0	44	0	2438987776	51	4403
2026-01-27 06:26:23.77	91.79	23.89	-39.6	-41.4	18.8	6.05e-01	0	44	0	2485125120	51	4263
2026-01-27 06:26:26.79	90.77	24.34	-39.5	-41.2	19.0	6.04e-01	0	43	0	2531262464	51	4164
2026-01-27 06:26:29.81	89.72	24.78	-39.4	-41.2	19.0	6.03e-01	0	43	0	2577399808	50	4422
2026-01-27 06:26:32.84	88.64	25.23	-39.8	-41.6	18.7	6.04e-01	0	44	0	2625634304	50	4642
2026-01-27 06:26:35.86	87.52	25.67	-40.0	-41.8	18.6	6.03e-01	0	44	0	2671771648	50	4723
2026-01-27 06:26:38.88	86.37	26.11	-39.8	-41.5	18.8	6.04e-01	0	44	0	2717908992	50	4568
2026-01-27 06:26:41.91	85.17	26.55	-39.7	-41.4	18.8	6.04e-01	0	44	0	2764046336	50	4511
2026-01-27 06:26:44.93	83.95	26.98	-39.9	-41.7	18.6	6.04e-01	0	43	0	2810183680	50	4694
2026-01-27 06:26:47.95	82.69	27.41	-39.8	-41.6	18.7	6.03e-01	0	44	0	2856321024	50	4627
2026-01-27 06:26:50.97	81.39	27.83	-40.0	-41.8	18.6	6.05e-01	0	43	0	2902458368	50	4715
2026-01-27 06:26:54.00	80.05	28.24	-40.2	-42.0	18.4	6.05e-01	0	44	0	2948595712	50	4860
2026-01-27 06:26:57.03	78.67	28.65	-40.3	-42.1	18.4	6.01e-01	0	44	0	2996830208	51	4611
2026-01-27 06:27:00.05	77.26	29.04	-40.2	-42.1	18.4	6.04e-01	0	44	0	3042967552	51	4613
2026-01-27 06:27:03.08	75.80	29.42	-40.2	-41.9	18.6	6.04e-01	0	44	0	3089104896	51	4533
2026-01-27 06:27:06.10	74.32	29.78	-40.5	-42.5	18.2	6.04e-01	0	44	0	3135242240	51	4822
2026-01-27 06:27:09.12	72.79	30.14	-40.2	-42.1	18.5	6.02e-01	0	44	0	3183476736	51	4623
2026-01-27 06:27:12.15	71.23	30.47	-40.4	-42.5	18.2	6.06e-01	0	44	0	3229614080	51	4815
2026-01-27 06:27:15.17	69.64	30.79	-40.6	-42.6	18.1	6.04e-01	0	44	0	3275751424	51	4915
2026-01-27 06:27:18.19	68.01	31.08	-40.6	-42.5	18.2	6.05e-01	0	44	0	3321888768	52	4557
2026-01-27 06:27:21.22	66.35	31.36	-40.4	-42.4	18.2	6.00e-01	0	44	0	3368026112	52	4514
2026-01-27 06:27:24.24	64.66	31.61	-40.7	-42.7	18.0	6.02e-01	0	44	0	3414163456	52	4704
2026-01-27 06:27:27.25	62.95	31.84	-40.7	-42.7	18.0	6.04e-01	0	44	0	3460300800	52	4704
2026-01-27 06:27:30.28	61.21	32.04	-40.9	-43.2	17.6	6.05e-01	0	44	0	3506438144	52	4983
2026-01-27 06:27:33.30	59.45	32.21	-41.0	-43.4	17.5	6.02e-01	0	43	0	3552575488	52	5064
2026-01-27 06:27:36.33	57.66	32.36	-40.9	-43.2	17.7	6.02e-01	0	43	0	3600809984	52	4959
2026-01-27 06:27:39.34	55.87	32.48	-41.1	-43.4	17.5	6.05e-01	0	44	0	3646947328	52	5093
2026-01-27 06:27:42.37	54.06	32.57	-41.1	-43.5	17.5	6.01e-01	0	44	0	3693084672	53	4821
2026-01-27 06:27:45.40	52.24	32.62	-41.2	-43.6	17.4	6.04e-01	0	44	0	3739222016	53	4885
2026-01-27 06:27:48.42	50.42	32.65	-41.2	-43.5	17.5	6.06e-01	0	44	0	3787456512	53	4858
2026-01-27 06:27:51.44	48.60	32.65	-41.6	-44.0	17.1	6.03e-01	0	44	0	3833593856	53	5152
2026-01-27 06:27:54.46	46.78	32.61	-41.3	-43.7	17.3	6.03e-01	0	44	0	3879731200	53	4978
2026-01-27 06:27:57.48	44.96	32.55	-41.5	-44.1	17.0	6.03e-01	0	43	0	3923771392	53	5188
2026-01-27 06:28:00.50	43.16	32.45	-41.3	-43.9	17.1	6.04e-01	0	44	0	3969908736	53	5085
2026-01-27 06:28:03.52	41.37	32.33	-41.6	-44.4	16.8	6.02e-01	0	44	0	4018143232	53	5343
2026-01-27 06:28:06.55	39.59	32.18	-41.5	-44.0	17.1	6.02e-01	0	44	0	4064280576	54	4832
2026-01-27 06:28:09.57	37.84	32.00	-41.5	-43.9	17.2	6.01e-01	0	44	0	4110417920	54	4798
2026-01-27 06:28:12.59	36.11	31.79	-41.3	-43.5	17.5	6.01e-01	0	44	0	4156555264	54	4590
2026-01-27 06:28:15.61	34.40	31.56	-42.0	-44.3	16.9	6.01e-01	0	44	0	4204789760	54	5019
2026-01-27 06:28:18.63	32.72	31.30	-41.7	-43.9	17.1	6.02e-01	0	44	0	4250927104	54	4812
2026-01-27 06:28:21.66	31.07	31.02	-41.5	-43.8	17.2	6.01e-01	0	44	0	4297064448	54	4734
2026-01-27 06:28:24.67	29.46	30.72	-41.6	-43.7	17.3	6.01e-01	0	44	0	4343201792	54	4703
2026-01-27 06:28:27.69	27.87	30.40	-41.5	-43.6	17.4	6.01e-01	0	44	0	4389339136	54	4599
2026-01-27 06:28:30.71	26.33	30.07	-41.6	-43.7	17.3	6.00e-01	0	44	0	4435476480	54	4684
2026-01-27 06:28:33.73	24.81	29.71	-41.4	-43.7	17.3	6.02e-01	0	44	0	4481613824	54	4664
2026-01-27 06:28:36.76	23.33	29.34	-41.4	-43.6	17.3	6.01e-01	0	44	0	4527751168	54	4632
2026-01-27 06:28:39.78	21.90	28.96	-41.4	-43.5	17.5	6.00e-01	0	44	0	4573888512	54	4556
2026-01-27 06:28:42.80	20.50	28.57	-41.5	-43.8	17.3	6.00e-01	0	43	0	4620025856	54	4736
2026-01-27 06:28:45.81	19.14	28.16	-41.2	-43.3	17.6	5.99e-01	0	43	0	4668260352	54	4492
2026-01-27 06:28:48.84	17.81	27.75	-41.4	-43.3	17.6	6.01e-01	0	44	0	4714397696	54	4478
2026-01-27 06:28:51.86	16.52	27.33	-41.3	-43.4	17.6	6.01e-01	0	43	0	4760535040	54	4503
2026-01-27 06:28:54.89	15.27	26.90	-40.9	-43.0	17.9	6.01e-01	0	44	0	4806672384	53	4552
2026-01-27 06:28:57.91	14.05	26.47	-40.9	-43.0	17.8	6.00e-01	0	43	0	4854906880	53	4565
2026-01-27 06:29:00.93	12.88	26.03	-41.1	-43.1	17.7	5.99e-01	0	43	0	4901044224	53	4608
2026-01-27 06:29:03.95	11.73	25.60	-40.7	-42.7	17.9	5.96e-01	0	44	0	4947181568	53	4439
2026-01-27 06:29:06.97	10.63	25.15	-40.8	-42.9	17.8	6.02e-01	0	44	0	4993318912	53	4540
2026-01-27 06:29:10.00	9.55	24.71	-40.8	-42.9	17.8	6.00e-01	0	44	0	5037359104	53	4539
2026-01-27 06:29:13.01	8.52	24.27	-40.7	-42.8	18.0	6.00e-01	0	44	0	5085593600	53	4451
2026-01-27 06:29:16.04	7.51	23.82	-40.8	-43.0	17.7	6.02e-01	0	44	0	5131730944	53	4567
2026-01-27 06:29:19.07	6.53	23.38	-40.8	-42.9	17.9	6.01e-01	0	44	0	5177868288	53	4515
2026-01-27 06:29:22.09	5.59	22.94	-40.6	-42.5	18.1	6.00e-01	0	44	0	5224005632	53	4326
2026-01-27 06:29:25.11	4.67	22.50	-40.7	-42.7	18.0	5.99e-01	0	43	0	5272240128	53	4412
2026-01-27 06:29:28.13	3.79	22.07	-40.6	-42.7	17.9	6.01e-01	0	44	0	5318377472	53	4420
2026-01-27 06:29:31.14	2.94	21.64	-40.6	-42.6	17.9	5.99e-01	0	44	0	5364514816	53	4371
2026-01-27 06:29:34.16	2.11	21.21	-40.8	-42.9	17.8	5.99e-01	0	44	0	5410652160	53	4497
2026-01-27 06:29:37.18	1.30	20.78	-40.7	-42.8	17.9	5.99e-01	0	44	0	5456789504	53	4456
2026-01-27 06:29:40.20	0.52	20.36	-40.8	-42.8	17.8	6.00e-01	0	44	0	5502926848	53	4480
2026-01-27 06:29:43.23	359.77	19.94	-40.9	-43.0	17.6	5.97e-01	0	44	0	5549064192	53	4553
2026-01-27 06:29:46.25	359.04	19.52	-41.0	-43.1	17.6	5.99e-01	0	44	0	5595201536	53	4634
2026-01-27 06:29:49.28	358.33	19.11	-40.9	-43.0	17.6	6.00e-01	0	44	0	5641338880	53	4596
2026-01-27 06:29:52.30	357.64	18.71	-41.0	-43.2	17.5	5.97e-01	0	44	0	5687476224	53	4674
2026-01-27 06:29:55.32	356.97	18.31	-41.1	-43.4	17.4	5.87e-01	0	44	0	5735710720	53	4761
2026-01-27 06:29:58.34	356.33	17.91	-41.2	-43.4	17.4	5.87e-01	0	44	0	5781848064	53	4788
2026-01-27 06:30:01.36	355.70	17.52	-41.2	-43.3	17.4	5.87e-01	0	44	0	5827985408	53	4747
2026-01-27 06:30:04.38	355.10	17.14	-41.4	-43.6	17.3	5.87e-01	0	44	0	5874122752	53	4879
2026-01-27 06:30:07.40	354.51	16.75	-54.0	-63.0	3.8	7.44e-01	0	43	104	5916065792	78	10787
2026-01-27 06:30:10.41	353.94	16.38	-54.0	-62.8	3.8	7.45e-01	0	44	104	5916065792	78	10608
2026-01-27 06:30:13.44	353.38	16.01	-54.0	-62.8	3.8	7.47e-01	0	44	104	5916065792	78	10564
2026-01-27 06:30:16.45	352.85	15.64	-54.0	-62.8	3.8	7.43e-01	0	44	104	5916065792	78	10606
2026-01-27 06:30:19.48	352.32	15.28	-53.9	-62.8	3.8	7.46e-01	0	44	104	5916065792	78	10556
2026-01-27 06:30:22.50	351.81	14.92	-53.9	-62.7	3.8	7.45e-01	0	44	104	5916065792	78	10465
2026-01-27 06:30:25.53	351.32	14.57	-53.9	-62.7	3.8	7.45e-01	0	44	104	5916065792	78	10473
2026-01-27 06:30:28.55	350.84	14.22	-53.9	-62.7	3.8	7.46e-01	0	44	104	5916065792	78	10482
2026-01-27 06:30:31.57	350.37	13.88	-53.8	-62.6	3.8	7.45e-01	0	44	104	5916065792	78	10397
2026-01-27 06:30:34.59	349.92	13.54	-53.8	-62.6	3.8	7.43e-01	0	44	104	5916065792	78	10398
2026-01-27 06:30:37.61	349.48	13.21	-53.8	-62.6	3.8	7.46e-01	0	44	104	5916065792	78	10335
2026-01-27 06:30:40.63	349.05	12.88	-53.8	-62.6	3.8	7.45e-01	0	44	104	5916065792	78	10344
2026-01-27 06:30:43.65	348.63	12.56	-53.7	-62.6	3.8	7.45e-01	0	44	104	5916065792	78	10310
2026-01-27 06:30:46.67	348.23	12.24	-53.7	-62.5	3.8	7.45e-01	0	44	104	5916065792	78	10246
2026-01-27 06:30:49.68	347.83	11.93	-53.7	-62.5	3.8	7.46e-01	0	44	104	5916065792	78	10232
2026-01-27 06:30:52.70	347.45	11.61	-53.7	-62.5	3.8	7.46e-01	0	44	104	5916065792	78	10227
2026-01-27 06:30:55.72	347.08	11.31	-53.7	-62.5	3.8	7.47e-01	0	44	104	5916065792	78	10205
2026-01-27 06:30:58.74	346.71	11.01	-53.6	-62.4	3.8	7.45e-01	0	44	104	5916065792	78	10170
2026-01-27 06:31:01.76	346.35	10.71	-53.6	-62.4	3.8	7.46e-01	0	44	104	5916065792	78	10163
2026-01-27 06:31:04.77	346.01	10.41	-53.6	-62.4	3.8	7.44e-01	0	44	104	5916065792	78	10146
2026-01-27 06:31:07.78	345.67	10.12	-53.6	-62.4	3.8	7.44e-01	0	44	104	5916065792	78	10125
2026-01-27 06:31:10.80	345.34	9.83	-53.5	-62.3	3.8	7.46e-01	0	44	104	5916065792	78	10035
2026-01-27 06:31:13.82	345.02	9.55	-53.5	-62.3	3.8	7.45e-01	0	44	104	5916065792	78	9999
2026-01-27 06:31:16.85	344.71	9.27	-53.5	-62.3	3.8	7.45e-01	0	44	104	5916065792	78	10035
2026-01-27 06:31:19.87	344.40	8.99	-53.5	-62.3	3.8	7.45e-01	0	44	104	5916065792	78	10015
2026-01-27 06:31:22.89	344.10	8.72	-53.4	-62.2	3.8	7.45e-01	0	43	104	5916065792	78	9931
2026-01-27 06:31:25.92	343.81	8.45	-53.4	-62.2	3.8	7.45e-01	0	44	104	5916065792	78	9871
2026-01-27 06:31:28.93	343.53	8.18	-53.4	-62.2	3.8	7.45e-01	0	44	104	5916065792	78	9939
2026-01-27 06:31:31.95	343.25	7.92	-53.4	-62.2	3.8	7.44e-01	0	43	104	5916065792	78	9907
2026-01-27 06:31:34.97	342.98	7.66	-53.3	-62.1	3.8	7.45e-01	0	44	104	5916065792	78	9830
2026-01-27 06:31:38.01	342.71	7.40	-53.3	-62.1	3.8	7.45e-01	0	44	104	5916065792	78	9759
2026-01-27 06:31:41.03	342.45	7.14	-53.3	-62.1	3.8	7.47e-01	0	44	104	5916065792	78	9826
2026-01-27 06:31:44.06	342.20	6.89	-53.3	-62.1	3.8	7.45e-01	0	43	104	5916065792	78	9814
2026-01-27 06:31:47.08	341.95	6.64	-53.2	-62.0	3.8	7.45e-01	0	44	104	5916065792	78	9638
2026-01-27 06:31:50.10	341.71	6.40	-53.1	-62.0	3.8	7.45e-01	0	44	104	5916065792	78	9607
2026-01-27 06:31:53.13	341.47	6.15	-53.2	-62.1	3.8	7.46e-01	0	44	104	5916065792	78	9720
2026-01-27 06:31:56.15	341.24	5.91	-53.2	-62.0	3.8	7.46e-01	0	44	104	5916065792	78	9628
2026-01-27 06:31:59.18	341.01	5.67	-53.0	-61.8	3.8	7.45e-01	0	44	104	5916065792	78	9488
2026-01-27 06:32:02.20	340.79	5.44	-52.9	-61.7	3.8	7.46e-01	0	44	104	5916065792	77	9907
2026-01-27 06:32:05.23	340.57	5.20	-53.0	-61.9	3.8	7.45e-01	0	44	104	5916065792	77	10073
2026-01-27 06:32:08.25	340.36	4.97	-53.3	-62.1	3.8	7.46e-01	0	44	104	5916065792	77	10331
2026-01-27 06:32:11.28	340.15	4.74	-54.0	-62.8	3.8	7.45e-01	0	44	104	5916065792	78	10617
2026-01-27 06:32:14.30	339.95	4.52	-54.4	-63.2	3.8	7.46e-01	0	44	104	5916065792	79	10468
2026-01-27 06:32:17.33	339.75	4.29	-54.4	-63.2	3.8	7.45e-01	0	44	104	5916065792	79	10502
2026-01-27 06:32:20.35	339.55	4.07	-54.3	-63.1	3.8	7.45e-01	0	43	104	5916065792	79	10397
2026-01-27 06:32:23.37	339.36	3.85	-54.1	-63.0	3.8	7.46e-01	0	44	104	5916065792	79	10192
2026-01-27 06:32:26.40	339.17	3.63	-54.2	-63.0	3.8	7.44e-01	0	44	104	5916065792	79	10275
2026-01-27 06:32:29.42	338.99	3.42	-54.2	-63.0	3.8	7.47e-01	0	44	104	5916065792	79	10280
2026-01-27 06:32:32.45	338.81	3.20	-54.2	-63.0	3.8	7.44e-01	0	44	104	5916065792	79	10189
2026-01-27 06:32:35.47	338.63	2.99	-54.1	-62.9	3.8	7.45e-01	0	44	104	5916065792	79	10167
2026-01-27 06:32:38.49	338.46	2.78	-54.1	-63.0	3.8	7.45e-01	0	44	104	5916065792	79	10208
2026-01-27 06:32:41.52	338.29	2.57	-54.1	-62.9	3.8	7.46e-01	0	44	104	5916065792	79	10161
2026-01-27 06:32:44.54	338.12	2.37	-54.1	-62.9	3.8	7.45e-01	0	44	104	5916065792	79	10163
2026-01-27 06:32:47.57	337.96	2.16	-54.1	-62.9	3.8	7.46e-01	0	44	104	5916065792	79	10171
2026-01-27 06:32:50.59	337.80	1.96	-54.1	-62.9	3.8	7.46e-01	0	43	104	5916065792	79	10148

#Closed at: 2026-01-27 06:32:50
#Recorded file [5916 MB]: D:/lorett/data/31041_260127_092252.dat