passes_logs/2026/01/27/R3.2S_Murmansk/R3.2S_Murmansk__20260127_205218_JL1KF02B07_rec.log

#Pass ID: 20260127_205218_JL1KF02B07
#Satellite: JL1KF02B07
#Configuration: 01B_900M
#almurnet v.1.7.20251203
#Start time: 2026-01-27 20:52:18

#Version: 2.2.20231116
#Station: R3.2S_Murmansk
#Location: 33.079688 lon 68.888172 lat
#TLE: 1 65939U 25226B   26026.86604061  .00006800  00000+0  42973-3 0  9997
#TLE: 2 65939  97.6523 105.8489 0017785 257.8920 102.0316 15.09242664 16258

#Time	Az	El	Level	Level2	SNR	BER	BlckErr	Temp	State	Recorded	gain1	gain2
2026-01-27 20:52:18.73	208.62	2.00	-54.7	-56.8	6.2	0.00e+00	0	43	0	0	80	18869
2026-01-27 20:52:21.65	208.87	2.18	-54.7	-56.8	6.2	0.00e+00	0	43	104	0	80	18885
2026-01-27 20:52:24.57	209.13	2.36	-54.7	-56.8	6.2	0.00e+00	0	43	104	0	80	18833
2026-01-27 20:52:27.50	209.39	2.54	-54.8	-56.9	6.2	0.00e+00	0	43	104	0	80	19109
2026-01-27 20:52:30.41	209.65	2.72	-54.9	-57.0	6.2	0.00e+00	0	43	104	0	80	19293
2026-01-27 20:52:33.33	209.92	2.90	-54.8	-56.9	6.2	0.00e+00	0	44	104	0	80	19094
2026-01-27 20:52:36.24	210.19	3.08	-54.7	-56.8	6.2	0.00e+00	0	44	104	0	80	18981
2026-01-27 20:52:39.16	210.46	3.26	-54.6	-56.7	6.2	0.00e+00	0	44	104	0	80	18638
2026-01-27 20:52:42.08	210.74	3.45	-54.4	-56.5	6.2	0.00e+00	0	44	104	0	80	18257
2026-01-27 20:52:44.99	211.02	3.63	-54.2	-56.2	6.2	0.00e+00	0	44	104	0	80	17764
2026-01-27 20:52:47.90	211.31	3.82	-53.8	-55.9	6.2	0.00e+00	0	44	104	0	79	17995
2026-01-27 20:52:50.82	211.60	4.00	-53.2	-55.3	6.2	0.00e+00	0	44	104	0	78	17901
2026-01-27 20:52:53.73	211.89	4.19	-53.2	-55.3	6.2	0.00e+00	0	44	104	0	78	17910
2026-01-27 20:52:56.65	212.19	4.38	-53.2	-55.3	6.2	0.00e+00	0	44	104	0	78	17856
2026-01-27 20:52:59.56	212.50	4.57	-53.2	-55.3	6.2	0.00e+00	0	44	104	0	78	17846
2026-01-27 20:53:02.48	212.81	4.76	-53.2	-55.3	6.2	0.00e+00	0	44	104	0	78	17876
2026-01-27 20:53:05.39	213.12	4.96	-53.2	-55.3	6.2	0.00e+00	0	44	104	0	78	17818
2026-01-27 20:53:08.30	213.44	5.15	-53.3	-55.4	6.2	0.00e+00	0	45	104	0	78	18034
2026-01-27 20:53:11.21	213.76	5.34	-53.2	-55.3	6.2	0.00e+00	0	45	104	0	78	17849
2026-01-27 20:53:14.13	214.09	5.54	-53.3	-55.4	6.2	0.00e+00	0	45	104	0	78	17988
2026-01-27 20:53:17.04	214.42	5.74	-53.1	-55.2	6.2	0.00e+00	0	44	104	0	78	17589
2026-01-27 20:53:19.94	214.76	5.93	-53.1	-55.2	6.2	0.00e+00	0	45	104	0	78	17660
2026-01-27 20:53:22.86	215.10	6.13	-53.2	-55.3	6.2	0.00e+00	0	45	104	0	78	17828
2026-01-27 20:53:25.77	215.45	6.34	-53.2	-55.3	6.2	0.00e+00	0	45	104	0	78	17860
2026-01-27 20:53:28.70	215.81	6.54	-53.1	-55.2	6.2	0.00e+00	0	45	104	0	78	17621
2026-01-27 20:53:31.61	216.17	6.74	-53.1	-55.2	6.2	0.00e+00	0	45	104	0	78	17744
2026-01-27 20:53:34.53	216.54	6.95	-53.2	-55.3	6.2	0.00e+00	0	45	104	0	78	17913
2026-01-27 20:53:37.45	216.91	7.15	-53.1	-55.2	6.2	0.00e+00	0	45	104	0	78	17740
2026-01-27 20:53:40.36	217.29	7.36	-53.1	-55.2	6.2	0.00e+00	0	45	104	0	78	17696
2026-01-27 20:53:43.27	217.68	7.57	-53.2	-55.3	6.2	0.00e+00	0	45	104	0	78	17850
2026-01-27 20:53:46.19	218.07	7.78	-53.2	-55.3	6.2	0.00e+00	0	45	104	0	78	17917
2026-01-27 20:53:49.10	218.47	7.99	-53.1	-55.2	6.2	0.00e+00	0	45	104	0	78	17736
2026-01-27 20:53:52.01	218.87	8.20	-53.1	-55.2	6.2	0.00e+00	0	45	104	0	78	17760
2026-01-27 20:53:54.93	219.28	8.41	-53.2	-55.3	6.2	0.00e+00	0	45	104	0	78	17941
2026-01-27 20:53:57.85	219.70	8.62	-51.8	-53.1	6.3	0.00e+00	0	45	104	0	75	16538
2026-01-27 20:54:00.76	220.13	8.84	-50.5	-51.5	6.5	0.00e+00	0	45	104	0	72	16210
2026-01-27 20:54:03.67	220.56	9.05	-50.0	-51.0	6.5	0.00e+00	0	45	104	0	72	15308
2026-01-27 20:54:06.58	221.00	9.27	-51.9	-53.4	6.3	0.00e+00	0	46	104	0	75	17131
2026-01-27 20:54:09.50	221.45	9.49	-50.0	-50.9	6.6	0.00e+00	0	45	104	0	71	16032
2026-01-27 20:54:12.41	221.91	9.71	-49.7	-50.5	6.9	0.00e+00	0	45	104	0	71	15442
2026-01-27 20:54:15.33	222.37	9.93	-36.5	-36.4	14.9	5.11e-04	0	45	0	8388608	45	13508
2026-01-27 20:54:18.25	222.84	10.15	-29.4	-29.3	17.4	0.00e+00	0	46	0	352321536	30	14195
2026-01-27 20:54:21.17	223.33	10.37	-29.2	-29.1	17.6	0.00e+00	0	46	0	679477248	30	13887
2026-01-27 20:54:24.08	223.81	10.60	-29.0	-28.8	17.7	1.90e-06	0	46	0	998244352	29	14247
2026-01-27 20:54:27.01	224.31	10.82	-28.8	-28.7	17.7	0.00e+00	0	46	0	1325400064	29	13994
2026-01-27 20:54:29.91	224.82	11.05	-28.7	-28.6	17.7	0.00e+00	0	46	0	1652555776	29	13850
2026-01-27 20:54:32.82	225.33	11.27	-28.5	-28.3	18.0	0.00e+00	0	46	0	1979711488	28	14252
2026-01-27 20:54:35.74	225.86	11.50	-28.5	-28.3	18.0	0.00e+00	0	46	0	2315255808	28	14269
2026-01-27 20:54:38.65	226.39	11.72	-28.5	-28.3	17.9	0.00e+00	0	46	0	2642411520	28	14217
2026-01-27 20:54:41.56	226.93	11.95	-28.4	-28.2	18.1	0.00e+00	0	46	0	2969567232	28	14074
2026-01-27 20:54:44.47	227.48	12.18	-28.4	-28.3	18.1	0.00e+00	0	46	0	3296722944	28	14136
2026-01-27 20:54:47.38	228.05	12.41	-28.1	-28.0	18.2	0.00e+00	0	46	0	3623878656	28	13680
2026-01-27 20:54:50.30	228.62	12.64	-28.2	-28.0	18.2	0.00e+00	0	46	0	3951034368	28	13767
2026-01-27 20:54:53.21	229.20	12.87	-28.0	-27.9	18.1	0.00e+00	0	46	0	4278190080	28	13485
2026-01-27 20:54:56.13	229.79	13.10	-28.1	-27.9	18.3	0.00e+00	0	46	0	4605345792	27	14398
2026-01-27 20:54:59.04	230.40	13.33	-27.9	-27.8	18.2	0.00e+00	0	46	0	4940890112	27	14172
2026-01-27 20:55:01.95	231.01	13.56	-27.9	-27.7	18.1	0.00e+00	0	46	0	5268045824	27	14060
2026-01-27 20:55:04.86	231.63	13.79	-27.8	-27.6	18.3	0.00e+00	0	46	0	5595201536	27	13899
2026-01-27 20:55:07.78	232.27	14.02	-27.8	-27.6	18.0	0.00e+00	0	46	0	5913968640	27	13870
2026-01-27 20:55:10.69	232.92	14.25	-27.8	-27.6	18.1	0.00e+00	0	46	0	6241124352	27	13876
2026-01-27 20:55:13.60	233.57	14.48	-27.6	-27.4	18.2	3.80e-06	0	46	0	6568280064	27	13556
2026-01-27 20:55:16.51	234.24	14.70	-27.4	-27.3	18.2	0.00e+00	0	46	0	6895435776	26	14130
2026-01-27 20:55:19.43	234.93	14.93	-27.4	-27.2	18.1	0.00e+00	0	46	0	7222591488	26	14078
2026-01-27 20:55:22.34	235.62	15.16	-27.3	-27.1	18.2	0.00e+00	0	46	0	7558135808	26	13949
2026-01-27 20:55:25.25	236.32	15.39	-27.2	-27.0	18.2	0.00e+00	0	46	0	7885291520	26	13716
2026-01-27 20:55:28.16	237.04	15.61	-27.2	-27.0	18.2	0.00e+00	0	46	0	8212447232	26	13754
2026-01-27 20:55:31.08	237.77	15.83	-27.2	-27.0	18.1	0.00e+00	0	47	0	8539602944	26	13721
2026-01-27 20:55:33.98	238.51	16.06	-27.2	-27.1	18.3	0.00e+00	0	46	0	8866758656	26	13827
2026-01-27 20:55:36.90	239.26	16.28	-27.1	-27.0	18.1	0.00e+00	0	46	0	9193914368	26	13672
2026-01-27 20:55:39.81	240.03	16.49	-26.9	-26.8	18.2	0.00e+00	0	46	0	9521070080	25	14158
2026-01-27 20:55:42.73	240.81	16.71	-27.0	-26.9	18.2	0.00e+00	0	46	0	9848225792	25	14321
2026-01-27 20:55:45.63	241.59	16.92	-27.1	-26.9	17.9	1.90e-06	0	46	0	10183770112	25	14409
2026-01-27 20:55:48.54	242.39	17.14	-27.0	-26.8	18.1	0.00e+00	0	46	0	10510925824	25	14191
2026-01-27 20:55:51.46	243.21	17.34	-26.8	-26.7	18.1	0.00e+00	0	46	0	10838081536	25	13983
2026-01-27 20:55:54.37	244.04	17.55	-26.8	-26.6	18.1	0.00e+00	0	46	0	11156848640	25	13924
2026-01-27 20:55:57.28	244.88	17.75	-26.7	-26.5	17.9	0.00e+00	0	46	0	11484004352	25	13728
2026-01-27 20:56:00.18	245.72	17.95	-26.6	-26.4	17.5	0.00e+00	0	46	0	11811160064	25	13588
2026-01-27 20:56:03.09	246.59	18.14	-26.6	-26.5	17.5	0.00e+00	0	46	0	12138315776	25	13661
2026-01-27 20:56:06.00	247.46	18.34	-26.5	-26.4	17.3	0.00e+00	0	46	0	12465471488	24	14292
2026-01-27 20:56:08.92	248.35	18.52	-26.5	-26.3	17.3	0.00e+00	0	46	0	12792627200	24	14228
2026-01-27 20:56:11.83	249.25	18.70	-26.3	-26.1	17.3	0.00e+00	0	46	0	13119782912	24	13899
2026-01-27 20:56:14.75	250.17	18.88	-26.2	-26.0	17.1	0.00e+00	0	46	0	13455327232	24	13758
2026-01-27 20:56:17.66	251.09	19.05	-26.2	-26.1	16.8	1.90e-06	0	47	0	13782482944	24	13816
2026-01-27 20:56:20.56	252.02	19.22	-26.1	-25.9	17.0	1.90e-06	0	46	0	14109638656	24	13547
2026-01-27 20:56:23.47	252.97	19.38	-26.1	-26.0	16.7	0.00e+00	0	46	0	14436794368	24	13641
2026-01-27 20:56:26.39	253.93	19.54	-26.1	-25.9	16.9	0.00e+00	0	46	0	14763950080	24	13628
2026-01-27 20:56:29.30	254.89	19.69	-26.0	-25.9	17.0	0.00e+00	0	46	0	15082717184	23	14309
2026-01-27 20:56:32.21	255.87	19.83	-25.9	-25.8	17.2	0.00e+00	0	47	0	15409872896	23	14113
2026-01-27 20:56:35.12	256.86	19.96	-25.9	-25.8	17.0	0.00e+00	0	46	0	15737028608	23	14118
2026-01-27 20:56:38.04	257.86	20.09	-25.9	-25.7	17.1	0.00e+00	0	47	0	16072572928	23	14091
2026-01-27 20:56:40.96	258.86	20.22	-25.9	-25.7	17.3	0.00e+00	0	46	0	16399728640	23	14045
2026-01-27 20:56:43.87	259.88	20.33	-26.0	-25.8	17.6	0.00e+00	0	46	0	16726884352	23	14205
2026-01-27 20:56:46.78	260.90	20.44	-25.8	-25.7	17.9	0.00e+00	0	46	0	17054040064	23	13979
2026-01-27 20:56:49.70	261.93	20.53	-25.8	-25.6	17.9	0.00e+00	0	46	0	17381195776	23	13931
2026-01-27 20:56:52.62	262.97	20.63	-25.9	-25.7	17.8	0.00e+00	0	46	0	17708351488	23	14012
2026-01-27 20:56:55.53	264.01	20.71	-25.9	-25.7	17.9	0.00e+00	0	47	0	18035507200	23	14101
2026-01-27 20:56:58.44	265.05	20.78	-26.0	-25.8	18.0	0.00e+00	0	47	0	18371051520	23	14171
2026-01-27 20:57:01.36	266.11	20.85	-26.1	-25.9	18.4	0.00e+00	0	47	0	18698207232	23	14326
2026-01-27 20:57:04.28	267.17	20.90	-26.1	-25.9	18.5	0.00e+00	0	47	0	19025362944	23	14358
2026-01-27 20:57:07.19	268.23	20.95	-26.2	-26.0	18.8	0.00e+00	0	47	0	19352518656	23	14528
2026-01-27 20:57:10.10	269.29	20.99	-26.1	-25.9	18.8	0.00e+00	0	47	0	19679674368	23	14428
2026-01-27 20:57:13.02	270.36	21.02	-26.2	-26.0	18.9	0.00e+00	0	47	0	20006830080	23	14522
2026-01-27 20:57:15.93	271.43	21.04	-26.3	-26.1	19.0	0.00e+00	0	46	0	20325597184	23	14735
2026-01-27 20:57:18.85	272.50	21.05	-26.2	-26.0	19.2	0.00e+00	0	46	0	20669530112	23	14488
2026-01-27 20:57:21.76	273.57	21.05	-26.3	-26.1	19.5	0.00e+00	0	46	0	20996685824	23	14668
2026-01-27 20:57:24.67	274.64	21.04	-26.1	-25.9	19.6	0.00e+00	0	46	0	21315452928	23	14433
2026-01-27 20:57:27.58	275.71	21.02	-26.3	-26.1	19.6	0.00e+00	0	47	0	21642608640	23	14682
2026-01-27 20:57:30.50	276.77	21.00	-26.3	-26.1	19.7	0.00e+00	0	47	0	21969764352	23	14704
2026-01-27 20:57:33.41	277.84	20.96	-26.4	-26.2	19.7	0.00e+00	0	47	0	22296920064	23	14923
2026-01-27 20:57:36.32	278.90	20.92	-26.4	-26.2	19.8	0.00e+00	0	47	0	22624075776	23	14923
2026-01-27 20:57:39.23	279.95	20.86	-26.5	-26.3	20.0	0.00e+00	0	47	0	22951231488	23	15008
2026-01-27 20:57:42.14	281.01	20.80	-26.7	-26.5	19.8	0.00e+00	0	47	0	23286775808	24	14590
2026-01-27 20:57:45.05	282.05	20.73	-26.5	-26.4	19.9	0.00e+00	0	47	0	23613931520	24	14330
2026-01-27 20:57:47.96	283.09	20.65	-26.6	-26.5	19.8	0.00e+00	0	47	0	23941087232	24	14462
2026-01-27 20:57:50.87	284.13	20.56	-26.8	-26.6	19.6	0.00e+00	0	47	0	24268242944	24	14669
2026-01-27 20:57:53.79	285.16	20.47	-26.7	-26.6	19.7	0.00e+00	0	47	0	24595398656	24	14615
2026-01-27 20:57:56.70	286.18	20.36	-26.7	-26.6	19.6	0.00e+00	0	47	0	24922554368	24	14652
2026-01-27 20:57:59.62	287.20	20.25	-26.8	-26.6	19.6	0.00e+00	0	46	0	25241321472	24	14710
2026-01-27 20:58:02.53	288.20	20.13	-26.9	-26.7	19.5	0.00e+00	0	47	0	25585254400	24	14840
2026-01-27 20:58:05.44	289.19	20.01	-26.9	-26.8	19.4	0.00e+00	0	47	0	25912410112	24	14995
2026-01-27 20:58:08.35	290.18	19.87	-27.0	-26.8	19.4	0.00e+00	0	47	0	26239565824	24	15120
2026-01-27 20:58:11.26	291.16	19.73	-27.1	-26.9	19.4	0.00e+00	0	47	0	26558332928	25	14430
2026-01-27 20:58:14.18	292.13	19.59	-27.1	-26.9	19.5	0.00e+00	0	47	0	26885488640	25	14338
2026-01-27 20:58:17.10	293.09	19.43	-27.2	-27.0	19.3	0.00e+00	0	47	0	27212644352	25	14554
2026-01-27 20:58:20.01	294.03	19.27	-27.3	-27.1	19.1	0.00e+00	0	47	0	27539800064	25	14774
2026-01-27 20:58:22.92	294.96	19.11	-27.2	-27.0	19.2	0.00e+00	0	47	0	27866955776	25	14557
2026-01-27 20:58:25.84	295.89	18.94	-27.2	-27.1	19.3	0.00e+00	0	47	0	28202500096	25	14610
2026-01-27 20:58:28.75	296.80	18.77	-27.3	-27.2	19.3	0.00e+00	0	47	0	28529655808	25	14806
2026-01-27 20:58:31.67	297.70	18.59	-27.3	-27.1	19.2	0.00e+00	0	47	0	28856811520	25	14774
2026-01-27 20:58:34.58	298.59	18.40	-27.4	-27.2	19.4	0.00e+00	0	47	0	29183967232	25	14939
2026-01-27 20:58:37.49	299.47	18.21	-27.4	-27.2	19.4	0.00e+00	0	47	0	29511122944	25	14906
2026-01-27 20:58:40.41	300.33	18.02	-27.5	-27.3	19.3	0.00e+00	0	47	0	29838278656	25	15065
2026-01-27 20:58:43.32	301.18	17.82	-27.5	-27.4	19.4	0.00e+00	0	46	0	30165434368	25	15153
2026-01-27 20:58:46.25	302.03	17.62	-27.6	-27.5	19.4	0.00e+00	0	47	0	30500978688	26	14476
2026-01-27 20:58:49.16	302.85	17.42	-27.6	-27.4	19.2	0.00e+00	0	47	0	30828134400	26	14395
2026-01-27 20:58:52.07	303.67	17.21	-27.8	-27.6	19.0	0.00e+00	0	47	0	31155290112	26	14733
2026-01-27 20:58:54.99	304.47	17.00	-27.8	-27.6	18.8	0.00e+00	0	47	0	31474057216	26	14768
2026-01-27 20:58:57.89	305.26	16.79	-27.9	-27.7	18.6	0.00e+00	0	47	0	31801212928	26	14946
2026-01-27 20:59:00.81	306.04	16.58	-27.9	-27.8	18.1	0.00e+00	0	47	0	32128368640	26	14986
2026-01-27 20:59:03.72	306.80	16.36	-27.9	-27.8	17.7	1.90e-06	0	47	0	32455524352	26	14981
2026-01-27 20:59:06.64	307.56	16.14	-28.1	-27.9	17.6	0.00e+00	0	47	0	32791068672	26	15280
2026-01-27 20:59:09.55	308.30	15.92	-28.1	-28.0	17.9	0.00e+00	0	47	0	33118224384	27	14494
2026-01-27 20:59:12.48	309.03	15.70	-28.4	-28.2	17.8	3.80e-06	0	47	0	33445380096	27	14928
2026-01-27 20:59:15.40	309.75	15.48	-28.3	-28.1	17.9	0.00e+00	0	46	0	33772535808	27	14742
2026-01-27 20:59:18.32	310.45	15.25	-28.4	-28.2	18.2	0.00e+00	0	47	0	34099691520	27	14947
2026-01-27 20:59:21.24	311.15	15.03	-28.7	-28.5	18.1	0.00e+00	0	47	0	34435235840	27	15404
2026-01-27 20:59:24.15	311.83	14.80	-28.6	-28.4	18.1	0.00e+00	0	47	0	34762391552	27	15253
2026-01-27 20:59:27.07	312.50	14.58	-28.8	-28.7	18.2	0.00e+00	0	47	0	35089547264	28	14778
2026-01-27 20:59:29.98	313.16	14.35	-28.7	-28.5	18.2	0.00e+00	0	47	0	35416702976	28	14598
2026-01-27 20:59:32.90	313.80	14.12	-28.9	-28.7	17.9	0.00e+00	0	47	0	35743858688	28	14868
2026-01-27 20:59:35.81	314.44	13.89	-28.9	-28.7	18.0	0.00e+00	0	47	0	36071014400	28	14930
2026-01-27 20:59:38.73	315.07	13.66	-29.1	-28.9	18.0	1.90e-06	0	47	0	36398170112	28	15276
2026-01-27 20:59:41.65	315.68	13.44	-29.2	-29.0	17.9	0.00e+00	0	47	0	36733714432	29	14514
2026-01-27 20:59:44.57	316.28	13.21	-29.2	-29.0	17.9	0.00e+00	0	47	0	37060870144	29	14533
2026-01-27 20:59:47.49	316.88	12.98	-54.0	-56.1	6.2	0.00e+00	0	46	104	37077647360	78	19595
2026-01-27 20:59:50.40	317.46	12.75	-54.0	-56.2	6.2	0.00e+00	0	46	104	37077647360	78	19725
2026-01-27 20:59:53.32	318.03	12.52	-54.0	-56.1	6.2	0.00e+00	0	46	104	37077647360	78	19633
2026-01-27 20:59:56.24	318.60	12.30	-53.9	-56.0	6.2	0.00e+00	0	46	104	37077647360	78	19387
2026-01-27 20:59:59.15	319.15	12.07	-53.8	-55.9	6.2	0.00e+00	0	47	104	37077647360	78	19172
2026-01-27 21:00:02.06	319.69	11.84	-53.9	-55.9	6.2	0.00e+00	0	46	104	37077647360	78	19218
2026-01-27 21:00:04.98	320.23	11.62	-53.9	-55.9	6.2	0.00e+00	0	46	104	37077647360	78	19255
2026-01-27 21:00:07.89	320.75	11.39	-53.8	-55.9	6.2	0.00e+00	0	46	104	37077647360	78	19124
2026-01-27 21:00:10.82	321.27	11.17	-53.7	-55.8	6.2	0.00e+00	0	46	104	37077647360	78	18860
2026-01-27 21:00:13.73	321.77	10.94	-53.7	-55.8	6.2	0.00e+00	0	46	104	37077647360	78	18941
2026-01-27 21:00:16.64	322.27	10.72	-53.8	-55.8	6.2	0.00e+00	0	46	104	37077647360	78	19007
2026-01-27 21:00:19.55	322.76	10.50	-53.7	-55.7	6.2	0.00e+00	0	46	104	37077647360	78	18807
2026-01-27 21:00:22.46	323.24	10.28	-53.6	-55.7	6.2	0.00e+00	0	46	104	37077647360	78	18780
2026-01-27 21:00:25.37	323.71	10.06	-53.6	-55.7	6.2	0.00e+00	0	46	104	37077647360	78	18687
2026-01-27 21:00:28.29	324.18	9.84	-53.6	-55.6	6.2	0.00e+00	0	46	104	37077647360	78	18593
2026-01-27 21:00:31.20	324.63	9.63	-53.5	-55.6	6.2	0.00e+00	0	46	104	37077647360	78	18429
2026-01-27 21:00:34.11	325.08	9.41	-53.5	-55.6	6.2	0.00e+00	0	46	104	37077647360	78	18479
2026-01-27 21:00:37.02	325.52	9.19	-53.5	-55.6	6.2	0.00e+00	0	46	104	37077647360	78	18514
2026-01-27 21:00:39.93	325.95	8.98	-53.4	-55.5	6.2	0.00e+00	0	46	104	37077647360	78	18246
2026-01-27 21:00:42.85	326.38	8.77	-53.3	-55.4	6.2	0.00e+00	0	46	104	37077647360	78	18153
2026-01-27 21:00:45.78	326.80	8.55	-53.3	-55.4	6.2	0.00e+00	0	46	104	37077647360	78	18021
2026-01-27 21:00:48.70	327.22	8.34	-53.3	-55.4	6.2	0.00e+00	0	46	104	37077647360	78	18088
2026-01-27 21:00:51.62	327.62	8.13	-53.2	-55.3	6.2	0.00e+00	0	46	104	37077647360	78	17948
2026-01-27 21:00:54.54	328.02	7.92	-53.3	-55.3	6.2	0.00e+00	0	46	104	37077647360	78	17958
2026-01-27 21:00:57.47	328.42	7.71	-53.2	-55.3	6.2	0.00e+00	0	46	104	37077647360	78	17808
2026-01-27 21:01:00.40	328.80	7.50	-53.2	-55.3	6.2	0.00e+00	0	46	104	37077647360	78	17861
2026-01-27 21:01:03.32	329.18	7.30	-53.1	-55.2	6.2	0.00e+00	0	46	104	37077647360	78	17727
2026-01-27 21:01:06.24	329.56	7.09	-53.1	-55.2	6.2	0.00e+00	0	46	104	37077647360	78	17737
2026-01-27 21:01:09.18	329.93	6.89	-53.2	-55.3	6.2	0.00e+00	0	46	104	37077647360	78	17773
2026-01-27 21:01:12.11	330.29	6.69	-53.1	-55.2	6.2	0.00e+00	0	46	104	37077647360	78	17580
2026-01-27 21:01:15.03	330.65	6.48	-53.1	-55.2	6.2	0.00e+00	0	46	104	37077647360	78	17646
2026-01-27 21:01:17.96	331.00	6.28	-53.0	-55.1	6.2	0.00e+00	0	46	104	37077647360	78	17474
2026-01-27 21:01:20.92	331.35	6.08	-53.1	-55.1	6.2	0.00e+00	0	46	104	37077647360	77	18570
2026-01-27 21:01:23.86	331.70	5.88	-52.9	-54.9	6.2	0.00e+00	0	46	104	37077647360	77	18178
2026-01-27 21:01:26.81	332.03	5.68	-52.9	-55.0	6.2	0.00e+00	0	46	104	37077647360	77	18221
2026-01-27 21:01:29.75	332.37	5.49	-52.8	-54.9	6.2	0.00e+00	0	46	104	37077647360	77	18122
2026-01-27 21:01:32.69	332.69	5.29	-52.9	-55.0	6.2	0.00e+00	0	46	104	37077647360	77	18296
2026-01-27 21:01:35.64	333.01	5.10	-52.7	-54.8	6.2	0.00e+00	0	46	104	37077647360	77	17859
2026-01-27 21:01:38.58	333.33	4.91	-53.5	-55.6	6.2	0.00e+00	0	46	104	37077647360	77	19529
2026-01-27 21:01:41.51	333.64	4.71	-54.4	-56.5	6.2	0.00e+00	0	46	104	37077647360	79	19464
2026-01-27 21:01:44.45	333.95	4.52	-54.8	-56.8	6.2	0.00e+00	0	46	104	37077647360	80	19001
2026-01-27 21:01:47.39	334.25	4.33	-55.0	-57.1	6.2	0.00e+00	0	46	104	37077647360	80	19498
2026-01-27 21:01:50.34	334.55	4.14	-55.0	-57.1	6.2	0.00e+00	0	46	104	37077647360	80	19563
2026-01-27 21:01:53.29	334.85	3.96	-55.0	-57.1	6.2	0.00e+00	0	46	104	37077647360	80	19571
2026-01-27 21:01:56.25	335.14	3.77	-55.0	-57.1	6.2	0.00e+00	0	46	104	37077647360	80	19601
2026-01-27 21:01:59.20	335.42	3.58	-55.0	-57.1	6.2	0.00e+00	0	46	104	37077647360	80	19564
2026-01-27 21:02:02.17	335.71	3.40	-55.0	-57.0	6.2	0.00e+00	0	46	104	37077647360	80	19452
2026-01-27 21:02:05.13	335.99	3.21	-54.9	-57.0	6.2	0.00e+00	0	46	104	37077647360	80	19346
2026-01-27 21:02:08.11	336.26	3.03	-54.9	-57.0	6.2	0.00e+00	0	46	104	37077647360	80	19382
2026-01-27 21:02:11.10	336.54	2.84	-54.9	-57.0	6.2	0.00e+00	0	46	104	37077647360	80	19305
2026-01-27 21:02:14.11	336.81	2.66	-54.9	-57.0	6.2	0.00e+00	0	46	104	37077647360	80	19294
2026-01-27 21:02:17.11	337.08	2.48	-54.9	-56.9	6.2	0.00e+00	0	46	104	37077647360	80	19245
2026-01-27 21:02:20.10	337.34	2.30	-54.9	-56.9	6.2	0.00e+00	0	46	104	37077647360	80	19250
2026-01-27 21:02:23.10	337.60	2.12	-54.8	-56.9	6.2	0.00e+00	0	46	104	37077647360	80	19218
2026-01-27 21:02:26.09	337.85	1.94	-54.8	-56.9	6.2	0.00e+00	0	46	104	37077647360	80	19249

#Closed at: 2026-01-27 21:02:26
#Recorded file [37077 MB]: D:/lorett/data/31041_260127_235218.dat