passes_logs/2026/01/27/R3.2S_Murmansk/R3.2S_Murmansk__20260127_194058_TY-42_rec.log

#Pass ID: 20260127_194058_TY-42
#Satellite: TY-42
#Configuration: TY-42_900M
#almurnet v.1.7.20251203
#Start time: 2026-01-27 19:40:58

#Version: 2.2.20231116
#Station: R3.2S_Murmansk
#Location: 33.079688 lon 68.888172 lat
#TLE: 1 64048U 25103A   26027.24398148  .00008010  00000-0  38191-3 0 09993
#TLE: 2 64048 097.4117 102.4316 0001655 092.8662 047.1811 15.19167201 38679

#Time	Az	El	Level	Level2	SNR	BER	BlckErr	Temp	State	Recorded	gain1	gain2
2026-01-27 19:40:58.25	181.57	1.96	-54.3	-56.5	6.3	0.00e+00	0	49	0	0	79	19334
2026-01-27 19:41:01.26	181.71	2.17	-54.4	-56.6	6.2	0.00e+00	0	49	104	0	80	18466
2026-01-27 19:41:04.29	181.85	2.38	-54.5	-56.6	6.2	0.00e+00	0	49	104	0	80	18519
2026-01-27 19:41:07.31	182.00	2.59	-54.4	-56.5	6.2	0.00e+00	0	50	104	0	80	18379
2026-01-27 19:41:10.33	182.14	2.80	-54.3	-56.4	6.2	0.00e+00	0	50	104	0	80	18162
2026-01-27 19:41:13.36	182.29	3.01	-54.2	-56.3	6.2	0.00e+00	0	50	104	0	80	17900
2026-01-27 19:41:16.38	182.44	3.23	-54.0	-56.1	6.2	0.00e+00	0	50	104	0	80	17526
2026-01-27 19:41:19.40	182.60	3.44	-53.8	-55.9	6.2	0.00e+00	0	50	104	0	79	18145
2026-01-27 19:41:22.42	182.75	3.66	-53.2	-55.3	6.2	0.00e+00	0	51	104	0	78	17944
2026-01-27 19:41:25.45	182.91	3.88	-52.8	-54.9	6.2	0.00e+00	0	50	104	0	77	18053
2026-01-27 19:41:28.47	183.08	4.11	-52.8	-54.9	6.2	0.00e+00	0	51	104	0	77	18023
2026-01-27 19:41:31.49	183.24	4.33	-52.7	-54.9	6.2	0.00e+00	0	51	104	0	77	18009
2026-01-27 19:41:34.52	183.41	4.56	-52.7	-54.9	6.2	0.00e+00	0	51	104	0	77	17989
2026-01-27 19:41:37.55	183.58	4.80	-52.7	-54.8	6.2	0.00e+00	0	51	104	0	77	17956
2026-01-27 19:41:40.57	183.76	5.03	-52.7	-54.8	6.2	0.00e+00	0	51	104	0	77	17924
2026-01-27 19:41:43.59	183.94	5.27	-52.7	-54.9	6.2	0.00e+00	0	51	104	0	77	17982
2026-01-27 19:41:46.61	184.12	5.50	-40.6	-40.5	12.4	0.00e+00	0	53	0	8388608	51	15435
2026-01-27 19:41:49.63	184.30	5.75	-40.0	-39.9	12.6	0.00e+00	6653	54	104	159383552	52	13545
2026-01-27 19:41:52.66	184.49	5.99	-38.1	-38.0	13.9	7.08e-02	0	54	0	511705088	48	13726
2026-01-27 19:41:55.68	184.69	6.24	-36.8	-36.8	13.7	4.00e-02	0	54	0	847249408	45	14136
2026-01-27 19:41:58.70	184.88	6.49	-36.2	-36.2	14.0	3.43e-02	0	54	0	1182793728	44	13955
2026-01-27 19:42:01.72	185.08	6.74	-36.2	-36.2	13.9	2.65e-02	0	55	0	1518338048	44	13951
2026-01-27 19:42:04.73	185.29	7.00	-36.1	-36.1	14.0	2.55e-02	0	55	0	1862270976	44	13800
2026-01-27 19:42:07.75	185.50	7.26	-36.0	-35.9	14.2	2.29e-02	0	55	0	2206203904	43	14340
2026-01-27 19:42:10.78	185.71	7.52	-36.0	-35.9	14.1	1.97e-02	0	55	0	2541748224	43	14378
2026-01-27 19:42:13.80	185.93	7.79	-35.7	-35.6	14.3	1.94e-02	0	55	0	2885681152	43	13916
2026-01-27 19:42:16.81	186.15	8.05	-35.6	-35.5	14.4	1.74e-02	0	55	0	3221225472	43	13685
2026-01-27 19:42:19.83	186.38	8.33	-35.4	-35.3	14.4	1.63e-02	0	55	0	3556769792	42	14268
2026-01-27 19:42:22.85	186.61	8.60	-35.3	-35.2	14.6	1.50e-02	0	55	0	3892314112	42	14002
2026-01-27 19:42:25.87	186.85	8.88	-35.0	-34.9	14.7	1.04e-02	0	55	0	4244635648	41	14353
2026-01-27 19:42:28.89	187.10	9.17	-34.9	-34.8	14.7	1.09e-02	0	56	0	4580179968	41	14217
2026-01-27 19:42:31.91	187.35	9.46	-34.7	-34.6	14.8	9.84e-03	0	56	0	4915724288	41	13851
2026-01-27 19:42:34.93	187.60	9.75	-34.7	-34.6	14.9	7.74e-03	0	56	0	5259657216	41	13840
2026-01-27 19:42:37.96	187.86	10.05	-34.4	-34.3	15.0	7.26e-03	0	56	0	5603590144	40	14184
2026-01-27 19:42:40.98	188.13	10.35	-34.2	-34.1	15.1	6.79e-03	0	56	0	5939134464	40	13919
2026-01-27 19:42:44.01	188.41	10.66	-34.2	-34.1	15.1	6.27e-03	0	56	0	6283067392	40	13839
2026-01-27 19:42:47.02	188.69	10.96	-34.1	-34.0	15.1	5.82e-03	0	56	0	6618611712	40	13655
2026-01-27 19:42:50.05	188.97	11.28	-34.1	-34.0	15.2	4.97e-03	0	56	0	6954156032	39	14461
2026-01-27 19:42:53.07	189.27	11.60	-33.8	-33.7	15.4	5.01e-03	0	57	0	7306477568	39	14109
2026-01-27 19:42:56.09	189.57	11.92	-33.8	-33.7	15.4	4.77e-03	0	57	0	7642021888	39	13968
2026-01-27 19:42:59.11	189.88	12.25	-33.5	-33.4	15.5	3.98e-03	0	57	0	7977566208	39	13542
2026-01-27 19:43:02.12	190.20	12.59	-33.3	-33.2	15.6	2.94e-03	0	57	0	8313110528	38	14036
2026-01-27 19:43:05.14	190.53	12.93	-33.2	-33.1	15.6	2.25e-03	0	57	0	8657043456	38	13836
2026-01-27 19:43:08.15	190.86	13.27	-33.2	-33.1	15.6	1.86e-03	0	57	0	8992587776	38	13819
2026-01-27 19:43:11.18	191.21	13.63	-32.9	-32.8	15.7	1.74e-03	0	57	0	9336520704	37	14218
2026-01-27 19:43:14.19	191.56	13.98	-32.8	-32.7	15.8	1.43e-03	0	57	0	9680453632	37	13971
2026-01-27 19:43:17.22	191.93	14.35	-32.7	-32.6	15.8	1.34e-03	0	57	0	10015997952	37	13861
2026-01-27 19:43:20.23	192.30	14.71	-32.6	-32.5	15.9	1.26e-03	0	57	0	10351542272	37	13654
2026-01-27 19:43:23.24	192.69	15.09	-32.4	-32.3	15.9	1.07e-03	0	57	0	10687086592	36	14246
2026-01-27 19:43:26.26	193.09	15.47	-32.4	-32.3	15.9	1.03e-03	0	57	0	11039408128	36	14232
2026-01-27 19:43:29.28	193.50	15.86	-32.2	-32.1	16.0	9.06e-04	0	57	0	11374952448	36	13878
2026-01-27 19:43:32.29	193.92	16.26	-32.1	-32.0	16.0	7.20e-04	0	57	0	11710496768	36	13664
2026-01-27 19:43:35.31	194.35	16.66	-29.6	-29.5	15.7	1.85e-03	0	57	0	12054429696	31	13723
2026-01-27 19:43:38.33	194.80	17.07	-29.6	-29.5	15.7	1.96e-03	0	58	0	12389974016	31	13678
2026-01-27 19:43:41.36	195.26	17.49	-29.1	-29.0	15.8	1.55e-03	0	57	0	12733906944	30	13646
2026-01-27 19:43:44.38	195.74	17.92	-28.8	-28.7	15.9	1.28e-03	0	57	0	13077839872	29	14012
2026-01-27 19:43:47.40	196.23	18.35	-28.8	-28.7	15.9	1.09e-03	0	58	0	13413384192	29	14051
2026-01-27 19:43:50.42	196.74	18.79	-28.6	-28.5	16.0	1.14e-03	0	58	0	13748928512	29	13737
2026-01-27 19:43:53.44	197.27	19.24	-28.4	-28.3	16.0	1.07e-03	0	58	0	14084472832	28	14264
2026-01-27 19:43:56.46	197.81	19.70	-28.2	-28.1	16.1	7.44e-04	0	58	0	14436794368	28	13835
2026-01-27 19:43:59.47	198.37	20.16	-28.1	-28.0	16.1	7.06e-04	0	58	0	14772338688	28	13705
2026-01-27 19:44:02.50	198.95	20.64	-28.0	-27.9	16.2	7.39e-04	0	58	0	15107883008	28	13570
2026-01-27 19:44:05.52	199.56	21.12	-28.0	-27.9	16.2	5.05e-04	0	58	0	15451815936	27	14336
2026-01-27 19:44:08.54	200.18	21.61	-27.7	-27.6	16.3	5.29e-04	0	58	0	15787360256	27	13820
2026-01-27 19:44:11.56	200.82	22.11	-27.6	-27.5	16.3	4.77e-04	0	58	0	16131293184	27	13707
2026-01-27 19:44:14.58	201.49	22.62	-27.5	-27.4	16.3	4.77e-04	0	58	0	16475226112	26	14293
2026-01-27 19:44:17.61	202.19	23.14	-27.2	-27.1	16.4	2.48e-04	0	58	0	16810770432	26	13904
2026-01-27 19:44:20.62	202.90	23.67	-27.2	-27.1	16.4	2.81e-04	0	58	0	17146314752	26	13800
2026-01-27 19:44:23.64	203.65	24.21	-26.7	-26.6	16.5	2.00e-04	0	58	0	17481859072	25	13891
2026-01-27 19:44:26.67	204.43	24.76	-26.6	-26.5	16.5	2.29e-04	0	58	0	17834180608	25	13709
2026-01-27 19:44:29.70	205.24	25.31	-26.2	-26.1	16.6	1.38e-04	0	58	0	18169724928	24	13897
2026-01-27 19:44:32.72	206.07	25.87	-26.2	-26.1	16.6	1.10e-04	0	58	0	18505269248	24	13902
2026-01-27 19:44:35.74	206.94	26.45	-26.0	-25.9	16.6	1.24e-04	0	58	0	18849202176	24	13608
2026-01-27 19:44:38.76	207.85	27.03	-25.8	-25.7	16.7	3.33e-05	0	58	0	19193135104	23	13990
2026-01-27 19:44:41.78	208.79	27.61	-25.4	-25.3	16.7	2.86e-05	0	58	0	19528679424	22	14120
2026-01-27 19:44:44.81	209.77	28.21	-25.4	-25.3	16.7	2.86e-05	0	58	0	19872612352	22	14142
2026-01-27 19:44:47.83	210.79	28.81	-24.9	-24.8	16.8	4.76e-05	0	58	0	20208156672	21	14188
2026-01-27 19:44:50.85	211.85	29.42	-24.7	-24.5	16.9	1.90e-05	0	58	0	20543700992	21	13784
2026-01-27 19:44:53.87	212.95	30.03	-24.3	-24.2	16.9	4.70e-06	0	58	0	20896022528	20	14067
2026-01-27 19:44:56.89	214.10	30.65	-24.2	-24.0	16.9	9.50e-06	0	58	0	21231566848	20	13783
2026-01-27 19:44:59.90	215.30	31.27	-24.1	-24.0	17.0	0.00e+00	0	58	0	21567111168	20	13654
2026-01-27 19:45:02.93	216.55	31.89	-23.9	-23.8	17.0	0.00e+00	0	58	0	21902655488	19	14205
2026-01-27 19:45:05.95	217.85	32.52	-23.8	-23.6	17.0	1.90e-05	0	58	0	22246588416	19	13945
2026-01-27 19:45:08.97	219.20	33.14	-23.5	-23.4	17.1	0.00e+00	0	58	0	22590521344	19	13540
2026-01-27 19:45:12.00	220.61	33.76	-23.3	-23.2	17.1	0.00e+00	0	58	0	22934454272	18	14048
2026-01-27 19:45:15.02	222.08	34.38	-23.3	-23.2	17.1	9.50e-06	0	58	0	23269998592	18	14025
2026-01-27 19:45:18.04	223.61	34.99	-23.3	-23.2	17.1	4.70e-06	0	58	0	23605542912	18	14063
2026-01-27 19:45:21.07	225.20	35.59	-23.2	-23.1	17.1	0.00e+00	0	58	0	23957864448	18	13907
2026-01-27 19:45:24.09	226.84	36.18	-23.0	-22.9	17.2	0.00e+00	0	58	0	24293408768	17	14288
2026-01-27 19:45:27.12	228.56	36.76	-22.8	-22.7	17.2	0.00e+00	0	58	0	24628953088	17	14080
2026-01-27 19:45:30.15	230.34	37.32	-22.5	-22.4	17.3	0.00e+00	0	58	0	24964497408	17	13569
2026-01-27 19:45:33.17	232.18	37.85	-22.4	-22.3	17.2	0.00e+00	0	58	0	25316818944	16	14164
2026-01-27 19:45:36.19	234.08	38.37	-22.3	-22.2	17.2	0.00e+00	0	58	0	25652363264	16	13993
2026-01-27 19:45:39.21	236.04	38.86	-22.5	-22.4	17.2	0.00e+00	0	58	0	25987907584	16	14327
2026-01-27 19:45:42.24	238.07	39.32	-22.1	-22.0	17.2	0.00e+00	0	58	0	26331840512	16	13738
2026-01-27 19:45:45.26	240.15	39.75	-21.9	-21.7	17.2	0.00e+00	0	58	0	26675773440	15	14083
2026-01-27 19:45:48.28	242.29	40.14	-21.6	-21.5	17.2	0.00e+00	0	58	0	27011317760	15	13726
2026-01-27 19:45:51.30	244.47	40.49	-21.5	-21.4	17.3	0.00e+00	0	58	0	27355250688	15	13506
2026-01-27 19:45:54.33	246.71	40.81	-21.4	-21.3	17.2	0.00e+00	0	58	0	27690795008	14	14194
2026-01-27 19:45:57.34	248.98	41.07	-21.5	-21.4	17.3	0.00e+00	0	58	0	28026339328	14	14280
2026-01-27 19:46:00.36	251.29	41.29	-21.6	-21.5	17.2	0.00e+00	0	58	0	28378660864	14	14463
2026-01-27 19:46:03.39	253.64	41.46	-21.4	-21.3	17.2	0.00e+00	0	58	0	28714205184	14	14215
2026-01-27 19:46:06.41	256.00	41.58	-21.6	-21.5	17.2	0.00e+00	0	58	0	29049749504	14	14499
2026-01-27 19:46:09.44	258.38	41.65	-21.6	-21.5	17.1	0.00e+00	0	58	0	29385293824	14	14481
2026-01-27 19:46:12.47	260.77	41.66	-21.5	-21.4	17.1	4.70e-06	0	58	0	29737615360	14	14346
2026-01-27 19:46:15.49	263.15	41.62	-21.6	-21.4	17.1	0.00e+00	0	58	0	30073159680	14	14429
2026-01-27 19:46:18.51	265.52	41.53	-21.6	-21.5	17.1	0.00e+00	0	58	0	30408704000	14	14460
2026-01-27 19:46:21.53	267.87	41.39	-21.5	-21.4	17.1	0.00e+00	0	58	0	30752636928	14	14326
2026-01-27 19:46:24.55	270.19	41.20	-21.6	-21.5	17.1	0.00e+00	0	58	0	31088181248	14	14550
2026-01-27 19:46:27.57	272.49	40.96	-21.6	-21.4	17.2	0.00e+00	0	58	0	31432114176	14	14439
2026-01-27 19:46:30.59	274.74	40.67	-21.8	-21.6	17.1	0.00e+00	0	58	0	31776047104	14	14759
2026-01-27 19:46:33.61	276.95	40.34	-21.8	-21.6	17.1	0.00e+00	0	58	0	32111591424	14	14775
2026-01-27 19:46:36.64	279.12	39.97	-21.9	-21.8	17.1	0.00e+00	0	58	0	32447135744	14	15047
2026-01-27 19:46:39.66	281.22	39.56	-22.1	-22.0	17.1	0.00e+00	0	58	0	32799457280	14	15335
2026-01-27 19:46:42.69	283.28	39.12	-22.3	-22.2	17.1	0.00e+00	0	58	0	33135001600	15	14787
2026-01-27 19:46:45.71	285.27	38.64	-22.4	-22.2	17.1	0.00e+00	0	58	0	33470545920	15	14935
2026-01-27 19:46:48.73	287.20	38.14	-22.4	-22.3	17.2	0.00e+00	0	58	0	33806090240	15	15050
2026-01-27 19:46:51.75	289.07	37.62	-22.5	-22.3	17.3	0.00e+00	0	58	0	34150023168	15	15103
2026-01-27 19:46:54.78	290.88	37.07	-22.6	-22.5	17.3	0.00e+00	0	58	0	34493956096	15	15302
2026-01-27 19:46:57.80	292.62	36.51	-22.6	-22.5	17.4	0.00e+00	0	58	0	34829500416	15	15414
2026-01-27 19:47:00.82	294.30	35.93	-22.9	-22.8	17.4	0.00e+00	0	58	0	35173433344	16	14979
2026-01-27 19:47:03.84	295.91	35.33	-23.0	-22.9	17.4	0.00e+00	0	58	0	35508977664	16	15203
2026-01-27 19:47:06.86	297.46	34.73	-23.3	-23.2	17.3	0.00e+00	0	58	0	35852910592	17	14884
2026-01-27 19:47:09.89	298.96	34.12	-23.5	-23.4	17.3	0.00e+00	0	58	0	36196843520	17	15139
2026-01-27 19:47:12.91	300.40	33.50	-23.5	-23.4	17.3	0.00e+00	0	58	0	36532387840	17	15177
2026-01-27 19:47:15.93	301.78	32.88	-23.9	-23.8	17.2	4.70e-06	0	58	0	36867932160	18	14994
2026-01-27 19:47:18.96	303.11	32.26	-23.8	-23.7	17.2	0.00e+00	0	58	0	37220253696	18	14860
2026-01-27 19:47:21.98	304.38	31.64	-23.9	-23.8	17.2	9.50e-06	0	58	0	37555798016	18	14976
2026-01-27 19:47:25.00	305.60	31.02	-24.1	-24.0	17.1	0.00e+00	0	58	0	37891342336	18	15326
2026-01-27 19:47:28.03	306.78	30.40	-24.1	-24.0	17.1	0.00e+00	0	58	0	38226886656	18	15395
2026-01-27 19:47:31.05	307.90	29.79	-24.4	-24.3	17.0	4.70e-06	0	58	0	38570819584	19	15097
2026-01-27 19:47:34.07	308.99	29.19	-24.6	-24.5	17.0	0.00e+00	0	58	0	38914752512	20	14466
2026-01-27 19:47:37.08	310.02	28.59	-24.8	-24.7	16.9	9.50e-06	0	58	0	39250296832	20	14811
2026-01-27 19:47:40.11	311.02	27.99	-25.0	-24.9	16.9	0.00e+00	0	58	0	39594229760	20	15183
2026-01-27 19:47:43.13	311.98	27.40	-25.1	-25.0	16.8	1.90e-05	0	58	0	39929774080	20	15321
2026-01-27 19:47:46.15	312.90	26.82	-25.2	-25.1	16.8	2.38e-05	0	58	0	40265318400	21	14740
2026-01-27 19:47:49.17	313.79	26.25	-25.5	-25.3	16.8	1.90e-05	0	58	0	40617639936	21	15089
2026-01-27 19:47:52.20	314.64	25.68	-25.7	-25.6	16.7	1.90e-05	0	58	0	40953184256	21	15505
2026-01-27 19:47:55.22	315.46	25.12	-25.9	-25.8	16.7	7.62e-05	0	58	0	41288728576	22	14961
2026-01-27 19:47:58.23	316.25	24.58	-26.2	-26.1	16.6	5.72e-05	0	58	0	41624272896	22	15498
2026-01-27 19:48:01.26	317.01	24.03	-26.4	-26.2	16.6	1.62e-04	0	58	0	41976594432	23	14932
2026-01-27 19:48:04.28	317.75	23.50	-26.5	-26.4	16.5	1.19e-04	0	58	0	42312138752	23	15216
2026-01-27 19:48:07.31	318.46	22.98	-26.6	-26.5	16.5	1.81e-04	0	58	0	42647683072	23	15432
2026-01-27 19:48:10.33	319.14	22.47	-26.9	-26.8	16.5	1.81e-04	0	59	0	42991616000	24	14958
2026-01-27 19:48:13.36	319.80	21.96	-27.0	-26.9	16.4	2.19e-04	0	58	0	43335548928	24	15152
2026-01-27 19:48:16.38	320.43	21.47	-26.9	-26.8	16.4	1.72e-04	0	58	0	43671093248	24	15119
2026-01-27 19:48:19.39	321.04	20.99	-27.1	-27.0	16.4	2.38e-04	0	58	0	44015026176	24	15393
2026-01-27 19:48:22.42	321.63	20.51	-27.4	-27.3	16.4	2.72e-04	0	58	0	44350570496	25	15036
2026-01-27 19:48:25.44	322.20	20.04	-27.5	-27.4	16.3	3.62e-04	0	58	0	44686114816	25	15158
2026-01-27 19:48:28.47	322.76	19.58	-27.6	-27.5	16.3	4.86e-04	0	58	0	45038436352	25	15377
2026-01-27 19:48:31.49	323.29	19.13	-27.8	-27.7	16.2	4.77e-04	0	59	0	45373980672	26	14870
2026-01-27 19:48:34.52	323.81	18.68	-27.9	-27.8	16.2	4.96e-04	0	58	0	45709524992	26	15071
2026-01-27 19:48:37.55	324.31	18.24	-28.1	-28.0	16.2	5.72e-04	0	58	0	46045069312	26	15366
2026-01-27 19:48:40.58	324.80	17.81	-28.3	-28.2	16.1	7.72e-04	0	58	0	46397390848	27	14813
2026-01-27 19:48:43.60	325.27	17.39	-28.6	-28.5	16.0	1.06e-03	0	59	0	46732935168	27	15311
2026-01-27 19:48:46.63	325.73	16.98	-28.6	-28.5	16.0	2.95e-03	0	58	0	47068479488	28	14505
2026-01-27 19:48:49.65	326.17	16.57	-28.8	-28.7	16.0	3.71e-03	0	59	0	47412412416	28	14784
2026-01-27 19:48:52.68	326.60	16.17	-28.7	-28.6	16.0	3.56e-03	0	58	0	47756345344	28	14706
2026-01-27 19:48:55.69	327.01	15.78	-28.8	-28.7	15.9	3.96e-03	0	59	0	48100278272	28	14846
2026-01-27 19:48:58.71	327.42	15.40	-28.9	-28.8	15.9	3.94e-03	0	59	0	48435822592	28	15068
2026-01-27 19:49:01.73	327.81	15.02	-29.1	-29.0	15.8	4.38e-03	0	59	0	48771366912	28	15350
2026-01-27 19:49:04.76	328.19	14.65	-29.4	-29.3	15.7	5.25e-03	0	59	0	49123688448	29	14979
2026-01-27 19:49:07.77	328.56	14.28	-29.3	-29.2	15.8	5.78e-03	0	59	0	49459232768	29	14927
2026-01-27 19:49:10.79	328.92	13.93	-29.4	-29.3	15.7	6.33e-03	0	59	0	49794777088	29	15095
2026-01-27 19:49:13.81	329.27	13.57	-29.5	-29.4	15.6	6.79e-03	0	59	0	50130321408	29	15251
2026-01-27 19:49:16.83	329.62	13.22	-29.7	-29.6	15.5	7.55e-03	0	59	0	50465865728	30	14766
2026-01-27 19:49:19.86	329.95	12.88	-29.8	-29.7	15.5	8.71e-03	0	59	0	50818187264	30	14865
2026-01-27 19:49:22.88	330.27	12.55	-29.9	-29.9	15.4	9.78e-03	0	59	0	51153731584	30	15127
2026-01-27 19:49:25.90	330.59	12.21	-30.2	-30.2	15.3	1.11e-02	0	59	0	51497664512	31	14801
2026-01-27 19:49:28.93	330.90	11.89	-30.5	-30.4	15.2	1.25e-02	0	59	0	51833208832	31	15290
2026-01-27 19:49:31.96	331.20	11.57	-30.7	-30.6	15.1	1.41e-02	0	59	0	52177141760	31	15623
2026-01-27 19:49:34.98	331.49	11.25	-30.5	-30.4	15.2	1.51e-02	0	59	0	52521074688	32	14313
2026-01-27 19:49:38.00	331.78	10.94	-30.6	-30.6	15.1	1.56e-02	0	59	0	52856619008	32	14616
2026-01-27 19:49:41.02	332.05	10.63	-31.0	-31.0	14.9	1.82e-02	0	59	0	53192163328	32	15296
2026-01-27 19:49:44.04	332.33	10.33	-31.0	-30.9	14.9	2.01e-02	0	59	0	53527707648	32	15265
2026-01-27 19:49:47.07	332.59	10.03	-31.2	-31.1	14.8	2.10e-02	0	59	0	53880029184	32	15549
2026-01-27 19:49:50.09	332.85	9.74	-31.3	-31.2	14.7	2.27e-02	0	59	0	54215573504	33	14904
2026-01-27 19:49:53.11	333.11	9.45	-31.4	-31.3	14.7	2.50e-02	0	59	0	54551117824	33	15079
2026-01-27 19:49:56.13	333.35	9.16	-31.5	-31.5	14.6	2.64e-02	0	59	0	54895050752	33	15352
2026-01-27 19:49:59.15	333.60	8.88	-31.5	-31.5	14.6	2.97e-02	0	59	0	55230595072	34	14460
2026-01-27 19:50:02.17	333.83	8.60	-31.6	-31.6	14.5	3.12e-02	0	59	0	55574528000	34	14649
2026-01-27 19:50:05.20	334.06	8.33	-31.9	-31.8	14.4	3.28e-02	0	59	0	55918460928	34	15100
2026-01-27 19:50:08.23	334.29	8.06	-32.0	-31.9	14.4	3.63e-02	0	59	0	56254005248	34	15253
2026-01-27 19:50:11.25	334.51	7.79	-32.2	-32.1	14.3	3.71e-02	0	59	0	56597938176	35	14689
2026-01-27 19:50:14.28	334.73	7.52	-32.4	-32.4	14.1	3.80e-02	0	59	0	56941871104	35	15193
2026-01-27 19:50:17.30	334.94	7.26	-32.5	-32.4	14.1	4.06e-02	0	59	0	57277415424	35	15256
2026-01-27 19:50:20.32	335.15	7.01	-35.0	-35.0	14.7	4.63e-02	0	59	0	57612959744	40	15305
2026-01-27 19:50:23.35	335.36	6.75	-35.0	-35.0	14.7	2.83e-02	0	59	0	57948504064	41	14461
2026-01-27 19:50:26.37	335.56	6.50	-35.1	-35.0	14.6	2.46e-02	0	59	0	58300825600	41	14581
2026-01-27 19:50:29.40	335.75	6.25	-35.2	-35.2	14.6	2.57e-02	0	59	0	58636369920	41	14787
2026-01-27 19:50:32.42	335.95	6.01	-35.4	-35.4	14.4	2.74e-02	0	59	0	58971914240	41	15133
2026-01-27 19:50:35.44	336.14	5.77	-35.7	-35.7	14.3	2.96e-02	0	59	0	59315847168	42	14813
2026-01-27 19:50:38.46	336.32	5.53	-35.4	-35.4	14.4	3.25e-02	0	59	0	59659780096	42	14296
2026-01-27 19:50:41.49	336.50	5.29	-35.6	-35.5	14.3	3.24e-02	0	59	0	59995324416	42	14572
2026-01-27 19:50:44.51	336.68	5.06	-35.7	-35.7	14.2	3.63e-02	0	59	0	60339257344	42	14777
2026-01-27 19:50:47.53	336.86	4.82	-53.4	-55.6	6.2	5.84e-02	0	58	104	60473475072	77	19526
2026-01-27 19:50:50.55	337.03	4.59	-53.8	-56.0	6.2	0.00e+00	0	58	104	60473475072	78	19296
2026-01-27 19:50:53.58	337.20	4.37	-54.0	-56.1	6.2	0.00e+00	0	58	104	60473475072	78	19653
2026-01-27 19:50:56.61	337.36	4.14	-53.9	-56.1	6.2	0.00e+00	0	58	104	60473475072	78	19509
2026-01-27 19:50:59.64	337.53	3.92	-53.7	-55.8	6.2	0.00e+00	0	58	104	60473475072	78	19026
2026-01-27 19:51:02.67	337.69	3.70	-53.8	-56.0	6.2	0.00e+00	0	57	104	60473475072	78	19284
2026-01-27 19:51:05.69	337.84	3.48	-53.9	-56.0	6.2	0.00e+00	0	57	104	60473475072	78	19392
2026-01-27 19:51:08.71	338.00	3.27	-53.8	-55.9	6.2	0.00e+00	0	57	104	60473475072	78	19182
2026-01-27 19:51:11.73	338.15	3.05	-53.7	-55.9	6.2	0.00e+00	0	57	104	60473475072	78	19150
2026-01-27 19:51:14.76	338.30	2.84	-53.7	-55.8	6.2	0.00e+00	0	57	104	60473475072	78	18977
2026-01-27 19:51:17.79	338.45	2.63	-53.7	-55.8	6.2	0.00e+00	0	57	104	60473475072	78	19024
2026-01-27 19:51:20.81	338.59	2.42	-53.7	-55.8	6.2	0.00e+00	0	57	104	60473475072	78	18976
2026-01-27 19:51:23.82	338.74	2.22	-53.7	-55.8	6.2	0.00e+00	0	57	104	60473475072	78	18909
2026-01-27 19:51:26.84	338.88	2.01	-53.7	-55.8	6.2	0.00e+00	0	57	104	60473475072	78	18957

#Closed at: 2026-01-27 19:51:29
#Recorded file [60473 MB]: D:/lorett/data/31041_260127_224058.dat