passes_logs/2026/01/27/R3.2S_Murmansk/R3.2S_Murmansk__20260127_072429_SUOMI_NPP_rec.log

#Pass ID: 20260127_072429_SUOMI NPP
#Satellite: SUOMI NPP
#Configuration: NPP
#almurnet v.1.7.20251203
#Start time: 2026-01-27 07:24:28

#Version: 2.2.20231116
#Station: R3.2S_Murmansk
#Location: 33.079688 lon 68.888172 lat
#TLE: 1 37849U 11061A   26026.52266023  .00000173  00000+0  10323-3 0  9994
#TLE: 2 37849  98.7822 328.4727 0002140  43.9411 316.1934 14.19530258738341

#Time	Az	El	Level	Level2	SNR	BER	BlckErr	Temp	State	Recorded	gain1	gain2
2026-01-27 07:24:28.66	101.84	1.96	-54.2	-69.1	3.8	1.49e+00	0	41	0	0	78	21997
2026-01-27 07:24:32.69	101.66	2.21	-54.1	-69.1	3.8	1.49e+00	0	41	104	0	78	21926
2026-01-27 07:24:36.72	101.47	2.45	-54.2	-69.2	3.8	1.49e+00	0	41	104	0	79	20941
2026-01-27 07:24:40.75	101.28	2.70	-54.3	-69.3	3.8	1.49e+00	0	41	104	0	79	21102
2026-01-27 07:24:44.78	101.08	2.95	-54.2	-69.2	3.8	1.49e+00	0	41	104	0	79	20832
2026-01-27 07:24:48.81	100.89	3.20	-53.9	-68.9	3.8	1.49e+00	0	41	104	0	78	21444
2026-01-27 07:24:52.84	100.68	3.46	-53.6	-68.6	3.8	1.49e+00	0	41	104	0	78	20556
2026-01-27 07:24:56.87	100.48	3.71	-53.2	-68.2	3.8	1.49e+00	0	41	104	0	77	20863
2026-01-27 07:25:00.90	100.27	3.97	-52.9	-67.8	3.8	1.49e+00	0	41	104	0	77	19963
2026-01-27 07:25:04.93	100.05	4.23	-52.0	-63.0	4.4	1.47e+00	97	42	104	0	76	12174
2026-01-27 07:25:08.96	99.84	4.49	-51.1	-57.4	8.4	8.84e-02	0	42	0	7340032	74	7157
2026-01-27 07:25:12.98	99.61	4.76	-49.8	-53.6	12.5	1.26e-04	0	42	0	14680064	71	5517
2026-01-27 07:25:17.01	99.39	5.02	-49.6	-53.3	12.8	4.42e-05	0	42	0	22020096	70	5639
2026-01-27 07:25:21.03	99.16	5.29	-50.1	-53.9	12.5	2.75e-03	0	42	0	27262976	70	6050
2026-01-27 07:25:25.05	98.92	5.56	-48.1	-50.6	15.7	0.00e+00	0	42	0	34603008	68	4627
2026-01-27 07:25:29.08	98.68	5.84	-47.9	-50.2	16.0	0.00e+00	0	42	0	42991616	67	4672
2026-01-27 07:25:33.11	98.44	6.11	-47.7	-50.0	16.2	0.00e+00	0	42	0	50331648	67	4565
2026-01-27 07:25:37.14	98.19	6.39	-47.9	-50.2	16.1	0.00e+00	0	42	0	57671680	67	4667
2026-01-27 07:25:41.17	97.93	6.67	-47.8	-50.1	16.3	0.00e+00	0	42	0	65011712	67	4617
2026-01-27 07:25:45.20	97.67	6.95	-47.6	-49.8	16.5	0.00e+00	0	42	0	72351744	66	4713
2026-01-27 07:25:49.23	97.41	7.24	-47.4	-49.5	16.8	0.00e+00	0	42	0	80740352	66	4571
2026-01-27 07:25:53.26	97.13	7.53	-47.3	-49.3	17.0	0.00e+00	0	42	0	88080384	66	4467
2026-01-27 07:25:57.29	96.86	7.82	-46.9	-48.9	17.3	0.00e+00	0	42	0	95420416	65	4535
2026-01-27 07:26:01.32	96.58	8.11	-47.0	-49.1	17.1	0.00e+00	0	42	0	102760448	65	4629
2026-01-27 07:26:05.36	96.29	8.41	-46.9	-48.8	17.4	0.00e+00	0	42	0	110100480	65	4488
2026-01-27 07:26:09.39	95.99	8.71	-46.8	-48.7	17.6	0.00e+00	0	42	0	118489088	65	4438
2026-01-27 07:26:13.42	95.69	9.01	-46.9	-48.8	17.5	0.00e+00	0	42	0	125829120	65	4493
2026-01-27 07:26:17.44	95.38	9.31	-46.7	-48.7	17.7	0.00e+00	0	42	0	133169152	65	4400
2026-01-27 07:26:21.48	95.07	9.62	-46.7	-48.6	17.7	0.00e+00	0	42	0	140509184	64	4651
2026-01-27 07:26:25.51	94.75	9.93	-46.8	-48.8	17.6	0.00e+00	0	42	0	147849216	64	4736
2026-01-27 07:26:29.54	94.42	10.25	-46.7	-48.5	17.8	0.00e+00	0	42	0	156237824	64	4597
2026-01-27 07:26:33.57	94.08	10.56	-46.6	-48.5	17.9	0.00e+00	0	43	0	163577856	64	4573
2026-01-27 07:26:37.60	93.74	10.88	-46.9	-48.8	17.6	0.00e+00	0	42	0	170917888	64	4737
2026-01-27 07:26:41.63	93.38	11.21	-47.0	-48.9	17.6	0.00e+00	0	42	0	178257920	64	4794
2026-01-27 07:26:45.65	93.03	11.53	-46.7	-48.6	17.8	0.00e+00	0	42	0	185597952	64	4627
2026-01-27 07:26:49.68	92.66	11.86	-46.7	-48.5	18.0	0.00e+00	0	42	0	193986560	64	4575
2026-01-27 07:26:53.71	92.28	12.19	-46.6	-48.4	18.1	0.00e+00	0	42	0	201326592	64	4499
2026-01-27 07:26:57.74	91.89	12.53	-46.0	-47.6	18.9	0.00e+00	0	42	0	208666624	63	4363
2026-01-27 07:27:01.77	91.50	12.87	-46.0	-47.6	19.0	0.00e+00	0	43	0	216006656	63	4356
2026-01-27 07:27:05.80	91.09	13.21	-46.0	-47.6	19.0	0.00e+00	0	42	0	224395264	63	4349
2026-01-27 07:27:09.83	90.68	13.56	-45.9	-47.4	19.2	0.00e+00	0	42	0	231735296	63	4269
2026-01-27 07:27:13.85	90.26	13.91	-45.9	-47.5	19.1	0.00e+00	0	43	0	239075328	63	4320
2026-01-27 07:27:17.89	89.82	14.26	-46.0	-47.6	19.1	0.00e+00	0	43	0	246415360	63	4343
2026-01-27 07:27:21.92	89.37	14.62	-46.0	-47.6	19.1	0.00e+00	0	43	0	253755392	63	4373
2026-01-27 07:27:25.95	88.92	14.98	-45.8	-47.3	19.3	0.00e+00	0	43	0	261095424	63	4225
2026-01-27 07:27:29.97	88.45	15.34	-46.2	-47.8	18.9	0.00e+00	0	43	0	269484032	63	4470
2026-01-27 07:27:33.99	87.97	15.70	-45.9	-47.4	19.2	0.00e+00	0	43	0	276824064	63	4287
2026-01-27 07:27:38.03	87.48	16.07	-46.2	-47.8	18.9	0.00e+00	0	42	0	284164096	63	4482
2026-01-27 07:27:42.05	86.97	16.45	-45.8	-47.3	19.4	0.00e+00	0	42	0	291504128	63	4198
2026-01-27 07:27:46.08	86.45	16.82	-45.9	-47.4	19.4	0.00e+00	0	43	0	299892736	63	4257
2026-01-27 07:27:50.10	85.92	17.20	-45.6	-47.1	19.6	0.00e+00	0	43	0	307232768	62	4359
2026-01-27 07:27:54.13	85.38	17.59	-46.4	-48.0	18.8	0.00e+00	0	42	0	314572800	63	4580
2026-01-27 07:27:58.15	84.82	17.97	-46.8	-48.7	18.1	0.00e+00	0	42	0	321912832	64	4661
2026-01-27 07:28:02.17	84.25	18.36	-46.9	-48.7	18.1	0.00e+00	0	43	0	329252864	64	4685
2026-01-27 07:28:06.20	83.66	18.75	-46.4	-48.1	18.7	0.00e+00	0	43	0	337641472	64	4359
2026-01-27 07:28:10.24	83.05	19.15	-46.0	-47.5	19.3	0.00e+00	0	43	0	344981504	63	4316
2026-01-27 07:28:14.26	82.43	19.55	-46.4	-48.1	18.8	0.00e+00	0	43	0	352321536	63	4602
2026-01-27 07:28:18.30	81.79	19.95	-46.2	-47.8	19.1	0.00e+00	0	43	0	359661568	63	4485
2026-01-27 07:28:22.32	81.13	20.35	-46.0	-47.5	19.4	0.00e+00	0	42	0	367001600	63	4307
2026-01-27 07:28:26.35	80.46	20.76	-46.4	-48.0	18.9	0.00e+00	0	43	0	374341632	63	4573
2026-01-27 07:28:30.38	79.77	21.17	-46.6	-48.2	18.7	0.00e+00	0	43	0	382730240	63	4688
2026-01-27 07:28:34.39	79.06	21.58	-46.6	-48.3	18.6	0.00e+00	0	43	0	390070272	64	4459
2026-01-27 07:28:38.42	78.33	21.99	-46.7	-48.5	18.4	0.00e+00	0	43	0	397410304	64	4584
2026-01-27 07:28:42.45	77.58	22.41	-46.1	-47.7	19.1	0.00e+00	0	43	0	404750336	64	4185
2026-01-27 07:28:46.49	76.81	22.82	-46.0	-47.5	19.4	0.00e+00	0	43	0	413138944	63	4333
2026-01-27 07:28:50.53	76.01	23.24	-45.8	-47.3	19.6	0.00e+00	0	43	0	420478976	63	4222
2026-01-27 07:28:54.56	75.20	23.66	-46.0	-47.5	19.5	0.00e+00	0	43	0	427819008	63	4309
2026-01-27 07:28:58.60	74.36	24.08	-45.9	-47.3	19.7	0.00e+00	0	43	0	435159040	63	4226
2026-01-27 07:29:02.63	73.50	24.49	-46.1	-47.6	19.4	0.00e+00	0	43	0	442499072	63	4371
2026-01-27 07:29:06.66	72.62	24.91	-46.2	-47.8	19.3	0.00e+00	0	43	0	450887680	63	4449
2026-01-27 07:29:10.69	71.72	25.32	-46.3	-47.9	19.2	0.00e+00	0	43	0	458227712	63	4501
2026-01-27 07:29:14.71	70.79	25.74	-46.0	-47.5	19.5	0.00e+00	0	43	0	465567744	63	4318
2026-01-27 07:29:18.74	69.83	26.15	-46.5	-48.1	19.1	0.00e+00	0	43	0	472907776	63	4619
2026-01-27 07:29:22.77	68.85	26.56	-45.6	-47.0	20.0	0.00e+00	0	43	0	480247808	63	4097
2026-01-27 07:29:26.80	67.85	26.96	-44.6	-45.8	21.1	0.00e+00	0	43	0	488636416	61	3966
2026-01-27 07:29:30.83	66.82	27.36	-45.3	-46.6	20.3	0.00e+00	0	43	0	495976448	61	4387
2026-01-27 07:29:34.87	65.76	27.76	-45.8	-47.3	19.7	0.00e+00	0	43	0	503316480	62	4471
2026-01-27 07:29:38.90	64.67	28.15	-46.9	-48.7	18.2	0.00e+00	0	43	0	510656512	64	4705
2026-01-27 07:29:42.93	63.56	28.54	-46.6	-48.2	18.8	0.00e+00	0	43	0	517996544	65	4172
2026-01-27 07:29:46.94	62.43	28.91	-46.1	-47.6	19.4	0.00e+00	0	43	0	526385152	63	4380
2026-01-27 07:29:50.96	61.27	29.28	-47.1	-49.0	18.0	0.00e+00	0	43	0	533725184	64	4860
2026-01-27 07:29:54.98	60.08	29.64	-48.0	-50.2	16.9	0.00e+00	0	43	0	541065216	66	4981
2026-01-27 07:29:59.02	58.86	29.99	-49.0	-51.8	15.5	0.00e+00	0	43	0	548405248	68	5307
2026-01-27 07:30:03.05	57.61	30.33	-48.3	-50.6	16.7	0.00e+00	0	43	0	555745280	68	4613
2026-01-27 07:30:07.07	56.34	30.66	-47.7	-49.7	17.4	0.00e+00	0	43	0	564133888	67	4410
2026-01-27 07:30:11.10	55.05	30.97	-47.5	-49.5	17.5	0.00e+00	0	43	0	571473920	66	4579
2026-01-27 07:30:15.13	53.72	31.28	-47.6	-49.6	17.4	0.00e+00	0	43	0	578813952	67	4378
2026-01-27 07:30:19.16	52.38	31.56	-47.2	-49.2	17.8	0.00e+00	0	43	0	586153984	66	4413
2026-01-27 07:30:23.19	51.01	31.83	-47.4	-49.4	17.7	0.00e+00	0	43	0	593494016	66	4541
2026-01-27 07:30:27.22	49.62	32.09	-46.9	-48.7	18.0	0.00e+00	0	43	0	601882624	65	4405
2026-01-27 07:30:31.24	48.21	32.33	-46.8	-48.7	18.2	0.00e+00	0	43	0	609222656	65	4394
2026-01-27 07:30:35.27	46.77	32.55	-46.4	-48.0	19.0	0.00e+00	0	43	0	616562688	63	4558
2026-01-27 07:30:39.30	45.32	32.75	-46.9	-48.7	18.3	0.00e+00	0	43	0	623902720	65	4437
2026-01-27 07:30:43.33	43.85	32.93	-45.4	-46.7	20.2	0.00e+00	0	43	0	631242752	62	4168
2026-01-27 07:30:47.36	42.37	33.09	-44.9	-46.2	20.7	0.00e+00	0	43	0	639631360	61	4161
2026-01-27 07:30:51.39	40.87	33.22	-47.5	-49.6	17.5	0.00e+00	0	43	0	646971392	65	4920
2026-01-27 07:30:55.41	39.36	33.34	-46.6	-48.3	18.8	0.00e+00	0	43	0	654311424	63	4713
2026-01-27 07:30:59.45	37.84	33.43	-46.2	-47.7	19.3	0.00e+00	0	43	0	661651456	64	4153
2026-01-27 07:31:03.48	36.31	33.51	-45.6	-47.0	20.1	0.00e+00	0	43	0	670040064	63	4069
2026-01-27 07:31:07.50	34.78	33.55	-47.4	-49.3	17.9	0.00e+00	0	43	0	677380096	65	4735
2026-01-27 07:31:11.53	33.24	33.58	-48.4	-50.7	16.4	0.00e+00	0	43	0	684720128	67	4958
2026-01-27 07:31:15.55	31.71	33.58	-47.8	-49.9	17.3	0.00e+00	0	43	0	692060160	67	4500
2026-01-27 07:31:19.58	30.17	33.56	-46.7	-48.3	18.8	0.00e+00	0	43	0	699400192	65	4233
2026-01-27 07:31:23.61	28.64	33.51	-47.7	-49.7	17.5	0.00e+00	0	43	0	706740224	67	4412
2026-01-27 07:31:27.64	27.11	33.44	-47.2	-49.1	18.1	0.00e+00	0	43	0	715128832	65	4612
2026-01-27 07:31:31.67	25.59	33.35	-47.8	-49.9	17.3	0.00e+00	0	43	0	722468864	67	4509
2026-01-27 07:31:35.69	24.09	33.24	-47.9	-50.1	17.1	0.00e+00	0	43	0	729808896	67	4632
2026-01-27 07:31:39.72	22.59	33.10	-47.2	-49.1	18.0	0.00e+00	0	43	0	737148928	65	4650
2026-01-27 07:31:43.74	21.10	32.95	-47.0	-48.8	18.2	0.00e+00	0	43	0	744488960	65	4487
2026-01-27 07:31:47.76	19.64	32.77	-47.8	-49.9	17.2	0.00e+00	0	43	0	752877568	66	4811
2026-01-27 07:31:51.79	18.19	32.57	-46.2	-47.8	19.2	0.00e+00	0	43	0	760217600	64	4234
2026-01-27 07:31:55.82	16.75	32.35	-46.1	-47.7	19.3	0.00e+00	0	43	0	767557632	64	4155
2026-01-27 07:31:59.85	15.34	32.12	-46.7	-48.5	18.6	0.00e+00	0	43	0	774897664	64	4561
2026-01-27 07:32:03.88	13.95	31.86	-46.4	-47.9	19.0	0.00e+00	0	43	0	783286272	64	4291
2026-01-27 07:32:07.91	12.57	31.60	-47.0	-48.8	18.2	0.00e+00	0	43	0	790626304	64	4756
2026-01-27 07:32:11.92	11.23	31.31	-47.6	-49.7	17.4	0.00e+00	0	43	0	797966336	66	4663
2026-01-27 07:32:15.95	9.91	31.01	-47.6	-49.6	17.5	0.00e+00	0	43	0	805306368	66	4625
2026-01-27 07:32:19.98	8.61	30.70	-47.2	-49.0	18.0	0.00e+00	0	43	0	812646400	65	4585
2026-01-27 07:32:24.01	7.34	30.37	-46.0	-47.5	19.4	0.00e+00	0	43	0	819986432	63	4333
2026-01-27 07:32:28.03	6.10	30.04	-45.4	-46.7	20.2	0.00e+00	0	43	0	828375040	62	4167
2026-01-27 07:32:32.05	4.88	29.69	-46.4	-48.0	19.0	0.00e+00	0	43	0	835715072	63	4570
2026-01-27 07:32:36.08	3.69	29.33	-47.2	-49.1	17.9	0.00e+00	0	43	0	843055104	66	4367
2026-01-27 07:32:40.11	2.53	28.96	-46.8	-48.6	18.5	0.00e+00	0	43	0	850395136	64	4601
2026-01-27 07:32:44.14	1.39	28.59	-47.7	-49.8	17.3	0.00e+00	0	43	0	857735168	66	4719
2026-01-27 07:32:48.17	0.28	28.20	-47.0	-48.8	18.2	0.00e+00	0	43	0	866123776	65	4490
2026-01-27 07:32:52.20	359.19	27.81	-47.8	-49.8	17.3	0.00e+00	0	43	0	873463808	66	4758
2026-01-27 07:32:56.23	358.13	27.42	-45.7	-47.0	20.0	0.00e+00	0	43	0	880803840	63	4082
2026-01-27 07:33:00.27	357.10	27.02	-46.2	-47.7	19.4	0.00e+00	0	43	0	888143872	62	4688
2026-01-27 07:33:04.30	356.09	26.61	-46.5	-48.1	19.0	0.00e+00	0	43	0	896532480	63	4644
2026-01-27 07:33:08.33	355.11	26.21	-45.6	-47.0	20.0	0.00e+00	0	43	0	903872512	62	4295
2026-01-27 07:33:12.36	354.16	25.80	-45.9	-47.4	19.7	0.00e+00	0	43	0	911212544	62	4525
2026-01-27 07:33:16.39	353.23	25.38	-45.1	-46.4	20.5	0.00e+00	0	43	0	918552576	62	4015
2026-01-27 07:33:20.42	352.32	24.97	-44.3	-45.5	21.3	0.00e+00	0	43	0	925892608	60	4052
2026-01-27 07:33:24.45	351.44	24.56	-45.3	-46.7	20.3	0.00e+00	0	43	0	933232640	61	4411
2026-01-27 07:33:28.47	350.58	24.14	-44.3	-45.4	21.4	0.00e+00	0	43	0	941621248	60	4043
2026-01-27 07:33:32.50	349.74	23.72	-44.9	-46.2	20.7	0.00e+00	0	43	0	948961280	60	4395
2026-01-27 07:33:36.53	348.93	23.31	-44.7	-46.0	20.9	0.00e+00	0	43	0	956301312	60	4295
2026-01-27 07:33:40.56	348.14	22.89	-44.4	-45.6	21.1	0.00e+00	0	43	0	963641344	60	4142
2026-01-27 07:33:44.58	347.37	22.48	-45.0	-46.3	20.6	0.00e+00	0	43	0	972029952	60	4458
2026-01-27 07:33:48.62	346.62	22.07	-45.2	-46.6	20.4	0.00e+00	0	43	0	979369984	61	4344
2026-01-27 07:33:52.64	345.89	21.65	-45.4	-46.7	20.1	0.00e+00	0	43	0	986710016	61	4441
2026-01-27 07:33:56.67	345.18	21.24	-45.6	-47.0	20.0	0.00e+00	0	43	0	994050048	62	4310
2026-01-27 07:34:00.69	344.49	20.84	-45.9	-47.3	19.7	0.00e+00	0	43	0	1001390080	62	4484
2026-01-27 07:34:04.72	343.81	20.43	-46.3	-47.9	19.1	0.00e+00	0	43	0	1009778688	63	4542
2026-01-27 07:34:08.75	343.16	20.03	-45.5	-46.9	20.0	0.00e+00	0	43	0	1017118720	62	4286
2026-01-27 07:34:12.78	342.52	19.63	-45.6	-47.0	19.8	0.00e+00	0	43	0	1024458752	61	4582
2026-01-27 07:34:16.81	341.90	19.23	-45.2	-46.5	20.2	0.00e+00	0	43	0	1031798784	61	4322
2026-01-27 07:34:20.84	341.29	18.83	-44.8	-46.0	20.7	0.00e+00	0	43	0	1039138816	60	4322
2026-01-27 07:34:24.88	340.70	18.44	-45.0	-46.3	20.5	0.00e+00	0	43	0	1047527424	60	4452
2026-01-27 07:34:28.90	340.13	18.05	-45.1	-46.4	20.4	0.00e+00	0	43	0	1054867456	61	4250
2026-01-27 07:34:32.93	339.57	17.67	-45.1	-46.4	20.3	0.00e+00	0	43	0	1062207488	60	4510
2026-01-27 07:34:36.96	339.02	17.28	-45.2	-46.5	20.3	0.00e+00	0	43	0	1069547520	61	4316
2026-01-27 07:34:40.99	338.49	16.90	-46.7	-48.4	18.5	0.00e+00	0	43	0	1076887552	63	4803
2026-01-27 07:34:45.02	337.97	16.53	-47.6	-49.7	17.2	0.00e+00	0	43	0	1085276160	65	4956
2026-01-27 07:34:49.05	337.47	16.16	-46.0	-47.5	19.3	0.00e+00	0	43	0	1092616192	63	4302
2026-01-27 07:34:53.07	336.98	15.79	-45.3	-46.7	20.1	0.00e+00	0	43	0	1099956224	61	4408
2026-01-27 07:34:57.09	336.50	15.42	-46.1	-47.7	19.1	0.00e+00	0	43	0	1107296256	62	4672
2026-01-27 07:35:01.12	336.03	15.06	-46.5	-48.2	18.6	0.00e+00	0	43	0	1114636288	63	4680
2026-01-27 07:35:05.15	335.57	14.70	-46.1	-47.7	19.1	0.00e+00	0	43	0	1123024896	63	4422
2026-01-27 07:35:09.17	335.13	14.34	-46.1	-47.6	19.0	0.00e+00	0	43	0	1130364928	63	4389
2026-01-27 07:35:13.20	334.70	13.99	-46.5	-48.1	18.6	0.00e+00	0	43	0	1137704960	63	4643
2026-01-27 07:35:17.23	334.27	13.64	-46.7	-48.4	18.2	0.00e+00	0	42	0	1145044992	64	4540
2026-01-27 07:35:21.26	333.86	13.30	-46.7	-48.5	18.2	0.00e+00	0	43	0	1152385024	64	4579
2026-01-27 07:35:25.29	333.45	12.96	-46.6	-48.4	18.3	0.00e+00	0	43	0	1160773632	64	4508
2026-01-27 07:35:29.32	333.06	12.62	-46.3	-47.9	18.7	0.00e+00	0	43	0	1168113664	63	4534
2026-01-27 07:35:33.35	332.67	12.28	-46.1	-47.6	19.1	0.00e+00	0	43	0	1175453696	62	4640
2026-01-27 07:35:37.37	332.30	11.95	-47.1	-49.1	17.6	0.00e+00	0	43	0	1182793728	64	4894
2026-01-27 07:35:41.40	331.93	11.62	-48.2	-50.7	16.0	0.00e+00	0	43	0	1190133760	67	4935
2026-01-27 07:35:45.43	331.57	11.30	-48.4	-50.9	15.8	0.00e+00	0	43	0	1198522368	67	5078
2026-01-27 07:35:49.46	331.22	10.97	-47.8	-50.1	16.5	0.00e+00	0	43	0	1205862400	66	4918
2026-01-27 07:35:53.49	330.88	10.65	-47.3	-49.4	17.2	0.00e+00	0	43	0	1213202432	65	4793
2026-01-27 07:35:57.51	330.54	10.34	-46.9	-48.7	17.7	0.00e+00	0	43	0	1220542464	64	4701
2026-01-27 07:36:01.54	330.22	10.02	-46.8	-48.6	17.8	0.00e+00	0	43	0	1227882496	64	4631
2026-01-27 07:36:05.57	329.90	9.71	-46.5	-48.2	18.3	0.00e+00	0	43	0	1236271104	63	4674
2026-01-27 07:36:09.60	329.58	9.41	-46.6	-48.3	18.2	0.00e+00	0	43	0	1243611136	63	4740
2026-01-27 07:36:13.62	329.28	9.10	-46.8	-48.6	17.8	0.00e+00	0	43	0	1250951168	64	4633
2026-01-27 07:36:17.65	328.98	8.80	-47.4	-49.5	16.9	0.00e+00	0	43	0	1258291200	65	4861
2026-01-27 07:36:21.68	328.68	8.50	-47.5	-49.7	16.8	0.00e+00	0	43	0	1266679808	65	4928
2026-01-27 07:36:25.72	328.39	8.20	-47.6	-49.9	16.6	0.00e+00	0	43	0	1274019840	66	4762
2026-01-27 07:36:29.74	328.11	7.91	-47.9	-50.3	16.1	0.00e+00	0	43	0	1281359872	66	5013
2026-01-27 07:36:33.77	327.84	7.62	-48.1	-50.5	15.8	0.00e+00	0	43	0	1288699904	66	5145
2026-01-27 07:36:37.81	327.57	7.33	-48.6	-51.3	15.0	0.00e+00	0	43	0	1296039936	67	5334
2026-01-27 07:36:41.83	327.30	7.05	-48.9	-52.0	14.4	0.00e+00	0	43	0	1303379968	68	5410
2026-01-27 07:36:45.85	327.04	6.77	-48.7	-51.6	14.7	0.00e+00	0	43	0	1311768576	68	5215
2026-01-27 07:36:49.88	326.79	6.49	-48.1	-50.6	15.6	0.00e+00	0	43	0	1319108608	66	5204
2026-01-27 07:36:53.91	326.54	6.21	-47.5	-49.8	16.4	0.00e+00	0	43	0	1326448640	66	4720
2026-01-27 07:36:57.93	326.30	5.93	-47.5	-49.7	16.4	0.00e+00	0	43	0	1333788672	65	4971
2026-01-27 07:37:01.96	326.06	5.66	-47.5	-49.8	16.3	0.00e+00	0	43	0	1341128704	65	5002
2026-01-27 07:37:05.99	325.83	5.39	-47.4	-49.6	16.5	0.00e+00	0	43	0	1349517312	65	4907
2026-01-27 07:37:10.02	325.60	5.12	-47.8	-50.2	15.8	0.00e+00	0	43	0	1356857344	66	4964
2026-01-27 07:37:14.05	325.37	4.85	-53.0	-68.0	3.8	1.49e+00	0	43	104	1360003072	76	21588
2026-01-27 07:37:18.08	325.15	4.59	-53.3	-68.2	3.8	1.49e+00	0	43	104	1360003072	77	20975
2026-01-27 07:37:22.11	324.93	4.33	-53.1	-68.0	3.8	1.49e+00	0	43	104	1360003072	76	21728
2026-01-27 07:37:26.14	324.72	4.07	-53.3	-68.2	3.8	1.49e+00	0	43	104	1360003072	77	20981
2026-01-27 07:37:30.17	324.51	3.81	-53.4	-68.4	3.8	1.49e+00	0	43	104	1360003072	77	21282
2026-01-27 07:37:34.21	324.31	3.55	-53.3	-68.3	3.8	1.49e+00	0	43	104	1360003072	77	21193
2026-01-27 07:37:38.24	324.11	3.30	-53.3	-68.3	3.8	1.49e+00	0	43	104	1360003072	77	21210
2026-01-27 07:37:42.27	323.91	3.05	-53.3	-68.3	3.8	1.49e+00	0	43	104	1360003072	77	21124
2026-01-27 07:37:46.30	323.72	2.80	-53.3	-68.3	3.8	1.49e+00	0	43	104	1360003072	77	21076
2026-01-27 07:37:50.33	323.53	2.55	-53.3	-68.3	3.8	1.49e+00	0	43	104	1360003072	77	21058
2026-01-27 07:37:54.36	323.34	2.30	-53.3	-68.3	3.8	1.49e+00	0	43	104	1360003072	77	21037
2026-01-27 07:37:58.39	323.16	2.06	-53.3	-68.3	3.8	1.49e+00	0	43	104	1360003072	77	21027

#Closed at: 2026-01-27 07:38:00
#Recorded file [1360 MB]: D:/lorett/data/31041_260127_102428.dat