passes_logs/2026/01/27/R3.2S_Murmansk/R3.2S_Murmansk__20260127_024722_NOAA_20_JPSS-1_rec.log

#Pass ID: 20260127_024722_NOAA 20 (JPSS-1)
#Satellite: NOAA 20 (JPSS-1)
#Configuration: NOAA 20
#almurnet v.1.7.20251203
#Start time: 2026-01-27 02:47:24

#Version: 2.2.20231116
#Station: R3.2S_Murmansk
#Location: 33.079688 lon 68.888172 lat
#TLE: 1 43013U 17073A   26026.46665230  .00000148  00000+0  91302-4 0  9998
#TLE: 2 43013  98.7646 327.2856 0001008  22.9532 337.1688 14.19540616424360

#Time	Az	El	Level	Level2	SNR	BER	BlckErr	Temp	State	Recorded	gain1	gain2
2026-01-27 02:47:24.27	35.90	2.12	-52.2	-67.2	3.8	1.49e+00	0	41	0	0	76	19621
2026-01-27 02:47:28.30	35.72	2.37	-52.2	-67.1	3.8	1.49e+00	0	41	104	0	74	21859
2026-01-27 02:47:32.33	35.54	2.61	-52.2	-67.0	3.8	1.49e+00	0	41	104	0	74	21627
2026-01-27 02:47:36.37	35.36	2.86	-52.2	-67.1	3.8	1.49e+00	0	41	104	0	74	21917
2026-01-27 02:47:40.39	35.17	3.12	-52.2	-67.0	3.8	1.49e+00	0	42	104	0	74	21547
2026-01-27 02:47:44.42	34.98	3.37	-52.2	-67.1	3.8	1.49e+00	0	42	104	0	74	21807
2026-01-27 02:47:48.45	34.79	3.63	-52.1	-66.6	3.8	1.49e+00	0	41	104	0	74	20592
2026-01-27 02:47:52.49	34.59	3.88	-52.0	-64.3	4.0	1.48e+00	0	42	104	0	74	15824
2026-01-27 02:47:56.52	34.39	4.14	-51.9	-62.6	4.5	1.29e+00	53	42	0	1048576	74	13108
2026-01-27 02:48:00.51	34.19	4.40	-51.0	-57.2	8.6	7.13e-02	0	42	0	8388608	74	6999
2026-01-27 02:48:04.54	33.98	4.67	-49.9	-54.0	12.0	3.58e-04	0	42	0	15728640	71	5767
2026-01-27 02:48:08.58	33.76	4.93	-49.9	-54.1	12.0	3.07e-04	0	42	0	23068672	71	5815
2026-01-27 02:48:12.61	33.55	5.20	-51.3	-58.6	8.0	6.86e-05	0	43	0	30408704	73	8709
2026-01-27 02:48:16.65	33.32	5.47	-48.6	-51.4	14.8	0.00e+00	0	42	0	35651584	68	5096
2026-01-27 02:48:20.69	33.10	5.75	-47.7	-49.9	16.4	0.00e+00	0	42	0	44040192	67	4514
2026-01-27 02:48:24.72	32.87	6.02	-47.6	-49.7	16.6	0.00e+00	0	42	0	51380224	66	4696
2026-01-27 02:48:28.75	32.63	6.30	-47.4	-49.5	17.0	0.00e+00	0	42	0	58720256	66	4550
2026-01-27 02:48:32.78	32.39	6.58	-47.5	-49.6	16.9	0.00e+00	0	42	0	66060288	66	4602
2026-01-27 02:48:36.82	32.14	6.87	-47.1	-49.0	17.4	0.00e+00	0	42	0	73400320	66	4337
2026-01-27 02:48:40.85	31.89	7.15	-47.3	-49.3	17.2	0.00e+00	0	42	0	80740352	66	4450
2026-01-27 02:48:44.88	31.64	7.44	-47.1	-49.1	17.5	0.00e+00	0	42	0	89128960	66	4356
2026-01-27 02:48:48.91	31.38	7.73	-47.0	-48.8	17.7	0.00e+00	0	42	0	96468992	65	4468
2026-01-27 02:48:52.95	31.11	8.03	-47.2	-49.1	17.5	0.00e+00	0	43	0	103809024	65	4609
2026-01-27 02:48:56.98	30.84	8.32	-47.1	-48.9	17.7	0.00e+00	0	42	0	111149056	65	4528
2026-01-27 02:49:01.01	30.56	8.62	-47.0	-48.9	17.7	0.00e+00	0	43	0	119537664	65	4516
2026-01-27 02:49:05.03	30.27	8.93	-47.0	-48.8	17.9	0.00e+00	0	42	0	126877696	65	4474
2026-01-27 02:49:09.06	29.98	9.23	-46.8	-48.6	18.1	0.00e+00	0	43	0	134217728	65	4344
2026-01-27 02:49:13.09	29.68	9.54	-46.9	-48.8	17.9	0.00e+00	0	43	0	141557760	65	4446
2026-01-27 02:49:17.12	29.38	9.85	-46.9	-48.6	18.1	0.00e+00	0	43	0	148897792	65	4374
2026-01-27 02:49:21.14	29.07	10.17	-46.7	-48.4	18.3	0.00e+00	0	43	0	157286400	65	4290
2026-01-27 02:49:25.17	28.75	10.48	-46.7	-48.4	18.3	0.00e+00	0	43	0	164626432	65	4275
2026-01-27 02:49:29.20	28.42	10.80	-46.7	-48.3	18.4	0.00e+00	0	43	0	171966464	65	4240
2026-01-27 02:49:33.23	28.09	11.13	-46.8	-48.5	18.4	0.00e+00	0	43	0	179306496	65	4297
2026-01-27 02:49:37.26	27.75	11.46	-46.6	-48.3	18.5	0.00e+00	0	43	0	186646528	65	4209
2026-01-27 02:49:41.29	27.40	11.79	-46.5	-48.1	18.7	0.00e+00	0	43	0	195035136	64	4373
2026-01-27 02:49:45.32	27.04	12.12	-46.4	-48.0	18.9	0.00e+00	0	43	0	202375168	64	4297
2026-01-27 02:49:49.35	26.68	12.46	-46.3	-47.8	19.0	0.00e+00	0	43	0	209715200	64	4229
2026-01-27 02:49:53.38	26.30	12.80	-46.1	-47.6	19.2	0.00e+00	0	43	0	217055232	64	4136
2026-01-27 02:49:57.41	25.92	13.15	-46.0	-47.5	19.4	0.00e+00	0	43	0	224395264	64	4084
2026-01-27 02:50:01.44	25.52	13.50	-46.2	-47.7	19.3	0.00e+00	0	43	0	232783872	63	4412
2026-01-27 02:50:05.47	25.12	13.85	-46.2	-47.7	19.3	0.00e+00	0	43	0	240123904	63	4422
2026-01-27 02:50:09.50	24.71	14.20	-46.2	-47.7	19.4	0.00e+00	0	43	0	247463936	63	4395
2026-01-27 02:50:13.52	24.28	14.56	-46.3	-47.8	19.3	0.00e+00	0	43	0	254803968	63	4454
2026-01-27 02:50:17.54	23.85	14.92	-46.1	-47.5	19.5	0.00e+00	0	43	0	262144000	63	4334
2026-01-27 02:50:21.57	23.40	15.29	-45.9	-47.3	19.8	0.00e+00	0	43	0	270532608	63	4211
2026-01-27 02:50:25.60	22.95	15.66	-45.7	-47.1	20.0	0.00e+00	0	43	0	277872640	63	4106
2026-01-27 02:50:29.63	22.48	16.04	-46.0	-47.4	19.7	0.00e+00	0	43	0	285212672	63	4290
2026-01-27 02:50:33.66	22.00	16.41	-46.1	-47.5	19.6	0.00e+00	0	43	0	292552704	63	4340
2026-01-27 02:50:37.70	21.50	16.80	-46.0	-47.4	19.8	0.00e+00	0	43	0	300941312	63	4262
2026-01-27 02:50:41.73	20.99	17.18	-46.0	-47.5	19.7	0.00e+00	0	43	0	308281344	63	4302
2026-01-27 02:50:45.76	20.47	17.57	-46.3	-47.7	19.4	0.00e+00	0	43	0	315621376	63	4440
2026-01-27 02:50:49.79	19.94	17.96	-46.4	-48.0	19.1	0.00e+00	0	43	0	322961408	64	4292
2026-01-27 02:50:53.81	19.39	18.36	-46.3	-47.8	19.3	0.00e+00	0	43	0	330301440	64	4205
2026-01-27 02:50:57.84	18.83	18.76	-46.5	-48.0	19.2	0.00e+00	0	43	0	337641472	64	4322
2026-01-27 02:51:01.88	18.24	19.17	-46.7	-48.3	18.9	0.00e+00	0	43	0	346030080	64	4454
2026-01-27 02:51:05.91	17.65	19.57	-46.5	-48.1	19.1	0.00e+00	0	43	0	353370112	64	4346
2026-01-27 02:51:09.94	17.04	19.98	-46.4	-47.9	19.3	0.00e+00	0	43	0	360710144	64	4258
2026-01-27 02:51:13.97	16.41	20.40	-46.1	-47.5	19.7	0.00e+00	0	43	0	368050176	64	4076
2026-01-27 02:51:17.99	15.76	20.81	-46.0	-47.5	19.8	0.00e+00	0	43	0	376438784	64	4053
2026-01-27 02:51:22.02	15.10	21.23	-46.1	-47.6	19.8	0.00e+00	0	43	0	383778816	63	4342
2026-01-27 02:51:26.04	14.42	21.65	-46.1	-47.5	19.8	0.00e+00	0	43	0	391118848	63	4328
2026-01-27 02:51:30.07	13.71	22.08	-45.9	-47.2	20.1	0.00e+00	0	43	0	398458880	63	4185
2026-01-27 02:51:34.11	12.99	22.51	-46.0	-47.4	19.9	0.00e+00	0	43	0	405798912	63	4278
2026-01-27 02:51:38.13	12.25	22.93	-46.1	-47.5	19.9	0.00e+00	0	43	0	414187520	63	4292
2026-01-27 02:51:42.16	11.48	23.37	-46.5	-48.0	19.3	0.00e+00	0	43	0	421527552	63	4593
2026-01-27 02:51:46.19	10.70	23.80	-46.7	-48.2	19.1	0.00e+00	0	43	0	428867584	64	4413
2026-01-27 02:51:50.22	9.89	24.23	-46.8	-48.4	18.9	0.00e+00	0	43	0	436207616	64	4510
2026-01-27 02:51:54.25	9.06	24.67	-46.9	-48.4	18.9	0.00e+00	0	43	0	443547648	64	4534
2026-01-27 02:51:58.29	8.20	25.10	-46.8	-48.4	19.0	0.00e+00	0	43	0	451936256	64	4517
2026-01-27 02:52:02.31	7.32	25.54	-46.8	-48.4	18.9	0.00e+00	0	43	0	459276288	64	4530
2026-01-27 02:52:06.34	6.42	25.97	-47.0	-48.6	18.8	0.00e+00	0	43	0	466616320	64	4615
2026-01-27 02:52:10.37	5.49	26.40	-46.7	-48.2	19.1	0.00e+00	0	43	0	473956352	64	4439
2026-01-27 02:52:14.40	4.53	26.83	-46.6	-48.1	19.3	0.00e+00	0	43	0	481296384	64	4358
2026-01-27 02:52:18.42	3.55	27.26	-46.8	-48.4	19.0	0.00e+00	0	43	0	489684992	64	4514
2026-01-27 02:52:22.46	2.54	27.69	-46.8	-48.3	19.1	0.00e+00	0	43	0	497025024	64	4488
2026-01-27 02:52:26.49	1.51	28.11	-46.7	-48.2	19.2	0.00e+00	0	43	0	504365056	64	4438
2026-01-27 02:52:30.52	0.44	28.53	-46.8	-48.3	19.1	0.00e+00	0	43	0	511705088	64	4473
2026-01-27 02:52:34.55	359.35	28.94	-47.2	-48.9	18.6	0.00e+00	0	43	0	519045120	64	4787
2026-01-27 02:52:38.57	358.23	29.35	-47.8	-49.6	17.8	0.00e+00	0	43	0	527433728	66	4649
2026-01-27 02:52:42.61	357.08	29.75	-48.6	-50.8	16.7	0.00e+00	0	43	0	534773760	67	4999
2026-01-27 02:52:46.64	355.90	30.14	-49.0	-51.3	16.3	0.00e+00	0	43	0	542113792	68	5011
2026-01-27 02:52:50.66	354.70	30.52	-49.3	-51.7	15.9	0.00e+00	0	43	0	549453824	69	4943
2026-01-27 02:52:54.69	353.46	30.90	-49.9	-52.8	14.9	7.00e-07	0	43	0	557842432	70	5284
2026-01-27 02:52:58.71	352.20	31.26	-50.1	-52.9	14.7	0.00e+00	0	43	0	565182464	70	5384
2026-01-27 02:53:02.75	350.90	31.61	-49.4	-51.9	15.8	0.00e+00	0	43	0	572522496	70	4770
2026-01-27 02:53:06.78	349.58	31.95	-48.9	-51.1	16.5	0.00e+00	0	43	0	579862528	69	4617
2026-01-27 02:53:10.81	348.23	32.27	-48.4	-50.4	17.2	0.00e+00	0	43	0	587202560	68	4531
2026-01-27 02:53:14.84	346.86	32.58	-48.4	-50.3	17.4	0.00e+00	0	43	0	594542592	68	4484
2026-01-27 02:53:18.87	345.45	32.87	-48.0	-49.8	17.8	0.00e+00	0	43	0	602931200	67	4492
2026-01-27 02:53:22.89	344.03	33.15	-47.7	-49.4	18.2	0.00e+00	0	43	0	610271232	67	4268
2026-01-27 02:53:26.92	342.58	33.41	-47.6	-49.3	18.2	0.00e+00	0	43	0	617611264	66	4492
2026-01-27 02:53:30.95	341.11	33.65	-47.2	-48.8	18.8	0.00e+00	0	43	0	624951296	66	4239
2026-01-27 02:53:34.97	339.62	33.86	-46.8	-48.3	19.3	0.00e+00	0	43	0	633339904	65	4210
2026-01-27 02:53:39.01	338.10	34.06	-46.9	-48.4	19.2	0.00e+00	0	43	0	640679936	65	4265
2026-01-27 02:53:43.03	336.57	34.24	-46.1	-47.4	20.3	0.00e+00	0	43	0	648019968	63	4265
2026-01-27 02:53:47.06	335.02	34.39	-45.8	-47.1	20.5	0.00e+00	0	43	0	655360000	63	4134
2026-01-27 02:53:51.09	333.46	34.52	-46.2	-47.6	20.1	0.00e+00	0	43	0	662700032	63	4359
2026-01-27 02:53:55.11	331.90	34.62	-45.9	-47.2	20.5	0.00e+00	0	43	0	671088640	63	4191
2026-01-27 02:53:59.15	330.31	34.70	-46.3	-47.6	20.0	0.00e+00	0	43	0	678428672	63	4383
2026-01-27 02:54:03.17	328.73	34.76	-46.3	-47.6	20.0	0.00e+00	0	43	0	685768704	63	4378
2026-01-27 02:54:07.21	327.13	34.79	-46.5	-47.9	19.8	0.00e+00	0	43	0	693108736	63	4518
2026-01-27 02:54:11.24	325.54	34.80	-46.6	-48.0	19.7	0.00e+00	0	43	0	700448768	63	4570
2026-01-27 02:54:15.26	323.95	34.78	-46.2	-47.5	20.1	0.00e+00	0	43	0	707788800	63	4334
2026-01-27 02:54:19.29	322.36	34.73	-46.7	-48.1	19.6	0.00e+00	0	43	0	716177408	63	4646
2026-01-27 02:54:23.32	320.78	34.66	-47.2	-48.8	18.8	0.00e+00	0	43	0	723517440	65	4480
2026-01-27 02:54:27.35	319.20	34.57	-47.0	-48.6	19.1	0.00e+00	0	43	0	730857472	65	4347
2026-01-27 02:54:31.38	317.63	34.45	-47.7	-49.4	18.2	0.00e+00	0	43	0	738197504	66	4542
2026-01-27 02:54:35.41	316.08	34.31	-48.1	-50.0	17.7	0.00e+00	0	43	0	746586112	67	4573
2026-01-27 02:54:39.44	314.54	34.14	-47.6	-49.3	18.4	0.00e+00	0	43	0	753926144	66	4452
2026-01-27 02:54:43.47	313.02	33.95	-48.3	-50.2	17.4	0.00e+00	0	43	0	761266176	67	4694
2026-01-27 02:54:47.50	311.51	33.74	-48.0	-49.8	17.8	0.00e+00	0	43	0	768606208	67	4487
2026-01-27 02:54:51.53	310.03	33.52	-47.9	-49.6	18.1	0.00e+00	0	43	0	775946240	67	4385
2026-01-27 02:54:55.56	308.57	33.27	-47.9	-49.6	18.1	0.00e+00	0	43	0	784334848	67	4386
2026-01-27 02:54:59.59	307.13	33.00	-47.6	-49.2	18.4	0.00e+00	0	43	0	791674880	67	4187
2026-01-27 02:55:03.62	305.71	32.71	-47.6	-49.3	18.4	0.00e+00	0	43	0	799014912	67	4237
2026-01-27 02:55:07.66	304.32	32.41	-47.8	-49.6	18.1	0.00e+00	0	43	0	806354944	66	4630
2026-01-27 02:55:11.69	302.96	32.09	-48.3	-50.3	17.4	0.00e+00	0	43	0	813694976	67	4737
2026-01-27 02:55:15.72	301.62	31.76	-48.1	-50.0	17.7	0.00e+00	0	43	0	822083584	67	4580
2026-01-27 02:55:19.75	300.31	31.41	-48.3	-50.2	17.5	0.00e+00	0	43	0	829423616	67	4679
2026-01-27 02:55:23.79	299.03	31.05	-48.2	-50.1	17.6	0.00e+00	0	43	0	836763648	67	4650
2026-01-27 02:55:27.82	297.78	30.68	-48.3	-50.2	17.5	0.00e+00	0	43	0	844103680	67	4674
2026-01-27 02:55:31.83	296.56	30.31	-48.0	-49.9	17.8	0.00e+00	0	43	0	851443712	67	4503
2026-01-27 02:55:35.87	295.37	29.92	-47.7	-49.4	18.3	0.00e+00	0	43	0	859832320	67	4256
2026-01-27 02:55:39.89	294.21	29.52	-47.7	-49.5	18.2	0.00e+00	0	43	0	867172352	67	4294
2026-01-27 02:55:43.93	293.07	29.11	-47.6	-49.2	18.4	0.00e+00	0	43	0	874512384	66	4438
2026-01-27 02:55:47.96	291.96	28.70	-47.8	-49.5	18.1	0.00e+00	0	43	0	881852416	66	4596
2026-01-27 02:55:51.99	290.88	28.29	-46.9	-48.5	19.2	0.00e+00	0	43	0	890241024	65	4292
2026-01-27 02:55:56.01	289.84	27.87	-46.9	-48.4	19.2	0.00e+00	0	43	0	897581056	65	4276
2026-01-27 02:56:00.04	288.81	27.44	-46.5	-48.0	19.7	0.00e+00	0	43	0	904921088	65	4057
2026-01-27 02:56:04.07	287.82	27.01	-46.1	-47.4	20.3	0.00e+00	0	43	0	912261120	63	4268
2026-01-27 02:56:08.10	286.85	26.58	-45.9	-47.2	20.4	0.00e+00	0	43	0	919601152	63	4173
2026-01-27 02:56:12.12	285.91	26.15	-45.0	-46.1	21.5	0.00e+00	0	43	0	927989760	61	4122
2026-01-27 02:56:16.16	284.99	25.71	-44.9	-46.0	21.5	0.00e+00	0	43	0	935329792	61	4089
2026-01-27 02:56:20.18	284.10	25.28	-44.4	-45.4	22.0	0.00e+00	0	43	0	942669824	60	4050
2026-01-27 02:56:24.21	283.23	24.84	-44.5	-45.5	21.9	0.00e+00	0	43	0	950009856	60	4098
2026-01-27 02:56:28.25	282.39	24.41	-44.4	-45.5	22.0	0.00e+00	0	43	0	957349888	60	4067
2026-01-27 02:56:32.28	281.57	23.97	-44.4	-45.5	21.9	0.00e+00	0	43	0	965738496	60	4076
2026-01-27 02:56:36.30	280.77	23.54	-44.5	-45.6	21.9	0.00e+00	0	43	0	973078528	60	4110
2026-01-27 02:56:40.34	279.99	23.11	-44.7	-45.9	21.6	0.00e+00	0	43	0	980418560	60	4249
2026-01-27 02:56:44.35	279.24	22.68	-45.0	-46.2	21.3	0.00e+00	0	43	0	987758592	60	4400
2026-01-27 02:56:48.38	278.51	22.25	-45.1	-46.3	21.1	0.00e+00	0	43	0	995098624	60	4479
2026-01-27 02:56:52.41	277.79	21.82	-45.2	-46.4	21.0	0.00e+00	0	43	0	1003487232	60	4536
2026-01-27 02:56:56.44	277.10	21.40	-45.1	-46.3	21.1	0.00e+00	0	43	0	1010827264	61	4210
2026-01-27 02:57:00.47	276.43	20.97	-45.3	-46.6	20.8	0.00e+00	0	43	0	1018167296	61	4358
2026-01-27 02:57:04.50	275.77	20.56	-45.4	-46.7	20.7	0.00e+00	0	43	0	1025507328	61	4408
2026-01-27 02:57:08.53	275.13	20.14	-45.5	-46.8	20.6	0.00e+00	0	43	0	1032847360	61	4471
2026-01-27 02:57:12.55	274.51	19.73	-45.9	-47.2	20.1	0.00e+00	0	43	0	1041235968	62	4440
2026-01-27 02:57:16.58	273.91	19.32	-46.1	-47.5	19.9	0.00e+00	0	43	0	1048576000	62	4585
2026-01-27 02:57:20.61	273.32	18.91	-46.2	-47.6	19.8	0.00e+00	0	43	0	1055916032	63	4369
2026-01-27 02:57:24.65	272.74	18.51	-46.6	-48.1	19.3	0.00e+00	0	43	0	1063256064	63	4612
2026-01-27 02:57:28.68	272.19	18.11	-46.6	-48.1	19.3	0.00e+00	0	43	0	1070596096	63	4610
2026-01-27 02:57:32.71	271.64	17.72	-46.3	-47.8	19.6	0.00e+00	0	43	0	1078984704	63	4462
2026-01-27 02:57:36.74	271.11	17.32	-46.6	-48.1	19.2	0.00e+00	0	43	0	1086324736	63	4647
2026-01-27 02:57:40.77	270.60	16.94	-46.8	-48.4	18.8	0.00e+00	0	43	0	1093664768	64	4534
2026-01-27 02:57:44.80	270.10	16.55	-46.6	-48.1	19.1	0.00e+00	0	43	0	1101004800	64	4357
2026-01-27 02:57:48.83	269.61	16.17	-46.7	-48.3	18.9	0.00e+00	0	43	0	1108344832	64	4451
2026-01-27 02:57:52.87	269.13	15.79	-46.9	-48.5	18.6	0.00e+00	0	43	0	1116733440	64	4594
2026-01-27 02:57:56.90	268.67	15.42	-46.7	-48.3	18.8	0.00e+00	0	43	0	1124073472	64	4453
2026-01-27 02:58:00.93	268.22	15.05	-46.4	-47.9	19.3	0.00e+00	0	43	0	1131413504	64	4255
2026-01-27 02:58:04.96	267.77	14.69	-46.5	-48.1	19.0	0.00e+00	0	43	0	1138753536	64	4368
2026-01-27 02:58:08.99	267.34	14.32	-46.9	-48.6	18.5	0.00e+00	0	43	0	1147142144	64	4625
2026-01-27 02:58:13.02	266.92	13.97	-46.8	-48.5	18.6	0.00e+00	0	43	0	1154482176	64	4552
2026-01-27 02:58:17.05	266.51	13.61	-46.7	-48.3	18.8	0.00e+00	0	43	0	1161822208	64	4455
2026-01-27 02:58:21.06	266.12	13.26	-46.8	-48.5	18.6	0.00e+00	0	43	0	1169162240	64	4558
2026-01-27 02:58:25.09	265.73	12.92	-46.9	-48.6	18.4	0.00e+00	0	43	0	1176502272	64	4615
2026-01-27 02:58:29.12	265.35	12.57	-46.6	-48.2	18.8	0.00e+00	0	43	0	1183842304	64	4426
2026-01-27 02:58:33.16	264.97	12.23	-46.6	-48.2	18.7	0.00e+00	0	43	0	1192230912	64	4431
2026-01-27 02:58:37.20	264.61	11.89	-47.0	-48.7	18.3	0.00e+00	0	43	0	1199570944	64	4679
2026-01-27 02:58:41.23	264.25	11.56	-47.3	-49.1	17.9	0.00e+00	0	43	0	1206910976	65	4630
2026-01-27 02:58:45.26	263.91	11.23	-47.3	-49.2	17.7	0.00e+00	0	43	0	1214251008	65	4674
2026-01-27 02:58:49.29	263.57	10.90	-47.4	-49.3	17.7	0.00e+00	0	43	0	1222639616	65	4715
2026-01-27 02:58:53.32	263.24	10.58	-47.5	-49.5	17.4	0.00e+00	0	43	0	1229979648	65	4818
2026-01-27 02:58:57.35	262.92	10.26	-47.5	-49.5	17.4	0.00e+00	0	43	0	1237319680	65	4836
2026-01-27 02:59:01.38	262.60	9.95	-47.6	-49.6	17.2	0.00e+00	0	43	0	1244659712	66	4616
2026-01-27 02:59:05.41	262.29	9.63	-47.6	-49.6	17.2	0.00e+00	0	43	0	1251999744	66	4626
2026-01-27 02:59:09.44	261.99	9.32	-47.7	-49.7	17.0	0.00e+00	0	43	0	1260388352	66	4697
2026-01-27 02:59:13.48	261.69	9.01	-48.0	-50.2	16.6	0.00e+00	0	43	0	1267728384	66	4949
2026-01-27 02:59:17.50	261.40	8.71	-48.0	-50.3	16.5	0.00e+00	0	43	0	1275068416	66	4988
2026-01-27 02:59:21.53	261.12	8.41	-48.0	-50.2	16.5	0.00e+00	0	43	0	1282408448	66	4962
2026-01-27 02:59:25.55	260.84	8.11	-48.0	-50.2	16.5	0.00e+00	0	43	0	1289748480	66	4944
2026-01-27 02:59:29.58	260.57	7.82	-48.2	-50.5	16.2	0.00e+00	0	43	0	1298137088	66	5107
2026-01-27 02:59:33.61	260.31	7.52	-48.3	-50.8	15.9	0.00e+00	0	43	0	1305477120	67	4993
2026-01-27 02:59:37.63	260.05	7.23	-48.3	-50.8	15.8	0.00e+00	0	43	0	1312817152	67	5000
2026-01-27 02:59:41.66	259.79	6.95	-48.5	-51.1	15.5	0.00e+00	0	43	0	1320157184	67	5175
2026-01-27 02:59:45.69	259.54	6.66	-48.5	-51.1	15.4	0.00e+00	0	43	0	1327497216	67	5181
2026-01-27 02:59:49.72	259.30	6.38	-48.6	-51.3	15.1	0.00e+00	0	43	0	1335885824	67	5323
2026-01-27 02:59:53.75	259.06	6.10	-48.6	-51.4	15.1	0.00e+00	0	43	0	1343225856	67	5354
2026-01-27 02:59:57.78	258.82	5.82	-48.8	-51.5	14.9	0.00e+00	0	43	0	1350565888	68	5149
2026-01-27 03:00:01.81	258.59	5.55	-48.8	-51.6	14.8	0.00e+00	0	43	0	1357905920	68	5192
2026-01-27 03:00:05.83	258.37	5.27	-48.6	-51.3	15.1	7.00e-07	0	43	0	1365245952	68	4992
2026-01-27 03:00:09.86	258.15	5.00	-52.1	-63.9	4.2	7.00e-07	46	43	0	1373634560	74	15137
2026-01-27 03:00:13.89	257.93	4.74	-49.8	-64.7	3.8	1.49e+00	0	43	104	1373634560	71	19766
2026-01-27 03:00:17.92	257.72	4.47	-49.8	-64.7	3.8	1.49e+00	0	43	104	1373634560	71	19716
2026-01-27 03:00:21.95	257.51	4.21	-49.8	-64.7	3.8	1.49e+00	0	43	104	1373634560	71	19702
2026-01-27 03:00:25.97	257.30	3.95	-49.8	-64.7	3.8	1.49e+00	0	43	104	1373634560	71	19665
2026-01-27 03:00:30.01	257.10	3.69	-49.8	-64.7	3.8	1.49e+00	0	43	104	1373634560	71	19626
2026-01-27 03:00:34.05	256.90	3.43	-49.8	-64.7	3.8	1.49e+00	0	43	104	1373634560	71	19640
2026-01-27 03:00:38.08	256.71	3.18	-49.8	-64.7	3.8	1.49e+00	0	43	104	1373634560	71	19635
2026-01-27 03:00:42.12	256.52	2.92	-49.8	-64.7	3.8	1.49e+00	0	43	104	1373634560	71	19664
2026-01-27 03:00:46.15	256.33	2.67	-49.8	-64.6	3.8	1.49e+00	0	43	104	1373634560	71	19553
2026-01-27 03:00:50.19	256.15	2.42	-49.8	-64.6	3.8	1.49e+00	0	43	104	1373634560	71	19609
2026-01-27 03:00:54.22	255.97	2.18	-49.8	-64.7	3.8	1.49e+00	0	43	104	1373634560	71	19659
2026-01-27 03:00:58.25	255.79	1.93	-49.8	-64.7	3.8	1.49e+00	0	43	104	1373634560	71	19617

#Closed at: 2026-01-27 03:00:59
#Recorded file [1373 MB]: D:/lorett/data/31041_260127_054724.dat