passes_logs/2026/01/27/R3.2S_Murmansk/R3.2S_Murmansk__20260127_221748_KANOPUS-V_5_rec.log

#Pass ID: 20260127_221748_KANOPUS-V 5
#Satellite: KANOPUS-V 5
#Configuration: KANOPUS-V_8320
#almurnet v.1.7.20251203
#Start time: 2026-01-27 22:17:48

#Version: 2.2.20231116
#Station: R3.2S_Murmansk
#Location: 33.079688 lon 68.888172 lat
#TLE: 1 43876U 18111A   26027.32158080  .00005009  00000+0  21245-3 0  9994
#TLE: 2 43876  97.3675 295.6129 0001827  89.1739 270.9707 15.23558826393345

#Time	Az	El	Level	Level2	SNR	BER	BlckErr	Temp	State	Recorded	gain1	gain2
2026-01-27 22:17:48.58	20.73	2.00	-54.9	-63.8	3.8	7.47e-01	0	42	0	0	80	10564
2026-01-27 22:17:51.49	20.74	2.20	-55.0	-63.8	3.8	7.45e-01	0	42	104	0	80	10638
2026-01-27 22:17:54.40	20.75	2.41	-55.1	-63.9	3.8	7.44e-01	0	42	104	0	80	10702
2026-01-27 22:17:57.32	20.76	2.62	-55.1	-63.9	3.8	7.45e-01	0	42	104	0	80	10723
2026-01-27 22:18:00.23	20.77	2.83	-55.0	-63.8	3.8	7.43e-01	0	42	104	0	80	10603
2026-01-27 22:18:03.16	20.78	3.04	-54.9	-63.8	3.8	7.46e-01	0	42	104	0	80	10590
2026-01-27 22:18:06.07	20.78	3.26	-54.8	-63.6	3.8	7.47e-01	0	42	104	0	80	10405
2026-01-27 22:18:08.99	20.79	3.47	-54.5	-63.4	3.8	7.45e-01	0	42	104	0	80	10068
2026-01-27 22:18:11.90	20.80	3.69	-54.1	-63.0	3.8	7.45e-01	0	43	104	0	79	10202
2026-01-27 22:18:14.81	20.81	3.91	-53.2	-62.0	3.8	7.44e-01	0	43	104	0	78	9657
2026-01-27 22:18:17.72	20.82	4.14	-53.1	-62.0	3.8	7.45e-01	0	43	104	0	78	9621
2026-01-27 22:18:20.64	20.82	4.36	-53.1	-62.0	3.8	7.44e-01	0	43	104	0	78	9626
2026-01-27 22:18:23.55	20.83	4.59	-53.1	-61.9	3.8	7.45e-01	0	43	104	0	78	9602
2026-01-27 22:18:26.47	20.84	4.82	-53.1	-61.9	3.8	7.45e-01	0	43	104	0	78	9561
2026-01-27 22:18:29.38	20.85	5.06	-53.2	-62.0	3.8	7.44e-01	0	43	104	0	78	9686
2026-01-27 22:18:32.30	20.85	5.30	-53.0	-61.9	3.8	7.46e-01	0	43	104	0	78	9535
2026-01-27 22:18:35.21	20.86	5.54	-53.3	-62.1	3.8	7.45e-01	0	43	104	0	78	9752
2026-01-27 22:18:38.13	20.87	5.78	-53.2	-62.0	3.8	7.44e-01	0	43	104	0	78	9708
2026-01-27 22:18:41.04	20.88	6.02	-53.2	-62.1	3.8	7.45e-01	0	43	104	0	78	9721
2026-01-27 22:18:43.95	20.88	6.27	-53.2	-62.0	3.8	7.46e-01	0	43	104	0	78	9673
2026-01-27 22:18:46.86	20.89	6.53	-53.4	-62.2	3.8	7.47e-01	0	43	104	0	78	9891
2026-01-27 22:18:49.78	20.90	6.78	-53.3	-62.2	3.8	7.45e-01	0	43	104	0	78	9860
2026-01-27 22:18:52.69	20.90	7.04	-53.3	-62.1	3.8	7.46e-01	0	43	104	0	78	9830
2026-01-27 22:18:55.60	20.91	7.30	-53.4	-62.2	3.8	7.45e-01	0	43	104	0	78	9890
2026-01-27 22:18:58.51	20.92	7.57	-53.4	-62.3	3.8	7.46e-01	0	44	104	0	78	9993
2026-01-27 22:19:01.43	20.92	7.84	-53.4	-62.2	3.8	7.44e-01	0	44	104	0	78	9924
2026-01-27 22:19:04.34	20.93	8.11	-53.4	-62.2	3.8	7.43e-01	0	44	104	0	78	9937
2026-01-27 22:19:07.26	20.93	8.39	-53.5	-62.4	3.8	7.45e-01	0	43	104	0	78	10110
2026-01-27 22:19:10.17	20.94	8.68	-53.5	-62.3	3.8	7.44e-01	0	44	104	0	78	10031
2026-01-27 22:19:13.08	20.95	8.96	-53.5	-62.3	3.8	7.45e-01	0	43	104	0	78	10050
2026-01-27 22:19:16.00	20.95	9.26	-53.5	-62.3	3.8	7.46e-01	0	44	104	0	78	9977
2026-01-27 22:19:18.91	20.96	9.55	-53.6	-62.5	3.8	7.45e-01	0	44	104	0	78	10177
2026-01-27 22:19:21.82	20.96	9.85	-53.6	-62.4	3.8	7.46e-01	0	44	104	0	78	10116
2026-01-27 22:19:24.73	20.97	10.16	-53.6	-62.4	3.8	7.46e-01	0	44	104	0	78	10148
2026-01-27 22:19:27.65	20.97	10.47	-53.6	-62.5	3.8	7.46e-01	0	44	104	0	78	10188
2026-01-27 22:19:30.56	20.98	10.78	-53.7	-62.5	3.8	7.45e-01	0	44	104	0	78	10265
2026-01-27 22:19:33.48	20.98	11.11	-53.7	-62.5	3.8	7.44e-01	0	44	104	0	78	10189
2026-01-27 22:19:36.40	20.98	11.44	-53.7	-62.5	3.8	7.45e-01	0	44	104	0	78	10208
2026-01-27 22:19:39.31	20.99	11.77	-53.8	-62.6	3.8	7.44e-01	0	44	104	0	78	10333
2026-01-27 22:19:42.23	20.99	12.11	-53.7	-62.5	3.8	7.45e-01	0	44	104	0	78	10264
2026-01-27 22:19:45.15	20.99	12.46	-53.7	-62.6	3.8	7.43e-01	0	44	104	0	78	10314
2026-01-27 22:19:48.07	21.00	12.81	-53.7	-62.6	3.8	7.45e-01	0	44	104	0	78	10339
2026-01-27 22:19:50.99	21.00	13.17	-53.9	-62.7	3.8	7.44e-01	0	44	104	0	78	10451
2026-01-27 22:19:53.90	21.00	13.54	-53.8	-62.6	3.8	7.45e-01	0	44	104	0	78	10389
2026-01-27 22:19:56.80	21.00	13.91	-53.8	-62.6	3.8	7.47e-01	0	44	104	0	78	10409
2026-01-27 22:19:59.72	21.01	14.29	-53.8	-62.6	3.8	7.46e-01	0	44	104	0	78	10406
2026-01-27 22:20:02.63	21.01	14.68	-53.9	-62.7	3.8	7.44e-01	0	44	104	0	78	10517
2026-01-27 22:20:05.55	21.01	15.08	-53.9	-62.7	3.8	7.45e-01	0	44	104	0	78	10506
2026-01-27 22:20:08.46	21.01	15.49	-53.9	-62.7	3.8	7.45e-01	0	44	104	0	78	10475
2026-01-27 22:20:11.36	21.01	15.91	-54.0	-62.8	3.8	7.46e-01	0	44	104	0	78	10613
2026-01-27 22:20:14.28	21.01	16.33	-53.9	-62.8	3.8	7.45e-01	0	44	104	0	78	10550
2026-01-27 22:20:17.19	21.01	16.77	-53.9	-62.8	3.8	7.44e-01	0	44	104	0	78	10553
2026-01-27 22:20:20.10	21.01	17.21	-54.0	-62.8	3.8	7.48e-01	0	44	104	0	78	10568
2026-01-27 22:20:23.01	21.01	17.67	-54.0	-62.9	3.8	7.46e-01	0	44	104	0	78	10697
2026-01-27 22:20:25.93	21.01	18.14	-54.0	-62.8	3.8	7.45e-01	0	44	104	0	78	10615
2026-01-27 22:20:28.83	21.00	18.62	-54.0	-62.9	3.8	7.45e-01	0	44	104	0	78	10660
2026-01-27 22:20:31.75	21.00	19.11	-54.0	-62.8	3.8	7.46e-01	0	44	104	0	78	10641
2026-01-27 22:20:34.67	21.00	19.62	-54.1	-62.9	3.8	7.46e-01	0	44	104	0	78	10740
2026-01-27 22:20:37.58	20.99	20.13	-54.1	-62.9	3.8	7.45e-01	0	44	104	0	78	10707
2026-01-27 22:20:40.49	20.99	20.67	-54.1	-62.9	3.8	7.45e-01	0	44	104	0	78	10730
2026-01-27 22:20:43.41	20.99	21.21	-54.1	-62.9	3.8	7.44e-01	0	44	104	0	78	10754
2026-01-27 22:20:46.33	20.98	21.78	-54.1	-62.9	3.8	7.46e-01	0	44	104	0	78	10764
2026-01-27 22:20:49.25	20.97	22.36	-54.1	-63.0	3.8	7.46e-01	0	44	104	0	78	10804
2026-01-27 22:20:52.16	20.97	22.95	-54.1	-63.0	3.8	7.47e-01	0	44	104	0	78	10801
2026-01-27 22:20:55.07	20.96	23.57	-54.2	-63.0	3.8	7.46e-01	0	44	104	0	78	10865
2026-01-27 22:20:57.99	20.95	24.20	-54.2	-63.0	3.8	7.45e-01	0	44	104	0	78	10873
2026-01-27 22:21:00.91	20.94	24.85	-54.2	-63.0	3.8	7.45e-01	0	44	104	0	79	10268
2026-01-27 22:21:03.83	20.93	25.52	-54.2	-63.1	3.8	7.46e-01	0	44	104	0	79	10300
2026-01-27 22:21:06.75	20.91	26.22	-54.3	-63.1	3.8	7.47e-01	0	44	104	0	79	10365
2026-01-27 22:21:09.66	20.90	26.93	-54.3	-63.1	3.8	7.45e-01	0	44	104	0	79	10316
2026-01-27 22:21:12.57	20.88	27.67	-54.3	-63.1	3.8	7.45e-01	0	44	104	0	79	10360
2026-01-27 22:21:15.48	20.87	28.43	-54.3	-63.1	3.8	7.45e-01	0	44	104	0	79	10405
2026-01-27 22:21:18.41	20.85	29.23	-54.4	-63.2	3.8	7.46e-01	0	44	104	0	79	10441
2026-01-27 22:21:21.32	20.83	30.04	-54.3	-63.2	3.8	7.46e-01	0	44	104	0	79	10429
2026-01-27 22:21:24.23	20.81	30.89	-54.4	-63.2	3.8	7.45e-01	0	44	104	0	79	10448
2026-01-27 22:21:27.15	20.79	31.77	-54.4	-63.3	3.8	7.45e-01	0	44	104	0	79	10553
2026-01-27 22:21:30.06	20.76	32.68	-54.4	-63.2	3.8	7.46e-01	0	44	104	0	79	10521
2026-01-27 22:21:32.98	20.73	33.62	-54.4	-63.3	3.8	7.46e-01	0	44	104	0	79	10550
2026-01-27 22:21:35.88	20.70	34.59	-54.4	-63.3	3.8	7.45e-01	0	44	104	0	79	10542
2026-01-27 22:21:38.81	20.67	35.61	-54.5	-63.4	3.8	7.44e-01	0	44	104	0	79	10658
2026-01-27 22:21:41.72	20.63	36.67	-54.5	-63.3	3.8	7.46e-01	0	44	104	0	79	10637
2026-01-27 22:21:44.63	20.59	37.76	-54.5	-63.3	3.8	7.44e-01	0	44	104	0	79	10602
2026-01-27 22:21:47.55	20.55	38.90	-54.5	-63.4	3.8	7.45e-01	0	44	104	0	79	10675
2026-01-27 22:21:50.46	20.50	40.08	-54.6	-63.4	3.8	7.47e-01	0	44	104	0	79	10766
2026-01-27 22:21:53.38	20.45	41.31	-54.6	-63.4	3.8	7.45e-01	0	44	104	0	79	10736
2026-01-27 22:21:56.29	20.39	42.59	-54.6	-63.4	3.8	7.45e-01	0	44	104	0	79	10728
2026-01-27 22:21:59.21	20.32	43.92	-54.7	-63.5	3.8	7.46e-01	0	44	104	0	79	10815
2026-01-27 22:22:02.12	20.25	45.30	-54.7	-63.5	3.8	7.44e-01	0	44	104	0	79	10847
2026-01-27 22:22:05.04	20.17	46.74	-54.7	-63.5	3.8	7.44e-01	0	44	104	0	79	10827
2026-01-27 22:22:07.95	20.08	48.24	-54.7	-63.5	3.8	7.48e-01	0	44	104	0	79	10813
2026-01-27 22:22:10.86	19.99	49.80	-54.7	-63.5	3.8	7.46e-01	0	44	104	0	80	10245
2026-01-27 22:22:13.78	19.87	51.42	-54.7	-63.5	3.8	7.46e-01	0	44	104	0	80	10236
2026-01-27 22:22:16.70	19.75	53.10	-54.7	-63.6	3.8	7.44e-01	0	44	104	0	80	10300
2026-01-27 22:22:19.62	19.60	54.86	-54.7	-63.5	3.8	7.46e-01	0	44	104	0	80	10287
2026-01-27 22:22:22.53	19.43	56.67	-54.8	-63.6	3.8	7.45e-01	0	44	104	0	80	10328
2026-01-27 22:22:25.44	19.24	58.55	-54.7	-63.6	3.8	7.45e-01	0	44	104	0	80	10306
2026-01-27 22:22:28.36	19.02	60.50	-54.7	-63.6	3.8	7.46e-01	0	44	104	0	80	10329
2026-01-27 22:22:31.27	18.75	62.51	-54.8	-63.6	3.8	7.46e-01	0	44	104	0	80	10359
2026-01-27 22:22:34.19	18.44	64.60	-54.8	-63.6	3.8	7.45e-01	0	44	104	0	80	10388
2026-01-27 22:22:37.10	18.05	66.74	-54.8	-63.6	3.8	7.44e-01	0	44	104	0	80	10382
2026-01-27 22:22:40.02	17.58	68.95	-54.8	-63.7	3.8	7.45e-01	0	44	104	0	80	10449
2026-01-27 22:22:42.95	16.97	71.22	-54.9	-63.7	3.8	7.46e-01	0	44	104	0	80	10491
2026-01-27 22:22:45.86	16.19	73.53	-54.9	-63.8	3.8	7.45e-01	0	44	104	0	80	10543
2026-01-27 22:22:48.77	15.12	75.89	-54.9	-63.7	3.8	7.46e-01	0	44	104	0	80	10533
2026-01-27 22:22:51.68	13.60	78.29	-54.9	-63.7	3.8	7.45e-01	0	44	104	0	80	10522
2026-01-27 22:22:54.60	11.25	80.72	-55.0	-63.8	3.8	7.46e-01	0	44	104	0	80	10601
2026-01-27 22:22:57.52	7.19	83.15	-55.0	-63.8	3.8	7.46e-01	0	44	104	0	80	10559
2026-01-27 22:23:00.43	358.72	85.52	-54.9	-63.7	3.8	7.44e-01	0	44	104	0	80	10531
2026-01-27 22:23:03.34	333.60	87.61	-55.0	-63.8	3.8	7.45e-01	0	44	104	0	80	10611
2026-01-27 22:23:06.26	264.17	87.96	-55.0	-63.9	3.8	7.46e-01	0	44	104	0	80	10657
2026-01-27 22:23:09.18	229.55	86.06	-55.0	-63.9	3.8	7.46e-01	0	44	104	0	80	10662
2026-01-27 22:23:12.10	218.97	83.71	-55.0	-63.8	3.8	7.45e-01	0	44	104	0	80	10612
2026-01-27 22:23:15.02	214.24	81.28	-55.0	-63.9	3.8	7.47e-01	0	44	104	0	80	10714
2026-01-27 22:23:17.93	211.61	78.86	-55.1	-63.9	3.8	7.44e-01	0	44	104	0	80	10708
2026-01-27 22:23:20.85	209.94	76.44	-55.0	-63.9	3.8	7.45e-01	0	44	104	0	80	10688
2026-01-27 22:23:23.76	208.78	74.07	-55.0	-63.9	3.8	7.46e-01	0	44	104	0	80	10665
2026-01-27 22:23:26.67	207.94	71.75	-55.1	-63.9	3.8	7.44e-01	0	44	104	0	80	10692
2026-01-27 22:23:29.60	207.30	69.45	-55.0	-63.8	3.8	7.45e-01	0	44	104	0	80	10636
2026-01-27 22:23:32.52	206.80	67.23	-55.0	-63.8	3.8	7.46e-01	0	44	104	0	80	10650
2026-01-27 22:23:35.42	206.40	65.07	-55.0	-63.8	3.8	7.45e-01	0	44	104	0	80	10603
2026-01-27 22:23:38.35	206.07	62.96	-55.0	-63.8	3.8	7.44e-01	0	44	104	0	80	10593
2026-01-27 22:23:41.26	205.79	60.93	-55.0	-63.8	3.8	7.45e-01	0	44	104	0	80	10567
2026-01-27 22:23:44.17	205.56	58.97	-54.9	-63.7	3.8	7.46e-01	0	44	104	0	80	10520
2026-01-27 22:23:47.10	205.36	57.06	-54.9	-63.8	3.8	7.47e-01	0	44	104	0	80	10547
2026-01-27 22:23:50.01	205.19	55.22	-54.9	-63.7	3.8	7.44e-01	0	44	104	0	80	10509
2026-01-27 22:23:52.92	205.04	53.46	-54.8	-63.7	3.8	7.46e-01	0	44	104	0	80	10429
2026-01-27 22:23:55.84	204.90	51.75	-54.8	-63.7	3.8	7.46e-01	0	44	104	0	80	10430
2026-01-27 22:23:58.77	204.79	50.11	-54.8	-63.7	3.8	7.44e-01	0	44	104	0	80	10419
2026-01-27 22:24:01.69	204.69	48.53	-54.8	-63.6	3.8	7.44e-01	0	44	104	0	80	10357
2026-01-27 22:24:04.60	204.59	47.01	-54.7	-63.6	3.8	7.46e-01	0	44	104	0	80	10329
2026-01-27 22:24:07.52	204.51	45.56	-54.7	-63.5	3.8	7.46e-01	0	44	104	0	80	10282
2026-01-27 22:24:10.44	204.44	44.15	-54.7	-63.5	3.8	7.44e-01	0	44	104	0	80	10278
2026-01-27 22:24:13.35	204.37	42.81	-54.7	-63.5	3.8	7.46e-01	0	44	104	0	80	10245
2026-01-27 22:24:16.27	204.31	41.51	-54.6	-63.5	3.8	7.44e-01	0	44	104	0	80	10183
2026-01-27 22:24:19.19	204.26	40.27	-54.6	-63.4	3.8	7.44e-01	0	44	104	0	80	10149
2026-01-27 22:24:22.10	204.21	39.07	-54.6	-63.4	3.8	7.46e-01	0	44	104	0	80	10159
2026-01-27 22:24:25.01	204.16	37.93	-54.5	-63.4	3.8	7.47e-01	0	44	104	0	80	10113
2026-01-27 22:24:27.93	204.12	36.82	-54.5	-63.4	3.8	7.46e-01	0	44	104	0	80	10084
2026-01-27 22:24:30.84	204.08	35.75	-54.5	-63.4	3.8	7.45e-01	0	44	104	0	80	10099
2026-01-27 22:24:33.76	204.05	34.73	-54.5	-63.3	3.8	7.47e-01	0	44	104	0	80	10040
2026-01-27 22:24:36.67	204.02	33.74	-54.5	-63.3	3.8	7.45e-01	0	44	104	0	80	10028
2026-01-27 22:24:39.59	203.99	32.78	-54.5	-63.3	3.8	7.46e-01	0	44	104	0	80	9980
2026-01-27 22:24:42.49	203.96	31.87	-54.4	-63.3	3.8	7.44e-01	0	44	104	0	80	9968
2026-01-27 22:24:45.41	203.94	30.98	-54.4	-63.2	3.8	7.47e-01	0	44	104	0	80	9912
2026-01-27 22:24:48.33	203.91	30.13	-54.4	-63.2	3.8	7.46e-01	0	44	104	0	80	9880
2026-01-27 22:24:51.25	203.89	29.30	-54.4	-63.2	3.8	7.43e-01	0	44	104	0	80	9872
2026-01-27 22:24:54.16	203.87	28.50	-54.3	-63.2	3.8	7.46e-01	0	44	104	0	80	9886
2026-01-27 22:24:57.07	203.86	27.73	-54.3	-63.1	3.8	7.45e-01	0	44	104	0	80	9814
2026-01-27 22:24:59.98	203.84	26.99	-54.3	-63.1	3.8	7.46e-01	0	44	104	0	80	9788
2026-01-27 22:25:02.90	203.83	26.26	-54.2	-63.1	3.8	7.46e-01	0	44	104	0	80	9769
2026-01-27 22:25:05.82	203.81	25.56	-54.2	-63.1	3.8	7.46e-01	0	44	104	0	80	9748
2026-01-27 22:25:08.75	203.80	24.88	-54.2	-63.0	3.8	7.46e-01	0	44	104	0	80	9685
2026-01-27 22:25:11.67	203.79	24.22	-54.2	-63.0	3.8	7.44e-01	0	44	104	0	80	9679
2026-01-27 22:25:14.58	203.78	23.59	-54.1	-63.0	3.8	7.46e-01	0	44	104	0	80	9658
2026-01-27 22:25:17.49	203.77	22.97	-54.1	-63.0	3.8	7.46e-01	0	44	104	0	80	9621
2026-01-27 22:25:20.40	203.76	22.37	-54.1	-63.0	3.8	7.44e-01	0	44	104	0	80	9619
2026-01-27 22:25:23.32	203.75	21.78	-54.1	-62.9	3.8	7.46e-01	0	44	104	0	80	9580
2026-01-27 22:25:26.24	203.75	21.22	-54.1	-62.9	3.8	7.45e-01	0	44	104	0	80	9543
2026-01-27 22:25:29.15	203.74	20.67	-54.0	-62.9	3.8	7.45e-01	0	44	104	0	80	9525
2026-01-27 22:25:32.07	203.74	20.13	-54.0	-62.9	3.8	7.46e-01	0	44	104	0	80	9523
2026-01-27 22:25:34.98	203.73	19.61	-54.0	-62.8	3.8	7.46e-01	0	44	104	0	80	9492
2026-01-27 22:25:37.90	203.73	19.10	-54.0	-62.9	3.8	7.46e-01	0	44	104	0	79	10094
2026-01-27 22:25:40.81	203.72	18.60	-54.0	-62.9	3.8	7.46e-01	0	44	104	0	79	10071
2026-01-27 22:25:43.73	203.72	18.12	-54.0	-62.9	3.8	7.46e-01	0	44	104	0	79	10087
2026-01-27 22:25:46.64	203.72	17.64	-54.0	-62.8	3.8	7.45e-01	0	44	104	0	79	10051
2026-01-27 22:25:49.55	203.71	17.19	-53.9	-62.8	3.8	7.46e-01	0	44	104	0	79	9982
2026-01-27 22:25:52.47	203.71	16.73	-53.9	-62.8	3.8	7.45e-01	0	44	104	0	79	9993
2026-01-27 22:25:55.39	203.71	16.29	-53.9	-62.7	3.8	7.43e-01	0	44	104	0	79	9929
2026-01-27 22:25:58.30	203.71	15.87	-53.9	-62.7	3.8	7.46e-01	0	44	104	0	79	9933
2026-01-27 22:26:01.22	203.71	15.45	-53.9	-62.7	3.8	7.47e-01	0	44	104	0	79	9888
2026-01-27 22:26:04.13	203.71	15.04	-53.9	-62.7	3.8	7.45e-01	0	44	104	0	79	9870
2026-01-27 22:26:07.04	203.71	14.64	-53.8	-62.7	3.8	7.46e-01	0	44	104	0	79	9843
2026-01-27 22:26:09.95	203.71	14.24	-53.8	-62.6	3.8	7.45e-01	0	44	104	0	79	9800
2026-01-27 22:26:12.87	203.71	13.86	-53.8	-62.6	3.8	7.46e-01	0	44	104	0	79	9787
2026-01-27 22:26:15.78	203.71	13.48	-53.8	-62.6	3.8	7.47e-01	0	44	104	0	79	9809
2026-01-27 22:26:18.69	203.71	13.11	-53.8	-62.6	3.8	7.45e-01	0	44	104	0	79	9798
2026-01-27 22:26:21.61	203.71	12.75	-53.7	-62.6	3.8	7.45e-01	0	44	104	0	79	9722
2026-01-27 22:26:24.52	203.72	12.40	-53.7	-62.6	3.8	7.45e-01	0	44	104	0	79	9725
2026-01-27 22:26:27.43	203.72	12.05	-53.7	-62.5	3.8	7.45e-01	0	44	104	0	79	9700
2026-01-27 22:26:30.35	203.72	11.71	-53.7	-62.5	3.8	7.45e-01	0	44	104	0	79	9678
2026-01-27 22:26:33.27	203.72	11.37	-53.7	-62.4	3.8	7.45e-01	0	44	104	0	79	9604
2026-01-27 22:26:36.18	203.73	11.04	-53.7	-62.5	3.8	7.45e-01	0	44	104	0	79	9667
2026-01-27 22:26:39.10	203.73	10.72	-53.6	-62.4	3.8	7.46e-01	0	44	104	0	79	9578
2026-01-27 22:26:42.00	203.73	10.40	-53.6	-62.4	3.8	7.46e-01	0	44	104	0	79	9567
2026-01-27 22:26:44.91	203.73	10.09	-53.6	-62.4	3.8	7.46e-01	0	44	104	0	79	9528
2026-01-27 22:26:47.83	203.74	9.78	-53.6	-62.4	3.8	7.44e-01	0	44	104	0	79	9571
2026-01-27 22:26:50.75	203.74	9.48	-53.5	-62.3	3.8	7.44e-01	0	44	104	0	79	9454
2026-01-27 22:26:53.67	203.75	9.18	-53.5	-62.3	3.8	7.44e-01	0	44	104	0	79	9436
2026-01-27 22:26:56.59	203.75	8.88	-53.4	-62.3	3.8	7.44e-01	0	44	104	0	78	9965
2026-01-27 22:26:59.50	203.75	8.60	-53.4	-62.3	3.8	7.45e-01	0	44	104	0	78	9995
2026-01-27 22:27:02.41	203.76	8.31	-53.4	-62.2	3.8	7.47e-01	0	44	104	0	78	9899
2026-01-27 22:27:05.32	203.76	8.03	-53.4	-62.2	3.8	7.44e-01	0	44	104	0	78	9844
2026-01-27 22:27:08.23	203.77	7.76	-53.4	-62.2	3.8	7.44e-01	0	44	104	0	78	9899
2026-01-27 22:27:11.15	203.77	7.49	-53.3	-62.1	3.8	7.46e-01	0	44	104	0	78	9782
2026-01-27 22:27:14.07	203.78	7.22	-53.3	-62.1	3.8	7.44e-01	0	44	104	0	78	9778
2026-01-27 22:27:16.98	203.78	6.95	-53.2	-62.1	3.8	7.46e-01	0	44	104	0	78	9730
2026-01-27 22:27:19.89	203.79	6.69	-53.3	-62.1	3.8	7.45e-01	0	44	104	0	78	9787
2026-01-27 22:27:22.81	203.79	6.44	-53.1	-61.9	3.8	7.45e-01	0	44	104	0	78	9582
2026-01-27 22:27:25.71	203.80	6.18	-53.1	-62.0	3.8	7.45e-01	0	44	104	0	78	9625
2026-01-27 22:27:28.63	203.80	5.93	-53.1	-61.9	3.8	7.46e-01	0	44	104	0	78	9579
2026-01-27 22:27:31.53	203.81	5.69	-53.1	-61.9	3.8	7.46e-01	0	44	104	0	78	9587
2026-01-27 22:27:34.46	203.81	5.44	-53.0	-61.8	3.8	7.46e-01	0	44	104	0	78	9458
2026-01-27 22:27:37.37	203.82	5.20	-52.9	-61.8	3.8	7.45e-01	0	44	104	0	77	9974
2026-01-27 22:27:40.29	203.82	4.96	-53.3	-62.1	3.8	7.46e-01	0	44	104	0	77	10328
2026-01-27 22:27:43.20	203.83	4.73	-54.1	-62.9	3.8	7.44e-01	0	44	104	0	78	10732
2026-01-27 22:27:46.11	203.84	4.49	-54.5	-63.3	3.8	7.45e-01	0	44	104	0	79	10598
2026-01-27 22:27:49.03	203.84	4.26	-54.7	-63.5	3.8	7.44e-01	0	44	104	0	79	10842
2026-01-27 22:27:51.94	203.85	4.04	-54.8	-63.6	3.8	7.46e-01	0	44	104	0	80	10329
2026-01-27 22:27:54.85	203.85	3.81	-54.9	-63.7	3.8	7.44e-01	0	44	104	0	80	10447
2026-01-27 22:27:57.76	203.86	3.59	-54.9	-63.7	3.8	7.46e-01	0	44	104	0	80	10519
2026-01-27 22:28:00.68	203.87	3.37	-54.9	-63.7	3.8	7.47e-01	0	44	104	0	80	10521
2026-01-27 22:28:03.60	203.87	3.15	-54.7	-63.6	3.8	7.47e-01	0	44	104	0	80	10306
2026-01-27 22:28:06.50	203.88	2.94	-54.4	-63.2	3.8	7.45e-01	0	44	104	0	80	9872
2026-01-27 22:28:09.42	203.89	2.73	-54.2	-63.1	3.8	7.45e-01	0	44	104	0	80	9738
2026-01-27 22:28:12.34	203.89	2.51	-54.2	-63.0	3.8	7.44e-01	0	44	104	0	80	9710
2026-01-27 22:28:15.25	203.90	2.31	-54.2	-63.0	3.8	7.45e-01	0	44	104	0	80	9711
2026-01-27 22:28:18.17	203.91	2.10	-54.2	-63.0	3.8	7.45e-01	0	44	104	0	80	9681

#Closed at: 2026-01-27 22:28:20
#Recorded file [0 MB]: D:/lorett/data/31041_260128_011748.dat