passes_logs/2026/01/27/R3.2S_Murmansk/R3.2S_Murmansk__20260127_075605_KANOPUS-V_5_rec.log

#Pass ID: 20260127_075605_KANOPUS-V 5
#Satellite: KANOPUS-V 5
#Configuration: KANOPUS-V_8320
#almurnet v.1.7.20251203
#Start time: 2026-01-27 07:56:06

#Version: 2.2.20231116
#Station: R3.2S_Murmansk
#Location: 33.079688 lon 68.888172 lat
#TLE: 1 43876U 18111A   26026.53344362  .00004964  00000+0  21063-3 0  9993
#TLE: 2 43876  97.3674 294.8392 0001826  89.2862 270.8585 15.23550007393227

#Time	Az	El	Level	Level2	SNR	BER	BlckErr	Temp	State	Recorded	gain1	gain2
2026-01-27 07:56:06.27	164.00	2.07	-54.9	-63.7	3.8	7.45e-01	0	41	0	0	80	10522
2026-01-27 07:56:09.29	164.05	2.29	-54.9	-63.7	3.8	7.45e-01	0	41	104	0	80	10498
2026-01-27 07:56:12.32	164.09	2.50	-55.1	-63.9	3.8	7.46e-01	0	41	104	0	80	10735
2026-01-27 07:56:15.34	164.15	2.72	-55.1	-63.9	3.8	7.44e-01	0	41	104	0	80	10725
2026-01-27 07:56:18.36	164.20	2.94	-55.0	-63.8	3.8	7.45e-01	0	42	104	0	80	10610
2026-01-27 07:56:21.39	164.25	3.17	-54.9	-63.7	3.8	7.45e-01	0	42	104	0	80	10515
2026-01-27 07:56:24.41	164.30	3.39	-54.7	-63.6	3.8	7.44e-01	0	42	104	0	80	10305
2026-01-27 07:56:27.43	164.35	3.62	-54.5	-63.4	3.8	7.46e-01	0	42	104	0	80	10076
2026-01-27 07:56:30.45	164.41	3.85	-54.3	-63.1	3.8	7.45e-01	0	42	104	0	80	9763
2026-01-27 07:56:33.48	164.46	4.08	-53.7	-62.4	3.8	7.45e-01	0	42	104	0	79	9572
2026-01-27 07:56:36.50	164.52	4.32	-50.4	-54.2	7.0	6.63e-01	0	42	0	0	72	5546
2026-01-27 07:56:39.52	164.58	4.55	-47.5	-50.0	11.0	6.18e-01	0	42	0	27262976	67	4584
2026-01-27 07:56:42.54	164.64	4.79	-45.7	-47.9	13.0	6.11e-01	0	42	0	73400320	63	4501
2026-01-27 07:56:45.57	164.70	5.04	-45.8	-47.9	13.0	6.11e-01	0	42	0	121634816	63	4545
2026-01-27 07:56:48.59	164.76	5.29	-45.9	-48.1	12.8	6.11e-01	0	42	0	167772160	63	4639
2026-01-27 07:56:51.62	164.82	5.54	-48.7	-51.6	9.3	6.31e-01	0	42	0	213909504	69	4906
2026-01-27 07:56:54.64	164.88	5.79	-46.4	-48.9	12.2	5.88e-01	0	42	0	260046848	64	4764
2026-01-27 07:56:57.66	164.94	6.05	-45.6	-48.0	13.1	5.87e-01	0	42	0	304087040	63	4546
2026-01-27 07:57:00.68	165.01	6.31	-44.9	-47.1	13.9	5.86e-01	0	43	0	352321536	61	4634
2026-01-27 07:57:03.71	165.07	6.57	-44.9	-47.1	13.9	5.85e-01	0	42	0	398458880	61	4638
2026-01-27 07:57:06.73	165.14	6.84	-44.8	-47.0	14.1	5.85e-01	0	42	0	444596224	61	4559
2026-01-27 07:57:09.76	165.21	7.11	-44.7	-46.9	14.2	5.85e-01	0	42	0	490733568	61	4531
2026-01-27 07:57:12.78	165.28	7.38	-44.4	-46.5	14.5	5.85e-01	0	43	0	538968064	60	4596
2026-01-27 07:57:15.81	165.35	7.66	-44.4	-46.6	14.5	5.84e-01	0	42	0	585105408	60	4622
2026-01-27 07:57:18.82	165.42	7.94	-44.4	-46.5	14.6	5.84e-01	0	43	0	631242752	60	4574
2026-01-27 07:57:21.85	165.50	8.23	-44.1	-46.2	14.8	5.98e-01	0	43	0	677380096	60	4415
2026-01-27 07:57:24.88	165.58	8.53	-44.1	-46.2	14.8	6.01e-01	0	43	0	723517440	60	4441
2026-01-27 07:57:27.90	165.65	8.82	-44.2	-46.3	14.8	5.98e-01	0	43	0	769654784	59	4716
2026-01-27 07:57:30.92	165.73	9.12	-43.9	-46.1	15.0	5.98e-01	0	43	0	815792128	59	4600
2026-01-27 07:57:33.93	165.81	9.43	-44.0	-46.1	14.9	5.99e-01	0	43	0	861929472	59	4628
2026-01-27 07:57:36.95	165.90	9.74	-43.8	-45.9	15.1	6.00e-01	0	43	0	908066816	59	4519
2026-01-27 07:57:39.97	165.98	10.06	-43.9	-46.0	15.1	5.99e-01	0	43	0	956301312	59	4565
2026-01-27 07:57:42.98	166.07	10.38	-43.7	-45.8	15.2	6.00e-01	0	43	0	1002438656	59	4468
2026-01-27 07:57:46.00	166.16	10.70	-43.5	-45.6	15.4	5.99e-01	0	43	0	1048576000	59	4370
2026-01-27 07:57:49.01	166.25	11.04	-43.4	-45.5	15.5	5.97e-01	0	43	0	1094713344	58	4571
2026-01-27 07:57:52.03	166.34	11.38	-43.3	-45.4	15.6	6.00e-01	0	43	0	1140850688	58	4531
2026-01-27 07:57:55.04	166.44	11.72	-43.4	-45.5	15.5	5.99e-01	0	43	0	1186988032	58	4577
2026-01-27 07:57:58.06	166.54	12.07	-43.2	-45.3	15.7	5.98e-01	0	43	0	1233125376	58	4454
2026-01-27 07:58:01.07	166.64	12.43	-43.0	-45.0	16.0	6.02e-01	0	43	0	1281359872	58	4338
2026-01-27 07:58:04.09	166.74	12.80	-42.8	-44.8	16.1	6.01e-01	0	43	0	1327497216	57	4474
2026-01-27 07:58:07.11	166.85	13.17	-42.6	-44.6	16.3	5.99e-01	0	43	0	1373634560	57	4370
2026-01-27 07:58:10.13	166.96	13.55	-42.4	-44.4	16.5	6.04e-01	0	43	0	1419771904	56	4511
2026-01-27 07:58:13.15	167.07	13.94	-42.2	-44.2	16.6	6.04e-01	0	43	0	1463812096	56	4406
2026-01-27 07:58:16.17	167.19	14.34	-42.1	-44.0	16.9	6.04e-01	0	43	0	1512046592	55	4595
2026-01-27 07:58:19.19	167.30	14.74	-41.8	-43.8	17.1	6.01e-01	0	43	0	1558183936	55	4470
2026-01-27 07:58:22.21	167.43	15.16	-41.8	-43.8	17.2	5.97e-01	0	43	0	1604321280	55	4456
2026-01-27 07:58:25.23	167.55	15.58	-41.8	-43.8	17.2	5.98e-01	0	43	0	1650458624	55	4442
2026-01-27 07:58:28.26	167.69	16.02	-41.7	-43.7	17.3	5.95e-01	0	43	0	1696595968	55	4404
2026-01-27 07:58:31.28	167.82	16.47	-41.3	-43.3	17.5	5.98e-01	0	43	0	1744830464	54	4481
2026-01-27 07:58:34.30	167.96	16.92	-41.1	-43.1	17.7	5.97e-01	0	43	0	1790967808	54	4364
2026-01-27 07:58:37.31	168.10	17.39	-41.2	-43.2	17.7	5.97e-01	0	43	0	1837105152	54	4407
2026-01-27 07:58:40.33	168.25	17.86	-41.2	-43.2	17.6	5.94e-01	0	43	0	1883242496	54	4402
2026-01-27 07:58:43.36	168.41	18.35	-41.2	-43.2	17.7	5.98e-01	0	43	0	1929379840	54	4399
2026-01-27 07:58:46.38	168.57	18.86	-41.2	-43.1	17.7	6.00e-01	0	43	0	1975517184	54	4384
2026-01-27 07:58:49.40	168.73	19.37	-40.8	-42.7	17.9	5.98e-01	0	43	0	2021654528	53	4432
2026-01-27 07:58:52.41	168.90	19.90	-40.6	-42.4	18.2	5.95e-01	0	43	0	2067791872	53	4284
2026-01-27 07:58:55.44	169.08	20.45	-40.4	-42.2	18.4	5.96e-01	0	43	0	2113929216	52	4413
2026-01-27 07:58:58.45	169.27	21.00	-40.1	-41.8	18.7	6.01e-01	0	43	0	2160066560	52	4228
2026-01-27 07:59:01.47	169.46	21.58	-40.2	-41.9	18.7	6.00e-01	0	43	0	2208301056	51	4506
2026-01-27 07:59:04.49	169.66	22.17	-40.2	-42.0	18.6	5.97e-01	0	43	0	2254438400	51	4552
2026-01-27 07:59:07.51	169.87	22.78	-40.4	-42.2	18.4	5.96e-01	0	44	0	2300575744	51	4664
2026-01-27 07:59:10.53	170.09	23.41	-40.3	-42.2	18.5	5.95e-01	0	43	0	2346713088	51	4655
2026-01-27 07:59:13.55	170.31	24.05	-40.3	-42.1	18.5	5.97e-01	0	43	0	2392850432	51	4650
2026-01-27 07:59:16.57	170.55	24.72	-40.1	-41.8	18.7	5.97e-01	0	43	0	2441084928	51	4483
2026-01-27 07:59:19.59	170.80	25.40	-40.1	-41.8	18.8	5.96e-01	0	43	0	2487222272	51	4460
2026-01-27 07:59:22.61	171.06	26.11	-40.3	-42.0	18.6	5.96e-01	0	43	0	2533359616	51	4559
2026-01-27 07:59:25.62	171.33	26.84	-40.4	-42.1	18.5	5.95e-01	0	44	0	2579496960	51	4650
2026-01-27 07:59:28.64	171.62	27.60	-40.4	-42.2	18.4	5.98e-01	0	43	0	2623537152	51	4696
2026-01-27 07:59:31.67	171.92	28.38	-40.4	-42.1	18.5	5.99e-01	0	43	0	2671771648	51	4644
2026-01-27 07:59:34.70	172.24	29.19	-40.2	-41.8	18.7	5.98e-01	0	43	0	2717908992	51	4490
2026-01-27 07:59:37.72	172.58	30.02	-40.3	-42.0	18.6	5.97e-01	0	43	0	2764046336	51	4584
2026-01-27 07:59:40.74	172.93	30.89	-40.6	-42.4	18.4	5.96e-01	0	43	0	2810183680	51	4781
2026-01-27 07:59:43.77	173.31	31.78	-40.4	-42.3	18.4	6.05e-01	0	44	0	2858418176	51	4749
2026-01-27 07:59:46.79	173.70	32.71	-40.3	-42.2	18.5	5.84e-01	0	43	0	2904555520	51	4674
2026-01-27 07:59:49.81	174.13	33.67	-40.1	-42.0	18.7	5.83e-01	0	44	0	2950692864	51	4570
2026-01-27 07:59:52.84	174.58	34.66	-39.9	-41.8	18.8	5.84e-01	0	43	0	2996830208	51	4490
2026-01-27 07:59:55.86	175.06	35.69	-39.4	-41.3	19.1	5.84e-01	0	43	0	3042967552	50	4493
2026-01-27 07:59:58.89	175.57	36.76	-39.3	-41.5	19.0	5.84e-01	0	43	0	3089104896	50	4567
2026-01-27 08:00:01.91	176.12	37.87	-39.1	-41.4	19.1	5.84e-01	0	43	0	3135242240	50	4524
2026-01-27 08:00:04.94	176.71	39.02	-38.6	-40.9	19.3	6.02e-01	0	44	0	3181379584	49	4503
2026-01-27 08:00:07.96	177.35	40.21	-38.4	-40.6	19.4	6.05e-01	0	44	0	3227516928	48	4643
2026-01-27 08:00:10.99	178.03	41.45	-36.6	-38.6	19.6	6.03e-01	0	43	0	3275751424	45	4362
2026-01-27 08:00:14.01	178.78	42.72	-36.6	-38.7	19.5	6.03e-01	0	43	0	3321888768	45	4436
2026-01-27 08:00:17.03	179.58	44.04	-36.3	-38.4	19.8	6.05e-01	0	43	0	3368026112	44	4517
2026-01-27 08:00:20.05	180.46	45.41	-36.2	-38.4	19.8	6.05e-01	0	43	0	3414163456	44	4524
2026-01-27 08:00:23.08	181.43	46.83	-36.2	-38.1	19.8	6.00e-01	0	43	0	3462397952	44	4368
2026-01-27 08:00:26.10	182.48	48.29	-36.3	-38.4	19.8	6.00e-01	0	44	0	3508535296	44	4494
2026-01-27 08:00:29.12	183.65	49.80	-36.5	-38.5	19.7	6.00e-01	0	43	0	3554672640	44	4550
2026-01-27 08:00:32.15	184.94	51.35	-36.8	-39.0	19.4	6.02e-01	0	43	0	3600809984	44	4835
2026-01-27 08:00:35.18	186.38	52.95	-37.3	-39.5	19.1	6.01e-01	0	44	0	3646947328	45	4830
2026-01-27 08:00:38.21	187.99	54.58	-37.6	-39.7	19.0	6.00e-01	0	43	0	3693084672	45	4975
2026-01-27 08:00:41.24	189.80	56.25	-37.4	-39.4	19.2	6.01e-01	0	43	0	3739222016	45	4760
2026-01-27 08:00:44.26	191.83	57.93	-37.7	-39.7	19.1	6.01e-01	0	43	0	3785359360	45	4966
2026-01-27 08:00:47.28	194.15	59.64	-37.9	-39.8	19.0	5.99e-01	0	43	0	3833593856	46	4714
2026-01-27 08:00:50.31	196.80	61.35	-37.8	-39.9	19.0	5.98e-01	0	44	0	3879731200	47	4512
2026-01-27 08:00:53.33	199.83	63.04	-37.8	-39.7	19.1	6.00e-01	0	44	0	3925868544	47	4396
2026-01-27 08:00:56.34	203.31	64.70	-37.7	-39.9	19.0	5.99e-01	0	44	0	3972005888	46	4782
2026-01-27 08:00:59.37	207.36	66.31	-37.3	-39.3	19.3	5.97e-01	0	43	0	4020240384	46	4472
2026-01-27 08:01:02.40	212.05	67.83	-37.1	-39.2	19.4	5.99e-01	0	44	0	4064280576	45	4672
2026-01-27 08:01:05.42	217.44	69.21	-37.2	-39.6	19.2	5.98e-01	0	44	0	4110417920	45	4900
2026-01-27 08:01:08.45	223.63	70.43	-36.8	-39.1	19.4	6.00e-01	0	43	0	4156555264	45	4628
2026-01-27 08:01:11.47	230.59	71.41	-36.2	-38.3	19.8	6.00e-01	0	43	0	4204789760	44	4489
2026-01-27 08:01:14.50	238.28	72.12	-36.3	-38.6	19.7	6.01e-01	0	43	0	4250927104	44	4641
2026-01-27 08:01:17.52	246.46	72.51	-36.5	-38.9	19.6	6.01e-01	0	44	0	4297064448	44	4761
2026-01-27 08:01:20.55	254.87	72.54	-36.3	-38.5	19.8	6.01e-01	0	43	0	4343201792	44	4556
2026-01-27 08:01:23.57	263.12	72.23	-36.4	-38.6	19.8	5.96e-01	0	44	0	4391436288	44	4645
2026-01-27 08:01:26.59	270.92	71.59	-36.6	-38.9	19.6	6.00e-01	0	44	0	4437573632	44	4806
2026-01-27 08:01:29.61	278.04	70.67	-36.8	-39.0	19.6	6.00e-01	0	43	0	4483710976	44	4845
2026-01-27 08:01:32.63	284.38	69.50	-37.0	-39.1	19.5	6.02e-01	0	43	0	4529848320	44	4888
2026-01-27 08:01:35.65	289.94	68.15	-37.1	-39.0	19.4	6.01e-01	0	43	0	4575985664	44	4870
2026-01-27 08:01:38.68	294.78	66.66	-37.7	-39.9	19.2	5.98e-01	0	44	0	4622123008	46	4765
2026-01-27 08:01:41.70	298.95	65.08	-37.7	-40.0	19.1	5.99e-01	0	43	0	4668260352	46	4817
2026-01-27 08:01:44.71	302.54	63.43	-38.2	-40.3	18.8	6.02e-01	0	43	0	4714397696	47	4733
2026-01-27 08:01:47.73	305.67	61.75	-38.3	-40.5	18.7	5.98e-01	0	44	0	4760535040	47	4825
2026-01-27 08:01:50.75	308.39	60.05	-38.3	-40.2	18.9	6.00e-01	0	43	0	4806672384	47	4677
2026-01-27 08:01:53.78	310.78	58.34	-39.7	-42.1	18.8	6.00e-01	0	44	0	4854906880	50	4896
2026-01-27 08:01:56.80	312.87	56.66	-39.4	-41.3	19.3	5.99e-01	0	44	0	4901044224	50	4474
2026-01-27 08:01:59.82	314.72	54.99	-38.8	-40.9	19.5	6.02e-01	0	43	0	4947181568	49	4529
2026-01-27 08:02:02.84	316.37	53.36	-38.7	-41.0	19.5	6.00e-01	0	43	0	4993318912	49	4554
2026-01-27 08:02:05.85	317.83	51.77	-38.5	-40.5	19.8	5.99e-01	0	44	0	5039456256	49	4297
2026-01-27 08:02:08.88	319.16	50.21	-38.0	-40.0	19.9	6.01e-01	0	44	0	5087690752	48	4329
2026-01-27 08:02:11.90	320.35	48.70	-36.9	-38.9	19.6	6.01e-01	0	43	0	5133828096	45	4539
2026-01-27 08:02:14.92	321.43	47.23	-36.6	-38.6	19.8	5.97e-01	0	43	0	5177868288	45	4375
2026-01-27 08:02:17.94	322.41	45.81	-36.7	-38.6	19.7	5.99e-01	0	43	0	5224005632	45	4379
2026-01-27 08:02:20.96	323.31	44.44	-36.5	-38.5	19.8	5.99e-01	0	43	0	5270142976	44	4587
2026-01-27 08:02:23.98	324.13	43.11	-36.7	-38.7	19.7	5.97e-01	0	44	0	5318377472	44	4654
2026-01-27 08:02:26.99	324.89	41.83	-36.8	-38.7	19.8	5.85e-01	0	44	0	5364514816	44	4672
2026-01-27 08:02:30.02	325.59	40.58	-37.1	-39.0	19.5	5.83e-01	0	43	0	5410652160	44	4837
2026-01-27 08:02:33.04	326.24	39.39	-37.3	-39.3	19.4	5.84e-01	0	43	0	5456789504	45	4720
2026-01-27 08:02:36.06	326.84	38.23	-37.8	-39.7	19.1	5.85e-01	0	44	0	5502926848	46	4680
2026-01-27 08:02:39.09	327.40	37.12	-54.7	-63.6	3.8	7.44e-01	0	43	104	5536481280	80	10317
2026-01-27 08:02:42.11	327.92	36.04	-54.7	-63.5	3.8	7.46e-01	0	43	104	5536481280	80	10208
2026-01-27 08:02:45.13	328.41	35.01	-54.7	-63.5	3.8	7.45e-01	0	44	104	5536481280	80	10249
2026-01-27 08:02:48.16	328.87	34.00	-54.6	-63.5	3.8	7.44e-01	0	43	104	5536481280	80	10196
2026-01-27 08:02:51.18	329.30	33.04	-54.6	-63.5	3.8	7.45e-01	0	44	104	5536481280	80	10183
2026-01-27 08:02:54.20	329.70	32.11	-54.6	-63.4	3.8	7.45e-01	0	44	104	5536481280	80	10175
2026-01-27 08:02:57.22	330.08	31.21	-54.6	-63.5	3.8	7.46e-01	0	44	104	5536481280	80	10189
2026-01-27 08:03:00.24	330.44	30.34	-54.5	-63.3	3.8	7.44e-01	0	44	104	5536481280	80	10046
2026-01-27 08:03:03.26	330.78	29.50	-54.5	-63.4	3.8	7.46e-01	0	43	104	5536481280	80	10062
2026-01-27 08:03:06.29	331.11	28.69	-54.5	-63.3	3.8	7.46e-01	0	43	104	5536481280	80	10036
2026-01-27 08:03:09.31	331.41	27.90	-54.5	-63.4	3.8	7.45e-01	0	44	104	5536481280	80	10080
2026-01-27 08:03:12.34	331.70	27.14	-54.5	-63.3	3.8	7.47e-01	0	44	104	5536481280	80	9981
2026-01-27 08:03:15.37	331.98	26.40	-54.4	-63.3	3.8	7.44e-01	0	44	104	5536481280	80	9970
2026-01-27 08:03:18.39	332.25	25.69	-54.4	-63.2	3.8	7.45e-01	0	43	104	5536481280	80	9933
2026-01-27 08:03:21.42	332.50	25.00	-54.4	-63.2	3.8	7.45e-01	0	44	104	5536481280	80	9941
2026-01-27 08:03:24.44	332.74	24.33	-54.4	-63.2	3.8	7.45e-01	0	44	104	5536481280	80	9877
2026-01-27 08:03:27.47	332.97	23.68	-54.4	-63.2	3.8	7.45e-01	0	43	104	5536481280	80	9872
2026-01-27 08:03:30.48	333.19	23.05	-54.3	-63.2	3.8	7.46e-01	0	44	104	5536481280	80	9837
2026-01-27 08:03:33.50	333.40	22.44	-54.3	-63.2	3.8	7.46e-01	0	44	104	5536481280	80	9838
2026-01-27 08:03:36.53	333.61	21.84	-54.3	-63.1	3.8	7.45e-01	0	44	104	5536481280	80	9787
2026-01-27 08:03:39.55	333.80	21.27	-54.3	-63.1	3.8	7.45e-01	0	44	104	5536481280	80	9769
2026-01-27 08:03:42.57	333.99	20.70	-54.3	-63.1	3.8	7.45e-01	0	44	104	5536481280	80	9771
2026-01-27 08:03:45.60	334.17	20.16	-54.2	-63.0	3.8	7.46e-01	0	44	104	5536481280	80	9706
2026-01-27 08:03:48.63	334.35	19.62	-54.2	-63.0	3.8	7.45e-01	0	44	104	5536481280	80	9625
2026-01-27 08:03:51.64	334.51	19.11	-54.2	-63.0	3.8	7.44e-01	0	44	104	5536481280	80	9615
2026-01-27 08:03:54.67	334.68	18.60	-54.2	-63.0	3.8	7.43e-01	0	44	104	5536481280	80	9627
2026-01-27 08:03:57.70	334.83	18.11	-54.1	-63.0	3.8	7.44e-01	0	43	104	5536481280	80	9607
2026-01-27 08:04:00.73	334.98	17.63	-54.1	-62.9	3.8	7.45e-01	0	43	104	5536481280	80	9575
2026-01-27 08:04:03.75	335.13	17.16	-54.1	-62.9	3.8	7.45e-01	0	44	104	5536481280	80	9541
2026-01-27 08:04:06.77	335.27	16.70	-54.1	-62.9	3.8	7.44e-01	0	43	104	5536481280	80	9542
2026-01-27 08:04:09.79	335.41	16.25	-54.0	-62.8	3.8	7.46e-01	0	44	104	5536481280	80	9470
2026-01-27 08:04:12.80	335.54	15.82	-54.0	-62.8	3.8	7.46e-01	0	43	104	5536481280	80	9440
2026-01-27 08:04:15.82	335.67	15.39	-54.0	-62.8	3.8	7.44e-01	0	44	104	5536481280	79	10025
2026-01-27 08:04:18.84	335.79	14.98	-54.0	-62.9	3.8	7.46e-01	0	44	104	5536481280	79	10081
2026-01-27 08:04:21.86	335.92	14.57	-54.0	-62.8	3.8	7.44e-01	0	44	104	5536481280	79	9991
2026-01-27 08:04:24.88	336.03	14.17	-53.9	-62.8	3.8	7.46e-01	0	44	104	5536481280	79	10005
2026-01-27 08:04:27.90	336.15	13.78	-53.9	-62.7	3.8	7.44e-01	0	44	104	5536481280	79	9936
2026-01-27 08:04:30.92	336.26	13.40	-53.9	-62.8	3.8	7.46e-01	0	43	104	5536481280	79	9961
2026-01-27 08:04:33.95	336.37	13.02	-53.9	-62.7	3.8	7.46e-01	0	43	104	5536481280	79	9855
2026-01-27 08:04:36.97	336.47	12.66	-53.8	-62.7	3.8	7.46e-01	0	43	104	5536481280	79	9860
2026-01-27 08:04:39.99	336.58	12.29	-53.8	-62.6	3.8	7.44e-01	0	44	104	5536481280	79	9768
2026-01-27 08:04:43.01	336.68	11.94	-53.8	-62.7	3.8	7.45e-01	0	43	104	5536481280	79	9845
2026-01-27 08:04:46.03	336.77	11.59	-53.7	-62.6	3.8	7.47e-01	0	44	104	5536481280	79	9724
2026-01-27 08:04:49.04	336.87	11.26	-53.7	-62.6	3.8	7.46e-01	0	44	104	5536481280	79	9743
2026-01-27 08:04:52.06	336.96	10.92	-53.7	-62.5	3.8	7.45e-01	0	44	104	5536481280	79	9703
2026-01-27 08:04:55.09	337.05	10.59	-53.7	-62.5	3.8	7.46e-01	0	44	104	5536481280	79	9711
2026-01-27 08:04:58.11	337.14	10.27	-53.7	-62.5	3.8	7.46e-01	0	43	104	5536481280	79	9640
2026-01-27 08:05:01.13	337.23	9.95	-53.6	-62.4	3.8	7.45e-01	0	44	104	5536481280	79	9605
2026-01-27 08:05:04.15	337.31	9.64	-53.6	-62.5	3.8	7.46e-01	0	43	104	5536481280	79	9624
2026-01-27 08:05:07.17	337.40	9.33	-53.6	-62.5	3.8	7.45e-01	0	43	104	5536481280	79	9627
2026-01-27 08:05:10.19	337.48	9.03	-53.5	-62.4	3.8	7.45e-01	0	44	104	5536481280	79	9537
2026-01-27 08:05:13.21	337.56	8.74	-53.5	-62.3	3.8	7.46e-01	0	44	104	5536481280	79	9492
2026-01-27 08:05:16.23	337.64	8.44	-53.5	-62.3	3.8	7.46e-01	0	44	104	5536481280	79	9467
2026-01-27 08:05:19.25	337.71	8.16	-53.5	-62.4	3.8	7.46e-01	0	44	104	5536481280	79	9551
2026-01-27 08:05:22.28	337.79	7.87	-53.4	-62.3	3.8	7.45e-01	0	44	104	5536481280	78	9958
2026-01-27 08:05:25.31	337.86	7.59	-53.4	-62.3	3.8	7.45e-01	0	44	104	5536481280	78	9973
2026-01-27 08:05:28.32	337.93	7.32	-53.4	-62.2	3.8	7.45e-01	0	44	104	5536481280	78	9895
2026-01-27 08:05:31.35	338.00	7.05	-53.4	-62.2	3.8	7.45e-01	0	43	104	5536481280	78	9926
2026-01-27 08:05:34.36	338.07	6.78	-53.3	-62.1	3.8	7.45e-01	0	43	104	5536481280	78	9796
2026-01-27 08:05:37.39	338.14	6.51	-53.3	-62.1	3.8	7.46e-01	0	44	104	5536481280	78	9797
2026-01-27 08:05:40.41	338.21	6.25	-53.2	-62.1	3.8	7.46e-01	0	43	104	5536481280	78	9753
2026-01-27 08:05:43.43	338.27	6.00	-53.3	-62.1	3.8	7.46e-01	0	43	104	5536481280	78	9761
2026-01-27 08:05:46.45	338.34	5.74	-53.2	-62.0	3.8	7.45e-01	0	44	104	5536481280	78	9640
2026-01-27 08:05:49.47	338.40	5.49	-53.1	-61.9	3.8	7.45e-01	0	44	104	5536481280	78	9568
2026-01-27 08:05:52.49	338.46	5.25	-53.1	-61.9	3.8	7.46e-01	0	44	104	5536481280	78	9561
2026-01-27 08:05:55.51	338.52	5.00	-53.2	-62.0	3.8	7.45e-01	0	44	104	5536481280	77	10265
2026-01-27 08:05:58.53	338.58	4.76	-54.0	-62.8	3.8	7.45e-01	0	43	104	5536481280	78	10632
2026-01-27 08:06:01.55	338.64	4.52	-54.3	-63.1	3.8	7.45e-01	0	43	104	5536481280	79	10408
2026-01-27 08:06:04.58	338.70	4.29	-54.5	-63.3	3.8	7.45e-01	0	43	104	5536481280	79	10601
2026-01-27 08:06:07.60	338.76	4.05	-54.4	-63.2	3.8	7.46e-01	0	43	104	5536481280	79	10496
2026-01-27 08:06:10.62	338.82	3.82	-54.2	-63.1	3.8	7.46e-01	0	43	104	5536481280	79	10307
2026-01-27 08:06:13.64	338.87	3.60	-54.3	-63.2	3.8	7.46e-01	0	43	104	5536481280	79	10448
2026-01-27 08:06:16.66	338.93	3.37	-54.4	-63.2	3.8	7.46e-01	0	44	104	5536481280	79	10484
2026-01-27 08:06:19.69	338.98	3.15	-54.3	-63.1	3.8	7.45e-01	0	44	104	5536481280	79	10397
2026-01-27 08:06:22.71	339.03	2.93	-54.3	-63.1	3.8	7.48e-01	0	44	104	5536481280	79	10363
2026-01-27 08:06:25.73	339.09	2.71	-54.3	-63.1	3.8	7.45e-01	0	44	104	5536481280	79	10324
2026-01-27 08:06:28.76	339.14	2.49	-54.3	-63.1	3.8	7.44e-01	0	44	104	5536481280	79	10298
2026-01-27 08:06:31.78	339.19	2.28	-54.3	-63.1	3.8	7.44e-01	0	44	104	5536481280	79	10359
2026-01-27 08:06:34.81	339.24	2.07	-54.3	-63.1	3.8	7.46e-01	0	44	104	5536481280	79	10322
2026-01-27 08:06:37.83	339.29	1.86	-54.3	-63.1	3.8	7.47e-01	0	43	104	5536481280	79	10352

#Closed at: 2026-01-27 08:06:37
#Recorded file [5536 MB]: D:/lorett/data/31041_260127_105606.dat