passes_logs/2026/01/27/R3.2S_Murmansk/R3.2S_Murmansk__20260127_132209_FENGYUN_3D_rec.log

#Pass ID: 20260127_132209_FENGYUN 3D
#Satellite: FENGYUN 3D
#Configuration: FENGYUN 3D
#almurnet v.1.7.20251203
#Start time: 2026-01-27 13:22:09

#Version: 2.2.20231116
#Station: R3.2S_Murmansk
#Location: 33.079688 lon 68.888172 lat
#TLE: 1 43010U 17072A   26027.26653803  .00000472  00000+0  24513-3 0  9995
#TLE: 2 43010  98.9961 359.2743 0002530  88.0161 272.1305 14.19701760424993

#Time	Az	El	Level	Level2	SNR	BER	BlckErr	Temp	State	Recorded	gain1	gain2
2026-01-27 13:22:09.52	195.93	2.02	-48.0	-59.9	3.8	8.46e-01	0	42	0	0	66	15062
2026-01-27 13:22:13.56	196.15	2.26	-48.0	-59.9	3.8	8.46e-01	0	42	104	0	66	15068
2026-01-27 13:22:17.59	196.37	2.50	-48.0	-59.8	3.8	8.47e-01	0	42	104	0	66	15046
2026-01-27 13:22:21.61	196.60	2.74	-48.0	-59.9	3.8	8.46e-01	0	42	104	0	66	15094
2026-01-27 13:22:25.63	196.83	2.99	-48.0	-59.9	3.8	8.45e-01	0	42	104	0	66	15060
2026-01-27 13:22:29.66	197.06	3.23	-48.0	-59.9	3.8	8.46e-01	0	42	104	0	66	15104
2026-01-27 13:22:33.68	197.30	3.48	-48.0	-59.9	3.8	8.46e-01	0	42	104	0	66	15106
2026-01-27 13:22:37.72	197.54	3.73	-48.0	-59.8	3.8	8.45e-01	0	42	104	0	66	15049
2026-01-27 13:22:41.75	197.78	3.98	-48.0	-59.9	3.8	8.47e-01	0	42	104	0	66	15057
2026-01-27 13:22:45.78	198.03	4.24	-48.0	-59.8	3.8	8.47e-01	0	42	104	0	66	15025
2026-01-27 13:22:49.81	198.28	4.49	-48.0	-59.8	3.8	8.46e-01	0	42	104	0	66	15028
2026-01-27 13:22:53.84	198.54	4.75	-48.0	-59.9	3.8	8.46e-01	0	43	104	0	66	15073
2026-01-27 13:22:57.87	198.80	5.01	-48.0	-59.9	3.8	8.45e-01	0	43	104	0	66	15080
2026-01-27 13:23:01.90	199.06	5.27	-48.0	-59.8	3.8	8.47e-01	0	43	104	0	66	15040
2026-01-27 13:23:05.93	199.33	5.54	-48.0	-59.8	3.8	8.47e-01	0	43	104	0	66	15022
2026-01-27 13:23:09.97	199.61	5.80	-48.0	-59.8	3.8	8.47e-01	0	43	104	0	66	15029
2026-01-27 13:23:14.01	199.89	6.07	-48.0	-59.8	3.8	8.47e-01	0	43	104	0	66	15024
2026-01-27 13:23:18.03	200.17	6.34	-48.0	-59.8	3.8	8.46e-01	0	43	104	0	66	14971
2026-01-27 13:23:22.06	200.46	6.62	-48.0	-59.8	3.8	8.46e-01	0	43	104	0	66	15025
2026-01-27 13:23:26.09	200.75	6.89	-48.0	-59.9	3.8	8.46e-01	0	43	104	0	66	15059
2026-01-27 13:23:30.12	201.05	7.17	-48.0	-59.8	3.8	8.46e-01	0	43	104	0	66	15030
2026-01-27 13:23:34.15	201.36	7.45	-48.0	-59.8	3.8	8.46e-01	0	43	104	0	66	15024
2026-01-27 13:23:38.17	201.67	7.73	-48.0	-59.8	3.8	8.46e-01	0	43	104	0	66	15015
2026-01-27 13:23:42.20	201.98	8.02	-48.0	-59.8	3.8	8.45e-01	0	43	104	0	66	15021
2026-01-27 13:23:46.23	202.31	8.31	-48.0	-59.9	3.8	8.45e-01	0	43	104	0	66	15068
2026-01-27 13:23:50.25	202.63	8.60	-48.0	-59.8	3.8	8.45e-01	0	43	104	0	66	15035
2026-01-27 13:23:54.28	202.97	8.89	-48.0	-59.8	3.8	8.46e-01	0	43	104	0	66	15032
2026-01-27 13:23:58.31	203.31	9.19	-48.0	-59.8	3.8	8.46e-01	0	43	104	0	66	15041
2026-01-27 13:24:02.34	203.66	9.48	-48.0	-59.9	3.8	8.45e-01	0	43	104	0	66	15092
2026-01-27 13:24:06.37	204.01	9.79	-48.0	-59.9	3.8	8.45e-01	0	43	104	0	66	15066
2026-01-27 13:24:10.40	204.38	10.09	-48.0	-59.9	3.8	8.46e-01	0	43	104	0	66	15065
2026-01-27 13:24:14.44	204.75	10.40	-48.0	-59.8	3.8	8.47e-01	0	43	104	0	66	15045
2026-01-27 13:24:18.48	205.12	10.71	-48.0	-59.9	3.8	8.45e-01	0	43	104	0	66	15052
2026-01-27 13:24:22.51	205.51	11.02	-48.0	-59.8	3.8	8.46e-01	0	43	104	0	66	15014
2026-01-27 13:24:26.53	205.90	11.33	-48.0	-59.8	3.8	8.47e-01	0	43	104	0	66	15009
2026-01-27 13:24:30.55	206.30	11.65	-48.0	-59.9	3.8	8.47e-01	0	43	104	0	66	15063
2026-01-27 13:24:34.58	206.71	11.97	-48.0	-59.8	3.8	8.46e-01	0	43	104	0	66	15035
2026-01-27 13:24:38.61	207.13	12.30	-48.0	-59.8	3.8	8.46e-01	0	43	104	0	66	15017
2026-01-27 13:24:42.64	207.55	12.62	-48.0	-59.9	3.8	8.46e-01	0	43	104	0	66	15065
2026-01-27 13:24:46.67	207.99	12.95	-48.0	-59.8	3.8	8.46e-01	0	43	104	0	66	15040
2026-01-27 13:24:50.69	208.43	13.29	-48.0	-59.8	3.8	8.45e-01	0	43	104	0	66	15029
2026-01-27 13:24:54.73	208.89	13.62	-48.0	-59.8	3.8	8.46e-01	0	43	104	0	66	15022
2026-01-27 13:24:58.76	209.35	13.96	-48.0	-59.8	3.8	8.46e-01	0	43	104	0	66	15048
2026-01-27 13:25:02.79	209.83	14.30	-48.0	-59.9	3.8	8.46e-01	0	43	104	0	66	15082
2026-01-27 13:25:06.82	210.31	14.65	-48.0	-59.8	3.8	8.47e-01	0	43	104	0	66	14997
2026-01-27 13:25:10.85	210.81	15.00	-48.0	-59.9	3.8	8.46e-01	0	43	104	0	66	15056
2026-01-27 13:25:14.88	211.32	15.35	-48.0	-59.9	3.8	8.47e-01	0	43	104	0	66	15076
2026-01-27 13:25:18.91	211.84	15.70	-48.0	-59.9	3.8	8.47e-01	0	43	104	0	66	15057
2026-01-27 13:25:22.94	212.37	16.06	-48.0	-59.9	3.8	8.45e-01	0	43	104	0	66	15090
2026-01-27 13:25:26.97	212.92	16.42	-48.0	-59.9	3.8	8.46e-01	0	43	104	0	66	15058
2026-01-27 13:25:31.00	213.48	16.78	-48.0	-59.9	3.8	8.47e-01	0	43	104	0	66	15110
2026-01-27 13:25:35.04	214.05	17.15	-48.0	-59.8	3.8	8.47e-01	0	43	104	0	66	15043
2026-01-27 13:25:39.07	214.63	17.52	-48.0	-59.9	3.8	8.46e-01	0	43	104	0	66	15085
2026-01-27 13:25:43.09	215.23	17.89	-48.0	-59.8	3.8	8.45e-01	0	43	104	0	66	15031
2026-01-27 13:25:47.13	215.84	18.27	-48.0	-59.9	3.8	8.46e-01	0	43	104	0	66	15067
2026-01-27 13:25:51.15	216.47	18.64	-48.0	-59.8	3.8	8.47e-01	0	43	104	0	66	15045
2026-01-27 13:25:55.18	217.11	19.02	-48.0	-59.8	3.8	8.46e-01	0	43	104	0	66	15036
2026-01-27 13:25:59.21	217.77	19.40	-48.0	-59.9	3.8	8.47e-01	0	43	104	0	66	15070
2026-01-27 13:26:03.24	218.45	19.79	-48.0	-59.9	3.8	8.45e-01	0	43	104	0	66	15061
2026-01-27 13:26:07.28	219.14	20.17	-48.0	-59.9	3.8	8.46e-01	0	43	104	0	66	15072
2026-01-27 13:26:11.31	219.85	20.56	-48.0	-59.9	3.8	8.46e-01	0	43	104	0	66	15072
2026-01-27 13:26:15.34	220.58	20.95	-48.0	-59.9	3.8	8.46e-01	0	43	104	0	66	15055
2026-01-27 13:26:19.37	221.32	21.34	-48.0	-59.9	3.8	8.46e-01	0	43	104	0	66	15104
2026-01-27 13:26:23.41	222.09	21.73	-48.0	-59.9	3.8	8.45e-01	0	43	104	0	66	15100
2026-01-27 13:26:27.44	222.87	22.12	-48.0	-59.9	3.8	8.46e-01	0	43	104	0	66	15061
2026-01-27 13:26:31.48	223.67	22.52	-48.0	-59.9	3.8	8.45e-01	0	43	104	0	66	15082
2026-01-27 13:26:35.51	224.49	22.91	-48.0	-59.9	3.8	8.45e-01	0	43	104	0	66	15092
2026-01-27 13:26:39.54	225.33	23.30	-48.0	-59.9	3.8	8.46e-01	0	43	104	0	66	15071
2026-01-27 13:26:43.57	226.20	23.70	-48.0	-59.8	3.8	8.46e-01	0	43	104	0	66	15037
2026-01-27 13:26:47.61	227.08	24.09	-48.0	-59.9	3.8	8.45e-01	0	43	104	0	66	15061
2026-01-27 13:26:51.64	227.99	24.48	-48.0	-59.9	3.8	8.47e-01	0	43	104	0	66	15060
2026-01-27 13:26:55.67	228.92	24.87	-48.0	-59.9	3.8	8.46e-01	0	43	104	0	66	15074
2026-01-27 13:26:59.71	229.87	25.26	-48.0	-59.9	3.8	8.46e-01	0	43	104	0	66	15055
2026-01-27 13:27:03.74	230.84	25.64	-48.0	-59.9	3.8	8.46e-01	0	43	104	0	66	15076
2026-01-27 13:27:07.78	231.84	26.02	-48.0	-59.9	3.8	8.45e-01	0	43	104	0	66	15104
2026-01-27 13:27:11.81	232.86	26.40	-48.0	-59.9	3.8	8.46e-01	0	43	104	0	66	15056
2026-01-27 13:27:15.84	233.91	26.77	-48.0	-59.8	3.8	8.46e-01	0	43	104	0	66	15044
2026-01-27 13:27:19.86	234.97	27.14	-48.0	-59.9	3.8	8.47e-01	0	43	104	0	66	15065
2026-01-27 13:27:23.89	236.06	27.50	-48.0	-59.9	3.8	8.46e-01	0	43	104	0	66	15074
2026-01-27 13:27:27.93	237.18	27.85	-48.0	-59.9	3.8	8.46e-01	0	43	104	0	66	15092
2026-01-27 13:27:31.96	238.32	28.20	-48.0	-59.9	3.8	8.47e-01	0	43	104	0	66	15069
2026-01-27 13:27:35.99	239.49	28.54	-48.0	-59.9	3.8	8.47e-01	0	43	104	0	66	15090
2026-01-27 13:27:40.02	240.68	28.87	-48.0	-59.8	3.8	8.46e-01	0	43	104	0	66	15039
2026-01-27 13:27:44.05	241.89	29.19	-48.0	-59.9	3.8	8.46e-01	0	43	104	0	66	15083
2026-01-27 13:27:48.07	243.12	29.50	-48.0	-59.9	3.8	8.45e-01	0	43	104	0	66	15080
2026-01-27 13:27:52.09	244.38	29.80	-48.0	-59.9	3.8	8.46e-01	0	43	104	0	66	15075
2026-01-27 13:27:56.13	245.66	30.09	-48.0	-59.8	3.8	8.47e-01	0	43	104	0	66	15050
2026-01-27 13:28:00.16	246.97	30.36	-48.0	-59.8	3.8	8.47e-01	0	43	104	0	66	15051
2026-01-27 13:28:04.20	248.29	30.63	-48.0	-59.8	3.8	8.47e-01	0	43	104	0	66	15017
2026-01-27 13:28:08.23	249.64	30.87	-48.0	-59.8	3.8	8.46e-01	0	43	104	0	66	15032
2026-01-27 13:28:12.26	251.01	31.10	-48.0	-59.8	3.8	8.46e-01	0	43	104	0	66	15038
2026-01-27 13:28:16.29	252.39	31.32	-48.0	-59.9	3.8	8.46e-01	0	43	104	0	66	15053
2026-01-27 13:28:20.33	253.79	31.52	-48.0	-59.9	3.8	8.47e-01	0	43	104	0	66	15117
2026-01-27 13:28:24.36	255.21	31.70	-48.0	-59.9	3.8	8.47e-01	0	43	104	0	66	15078
2026-01-27 13:28:28.38	256.64	31.86	-48.0	-59.8	3.8	8.46e-01	0	43	104	0	66	15038
2026-01-27 13:28:32.42	258.09	32.00	-48.0	-59.8	3.8	8.45e-01	0	43	104	0	66	15001
2026-01-27 13:28:36.44	259.54	32.13	-48.0	-59.9	3.8	8.47e-01	0	43	104	0	66	15085
2026-01-27 13:28:40.48	261.01	32.23	-48.0	-59.9	3.8	8.46e-01	0	43	104	0	66	15110
2026-01-27 13:28:44.51	262.49	32.32	-48.0	-59.8	3.8	8.46e-01	0	43	104	0	66	15041
2026-01-27 13:28:48.54	263.97	32.38	-48.0	-59.8	3.8	8.46e-01	0	43	104	0	66	15017
2026-01-27 13:28:52.57	265.45	32.42	-48.0	-59.9	3.8	8.47e-01	0	43	104	0	66	15083
2026-01-27 13:28:56.60	266.94	32.44	-48.0	-59.9	3.8	8.46e-01	0	43	104	0	66	15086
2026-01-27 13:29:00.63	268.43	32.44	-48.0	-59.8	3.8	8.46e-01	0	43	104	0	66	15040
2026-01-27 13:29:04.66	269.92	32.42	-48.0	-59.9	3.8	8.47e-01	0	43	104	0	66	15097
2026-01-27 13:29:08.69	271.41	32.38	-48.0	-59.9	3.8	8.46e-01	0	43	104	0	66	15099
2026-01-27 13:29:12.71	272.89	32.32	-48.0	-59.8	3.8	8.46e-01	0	43	104	0	66	15021
2026-01-27 13:29:16.73	274.36	32.24	-48.0	-59.9	3.8	8.46e-01	0	43	104	0	66	15056
2026-01-27 13:29:20.77	275.83	32.14	-48.0	-59.9	3.8	8.47e-01	0	43	104	0	66	15065
2026-01-27 13:29:24.79	277.28	32.02	-48.0	-59.8	3.8	8.46e-01	0	43	104	0	66	15043
2026-01-27 13:29:28.83	278.73	31.87	-48.0	-59.9	3.8	8.46e-01	0	43	104	0	66	15079
2026-01-27 13:29:32.85	280.16	31.71	-48.0	-59.8	3.8	8.46e-01	0	43	104	0	66	15018
2026-01-27 13:29:36.89	281.58	31.53	-48.0	-59.8	3.8	8.46e-01	0	43	104	0	66	15000
2026-01-27 13:29:40.92	282.98	31.34	-48.0	-59.9	3.8	8.45e-01	0	43	104	0	66	15081
2026-01-27 13:29:44.95	284.36	31.13	-48.0	-59.8	3.8	8.47e-01	0	44	104	0	66	15029
2026-01-27 13:29:48.97	285.72	30.90	-48.0	-59.8	3.8	8.46e-01	0	43	104	0	66	15047
2026-01-27 13:29:53.01	287.07	30.65	-48.0	-59.9	3.8	8.48e-01	0	43	104	0	66	15110
2026-01-27 13:29:57.02	288.39	30.40	-48.0	-59.9	3.8	8.46e-01	0	43	104	0	66	15094
2026-01-27 13:30:01.05	289.69	30.12	-48.0	-59.9	3.8	8.46e-01	0	43	104	0	66	15072
2026-01-27 13:30:05.08	290.97	29.84	-48.0	-59.8	3.8	8.47e-01	0	43	104	0	66	15028
2026-01-27 13:30:09.11	292.23	29.54	-48.0	-59.9	3.8	8.46e-01	0	43	104	0	66	15054
2026-01-27 13:30:13.14	293.47	29.23	-48.0	-59.8	3.8	8.47e-01	0	43	104	0	66	15024
2026-01-27 13:30:17.17	294.68	28.91	-48.0	-59.9	3.8	8.46e-01	0	43	104	0	66	15079
2026-01-27 13:30:21.20	295.87	28.59	-48.0	-59.8	3.8	8.46e-01	0	43	104	0	66	15026
2026-01-27 13:30:25.23	297.03	28.25	-48.0	-59.8	3.8	8.46e-01	0	43	104	0	66	15025
2026-01-27 13:30:29.26	298.17	27.90	-48.0	-59.9	3.8	8.46e-01	0	43	104	0	66	15052
2026-01-27 13:30:33.30	299.29	27.55	-48.0	-59.8	3.8	8.46e-01	0	43	104	0	66	15035
2026-01-27 13:30:37.33	300.38	27.19	-48.0	-59.8	3.8	8.47e-01	0	43	104	0	66	15037
2026-01-27 13:30:41.36	301.45	26.83	-48.0	-59.8	3.8	8.45e-01	0	43	104	0	66	15025
2026-01-27 13:30:45.39	302.49	26.46	-48.0	-59.8	3.8	8.46e-01	0	43	104	0	66	15045
2026-01-27 13:30:49.43	303.51	26.08	-48.0	-59.9	3.8	8.47e-01	0	43	104	0	66	15090
2026-01-27 13:30:53.47	304.51	25.70	-48.0	-59.9	3.8	8.46e-01	0	43	104	0	66	15053
2026-01-27 13:30:57.50	305.48	25.32	-48.0	-59.9	3.8	8.46e-01	0	43	104	0	66	15057
2026-01-27 13:31:01.51	306.43	24.94	-48.0	-59.9	3.8	8.46e-01	0	43	104	0	66	15081
2026-01-27 13:31:05.54	307.36	24.55	-48.0	-59.8	3.8	8.47e-01	0	43	104	0	66	15051
2026-01-27 13:31:09.58	308.27	24.16	-48.0	-59.9	3.8	8.47e-01	0	43	104	0	66	15072
2026-01-27 13:31:13.61	309.15	23.77	-48.0	-59.9	3.8	8.46e-01	0	43	104	0	66	15053
2026-01-27 13:31:17.64	310.01	23.38	-48.0	-59.8	3.8	8.45e-01	0	43	104	0	66	15051
2026-01-27 13:31:21.67	310.85	22.99	-48.0	-59.8	3.8	8.46e-01	0	43	104	0	66	15015
2026-01-27 13:31:25.70	311.68	22.60	-48.0	-59.8	3.8	8.47e-01	0	43	104	0	66	15029
2026-01-27 13:31:29.71	312.47	22.21	-48.0	-59.9	3.8	8.44e-01	0	43	104	0	66	15068
2026-01-27 13:31:33.75	313.26	21.82	-48.0	-59.8	3.8	8.47e-01	0	43	104	0	66	15016
2026-01-27 13:31:37.77	314.02	21.43	-48.0	-59.8	3.8	8.46e-01	0	43	104	0	66	15051
2026-01-27 13:31:41.80	314.76	21.04	-48.0	-59.9	3.8	8.48e-01	0	43	104	0	66	15054
2026-01-27 13:31:45.83	315.49	20.66	-48.0	-59.8	3.8	8.47e-01	0	43	104	0	66	15023
2026-01-27 13:31:49.87	316.20	20.27	-48.0	-59.9	3.8	8.47e-01	0	43	104	0	66	15084
2026-01-27 13:31:53.90	316.90	19.89	-48.0	-59.8	3.8	8.45e-01	0	43	104	0	66	14991
2026-01-27 13:31:57.93	317.57	19.51	-48.0	-59.8	3.8	8.46e-01	0	43	104	0	66	15048
2026-01-27 13:32:01.97	318.23	19.13	-48.0	-59.8	3.8	8.46e-01	0	43	104	0	66	15051
2026-01-27 13:32:05.99	318.87	18.75	-48.0	-59.8	3.8	8.46e-01	0	43	104	0	66	15033
2026-01-27 13:32:10.03	319.51	18.37	-48.0	-59.8	3.8	8.46e-01	0	43	104	0	66	15036
2026-01-27 13:32:14.06	320.12	18.00	-48.0	-59.8	3.8	8.47e-01	0	43	104	0	66	15038
2026-01-27 13:32:18.09	320.72	17.63	-48.0	-59.8	3.8	8.46e-01	0	43	104	0	66	15034
2026-01-27 13:32:22.12	321.30	17.27	-48.0	-59.8	3.8	8.47e-01	0	43	104	0	66	15051
2026-01-27 13:32:26.15	321.88	16.90	-48.0	-59.8	3.8	8.46e-01	0	43	104	0	66	15026
2026-01-27 13:32:30.18	322.44	16.54	-48.0	-59.9	3.8	8.46e-01	0	43	104	0	66	15065
2026-01-27 13:32:34.21	322.98	16.18	-48.0	-59.8	3.8	8.46e-01	0	43	104	0	66	15028
2026-01-27 13:32:38.24	323.52	15.83	-48.0	-59.9	3.8	8.47e-01	0	43	104	0	66	15063
2026-01-27 13:32:42.27	324.04	15.47	-48.0	-59.8	3.8	8.48e-01	0	43	104	0	66	15033
2026-01-27 13:32:46.31	324.55	15.12	-48.0	-59.8	3.8	8.45e-01	0	43	104	0	66	15026
2026-01-27 13:32:50.33	325.05	14.78	-48.0	-59.8	3.8	8.46e-01	0	43	104	0	66	14984
2026-01-27 13:32:54.36	325.53	14.43	-48.0	-59.8	3.8	8.46e-01	0	43	104	0	66	14956
2026-01-27 13:32:58.39	326.01	14.09	-48.0	-59.8	3.8	8.47e-01	0	43	104	0	66	14905
2026-01-27 13:33:02.43	326.48	13.75	-48.0	-59.8	3.8	8.45e-01	0	43	104	0	66	15031
2026-01-27 13:33:06.46	326.94	13.42	-48.0	-59.8	3.8	8.46e-01	0	43	104	0	66	15010
2026-01-27 13:33:10.49	327.38	13.09	-48.0	-59.9	3.8	8.46e-01	0	43	104	0	66	15055
2026-01-27 13:33:14.52	327.82	12.76	-48.0	-59.8	3.8	8.47e-01	0	43	104	0	66	15013
2026-01-27 13:33:18.55	328.25	12.43	-48.0	-59.9	3.8	8.45e-01	0	43	104	0	66	15059
2026-01-27 13:33:22.58	328.67	12.11	-48.0	-59.8	3.8	8.46e-01	0	43	104	0	66	15049
2026-01-27 13:33:26.61	329.08	11.79	-48.0	-59.8	3.8	8.47e-01	0	43	104	0	66	15036
2026-01-27 13:33:30.65	329.48	11.47	-48.0	-59.8	3.8	8.46e-01	0	43	104	0	66	14971
2026-01-27 13:33:34.68	329.88	11.16	-48.0	-59.8	3.8	8.46e-01	0	43	104	0	66	14943
2026-01-27 13:33:38.71	330.26	10.85	-48.0	-59.8	3.8	8.46e-01	0	43	104	0	66	14938
2026-01-27 13:33:42.74	330.64	10.54	-48.0	-59.8	3.8	8.47e-01	0	43	104	0	66	14988
2026-01-27 13:33:46.77	331.01	10.24	-48.0	-59.8	3.8	8.46e-01	0	43	104	0	66	14908
2026-01-27 13:33:50.80	331.38	9.93	-48.0	-59.8	3.8	8.45e-01	0	43	104	0	66	14962
2026-01-27 13:33:54.84	331.73	9.63	-48.0	-59.8	3.8	8.46e-01	0	43	104	0	66	14998
2026-01-27 13:33:58.87	332.08	9.34	-48.0	-59.8	3.8	8.46e-01	0	43	104	0	66	15011
2026-01-27 13:34:02.90	332.43	9.04	-48.0	-59.8	3.8	8.46e-01	0	43	104	0	66	14995
2026-01-27 13:34:06.93	332.76	8.75	-48.0	-59.8	3.8	8.46e-01	0	43	104	0	66	15016
2026-01-27 13:34:10.96	333.10	8.46	-48.0	-59.8	3.8	8.45e-01	0	43	104	0	66	15019
2026-01-27 13:34:14.99	333.42	8.17	-48.0	-59.8	3.8	8.46e-01	0	43	104	0	66	15019
2026-01-27 13:34:19.03	333.74	7.89	-48.0	-59.8	3.8	8.47e-01	0	43	104	0	66	15050
2026-01-27 13:34:23.06	334.05	7.61	-48.0	-59.8	3.8	8.47e-01	0	43	104	0	66	15037
2026-01-27 13:34:27.08	334.36	7.33	-48.0	-59.8	3.8	8.46e-01	0	43	104	0	66	15029
2026-01-27 13:34:31.12	334.66	7.05	-48.0	-59.8	3.8	8.45e-01	0	43	104	0	66	15018
2026-01-27 13:34:35.15	334.96	6.78	-48.0	-59.9	3.8	8.46e-01	0	43	104	0	66	15071
2026-01-27 13:34:39.18	335.25	6.50	-48.0	-59.8	3.8	8.47e-01	0	43	104	0	66	14993
2026-01-27 13:34:43.21	335.54	6.23	-48.0	-59.9	3.8	8.46e-01	0	43	104	0	66	15059
2026-01-27 13:34:47.23	335.82	5.97	-48.0	-59.8	3.8	8.47e-01	0	43	104	0	66	15013
2026-01-27 13:34:51.27	336.10	5.70	-48.0	-59.8	3.8	8.46e-01	0	43	104	0	66	15018
2026-01-27 13:34:55.30	336.37	5.44	-48.0	-59.8	3.8	8.45e-01	0	43	104	0	66	15033
2026-01-27 13:34:59.32	336.64	5.18	-48.0	-59.8	3.8	8.46e-01	0	43	104	0	66	14987
2026-01-27 13:35:03.36	336.90	4.92	-48.0	-59.8	3.8	8.47e-01	0	43	104	0	66	15030
2026-01-27 13:35:07.39	337.16	4.66	-48.0	-59.9	3.8	8.45e-01	0	43	104	0	66	15072
2026-01-27 13:35:11.43	337.41	4.40	-48.0	-59.8	3.8	8.46e-01	0	43	104	0	66	14989
2026-01-27 13:35:15.46	337.67	4.15	-48.0	-59.8	3.8	8.46e-01	0	43	104	0	66	14980
2026-01-27 13:35:19.50	337.91	3.90	-48.0	-59.8	3.8	8.46e-01	0	43	104	0	66	15005
2026-01-27 13:35:23.53	338.16	3.65	-48.0	-59.9	3.8	8.46e-01	0	43	104	0	66	15065
2026-01-27 13:35:27.56	338.40	3.40	-48.0	-59.9	3.8	8.45e-01	0	43	104	0	66	15056
2026-01-27 13:35:31.59	338.63	3.16	-48.0	-59.8	3.8	8.46e-01	0	43	104	0	66	15028
2026-01-27 13:35:35.62	338.86	2.92	-48.0	-59.8	3.8	8.45e-01	0	43	104	0	66	15014
2026-01-27 13:35:39.64	339.09	2.67	-48.0	-59.8	3.8	8.46e-01	0	43	104	0	66	14985
2026-01-27 13:35:43.67	339.32	2.43	-48.0	-59.8	3.8	8.46e-01	0	43	104	0	66	14975
2026-01-27 13:35:47.71	339.54	2.19	-48.0	-59.8	3.8	8.46e-01	0	43	104	0	66	14939
2026-01-27 13:35:51.73	339.76	1.96	-48.0	-59.8	3.8	8.45e-01	0	43	104	0	66	14991

#Closed at: 2026-01-27 13:35:53
#Recorded file [0 MB]: D:/lorett/data/31041_260127_162209.dat