passes_logs/2026/01/27/R3.2S_Murmansk/R3.2S_Murmansk__20260127_090345_SUOMI_NPP_rec.log

#Pass ID: 20260127_090345_SUOMI NPP
#Satellite: SUOMI NPP
#Configuration: NPP
#almurnet v.1.7.20251203
#Start time: 2026-01-27 09:03:45

#Version: 2.2.20231116
#Station: R3.2S_Murmansk
#Location: 33.079688 lon 68.888172 lat
#TLE: 1 37849U 11061A   26026.52266023  .00000173  00000+0  10323-3 0  9994
#TLE: 2 37849  98.7822 328.4727 0002140  43.9411 316.1934 14.19530258738341

#Time	Az	El	Level	Level2	SNR	BER	BlckErr	Temp	State	Recorded	gain1	gain2
2026-01-27 09:03:45.07	138.88	1.96	-54.1	-69.1	3.8	1.49e+00	0	40	0	0	79	20707
2026-01-27 09:03:49.09	138.84	2.22	-54.1	-69.1	3.8	1.49e+00	0	41	104	0	78	21784
2026-01-27 09:03:53.12	138.79	2.48	-54.0	-69.0	3.8	1.49e+00	0	41	104	0	78	21687
2026-01-27 09:03:57.15	138.75	2.74	-54.3	-69.3	3.8	1.49e+00	0	41	104	0	79	21075
2026-01-27 09:04:01.19	138.70	3.01	-54.2	-69.2	3.8	1.49e+00	0	41	104	0	79	20837
2026-01-27 09:04:05.22	138.65	3.28	-54.0	-69.0	3.8	1.49e+00	0	41	104	0	79	20364
2026-01-27 09:04:09.24	138.60	3.55	-53.7	-68.6	3.8	1.49e+00	0	41	104	0	79	19613
2026-01-27 09:04:13.28	138.55	3.83	-53.0	-67.9	3.8	1.49e+00	0	42	104	0	78	19051
2026-01-27 09:04:17.31	138.49	4.10	-51.3	-58.7	7.0	2.29e-01	0	41	0	2097152	74	8364
2026-01-27 09:04:21.35	138.44	4.38	-49.8	-53.8	12.1	7.64e-04	0	41	0	9437184	71	5633
2026-01-27 09:04:25.38	138.38	4.67	-48.1	-50.6	15.4	0.00e+00	0	42	0	17825792	68	4643
2026-01-27 09:04:29.42	138.33	4.95	-48.0	-50.6	15.3	0.00e+00	0	42	0	25165824	67	4895
2026-01-27 09:04:33.44	138.27	5.24	-47.6	-49.9	16.1	0.00e+00	0	42	0	32505856	67	4543
2026-01-27 09:04:37.47	138.21	5.53	-47.6	-49.9	16.1	0.00e+00	0	42	0	39845888	67	4519
2026-01-27 09:04:41.49	138.15	5.82	-47.1	-49.2	16.9	0.00e+00	0	42	0	47185920	66	4416
2026-01-27 09:04:45.52	138.09	6.12	-46.6	-48.5	17.6	0.00e+00	0	42	0	54525952	65	4315
2026-01-27 09:04:49.54	138.02	6.42	-46.6	-48.4	17.7	0.00e+00	0	42	0	61865984	64	4544
2026-01-27 09:04:53.57	137.96	6.73	-46.4	-48.1	18.1	0.00e+00	0	42	0	70254592	64	4372
2026-01-27 09:04:57.59	137.89	7.04	-46.5	-48.2	18.0	0.00e+00	0	42	0	77594624	64	4428
2026-01-27 09:05:01.62	137.82	7.35	-46.3	-48.0	18.3	0.00e+00	0	42	0	84934656	64	4301
2026-01-27 09:05:05.65	137.75	7.67	-46.1	-47.7	18.5	0.00e+00	0	42	0	92274688	64	4193
2026-01-27 09:05:09.68	137.68	7.99	-46.2	-47.8	18.6	0.00e+00	0	42	0	100663296	63	4462
2026-01-27 09:05:13.71	137.61	8.31	-46.1	-47.7	18.7	0.00e+00	0	42	0	108003328	63	4431
2026-01-27 09:05:17.74	137.53	8.64	-46.1	-47.7	18.7	0.00e+00	0	42	0	115343360	63	4424
2026-01-27 09:05:21.77	137.45	8.97	-45.9	-47.4	19.0	0.00e+00	0	42	0	122683392	63	4291
2026-01-27 09:05:25.80	137.37	9.31	-45.8	-47.3	19.3	0.00e+00	0	42	0	130023424	63	4208
2026-01-27 09:05:29.83	137.29	9.65	-45.7	-47.2	19.3	0.00e+00	0	42	0	137363456	63	4161
2026-01-27 09:05:33.86	137.20	10.00	-45.7	-47.2	19.3	0.00e+00	0	42	0	145752064	63	4180
2026-01-27 09:05:37.89	137.11	10.35	-45.5	-46.9	19.6	0.00e+00	0	42	0	153092096	63	4021
2026-01-27 09:05:41.92	137.02	10.70	-45.3	-46.6	19.9	0.00e+00	0	42	0	160432128	62	4137
2026-01-27 09:05:45.95	136.93	11.07	-45.0	-46.3	20.3	0.00e+00	0	42	0	167772160	62	3961
2026-01-27 09:05:49.98	136.84	11.43	-44.8	-46.1	20.4	0.00e+00	0	42	0	176160768	61	4100
2026-01-27 09:05:54.01	136.74	11.81	-45.0	-46.3	20.3	0.00e+00	0	42	0	183500800	61	4212
2026-01-27 09:05:58.04	136.64	12.18	-44.6	-45.9	20.7	0.00e+00	0	42	0	190840832	61	4009
2026-01-27 09:06:02.07	136.53	12.57	-44.7	-45.9	20.7	0.00e+00	0	42	0	198180864	61	4027
2026-01-27 09:06:06.10	136.43	12.96	-44.5	-45.7	20.9	0.00e+00	0	42	0	205520896	61	3948
2026-01-27 09:06:10.13	136.32	13.35	-44.3	-45.5	21.0	0.00e+00	0	42	0	213909504	60	4064
2026-01-27 09:06:14.16	136.20	13.76	-44.4	-45.5	21.0	0.00e+00	0	42	0	221249536	60	4090
2026-01-27 09:06:18.19	136.09	14.16	-44.4	-45.7	20.8	0.00e+00	0	42	0	228589568	60	4169
2026-01-27 09:06:22.22	135.97	14.58	-44.6	-45.9	20.6	0.00e+00	0	42	0	235929600	60	4282
2026-01-27 09:06:26.25	135.84	15.00	-44.6	-45.9	20.6	0.00e+00	0	42	0	243269632	60	4256
2026-01-27 09:06:30.28	135.71	15.43	-44.6	-45.9	20.6	0.00e+00	0	43	0	251658240	60	4280
2026-01-27 09:06:34.31	135.58	15.87	-44.6	-45.9	20.6	0.00e+00	0	42	0	258998272	60	4288
2026-01-27 09:06:38.34	135.44	16.32	-44.4	-45.7	20.9	0.00e+00	0	43	0	266338304	60	4158
2026-01-27 09:06:42.36	135.30	16.77	-44.4	-45.6	21.0	0.00e+00	0	43	0	273678336	60	4123
2026-01-27 09:06:46.39	135.16	17.23	-44.4	-45.7	20.9	0.00e+00	0	43	0	281018368	60	4146
2026-01-27 09:06:50.42	135.01	17.70	-44.4	-45.7	21.0	0.00e+00	0	43	0	289406976	60	4155
2026-01-27 09:06:54.45	134.85	18.18	-44.3	-45.5	21.1	0.00e+00	0	43	0	296747008	60	4083
2026-01-27 09:06:58.47	134.69	18.67	-44.3	-45.5	21.1	0.00e+00	0	42	0	304087040	60	4092
2026-01-27 09:07:02.50	134.52	19.17	-44.2	-45.4	21.2	0.00e+00	0	42	0	311427072	60	4039
2026-01-27 09:07:06.53	134.34	19.68	-44.3	-45.5	21.1	0.00e+00	0	43	0	318767104	60	4098
2026-01-27 09:07:10.55	134.16	20.20	-44.4	-45.6	21.1	0.00e+00	0	43	0	327155712	60	4137
2026-01-27 09:07:14.57	133.98	20.72	-44.5	-45.8	20.9	0.00e+00	0	43	0	334495744	60	4198
2026-01-27 09:07:18.61	133.78	21.27	-44.5	-45.7	21.0	0.00e+00	0	43	0	341835776	60	4176
2026-01-27 09:07:22.63	133.58	21.82	-44.6	-45.9	20.9	0.00e+00	0	43	0	349175808	60	4260
2026-01-27 09:07:26.66	133.37	22.38	-44.8	-46.2	20.7	0.00e+00	0	43	0	356515840	60	4393
2026-01-27 09:07:30.69	133.16	22.96	-45.0	-46.3	20.6	0.00e+00	0	43	0	364904448	60	4461
2026-01-27 09:07:34.72	132.93	23.54	-44.6	-45.8	20.9	0.00e+00	0	43	0	372244480	60	4220
2026-01-27 09:07:38.75	132.69	24.15	-44.9	-46.2	20.7	0.00e+00	0	43	0	379584512	60	4411
2026-01-27 09:07:42.77	132.45	24.76	-45.5	-46.8	20.1	0.00e+00	0	43	0	386924544	61	4493
2026-01-27 09:07:46.80	132.19	25.39	-46.2	-47.8	19.2	0.00e+00	0	43	0	394264576	62	4756
2026-01-27 09:07:50.82	131.93	26.03	-45.9	-47.4	19.7	0.00e+00	0	43	0	402653184	63	4247
2026-01-27 09:07:54.84	131.65	26.69	-45.9	-47.4	19.7	0.00e+00	0	43	0	409993216	63	4259
2026-01-27 09:07:58.87	131.36	27.36	-46.3	-47.9	19.2	0.00e+00	0	43	0	417333248	63	4504
2026-01-27 09:08:02.90	131.05	28.05	-46.5	-48.2	18.9	0.00e+00	0	43	0	424673280	64	4417
2026-01-27 09:08:06.93	130.73	28.76	-45.9	-47.4	19.7	0.00e+00	0	43	0	432013312	63	4243
2026-01-27 09:08:10.97	130.40	29.49	-46.8	-48.6	18.5	0.00e+00	0	43	0	440401920	64	4633
2026-01-27 09:08:15.00	130.05	30.23	-47.0	-48.9	18.2	0.00e+00	0	43	0	447741952	65	4508
2026-01-27 09:08:19.03	129.68	30.99	-47.1	-49.0	17.8	0.00e+00	0	43	0	455081984	64	4817
2026-01-27 09:08:23.05	129.30	31.77	-47.4	-49.5	17.6	0.00e+00	0	43	0	462422016	65	4834
2026-01-27 09:08:27.08	128.89	32.57	-48.2	-50.7	16.6	0.00e+00	0	43	0	469762048	67	4927
2026-01-27 09:08:31.12	128.47	33.39	-48.7	-51.4	15.9	0.00e+00	0	42	0	478150656	68	5057
2026-01-27 09:08:35.15	128.02	34.23	-50.2	-53.7	13.6	5.30e-06	0	43	0	485490688	71	5570
2026-01-27 09:08:39.18	127.54	35.09	-49.9	-53.2	13.8	5.30e-06	0	43	0	492830720	71	5251
2026-01-27 09:08:43.21	127.04	35.97	-50.2	-54.0	13.0	5.03e-05	0	43	0	500170752	72	5455
2026-01-27 09:08:47.24	126.51	36.87	-49.2	-52.4	14.9	7.00e-07	0	43	0	507510784	70	5054
2026-01-27 09:08:51.27	125.95	37.80	-47.1	-49.0	18.0	0.00e+00	0	43	0	515899392	66	4340
2026-01-27 09:08:55.30	125.35	38.75	-47.6	-49.7	17.3	0.00e+00	0	43	0	523239424	65	4979
2026-01-27 09:08:59.33	124.72	39.72	-47.4	-49.5	17.8	0.00e+00	0	43	0	530579456	66	4569
2026-01-27 09:09:03.35	124.05	40.71	-48.3	-50.8	16.5	0.00e+00	0	43	0	537919488	67	5014
2026-01-27 09:09:07.39	123.33	41.74	-47.4	-49.4	17.9	0.00e+00	0	43	0	546308096	66	4500
2026-01-27 09:09:11.41	122.57	42.77	-46.1	-47.7	19.4	0.00e+00	0	43	0	553648128	64	4154
2026-01-27 09:09:15.45	121.75	43.84	-46.0	-47.6	19.6	0.00e+00	0	43	0	560988160	63	4355
2026-01-27 09:09:19.47	120.88	44.93	-45.3	-46.7	20.4	0.00e+00	0	43	0	568328192	62	4188
2026-01-27 09:09:23.50	119.94	46.04	-46.0	-47.4	19.7	0.00e+00	0	42	0	575668224	63	4280
2026-01-27 09:09:27.53	118.93	47.17	-45.5	-47.0	20.2	0.00e+00	0	43	0	583008256	62	4304
2026-01-27 09:09:31.56	117.84	48.32	-46.1	-47.8	19.4	0.00e+00	0	43	0	591396864	63	4443
2026-01-27 09:09:35.59	116.67	49.50	-45.6	-47.2	19.9	0.00e+00	0	43	0	598736896	62	4400
2026-01-27 09:09:39.62	115.41	50.68	-44.2	-45.3	21.9	0.00e+00	0	42	0	606076928	59	4239
2026-01-27 09:09:43.65	114.03	51.89	-44.3	-45.5	21.4	0.00e+00	0	43	0	613416960	60	4077
2026-01-27 09:09:47.68	112.54	53.10	-46.0	-47.5	19.7	0.00e+00	0	43	0	621805568	62	4568
2026-01-27 09:09:51.71	110.92	54.32	-46.1	-47.8	19.4	0.00e+00	0	43	0	629145600	63	4466
2026-01-27 09:09:55.74	109.16	55.55	-46.3	-47.9	19.3	0.00e+00	0	42	0	636485632	64	4276
2026-01-27 09:09:59.78	107.22	56.77	-46.2	-47.7	19.6	0.00e+00	0	43	0	643825664	63	4399
2026-01-27 09:10:03.80	105.12	57.98	-46.1	-47.5	19.7	0.00e+00	0	43	0	651165696	63	4334
2026-01-27 09:10:07.84	102.81	59.19	-46.8	-48.5	18.9	0.00e+00	0	43	0	659554304	64	4582
2026-01-27 09:10:11.88	100.28	60.37	-45.9	-47.4	19.7	0.00e+00	0	43	0	666894336	63	4251
2026-01-27 09:10:15.91	97.51	61.51	-44.4	-45.5	21.7	0.00e+00	0	43	0	674234368	59	4331
2026-01-27 09:10:19.93	94.48	62.60	-44.7	-46.0	21.0	0.00e+00	0	43	0	681574400	60	4295
2026-01-27 09:10:23.96	91.17	63.64	-44.8	-46.1	20.9	0.00e+00	0	43	0	688914432	61	4120
2026-01-27 09:10:27.99	87.56	64.61	-44.4	-45.7	21.3	0.00e+00	0	43	0	697303040	60	4151
2026-01-27 09:10:32.02	83.64	65.49	-44.6	-45.8	21.3	0.00e+00	0	43	0	704643072	60	4215
2026-01-27 09:10:36.05	79.42	66.26	-46.5	-48.2	19.1	0.00e+00	0	42	0	711983104	63	4655
2026-01-27 09:10:40.08	74.91	66.92	-47.0	-48.8	18.5	0.00e+00	0	42	0	719323136	64	4745
2026-01-27 09:10:44.11	70.14	67.44	-45.6	-46.9	20.4	0.00e+00	0	43	0	726663168	63	4036
2026-01-27 09:10:48.14	65.15	67.81	-45.3	-46.6	20.7	0.00e+00	0	43	0	735051776	62	4112
2026-01-27 09:10:52.17	60.03	68.02	-45.9	-47.2	20.0	0.00e+00	0	43	0	742391808	63	4187
2026-01-27 09:10:56.20	54.83	68.07	-46.1	-47.5	19.8	0.00e+00	0	43	0	749731840	63	4308
2026-01-27 09:11:00.23	49.66	67.95	-46.7	-48.4	18.7	0.00e+00	0	43	0	757071872	64	4523
2026-01-27 09:11:04.27	44.57	67.67	-48.2	-50.4	17.1	0.00e+00	0	43	0	764411904	67	4792
2026-01-27 09:11:08.29	39.69	67.24	-47.8	-49.8	17.7	0.00e+00	0	43	0	772800512	67	4448
2026-01-27 09:11:12.33	35.02	66.65	-45.9	-47.2	20.1	0.00e+00	0	43	0	780140544	63	4192
2026-01-27 09:11:16.36	30.63	65.95	-46.7	-48.4	19.1	0.00e+00	0	43	0	787480576	63	4791
2026-01-27 09:11:20.39	26.54	65.13	-44.5	-45.8	21.8	0.00e+00	0	43	0	794820608	59	4449
2026-01-27 09:11:24.42	22.76	64.21	-43.9	-44.9	22.4	0.00e+00	0	43	0	803209216	59	4035
2026-01-27 09:11:28.45	19.28	63.21	-44.6	-45.7	21.4	0.00e+00	0	43	0	810549248	60	4186
2026-01-27 09:11:32.47	16.10	62.15	-46.0	-47.5	19.8	0.00e+00	0	43	0	817889280	63	4320
2026-01-27 09:11:36.51	13.18	61.03	-46.6	-48.2	18.9	0.00e+00	0	43	0	825229312	64	4440
2026-01-27 09:11:40.54	10.52	59.88	-46.3	-47.8	18.8	0.00e+00	0	43	0	832569344	64	4236
2026-01-27 09:11:44.57	8.09	58.69	-45.9	-47.3	20.0	0.00e+00	0	43	0	839909376	62	4476
2026-01-27 09:11:48.60	5.87	57.49	-44.3	-45.5	21.3	0.00e+00	0	43	0	848297984	59	4331
2026-01-27 09:11:52.63	3.85	56.27	-45.9	-47.3	19.8	0.00e+00	0	43	0	855638016	62	4478
2026-01-27 09:11:56.66	1.99	55.05	-46.0	-47.5	19.7	0.00e+00	0	43	0	862978048	63	4293
2026-01-27 09:12:00.69	0.29	53.83	-44.4	-45.6	21.5	0.00e+00	0	43	0	870318080	60	4106
2026-01-27 09:12:04.72	358.73	52.61	-46.5	-48.2	19.1	0.00e+00	0	43	0	878706688	63	4694
2026-01-27 09:12:08.75	357.29	51.41	-44.7	-45.9	21.1	0.00e+00	0	43	0	886046720	61	4042
2026-01-27 09:12:12.78	355.97	50.21	-45.4	-46.8	20.4	0.00e+00	0	43	0	893386752	61	4474
2026-01-27 09:12:16.81	354.74	49.03	-48.0	-50.2	17.1	0.00e+00	0	43	0	900726784	67	4668
2026-01-27 09:12:20.85	353.61	47.87	-46.1	-47.6	19.6	0.00e+00	0	43	0	908066816	64	4139
2026-01-27 09:12:24.87	352.56	46.73	-44.0	-45.0	22.0	0.00e+00	0	43	0	916455424	60	3856
2026-01-27 09:12:28.89	351.59	45.62	-45.3	-46.5	20.8	0.00e+00	0	43	0	923795456	62	4093
2026-01-27 09:12:32.92	350.68	44.52	-47.8	-49.8	17.5	0.00e+00	0	43	0	931135488	66	4752
2026-01-27 09:12:36.95	349.83	43.44	-47.9	-50.0	17.3	0.00e+00	0	43	0	938475520	66	4831
2026-01-27 09:12:40.98	349.04	42.39	-47.1	-48.9	18.4	0.00e+00	0	43	0	945815552	66	4250
2026-01-27 09:12:45.01	348.29	41.36	-49.5	-52.4	14.9	0.00e+00	0	43	0	954204160	69	5380
2026-01-27 09:12:49.04	347.60	40.35	-48.2	-50.5	16.9	0.00e+00	0	43	0	961544192	67	4834
2026-01-27 09:12:53.06	346.95	39.37	-47.3	-49.2	18.1	0.00e+00	0	43	0	968884224	66	4400
2026-01-27 09:12:57.09	346.33	38.41	-48.4	-50.6	16.7	0.00e+00	0	43	0	976224256	67	4888
2026-01-27 09:13:01.12	345.75	37.48	-47.1	-48.9	18.3	0.00e+00	0	43	0	983564288	65	4512
2026-01-27 09:13:05.15	345.20	36.56	-47.1	-48.8	18.5	0.00e+00	0	43	0	991952896	64	4758
2026-01-27 09:13:09.18	344.69	35.67	-46.1	-47.6	19.4	0.00e+00	0	43	0	999292928	64	4139
2026-01-27 09:13:13.21	344.20	34.80	-45.7	-47.0	20.1	0.00e+00	0	43	0	1006632960	62	4324
2026-01-27 09:13:17.24	343.74	33.95	-49.0	-51.5	16.1	0.00e+00	0	43	0	1013972992	68	5152
2026-01-27 09:13:21.28	343.30	33.12	-48.0	-50.0	17.3	0.00e+00	0	43	0	1022361600	66	4842
2026-01-27 09:13:25.31	342.88	32.31	-47.3	-49.1	18.3	0.00e+00	0	43	0	1029701632	65	4612
2026-01-27 09:13:29.34	342.49	31.52	-46.5	-48.1	19.0	0.00e+00	0	43	0	1037041664	64	4382
2026-01-27 09:13:33.37	342.11	30.76	-48.1	-50.3	16.9	0.00e+00	0	43	0	1044381696	67	4731
2026-01-27 09:13:37.40	341.75	30.00	-48.8	-51.4	15.8	0.00e+00	0	43	0	1051721728	68	5088
2026-01-27 09:13:41.43	341.41	29.27	-49.8	-53.0	14.3	1.50e-06	0	43	0	1060110336	70	5448
2026-01-27 09:13:45.47	341.08	28.56	-49.4	-52.4	15.0	0.00e+00	0	43	0	1067450368	70	5044
2026-01-27 09:13:49.50	340.77	27.86	-48.8	-51.3	16.0	0.00e+00	0	43	0	1074790400	68	5007
2026-01-27 09:13:53.53	340.47	27.17	-47.3	-49.1	18.0	0.00e+00	0	43	0	1082130432	66	4376
2026-01-27 09:13:57.56	340.19	26.51	-45.9	-47.3	19.7	0.00e+00	0	43	0	1089470464	62	4491
2026-01-27 09:14:01.59	339.92	25.86	-45.7	-47.0	20.0	0.00e+00	0	43	0	1097859072	62	4338
2026-01-27 09:14:05.61	339.66	25.22	-47.2	-49.1	18.0	0.00e+00	0	43	0	1105199104	65	4631
2026-01-27 09:14:09.65	339.41	24.60	-49.2	-52.1	15.2	0.00e+00	0	43	0	1112539136	69	5164
2026-01-27 09:14:13.68	339.17	23.99	-48.5	-50.9	16.3	0.00e+00	0	43	0	1119879168	68	4761
2026-01-27 09:14:17.71	338.94	23.40	-47.2	-49.6	17.5	0.00e+00	0	43	0	1127219200	66	4618
2026-01-27 09:14:21.74	338.72	22.82	-46.9	-48.7	18.3	0.00e+00	0	43	0	1135607808	64	4672
2026-01-27 09:14:25.77	338.50	22.25	-46.4	-48.0	19.0	0.00e+00	0	43	0	1142947840	64	4296
2026-01-27 09:14:29.80	338.30	21.69	-45.7	-47.2	19.7	0.00e+00	0	43	0	1150287872	62	4399
2026-01-27 09:14:33.84	338.10	21.14	-45.3	-46.7	20.1	0.00e+00	0	43	0	1157627904	61	4422
2026-01-27 09:14:37.87	337.91	20.61	-45.5	-47.0	19.9	0.00e+00	0	43	0	1164967936	61	4554
2026-01-27 09:14:41.91	337.73	20.08	-45.9	-47.5	19.4	0.00e+00	0	43	0	1173356544	62	4567
2026-01-27 09:14:45.93	337.56	19.57	-46.2	-47.8	19.1	0.00e+00	0	43	0	1180696576	62	4719
2026-01-27 09:14:49.96	337.39	19.07	-46.2	-47.8	19.1	0.00e+00	0	43	0	1188036608	63	4459
2026-01-27 09:14:53.99	337.22	18.57	-46.6	-48.4	18.5	0.00e+00	0	43	0	1195376640	63	4768
2026-01-27 09:14:58.01	337.06	18.09	-47.1	-49.1	17.7	0.00e+00	0	43	0	1202716672	64	4882
2026-01-27 09:15:02.04	336.91	17.62	-47.6	-49.7	17.2	0.00e+00	0	43	0	1211105280	66	4693
2026-01-27 09:15:06.08	336.76	17.15	-46.9	-48.8	18.1	0.00e+00	0	43	0	1218445312	65	4451
2026-01-27 09:15:10.10	336.62	16.69	-46.3	-47.9	18.9	0.00e+00	0	43	0	1225785344	63	4528
2026-01-27 09:15:14.13	336.48	16.24	-46.4	-48.1	18.7	0.00e+00	0	43	0	1233125376	63	4624
2026-01-27 09:15:18.17	336.35	15.80	-46.5	-48.2	18.5	0.00e+00	0	43	0	1240465408	64	4408
2026-01-27 09:15:22.20	336.22	15.37	-47.3	-49.3	17.2	0.00e+00	0	43	0	1248854016	65	4757
2026-01-27 09:15:26.22	336.10	14.94	-48.0	-50.4	16.3	0.00e+00	0	43	0	1256194048	66	5080
2026-01-27 09:15:30.25	335.98	14.52	-47.7	-49.9	16.7	0.00e+00	0	43	0	1263534080	66	4786
2026-01-27 09:15:34.28	335.86	14.11	-47.3	-49.3	17.3	5.30e-06	0	43	0	1270874112	66	4479
2026-01-27 09:15:38.31	335.75	13.71	-46.9	-48.8	17.8	0.00e+00	0	43	0	1279262720	65	4461
2026-01-27 09:15:42.33	335.64	13.31	-46.6	-48.4	18.2	0.00e+00	0	43	0	1286602752	65	4260
2026-01-27 09:15:46.36	335.53	12.92	-46.4	-48.1	18.4	0.00e+00	0	43	0	1293942784	64	4375
2026-01-27 09:15:50.38	335.43	12.53	-46.3	-48.1	18.4	0.00e+00	0	43	0	1301282816	64	4360
2026-01-27 09:15:54.41	335.33	12.15	-46.6	-48.5	18.0	0.00e+00	0	43	0	1308622848	64	4560
2026-01-27 09:15:58.44	335.23	11.78	-47.0	-49.0	17.5	6.10e-06	0	43	0	1315962880	64	4846
2026-01-27 09:16:02.47	335.13	11.41	-47.2	-49.3	17.2	0.00e+00	0	43	0	1324351488	65	4714
2026-01-27 09:16:06.49	335.04	11.04	-47.4	-49.5	17.0	0.00e+00	0	43	0	1331691520	65	4842
2026-01-27 09:16:10.53	334.95	10.68	-47.5	-49.7	16.7	0.00e+00	0	43	0	1339031552	65	4977
2026-01-27 09:16:14.55	334.87	10.33	-47.7	-50.0	16.4	0.00e+00	0	43	0	1346371584	66	4815
2026-01-27 09:16:18.58	334.78	9.98	-47.8	-50.2	16.4	0.00e+00	0	43	0	1354760192	66	4939
2026-01-27 09:16:22.61	334.70	9.64	-47.7	-50.0	16.4	0.00e+00	0	43	0	1362100224	66	4835
2026-01-27 09:16:26.64	334.62	9.30	-47.9	-50.3	16.2	0.00e+00	0	43	0	1369440256	66	4997
2026-01-27 09:16:30.67	334.54	8.96	-47.8	-50.2	16.2	0.00e+00	0	43	0	1376780288	66	4963
2026-01-27 09:16:34.70	334.47	8.63	-47.8	-50.3	16.1	0.00e+00	0	43	0	1384120320	66	4991
2026-01-27 09:16:38.73	334.40	8.31	-47.9	-50.3	16.0	2.20e-06	0	43	0	1392508928	66	5030
2026-01-27 09:16:42.76	334.33	7.99	-48.0	-50.6	15.8	0.00e+00	0	43	0	1399848960	66	5172
2026-01-27 09:16:46.79	334.26	7.67	-48.0	-50.5	15.8	0.00e+00	0	43	0	1407188992	66	5102
2026-01-27 09:16:50.82	334.19	7.35	-47.8	-50.2	16.1	0.00e+00	0	43	0	1414529024	66	4927
2026-01-27 09:16:54.84	334.12	7.04	-47.8	-50.3	15.9	0.00e+00	0	43	0	1421869056	66	4999
2026-01-27 09:16:58.86	334.06	6.74	-47.6	-50.0	16.2	0.00e+00	0	43	0	1429209088	66	4833
2026-01-27 09:17:02.89	334.00	6.44	-47.6	-49.9	16.2	0.00e+00	0	43	0	1437597696	66	4797
2026-01-27 09:17:06.92	333.94	6.14	-47.7	-50.1	16.0	0.00e+00	0	43	0	1444937728	66	4882
2026-01-27 09:17:10.95	333.88	5.84	-47.6	-50.0	16.1	0.00e+00	0	43	0	1452277760	66	4844
2026-01-27 09:17:14.98	333.82	5.55	-47.6	-50.0	16.0	0.00e+00	0	43	0	1459617792	66	4854
2026-01-27 09:17:19.01	333.76	5.26	-47.8	-50.3	15.7	0.00e+00	0	43	0	1468006400	66	5005
2026-01-27 09:17:23.04	333.71	4.97	-52.4	-67.1	3.8	1.09e-01	0	43	104	1474297856	75	20630
2026-01-27 09:17:27.07	333.66	4.69	-53.3	-68.3	3.8	1.49e+00	0	43	104	1474297856	77	21028
2026-01-27 09:17:31.10	333.61	4.41	-53.4	-68.4	3.8	1.49e+00	0	43	104	1474297856	77	21387
2026-01-27 09:17:35.13	333.56	4.13	-53.2	-68.1	3.8	1.49e+00	0	43	104	1474297856	76	21900
2026-01-27 09:17:39.16	333.51	3.85	-53.3	-68.3	3.8	1.49e+00	0	43	104	1474297856	77	21176
2026-01-27 09:17:43.19	333.46	3.58	-53.4	-69.0	3.7	1.49e+00	0	43	104	1474297856	77	22904
2026-01-27 09:17:47.22	333.41	3.31	-53.4	-68.3	3.8	1.49e+00	0	43	104	1474297856	77	21213
2026-01-27 09:17:51.25	333.37	3.04	-53.3	-68.3	3.8	1.49e+00	0	43	104	1474297856	77	21155
2026-01-27 09:17:55.28	333.32	2.78	-53.3	-68.3	3.8	1.49e+00	0	43	104	1474297856	77	21094
2026-01-27 09:17:59.31	333.28	2.52	-53.3	-68.3	3.8	1.49e+00	0	43	104	1474297856	77	21032
2026-01-27 09:18:03.34	333.24	2.26	-53.3	-68.3	3.8	1.49e+00	0	43	104	1474297856	77	21022
2026-01-27 09:18:07.38	333.19	2.00	-53.3	-68.2	3.8	1.49e+00	0	43	104	1474297856	77	21014

#Closed at: 2026-01-27 09:18:08
#Recorded file [1474 MB]: D:/lorett/data/31041_260127_120344.dat