passes_logs/2026/01/27/R3.2S_Murmansk/R3.2S_Murmansk__20260127_124823_NOAA_20_JPSS-1_rec.log

#Pass ID: 20260127_124823_NOAA 20 (JPSS-1)
#Satellite: NOAA 20 (JPSS-1)
#Configuration: NOAA 20
#almurnet v.1.7.20251203
#Start time: 2026-01-27 12:48:24

#Version: 2.2.20231116
#Station: R3.2S_Murmansk
#Location: 33.079688 lon 68.888172 lat
#TLE: 1 43013U 17073A   26027.31247158  .00000160  00000+0  97001-4 0  9994
#TLE: 2 43013  98.7647 328.1226 0000969  21.9986 338.1231 14.19541059424489

#Time	Az	El	Level	Level2	SNR	BER	BlckErr	Temp	State	Recorded	gain1	gain2
2026-01-27 12:48:24.89	237.04	2.06	-54.1	-69.1	3.8	1.49e+00	0	41	0	0	79	20548
2026-01-27 12:48:27.90	237.32	2.21	-54.4	-69.4	3.8	1.49e+00	0	41	104	0	79	21310
2026-01-27 12:48:30.93	237.61	2.35	-54.4	-69.3	3.8	1.49e+00	0	41	104	0	79	21235
2026-01-27 12:48:33.94	237.90	2.49	-54.2	-69.2	3.8	1.49e+00	0	41	104	0	79	20978
2026-01-27 12:48:36.97	238.19	2.63	-54.1	-69.0	3.8	1.49e+00	0	41	104	0	79	20500
2026-01-27 12:48:39.99	238.49	2.77	-53.8	-68.7	3.8	1.49e+00	0	42	104	0	79	19834
2026-01-27 12:48:43.01	238.79	2.92	-53.5	-68.5	3.8	1.49e+00	0	42	104	0	79	19304
2026-01-27 12:48:46.03	239.09	3.06	-52.9	-67.9	3.8	1.49e+00	0	42	104	0	77	20134
2026-01-27 12:48:49.05	239.40	3.20	-52.5	-67.5	3.8	1.49e+00	0	42	104	0	75	21619
2026-01-27 12:48:52.08	239.71	3.34	-52.5	-67.5	3.8	1.49e+00	0	42	104	0	75	21624
2026-01-27 12:48:55.10	240.02	3.49	-52.5	-67.4	3.8	1.49e+00	0	42	104	0	75	21477
2026-01-27 12:48:58.12	240.33	3.63	-52.5	-67.4	3.8	1.49e+00	0	42	104	0	75	21430
2026-01-27 12:49:01.14	240.64	3.77	-52.5	-67.5	3.8	1.49e+00	0	42	104	0	75	21522
2026-01-27 12:49:04.16	240.96	3.91	-52.5	-67.4	3.8	1.49e+00	0	42	104	0	75	21401
2026-01-27 12:49:07.18	241.29	4.06	-52.5	-67.3	3.8	1.49e+00	0	42	104	0	75	21035
2026-01-27 12:49:10.20	241.61	4.20	-52.5	-67.3	3.8	1.49e+00	0	42	104	0	75	21222
2026-01-27 12:49:13.23	241.94	4.34	-52.5	-67.3	3.8	1.49e+00	0	42	104	0	75	21236
2026-01-27 12:49:16.25	242.27	4.49	-52.4	-67.2	3.8	1.49e+00	0	42	104	0	75	20881
2026-01-27 12:49:19.27	242.61	4.63	-52.3	-64.8	4.0	1.49e+00	0	42	104	0	75	15801
2026-01-27 12:49:22.29	242.94	4.77	-52.2	-63.0	4.4	1.29e+00	107	42	0	0	75	12939
2026-01-27 12:49:25.32	243.28	4.91	-50.8	-55.8	10.4	3.61e-02	0	42	0	5242880	73	6332
2026-01-27 12:49:28.34	243.63	5.06	-49.6	-53.0	13.9	7.00e-07	0	43	0	11534336	69	5730
2026-01-27 12:49:31.36	243.98	5.20	-49.6	-52.9	13.6	7.00e-07	0	42	0	13631488	69	5717
2026-01-27 12:49:34.39	244.33	5.34	-47.2	-49.3	17.1	0.00e+00	0	42	0	18874368	66	4450
2026-01-27 12:49:37.40	244.68	5.48	-47.2	-49.2	17.1	0.00e+00	0	42	0	24117248	64	4972
2026-01-27 12:49:40.43	245.04	5.63	-47.3	-49.3	17.1	0.00e+00	0	42	0	30408704	65	4748
2026-01-27 12:49:43.45	245.40	5.77	-47.2	-49.1	17.3	0.00e+00	0	42	0	35651584	65	4639
2026-01-27 12:49:46.47	245.76	5.91	-47.4	-49.5	17.0	0.00e+00	0	42	0	41943040	65	4825
2026-01-27 12:49:49.49	246.13	6.05	-47.2	-49.1	17.3	0.00e+00	0	42	0	47185920	64	4910
2026-01-27 12:49:52.51	246.50	6.19	-46.9	-48.8	17.7	0.00e+00	0	42	0	52428800	64	4727
2026-01-27 12:49:55.54	246.87	6.33	-47.0	-48.9	17.6	0.00e+00	0	42	0	58720256	64	4783
2026-01-27 12:49:58.56	247.25	6.48	-47.2	-49.1	17.4	0.00e+00	0	42	0	63963136	65	4640
2026-01-27 12:50:01.58	247.63	6.62	-47.1	-49.1	17.5	0.00e+00	0	42	0	70254592	65	4604
2026-01-27 12:50:04.60	248.02	6.76	-47.3	-49.3	17.3	0.00e+00	0	42	0	75497472	65	4712
2026-01-27 12:50:07.62	248.40	6.90	-47.0	-48.9	17.7	0.00e+00	0	42	0	80740352	64	4768
2026-01-27 12:50:10.64	248.80	7.04	-47.0	-48.9	17.7	0.00e+00	0	42	0	87031808	64	4763
2026-01-27 12:50:13.66	249.19	7.18	-46.9	-48.7	17.9	0.00e+00	0	42	0	92274688	64	4676
2026-01-27 12:50:16.68	249.59	7.31	-46.9	-48.7	17.9	0.00e+00	0	43	0	98566144	64	4653
2026-01-27 12:50:19.69	249.99	7.45	-46.8	-48.5	18.1	0.00e+00	0	43	0	103809024	64	4597
2026-01-27 12:50:22.72	250.40	7.59	-46.7	-48.5	18.1	0.00e+00	0	43	0	109051904	64	4579
2026-01-27 12:50:25.73	250.81	7.73	-46.9	-48.7	17.9	0.00e+00	0	42	0	115343360	64	4675
2026-01-27 12:50:28.75	251.22	7.86	-46.8	-48.5	18.1	0.00e+00	0	43	0	120586240	64	4598
2026-01-27 12:50:31.77	251.64	8.00	-46.4	-48.1	18.6	0.00e+00	0	42	0	126877696	64	4350
2026-01-27 12:50:34.79	252.06	8.14	-46.5	-48.2	18.5	0.00e+00	0	43	0	132120576	64	4408
2026-01-27 12:50:37.81	252.48	8.27	-46.4	-48.0	18.7	0.00e+00	0	43	0	137363456	63	4597
2026-01-27 12:50:40.83	252.91	8.41	-46.3	-47.9	18.9	0.00e+00	0	42	0	143654912	63	4525
2026-01-27 12:50:43.86	253.35	8.54	-46.4	-48.0	18.8	0.00e+00	0	43	0	148897792	63	4558
2026-01-27 12:50:46.88	253.78	8.68	-46.5	-48.1	18.7	0.00e+00	0	43	0	155189248	63	4613
2026-01-27 12:50:49.90	254.22	8.81	-46.4	-48.1	18.7	0.00e+00	0	43	0	160432128	63	4604
2026-01-27 12:50:52.93	254.67	8.94	-46.3	-47.9	18.9	0.00e+00	0	43	0	165675008	63	4501
2026-01-27 12:50:55.95	255.12	9.07	-46.4	-48.0	18.8	0.00e+00	0	43	0	171966464	63	4555
2026-01-27 12:50:58.97	255.57	9.20	-46.5	-48.2	18.6	0.00e+00	0	43	0	177209344	63	4667
2026-01-27 12:51:01.99	256.02	9.33	-46.5	-48.1	18.8	0.00e+00	0	42	0	183500800	63	4611
2026-01-27 12:51:05.01	256.48	9.46	-46.4	-48.0	18.8	0.00e+00	0	43	0	188743680	63	4562
2026-01-27 12:51:08.03	256.95	9.59	-46.6	-48.2	18.7	0.00e+00	0	42	0	193986560	63	4675
2026-01-27 12:51:11.05	257.41	9.71	-46.6	-48.2	18.7	0.00e+00	0	43	0	200278016	63	4677
2026-01-27 12:51:14.07	257.89	9.84	-46.5	-48.1	18.6	0.00e+00	0	43	0	205520896	64	4371
2026-01-27 12:51:17.09	258.36	9.96	-46.5	-48.2	18.6	0.00e+00	0	43	0	211812352	64	4417
2026-01-27 12:51:20.11	258.84	10.09	-46.8	-48.5	18.3	0.00e+00	0	43	0	217055232	64	4571
2026-01-27 12:51:23.13	259.32	10.21	-46.9	-48.6	18.1	0.00e+00	0	43	0	222298112	64	4649
2026-01-27 12:51:26.15	259.81	10.33	-46.6	-48.3	18.5	0.00e+00	0	43	0	228589568	64	4470
2026-01-27 12:51:29.17	260.30	10.45	-46.8	-48.5	18.3	0.00e+00	0	43	0	233832448	64	4589
2026-01-27 12:51:32.19	260.79	10.57	-46.7	-48.4	18.4	0.00e+00	0	43	0	240123904	64	4545
2026-01-27 12:51:35.21	261.29	10.68	-46.9	-48.7	18.1	0.00e+00	0	43	0	245366784	64	4662
2026-01-27 12:51:38.24	261.80	10.80	-46.9	-48.7	18.2	0.00e+00	0	43	0	250609664	64	4680
2026-01-27 12:51:41.26	262.30	10.91	-47.0	-48.8	18.0	0.00e+00	0	43	0	256901120	64	4749
2026-01-27 12:51:44.27	262.81	11.03	-47.0	-48.8	18.0	0.00e+00	0	43	0	262144000	64	4752
2026-01-27 12:51:47.29	263.32	11.14	-47.0	-48.8	18.1	0.00e+00	0	43	0	268435456	64	4725
2026-01-27 12:51:50.31	263.84	11.25	-47.2	-49.0	17.9	0.00e+00	0	43	0	273678336	64	4829
2026-01-27 12:51:53.34	264.36	11.36	-47.3	-49.1	17.8	0.00e+00	0	43	0	278921216	65	4631
2026-01-27 12:51:56.35	264.89	11.46	-47.1	-48.9	18.0	0.00e+00	0	43	0	285212672	65	4537
2026-01-27 12:51:59.38	265.42	11.57	-46.9	-48.6	18.3	0.00e+00	0	43	0	290455552	65	4363
2026-01-27 12:52:02.40	265.95	11.67	-46.9	-48.7	18.2	0.00e+00	0	43	0	296747008	65	4399
2026-01-27 12:52:05.42	266.48	11.77	-47.0	-48.7	18.2	0.00e+00	0	43	0	301989888	65	4417
2026-01-27 12:52:08.45	267.02	11.87	-47.2	-49.0	17.9	0.00e+00	0	43	0	307232768	65	4592
2026-01-27 12:52:11.47	267.57	11.97	-47.4	-49.3	17.6	0.00e+00	0	43	0	313524224	65	4725
2026-01-27 12:52:14.50	268.11	12.07	-47.3	-49.1	17.8	0.00e+00	0	43	0	318767104	65	4617
2026-01-27 12:52:17.52	268.66	12.16	-47.2	-49.0	17.9	0.00e+00	0	43	0	325058560	65	4581
2026-01-27 12:52:20.54	269.22	12.25	-47.2	-49.1	17.9	0.00e+00	0	43	0	330301440	65	4602
2026-01-27 12:52:23.56	269.77	12.34	-47.2	-49.0	17.9	0.00e+00	0	43	0	335544320	65	4561
2026-01-27 12:52:26.58	270.33	12.43	-47.2	-49.0	17.9	0.00e+00	0	43	0	341835776	65	4594
2026-01-27 12:52:29.60	270.89	12.51	-47.5	-49.4	17.6	0.00e+00	0	43	0	347078656	65	4764
2026-01-27 12:52:32.63	271.46	12.60	-47.3	-49.2	17.8	0.00e+00	0	43	0	353370112	65	4665
2026-01-27 12:52:35.64	272.03	12.68	-46.9	-48.7	18.3	0.00e+00	0	43	0	358612992	65	4393
2026-01-27 12:52:38.66	272.60	12.76	-46.8	-48.5	18.4	0.00e+00	0	43	0	363855872	65	4295
2026-01-27 12:52:41.69	273.18	12.83	-46.8	-48.5	18.4	0.00e+00	0	43	0	370147328	65	4338
2026-01-27 12:52:44.71	273.75	12.91	-46.8	-48.5	18.4	0.00e+00	0	43	0	375390208	65	4340
2026-01-27 12:52:47.73	274.33	12.98	-47.0	-48.7	18.3	0.00e+00	0	43	0	381681664	65	4412
2026-01-27 12:52:50.75	274.92	13.05	-46.7	-48.3	18.7	0.00e+00	0	43	0	386924544	65	4225
2026-01-27 12:52:53.77	275.50	13.11	-46.3	-47.8	19.1	0.00e+00	0	43	0	392167424	64	4230
2026-01-27 12:52:56.79	276.09	13.18	-46.4	-47.9	19.0	0.00e+00	0	43	0	398458880	64	4290
2026-01-27 12:52:59.81	276.68	13.24	-46.7	-48.3	18.6	0.00e+00	0	43	0	403701760	64	4489
2026-01-27 12:53:02.83	277.27	13.30	-47.0	-48.7	18.3	0.00e+00	0	43	0	409993216	64	4672
2026-01-27 12:53:05.85	277.86	13.35	-47.2	-49.0	18.0	0.00e+00	0	43	0	415236096	65	4579
2026-01-27 12:53:08.88	278.46	13.40	-47.2	-48.9	18.1	0.00e+00	0	43	0	420478976	65	4533
2026-01-27 12:53:11.91	279.06	13.46	-47.2	-49.0	18.0	0.00e+00	0	43	0	426770432	65	4591
2026-01-27 12:53:14.93	279.66	13.50	-47.5	-49.3	17.7	0.00e+00	0	42	0	432013312	65	4755
2026-01-27 12:53:17.95	280.27	13.55	-47.5	-49.3	17.7	0.00e+00	0	43	0	438304768	65	4753
2026-01-27 12:53:20.97	280.87	13.59	-47.4	-49.2	17.8	0.00e+00	0	43	0	443547648	65	4678
2026-01-27 12:53:24.00	281.48	13.63	-47.3	-49.1	18.0	0.00e+00	0	43	0	449839104	65	4614
2026-01-27 12:53:27.02	282.08	13.67	-47.3	-49.1	18.0	0.00e+00	0	43	0	455081984	65	4639
2026-01-27 12:53:30.05	282.69	13.70	-47.2	-49.0	18.1	0.00e+00	0	43	0	460324864	65	4570
2026-01-27 12:53:33.07	283.30	13.73	-47.2	-48.9	18.1	0.00e+00	0	43	0	466616320	65	4544
2026-01-27 12:53:36.09	283.91	13.76	-47.3	-49.1	17.9	0.00e+00	0	43	0	471859200	65	4648
2026-01-27 12:53:39.11	284.53	13.78	-47.4	-49.1	18.0	0.00e+00	0	43	0	478150656	65	4645
2026-01-27 12:53:42.13	285.14	13.80	-47.1	-48.8	18.3	0.00e+00	0	43	0	483393536	65	4464
2026-01-27 12:53:45.15	285.75	13.82	-47.0	-48.7	18.4	0.00e+00	0	43	0	488636416	65	4410
2026-01-27 12:53:48.17	286.37	13.84	-47.1	-48.8	18.4	0.00e+00	0	43	0	494927872	65	4451
2026-01-27 12:53:51.20	286.98	13.85	-47.0	-48.7	18.5	0.00e+00	0	43	0	500170752	65	4404
2026-01-27 12:53:54.22	287.60	13.86	-47.1	-48.8	18.4	0.00e+00	0	43	0	506462208	65	4450
2026-01-27 12:53:57.24	288.21	13.87	-46.8	-48.4	18.8	0.00e+00	0	43	0	511705088	65	4254
2026-01-27 12:54:00.26	288.83	13.87	-46.5	-48.1	19.2	0.00e+00	0	43	0	516947968	65	4099
2026-01-27 12:54:03.29	289.45	13.87	-46.4	-47.9	19.2	0.00e+00	0	43	0	523239424	64	4285
2026-01-27 12:54:06.31	290.06	13.87	-46.6	-48.2	19.1	0.00e+00	0	43	0	528482304	64	4419
2026-01-27 12:54:09.33	290.68	13.86	-46.5	-48.0	19.2	0.00e+00	0	43	0	534773760	64	4326
2026-01-27 12:54:12.35	291.29	13.85	-46.3	-47.7	19.4	0.00e+00	0	43	0	540016640	64	4191
2026-01-27 12:54:15.37	291.91	13.84	-46.1	-47.5	19.8	0.00e+00	0	43	0	545259520	63	4340
2026-01-27 12:54:18.39	292.52	13.83	-46.3	-47.7	19.6	0.00e+00	0	43	0	551550976	63	4425
2026-01-27 12:54:21.41	293.13	13.81	-46.1	-47.5	19.8	0.00e+00	0	43	0	556793856	63	4318
2026-01-27 12:54:24.43	293.75	13.79	-45.9	-47.2	20.1	0.00e+00	0	43	0	563085312	63	4185
2026-01-27 12:54:27.45	294.36	13.77	-45.9	-47.3	20.0	0.00e+00	0	43	0	568328192	63	4229
2026-01-27 12:54:30.47	294.97	13.74	-45.8	-47.1	20.2	0.00e+00	0	43	0	573571072	63	4118
2026-01-27 12:54:33.50	295.58	13.71	-45.6	-47.0	20.3	0.00e+00	0	43	0	579862528	63	4056
2026-01-27 12:54:36.52	296.19	13.68	-45.7	-47.0	20.2	0.00e+00	0	43	0	585105408	63	4082
2026-01-27 12:54:39.54	296.79	13.64	-45.9	-47.3	19.9	0.00e+00	0	43	0	591396864	63	4234
2026-01-27 12:54:42.56	297.40	13.60	-46.0	-47.4	19.8	0.00e+00	0	43	0	596639744	63	4291
2026-01-27 12:54:45.58	298.00	13.56	-46.1	-47.5	19.7	0.00e+00	0	43	0	601882624	63	4317
2026-01-27 12:54:48.60	298.61	13.52	-46.1	-47.5	19.7	0.00e+00	0	43	0	608174080	63	4322
2026-01-27 12:54:51.63	299.21	13.47	-46.0	-47.5	19.7	0.00e+00	0	43	0	613416960	63	4305
2026-01-27 12:54:54.64	299.80	13.42	-45.7	-47.0	20.1	0.00e+00	0	43	0	619708416	63	4094
2026-01-27 12:54:57.67	300.40	13.37	-45.8	-47.2	19.9	0.00e+00	0	43	0	624951296	63	4173
2026-01-27 12:55:00.69	301.00	13.32	-46.1	-47.6	19.6	0.00e+00	0	43	0	630194176	63	4343
2026-01-27 12:55:03.71	301.59	13.26	-46.3	-47.8	19.4	0.00e+00	0	43	0	636485632	63	4463
2026-01-27 12:55:06.73	302.18	13.20	-46.0	-47.5	19.6	0.00e+00	0	43	0	641728512	63	4301
2026-01-27 12:55:09.75	302.76	13.14	-45.7	-47.0	20.0	0.00e+00	0	43	0	648019968	63	4096
2026-01-27 12:55:12.77	303.35	13.07	-45.5	-46.8	20.2	0.00e+00	0	43	0	653262848	63	3989
2026-01-27 12:55:15.79	303.93	13.00	-45.4	-46.7	20.4	0.00e+00	0	43	0	659554304	62	4163
2026-01-27 12:55:18.82	304.51	12.93	-45.5	-46.9	20.2	0.00e+00	0	43	0	664797184	62	4254
2026-01-27 12:55:21.84	305.09	12.86	-45.7	-47.1	19.9	0.00e+00	0	43	0	670040064	62	4379
2026-01-27 12:55:24.86	305.66	12.79	-45.9	-47.3	19.7	0.00e+00	0	43	0	676331520	62	4469
2026-01-27 12:55:27.88	306.23	12.71	-45.5	-46.9	20.1	0.00e+00	0	43	0	681574400	62	4262
2026-01-27 12:55:30.91	306.80	12.63	-45.4	-46.7	20.3	0.00e+00	0	43	0	687865856	62	4181
2026-01-27 12:55:33.93	307.37	12.55	-45.5	-46.9	20.1	0.00e+00	0	43	0	693108736	62	4244
2026-01-27 12:55:36.95	307.93	12.46	-45.6	-47.0	19.9	0.00e+00	0	43	0	698351616	62	4313
2026-01-27 12:55:39.97	308.49	12.38	-45.7	-47.1	19.8	0.00e+00	0	43	0	704643072	62	4372
2026-01-27 12:55:42.99	309.04	12.29	-45.8	-47.2	19.7	0.00e+00	0	43	0	709885952	62	4416
2026-01-27 12:55:46.00	309.59	12.20	-45.7	-47.1	19.6	0.00e+00	0	43	0	716177408	62	4369
2026-01-27 12:55:49.03	310.14	12.11	-45.6	-47.0	19.9	0.00e+00	0	43	0	721420288	62	4300
2026-01-27 12:55:52.04	310.69	12.01	-45.7	-47.1	19.8	0.00e+00	0	43	0	726663168	62	4352
2026-01-27 12:55:55.06	311.23	11.92	-45.7	-47.1	19.7	0.00e+00	0	43	0	732954624	62	4385
2026-01-27 12:55:58.08	311.77	11.82	-45.7	-47.2	19.3	0.00e+00	0	43	0	738197504	62	4396
2026-01-27 12:56:01.08	312.30	11.72	-45.9	-47.4	19.3	0.00e+00	0	43	0	743440384	62	4526
2026-01-27 12:56:04.11	312.83	11.62	-46.1	-47.6	19.2	0.00e+00	0	43	0	749731840	62	4640
2026-01-27 12:56:07.13	313.36	11.51	-46.3	-47.8	19.1	0.00e+00	0	43	0	754974720	63	4493
2026-01-27 12:56:10.16	313.89	11.41	-46.6	-48.2	18.3	0.00e+00	0	43	0	761266176	63	4686
2026-01-27 12:56:13.18	314.41	11.30	-46.8	-48.6	18.0	0.00e+00	0	43	0	766509056	64	4614
2026-01-27 12:56:16.20	314.92	11.19	-47.0	-48.8	17.8	0.00e+00	0	43	0	772800512	64	4724
2026-01-27 12:56:19.22	315.44	11.08	-46.7	-48.4	18.4	0.00e+00	0	43	0	778043392	64	4525
2026-01-27 12:56:22.24	315.95	10.97	-46.8	-48.6	17.9	0.00e+00	0	43	0	783286272	64	4615
2026-01-27 12:56:25.27	316.45	10.86	-47.2	-49.0	17.3	0.00e+00	0	42	0	789577728	64	4860
2026-01-27 12:56:28.29	316.96	10.74	-47.5	-49.5	17.1	0.00e+00	0	43	0	794820608	65	4858
2026-01-27 12:56:31.31	317.45	10.63	-47.9	-50.0	16.7	0.00e+00	0	43	0	801112064	66	4856
2026-01-27 12:56:34.34	317.95	10.51	-48.5	-50.9	15.8	0.00e+00	0	43	0	806354944	67	5073
2026-01-27 12:56:37.36	318.44	10.39	-48.6	-51.2	15.4	0.00e+00	0	43	0	811597824	67	5241
2026-01-27 12:56:40.39	318.93	10.27	-48.3	-50.7	16.1	0.00e+00	0	43	0	817889280	67	4932
2026-01-27 12:56:43.40	319.41	10.15	-47.9	-50.1	16.6	0.00e+00	0	43	0	823132160	67	4651
2026-01-27 12:56:46.42	319.89	10.03	-47.8	-50.0	16.7	0.00e+00	0	43	0	829423616	67	4562
2026-01-27 12:56:49.44	320.36	9.91	-47.8	-50.0	16.7	0.00e+00	0	43	0	834666496	67	4547
2026-01-27 12:56:52.47	320.83	9.78	-48.2	-50.5	16.2	0.00e+00	0	43	0	839909376	67	4840
2026-01-27 12:56:55.49	321.30	9.66	-48.3	-50.6	16.1	0.00e+00	0	43	0	846200832	67	4903
2026-01-27 12:56:58.51	321.76	9.53	-48.3	-50.7	15.9	0.00e+00	0	43	0	851443712	67	4967
2026-01-27 12:57:01.53	322.22	9.40	-47.8	-49.9	16.7	0.00e+00	0	43	0	857735168	67	4527
2026-01-27 12:57:04.55	322.68	9.27	-47.6	-49.6	17.0	0.00e+00	0	43	0	862978048	67	4380
2026-01-27 12:57:07.57	323.13	9.15	-47.8	-50.0	16.6	0.00e+00	0	43	0	868220928	67	4569
2026-01-27 12:57:10.59	323.58	9.02	-47.8	-50.0	16.6	0.00e+00	0	43	0	874512384	67	4574
2026-01-27 12:57:13.61	324.02	8.89	-47.4	-49.4	17.2	0.00e+00	0	43	0	879755264	66	4519
2026-01-27 12:57:16.63	324.46	8.75	-47.1	-49.0	17.6	0.00e+00	0	43	0	886046720	66	4296
2026-01-27 12:57:19.65	324.90	8.62	-47.2	-49.2	17.4	0.00e+00	0	43	0	891289600	66	4418
2026-01-27 12:57:22.67	325.33	8.49	-47.4	-49.4	17.2	0.00e+00	0	43	0	896532480	66	4504
2026-01-27 12:57:25.69	325.76	8.36	-47.4	-49.4	17.1	0.00e+00	0	43	0	902823936	66	4527
2026-01-27 12:57:28.71	326.18	8.22	-47.4	-49.4	17.1	0.00e+00	0	43	0	908066816	66	4537
2026-01-27 12:57:31.73	326.61	8.09	-47.6	-49.8	16.7	0.00e+00	0	43	0	914358272	66	4716
2026-01-27 12:57:34.76	327.02	7.95	-47.3	-49.3	17.2	0.00e+00	0	43	0	919601152	66	4470
2026-01-27 12:57:37.78	327.44	7.82	-46.7	-48.5	17.9	0.00e+00	0	43	0	924844032	65	4335
2026-01-27 12:57:40.81	327.85	7.68	-46.6	-48.3	18.1	0.00e+00	0	43	0	931135488	64	4485
2026-01-27 12:57:43.83	328.25	7.54	-46.6	-48.4	18.0	0.00e+00	0	43	0	936378368	64	4517
2026-01-27 12:57:46.85	328.66	7.41	-46.7	-48.5	17.9	0.00e+00	0	43	0	942669824	64	4584
2026-01-27 12:57:49.87	329.06	7.27	-46.7	-48.5	17.9	0.00e+00	0	43	0	947912704	64	4584
2026-01-27 12:57:52.88	329.45	7.13	-46.6	-48.4	17.9	0.00e+00	0	43	0	953155584	64	4513
2026-01-27 12:57:55.91	329.84	6.99	-46.5	-48.3	18.1	0.00e+00	0	43	0	959447040	64	4466
2026-01-27 12:57:58.93	330.23	6.85	-46.8	-48.7	17.7	0.00e+00	0	43	0	964689920	64	4691
2026-01-27 12:58:01.94	330.61	6.71	-46.9	-48.8	17.6	0.00e+00	0	43	0	970981376	64	4721
2026-01-27 12:58:04.96	331.00	6.57	-46.6	-48.5	17.8	0.00e+00	0	43	0	976224256	64	4560
2026-01-27 12:58:07.98	331.37	6.44	-46.6	-48.4	17.9	0.00e+00	0	43	0	981467136	64	4522
2026-01-27 12:58:11.00	331.75	6.30	-46.6	-48.4	17.9	0.00e+00	0	43	0	987758592	64	4511
2026-01-27 12:58:14.03	332.12	6.15	-46.7	-48.5	17.7	0.00e+00	0	43	0	993001472	64	4593
2026-01-27 12:58:17.03	332.48	6.02	-46.7	-48.6	17.6	0.00e+00	0	43	0	999292928	64	4634
2026-01-27 12:58:20.05	332.85	5.88	-46.7	-48.6	17.6	0.00e+00	0	43	0	1004535808	64	4628
2026-01-27 12:58:23.08	333.21	5.73	-46.6	-48.4	17.7	0.00e+00	0	43	0	1009778688	64	4537
2026-01-27 12:58:26.11	333.57	5.59	-46.8	-48.8	17.3	0.00e+00	0	43	0	1016070144	64	4743
2026-01-27 12:58:29.14	333.92	5.45	-47.1	-49.2	16.8	0.00e+00	0	43	0	1021313024	64	4964
2026-01-27 12:58:32.16	334.28	5.31	-47.3	-49.7	16.1	0.00e+00	0	43	0	1027604480	65	4938
2026-01-27 12:58:35.17	334.62	5.17	-46.4	-48.3	17.3	0.00e+00	0	43	0	1032847360	64	4486
2026-01-27 12:58:38.19	334.97	5.03	-46.9	-49.1	16.6	0.00e+00	0	43	0	1038090240	64	4892
2026-01-27 12:58:41.22	335.31	4.89	-53.0	-68.0	3.8	1.49e+00	0	43	104	1039138816	76	21567
2026-01-27 12:58:44.25	335.65	4.74	-53.3	-68.3	3.8	1.49e+00	0	43	104	1039138816	77	21106
2026-01-27 12:58:47.27	335.98	4.60	-53.4	-68.3	3.8	1.49e+00	0	43	104	1039138816	77	21122
2026-01-27 12:58:50.29	336.31	4.46	-53.2	-68.0	3.8	1.49e+00	0	43	104	1039138816	77	20372
2026-01-27 12:58:53.32	336.64	4.32	-53.2	-67.8	3.8	1.49e+00	0	43	104	1039138816	77	20006
2026-01-27 12:58:56.34	336.97	4.18	-53.4	-68.3	3.8	1.49e+00	0	43	104	1039138816	77	21065
2026-01-27 12:58:59.36	337.29	4.04	-53.5	-68.4	3.8	1.49e+00	0	43	104	1039138816	77	21417
2026-01-27 12:59:02.39	337.61	3.89	-53.4	-68.4	3.8	1.49e+00	0	43	104	1039138816	77	21317
2026-01-27 12:59:05.41	337.93	3.75	-53.4	-68.3	3.8	1.49e+00	0	43	104	1039138816	77	21239
2026-01-27 12:59:08.43	338.24	3.61	-53.4	-68.3	3.8	1.49e+00	0	43	104	1039138816	77	21221
2026-01-27 12:59:11.45	338.56	3.47	-53.4	-68.3	3.8	1.49e+00	0	43	104	1039138816	77	21208
2026-01-27 12:59:14.48	338.87	3.33	-53.3	-68.3	3.8	1.49e+00	0	43	104	1039138816	77	21130
2026-01-27 12:59:17.50	339.17	3.19	-53.3	-68.2	3.8	1.49e+00	0	43	104	1039138816	77	20989
2026-01-27 12:59:20.53	339.47	3.05	-53.3	-68.2	3.8	1.49e+00	0	43	104	1039138816	77	20992
2026-01-27 12:59:23.54	339.77	2.91	-53.3	-68.3	3.8	1.49e+00	0	43	104	1039138816	77	21035
2026-01-27 12:59:26.56	340.07	2.77	-53.3	-68.2	3.8	1.49e+00	0	43	104	1039138816	77	20972
2026-01-27 12:59:29.58	340.37	2.62	-53.3	-68.2	3.8	1.49e+00	0	43	104	1039138816	77	20941
2026-01-27 12:59:32.60	340.66	2.48	-53.3	-68.2	3.8	1.49e+00	0	43	104	1039138816	77	20907
2026-01-27 12:59:35.63	340.95	2.34	-53.3	-68.2	3.8	1.49e+00	0	43	104	1039138816	77	20906
2026-01-27 12:59:38.65	341.24	2.20	-53.2	-68.2	3.8	1.49e+00	0	43	104	1039138816	77	20823
2026-01-27 12:59:41.67	341.52	2.06	-53.2	-68.2	3.8	1.49e+00	0	43	104	1039138816	77	20849

#Closed at: 2026-01-27 12:59:44
#Recorded file [1039 MB]: D:/lorett/data/31041_260127_154824.dat