passes_logs/2026/01/27/R3.2S_Murmansk/R3.2S_Murmansk__20260127_010712_NOAA_20_JPSS-1_rec.log

#Pass ID: 20260127_010712_NOAA 20 (JPSS-1)
#Satellite: NOAA 20 (JPSS-1)
#Configuration: NOAA 20
#almurnet v.1.7.20251203
#Start time: 2026-01-27 01:07:12

#Version: 2.2.20231116
#Station: R3.2S_Murmansk
#Location: 33.079688 lon 68.888172 lat
#TLE: 1 43013U 17073A   26026.46665230  .00000148  00000+0  91302-4 0  9998
#TLE: 2 43013  98.7646 327.2856 0001008  22.9532 337.1688 14.19540616424360

#Time	Az	El	Level	Level2	SNR	BER	BlckErr	Temp	State	Recorded	gain1	gain2
2026-01-27 01:07:12.82	26.26	2.03	-54.1	-69.1	3.8	1.49e+00	0	41	0	0	79	20697
2026-01-27 01:07:16.84	26.23	2.28	-54.1	-69.1	3.8	1.49e+00	0	41	104	0	78	21770
2026-01-27 01:07:20.87	26.20	2.54	-54.2	-69.2	3.8	1.49e+00	0	41	104	0	78	22048
2026-01-27 01:07:24.90	26.17	2.81	-54.2	-69.2	3.8	1.49e+00	0	41	104	0	79	20928
2026-01-27 01:07:28.93	26.13	3.07	-54.2	-69.1	3.8	1.49e+00	0	41	104	0	79	20739
2026-01-27 01:07:32.96	26.10	3.34	-54.1	-69.1	3.8	1.49e+00	0	42	104	0	79	20548
2026-01-27 01:07:36.99	26.07	3.61	-53.8	-68.8	3.8	1.49e+00	0	41	104	0	79	19926
2026-01-27 01:07:41.02	26.03	3.88	-53.2	-68.2	3.8	1.49e+00	0	42	104	0	78	19740
2026-01-27 01:07:45.05	25.99	4.16	-50.0	-54.1	11.9	7.47e-04	0	42	0	2097152	72	5518
2026-01-27 01:07:49.08	25.96	4.44	-49.2	-52.4	13.9	1.50e-06	0	42	0	9437184	70	5054
2026-01-27 01:07:53.10	25.92	4.72	-48.9	-51.9	14.4	0.00e+00	0	42	0	16777216	69	5057
2026-01-27 01:07:57.14	25.88	5.01	-50.1	-54.4	11.7	3.58e-04	0	42	0	25165824	70	6409
2026-01-27 01:08:01.17	25.84	5.29	-52.0	-65.6	3.8	1.27e+00	0	42	104	31457280	74	18433
2026-01-27 01:08:05.19	25.79	5.58	-48.8	-51.7	14.7	7.00e-07	0	42	0	36700160	69	4944
2026-01-27 01:08:09.22	25.75	5.88	-48.1	-50.5	16.0	0.00e+00	0	42	0	44040192	68	4578
2026-01-27 01:08:13.25	25.71	6.17	-48.1	-50.5	16.1	0.00e+00	0	42	0	52428800	68	4567
2026-01-27 01:08:17.28	25.66	6.48	-48.1	-50.3	16.2	0.00e+00	0	42	0	59768832	68	4493
2026-01-27 01:08:21.31	25.61	6.78	-48.2	-50.6	16.0	0.00e+00	0	42	0	67108864	68	4615
2026-01-27 01:08:25.34	25.56	7.09	-47.8	-50.0	16.5	0.00e+00	0	42	0	74448896	67	4583
2026-01-27 01:08:29.37	25.51	7.40	-47.8	-49.9	16.7	0.00e+00	0	42	0	81788928	67	4535
2026-01-27 01:08:33.40	25.46	7.71	-47.7	-49.8	16.8	0.00e+00	0	42	0	90177536	67	4469
2026-01-27 01:08:37.43	25.41	8.03	-47.6	-49.7	17.0	0.00e+00	0	42	0	97517568	67	4412
2026-01-27 01:08:41.46	25.35	8.36	-47.5	-49.5	17.2	0.00e+00	0	42	0	104857600	67	4302
2026-01-27 01:08:45.49	25.30	8.68	-47.5	-49.5	17.3	0.00e+00	0	42	0	112197632	66	4552
2026-01-27 01:08:49.52	25.24	9.02	-47.5	-49.5	17.2	0.00e+00	0	43	0	120586240	66	4564
2026-01-27 01:08:53.55	25.18	9.35	-47.3	-49.3	17.5	0.00e+00	0	42	0	127926272	66	4445
2026-01-27 01:08:57.58	25.12	9.69	-47.2	-49.0	17.8	0.00e+00	0	42	0	135266304	66	4326
2026-01-27 01:09:01.61	25.06	10.04	-47.1	-48.9	17.9	0.00e+00	0	43	0	142606336	66	4278
2026-01-27 01:09:05.64	24.99	10.39	-46.9	-48.7	18.1	0.00e+00	0	42	0	149946368	65	4424
2026-01-27 01:09:09.67	24.92	10.75	-47.0	-48.8	18.1	0.00e+00	0	43	0	157286400	65	4448
2026-01-27 01:09:13.70	24.85	11.11	-46.9	-48.6	18.3	0.00e+00	0	42	0	165675008	65	4364
2026-01-27 01:09:17.74	24.78	11.47	-46.8	-48.5	18.4	0.00e+00	0	43	0	173015040	65	4292
2026-01-27 01:09:21.77	24.71	11.84	-46.7	-48.4	18.5	0.00e+00	0	43	0	180355072	65	4277
2026-01-27 01:09:25.79	24.63	12.22	-46.7	-48.3	18.6	0.00e+00	0	43	0	187695104	65	4230
2026-01-27 01:09:29.82	24.55	12.60	-46.6	-48.2	18.8	0.00e+00	0	42	0	196083712	65	4164
2026-01-27 01:09:33.84	24.47	12.99	-46.6	-48.3	18.7	0.00e+00	0	43	0	203423744	65	4209
2026-01-27 01:09:37.88	24.39	13.39	-46.3	-47.9	19.1	0.00e+00	0	43	0	210763776	64	4248
2026-01-27 01:09:41.91	24.30	13.79	-46.2	-47.7	19.3	0.00e+00	0	43	0	218103808	64	4173
2026-01-27 01:09:45.94	24.21	14.20	-46.1	-47.6	19.4	0.00e+00	0	43	0	225443840	64	4142
2026-01-27 01:09:49.97	24.12	14.61	-46.0	-47.4	19.6	0.00e+00	0	43	0	233832448	64	4042
2026-01-27 01:09:54.00	24.03	15.03	-46.1	-47.5	19.6	0.00e+00	0	43	0	241172480	63	4328
2026-01-27 01:09:58.04	23.93	15.46	-45.9	-47.3	19.8	0.00e+00	0	43	0	248512512	63	4205
2026-01-27 01:10:02.07	23.83	15.90	-46.0	-47.4	19.7	0.00e+00	0	43	0	255852544	63	4282
2026-01-27 01:10:06.10	23.72	16.35	-45.7	-47.1	20.1	0.00e+00	0	43	0	263192576	63	4108
2026-01-27 01:10:10.13	23.61	16.80	-45.5	-46.8	20.4	0.00e+00	0	43	0	271581184	63	3980
2026-01-27 01:10:14.17	23.50	17.26	-45.5	-46.8	20.4	0.00e+00	0	43	0	278921216	62	4218
2026-01-27 01:10:18.20	23.38	17.73	-45.2	-46.5	20.7	0.00e+00	0	43	0	286261248	62	4072
2026-01-27 01:10:22.24	23.26	18.21	-45.2	-46.4	20.8	0.00e+00	0	43	0	293601280	62	4043
2026-01-27 01:10:26.26	23.13	18.70	-44.9	-46.1	21.0	0.00e+00	0	43	0	300941312	61	4129
2026-01-27 01:10:30.29	23.00	19.20	-45.0	-46.2	21.0	0.00e+00	0	43	0	309329920	61	4153
2026-01-27 01:10:34.31	22.87	19.71	-44.8	-46.0	21.2	0.00e+00	0	43	0	316669952	61	4085
2026-01-27 01:10:38.35	22.73	20.23	-44.6	-45.8	21.4	0.00e+00	0	43	0	324009984	61	3976
2026-01-27 01:10:42.39	22.58	20.76	-44.5	-45.6	21.6	0.00e+00	0	43	0	331350016	60	4142
2026-01-27 01:10:46.42	22.43	21.30	-44.3	-45.5	21.7	0.00e+00	0	43	0	339738624	60	4053
2026-01-27 01:10:50.45	22.27	21.85	-44.3	-45.4	21.8	0.00e+00	0	43	0	347078656	60	4044
2026-01-27 01:10:54.48	22.11	22.42	-44.3	-45.4	21.9	0.00e+00	0	43	0	354418688	60	4019
2026-01-27 01:10:58.51	21.94	22.99	-44.4	-45.5	21.7	0.00e+00	0	43	0	361758720	60	4060
2026-01-27 01:11:02.54	21.76	23.58	-44.5	-45.6	21.7	0.00e+00	0	43	0	369098752	60	4123
2026-01-27 01:11:06.56	21.57	24.18	-44.6	-45.8	21.5	0.00e+00	0	43	0	376438784	60	4209
2026-01-27 01:11:10.59	21.38	24.80	-44.8	-46.0	21.3	0.00e+00	0	43	0	384827392	60	4324
2026-01-27 01:11:14.61	21.18	25.43	-44.9	-46.1	21.2	0.00e+00	0	43	0	392167424	60	4364
2026-01-27 01:11:18.64	20.97	26.08	-45.1	-46.3	21.0	0.00e+00	0	43	0	399507456	60	4480
2026-01-27 01:11:22.67	20.75	26.74	-45.3	-46.5	20.9	0.00e+00	0	43	0	406847488	61	4325
2026-01-27 01:11:26.71	20.51	27.42	-45.5	-46.8	20.6	0.00e+00	0	43	0	414187520	61	4469
2026-01-27 01:11:30.74	20.27	28.11	-46.0	-47.4	20.1	0.00e+00	0	43	0	422576128	62	4509
2026-01-27 01:11:34.77	20.02	28.83	-46.6	-48.1	19.5	0.00e+00	0	43	0	429916160	63	4622
2026-01-27 01:11:38.80	19.75	29.56	-47.2	-48.8	18.7	0.00e+00	0	43	0	437256192	64	4738
2026-01-27 01:11:42.81	19.48	30.30	-47.3	-49.0	18.5	0.00e+00	0	43	0	444596224	65	4580
2026-01-27 01:11:46.83	19.19	31.07	-47.6	-49.4	18.1	0.00e+00	0	43	0	452984832	65	4776
2026-01-27 01:11:50.86	18.88	31.85	-47.7	-49.5	18.0	0.00e+00	0	43	0	460324864	66	4572
2026-01-27 01:11:54.89	18.55	32.66	-47.6	-49.3	18.2	0.00e+00	0	43	0	467664896	66	4464
2026-01-27 01:11:58.91	18.21	33.49	-48.0	-49.8	17.7	0.00e+00	0	43	0	475004928	66	4754
2026-01-27 01:12:02.94	17.85	34.34	-47.8	-49.6	18.1	0.00e+00	0	43	0	482344960	66	4602
2026-01-27 01:12:06.97	17.47	35.21	-47.2	-48.8	18.7	0.00e+00	0	43	0	490733568	66	4239
2026-01-27 01:12:11.00	17.07	36.11	-46.8	-48.3	19.2	0.00e+00	0	43	0	498073600	65	4220
2026-01-27 01:12:15.04	16.64	37.03	-46.4	-47.9	19.7	0.00e+00	0	43	0	505413632	64	4256
2026-01-27 01:12:19.07	16.19	37.97	-46.6	-48.1	19.4	0.00e+00	0	43	0	512753664	64	4374
2026-01-27 01:12:23.09	15.71	38.94	-47.0	-48.5	19.1	0.00e+00	0	43	0	520093696	64	4583
2026-01-27 01:12:27.12	15.20	39.93	-47.3	-48.9	18.7	0.00e+00	0	43	0	528482304	65	4507
2026-01-27 01:12:31.16	14.65	40.96	-47.1	-48.7	19.0	0.00e+00	0	43	0	535822336	65	4408
2026-01-27 01:12:35.20	14.07	42.01	-47.4	-49.0	18.6	0.00e+00	0	43	0	543162368	65	4582
2026-01-27 01:12:39.23	13.44	43.08	-47.5	-49.2	18.5	0.00e+00	0	43	0	550502400	65	4685
2026-01-27 01:12:43.25	12.78	44.18	-47.6	-49.3	18.4	0.00e+00	0	43	0	557842432	66	4490
2026-01-27 01:12:47.29	12.06	45.31	-47.2	-48.8	18.9	0.00e+00	0	43	0	566231040	66	4233
2026-01-27 01:12:51.31	11.29	46.46	-47.0	-48.5	19.2	0.00e+00	0	43	0	573571072	65	4315
2026-01-27 01:12:55.34	10.45	47.65	-47.2	-48.8	19.0	0.00e+00	0	43	0	580911104	65	4453
2026-01-27 01:12:59.37	9.55	48.85	-47.4	-49.0	18.7	0.00e+00	0	43	0	588251136	65	4571
2026-01-27 01:13:03.39	8.58	50.09	-46.2	-47.5	20.2	0.00e+00	0	43	0	595591168	64	4097
2026-01-27 01:13:07.42	7.52	51.34	-45.1	-46.3	21.4	0.00e+00	0	43	0	603979776	62	3967
2026-01-27 01:13:11.46	6.36	52.63	-44.1	-45.2	22.5	0.00e+00	0	43	0	611319808	60	3916
2026-01-27 01:13:15.48	5.10	53.93	-45.1	-46.2	21.4	0.00e+00	0	43	0	618659840	60	4425
2026-01-27 01:13:19.51	3.71	55.24	-45.9	-47.2	20.6	0.00e+00	0	43	0	625999872	62	4432
2026-01-27 01:13:23.54	2.19	56.58	-46.8	-48.3	19.5	0.00e+00	0	43	0	633339904	64	4470
2026-01-27 01:13:27.57	0.50	57.92	-47.6	-49.3	18.6	0.00e+00	0	43	0	641728512	65	4712
2026-01-27 01:13:31.60	358.64	59.27	-47.5	-49.1	18.7	0.00e+00	0	43	0	649068544	66	4376
2026-01-27 01:13:35.63	356.58	60.62	-46.5	-47.9	19.9	0.00e+00	0	43	0	656408576	65	4023
2026-01-27 01:13:39.66	354.28	61.96	-45.5	-46.7	21.2	0.00e+00	0	43	0	663748608	62	4159
2026-01-27 01:13:43.70	351.72	63.28	-44.7	-45.7	22.0	0.00e+00	0	43	0	671088640	60	4186
2026-01-27 01:13:47.73	348.85	64.58	-46.1	-47.3	20.6	0.00e+00	0	43	0	679477248	62	4480
2026-01-27 01:13:51.76	345.65	65.82	-47.0	-48.5	19.3	0.00e+00	0	43	0	686817280	65	4339
2026-01-27 01:13:55.78	342.07	67.01	-47.3	-48.8	19.1	0.00e+00	0	43	0	694157312	65	4473
2026-01-27 01:13:59.82	338.06	68.13	-48.8	-50.7	17.2	0.00e+00	0	43	0	701497344	68	4700
2026-01-27 01:14:03.85	333.61	69.15	-48.1	-49.9	18.1	0.00e+00	0	43	0	709885952	68	4288
2026-01-27 01:14:07.87	328.71	70.04	-46.4	-47.8	20.1	0.00e+00	0	43	0	717225984	64	4214
2026-01-27 01:14:11.90	323.34	70.80	-46.2	-47.5	20.4	0.00e+00	0	43	0	724566016	64	4061
2026-01-27 01:14:15.93	317.55	71.38	-45.4	-46.6	21.3	0.00e+00	0	43	0	731906048	62	4108
2026-01-27 01:14:19.96	311.43	71.78	-46.8	-48.2	19.7	0.00e+00	0	43	0	739246080	64	4412
2026-01-27 01:14:23.99	305.10	71.97	-46.9	-48.3	19.7	0.00e+00	0	43	0	746586112	65	4222
2026-01-27 01:14:28.01	298.72	71.95	-47.1	-48.6	19.3	0.00e+00	0	43	0	754974720	65	4365
2026-01-27 01:14:32.04	292.41	71.72	-46.2	-47.6	20.4	0.00e+00	0	43	0	762314752	64	4100
2026-01-27 01:14:36.08	286.33	71.29	-46.0	-47.3	20.7	0.00e+00	0	43	0	769654784	63	4198
2026-01-27 01:14:40.11	280.61	70.67	-46.4	-47.7	20.4	0.00e+00	0	43	0	776994816	63	4441
2026-01-27 01:14:44.14	275.32	69.89	-47.8	-49.5	18.6	0.00e+00	0	43	0	785383424	66	4571
2026-01-27 01:14:48.17	270.49	68.97	-48.6	-50.4	17.8	0.00e+00	0	43	0	792723456	68	4523
2026-01-27 01:14:52.20	266.12	67.93	-49.7	-52.1	16.0	0.00e+00	0	43	0	800063488	70	4895
2026-01-27 01:14:56.23	262.19	66.80	-48.2	-50.0	18.1	0.00e+00	0	43	0	807403520	68	4310
2026-01-27 01:15:00.26	258.68	65.59	-47.1	-48.6	19.4	0.00e+00	0	43	0	814743552	66	4117
2026-01-27 01:15:04.29	255.54	64.33	-45.2	-46.3	21.7	0.00e+00	0	43	0	823132160	62	3999
2026-01-27 01:15:08.32	252.73	63.03	-45.0	-46.2	21.8	0.00e+00	0	43	0	830472192	61	4151
2026-01-27 01:15:12.35	250.21	61.70	-45.2	-46.4	21.6	0.00e+00	0	43	0	837812224	61	4258
2026-01-27 01:15:16.38	247.96	60.36	-46.1	-47.4	20.6	0.00e+00	0	43	0	845152256	62	4532
2026-01-27 01:15:20.41	245.93	59.01	-47.3	-48.9	19.2	0.00e+00	0	43	0	852492288	65	4494
2026-01-27 01:15:24.44	244.11	57.66	-47.9	-49.7	18.2	0.00e+00	0	43	0	860880896	66	4654
2026-01-27 01:15:28.47	242.46	56.31	-47.4	-49.0	18.9	0.00e+00	0	43	0	868220928	66	4325
2026-01-27 01:15:32.50	240.96	54.98	-45.7	-46.9	21.0	0.00e+00	0	43	0	875560960	63	4013
2026-01-27 01:15:36.53	239.59	53.66	-45.1	-46.2	21.7	0.00e+00	0	43	0	882900992	62	3936
2026-01-27 01:15:40.56	238.35	52.36	-45.1	-46.2	21.6	0.00e+00	0	43	0	890241024	61	4192
2026-01-27 01:15:44.60	237.20	51.08	-46.0	-47.3	20.6	0.00e+00	0	43	0	898629632	62	4473
2026-01-27 01:15:48.62	236.16	49.82	-46.9	-48.4	19.5	0.00e+00	0	43	0	905969664	64	4517
2026-01-27 01:15:52.65	235.20	48.59	-47.6	-49.2	18.7	0.00e+00	0	43	0	913309696	65	4680
2026-01-27 01:15:56.68	234.31	47.38	-47.6	-49.2	18.7	0.00e+00	0	43	0	920649728	66	4417
2026-01-27 01:16:00.71	233.49	46.20	-47.7	-49.4	18.5	0.00e+00	0	43	0	927989760	66	4495
2026-01-27 01:16:04.74	232.72	45.05	-47.7	-49.4	18.4	0.00e+00	0	43	0	936378368	66	4535
2026-01-27 01:16:08.78	232.01	43.92	-48.1	-50.0	17.9	0.00e+00	0	43	0	943718400	66	4823
2026-01-27 01:16:12.81	231.35	42.82	-48.3	-50.1	17.7	0.00e+00	0	43	0	951058432	67	4634
2026-01-27 01:16:16.84	230.74	41.75	-48.5	-50.5	17.2	0.00e+00	0	43	0	958398464	67	4836
2026-01-27 01:16:20.88	230.16	40.70	-48.8	-50.8	17.0	0.00e+00	0	43	0	966787072	68	4758
2026-01-27 01:16:24.91	229.62	39.68	-48.7	-50.7	17.1	0.00e+00	0	43	0	974127104	68	4688
2026-01-27 01:16:28.94	229.11	38.69	-47.7	-49.4	18.3	0.00e+00	0	43	0	981467136	67	4257
2026-01-27 01:16:32.96	228.64	37.73	-47.7	-49.5	18.2	0.00e+00	0	43	0	988807168	67	4306
2026-01-27 01:16:36.99	228.19	36.79	-47.1	-48.6	19.0	0.00e+00	0	43	0	996147200	66	4142
2026-01-27 01:16:41.02	227.76	35.87	-47.1	-48.7	18.9	0.00e+00	0	43	0	1004535808	65	4413
2026-01-27 01:16:45.06	227.36	34.97	-48.0	-49.9	17.8	0.00e+00	0	43	0	1011875840	66	4768
2026-01-27 01:16:49.09	226.98	34.10	-48.2	-50.1	17.5	0.00e+00	0	43	0	1019215872	67	4605
2026-01-27 01:16:53.12	226.63	33.25	-48.1	-50.0	17.6	0.00e+00	0	43	0	1026555904	67	4560
2026-01-27 01:16:57.16	226.29	32.43	-48.8	-50.9	16.8	0.00e+00	0	43	0	1033895936	68	4810
2026-01-27 01:17:01.18	225.97	31.62	-49.8	-52.5	15.2	0.00e+00	0	43	0	1042284544	70	5120
2026-01-27 01:17:05.22	225.66	30.84	-49.5	-52.0	15.7	0.00e+00	0	43	0	1049624576	70	4835
2026-01-27 01:17:09.25	225.37	30.07	-48.9	-51.1	16.5	0.00e+00	0	43	0	1056964608	69	4624
2026-01-27 01:17:13.28	225.09	29.33	-48.6	-50.7	16.9	0.00e+00	0	43	0	1064304640	69	4429
2026-01-27 01:17:17.31	224.83	28.60	-48.9	-51.1	16.5	0.00e+00	0	43	0	1071644672	69	4625
2026-01-27 01:17:21.33	224.58	27.89	-48.7	-50.9	16.7	0.00e+00	0	43	0	1080033280	69	4516
2026-01-27 01:17:25.36	224.34	27.20	-48.6	-50.7	16.9	0.00e+00	0	43	0	1087373312	69	4420
2026-01-27 01:17:29.39	224.11	26.52	-47.7	-49.5	17.9	0.00e+00	0	43	0	1094713344	67	4312
2026-01-27 01:17:33.43	223.88	25.86	-47.4	-49.1	18.4	0.00e+00	0	43	0	1102053376	66	4344
2026-01-27 01:17:37.46	223.67	25.21	-47.8	-49.7	17.7	0.00e+00	0	43	0	1109393408	66	4655
2026-01-27 01:17:41.49	223.47	24.58	-47.9	-49.8	17.6	0.00e+00	0	43	0	1117782016	66	4744
2026-01-27 01:17:45.51	223.28	23.97	-47.1	-48.8	18.6	0.00e+00	0	43	0	1125122048	66	4219
2026-01-27 01:17:49.54	223.09	23.37	-46.4	-47.8	19.5	0.00e+00	0	43	0	1132462080	64	4229
2026-01-27 01:17:53.56	222.92	22.78	-46.1	-47.5	19.9	0.00e+00	0	43	0	1139802112	63	4309
2026-01-27 01:17:57.59	222.75	22.21	-46.1	-47.5	19.8	0.00e+00	0	43	0	1147142144	63	4332
2026-01-27 01:18:01.62	222.58	21.64	-46.2	-47.6	19.8	0.00e+00	0	43	0	1155530752	63	4349
2026-01-27 01:18:05.64	222.42	21.09	-46.2	-47.7	19.6	0.00e+00	0	43	0	1162870784	63	4401
2026-01-27 01:18:09.68	222.27	20.55	-46.3	-47.7	19.6	0.00e+00	0	43	0	1170210816	63	4424
2026-01-27 01:18:13.71	222.12	20.02	-46.5	-48.0	19.4	0.00e+00	0	43	0	1177550848	63	4557
2026-01-27 01:18:17.73	221.98	19.51	-46.5	-48.0	19.3	0.00e+00	0	43	0	1185939456	63	4571
2026-01-27 01:18:21.77	221.85	19.00	-46.6	-48.2	19.0	0.00e+00	0	43	0	1193279488	64	4418
2026-01-27 01:18:25.80	221.71	18.50	-47.0	-48.6	18.6	0.00e+00	0	43	0	1200619520	64	4635
2026-01-27 01:18:29.83	221.59	18.01	-46.7	-48.3	18.9	0.00e+00	0	43	0	1207959552	64	4455
2026-01-27 01:18:33.85	221.47	17.54	-46.6	-48.2	19.0	0.00e+00	0	43	0	1215299584	64	4404
2026-01-27 01:18:37.88	221.35	17.07	-46.6	-48.1	19.0	0.00e+00	0	43	0	1222639616	64	4373
2026-01-27 01:18:41.91	221.23	16.61	-46.6	-48.1	19.0	0.00e+00	0	43	0	1231028224	64	4373
2026-01-27 01:18:45.93	221.12	16.15	-46.6	-48.2	18.9	0.00e+00	0	43	0	1238368256	64	4404
2026-01-27 01:18:49.96	221.02	15.71	-47.0	-48.7	18.4	0.00e+00	0	43	0	1245708288	64	4654
2026-01-27 01:18:53.99	220.91	15.27	-47.0	-48.7	18.4	0.00e+00	0	43	0	1253048320	64	4673
2026-01-27 01:18:58.01	220.81	14.85	-47.1	-48.9	18.2	0.00e+00	0	43	0	1260388352	64	4778
2026-01-27 01:19:02.03	220.72	14.43	-47.3	-49.1	17.9	0.00e+00	0	43	0	1268776960	65	4628
2026-01-27 01:19:06.06	220.62	14.01	-47.4	-49.2	17.8	0.00e+00	0	43	0	1276116992	65	4686
2026-01-27 01:19:10.09	220.53	13.60	-47.4	-49.2	17.8	0.00e+00	0	43	0	1283457024	65	4705
2026-01-27 01:19:14.13	220.45	13.20	-47.4	-49.2	17.8	0.00e+00	0	43	0	1290797056	65	4680
2026-01-27 01:19:18.15	220.36	12.81	-47.2	-49.0	18.0	0.00e+00	0	43	0	1299185664	65	4573
2026-01-27 01:19:22.18	220.28	12.42	-47.2	-49.1	17.9	0.00e+00	0	43	0	1306525696	65	4607
2026-01-27 01:19:26.21	220.20	12.04	-47.2	-49.1	17.8	0.00e+00	0	43	0	1313865728	65	4599
2026-01-27 01:19:30.23	220.12	11.66	-47.4	-49.2	17.7	0.00e+00	0	43	0	1321205760	65	4693
2026-01-27 01:19:34.26	220.04	11.29	-47.4	-49.2	17.6	0.00e+00	0	43	0	1328545792	65	4692
2026-01-27 01:19:38.30	219.97	10.92	-47.5	-49.4	17.5	0.00e+00	0	43	0	1335885824	65	4780
2026-01-27 01:19:42.32	219.90	10.57	-47.5	-49.4	17.4	0.00e+00	0	43	0	1344274432	65	4787
2026-01-27 01:19:46.35	219.83	10.21	-47.5	-49.5	17.3	0.00e+00	0	43	0	1351614464	66	4557
2026-01-27 01:19:50.37	219.76	9.86	-47.7	-49.8	17.0	0.00e+00	0	43	0	1358954496	66	4715
2026-01-27 01:19:54.41	219.70	9.51	-47.6	-49.6	17.2	0.00e+00	0	43	0	1366294528	66	4611
2026-01-27 01:19:58.43	219.63	9.18	-47.4	-49.4	17.3	0.00e+00	0	43	0	1374683136	66	4522
2026-01-27 01:20:02.46	219.57	8.84	-47.6	-49.6	17.1	0.00e+00	0	43	0	1382023168	66	4619
2026-01-27 01:20:06.50	219.51	8.51	-47.7	-49.8	16.9	0.00e+00	0	43	0	1389363200	66	4735
2026-01-27 01:20:10.53	219.45	8.18	-47.6	-49.7	16.9	0.00e+00	0	43	0	1396703232	66	4695
2026-01-27 01:20:14.56	219.40	7.86	-47.6	-49.7	16.9	0.00e+00	0	43	0	1404043264	66	4661
2026-01-27 01:20:18.58	219.34	7.54	-47.9	-50.1	16.4	0.00e+00	0	43	0	1412431872	66	4924
2026-01-27 01:20:22.61	219.29	7.22	-48.2	-50.6	16.0	0.00e+00	0	43	0	1419771904	66	5160
2026-01-27 01:20:26.64	219.24	6.91	-48.0	-50.3	16.2	0.00e+00	0	43	0	1427111936	66	5006
2026-01-27 01:20:30.67	219.18	6.60	-48.2	-50.7	15.8	0.00e+00	0	43	0	1434451968	66	5222
2026-01-27 01:20:34.70	219.13	6.30	-48.2	-50.7	15.7	0.00e+00	0	43	0	1441792000	67	4929
2026-01-27 01:20:38.73	219.09	6.00	-48.4	-51.0	15.4	0.00e+00	0	43	0	1450180608	67	5125
2026-01-27 01:20:42.76	219.04	5.70	-48.7	-51.5	14.9	0.00e+00	0	43	0	1457520640	68	5141
2026-01-27 01:20:46.79	218.99	5.41	-48.5	-51.2	15.2	0.00e+00	0	43	0	1464860672	68	4948
2026-01-27 01:20:50.82	218.95	5.12	-48.5	-51.2	15.1	0.00e+00	0	43	0	1472200704	68	4939
2026-01-27 01:20:54.85	218.91	4.83	-53.3	-68.2	3.8	1.49e+00	0	43	104	1475346432	77	20969
2026-01-27 01:20:58.89	218.86	4.55	-53.7	-68.7	3.8	1.49e+00	0	43	104	1475346432	77	22157
2026-01-27 01:21:02.91	218.82	4.26	-53.9	-68.8	3.8	1.49e+00	0	43	104	1475346432	78	21189
2026-01-27 01:21:06.94	218.78	3.99	-53.9	-68.9	3.8	1.49e+00	0	43	104	1475346432	78	21384
2026-01-27 01:21:10.98	218.74	3.71	-53.9	-68.8	3.8	1.49e+00	0	43	104	1475346432	78	21180
2026-01-27 01:21:15.01	218.70	3.44	-53.6	-68.6	3.8	1.49e+00	0	43	104	1475346432	78	20556
2026-01-27 01:21:19.04	218.67	3.17	-53.6	-68.5	3.8	1.49e+00	0	43	104	1475346432	78	20477
2026-01-27 01:21:23.08	218.63	2.90	-53.5	-68.5	3.8	1.49e+00	0	43	104	1475346432	78	20431
2026-01-27 01:21:27.11	218.59	2.63	-53.5	-68.5	3.8	1.49e+00	0	43	104	1475346432	78	20403
2026-01-27 01:21:31.14	218.56	2.37	-53.5	-68.5	3.8	1.49e+00	0	44	104	1475346432	78	20369
2026-01-27 01:21:35.17	218.52	2.11	-53.5	-68.5	3.8	1.49e+00	0	43	104	1475346432	78	20332

#Closed at: 2026-01-27 01:21:39
#Recorded file [1475 MB]: D:/lorett/data/31041_260127_040712.dat