passes_logs/2026/01/27/R3.2S_Murmansk/R3.2S_Murmansk__20260127_083409_NOAA_21_JPSS-2_rec.log

#Pass ID: 20260127_083409_NOAA 21 (JPSS-2)
#Satellite: NOAA 21 (JPSS-2)
#Configuration: NOAA-21
#almurnet v.1.7.20251203
#Start time: 2026-01-27 08:35:28

#Version: 2.2.20231116
#Station: R3.2S_Murmansk
#Location: 33.079688 lon 68.888172 lat
#TLE: 1 54234U 22150A   26026.43130734  .00000179  00000+0  10559-3 0  9998
#TLE: 2 54234  98.7509 327.1934 0000805 209.8356 150.2774 14.19539635166435

#Time	Az	El	Level	Level2	SNR	BER	BlckErr	Temp	State	Recorded	gain1	gain2
2026-01-27 08:35:28.02	127.19	7.46	-53.1	-65.1	3.8	8.46e-01	0	42	0	0	76	15427
2026-01-27 08:35:32.04	127.06	7.77	-54.2	-66.9	3.8	1.49e+00	0	43	104	0	78	17065
2026-01-27 08:35:36.08	126.92	8.09	-54.3	-67.0	3.8	1.49e+00	0	43	104	0	79	16256
2026-01-27 08:35:40.12	126.79	8.41	-54.4	-67.1	3.8	1.49e+00	0	43	104	0	79	16462
2026-01-27 08:35:44.15	126.64	8.73	-54.4	-67.2	3.8	1.49e+00	0	43	104	0	79	16530
2026-01-27 08:35:48.18	126.50	9.06	-54.4	-67.1	3.8	1.49e+00	0	43	104	0	79	16323
2026-01-27 08:35:52.21	126.35	9.40	-54.3	-67.1	3.8	1.49e+00	0	43	104	0	79	16344
2026-01-27 08:35:56.24	126.20	9.73	-54.3	-67.0	3.8	1.49e+00	0	43	104	0	79	16245
2026-01-27 08:36:00.27	126.05	10.07	-54.3	-67.0	3.8	1.49e+00	0	43	104	0	79	16262
2026-01-27 08:36:04.31	125.89	10.42	-54.2	-67.0	3.8	1.49e+00	0	43	104	0	79	16243
2026-01-27 08:36:08.34	125.73	10.77	-54.2	-66.9	3.8	1.49e+00	0	43	104	0	79	16111
2026-01-27 08:36:12.37	125.56	11.13	-54.2	-66.9	3.8	1.49e+00	0	43	104	0	79	16121
2026-01-27 08:36:16.41	125.39	11.49	-54.1	-66.9	3.8	1.49e+00	0	43	104	0	79	16057
2026-01-27 08:36:20.44	125.21	11.85	-54.3	-67.1	3.8	1.49e+00	0	43	104	0	79	16420
2026-01-27 08:36:24.47	125.03	12.22	-54.2	-67.0	3.8	1.49e+00	0	43	104	0	79	16193
2026-01-27 08:36:28.50	124.84	12.60	-54.0	-66.8	3.8	1.49e+00	0	43	104	0	78	16773
2026-01-27 08:36:32.53	124.65	12.98	-53.8	-66.6	3.8	1.49e+00	0	43	104	0	78	16336
2026-01-27 08:36:36.56	124.45	13.37	-53.6	-66.4	3.8	1.49e+00	0	43	104	0	78	16012
2026-01-27 08:36:40.59	124.25	13.76	-53.3	-66.0	3.8	1.49e+00	0	43	104	0	77	16191
2026-01-27 08:36:44.62	124.04	14.16	-46.8	-48.4	16.5	0.00e+00	0	43	0	5242880	64	4497
2026-01-27 08:36:48.64	123.83	14.56	-44.0	-44.9	19.6	3.00e-06	0	43	0	18874368	60	3818
2026-01-27 08:36:52.67	123.61	14.98	-43.2	-44.1	20.8	0.00e+00	0	43	0	30408704	58	3906
2026-01-27 08:36:56.70	123.38	15.39	-43.1	-44.0	21.0	0.00e+00	0	43	0	42991616	58	3840
2026-01-27 08:37:00.72	123.15	15.82	-43.1	-44.0	21.0	0.00e+00	0	43	0	55574528	58	3840
2026-01-27 08:37:04.75	122.91	16.25	-43.0	-43.9	21.0	0.00e+00	0	43	0	68157440	58	3806
2026-01-27 08:37:08.79	122.66	16.69	-43.3	-44.2	20.8	0.00e+00	0	43	0	80740352	58	3935
2026-01-27 08:37:12.82	122.40	17.14	-43.3	-44.2	20.8	0.00e+00	0	43	0	93323264	58	3945
2026-01-27 08:37:16.85	122.14	17.59	-43.4	-44.3	20.7	0.00e+00	0	43	0	106954752	58	3997
2026-01-27 08:37:20.89	121.86	18.06	-43.4	-44.3	20.7	0.00e+00	0	43	0	118489088	58	3981
2026-01-27 08:37:24.93	121.58	18.53	-43.5	-44.4	20.6	0.00e+00	0	43	0	132120576	58	4043
2026-01-27 08:37:28.96	121.29	19.01	-43.2	-44.1	20.9	0.00e+00	0	43	0	144703488	58	3881
2026-01-27 08:37:33.00	120.99	19.49	-43.0	-43.9	21.1	0.00e+00	0	43	0	157286400	58	3808
2026-01-27 08:37:37.03	120.68	19.99	-42.7	-43.6	21.4	0.00e+00	0	43	0	169869312	57	3895
2026-01-27 08:37:41.05	120.35	20.49	-42.6	-43.4	21.5	0.00e+00	0	43	0	182452224	57	3814
2026-01-27 08:37:45.09	120.02	21.01	-42.4	-43.2	21.6	0.00e+00	0	43	0	195035136	56	3934
2026-01-27 08:37:49.11	119.68	21.53	-42.2	-43.1	21.8	0.00e+00	0	43	0	207618048	56	3871
2026-01-27 08:37:53.14	119.32	22.07	-41.8	-42.6	22.2	0.00e+00	0	43	0	220200960	55	3873
2026-01-27 08:37:57.17	118.95	22.61	-41.5	-42.3	22.4	0.00e+00	0	43	0	232783872	55	3766
2026-01-27 08:38:01.20	118.56	23.16	-41.5	-42.3	22.5	0.00e+00	0	43	0	245366784	54	3972
2026-01-27 08:38:05.23	118.16	23.73	-41.4	-42.2	22.5	0.00e+00	0	43	0	257949696	54	3946
2026-01-27 08:38:09.26	117.75	24.31	-41.7	-42.5	22.4	0.00e+00	0	43	0	270532608	54	4068
2026-01-27 08:38:13.30	117.32	24.89	-41.8	-42.6	22.2	0.00e+00	0	43	0	283115520	54	4120
2026-01-27 08:38:17.32	116.87	25.49	-42.0	-42.8	22.1	0.00e+00	0	43	0	295698432	54	4217
2026-01-27 08:38:21.35	116.41	26.10	-42.3	-43.2	21.7	0.00e+00	0	43	0	308281344	55	4159
2026-01-27 08:38:25.39	115.92	26.72	-42.7	-43.6	21.3	0.00e+00	0	43	0	320864256	55	4365
2026-01-27 08:38:29.42	115.42	27.36	-43.1	-44.0	21.2	0.00e+00	0	43	0	333447168	56	4293
2026-01-27 08:38:33.45	114.90	28.00	-43.3	-44.2	21.0	0.00e+00	0	43	0	346030080	57	4180
2026-01-27 08:38:37.48	114.35	28.66	-43.4	-44.3	20.8	0.00e+00	0	43	0	358612992	57	4230
2026-01-27 08:38:41.51	113.78	29.33	-43.2	-44.1	21.0	0.00e+00	0	43	0	371195904	57	4134
2026-01-27 08:38:45.53	113.19	30.02	-43.0	-43.9	21.1	0.00e+00	0	43	0	383778816	57	4027
2026-01-27 08:38:49.57	112.56	30.72	-42.7	-43.6	21.5	0.00e+00	0	43	0	396361728	57	3875
2026-01-27 08:38:53.61	111.91	31.43	-42.7	-43.6	21.5	0.00e+00	0	43	0	408944640	56	4109
2026-01-27 08:38:57.64	111.23	32.15	-42.7	-43.5	21.4	0.00e+00	0	43	0	421527552	56	4083
2026-01-27 08:39:01.67	110.52	32.89	-42.9	-43.8	21.3	0.00e+00	0	43	0	434110464	56	4222
2026-01-27 08:39:05.70	109.77	33.64	-42.7	-43.5	21.6	0.00e+00	0	43	0	446693376	56	4078
2026-01-27 08:39:09.74	108.99	34.40	-43.3	-44.2	20.9	0.00e+00	0	43	0	459276288	57	4186
2026-01-27 08:39:13.77	108.17	35.18	-44.0	-45.0	20.3	0.00e+00	0	43	0	471859200	58	4304
2026-01-27 08:39:17.80	107.31	35.96	-44.2	-45.2	20.1	0.00e+00	0	43	0	484442112	58	4404
2026-01-27 08:39:21.83	106.40	36.76	-44.4	-45.4	19.9	0.00e+00	0	43	0	497025024	59	4264
2026-01-27 08:39:25.86	105.45	37.57	-44.5	-45.6	19.5	0.00e+00	0	43	0	509607936	60	4117
2026-01-27 08:39:29.89	104.45	38.39	-44.5	-45.5	19.6	0.00e+00	0	43	0	522190848	60	4093
2026-01-27 08:39:33.92	103.40	39.22	-44.5	-45.5	19.6	0.00e+00	0	43	0	534773760	60	4073
2026-01-27 08:39:37.94	102.30	40.05	-44.4	-45.4	19.7	0.00e+00	0	43	0	547356672	60	4042
2026-01-27 08:39:41.97	101.13	40.90	-44.2	-45.2	19.9	0.00e+00	0	43	0	559939584	60	3921
2026-01-27 08:39:46.00	99.90	41.75	-44.7	-45.7	19.7	0.00e+00	0	43	0	572522496	59	4436
2026-01-27 08:39:50.03	98.60	42.60	-44.5	-45.5	19.6	0.00e+00	0	43	0	585105408	60	4097
2026-01-27 08:39:54.06	97.23	43.46	-44.2	-45.2	19.5	0.00e+00	0	43	0	597688320	60	3929
2026-01-27 08:39:58.09	95.79	44.31	-45.1	-46.2	18.9	0.00e+00	0	43	0	610271232	60	4415
2026-01-27 08:40:02.13	94.26	45.16	-44.7	-45.8	19.3	0.00e+00	0	43	0	622854144	60	4197
2026-01-27 08:40:06.16	92.65	46.01	-44.7	-45.8	19.3	0.00e+00	0	43	0	635437056	60	4197
2026-01-27 08:40:10.19	90.95	46.85	-44.3	-45.3	19.8	0.00e+00	0	43	0	648019968	60	3978
2026-01-27 08:40:14.22	89.16	47.67	-44.7	-45.8	19.4	0.00e+00	0	43	0	660602880	60	4197
2026-01-27 08:40:18.25	87.27	48.48	-44.2	-45.2	19.9	0.00e+00	0	43	0	673185792	60	3928
2026-01-27 08:40:22.28	85.29	49.26	-44.3	-45.4	19.7	0.00e+00	0	43	0	685768704	60	4013
2026-01-27 08:40:26.31	83.19	50.02	-44.6	-45.6	19.9	0.00e+00	0	43	0	698351616	59	4371
2026-01-27 08:40:30.34	81.00	50.75	-43.9	-44.8	20.6	0.00e+00	0	43	0	710934528	59	3994
2026-01-27 08:40:34.37	78.69	51.45	-44.2	-45.1	20.3	0.00e+00	0	43	0	723517440	59	4138
2026-01-27 08:40:38.41	76.28	52.10	-43.4	-44.3	21.1	0.00e+00	0	43	0	736100352	58	3959
2026-01-27 08:40:42.45	73.75	52.71	-43.1	-44.0	21.3	0.00e+00	0	43	0	748683264	57	4066
2026-01-27 08:40:46.49	71.13	53.26	-43.6	-44.5	20.9	0.00e+00	0	43	0	761266176	57	4330
2026-01-27 08:40:50.52	68.42	53.75	-43.7	-44.6	20.7	0.00e+00	0	43	0	773849088	58	4113
2026-01-27 08:40:54.56	65.61	54.19	-42.9	-43.7	21.6	0.00e+00	0	43	0	786432000	57	3934
2026-01-27 08:40:58.60	62.72	54.55	-42.9	-43.7	21.5	0.00e+00	0	43	0	799014912	57	3950
2026-01-27 08:41:02.64	59.76	54.84	-43.2	-44.1	21.2	0.00e+00	0	43	0	811597824	57	4126
2026-01-27 08:41:06.67	56.76	55.05	-43.1	-44.0	21.4	0.00e+00	0	43	0	824180736	57	4058
2026-01-27 08:41:10.71	53.72	55.19	-43.4	-44.3	21.1	0.00e+00	0	43	0	836763648	57	4204
2026-01-27 08:41:14.74	50.66	55.24	-43.2	-44.1	21.3	0.00e+00	0	43	0	850395136	57	4108
2026-01-27 08:41:18.77	47.60	55.22	-43.5	-44.4	21.0	0.00e+00	0	43	0	861929472	58	4047
2026-01-27 08:41:22.81	44.55	55.11	-44.0	-45.0	20.5	0.00e+00	0	43	0	874512384	58	4292
2026-01-27 08:41:26.83	41.54	54.92	-43.3	-44.2	21.3	0.00e+00	0	43	0	888143872	58	3923
2026-01-27 08:41:30.86	38.58	54.66	-43.3	-44.3	21.1	0.00e+00	0	43	0	900726784	58	3959
2026-01-27 08:41:34.89	35.67	54.32	-43.1	-44.0	21.4	0.00e+00	0	43	0	912261120	57	4080
2026-01-27 08:41:38.93	32.84	53.91	-42.7	-43.5	21.7	0.00e+00	0	43	0	925892608	57	3865
2026-01-27 08:41:42.95	30.10	53.44	-44.3	-45.2	20.3	0.00e+00	0	43	0	938475520	59	4192
2026-01-27 08:41:46.98	27.45	52.91	-43.1	-43.9	21.4	0.00e+00	0	43	0	951058432	57	4025
2026-01-27 08:41:51.01	24.90	52.33	-44.2	-45.1	20.3	0.00e+00	0	43	0	962592768	59	4133
2026-01-27 08:41:55.05	22.45	51.69	-45.1	-46.2	18.9	0.00e+00	0	43	0	976224256	60	4393
2026-01-27 08:41:59.08	20.11	51.01	-44.0	-45.0	20.4	0.00e+00	0	43	0	988807168	59	4052
2026-01-27 08:42:03.12	17.87	50.29	-44.8	-45.8	19.2	0.00e+00	0	43	0	1001390080	61	4004
2026-01-27 08:42:07.15	15.75	49.54	-44.6	-45.6	19.4	0.00e+00	0	43	0	1013972992	59	4391
2026-01-27 08:42:11.19	13.72	48.77	-45.2	-46.3	18.5	0.00e+00	0	43	0	1026555904	61	4232
2026-01-27 08:42:15.22	11.80	47.97	-44.7	-45.8	19.0	0.00e+00	0	43	0	1039138816	60	4223
2026-01-27 08:42:19.25	9.98	47.15	-45.5	-46.7	18.2	0.00e+00	0	43	0	1051721728	63	3949
2026-01-27 08:42:23.29	8.25	46.32	-44.1	-45.1	20.2	0.00e+00	0	43	0	1064304640	59	4124
2026-01-27 08:42:27.32	6.61	45.48	-45.9	-47.1	18.1	0.00e+00	0	43	0	1076887552	62	4373
2026-01-27 08:42:31.35	5.06	44.63	-44.9	-45.9	19.3	0.00e+00	0	43	0	1089470464	60	4271
2026-01-27 08:42:35.38	3.59	43.78	-46.4	-47.8	17.5	0.00e+00	0	43	0	1102053376	63	4457
2026-01-27 08:42:39.41	2.19	42.92	-43.8	-44.7	20.6	0.00e+00	0	43	0	1114636288	59	3920
2026-01-27 08:42:43.45	0.87	42.07	-44.3	-45.3	20.2	0.00e+00	0	43	0	1127219200	59	4199
2026-01-27 08:42:47.49	359.62	41.22	-45.8	-47.1	17.8	0.00e+00	0	43	0	1139802112	62	4365
2026-01-27 08:42:51.52	358.43	40.37	-44.2	-45.1	19.7	0.00e+00	0	43	0	1152385024	60	3913
2026-01-27 08:42:55.54	357.31	39.54	-45.1	-46.2	18.9	0.00e+00	0	43	0	1164967936	61	4193
2026-01-27 08:42:59.58	356.24	38.71	-43.9	-44.8	20.5	0.00e+00	0	43	0	1177550848	58	4240
2026-01-27 08:43:03.61	355.22	37.89	-44.7	-45.7	19.7	0.00e+00	0	43	0	1190133760	59	4424
2026-01-27 08:43:07.63	354.26	37.08	-44.6	-45.7	19.4	0.00e+00	0	43	0	1202716672	60	4168
2026-01-27 08:43:11.67	353.34	36.28	-44.1	-45.1	19.9	0.00e+00	0	43	0	1215299584	60	3871
2026-01-27 08:43:15.71	352.46	35.49	-43.8	-44.8	20.3	0.00e+00	0	43	0	1227882496	58	4195
2026-01-27 08:43:19.74	351.63	34.71	-43.9	-44.8	20.4	0.00e+00	0	43	0	1240465408	58	4227
2026-01-27 08:43:23.77	350.84	33.94	-43.7	-44.7	20.6	0.00e+00	0	43	0	1253048320	58	4159
2026-01-27 08:43:27.79	350.08	33.20	-43.7	-44.7	20.6	0.00e+00	0	43	0	1265631232	58	4150
2026-01-27 08:43:31.82	349.36	32.46	-43.6	-44.6	20.7	0.00e+00	0	43	0	1278214144	58	4099
2026-01-27 08:43:35.85	348.67	31.73	-43.2	-44.1	21.1	0.00e+00	0	43	0	1290797056	57	4108
2026-01-27 08:43:39.88	348.01	31.02	-41.9	-42.7	22.2	0.00e+00	0	43	0	1303379968	55	3945
2026-01-27 08:43:43.91	347.38	30.32	-42.1	-42.9	22.0	0.00e+00	0	43	0	1315962880	55	4039
2026-01-27 08:43:47.94	346.78	29.63	-43.0	-44.0	21.1	0.00e+00	0	43	0	1328545792	56	4294
2026-01-27 08:43:51.97	346.20	28.96	-43.2	-44.1	21.0	0.00e+00	0	43	0	1341128704	57	4123
2026-01-27 08:43:56.01	345.65	28.29	-42.6	-43.5	21.5	0.00e+00	0	43	0	1353711616	57	3829
2026-01-27 08:44:00.05	345.11	27.64	-41.7	-42.5	22.3	0.00e+00	0	43	0	1366294528	55	3831
2026-01-27 08:44:04.08	344.61	27.00	-41.5	-42.3	22.4	0.00e+00	0	43	0	1378877440	55	3769
2026-01-27 08:44:08.11	344.12	26.38	-41.6	-42.4	22.3	0.00e+00	0	43	0	1391460352	55	3800
2026-01-27 08:44:12.14	343.65	25.77	-42.0	-42.8	22.0	0.00e+00	0	43	0	1404043264	55	3984
2026-01-27 08:44:16.18	343.19	25.17	-42.2	-43.1	21.8	0.00e+00	0	43	0	1416626176	55	4108
2026-01-27 08:44:20.21	342.76	24.58	-42.5	-43.4	21.4	0.00e+00	0	43	0	1429209088	55	4261
2026-01-27 08:44:24.25	342.34	24.00	-42.4	-43.3	21.4	0.00e+00	0	43	0	1441792000	55	4215
2026-01-27 08:44:28.28	341.94	23.43	-42.3	-43.1	21.6	0.00e+00	0	43	0	1454374912	55	4117
2026-01-27 08:44:32.31	341.55	22.87	-42.1	-42.9	21.8	0.00e+00	0	43	0	1466957824	55	4009
2026-01-27 08:44:36.34	341.18	22.33	-42.1	-42.9	21.8	0.00e+00	0	43	0	1479540736	55	4018
2026-01-27 08:44:40.37	340.82	21.79	-42.2	-43.0	21.7	0.00e+00	0	43	0	1492123648	55	4087
2026-01-27 08:44:44.40	340.47	21.26	-42.1	-42.9	21.8	0.00e+00	0	43	0	1504706560	55	4046
2026-01-27 08:44:48.43	340.13	20.75	-42.0	-42.9	21.8	0.00e+00	0	43	0	1517289472	55	4015
2026-01-27 08:44:52.46	339.81	20.24	-42.2	-43.1	21.7	0.00e+00	0	43	0	1529872384	55	4101
2026-01-27 08:44:56.49	339.50	19.74	-42.2	-43.0	21.6	0.00e+00	0	43	0	1542455296	55	4085
2026-01-27 08:45:00.53	339.19	19.25	-42.3	-43.1	21.5	0.00e+00	0	43	0	1555038208	55	4128
2026-01-27 08:45:04.57	338.90	18.77	-42.3	-43.2	21.4	0.00e+00	0	43	0	1567621120	55	4157
2026-01-27 08:45:08.59	338.62	18.30	-42.3	-43.2	21.4	0.00e+00	0	43	0	1580204032	55	4152
2026-01-27 08:45:12.63	338.34	17.83	-42.2	-43.0	21.5	0.00e+00	0	43	0	1593835520	55	4094
2026-01-27 08:45:16.67	338.08	17.38	-42.3	-43.1	21.4	0.00e+00	0	43	0	1605369856	55	4130
2026-01-27 08:45:20.70	337.82	16.93	-42.5	-43.4	21.2	0.00e+00	0	43	0	1617952768	55	4260
2026-01-27 08:45:24.74	337.57	16.49	-42.6	-43.5	21.1	0.00e+00	0	43	0	1631584256	55	4328
2026-01-27 08:45:28.76	337.33	16.05	-42.9	-43.8	20.9	0.00e+00	0	43	0	1644167168	56	4219
2026-01-27 08:45:32.80	337.09	15.63	-43.1	-44.0	20.7	0.00e+00	0	43	0	1655701504	56	4322
2026-01-27 08:45:36.83	336.86	15.21	-43.2	-44.1	20.7	0.00e+00	0	43	0	1669332992	57	4126
2026-01-27 08:45:40.86	336.64	14.79	-43.1	-44.0	20.7	0.00e+00	0	43	0	1681915904	57	4098
2026-01-27 08:45:44.89	336.43	14.39	-43.1	-44.0	20.7	0.00e+00	0	43	0	1694498816	57	4093
2026-01-27 08:45:48.93	336.22	13.98	-43.0	-43.9	20.7	0.00e+00	0	43	0	1707081728	57	4046
2026-01-27 08:45:52.97	336.02	13.59	-42.9	-43.8	20.8	0.00e+00	0	43	0	1719664640	57	4004
2026-01-27 08:45:57.00	335.82	13.20	-43.0	-44.0	20.7	0.00e+00	0	43	0	1732247552	57	4059
2026-01-27 08:46:01.04	335.63	12.82	-43.1	-44.0	20.6	0.00e+00	0	43	0	1744830464	57	4082
2026-01-27 08:46:05.08	335.44	12.44	-43.1	-44.0	20.6	0.00e+00	0	43	0	1757413376	57	4094
2026-01-27 08:46:09.11	335.26	12.07	-43.2	-44.2	20.5	0.00e+00	0	43	0	1769996288	57	4148
2026-01-27 08:46:13.14	335.09	11.70	-43.4	-44.3	20.3	0.00e+00	0	43	0	1782579200	57	4239
2026-01-27 08:46:17.17	334.92	11.34	-43.4	-44.4	20.2	0.00e+00	0	43	0	1795162112	57	4255
2026-01-27 08:46:21.20	334.75	10.98	-43.5	-44.5	20.1	0.00e+00	0	43	0	1807745024	57	4295
2026-01-27 08:46:25.24	334.59	10.63	-43.4	-44.4	20.2	0.00e+00	0	43	0	1820327936	57	4271
2026-01-27 08:46:29.27	334.43	10.28	-43.4	-44.4	20.1	0.00e+00	0	43	0	1832910848	57	4282
2026-01-27 08:46:33.30	334.27	9.94	-43.4	-44.4	20.1	0.00e+00	0	43	0	1845493760	57	4276
2026-01-27 08:46:37.33	334.12	9.60	-43.6	-44.7	19.8	0.00e+00	0	43	0	1858076672	57	4399
2026-01-27 08:46:41.36	333.98	9.27	-43.7	-44.7	19.8	0.00e+00	0	43	0	1870659584	58	4193
2026-01-27 08:46:45.39	333.83	8.94	-44.0	-45.1	19.4	0.00e+00	0	43	0	1883242496	58	4368
2026-01-27 08:46:49.43	333.69	8.61	-44.2	-45.3	19.2	0.00e+00	0	43	0	1895825408	58	4448
2026-01-27 08:46:53.46	333.56	8.29	-44.3	-45.4	19.0	0.00e+00	0	43	0	1908408320	59	4290
2026-01-27 08:46:57.50	333.43	7.98	-44.6	-45.7	18.7	0.00e+00	0	43	0	1920991232	59	4428
2026-01-27 08:47:01.53	333.30	7.66	-44.3	-45.5	18.6	0.00e+00	0	43	0	1933574144	60	4079
2026-01-27 08:47:05.57	333.17	7.35	-44.4	-45.6	18.5	0.00e+00	0	43	0	1946157056	60	4103
2026-01-27 08:47:09.60	333.05	7.04	-44.6	-45.8	18.2	0.00e+00	0	43	0	1958739968	60	4205
2026-01-27 08:47:13.64	332.93	6.74	-44.7	-45.9	18.1	0.00e+00	0	43	0	1971322880	60	4282
2026-01-27 08:47:17.66	332.81	6.44	-45.0	-46.3	17.7	0.00e+00	0	43	0	1983905792	60	4469
2026-01-27 08:47:21.70	332.69	6.15	-44.9	-46.2	17.7	0.00e+00	0	43	0	1996488704	60	4423
2026-01-27 08:47:25.73	332.58	5.85	-45.0	-46.4	17.5	0.00e+00	0	43	0	2009071616	60	4498
2026-01-27 08:47:29.77	332.47	5.56	-45.2	-46.5	17.3	0.00e+00	0	43	0	2021654528	61	4334
2026-01-27 08:47:33.80	332.36	5.28	-45.4	-46.8	17.0	0.00e+00	0	43	0	2034237440	61	4469
2026-01-27 08:47:37.82	332.26	4.99	-51.9	-60.9	4.5	5.97e-02	4	43	0	2046820352	74	10707
2026-01-27 08:47:41.85	332.16	4.71	-53.2	-65.9	3.8	1.49e+00	0	43	104	2046820352	76	17070
2026-01-27 08:47:45.88	332.06	4.43	-53.4	-66.1	3.8	1.49e+00	0	43	104	2046820352	77	16366
2026-01-27 08:47:49.91	331.96	4.16	-53.1	-65.8	3.8	1.49e+00	0	43	104	2046820352	76	16822
2026-01-27 08:47:53.94	331.86	3.88	-53.3	-66.0	3.8	1.49e+00	0	43	104	2046820352	77	16220
2026-01-27 08:47:57.97	331.77	3.61	-53.4	-66.1	3.8	1.49e+00	0	43	104	2046820352	77	16389
2026-01-27 08:48:02.01	331.68	3.35	-53.3	-66.1	3.8	1.49e+00	0	43	104	2046820352	77	16351
2026-01-27 08:48:06.03	331.59	3.08	-53.3	-66.0	3.8	1.49e+00	0	43	104	2046820352	77	16254
2026-01-27 08:48:10.06	331.50	2.82	-53.3	-66.0	3.8	1.49e+00	0	43	104	2046820352	77	16238
2026-01-27 08:48:14.09	331.41	2.56	-53.3	-66.0	3.8	1.49e+00	0	43	104	2046820352	77	16243
2026-01-27 08:48:18.13	331.33	2.30	-53.2	-66.0	3.8	1.49e+00	0	43	104	2046820352	77	16179
2026-01-27 08:48:22.15	331.25	2.05	-53.2	-66.0	3.8	1.49e+00	0	43	104	2046820352	77	16216

#Closed at: 2026-01-27 08:48:25
#Recorded file [2046 MB]: D:/lorett/data/31041_260127_113527.dat