passes_logs/2026/01/27/R3.2S_Murmansk/R3.2S_Murmansk__20260127_082222_FENGYUN_3D_rec.log

#Pass ID: 20260127_082222_FENGYUN 3D
#Satellite: FENGYUN 3D
#Configuration: FENGYUN 3D
#almurnet v.1.7.20251203
#Start time: 2026-01-27 08:22:24

#Version: 2.2.20231116
#Station: R3.2S_Murmansk
#Location: 33.079688 lon 68.888172 lat
#TLE: 1 43010U 17072A   26026.49129444  .00000151  00000+0  93391-4 0  9993
#TLE: 2 43010  98.9962 358.4866 0002525  88.1664 271.9801 14.19700337424889

#Time	Az	El	Level	Level2	SNR	BER	BlckErr	Temp	State	Recorded	gain1	gain2
2026-01-27 08:22:24.56	81.48	2.10	-54.0	-65.9	3.8	8.47e-01	0	41	0	0	78	15196
2026-01-27 08:22:28.58	81.24	2.34	-54.2	-66.2	3.8	8.46e-01	0	41	104	0	79	14732
2026-01-27 08:22:32.62	81.00	2.58	-54.1	-66.0	3.8	8.46e-01	0	41	104	0	79	14511
2026-01-27 08:22:36.66	80.76	2.81	-53.8	-65.8	3.8	8.46e-01	0	41	104	0	78	14932
2026-01-27 08:22:40.69	80.51	3.06	-53.4	-65.3	3.8	8.47e-01	0	41	104	0	77	14986
2026-01-27 08:22:44.72	80.26	3.30	-52.3	-64.0	3.8	8.47e-01	0	41	104	0	75	14523
2026-01-27 08:22:48.74	80.00	3.54	-52.1	-63.9	3.8	8.47e-01	0	41	104	0	74	15202
2026-01-27 08:22:52.77	79.74	3.78	-52.1	-64.0	3.8	8.46e-01	0	41	104	0	74	15285
2026-01-27 08:22:56.81	79.48	4.03	-51.8	-61.6	4.0	8.44e-01	0	42	104	0	74	11564
2026-01-27 08:23:00.84	79.20	4.28	-51.3	-58.4	5.0	7.71e-01	0	42	0	0	73	8500
2026-01-27 08:23:04.87	78.93	4.53	-51.3	-58.4	5.0	7.82e-01	0	42	0	0	73	8499
2026-01-27 08:23:08.90	78.65	4.78	-49.4	-53.0	9.8	2.38e-02	0	42	0	17825792	70	5403
2026-01-27 08:23:12.93	78.36	5.04	-48.4	-51.1	11.8	7.07e-04	0	42	0	40894464	68	4906
2026-01-27 08:23:16.96	78.07	5.29	-43.7	-44.9	18.6	0.00e+00	0	42	0	62914560	59	4010
2026-01-27 08:23:20.99	77.78	5.55	-43.6	-44.7	18.7	0.00e+00	0	42	0	77594624	58	4187
2026-01-27 08:23:25.02	77.47	5.81	-43.3	-44.4	19.1	0.00e+00	0	42	0	100663296	58	4039
2026-01-27 08:23:29.05	77.17	6.07	-43.2	-44.4	19.1	0.00e+00	0	42	0	122683392	58	4010
2026-01-27 08:23:33.08	76.85	6.33	-43.2	-44.3	19.3	0.00e+00	0	42	0	145752064	57	4200
2026-01-27 08:23:37.11	76.53	6.59	-43.0	-44.1	19.4	0.00e+00	0	42	0	168820736	57	4139
2026-01-27 08:23:41.15	76.21	6.86	-42.7	-43.8	19.8	0.00e+00	0	42	0	190840832	57	3974
2026-01-27 08:23:45.19	75.87	7.13	-42.8	-43.8	19.8	0.00e+00	0	42	0	213909504	57	3981
2026-01-27 08:23:49.22	75.54	7.40	-42.6	-43.6	20.0	0.00e+00	0	42	0	236978176	56	4141
2026-01-27 08:23:53.25	75.19	7.67	-42.6	-43.7	20.0	0.00e+00	0	42	0	258998272	56	4156
2026-01-27 08:23:57.29	74.84	7.94	-42.5	-43.5	20.1	0.00e+00	0	42	0	282066944	56	4094
2026-01-27 08:24:01.32	74.48	8.22	-42.5	-43.5	20.2	0.00e+00	0	42	0	305135616	56	4061
2026-01-27 08:24:05.34	74.12	8.49	-42.4	-43.4	20.3	0.00e+00	0	42	0	327155712	56	4047
2026-01-27 08:24:09.37	73.74	8.77	-42.5	-43.5	20.3	0.00e+00	0	42	0	350224384	56	4065
2026-01-27 08:24:13.39	73.36	9.05	-42.2	-43.2	20.7	0.00e+00	0	42	0	373293056	56	3920
2026-01-27 08:24:17.41	72.98	9.34	-42.1	-43.0	20.9	0.00e+00	0	42	0	395313152	56	3864
2026-01-27 08:24:21.44	72.58	9.62	-42.1	-43.0	20.9	0.00e+00	0	42	0	417333248	56	3865
2026-01-27 08:24:25.48	72.18	9.91	-41.8	-42.7	21.1	0.00e+00	0	43	0	440401920	55	3947
2026-01-27 08:24:29.51	71.76	10.20	-42.0	-42.9	21.0	0.00e+00	0	42	0	463470592	55	4020
2026-01-27 08:24:33.54	71.34	10.49	-41.7	-42.6	21.2	0.00e+00	0	42	0	485490688	55	3910
2026-01-27 08:24:37.57	70.92	10.78	-41.9	-42.8	21.1	0.00e+00	0	42	0	508559360	55	3974
2026-01-27 08:24:41.61	70.48	11.08	-41.8	-42.7	21.2	0.00e+00	0	43	0	531628032	55	3926
2026-01-27 08:24:45.65	70.03	11.37	-41.7	-42.6	21.3	0.00e+00	0	43	0	553648128	55	3896
2026-01-27 08:24:49.68	69.57	11.67	-41.7	-42.6	21.3	0.00e+00	0	42	0	576716800	55	3902
2026-01-27 08:24:53.71	69.10	11.97	-41.6	-42.5	21.4	0.00e+00	0	43	0	599785472	55	3855
2026-01-27 08:24:57.73	68.63	12.27	-41.4	-42.2	21.7	0.00e+00	0	43	0	621805568	54	3956
2026-01-27 08:25:01.76	68.14	12.58	-41.2	-42.1	21.9	0.00e+00	0	42	0	644874240	54	3879
2026-01-27 08:25:05.79	67.65	12.88	-41.1	-42.0	22.0	0.00e+00	0	43	0	667942912	54	3837
2026-01-27 08:25:09.82	67.14	13.19	-41.0	-41.8	22.1	0.00e+00	0	43	0	689963008	54	3758
2026-01-27 08:25:13.85	66.62	13.50	-41.0	-41.9	22.1	0.00e+00	0	43	0	713031680	53	4012
2026-01-27 08:25:17.88	66.09	13.81	-40.9	-41.8	22.2	0.00e+00	0	43	0	736100352	53	3965
2026-01-27 08:25:21.91	65.55	14.12	-40.7	-41.5	22.5	0.00e+00	0	42	0	758120448	53	3862
2026-01-27 08:25:25.93	65.00	14.43	-40.7	-41.5	22.5	0.00e+00	0	43	0	780140544	53	3858
2026-01-27 08:25:29.95	64.43	14.74	-40.6	-41.4	22.6	0.00e+00	0	43	0	803209216	53	3808
2026-01-27 08:25:33.98	63.86	15.06	-40.5	-41.3	22.7	0.00e+00	0	42	0	826277888	52	3968
2026-01-27 08:25:38.01	63.27	15.37	-40.6	-41.4	22.6	0.00e+00	0	42	0	848297984	52	4027
2026-01-27 08:25:42.04	62.66	15.69	-40.3	-41.1	22.9	0.00e+00	0	43	0	871366656	52	3897
2026-01-27 08:25:46.06	62.05	16.01	-40.3	-41.0	23.0	0.00e+00	0	43	0	894435328	52	3864
2026-01-27 08:25:50.09	61.42	16.33	-40.2	-41.0	23.1	0.00e+00	0	43	0	916455424	52	3833
2026-01-27 08:25:54.12	60.78	16.64	-40.1	-40.9	23.1	0.00e+00	0	43	0	939524096	52	3795
2026-01-27 08:25:58.15	60.12	16.96	-40.1	-40.9	23.1	0.00e+00	0	43	0	961544192	52	3801
2026-01-27 08:26:02.19	59.45	17.28	-40.1	-40.9	23.3	0.00e+00	0	43	0	984612864	51	4020
2026-01-27 08:26:06.21	58.76	17.60	-40.1	-40.9	23.2	0.00e+00	0	43	0	1007681536	51	4037
2026-01-27 08:26:10.25	58.06	17.92	-40.2	-41.0	23.2	0.00e+00	0	43	0	1029701632	51	4081
2026-01-27 08:26:14.28	57.35	18.24	-39.9	-40.6	23.5	0.00e+00	0	43	0	1052770304	51	3902
2026-01-27 08:26:18.30	56.62	18.56	-39.8	-40.6	23.6	0.00e+00	0	43	0	1075838976	51	3889
2026-01-27 08:26:22.34	55.87	18.88	-39.6	-40.3	23.8	0.00e+00	0	43	0	1097859072	51	3779
2026-01-27 08:26:26.37	55.10	19.19	-39.8	-40.6	23.6	0.00e+00	0	43	0	1120927744	51	3870
2026-01-27 08:26:30.40	54.33	19.51	-39.7	-40.4	23.7	0.00e+00	0	43	0	1142947840	51	3809
2026-01-27 08:26:34.43	53.53	19.82	-39.6	-40.3	23.8	0.00e+00	0	43	0	1166016512	50	4002
2026-01-27 08:26:38.47	52.72	20.13	-39.3	-40.0	24.1	0.00e+00	0	43	0	1189085184	50	3867
2026-01-27 08:26:42.51	51.89	20.44	-39.2	-39.9	24.2	0.00e+00	0	43	0	1211105280	50	3816
2026-01-27 08:26:46.54	51.04	20.75	-38.9	-39.6	24.4	0.00e+00	0	43	0	1234173952	49	3910
2026-01-27 08:26:50.57	50.18	21.05	-38.8	-39.5	24.6	0.00e+00	0	43	0	1257242624	49	3853
2026-01-27 08:26:54.59	49.30	21.35	-38.8	-39.5	24.6	0.00e+00	0	43	0	1279262720	49	3846
2026-01-27 08:26:58.62	48.40	21.65	-39.0	-39.8	24.3	0.00e+00	0	43	0	1302331392	49	3974
2026-01-27 08:27:02.65	47.49	21.94	-39.0	-39.7	24.4	0.00e+00	0	43	0	1324351488	49	3939
2026-01-27 08:27:06.67	46.56	22.22	-38.8	-39.5	24.6	0.00e+00	0	43	0	1347420160	49	3845
2026-01-27 08:27:10.71	45.61	22.51	-39.0	-39.7	24.4	0.00e+00	0	43	0	1370488832	49	3957
2026-01-27 08:27:14.74	44.64	22.78	-38.9	-39.6	24.5	0.00e+00	0	43	0	1392508928	49	3884
2026-01-27 08:27:18.77	43.66	23.05	-38.6	-39.4	24.8	0.00e+00	0	43	0	1415577600	49	3783
2026-01-27 08:27:22.81	42.65	23.32	-38.7	-39.4	24.7	0.00e+00	0	43	0	1438646272	49	3821
2026-01-27 08:27:26.84	41.63	23.57	-38.7	-39.4	24.7	0.00e+00	0	43	0	1460666368	49	3816
2026-01-27 08:27:30.87	40.60	23.82	-38.4	-39.1	25.0	0.00e+00	0	43	0	1483735040	48	3884
2026-01-27 08:27:34.90	39.55	24.06	-38.5	-39.2	24.9	0.00e+00	0	43	0	1506803712	48	3953
2026-01-27 08:27:38.94	38.48	24.29	-38.7	-39.5	24.7	0.00e+00	0	43	0	1528823808	48	4063
2026-01-27 08:27:42.97	37.40	24.52	-38.5	-39.2	24.9	0.00e+00	0	43	0	1551892480	48	3956
2026-01-27 08:27:47.00	36.30	24.73	-38.4	-39.1	25.0	0.00e+00	0	43	0	1573912576	48	3908
2026-01-27 08:27:51.03	35.18	24.94	-38.3	-39.0	25.2	0.00e+00	0	43	0	1596981248	48	3828
2026-01-27 08:27:55.07	34.05	25.13	-38.3	-39.0	25.2	0.00e+00	0	43	0	1620049920	48	3845
2026-01-27 08:27:59.10	32.91	25.31	-38.1	-38.8	25.3	0.00e+00	0	43	0	1642070016	48	3750
2026-01-27 08:28:03.13	31.76	25.48	-38.6	-39.4	24.8	0.00e+00	0	43	0	1665138688	48	4006
2026-01-27 08:28:07.16	30.60	25.64	-38.4	-39.1	25.1	0.00e+00	0	43	0	1687158784	48	3905
2026-01-27 08:28:11.18	29.42	25.79	-38.2	-38.9	25.3	0.00e+00	0	43	0	1710227456	48	3792
2026-01-27 08:28:15.20	28.24	25.92	-38.3	-39.0	25.1	0.00e+00	0	43	0	1733296128	48	3857
2026-01-27 08:28:19.22	27.04	26.04	-38.4	-39.1	25.1	0.00e+00	0	43	0	1755316224	48	3886
2026-01-27 08:28:23.25	25.84	26.15	-38.3	-39.0	25.2	0.00e+00	0	43	0	1778384896	48	3847
2026-01-27 08:28:27.28	24.62	26.24	-38.5	-39.3	24.9	0.00e+00	0	43	0	1801453568	48	3959
2026-01-27 08:28:31.31	23.40	26.32	-38.4	-39.1	25.1	0.00e+00	0	43	0	1823473664	48	3885
2026-01-27 08:28:35.34	22.18	26.39	-38.4	-39.1	25.0	0.00e+00	0	43	0	1846542336	48	3911
2026-01-27 08:28:39.38	20.94	26.44	-37.6	-38.4	25.3	0.00e+00	0	43	0	1869611008	47	3786
2026-01-27 08:28:43.41	19.71	26.48	-37.6	-38.3	25.3	0.00e+00	0	43	0	1891631104	46	3967
2026-01-27 08:28:47.44	18.47	26.50	-37.9	-38.6	25.0	0.00e+00	0	43	0	1913651200	46	4132
2026-01-27 08:28:51.46	17.24	26.51	-38.0	-38.8	24.9	0.00e+00	0	43	0	1936719872	46	4198
2026-01-27 08:28:55.49	16.00	26.50	-37.8	-38.5	25.1	0.00e+00	0	43	0	1959788544	46	4086
2026-01-27 08:28:59.52	14.76	26.48	-37.5	-38.2	25.4	0.00e+00	0	43	0	1981808640	46	3919
2026-01-27 08:29:03.56	13.53	26.44	-37.9	-38.6	25.1	0.00e+00	0	43	0	2004877312	46	4107
2026-01-27 08:29:07.59	12.30	26.39	-37.9	-38.7	25.0	0.00e+00	0	43	0	2027945984	46	4156
2026-01-27 08:29:11.62	11.07	26.33	-37.7	-38.4	25.2	0.00e+00	0	43	0	2049966080	46	4027
2026-01-27 08:29:15.66	9.85	26.25	-37.9	-38.6	25.0	0.00e+00	0	43	0	2073034752	46	4111
2026-01-27 08:29:19.69	8.64	26.15	-37.6	-38.3	25.3	0.00e+00	0	43	0	2096103424	46	4002
2026-01-27 08:29:23.73	7.43	26.05	-38.1	-38.8	24.9	0.00e+00	0	43	0	2118123520	46	4219
2026-01-27 08:29:27.76	6.23	25.92	-37.8	-38.5	25.1	0.00e+00	0	43	0	2141192192	46	4086
2026-01-27 08:29:31.78	5.05	25.79	-37.6	-38.3	25.3	0.00e+00	0	43	0	2164260864	46	3978
2026-01-27 08:29:35.81	3.87	25.64	-37.8	-38.5	25.1	0.00e+00	0	43	0	2186280960	46	4083
2026-01-27 08:29:39.85	2.70	25.49	-37.9	-38.6	25.1	0.00e+00	0	43	0	2209349632	46	4107
2026-01-27 08:29:43.88	1.55	25.31	-37.9	-38.6	25.1	0.00e+00	0	43	0	2232418304	46	4111
2026-01-27 08:29:47.91	0.41	25.13	-37.8	-38.5	25.1	0.00e+00	0	43	0	2254438400	46	4089
2026-01-27 08:29:51.94	359.28	24.94	-37.7	-38.4	25.2	0.00e+00	0	43	0	2276458496	46	4030
2026-01-27 08:29:55.97	358.17	24.74	-37.6	-38.3	25.3	0.00e+00	0	43	0	2299527168	46	3986
2026-01-27 08:30:00.00	357.07	24.52	-37.5	-38.2	25.4	0.00e+00	0	43	0	2322595840	46	3926
2026-01-27 08:30:04.03	355.99	24.30	-37.8	-38.6	25.1	0.00e+00	0	43	0	2344615936	46	4100
2026-01-27 08:30:08.07	354.92	24.07	-37.8	-38.5	25.1	0.00e+00	0	43	0	2367684608	46	4094
2026-01-27 08:30:12.10	353.87	23.83	-37.8	-38.5	25.1	0.00e+00	0	43	0	2390753280	46	4080
2026-01-27 08:30:16.13	352.84	23.58	-37.8	-38.6	25.0	0.00e+00	0	43	0	2412773376	46	4102
2026-01-27 08:30:20.16	351.82	23.32	-37.9	-38.6	25.0	0.00e+00	0	43	0	2435842048	46	4142
2026-01-27 08:30:24.19	350.82	23.06	-38.1	-38.8	24.8	0.00e+00	0	43	0	2458910720	46	4222
2026-01-27 08:30:28.22	349.83	22.79	-37.9	-38.6	25.0	0.00e+00	0	43	0	2480930816	46	4121
2026-01-27 08:30:32.25	348.87	22.52	-37.8	-38.5	25.1	0.00e+00	0	43	0	2503999488	46	4056
2026-01-27 08:30:36.27	347.92	22.23	-38.1	-38.8	24.8	0.00e+00	0	43	0	2527068160	46	4213
2026-01-27 08:30:40.31	346.99	21.95	-38.1	-38.8	24.7	0.00e+00	0	43	0	2549088256	46	4237
2026-01-27 08:30:44.34	346.07	21.66	-38.1	-38.8	24.8	0.00e+00	0	43	0	2572156928	47	3982
2026-01-27 08:30:48.37	345.18	21.36	-38.4	-39.2	24.5	0.00e+00	0	43	0	2595225600	47	4158
2026-01-27 08:30:52.40	344.30	21.06	-38.4	-39.1	24.5	0.00e+00	0	43	0	2617245696	47	4111
2026-01-27 08:30:56.43	343.44	20.76	-38.7	-39.4	24.2	0.00e+00	0	43	0	2639265792	47	4275
2026-01-27 08:31:00.45	342.59	20.46	-39.0	-39.8	24.4	0.00e+00	0	43	0	2662334464	48	4200
2026-01-27 08:31:04.49	341.76	20.15	-39.0	-39.8	24.4	0.00e+00	0	43	0	2685403136	49	3959
2026-01-27 08:31:08.51	340.95	19.84	-39.1	-39.9	24.3	0.00e+00	0	43	0	2707423232	49	4012
2026-01-27 08:31:12.54	340.16	19.52	-39.1	-39.9	24.3	0.00e+00	0	43	0	2730491904	49	4005
2026-01-27 08:31:16.57	339.38	19.21	-39.0	-39.7	24.4	0.00e+00	0	43	0	2753560576	49	3956
2026-01-27 08:31:20.60	338.62	18.89	-39.0	-39.7	24.4	0.00e+00	0	43	0	2775580672	49	3955
2026-01-27 08:31:24.63	337.87	18.58	-39.4	-40.1	24.0	0.00e+00	0	43	0	2798649344	49	4133
2026-01-27 08:31:28.66	337.14	18.26	-39.5	-40.2	23.9	0.00e+00	0	43	0	2820669440	49	4177
2026-01-27 08:31:32.69	336.43	17.94	-39.2	-39.9	24.2	0.00e+00	0	43	0	2843738112	49	4044
2026-01-27 08:31:36.71	335.73	17.62	-39.4	-40.1	24.0	0.00e+00	0	43	0	2866806784	49	4136
2026-01-27 08:31:40.74	335.04	17.30	-39.7	-40.5	23.7	0.00e+00	0	43	0	2888826880	49	4294
2026-01-27 08:31:44.77	334.37	16.98	-39.7	-40.4	23.7	0.00e+00	0	43	0	2911895552	50	4051
2026-01-27 08:31:48.80	333.72	16.66	-39.9	-40.7	23.5	0.00e+00	0	43	0	2934964224	50	4146
2026-01-27 08:31:52.83	333.07	16.35	-40.0	-40.7	23.4	0.00e+00	0	43	0	2956984320	50	4187
2026-01-27 08:31:56.86	332.45	16.03	-40.1	-40.9	23.3	0.00e+00	0	43	0	2979004416	50	4255
2026-01-27 08:32:00.89	331.83	15.71	-40.0	-40.8	23.4	0.00e+00	0	43	0	3002073088	50	4198
2026-01-27 08:32:04.93	331.23	15.39	-40.1	-40.9	23.2	0.00e+00	0	43	0	3025141760	50	4274
2026-01-27 08:32:08.97	330.64	15.08	-40.1	-40.9	23.2	0.00e+00	0	43	0	3048210432	50	4277
2026-01-27 08:32:13.00	330.06	14.76	-40.4	-41.2	22.9	0.00e+00	0	43	0	3070230528	51	4186
2026-01-27 08:32:17.03	329.50	14.45	-40.5	-41.3	22.8	0.00e+00	0	43	0	3093299200	51	4200
2026-01-27 08:32:21.07	328.94	14.13	-40.5	-41.2	22.9	6.80e-06	0	43	0	3116367872	51	4192
2026-01-27 08:32:25.10	328.40	13.82	-40.6	-41.4	22.8	0.00e+00	0	43	0	3138387968	51	4243
2026-01-27 08:32:29.13	327.87	13.51	-40.8	-41.6	22.4	0.00e+00	0	43	0	3161456640	52	4122
2026-01-27 08:32:33.17	327.36	13.21	-40.9	-41.7	22.3	0.00e+00	0	43	0	3184525312	52	4155
2026-01-27 08:32:37.21	326.85	12.90	-40.9	-41.7	22.3	0.00e+00	0	43	0	3206545408	52	4164
2026-01-27 08:32:41.25	326.35	12.59	-40.8	-41.6	22.4	0.00e+00	0	43	0	3229614080	52	4119
2026-01-27 08:32:45.28	325.87	12.29	-40.8	-41.6	22.3	0.00e+00	0	43	0	3252682752	52	4116
2026-01-27 08:32:49.31	325.39	11.99	-40.9	-41.7	22.2	0.00e+00	0	43	0	3274702848	52	4186
2026-01-27 08:32:53.34	324.92	11.69	-41.3	-42.2	21.8	0.00e+00	0	43	0	3297771520	53	4149
2026-01-27 08:32:57.38	324.47	11.39	-41.2	-42.1	21.8	0.00e+00	0	43	0	3320840192	53	4119
2026-01-27 08:33:01.41	324.02	11.09	-41.3	-42.2	21.7	0.00e+00	0	43	0	3342860288	53	4151
2026-01-27 08:33:05.44	323.58	10.80	-41.5	-42.3	21.6	0.00e+00	0	43	0	3364880384	53	4241
2026-01-27 08:33:09.46	323.16	10.51	-41.5	-42.4	21.5	0.00e+00	0	43	0	3387949056	53	4244
2026-01-27 08:33:13.49	322.74	10.22	-41.4	-42.3	21.6	0.00e+00	0	43	0	3411017728	53	4220
2026-01-27 08:33:17.52	322.33	9.93	-41.7	-42.5	21.3	0.00e+00	0	43	0	3433037824	53	4336
2026-01-27 08:33:21.55	321.92	9.64	-41.8	-42.7	21.1	0.00e+00	0	43	0	3456106496	54	4180
2026-01-27 08:33:25.58	321.53	9.36	-42.0	-43.0	20.9	0.00e+00	0	43	0	3479175168	54	4302
2026-01-27 08:33:29.61	321.14	9.08	-41.8	-42.7	21.1	0.00e+00	0	43	0	3501195264	54	4176
2026-01-27 08:33:33.65	320.76	8.79	-41.9	-42.8	20.9	0.00e+00	0	43	0	3524263936	54	4236
2026-01-27 08:33:37.68	320.39	8.52	-42.0	-42.9	20.9	0.00e+00	0	43	0	3547332608	54	4260
2026-01-27 08:33:41.71	320.02	8.24	-42.0	-43.0	20.8	0.00e+00	0	43	0	3569352704	54	4303
2026-01-27 08:33:45.74	319.67	7.96	-42.4	-43.3	20.4	0.00e+00	0	43	0	3592421376	55	4234
2026-01-27 08:33:49.77	319.32	7.69	-42.4	-43.3	20.4	0.00e+00	0	43	0	3615490048	55	4239
2026-01-27 08:33:53.81	318.97	7.42	-42.1	-43.0	20.6	0.00e+00	0	43	0	3637510144	55	4089
2026-01-27 08:33:57.85	318.63	7.15	-42.2	-43.2	20.5	0.00e+00	0	43	0	3660578816	55	4153
2026-01-27 08:34:01.87	318.31	6.88	-42.5	-43.4	20.2	0.00e+00	0	43	0	3683647488	55	4290
2026-01-27 08:34:05.90	317.98	6.62	-42.4	-43.4	20.2	0.00e+00	0	43	0	3705667584	55	4250
2026-01-27 08:34:09.93	317.66	6.35	-42.4	-43.3	20.2	0.00e+00	0	43	0	3727687680	55	4235
2026-01-27 08:34:13.97	317.35	6.09	-42.7	-43.7	19.9	0.00e+00	0	43	0	3750756352	56	4178
2026-01-27 08:34:18.01	317.04	5.83	-42.9	-43.9	19.7	0.00e+00	0	43	0	3773825024	56	4274
2026-01-27 08:34:22.04	316.74	5.57	-42.6	-43.6	19.9	0.00e+00	0	43	0	3795845120	57	3913
2026-01-27 08:34:26.05	316.45	5.31	-42.9	-44.0	19.6	0.00e+00	0	43	0	3818913792	56	4294
2026-01-27 08:34:30.08	316.16	5.06	-42.9	-43.9	19.6	0.00e+00	0	43	0	3841982464	56	4258
2026-01-27 08:34:34.12	315.87	4.81	-52.8	-64.7	3.8	8.46e-01	0	43	104	3851419648	76	14748
2026-01-27 08:34:38.15	315.59	4.55	-52.7	-64.7	3.8	8.46e-01	0	43	104	3851419648	76	14716
2026-01-27 08:34:42.18	315.32	4.30	-53.0	-64.9	3.8	8.46e-01	0	43	104	3851419648	76	15123
2026-01-27 08:34:46.21	315.05	4.06	-53.1	-65.1	3.8	8.47e-01	0	43	104	3851419648	76	15461
2026-01-27 08:34:50.24	314.78	3.81	-53.3	-65.2	3.8	8.46e-01	0	43	104	3851419648	77	14778
2026-01-27 08:34:54.27	314.52	3.57	-53.2	-65.1	3.8	8.47e-01	0	43	104	3851419648	77	14683
2026-01-27 08:34:58.30	314.27	3.32	-53.2	-65.1	3.8	8.44e-01	0	43	104	3851419648	76	15563
2026-01-27 08:35:02.33	314.02	3.08	-53.2	-65.1	3.8	8.46e-01	0	43	104	3851419648	76	15560
2026-01-27 08:35:06.37	313.77	2.84	-53.2	-65.1	3.8	8.46e-01	0	43	104	3851419648	76	15490
2026-01-27 08:35:10.40	313.53	2.60	-53.2	-65.1	3.8	8.46e-01	0	43	104	3851419648	76	15474
2026-01-27 08:35:14.43	313.29	2.36	-53.2	-65.1	3.8	8.46e-01	0	43	104	3851419648	76	15461
2026-01-27 08:35:18.46	313.05	2.13	-53.1	-65.1	3.8	8.47e-01	0	43	104	3851419648	76	15416

#Closed at: 2026-01-27 08:35:20
#Recorded file [3851 MB]: D:/lorett/data/31041_260127_112224.dat