passes_logs/2026/01/27/R3.2S_Murmansk/R3.2S_Murmansk__20260127_115556_TY-42_rec.log

#Pass ID: 20260127_115556_TY-42
#Satellite: TY-42
#Configuration: TY-42_900M
#almurnet v.1.7.20251203
#Start time: 2026-01-27 11:55:56

#Version: 2.2.20231116
#Station: R3.2S_Murmansk
#Location: 33.079688 lon 68.888172 lat
#TLE: 1 64048U 25103A   26027.24398148  .00008010  00000-0  38191-3 0 09993
#TLE: 2 64048 097.4117 102.4316 0001655 092.8662 047.1811 15.19167201 38679

#Time	Az	El	Level	Level2	SNR	BER	BlckErr	Temp	State	Recorded	gain1	gain2
2026-01-27 11:55:56.81	27.01	2.03	-54.5	-56.6	6.3	0.00e+00	0	49	0	0	80	18560
2026-01-27 11:55:59.84	26.73	2.21	-54.5	-56.6	6.2	0.00e+00	0	49	104	0	80	18573
2026-01-27 11:56:02.83	26.45	2.39	-54.5	-56.7	6.2	0.00e+00	0	49	104	0	80	18612
2026-01-27 11:56:05.86	26.16	2.58	-54.7	-56.8	6.2	0.00e+00	0	50	104	0	80	18916
2026-01-27 11:56:08.88	25.87	2.76	-54.7	-56.8	6.2	0.00e+00	0	50	104	0	80	18883
2026-01-27 11:56:11.89	25.57	2.95	-54.7	-56.9	6.2	0.00e+00	0	50	104	0	80	19051
2026-01-27 11:56:14.92	25.27	3.14	-54.6	-56.7	6.2	0.00e+00	0	50	104	0	80	18696
2026-01-27 11:56:17.94	24.96	3.32	-54.5	-56.6	6.2	0.00e+00	0	50	104	0	80	18526
2026-01-27 11:56:20.96	24.65	3.51	-54.3	-56.4	6.2	0.00e+00	0	51	104	0	80	18032
2026-01-27 11:56:23.99	24.33	3.70	-53.9	-56.0	6.2	0.00e+00	0	51	104	0	79	18347
2026-01-27 11:56:27.01	24.01	3.90	-53.0	-55.1	6.2	0.00e+00	0	51	104	0	77	18480
2026-01-27 11:56:30.03	23.68	4.09	-52.8	-54.9	6.2	0.00e+00	0	51	104	0	77	18002
2026-01-27 11:56:33.05	23.34	4.28	-52.7	-54.8	6.2	0.00e+00	0	51	104	0	76	19000
2026-01-27 11:56:36.07	23.00	4.48	-52.7	-54.9	6.2	0.00e+00	0	51	104	0	76	19055
2026-01-27 11:56:39.09	22.66	4.67	-52.7	-54.8	6.2	0.00e+00	0	51	104	0	76	18978
2026-01-27 11:56:42.11	22.31	4.87	-52.7	-54.8	6.2	0.00e+00	0	52	104	0	76	18965
2026-01-27 11:56:45.14	21.95	5.07	-52.7	-54.8	6.2	0.00e+00	0	52	104	0	76	19018
2026-01-27 11:56:48.17	21.58	5.27	-52.7	-54.8	6.2	0.00e+00	0	52	104	0	76	18999
2026-01-27 11:56:51.19	21.21	5.47	-52.8	-54.9	6.2	0.00e+00	0	52	104	0	76	19215
2026-01-27 11:56:54.21	20.83	5.67	-51.5	-53.1	6.3	1.84e-02	0	52	104	0	74	17464
2026-01-27 11:56:57.23	20.45	5.87	-36.5	-36.4	14.0	2.22e-02	0	53	0	218103808	44	14409
2026-01-27 11:57:00.26	20.05	6.08	-36.2	-36.1	14.2	4.10e-02	0	54	0	553648128	44	13840
2026-01-27 11:57:03.28	19.65	6.28	-35.9	-35.9	14.4	2.24e-02	0	54	0	889192448	43	14308
2026-01-27 11:57:06.30	19.25	6.49	-36.3	-36.2	14.2	2.17e-02	0	54	0	1224736768	44	14058
2026-01-27 11:57:09.32	18.83	6.69	-36.1	-36.0	14.4	2.17e-02	0	55	0	1577058304	44	13698
2026-01-27 11:57:12.34	18.41	6.90	-36.1	-36.0	14.3	2.08e-02	0	55	0	1912602624	44	13723
2026-01-27 11:57:15.36	17.98	7.11	-36.6	-36.5	14.0	1.92e-02	0	55	0	2248146944	44	14511
2026-01-27 11:57:18.38	17.55	7.32	-35.9	-35.9	14.4	1.88e-02	0	55	0	2592079872	43	14308
2026-01-27 11:57:21.39	17.10	7.53	-36.0	-35.9	14.3	1.72e-02	0	55	0	2927624192	43	14439
2026-01-27 11:57:24.42	16.65	7.74	-36.0	-35.9	14.4	1.81e-02	0	55	0	3271557120	43	14377
2026-01-27 11:57:27.45	16.19	7.95	-35.8	-35.7	14.5	1.70e-02	0	56	0	3615490048	43	14010
2026-01-27 11:57:30.47	15.72	8.16	-35.8	-35.7	14.5	1.39e-02	0	55	0	3951034368	43	14031
2026-01-27 11:57:33.49	15.24	8.38	-35.7	-35.6	14.6	1.35e-02	0	56	0	4286578688	43	13858
2026-01-27 11:57:36.52	14.75	8.59	-35.5	-35.4	14.7	1.13e-02	0	56	0	4638900224	42	14415
2026-01-27 11:57:39.55	14.25	8.81	-35.3	-35.2	14.8	9.94e-03	0	56	0	4974444544	42	13986
2026-01-27 11:57:42.58	13.74	9.02	-35.1	-35.1	14.9	9.36e-03	0	56	0	5309988864	42	13817
2026-01-27 11:57:45.60	13.22	9.24	-34.9	-34.8	15.0	8.22e-03	0	56	0	5645533184	41	14272
2026-01-27 11:57:48.63	12.70	9.46	-35.1	-35.0	14.9	7.51e-03	0	56	0	5997854720	41	14599
2026-01-27 11:57:51.65	12.16	9.67	-34.8	-34.7	15.1	6.62e-03	0	56	0	6333399040	41	14022
2026-01-27 11:57:54.67	11.62	9.89	-34.5	-34.4	15.2	6.43e-03	0	56	0	6668943360	41	13614
2026-01-27 11:57:57.69	11.06	10.11	-34.7	-34.6	15.1	5.50e-03	0	57	0	7012876288	41	13949
2026-01-27 11:58:00.72	10.49	10.33	-34.5	-34.4	15.2	5.26e-03	0	57	0	7356809216	40	14346
2026-01-27 11:58:03.73	9.92	10.55	-34.5	-34.4	15.2	4.90e-03	0	57	0	7692353536	40	14319
2026-01-27 11:58:06.77	9.33	10.77	-34.5	-34.4	15.2	4.72e-03	0	57	0	8036286464	40	14368
2026-01-27 11:58:09.79	8.73	10.99	-34.1	-34.0	15.4	4.41e-03	0	57	0	8371830784	40	13712
2026-01-27 11:58:12.82	8.12	11.20	-34.1	-34.1	15.3	3.82e-03	0	57	0	8715763712	40	13808
2026-01-27 11:58:15.84	7.50	11.42	-33.9	-33.8	15.5	3.29e-03	0	57	0	9059696640	39	14226
2026-01-27 11:58:18.86	6.86	11.64	-34.3	-34.2	15.3	2.84e-03	0	57	0	9395240960	39	14855
2026-01-27 11:58:21.88	6.22	11.86	-34.0	-33.9	15.5	3.12e-03	0	57	0	9730785280	39	14340
2026-01-27 11:58:24.91	5.56	12.08	-33.9	-33.8	15.5	2.48e-03	0	57	0	10066329600	39	14198
2026-01-27 11:58:27.92	4.90	12.29	-33.7	-33.6	15.6	2.43e-03	0	57	0	10418651136	39	13847
2026-01-27 11:58:30.94	4.22	12.51	-33.7	-33.6	15.6	1.97e-03	0	57	0	10754195456	39	13816
2026-01-27 11:58:33.96	3.53	12.72	-33.7	-33.6	15.6	2.07e-03	0	57	0	11089739776	39	13820
2026-01-27 11:58:36.99	2.82	12.93	-33.6	-33.5	15.7	2.19e-03	0	57	0	11433672704	38	14463
2026-01-27 11:58:40.01	2.10	13.15	-33.5	-33.4	15.7	2.02e-03	0	57	0	11777605632	38	14305
2026-01-27 11:58:43.04	1.37	13.36	-33.5	-33.4	15.7	1.63e-03	0	57	0	12113149952	38	14279
2026-01-27 11:58:46.07	0.63	13.57	-33.3	-33.2	15.8	1.83e-03	0	57	0	12457082880	38	14027
2026-01-27 11:58:49.09	359.87	13.77	-33.3	-33.2	15.8	1.74e-03	0	57	0	12792627200	38	14018
2026-01-27 11:58:52.12	359.10	13.98	-33.2	-33.1	15.8	1.68e-03	0	57	0	13136560128	38	13913
2026-01-27 11:58:55.15	358.32	14.18	-33.2	-33.1	15.8	1.52e-03	0	57	0	13480493056	38	13851
2026-01-27 11:58:58.17	357.53	14.38	-33.1	-33.0	15.8	1.33e-03	0	57	0	13816037376	38	13782
2026-01-27 11:59:01.19	356.72	14.58	-33.0	-32.9	15.9	1.35e-03	0	57	0	14151581696	37	14398
2026-01-27 11:59:04.21	355.91	14.77	-32.9	-32.8	15.9	1.24e-03	0	57	0	14503903232	37	14251
2026-01-27 11:59:07.24	355.07	14.96	-33.0	-32.9	15.9	1.05e-03	0	58	0	14839447552	37	14299
2026-01-27 11:59:10.26	354.23	15.15	-32.8	-32.7	15.9	1.12e-03	0	58	0	15174991872	37	13983
2026-01-27 11:59:13.28	353.37	15.33	-32.8	-32.7	15.9	9.30e-04	0	58	0	15510536192	37	13980
2026-01-27 11:59:16.31	352.50	15.51	-32.8	-32.7	15.9	1.07e-03	0	58	0	15862857728	37	13963
2026-01-27 11:59:19.33	351.62	15.69	-32.6	-32.5	15.9	8.77e-04	0	58	0	16198402048	37	13754
2026-01-27 11:59:22.35	350.73	15.86	-32.5	-32.4	16.0	7.87e-04	0	58	0	16533946368	36	14379
2026-01-27 11:59:25.38	349.82	16.03	-32.4	-32.3	16.0	9.35e-04	0	58	0	16877879296	36	14246
2026-01-27 11:59:28.40	348.90	16.19	-32.3	-32.2	16.0	9.35e-04	0	58	0	17213423616	36	13987
2026-01-27 11:59:31.42	347.97	16.34	-32.2	-32.1	16.0	6.72e-04	0	58	0	17565745152	36	13943
2026-01-27 11:59:34.44	347.03	16.49	-32.2	-32.1	16.0	6.72e-04	0	58	0	17901289472	36	13829
2026-01-27 11:59:37.47	346.08	16.64	-32.3	-32.2	15.9	5.58e-04	0	58	0	18236833792	36	14069
2026-01-27 11:59:40.49	345.12	16.78	-32.3	-32.2	16.0	5.34e-04	0	58	0	18572378112	36	14014
2026-01-27 11:59:43.51	344.15	16.91	-32.3	-32.2	15.9	7.20e-04	0	58	0	18907922432	36	13972
2026-01-27 11:59:46.53	343.16	17.03	-32.1	-32.0	15.9	4.82e-04	0	58	0	19260243968	36	13782
2026-01-27 11:59:49.55	342.17	17.15	-32.2	-32.1	15.9	6.25e-04	0	58	0	19595788288	36	13932
2026-01-27 11:59:52.57	341.17	17.26	-32.4	-32.3	15.8	6.01e-04	0	58	0	19939721216	36	14181
2026-01-27 11:59:55.59	340.17	17.37	-32.3	-32.2	15.8	8.63e-04	0	58	0	20275265536	36	13971
2026-01-27 11:59:58.61	339.15	17.46	-32.2	-32.1	15.8	7.72e-04	0	58	0	20619198464	36	13946
2026-01-27 12:00:01.64	338.12	17.55	-32.4	-32.3	15.7	8.30e-04	0	58	0	20963131392	36	14153
2026-01-27 12:00:04.66	337.09	17.63	-32.2	-32.1	15.7	9.06e-04	0	58	0	21298675712	36	13885
2026-01-27 12:00:07.68	336.06	17.71	-32.3	-32.2	15.6	9.15e-04	0	58	0	21634220032	36	14071
2026-01-27 12:00:10.71	335.01	17.77	-32.3	-32.2	15.6	1.11e-03	0	58	0	21969764352	36	14017
2026-01-27 12:00:13.73	333.96	17.83	-32.5	-32.4	15.6	1.24e-03	0	58	0	22322085888	36	14282
2026-01-27 12:00:16.75	332.91	17.87	-32.4	-32.3	15.6	1.07e-03	0	58	0	22657630208	36	14163
2026-01-27 12:00:19.77	331.86	17.91	-32.5	-32.4	15.6	1.13e-03	0	58	0	22993174528	36	14347
2026-01-27 12:00:22.79	330.80	17.94	-32.5	-32.4	15.6	1.22e-03	0	58	0	23337107456	36	14383
2026-01-27 12:00:25.81	329.74	17.96	-32.4	-32.3	15.7	8.96e-04	0	58	0	23672651776	36	14221
2026-01-27 12:00:28.82	328.69	17.97	-32.5	-32.4	15.7	9.35e-04	0	58	0	24016584704	36	14346
2026-01-27 12:00:31.84	327.63	17.98	-32.4	-32.3	15.8	1.06e-03	0	58	0	24360517632	36	14193
2026-01-27 12:00:34.86	326.56	17.97	-32.4	-32.3	15.8	8.63e-04	0	58	0	24696061952	36	14176
2026-01-27 12:00:37.88	325.50	17.96	-32.5	-32.4	15.9	1.00e-03	0	58	0	25031606272	36	14294
2026-01-27 12:00:40.91	324.44	17.93	-32.4	-32.3	15.9	8.92e-04	0	58	0	25367150592	36	14240
2026-01-27 12:00:43.92	323.39	17.90	-32.4	-32.2	15.9	9.06e-04	0	58	0	25719472128	36	14109
2026-01-27 12:00:46.94	322.33	17.86	-32.4	-32.3	15.9	6.82e-04	0	58	0	26055016448	36	14140
2026-01-27 12:00:49.96	321.28	17.81	-32.3	-32.2	16.0	6.01e-04	0	58	0	26390560768	36	13974
2026-01-27 12:00:52.98	320.24	17.75	-32.3	-32.2	16.0	6.96e-04	0	58	0	26734493696	36	14053
2026-01-27 12:00:56.00	319.20	17.68	-32.2	-32.1	16.0	6.91e-04	0	58	0	27070038016	36	13897
2026-01-27 12:00:59.03	318.16	17.60	-32.3	-32.2	16.0	6.44e-04	0	58	0	27413970944	36	14098
2026-01-27 12:01:02.05	317.13	17.52	-32.3	-32.2	16.0	6.77e-04	0	58	0	27757903872	36	14102
2026-01-27 12:01:05.08	316.11	17.43	-32.4	-32.3	16.0	6.05e-04	0	58	0	28093448192	36	14239
2026-01-27 12:01:08.09	315.09	17.33	-32.4	-32.3	16.0	7.34e-04	0	58	0	28428992512	36	14251
2026-01-27 12:01:11.11	314.09	17.22	-32.5	-32.4	15.9	7.87e-04	0	58	0	28781314048	36	14322
2026-01-27 12:01:14.14	313.09	17.11	-32.5	-32.4	15.9	7.77e-04	0	58	0	29116858368	36	14322
2026-01-27 12:01:17.16	312.10	16.99	-32.4	-32.3	15.9	9.20e-04	0	58	0	29452402688	36	14245
2026-01-27 12:01:20.18	311.12	16.86	-32.5	-32.4	15.9	9.20e-04	0	58	0	29787947008	36	14343
2026-01-27 12:01:23.21	310.15	16.72	-32.4	-32.4	15.9	9.20e-04	0	58	0	30131879936	36	14283
2026-01-27 12:01:26.23	309.19	16.58	-32.6	-32.5	15.9	9.01e-04	0	58	0	30475812864	36	14561
2026-01-27 12:01:29.25	308.24	16.44	-32.7	-32.6	15.8	9.96e-04	0	58	0	30811357184	36	14752
2026-01-27 12:01:32.27	307.30	16.28	-32.6	-32.5	15.9	9.77e-04	0	58	0	31155290112	36	14561
2026-01-27 12:01:35.29	306.38	16.13	-32.7	-32.6	15.8	1.03e-03	0	58	0	31490834432	36	14755
2026-01-27 12:01:38.32	305.46	15.96	-32.8	-32.7	15.8	1.03e-03	0	58	0	31834767360	36	14904
2026-01-27 12:01:41.34	304.56	15.79	-32.8	-32.7	15.8	9.68e-04	0	58	0	32178700288	36	14813
2026-01-27 12:01:44.35	303.67	15.62	-32.6	-32.5	15.9	1.08e-03	0	58	0	32514244608	36	14599
2026-01-27 12:01:47.38	302.79	15.44	-32.6	-32.5	16.0	9.87e-04	0	58	0	32849788928	36	14514
2026-01-27 12:01:50.40	301.92	15.26	-32.6	-32.5	16.0	8.68e-04	0	58	0	33185333248	36	14575
2026-01-27 12:01:53.43	301.06	15.08	-32.7	-32.6	15.9	9.30e-04	0	58	0	33537654784	36	14747
2026-01-27 12:01:56.45	300.22	14.89	-32.7	-32.6	15.9	1.06e-03	0	58	0	33873199104	36	14680
2026-01-27 12:01:59.47	299.40	14.69	-32.8	-32.7	15.9	8.92e-04	0	58	0	34208743424	36	14891
2026-01-27 12:02:02.50	298.58	14.50	-32.8	-32.7	15.9	9.39e-04	0	58	0	34552676352	36	14936
2026-01-27 12:02:05.52	297.77	14.30	-32.9	-32.8	15.9	9.35e-04	0	58	0	34896609280	36	15055
2026-01-27 12:02:08.54	296.98	14.10	-33.1	-33.0	15.9	9.82e-04	0	58	0	35232153600	36	15322
2026-01-27 12:02:11.57	296.21	13.89	-33.1	-33.0	15.9	9.82e-04	0	58	0	35576086528	36	15316
2026-01-27 12:02:14.60	295.44	13.69	-33.4	-33.3	15.8	1.02e-03	0	58	0	35911630848	37	15100
2026-01-27 12:02:17.63	294.68	13.48	-33.3	-33.3	15.9	9.92e-04	0	58	0	36255563776	37	14954
2026-01-27 12:02:20.64	293.95	13.27	-33.6	-33.5	15.7	1.21e-03	0	58	0	36599496704	37	15414
2026-01-27 12:02:23.66	293.22	13.06	-33.7	-33.6	15.7	1.46e-03	0	58	0	36935041024	37	15494
2026-01-27 12:02:26.68	292.51	12.84	-33.9	-33.8	15.7	1.60e-03	0	58	0	37270585344	38	15030
2026-01-27 12:02:29.70	291.81	12.63	-33.9	-33.8	15.7	1.88e-03	0	58	0	37606129664	38	15104
2026-01-27 12:02:32.73	291.11	12.41	-34.1	-34.0	15.6	1.76e-03	0	58	0	37958451200	38	15395
2026-01-27 12:02:35.76	290.43	12.20	-34.2	-34.1	15.6	2.09e-03	0	58	0	38293995520	38	15564
2026-01-27 12:02:38.78	289.77	11.98	-34.2	-34.1	15.6	2.47e-03	0	58	0	38629539840	39	14633
2026-01-27 12:02:41.80	289.12	11.76	-34.4	-34.3	15.5	2.29e-03	0	58	0	38973472768	39	15048
2026-01-27 12:02:44.82	288.47	11.54	-34.4	-34.3	15.5	2.65e-03	0	58	0	39317405696	39	15027
2026-01-27 12:02:47.84	287.84	11.33	-34.5	-34.4	15.4	2.65e-03	0	58	0	39652950016	39	15160
2026-01-27 12:02:50.86	287.23	11.11	-34.4	-34.3	15.5	2.65e-03	0	58	0	39996882944	39	14989
2026-01-27 12:02:53.88	286.62	10.89	-34.4	-34.3	15.4	2.77e-03	0	58	0	40332427264	39	15057
2026-01-27 12:02:56.90	286.02	10.67	-34.4	-34.3	15.4	2.96e-03	0	59	0	40667971584	39	15085
2026-01-27 12:02:59.93	285.43	10.45	-34.5	-34.4	15.4	2.93e-03	0	58	0	41020293120	39	15215
2026-01-27 12:03:02.94	284.86	10.23	-34.6	-34.5	15.3	3.90e-03	0	58	0	41355837440	39	15423
2026-01-27 12:03:05.97	284.30	10.01	-34.8	-34.7	15.2	4.32e-03	0	58	0	41691381760	40	14860
2026-01-27 12:03:08.99	283.74	9.79	-34.6	-34.5	15.3	4.32e-03	0	59	0	42026926080	40	14462
2026-01-27 12:03:12.02	283.20	9.57	-34.8	-34.7	15.2	4.60e-03	0	59	0	42379247616	40	14819
2026-01-27 12:03:15.04	282.66	9.36	-34.9	-34.8	15.1	4.55e-03	0	58	0	42714791936	40	15036
2026-01-27 12:03:18.07	282.14	9.14	-35.0	-34.9	15.1	5.36e-03	0	59	0	43050336256	40	15212
2026-01-27 12:03:21.09	281.62	8.92	-35.0	-34.9	15.1	5.57e-03	0	59	0	43394269184	40	15155
2026-01-27 12:03:24.13	281.11	8.70	-35.0	-34.9	15.0	6.34e-03	0	59	0	43738202112	40	15222
2026-01-27 12:03:27.14	280.62	8.49	-35.2	-35.2	14.9	7.07e-03	0	58	0	44073746432	41	14801
2026-01-27 12:03:30.17	280.13	8.27	-35.5	-35.4	14.7	7.36e-03	0	59	0	44417679360	41	15261
2026-01-27 12:03:33.19	279.66	8.06	-35.4	-35.3	14.8	8.28e-03	0	59	0	44753223680	41	15104
2026-01-27 12:03:36.21	279.19	7.85	-35.3	-35.2	14.9	8.01e-03	0	59	0	45105545216	41	14842
2026-01-27 12:03:39.23	278.73	7.63	-35.4	-35.3	14.8	8.97e-03	0	58	0	45441089536	41	15092
2026-01-27 12:03:42.25	278.27	7.42	-35.6	-35.5	14.8	9.56e-03	0	59	0	45776633856	41	15363
2026-01-27 12:03:45.28	277.83	7.21	-35.6	-35.5	14.8	1.09e-02	0	59	0	46112178176	42	14510
2026-01-27 12:03:48.29	277.39	7.00	-36.0	-35.9	14.6	1.22e-02	0	59	0	46447722496	42	15291
2026-01-27 12:03:51.31	276.97	6.80	-53.1	-55.3	6.2	1.49e-02	0	57	104	46607106048	76	19984
2026-01-27 12:03:54.32	276.55	6.59	-53.1	-55.2	6.2	1.49e-02	0	57	104	46607106048	76	19905
2026-01-27 12:03:57.35	276.13	6.38	-53.1	-55.2	6.2	1.49e-02	0	57	104	46607106048	76	19748
2026-01-27 12:04:00.37	275.73	6.18	-52.9	-55.1	6.2	1.18e-03	0	57	104	46607106048	76	19538
2026-01-27 12:04:03.39	275.33	5.97	-53.0	-55.1	6.2	1.18e-03	0	57	104	46607106048	76	19562
2026-01-27 12:04:06.41	274.94	5.77	-53.0	-55.1	6.2	1.18e-03	0	56	104	46607106048	76	19548
2026-01-27 12:04:09.44	274.55	5.57	-52.9	-54.9	6.2	1.18e-03	0	56	104	46607106048	76	19246
2026-01-27 12:04:12.46	274.18	5.36	-52.8	-54.9	6.2	1.18e-03	0	57	104	46607106048	76	19171
2026-01-27 12:04:15.48	273.81	5.16	-52.8	-54.9	6.2	1.18e-03	0	56	104	46607106048	76	19186
2026-01-27 12:04:18.51	273.44	4.96	-52.8	-54.9	6.2	1.18e-03	0	56	104	46607106048	76	19082
2026-01-27 12:04:21.53	273.08	4.77	-52.9	-55.1	6.2	0.00e+00	0	56	104	46607106048	76	19567
2026-01-27 12:04:24.55	272.73	4.57	-53.3	-55.4	6.2	0.00e+00	0	56	104	46607106048	77	19138
2026-01-27 12:04:27.58	272.38	4.37	-53.5	-55.6	6.2	0.00e+00	0	56	104	46607106048	77	19569
2026-01-27 12:04:30.60	272.04	4.18	-53.6	-55.7	6.2	0.00e+00	0	56	104	46607106048	77	19782
2026-01-27 12:04:33.62	271.71	3.98	-53.7	-55.8	6.2	0.00e+00	0	56	104	46607106048	77	20066
2026-01-27 12:04:36.64	271.38	3.79	-53.8	-55.9	6.2	0.00e+00	0	56	104	46607106048	78	19150
2026-01-27 12:04:39.66	271.06	3.60	-53.7	-55.9	6.2	0.00e+00	0	56	104	46607106048	78	19052
2026-01-27 12:04:42.69	270.74	3.41	-53.7	-55.8	6.2	0.00e+00	0	55	104	46607106048	77	20119
2026-01-27 12:04:45.71	270.43	3.22	-53.7	-55.8	6.2	0.00e+00	0	55	104	46607106048	77	20122
2026-01-27 12:04:48.74	270.12	3.03	-53.7	-55.8	6.2	0.00e+00	0	55	104	46607106048	77	20117
2026-01-27 12:04:51.77	269.82	2.84	-53.5	-55.8	6.2	0.00e+00	0	55	104	46607106048	77	20159
2026-01-27 12:04:54.79	269.52	2.65	-53.7	-55.8	6.2	0.00e+00	0	55	104	46607106048	77	20040
2026-01-27 12:04:57.81	269.23	2.47	-53.7	-55.8	6.2	0.00e+00	0	55	104	46607106048	77	20081
2026-01-27 12:05:00.83	268.94	2.28	-53.7	-55.8	6.2	0.00e+00	0	55	104	46607106048	77	20010
2026-01-27 12:05:03.84	268.66	2.10	-53.7	-55.8	6.2	0.00e+00	0	55	104	46607106048	77	20040
2026-01-27 12:05:06.87	268.38	1.92	-53.7	-55.8	6.2	0.00e+00	0	55	104	46607106048	77	19999

#Closed at: 2026-01-27 12:05:07
#Recorded file [46607 MB]: D:/lorett/data/31041_260127_145556.dat