passes_logs/2026/01/27/R3.2S_Murmansk/R3.2S_Murmansk__20260127_022654_SUOMI_NPP_rec.log

#Pass ID: 20260127_022654_SUOMI NPP
#Satellite: SUOMI NPP
#Configuration: NPP
#almurnet v.1.7.20251203
#Start time: 2026-01-27 02:26:54

#Version: 2.2.20231116
#Station: R3.2S_Murmansk
#Location: 33.079688 lon 68.888172 lat
#TLE: 1 37849U 11061A   26026.52266023  .00000173  00000+0  10323-3 0  9994
#TLE: 2 37849  98.7822 328.4727 0002140  43.9411 316.1934 14.19530258738341

#Time	Az	El	Level	Level2	SNR	BER	BlckErr	Temp	State	Recorded	gain1	gain2
2026-01-27 02:26:54.82	33.06	2.03	-52.6	-67.6	3.8	1.49e+00	0	41	0	0	77	19466
2026-01-27 02:26:58.85	32.92	2.28	-52.0	-66.8	3.8	1.49e+00	0	41	104	0	74	21184
2026-01-27 02:27:02.88	32.77	2.53	-52.0	-66.8	3.8	1.49e+00	0	41	104	0	74	21079
2026-01-27 02:27:06.91	32.62	2.79	-52.0	-67.0	3.8	1.49e+00	0	41	104	0	74	21547
2026-01-27 02:27:10.94	32.47	3.04	-52.0	-66.7	3.8	1.49e+00	0	41	104	0	74	20838
2026-01-27 02:27:14.97	32.31	3.30	-52.0	-67.0	3.8	1.49e+00	0	41	104	0	74	21524
2026-01-27 02:27:19.01	32.15	3.56	-52.0	-65.8	3.8	1.49e+00	0	41	104	0	74	18947
2026-01-27 02:27:23.04	31.99	3.82	-51.8	-63.7	4.1	1.43e+00	0	42	0	0	74	14765
2026-01-27 02:27:27.06	31.82	4.09	-51.4	-59.9	6.0	5.01e-01	0	42	0	5242880	74	9572
2026-01-27 02:27:31.09	31.66	4.36	-50.0	-54.7	11.0	4.50e-03	0	42	0	12582912	72	5880
2026-01-27 02:27:35.12	31.48	4.62	-48.9	-52.1	13.8	2.20e-06	0	42	0	19922944	69	5216
2026-01-27 02:27:39.15	31.31	4.90	-49.1	-52.7	13.2	2.05e-05	0	42	0	27262976	69	5539
2026-01-27 02:27:43.18	31.13	5.17	-47.4	-49.6	16.3	0.00e+00	0	42	0	34603008	66	4650
2026-01-27 02:27:47.21	30.95	5.45	-47.2	-49.4	16.5	0.00e+00	0	42	0	38797312	66	4536
2026-01-27 02:27:51.24	30.76	5.73	-47.7	-50.1	16.0	0.00e+00	0	42	0	47185920	66	4908
2026-01-27 02:27:55.27	30.57	6.01	-47.0	-49.0	17.0	0.00e+00	0	42	0	54525952	65	4595
2026-01-27 02:27:59.29	30.37	6.30	-46.8	-48.8	17.3	0.00e+00	0	42	0	61865984	65	4456
2026-01-27 02:28:03.33	30.17	6.58	-46.7	-48.6	17.5	0.00e+00	0	42	0	69206016	64	4627
2026-01-27 02:28:07.36	29.97	6.88	-46.9	-49.0	17.2	0.00e+00	0	42	0	76546048	64	4820
2026-01-27 02:28:11.39	29.76	7.17	-47.1	-49.1	17.1	0.00e+00	0	42	0	84934656	64	4920
2026-01-27 02:28:15.43	29.55	7.47	-46.7	-48.6	17.6	0.00e+00	0	42	0	92274688	64	4649
2026-01-27 02:28:19.46	29.33	7.77	-46.5	-48.3	17.9	0.00e+00	0	42	0	99614720	64	4474
2026-01-27 02:28:23.49	29.11	8.07	-46.5	-48.4	17.9	0.00e+00	0	42	0	106954752	64	4520
2026-01-27 02:28:27.52	28.88	8.38	-46.5	-48.3	17.9	0.00e+00	0	42	0	114294784	64	4485
2026-01-27 02:28:31.55	28.65	8.69	-46.4	-48.1	18.2	0.00e+00	0	42	0	122683392	64	4391
2026-01-27 02:28:35.57	28.41	9.00	-46.3	-48.0	18.3	0.00e+00	0	42	0	130023424	64	4337
2026-01-27 02:28:39.61	28.17	9.31	-46.4	-48.2	18.2	0.00e+00	0	42	0	137363456	64	4418
2026-01-27 02:28:43.64	27.92	9.63	-46.5	-48.4	18.0	0.00e+00	0	42	0	144703488	64	4494
2026-01-27 02:28:47.67	27.67	9.96	-46.4	-48.2	18.2	0.00e+00	0	42	0	153092096	64	4435
2026-01-27 02:28:51.70	27.40	10.29	-46.2	-47.9	18.5	0.00e+00	0	43	0	160432128	64	4250
2026-01-27 02:28:55.73	27.14	10.62	-46.1	-47.8	18.7	0.00e+00	0	43	0	167772160	64	4199
2026-01-27 02:28:59.76	26.86	10.95	-46.1	-47.7	18.7	0.00e+00	0	42	0	175112192	64	4190
2026-01-27 02:29:03.78	26.58	11.29	-46.1	-47.7	18.8	0.00e+00	0	42	0	182452224	64	4169
2026-01-27 02:29:07.81	26.30	11.63	-46.0	-47.6	18.9	0.00e+00	0	42	0	189792256	63	4372
2026-01-27 02:29:11.83	26.00	11.98	-45.9	-47.4	19.1	0.00e+00	0	42	0	198180864	63	4279
2026-01-27 02:29:15.86	25.70	12.33	-46.0	-47.5	19.0	0.00e+00	0	43	0	205520896	63	4332
2026-01-27 02:29:19.89	25.39	12.68	-46.0	-47.6	19.1	0.00e+00	0	43	0	212860928	63	4351
2026-01-27 02:29:23.92	25.07	13.04	-46.1	-47.7	19.0	0.00e+00	0	43	0	220200960	63	4402
2026-01-27 02:29:27.95	24.75	13.41	-45.9	-47.5	19.1	0.00e+00	0	42	0	228589568	63	4326
2026-01-27 02:29:31.97	24.42	13.78	-45.9	-47.5	19.1	0.00e+00	0	43	0	235929600	63	4323
2026-01-27 02:29:36.01	24.07	14.15	-46.0	-47.6	19.0	0.00e+00	0	42	0	243269632	63	4363
2026-01-27 02:29:40.04	23.72	14.53	-46.1	-47.7	19.0	0.00e+00	0	43	0	250609664	63	4433
2026-01-27 02:29:44.08	23.36	14.91	-46.2	-47.8	18.8	0.00e+00	0	43	0	257949696	63	4474
2026-01-27 02:29:48.10	22.99	15.30	-46.2	-47.8	18.8	0.00e+00	0	43	0	266338304	63	4470
2026-01-27 02:29:52.13	22.60	15.69	-45.9	-47.4	19.3	0.00e+00	0	43	0	273678336	63	4278
2026-01-27 02:29:56.16	22.21	16.09	-45.9	-47.4	19.3	0.00e+00	0	43	0	281018368	63	4263
2026-01-27 02:30:00.18	21.81	16.49	-45.8	-47.4	19.4	0.00e+00	0	43	0	288358400	63	4246
2026-01-27 02:30:04.21	21.39	16.90	-45.8	-47.3	19.5	0.00e+00	0	43	0	295698432	63	4220
2026-01-27 02:30:08.24	20.97	17.31	-45.8	-47.2	19.6	0.00e+00	0	43	0	304087040	63	4191
2026-01-27 02:30:12.27	20.53	17.73	-45.6	-47.0	19.8	0.00e+00	0	43	0	311427072	63	4067
2026-01-27 02:30:16.30	20.08	18.15	-45.7	-47.2	19.6	0.00e+00	0	43	0	318767104	63	4173
2026-01-27 02:30:20.34	19.61	18.58	-45.9	-47.4	19.4	0.00e+00	0	43	0	326107136	63	4277
2026-01-27 02:30:24.38	19.13	19.02	-45.8	-47.3	19.6	0.00e+00	0	42	0	333447168	63	4196
2026-01-27 02:30:28.41	18.64	19.46	-45.7	-47.1	19.8	0.00e+00	0	43	0	341835776	63	4129
2026-01-27 02:30:32.43	18.13	19.90	-45.7	-47.1	19.8	0.00e+00	0	43	0	349175808	63	4118
2026-01-27 02:30:36.46	17.61	20.35	-45.8	-47.2	19.7	0.00e+00	0	43	0	356515840	62	4430
2026-01-27 02:30:40.49	17.07	20.81	-46.3	-47.9	19.0	0.00e+00	0	43	0	363855872	63	4537
2026-01-27 02:30:44.52	16.51	21.27	-46.5	-48.1	18.9	0.00e+00	0	43	0	371195904	63	4614
2026-01-27 02:30:48.55	15.94	21.74	-46.2	-47.8	19.1	0.00e+00	0	43	0	379584512	63	4454
2026-01-27 02:30:52.59	15.34	22.21	-46.2	-47.8	19.2	0.00e+00	0	43	0	386924544	63	4476
2026-01-27 02:30:56.62	14.73	22.69	-46.4	-48.0	19.0	0.00e+00	0	43	0	394264576	63	4576
2026-01-27 02:31:00.65	14.10	23.18	-46.7	-48.5	18.6	0.00e+00	0	43	0	401604608	63	4845
2026-01-27 02:31:04.68	13.45	23.67	-46.5	-48.2	18.6	0.00e+00	0	43	0	408944640	63	4685
2026-01-27 02:31:08.71	12.78	24.16	-46.1	-47.7	19.3	0.00e+00	0	43	0	417333248	63	4421
2026-01-27 02:31:12.74	12.09	24.66	-46.7	-48.4	18.7	0.00e+00	0	43	0	424673280	63	4781
2026-01-27 02:31:16.77	11.37	25.16	-46.4	-48.1	18.9	0.00e+00	0	43	0	432013312	64	4349
2026-01-27 02:31:20.80	10.63	25.67	-45.8	-47.3	19.7	0.00e+00	0	43	0	439353344	62	4443
2026-01-27 02:31:24.82	9.86	26.18	-46.4	-47.9	19.1	0.00e+00	0	43	0	446693376	63	4543
2026-01-27 02:31:28.85	9.07	26.70	-46.6	-48.3	18.7	0.00e+00	0	43	0	455081984	64	4442
2026-01-27 02:31:32.88	8.26	27.22	-47.1	-49.0	18.0	0.00e+00	0	43	0	462422016	65	4565
2026-01-27 02:31:36.91	7.41	27.75	-47.9	-50.0	17.1	0.00e+00	0	43	0	469762048	66	4820
2026-01-27 02:31:40.94	6.54	28.27	-48.1	-50.4	16.7	0.00e+00	0	43	0	477102080	66	5049
2026-01-27 02:31:44.96	5.64	28.80	-48.6	-51.2	16.1	0.00e+00	0	43	0	485490688	68	4935
2026-01-27 02:31:48.99	4.70	29.33	-48.4	-50.7	16.4	0.00e+00	0	43	0	492830720	67	4982
2026-01-27 02:31:53.02	3.73	29.86	-48.9	-51.6	15.6	0.00e+00	0	43	0	500170752	68	5186
2026-01-27 02:31:57.05	2.74	30.40	-47.6	-49.6	17.6	0.00e+00	0	43	0	507510784	67	4343
2026-01-27 02:32:01.08	1.70	30.93	-47.4	-49.3	17.9	0.00e+00	0	43	0	514850816	66	4450
2026-01-27 02:32:05.11	0.64	31.46	-47.6	-49.5	17.6	0.00e+00	0	43	0	522190848	66	4590
2026-01-27 02:32:09.14	359.53	31.99	-47.4	-49.3	17.9	0.00e+00	0	43	0	530579456	66	4446
2026-01-27 02:32:13.18	358.39	32.51	-47.3	-49.2	17.9	0.00e+00	0	43	0	537919488	65	4676
2026-01-27 02:32:17.21	357.21	33.03	-47.2	-49.0	18.1	0.00e+00	0	43	0	545259520	66	4332
2026-01-27 02:32:21.23	356.00	33.55	-47.0	-48.8	18.3	0.00e+00	0	43	0	552599552	65	4460
2026-01-27 02:32:25.25	354.74	34.06	-46.9	-48.6	18.5	0.00e+00	0	43	0	560988160	65	4354
2026-01-27 02:32:29.28	353.45	34.56	-47.9	-50.1	17.0	0.00e+00	0	43	0	568328192	66	4878
2026-01-27 02:32:33.31	352.11	35.05	-47.9	-50.1	17.1	0.00e+00	0	43	0	575668224	67	4645
2026-01-27 02:32:37.34	350.74	35.53	-49.3	-52.3	15.1	0.00e+00	0	43	0	583008256	69	5287
2026-01-27 02:32:41.37	349.32	36.00	-48.5	-51.0	16.4	0.00e+00	0	43	0	590348288	68	4817
2026-01-27 02:32:45.40	347.86	36.45	-48.4	-50.7	16.5	0.00e+00	0	43	0	598736896	68	4705
2026-01-27 02:32:49.43	346.36	36.89	-47.7	-49.8	17.4	0.00e+00	0	43	0	606076928	66	4734
2026-01-27 02:32:53.45	344.82	37.31	-47.1	-49.0	18.2	0.00e+00	0	43	0	613416960	66	4294
2026-01-27 02:32:57.48	343.24	37.71	-47.0	-48.9	18.2	0.00e+00	0	43	0	620756992	65	4523
2026-01-27 02:33:01.51	341.62	38.09	-46.0	-47.5	19.6	0.00e+00	0	43	0	628097024	63	4327
2026-01-27 02:33:05.55	339.96	38.45	-45.2	-46.5	20.4	0.00e+00	0	43	0	636485632	62	4075
2026-01-27 02:33:09.57	338.27	38.79	-46.6	-48.5	18.6	0.00e+00	0	43	0	643825664	64	4579
2026-01-27 02:33:13.61	336.54	39.09	-44.4	-45.7	21.3	0.00e+00	0	43	0	651165696	60	4171
2026-01-27 02:33:17.64	334.79	39.38	-45.6	-47.0	20.1	0.00e+00	0	43	0	658505728	63	4087
2026-01-27 02:33:21.66	333.00	39.63	-46.1	-47.8	19.4	0.00e+00	0	43	0	665845760	62	4706
2026-01-27 02:33:25.70	331.19	39.85	-45.0	-46.4	20.7	0.00e+00	0	43	0	674234368	61	4255
2026-01-27 02:33:29.73	329.35	40.03	-46.0	-47.5	19.8	0.00e+00	0	43	0	681574400	63	4314
2026-01-27 02:33:33.76	327.49	40.19	-44.4	-45.5	21.6	0.00e+00	0	43	0	688914432	60	4088
2026-01-27 02:33:37.80	325.61	40.31	-44.8	-46.0	21.1	0.00e+00	0	43	0	696254464	61	4075
2026-01-27 02:33:41.83	323.73	40.40	-46.5	-48.1	19.3	0.00e+00	0	43	0	704643072	63	4651
2026-01-27 02:33:45.86	321.84	40.45	-45.6	-46.9	20.3	0.00e+00	0	43	0	711983104	62	4284
2026-01-27 02:33:49.90	319.93	40.47	-46.8	-48.5	18.7	0.00e+00	0	43	0	719323136	64	4597
2026-01-27 02:33:53.93	318.04	40.45	-46.3	-47.8	19.6	0.00e+00	0	43	0	726663168	63	4484
2026-01-27 02:33:57.96	316.15	40.39	-46.5	-48.1	19.0	0.00e+00	0	43	0	734003200	64	4388
2026-01-27 02:34:02.00	314.26	40.30	-48.6	-51.1	16.3	0.00e+00	0	43	0	742391808	67	5216
2026-01-27 02:34:06.03	312.39	40.17	-48.9	-51.4	16.0	0.00e+00	0	43	0	749731840	68	5098
2026-01-27 02:34:10.06	310.53	40.01	-48.8	-51.3	16.1	0.00e+00	0	43	0	757071872	68	5007
2026-01-27 02:34:14.10	308.69	39.82	-49.4	-52.3	15.1	1.50e-06	0	43	0	764411904	70	5039
2026-01-27 02:34:18.13	306.88	39.60	-48.3	-50.7	16.7	0.00e+00	0	43	0	771751936	68	4669
2026-01-27 02:34:22.16	305.09	39.34	-48.6	-51.1	16.2	0.00e+00	0	43	0	780140544	68	4915
2026-01-27 02:34:26.19	303.34	39.06	-48.6	-51.3	16.0	0.00e+00	0	43	0	787480576	68	4992
2026-01-27 02:34:30.22	301.61	38.75	-46.2	-47.9	19.1	0.00e+00	0	43	0	794820608	64	4281
2026-01-27 02:34:34.25	299.92	38.41	-46.4	-48.1	19.1	0.00e+00	0	43	0	802160640	63	4615
2026-01-27 02:34:38.29	298.27	38.05	-44.2	-45.4	21.6	0.00e+00	0	43	0	809500672	60	4006
2026-01-27 02:34:42.32	296.65	37.66	-44.4	-45.6	21.4	0.00e+00	0	43	0	817889280	60	4121
2026-01-27 02:34:46.35	295.07	37.26	-44.3	-45.5	21.5	0.00e+00	0	43	0	825229312	60	4095
2026-01-27 02:34:50.38	293.54	36.83	-46.6	-48.4	19.0	0.00e+00	0	43	0	832569344	63	4768
2026-01-27 02:34:54.41	292.04	36.39	-45.6	-47.0	20.3	0.00e+00	0	43	0	839909376	63	4074
2026-01-27 02:34:58.44	290.58	35.94	-45.8	-47.2	20.1	0.00e+00	0	43	0	848297984	62	4410
2026-01-27 02:35:02.47	289.17	35.46	-46.2	-47.8	19.6	0.00e+00	0	43	0	855638016	63	4455
2026-01-27 02:35:06.51	287.79	34.98	-44.7	-45.9	21.3	0.00e+00	0	43	0	862978048	61	4017
2026-01-27 02:35:10.53	286.46	34.49	-46.6	-48.2	19.2	0.00e+00	0	43	0	870318080	64	4436
2026-01-27 02:35:14.57	285.17	33.98	-46.8	-48.5	19.0	0.00e+00	0	43	0	877658112	64	4553
2026-01-27 02:35:18.60	283.91	33.47	-47.2	-48.9	18.4	0.00e+00	0	43	0	884998144	65	4541
2026-01-27 02:35:22.63	282.70	32.96	-47.6	-49.4	18.0	0.00e+00	0	43	0	893386752	65	4799
2026-01-27 02:35:26.66	281.52	32.43	-47.3	-49.1	18.3	0.00e+00	0	43	0	900726784	65	4606
2026-01-27 02:35:30.69	280.39	31.91	-47.5	-49.4	18.1	0.00e+00	0	43	0	908066816	67	4247
2026-01-27 02:35:34.72	279.29	31.38	-46.1	-47.5	19.8	0.00e+00	0	43	0	915406848	64	4068
2026-01-27 02:35:38.75	278.22	30.84	-45.9	-47.3	20.1	0.00e+00	0	43	0	923795456	63	4226
2026-01-27 02:35:42.77	277.19	30.31	-47.8	-49.7	17.7	0.00e+00	0	43	0	931135488	66	4683
2026-01-27 02:35:46.80	276.20	29.78	-48.4	-50.6	16.8	0.00e+00	0	43	0	938475520	68	4645
2026-01-27 02:35:50.83	275.23	29.25	-47.4	-49.3	18.0	0.00e+00	0	43	0	945815552	66	4469
2026-01-27 02:35:54.86	274.30	28.72	-46.8	-48.4	18.9	0.00e+00	0	43	0	953155584	65	4278
2026-01-27 02:35:58.88	273.40	28.19	-46.1	-47.5	19.7	0.00e+00	0	43	0	961544192	63	4324
2026-01-27 02:36:02.91	272.53	27.66	-45.9	-47.4	19.9	0.00e+00	0	43	0	968884224	62	4496
2026-01-27 02:36:06.95	271.68	27.13	-46.7	-48.3	19.0	0.00e+00	0	43	0	976224256	64	4445
2026-01-27 02:36:10.99	270.87	26.61	-46.3	-47.8	19.4	0.00e+00	0	43	0	983564288	64	4218
2026-01-27 02:36:15.02	270.08	26.09	-45.7	-47.1	20.2	0.00e+00	0	43	0	990904320	63	4111
2026-01-27 02:36:19.04	269.32	25.58	-45.8	-47.2	20.0	0.00e+00	0	43	0	999292928	63	4169
2026-01-27 02:36:23.08	268.57	25.07	-46.7	-48.4	18.8	0.00e+00	0	43	0	1006632960	64	4509
2026-01-27 02:36:27.11	267.86	24.57	-47.2	-49.1	18.1	0.00e+00	0	43	0	1013972992	65	4634
2026-01-27 02:36:31.13	267.17	24.07	-47.6	-49.6	17.6	0.00e+00	0	43	0	1021313024	66	4639
2026-01-27 02:36:35.16	266.50	23.57	-47.5	-49.4	17.7	0.00e+00	0	43	0	1028653056	66	4535
2026-01-27 02:36:39.19	265.85	23.08	-46.1	-47.6	19.4	0.00e+00	0	43	0	1037041664	64	4145
2026-01-27 02:36:43.23	265.22	22.60	-46.0	-47.5	19.7	0.00e+00	0	43	0	1044381696	63	4294
2026-01-27 02:36:47.26	264.61	22.12	-46.3	-47.7	19.4	0.00e+00	0	43	0	1051721728	63	4439
2026-01-27 02:36:51.28	264.02	21.65	-45.8	-47.2	19.9	0.00e+00	0	43	0	1059061760	63	4192
2026-01-27 02:36:55.30	263.45	21.18	-47.2	-49.0	18.1	0.00e+00	0	43	0	1066401792	64	4840
2026-01-27 02:36:59.33	262.89	20.72	-48.3	-50.6	16.6	0.00e+00	0	43	0	1074790400	67	4871
2026-01-27 02:37:03.37	262.35	20.26	-47.7	-49.7	17.4	0.00e+00	0	43	0	1082130432	67	4425
2026-01-27 02:37:07.39	261.83	19.81	-47.2	-48.9	18.3	0.00e+00	0	43	0	1089470464	66	4247
2026-01-27 02:37:11.41	261.32	19.36	-47.2	-48.9	18.2	0.00e+00	0	43	0	1096810496	65	4528
2026-01-27 02:37:15.45	260.83	18.92	-47.1	-48.9	18.2	0.00e+00	0	43	0	1105199104	65	4501
2026-01-27 02:37:19.48	260.35	18.49	-46.1	-47.6	19.4	0.00e+00	0	43	0	1112539136	64	4116
2026-01-27 02:37:23.51	259.88	18.06	-45.8	-47.2	19.9	0.00e+00	0	43	0	1119879168	63	4154
2026-01-27 02:37:27.54	259.43	17.63	-46.8	-48.4	18.6	0.00e+00	0	43	0	1127219200	64	4526
2026-01-27 02:37:31.57	258.99	17.22	-46.9	-48.5	18.5	0.00e+00	0	43	0	1134559232	64	4590
2026-01-27 02:37:35.60	258.56	16.80	-46.5	-48.1	18.9	0.00e+00	0	43	0	1141899264	64	4345
2026-01-27 02:37:39.63	258.15	16.40	-46.6	-48.2	18.8	0.00e+00	0	43	0	1150287872	64	4399
2026-01-27 02:37:43.66	257.75	15.99	-46.5	-48.0	18.9	0.00e+00	0	43	0	1157627904	64	4336
2026-01-27 02:37:47.69	257.35	15.60	-46.5	-48.0	18.9	0.00e+00	0	43	0	1164967936	64	4326
2026-01-27 02:37:51.72	256.97	15.20	-47.1	-48.9	18.0	0.00e+00	0	43	0	1172307968	64	4786
2026-01-27 02:37:55.76	256.60	14.82	-47.5	-49.4	17.6	0.00e+00	0	43	0	1180696576	65	4790
2026-01-27 02:37:59.78	256.24	14.43	-46.9	-48.5	18.4	0.00e+00	0	43	0	1188036608	65	4330
2026-01-27 02:38:03.80	255.88	14.06	-46.0	-47.5	19.4	0.00e+00	0	43	0	1195376640	63	4307
2026-01-27 02:38:07.83	255.54	13.68	-45.9	-47.4	19.5	0.00e+00	0	43	0	1202716672	63	4251
2026-01-27 02:38:11.86	255.21	13.31	-46.3	-47.8	19.1	0.00e+00	0	43	0	1210056704	63	4442
2026-01-27 02:38:15.89	254.88	12.95	-46.5	-48.1	18.7	0.00e+00	0	43	0	1218445312	63	4625
2026-01-27 02:38:19.93	254.56	12.59	-46.6	-48.1	18.6	0.00e+00	0	43	0	1225785344	64	4383
2026-01-27 02:38:23.96	254.25	12.24	-46.6	-48.2	18.6	0.00e+00	0	43	0	1233125376	64	4412
2026-01-27 02:38:27.98	253.95	11.89	-46.9	-48.6	18.2	0.00e+00	0	43	0	1240465408	64	4636
2026-01-27 02:38:32.01	253.65	11.54	-47.1	-48.9	17.9	0.00e+00	0	43	0	1247805440	64	4783
2026-01-27 02:38:36.05	253.36	11.19	-47.0	-48.8	17.9	0.00e+00	0	43	0	1256194048	64	4742
2026-01-27 02:38:40.09	253.08	10.86	-47.3	-49.1	17.6	0.00e+00	0	43	0	1263534080	65	4622
2026-01-27 02:38:44.12	252.81	10.52	-47.6	-49.5	17.1	0.00e+00	0	43	0	1270874112	65	4866
2026-01-27 02:38:48.14	252.54	10.19	-48.2	-50.4	16.2	0.00e+00	0	43	0	1278214144	67	4806
2026-01-27 02:38:52.17	252.28	9.86	-48.6	-51.1	15.6	0.00e+00	0	43	0	1285554176	67	5176
2026-01-27 02:38:56.20	252.02	9.54	-48.2	-50.4	16.3	0.00e+00	0	43	0	1293942784	67	4807
2026-01-27 02:39:00.23	251.77	9.22	-47.7	-49.7	17.0	0.00e+00	0	43	0	1301282816	67	4413
2026-01-27 02:39:04.25	251.53	8.90	-47.2	-49.1	17.5	0.00e+00	0	43	0	1308622848	66	4344
2026-01-27 02:39:08.28	251.29	8.59	-46.9	-48.6	17.9	0.00e+00	0	43	0	1315962880	65	4380
2026-01-27 02:39:12.31	251.06	8.28	-47.0	-48.8	17.7	0.00e+00	0	43	0	1323302912	65	4471
2026-01-27 02:39:16.34	250.83	7.98	-47.2	-49.1	17.4	0.00e+00	0	43	0	1331691520	65	4640
2026-01-27 02:39:20.36	250.60	7.67	-47.6	-49.7	16.8	0.00e+00	0	43	0	1339031552	65	4962
2026-01-27 02:39:24.39	250.39	7.37	-47.8	-50.0	16.5	0.00e+00	0	43	0	1346371584	66	4829
2026-01-27 02:39:28.42	250.17	7.08	-48.2	-50.6	15.9	0.00e+00	0	43	0	1353711616	67	4916
2026-01-27 02:39:32.45	249.96	6.78	-48.3	-50.8	15.7	0.00e+00	0	43	0	1361051648	67	4997
2026-01-27 02:39:36.48	249.76	6.49	-48.3	-50.8	15.6	0.00e+00	0	43	0	1369440256	67	5009
2026-01-27 02:39:40.50	249.56	6.20	-48.6	-51.3	15.1	0.00e+00	0	43	0	1376780288	67	5340
2026-01-27 02:39:44.53	249.36	5.92	-48.9	-51.8	14.6	7.00e-07	0	43	0	1384120320	68	5321
2026-01-27 02:39:48.56	249.17	5.64	-49.1	-52.2	14.2	7.00e-07	0	43	0	1391460352	69	5252
2026-01-27 02:39:52.59	248.98	5.36	-49.3	-52.6	13.8	5.30e-06	0	43	0	1398800384	69	5469
2026-01-27 02:39:56.61	248.79	5.08	-49.1	-52.3	13.9	7.00e-07	0	43	0	1407188992	69	5337
2026-01-27 02:40:00.65	248.61	4.81	-53.1	-68.0	3.8	1.49e+00	0	43	104	1409286144	76	21755
2026-01-27 02:40:04.67	248.44	4.53	-53.3	-68.2	3.8	1.49e+00	0	43	104	1409286144	77	20914
2026-01-27 02:40:08.71	248.26	4.26	-53.0	-68.0	3.8	1.49e+00	0	43	104	1409286144	77	20304
2026-01-27 02:40:12.73	248.09	4.00	-53.2	-68.2	3.8	1.49e+00	0	43	104	1409286144	77	20886
2026-01-27 02:40:16.76	247.92	3.73	-53.4	-68.4	3.8	1.49e+00	0	43	104	1409286144	77	21341
2026-01-27 02:40:20.79	247.76	3.47	-53.5	-68.4	3.8	1.49e+00	0	43	104	1409286144	77	21428
2026-01-27 02:40:24.81	247.60	3.21	-53.4	-68.4	3.8	1.49e+00	0	43	104	1409286144	77	21333
2026-01-27 02:40:28.85	247.44	2.95	-53.4	-68.4	3.8	1.49e+00	0	43	104	1409286144	77	21320
2026-01-27 02:40:32.88	247.29	2.70	-53.4	-68.4	3.8	1.49e+00	0	43	104	1409286144	77	21275
2026-01-27 02:40:36.90	247.13	2.44	-53.4	-68.4	3.8	1.49e+00	0	43	104	1409286144	77	21272
2026-01-27 02:40:40.94	246.98	2.19	-53.4	-68.3	3.8	1.49e+00	0	43	104	1409286144	77	21236

#Closed at: 2026-01-27 02:40:44
#Recorded file [1409 MB]: D:/lorett/data/31041_260127_052654.dat