passes_logs/2026/01/27/R3.2S_Murmansk/R3.2S_Murmansk__20260127_150536_FENGYUN_3D_rec.log

#Pass ID: 20260127_150536_FENGYUN 3D
#Satellite: FENGYUN 3D
#Configuration: FENGYUN 3D
#almurnet v.1.7.20251203
#Start time: 2026-01-27 15:05:36

#Version: 2.2.20231116
#Station: R3.2S_Murmansk
#Location: 33.079688 lon 68.888172 lat
#TLE: 1 43010U 17072A   26027.26653803  .00000472  00000+0  24513-3 0  9995
#TLE: 2 43010  98.9961 359.2743 0002530  88.0161 272.1305 14.19701760424993

#Time	Az	El	Level	Level2	SNR	BER	BlckErr	Temp	State	Recorded	gain1	gain2
2026-01-27 15:05:36.94	243.62	2.03	-54.0	-66.0	3.8	8.47e-01	0	41	0	0	79	14434
2026-01-27 15:05:39.95	243.93	2.16	-54.3	-66.2	3.8	8.46e-01	0	41	104	0	79	14831
2026-01-27 15:05:42.97	244.23	2.29	-54.3	-66.3	3.8	8.47e-01	0	41	104	0	79	14937
2026-01-27 15:05:46.00	244.54	2.42	-54.3	-66.2	3.8	8.47e-01	0	41	104	0	79	14853
2026-01-27 15:05:49.02	244.86	2.56	-54.2	-66.1	3.8	8.46e-01	0	41	104	0	79	14704
2026-01-27 15:05:52.04	245.17	2.69	-54.0	-65.9	3.8	8.46e-01	0	41	104	0	79	14315
2026-01-27 15:05:55.07	245.49	2.82	-53.6	-65.6	3.8	8.46e-01	0	41	104	0	79	13773
2026-01-27 15:05:58.10	245.81	2.95	-53.2	-65.2	3.8	8.47e-01	0	41	104	0	78	13946
2026-01-27 15:06:01.13	246.14	3.09	-52.6	-64.5	3.8	8.45e-01	0	42	104	0	77	13630
2026-01-27 15:06:04.15	246.46	3.22	-52.5	-64.5	3.8	8.47e-01	0	42	104	0	77	13582
2026-01-27 15:06:07.17	246.79	3.35	-52.5	-64.4	3.8	8.47e-01	0	42	104	0	77	13551
2026-01-27 15:06:10.20	247.12	3.48	-52.5	-64.4	3.8	8.46e-01	0	42	104	0	77	13557
2026-01-27 15:06:13.22	247.46	3.61	-52.5	-64.4	3.8	8.46e-01	0	42	104	0	77	13542
2026-01-27 15:06:16.24	247.79	3.75	-52.5	-64.4	3.8	8.45e-01	0	42	104	0	77	13415
2026-01-27 15:06:19.26	248.13	3.88	-52.5	-64.4	3.8	8.46e-01	0	42	104	0	77	13534
2026-01-27 15:06:22.29	248.48	4.01	-52.5	-64.4	3.8	8.45e-01	0	42	104	0	77	13488
2026-01-27 15:06:25.31	248.82	4.14	-52.5	-64.3	3.8	8.47e-01	0	42	104	0	76	14050
2026-01-27 15:06:28.33	249.17	4.27	-52.5	-64.3	3.8	8.45e-01	0	42	104	0	76	14064
2026-01-27 15:06:31.36	249.53	4.40	-52.5	-64.2	3.8	8.47e-01	0	42	104	0	76	13891
2026-01-27 15:06:34.37	249.88	4.53	-52.4	-64.2	3.8	8.46e-01	0	42	104	0	76	14004
2026-01-27 15:06:37.40	250.24	4.66	-52.1	-61.2	4.1	8.41e-01	0	42	104	0	76	9925
2026-01-27 15:06:40.41	250.60	4.79	-51.9	-60.0	4.4	8.33e-01	0	42	0	0	75	9080
2026-01-27 15:06:43.44	250.96	4.92	-48.0	-50.3	13.1	3.64e-04	0	42	0	11534336	68	4457
2026-01-27 15:06:46.46	251.33	5.05	-44.6	-45.9	17.6	0.00e+00	0	42	0	29360128	60	4248
2026-01-27 15:06:49.48	251.70	5.18	-47.5	-49.5	13.9	1.37e-05	0	42	0	46137344	66	4575
2026-01-27 15:06:52.51	252.08	5.31	-43.5	-44.6	19.1	0.00e+00	0	42	0	62914560	58	4122
2026-01-27 15:06:55.53	252.45	5.44	-43.4	-44.5	19.2	0.00e+00	0	42	0	79691776	58	4053
2026-01-27 15:06:58.55	252.83	5.56	-43.7	-44.8	18.9	0.00e+00	0	42	0	97517568	58	4240
2026-01-27 15:07:01.57	253.22	5.69	-43.4	-44.4	19.4	0.00e+00	0	42	0	114294784	58	4041
2026-01-27 15:07:04.59	253.60	5.82	-43.2	-44.2	19.6	0.00e+00	0	42	0	131072000	58	3943
2026-01-27 15:07:07.62	253.99	5.94	-43.1	-44.2	19.6	0.00e+00	0	42	0	147849216	57	4159
2026-01-27 15:07:10.65	254.39	6.07	-43.5	-44.5	19.2	0.00e+00	0	42	0	165675008	57	4339
2026-01-27 15:07:13.67	254.78	6.20	-43.4	-44.5	19.3	0.00e+00	0	42	0	182452224	57	4307
2026-01-27 15:07:16.68	255.18	6.32	-43.4	-44.5	19.3	0.00e+00	0	42	0	199229440	57	4328
2026-01-27 15:07:19.71	255.58	6.44	-43.1	-44.1	19.7	0.00e+00	0	42	0	216006656	57	4133
2026-01-27 15:07:22.73	255.99	6.57	-43.1	-44.1	19.7	0.00e+00	0	43	0	232783872	57	4138
2026-01-27 15:07:25.75	256.40	6.69	-42.9	-43.9	20.0	0.00e+00	0	42	0	250609664	57	4006
2026-01-27 15:07:28.77	256.81	6.81	-42.7	-43.7	20.1	0.00e+00	0	42	0	267386880	57	3947
2026-01-27 15:07:31.80	257.23	6.94	-42.8	-43.8	20.1	0.00e+00	0	42	0	284164096	57	3987
2026-01-27 15:07:34.82	257.65	7.06	-42.6	-43.6	20.3	0.00e+00	0	42	0	300941312	57	3883
2026-01-27 15:07:37.84	258.07	7.18	-42.7	-43.7	20.2	0.00e+00	0	42	0	317718528	56	4178
2026-01-27 15:07:40.86	258.50	7.30	-42.5	-43.5	20.4	0.00e+00	0	43	0	335544320	56	4074
2026-01-27 15:07:43.88	258.93	7.41	-42.6	-43.5	20.4	0.00e+00	0	42	0	352321536	56	4093
2026-01-27 15:07:46.90	259.36	7.53	-42.6	-43.5	20.3	0.00e+00	0	43	0	369098752	56	4097
2026-01-27 15:07:49.92	259.79	7.65	-42.4	-43.4	20.5	0.00e+00	0	43	0	385875968	56	4029
2026-01-27 15:07:52.94	260.23	7.77	-42.4	-43.4	20.5	0.00e+00	0	43	0	402653184	56	4020
2026-01-27 15:07:55.96	260.68	7.88	-42.5	-43.5	20.5	0.00e+00	0	43	0	420478976	56	4061
2026-01-27 15:07:58.99	261.12	8.00	-42.2	-43.2	20.8	0.00e+00	0	43	0	437256192	56	3915
2026-01-27 15:08:02.00	261.57	8.11	-42.4	-43.4	20.6	0.00e+00	0	43	0	454033408	56	4005
2026-01-27 15:08:05.02	262.02	8.22	-42.4	-43.3	20.6	0.00e+00	0	42	0	470810624	56	3980
2026-01-27 15:08:08.03	262.48	8.33	-42.2	-43.2	20.8	0.00e+00	0	43	0	487587840	56	3920
2026-01-27 15:08:11.06	262.94	8.44	-42.2	-43.1	20.8	0.00e+00	0	43	0	505413632	56	3905
2026-01-27 15:08:14.08	263.40	8.55	-42.2	-43.1	20.8	0.00e+00	0	43	0	522190848	56	3893
2026-01-27 15:08:17.10	263.87	8.66	-42.3	-43.2	20.7	0.00e+00	0	43	0	538968064	56	3941
2026-01-27 15:08:20.13	264.34	8.77	-42.2	-43.1	20.8	0.00e+00	0	43	0	555745280	55	4133
2026-01-27 15:08:23.15	264.81	8.87	-42.2	-43.2	20.8	0.00e+00	0	43	0	573571072	55	4152
2026-01-27 15:08:26.18	265.29	8.98	-42.2	-43.2	20.8	0.00e+00	0	42	0	590348288	55	4151
2026-01-27 15:08:29.20	265.77	9.08	-42.0	-43.0	21.0	0.00e+00	0	42	0	607125504	55	4053
2026-01-27 15:08:32.22	266.25	9.18	-41.9	-42.8	21.0	0.00e+00	0	43	0	623902720	55	3989
2026-01-27 15:08:35.25	266.74	9.28	-43.0	-44.1	19.8	0.00e+00	0	42	0	641728512	56	4353
2026-01-27 15:08:38.27	267.23	9.38	-44.4	-45.7	17.5	0.00e+00	0	43	0	658505728	60	4164
2026-01-27 15:08:41.30	267.72	9.48	-44.5	-45.8	17.1	0.00e+00	0	43	0	675282944	60	4236
2026-01-27 15:08:44.32	268.22	9.57	-45.6	-47.2	15.6	0.00e+00	0	43	0	692060160	61	4671
2026-01-27 15:08:47.35	268.72	9.67	-45.6	-47.1	15.8	0.00e+00	0	43	0	709885952	62	4381
2026-01-27 15:08:50.37	269.22	9.76	-44.7	-46.1	17.0	0.00e+00	0	43	0	726663168	61	4101
2026-01-27 15:08:53.39	269.72	9.85	-44.1	-45.3	17.7	0.00e+00	0	43	0	743440384	60	3979
2026-01-27 15:08:56.42	270.23	9.94	-43.3	-44.4	19.4	0.00e+00	0	43	0	760217600	58	4019
2026-01-27 15:08:59.44	270.74	10.03	-42.5	-43.4	20.6	0.00e+00	0	43	0	776994816	56	4029
2026-01-27 15:09:02.46	271.26	10.12	-42.2	-43.1	21.0	0.00e+00	0	43	0	794820608	56	3889
2026-01-27 15:09:05.49	271.77	10.20	-41.8	-42.7	21.3	0.00e+00	0	43	0	811597824	55	3938
2026-01-27 15:09:08.51	272.29	10.29	-41.9	-42.8	21.2	0.00e+00	0	43	0	828375040	55	3971
2026-01-27 15:09:11.52	272.81	10.37	-41.8	-42.7	21.3	0.00e+00	0	43	0	845152256	55	3957
2026-01-27 15:09:14.55	273.34	10.45	-41.7	-42.6	21.4	0.00e+00	0	43	0	862978048	55	3872
2026-01-27 15:09:17.58	273.87	10.52	-41.9	-42.8	21.2	0.00e+00	0	43	0	879755264	55	3979
2026-01-27 15:09:20.61	274.40	10.60	-41.9	-42.8	21.2	0.00e+00	0	43	0	896532480	55	3972
2026-01-27 15:09:23.63	274.94	10.67	-41.8	-42.7	21.4	0.00e+00	0	43	0	913309696	55	3917
2026-01-27 15:09:26.65	275.47	10.74	-41.9	-42.8	21.2	0.00e+00	0	43	0	930086912	55	3992
2026-01-27 15:09:29.68	276.01	10.81	-42.1	-43.0	21.1	0.00e+00	0	43	0	947912704	55	4061
2026-01-27 15:09:32.70	276.55	10.88	-41.9	-42.8	21.3	0.00e+00	0	43	0	964689920	55	3959
2026-01-27 15:09:35.72	277.09	10.95	-41.7	-42.6	21.4	0.00e+00	0	43	0	981467136	55	3907
2026-01-27 15:09:38.75	277.64	11.01	-41.6	-42.5	21.6	0.00e+00	0	43	0	998244352	55	3838
2026-01-27 15:09:41.77	278.19	11.07	-41.5	-42.3	21.7	0.00e+00	0	43	0	1015021568	54	3997
2026-01-27 15:09:44.79	278.74	11.13	-41.8	-42.6	21.4	0.00e+00	0	43	0	1031798784	54	4132
2026-01-27 15:09:47.81	279.29	11.19	-41.5	-42.3	21.7	0.00e+00	0	43	0	1049624576	54	3996
2026-01-27 15:09:50.83	279.84	11.24	-41.3	-42.2	21.9	0.00e+00	0	43	0	1066401792	54	3915
2026-01-27 15:09:53.85	280.40	11.29	-41.2	-42.0	22.0	0.00e+00	0	43	0	1083179008	54	3853
2026-01-27 15:09:56.87	280.95	11.34	-41.3	-42.1	22.0	0.00e+00	0	43	0	1099956224	54	3885
2026-01-27 15:09:59.89	281.51	11.39	-41.6	-42.5	21.6	0.00e+00	0	43	0	1117782016	54	4061
2026-01-27 15:10:02.91	282.07	11.44	-41.6	-42.5	21.6	0.00e+00	0	43	0	1134559232	54	4075
2026-01-27 15:10:05.93	282.64	11.48	-41.6	-42.4	21.7	0.00e+00	0	43	0	1151336448	54	4043
2026-01-27 15:10:08.96	283.20	11.52	-41.7	-42.6	21.6	0.00e+00	0	43	0	1168113664	54	4121
2026-01-27 15:10:11.98	283.77	11.56	-41.7	-42.6	21.6	0.00e+00	0	43	0	1184890880	54	4110
2026-01-27 15:10:15.01	284.34	11.60	-41.8	-42.7	21.6	0.00e+00	0	43	0	1202716672	54	4152
2026-01-27 15:10:18.03	284.90	11.63	-41.9	-42.8	21.4	0.00e+00	0	43	0	1219493888	54	4236
2026-01-27 15:10:21.05	285.47	11.66	-41.9	-42.8	21.4	0.00e+00	0	43	0	1236271104	54	4234
2026-01-27 15:10:24.07	286.04	11.69	-41.8	-42.7	21.6	0.00e+00	0	43	0	1253048320	54	4152
2026-01-27 15:10:27.11	286.62	11.71	-41.9	-42.7	21.5	0.00e+00	0	43	0	1269825536	54	4190
2026-01-27 15:10:30.13	287.19	11.74	-41.9	-42.7	21.5	0.00e+00	0	43	0	1287651328	54	4192
2026-01-27 15:10:33.15	287.76	11.76	-41.7	-42.6	21.7	0.00e+00	0	43	0	1304428544	54	4113
2026-01-27 15:10:36.17	288.34	11.78	-41.6	-42.5	21.8	0.00e+00	0	43	0	1321205760	54	4070
2026-01-27 15:10:39.19	288.91	11.79	-41.8	-42.7	21.7	0.00e+00	0	43	0	1337982976	54	4157
2026-01-27 15:10:42.22	289.49	11.80	-42.0	-42.8	21.5	0.00e+00	0	43	0	1354760192	54	4233
2026-01-27 15:10:45.24	290.06	11.81	-42.0	-42.8	21.5	0.00e+00	0	43	0	1372585984	54	4235
2026-01-27 15:10:48.26	290.64	11.82	-41.9	-42.7	21.7	0.00e+00	0	43	0	1389363200	54	4178
2026-01-27 15:10:51.29	291.21	11.83	-41.8	-42.6	21.8	0.00e+00	0	43	0	1406140416	54	4126
2026-01-27 15:10:54.31	291.79	11.83	-41.8	-42.7	21.7	0.00e+00	0	43	0	1422917632	54	4174
2026-01-27 15:10:57.34	292.37	11.83	-41.7	-42.6	21.8	0.00e+00	0	43	0	1439694848	54	4127
2026-01-27 15:11:00.35	292.94	11.83	-41.8	-42.6	21.8	0.00e+00	0	43	0	1457520640	54	4137
2026-01-27 15:11:03.38	293.52	11.82	-41.7	-42.6	21.8	0.00e+00	0	43	0	1474297856	54	4109
2026-01-27 15:11:06.40	294.09	11.82	-42.0	-42.9	21.5	0.00e+00	0	43	0	1491075072	54	4245
2026-01-27 15:11:09.42	294.67	11.81	-41.7	-42.6	21.7	0.00e+00	0	43	0	1507852288	54	4121
2026-01-27 15:11:12.44	295.24	11.79	-41.7	-42.6	21.8	0.00e+00	0	43	0	1524629504	54	4109
2026-01-27 15:11:15.46	295.82	11.78	-41.6	-42.5	21.8	0.00e+00	0	43	0	1542455296	54	4067
2026-01-27 15:11:18.49	296.39	11.76	-41.7	-42.6	21.7	0.00e+00	0	43	0	1559232512	54	4100
2026-01-27 15:11:21.50	296.96	11.74	-41.8	-42.6	21.7	0.00e+00	0	43	0	1576009728	54	4138
2026-01-27 15:11:24.53	297.54	11.72	-41.8	-42.6	21.6	0.00e+00	0	43	0	1592786944	54	4128
2026-01-27 15:11:27.55	298.11	11.69	-41.8	-42.6	21.6	0.00e+00	0	43	0	1610612736	54	4145
2026-01-27 15:11:30.58	298.68	11.66	-41.9	-42.8	21.4	0.00e+00	0	43	0	1627389952	54	4227
2026-01-27 15:11:33.60	299.25	11.63	-41.8	-42.7	21.5	0.00e+00	0	43	0	1644167168	54	4168
2026-01-27 15:11:36.62	299.82	11.60	-41.8	-42.7	21.5	0.00e+00	0	43	0	1660944384	54	4156
2026-01-27 15:11:39.64	300.38	11.56	-41.7	-42.6	21.6	0.00e+00	0	43	0	1677721600	54	4115
2026-01-27 15:11:42.65	300.95	11.53	-41.6	-42.4	21.7	0.00e+00	0	43	0	1695547392	54	4048
2026-01-27 15:11:45.68	301.51	11.49	-41.5	-42.4	21.8	0.00e+00	0	43	0	1712324608	54	4011
2026-01-27 15:11:48.70	302.07	11.44	-41.5	-42.4	21.7	0.00e+00	0	43	0	1729101824	54	4028
2026-01-27 15:11:51.72	302.63	11.40	-41.7	-42.6	21.5	0.00e+00	0	43	0	1745879040	54	4140
2026-01-27 15:11:54.74	303.19	11.35	-41.7	-42.5	21.6	0.00e+00	0	43	0	1762656256	54	4092
2026-01-27 15:11:57.77	303.75	11.30	-41.4	-42.3	21.9	0.00e+00	0	43	0	1780482048	54	3977
2026-01-27 15:12:00.79	304.30	11.25	-41.5	-42.4	21.7	0.00e+00	0	43	0	1797259264	54	4008
2026-01-27 15:12:03.81	304.86	11.20	-41.7	-42.5	21.5	0.00e+00	0	43	0	1814036480	54	4093
2026-01-27 15:12:06.83	305.41	11.14	-41.7	-42.6	21.5	0.00e+00	0	43	0	1830813696	54	4124
2026-01-27 15:12:09.85	305.95	11.08	-41.7	-42.6	21.5	0.00e+00	0	43	0	1848639488	54	4122
2026-01-27 15:12:12.87	306.50	11.02	-41.7	-42.6	21.4	0.00e+00	0	43	0	1865416704	54	4119
2026-01-27 15:12:15.89	307.04	10.96	-41.9	-42.7	21.3	0.00e+00	0	43	0	1882193920	54	4192
2026-01-27 15:12:18.91	307.59	10.89	-41.6	-42.5	21.5	0.00e+00	0	43	0	1898971136	54	4088
2026-01-27 15:12:21.93	308.13	10.83	-41.6	-42.4	21.6	0.00e+00	0	43	0	1915748352	54	4044
2026-01-27 15:12:24.96	308.66	10.76	-41.6	-42.5	21.5	0.00e+00	0	43	0	1933574144	54	4087
2026-01-27 15:12:27.98	309.20	10.69	-41.7	-42.6	21.4	0.00e+00	0	43	0	1950351360	54	4128
2026-01-27 15:12:31.00	309.73	10.61	-41.8	-42.7	21.3	0.00e+00	0	43	0	1967128576	54	4174
2026-01-27 15:12:34.02	310.26	10.54	-41.7	-42.6	21.4	0.00e+00	0	43	0	1983905792	54	4120
2026-01-27 15:12:37.04	310.79	10.46	-41.7	-42.6	21.4	0.00e+00	0	43	0	2000683008	54	4131
2026-01-27 15:12:40.06	311.31	10.38	-41.8	-42.7	21.3	0.00e+00	0	43	0	2018508800	54	4174
2026-01-27 15:12:43.09	311.83	10.30	-41.9	-42.8	21.2	0.00e+00	0	43	0	2035286016	54	4208
2026-01-27 15:12:46.11	312.35	10.22	-42.1	-43.0	21.0	0.00e+00	0	43	0	2052063232	54	4314
2026-01-27 15:12:49.13	312.87	10.14	-42.0	-43.0	21.0	0.00e+00	0	43	0	2068840448	54	4297
2026-01-27 15:12:52.15	313.38	10.05	-42.0	-43.0	21.0	0.00e+00	0	43	0	2086666240	54	4293
2026-01-27 15:12:55.18	313.89	9.96	-42.0	-42.9	21.0	0.00e+00	0	43	0	2103443456	54	4284
2026-01-27 15:12:58.20	314.40	9.87	-41.8	-42.7	21.2	0.00e+00	0	43	0	2120220672	54	4169
2026-01-27 15:13:01.22	314.90	9.78	-41.8	-42.7	21.1	0.00e+00	0	43	0	2136997888	54	4185
2026-01-27 15:13:04.25	315.40	9.69	-41.8	-42.8	21.1	0.00e+00	0	43	0	2154823680	54	4196
2026-01-27 15:13:07.26	315.90	9.60	-42.0	-42.9	20.9	0.00e+00	0	43	0	2171600896	54	4284
2026-01-27 15:13:10.29	316.39	9.50	-42.0	-42.9	21.0	0.00e+00	0	43	0	2188378112	54	4254
2026-01-27 15:13:13.31	316.89	9.40	-42.1	-43.1	20.8	0.00e+00	0	43	0	2205155328	54	4350
2026-01-27 15:13:16.33	317.37	9.31	-42.2	-43.2	20.7	0.00e+00	0	43	0	2221932544	55	4164
2026-01-27 15:13:19.34	317.86	9.21	-42.2	-43.2	20.7	0.00e+00	0	43	0	2238709760	55	4152
2026-01-27 15:13:22.36	318.34	9.11	-42.0	-42.9	21.0	0.00e+00	0	43	0	2256535552	55	4018
2026-01-27 15:13:25.38	318.82	9.00	-42.0	-43.0	20.9	0.00e+00	0	43	0	2273312768	55	4052
2026-01-27 15:13:28.40	319.29	8.90	-42.3	-43.2	20.6	0.00e+00	0	43	0	2290089984	55	4187
2026-01-27 15:13:31.42	319.76	8.80	-42.5	-43.5	20.3	0.00e+00	0	43	0	2306867200	55	4307
2026-01-27 15:13:34.45	320.23	8.69	-42.3	-43.2	20.6	0.00e+00	0	43	0	2324692992	55	4167
2026-01-27 15:13:37.47	320.70	8.58	-42.3	-43.2	20.6	0.00e+00	0	43	0	2341470208	55	4181
2026-01-27 15:13:40.49	321.16	8.47	-42.1	-43.1	20.7	0.00e+00	0	43	0	2358247424	55	4113
2026-01-27 15:13:43.51	321.62	8.37	-42.3	-43.2	20.6	0.00e+00	0	43	0	2375024640	55	4175
2026-01-27 15:13:46.53	322.07	8.26	-42.4	-43.3	20.4	0.00e+00	0	43	0	2391801856	55	4223
2026-01-27 15:13:49.55	322.53	8.14	-42.3	-43.3	20.5	0.00e+00	0	43	0	2409627648	55	4216
2026-01-27 15:13:52.57	322.97	8.03	-42.3	-43.2	20.5	0.00e+00	0	43	0	2426404864	55	4190
2026-01-27 15:13:55.59	323.42	7.92	-42.2	-43.1	20.6	0.00e+00	0	43	0	2443182080	55	4115
2026-01-27 15:13:58.61	323.86	7.80	-42.2	-43.1	20.6	0.00e+00	0	43	0	2459959296	55	4127
2026-01-27 15:14:01.64	324.30	7.69	-42.6	-43.6	20.1	0.00e+00	0	43	0	2476736512	55	4360
2026-01-27 15:14:04.65	324.73	7.57	-42.9	-43.9	19.9	0.00e+00	0	43	0	2494562304	56	4276
2026-01-27 15:14:07.67	325.17	7.46	-42.9	-43.9	19.9	0.00e+00	0	43	0	2511339520	56	4258
2026-01-27 15:14:10.70	325.60	7.34	-43.0	-44.0	19.8	0.00e+00	0	43	0	2528116736	56	4297
2026-01-27 15:14:13.71	326.02	7.22	-42.9	-43.9	19.9	0.00e+00	0	43	0	2544893952	56	4250
2026-01-27 15:14:16.73	326.44	7.10	-42.7	-43.7	20.0	0.00e+00	0	43	0	2561671168	56	4183
2026-01-27 15:14:19.75	326.86	6.98	-42.9	-44.0	19.7	0.00e+00	0	43	0	2579496960	56	4299
2026-01-27 15:14:22.77	327.27	6.86	-43.0	-44.0	19.7	0.00e+00	0	43	0	2596274176	56	4324
2026-01-27 15:14:25.79	327.69	6.74	-43.0	-44.0	19.7	0.00e+00	0	43	0	2613051392	56	4331
2026-01-27 15:14:28.81	328.09	6.62	-42.6	-43.6	20.0	0.00e+00	0	43	0	2629828608	56	4136
2026-01-27 15:14:31.83	328.50	6.49	-42.6	-43.6	20.1	0.00e+00	0	43	0	2646605824	56	4099
2026-01-27 15:14:34.85	328.90	6.37	-42.8	-43.8	19.8	0.00e+00	0	43	0	2664431616	56	4217
2026-01-27 15:14:37.87	329.30	6.25	-42.9	-44.0	19.6	0.00e+00	0	43	0	2681208832	56	4308
2026-01-27 15:14:40.89	329.70	6.12	-43.2	-44.3	19.3	0.00e+00	0	43	0	2697986048	56	4465
2026-01-27 15:14:43.91	330.09	6.00	-43.5	-44.6	19.0	0.00e+00	0	43	0	2714763264	57	4350
2026-01-27 15:14:46.93	330.48	5.87	-43.4	-44.5	19.1	0.00e+00	0	43	0	2731540480	57	4310
2026-01-27 15:14:49.95	330.86	5.75	-43.1	-44.1	19.4	0.00e+00	0	43	0	2749366272	57	4131
2026-01-27 15:14:52.97	331.25	5.62	-43.4	-44.5	19.0	0.00e+00	0	43	0	2766143488	57	4322
2026-01-27 15:14:56.00	331.63	5.50	-43.2	-44.3	19.2	0.00e+00	0	43	0	2782920704	57	4202
2026-01-27 15:14:59.01	332.00	5.37	-43.6	-44.8	18.7	0.00e+00	0	43	0	2799697920	58	4209
2026-01-27 15:15:02.03	332.37	5.24	-43.7	-44.8	18.7	0.00e+00	0	43	0	2816475136	58	4215
2026-01-27 15:15:05.05	332.74	5.11	-43.7	-44.8	18.6	0.00e+00	0	43	0	2834300928	58	4238
2026-01-27 15:15:08.07	333.11	4.99	-52.3	-63.7	3.8	5.51e-01	0	43	104	2848980992	75	13907
2026-01-27 15:15:11.09	333.48	4.86	-53.1	-65.0	3.8	8.45e-01	0	43	104	2848980992	76	15391
2026-01-27 15:15:14.12	333.84	4.73	-53.4	-65.3	3.8	8.47e-01	0	43	104	2848980992	77	14924
2026-01-27 15:15:17.15	334.20	4.60	-53.3	-65.2	3.8	8.45e-01	0	43	104	2848980992	77	14805
2026-01-27 15:15:20.17	334.55	4.47	-53.1	-65.0	3.8	8.47e-01	0	43	104	2848980992	77	14506
2026-01-27 15:15:23.20	334.90	4.34	-53.3	-65.2	3.8	8.46e-01	0	43	104	2848980992	77	14848
2026-01-27 15:15:26.22	335.25	4.21	-53.4	-65.3	3.8	8.45e-01	0	43	104	2848980992	77	14994
2026-01-27 15:15:29.24	335.60	4.08	-53.5	-65.4	3.8	8.47e-01	0	43	104	2848980992	77	15198
2026-01-27 15:15:32.26	335.94	3.95	-53.4	-65.3	3.8	8.46e-01	0	43	104	2848980992	77	15046
2026-01-27 15:15:35.29	336.28	3.82	-53.4	-65.3	3.8	8.46e-01	0	43	104	2848980992	77	15039
2026-01-27 15:15:38.31	336.62	3.69	-53.4	-65.3	3.8	8.47e-01	0	43	104	2848980992	77	14971
2026-01-27 15:15:41.34	336.96	3.56	-53.3	-65.3	3.8	8.46e-01	0	43	104	2848980992	77	14904
2026-01-27 15:15:44.36	337.29	3.43	-53.3	-65.3	3.8	8.45e-01	0	43	104	2848980992	77	14916
2026-01-27 15:15:47.39	337.62	3.30	-53.3	-65.2	3.8	8.46e-01	0	43	104	2848980992	77	14855
2026-01-27 15:15:50.42	337.94	3.17	-53.3	-65.2	3.8	8.47e-01	0	43	104	2848980992	77	14873
2026-01-27 15:15:53.44	338.27	3.03	-53.3	-65.2	3.8	8.45e-01	0	43	104	2848980992	77	14864
2026-01-27 15:15:56.46	338.59	2.90	-53.3	-65.2	3.8	8.46e-01	0	43	104	2848980992	77	14830
2026-01-27 15:15:59.48	338.91	2.77	-53.3	-65.2	3.8	8.47e-01	0	43	104	2848980992	77	14803
2026-01-27 15:16:02.50	339.22	2.64	-53.3	-65.2	3.8	8.46e-01	0	43	104	2848980992	77	14833
2026-01-27 15:16:05.53	339.53	2.51	-53.3	-65.2	3.8	8.47e-01	0	43	104	2848980992	77	14793
2026-01-27 15:16:08.54	339.84	2.38	-53.3	-65.2	3.8	8.46e-01	0	43	104	2848980992	77	14742
2026-01-27 15:16:11.56	340.15	2.25	-53.3	-65.2	3.8	8.46e-01	0	43	104	2848980992	77	14779
2026-01-27 15:16:14.58	340.45	2.12	-53.3	-65.2	3.8	8.46e-01	0	43	104	2848980992	77	14774

#Closed at: 2026-01-27 15:16:17
#Recorded file [2848 MB]: D:/lorett/data/31041_260127_180536.dat