passes_logs/2026/01/27/R3.2S_Murmansk/R3.2S_Murmansk__20260127_064519_JL1KF02B07_rec.log

#Pass ID: 20260127_064519_JL1KF02B07
#Satellite: JL1KF02B07
#Configuration: 01B_900M
#almurnet v.1.7.20251203
#Start time: 2026-01-27 06:45:21

#Version: 2.2.20231116
#Station: R3.2S_Murmansk
#Location: 33.079688 lon 68.888172 lat
#TLE: 1 65939U 25226B   26026.53453942  .00007013  00000+0  44310-3 0  9995
#TLE: 2 65939  97.6523 105.5181 0017771 259.0988 100.8240 15.09238372 16205

#Time	Az	El	Level	Level2	SNR	BER	BlckErr	Temp	State	Recorded	gain1	gain2
2026-01-27 06:45:21.81	26.59	2.10	-55.0	-57.1	6.2	0.00e+00	0	44	0	0	81	18423
2026-01-27 06:45:23.81	26.86	2.19	-55.2	-57.3	6.2	0.00e+00	0	43	104	0	81	18968
2026-01-27 06:45:25.82	27.13	2.28	-55.2	-57.3	6.2	0.00e+00	0	43	104	0	81	18956
2026-01-27 06:45:27.83	27.40	2.37	-55.2	-57.3	6.2	0.00e+00	0	43	104	0	81	19001
2026-01-27 06:45:29.85	27.67	2.46	-55.2	-57.3	6.2	0.00e+00	0	44	104	0	81	18968
2026-01-27 06:45:31.87	27.95	2.55	-55.2	-57.3	6.2	0.00e+00	0	44	104	0	81	18852
2026-01-27 06:45:33.88	28.22	2.64	-55.1	-57.2	6.2	0.00e+00	0	44	104	0	81	18681
2026-01-27 06:45:35.90	28.50	2.73	-55.1	-57.2	6.2	0.00e+00	0	44	104	0	81	18640
2026-01-27 06:45:37.92	28.78	2.82	-54.9	-57.0	6.2	0.00e+00	0	44	104	0	81	18227
2026-01-27 06:45:39.94	29.07	2.91	-54.6	-56.7	6.2	0.00e+00	0	44	104	0	81	17612
2026-01-27 06:45:41.96	29.35	3.00	-54.1	-56.2	6.2	0.00e+00	0	44	104	0	80	17645
2026-01-27 06:45:43.97	29.64	3.08	-53.4	-55.5	6.2	0.00e+00	0	44	104	0	78	18217
2026-01-27 06:45:45.99	29.93	3.17	-53.3	-55.4	6.2	0.00e+00	0	44	104	0	78	18142
2026-01-27 06:45:48.00	30.22	3.26	-53.3	-55.4	6.2	0.00e+00	0	44	104	0	78	18057
2026-01-27 06:45:50.02	30.51	3.35	-53.3	-55.4	6.2	0.00e+00	0	44	104	0	78	17975
2026-01-27 06:45:52.03	30.81	3.44	-53.3	-55.3	6.2	0.00e+00	0	44	104	0	78	17947
2026-01-27 06:45:54.05	31.11	3.53	-53.3	-55.3	6.2	0.00e+00	0	44	104	0	78	17954
2026-01-27 06:45:56.06	31.40	3.61	-53.2	-55.3	6.2	0.00e+00	0	44	104	0	78	17922
2026-01-27 06:45:58.08	31.71	3.70	-53.2	-55.3	6.2	0.00e+00	0	44	104	0	78	17937
2026-01-27 06:46:00.09	32.01	3.79	-53.2	-55.3	6.2	0.00e+00	0	44	104	0	78	17891
2026-01-27 06:46:02.10	32.32	3.88	-53.2	-55.3	6.2	0.00e+00	0	44	104	0	78	17869
2026-01-27 06:46:04.12	32.62	3.96	-53.2	-55.3	6.2	0.00e+00	0	44	104	0	78	17842
2026-01-27 06:46:06.13	32.93	4.05	-53.2	-55.3	6.2	0.00e+00	0	45	104	0	78	17809
2026-01-27 06:46:08.15	33.25	4.14	-53.2	-55.3	6.2	0.00e+00	0	45	104	0	78	17872
2026-01-27 06:46:10.17	33.56	4.22	-53.2	-55.3	6.2	0.00e+00	0	44	104	0	78	17824
2026-01-27 06:46:12.19	33.88	4.31	-53.2	-55.3	6.2	0.00e+00	0	45	104	0	78	17767
2026-01-27 06:46:14.21	34.20	4.39	-53.2	-55.3	6.2	0.00e+00	0	45	104	0	78	17863
2026-01-27 06:46:16.23	34.52	4.48	-53.2	-55.2	6.2	0.00e+00	0	45	104	0	78	17729
2026-01-27 06:46:18.24	34.84	4.56	-53.2	-55.3	6.2	0.00e+00	0	45	104	0	78	17780
2026-01-27 06:46:20.25	35.17	4.65	-53.1	-55.3	6.2	0.00e+00	0	45	104	0	78	17805
2026-01-27 06:46:22.26	35.50	4.73	-53.1	-55.2	6.2	0.00e+00	0	45	104	0	78	17724
2026-01-27 06:46:24.28	35.83	4.82	-53.2	-55.3	6.2	0.00e+00	0	45	104	0	78	17791
2026-01-27 06:46:26.29	36.16	4.90	-53.1	-55.2	6.2	0.00e+00	0	45	104	0	78	17707
2026-01-27 06:46:28.31	36.49	4.98	-53.1	-55.2	6.2	0.00e+00	0	45	104	0	78	17715
2026-01-27 06:46:30.32	36.83	5.07	-53.2	-55.3	6.2	0.00e+00	0	45	104	0	78	17824
2026-01-27 06:46:32.33	37.17	5.15	-53.1	-55.2	6.2	0.00e+00	0	45	104	0	78	17717
2026-01-27 06:46:34.34	37.51	5.23	-53.3	-55.4	6.2	0.00e+00	0	45	104	0	78	18021
2026-01-27 06:46:36.35	37.85	5.31	-53.1	-55.2	6.2	0.00e+00	0	45	104	0	78	17585
2026-01-27 06:46:38.36	38.20	5.39	-53.2	-55.3	6.2	0.00e+00	0	45	104	0	78	17903
2026-01-27 06:46:40.37	38.55	5.47	-53.0	-55.1	6.2	0.00e+00	0	45	104	0	78	17538
2026-01-27 06:46:42.39	38.90	5.55	-53.2	-55.3	6.2	0.00e+00	0	45	104	0	77	18829
2026-01-27 06:46:44.40	39.25	5.63	-53.0	-55.1	6.2	0.00e+00	0	45	104	0	77	18488
2026-01-27 06:46:46.41	39.60	5.71	-53.2	-55.2	6.2	0.00e+00	0	45	104	0	77	18796
2026-01-27 06:46:48.43	39.96	5.79	-53.0	-55.1	6.2	0.00e+00	0	45	104	0	77	18481
2026-01-27 06:46:50.45	40.32	5.87	-53.1	-55.2	6.2	0.00e+00	0	45	104	0	77	18763
2026-01-27 06:46:52.45	40.68	5.95	-53.0	-55.1	6.2	0.00e+00	0	45	104	0	77	18426
2026-01-27 06:46:54.46	41.04	6.02	-53.2	-55.2	6.2	0.00e+00	0	45	104	0	77	18727
2026-01-27 06:46:56.48	41.41	6.10	-53.0	-55.1	6.2	0.00e+00	0	45	104	0	77	18450
2026-01-27 06:46:58.50	41.78	6.18	-53.1	-55.2	6.2	0.00e+00	0	45	104	0	77	18798
2026-01-27 06:47:00.51	42.15	6.25	-53.0	-55.1	6.2	0.00e+00	0	45	104	0	77	18438
2026-01-27 06:47:02.52	42.52	6.33	-53.1	-55.2	6.2	0.00e+00	0	45	104	0	77	18696
2026-01-27 06:47:04.53	42.90	6.40	-53.0	-55.1	6.2	0.00e+00	0	45	104	0	77	18415
2026-01-27 06:47:06.55	43.28	6.48	-53.1	-55.2	6.2	0.00e+00	0	45	104	0	77	18674
2026-01-27 06:47:08.57	43.66	6.55	-53.0	-55.1	6.2	0.00e+00	0	45	104	0	77	18420
2026-01-27 06:47:10.58	44.04	6.62	-53.1	-55.2	6.2	0.00e+00	0	45	104	0	77	18698
2026-01-27 06:47:12.59	44.42	6.69	-53.0	-55.1	6.2	0.00e+00	0	45	104	0	77	18478
2026-01-27 06:47:14.61	44.81	6.76	-53.1	-55.2	6.2	0.00e+00	0	45	104	0	77	18717
2026-01-27 06:47:16.62	45.20	6.83	-53.0	-55.1	6.2	0.00e+00	0	45	104	0	77	18463
2026-01-27 06:47:18.64	45.59	6.90	-53.1	-55.2	6.2	0.00e+00	0	45	104	0	77	18745
2026-01-27 06:47:20.65	45.98	6.97	-53.0	-55.0	6.2	0.00e+00	0	45	104	0	77	18355
2026-01-27 06:47:22.67	46.38	7.04	-53.1	-55.2	6.2	0.00e+00	0	45	104	0	77	18723
2026-01-27 06:47:24.68	46.78	7.11	-53.0	-55.1	6.2	0.00e+00	0	45	104	0	77	18432
2026-01-27 06:47:26.69	47.18	7.17	-53.1	-55.2	6.2	0.00e+00	0	45	104	0	77	18742
2026-01-27 06:47:28.71	47.58	7.24	-53.0	-55.1	6.2	0.00e+00	0	45	104	0	77	18443
2026-01-27 06:47:30.73	47.98	7.30	-53.1	-55.2	6.2	0.00e+00	0	45	104	0	77	18734
2026-01-27 06:47:32.74	48.39	7.37	-53.0	-55.1	6.2	0.00e+00	0	45	104	0	77	18437
2026-01-27 06:47:34.75	48.80	7.43	-53.1	-55.2	6.2	0.00e+00	0	45	104	0	77	18747
2026-01-27 06:47:36.77	49.21	7.49	-53.0	-55.1	6.2	0.00e+00	0	46	104	0	77	18534
2026-01-27 06:47:38.78	49.62	7.55	-53.1	-55.2	6.2	0.00e+00	0	45	104	0	77	18772
2026-01-27 06:47:40.79	50.03	7.61	-53.0	-55.2	6.2	0.00e+00	0	45	104	0	77	18604
2026-01-27 06:47:42.81	50.45	7.67	-53.1	-55.2	6.2	0.00e+00	0	45	104	0	77	18727
2026-01-27 06:47:44.82	50.87	7.73	-53.0	-55.1	6.2	0.00e+00	0	46	104	0	77	18528
2026-01-27 06:47:46.84	51.29	7.79	-53.2	-55.2	6.2	0.00e+00	0	45	104	0	77	18751
2026-01-27 06:47:48.85	51.71	7.84	-53.0	-55.1	6.2	0.00e+00	0	46	104	0	77	18592
2026-01-27 06:47:50.87	52.14	7.90	-53.2	-55.2	6.2	0.00e+00	0	45	104	0	77	18818
2026-01-27 06:47:52.88	52.56	7.95	-53.1	-55.1	6.2	0.00e+00	0	46	104	0	77	18577
2026-01-27 06:47:54.89	52.99	8.00	-53.2	-55.3	6.2	0.00e+00	0	46	104	0	77	18823
2026-01-27 06:47:56.90	53.42	8.06	-53.1	-55.2	6.2	0.00e+00	0	45	104	0	77	18636
2026-01-27 06:47:58.92	53.85	8.11	-53.2	-55.3	6.2	0.00e+00	0	46	104	0	77	18854
2026-01-27 06:48:00.93	54.28	8.16	-53.1	-55.2	6.2	0.00e+00	0	45	104	0	77	18656
2026-01-27 06:48:02.94	54.72	8.20	-53.2	-55.3	6.2	0.00e+00	0	45	104	0	77	18898
2026-01-27 06:48:04.96	55.16	8.25	-53.1	-55.2	6.2	0.00e+00	0	45	104	0	77	18698
2026-01-27 06:48:06.97	55.59	8.30	-53.2	-55.3	6.2	0.00e+00	0	45	104	0	77	18904
2026-01-27 06:48:08.98	56.03	8.34	-53.1	-55.2	6.2	0.00e+00	0	45	104	0	77	18689
2026-01-27 06:48:10.99	56.47	8.39	-53.2	-55.3	6.2	0.00e+00	0	46	104	0	77	18961
2026-01-27 06:48:13.00	56.92	8.43	-53.1	-55.2	6.2	0.00e+00	0	46	104	0	77	18772
2026-01-27 06:48:15.01	57.36	8.47	-53.2	-55.3	6.2	0.00e+00	0	45	104	0	77	18940
2026-01-27 06:48:17.02	57.81	8.51	-53.1	-55.2	6.2	0.00e+00	0	46	104	0	77	18751
2026-01-27 06:48:19.04	58.25	8.55	-53.2	-55.3	6.2	0.00e+00	0	45	104	0	77	18926
2026-01-27 06:48:21.06	58.70	8.59	-53.1	-55.2	6.2	0.00e+00	0	45	104	0	77	18731
2026-01-27 06:48:23.07	59.15	8.62	-53.2	-55.3	6.2	0.00e+00	0	45	104	0	77	18957
2026-01-27 06:48:25.08	59.61	8.66	-53.1	-55.2	6.2	0.00e+00	0	45	104	0	77	18799
2026-01-27 06:48:27.10	60.06	8.69	-53.2	-55.3	6.2	0.00e+00	0	46	104	0	77	18980
2026-01-27 06:48:29.11	60.51	8.73	-53.1	-55.2	6.2	0.00e+00	0	45	104	0	77	18768
2026-01-27 06:48:31.12	60.97	8.76	-53.2	-55.3	6.2	0.00e+00	0	46	104	0	77	18920
2026-01-27 06:48:33.13	61.42	8.79	-53.2	-55.2	6.2	0.00e+00	0	46	104	0	77	18794
2026-01-27 06:48:35.14	61.88	8.81	-53.2	-55.3	6.2	0.00e+00	0	46	104	0	77	18981
2026-01-27 06:48:37.16	62.34	8.84	-53.2	-55.2	6.2	0.00e+00	0	46	104	0	77	18791
2026-01-27 06:48:39.17	62.80	8.87	-53.2	-55.3	6.2	0.00e+00	0	46	104	0	77	18985
2026-01-27 06:48:41.19	63.26	8.89	-53.2	-55.3	6.2	0.00e+00	0	46	104	0	77	18846
2026-01-27 06:48:43.20	63.72	8.91	-53.2	-55.3	6.2	0.00e+00	0	46	104	0	77	18958
2026-01-27 06:48:45.21	64.18	8.94	-53.2	-55.3	6.2	0.00e+00	0	46	104	0	77	18827
2026-01-27 06:48:47.23	64.65	8.96	-53.2	-55.3	6.2	0.00e+00	0	46	104	0	77	18994
2026-01-27 06:48:49.24	65.11	8.98	-53.2	-55.3	6.2	0.00e+00	0	46	104	0	77	18841
2026-01-27 06:48:51.26	65.58	8.99	-53.2	-55.3	6.2	0.00e+00	0	46	104	0	77	18987
2026-01-27 06:48:53.27	66.04	9.01	-53.2	-55.3	6.2	0.00e+00	0	46	104	0	77	18844
2026-01-27 06:48:55.29	66.51	9.02	-53.2	-55.4	6.2	0.00e+00	0	46	104	0	77	19052
2026-01-27 06:48:57.30	66.97	9.04	-53.2	-55.3	6.2	0.00e+00	0	46	104	0	77	18920
2026-01-27 06:48:59.31	67.44	9.05	-53.3	-55.4	6.2	0.00e+00	0	46	104	0	77	19085
2026-01-27 06:49:01.33	67.91	9.06	-53.2	-55.3	6.2	0.00e+00	0	46	104	0	77	18890
2026-01-27 06:49:03.33	68.37	9.07	-53.3	-55.4	6.2	0.00e+00	0	46	104	0	77	19062
2026-01-27 06:49:05.34	68.84	9.07	-53.2	-55.3	6.2	0.00e+00	0	46	104	0	77	19004
2026-01-27 06:49:07.35	69.31	9.08	-53.3	-55.4	6.2	0.00e+00	0	46	104	0	77	19100
2026-01-27 06:49:09.37	69.78	9.08	-53.2	-55.3	6.2	0.00e+00	0	46	104	0	77	18970
2026-01-27 06:49:11.38	70.25	9.08	-53.3	-55.4	6.2	0.00e+00	0	46	104	0	77	19102
2026-01-27 06:49:13.39	70.72	9.09	-53.3	-55.3	6.2	0.00e+00	0	46	104	0	77	18974
2026-01-27 06:49:15.40	71.18	9.09	-53.3	-55.4	6.2	0.00e+00	0	46	104	0	77	19137
2026-01-27 06:49:17.42	71.65	9.08	-53.3	-55.4	6.2	0.00e+00	0	46	104	0	77	19055
2026-01-27 06:49:19.43	72.12	9.08	-53.3	-55.4	6.2	0.00e+00	0	46	104	0	77	19108
2026-01-27 06:49:21.44	72.59	9.08	-53.3	-55.4	6.2	0.00e+00	0	46	104	0	77	19056
2026-01-27 06:49:23.45	73.06	9.07	-53.3	-55.4	6.2	0.00e+00	0	46	104	0	77	19207
2026-01-27 06:49:25.47	73.53	9.06	-53.3	-55.3	6.2	0.00e+00	0	46	104	0	77	19010
2026-01-27 06:49:27.48	73.99	9.05	-53.3	-55.4	6.2	0.00e+00	0	46	104	0	77	19104
2026-01-27 06:49:29.49	74.46	9.04	-53.3	-55.4	6.2	0.00e+00	0	46	104	0	77	19117
2026-01-27 06:49:31.50	74.93	9.03	-53.3	-55.4	6.2	0.00e+00	0	46	104	0	77	19141
2026-01-27 06:49:33.52	75.40	9.02	-53.3	-55.4	6.2	0.00e+00	0	46	104	0	77	19182
2026-01-27 06:49:35.53	75.86	9.00	-53.3	-55.4	6.2	0.00e+00	0	46	104	0	77	19111
2026-01-27 06:49:37.54	76.33	8.98	-53.3	-55.4	6.2	0.00e+00	0	46	104	0	77	19202
2026-01-27 06:49:39.55	76.79	8.97	-53.3	-55.4	6.2	0.00e+00	0	46	104	0	77	19103
2026-01-27 06:49:41.57	77.26	8.95	-53.3	-55.4	6.2	0.00e+00	0	46	104	0	77	19162
2026-01-27 06:49:43.58	77.72	8.93	-53.3	-55.4	6.2	0.00e+00	0	46	104	0	77	19063
2026-01-27 06:49:45.59	78.18	8.90	-53.3	-55.4	6.2	0.00e+00	0	46	104	0	77	19107
2026-01-27 06:49:47.61	78.65	8.88	-53.3	-55.4	6.2	0.00e+00	0	46	104	0	77	19186
2026-01-27 06:49:49.61	79.11	8.86	-53.4	-55.5	6.2	0.00e+00	0	46	104	0	77	19278
2026-01-27 06:49:51.63	79.57	8.83	-53.3	-55.4	6.2	0.00e+00	0	46	104	0	77	19152
2026-01-27 06:49:53.64	80.03	8.80	-53.4	-55.4	6.2	0.00e+00	0	46	104	0	77	19235
2026-01-27 06:49:55.65	80.48	8.77	-53.3	-55.4	6.2	0.00e+00	0	46	104	0	77	19155
2026-01-27 06:49:57.67	80.94	8.74	-53.4	-55.5	6.2	0.00e+00	0	46	104	0	77	19266
2026-01-27 06:49:59.68	81.40	8.71	-53.3	-55.4	6.2	0.00e+00	0	46	104	0	77	19117
2026-01-27 06:50:01.70	81.86	8.68	-53.3	-55.5	6.2	0.00e+00	0	46	104	0	77	19279
2026-01-27 06:50:03.72	82.31	8.64	-53.3	-55.4	6.2	0.00e+00	0	46	104	0	77	19084
2026-01-27 06:50:05.73	82.76	8.61	-53.4	-55.5	6.2	0.00e+00	0	46	104	0	77	19260
2026-01-27 06:50:07.75	83.22	8.57	-53.3	-55.4	6.2	0.00e+00	0	46	104	0	77	19064
2026-01-27 06:50:09.77	83.67	8.53	-53.4	-55.5	6.2	0.00e+00	0	46	104	0	77	19257
2026-01-27 06:50:11.78	84.12	8.49	-53.3	-55.4	6.2	0.00e+00	0	46	104	0	77	19046
2026-01-27 06:50:13.80	84.57	8.45	-53.4	-55.5	6.2	0.00e+00	0	46	104	0	77	19264
2026-01-27 06:50:15.81	85.01	8.41	-53.3	-55.4	6.2	0.00e+00	0	46	104	0	77	19060
2026-01-27 06:50:17.82	85.45	8.36	-53.4	-55.4	6.2	0.00e+00	0	46	104	0	77	19220
2026-01-27 06:50:19.84	85.90	8.32	-53.3	-55.4	6.2	0.00e+00	0	46	104	0	77	19112
2026-01-27 06:50:21.85	86.34	8.27	-53.4	-55.5	6.2	0.00e+00	0	46	104	0	77	19281
2026-01-27 06:50:23.87	86.78	8.22	-53.3	-55.3	6.2	0.00e+00	0	46	104	0	77	19035
2026-01-27 06:50:25.89	87.22	8.18	-53.4	-55.4	6.2	0.00e+00	0	46	104	0	77	19200
2026-01-27 06:50:27.90	87.66	8.13	-53.3	-55.3	6.2	0.00e+00	0	46	104	0	77	19026
2026-01-27 06:50:29.92	88.09	8.08	-53.4	-55.5	6.2	0.00e+00	0	46	104	0	77	19260
2026-01-27 06:50:31.93	88.53	8.02	-53.3	-55.4	6.2	0.00e+00	0	46	104	0	77	19041
2026-01-27 06:50:33.93	88.95	7.97	-53.4	-55.4	6.2	0.00e+00	0	46	104	0	77	19252
2026-01-27 06:50:35.95	89.38	7.92	-53.3	-55.3	6.2	0.00e+00	0	46	104	0	77	19023
2026-01-27 06:50:37.97	89.81	7.86	-53.4	-55.5	6.2	0.00e+00	0	46	104	0	77	19297
2026-01-27 06:50:39.98	90.24	7.81	-53.3	-55.3	6.2	0.00e+00	0	46	104	0	77	18995
2026-01-27 06:50:42.00	90.66	7.75	-53.4	-55.4	6.2	0.00e+00	0	46	104	0	77	19244
2026-01-27 06:50:44.01	91.09	7.69	-53.3	-55.3	6.2	0.00e+00	0	46	104	0	77	19007
2026-01-27 06:50:46.03	91.51	7.63	-53.4	-55.4	6.2	0.00e+00	0	46	104	0	77	19244
2026-01-27 06:50:48.05	91.93	7.57	-53.3	-55.3	6.2	0.00e+00	0	46	104	0	77	18958
2026-01-27 06:50:50.06	92.34	7.51	-53.4	-55.5	6.2	0.00e+00	0	46	104	0	77	19261
2026-01-27 06:50:52.07	92.76	7.45	-53.2	-55.3	6.2	0.00e+00	0	46	104	0	77	18960
2026-01-27 06:50:54.09	93.17	7.39	-53.4	-55.4	6.2	0.00e+00	0	46	104	0	77	19235
2026-01-27 06:50:56.10	93.58	7.32	-53.2	-55.3	6.2	0.00e+00	0	46	104	0	77	18982
2026-01-27 06:50:58.11	93.99	7.26	-53.3	-55.4	6.2	0.00e+00	0	46	104	0	77	19197
2026-01-27 06:51:00.12	94.39	7.19	-53.2	-55.3	6.2	0.00e+00	0	46	104	0	77	18961
2026-01-27 06:51:02.11	94.79	7.13	-53.3	-55.4	6.2	0.00e+00	0	46	104	0	77	19209
2026-01-27 06:51:04.12	95.19	7.06	-53.2	-55.3	6.2	0.00e+00	0	46	104	0	77	19003
2026-01-27 06:51:06.14	95.59	6.99	-53.3	-55.4	6.2	0.00e+00	0	46	104	0	77	19229
2026-01-27 06:51:08.15	95.99	6.92	-53.2	-55.3	6.2	0.00e+00	0	46	104	0	77	19004
2026-01-27 06:51:10.17	96.38	6.85	-53.3	-55.4	6.2	0.00e+00	0	46	104	0	77	19219
2026-01-27 06:51:12.19	96.78	6.78	-53.2	-55.3	6.2	0.00e+00	0	46	104	0	77	18965
2026-01-27 06:51:14.20	97.17	6.71	-53.4	-55.4	6.2	0.00e+00	0	46	104	0	77	19253
2026-01-27 06:51:16.21	97.56	6.64	-53.2	-55.3	6.2	0.00e+00	0	46	104	0	77	18970
2026-01-27 06:51:18.23	97.94	6.57	-53.4	-55.4	6.2	0.00e+00	0	46	104	0	77	19244
2026-01-27 06:51:20.24	98.33	6.49	-53.2	-55.3	6.2	0.00e+00	0	46	104	0	77	18975
2026-01-27 06:51:22.26	98.71	6.42	-53.3	-55.4	6.2	0.00e+00	0	46	104	0	77	19190
2026-01-27 06:51:24.27	99.09	6.34	-53.2	-55.3	6.2	0.00e+00	0	46	104	0	77	18875
2026-01-27 06:51:26.29	99.47	6.27	-53.4	-55.5	6.2	0.00e+00	0	46	104	0	77	19274
2026-01-27 06:51:28.30	99.84	6.19	-53.2	-55.3	6.2	0.00e+00	0	46	104	0	77	18922
2026-01-27 06:51:30.32	100.22	6.12	-53.3	-55.4	6.2	0.00e+00	0	46	104	0	77	19188
2026-01-27 06:51:32.33	100.59	6.04	-53.2	-55.3	6.2	0.00e+00	0	46	104	0	77	18844
2026-01-27 06:51:34.35	100.96	5.96	-53.3	-55.4	6.2	0.00e+00	0	46	104	0	77	19193
2026-01-27 06:51:36.36	101.32	5.88	-53.2	-55.3	6.2	0.00e+00	0	46	104	0	77	18868
2026-01-27 06:51:38.38	101.69	5.80	-53.3	-55.4	6.2	0.00e+00	0	46	104	0	77	19226
2026-01-27 06:51:40.40	102.05	5.72	-53.2	-55.3	6.2	0.00e+00	0	46	104	0	77	18888
2026-01-27 06:51:42.42	102.41	5.64	-53.3	-55.4	6.2	0.00e+00	0	46	104	0	77	19192
2026-01-27 06:51:44.43	102.77	5.56	-53.2	-55.3	6.2	0.00e+00	0	46	104	0	77	18875
2026-01-27 06:51:46.44	103.12	5.48	-53.3	-55.4	6.2	0.00e+00	0	46	104	0	77	19109
2026-01-27 06:51:48.45	103.47	5.40	-53.1	-55.2	6.2	0.00e+00	0	46	104	0	77	18758
2026-01-27 06:51:50.47	103.82	5.32	-53.3	-55.4	6.2	0.00e+00	0	46	104	0	77	19103
2026-01-27 06:51:52.48	104.17	5.24	-53.1	-55.2	6.2	0.00e+00	0	46	104	0	77	18701
2026-01-27 06:51:54.49	104.51	5.15	-53.3	-55.4	6.2	0.00e+00	0	46	104	0	77	19140
2026-01-27 06:51:56.51	104.86	5.07	-53.1	-55.2	6.2	0.00e+00	0	46	104	0	77	18689
2026-01-27 06:51:58.52	105.20	4.99	-53.3	-55.4	6.2	0.00e+00	0	46	104	0	77	19247
2026-01-27 06:52:00.53	105.54	4.90	-53.8	-55.9	6.2	0.00e+00	0	46	104	0	78	19249
2026-01-27 06:52:02.55	105.87	4.82	-54.3	-56.3	6.2	0.00e+00	0	46	104	0	79	19028
2026-01-27 06:52:04.57	106.21	4.73	-54.5	-56.6	6.2	0.00e+00	0	46	104	0	79	19558
2026-01-27 06:52:06.57	106.54	4.65	-54.7	-56.8	6.2	0.00e+00	0	46	104	0	79	19986
2026-01-27 06:52:08.59	106.87	4.56	-54.7	-56.8	6.2	0.00e+00	0	46	104	0	80	18909
2026-01-27 06:52:10.60	107.20	4.48	-54.9	-56.9	6.2	0.00e+00	0	46	104	0	80	19207
2026-01-27 06:52:12.62	107.52	4.39	-55.0	-57.0	6.2	0.00e+00	0	46	104	0	80	19435
2026-01-27 06:52:14.64	107.85	4.30	-55.0	-57.1	6.2	0.00e+00	0	46	104	0	80	19556
2026-01-27 06:52:16.65	108.17	4.22	-55.0	-57.1	6.2	0.00e+00	0	46	104	0	80	19641
2026-01-27 06:52:18.67	108.48	4.13	-55.1	-57.1	6.2	0.00e+00	0	46	104	0	80	19701
2026-01-27 06:52:20.68	108.80	4.04	-55.1	-57.1	6.2	0.00e+00	0	46	104	0	80	19670
2026-01-27 06:52:22.69	109.11	3.96	-55.1	-57.2	6.2	0.00e+00	0	46	104	0	80	19785
2026-01-27 06:52:24.71	109.43	3.87	-55.1	-57.2	6.2	0.00e+00	0	46	104	0	80	19774
2026-01-27 06:52:26.73	109.74	3.78	-55.1	-57.2	6.2	0.00e+00	0	46	104	0	80	19731
2026-01-27 06:52:28.75	110.05	3.69	-55.1	-57.2	6.2	0.00e+00	0	46	104	0	80	19872
2026-01-27 06:52:30.76	110.35	3.60	-55.2	-57.2	6.2	0.00e+00	0	46	104	0	80	19926
2026-01-27 06:52:32.78	110.65	3.51	-55.2	-57.3	6.2	0.00e+00	0	46	104	0	80	19973
2026-01-27 06:52:34.79	110.95	3.42	-55.2	-57.3	6.2	0.00e+00	0	46	104	0	81	19024
2026-01-27 06:52:36.81	111.25	3.33	-55.2	-57.3	6.2	0.00e+00	0	46	104	0	81	18977
2026-01-27 06:52:38.82	111.55	3.24	-55.2	-57.3	6.2	0.00e+00	0	46	104	0	81	18951
2026-01-27 06:52:40.84	111.85	3.16	-55.2	-57.3	6.2	0.00e+00	0	46	104	0	81	18865
2026-01-27 06:52:42.85	112.14	3.07	-55.1	-57.2	6.2	0.00e+00	0	46	104	0	81	18729
2026-01-27 06:52:44.87	112.43	2.98	-55.0	-57.1	6.2	0.00e+00	0	46	104	0	81	18531
2026-01-27 06:52:46.89	112.72	2.89	-55.0	-57.1	6.2	0.00e+00	0	46	104	0	81	18421
2026-01-27 06:52:48.90	113.00	2.80	-55.0	-57.0	6.2	0.00e+00	0	46	104	0	81	18384
2026-01-27 06:52:50.91	113.29	2.71	-54.8	-56.9	6.2	0.00e+00	0	46	104	0	81	18099
2026-01-27 06:52:52.93	113.57	2.61	-54.7	-56.8	6.2	0.00e+00	0	46	104	0	81	17934
2026-01-27 06:52:54.94	113.85	2.52	-54.5	-56.6	6.2	0.00e+00	0	46	104	0	81	17493
2026-01-27 06:52:56.95	114.13	2.43	-54.2	-56.3	6.2	0.00e+00	0	46	104	0	80	17871
2026-01-27 06:52:58.97	114.40	2.34	-54.2	-56.2	6.2	0.00e+00	0	46	104	0	80	17764
2026-01-27 06:53:00.98	114.68	2.25	-54.2	-56.3	6.2	0.00e+00	0	46	104	0	80	17788
2026-01-27 06:53:03.00	114.95	2.16	-54.2	-56.2	6.2	0.00e+00	0	46	104	0	80	17761
2026-01-27 06:53:05.01	115.22	2.07	-54.1	-56.2	6.2	0.00e+00	0	46	104	0	80	17719
2026-01-27 06:53:07.03	115.49	1.98	-54.1	-56.2	6.2	0.00e+00	0	46	104	0	80	17719

#Closed at: 2026-01-27 06:53:07
#Recorded file [0 MB]: D:/lorett/data/31041_260127_094521.dat