passes_logs/2026/01/27/R3.2S_Murmansk/R3.2S_Murmansk__20260127_130803_AQUA_rec.log

#Pass ID: 20260127_130803_AQUA
#Satellite: AQUA
#Configuration: AQUA
#almurnet v.1.7.20251203
#Start time: 2026-01-27 13:08:02

#Version: 2.2.20231116
#Station: R3.2S_Murmansk
#Location: 33.079688 lon 68.888172 lat
#TLE: 1 27424U 02022A   26027.29059822  .00001896  00000+0  38917-3 0  9993
#TLE: 2 27424  98.4102 353.9260 0001849  63.9098  72.6772 14.61866390262689

#Time	Az	El	Level	Level2	SNR	BER	BlckErr	Temp	State	Recorded	gain1	gain2
2026-01-27 13:08:02.59	200.17	1.97	-55.5	-73.3	3.8	7.39e-01	0	40	0	0	81	29871
2026-01-27 13:08:05.61	200.36	2.15	-55.4	-73.3	3.8	7.45e-01	0	40	104	0	81	29696
2026-01-27 13:08:08.63	200.56	2.34	-55.4	-73.3	3.8	7.46e-01	0	41	104	0	81	29696
2026-01-27 13:08:11.65	200.76	2.52	-55.5	-73.3	3.8	7.45e-01	0	41	104	0	81	29873
2026-01-27 13:08:14.67	200.97	2.71	-55.7	-73.9	3.8	7.44e-01	0	41	104	0	82	30068
2026-01-27 13:08:17.70	201.18	2.89	-55.7	-73.5	3.8	7.43e-01	0	41	104	0	82	28938
2026-01-27 13:08:20.73	201.39	3.08	-55.6	-73.4	3.8	7.45e-01	0	41	104	0	82	28600
2026-01-27 13:08:23.75	201.60	3.27	-55.5	-73.3	3.8	7.44e-01	0	41	104	0	82	28306
2026-01-27 13:08:26.77	201.82	3.46	-55.4	-73.2	3.8	7.47e-01	0	41	104	0	82	27812
2026-01-27 13:08:29.80	202.04	3.65	-55.1	-72.8	3.8	7.47e-01	0	41	104	0	82	26756
2026-01-27 13:08:32.83	202.26	3.85	-54.6	-72.4	3.8	7.47e-01	0	41	104	0	81	26881
2026-01-27 13:08:35.84	202.48	4.04	-54.0	-71.6	3.8	7.47e-01	0	42	104	0	79	27524
2026-01-27 13:08:38.87	202.71	4.24	-54.0	-70.1	3.8	7.47e-01	0	42	104	0	79	23233
2026-01-27 13:08:41.89	202.95	4.43	-53.8	-66.2	5.0	7.11e-01	17	42	104	0	79	14825
2026-01-27 13:08:44.91	203.18	4.63	-51.3	-55.2	15.5	6.08e-01	0	42	0	5242880	74	5550
2026-01-27 13:08:47.94	203.42	4.83	-48.1	-50.1	20.7	6.05e-01	0	42	0	10485760	68	4377
2026-01-27 13:08:50.96	203.66	5.03	-47.0	-48.7	22.2	6.03e-01	0	42	0	16252928	66	4152
2026-01-27 13:08:53.98	203.90	5.23	-50.1	-53.0	18.4	6.03e-01	0	42	0	22020096	70	5424
2026-01-27 13:08:57.00	204.15	5.44	-47.2	-49.0	22.0	6.07e-01	0	42	0	27787264	66	4304
2026-01-27 13:09:00.02	204.41	5.64	-47.0	-48.7	22.3	6.06e-01	0	42	0	33554432	65	4407
2026-01-27 13:09:03.04	204.66	5.85	-47.1	-48.9	22.1	6.06e-01	0	42	0	38797312	65	4500
2026-01-27 13:09:06.07	204.92	6.05	-46.6	-48.3	22.8	6.06e-01	0	42	0	44564480	65	4195
2026-01-27 13:09:09.10	205.19	6.26	-46.8	-48.5	22.6	6.07e-01	0	42	0	50331648	65	4307
2026-01-27 13:09:12.12	205.45	6.47	-46.9	-48.5	22.6	6.06e-01	0	42	0	56098816	65	4309
2026-01-27 13:09:15.14	205.72	6.68	-46.6	-48.1	22.9	6.06e-01	0	42	0	61865984	64	4377
2026-01-27 13:09:18.17	206.00	6.90	-46.6	-48.2	22.9	6.06e-01	0	42	0	67108864	64	4420
2026-01-27 13:09:21.19	206.28	7.11	-46.7	-48.3	22.8	6.07e-01	0	42	0	72876032	64	4443
2026-01-27 13:09:24.22	206.57	7.33	-46.2	-47.7	23.4	6.05e-01	0	42	0	78643200	64	4166
2026-01-27 13:09:27.24	206.85	7.55	-46.2	-47.7	23.4	6.06e-01	0	42	0	84410368	64	4178
2026-01-27 13:09:30.26	207.15	7.76	-46.3	-47.8	23.3	6.04e-01	0	42	0	90177536	64	4228
2026-01-27 13:09:33.28	207.45	7.98	-46.2	-47.7	23.4	6.07e-01	0	42	0	95420416	64	4183
2026-01-27 13:09:36.30	207.75	8.21	-46.1	-47.5	23.7	6.06e-01	0	42	0	101711872	64	4075
2026-01-27 13:09:39.32	208.05	8.43	-46.0	-47.4	23.9	6.07e-01	0	42	0	106954752	63	4264
2026-01-27 13:09:42.35	208.37	8.65	-46.0	-47.4	23.9	6.06e-01	0	42	0	112721920	63	4272
2026-01-27 13:09:45.37	208.69	8.88	-46.0	-47.5	23.8	6.07e-01	0	42	0	118489088	63	4296
2026-01-27 13:09:48.39	209.01	9.11	-45.8	-47.2	24.1	6.05e-01	0	42	0	124256256	63	4193
2026-01-27 13:09:51.41	209.34	9.34	-45.9	-47.3	24.1	6.08e-01	0	42	0	130023424	63	4207
2026-01-27 13:09:54.44	209.67	9.57	-45.6	-47.0	24.4	6.07e-01	0	42	0	135266304	63	4073
2026-01-27 13:09:57.46	210.01	9.80	-45.8	-47.2	24.1	6.05e-01	0	42	0	141033472	63	4182
2026-01-27 13:10:00.48	210.35	10.04	-45.8	-47.2	24.2	6.07e-01	0	42	0	146800640	63	4158
2026-01-27 13:10:03.51	210.70	10.27	-45.6	-47.0	24.3	6.05e-01	0	42	0	152567808	63	4078
2026-01-27 13:10:06.53	211.06	10.51	-45.6	-46.9	24.4	6.05e-01	0	42	0	158334976	63	4050
2026-01-27 13:10:09.54	211.42	10.75	-45.5	-46.8	24.5	6.05e-01	0	42	0	163577856	62	4222
2026-01-27 13:10:12.57	211.79	10.99	-45.5	-46.9	24.5	6.06e-01	0	42	0	169345024	62	4257
2026-01-27 13:10:15.59	212.17	11.24	-45.3	-46.6	24.8	6.06e-01	0	42	0	175112192	62	4102
2026-01-27 13:10:18.61	212.55	11.48	-45.4	-46.7	24.7	6.06e-01	0	43	0	180879360	62	4164
2026-01-27 13:10:21.63	212.94	11.73	-45.4	-46.7	24.7	6.07e-01	0	42	0	186646528	62	4186
2026-01-27 13:10:24.65	213.33	11.97	-45.4	-46.7	24.7	6.06e-01	0	42	0	191889408	62	4186
2026-01-27 13:10:27.68	213.73	12.22	-45.2	-46.5	24.9	6.04e-01	0	42	0	197656576	62	4077
2026-01-27 13:10:30.70	214.14	12.47	-45.2	-46.5	24.9	6.05e-01	0	42	0	203423744	62	4088
2026-01-27 13:10:33.72	214.56	12.73	-45.2	-46.5	25.0	6.07e-01	0	42	0	209190912	62	4052
2026-01-27 13:10:36.74	214.98	12.98	-45.1	-46.3	25.1	6.04e-01	0	42	0	214958080	62	3990
2026-01-27 13:10:39.77	215.41	13.24	-45.0	-46.2	25.2	6.07e-01	0	42	0	220200960	61	4186
2026-01-27 13:10:42.79	215.85	13.50	-45.1	-46.4	25.1	6.04e-01	0	42	0	225968128	61	4249
2026-01-27 13:10:45.81	216.30	13.75	-45.1	-46.4	25.1	6.05e-01	0	42	0	231735296	61	4259
2026-01-27 13:10:48.83	216.76	14.01	-44.9	-46.1	25.3	6.07e-01	0	42	0	237502464	61	4127
2026-01-27 13:10:51.85	217.22	14.28	-45.0	-46.3	25.2	6.06e-01	0	42	0	243269632	61	4204
2026-01-27 13:10:54.87	217.69	14.54	-45.0	-46.2	25.3	6.07e-01	0	42	0	248512512	61	4177
2026-01-27 13:10:57.89	218.17	14.81	-44.8	-46.1	25.4	6.06e-01	0	43	0	254279680	61	4108
2026-01-27 13:11:00.92	218.67	15.07	-44.9	-46.2	25.3	6.08e-01	0	42	0	260046848	61	4149
2026-01-27 13:11:03.94	219.17	15.34	-44.8	-46.1	25.4	6.04e-01	0	42	0	265814016	61	4103
2026-01-27 13:11:06.96	219.67	15.61	-44.8	-46.0	25.4	6.03e-01	0	42	0	271581184	61	4092
2026-01-27 13:11:09.98	220.19	15.88	-44.7	-45.9	25.5	6.04e-01	0	42	0	276824064	61	4046
2026-01-27 13:11:13.01	220.72	16.15	-44.7	-45.9	25.5	6.04e-01	0	42	0	282591232	61	4046
2026-01-27 13:11:16.02	221.26	16.42	-44.8	-46.0	25.5	6.06e-01	0	42	0	288358400	61	4066
2026-01-27 13:11:19.04	221.81	16.70	-44.6	-45.8	25.7	6.04e-01	0	42	0	294125568	61	3972
2026-01-27 13:11:22.06	222.36	16.97	-44.6	-45.8	25.6	6.06e-01	0	42	0	299892736	61	3979
2026-01-27 13:11:25.08	222.93	17.25	-44.7	-45.9	25.6	6.04e-01	0	42	0	305135616	61	4028
2026-01-27 13:11:28.10	223.51	17.52	-44.8	-46.1	25.4	6.05e-01	0	43	0	310902784	61	4102
2026-01-27 13:11:31.12	224.11	17.80	-44.4	-45.6	25.8	6.04e-01	0	42	0	316669952	60	4132
2026-01-27 13:11:34.14	224.71	18.08	-44.6	-45.8	25.7	6.05e-01	0	42	0	322437120	60	4223
2026-01-27 13:11:37.16	225.32	18.36	-44.7	-45.9	25.5	6.05e-01	0	42	0	328204288	60	4290
2026-01-27 13:11:40.18	225.95	18.63	-44.7	-45.9	25.6	6.06e-01	0	42	0	333447168	60	4270
2026-01-27 13:11:43.20	226.58	18.91	-44.5	-45.7	25.7	6.05e-01	0	42	0	339214336	60	4174
2026-01-27 13:11:46.23	227.24	19.19	-44.6	-45.9	25.7	6.06e-01	0	42	0	344981504	60	4246
2026-01-27 13:11:49.25	227.90	19.47	-44.7	-45.9	25.6	6.06e-01	0	43	0	350748672	60	4274
2026-01-27 13:11:52.27	228.57	19.75	-44.6	-45.8	25.8	6.04e-01	0	43	0	356515840	60	4219
2026-01-27 13:11:55.29	229.26	20.03	-44.7	-45.9	25.7	6.05e-01	0	42	0	361758720	60	4271
2026-01-27 13:11:58.31	229.96	20.30	-44.6	-45.8	25.7	6.06e-01	0	43	0	367525888	60	4238
2026-01-27 13:12:01.33	230.67	20.58	-44.6	-45.8	25.8	6.06e-01	0	42	0	373293056	60	4223
2026-01-27 13:12:04.35	231.40	20.86	-44.6	-45.8	25.7	6.05e-01	0	43	0	379060224	60	4240
2026-01-27 13:12:07.37	232.14	21.13	-44.7	-45.9	25.7	6.06e-01	0	43	0	384827392	60	4277
2026-01-27 13:12:10.39	232.89	21.40	-44.7	-45.9	25.7	6.06e-01	0	42	0	390070272	60	4272
2026-01-27 13:12:13.41	233.66	21.68	-44.8	-46.0	25.6	6.07e-01	0	42	0	395837440	60	4311
2026-01-27 13:12:16.43	234.44	21.94	-44.8	-46.0	25.7	6.04e-01	0	43	0	401604608	60	4313
2026-01-27 13:12:19.46	235.24	22.21	-45.8	-56.7	3.8	7.49e-01	0	43	104	402128896	62	13226
2026-01-27 13:12:22.48	236.05	22.48	-45.2	-56.1	3.8	7.46e-01	0	43	104	402128896	62	12243
2026-01-27 13:12:25.50	236.87	22.74	-45.3	-56.0	3.9	7.40e-01	0	43	104	402128896	62	12218
2026-01-27 13:12:28.52	237.71	23.00	-46.8	-57.6	3.8	7.45e-01	0	43	104	402128896	63	13818
2026-01-27 13:12:31.54	238.56	23.25	-46.4	-57.4	3.8	7.28e-01	0	43	104	402128896	65	11966
2026-01-27 13:12:34.56	239.42	23.51	-47.6	-58.5	3.8	7.45e-01	0	43	104	402128896	65	13698
2026-01-27 13:12:37.59	240.31	23.76	-47.7	-58.8	3.8	7.44e-01	0	43	104	402128896	67	12522
2026-01-27 13:12:40.61	241.20	24.00	-45.4	-56.2	3.8	7.45e-01	0	43	104	402128896	62	12438
2026-01-27 13:12:43.63	242.11	24.24	-45.5	-56.3	3.8	7.45e-01	0	43	104	402128896	62	12644
2026-01-27 13:12:46.65	243.03	24.47	-47.8	-58.7	3.8	7.46e-01	0	43	104	402128896	65	13966
2026-01-27 13:12:49.67	243.97	24.70	-45.3	-56.1	3.8	7.45e-01	0	43	104	402128896	62	12269
2026-01-27 13:12:52.69	244.92	24.92	-49.5	-61.1	3.8	7.46e-01	0	43	104	402128896	69	14629
2026-01-27 13:12:55.71	245.88	25.14	-45.9	-56.8	3.9	7.45e-01	0	43	104	402128896	63	12624
2026-01-27 13:12:58.73	246.86	25.35	-49.1	-60.5	3.8	7.45e-01	0	43	104	402128896	68	14391
2026-01-27 13:13:01.75	247.85	25.56	-48.2	-59.4	3.8	7.44e-01	0	43	104	402128896	68	12763
2026-01-27 13:13:04.77	248.85	25.75	-45.5	-56.3	3.8	7.45e-01	0	43	104	402128896	62	12619
2026-01-27 13:13:07.80	249.87	25.94	-45.6	-56.4	3.8	7.44e-01	0	43	104	402128896	62	12748
2026-01-27 13:13:10.81	250.90	26.12	-50.7	-63.0	3.8	7.45e-01	0	43	104	402128896	72	15246
2026-01-27 13:13:13.83	251.93	26.30	-45.1	-55.9	3.8	7.49e-01	0	43	104	402128896	62	11999
2026-01-27 13:13:16.86	252.99	26.46	-53.1	-66.9	3.8	7.47e-01	0	43	104	402128896	76	19064
2026-01-27 13:13:19.86	254.04	26.62	-45.7	-56.6	3.9	7.46e-01	0	43	104	402128896	63	12345
2026-01-27 13:13:22.88	255.12	26.76	-48.7	-60.1	3.9	7.46e-01	0	43	104	402128896	67	14605
2026-01-27 13:13:25.89	256.19	26.90	-48.9	-60.2	3.8	7.43e-01	0	43	104	402128896	69	13255
2026-01-27 13:13:28.92	257.29	27.03	-45.6	-56.4	3.8	7.44e-01	0	43	104	402128896	63	12070
2026-01-27 13:13:31.94	258.39	27.14	-45.6	-56.4	3.8	7.44e-01	0	43	104	402128896	62	12735
2026-01-27 13:13:34.96	259.49	27.25	-50.8	-62.8	3.8	7.48e-01	0	43	104	402128896	72	14954
2026-01-27 13:13:37.98	260.61	27.35	-45.1	-55.9	3.8	7.47e-01	0	43	104	402128896	62	12068
2026-01-27 13:13:40.99	261.73	27.43	-54.0	-69.0	3.8	7.47e-01	0	43	104	402128896	78	21514
2026-01-27 13:13:44.01	262.85	27.51	-45.3	-56.0	3.8	7.48e-01	0	43	104	402128896	62	12114
2026-01-27 13:13:47.03	263.98	27.57	-49.0	-60.4	3.9	7.43e-01	0	43	104	402128896	69	13425
2026-01-27 13:13:50.05	265.12	27.62	-49.3	-60.7	3.8	7.42e-01	0	43	104	402128896	70	13170
2026-01-27 13:13:53.07	266.26	27.66	-45.0	-55.8	3.8	7.48e-01	0	43	104	402128896	62	11887
2026-01-27 13:13:56.09	267.40	27.69	-45.4	-56.2	3.8	7.43e-01	0	43	104	402128896	61	13192
2026-01-27 13:13:59.11	268.54	27.70	-49.3	-60.7	3.9	7.47e-01	0	43	104	402128896	70	13232
2026-01-27 13:14:02.14	269.69	27.71	-44.9	-55.6	3.8	7.42e-01	0	43	104	402128896	61	12337
2026-01-27 13:14:05.16	270.83	27.70	-53.3	-67.1	3.9	7.45e-01	0	43	104	402128896	78	17339
2026-01-27 13:14:08.18	271.97	27.68	-44.8	-55.5	3.8	7.45e-01	0	43	104	402128896	61	12209
2026-01-27 13:14:11.20	273.11	27.65	-46.0	-56.8	3.8	7.46e-01	0	43	104	402128896	63	12580
2026-01-27 13:14:14.22	274.25	27.61	-47.4	-58.6	3.8	7.43e-01	0	43	104	402128896	67	12248
2026-01-27 13:14:17.24	275.38	27.56	-44.9	-55.7	3.8	7.46e-01	0	43	104	402128896	61	12455
2026-01-27 13:14:20.25	276.50	27.49	-44.8	-55.6	3.8	7.42e-01	0	43	104	402128896	61	12318
2026-01-27 13:14:23.26	277.62	27.41	-48.3	-59.6	3.9	7.43e-01	0	43	104	402128896	68	13001
2026-01-27 13:14:26.28	278.74	27.33	-44.9	-55.6	3.8	7.47e-01	0	43	104	402128896	61	12302
2026-01-27 13:14:29.30	279.85	27.23	-51.4	-63.7	3.8	7.39e-01	0	43	104	402128896	75	14008
2026-01-27 13:14:32.31	280.95	27.12	-44.9	-55.6	3.8	7.45e-01	0	43	104	402128896	61	12347
2026-01-27 13:14:35.33	282.05	27.00	-45.5	-56.3	3.9	7.45e-01	0	43	104	402128896	62	12534
2026-01-27 13:14:38.35	283.14	26.87	-46.4	-57.4	3.8	7.45e-01	0	43	104	402128896	65	12094
2026-01-27 13:14:41.37	284.21	26.74	-44.9	-55.7	3.8	7.45e-01	0	43	104	402128896	61	12378
2026-01-27 13:14:44.39	285.28	26.59	-45.1	-55.9	3.8	7.43e-01	0	43	104	402128896	61	12669
2026-01-27 13:14:47.41	286.34	26.43	-46.3	-57.2	3.8	7.47e-01	0	43	104	402128896	64	12414
2026-01-27 13:14:50.42	287.38	26.26	-45.4	-56.1	3.9	7.46e-01	0	43	104	402128896	61	13084
2026-01-27 13:14:53.44	288.42	26.09	-51.8	-64.2	3.9	7.44e-01	0	43	104	402128896	75	14813
2026-01-27 13:14:56.47	289.44	25.91	-45.2	-56.0	3.9	7.45e-01	0	43	104	402128896	62	12104
2026-01-27 13:14:59.49	290.45	25.72	-45.6	-56.5	3.8	7.43e-01	0	43	104	402128896	63	12125
2026-01-27 13:15:02.52	291.45	25.52	-44.9	-55.5	3.9	7.47e-01	0	43	104	402128896	61	12184
2026-01-27 13:15:05.54	292.44	25.31	-45.0	-55.7	3.8	7.47e-01	0	43	104	402128896	61	12389
2026-01-27 13:15:08.56	293.41	25.10	-48.5	-59.7	3.8	7.45e-01	0	43	104	402128896	67	14036
2026-01-27 13:15:11.58	294.37	24.89	-45.5	-56.3	3.8	7.39e-01	0	43	104	402128896	63	11921
2026-01-27 13:15:14.60	295.31	24.66	-46.3	-57.3	3.8	7.46e-01	0	43	104	402128896	63	13295
2026-01-27 13:15:17.62	296.24	24.43	-51.9	-64.2	3.8	7.44e-01	0	43	104	402128896	75	14722
2026-01-27 13:15:20.64	297.16	24.20	-44.9	-55.6	3.8	7.43e-01	0	43	104	402128896	61	12310
2026-01-27 13:15:23.66	298.06	23.96	-45.8	-56.7	3.9	7.43e-01	0	43	104	402128896	63	12465
2026-01-27 13:15:26.68	298.95	23.72	-45.2	-55.9	3.9	7.46e-01	0	43	104	402128896	62	12020
2026-01-27 13:15:29.70	299.82	23.47	-45.0	-55.7	3.8	7.45e-01	0	43	104	402128896	61	12519
2026-01-27 13:15:32.73	300.69	23.22	-52.9	-66.2	3.8	7.46e-01	0	43	104	402128896	76	17492
2026-01-27 13:15:35.75	301.53	22.96	-44.7	-55.4	3.9	7.47e-01	0	43	104	402128896	61	11990
2026-01-27 13:15:38.76	302.36	22.71	-45.8	-56.8	3.8	7.41e-01	0	43	104	402128896	62	13277
2026-01-27 13:15:41.79	303.18	22.44	-53.8	-68.1	3.8	7.45e-01	0	43	104	402128896	78	19563
2026-01-27 13:15:44.80	303.98	22.18	-45.1	-55.7	3.8	7.46e-01	0	43	104	402128896	62	11810
2026-01-27 13:15:47.82	304.77	21.92	-47.1	-58.1	3.8	7.43e-01	0	43	104	402128896	64	13836
2026-01-27 13:15:50.84	305.55	21.65	-45.3	-56.0	3.8	7.46e-01	0	43	104	402128896	61	12877
2026-01-27 13:15:53.86	306.31	21.38	-44.7	-55.4	3.8	7.44e-01	0	43	104	402128896	61	12052
2026-01-27 13:15:56.88	307.06	21.11	-54.5	-70.3	3.8	7.48e-01	0	43	104	402128896	79	23792
2026-01-27 13:15:59.91	307.79	20.83	-44.7	-55.5	3.8	7.42e-01	0	43	104	402128896	61	12161
2026-01-27 13:16:02.93	308.51	20.56	-46.2	-57.0	3.8	7.48e-01	0	43	104	402128896	62	13588
2026-01-27 13:16:05.94	309.22	20.28	-54.5	-70.3	3.8	7.47e-01	0	43	104	402128896	79	23830
2026-01-27 13:16:08.97	309.92	20.01	-44.6	-55.4	3.8	7.41e-01	0	43	104	402128896	61	12037
2026-01-27 13:16:11.99	310.60	19.73	-46.3	-57.2	3.8	7.41e-01	0	43	104	402128896	64	12463
2026-01-27 13:16:15.01	311.27	19.45	-46.4	-57.3	3.8	7.43e-01	0	43	104	402128896	63	13342
2026-01-27 13:16:18.03	311.93	19.18	-44.6	-55.5	3.8	7.48e-01	0	43	104	402128896	61	12122
2026-01-27 13:16:21.05	312.57	18.90	-52.8	-66.3	3.8	7.47e-01	0	43	104	402128896	76	17791
2026-01-27 13:16:24.07	313.20	18.62	-44.8	-55.5	3.8	7.44e-01	0	43	104	402128896	61	12150
2026-01-27 13:16:27.09	313.82	18.35	-45.7	-56.4	3.9	7.43e-01	0	43	104	402128896	62	12793
2026-01-27 13:16:30.12	314.44	18.07	-49.4	-61.0	3.9	7.43e-01	0	43	104	402128896	71	12949
2026-01-27 13:16:33.14	315.03	17.79	-44.6	-55.4	3.8	7.47e-01	0	43	104	402128896	61	11985
2026-01-27 13:16:36.16	315.62	17.52	-46.4	-57.3	3.9	7.41e-01	0	43	104	402128896	64	12654
2026-01-27 13:16:39.19	316.20	17.24	-45.5	-56.3	3.8	7.45e-01	0	43	104	402128896	61	13305
2026-01-27 13:16:42.21	316.77	16.97	-44.4	-55.1	3.8	7.49e-01	0	43	104	402128896	60	12334
2026-01-27 13:16:45.23	317.32	16.70	-54.2	-70.2	3.9	7.41e-01	0	43	104	402128896	80	22173
2026-01-27 13:16:48.25	317.86	16.43	-45.2	-56.0	3.8	7.45e-01	0	43	104	402128896	62	12219
2026-01-27 13:16:51.27	318.40	16.16	-44.8	-55.5	3.8	7.43e-01	0	43	104	402128896	61	12129
2026-01-27 13:16:54.29	318.92	15.89	-53.1	-67.2	4.0	7.43e-01	0	43	104	402128896	78	17603
2026-01-27 13:16:57.31	319.44	15.62	-45.2	-55.9	3.8	7.45e-01	0	43	104	402128896	61	12786
2026-01-27 13:17:00.32	319.94	15.35	-45.1	-55.8	3.8	7.45e-01	0	43	104	402128896	61	12593
2026-01-27 13:17:03.34	320.44	15.09	-45.9	-56.8	3.8	7.43e-01	0	43	104	402128896	62	13331
2026-01-27 13:17:06.36	320.93	14.82	-44.7	-55.5	3.8	7.42e-01	0	43	104	402128896	61	12182
2026-01-27 13:17:09.38	321.40	14.56	-53.0	-66.9	3.9	7.46e-01	0	42	104	402128896	76	19082
2026-01-27 13:17:12.40	321.87	14.30	-45.1	-55.9	3.8	7.45e-01	0	43	104	402128896	61	12738
2026-01-27 13:17:15.42	322.34	14.04	-44.8	-55.6	3.8	7.46e-01	0	43	104	402128896	61	12365
2026-01-27 13:17:18.44	322.79	13.78	-45.6	-56.5	3.8	7.47e-01	0	43	104	402128896	63	12111
2026-01-27 13:17:21.47	323.24	13.52	-44.7	-55.5	3.8	7.44e-01	0	43	104	402128896	61	12148
2026-01-27 13:17:24.49	323.67	13.27	-47.9	-58.7	3.8	7.46e-01	0	43	104	402128896	65	13976
2026-01-27 13:17:27.52	324.10	13.01	-45.3	-56.0	3.8	7.43e-01	0	43	104	402128896	62	12166
2026-01-27 13:17:30.54	324.52	12.76	-44.8	-55.5	3.8	7.43e-01	0	43	104	402128896	61	12222
2026-01-27 13:17:33.57	324.94	12.51	-54.0	-70.2	3.8	7.46e-01	0	43	104	402128896	78	24808
2026-01-27 13:17:36.60	325.35	12.26	-45.0	-55.9	3.8	7.43e-01	0	43	104	402128896	61	12702
2026-01-27 13:17:39.62	325.75	12.01	-45.2	-56.1	3.8	7.45e-01	0	43	104	402128896	61	13025
2026-01-27 13:17:42.65	326.14	11.76	-45.0	-55.7	3.8	7.43e-01	0	43	104	402128896	61	12504
2026-01-27 13:17:45.66	326.53	11.52	-45.0	-55.8	3.8	7.43e-01	0	43	104	402128896	62	11835
2026-01-27 13:17:48.69	326.91	11.28	-53.4	-68.4	3.8	7.47e-01	0	43	104	402128896	77	21310
2026-01-27 13:17:51.71	327.28	11.04	-45.2	-56.1	3.8	7.44e-01	0	43	104	402128896	62	12235
2026-01-27 13:17:54.74	327.65	10.80	-45.0	-55.8	3.8	7.47e-01	0	43	104	402128896	62	11901
2026-01-27 13:17:57.77	328.01	10.56	-50.1	-62.2	3.8	7.45e-01	0	43	104	402128896	72	13929
2026-01-27 13:18:00.79	328.37	10.32	-45.4	-56.2	3.8	7.44e-01	0	43	104	402128896	62	12503
2026-01-27 13:18:03.81	328.72	10.09	-45.4	-56.3	3.8	7.48e-01	0	43	104	402128896	62	12557
2026-01-27 13:18:06.84	329.06	9.86	-46.4	-57.2	3.8	7.42e-01	0	43	104	402128896	63	13193
2026-01-27 13:18:09.86	329.40	9.62	-45.7	-56.5	3.8	7.44e-01	0	43	104	402128896	62	12952
2026-01-27 13:18:12.89	329.73	9.39	-53.9	-71.3	3.8	7.45e-01	0	43	104	402128896	78	28142
2026-01-27 13:18:15.91	330.06	9.17	-45.6	-56.5	3.8	7.44e-01	0	43	104	402128896	63	12142
2026-01-27 13:18:18.93	330.38	8.94	-46.9	-58.1	3.8	7.41e-01	0	43	104	402128896	64	13799
2026-01-27 13:18:21.96	330.70	8.71	-50.1	-62.3	3.8	7.50e-01	0	43	104	402128896	72	14110
2026-01-27 13:18:24.98	331.01	8.49	-45.8	-56.9	3.8	7.43e-01	0	43	104	402128896	63	12752
2026-01-27 13:18:28.00	331.32	8.27	-45.7	-56.7	3.9	7.46e-01	0	43	104	402128896	63	12484
2026-01-27 13:18:31.03	331.62	8.05	-47.0	-58.2	3.8	7.43e-01	0	43	104	402128896	64	14016
2026-01-27 13:18:34.05	331.92	7.83	-45.8	-56.8	3.8	7.43e-01	0	43	104	402128896	63	12571
2026-01-27 13:18:37.07	332.21	7.61	-53.1	-70.7	3.8	7.45e-01	0	43	104	402128896	77	28018
2026-01-27 13:18:40.09	332.50	7.40	-46.0	-56.9	3.8	7.46e-01	0	43	104	402128896	63	12797
2026-01-27 13:18:43.11	332.78	7.18	-46.1	-57.2	3.9	7.44e-01	0	43	104	402128896	63	13187
2026-01-27 13:18:46.13	333.06	6.97	-48.5	-60.6	3.8	7.44e-01	0	43	104	402128896	69	13765
2026-01-27 13:18:49.14	333.34	6.76	-46.4	-57.4	3.8	7.44e-01	0	43	104	402128896	63	13501
2026-01-27 13:18:52.17	333.61	6.55	-46.0	-47.6	22.0	6.00e-01	0	43	104	402128896	63	4346
2026-01-27 13:18:55.18	333.88	6.34	-47.2	-49.0	21.5	6.04e-01	0	43	0	405798912	65	4562
2026-01-27 13:18:58.20	334.14	6.14	-46.3	-48.0	22.4	6.04e-01	0	43	0	411566080	63	4555
2026-01-27 13:19:01.23	334.40	5.93	-46.0	-47.6	22.8	6.03e-01	0	43	0	417333248	63	4361
2026-01-27 13:19:04.25	334.66	5.73	-45.7	-47.3	23.0	6.03e-01	0	43	0	422576128	63	4203
2026-01-27 13:19:07.27	334.91	5.52	-46.1	-47.8	22.6	6.04e-01	0	43	0	428343296	63	4464
2026-01-27 13:19:10.28	335.16	5.32	-46.2	-47.8	22.5	6.02e-01	0	43	0	434110464	63	4475
2026-01-27 13:19:13.31	335.40	5.12	-46.2	-47.9	22.3	6.01e-01	0	43	0	439877632	63	4512
2026-01-27 13:19:16.33	335.64	4.92	-51.9	-70.4	3.8	7.49e-01	0	43	104	444071936	75	30312
2026-01-27 13:19:19.35	335.88	4.72	-49.8	-67.5	3.8	7.43e-01	0	43	104	444071936	71	27249
2026-01-27 13:19:22.38	336.12	4.53	-49.8	-67.6	3.8	7.42e-01	0	43	104	444071936	71	27582
2026-01-27 13:19:25.41	336.35	4.33	-49.8	-67.6	3.8	7.45e-01	0	43	104	444071936	71	27631
2026-01-27 13:19:28.43	336.58	4.14	-49.8	-67.6	3.8	7.47e-01	0	43	104	444071936	71	27630
2026-01-27 13:19:31.45	336.81	3.95	-49.8	-67.6	3.8	7.45e-01	0	43	104	444071936	71	27491
2026-01-27 13:19:34.48	337.03	3.75	-49.7	-67.5	3.8	7.46e-01	0	43	104	444071936	71	27232
2026-01-27 13:19:37.51	337.25	3.56	-49.7	-67.4	3.8	7.45e-01	0	43	104	444071936	71	26891
2026-01-27 13:19:40.53	337.47	3.37	-49.7	-67.5	3.8	7.45e-01	0	43	104	444071936	71	27268
2026-01-27 13:19:43.55	337.68	3.19	-49.7	-67.6	3.8	7.44e-01	0	43	104	444071936	71	27452
2026-01-27 13:19:46.57	337.89	3.00	-49.7	-67.6	3.8	7.47e-01	0	43	104	444071936	71	27430
2026-01-27 13:19:49.60	338.10	2.81	-49.7	-67.6	3.8	7.42e-01	0	43	104	444071936	71	27475
2026-01-27 13:19:52.63	338.31	2.63	-49.7	-67.6	3.8	7.44e-01	0	43	104	444071936	71	27433
2026-01-27 13:19:55.65	338.51	2.44	-49.7	-67.6	3.8	7.46e-01	0	43	104	444071936	71	27420
2026-01-27 13:19:58.67	338.71	2.26	-49.7	-67.6	3.8	7.43e-01	0	43	104	444071936	71	27462
2026-01-27 13:20:01.70	338.91	2.08	-49.7	-67.5	3.8	7.44e-01	0	43	104	444071936	71	27337

#Closed at: 2026-01-27 13:20:04
#Recorded file [444 MB]: D:/lorett/data/31041_260127_160802.dat