passes_logs/2026/01/27/R3.2S_Murmansk/R3.2S_Murmansk__20260127_060553_NOAA_20_JPSS-1_rec.log

#Pass ID: 20260127_060553_NOAA 20 (JPSS-1)
#Satellite: NOAA 20 (JPSS-1)
#Configuration: NOAA 20
#almurnet v.1.7.20251203
#Start time: 2026-01-27 06:05:53

#Version: 2.2.20231116
#Station: R3.2S_Murmansk
#Location: 33.079688 lon 68.888172 lat
#TLE: 1 43013U 17073A   26026.46665230  .00000148  00000+0  91302-4 0  9998
#TLE: 2 43013  98.7646 327.2856 0001008  22.9532 337.1688 14.19540616424360

#Time	Az	El	Level	Level2	SNR	BER	BlckErr	Temp	State	Recorded	gain1	gain2
2026-01-27 06:05:53.61	77.52	2.00	-54.0	-69.0	3.8	1.49e+00	0	41	0	0	79	20509
2026-01-27 06:05:57.64	77.28	2.24	-54.2	-69.2	3.8	1.49e+00	0	41	104	0	79	20932
2026-01-27 06:06:01.67	77.03	2.47	-54.1	-69.1	3.8	1.49e+00	0	41	104	0	79	20582
2026-01-27 06:06:05.70	76.78	2.71	-53.9	-68.9	3.8	1.49e+00	0	41	104	0	79	20079
2026-01-27 06:06:09.74	76.52	2.94	-53.4	-68.2	3.8	1.49e+00	0	41	104	0	78	19823
2026-01-27 06:06:13.77	76.26	3.18	-52.7	-67.7	3.8	1.49e+00	0	41	104	0	77	19701
2026-01-27 06:06:17.79	75.99	3.42	-52.0	-67.0	3.8	1.49e+00	0	41	104	0	76	19207
2026-01-27 06:06:21.81	75.72	3.66	-52.0	-66.9	3.8	1.49e+00	0	42	104	0	76	19126
2026-01-27 06:06:25.84	75.45	3.90	-52.0	-66.9	3.8	1.49e+00	0	41	104	0	76	19045
2026-01-27 06:06:29.88	75.17	4.15	-51.9	-64.9	3.8	1.49e+00	0	42	104	0	75	16040
2026-01-27 06:06:33.91	74.88	4.39	-51.8	-64.1	3.9	1.46e+00	0	42	104	0	75	14680
2026-01-27 06:06:37.94	74.59	4.64	-51.4	-59.7	6.1	3.64e-01	0	42	0	3145728	74	9328
2026-01-27 06:06:41.97	74.29	4.89	-50.1	-54.9	10.8	3.51e-03	0	42	0	10485760	72	6021
2026-01-27 06:06:46.00	73.99	5.14	-48.2	-50.8	15.3	7.00e-07	0	42	0	17825792	68	4749
2026-01-27 06:06:50.03	73.69	5.39	-48.1	-50.7	15.4	0.00e+00	0	42	0	23068672	68	4673
2026-01-27 06:06:54.05	73.37	5.64	-47.7	-50.0	16.1	0.00e+00	0	42	0	30408704	67	4559
2026-01-27 06:06:58.09	73.06	5.90	-47.7	-50.1	16.1	0.00e+00	0	42	0	37748736	67	4611
2026-01-27 06:07:02.12	72.73	6.16	-48.1	-50.7	15.5	0.00e+00	0	42	0	46137344	67	4941
2026-01-27 06:07:06.15	72.40	6.42	-47.7	-50.0	16.2	0.00e+00	0	42	0	53477376	67	4589
2026-01-27 06:07:10.18	72.07	6.68	-47.9	-50.2	16.1	0.00e+00	0	42	0	60817408	67	4689
2026-01-27 06:07:14.21	71.72	6.94	-47.9	-50.2	16.1	0.00e+00	0	42	0	68157440	67	4667
2026-01-27 06:07:18.24	71.38	7.20	-47.6	-49.9	16.5	0.00e+00	0	42	0	76546048	67	4499
2026-01-27 06:07:22.27	71.02	7.47	-47.6	-49.8	16.6	0.00e+00	0	42	0	83886080	67	4442
2026-01-27 06:07:26.30	70.66	7.73	-47.6	-49.7	16.7	0.00e+00	0	42	0	91226112	66	4694
2026-01-27 06:07:30.33	70.29	8.00	-47.6	-49.8	16.6	0.00e+00	0	42	0	98566144	66	4730
2026-01-27 06:07:34.36	69.91	8.27	-47.6	-49.8	16.7	0.00e+00	0	42	0	105906176	66	4708
2026-01-27 06:07:38.38	69.53	8.54	-47.5	-49.7	16.8	0.00e+00	0	42	0	114294784	66	4660
2026-01-27 06:07:42.41	69.14	8.82	-47.7	-50.0	16.5	0.00e+00	0	42	0	121634816	66	4819
2026-01-27 06:07:46.43	68.74	9.09	-47.4	-49.4	17.1	0.00e+00	0	42	0	128974848	66	4531
2026-01-27 06:07:50.46	68.34	9.37	-47.3	-49.3	17.2	0.00e+00	0	43	0	136314880	66	4482
2026-01-27 06:07:54.47	67.93	9.64	-47.1	-49.0	17.5	0.00e+00	0	42	0	143654912	66	4312
2026-01-27 06:07:58.50	67.50	9.92	-46.9	-48.8	17.8	0.00e+00	0	42	0	150994944	65	4443
2026-01-27 06:08:02.52	67.07	10.21	-47.0	-48.8	17.7	0.00e+00	0	43	0	159383552	65	4470
2026-01-27 06:08:06.56	66.63	10.49	-46.9	-48.8	17.8	0.00e+00	0	42	0	166723584	65	4466
2026-01-27 06:08:10.59	66.18	10.77	-47.2	-49.1	17.4	0.00e+00	0	42	0	174063616	65	4648
2026-01-27 06:08:14.63	65.73	11.06	-47.2	-49.1	17.5	0.00e+00	0	43	0	181403648	65	4638
2026-01-27 06:08:18.66	65.26	11.35	-47.1	-48.9	17.7	0.00e+00	0	42	0	189792256	65	4531
2026-01-27 06:08:22.69	64.78	11.64	-47.0	-48.8	17.8	0.00e+00	0	43	0	197132288	65	4484
2026-01-27 06:08:26.71	64.30	11.93	-46.9	-48.7	17.9	0.00e+00	0	42	0	204472320	65	4430
2026-01-27 06:08:30.74	63.80	12.22	-46.9	-48.7	18.0	0.00e+00	0	43	0	211812352	65	4403
2026-01-27 06:08:34.77	63.30	12.51	-46.7	-48.4	18.2	0.00e+00	0	42	0	219152384	65	4290
2026-01-27 06:08:38.80	62.78	12.81	-46.5	-48.1	18.6	0.00e+00	0	43	0	227540992	64	4364
2026-01-27 06:08:42.83	62.25	13.11	-46.4	-48.0	18.7	0.00e+00	0	42	0	234881024	64	4322
2026-01-27 06:08:46.85	61.72	13.40	-46.5	-48.2	18.5	0.00e+00	0	43	0	242221056	64	4417
2026-01-27 06:08:50.89	61.17	13.70	-46.4	-48.1	18.6	0.00e+00	0	43	0	249561088	64	4362
2026-01-27 06:08:54.92	60.61	14.00	-46.5	-48.1	18.6	0.00e+00	0	43	0	256901120	64	4380
2026-01-27 06:08:58.96	60.03	14.30	-46.2	-47.8	18.9	0.00e+00	0	43	0	265289728	64	4222
2026-01-27 06:09:02.98	59.45	14.60	-46.2	-47.8	19.0	0.00e+00	0	43	0	272629760	63	4469
2026-01-27 06:09:07.01	58.85	14.90	-46.0	-47.5	19.4	0.00e+00	0	43	0	279969792	63	4308
2026-01-27 06:09:11.04	58.24	15.20	-46.2	-47.7	19.2	0.00e+00	0	43	0	287309824	63	4409
2026-01-27 06:09:15.06	57.62	15.51	-46.3	-47.9	19.0	0.00e+00	0	43	0	294649856	63	4508
2026-01-27 06:09:19.08	56.99	15.81	-46.4	-47.9	19.0	0.00e+00	0	43	0	303038464	63	4541
2026-01-27 06:09:23.10	56.35	16.11	-46.4	-48.0	18.9	0.00e+00	0	43	0	310378496	63	4581
2026-01-27 06:09:27.13	55.68	16.41	-46.6	-48.2	18.7	0.00e+00	0	43	0	317718528	63	4704
2026-01-27 06:09:31.15	55.01	16.71	-46.5	-48.1	18.9	0.00e+00	0	42	0	325058560	63	4602
2026-01-27 06:09:35.17	54.33	17.01	-46.5	-48.1	18.8	0.00e+00	0	43	0	332398592	63	4626
2026-01-27 06:09:39.20	53.62	17.32	-46.7	-48.4	18.5	0.00e+00	0	43	0	340787200	64	4500
2026-01-27 06:09:43.23	52.91	17.62	-46.6	-48.3	18.5	0.00e+00	0	43	0	348127232	64	4467
2026-01-27 06:09:47.26	52.18	17.91	-46.5	-48.1	18.8	0.00e+00	0	43	0	355467264	64	4351
2026-01-27 06:09:51.29	51.43	18.21	-46.4	-48.0	18.9	0.00e+00	0	43	0	362807296	64	4326
2026-01-27 06:09:55.31	50.67	18.51	-46.2	-47.8	19.1	0.00e+00	0	43	0	370147328	64	4206
2026-01-27 06:09:59.34	49.89	18.80	-46.1	-47.5	19.3	0.00e+00	0	43	0	378535936	64	4097
2026-01-27 06:10:03.37	49.10	19.09	-46.1	-47.5	19.5	0.00e+00	0	43	0	385875968	63	4329
2026-01-27 06:10:07.40	48.30	19.38	-45.6	-47.0	20.0	0.00e+00	0	43	0	393216000	63	4071
2026-01-27 06:10:11.42	47.48	19.67	-45.2	-46.5	20.5	0.00e+00	0	43	0	400556032	62	4057
2026-01-27 06:10:15.45	46.64	19.95	-44.6	-45.8	21.1	0.00e+00	0	43	0	407896064	61	3985
2026-01-27 06:10:19.48	45.78	20.23	-44.7	-45.9	21.1	0.00e+00	0	43	0	416284672	61	4019
2026-01-27 06:10:23.51	44.92	20.51	-44.5	-45.7	21.2	0.00e+00	0	43	0	423624704	60	4186
2026-01-27 06:10:27.53	44.03	20.78	-44.5	-45.7	21.2	0.00e+00	0	43	0	430964736	60	4149
2026-01-27 06:10:31.57	43.13	21.05	-44.2	-45.3	21.6	0.00e+00	0	43	0	438304768	60	3983
2026-01-27 06:10:35.60	42.21	21.32	-44.1	-45.3	21.5	0.00e+00	0	42	0	445644800	60	3968
2026-01-27 06:10:39.63	41.28	21.57	-44.3	-45.4	21.8	0.00e+00	0	43	0	454033408	59	4288
2026-01-27 06:10:43.66	40.33	21.83	-44.3	-45.5	21.5	0.00e+00	0	43	0	461373440	60	4067
2026-01-27 06:10:47.69	39.37	22.07	-44.7	-45.9	21.1	0.00e+00	0	43	0	468713472	60	4262
2026-01-27 06:10:51.73	38.39	22.31	-44.5	-45.7	21.3	0.00e+00	0	43	0	476053504	60	4169
2026-01-27 06:10:55.76	37.39	22.55	-44.3	-45.4	21.6	0.00e+00	0	43	0	484442112	60	4022
2026-01-27 06:10:59.79	36.38	22.77	-44.1	-45.2	21.8	0.00e+00	0	43	0	491782144	60	3951
2026-01-27 06:11:03.81	35.36	22.99	-44.2	-45.3	21.7	0.00e+00	0	43	0	499122176	60	3965
2026-01-27 06:11:07.84	34.33	23.20	-44.1	-45.1	21.8	0.00e+00	0	43	0	506462208	60	3910
2026-01-27 06:11:11.87	33.27	23.40	-44.1	-45.1	22.2	0.00e+00	0	43	0	513802240	59	4145
2026-01-27 06:11:15.90	32.21	23.59	-44.1	-45.2	22.1	0.00e+00	0	43	0	521142272	59	4158
2026-01-27 06:11:19.93	31.13	23.77	-44.5	-45.6	21.7	0.00e+00	0	43	0	529530880	59	4381
2026-01-27 06:11:23.97	30.04	23.94	-44.7	-45.8	21.6	0.00e+00	0	43	0	536870912	59	4490
2026-01-27 06:11:27.99	28.94	24.11	-44.4	-45.5	21.5	0.00e+00	0	43	0	544210944	60	4084
2026-01-27 06:11:32.03	27.82	24.26	-45.1	-46.4	20.8	0.00e+00	0	43	0	551550976	60	4496
2026-01-27 06:11:36.06	26.70	24.40	-45.4	-46.7	20.5	0.00e+00	0	43	0	559939584	61	4410
2026-01-27 06:11:40.09	25.57	24.53	-45.5	-46.8	20.3	0.00e+00	0	43	0	567279616	61	4446
2026-01-27 06:11:44.13	24.42	24.64	-45.7	-47.0	20.1	0.00e+00	0	43	0	574619648	62	4339
2026-01-27 06:11:48.15	23.28	24.75	-45.7	-47.0	20.1	0.00e+00	0	43	0	581959680	62	4321
2026-01-27 06:11:52.18	22.12	24.84	-45.9	-47.3	19.9	0.00e+00	0	43	0	589299712	62	4487
2026-01-27 06:11:56.21	20.96	24.92	-46.2	-47.7	19.5	0.00e+00	0	43	0	597688320	63	4418
2026-01-27 06:12:00.23	19.79	24.99	-45.9	-47.2	20.0	0.00e+00	0	43	0	605028352	63	4190
2026-01-27 06:12:04.25	18.62	25.04	-46.0	-47.4	19.8	0.00e+00	0	43	0	612368384	63	4276
2026-01-27 06:12:08.27	17.44	25.08	-46.3	-47.8	19.5	0.00e+00	0	43	0	619708416	63	4463
2026-01-27 06:12:12.30	16.27	25.11	-46.0	-47.4	19.8	0.00e+00	0	43	0	627048448	63	4289
2026-01-27 06:12:16.33	15.08	25.13	-45.8	-47.1	20.1	0.00e+00	0	43	0	635437056	63	4130
2026-01-27 06:12:20.36	13.90	25.13	-45.4	-46.7	20.4	0.00e+00	0	43	0	642777088	62	4182
2026-01-27 06:12:24.39	12.72	25.12	-45.0	-46.2	20.9	0.00e+00	0	43	0	650117120	62	3935
2026-01-27 06:12:28.41	11.54	25.09	-44.8	-46.0	21.1	0.00e+00	0	43	0	657457152	61	4075
2026-01-27 06:12:32.44	10.37	25.05	-44.5	-45.6	21.5	0.00e+00	0	43	0	664797184	60	4124
2026-01-27 06:12:36.47	9.19	25.00	-44.3	-45.4	21.7	0.00e+00	0	43	0	673185792	60	4023
2026-01-27 06:12:40.50	8.02	24.94	-44.2	-45.2	22.1	0.00e+00	0	43	0	680525824	59	4190
2026-01-27 06:12:44.52	6.86	24.86	-44.1	-45.2	22.2	0.00e+00	0	43	0	687865856	59	4166
2026-01-27 06:12:48.54	5.71	24.77	-44.0	-45.1	22.3	0.00e+00	0	43	0	695205888	59	4101
2026-01-27 06:12:52.57	4.55	24.67	-44.2	-45.3	22.1	0.00e+00	0	43	0	702545920	59	4208
2026-01-27 06:12:56.60	3.41	24.55	-44.4	-45.5	21.9	0.00e+00	0	43	0	710934528	59	4317
2026-01-27 06:13:00.63	2.28	24.43	-44.4	-45.5	21.9	0.00e+00	0	43	0	718274560	59	4304
2026-01-27 06:13:04.66	1.15	24.29	-44.5	-45.7	21.5	0.00e+00	0	43	0	725614592	60	4148
2026-01-27 06:13:08.69	0.04	24.14	-44.5	-45.7	21.5	0.00e+00	0	43	0	732954624	60	4151
2026-01-27 06:13:12.71	358.94	23.98	-44.8	-46.0	21.1	0.00e+00	0	43	0	740294656	60	4326
2026-01-27 06:13:16.74	357.85	23.81	-45.0	-46.2	20.9	0.00e+00	0	43	0	748683264	60	4418
2026-01-27 06:13:20.77	356.77	23.63	-45.4	-46.6	20.5	0.00e+00	0	43	0	756023296	61	4384
2026-01-27 06:13:24.80	355.70	23.44	-45.7	-47.0	20.2	0.00e+00	0	43	0	763363328	61	4570
2026-01-27 06:13:28.83	354.65	23.24	-45.6	-46.9	20.3	0.00e+00	0	43	0	770703360	61	4518
2026-01-27 06:13:32.87	353.60	23.04	-45.9	-47.3	19.9	0.00e+00	0	43	0	778043392	62	4447
2026-01-27 06:13:36.89	352.58	22.82	-45.7	-47.0	20.1	0.00e+00	0	43	0	786432000	62	4334
2026-01-27 06:13:40.92	351.57	22.60	-45.9	-47.3	19.9	0.00e+00	0	43	0	793772032	62	4492
2026-01-27 06:13:44.94	350.57	22.37	-46.1	-47.6	19.6	0.00e+00	0	43	0	801112064	63	4351
2026-01-27 06:13:48.96	349.60	22.13	-45.7	-47.1	20.1	0.00e+00	0	43	0	808452096	63	4111
2026-01-27 06:13:52.99	348.63	21.89	-46.0	-47.4	19.8	0.00e+00	0	43	0	815792128	63	4249
2026-01-27 06:13:57.02	347.68	21.63	-45.5	-46.8	20.4	0.00e+00	0	43	0	824180736	62	4198
2026-01-27 06:14:01.05	346.74	21.38	-45.2	-46.5	20.6	0.00e+00	0	43	0	831520768	62	4053
2026-01-27 06:14:05.07	345.83	21.12	-45.1	-46.3	20.8	0.00e+00	0	43	0	838860800	61	4219
2026-01-27 06:14:09.10	344.92	20.85	-45.2	-46.5	20.6	0.00e+00	0	43	0	846200832	61	4308
2026-01-27 06:14:13.13	344.04	20.58	-45.1	-46.4	20.7	0.00e+00	0	43	0	853540864	61	4244
2026-01-27 06:14:17.17	343.16	20.30	-45.0	-46.2	20.8	0.00e+00	0	43	0	861929472	61	4187
2026-01-27 06:14:21.19	342.31	20.02	-45.0	-46.3	20.7	0.00e+00	0	43	0	869269504	61	4208
2026-01-27 06:14:25.22	341.47	19.74	-45.2	-46.4	20.6	0.00e+00	0	43	0	876609536	61	4279
2026-01-27 06:14:29.25	340.64	19.45	-45.1	-46.4	20.7	0.00e+00	0	43	0	883949568	61	4243
2026-01-27 06:14:33.28	339.83	19.17	-44.8	-46.0	21.0	0.00e+00	0	43	0	891289600	61	4093
2026-01-27 06:14:37.31	339.04	18.87	-44.7	-45.9	21.1	0.00e+00	0	43	0	899678208	61	4035
2026-01-27 06:14:41.33	338.26	18.58	-44.6	-45.7	21.2	0.00e+00	0	43	0	907018240	61	3954
2026-01-27 06:14:45.34	337.50	18.29	-44.4	-45.6	21.4	0.00e+00	0	42	0	914358272	60	4112
2026-01-27 06:14:49.38	336.75	17.99	-44.2	-45.3	21.6	0.00e+00	0	42	0	921698304	60	3987
2026-01-27 06:14:53.41	336.02	17.69	-44.4	-45.5	21.4	0.00e+00	0	43	0	929038336	60	4081
2026-01-27 06:14:57.44	335.30	17.39	-44.2	-45.3	21.6	0.00e+00	0	43	0	937426944	60	4002
2026-01-27 06:15:01.47	334.60	17.09	-44.2	-45.3	21.6	0.00e+00	0	43	0	944766976	60	3991
2026-01-27 06:15:05.49	333.91	16.79	-44.5	-45.7	21.6	0.00e+00	0	43	0	952107008	59	4401
2026-01-27 06:15:09.52	333.23	16.49	-44.3	-45.5	21.4	0.00e+00	0	43	0	959447040	60	4066
2026-01-27 06:15:13.54	332.57	16.19	-44.4	-45.5	21.4	0.00e+00	0	43	0	966787072	60	4092
2026-01-27 06:15:17.57	331.92	15.89	-44.4	-45.5	21.3	0.00e+00	0	43	0	975175680	60	4097
2026-01-27 06:15:21.60	331.29	15.58	-44.5	-45.6	21.3	0.00e+00	0	43	0	982515712	60	4139
2026-01-27 06:15:25.62	330.66	15.28	-44.7	-45.9	21.0	0.00e+00	0	43	0	989855744	60	4274
2026-01-27 06:15:29.65	330.05	14.98	-45.2	-46.6	20.4	0.00e+00	0	43	0	997195776	61	4345
2026-01-27 06:15:33.67	329.46	14.68	-45.3	-46.7	20.3	0.00e+00	0	43	0	1004535808	61	4392
2026-01-27 06:15:37.69	328.87	14.38	-45.2	-46.5	20.4	0.00e+00	0	43	0	1012924416	61	4312
2026-01-27 06:15:41.73	328.30	14.08	-45.3	-46.6	20.3	0.00e+00	0	43	0	1020264448	61	4363
2026-01-27 06:15:45.74	327.74	13.78	-45.5	-46.9	20.0	0.00e+00	0	43	0	1027604480	61	4513
2026-01-27 06:15:49.77	327.19	13.49	-45.5	-46.8	20.0	0.00e+00	0	43	0	1034944512	61	4492
2026-01-27 06:15:53.80	326.65	13.19	-45.6	-47.0	19.9	0.00e+00	0	43	0	1042284544	61	4549
2026-01-27 06:15:57.83	326.12	12.89	-45.8	-47.3	19.6	0.00e+00	0	43	0	1050673152	62	4444
2026-01-27 06:16:01.85	325.60	12.60	-45.6	-47.0	19.9	0.00e+00	0	43	0	1058013184	62	4297
2026-01-27 06:16:05.87	325.10	12.31	-45.9	-47.3	19.5	0.00e+00	0	43	0	1065353216	62	4485
2026-01-27 06:16:09.91	324.60	12.01	-46.1	-47.6	19.3	0.00e+00	0	43	0	1072693248	62	4605
2026-01-27 06:16:13.93	324.11	11.72	-46.0	-47.4	19.4	0.00e+00	0	43	0	1080033280	62	4537
2026-01-27 06:16:17.95	323.64	11.43	-46.2	-47.7	19.1	0.00e+00	0	43	0	1088421888	62	4700
2026-01-27 06:16:21.98	323.17	11.15	-46.4	-48.0	18.8	0.00e+00	0	43	0	1095761920	63	4559
2026-01-27 06:16:26.00	322.71	10.86	-46.5	-48.2	18.6	0.00e+00	0	43	0	1103101952	63	4671
2026-01-27 06:16:30.03	322.26	10.58	-46.6	-48.3	18.4	0.00e+00	0	43	0	1110441984	64	4463
2026-01-27 06:16:34.06	321.82	10.29	-46.8	-48.6	18.1	0.00e+00	0	43	0	1117782016	64	4619
2026-01-27 06:16:38.08	321.39	10.01	-46.8	-48.6	18.1	0.00e+00	0	43	0	1126170624	64	4631
2026-01-27 06:16:42.11	320.97	9.73	-47.1	-49.0	17.6	0.00e+00	0	43	0	1133510656	64	4862
2026-01-27 06:16:46.14	320.55	9.45	-47.0	-48.8	17.8	0.00e+00	0	43	0	1140850688	65	4486
2026-01-27 06:16:50.16	320.15	9.18	-47.1	-49.0	17.6	0.00e+00	0	43	0	1148190720	65	4550
2026-01-27 06:16:54.19	319.75	8.90	-46.9	-48.8	17.8	0.00e+00	0	43	0	1155530752	65	4443
2026-01-27 06:16:58.21	319.36	8.63	-46.9	-48.7	17.8	0.00e+00	0	43	0	1163919360	65	4439
2026-01-27 06:17:02.23	318.97	8.36	-47.0	-48.9	17.7	0.00e+00	0	43	0	1171259392	65	4501
2026-01-27 06:17:06.25	318.60	8.09	-47.1	-49.1	17.4	0.00e+00	0	43	0	1178599424	65	4609
2026-01-27 06:17:10.27	318.23	7.82	-47.2	-49.2	17.3	0.00e+00	0	43	0	1185939456	65	4673
2026-01-27 06:17:14.30	317.87	7.55	-47.3	-49.3	17.1	0.00e+00	0	43	0	1193279488	65	4759
2026-01-27 06:17:18.32	317.51	7.29	-47.6	-49.7	16.7	0.00e+00	0	43	0	1201668096	65	4977
2026-01-27 06:17:22.33	317.16	7.03	-47.9	-50.2	16.1	0.00e+00	0	43	0	1209008128	66	4969
2026-01-27 06:17:26.36	316.82	6.76	-47.9	-50.2	16.1	0.00e+00	0	43	0	1216348160	66	4964
2026-01-27 06:17:30.39	316.48	6.50	-47.8	-50.1	16.2	0.00e+00	0	43	0	1223688192	66	4914
2026-01-27 06:17:34.42	316.15	6.24	-47.9	-50.3	15.9	0.00e+00	0	43	0	1231028224	66	5036
2026-01-27 06:17:38.45	315.83	5.99	-47.9	-50.3	15.9	0.00e+00	0	43	0	1239416832	66	4984
2026-01-27 06:17:42.49	315.51	5.73	-48.2	-50.9	15.2	0.00e+00	0	43	0	1246756864	66	5354
2026-01-27 06:17:46.52	315.20	5.48	-48.0	-50.5	15.6	0.00e+00	0	43	0	1254096896	67	4836
2026-01-27 06:17:50.55	314.89	5.23	-48.0	-50.6	15.4	0.00e+00	0	43	0	1261436928	67	4883
2026-01-27 06:17:54.59	314.59	4.98	-49.7	-53.7	12.6	0.00e+00	0	43	0	1268776960	69	6245
2026-01-27 06:17:58.62	314.29	4.73	-52.7	-67.7	3.8	1.49e+00	0	43	104	1269825536	76	20869
2026-01-27 06:18:02.65	314.00	4.48	-52.8	-67.7	3.8	1.49e+00	0	43	104	1269825536	76	20974
2026-01-27 06:18:06.68	313.72	4.23	-53.0	-68.0	3.8	1.49e+00	0	43	104	1269825536	76	21567
2026-01-27 06:18:10.71	313.44	3.99	-53.2	-68.1	3.8	1.49e+00	0	43	104	1269825536	76	21999
2026-01-27 06:18:14.73	313.16	3.75	-53.2	-68.2	3.8	1.49e+00	0	43	104	1269825536	77	20868
2026-01-27 06:18:18.77	312.89	3.51	-53.2	-68.1	3.8	1.49e+00	0	43	104	1269825536	77	20705
2026-01-27 06:18:22.80	312.62	3.27	-53.2	-68.1	3.8	1.49e+00	0	43	104	1269825536	77	20722
2026-01-27 06:18:26.83	312.36	3.03	-53.2	-68.1	3.8	1.49e+00	0	43	104	1269825536	77	20726
2026-01-27 06:18:30.86	312.10	2.79	-53.2	-68.1	3.8	1.49e+00	0	43	104	1269825536	77	20703
2026-01-27 06:18:34.89	311.85	2.56	-53.1	-68.1	3.8	1.49e+00	0	43	104	1269825536	77	20645
2026-01-27 06:18:38.91	311.60	2.32	-53.1	-68.1	3.8	1.49e+00	0	43	104	1269825536	77	20641
2026-01-27 06:18:42.94	311.36	2.09	-53.1	-68.1	3.8	1.49e+00	0	43	104	1269825536	77	20637

#Closed at: 2026-01-27 06:18:46
#Recorded file [1269 MB]: D:/lorett/data/31041_260127_090553.dat