passes_logs/2026/01/27/R3.2S_Murmansk/R3.2S_Murmansk__20260127_040639_SUOMI_NPP_rec.log

#Pass ID: 20260127_040639_SUOMI NPP
#Satellite: SUOMI NPP
#Configuration: NPP
#almurnet v.1.7.20251203
#Start time: 2026-01-27 04:06:39

#Version: 2.2.20231116
#Station: R3.2S_Murmansk
#Location: 33.079688 lon 68.888172 lat
#TLE: 1 37849U 11061A   26026.52266023  .00000173  00000+0  10323-3 0  9994
#TLE: 2 37849  98.7822 328.4727 0002140  43.9411 316.1934 14.19530258738341

#Time	Az	El	Level	Level2	SNR	BER	BlckErr	Temp	State	Recorded	gain1	gain2
2026-01-27 04:06:39.85	47.48	2.02	-54.0	-69.0	3.8	1.49e+00	0	41	0	0	79	20476
2026-01-27 04:06:43.87	47.24	2.26	-54.0	-69.0	3.8	1.49e+00	0	41	104	0	78	21627
2026-01-27 04:06:47.91	46.99	2.49	-54.1	-69.1	3.8	1.49e+00	0	41	104	0	78	21847
2026-01-27 04:06:51.94	46.74	2.73	-54.2	-69.2	3.8	1.49e+00	0	41	104	0	79	20875
2026-01-27 04:06:55.97	46.49	2.96	-54.1	-69.0	3.8	1.49e+00	0	41	104	0	79	20535
2026-01-27 04:06:59.99	46.23	3.20	-54.0	-69.0	3.8	1.49e+00	0	41	104	0	79	20320
2026-01-27 04:07:04.01	45.97	3.44	-53.7	-68.6	3.8	1.49e+00	0	41	104	0	79	19582
2026-01-27 04:07:08.04	45.71	3.68	-53.1	-68.1	3.8	1.49e+00	0	41	104	0	78	19390
2026-01-27 04:07:12.07	45.44	3.93	-52.0	-65.8	3.8	1.49e+00	0	42	104	0	76	16738
2026-01-27 04:07:16.10	45.16	4.17	-51.9	-64.4	4.0	1.49e+00	0	42	104	0	75	15154
2026-01-27 04:07:20.14	44.88	4.42	-51.9	-65.1	3.8	1.49e+00	0	42	104	0	75	16399
2026-01-27 04:07:24.16	44.60	4.67	-51.6	-61.0	5.2	7.02e-01	0	42	0	3145728	75	10286
2026-01-27 04:07:28.19	44.31	4.92	-51.6	-61.0	5.2	5.44e-01	0	42	0	10485760	74	10880
2026-01-27 04:07:32.22	44.01	5.17	-51.5	-59.8	6.0	5.16e-01	0	42	0	17825792	74	9446
2026-01-27 04:07:36.25	43.71	5.42	-48.8	-51.9	14.0	4.80e-02	0	42	0	19922944	69	5044
2026-01-27 04:07:40.26	43.40	5.68	-47.8	-50.4	15.6	0.00e+00	0	42	0	27262976	67	4767
2026-01-27 04:07:44.29	43.09	5.93	-47.6	-50.0	15.9	0.00e+00	0	42	0	35651584	67	4588
2026-01-27 04:07:48.31	42.77	6.19	-47.7	-50.1	15.6	0.00e+00	0	42	0	42991616	67	4618
2026-01-27 04:07:52.34	42.45	6.45	-47.5	-49.8	16.1	0.00e+00	0	42	0	50331648	66	4714
2026-01-27 04:07:56.37	42.12	6.71	-47.4	-49.7	16.4	0.00e+00	0	42	0	57671680	66	4698
2026-01-27 04:08:00.40	41.78	6.98	-47.4	-49.7	16.5	0.00e+00	0	42	0	65011712	66	4675
2026-01-27 04:08:04.42	41.44	7.24	-47.5	-49.7	16.6	0.00e+00	0	42	0	73400320	66	4687
2026-01-27 04:08:08.45	41.09	7.51	-47.6	-49.9	16.5	0.00e+00	0	42	0	80740352	66	4773
2026-01-27 04:08:12.47	40.74	7.77	-47.3	-49.4	17.0	0.00e+00	0	42	0	88080384	66	4505
2026-01-27 04:08:16.50	40.37	8.04	-47.2	-49.2	17.1	0.00e+00	0	43	0	95420416	66	4434
2026-01-27 04:08:20.52	40.00	8.32	-47.2	-49.2	17.2	0.00e+00	0	42	0	102760448	66	4427
2026-01-27 04:08:24.56	39.63	8.59	-47.4	-49.6	16.9	0.00e+00	0	42	0	111149056	65	4876
2026-01-27 04:08:28.59	39.24	8.87	-47.6	-49.9	16.6	0.00e+00	0	43	0	118489088	65	5046
2026-01-27 04:08:32.62	38.85	9.14	-47.6	-49.9	16.6	0.00e+00	0	42	0	125829120	66	4770
2026-01-27 04:08:36.65	38.45	9.42	-47.2	-49.3	17.2	0.00e+00	0	42	0	133169152	66	4456
2026-01-27 04:08:40.67	38.04	9.70	-47.1	-49.2	17.2	0.00e+00	0	43	0	140509184	66	4430
2026-01-27 04:08:44.70	37.62	9.99	-46.8	-48.8	17.8	0.00e+00	0	43	0	148897792	65	4447
2026-01-27 04:08:48.73	37.20	10.27	-47.0	-49.0	17.5	0.00e+00	0	42	0	156237824	65	4591
2026-01-27 04:08:52.77	36.76	10.56	-46.8	-48.7	17.8	0.00e+00	0	43	0	163577856	65	4437
2026-01-27 04:08:56.79	36.32	10.84	-46.7	-48.6	17.9	0.00e+00	0	43	0	170917888	65	4378
2026-01-27 04:09:00.82	35.87	11.13	-46.7	-48.6	18.0	0.00e+00	0	43	0	178257920	65	4372
2026-01-27 04:09:04.86	35.41	11.42	-46.7	-48.5	18.1	0.00e+00	0	42	0	186646528	65	4310
2026-01-27 04:09:08.89	34.94	11.72	-46.5	-48.3	18.3	0.00e+00	0	43	0	193986560	64	4464
2026-01-27 04:09:12.91	34.46	12.01	-46.8	-48.7	17.9	0.00e+00	0	42	0	201326592	64	4686
2026-01-27 04:09:16.94	33.97	12.31	-47.0	-48.8	17.8	0.00e+00	0	43	0	208666624	64	4751
2026-01-27 04:09:20.97	33.47	12.60	-47.1	-49.0	17.6	0.00e+00	0	43	0	217055232	64	4861
2026-01-27 04:09:25.00	32.96	12.90	-46.7	-48.5	18.1	0.00e+00	0	43	0	224395264	64	4595
2026-01-27 04:09:29.03	32.44	13.20	-46.5	-48.2	18.5	0.00e+00	0	43	0	231735296	64	4401
2026-01-27 04:09:33.05	31.91	13.50	-45.9	-47.5	19.2	0.00e+00	0	43	0	239075328	63	4293
2026-01-27 04:09:37.08	31.36	13.80	-45.9	-47.5	19.2	0.00e+00	0	43	0	246415360	63	4294
2026-01-27 04:09:41.11	30.81	14.11	-46.0	-47.6	19.1	0.00e+00	0	43	0	253755392	63	4368
2026-01-27 04:09:45.13	30.24	14.41	-46.1	-47.7	19.1	0.00e+00	0	43	0	262144000	63	4408
2026-01-27 04:09:49.17	29.66	14.72	-46.3	-47.9	18.9	0.00e+00	0	43	0	269484032	63	4516
2026-01-27 04:09:53.20	29.07	15.02	-45.8	-47.3	19.4	0.00e+00	0	43	0	276824064	63	4217
2026-01-27 04:09:57.24	28.46	15.33	-46.1	-47.7	19.1	0.00e+00	0	43	0	284164096	63	4394
2026-01-27 04:10:01.27	27.85	15.64	-45.7	-47.2	19.5	0.00e+00	0	43	0	292552704	63	4163
2026-01-27 04:10:05.29	27.22	15.94	-46.5	-48.3	18.5	0.00e+00	0	43	0	299892736	63	4747
2026-01-27 04:10:09.32	26.58	16.25	-46.6	-48.4	18.4	0.00e+00	0	43	0	307232768	64	4498
2026-01-27 04:10:13.35	25.92	16.56	-46.8	-48.6	18.2	0.00e+00	0	43	0	314572800	64	4630
2026-01-27 04:10:17.37	25.25	16.87	-46.5	-48.3	18.4	0.00e+00	0	43	0	321912832	64	4447
2026-01-27 04:10:21.41	24.57	17.17	-46.6	-48.3	18.4	0.00e+00	0	43	0	330301440	64	4485
2026-01-27 04:10:25.43	23.87	17.48	-46.7	-48.5	18.2	0.00e+00	0	43	0	337641472	64	4592
2026-01-27 04:10:29.46	23.16	17.79	-46.3	-47.9	18.8	0.00e+00	0	43	0	344981504	64	4288
2026-01-27 04:10:33.49	22.43	18.09	-46.2	-47.9	18.9	0.00e+00	0	43	0	352321536	63	4496
2026-01-27 04:10:37.53	21.68	18.40	-46.6	-48.3	18.6	0.00e+00	0	43	0	359661568	63	4733
2026-01-27 04:10:41.56	20.93	18.70	-45.9	-47.4	19.4	0.00e+00	0	43	0	368050176	63	4258
2026-01-27 04:10:45.59	20.15	19.00	-46.2	-47.7	19.1	0.00e+00	0	43	0	375390208	63	4431
2026-01-27 04:10:49.62	19.36	19.30	-46.4	-48.1	18.8	0.00e+00	0	43	0	382730240	63	4615
2026-01-27 04:10:53.65	18.56	19.60	-46.0	-47.6	19.3	0.00e+00	0	43	0	390070272	63	4357
2026-01-27 04:10:57.69	17.74	19.89	-46.0	-47.6	19.3	0.00e+00	0	43	0	397410304	63	4344
2026-01-27 04:11:01.71	16.90	20.18	-45.1	-46.5	20.2	0.00e+00	0	43	0	405798912	62	4061
2026-01-27 04:11:05.74	16.05	20.47	-45.2	-46.7	20.1	0.00e+00	0	43	0	413138944	62	4162
2026-01-27 04:11:09.78	15.18	20.76	-44.7	-46.0	20.6	0.00e+00	0	43	0	420478976	61	4090
2026-01-27 04:11:13.81	14.29	21.04	-44.7	-46.0	20.7	0.00e+00	0	43	0	427819008	60	4333
2026-01-27 04:11:17.85	13.39	21.32	-44.9	-46.3	20.4	0.00e+00	0	43	0	436207616	60	4459
2026-01-27 04:11:21.88	12.47	21.59	-44.9	-46.2	20.6	0.00e+00	0	43	0	443547648	60	4409
2026-01-27 04:11:25.90	11.53	21.85	-44.2	-45.4	21.2	0.00e+00	0	43	0	450887680	60	4049
2026-01-27 04:11:29.93	10.58	22.11	-44.3	-45.6	21.1	0.00e+00	0	43	0	458227712	60	4107
2026-01-27 04:11:33.96	9.62	22.37	-44.2	-45.4	21.2	0.00e+00	0	43	0	465567744	60	4048
2026-01-27 04:11:38.00	8.63	22.62	-44.5	-45.7	21.3	0.00e+00	0	43	0	472907776	59	4439
2026-01-27 04:11:42.03	7.63	22.86	-44.2	-45.4	21.4	0.00e+00	0	43	0	481296384	60	4014
2026-01-27 04:11:46.07	6.62	23.09	-44.5	-45.7	21.4	0.00e+00	0	43	0	488636416	59	4396
2026-01-27 04:11:50.09	5.59	23.32	-44.2	-45.4	21.7	0.00e+00	0	43	0	495976448	59	4243
2026-01-27 04:11:54.12	4.54	23.54	-44.3	-45.5	21.3	0.00e+00	0	43	0	503316480	60	4088
2026-01-27 04:11:58.15	3.49	23.75	-44.4	-45.6	21.2	0.00e+00	0	43	0	510656512	60	4135
2026-01-27 04:12:02.18	2.41	23.95	-44.2	-45.4	21.4	0.00e+00	0	43	0	519045120	60	4019
2026-01-27 04:12:06.20	1.33	24.14	-44.0	-45.2	21.6	0.00e+00	0	43	0	526385152	60	3923
2026-01-27 04:12:10.24	0.23	24.32	-44.4	-45.5	21.6	0.00e+00	0	43	0	533725184	59	4331
2026-01-27 04:12:14.27	359.11	24.49	-43.9	-45.0	22.0	0.00e+00	0	43	0	541065216	59	4079
2026-01-27 04:12:18.30	357.99	24.65	-44.6	-45.8	21.0	0.00e+00	0	43	0	549453824	60	4237
2026-01-27 04:12:22.32	356.86	24.80	-45.8	-47.3	19.8	0.00e+00	0	43	0	556793856	62	4444
2026-01-27 04:12:26.36	355.71	24.93	-46.1	-47.6	19.5	0.00e+00	0	43	0	564133888	63	4364
2026-01-27 04:12:30.39	354.55	25.06	-45.8	-47.3	19.8	0.00e+00	0	43	0	571473920	63	4204
2026-01-27 04:12:34.42	353.39	25.17	-45.5	-46.9	20.1	0.00e+00	0	42	0	578813952	62	4248
2026-01-27 04:12:38.45	352.22	25.27	-45.7	-47.1	19.8	0.00e+00	0	43	0	587202560	62	4365
2026-01-27 04:12:42.48	351.04	25.36	-46.3	-48.0	19.1	0.00e+00	0	43	0	594542592	63	4559
2026-01-27 04:12:46.51	349.85	25.43	-46.1	-47.6	19.4	0.00e+00	0	43	0	601882624	63	4359
2026-01-27 04:12:50.54	348.66	25.49	-45.8	-47.3	19.6	0.00e+00	0	43	0	609222656	63	4195
2026-01-27 04:12:54.57	347.47	25.54	-46.0	-47.6	19.4	0.00e+00	0	43	0	616562688	63	4349
2026-01-27 04:12:58.59	346.28	25.57	-46.4	-48.1	19.0	0.00e+00	0	43	0	624951296	63	4610
2026-01-27 04:13:02.62	345.08	25.59	-45.5	-46.8	20.1	0.00e+00	0	43	0	632291328	62	4227
2026-01-27 04:13:06.65	343.88	25.60	-45.5	-46.9	20.0	0.00e+00	0	43	0	639631360	61	4524
2026-01-27 04:13:10.67	342.68	25.59	-46.0	-47.5	19.5	0.00e+00	0	43	0	646971392	63	4326
2026-01-27 04:13:14.70	341.48	25.57	-46.1	-47.7	19.3	0.00e+00	0	43	0	654311424	63	4409
2026-01-27 04:13:18.74	340.28	25.53	-44.5	-45.8	21.0	0.00e+00	0	43	0	662700032	61	3965
2026-01-27 04:13:22.77	339.09	25.48	-44.7	-45.9	20.9	0.00e+00	0	43	0	670040064	60	4285
2026-01-27 04:13:26.79	337.90	25.42	-44.7	-46.0	20.9	0.00e+00	0	43	0	677380096	60	4321
2026-01-27 04:13:30.82	336.72	25.34	-44.1	-45.2	21.8	0.00e+00	0	43	0	684720128	59	4193
2026-01-27 04:13:34.85	335.54	25.25	-44.4	-45.6	21.6	0.00e+00	0	43	0	692060160	59	4352
2026-01-27 04:13:38.88	334.37	25.15	-44.2	-45.3	21.8	0.00e+00	0	43	0	700448768	59	4224
2026-01-27 04:13:42.91	333.21	25.04	-44.5	-45.7	21.5	0.00e+00	0	43	0	707788800	59	4429
2026-01-27 04:13:46.94	332.05	24.91	-44.5	-45.7	21.4	0.00e+00	0	43	0	715128832	59	4404
2026-01-27 04:13:50.97	330.91	24.77	-44.1	-45.2	21.7	0.00e+00	0	43	0	722468864	60	3930
2026-01-27 04:13:55.00	329.78	24.62	-45.2	-46.5	20.5	0.00e+00	0	43	0	729808896	61	4335
2026-01-27 04:13:59.03	328.65	24.46	-44.6	-45.8	21.1	0.00e+00	0	43	0	738197504	61	3989
2026-01-27 04:14:03.06	327.54	24.29	-45.0	-46.3	20.7	0.00e+00	0	43	0	745537536	61	4208
2026-01-27 04:14:07.09	326.45	24.11	-45.7	-47.1	19.9	0.00e+00	0	43	0	752877568	62	4388
2026-01-27 04:14:11.13	325.36	23.91	-46.6	-48.3	18.8	7.00e-07	0	43	0	760217600	63	4747
2026-01-27 04:14:15.16	324.29	23.71	-46.1	-47.6	19.4	0.00e+00	0	43	0	768606208	64	4119
2026-01-27 04:14:19.19	323.23	23.50	-46.0	-47.5	19.6	0.00e+00	0	43	0	775946240	63	4326
2026-01-27 04:14:23.23	322.19	23.28	-46.5	-48.1	18.9	0.00e+00	0	43	0	783286272	63	4650
2026-01-27 04:14:27.26	321.16	23.05	-46.0	-47.6	19.5	0.00e+00	0	43	0	790626304	63	4342
2026-01-27 04:14:31.29	320.15	22.82	-46.4	-48.0	19.0	0.00e+00	0	43	0	797966336	63	4581
2026-01-27 04:14:35.30	319.15	22.57	-46.1	-47.7	19.2	0.00e+00	0	43	0	806354944	64	4148
2026-01-27 04:14:39.33	318.17	22.32	-45.7	-47.2	19.7	0.00e+00	0	43	0	813694976	62	4421
2026-01-27 04:14:43.37	317.21	22.07	-47.0	-49.0	18.0	0.00e+00	0	43	0	821035008	64	4819
2026-01-27 04:14:47.39	316.26	21.81	-46.1	-47.7	19.3	0.00e+00	0	43	0	828375040	64	4151
2026-01-27 04:14:51.42	315.33	21.54	-45.4	-46.8	20.1	0.00e+00	0	43	0	835715072	62	4241
2026-01-27 04:14:55.45	314.41	21.27	-45.8	-47.4	19.6	0.00e+00	0	43	0	844103680	62	4515
2026-01-27 04:14:59.48	313.51	20.99	-44.7	-46.0	20.8	0.00e+00	0	43	0	851443712	61	4081
2026-01-27 04:15:03.51	312.63	20.71	-44.2	-45.4	21.6	0.00e+00	0	43	0	858783744	59	4245
2026-01-27 04:15:07.54	311.76	20.42	-44.8	-46.1	20.6	0.00e+00	0	43	0	866123776	60	4385
2026-01-27 04:15:11.57	310.91	20.13	-45.3	-46.7	20.1	0.00e+00	0	43	0	873463808	61	4440
2026-01-27 04:15:15.59	310.08	19.84	-45.3	-46.7	20.2	0.00e+00	0	43	0	881852416	61	4422
2026-01-27 04:15:19.62	309.26	19.55	-45.2	-46.7	20.1	0.00e+00	0	43	0	889192448	61	4414
2026-01-27 04:15:23.66	308.45	19.25	-44.8	-46.1	20.6	0.00e+00	0	43	0	896532480	61	4116
2026-01-27 04:15:27.68	307.67	18.95	-45.6	-47.1	19.7	0.00e+00	0	43	0	903872512	61	4612
2026-01-27 04:15:31.71	306.89	18.65	-44.8	-46.1	20.7	0.00e+00	0	43	0	911212544	61	4126
2026-01-27 04:15:35.74	306.14	18.34	-45.3	-46.7	20.2	0.00e+00	0	43	0	919601152	61	4408
2026-01-27 04:15:39.77	305.40	18.04	-44.4	-45.6	21.1	0.00e+00	0	43	0	926941184	60	4117
2026-01-27 04:15:43.79	304.67	17.73	-44.2	-45.4	21.3	0.00e+00	0	43	0	934281216	60	4026
2026-01-27 04:15:47.83	303.96	17.43	-44.5	-45.7	21.0	0.00e+00	0	43	0	941621248	60	4193
2026-01-27 04:15:51.86	303.26	17.12	-44.7	-46.0	20.8	0.00e+00	0	43	0	948961280	60	4324
2026-01-27 04:15:55.89	302.58	16.81	-44.5	-45.7	21.4	0.00e+00	0	43	0	957349888	59	4398
2026-01-27 04:15:59.93	301.91	16.50	-44.5	-45.7	21.4	0.00e+00	0	43	0	964689920	59	4409
2026-01-27 04:16:03.96	301.26	16.19	-44.6	-45.9	20.9	0.00e+00	0	43	0	972029952	60	4265
2026-01-27 04:16:07.99	300.61	15.89	-44.7	-45.9	20.8	0.00e+00	0	43	0	979369984	60	4282
2026-01-27 04:16:12.02	299.99	15.58	-44.4	-45.6	21.4	0.00e+00	0	43	0	986710016	59	4349
2026-01-27 04:16:16.05	299.37	15.27	-45.1	-46.5	20.3	0.00e+00	0	43	0	995098624	61	4309
2026-01-27 04:16:20.08	298.77	14.97	-45.4	-46.8	20.0	0.00e+00	0	43	0	1002438656	61	4480
2026-01-27 04:16:24.11	298.18	14.66	-45.2	-46.6	20.3	0.00e+00	0	43	0	1009778688	61	4347
2026-01-27 04:16:28.14	297.60	14.35	-44.9	-46.2	20.6	0.00e+00	0	43	0	1017118720	61	4151
2026-01-27 04:16:32.17	297.04	14.05	-45.0	-46.3	20.5	0.00e+00	0	43	0	1025507328	61	4220
2026-01-27 04:16:36.20	296.48	13.75	-46.1	-47.7	19.2	0.00e+00	0	43	0	1032847360	62	4689
2026-01-27 04:16:40.23	295.94	13.44	-46.2	-47.8	19.2	0.00e+00	0	43	0	1040187392	63	4442
2026-01-27 04:16:44.25	295.41	13.14	-45.0	-46.3	20.4	0.00e+00	0	43	0	1047527424	62	3999
2026-01-27 04:16:48.28	294.89	12.84	-44.7	-46.3	20.4	0.00e+00	0	43	0	1054867456	61	4240
2026-01-27 04:16:52.31	294.38	12.55	-44.3	-46.8	20.1	0.00e+00	0	43	0	1062207488	59	5004
2026-01-27 04:16:56.34	293.88	12.25	-45.4	-46.9	19.8	0.00e+00	0	43	0	1070596096	61	4542
2026-01-27 04:17:00.37	293.39	11.95	-45.9	-47.5	19.4	0.00e+00	0	43	0	1077936128	62	4548
2026-01-27 04:17:04.41	292.91	11.66	-45.9	-47.4	19.4	0.00e+00	0	43	0	1085276160	63	4265
2026-01-27 04:17:08.44	292.44	11.37	-46.5	-48.1	18.8	0.00e+00	0	43	0	1092616192	63	4635
2026-01-27 04:17:12.47	291.98	11.08	-47.0	-48.9	18.0	0.00e+00	0	43	0	1101004800	64	4761
2026-01-27 04:17:16.51	291.53	10.79	-46.7	-48.4	18.4	0.00e+00	0	43	0	1108344832	64	4502
2026-01-27 04:17:20.54	291.09	10.50	-46.1	-47.6	19.3	0.00e+00	0	43	0	1115684864	63	4360
2026-01-27 04:17:24.57	290.65	10.21	-45.8	-47.2	19.6	0.00e+00	0	43	0	1123024896	63	4192
2026-01-27 04:17:28.60	290.23	9.93	-46.6	-48.2	18.6	0.00e+00	0	43	0	1130364928	63	4697
2026-01-27 04:17:32.62	289.82	9.65	-46.5	-48.2	18.6	0.00e+00	0	43	0	1138753536	64	4393
2026-01-27 04:17:36.65	289.41	9.37	-46.2	-47.7	18.9	0.00e+00	0	43	0	1146093568	64	4193
2026-01-27 04:17:40.68	289.01	9.09	-46.2	-47.7	19.0	0.00e+00	0	43	0	1153433600	63	4419
2026-01-27 04:17:44.71	288.62	8.81	-46.4	-48.0	18.7	0.00e+00	0	43	0	1160773632	63	4590
2026-01-27 04:17:48.73	288.23	8.54	-46.7	-48.5	18.1	0.00e+00	0	43	0	1168113664	64	4577
2026-01-27 04:17:52.75	287.86	8.26	-47.3	-49.4	17.2	0.00e+00	0	43	0	1176502272	65	4768
2026-01-27 04:17:56.79	287.49	7.99	-47.8	-50.0	16.6	0.00e+00	0	43	0	1183842304	66	4826
2026-01-27 04:18:00.81	287.12	7.72	-48.1	-50.4	16.1	0.00e+00	0	43	0	1191182336	66	5089
2026-01-27 04:18:04.85	286.77	7.45	-48.0	-50.4	16.2	0.00e+00	0	43	0	1198522368	66	5053
2026-01-27 04:18:08.88	286.42	7.19	-47.9	-50.2	16.3	0.00e+00	0	43	0	1205862400	66	4930
2026-01-27 04:18:12.90	286.08	6.92	-48.1	-50.5	15.9	0.00e+00	0	43	0	1214251008	67	4867
2026-01-27 04:18:16.94	285.74	6.66	-48.4	-51.0	15.4	0.00e+00	0	43	0	1221591040	67	5119
2026-01-27 04:18:20.97	285.41	6.40	-48.6	-51.3	15.1	0.00e+00	0	43	0	1228931072	67	5303
2026-01-27 04:18:24.99	285.09	6.14	-48.4	-51.0	15.3	0.00e+00	0	43	0	1236271104	67	5144
2026-01-27 04:18:29.02	284.77	5.88	-47.9	-50.3	16.0	0.00e+00	0	43	0	1243611136	67	4721
2026-01-27 04:18:33.05	284.46	5.62	-47.3	-49.4	16.8	0.00e+00	0	43	0	1251999744	66	4528
2026-01-27 04:18:37.07	284.15	5.37	-47.0	-49.0	17.1	0.00e+00	0	43	0	1259339776	65	4592
2026-01-27 04:18:41.10	283.85	5.12	-47.3	-49.4	16.7	0.00e+00	0	43	0	1266679808	65	4812
2026-01-27 04:18:45.13	283.55	4.86	-52.9	-67.8	3.8	1.49e+00	0	43	104	1270874112	76	21018
2026-01-27 04:18:49.17	283.26	4.61	-53.1	-68.0	3.8	1.49e+00	0	43	104	1270874112	76	21609
2026-01-27 04:18:53.20	282.98	4.37	-53.3	-68.1	3.8	1.49e+00	0	43	104	1270874112	77	20738
2026-01-27 04:18:57.23	282.70	4.12	-53.3	-68.3	3.8	1.49e+00	0	43	104	1270874112	77	21025
2026-01-27 04:19:01.26	282.42	3.88	-53.3	-68.2	3.8	1.49e+00	0	43	104	1270874112	77	20965
2026-01-27 04:19:05.30	282.15	3.63	-53.3	-68.2	3.8	1.49e+00	0	43	104	1270874112	77	20925
2026-01-27 04:19:09.33	281.88	3.39	-53.2	-68.2	3.8	1.49e+00	0	43	104	1270874112	77	20917
2026-01-27 04:19:13.36	281.62	3.15	-53.2	-68.2	3.8	1.49e+00	0	43	104	1270874112	77	20888
2026-01-27 04:19:17.40	281.36	2.91	-53.2	-68.2	3.8	1.49e+00	0	43	104	1270874112	77	20876
2026-01-27 04:19:21.43	281.11	2.67	-53.2	-68.2	3.8	1.49e+00	0	43	104	1270874112	77	20818
2026-01-27 04:19:25.45	280.86	2.44	-53.2	-68.2	3.8	1.49e+00	0	43	104	1270874112	77	20813
2026-01-27 04:19:29.47	280.62	2.20	-53.2	-68.1	3.8	1.49e+00	0	43	104	1270874112	77	20772
2026-01-27 04:19:33.50	280.38	1.97	-53.2	-68.2	3.8	1.49e+00	0	43	104	1270874112	77	20795

#Closed at: 2026-01-27 04:19:35
#Recorded file [1270 MB]: D:/lorett/data/31041_260127_070639.dat