passes_logs/2026/01/27/R3.2S_Murmansk/R3.2S_Murmansk__20260127_032356_FENGYUN_3D_rec.log

#Pass ID: 20260127_032356_FENGYUN 3D
#Satellite: FENGYUN 3D
#Configuration: FENGYUN 3D
#almurnet v.1.7.20251203
#Start time: 2026-01-27 03:23:56

#Version: 2.2.20231116
#Station: R3.2S_Murmansk
#Location: 33.079688 lon 68.888172 lat
#TLE: 1 43010U 17072A   26026.49129444  .00000151  00000+0  93391-4 0  9993
#TLE: 2 43010  98.9962 358.4866 0002525  88.1664 271.9801 14.19700337424889

#Time	Az	El	Level	Level2	SNR	BER	BlckErr	Temp	State	Recorded	gain1	gain2
2026-01-27 03:23:56.86	27.68	2.02	-54.1	-66.0	3.8	8.48e-01	0	41	0	0	79	14533
2026-01-27 03:24:00.89	27.63	2.28	-54.1	-66.1	3.8	8.47e-01	0	41	104	0	78	15413
2026-01-27 03:24:04.92	27.59	2.54	-54.1	-66.0	3.8	8.46e-01	0	41	104	0	78	15341
2026-01-27 03:24:08.95	27.54	2.80	-54.2	-66.1	3.8	8.47e-01	0	41	104	0	78	15576
2026-01-27 03:24:12.99	27.49	3.07	-54.2	-66.2	3.8	8.46e-01	0	41	104	0	79	14732
2026-01-27 03:24:17.03	27.44	3.33	-54.1	-66.1	3.8	8.47e-01	0	41	104	0	79	14558
2026-01-27 03:24:21.05	27.39	3.60	-54.0	-66.0	3.8	8.47e-01	0	42	104	0	79	14447
2026-01-27 03:24:25.08	27.34	3.88	-53.7	-65.6	3.8	8.46e-01	0	42	104	0	79	13839
2026-01-27 03:24:29.11	27.28	4.15	-52.8	-64.6	3.8	8.46e-01	0	42	104	0	77	13731
2026-01-27 03:24:33.14	27.23	4.43	-47.0	-49.0	14.1	4.50e-06	0	42	0	14680064	66	4297
2026-01-27 03:24:37.18	27.17	4.71	-46.2	-47.9	15.2	0.00e+00	0	42	0	37748736	64	4262
2026-01-27 03:24:41.21	27.11	5.00	-47.8	-50.1	12.8	2.17e-05	0	42	0	59768832	66	4924
2026-01-27 03:24:45.25	27.05	5.28	-51.8	-61.8	3.8	8.41e-01	0	42	104	79691776	74	11850
2026-01-27 03:24:49.29	26.99	5.57	-43.5	-44.6	19.1	0.00e+00	0	42	0	98566144	58	4108
2026-01-27 03:24:53.33	26.93	5.87	-43.3	-44.3	19.4	0.00e+00	0	42	0	120586240	58	3983
2026-01-27 03:24:57.35	26.86	6.17	-43.1	-44.2	19.5	0.00e+00	0	42	0	143654912	58	3931
2026-01-27 03:25:01.39	26.79	6.47	-43.1	-44.1	19.6	0.00e+00	0	42	0	166723584	58	3904
2026-01-27 03:25:05.42	26.73	6.77	-43.1	-44.1	19.7	0.00e+00	0	42	0	188743680	57	4117
2026-01-27 03:25:09.45	26.66	7.08	-43.1	-44.1	19.7	0.00e+00	0	42	0	211812352	57	4118
2026-01-27 03:25:13.49	26.58	7.39	-42.8	-43.8	20.0	0.00e+00	0	42	0	234881024	57	3967
2026-01-27 03:25:17.53	26.51	7.70	-42.7	-43.7	20.1	0.00e+00	0	43	0	256901120	57	3948
2026-01-27 03:25:21.56	26.44	8.02	-42.7	-43.7	20.2	0.00e+00	0	42	0	279969792	57	3931
2026-01-27 03:25:25.59	26.36	8.34	-42.6	-43.5	20.3	0.00e+00	0	42	0	303038464	57	3866
2026-01-27 03:25:29.63	26.28	8.67	-42.5	-43.4	20.4	0.00e+00	0	42	0	325058560	56	4050
2026-01-27 03:25:33.67	26.19	9.00	-42.3	-43.2	20.7	0.00e+00	0	42	0	348127232	56	3946
2026-01-27 03:25:37.71	26.11	9.34	-42.4	-43.4	20.6	0.00e+00	0	42	0	371195904	56	4028
2026-01-27 03:25:41.75	26.02	9.68	-41.9	-42.9	21.0	0.00e+00	0	43	0	393216000	55	4007
2026-01-27 03:25:45.78	25.93	10.03	-41.9	-42.8	21.2	0.00e+00	0	43	0	416284672	55	3970
2026-01-27 03:25:49.81	25.84	10.37	-41.7	-42.6	21.3	0.00e+00	0	43	0	439353344	55	3892
2026-01-27 03:25:53.84	25.75	10.73	-41.5	-42.4	21.6	0.00e+00	0	43	0	461373440	55	3783
2026-01-27 03:25:57.87	25.65	11.09	-41.3	-42.2	21.8	0.00e+00	0	43	0	484442112	54	3918
2026-01-27 03:26:01.90	25.55	11.45	-41.3	-42.2	21.8	0.00e+00	0	43	0	506462208	54	3927
2026-01-27 03:26:05.93	25.45	11.82	-41.2	-42.1	21.9	0.00e+00	0	43	0	529530880	54	3884
2026-01-27 03:26:09.96	25.34	12.20	-41.2	-42.0	22.0	0.00e+00	0	43	0	551550976	54	3841
2026-01-27 03:26:13.99	25.23	12.58	-41.1	-42.0	22.1	0.00e+00	0	43	0	574619648	54	3831
2026-01-27 03:26:18.02	25.12	12.97	-40.8	-41.7	22.4	0.00e+00	0	43	0	597688320	53	3920
2026-01-27 03:26:22.06	25.00	13.36	-41.0	-41.8	22.3	0.00e+00	0	43	0	619708416	53	3974
2026-01-27 03:26:26.09	24.88	13.76	-40.7	-41.5	22.6	0.00e+00	0	43	0	642777088	53	3845
2026-01-27 03:26:30.11	24.76	14.16	-40.7	-41.5	22.6	0.00e+00	0	43	0	665845760	53	3850
2026-01-27 03:26:34.15	24.63	14.58	-40.5	-41.3	22.8	0.00e+00	0	43	0	687865856	53	3774
2026-01-27 03:26:38.19	24.50	15.00	-40.4	-41.2	22.9	0.00e+00	0	43	0	710934528	52	3932
2026-01-27 03:26:42.22	24.37	15.43	-40.1	-40.9	23.2	0.00e+00	0	43	0	734003200	52	3798
2026-01-27 03:26:46.24	24.23	15.86	-40.0	-40.8	23.4	0.00e+00	0	43	0	756023296	51	3982
2026-01-27 03:26:50.27	24.08	16.30	-39.9	-40.6	23.6	0.00e+00	0	43	0	779091968	51	3891
2026-01-27 03:26:54.31	23.93	16.75	-39.9	-40.7	23.5	0.00e+00	0	43	0	802160640	51	3921
2026-01-27 03:26:58.34	23.78	17.21	-39.7	-40.4	23.8	0.00e+00	0	43	0	824180736	51	3815
2026-01-27 03:27:02.37	23.62	17.68	-39.6	-40.3	23.9	0.00e+00	0	43	0	847249408	51	3770
2026-01-27 03:27:06.40	23.45	18.15	-39.7	-40.4	23.8	0.00e+00	0	43	0	869269504	51	3819
2026-01-27 03:27:10.44	23.28	18.64	-39.7	-40.4	23.8	0.00e+00	0	43	0	892338176	51	3823
2026-01-27 03:27:14.47	23.10	19.13	-39.4	-40.2	24.0	0.00e+00	0	43	0	915406848	50	3935
2026-01-27 03:27:18.50	22.92	19.64	-39.5	-40.3	24.0	0.00e+00	0	43	0	937426944	50	3968
2026-01-27 03:27:22.53	22.73	20.15	-39.4	-40.2	24.1	0.00e+00	0	43	0	960495616	50	3925
2026-01-27 03:27:26.56	22.53	20.68	-39.3	-40.1	24.2	0.00e+00	0	43	0	982515712	50	3876
2026-01-27 03:27:30.59	22.32	21.21	-39.4	-40.1	24.1	0.00e+00	0	43	0	1005584384	50	3907
2026-01-27 03:27:34.62	22.11	21.76	-39.3	-40.0	24.2	0.00e+00	0	43	0	1028653056	50	3868
2026-01-27 03:27:38.65	21.89	22.32	-38.9	-39.6	24.6	0.00e+00	0	43	0	1050673152	49	3889
2026-01-27 03:27:42.68	21.66	22.89	-38.4	-39.1	25.0	0.00e+00	0	43	0	1073741824	48	3895
2026-01-27 03:27:46.71	21.42	23.47	-38.3	-39.0	25.1	0.00e+00	0	43	0	1096810496	48	3865
2026-01-27 03:27:50.74	21.17	24.06	-38.3	-39.0	25.2	0.00e+00	0	43	0	1118830592	48	3868
2026-01-27 03:27:54.77	20.91	24.67	-38.4	-39.1	25.1	0.00e+00	0	43	0	1141899264	48	3883
2026-01-27 03:27:58.80	20.64	25.29	-38.5	-39.2	25.1	0.00e+00	0	43	0	1164967936	48	3921
2026-01-27 03:28:02.83	20.36	25.93	-38.3	-39.0	25.2	0.00e+00	0	43	0	1186988032	48	3862
2026-01-27 03:28:06.86	20.06	26.58	-38.1	-38.8	25.4	0.00e+00	0	43	0	1210056704	48	3776
2026-01-27 03:28:10.89	19.75	27.25	-38.9	-39.7	24.8	0.00e+00	0	43	0	1233125376	48	4151
2026-01-27 03:28:14.92	19.43	27.93	-38.5	-39.2	25.1	0.00e+00	0	43	0	1255145472	49	3730
2026-01-27 03:28:18.95	19.10	28.63	-38.2	-38.9	25.3	0.00e+00	0	43	0	1277165568	48	3815
2026-01-27 03:28:22.99	18.74	29.34	-37.7	-38.4	25.4	0.00e+00	0	43	0	1300234240	47	3792
2026-01-27 03:28:27.02	18.37	30.07	-37.8	-38.5	25.2	0.00e+00	0	43	0	1323302912	47	3853
2026-01-27 03:28:31.05	17.99	30.82	-37.8	-38.5	25.3	0.00e+00	0	43	0	1345323008	47	3849
2026-01-27 03:28:35.08	17.58	31.59	-37.7	-38.4	25.3	0.00e+00	0	43	0	1368391680	47	3804
2026-01-27 03:28:39.12	17.15	32.38	-37.5	-38.2	25.5	0.00e+00	0	43	0	1391460352	47	3726
2026-01-27 03:28:43.16	16.70	33.19	-37.6	-38.3	25.5	0.00e+00	0	43	0	1413480448	46	3966
2026-01-27 03:28:47.19	16.23	34.01	-37.4	-38.1	25.7	0.00e+00	0	43	0	1436549120	46	3879
2026-01-27 03:28:51.22	15.73	34.86	-37.4	-38.1	25.6	0.00e+00	0	43	0	1459617792	46	3892
2026-01-27 03:28:55.24	15.20	35.72	-37.3	-38.0	25.7	0.00e+00	0	43	0	1481637888	46	3863
2026-01-27 03:28:59.27	14.64	36.61	-37.2	-37.9	25.8	0.00e+00	0	43	0	1504706560	46	3815
2026-01-27 03:29:03.30	14.05	37.52	-37.2	-37.9	25.9	0.00e+00	0	43	0	1527775232	46	3784
2026-01-27 03:29:07.33	13.43	38.45	-37.4	-38.1	25.7	0.00e+00	0	43	0	1549795328	46	3885
2026-01-27 03:29:11.36	12.77	39.40	-37.5	-38.3	25.6	0.00e+00	0	43	0	1572864000	46	3961
2026-01-27 03:29:15.40	12.06	40.38	-37.5	-38.1	25.7	0.00e+00	0	43	0	1595932672	46	3912
2026-01-27 03:29:19.43	11.31	41.38	-38.2	-38.9	25.0	0.00e+00	0	43	0	1617952768	46	4264
2026-01-27 03:29:23.46	10.51	42.40	-37.6	-38.3	25.6	0.00e+00	0	43	0	1639972864	47	3755
2026-01-27 03:29:27.48	9.66	43.43	-38.0	-38.7	25.2	0.00e+00	0	43	0	1663041536	47	3951
2026-01-27 03:29:31.51	8.75	44.49	-38.0	-38.8	25.2	0.00e+00	0	43	0	1686110208	47	3961
2026-01-27 03:29:35.54	7.78	45.58	-37.8	-38.5	25.4	0.00e+00	0	43	0	1708130304	47	3847
2026-01-27 03:29:39.56	6.74	46.68	-37.9	-38.7	25.3	0.00e+00	0	43	0	1731198976	47	3914
2026-01-27 03:29:43.60	5.61	47.80	-38.0	-38.7	25.2	0.00e+00	0	43	0	1754267648	47	3943
2026-01-27 03:29:47.64	4.40	48.94	-38.2	-39.0	25.1	0.00e+00	0	43	0	1776287744	47	4056
2026-01-27 03:29:51.67	3.09	50.09	-39.1	-39.8	24.8	0.00e+00	0	43	0	1799356416	49	3996
2026-01-27 03:29:55.70	1.68	51.25	-39.4	-40.1	24.5	0.00e+00	0	43	0	1822425088	49	4145
2026-01-27 03:29:59.74	0.15	52.43	-39.0	-39.7	24.9	0.00e+00	0	43	0	1844445184	49	3956
2026-01-27 03:30:03.78	358.50	53.61	-39.0	-39.7	25.0	0.00e+00	0	43	0	1867513856	49	3942
2026-01-27 03:30:07.80	356.71	54.79	-39.1	-39.8	24.9	0.00e+00	0	43	0	1890582528	49	3967
2026-01-27 03:30:11.84	354.75	55.96	-39.0	-39.7	24.9	0.00e+00	0	43	0	1912602624	49	3935
2026-01-27 03:30:15.88	352.62	57.13	-38.5	-39.2	25.4	0.00e+00	0	43	0	1935671296	49	3709
2026-01-27 03:30:19.92	350.30	58.28	-38.8	-39.5	25.1	0.00e+00	0	43	0	1958739968	48	4081
2026-01-27 03:30:23.95	347.79	59.40	-38.7	-39.4	25.2	0.00e+00	0	43	0	1980760064	48	4036
2026-01-27 03:30:27.98	345.04	60.48	-38.8	-39.5	25.2	0.00e+00	0	43	0	2003828736	48	4079
2026-01-27 03:30:32.01	342.06	61.52	-38.9	-39.6	25.1	0.00e+00	0	43	0	2025848832	48	4118
2026-01-27 03:30:36.04	338.82	62.50	-37.7	-38.4	25.6	0.00e+00	0	43	0	2048917504	47	3806
2026-01-27 03:30:40.07	335.32	63.41	-38.1	-38.8	25.3	0.00e+00	0	43	0	2071986176	46	4222
2026-01-27 03:30:44.11	331.54	64.24	-37.4	-38.1	25.9	0.00e+00	0	43	0	2094006272	46	3880
2026-01-27 03:30:48.14	327.51	64.96	-37.3	-38.0	26.0	0.00e+00	0	43	0	2117074944	46	3836
2026-01-27 03:30:52.17	323.22	65.57	-37.2	-37.9	26.1	0.00e+00	0	43	0	2140143616	45	4027
2026-01-27 03:30:56.20	318.72	66.06	-37.2	-37.9	26.1	0.00e+00	0	43	0	2162163712	45	4011
2026-01-27 03:31:00.24	314.03	66.41	-37.1	-37.8	26.1	0.00e+00	0	43	0	2185232384	45	3985
2026-01-27 03:31:04.27	309.23	66.61	-36.9	-37.6	26.4	0.00e+00	0	43	0	2208301056	45	3885
2026-01-27 03:31:08.30	304.38	66.65	-36.5	-37.1	26.7	0.00e+00	0	43	0	2230321152	45	3689
2026-01-27 03:31:12.33	299.53	66.55	-36.8	-37.5	26.4	0.00e+00	0	43	0	2253389824	45	3857
2026-01-27 03:31:16.36	294.77	66.29	-36.7	-37.3	26.6	0.00e+00	0	43	0	2275409920	45	3776
2026-01-27 03:31:20.40	290.14	65.89	-36.7	-37.4	26.6	0.00e+00	0	43	0	2298478592	45	3782
2026-01-27 03:31:24.44	285.71	65.35	-36.9	-37.5	26.4	0.00e+00	0	43	0	2321547264	45	3855
2026-01-27 03:31:28.47	281.52	64.69	-37.6	-38.3	25.8	0.00e+00	0	43	0	2344615936	45	4212
2026-01-27 03:31:32.51	277.57	63.92	-37.4	-38.1	26.0	0.00e+00	0	43	0	2366636032	45	4125
2026-01-27 03:31:36.55	273.89	63.06	-37.3	-38.0	26.0	0.00e+00	0	43	0	2388656128	45	4058
2026-01-27 03:31:40.58	270.49	62.12	-37.7	-38.4	25.7	0.00e+00	0	43	0	2411724800	47	3795
2026-01-27 03:31:44.62	267.35	61.11	-37.7	-38.4	25.7	0.00e+00	0	43	0	2434793472	47	3791
2026-01-27 03:31:48.65	264.46	60.05	-38.4	-39.2	25.0	0.00e+00	0	43	0	2456813568	47	4161
2026-01-27 03:31:52.68	261.81	58.95	-38.6	-39.4	24.9	0.00e+00	0	43	0	2479882240	47	4247
2026-01-27 03:31:56.71	259.37	57.82	-38.2	-38.9	25.2	0.00e+00	0	43	0	2502950912	47	4033
2026-01-27 03:32:00.74	257.13	56.66	-39.2	-40.0	24.9	0.00e+00	0	43	0	2524971008	48	4297
2026-01-27 03:32:04.78	255.07	55.48	-38.7	-39.4	25.4	0.00e+00	0	43	0	2548039680	49	3813
2026-01-27 03:32:08.81	253.18	54.31	-39.1	-39.8	25.0	0.00e+00	0	43	0	2571108352	49	3983
2026-01-27 03:32:12.85	251.44	53.12	-39.0	-39.7	25.0	0.00e+00	0	43	0	2593128448	49	3954
2026-01-27 03:32:16.87	249.84	51.94	-39.1	-39.8	24.9	0.00e+00	0	43	0	2616197120	49	4001
2026-01-27 03:32:20.90	248.36	50.77	-39.0	-39.8	25.0	0.00e+00	0	43	0	2639265792	49	3960
2026-01-27 03:32:24.93	246.99	49.61	-38.8	-39.5	25.1	0.00e+00	0	43	0	2661285888	49	3861
2026-01-27 03:32:28.97	245.72	48.46	-38.2	-38.9	25.7	0.00e+00	0	43	0	2684354560	48	3803
2026-01-27 03:32:33.01	244.54	47.32	-38.3	-39.0	25.6	0.00e+00	0	43	0	2707423232	48	3848
2026-01-27 03:32:37.04	243.45	46.21	-37.6	-38.3	25.7	0.00e+00	0	43	0	2729443328	47	3746
2026-01-27 03:32:41.07	242.43	45.11	-37.6	-38.3	25.7	0.00e+00	0	43	0	2752512000	47	3753
2026-01-27 03:32:45.11	241.47	44.03	-38.1	-38.8	25.2	0.00e+00	0	43	0	2774532096	47	3993
2026-01-27 03:32:49.15	240.58	42.97	-37.7	-38.4	25.6	0.00e+00	0	43	0	2797600768	47	3786
2026-01-27 03:32:53.18	239.75	41.94	-37.5	-38.2	25.7	0.00e+00	0	43	0	2820669440	46	3925
2026-01-27 03:32:57.21	238.97	40.93	-37.4	-38.1	25.8	0.00e+00	0	43	0	2842689536	46	3896
2026-01-27 03:33:01.25	238.24	39.93	-37.2	-37.9	25.9	0.00e+00	0	43	0	2865758208	46	3815
2026-01-27 03:33:05.27	237.55	38.97	-37.2	-37.9	25.9	0.00e+00	0	43	0	2888826880	46	3812
2026-01-27 03:33:09.32	236.90	38.02	-37.4	-38.1	25.7	0.00e+00	0	43	0	2910846976	46	3885
2026-01-27 03:33:13.35	236.29	37.09	-37.4	-38.0	25.8	0.00e+00	0	43	0	2933915648	46	3864
2026-01-27 03:33:17.38	235.71	36.19	-37.3	-38.0	25.8	0.00e+00	0	43	0	2956984320	46	3853
2026-01-27 03:33:21.42	235.17	35.31	-37.4	-38.1	25.7	0.00e+00	0	43	0	2979004416	46	3893
2026-01-27 03:33:25.45	234.65	34.45	-37.4	-38.1	25.7	0.00e+00	0	43	0	3002073088	46	3881
2026-01-27 03:33:29.49	234.16	33.61	-37.4	-38.1	25.7	0.00e+00	0	43	0	3025141760	46	3881
2026-01-27 03:33:33.53	233.69	32.79	-37.4	-38.2	25.6	0.00e+00	0	43	0	3047161856	46	3914
2026-01-27 03:33:37.56	233.25	31.99	-37.7	-38.4	25.4	0.00e+00	0	43	0	3070230528	46	4015
2026-01-27 03:33:41.60	232.83	31.20	-37.6	-38.3	25.5	0.00e+00	0	43	0	3093299200	46	3975
2026-01-27 03:33:45.64	232.43	30.44	-37.6	-38.3	25.4	0.00e+00	0	43	0	3115319296	46	3988
2026-01-27 03:33:49.67	232.05	29.70	-37.8	-38.5	25.3	0.00e+00	0	43	0	3138387968	46	4062
2026-01-27 03:33:53.70	231.68	28.97	-37.6	-38.3	25.4	0.00e+00	0	43	0	3160408064	46	4004
2026-01-27 03:33:57.74	231.34	28.26	-37.8	-38.6	25.2	0.00e+00	0	43	0	3183476736	46	4108
2026-01-27 03:34:01.77	231.01	27.57	-38.0	-38.7	25.0	0.00e+00	0	43	0	3206545408	46	4182
2026-01-27 03:34:05.80	230.69	26.89	-37.8	-38.5	25.2	0.00e+00	0	43	0	3228565504	46	4079
2026-01-27 03:34:09.83	230.38	26.23	-37.8	-38.5	25.2	0.00e+00	0	43	0	3251634176	46	4074
2026-01-27 03:34:13.87	230.09	25.58	-37.9	-38.6	25.1	0.00e+00	0	43	0	3274702848	46	4121
2026-01-27 03:34:17.90	229.81	24.95	-38.1	-38.9	24.8	0.00e+00	0	43	0	3296722944	46	4256
2026-01-27 03:34:21.94	229.55	24.33	-38.2	-38.9	24.8	0.00e+00	0	43	0	3319791616	47	4034
2026-01-27 03:34:25.97	229.29	23.73	-38.2	-38.9	24.8	0.00e+00	0	43	0	3342860288	47	4025
2026-01-27 03:34:30.00	229.04	23.14	-38.2	-38.9	24.8	0.00e+00	0	43	0	3364880384	47	4016
2026-01-27 03:34:34.04	228.80	22.56	-38.3	-39.0	24.7	0.00e+00	0	43	0	3387949056	47	4073
2026-01-27 03:34:38.08	228.58	21.99	-38.5	-39.3	24.5	0.00e+00	0	43	0	3411017728	47	4195
2026-01-27 03:34:42.11	228.36	21.43	-39.1	-39.8	24.4	0.00e+00	0	43	0	3433037824	48	4236
2026-01-27 03:34:46.15	228.14	20.89	-38.9	-39.7	24.5	0.00e+00	0	43	0	3456106496	48	4159
2026-01-27 03:34:50.18	227.94	20.36	-38.8	-39.5	24.7	0.00e+00	0	43	0	3479175168	48	4095
2026-01-27 03:34:54.21	227.74	19.84	-38.8	-39.5	24.6	0.00e+00	0	43	0	3501195264	48	4098
2026-01-27 03:34:58.24	227.55	19.33	-38.9	-39.6	24.5	0.00e+00	0	43	0	3523215360	48	4122
2026-01-27 03:35:02.27	227.37	18.83	-39.1	-39.9	24.3	0.00e+00	0	43	0	3546284032	49	4013
2026-01-27 03:35:06.31	227.19	18.33	-39.3	-40.1	24.1	0.00e+00	0	43	0	3569352704	49	4114
2026-01-27 03:35:10.33	227.02	17.85	-39.7	-40.5	23.7	0.00e+00	0	43	0	3591372800	49	4299
2026-01-27 03:35:14.36	226.86	17.38	-39.9	-40.7	23.6	0.00e+00	0	43	0	3614441472	50	4149
2026-01-27 03:35:18.39	226.70	16.92	-40.0	-40.7	23.5	0.00e+00	0	43	0	3637510144	50	4184
2026-01-27 03:35:22.42	226.55	16.46	-40.0	-40.8	23.4	0.00e+00	0	43	0	3659530240	50	4219
2026-01-27 03:35:26.44	226.40	16.02	-40.1	-40.9	23.3	0.00e+00	0	43	0	3682598912	50	4267
2026-01-27 03:35:30.48	226.25	15.57	-40.3	-41.1	23.1	0.00e+00	0	43	0	3705667584	51	4122
2026-01-27 03:35:34.51	226.11	15.14	-40.3	-41.1	23.1	0.00e+00	0	43	0	3727687680	51	4123
2026-01-27 03:35:38.54	225.98	14.72	-40.4	-41.2	22.9	0.00e+00	0	43	0	3750756352	51	4193
2026-01-27 03:35:42.58	225.84	14.30	-40.6	-41.4	22.8	0.00e+00	0	43	0	3773825024	51	4274
2026-01-27 03:35:46.61	225.72	13.89	-40.6	-41.4	22.7	0.00e+00	0	43	0	3795845120	52	4032
2026-01-27 03:35:50.64	225.59	13.48	-40.7	-41.5	22.6	0.00e+00	0	43	0	3818913792	52	4084
2026-01-27 03:35:54.68	225.47	13.09	-40.7	-41.5	22.5	0.00e+00	0	43	0	3841982464	52	4086
2026-01-27 03:35:58.71	225.36	12.69	-40.8	-41.6	22.4	0.00e+00	0	43	0	3864002560	52	4139
2026-01-27 03:36:02.74	225.24	12.31	-40.8	-41.6	22.4	0.00e+00	0	43	0	3886022656	52	4135
2026-01-27 03:36:06.78	225.13	11.93	-40.9	-41.8	22.3	0.00e+00	0	43	0	3909091328	52	4205
2026-01-27 03:36:10.81	225.02	11.56	-41.0	-41.9	22.2	0.00e+00	0	43	0	3932160000	52	4248
2026-01-27 03:36:14.84	224.92	11.19	-41.2	-42.0	22.0	0.00e+00	0	43	0	3954180096	53	4084
2026-01-27 03:36:18.87	224.82	10.83	-41.3	-42.1	21.8	0.00e+00	0	43	0	3977248768	53	4141
2026-01-27 03:36:22.91	224.72	10.47	-41.3	-42.1	21.8	0.00e+00	0	43	0	4000317440	53	4129
2026-01-27 03:36:26.94	224.63	10.11	-41.3	-42.2	21.8	0.00e+00	0	43	0	4022337536	53	4174
2026-01-27 03:36:30.97	224.53	9.77	-41.4	-42.3	21.7	0.00e+00	0	43	0	4045406208	53	4206
2026-01-27 03:36:35.01	224.44	9.42	-41.5	-42.4	21.5	0.00e+00	0	43	0	4068474880	53	4250
2026-01-27 03:36:39.04	224.35	9.08	-41.5	-42.4	21.5	0.00e+00	0	43	0	4090494976	53	4247
2026-01-27 03:36:43.07	224.27	8.75	-41.5	-42.4	21.4	0.00e+00	0	43	0	4113563648	53	4271
2026-01-27 03:36:47.09	224.18	8.42	-41.6	-42.4	21.4	0.00e+00	0	43	0	4136632320	53	4286
2026-01-27 03:36:51.12	224.10	8.10	-41.7	-42.6	21.2	0.00e+00	0	43	0	4158652416	54	4128
2026-01-27 03:36:55.16	224.02	7.77	-41.9	-42.8	21.0	0.00e+00	0	43	0	4181721088	54	4208
2026-01-27 03:36:59.19	223.95	7.46	-42.0	-42.9	20.9	0.00e+00	0	43	0	4204789760	54	4247
2026-01-27 03:37:03.23	223.87	7.14	-42.2	-43.1	20.7	0.00e+00	0	43	0	4226809856	55	4115
2026-01-27 03:37:07.26	223.80	6.83	-42.4	-43.3	20.4	0.00e+00	0	43	0	4248829952	55	4224
2026-01-27 03:37:11.30	223.73	6.53	-42.4	-43.3	20.4	0.00e+00	0	43	0	4271898624	55	4239
2026-01-27 03:37:15.33	223.66	6.22	-42.8	-43.8	20.0	0.00e+00	0	43	0	4294967296	56	4199
2026-01-27 03:37:19.36	223.59	5.92	-42.8	-43.8	19.9	0.00e+00	0	43	0	4316987392	56	4209
2026-01-27 03:37:23.40	223.52	5.63	-42.9	-43.9	19.8	0.00e+00	0	43	0	4340056064	56	4275
2026-01-27 03:37:27.43	223.46	5.34	-42.9	-43.9	19.7	0.00e+00	0	43	0	4363124736	56	4274
2026-01-27 03:37:31.46	223.39	5.05	-43.1	-44.1	19.4	0.00e+00	0	43	0	4385144832	56	4381
2026-01-27 03:37:35.49	223.33	4.76	-53.3	-65.2	3.8	8.46e-01	0	43	104	4392484864	77	14830
2026-01-27 03:37:39.52	223.27	4.48	-53.6	-65.6	3.8	8.45e-01	0	43	104	4392484864	77	15436
2026-01-27 03:37:43.54	223.21	4.20	-53.7	-65.7	3.8	8.46e-01	0	43	104	4392484864	77	15617
2026-01-27 03:37:47.57	223.15	3.92	-53.8	-65.7	3.8	8.46e-01	0	43	104	4392484864	78	14748
2026-01-27 03:37:51.61	223.10	3.64	-53.6	-65.5	3.8	8.47e-01	0	43	104	4392484864	78	14428
2026-01-27 03:37:55.64	223.04	3.37	-53.4	-65.3	3.8	8.46e-01	0	43	104	4392484864	78	14193
2026-01-27 03:37:59.67	222.99	3.10	-53.4	-65.3	3.8	8.47e-01	0	43	104	4392484864	78	14199
2026-01-27 03:38:03.70	222.93	2.84	-53.4	-65.3	3.8	8.46e-01	0	43	104	4392484864	78	14201
2026-01-27 03:38:07.73	222.88	2.57	-53.4	-65.3	3.8	8.47e-01	0	43	104	4392484864	78	14116
2026-01-27 03:38:11.77	222.83	2.31	-53.4	-65.3	3.8	8.45e-01	0	43	104	4392484864	78	14085
2026-01-27 03:38:15.80	222.78	2.05	-53.3	-65.2	3.8	8.45e-01	0	43	104	4392484864	78	14033

#Closed at: 2026-01-27 03:38:17
#Recorded file [4392 MB]: D:/lorett/data/31041_260127_062356.dat