passes_logs/2026/01/27/R3.2S_Murmansk/R3.2S_Murmansk__20260127_200549_JL1KF02B01_rec.log

#Pass ID: 20260127_200549_JL1KF02B01
#Satellite: JL1KF02B01
#Configuration: 01B_900M
#almurnet v.1.7.20251203
#Start time: 2026-01-27 20:05:48

#Version: 2.2.20231116
#Station: R3.2S_Murmansk
#Location: 33.079688 lon 68.888172 lat
#TLE: 1 61191U 24169C   26026.83418031  .00007092  00000+0  44292-3 0  9995
#TLE: 2 61191  97.5611 118.2382 0014824  86.6194 273.6731 15.09693162 74504

#Time	Az	El	Level	Level2	SNR	BER	BlckErr	Temp	State	Recorded	gain1	gain2
2026-01-27 20:05:48.68	163.06	1.97	-54.3	-56.4	6.2	0.00e+00	0	43	0	0	80	18060
2026-01-27 20:05:51.70	163.11	2.18	-53.7	-55.8	6.2	0.00e+00	0	43	104	0	79	17859
2026-01-27 20:05:54.72	163.16	2.39	-53.2	-55.3	6.2	0.00e+00	0	43	104	0	78	17864
2026-01-27 20:05:57.74	163.20	2.61	-53.2	-55.3	6.2	0.00e+00	0	43	104	0	78	17839
2026-01-27 20:06:00.76	163.25	2.82	-53.1	-55.2	6.2	0.00e+00	0	43	104	0	78	17747
2026-01-27 20:06:03.79	163.30	3.04	-53.1	-55.2	6.2	0.00e+00	0	44	104	0	78	17721
2026-01-27 20:06:06.81	163.34	3.26	-53.1	-55.3	6.2	0.00e+00	0	44	104	0	78	17785
2026-01-27 20:06:09.83	163.39	3.48	-53.1	-55.3	6.2	0.00e+00	0	44	104	0	78	17772
2026-01-27 20:06:12.85	163.44	3.71	-53.1	-55.2	6.2	0.00e+00	0	44	104	0	78	17751
2026-01-27 20:06:15.87	163.49	3.94	-53.1	-55.2	6.2	0.00e+00	0	44	104	0	78	17703
2026-01-27 20:06:18.89	163.55	4.17	-53.1	-55.1	6.2	0.00e+00	0	44	104	0	78	17547
2026-01-27 20:06:21.91	163.60	4.40	-53.1	-55.2	6.2	0.00e+00	0	44	104	0	78	17591
2026-01-27 20:06:24.93	163.65	4.63	-53.1	-55.2	6.2	0.00e+00	0	44	104	0	78	17624
2026-01-27 20:06:27.96	163.70	4.87	-53.1	-55.2	6.2	0.00e+00	0	44	104	0	78	17587
2026-01-27 20:06:30.99	163.76	5.11	-53.1	-55.2	6.2	0.00e+00	0	44	104	0	78	17683
2026-01-27 20:06:34.01	163.81	5.36	-53.1	-55.2	6.2	0.00e+00	0	44	104	0	78	17646
2026-01-27 20:06:37.03	163.87	5.60	-53.0	-55.1	6.2	0.00e+00	0	44	104	0	78	17479
2026-01-27 20:06:40.05	163.93	5.85	-53.2	-55.3	6.2	0.00e+00	0	44	104	0	78	17886
2026-01-27 20:06:43.07	163.99	6.11	-53.1	-55.2	6.2	0.00e+00	0	45	104	0	78	17623
2026-01-27 20:06:46.10	164.05	6.36	-53.0	-55.1	6.2	0.00e+00	0	45	104	0	78	17514
2026-01-27 20:06:49.11	164.11	6.62	-53.0	-55.1	6.2	0.00e+00	0	45	104	0	78	17510
2026-01-27 20:06:52.13	164.17	6.88	-53.2	-55.3	6.2	0.00e+00	0	45	104	0	78	17876
2026-01-27 20:06:55.15	164.23	7.15	-53.1	-55.2	6.2	0.00e+00	0	45	104	0	78	17578
2026-01-27 20:06:58.17	164.30	7.42	-53.0	-55.1	6.2	0.00e+00	0	45	104	0	78	17539
2026-01-27 20:07:01.20	164.36	7.69	-53.0	-55.1	6.2	0.00e+00	0	45	104	0	78	17525
2026-01-27 20:07:04.21	164.43	7.97	-53.2	-55.3	6.2	0.00e+00	0	45	104	0	78	17872
2026-01-27 20:07:07.24	164.50	8.25	-50.1	-51.0	6.6	0.00e+00	0	45	104	0	72	15425
2026-01-27 20:07:10.26	164.56	8.54	-46.1	-46.5	6.6	0.00e+00	0	45	104	0	64	14492
2026-01-27 20:07:13.28	164.64	8.83	-49.5	-50.3	6.4	0.00e+00	0	45	104	0	71	15022
2026-01-27 20:07:16.31	164.71	9.12	-45.8	-46.3	6.6	0.00e+00	0	45	104	0	63	15002
2026-01-27 20:07:19.32	164.78	9.42	-45.6	-46.0	6.4	0.00e+00	0	45	104	0	63	14557
2026-01-27 20:07:22.34	164.86	9.72	-47.6	-48.1	6.6	0.00e+00	0	45	104	0	67	14761
2026-01-27 20:07:25.36	164.93	10.03	-37.8	-37.7	14.0	9.78e-04	0	45	0	184549376	46	14787
2026-01-27 20:07:28.39	165.01	10.35	-37.3	-37.1	14.3	5.91e-04	0	45	0	528482304	45	14772
2026-01-27 20:07:31.40	165.09	10.66	-36.5	-36.3	14.8	2.86e-04	0	45	0	864026624	43	15103
2026-01-27 20:07:34.42	165.17	10.99	-36.2	-36.0	15.0	2.54e-04	0	45	0	1207959552	43	14567
2026-01-27 20:07:37.44	165.26	11.32	-34.6	-34.4	16.0	4.00e-05	0	46	0	1543503872	40	14417
2026-01-27 20:07:40.46	165.34	11.65	-33.9	-33.8	16.4	2.28e-05	0	46	0	1879048192	39	14191
2026-01-27 20:07:43.49	165.43	11.99	-29.4	-29.3	16.8	5.70e-06	0	46	0	2231369728	30	14131
2026-01-27 20:07:46.51	165.52	12.34	-29.1	-28.9	16.7	1.14e-05	0	46	0	2566914048	30	13629
2026-01-27 20:07:49.53	165.62	12.69	-29.1	-28.9	16.6	1.14e-05	0	46	0	2902458368	30	13623
2026-01-27 20:07:52.55	165.71	13.05	-28.9	-28.8	16.7	7.60e-06	0	46	0	3238002688	29	14112
2026-01-27 20:07:55.57	165.81	13.42	-28.6	-28.5	16.8	5.70e-06	0	46	0	3581935616	29	13696
2026-01-27 20:07:58.59	165.91	13.80	-28.6	-28.5	17.1	1.90e-06	0	46	0	3925868544	29	13674
2026-01-27 20:08:01.61	166.01	14.18	-28.5	-28.3	17.2	1.90e-06	0	46	0	4261412864	28	14212
2026-01-27 20:08:04.64	166.12	14.57	-28.3	-28.1	17.0	0.00e+00	0	46	0	4605345792	28	13908
2026-01-27 20:08:07.66	166.23	14.97	-28.2	-28.0	16.8	1.90e-06	0	46	0	4940890112	28	13704
2026-01-27 20:08:10.68	166.34	15.37	-28.1	-28.0	16.8	1.90e-06	0	46	0	5284823040	28	13699
2026-01-27 20:08:13.71	166.45	15.79	-27.9	-27.8	17.3	1.90e-06	0	46	0	5628755968	27	14138
2026-01-27 20:08:16.73	166.57	16.21	-28.0	-27.8	17.5	0.00e+00	0	46	0	5964300288	27	14194
2026-01-27 20:08:19.75	166.69	16.64	-27.8	-27.6	17.2	0.00e+00	0	46	0	6299844608	27	13884
2026-01-27 20:08:22.77	166.82	17.09	-27.7	-27.6	17.0	1.90e-06	0	46	0	6635388928	27	13796
2026-01-27 20:08:25.79	166.95	17.54	-27.4	-27.3	17.3	0.00e+00	0	46	0	6987710464	26	14154
2026-01-27 20:08:28.81	167.08	18.00	-27.3	-27.1	17.8	0.00e+00	0	46	0	7323254784	26	13901
2026-01-27 20:08:31.84	167.22	18.48	-27.3	-27.1	17.7	0.00e+00	0	46	0	7658799104	26	13921
2026-01-27 20:08:34.87	167.36	18.97	-27.0	-26.9	17.5	0.00e+00	0	46	0	8002732032	25	14317
2026-01-27 20:08:37.89	167.51	19.46	-26.7	-26.5	17.6	0.00e+00	0	47	0	8346664960	25	13777
2026-01-27 20:08:40.92	167.66	19.98	-26.6	-26.4	18.0	0.00e+00	0	46	0	8682209280	25	13612
2026-01-27 20:08:43.94	167.82	20.50	-26.5	-26.4	17.9	0.00e+00	0	46	0	9026142208	24	14283
2026-01-27 20:08:46.96	167.99	21.04	-26.1	-25.9	17.8	0.00e+00	0	46	0	9361686528	24	13601
2026-01-27 20:08:49.99	168.16	21.59	-26.0	-25.8	18.1	0.00e+00	0	46	0	9705619456	23	14179
2026-01-27 20:08:53.01	168.33	22.16	-25.7	-25.5	18.2	0.00e+00	0	46	0	10049552384	23	13707
2026-01-27 20:08:56.03	168.52	22.74	-25.4	-25.2	18.3	0.00e+00	0	46	0	10385096704	22	14096
2026-01-27 20:08:59.05	168.71	23.34	-25.2	-25.0	18.5	0.00e+00	0	46	0	10720641024	22	13758
2026-01-27 20:09:02.07	168.91	23.95	-25.1	-24.9	18.6	0.00e+00	0	46	0	11056185344	22	13611
2026-01-27 20:09:05.10	169.12	24.59	-24.8	-24.6	18.6	0.00e+00	0	46	0	11408506880	21	13860
2026-01-27 20:09:08.12	169.33	25.24	-24.6	-24.5	18.7	0.00e+00	0	46	0	11744051200	21	13643
2026-01-27 20:09:11.14	169.56	25.91	-24.4	-24.2	18.7	0.00e+00	0	46	0	12079595520	20	14065
2026-01-27 20:09:14.17	169.79	26.60	-24.3	-24.1	18.6	0.00e+00	0	46	0	12423528448	20	13918
2026-01-27 20:09:17.20	170.04	27.32	-24.1	-23.9	18.5	0.00e+00	0	46	0	12767461376	20	13571
2026-01-27 20:09:20.23	170.30	28.05	-24.1	-24.0	18.5	0.00e+00	0	46	0	13103005696	19	14481
2026-01-27 20:09:23.25	170.57	28.81	-23.9	-23.8	18.6	0.00e+00	0	46	0	13446938624	19	14142
2026-01-27 20:09:26.27	170.86	29.59	-23.7	-23.5	18.7	0.00e+00	0	46	0	13782482944	19	13741
2026-01-27 20:09:29.30	171.16	30.40	-23.7	-23.5	18.6	0.00e+00	0	46	0	14134804480	19	13712
2026-01-27 20:09:32.32	171.48	31.23	-23.1	-23.0	18.9	0.00e+00	0	46	0	14470348800	18	13683
2026-01-27 20:09:35.34	171.81	32.10	-22.9	-22.7	18.7	0.00e+00	0	46	0	14805893120	17	14018
2026-01-27 20:09:38.36	172.17	32.98	-22.7	-22.6	18.8	0.00e+00	0	46	0	15141437440	17	13836
2026-01-27 20:09:41.39	172.54	33.91	-22.3	-22.2	18.9	0.00e+00	0	47	0	15493758976	16	13998
2026-01-27 20:09:44.41	172.94	34.86	-22.1	-22.0	18.8	0.00e+00	0	46	0	15829303296	16	13670
2026-01-27 20:09:47.44	173.36	35.85	-22.1	-21.9	18.8	0.00e+00	0	47	0	16164847616	16	13520
2026-01-27 20:09:50.47	173.81	36.87	-21.7	-21.6	18.9	0.00e+00	0	46	0	16500391936	15	13792
2026-01-27 20:09:53.50	174.30	37.92	-21.4	-21.2	18.7	0.00e+00	0	47	0	16852713472	14	14102
2026-01-27 20:09:56.52	174.81	39.01	-21.2	-21.0	18.5	0.00e+00	0	46	0	17188257792	14	13768
2026-01-27 20:09:59.55	175.36	40.14	-20.9	-20.8	18.5	0.00e+00	0	46	0	17532190720	13	14149
2026-01-27 20:10:02.56	175.95	41.31	-20.7	-20.6	18.3	0.00e+00	0	46	0	17867735040	13	13828
2026-01-27 20:10:05.58	176.59	42.51	-20.4	-20.3	18.3	0.00e+00	0	46	0	18211667968	12	14146
2026-01-27 20:10:08.61	177.28	43.76	-20.2	-20.0	18.4	0.00e+00	0	47	0	18555600896	12	13775
2026-01-27 20:10:11.63	178.02	45.05	-20.1	-20.0	18.5	0.00e+00	0	46	0	18891145216	12	13648
2026-01-27 20:10:14.65	178.84	46.38	-20.0	-19.8	18.5	0.00e+00	0	46	0	19226689536	11	14219
2026-01-27 20:10:17.67	179.72	47.76	-19.9	-19.7	18.6	0.00e+00	0	47	0	19562233856	11	14020
2026-01-27 20:10:20.69	180.69	49.17	-19.7	-19.5	18.5	0.00e+00	0	46	0	19914555392	11	13745
2026-01-27 20:10:23.72	181.76	50.64	-19.5	-19.4	18.6	0.00e+00	0	46	0	20250099712	11	13529
2026-01-27 20:10:26.74	182.94	52.13	-19.3	-19.1	18.5	0.00e+00	0	47	0	20585644032	10	13873
2026-01-27 20:10:29.75	184.24	53.67	-19.1	-19.0	18.6	0.00e+00	0	46	0	20929576960	10	13657
2026-01-27 20:10:32.77	185.70	55.24	-19.1	-18.9	18.7	0.00e+00	0	47	0	21265121280	10	13577
2026-01-27 20:10:35.79	187.33	56.84	-18.9	-18.8	18.4	0.00e+00	0	47	0	21609054208	9	14129
2026-01-27 20:10:38.81	189.16	58.47	-18.7	-18.5	18.0	0.00e+00	0	47	0	21952987136	9	13739
2026-01-27 20:10:41.83	191.24	60.12	-18.6	-18.4	17.8	0.00e+00	0	47	0	22288531456	9	13551
2026-01-27 20:10:44.85	193.60	61.78	-18.3	-18.1	17.5	0.00e+00	0	47	0	22624075776	8	13931
2026-01-27 20:10:47.87	196.31	63.43	-18.2	-18.0	17.3	0.00e+00	0	46	0	22959620096	8	13768
2026-01-27 20:10:50.89	199.43	65.07	-18.0	-17.8	16.6	0.00e+00	0	46	0	23311941632	7	14237
2026-01-27 20:10:53.91	203.03	66.67	-17.9	-17.8	16.6	0.00e+00	0	46	0	23647485952	7	14144
2026-01-27 20:10:56.93	207.20	68.20	-18.0	-17.8	16.6	0.00e+00	0	47	0	23983030272	7	14266
2026-01-27 20:10:59.95	212.05	69.63	-17.8	-17.7	16.9	0.00e+00	0	46	0	24326963200	7	13951
2026-01-27 20:11:02.98	217.66	70.94	-17.8	-17.6	16.8	0.00e+00	0	46	0	24662507520	7	13911
2026-01-27 20:11:06.00	224.08	72.06	-17.8	-17.6	16.9	0.00e+00	0	46	0	25006440448	7	13931
2026-01-27 20:11:09.03	231.32	72.96	-17.8	-17.6	17.2	0.00e+00	0	46	0	25350373376	7	13859
2026-01-27 20:11:12.04	239.22	73.57	-17.8	-17.6	17.3	0.00e+00	0	46	0	25685917696	7	13896
2026-01-27 20:11:15.06	247.62	73.87	-17.8	-17.6	17.4	0.00e+00	0	46	0	26021462016	7	13846
2026-01-27 20:11:18.08	256.16	73.83	-17.9	-17.8	17.3	0.00e+00	0	47	0	26357006336	7	14136
2026-01-27 20:11:21.09	264.45	73.46	-18.0	-17.8	17.5	0.00e+00	0	46	0	26709327872	7	14256
2026-01-27 20:11:24.10	272.21	72.78	-18.1	-17.9	17.8	0.00e+00	0	47	0	27044872192	7	14352
2026-01-27 20:11:27.13	279.27	71.83	-18.1	-17.9	17.9	0.00e+00	0	47	0	27380416512	7	14383
2026-01-27 20:11:30.14	285.48	70.67	-18.2	-18.0	18.1	0.00e+00	0	47	0	27724349440	7	14511
2026-01-27 20:11:33.16	290.90	69.33	-18.5	-18.3	18.4	0.00e+00	0	47	0	28059893760	7	15086
2026-01-27 20:11:36.17	295.57	67.88	-18.5	-18.3	18.6	0.00e+00	0	46	0	28395438080	7	15040
2026-01-27 20:11:39.18	299.60	66.34	-18.4	-18.3	18.5	0.00e+00	0	46	0	28747759616	7	14986
2026-01-27 20:11:42.20	303.09	64.73	-18.6	-18.5	18.8	0.00e+00	0	46	0	29083303936	7	15337
2026-01-27 20:11:45.23	306.12	63.09	-18.8	-18.6	19.0	0.00e+00	0	47	0	29418848256	8	14675
2026-01-27 20:11:48.25	308.74	61.43	-18.9	-18.7	19.2	0.00e+00	0	47	0	29754392576	8	14861
2026-01-27 20:11:51.27	311.04	59.78	-19.0	-18.9	19.4	0.00e+00	0	46	0	30098325504	8	15150
2026-01-27 20:11:54.29	313.06	58.14	-19.1	-18.9	19.5	0.00e+00	0	46	0	30442258432	8	15295
2026-01-27 20:11:57.31	314.85	56.52	-19.4	-19.3	18.7	0.00e+00	0	46	0	30777802752	9	14954
2026-01-27 20:12:00.33	316.44	54.92	-19.4	-19.2	18.5	0.00e+00	0	47	0	31121735680	9	14936
2026-01-27 20:12:03.35	317.86	53.36	-19.7	-19.5	18.4	0.00e+00	0	46	0	31457280000	9	15385
2026-01-27 20:12:06.38	319.14	51.83	-19.9	-19.7	18.6	0.00e+00	0	46	0	31801212928	10	14883
2026-01-27 20:12:09.40	320.29	50.34	-20.1	-19.9	18.5	0.00e+00	0	46	0	32145145856	10	15240
2026-01-27 20:12:12.41	321.33	48.90	-20.4	-20.2	18.5	0.00e+00	0	46	0	32480690176	11	14881
2026-01-27 20:12:15.43	322.28	47.50	-20.5	-20.3	18.5	0.00e+00	0	47	0	32816234496	11	15047
2026-01-27 20:12:18.44	323.15	46.14	-20.7	-20.5	18.7	0.00e+00	0	46	0	33151778816	12	14503
2026-01-27 20:12:21.47	323.95	44.82	-20.8	-20.6	18.7	0.00e+00	0	47	0	33495711744	12	14730
2026-01-27 20:12:24.49	324.68	43.54	-21.0	-20.8	18.7	0.00e+00	0	46	0	33839644672	12	15092
2026-01-27 20:12:27.50	325.36	42.31	-21.3	-21.2	18.7	0.00e+00	0	46	0	34175188992	13	14833
2026-01-27 20:12:30.51	325.98	41.12	-21.4	-21.3	18.5	0.00e+00	0	46	0	34519121920	13	14959
2026-01-27 20:12:33.52	326.56	39.97	-21.8	-21.7	18.5	0.00e+00	0	46	0	34854666240	14	14801
2026-01-27 20:12:36.55	327.11	38.85	-22.0	-21.8	18.8	0.00e+00	0	46	0	35190210560	14	15060
2026-01-27 20:12:39.56	327.61	37.77	-22.2	-22.0	18.7	0.00e+00	0	47	0	35525754880	14	15348
2026-01-27 20:12:42.58	328.09	36.73	-22.4	-22.3	18.8	0.00e+00	0	46	0	35878076416	15	14974
2026-01-27 20:12:45.60	328.53	35.72	-22.6	-22.5	18.8	0.00e+00	0	47	0	36213620736	15	15316
2026-01-27 20:12:48.61	328.95	34.75	-23.1	-22.9	18.9	0.00e+00	0	46	0	36549165056	16	15218
2026-01-27 20:12:51.63	329.34	33.80	-23.3	-23.1	18.9	0.00e+00	0	47	0	36893097984	17	14763
2026-01-27 20:12:54.65	329.71	32.89	-23.5	-23.3	18.8	0.00e+00	0	47	0	37228642304	17	15094
2026-01-27 20:12:57.67	330.06	32.01	-23.8	-23.6	19.0	0.00e+00	0	47	0	37564186624	18	14702
2026-01-27 20:13:00.69	330.39	31.16	-24.0	-23.8	18.8	0.00e+00	0	47	0	37916508160	18	15115
2026-01-27 20:13:03.70	330.71	30.33	-24.3	-24.1	18.9	0.00e+00	0	46	0	38252052480	19	14749
2026-01-27 20:13:06.73	331.01	29.53	-24.5	-24.4	18.8	0.00e+00	0	46	0	38587596800	19	15164
2026-01-27 20:13:09.75	331.29	28.75	-24.7	-24.6	18.9	0.00e+00	0	46	0	38923141120	20	14622
2026-01-27 20:13:12.76	331.56	28.00	-25.0	-24.8	18.7	0.00e+00	0	47	0	39267074048	20	15106
2026-01-27 20:13:15.79	331.82	27.27	-25.1	-24.9	18.7	0.00e+00	0	47	0	39611006976	20	15210
2026-01-27 20:13:18.80	332.06	26.57	-25.4	-25.2	18.6	0.00e+00	0	46	0	39946551296	21	14867
2026-01-27 20:13:21.82	332.30	25.88	-25.5	-25.3	18.4	0.00e+00	0	47	0	40290484224	21	15109
2026-01-27 20:13:24.84	332.52	25.22	-25.7	-25.6	18.6	0.00e+00	0	46	0	40626028544	22	14645
2026-01-27 20:13:27.85	332.74	24.57	-26.0	-25.8	18.3	0.00e+00	0	47	0	40961572864	22	15037
2026-01-27 20:13:30.88	332.95	23.94	-26.3	-26.1	18.1	0.00e+00	0	46	0	41313894400	23	14662
2026-01-27 20:13:33.89	333.14	23.33	-26.4	-26.2	17.9	0.00e+00	0	46	0	41649438720	23	14847
2026-01-27 20:13:36.91	333.33	22.74	-26.5	-26.4	17.8	0.00e+00	0	47	0	41984983040	23	15141
2026-01-27 20:13:39.92	333.52	22.16	-26.8	-26.7	17.4	0.00e+00	0	47	0	42320527360	24	14792
2026-01-27 20:13:42.94	333.69	21.60	-27.0	-26.8	17.6	0.00e+00	0	46	0	42664460288	24	15045
2026-01-27 20:13:45.96	333.86	21.05	-27.1	-27.0	17.4	0.00e+00	0	47	0	43000004608	24	15309
2026-01-27 20:13:48.97	334.03	20.52	-27.3	-27.2	17.4	0.00e+00	0	47	0	43335548928	25	14809
2026-01-27 20:13:51.99	334.19	20.00	-27.5	-27.4	17.4	0.00e+00	0	47	0	43687870464	25	15148
2026-01-27 20:13:55.01	334.34	19.49	-27.8	-27.7	17.6	0.00e+00	0	47	0	44023414784	26	14821
2026-01-27 20:13:58.03	334.49	18.99	-27.9	-27.7	17.7	0.00e+00	0	47	0	44358959104	26	14935
2026-01-27 20:14:01.05	334.63	18.51	-28.1	-28.0	17.7	0.00e+00	0	46	0	44694503424	26	15333
2026-01-27 20:14:04.08	334.77	18.04	-28.3	-28.2	17.6	0.00e+00	0	47	0	45030047744	27	14821
2026-01-27 20:14:07.09	334.90	17.58	-28.5	-28.3	17.8	0.00e+00	0	47	0	45382369280	27	15093
2026-01-27 20:14:10.12	335.03	17.13	-28.6	-28.5	17.7	0.00e+00	0	47	0	45717913600	27	15329
2026-01-27 20:14:13.14	335.16	16.68	-28.7	-28.6	17.7	0.00e+00	0	47	0	46061846528	28	14623
2026-01-27 20:14:16.17	335.28	16.25	-28.8	-28.7	17.5	3.80e-06	0	47	0	46397390848	28	14787
2026-01-27 20:14:19.19	335.40	15.83	-29.0	-28.8	17.4	1.90e-06	0	47	0	46741323776	28	15098
2026-01-27 20:14:22.21	335.52	15.42	-29.2	-29.0	17.3	1.90e-06	0	47	0	47085256704	28	15470
2026-01-27 20:14:25.24	335.63	15.01	-29.2	-29.1	17.3	1.90e-06	0	47	0	47420801024	29	14662
2026-01-27 20:14:28.26	335.74	14.62	-29.5	-29.3	17.1	3.80e-06	0	47	0	47756345344	29	15117
2026-01-27 20:14:31.29	335.84	14.23	-29.6	-29.5	16.9	5.70e-06	0	47	0	48108666880	30	14458
2026-01-27 20:14:34.31	335.95	13.85	-29.7	-29.5	16.7	3.80e-06	0	47	0	48444211200	30	14559
2026-01-27 20:14:37.32	336.05	13.48	-29.7	-29.5	16.8	0.00e+00	0	47	0	48779755520	30	14591
2026-01-27 20:14:40.35	336.15	13.11	-29.8	-29.7	16.5	2.47e-05	0	47	0	49115299840	30	14816
2026-01-27 20:14:43.37	336.24	12.75	-30.0	-29.9	16.6	5.70e-06	0	47	0	49459232768	30	15125
2026-01-27 20:14:46.40	336.34	12.40	-30.1	-29.9	16.4	5.70e-06	0	47	0	49803165696	30	15249
2026-01-27 20:14:49.43	336.43	12.05	-30.2	-30.0	16.3	1.52e-05	0	47	0	50138710016	31	14575
2026-01-27 20:14:52.45	336.52	11.71	-30.3	-30.2	16.2	2.09e-05	0	47	0	50482642944	31	14851
2026-01-27 20:14:55.47	336.60	11.38	-30.5	-30.3	16.1	3.05e-05	0	47	0	50818187264	31	15091
2026-01-27 20:14:58.49	336.69	11.05	-53.7	-55.9	6.2	0.00e+00	0	46	104	50969182208	77	20204
2026-01-27 20:15:01.51	336.77	10.73	-53.7	-55.8	6.2	0.00e+00	0	46	104	50969182208	78	18902
2026-01-27 20:15:04.53	336.85	10.41	-53.6	-55.7	6.2	0.00e+00	0	46	104	50969182208	78	18753
2026-01-27 20:15:07.55	336.93	10.10	-53.6	-55.7	6.2	0.00e+00	0	46	104	50969182208	78	18643
2026-01-27 20:15:10.57	337.01	9.79	-53.6	-55.7	6.2	0.00e+00	0	46	104	50969182208	78	18716
2026-01-27 20:15:13.60	337.09	9.49	-53.5	-55.6	6.2	0.00e+00	0	46	104	50969182208	78	18532
2026-01-27 20:15:16.62	337.16	9.19	-53.4	-55.6	6.2	0.00e+00	0	46	104	50969182208	78	18414
2026-01-27 20:15:19.65	337.24	8.90	-53.4	-55.5	6.2	0.00e+00	0	46	104	50969182208	78	18281
2026-01-27 20:15:22.67	337.31	8.61	-53.5	-55.6	6.2	0.00e+00	0	46	104	50969182208	78	18409
2026-01-27 20:15:25.70	337.38	8.32	-53.4	-55.4	6.2	0.00e+00	0	46	104	50969182208	78	18167
2026-01-27 20:15:28.73	337.45	8.04	-53.3	-55.4	6.2	0.00e+00	0	46	104	50969182208	78	18148
2026-01-27 20:15:31.75	337.52	7.76	-53.3	-55.4	6.2	0.00e+00	0	46	104	50969182208	78	18044
2026-01-27 20:15:34.78	337.58	7.49	-53.3	-55.4	6.2	0.00e+00	0	46	104	50969182208	78	18123
2026-01-27 20:15:37.81	337.65	7.22	-53.2	-55.3	6.2	0.00e+00	0	46	104	50969182208	78	17862
2026-01-27 20:15:40.83	337.71	6.96	-53.2	-55.3	6.2	0.00e+00	0	46	104	50969182208	78	17785
2026-01-27 20:15:43.84	337.78	6.70	-53.1	-55.2	6.2	0.00e+00	0	46	104	50969182208	78	17665
2026-01-27 20:15:46.86	337.84	6.44	-53.2	-55.3	6.2	0.00e+00	0	46	104	50969182208	78	17820
2026-01-27 20:15:49.88	337.90	6.18	-52.9	-55.0	6.2	0.00e+00	0	46	104	50969182208	77	18245
2026-01-27 20:15:52.91	337.96	5.93	-52.9	-55.0	6.2	0.00e+00	0	46	104	50969182208	77	18351
2026-01-27 20:15:55.93	338.02	5.68	-52.8	-54.9	6.2	0.00e+00	0	46	104	50969182208	77	18148
2026-01-27 20:15:58.95	338.08	5.44	-53.0	-55.1	6.2	0.00e+00	0	46	104	50969182208	77	18395
2026-01-27 20:16:01.97	338.14	5.19	-52.7	-54.8	6.2	0.00e+00	0	46	104	50969182208	77	17848
2026-01-27 20:16:05.00	338.19	4.95	-52.9	-55.1	6.2	0.00e+00	0	46	104	50969182208	77	18443
2026-01-27 20:16:08.02	338.25	4.71	-54.3	-56.3	6.2	0.00e+00	0	46	104	50969182208	79	19008
2026-01-27 20:16:11.04	338.30	4.48	-54.5	-56.6	6.2	0.00e+00	0	46	104	50969182208	79	19655
2026-01-27 20:16:14.06	338.36	4.25	-54.5	-56.6	6.2	0.00e+00	0	46	104	50969182208	79	19665
2026-01-27 20:16:17.09	338.41	4.02	-54.3	-56.4	6.2	0.00e+00	0	46	104	50969182208	79	19083
2026-01-27 20:16:20.11	338.46	3.79	-54.2	-56.3	6.2	0.00e+00	0	46	104	50969182208	79	18852
2026-01-27 20:16:23.12	338.51	3.57	-54.2	-56.3	6.2	0.00e+00	0	46	104	50969182208	79	18836
2026-01-27 20:16:26.14	338.56	3.35	-54.2	-56.2	6.2	0.00e+00	0	46	104	50969182208	79	18772
2026-01-27 20:16:29.17	338.61	3.13	-54.0	-56.1	6.2	0.00e+00	0	46	104	50969182208	79	18517
2026-01-27 20:16:32.20	338.66	2.91	-54.0	-56.1	6.2	0.00e+00	0	46	104	50969182208	79	18513
2026-01-27 20:16:35.22	338.71	2.69	-54.0	-56.1	6.2	0.00e+00	0	46	104	50969182208	79	18410
2026-01-27 20:16:38.24	338.76	2.48	-54.0	-56.0	6.2	0.00e+00	0	46	104	50969182208	79	18386
2026-01-27 20:16:41.27	338.81	2.27	-53.9	-56.0	6.2	0.00e+00	0	46	104	50969182208	79	18371
2026-01-27 20:16:44.29	338.86	2.06	-53.9	-56.0	6.2	0.00e+00	0	46	104	50969182208	79	18272

#Closed at: 2026-01-27 20:16:47
#Recorded file [50969 MB]: D:/lorett/data/31041_260127_230548.dat