passes_logs/2026/01/27/R3.2S_Murmansk/R3.2S_Murmansk__20260127_112933_AQUA_rec.log

#Pass ID: 20260127_112933_AQUA
#Satellite: AQUA
#Configuration: AQUA
#almurnet v.1.7.20251203
#Start time: 2026-01-27 11:29:32

#Version: 2.2.20231116
#Station: R3.2S_Murmansk
#Location: 33.079688 lon 68.888172 lat
#TLE: 1 27424U 02022A   26026.85810808  .00001813  00000+0  37258-3 0  9999
#TLE: 2 27424  98.4101 353.4861 0001866  64.3332 317.5249 14.61864179262622

#Time	Az	El	Level	Level2	SNR	BER	BlckErr	Temp	State	Recorded	gain1	gain2
2026-01-27 11:29:32.86	156.99	1.99	-55.6	-73.4	3.8	7.46e-01	0	41	0	0	82	28521
2026-01-27 11:29:36.89	157.02	2.26	-55.7	-73.6	3.8	7.46e-01	0	41	104	0	82	29136
2026-01-27 11:29:40.92	157.05	2.53	-55.7	-73.6	3.8	7.44e-01	0	41	104	0	82	29038
2026-01-27 11:29:44.95	157.09	2.81	-55.6	-73.5	3.8	7.46e-01	0	41	104	0	82	28700
2026-01-27 11:29:48.98	157.12	3.09	-55.4	-73.1	3.8	7.45e-01	0	41	104	0	82	27665
2026-01-27 11:29:53.02	157.16	3.37	-55.1	-72.9	3.8	7.48e-01	0	41	104	0	82	26878
2026-01-27 11:29:57.05	157.19	3.65	-54.4	-72.1	3.8	7.45e-01	0	41	104	0	80	27417
2026-01-27 11:30:01.08	157.23	3.94	-54.0	-71.3	3.8	7.44e-01	0	41	104	0	79	26703
2026-01-27 11:30:05.11	157.26	4.23	-52.9	-59.7	10.9	6.17e-01	0	41	0	3145728	77	7816
2026-01-27 11:30:09.14	157.30	4.53	-49.6	-52.2	18.7	6.06e-01	0	41	0	10485760	71	4655
2026-01-27 11:30:13.17	157.34	4.83	-47.1	-48.9	22.1	6.08e-01	0	41	0	18350080	66	4255
2026-01-27 11:30:17.20	157.37	5.13	-51.8	-56.3	14.4	6.05e-01	0	42	0	25690112	75	5978
2026-01-27 11:30:21.23	157.41	5.43	-51.3	-55.3	15.3	6.06e-01	0	42	0	33030144	74	5656
2026-01-27 11:30:25.25	157.45	5.74	-46.4	-47.9	23.0	6.08e-01	0	42	0	40894464	64	4275
2026-01-27 11:30:29.27	157.49	6.06	-46.4	-48.0	23.1	6.04e-01	0	42	0	48234496	64	4302
2026-01-27 11:30:33.30	157.53	6.38	-46.2	-47.7	23.4	6.05e-01	0	42	0	55574528	64	4146
2026-01-27 11:30:37.33	157.57	6.70	-46.2	-47.7	23.5	6.08e-01	0	42	0	63438848	63	4412
2026-01-27 11:30:41.36	157.61	7.03	-46.0	-47.4	23.8	6.05e-01	0	42	0	70778880	63	4265
2026-01-27 11:30:45.39	157.65	7.36	-46.2	-47.7	23.5	6.03e-01	0	42	0	78643200	63	4423
2026-01-27 11:30:49.42	157.70	7.70	-45.9	-47.3	24.0	6.05e-01	0	42	0	85983232	63	4199
2026-01-27 11:30:53.45	157.74	8.04	-45.8	-47.2	24.1	6.03e-01	0	42	0	93323264	63	4158
2026-01-27 11:30:57.48	157.78	8.39	-45.7	-47.1	24.2	6.07e-01	0	42	0	101187584	63	4107
2026-01-27 11:31:01.51	157.83	8.74	-45.7	-47.1	24.2	6.04e-01	0	42	0	108527616	63	4123
2026-01-27 11:31:05.53	157.88	9.10	-45.6	-47.0	24.4	6.04e-01	0	42	0	116391936	62	4293
2026-01-27 11:31:09.56	157.92	9.46	-45.6	-47.0	24.4	6.07e-01	0	42	0	123731968	62	4305
2026-01-27 11:31:13.58	157.97	9.83	-45.3	-46.6	24.8	6.08e-01	0	42	0	131596288	62	4130
2026-01-27 11:31:17.61	158.02	10.21	-45.7	-47.0	24.4	6.05e-01	0	42	0	138936320	62	4332
2026-01-27 11:31:21.63	158.07	10.59	-45.3	-46.6	24.8	6.05e-01	0	42	0	146276352	62	4126
2026-01-27 11:31:25.66	158.12	10.98	-45.3	-46.6	24.9	6.05e-01	0	42	0	154140672	62	4106
2026-01-27 11:31:29.68	158.17	11.38	-45.3	-46.6	24.8	6.06e-01	0	42	0	161480704	62	4137
2026-01-27 11:31:33.71	158.22	11.78	-45.1	-46.4	25.0	6.05e-01	0	42	0	168820736	62	4040
2026-01-27 11:31:37.73	158.28	12.19	-45.0	-46.3	25.2	6.04e-01	0	42	0	176685056	61	4216
2026-01-27 11:31:41.75	158.33	12.61	-44.7	-46.0	25.5	6.05e-01	0	42	0	184025088	61	4056
2026-01-27 11:31:45.77	158.39	13.04	-44.7	-45.9	25.6	6.07e-01	0	42	0	191889408	61	4031
2026-01-27 11:31:49.80	158.44	13.47	-44.5	-45.7	25.7	6.07e-01	0	42	0	199229440	61	3948
2026-01-27 11:31:53.83	158.50	13.92	-44.5	-45.7	25.8	6.06e-01	0	42	0	206569472	60	4165
2026-01-27 11:31:57.86	158.56	14.37	-44.6	-45.8	25.7	6.06e-01	0	42	0	214433792	60	4239
2026-01-27 11:32:01.89	158.63	14.84	-44.7	-45.9	25.6	6.05e-01	0	42	0	221773824	60	4263
2026-01-27 11:32:05.91	158.69	15.31	-44.6	-45.8	25.7	6.05e-01	0	42	0	229638144	60	4239
2026-01-27 11:32:09.93	158.75	15.79	-44.5	-45.7	25.8	6.03e-01	0	42	0	236978176	60	4184
2026-01-27 11:32:13.96	158.82	16.29	-44.4	-45.6	26.0	6.04e-01	0	42	0	244318208	60	4099
2026-01-27 11:32:17.99	158.89	16.80	-44.4	-45.5	26.0	6.06e-01	0	42	0	252182528	60	4088
2026-01-27 11:32:22.02	158.96	17.31	-44.4	-45.6	26.0	6.06e-01	0	42	0	259522560	60	4128
2026-01-27 11:32:26.05	159.04	17.85	-44.5	-45.7	25.9	6.06e-01	0	42	0	267386880	60	4178
2026-01-27 11:32:30.08	159.11	18.39	-44.4	-45.6	26.0	6.05e-01	0	42	0	274726912	60	4116
2026-01-27 11:32:34.11	159.19	18.95	-44.4	-45.5	26.1	6.06e-01	0	42	0	282591232	60	4084
2026-01-27 11:32:38.15	159.27	19.52	-44.4	-45.5	26.1	6.04e-01	0	42	0	289931264	60	4092
2026-01-27 11:32:42.17	159.35	20.10	-44.6	-45.7	25.9	6.03e-01	0	42	0	297271296	60	4187
2026-01-27 11:32:46.20	159.44	20.71	-44.6	-45.8	25.9	6.03e-01	0	42	0	305135616	60	4227
2026-01-27 11:32:50.23	159.53	21.32	-44.7	-45.9	25.8	6.07e-01	0	42	0	312475648	60	4271
2026-01-27 11:32:54.26	159.62	21.96	-44.8	-46.0	25.7	6.06e-01	0	43	0	319815680	60	4312
2026-01-27 11:32:58.29	159.71	22.61	-44.9	-46.1	25.5	6.05e-01	0	42	0	327680000	60	4391
2026-01-27 11:33:02.31	159.81	23.28	-45.0	-46.2	25.5	6.05e-01	0	42	0	335020032	60	4425
2026-01-27 11:33:06.35	159.92	23.97	-44.9	-46.2	25.6	6.04e-01	0	43	0	342884352	60	4392
2026-01-27 11:33:10.38	160.02	24.68	-45.0	-46.2	25.6	6.05e-01	0	43	0	350224384	60	4427
2026-01-27 11:33:14.40	160.13	25.41	-44.9	-46.1	25.7	6.04e-01	0	42	0	358088704	60	4355
2026-01-27 11:33:18.43	160.25	26.16	-44.3	-45.5	26.2	6.07e-01	0	42	0	365428736	60	4068
2026-01-27 11:33:22.47	160.37	26.94	-44.7	-45.9	25.8	6.06e-01	0	42	0	373293056	60	4276
2026-01-27 11:33:26.50	160.50	27.75	-44.5	-45.7	26.0	6.05e-01	0	42	0	380633088	60	4169
2026-01-27 11:33:30.53	160.63	28.57	-44.4	-45.5	26.2	6.04e-01	0	43	0	387973120	60	4098
2026-01-27 11:33:34.55	160.77	29.43	-45.3	-56.1	3.8	7.36e-01	0	43	104	390070272	61	13017
2026-01-27 11:33:38.58	160.92	30.31	-46.2	-56.9	3.8	7.41e-01	0	43	104	390070272	64	12087
2026-01-27 11:33:42.60	161.07	31.22	-47.1	-57.9	3.9	7.45e-01	0	43	104	390070272	64	13513
2026-01-27 11:33:46.63	161.24	32.17	-45.7	-56.2	4.1	7.34e-01	0	42	104	390070272	63	11807
2026-01-27 11:33:50.66	161.41	33.14	-45.4	-56.1	3.8	7.45e-01	0	43	104	390070272	62	12370
2026-01-27 11:33:54.68	161.59	34.15	-47.1	-58.1	3.8	7.45e-01	0	42	104	390070272	66	12291
2026-01-27 11:33:58.71	161.79	35.20	-49.6	-61.0	3.8	7.43e-01	0	43	104	390070272	69	14490
2026-01-27 11:34:02.74	161.99	36.29	-46.4	-57.5	3.8	7.47e-01	0	43	104	390070272	65	12148
2026-01-27 11:34:06.77	162.21	37.41	-47.1	-58.1	3.8	7.46e-01	0	42	104	390070272	64	13786
2026-01-27 11:34:10.80	162.45	38.58	-48.8	-60.0	3.8	7.43e-01	0	42	104	390070272	69	12917
2026-01-27 11:34:14.83	162.70	39.79	-51.9	-64.4	3.8	7.43e-01	0	43	104	390070272	74	15958
2026-01-27 11:34:18.86	162.97	41.04	-46.6	-57.5	3.9	7.43e-01	0	43	104	390070272	65	12158
2026-01-27 11:34:22.89	163.26	42.34	-46.2	-57.0	3.8	7.47e-01	0	43	104	390070272	63	12887
2026-01-27 11:34:26.93	163.58	43.70	-46.0	-56.8	3.8	7.45e-01	0	43	104	390070272	64	11910
2026-01-27 11:34:30.95	163.92	45.10	-45.5	-56.3	3.8	7.41e-01	0	42	104	390070272	61	13304
2026-01-27 11:34:34.98	164.30	46.55	-45.4	-56.2	3.8	7.46e-01	0	43	104	390070272	62	12440
2026-01-27 11:34:39.01	164.71	48.06	-45.6	-56.4	3.8	7.43e-01	0	43	104	390070272	62	12739
2026-01-27 11:34:43.04	165.16	49.62	-45.6	-56.4	3.8	7.45e-01	0	43	104	390070272	63	12024
2026-01-27 11:34:47.07	165.66	51.24	-44.9	-55.7	3.8	7.45e-01	0	43	104	390070272	61	12419
2026-01-27 11:34:51.10	166.22	52.92	-44.8	-55.5	3.8	7.41e-01	0	43	104	390070272	61	12101
2026-01-27 11:34:55.13	166.85	54.65	-44.3	-55.0	3.8	7.46e-01	0	43	104	390070272	60	12227
2026-01-27 11:34:59.16	167.55	56.45	-45.7	-56.4	3.8	7.42e-01	0	42	104	390070272	63	12084
2026-01-27 11:35:03.19	168.36	58.30	-45.5	-56.2	3.9	7.43e-01	0	43	104	390070272	63	11722
2026-01-27 11:35:07.22	169.28	60.20	-46.5	-57.3	3.9	7.44e-01	0	43	104	390070272	64	12545
2026-01-27 11:35:11.25	170.36	62.16	-46.8	-57.7	3.8	7.44e-01	0	43	104	390070272	65	12439
2026-01-27 11:35:15.29	171.62	64.18	-48.6	-59.7	3.8	7.45e-01	0	43	104	390070272	68	13157
2026-01-27 11:35:19.32	173.13	66.23	-49.9	-61.3	3.8	7.46e-01	0	43	104	390070272	70	14053
2026-01-27 11:35:23.35	174.95	68.32	-49.7	-61.1	3.8	7.43e-01	0	43	104	390070272	71	13077
2026-01-27 11:35:27.38	177.20	70.44	-51.7	-63.5	3.8	7.43e-01	0	43	104	390070272	73	15385
2026-01-27 11:35:31.41	180.03	72.57	-49.7	-61.2	3.8	7.42e-01	0	43	104	390070272	71	13135
2026-01-27 11:35:35.44	183.70	74.69	-51.9	-63.5	3.8	7.44e-01	0	43	104	390070272	73	15319
2026-01-27 11:35:39.46	188.56	76.76	-48.1	-59.2	3.9	7.46e-01	0	43	104	390070272	67	13175
2026-01-27 11:35:43.49	195.26	78.74	-54.5	-69.0	3.8	7.48e-01	0	43	104	390070272	79	20521
2026-01-27 11:35:47.52	204.69	80.52	-46.0	-56.8	3.8	7.40e-01	0	43	104	390070272	64	11866
2026-01-27 11:35:51.55	218.04	81.96	-54.9	-69.0	3.8	7.50e-01	0	43	104	390070272	79	20351
2026-01-27 11:35:55.58	235.80	82.81	-46.2	-56.9	3.8	7.44e-01	0	43	104	390070272	64	12004
2026-01-27 11:35:59.62	255.95	82.85	-55.6	-73.3	3.6	7.49e-01	0	43	104	390070272	81	29804
2026-01-27 11:36:03.65	274.08	82.07	-46.7	-57.8	3.8	7.44e-01	0	43	104	390070272	64	13379
2026-01-27 11:36:07.67	287.82	80.69	-55.6	-73.2	3.8	7.47e-01	0	43	104	390070272	81	29495
2026-01-27 11:36:11.71	297.61	78.92	-47.4	-58.3	3.9	7.42e-01	0	43	104	390070272	66	12611
2026-01-27 11:36:15.74	304.52	76.96	-55.6	-73.3	3.8	7.48e-01	0	43	104	390070272	81	29719
2026-01-27 11:36:19.77	309.53	74.89	-48.5	-59.8	3.9	7.45e-01	0	43	104	390070272	68	13266
2026-01-27 11:36:23.79	313.29	72.79	-55.7	-73.4	3.8	7.45e-01	0	43	104	390070272	81	30209
2026-01-27 11:36:27.82	316.19	70.66	-49.1	-60.0	3.8	7.47e-01	0	43	104	390070272	70	12108
2026-01-27 11:36:31.85	318.48	68.54	-55.7	-73.4	3.8	7.50e-01	0	43	104	390070272	81	30212
2026-01-27 11:36:35.88	320.34	66.45	-49.4	-60.2	3.8	7.48e-01	0	43	104	390070272	70	12488
2026-01-27 11:36:39.92	321.87	64.39	-55.7	-73.4	3.8	7.45e-01	0	43	104	390070272	81	30150
2026-01-27 11:36:43.94	323.16	62.39	-47.5	-58.3	3.8	7.42e-01	0	43	104	390070272	67	11940
2026-01-27 11:36:47.97	324.25	60.43	-55.6	-73.2	3.8	7.46e-01	0	43	104	390070272	81	29490
2026-01-27 11:36:52.00	325.18	58.52	-46.1	-56.8	3.8	7.47e-01	0	43	104	390070272	64	11933
2026-01-27 11:36:56.04	326.00	56.66	-55.5	-73.0	3.8	7.45e-01	0	43	104	390070272	81	28858
2026-01-27 11:37:00.07	326.72	54.87	-45.0	-56.0	3.8	7.44e-01	0	43	104	390070272	62	12150
2026-01-27 11:37:04.09	327.35	53.14	-55.4	-72.5	3.8	7.43e-01	0	43	104	390070272	81	27244
2026-01-27 11:37:08.11	327.92	51.46	-45.3	-56.2	3.8	7.46e-01	0	43	104	390070272	62	12471
2026-01-27 11:37:12.14	328.42	49.84	-55.4	-72.5	3.8	7.44e-01	0	43	104	390070272	81	27357
2026-01-27 11:37:16.16	328.88	48.28	-46.1	-56.8	3.8	7.46e-01	0	43	104	390070272	63	12658
2026-01-27 11:37:20.19	329.30	46.77	-55.3	-72.4	3.8	7.43e-01	0	43	104	390070272	81	26838
2026-01-27 11:37:24.21	329.67	45.32	-45.9	-57.0	3.8	7.46e-01	0	43	104	390070272	63	12877
2026-01-27 11:37:28.24	330.02	43.92	-55.3	-72.4	3.8	7.46e-01	0	43	104	390070272	81	26894
2026-01-27 11:37:32.26	330.34	42.57	-46.0	-56.8	3.8	7.45e-01	0	43	104	390070272	63	12619
2026-01-27 11:37:36.29	330.64	41.27	-55.4	-72.8	3.8	7.46e-01	0	43	104	390070272	81	28280
2026-01-27 11:37:40.32	330.91	40.01	-46.6	-57.8	3.8	7.43e-01	0	43	104	390070272	65	12565
2026-01-27 11:37:44.36	331.17	38.79	-55.4	-73.0	3.8	7.46e-01	0	43	104	390070272	81	28716
2026-01-27 11:37:48.38	331.40	37.63	-46.0	-57.0	3.8	7.44e-01	0	43	104	390070272	64	12192
2026-01-27 11:37:52.41	331.62	36.50	-55.3	-72.6	3.8	7.44e-01	0	43	104	390070272	81	27684
2026-01-27 11:37:56.43	331.83	35.42	-45.4	-56.2	3.8	7.46e-01	0	43	104	390070272	62	12406
2026-01-27 11:38:00.45	332.03	34.37	-55.2	-72.5	3.8	7.44e-01	0	43	104	390070272	81	27232
2026-01-27 11:38:04.49	332.21	33.36	-44.7	-55.3	3.8	7.41e-01	0	43	104	390070272	61	11922
2026-01-27 11:38:08.51	332.39	32.38	-54.2	-69.1	3.9	7.41e-01	0	43	104	390070272	80	19534
2026-01-27 11:38:12.55	332.55	31.43	-44.2	-54.9	3.8	7.44e-01	0	43	104	390070272	60	11963
2026-01-27 11:38:16.59	332.71	30.51	-53.2	-66.6	3.9	7.43e-01	0	43	104	390070272	78	16378
2026-01-27 11:38:20.61	332.86	29.63	-44.6	-55.5	3.8	7.45e-01	0	43	104	390070272	60	12813
2026-01-27 11:38:24.64	333.00	28.78	-53.2	-66.7	3.9	7.40e-01	0	43	104	390070272	78	16518
2026-01-27 11:38:28.67	333.14	27.95	-44.7	-55.2	3.8	7.46e-01	0	43	104	390070272	61	11759
2026-01-27 11:38:32.71	333.26	27.14	-52.8	-65.8	3.9	7.43e-01	0	43	104	390070272	77	15823
2026-01-27 11:38:36.74	333.39	26.37	-45.0	-55.8	3.8	7.44e-01	0	43	104	390070272	61	12642
2026-01-27 11:38:40.77	333.51	25.61	-52.8	-65.8	3.8	7.44e-01	0	43	104	390070272	77	15939
2026-01-27 11:38:44.80	333.62	24.88	-45.3	-56.3	3.8	7.42e-01	0	43	104	390070272	62	12584
2026-01-27 11:38:48.83	333.73	24.17	-52.8	-66.0	3.8	7.44e-01	0	43	104	390070272	77	16211
2026-01-27 11:38:52.86	333.83	23.48	-45.5	-56.3	3.8	7.43e-01	0	43	104	390070272	62	12628
2026-01-27 11:38:56.89	333.93	22.81	-52.8	-65.9	3.8	7.48e-01	0	43	104	390070272	77	15990
2026-01-27 11:39:00.93	334.03	22.15	-45.3	-56.1	3.8	7.45e-01	0	43	104	390070272	62	12252
2026-01-27 11:39:04.96	334.13	21.52	-52.8	-66.0	3.8	7.46e-01	0	43	104	390070272	77	16192
2026-01-27 11:39:08.99	334.22	20.90	-45.2	-55.9	3.8	7.43e-01	0	43	104	390070272	62	12029
2026-01-27 11:39:13.02	334.30	20.30	-54.5	-70.8	3.8	7.46e-01	0	43	104	390070272	80	23753
2026-01-27 11:39:17.06	334.39	19.71	-44.9	-55.5	3.8	7.43e-01	0	43	104	390070272	61	12217
2026-01-27 11:39:21.09	334.47	19.14	-52.3	-65.2	3.9	7.42e-01	0	43	104	390070272	76	15664
2026-01-27 11:39:25.13	334.55	18.58	-44.9	-55.6	3.8	7.45e-01	0	43	104	390070272	61	12299
2026-01-27 11:39:29.15	334.63	18.04	-52.4	-65.2	3.8	7.46e-01	0	43	104	390070272	76	15675
2026-01-27 11:39:33.19	334.70	17.50	-44.9	-55.7	3.8	7.41e-01	0	43	104	390070272	61	12403
2026-01-27 11:39:37.21	334.78	16.99	-54.6	-71.6	3.8	7.45e-01	0	43	104	390070272	80	25894
2026-01-27 11:39:41.24	334.85	16.48	-44.8	-55.6	3.8	7.42e-01	0	43	104	390070272	61	12330
2026-01-27 11:39:45.28	334.92	15.98	-50.6	-62.7	3.8	7.43e-01	0	43	104	390070272	73	13896
2026-01-27 11:39:49.30	334.98	15.50	-44.9	-55.7	3.8	7.46e-01	0	43	104	390070272	61	12436
2026-01-27 11:39:53.33	335.05	15.03	-53.6	-68.7	3.9	7.41e-01	0	43	104	390070272	79	19719
2026-01-27 11:39:57.36	335.11	14.56	-44.8	-55.4	3.8	7.46e-01	0	43	104	390070272	61	12084
2026-01-27 11:40:01.39	335.18	14.11	-48.0	-50.4	5.3	7.01e-01	0	43	104	390070272	68	4524
2026-01-27 11:40:05.42	335.24	13.66	-44.4	-45.6	25.8	6.02e-01	0	43	0	396886016	60	4105
2026-01-27 11:40:09.44	335.30	13.23	-44.4	-45.5	25.8	6.05e-01	0	43	0	404226048	60	4097
2026-01-27 11:40:13.46	335.35	12.80	-44.4	-45.6	25.6	6.01e-01	0	43	0	411566080	60	4099
2026-01-27 11:40:17.49	335.41	12.38	-44.7	-45.9	25.3	6.03e-01	0	43	0	419430400	59	4535
2026-01-27 11:40:21.52	335.47	11.97	-44.5	-45.7	25.6	6.04e-01	0	43	0	426770432	60	4193
2026-01-27 11:40:25.55	335.52	11.56	-44.7	-45.9	25.3	6.02e-01	0	43	0	434110464	60	4283
2026-01-27 11:40:29.58	335.58	11.17	-44.8	-46.1	25.0	6.02e-01	0	43	0	441974784	60	4348
2026-01-27 11:40:33.60	335.63	10.78	-44.9	-46.2	25.1	6.03e-01	0	43	0	449314816	60	4405
2026-01-27 11:40:37.64	335.68	10.39	-45.0	-46.2	25.0	6.01e-01	0	43	0	457179136	60	4437
2026-01-27 11:40:41.67	335.73	10.02	-44.8	-46.1	24.9	6.02e-01	0	43	0	464519168	60	4361
2026-01-27 11:40:45.70	335.78	9.65	-45.0	-46.3	24.5	6.02e-01	0	43	0	472383488	60	4455
2026-01-27 11:40:49.73	335.83	9.28	-45.1	-46.4	24.5	6.01e-01	0	43	0	479723520	60	4544
2026-01-27 11:40:53.76	335.88	8.92	-45.2	-46.5	24.6	6.03e-01	0	43	0	487063552	60	4586
2026-01-27 11:40:57.79	335.93	8.57	-45.3	-46.7	24.5	6.02e-01	0	43	0	494927872	61	4396
2026-01-27 11:41:01.81	335.97	8.22	-45.5	-46.9	23.9	6.00e-01	0	43	0	502267904	61	4506
2026-01-27 11:41:05.84	336.02	7.88	-45.6	-47.0	23.7	6.02e-01	0	43	0	510132224	61	4557
2026-01-27 11:41:09.87	336.06	7.54	-45.6	-47.0	23.7	6.03e-01	0	43	0	517472256	62	4322
2026-01-27 11:41:13.89	336.11	7.21	-45.7	-47.1	23.7	6.00e-01	0	43	0	524812288	61	4604
2026-01-27 11:41:17.92	336.15	6.88	-45.9	-47.3	23.6	6.06e-01	0	43	0	532676608	62	4483
2026-01-27 11:41:21.94	336.20	6.56	-45.8	-47.2	23.4	6.01e-01	0	43	0	540016640	62	4427
2026-01-27 11:41:25.98	336.24	6.24	-46.2	-47.7	22.4	6.02e-01	0	42	0	547880960	62	4669
2026-01-27 11:41:30.01	336.28	5.93	-46.1	-47.6	21.9	6.02e-01	0	43	0	555220992	63	4357
2026-01-27 11:41:34.05	336.32	5.62	-46.4	-47.9	21.4	6.00e-01	0	43	0	562561024	63	4533
2026-01-27 11:41:38.08	336.36	5.31	-46.3	-47.9	21.6	6.01e-01	0	43	0	570425344	63	4518
2026-01-27 11:41:42.11	336.40	5.01	-46.7	-48.4	21.6	6.03e-01	0	43	0	577765376	64	4529
2026-01-27 11:41:46.14	336.44	4.71	-54.8	-72.6	3.8	7.45e-01	0	43	104	579338240	80	29170
2026-01-27 11:41:50.17	336.48	4.42	-55.1	-72.9	3.8	7.45e-01	0	43	104	579338240	80	30378
2026-01-27 11:41:54.20	336.52	4.13	-55.0	-72.8	3.8	7.43e-01	0	43	104	579338240	80	29968
2026-01-27 11:41:58.23	336.56	3.84	-54.9	-72.7	3.8	7.44e-01	0	43	104	579338240	80	29637
2026-01-27 11:42:02.26	336.60	3.55	-55.0	-72.9	3.8	7.44e-01	0	43	104	579338240	80	30106
2026-01-27 11:42:06.29	336.64	3.27	-55.0	-72.8	3.8	7.46e-01	0	43	104	579338240	80	29880
2026-01-27 11:42:10.33	336.67	2.99	-55.0	-72.8	3.8	7.46e-01	0	43	104	579338240	80	29834
2026-01-27 11:42:14.36	336.71	2.72	-54.9	-72.8	3.8	7.46e-01	0	43	104	579338240	80	29815
2026-01-27 11:42:18.39	336.75	2.45	-54.9	-72.7	3.8	7.47e-01	0	43	104	579338240	80	29686
2026-01-27 11:42:22.43	336.78	2.18	-54.9	-72.8	3.8	7.45e-01	0	43	104	579338240	80	29711

#Closed at: 2026-01-27 11:42:25
#Recorded file [579 MB]: D:/lorett/data/31041_260127_142932.dat