passes_logs/2026/01/27/R3.2S_Murmansk/R3.2S_Murmansk__20260127_174814_TY-39_rec.log

#Pass ID: 20260127_174814_TY-39
#Satellite: TY-39
#Configuration: TY-39
#almurnet v.1.7.20251203
#Start time: 2026-01-27 17:48:15

#Version: 2.2.20231116
#Station: R3.2S_Murmansk
#Location: 33.079688 lon 68.888172 lat
#TLE: 1 51832U 22019J   26026.87657933  .00002312  00000-0  11128-3 0  9991
#TLE: 2 51832  97.3624  93.2762 0008991  14.8578 345.2919 15.19726420216336

#Time	Az	El	Level	Level2	SNR	BER	BlckErr	Temp	State	Recorded	gain1	gain2
2026-01-27 17:48:15.14	145.49	2.03	-54.2	-56.3	3.7	0.00e+00	0	46	0	0	79	18952
2026-01-27 17:48:18.16	145.44	2.24	-54.1	-56.2	3.7	0.00e+00	0	46	104	0	80	17687
2026-01-27 17:48:21.18	145.40	2.45	-54.3	-56.4	3.7	0.00e+00	0	46	104	0	80	18122
2026-01-27 17:48:24.20	145.35	2.67	-54.3	-56.4	3.7	0.00e+00	0	46	104	0	80	18128
2026-01-27 17:48:27.22	145.29	2.89	-54.2	-56.3	3.7	0.00e+00	0	46	104	0	80	17905
2026-01-27 17:48:30.25	145.24	3.11	-54.0	-56.2	3.7	0.00e+00	0	46	104	0	80	17573
2026-01-27 17:48:33.28	145.19	3.34	-53.9	-56.0	3.7	0.00e+00	0	46	104	0	79	18346
2026-01-27 17:48:36.31	145.13	3.56	-53.5	-55.7	3.7	0.00e+00	0	47	104	0	79	17563
2026-01-27 17:48:39.33	145.08	3.79	-52.9	-55.0	3.7	0.00e+00	0	47	104	0	77	18268
2026-01-27 17:48:42.35	145.02	4.02	-52.4	-54.5	3.7	0.00e+00	0	47	104	0	76	18302
2026-01-27 17:48:45.38	144.96	4.26	-52.4	-54.5	3.7	0.00e+00	0	47	104	0	76	18364
2026-01-27 17:48:48.40	144.90	4.49	-52.4	-54.5	3.7	0.00e+00	0	47	104	0	76	18311
2026-01-27 17:48:51.41	144.84	4.73	-52.4	-54.5	3.7	0.00e+00	0	47	104	0	76	18183
2026-01-27 17:48:54.43	144.78	4.97	-52.3	-54.5	3.7	0.00e+00	0	48	104	0	76	18210
2026-01-27 17:48:57.45	144.72	5.22	-52.4	-54.6	3.7	0.00e+00	0	48	104	0	76	18465
2026-01-27 17:49:00.47	144.65	5.47	-52.4	-54.6	3.7	0.00e+00	0	48	104	0	76	18476
2026-01-27 17:49:03.49	144.58	5.72	-52.5	-54.6	3.7	0.00e+00	0	48	104	0	76	18482
2026-01-27 17:49:06.51	144.51	5.97	-52.4	-54.6	3.7	0.00e+00	0	48	104	0	76	18397
2026-01-27 17:49:09.54	144.44	6.23	-52.5	-54.7	3.7	0.00e+00	0	48	104	0	76	18603
2026-01-27 17:49:12.56	144.37	6.49	-52.6	-54.7	3.7	0.00e+00	0	48	104	0	76	18708
2026-01-27 17:49:15.59	144.29	6.76	-52.5	-54.7	3.7	0.00e+00	0	48	104	0	76	18636
2026-01-27 17:49:18.61	144.22	7.03	-52.5	-54.7	3.7	0.00e+00	0	48	104	0	76	18709
2026-01-27 17:49:21.63	144.14	7.30	-52.6	-54.7	3.7	0.00e+00	0	48	104	0	76	18678
2026-01-27 17:49:24.65	144.06	7.58	-52.7	-54.8	3.7	0.00e+00	0	48	104	0	76	18886
2026-01-27 17:49:27.67	143.98	7.86	-52.6	-54.7	3.7	0.00e+00	0	48	104	0	76	18787
2026-01-27 17:49:30.69	143.89	8.14	-52.7	-54.8	3.7	0.00e+00	0	48	104	0	76	18903
2026-01-27 17:49:33.71	143.80	8.43	-52.7	-54.8	3.7	0.00e+00	0	48	104	0	76	18880
2026-01-27 17:49:36.73	143.71	8.72	-52.7	-54.9	3.7	0.00e+00	0	48	104	0	76	19086
2026-01-27 17:49:39.75	143.62	9.02	-52.7	-54.8	3.7	0.00e+00	0	48	104	0	76	19010
2026-01-27 17:49:42.77	143.52	9.32	-52.7	-54.9	3.7	0.00e+00	0	48	104	0	76	19091
2026-01-27 17:49:45.79	143.43	9.63	-52.7	-54.8	3.7	0.00e+00	0	49	104	0	76	18988
2026-01-27 17:49:48.81	143.33	9.94	-52.8	-54.9	3.7	0.00e+00	0	49	104	0	76	19235
2026-01-27 17:49:51.84	143.22	10.26	-52.8	-54.9	3.7	0.00e+00	0	49	104	0	76	19157
2026-01-27 17:49:54.86	143.11	10.58	-52.8	-54.9	3.7	0.00e+00	0	49	104	0	76	19239
2026-01-27 17:49:57.89	143.00	10.91	-52.8	-54.9	3.7	0.00e+00	0	49	104	0	76	19224
2026-01-27 17:50:00.90	142.89	11.24	-52.9	-55.0	3.7	0.00e+00	0	49	104	0	76	19423
2026-01-27 17:50:03.92	142.77	11.58	-52.8	-55.0	3.7	0.00e+00	0	49	104	0	76	19301
2026-01-27 17:50:06.94	142.65	11.93	-52.9	-55.0	3.7	0.00e+00	0	49	104	0	76	19423
2026-01-27 17:50:09.96	142.53	12.28	-52.9	-55.0	3.7	0.00e+00	0	49	104	0	76	19348
2026-01-27 17:50:12.98	142.40	12.64	-53.0	-55.1	3.7	0.00e+00	0	49	104	0	76	19552
2026-01-27 17:50:15.99	142.27	13.01	-52.9	-55.0	3.7	0.00e+00	0	49	104	0	76	19449
2026-01-27 17:50:19.01	142.13	13.38	-53.0	-55.1	3.7	0.00e+00	0	49	104	0	76	19608
2026-01-27 17:50:22.03	141.99	13.76	-53.0	-55.1	3.7	0.00e+00	0	49	104	0	76	19540
2026-01-27 17:50:25.05	141.84	14.15	-53.1	-55.2	3.7	0.00e+00	0	49	104	0	76	19799
2026-01-27 17:50:28.08	141.69	14.55	-53.0	-55.1	3.7	0.00e+00	0	49	104	0	76	19626
2026-01-27 17:50:31.10	141.54	14.96	-53.0	-55.1	3.7	0.00e+00	0	49	104	0	76	19691
2026-01-27 17:50:34.11	141.38	15.37	-53.0	-55.1	3.7	0.00e+00	0	49	104	0	76	19693
2026-01-27 17:50:37.14	141.21	15.79	-53.1	-55.2	3.6	0.00e+00	0	49	104	0	76	19892
2026-01-27 17:50:40.16	141.03	16.23	-53.1	-55.2	3.7	0.00e+00	0	49	104	0	76	19763
2026-01-27 17:50:43.19	140.85	16.67	-53.1	-55.3	3.7	0.00e+00	0	49	104	0	76	19946
2026-01-27 17:50:46.21	140.67	17.12	-53.1	-55.2	3.7	0.00e+00	0	49	104	0	76	19882
2026-01-27 17:50:49.23	140.47	17.59	-53.2	-55.3	3.7	0.00e+00	0	49	104	0	76	19994
2026-01-27 17:50:52.26	140.27	18.06	-53.1	-55.2	3.7	0.00e+00	0	49	104	0	76	19904
2026-01-27 17:50:55.27	140.06	18.55	-53.2	-55.3	3.7	0.00e+00	0	49	104	0	76	20076
2026-01-27 17:50:58.30	139.84	19.04	-53.2	-55.3	3.7	0.00e+00	0	49	104	0	77	18959
2026-01-27 17:51:01.32	139.62	19.56	-53.2	-55.4	3.7	0.00e+00	0	49	104	0	77	19106
2026-01-27 17:51:04.34	139.38	20.08	-53.2	-55.4	3.7	0.00e+00	0	49	104	0	77	19064
2026-01-27 17:51:07.37	139.14	20.62	-53.3	-55.4	3.7	0.00e+00	0	49	104	0	77	19177
2026-01-27 17:51:10.39	138.88	21.17	-53.3	-55.4	3.7	0.00e+00	0	49	104	0	77	19188
2026-01-27 17:51:13.41	138.61	21.74	-34.7	-34.5	15.0	9.15e-04	0	50	0	25165824	41	13643
2026-01-27 17:51:16.43	138.33	22.32	-35.3	-35.1	14.7	0.00e+00	0	50	0	251658240	42	13946
2026-01-27 17:51:19.45	138.04	22.92	-33.1	-33.0	15.7	0.00e+00	0	50	0	486539264	38	13780
2026-01-27 17:51:22.47	137.74	23.53	-32.7	-32.6	15.8	0.00e+00	0	50	0	713031680	37	13923
2026-01-27 17:51:25.50	137.42	24.16	-32.2	-32.1	16.0	0.00e+00	0	50	0	939524096	36	13910
2026-01-27 17:51:28.51	137.09	24.81	-32.0	-31.9	16.0	0.00e+00	0	50	0	1157627904	36	13611
2026-01-27 17:51:31.54	136.73	25.48	-32.0	-31.9	16.0	0.00e+00	0	51	0	1384120320	36	13583
2026-01-27 17:51:34.56	136.37	26.17	-29.6	-29.5	15.6	0.00e+00	0	51	0	1619001344	31	13708
2026-01-27 17:51:37.58	135.98	26.88	-29.5	-29.4	15.7	0.00e+00	0	50	0	1845493760	31	13555
2026-01-27 17:51:40.60	135.57	27.61	-29.3	-29.2	15.7	0.00e+00	0	51	0	2071986176	30	14088
2026-01-27 17:51:43.63	135.14	28.37	-29.0	-28.9	15.8	0.00e+00	0	51	0	2290089984	30	13574
2026-01-27 17:51:46.66	134.69	29.15	-28.8	-28.7	15.8	0.00e+00	0	50	0	2524971008	29	14055
2026-01-27 17:51:49.69	134.21	29.95	-28.9	-28.8	15.8	0.00e+00	0	51	0	2751463424	29	14257
2026-01-27 17:51:52.72	133.70	30.78	-28.7	-28.6	15.9	0.00e+00	0	50	0	2977955840	29	13891
2026-01-27 17:51:55.74	133.17	31.64	-28.3	-28.2	16.0	0.00e+00	0	51	0	3204448256	28	14058
2026-01-27 17:51:58.77	132.60	32.52	-28.4	-28.3	16.0	0.00e+00	0	51	0	3430940672	28	14203
2026-01-27 17:52:01.79	132.00	33.43	-28.0	-27.9	16.1	0.00e+00	0	51	0	3657433088	28	13555
2026-01-27 17:52:04.80	131.36	34.36	-28.0	-27.9	16.1	0.00e+00	0	51	0	3883925504	27	14430
2026-01-27 17:52:07.82	130.68	35.33	-27.8	-27.7	16.2	0.00e+00	0	51	0	4110417920	27	14008
2026-01-27 17:52:10.85	129.95	36.33	-27.7	-27.6	16.3	0.00e+00	0	51	0	4336910336	27	13862
2026-01-27 17:52:13.86	129.18	37.35	-27.5	-27.4	16.3	0.00e+00	0	51	0	4563402752	26	14300
2026-01-27 17:52:16.89	128.34	38.41	-27.4	-27.3	16.3	0.00e+00	0	51	0	4789895168	26	14177
2026-01-27 17:52:19.91	127.45	39.50	-27.1	-27.0	16.4	0.00e+00	0	51	0	5016387584	26	13675
2026-01-27 17:52:22.94	126.49	40.63	-27.0	-26.9	16.4	0.00e+00	0	51	0	5242880000	26	13566
2026-01-27 17:52:25.96	125.46	41.78	-26.8	-26.7	16.5	0.00e+00	0	51	0	5477761024	25	14060
2026-01-27 17:52:28.98	124.35	42.96	-26.8	-26.7	16.5	0.00e+00	0	51	0	5695864832	25	14094
2026-01-27 17:52:32.01	123.14	44.18	-26.5	-26.4	16.5	0.00e+00	0	51	0	5922357248	24	14304
2026-01-27 17:52:35.02	121.84	45.42	-26.5	-26.4	16.6	0.00e+00	0	51	0	6148849664	24	14336
2026-01-27 17:52:38.04	120.42	46.69	-26.2	-26.1	16.6	0.00e+00	0	51	0	6375342080	24	13800
2026-01-27 17:52:41.06	118.88	47.98	-26.0	-25.9	16.6	0.00e+00	0	51	0	6610223104	24	13622
2026-01-27 17:52:44.08	117.20	49.29	-25.9	-25.8	16.7	0.00e+00	0	51	0	6828326912	23	14167
2026-01-27 17:52:47.10	115.36	50.61	-25.6	-25.5	16.7	0.00e+00	0	51	0	7054819328	23	13741
2026-01-27 17:52:50.13	113.35	51.95	-25.5	-25.4	16.8	0.00e+00	0	51	0	7281311744	23	13591
2026-01-27 17:52:53.15	111.14	53.29	-25.4	-25.3	16.8	0.00e+00	0	51	0	7516192768	22	14143
2026-01-27 17:52:56.17	108.72	54.61	-25.2	-25.1	16.8	0.00e+00	0	52	0	7742685184	22	13841
2026-01-27 17:52:59.20	106.05	55.92	-25.1	-25.0	16.8	0.00e+00	0	51	0	7960788992	22	13717
2026-01-27 17:53:02.22	103.12	57.20	-25.1	-25.0	16.8	0.00e+00	0	51	0	8187281408	22	13710
2026-01-27 17:53:05.24	99.91	58.43	-25.0	-24.9	16.8	0.00e+00	0	51	0	8413773824	21	14352
2026-01-27 17:53:08.26	96.39	59.59	-24.8	-24.7	16.8	0.00e+00	0	51	0	8648654848	21	14060
2026-01-27 17:53:11.27	92.57	60.66	-24.7	-24.6	16.9	0.00e+00	0	51	0	8875147264	21	13895
2026-01-27 17:53:14.29	88.40	61.64	-24.6	-24.5	16.9	0.00e+00	0	51	0	9093251072	21	13731
2026-01-27 17:53:17.31	83.91	62.48	-24.5	-24.4	16.9	0.00e+00	0	51	0	9319743488	21	13587
2026-01-27 17:53:20.34	79.11	63.18	-24.6	-24.5	16.9	0.00e+00	0	51	0	9546235904	21	13752
2026-01-27 17:53:23.36	74.06	63.71	-24.4	-24.3	16.9	0.00e+00	0	51	0	9781116928	20	14217
2026-01-27 17:53:26.37	68.84	64.06	-24.4	-24.3	16.9	0.00e+00	0	51	0	10007609344	20	14198
2026-01-27 17:53:29.38	63.51	64.20	-24.4	-24.3	16.9	0.00e+00	0	52	0	10225713152	20	14200
2026-01-27 17:53:32.40	58.13	64.15	-24.4	-24.3	16.9	0.00e+00	0	52	0	10452205568	20	14253
2026-01-27 17:53:35.43	52.82	63.90	-24.5	-24.4	16.9	0.00e+00	0	52	0	10678697984	20	14429
2026-01-27 17:53:38.45	47.67	63.46	-24.5	-24.4	16.9	0.00e+00	0	52	0	10913579008	20	14372
2026-01-27 17:53:41.47	42.76	62.84	-24.6	-24.5	16.9	0.00e+00	0	52	0	11131682816	20	14476
2026-01-27 17:53:44.50	38.12	62.06	-24.5	-24.4	16.9	0.00e+00	0	52	0	11358175232	20	14430
2026-01-27 17:53:47.52	33.80	61.15	-24.7	-24.6	16.9	0.00e+00	0	52	0	11584667648	20	14641
2026-01-27 17:53:50.54	29.81	60.12	-24.8	-24.7	16.8	0.00e+00	0	52	0	11811160064	20	14799
2026-01-27 17:53:53.56	26.15	59.00	-24.8	-24.7	16.9	0.00e+00	0	52	0	12046041088	20	14876
2026-01-27 17:53:56.58	22.80	57.80	-25.0	-24.9	16.8	0.00e+00	0	52	0	12272533504	20	15172
2026-01-27 17:53:59.59	19.76	56.56	-25.0	-24.9	16.8	0.00e+00	0	52	0	12490637312	20	15197
2026-01-27 17:54:02.62	16.97	55.27	-25.2	-25.1	16.8	0.00e+00	0	52	0	12717129728	20	15560
2026-01-27 17:54:05.64	14.44	53.95	-25.4	-25.3	16.8	0.00e+00	0	52	0	12943622144	21	14966
2026-01-27 17:54:08.67	12.13	52.62	-25.5	-25.4	16.8	0.00e+00	0	52	0	13178503168	21	15128
2026-01-27 17:54:11.69	10.04	51.29	-25.6	-25.5	16.7	0.00e+00	0	52	0	13404995584	21	15349
2026-01-27 17:54:14.70	8.13	49.97	-25.8	-25.7	16.7	0.00e+00	0	52	0	13623099392	22	14818
2026-01-27 17:54:17.73	6.38	48.66	-25.9	-25.8	16.7	0.00e+00	0	52	0	13849591808	22	15080
2026-01-27 17:54:20.76	4.77	47.36	-26.1	-26.0	16.6	0.00e+00	0	52	0	14084472832	22	15472
2026-01-27 17:54:23.78	3.30	46.08	-26.3	-26.2	16.6	0.00e+00	0	52	0	14310965248	23	14817
2026-01-27 17:54:26.80	1.94	44.84	-26.4	-26.3	16.6	0.00e+00	0	52	0	14537457664	23	15023
2026-01-27 17:54:29.83	0.69	43.61	-26.5	-26.4	16.5	0.00e+00	0	52	0	14755561472	23	15283
2026-01-27 17:54:32.85	359.54	42.42	-26.8	-26.7	16.5	0.00e+00	0	52	0	14990442496	24	14830
2026-01-27 17:54:35.87	358.47	41.26	-27.0	-26.9	16.4	0.00e+00	0	52	0	15216934912	24	15136
2026-01-27 17:54:38.90	357.48	40.12	-27.1	-27.0	16.4	0.00e+00	0	52	0	15443427328	24	15343
2026-01-27 17:54:41.92	356.56	39.02	-27.3	-27.2	16.3	0.00e+00	0	52	0	15669919744	25	14928
2026-01-27 17:54:44.94	355.70	37.96	-27.4	-27.3	16.3	0.00e+00	0	52	0	15888023552	25	15081
2026-01-27 17:54:47.96	354.90	36.92	-27.7	-27.6	16.2	0.00e+00	0	52	0	16122904576	25	15489
2026-01-27 17:54:50.98	354.16	35.91	-27.8	-27.7	16.3	0.00e+00	0	52	0	16349396992	26	14931
2026-01-27 17:54:54.00	353.46	34.94	-28.0	-27.9	16.2	0.00e+00	0	52	0	16575889408	26	15239
2026-01-27 17:54:57.01	352.80	34.00	-28.2	-28.1	16.2	0.00e+00	0	52	0	16802381824	26	15522
2026-01-27 17:55:00.03	352.18	33.08	-28.4	-28.3	16.1	0.00e+00	0	52	0	17020485632	27	15029
2026-01-27 17:55:03.05	351.60	32.19	-28.5	-28.4	16.1	0.00e+00	0	52	0	17255366656	27	15185
2026-01-27 17:55:06.07	351.05	31.33	-28.6	-28.5	16.0	0.00e+00	0	52	0	17481859072	28	14551
2026-01-27 17:55:09.10	350.53	30.49	-28.8	-28.7	15.9	0.00e+00	0	52	0	17708351488	28	14836
2026-01-27 17:55:12.11	350.05	29.68	-29.0	-28.9	15.9	0.00e+00	0	52	0	17934843904	28	15161
2026-01-27 17:55:15.14	349.58	28.90	-29.1	-29.0	15.8	0.00e+00	0	52	0	18152947712	28	15339
2026-01-27 17:55:18.16	349.14	28.13	-29.3	-29.2	15.7	0.00e+00	0	52	0	18387828736	29	14873
2026-01-27 17:55:21.18	348.73	27.39	-29.3	-29.2	15.7	0.00e+00	0	52	0	18614321152	29	14926
2026-01-27 17:55:24.21	348.33	26.68	-29.6	-29.5	15.6	0.00e+00	0	52	0	18840813568	29	15352
2026-01-27 17:55:27.23	347.95	25.98	-29.8	-29.7	15.6	0.00e+00	0	52	0	19067305984	30	14837
2026-01-27 17:55:30.25	347.60	25.30	-29.9	-29.8	15.5	0.00e+00	0	52	0	19293798400	30	15093
2026-01-27 17:55:33.27	347.25	24.65	-29.9	-29.9	15.5	0.00e+00	0	52	0	19520290816	30	15123
2026-01-27 17:55:36.30	346.93	24.01	-30.1	-30.0	15.4	0.00e+00	0	52	0	19746783232	31	14563
2026-01-27 17:55:39.33	346.62	23.38	-30.3	-30.2	15.4	0.00e+00	0	52	0	19973275648	31	14857
2026-01-27 17:55:42.35	346.32	22.78	-53.6	-55.8	3.7	0.00e+00	0	51	104	20082327552	77	20072
2026-01-27 17:55:45.37	346.04	22.19	-53.6	-55.7	3.7	0.00e+00	0	51	104	20082327552	77	19873
2026-01-27 17:55:48.39	345.77	21.62	-53.6	-55.7	3.7	0.00e+00	0	51	104	20082327552	77	19772
2026-01-27 17:55:51.40	345.51	21.07	-53.5	-55.7	3.7	0.00e+00	0	51	104	20082327552	77	19801
2026-01-27 17:55:54.43	345.26	20.52	-53.5	-55.6	3.7	0.00e+00	0	51	104	20082327552	77	19648
2026-01-27 17:55:57.46	345.02	19.99	-53.5	-55.6	3.7	0.00e+00	0	51	104	20082327552	77	19649
2026-01-27 17:56:00.48	344.79	19.48	-53.4	-55.6	3.7	0.00e+00	0	51	104	20082327552	77	19528
2026-01-27 17:56:03.51	344.57	18.97	-53.4	-55.5	3.7	0.00e+00	0	51	104	20082327552	77	19434
2026-01-27 17:56:06.53	344.35	18.48	-53.4	-55.5	3.7	0.00e+00	0	51	104	20082327552	77	19374
2026-01-27 17:56:09.56	344.15	18.00	-53.4	-55.5	3.7	0.00e+00	0	51	104	20082327552	77	19374
2026-01-27 17:56:12.58	343.95	17.54	-53.3	-55.5	3.7	0.00e+00	0	51	104	20082327552	77	19342
2026-01-27 17:56:15.61	343.76	17.08	-53.3	-55.5	3.7	0.00e+00	0	51	104	20082327552	77	19258
2026-01-27 17:56:18.63	343.58	16.63	-53.3	-55.4	3.7	0.00e+00	0	51	104	20082327552	77	19237
2026-01-27 17:56:21.65	343.41	16.20	-53.3	-55.5	3.7	0.00e+00	0	50	104	20082327552	77	19312
2026-01-27 17:56:24.67	343.24	15.77	-53.3	-55.4	3.7	0.00e+00	0	51	104	20082327552	77	19203
2026-01-27 17:56:27.69	343.07	15.36	-53.3	-55.4	3.7	0.00e+00	0	50	104	20082327552	77	19103
2026-01-27 17:56:30.71	342.92	14.95	-53.2	-55.4	3.7	0.00e+00	0	50	104	20082327552	77	19098
2026-01-27 17:56:33.73	342.76	14.55	-53.2	-55.4	3.7	0.00e+00	0	50	104	20082327552	77	19069
2026-01-27 17:56:36.76	342.62	14.15	-53.2	-55.4	3.7	0.00e+00	0	50	104	20082327552	77	19040
2026-01-27 17:56:39.77	342.47	13.77	-53.1	-55.3	3.7	0.00e+00	0	50	104	20082327552	77	18838
2026-01-27 17:56:42.79	342.34	13.40	-53.1	-55.3	3.7	0.00e+00	0	50	104	20082327552	77	18828
2026-01-27 17:56:45.81	342.20	13.03	-53.1	-55.3	3.7	0.00e+00	0	50	104	20082327552	77	18835
2026-01-27 17:56:48.83	342.07	12.67	-53.1	-55.3	3.7	0.00e+00	0	50	104	20082327552	77	18824
2026-01-27 17:56:51.86	341.95	12.31	-53.0	-55.1	3.7	0.00e+00	0	50	104	20082327552	77	18533
2026-01-27 17:56:54.89	341.83	11.96	-53.0	-55.1	3.6	0.00e+00	0	50	104	20082327552	77	18498
2026-01-27 17:56:57.91	341.71	11.62	-52.9	-55.1	3.7	0.00e+00	0	50	104	20082327552	77	18484
2026-01-27 17:57:00.93	341.60	11.28	-52.9	-55.1	3.7	0.00e+00	0	50	104	20082327552	77	18464
2026-01-27 17:57:03.95	341.49	10.95	-52.8	-55.0	3.7	0.00e+00	0	50	104	20082327552	77	18310
2026-01-27 17:57:06.98	341.38	10.63	-52.8	-55.0	3.7	0.00e+00	0	50	104	20082327552	77	18261
2026-01-27 17:57:10.01	341.27	10.31	-52.8	-55.0	3.7	0.00e+00	0	50	104	20082327552	77	18202
2026-01-27 17:57:13.02	341.17	9.99	-52.8	-55.0	3.7	0.00e+00	0	50	104	20082327552	77	18242
2026-01-27 17:57:16.05	341.08	9.68	-52.8	-54.9	3.7	0.00e+00	0	50	104	20082327552	77	18018
2026-01-27 17:57:19.07	340.98	9.38	-52.7	-54.9	3.7	0.00e+00	0	50	104	20082327552	77	18052
2026-01-27 17:57:22.09	340.89	9.08	-52.7	-54.9	3.7	0.00e+00	0	50	104	20082327552	77	18085
2026-01-27 17:57:25.12	340.80	8.79	-52.7	-54.9	3.7	0.00e+00	0	50	104	20082327552	77	18012
2026-01-27 17:57:28.14	340.71	8.50	-52.7	-54.8	3.7	0.00e+00	0	50	104	20082327552	77	17938
2026-01-27 17:57:31.16	340.63	8.21	-52.7	-54.8	3.7	0.00e+00	0	50	104	20082327552	77	17899
2026-01-27 17:57:34.18	340.54	7.93	-52.7	-54.8	3.7	0.00e+00	0	50	104	20082327552	77	17936
2026-01-27 17:57:37.21	340.46	7.65	-52.7	-54.8	3.7	0.00e+00	0	50	104	20082327552	77	17907
2026-01-27 17:57:40.23	340.38	7.38	-52.6	-54.7	3.7	0.00e+00	0	50	104	20082327552	77	17659
2026-01-27 17:57:43.25	340.31	7.11	-52.5	-54.7	3.7	0.00e+00	0	50	104	20082327552	77	17580
2026-01-27 17:57:46.27	340.23	6.84	-52.5	-54.7	3.7	0.00e+00	0	50	104	20082327552	77	17606
2026-01-27 17:57:49.29	340.16	6.58	-52.5	-54.7	3.7	0.00e+00	0	50	104	20082327552	76	18642
2026-01-27 17:57:52.32	340.09	6.32	-52.4	-54.6	3.7	0.00e+00	0	50	104	20082327552	76	18394
2026-01-27 17:57:55.35	340.02	6.06	-52.4	-54.5	3.7	0.00e+00	0	50	104	20082327552	76	18234
2026-01-27 17:57:58.37	339.96	5.81	-52.4	-54.5	3.7	0.00e+00	0	50	104	20082327552	76	18295
2026-01-27 17:58:01.39	339.89	5.56	-52.4	-54.5	3.7	0.00e+00	0	50	104	20082327552	76	18294
2026-01-27 17:58:04.41	339.83	5.32	-52.3	-54.4	3.7	0.00e+00	0	50	104	20082327552	76	18015
2026-01-27 17:58:07.43	339.77	5.07	-52.2	-54.3	3.7	0.00e+00	0	50	104	20082327552	76	17904
2026-01-27 17:58:10.45	339.71	4.83	-53.0	-55.1	3.7	0.00e+00	0	50	104	20082327552	76	19588
2026-01-27 17:58:13.47	339.65	4.60	-53.5	-55.6	3.7	0.00e+00	0	50	104	20082327552	77	19555
2026-01-27 17:58:16.50	339.59	4.36	-53.8	-55.9	3.7	0.00e+00	0	50	104	20082327552	78	19143
2026-01-27 17:58:19.52	339.53	4.13	-53.7	-55.9	3.7	0.00e+00	0	50	104	20082327552	78	19036
2026-01-27 17:58:22.55	339.48	3.90	-53.4	-55.5	3.7	0.00e+00	0	50	104	20082327552	78	18375
2026-01-27 17:58:25.58	339.43	3.67	-53.5	-55.6	3.7	0.00e+00	0	50	104	20082327552	78	18586
2026-01-27 17:58:28.61	339.37	3.45	-53.6	-55.7	3.7	0.00e+00	0	50	104	20082327552	78	18723
2026-01-27 17:58:31.63	339.32	3.22	-53.6	-55.7	3.7	0.00e+00	0	50	104	20082327552	78	18740
2026-01-27 17:58:34.66	339.27	3.00	-53.5	-55.7	3.7	0.00e+00	0	50	104	20082327552	78	18643
2026-01-27 17:58:37.68	339.23	2.79	-53.5	-55.6	3.7	0.00e+00	0	50	104	20082327552	78	18513
2026-01-27 17:58:40.71	339.18	2.57	-53.5	-55.6	3.7	0.00e+00	0	50	104	20082327552	78	18481
2026-01-27 17:58:43.72	339.13	2.36	-53.4	-55.6	3.7	0.00e+00	0	50	104	20082327552	78	18445
2026-01-27 17:58:46.74	339.09	2.15	-53.4	-55.5	3.7	0.00e+00	0	50	104	20082327552	77	19464

#Closed at: 2026-01-27 17:58:49
#Recorded file [20082 MB]: D:/lorett/data/31041_260127_204814.dat