passes_logs/2025/01/22/XPeterburg/XPeterburg__20250122_042920_FENGYUN_3E_rec.log

#Pass ID: 20250122_042920_FENGYUN 3E
#Satellite: FENGYUN 3E
#Configuration: FENGYUN 3E
#Start time: 2025-01-22 04:29:15

#Version: 1.5.20200625
#Station: XPeterburg
#Location: 30.318091 lon 59.932769 lat
#TLE: 1 49008U 21062A   25021.17752191  .00000106  00000+0  70512-4 0  9990
#TLE: 2 49008  98.7401  25.6156 0002537 110.9136 249.2312 14.19834376183927

#Time	Az	El	Level	Level2	SNR	BER	Gain	Gain2
2025-01-22 04:29:15.57	42.95	68.30	-39.0	-41.6	3.3	8392261	95	6650
2025-01-22 04:29:15.97	43.18	68.46	-38.3	-52.2	3.5	8241039	73	24395
2025-01-22 04:29:16.37	43.42	68.63	-38.6	-41.0	3.3	8412860	94	6463
2025-01-22 04:29:16.77	43.65	68.79	-38.5	-41.2	3.6	8360767	95	6729
2025-01-22 04:29:17.17	43.90	68.96	-37.8	-39.0	3.4	8411785	93	5668
2025-01-22 04:29:17.58	44.15	69.13	-37.1	-38.6	3.8	8387386	92	5905
2025-01-22 04:29:17.98	44.40	69.29	-35.7	-35.7	5.0	8291851	89	4882
2025-01-22 04:29:18.38	44.65	69.46	-34.7	-34.1	6.2	6715049	87	4636
2025-01-22 04:29:18.78	44.91	69.62	-33.4	-32.5	7.5	1664337	85	4469
2025-01-22 04:29:19.18	45.17	69.79	-32.2	-31.6	9.1	391513	82	4586
2025-01-22 04:29:19.58	45.44	69.95	-31.1	-30.4	10.5	78163	80	4522
2025-01-22 04:29:19.99	45.72	70.12	-29.9	-29.0	11.8	28026	78	4433
2025-01-22 04:29:20.39	46.00	70.28	-30.1	-29.3	11.7	6534	78	4517
2025-01-22 04:29:20.79	46.28	70.45	-30.2	-29.5	11.6	6568	78	4569
2025-01-22 04:29:21.19	46.57	70.61	-30.3	-29.8	11.5	6465	78	4655
2025-01-22 04:29:21.60	46.87	70.78	-30.2	-29.6	11.7	12199	78	4586
2025-01-22 04:29:22.00	47.16	70.94	-30.3	-29.7	11.6	9578	78	4631
2025-01-22 04:29:22.40	47.47	71.10	-30.2	-29.5	11.7	8491	78	4567
2025-01-22 04:29:22.80	47.78	71.27	-30.4	-30.0	11.4	11066	78	4706
2025-01-22 04:29:23.20	48.09	71.43	-30.5	-30.2	11.2	10574	78	4766
2025-01-22 04:29:23.60	48.41	71.59	-30.6	-30.5	11.1	13229	78	4824
2025-01-22 04:29:24.01	48.74	71.76	-30.7	-30.5	11.0	17372	78	4834
2025-01-22 04:29:24.41	49.08	71.92	-30.7	-30.6	10.9	23345	78	4863
2025-01-22 04:29:24.81	49.42	72.08	-30.7	-30.6	10.8	31997	78	4863
2025-01-22 04:29:25.21	49.76	72.24	-30.8	-30.7	10.8	31288	78	4866
2025-01-22 04:29:25.61	50.11	72.40	-30.8	-30.3	10.6	35190	79	4648
2025-01-22 04:29:26.02	50.48	72.56	-30.6	-29.9	10.8	27786	79	4548
2025-01-22 04:29:26.42	50.85	72.72	-30.4	-29.4	11.1	21526	79	4397
2025-01-22 04:29:26.82	51.22	72.88	-30.6	-29.9	10.8	24490	79	4532
2025-01-22 04:29:27.22	51.60	73.04	-30.5	-29.5	11.1	22235	79	4416
2025-01-22 04:29:27.62	51.99	73.20	-30.6	-29.8	10.9	21526	79	4501
2025-01-22 04:29:28.03	52.40	73.36	-30.5	-29.5	11.0	23986	79	4430
2025-01-22 04:29:28.43	52.80	73.52	-30.6	-29.9	10.9	21778	79	4535
2025-01-22 04:29:28.83	53.21	73.68	-30.7	-30.0	10.8	20130	79	4553
2025-01-22 04:29:29.23	53.63	73.83	-30.7	-30.1	10.9	23563	79	4563
2025-01-22 04:29:29.63	54.06	73.99	-30.9	-30.4	10.6	26950	79	4679
2025-01-22 04:29:30.04	54.51	74.15	-31.0	-30.7	10.5	37216	79	4738
2025-01-22 04:29:30.44	54.96	74.30	-31.0	-30.8	10.4	47286	79	4771
2025-01-22 04:29:30.84	55.41	74.45	-31.0	-30.6	10.5	48534	79	4714
2025-01-22 04:29:31.24	55.88	74.60	-31.1	-30.8	10.4	47161	79	4778
2025-01-22 04:29:31.65	56.36	74.76	-30.7	-30.1	10.8	41267	79	4559
2025-01-22 04:29:32.05	56.85	74.91	-30.9	-30.4	10.7	31723	79	4656
2025-01-22 04:29:32.45	57.34	75.06	-30.6	-29.9	11.0	27397	79	4522
2025-01-22 04:29:32.85	57.85	75.21	-30.6	-29.9	11.0	25783	79	4512
2025-01-22 04:29:33.25	58.37	75.36	-30.5	-29.5	11.2	17955	79	4413
2025-01-22 04:29:33.66	58.91	75.51	-30.5	-29.6	11.2	14945	79	4458
2025-01-22 04:29:34.06	59.45	75.65	-30.4	-29.4	11.4	14751	79	4373
2025-01-22 04:29:34.46	60.00	75.80	-30.4	-29.6	11.4	11112	79	4451
2025-01-22 04:29:34.86	60.56	75.94	-30.6	-29.9	11.2	12977	79	4528
2025-01-22 04:29:35.26	61.13	76.09	-30.8	-30.2	11.1	17852	79	4606
2025-01-22 04:29:35.67	61.73	76.23	-30.7	-30.2	11.2	16216	79	4607
2025-01-22 04:29:36.07	62.33	76.37	-30.7	-30.2	11.2	15232	79	4611
2025-01-22 04:29:36.47	62.94	76.51	-30.7	-30.2	11.2	15884	79	4635
2025-01-22 04:29:36.87	63.56	76.65	-30.8	-30.3	11.3	11215	79	4643
2025-01-22 04:29:37.27	64.20	76.78	-30.7	-30.1	11.6	10322	79	4597
2025-01-22 04:29:37.68	64.87	76.92	-30.7	-30.1	11.5	10562	79	4595
2025-01-22 04:29:38.08	65.53	77.05	-30.8	-30.4	11.4	8605	79	4709
2025-01-22 04:29:38.48	66.21	77.18	-31.0	-30.8	11.3	8560	79	4798
2025-01-22 04:29:38.88	66.91	77.31	-30.9	-30.5	11.4	11650	79	4709
2025-01-22 04:29:39.28	67.62	77.44	-30.9	-30.7	11.3	10574	79	4772
2025-01-22 04:29:39.68	68.34	77.57	-30.9	-30.5	11.3	11238	79	4715
2025-01-22 04:29:40.09	69.09	77.69	-30.7	-30.2	11.4	12760	79	4612
2025-01-22 04:29:40.49	69.85	77.82	-30.6	-29.9	11.6	8319	79	4569
2025-01-22 04:29:40.89	70.62	77.94	-30.4	-29.5	11.7	7816	79	4448
2025-01-22 04:29:41.29	71.40	78.06	-30.4	-29.4	11.7	8331	79	4387
2025-01-22 04:29:41.69	72.20	78.17	-30.6	-30.4	11.5	5996	78	4826
2025-01-22 04:29:42.09	73.02	78.29	-30.6	-30.5	11.4	8102	78	4854
2025-01-22 04:29:42.50	73.87	78.40	-30.5	-30.1	11.6	8651	78	4692
2025-01-22 04:29:42.90	74.72	78.51	-30.3	-29.7	11.8	7244	78	4602
2025-01-22 04:29:43.30	75.59	78.61	-30.3	-29.6	11.8	5435	78	4587
2025-01-22 04:29:43.70	76.47	78.72	-30.0	-29.2	12.2	3112	78	4491
2025-01-22 04:29:44.10	77.37	78.82	-29.8	-28.8	12.5	2563	78	4384
2025-01-22 04:29:44.51	78.31	78.92	-29.9	-28.9	12.5	1739	78	4405
2025-01-22 04:29:44.91	79.24	79.02	-29.6	-28.8	12.7	1178	77	4476
2025-01-22 04:29:45.31	80.19	79.11	-29.7	-29.0	12.6	915	77	4549
2025-01-22 04:29:45.71	81.16	79.20	-29.6	-28.8	12.6	1384	77	4475
2025-01-22 04:29:46.11	82.14	79.29	-29.4	-28.4	12.8	1121	77	4382
2025-01-22 04:29:46.52	83.17	79.37	-29.3	-28.6	12.9	617	76	4555
2025-01-22 04:29:46.92	84.18	79.46	-29.1	-28.2	13.2	549	76	4445
2025-01-22 04:29:47.32	85.21	79.53	-29.0	-28.1	13.2	286	76	4463
2025-01-22 04:29:47.72	86.26	79.61	-28.8	-28.2	13.4	171	75	4607
2025-01-22 04:29:48.12	87.32	79.68	-28.5	-27.6	13.6	148	75	4460
2025-01-22 04:29:48.52	88.39	79.75	-28.3	-27.3	13.9	34	75	4361
2025-01-22 04:29:48.93	89.51	79.81	-28.2	-27.6	13.9	114	74	4571
2025-01-22 04:29:49.33	90.61	79.87	-28.0	-27.1	14.2	0	74	4429
2025-01-22 04:29:49.73	91.73	79.93	-28.0	-27.1	14.3	0	74	4438
2025-01-22 04:29:50.13	92.86	79.98	-27.8	-27.1	14.4	0	73	4579
2025-01-22 04:29:50.53	94.00	80.03	-27.5	-26.6	14.6	0	73	4453
2025-01-22 04:29:50.94	95.18	80.08	-27.4	-26.5	14.8	0	73	4423
2025-01-22 04:29:51.34	96.34	80.12	-27.5	-26.6	14.8	11	73	4430
2025-01-22 04:29:51.74	97.51	80.15	-27.3	-26.8	15.0	0	72	4607
2025-01-22 04:29:52.14	98.69	80.19	-27.4	-27.0	14.9	11	72	4680
2025-01-22 04:29:52.54	99.88	80.21	-27.7	-27.6	14.5	0	72	4855
2025-01-22 04:29:52.95	101.10	80.24	-27.7	-27.5	14.5	11	72	4807
2025-01-22 04:29:53.35	102.30	80.26	-27.8	-27.8	14.4	34	72	4897
2025-01-22 04:29:53.75	103.50	80.28	-27.7	-27.5	14.4	0	72	4833
2025-01-22 04:29:54.15	104.71	80.29	-27.6	-27.4	14.5	0	72	4788
2025-01-22 04:29:54.56	105.95	80.30	-27.6	-27.3	14.6	0	72	4772
2025-01-22 04:29:54.96	107.16	80.30	-27.3	-26.8	14.9	0	72	4634
2025-01-22 04:29:55.36	108.37	80.30	-27.4	-26.9	14.8	0	72	4672
2025-01-22 04:29:55.76	109.58	80.29	-27.1	-26.4	15.1	0	72	4524
2025-01-22 04:29:56.16	110.79	80.28	-27.0	-26.1	15.3	0	72	4449
2025-01-22 04:29:56.57	112.03	80.27	-27.0	-26.2	15.2	0	72	4466
2025-01-22 04:29:56.97	113.23	80.25	-27.0	-26.1	15.2	0	72	4430
2025-01-22 04:29:57.37	114.43	80.23	-26.5	-25.5	15.5	11	71	4429
2025-01-22 04:29:57.77	115.62	80.20	-26.4	-25.9	15.7	0	70	4648
2025-01-22 04:29:58.17	116.80	80.17	-26.3	-25.8	15.7	0	70	4612
2025-01-22 04:29:58.57	117.98	80.14	-26.3	-25.7	15.8	0	70	4611
2025-01-22 04:29:58.98	119.17	80.10	-26.5	-26.2	15.6	0	70	4740
2025-01-22 04:29:59.38	120.33	80.05	-26.5	-26.1	15.6	0	70	4708
2025-01-22 04:29:59.78	121.48	80.01	-26.4	-26.0	15.7	0	70	4680
2025-01-22 04:30:00.18	122.61	79.96	-26.3	-25.7	15.8	0	70	4602
2025-01-22 04:30:00.59	123.76	79.90	-26.1	-25.3	16.0	0	70	4509
2025-01-22 04:30:00.99	124.87	79.84	-25.8	-24.7	16.3	0	70	4354
2025-01-22 04:30:01.39	125.97	79.78	-25.5	-24.6	16.5	0	69	4451
2025-01-22 04:30:01.79	127.06	79.72	-25.5	-24.6	16.5	0	69	4450
2025-01-22 04:30:02.19	128.12	79.65	-25.3	-24.6	16.8	0	68	4579
2025-01-22 04:30:02.59	129.18	79.57	-25.2	-24.5	16.8	0	68	4548
2025-01-22 04:30:03.00	130.24	79.50	-25.2	-24.5	16.8	0	68	4556
2025-01-22 04:30:03.40	131.27	79.42	-25.4	-24.9	16.7	0	68	4659
2025-01-22 04:30:03.80	132.27	79.33	-25.5	-25.1	16.6	0	68	4714
2025-01-22 04:30:04.20	133.27	79.25	-25.5	-25.2	16.6	0	68	4740
2025-01-22 04:30:04.60	134.24	79.16	-25.6	-25.4	16.5	0	68	4795
2025-01-22 04:30:05.00	135.20	79.07	-25.6	-25.3	16.5	0	68	4787
2025-01-22 04:30:05.41	136.17	78.97	-25.5	-25.2	16.6	0	68	4754
2025-01-22 04:30:05.81	137.09	78.87	-25.6	-25.3	16.6	0	68	4774
2025-01-22 04:30:06.21	138.00	78.77	-25.7	-25.7	16.5	0	68	4876
2025-01-22 04:30:06.61	138.89	78.67	-25.6	-25.5	16.6	0	68	4823
2025-01-22 04:30:07.01	139.77	78.57	-25.6	-25.3	16.7	0	68	4788
2025-01-22 04:30:07.42	140.65	78.46	-25.7	-25.5	16.6	0	68	4858
2025-01-22 04:30:07.82	141.49	78.34	-25.7	-25.6	16.6	0	68	4865
2025-01-22 04:30:08.22	142.32	78.23	-25.5	-25.3	16.8	0	68	4789
2025-01-22 04:30:08.62	143.13	78.12	-25.6	-25.5	16.7	0	68	4846
2025-01-22 04:30:09.02	143.92	78.00	-25.6	-25.4	16.8	0	68	4828
2025-01-22 04:30:09.43	144.72	77.88	-25.6	-25.4	16.8	0	68	4813
2025-01-22 04:30:09.83	145.48	77.76	-25.8	-25.7	16.7	0	68	4901
2025-01-22 04:30:10.23	146.23	77.63	-26.1	-25.9	16.3	0	69	4817
2025-01-22 04:30:10.63	146.96	77.51	-26.1	-25.9	16.2	0	69	4835
2025-01-22 04:30:11.03	147.68	77.38	-26.1	-26.0	16.2	0	69	4851
2025-01-22 04:30:11.44	148.39	77.25	-26.2	-26.1	16.1	0	69	4874
2025-01-22 04:30:11.84	149.08	77.12	-26.2	-26.2	15.9	0	69	4898
2025-01-22 04:30:12.24	149.75	76.99	-26.2	-26.1	16.1	0	69	4859
2025-01-22 04:30:12.64	150.41	76.85	-26.1	-26.0	16.1	0	69	4850
2025-01-22 04:30:13.04	151.06	76.72	-26.2	-26.1	16.0	0	69	4877
2025-01-22 04:30:13.44	151.69	76.58	-26.2	-26.0	16.1	0	69	4852
2025-01-22 04:30:13.85	152.32	76.44	-26.2	-26.0	16.0	0	69	4854
2025-01-22 04:30:14.25	152.93	76.30	-26.2	-26.1	16.0	0	69	4883
2025-01-22 04:30:14.65	153.52	76.16	-26.3	-26.2	15.9	0	69	4905
2025-01-22 04:30:15.05	154.10	76.02	-26.2	-26.0	15.9	0	69	4843
2025-01-22 04:30:15.45	154.67	75.87	-26.2	-26.0	15.8	0	69	4838
2025-01-22 04:30:15.86	155.24	75.73	-26.1	-26.0	15.8	0	69	4838
2025-01-22 04:30:16.26	155.79	75.58	-26.2	-26.1	15.8	0	69	4850
2025-01-22 04:30:16.66	156.32	75.43	-26.3	-26.3	15.7	0	69	4909
2025-01-22 04:30:17.06	156.84	75.29	-26.5	-26.6	15.5	0	69	5012
2025-01-22 04:30:17.46	157.35	75.14	-26.6	-26.3	15.4	0	70	4778
2025-01-22 04:30:17.87	157.87	74.98	-26.7	-26.7	15.2	0	70	4875
2025-01-22 04:30:18.27	158.36	74.83	-26.8	-26.7	15.1	0	70	4875
2025-01-22 04:30:18.67	158.84	74.68	-26.7	-26.5	15.2	0	70	4825
2025-01-22 04:30:19.07	159.31	74.53	-26.8	-26.8	15.0	0	70	4926
2025-01-22 04:30:19.48	159.78	74.37	-26.5	-26.2	15.3	0	70	4741
2025-01-22 04:30:19.88	160.23	74.22	-26.4	-26.0	15.4	0	70	4697
2025-01-22 04:30:20.28	160.67	74.06	-26.4	-26.0	15.3	0	70	4696
2025-01-22 04:30:20.68	161.11	73.91	-26.6	-26.3	15.1	0	70	4783
2025-01-22 04:30:21.08	161.53	73.75	-26.7	-26.5	14.9	0	70	4829
2025-01-22 04:30:21.48	161.95	73.60	-26.9	-27.0	14.6	0	70	4982
2025-01-22 04:30:21.89	162.37	73.44	-27.0	-26.7	14.4	11	71	4757
2025-01-22 04:30:22.29	162.77	73.28	-27.2	-27.1	14.2	11	71	4853
2025-01-22 04:30:22.69	163.16	73.12	-27.6	-27.3	14.0	22	72	4760
2025-01-22 04:30:23.09	163.55	72.96	-27.8	-27.8	13.8	34	72	4913
2025-01-22 04:30:23.49	163.92	72.80	-27.8	-27.9	13.8	34	72	4931
2025-01-22 04:30:23.89	164.29	72.64	-27.9	-28.0	13.7	22	72	4966
2025-01-22 04:30:24.30	164.67	72.48	-28.0	-27.6	13.6	57	73	4738
2025-01-22 04:30:24.70	165.02	72.32	-28.2	-28.0	13.4	68	73	4854
2025-01-22 04:30:25.10	165.37	72.16	-28.2	-28.1	13.4	80	73	4877
2025-01-22 04:30:25.50	165.71	71.99	-28.3	-28.3	13.3	194	73	4942
2025-01-22 04:30:25.90	166.05	71.83	-28.4	-28.0	13.3	434	74	4694
2025-01-22 04:30:26.31	166.39	71.67	-28.4	-28.0	13.3	217	74	4709
2025-01-22 04:30:26.71	166.71	71.50	-28.4	-28.1	13.2	286	74	4737
2025-01-22 04:30:27.11	167.03	71.34	-28.3	-27.9	13.4	148	74	4694
2025-01-22 04:30:27.51	167.34	71.18	-28.3	-27.9	13.3	251	74	4674
2025-01-22 04:30:27.91	167.65	71.02	-28.5	-28.3	13.1	194	74	4805
2025-01-22 04:30:28.32	167.96	70.85	-38.2	-41.5	3.6	240	94	7215
2025-01-22 04:30:28.72	168.25	70.68	-38.7	-41.9	3.4	8382865	94	7180
2025-01-22 04:30:29.12	168.54	70.52	-38.7	-41.9	3.3	8388599	94	7057
2025-01-22 04:30:29.52	168.83	70.36	-39.0	-42.7	3.5	8431251	95	7543
2025-01-22 04:30:29.92	169.11	70.19	-39.1	-42.0	3.3	8409725	95	6864

#Closed at: 2025-01-22 04:30:30