passes_logs/2026/01/07/R4.6S_Anadyr/R4.6S_Anadyr__20260107_214130_NOAA_21_JPSS-2_rec.log

#Pass ID: 20260107_214130_NOAA 21 (JPSS-2)
#Satellite: NOAA 21 (JPSS-2)
#Configuration: NOAA-21
#almurnet v.1.7.20251203
#Start time: 2026-01-07 21:41:31

#Version: 2.2.20231116
#Station: R4.6S_Anadyr
#Location: 177.4865 lon 64.73178 lat
#TLE: 1 54234U 22150A   26005.42670836  .00000142  00000+0  88292-4 0  9996
#TLE: 2 54234  98.7490 306.4427 0001045 340.6622  19.4514 14.19532269163451

#Time	Az	El	Level	Level2	SNR	BER	BlckErr	Temp	State	Recorded	gain1	gain2
2026-01-07 21:41:31.34	96.11	0.07	-49.4	-64.3	3.5	1.51e+00	0	36	0	0	60	59590
2026-01-07 21:41:35.38	95.88	0.28	-49.4	-62.3	3.5	1.52e+00	0	37	104	0	60	45495
2026-01-07 21:41:39.42	95.65	0.50	-49.5	-62.3	3.5	1.52e+00	0	37	104	0	60	45861
2026-01-07 21:41:43.45	95.41	0.72	-49.0	-62.2	3.5	1.51e+00	0	37	104	0	60	45334
2026-01-07 21:41:47.50	95.17	0.95	-48.7	-61.6	3.5	1.52e+00	0	37	104	0	60	42286
2026-01-07 21:41:51.53	94.93	1.17	-46.8	-60.6	3.5	1.52e+00	0	37	104	0	60	37604
2026-01-07 21:41:55.57	94.68	1.39	-46.8	-60.5	3.5	1.52e+00	0	38	104	0	60	37284
2026-01-07 21:41:59.61	94.42	1.62	-46.8	-60.7	3.5	1.52e+00	0	38	104	0	60	37928
2026-01-07 21:42:03.65	94.17	1.85	-46.8	-60.6	3.5	1.52e+00	0	38	104	0	60	37752
2026-01-07 21:42:07.69	93.91	2.07	-46.8	-60.4	3.5	1.52e+00	0	38	104	0	60	36576
2026-01-07 21:42:11.73	93.64	2.30	-46.8	-60.6	3.5	1.51e+00	0	38	104	0	60	37635
2026-01-07 21:42:15.77	93.37	2.53	-46.8	-60.7	3.5	1.51e+00	0	38	104	0	60	37935
2026-01-07 21:42:19.81	93.10	2.76	-46.8	-59.8	3.5	1.52e+00	0	38	104	0	60	34252
2026-01-07 21:42:23.85	92.82	3.00	-46.2	-54.5	4.0	1.47e+00	0	38	104	0	60	18620
2026-01-07 21:42:27.88	92.54	3.23	-41.3	-43.3	16.6	0.00e+00	0	38	0	9437184	56	6494
2026-01-07 21:42:31.92	92.25	3.47	-47.0	-60.0	3.5	1.72e-02	0	38	104	22020096	60	35053
2026-01-07 21:42:35.96	91.95	3.70	-43.7	-46.8	12.1	9.99e-05	0	38	0	28311552	60	7646
2026-01-07 21:42:40.00	91.66	3.94	-44.5	-47.7	11.5	2.59e-04	0	38	0	40894464	60	8524
2026-01-07 21:42:44.04	91.35	4.18	-44.4	-47.3	12.5	5.87e-05	0	38	0	53477376	60	8126
2026-01-07 21:42:48.07	91.05	4.42	-42.9	-45.1	15.0	0.00e+00	0	38	0	67108864	58	7114
2026-01-07 21:42:52.11	90.73	4.67	-39.4	-40.7	19.4	0.00e+00	0	38	0	79691776	52	6063
2026-01-07 21:42:56.15	90.41	4.91	-38.3	-39.4	20.6	0.00e+00	0	38	0	91226112	50	5835
2026-01-07 21:43:00.19	90.09	5.15	-38.1	-39.3	20.7	0.00e+00	0	38	0	104857600	50	5727
2026-01-07 21:43:04.23	89.76	5.40	-38.1	-39.2	20.8	0.00e+00	0	38	0	117440512	50	5721
2026-01-07 21:43:08.27	89.42	5.65	-37.8	-38.9	21.1	0.00e+00	0	38	0	130023424	48	6161
2026-01-07 21:43:12.31	89.08	5.90	-37.6	-38.7	21.3	0.00e+00	0	38	0	142606336	48	6037
2026-01-07 21:43:16.36	88.73	6.15	-37.6	-38.6	21.3	0.00e+00	0	38	0	155189248	48	5991
2026-01-07 21:43:20.39	88.38	6.40	-37.3	-38.4	21.6	0.00e+00	0	38	0	167772160	48	5830
2026-01-07 21:43:24.43	88.02	6.65	-37.5	-38.6	21.5	0.00e+00	0	38	0	180355072	48	5945
2026-01-07 21:43:28.47	87.65	6.91	-37.1	-38.1	21.9	0.00e+00	0	38	0	192937984	48	5631
2026-01-07 21:43:32.51	87.27	7.17	-36.9	-37.9	22.2	0.00e+00	0	38	0	205520896	48	5512
2026-01-07 21:43:36.56	86.89	7.42	-36.8	-37.8	22.3	0.00e+00	0	38	0	218103808	46	6104
2026-01-07 21:43:40.60	86.50	7.68	-36.5	-37.5	22.5	0.00e+00	0	38	0	230686720	46	5918
2026-01-07 21:43:44.64	86.11	7.94	-36.6	-37.6	22.4	0.00e+00	0	38	0	243269632	46	5973
2026-01-07 21:43:48.67	85.71	8.21	-36.5	-37.5	22.5	0.00e+00	0	39	0	255852544	46	5894
2026-01-07 21:43:52.71	85.30	8.47	-36.5	-37.5	22.6	0.00e+00	0	38	0	268435456	46	5877
2026-01-07 21:43:56.75	84.88	8.73	-36.3	-37.2	22.8	0.00e+00	0	39	0	281018368	46	5724
2026-01-07 21:44:00.79	84.45	9.00	-36.4	-37.4	22.8	0.00e+00	0	38	0	293601280	46	5840
2026-01-07 21:44:04.82	84.02	9.26	-36.1	-37.1	23.0	0.00e+00	0	39	0	306184192	46	5629
2026-01-07 21:44:08.86	83.58	9.53	-36.0	-37.0	23.0	0.00e+00	0	38	0	318767104	46	5562
2026-01-07 21:44:12.90	83.13	9.80	-36.0	-36.9	23.2	0.00e+00	0	38	0	331350016	46	5508
2026-01-07 21:44:16.95	82.67	10.07	-35.8	-36.8	23.1	0.00e+00	0	39	0	343932928	46	5406
2026-01-07 21:44:20.99	82.20	10.35	-35.9	-36.9	23.0	0.00e+00	0	38	0	356515840	44	6150
2026-01-07 21:44:25.02	81.73	10.62	-35.7	-36.7	23.3	0.00e+00	0	39	0	369098752	44	6012
2026-01-07 21:44:29.06	81.24	10.89	-35.4	-36.4	23.6	0.00e+00	0	39	0	382730240	44	5797
2026-01-07 21:44:33.10	80.74	11.17	-35.5	-36.4	23.5	0.00e+00	0	38	0	395313152	44	5839
2026-01-07 21:44:37.14	80.24	11.44	-35.5	-36.4	23.5	0.00e+00	0	39	0	407896064	44	5849
2026-01-07 21:44:41.18	79.73	11.72	-35.4	-36.3	23.7	0.00e+00	0	39	0	420478976	44	5765
2026-01-07 21:44:45.22	79.20	12.00	-35.2	-36.2	23.8	0.00e+00	0	39	0	433061888	44	5665
2026-01-07 21:44:49.26	78.67	12.28	-35.3	-36.3	23.6	0.00e+00	0	39	0	445644800	44	5748
2026-01-07 21:44:53.30	78.12	12.56	-35.7	-36.6	23.4	0.00e+00	0	39	0	458227712	44	5988
2026-01-07 21:44:57.34	77.57	12.83	-35.3	-36.2	23.9	0.00e+00	0	39	0	470810624	44	5707
2026-01-07 21:45:01.38	77.00	13.11	-35.2	-36.1	23.7	0.00e+00	0	39	0	483393536	44	5653
2026-01-07 21:45:05.42	76.42	13.40	-35.2	-36.2	23.7	0.00e+00	0	39	0	495976448	44	5680
2026-01-07 21:45:09.45	75.83	13.68	-35.2	-36.1	23.9	0.00e+00	0	39	0	508559360	44	5621
2026-01-07 21:45:13.50	75.23	13.96	-35.2	-36.1	23.8	0.00e+00	0	39	0	521142272	44	5635
2026-01-07 21:45:17.54	74.62	14.24	-35.4	-36.3	23.6	0.00e+00	0	39	0	533725184	44	5791
2026-01-07 21:45:21.58	74.00	14.52	-35.4	-36.3	23.7	0.00e+00	0	39	0	546308096	44	5740
2026-01-07 21:45:25.62	73.36	14.80	-35.3	-36.3	23.7	0.00e+00	0	39	0	558891008	44	5728
2026-01-07 21:45:29.66	72.71	15.08	-35.6	-36.6	23.6	0.00e+00	0	39	0	571473920	44	5954
2026-01-07 21:45:33.70	72.05	15.36	-35.4	-36.3	23.8	0.00e+00	0	39	0	584056832	44	5756
2026-01-07 21:45:37.75	71.38	15.64	-35.3	-36.2	23.7	0.00e+00	0	39	0	596639744	44	5691
2026-01-07 21:45:41.79	70.69	15.92	-35.3	-36.2	23.9	0.00e+00	0	39	0	609222656	44	5687
2026-01-07 21:45:45.82	69.99	16.19	-34.9	-35.8	24.1	0.00e+00	0	39	0	621805568	44	5438
2026-01-07 21:45:49.86	69.28	16.47	-35.2	-36.1	23.9	0.00e+00	0	39	0	634388480	44	5621
2026-01-07 21:45:53.90	68.56	16.74	-35.1	-36.0	23.9	0.00e+00	0	39	0	646971392	44	5563
2026-01-07 21:45:57.94	67.82	17.01	-35.1	-36.0	24.0	0.00e+00	0	39	0	659554304	44	5584
2026-01-07 21:46:01.98	67.07	17.28	-35.5	-36.4	23.6	0.00e+00	0	39	0	672137216	44	5821
2026-01-07 21:46:06.02	66.30	17.55	-35.0	-35.9	24.1	0.00e+00	0	39	0	684720128	44	5508
2026-01-07 21:46:10.06	65.52	17.82	-35.1	-36.0	24.1	0.00e+00	0	39	0	698351616	44	5585
2026-01-07 21:46:14.10	64.73	18.08	-35.0	-35.9	24.1	0.00e+00	0	39	0	710934528	44	5479
2026-01-07 21:46:18.14	63.92	18.34	-34.8	-35.7	24.3	0.00e+00	0	39	0	723517440	44	5358
2026-01-07 21:46:22.18	63.10	18.59	-34.9	-35.8	24.2	0.00e+00	0	39	0	736100352	44	5426
2026-01-07 21:46:26.22	62.26	18.85	-34.8	-35.7	24.2	0.00e+00	0	39	0	748683264	44	5363
2026-01-07 21:46:30.26	61.41	19.09	-35.0	-35.9	24.1	0.00e+00	0	39	0	761266176	44	5528
2026-01-07 21:46:34.30	60.55	19.34	-34.9	-35.9	24.1	0.00e+00	0	39	0	773849088	44	5485
2026-01-07 21:46:38.34	59.67	19.58	-34.6	-35.6	24.4	0.00e+00	0	39	0	786432000	42	5943
2026-01-07 21:46:42.39	58.78	19.81	-34.6	-35.5	24.5	0.00e+00	0	39	0	799014912	42	5907
2026-01-07 21:46:46.43	57.88	20.04	-34.6	-35.5	24.4	0.00e+00	0	39	0	811597824	42	5879
2026-01-07 21:46:50.46	56.96	20.27	-34.6	-35.5	24.5	0.00e+00	0	39	0	824180736	42	5891
2026-01-07 21:46:54.51	56.03	20.49	-34.7	-35.6	24.5	0.00e+00	0	39	0	836763648	42	5939
2026-01-07 21:46:58.54	55.08	20.70	-34.6	-35.5	24.5	0.00e+00	0	39	0	849346560	42	5915
2026-01-07 21:47:02.59	54.12	20.90	-34.3	-35.2	24.7	0.00e+00	0	39	0	861929472	42	5687
2026-01-07 21:47:06.63	53.15	21.10	-34.3	-35.1	24.8	0.00e+00	0	39	0	874512384	42	5650
2026-01-07 21:47:10.67	52.17	21.29	-34.1	-35.0	24.9	0.00e+00	0	39	0	887095296	42	5575
2026-01-07 21:47:14.71	51.18	21.48	-34.1	-35.0	24.8	0.00e+00	0	39	0	899678208	42	5548
2026-01-07 21:47:18.75	50.17	21.65	-34.3	-35.2	24.8	0.00e+00	0	39	0	912261120	42	5714
2026-01-07 21:47:22.79	49.15	21.82	-34.4	-35.2	24.9	0.00e+00	0	39	0	924844032	42	5721
2026-01-07 21:47:26.83	48.12	21.98	-34.4	-35.3	24.8	0.00e+00	0	39	0	937426944	42	5752
2026-01-07 21:47:30.87	47.09	22.12	-34.1	-35.0	25.0	0.00e+00	0	39	0	950009856	42	5543
2026-01-07 21:47:34.91	46.04	22.26	-34.2	-35.0	24.9	0.00e+00	0	39	0	962592768	42	5589
2026-01-07 21:47:38.95	44.98	22.39	-34.3	-35.2	24.7	0.00e+00	0	39	0	975175680	42	5689
2026-01-07 21:47:42.99	43.91	22.51	-34.6	-35.5	24.6	0.00e+00	0	39	0	987758592	42	5902
2026-01-07 21:47:47.03	42.84	22.62	-34.7	-35.6	24.3	0.00e+00	0	39	0	1000341504	42	5984
2026-01-07 21:47:51.07	41.76	22.72	-34.4	-35.2	24.7	0.00e+00	0	39	0	1013972992	42	5725
2026-01-07 21:47:55.11	40.67	22.81	-34.4	-35.3	24.8	0.00e+00	0	39	0	1026555904	42	5737
2026-01-07 21:47:59.15	39.58	22.89	-34.4	-35.3	24.7	0.00e+00	0	39	0	1039138816	42	5759
2026-01-07 21:48:03.19	38.48	22.96	-34.4	-35.3	24.8	0.00e+00	0	39	0	1051721728	42	5774
2026-01-07 21:48:07.23	37.38	23.01	-34.2	-35.0	24.9	0.00e+00	0	39	0	1064304640	42	5582
2026-01-07 21:48:11.28	36.27	23.06	-34.0	-34.8	25.1	0.00e+00	0	39	0	1076887552	42	5454
2026-01-07 21:48:15.32	35.16	23.09	-34.3	-35.1	24.9	0.00e+00	0	39	0	1089470464	42	5646
2026-01-07 21:48:19.35	34.05	23.11	-34.4	-35.3	24.8	0.00e+00	0	39	0	1102053376	42	5767
2026-01-07 21:48:23.39	32.94	23.12	-34.4	-35.3	24.8	0.00e+00	0	39	0	1114636288	42	5738
2026-01-07 21:48:27.43	31.83	23.12	-34.1	-34.9	25.1	0.00e+00	0	39	0	1127219200	42	5514
2026-01-07 21:48:31.47	30.72	23.10	-34.0	-34.8	25.1	0.00e+00	0	39	0	1139802112	42	5457
2026-01-07 21:48:35.52	29.60	23.08	-34.3	-35.2	24.6	0.00e+00	0	39	0	1152385024	42	5669
2026-01-07 21:48:39.55	28.50	23.04	-34.2	-35.1	24.8	0.00e+00	0	39	0	1164967936	42	5623
2026-01-07 21:48:43.60	27.39	22.99	-34.0	-34.9	24.8	0.00e+00	0	39	0	1177550848	42	5494
2026-01-07 21:48:47.64	26.29	22.93	-33.8	-34.7	25.2	0.00e+00	0	39	0	1190133760	42	5366
2026-01-07 21:48:51.68	25.19	22.86	-34.0	-34.9	25.0	0.00e+00	0	39	0	1202716672	42	5509
2026-01-07 21:48:55.71	24.11	22.78	-34.3	-35.2	24.8	0.00e+00	0	39	0	1215299584	42	5663
2026-01-07 21:48:59.75	23.02	22.69	-34.3	-35.2	24.8	0.00e+00	0	39	0	1227882496	42	5661
2026-01-07 21:49:03.80	21.94	22.58	-34.7	-35.6	24.5	0.00e+00	0	39	0	1240465408	42	5959
2026-01-07 21:49:07.84	20.87	22.47	-34.1	-35.0	24.9	0.00e+00	0	39	0	1253048320	42	5552
2026-01-07 21:49:11.88	19.81	22.35	-34.4	-35.3	24.6	0.00e+00	0	39	0	1265631232	42	5743
2026-01-07 21:49:15.92	18.76	22.21	-34.4	-35.3	24.7	0.00e+00	0	39	0	1278214144	42	5728
2026-01-07 21:49:19.96	17.72	22.07	-34.6	-35.5	24.5	0.00e+00	0	39	0	1290797056	42	5907
2026-01-07 21:49:24.00	16.68	21.92	-34.3	-35.2	24.6	0.00e+00	0	39	0	1303379968	42	5705
2026-01-07 21:49:28.04	15.66	21.76	-34.2	-35.1	24.7	0.00e+00	0	39	0	1315962880	42	5618
2026-01-07 21:49:32.08	14.65	21.59	-34.8	-35.7	24.4	0.00e+00	0	39	0	1329594368	42	6035
2026-01-07 21:49:36.12	13.65	21.41	-34.7	-35.6	24.5	0.00e+00	0	39	0	1342177280	42	5974
2026-01-07 21:49:40.16	12.66	21.22	-35.0	-36.0	24.3	0.00e+00	0	39	0	1354760192	42	6214
2026-01-07 21:49:44.20	11.68	21.03	-34.6	-35.5	24.6	0.00e+00	0	39	0	1367343104	42	5866
2026-01-07 21:49:48.24	10.72	20.83	-34.6	-35.4	24.8	0.00e+00	0	39	0	1379926016	42	5851
2026-01-07 21:49:52.28	9.77	20.62	-35.1	-36.0	24.3	0.00e+00	0	39	0	1392508928	42	6218
2026-01-07 21:49:56.32	8.83	20.41	-35.0	-35.9	24.3	0.00e+00	0	39	0	1405091840	42	6173
2026-01-07 21:50:00.36	7.91	20.19	-34.6	-35.5	24.7	0.00e+00	0	39	0	1417674752	42	5888
2026-01-07 21:50:04.40	7.00	19.96	-34.9	-35.8	24.2	0.00e+00	0	39	0	1430257664	42	6097
2026-01-07 21:50:08.44	6.10	19.73	-34.6	-35.5	24.6	0.00e+00	0	39	0	1442840576	42	5906
2026-01-07 21:50:12.47	5.22	19.50	-34.8	-35.7	24.4	0.00e+00	0	39	0	1455423488	42	6044
2026-01-07 21:50:16.51	4.35	19.26	-34.6	-35.5	24.5	0.00e+00	0	39	0	1468006400	42	5891
2026-01-07 21:50:20.55	3.49	19.01	-34.4	-35.3	24.8	0.00e+00	0	39	0	1480589312	42	5776
2026-01-07 21:50:24.59	2.65	18.76	-34.9	-35.8	24.4	0.00e+00	0	39	0	1493172224	42	6132
2026-01-07 21:50:28.63	1.82	18.51	-34.6	-35.5	24.5	0.00e+00	0	39	0	1505755136	42	5922
2026-01-07 21:50:32.67	1.01	18.25	-34.7	-35.6	24.5	0.00e+00	0	39	0	1518338048	42	5956
2026-01-07 21:50:36.71	0.21	17.99	-34.5	-35.4	24.7	0.00e+00	0	39	0	1530920960	42	5817
2026-01-07 21:50:40.75	359.43	17.73	-34.9	-35.8	24.3	0.00e+00	0	39	0	1543503872	42	6091
2026-01-07 21:50:44.79	358.65	17.46	-35.4	-36.4	23.9	0.00e+00	0	39	0	1556086784	42	6504
2026-01-07 21:50:48.83	357.90	17.20	-35.3	-36.2	23.9	0.00e+00	0	39	0	1568669696	42	6393
2026-01-07 21:50:52.87	357.15	16.92	-34.7	-35.6	24.4	0.00e+00	0	39	0	1581252608	42	5977
2026-01-07 21:50:56.91	356.42	16.65	-34.8	-35.7	24.4	0.00e+00	0	39	0	1593835520	42	5996
2026-01-07 21:51:00.93	355.71	16.38	-34.8	-35.7	24.3	0.00e+00	0	39	0	1606418432	42	6062
2026-01-07 21:51:04.97	355.00	16.11	-35.1	-36.0	24.1	0.00e+00	0	39	0	1619001344	42	6222
2026-01-07 21:51:09.01	354.31	15.83	-35.1	-36.0	24.1	0.00e+00	0	39	0	1631584256	42	6259
2026-01-07 21:51:13.06	353.63	15.55	-35.2	-36.1	23.9	0.00e+00	0	39	0	1645215744	42	6318
2026-01-07 21:51:17.10	352.96	15.27	-35.4	-36.3	23.8	0.00e+00	0	39	0	1656750080	42	6486
2026-01-07 21:51:21.14	352.31	14.99	-35.5	-36.5	23.7	0.00e+00	0	39	0	1670381568	42	6589
2026-01-07 21:51:25.18	351.67	14.72	-35.3	-36.3	23.9	0.00e+00	0	39	0	1682964480	42	6426
2026-01-07 21:51:29.22	351.04	14.44	-35.4	-36.3	23.9	0.00e+00	0	39	0	1695547392	42	6436
2026-01-07 21:51:33.25	350.42	14.16	-35.4	-36.3	23.7	0.00e+00	0	39	0	1708130304	42	6440
2026-01-07 21:51:37.29	349.82	13.88	-35.2	-36.1	23.9	0.00e+00	0	39	0	1720713216	42	6327
2026-01-07 21:51:41.33	349.23	13.60	-35.7	-36.6	23.6	0.00e+00	0	39	0	1733296128	42	6705
2026-01-07 21:51:45.37	348.64	13.32	-36.1	-37.1	23.2	0.00e+00	0	39	0	1745879040	44	6316
2026-01-07 21:51:49.41	348.07	13.04	-36.1	-37.1	23.0	0.00e+00	0	39	0	1758461952	44	6281
2026-01-07 21:51:53.45	347.51	12.76	-35.7	-36.6	23.4	0.00e+00	0	39	0	1771044864	44	5990
2026-01-07 21:51:57.49	346.96	12.48	-36.1	-37.1	23.1	0.00e+00	0	39	0	1783627776	44	6313
2026-01-07 21:52:01.53	346.43	12.20	-36.4	-37.4	22.8	0.00e+00	0	39	0	1796210688	44	6514
2026-01-07 21:52:05.57	345.90	11.92	-36.1	-37.1	22.9	0.00e+00	0	39	0	1808793600	44	6311
2026-01-07 21:52:09.60	345.38	11.65	-35.9	-36.9	23.2	0.00e+00	0	39	0	1821376512	44	6163
2026-01-07 21:52:13.64	344.87	11.37	-36.0	-37.0	23.2	0.00e+00	0	39	0	1833959424	44	6220
2026-01-07 21:52:17.68	344.37	11.10	-36.2	-37.2	23.0	0.00e+00	0	39	0	1846542336	44	6387
2026-01-07 21:52:21.73	343.88	10.82	-36.4	-37.4	22.8	0.00e+00	0	39	0	1859125248	44	6500
2026-01-07 21:52:25.76	343.40	10.55	-36.1	-37.1	22.9	0.00e+00	0	39	0	1871708160	44	6339
2026-01-07 21:52:29.81	342.93	10.28	-36.3	-37.3	22.8	0.00e+00	0	39	0	1884291072	44	6485
2026-01-07 21:52:33.85	342.47	10.01	-37.0	-38.0	22.3	0.00e+00	0	39	0	1896873984	46	6222
2026-01-07 21:52:37.89	342.02	9.74	-37.3	-38.3	22.0	0.00e+00	0	39	0	1909456896	46	6490
2026-01-07 21:52:41.93	341.57	9.47	-37.1	-38.1	21.8	0.00e+00	0	39	0	1922039808	46	6346
2026-01-07 21:52:45.97	341.14	9.20	-36.2	-37.2	22.6	0.00e+00	0	39	0	1934622720	46	5717
2026-01-07 21:52:50.00	340.71	8.94	-36.5	-37.6	22.6	0.00e+00	0	39	0	1947205632	46	5931
2026-01-07 21:52:54.04	340.29	8.67	-37.1	-38.2	22.1	0.00e+00	0	39	0	1959788544	46	6374
2026-01-07 21:52:58.08	339.88	8.41	-37.5	-38.6	21.6	0.00e+00	0	39	0	1972371456	46	6712
2026-01-07 21:53:02.12	339.47	8.15	-37.5	-38.6	21.6	0.00e+00	0	39	0	1986002944	46	6676
2026-01-07 21:53:06.16	339.07	7.89	-36.9	-38.0	22.1	0.00e+00	0	39	0	1998585856	46	6211
2026-01-07 21:53:10.20	338.68	7.63	-36.7	-37.7	22.4	0.00e+00	0	39	0	2011168768	46	6064
2026-01-07 21:53:14.24	338.30	7.37	-36.9	-37.9	22.2	0.00e+00	0	39	0	2023751680	46	6183
2026-01-07 21:53:18.29	337.92	7.11	-37.6	-38.7	21.6	0.00e+00	0	39	0	2036334592	46	6757
2026-01-07 21:53:22.32	337.55	6.86	-37.8	-38.9	21.3	0.00e+00	0	39	0	2048917504	48	6202
2026-01-07 21:53:26.36	337.19	6.60	-37.8	-38.9	21.1	0.00e+00	0	39	0	2061500416	48	6146
2026-01-07 21:53:30.40	336.84	6.35	-37.5	-38.6	21.3	0.00e+00	0	39	0	2074083328	48	5944
2026-01-07 21:53:34.44	336.49	6.10	-37.5	-38.6	21.1	0.00e+00	0	39	0	2086666240	48	5958
2026-01-07 21:53:38.48	336.14	5.85	-38.3	-39.6	20.0	0.00e+00	0	39	0	2099249152	48	6655
2026-01-07 21:53:42.52	335.81	5.60	-39.7	-41.2	17.8	0.00e+00	0	39	0	2111832064	52	6419
2026-01-07 21:53:46.56	335.47	5.35	-41.6	-43.9	14.1	7.00e-07	0	39	0	2124414976	54	7750
2026-01-07 21:53:50.60	335.15	5.11	-43.1	-47.2	9.6	8.04e-03	0	39	0	2136997888	58	9041
2026-01-07 21:53:54.63	334.83	4.87	-43.8	-49.8	5.9	2.73e-01	0	39	0	2149580800	60	10847
2026-01-07 21:53:58.67	334.51	4.62	-44.1	-53.3	4.3	1.16e+00	7	39	104	2150629376	60	16231
2026-01-07 21:54:02.71	334.21	4.38	-44.2	-56.6	3.5	1.51e+00	0	39	104	2150629376	60	23615
2026-01-07 21:54:06.75	333.90	4.14	-44.4	-55.2	3.8	1.50e+00	0	39	104	2150629376	60	20102
2026-01-07 21:54:10.79	333.60	3.90	-44.4	-54.2	4.0	1.42e+00	0	39	104	2150629376	60	17981
2026-01-07 21:54:14.82	333.31	3.67	-44.3	-55.6	3.5	1.52e+00	0	39	104	2150629376	60	21198
2026-01-07 21:54:18.86	333.02	3.43	-44.5	-55.3	3.7	1.51e+00	0	39	104	2150629376	60	20468
2026-01-07 21:54:22.90	332.74	3.19	-44.5	-56.8	3.5	1.51e+00	0	39	104	2150629376	60	24206
2026-01-07 21:54:26.94	332.46	2.96	-48.4	-61.2	3.5	1.52e+00	0	39	104	2150629376	60	40236
2026-01-07 21:54:30.98	332.18	2.73	-49.4	-62.2	3.5	1.52e+00	0	39	104	2150629376	60	45383
2026-01-07 21:54:35.02	331.91	2.50	-49.5	-62.4	3.5	1.52e+00	0	39	104	2150629376	60	46179
2026-01-07 21:54:39.06	331.65	2.27	-49.4	-62.4	3.5	1.52e+00	0	39	104	2150629376	60	46133
2026-01-07 21:54:43.09	331.39	2.04	-49.5	-62.3	3.5	1.52e+00	0	39	104	2150629376	60	45880
2026-01-07 21:54:47.13	331.13	1.81	-49.5	-62.3	3.5	1.52e+00	0	39	104	2150629376	60	45850
2026-01-07 21:54:51.17	330.88	1.59	-49.4	-62.3	3.5	1.51e+00	0	39	104	2150629376	60	45765
2026-01-07 21:54:55.21	330.63	1.36	-49.4	-62.3	3.5	1.51e+00	0	39	104	2150629376	60	45663
2026-01-07 21:54:59.25	330.38	1.14	-49.4	-62.3	3.5	1.52e+00	0	39	104	2150629376	60	45719
2026-01-07 21:55:03.29	330.14	0.92	-49.4	-62.3	3.5	1.52e+00	0	39	104	2150629376	60	45615
2026-01-07 21:55:07.32	329.91	0.70	-49.4	-62.3	3.5	1.52e+00	0	39	104	2150629376	60	45588
2026-01-07 21:55:11.36	329.67	0.48	-49.4	-62.3	3.5	1.52e+00	0	39	104	2150629376	60	45540
2026-01-07 21:55:15.40	329.44	0.26	-49.4	-62.2	3.5	1.52e+00	0	39	104	2150629376	60	45387
2026-01-07 21:55:19.44	329.22	0.04	-49.4	-62.3	3.5	1.52e+00	0	39	104	2150629376	60	45702

#Closed at: 2026-01-07 21:55:22
#Recorded file [2150 MB]: D:/lorett/data/35029_260108_094131.dat