passes_logs/2026/01/07/R4.6S_Anadyr/R4.6S_Anadyr__20260107_114411_NOAA_21_JPSS-2_rec.log

#Pass ID: 20260107_114411_NOAA 21 (JPSS-2)
#Satellite: NOAA 21 (JPSS-2)
#Configuration: NOAA-21
#almurnet v.1.7.20251203
#Start time: 2026-01-07 11:44:13

#Version: 2.2.20231116
#Station: R4.6S_Anadyr
#Location: 177.4865 lon 64.73178 lat
#TLE: 1 54234U 22150A   26005.42670836  .00000142  00000+0  88292-4 0  9996
#TLE: 2 54234  98.7490 306.4427 0001045 340.6622  19.4514 14.19532269163451

#Time	Az	El	Level	Level2	SNR	BER	BlckErr	Temp	State	Recorded	gain1	gain2
2026-01-07 11:44:13.20	20.17	0.06	-49.0	-59.7	3.5	8.45e-01	0	34	0	0	60	35016
2026-01-07 11:44:16.23	20.45	0.18	-49.2	-62.1	3.5	1.52e+00	0	36	104	0	60	44785
2026-01-07 11:44:19.25	20.73	0.31	-49.2	-62.1	3.5	1.52e+00	0	36	104	0	60	44498
2026-01-07 11:44:22.28	21.01	0.44	-49.2	-62.0	3.5	1.52e+00	0	36	104	0	60	44262
2026-01-07 11:44:25.31	21.29	0.56	-49.0	-61.8	3.5	1.52e+00	0	36	104	0	60	43198
2026-01-07 11:44:28.34	21.58	0.69	-48.5	-61.4	3.5	1.51e+00	0	36	104	0	60	41044
2026-01-07 11:44:31.37	21.86	0.82	-47.6	-60.4	3.5	1.51e+00	0	36	104	0	60	36751
2026-01-07 11:44:34.40	22.16	0.94	-47.6	-60.4	3.5	1.52e+00	0	36	104	0	60	36691
2026-01-07 11:44:37.43	22.45	1.07	-47.6	-60.5	3.5	1.52e+00	0	36	104	0	60	37193
2026-01-07 11:44:40.45	22.74	1.20	-47.6	-60.4	3.5	1.52e+00	0	36	104	0	60	36846
2026-01-07 11:44:43.48	23.04	1.32	-47.6	-60.4	3.5	1.52e+00	0	36	104	0	60	36887
2026-01-07 11:44:46.51	23.34	1.45	-47.6	-60.4	3.5	1.51e+00	0	36	104	0	60	36939
2026-01-07 11:44:49.54	23.64	1.58	-47.6	-60.4	3.5	1.52e+00	0	36	104	0	60	36796
2026-01-07 11:44:52.57	23.94	1.70	-47.6	-60.4	3.5	1.52e+00	0	36	104	0	60	36871
2026-01-07 11:44:55.60	24.25	1.83	-47.6	-60.4	3.5	1.52e+00	0	36	104	0	60	36693
2026-01-07 11:44:58.63	24.56	1.96	-47.6	-60.4	3.5	1.52e+00	0	36	104	0	60	36838
2026-01-07 11:45:01.66	24.87	2.08	-47.6	-60.4	3.5	1.52e+00	0	36	104	0	60	36712
2026-01-07 11:45:04.69	25.19	2.21	-47.6	-60.3	3.5	1.52e+00	0	37	104	0	60	36393
2026-01-07 11:45:07.72	25.50	2.34	-47.6	-60.4	3.5	1.52e+00	0	36	104	0	60	36699
2026-01-07 11:45:10.74	25.82	2.46	-47.6	-59.8	3.5	1.52e+00	0	37	104	0	60	34201
2026-01-07 11:45:13.77	26.15	2.59	-47.5	-59.5	3.5	1.52e+00	0	36	104	0	60	33251
2026-01-07 11:45:16.80	26.47	2.71	-43.4	-45.8	13.9	1.90e-05	0	36	0	3145728	60	6871
2026-01-07 11:45:19.83	26.80	2.84	-39.6	-41.0	18.5	0.00e+00	0	37	0	12582912	52	6250
2026-01-07 11:45:22.86	27.13	2.96	-43.0	-45.4	13.9	7.00e-07	0	37	0	22020096	58	7345
2026-01-07 11:45:25.88	27.46	3.09	-39.4	-40.7	18.7	0.00e+00	0	37	0	31457280	52	6063
2026-01-07 11:45:28.91	27.80	3.21	-41.1	-42.7	15.5	0.00e+00	0	37	0	34603008	50	8566
2026-01-07 11:45:31.94	28.13	3.34	-39.1	-40.4	19.3	0.00e+00	0	37	0	44040192	52	5817
2026-01-07 11:45:34.97	28.47	3.46	-38.8	-40.1	19.4	0.00e+00	0	36	0	53477376	52	5596
2026-01-07 11:45:38.00	28.82	3.59	-38.7	-39.9	19.8	0.00e+00	0	37	0	62914560	50	6181
2026-01-07 11:45:41.02	29.16	3.71	-38.4	-39.6	20.0	0.00e+00	0	37	0	72351744	50	5984
2026-01-07 11:45:44.05	29.51	3.83	-38.5	-39.7	20.1	0.00e+00	0	37	0	81788928	50	6007
2026-01-07 11:45:47.08	29.87	3.96	-38.5	-39.7	20.0	0.00e+00	0	37	0	91226112	50	6044
2026-01-07 11:45:50.11	30.22	4.08	-38.4	-39.6	20.2	0.00e+00	0	37	0	100663296	50	5929
2026-01-07 11:45:53.14	30.58	4.20	-38.2	-39.4	20.3	0.00e+00	0	37	0	110100480	50	5823
2026-01-07 11:45:56.17	30.94	4.33	-38.2	-39.4	20.3	0.00e+00	0	37	0	119537664	50	5831
2026-01-07 11:45:59.19	31.30	4.45	-38.1	-39.2	20.6	0.00e+00	0	37	0	128974848	50	5698
2026-01-07 11:46:02.21	31.67	4.57	-38.1	-39.2	20.6	0.00e+00	0	37	0	138412032	50	5722
2026-01-07 11:46:05.24	32.04	4.69	-38.0	-39.2	20.7	0.00e+00	0	37	0	147849216	50	5664
2026-01-07 11:46:08.26	32.41	4.81	-37.8	-38.9	20.9	0.00e+00	0	37	0	157286400	50	5509
2026-01-07 11:46:11.30	32.78	4.93	-38.1	-39.2	20.7	0.00e+00	0	37	0	166723584	50	5707
2026-01-07 11:46:14.32	33.16	5.05	-37.9	-39.0	20.8	0.00e+00	0	37	0	176160768	48	6263
2026-01-07 11:46:17.35	33.54	5.17	-37.7	-38.8	21.1	0.00e+00	0	37	0	185597952	48	6091
2026-01-07 11:46:20.38	33.93	5.29	-37.6	-38.7	21.1	0.00e+00	0	37	0	195035136	48	6039
2026-01-07 11:46:23.41	34.31	5.41	-37.6	-38.7	21.1	0.00e+00	0	37	0	204472320	48	6063
2026-01-07 11:46:26.44	34.71	5.53	-37.7	-38.8	21.0	0.00e+00	0	37	0	213909504	48	6134
2026-01-07 11:46:29.47	35.10	5.64	-37.7	-38.8	21.0	0.00e+00	0	37	0	223346688	48	6098
2026-01-07 11:46:32.50	35.50	5.76	-37.7	-38.8	21.1	0.00e+00	0	37	0	232783872	48	6092
2026-01-07 11:46:35.53	35.89	5.88	-37.6	-38.7	21.2	0.00e+00	0	37	0	242221056	48	6020
2026-01-07 11:46:38.56	36.30	5.99	-37.5	-38.6	21.3	0.00e+00	0	37	0	251658240	48	5957
2026-01-07 11:46:41.58	36.70	6.11	-37.6	-38.7	21.2	0.00e+00	0	37	0	261095424	48	6019
2026-01-07 11:46:44.62	37.11	6.22	-37.6	-38.6	21.3	0.00e+00	0	37	0	270532608	48	5988
2026-01-07 11:46:47.65	37.52	6.33	-37.4	-38.5	21.5	0.00e+00	0	37	0	279969792	48	5872
2026-01-07 11:46:50.68	37.94	6.45	-37.4	-38.4	21.5	0.00e+00	0	37	0	289406976	48	5843
2026-01-07 11:46:53.71	38.36	6.56	-37.3	-38.3	21.6	0.00e+00	0	37	0	298844160	48	5779
2026-01-07 11:46:56.74	38.78	6.67	-37.1	-38.1	21.8	0.00e+00	0	37	0	308281344	48	5645
2026-01-07 11:46:59.77	39.20	6.78	-37.0	-38.0	21.9	0.00e+00	0	37	0	318767104	48	5591
2026-01-07 11:47:02.80	39.63	6.89	-37.0	-38.0	21.9	0.00e+00	0	37	0	327155712	48	5573
2026-01-07 11:47:05.83	40.06	7.00	-37.0	-38.1	21.9	0.00e+00	0	37	0	337641472	48	5618
2026-01-07 11:47:08.86	40.49	7.11	-36.9	-37.9	22.0	0.00e+00	0	37	0	347078656	48	5518
2026-01-07 11:47:11.89	40.93	7.21	-36.8	-37.8	22.1	0.00e+00	0	37	0	356515840	48	5457
2026-01-07 11:47:14.92	41.37	7.32	-36.9	-38.0	22.0	0.00e+00	0	37	0	365953024	46	6208
2026-01-07 11:47:17.94	41.81	7.42	-37.0	-38.1	21.9	0.00e+00	0	37	0	375390208	46	6319
2026-01-07 11:47:20.97	42.26	7.53	-37.0	-38.0	22.0	0.00e+00	0	37	0	384827392	46	6264
2026-01-07 11:47:24.00	42.71	7.63	-37.0	-38.0	22.0	0.00e+00	0	37	0	394264576	46	6248
2026-01-07 11:47:27.03	43.16	7.73	-36.9	-38.0	22.1	0.00e+00	0	37	0	403701760	46	6226
2026-01-07 11:47:30.06	43.61	7.83	-36.7	-37.8	22.2	0.00e+00	0	37	0	413138944	46	6086
2026-01-07 11:47:33.09	44.07	7.93	-36.7	-37.7	22.3	0.00e+00	0	37	0	422576128	46	6058
2026-01-07 11:47:36.12	44.53	8.03	-36.7	-37.7	22.3	0.00e+00	0	37	0	432013312	46	6060
2026-01-07 11:47:39.15	45.00	8.13	-36.8	-37.8	22.2	0.00e+00	0	37	0	441450496	46	6122
2026-01-07 11:47:42.18	45.46	8.22	-36.8	-37.8	22.2	0.00e+00	0	37	0	450887680	46	6107
2026-01-07 11:47:45.21	45.93	8.32	-36.8	-37.8	22.3	0.00e+00	0	37	0	460324864	46	6075
2026-01-07 11:47:48.24	46.41	8.41	-36.9	-38.0	22.1	0.00e+00	0	37	0	469762048	46	6220
2026-01-07 11:47:51.26	46.88	8.50	-36.9	-37.9	22.1	0.00e+00	0	37	0	479199232	46	6194
2026-01-07 11:47:54.29	47.36	8.60	-37.0	-38.0	22.1	0.00e+00	0	37	0	488636416	46	6241
2026-01-07 11:47:57.32	47.84	8.68	-36.8	-37.8	22.3	0.00e+00	0	37	0	498073600	46	6094
2026-01-07 11:48:00.34	48.32	8.77	-36.6	-37.6	22.4	0.00e+00	0	37	0	507510784	46	5981
2026-01-07 11:48:03.37	48.81	8.86	-36.6	-37.6	22.5	0.00e+00	0	37	0	516947968	46	5955
2026-01-07 11:48:06.40	49.30	8.94	-36.5	-37.5	22.6	0.00e+00	0	37	0	526385152	46	5891
2026-01-07 11:48:09.42	49.79	9.03	-36.6	-37.5	22.5	0.00e+00	0	37	0	535822336	46	5925
2026-01-07 11:48:12.45	50.29	9.11	-36.5	-37.5	22.6	0.00e+00	0	37	0	545259520	46	5902
2026-01-07 11:48:15.47	50.79	9.19	-36.5	-37.5	22.5	0.00e+00	0	37	0	554696704	46	5913
2026-01-07 11:48:18.51	51.29	9.27	-36.5	-37.5	22.5	0.00e+00	0	37	0	564133888	46	5882
2026-01-07 11:48:21.54	51.79	9.34	-36.5	-37.5	22.5	0.00e+00	0	37	0	573571072	46	5901
2026-01-07 11:48:24.56	52.30	9.42	-36.5	-37.5	22.6	0.00e+00	0	37	0	583008256	46	5872
2026-01-07 11:48:27.60	52.81	9.49	-36.4	-37.4	22.7	0.00e+00	0	37	0	592445440	46	5822
2026-01-07 11:48:30.62	53.32	9.56	-36.5	-37.5	22.5	0.00e+00	0	37	0	601882624	46	5920
2026-01-07 11:48:33.65	53.83	9.63	-36.7	-37.7	22.4	0.00e+00	0	37	0	611319808	46	6038
2026-01-07 11:48:36.67	54.34	9.70	-36.6	-37.7	22.4	0.00e+00	0	37	0	620756992	46	5995
2026-01-07 11:48:39.70	54.86	9.77	-36.5	-37.4	22.6	0.00e+00	0	37	0	630194176	46	5853
2026-01-07 11:48:42.73	55.38	9.83	-36.3	-37.3	22.8	0.00e+00	0	37	0	639631360	46	5742
2026-01-07 11:48:45.76	55.91	9.90	-36.5	-37.5	22.6	0.00e+00	0	37	0	649068544	46	5887
2026-01-07 11:48:48.79	56.43	9.96	-36.6	-37.6	22.5	0.00e+00	0	37	0	658505728	46	5974
2026-01-07 11:48:51.82	56.96	10.02	-36.6	-37.6	22.5	0.00e+00	0	37	0	667942912	46	5968
2026-01-07 11:48:54.85	57.49	10.07	-36.4	-37.4	22.6	0.00e+00	0	37	0	677380096	46	5837
2026-01-07 11:48:57.87	58.02	10.13	-36.5	-37.6	22.5	0.00e+00	0	37	0	687865856	46	5939
2026-01-07 11:49:00.90	58.55	10.18	-36.4	-37.4	22.6	0.00e+00	0	37	0	696254464	46	5854
2026-01-07 11:49:03.93	59.08	10.23	-36.4	-37.4	22.7	0.00e+00	0	37	0	706740224	46	5793
2026-01-07 11:49:06.96	59.62	10.28	-36.2	-37.2	22.9	0.00e+00	0	37	0	716177408	46	5681
2026-01-07 11:49:09.99	60.16	10.32	-36.3	-37.3	22.7	0.00e+00	0	37	0	725614592	46	5741
2026-01-07 11:49:13.02	60.70	10.37	-36.4	-37.4	22.7	0.00e+00	0	37	0	735051776	46	5795
2026-01-07 11:49:16.05	61.24	10.41	-36.4	-37.4	22.7	0.00e+00	0	37	0	744488960	46	5796
2026-01-07 11:49:19.08	61.78	10.45	-36.2	-37.2	22.8	0.00e+00	0	37	0	753926144	46	5710
2026-01-07 11:49:22.11	62.33	10.49	-36.4	-37.4	22.7	0.00e+00	0	37	0	763363328	46	5800
2026-01-07 11:49:25.14	62.87	10.52	-36.6	-37.6	22.6	0.00e+00	0	37	0	772800512	46	5971
2026-01-07 11:49:28.16	63.42	10.56	-36.4	-37.4	22.7	0.00e+00	0	37	0	782237696	46	5824
2026-01-07 11:49:31.19	63.97	10.59	-36.0	-37.0	23.0	0.00e+00	0	37	0	791674880	46	5565
2026-01-07 11:49:34.22	64.52	10.62	-36.1	-37.1	22.9	0.00e+00	0	37	0	801112064	46	5608
2026-01-07 11:49:37.25	65.07	10.64	-36.1	-37.0	22.9	0.00e+00	0	37	0	810549248	46	5592
2026-01-07 11:49:40.28	65.62	10.67	-36.1	-37.1	23.0	0.00e+00	0	37	0	819986432	46	5598
2026-01-07 11:49:43.31	66.17	10.69	-36.0	-37.0	22.9	0.00e+00	0	37	0	829423616	46	5534
2026-01-07 11:49:46.34	66.72	10.71	-36.1	-37.0	22.9	0.00e+00	0	37	0	838860800	46	5593
2026-01-07 11:49:49.37	67.28	10.73	-36.1	-37.1	22.9	0.00e+00	0	37	0	848297984	46	5599
2026-01-07 11:49:52.40	67.83	10.74	-36.2	-37.2	22.7	0.00e+00	0	37	0	857735168	46	5698
2026-01-07 11:49:55.43	68.39	10.75	-36.0	-37.0	22.9	0.00e+00	0	37	0	867172352	46	5559
2026-01-07 11:49:58.46	68.94	10.76	-36.1	-37.0	23.0	0.00e+00	0	37	0	876609536	46	5588
2026-01-07 11:50:01.49	69.50	10.77	-36.2	-37.2	22.9	0.00e+00	0	37	0	886046720	46	5660
2026-01-07 11:50:04.52	70.05	10.78	-36.1	-37.1	22.8	0.00e+00	0	37	0	895483904	46	5602
2026-01-07 11:50:07.55	70.61	10.78	-36.0	-37.0	23.0	0.00e+00	0	37	0	904921088	46	5552
2026-01-07 11:50:10.58	71.17	10.78	-36.1	-37.1	22.9	0.00e+00	0	37	0	914358272	46	5641
2026-01-07 11:50:13.61	71.72	10.78	-36.2	-37.2	23.0	0.00e+00	0	37	0	923795456	46	5669
2026-01-07 11:50:16.64	72.28	10.77	-36.1	-37.1	23.0	0.00e+00	0	37	0	933232640	46	5619
2026-01-07 11:50:19.67	72.84	10.77	-36.0	-37.0	23.0	0.00e+00	0	37	0	942669824	46	5567
2026-01-07 11:50:22.70	73.39	10.76	-36.1	-37.1	22.9	0.00e+00	0	37	0	952107008	46	5615
2026-01-07 11:50:25.73	73.95	10.75	-36.2	-37.2	22.9	0.00e+00	0	37	0	961544192	46	5673
2026-01-07 11:50:28.75	74.50	10.73	-36.0	-36.9	23.1	0.00e+00	0	37	0	970981376	46	5527
2026-01-07 11:50:31.78	75.05	10.72	-35.9	-36.9	23.1	0.00e+00	0	37	0	980418560	46	5485
2026-01-07 11:50:34.81	75.61	10.70	-36.1	-37.1	23.0	0.00e+00	0	37	0	989855744	46	5640
2026-01-07 11:50:37.84	76.16	10.68	-36.3	-37.3	22.8	0.00e+00	0	37	0	999292928	46	5727
2026-01-07 11:50:40.87	76.71	10.65	-36.0	-37.0	23.1	0.00e+00	0	37	0	1008730112	46	5574
2026-01-07 11:50:43.90	77.26	10.63	-36.0	-37.0	23.0	0.00e+00	0	37	0	1018167296	46	5576
2026-01-07 11:50:46.93	77.82	10.60	-35.9	-36.9	23.2	0.00e+00	0	37	0	1027604480	46	5495
2026-01-07 11:50:49.96	78.36	10.57	-36.1	-37.1	23.0	0.00e+00	0	37	0	1037041664	46	5596
2026-01-07 11:50:52.98	78.91	10.54	-36.2	-37.1	23.0	0.00e+00	0	37	0	1047527424	46	5653
2026-01-07 11:50:56.01	79.46	10.50	-36.3	-37.3	22.9	0.00e+00	0	37	0	1055916032	46	5752
2026-01-07 11:50:59.04	80.00	10.47	-36.3	-37.3	22.8	0.00e+00	0	37	0	1066401792	46	5751
2026-01-07 11:51:02.07	80.55	10.43	-36.4	-37.4	22.7	0.00e+00	0	37	0	1075838976	46	5840
2026-01-07 11:51:05.10	81.09	10.39	-36.4	-37.4	22.6	0.00e+00	0	37	0	1085276160	46	5827
2026-01-07 11:51:08.13	81.63	10.34	-36.3	-37.3	22.7	0.00e+00	0	37	0	1094713344	46	5785
2026-01-07 11:51:11.16	82.17	10.30	-36.3	-37.3	22.7	0.00e+00	0	37	0	1104150528	46	5771
2026-01-07 11:51:14.20	82.71	10.25	-36.3	-37.3	22.7	0.00e+00	0	37	0	1113587712	46	5762
2026-01-07 11:51:17.23	83.25	10.20	-36.3	-37.2	22.8	0.00e+00	0	37	0	1123024896	46	5720
2026-01-07 11:51:20.25	83.78	10.15	-36.4	-37.4	22.7	0.00e+00	0	37	0	1132462080	46	5804
2026-01-07 11:51:23.27	84.32	10.09	-37.3	-38.3	22.3	0.00e+00	0	37	0	1141899264	46	6468
2026-01-07 11:51:26.30	84.85	10.04	-36.1	-37.1	22.9	0.00e+00	0	37	0	1151336448	46	5640
2026-01-07 11:51:29.34	85.38	9.98	-36.2	-37.2	22.8	0.00e+00	0	37	0	1160773632	46	5707
2026-01-07 11:51:32.36	85.90	9.92	-36.2	-37.1	22.9	0.00e+00	0	37	0	1170210816	46	5638
2026-01-07 11:51:35.39	86.43	9.86	-36.2	-37.2	22.9	0.00e+00	0	37	0	1179648000	46	5672
2026-01-07 11:51:38.42	86.95	9.79	-36.1	-37.1	23.0	0.00e+00	0	37	0	1189085184	46	5619
2026-01-07 11:51:41.45	87.47	9.73	-36.2	-37.1	22.9	0.00e+00	0	37	0	1198522368	46	5653
2026-01-07 11:51:44.48	87.99	9.66	-36.1	-37.1	22.9	0.00e+00	0	37	0	1207959552	46	5616
2026-01-07 11:51:47.51	88.51	9.59	-36.2	-37.2	22.9	0.00e+00	0	38	0	1217396736	46	5677
2026-01-07 11:51:50.54	89.02	9.52	-36.2	-37.1	22.9	0.00e+00	0	37	0	1226833920	46	5659
2026-01-07 11:51:53.57	89.53	9.44	-36.2	-37.2	22.9	0.00e+00	0	37	0	1236271104	46	5699
2026-01-07 11:51:56.60	90.04	9.37	-36.3	-37.3	22.7	0.00e+00	0	37	0	1245708288	46	5739
2026-01-07 11:51:59.62	90.55	9.29	-36.1	-37.2	22.8	0.00e+00	0	37	0	1255145472	46	5665
2026-01-07 11:52:02.65	91.05	9.21	-36.2	-37.2	22.8	0.00e+00	0	37	0	1264582656	46	5720
2026-01-07 11:52:05.68	91.55	9.13	-36.4	-37.4	22.6	0.00e+00	0	37	0	1274019840	46	5849
2026-01-07 11:52:08.71	92.05	9.05	-36.5	-37.5	22.6	0.00e+00	0	37	0	1283457024	46	5883
2026-01-07 11:52:11.73	92.54	8.97	-36.4	-37.4	22.6	0.00e+00	0	37	0	1292894208	46	5814
2026-01-07 11:52:14.76	93.04	8.88	-36.5	-37.5	22.5	0.00e+00	0	37	0	1302331392	46	5872
2026-01-07 11:52:17.79	93.53	8.80	-36.3	-37.3	22.6	0.00e+00	0	37	0	1311768576	46	5787
2026-01-07 11:52:20.82	94.01	8.71	-36.4	-37.3	22.6	0.00e+00	0	37	0	1321205760	46	5788
2026-01-07 11:52:23.85	94.50	8.62	-36.2	-37.2	22.7	0.00e+00	0	37	0	1330642944	46	5701
2026-01-07 11:52:26.88	94.98	8.53	-36.5	-37.5	22.6	0.00e+00	0	37	0	1340080128	46	5881
2026-01-07 11:52:29.91	95.46	8.44	-36.5	-37.5	22.5	0.00e+00	0	37	0	1349517312	46	5923
2026-01-07 11:52:32.94	95.93	8.34	-36.7	-37.7	22.4	0.00e+00	0	37	0	1358954496	46	6015
2026-01-07 11:52:35.97	96.41	8.25	-36.7	-37.8	22.3	0.00e+00	0	37	0	1368391680	46	6077
2026-01-07 11:52:39.00	96.88	8.15	-36.7	-37.7	22.4	0.00e+00	0	37	0	1377828864	46	6040
2026-01-07 11:52:42.03	97.34	8.06	-36.9	-37.9	22.1	0.00e+00	0	37	0	1388314624	46	6161
2026-01-07 11:52:45.05	97.81	7.96	-36.7	-37.7	22.3	0.00e+00	0	37	0	1396703232	46	6037
2026-01-07 11:52:48.08	98.27	7.86	-37.0	-38.0	22.1	0.00e+00	0	37	0	1407188992	46	6231
2026-01-07 11:52:51.11	98.73	7.76	-37.1	-38.2	21.9	0.00e+00	0	37	0	1415577600	46	6404
2026-01-07 11:52:54.14	99.18	7.66	-37.1	-38.2	21.9	0.00e+00	0	37	0	1426063360	46	6363
2026-01-07 11:52:57.17	99.63	7.55	-37.0	-38.0	22.0	0.00e+00	0	37	0	1435500544	46	6270
2026-01-07 11:53:00.19	100.08	7.45	-37.1	-38.1	22.0	0.00e+00	0	37	0	1444937728	46	6323
2026-01-07 11:53:03.22	100.53	7.34	-37.0	-38.0	22.0	0.00e+00	0	37	0	1454374912	46	6258
2026-01-07 11:53:06.25	100.97	7.24	-37.1	-38.1	21.8	0.00e+00	0	37	0	1463812096	46	6343
2026-01-07 11:53:09.28	101.41	7.13	-37.3	-38.3	21.7	0.00e+00	0	37	0	1473249280	46	6496
2026-01-07 11:53:12.31	101.84	7.02	-37.4	-38.4	21.6	0.00e+00	0	37	0	1482686464	46	6556
2026-01-07 11:53:15.34	102.28	6.91	-37.1	-38.1	21.8	0.00e+00	0	37	0	1492123648	46	6350
2026-01-07 11:53:18.37	102.71	6.80	-37.3	-38.4	21.6	0.00e+00	0	37	0	1501560832	46	6521
2026-01-07 11:53:21.40	103.14	6.69	-37.1	-38.2	21.8	0.00e+00	0	37	0	1510998016	46	6367
2026-01-07 11:53:24.43	103.56	6.58	-37.2	-38.2	21.7	0.00e+00	0	37	0	1520435200	46	6390
2026-01-07 11:53:27.46	103.98	6.46	-37.2	-38.3	21.6	0.00e+00	0	37	0	1529872384	46	6452
2026-01-07 11:53:30.49	104.40	6.35	-37.3	-38.4	21.6	0.00e+00	0	37	0	1539309568	46	6512
2026-01-07 11:53:33.51	104.81	6.24	-37.5	-38.6	21.3	0.00e+00	0	37	0	1548746752	46	6693
2026-01-07 11:53:36.54	105.22	6.12	-37.3	-38.4	21.5	0.00e+00	0	37	0	1558183936	46	6542
2026-01-07 11:53:39.57	105.63	6.01	-37.3	-38.4	21.6	0.00e+00	0	37	0	1567621120	46	6515
2026-01-07 11:53:42.60	106.04	5.89	-37.3	-38.4	21.6	0.00e+00	0	38	0	1577058304	46	6507
2026-01-07 11:53:45.63	106.44	5.77	-37.5	-38.7	21.3	0.00e+00	0	38	0	1586495488	46	6733
2026-01-07 11:53:48.66	106.84	5.66	-37.4	-38.6	21.3	0.00e+00	0	38	0	1595932672	46	6660
2026-01-07 11:53:51.69	107.23	5.54	-37.7	-38.8	21.1	0.00e+00	0	37	0	1605369856	46	6816
2026-01-07 11:53:54.72	107.63	5.42	-37.5	-38.7	21.1	0.00e+00	0	37	0	1614807040	48	6050
2026-01-07 11:53:57.75	108.02	5.30	-37.6	-38.8	21.1	0.00e+00	0	37	0	1624244224	48	6066
2026-01-07 11:54:00.78	108.40	5.18	-37.9	-39.1	20.7	0.00e+00	0	37	0	1633681408	48	6314
2026-01-07 11:54:03.81	108.79	5.06	-37.8	-39.0	20.9	0.00e+00	0	37	0	1643118592	48	6225
2026-01-07 11:54:06.83	109.17	4.94	-37.9	-39.1	20.7	0.00e+00	0	37	0	1652555776	48	6290
2026-01-07 11:54:09.86	109.54	4.82	-38.0	-39.2	20.6	0.00e+00	0	37	0	1661992960	48	6361
2026-01-07 11:54:12.89	109.92	4.69	-37.9	-39.1	20.6	0.00e+00	0	37	0	1671430144	48	6294
2026-01-07 11:54:15.92	110.29	4.57	-37.9	-39.1	20.7	0.00e+00	0	37	0	1680867328	48	6284
2026-01-07 11:54:18.95	110.66	4.45	-38.0	-39.1	20.6	0.00e+00	0	37	0	1690304512	48	6321
2026-01-07 11:54:21.98	111.02	4.33	-37.9	-39.0	20.6	0.00e+00	0	38	0	1699741696	48	6246
2026-01-07 11:54:25.01	111.39	4.20	-37.9	-39.0	20.6	0.00e+00	0	37	0	1709178880	48	6262
2026-01-07 11:54:28.04	111.75	4.08	-38.0	-39.2	20.4	0.00e+00	0	37	0	1718616064	48	6374
2026-01-07 11:54:31.07	112.10	3.95	-38.0	-39.2	20.3	0.00e+00	0	37	0	1729101824	48	6419
2026-01-07 11:54:34.10	112.46	3.83	-38.4	-39.7	19.9	0.00e+00	0	37	0	1737490432	48	6744
2026-01-07 11:54:37.13	112.81	3.70	-38.3	-39.6	19.9	0.00e+00	0	37	0	1747976192	48	6672
2026-01-07 11:54:40.15	113.16	3.58	-38.4	-39.6	19.8	0.00e+00	0	37	0	1756364800	48	6704
2026-01-07 11:54:43.18	113.50	3.45	-38.5	-39.9	19.5	0.00e+00	0	38	0	1766850560	48	6884
2026-01-07 11:54:46.20	113.84	3.33	-38.6	-39.9	19.4	0.00e+00	0	37	0	1776287744	48	6947
2026-01-07 11:54:49.23	114.18	3.20	-38.8	-40.1	19.2	0.00e+00	0	37	0	1785724928	48	7090
2026-01-07 11:54:52.26	114.52	3.08	-38.8	-40.2	19.0	0.00e+00	0	37	0	1795162112	50	6379
2026-01-07 11:54:55.29	114.85	2.95	-48.4	-61.3	3.5	1.52e+00	0	37	104	1801453568	60	40605
2026-01-07 11:54:58.31	115.19	2.82	-49.1	-62.0	3.5	1.52e+00	0	37	104	1801453568	60	44417
2026-01-07 11:55:01.34	115.51	2.70	-49.3	-62.2	3.5	1.52e+00	0	38	104	1801453568	60	45036
2026-01-07 11:55:04.38	115.84	2.57	-49.3	-62.2	3.5	1.52e+00	0	38	104	1801453568	60	45238
2026-01-07 11:55:07.40	116.16	2.44	-49.2	-62.1	3.5	1.52e+00	0	38	104	1801453568	60	44890
2026-01-07 11:55:10.43	116.49	2.32	-49.3	-62.2	3.5	1.52e+00	0	38	104	1801453568	60	45099
2026-01-07 11:55:13.46	116.80	2.19	-49.3	-62.1	3.5	1.52e+00	0	38	104	1801453568	60	44730
2026-01-07 11:55:16.49	117.12	2.06	-49.3	-62.1	3.5	1.52e+00	0	38	104	1801453568	60	44869
2026-01-07 11:55:19.52	117.43	1.93	-49.3	-62.1	3.5	1.52e+00	0	38	104	1801453568	60	44894
2026-01-07 11:55:22.55	117.74	1.81	-49.3	-62.1	3.5	1.52e+00	0	38	104	1801453568	60	44796
2026-01-07 11:55:25.58	118.05	1.68	-49.3	-62.1	3.5	1.52e+00	0	38	104	1801453568	60	44792
2026-01-07 11:55:28.60	118.36	1.55	-49.3	-62.1	3.5	1.52e+00	0	38	104	1801453568	60	44862
2026-01-07 11:55:31.63	118.66	1.42	-49.3	-62.2	3.5	1.51e+00	0	38	104	1801453568	60	44983
2026-01-07 11:55:34.66	118.96	1.29	-49.3	-62.1	3.5	1.52e+00	0	38	104	1801453568	60	44783
2026-01-07 11:55:37.69	119.26	1.17	-49.3	-62.1	3.5	1.52e+00	0	38	104	1801453568	60	44651
2026-01-07 11:55:40.72	119.55	1.04	-49.3	-62.1	3.5	1.52e+00	0	37	104	1801453568	60	44803
2026-01-07 11:55:43.74	119.84	0.91	-49.3	-62.1	3.5	1.51e+00	0	38	104	1801453568	60	44843
2026-01-07 11:55:46.78	120.14	0.78	-49.3	-62.1	3.5	1.52e+00	0	38	104	1801453568	60	44805
2026-01-07 11:55:49.80	120.42	0.65	-49.2	-62.1	3.5	1.52e+00	0	38	104	1801453568	60	44686
2026-01-07 11:55:52.83	120.71	0.53	-49.2	-62.1	3.5	1.52e+00	0	38	104	1801453568	60	44580
2026-01-07 11:55:55.86	120.99	0.40	-49.3	-62.1	3.5	1.52e+00	0	38	104	1801453568	60	44644
2026-01-07 11:55:58.89	121.28	0.27	-49.2	-62.1	3.5	1.52e+00	0	38	104	1801453568	60	44797
2026-01-07 11:56:01.91	121.55	0.14	-49.2	-62.1	3.5	1.52e+00	0	38	104	1801453568	60	44837
2026-01-07 11:56:04.94	121.83	0.01	-49.3	-62.1	3.5	1.52e+00	0	38	104	1801453568	60	44658

#Closed at: 2026-01-07 11:56:07
#Recorded file [1801 MB]: D:/lorett/data/35029_260107_234413.dat