passes_logs/2026/01/07/R4.6S_Anadyr/R4.6S_Anadyr__20260107_150458_NOAA_21_JPSS-2_rec.log

#Pass ID: 20260107_150458_NOAA 21 (JPSS-2)
#Satellite: NOAA 21 (JPSS-2)
#Configuration: NOAA-21
#almurnet v.1.7.20251203
#Start time: 2026-01-07 15:04:58

#Version: 2.2.20231116
#Station: R4.6S_Anadyr
#Location: 177.4865 lon 64.73178 lat
#TLE: 1 54234U 22150A   26005.42670836  .00000142  00000+0  88292-4 0  9996
#TLE: 2 54234  98.7490 306.4427 0001045 340.6622  19.4514 14.19532269163451

#Time	Az	El	Level	Level2	SNR	BER	BlckErr	Temp	State	Recorded	gain1	gain2
2026-01-07 15:04:58.67	21.31	0.04	-49.3	-64.2	3.5	1.51e+00	0	35	0	0	60	58754
2026-01-07 15:05:02.70	21.29	0.28	-49.3	-62.1	3.5	1.52e+00	0	37	104	0	60	44749
2026-01-07 15:05:06.74	21.26	0.52	-49.2	-62.1	3.5	1.52e+00	0	36	104	0	60	44760
2026-01-07 15:05:10.78	21.24	0.77	-48.8	-61.6	3.5	1.52e+00	0	37	104	0	60	42423
2026-01-07 15:05:14.83	21.21	1.02	-47.8	-60.7	3.5	1.52e+00	0	37	104	0	60	37836
2026-01-07 15:05:18.86	21.19	1.26	-47.8	-60.4	3.5	1.52e+00	0	37	104	0	60	36578
2026-01-07 15:05:22.90	21.16	1.52	-47.8	-60.1	3.5	1.52e+00	0	37	104	0	60	35652
2026-01-07 15:05:26.94	21.13	1.77	-47.8	-60.5	3.5	1.52e+00	0	37	104	0	60	37083
2026-01-07 15:05:30.98	21.10	2.03	-47.8	-60.6	3.5	1.52e+00	0	37	104	0	60	37639
2026-01-07 15:05:35.02	21.07	2.29	-47.8	-59.9	3.5	1.52e+00	0	37	104	0	60	34895
2026-01-07 15:05:39.06	21.04	2.55	-47.6	-58.7	3.5	1.51e+00	0	37	104	0	60	30113
2026-01-07 15:05:43.10	21.01	2.81	-47.7	-59.5	3.5	1.52e+00	0	37	104	0	60	33200
2026-01-07 15:05:47.14	20.98	3.08	-46.4	-51.4	7.8	1.18e-01	123	37	0	4194304	60	13100
2026-01-07 15:05:51.18	20.95	3.34	-44.5	-47.5	12.3	2.19e-04	122	37	0	16777216	60	8338
2026-01-07 15:05:55.22	20.92	3.62	-45.0	-48.5	11.1	1.09e-03	122	37	0	29360128	60	9310
2026-01-07 15:05:59.26	20.88	3.89	-47.8	-59.6	3.5	1.51e+00	0	37	104	39845888	60	33515
2026-01-07 15:06:03.30	20.85	4.17	-41.4	-43.0	16.9	0.00e+00	123	38	0	47185920	56	6274
2026-01-07 15:06:07.33	20.81	4.44	-40.9	-42.4	17.7	0.00e+00	122	38	0	59768832	56	5841
2026-01-07 15:06:11.37	20.77	4.73	-40.5	-42.0	17.7	0.00e+00	120	38	0	72351744	54	6244
2026-01-07 15:06:15.42	20.73	5.01	-39.2	-40.5	19.6	0.00e+00	120	38	0	84934656	52	5905
2026-01-07 15:06:19.46	20.69	5.30	-38.5	-39.7	20.3	0.00e+00	120	38	0	97517568	50	6034
2026-01-07 15:06:23.50	20.65	5.59	-37.8	-38.9	21.0	0.00e+00	123	37	0	110100480	50	5528
2026-01-07 15:06:27.55	20.61	5.89	-37.5	-38.6	21.3	0.00e+00	122	38	0	122683392	48	5943
2026-01-07 15:06:31.59	20.57	6.19	-37.6	-38.7	21.3	0.00e+00	122	38	0	135266304	48	5999
2026-01-07 15:06:35.63	20.52	6.49	-37.5	-38.6	21.3	0.00e+00	123	38	0	147849216	48	5964
2026-01-07 15:06:39.68	20.48	6.79	-37.2	-38.3	21.6	0.00e+00	122	38	0	160432128	48	5756
2026-01-07 15:06:43.72	20.43	7.10	-36.9	-37.9	22.0	0.00e+00	123	38	0	173015040	48	5525
2026-01-07 15:06:47.76	20.38	7.41	-36.8	-37.9	22.0	0.00e+00	122	38	0	185597952	48	5486
2026-01-07 15:06:51.80	20.33	7.73	-36.7	-37.8	22.2	0.00e+00	123	38	0	198180864	48	5414
2026-01-07 15:06:55.84	20.28	8.05	-36.7	-37.8	22.2	0.00e+00	121	38	0	210763776	46	6067
2026-01-07 15:06:59.88	20.23	8.38	-36.5	-37.5	22.5	0.00e+00	120	38	0	223346688	46	5915
2026-01-07 15:07:03.92	20.17	8.70	-36.4	-37.4	22.6	0.00e+00	122	38	0	235929600	46	5838
2026-01-07 15:07:07.96	20.12	9.04	-36.3	-37.2	22.8	0.00e+00	123	38	0	248512512	46	5725
2026-01-07 15:07:12.00	20.06	9.37	-36.1	-37.1	22.9	0.00e+00	122	38	0	262144000	46	5614
2026-01-07 15:07:16.04	20.00	9.72	-36.0	-36.9	23.1	0.00e+00	122	38	0	274726912	46	5507
2026-01-07 15:07:20.09	19.94	10.06	-35.9	-36.8	23.2	0.00e+00	123	38	0	287309824	46	5465
2026-01-07 15:07:24.12	19.87	10.41	-35.6	-36.6	23.4	0.00e+00	122	38	0	299892736	44	5929
2026-01-07 15:07:28.17	19.81	10.77	-35.6	-36.6	23.4	0.00e+00	123	38	0	312475648	44	5935
2026-01-07 15:07:32.20	19.74	11.13	-35.7	-36.6	23.3	0.00e+00	122	38	0	325058560	44	5959
2026-01-07 15:07:36.25	19.67	11.50	-35.4	-36.4	23.5	0.00e+00	120	38	0	337641472	44	5796
2026-01-07 15:07:40.29	19.60	11.87	-35.3	-36.2	23.7	0.00e+00	122	38	0	350224384	44	5712
2026-01-07 15:07:44.32	19.53	12.25	-35.2	-36.1	23.8	0.00e+00	120	38	0	362807296	44	5640
2026-01-07 15:07:48.36	19.45	12.63	-35.1	-36.0	23.8	0.00e+00	120	38	0	375390208	44	5559
2026-01-07 15:07:52.40	19.37	13.02	-34.9	-35.8	24.0	0.00e+00	120	38	0	387973120	44	5450
2026-01-07 15:07:56.44	19.29	13.42	-34.8	-35.7	24.1	0.00e+00	120	38	0	400556032	44	5399
2026-01-07 15:08:00.48	19.21	13.82	-34.9	-35.8	24.1	0.00e+00	123	38	0	413138944	42	6099
2026-01-07 15:08:04.52	19.12	14.23	-34.8	-35.7	24.2	0.00e+00	123	38	0	425721856	42	6061
2026-01-07 15:08:08.56	19.03	14.65	-34.8	-35.7	24.1	0.00e+00	120	38	0	438304768	42	6023
2026-01-07 15:08:12.61	18.94	15.07	-34.8	-35.7	24.2	0.00e+00	123	38	0	450887680	42	5999
2026-01-07 15:08:16.65	18.84	15.51	-34.9	-35.8	24.1	0.00e+00	120	38	0	463470592	42	6100
2026-01-07 15:08:20.69	18.74	15.94	-35.0	-35.9	24.0	0.00e+00	121	38	0	476053504	42	6186
2026-01-07 15:08:24.73	18.64	16.39	-35.2	-36.1	23.9	0.00e+00	120	38	0	488636416	42	6320
2026-01-07 15:08:28.77	18.53	16.85	-35.4	-36.3	23.8	0.00e+00	123	38	0	501219328	42	6448
2026-01-07 15:08:32.81	18.42	17.31	-35.2	-36.2	23.8	0.00e+00	120	38	0	513802240	42	6353
2026-01-07 15:08:36.85	18.31	17.78	-35.2	-36.1	23.9	0.00e+00	122	38	0	526385152	42	6347
2026-01-07 15:08:40.88	18.19	18.26	-35.3	-36.2	23.8	0.00e+00	120	38	0	538968064	42	6376
2026-01-07 15:08:44.92	18.06	18.75	-35.2	-36.1	23.8	0.00e+00	122	38	0	551550976	42	6296
2026-01-07 15:08:48.96	17.94	19.25	-35.1	-36.0	24.0	0.00e+00	122	38	0	564133888	42	6210
2026-01-07 15:08:53.00	17.81	19.76	-35.3	-36.2	23.8	0.00e+00	122	38	0	577765376	42	6404
2026-01-07 15:08:57.04	17.67	20.29	-34.9	-35.8	24.1	0.00e+00	123	38	0	590348288	42	6125
2026-01-07 15:09:01.08	17.53	20.82	-34.8	-35.7	24.2	0.00e+00	122	38	0	602931200	42	6051
2026-01-07 15:09:05.12	17.38	21.36	-34.4	-35.3	24.5	0.00e+00	123	38	0	615514112	42	5746
2026-01-07 15:09:09.16	17.22	21.92	-34.3	-35.1	24.7	0.00e+00	122	38	0	628097024	42	5657
2026-01-07 15:09:13.20	17.06	22.48	-33.9	-34.8	25.0	0.00e+00	122	38	0	640679936	42	5423
2026-01-07 15:09:17.24	16.89	23.06	-33.7	-34.5	25.1	0.00e+00	122	38	0	653262848	40	5913
2026-01-07 15:09:21.28	16.72	23.66	-33.6	-34.4	25.2	0.00e+00	122	38	0	665845760	40	5858
2026-01-07 15:09:25.32	16.54	24.26	-33.6	-34.5	25.2	0.00e+00	120	38	0	678428672	40	5881
2026-01-07 15:09:29.36	16.35	24.89	-33.8	-34.7	25.0	0.00e+00	123	38	0	691011584	40	6000
2026-01-07 15:09:33.40	16.15	25.52	-34.2	-35.1	24.9	0.00e+00	123	38	0	703594496	40	6298
2026-01-07 15:09:37.43	15.95	26.17	-34.7	-35.6	24.6	0.00e+00	123	38	0	716177408	40	6670
2026-01-07 15:09:41.47	15.73	26.84	-35.0	-35.9	24.4	0.00e+00	123	38	0	728760320	42	6155
2026-01-07 15:09:45.51	15.50	27.52	-35.1	-36.0	24.3	0.00e+00	122	38	0	741343232	42	6243
2026-01-07 15:09:49.55	15.27	28.22	-35.4	-36.3	24.1	0.00e+00	123	38	0	753926144	42	6481
2026-01-07 15:09:53.59	15.02	28.93	-35.5	-36.4	23.9	0.00e+00	122	38	0	766509056	42	6538
2026-01-07 15:09:57.63	14.76	29.67	-35.1	-36.0	24.1	0.00e+00	120	38	0	779091968	42	6223
2026-01-07 15:10:01.67	14.48	30.42	-34.5	-35.4	24.6	0.00e+00	121	38	0	791674880	42	5828
2026-01-07 15:10:05.71	14.20	31.19	-34.4	-35.2	24.8	0.00e+00	120	38	0	804257792	42	5724
2026-01-07 15:10:09.75	13.89	31.99	-34.6	-35.5	24.7	0.00e+00	122	38	0	816840704	42	5867
2026-01-07 15:10:13.79	13.58	32.80	-34.8	-35.7	24.5	0.00e+00	123	38	0	829423616	42	5998
2026-01-07 15:10:17.83	13.24	33.64	-35.4	-36.3	24.0	0.00e+00	123	38	0	842006528	42	6443
2026-01-07 15:10:21.87	12.89	34.49	-35.7	-36.6	23.8	0.00e+00	123	38	0	854589440	44	5954
2026-01-07 15:10:25.91	12.51	35.37	-36.0	-37.0	23.6	0.00e+00	122	38	0	867172352	44	6229
2026-01-07 15:10:29.95	12.11	36.28	-36.5	-37.5	23.1	0.00e+00	123	38	0	879755264	44	6606
2026-01-07 15:10:33.99	11.69	37.21	-36.5	-37.4	23.1	0.00e+00	122	38	0	893386752	44	6573
2026-01-07 15:10:38.03	11.25	38.16	-36.6	-37.6	23.1	0.00e+00	123	38	0	905969664	44	6653
2026-01-07 15:10:42.07	10.77	39.14	-36.4	-37.3	23.3	0.00e+00	120	38	0	918552576	44	6496
2026-01-07 15:10:46.11	10.27	40.14	-37.0	-38.0	22.8	0.00e+00	122	38	0	931135488	46	6230
2026-01-07 15:10:50.15	9.73	41.17	-37.1	-38.1	22.6	0.00e+00	123	38	0	943718400	46	6336
2026-01-07 15:10:54.19	9.15	42.23	-37.5	-38.6	22.3	0.00e+00	122	38	0	956301312	46	6651
2026-01-07 15:10:58.23	8.54	43.32	-37.3	-38.3	22.4	0.00e+00	123	38	0	968884224	46	6483
2026-01-07 15:11:02.27	7.88	44.43	-37.7	-38.7	22.2	0.00e+00	123	38	0	981467136	46	6768
2026-01-07 15:11:06.31	7.16	45.57	-37.6	-38.6	22.3	0.00e+00	120	38	0	994050048	48	5975
2026-01-07 15:11:10.35	6.40	46.74	-36.6	-37.6	23.1	0.00e+00	120	38	0	1006632960	46	5940
2026-01-07 15:11:14.38	5.57	47.93	-36.3	-37.2	23.3	0.00e+00	123	38	0	1019215872	46	5703
2026-01-07 15:11:18.42	4.68	49.16	-36.1	-37.1	23.6	0.00e+00	122	38	0	1031798784	46	5618
2026-01-07 15:11:22.46	3.71	50.41	-36.2	-37.2	23.4	0.00e+00	122	38	0	1044381696	46	5665
2026-01-07 15:11:26.50	2.65	51.68	-36.3	-37.2	23.3	0.00e+00	122	38	0	1056964608	46	5719
2026-01-07 15:11:30.54	1.49	52.98	-35.9	-36.9	23.4	0.00e+00	123	38	0	1069547520	46	5473
2026-01-07 15:11:34.59	0.23	54.30	-34.7	-35.6	24.4	0.00e+00	122	38	0	1082130432	42	5973
2026-01-07 15:11:38.63	358.84	55.64	-34.7	-35.6	24.4	0.00e+00	123	38	0	1094713344	42	5972
2026-01-07 15:11:42.67	357.31	56.99	-34.3	-35.2	24.9	0.00e+00	123	38	0	1107296256	42	5666
2026-01-07 15:11:46.71	355.62	58.35	-34.4	-35.2	24.8	0.00e+00	122	38	0	1119879168	42	5721
2026-01-07 15:11:50.75	353.74	59.72	-34.3	-35.3	24.9	0.00e+00	123	38	0	1132462080	42	5730
2026-01-07 15:11:54.79	351.66	61.09	-33.8	-34.7	24.9	0.00e+00	120	38	0	1145044992	42	5376
2026-01-07 15:11:58.83	349.33	62.45	-33.5	-34.3	25.4	0.00e+00	120	38	0	1157627904	40	5788
2026-01-07 15:12:02.87	346.72	63.79	-33.2	-34.1	25.5	0.00e+00	123	38	0	1170210816	40	5617
2026-01-07 15:12:06.91	343.80	65.09	-33.1	-34.0	25.2	0.00e+00	118	38	0	1182793728	40	5575
2026-01-07 15:12:10.95	340.53	66.36	-32.9	-33.8	25.6	0.00e+00	123	38	0	1195376640	40	5422
2026-01-07 15:12:15.00	336.84	67.57	-33.4	-34.3	25.6	0.00e+00	120	38	0	1209008128	40	5729
2026-01-07 15:12:19.04	332.72	68.69	-33.2	-34.0	25.7	0.00e+00	123	38	0	1221591040	40	5582
2026-01-07 15:12:23.08	328.12	69.72	-33.2	-34.1	25.4	0.00e+00	122	38	0	1234173952	40	5626
2026-01-07 15:12:27.12	323.02	70.61	-33.6	-34.5	25.2	0.00e+00	123	38	0	1246756864	40	5872
2026-01-07 15:12:31.15	317.46	71.36	-33.6	-34.5	25.4	0.00e+00	123	38	0	1259339776	40	5874
2026-01-07 15:12:35.19	311.45	71.92	-33.9	-34.7	25.2	0.00e+00	123	38	0	1271922688	40	6038
2026-01-07 15:12:39.22	305.12	72.29	-33.3	-34.2	25.1	0.00e+00	122	38	0	1284505600	40	5671
2026-01-07 15:12:43.25	298.58	72.45	-33.5	-34.4	25.3	0.00e+00	120	38	0	1297088512	40	5804
2026-01-07 15:12:47.29	292.00	72.39	-33.2	-34.1	25.3	0.00e+00	123	38	0	1309671424	40	5615
2026-01-07 15:12:51.33	285.54	72.11	-33.6	-34.5	25.2	0.00e+00	123	38	0	1322254336	40	5867
2026-01-07 15:12:55.37	279.37	71.62	-33.8	-34.7	24.6	0.00e+00	122	38	0	1334837248	40	6047
2026-01-07 15:12:59.40	273.62	70.95	-33.7	-34.6	25.0	0.00e+00	122	38	0	1347420160	40	5976
2026-01-07 15:13:03.45	268.30	70.11	-33.3	-34.2	25.4	0.00e+00	123	38	0	1360003072	40	5695
2026-01-07 15:13:07.48	263.50	69.14	-33.0	-33.8	25.5	0.00e+00	122	38	0	1372585984	38	6126
2026-01-07 15:13:11.52	259.18	68.05	-33.2	-34.1	24.8	0.00e+00	121	38	0	1385168896	40	5632
2026-01-07 15:13:15.56	255.31	66.87	-34.3	-35.2	24.5	0.00e+00	123	38	0	1397751808	40	6392
2026-01-07 15:13:19.60	251.86	65.63	-33.4	-34.2	25.5	0.00e+00	122	38	0	1410334720	40	5721
2026-01-07 15:13:23.64	248.80	64.33	-33.9	-34.7	25.0	0.00e+00	123	38	0	1422917632	42	5396
2026-01-07 15:13:27.69	246.05	63.00	-34.8	-35.7	24.3	0.00e+00	120	38	0	1435500544	42	6057
2026-01-07 15:13:31.72	243.62	61.65	-33.1	-33.9	25.6	0.00e+00	123	38	0	1448083456	40	5524
2026-01-07 15:13:35.76	241.43	60.28	-34.7	-35.6	24.6	0.00e+00	123	38	0	1460666368	42	5943
2026-01-07 15:13:39.80	239.47	58.91	-33.8	-34.6	25.2	0.00e+00	120	38	0	1473249280	42	5312
2026-01-07 15:13:43.84	237.70	57.54	-35.2	-36.1	23.8	0.00e+00	122	38	0	1485832192	42	6305
2026-01-07 15:13:47.88	236.10	56.18	-33.7	-34.6	25.1	0.00e+00	120	38	0	1498415104	40	5961
2026-01-07 15:13:51.92	234.65	54.83	-36.0	-37.0	23.5	0.00e+00	123	38	0	1510998016	44	6210
2026-01-07 15:13:55.96	233.34	53.50	-36.3	-37.3	22.7	0.00e+00	122	38	0	1523580928	46	5760
2026-01-07 15:14:00.00	232.14	52.19	-35.3	-36.2	24.0	0.00e+00	123	38	0	1536163840	44	5679
2026-01-07 15:14:04.04	231.04	50.90	-36.8	-37.8	22.5	0.00e+00	123	38	0	1549795328	46	6132
2026-01-07 15:14:08.08	230.03	49.64	-35.8	-36.7	23.8	0.00e+00	122	38	0	1562378240	46	5348
2026-01-07 15:14:12.12	229.10	48.40	-37.2	-38.2	22.5	0.00e+00	123	38	0	1574961152	46	6398
2026-01-07 15:14:16.16	228.24	47.19	-38.4	-39.5	21.5	0.00e+00	122	38	0	1587544064	48	6604
2026-01-07 15:14:20.20	227.45	46.01	-37.0	-38.0	22.4	0.00e+00	122	38	0	1600126976	48	5553
2026-01-07 15:14:24.24	226.72	44.85	-36.9	-37.8	22.8	0.00e+00	120	38	0	1612709888	44	6872
2026-01-07 15:14:28.27	226.03	43.72	-39.3	-40.5	20.6	0.00e+00	121	38	0	1625292800	50	6608
2026-01-07 15:14:32.31	225.40	42.62	-37.1	-38.1	22.7	0.00e+00	122	38	0	1637875712	48	5612
2026-01-07 15:14:36.35	224.80	41.55	-36.9	-37.8	22.0	0.00e+00	123	38	0	1650458624	48	5463
2026-01-07 15:14:40.40	224.25	40.50	-35.7	-36.5	23.9	0.00e+00	122	38	0	1663041536	44	5922
2026-01-07 15:14:44.44	223.73	39.48	-37.8	-38.9	22.0	0.00e+00	120	38	0	1675624448	48	6182
2026-01-07 15:14:48.48	223.24	38.49	-36.8	-37.8	22.9	0.00e+00	120	38	0	1688207360	48	5413
2026-01-07 15:14:52.52	222.78	37.53	-36.2	-37.2	23.5	0.00e+00	120	38	0	1700790272	46	5665
2026-01-07 15:14:56.56	222.35	36.58	-35.2	-36.1	24.2	0.00e+00	122	38	0	1713373184	44	5632
2026-01-07 15:15:00.60	221.94	35.67	-35.4	-36.4	24.1	0.00e+00	120	38	0	1725956096	44	5800
2026-01-07 15:15:04.64	221.55	34.77	-35.2	-36.1	24.3	0.00e+00	123	38	0	1738539008	44	5639
2026-01-07 15:15:08.68	221.19	33.91	-35.2	-36.1	24.0	0.00e+00	123	38	0	1751121920	44	5620
2026-01-07 15:15:12.72	220.84	33.06	-35.6	-36.5	23.9	0.00e+00	127	38	0	1763704832	44	5919
2026-01-07 15:15:16.76	220.52	32.23	-34.7	-35.6	24.6	0.00e+00	122	38	0	1776287744	42	5981
2026-01-07 15:15:20.80	220.21	31.43	-34.6	-35.4	24.7	0.00e+00	123	38	0	1788870656	42	5854
2026-01-07 15:15:24.84	219.91	30.65	-35.2	-36.2	24.1	0.00e+00	123	38	0	1801453568	42	6365
2026-01-07 15:15:28.88	219.63	29.88	-35.4	-36.3	24.0	0.00e+00	123	38	0	1814036480	42	6467
2026-01-07 15:15:32.92	219.36	29.14	-35.0	-35.9	24.3	0.00e+00	122	38	0	1826619392	42	6164
2026-01-07 15:15:36.96	219.11	28.41	-34.1	-34.9	24.7	0.00e+00	122	38	0	1839202304	42	5513
2026-01-07 15:15:41.00	218.87	27.70	-33.6	-34.4	25.3	0.00e+00	122	38	0	1851785216	40	5834
2026-01-07 15:15:45.04	218.63	27.01	-33.2	-34.0	25.5	0.00e+00	122	38	0	1865416704	40	5562
2026-01-07 15:15:49.08	218.41	26.34	-33.4	-34.3	25.2	0.00e+00	123	38	0	1877999616	40	5737
2026-01-07 15:15:53.12	218.20	25.68	-34.1	-35.0	24.9	0.00e+00	123	38	0	1890582528	40	6235
2026-01-07 15:15:57.16	218.00	25.04	-34.4	-35.3	24.7	0.00e+00	123	38	0	1903165440	40	6438
2026-01-07 15:16:01.20	217.80	24.41	-34.8	-35.7	24.3	0.00e+00	123	38	0	1915748352	42	6012
2026-01-07 15:16:05.24	217.61	23.79	-35.0	-35.9	24.3	0.00e+00	123	38	0	1928331264	42	6169
2026-01-07 15:16:09.28	217.44	23.19	-34.7	-35.6	24.5	0.00e+00	120	39	0	1940914176	42	5985
2026-01-07 15:16:13.32	217.26	22.61	-34.6	-35.5	24.6	0.00e+00	123	38	0	1953497088	42	5902
2026-01-07 15:16:17.36	217.10	22.03	-34.4	-35.3	24.7	0.00e+00	120	38	0	1966080000	42	5753
2026-01-07 15:16:21.41	216.94	21.47	-34.2	-35.1	24.8	0.00e+00	120	38	0	1978662912	42	5619
2026-01-07 15:16:25.44	216.79	20.92	-34.3	-35.2	24.6	0.00e+00	123	38	0	1991245824	42	5710
2026-01-07 15:16:29.48	216.64	20.38	-34.2	-35.1	24.8	0.00e+00	122	38	0	2003828736	42	5644
2026-01-07 15:16:33.53	216.50	19.85	-34.1	-35.0	24.8	0.00e+00	122	38	0	2016411648	42	5585
2026-01-07 15:16:37.57	216.36	19.34	-34.2	-35.1	24.7	0.00e+00	123	38	0	2028994560	42	5627
2026-01-07 15:16:41.61	216.23	18.83	-34.5	-35.4	24.4	0.00e+00	123	38	0	2041577472	42	5842
2026-01-07 15:16:45.66	216.10	18.33	-34.6	-35.6	24.4	0.00e+00	122	38	0	2054160384	42	5929
2026-01-07 15:16:49.69	215.98	17.85	-34.8	-35.7	24.3	0.00e+00	120	38	0	2066743296	42	5995
2026-01-07 15:16:53.73	215.86	17.37	-34.9	-35.9	24.2	0.00e+00	122	38	0	2079326208	42	6139
2026-01-07 15:16:57.77	215.75	16.90	-35.2	-36.1	24.0	0.00e+00	122	38	0	2091909120	42	6305
2026-01-07 15:17:01.81	215.64	16.44	-35.4	-36.3	24.0	0.00e+00	123	38	0	2104492032	42	6495
2026-01-07 15:17:05.85	215.53	15.99	-35.2	-36.1	24.0	0.00e+00	123	38	0	2117074944	42	6348
2026-01-07 15:17:09.89	215.43	15.55	-35.6	-36.5	23.9	0.00e+00	122	39	0	2129657856	42	6621
2026-01-07 15:17:13.93	215.33	15.12	-35.5	-36.4	23.8	0.00e+00	122	38	0	2142240768	42	6571
2026-01-07 15:17:17.97	215.23	14.69	-35.7	-36.7	23.6	0.00e+00	123	38	0	2154823680	44	5998
2026-01-07 15:17:22.01	215.14	14.27	-35.8	-36.7	23.6	0.00e+00	122	39	0	2167406592	44	6036
2026-01-07 15:17:26.05	215.05	13.85	-35.7	-36.7	23.6	0.00e+00	123	38	0	2181038080	44	6000
2026-01-07 15:17:30.09	214.96	13.45	-35.8	-36.7	23.5	0.00e+00	122	38	0	2193620992	44	6054
2026-01-07 15:17:34.13	214.87	13.05	-35.9	-36.8	23.4	0.00e+00	123	38	0	2206203904	44	6132
2026-01-07 15:17:38.17	214.79	12.65	-35.9	-36.9	23.4	0.00e+00	122	38	0	2218786816	44	6135
2026-01-07 15:17:42.21	214.71	12.27	-35.8	-36.7	23.5	0.00e+00	123	38	0	2231369728	44	6040
2026-01-07 15:17:46.25	214.63	11.89	-35.8	-36.7	23.4	0.00e+00	120	38	0	2243952640	44	6058
2026-01-07 15:17:50.30	214.56	11.51	-36.0	-36.9	23.2	0.00e+00	120	38	0	2256535552	44	6190
2026-01-07 15:17:54.34	214.48	11.14	-35.9	-36.8	23.2	0.00e+00	120	38	0	2269118464	44	6116
2026-01-07 15:17:58.38	214.41	10.77	-35.9	-36.8	23.2	0.00e+00	120	38	0	2281701376	44	6104
2026-01-07 15:18:02.43	214.34	10.41	-36.0	-37.0	23.1	0.00e+00	122	38	0	2294284288	44	6222
2026-01-07 15:18:06.47	214.28	10.06	-36.0	-37.0	23.0	0.00e+00	123	38	0	2306867200	44	6227
2026-01-07 15:18:10.51	214.21	9.71	-36.3	-37.2	22.7	0.00e+00	123	38	0	2319450112	44	6415
2026-01-07 15:18:14.54	214.15	9.37	-36.1	-37.1	22.9	0.00e+00	122	38	0	2332033024	44	6309
2026-01-07 15:18:18.58	214.09	9.03	-36.2	-37.2	22.8	0.00e+00	122	38	0	2344615936	44	6362
2026-01-07 15:18:22.62	214.03	8.69	-36.3	-37.3	22.7	0.00e+00	122	38	0	2357198848	44	6455
2026-01-07 15:18:26.66	213.97	8.36	-36.5	-37.5	22.6	0.00e+00	123	38	0	2369781760	44	6576
2026-01-07 15:18:30.70	213.91	8.04	-36.6	-37.6	22.4	0.00e+00	123	38	0	2382364672	44	6674
2026-01-07 15:18:34.73	213.86	7.71	-36.8	-37.8	22.3	0.00e+00	123	38	0	2394947584	46	6127
2026-01-07 15:18:38.77	213.80	7.40	-36.8	-37.9	22.1	0.00e+00	120	38	0	2407530496	46	6147
2026-01-07 15:18:42.82	213.75	7.08	-37.1	-38.2	22.0	0.00e+00	120	38	0	2420113408	46	6354
2026-01-07 15:18:46.85	213.70	6.77	-37.0	-38.1	21.9	0.00e+00	120	38	0	2432696320	46	6300
2026-01-07 15:18:50.89	213.65	6.46	-37.3	-38.3	21.7	0.00e+00	123	38	0	2445279232	46	6489
2026-01-07 15:18:54.93	213.60	6.16	-37.4	-38.5	21.5	0.00e+00	122	38	0	2457862144	46	6609
2026-01-07 15:18:58.97	213.55	5.86	-37.6	-38.7	21.3	0.00e+00	122	38	0	2470445056	46	6771
2026-01-07 15:19:03.01	213.51	5.56	-37.7	-38.8	21.1	0.00e+00	123	38	0	2483027968	48	6100
2026-01-07 15:19:07.05	213.46	5.27	-37.9	-39.0	20.9	0.00e+00	123	39	0	2496659456	48	6269
2026-01-07 15:19:11.09	213.42	4.98	-38.1	-39.2	20.8	0.00e+00	122	38	0	2509242368	48	6415
2026-01-07 15:19:15.13	213.38	4.69	-38.2	-39.4	20.6	0.00e+00	123	38	0	2521825280	48	6505
2026-01-07 15:19:19.18	213.34	4.41	-38.4	-39.6	20.3	0.00e+00	120	38	0	2534408192	48	6682
2026-01-07 15:19:23.22	213.29	4.13	-38.6	-39.8	20.1	0.00e+00	123	39	0	2546991104	48	6839
2026-01-07 15:19:27.26	213.26	3.85	-38.6	-39.8	20.0	0.00e+00	123	38	0	2559574016	48	6862
2026-01-07 15:19:31.30	213.22	3.57	-39.1	-40.3	19.6	0.00e+00	123	38	0	2572156928	50	6491
2026-01-07 15:19:35.34	213.18	3.30	-38.9	-40.2	19.5	0.00e+00	123	38	0	2584739840	50	6383
2026-01-07 15:19:39.38	213.14	3.03	-41.8	-43.7	5.9	2.44e-04	123	39	0	2597322752	50	9607
2026-01-07 15:19:43.42	213.11	2.76	-49.2	-62.1	3.5	1.52e+00	0	39	104	2597322752	60	44812
2026-01-07 15:19:47.46	213.07	2.50	-49.4	-62.3	3.5	1.52e+00	0	39	104	2597322752	60	45551
2026-01-07 15:19:51.50	213.04	2.24	-49.1	-62.2	3.5	1.52e+00	0	39	104	2597322752	60	45185
2026-01-07 15:19:55.54	213.00	1.98	-49.2	-62.2	3.5	1.52e+00	0	39	104	2597322752	60	45031
2026-01-07 15:19:59.58	212.97	1.72	-49.3	-62.2	3.5	1.52e+00	0	39	104	2597322752	60	44976
2026-01-07 15:20:03.61	212.94	1.46	-49.3	-62.1	3.5	1.52e+00	0	39	104	2597322752	60	44938
2026-01-07 15:20:07.65	212.91	1.21	-49.3	-62.2	3.5	1.52e+00	0	39	104	2597322752	60	45028
2026-01-07 15:20:11.69	212.88	0.96	-49.3	-62.2	3.5	1.51e+00	0	39	104	2597322752	60	44961
2026-01-07 15:20:15.73	212.85	0.71	-49.3	-62.2	3.5	1.52e+00	0	39	104	2597322752	60	44966
2026-01-07 15:20:19.77	212.82	0.46	-49.3	-62.2	3.5	1.52e+00	0	39	104	2597322752	60	44994
2026-01-07 15:20:23.81	212.79	0.22	-49.3	-62.1	3.5	1.52e+00	0	39	104	2597322752	60	44905
2026-01-07 15:20:27.84	212.76	-0.02	-49.3	-62.1	3.5	1.52e+00	0	39	104	2597322752	60	44634

#Closed at: 2026-01-07 15:20:29
#Recorded file [2597 MB]: D:/lorett/data/35029_260108_030458.dat