passes_logs/2026/01/07/R4.6S_Anadyr/R4.6S_Anadyr__20260107_141455_NOAA_20_JPSS-1_rec.log

#Pass ID: 20260107_141455_NOAA 20 (JPSS-1)
#Satellite: NOAA 20 (JPSS-1)
#Configuration: NOAA 20
#almurnet v.1.7.20251203
#Start time: 2026-01-07 14:14:58

#Version: 2.2.20231116
#Station: R4.6S_Anadyr
#Location: 177.4865 lon 64.73178 lat
#TLE: 1 43013U 17073A   26005.46207808  .00000128  00000+0  81791-4 0  9997
#TLE: 2 43013  98.7627 306.5027 0001826  53.0458 307.0885 14.19533487421381

#Time	Az	El	Level	Level2	SNR	BER	BlckErr	Temp	State	Recorded	gain1	gain2
2026-01-07 14:14:58.91	19.72	0.20	-49.3	-63.0	3.3	1.54e+00	0	36	0	0	60	51268
2026-01-07 14:15:02.94	19.79	0.44	-49.4	-64.5	3.6	1.51e+00	0	37	104	0	60	61029
2026-01-07 14:15:06.98	19.87	0.68	-49.1	-64.4	3.6	1.51e+00	0	37	104	0	60	59992
2026-01-07 14:15:11.02	19.95	0.93	-48.5	-63.6	3.6	1.51e+00	0	37	104	0	60	54402
2026-01-07 14:15:15.06	20.03	1.17	-47.9	-63.0	3.6	1.51e+00	0	37	104	0	60	51025
2026-01-07 14:15:19.10	20.10	1.42	-47.9	-62.9	3.5	1.51e+00	0	37	104	0	60	50320
2026-01-07 14:15:23.14	20.18	1.67	-47.9	-62.9	3.6	1.51e+00	0	37	104	0	60	50719
2026-01-07 14:15:27.18	20.26	1.93	-47.9	-63.1	3.6	1.51e+00	0	37	104	0	60	51610
2026-01-07 14:15:31.22	20.35	2.18	-47.8	-62.4	3.6	1.51e+00	0	37	104	0	60	47540
2026-01-07 14:15:35.26	20.43	2.44	-47.7	-60.5	3.6	1.49e+00	0	37	104	0	60	38103
2026-01-07 14:15:39.30	20.51	2.70	-47.5	-56.4	4.7	9.23e-01	0	37	0	1048576	60	23996
2026-01-07 14:15:43.34	20.60	2.96	-45.1	-48.6	13.4	1.33e-04	0	37	0	8388608	60	9725
2026-01-07 14:15:47.38	20.69	3.22	-43.2	-45.3	16.7	0.00e+00	0	37	0	15728640	60	6682
2026-01-07 14:15:51.41	20.77	3.49	-44.5	-47.4	14.5	0.00e+00	0	37	0	23068672	60	8498
2026-01-07 14:15:55.45	20.86	3.76	-41.3	-42.8	19.2	0.00e+00	0	37	0	31457280	56	6273
2026-01-07 14:15:59.49	20.95	4.03	-47.8	-61.4	3.9	1.51e+00	0	37	104	33554432	60	42447
2026-01-07 14:16:03.53	21.04	4.31	-43.1	-45.2	16.9	0.00e+00	0	37	0	38797312	60	6569
2026-01-07 14:16:07.57	21.14	4.59	-43.1	-45.2	17.2	0.00e+00	0	37	0	46137344	60	6563
2026-01-07 14:16:11.61	21.23	4.87	-42.5	-44.4	18.1	0.00e+00	0	37	0	54525952	58	6702
2026-01-07 14:16:15.65	21.33	5.15	-42.3	-44.0	18.3	0.00e+00	0	37	0	61865984	58	6414
2026-01-07 14:16:19.69	21.43	5.44	-41.5	-43.0	19.6	0.00e+00	0	37	0	69206016	56	6444
2026-01-07 14:16:23.72	21.52	5.73	-39.9	-41.1	21.2	0.00e+00	0	37	0	76546048	54	5800
2026-01-07 14:16:27.76	21.63	6.02	-39.8	-41.0	21.3	0.00e+00	0	37	0	83886080	52	6417
2026-01-07 14:16:31.80	21.73	6.32	-39.8	-40.9	21.4	0.00e+00	0	37	0	92274688	52	6364
2026-01-07 14:16:35.84	21.83	6.62	-39.8	-41.0	21.4	0.00e+00	0	37	0	99614720	52	6394
2026-01-07 14:16:39.88	21.94	6.92	-39.6	-40.7	21.7	0.00e+00	0	37	0	106954752	52	6185
2026-01-07 14:16:43.91	22.05	7.23	-39.5	-40.6	21.8	0.00e+00	0	38	0	114294784	52	6139
2026-01-07 14:16:47.95	22.15	7.54	-39.4	-40.5	22.0	0.00e+00	0	37	0	122683392	52	6074
2026-01-07 14:16:51.99	22.27	7.85	-39.4	-40.5	22.0	0.00e+00	0	37	0	130023424	52	6071
2026-01-07 14:16:56.03	22.38	8.17	-39.3	-40.3	22.2	0.00e+00	0	37	0	137363456	52	5945
2026-01-07 14:17:00.07	22.50	8.49	-39.2	-40.3	22.3	0.00e+00	0	37	0	144703488	52	5913
2026-01-07 14:17:04.11	22.61	8.82	-39.1	-40.2	22.4	0.00e+00	0	37	0	152043520	52	5832
2026-01-07 14:17:08.15	22.73	9.15	-39.1	-40.1	22.5	0.00e+00	0	37	0	160432128	52	5821
2026-01-07 14:17:12.18	22.86	9.48	-39.1	-40.1	22.6	0.00e+00	0	37	0	167772160	52	5785
2026-01-07 14:17:16.22	22.98	9.82	-39.0	-40.0	22.6	0.00e+00	0	37	0	175112192	52	5730
2026-01-07 14:17:20.26	23.11	10.17	-38.9	-39.9	22.7	0.00e+00	0	37	0	182452224	52	5664
2026-01-07 14:17:24.30	23.24	10.52	-38.7	-39.7	22.9	0.00e+00	0	38	0	190840832	50	6200
2026-01-07 14:17:28.33	23.37	10.87	-38.7	-39.7	22.9	0.00e+00	0	37	0	198180864	50	6213
2026-01-07 14:17:32.37	23.51	11.23	-38.6	-39.6	23.0	0.00e+00	0	37	0	205520896	50	6127
2026-01-07 14:17:36.41	23.65	11.59	-38.6	-39.6	23.1	0.00e+00	0	37	0	212860928	50	6108
2026-01-07 14:17:40.45	23.79	11.96	-38.6	-39.6	23.1	0.00e+00	0	38	0	220200960	50	6131
2026-01-07 14:17:44.48	23.93	12.33	-38.5	-39.4	23.2	0.00e+00	0	38	0	228589568	50	6020
2026-01-07 14:17:48.52	24.08	12.71	-38.5	-39.4	23.2	0.00e+00	0	38	0	235929600	50	6023
2026-01-07 14:17:52.56	24.23	13.10	-38.7	-39.7	23.0	0.00e+00	0	38	0	243269632	50	6187
2026-01-07 14:17:56.60	24.39	13.49	-38.4	-39.3	23.4	0.00e+00	0	38	0	250609664	50	5946
2026-01-07 14:18:00.64	24.55	13.89	-38.3	-39.2	23.5	0.00e+00	0	38	0	258998272	50	5875
2026-01-07 14:18:04.68	24.71	14.30	-38.5	-39.4	23.3	0.00e+00	0	38	0	266338304	50	6007
2026-01-07 14:18:08.71	24.88	14.71	-38.4	-39.3	23.3	0.00e+00	0	38	0	273678336	50	5944
2026-01-07 14:18:12.75	25.05	15.13	-38.7	-39.6	23.2	0.00e+00	0	38	0	281018368	50	6161
2026-01-07 14:18:16.79	25.22	15.55	-38.6	-39.5	23.3	0.00e+00	0	38	0	288358400	50	6069
2026-01-07 14:18:20.83	25.40	15.99	-38.7	-39.6	23.2	0.00e+00	0	38	0	296747008	50	6127
2026-01-07 14:18:24.87	25.59	16.43	-38.6	-39.5	23.3	0.00e+00	0	38	0	304087040	50	6086
2026-01-07 14:18:28.91	25.78	16.88	-38.5	-39.4	23.4	0.00e+00	0	38	0	311427072	50	6026
2026-01-07 14:18:32.95	25.97	17.33	-38.5	-39.4	23.4	0.00e+00	0	38	0	318767104	50	6000
2026-01-07 14:18:36.99	26.17	17.80	-38.4	-39.3	23.5	0.00e+00	0	38	0	327155712	50	5938
2026-01-07 14:18:41.02	26.38	18.27	-38.5	-39.4	23.4	0.00e+00	0	38	0	334495744	50	6027
2026-01-07 14:18:45.06	26.59	18.76	-38.5	-39.4	23.4	0.00e+00	0	38	0	341835776	50	5993
2026-01-07 14:18:49.10	26.81	19.25	-38.5	-39.4	23.4	0.00e+00	0	38	0	349175808	50	6007
2026-01-07 14:18:53.14	27.03	19.75	-38.6	-39.5	23.3	0.00e+00	0	38	0	356515840	50	6080
2026-01-07 14:18:57.18	27.27	20.26	-38.6	-39.6	23.3	0.00e+00	0	38	0	364904448	50	6110
2026-01-07 14:19:01.22	27.51	20.79	-38.7	-39.6	23.4	0.00e+00	0	38	0	372244480	50	6157
2026-01-07 14:19:05.25	27.75	21.32	-38.5	-39.4	23.5	0.00e+00	0	38	0	379584512	50	6014
2026-01-07 14:19:09.29	28.01	21.86	-38.3	-39.2	23.7	0.00e+00	0	38	0	386924544	50	5830
2026-01-07 14:19:13.32	28.27	22.42	-38.0	-38.9	24.0	0.00e+00	0	38	0	395313152	50	5652
2026-01-07 14:19:17.36	28.54	22.98	-37.9	-38.7	24.1	0.00e+00	0	38	0	402653184	50	5552
2026-01-07 14:19:21.40	28.83	23.56	-37.7	-38.5	24.3	0.00e+00	0	38	0	409993216	48	6083
2026-01-07 14:19:25.44	29.12	24.16	-37.4	-38.3	24.5	0.00e+00	0	38	0	417333248	48	5902
2026-01-07 14:19:29.48	29.42	24.76	-37.3	-38.1	24.6	0.00e+00	0	38	0	424673280	48	5774
2026-01-07 14:19:33.51	29.74	25.38	-37.4	-38.2	24.6	0.00e+00	0	38	0	433061888	48	5854
2026-01-07 14:19:37.55	30.06	26.01	-37.1	-37.9	24.8	0.00e+00	0	38	0	440401920	48	5675
2026-01-07 14:19:41.59	30.40	26.66	-36.9	-37.7	25.0	0.00e+00	0	38	0	447741952	48	5532
2026-01-07 14:19:45.63	30.75	27.32	-37.3	-38.1	24.7	0.00e+00	0	38	0	455081984	48	5779
2026-01-07 14:19:49.67	31.12	28.00	-37.8	-38.6	24.2	0.00e+00	0	38	0	463470592	48	6154
2026-01-07 14:19:53.71	31.50	28.69	-38.3	-39.2	23.8	0.00e+00	0	38	0	470810624	48	6589
2026-01-07 14:19:57.75	31.90	29.40	-38.5	-39.4	23.3	0.00e+00	0	38	0	478150656	48	6697
2026-01-07 14:20:01.79	32.32	30.13	-39.0	-39.9	23.1	0.00e+00	0	38	0	485490688	50	6376
2026-01-07 14:20:05.84	32.75	30.87	-39.4	-40.4	22.7	0.00e+00	0	38	0	492830720	50	6757
2026-01-07 14:20:09.88	33.21	31.63	-40.1	-41.1	22.2	0.00e+00	0	38	0	501219328	52	6512
2026-01-07 14:20:13.91	33.68	32.41	-40.1	-41.1	22.1	0.00e+00	0	38	0	508559360	52	6512
2026-01-07 14:20:17.95	34.18	33.21	-40.5	-41.6	21.3	0.00e+00	0	38	0	515899392	52	6882
2026-01-07 14:20:21.99	34.70	34.03	-40.7	-41.8	21.5	0.00e+00	0	38	0	523239424	54	6298
2026-01-07 14:20:26.03	35.25	34.86	-40.8	-42.0	21.3	0.00e+00	0	38	0	531628032	54	6418
2026-01-07 14:20:30.07	35.83	35.72	-40.8	-41.9	21.4	0.00e+00	0	38	0	538968064	54	6383
2026-01-07 14:20:34.10	36.44	36.60	-40.6	-41.7	21.4	0.00e+00	0	38	0	546308096	54	6241
2026-01-07 14:20:38.14	37.08	37.50	-40.9	-42.1	21.2	0.00e+00	0	38	0	553648128	54	6478
2026-01-07 14:20:42.18	37.76	38.41	-41.2	-42.4	20.9	0.00e+00	0	38	0	560988160	54	6737
2026-01-07 14:20:46.22	38.47	39.35	-40.7	-41.9	21.4	0.00e+00	0	38	0	569376768	54	6321
2026-01-07 14:20:50.26	39.23	40.32	-40.3	-41.4	21.8	0.00e+00	0	38	0	576716800	54	6024
2026-01-07 14:20:54.29	40.03	41.30	-39.9	-40.9	22.4	0.00e+00	0	38	0	584056832	54	5662
2026-01-07 14:20:58.33	40.89	42.30	-38.9	-39.8	23.3	0.00e+00	0	38	0	591396864	52	5628
2026-01-07 14:21:02.37	41.79	43.32	-39.0	-39.9	23.1	0.00e+00	0	38	0	598736896	50	6384
2026-01-07 14:21:06.40	42.76	44.36	-39.8	-40.8	22.5	0.00e+00	0	38	0	607125504	52	6306
2026-01-07 14:21:10.45	43.79	45.43	-39.4	-40.4	22.7	0.00e+00	0	38	0	614465536	52	5966
2026-01-07 14:21:14.49	44.89	46.51	-40.9	-42.1	21.3	0.00e+00	0	38	0	621805568	54	6477
2026-01-07 14:21:18.52	46.07	47.60	-40.7	-41.9	21.4	0.00e+00	0	38	0	629145600	54	6367
2026-01-07 14:21:22.56	47.34	48.71	-39.8	-40.9	22.4	0.00e+00	0	38	0	637534208	52	6321
2026-01-07 14:21:26.59	48.70	49.84	-38.7	-39.7	23.4	0.00e+00	0	38	0	644874240	52	5515
2026-01-07 14:21:30.63	50.16	50.97	-37.1	-37.9	24.9	0.00e+00	0	38	0	652214272	48	5632
2026-01-07 14:21:34.67	51.74	52.12	-35.3	-36.0	26.3	0.00e+00	0	38	0	659554304	44	5751
2026-01-07 14:21:38.71	53.44	53.26	-35.3	-36.0	26.4	0.00e+00	0	38	0	666894336	42	6462
2026-01-07 14:21:42.75	55.28	54.41	-35.5	-36.3	26.1	0.00e+00	0	38	0	675282944	44	5909
2026-01-07 14:21:46.79	57.28	55.55	-37.5	-38.3	24.3	0.00e+00	0	38	0	682622976	46	6666
2026-01-07 14:21:50.83	59.44	56.67	-38.0	-38.9	24.0	0.00e+00	0	38	0	689963008	48	6350
2026-01-07 14:21:54.86	61.77	57.78	-39.1	-40.0	23.0	0.00e+00	0	38	0	697303040	50	6427
2026-01-07 14:21:58.90	64.31	58.86	-39.7	-40.7	22.5	0.00e+00	0	38	0	705691648	50	6957
2026-01-07 14:22:02.94	67.06	59.90	-37.2	-38.0	24.7	0.00e+00	0	38	0	713031680	48	5748
2026-01-07 14:22:06.98	70.03	60.90	-36.7	-37.4	25.3	0.00e+00	0	38	0	720371712	46	6021
2026-01-07 14:22:11.02	73.24	61.84	-36.7	-37.5	25.2	0.00e+00	0	38	0	727711744	46	6051
2026-01-07 14:22:15.06	76.69	62.71	-37.3	-38.2	24.8	0.00e+00	0	38	0	735051776	48	5831
2026-01-07 14:22:19.10	80.39	63.50	-36.9	-37.7	25.1	0.00e+00	0	38	0	743440384	46	6174
2026-01-07 14:22:23.14	84.33	64.19	-37.5	-38.3	24.6	0.00e+00	0	38	0	750780416	48	5960
2026-01-07 14:22:27.18	88.50	64.77	-38.9	-39.8	23.2	0.00e+00	0	38	0	758120448	50	6295
2026-01-07 14:22:31.22	92.85	65.23	-38.3	-39.2	23.9	0.00e+00	0	38	0	765460480	50	5831
2026-01-07 14:22:35.26	97.37	65.56	-40.1	-41.1	22.2	0.00e+00	0	38	0	773849088	52	6532
2026-01-07 14:22:39.29	101.98	65.76	-38.5	-39.4	23.7	0.00e+00	0	38	0	781189120	50	5995
2026-01-07 14:22:43.33	106.66	65.81	-38.2	-39.1	23.9	0.00e+00	0	38	0	788529152	50	5795
2026-01-07 14:22:47.37	111.33	65.71	-38.3	-39.2	23.8	0.00e+00	0	38	0	795869184	50	5835
2026-01-07 14:22:51.40	115.92	65.47	-37.0	-37.8	25.0	0.00e+00	0	38	0	803209216	48	5628
2026-01-07 14:22:55.44	120.39	65.10	-38.3	-39.1	24.0	0.00e+00	0	38	0	811597824	48	6522
2026-01-07 14:22:59.48	124.69	64.60	-37.3	-38.1	24.7	0.00e+00	0	38	0	818937856	48	5814
2026-01-07 14:23:03.52	128.79	63.98	-36.9	-37.7	25.1	0.00e+00	0	38	0	826277888	48	5526
2026-01-07 14:23:07.55	132.65	63.26	-36.1	-36.9	25.7	0.00e+00	0	38	0	833617920	44	6369
2026-01-07 14:23:11.59	136.28	62.44	-34.4	-35.1	27.0	0.00e+00	0	38	0	842006528	40	6522
2026-01-07 14:23:15.64	139.67	61.55	-34.5	-35.2	27.0	0.00e+00	0	38	0	849346560	40	6602
2026-01-07 14:23:19.68	142.81	60.58	-36.1	-36.9	25.6	0.00e+00	0	38	0	856686592	44	6336
2026-01-07 14:23:23.72	145.71	59.57	-37.6	-38.4	24.5	0.00e+00	0	38	0	864026624	48	6000
2026-01-07 14:23:27.75	148.39	58.51	-37.4	-38.2	24.7	0.00e+00	0	38	0	871366656	48	5847
2026-01-07 14:23:31.79	150.86	57.42	-35.8	-36.5	26.1	0.00e+00	0	38	0	879755264	46	5419
2026-01-07 14:23:35.83	153.15	56.30	-35.1	-35.8	26.5	0.00e+00	0	38	0	887095296	44	5626
2026-01-07 14:23:39.87	155.26	55.17	-35.4	-36.1	26.3	0.00e+00	0	38	0	894435328	44	5825
2026-01-07 14:23:43.91	157.20	54.02	-35.1	-35.8	26.5	0.00e+00	0	38	0	901775360	44	5592
2026-01-07 14:23:47.95	159.00	52.87	-36.7	-37.5	25.3	0.00e+00	0	38	0	910163968	46	6041
2026-01-07 14:23:51.98	160.66	51.73	-36.2	-36.9	25.6	0.00e+00	0	38	0	917504000	44	6372
2026-01-07 14:23:56.02	162.20	50.58	-38.0	-38.9	24.1	0.00e+00	0	38	0	924844032	48	6370
2026-01-07 14:24:00.06	163.63	49.45	-39.7	-40.7	22.4	0.00e+00	0	38	0	932184064	50	6981
2026-01-07 14:24:04.10	164.97	48.32	-41.7	-43.0	20.6	0.00e+00	0	38	0	939524096	56	6455
2026-01-07 14:24:08.14	166.20	47.21	-42.9	-44.6	18.6	0.00e+00	0	38	0	947912704	56	7751
2026-01-07 14:24:12.17	167.36	46.12	-39.9	-41.0	22.5	0.00e+00	0	38	0	955252736	54	5720
2026-01-07 14:24:16.21	168.44	45.04	-39.5	-40.5	22.6	0.00e+00	0	38	0	962592768	50	6799
2026-01-07 14:24:20.25	169.45	43.98	-37.8	-38.6	24.1	0.00e+00	0	38	0	969932800	50	5483
2026-01-07 14:24:24.29	170.40	42.94	-37.3	-38.1	24.7	0.00e+00	0	38	0	978321408	46	6516
2026-01-07 14:24:28.33	171.29	41.92	-37.5	-38.4	24.5	0.00e+00	0	38	0	985661440	48	5971
2026-01-07 14:24:32.37	172.12	40.92	-36.9	-37.7	25.1	0.00e+00	0	38	0	993001472	46	6205
2026-01-07 14:24:36.41	172.91	39.94	-39.0	-40.0	23.1	0.00e+00	0	38	0	1000341504	50	6450
2026-01-07 14:24:40.45	173.65	38.98	-36.9	-37.7	25.1	0.00e+00	0	38	0	1007681536	48	5548
2026-01-07 14:24:44.49	174.36	38.04	-37.1	-37.9	24.9	0.00e+00	0	38	0	1016070144	46	6342
2026-01-07 14:24:48.53	175.02	37.13	-38.2	-39.1	23.9	0.00e+00	0	38	0	1023410176	50	5809
2026-01-07 14:24:52.57	175.65	36.23	-37.0	-37.8	25.1	0.00e+00	0	38	0	1030750208	48	5567
2026-01-07 14:24:56.61	176.25	35.36	-37.2	-38.0	24.9	0.00e+00	0	38	0	1038090240	46	6403
2026-01-07 14:25:00.64	176.82	34.51	-38.4	-39.3	23.7	0.00e+00	0	38	0	1046478848	48	6653
2026-01-07 14:25:04.68	177.36	33.67	-38.3	-39.1	23.8	0.00e+00	0	38	0	1053818880	48	6539
2026-01-07 14:25:08.72	177.87	32.86	-38.8	-39.7	23.3	0.00e+00	0	38	0	1061158912	50	6204
2026-01-07 14:25:12.76	178.36	32.06	-38.4	-39.2	23.8	0.00e+00	0	38	0	1068498944	50	5876
2026-01-07 14:25:16.79	178.83	31.29	-38.9	-39.9	23.2	0.00e+00	0	38	0	1075838976	50	6337
2026-01-07 14:25:20.83	179.27	30.53	-39.5	-40.5	22.5	0.00e+00	0	38	0	1084227584	50	6775
2026-01-07 14:25:24.87	179.70	29.79	-38.6	-39.5	23.5	0.00e+00	0	38	0	1091567616	50	6088
2026-01-07 14:25:28.91	180.11	29.07	-38.1	-39.0	24.0	0.00e+00	0	38	0	1098907648	50	5708
2026-01-07 14:25:32.94	180.50	28.36	-37.8	-38.6	24.3	0.00e+00	0	38	0	1106247680	48	6144
2026-01-07 14:25:36.98	180.88	27.67	-38.3	-39.2	23.7	0.00e+00	0	38	0	1114636288	48	6609
2026-01-07 14:25:41.02	181.24	27.00	-38.3	-39.2	23.8	0.00e+00	0	38	0	1121976320	48	6607
2026-01-07 14:25:45.06	181.58	26.34	-37.5	-38.3	24.6	0.00e+00	0	38	0	1129316352	48	5927
2026-01-07 14:25:49.09	181.92	25.70	-36.6	-37.4	25.3	0.00e+00	0	38	0	1136656384	46	5965
2026-01-07 14:25:53.13	182.24	25.07	-36.6	-37.4	25.3	0.00e+00	0	38	0	1143996416	46	5991
2026-01-07 14:25:57.17	182.55	24.45	-36.8	-37.6	25.1	0.00e+00	0	38	0	1152385024	46	6172
2026-01-07 14:26:01.20	182.85	23.85	-36.9	-37.8	25.0	0.00e+00	0	38	0	1159725056	46	6254
2026-01-07 14:26:05.24	183.13	23.26	-36.8	-37.7	25.0	0.00e+00	0	38	0	1167065088	46	6175
2026-01-07 14:26:09.28	183.41	22.68	-36.5	-37.2	25.3	0.00e+00	0	38	0	1174405120	46	5889
2026-01-07 14:26:13.32	183.68	22.11	-36.6	-37.4	25.3	0.00e+00	0	38	0	1182793728	46	5977
2026-01-07 14:26:17.36	183.94	21.56	-36.5	-37.2	25.1	0.00e+00	0	38	0	1190133760	46	5883
2026-01-07 14:26:21.40	184.19	21.02	-36.7	-37.5	25.1	0.00e+00	0	38	0	1197473792	46	6053
2026-01-07 14:26:25.44	184.43	20.49	-36.8	-37.6	24.9	0.00e+00	0	38	0	1204813824	46	6129
2026-01-07 14:26:29.48	184.67	19.97	-36.8	-37.6	25.0	0.00e+00	0	38	0	1212153856	46	6121
2026-01-07 14:26:33.51	184.89	19.46	-36.8	-37.7	25.0	0.00e+00	0	38	0	1220542464	46	6175
2026-01-07 14:26:37.55	185.12	18.96	-36.8	-37.6	24.9	0.00e+00	0	38	0	1227882496	46	6135
2026-01-07 14:26:41.59	185.33	18.47	-36.7	-37.5	25.1	0.00e+00	0	38	0	1235222528	46	6085
2026-01-07 14:26:45.63	185.54	17.98	-37.1	-37.9	24.8	0.00e+00	0	38	0	1242562560	46	6343
2026-01-07 14:26:49.67	185.74	17.51	-37.5	-38.3	24.4	0.00e+00	0	38	0	1250951168	46	6681
2026-01-07 14:26:53.70	185.94	17.05	-37.9	-38.7	23.9	0.00e+00	0	38	0	1258291200	48	6239
2026-01-07 14:26:57.74	186.13	16.59	-38.3	-39.2	23.6	0.00e+00	0	38	0	1265631232	48	6555
2026-01-07 14:27:01.78	186.31	16.14	-38.2	-39.1	23.6	0.00e+00	0	38	0	1272971264	48	6521
2026-01-07 14:27:05.82	186.49	15.70	-38.4	-39.3	23.4	0.00e+00	0	38	0	1280311296	48	6627
2026-01-07 14:27:09.86	186.67	15.27	-38.2	-39.1	23.6	0.00e+00	0	38	0	1288699904	48	6480
2026-01-07 14:27:13.90	186.84	14.85	-38.1	-39.0	23.8	0.00e+00	0	38	0	1296039936	48	6409
2026-01-07 14:27:17.94	187.01	14.43	-38.1	-39.0	23.7	0.00e+00	0	38	0	1303379968	48	6456
2026-01-07 14:27:21.98	187.17	14.02	-38.1	-39.0	23.6	0.00e+00	0	38	0	1310720000	48	6463
2026-01-07 14:27:26.02	187.33	13.61	-38.3	-39.2	23.5	0.00e+00	0	38	0	1319108608	48	6598
2026-01-07 14:27:30.06	187.48	13.22	-38.5	-39.4	23.2	0.00e+00	0	38	0	1326448640	48	6713
2026-01-07 14:27:34.10	187.64	12.82	-38.6	-39.5	23.2	0.00e+00	0	38	0	1333788672	48	6832
2026-01-07 14:27:38.13	187.78	12.44	-38.4	-39.3	23.4	0.00e+00	0	38	0	1341128704	48	6661
2026-01-07 14:27:42.16	187.93	12.06	-38.5	-39.4	23.2	0.00e+00	0	38	0	1348468736	48	6761
2026-01-07 14:27:46.21	188.07	11.69	-38.3	-39.2	23.4	0.00e+00	0	38	0	1356857344	48	6612
2026-01-07 14:27:50.25	188.21	11.32	-38.5	-39.5	23.2	0.00e+00	0	38	0	1364197376	48	6778
2026-01-07 14:27:54.28	188.34	10.95	-38.2	-39.1	23.5	0.00e+00	0	38	0	1371537408	48	6532
2026-01-07 14:27:58.32	188.47	10.60	-38.4	-39.3	23.3	0.00e+00	0	38	0	1378877440	48	6681
2026-01-07 14:28:02.35	188.60	10.24	-38.3	-39.2	23.4	0.00e+00	0	38	0	1387266048	48	6599
2026-01-07 14:28:06.39	188.73	9.90	-38.4	-39.3	23.3	0.00e+00	0	38	0	1394606080	48	6637
2026-01-07 14:28:10.43	188.85	9.55	-38.3	-39.2	23.4	0.00e+00	0	38	0	1401946112	48	6560
2026-01-07 14:28:14.47	188.97	9.21	-38.5	-39.4	23.1	0.00e+00	0	38	0	1409286144	48	6746
2026-01-07 14:28:18.51	189.09	8.88	-38.4	-39.4	23.1	0.00e+00	0	38	0	1416626176	48	6693
2026-01-07 14:28:22.55	189.21	8.55	-38.6	-39.5	23.0	0.00e+00	0	38	0	1425014784	48	6836
2026-01-07 14:28:26.59	189.32	8.22	-38.9	-39.8	22.6	0.00e+00	0	38	0	1432354816	50	6315
2026-01-07 14:28:30.62	189.43	7.90	-39.0	-40.0	22.6	0.00e+00	0	38	0	1439694848	50	6425
2026-01-07 14:28:34.66	189.54	7.59	-39.1	-40.1	22.4	0.00e+00	0	38	0	1447034880	50	6504
2026-01-07 14:28:38.70	189.65	7.27	-39.3	-40.3	22.1	0.00e+00	0	38	0	1455423488	50	6690
2026-01-07 14:28:42.73	189.76	6.96	-39.4	-40.5	22.0	0.00e+00	0	38	0	1462763520	50	6814
2026-01-07 14:28:46.77	189.86	6.66	-39.4	-40.5	21.9	0.00e+00	0	38	0	1470103552	50	6816
2026-01-07 14:28:50.81	189.96	6.35	-39.7	-40.8	21.7	0.00e+00	0	38	0	1477443584	50	7030
2026-01-07 14:28:54.85	190.06	6.05	-39.7	-40.8	21.6	0.00e+00	0	38	0	1484783616	52	6286
2026-01-07 14:28:58.89	190.16	5.76	-39.8	-41.0	21.4	0.00e+00	0	38	0	1493172224	52	6392
2026-01-07 14:29:02.93	190.26	5.46	-40.0	-41.2	21.2	0.00e+00	0	38	0	1500512256	52	6584
2026-01-07 14:29:06.97	190.35	5.17	-40.1	-41.3	21.1	0.00e+00	0	38	0	1507852288	52	6617
2026-01-07 14:29:11.01	190.44	4.89	-40.2	-41.4	20.9	0.00e+00	0	38	0	1515192320	52	6718
2026-01-07 14:29:15.05	190.54	4.60	-40.3	-41.6	20.6	0.00e+00	0	38	0	1523580928	52	6882
2026-01-07 14:29:19.09	190.63	4.32	-40.3	-41.6	20.7	0.00e+00	0	38	0	1530920960	52	6872
2026-01-07 14:29:23.13	190.71	4.05	-40.4	-41.6	20.4	0.00e+00	0	38	0	1538260992	52	6923
2026-01-07 14:29:27.17	190.80	3.77	-40.6	-41.9	20.2	0.00e+00	0	38	0	1545601024	54	6380
2026-01-07 14:29:31.21	190.89	3.50	-40.8	-42.2	19.8	0.00e+00	0	38	0	1552941056	54	6591
2026-01-07 14:29:35.25	190.97	3.23	-40.9	-42.3	19.6	0.00e+00	0	38	0	1561329664	54	6630
2026-01-07 14:29:39.29	191.06	2.96	-48.5	-63.6	3.6	1.51e+00	0	38	104	1566572544	60	54764
2026-01-07 14:29:43.33	191.14	2.70	-49.2	-64.5	3.6	1.51e+00	0	38	104	1566572544	60	60354
2026-01-07 14:29:47.37	191.22	2.43	-49.4	-64.6	3.6	1.51e+00	0	38	104	1566572544	60	61118
2026-01-07 14:29:51.42	191.30	2.17	-49.2	-64.5	3.6	1.51e+00	0	38	104	1566572544	60	60766
2026-01-07 14:29:55.45	191.38	1.92	-49.3	-64.6	3.6	1.51e+00	0	38	104	1566572544	60	61047
2026-01-07 14:29:59.49	191.45	1.66	-49.3	-64.5	3.6	1.51e+00	0	38	104	1566572544	60	60595
2026-01-07 14:30:03.53	191.53	1.41	-49.3	-64.5	3.6	1.51e+00	0	38	104	1566572544	60	60494
2026-01-07 14:30:07.57	191.61	1.16	-49.3	-64.5	3.6	1.51e+00	0	38	104	1566572544	60	60628
2026-01-07 14:30:11.62	191.68	0.91	-49.3	-64.5	3.6	1.51e+00	0	38	104	1566572544	60	60518
2026-01-07 14:30:15.65	191.75	0.66	-49.3	-64.5	3.6	1.51e+00	0	38	104	1566572544	60	60541
2026-01-07 14:30:19.69	191.83	0.42	-49.3	-64.5	3.6	1.51e+00	0	38	104	1566572544	60	60575
2026-01-07 14:30:23.73	191.90	0.18	-49.3	-64.5	3.6	1.51e+00	0	38	104	1566572544	60	60448

#Closed at: 2026-01-07 14:30:26
#Recorded file [1566 MB]: D:/lorett/data/35029_260108_021458.dat