passes_logs/2026/01/07/R4.6S_Anadyr/R4.6S_Anadyr__20260107_015536_AQUA_rec.log

#Pass ID: 20260107_015536_AQUA
#Satellite: AQUA
#Configuration: AQUA
#almurnet v.1.7.20251203
#Start time: 2026-01-07 01:55:36

#Version: 2.2.20231116
#Station: R4.6S_Anadyr
#Location: 177.4865 lon 64.73178 lat
#TLE: 1 27424U 02022A   26004.96787593  .00001598  00000+0  32997-3 0  9996
#TLE: 2 27424  98.4069 331.2279 0002002  90.2377   0.6092 14.61798176259425

#Time	Az	El	Level	Level2	SNR	BER	BlckErr	Temp	State	Recorded	gain1	gain2
2026-01-07 01:55:36.85	156.24	0.04	-49.1	-60.6	3.5	8.45e-01	0	32	0	0	60	38858
2026-01-07 01:55:40.88	156.25	0.29	-49.4	-67.3	3.5	3.03e+01	0	33	104	0	60	89559
2026-01-07 01:55:44.92	156.26	0.54	-49.4	-67.4	3.5	3.03e+01	0	33	104	0	60	90254
2026-01-07 01:55:48.96	156.27	0.80	-49.0	-66.9	3.5	3.03e+01	0	33	104	0	60	85283
2026-01-07 01:55:53.00	156.27	1.06	-47.5	-65.1	3.5	3.03e+01	0	33	104	0	60	69211
2026-01-07 01:55:57.03	156.28	1.32	-47.5	-65.3	3.5	3.03e+01	0	33	104	0	60	71213
2026-01-07 01:56:01.07	156.29	1.58	-47.5	-65.1	3.5	3.03e+01	0	33	104	0	60	69239
2026-01-07 01:56:05.11	156.30	1.85	-47.4	-64.6	3.5	3.03e+01	0	34	104	0	60	65559
2026-01-07 01:56:09.15	156.31	2.12	-47.5	-65.0	3.5	3.03e+01	0	34	104	0	60	68334
2026-01-07 01:56:13.19	156.32	2.39	-47.4	-64.7	3.5	3.03e+01	0	34	104	0	60	65931
2026-01-07 01:56:17.23	156.32	2.66	-47.4	-64.4	3.5	3.03e+01	0	34	104	0	60	64003
2026-01-07 01:56:21.27	156.33	2.94	-47.4	-64.4	3.5	3.03e+01	0	34	104	0	60	63567
2026-01-07 01:56:25.31	156.34	3.22	-47.1	-57.6	6.3	3.03e+01	92	34	0	524288	60	29209
2026-01-07 01:56:29.35	156.35	3.51	-44.8	-49.1	15.6	3.03e+01	91	34	0	7864320	60	10928
2026-01-07 01:56:33.39	156.36	3.79	-43.4	-46.4	18.5	3.03e+01	92	34	0	15204352	60	8057
2026-01-07 01:56:37.42	156.36	4.08	-39.9	-42.0	21.4	3.03e+01	89	34	104	19922944	54	6877
2026-01-07 01:56:41.46	156.37	4.38	-41.7	-44.0	21.1	3.03e+01	91	34	0	19922944	58	6812
2026-01-07 01:56:45.50	156.38	4.68	-39.2	-40.8	24.1	3.03e+01	91	34	0	27787264	54	5964
2026-01-07 01:56:49.54	156.39	4.98	-39.2	-40.8	24.3	3.03e+01	92	34	0	35127296	54	5967
2026-01-07 01:56:53.57	156.39	5.28	-39.1	-40.8	24.3	3.03e+01	91	34	0	42991616	52	6668
2026-01-07 01:56:57.61	156.40	5.59	-38.7	-40.2	25.0	3.03e+01	92	34	0	50331648	52	6263
2026-01-07 01:57:01.65	156.41	5.91	-38.5	-40.0	25.3	3.03e+01	89	34	0	57671680	52	6082
2026-01-07 01:57:05.69	156.42	6.23	-38.3	-39.8	25.6	3.03e+01	91	34	0	65536000	52	5961
2026-01-07 01:57:09.73	156.42	6.55	-38.0	-39.4	25.9	3.03e+01	92	34	0	72876032	50	6380
2026-01-07 01:57:13.76	156.43	6.87	-38.0	-39.4	25.9	3.03e+01	92	34	0	80740352	50	6377
2026-01-07 01:57:17.80	156.44	7.21	-37.5	-38.9	26.5	3.03e+01	92	34	0	88080384	50	6014
2026-01-07 01:57:21.84	156.44	7.54	-37.5	-38.9	26.5	3.03e+01	92	34	0	95944704	50	6039
2026-01-07 01:57:25.87	156.45	7.88	-37.2	-38.6	26.8	3.03e+01	89	34	0	103284736	50	5812
2026-01-07 01:57:29.91	156.45	8.23	-37.1	-38.5	26.9	3.03e+01	92	34	0	111149056	50	5739
2026-01-07 01:57:33.94	156.46	8.58	-37.1	-38.4	27.1	3.03e+01	92	34	0	118489088	48	6389
2026-01-07 01:57:37.98	156.47	8.94	-36.9	-38.2	27.1	3.03e+01	87	34	0	125829120	48	6276
2026-01-07 01:57:42.02	156.47	9.30	-37.0	-38.3	27.1	3.03e+01	92	34	0	133693440	48	6337
2026-01-07 01:57:46.05	156.48	9.67	-36.7	-38.0	27.5	3.03e+01	92	34	0	141033472	48	6076
2026-01-07 01:57:50.09	156.48	10.05	-36.5	-37.8	27.7	3.03e+01	92	34	0	148897792	48	5986
2026-01-07 01:57:54.12	156.49	10.43	-36.4	-37.6	28.0	3.03e+01	91	34	0	156237824	48	5849
2026-01-07 01:57:58.16	156.49	10.82	-36.2	-37.5	28.0	3.03e+01	91	34	0	163577856	48	5777
2026-01-07 01:58:02.19	156.50	11.21	-36.2	-37.5	28.2	3.03e+01	90	34	0	171442176	48	5739
2026-01-07 01:58:06.22	156.50	11.62	-36.0	-37.2	28.4	3.03e+01	91	34	0	178782208	46	6275
2026-01-07 01:58:10.26	156.50	12.03	-35.7	-37.0	28.6	3.03e+01	90	34	0	186646528	46	6070
2026-01-07 01:58:14.30	156.51	12.45	-35.7	-37.0	28.6	3.03e+01	90	34	0	193986560	46	6082
2026-01-07 01:58:18.34	156.51	12.87	-35.5	-36.7	28.8	3.03e+01	91	34	0	201850880	46	5906
2026-01-07 01:58:22.37	156.51	13.31	-35.5	-36.7	28.9	3.03e+01	91	34	0	209190912	46	5887
2026-01-07 01:58:26.41	156.51	13.75	-35.4	-36.6	29.0	3.03e+01	91	34	0	217055232	46	5812
2026-01-07 01:58:30.45	156.52	14.20	-35.4	-36.6	29.1	3.03e+01	92	34	0	224395264	46	5848
2026-01-07 01:58:34.49	156.52	14.67	-35.4	-36.6	29.1	3.03e+01	92	34	0	231735296	46	5817
2026-01-07 01:58:38.52	156.52	15.14	-35.6	-36.8	28.9	3.03e+01	92	34	0	239599616	46	5966
2026-01-07 01:58:42.56	156.52	15.62	-35.4	-36.6	28.9	3.03e+01	91	34	0	246939648	46	5850
2026-01-07 01:58:46.59	156.52	16.12	-35.2	-36.4	29.1	3.03e+01	92	34	0	254803968	46	5716
2026-01-07 01:58:50.63	156.52	16.62	-35.1	-36.3	29.3	3.03e+01	92	34	0	262144000	46	5651
2026-01-07 01:58:54.67	156.52	17.14	-35.6	-45.8	3.4	3.03e+01	0	34	104	269484032	46	16743
2026-01-07 01:58:58.71	156.52	17.67	-35.7	-45.8	3.6	3.03e+01	0	34	104	269484032	46	16806
2026-01-07 01:59:02.75	156.52	18.21	-41.9	-52.8	3.4	3.03e+01	0	34	104	269484032	60	16785
2026-01-07 01:59:06.79	156.52	18.77	-35.6	-45.8	3.4	3.03e+01	0	34	104	269484032	48	14989
2026-01-07 01:59:10.82	156.51	19.33	-39.4	-49.7	3.4	3.03e+01	0	34	104	269484032	50	20931
2026-01-07 01:59:14.86	156.51	19.92	-35.4	-45.4	4.1	3.03e+01	0	34	104	269484032	46	16134
2026-01-07 01:59:18.90	156.51	20.52	-47.8	-62.1	3.5	3.03e+01	0	34	104	269484032	60	49133
2026-01-07 01:59:22.93	156.50	21.13	-37.1	-47.3	3.5	3.03e+01	0	34	104	269484032	48	17871
2026-01-07 01:59:26.97	156.49	21.77	-43.0	-54.1	3.5	3.03e+01	0	34	104	269484032	50	34822
2026-01-07 01:59:31.01	156.49	22.42	-40.5	-51.1	3.5	3.03e+01	0	34	104	269484032	56	17478
2026-01-07 01:59:35.05	156.48	23.09	-38.1	-48.3	3.5	3.03e+01	0	34	104	269484032	52	15895
2026-01-07 01:59:39.08	156.47	23.77	-38.2	-48.5	3.5	3.03e+01	0	34	104	269484032	52	16225
2026-01-07 01:59:43.12	156.46	24.48	-36.5	-46.8	3.5	3.03e+01	0	34	104	269484032	46	18768
2026-01-07 01:59:47.16	156.45	25.21	-48.9	-65.6	3.5	3.03e+01	0	34	104	269484032	60	73748
2026-01-07 01:59:51.20	156.44	25.97	-36.4	-46.6	3.5	3.03e+01	0	34	104	269484032	48	16353
2026-01-07 01:59:55.24	156.43	26.74	-41.5	-52.2	3.5	3.03e+01	0	34	104	269484032	58	17669
2026-01-07 01:59:59.27	156.41	27.54	-38.2	-48.5	3.5	3.03e+01	0	34	104	269484032	52	16303
2026-01-07 02:00:03.31	156.39	28.37	-49.1	-66.5	3.5	3.03e+01	0	34	104	269484032	60	81077
2026-01-07 02:00:07.35	156.38	29.22	-36.4	-46.6	3.5	3.03e+01	0	34	104	269484032	48	16432
2026-01-07 02:00:11.38	156.36	30.11	-42.8	-53.8	3.5	3.03e+01	0	34	104	269484032	60	18954
2026-01-07 02:00:15.41	156.33	31.02	-36.0	-46.2	3.5	3.03e+01	0	34	104	269484032	48	15679
2026-01-07 02:00:19.45	156.31	31.96	-36.3	-46.6	3.5	3.03e+01	0	34	104	269484032	48	16351
2026-01-07 02:00:23.49	156.28	32.94	-49.3	-67.0	3.5	3.03e+01	0	34	104	269484032	60	85921
2026-01-07 02:00:27.53	156.25	33.95	-40.7	-51.3	3.5	3.03e+01	0	34	104	269484032	54	19954
2026-01-07 02:00:31.57	156.22	35.00	-38.8	-49.2	3.5	3.03e+01	0	34	104	269484032	56	13919
2026-01-07 02:00:35.61	156.19	36.09	-38.3	-48.7	3.5	3.03e+01	0	34	104	269484032	52	16514
2026-01-07 02:00:39.65	156.15	37.22	-48.4	-63.5	3.5	3.03e+01	0	34	104	269484032	60	57749
2026-01-07 02:00:43.68	156.11	38.39	-37.5	-47.8	3.5	3.03e+01	0	34	104	269484032	50	16708
2026-01-07 02:00:47.72	156.06	39.60	-37.6	-47.9	3.5	3.03e+01	0	34	104	269484032	52	15185
2026-01-07 02:00:51.75	156.01	40.86	-43.6	-54.6	3.5	3.03e+01	0	34	104	269484032	60	20760
2026-01-07 02:00:55.80	155.95	42.17	-39.7	-50.1	3.5	3.03e+01	0	34	104	269484032	50	21785
2026-01-07 02:00:59.83	155.88	43.53	-40.9	-51.5	3.6	3.03e+01	0	34	104	269484032	60	14492
2026-01-07 02:01:03.87	155.81	44.94	-38.8	-49.3	3.5	3.03e+01	0	34	104	269484032	48	22365
2026-01-07 02:01:07.90	155.73	46.40	-35.3	-45.6	3.5	3.03e+01	0	34	104	269484032	46	16336
2026-01-07 02:01:11.94	155.64	47.93	-35.2	-45.4	3.5	3.03e+01	0	34	104	269484032	46	16011
2026-01-07 02:01:15.98	155.54	49.51	-46.4	-59.1	3.5	3.03e+01	0	34	104	269484032	60	34556
2026-01-07 02:01:20.02	155.43	51.15	-40.7	-51.2	3.5	3.03e+01	0	34	104	269484032	56	17657
2026-01-07 02:01:24.06	155.30	52.85	-36.4	-46.7	3.5	3.03e+01	0	34	104	269484032	44	20830
2026-01-07 02:01:28.10	155.16	54.62	-37.4	-47.7	3.5	3.03e+01	0	34	104	269484032	50	16636
2026-01-07 02:01:32.14	154.99	56.45	-38.7	-49.0	3.5	3.03e+01	0	34	104	269484032	48	21551
2026-01-07 02:01:36.17	154.79	58.34	-38.9	-49.3	3.4	3.03e+01	0	34	104	269484032	54	15844
2026-01-07 02:01:40.21	154.57	60.29	-43.2	-54.3	3.5	3.03e+01	0	34	104	269484032	58	22282
2026-01-07 02:01:44.25	154.30	62.32	-44.8	-56.5	3.6	3.03e+01	0	34	104	269484032	60	25607
2026-01-07 02:01:48.28	153.98	64.40	-43.6	-54.8	3.5	3.03e+01	0	34	104	269484032	60	21047
2026-01-07 02:01:52.32	153.59	66.54	-48.5	-63.8	3.5	3.03e+01	0	34	104	269484032	60	59642
2026-01-07 02:01:56.36	153.11	68.75	-44.4	-55.8	3.5	3.03e+01	0	34	104	269484032	60	23605
2026-01-07 02:02:00.39	152.50	71.00	-48.1	-62.7	3.5	3.03e+01	0	35	104	269484032	60	52444
2026-01-07 02:02:04.43	151.71	73.31	-41.0	-51.7	3.5	3.03e+01	0	34	104	269484032	56	18648
2026-01-07 02:02:08.47	150.65	75.66	-44.7	-56.3	3.6	3.03e+01	0	34	104	269484032	60	25089
2026-01-07 02:02:12.51	149.13	78.04	-43.1	-54.2	3.5	3.03e+01	0	35	104	269484032	60	19710
2026-01-07 02:02:16.55	146.83	80.45	-48.6	-64.2	3.6	3.03e+01	0	34	104	269484032	60	62277
2026-01-07 02:02:20.59	142.92	82.87	-44.8	-56.5	3.5	3.03e+01	0	34	104	269484032	60	25803
2026-01-07 02:02:24.62	135.04	85.23	-38.1	-48.5	3.5	3.03e+01	0	35	104	269484032	52	16150
2026-01-07 02:02:28.66	113.22	87.35	-37.3	-47.3	3.5	3.03e+01	0	34	104	269484032	56	11185
2026-01-07 02:02:32.70	49.12	88.02	-35.1	-45.2	3.5	3.03e+01	0	34	104	269484032	46	15751
2026-01-07 02:02:36.74	8.68	86.33	-48.2	-63.1	3.5	3.03e+01	0	35	104	269484032	60	55114
2026-01-07 02:02:40.77	356.34	84.04	-40.4	-50.8	3.5	3.03e+01	0	34	104	269484032	56	16767
2026-01-07 02:02:44.81	350.98	81.64	-37.9	-48.5	3.5	3.03e+01	0	34	104	269484032	48	20538
2026-01-07 02:02:48.85	348.04	79.23	-40.3	-51.2	3.6	3.03e+01	0	34	104	269484032	54	19803
2026-01-07 02:02:52.89	346.20	76.83	-38.7	-48.8	3.5	3.03e+01	0	34	104	269484032	52	16760
2026-01-07 02:02:56.92	344.95	74.47	-43.0	-53.8	3.5	3.03e+01	0	34	104	269484032	60	18917
2026-01-07 02:03:00.96	344.04	72.14	-44.2	-55.5	3.5	3.03e+01	0	35	104	269484032	60	22882
2026-01-07 02:03:05.00	343.35	69.86	-46.5	-58.9	3.5	3.03e+01	0	34	104	269484032	60	34071
2026-01-07 02:03:09.04	342.81	67.64	-46.6	-59.2	3.5	3.03e+01	0	34	104	269484032	60	35061
2026-01-07 02:03:13.08	342.38	65.47	-49.1	-66.6	3.5	3.03e+01	0	35	104	269484032	60	82015
2026-01-07 02:03:17.12	342.03	63.36	-39.2	-49.4	3.5	3.03e+01	0	35	104	269484032	54	16018
2026-01-07 02:03:21.16	341.74	61.31	-49.1	-66.6	3.5	3.03e+01	0	35	104	269484032	60	82443
2026-01-07 02:03:25.20	341.49	59.33	-38.0	-48.5	3.5	3.03e+01	0	34	104	269484032	52	16145
2026-01-07 02:03:29.24	341.28	57.41	-38.8	-49.6	3.5	3.03e+01	0	35	104	269484032	48	23084
2026-01-07 02:03:33.27	341.10	55.55	-45.5	-57.7	3.5	3.03e+01	0	35	104	269484032	60	29388
2026-01-07 02:03:37.31	340.95	53.76	-47.4	-61.2	3.5	3.03e+01	0	35	104	269484032	60	44085
2026-01-07 02:03:41.35	340.81	52.03	-40.7	-51.3	3.4	3.03e+01	0	35	104	269484032	52	22412
2026-01-07 02:03:45.39	340.69	50.37	-36.3	-46.8	3.5	3.03e+01	0	34	104	269484032	48	16743
2026-01-07 02:03:49.42	340.59	48.76	-47.1	-60.2	3.6	3.03e+01	0	35	104	269484032	60	39524
2026-01-07 02:03:53.46	340.49	47.22	-36.5	-46.8	3.5	3.03e+01	0	35	104	269484032	48	16812
2026-01-07 02:03:57.50	340.41	45.73	-49.2	-66.3	3.5	3.03e+01	0	34	104	269484032	60	79845
2026-01-07 02:04:01.53	340.33	44.30	-42.9	-53.8	3.5	3.03e+01	0	35	104	269484032	60	18798
2026-01-07 02:04:05.57	340.27	42.92	-43.1	-53.9	3.6	3.03e+01	0	34	104	269484032	60	19098
2026-01-07 02:04:09.61	340.21	41.59	-38.5	-49.0	3.5	3.03e+01	0	35	104	269484032	52	17201
2026-01-07 02:04:13.64	340.15	40.31	-38.9	-49.4	3.5	3.03e+01	0	35	104	269484032	54	16112
2026-01-07 02:04:17.68	340.11	39.07	-44.2	-55.2	3.5	3.03e+01	0	35	104	269484032	60	22167
2026-01-07 02:04:21.72	340.06	37.89	-36.9	-47.4	3.5	3.03e+01	0	35	104	269484032	48	17982
2026-01-07 02:04:25.76	340.02	36.74	-39.0	-49.4	3.5	3.03e+01	0	35	104	269484032	56	14264
2026-01-07 02:04:29.79	339.99	35.64	-39.5	-49.9	3.5	3.03e+01	0	35	104	269484032	54	16988
2026-01-07 02:04:33.83	339.95	34.57	-48.7	-64.8	3.5	3.03e+01	0	35	104	269484032	60	66524
2026-01-07 02:04:37.87	339.92	33.54	-36.0	-46.0	3.5	3.03e+01	0	35	104	269484032	48	15338
2026-01-07 02:04:41.90	339.90	32.55	-42.2	-52.7	3.5	3.03e+01	0	35	104	269484032	46	37388
2026-01-07 02:04:45.94	339.87	31.60	-37.7	-48.2	3.5	3.03e+01	0	35	104	269484032	50	17663
2026-01-07 02:04:49.98	339.85	30.67	-35.8	-46.1	3.5	3.03e+01	0	35	104	269484032	44	19491
2026-01-07 02:04:54.02	339.83	29.77	-41.9	-52.6	3.5	3.03e+01	0	34	104	269484032	60	16511
2026-01-07 02:04:58.05	339.82	28.91	-35.4	-45.4	3.5	3.03e+01	0	35	104	269484032	46	16101
2026-01-07 02:05:02.09	339.80	28.07	-37.4	-47.4	3.6	3.03e+01	0	35	104	269484032	48	18042
2026-01-07 02:05:06.13	339.79	27.26	-36.2	-46.5	3.5	3.03e+01	0	35	104	269484032	48	16145
2026-01-07 02:05:10.17	339.77	26.47	-44.8	-56.3	3.5	3.03e+01	0	35	104	269484032	60	25124
2026-01-07 02:05:14.20	339.76	25.71	-38.0	-48.4	3.5	3.03e+01	0	35	104	269484032	50	18023
2026-01-07 02:05:18.24	339.75	24.97	-48.9	-65.9	3.5	3.03e+01	0	35	104	269484032	60	75782
2026-01-07 02:05:22.28	339.74	24.26	-39.4	-49.8	3.5	3.03e+01	0	35	104	269484032	52	18927
2026-01-07 02:05:26.32	339.74	23.56	-47.8	-61.7	3.5	3.03e+01	0	35	104	269484032	60	46883
2026-01-07 02:05:30.36	339.73	22.88	-38.3	-48.6	3.5	3.03e+01	0	34	104	269484032	52	16387
2026-01-07 02:05:34.40	339.72	22.22	-37.7	-39.3	5.2	3.03e+01	0	35	104	269484032	50	6345
2026-01-07 02:05:38.43	339.72	21.58	-46.8	-51.7	16.4	3.03e+01	57	35	0	273154048	60	14725
2026-01-07 02:05:42.47	339.72	20.96	-36.6	-37.9	28.2	3.03e+01	37	34	0	281018368	48	6004
2026-01-07 02:05:46.51	339.71	20.35	-35.0	-36.1	29.6	3.03e+01	59	35	0	288358400	44	6205
2026-01-07 02:05:50.55	339.71	19.76	-34.7	-35.9	29.7	3.03e+01	60	35	0	296222720	44	6043
2026-01-07 02:05:54.59	339.71	19.19	-34.9	-36.1	29.7	3.03e+01	60	35	0	303562752	44	6192
2026-01-07 02:05:58.62	339.71	18.63	-34.8	-36.0	29.7	3.03e+01	49	34	0	310902784	44	6130
2026-01-07 02:06:02.66	339.71	18.08	-34.9	-36.1	29.6	3.03e+01	57	34	0	318767104	44	6181
2026-01-07 02:06:06.69	339.71	17.55	-34.8	-36.1	29.5	3.03e+01	56	34	0	326107136	44	6143
2026-01-07 02:06:10.73	339.71	17.02	-34.9	-36.1	29.5	3.03e+01	59	34	0	333971456	44	6160
2026-01-07 02:06:14.76	339.71	16.52	-34.8	-36.0	29.6	3.03e+01	52	34	0	341311488	44	6116
2026-01-07 02:06:18.80	339.72	16.02	-34.9	-36.1	29.6	3.03e+01	59	34	0	349175808	44	6161
2026-01-07 02:06:22.84	339.72	15.53	-34.8	-36.0	29.6	3.03e+01	47	34	0	356515840	44	6104
2026-01-07 02:06:26.87	339.72	15.05	-34.9	-36.1	29.5	3.03e+01	58	34	0	364380160	44	6168
2026-01-07 02:06:30.91	339.73	14.59	-34.8	-36.0	29.5	3.03e+01	50	34	0	371720192	44	6127
2026-01-07 02:06:34.95	339.73	14.13	-34.7	-35.9	29.6	3.03e+01	59	35	0	379060224	44	6048
2026-01-07 02:06:38.98	339.73	13.68	-34.7	-36.0	29.6	3.03e+01	45	35	0	386924544	44	6065
2026-01-07 02:06:43.02	339.74	13.24	-34.6	-35.8	29.6	3.03e+01	52	34	0	394264576	44	5977
2026-01-07 02:06:47.05	339.75	12.81	-34.8	-35.9	29.5	3.03e+01	49	34	0	402128896	44	6060
2026-01-07 02:06:51.09	339.75	12.39	-34.7	-35.9	29.6	3.03e+01	59	34	0	409468928	44	6018
2026-01-07 02:06:55.13	339.76	11.98	-34.8	-36.0	29.4	3.03e+01	62	34	0	417333248	44	6094
2026-01-07 02:06:59.17	339.76	11.57	-34.8	-36.0	29.5	3.03e+01	60	34	0	424673280	44	6115
2026-01-07 02:07:03.21	339.77	11.17	-35.1	-36.3	29.2	3.03e+01	58	34	0	432013312	44	6298
2026-01-07 02:07:07.24	339.78	10.78	-35.1	-36.3	29.2	3.03e+01	61	34	0	439877632	44	6333
2026-01-07 02:07:11.28	339.78	10.40	-35.1	-36.3	29.2	3.03e+01	60	34	0	447217664	44	6339
2026-01-07 02:07:15.32	339.79	10.02	-35.3	-36.6	28.9	3.03e+01	59	34	0	455081984	44	6508
2026-01-07 02:07:19.36	339.80	9.65	-35.4	-36.7	28.8	3.03e+01	56	34	0	462422016	44	6584
2026-01-07 02:07:23.40	339.81	9.28	-35.6	-36.8	28.7	3.03e+01	59	34	0	470286336	44	6717
2026-01-07 02:07:27.43	339.82	8.92	-35.5	-36.7	28.7	3.03e+01	56	34	0	477626368	44	6647
2026-01-07 02:07:31.47	339.82	8.57	-35.7	-36.9	28.5	3.03e+01	59	34	0	485490688	44	6800
2026-01-07 02:07:35.51	339.83	8.22	-35.8	-37.0	28.4	3.03e+01	60	34	0	492830720	44	6883
2026-01-07 02:07:39.55	339.84	7.87	-36.0	-37.2	28.3	3.03e+01	58	34	0	500170752	46	6250
2026-01-07 02:07:43.58	339.85	7.54	-36.1	-37.4	28.1	3.03e+01	51	34	0	508035072	46	6385
2026-01-07 02:07:47.62	339.86	7.20	-36.3	-37.6	27.8	3.03e+01	61	34	0	515375104	46	6566
2026-01-07 02:07:51.66	339.87	6.87	-36.5	-37.8	27.7	3.03e+01	60	34	0	523239424	46	6724
2026-01-07 02:07:55.69	339.88	6.55	-36.5	-37.9	27.6	3.03e+01	60	34	0	530579456	46	6737
2026-01-07 02:07:59.73	339.89	6.23	-36.5	-37.8	27.6	3.03e+01	58	34	0	538443776	46	6684
2026-01-07 02:08:03.77	339.90	5.92	-36.7	-38.0	27.1	3.03e+01	50	34	0	545783808	46	6873
2026-01-07 02:08:07.81	339.91	5.60	-37.4	-38.8	26.1	3.03e+01	60	34	0	553648128	48	6725
2026-01-07 02:08:11.85	339.92	5.30	-38.9	-40.7	23.7	3.03e+01	46	34	0	560988160	50	7383
2026-01-07 02:08:15.89	339.93	4.99	-40.5	-42.8	20.9	3.03e+01	58	34	0	568328192	54	7518
2026-01-07 02:08:19.93	339.94	4.70	-42.6	-46.4	16.4	3.03e+01	51	35	0	576192512	58	9028
2026-01-07 02:08:23.96	339.95	4.40	-44.0	-50.8	11.4	3.03e+01	59	34	0	583532544	60	13281
2026-01-07 02:08:28.00	339.97	4.11	-44.4	-54.9	6.1	3.03e+01	92	34	0	591396864	60	21503
2026-01-07 02:08:32.03	339.98	3.82	-44.5	-59.5	4.0	3.03e+01	0	35	104	591921152	60	36191
2026-01-07 02:08:36.07	339.99	3.54	-44.6	-62.5	3.5	3.03e+01	0	35	104	591921152	60	51178
2026-01-07 02:08:40.10	340.00	3.25	-44.7	-62.2	3.5	3.03e+01	0	35	104	591921152	60	49440
2026-01-07 02:08:44.14	340.01	2.98	-46.0	-63.9	3.5	3.03e+01	0	34	104	591921152	60	60254
2026-01-07 02:08:48.18	340.02	2.70	-49.2	-67.1	3.5	3.03e+01	0	34	104	591921152	60	87628
2026-01-07 02:08:52.23	340.04	2.43	-49.2	-67.3	3.5	3.03e+01	0	35	104	591921152	60	89033
2026-01-07 02:08:56.27	340.05	2.16	-49.2	-67.2	3.5	3.03e+01	0	35	104	591921152	60	87659
2026-01-07 02:09:00.31	340.06	1.89	-49.3	-67.2	3.5	3.03e+01	0	34	104	591921152	60	88269
2026-01-07 02:09:04.35	340.07	1.62	-49.3	-67.2	3.5	3.03e+01	0	35	104	591921152	60	88225
2026-01-07 02:09:08.38	340.08	1.36	-49.3	-67.2	3.5	3.03e+01	0	35	104	591921152	60	88252
2026-01-07 02:09:12.42	340.10	1.10	-49.3	-67.2	3.5	3.03e+01	0	35	104	591921152	60	88542
2026-01-07 02:09:16.46	340.11	0.85	-49.2	-67.2	3.5	3.03e+01	0	35	104	591921152	60	88306
2026-01-07 02:09:20.50	340.12	0.59	-49.2	-67.2	3.5	3.03e+01	0	35	104	591921152	60	88565
2026-01-07 02:09:24.54	340.14	0.34	-49.2	-67.2	3.5	3.03e+01	0	35	104	591921152	60	87888
2026-01-07 02:09:28.57	340.15	0.09	-49.2	-67.2	3.5	3.03e+01	0	35	104	591921152	60	87945

#Closed at: 2026-01-07 02:09:31
#Recorded file [591 MB]: D:/lorett/data/35029_260107_135536.dat