passes_logs/2026/01/07/R4.6S_Anadyr/R4.6S_Anadyr__20260107_000817_SUOMI_NPP_rec.log

#Pass ID: 20260107_000817_SUOMI NPP
#Satellite: SUOMI NPP
#Configuration: NPP
#almurnet v.1.7.20251203
#Start time: 2026-01-07 00:08:20

#Version: 2.2.20231116
#Station: R4.6S_Anadyr
#Location: 177.4865 lon 64.73178 lat
#TLE: 1 37849U 11061A   26004.95404768  .00000136  00000+0  85334-4 0  9991
#TLE: 2 37849  98.7801 307.0898 0002575  80.6707 279.4760 14.19522289735281

#Time	Az	El	Level	Level2	SNR	BER	BlckErr	Temp	State	Recorded	gain1	gain2
2026-01-07 00:08:20.51	152.52	0.21	-49.0	-62.8	3.3	1.54e+00	0	33	0	0	60	49872
2026-01-07 00:08:24.55	152.51	0.46	-49.2	-64.4	3.6	1.51e+00	0	33	104	0	60	59707
2026-01-07 00:08:28.59	152.51	0.71	-48.8	-64.0	3.6	1.51e+00	0	33	104	0	60	57344
2026-01-07 00:08:32.63	152.51	0.95	-47.8	-63.0	3.6	1.51e+00	0	33	104	0	60	50931
2026-01-07 00:08:36.67	152.50	1.21	-47.6	-62.7	3.6	1.51e+00	0	33	104	0	60	49566
2026-01-07 00:08:40.71	152.50	1.46	-47.6	-62.7	3.6	1.51e+00	0	33	104	0	60	49318
2026-01-07 00:08:44.75	152.49	1.72	-47.6	-62.6	3.6	1.51e+00	0	33	104	0	60	48865
2026-01-07 00:08:48.79	152.49	1.97	-47.6	-62.7	3.6	1.51e+00	0	34	104	0	60	49354
2026-01-07 00:08:52.82	152.48	2.23	-47.6	-62.7	3.6	1.51e+00	0	33	104	0	60	49455
2026-01-07 00:08:56.86	152.48	2.50	-47.6	-62.6	3.6	1.51e+00	0	34	104	0	60	48508
2026-01-07 00:09:00.90	152.47	2.76	-47.6	-62.5	3.6	1.51e+00	0	34	104	0	60	48094
2026-01-07 00:09:04.94	152.47	3.03	-47.5	-60.9	3.6	1.51e+00	0	34	104	0	60	39916
2026-01-07 00:09:08.98	152.46	3.30	-46.4	-52.3	8.9	4.99e-02	0	34	0	5242880	60	14824
2026-01-07 00:09:13.01	152.45	3.57	-45.2	-49.2	12.4	2.31e-04	90	34	0	11534336	60	10387
2026-01-07 00:09:17.05	152.45	3.85	-47.5	-58.3	4.6	1.51e+00	49	34	104	16777216	60	29686
2026-01-07 00:09:21.09	152.44	4.13	-43.9	-46.7	15.1	3.69e-01	0	34	0	16777216	60	7841
2026-01-07 00:09:25.12	152.43	4.41	-42.3	-44.2	17.4	0.00e+00	22	34	0	24117248	58	6569
2026-01-07 00:09:29.16	152.42	4.70	-42.3	-44.3	17.4	0.00e+00	92	34	0	31457280	58	6638
2026-01-07 00:09:33.20	152.41	4.98	-41.8	-43.6	18.2	0.00e+00	92	34	0	39845888	58	6130
2026-01-07 00:09:37.24	152.41	5.27	-42.1	-43.9	18.0	0.00e+00	0	34	0	47185920	58	6331
2026-01-07 00:09:41.27	152.40	5.57	-41.8	-43.6	18.2	0.00e+00	26	34	0	54525952	56	6868
2026-01-07 00:09:45.31	152.39	5.87	-41.8	-43.5	18.3	0.00e+00	90	34	0	61865984	56	6827
2026-01-07 00:09:49.35	152.38	6.17	-41.7	-43.4	18.6	0.00e+00	90	34	0	70254592	56	6709
2026-01-07 00:09:53.39	152.37	6.47	-41.6	-43.2	18.8	0.00e+00	0	34	0	77594624	56	6596
2026-01-07 00:09:57.42	152.35	6.78	-41.6	-43.2	18.8	0.00e+00	90	34	0	84934656	56	6547
2026-01-07 00:10:01.46	152.34	7.09	-41.3	-42.9	19.1	0.00e+00	92	34	0	92274688	56	6335
2026-01-07 00:10:05.50	152.33	7.41	-41.2	-42.6	19.3	0.00e+00	0	34	0	99614720	56	6171
2026-01-07 00:10:09.54	152.32	7.73	-41.0	-42.4	19.6	0.00e+00	0	34	0	108003328	56	6007
2026-01-07 00:10:13.57	152.30	8.05	-40.7	-42.1	19.7	0.00e+00	92	34	0	115343360	54	6524
2026-01-07 00:10:17.61	152.29	8.38	-40.7	-42.1	20.0	0.00e+00	92	34	0	122683392	54	6475
2026-01-07 00:10:21.65	152.28	8.71	-40.6	-41.9	20.1	0.00e+00	0	34	0	130023424	54	6376
2026-01-07 00:10:25.69	152.26	9.05	-40.5	-41.8	20.2	0.00e+00	24	34	0	138412032	54	6280
2026-01-07 00:10:29.73	152.24	9.39	-40.5	-41.8	20.3	0.00e+00	92	34	0	145752064	54	6284
2026-01-07 00:10:33.76	152.23	9.74	-40.3	-41.5	20.5	0.00e+00	91	34	0	153092096	54	6093
2026-01-07 00:10:37.80	152.21	10.09	-40.0	-41.2	20.9	0.00e+00	0	34	0	160432128	54	5863
2026-01-07 00:10:41.84	152.19	10.44	-40.0	-41.2	20.8	0.00e+00	26	34	0	167772160	52	6577
2026-01-07 00:10:45.88	152.17	10.81	-40.4	-41.6	20.6	0.00e+00	69	34	0	176160768	52	6915
2026-01-07 00:10:49.91	152.15	11.17	-40.1	-41.3	20.9	0.00e+00	0	34	0	183500800	52	6648
2026-01-07 00:10:53.95	152.13	11.54	-39.2	-40.3	21.7	0.00e+00	0	34	0	190840832	52	5936
2026-01-07 00:10:57.99	152.11	11.92	-39.3	-40.4	21.7	0.00e+00	92	34	0	198180864	52	5973
2026-01-07 00:11:02.02	152.09	12.31	-39.4	-40.5	21.5	0.00e+00	82	34	0	206569472	52	6094
2026-01-07 00:11:06.06	152.07	12.70	-39.1	-40.2	21.9	0.00e+00	0	34	0	213909504	52	5840
2026-01-07 00:11:10.10	152.04	13.09	-38.7	-39.7	22.3	0.00e+00	0	34	0	221249536	50	6217
2026-01-07 00:11:14.14	152.02	13.50	-38.6	-39.7	22.3	0.00e+00	92	34	0	228589568	50	6183
2026-01-07 00:11:18.17	151.99	13.91	-38.5	-39.5	22.4	0.00e+00	91	34	0	235929600	50	6100
2026-01-07 00:11:22.21	151.97	14.32	-38.6	-39.6	22.5	0.00e+00	6	34	0	244318208	50	6110
2026-01-07 00:11:26.25	151.94	14.75	-38.1	-39.1	22.9	0.00e+00	69	34	0	251658240	50	5771
2026-01-07 00:11:30.28	151.91	15.18	-37.8	-38.7	23.1	0.00e+00	91	34	0	258998272	50	5560
2026-01-07 00:11:34.33	151.88	15.62	-37.6	-38.4	23.3	0.00e+00	92	34	0	266338304	48	6024
2026-01-07 00:11:38.36	151.84	16.07	-37.6	-38.5	23.1	0.00e+00	0	34	0	274726912	48	6059
2026-01-07 00:11:42.40	151.81	16.52	-37.5	-38.4	23.4	0.00e+00	91	34	0	282066944	48	6014
2026-01-07 00:11:46.44	151.78	16.99	-37.3	-38.2	23.6	0.00e+00	91	34	0	289406976	48	5842
2026-01-07 00:11:50.47	151.74	17.46	-37.4	-38.3	23.4	0.00e+00	0	34	0	296747008	48	5933
2026-01-07 00:11:54.51	151.70	17.94	-37.7	-38.7	23.3	0.00e+00	0	34	0	304087040	48	6176
2026-01-07 00:11:58.55	151.66	18.44	-37.3	-38.1	23.7	0.00e+00	92	34	0	312475648	48	5821
2026-01-07 00:12:02.59	151.62	18.94	-37.1	-38.0	23.9	0.00e+00	91	34	0	319815680	48	5697
2026-01-07 00:12:06.62	151.58	19.45	-37.1	-38.0	23.8	0.00e+00	0	34	0	327155712	48	5702
2026-01-07 00:12:10.66	151.53	19.98	-37.3	-38.2	23.6	0.00e+00	0	34	0	334495744	48	5863
2026-01-07 00:12:14.70	151.48	20.51	-37.5	-38.5	23.5	0.00e+00	47	34	0	342884352	48	6036
2026-01-07 00:12:18.73	151.43	21.06	-37.7	-38.6	23.4	0.00e+00	92	34	0	350224384	48	6144
2026-01-07 00:12:22.77	151.38	21.62	-37.7	-38.7	23.3	0.00e+00	0	34	0	357564416	48	6185
2026-01-07 00:12:26.81	151.33	22.19	-37.8	-38.7	23.3	0.00e+00	92	34	0	364904448	48	6240
2026-01-07 00:12:30.85	151.27	22.77	-37.8	-38.7	23.2	0.00e+00	76	34	0	372244480	48	6225
2026-01-07 00:12:34.88	151.21	23.37	-37.4	-38.3	23.6	0.00e+00	71	34	0	380633088	48	5941
2026-01-07 00:12:38.92	151.15	23.98	-37.3	-38.2	23.8	0.00e+00	0	34	0	387973120	48	5849
2026-01-07 00:12:42.96	151.08	24.61	-37.4	-38.3	23.6	0.00e+00	92	34	0	395313152	48	5899
2026-01-07 00:12:46.99	151.02	25.25	-37.5	-38.4	23.6	0.00e+00	92	34	0	402653184	48	5971
2026-01-07 00:12:51.03	150.94	25.91	-37.8	-38.7	23.4	0.00e+00	0	34	0	411041792	48	6223
2026-01-07 00:12:55.07	150.87	26.58	-37.3	-38.2	23.8	0.00e+00	0	34	0	418381824	48	5840
2026-01-07 00:12:59.11	150.79	27.28	-38.2	-39.2	23.1	0.00e+00	90	34	0	425721856	48	6548
2026-01-07 00:13:03.15	150.70	27.99	-38.3	-39.2	22.9	0.00e+00	91	34	0	433061888	48	6584
2026-01-07 00:13:07.19	150.61	28.72	-38.0	-39.0	23.1	0.00e+00	0	34	0	440401920	48	6393
2026-01-07 00:13:11.23	150.52	29.46	-38.7	-39.6	22.7	0.00e+00	91	34	0	448790528	50	6171
2026-01-07 00:13:15.26	150.42	30.23	-39.1	-40.1	22.2	0.00e+00	91	34	0	456130560	50	6514
2026-01-07 00:13:19.31	150.32	31.02	-39.4	-40.4	22.1	0.00e+00	92	34	0	463470592	50	6743
2026-01-07 00:13:23.35	150.21	31.83	-41.0	-42.3	20.4	0.00e+00	0	34	0	470810624	54	6665
2026-01-07 00:13:27.39	150.09	32.67	-41.1	-42.4	20.3	0.00e+00	91	34	0	479199232	54	6741
2026-01-07 00:13:31.43	149.97	33.52	-40.9	-42.2	20.6	0.00e+00	91	34	0	486539264	54	6557
2026-01-07 00:13:35.47	149.84	34.41	-40.1	-41.3	21.4	0.00e+00	91	34	0	493879296	54	5901
2026-01-07 00:13:39.51	149.70	35.31	-38.4	-39.3	22.9	0.00e+00	0	34	0	501219328	50	5940
2026-01-07 00:13:43.54	149.55	36.25	-37.0	-37.8	24.1	0.00e+00	92	34	0	508559360	48	5618
2026-01-07 00:13:47.57	149.40	37.21	-36.3	-37.1	24.6	0.00e+00	92	34	0	516947968	46	5804
2026-01-07 00:13:51.61	149.23	38.20	-36.7	-37.5	24.5	0.00e+00	31	34	0	524288000	46	6075
2026-01-07 00:13:55.65	149.05	39.22	-37.9	-38.8	23.3	0.00e+00	0	34	0	531628032	48	6296
2026-01-07 00:13:59.68	148.86	40.26	-37.7	-38.6	23.4	0.00e+00	92	34	0	538968064	48	6156
2026-01-07 00:14:03.72	148.65	41.34	-38.5	-39.5	22.9	0.00e+00	92	34	0	546308096	48	6815
2026-01-07 00:14:07.76	148.43	42.46	-38.1	-38.9	23.2	0.00e+00	0	34	0	554696704	48	6382
2026-01-07 00:14:11.80	148.19	43.61	-39.3	-40.3	22.5	0.00e+00	90	34	0	562036736	50	6670
2026-01-07 00:14:15.83	147.93	44.79	-38.5	-39.4	22.9	0.00e+00	92	34	0	569376768	50	6015
2026-01-07 00:14:19.87	147.66	46.00	-38.3	-39.3	22.9	0.00e+00	92	34	0	576716800	48	6622
2026-01-07 00:14:23.91	147.35	47.26	-40.5	-41.6	21.0	0.00e+00	0	34	0	585105408	52	6920
2026-01-07 00:14:27.95	147.02	48.55	-39.7	-40.8	21.7	0.00e+00	92	34	0	592445440	52	6254
2026-01-07 00:14:31.98	146.66	49.88	-39.1	-40.1	22.4	0.00e+00	92	34	0	599785472	52	5776
2026-01-07 00:14:36.02	146.27	51.25	-37.9	-38.9	23.3	0.00e+00	0	34	0	607125504	48	6328
2026-01-07 00:14:40.06	145.83	52.65	-37.0	-37.9	24.0	0.00e+00	0	34	0	614465536	46	6327
2026-01-07 00:14:44.10	145.35	54.10	-38.3	-39.3	23.0	0.00e+00	80	34	0	622854144	50	5919
2026-01-07 00:14:48.13	144.82	55.58	-37.6	-38.5	23.6	0.00e+00	90	34	0	630194176	48	6044
2026-01-07 00:14:52.17	144.23	57.11	-38.2	-39.1	23.1	0.00e+00	0	34	0	637534208	48	6469
2026-01-07 00:14:56.20	143.56	58.67	-40.3	-41.4	21.3	0.00e+00	2	34	0	644874240	52	6733
2026-01-07 00:15:00.25	142.81	60.27	-38.1	-39.0	23.4	0.00e+00	90	34	0	653262848	50	5707
2026-01-07 00:15:04.28	141.95	61.90	-37.1	-37.9	24.0	0.00e+00	92	34	0	660602880	48	5685
2026-01-07 00:15:08.32	140.97	63.58	-37.9	-38.9	23.4	0.00e+00	0	34	0	667942912	48	6353
2026-01-07 00:15:12.36	139.83	65.28	-38.5	-39.5	22.8	0.00e+00	92	34	0	675282944	48	6793
2026-01-07 00:15:16.39	138.50	67.00	-38.5	-39.5	23.0	0.00e+00	90	34	0	682622976	52	5395
2026-01-07 00:15:20.43	136.93	68.75	-39.8	-40.9	21.8	0.00e+00	0	34	0	691011584	52	6373
2026-01-07 00:15:24.47	135.05	70.52	-40.8	-42.1	20.5	0.00e+00	0	34	0	698351616	52	7267
2026-01-07 00:15:28.51	132.76	72.30	-35.9	-36.7	25.0	0.00e+00	83	34	0	705691648	46	5512
2026-01-07 00:15:32.54	129.93	74.06	-36.0	-36.7	24.6	0.00e+00	91	34	0	713031680	44	6236
2026-01-07 00:15:36.58	126.36	75.81	-38.9	-39.9	22.5	0.00e+00	0	34	0	721420288	48	7110
2026-01-07 00:15:40.62	121.76	77.51	-40.5	-41.7	21.1	0.00e+00	34	34	0	728760320	54	6184
2026-01-07 00:15:44.65	115.72	79.12	-38.7	-39.6	22.7	0.00e+00	30	34	0	736100352	50	6129
2026-01-07 00:15:48.69	107.62	80.58	-37.7	-38.6	23.6	0.00e+00	90	34	0	743440384	48	6153
2026-01-07 00:15:52.73	96.79	81.81	-37.5	-38.4	23.7	0.00e+00	0	34	0	750780416	48	5980
2026-01-07 00:15:56.77	82.82	82.65	-39.4	-40.5	21.8	0.00e+00	92	34	0	759169024	52	6039
2026-01-07 00:16:00.80	66.47	82.98	-37.7	-38.6	23.8	0.00e+00	90	34	0	766509056	50	5475
2026-01-07 00:16:04.83	50.00	82.71	-36.3	-37.0	24.8	0.00e+00	0	34	0	773849088	46	5745
2026-01-07 00:16:08.87	35.75	81.90	-38.3	-39.2	23.0	0.00e+00	0	34	0	781189120	50	5871
2026-01-07 00:16:12.91	24.64	80.71	-41.3	-42.7	19.9	0.00e+00	92	34	0	788529152	54	6935
2026-01-07 00:16:16.95	16.33	79.26	-41.8	-43.2	19.2	0.00e+00	92	34	0	796917760	56	6594
2026-01-07 00:16:20.99	10.12	77.66	-38.4	-39.4	22.9	0.00e+00	1	34	0	804257792	50	5973
2026-01-07 00:16:25.03	5.41	75.97	-39.3	-40.4	22.0	0.00e+00	0	34	0	811597824	50	6705
2026-01-07 00:16:29.07	1.76	74.23	-37.4	-38.2	23.9	0.00e+00	92	34	0	818937856	48	5873
2026-01-07 00:16:33.10	358.87	72.47	-40.9	-42.3	20.3	0.00e+00	92	34	0	827326464	52	7454
2026-01-07 00:16:37.14	356.54	70.69	-38.6	-39.6	22.7	0.00e+00	0	34	0	834666496	50	6119
2026-01-07 00:16:41.18	354.63	68.93	-39.5	-40.6	22.1	0.00e+00	46	34	0	842006528	54	5451
2026-01-07 00:16:45.21	353.04	67.18	-37.0	-37.8	24.0	0.00e+00	90	34	0	849346560	46	6315
2026-01-07 00:16:49.25	351.69	65.45	-35.0	-35.8	25.2	0.00e+00	0	34	0	856686592	44	5571
2026-01-07 00:16:53.29	350.53	63.75	-37.1	-38.0	24.0	0.00e+00	0	34	0	865075200	48	5743
2026-01-07 00:16:57.33	349.54	62.08	-38.0	-39.0	23.1	0.00e+00	82	34	0	872415232	50	5703
2026-01-07 00:17:01.36	348.67	60.45	-37.5	-38.4	23.7	0.00e+00	83	34	0	879755264	48	5996
2026-01-07 00:17:05.39	347.91	58.86	-37.6	-38.5	23.7	0.00e+00	0	34	0	887095296	48	6044
2026-01-07 00:17:09.43	347.24	57.29	-36.4	-37.3	24.2	0.00e+00	0	34	0	895483904	44	6655
2026-01-07 00:17:13.47	346.64	55.77	-36.4	-37.2	24.5	0.00e+00	55	34	0	902823936	46	5891
2026-01-07 00:17:17.50	346.10	54.29	-38.6	-39.6	22.8	0.00e+00	92	34	0	910163968	50	6160
2026-01-07 00:17:21.54	345.62	52.84	-36.6	-37.5	24.5	0.00e+00	0	34	0	917504000	48	5380
2026-01-07 00:17:25.57	345.18	51.44	-38.9	-39.9	22.6	0.00e+00	0	34	0	924844032	50	6331
2026-01-07 00:17:29.61	344.79	50.07	-39.7	-40.9	21.8	0.00e+00	92	34	0	933232640	52	6327
2026-01-07 00:17:33.65	344.42	48.74	-39.6	-40.7	21.8	0.00e+00	0	34	0	940572672	50	6948
2026-01-07 00:17:37.68	344.09	47.45	-39.2	-40.3	22.1	0.00e+00	0	34	0	947912704	52	5936
2026-01-07 00:17:41.72	343.79	46.19	-39.6	-40.7	21.9	0.00e+00	92	34	0	955252736	52	6223
2026-01-07 00:17:45.76	343.51	44.98	-40.7	-42.0	20.9	0.00e+00	77	34	0	962592768	54	6404
2026-01-07 00:17:49.79	343.25	43.80	-41.3	-42.7	20.2	0.00e+00	0	34	0	970981376	54	6943
2026-01-07 00:17:53.83	343.01	42.65	-39.5	-40.5	22.1	0.00e+00	0	34	0	978321408	52	6048
2026-01-07 00:17:57.87	342.79	41.53	-41.7	-43.2	19.9	0.00e+00	67	34	0	985661440	56	6612
2026-01-07 00:18:01.90	342.58	40.46	-38.7	-39.8	22.6	0.00e+00	60	34	0	993001472	50	6266
2026-01-07 00:18:05.93	342.39	39.41	-40.8	-42.1	20.6	0.00e+00	0	34	0	1001390080	54	6467
2026-01-07 00:18:09.97	342.21	38.39	-39.9	-41.0	21.7	0.00e+00	0	34	0	1008730112	54	5748
2026-01-07 00:18:14.01	342.05	37.40	-40.7	-42.0	20.7	0.00e+00	4	34	0	1016070144	54	6422
2026-01-07 00:18:18.04	341.89	36.44	-42.0	-43.6	19.5	0.00e+00	0	34	0	1023410176	56	6856
2026-01-07 00:18:22.08	341.74	35.51	-38.4	-39.3	23.1	0.00e+00	0	34	0	1030750208	50	5943
2026-01-07 00:18:26.11	341.60	34.60	-40.7	-41.9	20.8	0.00e+00	31	34	0	1039138816	52	7160
2026-01-07 00:18:30.15	341.47	33.72	-43.8	-45.9	17.2	0.00e+00	92	34	0	1046478848	58	7995
2026-01-07 00:18:34.19	341.35	32.86	-40.1	-41.3	21.3	0.00e+00	0	34	0	1053818880	54	5936
2026-01-07 00:18:38.23	341.23	32.03	-40.3	-41.5	20.9	0.00e+00	0	34	0	1061158912	54	6078
2026-01-07 00:18:42.26	341.13	31.22	-40.3	-41.5	21.0	0.00e+00	30	34	0	1069547520	54	6069
2026-01-07 00:18:46.30	341.02	30.43	-39.5	-40.7	21.7	0.00e+00	0	34	0	1076887552	52	6184
2026-01-07 00:18:50.34	340.93	29.66	-40.9	-42.3	20.3	0.00e+00	0	34	0	1084227584	54	6624
2026-01-07 00:18:54.38	340.83	28.91	-42.0	-43.6	19.2	0.00e+00	0	34	0	1091567616	56	6887
2026-01-07 00:18:58.42	340.75	28.18	-39.6	-40.8	21.6	0.00e+00	65	34	0	1098907648	52	6262
2026-01-07 00:19:02.45	340.66	27.47	-38.2	-39.1	23.1	0.00e+00	0	34	0	1107296256	50	5819
2026-01-07 00:19:06.49	340.59	26.78	-38.7	-39.7	22.6	0.00e+00	0	34	0	1114636288	50	6208
2026-01-07 00:19:10.53	340.51	26.11	-39.0	-40.0	22.2	0.00e+00	41	34	0	1121976320	50	6446
2026-01-07 00:19:14.56	340.44	25.45	-37.8	-38.8	23.1	0.00e+00	76	34	0	1129316352	50	5570
2026-01-07 00:19:18.59	340.37	24.81	-37.6	-38.6	23.4	0.00e+00	0	34	0	1137704960	48	6106
2026-01-07 00:19:22.63	340.31	24.18	-37.1	-38.0	23.7	0.00e+00	0	34	0	1145044992	46	6406
2026-01-07 00:19:26.66	340.25	23.57	-37.0	-37.9	23.8	0.00e+00	24	34	0	1152385024	46	6388
2026-01-07 00:19:30.70	340.19	22.97	-37.9	-38.9	23.0	0.00e+00	0	34	0	1159725056	48	6322
2026-01-07 00:19:34.74	340.13	22.38	-38.7	-39.7	22.4	0.00e+00	0	34	0	1167065088	50	6231
2026-01-07 00:19:38.78	340.08	21.81	-38.6	-39.6	22.5	0.00e+00	0	34	0	1175453696	50	6148
2026-01-07 00:19:42.81	340.03	21.26	-38.3	-39.2	22.9	0.00e+00	92	34	0	1182793728	50	5890
2026-01-07 00:19:46.85	339.98	20.71	-38.6	-39.6	22.6	0.00e+00	0	34	0	1190133760	50	6150
2026-01-07 00:19:50.89	339.94	20.17	-38.6	-39.6	22.5	0.00e+00	0	34	0	1197473792	50	6149
2026-01-07 00:19:54.93	339.90	19.65	-39.0	-40.1	22.0	0.00e+00	0	34	0	1204813824	50	6530
2026-01-07 00:19:58.96	339.85	19.14	-38.7	-39.7	22.4	0.00e+00	54	34	0	1213202432	50	6203
2026-01-07 00:20:03.00	339.81	18.63	-38.4	-39.4	22.6	0.00e+00	0	34	0	1220542464	50	6024
2026-01-07 00:20:07.04	339.78	18.14	-38.6	-39.6	22.4	0.00e+00	0	34	0	1227882496	50	6156
2026-01-07 00:20:11.07	339.74	17.66	-38.3	-39.4	22.5	0.00e+00	21	34	0	1235222528	50	5992
2026-01-07 00:20:15.11	339.71	17.18	-38.1	-39.1	22.5	0.00e+00	13	34	0	1243611136	50	5811
2026-01-07 00:20:19.15	339.67	16.72	-37.8	-38.7	22.9	0.00e+00	0	34	0	1250951168	48	6244
2026-01-07 00:20:23.19	339.64	16.26	-37.6	-38.6	23.2	0.00e+00	0	34	0	1258291200	48	6140
2026-01-07 00:20:27.22	339.61	15.82	-37.8	-38.8	23.0	0.00e+00	25	34	0	1265631232	48	6247
2026-01-07 00:20:31.26	339.58	15.38	-38.0	-39.0	22.8	0.00e+00	0	34	0	1272971264	48	6438
2026-01-07 00:20:35.30	339.56	14.94	-38.9	-40.0	22.1	0.00e+00	0	34	0	1281359872	50	6410
2026-01-07 00:20:39.33	339.53	14.52	-39.3	-40.4	21.6	0.00e+00	0	34	0	1288699904	50	6728
2026-01-07 00:20:43.37	339.51	14.10	-40.3	-41.6	20.7	0.00e+00	52	34	0	1296039936	52	6854
2026-01-07 00:20:47.41	339.48	13.69	-40.3	-41.6	20.7	0.00e+00	0	34	0	1303379968	52	6890
2026-01-07 00:20:51.45	339.46	13.29	-40.1	-41.4	20.8	0.00e+00	0	34	0	1311768576	52	6723
2026-01-07 00:20:55.48	339.44	12.89	-40.0	-41.2	21.1	0.00e+00	0	34	0	1319108608	52	6566
2026-01-07 00:20:59.52	339.42	12.50	-39.6	-40.7	21.3	0.00e+00	80	34	0	1326448640	52	6224
2026-01-07 00:21:03.56	339.40	12.12	-39.4	-40.5	21.7	0.00e+00	0	34	0	1333788672	52	6083
2026-01-07 00:21:07.60	339.38	11.74	-39.3	-40.4	21.5	0.00e+00	0	34	0	1341128704	52	6033
2026-01-07 00:21:11.64	339.36	11.37	-39.0	-40.1	21.9	0.00e+00	21	34	0	1349517312	52	5780
2026-01-07 00:21:15.68	339.35	11.00	-39.3	-40.4	21.6	0.00e+00	0	34	0	1356857344	52	6005
2026-01-07 00:21:19.71	339.33	10.64	-39.2	-40.3	21.7	0.00e+00	0	34	0	1364197376	52	5931
2026-01-07 00:21:23.74	339.31	10.29	-39.4	-40.5	21.4	0.00e+00	0	34	0	1371537408	52	6084
2026-01-07 00:21:27.78	339.30	9.94	-39.3	-40.4	21.5	0.00e+00	92	34	0	1379926016	52	6012
2026-01-07 00:21:31.82	339.29	9.59	-39.4	-40.6	21.2	0.00e+00	0	34	0	1387266048	52	6144
2026-01-07 00:21:35.85	339.27	9.25	-39.7	-40.9	20.9	0.00e+00	0	34	0	1394606080	52	6389
2026-01-07 00:21:39.89	339.26	8.91	-39.3	-40.4	21.4	0.00e+00	0	34	0	1401946112	52	6029
2026-01-07 00:21:43.93	339.25	8.58	-39.7	-40.9	21.0	0.00e+00	92	34	0	1409286144	52	6339
2026-01-07 00:21:47.97	339.24	8.25	-39.5	-40.7	21.3	0.00e+00	0	34	0	1417674752	52	6221
2026-01-07 00:21:52.01	339.23	7.93	-39.7	-40.9	20.9	0.00e+00	0	34	0	1425014784	52	6371
2026-01-07 00:21:56.05	339.22	7.61	-39.3	-40.5	21.3	0.00e+00	65	34	0	1432354816	52	6046
2026-01-07 00:22:00.08	339.21	7.29	-39.2	-40.4	21.4	0.00e+00	0	34	0	1439694848	52	5975
2026-01-07 00:22:04.12	339.20	6.98	-39.2	-40.3	21.3	0.00e+00	18	34	0	1447034880	52	5961
2026-01-07 00:22:08.16	339.19	6.67	-39.2	-40.4	21.3	0.00e+00	0	34	0	1455423488	52	5985
2026-01-07 00:22:12.20	339.19	6.37	-39.3	-40.5	21.1	0.00e+00	88	34	0	1462763520	52	6075
2026-01-07 00:22:16.23	339.18	6.07	-39.3	-40.5	21.0	0.00e+00	0	34	0	1470103552	52	6062
2026-01-07 00:22:20.27	339.17	5.77	-39.2	-40.4	21.0	0.00e+00	0	34	0	1477443584	52	5975
2026-01-07 00:22:24.31	339.17	5.48	-39.7	-41.1	20.1	0.00e+00	0	34	0	1485832192	52	6481
2026-01-07 00:22:28.34	339.16	5.19	-40.7	-42.5	18.3	0.00e+00	80	34	0	1493172224	52	7622
2026-01-07 00:22:32.38	339.16	4.90	-42.0	-44.6	15.3	0.00e+00	0	34	0	1500512256	56	7704
2026-01-07 00:22:36.42	339.15	4.61	-43.1	-47.3	11.8	2.83e-04	0	34	0	1507852288	58	9412
2026-01-07 00:22:40.45	339.15	4.33	-43.8	-50.5	7.6	6.26e-02	0	34	0	1515192320	60	12099
2026-01-07 00:22:44.49	339.15	4.05	-44.1	-53.5	4.3	7.54e-01	87	34	0	1523580928	60	17038
2026-01-07 00:22:48.53	339.14	3.78	-44.1	-57.4	3.6	1.54e+00	0	34	104	1524629504	60	26764
2026-01-07 00:22:52.56	339.14	3.50	-44.1	-58.3	3.6	1.51e+00	0	34	104	1524629504	60	29650
2026-01-07 00:22:56.59	339.14	3.23	-44.1	-59.3	3.6	1.51e+00	0	34	104	1524629504	60	33217
2026-01-07 00:23:00.63	339.13	2.97	-44.4	-59.6	3.6	1.51e+00	0	34	104	1524629504	60	34368
2026-01-07 00:23:04.67	339.13	2.70	-49.0	-64.2	3.6	1.51e+00	0	34	104	1524629504	60	58450
2026-01-07 00:23:08.71	339.13	2.44	-49.2	-64.4	3.6	1.51e+00	0	34	104	1524629504	60	60289
2026-01-07 00:23:12.74	339.13	2.18	-49.0	-64.3	3.6	1.51e+00	0	35	104	1524629504	60	59393
2026-01-07 00:23:16.78	339.13	1.92	-49.1	-64.3	3.6	1.51e+00	0	35	104	1524629504	60	59315
2026-01-07 00:23:20.82	339.13	1.66	-49.1	-64.3	3.6	1.51e+00	0	35	104	1524629504	60	59279
2026-01-07 00:23:24.85	339.13	1.41	-49.1	-64.3	3.6	1.51e+00	0	35	104	1524629504	60	59066
2026-01-07 00:23:28.90	339.13	1.16	-49.1	-64.3	3.6	1.51e+00	0	34	104	1524629504	60	59075
2026-01-07 00:23:32.93	339.13	0.91	-49.1	-64.3	3.6	1.51e+00	0	35	104	1524629504	60	59053
2026-01-07 00:23:36.97	339.13	0.66	-49.1	-64.3	3.6	1.51e+00	0	34	104	1524629504	60	59373
2026-01-07 00:23:41.01	339.13	0.42	-49.0	-64.2	3.6	1.51e+00	0	35	104	1524629504	60	58781
2026-01-07 00:23:45.05	339.13	0.18	-49.1	-64.2	3.6	1.51e+00	0	35	104	1524629504	60	58893

#Closed at: 2026-01-07 00:23:48
#Recorded file [1524 MB]: D:/lorett/data/35029_260107_120820.dat