passes_logs/2026/01/07/R4.6S_Anadyr/R4.6S_Anadyr__20260107_153434_SUOMI_NPP_rec.log

#Pass ID: 20260107_153434_SUOMI NPP
#Satellite: SUOMI NPP
#Configuration: NPP
#almurnet v.1.7.20251203
#Start time: 2026-01-07 15:34:34

#Version: 2.2.20231116
#Station: R4.6S_Anadyr
#Location: 177.4865 lon 64.73178 lat
#TLE: 1 37849U 11061A   26004.95404768  .00000136  00000+0  85334-4 0  9991
#TLE: 2 37849  98.7801 307.0898 0002575  80.6707 279.4760 14.19522289735281

#Time	Az	El	Level	Level2	SNR	BER	BlckErr	Temp	State	Recorded	gain1	gain2
2026-01-07 15:34:34.85	22.54	0.04	-49.3	-61.7	3.4	1.52e+00	0	35	0	0	60	42810
2026-01-07 15:34:38.89	22.47	0.28	-49.3	-64.5	3.6	1.51e+00	0	37	104	0	60	60813
2026-01-07 15:34:42.93	22.40	0.52	-49.2	-64.5	3.6	1.51e+00	0	37	104	0	60	60577
2026-01-07 15:34:46.97	22.33	0.77	-48.9	-64.1	3.6	1.51e+00	0	37	104	0	60	57771
2026-01-07 15:34:51.01	22.26	1.01	-47.9	-63.1	3.6	1.51e+00	0	37	104	0	60	51580
2026-01-07 15:34:55.05	22.18	1.26	-47.9	-63.0	3.6	1.51e+00	0	37	104	0	60	51268
2026-01-07 15:34:59.08	22.11	1.51	-47.9	-62.9	3.6	1.51e+00	0	37	104	0	60	50705
2026-01-07 15:35:03.12	22.03	1.76	-47.9	-62.6	3.6	1.51e+00	0	37	104	0	60	48612
2026-01-07 15:35:07.16	21.95	2.01	-47.9	-62.9	3.6	1.51e+00	0	37	104	0	60	50446
2026-01-07 15:35:11.20	21.87	2.27	-47.9	-63.0	3.6	1.51e+00	0	37	104	0	60	50795
2026-01-07 15:35:15.24	21.79	2.53	-47.9	-62.2	3.6	1.51e+00	0	37	104	0	60	46560
2026-01-07 15:35:19.28	21.70	2.79	-47.8	-61.5	3.6	1.51e+00	0	37	104	0	60	43134
2026-01-07 15:35:23.32	21.62	3.05	-47.9	-62.2	3.6	1.51e+00	0	37	104	0	60	46514
2026-01-07 15:35:27.36	21.53	3.32	-46.9	-53.2	8.1	1.46e-01	0	37	0	3145728	60	16441
2026-01-07 15:35:31.37	21.44	3.58	-46.0	-50.4	11.4	2.55e-03	0	37	0	8388608	60	11980
2026-01-07 15:35:35.41	21.35	3.86	-47.7	-56.3	6.1	5.29e-01	0	37	0	16777216	60	23560
2026-01-07 15:35:39.44	21.25	4.13	-41.3	-42.8	18.1	1.21e-02	84	37	104	17825792	56	6285
2026-01-07 15:35:43.48	21.16	4.40	-40.0	-41.2	20.6	0.00e+00	0	37	0	24117248	54	5887
2026-01-07 15:35:47.52	21.06	4.68	-39.9	-41.1	20.8	0.00e+00	0	37	0	32505856	54	5828
2026-01-07 15:35:51.56	20.96	4.96	-40.0	-41.3	20.6	0.00e+00	0	37	0	39845888	52	6649
2026-01-07 15:35:55.60	20.86	5.25	-39.6	-40.7	21.2	0.00e+00	92	37	0	47185920	52	6241
2026-01-07 15:35:59.63	20.75	5.54	-39.2	-40.4	21.5	0.00e+00	0	37	0	54525952	52	5974
2026-01-07 15:36:03.67	20.64	5.83	-39.3	-40.4	21.4	0.00e+00	0	37	0	61865984	52	6027
2026-01-07 15:36:07.71	20.53	6.12	-39.4	-40.6	21.5	0.00e+00	0	37	0	70254592	52	6116
2026-01-07 15:36:11.75	20.42	6.42	-39.4	-40.5	21.5	0.00e+00	0	37	0	77594624	52	6094
2026-01-07 15:36:15.79	20.31	6.72	-39.2	-40.3	21.7	0.00e+00	0	37	0	84934656	52	5902
2026-01-07 15:36:19.83	20.19	7.02	-39.2	-40.3	21.7	0.00e+00	0	37	0	92274688	52	5949
2026-01-07 15:36:23.86	20.07	7.33	-39.0	-40.0	21.9	0.00e+00	65	37	0	100663296	52	5754
2026-01-07 15:36:27.90	19.94	7.64	-38.7	-39.8	22.3	0.00e+00	0	37	0	108003328	50	6256
2026-01-07 15:36:31.94	19.82	7.95	-38.4	-39.4	22.6	0.00e+00	0	37	0	115343360	50	6005
2026-01-07 15:36:35.98	19.69	8.27	-36.7	-39.6	18.6	1.52e-02	0	37	0	122683392	46	7728
2026-01-07 15:36:40.01	19.55	8.59	-36.1	-39.1	18.5	2.00e-02	85	37	0	130023424	46	7314
2026-01-07 15:36:44.05	19.42	8.92	-36.1	-39.0	17.4	2.47e-02	0	37	0	138412032	46	7248
2026-01-07 15:36:48.09	19.28	9.25	-37.9	-38.9	23.0	1.29e-02	0	38	0	145752064	48	6324
2026-01-07 15:36:52.13	19.13	9.58	-37.9	-38.9	23.1	0.00e+00	0	38	0	153092096	48	6324
2026-01-07 15:36:56.17	18.98	9.92	-37.5	-38.5	23.3	0.00e+00	82	38	0	160432128	48	6036
2026-01-07 15:37:00.21	18.83	10.27	-37.5	-38.4	23.1	0.00e+00	0	37	0	168820736	48	5985
2026-01-07 15:37:04.25	18.68	10.61	-37.4	-38.3	23.0	0.00e+00	0	38	0	176160768	48	5947
2026-01-07 15:37:08.29	18.52	10.97	-37.4	-38.3	23.6	0.00e+00	0	38	0	183500800	48	5900
2026-01-07 15:37:12.33	18.35	11.32	-37.5	-38.4	23.5	0.00e+00	0	38	0	190840832	48	6022
2026-01-07 15:37:16.37	18.18	11.69	-37.2	-38.0	23.8	0.00e+00	0	37	0	198180864	48	5749
2026-01-07 15:37:20.41	18.01	12.05	-37.3	-38.2	23.7	0.00e+00	0	37	0	206569472	48	5836
2026-01-07 15:37:24.45	17.83	12.43	-37.1	-38.0	23.8	0.00e+00	85	38	0	213909504	48	5731
2026-01-07 15:37:28.49	17.65	12.81	-37.3	-38.2	23.8	0.00e+00	0	38	0	221249536	48	5847
2026-01-07 15:37:32.53	17.46	13.19	-37.4	-38.2	23.7	0.00e+00	0	38	0	228589568	48	5894
2026-01-07 15:37:36.56	17.27	13.58	-37.1	-38.0	23.7	0.00e+00	0	38	0	236978176	48	5742
2026-01-07 15:37:40.61	17.07	13.98	-37.2	-38.1	23.8	0.00e+00	89	38	0	244318208	48	5807
2026-01-07 15:37:44.65	16.86	14.38	-37.4	-38.3	23.7	0.00e+00	0	38	0	251658240	48	5924
2026-01-07 15:37:48.68	16.65	14.79	-37.4	-38.3	23.7	0.00e+00	0	38	0	258998272	48	5900
2026-01-07 15:37:52.72	16.43	15.20	-37.3	-38.2	23.8	0.00e+00	0	38	0	266338304	48	5838
2026-01-07 15:37:56.76	16.21	15.62	-37.3	-38.2	23.8	0.00e+00	0	38	0	274726912	48	5840
2026-01-07 15:38:00.80	15.98	16.05	-37.2	-38.1	24.0	0.00e+00	0	38	0	282066944	48	5778
2026-01-07 15:38:04.84	15.74	16.49	-37.0	-37.8	24.0	0.00e+00	0	37	0	289406976	48	5623
2026-01-07 15:38:08.87	15.49	16.93	-37.1	-37.9	23.9	0.00e+00	81	38	0	296747008	48	5672
2026-01-07 15:38:12.91	15.24	17.38	-37.0	-37.8	24.2	0.00e+00	0	38	0	305135616	48	5630
2026-01-07 15:38:16.95	14.98	17.84	-36.9	-37.7	24.2	0.00e+00	0	38	0	312475648	48	5560
2026-01-07 15:38:20.99	14.71	18.31	-36.8	-37.7	24.4	0.00e+00	0	38	0	319815680	46	6177
2026-01-07 15:38:25.02	14.43	18.78	-36.8	-37.6	24.3	0.00e+00	87	38	0	327155712	46	6155
2026-01-07 15:38:29.06	14.14	19.27	-37.2	-38.0	24.1	0.00e+00	0	38	0	334495744	46	6459
2026-01-07 15:38:33.10	13.84	19.76	-37.4	-38.3	23.8	0.00e+00	0	38	0	342884352	46	6644
2026-01-07 15:38:37.14	13.53	20.26	-37.2	-38.0	24.0	0.00e+00	0	38	0	350224384	46	6448
2026-01-07 15:38:41.18	13.21	20.77	-37.3	-38.2	23.8	0.00e+00	0	38	0	357564416	46	6593
2026-01-07 15:38:45.21	12.88	21.29	-37.9	-38.8	23.6	0.00e+00	0	38	0	364904448	48	6268
2026-01-07 15:38:49.26	12.54	21.82	-37.4	-38.3	23.8	0.00e+00	0	38	0	373293056	48	5914
2026-01-07 15:38:53.30	12.18	22.36	-37.2	-38.1	24.0	0.00e+00	0	38	0	380633088	48	5772
2026-01-07 15:38:57.34	11.81	22.91	-37.4	-38.3	23.9	0.00e+00	0	38	0	387973120	48	5918
2026-01-07 15:39:01.38	11.43	23.47	-37.6	-38.4	23.9	0.00e+00	0	38	0	395313152	48	6014
2026-01-07 15:39:05.41	11.03	24.04	-38.4	-39.3	23.3	0.00e+00	33	38	0	402653184	48	6652
2026-01-07 15:39:09.45	10.62	24.63	-38.1	-39.0	23.4	0.00e+00	92	38	0	411041792	48	6404
2026-01-07 15:39:13.49	10.19	25.22	-38.6	-39.6	22.9	0.00e+00	0	38	0	418381824	50	6133
2026-01-07 15:39:17.53	9.74	25.83	-38.3	-39.3	22.8	0.00e+00	0	38	0	425721856	50	5904
2026-01-07 15:39:21.57	9.27	26.45	-39.3	-40.3	22.5	0.00e+00	0	38	0	433061888	50	6638
2026-01-07 15:39:25.60	8.79	27.08	-39.7	-40.8	22.0	0.00e+00	92	38	0	441450496	52	6284
2026-01-07 15:39:29.64	8.28	27.72	-39.3	-40.3	22.3	0.00e+00	0	38	0	448790528	52	5921
2026-01-07 15:39:33.67	7.76	28.37	-39.0	-40.0	22.6	0.00e+00	0	38	0	456130560	50	6435
2026-01-07 15:39:37.71	7.21	29.04	-40.2	-41.3	21.5	0.00e+00	0	38	0	463470592	52	6668
2026-01-07 15:39:41.75	6.64	29.72	-40.0	-41.2	21.8	0.00e+00	0	38	0	470810624	52	6540
2026-01-07 15:39:45.79	6.04	30.42	-39.2	-40.2	22.5	0.00e+00	0	38	0	479199232	52	5852
2026-01-07 15:39:49.83	5.41	31.13	-39.0	-40.0	22.6	0.00e+00	0	38	0	486539264	50	6425
2026-01-07 15:39:53.87	4.76	31.85	-38.8	-39.8	22.8	0.00e+00	76	38	0	493879296	50	6273
2026-01-07 15:39:57.91	4.07	32.58	-39.6	-40.7	22.1	0.00e+00	0	38	0	501219328	50	6956
2026-01-07 15:40:01.95	3.35	33.33	-40.4	-41.5	21.4	0.00e+00	0	38	0	509607936	52	6842
2026-01-07 15:40:05.99	2.60	34.10	-39.8	-40.8	22.0	0.00e+00	0	38	0	516947968	52	6316
2026-01-07 15:40:10.03	1.81	34.87	-40.8	-42.0	20.9	0.00e+00	92	38	0	524288000	54	6456
2026-01-07 15:40:14.07	0.98	35.66	-41.3	-42.6	20.3	0.00e+00	0	38	0	531628032	54	6882
2026-01-07 15:40:18.11	0.10	36.46	-43.4	-45.3	18.3	0.00e+00	0	38	0	538968064	58	7461
2026-01-07 15:40:22.15	359.19	37.27	-41.6	-43.0	20.2	0.00e+00	2	38	0	547356672	56	6411
2026-01-07 15:40:26.19	358.22	38.10	-40.2	-41.3	21.6	0.00e+00	0	38	0	554696704	54	5933
2026-01-07 15:40:30.22	357.21	38.93	-39.8	-40.9	22.0	0.00e+00	0	38	0	562036736	54	5644
2026-01-07 15:40:34.27	356.13	39.77	-41.1	-42.4	20.6	0.00e+00	0	38	0	569376768	54	6704
2026-01-07 15:40:38.31	355.00	40.63	-42.3	-43.8	19.4	0.00e+00	57	38	0	577765376	56	7027
2026-01-07 15:40:42.34	353.82	41.48	-44.0	-46.0	17.9	0.00e+00	0	38	0	585105408	60	7239
2026-01-07 15:40:46.38	352.56	42.35	-42.0	-43.5	19.6	0.00e+00	0	38	0	592445440	58	6063
2026-01-07 15:40:50.42	351.23	43.22	-40.8	-42.1	20.9	0.00e+00	0	38	0	599785472	54	6465
2026-01-07 15:40:54.48	349.82	44.09	-39.1	-40.0	22.6	0.00e+00	91	38	0	607125504	52	5754
2026-01-07 15:40:58.52	348.34	44.96	-41.0	-42.2	20.8	0.00e+00	0	38	0	615514112	54	6574
2026-01-07 15:41:02.55	346.78	45.83	-40.1	-41.2	21.7	0.00e+00	0	38	0	622854144	54	5863
2026-01-07 15:41:06.59	345.12	46.69	-39.0	-39.9	22.8	0.00e+00	78	38	0	630194176	52	5680
2026-01-07 15:41:10.62	343.38	47.53	-39.9	-40.9	22.0	0.00e+00	92	38	0	637534208	52	6343
2026-01-07 15:41:14.66	341.53	48.37	-39.9	-41.0	22.0	0.00e+00	0	38	0	645922816	52	6454
2026-01-07 15:41:18.70	339.58	49.18	-40.1	-41.2	21.8	0.00e+00	0	38	0	653262848	52	6611
2026-01-07 15:41:22.74	337.53	49.98	-39.4	-40.4	22.3	0.00e+00	20	38	0	660602880	52	6028
2026-01-07 15:41:26.78	335.37	50.74	-37.3	-38.1	24.1	0.00e+00	0	38	0	667942912	46	6539
2026-01-07 15:41:30.82	333.09	51.48	-36.7	-37.5	24.5	0.00e+00	0	38	0	675282944	46	6076
2026-01-07 15:41:34.85	330.71	52.17	-38.1	-39.1	23.5	0.00e+00	0	38	0	683671552	48	6471
2026-01-07 15:41:38.90	328.21	52.82	-38.2	-39.1	23.2	0.00e+00	72	38	0	691011584	50	5823
2026-01-07 15:41:42.93	325.61	53.41	-37.8	-38.7	23.6	0.00e+00	0	38	0	698351616	48	6231
2026-01-07 15:41:46.97	322.90	53.95	-36.8	-37.6	24.4	0.00e+00	0	38	0	705691648	46	6135
2026-01-07 15:41:51.01	320.09	54.43	-38.1	-39.0	23.3	0.00e+00	1	38	0	714080256	48	6460
2026-01-07 15:41:55.05	317.19	54.84	-37.3	-38.2	24.1	0.00e+00	92	38	0	721420288	46	6555
2026-01-07 15:41:59.09	314.21	55.18	-37.8	-38.8	23.6	0.00e+00	0	38	0	728760320	48	6259
2026-01-07 15:42:03.13	311.17	55.44	-35.4	-36.2	25.5	0.00e+00	0	38	0	736100352	44	5876
2026-01-07 15:42:07.17	308.08	55.62	-36.1	-37.0	24.8	0.00e+00	4	38	0	743440384	46	5707
2026-01-07 15:42:11.21	304.96	55.72	-34.7	-35.4	25.9	0.00e+00	0	38	0	751828992	42	5997
2026-01-07 15:42:15.24	301.84	55.74	-35.1	-35.9	25.5	0.00e+00	0	38	0	759169024	44	5659
2026-01-07 15:42:19.28	298.71	55.67	-35.7	-36.5	25.2	0.00e+00	0	38	0	766509056	42	6819
2026-01-07 15:42:23.32	295.61	55.52	-35.3	-36.0	25.5	0.00e+00	64	38	0	773849088	44	5728
2026-01-07 15:42:27.36	292.54	55.28	-35.8	-36.6	25.2	0.00e+00	0	38	0	782237696	44	6114
2026-01-07 15:42:31.40	289.54	54.97	-34.7	-35.5	25.7	0.00e+00	0	38	0	789577728	42	6054
2026-01-07 15:42:35.44	286.61	54.58	-34.5	-35.2	26.0	0.00e+00	0	38	0	796917760	42	5869
2026-01-07 15:42:39.48	283.77	54.13	-34.7	-35.4	25.8	0.00e+00	92	38	0	804257792	42	6023
2026-01-07 15:42:43.51	281.02	53.61	-35.4	-36.2	25.4	0.00e+00	0	38	0	811597824	44	5844
2026-01-07 15:42:47.55	278.38	53.03	-37.5	-38.4	24.0	0.00e+00	0	38	0	819986432	46	6746
2026-01-07 15:42:51.59	275.84	52.40	-37.6	-38.4	23.9	0.00e+00	1	38	0	827326464	48	5987
2026-01-07 15:42:55.63	273.41	51.72	-38.9	-39.9	23.0	0.00e+00	0	38	0	834666496	50	6340
2026-01-07 15:42:59.67	271.09	51.00	-38.0	-38.9	23.5	0.00e+00	0	38	0	842006528	48	6373
2026-01-07 15:43:03.71	268.88	50.24	-38.8	-39.7	23.2	0.00e+00	0	38	0	850395136	50	6241
2026-01-07 15:43:07.75	266.79	49.46	-38.6	-39.5	23.1	0.00e+00	87	38	0	857735168	50	6099
2026-01-07 15:43:11.78	264.81	48.65	-39.0	-39.9	22.7	0.00e+00	0	38	0	865075200	50	6382
2026-01-07 15:43:15.82	262.92	47.82	-39.3	-40.3	22.4	0.00e+00	0	38	0	872415232	50	6638
2026-01-07 15:43:19.86	261.13	46.97	-44.7	-47.2	16.3	0.00e+00	0	38	0	879755264	60	8321
2026-01-07 15:43:23.90	259.44	46.11	-42.8	-44.5	19.1	0.00e+00	92	38	0	888143872	60	6040
2026-01-07 15:43:27.94	257.84	45.25	-40.4	-41.5	21.7	0.00e+00	0	38	0	895483904	54	6046
2026-01-07 15:43:31.97	256.33	44.38	-37.6	-38.4	23.7	0.00e+00	0	38	0	902823936	48	5990
2026-01-07 15:43:36.01	254.90	43.51	-40.4	-41.4	21.6	0.00e+00	0	38	0	910163968	54	6021
2026-01-07 15:43:40.05	253.54	42.63	-42.2	-43.7	19.4	0.00e+00	90	38	0	918552576	56	6952
2026-01-07 15:43:44.09	252.26	41.76	-41.3	-42.5	20.3	0.00e+00	0	38	0	925892608	56	6044
2026-01-07 15:43:48.13	251.04	40.90	-40.9	-42.1	21.0	0.00e+00	0	38	0	933232640	54	6502
2026-01-07 15:43:52.16	249.89	40.04	-41.9	-43.3	20.0	0.00e+00	89	38	0	940572672	56	6666
2026-01-07 15:43:56.20	248.80	39.19	-40.4	-41.5	21.5	0.00e+00	0	38	0	947912704	54	6079
2026-01-07 15:44:00.24	247.76	38.35	-40.0	-41.0	21.8	0.00e+00	0	38	0	956301312	54	5749
2026-01-07 15:44:04.28	246.78	37.52	-40.8	-42.0	21.1	0.00e+00	0	38	0	963641344	52	7231
2026-01-07 15:44:08.32	245.84	36.70	-41.5	-42.8	20.1	0.00e+00	55	38	0	970981376	54	7073
2026-01-07 15:44:12.36	244.95	35.90	-40.2	-41.3	21.4	0.00e+00	0	38	0	978321408	54	5936
2026-01-07 15:44:16.39	244.10	35.10	-40.9	-42.1	20.9	0.00e+00	33	38	0	986710016	54	6509
2026-01-07 15:44:20.43	243.30	34.32	-41.0	-42.2	21.0	0.00e+00	0	38	0	994050048	56	5841
2026-01-07 15:44:24.47	242.53	33.55	-39.0	-40.0	22.8	0.00e+00	92	38	0	1001390080	50	6398
2026-01-07 15:44:28.51	241.79	32.80	-40.2	-41.3	21.7	0.00e+00	0	38	0	1008730112	52	6634
2026-01-07 15:44:32.54	241.10	32.06	-41.0	-42.2	20.9	0.00e+00	0	38	0	1016070144	54	6588
2026-01-07 15:44:36.58	240.43	31.33	-41.8	-43.2	20.0	0.00e+00	0	38	0	1024458752	56	6576
2026-01-07 15:44:40.62	239.79	30.61	-41.4	-42.8	20.4	0.00e+00	90	38	0	1031798784	56	6273
2026-01-07 15:44:44.65	239.18	29.91	-39.1	-40.0	22.7	0.00e+00	0	38	0	1039138816	52	5761
2026-01-07 15:44:48.69	238.60	29.22	-39.3	-40.3	22.5	0.00e+00	0	38	0	1046478848	52	5915
2026-01-07 15:44:52.73	238.04	28.55	-40.4	-41.6	21.3	0.00e+00	80	38	0	1054867456	52	6879
2026-01-07 15:44:56.77	237.50	27.88	-39.2	-40.2	22.7	0.00e+00	0	38	0	1062207488	52	5831
2026-01-07 15:45:00.81	236.99	27.23	-38.2	-39.1	23.3	0.00e+00	0	38	0	1069547520	50	5809
2026-01-07 15:45:04.85	236.49	26.60	-38.7	-39.6	22.9	0.00e+00	0	38	0	1076887552	50	6125
2026-01-07 15:45:08.88	236.02	25.97	-38.8	-39.8	22.9	0.00e+00	86	38	0	1084227584	50	6255
2026-01-07 15:45:12.92	235.56	25.36	-39.3	-40.3	22.5	0.00e+00	0	38	0	1092616192	50	6655
2026-01-07 15:45:16.96	235.12	24.76	-37.9	-38.7	23.7	0.00e+00	0	38	0	1099956224	50	5544
2026-01-07 15:45:21.00	234.70	24.17	-38.6	-39.5	23.1	0.00e+00	0	38	0	1107296256	48	6791
2026-01-07 15:45:25.04	234.30	23.59	-38.5	-39.4	22.9	0.00e+00	36	38	0	1114636288	50	5979
2026-01-07 15:45:29.08	233.91	23.03	-38.9	-39.9	22.6	0.00e+00	0	38	0	1121976320	50	6345
2026-01-07 15:45:33.11	233.53	22.47	-40.4	-41.5	21.3	0.00e+00	0	38	0	1130364928	52	6845
2026-01-07 15:45:37.15	233.17	21.93	-40.0	-41.1	21.7	0.00e+00	0	38	0	1137704960	52	6524
2026-01-07 15:45:41.19	232.82	21.39	-39.7	-40.7	22.1	0.00e+00	0	38	0	1145044992	52	6223
2026-01-07 15:45:45.23	232.48	20.87	-40.5	-41.6	21.3	0.00e+00	0	38	0	1152385024	52	6894
2026-01-07 15:45:49.27	232.15	20.35	-39.9	-40.9	21.7	0.00e+00	0	38	0	1160773632	54	5693
2026-01-07 15:45:53.31	231.84	19.85	-39.3	-40.3	22.3	0.00e+00	92	38	0	1168113664	52	5932
2026-01-07 15:45:57.35	231.53	19.35	-38.7	-39.6	23.0	0.00e+00	0	38	0	1175453696	50	6136
2026-01-07 15:46:01.39	231.24	18.86	-38.6	-39.6	22.8	0.00e+00	0	38	0	1182793728	50	6132
2026-01-07 15:46:05.43	230.95	18.38	-39.3	-40.3	22.3	0.00e+00	0	38	0	1190133760	50	6623
2026-01-07 15:46:09.46	230.68	17.91	-40.1	-41.2	21.6	0.00e+00	91	38	0	1198522368	52	6576
2026-01-07 15:46:13.50	230.41	17.45	-40.0	-41.0	21.7	0.00e+00	0	38	0	1205862400	52	6454
2026-01-07 15:46:17.54	230.15	17.00	-40.3	-41.4	21.5	0.00e+00	0	38	0	1213202432	52	6769
2026-01-07 15:46:21.58	229.90	16.55	-40.2	-41.3	21.5	0.00e+00	0	38	0	1220542464	52	6668
2026-01-07 15:46:25.62	229.66	16.11	-40.1	-41.2	21.6	0.00e+00	67	38	0	1228931072	52	6612
2026-01-07 15:46:29.65	229.42	15.68	-40.0	-41.2	21.5	0.00e+00	0	38	0	1236271104	52	6562
2026-01-07 15:46:33.69	229.19	15.25	-40.1	-41.2	21.5	0.00e+00	0	38	0	1243611136	52	6603
2026-01-07 15:46:37.73	228.97	14.83	-40.0	-41.1	21.6	0.00e+00	90	38	0	1250951168	52	6530
2026-01-07 15:46:41.77	228.75	14.42	-40.2	-41.4	21.3	0.00e+00	0	38	0	1258291200	52	6700
2026-01-07 15:46:45.80	228.54	14.02	-40.1	-41.2	21.4	0.00e+00	0	38	0	1266679808	52	6591
2026-01-07 15:46:49.84	228.34	13.62	-40.1	-41.2	21.5	0.00e+00	0	38	0	1274019840	52	6574
2026-01-07 15:46:53.88	228.14	13.23	-40.5	-41.7	20.9	0.00e+00	95	38	0	1281359872	52	6977
2026-01-07 15:46:57.92	227.95	12.84	-40.7	-42.0	20.1	0.00e+00	0	38	0	1288699904	52	7186
2026-01-07 15:47:01.96	227.76	12.46	-41.5	-43.0	19.8	0.00e+00	0	38	0	1297088512	54	7180
2026-01-07 15:47:06.00	227.58	12.08	-42.1	-43.6	19.1	0.00e+00	81	38	0	1304428544	56	6883
2026-01-07 15:47:10.04	227.40	11.71	-42.0	-43.5	19.2	0.00e+00	92	38	0	1311768576	56	6816
2026-01-07 15:47:14.08	227.23	11.35	-42.1	-43.7	19.2	0.00e+00	0	38	0	1319108608	56	6930
2026-01-07 15:47:18.12	227.06	10.99	-41.5	-42.9	19.9	0.00e+00	0	38	0	1326448640	56	6377
2026-01-07 15:47:22.16	226.90	10.63	-41.1	-42.4	20.3	0.00e+00	30	38	0	1334837248	56	5990
2026-01-07 15:47:26.19	226.74	10.28	-41.2	-42.6	20.1	0.00e+00	0	38	0	1342177280	56	6118
2026-01-07 15:47:30.23	226.58	9.94	-41.2	-42.5	20.0	0.00e+00	0	38	0	1349517312	56	6091
2026-01-07 15:47:34.27	226.43	9.59	-41.3	-42.7	19.9	0.00e+00	0	38	0	1356857344	56	6178
2026-01-07 15:47:38.30	226.28	9.26	-41.5	-42.9	19.7	0.00e+00	48	38	0	1365245952	56	6359
2026-01-07 15:47:42.34	226.14	8.93	-42.0	-43.5	19.2	0.00e+00	0	38	0	1372585984	56	6784
2026-01-07 15:47:46.38	226.00	8.60	-42.0	-43.5	19.2	0.00e+00	0	38	0	1379926016	56	6829
2026-01-07 15:47:50.42	225.86	8.27	-42.4	-44.0	18.5	0.00e+00	33	38	0	1387266048	56	7230
2026-01-07 15:47:54.46	225.72	7.95	-42.2	-43.8	18.8	0.00e+00	92	38	0	1394606080	56	7014
2026-01-07 15:47:58.49	225.59	7.64	-42.6	-44.4	18.1	0.00e+00	0	38	0	1402994688	56	7555
2026-01-07 15:48:02.53	225.46	7.33	-42.9	-44.8	17.7	0.00e+00	0	38	0	1410334720	58	7024
2026-01-07 15:48:06.57	225.34	7.02	-43.2	-45.2	17.1	0.00e+00	73	38	0	1417674752	58	7416
2026-01-07 15:48:10.61	225.22	6.71	-43.3	-45.3	17.0	0.00e+00	0	38	0	1425014784	58	7500
2026-01-07 15:48:14.64	225.10	6.41	-43.4	-45.6	16.7	0.00e+00	0	38	0	1433403392	58	7700
2026-01-07 15:48:18.68	224.98	6.11	-43.8	-46.2	16.1	0.00e+00	0	38	0	1440743424	60	7350
2026-01-07 15:48:22.72	224.87	5.82	-44.0	-46.4	15.7	0.00e+00	69	38	0	1448083456	60	7592
2026-01-07 15:48:26.76	224.75	5.52	-44.2	-46.9	15.3	0.00e+00	0	38	0	1455423488	60	7954
2026-01-07 15:48:30.80	224.65	5.23	-44.3	-47.1	15.1	0.00e+00	0	38	0	1462763520	60	8150
2026-01-07 15:48:34.83	224.54	4.95	-44.4	-47.3	14.8	0.00e+00	0	38	0	1471152128	60	8372
2026-01-07 15:48:38.87	224.43	4.67	-44.3	-47.1	14.7	0.00e+00	90	38	0	1478492160	60	8227
2026-01-07 15:48:42.91	224.33	4.39	-44.4	-47.4	14.3	7.00e-07	0	38	0	1485832192	60	8441
2026-01-07 15:48:46.95	224.23	4.11	-44.2	-47.1	14.6	1.50e-06	0	38	0	1493172224	60	8165
2026-01-07 15:48:50.99	224.13	3.83	-44.3	-47.5	14.0	2.20e-06	0	38	0	1501560832	60	8552
2026-01-07 15:48:55.03	224.04	3.56	-44.2	-47.2	14.3	0.00e+00	72	38	0	1508900864	60	8270
2026-01-07 15:48:59.07	223.94	3.29	-44.3	-47.6	13.8	2.20e-06	0	38	0	1516240896	60	8678
2026-01-07 15:49:03.10	223.85	3.03	-44.3	-47.7	13.6	6.80e-06	0	38	0	1523580928	60	8739
2026-01-07 15:49:07.14	223.76	2.76	-49.2	-64.4	3.6	1.51e+00	0	38	104	1524629504	60	60212
2026-01-07 15:49:11.18	223.67	2.50	-49.4	-64.6	3.6	1.51e+00	0	38	104	1524629504	60	61666
2026-01-07 15:49:15.22	223.58	2.24	-49.0	-64.5	3.6	1.51e+00	0	38	104	1524629504	60	60965
2026-01-07 15:49:19.26	223.50	1.98	-49.2	-64.5	3.6	1.51e+00	0	38	104	1524629504	60	60723
2026-01-07 15:49:23.31	223.42	1.73	-49.3	-64.5	3.6	1.51e+00	0	38	104	1524629504	60	60800
2026-01-07 15:49:27.34	223.33	1.47	-49.3	-64.5	3.6	1.51e+00	0	38	104	1524629504	60	60739
2026-01-07 15:49:31.38	223.25	1.22	-49.3	-64.5	3.6	1.51e+00	0	38	104	1524629504	60	60519
2026-01-07 15:49:35.43	223.18	0.97	-49.3	-64.5	3.6	1.51e+00	0	38	104	1524629504	60	60674
2026-01-07 15:49:39.46	223.10	0.73	-49.3	-64.5	3.6	1.51e+00	0	38	104	1524629504	60	60705
2026-01-07 15:49:43.50	223.02	0.48	-49.3	-64.5	3.6	1.51e+00	0	38	104	1524629504	60	60512
2026-01-07 15:49:47.54	222.95	0.24	-49.3	-64.5	3.6	1.51e+00	0	38	104	1524629504	60	60743
2026-01-07 15:49:51.58	222.88	-0.00	-49.3	-64.5	3.6	1.51e+00	0	38	104	1524629504	60	60660

#Closed at: 2026-01-07 15:49:53
#Recorded file [1524 MB]: D:/lorett/data/35029_260108_033434.dat