passes_logs/2026/01/07/R4.6S_Anadyr/R4.6S_Anadyr__20260107_123429_NOAA_20_JPSS-1_rec.log

#Pass ID: 20260107_123429_NOAA 20 (JPSS-1)
#Satellite: NOAA 20 (JPSS-1)
#Configuration: NOAA 20
#almurnet v.1.7.20251203
#Start time: 2026-01-07 12:34:32

#Version: 2.2.20231116
#Station: R4.6S_Anadyr
#Location: 177.4865 lon 64.73178 lat
#TLE: 1 43013U 17073A   26005.46207808  .00000128  00000+0  81791-4 0  9997
#TLE: 2 43013  98.7627 306.5027 0001826  53.0458 307.0885 14.19533487421381

#Time	Az	El	Level	Level2	SNR	BER	BlckErr	Temp	State	Recorded	gain1	gain2
2026-01-07 12:34:32.41	19.07	0.17	-49.3	-63.0	3.3	1.54e+00	0	36	0	0	60	51311
2026-01-07 12:34:36.44	19.35	0.38	-49.4	-64.5	3.6	1.51e+00	0	36	104	0	60	60920
2026-01-07 12:34:40.48	19.63	0.58	-49.1	-64.3	3.6	1.51e+00	0	36	104	0	60	59237
2026-01-07 12:34:44.52	19.92	0.79	-48.4	-63.6	3.6	1.51e+00	0	36	104	0	60	54606
2026-01-07 12:34:48.56	20.21	1.00	-47.7	-62.8	3.6	1.51e+00	0	36	104	0	60	49819
2026-01-07 12:34:52.60	20.50	1.21	-47.7	-62.9	3.6	1.51e+00	0	36	104	0	60	50283
2026-01-07 12:34:56.65	20.80	1.42	-47.7	-62.8	3.6	1.51e+00	0	37	104	0	60	50162
2026-01-07 12:35:00.68	21.10	1.63	-47.7	-62.7	3.6	1.51e+00	0	37	104	0	60	49394
2026-01-07 12:35:04.72	21.40	1.84	-47.7	-62.8	3.6	1.51e+00	0	37	104	0	60	49660
2026-01-07 12:35:08.76	21.71	2.05	-47.7	-62.7	3.6	1.51e+00	0	37	104	0	60	49459
2026-01-07 12:35:12.80	22.02	2.27	-47.6	-61.8	3.6	1.51e+00	0	37	104	0	60	44450
2026-01-07 12:35:16.84	22.34	2.48	-45.8	-50.3	11.4	1.47e-02	0	37	0	2097152	60	11785
2026-01-07 12:35:20.88	22.66	2.70	-42.1	-44.0	18.1	0.00e+00	92	37	0	10485760	58	6406
2026-01-07 12:35:24.92	22.99	2.91	-44.1	-47.0	14.7	0.00e+00	0	37	0	17825792	60	8067
2026-01-07 12:35:28.89	23.31	3.13	-42.1	-43.9	18.0	0.00e+00	0	37	0	25165824	58	6383
2026-01-07 12:35:32.93	23.65	3.35	-43.3	-45.6	16.7	1.22e-05	53	37	0	28311552	60	6856
2026-01-07 12:35:36.97	23.99	3.56	-42.8	-44.8	16.7	0.00e+00	92	37	0	35651584	58	7008
2026-01-07 12:35:41.00	24.33	3.78	-43.2	-45.4	16.3	0.00e+00	0	37	0	42991616	58	7523
2026-01-07 12:35:45.04	24.68	4.01	-43.4	-45.5	17.2	0.00e+00	0	37	0	51380224	58	7669
2026-01-07 12:35:49.08	25.03	4.23	-41.6	-43.2	19.0	0.00e+00	0	37	0	58720256	56	6593
2026-01-07 12:35:53.10	25.39	4.45	-41.4	-43.0	19.2	0.00e+00	92	37	0	66060288	56	6395
2026-01-07 12:35:57.14	25.75	4.68	-41.6	-43.1	19.1	0.00e+00	51	37	0	73400320	56	6515
2026-01-07 12:36:01.18	26.12	4.90	-41.4	-42.8	19.4	0.00e+00	51	37	0	81788928	56	6315
2026-01-07 12:36:05.22	26.50	5.13	-41.3	-42.8	19.5	0.00e+00	0	37	0	89128960	56	6264
2026-01-07 12:36:09.26	26.88	5.35	-41.3	-42.7	19.7	0.00e+00	91	37	0	96468992	56	6200
2026-01-07 12:36:13.30	27.27	5.58	-41.4	-42.8	19.6	0.00e+00	0	37	0	103809024	56	6293
2026-01-07 12:36:17.33	27.66	5.81	-41.2	-42.6	19.8	0.00e+00	29	37	0	111149056	56	6154
2026-01-07 12:36:21.37	28.06	6.04	-41.1	-42.5	20.0	0.00e+00	76	37	0	119537664	56	6039
2026-01-07 12:36:25.41	28.46	6.27	-41.0	-42.3	20.2	0.00e+00	44	37	0	126877696	56	5961
2026-01-07 12:36:29.45	28.87	6.50	-40.7	-42.1	20.3	0.00e+00	0	37	0	134217728	54	6471
2026-01-07 12:36:33.49	29.29	6.74	-40.7	-42.0	20.4	0.00e+00	4	37	0	141557760	54	6440
2026-01-07 12:36:37.53	29.71	6.97	-40.6	-41.9	20.6	0.00e+00	92	37	0	149946368	54	6346
2026-01-07 12:36:41.56	30.14	7.20	-40.7	-42.0	20.4	0.00e+00	0	37	0	157286400	54	6403
2026-01-07 12:36:45.60	30.58	7.44	-40.5	-41.7	20.8	0.00e+00	6	37	0	164626432	54	6245
2026-01-07 12:36:49.64	31.02	7.67	-40.2	-41.4	21.0	0.00e+00	0	37	0	171966464	54	6020
2026-01-07 12:36:53.68	31.47	7.91	-40.1	-41.3	21.2	0.00e+00	91	37	0	179306496	54	5944
2026-01-07 12:36:57.71	31.93	8.15	-40.2	-41.3	21.2	0.00e+00	31	37	0	187695104	54	5954
2026-01-07 12:37:01.75	32.39	8.39	-40.0	-41.1	21.4	0.00e+00	26	37	0	195035136	54	5805
2026-01-07 12:37:05.80	32.86	8.63	-39.6	-40.7	21.9	0.00e+00	0	37	0	202375168	52	6179
2026-01-07 12:37:09.83	33.34	8.87	-39.5	-40.6	22.0	0.00e+00	92	37	0	209715200	52	6133
2026-01-07 12:37:13.87	33.83	9.11	-39.4	-40.5	22.1	0.00e+00	0	37	0	218103808	52	6043
2026-01-07 12:37:17.91	34.32	9.35	-39.4	-40.4	22.1	0.00e+00	53	37	0	225443840	52	6019
2026-01-07 12:37:21.95	34.82	9.59	-39.4	-40.5	22.1	0.00e+00	51	37	0	232783872	52	6047
2026-01-07 12:37:25.99	35.33	9.83	-39.7	-40.8	21.9	0.00e+00	92	37	0	240123904	52	6266
2026-01-07 12:37:30.03	35.85	10.07	-39.7	-40.8	21.8	0.00e+00	0	37	0	247463936	52	6306
2026-01-07 12:37:34.06	36.38	10.31	-39.5	-40.5	22.2	0.00e+00	33	37	0	255852544	52	6095
2026-01-07 12:37:38.10	36.91	10.56	-39.5	-40.6	22.1	0.00e+00	0	37	0	263192576	52	6118
2026-01-07 12:37:42.14	37.46	10.80	-39.6	-40.7	22.0	0.00e+00	90	37	0	270532608	52	6200
2026-01-07 12:37:46.17	38.01	11.04	-39.5	-40.6	22.1	0.00e+00	0	37	0	277872640	52	6112
2026-01-07 12:37:50.20	38.57	11.28	-39.2	-40.2	22.5	0.00e+00	0	37	0	285212672	52	5888
2026-01-07 12:37:54.24	39.14	11.53	-39.1	-40.1	22.4	0.00e+00	0	37	0	293601280	52	5828
2026-01-07 12:37:58.28	39.72	11.77	-39.3	-40.3	22.4	0.00e+00	87	37	0	300941312	52	5916
2026-01-07 12:38:02.31	40.31	12.01	-39.2	-40.2	22.5	0.00e+00	0	37	0	308281344	52	5854
2026-01-07 12:38:06.34	40.91	12.25	-39.0	-40.0	22.7	0.00e+00	32	37	0	315621376	52	5722
2026-01-07 12:38:10.38	41.51	12.50	-39.0	-39.9	22.8	0.00e+00	11	37	0	324009984	52	5695
2026-01-07 12:38:14.42	42.13	12.74	-38.7	-39.7	23.0	0.00e+00	92	37	0	331350016	52	5535
2026-01-07 12:38:18.45	42.76	12.98	-38.8	-39.8	23.0	0.00e+00	6	37	0	338690048	50	6256
2026-01-07 12:38:22.49	43.40	13.22	-38.7	-39.7	23.0	0.00e+00	32	37	0	346030080	50	6181
2026-01-07 12:38:26.53	44.04	13.46	-38.2	-39.1	23.5	0.00e+00	92	37	0	353370112	50	5779
2026-01-07 12:38:30.56	44.70	13.70	-38.2	-39.1	23.5	0.00e+00	52	37	0	361758720	50	5813
2026-01-07 12:38:34.60	45.37	13.93	-38.1	-39.0	23.6	0.00e+00	52	37	0	369098752	50	5732
2026-01-07 12:38:38.64	46.05	14.17	-37.7	-38.6	24.0	0.00e+00	7	37	0	376438784	50	5482
2026-01-07 12:38:42.68	46.74	14.40	-37.8	-38.6	24.0	0.00e+00	92	37	0	383778816	48	6159
2026-01-07 12:38:46.72	47.44	14.64	-37.9	-38.8	23.8	0.00e+00	33	37	0	392167424	48	6246
2026-01-07 12:38:50.75	48.15	14.87	-37.9	-38.7	23.8	0.00e+00	34	37	0	399507456	48	6243
2026-01-07 12:38:54.79	48.87	15.10	-37.8	-38.6	24.0	0.00e+00	2	37	0	406847488	48	6168
2026-01-07 12:38:58.83	49.60	15.32	-38.1	-39.0	23.6	0.00e+00	92	37	0	414187520	48	6427
2026-01-07 12:39:02.87	50.34	15.55	-38.2	-39.1	23.6	0.00e+00	0	37	0	421527552	48	6497
2026-01-07 12:39:06.90	51.09	15.77	-38.4	-39.3	23.5	0.00e+00	0	37	0	429916160	48	6647
2026-01-07 12:39:10.94	51.86	15.99	-38.7	-39.6	23.1	0.00e+00	53	37	0	437256192	48	6911
2026-01-07 12:39:14.98	52.64	16.21	-38.8	-39.8	23.0	0.00e+00	92	37	0	444596224	50	6262
2026-01-07 12:39:19.02	53.42	16.42	-38.9	-39.9	22.7	0.00e+00	2	37	0	451936256	50	6350
2026-01-07 12:39:23.06	54.22	16.63	-39.1	-40.1	22.7	0.00e+00	0	37	0	460324864	50	6469
2026-01-07 12:39:27.10	55.03	16.84	-39.2	-40.2	22.6	0.00e+00	0	37	0	467664896	50	6611
2026-01-07 12:39:31.13	55.85	17.04	-39.5	-40.6	22.3	0.00e+00	92	37	0	475004928	50	6875
2026-01-07 12:39:35.17	56.68	17.24	-40.0	-41.1	21.9	0.00e+00	45	37	0	482344960	52	6478
2026-01-07 12:39:39.21	57.52	17.44	-39.8	-40.9	22.2	0.00e+00	0	37	0	489684992	52	6340
2026-01-07 12:39:43.25	58.37	17.63	-39.6	-40.6	22.2	0.00e+00	0	37	0	498073600	52	6126
2026-01-07 12:39:47.29	59.23	17.81	-39.7	-40.8	22.1	0.00e+00	0	37	0	505413632	52	6270
2026-01-07 12:39:51.33	60.10	17.99	-39.5	-40.6	22.4	0.00e+00	32	37	0	512753664	52	6105
2026-01-07 12:39:55.37	60.99	18.17	-39.2	-40.2	22.7	0.00e+00	0	37	0	520093696	52	5840
2026-01-07 12:39:59.41	61.88	18.34	-38.8	-39.8	23.0	0.00e+00	22	37	0	528482304	50	6269
2026-01-07 12:40:03.45	62.78	18.50	-38.9	-39.8	23.0	0.00e+00	0	37	0	535822336	50	6312
2026-01-07 12:40:07.48	63.69	18.66	-38.9	-40.0	22.8	0.00e+00	0	37	0	543162368	50	6405
2026-01-07 12:40:11.52	64.61	18.82	-38.9	-39.9	22.9	0.00e+00	25	37	0	550502400	50	6368
2026-01-07 12:40:15.56	65.54	18.96	-38.7	-39.7	23.1	0.00e+00	91	37	0	557842432	50	6198
2026-01-07 12:40:19.60	66.48	19.10	-38.7	-39.7	23.2	0.00e+00	8	37	0	566231040	50	6193
2026-01-07 12:40:23.64	67.43	19.24	-38.9	-39.8	23.0	0.00e+00	0	37	0	573571072	50	6308
2026-01-07 12:40:27.67	68.38	19.36	-38.8	-39.7	23.1	0.00e+00	34	37	0	580911104	50	6242
2026-01-07 12:40:31.71	69.34	19.48	-38.6	-39.5	23.3	0.00e+00	92	37	0	588251136	50	6061
2026-01-07 12:40:35.75	70.31	19.59	-38.7	-39.6	23.2	0.00e+00	34	37	0	596639744	50	6151
2026-01-07 12:40:39.79	71.29	19.70	-38.5	-39.4	23.4	0.00e+00	0	37	0	603979776	50	6022
2026-01-07 12:40:43.84	72.27	19.79	-38.5	-39.4	23.4	0.00e+00	0	37	0	611319808	50	6027
2026-01-07 12:40:47.88	73.26	19.88	-39.3	-40.3	22.6	0.00e+00	90	37	0	618659840	50	6619
2026-01-07 12:40:51.91	74.25	19.96	-39.3	-40.3	22.6	0.00e+00	33	37	0	625999872	50	6655
2026-01-07 12:40:55.95	75.25	20.03	-38.7	-39.6	23.2	0.00e+00	33	37	0	634388480	50	6173
2026-01-07 12:40:59.99	76.26	20.10	-39.1	-40.0	22.9	0.00e+00	0	37	0	641728512	50	6447
2026-01-07 12:41:04.03	77.26	20.15	-39.2	-40.2	22.7	0.00e+00	92	37	0	649068544	50	6606
2026-01-07 12:41:08.06	78.27	20.20	-39.3	-40.3	22.6	0.00e+00	0	37	0	656408576	50	6648
2026-01-07 12:41:12.10	79.28	20.24	-39.7	-40.8	22.2	0.00e+00	0	37	0	664797184	50	7011
2026-01-07 12:41:16.14	80.30	20.26	-39.6	-40.7	22.3	0.00e+00	5	37	0	672137216	52	6203
2026-01-07 12:41:20.18	81.32	20.28	-39.4	-40.5	22.4	0.00e+00	92	37	0	679477248	52	6036
2026-01-07 12:41:24.21	82.33	20.29	-39.2	-40.1	22.8	0.00e+00	0	37	0	686817280	52	5817
2026-01-07 12:41:28.25	83.35	20.30	-38.8	-39.8	23.2	0.00e+00	0	37	0	694157312	50	6276
2026-01-07 12:41:32.29	84.37	20.29	-39.4	-40.4	22.5	0.00e+00	77	37	0	702545920	50	6758
2026-01-07 12:41:36.33	85.39	20.27	-39.2	-40.2	22.8	0.00e+00	50	37	0	709885952	50	6552
2026-01-07 12:41:40.37	86.40	20.25	-39.3	-40.3	22.6	0.00e+00	7	37	0	717225984	50	6684
2026-01-07 12:41:44.41	87.42	20.21	-39.3	-40.3	22.6	0.00e+00	6	37	0	724566016	50	6663
2026-01-07 12:41:48.45	88.43	20.17	-39.1	-40.1	22.8	0.00e+00	92	37	0	732954624	50	6510
2026-01-07 12:41:52.49	89.44	20.12	-38.6	-39.5	23.3	0.00e+00	13	37	0	740294656	50	6061
2026-01-07 12:41:56.52	90.44	20.06	-39.1	-40.0	22.8	0.00e+00	54	37	0	747634688	50	6459
2026-01-07 12:42:00.55	91.44	19.99	-38.7	-39.6	23.3	0.00e+00	32	37	0	754974720	50	6141
2026-01-07 12:42:04.59	92.44	19.92	-38.1	-39.0	23.7	0.00e+00	92	37	0	762314752	50	5746
2026-01-07 12:42:08.63	93.43	19.83	-37.8	-38.6	23.4	0.00e+00	0	37	0	770703360	50	5488
2026-01-07 12:42:12.67	94.42	19.74	-38.3	-39.2	23.6	0.00e+00	0	37	0	778043392	48	6603
2026-01-07 12:42:16.71	95.40	19.64	-38.0	-38.9	23.8	0.00e+00	33	37	0	785383424	48	6351
2026-01-07 12:42:20.75	96.38	19.53	-37.9	-38.8	23.9	0.00e+00	92	37	0	792723456	48	6255
2026-01-07 12:42:24.78	97.34	19.41	-37.0	-37.8	24.8	0.00e+00	48	37	0	801112064	48	5612
2026-01-07 12:42:28.82	98.30	19.29	-37.3	-38.1	24.5	0.00e+00	2	37	0	808452096	48	5820
2026-01-07 12:42:32.86	99.25	19.16	-37.5	-38.4	24.3	0.00e+00	0	37	0	815792128	48	5967
2026-01-07 12:42:36.90	100.20	19.02	-37.5	-38.4	24.3	0.00e+00	92	37	0	823132160	48	5980
2026-01-07 12:42:40.94	101.13	18.87	-36.8	-37.6	24.9	0.00e+00	54	37	0	830472192	48	5493
2026-01-07 12:42:44.98	102.06	18.72	-36.6	-37.3	25.1	0.00e+00	55	37	0	838860800	46	5961
2026-01-07 12:42:49.02	102.98	18.57	-36.8	-37.6	24.9	0.00e+00	0	37	0	846200832	46	6104
2026-01-07 12:42:53.06	103.89	18.40	-37.3	-38.2	24.4	0.00e+00	92	37	0	853540864	46	6563
2026-01-07 12:42:57.10	104.79	18.23	-37.4	-38.3	24.3	0.00e+00	34	37	0	860880896	46	6648
2026-01-07 12:43:01.14	105.68	18.06	-37.8	-38.7	24.0	0.00e+00	48	37	0	869269504	48	6220
2026-01-07 12:43:05.18	106.56	17.88	-37.7	-38.6	24.0	0.00e+00	2	37	0	876609536	48	6146
2026-01-07 12:43:09.21	107.42	17.69	-38.3	-39.2	23.4	0.00e+00	92	37	0	883949568	48	6610
2026-01-07 12:43:13.25	108.28	17.51	-38.3	-39.3	23.5	0.00e+00	0	37	0	891289600	48	6629
2026-01-07 12:43:17.28	109.13	17.31	-38.5	-39.4	23.3	0.00e+00	0	37	0	898629632	48	6738
2026-01-07 12:43:21.32	109.96	17.11	-39.0	-40.0	22.9	0.00e+00	78	37	0	907018240	50	6394
2026-01-07 12:43:25.36	110.79	16.91	-38.7	-39.7	23.1	0.00e+00	92	37	0	914358272	50	6186
2026-01-07 12:43:29.39	111.61	16.70	-38.6	-39.6	23.1	0.00e+00	6	37	0	921698304	50	6129
2026-01-07 12:43:33.43	112.41	16.49	-38.9	-39.9	22.9	0.00e+00	0	37	0	929038336	50	6335
2026-01-07 12:43:37.47	113.20	16.28	-38.7	-39.7	23.1	0.00e+00	92	37	0	937426944	50	6209
2026-01-07 12:43:41.51	113.99	16.06	-38.0	-38.8	23.8	0.00e+00	0	37	0	944766976	50	5623
2026-01-07 12:43:45.54	114.76	15.84	-37.9	-38.7	23.9	0.00e+00	0	37	0	952107008	50	5564
2026-01-07 12:43:49.58	115.52	15.62	-38.2	-39.1	23.5	0.00e+00	6	37	0	959447040	50	5789
2026-01-07 12:43:53.62	116.27	15.39	-39.3	-40.4	22.4	0.00e+00	92	37	0	966787072	50	6693
2026-01-07 12:43:57.66	117.01	15.17	-38.9	-39.8	22.8	0.00e+00	0	37	0	975175680	50	6316
2026-01-07 12:44:01.70	117.74	14.94	-38.1	-39.0	23.6	0.00e+00	0	37	0	982515712	50	5734
2026-01-07 12:44:05.74	118.46	14.70	-38.3	-39.3	23.3	0.00e+00	49	37	0	989855744	50	5912
2026-01-07 12:44:09.78	119.16	14.47	-38.0	-38.9	23.7	0.00e+00	92	37	0	997195776	50	5671
2026-01-07 12:44:13.82	119.86	14.23	-38.4	-39.4	23.2	0.00e+00	0	37	0	1005584384	50	6000
2026-01-07 12:44:17.85	120.54	14.00	-38.3	-39.2	23.4	0.00e+00	2	37	0	1012924416	50	5852
2026-01-07 12:44:21.89	121.22	13.76	-38.1	-39.1	23.4	0.00e+00	0	37	0	1020264448	50	5772
2026-01-07 12:44:25.93	121.88	13.52	-38.5	-39.5	23.1	0.00e+00	92	37	0	1027604480	50	6048
2026-01-07 12:44:29.97	122.54	13.28	-38.0	-38.9	23.6	0.00e+00	50	37	0	1034944512	50	5695
2026-01-07 12:44:34.00	123.18	13.04	-38.2	-39.2	23.4	0.00e+00	52	37	0	1043333120	50	5832
2026-01-07 12:44:38.04	123.81	12.79	-38.8	-39.8	22.9	0.00e+00	0	37	0	1050673152	50	6271
2026-01-07 12:44:42.08	124.43	12.55	-38.4	-39.4	23.2	0.00e+00	92	37	0	1058013184	50	5989
2026-01-07 12:44:46.12	125.05	12.31	-38.8	-39.8	22.8	0.00e+00	51	37	0	1065353216	50	6287
2026-01-07 12:44:50.16	125.65	12.06	-39.0	-40.0	22.7	0.00e+00	0	38	0	1073741824	50	6427
2026-01-07 12:44:54.20	126.25	11.82	-38.5	-39.4	23.1	0.00e+00	15	38	0	1081081856	50	6015
2026-01-07 12:44:58.24	126.83	11.57	-39.0	-40.1	22.5	0.00e+00	0	37	0	1088421888	50	6476
2026-01-07 12:45:02.27	127.41	11.33	-39.5	-40.6	22.0	0.00e+00	29	38	0	1095761920	50	6903
2026-01-07 12:45:06.31	127.97	11.08	-39.0	-40.0	22.5	0.00e+00	0	38	0	1103101952	50	6434
2026-01-07 12:45:10.35	128.53	10.84	-39.2	-40.2	22.3	0.00e+00	90	37	0	1111490560	50	6565
2026-01-07 12:45:14.38	129.08	10.59	-39.4	-40.4	22.2	0.00e+00	0	37	0	1118830592	50	6744
2026-01-07 12:45:18.42	129.62	10.35	-39.2	-40.3	22.3	0.00e+00	6	37	0	1126170624	50	6635
2026-01-07 12:45:22.46	130.15	10.10	-39.6	-40.7	22.0	0.00e+00	29	37	0	1133510656	50	6945
2026-01-07 12:45:26.50	130.67	9.86	-40.1	-41.2	21.3	0.00e+00	92	37	0	1140850688	52	6584
2026-01-07 12:45:30.54	131.19	9.62	-39.6	-40.7	21.8	0.00e+00	58	37	0	1149239296	52	6219
2026-01-07 12:45:34.58	131.69	9.37	-39.4	-40.5	22.1	0.00e+00	61	37	0	1156579328	52	6037
2026-01-07 12:45:38.61	132.19	9.13	-39.5	-40.6	21.9	0.00e+00	0	37	0	1163919360	52	6163
2026-01-07 12:45:42.65	132.68	8.89	-39.8	-41.0	21.5	0.00e+00	92	38	0	1171259392	52	6394
2026-01-07 12:45:46.69	133.16	8.65	-39.9	-41.1	21.4	0.00e+00	0	38	0	1179648000	52	6478
2026-01-07 12:45:50.73	133.64	8.40	-40.3	-41.5	21.1	0.00e+00	55	37	0	1186988032	52	6787
2026-01-07 12:45:54.77	134.10	8.16	-40.4	-41.6	20.9	0.00e+00	55	38	0	1194328064	52	6920
2026-01-07 12:45:58.80	134.56	7.93	-40.3	-41.5	21.0	0.00e+00	92	38	0	1201668096	52	6829
2026-01-07 12:46:02.84	135.01	7.69	-40.0	-41.2	21.1	0.00e+00	0	38	0	1209008128	52	6588
2026-01-07 12:46:06.88	135.46	7.45	-40.4	-41.6	20.9	0.00e+00	0	38	0	1217396736	52	6890
2026-01-07 12:46:10.92	135.90	7.21	-40.8	-42.2	20.2	0.00e+00	12	37	0	1224736768	54	6572
2026-01-07 12:46:14.94	136.33	6.97	-41.1	-42.5	20.0	0.00e+00	92	38	0	1232076800	54	6779
2026-01-07 12:46:18.98	136.75	6.74	-41.1	-42.5	19.9	0.00e+00	0	38	0	1239416832	54	6789
2026-01-07 12:46:23.01	137.17	6.50	-41.3	-42.8	19.6	0.00e+00	0	38	0	1247805440	54	7033
2026-01-07 12:46:27.05	137.58	6.27	-41.2	-42.7	19.7	0.00e+00	0	37	0	1255145472	54	6945
2026-01-07 12:46:31.09	137.99	6.04	-41.4	-43.0	19.3	0.00e+00	92	38	0	1262485504	54	7171
2026-01-07 12:46:35.13	138.39	5.80	-42.1	-43.8	18.3	0.00e+00	0	38	0	1269825536	56	7028
2026-01-07 12:46:39.17	138.78	5.57	-42.5	-44.3	17.6	0.00e+00	62	37	0	1277165568	56	7500
2026-01-07 12:46:43.21	139.17	5.34	-43.0	-45.2	16.0	3.00e-06	90	37	0	1285554176	58	7384
2026-01-07 12:46:47.25	139.55	5.11	-43.5	-46.2	13.6	2.95e-04	71	37	0	1292894208	58	8302
2026-01-07 12:46:51.29	139.93	4.88	-44.4	-48.1	11.4	3.80e-03	0	37	0	1300234240	60	9191
2026-01-07 12:46:55.33	140.30	4.66	-45.1	-50.3	9.2	2.46e-02	24	37	0	1307574272	60	11870
2026-01-07 12:46:59.37	140.67	4.43	-45.4	-52.2	6.7	1.46e-01	90	38	0	1315962880	60	14715
2026-01-07 12:47:03.41	141.03	4.20	-45.6	-53.1	6.3	2.85e-01	1	38	0	1323302912	60	16283
2026-01-07 12:47:07.45	141.38	3.98	-45.5	-52.9	6.4	2.39e-01	5	38	0	1330642944	60	16021
2026-01-07 12:47:11.48	141.73	3.76	-45.2	-51.0	8.8	3.80e-02	3	38	0	1337982976	60	12773
2026-01-07 12:47:15.52	142.07	3.53	-44.9	-49.9	10.4	7.24e-03	89	38	0	1345323008	60	11296
2026-01-07 12:47:19.56	142.41	3.31	-44.6	-49.0	11.6	6.23e-04	6	38	0	1353711616	60	10206
2026-01-07 12:47:23.60	142.75	3.09	-44.3	-48.1	12.6	1.46e-04	7	38	0	1361051648	60	9235
2026-01-07 12:47:27.64	143.08	2.87	-48.7	-63.9	3.6	1.51e+00	0	37	104	1364197376	60	56428
2026-01-07 12:47:31.68	143.41	2.65	-49.2	-64.5	3.6	1.51e+00	0	38	104	1364197376	60	60390
2026-01-07 12:47:35.72	143.73	2.44	-49.3	-64.5	3.6	1.51e+00	0	38	104	1364197376	60	60669
2026-01-07 12:47:39.76	144.04	2.22	-49.4	-64.7	3.6	1.51e+00	0	38	104	1364197376	60	61950
2026-01-07 12:47:43.80	144.35	2.00	-49.3	-64.5	3.6	1.51e+00	0	38	104	1364197376	60	60777
2026-01-07 12:47:47.83	144.66	1.79	-49.3	-64.5	3.6	1.51e+00	0	38	104	1364197376	60	60496
2026-01-07 12:47:51.87	144.97	1.58	-49.3	-64.4	3.6	1.51e+00	0	38	104	1364197376	60	60302
2026-01-07 12:47:55.91	145.27	1.36	-49.3	-64.5	3.5	1.51e+00	0	38	104	1364197376	60	60535
2026-01-07 12:47:59.95	145.56	1.15	-49.3	-64.5	3.6	1.51e+00	0	38	104	1364197376	60	60443
2026-01-07 12:48:03.99	145.85	0.94	-49.3	-64.4	3.6	1.51e+00	0	38	104	1364197376	60	60218
2026-01-07 12:48:08.03	146.14	0.73	-49.3	-64.5	3.6	1.51e+00	0	38	104	1364197376	60	60517
2026-01-07 12:48:12.08	146.42	0.52	-49.3	-64.4	3.6	1.51e+00	0	38	104	1364197376	60	60257
2026-01-07 12:48:16.11	146.70	0.31	-49.2	-64.4	3.6	1.51e+00	0	38	104	1364197376	60	60289
2026-01-07 12:48:20.15	146.98	0.10	-49.3	-64.5	3.6	1.51e+00	0	38	104	1364197376	60	60457

#Closed at: 2026-01-07 12:48:24
#Recorded file [1364 MB]: D:/lorett/data/35029_260108_003432.dat