passes_logs/2026/01/07/R4.6S_Anadyr/R4.6S_Anadyr__20260107_002902_NOAA_20_JPSS-1_rec.log

#Pass ID: 20260107_002902_NOAA 20 (JPSS-1)
#Satellite: NOAA 20 (JPSS-1)
#Configuration: NOAA 20
#almurnet v.1.7.20251203
#Start time: 2026-01-07 00:29:06

#Version: 2.2.20231116
#Station: R4.6S_Anadyr
#Location: 177.4865 lon 64.73178 lat
#TLE: 1 43013U 17073A   26005.46207808  .00000128  00000+0  81791-4 0  9997
#TLE: 2 43013  98.7627 306.5027 0001826  53.0458 307.0885 14.19533487421381

#Time	Az	El	Level	Level2	SNR	BER	BlckErr	Temp	State	Recorded	gain1	gain2
2026-01-07 00:29:06.18	162.97	0.20	-49.1	-62.8	3.3	1.54e+00	0	33	0	0	60	50011
2026-01-07 00:29:10.22	163.02	0.45	-49.2	-64.4	3.6	1.51e+00	0	33	104	0	60	59713
2026-01-07 00:29:14.26	163.06	0.70	-48.8	-63.9	3.6	1.51e+00	0	33	104	0	60	56670
2026-01-07 00:29:18.30	163.11	0.94	-47.7	-62.9	3.6	1.51e+00	0	33	104	0	60	50201
2026-01-07 00:29:22.33	163.16	1.19	-47.7	-62.9	3.6	1.51e+00	0	33	104	0	60	50380
2026-01-07 00:29:26.38	163.21	1.45	-47.7	-62.8	3.5	1.51e+00	0	34	104	0	60	49643
2026-01-07 00:29:30.41	163.26	1.70	-47.7	-62.7	3.6	1.51e+00	0	34	104	0	60	49361
2026-01-07 00:29:34.45	163.31	1.96	-47.7	-62.9	3.6	1.51e+00	0	34	104	0	60	50341
2026-01-07 00:29:38.49	163.36	2.22	-47.7	-62.7	3.6	1.51e+00	0	34	104	0	60	49044
2026-01-07 00:29:42.53	163.41	2.48	-47.7	-61.9	3.6	1.51e+00	0	34	104	0	60	45142
2026-01-07 00:29:46.57	163.46	2.74	-47.7	-62.3	3.6	1.51e+00	0	34	104	0	60	47194
2026-01-07 00:29:50.60	163.51	3.01	-47.3	-56.0	5.0	9.58e-01	90	34	0	1048576	60	22692
2026-01-07 00:29:54.65	163.57	3.28	-45.5	-49.5	12.2	9.67e-04	92	34	0	8388608	60	10853
2026-01-07 00:29:58.69	163.62	3.55	-44.5	-47.6	14.2	7.00e-07	92	34	0	15728640	60	8699
2026-01-07 00:30:02.72	163.68	3.83	-46.8	-53.5	5.1	1.49e+00	0	34	104	22020096	60	17074
2026-01-07 00:30:06.76	163.73	4.10	-43.9	-46.6	5.9	1.50e+00	0	34	104	22020096	60	7737
2026-01-07 00:30:10.80	163.79	4.38	-41.9	-43.6	18.3	0.00e+00	90	34	0	27262976	58	6140
2026-01-07 00:30:14.84	163.85	4.67	-41.6	-43.2	18.9	0.00e+00	92	34	0	34603008	56	6555
2026-01-07 00:30:18.88	163.91	4.95	-41.4	-42.9	19.2	0.00e+00	0	34	0	41943040	56	6357
2026-01-07 00:30:22.92	163.97	5.24	-41.3	-42.8	19.3	0.00e+00	90	34	0	50331648	56	6277
2026-01-07 00:30:26.95	164.03	5.54	-41.2	-42.6	19.6	0.00e+00	92	34	0	57671680	56	6156
2026-01-07 00:30:30.99	164.09	5.83	-41.1	-42.5	19.7	0.00e+00	92	34	0	65011712	56	6069
2026-01-07 00:30:35.03	164.15	6.13	-41.0	-42.4	19.9	0.00e+00	0	34	0	72351744	56	5988
2026-01-07 00:30:39.06	164.22	6.43	-40.9	-42.3	20.0	0.00e+00	92	34	0	80740352	56	5909
2026-01-07 00:30:43.11	164.28	6.74	-40.7	-42.0	20.2	0.00e+00	91	34	0	88080384	54	6425
2026-01-07 00:30:47.14	164.35	7.05	-40.4	-41.7	20.5	0.00e+00	92	34	0	95420416	54	6203
2026-01-07 00:30:51.18	164.41	7.36	-40.4	-41.6	20.6	0.00e+00	0	34	0	102760448	54	6164
2026-01-07 00:30:55.22	164.48	7.68	-40.3	-41.6	20.7	0.00e+00	92	34	0	110100480	54	6114
2026-01-07 00:30:59.26	164.55	8.00	-40.1	-41.3	21.0	0.00e+00	92	34	0	118489088	54	5954
2026-01-07 00:31:03.30	164.62	8.33	-40.0	-41.2	21.1	0.00e+00	73	34	0	125829120	54	5871
2026-01-07 00:31:07.33	164.69	8.66	-40.0	-41.2	21.3	0.00e+00	67	34	0	133169152	54	5832
2026-01-07 00:31:11.37	164.77	8.99	-39.8	-41.0	21.4	0.00e+00	90	34	0	140509184	52	6403
2026-01-07 00:31:15.41	164.84	9.33	-39.7	-40.9	21.6	0.00e+00	92	34	0	148897792	52	6333
2026-01-07 00:31:19.45	164.92	9.68	-39.4	-40.5	21.9	0.00e+00	0	34	0	156237824	52	6080
2026-01-07 00:31:23.48	164.99	10.03	-39.3	-40.4	22.0	0.00e+00	92	34	0	163577856	52	5994
2026-01-07 00:31:27.52	165.07	10.38	-39.1	-40.1	22.3	0.00e+00	91	34	0	170917888	52	5804
2026-01-07 00:31:31.56	165.15	10.74	-38.9	-39.9	22.5	0.00e+00	92	34	0	178257920	52	5687
2026-01-07 00:31:35.59	165.24	11.10	-39.0	-40.1	22.5	0.00e+00	13	34	0	186646528	52	5763
2026-01-07 00:31:39.63	165.32	11.47	-38.9	-39.8	22.6	0.00e+00	90	34	0	193986560	50	6317
2026-01-07 00:31:43.67	165.41	11.85	-38.5	-39.5	22.9	0.00e+00	90	34	0	201326592	50	6068
2026-01-07 00:31:47.71	165.49	12.23	-38.4	-39.3	23.1	0.00e+00	92	34	0	208666624	50	5952
2026-01-07 00:31:51.74	165.58	12.61	-38.4	-39.3	23.1	0.00e+00	69	34	0	217055232	50	5945
2026-01-07 00:31:55.78	165.68	13.01	-38.3	-39.2	23.2	0.00e+00	91	34	0	224395264	50	5889
2026-01-07 00:31:59.82	165.77	13.40	-38.2	-39.1	23.3	0.00e+00	91	34	0	231735296	50	5780
2026-01-07 00:32:03.86	165.87	13.81	-38.2	-39.1	23.4	0.00e+00	76	34	0	239075328	50	5821
2026-01-07 00:32:07.90	165.96	14.22	-38.2	-39.1	23.4	0.00e+00	0	34	0	246415360	50	5788
2026-01-07 00:32:11.93	166.07	14.64	-38.1	-39.0	23.4	0.00e+00	92	34	0	254803968	50	5748
2026-01-07 00:32:15.97	166.17	15.07	-38.2	-39.2	23.4	0.00e+00	92	34	0	262144000	50	5830
2026-01-07 00:32:20.01	166.27	15.50	-38.1	-39.0	23.5	0.00e+00	8	34	0	269484032	50	5711
2026-01-07 00:32:24.04	166.38	15.95	-38.0	-38.9	23.7	0.00e+00	0	34	0	276824064	50	5650
2026-01-07 00:32:28.08	166.50	16.40	-37.9	-38.8	23.7	0.00e+00	92	34	0	285212672	50	5575
2026-01-07 00:32:32.12	166.61	16.86	-37.8	-38.7	23.7	0.00e+00	92	34	0	292552704	50	5553
2026-01-07 00:32:36.16	166.73	17.32	-37.9	-38.8	23.8	0.00e+00	71	34	0	299892736	50	5568
2026-01-07 00:32:40.20	166.85	17.80	-37.8	-38.7	23.9	0.00e+00	92	34	0	307232768	50	5514
2026-01-07 00:32:44.24	166.97	18.29	-38.0	-38.9	23.7	0.00e+00	92	34	0	314572800	50	5660
2026-01-07 00:32:48.28	167.10	18.78	-38.0	-38.9	23.7	0.00e+00	91	34	0	322961408	50	5678
2026-01-07 00:32:52.32	167.23	19.29	-38.2	-39.1	23.5	0.00e+00	0	34	0	330301440	50	5803
2026-01-07 00:32:56.36	167.37	19.81	-38.3	-39.2	23.4	0.00e+00	90	34	0	337641472	50	5866
2026-01-07 00:33:00.39	167.51	20.33	-38.5	-39.4	23.3	0.00e+00	90	34	0	344981504	50	5983
2026-01-07 00:33:04.42	167.65	20.87	-38.6	-39.6	23.1	0.00e+00	91	34	0	353370112	50	6124
2026-01-07 00:33:08.46	167.80	21.42	-38.8	-39.8	23.0	0.00e+00	0	34	0	360710144	50	6256
2026-01-07 00:33:12.50	167.96	21.98	-38.9	-39.9	22.9	0.00e+00	92	34	0	368050176	50	6327
2026-01-07 00:33:16.53	168.12	22.56	-38.9	-39.9	22.9	0.00e+00	92	34	0	375390208	50	6329
2026-01-07 00:33:20.57	168.28	23.14	-39.0	-39.9	22.8	0.00e+00	90	34	0	382730240	50	6374
2026-01-07 00:33:24.61	168.45	23.74	-39.0	-39.9	22.8	0.00e+00	12	34	0	391118848	50	6379
2026-01-07 00:33:28.64	168.63	24.36	-38.9	-39.8	23.0	0.00e+00	92	34	0	398458880	50	6294
2026-01-07 00:33:32.68	168.81	24.99	-38.6	-39.6	23.2	0.00e+00	92	34	0	405798912	50	6107
2026-01-07 00:33:36.72	169.00	25.63	-38.5	-39.4	23.3	0.00e+00	92	34	0	413138944	50	5980
2026-01-07 00:33:40.76	169.20	26.29	-38.4	-39.3	23.4	0.00e+00	78	34	0	421527552	50	5958
2026-01-07 00:33:44.79	169.40	26.97	-38.5	-39.5	23.3	0.00e+00	90	34	0	428867584	50	6052
2026-01-07 00:33:48.83	169.62	27.66	-38.6	-39.6	23.3	0.00e+00	90	34	0	436207616	50	6122
2026-01-07 00:33:52.86	169.84	28.37	-39.0	-39.9	22.9	0.00e+00	92	34	0	443547648	50	6376
2026-01-07 00:33:56.90	170.07	29.10	-39.6	-40.6	22.3	0.00e+00	0	34	0	450887680	50	6874
2026-01-07 00:34:00.94	170.32	29.85	-40.0	-41.1	21.9	0.00e+00	92	34	0	459276288	52	6469
2026-01-07 00:34:04.98	170.57	30.62	-40.2	-41.3	21.7	0.00e+00	92	34	0	466616320	52	6656
2026-01-07 00:34:09.02	170.83	31.41	-40.6	-41.8	21.3	0.00e+00	92	34	0	473956352	52	7040
2026-01-07 00:34:13.05	171.11	32.21	-40.9	-42.1	21.0	0.00e+00	13	34	0	481296384	54	6517
2026-01-07 00:34:17.09	171.40	33.04	-39.9	-40.9	22.1	0.00e+00	91	34	0	488636416	54	5691
2026-01-07 00:34:21.13	171.71	33.90	-39.5	-40.5	22.5	0.00e+00	92	34	0	497025024	52	6071
2026-01-07 00:34:25.16	172.03	34.77	-38.8	-39.8	23.1	0.00e+00	92	34	0	504365056	52	5593
2026-01-07 00:34:29.20	172.37	35.67	-38.1	-38.9	23.9	0.00e+00	65	34	0	511705088	50	5671
2026-01-07 00:34:33.24	172.73	36.60	-37.7	-38.6	24.1	0.00e+00	92	34	0	519045120	48	6117
2026-01-07 00:34:37.28	173.10	37.55	-38.2	-39.1	23.6	0.00e+00	92	34	0	527433728	48	6474
2026-01-07 00:34:41.32	173.50	38.53	-38.3	-39.2	23.6	0.00e+00	92	34	0	534773760	48	6556
2026-01-07 00:34:45.35	173.93	39.53	-38.9	-39.8	23.0	0.00e+00	92	34	0	542113792	50	6295
2026-01-07 00:34:49.39	174.38	40.57	-39.1	-40.0	22.8	0.00e+00	91	34	0	549453824	50	6458
2026-01-07 00:34:53.43	174.86	41.63	-39.3	-40.3	22.6	0.00e+00	91	34	0	556793856	50	6617
2026-01-07 00:34:57.46	175.37	42.72	-39.1	-40.1	22.9	0.00e+00	61	34	0	565182464	50	6465
2026-01-07 00:35:01.50	175.91	43.84	-39.0	-40.0	22.8	0.00e+00	92	34	0	572522496	50	6424
2026-01-07 00:35:05.54	176.50	45.00	-39.8	-40.9	22.1	0.00e+00	92	34	0	579862528	52	6363
2026-01-07 00:35:09.57	177.13	46.18	-39.8	-40.9	22.2	0.00e+00	90	34	0	587202560	52	6321
2026-01-07 00:35:13.61	177.80	47.39	-39.7	-40.7	22.2	0.00e+00	0	34	0	595591168	52	6231
2026-01-07 00:35:17.66	178.54	48.64	-39.7	-40.8	22.2	0.00e+00	92	34	0	602931200	52	6276
2026-01-07 00:35:21.70	179.33	49.92	-38.6	-39.5	23.4	0.00e+00	92	34	0	610271232	50	6080
2026-01-07 00:35:25.73	180.19	51.22	-36.6	-37.4	25.1	0.00e+00	92	34	0	617611264	46	6024
2026-01-07 00:35:29.75	181.13	52.55	-35.7	-36.4	26.0	0.00e+00	4	34	0	624951296	44	5996
2026-01-07 00:35:33.79	182.15	53.92	-35.0	-35.7	26.4	0.00e+00	92	34	0	633339904	44	5513
2026-01-07 00:35:37.83	183.28	55.31	-35.2	-35.9	26.3	0.00e+00	92	34	0	640679936	44	5658
2026-01-07 00:35:41.86	184.53	56.73	-36.2	-36.9	25.4	0.00e+00	91	34	0	648019968	44	6380
2026-01-07 00:35:45.90	185.91	58.17	-36.4	-37.2	25.4	0.00e+00	0	34	0	655360000	46	5839
2026-01-07 00:35:49.94	187.44	59.63	-35.5	-36.3	26.0	0.00e+00	92	34	0	663748608	44	5911
2026-01-07 00:35:53.98	189.16	61.10	-34.8	-35.5	26.6	0.00e+00	92	34	0	671088640	44	5428
2026-01-07 00:35:58.01	191.09	62.58	-34.3	-35.0	26.9	0.00e+00	0	34	0	678428672	42	5761
2026-01-07 00:36:02.05	193.27	64.06	-35.0	-35.7	26.4	0.00e+00	0	34	0	685768704	42	6227
2026-01-07 00:36:06.09	195.75	65.54	-36.2	-37.0	25.4	0.00e+00	92	34	0	693108736	44	6408
2026-01-07 00:36:10.13	198.57	66.99	-39.6	-40.6	22.4	0.00e+00	92	34	0	701497344	50	6902
2026-01-07 00:36:14.17	201.81	68.42	-39.4	-40.4	22.6	0.00e+00	10	34	0	708837376	50	6746
2026-01-07 00:36:18.20	205.52	69.79	-38.6	-39.5	23.4	0.00e+00	58	34	0	716177408	50	6050
2026-01-07 00:36:22.24	209.81	71.09	-38.5	-39.4	23.4	0.00e+00	92	34	0	723517440	50	6013
2026-01-07 00:36:26.28	214.74	72.29	-40.0	-41.1	21.9	0.00e+00	90	34	0	731906048	52	6529
2026-01-07 00:36:30.32	220.39	73.36	-39.4	-40.5	22.5	0.00e+00	0	34	0	739246080	52	6057
2026-01-07 00:36:34.35	226.76	74.26	-39.3	-40.3	22.7	0.00e+00	90	34	0	746586112	50	6644
2026-01-07 00:36:38.39	233.86	74.96	-38.9	-39.9	22.9	0.00e+00	90	34	0	753926144	50	6360
2026-01-07 00:36:42.43	241.55	75.43	-39.2	-40.2	22.8	0.00e+00	0	34	0	761266176	50	6564
2026-01-07 00:36:46.47	249.61	75.62	-39.2	-40.2	22.7	0.00e+00	12	34	0	769654784	50	6604
2026-01-07 00:36:50.51	257.74	75.54	-39.8	-40.8	22.1	0.00e+00	90	34	0	776994816	50	7069
2026-01-07 00:36:54.54	265.60	75.19	-39.9	-40.9	21.9	0.00e+00	96	34	0	784334848	54	5674
2026-01-07 00:36:58.58	272.97	74.59	-41.9	-43.4	19.7	0.00e+00	16	34	0	791674880	58	5994
2026-01-07 00:37:02.62	279.67	73.77	-41.4	-42.7	20.6	0.00e+00	6	34	0	799014912	54	6992
2026-01-07 00:37:06.65	285.61	72.76	-41.1	-42.4	20.7	0.00e+00	91	35	0	807403520	54	6706
2026-01-07 00:37:10.68	290.82	71.62	-39.9	-40.9	22.2	0.00e+00	92	35	0	814743552	52	6389
2026-01-07 00:37:14.72	295.37	70.36	-39.9	-41.1	22.0	0.00e+00	82	35	0	822083584	52	6476
2026-01-07 00:37:18.76	299.33	69.02	-38.6	-39.5	23.3	0.00e+00	72	35	0	829423616	50	6058
2026-01-07 00:37:22.80	302.76	67.62	-39.2	-40.2	22.5	0.00e+00	92	35	0	837812224	50	6587
2026-01-07 00:37:26.84	305.75	66.18	-37.9	-38.8	23.8	0.00e+00	92	34	0	845152256	50	5571
2026-01-07 00:37:30.87	308.36	64.72	-35.5	-36.2	25.9	0.00e+00	0	34	0	852492288	44	5870
2026-01-07 00:37:34.91	310.66	63.24	-34.1	-34.8	27.1	0.00e+00	0	34	0	859832320	42	5608
2026-01-07 00:37:38.94	312.69	61.77	-35.1	-35.8	26.3	0.00e+00	90	35	0	867172352	42	6290
2026-01-07 00:37:42.98	314.50	60.29	-35.6	-36.4	26.1	0.00e+00	92	34	0	875560960	42	6716
2026-01-07 00:37:47.01	316.10	58.83	-38.8	-39.8	23.2	0.00e+00	0	34	0	882900992	52	5578
2026-01-07 00:37:51.05	317.55	57.39	-39.6	-40.7	22.2	0.00e+00	34	34	0	890241024	50	6977
2026-01-07 00:37:55.09	318.85	55.96	-36.0	-36.8	25.5	0.00e+00	92	34	0	897581056	46	5590
2026-01-07 00:37:59.13	320.03	54.56	-36.1	-36.8	25.6	0.00e+00	92	34	0	905969664	46	5629
2026-01-07 00:38:03.16	321.10	53.19	-35.1	-35.8	26.4	0.00e+00	0	34	0	913309696	42	6268
2026-01-07 00:38:07.20	322.07	51.85	-36.0	-36.8	25.6	0.00e+00	92	34	0	920649728	44	6262
2026-01-07 00:38:11.24	322.97	50.53	-38.9	-39.9	22.7	0.00e+00	91	34	0	927989760	48	7123
2026-01-07 00:38:15.27	323.79	49.25	-40.9	-42.2	21.0	0.00e+00	0	34	0	935329792	56	5844
2026-01-07 00:38:19.31	324.54	48.00	-40.2	-41.3	21.8	0.00e+00	0	34	0	943718400	52	6624
2026-01-07 00:38:23.35	325.24	46.77	-40.9	-42.2	21.1	0.00e+00	91	35	0	951058432	56	5860
2026-01-07 00:38:27.39	325.89	45.58	-38.1	-38.9	23.8	0.00e+00	92	34	0	958398464	50	5695
2026-01-07 00:38:31.43	326.50	44.42	-39.0	-40.0	22.9	0.00e+00	3	34	0	965738496	50	6421
2026-01-07 00:38:35.46	327.06	43.29	-38.2	-39.1	23.7	0.00e+00	5	34	0	973078528	50	5803
2026-01-07 00:38:39.49	327.59	42.19	-36.6	-37.4	25.1	0.00e+00	92	34	0	981467136	46	6015
2026-01-07 00:38:43.53	328.08	41.12	-40.8	-42.1	21.0	0.00e+00	92	34	0	988807168	54	6479
2026-01-07 00:38:47.56	328.54	40.08	-38.4	-39.3	23.7	0.00e+00	9	34	0	996147200	50	5960
2026-01-07 00:38:51.60	328.98	39.06	-38.1	-39.0	23.8	0.00e+00	11	34	0	1003487232	48	6391
2026-01-07 00:38:55.63	329.39	38.08	-40.1	-41.3	21.8	0.00e+00	92	34	0	1011875840	52	6671
2026-01-07 00:38:59.66	329.78	37.12	-37.7	-38.5	24.2	0.00e+00	12	34	0	1019215872	48	6083
2026-01-07 00:39:03.70	330.14	36.18	-37.2	-38.0	24.5	0.00e+00	78	34	0	1026555904	48	5722
2026-01-07 00:39:07.74	330.49	35.28	-38.5	-39.4	23.4	0.00e+00	63	34	0	1033895936	48	6730
2026-01-07 00:39:11.78	330.82	34.39	-39.5	-40.6	22.4	0.00e+00	92	34	0	1041235968	50	6871
2026-01-07 00:39:15.82	331.14	33.53	-39.8	-40.8	22.1	0.00e+00	3	34	0	1049624576	52	6304
2026-01-07 00:39:19.85	331.43	32.69	-38.9	-39.9	23.0	0.00e+00	2	34	0	1056964608	52	5635
2026-01-07 00:39:23.90	331.72	31.88	-39.2	-40.2	22.7	0.00e+00	0	34	0	1064304640	50	6594
2026-01-07 00:39:27.93	331.99	31.08	-39.9	-41.0	22.0	0.00e+00	90	34	0	1071644672	52	6432
2026-01-07 00:39:31.97	332.25	30.31	-39.9	-41.0	22.0	0.00e+00	76	35	0	1080033280	52	6399
2026-01-07 00:39:36.01	332.50	29.55	-39.8	-40.8	22.2	0.00e+00	0	35	0	1087373312	52	6312
2026-01-07 00:39:40.05	332.74	28.82	-38.6	-39.6	23.2	0.00e+00	92	35	0	1094713344	50	6115
2026-01-07 00:39:44.08	332.97	28.10	-37.6	-38.4	24.2	0.00e+00	40	34	0	1102053376	48	6013
2026-01-07 00:39:48.11	333.18	27.41	-37.0	-37.8	24.8	0.00e+00	76	34	0	1109393408	48	5575
2026-01-07 00:39:52.15	333.40	26.73	-37.3	-38.1	24.5	0.00e+00	77	34	0	1117782016	48	5816
2026-01-07 00:39:56.18	333.60	26.06	-37.6	-38.5	24.1	0.00e+00	92	34	0	1125122048	48	6057
2026-01-07 00:40:00.22	333.79	25.41	-37.6	-38.4	24.2	0.00e+00	33	34	0	1132462080	48	6028
2026-01-07 00:40:04.26	333.98	24.78	-36.9	-37.7	24.8	0.00e+00	0	34	0	1139802112	48	5552
2026-01-07 00:40:08.30	334.16	24.16	-36.6	-37.4	25.0	0.00e+00	0	34	0	1148190720	46	6020
2026-01-07 00:40:12.34	334.34	23.55	-36.5	-37.3	25.0	0.00e+00	90	34	0	1155530752	46	5964
2026-01-07 00:40:16.37	334.51	22.96	-36.6	-37.4	24.9	0.00e+00	6	34	0	1162870784	46	6019
2026-01-07 00:40:20.41	334.67	22.38	-36.6	-37.4	24.5	0.00e+00	5	34	0	1170210816	46	6033
2026-01-07 00:40:24.45	334.83	21.82	-36.7	-37.6	24.8	0.00e+00	6	35	0	1177550848	46	6112
2026-01-07 00:40:28.49	334.98	21.26	-36.9	-37.8	24.6	0.00e+00	92	35	0	1185939456	46	6261
2026-01-07 00:40:32.52	335.13	20.72	-37.0	-37.8	24.6	0.00e+00	0	35	0	1193279488	46	6287
2026-01-07 00:40:36.56	335.27	20.19	-36.9	-37.7	24.7	0.00e+00	73	35	0	1200619520	46	6202
2026-01-07 00:40:40.61	335.41	19.67	-36.9	-37.7	24.7	0.00e+00	12	35	0	1207959552	46	6216
2026-01-07 00:40:44.65	335.55	19.16	-37.1	-38.0	24.4	0.00e+00	90	35	0	1216348160	46	6396
2026-01-07 00:40:48.68	335.68	18.66	-37.1	-38.0	24.4	0.00e+00	74	35	0	1223688192	46	6405
2026-01-07 00:40:52.72	335.81	18.18	-37.3	-38.1	24.4	0.00e+00	0	34	0	1231028224	46	6517
2026-01-07 00:40:56.76	335.94	17.70	-37.4	-38.3	24.2	0.00e+00	0	35	0	1238368256	46	6654
2026-01-07 00:41:00.79	336.06	17.23	-37.5	-38.3	24.1	0.00e+00	92	35	0	1245708288	46	6689
2026-01-07 00:41:04.82	336.18	16.77	-37.6	-38.4	24.0	0.00e+00	0	35	0	1254096896	46	6739
2026-01-07 00:41:08.86	336.29	16.31	-37.4	-38.3	24.1	0.00e+00	0	34	0	1261436928	46	6644
2026-01-07 00:41:12.89	336.40	15.87	-37.6	-38.5	23.9	0.00e+00	73	35	0	1268776960	48	6041
2026-01-07 00:41:16.92	336.51	15.43	-37.5	-38.3	24.1	0.00e+00	90	34	0	1276116992	48	5943
2026-01-07 00:41:20.96	336.62	15.00	-37.6	-38.5	23.8	0.00e+00	72	35	0	1283457024	48	6053
2026-01-07 00:41:24.99	336.72	14.58	-37.7	-38.6	23.8	0.00e+00	0	35	0	1291845632	48	6132
2026-01-07 00:41:29.03	336.83	14.17	-37.9	-38.8	23.7	0.00e+00	91	35	0	1299185664	48	6248
2026-01-07 00:41:33.07	336.93	13.76	-37.9	-38.8	23.7	0.00e+00	18	35	0	1306525696	48	6248
2026-01-07 00:41:37.10	337.02	13.36	-38.0	-38.9	23.5	0.00e+00	0	35	0	1313865728	48	6380
2026-01-07 00:41:41.14	337.12	12.96	-38.2	-39.1	23.3	0.00e+00	67	35	0	1322254336	48	6524
2026-01-07 00:41:45.17	337.21	12.58	-38.2	-39.1	23.3	0.00e+00	92	35	0	1329594368	48	6524
2026-01-07 00:41:49.21	337.30	12.19	-38.2	-39.1	23.2	0.00e+00	0	35	0	1336934400	48	6532
2026-01-07 00:41:53.25	337.39	11.82	-38.3	-39.2	23.2	0.00e+00	0	35	0	1344274432	48	6606
2026-01-07 00:41:57.28	337.48	11.45	-38.3	-39.2	23.2	0.00e+00	70	34	0	1351614464	48	6573
2026-01-07 00:42:01.32	337.57	11.08	-38.2	-39.2	23.1	0.00e+00	92	35	0	1360003072	48	6575
2026-01-07 00:42:05.35	337.65	10.72	-38.2	-39.1	23.2	0.00e+00	69	35	0	1367343104	48	6502
2026-01-07 00:42:09.39	337.73	10.37	-38.3	-39.2	23.0	0.00e+00	7	34	0	1374683136	48	6603
2026-01-07 00:42:13.43	337.82	10.02	-38.2	-39.2	23.0	0.00e+00	5	34	0	1382023168	48	6558
2026-01-07 00:42:17.47	337.90	9.67	-38.4	-39.4	22.9	0.00e+00	92	35	0	1389363200	48	6698
2026-01-07 00:42:21.51	337.97	9.33	-38.4	-39.4	22.9	0.00e+00	0	35	0	1397751808	48	6698
2026-01-07 00:42:25.55	338.05	8.99	-38.5	-39.5	22.7	0.00e+00	5	35	0	1405091840	48	6839
2026-01-07 00:42:29.58	338.13	8.66	-38.7	-39.8	22.5	0.00e+00	17	35	0	1412431872	50	6256
2026-01-07 00:42:33.62	338.20	8.34	-38.8	-39.8	22.4	0.00e+00	92	35	0	1419771904	50	6293
2026-01-07 00:42:37.66	338.27	8.01	-39.0	-40.1	22.2	0.00e+00	6	34	0	1428160512	50	6469
2026-01-07 00:42:41.69	338.35	7.70	-39.0	-40.1	22.1	0.00e+00	63	35	0	1435500544	50	6492
2026-01-07 00:42:45.73	338.42	7.38	-39.1	-40.2	21.9	0.00e+00	0	35	0	1442840576	50	6604
2026-01-07 00:42:49.76	338.49	7.07	-39.3	-40.4	21.7	0.00e+00	92	35	0	1450180608	50	6754
2026-01-07 00:42:53.79	338.56	6.76	-39.4	-40.6	21.5	0.00e+00	14	35	0	1457520640	50	6893
2026-01-07 00:42:57.83	338.62	6.46	-39.6	-40.8	21.0	0.00e+00	0	35	0	1465909248	50	7064
2026-01-07 00:43:01.87	338.69	6.16	-39.4	-40.5	21.2	0.00e+00	12	35	0	1473249280	50	6818
2026-01-07 00:43:05.91	338.76	5.86	-39.7	-40.9	21.0	0.00e+00	62	35	0	1480589312	50	7113
2026-01-07 00:43:09.94	338.82	5.57	-40.1	-41.4	20.3	0.00e+00	20	35	0	1487929344	52	6721
2026-01-07 00:43:13.98	338.88	5.28	-40.8	-42.5	18.6	0.00e+00	2	35	0	1496317952	54	6788
2026-01-07 00:43:18.02	338.95	4.99	-42.0	-44.4	16.2	0.00e+00	92	35	0	1503657984	56	7515
2026-01-07 00:43:22.05	339.01	4.71	-43.1	-46.9	12.7	2.36e-05	0	35	0	1510998016	58	8979
2026-01-07 00:43:26.09	339.07	4.43	-44.0	-50.2	8.3	3.39e-02	0	35	0	1518338048	60	11738
2026-01-07 00:43:30.13	339.13	4.15	-44.2	-53.0	4.7	5.47e-01	0	35	0	1525678080	60	16093
2026-01-07 00:43:34.17	339.19	3.87	-44.2	-57.3	3.7	1.50e+00	0	35	104	1529872384	60	26485
2026-01-07 00:43:38.20	339.25	3.60	-44.2	-59.0	3.6	1.51e+00	0	35	104	1529872384	60	32184
2026-01-07 00:43:42.24	339.31	3.33	-44.4	-59.4	3.6	1.51e+00	0	35	104	1529872384	60	33797
2026-01-07 00:43:46.28	339.36	3.06	-44.3	-59.4	3.6	1.51e+00	0	35	104	1529872384	60	33662
2026-01-07 00:43:50.31	339.42	2.80	-48.9	-64.1	3.6	1.51e+00	0	35	104	1529872384	60	58002
2026-01-07 00:43:54.35	339.48	2.54	-49.2	-64.4	3.6	1.51e+00	0	35	104	1529872384	60	60189
2026-01-07 00:43:58.39	339.53	2.28	-49.1	-64.5	3.6	1.51e+00	0	35	104	1529872384	60	60357
2026-01-07 00:44:02.43	339.59	2.02	-49.3	-64.5	3.6	1.51e+00	0	35	104	1529872384	60	60353
2026-01-07 00:44:06.47	339.64	1.77	-49.1	-64.3	3.6	1.51e+00	0	35	104	1529872384	60	59604
2026-01-07 00:44:10.51	339.69	1.51	-49.1	-64.3	3.6	1.51e+00	0	35	104	1529872384	60	59345
2026-01-07 00:44:14.55	339.75	1.26	-49.1	-64.3	3.6	1.51e+00	0	35	104	1529872384	60	59625
2026-01-07 00:44:18.59	339.80	1.01	-49.1	-64.3	3.6	1.51e+00	0	35	104	1529872384	60	59271
2026-01-07 00:44:22.62	339.85	0.77	-49.1	-64.3	3.6	1.51e+00	0	35	104	1529872384	60	59349
2026-01-07 00:44:26.66	339.90	0.52	-49.1	-64.3	3.6	1.51e+00	0	35	104	1529872384	60	59148
2026-01-07 00:44:30.70	339.95	0.28	-49.1	-64.3	3.6	1.51e+00	0	35	104	1529872384	60	59299
2026-01-07 00:44:34.75	340.00	0.04	-49.1	-64.4	3.6	1.51e+00	0	35	104	1529872384	60	59740

#Closed at: 2026-01-07 00:44:37
#Recorded file [1529 MB]: D:/lorett/data/35029_260107_122906.dat