passes_logs/2026/01/07/R4.6S_Anadyr/R4.6S_Anadyr__20260107_010909_FENGYUN_3D_rec.log

#Pass ID: 20260107_010909_FENGYUN 3D
#Satellite: FENGYUN 3D
#Configuration: FENGYUN 3D
#almurnet v.1.7.20251203
#Start time: 2026-01-07 01:09:13

#Version: 2.2.20231116
#Station: R4.6S_Anadyr
#Location: 177.4865 lon 64.73178 lat
#TLE: 1 43010U 17072A   26005.48915933 -.00000051  00000+0 -21983-5 0  9995
#TLE: 2 43010  98.9919 337.1582 0002001 124.6377 235.4988 14.19691925421909

#Time	Az	El	Level	Level2	SNR	BER	BlckErr	Temp	State	Recorded	gain1	gain2
2026-01-07 01:09:13.05	129.40	0.20	-49.1	-59.7	3.3	8.40e-01	0	33	0	0	60	35099
2026-01-07 01:09:17.08	129.29	0.44	-49.2	-61.3	3.6	8.45e-01	0	33	104	0	60	41843
2026-01-07 01:09:21.12	129.19	0.68	-49.0	-61.1	3.6	8.46e-01	0	33	104	0	60	40973
2026-01-07 01:09:25.16	129.08	0.93	-48.3	-60.4	3.6	8.45e-01	0	33	104	0	60	37778
2026-01-07 01:09:29.20	128.97	1.17	-47.4	-59.7	3.6	8.45e-01	0	33	104	0	60	34954
2026-01-07 01:09:33.24	128.86	1.42	-47.4	-59.7	3.6	8.45e-01	0	34	104	0	60	34743
2026-01-07 01:09:37.28	128.74	1.67	-47.4	-59.7	3.6	8.46e-01	0	33	104	0	60	34724
2026-01-07 01:09:41.32	128.62	1.92	-47.4	-59.6	3.6	8.45e-01	0	34	104	0	60	34561
2026-01-07 01:09:45.36	128.50	2.17	-47.4	-59.4	3.6	8.45e-01	0	34	104	0	60	33788
2026-01-07 01:09:49.40	128.38	2.43	-47.4	-59.7	3.6	8.45e-01	0	34	104	0	60	35056
2026-01-07 01:09:53.44	128.26	2.69	-47.4	-59.5	3.6	8.46e-01	0	34	104	0	60	34135
2026-01-07 01:09:57.48	128.13	2.95	-47.4	-58.7	3.6	8.44e-01	0	34	104	0	60	31289
2026-01-07 01:10:01.52	128.00	3.21	-47.1	-56.4	4.0	8.41e-01	0	34	104	0	60	23805
2026-01-07 01:10:05.56	127.87	3.48	-43.3	-45.6	13.2	1.06e-04	0	34	0	17825792	60	6854
2026-01-07 01:10:09.59	127.74	3.74	-47.8	-59.9	3.6	8.46e-01	0	34	104	34603008	60	35866
2026-01-07 01:10:13.63	127.60	4.01	-41.9	-43.7	6.0	8.45e-01	0	34	104	40894464	60	5552
2026-01-07 01:10:17.67	127.46	4.29	-38.4	-39.4	19.5	0.00e+00	0	34	0	57671680	48	6719
2026-01-07 01:10:21.71	127.32	4.56	-36.7	-37.6	21.3	0.00e+00	0	34	0	80740352	46	6140
2026-01-07 01:10:25.75	127.17	4.84	-35.6	-36.4	22.5	0.00e+00	0	34	0	102760448	44	5971
2026-01-07 01:10:29.79	127.02	5.12	-35.3	-36.1	22.8	0.00e+00	0	34	0	125829120	44	5763
2026-01-07 01:10:33.83	126.87	5.40	-35.3	-36.0	22.8	0.00e+00	0	34	0	148897792	44	5748
2026-01-07 01:10:37.87	126.72	5.69	-35.1	-35.9	23.1	0.00e+00	0	34	0	170917888	44	5631
2026-01-07 01:10:41.91	126.56	5.98	-34.9	-35.7	23.3	0.00e+00	0	34	0	193986560	44	5507
2026-01-07 01:10:45.94	126.40	6.27	-34.8	-35.6	23.4	0.00e+00	0	34	0	217055232	44	5459
2026-01-07 01:10:49.98	126.23	6.57	-34.7	-35.5	23.5	0.00e+00	0	34	0	239075328	42	6071
2026-01-07 01:10:54.02	126.06	6.86	-34.8	-35.5	23.5	0.00e+00	0	34	0	262144000	42	6090
2026-01-07 01:10:58.05	125.89	7.17	-34.6	-35.4	23.6	0.00e+00	0	34	0	284164096	42	5968
2026-01-07 01:11:02.09	125.72	7.47	-34.7	-35.4	23.7	0.00e+00	0	34	0	307232768	42	5999
2026-01-07 01:11:06.13	125.54	7.78	-34.7	-35.4	23.7	0.00e+00	0	34	0	330301440	42	6028
2026-01-07 01:11:10.17	125.35	8.09	-34.7	-35.4	23.7	0.00e+00	0	34	0	353370112	42	6020
2026-01-07 01:11:14.21	125.16	8.41	-34.6	-35.3	23.8	0.00e+00	0	34	0	375390208	42	5939
2026-01-07 01:11:18.25	124.97	8.73	-34.7	-35.4	23.8	0.00e+00	0	34	0	398458880	42	6023
2026-01-07 01:11:22.28	124.77	9.05	-34.5	-35.2	24.0	0.00e+00	0	34	0	421527552	42	5865
2026-01-07 01:11:26.32	124.57	9.38	-34.4	-35.1	24.1	0.00e+00	0	34	0	443547648	42	5824
2026-01-07 01:11:30.37	124.36	9.71	-34.4	-35.1	24.2	0.00e+00	0	34	0	466616320	42	5763
2026-01-07 01:11:34.41	124.15	10.04	-34.2	-34.9	24.3	0.00e+00	0	34	0	488636416	42	5694
2026-01-07 01:11:38.45	123.93	10.38	-34.0	-34.7	24.5	0.00e+00	0	34	0	511705088	42	5556
2026-01-07 01:11:42.48	123.71	10.72	-33.9	-34.6	24.6	0.00e+00	0	34	0	534773760	42	5489
2026-01-07 01:11:46.52	123.48	11.07	-33.7	-34.4	24.8	0.00e+00	0	34	0	557842432	40	6000
2026-01-07 01:11:50.56	123.25	11.42	-33.7	-34.4	24.9	0.00e+00	0	34	0	579862528	40	5971
2026-01-07 01:11:54.60	123.01	11.78	-33.6	-34.2	25.0	0.00e+00	0	34	0	602931200	40	5882
2026-01-07 01:11:58.64	122.76	12.14	-33.6	-34.3	25.0	0.00e+00	0	34	0	625999872	40	5903
2026-01-07 01:12:02.68	122.51	12.51	-33.6	-34.2	25.1	0.00e+00	0	34	0	648019968	40	5886
2026-01-07 01:12:06.71	122.25	12.88	-33.3	-34.0	25.2	0.00e+00	0	34	0	671088640	40	5727
2026-01-07 01:12:10.75	121.98	13.26	-33.2	-33.9	25.4	0.00e+00	0	34	0	693108736	40	5673
2026-01-07 01:12:14.79	121.71	13.64	-33.2	-33.9	25.4	0.00e+00	0	34	0	716177408	40	5666
2026-01-07 01:12:18.83	121.42	14.03	-33.1	-33.8	25.4	0.00e+00	0	34	0	739246080	40	5583
2026-01-07 01:12:22.86	121.13	14.42	-32.9	-33.5	25.7	0.00e+00	0	34	0	762314752	40	5432
2026-01-07 01:12:26.90	120.84	14.82	-33.0	-33.7	25.6	0.00e+00	0	34	0	784334848	40	5521
2026-01-07 01:12:30.94	120.53	15.22	-32.8	-33.5	25.8	0.00e+00	0	34	0	807403520	38	6093
2026-01-07 01:12:34.98	120.22	15.63	-32.6	-33.3	26.0	0.00e+00	0	34	0	830472192	38	5912
2026-01-07 01:12:39.02	119.89	16.05	-32.4	-33.1	26.1	0.00e+00	0	34	0	852492288	38	5807
2026-01-07 01:12:43.06	119.56	16.47	-32.1	-32.8	26.4	0.00e+00	0	34	0	875560960	38	5575
2026-01-07 01:12:47.09	119.22	16.90	-32.0	-32.7	26.5	0.00e+00	0	34	0	897581056	38	5534
2026-01-07 01:12:51.14	118.86	17.34	-32.3	-32.9	26.4	0.00e+00	0	34	0	920649728	38	5691
2026-01-07 01:12:55.17	118.50	17.78	-32.1	-32.8	26.4	0.00e+00	0	34	0	943718400	38	5574
2026-01-07 01:12:59.21	118.12	18.23	-31.9	-32.6	26.6	0.00e+00	0	34	0	965738496	38	5458
2026-01-07 01:13:03.25	117.74	18.68	-31.8	-32.4	26.7	0.00e+00	0	34	0	988807168	36	6026
2026-01-07 01:13:07.28	117.34	19.14	-31.6	-32.3	26.9	0.00e+00	0	34	0	1011875840	36	5919
2026-01-07 01:13:11.32	116.92	19.61	-31.6	-32.3	26.9	0.00e+00	0	34	0	1034944512	36	5910
2026-01-07 01:13:15.36	116.50	20.09	-31.5	-32.1	27.0	0.00e+00	0	34	0	1056964608	36	5796
2026-01-07 01:13:19.39	116.06	20.58	-31.4	-32.0	27.1	0.00e+00	0	34	0	1080033280	36	5731
2026-01-07 01:13:23.43	115.61	21.07	-31.0	-31.6	27.4	0.00e+00	0	34	0	1102053376	36	5476
2026-01-07 01:13:27.47	115.14	21.57	-31.1	-31.7	27.3	0.00e+00	0	34	0	1125122048	36	5565
2026-01-07 01:13:31.51	114.65	22.08	-31.1	-31.8	27.3	0.00e+00	0	34	0	1148190720	36	5580
2026-01-07 01:13:35.55	114.15	22.59	-31.2	-31.8	27.3	0.00e+00	0	34	0	1170210816	36	5619
2026-01-07 01:13:39.59	113.63	23.12	-30.8	-31.5	27.6	0.00e+00	0	34	0	1193279488	34	6059
2026-01-07 01:13:43.63	113.09	23.65	-30.8	-31.4	27.5	0.00e+00	0	34	0	1216348160	34	5976
2026-01-07 01:13:47.67	112.54	24.19	-31.0	-31.7	27.4	0.00e+00	0	34	0	1239416832	34	6187
2026-01-07 01:13:51.71	111.96	24.74	-30.5	-31.2	27.7	0.00e+00	0	34	0	1261436928	34	5831
2026-01-07 01:13:55.75	111.36	25.30	-30.4	-31.0	28.0	0.00e+00	0	34	0	1284505600	34	5715
2026-01-07 01:13:59.78	110.75	25.86	-30.3	-30.9	28.0	0.00e+00	0	34	0	1306525696	34	5655
2026-01-07 01:14:03.82	110.10	26.44	-30.6	-31.2	27.8	0.00e+00	0	34	0	1329594368	34	5874
2026-01-07 01:14:07.86	109.44	27.02	-30.3	-31.0	28.0	0.00e+00	0	34	0	1352663040	34	5697
2026-01-07 01:14:11.90	108.75	27.61	-30.3	-30.9	28.0	0.00e+00	0	34	0	1374683136	34	5677
2026-01-07 01:14:15.93	108.03	28.21	-30.3	-30.9	28.0	0.00e+00	0	34	0	1397751808	34	5687
2026-01-07 01:14:19.97	107.28	28.81	-30.2	-30.8	28.1	0.00e+00	0	35	0	1420820480	34	5607
2026-01-07 01:14:24.01	106.51	29.43	-30.2	-30.8	28.2	0.00e+00	0	34	0	1442840576	34	5587
2026-01-07 01:14:28.04	105.70	30.04	-30.3	-30.9	28.1	0.00e+00	0	34	0	1465909248	34	5663
2026-01-07 01:14:32.09	104.86	30.67	-29.9	-30.5	28.4	0.00e+00	0	35	0	1488977920	32	6075
2026-01-07 01:14:36.12	103.99	31.31	-29.9	-30.5	28.2	0.00e+00	0	34	0	1510998016	32	6090
2026-01-07 01:14:40.16	103.09	31.95	-30.0	-30.6	28.2	0.00e+00	0	34	0	1534066688	32	6116
2026-01-07 01:14:44.19	102.15	32.59	-29.9	-30.5	28.3	0.00e+00	0	35	0	1557135360	32	6060
2026-01-07 01:14:48.23	101.16	33.24	-29.7	-30.3	28.5	0.00e+00	0	34	0	1579155456	32	5933
2026-01-07 01:14:52.27	100.14	33.89	-29.9	-30.5	28.3	0.00e+00	0	34	0	1602224128	32	6071
2026-01-07 01:14:56.31	99.07	34.55	-29.8	-30.4	28.4	0.00e+00	0	34	0	1625292800	32	6005
2026-01-07 01:15:00.34	97.97	35.21	-29.7	-30.3	28.6	0.00e+00	0	34	0	1647312896	32	5949
2026-01-07 01:15:04.38	96.81	35.87	-29.5	-30.2	28.7	0.00e+00	0	34	0	1670381568	32	5840
2026-01-07 01:15:08.42	95.60	36.53	-29.8	-30.5	28.4	0.00e+00	0	35	0	1693450240	32	6034
2026-01-07 01:15:12.46	94.35	37.19	-29.7	-30.4	28.5	0.00e+00	0	34	0	1715470336	32	5965
2026-01-07 01:15:16.50	93.04	37.84	-29.8	-30.4	28.4	0.00e+00	0	34	0	1738539008	32	6019
2026-01-07 01:15:20.54	91.68	38.49	-29.9	-30.5	28.4	0.00e+00	0	34	0	1761607680	32	6049
2026-01-07 01:15:24.58	90.27	39.13	-29.9	-30.6	28.2	0.00e+00	0	34	0	1783627776	32	6115
2026-01-07 01:15:28.61	88.80	39.76	-30.0	-30.6	28.3	0.00e+00	0	34	0	1806696448	32	6119
2026-01-07 01:15:32.65	87.27	40.38	-29.8	-30.5	28.4	0.00e+00	0	34	0	1829765120	32	6040
2026-01-07 01:15:36.68	85.69	40.99	-29.9	-30.5	28.4	0.00e+00	0	34	0	1851785216	32	6076
2026-01-07 01:15:40.72	84.04	41.58	-29.7	-30.3	28.6	0.00e+00	0	34	0	1874853888	32	5907
2026-01-07 01:15:44.76	82.32	42.16	-29.6	-30.3	28.6	0.00e+00	0	34	0	1897922560	32	5904
2026-01-07 01:15:48.80	80.55	42.71	-29.6	-30.2	28.6	0.00e+00	0	34	0	1919942656	32	5866
2026-01-07 01:15:52.83	78.72	43.24	-29.3	-29.9	28.8	0.00e+00	0	34	0	1943011328	32	5678
2026-01-07 01:15:56.87	76.83	43.74	-29.4	-30.0	28.8	0.00e+00	0	34	0	1966080000	32	5711
2026-01-07 01:16:00.91	74.88	44.21	-29.9	-30.6	28.4	0.00e+00	0	34	0	1988100096	32	6114
2026-01-07 01:16:04.95	72.87	44.65	-29.5	-30.1	28.7	0.00e+00	0	34	0	2011168768	32	5812
2026-01-07 01:16:08.99	70.81	45.05	-29.7	-30.3	28.5	0.00e+00	0	34	0	2034237440	32	5908
2026-01-07 01:16:13.03	68.70	45.41	-29.8	-30.4	28.5	0.00e+00	0	34	0	2056257536	32	6003
2026-01-07 01:16:17.06	66.55	45.74	-30.0	-30.6	28.3	0.00e+00	0	34	0	2079326208	32	6151
2026-01-07 01:16:21.10	64.35	46.01	-29.8	-30.4	28.5	0.00e+00	0	34	0	2101346304	32	5996
2026-01-07 01:16:25.14	62.11	46.25	-29.5	-30.2	28.6	0.00e+00	0	34	0	2124414976	32	5835
2026-01-07 01:16:29.18	59.84	46.43	-29.8	-30.4	28.5	0.00e+00	0	34	0	2147483648	32	6024
2026-01-07 01:16:33.22	57.56	46.57	-29.6	-30.3	28.5	0.00e+00	0	34	0	2170552320	32	5919
2026-01-07 01:16:37.26	55.25	46.65	-29.6	-30.2	28.5	0.00e+00	0	35	0	2192572416	32	5848
2026-01-07 01:16:41.29	52.94	46.69	-29.5	-30.1	28.7	0.00e+00	0	34	0	2215641088	32	5769
2026-01-07 01:16:45.33	50.63	46.67	-29.6	-30.2	28.5	0.00e+00	0	34	0	2238709760	32	5891
2026-01-07 01:16:49.37	48.32	46.60	-29.7	-30.4	28.2	0.00e+00	0	35	0	2260729856	32	5969
2026-01-07 01:16:53.41	46.03	46.48	-29.7	-30.3	28.6	0.00e+00	0	34	0	2283798528	32	5906
2026-01-07 01:16:57.45	43.75	46.31	-29.7	-30.3	28.5	0.00e+00	0	34	0	2305818624	32	5946
2026-01-07 01:17:01.50	41.50	46.10	-29.8	-30.4	28.4	0.00e+00	0	34	0	2328887296	32	6022
2026-01-07 01:17:05.53	39.30	45.83	-29.3	-29.9	28.8	0.00e+00	0	34	0	2351955968	32	5672
2026-01-07 01:17:09.57	37.13	45.53	-29.4	-30.0	28.8	0.00e+00	0	34	0	2375024640	32	5736
2026-01-07 01:17:13.61	35.00	45.18	-29.5	-30.1	28.7	0.00e+00	0	34	0	2397044736	32	5816
2026-01-07 01:17:17.65	32.92	44.79	-29.3	-29.9	28.7	0.00e+00	0	34	0	2420113408	32	5656
2026-01-07 01:17:21.69	30.90	44.36	-29.3	-29.8	28.8	0.00e+00	0	34	0	2443182080	32	5595
2026-01-07 01:17:25.72	28.94	43.90	-29.1	-29.7	28.9	0.00e+00	0	34	0	2465202176	32	5505
2026-01-07 01:17:29.76	27.03	43.41	-29.2	-29.8	28.7	0.00e+00	0	34	0	2488270848	32	5580
2026-01-07 01:17:33.80	25.18	42.89	-29.3	-29.9	28.7	0.00e+00	0	35	0	2510290944	32	5652
2026-01-07 01:17:37.84	23.39	42.35	-29.0	-29.6	29.0	0.00e+00	0	35	0	2533359616	32	5493
2026-01-07 01:17:41.88	21.66	41.78	-29.2	-29.8	28.9	0.00e+00	0	34	0	2556428288	32	5593
2026-01-07 01:17:45.91	20.00	41.20	-29.1	-29.8	28.8	0.00e+00	0	34	0	2579496960	32	5574
2026-01-07 01:17:49.95	18.39	40.60	-29.2	-29.8	28.7	0.00e+00	0	34	0	2601517056	32	5572
2026-01-07 01:17:53.99	16.85	39.98	-29.6	-30.2	28.6	0.00e+00	0	34	0	2624585728	32	5849
2026-01-07 01:17:58.03	15.36	39.35	-29.4	-29.9	28.8	0.00e+00	0	34	0	2647654400	32	5655
2026-01-07 01:18:02.08	13.92	38.71	-29.3	-29.8	28.8	0.00e+00	0	34	0	2669674496	32	5607
2026-01-07 01:18:06.12	12.55	38.07	-29.2	-29.8	28.8	0.00e+00	0	35	0	2692743168	32	5628
2026-01-07 01:18:10.16	11.23	37.42	-29.0	-29.7	28.9	0.00e+00	0	35	0	2715811840	32	5522
2026-01-07 01:18:14.20	9.96	36.76	-29.0	-29.6	28.8	0.00e+00	0	35	0	2737831936	32	5461
2026-01-07 01:18:18.24	8.74	36.11	-29.1	-29.8	28.1	0.00e+00	0	34	0	2760900608	32	5570
2026-01-07 01:18:22.28	7.58	35.45	-29.2	-29.9	28.7	0.00e+00	0	35	0	2783969280	32	5645
2026-01-07 01:18:26.32	6.45	34.79	-29.2	-29.7	28.8	0.00e+00	0	35	0	2805989376	32	5529
2026-01-07 01:18:30.36	5.38	34.13	-29.4	-29.9	28.8	0.00e+00	0	34	0	2829058048	32	5666
2026-01-07 01:18:34.41	4.34	33.48	-29.2	-29.7	28.8	0.00e+00	0	34	0	2852126720	32	5528
2026-01-07 01:18:38.44	3.35	32.83	-29.6	-30.1	28.6	0.00e+00	0	35	0	2874146816	32	5790
2026-01-07 01:18:42.48	2.39	32.19	-29.3	-30.0	28.8	0.00e+00	0	35	0	2897215488	32	5722
2026-01-07 01:18:46.52	1.48	31.55	-29.2	-29.7	28.8	0.00e+00	0	34	0	2920284160	32	5528
2026-01-07 01:18:50.56	0.60	30.91	-29.2	-29.9	28.8	0.00e+00	0	34	0	2942304256	32	5666
2026-01-07 01:18:54.60	359.75	30.29	-29.5	-30.0	28.6	0.00e+00	0	35	0	2965372928	32	5729
2026-01-07 01:18:58.64	358.94	29.66	-29.9	-30.4	28.3	0.00e+00	0	34	0	2988441600	32	6016
2026-01-07 01:19:02.68	358.15	29.05	-29.7	-30.4	28.4	0.00e+00	0	34	0	3010461696	32	5995
2026-01-07 01:19:06.73	357.40	28.44	-29.7	-30.2	28.4	0.00e+00	0	34	0	3033530368	32	5882
2026-01-07 01:19:10.76	356.68	27.85	-29.6	-30.1	28.5	0.00e+00	0	34	0	3056599040	32	5822
2026-01-07 01:19:14.80	355.98	27.25	-29.9	-30.5	28.2	0.00e+00	0	34	0	3078619136	32	6050
2026-01-07 01:19:18.84	355.31	26.67	-29.8	-30.5	28.2	0.00e+00	0	34	0	3101687808	32	6090
2026-01-07 01:19:22.88	354.66	26.10	-29.8	-30.3	28.3	0.00e+00	0	34	0	3124756480	32	5957
2026-01-07 01:19:26.91	354.04	25.53	-29.8	-30.5	28.3	0.00e+00	0	34	0	3146776576	32	6051
2026-01-07 01:19:30.95	353.44	24.97	-29.8	-30.5	28.3	0.00e+00	0	34	0	3169845248	32	6071
2026-01-07 01:19:34.99	352.85	24.42	-29.9	-30.4	28.2	0.00e+00	0	35	0	3192913920	32	6009
2026-01-07 01:19:39.03	352.29	23.88	-30.0	-30.7	28.1	0.00e+00	0	35	0	3214934016	32	6195
2026-01-07 01:19:43.06	351.75	23.35	-30.1	-30.8	28.1	0.00e+00	0	35	0	3238002688	32	6264
2026-01-07 01:19:47.10	351.23	22.82	-30.2	-30.7	28.1	0.00e+00	0	34	0	3261071360	32	6243
2026-01-07 01:19:51.14	350.73	22.31	-30.5	-31.2	27.8	0.00e+00	0	34	0	3283091456	32	6563
2026-01-07 01:19:55.18	350.24	21.80	-30.5	-31.0	27.7	0.00e+00	0	34	0	3306160128	32	6454
2026-01-07 01:19:59.22	349.77	21.29	-30.4	-31.1	27.8	0.00e+00	0	34	0	3329228800	34	5783
2026-01-07 01:20:03.27	349.31	20.80	-30.5	-31.0	27.8	0.00e+00	0	34	0	3351248896	34	5746
2026-01-07 01:20:07.30	348.87	20.31	-30.6	-31.1	27.7	0.00e+00	0	34	0	3374317568	34	5807
2026-01-07 01:20:11.34	348.44	19.84	-30.9	-31.6	27.4	0.00e+00	0	34	0	3397386240	34	6118
2026-01-07 01:20:15.38	348.03	19.36	-31.1	-31.8	27.2	0.00e+00	0	34	0	3419406336	34	6288
2026-01-07 01:20:19.42	347.63	18.90	-31.3	-32.0	27.1	0.00e+00	0	34	0	3442475008	34	6463
2026-01-07 01:20:23.46	347.24	18.44	-31.4	-31.9	27.0	0.00e+00	0	34	0	3465543680	34	6387
2026-01-07 01:20:27.50	346.86	17.99	-31.3	-32.0	27.0	0.00e+00	0	34	0	3487563776	34	6428
2026-01-07 01:20:31.54	346.49	17.55	-31.6	-32.2	26.9	0.00e+00	0	35	0	3510632448	36	5831
2026-01-07 01:20:35.58	346.14	17.11	-31.7	-32.4	26.8	0.00e+00	0	34	0	3533701120	36	5996
2026-01-07 01:20:39.61	345.80	16.68	-31.7	-32.2	26.8	0.00e+00	0	34	0	3555721216	36	5871
2026-01-07 01:20:43.65	345.46	16.26	-31.9	-32.4	26.5	0.00e+00	0	34	0	3578789888	36	6026
2026-01-07 01:20:47.69	345.14	15.84	-32.2	-32.7	26.3	0.00e+00	0	34	0	3601858560	36	6240
2026-01-07 01:20:51.73	344.82	15.43	-32.4	-33.0	26.1	0.00e+00	0	34	0	3623878656	36	6463
2026-01-07 01:20:55.76	344.52	15.03	-32.7	-33.3	25.8	0.00e+00	0	34	0	3646947328	36	6627
2026-01-07 01:20:59.80	344.22	14.63	-32.8	-33.5	25.7	0.00e+00	0	34	0	3670016000	38	6099
2026-01-07 01:21:03.84	343.93	14.23	-32.7	-33.4	25.8	0.00e+00	0	34	0	3692036096	38	6023
2026-01-07 01:21:07.88	343.65	13.85	-32.7	-33.5	25.7	0.00e+00	0	34	0	3715104768	38	6047
2026-01-07 01:21:11.92	343.37	13.46	-32.8	-33.4	25.8	0.00e+00	0	35	0	3738173440	38	5983
2026-01-07 01:21:15.96	343.11	13.09	-32.7	-33.5	25.8	0.00e+00	0	34	0	3760193536	38	6036
2026-01-07 01:21:19.99	342.85	12.71	-33.1	-33.8	25.4	0.00e+00	0	35	0	3783262208	38	6294
2026-01-07 01:21:24.03	342.60	12.35	-33.2	-33.8	25.3	0.00e+00	0	35	0	3806330880	38	6290
2026-01-07 01:21:28.07	342.35	11.98	-33.3	-34.0	25.2	0.00e+00	0	35	0	3828350976	38	6462
2026-01-07 01:21:32.10	342.11	11.63	-33.7	-34.4	24.8	0.00e+00	0	34	0	3851419648	38	6751
2026-01-07 01:21:36.14	341.88	11.27	-33.6	-34.3	24.9	0.00e+00	0	35	0	3874488320	38	6672
2026-01-07 01:21:40.18	341.65	10.93	-33.5	-34.3	25.0	0.00e+00	0	34	0	3896508416	38	6647
2026-01-07 01:21:44.22	341.43	10.58	-33.6	-34.2	24.8	0.00e+00	0	35	0	3919577088	38	6604
2026-01-07 01:21:48.27	341.21	10.24	-33.7	-34.5	24.7	0.00e+00	0	34	0	3942645760	40	6062
2026-01-07 01:21:52.30	341.00	9.91	-33.6	-34.4	24.8	0.00e+00	0	34	0	3964665856	40	5970
2026-01-07 01:21:56.34	340.79	9.57	-33.7	-34.3	24.7	0.00e+00	0	34	0	3987734528	40	5938
2026-01-07 01:22:00.39	340.59	9.25	-34.0	-34.7	24.4	0.00e+00	0	34	0	4010803200	40	6178
2026-01-07 01:22:04.42	340.39	8.92	-34.1	-34.8	24.2	0.00e+00	0	34	0	4032823296	40	6251
2026-01-07 01:22:08.46	340.20	8.60	-34.2	-34.9	24.2	0.00e+00	0	34	0	4055891968	40	6324
2026-01-07 01:22:12.50	340.02	8.29	-34.3	-35.2	24.0	0.00e+00	0	34	0	4078960640	40	6540
2026-01-07 01:22:16.54	339.83	7.97	-34.4	-35.2	23.9	0.00e+00	0	34	0	4100980736	40	6604
2026-01-07 01:22:20.58	339.65	7.66	-34.7	-35.5	23.6	0.00e+00	0	34	0	4124049408	42	6077
2026-01-07 01:22:24.62	339.48	7.36	-34.5	-35.2	23.9	0.00e+00	0	34	0	4147118080	42	5864
2026-01-07 01:22:28.66	339.31	7.06	-34.7	-35.6	23.5	0.00e+00	0	34	0	4169138176	42	6117
2026-01-07 01:22:32.70	339.14	6.76	-34.8	-35.5	23.4	0.00e+00	0	34	0	4192206848	42	6077
2026-01-07 01:22:36.74	338.98	6.46	-34.9	-35.6	23.3	0.00e+00	0	35	0	4215275520	42	6158
2026-01-07 01:22:40.78	338.82	6.17	-34.9	-35.6	23.3	0.00e+00	0	35	0	4237295616	42	6155
2026-01-07 01:22:44.82	338.66	5.88	-35.0	-35.7	23.0	0.00e+00	0	34	0	4260364288	42	6199
2026-01-07 01:22:48.85	338.51	5.59	-35.5	-36.4	22.3	0.00e+00	0	35	0	4283432960	42	6736
2026-01-07 01:22:52.90	338.36	5.31	-36.3	-37.1	20.9	0.00e+00	0	34	0	4305453056	44	6530
2026-01-07 01:22:56.93	338.21	5.03	-37.9	-39.1	18.1	0.00e+00	0	35	0	4328521728	48	6479
2026-01-07 01:23:00.97	338.07	4.75	-39.9	-41.6	15.2	0.00e+00	0	34	0	4351590400	52	6854
2026-01-07 01:23:05.01	337.93	4.47	-42.1	-45.1	10.5	1.68e-03	0	34	0	4373610496	56	8195
2026-01-07 01:23:09.05	337.79	4.20	-43.4	-48.7	5.7	2.57e-01	0	34	0	4396679168	58	11089
2026-01-07 01:23:13.09	337.66	3.93	-43.9	-53.4	3.8	8.40e-01	0	35	104	4399824896	60	16820
2026-01-07 01:23:17.13	337.53	3.66	-44.0	-55.2	3.6	8.45e-01	0	35	104	4399824896	60	20784
2026-01-07 01:23:21.17	337.40	3.40	-44.0	-56.0	3.6	8.46e-01	0	35	104	4399824896	60	22845
2026-01-07 01:23:25.21	337.27	3.13	-44.1	-56.1	3.6	8.45e-01	0	35	104	4399824896	60	22999
2026-01-07 01:23:29.24	337.15	2.87	-48.6	-60.6	3.6	8.46e-01	0	35	104	4399824896	60	38891
2026-01-07 01:23:33.28	337.03	2.62	-49.1	-60.9	3.6	8.46e-01	0	35	104	4399824896	60	40287
2026-01-07 01:23:37.32	336.91	2.36	-48.9	-61.3	3.6	8.45e-01	0	35	104	4399824896	60	41840
2026-01-07 01:23:41.35	336.79	2.11	-49.0	-61.2	3.6	8.45e-01	0	35	104	4399824896	60	41515
2026-01-07 01:23:45.39	336.68	1.85	-49.1	-61.2	3.6	8.46e-01	0	35	104	4399824896	60	41726
2026-01-07 01:23:49.43	336.57	1.60	-49.1	-61.2	3.6	8.45e-01	0	35	104	4399824896	60	41623
2026-01-07 01:23:53.47	336.46	1.36	-49.1	-61.2	3.6	8.45e-01	0	35	104	4399824896	60	41591
2026-01-07 01:23:57.51	336.35	1.11	-49.1	-61.2	3.6	8.45e-01	0	35	104	4399824896	60	41501
2026-01-07 01:24:01.55	336.24	0.87	-49.1	-61.2	3.6	8.45e-01	0	35	104	4399824896	60	41362
2026-01-07 01:24:05.59	336.14	0.62	-49.1	-61.2	3.6	8.46e-01	0	35	104	4399824896	60	41417
2026-01-07 01:24:09.63	336.04	0.38	-49.1	-61.2	3.6	8.43e-01	0	35	104	4399824896	60	41614
2026-01-07 01:24:13.67	335.94	0.14	-49.1	-61.1	3.6	8.45e-01	0	35	104	4399824896	60	41215

#Closed at: 2026-01-07 01:24:17
#Recorded file [4399 MB]: D:/lorett/data/35029_260107_130913.dat