passes_logs/2026/01/07/R4.6S_Anadyr/R4.6S_Anadyr__20260107_173516_NOAA_20_JPSS-1_rec.log

#Pass ID: 20260107_173516_NOAA 20 (JPSS-1)
#Satellite: NOAA 20 (JPSS-1)
#Configuration: NOAA 20
#almurnet v.1.7.20251203
#Start time: 2026-01-07 17:35:17

#Version: 2.2.20231116
#Station: R4.6S_Anadyr
#Location: 177.4865 lon 64.73178 lat
#TLE: 1 43013U 17073A   26005.46207808  .00000128  00000+0  81791-4 0  9997
#TLE: 2 43013  98.7627 306.5027 0001826  53.0458 307.0885 14.19533487421381

#Time	Az	El	Level	Level2	SNR	BER	BlckErr	Temp	State	Recorded	gain1	gain2
2026-01-07 17:35:17.40	33.04	0.04	-47.8	-62.7	3.5	1.51e+00	0	35	0	0	60	49141
2026-01-07 17:35:20.42	32.86	0.20	-49.0	-64.1	3.6	1.51e+00	0	37	104	0	60	58257
2026-01-07 17:35:23.45	32.67	0.36	-49.2	-64.4	3.6	1.51e+00	0	37	104	0	60	60001
2026-01-07 17:35:26.48	32.48	0.52	-49.3	-64.4	3.6	1.51e+00	0	37	104	0	60	60296
2026-01-07 17:35:29.49	32.29	0.68	-49.3	-64.6	3.6	1.51e+00	0	37	104	0	60	61122
2026-01-07 17:35:32.53	32.10	0.84	-49.4	-64.6	3.6	1.51e+00	0	37	104	0	60	61302
2026-01-07 17:35:35.56	31.90	1.01	-49.3	-64.6	3.6	1.51e+00	0	37	104	0	60	61055
2026-01-07 17:35:38.59	31.70	1.17	-49.4	-64.6	3.6	1.51e+00	0	37	104	0	60	61178
2026-01-07 17:35:41.62	31.50	1.33	-49.4	-64.5	3.6	1.51e+00	0	37	104	0	60	60932
2026-01-07 17:35:44.65	31.30	1.50	-49.4	-64.6	3.6	1.51e+00	0	37	104	0	60	61192
2026-01-07 17:35:47.68	31.09	1.66	-49.4	-64.6	3.6	1.51e+00	0	37	104	0	60	61200
2026-01-07 17:35:50.70	30.89	1.83	-49.4	-64.6	3.6	1.51e+00	0	37	104	0	60	61041
2026-01-07 17:35:53.73	30.68	1.99	-49.4	-64.5	3.6	1.51e+00	0	37	104	0	60	60758
2026-01-07 17:35:56.76	30.47	2.16	-49.4	-64.5	3.6	1.51e+00	0	37	104	0	60	60964
2026-01-07 17:35:59.79	30.25	2.32	-49.3	-64.6	3.6	1.51e+00	0	37	104	0	60	61136
2026-01-07 17:36:02.83	30.03	2.49	-49.4	-64.6	3.6	1.51e+00	0	37	104	0	60	61265
2026-01-07 17:36:05.86	29.81	2.66	-49.4	-64.5	3.6	1.51e+00	0	37	104	0	60	60958
2026-01-07 17:36:08.89	29.59	2.83	-49.4	-64.6	3.6	1.51e+00	0	37	104	0	60	61200
2026-01-07 17:36:11.92	29.36	3.00	-49.3	-64.6	3.6	1.51e+00	0	37	104	0	60	61420
2026-01-07 17:36:14.94	29.14	3.17	-49.3	-64.6	3.6	1.51e+00	0	37	104	0	60	61176
2026-01-07 17:36:17.97	28.90	3.34	-49.3	-64.6	3.6	1.51e+00	0	37	104	0	60	61287
2026-01-07 17:36:21.00	28.67	3.51	-49.4	-64.6	3.6	1.51e+00	0	37	104	0	60	61254
2026-01-07 17:36:24.03	28.43	3.68	-49.3	-64.6	3.6	1.51e+00	0	37	104	0	60	61148
2026-01-07 17:36:27.06	28.19	3.86	-49.3	-64.5	3.6	1.51e+00	0	37	104	0	60	60684
2026-01-07 17:36:30.09	27.95	4.03	-49.4	-64.6	3.6	1.51e+00	0	37	104	0	60	61288
2026-01-07 17:36:33.11	27.71	4.20	-49.4	-64.6	3.6	1.51e+00	0	38	104	0	60	61049
2026-01-07 17:36:36.14	27.46	4.38	-49.3	-64.5	3.6	1.51e+00	0	38	104	0	60	61015
2026-01-07 17:36:39.17	27.21	4.55	-49.3	-64.6	3.6	1.51e+00	0	38	104	0	60	61388
2026-01-07 17:36:42.20	26.95	4.73	-49.3	-64.5	3.6	1.51e+00	0	38	104	0	60	60982
2026-01-07 17:36:45.23	26.69	4.90	-49.4	-64.6	3.6	1.51e+00	0	38	104	0	60	61187
2026-01-07 17:36:48.26	26.43	5.08	-49.3	-64.6	3.6	1.51e+00	0	38	104	0	60	61334
2026-01-07 17:36:51.29	26.17	5.26	-49.3	-64.6	3.6	1.51e+00	0	38	104	0	60	61159
2026-01-07 17:36:54.32	25.90	5.44	-49.3	-64.6	3.6	1.51e+00	0	38	104	0	60	61073
2026-01-07 17:36:57.34	25.63	5.61	-49.3	-64.5	3.6	1.51e+00	0	38	104	0	60	60956
2026-01-07 17:37:00.37	25.35	5.79	-49.3	-64.6	3.6	1.51e+00	0	38	104	0	60	61260
2026-01-07 17:37:03.40	25.07	5.97	-49.3	-64.6	3.6	1.51e+00	0	38	104	0	60	61218
2026-01-07 17:37:06.43	24.79	6.15	-49.3	-64.6	3.6	1.51e+00	0	38	104	0	60	61396
2026-01-07 17:37:09.46	24.50	6.33	-49.3	-64.6	3.6	1.51e+00	0	38	104	0	60	61158
2026-01-07 17:37:12.49	24.22	6.52	-49.3	-64.6	3.6	1.51e+00	0	38	104	0	60	61053
2026-01-07 17:37:15.52	23.92	6.70	-49.3	-64.6	3.6	1.51e+00	0	38	104	0	60	61157
2026-01-07 17:37:18.55	23.62	6.88	-49.3	-64.6	3.6	1.51e+00	0	38	104	0	60	61114
2026-01-07 17:37:21.58	23.32	7.06	-49.3	-64.6	3.6	1.51e+00	0	38	104	0	60	61202
2026-01-07 17:37:24.61	23.02	7.25	-49.3	-64.6	3.6	1.51e+00	0	38	104	0	60	61187
2026-01-07 17:37:27.64	22.71	7.43	-49.3	-64.5	3.6	1.51e+00	0	38	104	0	60	60951
2026-01-07 17:37:30.67	22.40	7.62	-49.3	-64.5	3.6	1.51e+00	0	38	104	0	60	61022
2026-01-07 17:37:33.70	22.08	7.80	-49.3	-64.5	3.6	1.51e+00	0	38	104	0	60	60975
2026-01-07 17:37:36.73	21.76	7.99	-49.3	-64.6	3.6	1.51e+00	0	38	104	0	60	61050
2026-01-07 17:37:39.76	21.43	8.17	-49.3	-64.5	3.6	1.51e+00	0	38	104	0	60	60881
2026-01-07 17:37:42.79	21.10	8.36	-49.3	-64.5	3.6	1.51e+00	0	38	104	0	60	60954
2026-01-07 17:37:45.82	20.77	8.55	-49.3	-64.6	3.6	1.51e+00	0	38	104	0	60	61193
2026-01-07 17:37:48.85	20.43	8.73	-49.3	-64.6	3.6	1.51e+00	0	38	104	0	60	61086
2026-01-07 17:37:51.88	20.08	8.92	-49.3	-64.6	3.6	1.51e+00	0	38	104	0	60	61402
2026-01-07 17:37:54.90	19.74	9.11	-49.3	-64.5	3.6	1.51e+00	0	38	104	0	60	60956
2026-01-07 17:37:57.93	19.38	9.30	-49.3	-64.5	3.6	1.51e+00	0	38	104	0	60	60932
2026-01-07 17:38:00.96	19.03	9.49	-49.3	-64.6	3.6	1.51e+00	0	38	104	0	60	61135
2026-01-07 17:38:03.99	18.66	9.68	-49.3	-64.5	3.6	1.51e+00	0	38	104	0	60	60641
2026-01-07 17:38:07.02	18.30	9.87	-49.3	-64.5	3.6	1.51e+00	0	38	104	0	60	60808
2026-01-07 17:38:10.06	17.92	10.06	-49.3	-64.5	3.6	1.51e+00	0	38	104	0	60	61025
2026-01-07 17:38:13.08	17.55	10.25	-49.3	-64.5	3.6	1.51e+00	0	38	104	0	60	60855
2026-01-07 17:38:16.12	17.16	10.44	-49.3	-64.5	3.5	1.51e+00	0	38	104	0	60	60769
2026-01-07 17:38:19.14	16.78	10.63	-49.3	-64.5	3.6	1.51e+00	0	38	104	0	60	60818
2026-01-07 17:38:22.17	16.39	10.82	-49.3	-64.6	3.6	1.51e+00	0	38	104	0	60	61096
2026-01-07 17:38:25.20	15.99	11.01	-49.3	-64.5	3.6	1.51e+00	0	38	104	0	60	60717
2026-01-07 17:38:28.23	15.58	11.20	-49.3	-64.5	3.6	1.51e+00	0	38	104	0	60	60963
2026-01-07 17:38:31.25	15.18	11.39	-49.3	-64.5	3.6	1.51e+00	0	38	104	0	60	60815
2026-01-07 17:38:34.28	14.76	11.58	-49.3	-64.5	3.6	1.51e+00	0	38	104	0	60	60949
2026-01-07 17:38:37.31	14.34	11.78	-49.3	-64.5	3.6	1.51e+00	0	38	104	0	60	60861
2026-01-07 17:38:40.34	13.92	11.97	-49.3	-64.5	3.6	1.51e+00	0	38	104	0	60	60839
2026-01-07 17:38:43.37	13.49	12.16	-49.3	-64.5	3.6	1.51e+00	0	38	104	0	60	60995
2026-01-07 17:38:46.40	13.05	12.35	-49.3	-64.5	3.6	1.51e+00	0	38	104	0	60	60965
2026-01-07 17:38:49.43	12.61	12.54	-49.3	-64.5	3.6	1.51e+00	0	38	104	0	60	60739
2026-01-07 17:38:52.46	12.16	12.73	-49.3	-64.5	3.6	1.51e+00	0	38	104	0	60	60827
2026-01-07 17:38:55.48	11.71	12.92	-49.3	-64.5	3.6	1.51e+00	0	38	104	0	60	60951
2026-01-07 17:38:58.51	11.25	13.11	-49.3	-64.5	3.6	1.51e+00	0	38	104	0	60	60845
2026-01-07 17:39:01.54	10.78	13.30	-49.3	-64.5	3.6	1.51e+00	0	38	104	0	60	60615
2026-01-07 17:39:04.57	10.31	13.49	-49.3	-64.5	3.6	1.51e+00	0	38	104	0	60	60928
2026-01-07 17:39:07.60	9.83	13.68	-49.3	-64.5	3.6	1.51e+00	0	38	104	0	60	60898
2026-01-07 17:39:10.63	9.34	13.87	-49.3	-64.6	3.6	1.51e+00	0	38	104	0	60	61054
2026-01-07 17:39:13.66	8.85	14.05	-49.3	-64.6	3.6	1.51e+00	0	38	104	0	60	61107
2026-01-07 17:39:16.69	8.35	14.24	-49.3	-64.5	3.6	1.51e+00	0	38	104	0	60	60819
2026-01-07 17:39:19.72	7.85	14.43	-49.3	-64.5	3.6	1.51e+00	0	38	104	0	60	60773
2026-01-07 17:39:22.75	7.34	14.61	-49.3	-64.6	3.6	1.51e+00	0	38	104	0	60	61197
2026-01-07 17:39:25.78	6.82	14.79	-49.3	-64.5	3.6	1.51e+00	0	38	104	0	60	60843
2026-01-07 17:39:28.81	6.30	14.98	-49.3	-64.5	3.5	1.51e+00	0	38	104	0	60	60903
2026-01-07 17:39:31.84	5.77	15.16	-49.3	-64.5	3.6	1.51e+00	0	38	104	0	60	60927
2026-01-07 17:39:34.86	5.23	15.34	-49.3	-64.6	3.6	1.51e+00	0	38	104	0	60	61125
2026-01-07 17:39:37.90	4.69	15.52	-49.3	-64.5	3.6	1.51e+00	0	38	104	0	60	60912
2026-01-07 17:39:40.93	4.14	15.70	-49.3	-64.5	3.6	1.51e+00	0	38	104	0	60	60759
2026-01-07 17:39:43.96	3.58	15.88	-49.3	-64.5	3.6	1.51e+00	0	38	104	0	60	60345
2026-01-07 17:39:46.98	3.02	16.05	-49.3	-64.5	3.6	1.51e+00	0	38	104	0	60	60868
2026-01-07 17:39:50.01	2.45	16.22	-49.3	-64.5	3.6	1.51e+00	0	38	104	0	60	60475
2026-01-07 17:39:53.04	1.87	16.40	-49.3	-64.5	3.6	1.51e+00	0	38	104	0	60	60781
2026-01-07 17:39:56.07	1.29	16.57	-49.3	-64.5	3.6	1.51e+00	0	38	104	0	60	60946
2026-01-07 17:39:59.10	0.70	16.74	-49.3	-64.5	3.6	1.51e+00	0	38	104	0	60	60629
2026-01-07 17:40:02.12	0.10	16.90	-49.3	-64.5	3.6	1.51e+00	0	38	104	0	60	60912
2026-01-07 17:40:05.15	359.50	17.07	-49.3	-64.6	3.6	1.51e+00	0	38	104	0	60	61071
2026-01-07 17:40:08.18	358.89	17.23	-49.3	-64.5	3.6	1.51e+00	0	38	104	0	60	60658
2026-01-07 17:40:11.20	358.27	17.39	-49.3	-64.5	3.6	1.51e+00	0	38	104	0	60	60711
2026-01-07 17:40:14.24	357.65	17.54	-49.3	-64.5	3.6	1.51e+00	0	38	104	0	60	60427
2026-01-07 17:40:17.26	357.02	17.70	-49.3	-64.5	3.5	1.51e+00	0	38	104	0	60	60648
2026-01-07 17:40:20.29	356.38	17.85	-49.3	-64.5	3.6	1.51e+00	0	38	104	0	60	60853
2026-01-07 17:40:23.33	355.74	18.00	-49.3	-64.5	3.6	1.51e+00	0	38	104	0	60	60540
2026-01-07 17:40:26.35	355.09	18.15	-49.3	-64.4	3.6	1.51e+00	0	38	104	0	60	60253
2026-01-07 17:40:29.38	354.44	18.29	-49.3	-64.5	3.6	1.51e+00	0	38	104	0	60	60642
2026-01-07 17:40:32.41	353.77	18.43	-49.3	-64.5	3.6	1.51e+00	0	38	104	0	60	60908
2026-01-07 17:40:35.44	353.11	18.57	-49.3	-64.4	3.6	1.51e+00	0	38	104	0	60	60260
2026-01-07 17:40:38.47	352.43	18.70	-49.3	-64.5	3.6	1.51e+00	0	38	104	0	60	60700
2026-01-07 17:40:41.50	351.75	18.83	-49.3	-64.5	3.6	1.51e+00	0	38	104	0	60	60806
2026-01-07 17:40:44.53	351.06	18.96	-49.3	-64.5	3.6	1.51e+00	0	38	104	0	60	60422
2026-01-07 17:40:47.56	350.37	19.08	-49.3	-64.5	3.6	1.51e+00	0	38	104	0	60	60435
2026-01-07 17:40:50.58	349.68	19.20	-49.3	-64.5	3.6	1.51e+00	0	38	104	0	60	60600
2026-01-07 17:40:53.61	348.98	19.31	-49.3	-64.5	3.6	1.51e+00	0	38	104	0	60	60473
2026-01-07 17:40:56.64	348.27	19.43	-49.3	-64.5	3.6	1.51e+00	0	38	104	0	60	60475
2026-01-07 17:40:59.67	347.55	19.53	-49.3	-64.5	3.6	1.51e+00	0	38	104	0	60	60672
2026-01-07 17:41:02.70	346.84	19.64	-49.3	-64.5	3.6	1.51e+00	0	38	104	0	60	60498
2026-01-07 17:41:05.73	346.11	19.73	-49.3	-64.4	3.6	1.51e+00	0	38	104	0	60	60210
2026-01-07 17:41:08.76	345.38	19.83	-49.3	-64.5	3.6	1.51e+00	0	38	104	0	60	60366
2026-01-07 17:41:11.79	344.65	19.92	-49.3	-64.5	3.6	1.51e+00	0	38	104	0	60	60539
2026-01-07 17:41:14.81	343.92	20.00	-49.3	-64.5	3.6	1.51e+00	0	38	104	0	60	60459
2026-01-07 17:41:17.84	343.18	20.08	-49.3	-64.5	3.6	1.51e+00	0	38	104	0	60	60841
2026-01-07 17:41:20.87	342.43	20.16	-49.3	-64.5	3.6	1.51e+00	0	38	104	0	60	60438
2026-01-07 17:41:23.90	341.69	20.23	-49.3	-64.5	3.6	1.51e+00	0	38	104	0	60	60890
2026-01-07 17:41:26.93	340.94	20.29	-49.3	-64.5	3.6	1.51e+00	0	38	104	0	60	60639
2026-01-07 17:41:29.95	340.18	20.35	-49.3	-64.5	3.6	1.51e+00	0	38	104	0	60	60861
2026-01-07 17:41:32.98	339.43	20.41	-49.3	-64.5	3.6	1.51e+00	0	38	104	0	60	60536
2026-01-07 17:41:36.01	338.67	20.46	-49.3	-64.4	3.6	1.51e+00	0	38	104	0	60	60168
2026-01-07 17:41:39.04	337.91	20.50	-49.3	-64.5	3.6	1.51e+00	0	38	104	0	60	60523
2026-01-07 17:41:42.07	337.14	20.54	-49.3	-64.5	3.5	1.51e+00	0	38	104	0	60	60808
2026-01-07 17:41:45.10	336.37	20.58	-49.3	-64.5	3.6	1.51e+00	0	38	104	0	60	60358
2026-01-07 17:41:48.13	335.61	20.61	-49.3	-64.5	3.6	1.51e+00	0	38	104	0	60	60641
2026-01-07 17:41:51.16	334.84	20.63	-49.3	-64.5	3.6	1.51e+00	0	38	104	0	60	60538
2026-01-07 17:41:54.19	334.07	20.65	-49.3	-64.5	3.6	1.51e+00	0	38	104	0	60	60751
2026-01-07 17:41:57.22	333.30	20.66	-49.3	-64.5	3.6	1.51e+00	0	38	104	0	60	60562
2026-01-07 17:42:00.25	332.53	20.67	-49.3	-64.5	3.6	1.51e+00	0	38	104	0	60	60803
2026-01-07 17:42:03.28	331.75	20.67	-49.3	-64.5	3.6	1.51e+00	0	38	104	0	60	60862
2026-01-07 17:42:06.31	330.98	20.66	-49.3	-64.5	3.6	1.51e+00	0	38	104	0	60	60610
2026-01-07 17:42:09.34	330.21	20.66	-49.3	-64.5	3.6	1.51e+00	0	38	104	0	60	60720
2026-01-07 17:42:12.37	329.44	20.64	-49.3	-64.5	3.6	1.51e+00	0	38	104	0	60	60621
2026-01-07 17:42:15.40	328.67	20.62	-49.3	-64.5	3.6	1.51e+00	0	38	104	0	60	60773
2026-01-07 17:42:18.43	327.90	20.59	-49.3	-64.5	3.6	1.51e+00	0	38	104	0	60	60727
2026-01-07 17:42:21.46	327.13	20.56	-49.3	-64.6	3.6	1.51e+00	0	38	104	0	60	61038
2026-01-07 17:42:24.49	326.37	20.53	-49.3	-64.5	3.6	1.51e+00	0	38	104	0	60	60789
2026-01-07 17:42:27.52	325.60	20.48	-49.3	-64.5	3.6	1.51e+00	0	38	104	0	60	60595
2026-01-07 17:42:30.55	324.84	20.44	-49.3	-64.5	3.6	1.51e+00	0	38	104	0	60	60641
2026-01-07 17:42:33.58	324.08	20.38	-49.3	-64.5	3.6	1.51e+00	0	38	104	0	60	60976
2026-01-07 17:42:36.60	323.33	20.33	-49.3	-64.5	3.6	1.51e+00	0	38	104	0	60	60402
2026-01-07 17:42:39.63	322.58	20.26	-49.3	-64.5	3.6	1.51e+00	0	38	104	0	60	60976
2026-01-07 17:42:42.66	321.83	20.20	-49.3	-64.5	3.6	1.51e+00	0	38	104	0	60	60471
2026-01-07 17:42:45.69	321.08	20.12	-49.3	-64.5	3.5	1.51e+00	0	38	104	0	60	60899
2026-01-07 17:42:48.72	320.34	20.05	-49.3	-64.5	3.6	1.51e+00	0	38	104	0	60	60905
2026-01-07 17:42:51.75	319.60	19.96	-49.3	-64.5	3.6	1.51e+00	0	38	104	0	60	60686
2026-01-07 17:42:54.78	318.86	19.88	-49.3	-64.5	3.6	1.51e+00	0	38	104	0	60	60667
2026-01-07 17:42:57.81	318.13	19.79	-49.3	-64.5	3.6	1.51e+00	0	38	104	0	60	60793
2026-01-07 17:43:00.84	317.41	19.69	-49.3	-64.5	3.6	1.51e+00	0	38	104	0	60	60760
2026-01-07 17:43:03.87	316.68	19.59	-49.3	-64.5	3.6	1.51e+00	0	38	104	0	60	60681
2026-01-07 17:43:06.90	315.97	19.48	-49.3	-64.5	3.6	1.51e+00	0	38	104	0	60	60959
2026-01-07 17:43:09.92	315.26	19.38	-49.3	-64.5	3.6	1.51e+00	0	38	104	0	60	60704
2026-01-07 17:43:12.95	314.55	19.26	-49.3	-64.5	3.6	1.51e+00	0	38	104	0	60	60716
2026-01-07 17:43:15.99	313.85	19.15	-49.3	-64.5	3.6	1.51e+00	0	38	104	0	60	60529
2026-01-07 17:43:19.02	313.15	19.02	-49.3	-64.5	3.6	1.51e+00	0	38	104	0	60	60589
2026-01-07 17:43:22.05	312.46	18.90	-49.3	-64.5	3.6	1.51e+00	0	38	104	0	60	60614
2026-01-07 17:43:25.08	311.78	18.77	-49.3	-64.5	3.6	1.51e+00	0	38	104	0	60	60420
2026-01-07 17:43:28.10	311.10	18.64	-49.3	-64.5	3.6	1.51e+00	0	38	104	0	60	60510
2026-01-07 17:43:31.13	310.43	18.50	-49.3	-64.5	3.6	1.51e+00	0	38	104	0	60	60733
2026-01-07 17:43:34.16	309.76	18.37	-49.3	-64.5	3.6	1.51e+00	0	38	104	0	60	60384
2026-01-07 17:43:37.19	309.10	18.22	-49.3	-64.5	3.6	1.51e+00	0	38	104	0	60	60612
2026-01-07 17:43:40.22	308.45	18.08	-49.3	-64.5	3.6	1.51e+00	0	38	104	0	60	60509
2026-01-07 17:43:43.25	307.80	17.93	-49.3	-64.5	3.6	1.51e+00	0	38	104	0	60	60673
2026-01-07 17:43:46.28	307.16	17.78	-49.3	-64.5	3.6	1.51e+00	0	38	104	0	60	60482
2026-01-07 17:43:49.31	306.52	17.63	-49.3	-64.5	3.6	1.51e+00	0	38	104	0	60	60590
2026-01-07 17:43:52.34	305.90	17.47	-49.3	-64.5	3.6	1.51e+00	0	38	104	0	60	60530
2026-01-07 17:43:55.37	305.27	17.31	-49.3	-64.5	3.6	1.51e+00	0	38	104	0	60	60396
2026-01-07 17:43:58.40	304.66	17.15	-49.3	-64.5	3.6	1.51e+00	0	38	104	0	60	60660
2026-01-07 17:44:01.43	304.05	16.99	-49.3	-64.5	3.6	1.51e+00	0	38	104	0	60	60758
2026-01-07 17:44:04.46	303.45	16.82	-49.3	-64.5	3.5	1.51e+00	0	38	104	0	60	60503
2026-01-07 17:44:07.49	302.85	16.66	-49.3	-64.5	3.6	1.51e+00	0	38	104	0	60	60636
2026-01-07 17:44:10.52	302.27	16.49	-49.3	-64.5	3.6	1.51e+00	0	38	104	0	60	60613
2026-01-07 17:44:13.54	301.69	16.31	-49.3	-64.5	3.6	1.51e+00	0	38	104	0	60	61008
2026-01-07 17:44:16.57	301.11	16.14	-49.3	-64.5	3.6	1.51e+00	0	38	104	0	60	60394
2026-01-07 17:44:19.60	300.54	15.97	-49.3	-64.5	3.6	1.51e+00	0	38	104	0	60	60431
2026-01-07 17:44:22.63	299.98	15.79	-49.3	-64.5	3.6	1.51e+00	0	38	104	0	60	60460
2026-01-07 17:44:25.66	299.43	15.61	-49.3	-64.5	3.6	1.51e+00	0	38	104	0	60	60711
2026-01-07 17:44:28.69	298.88	15.43	-49.3	-64.5	3.6	1.51e+00	0	39	104	0	60	60582
2026-01-07 17:44:31.72	298.34	15.25	-49.3	-64.5	3.6	1.51e+00	0	39	104	0	60	60572
2026-01-07 17:44:34.75	297.80	15.07	-49.3	-64.5	3.6	1.51e+00	0	39	104	0	60	60864
2026-01-07 17:44:37.78	297.27	14.89	-49.3	-64.5	3.6	1.51e+00	0	38	104	0	60	60521
2026-01-07 17:44:40.81	296.75	14.70	-49.3	-64.5	3.6	1.51e+00	0	38	104	0	60	60694
2026-01-07 17:44:43.84	296.23	14.52	-49.3	-64.5	3.6	1.51e+00	0	39	104	0	60	60739
2026-01-07 17:44:46.87	295.73	14.33	-49.3	-64.4	3.6	1.51e+00	0	39	104	0	60	60286
2026-01-07 17:44:49.90	295.22	14.15	-49.3	-64.5	3.6	1.51e+00	0	38	104	0	60	60429
2026-01-07 17:44:52.93	294.73	13.96	-49.3	-64.5	3.6	1.51e+00	0	38	104	0	60	60752
2026-01-07 17:44:55.96	294.24	13.77	-49.3	-64.5	3.6	1.51e+00	0	38	104	0	60	60809
2026-01-07 17:44:58.99	293.75	13.58	-49.3	-64.5	3.6	1.51e+00	0	38	104	0	60	60847
2026-01-07 17:45:02.02	293.28	13.39	-49.3	-64.5	3.6	1.51e+00	0	38	104	0	60	60845
2026-01-07 17:45:05.05	292.80	13.20	-49.3	-64.5	3.6	1.51e+00	0	39	104	0	60	60777
2026-01-07 17:45:08.07	292.34	13.02	-49.3	-64.5	3.6	1.51e+00	0	38	104	0	60	60831
2026-01-07 17:45:11.10	291.88	12.82	-49.3	-64.5	3.6	1.51e+00	0	38	104	0	60	60667
2026-01-07 17:45:14.13	291.43	12.63	-49.3	-64.5	3.6	1.51e+00	0	38	104	0	60	60853
2026-01-07 17:45:17.16	290.98	12.44	-49.3	-64.5	3.6	1.51e+00	0	38	104	0	60	60844
2026-01-07 17:45:20.19	290.54	12.25	-49.3	-64.5	3.6	1.51e+00	0	38	104	0	60	60468
2026-01-07 17:45:23.22	290.11	12.06	-49.3	-64.5	3.6	1.51e+00	0	38	104	0	60	60797
2026-01-07 17:45:26.25	289.68	11.87	-49.3	-64.5	3.6	1.51e+00	0	38	104	0	60	60567
2026-01-07 17:45:29.28	289.25	11.68	-49.3	-64.5	3.6	1.51e+00	0	38	104	0	60	60771
2026-01-07 17:45:32.31	288.83	11.49	-49.2	-64.5	3.6	1.51e+00	0	38	104	0	60	60884
2026-01-07 17:45:35.34	288.42	11.29	-49.3	-64.5	3.6	1.51e+00	0	38	104	0	60	60563
2026-01-07 17:45:38.37	288.01	11.10	-49.3	-64.5	3.6	1.51e+00	0	38	104	0	60	60818
2026-01-07 17:45:41.40	287.61	10.91	-49.3	-64.5	3.6	1.51e+00	0	38	104	0	60	60393
2026-01-07 17:45:44.43	287.21	10.72	-49.2	-64.5	3.6	1.51e+00	0	38	104	0	60	60665
2026-01-07 17:45:47.46	286.82	10.53	-49.3	-64.5	3.6	1.51e+00	0	38	104	0	60	60560
2026-01-07 17:45:50.49	286.44	10.34	-49.3	-64.5	3.6	1.51e+00	0	38	104	0	60	60709
2026-01-07 17:45:53.52	286.05	10.15	-49.3	-64.5	3.6	1.51e+00	0	38	104	0	60	60806
2026-01-07 17:45:56.54	285.68	9.96	-49.3	-64.5	3.6	1.51e+00	0	38	104	0	60	60382
2026-01-07 17:45:59.58	285.31	9.77	-49.3	-64.5	3.6	1.51e+00	0	38	104	0	60	60554
2026-01-07 17:46:02.61	284.94	9.58	-49.3	-64.5	3.6	1.51e+00	0	38	104	0	60	60616
2026-01-07 17:46:05.64	284.58	9.39	-49.3	-64.5	3.6	1.51e+00	0	38	104	0	60	60631
2026-01-07 17:46:08.66	284.22	9.20	-49.3	-64.5	3.6	1.51e+00	0	38	104	0	60	60761
2026-01-07 17:46:11.69	283.87	9.01	-49.2	-64.5	3.6	1.51e+00	0	38	104	0	60	60918
2026-01-07 17:46:14.72	283.52	8.82	-49.3	-64.4	3.6	1.51e+00	0	38	104	0	60	60215
2026-01-07 17:46:17.75	283.18	8.63	-49.2	-64.5	3.6	1.51e+00	0	38	104	0	60	60560
2026-01-07 17:46:20.78	282.84	8.45	-49.2	-64.6	3.6	1.51e+00	0	39	104	0	60	61102
2026-01-07 17:46:23.81	282.51	8.26	-49.3	-64.5	3.6	1.51e+00	0	38	104	0	60	60905
2026-01-07 17:46:26.84	282.18	8.07	-49.3	-64.5	3.6	1.51e+00	0	38	104	0	60	60536
2026-01-07 17:46:29.87	281.85	7.89	-49.3	-64.5	3.6	1.51e+00	0	38	104	0	60	60762
2026-01-07 17:46:32.90	281.53	7.70	-49.2	-64.5	3.6	1.51e+00	0	38	104	0	60	60667
2026-01-07 17:46:35.93	281.22	7.51	-49.3	-64.5	3.6	1.51e+00	0	38	104	0	60	60827
2026-01-07 17:46:38.96	280.90	7.33	-49.3	-64.5	3.6	1.51e+00	0	38	104	0	60	60844
2026-01-07 17:46:41.99	280.59	7.15	-49.3	-64.5	3.6	1.51e+00	0	38	104	0	60	60581
2026-01-07 17:46:45.02	280.29	6.96	-49.2	-64.5	3.6	1.51e+00	0	38	104	0	60	60913
2026-01-07 17:46:48.04	279.99	6.78	-49.3	-64.5	3.6	1.51e+00	0	38	104	0	60	60823
2026-01-07 17:46:51.07	279.69	6.60	-49.3	-64.5	3.6	1.51e+00	0	38	104	0	60	60503
2026-01-07 17:46:54.10	279.40	6.41	-49.2	-64.5	3.6	1.51e+00	0	38	104	0	60	60701
2026-01-07 17:46:57.13	279.11	6.23	-49.2	-64.5	3.6	1.51e+00	0	38	104	0	60	60711
2026-01-07 17:47:00.17	278.82	6.05	-49.3	-64.5	3.6	1.51e+00	0	38	104	0	60	60676
2026-01-07 17:47:03.19	278.54	5.87	-49.2	-64.5	3.6	1.51e+00	0	38	104	0	60	60487
2026-01-07 17:47:06.22	278.26	5.69	-49.3	-64.5	3.6	1.51e+00	0	39	104	0	60	60682
2026-01-07 17:47:09.25	277.99	5.51	-49.3	-64.5	3.6	1.51e+00	0	38	104	0	60	60554
2026-01-07 17:47:12.28	277.72	5.33	-49.3	-64.5	3.6	1.51e+00	0	38	104	0	60	60673
2026-01-07 17:47:15.31	277.45	5.16	-49.3	-64.5	3.6	1.51e+00	0	38	104	0	60	60563
2026-01-07 17:47:18.34	277.18	4.98	-49.3	-64.5	3.6	1.51e+00	0	38	104	0	60	60518
2026-01-07 17:47:21.37	276.92	4.80	-49.2	-64.6	3.6	1.51e+00	0	39	104	0	60	61115
2026-01-07 17:47:24.40	276.66	4.63	-49.3	-64.5	3.6	1.51e+00	0	39	104	0	60	60728
2026-01-07 17:47:27.43	276.41	4.45	-49.3	-64.5	3.6	1.51e+00	0	39	104	0	60	60399
2026-01-07 17:47:30.45	276.16	4.28	-49.3	-64.5	3.6	1.51e+00	0	39	104	0	60	60752
2026-01-07 17:47:33.48	275.91	4.10	-49.3	-64.5	3.6	1.51e+00	0	39	104	0	60	60630
2026-01-07 17:47:36.51	275.66	3.93	-49.2	-64.5	3.6	1.51e+00	0	39	104	0	60	60541
2026-01-07 17:47:39.54	275.42	3.76	-49.3	-64.5	3.6	1.51e+00	0	38	104	0	60	60710
2026-01-07 17:47:42.57	275.18	3.58	-49.3	-64.5	3.6	1.51e+00	0	38	104	0	60	60497
2026-01-07 17:47:45.60	274.94	3.41	-49.3	-64.5	3.6	1.51e+00	0	39	104	0	60	60627
2026-01-07 17:47:48.63	274.71	3.24	-49.3	-64.5	3.6	1.51e+00	0	38	104	0	60	60738
2026-01-07 17:47:51.65	274.48	3.07	-49.3	-64.5	3.6	1.51e+00	0	38	104	0	60	60568
2026-01-07 17:47:54.69	274.25	2.90	-49.3	-64.5	3.6	1.51e+00	0	38	104	0	60	60750
2026-01-07 17:47:57.71	274.02	2.73	-49.3	-64.5	3.6	1.51e+00	0	39	104	0	60	60862
2026-01-07 17:48:00.74	273.80	2.56	-49.3	-64.6	3.6	1.51e+00	0	39	104	0	60	61116
2026-01-07 17:48:03.77	273.58	2.39	-49.3	-64.5	3.6	1.51e+00	0	38	104	0	60	60561
2026-01-07 17:48:06.80	273.36	2.23	-49.3	-64.5	3.6	1.51e+00	0	38	104	0	60	60589
2026-01-07 17:48:09.83	273.15	2.06	-49.3	-64.5	3.6	1.51e+00	0	38	104	0	60	60586
2026-01-07 17:48:12.86	272.93	1.89	-49.2	-64.5	3.6	1.51e+00	0	38	104	0	60	60655
2026-01-07 17:48:15.89	272.72	1.73	-49.3	-64.5	3.6	1.51e+00	0	39	104	0	60	60424
2026-01-07 17:48:18.92	272.52	1.56	-49.3	-64.5	3.6	1.51e+00	0	39	104	0	60	60711
2026-01-07 17:48:21.95	272.31	1.40	-49.3	-64.5	3.6	1.51e+00	0	39	104	0	60	60435
2026-01-07 17:48:24.98	272.11	1.23	-49.3	-64.5	3.6	1.51e+00	0	38	104	0	60	60752
2026-01-07 17:48:28.01	271.91	1.07	-49.3	-64.5	3.6	1.51e+00	0	39	104	0	60	60978
2026-01-07 17:48:31.04	271.71	0.91	-49.3	-64.5	3.6	1.51e+00	0	39	104	0	60	60747
2026-01-07 17:48:34.06	271.51	0.75	-49.3	-64.5	3.6	1.51e+00	0	38	104	0	60	60943
2026-01-07 17:48:37.09	271.32	0.58	-49.3	-64.5	3.6	1.51e+00	0	38	104	0	60	60472
2026-01-07 17:48:40.12	271.13	0.42	-49.3	-64.5	3.6	1.51e+00	0	39	104	0	60	60695
2026-01-07 17:48:43.15	270.94	0.26	-49.3	-64.5	3.6	1.51e+00	0	38	104	0	60	60800
2026-01-07 17:48:46.18	270.75	0.10	-49.3	-64.5	3.6	1.51e+00	0	39	104	0	60	60492
2026-01-07 17:48:49.21	270.56	-0.06	-49.3	-64.5	3.6	1.51e+00	0	39	104	0	60	60582

#Closed at: 2026-01-07 17:48:51
#Recorded file [0 MB]: D:/lorett/data/35029_260108_053517.dat