passes_logs/2026/01/07/R4.6S_Anadyr/R4.6S_Anadyr__20260107_205238_NOAA_20_JPSS-1_rec.log

#Pass ID: 20260107_205238_NOAA 20 (JPSS-1)
#Satellite: NOAA 20 (JPSS-1)
#Configuration: NOAA 20
#almurnet v.1.7.20251203
#Start time: 2026-01-07 20:52:40

#Version: 2.2.20231116
#Station: R4.6S_Anadyr
#Location: 177.4865 lon 64.73178 lat
#TLE: 1 43013U 17073A   26005.46207808  .00000128  00000+0  81791-4 0  9997
#TLE: 2 43013  98.7627 306.5027 0001826  53.0458 307.0885 14.19533487421381

#Time	Az	El	Level	Level2	SNR	BER	BlckErr	Temp	State	Recorded	gain1	gain2
2026-01-07 20:52:40.68	78.65	0.09	-49.4	-64.3	3.5	1.51e+00	0	36	0	0	60	59321
2026-01-07 20:52:44.72	78.38	0.29	-49.4	-64.7	3.6	1.51e+00	0	37	104	0	60	61761
2026-01-07 20:52:48.76	78.09	0.50	-49.4	-64.7	3.6	1.51e+00	0	37	104	0	60	62226
2026-01-07 20:52:52.80	77.81	0.71	-49.1	-64.6	3.6	1.51e+00	0	37	104	0	60	61548
2026-01-07 20:52:56.84	77.52	0.92	-48.6	-63.8	3.5	1.51e+00	0	37	104	0	60	56010
2026-01-07 20:53:00.88	77.23	1.13	-47.8	-63.0	3.6	1.51e+00	0	37	104	0	60	51238
2026-01-07 20:53:04.92	76.93	1.34	-47.8	-63.1	3.6	1.51e+00	0	37	104	0	60	51373
2026-01-07 20:53:08.96	76.63	1.55	-47.8	-63.0	3.6	1.51e+00	0	38	104	0	60	50860
2026-01-07 20:53:12.99	76.32	1.76	-47.8	-63.0	3.6	1.51e+00	0	37	104	0	60	51097
2026-01-07 20:53:17.03	76.01	1.97	-47.8	-62.9	3.6	1.51e+00	0	38	104	0	60	50515
2026-01-07 20:53:21.07	75.69	2.18	-47.8	-62.9	3.6	1.51e+00	0	38	104	0	60	50626
2026-01-07 20:53:25.11	75.37	2.40	-47.8	-63.0	3.6	1.51e+00	0	38	104	0	60	50796
2026-01-07 20:53:29.15	75.05	2.61	-47.8	-62.4	3.6	1.51e+00	0	38	104	0	60	47521
2026-01-07 20:53:33.19	74.71	2.83	-47.6	-59.4	3.8	1.51e+00	0	38	104	0	60	33809
2026-01-07 20:53:37.23	74.38	3.04	-44.7	-47.9	14.0	2.36e-05	0	38	0	5242880	60	8997
2026-01-07 20:53:41.27	74.04	3.26	-47.8	-62.8	3.6	1.51e+00	0	38	104	12582912	60	50084
2026-01-07 20:53:45.30	73.69	3.48	-43.7	-46.1	16.2	0.00e+00	92	38	0	16777216	60	7274
2026-01-07 20:53:49.34	73.34	3.70	-42.3	-44.1	18.2	0.00e+00	91	38	0	24117248	58	6531
2026-01-07 20:53:53.38	72.98	3.92	-42.4	-44.1	18.0	0.00e+00	79	38	0	32505856	58	6523
2026-01-07 20:53:57.42	72.62	4.14	-42.4	-44.2	18.1	0.00e+00	92	38	0	39845888	58	6547
2026-01-07 20:54:01.46	72.25	4.36	-42.4	-44.2	18.2	0.00e+00	92	38	0	47185920	58	6570
2026-01-07 20:54:05.50	71.88	4.58	-42.4	-44.2	18.1	0.00e+00	88	38	0	54525952	58	6545
2026-01-07 20:54:09.54	71.50	4.80	-42.3	-44.0	18.5	0.00e+00	0	38	0	62914560	58	6437
2026-01-07 20:54:13.58	71.11	5.02	-42.4	-44.1	18.4	0.00e+00	92	38	0	70254592	58	6478
2026-01-07 20:54:17.62	70.72	5.24	-42.3	-44.0	18.5	0.00e+00	92	38	0	77594624	58	6433
2026-01-07 20:54:21.66	70.32	5.47	-42.5	-44.2	18.3	0.00e+00	3	38	0	84934656	58	6572
2026-01-07 20:54:25.69	69.92	5.69	-42.2	-43.8	18.8	0.00e+00	49	38	0	92274688	58	6288
2026-01-07 20:54:29.73	69.51	5.92	-42.2	-43.9	18.6	0.00e+00	92	38	0	100663296	58	6345
2026-01-07 20:54:33.77	69.09	6.14	-42.1	-43.7	18.8	0.00e+00	91	38	0	108003328	58	6208
2026-01-07 20:54:37.81	68.66	6.37	-42.2	-43.8	18.8	0.00e+00	7	38	0	115343360	58	6272
2026-01-07 20:54:41.85	68.23	6.59	-42.1	-43.7	19.0	0.00e+00	90	38	0	122683392	58	6182
2026-01-07 20:54:45.89	67.79	6.82	-41.8	-43.2	19.5	0.00e+00	92	38	0	131072000	56	6594
2026-01-07 20:54:49.93	67.35	7.05	-41.5	-42.9	19.8	0.00e+00	91	38	0	138412032	56	6331
2026-01-07 20:54:53.97	66.90	7.28	-41.4	-42.8	19.9	0.00e+00	0	38	0	145752064	56	6290
2026-01-07 20:54:58.01	66.44	7.50	-41.3	-42.6	20.1	0.00e+00	90	38	0	153092096	56	6152
2026-01-07 20:55:02.05	65.97	7.73	-41.2	-42.5	20.3	0.00e+00	92	38	0	161480704	56	6082
2026-01-07 20:55:06.08	65.50	7.96	-41.0	-42.3	20.4	0.00e+00	2	38	0	168820736	56	5929
2026-01-07 20:55:10.12	65.01	8.19	-40.9	-42.2	20.6	0.00e+00	0	38	0	176160768	56	5843
2026-01-07 20:55:14.16	64.52	8.42	-40.7	-42.0	20.7	0.00e+00	90	38	0	183500800	54	6392
2026-01-07 20:55:18.19	64.03	8.64	-40.8	-42.1	20.6	0.00e+00	92	38	0	190840832	54	6499
2026-01-07 20:55:22.23	63.52	8.87	-41.0	-42.3	20.4	0.00e+00	0	38	0	199229440	54	6648
2026-01-07 20:55:26.27	63.01	9.10	-41.1	-42.5	20.2	0.00e+00	0	38	0	206569472	54	6787
2026-01-07 20:55:30.31	62.48	9.33	-41.0	-42.3	20.5	0.00e+00	90	38	0	213909504	54	6638
2026-01-07 20:55:34.35	61.95	9.56	-40.8	-42.0	20.8	0.00e+00	92	38	0	221249536	54	6440
2026-01-07 20:55:38.39	61.41	9.79	-40.4	-41.6	21.2	0.00e+00	0	38	0	228589568	54	6106
2026-01-07 20:55:42.43	60.86	10.01	-40.4	-41.6	21.2	0.00e+00	0	38	0	236978176	54	6123
2026-01-07 20:55:46.47	60.31	10.24	-40.3	-41.5	21.3	0.00e+00	92	38	0	244318208	54	6061
2026-01-07 20:55:50.50	59.74	10.46	-40.5	-41.7	21.1	0.00e+00	91	38	0	251658240	54	6219
2026-01-07 20:55:54.54	59.17	10.69	-40.6	-41.8	21.1	0.00e+00	6	38	0	258998272	54	6263
2026-01-07 20:55:58.58	58.58	10.91	-40.5	-41.7	21.1	0.00e+00	0	38	0	267386880	54	6218
2026-01-07 20:56:02.62	57.99	11.14	-40.5	-41.6	21.2	0.00e+00	92	38	0	274726912	54	6158
2026-01-07 20:56:06.66	57.39	11.36	-40.5	-41.6	21.2	0.00e+00	26	38	0	282066944	54	6159
2026-01-07 20:56:10.69	56.78	11.58	-40.6	-41.9	21.1	0.00e+00	6	38	0	289406976	54	6320
2026-01-07 20:56:14.73	56.16	11.80	-40.5	-41.7	21.2	0.00e+00	42	38	0	296747008	54	6207
2026-01-07 20:56:18.77	55.53	12.02	-40.2	-41.3	21.5	0.00e+00	92	38	0	305135616	54	5955
2026-01-07 20:56:22.80	54.89	12.24	-40.1	-41.2	21.7	0.00e+00	0	38	0	312475648	54	5844
2026-01-07 20:56:26.84	54.24	12.45	-39.6	-40.7	22.1	0.00e+00	0	38	0	319815680	52	6190
2026-01-07 20:56:30.88	53.58	12.67	-39.3	-40.3	22.6	0.00e+00	92	38	0	327155712	52	5929
2026-01-07 20:56:34.92	52.91	12.88	-39.2	-40.3	22.5	0.00e+00	92	38	0	335544320	52	5906
2026-01-07 20:56:38.95	52.24	13.09	-38.9	-39.9	23.0	0.00e+00	0	38	0	342884352	52	5635
2026-01-07 20:56:42.99	51.55	13.30	-39.0	-40.0	22.8	0.00e+00	0	38	0	350224384	52	5744
2026-01-07 20:56:47.03	50.85	13.50	-38.9	-39.9	22.9	0.00e+00	92	38	0	357564416	52	5662
2026-01-07 20:56:51.07	50.14	13.70	-38.4	-39.4	23.4	0.00e+00	90	38	0	364904448	50	5973
2026-01-07 20:56:55.10	49.42	13.90	-38.1	-39.0	23.8	0.00e+00	74	38	0	373293056	50	5721
2026-01-07 20:56:59.13	48.70	14.10	-38.0	-38.9	23.8	0.00e+00	0	38	0	380633088	50	5676
2026-01-07 20:57:03.17	47.96	14.29	-37.9	-38.8	23.9	0.00e+00	92	38	0	387973120	50	5591
2026-01-07 20:57:07.21	47.21	14.48	-38.0	-38.9	23.9	0.00e+00	91	38	0	395313152	50	5668
2026-01-07 20:57:11.24	46.46	14.67	-38.3	-39.2	23.5	0.00e+00	0	38	0	402653184	50	5870
2026-01-07 20:57:15.28	45.69	14.85	-38.6	-39.5	23.2	0.00e+00	0	38	0	411041792	50	6092
2026-01-07 20:57:19.32	44.92	15.03	-38.4	-39.3	23.4	0.00e+00	92	38	0	418381824	50	5936
2026-01-07 20:57:23.35	44.13	15.21	-38.3	-39.2	23.6	0.00e+00	0	38	0	425721856	50	5869
2026-01-07 20:57:27.40	43.34	15.38	-38.1	-39.0	23.7	0.00e+00	77	38	0	433061888	50	5742
2026-01-07 20:57:31.43	42.54	15.55	-38.1	-38.9	23.9	0.00e+00	0	38	0	441450496	50	5679
2026-01-07 20:57:35.47	41.72	15.71	-37.7	-38.6	24.1	0.00e+00	87	38	0	448790528	48	6126
2026-01-07 20:57:39.51	40.90	15.87	-37.8	-38.6	24.1	0.00e+00	82	38	0	456130560	48	6168
2026-01-07 20:57:43.55	40.07	16.02	-37.8	-38.7	24.0	0.00e+00	0	38	0	463470592	48	6204
2026-01-07 20:57:47.59	39.23	16.17	-37.7	-38.6	24.1	0.00e+00	91	38	0	470810624	48	6138
2026-01-07 20:57:51.63	38.39	16.31	-37.5	-38.4	24.3	0.00e+00	7	38	0	479199232	48	5987
2026-01-07 20:57:55.67	37.53	16.44	-37.8	-38.6	24.1	0.00e+00	6	38	0	486539264	48	6158
2026-01-07 20:57:59.70	36.67	16.57	-37.9	-38.8	24.0	0.00e+00	7	38	0	493879296	48	6284
2026-01-07 20:58:03.74	35.80	16.70	-37.9	-38.8	24.0	0.00e+00	92	38	0	501219328	48	6292
2026-01-07 20:58:07.78	34.93	16.81	-37.8	-38.7	24.0	0.00e+00	75	38	0	509607936	48	6203
2026-01-07 20:58:11.81	34.05	16.93	-38.1	-38.9	23.8	0.00e+00	2	38	0	516947968	48	6379
2026-01-07 20:58:15.85	33.16	17.03	-38.2	-39.1	23.7	0.00e+00	0	38	0	524288000	48	6526
2026-01-07 20:58:19.89	32.26	17.13	-38.6	-39.6	23.3	0.00e+00	90	38	0	531628032	48	6867
2026-01-07 20:58:23.92	31.36	17.22	-38.9	-39.9	23.1	0.00e+00	6	38	0	538968064	50	6340
2026-01-07 20:58:27.96	30.46	17.30	-38.5	-39.4	23.5	0.00e+00	75	38	0	547356672	50	5973
2026-01-07 20:58:31.99	29.55	17.38	-38.2	-39.1	23.7	0.00e+00	0	38	0	554696704	50	5791
2026-01-07 20:58:36.03	28.63	17.45	-38.9	-39.8	23.2	0.00e+00	92	38	0	562036736	50	6286
2026-01-07 20:58:40.07	27.71	17.51	-38.8	-39.8	23.1	0.00e+00	8	39	0	569376768	50	6270
2026-01-07 20:58:44.11	26.79	17.57	-38.8	-39.7	23.2	0.00e+00	74	38	0	577765376	50	6241
2026-01-07 20:58:48.15	25.86	17.62	-39.1	-40.0	22.9	0.00e+00	4	38	0	585105408	50	6449
2026-01-07 20:58:52.18	24.94	17.66	-39.0	-39.9	23.0	0.00e+00	92	38	0	592445440	50	6373
2026-01-07 20:58:56.22	24.00	17.69	-39.0	-40.0	23.0	0.00e+00	0	38	0	599785472	50	6403
2026-01-07 20:59:00.26	23.07	17.71	-38.7	-39.7	23.2	0.00e+00	7	38	0	607125504	50	6177
2026-01-07 20:59:04.30	22.14	17.73	-39.0	-39.9	23.0	0.00e+00	5	38	0	615514112	50	6372
2026-01-07 20:59:08.34	21.20	17.74	-39.1	-40.1	22.8	0.00e+00	92	38	0	622854144	50	6499
2026-01-07 20:59:12.37	20.27	17.74	-38.8	-39.7	23.1	0.00e+00	0	38	0	630194176	50	6232
2026-01-07 20:59:16.41	19.33	17.73	-39.1	-40.0	22.7	0.00e+00	0	38	0	637534208	50	6459
2026-01-07 20:59:20.45	18.40	17.72	-38.6	-39.5	23.4	0.00e+00	92	38	0	645922816	50	6086
2026-01-07 20:59:24.49	17.47	17.69	-38.5	-39.4	23.5	0.00e+00	92	38	0	653262848	50	5999
2026-01-07 20:59:28.53	16.53	17.66	-38.3	-39.2	23.8	0.00e+00	81	38	0	660602880	50	5833
2026-01-07 20:59:32.57	15.60	17.63	-38.3	-39.2	23.8	0.00e+00	0	38	0	667942912	50	5892
2026-01-07 20:59:36.61	14.68	17.58	-38.2	-39.1	23.8	0.00e+00	92	38	0	675282944	50	5787
2026-01-07 20:59:40.66	13.75	17.53	-37.9	-38.7	24.0	0.00e+00	2	38	0	683671552	50	5545
2026-01-07 20:59:44.69	12.83	17.47	-37.7	-38.6	24.2	0.00e+00	6	38	0	691011584	48	6105
2026-01-07 20:59:48.73	11.92	17.40	-37.3	-38.1	24.7	0.00e+00	75	38	0	698351616	48	5782
2026-01-07 20:59:52.77	11.01	17.32	-37.7	-38.6	24.2	0.00e+00	90	38	0	705691648	48	6111
2026-01-07 20:59:56.80	10.10	17.24	-37.7	-38.6	24.2	0.00e+00	0	38	0	714080256	48	6128
2026-01-07 21:00:00.84	9.20	17.15	-37.9	-38.7	24.1	0.00e+00	0	38	0	721420288	48	6242
2026-01-07 21:00:04.88	8.30	17.05	-38.1	-39.0	23.8	0.00e+00	5	38	0	728760320	48	6437
2026-01-07 21:00:08.92	7.41	16.95	-38.1	-39.0	23.7	0.00e+00	92	38	0	736100352	48	6435
2026-01-07 21:00:12.95	6.53	16.84	-38.5	-39.4	23.5	0.00e+00	0	39	0	743440384	48	6719
2026-01-07 21:00:16.99	5.66	16.72	-38.6	-39.5	23.4	0.00e+00	76	38	0	751828992	48	6846
2026-01-07 21:00:21.03	4.79	16.60	-38.8	-39.7	23.2	0.00e+00	0	38	0	759169024	50	6208
2026-01-07 21:00:25.07	3.92	16.47	-38.6	-39.5	23.4	0.00e+00	92	38	0	766509056	50	6085
2026-01-07 21:00:29.11	3.07	16.34	-38.6	-39.5	23.5	0.00e+00	6	38	0	773849088	50	6052
2026-01-07 21:00:33.14	2.22	16.20	-38.2	-39.1	23.7	0.00e+00	6	38	0	782237696	50	5792
2026-01-07 21:00:37.18	1.39	16.05	-38.3	-39.2	23.3	0.00e+00	81	38	0	789577728	50	5883
2026-01-07 21:00:41.21	0.56	15.90	-38.5	-39.4	23.5	0.00e+00	90	39	0	796917760	50	5996
2026-01-07 21:00:45.25	359.73	15.75	-39.1	-40.0	23.4	0.00e+00	1	38	0	804257792	50	6436
2026-01-07 21:00:49.29	358.92	15.58	-38.4	-39.3	23.6	0.00e+00	2	38	0	811597824	50	5917
2026-01-07 21:00:53.33	358.12	15.42	-38.7	-39.7	23.2	0.00e+00	0	38	0	819986432	50	6188
2026-01-07 21:00:57.36	357.32	15.25	-38.8	-39.8	23.2	0.00e+00	92	38	0	827326464	50	6267
2026-01-07 21:01:01.40	356.54	15.08	-38.8	-39.7	23.1	0.00e+00	0	38	0	834666496	50	6229
2026-01-07 21:01:05.44	355.76	14.90	-39.2	-40.2	22.8	0.00e+00	2	38	0	842006528	50	6543
2026-01-07 21:01:09.48	355.00	14.72	-39.1	-40.1	22.8	0.00e+00	79	38	0	850395136	50	6469
2026-01-07 21:01:13.52	354.24	14.53	-39.3	-40.3	22.6	0.00e+00	5	38	0	857735168	50	6661
2026-01-07 21:01:17.55	353.49	14.34	-39.4	-40.4	22.5	0.00e+00	0	39	0	865075200	50	6709
2026-01-07 21:01:21.59	352.76	14.15	-39.7	-40.7	22.3	0.00e+00	2	38	0	872415232	50	6974
2026-01-07 21:01:25.63	352.03	13.95	-40.1	-41.2	21.8	0.00e+00	92	38	0	879755264	52	6587
2026-01-07 21:01:29.66	351.31	13.75	-40.3	-41.4	21.6	0.00e+00	7	39	0	888143872	52	6767
2026-01-07 21:01:33.70	350.60	13.55	-40.0	-41.1	21.7	0.00e+00	5	38	0	895483904	52	6534
2026-01-07 21:01:37.74	349.90	13.35	-40.7	-41.9	21.0	0.00e+00	82	38	0	902823936	52	7111
2026-01-07 21:01:41.78	349.21	13.14	-40.6	-41.8	21.1	0.00e+00	92	38	0	910163968	54	6301
2026-01-07 21:01:45.82	348.54	12.93	-40.5	-41.7	21.2	0.00e+00	0	38	0	918552576	54	6205
2026-01-07 21:01:49.86	347.87	12.72	-40.7	-41.8	21.2	0.00e+00	5	39	0	925892608	54	6308
2026-01-07 21:01:53.90	347.21	12.51	-40.6	-41.7	21.2	0.00e+00	79	38	0	933232640	54	6243
2026-01-07 21:01:57.94	346.56	12.29	-40.7	-41.9	21.1	0.00e+00	92	38	0	940572672	54	6332
2026-01-07 21:02:01.98	345.92	12.08	-40.8	-42.1	21.0	0.00e+00	78	38	0	947912704	54	6482
2026-01-07 21:02:06.02	345.29	11.86	-40.5	-41.6	21.3	0.00e+00	0	39	0	956301312	54	6163
2026-01-07 21:02:10.06	344.66	11.64	-40.1	-41.2	21.7	0.00e+00	0	38	0	963641344	54	5857
2026-01-07 21:02:14.09	344.05	11.42	-39.9	-40.9	21.9	0.00e+00	92	39	0	970981376	54	5680
2026-01-07 21:02:18.13	343.45	11.20	-39.9	-41.0	21.8	0.00e+00	0	38	0	978321408	52	6409
2026-01-07 21:02:22.17	342.86	10.97	-39.7	-40.8	22.0	0.00e+00	78	39	0	986710016	52	6295
2026-01-07 21:02:26.21	342.27	10.75	-39.5	-40.5	22.2	0.00e+00	2	38	0	994050048	52	6062
2026-01-07 21:02:30.25	341.70	10.52	-39.2	-40.2	22.5	0.00e+00	0	38	0	1001390080	52	5887
2026-01-07 21:02:34.28	341.14	10.30	-39.0	-40.0	22.8	0.00e+00	0	38	0	1008730112	52	5719
2026-01-07 21:02:38.32	340.58	10.07	-38.9	-39.9	22.8	0.00e+00	2	38	0	1016070144	50	6337
2026-01-07 21:02:42.36	340.03	9.85	-38.8	-39.8	22.9	0.00e+00	91	38	0	1024458752	50	6285
2026-01-07 21:02:46.39	339.49	9.62	-38.6	-39.5	23.1	0.00e+00	52	38	0	1031798784	50	6085
2026-01-07 21:02:50.42	338.96	9.39	-38.5	-39.5	22.5	0.00e+00	5	39	0	1039138816	50	6049
2026-01-07 21:02:54.46	338.44	9.16	-38.8	-39.7	22.9	0.00e+00	0	38	0	1046478848	50	6244
2026-01-07 21:02:58.50	337.93	8.94	-38.8	-39.8	22.8	0.00e+00	92	39	0	1053818880	50	6276
2026-01-07 21:03:02.55	337.42	8.71	-39.0	-40.0	22.6	0.00e+00	86	38	0	1062207488	50	6405
2026-01-07 21:03:06.58	336.92	8.48	-39.3	-40.3	22.4	0.00e+00	0	38	0	1069547520	50	6656
2026-01-07 21:03:10.62	336.43	8.25	-39.3	-40.4	22.2	0.00e+00	7	38	0	1076887552	50	6696
2026-01-07 21:03:14.66	335.95	8.02	-39.2	-40.2	22.2	0.00e+00	91	38	0	1084227584	50	6615
2026-01-07 21:03:18.69	335.48	7.80	-39.5	-40.5	22.0	0.00e+00	7	38	0	1092616192	50	6825
2026-01-07 21:03:22.73	335.01	7.57	-39.4	-40.4	22.1	0.00e+00	2	38	0	1099956224	50	6727
2026-01-07 21:03:26.77	334.55	7.34	-39.7	-40.8	21.8	0.00e+00	81	38	0	1107296256	50	7062
2026-01-07 21:03:30.81	334.10	7.12	-39.8	-40.9	21.5	0.00e+00	92	38	0	1114636288	52	6388
2026-01-07 21:03:34.84	333.65	6.89	-40.0	-41.1	21.4	0.00e+00	2	38	0	1121976320	52	6532
2026-01-07 21:03:38.87	333.22	6.66	-40.1	-41.3	21.3	0.00e+00	1	39	0	1130364928	52	6666
2026-01-07 21:03:42.90	332.79	6.44	-40.6	-41.9	20.6	0.00e+00	0	38	0	1137704960	52	7127
2026-01-07 21:03:46.94	332.36	6.21	-40.7	-42.0	20.5	0.00e+00	90	38	0	1145044992	54	6423
2026-01-07 21:03:50.98	331.94	5.99	-40.8	-42.1	20.2	0.00e+00	0	38	0	1152385024	54	6512
2026-01-07 21:03:55.02	331.53	5.76	-40.8	-42.1	20.4	0.00e+00	0	39	0	1160773632	54	6506
2026-01-07 21:03:59.06	331.13	5.54	-41.2	-42.6	20.0	0.00e+00	0	39	0	1168113664	54	6870
2026-01-07 21:04:03.09	330.73	5.32	-41.3	-42.8	19.7	0.00e+00	92	39	0	1175453696	54	7015
2026-01-07 21:04:07.14	330.34	5.09	-41.4	-42.8	19.6	0.00e+00	81	38	0	1182793728	54	7038
2026-01-07 21:04:11.18	329.95	4.87	-41.5	-42.9	19.5	0.00e+00	0	38	0	1190133760	54	7147
2026-01-07 21:04:15.21	329.57	4.65	-41.7	-43.2	19.2	0.00e+00	82	38	0	1198522368	54	7353
2026-01-07 21:04:19.25	329.20	4.43	-42.0	-43.6	18.9	0.00e+00	0	38	0	1205862400	56	6899
2026-01-07 21:04:23.28	328.83	4.21	-42.1	-43.8	18.7	0.00e+00	0	38	0	1213202432	56	7040
2026-01-07 21:04:27.32	328.47	3.99	-42.1	-43.7	18.6	0.00e+00	0	38	0	1220542464	56	6973
2026-01-07 21:04:31.36	328.11	3.77	-41.8	-43.4	18.9	0.00e+00	92	38	0	1228931072	56	6735
2026-01-07 21:04:35.40	327.76	3.55	-41.9	-43.6	18.6	0.00e+00	5	38	0	1236271104	56	6881
2026-01-07 21:04:39.44	327.42	3.33	-42.1	-43.8	18.3	0.00e+00	4	39	0	1243611136	56	7059
2026-01-07 21:04:43.48	327.08	3.12	-42.4	-44.2	17.9	0.00e+00	4	38	0	1250951168	56	7342
2026-01-07 21:04:47.52	326.74	2.90	-49.1	-64.3	3.6	1.51e+00	0	39	104	1255145472	60	59146
2026-01-07 21:04:51.55	326.41	2.69	-49.6	-64.8	3.6	1.51e+00	0	39	104	1255145472	60	62832
2026-01-07 21:04:55.59	326.09	2.47	-49.5	-64.8	3.6	1.51e+00	0	39	104	1255145472	60	62531
2026-01-07 21:04:59.63	325.77	2.26	-49.4	-64.7	3.6	1.51e+00	0	39	104	1255145472	60	62079
2026-01-07 21:05:03.67	325.45	2.04	-49.5	-64.7	3.6	1.51e+00	0	38	104	1255145472	60	62274
2026-01-07 21:05:07.70	325.14	1.83	-49.5	-64.7	3.6	1.51e+00	0	39	104	1255145472	60	61936
2026-01-07 21:05:11.74	324.84	1.62	-49.5	-64.7	3.6	1.51e+00	0	39	104	1255145472	60	62198
2026-01-07 21:05:15.78	324.53	1.41	-49.5	-64.7	3.6	1.51e+00	0	39	104	1255145472	60	61882
2026-01-07 21:05:19.82	324.24	1.20	-49.4	-64.7	3.6	1.51e+00	0	39	104	1255145472	60	61996
2026-01-07 21:05:23.86	323.94	0.99	-49.4	-64.7	3.6	1.51e+00	0	39	104	1255145472	60	61816
2026-01-07 21:05:27.90	323.66	0.78	-49.4	-64.7	3.6	1.51e+00	0	39	104	1255145472	60	61767
2026-01-07 21:05:31.93	323.37	0.58	-49.4	-64.6	3.6	1.51e+00	0	38	104	1255145472	60	61409
2026-01-07 21:05:35.97	323.09	0.37	-49.4	-64.6	3.6	1.51e+00	0	38	104	1255145472	60	61374
2026-01-07 21:05:40.01	322.82	0.16	-49.4	-64.6	3.5	1.51e+00	0	39	104	1255145472	60	61415
2026-01-07 21:05:44.05	322.54	-0.04	-49.4	-64.6	3.6	1.51e+00	0	39	104	1255145472	60	61438

#Closed at: 2026-01-07 21:05:44
#Recorded file [1255 MB]: D:/lorett/data/35029_260108_085240.dat