passes_logs/2026/01/07/R4.6S_Anadyr/R4.6S_Anadyr__20260107_033405_AQUA_rec.log

#Pass ID: 20260107_033405_AQUA
#Satellite: AQUA
#Configuration: AQUA
#almurnet v.1.7.20251203
#Start time: 2026-01-07 03:34:07

#Version: 2.2.20231116
#Station: R4.6S_Anadyr
#Location: 177.4865 lon 64.73178 lat
#TLE: 1 27424U 02022A   26004.96787593  .00001598  00000+0  32997-3 0  9996
#TLE: 2 27424  98.4069 331.2279 0002002  90.2377   0.6092 14.61798176259425

#Time	Az	El	Level	Level2	SNR	BER	BlckErr	Temp	State	Recorded	gain1	gain2
2026-01-07 03:34:07.40	200.64	0.12	-48.8	-60.4	3.5	8.46e-01	0	31	0	0	60	37963
2026-01-07 03:34:11.44	200.89	0.35	-49.2	-67.2	3.5	3.02e+01	0	32	104	0	60	88637
2026-01-07 03:34:15.48	201.15	0.58	-49.3	-67.2	3.5	3.02e+01	0	32	104	0	60	88472
2026-01-07 03:34:19.52	201.40	0.81	-49.1	-67.0	3.5	3.02e+01	0	32	104	0	60	85938
2026-01-07 03:34:23.56	201.66	1.04	-48.3	-66.2	3.5	3.02e+01	0	32	104	0	60	78442
2026-01-07 03:34:27.59	201.93	1.27	-48.0	-65.7	3.5	3.02e+01	0	33	104	0	60	74325
2026-01-07 03:34:31.63	202.20	1.51	-48.0	-65.6	3.5	3.02e+01	0	33	104	0	60	73434
2026-01-07 03:34:35.67	202.48	1.74	-48.0	-65.7	3.5	3.02e+01	0	33	104	0	60	74196
2026-01-07 03:34:39.71	202.75	1.98	-48.0	-65.9	3.5	3.02e+01	0	33	104	0	60	75638
2026-01-07 03:34:43.75	203.04	2.22	-48.0	-65.8	3.5	3.02e+01	0	33	104	0	60	75188
2026-01-07 03:34:47.78	203.33	2.47	-48.0	-65.7	3.5	3.02e+01	0	33	104	0	60	74017
2026-01-07 03:34:51.82	203.62	2.71	-48.0	-65.9	3.5	3.02e+01	0	33	104	0	60	76288
2026-01-07 03:34:55.86	203.92	2.96	-47.8	-59.3	5.9	3.02e+01	92	33	0	0	60	35388
2026-01-07 03:34:59.90	204.22	3.20	-46.3	-51.6	14.0	3.02e+01	92	33	0	2097152	60	14709
2026-01-07 03:35:03.94	204.53	3.45	-40.7	-42.5	22.9	3.02e+01	91	33	0	9437184	56	6493
2026-01-07 03:35:07.97	204.85	3.71	-40.5	-42.3	23.1	3.02e+01	92	33	0	15204352	52	7973
2026-01-07 03:35:12.01	205.17	3.96	-40.9	-42.8	22.9	3.02e+01	92	33	0	22544384	56	6691
2026-01-07 03:35:16.05	205.50	4.21	-39.4	-41.0	24.6	3.02e+01	88	33	0	30408704	54	6102
2026-01-07 03:35:20.09	205.83	4.47	-39.1	-40.6	23.3	3.02e+01	90	33	0	37748736	54	5832
2026-01-07 03:35:24.13	206.17	4.73	-38.2	-39.6	25.9	3.02e+01	90	33	0	45613056	52	5828
2026-01-07 03:35:28.17	206.51	4.99	-38.1	-39.6	26.0	3.02e+01	92	33	0	52953088	52	5803
2026-01-07 03:35:32.21	206.87	5.26	-38.1	-39.5	26.1	3.02e+01	92	33	0	60817408	52	5752
2026-01-07 03:35:36.25	207.23	5.52	-37.8	-39.2	26.4	3.02e+01	92	33	0	68157440	50	6269
2026-01-07 03:35:40.29	207.59	5.79	-37.5	-38.9	26.7	3.02e+01	90	33	0	75497472	50	6022
2026-01-07 03:35:44.32	207.96	6.06	-37.7	-39.1	26.6	3.02e+01	92	33	0	83361792	50	6188
2026-01-07 03:35:48.36	208.34	6.33	-37.5	-38.9	26.8	3.02e+01	90	33	0	90701824	50	6003
2026-01-07 03:35:52.40	208.73	6.61	-37.3	-38.7	27.0	3.02e+01	92	33	0	98566144	50	5885
2026-01-07 03:35:56.44	209.13	6.89	-37.3	-38.6	27.1	3.02e+01	92	33	0	105906176	50	5827
2026-01-07 03:36:00.47	209.53	7.16	-37.2	-38.6	27.1	3.02e+01	92	33	0	113770496	50	5814
2026-01-07 03:36:04.51	209.94	7.45	-37.2	-38.6	27.2	3.02e+01	92	33	0	121110528	50	5812
2026-01-07 03:36:08.55	210.36	7.73	-37.0	-38.3	27.4	3.02e+01	92	33	0	128974848	50	5652
2026-01-07 03:36:12.59	210.79	8.02	-37.0	-38.3	27.4	3.02e+01	90	33	0	136314880	48	6339
2026-01-07 03:36:16.63	211.23	8.30	-36.7	-38.0	27.8	3.02e+01	92	33	0	143654912	48	6126
2026-01-07 03:36:20.66	211.67	8.59	-36.8	-38.1	27.6	3.02e+01	91	33	0	151519232	48	6168
2026-01-07 03:36:24.70	212.13	8.89	-36.7	-38.0	27.8	3.02e+01	92	33	0	158859264	48	6086
2026-01-07 03:36:28.74	212.59	9.18	-36.7	-37.9	27.8	3.02e+01	92	33	0	166723584	48	6060
2026-01-07 03:36:32.77	213.07	9.48	-36.5	-37.8	27.9	3.02e+01	92	33	0	174063616	48	5983
2026-01-07 03:36:36.81	213.55	9.78	-36.4	-37.6	28.2	3.02e+01	91	33	0	181927936	48	5854
2026-01-07 03:36:40.84	214.05	10.08	-36.3	-37.6	28.2	3.02e+01	92	33	0	189267968	48	5810
2026-01-07 03:36:44.89	214.56	10.39	-36.4	-37.6	28.1	3.02e+01	90	33	0	197132288	48	5858
2026-01-07 03:36:48.92	215.08	10.69	-36.2	-37.4	28.3	3.02e+01	92	33	0	204472320	48	5711
2026-01-07 03:36:52.96	215.61	11.00	-36.1	-37.4	28.5	3.02e+01	91	33	0	211812352	48	5676
2026-01-07 03:36:57.00	216.15	11.32	-36.2	-37.5	28.4	3.02e+01	92	33	0	219676672	48	5728
2026-01-07 03:37:01.04	216.70	11.63	-36.1	-37.4	28.5	3.02e+01	92	33	0	227016704	48	5680
2026-01-07 03:37:05.07	217.27	11.95	-36.0	-37.3	28.6	3.02e+01	91	33	0	234881024	46	6295
2026-01-07 03:37:09.11	217.85	12.27	-36.0	-37.3	28.6	3.02e+01	91	33	0	242221056	46	6294
2026-01-07 03:37:13.15	218.44	12.59	-36.0	-37.2	28.7	3.02e+01	90	33	0	250085376	46	6253
2026-01-07 03:37:17.18	219.04	12.91	-35.9	-37.1	28.7	3.02e+01	90	33	0	257425408	46	6197
2026-01-07 03:37:21.22	219.66	13.23	-35.9	-37.1	28.7	3.02e+01	92	33	0	264765440	46	6180
2026-01-07 03:37:25.26	220.30	13.56	-35.7	-36.9	28.9	3.02e+01	92	33	0	272629760	46	6064
2026-01-07 03:37:29.30	220.95	13.89	-35.6	-36.8	29.1	3.02e+01	91	33	0	279969792	46	5951
2026-01-07 03:37:33.34	221.61	14.22	-35.7	-36.9	29.0	3.02e+01	88	33	0	287834112	46	6041
2026-01-07 03:37:37.38	222.29	14.55	-35.7	-36.9	29.0	3.02e+01	91	33	0	295174144	46	6020
2026-01-07 03:37:41.41	222.99	14.88	-35.6	-36.8	29.1	3.02e+01	91	33	0	303038464	46	5959
2026-01-07 03:37:45.45	223.70	15.22	-35.4	-36.6	29.3	3.02e+01	91	33	0	310378496	46	5815
2026-01-07 03:37:49.48	224.43	15.55	-35.5	-36.7	29.2	3.02e+01	91	33	0	318242816	46	5875
2026-01-07 03:37:53.52	225.17	15.89	-35.3	-36.5	29.4	3.02e+01	91	33	0	325582848	46	5731
2026-01-07 03:37:57.56	225.94	16.22	-35.3	-36.5	29.4	3.02e+01	91	33	0	332922880	46	5728
2026-01-07 03:38:01.59	226.72	16.56	-35.4	-36.6	29.3	3.02e+01	91	33	0	340787200	46	5839
2026-01-07 03:38:05.63	227.52	16.90	-35.5	-36.7	29.2	3.02e+01	92	33	0	348127232	46	5894
2026-01-07 03:38:09.67	228.34	17.24	-35.3	-36.5	29.4	3.02e+01	92	33	0	355991552	46	5754
2026-01-07 03:38:13.71	229.17	17.57	-35.4	-36.6	29.4	3.02e+01	92	33	0	363331584	46	5808
2026-01-07 03:38:17.75	230.03	17.91	-35.3	-36.6	29.4	3.02e+01	92	33	0	371195904	46	5793
2026-01-07 03:38:21.78	230.91	18.24	-35.5	-36.7	29.3	3.02e+01	92	33	0	378535936	46	5868
2026-01-07 03:38:25.82	231.80	18.58	-35.3	-36.5	29.5	3.02e+01	92	33	0	385875968	46	5739
2026-01-07 03:38:29.85	232.72	18.91	-35.3	-36.5	29.4	3.02e+01	92	33	0	393740288	46	5779
2026-01-07 03:38:33.89	233.66	19.24	-35.2	-36.4	29.5	3.02e+01	90	33	0	401080320	46	5705
2026-01-07 03:38:37.93	234.62	19.57	-35.4	-36.6	29.4	3.02e+01	92	33	0	408944640	46	5825
2026-01-07 03:38:41.97	235.60	19.89	-35.4	-36.6	29.3	3.02e+01	90	33	0	416284672	46	5849
2026-01-07 03:38:46.01	236.60	20.21	-35.3	-36.5	29.4	3.02e+01	92	33	0	424148992	46	5777
2026-01-07 03:38:50.04	237.62	20.53	-35.5	-36.7	29.4	3.02e+01	92	33	0	431489024	46	5895
2026-01-07 03:38:54.08	238.67	20.84	-35.5	-36.7	29.3	3.02e+01	90	33	0	439353344	46	5916
2026-01-07 03:38:58.12	239.74	21.15	-35.5	-36.8	29.3	3.02e+01	92	33	0	446693376	46	5929
2026-01-07 03:39:02.16	240.83	21.45	-35.7	-36.9	29.1	3.02e+01	92	33	0	454033408	46	6042
2026-01-07 03:39:06.19	241.93	21.74	-35.7	-36.9	29.2	3.02e+01	92	33	0	461897728	46	6025
2026-01-07 03:39:10.23	243.07	22.03	-35.6	-36.8	29.2	3.02e+01	90	33	0	469237760	46	5974
2026-01-07 03:39:14.26	244.22	22.31	-35.7	-36.9	29.3	3.02e+01	92	33	0	477102080	46	6013
2026-01-07 03:39:18.30	245.39	22.58	-35.6	-36.8	29.3	3.02e+01	92	33	0	484442112	46	5974
2026-01-07 03:39:22.34	246.59	22.85	-35.8	-37.0	29.1	3.02e+01	92	33	0	492306432	46	6129
2026-01-07 03:39:26.37	247.80	23.10	-35.7	-36.9	29.2	3.02e+01	92	33	0	499646464	46	6040
2026-01-07 03:39:30.41	249.04	23.34	-36.1	-37.4	28.8	3.02e+01	92	33	0	506986496	46	6359
2026-01-07 03:39:34.45	250.30	23.57	-35.8	-37.1	29.0	3.02e+01	91	33	0	514850816	46	6150
2026-01-07 03:39:38.48	251.57	23.79	-35.9	-37.1	29.0	3.02e+01	92	33	0	522190848	46	6199
2026-01-07 03:39:42.53	252.86	24.00	-35.9	-37.1	29.0	3.02e+01	89	33	0	530055168	46	6148
2026-01-07 03:39:46.56	254.17	24.19	-35.7	-36.9	29.2	3.02e+01	92	33	0	537395200	46	6026
2026-01-07 03:39:50.60	255.49	24.38	-35.7	-36.9	29.2	3.02e+01	90	33	0	545259520	46	6033
2026-01-07 03:39:54.64	256.83	24.54	-35.7	-36.9	29.1	3.02e+01	92	33	0	552599552	46	6057
2026-01-07 03:39:58.68	258.19	24.69	-35.7	-36.9	29.2	3.02e+01	90	33	0	560463872	46	6061
2026-01-07 03:40:02.71	259.55	24.83	-35.8	-37.1	29.0	3.02e+01	92	33	0	567803904	46	6147
2026-01-07 03:40:06.75	260.93	24.95	-35.6	-36.8	29.3	3.02e+01	92	33	0	575143936	46	5945
2026-01-07 03:40:10.79	262.32	25.06	-35.7	-36.9	29.2	3.02e+01	90	33	0	583008256	46	6042
2026-01-07 03:40:14.83	263.71	25.14	-35.8	-37.0	29.0	3.02e+01	90	33	0	590348288	46	6118
2026-01-07 03:40:18.87	265.12	25.21	-35.6	-36.8	29.3	3.02e+01	92	33	0	598212608	46	5964
2026-01-07 03:40:22.89	266.52	25.27	-35.5	-36.7	29.4	3.02e+01	92	33	0	605552640	46	5878
2026-01-07 03:40:26.93	267.93	25.30	-35.6	-36.8	29.3	3.02e+01	92	33	0	613416960	46	5981
2026-01-07 03:40:30.97	269.35	25.32	-35.5	-36.7	29.4	3.02e+01	92	33	0	620756992	46	5881
2026-01-07 03:40:35.00	270.76	25.32	-35.2	-36.4	29.6	3.02e+01	91	33	0	628097024	46	5716
2026-01-07 03:40:39.04	272.17	25.31	-35.4	-36.6	29.5	3.02e+01	92	33	0	635961344	46	5819
2026-01-07 03:40:43.08	273.59	25.27	-35.3	-36.5	29.5	3.02e+01	92	33	0	643301376	46	5773
2026-01-07 03:40:47.12	274.99	25.22	-35.2	-36.4	29.5	3.02e+01	92	33	0	651165696	46	5703
2026-01-07 03:40:51.16	276.40	25.15	-35.1	-36.3	29.7	3.02e+01	92	33	0	658505728	46	5650
2026-01-07 03:40:55.19	277.79	25.07	-35.2	-36.4	29.6	3.02e+01	90	33	0	666370048	46	5699
2026-01-07 03:40:59.23	279.18	24.97	-35.2	-36.4	29.6	3.02e+01	92	33	0	673710080	46	5696
2026-01-07 03:41:03.27	280.55	24.85	-35.2	-36.4	29.5	3.02e+01	92	33	0	681050112	46	5705
2026-01-07 03:41:07.31	281.92	24.71	-35.2	-36.4	29.5	3.02e+01	92	33	0	688914432	46	5672
2026-01-07 03:41:11.34	283.27	24.56	-35.4	-36.6	29.5	3.02e+01	90	33	0	696254464	46	5803
2026-01-07 03:41:15.38	284.61	24.40	-35.0	-36.2	29.7	3.02e+01	90	33	0	704118784	46	5556
2026-01-07 03:41:19.42	285.93	24.22	-35.1	-36.3	29.6	3.02e+01	59	33	0	711458816	44	6311
2026-01-07 03:41:23.46	287.24	24.03	-34.9	-36.1	29.9	3.02e+01	57	33	0	719323136	44	6137
2026-01-07 03:41:27.49	288.53	23.82	-35.0	-36.2	29.8	3.02e+01	58	33	0	726663168	44	6223
2026-01-07 03:41:31.52	289.80	23.60	-35.1	-36.2	29.7	3.02e+01	51	33	0	734003200	44	6275
2026-01-07 03:41:35.56	291.05	23.38	-35.5	-36.7	29.1	3.02e+01	55	33	0	741867520	44	6597
2026-01-07 03:41:39.59	292.28	23.14	-34.9	-36.1	29.8	3.02e+01	51	33	0	749207552	44	6143
2026-01-07 03:41:43.63	293.50	22.89	-34.9	-36.1	29.8	3.02e+01	59	33	0	757071872	44	6141
2026-01-07 03:41:47.67	294.69	22.62	-34.8	-36.0	30.0	3.02e+01	56	33	0	764411904	44	6071
2026-01-07 03:41:51.70	295.86	22.36	-35.0	-36.1	29.7	3.02e+01	59	33	0	772276224	44	6192
2026-01-07 03:41:55.74	297.02	22.08	-34.7	-35.8	30.0	3.02e+01	51	33	0	779616256	44	5977
2026-01-07 03:41:59.77	298.14	21.79	-34.9	-36.1	29.9	3.02e+01	57	33	0	787480576	44	6147
2026-01-07 03:42:03.81	299.25	21.50	-34.8	-36.0	29.9	3.02e+01	55	33	0	794820608	44	6082
2026-01-07 03:42:07.84	300.34	21.20	-34.6	-35.8	30.0	3.02e+01	58	33	0	802160640	44	5958
2026-01-07 03:42:11.88	301.41	20.90	-34.9	-36.1	29.8	3.02e+01	45	33	0	810024960	44	6194
2026-01-07 03:42:15.92	302.45	20.59	-34.6	-35.8	30.1	3.02e+01	60	33	0	817364992	44	5944
2026-01-07 03:42:19.96	303.47	20.28	-34.5	-35.7	30.1	3.02e+01	39	33	0	825229312	44	5890
2026-01-07 03:42:24.00	304.47	19.96	-34.5	-35.7	30.0	3.02e+01	57	33	0	832569344	44	5899
2026-01-07 03:42:28.04	305.45	19.64	-34.7	-35.9	30.0	3.02e+01	47	33	0	840433664	44	6009
2026-01-07 03:42:32.07	306.41	19.31	-34.4	-35.6	30.1	3.02e+01	61	33	0	847773696	44	5811
2026-01-07 03:42:36.11	307.35	18.98	-34.5	-35.6	30.1	3.02e+01	48	33	0	855113728	44	5856
2026-01-07 03:42:40.14	308.26	18.66	-34.4	-35.6	30.2	3.02e+01	58	33	0	862978048	44	5814
2026-01-07 03:42:44.18	309.16	18.32	-34.5	-35.7	30.0	3.02e+01	60	33	0	870318080	44	5877
2026-01-07 03:42:48.21	310.03	17.99	-34.5	-35.6	30.1	3.02e+01	63	33	0	878182400	44	5852
2026-01-07 03:42:52.25	310.89	17.66	-34.4	-35.6	30.1	3.02e+01	60	33	0	885522432	44	5817
2026-01-07 03:42:56.29	311.73	17.32	-34.3	-35.5	30.2	3.02e+01	58	33	0	893386752	44	5773
2026-01-07 03:43:00.32	312.55	16.99	-34.3	-35.5	30.2	3.02e+01	58	33	0	900726784	44	5749
2026-01-07 03:43:04.36	313.34	16.65	-34.5	-35.7	30.0	3.02e+01	61	33	0	908591104	44	5904
2026-01-07 03:43:08.39	314.12	16.32	-34.7	-35.8	29.9	3.02e+01	59	33	0	915931136	44	5985
2026-01-07 03:43:12.43	314.89	15.99	-34.5	-35.7	29.9	3.02e+01	55	33	0	923271168	44	5904
2026-01-07 03:43:16.47	315.63	15.65	-34.5	-35.7	30.0	3.02e+01	60	33	0	931135488	44	5883
2026-01-07 03:43:20.51	316.36	15.32	-34.5	-35.6	30.1	3.02e+01	49	33	0	938475520	44	5855
2026-01-07 03:43:24.54	317.07	14.99	-34.5	-35.6	30.0	3.02e+01	58	33	0	946339840	44	5849
2026-01-07 03:43:28.58	317.77	14.66	-34.6	-35.8	29.9	3.02e+01	61	33	0	953679872	44	5992
2026-01-07 03:43:32.61	318.45	14.33	-34.6	-35.8	29.8	3.02e+01	59	33	0	961544192	44	5968
2026-01-07 03:43:36.64	319.11	14.00	-34.7	-35.9	29.8	3.02e+01	57	33	0	968884224	44	6020
2026-01-07 03:43:40.68	319.76	13.68	-34.7	-35.9	29.8	3.02e+01	58	33	0	976748544	44	6015
2026-01-07 03:43:44.72	320.40	13.35	-34.6	-35.8	29.8	3.02e+01	59	33	0	984088576	44	5972
2026-01-07 03:43:48.76	321.02	13.03	-34.9	-36.1	29.7	3.02e+01	62	33	0	991428608	44	6149
2026-01-07 03:43:52.80	321.62	12.71	-34.8	-36.0	29.6	3.02e+01	59	33	0	999292928	44	6118
2026-01-07 03:43:56.83	322.22	12.39	-35.0	-36.2	29.5	3.02e+01	61	33	0	1006632960	44	6253
2026-01-07 03:44:00.87	322.80	12.07	-35.0	-36.2	29.4	3.02e+01	61	33	0	1014497280	44	6274
2026-01-07 03:44:04.90	323.36	11.76	-35.1	-36.3	29.3	3.02e+01	60	33	0	1021837312	44	6341
2026-01-07 03:44:08.95	323.92	11.45	-35.2	-36.4	29.2	3.02e+01	53	33	0	1029701632	44	6372
2026-01-07 03:44:12.99	324.46	11.14	-35.2	-36.4	29.3	3.02e+01	56	33	0	1037041664	44	6379
2026-01-07 03:44:17.02	324.99	10.83	-35.3	-36.5	29.2	3.02e+01	58	33	0	1044381696	44	6456
2026-01-07 03:44:21.06	325.51	10.52	-35.3	-36.6	29.1	3.02e+01	62	34	0	1052246016	44	6505
2026-01-07 03:44:25.09	326.02	10.22	-35.7	-36.9	28.8	3.02e+01	51	33	0	1059586048	44	6764
2026-01-07 03:44:29.13	326.52	9.92	-35.6	-36.9	28.7	3.02e+01	59	33	0	1067450368	44	6749
2026-01-07 03:44:33.17	327.01	9.62	-35.6	-36.8	28.8	3.02e+01	52	33	0	1074790400	44	6726
2026-01-07 03:44:37.21	327.48	9.33	-35.7	-37.0	28.6	3.02e+01	60	33	0	1082654720	44	6814
2026-01-07 03:44:41.24	327.95	9.03	-35.9	-37.1	28.5	3.02e+01	52	33	0	1089994752	46	6194
2026-01-07 03:44:45.28	328.41	8.74	-35.9	-37.2	28.5	3.02e+01	59	33	0	1097859072	46	6216
2026-01-07 03:44:49.32	328.86	8.45	-35.9	-37.2	28.4	3.02e+01	46	33	0	1105199104	46	6208
2026-01-07 03:44:53.36	329.29	8.17	-36.8	-38.2	27.7	3.02e+01	58	33	0	1112539136	46	6966
2026-01-07 03:44:57.39	329.72	7.88	-37.0	-47.2	3.4	3.02e+01	0	33	104	1118306304	48	17651
2026-01-07 03:45:01.43	330.15	7.60	-37.9	-48.1	3.6	3.02e+01	0	33	104	1118306304	54	13833
2026-01-07 03:45:05.47	330.56	7.32	-39.2	-49.6	3.6	3.02e+01	0	33	104	1118306304	54	16430
2026-01-07 03:45:09.51	330.96	7.04	-38.3	-48.7	3.6	3.02e+01	0	33	104	1118306304	50	18672
2026-01-07 03:45:13.55	331.36	6.77	-40.7	-51.3	3.4	3.02e+01	0	33	104	1118306304	56	17880
2026-01-07 03:45:17.59	331.75	6.49	-37.5	-47.7	3.5	3.02e+01	0	33	104	1118306304	50	16702
2026-01-07 03:45:21.63	332.13	6.22	-41.3	-52.1	3.5	3.02e+01	0	34	104	1118306304	60	15547
2026-01-07 03:45:25.67	332.51	5.96	-39.9	-50.4	3.5	3.02e+01	0	34	104	1118306304	54	17901
2026-01-07 03:45:29.70	332.88	5.69	-45.3	-59.6	3.5	3.02e+01	0	34	104	1118306304	60	36614
2026-01-07 03:45:33.73	333.24	5.43	-40.4	-51.1	3.5	3.02e+01	0	34	104	1118306304	56	17380
2026-01-07 03:45:37.77	333.59	5.16	-43.3	-57.1	3.5	3.02e+01	0	34	104	1118306304	58	30773
2026-01-07 03:45:41.81	333.94	4.90	-43.4	-56.6	3.5	3.02e+01	0	34	104	1118306304	60	25952
2026-01-07 03:45:45.84	334.28	4.65	-44.2	-60.1	3.5	3.02e+01	0	34	104	1118306304	60	38982
2026-01-07 03:45:49.88	334.62	4.39	-44.5	-60.6	3.5	3.02e+01	0	34	104	1118306304	60	41319
2026-01-07 03:45:53.91	334.95	4.14	-44.4	-61.6	3.5	3.02e+01	0	34	104	1118306304	60	46255
2026-01-07 03:45:57.95	335.27	3.88	-44.4	-62.3	3.5	3.02e+01	0	34	104	1118306304	60	50142
2026-01-07 03:46:01.99	335.59	3.63	-44.5	-62.4	3.5	3.02e+01	0	34	104	1118306304	60	50688
2026-01-07 03:46:06.02	335.90	3.39	-44.5	-62.3	3.5	3.02e+01	0	34	104	1118306304	60	50438
2026-01-07 03:46:10.06	336.21	3.14	-44.4	-62.4	3.5	3.02e+01	0	34	104	1118306304	60	50502
2026-01-07 03:46:14.09	336.51	2.90	-48.7	-66.7	3.5	3.02e+01	0	34	104	1118306304	60	82770
2026-01-07 03:46:18.13	336.81	2.65	-49.3	-67.2	3.5	3.02e+01	0	34	104	1118306304	60	88418
2026-01-07 03:46:22.17	337.10	2.41	-49.2	-67.3	3.5	3.02e+01	0	34	104	1118306304	60	89181
2026-01-07 03:46:26.21	337.38	2.17	-49.4	-67.2	3.5	3.02e+01	0	34	104	1118306304	60	88409
2026-01-07 03:46:30.25	337.67	1.93	-49.3	-67.3	3.5	3.02e+01	0	34	104	1118306304	60	88756
2026-01-07 03:46:34.28	337.94	1.70	-49.3	-67.3	3.5	3.02e+01	0	34	104	1118306304	60	88922
2026-01-07 03:46:38.32	338.22	1.46	-49.3	-67.2	3.5	3.02e+01	0	34	104	1118306304	60	88562
2026-01-07 03:46:42.36	338.49	1.23	-49.3	-67.2	3.5	3.02e+01	0	34	104	1118306304	60	88419
2026-01-07 03:46:46.40	338.75	1.00	-49.3	-67.2	3.5	3.02e+01	0	34	104	1118306304	60	88358
2026-01-07 03:46:50.44	339.01	0.77	-49.3	-67.2	3.5	3.02e+01	0	34	104	1118306304	60	88552
2026-01-07 03:46:54.48	339.27	0.54	-49.3	-67.2	3.5	3.02e+01	0	34	104	1118306304	60	88549
2026-01-07 03:46:58.52	339.52	0.32	-49.3	-67.2	3.5	3.02e+01	0	34	104	1118306304	60	88514
2026-01-07 03:47:02.56	339.77	0.09	-49.3	-67.2	3.5	3.02e+01	0	34	104	1118306304	60	88439

#Closed at: 2026-01-07 03:47:04
#Recorded file [1118 MB]: D:/lorett/data/35029_260107_153407.dat