passes_logs/2026/01/07/R4.6S_Anadyr/R4.6S_Anadyr__20260107_221902_TY-39_rec.log

#Pass ID: 20260107_221902_TY-39
#Satellite: TY-39
#Configuration: TY-39
#almurnet v.1.7.20251203
#Start time: 2026-01-07 22:19:06

#Version: 2.2.20231116
#Station: R4.6S_Anadyr
#Location: 177.4865 lon 64.73178 lat
#TLE: 1 51832U 22019J   26005.60812338  .00003126  00000-0  14986-3 0  9990
#TLE: 2 51832  97.3660  72.5273 0010440  80.2600 279.9813 15.19590096213104

#Time	Az	El	Level	Level2	SNR	BER	BlckErr	Temp	State	Recorded	gain1	gain2
2026-01-07 22:19:06.85	18.93	0.31	-49.4	-61.9	3.5	1.52e+00	0	36	0	0	60	43866
2026-01-07 22:19:09.88	19.04	0.50	-49.8	-52.3	3.6	0.00e+00	0	37	104	0	60	50534
2026-01-07 22:19:12.91	19.14	0.69	-49.7	-52.2	3.6	0.00e+00	0	37	104	0	60	49784
2026-01-07 22:19:15.94	19.26	0.89	-49.3	-51.8	3.6	0.00e+00	0	38	104	0	60	47657
2026-01-07 22:19:18.96	19.37	1.08	-48.7	-51.2	3.6	0.00e+00	0	38	104	0	60	44263
2026-01-07 22:19:21.99	19.48	1.28	-48.5	-51.0	3.6	0.00e+00	0	38	104	0	60	43286
2026-01-07 22:19:25.02	19.60	1.48	-48.5	-51.0	3.6	0.00e+00	0	38	104	0	60	43346
2026-01-07 22:19:28.05	19.71	1.69	-48.5	-50.9	3.6	0.00e+00	0	38	104	0	60	43163
2026-01-07 22:19:31.08	19.83	1.89	-48.5	-51.0	3.6	0.00e+00	0	38	104	0	60	43340
2026-01-07 22:19:34.10	19.96	2.09	-48.5	-51.0	3.6	0.00e+00	0	38	104	0	60	43409
2026-01-07 22:19:37.13	20.08	2.30	-48.5	-51.0	3.6	0.00e+00	0	38	104	0	60	43310
2026-01-07 22:19:40.16	20.20	2.51	-48.5	-51.0	3.6	0.00e+00	0	38	104	0	60	43511
2026-01-07 22:19:43.19	20.33	2.72	-48.5	-51.0	3.6	0.00e+00	0	38	104	0	60	43209
2026-01-07 22:19:46.22	20.46	2.94	-48.5	-50.9	3.6	0.00e+00	0	38	104	0	60	43127
2026-01-07 22:19:49.25	20.59	3.15	-48.5	-50.9	3.6	0.00e+00	0	38	104	0	60	43142
2026-01-07 22:19:52.28	20.73	3.37	-48.5	-51.0	3.6	0.00e+00	0	38	104	0	60	43298
2026-01-07 22:19:55.31	20.86	3.59	-48.5	-51.0	3.6	0.00e+00	0	38	104	0	60	43390
2026-01-07 22:19:58.34	21.00	3.81	-48.5	-50.9	3.6	0.00e+00	0	39	104	0	60	42977
2026-01-07 22:20:01.37	21.14	4.04	-48.5	-50.9	3.6	0.00e+00	0	39	104	0	60	43154
2026-01-07 22:20:04.40	21.29	4.27	-48.5	-51.0	3.6	0.00e+00	0	39	104	0	60	43483
2026-01-07 22:20:07.42	21.43	4.50	-48.5	-51.0	3.6	0.00e+00	0	39	104	0	60	43515
2026-01-07 22:20:10.45	21.58	4.73	-46.6	-48.3	3.9	2.08e-05	0	39	104	25165824	60	31741
2026-01-07 22:20:13.49	21.73	4.96	-30.5	-30.9	15.2	0.00e+00	0	39	0	176160768	36	17165
2026-01-07 22:20:16.51	21.89	5.20	-30.1	-30.6	15.4	0.00e+00	0	39	0	402653184	36	16435
2026-01-07 22:20:19.54	22.04	5.44	-29.9	-30.4	15.6	0.00e+00	0	39	0	629145600	36	16111
2026-01-07 22:20:22.57	22.20	5.68	-29.9	-30.3	15.6	0.00e+00	0	39	0	855638016	36	15965
2026-01-07 22:20:25.61	22.37	5.93	-29.8	-30.3	15.6	0.00e+00	0	39	0	1082130432	36	15881
2026-01-07 22:20:28.64	22.53	6.18	-29.8	-30.3	15.6	0.00e+00	0	39	0	1317011456	34	17815
2026-01-07 22:20:31.67	22.70	6.43	-29.6	-30.1	15.7	0.00e+00	0	40	0	1535115264	34	17447
2026-01-07 22:20:34.70	22.88	6.69	-29.5	-29.9	15.8	0.00e+00	0	39	0	1769996288	34	17157
2026-01-07 22:20:37.73	23.06	6.94	-29.5	-29.9	15.8	0.00e+00	0	40	0	1996488704	34	17153
2026-01-07 22:20:40.76	23.24	7.21	-29.2	-29.7	15.9	0.00e+00	0	39	0	2222981120	34	16704
2026-01-07 22:20:43.79	23.42	7.47	-29.2	-29.6	15.9	0.00e+00	0	39	0	2449473536	34	16544
2026-01-07 22:20:46.81	23.61	7.74	-29.0	-29.4	16.0	0.00e+00	0	40	0	2675965952	34	16228
2026-01-07 22:20:49.83	23.80	8.01	-29.0	-29.4	16.0	0.00e+00	0	39	0	2902458368	34	16229
2026-01-07 22:20:52.86	24.00	8.29	-28.8	-29.2	16.1	0.00e+00	0	40	0	3128950784	32	17782
2026-01-07 22:20:55.88	24.20	8.57	-28.7	-29.1	16.1	0.00e+00	0	40	0	3355443200	32	17590
2026-01-07 22:20:58.91	24.40	8.85	-28.7	-29.2	16.1	0.00e+00	0	40	0	3581935616	32	17652
2026-01-07 22:21:01.94	24.62	9.14	-28.5	-28.9	16.2	0.00e+00	0	40	0	3808428032	32	17197
2026-01-07 22:21:04.96	24.83	9.43	-28.5	-28.9	16.2	0.00e+00	0	40	0	4034920448	32	17190
2026-01-07 22:21:07.99	25.05	9.73	-28.5	-29.0	16.1	0.00e+00	0	40	0	4261412864	32	17252
2026-01-07 22:21:11.02	25.28	10.03	-28.2	-28.7	16.2	0.00e+00	0	40	0	4496293888	32	16697
2026-01-07 22:21:14.04	25.51	10.33	-28.0	-28.5	16.3	0.00e+00	0	40	0	4714397696	32	16300
2026-01-07 22:21:17.07	25.74	10.64	-27.9	-28.4	16.3	0.00e+00	0	40	0	4949278720	32	16159
2026-01-07 22:21:20.10	25.99	10.96	-28.0	-28.5	16.3	0.00e+00	0	40	0	5175771136	32	16349
2026-01-07 22:21:23.12	26.24	11.28	-27.8	-28.3	16.4	0.00e+00	0	40	0	5402263552	30	17830
2026-01-07 22:21:26.15	26.49	11.60	-27.6	-28.1	16.4	0.00e+00	0	40	0	5628755968	30	17534
2026-01-07 22:21:29.18	26.75	11.93	-27.7	-28.1	16.2	0.00e+00	0	40	0	5855248384	30	17557
2026-01-07 22:21:32.21	27.02	12.27	-27.4	-27.9	16.3	0.00e+00	0	40	0	6081740800	30	17109
2026-01-07 22:21:35.23	27.30	12.61	-27.4	-27.9	16.5	0.00e+00	0	40	0	6308233216	30	17029
2026-01-07 22:21:38.26	27.58	12.96	-27.2	-27.7	16.4	0.00e+00	0	40	0	6534725632	30	16656
2026-01-07 22:21:41.29	27.87	13.32	-27.2	-27.7	16.5	0.00e+00	0	40	0	6761218048	30	16677
2026-01-07 22:21:44.31	28.17	13.68	-27.1	-27.5	16.6	0.00e+00	0	40	0	6987710464	30	16381
2026-01-07 22:21:47.34	28.48	14.04	-26.9	-27.4	16.6	0.00e+00	0	40	0	7214202880	30	16124
2026-01-07 22:21:50.37	28.80	14.42	-26.6	-27.1	16.6	0.00e+00	0	40	0	7440695296	28	17520
2026-01-07 22:21:53.40	29.12	14.80	-26.7	-27.2	16.7	0.00e+00	0	40	0	7667187712	28	17702
2026-01-07 22:21:56.43	29.46	15.19	-26.5	-27.0	16.6	0.00e+00	0	40	0	7902068736	28	17247
2026-01-07 22:21:59.46	29.81	15.58	-26.5	-26.9	16.6	0.00e+00	0	40	0	8120172544	28	17155
2026-01-07 22:22:02.48	30.16	15.98	-26.3	-26.7	16.6	0.00e+00	0	40	0	8355053568	28	16761
2026-01-07 22:22:05.51	30.53	16.40	-26.3	-26.7	16.6	0.00e+00	0	40	0	8573157376	28	16771
2026-01-07 22:22:08.54	30.91	16.82	-26.2	-26.6	16.7	0.00e+00	0	40	0	8808038400	28	16582
2026-01-07 22:22:11.56	31.30	17.24	-26.2	-26.6	16.7	0.00e+00	0	40	0	9034530816	28	16609
2026-01-07 22:22:14.59	31.71	17.68	-26.1	-26.5	16.7	0.00e+00	0	40	0	9261023232	28	16420
2026-01-07 22:22:17.62	32.12	18.12	-25.6	-26.1	16.8	0.00e+00	0	40	0	9487515648	26	17429
2026-01-07 22:22:20.65	32.56	18.58	-25.6	-26.0	16.9	0.00e+00	0	40	0	9714008064	26	17357
2026-01-07 22:22:23.68	33.00	19.04	-25.7	-26.2	16.9	0.00e+00	0	40	0	9940500480	26	17631
2026-01-07 22:22:26.71	33.47	19.52	-25.5	-25.9	16.9	0.00e+00	0	40	0	10166992896	26	17176
2026-01-07 22:22:29.73	33.94	20.00	-25.1	-25.6	16.9	0.00e+00	0	40	0	10393485312	26	16514
2026-01-07 22:22:32.76	34.44	20.49	-25.0	-25.5	17.0	0.00e+00	0	41	0	10619977728	26	16349
2026-01-07 22:22:35.79	34.96	21.00	-24.8	-25.3	17.0	0.00e+00	0	40	0	10846470144	26	15957
2026-01-07 22:22:38.82	35.49	21.51	-24.8	-25.3	17.0	0.00e+00	0	40	0	11081351168	24	17876
2026-01-07 22:22:41.85	36.04	22.04	-24.6	-25.0	17.0	0.00e+00	0	41	0	11299454976	24	17373
2026-01-07 22:22:44.88	36.62	22.58	-24.5	-24.9	17.0	0.00e+00	0	41	0	11534336000	24	17182
2026-01-07 22:22:47.90	37.22	23.12	-24.3	-24.8	17.0	0.00e+00	0	41	0	11760828416	24	16944
2026-01-07 22:22:50.93	37.84	23.68	-24.3	-24.8	17.0	0.00e+00	0	40	0	11987320832	24	16836
2026-01-07 22:22:53.96	38.48	24.26	-24.3	-24.8	17.0	0.00e+00	0	41	0	12213813248	24	16942
2026-01-07 22:22:56.99	39.16	24.84	-24.1	-24.6	17.0	0.00e+00	0	41	0	12440305664	24	16495
2026-01-07 22:23:00.01	39.86	25.44	-24.2	-24.7	16.9	0.00e+00	0	41	0	12666798080	24	16681
2026-01-07 22:23:03.04	40.59	26.05	-23.7	-24.2	17.0	0.00e+00	0	41	0	12893290496	22	17610
2026-01-07 22:23:06.07	41.35	26.67	-23.7	-24.2	17.1	0.00e+00	0	41	0	13119782912	22	17658
2026-01-07 22:23:09.09	42.14	27.30	-23.6	-24.1	17.1	0.00e+00	0	41	0	13346275328	22	17529
2026-01-07 22:23:12.12	42.97	27.95	-23.3	-23.8	17.0	0.00e+00	0	41	0	13572767744	22	16836
2026-01-07 22:23:15.15	43.84	28.61	-23.0	-23.5	17.1	0.00e+00	0	41	0	13799260160	22	16348
2026-01-07 22:23:18.18	44.75	29.28	-22.9	-23.4	17.1	0.00e+00	0	41	0	14025752576	22	16175
2026-01-07 22:23:21.20	45.70	29.96	-22.9	-23.3	17.2	0.00e+00	0	41	0	14252244992	22	16019
2026-01-07 22:23:24.23	46.69	30.66	-22.9	-23.3	17.2	0.00e+00	0	41	0	14487126016	20	17977
2026-01-07 22:23:27.26	47.73	31.37	-22.7	-23.1	17.1	0.00e+00	0	41	0	14705229824	20	17556
2026-01-07 22:23:30.28	48.82	32.08	-22.3	-22.8	17.2	0.00e+00	0	41	0	14940110848	20	16910
2026-01-07 22:23:33.31	49.96	32.81	-22.2	-22.7	17.2	0.00e+00	0	41	0	15158214656	20	16622
2026-01-07 22:23:36.34	51.16	33.54	-22.1	-22.6	17.3	0.00e+00	0	41	0	15393095680	20	16548
2026-01-07 22:23:39.37	52.42	34.29	-22.1	-22.6	17.3	0.00e+00	0	41	0	15619588096	20	16471
2026-01-07 22:23:42.40	53.74	35.03	-21.8	-22.3	17.2	0.00e+00	0	41	0	15846080512	20	15952
2026-01-07 22:23:45.42	55.12	35.78	-21.7	-22.2	17.3	0.00e+00	0	41	0	16072572928	18	17709
2026-01-07 22:23:48.45	56.57	36.54	-21.6	-22.1	17.3	0.00e+00	0	41	0	16299065344	18	17478
2026-01-07 22:23:51.48	58.10	37.29	-21.4	-21.9	17.4	0.00e+00	0	41	0	16525557760	18	17084
2026-01-07 22:23:54.51	59.70	38.04	-21.4	-21.9	17.2	0.00e+00	0	41	0	16752050176	18	17007
2026-01-07 22:23:57.54	61.38	38.79	-21.3	-21.8	17.3	0.00e+00	0	41	0	16978542592	18	16937
2026-01-07 22:24:00.57	63.15	39.52	-21.2	-21.6	17.3	0.00e+00	0	41	0	17205035008	18	16608
2026-01-07 22:24:03.59	64.99	40.25	-20.9	-21.4	17.3	0.00e+00	0	41	0	17431527424	18	16155
2026-01-07 22:24:06.62	66.92	40.95	-20.9	-21.4	17.4	0.00e+00	0	41	0	17666408448	18	16187
2026-01-07 22:24:09.65	68.94	41.64	-20.7	-21.2	17.4	0.00e+00	0	41	0	17884512256	16	17755
2026-01-07 22:24:12.67	71.05	42.30	-20.7	-21.1	17.4	0.00e+00	0	41	0	18119393280	16	17536
2026-01-07 22:24:15.69	73.24	42.92	-20.6	-21.0	17.4	0.00e+00	0	41	0	18345885696	16	17372
2026-01-07 22:24:18.72	75.53	43.52	-20.6	-21.0	17.4	0.00e+00	0	41	0	18572378112	16	17384
2026-01-07 22:24:21.75	77.90	44.07	-20.4	-20.8	17.3	0.00e+00	0	41	0	18798870528	16	16993
2026-01-07 22:24:24.78	80.36	44.58	-20.3	-20.8	17.3	0.00e+00	0	41	0	19025362944	16	16825
2026-01-07 22:24:27.81	82.90	45.04	-20.3	-20.8	17.4	0.00e+00	0	41	0	19251855360	16	16895
2026-01-07 22:24:30.83	85.50	45.44	-20.2	-20.7	17.3	0.00e+00	0	41	0	19478347776	16	16651
2026-01-07 22:24:33.87	88.18	45.78	-20.2	-20.6	17.4	0.00e+00	0	41	0	19704840192	16	16589
2026-01-07 22:24:36.90	90.91	46.06	-20.1	-20.6	17.4	0.00e+00	0	41	0	19931332608	16	16500
2026-01-07 22:24:39.93	93.68	46.27	-20.1	-20.6	17.5	0.00e+00	0	41	0	20157825024	16	16543
2026-01-07 22:24:42.96	96.48	46.41	-20.2	-20.7	17.3	0.00e+00	0	41	0	20384317440	16	16749
2026-01-07 22:24:45.99	99.30	46.47	-20.1	-20.5	17.4	0.00e+00	0	41	0	20610809856	16	16387
2026-01-07 22:24:49.02	102.13	46.47	-20.2	-20.7	17.4	0.00e+00	0	41	0	20837302272	16	16680
2026-01-07 22:24:52.04	104.94	46.39	-20.2	-20.7	17.4	0.00e+00	0	41	0	21072183296	16	16619
2026-01-07 22:24:55.07	107.74	46.24	-20.1	-20.6	17.4	0.00e+00	0	41	0	21298675712	16	16435
2026-01-07 22:24:58.10	110.50	46.01	-20.3	-20.7	17.4	0.00e+00	0	41	0	21525168128	16	16807
2026-01-07 22:25:01.13	113.22	45.73	-20.2	-20.7	17.4	0.00e+00	0	41	0	21751660544	16	16707
2026-01-07 22:25:04.16	115.89	45.37	-20.3	-20.8	17.4	0.00e+00	0	41	0	21978152960	16	16903
2026-01-07 22:25:07.18	118.48	44.96	-20.3	-20.7	17.4	0.00e+00	0	41	0	22204645376	16	16803
2026-01-07 22:25:10.21	121.00	44.49	-20.4	-20.8	17.4	0.00e+00	0	41	0	22431137792	16	16997
2026-01-07 22:25:13.24	123.45	43.98	-20.4	-20.9	17.4	0.00e+00	0	41	0	22657630208	16	17176
2026-01-07 22:25:16.26	125.80	43.41	-20.5	-21.0	17.4	0.00e+00	0	41	0	22884122624	16	17241
2026-01-07 22:25:19.29	128.08	42.81	-20.5	-21.0	17.4	0.00e+00	0	41	0	23110615040	16	17316
2026-01-07 22:25:22.32	130.27	42.17	-20.7	-21.2	17.3	0.00e+00	0	41	0	23337107456	16	17702
2026-01-07 22:25:25.34	132.36	41.51	-20.7	-21.2	17.4	0.00e+00	0	41	0	23563599872	16	17660
2026-01-07 22:25:28.38	134.37	40.82	-20.9	-21.4	17.4	0.00e+00	0	41	0	23798480896	16	18032
2026-01-07 22:25:31.41	136.29	40.10	-20.9	-21.4	17.4	0.00e+00	0	41	0	24016584704	16	18179
2026-01-07 22:25:34.43	138.12	39.38	-21.0	-21.5	17.3	0.00e+00	0	41	0	24251465728	16	18316
2026-01-07 22:25:37.46	139.87	38.64	-21.1	-21.6	17.4	0.00e+00	0	41	0	24469569536	16	18594
2026-01-07 22:25:40.49	141.54	37.89	-21.4	-21.9	17.3	0.00e+00	0	41	0	24704450560	16	19111
2026-01-07 22:25:43.52	143.13	37.14	-21.4	-21.9	17.3	0.00e+00	0	41	0	24930942976	16	19194
2026-01-07 22:25:46.55	144.65	36.38	-21.5	-22.0	17.3	0.00e+00	0	41	0	25157435392	16	19381
2026-01-07 22:25:49.57	146.09	35.63	-21.9	-22.4	17.3	0.00e+00	0	41	0	25383927808	18	18063
2026-01-07 22:25:52.60	147.46	34.87	-21.8	-22.2	17.3	0.00e+00	0	41	0	25610420224	18	17772
2026-01-07 22:25:55.63	148.77	34.12	-21.9	-22.4	17.3	0.00e+00	0	41	0	25836912640	18	18183
2026-01-07 22:25:58.66	150.02	33.38	-22.0	-22.5	17.3	0.00e+00	0	41	0	26063405056	18	18372
2026-01-07 22:26:01.68	151.21	32.65	-22.2	-22.6	17.3	0.00e+00	0	41	0	26289897472	18	18624
2026-01-07 22:26:04.71	152.34	31.92	-22.3	-22.8	17.3	0.00e+00	0	41	0	26516389888	18	19003
2026-01-07 22:26:07.74	153.42	31.20	-22.5	-23.0	17.3	0.00e+00	0	41	0	26742882304	18	19397
2026-01-07 22:26:10.77	154.46	30.49	-22.8	-23.3	17.2	0.00e+00	0	41	0	26977763328	20	17819
2026-01-07 22:26:13.80	155.44	29.80	-22.8	-23.3	17.2	0.00e+00	0	41	0	27195867136	20	17813
2026-01-07 22:26:16.83	156.39	29.11	-22.9	-23.4	17.2	0.00e+00	0	41	0	27430748160	20	18015
2026-01-07 22:26:19.85	157.28	28.44	-23.1	-23.6	17.2	0.00e+00	0	41	0	27657240576	20	18468
2026-01-07 22:26:22.88	158.15	27.78	-23.2	-23.7	17.2	0.00e+00	0	41	0	27883732992	20	18705
2026-01-07 22:26:25.91	158.97	27.14	-23.4	-23.9	17.2	0.00e+00	0	41	0	28110225408	20	19155
2026-01-07 22:26:28.94	159.76	26.50	-23.5	-24.0	17.1	0.00e+00	0	41	0	28336717824	20	19456
2026-01-07 22:26:31.97	160.52	25.88	-23.6	-24.1	17.2	0.00e+00	0	41	0	28563210240	20	19627
2026-01-07 22:26:35.00	161.24	25.27	-23.8	-24.3	17.2	0.00e+00	0	41	0	28789702656	22	17817
2026-01-07 22:26:38.03	161.94	24.67	-23.9	-24.4	17.1	0.00e+00	0	41	0	29016195072	22	18047
2026-01-07 22:26:41.06	162.61	24.09	-24.1	-24.6	17.1	0.00e+00	0	41	0	29242687488	22	18453
2026-01-07 22:26:44.09	163.25	23.52	-24.2	-24.7	17.1	0.00e+00	0	41	0	29469179904	22	18675
2026-01-07 22:26:47.12	163.87	22.96	-24.4	-24.9	17.1	0.00e+00	0	41	0	29704060928	22	19097
2026-01-07 22:26:50.15	164.46	22.41	-24.4	-24.9	17.1	0.00e+00	0	41	0	29922164736	22	19221
2026-01-07 22:26:53.18	165.03	21.87	-24.6	-25.1	17.1	0.00e+00	0	41	0	30157045760	22	19619
2026-01-07 22:26:56.21	165.58	21.35	-24.7	-25.2	17.1	0.00e+00	0	41	0	30383538176	22	19784
2026-01-07 22:26:59.25	166.11	20.83	-24.9	-25.4	17.0	0.00e+00	0	41	0	30610030592	24	18077
2026-01-07 22:27:02.28	166.62	20.33	-25.0	-25.4	17.0	0.00e+00	0	41	0	30836523008	24	18183
2026-01-07 22:27:05.30	167.11	19.83	-25.1	-25.5	17.0	0.00e+00	0	41	0	31063015424	24	18403
2026-01-07 22:27:08.33	167.59	19.35	-25.2	-25.7	17.0	0.00e+00	0	41	0	31289507840	24	18764
2026-01-07 22:27:11.36	168.05	18.88	-25.3	-25.8	16.9	0.00e+00	0	41	0	31516000256	24	18966
2026-01-07 22:27:14.40	168.49	18.41	-25.6	-26.0	16.9	0.00e+00	0	41	0	31742492672	24	19523
2026-01-07 22:27:17.43	168.92	17.96	-25.7	-26.2	16.9	0.00e+00	0	41	0	31977373696	24	19785
2026-01-07 22:27:20.46	169.34	17.52	-25.7	-26.2	16.9	0.00e+00	0	41	0	32195477504	26	17640
2026-01-07 22:27:23.49	169.74	17.08	-25.8	-26.3	16.8	0.00e+00	0	41	0	32430358528	26	17889
2026-01-07 22:27:26.52	170.13	16.65	-25.9	-26.4	16.8	0.00e+00	0	41	0	32656850944	26	18155
2026-01-07 22:27:29.55	170.50	16.23	-26.1	-26.6	16.9	0.00e+00	0	41	0	32883343360	26	18550
2026-01-07 22:27:32.57	170.87	15.82	-26.3	-26.8	16.8	0.00e+00	0	41	0	33109835776	26	18995
2026-01-07 22:27:35.60	171.22	15.42	-26.4	-26.9	16.7	0.00e+00	0	41	0	33336328192	26	19237
2026-01-07 22:27:38.63	171.57	15.03	-26.5	-27.0	16.7	0.00e+00	0	41	0	33562820608	26	19336
2026-01-07 22:27:41.66	171.90	14.64	-26.6	-27.0	16.7	0.00e+00	0	41	0	33789313024	26	19484
2026-01-07 22:27:44.69	172.22	14.26	-26.8	-27.2	15.9	0.00e+00	0	41	0	34015805440	28	17772
2026-01-07 22:27:47.72	172.54	13.88	-49.1	-51.6	3.6	0.00e+00	0	41	104	34133245952	60	46714
2026-01-07 22:27:50.75	172.84	13.52	-49.2	-51.8	3.5	0.00e+00	0	41	104	34133245952	60	47416
2026-01-07 22:27:53.78	173.14	13.16	-49.2	-51.7	3.6	0.00e+00	0	41	104	34133245952	60	47229
2026-01-07 22:27:56.81	173.43	12.80	-49.3	-51.8	3.6	0.00e+00	0	41	104	34133245952	60	47475
2026-01-07 22:27:59.83	173.71	12.46	-49.4	-51.8	3.6	0.00e+00	0	41	104	34133245952	60	47780
2026-01-07 22:28:02.86	173.98	12.11	-49.2	-51.7	3.6	0.00e+00	0	41	104	34133245952	60	46890
2026-01-07 22:28:05.89	174.25	11.78	-49.3	-51.7	3.6	0.00e+00	0	41	104	34133245952	60	47345
2026-01-07 22:28:08.92	174.51	11.45	-49.1	-51.6	3.6	0.00e+00	0	41	104	34133245952	60	46348
2026-01-07 22:28:11.95	174.76	11.12	-49.1	-51.6	3.6	0.00e+00	0	41	104	34133245952	60	46591
2026-01-07 22:28:14.98	175.01	10.80	-49.1	-51.6	3.6	0.00e+00	0	41	104	34133245952	60	46475
2026-01-07 22:28:18.01	175.25	10.49	-49.1	-51.6	3.6	0.00e+00	0	41	104	34133245952	60	46710
2026-01-07 22:28:21.04	175.48	10.18	-49.0	-51.6	3.5	0.00e+00	0	41	104	34133245952	60	46317
2026-01-07 22:28:24.07	175.71	9.87	-49.1	-51.6	3.6	0.00e+00	0	41	104	34133245952	60	46779
2026-01-07 22:28:27.09	175.93	9.57	-49.0	-51.5	3.6	0.00e+00	0	41	104	34133245952	60	46149
2026-01-07 22:28:30.12	176.15	9.27	-49.0	-51.5	3.6	0.00e+00	0	41	104	34133245952	60	46120
2026-01-07 22:28:33.15	176.36	8.98	-49.0	-51.5	3.6	0.00e+00	0	41	104	34133245952	60	46023
2026-01-07 22:28:36.18	176.57	8.69	-49.0	-51.5	3.6	0.00e+00	0	41	104	34133245952	60	46049
2026-01-07 22:28:39.21	176.77	8.41	-49.0	-51.5	3.6	0.00e+00	0	41	104	34133245952	60	46284
2026-01-07 22:28:42.23	176.97	8.13	-49.0	-51.5	3.6	0.00e+00	0	41	104	34133245952	60	46233
2026-01-07 22:28:45.26	177.17	7.86	-48.9	-51.4	3.6	0.00e+00	0	41	104	34133245952	60	45722
2026-01-07 22:28:48.29	177.36	7.58	-49.0	-51.5	3.6	0.00e+00	0	41	104	34133245952	60	46201
2026-01-07 22:28:51.32	177.54	7.31	-48.9	-51.3	3.6	0.00e+00	0	41	104	34133245952	60	45205
2026-01-07 22:28:54.34	177.72	7.05	-48.9	-51.4	3.6	0.00e+00	0	41	104	34133245952	60	45390
2026-01-07 22:28:57.37	177.90	6.79	-48.8	-51.3	3.6	0.00e+00	0	41	104	34133245952	60	45161
2026-01-07 22:29:00.40	178.08	6.53	-48.9	-51.4	3.6	0.00e+00	0	41	104	34133245952	60	45479
2026-01-07 22:29:03.42	178.25	6.28	-48.7	-51.2	3.6	0.00e+00	0	41	104	34133245952	60	44495
2026-01-07 22:29:06.45	178.41	6.02	-48.8	-51.3	3.6	0.00e+00	0	41	104	34133245952	60	45028
2026-01-07 22:29:09.47	178.58	5.78	-48.9	-51.4	3.6	0.00e+00	0	41	104	34133245952	60	45462
2026-01-07 22:29:12.50	178.74	5.53	-48.6	-51.2	3.6	0.00e+00	0	41	104	34133245952	60	44307
2026-01-07 22:29:15.52	178.90	5.29	-48.6	-51.2	3.6	0.00e+00	0	41	104	34133245952	60	44228
2026-01-07 22:29:18.55	179.05	5.05	-48.7	-51.2	3.6	0.00e+00	0	41	104	34133245952	60	44537
2026-01-07 22:29:21.58	179.20	4.81	-48.7	-51.2	3.6	0.00e+00	0	41	104	34133245952	60	44572
2026-01-07 22:29:24.61	179.35	4.58	-48.6	-51.2	3.6	0.00e+00	0	41	104	34133245952	60	44269
2026-01-07 22:29:27.63	179.50	4.35	-48.7	-51.2	3.6	0.00e+00	0	41	104	34133245952	60	44409
2026-01-07 22:29:30.67	179.64	4.11	-48.7	-51.2	3.6	0.00e+00	0	41	104	34133245952	60	44448
2026-01-07 22:29:33.69	179.78	3.89	-48.7	-51.2	3.6	0.00e+00	0	41	104	34133245952	60	44338
2026-01-07 22:29:36.72	179.92	3.66	-48.3	-50.8	3.6	0.00e+00	0	41	104	34133245952	60	42563
2026-01-07 22:29:39.75	180.06	3.44	-48.5	-51.0	3.6	0.00e+00	0	41	104	34133245952	60	43484
2026-01-07 22:29:42.78	180.19	3.22	-48.3	-50.8	3.6	0.00e+00	0	41	104	34133245952	60	42437
2026-01-07 22:29:45.81	180.32	3.00	-48.5	-51.0	3.6	0.00e+00	0	41	104	34133245952	60	43484
2026-01-07 22:29:48.84	180.45	2.79	-49.5	-52.0	3.6	0.00e+00	0	41	104	34133245952	60	48953
2026-01-07 22:29:51.87	180.58	2.57	-49.7	-52.2	3.6	0.00e+00	0	41	104	34133245952	60	49648
2026-01-07 22:29:54.90	180.70	2.36	-49.9	-52.4	3.6	0.00e+00	0	41	104	34133245952	60	50922
2026-01-07 22:29:57.92	180.82	2.15	-49.7	-52.2	3.6	0.00e+00	0	41	104	34133245952	60	49759
2026-01-07 22:30:00.95	180.94	1.95	-49.8	-52.3	3.5	0.00e+00	0	41	104	34133245952	60	50552
2026-01-07 22:30:03.98	181.06	1.74	-49.9	-52.3	3.6	0.00e+00	0	41	104	34133245952	60	50442
2026-01-07 22:30:07.01	181.18	1.54	-49.8	-52.3	3.6	0.00e+00	0	41	104	34133245952	60	50414
2026-01-07 22:30:10.04	181.29	1.33	-49.8	-52.3	3.6	0.00e+00	0	41	104	34133245952	60	50527
2026-01-07 22:30:13.07	181.41	1.13	-49.8	-52.3	3.6	0.00e+00	0	41	104	34133245952	60	50369
2026-01-07 22:30:16.10	181.52	0.93	-49.8	-52.3	3.6	0.00e+00	0	41	104	34133245952	60	50305
2026-01-07 22:30:19.13	181.63	0.74	-49.8	-52.3	3.6	0.00e+00	0	41	104	34133245952	60	50575
2026-01-07 22:30:22.16	181.73	0.54	-49.8	-52.3	3.6	0.00e+00	0	41	104	34133245952	60	50306
2026-01-07 22:30:25.19	181.84	0.35	-49.8	-52.3	3.6	0.00e+00	0	41	104	34133245952	60	50297
2026-01-07 22:30:28.22	181.94	0.16	-49.8	-52.3	3.6	0.00e+00	0	41	104	34133245952	60	50418
2026-01-07 22:30:31.24	182.05	-0.03	-49.8	-52.3	3.6	0.00e+00	0	41	104	34133245952	60	50518

#Closed at: 2026-01-07 22:30:31
#Recorded file [34133 MB]: D:/lorett/data/35029_260108_101906.dat