passes_logs/2026/01/07/R4.6S_Anadyr/R4.6S_Anadyr__20260107_021049_NOAA_20_JPSS-1_rec.log

#Pass ID: 20260107_021049_NOAA 20 (JPSS-1)
#Satellite: NOAA 20 (JPSS-1)
#Configuration: NOAA 20
#almurnet v.1.7.20251203
#Start time: 2026-01-07 02:10:51

#Version: 2.2.20231116
#Station: R4.6S_Anadyr
#Location: 177.4865 lon 64.73178 lat
#TLE: 1 43013U 17073A   26005.46207808  .00000128  00000+0  81791-4 0  9997
#TLE: 2 43013  98.7627 306.5027 0001826  53.0458 307.0885 14.19533487421381

#Time	Az	El	Level	Level2	SNR	BER	BlckErr	Temp	State	Recorded	gain1	gain2
2026-01-07 02:10:51.64	207.29	0.13	-49.2	-67.0	3.5	3.03e+01	0	32	0	0	60	86519
2026-01-07 02:10:55.67	207.55	0.35	-49.0	-64.1	3.6	1.51e+00	0	34	104	0	60	58259
2026-01-07 02:10:59.71	207.80	0.56	-48.9	-64.1	3.6	1.51e+00	0	34	104	0	60	58177
2026-01-07 02:11:03.75	208.06	0.78	-48.7	-63.9	3.6	1.51e+00	0	34	104	0	60	56383
2026-01-07 02:11:07.79	208.33	1.00	-47.5	-62.6	3.6	1.51e+00	0	34	104	0	60	48872
2026-01-07 02:11:11.82	208.59	1.22	-47.5	-62.6	3.5	1.51e+00	0	34	104	0	60	48711
2026-01-07 02:11:15.86	208.86	1.44	-47.5	-62.6	3.6	1.51e+00	0	34	104	0	60	48935
2026-01-07 02:11:19.89	209.14	1.66	-47.5	-62.7	3.6	1.51e+00	0	34	104	0	60	49202
2026-01-07 02:11:23.93	209.42	1.88	-47.5	-62.7	3.6	1.51e+00	0	34	104	0	60	49117
2026-01-07 02:11:27.97	209.70	2.10	-47.5	-62.5	3.6	1.51e+00	0	34	104	0	60	48222
2026-01-07 02:11:32.01	209.99	2.33	-47.5	-62.5	3.6	1.51e+00	0	34	104	0	60	48302
2026-01-07 02:11:36.06	210.28	2.55	-47.5	-62.6	3.6	1.51e+00	0	34	104	0	60	48614
2026-01-07 02:11:40.09	210.57	2.78	-47.4	-61.4	3.6	1.51e+00	0	34	104	0	60	42361
2026-01-07 02:11:44.13	210.87	3.01	-46.4	-52.1	9.1	1.36e-01	92	34	0	2097152	60	14606
2026-01-07 02:11:48.17	211.18	3.24	-43.2	-45.6	16.1	0.00e+00	92	34	0	9437184	60	6866
2026-01-07 02:11:52.21	211.48	3.47	-46.6	-53.8	6.4	3.70e-03	90	34	0	16777216	60	17771
2026-01-07 02:11:56.25	211.80	3.70	-41.9	-43.7	18.2	0.00e+00	92	34	0	20971520	58	6182
2026-01-07 02:12:00.29	212.12	3.94	-41.9	-43.7	18.2	0.00e+00	92	34	0	28311552	56	6951
2026-01-07 02:12:04.32	212.44	4.17	-40.2	-41.5	20.2	0.00e+00	91	34	0	35651584	54	6062
2026-01-07 02:12:08.36	212.77	4.41	-40.3	-41.6	20.2	0.00e+00	92	34	0	42991616	54	6162
2026-01-07 02:12:12.40	213.10	4.64	-40.2	-41.5	20.4	0.00e+00	92	34	0	50331648	54	6048
2026-01-07 02:12:16.44	213.44	4.88	-40.3	-41.6	20.1	0.00e+00	71	34	0	58720256	54	6164
2026-01-07 02:12:20.47	213.78	5.12	-40.5	-41.8	20.1	0.00e+00	90	34	0	66060288	54	6282
2026-01-07 02:12:24.51	214.13	5.36	-40.1	-41.4	20.6	0.00e+00	92	34	0	73400320	54	5999
2026-01-07 02:12:28.55	214.48	5.61	-40.0	-41.3	20.7	0.00e+00	92	34	0	80740352	54	5916
2026-01-07 02:12:32.58	214.84	5.85	-39.9	-41.2	20.9	0.00e+00	6	34	0	89128960	54	5842
2026-01-07 02:12:36.62	215.21	6.10	-39.8	-41.0	21.0	0.00e+00	90	34	0	96468992	52	6408
2026-01-07 02:12:40.66	215.58	6.34	-39.5	-40.7	21.4	0.00e+00	92	34	0	103809024	52	6186
2026-01-07 02:12:44.70	215.96	6.59	-39.6	-40.7	21.4	0.00e+00	92	34	0	111149056	52	6216
2026-01-07 02:12:48.74	216.34	6.84	-39.5	-40.6	21.5	0.00e+00	0	34	0	118489088	52	6159
2026-01-07 02:12:52.78	216.73	7.09	-39.4	-40.5	21.6	0.00e+00	92	34	0	126877696	52	6056
2026-01-07 02:12:56.82	217.13	7.35	-39.4	-40.5	21.7	0.00e+00	92	34	0	134217728	52	6038
2026-01-07 02:13:00.86	217.53	7.60	-39.4	-40.5	21.6	0.00e+00	92	34	0	141557760	52	6088
2026-01-07 02:13:04.89	217.94	7.85	-39.5	-40.6	21.6	0.00e+00	83	34	0	148897792	52	6124
2026-01-07 02:13:08.93	218.36	8.11	-39.5	-40.6	21.6	0.00e+00	92	34	0	157286400	52	6140
2026-01-07 02:13:12.97	218.79	8.37	-39.1	-40.2	22.0	0.00e+00	92	34	0	164626432	52	5855
2026-01-07 02:13:17.00	219.22	8.63	-38.9	-39.9	22.3	0.00e+00	92	34	0	171966464	52	5652
2026-01-07 02:13:21.04	219.66	8.89	-39.0	-40.0	22.3	0.00e+00	90	34	0	179306496	52	5741
2026-01-07 02:13:25.08	220.10	9.15	-39.2	-40.2	22.1	0.00e+00	92	34	0	186646528	52	5872
2026-01-07 02:13:29.12	220.56	9.41	-39.1	-40.1	22.2	0.00e+00	92	34	0	195035136	52	5813
2026-01-07 02:13:33.16	221.02	9.68	-39.1	-40.2	22.1	0.00e+00	40	34	0	202375168	52	5836
2026-01-07 02:13:37.19	221.49	9.94	-39.0	-40.1	22.2	0.00e+00	92	34	0	209715200	52	5763
2026-01-07 02:13:41.23	221.97	10.21	-39.1	-40.2	22.1	0.00e+00	92	34	0	217055232	52	5829
2026-01-07 02:13:45.27	222.46	10.48	-39.0	-40.0	22.2	0.00e+00	90	34	0	225443840	52	5739
2026-01-07 02:13:49.31	222.95	10.74	-38.8	-39.8	22.5	0.00e+00	92	34	0	232783872	50	6280
2026-01-07 02:13:53.34	223.46	11.01	-38.8	-39.8	22.4	0.00e+00	92	34	0	240123904	50	6309
2026-01-07 02:13:57.38	223.97	11.28	-38.7	-39.7	22.6	0.00e+00	92	34	0	247463936	50	6214
2026-01-07 02:14:01.42	224.50	11.56	-38.5	-39.4	22.8	0.00e+00	92	34	0	254803968	50	6013
2026-01-07 02:14:05.46	225.03	11.83	-38.3	-39.3	22.7	0.00e+00	77	34	0	263192576	50	5934
2026-01-07 02:14:09.49	225.57	12.10	-38.6	-39.6	22.6	0.00e+00	92	34	0	270532608	50	6134
2026-01-07 02:14:13.53	226.12	12.38	-38.5	-39.4	22.9	0.00e+00	92	34	0	277872640	50	6018
2026-01-07 02:14:17.57	226.69	12.65	-38.4	-39.4	23.0	0.00e+00	92	34	0	285212672	50	5972
2026-01-07 02:14:21.60	227.26	12.93	-38.3	-39.2	23.1	0.00e+00	7	34	0	292552704	50	5896
2026-01-07 02:14:25.64	227.84	13.20	-38.4	-39.4	23.0	0.00e+00	92	34	0	300941312	50	5994
2026-01-07 02:14:29.68	228.43	13.48	-38.2	-39.1	23.1	0.00e+00	92	34	0	308281344	50	5823
2026-01-07 02:14:33.72	229.04	13.76	-38.1	-39.1	23.2	0.00e+00	92	34	0	315621376	50	5763
2026-01-07 02:14:37.75	229.65	14.03	-38.2	-39.2	23.2	0.00e+00	0	34	0	322961408	50	5844
2026-01-07 02:14:41.79	230.28	14.31	-38.2	-39.1	23.3	0.00e+00	91	34	0	331350016	50	5791
2026-01-07 02:14:45.83	230.92	14.59	-38.1	-39.1	23.2	0.00e+00	90	34	0	338690048	50	5767
2026-01-07 02:14:49.87	231.57	14.86	-38.0	-39.0	23.3	0.00e+00	92	34	0	346030080	50	5706
2026-01-07 02:14:53.90	232.23	15.14	-38.1	-39.0	23.4	0.00e+00	82	34	0	353370112	50	5720
2026-01-07 02:14:57.94	232.90	15.41	-38.0	-38.9	23.4	0.00e+00	92	34	0	360710144	50	5666
2026-01-07 02:15:01.98	233.59	15.69	-38.1	-39.0	23.3	0.00e+00	91	34	0	369098752	50	5756
2026-01-07 02:15:06.01	234.28	15.96	-38.2	-39.2	23.2	0.00e+00	69	35	0	376438784	50	5844
2026-01-07 02:15:10.05	234.99	16.24	-37.9	-38.8	23.6	0.00e+00	93	34	0	383778816	50	5572
2026-01-07 02:15:14.09	235.72	16.51	-37.7	-38.6	23.8	0.00e+00	92	34	0	391118848	48	6129
2026-01-07 02:15:18.12	236.45	16.78	-37.8	-38.7	23.7	0.00e+00	90	34	0	399507456	48	6193
2026-01-07 02:15:22.16	237.20	17.05	-37.4	-38.3	24.1	0.00e+00	6	34	0	406847488	48	5902
2026-01-07 02:15:26.20	237.96	17.32	-37.6	-38.4	23.9	0.00e+00	92	34	0	414187520	48	6023
2026-01-07 02:15:30.23	238.74	17.58	-37.4	-38.3	24.1	0.00e+00	92	35	0	421527552	48	5904
2026-01-07 02:15:34.27	239.52	17.85	-37.1	-37.9	24.3	0.00e+00	92	34	0	428867584	48	5671
2026-01-07 02:15:38.30	240.32	18.11	-37.0	-37.8	24.5	0.00e+00	71	35	0	437256192	48	5591
2026-01-07 02:15:42.34	241.14	18.36	-36.9	-37.7	24.5	0.00e+00	92	35	0	444596224	48	5546
2026-01-07 02:15:46.38	241.97	18.62	-36.9	-37.7	24.6	0.00e+00	92	34	0	451936256	48	5535
2026-01-07 02:15:50.41	242.81	18.87	-37.2	-38.0	24.3	0.00e+00	92	35	0	459276288	48	5736
2026-01-07 02:15:54.45	243.66	19.12	-37.2	-38.0	24.3	0.00e+00	0	34	0	466616320	48	5729
2026-01-07 02:15:58.49	244.53	19.36	-37.4	-38.3	24.1	0.00e+00	92	35	0	475004928	48	5919
2026-01-07 02:16:02.53	245.41	19.60	-38.2	-39.1	23.4	0.00e+00	92	35	0	482344960	48	6520
2026-01-07 02:16:06.56	246.31	19.84	-38.2	-39.1	23.4	0.00e+00	92	35	0	489684992	48	6536
2026-01-07 02:16:10.60	247.22	20.07	-38.6	-39.6	22.9	0.00e+00	0	35	0	497025024	48	6862
2026-01-07 02:16:14.64	248.14	20.30	-39.4	-40.4	22.2	0.00e+00	92	35	0	505413632	50	6743
2026-01-07 02:16:18.67	249.07	20.52	-39.5	-40.6	22.0	0.00e+00	92	35	0	512753664	50	6871
2026-01-07 02:16:22.71	250.02	20.73	-38.7	-39.7	22.7	0.00e+00	75	35	0	520093696	50	6208
2026-01-07 02:16:26.75	250.98	20.94	-38.8	-39.8	22.8	0.00e+00	0	34	0	527433728	50	6297
2026-01-07 02:16:30.79	251.96	21.14	-38.6	-39.6	23.0	0.00e+00	92	35	0	534773760	50	6109
2026-01-07 02:16:34.82	252.94	21.34	-38.0	-38.9	23.6	0.00e+00	92	35	0	543162368	50	5652
2026-01-07 02:16:38.86	253.94	21.52	-38.0	-38.9	23.6	0.00e+00	0	35	0	550502400	48	6343
2026-01-07 02:16:42.90	254.95	21.70	-38.6	-39.6	22.9	0.00e+00	92	35	0	557842432	48	6878
2026-01-07 02:16:46.94	255.97	21.88	-38.8	-39.8	22.8	0.00e+00	92	35	0	565182464	50	6276
2026-01-07 02:16:50.98	257.00	22.04	-38.5	-39.5	23.1	0.00e+00	92	34	0	573571072	50	6052
2026-01-07 02:16:55.01	258.04	22.20	-38.6	-39.6	23.0	0.00e+00	76	35	0	580911104	50	6147
2026-01-07 02:16:59.05	259.09	22.35	-38.5	-39.4	23.2	0.00e+00	92	35	0	588251136	50	6008
2026-01-07 02:17:03.09	260.16	22.48	-38.0	-38.9	23.6	0.00e+00	90	35	0	595591168	50	5678
2026-01-07 02:17:07.12	261.22	22.61	-37.9	-38.8	23.7	0.00e+00	90	35	0	602931200	50	5619
2026-01-07 02:17:11.16	262.30	22.73	-38.1	-39.0	23.5	0.00e+00	7	35	0	611319808	50	5749
2026-01-07 02:17:15.20	263.39	22.84	-38.3	-39.2	23.4	0.00e+00	92	35	0	618659840	50	5870
2026-01-07 02:17:19.24	264.48	22.94	-38.8	-39.8	22.8	0.00e+00	90	35	0	625999872	50	6269
2026-01-07 02:17:23.27	265.58	23.03	-38.9	-39.8	22.9	0.00e+00	0	35	0	633339904	50	6310
2026-01-07 02:17:27.31	266.69	23.11	-38.6	-39.5	23.0	0.00e+00	0	35	0	641728512	50	6091
2026-01-07 02:17:31.35	267.80	23.18	-38.3	-39.2	23.4	0.00e+00	92	35	0	649068544	50	5840
2026-01-07 02:17:35.39	268.91	23.24	-38.2	-39.1	23.4	0.00e+00	92	35	0	656408576	50	5818
2026-01-07 02:17:39.43	270.03	23.28	-37.8	-38.7	23.8	0.00e+00	0	35	0	663748608	48	6206
2026-01-07 02:17:43.46	271.15	23.32	-38.3	-39.3	23.3	0.00e+00	80	35	0	671088640	48	6627
2026-01-07 02:17:47.49	272.27	23.34	-38.0	-38.9	23.6	0.00e+00	92	35	0	679477248	48	6358
2026-01-07 02:17:51.53	273.39	23.36	-37.7	-38.6	23.8	0.00e+00	90	34	0	686817280	48	6160
2026-01-07 02:17:55.57	274.52	23.36	-38.2	-39.2	23.4	0.00e+00	0	35	0	694157312	48	6552
2026-01-07 02:17:59.61	275.64	23.35	-38.0	-38.9	23.6	0.00e+00	0	35	0	701497344	48	6355
2026-01-07 02:18:03.65	276.77	23.33	-38.0	-38.9	23.5	0.00e+00	92	34	0	708837376	48	6370
2026-01-07 02:18:07.69	277.89	23.29	-38.7	-39.6	22.9	0.00e+00	92	35	0	717225984	48	6917
2026-01-07 02:18:11.72	279.00	23.25	-38.4	-39.3	23.2	0.00e+00	11	35	0	724566016	48	6685
2026-01-07 02:18:15.76	280.12	23.20	-38.2	-39.1	23.4	0.00e+00	90	35	0	731906048	48	6529
2026-01-07 02:18:19.80	281.23	23.13	-37.8	-38.7	23.7	0.00e+00	91	35	0	739246080	48	6230
2026-01-07 02:18:23.83	282.33	23.06	-38.7	-39.6	23.0	0.00e+00	90	34	0	747634688	48	6926
2026-01-07 02:18:27.87	283.43	22.97	-38.4	-39.4	23.1	0.00e+00	75	35	0	754974720	50	5976
2026-01-07 02:18:31.90	284.52	22.87	-38.2	-39.1	23.5	0.00e+00	91	35	0	762314752	50	5784
2026-01-07 02:18:35.94	285.61	22.77	-38.1	-39.0	23.5	0.00e+00	91	35	0	769654784	48	6427
2026-01-07 02:18:39.98	286.69	22.65	-38.0	-38.9	23.5	0.00e+00	89	35	0	776994816	48	6345
2026-01-07 02:18:44.02	287.76	22.53	-37.7	-38.6	23.9	0.00e+00	81	34	0	785383424	48	6123
2026-01-07 02:18:48.05	288.82	22.39	-37.7	-38.6	23.8	0.00e+00	90	35	0	792723456	48	6157
2026-01-07 02:18:52.09	289.87	22.25	-37.2	-38.0	24.4	0.00e+00	92	35	0	800063488	48	5738
2026-01-07 02:18:56.12	290.91	22.09	-36.8	-37.6	24.7	0.00e+00	0	35	0	807403520	48	5496
2026-01-07 02:19:00.16	291.94	21.93	-37.0	-37.8	24.5	0.00e+00	7	35	0	815792128	46	6290
2026-01-07 02:19:04.20	292.96	21.76	-37.0	-37.9	24.4	0.00e+00	90	35	0	823132160	46	6333
2026-01-07 02:19:08.24	293.97	21.59	-36.5	-37.3	24.8	0.00e+00	90	34	0	830472192	46	5960
2026-01-07 02:19:12.27	294.97	21.40	-35.7	-36.5	25.5	0.00e+00	70	35	0	837812224	46	5407
2026-01-07 02:19:16.31	295.96	21.21	-35.9	-36.6	25.5	0.00e+00	0	34	0	845152256	44	6172
2026-01-07 02:19:20.35	296.93	21.01	-36.0	-36.7	25.3	0.00e+00	90	34	0	853540864	44	6235
2026-01-07 02:19:24.38	297.89	20.80	-36.6	-37.4	24.8	0.00e+00	92	35	0	860880896	44	6707
2026-01-07 02:19:28.43	298.84	20.59	-37.0	-37.8	24.5	0.00e+00	13	35	0	868220928	46	6279
2026-01-07 02:19:32.46	299.78	20.38	-36.4	-37.2	25.0	0.00e+00	4	35	0	875560960	46	5888
2026-01-07 02:19:36.50	300.70	20.15	-36.3	-37.1	25.0	0.00e+00	92	34	0	883949568	46	5777
2026-01-07 02:19:40.54	301.61	19.92	-37.5	-38.4	24.0	0.00e+00	92	34	0	891289600	46	6703
2026-01-07 02:19:44.58	302.51	19.69	-38.1	-39.1	23.3	0.00e+00	12	34	0	898629632	48	6466
2026-01-07 02:19:48.62	303.39	19.45	-38.0	-39.0	23.4	0.00e+00	92	34	0	905969664	48	6404
2026-01-07 02:19:52.66	304.26	19.21	-37.3	-38.2	24.0	0.00e+00	91	34	0	913309696	48	5860
2026-01-07 02:19:56.70	305.12	18.97	-37.3	-38.1	24.1	0.00e+00	57	34	0	921698304	48	5809
2026-01-07 02:20:00.73	305.96	18.72	-37.9	-38.8	23.6	0.00e+00	5	35	0	929038336	48	6275
2026-01-07 02:20:04.77	306.79	18.47	-38.1	-39.0	23.4	0.00e+00	92	34	0	936378368	48	6447
2026-01-07 02:20:08.81	307.60	18.21	-37.7	-38.6	23.8	0.00e+00	92	35	0	943718400	48	6110
2026-01-07 02:20:12.84	308.40	17.95	-37.4	-38.3	24.0	0.00e+00	75	35	0	952107008	48	5907
2026-01-07 02:20:16.88	309.19	17.69	-37.6	-38.5	23.8	0.00e+00	0	35	0	959447040	48	6073
2026-01-07 02:20:20.92	309.97	17.43	-37.6	-38.5	23.8	0.00e+00	90	35	0	966787072	48	6036
2026-01-07 02:20:24.95	310.73	17.17	-38.0	-38.9	23.4	0.00e+00	91	34	0	974127104	48	6345
2026-01-07 02:20:28.99	311.48	16.90	-38.0	-38.9	23.4	0.00e+00	8	35	0	981467136	48	6375
2026-01-07 02:20:33.03	312.22	16.63	-38.3	-39.3	23.1	0.00e+00	72	34	0	989855744	48	6659
2026-01-07 02:20:37.06	312.94	16.36	-37.8	-38.7	23.5	0.00e+00	92	35	0	997195776	48	6243
2026-01-07 02:20:41.10	313.65	16.09	-38.0	-38.9	23.5	0.00e+00	92	34	0	1004535808	48	6377
2026-01-07 02:20:45.13	314.35	15.82	-38.7	-39.7	22.7	0.00e+00	0	34	0	1011875840	50	6238
2026-01-07 02:20:49.17	315.04	15.55	-37.9	-38.8	23.4	0.00e+00	0	35	0	1020264448	50	5620
2026-01-07 02:20:53.21	315.71	15.27	-38.1	-39.0	23.3	0.00e+00	91	34	0	1027604480	48	6433
2026-01-07 02:20:57.24	316.37	15.00	-38.1	-39.1	23.2	0.00e+00	91	35	0	1034944512	48	6499
2026-01-07 02:21:01.28	317.02	14.72	-37.6	-38.4	23.8	0.00e+00	74	35	0	1042284544	48	6028
2026-01-07 02:21:05.32	317.66	14.45	-38.3	-39.3	23.1	0.00e+00	0	35	0	1049624576	48	6621
2026-01-07 02:21:09.36	318.29	14.18	-38.4	-39.4	22.9	0.00e+00	92	34	0	1058013184	48	6741
2026-01-07 02:21:13.40	318.91	13.90	-38.1	-39.0	23.2	0.00e+00	0	35	0	1065353216	48	6432
2026-01-07 02:21:17.44	319.51	13.63	-38.6	-39.6	22.6	0.00e+00	9	34	0	1072693248	48	6891
2026-01-07 02:21:21.48	320.11	13.35	-38.5	-39.5	22.8	0.00e+00	79	34	0	1080033280	50	6078
2026-01-07 02:21:25.51	320.69	13.08	-38.0	-38.9	23.3	0.00e+00	90	34	0	1088421888	50	5654
2026-01-07 02:21:29.54	321.27	12.81	-38.6	-39.6	22.6	0.00e+00	0	34	0	1095761920	50	6168
2026-01-07 02:21:33.58	321.83	12.53	-38.8	-39.9	22.4	0.00e+00	0	34	0	1103101952	50	6331
2026-01-07 02:21:37.62	322.39	12.26	-38.3	-39.2	22.9	0.00e+00	23	34	0	1110441984	50	5890
2026-01-07 02:21:41.65	322.93	11.99	-38.6	-39.6	22.6	0.00e+00	92	34	0	1117782016	50	6155
2026-01-07 02:21:45.69	323.46	11.72	-38.7	-39.7	22.5	0.00e+00	75	34	0	1126170624	50	6176
2026-01-07 02:21:49.72	323.99	11.45	-38.7	-39.7	22.5	0.00e+00	0	35	0	1133510656	50	6245
2026-01-07 02:21:53.76	324.50	11.18	-39.0	-40.0	22.2	0.00e+00	92	35	0	1140850688	50	6442
2026-01-07 02:21:57.80	325.01	10.92	-39.4	-40.6	21.7	0.00e+00	80	34	0	1148190720	50	6857
2026-01-07 02:22:01.83	325.51	10.65	-39.0	-40.1	22.1	0.00e+00	5	34	0	1155530752	50	6487
2026-01-07 02:22:05.87	326.00	10.38	-38.7	-39.7	22.5	0.00e+00	81	34	0	1163919360	50	6189
2026-01-07 02:22:09.91	326.48	10.12	-38.8	-39.8	22.4	0.00e+00	92	34	0	1171259392	50	6274
2026-01-07 02:22:13.94	326.95	9.86	-39.1	-40.2	22.0	0.00e+00	6	34	0	1178599424	50	6551
2026-01-07 02:22:17.98	327.42	9.59	-39.4	-40.5	21.6	0.00e+00	9	34	0	1185939456	50	6820
2026-01-07 02:22:22.02	327.88	9.33	-39.6	-40.7	21.4	0.00e+00	6	34	0	1194328064	50	6979
2026-01-07 02:22:26.05	328.32	9.07	-39.9	-41.1	21.1	0.00e+00	92	34	0	1201668096	52	6495
2026-01-07 02:22:30.09	328.77	8.81	-39.7	-40.9	21.3	0.00e+00	75	34	0	1209008128	52	6349
2026-01-07 02:22:34.13	329.20	8.56	-39.5	-40.6	21.5	0.00e+00	0	34	0	1216348160	52	6130
2026-01-07 02:22:38.17	329.63	8.30	-39.6	-40.7	21.4	0.00e+00	0	34	0	1223688192	52	6234
2026-01-07 02:22:42.20	330.05	8.05	-39.9	-41.1	21.0	0.00e+00	91	34	0	1232076800	52	6511
2026-01-07 02:22:46.24	330.46	7.79	-40.2	-41.4	20.6	0.00e+00	5	34	0	1239416832	52	6759
2026-01-07 02:22:50.28	330.87	7.54	-40.5	-41.9	20.2	0.00e+00	0	34	0	1246756864	52	7115
2026-01-07 02:22:54.31	331.27	7.29	-40.8	-42.2	19.8	0.00e+00	0	34	0	1254096896	54	6610
2026-01-07 02:22:58.35	331.66	7.04	-41.0	-42.4	19.6	0.00e+00	92	34	0	1261436928	54	6739
2026-01-07 02:23:02.40	332.05	6.79	-40.9	-42.4	19.6	0.00e+00	6	34	0	1269825536	54	6709
2026-01-07 02:23:06.43	332.43	6.55	-40.8	-42.3	19.7	0.00e+00	0	34	0	1277165568	54	6617
2026-01-07 02:23:10.48	332.80	6.30	-41.0	-42.5	19.4	0.00e+00	69	34	0	1284505600	54	6777
2026-01-07 02:23:14.51	333.17	6.06	-40.9	-42.4	19.2	0.00e+00	74	34	0	1291845632	54	6730
2026-01-07 02:23:18.55	333.54	5.81	-41.1	-42.8	18.3	0.00e+00	0	34	0	1300234240	54	7081
2026-01-07 02:23:22.59	333.89	5.57	-41.9	-44.3	16.1	0.00e+00	0	35	0	1307574272	56	7449
2026-01-07 02:23:26.63	334.25	5.33	-42.9	-46.8	12.3	4.50e-05	57	35	0	1314914304	58	8905
2026-01-07 02:23:30.66	334.59	5.09	-43.5	-49.7	8.2	2.66e-02	0	35	0	1322254336	58	12363
2026-01-07 02:23:34.70	334.93	4.86	-43.7	-51.7	5.4	4.31e-01	80	35	0	1329594368	58	15602
2026-01-07 02:23:38.74	335.27	4.62	-43.7	-53.6	4.0	1.15e+00	46	35	0	1337982976	58	19445
2026-01-07 02:23:42.78	335.60	4.39	-43.8	-56.4	3.7	1.49e+00	0	35	104	1337982976	60	23991
2026-01-07 02:23:46.81	335.93	4.15	-43.8	-57.7	3.6	1.51e+00	0	35	104	1337982976	60	27716
2026-01-07 02:23:50.85	336.25	3.92	-43.9	-58.4	3.6	1.51e+00	0	35	104	1337982976	60	29899
2026-01-07 02:23:54.89	336.56	3.69	-43.9	-58.3	3.6	1.51e+00	0	35	104	1337982976	60	29863
2026-01-07 02:23:58.91	336.87	3.46	-43.6	-58.7	3.6	1.51e+00	0	35	104	1337982976	60	31246
2026-01-07 02:24:02.95	337.18	3.23	-43.7	-58.8	3.6	1.51e+00	0	35	104	1337982976	60	31535
2026-01-07 02:24:06.98	337.48	3.01	-43.7	-58.9	3.6	1.51e+00	0	35	104	1337982976	60	31696
2026-01-07 02:24:11.02	337.78	2.78	-48.5	-63.7	3.6	1.51e+00	0	35	104	1337982976	60	55155
2026-01-07 02:24:15.05	338.08	2.56	-48.9	-64.1	3.6	1.51e+00	0	35	104	1337982976	60	58040
2026-01-07 02:24:19.09	338.37	2.33	-48.5	-64.0	3.6	1.51e+00	0	35	104	1337982976	60	57477
2026-01-07 02:24:23.13	338.65	2.11	-48.8	-64.0	3.6	1.51e+00	0	35	104	1337982976	60	57468
2026-01-07 02:24:27.17	338.94	1.89	-48.9	-64.1	3.6	1.51e+00	0	35	104	1337982976	60	57815
2026-01-07 02:24:31.21	339.22	1.67	-48.9	-64.0	3.6	1.51e+00	0	35	104	1337982976	60	57355
2026-01-07 02:24:35.25	339.49	1.45	-48.8	-64.0	3.6	1.51e+00	0	35	104	1337982976	60	57567
2026-01-07 02:24:39.29	339.76	1.24	-48.8	-64.0	3.6	1.51e+00	0	35	104	1337982976	60	57407
2026-01-07 02:24:43.32	340.03	1.02	-48.8	-64.0	3.6	1.51e+00	0	35	104	1337982976	60	57059
2026-01-07 02:24:47.36	340.29	0.80	-48.8	-64.0	3.6	1.51e+00	0	35	104	1337982976	60	57497
2026-01-07 02:24:51.40	340.55	0.59	-48.8	-64.0	3.6	1.51e+00	0	35	104	1337982976	60	56963
2026-01-07 02:24:55.44	340.81	0.38	-48.8	-64.0	3.6	1.51e+00	0	35	104	1337982976	60	57033
2026-01-07 02:24:59.48	341.06	0.17	-48.8	-64.0	3.6	1.51e+00	0	35	104	1337982976	60	57365
2026-01-07 02:25:03.52	341.32	-0.04	-48.8	-64.0	3.6	1.51e+00	0	35	104	1337982976	60	56965

#Closed at: 2026-01-07 02:25:04
#Recorded file [1337 MB]: D:/lorett/data/35029_260107_141051.dat