passes_logs/2026/01/07/R4.6S_Anadyr/R4.6S_Anadyr__20260107_185403_SUOMI_NPP_rec.log

#Pass ID: 20260107_185403_SUOMI NPP
#Satellite: SUOMI NPP
#Configuration: NPP
#almurnet v.1.7.20251203
#Start time: 2026-01-07 18:54:05

#Version: 2.2.20231116
#Station: R4.6S_Anadyr
#Location: 177.4865 lon 64.73178 lat
#TLE: 1 37849U 11061A   26004.95404768  .00000136  00000+0  85334-4 0  9991
#TLE: 2 37849  98.7801 307.0898 0002575  80.6707 279.4760 14.19522289735281

#Time	Az	El	Level	Level2	SNR	BER	BlckErr	Temp	State	Recorded	gain1	gain2
2026-01-07 18:54:05.40	45.05	0.09	-49.1	-59.8	3.5	8.45e-01	0	36	0	0	60	35400
2026-01-07 18:54:08.42	44.83	0.23	-49.1	-64.5	3.6	1.51e+00	0	37	104	0	60	60456
2026-01-07 18:54:11.45	44.60	0.38	-49.1	-64.5	3.6	1.51e+00	0	37	104	0	60	60646
2026-01-07 18:54:14.48	44.38	0.53	-49.1	-64.5	3.6	1.51e+00	0	37	104	0	60	60658
2026-01-07 18:54:17.51	44.14	0.68	-49.1	-64.5	3.6	1.51e+00	0	37	104	0	60	60627
2026-01-07 18:54:20.54	43.91	0.83	-49.1	-64.5	3.6	1.51e+00	0	37	104	0	60	60495
2026-01-07 18:54:23.57	43.67	0.98	-49.1	-64.5	3.6	1.51e+00	0	37	104	0	60	60351
2026-01-07 18:54:26.59	43.44	1.13	-49.1	-64.5	3.6	1.51e+00	0	37	104	0	60	60480
2026-01-07 18:54:29.62	43.19	1.28	-49.1	-64.5	3.6	1.51e+00	0	37	104	0	60	60693
2026-01-07 18:54:32.66	42.95	1.44	-49.1	-64.5	3.6	1.51e+00	0	37	104	0	60	60476
2026-01-07 18:54:35.69	42.70	1.59	-49.1	-64.5	3.6	1.51e+00	0	37	104	0	60	60881
2026-01-07 18:54:38.71	42.45	1.74	-49.1	-64.5	3.6	1.51e+00	0	37	104	0	60	60498
2026-01-07 18:54:41.75	42.20	1.89	-49.1	-64.5	3.6	1.51e+00	0	37	104	0	60	60416
2026-01-07 18:54:44.78	41.95	2.04	-49.1	-64.5	3.6	1.51e+00	0	37	104	0	60	60634
2026-01-07 18:54:47.81	41.69	2.20	-49.1	-64.5	3.6	1.51e+00	0	37	104	0	60	60738
2026-01-07 18:54:50.84	41.43	2.35	-49.1	-64.5	3.6	1.51e+00	0	37	104	0	60	60513
2026-01-07 18:54:53.87	41.17	2.50	-49.1	-64.5	3.6	1.51e+00	0	37	104	0	60	60848
2026-01-07 18:54:56.90	40.90	2.65	-49.1	-64.5	3.6	1.51e+00	0	37	104	0	60	60922
2026-01-07 18:54:59.93	40.63	2.81	-49.1	-64.5	3.6	1.51e+00	0	37	104	0	60	60552
2026-01-07 18:55:02.95	40.36	2.96	-49.1	-64.5	3.6	1.51e+00	0	37	104	0	60	60392
2026-01-07 18:55:05.98	40.09	3.12	-49.1	-64.5	3.6	1.51e+00	0	38	104	0	60	60774
2026-01-07 18:55:09.01	39.81	3.27	-49.1	-64.5	3.6	1.51e+00	0	38	104	0	60	60370
2026-01-07 18:55:12.04	39.53	3.43	-49.1	-64.5	3.6	1.51e+00	0	38	104	0	60	60554
2026-01-07 18:55:15.07	39.25	3.58	-49.1	-64.5	3.6	1.51e+00	0	37	104	0	60	60594
2026-01-07 18:55:18.10	38.96	3.74	-49.1	-64.6	3.6	1.51e+00	0	38	104	0	60	61052
2026-01-07 18:55:21.13	38.67	3.89	-49.1	-64.5	3.6	1.51e+00	0	38	104	0	60	60480
2026-01-07 18:55:24.16	38.38	4.05	-49.1	-64.5	3.6	1.51e+00	0	38	104	0	60	60653
2026-01-07 18:55:27.19	38.08	4.20	-49.1	-64.6	3.6	1.51e+00	0	38	104	0	60	61210
2026-01-07 18:55:30.22	37.78	4.36	-49.1	-64.5	3.6	1.51e+00	0	38	104	0	60	60734
2026-01-07 18:55:33.25	37.48	4.51	-49.1	-64.5	3.6	1.51e+00	0	38	104	0	60	60378
2026-01-07 18:55:36.28	37.17	4.67	-49.1	-64.5	3.6	1.51e+00	0	38	104	0	60	60887
2026-01-07 18:55:39.31	36.86	4.83	-49.1	-64.5	3.6	1.51e+00	0	38	104	0	60	60936
2026-01-07 18:55:42.34	36.55	4.98	-49.1	-64.5	3.6	1.51e+00	0	38	104	0	60	60789
2026-01-07 18:55:45.36	36.23	5.14	-49.1	-64.5	3.6	1.51e+00	0	38	104	0	60	60972
2026-01-07 18:55:48.39	35.91	5.29	-49.1	-64.5	3.6	1.51e+00	0	38	104	0	60	60848
2026-01-07 18:55:51.42	35.59	5.45	-49.1	-64.5	3.6	1.51e+00	0	38	104	0	60	60579
2026-01-07 18:55:54.45	35.26	5.61	-49.1	-64.5	3.6	1.51e+00	0	38	104	0	60	60553
2026-01-07 18:55:57.48	34.93	5.76	-49.1	-64.5	3.6	1.51e+00	0	38	104	0	60	60753
2026-01-07 18:56:00.51	34.59	5.92	-49.1	-64.5	3.6	1.51e+00	0	38	104	0	60	60711
2026-01-07 18:56:03.54	34.26	6.08	-49.1	-64.5	3.6	1.51e+00	0	38	104	0	60	60870
2026-01-07 18:56:06.58	33.91	6.24	-49.1	-64.5	3.6	1.51e+00	0	38	104	0	60	60713
2026-01-07 18:56:09.61	33.57	6.39	-49.1	-64.5	3.6	1.51e+00	0	38	104	0	60	60432
2026-01-07 18:56:12.63	33.22	6.55	-49.1	-64.5	3.6	1.51e+00	0	38	104	0	60	60752
2026-01-07 18:56:15.66	32.86	6.70	-49.1	-64.5	3.6	1.51e+00	0	38	104	0	60	60590
2026-01-07 18:56:18.69	32.51	6.86	-49.1	-64.5	3.5	1.51e+00	0	38	104	0	60	60726
2026-01-07 18:56:21.72	32.14	7.02	-49.1	-64.5	3.6	1.51e+00	0	38	104	0	60	60721
2026-01-07 18:56:24.75	31.78	7.17	-49.1	-64.5	3.6	1.51e+00	0	38	104	0	60	60807
2026-01-07 18:56:27.78	31.41	7.33	-49.1	-64.5	3.6	1.51e+00	0	38	104	0	60	60608
2026-01-07 18:56:30.81	31.04	7.49	-49.1	-64.5	3.6	1.51e+00	0	38	104	0	60	60881
2026-01-07 18:56:33.84	30.66	7.64	-49.1	-64.4	3.6	1.51e+00	0	38	104	0	60	60297
2026-01-07 18:56:36.87	30.28	7.80	-49.1	-64.5	3.6	1.51e+00	0	38	104	0	60	60526
2026-01-07 18:56:39.90	29.89	7.95	-49.1	-64.5	3.6	1.51e+00	0	38	104	0	60	60621
2026-01-07 18:56:42.93	29.50	8.11	-49.1	-64.5	3.6	1.51e+00	0	38	104	0	60	60665
2026-01-07 18:56:45.96	29.10	8.26	-49.1	-64.5	3.6	1.51e+00	0	38	104	0	60	60472
2026-01-07 18:56:48.99	28.70	8.41	-49.1	-64.5	3.6	1.51e+00	0	38	104	0	60	61002
2026-01-07 18:56:52.02	28.30	8.57	-49.1	-64.5	3.6	1.51e+00	0	38	104	0	60	60925
2026-01-07 18:56:55.04	27.89	8.72	-49.1	-64.5	3.6	1.51e+00	0	38	104	0	60	60698
2026-01-07 18:56:58.07	27.48	8.87	-49.1	-64.5	3.6	1.51e+00	0	38	104	0	60	60683
2026-01-07 18:57:01.10	27.07	9.03	-49.1	-64.5	3.6	1.51e+00	0	38	104	0	60	60455
2026-01-07 18:57:04.13	26.64	9.18	-49.1	-64.5	3.6	1.51e+00	0	38	104	0	60	60718
2026-01-07 18:57:07.16	26.22	9.33	-49.1	-64.5	3.6	1.51e+00	0	38	104	0	60	60749
2026-01-07 18:57:10.19	25.79	9.48	-49.1	-64.5	3.6	1.51e+00	0	38	104	0	60	60826
2026-01-07 18:57:13.22	25.35	9.63	-49.1	-64.4	3.6	1.51e+00	0	38	104	0	60	60300
2026-01-07 18:57:16.25	24.92	9.78	-49.1	-64.6	3.6	1.51e+00	0	38	104	0	60	61084
2026-01-07 18:57:19.28	24.47	9.93	-49.1	-64.5	3.6	1.51e+00	0	38	104	0	60	60726
2026-01-07 18:57:22.30	24.02	10.07	-49.1	-64.5	3.6	1.51e+00	0	38	104	0	60	60561
2026-01-07 18:57:25.33	23.57	10.22	-49.1	-64.5	3.6	1.51e+00	0	38	104	0	60	60812
2026-01-07 18:57:28.36	23.11	10.37	-49.1	-64.5	3.6	1.51e+00	0	38	104	0	60	60847
2026-01-07 18:57:31.39	22.65	10.51	-49.1	-64.5	3.6	1.51e+00	0	38	104	0	60	60844
2026-01-07 18:57:34.42	22.19	10.65	-49.1	-64.5	3.6	1.51e+00	0	38	104	0	60	60532
2026-01-07 18:57:37.45	21.71	10.80	-49.1	-64.5	3.6	1.51e+00	0	38	104	0	60	60621
2026-01-07 18:57:40.48	21.24	10.94	-49.1	-64.5	3.6	1.51e+00	0	38	104	0	60	60709
2026-01-07 18:57:43.50	20.76	11.08	-49.1	-64.4	3.6	1.51e+00	0	38	104	0	60	60304
2026-01-07 18:57:46.53	20.27	11.22	-49.1	-64.4	3.6	1.51e+00	0	38	104	0	60	60288
2026-01-07 18:57:49.56	19.78	11.36	-49.1	-64.5	3.6	1.51e+00	0	38	104	0	60	60586
2026-01-07 18:57:52.59	19.29	11.49	-49.1	-64.5	3.6	1.51e+00	0	38	104	0	60	60633
2026-01-07 18:57:55.62	18.79	11.63	-49.1	-64.5	3.6	1.51e+00	0	38	104	0	60	60582
2026-01-07 18:57:58.65	18.28	11.76	-49.1	-64.5	3.6	1.51e+00	0	38	104	0	60	60592
2026-01-07 18:58:01.68	17.77	11.90	-49.1	-64.5	3.6	1.51e+00	0	38	104	0	60	60631
2026-01-07 18:58:04.71	17.26	12.03	-49.1	-64.5	3.6	1.51e+00	0	38	104	0	60	60473
2026-01-07 18:58:07.74	16.74	12.16	-49.1	-64.5	3.6	1.51e+00	0	38	104	0	60	60881
2026-01-07 18:58:10.77	16.22	12.28	-49.1	-64.5	3.5	1.51e+00	0	38	104	0	60	60902
2026-01-07 18:58:13.80	15.69	12.41	-49.1	-64.5	3.6	1.51e+00	0	38	104	0	60	60564
2026-01-07 18:58:16.83	15.16	12.54	-49.1	-64.5	3.6	1.51e+00	0	38	104	0	60	60596
2026-01-07 18:58:19.86	14.62	12.66	-49.1	-64.5	3.6	1.51e+00	0	38	104	0	60	60621
2026-01-07 18:58:22.89	14.08	12.78	-49.1	-64.5	3.6	1.51e+00	0	38	104	0	60	60486
2026-01-07 18:58:25.92	13.53	12.90	-49.1	-64.5	3.6	1.51e+00	0	38	104	0	60	60818
2026-01-07 18:58:28.95	12.98	13.01	-49.1	-64.5	3.6	1.51e+00	0	38	104	0	60	60680
2026-01-07 18:58:31.98	12.43	13.13	-49.1	-64.5	3.6	1.51e+00	0	38	104	0	60	60627
2026-01-07 18:58:35.01	11.87	13.24	-49.1	-64.5	3.6	1.51e+00	0	38	104	0	60	60486
2026-01-07 18:58:38.04	11.31	13.35	-49.1	-64.5	3.6	1.51e+00	0	38	104	0	60	60716
2026-01-07 18:58:41.07	10.74	13.46	-49.1	-64.5	3.6	1.51e+00	0	38	104	0	60	60450
2026-01-07 18:58:44.10	10.17	13.56	-49.1	-64.5	3.6	1.51e+00	0	38	104	0	60	60644
2026-01-07 18:58:47.13	9.59	13.67	-49.1	-64.5	3.6	1.51e+00	0	38	104	0	60	60599
2026-01-07 18:58:50.16	9.01	13.77	-49.1	-64.5	3.6	1.51e+00	0	38	104	0	60	60886
2026-01-07 18:58:53.19	8.43	13.87	-49.1	-64.5	3.6	1.51e+00	0	38	104	0	60	60367
2026-01-07 18:58:56.22	7.84	13.96	-49.1	-64.5	3.6	1.51e+00	0	38	104	0	60	60625
2026-01-07 18:58:59.25	7.25	14.06	-49.1	-64.5	3.6	1.51e+00	0	38	104	0	60	60569
2026-01-07 18:59:02.28	6.65	14.15	-49.1	-64.5	3.6	1.51e+00	0	38	104	0	60	60644
2026-01-07 18:59:05.31	6.05	14.23	-49.1	-64.5	3.6	1.51e+00	0	38	104	0	60	60783
2026-01-07 18:59:08.34	5.45	14.32	-49.1	-64.5	3.6	1.51e+00	0	38	104	0	60	60573
2026-01-07 18:59:11.37	4.84	14.40	-49.1	-64.5	3.6	1.51e+00	0	38	104	0	60	60704
2026-01-07 18:59:14.40	4.24	14.48	-49.1	-64.5	3.6	1.51e+00	0	39	104	0	60	60823
2026-01-07 18:59:17.43	3.62	14.55	-49.1	-64.5	3.6	1.51e+00	0	38	104	0	60	60678
2026-01-07 18:59:20.46	3.01	14.63	-49.0	-64.5	3.6	1.51e+00	0	38	104	0	60	60636
2026-01-07 18:59:23.49	2.39	14.70	-49.1	-64.5	3.6	1.51e+00	0	38	104	0	60	60648
2026-01-07 18:59:26.52	1.77	14.76	-49.0	-64.5	3.6	1.51e+00	0	38	104	0	60	60437
2026-01-07 18:59:29.55	1.14	14.82	-49.0	-64.4	3.6	1.51e+00	0	38	104	0	60	60305
2026-01-07 18:59:32.57	0.52	14.88	-49.0	-64.5	3.6	1.51e+00	0	38	104	0	60	60606
2026-01-07 18:59:35.60	359.89	14.94	-49.0	-64.4	3.6	1.51e+00	0	38	104	0	60	60298
2026-01-07 18:59:38.64	359.26	14.99	-49.0	-64.4	3.6	1.51e+00	0	38	104	0	60	60314
2026-01-07 18:59:41.67	358.62	15.04	-49.0	-64.4	3.6	1.51e+00	0	38	104	0	60	60327
2026-01-07 18:59:44.69	357.99	15.09	-49.0	-64.5	3.6	1.51e+00	0	38	104	0	60	60456
2026-01-07 18:59:47.72	357.35	15.13	-49.0	-64.4	3.6	1.51e+00	0	38	104	0	60	60177
2026-01-07 18:59:50.75	356.71	15.17	-49.0	-64.5	3.6	1.51e+00	0	39	104	0	60	60523
2026-01-07 18:59:53.78	356.07	15.21	-49.0	-64.5	3.6	1.51e+00	0	38	104	0	60	60759
2026-01-07 18:59:56.81	355.43	15.24	-49.0	-64.5	3.6	1.51e+00	0	38	104	0	60	60643
2026-01-07 18:59:59.83	354.78	15.27	-49.0	-64.5	3.6	1.51e+00	0	38	104	0	60	60697
2026-01-07 19:00:02.86	354.14	15.29	-49.0	-64.5	3.6	1.51e+00	0	38	104	0	60	60614
2026-01-07 19:00:05.89	353.49	15.32	-49.0	-64.5	3.6	1.51e+00	0	38	104	0	60	60852
2026-01-07 19:00:08.92	352.85	15.33	-49.0	-64.5	3.6	1.51e+00	0	39	104	0	60	60525
2026-01-07 19:00:11.95	352.20	15.35	-49.0	-64.5	3.6	1.51e+00	0	38	104	0	60	60447
2026-01-07 19:00:14.98	351.55	15.36	-49.0	-64.5	3.6	1.51e+00	0	38	104	0	60	60692
2026-01-07 19:00:18.00	350.90	15.36	-49.0	-64.5	3.6	1.51e+00	0	38	104	0	60	60402
2026-01-07 19:00:21.03	350.25	15.37	-49.0	-64.5	3.6	1.51e+00	0	38	104	0	60	60796
2026-01-07 19:00:24.06	349.61	15.37	-49.0	-64.5	3.6	1.51e+00	0	38	104	0	60	60677
2026-01-07 19:00:27.09	348.96	15.36	-49.0	-64.4	3.6	1.51e+00	0	39	104	0	60	60046
2026-01-07 19:00:30.12	348.31	15.35	-49.0	-64.5	3.6	1.51e+00	0	38	104	0	60	60513
2026-01-07 19:00:33.15	347.66	15.34	-49.0	-64.5	3.6	1.51e+00	0	39	104	0	60	60590
2026-01-07 19:00:36.18	347.01	15.33	-49.0	-64.5	3.6	1.51e+00	0	38	104	0	60	60648
2026-01-07 19:00:39.21	346.37	15.31	-49.0	-64.5	3.6	1.51e+00	0	38	104	0	60	60583
2026-01-07 19:00:42.24	345.72	15.28	-49.0	-64.5	3.6	1.51e+00	0	38	104	0	60	60698
2026-01-07 19:00:45.27	345.08	15.26	-49.0	-64.5	3.6	1.51e+00	0	38	104	0	60	60462
2026-01-07 19:00:48.30	344.43	15.23	-49.0	-64.5	3.6	1.51e+00	0	38	104	0	60	60655
2026-01-07 19:00:51.33	343.79	15.19	-49.0	-64.5	3.6	1.51e+00	0	39	104	0	60	60407
2026-01-07 19:00:54.36	343.15	15.16	-49.0	-64.5	3.6	1.51e+00	0	38	104	0	60	60682
2026-01-07 19:00:57.40	342.51	15.11	-49.0	-64.5	3.6	1.51e+00	0	39	104	0	60	60541
2026-01-07 19:01:00.42	341.87	15.07	-49.0	-64.5	3.6	1.51e+00	0	38	104	0	60	60755
2026-01-07 19:01:03.45	341.24	15.02	-49.0	-64.5	3.6	1.51e+00	0	38	104	0	60	60676
2026-01-07 19:01:06.48	340.61	14.97	-49.0	-64.5	3.6	1.51e+00	0	38	104	0	60	60452
2026-01-07 19:01:09.52	339.97	14.92	-49.0	-64.5	3.6	1.51e+00	0	38	104	0	60	60372
2026-01-07 19:01:12.55	339.34	14.86	-49.0	-64.5	3.6	1.51e+00	0	39	104	0	60	60560
2026-01-07 19:01:15.57	338.72	14.80	-49.0	-64.5	3.6	1.51e+00	0	39	104	0	60	60596
2026-01-07 19:01:18.60	338.10	14.73	-49.0	-64.5	3.6	1.51e+00	0	39	104	0	60	60622
2026-01-07 19:01:21.63	337.48	14.67	-49.0	-64.5	3.6	1.51e+00	0	38	104	0	60	60757
2026-01-07 19:01:24.66	336.86	14.59	-49.0	-64.5	3.6	1.51e+00	0	39	104	0	60	60773
2026-01-07 19:01:27.70	336.24	14.52	-49.0	-64.5	3.6	1.51e+00	0	39	104	0	60	60552
2026-01-07 19:01:30.72	335.63	14.44	-49.0	-64.5	3.6	1.51e+00	0	38	104	0	60	60629
2026-01-07 19:01:33.76	335.02	14.36	-49.0	-64.5	3.6	1.51e+00	0	38	104	0	60	60435
2026-01-07 19:01:36.78	334.42	14.28	-49.0	-64.5	3.6	1.51e+00	0	39	104	0	60	60641
2026-01-07 19:01:39.81	333.82	14.19	-49.0	-64.5	3.6	1.51e+00	0	39	104	0	60	60853
2026-01-07 19:01:42.84	333.22	14.11	-49.0	-64.5	3.6	1.51e+00	0	39	104	0	60	60597
2026-01-07 19:01:45.87	332.63	14.01	-49.0	-64.5	3.6	1.51e+00	0	39	104	0	60	60852
2026-01-07 19:01:48.90	332.04	13.92	-49.0	-64.5	3.6	1.51e+00	0	39	104	0	60	60712
2026-01-07 19:01:51.93	331.45	13.82	-49.0	-64.5	3.6	1.51e+00	0	38	104	0	60	60795
2026-01-07 19:01:54.95	330.87	13.73	-49.0	-64.5	3.6	1.51e+00	0	38	104	0	60	60779
2026-01-07 19:01:57.98	330.29	13.62	-49.0	-64.5	3.6	1.51e+00	0	38	104	0	60	60866
2026-01-07 19:02:01.01	329.72	13.52	-49.0	-64.5	3.6	1.51e+00	0	39	104	0	60	60467
2026-01-07 19:02:04.04	329.15	13.41	-49.0	-64.5	3.6	1.51e+00	0	39	104	0	60	60490
2026-01-07 19:02:07.07	328.58	13.30	-49.0	-64.5	3.6	1.51e+00	0	39	104	0	60	60617
2026-01-07 19:02:10.10	328.02	13.19	-49.0	-64.5	3.6	1.51e+00	0	38	104	0	60	60468
2026-01-07 19:02:13.13	327.46	13.08	-49.0	-64.5	3.5	1.51e+00	0	38	104	0	60	60676
2026-01-07 19:02:16.16	326.91	12.96	-49.0	-64.5	3.6	1.51e+00	0	38	104	0	60	60806
2026-01-07 19:02:19.19	326.36	12.85	-49.0	-64.4	3.6	1.51e+00	0	39	104	0	60	60268
2026-01-07 19:02:22.22	325.82	12.73	-49.0	-64.5	3.6	1.51e+00	0	38	104	0	60	60621
2026-01-07 19:02:25.25	325.28	12.60	-49.0	-64.5	3.6	1.51e+00	0	38	104	0	60	60540
2026-01-07 19:02:28.28	324.74	12.48	-49.0	-64.5	3.6	1.51e+00	0	39	104	0	60	60831
2026-01-07 19:02:31.31	324.21	12.36	-49.0	-64.5	3.6	1.51e+00	0	39	104	0	60	60702
2026-01-07 19:02:34.34	323.69	12.23	-49.0	-64.5	3.6	1.51e+00	0	38	104	0	60	60751
2026-01-07 19:02:37.37	323.16	12.10	-49.0	-64.5	3.6	1.51e+00	0	38	104	0	60	60988
2026-01-07 19:02:40.40	322.65	11.97	-49.0	-64.5	3.6	1.51e+00	0	39	104	0	60	60786
2026-01-07 19:02:43.43	322.13	11.84	-49.0	-64.5	3.6	1.51e+00	0	38	104	0	60	60360
2026-01-07 19:02:46.46	321.63	11.71	-49.0	-64.5	3.6	1.51e+00	0	38	104	0	60	60456
2026-01-07 19:02:49.49	321.12	11.57	-49.0	-64.5	3.6	1.51e+00	0	39	104	0	60	60799
2026-01-07 19:02:52.52	320.63	11.43	-49.0	-64.5	3.6	1.51e+00	0	39	104	0	60	60784
2026-01-07 19:02:55.55	320.13	11.30	-49.0	-64.5	3.6	1.51e+00	0	38	104	0	60	60540
2026-01-07 19:02:58.58	319.64	11.16	-49.0	-64.5	3.6	1.51e+00	0	38	104	0	60	60409
2026-01-07 19:03:01.61	319.16	11.02	-48.9	-64.5	3.6	1.51e+00	0	39	104	0	60	60634
2026-01-07 19:03:04.64	318.68	10.88	-49.0	-64.5	3.6	1.51e+00	0	38	104	0	60	60366
2026-01-07 19:03:07.67	318.21	10.73	-49.0	-64.5	3.6	1.51e+00	0	39	104	0	60	60643
2026-01-07 19:03:10.70	317.74	10.59	-49.0	-64.5	3.6	1.51e+00	0	39	104	0	60	60371
2026-01-07 19:03:13.73	317.27	10.45	-49.0	-64.5	3.6	1.51e+00	0	39	104	0	60	60819
2026-01-07 19:03:16.76	316.81	10.30	-49.0	-64.5	3.6	1.51e+00	0	39	104	0	60	60703
2026-01-07 19:03:19.79	316.35	10.16	-49.0	-64.5	3.5	1.51e+00	0	39	104	0	60	60655
2026-01-07 19:03:22.82	315.90	10.01	-49.0	-64.5	3.6	1.51e+00	0	39	104	0	60	60763
2026-01-07 19:03:25.85	315.46	9.86	-49.0	-64.5	3.6	1.51e+00	0	39	104	0	60	60775
2026-01-07 19:03:28.88	315.01	9.71	-49.0	-64.5	3.6	1.51e+00	0	39	104	0	60	60701
2026-01-07 19:03:31.91	314.58	9.56	-49.0	-64.5	3.6	1.51e+00	0	39	104	0	60	60593
2026-01-07 19:03:34.94	314.14	9.41	-49.0	-64.5	3.6	1.51e+00	0	39	104	0	60	60483
2026-01-07 19:03:37.97	313.71	9.26	-49.0	-64.5	3.6	1.51e+00	0	39	104	0	60	60737
2026-01-07 19:03:41.00	313.29	9.11	-49.0	-64.5	3.6	1.51e+00	0	39	104	0	60	60685
2026-01-07 19:03:44.03	312.87	8.96	-49.0	-64.5	3.6	1.51e+00	0	39	104	0	60	60821
2026-01-07 19:03:47.06	312.46	8.81	-49.0	-64.5	3.6	1.51e+00	0	39	104	0	60	60663
2026-01-07 19:03:50.09	312.05	8.65	-49.0	-64.5	3.6	1.51e+00	0	39	104	0	60	60715
2026-01-07 19:03:53.12	311.64	8.50	-49.0	-64.5	3.6	1.51e+00	0	39	104	0	60	60988
2026-01-07 19:03:56.15	311.24	8.34	-49.0	-64.5	3.6	1.51e+00	0	39	104	0	60	60792
2026-01-07 19:03:59.18	310.84	8.19	-49.0	-64.5	3.6	1.51e+00	0	39	104	0	60	60566
2026-01-07 19:04:02.21	310.45	8.04	-49.0	-64.5	3.6	1.51e+00	0	38	104	0	60	60909
2026-01-07 19:04:05.24	310.06	7.88	-49.0	-64.5	3.6	1.51e+00	0	39	104	0	60	60677
2026-01-07 19:04:08.27	309.67	7.73	-49.0	-64.5	3.6	1.51e+00	0	39	104	0	60	60859
2026-01-07 19:04:11.30	309.29	7.57	-49.0	-64.5	3.6	1.51e+00	0	39	104	0	60	60698
2026-01-07 19:04:14.33	308.92	7.41	-49.0	-64.5	3.6	1.51e+00	0	39	104	0	60	60579
2026-01-07 19:04:17.36	308.54	7.26	-49.0	-64.5	3.6	1.51e+00	0	39	104	0	60	60498
2026-01-07 19:04:20.39	308.17	7.10	-49.0	-64.5	3.6	1.51e+00	0	39	104	0	60	60614
2026-01-07 19:04:23.42	307.81	6.95	-49.0	-64.5	3.6	1.51e+00	0	39	104	0	60	60737
2026-01-07 19:04:26.45	307.45	6.79	-49.0	-64.5	3.6	1.51e+00	0	39	104	0	60	60912
2026-01-07 19:04:29.48	307.09	6.63	-49.0	-64.5	3.6	1.51e+00	0	39	104	0	60	60404
2026-01-07 19:04:32.50	306.74	6.48	-49.0	-64.5	3.6	1.51e+00	0	39	104	0	60	60432
2026-01-07 19:04:35.53	306.39	6.32	-49.0	-64.5	3.6	1.51e+00	0	39	104	0	60	60671
2026-01-07 19:04:38.56	306.05	6.16	-49.0	-64.5	3.6	1.51e+00	0	39	104	0	60	60843
2026-01-07 19:04:41.59	305.71	6.01	-49.0	-64.5	3.6	1.51e+00	0	39	104	0	60	60721
2026-01-07 19:04:44.62	305.37	5.85	-49.0	-64.5	3.5	1.51e+00	0	39	104	0	60	60508
2026-01-07 19:04:47.65	305.04	5.69	-49.0	-64.5	3.6	1.51e+00	0	39	104	0	60	60694
2026-01-07 19:04:50.68	304.71	5.54	-49.0	-64.5	3.6	1.51e+00	0	39	104	0	60	60520
2026-01-07 19:04:53.71	304.38	5.38	-49.0	-64.5	3.6	1.51e+00	0	39	104	0	60	60604
2026-01-07 19:04:56.73	304.06	5.22	-49.0	-64.5	3.6	1.51e+00	0	38	104	0	60	60738
2026-01-07 19:04:59.76	303.74	5.07	-49.0	-64.5	3.6	1.51e+00	0	39	104	0	60	60561
2026-01-07 19:05:02.79	303.42	4.91	-49.0	-64.5	3.6	1.51e+00	0	38	104	0	60	60584
2026-01-07 19:05:05.82	303.11	4.75	-49.0	-64.5	3.6	1.51e+00	0	39	104	0	60	60439
2026-01-07 19:05:08.85	302.80	4.60	-49.0	-64.5	3.6	1.51e+00	0	38	104	0	60	60517
2026-01-07 19:05:11.88	302.50	4.44	-49.0	-64.5	3.6	1.51e+00	0	39	104	0	60	60663
2026-01-07 19:05:14.91	302.20	4.29	-49.0	-64.5	3.6	1.51e+00	0	39	104	0	60	60718
2026-01-07 19:05:17.94	301.90	4.13	-49.0	-64.5	3.6	1.51e+00	0	38	104	0	60	60714
2026-01-07 19:05:20.97	301.60	3.97	-49.0	-64.5	3.6	1.51e+00	0	39	104	0	60	60797
2026-01-07 19:05:24.00	301.31	3.82	-49.0	-64.5	3.6	1.51e+00	0	38	104	0	60	60550
2026-01-07 19:05:27.03	301.02	3.66	-49.0	-64.5	3.6	1.51e+00	0	39	104	0	60	60749
2026-01-07 19:05:30.06	300.73	3.51	-49.0	-64.5	3.6	1.51e+00	0	39	104	0	60	60819
2026-01-07 19:05:33.09	300.45	3.35	-49.0	-64.5	3.6	1.51e+00	0	39	104	0	60	60746
2026-01-07 19:05:36.12	300.17	3.20	-49.0	-64.5	3.6	1.51e+00	0	39	104	0	60	60640
2026-01-07 19:05:39.15	299.89	3.05	-49.0	-64.5	3.6	1.51e+00	0	39	104	0	60	60667
2026-01-07 19:05:42.18	299.62	2.89	-49.0	-64.5	3.6	1.51e+00	0	39	104	0	60	60757
2026-01-07 19:05:45.21	299.35	2.74	-49.0	-64.5	3.6	1.51e+00	0	39	104	0	60	60831
2026-01-07 19:05:48.24	299.08	2.58	-49.0	-64.5	3.6	1.51e+00	0	39	104	0	60	60473
2026-01-07 19:05:51.27	298.82	2.43	-49.0	-64.5	3.6	1.51e+00	0	39	104	0	60	60430
2026-01-07 19:05:54.30	298.55	2.28	-49.0	-64.5	3.6	1.51e+00	0	39	104	0	60	60492
2026-01-07 19:05:57.33	298.30	2.12	-49.0	-64.5	3.6	1.51e+00	0	39	104	0	60	60998
2026-01-07 19:06:00.36	298.04	1.97	-49.0	-64.5	3.6	1.51e+00	0	39	104	0	60	60714
2026-01-07 19:06:03.39	297.78	1.82	-49.0	-64.5	3.6	1.51e+00	0	39	104	0	60	60849
2026-01-07 19:06:06.42	297.53	1.67	-49.0	-64.5	3.6	1.51e+00	0	39	104	0	60	60919
2026-01-07 19:06:09.45	297.28	1.52	-49.0	-64.6	3.6	1.51e+00	0	39	104	0	60	61053
2026-01-07 19:06:12.48	297.04	1.37	-49.0	-64.5	3.6	1.51e+00	0	39	104	0	60	60698
2026-01-07 19:06:15.51	296.80	1.21	-49.0	-64.5	3.6	1.51e+00	0	39	104	0	60	60882
2026-01-07 19:06:18.54	296.55	1.06	-49.0	-64.5	3.6	1.51e+00	0	39	104	0	60	60591
2026-01-07 19:06:21.57	296.32	0.91	-49.0	-64.5	3.5	1.51e+00	0	39	104	0	60	60461
2026-01-07 19:06:24.60	296.08	0.76	-49.0	-64.5	3.6	1.51e+00	0	39	104	0	60	60715
2026-01-07 19:06:27.63	295.85	0.61	-49.0	-64.5	3.6	1.51e+00	0	39	104	0	60	60956
2026-01-07 19:06:30.66	295.62	0.46	-49.0	-64.6	3.6	1.51e+00	0	39	104	0	60	61112
2026-01-07 19:06:33.69	295.39	0.31	-49.0	-64.5	3.6	1.51e+00	0	39	104	0	60	60835
2026-01-07 19:06:36.72	295.16	0.17	-49.0	-64.5	3.6	1.51e+00	0	39	104	0	60	60495
2026-01-07 19:06:39.75	294.94	0.02	-49.0	-64.5	3.6	1.51e+00	0	39	104	0	60	60444

#Closed at: 2026-01-07 19:06:41
#Recorded file [0 MB]: D:/lorett/data/35029_260108_065405.dat