passes_logs/2026/01/07/R4.6S_Anadyr/R4.6S_Anadyr__20260107_024909_FENGYUN_3D_rec.log

#Pass ID: 20260107_024909_FENGYUN 3D
#Satellite: FENGYUN 3D
#Configuration: FENGYUN 3D
#almurnet v.1.7.20251203
#Start time: 2026-01-07 02:49:11

#Version: 2.2.20231116
#Station: R4.6S_Anadyr
#Location: 177.4865 lon 64.73178 lat
#TLE: 1 43010U 17072A   26005.48915933 -.00000051  00000+0 -21983-5 0  9995
#TLE: 2 43010  98.9919 337.1582 0002001 124.6377 235.4988 14.19691925421909

#Time	Az	El	Level	Level2	SNR	BER	BlckErr	Temp	State	Recorded	gain1	gain2
2026-01-07 02:49:11.75	170.60	0.14	-48.8	-63.7	3.5	1.51e+00	0	31	0	0	60	55310
2026-01-07 02:49:15.78	170.68	0.38	-48.9	-61.0	3.6	8.45e-01	0	33	104	0	60	40439
2026-01-07 02:49:19.81	170.77	0.62	-49.0	-61.0	3.6	8.45e-01	0	33	104	0	60	40747
2026-01-07 02:49:23.85	170.86	0.87	-48.8	-60.9	3.6	8.45e-01	0	33	104	0	60	40233
2026-01-07 02:49:27.89	170.95	1.11	-48.3	-60.3	3.6	8.44e-01	0	33	104	0	60	37584
2026-01-07 02:49:31.93	171.04	1.36	-47.5	-59.5	3.6	8.46e-01	0	33	104	0	60	34190
2026-01-07 02:49:35.97	171.13	1.62	-47.5	-59.4	3.6	8.46e-01	0	33	104	0	60	33669
2026-01-07 02:49:40.01	171.22	1.87	-47.5	-59.1	3.6	8.45e-01	0	33	104	0	60	32511
2026-01-07 02:49:44.05	171.32	2.13	-47.5	-59.6	3.6	8.46e-01	0	33	104	0	60	34389
2026-01-07 02:49:48.09	171.42	2.38	-47.5	-59.1	3.6	8.46e-01	0	33	104	0	60	32722
2026-01-07 02:49:52.13	171.51	2.64	-47.3	-57.5	3.6	8.44e-01	0	33	104	0	60	27220
2026-01-07 02:49:56.17	171.61	2.91	-47.5	-59.6	3.6	8.45e-01	0	33	104	0	60	34349
2026-01-07 02:50:00.21	171.71	3.17	-43.7	-46.2	12.5	1.18e-03	0	33	0	10485760	60	7350
2026-01-07 02:50:04.25	171.82	3.44	-38.2	-39.2	19.4	0.00e+00	0	33	0	33554432	50	5877
2026-01-07 02:50:08.29	171.92	3.71	-37.6	-38.5	20.0	0.00e+00	0	33	0	56623104	48	6084
2026-01-07 02:50:12.32	172.02	3.98	-46.3	-50.9	9.6	5.92e-01	0	33	0	77594624	60	12727
2026-01-07 02:50:16.37	172.13	4.26	-36.9	-37.8	21.0	0.00e+00	0	33	0	92274688	46	6248
2026-01-07 02:50:20.41	172.24	4.54	-35.5	-36.3	22.4	0.00e+00	0	33	0	114294784	44	5928
2026-01-07 02:50:24.45	172.35	4.82	-35.1	-35.8	22.8	0.00e+00	0	33	0	137363456	44	5614
2026-01-07 02:50:28.48	172.47	5.10	-34.8	-35.5	23.1	0.00e+00	0	33	0	160432128	44	5420
2026-01-07 02:50:32.52	172.58	5.39	-35.1	-35.9	22.9	0.00e+00	0	33	0	182452224	42	6336
2026-01-07 02:50:36.56	172.70	5.68	-34.6	-35.4	23.4	0.00e+00	0	33	0	205520896	42	5970
2026-01-07 02:50:40.59	172.82	5.97	-34.4	-35.1	23.6	0.00e+00	0	33	0	228589568	42	5797
2026-01-07 02:50:44.63	172.94	6.27	-34.3	-35.1	23.7	0.00e+00	0	33	0	250609664	42	5783
2026-01-07 02:50:48.67	173.06	6.57	-34.5	-35.2	23.6	0.00e+00	0	33	0	273678336	42	5878
2026-01-07 02:50:52.71	173.19	6.88	-34.0	-34.6	24.1	0.00e+00	0	33	0	296747008	42	5502
2026-01-07 02:50:56.75	173.32	7.18	-34.0	-34.6	24.2	0.00e+00	0	33	0	318767104	42	5499
2026-01-07 02:51:00.78	173.45	7.49	-33.8	-34.5	24.3	0.00e+00	0	33	0	341835776	40	6083
2026-01-07 02:51:04.82	173.58	7.81	-33.6	-34.2	24.5	0.00e+00	0	33	0	364904448	40	5886
2026-01-07 02:51:08.86	173.72	8.13	-33.5	-34.2	24.7	0.00e+00	0	33	0	386924544	40	5836
2026-01-07 02:51:12.90	173.85	8.45	-33.4	-34.1	24.7	0.00e+00	0	33	0	409993216	40	5796
2026-01-07 02:51:16.94	174.00	8.78	-33.4	-34.1	24.7	0.00e+00	0	33	0	433061888	40	5779
2026-01-07 02:51:20.97	174.14	9.11	-33.4	-34.1	24.7	0.00e+00	0	34	0	455081984	40	5813
2026-01-07 02:51:25.01	174.29	9.44	-33.4	-34.1	24.7	0.00e+00	0	33	0	478150656	40	5811
2026-01-07 02:51:29.05	174.44	9.78	-33.4	-34.1	24.9	0.00e+00	0	33	0	501219328	40	5771
2026-01-07 02:51:33.09	174.59	10.12	-33.6	-34.2	24.7	0.00e+00	0	34	0	523239424	40	5894
2026-01-07 02:51:37.13	174.75	10.47	-33.4	-34.1	24.8	0.00e+00	0	33	0	546308096	40	5781
2026-01-07 02:51:41.16	174.91	10.83	-33.3	-34.0	24.9	0.00e+00	0	33	0	569376768	40	5739
2026-01-07 02:51:45.20	175.07	11.18	-33.3	-34.0	25.0	0.00e+00	0	34	0	591396864	40	5722
2026-01-07 02:51:49.24	175.24	11.55	-33.2	-33.9	25.1	0.00e+00	0	34	0	614465536	40	5631
2026-01-07 02:51:53.28	175.41	11.92	-33.0	-33.6	25.3	0.00e+00	0	33	0	637534208	40	5502
2026-01-07 02:51:57.32	175.59	12.29	-32.9	-33.6	25.4	0.00e+00	0	34	0	659554304	40	5472
2026-01-07 02:52:01.36	175.77	12.67	-32.9	-33.6	25.5	0.00e+00	0	34	0	682622976	40	5469
2026-01-07 02:52:05.40	175.95	13.06	-32.9	-33.6	25.4	0.00e+00	0	34	0	705691648	40	5469
2026-01-07 02:52:09.44	176.14	13.45	-32.8	-33.5	25.6	0.00e+00	0	34	0	727711744	38	6042
2026-01-07 02:52:13.48	176.33	13.85	-32.6	-33.3	25.7	0.00e+00	0	34	0	750780416	38	5920
2026-01-07 02:52:17.52	176.53	14.25	-32.5	-33.1	25.9	0.00e+00	0	34	0	773849088	38	5823
2026-01-07 02:52:21.56	176.74	14.66	-32.2	-32.8	26.1	0.00e+00	0	34	0	795869184	38	5625
2026-01-07 02:52:25.60	176.94	15.08	-31.9	-32.6	26.4	0.00e+00	0	34	0	818937856	38	5468
2026-01-07 02:52:29.64	177.16	15.50	-31.9	-32.5	26.5	0.00e+00	0	34	0	842006528	38	5416
2026-01-07 02:52:33.68	177.38	15.94	-31.9	-32.5	26.7	0.00e+00	0	34	0	864026624	36	6088
2026-01-07 02:52:37.72	177.61	16.38	-31.7	-32.3	26.7	0.00e+00	0	34	0	887095296	36	5915
2026-01-07 02:52:41.76	177.84	16.82	-31.4	-32.0	26.9	0.00e+00	0	34	0	910163968	36	5744
2026-01-07 02:52:45.80	178.08	17.28	-31.3	-31.9	26.9	0.00e+00	0	34	0	932184064	36	5692
2026-01-07 02:52:49.83	178.32	17.74	-31.4	-32.1	26.9	0.00e+00	0	34	0	955252736	36	5763
2026-01-07 02:52:53.87	178.58	18.21	-31.1	-31.8	27.1	0.00e+00	0	34	0	978321408	36	5567
2026-01-07 02:52:57.91	178.84	18.69	-30.9	-31.5	27.4	0.00e+00	0	34	0	1000341504	36	5395
2026-01-07 02:53:01.95	179.11	19.18	-30.8	-31.4	27.5	0.00e+00	0	34	0	1023410176	36	5331
2026-01-07 02:53:05.98	179.38	19.68	-30.6	-31.3	27.6	0.00e+00	0	34	0	1046478848	34	5902
2026-01-07 02:53:10.02	179.67	20.18	-30.5	-31.1	27.7	0.00e+00	0	34	0	1068498944	34	5791
2026-01-07 02:53:14.06	179.96	20.70	-30.5	-31.1	27.7	0.00e+00	0	34	0	1091567616	34	5787
2026-01-07 02:53:18.11	180.27	21.23	-30.6	-31.2	27.6	0.00e+00	0	34	0	1114636288	34	5881
2026-01-07 02:53:22.14	180.58	21.77	-30.3	-30.9	27.7	0.00e+00	0	34	0	1136656384	34	5687
2026-01-07 02:53:26.18	180.91	22.32	-30.0	-30.6	28.0	0.00e+00	0	34	0	1159725056	34	5485
2026-01-07 02:53:30.22	181.25	22.88	-30.0	-30.6	28.1	0.00e+00	0	34	0	1182793728	34	5500
2026-01-07 02:53:34.25	181.59	23.45	-30.0	-30.6	28.1	0.00e+00	0	34	0	1204813824	34	5481
2026-01-07 02:53:38.29	181.96	24.03	-30.2	-30.8	27.8	0.00e+00	0	34	0	1227882496	34	5596
2026-01-07 02:53:42.33	182.33	24.63	-29.9	-30.6	28.1	0.00e+00	0	34	0	1250951168	34	5445
2026-01-07 02:53:46.37	182.72	25.24	-30.0	-30.6	28.0	0.00e+00	0	34	0	1272971264	34	5454
2026-01-07 02:53:50.41	183.12	25.86	-29.6	-30.2	28.3	0.00e+00	0	34	0	1296039936	32	5870
2026-01-07 02:53:54.45	183.54	26.49	-29.5	-30.1	28.5	0.00e+00	0	34	0	1319108608	32	5809
2026-01-07 02:53:58.49	183.98	27.14	-29.5	-30.1	28.4	0.00e+00	0	34	0	1341128704	32	5784
2026-01-07 02:54:02.53	184.43	27.80	-29.6	-30.2	28.4	0.00e+00	0	34	0	1364197376	32	5866
2026-01-07 02:54:06.57	184.90	28.48	-29.7	-30.3	28.4	0.00e+00	0	34	0	1387266048	32	5911
2026-01-07 02:54:10.60	185.39	29.17	-29.7	-30.3	28.3	0.00e+00	0	34	0	1409286144	32	5924
2026-01-07 02:54:14.64	185.90	29.87	-29.3	-29.9	28.6	0.00e+00	0	34	0	1432354816	32	5656
2026-01-07 02:54:18.67	186.44	30.59	-29.5	-30.1	28.6	0.00e+00	0	34	0	1455423488	32	5803
2026-01-07 02:54:22.71	186.99	31.33	-29.7	-30.4	28.2	0.00e+00	0	34	0	1477443584	32	5974
2026-01-07 02:54:26.76	187.58	32.09	-29.7	-30.2	28.4	0.00e+00	0	34	0	1500512256	32	5881
2026-01-07 02:54:30.80	188.19	32.86	-29.4	-29.9	28.6	0.00e+00	0	34	0	1523580928	32	5690
2026-01-07 02:54:34.84	188.83	33.64	-29.2	-29.8	28.6	0.00e+00	0	34	0	1545601024	32	5605
2026-01-07 02:54:38.88	189.50	34.44	-29.1	-29.7	28.8	0.00e+00	0	34	0	1568669696	32	5535
2026-01-07 02:54:42.91	190.20	35.26	-29.2	-29.8	28.7	0.00e+00	0	34	0	1591738368	32	5619
2026-01-07 02:54:46.95	190.95	36.10	-29.0	-29.6	28.8	0.00e+00	0	34	0	1613758464	32	5478
2026-01-07 02:54:50.99	191.72	36.95	-28.9	-29.5	28.9	0.00e+00	0	34	0	1636827136	32	5416
2026-01-07 02:54:55.03	192.54	37.82	-28.9	-29.5	28.9	0.00e+00	0	34	0	1659895808	32	5406
2026-01-07 02:54:59.07	193.41	38.70	-29.1	-29.8	28.8	0.00e+00	0	34	0	1681915904	32	5573
2026-01-07 02:55:03.11	194.32	39.60	-29.3	-29.9	28.7	0.00e+00	0	34	0	1704984576	32	5687
2026-01-07 02:55:07.15	195.28	40.52	-29.1	-29.7	28.8	0.00e+00	0	34	0	1728053248	32	5509
2026-01-07 02:55:11.19	196.30	41.45	-29.3	-29.9	28.7	0.00e+00	0	34	0	1750073344	32	5653
2026-01-07 02:55:15.23	197.38	42.40	-29.5	-30.1	28.5	0.00e+00	0	34	0	1773142016	32	5791
2026-01-07 02:55:19.27	198.52	43.35	-29.3	-29.8	28.7	0.00e+00	0	34	0	1796210688	32	5621
2026-01-07 02:55:23.30	199.73	44.32	-29.6	-30.1	28.4	0.00e+00	0	34	0	1818230784	32	5822
2026-01-07 02:55:27.34	201.02	45.30	-29.6	-30.2	28.4	0.00e+00	0	34	0	1841299456	32	5851
2026-01-07 02:55:31.38	202.39	46.28	-29.5	-30.1	28.5	0.00e+00	0	34	0	1864368128	32	5808
2026-01-07 02:55:35.42	203.85	47.27	-29.4	-30.0	28.5	0.00e+00	0	34	0	1886388224	32	5699
2026-01-07 02:55:39.46	205.40	48.27	-29.9	-30.5	28.2	0.00e+00	0	34	0	1909456896	32	6080
2026-01-07 02:55:43.49	207.04	49.26	-30.0	-30.6	28.2	0.00e+00	0	34	0	1932525568	32	6112
2026-01-07 02:55:47.53	208.80	50.24	-29.9	-30.5	28.2	0.00e+00	0	34	0	1954545664	32	6059
2026-01-07 02:55:51.57	210.68	51.22	-29.7	-30.3	28.3	0.00e+00	0	34	0	1977614336	32	5927
2026-01-07 02:55:55.61	212.68	52.19	-30.3	-30.9	27.9	0.00e+00	0	34	0	1999634432	32	6342
2026-01-07 02:55:59.65	214.82	53.13	-30.3	-30.9	28.0	0.00e+00	0	34	0	2022703104	32	6356
2026-01-07 02:56:03.69	217.09	54.05	-30.6	-31.3	27.7	0.00e+00	0	34	0	2045771776	32	6624
2026-01-07 02:56:07.73	219.51	54.94	-30.4	-31.0	27.9	0.00e+00	0	34	0	2068840448	34	5702
2026-01-07 02:56:11.77	222.08	55.79	-30.7	-31.3	27.5	0.00e+00	0	34	0	2090860544	34	5946
2026-01-07 02:56:15.80	224.80	56.60	-30.0	-30.5	28.2	0.00e+00	0	34	0	2113929216	34	5435
2026-01-07 02:56:19.84	227.69	57.35	-30.4	-31.0	27.8	0.00e+00	0	34	0	2136997888	34	5703
2026-01-07 02:56:23.88	230.73	58.04	-30.5	-31.2	27.8	0.00e+00	0	34	0	2159017984	34	5847
2026-01-07 02:56:27.92	233.91	58.65	-29.9	-30.5	28.3	0.00e+00	0	34	0	2182086656	32	6091
2026-01-07 02:56:31.96	237.24	59.19	-29.8	-30.4	28.2	0.00e+00	0	34	0	2204106752	32	6010
2026-01-07 02:56:36.00	240.70	59.64	-29.5	-30.1	28.5	0.00e+00	0	34	0	2227175424	32	5807
2026-01-07 02:56:40.03	244.26	60.00	-29.5	-30.1	28.5	0.00e+00	0	34	0	2250244096	32	5768
2026-01-07 02:56:44.07	247.91	60.25	-29.9	-30.5	28.2	0.00e+00	0	34	0	2273312768	32	6084
2026-01-07 02:56:48.11	251.61	60.41	-29.6	-30.1	28.4	0.00e+00	0	34	0	2295332864	32	5824
2026-01-07 02:56:52.14	255.34	60.45	-29.5	-30.1	28.4	0.00e+00	0	34	0	2318401536	32	5811
2026-01-07 02:56:56.18	259.08	60.40	-29.5	-30.1	28.4	0.00e+00	0	34	0	2341470208	32	5769
2026-01-07 02:57:00.21	262.77	60.23	-29.9	-30.6	28.2	0.00e+00	0	34	0	2363490304	32	6112
2026-01-07 02:57:04.25	266.41	59.96	-29.7	-30.3	28.3	0.00e+00	0	34	0	2386558976	32	5963
2026-01-07 02:57:08.29	269.96	59.59	-29.5	-30.1	28.5	0.00e+00	0	34	0	2408579072	32	5777
2026-01-07 02:57:12.33	273.40	59.13	-30.0	-30.6	28.1	0.00e+00	0	34	0	2431647744	32	6116
2026-01-07 02:57:16.36	276.71	58.59	-29.8	-30.4	28.3	0.00e+00	0	34	0	2454716416	32	5980
2026-01-07 02:57:20.40	279.88	57.97	-30.1	-30.7	27.9	0.00e+00	0	34	0	2476736512	32	6182
2026-01-07 02:57:24.44	282.89	57.27	-30.5	-31.1	27.8	0.00e+00	0	34	0	2499805184	32	6498
2026-01-07 02:57:28.48	285.76	56.52	-31.1	-31.7	27.3	0.00e+00	0	34	0	2522873856	34	6239
2026-01-07 02:57:32.52	288.46	55.71	-30.4	-30.9	27.8	0.00e+00	0	34	0	2545942528	34	5677
2026-01-07 02:57:36.56	291.01	54.86	-30.4	-31.0	27.8	0.00e+00	0	34	0	2567962624	34	5716
2026-01-07 02:57:40.59	293.41	53.97	-30.4	-31.0	27.8	0.00e+00	0	34	0	2591031296	34	5756
2026-01-07 02:57:44.62	295.66	53.05	-30.5	-31.1	27.6	0.00e+00	0	34	0	2613051392	34	5797
2026-01-07 02:57:48.66	297.78	52.10	-30.4	-31.0	27.9	0.00e+00	0	34	0	2636120064	34	5701
2026-01-07 02:57:52.70	299.76	51.14	-29.9	-30.5	28.1	0.00e+00	0	34	0	2659188736	34	5387
2026-01-07 02:57:56.74	301.62	50.16	-29.9	-30.6	28.2	0.00e+00	0	34	0	2681208832	34	5480
2026-01-07 02:58:00.78	303.37	49.18	-29.7	-30.2	28.4	0.00e+00	0	34	0	2704277504	32	5853
2026-01-07 02:58:04.81	305.01	48.19	-29.7	-30.4	28.3	0.00e+00	0	34	0	2727346176	32	5970
2026-01-07 02:58:08.85	306.54	47.20	-29.4	-29.9	28.5	0.00e+00	0	34	0	2749366272	32	5684
2026-01-07 02:58:12.89	307.99	46.22	-29.6	-30.2	28.2	0.00e+00	0	34	0	2772434944	32	5829
2026-01-07 02:58:16.92	309.34	45.24	-29.6	-30.3	28.2	0.00e+00	0	34	0	2795503616	32	5916
2026-01-07 02:58:20.96	310.62	44.26	-29.7	-30.4	28.2	0.00e+00	0	34	0	2817523712	32	6002
2026-01-07 02:58:25.00	311.83	43.30	-29.4	-30.0	28.5	0.00e+00	0	34	0	2840592384	32	5700
2026-01-07 02:58:29.04	312.96	42.35	-29.4	-30.0	28.5	0.00e+00	0	34	0	2863661056	32	5712
2026-01-07 02:58:33.07	314.03	41.41	-29.5	-30.2	28.4	0.00e+00	0	34	0	2885681152	32	5830
2026-01-07 02:58:37.11	315.04	40.48	-29.3	-30.0	28.6	0.00e+00	0	34	0	2908749824	32	5704
2026-01-07 02:58:41.15	316.00	39.57	-29.0	-29.7	28.7	0.00e+00	0	34	0	2931818496	32	5531
2026-01-07 02:58:45.19	316.91	38.68	-29.3	-29.8	28.6	0.00e+00	0	34	0	2953838592	32	5593
2026-01-07 02:58:49.23	317.77	37.80	-28.9	-29.6	28.8	0.00e+00	0	34	0	2976907264	32	5452
2026-01-07 02:58:53.26	318.58	36.94	-28.9	-29.4	28.9	0.00e+00	0	34	0	2999975936	32	5364
2026-01-07 02:58:57.30	319.36	36.09	-29.1	-29.6	28.8	0.00e+00	0	34	0	3021996032	32	5480
2026-01-07 02:59:01.34	320.09	35.26	-29.2	-29.8	28.6	0.00e+00	0	34	0	3045064704	32	5593
2026-01-07 02:59:05.38	320.79	34.44	-29.4	-29.9	28.5	0.00e+00	0	34	0	3068133376	32	5652
2026-01-07 02:59:09.41	321.46	33.65	-29.3	-29.8	28.6	0.00e+00	0	34	0	3090153472	32	5630
2026-01-07 02:59:13.45	322.10	32.87	-29.0	-29.5	28.8	0.00e+00	0	34	0	3113222144	32	5402
2026-01-07 02:59:17.49	322.71	32.10	-29.2	-29.7	28.6	0.00e+00	0	34	0	3136290816	32	5524
2026-01-07 02:59:21.53	323.29	31.35	-29.4	-29.9	28.4	0.00e+00	0	34	0	3158310912	32	5653
2026-01-07 02:59:25.57	323.85	30.62	-29.6	-30.2	28.2	0.00e+00	0	34	0	3181379584	32	5851
2026-01-07 02:59:29.61	324.38	29.90	-29.6	-30.3	28.3	0.00e+00	0	34	0	3203399680	32	5942
2026-01-07 02:59:33.64	324.89	29.20	-29.5	-30.1	28.4	0.00e+00	0	34	0	3226468352	32	5816
2026-01-07 02:59:37.68	325.38	28.51	-29.4	-30.0	28.4	0.00e+00	0	34	0	3249537024	32	5696
2026-01-07 02:59:41.72	325.85	27.84	-29.4	-29.9	28.4	0.00e+00	0	34	0	3272605696	32	5673
2026-01-07 02:59:45.76	326.30	27.18	-29.6	-30.1	28.3	0.00e+00	0	34	0	3294625792	32	5779
2026-01-07 02:59:49.79	326.74	26.54	-29.8	-30.4	28.1	0.00e+00	0	34	0	3317694464	32	5977
2026-01-07 02:59:53.83	327.16	25.91	-29.7	-30.2	28.2	0.00e+00	0	34	0	3340763136	32	5880
2026-01-07 02:59:57.87	327.56	25.29	-29.7	-30.4	28.1	0.00e+00	0	34	0	3362783232	32	6006
2026-01-07 03:00:01.91	327.95	24.69	-29.9	-30.6	28.0	0.00e+00	0	34	0	3385851904	32	6127
2026-01-07 03:00:05.95	328.32	24.09	-30.1	-30.8	27.9	0.00e+00	0	34	0	3407872000	32	6275
2026-01-07 03:00:09.99	328.68	23.51	-30.3	-30.8	27.8	0.00e+00	0	34	0	3430940672	32	6284
2026-01-07 03:00:14.03	329.03	22.94	-30.2	-30.7	27.8	0.00e+00	0	34	0	3454009344	32	6243
2026-01-07 03:00:18.07	329.37	22.39	-30.4	-31.1	27.6	0.00e+00	0	34	0	3477078016	32	6508
2026-01-07 03:00:22.11	329.70	21.84	-30.4	-31.2	27.6	0.00e+00	0	34	0	3499098112	32	6541
2026-01-07 03:00:26.14	330.01	21.31	-30.6	-31.3	27.5	0.00e+00	0	34	0	3522166784	32	6677
2026-01-07 03:00:30.18	330.32	20.78	-30.8	-31.5	27.3	0.00e+00	0	34	0	3545235456	34	6049
2026-01-07 03:00:34.22	330.61	20.27	-30.9	-31.6	27.3	0.00e+00	0	34	0	3567255552	34	6156
2026-01-07 03:00:38.26	330.90	19.76	-31.0	-31.7	27.2	0.00e+00	0	34	0	3590324224	34	6182
2026-01-07 03:00:42.29	331.18	19.27	-31.1	-31.7	27.0	0.00e+00	0	34	0	3612344320	34	6184
2026-01-07 03:00:46.33	331.45	18.78	-31.2	-31.9	26.9	0.00e+00	0	34	0	3635412992	34	6377
2026-01-07 03:00:50.37	331.71	18.30	-31.5	-32.0	26.7	0.00e+00	0	34	0	3658481664	34	6434
2026-01-07 03:00:54.41	331.96	17.83	-31.7	-32.2	26.6	0.00e+00	0	34	0	3680501760	34	6587
2026-01-07 03:00:58.44	332.21	17.37	-31.8	-32.4	26.4	0.00e+00	0	34	0	3703570432	36	6011
2026-01-07 03:01:02.48	332.45	16.92	-32.1	-32.6	26.2	0.00e+00	0	34	0	3726639104	36	6159
2026-01-07 03:01:06.52	332.69	16.48	-31.9	-32.7	26.4	0.00e+00	0	34	0	3749707776	36	6180
2026-01-07 03:01:10.56	332.91	16.04	-32.1	-32.7	26.1	0.00e+00	0	34	0	3771727872	36	6198
2026-01-07 03:01:14.60	333.14	15.61	-32.0	-32.6	26.2	0.00e+00	0	34	0	3794796544	36	6153
2026-01-07 03:01:18.64	333.35	15.19	-32.1	-32.8	26.2	0.00e+00	0	34	0	3816816640	36	6272
2026-01-07 03:01:22.68	333.56	14.77	-32.1	-32.7	26.1	0.00e+00	0	34	0	3839885312	36	6200
2026-01-07 03:01:26.71	333.77	14.36	-32.3	-32.9	25.9	0.00e+00	0	34	0	3862953984	36	6382
2026-01-07 03:01:30.75	333.97	13.96	-32.5	-33.1	25.7	0.00e+00	0	34	0	3884974080	36	6508
2026-01-07 03:01:34.79	334.17	13.56	-32.7	-33.4	25.6	0.00e+00	0	34	0	3908042752	38	6027
2026-01-07 03:01:38.83	334.36	13.17	-32.9	-33.6	25.4	0.00e+00	0	34	0	3931111424	38	6149
2026-01-07 03:01:42.86	334.54	12.79	-33.1	-33.8	25.2	0.00e+00	0	34	0	3954180096	38	6307
2026-01-07 03:01:46.90	334.73	12.41	-33.2	-33.8	25.1	0.00e+00	0	34	0	3976200192	38	6303
2026-01-07 03:01:50.94	334.90	12.04	-33.2	-34.0	24.9	0.00e+00	0	34	0	3999268864	38	6413
2026-01-07 03:01:54.97	335.08	11.67	-33.3	-34.1	24.9	0.00e+00	0	34	0	4021288960	38	6489
2026-01-07 03:01:59.01	335.25	11.31	-33.4	-34.1	24.9	0.00e+00	0	34	0	4044357632	38	6516
2026-01-07 03:02:03.04	335.41	10.95	-33.5	-34.1	24.7	0.00e+00	0	34	0	4067426304	38	6525
2026-01-07 03:02:07.09	335.58	10.60	-33.6	-34.3	24.6	0.00e+00	0	34	0	4089446400	38	6640
2026-01-07 03:02:11.12	335.74	10.25	-33.7	-34.5	24.5	0.00e+00	0	34	0	4112515072	40	6043
2026-01-07 03:02:15.16	335.89	9.91	-33.8	-34.6	24.3	0.00e+00	0	34	0	4135583744	40	6114
2026-01-07 03:02:19.20	336.05	9.57	-33.9	-34.5	24.1	0.00e+00	0	34	0	4157603840	40	6079
2026-01-07 03:02:23.23	336.20	9.24	-33.8	-34.5	24.3	0.00e+00	0	34	0	4180672512	40	6040
2026-01-07 03:02:27.27	336.34	8.91	-33.8	-34.4	24.3	0.00e+00	0	34	0	4203741184	40	6021
2026-01-07 03:02:31.30	336.49	8.59	-34.0	-34.6	24.0	0.00e+00	0	34	0	4225761280	40	6131
2026-01-07 03:02:35.34	336.63	8.27	-34.1	-34.9	23.9	0.00e+00	0	34	0	4248829952	40	6341
2026-01-07 03:02:39.38	336.77	7.95	-34.1	-34.9	24.0	0.00e+00	0	34	0	4271898624	40	6351
2026-01-07 03:02:43.42	336.90	7.63	-34.1	-34.8	23.7	0.00e+00	0	34	0	4293918720	40	6260
2026-01-07 03:02:47.46	337.04	7.32	-34.2	-35.0	23.8	0.00e+00	0	34	0	4316987392	40	6391
2026-01-07 03:02:51.50	337.17	7.02	-34.3	-34.9	23.7	0.00e+00	0	34	0	4340056064	40	6358
2026-01-07 03:02:55.53	337.30	6.72	-34.4	-35.0	23.4	0.00e+00	0	34	0	4362076160	40	6437
2026-01-07 03:02:59.57	337.43	6.42	-34.3	-35.0	23.4	0.00e+00	0	34	0	4385144832	40	6422
2026-01-07 03:03:03.61	337.55	6.12	-34.4	-35.1	23.3	0.00e+00	0	34	0	4407164928	40	6501
2026-01-07 03:03:07.64	337.67	5.83	-35.0	-35.7	22.6	0.00e+00	0	34	0	4430233600	42	6186
2026-01-07 03:03:11.68	337.79	5.54	-35.6	-36.4	21.6	0.00e+00	0	34	0	4453302272	44	6002
2026-01-07 03:03:15.72	337.91	5.25	-36.8	-37.8	19.8	0.00e+00	0	34	0	4476370944	44	7015
2026-01-07 03:03:19.77	338.03	4.97	-38.3	-39.6	17.4	0.00e+00	0	34	0	4498391040	48	6909
2026-01-07 03:03:23.80	338.14	4.69	-40.1	-42.0	14.0	2.20e-06	0	34	0	4521459712	52	7205
2026-01-07 03:03:27.84	338.26	4.41	-42.0	-45.2	10.1	3.20e-03	0	34	0	4543479808	56	8280
2026-01-07 03:03:31.88	338.37	4.14	-43.2	-48.4	5.8	2.49e-01	0	34	0	4566548480	58	10691
2026-01-07 03:03:35.92	338.48	3.86	-43.6	-52.8	3.7	8.35e-01	0	34	104	4570742784	58	17668
2026-01-07 03:03:39.96	338.58	3.60	-43.8	-54.9	3.6	8.45e-01	0	34	104	4570742784	60	20012
2026-01-07 03:03:43.99	338.69	3.33	-44.0	-55.7	3.6	8.45e-01	0	34	104	4570742784	60	21940
2026-01-07 03:03:48.03	338.80	3.06	-43.8	-55.7	3.6	8.45e-01	0	34	104	4570742784	60	22071
2026-01-07 03:03:52.07	338.90	2.80	-48.4	-60.3	3.6	8.45e-01	0	34	104	4570742784	60	37333
2026-01-07 03:03:56.10	339.00	2.54	-48.9	-60.9	3.6	8.45e-01	0	34	104	4570742784	60	40213
2026-01-07 03:04:00.15	339.10	2.29	-48.5	-61.0	3.6	8.45e-01	0	34	104	4570742784	60	40364
2026-01-07 03:04:04.19	339.20	2.03	-48.8	-60.9	3.6	8.46e-01	0	34	104	4570742784	60	40056
2026-01-07 03:04:08.23	339.30	1.78	-48.8	-60.9	3.6	8.46e-01	0	34	104	4570742784	60	40324
2026-01-07 03:04:12.27	339.39	1.53	-48.8	-60.9	3.6	8.45e-01	0	34	104	4570742784	60	40300
2026-01-07 03:04:16.31	339.49	1.28	-48.8	-60.9	3.6	8.46e-01	0	34	104	4570742784	60	40266
2026-01-07 03:04:20.35	339.58	1.03	-48.8	-60.9	3.6	8.45e-01	0	34	104	4570742784	60	39928
2026-01-07 03:04:24.39	339.67	0.79	-48.8	-60.9	3.6	8.46e-01	0	34	104	4570742784	60	40130
2026-01-07 03:04:28.43	339.76	0.55	-48.8	-60.9	3.6	8.45e-01	0	34	104	4570742784	60	40094
2026-01-07 03:04:32.47	339.85	0.30	-48.8	-60.9	3.6	8.45e-01	0	34	104	4570742784	60	40005
2026-01-07 03:04:36.50	339.94	0.07	-48.8	-60.9	3.6	8.44e-01	0	34	104	4570742784	60	39893

#Closed at: 2026-01-07 03:04:40
#Recorded file [4570 MB]: D:/lorett/data/35029_260107_144911.dat