passes_logs/2026/01/07/R4.6S_Anadyr/R4.6S_Anadyr__20260107_134029_AQUA_rec.log

#Pass ID: 20260107_134029_AQUA
#Satellite: AQUA
#Configuration: AQUA
#almurnet v.1.7.20251203
#Start time: 2026-01-07 13:40:32

#Version: 2.2.20231116
#Station: R4.6S_Anadyr
#Location: 177.4865 lon 64.73178 lat
#TLE: 1 27424U 02022A   26004.96787593  .00001598  00000+0  32997-3 0  9996
#TLE: 2 27424  98.4069 331.2279 0002002  90.2377   0.6092 14.61798176259425

#Time	Az	El	Level	Level2	SNR	BER	BlckErr	Temp	State	Recorded	gain1	gain2
2026-01-07 13:40:32.77	23.41	0.14	-49.7	-66.1	3.3	3.04e+01	0	37	0	0	60	77310
2026-01-07 13:40:35.79	23.71	0.27	-49.8	-67.6	3.5	3.04e+01	0	37	104	0	60	92410
2026-01-07 13:40:38.82	24.01	0.40	-49.6	-67.4	3.5	3.04e+01	0	37	104	0	60	90578
2026-01-07 13:40:41.85	24.32	0.53	-49.3	-67.2	3.5	3.04e+01	0	38	104	0	60	88544
2026-01-07 13:40:44.88	24.64	0.67	-48.8	-66.7	3.5	3.04e+01	0	37	104	0	60	83189
2026-01-07 13:40:47.91	24.95	0.80	-48.1	-66.0	3.5	3.04e+01	0	38	104	0	60	76363
2026-01-07 13:40:50.94	25.27	0.93	-48.1	-66.0	3.5	3.04e+01	0	37	104	0	60	76822
2026-01-07 13:40:53.97	25.59	1.07	-48.0	-65.8	3.5	3.04e+01	0	38	104	0	60	75155
2026-01-07 13:40:57.00	25.92	1.20	-48.0	-66.0	3.5	3.04e+01	0	38	104	0	60	76367
2026-01-07 13:41:00.03	26.24	1.33	-48.0	-66.0	3.5	3.04e+01	0	38	104	0	60	76752
2026-01-07 13:41:03.06	26.57	1.47	-48.0	-66.0	3.5	3.04e+01	0	38	104	0	60	76514
2026-01-07 13:41:06.09	26.91	1.60	-48.0	-66.0	3.5	3.04e+01	0	38	104	0	60	76431
2026-01-07 13:41:09.12	27.24	1.73	-48.0	-65.9	3.5	3.04e+01	0	38	104	0	60	75734
2026-01-07 13:41:12.15	27.58	1.87	-48.0	-66.0	3.5	3.04e+01	0	38	104	0	60	76485
2026-01-07 13:41:15.18	27.93	2.00	-48.0	-66.0	3.5	3.04e+01	0	38	104	0	60	76655
2026-01-07 13:41:18.21	28.27	2.13	-48.0	-66.0	3.5	3.04e+01	0	38	104	0	60	77034
2026-01-07 13:41:21.24	28.62	2.26	-48.0	-66.0	3.5	3.04e+01	0	38	104	0	60	76735
2026-01-07 13:41:24.27	28.98	2.40	-48.0	-65.9	3.5	3.04e+01	0	38	104	0	60	76341
2026-01-07 13:41:27.30	29.33	2.53	-48.0	-65.7	3.5	3.04e+01	0	38	104	0	60	73934
2026-01-07 13:41:30.33	29.69	2.66	-47.8	-64.6	3.5	3.04e+01	0	38	104	0	60	65731
2026-01-07 13:41:33.35	30.05	2.79	-42.2	-53.2	3.5	3.04e+01	0	38	104	0	60	17603
2026-01-07 13:41:36.38	30.42	2.93	-41.7	-52.6	3.5	3.04e+01	0	38	104	0	56	20786
2026-01-07 13:41:39.41	30.79	3.06	-43.7	-55.3	3.5	3.04e+01	0	38	104	0	60	22449
2026-01-07 13:41:42.44	31.16	3.19	-44.7	-56.9	3.5	3.04e+01	0	38	104	0	60	26800
2026-01-07 13:41:45.47	31.54	3.32	-41.8	-52.6	3.5	3.04e+01	0	38	104	0	58	18510
2026-01-07 13:41:48.50	31.92	3.45	-43.8	-55.3	3.5	3.04e+01	0	38	104	0	58	25095
2026-01-07 13:41:51.52	32.30	3.58	-48.1	-66.0	3.5	3.04e+01	0	38	104	0	60	76634
2026-01-07 13:41:54.55	32.69	3.71	-40.0	-50.6	3.5	3.04e+01	0	38	104	0	56	16359
2026-01-07 13:41:57.58	33.08	3.85	-39.5	-50.0	3.5	3.04e+01	0	38	104	0	54	17127
2026-01-07 13:42:00.61	33.48	3.98	-48.2	-65.9	3.5	3.04e+01	0	38	104	0	60	76193
2026-01-07 13:42:03.64	33.88	4.11	-40.2	-50.8	3.5	3.04e+01	0	38	104	0	56	16747
2026-01-07 13:42:06.67	34.28	4.23	-42.3	-53.3	3.5	3.04e+01	0	38	104	0	56	22424
2026-01-07 13:42:09.70	34.69	4.36	-48.1	-65.3	3.5	3.04e+01	0	38	104	0	60	70442
2026-01-07 13:42:12.72	35.09	4.49	-39.5	-50.0	3.5	3.04e+01	0	38	104	0	54	17234
2026-01-07 13:42:15.75	35.51	4.62	-39.1	-49.5	3.5	3.04e+01	0	38	104	0	52	18149
2026-01-07 13:42:18.78	35.93	4.75	-48.2	-65.5	3.5	3.04e+01	0	38	104	0	60	72382
2026-01-07 13:42:21.81	36.35	4.88	-39.7	-50.3	3.5	3.04e+01	0	38	104	0	54	17705
2026-01-07 13:42:24.84	36.77	5.00	-39.7	-50.1	3.5	3.04e+01	0	38	104	0	52	19562
2026-01-07 13:42:27.87	37.20	5.13	-48.2	-65.0	3.5	3.04e+01	0	38	104	0	60	68599
2026-01-07 13:42:30.90	37.64	5.25	-39.2	-49.7	3.5	3.04e+01	0	38	104	0	54	16676
2026-01-07 13:42:33.93	38.07	5.38	-40.4	-51.0	3.5	3.04e+01	0	38	104	0	54	19256
2026-01-07 13:42:36.95	38.51	5.50	-48.2	-65.1	3.5	3.04e+01	0	38	104	0	60	69553
2026-01-07 13:42:39.98	38.96	5.63	-39.8	-50.2	3.5	3.04e+01	0	38	104	0	54	17626
2026-01-07 13:42:43.01	39.41	5.75	-44.8	-56.5	3.5	3.04e+01	0	38	104	0	60	25785
2026-01-07 13:42:46.03	39.86	5.87	-48.2	-65.1	3.5	3.04e+01	0	38	104	0	60	69098
2026-01-07 13:42:49.06	40.32	5.99	-38.9	-49.3	3.5	3.04e+01	0	38	104	0	52	17704
2026-01-07 13:42:52.09	40.78	6.11	-41.0	-51.8	3.5	3.04e+01	0	38	104	0	56	18816
2026-01-07 13:42:55.12	41.24	6.23	-48.3	-65.1	3.5	3.04e+01	0	38	104	0	60	69046
2026-01-07 13:42:58.15	41.71	6.35	-39.9	-50.4	3.5	3.04e+01	0	38	104	0	54	18018
2026-01-07 13:43:01.18	42.19	6.47	-43.7	-55.5	3.5	3.04e+01	0	38	104	0	60	22871
2026-01-07 13:43:04.21	42.66	6.59	-48.0	-63.4	3.5	3.04e+01	0	38	104	0	60	56719
2026-01-07 13:43:07.24	43.15	6.70	-40.0	-50.6	3.5	3.04e+01	0	38	104	0	54	18370
2026-01-07 13:43:10.27	43.63	6.82	-41.5	-52.3	3.5	3.04e+01	0	38	104	0	60	15859
2026-01-07 13:43:13.30	44.12	6.93	-45.4	-57.7	3.6	3.04e+01	0	38	104	0	60	29608
2026-01-07 13:43:16.33	44.61	7.04	-39.5	-50.0	3.5	3.04e+01	0	38	104	0	54	17121
2026-01-07 13:43:19.36	45.11	7.15	-38.3	-48.8	3.5	3.04e+01	0	38	104	0	52	16710
2026-01-07 13:43:22.38	45.61	7.26	-44.0	-55.6	3.6	3.04e+01	0	38	104	0	60	23287
2026-01-07 13:43:25.41	46.12	7.37	-39.4	-49.8	3.5	3.04e+01	0	38	104	0	54	16747
2026-01-07 13:43:28.44	46.63	7.48	-39.0	-49.3	3.6	3.04e+01	0	38	104	0	56	14170
2026-01-07 13:43:31.47	47.14	7.59	-39.5	-50.0	3.4	3.04e+01	0	38	104	0	60	12195
2026-01-07 13:43:34.50	47.66	7.69	-39.9	-50.4	3.5	3.04e+01	0	38	104	0	54	17945
2026-01-07 13:43:37.53	48.18	7.80	-38.0	-48.3	3.5	3.04e+01	0	38	104	0	50	17768
2026-01-07 13:43:40.56	48.71	7.90	-38.5	-48.8	3.6	3.04e+01	0	38	104	0	56	13304
2026-01-07 13:43:43.59	49.24	8.00	-38.5	-48.9	3.5	3.04e+01	0	38	104	0	52	16960
2026-01-07 13:43:46.61	49.77	8.10	-38.1	-48.4	3.5	3.04e+01	0	38	104	0	50	18057
2026-01-07 13:43:49.64	50.30	8.20	-38.3	-48.6	3.5	3.04e+01	0	38	104	0	50	18507
2026-01-07 13:43:52.67	50.84	8.29	-39.5	-49.9	3.5	3.04e+01	0	38	104	0	52	19053
2026-01-07 13:43:55.70	51.39	8.39	-37.7	-48.0	3.5	3.04e+01	0	38	104	0	50	17251
2026-01-07 13:43:58.73	51.94	8.48	-38.6	-49.1	3.5	3.04e+01	0	38	104	0	48	21961
2026-01-07 13:44:01.75	52.49	8.57	-39.1	-49.7	3.5	3.04e+01	0	38	104	0	52	18550
2026-01-07 13:44:04.78	53.04	8.66	-37.6	-47.9	3.5	3.04e+01	0	38	104	0	50	16907
2026-01-07 13:44:07.81	53.60	8.75	-41.8	-53.1	3.5	3.04e+01	0	38	104	0	52	27474
2026-01-07 13:44:10.84	54.17	8.83	-38.8	-49.5	3.5	3.04e+01	0	38	104	0	52	18183
2026-01-07 13:44:13.87	54.73	8.92	-37.5	-48.0	3.5	3.04e+01	0	38	104	0	50	17141
2026-01-07 13:44:16.90	55.30	9.00	-43.0	-54.1	3.5	3.04e+01	0	38	104	0	54	27490
2026-01-07 13:44:19.93	55.88	9.08	-39.3	-49.7	3.5	3.04e+01	0	38	104	0	52	18688
2026-01-07 13:44:22.95	56.45	9.15	-37.6	-47.9	3.5	3.04e+01	0	38	104	0	50	16937
2026-01-07 13:44:25.98	57.03	9.23	-44.9	-56.9	3.5	3.04e+01	0	38	104	0	60	26959
2026-01-07 13:44:29.01	57.61	9.30	-37.4	-47.6	3.5	3.04e+01	0	38	104	0	50	16468
2026-01-07 13:44:32.04	58.20	9.37	-37.3	-47.7	3.5	3.04e+01	0	38	104	0	50	16611
2026-01-07 13:44:35.07	58.79	9.44	-45.3	-57.2	3.5	3.04e+01	0	38	104	0	60	27981
2026-01-07 13:44:38.10	59.38	9.51	-38.3	-48.6	3.5	3.04e+01	0	38	104	0	52	16353
2026-01-07 13:44:41.13	59.97	9.57	-37.4	-47.7	3.5	3.04e+01	0	38	104	0	50	16571
2026-01-07 13:44:44.16	60.57	9.63	-44.7	-56.3	3.5	3.04e+01	0	38	104	0	60	25109
2026-01-07 13:44:47.18	61.17	9.69	-37.0	-47.2	3.5	3.04e+01	0	38	104	0	48	17644
2026-01-07 13:44:50.21	61.77	9.75	-37.5	-47.9	3.6	3.04e+01	0	38	104	0	50	17003
2026-01-07 13:44:53.24	62.37	9.80	-43.5	-56.0	3.5	3.04e+01	0	38	104	0	60	24204
2026-01-07 13:44:56.27	62.98	9.85	-38.4	-49.5	3.5	3.04e+01	0	38	104	0	52	18279
2026-01-07 13:44:59.30	63.59	9.90	-38.4	-48.7	3.5	3.04e+01	0	38	104	0	50	18655
2026-01-07 13:45:02.33	64.20	9.95	-43.8	-55.5	3.5	3.04e+01	0	38	104	0	60	23028
2026-01-07 13:45:05.36	64.82	9.99	-37.6	-47.8	3.5	3.04e+01	0	38	104	0	50	16872
2026-01-07 13:45:08.39	65.43	10.03	-41.0	-51.7	3.6	3.04e+01	0	38	104	0	50	26262
2026-01-07 13:45:11.42	66.05	10.07	-42.6	-53.6	3.7	3.04e+01	0	38	104	0	60	18331
2026-01-07 13:45:14.45	66.67	10.11	-36.7	-47.0	3.5	3.04e+01	0	38	104	0	48	17274
2026-01-07 13:45:17.48	67.29	10.14	-41.6	-52.8	3.5	3.04e+01	0	38	104	0	52	26759
2026-01-07 13:45:20.51	67.91	10.17	-41.6	-53.6	3.5	3.04e+01	0	38	104	0	60	18419
2026-01-07 13:45:23.53	68.53	10.20	-38.2	-48.8	3.5	3.04e+01	0	38	104	0	52	16874
2026-01-07 13:45:26.56	69.16	10.22	-42.3	-54.3	3.4	3.04e+01	0	38	104	0	54	28121
2026-01-07 13:45:29.59	69.78	10.24	-40.4	-51.0	3.5	3.04e+01	0	38	104	0	58	15281
2026-01-07 13:45:32.62	70.41	10.26	-37.4	-47.7	3.5	3.04e+01	0	38	104	0	50	16548
2026-01-07 13:45:35.65	71.03	10.28	-47.5	-62.0	3.5	3.04e+01	0	38	104	0	60	48386
2026-01-07 13:45:38.67	71.66	10.29	-38.0	-48.3	3.5	3.04e+01	0	38	104	0	52	15933
2026-01-07 13:45:41.70	72.29	10.30	-36.7	-47.0	3.5	3.04e+01	0	38	104	0	48	17102
2026-01-07 13:45:44.73	72.92	10.31	-48.4	-64.1	3.5	3.04e+01	0	38	104	0	60	61630
2026-01-07 13:45:47.76	73.55	10.31	-39.4	-50.0	3.5	3.04e+01	0	38	104	0	56	15284
2026-01-07 13:45:50.79	74.18	10.32	-36.9	-47.3	3.5	3.04e+01	0	38	104	0	50	15794
2026-01-07 13:45:53.82	74.81	10.32	-47.9	-66.2	3.5	3.04e+01	0	38	104	0	60	78632
2026-01-07 13:45:56.84	75.43	10.31	-39.0	-49.6	3.5	3.04e+01	0	38	104	0	54	16466
2026-01-07 13:45:59.87	76.06	10.30	-37.6	-47.9	3.5	3.04e+01	0	38	104	0	50	16980
2026-01-07 13:46:02.90	76.69	10.29	-48.5	-65.2	3.5	3.04e+01	0	38	104	0	60	69840
2026-01-07 13:46:05.94	77.32	10.28	-36.9	-47.2	3.5	3.04e+01	0	38	104	0	50	15646
2026-01-07 13:46:08.96	77.95	10.27	-36.6	-46.9	3.5	3.04e+01	0	38	104	0	48	16900
2026-01-07 13:46:11.99	78.58	10.25	-48.5	-65.1	3.5	3.04e+01	0	38	104	0	60	69064
2026-01-07 13:46:15.02	79.20	10.23	-38.7	-49.1	3.5	3.04e+01	0	38	104	0	52	17339
2026-01-07 13:46:18.05	79.83	10.20	-37.0	-47.3	3.5	3.04e+01	0	38	104	0	50	15812
2026-01-07 13:46:21.08	80.45	10.18	-48.1	-64.9	3.5	3.04e+01	0	38	104	0	60	67838
2026-01-07 13:46:24.11	81.07	10.15	-38.8	-49.2	3.5	3.04e+01	0	38	104	0	52	17539
2026-01-07 13:46:27.14	81.70	10.11	-37.6	-47.9	3.6	3.04e+01	0	38	104	0	50	17080
2026-01-07 13:46:30.17	82.32	10.08	-48.5	-65.1	3.5	3.04e+01	0	38	104	0	60	68984
2026-01-07 13:46:33.20	82.93	10.04	-36.8	-47.0	3.6	3.04e+01	0	38	104	0	48	17280
2026-01-07 13:46:36.23	83.55	10.00	-37.0	-47.2	3.5	3.04e+01	0	38	104	0	48	17611
2026-01-07 13:46:39.26	84.17	9.96	-48.6	-65.5	3.5	3.04e+01	0	38	104	0	60	72516
2026-01-07 13:46:42.29	84.78	9.91	-38.4	-48.8	3.5	3.04e+01	0	38	104	0	52	16775
2026-01-07 13:46:45.32	85.39	9.86	-36.9	-47.1	3.5	3.04e+01	0	38	104	0	48	17332
2026-01-07 13:46:48.35	86.00	9.81	-48.8	-66.1	3.5	3.04e+01	0	38	104	0	60	78030
2026-01-07 13:46:51.38	86.61	9.76	-38.5	-48.9	3.5	3.04e+01	0	38	104	0	52	17007
2026-01-07 13:46:54.40	87.21	9.70	-36.7	-46.9	3.5	3.04e+01	0	38	104	0	48	17076
2026-01-07 13:46:57.43	87.81	9.64	-48.7	-65.6	3.6	3.04e+01	0	38	104	0	60	73635
2026-01-07 13:47:00.45	88.41	9.58	-36.9	-47.1	3.5	3.04e+01	0	38	104	0	48	17384
2026-01-07 13:47:03.48	89.00	9.52	-37.2	-47.6	3.5	3.04e+01	0	38	104	0	48	18321
2026-01-07 13:47:06.51	89.60	9.45	-48.2	-64.2	3.5	3.04e+01	0	38	104	0	60	62367
2026-01-07 13:47:09.54	90.19	9.38	-38.5	-48.8	3.5	3.04e+01	0	38	104	0	52	16849
2026-01-07 13:47:12.57	90.78	9.31	-42.8	-53.7	3.6	3.04e+01	0	38	104	0	56	23574
2026-01-07 13:47:15.60	91.36	9.24	-47.1	-60.6	3.5	3.04e+01	0	38	104	0	60	41036
2026-01-07 13:47:18.62	91.94	9.16	-37.8	-48.2	3.5	3.04e+01	0	38	104	0	50	17510
2026-01-07 13:47:21.65	92.52	9.09	-38.4	-48.7	3.5	3.04e+01	0	38	104	0	48	20854
2026-01-07 13:47:24.68	93.10	9.01	-47.4	-63.1	3.5	3.04e+01	0	38	104	0	60	54687
2026-01-07 13:47:27.71	93.67	8.92	-37.0	-47.3	3.5	3.04e+01	0	38	104	0	50	15885
2026-01-07 13:47:30.74	94.24	8.84	-40.0	-50.5	3.5	3.04e+01	0	38	104	0	52	20541
2026-01-07 13:47:33.77	94.80	8.76	-48.0	-63.6	3.5	3.04e+01	0	38	104	0	60	58584
2026-01-07 13:47:36.80	95.36	8.67	-38.6	-49.1	3.5	3.04e+01	0	38	104	0	52	17316
2026-01-07 13:47:39.83	95.92	8.58	-38.8	-49.2	3.5	3.04e+01	0	38	104	0	50	19691
2026-01-07 13:47:42.86	96.48	8.49	-48.2	-59.8	4.1	3.04e+01	0	38	104	0	60	37700
2026-01-07 13:47:45.89	97.03	8.39	-37.2	-38.5	27.5	3.04e+01	0	38	0	3145728	50	5755
2026-01-07 13:47:48.92	97.58	8.30	-36.6	-38.0	27.9	3.04e+01	0	38	0	8912896	48	6065
2026-01-07 13:47:51.95	98.12	8.20	-36.7	-38.0	27.7	3.04e+01	0	38	0	14680064	48	6133
2026-01-07 13:47:54.98	98.66	8.11	-36.7	-38.0	27.8	3.04e+01	0	38	0	20447232	48	6103
2026-01-07 13:47:58.00	99.19	8.01	-36.6	-37.9	27.9	3.04e+01	0	38	0	25690112	48	6047
2026-01-07 13:48:01.03	99.73	7.90	-36.7	-38.0	27.8	3.04e+01	0	38	0	31457280	48	6120
2026-01-07 13:48:04.06	100.26	7.80	-36.8	-38.1	27.7	3.04e+01	0	38	0	37224448	48	6201
2026-01-07 13:48:07.09	100.78	7.70	-37.0	-38.3	27.5	3.04e+01	0	38	0	42991616	48	6339
2026-01-07 13:48:10.12	101.30	7.59	-36.6	-37.9	27.8	3.04e+01	0	38	0	48758784	48	6040
2026-01-07 13:48:13.14	101.81	7.48	-36.7	-38.0	27.8	3.04e+01	0	38	0	54525952	48	6120
2026-01-07 13:48:16.17	102.33	7.38	-36.7	-38.1	27.7	3.04e+01	0	38	0	59768832	48	6144
2026-01-07 13:48:19.20	102.84	7.27	-36.9	-38.3	27.6	3.04e+01	0	38	0	65536000	48	6282
2026-01-07 13:48:22.23	103.34	7.16	-36.9	-38.2	27.6	3.04e+01	0	38	0	71303168	48	6258
2026-01-07 13:48:25.26	103.84	7.04	-36.8	-38.1	27.7	3.04e+01	0	38	0	77070336	48	6182
2026-01-07 13:48:28.29	104.34	6.93	-36.8	-38.1	27.6	3.04e+01	0	38	0	82837504	48	6205
2026-01-07 13:48:31.31	104.83	6.82	-37.0	-38.3	27.5	3.04e+01	0	38	0	88604672	48	6312
2026-01-07 13:48:34.34	105.32	6.70	-37.1	-38.5	27.3	3.04e+01	0	38	0	93847552	48	6437
2026-01-07 13:48:37.38	105.80	6.58	-37.1	-38.4	27.4	3.04e+01	0	38	0	99614720	48	6406
2026-01-07 13:48:40.41	106.28	6.46	-37.0	-38.3	27.4	3.04e+01	0	38	0	105381888	48	6322
2026-01-07 13:48:43.43	106.76	6.35	-37.2	-38.5	27.3	3.04e+01	0	38	0	111149056	48	6455
2026-01-07 13:48:46.46	107.23	6.23	-37.2	-38.5	27.2	3.04e+01	0	38	0	116916224	48	6471
2026-01-07 13:48:49.49	107.70	6.11	-37.2	-38.6	27.2	3.04e+01	0	38	0	122683392	48	6509
2026-01-07 13:48:52.52	108.16	5.98	-37.4	-38.7	27.0	3.04e+01	0	38	0	127926272	48	6623
2026-01-07 13:48:55.55	108.62	5.86	-37.3	-38.6	27.1	3.04e+01	0	38	0	133693440	48	6551
2026-01-07 13:48:58.58	109.08	5.74	-37.3	-38.6	27.1	3.04e+01	0	38	0	139460608	48	6564
2026-01-07 13:49:01.60	109.53	5.62	-37.2	-38.6	27.1	3.04e+01	0	38	0	145227776	48	6534
2026-01-07 13:49:04.63	109.97	5.49	-37.3	-38.6	27.0	3.04e+01	0	38	0	150994944	48	6571
2026-01-07 13:49:07.66	110.42	5.37	-37.4	-38.8	26.9	3.04e+01	0	38	0	156762112	48	6711
2026-01-07 13:49:10.69	110.86	5.24	-37.5	-38.9	26.7	3.04e+01	0	38	0	162004992	48	6781
2026-01-07 13:49:13.72	111.29	5.11	-37.3	-38.7	26.9	3.04e+01	0	38	0	167772160	48	6581
2026-01-07 13:49:16.75	111.72	4.99	-37.4	-38.8	26.8	3.04e+01	0	38	0	173539328	48	6664
2026-01-07 13:49:19.78	112.15	4.86	-37.5	-38.9	26.7	3.04e+01	0	38	0	179306496	48	6733
2026-01-07 13:49:22.80	112.58	4.73	-37.7	-39.2	26.4	3.04e+01	0	38	0	185073664	48	6964
2026-01-07 13:49:25.83	113.00	4.60	-37.9	-39.3	26.2	3.04e+01	0	38	0	190316544	48	7108
2026-01-07 13:49:28.86	113.41	4.47	-37.8	-39.2	26.3	3.04e+01	0	38	0	196083712	48	6987
2026-01-07 13:49:31.89	113.82	4.34	-37.9	-39.3	26.1	3.04e+01	0	38	0	201850880	48	7107
2026-01-07 13:49:34.92	114.23	4.21	-37.9	-39.3	26.1	3.04e+01	0	38	0	207618048	50	6350
2026-01-07 13:49:37.95	114.64	4.08	-38.1	-39.6	25.8	3.04e+01	0	38	0	213385216	50	6534
2026-01-07 13:49:40.98	115.04	3.95	-38.1	-39.6	25.9	3.04e+01	0	38	0	219152384	50	6519
2026-01-07 13:49:44.01	115.43	3.82	-38.2	-39.7	25.8	3.04e+01	0	38	0	224919552	50	6576
2026-01-07 13:49:47.04	115.83	3.69	-38.2	-39.7	25.6	3.04e+01	0	38	0	230162432	50	6645
2026-01-07 13:49:50.07	116.22	3.56	-38.3	-39.8	25.5	3.04e+01	0	38	0	235929600	50	6681
2026-01-07 13:49:53.09	116.60	3.42	-38.5	-40.0	25.2	3.04e+01	0	38	0	241696768	50	6865
2026-01-07 13:49:56.12	116.98	3.29	-38.4	-39.9	25.5	3.04e+01	0	38	0	247463936	50	6788
2026-01-07 13:49:59.15	117.36	3.16	-38.5	-40.1	25.1	3.04e+01	0	38	0	253231104	50	6928
2026-01-07 13:50:02.18	117.74	3.02	-38.5	-40.1	25.1	3.04e+01	0	38	0	258473984	50	6935
2026-01-07 13:50:05.21	118.11	2.89	-49.3	-67.2	3.5	3.04e+01	0	38	104	258998272	60	88343
2026-01-07 13:50:08.24	118.48	2.76	-49.6	-67.5	3.5	3.04e+01	0	38	104	258998272	60	91315
2026-01-07 13:50:11.26	118.84	2.62	-49.7	-67.6	3.5	3.04e+01	0	38	104	258998272	60	91836
2026-01-07 13:50:14.29	119.20	2.49	-49.6	-67.5	3.5	3.04e+01	0	38	104	258998272	60	91368
2026-01-07 13:50:17.32	119.56	2.36	-49.7	-67.6	3.5	3.04e+01	0	38	104	258998272	60	91936
2026-01-07 13:50:20.35	119.91	2.22	-49.7	-67.6	3.5	3.04e+01	0	38	104	258998272	60	92011
2026-01-07 13:50:23.38	120.26	2.09	-49.6	-67.5	3.5	3.04e+01	0	38	104	258998272	60	90875
2026-01-07 13:50:26.41	120.61	1.95	-49.6	-67.5	3.5	3.04e+01	0	38	104	258998272	60	90829
2026-01-07 13:50:29.44	120.96	1.82	-49.6	-67.5	3.5	3.04e+01	0	38	104	258998272	60	90809
2026-01-07 13:50:32.47	121.30	1.69	-49.6	-67.5	3.5	3.04e+01	0	38	104	258998272	60	91379
2026-01-07 13:50:35.50	121.63	1.55	-49.6	-67.5	3.5	3.04e+01	0	38	104	258998272	60	90973
2026-01-07 13:50:38.53	121.97	1.42	-49.6	-67.5	3.5	3.04e+01	0	38	104	258998272	60	90811
2026-01-07 13:50:41.56	122.30	1.28	-49.6	-67.5	3.5	3.04e+01	0	38	104	258998272	60	91045
2026-01-07 13:50:44.59	122.63	1.15	-49.6	-67.5	3.5	3.04e+01	0	38	104	258998272	60	90843
2026-01-07 13:50:47.62	122.95	1.01	-49.6	-67.4	3.5	3.04e+01	0	38	104	258998272	60	90627
2026-01-07 13:50:50.65	123.27	0.88	-49.6	-67.4	3.5	3.04e+01	0	38	104	258998272	60	90631
2026-01-07 13:50:53.67	123.59	0.74	-49.6	-67.4	3.5	3.04e+01	0	38	104	258998272	60	90564
2026-01-07 13:50:56.70	123.91	0.61	-49.6	-67.4	3.5	3.04e+01	0	38	104	258998272	60	90306
2026-01-07 13:50:59.74	124.22	0.47	-49.6	-67.4	3.5	3.04e+01	0	38	104	258998272	60	90706
2026-01-07 13:51:02.76	124.53	0.34	-49.6	-67.5	3.5	3.04e+01	0	38	104	258998272	60	90838
2026-01-07 13:51:05.79	124.84	0.21	-49.6	-67.5	3.5	3.04e+01	0	38	104	258998272	60	91142
2026-01-07 13:51:08.82	125.14	0.07	-49.6	-67.5	3.5	3.04e+01	0	38	104	258998272	60	90871

#Closed at: 2026-01-07 13:51:11
#Recorded file [258 MB]: D:/lorett/data/35029_260108_014032.dat