passes_logs/2026/01/07/R4.6S_Anadyr/R4.6S_Anadyr__20260107_200128_FENGYUN_3E_rec.log

#Pass ID: 20260107_200128_FENGYUN 3E
#Satellite: FENGYUN 3E
#Configuration: FENGYUN 3E
#almurnet v.1.7.20251203
#Start time: 2026-01-07 20:01:29

#Version: 2.2.20231116
#Station: R4.6S_Anadyr
#Location: 177.4865 lon 64.73178 lat
#TLE: 1 49008U 21062A   26005.56299987  .00000339  00000+0  18069-3 0  9991
#TLE: 2 49008  98.7472  10.8019 0001562 158.0357 202.0886 14.19884907233502

#Time	Az	El	Level	Level2	SNR	BER	BlckErr	Temp	State	Recorded	gain1	gain2
2026-01-07 20:01:29.77	23.24	0.09	-49.3	-64.2	3.5	1.51e+00	0	36	0	0	60	58926
2026-01-07 20:01:33.80	23.15	0.33	-49.2	-60.5	3.6	8.45e-01	0	37	104	0	60	38357
2026-01-07 20:01:37.84	23.05	0.57	-49.3	-60.5	3.6	8.44e-01	0	37	104	0	60	38380
2026-01-07 20:01:41.88	22.95	0.81	-49.1	-60.3	3.6	8.46e-01	0	37	104	0	60	37376
2026-01-07 20:01:45.91	22.85	1.05	-48.2	-59.4	3.6	8.45e-01	0	37	104	0	60	33787
2026-01-07 20:01:49.95	22.75	1.30	-47.9	-59.0	3.6	8.44e-01	0	37	104	0	60	32066
2026-01-07 20:01:53.99	22.64	1.55	-47.9	-58.8	3.6	8.46e-01	0	37	104	0	60	31520
2026-01-07 20:01:58.03	22.54	1.80	-47.8	-58.3	3.6	8.46e-01	0	38	104	0	60	29796
2026-01-07 20:02:02.07	22.43	2.05	-47.9	-59.0	3.6	8.46e-01	0	38	104	0	60	32122
2026-01-07 20:02:06.11	22.32	2.30	-47.8	-58.7	3.6	8.44e-01	0	38	104	0	60	30971
2026-01-07 20:02:10.14	22.21	2.56	-47.7	-57.3	3.6	8.45e-01	0	38	104	0	60	26583
2026-01-07 20:02:14.18	22.09	2.82	-47.8	-58.0	3.6	8.45e-01	0	38	104	0	60	28818
2026-01-07 20:02:18.22	21.97	3.08	-45.3	-48.3	9.3	3.48e-02	0	38	0	8388608	60	9401
2026-01-07 20:02:22.26	21.85	3.34	-39.8	-40.8	17.2	0.00e+00	0	38	0	35651584	54	5630
2026-01-07 20:02:26.30	21.73	3.61	-39.1	-40.1	17.9	0.00e+00	0	38	0	65011712	52	5821
2026-01-07 20:02:30.33	21.61	3.87	-45.6	-49.5	11.0	8.41e-01	0	38	104	90177536	60	10731
2026-01-07 20:02:34.37	21.48	4.14	-35.3	-36.1	22.0	0.00e+00	0	38	0	99614720	44	5769
2026-01-07 20:02:38.41	21.35	4.42	-35.0	-35.7	22.3	0.00e+00	0	38	0	127926272	44	5537
2026-01-07 20:02:42.45	21.22	4.69	-34.8	-35.5	22.6	0.00e+00	0	38	0	157286400	44	5433
2026-01-07 20:02:46.49	21.08	4.97	-34.8	-35.5	22.7	0.00e+00	0	38	0	186646528	42	6092
2026-01-07 20:02:50.53	20.94	5.25	-34.6	-35.3	22.9	0.00e+00	0	38	0	216006656	42	5915
2026-01-07 20:02:54.58	20.80	5.54	-34.6	-35.2	23.0	0.00e+00	0	38	0	245366784	42	5896
2026-01-07 20:02:58.62	20.65	5.82	-34.4	-35.1	23.1	0.00e+00	0	38	0	273678336	42	5793
2026-01-07 20:03:02.66	20.50	6.11	-34.4	-35.0	23.3	0.00e+00	0	38	0	303038464	42	5757
2026-01-07 20:03:06.70	20.35	6.41	-34.2	-34.9	23.4	0.00e+00	0	38	0	332398592	42	5642
2026-01-07 20:03:10.74	20.20	6.70	-34.2	-34.8	23.5	0.00e+00	0	38	0	361758720	42	5619
2026-01-07 20:03:14.78	20.04	7.00	-34.2	-34.9	23.5	0.00e+00	0	38	0	391118848	42	5651
2026-01-07 20:03:18.82	19.88	7.30	-34.1	-34.8	23.7	0.00e+00	0	38	0	420478976	42	5598
2026-01-07 20:03:22.86	19.71	7.61	-33.8	-34.5	24.0	0.00e+00	0	38	0	448790528	40	6065
2026-01-07 20:03:26.90	19.54	7.92	-33.8	-34.4	24.1	0.00e+00	0	38	0	478150656	40	6010
2026-01-07 20:03:30.94	19.37	8.23	-33.6	-34.3	24.3	0.00e+00	0	38	0	507510784	40	5899
2026-01-07 20:03:34.98	19.19	8.55	-33.5	-34.1	24.3	0.00e+00	0	38	0	536870912	40	5807
2026-01-07 20:03:39.02	19.01	8.87	-33.4	-34.0	24.4	0.00e+00	0	38	0	566231040	40	5726
2026-01-07 20:03:43.06	18.82	9.19	-33.5	-34.1	24.5	0.00e+00	0	38	0	594542592	40	5801
2026-01-07 20:03:47.09	18.63	9.52	-33.4	-34.1	24.5	0.00e+00	0	38	0	623902720	40	5769
2026-01-07 20:03:51.13	18.43	9.85	-33.3	-33.9	24.5	0.00e+00	0	38	0	653262848	40	5660
2026-01-07 20:03:55.17	18.23	10.19	-33.2	-33.9	24.7	0.00e+00	0	38	0	682622976	40	5645
2026-01-07 20:03:59.22	18.02	10.53	-32.9	-33.5	25.0	0.00e+00	0	38	0	711983104	40	5399
2026-01-07 20:04:03.26	17.81	10.87	-32.9	-33.5	25.1	0.00e+00	0	38	0	741343232	38	6059
2026-01-07 20:04:07.29	17.60	11.22	-32.8	-33.4	25.2	0.00e+00	0	38	0	769654784	38	5990
2026-01-07 20:04:11.33	17.37	11.58	-32.6	-33.2	25.3	0.00e+00	0	38	0	799014912	38	5854
2026-01-07 20:04:15.37	17.15	11.93	-32.5	-33.1	25.3	0.00e+00	0	38	0	828375040	38	5801
2026-01-07 20:04:19.41	16.91	12.30	-32.7	-33.3	25.3	0.00e+00	0	38	0	857735168	38	5959
2026-01-07 20:04:23.45	16.67	12.67	-32.8	-33.4	25.3	0.00e+00	0	38	0	887095296	38	6023
2026-01-07 20:04:27.49	16.42	13.04	-32.3	-32.9	25.7	0.00e+00	0	38	0	915406848	38	5659
2026-01-07 20:04:31.53	16.17	13.42	-32.1	-32.7	25.8	0.00e+00	0	39	0	944766976	38	5549
2026-01-07 20:04:35.57	15.91	13.80	-32.3	-32.9	25.8	0.00e+00	0	38	0	974127104	38	5639
2026-01-07 20:04:39.61	15.64	14.19	-32.1	-32.7	25.8	0.00e+00	0	38	0	1003487232	38	5537
2026-01-07 20:04:43.65	15.36	14.59	-31.9	-32.5	26.1	0.00e+00	0	38	0	1032847360	38	5427
2026-01-07 20:04:47.69	15.08	14.99	-31.7	-32.3	26.2	0.00e+00	0	39	0	1062207488	36	5908
2026-01-07 20:04:51.73	14.79	15.39	-31.6	-32.2	26.3	0.00e+00	0	38	0	1090519040	36	5873
2026-01-07 20:04:55.77	14.49	15.81	-31.5	-32.1	26.4	0.00e+00	0	38	0	1119879168	36	5824
2026-01-07 20:04:59.81	14.18	16.23	-31.3	-31.9	26.6	0.00e+00	0	38	0	1149239296	36	5695
2026-01-07 20:05:03.85	13.86	16.65	-31.3	-31.9	26.6	0.00e+00	0	38	0	1178599424	36	5651
2026-01-07 20:05:07.89	13.53	17.08	-31.3	-31.9	26.6	0.00e+00	0	38	0	1207959552	36	5642
2026-01-07 20:05:11.93	13.19	17.52	-31.1	-31.7	26.8	0.00e+00	0	38	0	1236271104	36	5548
2026-01-07 20:05:15.97	12.84	17.97	-31.1	-31.7	26.8	0.00e+00	0	38	0	1265631232	36	5532
2026-01-07 20:05:20.00	12.48	18.42	-30.8	-31.3	27.1	0.00e+00	0	38	0	1294991360	34	5951
2026-01-07 20:05:24.04	12.11	18.88	-30.5	-31.0	27.3	0.00e+00	0	39	0	1324351488	34	5748
2026-01-07 20:05:28.08	11.73	19.35	-30.3	-30.9	27.4	0.00e+00	0	38	0	1353711616	34	5681
2026-01-07 20:05:32.12	11.33	19.82	-30.0	-30.5	27.7	0.00e+00	0	39	0	1382023168	34	5432
2026-01-07 20:05:36.16	10.92	20.31	-30.1	-30.7	27.6	0.00e+00	0	38	0	1411383296	34	5543
2026-01-07 20:05:40.20	10.50	20.80	-30.2	-30.8	27.5	0.00e+00	0	39	0	1440743424	34	5567
2026-01-07 20:05:44.25	10.06	21.30	-30.1	-30.7	27.6	0.00e+00	0	39	0	1470103552	34	5518
2026-01-07 20:05:48.29	9.61	21.80	-29.9	-30.4	27.5	0.00e+00	0	39	0	1499463680	34	5374
2026-01-07 20:05:52.33	9.14	22.32	-30.3	-30.9	27.5	0.00e+00	0	38	0	1528823808	34	5640
2026-01-07 20:05:56.37	8.66	22.84	-30.1	-30.7	27.6	0.00e+00	0	39	0	1557135360	34	5532
2026-01-07 20:06:00.41	8.15	23.37	-30.3	-30.9	27.5	0.00e+00	0	39	0	1586495488	34	5670
2026-01-07 20:06:04.45	7.64	23.91	-30.4	-30.9	27.5	0.00e+00	0	38	0	1615855616	34	5691
2026-01-07 20:06:08.50	7.10	24.46	-30.5	-31.1	27.5	0.00e+00	0	39	0	1645215744	34	5784
2026-01-07 20:06:12.54	6.54	25.02	-30.5	-31.1	27.4	0.00e+00	0	39	0	1674575872	34	5798
2026-01-07 20:06:16.58	5.96	25.59	-30.5	-31.1	27.4	0.00e+00	0	39	0	1702887424	34	5801
2026-01-07 20:06:20.62	5.36	26.16	-30.3	-30.9	27.4	0.00e+00	0	38	0	1732247552	34	5673
2026-01-07 20:06:24.66	4.74	26.75	-30.2	-30.8	27.6	0.00e+00	0	39	0	1761607680	34	5592
2026-01-07 20:06:28.70	4.09	27.34	-29.8	-30.3	28.1	0.00e+00	0	39	0	1790967808	34	5299
2026-01-07 20:06:32.74	3.42	27.94	-29.0	-29.6	28.5	0.00e+00	0	39	0	1820327936	32	5461
2026-01-07 20:06:36.78	2.72	28.55	-28.9	-29.5	28.6	0.00e+00	0	38	0	1849688064	30	6068
2026-01-07 20:06:40.83	1.99	29.17	-29.4	-30.0	28.5	0.00e+00	0	39	0	1877999616	30	6433
2026-01-07 20:06:44.87	1.23	29.80	-29.4	-29.9	28.2	0.00e+00	0	39	0	1907359744	30	6372
2026-01-07 20:06:48.91	0.44	30.44	-29.6	-30.1	28.1	0.00e+00	0	39	0	1936719872	30	6532
2026-01-07 20:06:52.95	359.62	31.08	-29.7	-30.3	28.0	0.00e+00	0	39	0	1966080000	32	5905
2026-01-07 20:06:56.98	358.77	31.73	-29.8	-30.4	28.0	0.00e+00	0	39	0	1995440128	32	5987
2026-01-07 20:07:01.02	357.88	32.39	-29.6	-30.2	28.2	0.00e+00	0	39	0	2023751680	32	5854
2026-01-07 20:07:05.06	356.96	33.05	-29.1	-29.7	28.5	0.00e+00	0	39	0	2053111808	32	5533
2026-01-07 20:07:09.10	355.99	33.73	-28.8	-29.4	28.7	0.00e+00	0	39	0	2082471936	32	5330
2026-01-07 20:07:13.15	354.98	34.40	-29.1	-29.7	28.4	0.00e+00	0	39	0	2111832064	30	6185
2026-01-07 20:07:17.19	353.93	35.08	-29.0	-29.6	28.4	0.00e+00	0	39	0	2141192192	30	6148
2026-01-07 20:07:21.23	352.83	35.76	-29.4	-30.0	28.1	0.00e+00	0	39	0	2170552320	30	6407
2026-01-07 20:07:25.27	351.69	36.45	-29.7	-30.3	27.9	0.00e+00	0	39	0	2198863872	32	5926
2026-01-07 20:07:29.30	350.50	37.13	-29.8	-30.3	28.0	0.00e+00	0	39	0	2228224000	32	5953
2026-01-07 20:07:33.34	349.25	37.82	-29.4	-29.9	28.3	0.00e+00	0	39	0	2257584128	32	5680
2026-01-07 20:07:37.38	347.95	38.50	-29.4	-30.0	28.4	0.00e+00	0	39	0	2286944256	32	5731
2026-01-07 20:07:41.42	346.60	39.18	-29.5	-30.1	28.3	0.00e+00	0	39	0	2315255808	32	5778
2026-01-07 20:07:45.46	345.18	39.85	-29.3	-29.9	28.3	0.00e+00	0	39	0	2344615936	32	5667
2026-01-07 20:07:49.50	343.71	40.52	-29.6	-30.2	28.1	0.00e+00	0	39	0	2373976064	32	5855
2026-01-07 20:07:53.54	342.17	41.17	-30.4	-31.0	27.8	0.00e+00	0	39	0	2403336192	32	6414
2026-01-07 20:07:57.58	340.58	41.82	-29.8	-30.4	28.0	0.00e+00	0	39	0	2432696320	32	5996
2026-01-07 20:08:01.62	338.91	42.44	-29.7	-30.2	28.2	0.00e+00	0	39	0	2461007872	32	5874
2026-01-07 20:08:05.66	337.18	43.05	-30.1	-30.7	27.8	0.00e+00	0	39	0	2490368000	32	6224
2026-01-07 20:08:09.70	335.39	43.64	-30.4	-31.0	27.7	0.00e+00	0	39	0	2519728128	32	6391
2026-01-07 20:08:13.74	333.52	44.20	-29.5	-30.1	28.3	0.00e+00	0	39	0	2549088256	32	5788
2026-01-07 20:08:17.78	331.59	44.74	-29.5	-30.1	28.3	0.00e+00	0	39	0	2578448384	32	5798
2026-01-07 20:08:21.82	329.60	45.24	-30.5	-31.1	27.5	0.00e+00	0	39	0	2606759936	32	6485
2026-01-07 20:08:25.86	327.55	45.72	-30.3	-30.9	27.7	0.00e+00	0	39	0	2636120064	32	6329
2026-01-07 20:08:29.90	325.43	46.15	-29.8	-30.4	28.1	0.00e+00	0	39	0	2665480192	32	6007
2026-01-07 20:08:33.94	323.26	46.54	-30.1	-30.6	27.6	0.00e+00	0	39	0	2694840320	32	6138
2026-01-07 20:08:37.98	321.03	46.90	-30.4	-31.0	27.7	0.00e+00	0	39	0	2724200448	32	6429
2026-01-07 20:08:42.02	318.76	47.20	-30.8	-31.4	27.3	0.00e+00	0	39	0	2753560576	32	6718
2026-01-07 20:08:46.06	316.44	47.46	-30.1	-30.7	27.9	0.00e+00	0	39	0	2781872128	34	5524
2026-01-07 20:08:50.10	314.09	47.67	-30.1	-30.7	27.9	0.00e+00	0	39	0	2811232256	32	6206
2026-01-07 20:08:54.14	311.71	47.82	-30.7	-31.3	27.4	0.00e+00	0	39	0	2840592384	34	5904
2026-01-07 20:08:58.18	309.31	47.92	-30.5	-31.0	27.4	0.00e+00	0	39	0	2869952512	34	5759
2026-01-07 20:09:02.22	306.90	47.96	-30.3	-30.9	27.7	0.00e+00	0	39	0	2899312640	34	5671
2026-01-07 20:09:06.26	304.49	47.95	-30.4	-31.0	27.5	0.00e+00	0	39	0	2927624192	34	5711
2026-01-07 20:09:10.30	302.08	47.89	-30.4	-31.0	27.7	0.00e+00	0	39	0	2956984320	34	5722
2026-01-07 20:09:14.33	299.69	47.77	-30.5	-31.1	27.4	0.00e+00	0	39	0	2986344448	34	5813
2026-01-07 20:09:18.37	297.32	47.60	-30.4	-31.0	27.3	0.00e+00	0	39	0	3015704576	34	5724
2026-01-07 20:09:22.41	294.98	47.37	-30.5	-31.0	27.6	0.00e+00	0	39	0	3045064704	34	5754
2026-01-07 20:09:26.45	292.68	47.10	-30.3	-30.9	27.6	0.00e+00	0	39	0	3074424832	34	5663
2026-01-07 20:09:30.49	290.42	46.77	-30.3	-30.9	27.6	0.00e+00	0	39	0	3102736384	34	5674
2026-01-07 20:09:34.53	288.21	46.41	-30.3	-30.9	27.7	0.00e+00	0	39	0	3132096512	34	5634
2026-01-07 20:09:38.57	286.05	46.00	-29.9	-30.5	28.1	0.00e+00	0	39	0	3161456640	34	5379
2026-01-07 20:09:42.61	283.95	45.55	-30.3	-30.9	27.6	0.00e+00	0	39	0	3190816768	32	6324
2026-01-07 20:09:46.65	281.92	45.06	-30.0	-30.6	27.8	0.00e+00	0	39	0	3220176896	32	6111
2026-01-07 20:09:50.69	279.94	44.54	-30.0	-30.6	27.9	0.00e+00	0	39	0	3248488448	32	6106
2026-01-07 20:09:54.73	278.03	43.99	-29.3	-29.9	28.4	0.00e+00	0	39	0	3277848576	32	5642
2026-01-07 20:09:58.77	276.19	43.42	-29.5	-30.1	28.4	0.00e+00	0	39	0	3307208704	32	5764
2026-01-07 20:10:02.81	274.41	42.82	-29.5	-30.1	28.3	0.00e+00	0	39	0	3336568832	32	5780
2026-01-07 20:10:06.85	272.71	42.21	-29.4	-30.0	28.3	0.00e+00	0	39	0	3365928960	32	5728
2026-01-07 20:10:10.89	271.06	41.57	-29.6	-30.1	28.3	0.00e+00	0	39	0	3395289088	32	5828
2026-01-07 20:10:14.93	269.48	40.92	-29.6	-30.1	28.2	0.00e+00	0	39	0	3423600640	32	5816
2026-01-07 20:10:18.97	267.96	40.26	-29.7	-30.3	28.1	0.00e+00	0	39	0	3452960768	32	5929
2026-01-07 20:10:23.01	266.51	39.59	-29.6	-30.2	28.3	0.00e+00	0	39	0	3482320896	32	5860
2026-01-07 20:10:27.04	265.12	38.91	-29.8	-30.4	28.1	0.00e+00	0	39	0	3511681024	32	5976
2026-01-07 20:10:31.08	263.78	38.23	-29.9	-30.4	28.1	0.00e+00	0	39	0	3541041152	32	6019
2026-01-07 20:10:35.12	262.49	37.55	-29.7	-30.3	28.0	0.00e+00	0	39	0	3569352704	32	5907
2026-01-07 20:10:39.16	261.26	36.86	-29.4	-29.9	28.5	0.00e+00	0	39	0	3598712832	32	5661
2026-01-07 20:10:43.19	260.09	36.17	-29.5	-30.1	28.2	0.00e+00	0	39	0	3628072960	32	5797
2026-01-07 20:10:47.23	258.96	35.48	-29.2	-29.8	28.5	0.00e+00	0	39	0	3657433088	32	5597
2026-01-07 20:10:51.27	257.87	34.80	-29.7	-30.3	28.0	0.00e+00	0	39	0	3685744640	32	5924
2026-01-07 20:10:55.32	256.83	34.12	-29.7	-30.3	28.1	0.00e+00	0	39	0	3715104768	32	5922
2026-01-07 20:10:59.36	255.84	33.44	-29.6	-30.2	28.2	0.00e+00	0	39	0	3744464896	32	5840
2026-01-07 20:11:03.39	254.88	32.77	-29.4	-30.0	28.3	0.00e+00	0	39	0	3773825024	32	5725
2026-01-07 20:11:07.43	253.97	32.11	-29.9	-30.4	28.0	0.00e+00	0	39	0	3803185152	32	6027
2026-01-07 20:11:11.47	253.09	31.45	-29.7	-30.5	23.8	0.00e+00	0	39	0	3831496704	32	6067
2026-01-07 20:11:15.50	252.25	30.80	-29.3	-30.1	24.2	0.00e+00	0	39	0	3860856832	32	5772
2026-01-07 20:11:19.55	251.43	30.15	-29.5	-30.3	23.8	0.00e+00	0	39	0	3890216960	32	5922
2026-01-07 20:11:23.59	250.66	29.52	-29.3	-30.1	24.4	0.00e+00	0	39	0	3919577088	32	5779
2026-01-07 20:11:27.63	249.91	28.89	-29.5	-30.3	23.9	0.00e+00	0	39	0	3948937216	32	5912
2026-01-07 20:11:31.67	249.19	28.27	-29.6	-30.3	24.2	0.00e+00	0	39	0	3977248768	32	5955
2026-01-07 20:11:35.71	248.50	27.66	-29.9	-30.7	24.0	0.00e+00	0	39	0	4006608896	32	6195
2026-01-07 20:11:39.75	247.83	27.06	-29.7	-30.4	24.2	0.00e+00	0	39	0	4035969024	32	6024
2026-01-07 20:11:43.79	247.19	26.47	-29.9	-30.7	23.9	0.00e+00	0	39	0	4065329152	32	6211
2026-01-07 20:11:47.83	246.57	25.88	-30.1	-30.9	23.7	0.00e+00	0	39	0	4094689280	32	6341
2026-01-07 20:11:51.87	245.98	25.31	-30.1	-30.9	23.8	0.00e+00	0	39	0	4124049408	32	6328
2026-01-07 20:11:55.91	245.40	24.74	-29.8	-30.5	24.0	0.00e+00	0	39	0	4152360960	32	6098
2026-01-07 20:11:59.95	244.85	24.19	-29.5	-30.2	24.3	0.00e+00	0	39	0	4181721088	32	5884
2026-01-07 20:12:03.99	244.32	23.64	-29.5	-30.2	24.3	0.00e+00	0	39	0	4211081216	32	5870
2026-01-07 20:12:08.03	243.80	23.10	-29.7	-30.4	24.3	0.00e+00	0	39	0	4240441344	32	6009
2026-01-07 20:12:12.07	243.30	22.57	-30.0	-30.8	24.2	0.00e+00	0	39	0	4269801472	32	6259
2026-01-07 20:12:16.11	242.82	22.05	-30.4	-31.2	24.0	0.00e+00	0	39	0	4298113024	32	6542
2026-01-07 20:12:20.15	242.36	21.53	-30.4	-31.1	23.9	0.00e+00	0	39	0	4327473152	32	6525
2026-01-07 20:12:24.19	241.91	21.03	-30.3	-31.1	24.0	0.00e+00	0	39	0	4356833280	32	6472
2026-01-07 20:12:28.24	241.47	20.53	-30.2	-30.9	24.1	0.00e+00	0	39	0	4386193408	32	6375
2026-01-07 20:12:32.27	241.05	20.04	-30.4	-31.1	24.2	0.00e+00	0	39	0	4415553536	32	6516
2026-01-07 20:12:36.31	240.65	19.56	-30.7	-31.4	24.0	0.00e+00	0	39	0	4444913664	32	6765
2026-01-07 20:12:40.35	240.25	19.09	-31.0	-31.8	23.8	0.00e+00	0	39	0	4473225216	34	6260
2026-01-07 20:12:44.39	239.87	18.62	-30.9	-31.7	23.7	0.00e+00	0	39	0	4502585344	34	6187
2026-01-07 20:12:48.43	239.50	18.16	-30.8	-31.5	23.8	0.00e+00	0	39	0	4531945472	34	6092
2026-01-07 20:12:52.47	239.14	17.71	-30.7	-31.5	23.7	0.00e+00	0	39	0	4561305600	34	6066
2026-01-07 20:12:56.51	238.79	17.27	-31.0	-31.7	23.7	0.00e+00	0	39	0	4590665728	34	6214
2026-01-07 20:13:00.55	238.46	16.83	-31.3	-32.1	23.5	0.00e+00	0	39	0	4618977280	34	6483
2026-01-07 20:13:04.59	238.13	16.40	-31.7	-32.4	23.3	0.00e+00	0	39	0	4648337408	34	6765
2026-01-07 20:13:08.63	237.81	15.97	-31.8	-32.6	23.4	0.00e+00	0	39	0	4677697536	36	6151
2026-01-07 20:13:12.67	237.50	15.55	-32.0	-32.8	23.3	0.00e+00	0	39	0	4707057664	36	6281
2026-01-07 20:13:16.71	237.20	15.14	-32.3	-33.1	23.2	0.00e+00	0	39	0	4736417792	36	6488
2026-01-07 20:13:20.75	236.91	14.74	-32.5	-33.3	23.0	0.00e+00	0	39	0	4765777920	36	6632
2026-01-07 20:13:24.79	236.63	14.34	-32.8	-33.6	22.8	0.00e+00	0	39	0	4794089472	38	6132
2026-01-07 20:13:28.82	236.35	13.94	-33.1	-33.9	22.5	0.00e+00	0	39	0	4823449600	38	6389
2026-01-07 20:13:32.86	236.08	13.55	-33.3	-34.2	22.4	0.00e+00	0	39	0	4852809728	38	6568
2026-01-07 20:13:36.90	235.82	13.17	-33.7	-34.6	22.1	0.00e+00	0	39	0	4882169856	40	6112
2026-01-07 20:13:40.94	235.57	12.79	-34.0	-34.9	21.9	0.00e+00	0	39	0	4911529984	40	6351
2026-01-07 20:13:44.98	235.32	12.42	-34.5	-35.3	21.6	0.00e+00	0	39	0	4939841536	40	6665
2026-01-07 20:13:49.02	235.08	12.05	-35.0	-35.9	21.3	0.00e+00	0	39	0	4969201664	42	6354
2026-01-07 20:13:53.06	234.84	11.69	-35.5	-36.4	20.9	0.00e+00	0	39	0	4998561792	42	6736
2026-01-07 20:13:57.10	234.61	11.33	-36.0	-36.9	20.5	0.00e+00	0	39	0	5027921920	44	6345
2026-01-07 20:14:01.14	234.39	10.98	-36.5	-37.4	20.2	0.00e+00	0	39	0	5057282048	44	6731
2026-01-07 20:14:05.18	234.17	10.63	-36.9	-37.9	19.8	0.00e+00	0	39	0	5086642176	46	6352
2026-01-07 20:14:09.22	233.96	10.29	-37.4	-38.5	19.3	0.00e+00	0	39	0	5114953728	46	6788
2026-01-07 20:14:13.26	233.75	9.95	-37.9	-38.9	18.9	0.00e+00	0	39	0	5144313856	48	6373
2026-01-07 20:14:17.29	233.55	9.61	-38.4	-39.5	18.4	0.00e+00	0	39	0	5173673984	48	6822
2026-01-07 20:14:21.33	233.36	9.28	-39.1	-40.1	18.7	0.00e+00	0	39	0	5203034112	50	6467
2026-01-07 20:14:25.37	233.16	8.95	-39.6	-40.6	18.2	0.00e+00	0	39	0	5231345664	50	6887
2026-01-07 20:14:29.41	232.97	8.63	-40.0	-41.0	17.6	0.00e+00	0	39	0	5260705792	52	6463
2026-01-07 20:14:33.45	232.79	8.31	-40.6	-41.7	17.0	0.00e+00	0	39	0	5290065920	52	6969
2026-01-07 20:14:37.49	232.61	7.99	-40.9	-42.1	16.5	0.00e+00	0	39	0	5319426048	54	6526
2026-01-07 20:14:41.53	232.44	7.68	-41.4	-42.7	15.8	0.00e+00	0	39	0	5348786176	54	6950
2026-01-07 20:14:45.57	232.26	7.37	-41.7	-43.1	15.3	0.00e+00	0	39	0	5377097728	54	7297
2026-01-07 20:14:49.61	232.10	7.07	-42.1	-43.7	14.8	0.00e+00	0	39	0	5406457856	56	6977
2026-01-07 20:14:53.65	231.93	6.77	-42.3	-44.0	14.3	0.00e+00	0	39	0	5435817984	56	7252
2026-01-07 20:14:57.69	231.77	6.47	-42.3	-44.5	13.7	3.40e-06	0	39	0	5465178112	56	7603
2026-01-07 20:15:01.73	231.61	6.17	-42.7	-44.9	13.3	1.94e-05	0	39	0	5493489664	56	7989
2026-01-07 20:15:05.77	231.46	5.88	-43.0	-45.2	12.7	6.86e-05	0	39	0	5522849792	58	7387
2026-01-07 20:15:09.81	231.31	5.59	-43.3	-45.6	12.1	2.13e-04	0	39	0	5552209920	58	7751
2026-01-07 20:15:13.85	231.16	5.30	-43.9	-46.3	11.4	8.46e-04	0	39	0	5581570048	60	7454
2026-01-07 20:15:17.89	231.02	5.02	-44.0	-46.7	10.8	1.87e-03	0	39	0	5610930176	60	7822
2026-01-07 20:15:21.93	230.88	4.74	-44.2	-47.0	10.3	5.26e-03	0	39	0	5640290304	60	8067
2026-01-07 20:15:25.97	230.74	4.46	-44.3	-47.6	9.5	1.35e-02	0	39	0	5668601856	60	8637
2026-01-07 20:15:30.01	230.60	4.19	-44.6	-48.0	8.8	2.57e-02	0	39	0	5697961984	60	9058
2026-01-07 20:15:34.05	230.47	3.92	-44.7	-48.4	8.2	4.48e-02	0	39	0	5727322112	60	9525
2026-01-07 20:15:38.10	230.34	3.64	-44.8	-48.5	7.8	7.06e-02	0	39	0	5756682240	60	9649
2026-01-07 20:15:42.14	230.21	3.38	-44.9	-49.0	7.2	1.01e-01	0	39	0	5786042368	60	10160
2026-01-07 20:15:46.17	230.09	3.11	-45.1	-49.4	6.5	1.80e-01	0	39	0	5814353920	60	10729
2026-01-07 20:15:50.21	229.97	2.85	-49.2	-60.4	3.6	8.45e-01	0	39	104	5822742528	60	37836
2026-01-07 20:15:54.25	229.85	2.59	-49.5	-60.7	3.6	8.46e-01	0	39	104	5822742528	60	39051
2026-01-07 20:15:58.30	229.73	2.33	-48.7	-60.6	3.6	8.45e-01	0	39	104	5822742528	60	38883
2026-01-07 20:16:02.33	229.61	2.08	-49.2	-60.5	3.6	8.44e-01	0	39	104	5822742528	60	38494
2026-01-07 20:16:06.37	229.50	1.82	-49.4	-60.6	3.6	8.45e-01	0	39	104	5822742528	60	38667
2026-01-07 20:16:10.41	229.39	1.57	-49.3	-60.6	3.6	8.47e-01	0	39	104	5822742528	60	38516
2026-01-07 20:16:14.45	229.28	1.32	-49.3	-60.6	3.6	8.46e-01	0	39	104	5822742528	60	38616
2026-01-07 20:16:18.49	229.17	1.07	-49.3	-60.6	3.6	8.45e-01	0	39	104	5822742528	60	38534
2026-01-07 20:16:22.52	229.07	0.83	-49.3	-60.5	3.6	8.45e-01	0	39	104	5822742528	60	38368
2026-01-07 20:16:26.56	228.96	0.58	-49.3	-60.5	3.6	8.46e-01	0	39	104	5822742528	60	38387
2026-01-07 20:16:30.60	228.86	0.34	-49.3	-60.5	3.6	8.46e-01	0	39	104	5822742528	60	38392
2026-01-07 20:16:34.64	228.76	0.10	-49.3	-60.5	3.6	8.45e-01	0	39	104	5822742528	60	38364

#Closed at: 2026-01-07 20:16:36
#Recorded file [5822 MB]: D:/lorett/data/35029_260108_080129.dat