passes_logs/2026/01/07/R4.6S_Anadyr/R4.6S_Anadyr__20260107_203228_SUOMI_NPP_rec.log

#Pass ID: 20260107_203228_SUOMI NPP
#Satellite: SUOMI NPP
#Configuration: NPP
#almurnet v.1.7.20251203
#Start time: 2026-01-07 20:32:30

#Version: 2.2.20231116
#Station: R4.6S_Anadyr
#Location: 177.4865 lon 64.73178 lat
#TLE: 1 37849U 11061A   26004.95404768  .00000136  00000+0  85334-4 0  9991
#TLE: 2 37849  98.7801 307.0898 0002575  80.6707 279.4760 14.19522289735281

#Time	Az	El	Level	Level2	SNR	BER	BlckErr	Temp	State	Recorded	gain1	gain2
2026-01-07 20:32:30.70	70.62	0.11	-49.3	-60.0	3.5	8.46e-01	0	36	0	0	60	36242
2026-01-07 20:32:33.72	70.40	0.26	-49.4	-64.6	3.6	1.51e+00	0	37	104	0	60	61514
2026-01-07 20:32:36.75	70.18	0.41	-49.5	-64.7	3.6	1.51e+00	0	37	104	0	60	61973
2026-01-07 20:32:39.77	69.96	0.56	-49.5	-64.7	3.6	1.51e+00	0	37	104	0	60	62353
2026-01-07 20:32:42.80	69.73	0.71	-49.4	-64.6	3.6	1.51e+00	0	37	104	0	60	61689
2026-01-07 20:32:45.83	69.50	0.86	-48.9	-64.1	3.6	1.51e+00	0	37	104	0	60	58149
2026-01-07 20:32:48.86	69.27	1.02	-47.9	-63.0	3.6	1.51e+00	0	37	104	0	60	51310
2026-01-07 20:32:51.89	69.04	1.17	-47.9	-63.1	3.5	1.51e+00	0	37	104	0	60	51467
2026-01-07 20:32:54.92	68.80	1.32	-47.8	-63.0	3.6	1.51e+00	0	37	104	0	60	51292
2026-01-07 20:32:57.95	68.56	1.48	-47.8	-63.0	3.6	1.51e+00	0	38	104	0	60	51152
2026-01-07 20:33:00.97	68.32	1.63	-47.8	-63.0	3.6	1.51e+00	0	38	104	0	60	51014
2026-01-07 20:33:04.00	68.08	1.78	-47.8	-63.0	3.6	1.51e+00	0	38	104	0	60	51254
2026-01-07 20:33:07.04	67.83	1.94	-47.8	-62.9	3.6	1.51e+00	0	38	104	0	60	50512
2026-01-07 20:33:10.07	67.58	2.09	-47.8	-62.7	3.6	1.51e+00	0	38	104	0	60	49061
2026-01-07 20:33:13.10	67.33	2.25	-47.8	-63.0	3.6	1.51e+00	0	38	104	0	60	51339
2026-01-07 20:33:16.12	67.08	2.41	-47.8	-62.9	3.6	1.51e+00	0	38	104	0	60	50589
2026-01-07 20:33:19.16	66.82	2.56	-47.8	-62.4	3.6	1.51e+00	0	38	104	0	60	47891
2026-01-07 20:33:22.18	66.56	2.72	-47.8	-62.8	3.6	1.51e+00	0	38	104	0	60	50139
2026-01-07 20:33:25.21	66.30	2.87	-46.6	-52.1	9.3	8.59e-02	80	38	0	1048576	60	14521
2026-01-07 20:33:28.24	66.03	3.03	-44.5	-47.5	14.4	4.50e-06	7	38	0	6291456	60	8571
2026-01-07 20:33:31.27	65.76	3.19	-47.7	-62.8	3.6	1.51e+00	0	38	104	7340032	60	49618
2026-01-07 20:33:34.30	65.49	3.35	-44.5	-47.4	14.5	0.00e+00	92	38	0	9437184	60	8457
2026-01-07 20:33:37.32	65.21	3.50	-43.1	-45.2	17.0	0.00e+00	92	38	0	15728640	60	6580
2026-01-07 20:33:40.35	64.94	3.66	-42.4	-44.2	17.9	0.00e+00	0	38	0	20971520	58	6584
2026-01-07 20:33:43.38	64.65	3.82	-42.1	-43.7	18.2	0.00e+00	71	38	0	27262976	58	6242
2026-01-07 20:33:46.41	64.37	3.98	-42.5	-44.3	17.9	0.00e+00	69	38	0	32505856	58	6664
2026-01-07 20:33:49.43	64.08	4.14	-42.3	-44.1	17.9	0.00e+00	0	38	0	38797312	58	6523
2026-01-07 20:33:52.46	63.79	4.30	-42.7	-44.6	17.4	0.00e+00	0	38	0	44040192	58	6887
2026-01-07 20:33:55.49	63.50	4.46	-42.6	-44.5	17.5	0.00e+00	90	38	0	49283072	58	6784
2026-01-07 20:33:58.52	63.20	4.62	-42.6	-44.5	17.8	0.00e+00	65	38	0	55574528	58	6834
2026-01-07 20:34:01.55	62.90	4.78	-42.5	-44.3	18.0	0.00e+00	0	38	0	60817408	58	6667
2026-01-07 20:34:04.58	62.59	4.94	-42.3	-44.1	18.2	0.00e+00	92	38	0	67108864	58	6490
2026-01-07 20:34:07.61	62.29	5.10	-42.3	-44.2	18.2	0.00e+00	61	38	0	72351744	58	6542
2026-01-07 20:34:10.64	61.98	5.26	-42.0	-43.6	18.6	0.00e+00	0	38	0	77594624	58	6166
2026-01-07 20:34:13.66	61.66	5.42	-42.5	-44.2	18.1	0.00e+00	0	38	0	83886080	58	6612
2026-01-07 20:34:16.69	61.34	5.58	-42.2	-43.9	18.3	0.00e+00	65	38	0	89128960	58	6331
2026-01-07 20:34:19.72	61.02	5.74	-42.3	-44.1	18.3	0.00e+00	33	38	0	95420416	58	6487
2026-01-07 20:34:22.75	60.69	5.90	-42.3	-44.1	18.3	0.00e+00	0	38	0	100663296	58	6478
2026-01-07 20:34:25.78	60.37	6.06	-42.0	-43.6	18.8	0.00e+00	91	38	0	106954752	58	6163
2026-01-07 20:34:28.81	60.03	6.22	-41.9	-43.6	18.8	0.00e+00	90	38	0	112197632	58	6122
2026-01-07 20:34:31.84	59.69	6.39	-42.3	-44.0	18.5	0.00e+00	0	38	0	117440512	58	6429
2026-01-07 20:34:34.87	59.35	6.55	-42.1	-43.8	18.7	0.00e+00	88	38	0	123731968	58	6247
2026-01-07 20:34:37.90	59.01	6.71	-41.6	-43.1	19.4	0.00e+00	83	38	0	128974848	56	6534
2026-01-07 20:34:40.93	58.66	6.87	-41.3	-42.8	19.7	0.00e+00	0	38	0	135266304	56	6250
2026-01-07 20:34:43.96	58.31	7.03	-41.1	-42.4	20.1	0.00e+00	0	38	0	140509184	56	6008
2026-01-07 20:34:46.99	57.95	7.19	-40.9	-42.2	20.2	0.00e+00	78	38	0	145752064	56	5866
2026-01-07 20:34:50.02	57.59	7.36	-40.5	-41.8	20.5	0.00e+00	38	38	0	152043520	54	6263
2026-01-07 20:34:53.05	57.22	7.52	-40.7	-42.0	20.2	0.00e+00	0	38	0	157286400	54	6432
2026-01-07 20:34:56.08	56.85	7.68	-40.8	-42.1	20.4	0.00e+00	91	38	0	163577856	54	6473
2026-01-07 20:34:59.10	56.48	7.84	-40.6	-41.8	20.5	0.00e+00	44	38	0	168820736	54	6304
2026-01-07 20:35:02.13	56.10	8.00	-40.8	-42.1	20.2	0.00e+00	0	38	0	175112192	54	6537
2026-01-07 20:35:05.16	55.72	8.16	-41.1	-42.4	20.0	0.00e+00	33	38	0	180355072	54	6732
2026-01-07 20:35:08.19	55.34	8.32	-41.1	-42.4	20.0	0.00e+00	71	38	0	185597952	54	6738
2026-01-07 20:35:11.21	54.95	8.48	-41.2	-42.5	19.9	0.00e+00	0	38	0	191889408	54	6811
2026-01-07 20:35:14.25	54.55	8.64	-41.1	-42.4	20.0	0.00e+00	0	38	0	197132288	54	6748
2026-01-07 20:35:17.27	54.15	8.80	-41.1	-42.4	20.0	0.00e+00	89	38	0	203423744	54	6722
2026-01-07 20:35:20.30	53.75	8.96	-40.8	-42.1	20.4	0.00e+00	0	38	0	208666624	54	6494
2026-01-07 20:35:23.33	53.34	9.12	-40.7	-42.0	20.5	0.00e+00	0	38	0	213909504	54	6425
2026-01-07 20:35:26.36	52.93	9.28	-40.8	-42.0	20.5	0.00e+00	72	38	0	220200960	54	6460
2026-01-07 20:35:29.37	52.51	9.44	-40.6	-41.9	20.5	0.00e+00	92	38	0	225443840	54	6335
2026-01-07 20:35:32.40	52.09	9.59	-40.8	-42.1	20.5	0.00e+00	0	38	0	231735296	54	6512
2026-01-07 20:35:35.43	51.66	9.75	-41.3	-42.7	19.9	0.00e+00	0	38	0	236978176	54	6933
2026-01-07 20:35:38.46	51.23	9.91	-41.1	-42.5	20.2	0.00e+00	68	38	0	243269632	54	6804
2026-01-07 20:35:41.49	50.79	10.06	-41.2	-42.5	20.1	0.00e+00	0	38	0	248512512	54	6831
2026-01-07 20:35:44.51	50.35	10.22	-40.8	-42.1	20.5	0.00e+00	0	38	0	253755392	54	6466
2026-01-07 20:35:47.54	49.91	10.37	-40.9	-42.2	20.4	0.00e+00	91	38	0	260046848	54	6552
2026-01-07 20:35:50.57	49.46	10.53	-40.2	-41.3	21.2	0.00e+00	79	38	0	265289728	54	5957
2026-01-07 20:35:53.60	49.00	10.68	-39.8	-41.0	21.6	0.00e+00	0	38	0	271581184	52	6404
2026-01-07 20:35:56.63	48.54	10.83	-39.7	-40.9	21.6	0.00e+00	90	38	0	276824064	52	6318
2026-01-07 20:35:59.66	48.08	10.99	-39.2	-40.3	21.8	0.00e+00	0	38	0	282066944	52	5897
2026-01-07 20:36:02.69	47.61	11.14	-38.8	-39.8	22.5	0.00e+00	0	38	0	288358400	50	6288
2026-01-07 20:36:05.72	47.13	11.29	-38.7	-39.7	22.6	0.00e+00	0	38	0	293601280	50	6191
2026-01-07 20:36:08.74	46.65	11.43	-38.8	-39.8	22.5	0.00e+00	70	38	0	299892736	50	6303
2026-01-07 20:36:11.77	46.17	11.58	-39.2	-40.3	22.1	0.00e+00	0	38	0	305135616	50	6627
2026-01-07 20:36:14.80	45.68	11.73	-38.9	-40.0	22.4	0.00e+00	0	38	0	310378496	50	6396
2026-01-07 20:36:17.83	45.18	11.87	-39.0	-40.0	22.3	0.00e+00	92	38	0	316669952	50	6408
2026-01-07 20:36:20.86	44.68	12.02	-38.6	-39.5	22.6	0.00e+00	67	38	0	321912832	50	6073
2026-01-07 20:36:23.89	44.18	12.16	-38.4	-39.3	22.9	0.00e+00	0	38	0	328204288	50	5916
2026-01-07 20:36:26.92	43.67	12.30	-38.5	-39.5	22.7	0.00e+00	24	38	0	333447168	50	6068
2026-01-07 20:36:29.94	43.15	12.44	-38.5	-39.5	22.7	0.00e+00	71	38	0	339738624	50	6079
2026-01-07 20:36:32.97	42.63	12.58	-38.6	-39.7	22.7	0.00e+00	0	38	0	344981504	50	6175
2026-01-07 20:36:36.00	42.11	12.72	-37.8	-38.7	23.2	0.00e+00	0	38	0	350224384	50	5560
2026-01-07 20:36:39.03	41.58	12.85	-37.5	-38.4	23.6	0.00e+00	0	38	0	356515840	48	6014
2026-01-07 20:36:42.06	41.04	12.98	-37.8	-38.7	23.4	0.00e+00	49	38	0	361758720	48	6201
2026-01-07 20:36:45.09	40.50	13.12	-38.0	-39.0	23.2	0.00e+00	0	38	0	368050176	48	6412
2026-01-07 20:36:48.12	39.96	13.25	-38.5	-39.6	22.5	0.00e+00	0	38	0	373293056	48	6850
2026-01-07 20:36:51.15	39.41	13.37	-38.8	-39.9	22.4	0.00e+00	66	38	0	378535936	50	6323
2026-01-07 20:36:54.18	38.86	13.50	-38.6	-39.6	22.7	0.00e+00	0	38	0	384827392	50	6145
2026-01-07 20:36:57.21	38.30	13.62	-38.7	-39.7	22.5	0.00e+00	0	38	0	390070272	50	6221
2026-01-07 20:37:00.24	37.74	13.74	-39.2	-40.3	22.1	0.00e+00	69	38	0	396361728	50	6642
2026-01-07 20:37:03.27	37.17	13.86	-38.5	-39.5	22.7	0.00e+00	0	38	0	401604608	50	6056
2026-01-07 20:37:06.30	36.59	13.98	-38.3	-39.2	23.0	0.00e+00	0	38	0	407896064	50	5861
2026-01-07 20:37:09.33	36.02	14.10	-37.9	-38.8	23.3	0.00e+00	0	38	0	413138944	50	5592
2026-01-07 20:37:12.36	35.44	14.21	-38.4	-39.4	22.8	0.00e+00	15	38	0	418381824	50	5977
2026-01-07 20:37:15.38	34.85	14.32	-38.2	-39.1	23.1	0.00e+00	0	38	0	424673280	50	5795
2026-01-07 20:37:18.41	34.26	14.43	-38.4	-39.4	22.9	0.00e+00	0	38	0	429916160	50	5975
2026-01-07 20:37:21.44	33.67	14.53	-38.4	-39.4	22.9	0.00e+00	65	38	0	436207616	50	5984
2026-01-07 20:37:24.46	33.07	14.63	-38.6	-39.6	22.7	0.00e+00	0	38	0	441450496	50	6144
2026-01-07 20:37:27.49	32.47	14.73	-38.3	-39.3	23.0	0.00e+00	0	38	0	446693376	50	5906
2026-01-07 20:37:30.52	31.86	14.83	-37.3	-38.2	23.7	0.00e+00	92	38	0	452984832	48	5864
2026-01-07 20:37:33.55	31.25	14.92	-37.5	-38.4	23.6	0.00e+00	0	38	0	458227712	48	5965
2026-01-07 20:37:36.58	30.63	15.01	-37.8	-38.7	23.4	0.00e+00	0	38	0	464519168	48	6182
2026-01-07 20:37:39.61	30.01	15.10	-37.9	-38.8	23.3	0.00e+00	0	38	0	469762048	48	6284
2026-01-07 20:37:42.63	29.39	15.19	-37.8	-38.6	23.4	0.00e+00	69	38	0	475004928	48	6167
2026-01-07 20:37:45.66	28.77	15.27	-38.6	-39.5	22.7	0.00e+00	0	38	0	481296384	48	6848
2026-01-07 20:37:48.69	28.14	15.35	-38.7	-39.7	22.6	0.00e+00	0	38	0	486539264	50	6231
2026-01-07 20:37:51.72	27.51	15.42	-38.8	-39.8	22.5	0.00e+00	92	38	0	492830720	50	6287
2026-01-07 20:37:54.75	26.87	15.49	-38.8	-39.8	22.4	0.00e+00	0	38	0	498073600	50	6310
2026-01-07 20:37:57.78	26.23	15.56	-38.3	-39.3	23.0	0.00e+00	0	38	0	504365056	50	5898
2026-01-07 20:38:00.81	25.59	15.63	-38.2	-39.1	23.1	0.00e+00	49	38	0	509607936	50	5816
2026-01-07 20:38:03.84	24.95	15.69	-38.1	-39.0	23.2	0.00e+00	0	38	0	514850816	50	5738
2026-01-07 20:38:06.87	24.30	15.75	-37.7	-38.6	23.5	0.00e+00	0	38	0	521142272	48	6122
2026-01-07 20:38:09.90	23.65	15.80	-37.8	-38.7	23.4	0.00e+00	0	38	0	526385152	48	6174
2026-01-07 20:38:12.93	23.00	15.85	-38.3	-39.2	23.1	0.00e+00	72	38	0	532676608	48	6573
2026-01-07 20:38:15.96	22.35	15.90	-38.7	-39.7	22.7	0.00e+00	0	38	0	537919488	48	6941
2026-01-07 20:38:18.99	21.69	15.94	-38.8	-39.8	22.5	0.00e+00	0	38	0	543162368	50	6256
2026-01-07 20:38:22.02	21.03	15.98	-39.1	-40.1	22.3	0.00e+00	40	38	0	549453824	50	6511
2026-01-07 20:38:25.05	20.37	16.02	-39.3	-40.4	22.1	0.00e+00	0	38	0	554696704	50	6704
2026-01-07 20:38:28.08	19.71	16.05	-38.8	-39.8	22.5	0.00e+00	0	38	0	560988160	50	6317
2026-01-07 20:38:31.11	19.05	16.08	-38.6	-39.6	22.7	0.00e+00	0	38	0	566231040	50	6140
2026-01-07 20:38:34.13	18.39	16.10	-38.4	-39.3	22.9	0.00e+00	0	38	0	572522496	50	5948
2026-01-07 20:38:37.16	17.73	16.12	-38.4	-39.4	22.9	0.00e+00	0	38	0	577765376	50	5987
2026-01-07 20:38:40.19	17.06	16.14	-38.1	-39.1	23.1	0.00e+00	33	39	0	583008256	50	5780
2026-01-07 20:38:43.22	16.39	16.15	-38.4	-39.3	22.8	0.00e+00	71	38	0	589299712	50	5943
2026-01-07 20:38:46.25	15.73	16.16	-38.8	-39.8	22.5	0.00e+00	0	39	0	594542592	50	6282
2026-01-07 20:38:49.28	15.06	16.17	-38.8	-39.7	22.7	0.00e+00	0	38	0	600834048	50	6243
2026-01-07 20:38:52.31	14.40	16.17	-38.0	-38.9	23.2	0.00e+00	76	38	0	606076928	50	5685
2026-01-07 20:38:55.34	13.73	16.17	-37.8	-38.7	23.5	0.00e+00	0	38	0	612368384	48	6177
2026-01-07 20:38:58.37	13.06	16.16	-38.4	-39.4	23.0	0.00e+00	0	38	0	617611264	48	6734
2026-01-07 20:39:01.40	12.40	16.15	-38.5	-39.5	22.7	0.00e+00	0	38	0	622854144	48	6815
2026-01-07 20:39:04.43	11.73	16.13	-39.0	-40.0	22.3	0.00e+00	65	38	0	629145600	50	6447
2026-01-07 20:39:07.45	11.07	16.12	-39.5	-40.6	21.9	0.00e+00	0	38	0	634388480	50	6877
2026-01-07 20:39:10.48	10.41	16.09	-39.2	-40.3	22.1	0.00e+00	0	39	0	640679936	50	6643
2026-01-07 20:39:13.51	9.74	16.07	-38.5	-39.5	22.7	0.00e+00	64	38	0	645922816	50	6077
2026-01-07 20:39:16.54	9.08	16.04	-38.6	-39.5	22.8	0.00e+00	0	38	0	651165696	50	6085
2026-01-07 20:39:19.57	8.42	16.00	-38.5	-39.5	22.8	0.00e+00	0	39	0	657457152	50	6083
2026-01-07 20:39:22.60	7.76	15.96	-38.7	-39.7	22.7	0.00e+00	88	38	0	662700032	50	6184
2026-01-07 20:39:25.63	7.11	15.92	-38.0	-38.9	23.3	0.00e+00	0	38	0	668991488	50	5675
2026-01-07 20:39:28.66	6.45	15.88	-37.6	-38.5	23.4	0.00e+00	0	38	0	674234368	48	6054
2026-01-07 20:39:31.69	5.80	15.83	-37.9	-38.8	23.1	0.00e+00	0	39	0	679477248	48	6270
2026-01-07 20:39:34.71	5.15	15.78	-38.1	-39.0	23.2	0.00e+00	71	38	0	685768704	48	6436
2026-01-07 20:39:37.74	4.50	15.72	-38.2	-39.2	22.9	0.00e+00	0	38	0	691011584	48	6572
2026-01-07 20:39:40.77	3.86	15.66	-38.2	-39.2	22.6	0.00e+00	0	38	0	697303040	48	6547
2026-01-07 20:39:43.80	3.22	15.60	-38.9	-40.0	22.4	0.00e+00	75	38	0	702545920	50	6391
2026-01-07 20:39:46.83	2.58	15.53	-38.4	-39.3	22.9	0.00e+00	0	38	0	708837376	50	5964
2026-01-07 20:39:49.86	1.94	15.46	-38.0	-38.9	23.5	0.00e+00	0	38	0	714080256	50	5657
2026-01-07 20:39:52.89	1.31	15.39	-37.6	-38.5	23.5	0.00e+00	92	38	0	719323136	48	6059
2026-01-07 20:39:55.91	0.68	15.31	-37.5	-38.3	23.7	0.00e+00	0	38	0	725614592	48	5935
2026-01-07 20:39:58.94	0.05	15.23	-38.0	-38.9	23.3	0.00e+00	0	38	0	730857472	48	6356
2026-01-07 20:40:01.97	359.43	15.15	-38.8	-39.7	22.9	0.00e+00	0	38	0	737148928	48	6972
2026-01-07 20:40:05.00	358.81	15.06	-38.8	-39.8	22.6	0.00e+00	0	38	0	742391808	50	6316
2026-01-07 20:40:08.03	358.19	14.97	-39.1	-40.1	22.4	0.00e+00	0	38	0	747634688	50	6530
2026-01-07 20:40:11.06	357.58	14.88	-39.7	-40.8	21.8	0.00e+00	0	38	0	753926144	52	6252
2026-01-07 20:40:14.09	356.97	14.78	-39.3	-40.4	22.2	0.00e+00	35	38	0	759169024	52	5976
2026-01-07 20:40:17.11	356.37	14.69	-38.8	-39.7	22.6	0.00e+00	0	38	0	765460480	50	6239
2026-01-07 20:40:20.14	355.77	14.59	-38.8	-39.8	22.7	0.00e+00	33	38	0	770703360	50	6283
2026-01-07 20:40:23.17	355.17	14.48	-38.6	-39.5	22.7	0.00e+00	90	38	0	776994816	50	6097
2026-01-07 20:40:26.20	354.58	14.38	-38.2	-39.1	23.0	0.00e+00	65	38	0	782237696	50	5820
2026-01-07 20:40:29.23	353.99	14.27	-37.9	-38.7	23.4	0.00e+00	0	38	0	787480576	48	6244
2026-01-07 20:40:32.26	353.41	14.16	-37.7	-38.6	23.3	0.00e+00	0	38	0	793772032	48	6167
2026-01-07 20:40:35.29	352.83	14.04	-38.0	-39.0	23.0	0.00e+00	72	38	0	799014912	48	6398
2026-01-07 20:40:38.32	352.26	13.93	-38.6	-39.6	22.6	0.00e+00	0	38	0	805306368	48	6908
2026-01-07 20:40:41.35	351.69	13.81	-39.8	-40.9	21.6	0.00e+00	0	38	0	810549248	52	6379
2026-01-07 20:40:44.38	351.12	13.69	-39.5	-40.6	22.0	0.00e+00	72	39	0	815792128	52	6127
2026-01-07 20:40:47.40	350.56	13.57	-39.2	-40.2	22.1	0.00e+00	0	39	0	822083584	52	5884
2026-01-07 20:40:50.43	350.01	13.44	-39.2	-40.3	22.1	0.00e+00	0	38	0	827326464	52	5914
2026-01-07 20:40:53.47	349.45	13.31	-39.4	-40.5	21.9	0.00e+00	3	38	0	833617920	52	6087
2026-01-07 20:40:56.49	348.91	13.19	-39.4	-40.5	21.9	0.00e+00	68	38	0	838860800	52	6066
2026-01-07 20:40:59.52	348.37	13.05	-39.2	-40.3	22.2	0.00e+00	0	38	0	845152256	52	5908
2026-01-07 20:41:02.55	347.83	12.92	-39.2	-40.3	22.1	0.00e+00	0	39	0	850395136	52	5900
2026-01-07 20:41:05.58	347.30	12.79	-38.4	-39.3	23.0	0.00e+00	72	38	0	855638016	50	5939
2026-01-07 20:41:08.61	346.77	12.65	-38.2	-39.1	23.0	0.00e+00	0	39	0	861929472	50	5772
2026-01-07 20:41:11.64	346.25	12.52	-38.7	-39.7	22.6	0.00e+00	0	39	0	867172352	50	6178
2026-01-07 20:41:14.67	345.74	12.38	-39.4	-40.4	22.0	0.00e+00	92	39	0	873463808	50	6768
2026-01-07 20:41:17.70	345.22	12.24	-39.4	-40.4	22.0	0.00e+00	0	39	0	878706688	50	6765
2026-01-07 20:41:20.72	344.72	12.09	-39.2	-40.2	22.1	0.00e+00	0	38	0	883949568	50	6596
2026-01-07 20:41:23.75	344.22	11.95	-40.0	-41.2	21.4	0.00e+00	0	38	0	890241024	52	6564
2026-01-07 20:41:26.78	343.72	11.81	-42.0	-43.6	19.2	0.00e+00	65	39	0	895483904	56	6880
2026-01-07 20:41:29.81	343.23	11.66	-42.8	-44.6	18.2	0.00e+00	0	38	0	901775360	58	6918
2026-01-07 20:41:32.84	342.74	11.51	-42.4	-44.2	18.6	0.00e+00	0	39	0	907018240	58	6545
2026-01-07 20:41:35.87	342.26	11.37	-41.8	-43.3	19.4	0.00e+00	69	38	0	913309696	56	6654
2026-01-07 20:41:38.89	341.78	11.22	-41.4	-42.8	19.9	0.00e+00	0	39	0	918552576	56	6274
2026-01-07 20:41:41.92	341.31	11.07	-40.5	-41.7	20.8	0.00e+00	0	39	0	923795456	54	6220
2026-01-07 20:41:44.95	340.85	10.92	-40.2	-41.4	21.0	0.00e+00	92	39	0	930086912	54	5990
2026-01-07 20:41:47.98	340.38	10.77	-40.4	-41.6	20.9	0.00e+00	0	38	0	935329792	54	6131
2026-01-07 20:41:51.01	339.93	10.61	-40.2	-41.4	20.9	0.00e+00	0	38	0	941621248	54	6005
2026-01-07 20:41:54.04	339.47	10.46	-39.9	-41.1	21.3	0.00e+00	0	39	0	946864128	54	5781
2026-01-07 20:41:57.06	339.03	10.31	-39.7	-40.8	21.6	0.00e+00	60	38	0	952107008	52	6269
2026-01-07 20:42:00.09	338.58	10.15	-39.8	-40.9	21.5	0.00e+00	0	38	0	958398464	52	6354
2026-01-07 20:42:03.12	338.15	10.00	-39.9	-41.0	21.4	0.00e+00	0	39	0	963641344	52	6425
2026-01-07 20:42:06.15	337.71	9.84	-40.2	-41.4	21.0	0.00e+00	73	39	0	969932800	52	6708
2026-01-07 20:42:09.18	337.28	9.68	-40.3	-41.6	20.8	0.00e+00	0	38	0	975175680	52	6854
2026-01-07 20:42:12.20	336.86	9.53	-39.9	-41.1	21.2	0.00e+00	0	39	0	981467136	52	6494
2026-01-07 20:42:15.23	336.44	9.37	-39.7	-40.9	21.4	0.00e+00	84	38	0	986710016	52	6355
2026-01-07 20:42:18.26	336.03	9.21	-39.7	-40.8	21.4	0.00e+00	0	38	0	991952896	52	6276
2026-01-07 20:42:21.29	335.62	9.05	-39.1	-40.2	22.0	0.00e+00	0	38	0	998244352	52	5837
2026-01-07 20:42:24.31	335.21	8.89	-38.4	-39.3	22.7	0.00e+00	0	38	0	1003487232	50	5954
2026-01-07 20:42:27.34	334.81	8.73	-38.4	-39.3	22.6	0.00e+00	67	38	0	1009778688	50	5958
2026-01-07 20:42:30.38	334.41	8.57	-38.6	-39.6	22.5	0.00e+00	0	38	0	1015021568	50	6117
2026-01-07 20:42:33.40	334.02	8.41	-38.7	-39.8	22.2	0.00e+00	0	38	0	1020264448	50	6248
2026-01-07 20:42:36.43	333.64	8.25	-38.7	-39.7	22.4	0.00e+00	92	38	0	1026555904	50	6191
2026-01-07 20:42:39.46	333.25	8.09	-38.5	-39.5	22.6	0.00e+00	0	38	0	1031798784	50	6048
2026-01-07 20:42:42.49	332.87	7.93	-38.6	-39.6	22.4	0.00e+00	0	39	0	1038090240	50	6165
2026-01-07 20:42:45.52	332.50	7.77	-39.0	-40.0	22.1	0.00e+00	92	39	0	1043333120	50	6441
2026-01-07 20:42:48.55	332.13	7.61	-39.1	-40.2	21.9	0.00e+00	0	39	0	1049624576	50	6584
2026-01-07 20:42:51.57	331.76	7.45	-39.3	-40.4	21.7	0.00e+00	0	38	0	1054867456	50	6742
2026-01-07 20:42:54.61	331.40	7.29	-39.5	-40.7	21.6	0.00e+00	0	39	0	1060110336	50	6937
2026-01-07 20:42:57.64	331.04	7.12	-39.6	-40.7	21.4	0.00e+00	63	39	0	1066401792	50	6986
2026-01-07 20:43:00.66	330.69	6.96	-39.4	-40.5	21.5	0.00e+00	0	38	0	1071644672	50	6837
2026-01-07 20:43:03.70	330.34	6.80	-39.0	-40.1	22.0	0.00e+00	0	38	0	1077936128	50	6472
2026-01-07 20:43:06.72	329.99	6.64	-39.0	-40.0	21.9	0.00e+00	92	39	0	1083179008	50	6459
2026-01-07 20:43:09.75	329.65	6.48	-38.7	-39.7	22.2	0.00e+00	0	38	0	1088421888	50	6236
2026-01-07 20:43:12.78	329.31	6.32	-39.0	-40.1	22.0	0.00e+00	0	39	0	1094713344	50	6503
2026-01-07 20:43:15.81	328.98	6.16	-39.5	-40.6	21.4	0.00e+00	11	38	0	1099956224	50	6855
2026-01-07 20:43:18.84	328.65	6.00	-40.1	-41.3	20.9	0.00e+00	66	38	0	1106247680	52	6671
2026-01-07 20:43:21.87	328.32	5.83	-40.3	-41.5	20.7	0.00e+00	0	39	0	1111490560	52	6801
2026-01-07 20:43:24.90	328.00	5.67	-39.9	-41.1	21.0	0.00e+00	0	38	0	1117782016	52	6508
2026-01-07 20:43:27.93	327.68	5.51	-39.7	-40.8	21.2	0.00e+00	20	38	0	1123024896	52	6314
2026-01-07 20:43:30.95	327.36	5.35	-39.2	-40.3	21.7	0.00e+00	0	38	0	1128267776	52	5913
2026-01-07 20:43:33.98	327.05	5.19	-39.4	-40.5	21.6	0.00e+00	0	38	0	1134559232	52	6066
2026-01-07 20:43:37.01	326.74	5.03	-39.6	-40.8	21.3	0.00e+00	33	39	0	1139802112	52	6247
2026-01-07 20:43:40.04	326.44	4.87	-40.2	-41.4	20.7	0.00e+00	0	39	0	1146093568	52	6724
2026-01-07 20:43:43.07	326.14	4.71	-40.6	-41.9	20.2	0.00e+00	0	39	0	1151336448	52	7160
2026-01-07 20:43:46.10	325.84	4.55	-41.0	-42.4	19.6	0.00e+00	0	39	0	1156579328	54	6718
2026-01-07 20:43:49.13	325.54	4.39	-41.4	-42.9	19.3	0.00e+00	63	39	0	1162870784	54	7094
2026-01-07 20:43:52.16	325.25	4.23	-41.1	-42.6	19.4	0.00e+00	0	38	0	1168113664	54	6883
2026-01-07 20:43:55.19	324.96	4.07	-41.1	-42.5	19.6	0.00e+00	0	39	0	1174405120	54	6811
2026-01-07 20:43:58.21	324.68	3.92	-41.1	-42.6	19.4	0.00e+00	63	38	0	1179648000	54	6897
2026-01-07 20:44:01.24	324.40	3.76	-41.5	-43.1	19.0	0.00e+00	0	38	0	1185939456	54	7300
2026-01-07 20:44:04.27	324.12	3.60	-42.0	-43.7	18.3	0.00e+00	0	39	0	1191182336	56	7003
2026-01-07 20:44:07.30	323.84	3.44	-42.4	-44.3	17.8	0.00e+00	84	38	0	1196425216	56	7432
2026-01-07 20:44:10.33	323.57	3.28	-42.3	-44.2	17.8	0.00e+00	0	38	0	1202716672	56	7352
2026-01-07 20:44:13.36	323.30	3.13	-42.1	-43.9	18.1	0.00e+00	0	39	0	1207959552	56	7089
2026-01-07 20:44:16.39	323.03	2.97	-48.7	-63.9	3.6	1.51e+00	0	39	104	1212153856	60	56541
2026-01-07 20:44:19.41	322.77	2.81	-49.4	-64.5	3.6	1.51e+00	0	39	104	1212153856	60	60985
2026-01-07 20:44:22.44	322.51	2.66	-49.5	-64.7	3.6	1.51e+00	0	39	104	1212153856	60	62113
2026-01-07 20:44:25.47	322.25	2.50	-49.4	-64.7	3.6	1.51e+00	0	39	104	1212153856	60	62279
2026-01-07 20:44:28.50	321.99	2.34	-49.4	-64.7	3.6	1.51e+00	0	39	104	1212153856	60	61816
2026-01-07 20:44:31.53	321.74	2.19	-49.4	-64.6	3.6	1.51e+00	0	39	104	1212153856	60	61622
2026-01-07 20:44:34.56	321.49	2.03	-49.4	-64.6	3.6	1.51e+00	0	39	104	1212153856	60	61721
2026-01-07 20:44:37.58	321.25	1.88	-49.4	-64.6	3.6	1.51e+00	0	39	104	1212153856	60	61568
2026-01-07 20:44:40.61	321.00	1.73	-49.4	-64.7	3.6	1.51e+00	0	39	104	1212153856	60	61765
2026-01-07 20:44:43.64	320.76	1.57	-49.4	-64.6	3.6	1.51e+00	0	39	104	1212153856	60	61434
2026-01-07 20:44:46.67	320.52	1.42	-49.4	-64.6	3.6	1.51e+00	0	39	104	1212153856	60	61314
2026-01-07 20:44:49.70	320.28	1.26	-49.4	-64.6	3.6	1.51e+00	0	39	104	1212153856	60	61596
2026-01-07 20:44:52.73	320.05	1.11	-49.4	-64.6	3.6	1.51e+00	0	39	104	1212153856	60	61593
2026-01-07 20:44:55.76	319.82	0.96	-49.4	-64.6	3.6	1.51e+00	0	39	104	1212153856	60	61262
2026-01-07 20:44:58.79	319.59	0.81	-49.4	-64.6	3.6	1.51e+00	0	39	104	1212153856	60	61202
2026-01-07 20:45:01.82	319.36	0.65	-49.4	-64.6	3.6	1.51e+00	0	39	104	1212153856	60	61625
2026-01-07 20:45:04.84	319.14	0.50	-49.4	-64.6	3.6	1.51e+00	0	39	104	1212153856	60	61197
2026-01-07 20:45:07.87	318.92	0.35	-49.4	-64.6	3.6	1.51e+00	0	39	104	1212153856	60	61161
2026-01-07 20:45:10.90	318.70	0.20	-49.4	-64.5	3.6	1.51e+00	0	39	104	1212153856	60	60955
2026-01-07 20:45:13.93	318.48	0.05	-49.4	-64.6	3.6	1.51e+00	0	39	104	1212153856	60	61257

#Closed at: 2026-01-07 20:45:16
#Recorded file [1212 MB]: D:/lorett/data/35029_260108_083230.dat