passes_logs/2026/01/07/R4.6S_Anadyr/R4.6S_Anadyr__20260107_155518_NOAA_20_JPSS-1_rec.log

#Pass ID: 20260107_155518_NOAA 20 (JPSS-1)
#Satellite: NOAA 20 (JPSS-1)
#Configuration: NOAA 20
#almurnet v.1.7.20251203
#Start time: 2026-01-07 15:55:20

#Version: 2.2.20231116
#Station: R4.6S_Anadyr
#Location: 177.4865 lon 64.73178 lat
#TLE: 1 43013U 17073A   26005.46207808  .00000128  00000+0  81791-4 0  9997
#TLE: 2 43013  98.7627 306.5027 0001826  53.0458 307.0885 14.19533487421381

#Time	Az	El	Level	Level2	SNR	BER	BlckErr	Temp	State	Recorded	gain1	gain2
2026-01-07 15:55:20.32	23.90	0.11	-49.3	-64.2	3.5	1.51e+00	0	35	0	0	60	58840
2026-01-07 15:55:24.36	23.79	0.34	-49.2	-64.5	3.6	1.51e+00	0	37	104	0	60	60588
2026-01-07 15:55:28.40	23.68	0.58	-49.3	-64.5	3.6	1.51e+00	0	37	104	0	60	60650
2026-01-07 15:55:32.44	23.56	0.82	-48.8	-64.0	3.6	1.51e+00	0	37	104	0	60	57413
2026-01-07 15:55:36.47	23.44	1.07	-47.9	-63.0	3.6	1.51e+00	0	37	104	0	60	50908
2026-01-07 15:55:40.51	23.32	1.31	-47.9	-63.1	3.6	1.51e+00	0	37	104	0	60	51477
2026-01-07 15:55:44.55	23.20	1.56	-47.9	-63.0	3.6	1.51e+00	0	37	104	0	60	51138
2026-01-07 15:55:48.59	23.07	1.80	-47.9	-62.9	3.6	1.51e+00	0	37	104	0	60	50716
2026-01-07 15:55:52.63	22.94	2.05	-47.8	-62.7	3.6	1.51e+00	0	37	104	0	60	49212
2026-01-07 15:55:56.66	22.81	2.31	-47.9	-63.0	3.6	1.51e+00	0	37	104	0	60	51344
2026-01-07 15:56:00.70	22.68	2.56	-47.8	-62.9	3.6	1.51e+00	0	37	104	0	60	50192
2026-01-07 15:56:04.74	22.54	2.82	-47.8	-62.0	3.6	1.51e+00	0	37	104	0	60	45561
2026-01-07 15:56:08.78	22.40	3.07	-47.8	-62.6	3.6	1.51e+00	0	37	104	0	60	48833
2026-01-07 15:56:12.82	22.26	3.33	-47.5	-57.2	4.6	1.03e+00	79	37	0	0	60	26222
2026-01-07 15:56:16.86	22.12	3.60	-46.5	-51.8	9.8	1.23e-02	2	37	0	7340032	60	13993
2026-01-07 15:56:20.90	21.97	3.86	-46.9	-54.1	6.4	1.50e+00	54	37	104	11534336	60	18281
2026-01-07 15:56:24.94	21.82	4.13	-40.7	-42.1	20.1	0.00e+00	13	37	0	13631488	56	5776
2026-01-07 15:56:28.97	21.67	4.40	-40.2	-41.5	20.6	0.00e+00	6	37	0	20971520	54	6068
2026-01-07 15:56:33.01	21.51	4.67	-40.0	-41.2	21.0	0.00e+00	92	37	0	28311552	54	5850
2026-01-07 15:56:37.05	21.35	4.95	-39.8	-41.0	21.1	0.00e+00	0	37	0	36700160	54	5741
2026-01-07 15:56:41.09	21.19	5.23	-39.9	-41.1	21.1	0.00e+00	0	37	0	44040192	54	5813
2026-01-07 15:56:45.13	21.02	5.51	-39.9	-41.0	21.2	0.00e+00	0	37	0	51380224	52	6443
2026-01-07 15:56:49.17	20.85	5.79	-39.8	-41.0	21.3	0.00e+00	92	37	0	58720256	52	6405
2026-01-07 15:56:53.21	20.68	6.08	-39.7	-40.8	21.5	0.00e+00	69	37	0	66060288	52	6315
2026-01-07 15:56:57.24	20.50	6.37	-39.9	-41.0	21.4	0.00e+00	0	37	0	74448896	52	6451
2026-01-07 15:57:01.27	20.32	6.66	-39.8	-41.0	21.6	0.00e+00	68	37	0	81788928	52	6403
2026-01-07 15:57:05.31	20.14	6.95	-39.7	-40.8	21.5	0.00e+00	92	37	0	89128960	52	6310
2026-01-07 15:57:09.35	19.95	7.25	-39.7	-40.8	21.6	0.00e+00	9	37	0	96468992	52	6308
2026-01-07 15:57:13.39	19.75	7.55	-39.7	-40.8	21.8	0.00e+00	9	37	0	104857600	52	6290
2026-01-07 15:57:17.42	19.55	7.86	-39.7	-40.8	21.8	0.00e+00	11	37	0	112197632	52	6273
2026-01-07 15:57:21.46	19.35	8.16	-39.6	-40.7	21.8	0.00e+00	91	38	0	119537664	52	6190
2026-01-07 15:57:25.50	19.14	8.47	-39.5	-40.5	22.0	0.00e+00	0	38	0	126877696	52	6094
2026-01-07 15:57:29.54	18.93	8.79	-39.5	-40.6	22.0	0.00e+00	14	38	0	134217728	52	6106
2026-01-07 15:57:33.58	18.71	9.11	-39.3	-40.3	22.3	0.00e+00	0	38	0	142606336	52	5964
2026-01-07 15:57:37.61	18.49	9.43	-39.2	-40.2	22.4	0.00e+00	92	38	0	149946368	52	5846
2026-01-07 15:57:41.65	18.27	9.76	-39.0	-40.0	22.6	0.00e+00	0	38	0	157286400	52	5737
2026-01-07 15:57:45.69	18.03	10.08	-39.1	-40.1	22.5	0.00e+00	6	38	0	164626432	52	5808
2026-01-07 15:57:49.73	17.79	10.42	-38.9	-39.9	22.7	0.00e+00	0	38	0	171966464	52	5691
2026-01-07 15:57:53.77	17.55	10.76	-39.0	-39.9	22.7	0.00e+00	59	38	0	180355072	52	5690
2026-01-07 15:57:57.80	17.30	11.10	-38.9	-39.9	22.8	0.00e+00	15	38	0	187695104	52	5633
2026-01-07 15:58:01.84	17.04	11.44	-38.8	-39.8	22.9	0.00e+00	0	38	0	195035136	50	6249
2026-01-07 15:58:05.88	16.78	11.79	-38.7	-39.6	23.0	0.00e+00	92	38	0	202375168	50	6148
2026-01-07 15:58:09.91	16.51	12.15	-38.5	-39.5	23.1	0.00e+00	8	37	0	210763776	50	6054
2026-01-07 15:58:13.95	16.23	12.51	-38.6	-39.5	23.0	0.00e+00	16	38	0	218103808	50	6098
2026-01-07 15:58:17.99	15.94	12.87	-38.5	-39.5	23.2	0.00e+00	10	38	0	225443840	50	6050
2026-01-07 15:58:22.03	15.65	13.24	-38.2	-39.1	23.5	0.00e+00	92	38	0	232783872	50	5777
2026-01-07 15:58:26.07	15.35	13.61	-38.2	-39.1	23.5	0.00e+00	71	37	0	240123904	50	5816
2026-01-07 15:58:30.10	15.04	13.99	-38.2	-39.1	23.6	0.00e+00	0	38	0	248512512	50	5781
2026-01-07 15:58:34.14	14.72	14.37	-38.3	-39.2	23.5	0.00e+00	2	38	0	255852544	50	5844
2026-01-07 15:58:38.18	14.40	14.76	-38.2	-39.1	23.5	0.00e+00	92	38	0	263192576	50	5801
2026-01-07 15:58:42.22	14.06	15.16	-38.2	-39.1	23.7	0.00e+00	10	38	0	270532608	50	5785
2026-01-07 15:58:46.26	13.72	15.56	-38.3	-39.2	23.5	0.00e+00	0	38	0	278921216	50	5837
2026-01-07 15:58:50.30	13.36	15.96	-38.4	-39.3	23.5	0.00e+00	0	38	0	286261248	50	5948
2026-01-07 15:58:54.34	13.00	16.37	-38.5	-39.4	23.3	0.00e+00	90	38	0	293601280	50	5998
2026-01-07 15:58:58.37	12.63	16.79	-38.3	-39.2	23.5	0.00e+00	0	38	0	300941312	50	5885
2026-01-07 15:59:02.41	12.24	17.21	-38.5	-39.4	23.5	0.00e+00	64	38	0	308281344	50	5979
2026-01-07 15:59:06.45	11.84	17.64	-38.6	-39.6	23.2	0.00e+00	0	38	0	316669952	50	6113
2026-01-07 15:59:10.49	11.43	18.07	-38.7	-39.7	23.2	0.00e+00	91	38	0	324009984	50	6175
2026-01-07 15:59:14.53	11.01	18.51	-38.8	-39.7	23.2	0.00e+00	2	38	0	331350016	50	6214
2026-01-07 15:59:18.57	10.58	18.96	-38.6	-39.5	23.3	0.00e+00	17	38	0	338690048	50	6051
2026-01-07 15:59:22.61	10.13	19.41	-38.9	-39.8	23.1	0.00e+00	16	38	0	347078656	50	6293
2026-01-07 15:59:26.64	9.67	19.87	-38.7	-39.7	23.0	0.00e+00	92	38	0	354418688	50	6183
2026-01-07 15:59:30.68	9.19	20.34	-38.6	-39.6	23.3	0.00e+00	0	38	0	361758720	50	6108
2026-01-07 15:59:34.72	8.70	20.81	-38.8	-39.7	23.2	0.00e+00	5	38	0	369098752	50	6233
2026-01-07 15:59:38.76	8.19	21.29	-38.8	-39.8	23.2	0.00e+00	91	38	0	376438784	50	6263
2026-01-07 15:59:42.80	7.67	21.78	-38.8	-39.7	23.2	0.00e+00	17	38	0	384827392	50	6231
2026-01-07 15:59:46.84	7.13	22.27	-38.6	-39.5	23.4	0.00e+00	1	38	0	392167424	50	6070
2026-01-07 15:59:50.87	6.57	22.77	-38.7	-39.6	23.1	0.00e+00	3	38	0	399507456	50	6171
2026-01-07 15:59:54.91	5.99	23.27	-38.9	-39.8	23.2	0.00e+00	92	38	0	406847488	50	6272
2026-01-07 15:59:58.95	5.39	23.79	-38.8	-39.7	23.3	0.00e+00	19	38	0	415236096	50	6196
2026-01-07 16:00:02.98	4.78	24.30	-38.8	-39.8	23.2	0.00e+00	6	38	0	422576128	50	6247
2026-01-07 16:00:07.02	4.14	24.83	-38.9	-39.9	23.2	0.00e+00	17	38	0	429916160	50	6321
2026-01-07 16:00:11.06	3.48	25.36	-39.0	-40.0	23.0	0.00e+00	92	38	0	437256192	50	6408
2026-01-07 16:00:15.10	2.79	25.90	-38.9	-39.9	23.1	0.00e+00	0	38	0	444596224	50	6331
2026-01-07 16:00:19.14	2.08	26.45	-38.9	-39.8	23.3	0.00e+00	0	38	0	452984832	50	6270
2026-01-07 16:00:23.18	1.35	27.00	-38.9	-39.9	23.1	0.00e+00	0	38	0	460324864	50	6323
2026-01-07 16:00:27.22	0.58	27.56	-39.0	-39.9	23.0	0.00e+00	91	38	0	467664896	50	6358
2026-01-07 16:00:31.26	359.80	28.12	-39.1	-40.1	22.9	0.00e+00	62	38	0	475004928	50	6468
2026-01-07 16:00:35.30	358.98	28.69	-39.6	-40.6	22.5	0.00e+00	0	38	0	483393536	50	6871
2026-01-07 16:00:39.34	358.13	29.26	-40.5	-41.6	21.6	0.00e+00	0	38	0	490733568	52	6878
2026-01-07 16:00:43.38	357.25	29.84	-41.0	-42.2	20.9	0.00e+00	92	38	0	498073600	54	6583
2026-01-07 16:00:47.42	356.34	30.42	-41.9	-43.3	20.1	0.00e+00	63	38	0	505413632	56	6688
2026-01-07 16:00:51.46	355.39	31.00	-42.7	-44.2	19.2	0.00e+00	0	38	0	512753664	56	7403
2026-01-07 16:00:55.50	354.41	31.59	-42.3	-43.8	19.6	0.00e+00	0	38	0	521142272	58	6264
2026-01-07 16:00:59.54	353.39	32.18	-41.8	-43.2	20.1	0.00e+00	0	38	0	528482304	56	6593
2026-01-07 16:01:03.58	352.34	32.77	-42.3	-43.8	19.6	0.00e+00	64	38	0	535822336	56	7056
2026-01-07 16:01:07.62	351.24	33.36	-42.3	-43.7	19.8	0.00e+00	0	38	0	543162368	56	6971
2026-01-07 16:01:11.66	350.10	33.95	-41.8	-43.2	20.2	0.00e+00	92	38	0	551550976	56	6581
2026-01-07 16:01:15.70	348.93	34.54	-41.1	-42.4	20.9	0.00e+00	0	38	0	558891008	56	5995
2026-01-07 16:01:19.74	347.70	35.12	-40.6	-41.7	21.5	0.00e+00	18	38	0	566231040	54	6238
2026-01-07 16:01:23.78	346.44	35.70	-40.2	-41.3	21.9	0.00e+00	20	38	0	573571072	54	5932
2026-01-07 16:01:27.82	345.12	36.27	-40.0	-41.1	22.1	0.00e+00	92	38	0	580911104	54	5780
2026-01-07 16:01:31.86	343.76	36.83	-40.9	-42.1	21.4	0.00e+00	6	38	0	589299712	54	6492
2026-01-07 16:01:35.90	342.35	37.39	-40.4	-41.5	21.6	0.00e+00	6	38	0	596639744	54	6048
2026-01-07 16:01:39.94	340.90	37.93	-40.2	-41.3	22.0	0.00e+00	14	38	0	603979776	54	5913
2026-01-07 16:01:43.98	339.39	38.46	-40.5	-41.6	21.6	0.00e+00	92	38	0	611319808	54	6134
2026-01-07 16:01:48.02	337.83	38.98	-40.3	-41.4	21.8	0.00e+00	19	38	0	619708416	54	6016
2026-01-07 16:01:52.06	336.23	39.47	-39.7	-40.8	22.3	0.00e+00	0	38	0	627048448	52	6260
2026-01-07 16:01:56.10	334.57	39.95	-39.3	-40.3	22.9	0.00e+00	0	38	0	634388480	52	5944
2026-01-07 16:02:00.14	332.87	40.41	-38.3	-39.2	23.8	0.00e+00	90	38	0	641728512	50	5879
2026-01-07 16:02:04.17	331.12	40.84	-38.5	-39.4	23.6	0.00e+00	0	38	0	649068544	50	6022
2026-01-07 16:02:08.21	329.33	41.24	-38.7	-39.6	23.4	0.00e+00	65	38	0	657457152	50	6156
2026-01-07 16:02:12.25	327.48	41.62	-39.6	-40.6	22.6	0.00e+00	76	38	0	664797184	50	6900
2026-01-07 16:02:16.29	325.60	41.97	-38.0	-38.9	24.1	0.00e+00	92	38	0	672137216	50	5652
2026-01-07 16:02:20.33	323.68	42.28	-38.2	-39.1	23.9	0.00e+00	0	38	0	679477248	50	5780
2026-01-07 16:02:24.37	321.72	42.56	-38.4	-39.2	23.8	0.00e+00	21	38	0	687865856	50	5886
2026-01-07 16:02:28.42	319.72	42.80	-38.0	-38.9	24.1	0.00e+00	0	38	0	695205888	50	5655
2026-01-07 16:02:32.46	317.70	43.01	-38.5	-39.4	23.8	0.00e+00	75	38	0	702545920	48	6756
2026-01-07 16:02:36.50	315.66	43.17	-38.0	-38.9	24.2	0.00e+00	0	38	0	709885952	50	5635
2026-01-07 16:02:40.54	313.60	43.30	-38.6	-39.4	23.6	0.00e+00	0	38	0	718274560	50	6032
2026-01-07 16:02:44.58	311.52	43.38	-39.1	-40.1	23.1	0.00e+00	90	38	0	725614592	50	6500
2026-01-07 16:02:48.61	309.44	43.42	-39.3	-40.3	22.9	0.00e+00	60	38	0	732954624	50	6664
2026-01-07 16:02:52.65	307.36	43.41	-39.1	-40.1	22.8	0.00e+00	4	38	0	740294656	50	6482
2026-01-07 16:02:56.69	305.27	43.37	-40.4	-41.5	21.9	0.00e+00	0	38	0	747634688	52	6809
2026-01-07 16:03:00.73	303.20	43.28	-40.9	-42.1	21.1	0.00e+00	92	38	0	756023296	54	6519
2026-01-07 16:03:04.77	301.14	43.15	-41.0	-42.2	21.1	0.00e+00	20	38	0	763363328	54	6598
2026-01-07 16:03:08.81	299.10	42.98	-41.7	-43.0	20.4	0.00e+00	72	38	0	770703360	54	7202
2026-01-07 16:03:12.84	297.08	42.77	-42.0	-43.3	20.2	0.00e+00	4	38	0	778043392	56	6643
2026-01-07 16:03:16.89	295.09	42.52	-42.3	-43.8	19.8	0.00e+00	88	38	0	786432000	56	7035
2026-01-07 16:03:20.93	293.13	42.24	-41.5	-42.8	20.7	0.00e+00	6	38	0	793772032	56	6254
2026-01-07 16:03:24.97	291.21	41.92	-40.8	-42.0	21.3	0.00e+00	4	38	0	801112064	54	6415
2026-01-07 16:03:29.01	289.33	41.57	-40.3	-41.4	21.9	0.00e+00	61	38	0	808452096	54	5999
2026-01-07 16:03:33.04	287.50	41.19	-39.6	-40.6	22.7	0.00e+00	92	38	0	815792128	52	6110
2026-01-07 16:03:37.08	285.71	40.78	-39.2	-40.2	22.9	0.00e+00	0	38	0	824180736	52	5854
2026-01-07 16:03:41.11	283.96	40.34	-38.5	-39.4	23.5	0.00e+00	2	38	0	831520768	52	5340
2026-01-07 16:03:45.15	282.26	39.88	-38.4	-39.3	24.0	0.00e+00	0	38	0	838860800	50	5924
2026-01-07 16:03:49.19	280.61	39.40	-36.5	-37.3	25.5	0.00e+00	90	38	0	846200832	46	5903
2026-01-07 16:03:53.23	279.01	38.90	-36.7	-37.5	25.4	0.00e+00	61	38	0	853540864	46	6050
2026-01-07 16:03:57.27	277.46	38.38	-36.8	-37.6	25.3	0.00e+00	2	38	0	861929472	46	6106
2026-01-07 16:04:01.31	275.96	37.85	-37.1	-37.9	25.0	0.00e+00	0	38	0	869269504	46	6351
2026-01-07 16:04:05.34	274.51	37.30	-37.5	-38.4	24.6	0.00e+00	79	38	0	876609536	46	6698
2026-01-07 16:04:09.38	273.10	36.74	-37.7	-38.5	24.4	0.00e+00	13	38	0	883949568	46	6808
2026-01-07 16:04:13.42	271.75	36.18	-38.1	-38.9	24.0	0.00e+00	14	38	0	892338176	48	6389
2026-01-07 16:04:17.46	270.44	35.60	-38.8	-39.7	23.4	0.00e+00	8	38	0	899678208	50	6245
2026-01-07 16:04:21.50	269.17	35.02	-39.2	-40.2	23.0	0.00e+00	54	38	0	907018240	50	6559
2026-01-07 16:04:25.54	267.95	34.43	-39.5	-40.5	22.6	0.00e+00	17	38	0	914358272	50	6828
2026-01-07 16:04:29.58	266.78	33.85	-40.2	-41.3	21.9	0.00e+00	0	38	0	921698304	52	6657
2026-01-07 16:04:33.62	265.64	33.25	-41.0	-42.2	21.2	0.00e+00	92	38	0	930086912	54	6567
2026-01-07 16:04:37.65	264.55	32.66	-41.1	-42.3	21.1	0.00e+00	0	38	0	937426944	54	6640
2026-01-07 16:04:41.69	263.50	32.07	-41.3	-42.6	20.7	0.00e+00	0	38	0	944766976	54	6877
2026-01-07 16:04:45.73	262.48	31.48	-41.0	-42.2	21.0	0.00e+00	0	38	0	952107008	54	6555
2026-01-07 16:04:49.76	261.51	30.90	-41.1	-42.2	21.0	0.00e+00	92	38	0	960495616	54	6614
2026-01-07 16:04:53.80	260.56	30.31	-40.5	-41.6	21.6	0.00e+00	71	38	0	967835648	54	6155
2026-01-07 16:04:57.84	259.65	29.73	-40.1	-41.2	21.9	0.00e+00	2	38	0	975175680	54	5840
2026-01-07 16:05:01.87	258.78	29.15	-39.8	-40.8	22.4	0.00e+00	68	38	0	982515712	54	5587
2026-01-07 16:05:05.91	257.93	28.58	-39.4	-40.4	22.7	0.00e+00	92	38	0	989855744	52	6002
2026-01-07 16:05:09.95	257.11	28.01	-39.3	-40.3	22.7	0.00e+00	7	38	0	998244352	52	5917
2026-01-07 16:05:13.98	256.33	27.44	-39.4	-40.4	22.8	0.00e+00	12	38	0	1005584384	52	5988
2026-01-07 16:05:18.02	255.57	26.89	-39.0	-39.9	23.2	0.00e+00	15	38	0	1012924416	52	5676
2026-01-07 16:05:22.06	254.83	26.33	-39.6	-40.6	22.6	0.00e+00	92	38	0	1020264448	52	6104
2026-01-07 16:05:26.10	254.13	25.79	-39.6	-40.6	22.5	0.00e+00	0	38	0	1028653056	52	6162
2026-01-07 16:05:30.14	253.44	25.25	-39.2	-40.2	22.9	0.00e+00	11	38	0	1035993088	52	5837
2026-01-07 16:05:34.18	252.78	24.71	-39.7	-40.7	22.5	0.00e+00	0	38	0	1043333120	52	6199
2026-01-07 16:05:38.22	252.14	24.19	-40.2	-41.3	21.8	0.00e+00	90	38	0	1050673152	52	6647
2026-01-07 16:05:42.26	251.52	23.67	-39.8	-40.9	22.3	0.00e+00	0	38	0	1058013184	52	6330
2026-01-07 16:05:46.29	250.93	23.15	-39.5	-40.5	22.6	0.00e+00	0	38	0	1066401792	52	6057
2026-01-07 16:05:50.33	250.35	22.65	-39.5	-40.5	22.6	0.00e+00	77	38	0	1073741824	52	6040
2026-01-07 16:05:54.37	249.79	22.15	-39.7	-40.8	22.3	0.00e+00	59	38	0	1081081856	52	6255
2026-01-07 16:05:58.41	249.25	21.65	-39.9	-40.9	22.2	0.00e+00	66	38	0	1088421888	52	6366
2026-01-07 16:06:02.44	248.72	21.17	-39.9	-40.9	22.2	0.00e+00	0	38	0	1096810496	52	6354
2026-01-07 16:06:06.48	248.22	20.69	-39.5	-40.6	22.6	0.00e+00	92	38	0	1104150528	52	6113
2026-01-07 16:06:10.52	247.72	20.22	-39.6	-40.6	22.4	0.00e+00	0	38	0	1111490560	52	6157
2026-01-07 16:06:14.56	247.25	19.75	-39.6	-40.6	22.4	0.00e+00	2	38	0	1118830592	52	6152
2026-01-07 16:06:18.60	246.79	19.29	-39.8	-40.8	22.3	0.00e+00	2	38	0	1126170624	52	6278
2026-01-07 16:06:22.63	246.34	18.84	-39.7	-40.7	22.3	0.00e+00	92	38	0	1134559232	52	6216
2026-01-07 16:06:26.67	245.90	18.39	-39.4	-40.5	22.6	0.00e+00	0	38	0	1141899264	52	6035
2026-01-07 16:06:30.71	245.48	17.95	-39.4	-40.4	22.6	0.00e+00	8	38	0	1149239296	52	6005
2026-01-07 16:06:34.75	245.07	17.51	-39.3	-40.3	22.7	0.00e+00	14	38	0	1156579328	52	5930
2026-01-07 16:06:38.79	244.67	17.09	-39.6	-40.6	22.4	0.00e+00	91	38	0	1164967936	52	6141
2026-01-07 16:06:42.83	244.29	16.66	-39.8	-40.9	22.2	0.00e+00	92	38	0	1172307968	52	6335
2026-01-07 16:06:46.86	243.91	16.25	-40.0	-41.1	21.9	0.00e+00	0	38	0	1179648000	52	6482
2026-01-07 16:06:50.90	243.55	15.84	-39.9	-40.9	22.1	0.00e+00	0	38	0	1186988032	52	6362
2026-01-07 16:06:54.94	243.19	15.43	-39.8	-40.9	22.1	0.00e+00	92	38	0	1194328064	52	6352
2026-01-07 16:06:58.98	242.84	15.03	-39.9	-41.0	21.9	0.00e+00	13	38	0	1202716672	52	6405
2026-01-07 16:07:03.02	242.51	14.64	-40.1	-41.2	21.8	0.00e+00	70	38	0	1210056704	52	6555
2026-01-07 16:07:07.05	242.18	14.25	-40.4	-41.6	21.4	0.00e+00	80	38	0	1217396736	52	6874
2026-01-07 16:07:11.09	241.86	13.87	-40.6	-41.8	21.1	0.00e+00	92	38	0	1224736768	52	7061
2026-01-07 16:07:15.13	241.55	13.49	-40.9	-42.1	20.7	0.00e+00	0	38	0	1232076800	54	6527
2026-01-07 16:07:19.17	241.25	13.11	-41.0	-42.3	20.5	0.00e+00	0	38	0	1240465408	54	6679
2026-01-07 16:07:23.20	240.96	12.74	-41.5	-42.8	20.0	0.00e+00	0	38	0	1247805440	54	7080
2026-01-07 16:07:27.24	240.67	12.38	-41.8	-43.3	19.6	0.00e+00	92	38	0	1255145472	56	6638
2026-01-07 16:07:31.28	240.39	12.02	-42.2	-43.7	19.0	0.00e+00	0	38	0	1262485504	56	6972
2026-01-07 16:07:35.32	240.12	11.67	-42.5	-44.2	18.6	0.00e+00	0	38	0	1270874112	56	7356
2026-01-07 16:07:39.35	239.85	11.32	-42.6	-44.3	18.4	0.00e+00	92	38	0	1278214144	56	7472
2026-01-07 16:07:43.39	239.60	10.97	-42.9	-44.7	18.0	0.00e+00	87	38	0	1285554176	58	6959
2026-01-07 16:07:47.43	239.34	10.63	-43.2	-45.1	17.5	0.00e+00	2	38	0	1292894208	58	7327
2026-01-07 16:07:51.47	239.10	10.29	-43.6	-45.6	17.0	0.00e+00	70	38	0	1300234240	58	7765
2026-01-07 16:07:55.51	238.85	9.96	-44.1	-46.4	16.2	0.00e+00	90	38	0	1308622848	60	7594
2026-01-07 16:07:59.55	238.62	9.63	-44.7	-47.4	15.2	0.00e+00	9	38	0	1315962880	60	8438
2026-01-07 16:08:03.59	238.39	9.30	-45.1	-48.0	14.5	7.00e-07	0	38	0	1323302912	60	9090
2026-01-07 16:08:07.63	238.16	8.98	-45.5	-48.9	13.6	5.30e-06	78	38	0	1330642944	60	10063
2026-01-07 16:08:11.66	237.95	8.66	-45.8	-49.4	12.9	2.59e-05	92	38	0	1339031552	60	10679
2026-01-07 16:08:15.71	237.73	8.34	-46.0	-49.9	12.4	1.06e-04	6	38	0	1346371584	60	11334
2026-01-07 16:08:19.74	237.52	8.03	-46.3	-50.7	11.5	6.54e-04	7	38	0	1353711616	60	12341
2026-01-07 16:08:23.78	237.32	7.73	-46.5	-51.3	10.7	2.46e-03	7	38	0	1361051648	60	13288
2026-01-07 16:08:27.82	237.12	7.42	-46.8	-52.1	9.8	8.53e-03	92	38	0	1368391680	60	14478
2026-01-07 16:08:31.85	236.92	7.12	-47.0	-52.9	8.8	2.64e-02	0	38	0	1376780288	60	15886
2026-01-07 16:08:35.89	236.73	6.82	-47.2	-53.7	7.8	7.19e-02	7	38	0	1384120320	60	17515
2026-01-07 16:08:39.93	236.54	6.53	-47.4	-54.7	6.6	1.80e-01	0	38	0	1391460352	60	19556
2026-01-07 16:08:43.96	236.36	6.24	-47.5	-55.4	5.7	3.52e-01	92	38	0	1398800384	60	21271
2026-01-07 16:08:48.00	236.18	5.95	-47.5	-56.1	5.0	5.60e-01	8	38	0	1407188992	60	23076
2026-01-07 16:08:52.04	236.00	5.66	-47.6	-56.7	4.5	7.89e-01	0	38	0	1414529024	60	24693
2026-01-07 16:08:56.08	235.83	5.38	-47.6	-57.4	4.1	1.16e+00	27	38	0	1421869056	60	26669
2026-01-07 16:09:00.11	235.66	5.10	-47.5	-59.6	3.7	1.42e+00	0	38	104	1423966208	60	34481
2026-01-07 16:09:04.16	235.49	4.82	-47.5	-60.3	3.7	1.49e+00	0	38	104	1423966208	60	37296
2026-01-07 16:09:08.19	235.33	4.54	-47.4	-60.7	3.6	1.51e+00	0	38	104	1423966208	60	39165
2026-01-07 16:09:12.23	235.17	4.27	-47.3	-61.0	3.6	1.51e+00	0	38	104	1423966208	60	40634
2026-01-07 16:09:16.27	235.02	4.00	-47.3	-62.0	3.6	1.51e+00	0	38	104	1423966208	60	45601
2026-01-07 16:09:20.31	234.86	3.73	-47.1	-61.7	3.6	1.51e+00	0	38	104	1423966208	60	43959
2026-01-07 16:09:24.34	234.71	3.47	-46.6	-61.8	3.6	1.51e+00	0	38	104	1423966208	60	44350
2026-01-07 16:09:28.38	234.57	3.20	-46.5	-61.7	3.6	1.51e+00	0	38	104	1423966208	60	43819
2026-01-07 16:09:32.42	234.42	2.94	-47.9	-63.1	3.6	1.51e+00	0	38	104	1423966208	60	51547
2026-01-07 16:09:36.46	234.28	2.68	-49.3	-64.4	3.6	1.51e+00	0	38	104	1423966208	60	60136
2026-01-07 16:09:40.49	234.14	2.43	-49.3	-64.6	3.6	1.51e+00	0	38	104	1423966208	60	61221
2026-01-07 16:09:44.53	234.01	2.17	-49.1	-64.4	3.6	1.51e+00	0	38	104	1423966208	60	60328
2026-01-07 16:09:48.57	233.87	1.92	-49.2	-64.3	3.6	1.51e+00	0	38	104	1423966208	60	59587
2026-01-07 16:09:52.61	233.74	1.67	-49.2	-64.4	3.6	1.51e+00	0	38	104	1423966208	60	60137
2026-01-07 16:09:56.65	233.61	1.42	-49.2	-64.4	3.6	1.51e+00	0	38	104	1423966208	60	60104
2026-01-07 16:10:00.69	233.48	1.18	-49.2	-64.4	3.6	1.51e+00	0	38	104	1423966208	60	60140
2026-01-07 16:10:04.73	233.36	0.93	-49.2	-64.4	3.6	1.51e+00	0	38	104	1423966208	60	60036
2026-01-07 16:10:08.77	233.24	0.69	-49.2	-64.4	3.6	1.51e+00	0	38	104	1423966208	60	59993
2026-01-07 16:10:12.81	233.12	0.45	-49.2	-64.4	3.6	1.51e+00	0	38	104	1423966208	60	59940
2026-01-07 16:10:16.85	233.00	0.21	-49.2	-64.4	3.6	1.51e+00	0	38	104	1423966208	60	60122
2026-01-07 16:10:20.89	232.88	-0.02	-49.2	-64.4	3.6	1.51e+00	0	38	104	1423966208	60	59825

#Closed at: 2026-01-07 16:10:21
#Recorded file [1423 MB]: D:/lorett/data/35029_260108_035520.dat