passes_logs/2026/01/07/R4.6S_Anadyr/R4.6S_Anadyr__20260107_043523_FENGYUN_3E_rec.log

#Pass ID: 20260107_043523_FENGYUN 3E
#Satellite: FENGYUN 3E
#Configuration: FENGYUN 3E
#almurnet v.1.7.20251203
#Start time: 2026-01-07 04:35:26

#Version: 2.2.20231116
#Station: R4.6S_Anadyr
#Location: 177.4865 lon 64.73178 lat
#TLE: 1 49008U 21062A   26005.56299987  .00000339  00000+0  18069-3 0  9991
#TLE: 2 49008  98.7472  10.8019 0001562 158.0357 202.0886 14.19884907233502

#Time	Az	El	Level	Level2	SNR	BER	BlckErr	Temp	State	Recorded	gain1	gain2
2026-01-07 04:35:26.02	158.57	0.12	-49.3	-67.1	3.5	3.02e+01	0	31	0	0	60	87317
2026-01-07 04:35:29.99	158.60	0.36	-49.0	-60.2	3.6	8.45e-01	0	33	104	0	60	36836
2026-01-07 04:35:34.03	158.62	0.61	-48.9	-60.1	3.6	8.44e-01	0	33	104	0	60	36644
2026-01-07 04:35:38.07	158.65	0.86	-48.4	-59.6	3.6	8.45e-01	0	33	104	0	60	34412
2026-01-07 04:35:42.11	158.67	1.11	-47.6	-58.8	3.6	8.44e-01	0	33	104	0	60	31302
2026-01-07 04:35:46.15	158.70	1.36	-47.5	-58.7	3.6	8.45e-01	0	33	104	0	60	31125
2026-01-07 04:35:50.18	158.73	1.61	-47.5	-58.5	3.6	8.44e-01	0	33	104	0	60	30437
2026-01-07 04:35:54.22	158.75	1.87	-47.5	-58.1	3.6	8.44e-01	0	33	104	0	60	28958
2026-01-07 04:35:58.26	158.78	2.13	-47.5	-58.5	3.6	8.45e-01	0	33	104	0	60	30364
2026-01-07 04:36:02.30	158.81	2.39	-47.5	-58.5	3.5	8.44e-01	0	34	104	0	60	30527
2026-01-07 04:36:06.34	158.83	2.66	-47.4	-57.1	3.6	8.46e-01	0	33	104	0	60	25738
2026-01-07 04:36:10.38	158.86	2.92	-47.4	-57.7	3.6	8.46e-01	0	34	104	0	60	27770
2026-01-07 04:36:14.42	158.89	3.19	-45.8	-49.5	7.4	1.95e-01	0	33	0	3145728	60	10841
2026-01-07 04:36:18.45	158.92	3.46	-40.5	-41.8	15.9	0.00e+00	0	34	0	32505856	54	6256
2026-01-07 04:36:22.49	158.95	3.74	-39.0	-40.1	17.7	0.00e+00	0	34	0	61865984	52	5773
2026-01-07 04:36:26.53	158.98	4.02	-40.0	-41.3	14.5	0.00e+00	0	34	0	81788928	48	8412
2026-01-07 04:36:30.57	159.01	4.30	-37.4	-38.2	19.5	0.00e+00	0	34	0	92274688	48	5848
2026-01-07 04:36:34.61	159.04	4.58	-34.3	-34.9	22.8	0.00e+00	0	34	0	121634816	42	5662
2026-01-07 04:36:38.64	159.06	4.87	-34.1	-34.7	23.0	0.00e+00	0	34	0	149946368	42	5542
2026-01-07 04:36:42.68	159.10	5.16	-34.1	-34.7	23.0	0.00e+00	0	34	0	179306496	42	5534
2026-01-07 04:36:46.72	159.13	5.45	-34.2	-34.8	23.0	0.00e+00	0	34	0	208666624	42	5588
2026-01-07 04:36:50.76	159.16	5.74	-34.0	-34.6	23.2	0.00e+00	0	34	0	238026752	40	6147
2026-01-07 04:36:54.79	159.19	6.04	-34.0	-34.6	23.2	0.00e+00	0	34	0	267386880	40	6137
2026-01-07 04:36:58.83	159.22	6.35	-33.8	-34.4	23.5	0.00e+00	0	34	0	296747008	40	5978
2026-01-07 04:37:02.87	159.25	6.65	-33.5	-34.1	23.8	0.00e+00	0	34	0	325058560	40	5764
2026-01-07 04:37:06.90	159.28	6.96	-33.4	-34.0	23.9	0.00e+00	0	34	0	354418688	40	5724
2026-01-07 04:37:10.94	159.32	7.27	-33.2	-33.7	24.2	0.00e+00	0	34	0	383778816	40	5558
2026-01-07 04:37:14.98	159.35	7.59	-33.3	-33.9	24.1	0.00e+00	0	34	0	413138944	40	5635
2026-01-07 04:37:19.02	159.38	7.91	-33.1	-33.6	24.2	0.00e+00	0	34	0	441450496	40	5502
2026-01-07 04:37:23.06	159.42	8.24	-33.1	-33.6	24.3	0.00e+00	0	34	0	470810624	40	5467
2026-01-07 04:37:27.10	159.45	8.57	-32.9	-33.4	24.5	0.00e+00	0	34	0	500170752	40	5359
2026-01-07 04:37:31.14	159.49	8.91	-32.7	-33.3	24.7	0.00e+00	0	34	0	529530880	40	5266
2026-01-07 04:37:35.17	159.53	9.24	-32.8	-33.3	24.7	0.00e+00	0	34	0	558891008	38	5934
2026-01-07 04:37:39.21	159.56	9.59	-32.9	-33.4	24.6	0.00e+00	0	34	0	587202560	38	6004
2026-01-07 04:37:43.25	159.60	9.94	-32.5	-33.1	25.0	0.00e+00	0	34	0	616562688	38	5771
2026-01-07 04:37:47.29	159.64	10.29	-32.6	-33.2	24.8	0.00e+00	0	34	0	645922816	38	5843
2026-01-07 04:37:51.33	159.67	10.65	-32.4	-32.9	25.1	0.00e+00	0	34	0	675282944	38	5646
2026-01-07 04:37:55.36	159.71	11.01	-32.4	-32.9	25.1	0.00e+00	0	34	0	704643072	38	5676
2026-01-07 04:37:59.40	159.75	11.38	-32.1	-32.6	25.4	0.00e+00	0	34	0	732954624	38	5475
2026-01-07 04:38:03.44	159.79	11.76	-32.3	-32.8	25.2	0.00e+00	0	34	0	762314752	38	5626
2026-01-07 04:38:07.48	159.83	12.14	-32.1	-32.6	25.5	0.00e+00	0	34	0	791674880	38	5450
2026-01-07 04:38:11.51	159.87	12.52	-31.9	-32.4	25.7	0.00e+00	0	34	0	821035008	38	5318
2026-01-07 04:38:15.54	159.92	12.92	-32.0	-32.5	25.6	0.00e+00	0	34	0	850395136	36	6092
2026-01-07 04:38:19.58	159.96	13.32	-31.6	-32.1	25.9	0.00e+00	0	34	0	878706688	36	5823
2026-01-07 04:38:23.62	160.00	13.72	-31.4	-31.9	26.1	0.00e+00	0	34	0	908066816	36	5673
2026-01-07 04:38:27.66	160.05	14.14	-31.4	-31.9	26.2	0.00e+00	0	34	0	937426944	36	5654
2026-01-07 04:38:31.70	160.09	14.56	-31.4	-31.9	26.2	0.00e+00	0	34	0	966787072	36	5655
2026-01-07 04:38:35.74	160.14	14.99	-31.4	-31.9	26.2	0.00e+00	0	34	0	996147200	36	5648
2026-01-07 04:38:39.77	160.19	15.42	-31.4	-31.9	26.2	0.00e+00	0	34	0	1025507328	36	5643
2026-01-07 04:38:43.81	160.24	15.86	-31.1	-31.6	26.5	0.00e+00	0	34	0	1053818880	36	5475
2026-01-07 04:38:47.85	160.29	16.32	-31.1	-31.6	26.4	0.00e+00	0	34	0	1083179008	36	5482
2026-01-07 04:38:51.89	160.34	16.78	-31.0	-31.5	26.6	0.00e+00	0	34	0	1112539136	36	5406
2026-01-07 04:38:55.92	160.39	17.24	-30.8	-31.3	26.6	0.00e+00	0	34	0	1141899264	34	5948
2026-01-07 04:38:59.96	160.44	17.72	-30.8	-31.3	26.7	0.00e+00	0	34	0	1170210816	34	5934
2026-01-07 04:39:04.00	160.50	18.21	-30.7	-31.2	26.8	0.00e+00	0	34	0	1199570944	34	5852
2026-01-07 04:39:08.04	160.55	18.71	-30.6	-31.1	26.9	0.00e+00	0	34	0	1228931072	34	5807
2026-01-07 04:39:12.08	160.61	19.22	-30.4	-30.9	27.0	0.00e+00	0	34	0	1258291200	34	5684
2026-01-07 04:39:16.12	160.67	19.73	-30.3	-30.8	27.2	0.00e+00	0	34	0	1286602752	34	5583
2026-01-07 04:39:20.15	160.73	20.26	-29.9	-30.4	27.5	0.00e+00	0	34	0	1315962880	34	5334
2026-01-07 04:39:24.19	160.79	20.80	-29.8	-30.3	27.6	0.00e+00	0	34	0	1345323008	32	5939
2026-01-07 04:39:28.22	160.85	21.35	-29.5	-30.0	27.8	0.00e+00	0	34	0	1374683136	32	5715
2026-01-07 04:39:32.25	160.92	21.92	-29.6	-30.1	27.8	0.00e+00	0	34	0	1404043264	32	5766
2026-01-07 04:39:36.29	160.99	22.50	-29.7	-30.1	27.7	0.00e+00	0	34	0	1433403392	32	5827
2026-01-07 04:39:40.33	161.05	23.09	-29.6	-30.1	27.8	0.00e+00	0	34	0	1461714944	32	5762
2026-01-07 04:39:44.36	161.13	23.69	-29.4	-29.9	28.0	0.00e+00	0	34	0	1491075072	32	5647
2026-01-07 04:39:48.40	161.20	24.31	-29.6	-30.1	27.9	0.00e+00	0	34	0	1520435200	32	5767
2026-01-07 04:39:52.44	161.28	24.95	-29.5	-29.9	27.8	0.00e+00	0	34	0	1549795328	32	5692
2026-01-07 04:39:56.48	161.35	25.60	-29.5	-29.9	27.9	0.00e+00	0	34	0	1579155456	32	5691
2026-01-07 04:40:00.52	161.44	26.26	-29.3	-29.8	28.1	0.00e+00	0	34	0	1607467008	32	5570
2026-01-07 04:40:04.56	161.52	26.95	-29.0	-29.5	28.2	0.00e+00	0	34	0	1636827136	32	5403
2026-01-07 04:40:08.60	161.61	27.65	-28.9	-29.4	28.3	0.00e+00	0	34	0	1666187264	32	5346
2026-01-07 04:40:12.64	161.70	28.37	-28.9	-29.3	28.4	0.00e+00	0	34	0	1695547392	32	5296
2026-01-07 04:40:16.68	161.79	29.10	-28.8	-29.3	28.5	0.00e+00	0	34	0	1724907520	30	5915
2026-01-07 04:40:20.72	161.89	29.86	-29.3	-29.8	28.1	0.00e+00	0	34	0	1754267648	30	6259
2026-01-07 04:40:24.76	161.99	30.64	-29.2	-29.6	28.1	0.00e+00	0	34	0	1782579200	30	6159
2026-01-07 04:40:28.80	162.10	31.44	-29.0	-29.5	28.3	0.00e+00	0	34	0	1811939328	30	6036
2026-01-07 04:40:32.84	162.21	32.26	-28.8	-29.3	28.5	0.00e+00	0	34	0	1841299456	30	5932
2026-01-07 04:40:36.87	162.33	33.11	-28.9	-29.4	28.5	0.00e+00	0	34	0	1870659584	30	5984
2026-01-07 04:40:40.91	162.45	33.98	-28.8	-29.2	28.5	0.00e+00	0	34	0	1898971136	30	5873
2026-01-07 04:40:44.95	162.58	34.87	-29.0	-29.4	28.4	0.00e+00	0	34	0	1928331264	30	6019
2026-01-07 04:40:48.98	162.71	35.79	-28.9	-29.3	28.4	0.00e+00	0	34	0	1957691392	30	5956
2026-01-07 04:40:53.02	162.85	36.74	-28.7	-29.1	28.5	0.00e+00	0	34	0	1987051520	30	5824
2026-01-07 04:40:57.05	163.00	37.71	-28.9	-29.4	28.4	0.00e+00	0	34	0	2015363072	30	5998
2026-01-07 04:41:01.09	163.16	38.72	-29.2	-29.7	28.2	0.00e+00	0	34	0	2044723200	30	6178
2026-01-07 04:41:05.13	163.32	39.75	-29.4	-29.8	28.1	0.00e+00	0	34	0	2074083328	30	6291
2026-01-07 04:41:09.17	163.50	40.82	-29.4	-29.8	28.0	0.00e+00	0	34	0	2103443456	30	6291
2026-01-07 04:41:13.21	163.69	41.92	-29.3	-29.8	28.2	0.00e+00	0	34	0	2132803584	30	6263
2026-01-07 04:41:17.25	163.89	43.05	-29.4	-29.8	28.1	0.00e+00	0	34	0	2161115136	30	6306
2026-01-07 04:41:21.28	164.10	44.22	-29.2	-29.6	28.3	0.00e+00	0	34	0	2190475264	30	6166
2026-01-07 04:41:25.32	164.33	45.42	-29.6	-30.1	27.8	0.00e+00	0	35	0	2219835392	30	6482
2026-01-07 04:41:29.36	164.58	46.66	-29.9	-30.4	27.7	0.00e+00	0	35	0	2249195520	32	5986
2026-01-07 04:41:33.40	164.85	47.93	-29.9	-30.3	27.6	0.00e+00	0	34	0	2278555648	32	5944
2026-01-07 04:41:37.44	165.13	49.25	-30.6	-31.0	27.3	0.00e+00	0	35	0	2307915776	32	6457
2026-01-07 04:41:41.48	165.45	50.60	-30.6	-31.1	27.1	0.00e+00	0	34	0	2336227328	34	5793
2026-01-07 04:41:45.51	165.79	51.99	-30.5	-31.0	27.1	0.00e+00	0	34	0	2365587456	34	5714
2026-01-07 04:41:49.55	166.16	53.43	-30.9	-31.4	26.9	0.00e+00	0	35	0	2394947584	34	6000
2026-01-07 04:41:53.59	166.57	54.90	-30.4	-30.8	27.1	0.00e+00	0	35	0	2424307712	34	5626
2026-01-07 04:41:57.63	167.03	56.42	-30.9	-31.4	26.9	0.00e+00	0	34	0	2453667840	34	5983
2026-01-07 04:42:01.66	167.53	57.97	-30.4	-30.9	27.2	0.00e+00	0	34	0	2481979392	34	5667
2026-01-07 04:42:05.70	168.10	59.56	-30.7	-31.1	27.0	0.00e+00	0	34	0	2511339520	34	5806
2026-01-07 04:42:09.73	168.74	61.20	-29.5	-29.9	27.8	0.00e+00	0	34	0	2540699648	32	5678
2026-01-07 04:42:13.77	169.47	62.87	-29.9	-30.4	27.6	0.00e+00	0	34	0	2570059776	32	5977
2026-01-07 04:42:17.81	170.30	64.58	-29.2	-29.7	28.2	0.00e+00	0	35	0	2598371328	32	5525
2026-01-07 04:42:21.85	171.28	66.32	-29.6	-30.1	27.9	0.00e+00	0	34	0	2627731456	30	6516
2026-01-07 04:42:25.89	172.42	68.10	-28.4	-28.8	28.4	0.00e+00	0	34	0	2657091584	30	5599
2026-01-07 04:42:29.93	173.78	69.90	-29.1	-29.6	28.3	0.00e+00	0	34	0	2686451712	30	6116
2026-01-07 04:42:33.97	175.43	71.72	-29.7	-30.1	27.9	0.00e+00	0	34	0	2715811840	30	6523
2026-01-07 04:42:38.01	177.46	73.56	-29.2	-29.7	28.1	0.00e+00	0	35	0	2744123392	32	5533
2026-01-07 04:42:42.05	180.04	75.40	-28.8	-29.2	28.4	0.00e+00	0	35	0	2773483520	30	5891
2026-01-07 04:42:46.09	183.37	77.23	-27.5	-27.9	29.2	0.00e+00	0	35	0	2802843648	28	5679
2026-01-07 04:42:50.12	187.83	79.02	-27.5	-27.9	29.3	0.00e+00	0	34	0	2832203776	28	5677
2026-01-07 04:42:54.16	194.04	80.74	-27.6	-28.1	29.2	0.00e+00	0	34	0	2861563904	28	5785
2026-01-07 04:42:58.20	202.97	82.32	-27.9	-28.3	29.1	0.00e+00	0	34	0	2889875456	28	5931
2026-01-07 04:43:02.23	216.02	83.63	-27.8	-28.2	29.2	0.00e+00	0	34	0	2919235584	28	5896
2026-01-07 04:43:06.27	234.40	84.47	-28.2	-28.7	28.8	0.00e+00	0	34	0	2948595712	28	6175
2026-01-07 04:43:10.31	256.28	84.61	-27.9	-28.3	29.0	0.00e+00	0	34	0	2977955840	28	5961
2026-01-07 04:43:14.35	276.30	83.99	-28.3	-28.8	28.8	0.00e+00	0	35	0	3007315968	28	6302
2026-01-07 04:43:18.39	291.14	82.81	-27.8	-28.3	28.8	0.00e+00	0	35	0	3036676096	28	5912
2026-01-07 04:43:22.43	301.30	81.30	-27.9	-28.3	29.0	0.00e+00	0	35	0	3064987648	28	5951
2026-01-07 04:43:26.47	308.30	79.62	-27.6	-28.1	29.2	0.00e+00	0	35	0	3094347776	28	5787
2026-01-07 04:43:30.50	313.26	77.85	-27.4	-27.8	29.4	0.00e+00	0	35	0	3123707904	28	5601
2026-01-07 04:43:34.54	316.94	76.03	-28.2	-28.6	28.9	0.00e+00	0	35	0	3153068032	28	6143
2026-01-07 04:43:38.58	319.74	74.19	-28.7	-29.1	28.5	0.00e+00	0	35	0	3182428160	30	5826
2026-01-07 04:43:42.61	321.93	72.36	-29.4	-29.8	26.8	0.00e+00	0	35	0	3210739712	32	5619
2026-01-07 04:43:46.65	323.70	70.54	-30.0	-30.4	27.6	0.00e+00	0	35	0	3240099840	32	6018
2026-01-07 04:43:50.69	325.15	68.73	-29.2	-29.7	28.2	0.00e+00	0	35	0	3269459968	32	5515
2026-01-07 04:43:54.73	326.36	66.95	-29.0	-29.5	28.2	0.00e+00	0	35	0	3298820096	32	5395
2026-01-07 04:43:58.77	327.39	65.20	-29.3	-29.8	28.0	0.00e+00	0	34	0	3328180224	32	5598
2026-01-07 04:44:02.81	328.27	63.48	-29.7	-30.2	27.6	0.00e+00	0	35	0	3356491776	32	5839
2026-01-07 04:44:06.85	329.03	61.80	-30.3	-30.8	27.3	0.00e+00	0	35	0	3385851904	32	6272
2026-01-07 04:44:10.89	329.70	60.15	-31.3	-31.8	26.4	0.00e+00	0	35	0	3415212032	34	6265
2026-01-07 04:44:14.93	330.29	58.55	-30.7	-31.2	26.9	0.00e+00	0	35	0	3444572160	34	5845
2026-01-07 04:44:18.97	330.82	56.98	-30.8	-31.3	26.9	0.00e+00	0	35	0	3472883712	34	5910
2026-01-07 04:44:23.00	331.29	55.46	-30.6	-31.2	26.4	0.00e+00	0	34	0	3502243840	34	5838
2026-01-07 04:44:27.04	331.72	53.98	-30.6	-31.0	27.1	0.00e+00	0	35	0	3531603968	34	5755
2026-01-07 04:44:31.08	332.10	52.53	-30.7	-31.2	26.9	0.00e+00	0	34	0	3560964096	34	5833
2026-01-07 04:44:35.12	332.46	51.13	-30.6	-31.1	27.1	0.00e+00	0	35	0	3590324224	34	5767
2026-01-07 04:44:39.16	332.78	49.76	-30.5	-31.0	27.2	0.00e+00	0	34	0	3618635776	34	5696
2026-01-07 04:44:43.19	333.07	48.44	-30.1	-30.6	27.3	0.00e+00	0	35	0	3647995904	34	5459
2026-01-07 04:44:47.24	333.35	47.15	-30.4	-30.9	26.0	0.00e+00	0	35	0	3677356032	34	5666
2026-01-07 04:44:51.28	333.60	45.91	-29.7	-30.2	27.8	0.00e+00	0	35	0	3706716160	32	5857
2026-01-07 04:44:55.31	333.84	44.70	-29.1	-29.6	28.3	0.00e+00	0	35	0	3736076288	32	5457
2026-01-07 04:44:59.35	334.06	43.52	-29.3	-29.8	27.6	0.00e+00	0	34	0	3764387840	32	5595
2026-01-07 04:45:03.38	334.26	42.38	-29.4	-29.8	27.4	0.00e+00	0	34	0	3793747968	32	5621
2026-01-07 04:45:07.43	334.46	41.27	-29.4	-29.9	27.9	0.00e+00	0	34	0	3823108096	32	5671
2026-01-07 04:45:11.46	334.64	40.20	-29.5	-29.9	27.9	0.00e+00	0	35	0	3852468224	32	5681
2026-01-07 04:45:15.50	334.81	39.16	-29.5	-29.9	27.8	0.00e+00	0	35	0	3881828352	32	5688
2026-01-07 04:45:19.54	334.97	38.15	-29.1	-29.5	28.3	0.00e+00	0	34	0	3911188480	32	5432
2026-01-07 04:45:23.58	335.12	37.16	-28.8	-29.2	28.6	0.00e+00	0	34	0	3939500032	30	5863
2026-01-07 04:45:27.62	335.27	36.21	-28.9	-29.4	28.4	0.00e+00	0	35	0	3968860160	30	5973
2026-01-07 04:45:31.66	335.41	35.28	-29.0	-29.5	28.2	0.00e+00	0	35	0	3998220288	30	6056
2026-01-07 04:45:35.69	335.54	34.38	-28.9	-29.4	28.4	0.00e+00	0	35	0	4027580416	30	5975
2026-01-07 04:45:39.73	335.66	33.50	-28.7	-29.2	28.5	0.00e+00	0	34	0	4056940544	30	5859
2026-01-07 04:45:43.77	335.78	32.65	-28.7	-29.2	28.5	0.00e+00	0	35	0	4085252096	30	5854
2026-01-07 04:45:47.81	335.90	31.82	-28.9	-29.3	28.4	0.00e+00	0	35	0	4114612224	30	5953
2026-01-07 04:45:51.85	336.01	31.02	-29.1	-29.6	28.3	0.00e+00	0	34	0	4143972352	30	6127
2026-01-07 04:45:55.89	336.11	30.24	-29.4	-29.9	28.1	0.00e+00	0	35	0	4173332480	30	6326
2026-01-07 04:45:59.92	336.21	29.47	-29.5	-30.0	27.8	0.00e+00	0	35	0	4202692608	30	6414
2026-01-07 04:46:03.96	336.31	28.73	-29.5	-30.0	27.9	0.00e+00	0	35	0	4231004160	30	6424
2026-01-07 04:46:07.99	336.40	28.01	-29.6	-30.1	27.6	0.00e+00	0	35	0	4260364288	30	6490
2026-01-07 04:46:12.03	336.49	27.30	-29.7	-30.1	27.6	0.00e+00	0	35	0	4289724416	30	6535
2026-01-07 04:46:16.07	336.58	26.62	-29.5	-30.0	27.9	0.00e+00	0	35	0	4319084544	30	6426
2026-01-07 04:46:20.11	336.67	25.95	-29.6	-30.0	27.7	0.00e+00	0	35	0	4347396096	30	6448
2026-01-07 04:46:24.15	336.75	25.29	-29.5	-29.9	27.9	0.00e+00	0	35	0	4376756224	30	6372
2026-01-07 04:46:28.19	336.83	24.65	-29.5	-30.0	27.8	0.00e+00	0	35	0	4406116352	30	6438
2026-01-07 04:46:32.23	336.90	24.03	-29.6	-30.1	27.8	0.00e+00	0	35	0	4435476480	32	5768
2026-01-07 04:46:36.27	336.98	23.42	-29.6	-30.0	27.7	0.00e+00	0	35	0	4464836608	32	5749
2026-01-07 04:46:40.31	337.05	22.83	-29.6	-30.0	27.8	0.00e+00	0	35	0	4493148160	32	5742
2026-01-07 04:46:44.34	337.12	22.25	-29.7	-30.1	27.6	0.00e+00	0	35	0	4522508288	32	5796
2026-01-07 04:46:48.38	337.19	21.68	-29.8	-30.2	27.6	0.00e+00	0	35	0	4551868416	32	5870
2026-01-07 04:46:52.42	337.25	21.12	-29.9	-30.4	27.5	0.00e+00	0	35	0	4581228544	32	5973
2026-01-07 04:46:56.45	337.32	20.58	-30.0	-30.5	27.4	0.00e+00	0	35	0	4610588672	32	6047
2026-01-07 04:47:00.49	337.38	20.05	-30.1	-30.6	27.4	0.00e+00	0	35	0	4638900224	32	6135
2026-01-07 04:47:04.53	337.44	19.53	-30.3	-30.8	27.1	0.00e+00	0	35	0	4668260352	32	6301
2026-01-07 04:47:08.57	337.50	19.02	-30.4	-30.9	27.0	0.00e+00	0	35	0	4697620480	32	6341
2026-01-07 04:47:12.61	337.56	18.52	-30.6	-31.1	26.8	0.00e+00	0	35	0	4726980608	32	6500
2026-01-07 04:47:16.65	337.62	18.03	-30.7	-31.2	26.8	0.00e+00	0	35	0	4756340736	32	6557
2026-01-07 04:47:20.69	337.67	17.55	-30.9	-31.3	26.7	0.00e+00	0	35	0	4785700864	34	5962
2026-01-07 04:47:24.73	337.73	17.07	-31.0	-31.4	26.6	0.00e+00	0	35	0	4814012416	34	6024
2026-01-07 04:47:28.76	337.78	16.61	-31.1	-31.6	26.4	0.00e+00	0	35	0	4843372544	34	6117
2026-01-07 04:47:32.80	337.83	16.16	-31.2	-31.6	26.4	0.00e+00	0	35	0	4872732672	34	6160
2026-01-07 04:47:36.83	337.88	15.72	-31.4	-31.8	26.1	0.00e+00	0	35	0	4902092800	34	6317
2026-01-07 04:47:40.87	337.93	15.28	-31.4	-31.8	26.1	0.00e+00	0	35	0	4931452928	34	6316
2026-01-07 04:47:44.91	337.98	14.85	-31.6	-32.1	25.9	0.00e+00	0	35	0	4959764480	34	6494
2026-01-07 04:47:48.95	338.03	14.43	-31.7	-32.2	25.8	0.00e+00	0	35	0	4989124608	34	6610
2026-01-07 04:47:52.98	338.08	14.01	-31.8	-32.3	25.4	0.00e+00	0	35	0	5018484736	36	5949
2026-01-07 04:47:57.02	338.13	13.60	-32.0	-32.5	25.7	0.00e+00	0	35	0	5047844864	36	6081
2026-01-07 04:48:01.06	338.17	13.20	-32.2	-32.7	25.5	0.00e+00	0	35	0	5076156416	36	6200
2026-01-07 04:48:05.11	338.22	12.81	-32.3	-32.8	25.2	0.00e+00	0	35	0	5105516544	36	6271
2026-01-07 04:48:09.14	338.26	12.42	-32.3	-32.9	25.3	0.00e+00	0	35	0	5134876672	36	6320
2026-01-07 04:48:13.19	338.31	12.04	-32.5	-33.0	25.2	0.00e+00	0	35	0	5164236800	36	6422
2026-01-07 04:48:17.23	338.35	11.66	-32.6	-33.1	25.0	0.00e+00	0	35	0	5193596928	36	6527
2026-01-07 04:48:21.27	338.39	11.29	-32.8	-33.3	24.9	0.00e+00	0	35	0	5221908480	38	5940
2026-01-07 04:48:25.31	338.43	10.92	-32.8	-33.3	24.8	0.00e+00	0	35	0	5251268608	38	5957
2026-01-07 04:48:29.35	338.48	10.56	-33.0	-33.5	24.6	0.00e+00	0	35	0	5280628736	38	6086
2026-01-07 04:48:33.39	338.52	10.21	-33.1	-33.6	24.5	0.00e+00	0	35	0	5309988864	38	6170
2026-01-07 04:48:37.43	338.56	9.86	-33.3	-33.9	24.3	0.00e+00	0	35	0	5339348992	38	6330
2026-01-07 04:48:41.47	338.60	9.51	-33.4	-34.0	24.1	0.00e+00	0	35	0	5367660544	38	6400
2026-01-07 04:48:45.50	338.64	9.18	-33.4	-33.9	24.1	0.00e+00	0	35	0	5397020672	38	6382
2026-01-07 04:48:49.55	338.67	8.84	-33.5	-34.1	24.0	0.00e+00	0	35	0	5426380800	38	6493
2026-01-07 04:48:53.59	338.71	8.51	-33.6	-34.1	23.9	0.00e+00	0	35	0	5455740928	38	6512
2026-01-07 04:48:57.62	338.75	8.18	-33.7	-34.3	23.7	0.00e+00	0	35	0	5485101056	40	5909
2026-01-07 04:49:01.66	338.79	7.86	-33.9	-34.5	23.5	0.00e+00	0	35	0	5513412608	40	6054
2026-01-07 04:49:05.70	338.82	7.54	-33.9	-34.5	23.5	0.00e+00	0	35	0	5542772736	40	6060
2026-01-07 04:49:09.74	338.86	7.23	-34.1	-34.7	23.3	0.00e+00	0	35	0	5572132864	40	6243
2026-01-07 04:49:13.77	338.90	6.92	-34.1	-34.7	23.2	0.00e+00	0	35	0	5601492992	40	6231
2026-01-07 04:49:17.81	338.93	6.61	-34.1	-34.7	23.2	0.00e+00	0	35	0	5630853120	40	6223
2026-01-07 04:49:21.85	338.97	6.31	-34.2	-34.8	23.0	0.00e+00	0	35	0	5660213248	40	6312
2026-01-07 04:49:25.89	339.00	6.01	-34.1	-34.7	23.1	0.00e+00	0	35	0	5688524800	40	6210
2026-01-07 04:49:29.92	339.04	5.71	-34.4	-35.0	22.4	0.00e+00	0	35	0	5717884928	40	6444
2026-01-07 04:49:33.96	339.07	5.42	-35.2	-35.9	21.4	0.00e+00	0	35	0	5747245056	42	6341
2026-01-07 04:49:38.00	339.11	5.13	-36.5	-37.4	19.2	0.00e+00	0	35	0	5776605184	44	6709
2026-01-07 04:49:42.04	339.14	4.84	-38.5	-39.7	16.1	0.00e+00	0	35	0	5805965312	48	6970
2026-01-07 04:49:46.08	339.17	4.56	-40.7	-42.8	12.0	1.44e-04	0	35	0	5834276864	52	7925
2026-01-07 04:49:50.12	339.21	4.28	-42.5	-46.2	7.6	9.31e-02	0	35	0	5863636992	56	9279
2026-01-07 04:49:54.15	339.24	4.00	-43.3	-49.3	4.3	7.98e-01	0	35	0	5882511360	58	11804
2026-01-07 04:49:58.18	339.27	3.72	-43.7	-53.3	3.6	8.44e-01	0	35	104	5882511360	58	18700
2026-01-07 04:50:02.21	339.30	3.45	-43.8	-54.6	3.6	8.45e-01	0	35	104	5882511360	60	19386
2026-01-07 04:50:06.25	339.34	3.18	-43.9	-55.1	3.6	8.45e-01	0	35	104	5882511360	60	20523
2026-01-07 04:50:10.29	339.37	2.92	-47.3	-58.7	3.6	8.45e-01	0	35	104	5882511360	60	31259
2026-01-07 04:50:14.33	339.40	2.65	-48.9	-60.2	3.6	8.46e-01	0	35	104	5882511360	60	36781
2026-01-07 04:50:18.36	339.43	2.39	-48.8	-60.2	3.6	8.46e-01	0	35	104	5882511360	60	37180
2026-01-07 04:50:22.40	339.46	2.13	-48.9	-60.1	3.6	8.45e-01	0	35	104	5882511360	60	36716
2026-01-07 04:50:26.44	339.49	1.87	-49.0	-60.2	3.6	8.45e-01	0	35	104	5882511360	60	37101
2026-01-07 04:50:30.47	339.52	1.62	-48.9	-60.2	3.6	8.44e-01	0	35	104	5882511360	60	36994
2026-01-07 04:50:34.52	339.55	1.36	-48.9	-60.2	3.6	8.46e-01	0	35	104	5882511360	60	36995
2026-01-07 04:50:38.55	339.58	1.11	-48.9	-60.2	3.6	8.45e-01	0	35	104	5882511360	60	36865
2026-01-07 04:50:42.59	339.61	0.87	-48.9	-60.2	3.6	8.46e-01	0	35	104	5882511360	60	36867
2026-01-07 04:50:46.63	339.64	0.62	-48.9	-60.2	3.6	8.45e-01	0	35	104	5882511360	60	36879
2026-01-07 04:50:50.67	339.67	0.38	-48.9	-60.1	3.6	8.46e-01	0	35	104	5882511360	60	36696
2026-01-07 04:50:54.71	339.70	0.13	-48.9	-60.1	3.6	8.45e-01	0	35	104	5882511360	60	36634

#Closed at: 2026-01-07 04:50:57
#Recorded file [5882 MB]: D:/lorett/data/35029_260107_163526.dat