passes_logs/2026/01/07/R4.6S_Anadyr/R4.6S_Anadyr__20260107_171440_SUOMI_NPP_rec.log

#Pass ID: 20260107_171440_SUOMI NPP
#Satellite: SUOMI NPP
#Configuration: NPP
#almurnet v.1.7.20251203
#Start time: 2026-01-07 17:14:41

#Version: 2.2.20231116
#Station: R4.6S_Anadyr
#Location: 177.4865 lon 64.73178 lat
#TLE: 1 37849U 11061A   26004.95404768  .00000136  00000+0  85334-4 0  9991
#TLE: 2 37849  98.7801 307.0898 0002575  80.6707 279.4760 14.19522289735281

#Time	Az	El	Level	Level2	SNR	BER	BlckErr	Temp	State	Recorded	gain1	gain2
2026-01-07 17:14:41.56	30.17	0.04	-49.7	-67.4	3.5	3.02e+01	0	36	0	0	60	90642
2026-01-07 17:14:45.60	29.95	0.26	-49.3	-64.6	3.6	1.51e+00	0	37	104	0	60	61055
2026-01-07 17:14:49.64	29.73	0.48	-49.3	-64.6	3.6	1.51e+00	0	37	104	0	60	61091
2026-01-07 17:14:53.68	29.50	0.71	-49.0	-64.2	3.6	1.51e+00	0	37	104	0	60	58673
2026-01-07 17:14:57.72	29.27	0.93	-48.1	-63.3	3.6	1.51e+00	0	37	104	0	60	52658
2026-01-07 17:15:01.76	29.04	1.15	-47.8	-62.9	3.6	1.51e+00	0	37	104	0	60	50491
2026-01-07 17:15:05.79	28.80	1.38	-47.8	-62.9	3.6	1.51e+00	0	37	104	0	60	50463
2026-01-07 17:15:09.83	28.56	1.60	-47.8	-62.9	3.6	1.51e+00	0	37	104	0	60	50736
2026-01-07 17:15:13.87	28.31	1.83	-47.8	-63.0	3.6	1.51e+00	0	37	104	0	60	51006
2026-01-07 17:15:17.91	28.06	2.06	-47.8	-62.9	3.6	1.51e+00	0	37	104	0	60	50335
2026-01-07 17:15:21.95	27.81	2.29	-47.8	-62.9	3.6	1.51e+00	0	37	104	0	60	50304
2026-01-07 17:15:25.99	27.55	2.52	-47.8	-62.9	3.6	1.51e+00	0	37	104	0	60	50232
2026-01-07 17:15:30.03	27.29	2.76	-47.8	-62.7	3.6	1.51e+00	0	37	104	0	60	49318
2026-01-07 17:15:34.07	27.02	2.99	-47.8	-62.8	3.6	1.51e+00	0	38	104	0	60	49629
2026-01-07 17:15:38.10	26.75	3.23	-47.1	-54.4	6.5	3.41e-01	0	38	0	1048576	60	18995
2026-01-07 17:15:42.15	26.47	3.47	-47.8	-62.9	3.6	1.51e+00	0	38	104	3145728	60	50645
2026-01-07 17:15:46.18	26.19	3.70	-47.7	-62.8	3.6	1.51e+00	0	38	104	3145728	60	49998
2026-01-07 17:15:50.22	25.91	3.95	-47.7	-62.9	3.6	1.51e+00	0	38	104	3145728	60	50311
2026-01-07 17:15:54.26	25.62	4.19	-47.7	-62.8	3.6	1.51e+00	0	38	104	3145728	60	49909
2026-01-07 17:15:58.30	25.32	4.43	-47.7	-62.8	3.6	1.51e+00	0	38	104	3145728	60	49960
2026-01-07 17:16:02.34	25.02	4.67	-47.7	-62.8	3.6	1.51e+00	0	38	104	3145728	60	49665
2026-01-07 17:16:06.38	24.71	4.92	-47.7	-62.7	3.6	1.51e+00	0	38	104	3145728	60	49272
2026-01-07 17:16:10.42	24.40	5.17	-47.7	-62.8	3.6	1.51e+00	0	38	104	3145728	60	50160
2026-01-07 17:16:14.46	24.08	5.42	-47.7	-62.9	3.6	1.51e+00	0	38	104	3145728	60	50286
2026-01-07 17:16:18.50	23.76	5.67	-47.7	-62.8	3.6	1.51e+00	0	38	104	3145728	60	49735
2026-01-07 17:16:22.54	23.43	5.92	-47.7	-62.8	3.6	1.51e+00	0	38	104	3145728	60	49979
2026-01-07 17:16:26.58	23.10	6.17	-47.7	-62.9	3.6	1.51e+00	0	38	104	3145728	60	50295
2026-01-07 17:16:30.62	22.75	6.43	-47.7	-62.8	3.6	1.51e+00	0	38	104	3145728	60	49728
2026-01-07 17:16:34.66	22.41	6.69	-47.7	-62.9	3.6	1.51e+00	0	38	104	3145728	60	50211
2026-01-07 17:16:38.70	22.05	6.94	-47.7	-62.9	3.6	1.51e+00	0	38	104	3145728	60	50254
2026-01-07 17:16:42.74	21.69	7.20	-47.7	-62.8	3.6	1.51e+00	0	38	104	3145728	60	50166
2026-01-07 17:16:46.78	21.32	7.47	-47.7	-62.9	3.6	1.51e+00	0	38	104	3145728	60	50335
2026-01-07 17:16:50.82	20.95	7.73	-47.7	-62.9	3.6	1.51e+00	0	38	104	3145728	60	50214
2026-01-07 17:16:54.86	20.57	7.99	-47.7	-62.9	3.6	1.51e+00	0	38	104	3145728	60	50476
2026-01-07 17:16:58.90	20.18	8.26	-47.7	-62.8	3.6	1.51e+00	0	38	104	3145728	60	50183
2026-01-07 17:17:02.94	19.78	8.53	-47.7	-62.9	3.6	1.51e+00	0	38	104	3145728	60	50250
2026-01-07 17:17:06.99	19.38	8.80	-47.7	-62.9	3.6	1.51e+00	0	38	104	3145728	60	50395
2026-01-07 17:17:11.02	18.97	9.07	-47.7	-62.8	3.6	1.51e+00	0	38	104	3145728	60	50119
2026-01-07 17:17:15.06	18.55	9.34	-47.7	-62.8	3.6	1.51e+00	0	38	104	3145728	60	50075
2026-01-07 17:17:19.10	18.12	9.61	-47.7	-62.9	3.6	1.51e+00	0	38	104	3145728	60	50764
2026-01-07 17:17:23.14	17.68	9.88	-47.7	-62.9	3.6	1.51e+00	0	38	104	3145728	60	50434
2026-01-07 17:17:27.19	17.24	10.16	-47.7	-62.9	3.6	1.51e+00	0	38	104	3145728	60	50537
2026-01-07 17:17:31.23	16.78	10.44	-47.7	-62.9	3.6	1.51e+00	0	38	104	3145728	60	50401
2026-01-07 17:17:35.26	16.32	10.72	-47.7	-62.9	3.6	1.51e+00	0	38	104	3145728	60	50443
2026-01-07 17:17:39.30	15.85	11.00	-47.7	-62.9	3.6	1.51e+00	0	38	104	3145728	60	50657
2026-01-07 17:17:43.34	15.37	11.28	-47.7	-62.9	3.6	1.51e+00	0	38	104	3145728	60	50495
2026-01-07 17:17:47.38	14.88	11.56	-47.7	-62.9	3.6	1.51e+00	0	38	104	3145728	60	50710
2026-01-07 17:17:51.42	14.38	11.84	-47.7	-62.9	3.6	1.51e+00	0	38	104	3145728	60	50574
2026-01-07 17:17:55.46	13.87	12.13	-47.7	-62.9	3.6	1.51e+00	0	38	104	3145728	60	50723
2026-01-07 17:17:59.49	13.35	12.41	-47.7	-62.9	3.6	1.51e+00	0	38	104	3145728	60	50521
2026-01-07 17:18:03.53	12.81	12.70	-47.7	-62.9	3.6	1.51e+00	0	38	104	3145728	60	50527
2026-01-07 17:18:07.57	12.27	12.99	-47.7	-62.9	3.6	1.51e+00	0	38	104	3145728	60	50724
2026-01-07 17:18:11.61	11.72	13.28	-47.7	-62.9	3.6	1.51e+00	0	38	104	3145728	60	50518
2026-01-07 17:18:15.65	11.15	13.57	-47.7	-62.9	3.6	1.51e+00	0	38	104	3145728	60	50592
2026-01-07 17:18:19.69	10.58	13.86	-47.7	-62.9	3.6	1.51e+00	0	38	104	3145728	60	50355
2026-01-07 17:18:23.74	9.99	14.15	-47.7	-62.9	3.6	1.51e+00	0	38	104	3145728	60	50543
2026-01-07 17:18:27.78	9.39	14.44	-47.7	-62.9	3.6	1.51e+00	0	38	104	3145728	60	50729
2026-01-07 17:18:31.81	8.78	14.73	-47.7	-62.9	3.6	1.51e+00	0	38	104	3145728	60	50248
2026-01-07 17:18:35.85	8.16	15.02	-47.7	-62.9	3.6	1.51e+00	0	38	104	3145728	60	50324
2026-01-07 17:18:39.89	7.52	15.31	-47.7	-62.9	3.6	1.51e+00	0	38	104	3145728	60	50527
2026-01-07 17:18:43.93	6.87	15.60	-47.7	-62.9	3.6	1.51e+00	0	38	104	3145728	60	50495
2026-01-07 17:18:47.97	6.21	15.89	-47.7	-62.9	3.6	1.51e+00	0	38	104	3145728	60	50627
2026-01-07 17:18:52.01	5.54	16.18	-47.7	-62.9	3.6	1.51e+00	0	38	104	3145728	60	50566
2026-01-07 17:18:56.04	4.85	16.47	-47.7	-62.9	3.6	1.51e+00	0	38	104	3145728	60	50295
2026-01-07 17:19:00.08	4.15	16.75	-47.8	-62.9	3.6	1.51e+00	0	38	104	3145728	60	50602
2026-01-07 17:19:04.12	3.43	17.04	-47.7	-62.9	3.6	1.51e+00	0	38	104	3145728	60	50714
2026-01-07 17:19:08.16	2.70	17.33	-47.7	-62.9	3.5	1.51e+00	0	38	104	3145728	60	50645
2026-01-07 17:19:12.20	1.96	17.61	-47.7	-62.9	3.6	1.51e+00	0	38	104	3145728	60	50739
2026-01-07 17:19:16.24	1.20	17.89	-47.7	-62.9	3.6	1.51e+00	0	38	104	3145728	60	50628
2026-01-07 17:19:20.28	0.43	18.17	-47.7	-62.9	3.6	1.51e+00	0	38	104	3145728	60	50422
2026-01-07 17:19:24.32	359.64	18.45	-47.7	-62.9	3.6	1.51e+00	0	38	104	3145728	60	50558
2026-01-07 17:19:28.36	358.84	18.72	-47.7	-62.9	3.6	1.51e+00	0	38	104	3145728	60	50647
2026-01-07 17:19:32.40	358.02	19.00	-47.7	-62.9	3.6	1.51e+00	0	38	104	3145728	60	50606
2026-01-07 17:19:36.44	357.19	19.26	-47.7	-62.9	3.6	1.51e+00	0	38	104	3145728	60	50395
2026-01-07 17:19:40.48	356.34	19.53	-47.7	-62.9	3.6	1.51e+00	0	38	104	3145728	60	50610
2026-01-07 17:19:44.52	355.48	19.79	-47.7	-62.9	3.6	1.51e+00	0	38	104	3145728	60	50742
2026-01-07 17:19:48.56	354.60	20.05	-47.7	-62.9	3.6	1.51e+00	0	38	104	3145728	60	50374
2026-01-07 17:19:52.59	353.72	20.30	-47.7	-62.9	3.6	1.51e+00	0	38	104	3145728	60	50692
2026-01-07 17:19:56.64	352.81	20.55	-47.7	-62.9	3.6	1.51e+00	0	38	104	3145728	60	50629
2026-01-07 17:20:00.68	351.89	20.79	-47.7	-62.9	3.6	1.51e+00	0	38	104	3145728	60	50361
2026-01-07 17:20:04.71	350.95	21.03	-47.7	-62.9	3.6	1.51e+00	0	38	104	3145728	60	50497
2026-01-07 17:20:08.75	350.00	21.26	-47.7	-62.9	3.6	1.51e+00	0	38	104	3145728	60	50532
2026-01-07 17:20:12.79	349.04	21.48	-47.7	-62.9	3.6	1.51e+00	0	38	104	3145728	60	50601
2026-01-07 17:20:16.83	348.06	21.70	-47.7	-62.9	3.6	1.51e+00	0	38	104	3145728	60	50567
2026-01-07 17:20:20.87	347.07	21.91	-47.7	-62.9	3.6	1.51e+00	0	38	104	3145728	60	50589
2026-01-07 17:20:24.90	346.07	22.11	-47.7	-62.9	3.6	1.51e+00	0	38	104	3145728	60	50636
2026-01-07 17:20:28.94	345.05	22.30	-47.7	-62.9	3.6	1.51e+00	0	38	104	3145728	60	50531
2026-01-07 17:20:32.98	344.02	22.49	-47.7	-62.9	3.6	1.51e+00	0	38	104	3145728	60	50657
2026-01-07 17:20:37.02	342.98	22.67	-47.7	-62.9	3.6	1.51e+00	0	38	104	3145728	60	50467
2026-01-07 17:20:41.06	341.92	22.83	-47.7	-62.9	3.6	1.51e+00	0	38	104	3145728	60	50420
2026-01-07 17:20:45.10	340.85	22.99	-47.7	-63.0	3.6	1.51e+00	0	38	104	3145728	60	50891
2026-01-07 17:20:49.14	339.78	23.14	-47.7	-62.9	3.6	1.51e+00	0	38	104	3145728	60	50694
2026-01-07 17:20:53.19	338.69	23.28	-47.8	-63.0	3.6	1.51e+00	0	38	104	3145728	60	50873
2026-01-07 17:20:57.23	337.59	23.41	-47.8	-62.9	3.6	1.51e+00	0	38	104	3145728	60	50664
2026-01-07 17:21:01.27	336.49	23.52	-47.8	-62.9	3.6	1.51e+00	0	38	104	3145728	60	50522
2026-01-07 17:21:05.31	335.37	23.63	-47.7	-62.9	3.6	1.51e+00	0	38	104	3145728	60	50754
2026-01-07 17:21:09.35	334.25	23.72	-47.7	-62.9	3.6	1.51e+00	0	38	104	3145728	60	50636
2026-01-07 17:21:13.39	333.13	23.81	-47.7	-62.9	3.6	1.51e+00	0	38	104	3145728	60	50579
2026-01-07 17:21:17.43	331.99	23.88	-47.8	-62.9	3.6	1.51e+00	0	38	104	3145728	60	50596
2026-01-07 17:21:21.47	330.86	23.93	-47.8	-62.9	3.6	1.51e+00	0	38	104	3145728	60	50722
2026-01-07 17:21:25.51	329.72	23.98	-47.8	-62.9	3.6	1.51e+00	0	38	104	3145728	60	50650
2026-01-07 17:21:29.55	328.57	24.02	-47.8	-62.9	3.6	1.51e+00	0	38	104	3145728	60	50567
2026-01-07 17:21:33.59	327.43	24.04	-47.8	-62.9	3.6	1.51e+00	0	38	104	3145728	60	50726
2026-01-07 17:21:37.63	326.28	24.05	-47.8	-62.9	3.5	1.51e+00	0	38	104	3145728	60	50629
2026-01-07 17:21:41.67	325.13	24.04	-47.8	-63.0	3.6	1.51e+00	0	38	104	3145728	60	50812
2026-01-07 17:21:45.71	323.98	24.03	-47.7	-62.9	3.6	1.51e+00	0	38	104	3145728	60	50564
2026-01-07 17:21:49.75	322.84	24.00	-47.7	-62.9	3.6	1.51e+00	0	38	104	3145728	60	50609
2026-01-07 17:21:53.78	321.70	23.96	-47.8	-62.9	3.6	1.51e+00	0	38	104	3145728	60	50561
2026-01-07 17:21:57.82	320.56	23.91	-47.8	-62.9	3.6	1.51e+00	0	38	104	3145728	60	50617
2026-01-07 17:22:01.86	319.42	23.84	-47.8	-62.9	3.6	1.51e+00	0	38	104	3145728	60	50591
2026-01-07 17:22:05.90	318.29	23.77	-47.7	-62.9	3.6	1.51e+00	0	38	104	3145728	60	50532
2026-01-07 17:22:09.94	317.17	23.68	-47.8	-62.9	3.6	1.51e+00	0	38	104	3145728	60	50470
2026-01-07 17:22:13.98	316.05	23.58	-47.8	-62.9	3.6	1.51e+00	0	38	104	3145728	60	50527
2026-01-07 17:22:18.02	314.94	23.47	-47.8	-62.9	3.6	1.51e+00	0	38	104	3145728	60	50689
2026-01-07 17:22:22.06	313.84	23.35	-47.8	-63.0	3.6	1.51e+00	0	38	104	3145728	60	50822
2026-01-07 17:22:26.10	312.75	23.21	-47.8	-62.9	3.6	1.51e+00	0	38	104	3145728	60	50748
2026-01-07 17:22:30.14	311.66	23.07	-47.8	-63.0	3.6	1.51e+00	0	38	104	3145728	60	50809
2026-01-07 17:22:34.18	310.59	22.92	-47.8	-62.9	3.6	1.51e+00	0	38	104	3145728	60	50603
2026-01-07 17:22:38.21	309.53	22.75	-47.8	-62.9	3.6	1.51e+00	0	38	104	3145728	60	50664
2026-01-07 17:22:42.25	308.48	22.58	-47.8	-62.9	3.6	1.51e+00	0	38	104	3145728	60	50600
2026-01-07 17:22:46.29	307.44	22.40	-47.8	-62.9	3.6	1.51e+00	0	38	104	3145728	60	50731
2026-01-07 17:22:50.33	306.41	22.21	-47.8	-62.9	3.6	1.51e+00	0	38	104	3145728	60	50655
2026-01-07 17:22:54.37	305.40	22.01	-47.8	-62.9	3.6	1.51e+00	0	38	104	3145728	60	50302
2026-01-07 17:22:58.41	304.40	21.81	-47.8	-62.9	3.6	1.51e+00	0	38	104	3145728	60	50441
2026-01-07 17:23:02.45	303.41	21.59	-47.8	-63.0	3.5	1.51e+00	0	38	104	3145728	60	50787
2026-01-07 17:23:06.49	302.44	21.37	-47.8	-63.0	3.6	1.51e+00	0	38	104	3145728	60	50917
2026-01-07 17:23:10.53	301.48	21.14	-47.8	-63.0	3.6	1.51e+00	0	38	104	3145728	60	50868
2026-01-07 17:23:14.57	300.53	20.91	-47.8	-62.9	3.6	1.51e+00	0	38	104	3145728	60	50710
2026-01-07 17:23:18.60	299.61	20.67	-47.8	-62.9	3.6	1.51e+00	0	38	104	3145728	60	50746
2026-01-07 17:23:22.64	298.69	20.43	-47.8	-63.0	3.6	1.51e+00	0	38	104	3145728	60	51059
2026-01-07 17:23:26.68	297.79	20.18	-47.8	-62.9	3.6	1.51e+00	0	38	104	3145728	60	50624
2026-01-07 17:23:30.72	296.90	19.92	-47.8	-63.0	3.6	1.51e+00	0	39	104	3145728	60	50822
2026-01-07 17:23:34.76	296.03	19.66	-47.8	-62.9	3.6	1.51e+00	0	38	104	3145728	60	50714
2026-01-07 17:23:38.80	295.18	19.40	-47.8	-62.9	3.6	1.51e+00	0	38	104	3145728	60	50752
2026-01-07 17:23:42.84	294.34	19.13	-47.8	-63.0	3.6	1.51e+00	0	38	104	3145728	60	51037
2026-01-07 17:23:46.88	293.51	18.86	-47.8	-62.9	3.6	1.51e+00	0	38	104	3145728	60	50600
2026-01-07 17:23:50.92	292.70	18.59	-47.8	-62.9	3.6	1.51e+00	0	38	104	3145728	60	50686
2026-01-07 17:23:54.96	291.90	18.31	-47.8	-63.0	3.6	1.51e+00	0	38	104	3145728	60	50810
2026-01-07 17:23:58.99	291.12	18.03	-47.8	-63.0	3.6	1.51e+00	0	38	104	3145728	60	50825
2026-01-07 17:24:03.03	290.35	17.75	-47.8	-63.0	3.6	1.51e+00	0	38	104	3145728	60	50825
2026-01-07 17:24:07.07	289.60	17.47	-47.8	-62.9	3.6	1.51e+00	0	38	104	3145728	60	50757
2026-01-07 17:24:11.11	288.86	17.18	-47.8	-62.9	3.6	1.51e+00	0	38	104	3145728	60	50720
2026-01-07 17:24:15.15	288.13	16.89	-47.8	-62.9	3.6	1.51e+00	0	38	104	3145728	60	50650
2026-01-07 17:24:19.19	287.42	16.61	-47.8	-63.0	3.6	1.51e+00	0	38	104	3145728	60	50938
2026-01-07 17:24:23.23	286.72	16.32	-47.8	-63.0	3.6	1.51e+00	0	38	104	3145728	60	50808
2026-01-07 17:24:27.27	286.04	16.03	-47.8	-63.0	3.6	1.51e+00	0	38	104	3145728	60	50874
2026-01-07 17:24:31.31	285.37	15.74	-47.8	-62.9	3.6	1.51e+00	0	38	104	3145728	60	50696
2026-01-07 17:24:35.35	284.71	15.45	-47.8	-62.9	3.6	1.51e+00	0	38	104	3145728	60	50679
2026-01-07 17:24:39.39	284.06	15.16	-47.8	-62.9	3.6	1.51e+00	0	38	104	3145728	60	50578
2026-01-07 17:24:43.43	283.43	14.86	-47.8	-63.0	3.6	1.51e+00	0	38	104	3145728	60	50819
2026-01-07 17:24:47.46	282.81	14.57	-47.8	-63.0	3.6	1.51e+00	0	38	104	3145728	60	50786
2026-01-07 17:24:51.50	282.21	14.28	-47.8	-62.9	3.6	1.51e+00	0	38	104	3145728	60	50638
2026-01-07 17:24:55.54	281.61	13.99	-47.8	-62.9	3.6	1.51e+00	0	38	104	3145728	60	50682
2026-01-07 17:24:59.58	281.03	13.70	-47.8	-62.9	3.6	1.51e+00	0	38	104	3145728	60	50742
2026-01-07 17:25:03.62	280.45	13.41	-47.8	-63.0	3.6	1.51e+00	0	38	104	3145728	60	50883
2026-01-07 17:25:07.66	279.89	13.12	-47.8	-63.0	3.6	1.51e+00	0	38	104	3145728	60	50877
2026-01-07 17:25:11.70	279.34	12.83	-47.8	-63.0	3.6	1.51e+00	0	38	104	3145728	60	50805
2026-01-07 17:25:15.73	278.80	12.55	-47.8	-63.0	3.6	1.51e+00	0	38	104	3145728	60	50959
2026-01-07 17:25:19.77	278.28	12.26	-47.8	-62.9	3.6	1.51e+00	0	38	104	3145728	60	50744
2026-01-07 17:25:23.81	277.76	11.97	-47.8	-63.0	3.6	1.51e+00	0	38	104	3145728	60	50790
2026-01-07 17:25:27.85	277.25	11.69	-47.8	-62.9	3.6	1.51e+00	0	38	104	3145728	60	50695
2026-01-07 17:25:31.89	276.75	11.41	-47.8	-62.9	3.6	1.51e+00	0	38	104	3145728	60	50548
2026-01-07 17:25:35.92	276.26	11.12	-47.8	-62.9	3.6	1.51e+00	0	38	104	3145728	60	50553
2026-01-07 17:25:39.96	275.78	10.84	-47.8	-63.0	3.6	1.51e+00	0	38	104	3145728	60	50789
2026-01-07 17:25:44.00	275.31	10.56	-47.8	-62.9	3.6	1.51e+00	0	38	104	3145728	60	50697
2026-01-07 17:25:48.04	274.85	10.28	-47.8	-62.9	3.6	1.51e+00	0	38	104	3145728	60	50680
2026-01-07 17:25:52.08	274.40	10.01	-47.8	-62.9	3.6	1.51e+00	0	38	104	3145728	60	50751
2026-01-07 17:25:56.12	273.96	9.73	-47.8	-63.0	3.6	1.51e+00	0	38	104	3145728	60	50777
2026-01-07 17:26:00.16	273.52	9.46	-47.8	-63.0	3.6	1.51e+00	0	38	104	3145728	60	50913
2026-01-07 17:26:04.20	273.10	9.18	-47.8	-63.0	3.6	1.51e+00	0	38	104	3145728	60	50923
2026-01-07 17:26:08.24	272.68	8.91	-47.8	-63.0	3.6	1.51e+00	0	38	104	3145728	60	51046
2026-01-07 17:26:12.28	272.27	8.64	-47.8	-63.0	3.6	1.51e+00	0	38	104	3145728	60	50969
2026-01-07 17:26:16.32	271.87	8.37	-47.8	-63.0	3.6	1.51e+00	0	38	104	3145728	60	50822
2026-01-07 17:26:20.36	271.47	8.11	-47.8	-62.9	3.6	1.51e+00	0	38	104	3145728	60	50652
2026-01-07 17:26:24.40	271.08	7.84	-47.8	-62.9	3.6	1.51e+00	0	38	104	3145728	60	50761
2026-01-07 17:26:28.44	270.70	7.58	-47.8	-63.0	3.6	1.51e+00	0	38	104	3145728	60	50824
2026-01-07 17:26:32.48	270.33	7.31	-47.8	-62.9	3.6	1.51e+00	0	38	104	3145728	60	50568
2026-01-07 17:26:36.52	269.96	7.05	-47.8	-62.9	3.6	1.51e+00	0	38	104	3145728	60	50610
2026-01-07 17:26:40.56	269.60	6.79	-47.8	-62.9	3.6	1.51e+00	0	38	104	3145728	60	50460
2026-01-07 17:26:44.60	269.25	6.53	-47.8	-63.0	3.6	1.51e+00	0	38	104	3145728	60	50897
2026-01-07 17:26:48.64	268.90	6.28	-47.8	-62.9	3.6	1.51e+00	0	38	104	3145728	60	50648
2026-01-07 17:26:52.68	268.56	6.02	-47.8	-62.9	3.6	1.51e+00	0	38	104	3145728	60	50648
2026-01-07 17:26:56.72	268.23	5.77	-47.8	-63.0	3.6	1.51e+00	0	38	104	3145728	60	50868
2026-01-07 17:27:00.76	267.90	5.52	-47.8	-62.9	3.6	1.51e+00	0	38	104	3145728	60	50575
2026-01-07 17:27:04.79	267.58	5.27	-47.8	-62.9	3.6	1.51e+00	0	38	104	3145728	60	50702
2026-01-07 17:27:08.83	267.26	5.02	-47.8	-62.9	3.6	1.51e+00	0	38	104	3145728	60	50354
2026-01-07 17:27:12.87	266.95	4.77	-47.8	-62.9	3.6	1.51e+00	0	38	104	3145728	60	50604
2026-01-07 17:27:16.91	266.64	4.53	-47.8	-62.9	3.6	1.51e+00	0	38	104	3145728	60	50702
2026-01-07 17:27:20.95	266.34	4.28	-47.8	-62.9	3.6	1.51e+00	0	38	104	3145728	60	50599
2026-01-07 17:27:24.99	266.04	4.04	-47.8	-63.0	3.6	1.51e+00	0	39	104	3145728	60	50859
2026-01-07 17:27:29.03	265.75	3.80	-47.8	-62.9	3.6	1.51e+00	0	38	104	3145728	60	50715
2026-01-07 17:27:33.07	265.47	3.56	-47.8	-63.0	3.6	1.51e+00	0	39	104	3145728	60	50783
2026-01-07 17:27:37.11	265.19	3.32	-47.8	-63.0	3.6	1.51e+00	0	38	104	3145728	60	50881
2026-01-07 17:27:41.15	264.91	3.08	-47.8	-62.9	3.6	1.51e+00	0	38	104	3145728	60	50551
2026-01-07 17:27:45.19	264.64	2.85	-47.8	-63.0	3.6	1.51e+00	0	38	104	3145728	60	50805
2026-01-07 17:27:49.23	264.37	2.61	-47.8	-62.9	3.6	1.51e+00	0	38	104	3145728	60	50705
2026-01-07 17:27:53.27	264.11	2.38	-47.8	-62.9	3.6	1.51e+00	0	38	104	3145728	60	50382
2026-01-07 17:27:57.30	263.85	2.15	-47.8	-63.0	3.6	1.51e+00	0	38	104	3145728	60	50832
2026-01-07 17:28:01.34	263.59	1.92	-47.8	-63.0	3.6	1.51e+00	0	38	104	3145728	60	50767
2026-01-07 17:28:05.38	263.34	1.69	-47.8	-63.0	3.6	1.51e+00	0	38	104	3145728	60	50947
2026-01-07 17:28:09.42	263.10	1.46	-47.8	-63.0	3.6	1.51e+00	0	38	104	3145728	60	50805
2026-01-07 17:28:13.46	262.86	1.23	-47.8	-63.0	3.6	1.51e+00	0	38	104	3145728	60	50844
2026-01-07 17:28:17.50	262.62	1.01	-47.8	-63.0	3.6	1.51e+00	0	38	104	3145728	60	50898
2026-01-07 17:28:21.54	262.38	0.78	-47.8	-63.0	3.6	1.51e+00	0	38	104	3145728	60	50937
2026-01-07 17:28:25.59	262.15	0.56	-47.8	-62.9	3.6	1.51e+00	0	38	104	3145728	60	50683
2026-01-07 17:28:29.63	261.92	0.34	-47.8	-62.9	3.6	1.51e+00	0	38	104	3145728	60	50743
2026-01-07 17:28:33.67	261.70	0.12	-47.8	-63.0	3.6	1.51e+00	0	38	104	3145728	60	50944

#Closed at: 2026-01-07 17:28:36
#Recorded file [3 MB]: D:/lorett/data/35029_260108_051441.dat