passes_logs/2026/01/07/R4.6S_Anadyr/R4.6S_Anadyr__20260107_182105_FENGYUN_3E_rec.log

#Pass ID: 20260107_182105_FENGYUN 3E
#Satellite: FENGYUN 3E
#Configuration: FENGYUN 3E
#almurnet v.1.7.20251203
#Start time: 2026-01-07 18:21:07

#Version: 2.2.20231116
#Station: R4.6S_Anadyr
#Location: 177.4865 lon 64.73178 lat
#TLE: 1 49008U 21062A   26005.56299987  .00000339  00000+0  18069-3 0  9991
#TLE: 2 49008  98.7472  10.8019 0001562 158.0357 202.0886 14.19884907233502

#Time	Az	El	Level	Level2	SNR	BER	BlckErr	Temp	State	Recorded	gain1	gain2
2026-01-07 18:21:07.36	19.43	0.12	-49.3	-64.2	3.5	1.51e+00	0	35	0	0	60	58780
2026-01-07 18:21:11.40	19.52	0.35	-49.1	-60.4	3.6	8.46e-01	0	37	104	0	60	37704
2026-01-07 18:21:15.43	19.62	0.59	-49.1	-60.4	3.6	8.45e-01	0	37	104	0	60	37641
2026-01-07 18:21:19.47	19.72	0.84	-49.1	-60.4	3.6	8.45e-01	0	37	104	0	60	37695
2026-01-07 18:21:23.51	19.82	1.08	-49.1	-60.4	3.6	8.45e-01	0	37	104	0	60	37792
2026-01-07 18:21:27.55	19.92	1.33	-49.1	-60.4	3.6	8.45e-01	0	37	104	0	60	37779
2026-01-07 18:21:31.58	20.02	1.57	-49.1	-60.4	3.6	8.45e-01	0	37	104	0	60	37727
2026-01-07 18:21:35.62	20.12	1.82	-49.1	-60.4	3.6	8.46e-01	0	37	104	0	60	37634
2026-01-07 18:21:39.66	20.23	2.08	-49.2	-60.3	3.6	8.44e-01	0	37	104	0	60	37503
2026-01-07 18:21:43.70	20.34	2.33	-49.2	-60.3	3.6	8.45e-01	0	37	104	0	60	37631
2026-01-07 18:21:47.74	20.44	2.59	-49.2	-60.4	3.6	8.46e-01	0	38	104	0	60	37679
2026-01-07 18:21:51.78	20.55	2.85	-49.2	-60.4	3.6	8.45e-01	0	38	104	0	60	37678
2026-01-07 18:21:55.82	20.67	3.11	-49.2	-60.4	3.6	8.45e-01	0	38	104	0	60	37808
2026-01-07 18:21:59.86	20.78	3.37	-49.2	-60.4	3.6	8.46e-01	0	38	104	0	60	37716
2026-01-07 18:22:03.90	20.89	3.64	-49.1	-60.4	3.6	8.47e-01	0	38	104	0	60	37780
2026-01-07 18:22:07.94	21.01	3.91	-49.2	-60.4	3.6	8.45e-01	0	38	104	0	60	37827
2026-01-07 18:22:11.98	21.13	4.18	-49.2	-60.4	3.6	8.45e-01	0	38	104	0	60	37737
2026-01-07 18:22:16.02	21.25	4.45	-49.2	-60.4	3.6	8.44e-01	0	38	104	0	60	37782
2026-01-07 18:22:20.06	21.37	4.73	-49.1	-60.3	3.6	8.46e-01	0	38	104	0	60	37607
2026-01-07 18:22:24.10	21.50	5.01	-49.2	-60.4	3.5	8.46e-01	0	38	104	0	60	37821
2026-01-07 18:22:28.14	21.62	5.29	-49.2	-60.4	3.6	8.46e-01	0	38	104	0	60	37722
2026-01-07 18:22:32.18	21.75	5.58	-49.2	-60.4	3.6	8.45e-01	0	38	104	0	60	37894
2026-01-07 18:22:36.22	21.88	5.87	-49.2	-60.4	3.6	8.45e-01	0	38	104	0	60	37866
2026-01-07 18:22:40.26	22.01	6.16	-49.2	-60.4	3.6	8.44e-01	0	38	104	0	60	37819
2026-01-07 18:22:44.30	22.15	6.45	-49.2	-60.4	3.6	8.46e-01	0	38	104	0	60	37703
2026-01-07 18:22:48.34	22.29	6.75	-49.2	-60.4	3.6	8.46e-01	0	38	104	0	60	37821
2026-01-07 18:22:52.38	22.43	7.05	-49.2	-60.4	3.6	8.46e-01	0	38	104	0	60	37852
2026-01-07 18:22:56.42	22.57	7.36	-49.2	-60.4	3.6	8.46e-01	0	38	104	0	60	37639
2026-01-07 18:23:00.46	22.71	7.67	-49.2	-60.3	3.6	8.45e-01	0	38	104	0	60	37587
2026-01-07 18:23:04.50	22.86	7.98	-49.2	-60.4	3.6	8.45e-01	0	38	104	0	60	37713
2026-01-07 18:23:08.54	23.01	8.30	-49.2	-60.4	3.6	8.44e-01	0	38	104	0	60	37723
2026-01-07 18:23:12.58	23.17	8.62	-49.2	-60.4	3.6	8.45e-01	0	38	104	0	60	37641
2026-01-07 18:23:16.62	23.32	8.94	-49.2	-60.4	3.6	8.46e-01	0	38	104	0	60	37768
2026-01-07 18:23:20.66	23.48	9.27	-49.2	-60.4	3.6	8.45e-01	0	38	104	0	60	37894
2026-01-07 18:23:24.70	23.65	9.60	-49.2	-60.4	3.6	8.46e-01	0	38	104	0	60	37917
2026-01-07 18:23:28.73	23.81	9.94	-49.2	-60.4	3.6	8.45e-01	0	38	104	0	60	37837
2026-01-07 18:23:32.77	23.98	10.28	-49.2	-60.4	3.6	8.44e-01	0	38	104	0	60	37733
2026-01-07 18:23:36.81	24.16	10.63	-49.2	-60.4	3.6	8.45e-01	0	38	104	0	60	38008
2026-01-07 18:23:40.84	24.33	10.98	-49.2	-60.4	3.6	8.44e-01	0	38	104	0	60	37853
2026-01-07 18:23:44.88	24.51	11.33	-49.2	-60.4	3.6	8.45e-01	0	38	104	0	60	37814
2026-01-07 18:23:48.92	24.70	11.69	-49.2	-60.4	3.5	8.46e-01	0	38	104	0	60	37821
2026-01-07 18:23:52.96	24.89	12.06	-49.2	-60.4	3.6	8.46e-01	0	38	104	0	60	37749
2026-01-07 18:23:57.00	25.08	12.43	-49.1	-60.3	3.6	8.45e-01	0	38	104	0	60	37621
2026-01-07 18:24:01.04	25.28	12.80	-49.2	-60.3	3.6	8.46e-01	0	38	104	0	60	37551
2026-01-07 18:24:05.07	25.48	13.19	-49.2	-60.3	3.6	8.46e-01	0	38	104	0	60	37489
2026-01-07 18:24:09.11	25.69	13.57	-49.1	-60.4	3.5	8.45e-01	0	38	104	0	60	37766
2026-01-07 18:24:13.15	25.90	13.97	-49.1	-60.4	3.6	8.44e-01	0	38	104	0	60	37797
2026-01-07 18:24:17.19	26.12	14.37	-49.1	-60.4	3.6	8.45e-01	0	38	104	0	60	37713
2026-01-07 18:24:21.23	26.34	14.77	-49.1	-60.4	3.6	8.45e-01	0	38	104	0	60	37810
2026-01-07 18:24:25.26	26.57	15.19	-49.1	-60.4	3.6	8.46e-01	0	38	104	0	60	37748
2026-01-07 18:24:29.30	26.81	15.61	-49.1	-60.4	3.6	8.45e-01	0	38	104	0	60	37759
2026-01-07 18:24:33.34	27.05	16.03	-49.1	-60.4	3.6	8.45e-01	0	38	104	0	60	37793
2026-01-07 18:24:37.38	27.30	16.47	-49.1	-60.3	3.6	8.46e-01	0	38	104	0	60	37604
2026-01-07 18:24:41.42	27.55	16.91	-49.1	-60.4	3.6	8.46e-01	0	38	104	0	60	37693
2026-01-07 18:24:45.46	27.81	17.36	-49.1	-60.4	3.6	8.45e-01	0	38	104	0	60	37855
2026-01-07 18:24:49.50	28.08	17.82	-49.1	-60.4	3.6	8.46e-01	0	38	104	0	60	37833
2026-01-07 18:24:53.54	28.36	18.28	-49.1	-60.4	3.6	8.44e-01	0	39	104	0	60	37747
2026-01-07 18:24:57.58	28.64	18.75	-49.1	-60.4	3.6	8.46e-01	0	38	104	0	60	37687
2026-01-07 18:25:01.62	28.94	19.24	-49.1	-60.4	3.6	8.45e-01	0	38	104	0	60	37702
2026-01-07 18:25:05.66	29.24	19.73	-49.1	-60.4	3.5	8.46e-01	0	39	104	0	60	37669
2026-01-07 18:25:09.70	29.55	20.23	-49.1	-60.4	3.6	8.46e-01	0	38	104	0	60	37732
2026-01-07 18:25:13.74	29.87	20.74	-49.1	-60.4	3.6	8.44e-01	0	38	104	0	60	37675
2026-01-07 18:25:17.78	30.21	21.26	-49.2	-60.4	3.6	8.44e-01	0	38	104	0	60	37654
2026-01-07 18:25:21.82	30.55	21.79	-49.1	-60.3	3.6	8.45e-01	0	38	104	0	60	37597
2026-01-07 18:25:25.86	30.90	22.32	-49.1	-60.4	3.6	8.45e-01	0	39	104	0	60	37710
2026-01-07 18:25:29.90	31.27	22.88	-49.1	-60.4	3.6	8.44e-01	0	39	104	0	60	37713
2026-01-07 18:25:33.94	31.65	23.44	-49.1	-60.3	3.6	8.45e-01	0	39	104	0	60	37548
2026-01-07 18:25:37.97	32.04	24.01	-49.1	-60.4	3.6	8.46e-01	0	39	104	0	60	37633
2026-01-07 18:25:42.01	32.45	24.59	-49.1	-60.4	3.6	8.45e-01	0	38	104	0	60	37653
2026-01-07 18:25:46.05	32.87	25.19	-49.1	-60.4	3.6	8.44e-01	0	39	104	0	60	37770
2026-01-07 18:25:50.09	33.30	25.79	-49.1	-60.3	3.6	8.46e-01	0	39	104	0	60	37584
2026-01-07 18:25:54.13	33.76	26.42	-49.1	-60.4	3.6	8.46e-01	0	39	104	0	60	37729
2026-01-07 18:25:58.17	34.23	27.05	-49.1	-60.4	3.6	8.46e-01	0	39	104	0	60	37713
2026-01-07 18:26:02.21	34.72	27.69	-49.1	-60.4	3.6	8.46e-01	0	39	104	0	60	37707
2026-01-07 18:26:06.25	35.23	28.35	-49.1	-60.3	3.6	8.46e-01	0	39	104	0	60	37589
2026-01-07 18:26:10.29	35.76	29.03	-49.1	-60.3	3.6	8.45e-01	0	39	104	0	60	37416
2026-01-07 18:26:14.33	36.31	29.71	-49.1	-60.4	3.6	8.45e-01	0	39	104	0	60	37842
2026-01-07 18:26:18.37	36.88	30.42	-49.2	-60.4	3.6	8.45e-01	0	39	104	0	60	37867
2026-01-07 18:26:22.41	37.48	31.13	-49.1	-60.4	3.6	8.45e-01	0	39	104	0	60	37665
2026-01-07 18:26:26.45	38.11	31.86	-49.1	-60.4	3.6	8.45e-01	0	38	104	0	60	37804
2026-01-07 18:26:30.48	38.77	32.61	-49.1	-60.4	3.6	8.45e-01	0	39	104	0	60	37739
2026-01-07 18:26:34.52	39.45	33.37	-49.1	-60.4	3.6	8.46e-01	0	39	104	0	60	37726
2026-01-07 18:26:38.56	40.17	34.14	-49.1	-60.4	3.6	8.45e-01	0	39	104	0	60	37771
2026-01-07 18:26:42.60	40.92	34.93	-49.1	-60.4	3.6	8.46e-01	0	39	104	0	60	37857
2026-01-07 18:26:46.64	41.71	35.73	-49.1	-60.3	3.6	8.46e-01	0	39	104	0	60	37632
2026-01-07 18:26:50.68	42.54	36.55	-49.1	-60.4	3.6	8.45e-01	0	39	104	0	60	37771
2026-01-07 18:26:54.72	43.41	37.38	-49.1	-60.4	3.6	8.46e-01	0	39	104	0	60	37645
2026-01-07 18:26:58.75	44.32	38.23	-49.2	-60.4	3.6	8.45e-01	0	39	104	0	60	37816
2026-01-07 18:27:02.79	45.29	39.09	-49.1	-60.4	3.6	8.45e-01	0	39	104	0	60	37787
2026-01-07 18:27:06.82	46.30	39.96	-49.2	-60.4	3.6	8.47e-01	0	39	104	0	60	37703
2026-01-07 18:27:10.86	47.37	40.84	-49.2	-60.4	3.6	8.46e-01	0	39	104	0	60	37742
2026-01-07 18:27:14.90	48.50	41.74	-49.2	-60.4	3.6	8.46e-01	0	39	104	0	60	37653
2026-01-07 18:27:18.94	49.70	42.64	-49.1	-60.4	3.6	8.46e-01	0	39	104	0	60	37919
2026-01-07 18:27:22.98	50.96	43.56	-49.1	-60.4	3.6	8.45e-01	0	39	104	0	60	37657
2026-01-07 18:27:27.02	52.30	44.48	-49.1	-60.4	3.6	8.46e-01	0	39	104	0	60	37756
2026-01-07 18:27:31.05	53.71	45.40	-49.2	-60.4	3.6	8.46e-01	0	39	104	0	60	37869
2026-01-07 18:27:35.09	55.21	46.32	-49.1	-60.4	3.6	8.46e-01	0	39	104	0	60	37791
2026-01-07 18:27:39.13	56.80	47.24	-49.2	-60.3	3.6	8.46e-01	0	39	104	0	60	37591
2026-01-07 18:27:43.17	58.48	48.16	-49.1	-60.4	3.6	8.44e-01	0	39	104	0	60	37736
2026-01-07 18:27:47.21	60.27	49.07	-49.1	-60.3	3.6	8.45e-01	0	39	104	0	60	37599
2026-01-07 18:27:51.25	62.16	49.97	-49.1	-60.4	3.6	8.46e-01	0	39	104	0	60	37775
2026-01-07 18:27:55.29	64.17	50.85	-49.2	-60.4	3.6	8.46e-01	0	39	104	0	60	37706
2026-01-07 18:27:59.33	66.29	51.71	-49.1	-60.4	3.6	8.45e-01	0	39	104	0	60	37668
2026-01-07 18:28:03.37	68.54	52.54	-49.1	-60.3	3.6	8.45e-01	0	39	104	0	60	37607
2026-01-07 18:28:07.41	70.92	53.34	-49.1	-60.4	3.6	8.46e-01	0	39	104	0	60	37901
2026-01-07 18:28:11.44	73.42	54.09	-49.1	-60.4	3.6	8.46e-01	0	39	104	0	60	37736
2026-01-07 18:28:15.48	76.05	54.81	-49.1	-60.4	3.6	8.44e-01	0	39	104	0	60	37751
2026-01-07 18:28:19.52	78.82	55.46	-49.1	-60.3	3.6	8.44e-01	0	39	104	0	60	37627
2026-01-07 18:28:23.55	81.70	56.06	-49.1	-60.4	3.6	8.46e-01	0	39	104	0	60	37799
2026-01-07 18:28:27.59	84.71	56.59	-49.2	-60.4	3.6	8.45e-01	0	39	104	0	60	37748
2026-01-07 18:28:31.63	87.83	57.05	-49.1	-60.4	3.6	8.45e-01	0	39	104	0	60	37765
2026-01-07 18:28:35.67	91.05	57.43	-49.1	-60.4	3.6	8.46e-01	0	39	104	0	60	37819
2026-01-07 18:28:39.71	94.34	57.73	-49.1	-60.4	3.6	8.47e-01	0	39	104	0	60	37892
2026-01-07 18:28:43.75	97.70	57.93	-49.1	-60.4	3.6	8.46e-01	0	39	104	0	60	37773
2026-01-07 18:28:47.79	101.10	58.04	-49.2	-60.4	3.6	8.45e-01	0	39	104	0	60	37716
2026-01-07 18:28:51.83	104.52	58.06	-49.1	-60.4	3.6	8.45e-01	0	39	104	0	60	37656
2026-01-07 18:28:55.87	107.93	57.99	-49.1	-60.4	3.6	8.45e-01	0	39	104	0	60	37828
2026-01-07 18:28:59.90	111.30	57.82	-49.1	-60.4	3.6	8.45e-01	0	39	104	0	60	37812
2026-01-07 18:29:03.95	114.63	57.57	-49.1	-60.4	3.5	8.45e-01	0	39	104	0	60	37707
2026-01-07 18:29:07.98	117.88	57.22	-49.1	-60.3	3.6	8.46e-01	0	39	104	0	60	37592
2026-01-07 18:29:12.02	121.04	56.80	-49.1	-60.4	3.6	8.45e-01	0	39	104	0	60	37764
2026-01-07 18:29:16.06	124.11	56.29	-49.1	-60.4	3.6	8.44e-01	0	39	104	0	60	37854
2026-01-07 18:29:20.10	127.05	55.72	-49.1	-60.4	3.6	8.45e-01	0	39	104	0	60	37634
2026-01-07 18:29:24.13	129.87	55.09	-49.1	-60.4	3.6	8.46e-01	0	39	104	0	60	37732
2026-01-07 18:29:28.17	132.56	54.39	-49.1	-60.4	3.6	8.45e-01	0	39	104	0	60	37675
2026-01-07 18:29:32.21	135.13	53.65	-49.1	-60.4	3.6	8.46e-01	0	39	104	0	60	37947
2026-01-07 18:29:36.25	137.56	52.87	-49.1	-60.3	3.6	8.46e-01	0	39	104	0	60	37616
2026-01-07 18:29:40.29	139.87	52.05	-49.1	-60.4	3.6	8.46e-01	0	39	104	0	60	37711
2026-01-07 18:29:44.33	142.05	51.20	-49.1	-60.4	3.6	8.45e-01	0	39	104	0	60	37655
2026-01-07 18:29:48.37	144.11	50.32	-49.1	-60.4	3.6	8.45e-01	0	39	104	0	60	37767
2026-01-07 18:29:52.41	146.05	49.43	-49.1	-60.4	3.6	8.45e-01	0	39	104	0	60	37635
2026-01-07 18:29:56.45	147.88	48.52	-49.1	-60.4	3.6	8.45e-01	0	39	104	0	60	37677
2026-01-07 18:30:00.49	149.61	47.60	-49.1	-60.4	3.6	8.45e-01	0	39	104	0	60	37902
2026-01-07 18:30:04.53	151.24	46.67	-49.1	-60.4	3.6	8.45e-01	0	39	104	0	60	37662
2026-01-07 18:30:08.57	152.78	45.75	-49.1	-60.4	3.6	8.45e-01	0	39	104	0	60	37708
2026-01-07 18:30:12.61	154.23	44.82	-49.1	-60.4	3.6	8.45e-01	0	39	104	0	60	37810
2026-01-07 18:30:16.65	155.61	43.89	-49.1	-60.4	3.6	8.45e-01	0	39	104	0	60	37706
2026-01-07 18:30:20.68	156.90	42.98	-49.1	-60.4	3.6	8.45e-01	0	39	104	0	60	37847
2026-01-07 18:30:24.72	158.12	42.06	-49.1	-60.4	3.6	8.45e-01	0	39	104	0	60	37666
2026-01-07 18:30:28.76	159.28	41.16	-49.1	-60.4	3.6	8.46e-01	0	39	104	0	60	37639
2026-01-07 18:30:32.80	160.38	40.27	-49.1	-60.4	3.6	8.45e-01	0	39	104	0	60	37726
2026-01-07 18:30:36.84	161.42	39.39	-49.1	-60.4	3.6	8.46e-01	0	39	104	0	60	37714
2026-01-07 18:30:40.87	162.40	38.52	-49.1	-60.3	3.6	8.46e-01	0	39	104	0	60	37562
2026-01-07 18:30:44.91	163.34	37.66	-49.1	-60.4	3.6	8.45e-01	0	39	104	0	60	37858
2026-01-07 18:30:48.95	164.23	36.82	-49.1	-60.4	3.6	8.44e-01	0	39	104	0	60	37735
2026-01-07 18:30:52.99	165.07	35.99	-49.1	-60.4	3.6	8.46e-01	0	39	104	0	60	37774
2026-01-07 18:30:57.03	165.88	35.18	-49.1	-60.4	3.6	8.45e-01	0	39	104	0	60	37673
2026-01-07 18:31:01.06	166.64	34.38	-49.1	-60.4	3.6	8.46e-01	0	39	104	0	60	37945
2026-01-07 18:31:05.10	167.38	33.59	-49.1	-60.4	3.6	8.45e-01	0	39	104	0	60	38030
2026-01-07 18:31:09.14	168.07	32.82	-49.1	-60.4	3.6	8.46e-01	0	39	104	0	60	37661
2026-01-07 18:31:13.18	168.74	32.07	-49.1	-60.4	3.6	8.46e-01	0	39	104	0	60	37772
2026-01-07 18:31:17.22	169.38	31.33	-49.1	-60.4	3.6	8.46e-01	0	39	104	0	60	37818
2026-01-07 18:31:21.26	169.99	30.61	-49.1	-60.4	3.6	8.45e-01	0	39	104	0	60	37791
2026-01-07 18:31:25.29	170.58	29.90	-49.1	-60.4	3.6	8.45e-01	0	39	104	0	60	37761
2026-01-07 18:31:29.33	171.14	29.20	-49.1	-60.4	3.6	8.45e-01	0	39	104	0	60	37691
2026-01-07 18:31:33.37	171.67	28.52	-49.1	-60.4	3.6	8.46e-01	0	39	104	0	60	37727
2026-01-07 18:31:37.41	172.19	27.85	-49.1	-60.4	3.6	8.44e-01	0	39	104	0	60	37790
2026-01-07 18:31:41.45	172.69	27.19	-49.1	-60.4	3.6	8.45e-01	0	39	104	0	60	37660
2026-01-07 18:31:45.48	173.16	26.56	-49.1	-60.4	3.6	8.46e-01	0	39	104	0	60	37706
2026-01-07 18:31:49.52	173.62	25.93	-49.1	-60.4	3.6	8.45e-01	0	39	104	0	60	37803
2026-01-07 18:31:53.56	174.07	25.31	-49.1	-60.4	3.6	8.46e-01	0	39	104	0	60	37713
2026-01-07 18:31:57.60	174.49	24.71	-49.1	-60.4	3.6	8.45e-01	0	39	104	0	60	37791
2026-01-07 18:32:01.64	174.90	24.12	-49.1	-60.4	3.6	8.46e-01	0	39	104	0	60	37794
2026-01-07 18:32:05.68	175.30	23.54	-49.1	-60.4	3.6	8.46e-01	0	39	104	0	60	37817
2026-01-07 18:32:09.72	175.68	22.97	-49.1	-60.4	3.6	8.45e-01	0	39	104	0	60	37667
2026-01-07 18:32:13.75	176.05	22.41	-49.1	-60.4	3.6	8.45e-01	0	39	104	0	60	37834
2026-01-07 18:32:17.79	176.41	21.87	-49.1	-60.4	3.6	8.46e-01	0	39	104	0	60	37961
2026-01-07 18:32:21.83	176.76	21.33	-49.1	-60.3	3.6	8.45e-01	0	39	104	0	60	37628
2026-01-07 18:32:25.87	177.09	20.80	-49.1	-60.4	3.6	8.45e-01	0	39	104	0	60	37658
2026-01-07 18:32:29.91	177.42	20.29	-49.1	-60.4	3.6	8.45e-01	0	39	104	0	60	37735
2026-01-07 18:32:33.95	177.73	19.78	-49.1	-60.3	3.6	8.46e-01	0	39	104	0	60	37584
2026-01-07 18:32:37.99	178.03	19.29	-49.1	-60.3	3.6	8.44e-01	0	39	104	0	60	37620
2026-01-07 18:32:42.03	178.33	18.80	-49.1	-60.4	3.6	8.46e-01	0	39	104	0	60	37716
2026-01-07 18:32:46.07	178.62	18.32	-49.1	-60.4	3.6	8.45e-01	0	39	104	0	60	37765
2026-01-07 18:32:50.10	178.89	17.85	-49.1	-60.4	3.6	8.45e-01	0	39	104	0	60	37998
2026-01-07 18:32:54.14	179.16	17.39	-49.1	-60.3	3.6	8.45e-01	0	39	104	0	60	37567
2026-01-07 18:32:58.18	179.43	16.93	-49.1	-60.4	3.6	8.46e-01	0	39	104	0	60	37660
2026-01-07 18:33:02.22	179.68	16.49	-49.1	-60.4	3.6	8.44e-01	0	39	104	0	60	37829
2026-01-07 18:33:06.26	179.93	16.05	-49.1	-60.4	3.6	8.45e-01	0	39	104	0	60	37650
2026-01-07 18:33:10.30	180.17	15.62	-49.1	-60.4	3.6	8.45e-01	0	39	104	0	60	37921
2026-01-07 18:33:14.34	180.41	15.19	-49.1	-60.4	3.6	8.45e-01	0	39	104	0	60	37830
2026-01-07 18:33:18.37	180.64	14.78	-49.1	-60.3	3.6	8.44e-01	0	39	104	0	60	37625
2026-01-07 18:33:22.41	180.86	14.37	-49.1	-60.3	3.6	8.44e-01	0	39	104	0	60	37621
2026-01-07 18:33:26.45	181.08	13.96	-49.1	-60.4	3.6	8.45e-01	0	39	104	0	60	37663
2026-01-07 18:33:30.49	181.29	13.56	-49.1	-60.3	3.6	8.46e-01	0	39	104	0	60	37584
2026-01-07 18:33:34.53	181.50	13.17	-49.1	-60.4	3.6	8.45e-01	0	39	104	0	60	37647
2026-01-07 18:33:38.57	181.70	12.79	-49.1	-60.4	3.6	8.45e-01	0	39	104	0	60	37644
2026-01-07 18:33:42.61	181.90	12.41	-49.1	-60.4	3.6	8.45e-01	0	39	104	0	60	37711
2026-01-07 18:33:46.64	182.09	12.03	-49.1	-60.4	3.6	8.45e-01	0	39	104	0	60	37700
2026-01-07 18:33:50.68	182.28	11.66	-49.1	-60.4	3.6	8.45e-01	0	39	104	0	60	37809
2026-01-07 18:33:54.73	182.46	11.30	-49.1	-60.4	3.6	8.45e-01	0	39	104	0	60	37680
2026-01-07 18:33:58.77	182.64	10.94	-49.1	-60.4	3.6	8.45e-01	0	39	104	0	60	37853
2026-01-07 18:34:02.81	182.82	10.59	-49.1	-60.3	3.6	8.45e-01	0	39	104	0	60	37622
2026-01-07 18:34:06.85	182.99	10.24	-49.1	-60.4	3.6	8.45e-01	0	39	104	0	60	37762
2026-01-07 18:34:10.89	183.16	9.89	-49.1	-60.4	3.6	8.45e-01	0	39	104	0	60	37825
2026-01-07 18:34:14.93	183.32	9.55	-49.1	-60.4	3.6	8.46e-01	0	39	104	0	60	37743
2026-01-07 18:34:18.97	183.49	9.22	-49.1	-60.3	3.6	8.46e-01	0	39	104	0	60	37460
2026-01-07 18:34:23.01	183.64	8.89	-49.1	-60.4	3.6	8.45e-01	0	39	104	0	60	37650
2026-01-07 18:34:27.05	183.80	8.56	-49.1	-60.4	3.6	8.45e-01	0	39	104	0	60	37683
2026-01-07 18:34:31.09	183.95	8.24	-49.1	-60.3	3.6	8.46e-01	0	39	104	0	60	37617
2026-01-07 18:34:35.13	184.10	7.92	-49.1	-60.4	3.6	8.46e-01	0	39	104	0	60	37699
2026-01-07 18:34:39.17	184.24	7.60	-49.1	-60.3	3.6	8.45e-01	0	39	104	0	60	37628
2026-01-07 18:34:43.21	184.39	7.29	-49.1	-60.4	3.6	8.45e-01	0	39	104	0	60	37860
2026-01-07 18:34:47.25	184.53	6.98	-49.1	-60.4	3.6	8.46e-01	0	39	104	0	60	37677
2026-01-07 18:34:51.29	184.67	6.68	-49.1	-60.4	3.6	8.46e-01	0	39	104	0	60	37722
2026-01-07 18:34:55.33	184.80	6.38	-49.1	-60.4	3.6	8.45e-01	0	39	104	0	60	37839
2026-01-07 18:34:59.37	184.93	6.08	-49.1	-60.4	3.6	8.44e-01	0	39	104	0	60	37950
2026-01-07 18:35:03.41	185.06	5.79	-49.1	-60.3	3.6	8.45e-01	0	39	104	0	60	37623
2026-01-07 18:35:07.44	185.19	5.50	-49.1	-60.4	3.6	8.45e-01	0	39	104	0	60	37832
2026-01-07 18:35:11.48	185.32	5.21	-49.1	-60.4	3.6	8.46e-01	0	39	104	0	60	37679
2026-01-07 18:35:15.52	185.44	4.92	-49.1	-60.4	3.6	8.45e-01	0	39	104	0	60	37712
2026-01-07 18:35:19.56	185.56	4.64	-49.1	-60.4	3.6	8.46e-01	0	39	104	0	60	37707
2026-01-07 18:35:23.60	185.68	4.36	-49.1	-60.3	3.6	8.44e-01	0	39	104	0	60	37631
2026-01-07 18:35:27.63	185.80	4.09	-49.1	-60.4	3.6	8.45e-01	0	39	104	0	60	37855
2026-01-07 18:35:31.63	185.91	3.82	-49.1	-60.3	3.6	8.45e-01	0	39	104	0	60	37618
2026-01-07 18:35:35.67	186.03	3.54	-49.1	-60.4	3.6	8.45e-01	0	39	104	0	60	37912
2026-01-07 18:35:39.71	186.14	3.28	-49.1	-60.3	3.6	8.45e-01	0	39	104	0	60	37625
2026-01-07 18:35:43.75	186.25	3.01	-49.1	-60.4	3.6	8.47e-01	0	39	104	0	60	37800
2026-01-07 18:35:47.79	186.35	2.75	-49.1	-60.4	3.6	8.46e-01	0	39	104	0	60	37678
2026-01-07 18:35:51.83	186.46	2.49	-49.1	-60.4	3.6	8.47e-01	0	39	104	0	60	37642
2026-01-07 18:35:55.87	186.57	2.23	-49.1	-60.3	3.6	8.46e-01	0	39	104	0	60	37623
2026-01-07 18:35:59.91	186.67	1.97	-49.1	-60.4	3.6	8.46e-01	0	39	104	0	60	37754
2026-01-07 18:36:03.94	186.77	1.72	-49.1	-60.4	3.6	8.46e-01	0	39	104	0	60	37790
2026-01-07 18:36:07.98	186.87	1.47	-49.1	-60.4	3.6	8.45e-01	0	39	104	0	60	37888
2026-01-07 18:36:12.03	186.97	1.22	-49.1	-60.4	3.6	8.46e-01	0	39	104	0	60	37762
2026-01-07 18:36:16.07	187.07	0.97	-49.1	-60.4	3.6	8.47e-01	0	39	104	0	60	37880
2026-01-07 18:36:20.11	187.16	0.72	-49.1	-60.4	3.6	8.45e-01	0	39	104	0	60	38041
2026-01-07 18:36:24.15	187.26	0.48	-49.1	-60.4	3.6	8.45e-01	0	39	104	0	60	37761
2026-01-07 18:36:28.19	187.35	0.24	-49.1	-60.4	3.6	8.46e-01	0	39	104	0	60	37909
2026-01-07 18:36:32.23	187.44	-0.00	-49.1	-60.4	3.6	8.45e-01	0	39	104	0	60	37960

#Closed at: 2026-01-07 18:36:35
#Recorded file [0 MB]: D:/lorett/data/35029_260108_062107.dat