passes_logs/2026/01/07/R4.6S_Anadyr/R4.6S_Anadyr__20260107_061653_FENGYUN_3E_rec.log

#Pass ID: 20260107_061653_FENGYUN 3E
#Satellite: FENGYUN 3E
#Configuration: FENGYUN 3E
#almurnet v.1.7.20251203
#Start time: 2026-01-07 06:16:56

#Version: 2.2.20231116
#Station: R4.6S_Anadyr
#Location: 177.4865 lon 64.73178 lat
#TLE: 1 49008U 21062A   26005.56299987  .00000339  00000+0  18069-3 0  9991
#TLE: 2 49008  98.7472  10.8019 0001562 158.0357 202.0886 14.19884907233502

#Time	Az	El	Level	Level2	SNR	BER	BlckErr	Temp	State	Recorded	gain1	gain2
2026-01-07 06:16:56.28	202.39	0.14	-48.9	-59.6	3.4	8.45e-01	0	33	0	0	60	34483
2026-01-07 06:17:00.32	202.62	0.36	-48.9	-60.3	3.5	8.46e-01	0	34	104	0	60	37317
2026-01-07 06:17:04.35	202.86	0.58	-49.0	-60.3	3.6	8.45e-01	0	34	104	0	60	37445
2026-01-07 06:17:08.39	203.10	0.80	-48.7	-60.0	3.6	8.44e-01	0	35	104	0	60	36161
2026-01-07 06:17:12.43	203.34	1.03	-48.1	-59.2	3.6	8.44e-01	0	35	104	0	60	33140
2026-01-07 06:17:16.47	203.58	1.25	-47.7	-58.8	3.6	8.47e-01	0	35	104	0	60	31547
2026-01-07 06:17:20.50	203.83	1.48	-47.7	-58.7	3.6	8.45e-01	0	35	104	0	60	31148
2026-01-07 06:17:24.54	204.08	1.70	-47.7	-58.9	3.6	8.46e-01	0	35	104	0	60	31890
2026-01-07 06:17:28.58	204.34	1.93	-47.7	-58.8	3.6	8.46e-01	0	35	104	0	60	31451
2026-01-07 06:17:32.63	204.60	2.16	-47.7	-58.4	3.6	8.45e-01	0	35	104	0	60	30117
2026-01-07 06:17:36.66	204.86	2.39	-47.7	-58.5	3.6	8.44e-01	0	35	104	0	60	30475
2026-01-07 06:17:40.71	205.13	2.63	-47.7	-58.4	3.6	8.45e-01	0	35	104	0	60	29991
2026-01-07 06:17:44.74	205.40	2.86	-47.3	-54.4	3.7	8.36e-01	0	35	104	0	60	18900
2026-01-07 06:17:48.78	205.67	3.10	-44.2	-46.7	11.1	4.54e-03	0	35	0	8388608	60	7775
2026-01-07 06:17:52.82	205.95	3.33	-38.1	-39.1	18.8	0.00e+00	0	35	0	37748736	50	5775
2026-01-07 06:17:56.86	206.23	3.57	-36.8	-37.6	6.1	8.17e-01	0	35	104	57671680	44	6897
2026-01-07 06:18:00.89	206.52	3.81	-36.5	-37.3	20.7	0.00e+00	0	35	0	80740352	46	5959
2026-01-07 06:18:04.92	206.81	4.05	-35.5	-36.3	21.7	0.00e+00	0	35	0	110100480	44	5927
2026-01-07 06:18:08.96	207.11	4.30	-35.5	-36.2	21.8	0.00e+00	0	35	0	138412032	44	5878
2026-01-07 06:18:13.00	207.41	4.54	-35.2	-35.9	22.1	0.00e+00	0	35	0	167772160	44	5680
2026-01-07 06:18:17.04	207.72	4.79	-35.0	-35.7	22.4	0.00e+00	0	35	0	197132288	44	5542
2026-01-07 06:18:21.08	208.03	5.04	-34.8	-35.5	22.6	0.00e+00	0	35	0	226492416	42	6069
2026-01-07 06:18:25.12	208.35	5.29	-34.5	-35.2	22.9	0.00e+00	0	35	0	255852544	42	5867
2026-01-07 06:18:29.16	208.67	5.54	-34.6	-35.3	22.9	0.00e+00	0	35	0	285212672	42	5897
2026-01-07 06:18:33.19	209.00	5.79	-34.4	-35.1	23.1	0.00e+00	0	35	0	313524224	42	5804
2026-01-07 06:18:37.23	209.33	6.05	-34.2	-34.9	23.3	0.00e+00	0	35	0	342884352	42	5665
2026-01-07 06:18:41.27	209.67	6.31	-33.9	-34.6	23.6	0.00e+00	0	35	0	372244480	42	5475
2026-01-07 06:18:45.31	210.01	6.56	-33.8	-34.4	23.8	0.00e+00	0	35	0	401604608	42	5370
2026-01-07 06:18:49.35	210.36	6.82	-33.8	-34.5	23.9	0.00e+00	0	35	0	430964736	40	6051
2026-01-07 06:18:53.39	210.72	7.09	-34.0	-34.6	23.8	0.00e+00	0	35	0	459276288	40	6158
2026-01-07 06:18:57.42	211.08	7.35	-33.9	-34.6	23.8	0.00e+00	0	35	0	488636416	40	6156
2026-01-07 06:19:01.46	211.45	7.62	-33.9	-34.6	23.8	0.00e+00	0	36	0	517996544	40	6105
2026-01-07 06:19:05.49	211.82	7.88	-33.9	-34.6	23.7	0.00e+00	0	35	0	547356672	40	6117
2026-01-07 06:19:09.54	212.21	8.15	-33.8	-34.4	24.0	0.00e+00	0	36	0	575668224	40	6018
2026-01-07 06:19:13.58	212.59	8.42	-33.3	-34.2	22.2	0.00e+00	0	35	0	605028352	40	5853
2026-01-07 06:19:17.62	212.99	8.70	-33.2	-34.0	22.4	0.00e+00	0	35	0	634388480	40	5748
2026-01-07 06:19:21.65	213.39	8.97	-33.1	-33.9	22.4	0.00e+00	0	35	0	663748608	40	5695
2026-01-07 06:19:25.69	213.80	9.25	-33.1	-33.9	22.5	0.00e+00	0	35	0	693108736	40	5667
2026-01-07 06:19:29.73	214.22	9.53	-33.1	-34.0	22.6	0.00e+00	0	36	0	721420288	40	5712
2026-01-07 06:19:33.77	214.65	9.81	-33.3	-34.1	22.5	0.00e+00	0	36	0	750780416	40	5794
2026-01-07 06:19:37.81	215.08	10.09	-33.3	-34.1	22.4	0.00e+00	0	35	0	780140544	40	5803
2026-01-07 06:19:41.85	215.52	10.37	-33.0	-33.8	22.9	0.00e+00	0	36	0	809500672	40	5596
2026-01-07 06:19:45.89	215.97	10.66	-32.8	-33.6	23.0	0.00e+00	0	36	0	838860800	38	6118
2026-01-07 06:19:49.93	216.43	10.95	-32.7	-33.6	22.9	0.00e+00	0	36	0	867172352	38	6104
2026-01-07 06:19:53.97	216.90	11.24	-32.8	-33.7	22.7	0.00e+00	0	36	0	896532480	38	6181
2026-01-07 06:19:58.01	217.37	11.53	-32.6	-33.5	22.8	0.00e+00	0	36	0	925892608	38	6055
2026-01-07 06:20:02.05	217.86	11.82	-32.5	-33.3	22.9	0.00e+00	0	36	0	955252736	38	5926
2026-01-07 06:20:06.08	218.35	12.11	-32.5	-33.3	22.8	0.00e+00	0	36	0	984612864	38	5922
2026-01-07 06:20:10.12	218.86	12.41	-32.5	-33.4	22.6	0.00e+00	0	36	0	1013972992	38	5967
2026-01-07 06:20:14.16	219.37	12.71	-32.2	-33.0	22.8	0.00e+00	0	36	0	1042284544	38	5754
2026-01-07 06:20:18.20	219.90	13.01	-32.3	-33.2	22.7	0.00e+00	0	36	0	1071644672	38	5844
2026-01-07 06:20:22.23	220.43	13.31	-32.5	-33.4	22.6	0.00e+00	0	36	0	1101004800	38	5967
2026-01-07 06:20:26.27	220.98	13.61	-32.4	-33.2	22.7	0.00e+00	0	36	0	1130364928	38	5869
2026-01-07 06:20:30.31	221.53	13.91	-32.2	-33.0	22.9	0.00e+00	0	36	0	1159725056	38	5759
2026-01-07 06:20:34.35	222.10	14.22	-32.0	-32.8	23.2	0.00e+00	0	36	0	1188036608	38	5571
2026-01-07 06:20:38.39	222.68	14.52	-31.9	-32.7	23.4	0.00e+00	0	36	0	1217396736	38	5554
2026-01-07 06:20:42.43	223.27	14.83	-31.6	-32.4	23.5	0.00e+00	0	36	0	1246756864	36	6022
2026-01-07 06:20:46.46	223.87	15.14	-31.5	-32.3	23.6	0.00e+00	0	36	0	1276116992	36	5931
2026-01-07 06:20:50.50	224.49	15.45	-31.3	-32.1	23.8	0.00e+00	0	36	0	1305477120	36	5775
2026-01-07 06:20:54.54	225.11	15.76	-31.1	-31.9	24.0	0.00e+00	0	36	0	1333788672	36	5632
2026-01-07 06:20:58.57	225.75	16.07	-31.2	-32.0	23.8	0.00e+00	0	36	0	1363148800	36	5696
2026-01-07 06:21:02.61	226.41	16.38	-31.2	-32.0	23.5	0.00e+00	0	36	0	1392508928	36	5746
2026-01-07 06:21:06.66	227.07	16.69	-30.9	-31.7	23.8	0.00e+00	0	36	0	1421869056	36	5506
2026-01-07 06:21:10.70	227.75	17.00	-30.7	-31.5	23.8	0.00e+00	0	36	0	1451229184	34	6042
2026-01-07 06:21:14.73	228.45	17.31	-30.6	-31.3	23.7	0.00e+00	0	36	0	1479540736	34	5957
2026-01-07 06:21:18.78	229.15	17.62	-30.5	-31.2	23.9	0.00e+00	0	36	0	1508900864	34	5874
2026-01-07 06:21:22.82	229.88	17.94	-30.7	-31.5	23.8	0.00e+00	0	36	0	1538260992	34	6067
2026-01-07 06:21:26.85	230.61	18.25	-30.7	-31.5	24.0	0.00e+00	0	36	0	1567621120	34	6058
2026-01-07 06:21:30.89	231.36	18.56	-30.6	-31.4	24.0	0.00e+00	0	36	0	1595932672	34	6000
2026-01-07 06:21:34.93	232.13	18.87	-30.4	-31.2	24.3	0.00e+00	0	36	0	1625292800	34	5870
2026-01-07 06:21:38.96	232.91	19.17	-30.3	-31.0	24.3	0.00e+00	0	36	0	1654652928	34	5746
2026-01-07 06:21:43.00	233.70	19.48	-30.3	-31.1	23.9	0.00e+00	0	36	0	1684013056	34	5821
2026-01-07 06:21:47.04	234.52	19.79	-30.3	-31.1	23.7	0.00e+00	0	36	0	1713373184	34	5820
2026-01-07 06:21:51.08	235.35	20.09	-30.2	-31.0	23.7	0.00e+00	0	36	0	1742733312	34	5703
2026-01-07 06:21:55.12	236.19	20.39	-30.2	-30.9	23.7	0.00e+00	0	36	0	1771044864	34	5694
2026-01-07 06:21:59.16	237.05	20.69	-30.2	-31.0	24.0	0.00e+00	0	36	0	1800404992	34	5731
2026-01-07 06:22:03.20	237.93	20.98	-29.8	-30.5	24.5	0.00e+00	0	36	0	1829765120	34	5437
2026-01-07 06:22:07.23	238.82	21.27	-30.0	-30.8	24.5	0.00e+00	0	36	0	1859125248	32	6247
2026-01-07 06:22:11.27	239.73	21.56	-30.0	-30.8	24.1	0.00e+00	0	36	0	1888485376	32	6289
2026-01-07 06:22:15.31	240.65	21.84	-30.0	-30.8	23.8	0.00e+00	0	36	0	1916796928	32	6303
2026-01-07 06:22:19.35	241.60	22.12	-30.1	-30.9	24.0	0.00e+00	0	36	0	1946157056	32	6326
2026-01-07 06:22:23.39	242.55	22.40	-30.0	-30.8	24.0	0.00e+00	0	36	0	1975517184	32	6257
2026-01-07 06:22:27.43	243.53	22.67	-29.5	-30.3	24.2	0.00e+00	0	36	0	2004877312	32	5903
2026-01-07 06:22:31.47	244.52	22.93	-29.5	-30.3	24.5	0.00e+00	0	36	0	2034237440	32	5931
2026-01-07 06:22:35.51	245.53	23.18	-29.7	-30.5	24.3	0.00e+00	0	36	0	2063597568	32	6086
2026-01-07 06:22:39.54	246.55	23.43	-29.7	-30.5	24.3	0.00e+00	0	36	0	2091909120	32	6042
2026-01-07 06:22:43.58	247.59	23.68	-29.8	-30.6	24.0	0.00e+00	0	36	0	2121269248	32	6128
2026-01-07 06:22:47.62	248.65	23.91	-29.6	-30.4	24.1	0.00e+00	0	36	0	2150629376	32	5995
2026-01-07 06:22:51.66	249.72	24.14	-29.7	-30.4	24.2	0.00e+00	0	36	0	2179989504	32	6033
2026-01-07 06:22:55.70	250.80	24.36	-29.3	-30.1	24.6	0.00e+00	0	36	0	2209349632	32	5778
2026-01-07 06:22:59.74	251.90	24.57	-29.2	-29.9	24.8	0.00e+00	0	36	0	2237661184	32	5682
2026-01-07 06:23:03.77	253.01	24.77	-29.2	-29.9	24.7	0.00e+00	0	36	0	2267021312	32	5676
2026-01-07 06:23:07.81	254.14	24.96	-29.1	-29.9	24.6	0.00e+00	0	36	0	2296381440	32	5642
2026-01-07 06:23:11.85	255.28	25.14	-29.4	-30.2	24.1	0.00e+00	0	36	0	2325741568	32	5856
2026-01-07 06:23:15.89	256.44	25.31	-29.5	-30.3	24.4	0.00e+00	0	36	0	2354053120	32	5919
2026-01-07 06:23:19.93	257.60	25.47	-29.3	-30.1	24.4	0.00e+00	0	36	0	2383413248	32	5802
2026-01-07 06:23:23.96	258.77	25.61	-29.3	-30.1	24.5	0.00e+00	0	36	0	2412773376	32	5781
2026-01-07 06:23:28.00	259.96	25.75	-29.2	-30.0	24.8	0.00e+00	0	36	0	2442133504	32	5717
2026-01-07 06:23:32.04	261.16	25.87	-29.5	-30.2	24.3	0.00e+00	0	36	0	2470445056	32	5874
2026-01-07 06:23:36.08	262.36	25.98	-29.6	-30.4	24.0	0.00e+00	0	36	0	2499805184	32	5993
2026-01-07 06:23:40.12	263.57	26.08	-29.4	-30.2	24.1	0.00e+00	0	36	0	2529165312	32	5871
2026-01-07 06:23:44.16	264.79	26.16	-29.9	-30.7	24.2	0.00e+00	0	36	0	2558525440	32	6191
2026-01-07 06:23:48.20	266.01	26.23	-28.9	-29.7	24.7	0.00e+00	0	36	0	2587885568	32	5526
2026-01-07 06:23:52.24	267.24	26.29	-29.0	-29.8	24.5	0.00e+00	0	36	0	2617245696	32	5593
2026-01-07 06:23:56.27	268.47	26.33	-29.2	-30.0	24.6	0.00e+00	0	36	0	2645557248	32	5696
2026-01-07 06:24:00.31	269.71	26.36	-29.0	-29.8	24.4	0.00e+00	0	36	0	2674917376	32	5615
2026-01-07 06:24:04.35	270.94	26.38	-29.2	-30.0	24.3	0.00e+00	0	36	0	2704277504	32	5728
2026-01-07 06:24:08.39	272.18	26.38	-29.2	-30.0	24.2	0.00e+00	0	36	0	2733637632	32	5746
2026-01-07 06:24:12.43	273.42	26.37	-29.2	-30.0	24.3	0.00e+00	0	36	0	2762997760	32	5744
2026-01-07 06:24:16.47	274.65	26.34	-29.2	-30.0	24.4	0.00e+00	0	36	0	2791309312	32	5729
2026-01-07 06:24:20.51	275.88	26.30	-29.0	-29.7	24.8	0.00e+00	0	36	0	2820669440	32	5544
2026-01-07 06:24:24.55	277.11	26.25	-29.2	-30.0	24.4	0.00e+00	0	36	0	2850029568	32	5708
2026-01-07 06:24:28.59	278.34	26.18	-29.3	-30.0	24.4	0.00e+00	0	36	0	2879389696	32	5738
2026-01-07 06:24:32.63	279.56	26.10	-29.3	-30.1	24.1	0.00e+00	0	36	0	2908749824	32	5779
2026-01-07 06:24:36.67	280.77	26.00	-29.4	-30.2	24.0	0.00e+00	0	36	0	2938109952	32	5864
2026-01-07 06:24:40.72	281.97	25.90	-29.2	-30.0	24.3	0.00e+00	0	36	0	2966421504	32	5714
2026-01-07 06:24:44.76	283.17	25.78	-29.1	-29.9	24.3	0.00e+00	0	36	0	2995781632	32	5663
2026-01-07 06:24:48.79	284.35	25.65	-29.0	-29.8	24.5	0.00e+00	0	36	0	3025141760	32	5590
2026-01-07 06:24:52.83	285.53	25.50	-29.4	-30.2	24.2	0.00e+00	0	36	0	3054501888	32	5831
2026-01-07 06:24:56.87	286.69	25.35	-29.4	-30.2	24.3	0.00e+00	0	36	0	3083862016	32	5864
2026-01-07 06:25:00.91	287.85	25.18	-29.6	-30.3	24.1	0.00e+00	0	36	0	3112173568	32	5962
2026-01-07 06:25:04.94	288.98	25.00	-29.7	-30.5	24.1	0.00e+00	0	36	0	3141533696	32	6085
2026-01-07 06:25:08.98	290.11	24.82	-29.6	-30.2	27.9	0.00e+00	0	36	0	3170893824	32	5852
2026-01-07 06:25:13.02	291.23	24.62	-29.7	-30.2	27.8	0.00e+00	0	36	0	3200253952	32	5895
2026-01-07 06:25:17.06	292.33	24.41	-29.8	-30.4	27.8	0.00e+00	0	36	0	3229614080	32	6011
2026-01-07 06:25:21.10	293.41	24.19	-30.0	-30.6	27.5	0.00e+00	0	36	0	3258974208	32	6167
2026-01-07 06:25:25.14	294.48	23.97	-29.9	-30.5	27.7	0.00e+00	0	36	0	3287285760	32	6047
2026-01-07 06:25:29.17	295.54	23.74	-29.6	-30.2	27.8	0.00e+00	0	36	0	3316645888	32	5868
2026-01-07 06:25:33.21	296.58	23.50	-30.0	-30.6	27.5	0.00e+00	0	36	0	3346006016	32	6129
2026-01-07 06:25:37.25	297.60	23.25	-30.1	-30.7	27.4	0.00e+00	0	36	0	3375366144	32	6239
2026-01-07 06:25:41.29	298.61	23.00	-30.4	-31.0	27.3	0.00e+00	0	36	0	3404726272	32	6415
2026-01-07 06:25:45.33	299.60	22.74	-30.5	-31.1	27.1	0.00e+00	0	36	0	3433037824	32	6520
2026-01-07 06:25:49.38	300.58	22.47	-30.0	-30.6	27.6	0.00e+00	0	36	0	3462397952	32	6139
2026-01-07 06:25:53.41	301.54	22.20	-30.3	-30.9	27.3	0.00e+00	0	36	0	3491758080	32	6337
2026-01-07 06:25:57.45	302.48	21.92	-30.4	-31.0	27.3	0.00e+00	0	36	0	3521118208	32	6401
2026-01-07 06:26:01.50	303.41	21.64	-30.5	-31.1	27.2	0.00e+00	0	36	0	3550478336	32	6498
2026-01-07 06:26:05.54	304.32	21.36	-30.7	-31.3	27.0	0.00e+00	0	36	0	3578789888	34	5947
2026-01-07 06:26:09.58	305.22	21.07	-31.1	-31.7	26.9	0.00e+00	0	36	0	3608150016	34	6222
2026-01-07 06:26:13.62	306.09	20.78	-31.1	-31.7	26.9	0.00e+00	0	36	0	3637510144	34	6210
2026-01-07 06:26:17.66	306.95	20.48	-30.7	-31.3	27.1	0.00e+00	0	36	0	3666870272	34	5902
2026-01-07 06:26:21.70	307.80	20.18	-31.4	-32.0	26.6	0.00e+00	0	36	0	3696230400	34	6461
2026-01-07 06:26:25.73	308.63	19.88	-31.1	-31.7	26.7	0.00e+00	0	36	0	3724541952	34	6216
2026-01-07 06:26:29.77	309.44	19.58	-31.0	-31.6	26.7	0.00e+00	0	36	0	3753902080	34	6171
2026-01-07 06:26:33.81	310.24	19.28	-30.8	-31.4	26.9	0.00e+00	0	36	0	3783262208	34	6014
2026-01-07 06:26:37.85	311.02	18.97	-30.8	-31.5	26.9	0.00e+00	0	36	0	3812622336	34	6041
2026-01-07 06:26:41.89	311.79	18.66	-31.0	-31.6	26.7	0.00e+00	0	36	0	3840933888	34	6154
2026-01-07 06:26:45.92	312.54	18.36	-31.5	-32.1	26.4	0.00e+00	0	36	0	3870294016	34	6511
2026-01-07 06:26:49.96	313.28	18.05	-31.3	-31.9	26.4	0.00e+00	0	36	0	3899654144	34	6361
2026-01-07 06:26:54.00	314.00	17.74	-31.0	-31.6	26.7	0.00e+00	0	36	0	3929014272	34	6123
2026-01-07 06:26:58.04	314.71	17.43	-31.0	-31.6	26.7	0.00e+00	0	36	0	3958374400	34	6161
2026-01-07 06:27:02.08	315.40	17.12	-31.5	-32.1	26.3	0.00e+00	0	36	0	3987734528	34	6498
2026-01-07 06:27:06.12	316.08	16.81	-32.0	-32.7	25.8	0.00e+00	0	36	0	4016046080	36	6191
2026-01-07 06:27:10.16	316.75	16.50	-31.8	-32.4	26.1	0.00e+00	0	36	0	4045406208	36	6025
2026-01-07 06:27:14.20	317.41	16.19	-31.6	-32.2	26.2	0.00e+00	0	36	0	4074766336	36	5892
2026-01-07 06:27:18.23	318.05	15.88	-31.2	-31.8	26.4	0.00e+00	0	36	0	4104126464	36	5623
2026-01-07 06:27:22.27	318.67	15.58	-31.5	-32.1	26.1	0.00e+00	0	36	0	4133486592	36	5787
2026-01-07 06:27:26.30	319.29	15.27	-32.4	-33.1	25.6	0.00e+00	0	36	0	4161798144	36	6470
2026-01-07 06:27:30.34	319.89	14.96	-32.6	-33.2	25.3	0.00e+00	0	36	0	4191158272	38	5854
2026-01-07 06:27:34.38	320.49	14.66	-32.5	-33.2	25.4	0.00e+00	0	36	0	4220518400	38	5833
2026-01-07 06:27:38.42	321.07	14.35	-32.1	-32.7	25.5	0.00e+00	0	36	0	4249878528	38	5536
2026-01-07 06:27:42.45	321.63	14.05	-31.8	-32.5	25.8	0.00e+00	0	36	0	4279238656	38	5385
2026-01-07 06:27:46.49	322.19	13.75	-32.0	-32.6	25.6	0.00e+00	0	36	0	4308598784	38	5483
2026-01-07 06:27:50.53	322.74	13.45	-32.3	-33.0	25.3	0.00e+00	0	36	0	4336910336	38	5726
2026-01-07 06:27:54.57	323.28	13.15	-32.6	-33.2	25.0	0.00e+00	0	36	0	4366270464	38	5878
2026-01-07 06:27:58.61	323.80	12.85	-32.6	-33.3	25.1	0.00e+00	0	36	0	4395630592	38	5919
2026-01-07 06:28:02.64	324.32	12.56	-32.6	-33.2	25.2	0.00e+00	0	36	0	4423942144	38	5896
2026-01-07 06:28:06.68	324.83	12.27	-32.8	-33.4	24.9	0.00e+00	0	36	0	4453302272	38	6006
2026-01-07 06:28:10.72	325.32	11.97	-32.6	-33.2	25.1	0.00e+00	0	36	0	4482662400	38	5878
2026-01-07 06:28:14.75	325.81	11.68	-32.7	-33.3	25.1	0.00e+00	0	36	0	4512022528	38	5930
2026-01-07 06:28:18.79	326.29	11.39	-32.7	-33.3	24.9	2.20e-06	0	36	0	4541382656	38	5958
2026-01-07 06:28:22.83	326.76	11.11	-32.9	-33.5	24.9	0.00e+00	0	36	0	4569694208	38	6088
2026-01-07 06:28:26.87	327.22	10.82	-33.0	-33.6	24.7	0.00e+00	0	36	0	4599054336	38	6173
2026-01-07 06:28:30.90	327.67	10.54	-33.2	-33.8	24.5	0.00e+00	0	36	0	4628414464	38	6310
2026-01-07 06:28:34.94	328.12	10.25	-33.2	-33.9	24.4	0.00e+00	0	36	0	4657774592	38	6358
2026-01-07 06:28:38.98	328.55	9.97	-33.5	-34.1	24.2	0.00e+00	0	36	0	4687134720	38	6539
2026-01-07 06:28:43.02	328.98	9.69	-33.7	-34.3	24.1	0.00e+00	0	36	0	4715446272	38	6690
2026-01-07 06:28:47.06	329.40	9.42	-33.8	-34.5	24.0	0.00e+00	0	36	0	4744806400	40	6068
2026-01-07 06:28:51.09	329.81	9.14	-33.7	-34.3	24.0	0.00e+00	0	36	0	4774166528	40	5962
2026-01-07 06:28:55.14	330.22	8.87	-33.6	-34.3	24.0	0.00e+00	0	36	0	4803526656	40	5923
2026-01-07 06:28:59.17	330.62	8.60	-33.6	-34.3	24.0	0.00e+00	0	36	0	4832886784	40	5911
2026-01-07 06:29:03.21	331.01	8.33	-33.7	-34.3	23.9	0.00e+00	0	36	0	4862246912	40	5964
2026-01-07 06:29:07.25	331.39	8.06	-33.9	-34.6	23.7	0.00e+00	0	36	0	4890558464	40	6121
2026-01-07 06:29:11.29	331.77	7.79	-34.1	-34.8	23.3	0.00e+00	0	36	0	4919918592	40	6306
2026-01-07 06:29:15.33	332.14	7.53	-34.3	-35.0	22.9	0.00e+00	0	36	0	4949278720	40	6446
2026-01-07 06:29:19.37	332.51	7.27	-34.0	-34.7	23.5	0.00e+00	0	36	0	4978638848	40	6215
2026-01-07 06:29:23.41	332.87	7.01	-34.0	-34.7	23.5	0.00e+00	0	36	0	5007998976	40	6221
2026-01-07 06:29:27.45	333.22	6.75	-33.8	-34.5	23.6	0.00e+00	0	36	0	5036310528	40	6040
2026-01-07 06:29:31.49	333.57	6.49	-33.8	-34.5	23.4	0.00e+00	0	36	0	5065670656	40	6034
2026-01-07 06:29:35.52	333.91	6.24	-34.2	-34.9	22.9	0.00e+00	0	36	0	5095030784	40	6380
2026-01-07 06:29:39.56	334.25	5.98	-35.1	-35.9	21.4	0.00e+00	0	36	0	5124390912	42	6358
2026-01-07 06:29:43.59	334.58	5.73	-36.5	-37.5	19.1	0.00e+00	0	36	0	5152702464	44	6777
2026-01-07 06:29:47.63	334.90	5.48	-38.5	-39.8	16.0	0.00e+00	0	36	0	5182062592	48	7080
2026-01-07 06:29:51.67	335.22	5.23	-40.1	-41.8	13.3	9.10e-06	0	36	0	5211422720	52	7081
2026-01-07 06:29:55.71	335.54	4.98	-41.3	-43.7	11.0	1.74e-03	0	36	0	5240782848	54	7857
2026-01-07 06:29:59.74	335.85	4.74	-42.4	-45.6	8.5	3.53e-02	0	36	0	5270142976	56	8693
2026-01-07 06:30:03.78	336.15	4.50	-43.0	-47.2	6.6	1.80e-01	0	36	0	5298454528	58	9306
2026-01-07 06:30:07.82	336.45	4.25	-43.4	-48.6	4.8	7.45e-01	0	36	0	5317328896	58	10928
2026-01-07 06:30:11.86	336.75	4.01	-43.7	-50.2	3.8	8.28e-01	0	36	0	5317328896	58	13153
2026-01-07 06:30:15.89	337.04	3.77	-43.8	-52.8	3.6	8.43e-01	0	36	104	5317328896	60	15779
2026-01-07 06:30:19.93	337.33	3.54	-43.9	-54.0	3.6	8.44e-01	0	36	104	5317328896	60	18039
2026-01-07 06:30:23.96	337.61	3.30	-44.0	-54.9	3.5	8.45e-01	0	36	104	5317328896	60	20198
2026-01-07 06:30:28.00	337.89	3.07	-43.9	-55.0	3.6	8.45e-01	0	36	104	5317328896	60	20409
2026-01-07 06:30:32.04	338.16	2.83	-48.6	-59.8	3.6	8.44e-01	0	36	104	5317328896	60	35445
2026-01-07 06:30:36.08	338.43	2.60	-49.0	-60.4	3.6	8.45e-01	0	36	104	5317328896	60	37641
2026-01-07 06:30:40.12	338.70	2.37	-48.6	-60.3	3.6	8.45e-01	0	36	104	5317328896	60	37272
2026-01-07 06:30:44.15	338.96	2.14	-49.0	-60.3	3.6	8.45e-01	0	36	104	5317328896	60	37397
2026-01-07 06:30:48.19	339.22	1.91	-49.0	-60.3	3.6	8.46e-01	0	36	104	5317328896	60	37351
2026-01-07 06:30:52.23	339.48	1.69	-49.0	-60.2	3.6	8.46e-01	0	36	104	5317328896	60	37152
2026-01-07 06:30:56.27	339.73	1.46	-49.0	-60.2	3.6	8.43e-01	0	36	104	5317328896	60	37181
2026-01-07 06:31:00.31	339.98	1.24	-49.0	-60.2	3.6	8.43e-01	0	36	104	5317328896	60	37116
2026-01-07 06:31:04.34	340.22	1.02	-49.0	-60.2	3.6	8.46e-01	0	36	104	5317328896	60	36900
2026-01-07 06:31:08.39	340.47	0.80	-49.0	-60.2	3.6	8.45e-01	0	36	104	5317328896	60	37121
2026-01-07 06:31:12.42	340.70	0.58	-49.0	-60.2	3.6	8.45e-01	0	36	104	5317328896	60	37088
2026-01-07 06:31:16.46	340.94	0.36	-49.0	-60.2	3.6	8.45e-01	0	36	104	5317328896	60	37130
2026-01-07 06:31:20.50	341.17	0.14	-49.0	-60.2	3.6	8.45e-01	0	36	104	5317328896	60	37130

#Closed at: 2026-01-07 06:31:23
#Recorded file [5317 MB]: D:/lorett/data/35029_260107_181656.dat