passes_logs/2026/01/07/R4.6S_Anadyr/R4.6S_Anadyr__20260107_165526_AQUA_rec.log

#Pass ID: 20260107_165526_AQUA
#Satellite: AQUA
#Configuration: AQUA
#almurnet v.1.7.20251203
#Start time: 2026-01-07 16:55:29

#Version: 2.2.20231116
#Station: R4.6S_Anadyr
#Location: 177.4865 lon 64.73178 lat
#TLE: 1 27424U 02022A   26004.96787593  .00001598  00000+0  32997-3 0  9996
#TLE: 2 27424  98.4069 331.2279 0002002  90.2377   0.6092 14.61798176259425

#Time	Az	El	Level	Level2	SNR	BER	BlckErr	Temp	State	Recorded	gain1	gain2
2026-01-07 16:55:29.23	20.46	0.16	-49.2	-60.9	3.5	8.45e-01	0	36	0	0	60	39872
2026-01-07 16:55:32.26	20.42	0.35	-49.7	-67.5	3.5	3.02e+01	0	37	104	0	60	91735
2026-01-07 16:55:35.29	20.37	0.53	-49.7	-67.6	3.5	3.02e+01	0	37	104	0	60	92299
2026-01-07 16:55:38.32	20.33	0.72	-49.5	-67.5	3.5	3.02e+01	0	37	104	0	60	90975
2026-01-07 16:55:41.35	20.28	0.91	-49.1	-67.1	3.5	3.02e+01	0	37	104	0	60	87144
2026-01-07 16:55:44.38	20.23	1.10	-48.4	-66.3	3.5	3.02e+01	0	37	104	0	60	79435
2026-01-07 16:55:47.41	20.19	1.30	-48.4	-66.3	3.5	3.02e+01	0	37	104	0	60	79242
2026-01-07 16:55:50.44	20.14	1.49	-48.4	-66.3	3.5	3.02e+01	0	37	104	0	60	79453
2026-01-07 16:55:53.47	20.09	1.69	-48.4	-66.2	3.5	3.02e+01	0	37	104	0	60	78774
2026-01-07 16:55:56.50	20.04	1.89	-48.3	-66.1	3.5	3.02e+01	0	37	104	0	60	77641
2026-01-07 16:55:59.53	19.99	2.08	-48.3	-66.0	3.5	3.02e+01	0	37	104	0	60	76428
2026-01-07 16:56:02.56	19.93	2.29	-48.3	-66.2	3.5	3.02e+01	0	37	104	0	60	78167
2026-01-07 16:56:05.59	19.88	2.49	-48.4	-66.3	3.5	3.02e+01	0	37	104	0	60	79044
2026-01-07 16:56:08.63	19.83	2.69	-48.3	-66.0	3.5	3.02e+01	0	37	104	0	60	76685
2026-01-07 16:56:11.66	19.77	2.90	-48.2	-65.5	3.5	3.02e+01	0	37	104	0	60	72711
2026-01-07 16:56:14.69	19.71	3.10	-48.2	-65.4	3.5	3.02e+01	0	37	104	0	60	71700
2026-01-07 16:56:17.72	19.66	3.31	-48.3	-66.0	3.5	3.02e+01	0	37	104	0	60	77119
2026-01-07 16:56:20.75	19.60	3.52	-47.3	-61.9	3.5	3.02e+01	0	38	104	0	60	47773
2026-01-07 16:56:23.77	19.54	3.73	-46.0	-58.8	3.5	3.02e+01	0	37	104	0	60	33470
2026-01-07 16:56:26.81	19.48	3.95	-46.2	-59.3	3.5	3.02e+01	0	38	104	0	60	35411
2026-01-07 16:56:29.84	19.42	4.16	-48.2	-65.3	3.5	3.02e+01	0	38	104	0	60	70673
2026-01-07 16:56:32.87	19.35	4.38	-41.2	-51.9	3.5	3.02e+01	0	37	104	0	60	15209
2026-01-07 16:56:35.90	19.29	4.60	-38.8	-49.3	3.5	3.02e+01	0	38	104	0	52	17726
2026-01-07 16:56:38.92	19.22	4.82	-48.2	-65.0	3.5	3.02e+01	0	38	104	0	60	68227
2026-01-07 16:56:41.95	19.16	5.05	-39.2	-49.7	3.5	3.02e+01	0	37	104	0	54	16632
2026-01-07 16:56:44.98	19.09	5.27	-38.5	-48.9	3.5	3.02e+01	0	38	104	0	52	16990
2026-01-07 16:56:48.02	19.02	5.50	-48.3	-64.9	3.5	3.02e+01	0	37	104	0	60	67275
2026-01-07 16:56:51.05	18.95	5.73	-38.7	-49.1	3.5	3.02e+01	0	38	104	0	52	17474
2026-01-07 16:56:54.08	18.87	5.96	-38.6	-49.0	3.5	3.02e+01	0	38	104	0	52	17222
2026-01-07 16:56:57.11	18.80	6.20	-48.3	-65.1	3.5	3.02e+01	0	38	104	0	60	69171
2026-01-07 16:57:00.14	18.72	6.43	-41.3	-52.0	3.5	3.02e+01	0	38	104	0	58	17226
2026-01-07 16:57:03.17	18.65	6.67	-41.3	-52.1	3.5	3.02e+01	0	38	104	0	58	17446
2026-01-07 16:57:06.19	18.57	6.91	-48.3	-64.6	3.5	3.02e+01	0	38	104	0	60	65625
2026-01-07 16:57:09.22	18.49	7.16	-38.4	-48.8	3.5	3.02e+01	0	38	104	0	52	16860
2026-01-07 16:57:12.25	18.40	7.40	-37.4	-47.7	3.5	3.02e+01	0	38	104	0	50	16544
2026-01-07 16:57:15.27	18.32	7.65	-48.4	-64.7	3.5	3.02e+01	0	38	104	0	60	65807
2026-01-07 16:57:18.30	18.23	7.90	-38.0	-48.4	3.5	3.02e+01	0	38	104	0	50	17994
2026-01-07 16:57:21.33	18.15	8.16	-36.8	-47.1	3.5	3.02e+01	0	38	104	0	48	17421
2026-01-07 16:57:24.36	18.06	8.41	-48.4	-64.7	3.5	3.02e+01	0	38	104	0	60	66217
2026-01-07 16:57:27.39	17.96	8.67	-47.8	-62.6	3.5	3.02e+01	0	38	104	0	60	51942
2026-01-07 16:57:30.42	17.87	8.94	-48.6	-65.2	3.5	3.02e+01	0	38	104	0	60	70338
2026-01-07 16:57:33.44	17.77	9.20	-48.8	-66.8	3.5	3.02e+01	0	38	104	0	60	84199
2026-01-07 16:57:36.47	17.68	9.47	-48.8	-66.7	3.5	3.02e+01	0	38	104	0	60	83002
2026-01-07 16:57:39.50	17.58	9.74	-48.8	-66.5	3.5	3.02e+01	0	38	104	0	60	81712
2026-01-07 16:57:42.53	17.47	10.02	-48.8	-66.7	3.5	3.02e+01	0	38	104	0	60	83651
2026-01-07 16:57:45.56	17.37	10.30	-48.8	-66.7	3.5	3.02e+01	0	38	104	0	60	82898
2026-01-07 16:57:48.59	17.26	10.58	-48.8	-66.7	3.5	3.02e+01	0	38	104	0	60	82943
2026-01-07 16:57:51.61	17.15	10.87	-48.8	-66.7	3.5	3.02e+01	0	38	104	0	60	83673
2026-01-07 16:57:54.64	17.04	11.16	-48.8	-66.8	3.5	3.02e+01	0	38	104	0	60	84510
2026-01-07 16:57:57.67	16.92	11.45	-48.8	-66.8	3.5	3.02e+01	0	38	104	0	60	83895
2026-01-07 16:58:00.70	16.80	11.75	-48.8	-66.8	3.5	3.02e+01	0	38	104	0	60	84086
2026-01-07 16:58:03.73	16.68	12.05	-48.8	-66.9	3.5	3.02e+01	0	38	104	0	60	84715
2026-01-07 16:58:06.76	16.56	12.36	-48.8	-66.8	3.5	3.02e+01	0	38	104	0	60	84268
2026-01-07 16:58:09.78	16.43	12.66	-48.8	-66.8	3.5	3.02e+01	0	38	104	0	60	84389
2026-01-07 16:58:12.81	16.30	12.98	-48.8	-66.8	3.5	3.02e+01	0	38	104	0	60	84101
2026-01-07 16:58:15.84	16.17	13.30	-48.8	-66.8	3.5	3.02e+01	0	38	104	0	60	84380
2026-01-07 16:58:18.87	16.03	13.62	-48.8	-66.8	3.5	3.02e+01	0	38	104	0	60	84276
2026-01-07 16:58:21.90	15.89	13.95	-48.8	-66.8	3.5	3.02e+01	0	38	104	0	60	84210
2026-01-07 16:58:24.93	15.75	14.28	-48.8	-66.8	3.5	3.02e+01	0	38	104	0	60	84406
2026-01-07 16:58:27.95	15.60	14.62	-48.8	-66.8	3.6	3.02e+01	0	38	104	0	60	84173
2026-01-07 16:58:30.99	15.45	14.96	-48.8	-66.8	3.5	3.02e+01	0	38	104	0	60	84514
2026-01-07 16:58:34.01	15.29	15.30	-48.8	-66.8	3.5	3.02e+01	0	38	104	0	60	84357
2026-01-07 16:58:37.04	15.13	15.66	-48.8	-66.8	3.5	3.02e+01	0	38	104	0	60	84274
2026-01-07 16:58:40.07	14.96	16.02	-48.8	-66.8	3.5	3.02e+01	0	38	104	0	60	84159
2026-01-07 16:58:43.10	14.79	16.38	-48.8	-66.8	3.5	3.02e+01	0	38	104	0	60	84502
2026-01-07 16:58:46.13	14.62	16.75	-48.8	-66.9	3.5	3.02e+01	0	38	104	0	60	84752
2026-01-07 16:58:49.16	14.44	17.13	-48.8	-66.8	3.5	3.02e+01	0	38	104	0	60	84196
2026-01-07 16:58:52.19	14.26	17.51	-48.8	-66.8	3.5	3.02e+01	0	38	104	0	60	84094
2026-01-07 16:58:55.22	14.07	17.90	-48.8	-66.8	3.5	3.02e+01	0	38	104	0	60	84614
2026-01-07 16:58:58.24	13.87	18.29	-48.8	-66.8	3.5	3.02e+01	0	38	104	0	60	84050
2026-01-07 16:59:01.27	13.67	18.69	-48.8	-66.8	3.5	3.02e+01	0	38	104	0	60	84558
2026-01-07 16:59:04.30	13.46	19.10	-48.8	-66.8	3.5	3.02e+01	0	38	104	0	60	84379
2026-01-07 16:59:07.33	13.25	19.51	-48.8	-66.8	3.5	3.02e+01	0	38	104	0	60	84097
2026-01-07 16:59:10.36	13.03	19.94	-48.8	-66.8	3.5	3.02e+01	0	38	104	0	60	84297
2026-01-07 16:59:13.39	12.80	20.37	-48.8	-66.8	3.5	3.02e+01	0	38	104	0	60	84283
2026-01-07 16:59:16.42	12.57	20.80	-48.8	-66.8	3.5	3.02e+01	0	38	104	0	60	84256
2026-01-07 16:59:19.45	12.33	21.25	-48.8	-66.8	3.5	3.02e+01	0	38	104	0	60	84359
2026-01-07 16:59:22.48	12.08	21.70	-48.8	-66.8	3.5	3.02e+01	0	38	104	0	60	83942
2026-01-07 16:59:25.50	11.82	22.17	-48.8	-66.8	3.5	3.02e+01	0	38	104	0	60	84527
2026-01-07 16:59:28.53	11.55	22.64	-48.8	-66.8	3.5	3.02e+01	0	38	104	0	60	84477
2026-01-07 16:59:31.55	11.28	23.12	-48.8	-66.9	3.5	3.02e+01	0	38	104	0	60	84864
2026-01-07 16:59:34.58	10.99	23.61	-48.8	-66.8	3.5	3.02e+01	0	38	104	0	60	84462
2026-01-07 16:59:37.61	10.70	24.10	-48.8	-66.8	3.5	3.02e+01	0	38	104	0	60	84567
2026-01-07 16:59:40.65	10.39	24.61	-48.8	-66.8	3.5	3.02e+01	0	38	104	0	60	84466
2026-01-07 16:59:43.67	10.08	25.13	-48.8	-66.8	3.5	3.02e+01	0	38	104	0	60	84103
2026-01-07 16:59:46.70	9.75	25.66	-48.8	-66.8	3.5	3.02e+01	0	38	104	0	60	84401
2026-01-07 16:59:49.72	9.41	26.20	-48.8	-66.8	3.5	3.02e+01	0	38	104	0	60	84032
2026-01-07 16:59:52.75	9.06	26.75	-48.8	-66.8	3.5	3.02e+01	0	38	104	0	60	84529
2026-01-07 16:59:55.78	8.69	27.31	-48.8	-66.8	3.5	3.02e+01	0	38	104	0	60	84360
2026-01-07 16:59:58.81	8.31	27.88	-48.8	-66.8	3.5	3.02e+01	0	38	104	0	60	84470
2026-01-07 17:00:01.84	7.92	28.46	-48.8	-66.8	3.5	3.02e+01	0	38	104	0	60	84178
2026-01-07 17:00:04.87	7.51	29.06	-48.8	-66.8	3.5	3.02e+01	0	38	104	0	60	84579
2026-01-07 17:00:07.90	7.08	29.67	-48.8	-66.9	3.5	3.02e+01	0	38	104	0	60	84756
2026-01-07 17:00:10.93	6.63	30.29	-48.8	-66.8	3.5	3.02e+01	0	38	104	0	60	84339
2026-01-07 17:00:13.95	6.17	30.92	-48.8	-66.8	3.5	3.02e+01	0	38	104	0	60	84522
2026-01-07 17:00:16.98	5.69	31.57	-48.8	-66.8	3.5	3.02e+01	0	38	104	0	60	84467
2026-01-07 17:00:20.01	5.18	32.23	-48.8	-66.8	3.5	3.02e+01	0	38	104	0	60	84441
2026-01-07 17:00:23.04	4.66	32.90	-48.8	-66.9	3.5	3.02e+01	0	38	104	0	60	84822
2026-01-07 17:00:26.06	4.11	33.58	-48.8	-66.8	3.5	3.02e+01	0	38	104	0	60	84311
2026-01-07 17:00:29.09	3.53	34.28	-48.8	-66.8	3.5	3.02e+01	0	38	104	0	60	84312
2026-01-07 17:00:32.11	2.93	34.99	-48.8	-66.8	3.5	3.02e+01	0	38	104	0	60	84674
2026-01-07 17:00:35.14	2.30	35.72	-48.8	-66.8	3.5	3.02e+01	0	38	104	0	60	84549
2026-01-07 17:00:38.17	1.64	36.46	-48.8	-66.8	3.5	3.02e+01	0	38	104	0	60	84448
2026-01-07 17:00:41.20	0.95	37.21	-48.8	-66.8	3.5	3.02e+01	0	38	104	0	60	84153
2026-01-07 17:00:44.23	0.22	37.98	-48.8	-66.8	3.5	3.02e+01	0	38	104	0	60	84376
2026-01-07 17:00:47.26	359.46	38.76	-48.8	-66.8	3.5	3.02e+01	0	38	104	0	60	84324
2026-01-07 17:00:50.29	358.66	39.56	-48.8	-66.8	3.5	3.02e+01	0	38	104	0	60	84387
2026-01-07 17:00:53.32	357.81	40.36	-48.8	-66.8	3.5	3.02e+01	0	38	104	0	60	84624
2026-01-07 17:00:56.35	356.92	41.18	-48.8	-66.8	3.5	3.02e+01	0	38	104	0	60	84505
2026-01-07 17:00:59.38	355.98	42.01	-48.8	-66.8	3.5	3.02e+01	0	38	104	0	60	84379
2026-01-07 17:01:02.41	354.99	42.86	-48.8	-66.8	3.5	3.02e+01	0	38	104	0	60	84073
2026-01-07 17:01:05.44	353.95	43.71	-48.8	-66.8	3.5	3.02e+01	0	38	104	0	60	84378
2026-01-07 17:01:08.47	352.85	44.57	-48.8	-66.9	3.5	3.02e+01	0	38	104	0	60	84739
2026-01-07 17:01:11.50	351.68	45.44	-48.8	-66.9	3.5	3.02e+01	0	38	104	0	60	84702
2026-01-07 17:01:14.53	350.45	46.31	-48.8	-66.9	3.5	3.02e+01	0	38	104	0	60	84887
2026-01-07 17:01:17.56	349.14	47.19	-48.8	-66.8	3.5	3.02e+01	0	38	104	0	60	84560
2026-01-07 17:01:20.59	347.75	48.07	-48.8	-66.9	3.5	3.02e+01	0	38	104	0	60	84724
2026-01-07 17:01:23.62	346.29	48.95	-48.8	-66.9	3.5	3.02e+01	0	38	104	0	60	84720
2026-01-07 17:01:26.65	344.73	49.83	-48.8	-66.8	3.5	3.02e+01	0	38	104	0	60	84293
2026-01-07 17:01:29.68	343.09	50.70	-48.8	-66.8	3.5	3.02e+01	0	38	104	0	60	84596
2026-01-07 17:01:32.70	341.34	51.56	-48.8	-66.8	3.5	3.02e+01	0	38	104	0	60	84650
2026-01-07 17:01:35.73	339.49	52.41	-48.8	-66.9	3.5	3.02e+01	0	38	104	0	60	84956
2026-01-07 17:01:38.75	337.54	53.24	-48.9	-66.9	3.5	3.02e+01	0	38	104	0	60	84813
2026-01-07 17:01:41.78	335.46	54.05	-48.8	-66.9	3.5	3.02e+01	0	38	104	0	60	84770
2026-01-07 17:01:44.81	333.26	54.83	-48.8	-66.9	3.5	3.02e+01	0	38	104	0	60	84821
2026-01-07 17:01:47.84	330.94	55.58	-48.8	-66.9	3.5	3.02e+01	0	38	104	0	60	84889
2026-01-07 17:01:50.87	328.50	56.29	-48.8	-66.8	3.5	3.02e+01	0	38	104	0	60	84549
2026-01-07 17:01:53.89	325.93	56.95	-48.8	-66.8	3.5	3.02e+01	0	38	104	0	60	84421
2026-01-07 17:01:56.92	323.24	57.57	-48.8	-66.8	3.5	3.02e+01	0	38	104	0	60	84110
2026-01-07 17:01:59.95	320.42	58.13	-48.8	-66.8	3.5	3.02e+01	0	38	104	0	60	84493
2026-01-07 17:02:02.98	317.49	58.63	-48.8	-66.8	3.5	3.02e+01	0	38	104	0	60	84351
2026-01-07 17:02:06.00	314.46	59.06	-48.8	-66.8	3.5	3.02e+01	0	38	104	0	60	84521
2026-01-07 17:02:09.03	311.33	59.41	-48.8	-66.8	3.5	3.02e+01	0	38	104	0	60	84589
2026-01-07 17:02:12.06	308.12	59.69	-48.8	-66.8	3.5	3.02e+01	0	38	104	0	60	84116
2026-01-07 17:02:15.09	304.85	59.89	-48.8	-66.8	3.5	3.02e+01	0	38	104	0	60	84375
2026-01-07 17:02:18.12	301.54	60.00	-48.8	-66.8	3.5	3.02e+01	0	38	104	0	60	84644
2026-01-07 17:02:21.15	298.22	60.02	-48.8	-66.9	3.5	3.02e+01	0	38	104	0	60	84823
2026-01-07 17:02:24.17	294.90	59.96	-48.8	-66.8	3.5	3.02e+01	0	38	104	0	60	84430
2026-01-07 17:02:27.20	291.61	59.82	-48.8	-66.8	3.5	3.02e+01	0	38	104	0	60	84039
2026-01-07 17:02:30.23	288.36	59.59	-48.8	-66.8	3.5	3.02e+01	0	38	104	0	60	84616
2026-01-07 17:02:33.26	285.18	59.28	-48.8	-66.8	3.4	3.02e+01	0	38	104	0	60	84680
2026-01-07 17:02:36.29	282.08	58.89	-48.8	-66.8	3.5	3.02e+01	0	38	104	0	60	84590
2026-01-07 17:02:39.32	279.08	58.43	-48.8	-66.9	3.5	3.02e+01	0	38	104	0	60	84765
2026-01-07 17:02:42.35	276.19	57.91	-48.8	-66.8	3.5	3.02e+01	0	38	104	0	60	84159
2026-01-07 17:02:45.38	273.42	57.32	-48.8	-66.8	3.5	3.02e+01	0	38	104	0	60	84441
2026-01-07 17:02:48.40	270.78	56.68	-48.8	-66.9	3.5	3.02e+01	0	38	104	0	60	84945
2026-01-07 17:02:51.43	268.26	56.00	-48.8	-66.8	3.5	3.02e+01	0	38	104	0	60	84604
2026-01-07 17:02:54.46	265.86	55.27	-48.8	-66.8	3.5	3.02e+01	0	38	104	0	60	84429
2026-01-07 17:02:57.49	263.59	54.50	-48.8	-66.8	3.5	3.02e+01	0	38	104	0	60	84516
2026-01-07 17:03:00.51	261.44	53.71	-48.8	-66.8	3.5	3.02e+01	0	38	104	0	60	84172
2026-01-07 17:03:03.54	259.41	52.89	-48.8	-66.8	3.5	3.02e+01	0	38	104	0	60	84608
2026-01-07 17:03:06.57	257.49	52.05	-48.8	-66.9	3.5	3.02e+01	0	38	104	0	60	84976
2026-01-07 17:03:09.60	255.68	51.19	-48.8	-66.9	3.5	3.02e+01	0	38	104	0	60	84718
2026-01-07 17:03:12.62	253.98	50.33	-48.8	-66.8	3.5	3.02e+01	0	38	104	0	60	84543
2026-01-07 17:03:15.66	252.36	49.45	-48.8	-66.8	3.5	3.02e+01	0	38	104	0	60	84457
2026-01-07 17:03:18.68	250.84	48.57	-48.8	-66.8	3.5	3.02e+01	0	38	104	0	60	84198
2026-01-07 17:03:21.71	249.41	47.69	-48.8	-66.8	3.5	3.02e+01	0	38	104	0	60	84462
2026-01-07 17:03:24.74	248.05	46.80	-48.8	-66.8	3.5	3.02e+01	0	38	104	0	60	84503
2026-01-07 17:03:27.77	246.78	45.92	-48.8	-66.9	3.6	3.02e+01	0	38	104	0	60	84853
2026-01-07 17:03:30.80	245.57	45.05	-48.8	-66.8	3.5	3.02e+01	0	38	104	0	60	84302
2026-01-07 17:03:33.83	244.42	44.18	-48.8	-66.8	3.5	3.02e+01	0	38	104	0	60	84460
2026-01-07 17:03:36.86	243.34	43.32	-48.8	-66.8	3.5	3.02e+01	0	38	104	0	60	84291
2026-01-07 17:03:39.88	242.32	42.47	-48.8	-66.8	3.5	3.02e+01	0	38	104	0	60	84385
2026-01-07 17:03:42.91	241.35	41.63	-48.8	-66.8	3.5	3.02e+01	0	38	104	0	60	84652
2026-01-07 17:03:45.94	240.43	40.80	-48.8	-66.8	3.5	3.02e+01	0	38	104	0	60	84329
2026-01-07 17:03:48.97	239.56	39.98	-48.8	-66.8	3.5	3.02e+01	0	38	104	0	60	84341
2026-01-07 17:03:52.00	238.73	39.18	-48.8	-66.8	3.5	3.02e+01	0	38	104	0	60	84010
2026-01-07 17:03:55.02	237.95	38.39	-48.8	-66.8	3.5	3.02e+01	0	38	104	0	60	84162
2026-01-07 17:03:58.05	237.20	37.61	-48.8	-66.8	3.5	3.02e+01	0	38	104	0	60	84322
2026-01-07 17:04:01.08	236.48	36.85	-48.8	-66.8	3.5	3.02e+01	0	38	104	0	60	84661
2026-01-07 17:04:04.11	235.80	36.10	-48.8	-66.8	3.5	3.02e+01	0	38	104	0	60	84374
2026-01-07 17:04:07.14	235.15	35.36	-48.8	-66.8	3.5	3.02e+01	0	38	104	0	60	84266
2026-01-07 17:04:10.16	234.53	34.64	-48.8	-66.8	3.5	3.02e+01	0	38	104	0	60	83968
2026-01-07 17:04:13.19	233.94	33.93	-48.8	-66.8	3.5	3.02e+01	0	38	104	0	60	84575
2026-01-07 17:04:16.22	233.37	33.23	-48.8	-66.9	3.5	3.02e+01	0	38	104	0	60	84795
2026-01-07 17:04:19.25	232.83	32.55	-48.8	-66.8	3.5	3.02e+01	0	38	104	0	60	84533
2026-01-07 17:04:22.28	232.31	31.88	-48.8	-66.8	3.5	3.02e+01	0	38	104	0	60	84344
2026-01-07 17:04:25.31	231.82	31.22	-48.8	-66.8	3.5	3.02e+01	0	38	104	0	60	84430
2026-01-07 17:04:28.33	231.34	30.58	-48.8	-66.9	3.5	3.02e+01	0	38	104	0	60	84840
2026-01-07 17:04:31.37	230.88	29.95	-48.8	-66.9	3.5	3.02e+01	0	38	104	0	60	84926
2026-01-07 17:04:34.40	230.44	29.33	-48.8	-66.8	3.5	3.02e+01	0	38	104	0	60	84467
2026-01-07 17:04:37.42	230.02	28.73	-48.8	-66.8	3.5	3.02e+01	0	38	104	0	60	84502
2026-01-07 17:04:40.45	229.62	28.14	-48.8	-66.8	3.5	3.02e+01	0	38	104	0	60	84440
2026-01-07 17:04:43.48	229.23	27.56	-48.8	-66.9	3.5	3.02e+01	0	38	104	0	60	84868
2026-01-07 17:04:46.51	228.85	26.99	-48.8	-66.8	3.5	3.02e+01	0	38	104	0	60	84514
2026-01-07 17:04:49.53	228.49	26.43	-48.8	-66.8	3.5	3.02e+01	0	38	104	0	60	84362
2026-01-07 17:04:52.56	228.14	25.88	-48.8	-66.8	3.5	3.02e+01	0	38	104	0	60	84018
2026-01-07 17:04:55.59	227.80	25.35	-48.8	-66.8	3.5	3.02e+01	0	38	104	0	60	84249
2026-01-07 17:04:58.62	227.48	24.82	-48.8	-66.9	3.5	3.02e+01	0	38	104	0	60	84986
2026-01-07 17:05:01.65	227.17	24.31	-48.8	-66.8	3.5	3.02e+01	0	38	104	0	60	84626
2026-01-07 17:05:04.68	226.86	23.80	-48.8	-66.8	3.5	3.02e+01	0	38	104	0	60	84531
2026-01-07 17:05:07.70	226.57	23.31	-48.8	-66.8	3.5	3.02e+01	0	38	104	0	60	84252
2026-01-07 17:05:10.73	226.29	22.82	-48.8	-66.8	3.5	3.02e+01	0	38	104	0	60	84431
2026-01-07 17:05:13.76	226.02	22.34	-48.8	-66.8	3.5	3.02e+01	0	38	104	0	60	84584
2026-01-07 17:05:16.79	225.75	21.87	-48.8	-66.8	3.5	3.02e+01	0	38	104	0	60	84350
2026-01-07 17:05:19.82	225.50	21.41	-48.8	-66.8	3.5	3.02e+01	0	38	104	0	60	84650
2026-01-07 17:05:22.84	225.25	20.96	-48.8	-66.8	3.5	3.02e+01	0	38	104	0	60	84405
2026-01-07 17:05:25.88	225.01	20.52	-48.8	-66.8	3.5	3.02e+01	0	38	104	0	60	84335
2026-01-07 17:05:28.91	224.78	20.08	-48.8	-66.9	3.5	3.02e+01	0	38	104	0	60	84687
2026-01-07 17:05:31.94	224.55	19.65	-48.8	-66.8	3.5	3.02e+01	0	38	104	0	60	84638
2026-01-07 17:05:34.96	224.33	19.23	-48.8	-66.8	3.5	3.02e+01	0	38	104	0	60	84351
2026-01-07 17:05:37.99	224.12	18.82	-48.8	-66.8	3.5	3.02e+01	0	38	104	0	60	84402
2026-01-07 17:05:41.02	223.91	18.41	-48.8	-66.9	3.5	3.02e+01	0	38	104	0	60	84713
2026-01-07 17:05:44.05	223.71	18.01	-48.8	-66.8	3.5	3.02e+01	0	38	104	0	60	84570
2026-01-07 17:05:47.08	223.52	17.62	-48.8	-66.9	3.5	3.02e+01	0	38	104	0	60	85007
2026-01-07 17:05:50.10	223.33	17.23	-48.8	-66.9	3.5	3.02e+01	0	38	104	0	60	84948
2026-01-07 17:05:53.13	223.15	16.85	-48.8	-66.8	3.5	3.02e+01	0	38	104	0	60	84617
2026-01-07 17:05:56.16	222.97	16.48	-48.8	-66.9	3.5	3.02e+01	0	38	104	0	60	84812
2026-01-07 17:05:59.19	222.79	16.11	-48.8	-66.9	3.5	3.02e+01	0	38	104	0	60	84731
2026-01-07 17:06:02.22	222.62	15.75	-48.8	-66.8	3.5	3.02e+01	0	38	104	0	60	84657
2026-01-07 17:06:05.25	222.46	15.39	-48.8	-66.8	3.5	3.02e+01	0	38	104	0	60	84028
2026-01-07 17:06:08.28	222.30	15.04	-48.8	-66.9	3.5	3.02e+01	0	38	104	0	60	84837
2026-01-07 17:06:11.31	222.14	14.70	-48.8	-66.9	3.5	3.02e+01	0	38	104	0	60	84925
2026-01-07 17:06:14.33	221.99	14.36	-48.8	-66.8	3.5	3.02e+01	0	38	104	0	60	84676
2026-01-07 17:06:17.36	221.84	14.02	-48.8	-66.8	3.5	3.02e+01	0	38	104	0	60	84377
2026-01-07 17:06:20.39	221.70	13.69	-48.8	-66.9	3.5	3.02e+01	0	38	104	0	60	84722
2026-01-07 17:06:23.41	221.56	13.36	-48.8	-66.8	3.5	3.02e+01	0	38	104	0	60	84676
2026-01-07 17:06:26.44	221.42	13.04	-48.8	-66.9	3.5	3.02e+01	0	38	104	0	60	85002
2026-01-07 17:06:29.47	221.29	12.72	-48.8	-66.9	3.5	3.02e+01	0	38	104	0	60	84785
2026-01-07 17:06:32.50	221.16	12.41	-48.8	-66.8	3.5	3.02e+01	0	38	104	0	60	84436
2026-01-07 17:06:35.53	221.03	12.10	-48.8	-66.8	3.5	3.02e+01	0	38	104	0	60	84510
2026-01-07 17:06:38.56	220.90	11.80	-48.8	-66.9	3.5	3.02e+01	0	38	104	0	60	84783
2026-01-07 17:06:41.59	220.78	11.50	-48.8	-66.8	3.5	3.02e+01	0	38	104	0	60	84535
2026-01-07 17:06:44.62	220.66	11.20	-48.8	-66.8	3.5	3.02e+01	0	38	104	0	60	84048
2026-01-07 17:06:47.64	220.55	10.91	-48.8	-66.8	3.5	3.02e+01	0	38	104	0	60	84634
2026-01-07 17:06:50.67	220.43	10.62	-48.8	-66.8	3.5	3.02e+01	0	38	104	0	60	84634
2026-01-07 17:06:53.70	220.32	10.34	-48.8	-66.8	3.5	3.02e+01	0	38	104	0	60	84533
2026-01-07 17:06:56.73	220.21	10.05	-48.8	-66.8	3.5	3.02e+01	0	38	104	0	60	84390
2026-01-07 17:06:59.76	220.11	9.78	-48.8	-66.9	3.5	3.02e+01	0	38	104	0	60	84736
2026-01-07 17:07:02.78	220.00	9.50	-48.8	-66.9	3.5	3.02e+01	0	38	104	0	60	84805
2026-01-07 17:07:05.81	219.90	9.23	-48.8	-66.8	3.5	3.02e+01	0	38	104	0	60	84338
2026-01-07 17:07:08.83	219.80	8.96	-48.8	-66.9	3.5	3.02e+01	0	38	104	0	60	84759
2026-01-07 17:07:11.86	219.71	8.70	-48.8	-66.8	3.5	3.02e+01	0	38	104	0	60	84673
2026-01-07 17:07:14.89	219.61	8.43	-48.8	-66.8	3.5	3.02e+01	0	38	104	0	60	84467
2026-01-07 17:07:17.92	219.52	8.17	-48.8	-66.8	3.5	3.02e+01	0	38	104	0	60	84305
2026-01-07 17:07:20.94	219.43	7.92	-48.8	-66.9	3.5	3.02e+01	0	38	104	0	60	84836
2026-01-07 17:07:23.97	219.34	7.67	-48.8	-66.8	3.5	3.02e+01	0	38	104	0	60	84675
2026-01-07 17:07:27.00	219.25	7.41	-48.8	-66.8	3.5	3.02e+01	0	38	104	0	60	84210
2026-01-07 17:07:30.03	219.16	7.17	-48.8	-66.9	3.5	3.02e+01	0	38	104	0	60	84878
2026-01-07 17:07:33.05	219.08	6.92	-48.8	-66.9	3.5	3.02e+01	0	38	104	0	60	84719
2026-01-07 17:07:36.08	219.00	6.68	-48.8	-66.9	3.5	3.02e+01	0	38	104	0	60	84748
2026-01-07 17:07:39.11	218.92	6.44	-48.8	-66.8	3.5	3.02e+01	0	38	104	0	60	84583
2026-01-07 17:07:42.14	218.84	6.20	-48.8	-66.9	3.5	3.02e+01	0	38	104	0	60	85011
2026-01-07 17:07:45.17	218.76	5.96	-48.8	-66.9	3.5	3.02e+01	0	38	104	0	60	84716
2026-01-07 17:07:48.20	218.69	5.73	-48.8	-66.9	3.5	3.02e+01	0	38	104	0	60	84714
2026-01-07 17:07:51.23	218.61	5.50	-48.8	-66.9	3.5	3.02e+01	0	38	104	0	60	84774
2026-01-07 17:07:54.26	218.54	5.27	-48.8	-66.9	3.5	3.02e+01	0	38	104	0	60	84919
2026-01-07 17:07:57.28	218.47	5.04	-48.8	-66.9	3.5	3.02e+01	0	38	104	0	60	84953
2026-01-07 17:08:00.31	218.40	4.82	-48.8	-66.8	3.5	3.02e+01	0	38	104	0	60	84503
2026-01-07 17:08:03.34	218.33	4.59	-48.8	-66.9	3.5	3.02e+01	0	38	104	0	60	84698
2026-01-07 17:08:06.37	218.26	4.37	-48.8	-66.8	3.5	3.02e+01	0	38	104	0	60	84648
2026-01-07 17:08:09.40	218.19	4.15	-48.8	-66.9	3.5	3.02e+01	0	38	104	0	60	84893
2026-01-07 17:08:12.43	218.13	3.94	-48.8	-66.8	3.5	3.02e+01	0	38	104	0	60	84432
2026-01-07 17:08:15.45	218.06	3.72	-48.8	-66.9	3.5	3.02e+01	0	38	104	0	60	84796
2026-01-07 17:08:18.48	218.00	3.51	-48.8	-66.8	3.5	3.02e+01	0	38	104	0	60	84165
2026-01-07 17:08:21.51	217.94	3.30	-48.8	-66.8	3.5	3.02e+01	0	38	104	0	60	84372
2026-01-07 17:08:24.54	217.88	3.09	-48.8	-66.8	3.5	3.02e+01	0	38	104	0	60	84313
2026-01-07 17:08:27.57	217.82	2.88	-49.3	-67.3	3.5	3.02e+01	0	38	104	0	60	89393
2026-01-07 17:08:30.60	217.76	2.67	-49.4	-67.6	3.5	3.02e+01	0	38	104	0	60	92332
2026-01-07 17:08:33.63	217.70	2.47	-49.8	-67.6	3.5	3.02e+01	0	38	104	0	60	92677
2026-01-07 17:08:36.66	217.65	2.26	-49.9	-67.8	3.5	3.02e+01	0	38	104	0	60	94793
2026-01-07 17:08:39.69	217.59	2.06	-49.7	-67.6	3.5	3.02e+01	0	38	104	0	60	92647
2026-01-07 17:08:42.72	217.54	1.86	-49.7	-67.5	3.5	3.02e+01	0	38	104	0	60	91737
2026-01-07 17:08:45.74	217.48	1.66	-49.7	-67.5	3.5	3.02e+01	0	38	104	0	60	91748
2026-01-07 17:08:48.78	217.43	1.47	-49.7	-67.6	3.5	3.02e+01	0	38	104	0	60	92005
2026-01-07 17:08:51.81	217.38	1.27	-49.7	-67.5	3.5	3.02e+01	0	38	104	0	60	91584
2026-01-07 17:08:54.84	217.33	1.08	-49.7	-67.6	3.5	3.02e+01	0	38	104	0	60	92106
2026-01-07 17:08:57.87	217.28	0.88	-49.7	-67.5	3.5	3.02e+01	0	38	104	0	60	91606
2026-01-07 17:09:00.89	217.23	0.69	-49.7	-67.5	3.5	3.02e+01	0	38	104	0	60	91637
2026-01-07 17:09:03.92	217.18	0.50	-49.7	-67.5	3.5	3.02e+01	0	38	104	0	60	91312
2026-01-07 17:09:06.95	217.13	0.31	-49.7	-67.5	3.5	3.02e+01	0	38	104	0	60	91477
2026-01-07 17:09:09.98	217.09	0.13	-49.7	-67.5	3.5	3.02e+01	0	38	104	0	60	91444

#Closed at: 2026-01-07 17:09:12
#Recorded file [0 MB]: D:/lorett/data/35029_260108_045529.dat