passes_logs/2026/01/07/R4.6S_Anadyr/R4.6S_Anadyr__20260107_135408_SUOMI_NPP_rec.log

#Pass ID: 20260107_135408_SUOMI NPP
#Satellite: SUOMI NPP
#Configuration: NPP
#almurnet v.1.7.20251203
#Start time: 2026-01-07 13:54:11

#Version: 2.2.20231116
#Station: R4.6S_Anadyr
#Location: 177.4865 lon 64.73178 lat
#TLE: 1 37849U 11061A   26004.95404768  .00000136  00000+0  85334-4 0  9991
#TLE: 2 37849  98.7801 307.0898 0002575  80.6707 279.4760 14.19522289735281

#Time	Az	El	Level	Level2	SNR	BER	BlckErr	Temp	State	Recorded	gain1	gain2
2026-01-07 13:54:11.79	19.27	0.19	-49.2	-63.0	3.3	1.54e+00	0	37	0	0	60	50793
2026-01-07 13:54:15.82	19.40	0.43	-49.3	-64.5	3.6	1.51e+00	0	37	104	0	60	60672
2026-01-07 13:54:19.86	19.53	0.66	-49.3	-64.5	3.6	1.51e+00	0	37	104	0	60	60469
2026-01-07 13:54:23.90	19.66	0.90	-48.8	-64.0	3.6	1.51e+00	0	37	104	0	60	57321
2026-01-07 13:54:27.94	19.79	1.14	-47.9	-63.0	3.6	1.51e+00	0	37	104	0	60	51126
2026-01-07 13:54:31.98	19.92	1.39	-47.8	-62.9	3.6	1.51e+00	0	37	104	0	60	50760
2026-01-07 13:54:36.02	20.06	1.63	-47.8	-63.0	3.6	1.51e+00	0	37	104	0	60	51129
2026-01-07 13:54:40.06	20.20	1.88	-47.8	-63.0	3.6	1.51e+00	0	37	104	0	60	51256
2026-01-07 13:54:44.10	20.33	2.13	-47.8	-62.4	3.6	1.51e+00	0	37	104	0	60	47626
2026-01-07 13:54:48.14	20.48	2.38	-47.8	-62.0	3.6	1.51e+00	0	37	104	0	60	45492
2026-01-07 13:54:52.18	20.62	2.63	-47.2	-54.8	6.1	4.02e-01	0	37	0	1048576	60	19939
2026-01-07 13:54:56.22	20.77	2.89	-44.4	-47.4	14.6	1.50e-06	0	37	0	8388608	60	8494
2026-01-07 13:55:00.26	20.91	3.15	-43.0	-45.2	16.6	0.00e+00	0	37	0	16777216	60	6548
2026-01-07 13:55:04.30	21.06	3.41	-45.4	-49.2	12.4	9.10e-06	0	37	0	24117248	60	10419
2026-01-07 13:55:08.33	21.22	3.67	-47.2	-55.3	6.7	1.48e+00	1	37	104	30408704	60	21042
2026-01-07 13:55:12.37	21.37	3.94	-45.2	-48.8	13.1	2.97e-04	0	37	104	30408704	60	9959
2026-01-07 13:55:16.41	21.53	4.20	-44.1	-46.7	15.6	0.00e+00	0	37	0	37748736	60	7831
2026-01-07 13:55:20.45	21.69	4.47	-43.2	-45.3	16.8	0.00e+00	0	37	0	45088768	60	6652
2026-01-07 13:55:24.49	21.85	4.75	-42.6	-44.4	17.7	0.00e+00	0	37	0	52428800	58	6767
2026-01-07 13:55:28.52	22.02	5.02	-42.4	-44.2	18.0	0.00e+00	0	37	0	59768832	58	6552
2026-01-07 13:55:32.56	22.18	5.30	-41.8	-43.4	18.7	0.00e+00	0	38	0	68157440	56	6693
2026-01-07 13:55:36.60	22.36	5.58	-41.2	-42.7	19.4	0.00e+00	0	37	0	75497472	56	6224
2026-01-07 13:55:40.64	22.53	5.86	-40.9	-42.3	19.9	0.00e+00	0	37	0	82837504	56	5934
2026-01-07 13:55:44.68	22.71	6.15	-40.9	-42.3	19.9	0.00e+00	0	37	0	90177536	56	5932
2026-01-07 13:55:48.72	22.89	6.44	-41.1	-42.5	19.8	0.00e+00	0	38	0	97517568	56	6066
2026-01-07 13:55:52.75	23.07	6.73	-41.1	-42.5	19.8	0.00e+00	0	37	0	105906176	56	6059
2026-01-07 13:55:56.79	23.26	7.03	-41.1	-42.5	19.6	0.00e+00	0	37	0	113246208	56	6087
2026-01-07 13:56:00.83	23.45	7.33	-41.1	-42.5	19.9	0.00e+00	0	37	0	120586240	56	6057
2026-01-07 13:56:04.87	23.64	7.63	-40.8	-42.2	20.1	0.00e+00	0	37	0	127926272	56	5837
2026-01-07 13:56:08.91	23.84	7.93	-40.6	-41.9	20.3	0.00e+00	0	37	0	136314880	54	6376
2026-01-07 13:56:12.94	24.04	8.24	-40.4	-41.7	20.5	0.00e+00	0	37	0	143654912	54	6198
2026-01-07 13:56:16.98	24.24	8.55	-40.1	-41.3	20.9	0.00e+00	0	38	0	150994944	54	5964
2026-01-07 13:56:21.02	24.45	8.87	-40.2	-41.4	20.9	0.00e+00	0	38	0	158334976	54	5968
2026-01-07 13:56:25.05	24.67	9.19	-39.6	-40.7	21.5	0.00e+00	0	37	0	165675008	52	6238
2026-01-07 13:56:29.09	24.89	9.51	-39.8	-41.0	21.4	0.00e+00	0	38	0	174063616	52	6392
2026-01-07 13:56:33.13	25.11	9.84	-39.7	-40.9	21.4	0.00e+00	0	38	0	181403648	52	6329
2026-01-07 13:56:37.17	25.33	10.18	-39.7	-40.9	21.4	0.00e+00	0	38	0	188743680	52	6343
2026-01-07 13:56:41.21	25.57	10.51	-39.4	-40.5	21.9	0.00e+00	0	38	0	196083712	52	6095
2026-01-07 13:56:45.24	25.80	10.85	-39.4	-40.5	21.8	0.00e+00	0	38	0	203423744	52	6078
2026-01-07 13:56:49.28	26.04	11.20	-39.3	-40.4	21.9	0.00e+00	0	38	0	211812352	52	5989
2026-01-07 13:56:53.32	26.29	11.55	-39.0	-40.0	22.3	0.00e+00	0	38	0	219152384	52	5717
2026-01-07 13:56:57.36	26.55	11.90	-38.7	-39.7	22.4	0.00e+00	0	38	0	226492416	50	6244
2026-01-07 13:57:01.40	26.80	12.26	-38.5	-39.5	22.7	0.00e+00	0	38	0	233832448	50	6075
2026-01-07 13:57:05.43	27.07	12.62	-38.5	-39.5	22.6	0.00e+00	0	38	0	242221056	50	6077
2026-01-07 13:57:09.47	27.34	12.99	-38.2	-39.2	23.0	0.00e+00	0	38	0	249561088	50	5869
2026-01-07 13:57:13.51	27.62	13.36	-38.0	-39.0	23.2	0.00e+00	0	38	0	256901120	50	5712
2026-01-07 13:57:17.55	27.90	13.74	-37.8	-38.7	23.3	0.00e+00	0	38	0	264241152	48	6241
2026-01-07 13:57:21.59	28.19	14.13	-37.6	-38.5	23.6	0.00e+00	0	38	0	271581184	48	6072
2026-01-07 13:57:25.63	28.49	14.52	-37.8	-38.7	23.4	0.00e+00	0	38	0	279969792	48	6200
2026-01-07 13:57:29.67	28.79	14.91	-37.5	-38.4	23.6	0.00e+00	0	38	0	287309824	48	6021
2026-01-07 13:57:33.71	29.11	15.31	-37.4	-38.3	23.6	0.00e+00	0	38	0	294649856	48	5938
2026-01-07 13:57:37.75	29.43	15.72	-37.1	-38.0	24.0	0.00e+00	0	38	0	301989888	48	5716
2026-01-07 13:57:41.79	29.76	16.14	-37.4	-38.2	23.8	0.00e+00	0	38	0	310378496	48	5895
2026-01-07 13:57:45.83	30.10	16.56	-37.4	-38.3	23.7	0.00e+00	0	38	0	317718528	48	5916
2026-01-07 13:57:49.87	30.44	16.98	-37.9	-38.8	23.3	0.00e+00	0	38	0	325058560	48	6276
2026-01-07 13:57:53.91	30.80	17.42	-38.0	-38.9	23.2	0.00e+00	0	38	0	332398592	48	6348
2026-01-07 13:57:57.94	31.17	17.85	-38.3	-39.2	23.0	0.00e+00	0	38	0	339738624	48	6596
2026-01-07 13:58:01.98	31.55	18.30	-38.4	-39.4	22.9	0.00e+00	0	38	0	348127232	48	6693
2026-01-07 13:58:06.02	31.93	18.75	-38.5	-39.5	22.8	0.00e+00	0	38	0	355467264	50	6082
2026-01-07 13:58:10.06	32.33	19.22	-38.9	-39.9	22.8	0.00e+00	0	38	0	362807296	50	6323
2026-01-07 13:58:14.10	32.74	19.68	-38.1	-39.0	23.2	0.00e+00	0	38	0	370147328	50	5739
2026-01-07 13:58:18.14	33.17	20.16	-38.4	-39.3	23.1	0.00e+00	0	38	0	378535936	50	5941
2026-01-07 13:58:22.18	33.60	20.64	-38.5	-39.5	22.9	0.00e+00	0	38	0	385875968	50	6036
2026-01-07 13:58:26.22	34.05	21.14	-38.4	-39.4	23.0	0.00e+00	0	37	0	393216000	50	5980
2026-01-07 13:58:30.26	34.52	21.64	-38.1	-39.0	23.0	0.00e+00	0	38	0	400556032	50	5757
2026-01-07 13:58:34.30	35.00	22.14	-38.0	-38.9	23.4	0.00e+00	0	38	0	408944640	48	6383
2026-01-07 13:58:38.34	35.49	22.66	-37.9	-38.8	23.5	0.00e+00	0	38	0	416284672	48	6309
2026-01-07 13:58:42.38	36.00	23.18	-38.2	-39.1	23.2	0.00e+00	0	38	0	423624704	48	6493
2026-01-07 13:58:46.42	36.53	23.72	-38.3	-39.2	23.0	0.00e+00	0	38	0	430964736	48	6598
2026-01-07 13:58:50.46	37.07	24.26	-38.5	-39.4	23.1	0.00e+00	0	38	0	438304768	48	6729
2026-01-07 13:58:54.50	37.64	24.81	-38.3	-39.3	23.1	0.00e+00	0	38	0	446693376	48	6628
2026-01-07 13:58:58.53	38.22	25.37	-38.2	-39.1	23.0	0.00e+00	0	38	0	454033408	50	5797
2026-01-07 13:59:02.57	38.82	25.94	-39.2	-40.3	22.4	0.00e+00	0	38	0	461373440	50	6625
2026-01-07 13:59:06.61	39.45	26.52	-39.0	-40.0	22.5	0.00e+00	0	38	0	468713472	50	6410
2026-01-07 13:59:10.65	40.10	27.10	-38.8	-39.7	22.9	0.00e+00	0	38	0	477102080	50	6230
2026-01-07 13:59:14.69	40.77	27.70	-39.4	-40.4	22.0	0.00e+00	0	38	0	484442112	50	6736
2026-01-07 13:59:18.73	41.46	28.30	-39.2	-40.2	22.5	0.00e+00	0	38	0	491782144	52	5890
2026-01-07 13:59:22.76	42.18	28.91	-39.0	-40.0	22.7	0.00e+00	0	38	0	499122176	52	5700
2026-01-07 13:59:26.80	42.93	29.54	-38.7	-39.7	22.8	0.00e+00	0	38	0	506462208	50	6174
2026-01-07 13:59:30.84	43.71	30.17	-39.5	-40.5	22.3	0.00e+00	0	38	0	514850816	50	6783
2026-01-07 13:59:34.88	44.52	30.81	-39.6	-40.6	22.2	0.00e+00	0	38	0	522190848	52	6144
2026-01-07 13:59:38.91	45.36	31.45	-40.0	-41.1	21.8	0.00e+00	0	38	0	529530880	52	6476
2026-01-07 13:59:42.95	46.24	32.11	-39.5	-40.6	22.0	0.00e+00	0	38	0	536870912	52	6141
2026-01-07 13:59:46.99	47.15	32.77	-38.7	-39.7	22.7	0.00e+00	0	38	0	544210944	50	6179
2026-01-07 13:59:51.03	48.10	33.44	-39.0	-40.0	22.6	0.00e+00	0	38	0	552599552	50	6428
2026-01-07 13:59:55.07	49.09	34.11	-39.4	-40.4	22.2	0.00e+00	0	38	0	559939584	50	6718
2026-01-07 13:59:59.11	50.12	34.79	-39.2	-40.3	22.4	0.00e+00	0	38	0	567279616	50	6624
2026-01-07 14:00:03.15	51.19	35.48	-38.5	-39.4	23.2	0.00e+00	0	38	0	574619648	50	5998
2026-01-07 14:00:07.18	52.30	36.16	-38.6	-39.6	23.0	0.00e+00	0	38	0	583008256	50	6121
2026-01-07 14:00:11.22	53.47	36.85	-37.3	-38.2	24.1	0.00e+00	0	38	0	590348288	48	5832
2026-01-07 14:00:15.25	54.68	37.54	-37.7	-38.6	23.8	0.00e+00	0	38	0	597688320	48	6122
2026-01-07 14:00:19.29	55.94	38.23	-38.4	-39.3	23.1	0.00e+00	0	38	0	605028352	48	6639
2026-01-07 14:00:23.33	57.26	38.92	-38.5	-39.4	23.1	0.00e+00	0	38	0	612368384	50	6011
2026-01-07 14:00:27.37	58.64	39.61	-37.9	-38.8	23.6	0.00e+00	0	38	0	620756992	50	5618
2026-01-07 14:00:31.41	60.07	40.29	-39.5	-40.5	22.3	0.00e+00	0	38	0	628097024	50	6844
2026-01-07 14:00:35.45	61.57	40.96	-37.8	-38.7	23.7	0.00e+00	0	38	0	635437056	50	5508
2026-01-07 14:00:39.48	63.12	41.62	-37.8	-38.7	23.7	0.00e+00	0	38	0	642777088	48	6191
2026-01-07 14:00:43.52	64.74	42.27	-38.7	-39.7	22.9	0.00e+00	0	38	0	651165696	50	6202
2026-01-07 14:00:47.56	66.43	42.91	-38.7	-39.7	22.9	0.00e+00	0	38	0	658505728	50	6180
2026-01-07 14:00:51.60	68.18	43.53	-40.2	-41.3	21.6	0.00e+00	0	38	0	665845760	52	6676
2026-01-07 14:00:55.64	70.00	44.13	-38.9	-39.9	22.8	0.00e+00	0	38	0	673185792	50	6336
2026-01-07 14:00:59.68	71.89	44.70	-38.5	-39.4	23.0	0.00e+00	0	38	0	680525824	50	5979
2026-01-07 14:01:03.71	73.84	45.25	-39.6	-40.6	22.1	0.00e+00	0	38	0	688914432	52	6141
2026-01-07 14:01:07.76	75.87	45.77	-41.4	-42.8	20.0	0.00e+00	0	38	0	696254464	54	7015
2026-01-07 14:01:11.80	77.96	46.25	-41.9	-43.3	19.9	0.00e+00	0	38	0	703594496	54	7506
2026-01-07 14:01:15.83	80.10	46.70	-39.8	-40.8	22.0	0.00e+00	0	38	0	710934528	52	6305
2026-01-07 14:01:19.87	82.31	47.11	-40.2	-41.3	21.6	0.00e+00	0	38	0	719323136	54	5927
2026-01-07 14:01:23.91	84.57	47.47	-42.5	-44.0	19.4	0.00e+00	0	38	0	726663168	56	7194
2026-01-07 14:01:27.95	86.89	47.79	-41.4	-42.7	20.5	0.00e+00	0	38	0	734003200	56	6179
2026-01-07 14:01:31.99	89.24	48.06	-40.9	-42.1	20.8	0.00e+00	0	38	0	741343232	54	6480
2026-01-07 14:01:36.02	91.63	48.28	-40.2	-41.3	21.7	0.00e+00	0	38	0	748683264	54	5903
2026-01-07 14:01:40.06	94.06	48.45	-40.1	-41.2	21.5	0.00e+00	0	38	0	757071872	54	5847
2026-01-07 14:01:44.10	96.51	48.56	-39.8	-40.9	21.9	0.00e+00	0	38	0	764411904	52	6319
2026-01-07 14:01:48.14	98.97	48.62	-39.5	-40.5	22.3	0.00e+00	0	38	0	771751936	52	6100
2026-01-07 14:01:52.18	101.43	48.62	-38.7	-39.6	22.9	0.00e+00	0	38	0	779091968	50	6138
2026-01-07 14:01:56.21	103.89	48.57	-41.3	-42.6	20.4	0.00e+00	0	38	0	787480576	54	6927
2026-01-07 14:02:00.25	106.34	48.46	-42.1	-43.5	19.7	0.00e+00	0	38	0	794820608	54	7663
2026-01-07 14:02:04.29	108.77	48.30	-39.3	-40.3	22.5	0.00e+00	0	38	0	802160640	52	5945
2026-01-07 14:02:08.33	111.16	48.08	-38.5	-39.5	23.1	0.00e+00	0	38	0	809500672	50	6048
2026-01-07 14:02:12.37	113.53	47.81	-41.7	-43.0	19.9	0.00e+00	0	38	0	816840704	56	6399
2026-01-07 14:02:16.41	115.85	47.49	-42.9	-44.5	18.7	0.00e+00	0	38	0	825229312	56	7640
2026-01-07 14:02:20.45	118.12	47.13	-42.9	-44.6	18.9	0.00e+00	0	38	0	832569344	60	6126
2026-01-07 14:02:24.48	120.33	46.73	-39.9	-40.9	22.2	0.00e+00	0	38	0	839909376	52	6372
2026-01-07 14:02:28.52	122.48	46.28	-41.6	-43.0	20.2	0.00e+00	0	38	0	847249408	56	6403
2026-01-07 14:02:32.56	124.58	45.80	-39.3	-40.3	22.6	0.00e+00	0	38	0	855638016	52	5953
2026-01-07 14:02:36.60	126.61	45.28	-39.2	-40.2	22.5	0.00e+00	0	38	0	862978048	52	5888
2026-01-07 14:02:40.64	128.57	44.73	-39.4	-40.4	22.5	0.00e+00	0	38	0	870318080	52	6018
2026-01-07 14:02:44.68	130.47	44.16	-36.7	-37.5	24.5	0.00e+00	0	38	0	877658112	46	6060
2026-01-07 14:02:48.71	132.29	43.56	-36.3	-37.1	24.8	0.00e+00	0	38	0	884998144	46	5773
2026-01-07 14:02:52.75	134.05	42.94	-37.3	-38.1	24.0	0.00e+00	0	38	0	893386752	46	6509
2026-01-07 14:02:56.79	135.75	42.30	-36.8	-37.6	24.5	0.00e+00	0	38	0	900726784	46	6111
2026-01-07 14:03:00.83	137.37	41.65	-34.7	-35.4	25.9	0.00e+00	0	38	0	908066816	44	5332
2026-01-07 14:03:04.87	138.94	40.98	-35.6	-36.4	25.3	0.00e+00	0	38	0	915406848	42	6733
2026-01-07 14:03:08.90	140.44	40.31	-36.2	-37.0	24.9	0.00e+00	0	38	0	923795456	44	6420
2026-01-07 14:03:12.94	141.88	39.63	-38.2	-39.0	23.4	0.00e+00	0	38	0	931135488	48	6456
2026-01-07 14:03:16.98	143.26	38.94	-38.3	-39.2	23.1	0.00e+00	0	38	0	938475520	50	5896
2026-01-07 14:03:21.02	144.59	38.25	-41.4	-42.7	20.4	0.00e+00	0	38	0	945815552	54	6963
2026-01-07 14:03:25.06	145.86	37.55	-40.8	-42.0	21.3	0.00e+00	0	38	0	953155584	54	6408
2026-01-07 14:03:29.10	147.08	36.86	-41.3	-42.6	20.3	0.00e+00	0	38	0	961544192	54	6919
2026-01-07 14:03:33.14	148.25	36.16	-40.1	-41.1	21.8	0.00e+00	0	38	0	968884224	54	5827
2026-01-07 14:03:37.17	149.37	35.47	-43.9	-46.0	17.1	0.00e+00	0	38	0	976224256	58	8049
2026-01-07 14:03:41.21	150.44	34.79	-39.8	-40.9	22.0	0.00e+00	0	38	0	983564288	54	5678
2026-01-07 14:03:45.25	151.48	34.10	-39.7	-40.7	22.0	0.00e+00	0	38	0	991952896	50	6961
2026-01-07 14:03:49.29	152.47	33.43	-40.3	-41.5	21.5	0.00e+00	0	38	0	999292928	54	6078
2026-01-07 14:03:53.33	153.42	32.75	-40.1	-41.1	21.7	0.00e+00	0	38	0	1006632960	54	5812
2026-01-07 14:03:57.37	154.34	32.09	-39.7	-40.8	22.1	0.00e+00	0	38	0	1013972992	52	6252
2026-01-07 14:04:01.41	155.21	31.43	-38.9	-39.9	22.6	0.00e+00	0	38	0	1021313024	50	6326
2026-01-07 14:04:05.44	156.06	30.78	-41.1	-42.4	20.4	0.00e+00	0	38	0	1029701632	54	6752
2026-01-07 14:04:09.48	156.87	30.14	-38.9	-39.9	22.6	0.00e+00	0	38	0	1037041664	52	5672
2026-01-07 14:04:13.52	157.65	29.50	-39.2	-40.1	22.6	0.00e+00	0	38	0	1044381696	50	6524
2026-01-07 14:04:17.55	158.40	28.88	-39.0	-40.0	22.8	0.00e+00	0	38	0	1051721728	50	6422
2026-01-07 14:04:21.59	159.13	28.26	-38.8	-39.7	22.8	0.00e+00	0	38	0	1060110336	50	6238
2026-01-07 14:04:25.63	159.82	27.65	-38.0	-38.9	23.5	0.00e+00	0	38	0	1067450368	50	5667
2026-01-07 14:04:29.67	160.50	27.06	-37.6	-38.5	23.8	0.00e+00	0	38	0	1074790400	48	6050
2026-01-07 14:04:33.70	161.14	26.47	-37.8	-38.7	23.5	0.00e+00	0	38	0	1082130432	48	6239
2026-01-07 14:04:37.74	161.77	25.89	-38.0	-38.9	23.5	0.00e+00	0	38	0	1089470464	48	6359
2026-01-07 14:04:41.78	162.38	25.31	-37.5	-38.3	23.8	0.00e+00	0	38	0	1097859072	48	5959
2026-01-07 14:04:45.82	162.96	24.75	-38.7	-39.7	22.8	0.00e+00	0	38	0	1105199104	48	6931
2026-01-07 14:04:49.86	163.52	24.20	-38.0	-38.9	23.4	0.00e+00	0	38	0	1112539136	48	6373
2026-01-07 14:04:53.89	164.07	23.65	-37.6	-38.4	23.9	0.00e+00	0	38	0	1119879168	48	5994
2026-01-07 14:04:57.93	164.60	23.12	-38.6	-39.5	22.8	0.00e+00	0	38	0	1128267776	48	6818
2026-01-07 14:05:01.97	165.11	22.59	-38.8	-39.8	22.6	0.00e+00	0	38	0	1135607808	50	6257
2026-01-07 14:05:06.01	165.60	22.07	-38.7	-39.7	22.8	0.00e+00	0	38	0	1142947840	50	6174
2026-01-07 14:05:10.05	166.08	21.56	-37.7	-38.6	23.6	0.00e+00	0	38	0	1150287872	50	5467
2026-01-07 14:05:14.09	166.54	21.06	-37.5	-38.4	23.8	0.00e+00	0	38	0	1157627904	48	6008
2026-01-07 14:05:18.13	166.99	20.56	-38.9	-39.9	22.6	0.00e+00	0	38	0	1166016512	50	6346
2026-01-07 14:05:22.17	167.43	20.08	-39.8	-40.9	21.8	0.00e+00	0	38	0	1173356544	52	6325
2026-01-07 14:05:26.21	167.85	19.60	-39.2	-40.2	22.2	0.00e+00	0	38	0	1180696576	52	5869
2026-01-07 14:05:30.25	168.26	19.13	-37.8	-38.7	23.4	0.00e+00	0	38	0	1188036608	50	5538
2026-01-07 14:05:34.29	168.66	18.66	-37.6	-38.5	23.6	0.00e+00	0	38	0	1196425216	48	6057
2026-01-07 14:05:38.33	169.05	18.21	-38.0	-38.9	23.3	0.00e+00	0	38	0	1203765248	48	6324
2026-01-07 14:05:42.36	169.42	17.76	-38.3	-39.2	23.0	0.00e+00	0	38	0	1211105280	48	6579
2026-01-07 14:05:46.40	169.79	17.32	-38.1	-39.0	23.1	0.00e+00	0	38	0	1218445312	48	6464
2026-01-07 14:05:50.44	170.15	16.88	-37.6	-38.4	23.7	0.00e+00	0	38	0	1225785344	48	6019
2026-01-07 14:05:54.48	170.49	16.45	-36.9	-37.7	24.1	0.00e+00	0	38	0	1234173952	48	5564
2026-01-07 14:05:58.52	170.83	16.03	-36.8	-37.6	24.1	0.00e+00	0	38	0	1241513984	46	6137
2026-01-07 14:06:02.56	171.16	15.62	-37.1	-37.9	24.0	0.00e+00	0	38	0	1248854016	46	6345
2026-01-07 14:06:06.59	171.48	15.21	-37.6	-38.4	23.6	0.00e+00	0	38	0	1256194048	46	6761
2026-01-07 14:06:10.63	171.79	14.80	-38.5	-39.5	22.8	0.00e+00	0	38	0	1264582656	48	6780
2026-01-07 14:06:14.67	172.09	14.41	-39.2	-40.3	22.0	0.00e+00	0	38	0	1271922688	50	6617
2026-01-07 14:06:18.71	172.39	14.01	-39.6	-40.7	21.7	0.00e+00	0	38	0	1279262720	50	7001
2026-01-07 14:06:22.74	172.68	13.63	-39.7	-40.8	21.7	0.00e+00	0	38	0	1286602752	52	6287
2026-01-07 14:06:26.78	172.96	13.25	-38.5	-39.5	22.7	0.00e+00	0	38	0	1293942784	50	6057
2026-01-07 14:06:30.82	173.23	12.87	-37.9	-38.8	23.2	0.00e+00	0	38	0	1302331392	50	5580
2026-01-07 14:06:34.86	173.50	12.50	-37.4	-38.3	23.6	0.00e+00	0	38	0	1309671424	48	5917
2026-01-07 14:06:38.89	173.77	12.14	-37.3	-38.2	23.7	0.00e+00	0	38	0	1317011456	48	5838
2026-01-07 14:06:42.93	174.02	11.78	-37.6	-38.5	23.4	0.00e+00	0	38	0	1324351488	48	6037
2026-01-07 14:06:46.97	174.27	11.42	-37.8	-38.7	23.3	0.00e+00	0	38	0	1331691520	48	6232
2026-01-07 14:06:51.01	174.52	11.07	-38.3	-39.2	22.8	0.00e+00	0	38	0	1340080128	48	6597
2026-01-07 14:06:55.05	174.76	10.72	-38.6	-39.6	22.5	0.00e+00	0	38	0	1347420160	48	6855
2026-01-07 14:06:59.08	174.99	10.38	-38.7	-39.8	22.4	0.00e+00	0	38	0	1354760192	50	6253
2026-01-07 14:07:03.12	175.22	10.04	-38.7	-39.7	22.3	0.00e+00	0	38	0	1362100224	50	6225
2026-01-07 14:07:07.16	175.45	9.71	-38.8	-39.9	22.3	0.00e+00	0	38	0	1370488832	50	6324
2026-01-07 14:07:11.20	175.67	9.38	-38.7	-39.8	22.3	0.00e+00	0	38	0	1377828864	50	6256
2026-01-07 14:07:15.24	175.88	9.06	-39.0	-40.1	22.1	0.00e+00	0	38	0	1385168896	50	6467
2026-01-07 14:07:19.28	176.09	8.73	-39.1	-40.2	21.9	0.00e+00	0	38	0	1392508928	50	6548
2026-01-07 14:07:23.32	176.30	8.42	-39.3	-40.4	21.7	0.00e+00	0	38	0	1399848960	50	6736
2026-01-07 14:07:27.36	176.50	8.10	-39.4	-40.5	21.6	0.00e+00	0	38	0	1408237568	50	6800
2026-01-07 14:07:31.40	176.70	7.79	-39.7	-40.8	21.4	0.00e+00	0	38	0	1415577600	50	7028
2026-01-07 14:07:35.44	176.89	7.48	-39.8	-41.0	21.2	0.00e+00	0	38	0	1422917632	52	6426
2026-01-07 14:07:39.47	177.08	7.18	-40.2	-41.4	20.7	0.00e+00	0	38	0	1430257664	52	6723
2026-01-07 14:07:43.51	177.27	6.88	-40.5	-41.7	20.2	0.00e+00	0	38	0	1438646272	52	7003
2026-01-07 14:07:47.55	177.46	6.58	-41.1	-42.6	19.7	0.00e+00	0	38	0	1445986304	54	6853
2026-01-07 14:07:51.58	177.64	6.29	-41.2	-42.6	19.6	0.00e+00	0	38	0	1453326336	54	6909
2026-01-07 14:07:55.63	177.81	6.00	-41.5	-43.0	19.2	0.00e+00	0	38	0	1460666368	54	7226
2026-01-07 14:07:59.66	177.99	5.71	-41.8	-43.4	19.0	0.00e+00	0	38	0	1468006400	56	6699
2026-01-07 14:08:03.70	178.16	5.43	-42.0	-43.7	18.6	0.00e+00	0	38	0	1476395008	56	6958
2026-01-07 14:08:07.74	178.32	5.15	-42.2	-43.9	18.4	0.00e+00	0	38	0	1483735040	56	7130
2026-01-07 14:08:11.78	178.49	4.87	-42.4	-44.2	18.0	0.00e+00	0	38	0	1491075072	56	7369
2026-01-07 14:08:15.82	178.65	4.59	-42.3	-44.1	18.1	0.00e+00	0	38	0	1498415104	56	7257
2026-01-07 14:08:19.86	178.81	4.32	-42.1	-43.9	18.3	0.00e+00	0	38	0	1506803712	56	7116
2026-01-07 14:08:23.89	178.97	4.05	-42.4	-44.2	18.0	0.00e+00	0	38	0	1514143744	56	7378
2026-01-07 14:08:27.93	179.12	3.78	-42.3	-44.1	18.0	0.00e+00	0	38	0	1521483776	56	7278
2026-01-07 14:08:31.97	179.27	3.51	-42.1	-43.8	18.1	0.00e+00	0	38	0	1528823808	56	7038
2026-01-07 14:08:36.01	179.42	3.25	-42.1	-43.9	18.1	0.00e+00	0	38	0	1536163840	56	7107
2026-01-07 14:08:40.05	179.57	2.99	-48.3	-63.5	3.6	1.55e+00	0	38	104	1543503872	60	53973
2026-01-07 14:08:44.09	179.71	2.73	-49.2	-64.4	3.6	1.51e+00	0	38	104	1543503872	60	60004
2026-01-07 14:08:48.13	179.85	2.47	-49.4	-64.6	3.6	1.51e+00	0	38	104	1543503872	60	61050
2026-01-07 14:08:52.17	179.99	2.21	-49.3	-64.6	3.6	1.51e+00	0	38	104	1543503872	60	61214
2026-01-07 14:08:56.21	180.13	1.96	-49.3	-64.5	3.6	1.51e+00	0	38	104	1543503872	60	60447
2026-01-07 14:09:00.25	180.27	1.71	-49.3	-64.5	3.6	1.51e+00	0	38	104	1543503872	60	60375
2026-01-07 14:09:04.29	180.40	1.46	-49.3	-64.5	3.6	1.51e+00	0	38	104	1543503872	60	60665
2026-01-07 14:09:08.33	180.53	1.22	-49.3	-64.5	3.6	1.51e+00	0	38	104	1543503872	60	60483
2026-01-07 14:09:12.37	180.66	0.97	-49.3	-64.5	3.6	1.51e+00	0	38	104	1543503872	60	60595
2026-01-07 14:09:16.41	180.79	0.73	-49.3	-64.5	3.6	1.51e+00	0	38	104	1543503872	60	60497
2026-01-07 14:09:20.44	180.91	0.49	-49.3	-64.5	3.6	1.51e+00	0	38	104	1543503872	60	60439
2026-01-07 14:09:24.48	181.04	0.25	-49.3	-64.4	3.5	1.51e+00	0	38	104	1543503872	60	60292
2026-01-07 14:09:28.52	181.16	0.02	-49.3	-64.5	3.6	1.51e+00	0	38	104	1543503872	60	60582

#Closed at: 2026-01-07 14:09:30
#Recorded file [1543 MB]: D:/lorett/data/35029_260108_015411.dat