passes_logs/2026/01/07/R4.6S_Anadyr/R4.6S_Anadyr__20260107_132430_NOAA_21_JPSS-2_rec.log

#Pass ID: 20260107_132430_NOAA 21 (JPSS-2)
#Satellite: NOAA 21 (JPSS-2)
#Configuration: NOAA-21
#almurnet v.1.7.20251203
#Start time: 2026-01-07 13:24:34

#Version: 2.2.20231116
#Station: R4.6S_Anadyr
#Location: 177.4865 lon 64.73178 lat
#TLE: 1 54234U 22150A   26005.42670836  .00000142  00000+0  88292-4 0  9996
#TLE: 2 54234  98.7490 306.4427 0001045 340.6622  19.4514 14.19532269163451

#Time	Az	El	Level	Level2	SNR	BER	BlckErr	Temp	State	Recorded	gain1	gain2
2026-01-07 13:24:34.16	18.91	0.20	-49.2	-60.6	3.3	1.54e+00	0	36	0	0	60	37482
2026-01-07 13:24:38.20	19.09	0.43	-49.3	-62.2	3.5	1.52e+00	0	36	104	0	60	44995
2026-01-07 13:24:42.24	19.27	0.66	-49.0	-61.9	3.5	1.52e+00	0	37	104	0	60	43590
2026-01-07 13:24:46.27	19.45	0.89	-48.4	-61.2	3.5	1.52e+00	0	37	104	0	60	40415
2026-01-07 13:24:50.31	19.63	1.12	-47.7	-60.6	3.5	1.51e+00	0	37	104	0	60	37451
2026-01-07 13:24:54.35	19.82	1.36	-47.7	-60.5	3.5	1.52e+00	0	37	104	0	60	37250
2026-01-07 13:24:58.39	20.01	1.59	-47.7	-60.4	3.5	1.52e+00	0	37	104	0	60	36865
2026-01-07 13:25:02.43	20.20	1.83	-47.7	-60.6	3.5	1.52e+00	0	37	104	0	60	37398
2026-01-07 13:25:06.46	20.40	2.07	-47.7	-60.5	3.5	1.51e+00	0	37	104	0	60	37120
2026-01-07 13:25:10.50	20.59	2.31	-47.6	-59.4	3.5	1.51e+00	0	37	104	0	60	32748
2026-01-07 13:25:14.54	20.80	2.56	-47.2	-55.6	3.8	1.50e+00	0	37	104	0	60	21260
2026-01-07 13:25:18.58	21.00	2.80	-41.6	-43.4	16.5	0.00e+00	122	37	0	9437184	56	6531
2026-01-07 13:25:22.62	21.21	3.05	-38.7	-40.0	19.6	0.00e+00	122	37	0	22020096	50	6234
2026-01-07 13:25:26.66	21.42	3.30	-41.8	-43.7	15.9	0.00e+00	123	37	0	34603008	54	7559
2026-01-07 13:25:30.69	21.63	3.55	-47.4	-58.1	3.5	5.50e-01	57	37	104	47185920	60	28269
2026-01-07 13:25:34.73	21.85	3.81	-41.2	-42.9	17.8	4.16e-01	123	37	0	50331648	60	4893
2026-01-07 13:25:38.77	22.07	4.06	-38.6	-39.8	19.9	0.00e+00	122	37	0	62914560	50	6092
2026-01-07 13:25:42.81	22.29	4.32	-38.2	-39.4	20.4	0.00e+00	123	37	0	75497472	50	5796
2026-01-07 13:25:46.85	22.52	4.58	-37.9	-39.0	20.7	0.00e+00	122	37	0	88080384	50	5590
2026-01-07 13:25:50.89	22.75	4.84	-37.8	-38.9	20.8	0.00e+00	123	37	0	100663296	48	6156
2026-01-07 13:25:54.92	22.99	5.11	-37.8	-38.9	21.0	0.00e+00	120	37	0	113246208	48	6151
2026-01-07 13:25:58.96	23.23	5.37	-37.4	-38.5	21.3	0.00e+00	122	37	0	125829120	48	5908
2026-01-07 13:26:03.00	23.47	5.64	-37.4	-38.5	21.3	0.00e+00	120	37	0	138412032	48	5914
2026-01-07 13:26:07.04	23.72	5.91	-37.2	-38.3	21.6	0.00e+00	122	37	0	150994944	48	5748
2026-01-07 13:26:11.08	23.97	6.19	-37.3	-38.4	21.5	0.00e+00	123	37	0	163577856	48	5836
2026-01-07 13:26:15.12	24.22	6.46	-37.3	-38.4	21.5	0.00e+00	122	37	0	176160768	48	5810
2026-01-07 13:26:19.16	24.48	6.74	-37.1	-38.2	21.8	0.00e+00	120	37	0	188743680	48	5670
2026-01-07 13:26:23.20	24.75	7.02	-37.3	-38.4	21.6	0.00e+00	123	37	0	201326592	48	5801
2026-01-07 13:26:27.24	25.02	7.31	-37.0	-38.1	21.8	0.00e+00	122	38	0	213909504	48	5615
2026-01-07 13:26:31.28	25.30	7.59	-36.8	-37.9	22.1	0.00e+00	123	38	0	226492416	48	5473
2026-01-07 13:26:35.31	25.57	7.88	-36.9	-38.0	22.1	0.00e+00	116	37	0	239075328	48	5556
2026-01-07 13:26:39.35	25.86	8.18	-36.7	-37.7	22.3	0.00e+00	120	37	0	251658240	46	6042
2026-01-07 13:26:43.39	26.15	8.47	-36.8	-37.8	22.2	0.00e+00	122	38	0	264241152	46	6085
2026-01-07 13:26:47.43	26.45	8.77	-36.7	-37.7	22.3	0.00e+00	123	37	0	277872640	46	6063
2026-01-07 13:26:51.47	26.75	9.07	-36.6	-37.6	22.4	0.00e+00	122	37	0	289406976	46	5941
2026-01-07 13:26:55.51	27.06	9.37	-36.4	-37.4	22.6	0.00e+00	122	38	0	303038464	46	5819
2026-01-07 13:26:59.55	27.37	9.68	-36.4	-37.4	22.6	0.00e+00	123	38	0	315621376	46	5839
2026-01-07 13:27:03.59	27.69	9.99	-36.4	-37.4	22.6	0.00e+00	122	37	0	328204288	46	5814
2026-01-07 13:27:07.63	28.02	10.30	-36.0	-37.0	23.0	0.00e+00	123	38	0	340787200	46	5546
2026-01-07 13:27:11.68	28.36	10.62	-36.0	-37.0	23.0	0.00e+00	123	38	0	353370112	46	5572
2026-01-07 13:27:15.71	28.69	10.94	-36.0	-37.0	23.1	0.00e+00	123	38	0	365953024	46	5554
2026-01-07 13:27:19.75	29.04	11.26	-35.9	-36.8	23.2	0.00e+00	123	38	0	378535936	46	5456
2026-01-07 13:27:23.79	29.40	11.59	-35.6	-36.6	23.4	0.00e+00	123	38	0	391118848	44	5941
2026-01-07 13:27:27.82	29.76	11.92	-35.7	-36.6	23.4	0.00e+00	120	38	0	403701760	44	5974
2026-01-07 13:27:31.85	30.13	12.25	-35.5	-36.5	23.5	0.00e+00	123	38	0	416284672	44	5894
2026-01-07 13:27:35.89	30.51	12.59	-35.4	-36.4	23.6	0.00e+00	123	38	0	428867584	44	5810
2026-01-07 13:27:39.93	30.90	12.93	-35.5	-36.4	23.6	0.00e+00	122	38	0	441450496	44	5843
2026-01-07 13:27:43.97	31.29	13.28	-35.3	-36.2	23.6	0.00e+00	122	38	0	454033408	44	5684
2026-01-07 13:27:48.01	31.70	13.63	-35.3	-36.2	23.7	0.00e+00	123	38	0	466616320	44	5724
2026-01-07 13:27:52.05	32.11	13.98	-35.3	-36.3	23.7	0.00e+00	120	38	0	479199232	44	5736
2026-01-07 13:27:56.09	32.53	14.33	-35.3	-36.2	23.7	0.00e+00	122	38	0	491782144	44	5720
2026-01-07 13:28:00.13	32.97	14.69	-35.4	-36.3	23.6	0.00e+00	122	38	0	504365056	44	5754
2026-01-07 13:28:04.17	33.41	15.06	-35.2	-36.1	23.9	0.00e+00	122	38	0	516947968	44	5611
2026-01-07 13:28:08.20	33.86	15.42	-35.4	-36.3	23.7	0.00e+00	123	38	0	529530880	44	5786
2026-01-07 13:28:12.24	34.33	15.80	-35.4	-36.4	23.7	0.00e+00	122	38	0	542113792	44	5800
2026-01-07 13:28:16.28	34.80	16.17	-35.4	-36.3	23.7	0.00e+00	123	38	0	554696704	44	5761
2026-01-07 13:28:20.32	35.29	16.55	-35.3	-36.2	23.8	0.00e+00	122	38	0	567279616	44	5694
2026-01-07 13:28:24.36	35.79	16.93	-35.4	-36.3	23.8	0.00e+00	122	38	0	579862528	44	5758
2026-01-07 13:28:28.40	36.30	17.32	-35.2	-36.1	23.9	0.00e+00	120	38	0	592445440	44	5626
2026-01-07 13:28:32.44	36.83	17.71	-35.2	-36.2	23.9	0.00e+00	123	38	0	605028352	44	5676
2026-01-07 13:28:36.48	37.37	18.11	-35.0	-35.9	24.0	0.00e+00	123	38	0	618659840	44	5520
2026-01-07 13:28:40.52	37.92	18.51	-35.1	-36.0	24.1	0.00e+00	122	38	0	630194176	44	5552
2026-01-07 13:28:44.55	38.48	18.91	-35.0	-35.9	24.1	0.00e+00	123	38	0	643825664	44	5524
2026-01-07 13:28:48.60	39.06	19.32	-34.8	-35.7	24.2	0.00e+00	123	38	0	656408576	44	5399
2026-01-07 13:28:52.64	39.66	19.73	-34.8	-35.7	24.4	0.00e+00	123	38	0	668991488	42	6013
2026-01-07 13:28:56.68	40.27	20.15	-34.9	-35.8	24.2	0.00e+00	123	38	0	681574400	42	6099
2026-01-07 13:29:00.71	40.90	20.57	-34.5	-35.4	24.4	0.00e+00	123	38	0	694157312	42	5842
2026-01-07 13:29:04.75	41.55	20.99	-34.3	-35.2	24.6	0.00e+00	123	38	0	706740224	42	5683
2026-01-07 13:29:08.79	42.21	21.42	-34.2	-35.1	24.6	0.00e+00	123	38	0	719323136	42	5654
2026-01-07 13:29:12.82	42.89	21.85	-34.0	-34.8	24.9	0.00e+00	120	38	0	731906048	42	5465
2026-01-07 13:29:16.86	43.59	22.28	-33.9	-34.7	25.0	0.00e+00	123	38	0	744488960	42	5402
2026-01-07 13:29:20.90	44.31	22.71	-33.8	-34.7	25.1	0.00e+00	122	38	0	757071872	40	6025
2026-01-07 13:29:24.94	45.05	23.15	-33.6	-34.4	25.3	0.00e+00	122	38	0	769654784	40	5834
2026-01-07 13:29:28.97	45.80	23.59	-33.6	-34.5	25.3	0.00e+00	123	38	0	782237696	40	5866
2026-01-07 13:29:33.01	46.58	24.04	-33.6	-34.5	25.1	0.00e+00	123	38	0	794820608	40	5861
2026-01-07 13:29:37.05	47.39	24.48	-33.6	-34.4	25.2	0.00e+00	123	38	0	807403520	40	5840
2026-01-07 13:29:41.09	48.21	24.93	-33.8	-34.7	25.0	0.00e+00	122	38	0	819986432	40	6003
2026-01-07 13:29:45.13	49.06	25.38	-34.2	-35.1	24.7	0.00e+00	121	38	0	832569344	40	6320
2026-01-07 13:29:49.17	49.93	25.83	-34.3	-35.2	24.8	0.00e+00	122	38	0	845152256	40	6400
2026-01-07 13:29:53.21	50.83	26.28	-34.5	-35.4	24.5	0.00e+00	120	38	0	857735168	40	6550
2026-01-07 13:29:57.25	51.75	26.74	-34.5	-35.4	24.5	0.00e+00	122	38	0	870318080	40	6549
2026-01-07 13:30:01.29	52.70	27.19	-34.7	-35.6	24.4	0.00e+00	123	38	0	882900992	40	6680
2026-01-07 13:30:05.32	53.67	27.63	-34.6	-35.5	24.6	0.00e+00	123	38	0	895483904	42	5886
2026-01-07 13:30:09.37	54.68	28.08	-35.1	-36.0	24.2	0.00e+00	122	38	0	908066816	42	6235
2026-01-07 13:30:13.41	55.70	28.53	-34.8	-35.7	24.3	0.00e+00	123	38	0	920649728	42	6045
2026-01-07 13:30:17.45	56.76	28.97	-34.8	-35.7	24.4	0.00e+00	122	38	0	933232640	42	6052
2026-01-07 13:30:21.48	57.85	29.41	-34.7	-35.6	24.4	0.00e+00	123	38	0	945815552	42	5970
2026-01-07 13:30:25.52	58.96	29.85	-34.8	-35.7	24.4	0.00e+00	123	38	0	958398464	42	6043
2026-01-07 13:30:29.56	60.11	30.28	-34.3	-35.2	24.7	0.00e+00	123	38	0	970981376	42	5679
2026-01-07 13:30:33.59	61.28	30.70	-34.3	-35.2	24.7	0.00e+00	122	38	0	984612864	42	5668
2026-01-07 13:30:37.63	62.49	31.12	-34.8	-35.6	24.5	0.00e+00	123	38	0	997195776	42	5985
2026-01-07 13:30:41.67	63.73	31.52	-34.6	-35.5	24.7	0.00e+00	123	38	0	1009778688	42	5861
2026-01-07 13:30:45.71	65.00	31.92	-34.9	-35.8	24.4	0.00e+00	122	38	0	1022361600	42	6127
2026-01-07 13:30:49.75	66.30	32.31	-35.1	-36.0	24.3	0.00e+00	123	38	0	1034944512	42	6228
2026-01-07 13:30:53.79	67.63	32.69	-35.3	-36.2	24.2	0.00e+00	122	38	0	1047527424	42	6413
2026-01-07 13:30:57.83	68.99	33.05	-35.5	-36.5	23.8	0.00e+00	122	38	0	1060110336	42	6585
2026-01-07 13:31:01.88	70.38	33.41	-35.5	-36.4	23.8	0.00e+00	123	38	0	1072693248	44	5851
2026-01-07 13:31:05.91	71.80	33.74	-35.4	-36.3	23.9	0.00e+00	123	38	0	1085276160	44	5761
2026-01-07 13:31:09.95	73.24	34.06	-35.4	-36.3	23.9	0.00e+00	122	38	0	1097859072	44	5774
2026-01-07 13:31:14.00	74.72	34.37	-35.3	-36.2	23.8	0.00e+00	123	38	0	1110441984	44	5717
2026-01-07 13:31:18.03	76.22	34.65	-35.4	-36.3	23.8	0.00e+00	122	38	0	1123024896	44	5767
2026-01-07 13:31:22.07	77.75	34.92	-35.4	-36.4	23.7	0.00e+00	122	38	0	1135607808	44	5813
2026-01-07 13:31:26.12	79.31	35.16	-35.9	-36.8	23.5	0.00e+00	123	38	0	1148190720	44	6123
2026-01-07 13:31:30.16	80.88	35.38	-35.4	-36.3	24.1	0.00e+00	122	38	0	1160773632	44	5772
2026-01-07 13:31:34.20	82.47	35.58	-35.7	-36.6	23.7	0.00e+00	122	38	0	1173356544	44	5964
2026-01-07 13:31:38.24	84.09	35.76	-35.9	-36.9	23.5	0.00e+00	123	38	0	1185939456	44	6135
2026-01-07 13:31:42.28	85.72	35.91	-36.5	-37.5	23.0	0.00e+00	123	38	0	1198522368	44	6636
2026-01-07 13:31:46.32	87.36	36.04	-35.5	-36.4	23.8	0.00e+00	123	38	0	1211105280	44	5840
2026-01-07 13:31:50.36	89.01	36.14	-35.9	-36.8	23.5	0.00e+00	123	38	0	1223688192	44	6125
2026-01-07 13:31:54.40	90.68	36.22	-35.8	-36.7	23.6	0.00e+00	122	38	0	1236271104	44	6051
2026-01-07 13:31:58.44	92.35	36.27	-35.7	-36.7	23.7	0.00e+00	123	38	0	1248854016	44	6002
2026-01-07 13:32:02.47	94.02	36.29	-35.3	-36.2	24.1	0.00e+00	123	38	0	1261436928	44	5707
2026-01-07 13:32:06.51	95.69	36.29	-35.6	-36.5	23.9	0.00e+00	122	38	0	1274019840	44	5877
2026-01-07 13:32:10.55	97.37	36.26	-36.2	-37.1	23.3	0.00e+00	122	38	0	1286602752	44	6318
2026-01-07 13:32:14.59	99.04	36.20	-36.1	-37.0	23.4	0.00e+00	123	38	0	1300234240	44	6243
2026-01-07 13:32:18.64	100.70	36.11	-35.9	-36.8	23.5	0.00e+00	120	38	0	1312817152	44	6119
2026-01-07 13:32:22.68	102.36	36.00	-35.8	-36.8	23.6	0.00e+00	123	38	0	1325400064	44	6104
2026-01-07 13:32:26.72	104.00	35.87	-36.4	-37.3	23.2	0.00e+00	123	38	0	1337982976	44	6484
2026-01-07 13:32:30.76	105.62	35.71	-35.9	-36.9	23.5	0.00e+00	123	38	0	1350565888	44	6151
2026-01-07 13:32:34.80	107.23	35.52	-36.1	-37.0	23.3	0.00e+00	122	38	0	1363148800	44	6258
2026-01-07 13:32:38.83	108.82	35.31	-36.2	-37.2	23.0	0.00e+00	122	38	0	1375731712	44	6396
2026-01-07 13:32:42.88	110.39	35.08	-35.8	-36.8	23.6	0.00e+00	123	38	0	1388314624	44	6078
2026-01-07 13:32:46.92	111.94	34.83	-35.8	-36.7	23.7	0.00e+00	123	38	0	1400897536	44	6026
2026-01-07 13:32:50.96	113.46	34.56	-35.4	-36.3	24.0	0.00e+00	123	38	0	1413480448	44	5728
2026-01-07 13:32:54.99	114.96	34.26	-35.6	-36.6	23.7	0.00e+00	122	38	0	1426063360	44	5934
2026-01-07 13:32:59.03	116.43	33.95	-35.2	-36.2	23.8	0.00e+00	122	38	0	1438646272	44	5667
2026-01-07 13:33:03.07	117.87	33.63	-35.2	-36.1	24.1	0.00e+00	120	38	0	1451229184	44	5650
2026-01-07 13:33:07.11	119.28	33.28	-35.3	-36.2	24.2	0.00e+00	123	38	0	1463812096	44	5674
2026-01-07 13:33:11.15	120.67	32.93	-35.0	-35.9	24.2	0.00e+00	120	38	0	1476395008	44	5477
2026-01-07 13:33:15.19	122.02	32.56	-35.0	-35.9	23.9	0.00e+00	123	38	0	1488977920	44	5488
2026-01-07 13:33:19.23	123.34	32.17	-34.9	-35.8	24.2	0.00e+00	123	38	0	1501560832	42	6124
2026-01-07 13:33:23.27	124.64	31.78	-34.9	-35.8	24.1	0.00e+00	123	38	0	1514143744	42	6110
2026-01-07 13:33:27.31	125.90	31.38	-34.6	-35.5	24.6	0.00e+00	120	38	0	1526726656	42	5902
2026-01-07 13:33:31.35	127.13	30.96	-34.7	-35.6	24.5	0.00e+00	121	38	0	1539309568	42	5931
2026-01-07 13:33:35.39	128.33	30.54	-34.8	-35.7	24.5	0.00e+00	123	38	0	1551892480	42	6018
2026-01-07 13:33:39.43	129.50	30.11	-34.3	-35.2	24.6	0.00e+00	123	38	0	1564475392	42	5681
2026-01-07 13:33:43.47	130.64	29.68	-34.2	-35.1	24.7	0.00e+00	123	38	0	1577058304	42	5633
2026-01-07 13:33:47.51	131.75	29.24	-34.2	-35.1	24.8	0.00e+00	122	38	0	1589641216	42	5640
2026-01-07 13:33:51.55	132.83	28.80	-34.8	-35.7	24.3	0.00e+00	123	38	0	1602224128	42	6010
2026-01-07 13:33:55.59	133.88	28.35	-34.7	-35.5	24.6	0.00e+00	120	38	0	1615855616	42	5921
2026-01-07 13:33:59.63	134.90	27.90	-34.3	-35.2	24.8	0.00e+00	122	38	0	1628438528	42	5677
2026-01-07 13:34:03.68	135.90	27.45	-34.2	-35.0	25.0	0.00e+00	122	38	0	1641021440	42	5568
2026-01-07 13:34:07.72	136.87	26.99	-34.1	-35.0	25.0	0.00e+00	123	38	0	1653604352	42	5541
2026-01-07 13:34:11.76	137.81	26.54	-34.3	-35.2	24.8	0.00e+00	121	38	0	1666187264	42	5682
2026-01-07 13:34:15.80	138.73	26.09	-34.2	-35.0	24.9	0.00e+00	122	38	0	1678770176	42	5579
2026-01-07 13:34:19.83	139.62	25.63	-33.7	-34.6	25.3	0.00e+00	122	38	0	1691353088	42	5301
2026-01-07 13:34:23.87	140.48	25.18	-34.1	-35.0	24.9	0.00e+00	120	38	0	1703936000	40	6236
2026-01-07 13:34:27.91	141.33	24.73	-33.8	-34.7	25.0	0.00e+00	120	38	0	1716518912	40	6040
2026-01-07 13:34:31.95	142.15	24.28	-33.8	-34.7	25.0	0.00e+00	122	38	0	1729101824	40	6046
2026-01-07 13:34:36.00	142.94	23.83	-33.8	-34.7	25.1	0.00e+00	123	38	0	1741684736	40	6025
2026-01-07 13:34:40.04	143.72	23.38	-34.0	-34.9	24.9	0.00e+00	123	38	0	1754267648	40	6164
2026-01-07 13:34:44.07	144.47	22.94	-34.3	-35.2	24.6	0.00e+00	123	38	0	1766850560	40	6376
2026-01-07 13:34:48.11	145.20	22.50	-34.2	-35.1	24.6	0.00e+00	123	38	0	1779433472	40	6346
2026-01-07 13:34:52.15	145.92	22.06	-34.4	-35.3	24.5	0.00e+00	120	38	0	1792016384	40	6474
2026-01-07 13:34:56.19	146.61	21.63	-34.5	-35.4	24.4	0.00e+00	122	38	0	1804599296	40	6549
2026-01-07 13:35:00.23	147.29	21.19	-34.8	-35.7	24.4	0.00e+00	122	38	0	1817182208	42	6004
2026-01-07 13:35:04.28	147.95	20.77	-34.6	-35.5	24.5	0.00e+00	123	38	0	1829765120	42	5872
2026-01-07 13:35:08.32	148.59	20.34	-34.8	-35.8	24.3	0.00e+00	122	38	0	1842348032	42	6067
2026-01-07 13:35:12.35	149.21	19.92	-34.5	-35.4	24.6	0.00e+00	123	38	0	1854930944	42	5793
2026-01-07 13:35:16.39	149.82	19.50	-34.1	-35.0	24.8	0.00e+00	123	38	0	1867513856	42	5539
2026-01-07 13:35:20.43	150.41	19.09	-34.0	-34.9	24.9	0.00e+00	120	38	0	1880096768	42	5503
2026-01-07 13:35:24.47	150.98	18.68	-34.1	-34.9	24.9	0.00e+00	122	38	0	1892679680	42	5519
2026-01-07 13:35:28.50	151.54	18.28	-34.4	-35.2	24.7	0.00e+00	123	38	0	1905262592	42	5715
2026-01-07 13:35:32.54	152.09	17.88	-34.4	-35.3	24.5	0.00e+00	120	38	0	1917845504	42	5749
2026-01-07 13:35:36.57	152.62	17.48	-34.5	-35.4	24.5	0.00e+00	120	38	0	1931476992	42	5809
2026-01-07 13:35:40.61	153.14	17.09	-35.0	-35.9	24.0	0.00e+00	122	38	0	1943011328	42	6193
2026-01-07 13:35:44.65	153.65	16.70	-36.3	-37.3	22.6	0.00e+00	123	38	0	1956642816	44	6462
2026-01-07 13:35:48.69	154.15	16.32	-37.8	-39.0	20.9	0.00e+00	123	38	0	1969225728	46	6963
2026-01-07 13:35:52.73	154.63	15.94	-39.1	-40.5	19.3	0.00e+00	123	38	0	1981808640	50	6579
2026-01-07 13:35:56.77	155.10	15.56	-39.6	-40.9	18.9	0.00e+00	120	38	0	1994391552	50	6933
2026-01-07 13:36:00.81	155.56	15.19	-38.9	-40.2	19.7	0.00e+00	120	38	0	2006974464	50	6359
2026-01-07 13:36:04.86	156.01	14.82	-37.7	-38.8	21.4	0.00e+00	122	38	0	2019557376	48	6124
2026-01-07 13:36:08.90	156.45	14.45	-36.2	-37.2	22.9	0.00e+00	123	38	0	2032140288	46	5699
2026-01-07 13:36:12.94	156.88	14.09	-35.3	-36.3	23.8	0.00e+00	122	38	0	2044723200	44	5729
2026-01-07 13:36:16.97	157.30	13.74	-35.4	-36.3	23.7	0.00e+00	120	38	0	2057306112	44	5771
2026-01-07 13:36:21.01	157.71	13.38	-35.5	-36.4	23.6	0.00e+00	123	38	0	2069889024	44	5818
2026-01-07 13:36:25.05	158.11	13.03	-35.5	-36.5	23.3	0.00e+00	122	38	0	2082471936	44	5871
2026-01-07 13:36:29.09	158.50	12.69	-35.8	-36.7	23.1	0.00e+00	120	38	0	2095054848	44	6050
2026-01-07 13:36:33.12	158.88	12.35	-35.4	-36.4	23.6	0.00e+00	120	38	0	2107637760	44	5803
2026-01-07 13:36:37.16	159.25	12.01	-35.5	-36.4	23.5	0.00e+00	123	38	0	2120220672	44	5843
2026-01-07 13:36:41.20	159.62	11.67	-35.5	-36.4	23.5	0.00e+00	123	38	0	2132803584	44	5844
2026-01-07 13:36:45.24	159.98	11.34	-35.7	-36.6	23.4	0.00e+00	123	38	0	2145386496	44	5960
2026-01-07 13:36:49.28	160.33	11.02	-35.8	-36.8	23.2	0.00e+00	122	38	0	2157969408	44	6078
2026-01-07 13:36:53.32	160.67	10.69	-36.2	-37.1	22.9	0.00e+00	122	38	0	2170552320	44	6344
2026-01-07 13:36:57.36	161.01	10.37	-36.5	-37.6	22.6	0.00e+00	123	38	0	2183135232	44	6665
2026-01-07 13:37:01.40	161.34	10.05	-36.7	-37.7	22.4	0.00e+00	123	38	0	2195718144	46	6051
2026-01-07 13:37:05.44	161.66	9.74	-36.6	-37.6	22.4	0.00e+00	123	38	0	2208301056	46	5986
2026-01-07 13:37:09.48	161.98	9.43	-36.6	-37.7	22.3	0.00e+00	123	38	0	2220883968	46	6007
2026-01-07 13:37:13.52	162.29	9.12	-36.7	-37.7	22.3	0.00e+00	120	38	0	2233466880	46	6031
2026-01-07 13:37:17.56	162.59	8.82	-36.5	-37.5	22.4	0.00e+00	122	38	0	2246049792	46	5923
2026-01-07 13:37:21.60	162.89	8.51	-36.6	-37.6	22.5	0.00e+00	123	38	0	2258632704	46	5967
2026-01-07 13:37:25.64	163.18	8.22	-36.6	-37.6	22.4	0.00e+00	123	38	0	2272264192	46	5968
2026-01-07 13:37:29.67	163.47	7.92	-36.6	-37.6	22.3	0.00e+00	123	38	0	2284847104	46	5991
2026-01-07 13:37:33.72	163.75	7.63	-36.9	-37.9	22.0	0.00e+00	123	38	0	2297430016	46	6204
2026-01-07 13:37:37.76	164.03	7.34	-37.1	-38.1	21.9	0.00e+00	123	38	0	2310012928	46	6341
2026-01-07 13:37:41.80	164.30	7.05	-37.3	-38.3	21.8	0.00e+00	120	38	0	2322595840	46	6480
2026-01-07 13:37:45.84	164.56	6.76	-37.3	-38.4	21.7	0.00e+00	120	38	0	2335178752	46	6503
2026-01-07 13:37:49.88	164.82	6.48	-37.4	-38.5	21.5	0.00e+00	122	38	0	2347761664	46	6636
2026-01-07 13:37:53.92	165.08	6.20	-37.5	-38.6	21.3	0.00e+00	123	38	0	2360344576	46	6671
2026-01-07 13:37:57.96	165.33	5.93	-37.7	-38.8	21.1	0.00e+00	122	38	0	2372927488	46	6837
2026-01-07 13:38:02.00	165.58	5.65	-37.8	-38.9	20.9	0.00e+00	123	38	0	2385510400	48	6172
2026-01-07 13:38:06.04	165.82	5.38	-37.8	-39.0	20.8	0.00e+00	123	38	0	2398093312	48	6216
2026-01-07 13:38:10.08	166.06	5.11	-38.0	-39.1	20.7	0.00e+00	123	38	0	2410676224	48	6350
2026-01-07 13:38:14.12	166.30	4.84	-38.1	-39.2	20.6	0.00e+00	120	38	0	2423259136	48	6394
2026-01-07 13:38:18.16	166.53	4.58	-38.2	-39.4	20.5	0.00e+00	123	38	0	2435842048	48	6503
2026-01-07 13:38:22.20	166.75	4.31	-38.1	-39.3	20.5	0.00e+00	122	38	0	2448424960	48	6438
2026-01-07 13:38:26.24	166.98	4.05	-38.3	-39.5	20.4	0.00e+00	123	38	0	2461007872	48	6577
2026-01-07 13:38:30.28	167.20	3.80	-38.2	-39.3	20.3	0.00e+00	120	38	0	2473590784	48	6492
2026-01-07 13:38:34.32	167.41	3.54	-38.3	-39.5	20.1	0.00e+00	122	38	0	2486173696	48	6639
2026-01-07 13:38:38.37	167.62	3.28	-38.3	-39.6	19.9	0.00e+00	123	38	0	2498756608	48	6661
2026-01-07 13:38:42.41	167.83	3.03	-39.7	-41.2	12.9	0.00e+00	120	38	0	2511339520	50	7132
2026-01-07 13:38:46.45	168.04	2.78	-48.8	-61.6	3.5	1.52e+00	0	38	104	2511339520	60	42377
2026-01-07 13:38:50.49	168.24	2.53	-49.4	-62.2	3.5	1.51e+00	0	38	104	2511339520	60	45351
2026-01-07 13:38:54.53	168.44	2.29	-49.3	-62.2	3.5	1.52e+00	0	38	104	2511339520	60	45252
2026-01-07 13:38:58.57	168.64	2.04	-49.3	-62.2	3.5	1.52e+00	0	38	104	2511339520	60	44990
2026-01-07 13:39:02.60	168.83	1.80	-49.3	-62.1	3.5	1.52e+00	0	38	104	2511339520	60	44822
2026-01-07 13:39:06.64	169.02	1.56	-49.2	-62.1	3.5	1.52e+00	0	38	104	2511339520	60	44711
2026-01-07 13:39:10.68	169.21	1.32	-49.3	-62.1	3.5	1.52e+00	0	38	104	2511339520	60	44820
2026-01-07 13:39:14.71	169.39	1.08	-49.3	-62.1	3.5	1.52e+00	0	38	104	2511339520	60	44626
2026-01-07 13:39:18.75	169.57	0.85	-49.3	-62.1	3.5	1.51e+00	0	38	104	2511339520	60	44830
2026-01-07 13:39:22.79	169.75	0.61	-49.2	-62.1	3.5	1.52e+00	0	38	104	2511339520	60	44938
2026-01-07 13:39:26.83	169.93	0.38	-49.2	-62.1	3.5	1.52e+00	0	38	104	2511339520	60	44659
2026-01-07 13:39:30.87	170.10	0.15	-49.2	-62.1	3.5	1.52e+00	0	38	104	2511339520	60	44579

#Closed at: 2026-01-07 13:39:34
#Recorded file [2511 MB]: D:/lorett/data/35029_260108_012434.dat