passes_logs/2026/01/07/R4.6S_Anadyr/R4.6S_Anadyr__20260107_121344_SUOMI_NPP_rec.log

#Pass ID: 20260107_121344_SUOMI NPP
#Satellite: SUOMI NPP
#Configuration: NPP
#almurnet v.1.7.20251203
#Start time: 2026-01-07 12:13:48

#Version: 2.2.20231116
#Station: R4.6S_Anadyr
#Location: 177.4865 lon 64.73178 lat
#TLE: 1 37849U 11061A   26004.95404768  .00000136  00000+0  85334-4 0  9991
#TLE: 2 37849  98.7801 307.0898 0002575  80.6707 279.4760 14.19522289735281

#Time	Az	El	Level	Level2	SNR	BER	BlckErr	Temp	State	Recorded	gain1	gain2
2026-01-07 12:13:48.46	19.64	0.17	-49.2	-63.0	3.3	1.54e+00	0	35	0	0	60	51067
2026-01-07 12:13:52.50	19.96	0.35	-49.3	-64.5	3.6	1.51e+00	0	36	104	0	60	60832
2026-01-07 12:13:56.54	20.30	0.54	-49.0	-64.2	3.6	1.51e+00	0	36	104	0	60	58689
2026-01-07 12:14:00.57	20.63	0.73	-48.4	-63.6	3.6	1.51e+00	0	36	104	0	60	54565
2026-01-07 12:14:04.61	20.97	0.92	-47.6	-62.8	3.6	1.51e+00	0	36	104	0	60	49822
2026-01-07 12:14:08.65	21.31	1.11	-47.6	-62.8	3.6	1.51e+00	0	36	104	0	60	50068
2026-01-07 12:14:12.69	21.66	1.30	-47.6	-62.8	3.6	1.51e+00	0	36	104	0	60	49769
2026-01-07 12:14:16.73	22.01	1.50	-47.6	-62.8	3.6	1.51e+00	0	36	104	0	60	49792
2026-01-07 12:14:20.77	22.36	1.69	-47.6	-62.9	3.6	1.51e+00	0	36	104	0	60	50270
2026-01-07 12:14:24.81	22.72	1.88	-47.6	-62.7	3.6	1.51e+00	0	36	104	0	60	49531
2026-01-07 12:14:28.85	23.09	2.07	-47.6	-62.7	3.6	1.51e+00	0	36	104	0	60	49516
2026-01-07 12:14:32.88	23.46	2.26	-47.6	-62.8	3.6	1.51e+00	0	36	104	0	60	49687
2026-01-07 12:14:36.92	23.83	2.46	-47.6	-62.0	3.6	1.51e+00	0	36	104	0	60	45728
2026-01-07 12:14:40.96	24.21	2.65	-44.3	-47.4	14.5	5.87e-05	60	36	0	3145728	60	8453
2026-01-07 12:14:45.00	24.59	2.85	-41.3	-42.9	18.7	0.00e+00	0	36	0	10485760	56	6365
2026-01-07 12:14:49.04	24.98	3.04	-46.5	-52.6	8.3	1.21e-02	0	36	0	18874368	60	15450
2026-01-07 12:14:53.08	25.37	3.24	-47.4	-60.1	3.7	1.46e+00	0	36	104	23068672	60	36379
2026-01-07 12:14:57.11	25.77	3.43	-41.6	-43.3	18.5	0.00e+00	0	36	0	28311552	56	6651
2026-01-07 12:15:01.15	26.17	3.63	-41.3	-42.8	19.1	0.00e+00	26	36	0	35651584	56	6286
2026-01-07 12:15:05.19	26.58	3.82	-41.3	-42.8	19.1	0.00e+00	0	36	0	44040192	56	6300
2026-01-07 12:15:09.23	26.99	4.02	-40.9	-42.3	19.5	0.00e+00	27	36	0	51380224	56	5961
2026-01-07 12:15:13.26	27.41	4.22	-40.7	-42.1	19.7	0.00e+00	91	37	0	58720256	56	5807
2026-01-07 12:15:17.30	27.83	4.41	-40.4	-41.7	20.1	0.00e+00	0	37	0	66060288	54	6196
2026-01-07 12:15:21.33	28.26	4.61	-40.2	-41.5	20.3	0.00e+00	0	36	0	73400320	54	6064
2026-01-07 12:15:25.37	28.69	4.81	-39.9	-41.2	20.6	0.00e+00	29	37	0	81788928	54	5858
2026-01-07 12:15:29.41	29.13	5.00	-39.7	-40.9	20.9	0.00e+00	40	37	0	89128960	52	6376
2026-01-07 12:15:33.44	29.58	5.20	-39.5	-40.6	21.2	0.00e+00	0	37	0	96468992	52	6159
2026-01-07 12:15:37.48	30.03	5.40	-39.6	-40.7	21.2	0.00e+00	0	37	0	103809024	52	6221
2026-01-07 12:15:41.52	30.49	5.59	-39.8	-41.0	21.0	0.00e+00	92	36	0	111149056	52	6400
2026-01-07 12:15:45.55	30.95	5.79	-39.8	-41.0	20.3	0.00e+00	0	37	0	119537664	52	6458
2026-01-07 12:15:49.59	31.42	5.99	-40.0	-41.2	20.8	0.00e+00	0	37	0	126877696	52	6588
2026-01-07 12:15:53.63	31.90	6.19	-40.0	-41.2	20.8	0.00e+00	0	37	0	134217728	52	6590
2026-01-07 12:15:57.66	32.38	6.38	-39.9	-41.1	20.8	0.00e+00	92	37	0	141557760	52	6516
2026-01-07 12:16:01.70	32.86	6.58	-39.9	-41.0	20.9	0.00e+00	0	37	0	149946368	52	6463
2026-01-07 12:16:05.74	33.36	6.78	-40.0	-41.2	20.9	0.00e+00	0	37	0	157286400	52	6579
2026-01-07 12:16:09.78	33.86	6.97	-39.8	-41.0	21.1	0.00e+00	37	37	0	164626432	52	6457
2026-01-07 12:16:13.82	34.37	7.17	-39.4	-40.5	21.4	0.00e+00	92	37	0	171966464	52	6094
2026-01-07 12:16:17.85	34.88	7.36	-39.2	-40.3	21.7	0.00e+00	0	37	0	179306496	52	5921
2026-01-07 12:16:21.89	35.40	7.56	-39.2	-40.3	21.7	0.00e+00	0	37	0	187695104	52	5936
2026-01-07 12:16:25.93	35.93	7.75	-38.8	-39.9	22.0	0.00e+00	42	37	0	195035136	52	5669
2026-01-07 12:16:29.96	36.46	7.95	-38.5	-39.5	22.4	0.00e+00	0	37	0	202375168	50	6058
2026-01-07 12:16:34.00	37.00	8.14	-38.4	-39.4	22.5	0.00e+00	0	37	0	209715200	50	5970
2026-01-07 12:16:38.04	37.55	8.33	-38.8	-39.9	22.2	0.00e+00	0	37	0	218103808	50	6345
2026-01-07 12:16:42.08	38.10	8.53	-38.8	-39.9	22.2	0.00e+00	88	37	0	225443840	50	6328
2026-01-07 12:16:46.12	38.67	8.72	-38.6	-39.7	22.4	0.00e+00	0	37	0	232783872	50	6182
2026-01-07 12:16:50.16	39.24	8.91	-38.7	-39.7	22.3	0.00e+00	0	37	0	240123904	50	6212
2026-01-07 12:16:54.20	39.81	9.10	-38.9	-40.0	22.1	0.00e+00	0	37	0	247463936	50	6404
2026-01-07 12:16:58.24	40.40	9.28	-38.8	-39.9	22.3	0.00e+00	89	37	0	255852544	50	6322
2026-01-07 12:17:02.28	40.99	9.47	-38.8	-39.9	22.1	0.00e+00	0	37	0	263192576	50	6335
2026-01-07 12:17:06.31	41.58	9.66	-38.9	-39.9	22.2	0.00e+00	0	37	0	270532608	50	6355
2026-01-07 12:17:10.35	42.19	9.84	-38.7	-39.7	22.4	0.00e+00	26	37	0	277872640	50	6234
2026-01-07 12:17:14.39	42.80	10.03	-39.0	-40.0	22.1	0.00e+00	0	37	0	286261248	50	6444
2026-01-07 12:17:18.43	43.42	10.21	-39.1	-40.2	22.0	0.00e+00	0	37	0	293601280	50	6596
2026-01-07 12:17:22.46	44.05	10.39	-38.8	-39.8	22.2	0.00e+00	0	37	0	300941312	50	6293
2026-01-07 12:17:26.49	44.69	10.56	-39.2	-40.2	21.9	0.00e+00	92	37	0	308281344	50	6607
2026-01-07 12:17:30.53	45.33	10.74	-39.3	-40.4	22.0	0.00e+00	0	37	0	315621376	50	6711
2026-01-07 12:17:34.57	45.98	10.92	-39.4	-40.5	21.8	0.00e+00	0	37	0	324009984	50	6787
2026-01-07 12:17:38.60	46.64	11.09	-39.5	-40.5	21.8	0.00e+00	0	37	0	331350016	50	6831
2026-01-07 12:17:42.64	47.30	11.26	-39.4	-40.5	21.8	0.00e+00	92	37	0	338690048	50	6820
2026-01-07 12:17:46.68	47.97	11.43	-39.8	-41.0	21.4	0.00e+00	0	37	0	346030080	52	6420
2026-01-07 12:17:50.72	48.66	11.59	-40.0	-41.2	21.2	0.00e+00	0	37	0	354418688	52	6577
2026-01-07 12:17:54.75	49.34	11.75	-40.2	-41.4	21.1	0.00e+00	0	37	0	361758720	52	6708
2026-01-07 12:17:58.79	50.04	11.92	-40.4	-41.6	20.8	0.00e+00	51	37	0	369098752	52	6910
2026-01-07 12:18:02.83	50.74	12.07	-40.2	-41.4	21.1	0.00e+00	0	37	0	376438784	52	6701
2026-01-07 12:18:06.86	51.45	12.23	-40.3	-41.5	21.1	0.00e+00	0	37	0	383778816	52	6773
2026-01-07 12:18:10.90	52.17	12.38	-40.2	-41.4	21.0	0.00e+00	32	37	0	392167424	52	6729
2026-01-07 12:18:14.94	52.89	12.53	-40.2	-41.4	21.1	0.00e+00	0	37	0	399507456	52	6716
2026-01-07 12:18:18.98	53.62	12.67	-40.4	-41.6	20.9	0.00e+00	0	37	0	406847488	52	6907
2026-01-07 12:18:23.01	54.36	12.82	-40.3	-41.5	21.0	0.00e+00	0	37	0	414187520	52	6798
2026-01-07 12:18:27.05	55.11	12.95	-40.3	-41.5	21.1	0.00e+00	42	37	0	422576128	54	6081
2026-01-07 12:18:31.08	55.86	13.09	-39.7	-40.8	21.5	0.00e+00	0	37	0	429916160	52	6300
2026-01-07 12:18:35.13	56.62	13.22	-38.9	-39.9	22.5	0.00e+00	29	37	0	437256192	52	5664
2026-01-07 12:18:39.16	57.38	13.35	-38.5	-39.4	22.8	0.00e+00	0	37	0	444596224	50	6019
2026-01-07 12:18:43.20	58.15	13.47	-38.9	-39.9	22.3	0.00e+00	68	37	0	451936256	50	6365
2026-01-07 12:18:47.23	58.93	13.59	-38.8	-39.8	22.0	0.00e+00	0	37	0	460324864	50	6299
2026-01-07 12:18:51.27	59.71	13.71	-38.0	-38.9	23.2	0.00e+00	36	37	0	467664896	50	5649
2026-01-07 12:18:55.31	60.50	13.82	-38.9	-39.9	22.4	0.00e+00	34	37	0	475004928	50	6362
2026-01-07 12:18:59.34	61.30	13.92	-38.5	-39.5	22.7	0.00e+00	57	37	0	482344960	50	6066
2026-01-07 12:19:03.38	62.10	14.02	-38.9	-39.9	22.3	0.00e+00	0	37	0	490733568	50	6338
2026-01-07 12:19:07.42	62.91	14.12	-39.2	-40.2	22.1	0.00e+00	0	37	0	498073600	50	6567
2026-01-07 12:19:11.45	63.72	14.21	-39.5	-40.5	21.7	0.00e+00	65	37	0	505413632	50	6833
2026-01-07 12:19:15.49	64.53	14.30	-40.6	-41.9	20.6	0.00e+00	0	37	0	512753664	54	6324
2026-01-07 12:19:19.53	65.35	14.38	-38.7	-39.7	22.5	0.00e+00	0	37	0	520093696	52	5554
2026-01-07 12:19:23.56	66.18	14.46	-39.7	-40.8	21.6	0.00e+00	0	37	0	528482304	50	7078
2026-01-07 12:19:27.60	67.01	14.53	-38.6	-39.6	22.6	0.00e+00	92	37	0	535822336	50	6133
2026-01-07 12:19:31.64	67.84	14.59	-38.6	-39.6	22.7	0.00e+00	0	37	0	543162368	50	6108
2026-01-07 12:19:35.68	68.68	14.65	-38.1	-39.1	23.0	0.00e+00	0	37	0	550502400	50	5774
2026-01-07 12:19:39.71	69.51	14.71	-38.6	-39.6	22.7	0.00e+00	0	37	0	557842432	50	6138
2026-01-07 12:19:43.75	70.36	14.76	-38.6	-39.6	22.7	0.00e+00	88	37	0	566231040	50	6146
2026-01-07 12:19:47.79	71.20	14.80	-38.2	-39.1	23.0	0.00e+00	0	37	0	573571072	50	5803
2026-01-07 12:19:51.83	72.05	14.84	-39.2	-40.2	22.2	0.00e+00	0	37	0	580911104	50	6602
2026-01-07 12:19:55.86	72.90	14.87	-39.2	-40.3	22.1	0.00e+00	31	37	0	588251136	50	6629
2026-01-07 12:19:59.90	73.75	14.90	-38.8	-39.8	22.5	0.00e+00	0	37	0	596639744	50	6297
2026-01-07 12:20:03.94	74.60	14.92	-38.8	-39.7	22.5	0.00e+00	0	37	0	603979776	50	6243
2026-01-07 12:20:07.97	75.45	14.93	-39.1	-40.1	22.2	0.00e+00	0	37	0	611319808	50	6537
2026-01-07 12:20:12.01	76.31	14.94	-38.3	-39.3	22.9	0.00e+00	28	37	0	618659840	50	5902
2026-01-07 12:20:16.05	77.16	14.94	-38.6	-39.5	22.7	0.00e+00	0	37	0	625999872	50	6087
2026-01-07 12:20:20.09	78.02	14.94	-38.0	-38.9	23.1	0.00e+00	0	37	0	634388480	50	5668
2026-01-07 12:20:24.12	78.87	14.93	-38.3	-39.2	22.9	0.00e+00	0	37	0	641728512	50	5880
2026-01-07 12:20:28.16	79.73	14.91	-37.6	-38.4	23.5	0.00e+00	69	37	0	649068544	48	6023
2026-01-07 12:20:32.20	80.58	14.89	-37.7	-38.6	23.2	0.00e+00	3	37	0	656408576	48	6138
2026-01-07 12:20:36.24	81.43	14.87	-38.7	-39.7	22.3	0.00e+00	0	37	0	664797184	48	6929
2026-01-07 12:20:40.28	82.28	14.83	-38.5	-39.5	22.8	0.00e+00	31	37	0	672137216	50	6048
2026-01-07 12:20:44.31	83.13	14.79	-38.5	-39.4	22.8	0.00e+00	91	37	0	679477248	50	6018
2026-01-07 12:20:48.35	83.97	14.75	-38.6	-39.6	22.6	0.00e+00	0	37	0	686817280	50	6121
2026-01-07 12:20:52.39	84.82	14.70	-38.5	-39.5	22.8	0.00e+00	0	37	0	694157312	50	6081
2026-01-07 12:20:56.43	85.66	14.65	-38.0	-38.9	23.1	0.00e+00	92	37	0	702545920	50	5685
2026-01-07 12:21:00.47	86.49	14.58	-37.4	-38.3	23.6	0.00e+00	0	37	0	709885952	48	5959
2026-01-07 12:21:04.51	87.33	14.52	-37.2	-38.1	23.8	0.00e+00	0	37	0	717225984	48	5762
2026-01-07 12:21:08.54	88.16	14.45	-37.2	-38.1	23.7	0.00e+00	0	37	0	724566016	48	5792
2026-01-07 12:21:12.58	88.98	14.37	-37.3	-38.1	23.6	0.00e+00	92	37	0	732954624	48	5827
2026-01-07 12:21:16.62	89.81	14.29	-38.0	-38.9	23.2	0.00e+00	0	37	0	740294656	48	6356
2026-01-07 12:21:20.65	90.62	14.20	-38.0	-38.9	23.1	0.00e+00	0	37	0	747634688	48	6359
2026-01-07 12:21:24.69	91.43	14.11	-37.9	-38.8	23.2	0.00e+00	9	37	0	754974720	48	6280
2026-01-07 12:21:28.73	92.24	14.01	-37.0	-37.9	24.0	0.00e+00	92	37	0	762314752	48	5636
2026-01-07 12:21:32.77	93.05	13.91	-36.5	-37.4	24.4	0.00e+00	0	37	0	770703360	46	5969
2026-01-07 12:21:36.81	93.84	13.80	-36.9	-37.8	24.0	0.00e+00	0	37	0	778043392	46	6256
2026-01-07 12:21:40.85	94.63	13.69	-37.1	-37.9	23.9	0.00e+00	31	37	0	785383424	46	6373
2026-01-07 12:21:44.89	95.42	13.57	-37.8	-38.7	23.4	0.00e+00	0	37	0	792723456	46	6937
2026-01-07 12:21:48.92	96.20	13.45	-37.2	-38.1	23.6	0.00e+00	0	37	0	800063488	48	5799
2026-01-07 12:21:52.96	96.97	13.33	-37.4	-38.3	23.7	0.00e+00	0	37	0	808452096	48	5933
2026-01-07 12:21:57.00	97.74	13.20	-37.3	-38.2	23.7	0.00e+00	91	37	0	815792128	48	5845
2026-01-07 12:22:01.04	98.50	13.07	-37.5	-38.4	23.5	0.00e+00	0	37	0	823132160	48	5965
2026-01-07 12:22:05.08	99.25	12.93	-38.1	-39.0	23.0	0.00e+00	0	37	0	830472192	48	6442
2026-01-07 12:22:09.11	100.00	12.79	-38.5	-39.4	22.6	0.00e+00	0	37	0	838860800	48	6761
2026-01-07 12:22:13.15	100.74	12.65	-38.6	-39.6	22.6	0.00e+00	84	37	0	846200832	48	6870
2026-01-07 12:22:17.19	101.47	12.50	-39.1	-40.1	22.1	0.00e+00	0	37	0	853540864	50	6528
2026-01-07 12:22:21.23	102.20	12.35	-39.3	-40.4	21.8	0.00e+00	0	37	0	860880896	50	6728
2026-01-07 12:22:25.27	102.92	12.20	-40.1	-41.3	21.1	0.00e+00	0	37	0	868220928	52	6682
2026-01-07 12:22:29.31	103.63	12.04	-38.9	-39.9	22.3	0.00e+00	92	37	0	876609536	52	5678
2026-01-07 12:22:33.34	104.33	11.88	-39.1	-40.1	22.1	0.00e+00	0	37	0	883949568	50	6473
2026-01-07 12:22:37.38	105.03	11.72	-40.1	-41.3	21.2	0.00e+00	0	37	0	891289600	52	6648
2026-01-07 12:22:41.42	105.72	11.55	-40.4	-41.6	20.8	0.00e+00	92	37	0	898629632	52	6908
2026-01-07 12:22:45.46	106.40	11.39	-40.0	-41.2	21.3	0.00e+00	0	37	0	907018240	52	6540
2026-01-07 12:22:49.50	107.08	11.22	-39.2	-40.2	22.0	0.00e+00	0	37	0	914358272	52	5865
2026-01-07 12:22:53.53	107.74	11.05	-39.6	-40.6	21.7	0.00e+00	0	37	0	921698304	52	6173
2026-01-07 12:22:57.57	108.40	10.87	-39.4	-40.5	21.6	0.00e+00	76	37	0	929038336	52	6074
2026-01-07 12:23:01.61	109.05	10.69	-39.3	-40.4	21.8	0.00e+00	0	37	0	936378368	52	5996
2026-01-07 12:23:05.65	109.70	10.52	-40.1	-41.4	21.0	0.00e+00	0	37	0	944766976	52	6715
2026-01-07 12:23:09.69	110.33	10.34	-40.1	-41.3	21.1	0.00e+00	28	37	0	952107008	52	6676
2026-01-07 12:23:13.73	110.96	10.15	-39.4	-40.5	21.8	0.00e+00	91	37	0	959447040	52	6043
2026-01-07 12:23:17.77	111.58	9.97	-39.2	-40.3	21.9	0.00e+00	0	37	0	966787072	52	5916
2026-01-07 12:23:21.82	112.20	9.79	-38.9	-40.0	22.2	0.00e+00	0	37	0	975175680	52	5702
2026-01-07 12:23:25.85	112.81	9.60	-39.0	-40.1	22.1	0.00e+00	54	37	0	982515712	52	5777
2026-01-07 12:23:29.89	113.40	9.41	-39.0	-40.1	22.1	0.00e+00	0	37	0	989855744	52	5776
2026-01-07 12:23:33.93	114.00	9.22	-38.7	-39.7	22.4	0.00e+00	0	37	0	997195776	50	6215
2026-01-07 12:23:37.97	114.58	9.03	-38.9	-39.9	22.1	0.00e+00	0	37	0	1004535808	50	6387
2026-01-07 12:23:42.01	115.16	8.84	-39.0	-40.1	21.9	0.00e+00	92	37	0	1012924416	50	6489
2026-01-07 12:23:46.05	115.73	8.65	-38.6	-39.7	22.4	0.00e+00	0	37	0	1020264448	50	6184
2026-01-07 12:23:50.09	116.29	8.46	-38.5	-39.6	22.4	0.00e+00	0	37	0	1027604480	50	6107
2026-01-07 12:23:54.12	116.85	8.26	-38.9	-39.9	22.0	0.00e+00	29	37	0	1034944512	50	6379
2026-01-07 12:23:58.16	117.39	8.07	-39.1	-40.1	21.9	0.00e+00	85	37	0	1043333120	50	6530
2026-01-07 12:24:02.20	117.94	7.87	-39.2	-40.3	21.7	0.00e+00	0	37	0	1050673152	50	6672
2026-01-07 12:24:06.24	118.47	7.68	-39.1	-40.2	21.7	0.00e+00	9	37	0	1058013184	50	6595
2026-01-07 12:24:10.27	119.00	7.48	-39.1	-40.2	21.9	0.00e+00	27	37	0	1065353216	50	6580
2026-01-07 12:24:14.31	119.52	7.28	-38.9	-40.0	22.0	0.00e+00	61	37	0	1072693248	50	6417
2026-01-07 12:24:18.35	120.03	7.09	-39.2	-40.3	21.6	0.00e+00	0	37	0	1081081856	50	6687
2026-01-07 12:24:22.39	120.54	6.89	-39.6	-40.8	21.3	0.00e+00	0	37	0	1088421888	52	6283
2026-01-07 12:24:26.42	121.04	6.69	-39.4	-40.6	21.4	0.00e+00	78	37	0	1095761920	52	6113
2026-01-07 12:24:30.46	121.53	6.49	-39.7	-40.9	21.1	0.00e+00	0	37	0	1103101952	52	6341
2026-01-07 12:24:34.50	122.02	6.29	-40.3	-41.6	20.5	0.00e+00	0	37	0	1111490560	52	6854
2026-01-07 12:24:38.54	122.50	6.09	-40.3	-41.6	20.5	0.00e+00	0	37	0	1118830592	52	6868
2026-01-07 12:24:42.58	122.98	5.90	-40.5	-41.8	20.2	0.00e+00	74	37	0	1126170624	52	7070
2026-01-07 12:24:46.61	123.45	5.70	-40.7	-42.1	20.0	0.00e+00	0	37	0	1133510656	54	6490
2026-01-07 12:24:50.65	123.91	5.50	-40.9	-42.3	19.8	0.00e+00	0	37	0	1140850688	54	6634
2026-01-07 12:24:54.69	124.37	5.30	-40.4	-41.7	20.2	0.00e+00	23	37	0	1149239296	54	6204
2026-01-07 12:24:58.73	124.82	5.10	-40.3	-41.6	20.3	0.00e+00	92	37	0	1156579328	54	6118
2026-01-07 12:25:02.77	125.26	4.90	-41.0	-42.5	19.4	0.00e+00	0	37	0	1163919360	54	6773
2026-01-07 12:25:06.80	125.70	4.70	-42.5	-44.3	17.8	0.00e+00	0	37	0	1171259392	56	7488
2026-01-07 12:25:10.84	126.13	4.50	-41.9	-43.6	18.5	0.00e+00	58	37	0	1179648000	56	6905
2026-01-07 12:25:14.88	126.56	4.30	-41.5	-43.1	18.7	0.00e+00	0	37	0	1186988032	56	6534
2026-01-07 12:25:18.92	126.98	4.11	-41.3	-42.9	19.0	0.00e+00	0	37	0	1194328064	56	6365
2026-01-07 12:25:22.96	127.40	3.91	-41.6	-43.2	18.6	0.00e+00	0	37	0	1201668096	56	6611
2026-01-07 12:25:27.00	127.81	3.71	-41.3	-42.9	19.0	0.00e+00	80	37	0	1209008128	56	6334
2026-01-07 12:25:31.03	128.22	3.51	-40.9	-42.5	19.3	0.00e+00	0	37	0	1217396736	56	6040
2026-01-07 12:25:35.07	128.62	3.31	-41.5	-43.2	18.6	0.00e+00	0	37	0	1224736768	56	6545
2026-01-07 12:25:39.11	129.02	3.12	-42.3	-44.4	17.3	0.00e+00	0	37	0	1232076800	56	7510
2026-01-07 12:25:43.15	129.41	2.92	-48.6	-63.8	3.5	1.51e+00	0	37	104	1236271104	60	56307
2026-01-07 12:25:47.18	129.79	2.72	-49.2	-64.5	3.6	1.51e+00	0	37	104	1236271104	60	60524
2026-01-07 12:25:51.22	130.17	2.53	-49.3	-64.5	3.6	1.51e+00	0	37	104	1236271104	60	60784
2026-01-07 12:25:55.26	130.55	2.33	-49.1	-64.5	3.6	1.51e+00	0	37	104	1236271104	60	60557
2026-01-07 12:25:59.30	130.92	2.14	-49.3	-64.5	3.6	1.51e+00	0	37	104	1236271104	60	60544
2026-01-07 12:26:03.34	131.29	1.94	-49.3	-64.5	3.6	1.51e+00	0	37	104	1236271104	60	60526
2026-01-07 12:26:07.38	131.65	1.75	-49.3	-64.5	3.6	1.51e+00	0	37	104	1236271104	60	60471
2026-01-07 12:26:11.42	132.01	1.55	-49.2	-64.5	3.6	1.51e+00	0	37	104	1236271104	60	60416
2026-01-07 12:26:15.46	132.36	1.36	-49.2	-64.5	3.6	1.51e+00	0	37	104	1236271104	60	60381
2026-01-07 12:26:19.50	132.71	1.17	-49.2	-64.4	3.6	1.51e+00	0	37	104	1236271104	60	60061
2026-01-07 12:26:23.54	133.06	0.97	-49.3	-64.4	3.6	1.51e+00	0	37	104	1236271104	60	60042
2026-01-07 12:26:27.58	133.40	0.78	-49.2	-64.4	3.6	1.51e+00	0	37	104	1236271104	60	60186
2026-01-07 12:26:31.62	133.73	0.59	-49.2	-64.5	3.6	1.51e+00	0	37	104	1236271104	60	60372
2026-01-07 12:26:35.66	134.07	0.40	-49.2	-64.5	3.6	1.51e+00	0	38	104	1236271104	60	60335
2026-01-07 12:26:39.69	134.39	0.21	-49.2	-64.5	3.6	1.51e+00	0	37	104	1236271104	60	60380
2026-01-07 12:26:43.73	134.72	0.02	-49.2	-64.5	3.6	1.51e+00	0	38	104	1236271104	60	60349

#Closed at: 2026-01-07 12:26:46
#Recorded file [1236 MB]: D:/lorett/data/35029_260108_001348.dat