passes_logs/2026/01/07/R4.6S_Anadyr/R4.6S_Anadyr__20260107_163453_FENGYUN_3D_rec.log

#Pass ID: 20260107_163453_FENGYUN 3D
#Satellite: FENGYUN 3D
#Configuration: FENGYUN 3D
#almurnet v.1.7.20251203
#Start time: 2026-01-07 16:34:54

#Version: 2.2.20231116
#Station: R4.6S_Anadyr
#Location: 177.4865 lon 64.73178 lat
#TLE: 1 43010U 17072A   26005.48915933 -.00000051  00000+0 -21983-5 0  9995
#TLE: 2 43010  98.9919 337.1582 0002001 124.6377 235.4988 14.19691925421909

#Time	Az	El	Level	Level2	SNR	BER	BlckErr	Temp	State	Recorded	gain1	gain2
2026-01-07 16:34:54.73	20.64	0.07	-49.2	-64.1	3.5	1.51e+00	0	35	0	0	60	57822
2026-01-07 16:34:58.76	20.69	0.31	-49.2	-61.4	3.6	8.46e-01	0	36	104	0	60	42324
2026-01-07 16:35:02.81	20.73	0.55	-49.3	-61.4	3.5	8.45e-01	0	37	104	0	60	42317
2026-01-07 16:35:06.84	20.78	0.79	-48.9	-60.9	3.6	8.44e-01	0	37	104	0	60	40318
2026-01-07 16:35:10.87	20.82	1.04	-47.9	-59.8	3.6	8.45e-01	0	37	104	0	60	35155
2026-01-07 16:35:14.92	20.87	1.29	-47.8	-59.7	3.6	8.43e-01	0	37	104	0	60	34852
2026-01-07 16:35:18.96	20.92	1.54	-47.8	-59.7	3.6	8.46e-01	0	37	104	0	60	34796
2026-01-07 16:35:23.00	20.96	1.80	-47.8	-59.9	3.6	8.47e-01	0	37	104	0	60	35706
2026-01-07 16:35:27.04	21.01	2.05	-47.8	-59.8	3.6	8.46e-01	0	37	104	0	60	35506
2026-01-07 16:35:30.86	21.06	2.30	-47.6	-57.1	3.6	8.43e-01	0	37	0	0	60	25780
2026-01-07 16:35:34.90	21.10	2.56	-47.4	-56.4	3.7	8.34e-01	0	37	104	0	60	23930
2026-01-07 16:35:38.94	21.15	2.82	-45.9	-49.8	8.4	1.05e-01	0	37	0	5242880	60	11158
2026-01-07 16:35:42.98	21.20	3.09	-42.0	-43.6	15.5	0.00e+00	0	37	0	28311552	58	6167
2026-01-07 16:35:47.02	21.25	3.35	-40.8	-42.2	16.8	0.00e+00	0	37	0	50331648	54	6579
2026-01-07 16:35:51.06	21.30	3.63	-43.7	-45.9	12.8	1.14e-05	0	37	0	73400320	58	8034
2026-01-07 16:35:55.10	21.36	3.90	-47.7	-58.0	3.6	6.26e-01	0	37	104	93323264	60	28666
2026-01-07 16:35:59.14	21.41	4.17	-37.3	-38.2	20.7	0.00e+00	0	37	0	95420416	48	5885
2026-01-07 16:36:03.18	21.46	4.45	-36.8	-37.6	21.5	0.00e+00	0	37	0	118489088	46	6142
2026-01-07 16:36:07.21	21.51	4.74	-35.8	-36.6	22.5	0.00e+00	0	37	0	141557760	46	5484
2026-01-07 16:36:11.25	21.57	5.02	-35.7	-36.5	22.5	0.00e+00	0	37	0	163577856	44	6063
2026-01-07 16:36:15.29	21.62	5.31	-35.4	-36.2	22.9	0.00e+00	0	37	0	186646528	44	5839
2026-01-07 16:36:19.33	21.68	5.60	-35.2	-36.0	23.1	0.00e+00	0	37	0	209715200	44	5731
2026-01-07 16:36:23.37	21.73	5.89	-35.1	-35.8	23.3	0.00e+00	0	37	0	231735296	44	5610
2026-01-07 16:36:27.41	21.79	6.19	-35.1	-35.8	23.3	0.00e+00	0	37	0	254803968	44	5599
2026-01-07 16:36:31.45	21.85	6.49	-34.8	-35.5	23.7	0.00e+00	0	37	0	277872640	42	6087
2026-01-07 16:36:35.49	21.91	6.80	-34.6	-35.3	23.9	0.00e+00	0	37	0	299892736	42	5929
2026-01-07 16:36:39.52	21.97	7.11	-34.4	-35.2	24.0	0.00e+00	0	37	0	322961408	42	5832
2026-01-07 16:36:43.56	22.03	7.42	-34.3	-35.1	24.2	0.00e+00	0	37	0	346030080	42	5767
2026-01-07 16:36:47.60	22.09	7.73	-34.2	-34.9	24.3	0.00e+00	0	37	0	368050176	42	5688
2026-01-07 16:36:51.63	22.15	8.05	-34.5	-35.2	24.1	0.00e+00	0	37	0	391118848	42	5837
2026-01-07 16:36:55.67	22.22	8.38	-34.3	-35.0	24.4	0.00e+00	0	37	0	413138944	42	5720
2026-01-07 16:36:59.71	22.28	8.71	-34.3	-35.0	24.4	0.00e+00	0	37	0	436207616	42	5721
2026-01-07 16:37:03.75	22.34	9.04	-34.2	-34.9	24.5	0.00e+00	0	37	0	459276288	42	5648
2026-01-07 16:37:07.79	22.41	9.38	-34.1	-34.8	24.6	0.00e+00	0	37	0	482344960	42	5587
2026-01-07 16:37:11.83	22.48	9.72	-34.3	-35.0	24.3	0.00e+00	0	37	0	504365056	42	5709
2026-01-07 16:37:15.87	22.55	10.06	-33.8	-34.5	24.8	0.00e+00	0	37	0	527433728	42	5398
2026-01-07 16:37:19.91	22.62	10.42	-34.1	-34.7	24.6	0.00e+00	0	38	0	550502400	42	5559
2026-01-07 16:37:23.95	22.69	10.77	-34.0	-34.7	24.8	0.00e+00	0	38	0	572522496	42	5506
2026-01-07 16:37:27.99	22.76	11.13	-33.4	-34.1	25.2	0.00e+00	0	37	0	595591168	40	5813
2026-01-07 16:37:32.03	22.84	11.50	-33.6	-34.3	25.1	0.00e+00	0	37	0	618659840	40	5922
2026-01-07 16:37:36.07	22.91	11.87	-33.5	-34.2	25.2	0.00e+00	0	37	0	640679936	40	5858
2026-01-07 16:37:40.11	22.99	12.25	-33.6	-34.3	25.1	0.00e+00	0	37	0	663748608	40	5903
2026-01-07 16:37:44.14	23.07	12.64	-33.6	-34.3	25.1	0.00e+00	0	38	0	686817280	40	5933
2026-01-07 16:37:48.17	23.15	13.03	-33.4	-34.1	25.2	0.00e+00	0	38	0	708837376	40	5816
2026-01-07 16:37:52.22	23.23	13.42	-33.6	-34.3	25.1	0.00e+00	0	38	0	731906048	40	5960
2026-01-07 16:37:56.25	23.31	13.83	-33.2	-33.8	25.6	0.00e+00	0	38	0	754974720	40	5622
2026-01-07 16:38:00.28	23.40	14.24	-33.0	-33.7	25.6	0.00e+00	0	38	0	776994816	40	5533
2026-01-07 16:38:04.32	23.48	14.65	-32.8	-33.5	25.9	0.00e+00	0	38	0	800063488	38	6038
2026-01-07 16:38:08.36	23.57	15.08	-32.5	-33.1	26.1	0.00e+00	0	38	0	822083584	38	5819
2026-01-07 16:38:12.40	23.67	15.51	-32.1	-32.8	26.5	0.00e+00	0	38	0	845152256	38	5601
2026-01-07 16:38:16.44	23.76	15.95	-32.0	-32.7	26.6	0.00e+00	0	38	0	868220928	38	5513
2026-01-07 16:38:20.48	23.86	16.40	-31.9	-32.6	26.6	0.00e+00	0	38	0	891289600	38	5463
2026-01-07 16:38:24.52	23.95	16.85	-31.6	-32.2	27.1	0.00e+00	0	38	0	913309696	36	5856
2026-01-07 16:38:28.56	24.05	17.32	-31.6	-32.2	27.0	0.00e+00	0	38	0	936378368	36	5858
2026-01-07 16:38:32.59	24.16	17.79	-31.8	-32.4	26.9	0.00e+00	0	38	0	959447040	36	5980
2026-01-07 16:38:36.63	24.26	18.28	-31.4	-32.0	27.2	0.00e+00	0	38	0	981467136	36	5748
2026-01-07 16:38:40.67	24.37	18.77	-31.5	-32.1	27.2	0.00e+00	0	38	0	1004535808	36	5811
2026-01-07 16:38:44.72	24.49	19.27	-31.7	-32.3	27.1	0.00e+00	0	38	0	1026555904	36	5914
2026-01-07 16:38:48.76	24.60	19.79	-31.3	-31.9	27.4	0.00e+00	0	38	0	1049624576	36	5679
2026-01-07 16:38:52.80	24.72	20.31	-31.1	-31.7	27.5	0.00e+00	0	38	0	1072693248	36	5525
2026-01-07 16:38:56.83	24.84	20.84	-30.9	-31.5	27.7	0.00e+00	0	38	0	1095761920	36	5391
2026-01-07 16:39:00.88	24.97	21.39	-31.0	-31.6	27.6	0.00e+00	0	38	0	1117782016	36	5465
2026-01-07 16:39:04.92	25.10	21.95	-30.7	-31.3	27.8	0.00e+00	0	38	0	1140850688	34	5938
2026-01-07 16:39:08.96	25.23	22.52	-30.7	-31.3	27.8	0.00e+00	0	38	0	1163919360	34	5932
2026-01-07 16:39:13.00	25.37	23.11	-30.8	-31.4	27.8	0.00e+00	0	38	0	1185939456	34	5986
2026-01-07 16:39:17.04	25.51	23.71	-30.5	-31.1	28.0	0.00e+00	0	38	0	1209008128	34	5811
2026-01-07 16:39:21.08	25.66	24.32	-30.3	-31.0	28.1	0.00e+00	0	38	0	1232076800	34	5703
2026-01-07 16:39:25.12	25.82	24.94	-30.3	-31.0	28.1	0.00e+00	0	38	0	1254096896	34	5710
2026-01-07 16:39:29.16	25.98	25.59	-30.2	-30.7	28.3	0.00e+00	0	38	0	1277165568	34	5549
2026-01-07 16:39:33.20	26.14	26.24	-30.4	-31.0	27.9	0.00e+00	0	38	0	1300234240	34	5744
2026-01-07 16:39:37.24	26.31	26.92	-30.4	-31.1	28.0	0.00e+00	0	38	0	1322254336	34	5781
2026-01-07 16:39:41.28	26.49	27.61	-30.1	-30.7	28.3	0.00e+00	0	38	0	1345323008	34	5561
2026-01-07 16:39:45.32	26.68	28.31	-30.3	-30.9	28.2	0.00e+00	0	38	0	1368391680	34	5644
2026-01-07 16:39:49.36	26.87	29.04	-30.1	-30.7	28.3	0.00e+00	0	38	0	1390411776	34	5512
2026-01-07 16:39:53.40	27.07	29.79	-30.4	-31.0	28.1	0.00e+00	0	38	0	1413480448	34	5727
2026-01-07 16:39:57.44	27.28	30.55	-30.3	-30.9	28.2	0.00e+00	0	38	0	1436549120	34	5686
2026-01-07 16:40:01.48	27.50	31.34	-30.1	-30.7	28.3	0.00e+00	0	38	0	1458569216	34	5524
2026-01-07 16:40:05.52	27.73	32.14	-30.1	-30.7	28.2	0.00e+00	0	38	0	1481637888	34	5544
2026-01-07 16:40:09.56	27.97	32.97	-30.2	-30.8	28.3	0.00e+00	0	38	0	1504706560	34	5583
2026-01-07 16:40:13.61	28.23	33.83	-30.1	-30.7	28.3	0.00e+00	0	38	0	1526726656	34	5544
2026-01-07 16:40:17.65	28.49	34.70	-29.6	-30.2	28.7	0.00e+00	0	38	0	1549795328	32	5875
2026-01-07 16:40:21.69	28.77	35.60	-29.3	-30.0	28.9	0.00e+00	0	38	0	1572864000	32	5725
2026-01-07 16:40:25.73	29.07	36.53	-29.7	-30.3	28.7	0.00e+00	0	38	0	1595932672	32	5947
2026-01-07 16:40:29.76	29.38	37.48	-29.3	-29.9	28.8	0.00e+00	0	38	0	1617952768	32	5695
2026-01-07 16:40:33.81	29.71	38.46	-29.4	-30.0	28.9	0.00e+00	0	38	0	1641021440	32	5754
2026-01-07 16:40:37.85	30.06	39.47	-29.5	-30.1	28.8	0.00e+00	0	38	0	1663041536	32	5790
2026-01-07 16:40:41.89	30.43	40.51	-29.5	-30.1	28.8	0.00e+00	0	38	0	1686110208	32	5822
2026-01-07 16:40:45.92	30.82	41.57	-29.8	-30.4	28.6	0.00e+00	0	38	0	1709178880	32	5995
2026-01-07 16:40:49.96	31.24	42.67	-29.9	-30.5	28.6	0.00e+00	0	38	0	1731198976	32	6060
2026-01-07 16:40:54.01	31.69	43.80	-30.2	-30.7	28.4	0.00e+00	0	38	0	1754267648	32	6232
2026-01-07 16:40:58.05	32.17	44.96	-30.4	-31.0	28.2	0.00e+00	0	38	0	1777336320	32	6412
2026-01-07 16:41:02.08	32.69	46.16	-30.1	-30.7	28.3	0.00e+00	0	38	0	1800404992	32	6198
2026-01-07 16:41:06.11	33.25	47.38	-30.4	-31.0	28.1	0.00e+00	0	38	0	1822425088	32	6463
2026-01-07 16:41:10.15	33.85	48.64	-30.2	-30.8	28.4	0.00e+00	0	38	0	1845493760	32	6258
2026-01-07 16:41:14.19	34.50	49.94	-30.5	-31.1	28.2	0.00e+00	0	38	0	1867513856	32	6504
2026-01-07 16:41:18.23	35.21	51.26	-30.7	-31.3	28.0	0.00e+00	0	38	0	1890582528	34	5949
2026-01-07 16:41:22.27	35.99	52.63	-30.6	-31.2	28.0	0.00e+00	0	38	0	1913651200	34	5892
2026-01-07 16:41:26.31	36.84	54.02	-31.0	-31.6	27.7	0.00e+00	0	38	0	1935671296	34	6155
2026-01-07 16:41:30.35	37.78	55.45	-31.3	-31.9	27.4	0.00e+00	0	38	0	1958739968	34	6378
2026-01-07 16:41:34.38	38.81	56.91	-31.4	-32.1	27.3	0.00e+00	0	38	0	1981808640	34	6495
2026-01-07 16:41:38.42	39.96	58.39	-30.6	-31.2	28.0	0.00e+00	0	38	0	2003828736	34	5850
2026-01-07 16:41:42.46	41.25	59.91	-30.1	-30.7	28.3	0.00e+00	0	38	0	2026897408	34	5561
2026-01-07 16:41:46.50	42.70	61.45	-30.0	-30.7	28.3	0.00e+00	0	38	0	2049966080	32	6199
2026-01-07 16:41:50.54	44.33	63.00	-29.5	-30.1	28.8	0.00e+00	0	38	0	2071986176	32	5766
2026-01-07 16:41:54.57	46.19	64.57	-29.2	-29.8	28.9	0.00e+00	0	38	0	2095054848	32	5610
2026-01-07 16:41:58.62	48.34	66.15	-29.7	-30.3	28.6	0.00e+00	0	38	0	2118123520	32	5955
2026-01-07 16:42:02.66	50.81	67.72	-29.4	-30.1	28.8	0.00e+00	0	38	0	2140143616	32	5775
2026-01-07 16:42:06.70	53.69	69.27	-29.1	-29.6	29.2	0.00e+00	0	38	0	2163212288	32	5500
2026-01-07 16:42:10.74	57.07	70.80	-28.9	-29.4	29.0	0.00e+00	0	38	0	2186280960	30	6030
2026-01-07 16:42:14.78	61.05	72.28	-28.8	-29.5	29.3	0.00e+00	0	38	0	2209349632	30	6038
2026-01-07 16:42:18.82	65.78	73.67	-28.7	-29.3	29.3	0.00e+00	0	38	0	2231369728	30	5932
2026-01-07 16:42:22.86	71.40	74.96	-28.1	-28.7	29.6	0.00e+00	0	38	0	2254438400	30	5558
2026-01-07 16:42:26.90	78.04	76.10	-28.3	-28.9	29.6	0.00e+00	0	38	0	2276458496	28	6350
2026-01-07 16:42:30.94	85.78	77.03	-27.7	-28.3	29.8	0.00e+00	0	38	0	2299527168	28	5951
2026-01-07 16:42:34.98	94.57	77.70	-28.0	-28.6	29.7	0.00e+00	0	38	0	2322595840	28	6104
2026-01-07 16:42:39.02	104.15	78.07	-28.0	-28.6	29.8	0.00e+00	0	38	0	2344615936	28	6162
2026-01-07 16:42:43.06	114.06	78.10	-27.8	-28.4	29.9	0.00e+00	0	38	0	2367684608	28	6003
2026-01-07 16:42:47.10	123.73	77.78	-27.7	-28.2	29.8	0.00e+00	0	38	0	2390753280	28	5875
2026-01-07 16:42:51.13	132.65	77.15	-27.8	-28.5	29.8	0.00e+00	0	38	0	2413821952	28	6048
2026-01-07 16:42:55.17	140.57	76.26	-27.7	-28.2	30.0	0.00e+00	0	38	0	2435842048	28	5878
2026-01-07 16:42:59.21	147.38	75.15	-27.9	-28.6	29.8	0.00e+00	0	38	0	2458910720	28	6129
2026-01-07 16:43:03.25	153.15	73.88	-28.4	-29.0	29.4	0.00e+00	0	38	0	2480930816	28	6449
2026-01-07 16:43:07.29	158.02	72.50	-28.8	-29.5	29.1	0.00e+00	0	38	0	2503999488	30	6048
2026-01-07 16:43:11.33	162.11	71.03	-28.6	-29.1	29.4	0.00e+00	0	38	0	2527068160	30	5828
2026-01-07 16:43:15.37	165.58	69.51	-28.8	-29.4	29.2	0.00e+00	0	38	0	2549088256	30	6015
2026-01-07 16:43:19.40	168.53	67.95	-29.0	-29.6	29.1	0.00e+00	0	38	0	2572156928	30	6120
2026-01-07 16:43:23.44	171.06	66.38	-29.1	-29.6	29.1	0.00e+00	0	38	0	2595225600	30	6158
2026-01-07 16:43:27.48	173.25	64.80	-29.1	-29.8	29.0	0.00e+00	0	38	0	2618294272	30	6256
2026-01-07 16:43:31.52	175.16	63.23	-29.4	-30.0	28.9	0.00e+00	0	38	0	2640314368	30	6423
2026-01-07 16:43:35.56	176.83	61.66	-29.7	-30.3	28.5	0.00e+00	0	38	0	2663383040	30	6659
2026-01-07 16:43:39.60	178.30	60.12	-30.2	-30.8	28.3	0.00e+00	0	38	0	2685403136	32	6316
2026-01-07 16:43:43.64	179.61	58.60	-30.5	-31.2	28.0	0.00e+00	0	38	0	2708471808	34	5878
2026-01-07 16:43:47.69	180.79	57.10	-30.3	-31.0	28.1	0.00e+00	0	38	0	2731540480	34	5701
2026-01-07 16:43:51.73	181.84	55.63	-30.5	-31.0	28.0	0.00e+00	0	38	0	2754609152	34	5744
2026-01-07 16:43:55.77	182.79	54.19	-30.8	-31.5	27.6	0.00e+00	0	38	0	2776629248	34	6098
2026-01-07 16:43:59.81	183.66	52.79	-30.9	-31.6	27.6	0.00e+00	0	38	0	2799697920	34	6107
2026-01-07 16:44:03.85	184.44	51.41	-30.1	-30.6	28.3	0.00e+00	0	38	0	2822766592	34	5499
2026-01-07 16:44:07.88	185.16	50.08	-30.8	-31.5	27.9	0.00e+00	0	38	0	2844786688	34	6071
2026-01-07 16:44:11.93	185.82	48.77	-29.7	-30.3	28.6	0.00e+00	0	38	0	2867855360	32	5897
2026-01-07 16:44:15.96	186.43	47.50	-29.7	-30.3	28.7	0.00e+00	0	38	0	2889875456	32	5957
2026-01-07 16:44:20.00	187.00	46.27	-29.5	-30.0	28.8	0.00e+00	0	38	0	2912944128	32	5715
2026-01-07 16:44:24.04	187.52	45.06	-29.8	-30.5	28.6	0.00e+00	0	38	0	2936012800	32	6061
2026-01-07 16:44:28.08	188.00	43.89	-29.9	-30.4	28.6	0.00e+00	0	38	0	2959081472	32	6009
2026-01-07 16:44:32.12	188.46	42.76	-29.6	-30.3	28.6	0.00e+00	0	38	0	2981101568	32	5952
2026-01-07 16:44:36.16	188.88	41.65	-29.5	-30.2	28.7	0.00e+00	0	38	0	3004170240	32	5873
2026-01-07 16:44:40.20	189.28	40.58	-29.2	-29.9	28.9	0.00e+00	0	38	0	3027238912	32	5671
2026-01-07 16:44:44.24	189.65	39.53	-29.8	-30.4	28.6	0.00e+00	0	38	0	3049259008	32	5971
2026-01-07 16:44:48.28	190.00	38.51	-29.1	-29.7	29.0	0.00e+00	0	38	0	3072327680	32	5557
2026-01-07 16:44:52.32	190.33	37.53	-29.1	-29.6	29.0	0.00e+00	0	38	0	3094347776	32	5502
2026-01-07 16:44:56.36	190.65	36.57	-29.1	-29.8	29.0	0.00e+00	0	38	0	3117416448	32	5597
2026-01-07 16:45:00.40	190.94	35.63	-29.3	-30.0	28.8	0.00e+00	0	38	0	3140485120	32	5716
2026-01-07 16:45:04.44	191.22	34.73	-29.7	-30.5	28.5	0.00e+00	0	38	0	3163553792	32	6043
2026-01-07 16:45:08.48	191.49	33.84	-29.7	-30.4	28.5	0.00e+00	0	38	0	3185573888	32	5994
2026-01-07 16:45:12.52	191.74	32.99	-29.3	-29.8	28.9	0.00e+00	0	38	0	3208642560	32	5589
2026-01-07 16:45:16.56	191.99	32.15	-29.6	-30.1	28.7	0.00e+00	0	38	0	3230662656	32	5789
2026-01-07 16:45:20.60	192.22	31.34	-29.8	-30.4	28.4	0.00e+00	0	38	0	3253731328	32	5976
2026-01-07 16:45:24.64	192.44	30.55	-29.9	-30.4	28.4	0.00e+00	0	38	0	3276800000	32	6005
2026-01-07 16:45:28.68	192.65	29.78	-29.8	-30.4	28.4	0.00e+00	0	38	0	3299868672	32	5975
2026-01-07 16:45:32.71	192.85	29.03	-29.9	-30.4	28.4	0.00e+00	0	38	0	3321888768	32	6029
2026-01-07 16:45:36.75	193.04	28.30	-29.9	-30.5	28.4	0.00e+00	0	38	0	3344957440	32	6034
2026-01-07 16:45:40.79	193.22	27.58	-29.9	-30.4	28.5	0.00e+00	0	38	0	3368026112	32	6006
2026-01-07 16:45:44.83	193.40	26.89	-29.8	-30.5	28.5	0.00e+00	0	38	0	3390046208	32	6085
2026-01-07 16:45:48.87	193.57	26.21	-29.6	-30.3	28.6	0.00e+00	0	38	0	3413114880	32	5928
2026-01-07 16:45:52.91	193.74	25.55	-29.8	-30.5	28.5	0.00e+00	0	38	0	3435134976	32	6066
2026-01-07 16:45:56.94	193.90	24.90	-30.2	-30.9	28.2	0.00e+00	0	38	0	3458203648	32	6357
2026-01-07 16:46:00.98	194.05	24.27	-30.4	-31.1	28.0	0.00e+00	0	38	0	3481272320	32	6487
2026-01-07 16:46:05.02	194.20	23.66	-30.5	-31.2	27.9	0.00e+00	0	38	0	3503292416	32	6590
2026-01-07 16:46:09.06	194.34	23.06	-30.7	-31.2	27.9	0.00e+00	0	38	0	3526361088	34	5880
2026-01-07 16:46:13.10	194.47	22.47	-30.5	-31.1	28.0	0.00e+00	0	38	0	3549429760	34	5791
2026-01-07 16:46:17.14	194.61	21.89	-30.5	-31.1	27.9	0.00e+00	0	38	0	3572498432	34	5787
2026-01-07 16:46:21.18	194.74	21.33	-30.6	-31.2	27.9	0.00e+00	0	38	0	3594518528	34	5831
2026-01-07 16:46:25.22	194.86	20.78	-30.7	-31.3	27.8	0.00e+00	0	38	0	3617587200	34	5922
2026-01-07 16:46:29.26	194.98	20.24	-30.9	-31.4	27.6	0.00e+00	0	38	0	3639607296	34	6029
2026-01-07 16:46:33.30	195.10	19.71	-31.1	-31.6	27.5	0.00e+00	0	38	0	3662675968	34	6156
2026-01-07 16:46:37.34	195.21	19.20	-31.4	-31.9	27.3	0.00e+00	0	38	0	3685744640	34	6363
2026-01-07 16:46:41.38	195.32	18.69	-31.6	-32.3	27.0	0.00e+00	0	38	0	3708813312	34	6658
2026-01-07 16:46:45.42	195.43	18.20	-31.6	-32.3	27.0	0.00e+00	0	38	0	3730833408	34	6680
2026-01-07 16:46:49.46	195.54	17.71	-31.9	-32.7	26.7	0.00e+00	0	38	0	3753902080	36	6181
2026-01-07 16:46:53.50	195.64	17.23	-32.1	-32.7	26.7	0.00e+00	0	38	0	3776970752	36	6183
2026-01-07 16:46:57.54	195.74	16.77	-32.2	-33.0	26.5	0.00e+00	0	38	0	3798990848	36	6400
2026-01-07 16:47:01.58	195.83	16.31	-32.5	-33.2	26.3	0.00e+00	0	38	0	3822059520	36	6594
2026-01-07 16:47:05.62	195.93	15.86	-32.6	-33.3	26.2	0.00e+00	0	38	0	3844079616	36	6673
2026-01-07 16:47:09.67	196.02	15.41	-32.6	-33.2	26.2	0.00e+00	0	38	0	3867148288	38	5844
2026-01-07 16:47:13.71	196.11	14.98	-32.8	-33.4	26.0	0.00e+00	0	38	0	3890216960	38	5990
2026-01-07 16:47:17.74	196.19	14.55	-32.7	-33.5	26.1	0.00e+00	0	38	0	3913285632	38	6043
2026-01-07 16:47:21.78	196.28	14.13	-32.8	-33.5	26.0	0.00e+00	0	38	0	3935305728	38	6056
2026-01-07 16:47:25.83	196.36	13.72	-32.8	-33.5	26.0	0.00e+00	0	38	0	3958374400	38	6087
2026-01-07 16:47:29.87	196.44	13.31	-33.1	-33.7	25.8	0.00e+00	0	38	0	3981443072	38	6179
2026-01-07 16:47:33.90	196.52	12.92	-32.9	-33.4	25.9	0.00e+00	0	38	0	4003463168	38	6027
2026-01-07 16:47:37.94	196.60	12.52	-33.0	-33.6	25.7	0.00e+00	0	38	0	4026531840	38	6148
2026-01-07 16:47:41.98	196.68	12.14	-33.0	-33.6	25.8	0.00e+00	0	38	0	4049600512	38	6152
2026-01-07 16:47:46.03	196.75	11.76	-33.1	-33.7	25.7	0.00e+00	0	38	0	4071620608	38	6208
2026-01-07 16:47:50.07	196.82	11.38	-33.3	-33.9	25.6	0.00e+00	0	38	0	4094689280	38	6328
2026-01-07 16:47:54.11	196.89	11.01	-33.3	-33.9	25.4	0.00e+00	0	38	0	4117757952	38	6382
2026-01-07 16:47:58.15	196.96	10.65	-33.6	-34.2	25.3	0.00e+00	0	38	0	4139778048	38	6543
2026-01-07 16:48:02.19	197.03	10.29	-33.8	-34.5	25.0	0.00e+00	0	38	0	4162846720	40	6095
2026-01-07 16:48:06.23	197.10	9.94	-33.9	-34.5	24.8	0.00e+00	0	38	0	4185915392	40	6072
2026-01-07 16:48:10.26	197.17	9.59	-33.8	-34.4	24.9	0.00e+00	0	38	0	4207935488	40	6020
2026-01-07 16:48:14.30	197.23	9.25	-33.9	-34.7	24.8	0.00e+00	0	38	0	4231004160	40	6182
2026-01-07 16:48:18.34	197.29	8.91	-34.2	-35.0	24.5	0.00e+00	0	38	0	4254072832	40	6419
2026-01-07 16:48:22.38	197.36	8.57	-34.2	-34.8	24.6	0.00e+00	0	38	0	4276092928	40	6288
2026-01-07 16:48:26.42	197.42	8.24	-34.4	-35.0	24.3	0.00e+00	0	38	0	4299161600	40	6446
2026-01-07 16:48:30.46	197.48	7.92	-34.4	-35.1	24.2	0.00e+00	0	38	0	4322230272	40	6489
2026-01-07 16:48:34.50	197.54	7.60	-34.6	-35.2	24.1	0.00e+00	0	38	0	4344250368	40	6602
2026-01-07 16:48:38.54	197.60	7.28	-34.8	-35.6	23.8	0.00e+00	0	38	0	4367319040	42	6136
2026-01-07 16:48:42.58	197.65	6.97	-34.8	-35.5	23.8	0.00e+00	0	38	0	4390387712	42	6044
2026-01-07 16:48:46.62	197.71	6.66	-34.9	-35.5	23.8	0.00e+00	0	38	0	4412407808	42	6088
2026-01-07 16:48:50.66	197.76	6.35	-35.0	-35.8	23.7	0.00e+00	0	38	0	4435476480	42	6250
2026-01-07 16:48:54.70	197.82	6.05	-35.2	-36.0	23.4	0.00e+00	0	38	0	4458545152	42	6426
2026-01-07 16:48:58.74	197.87	5.75	-35.2	-35.9	23.3	0.00e+00	0	38	0	4480565248	42	6340
2026-01-07 16:49:02.76	197.92	5.46	-35.3	-36.1	23.3	0.00e+00	0	38	0	4503633920	42	6493
2026-01-07 16:49:06.80	197.98	5.16	-35.5	-36.3	23.0	0.00e+00	0	38	0	4526702592	42	6673
2026-01-07 16:49:10.84	198.03	4.87	-35.5	-36.3	22.9	0.00e+00	0	38	0	4548722688	42	6674
2026-01-07 16:49:14.88	198.08	4.59	-35.6	-36.4	22.8	0.00e+00	0	38	0	4571791360	42	6744
2026-01-07 16:49:18.92	198.13	4.30	-35.7	-36.5	22.6	0.00e+00	0	38	0	4594860032	44	6038
2026-01-07 16:49:22.95	198.18	4.03	-35.9	-36.6	22.4	0.00e+00	0	38	0	4616880128	44	6134
2026-01-07 16:49:26.99	198.22	3.75	-35.8	-36.7	22.4	0.00e+00	0	38	0	4639948800	44	6201
2026-01-07 16:49:31.03	198.27	3.47	-36.4	-37.3	21.8	0.00e+00	0	38	0	4663017472	44	6661
2026-01-07 16:49:35.07	198.32	3.20	-36.0	-36.9	22.0	0.00e+00	0	38	0	4685037568	44	6359
2026-01-07 16:49:39.11	198.37	2.93	-48.3	-60.4	3.6	8.44e-01	0	38	104	4704960512	60	37635
2026-01-07 16:49:43.15	198.41	2.67	-49.0	-61.2	3.6	8.46e-01	0	38	104	4704960512	60	41452
2026-01-07 16:49:47.19	198.46	2.40	-49.2	-61.4	3.6	8.45e-01	0	38	104	4704960512	60	42584
2026-01-07 16:49:51.23	198.50	2.14	-49.3	-61.4	3.6	8.45e-01	0	38	104	4704960512	60	42297
2026-01-07 16:49:55.26	198.55	1.88	-49.3	-61.4	3.6	8.45e-01	0	38	104	4704960512	60	42341
2026-01-07 16:49:59.30	198.59	1.63	-49.3	-61.4	3.6	8.46e-01	0	38	104	4704960512	60	42267
2026-01-07 16:50:03.34	198.63	1.37	-49.2	-61.4	3.6	8.45e-01	0	38	104	4704960512	60	42327
2026-01-07 16:50:07.38	198.67	1.12	-49.2	-61.4	3.6	8.45e-01	0	38	104	4704960512	60	42232
2026-01-07 16:50:11.43	198.72	0.87	-49.2	-61.3	3.6	8.46e-01	0	38	104	4704960512	60	42207
2026-01-07 16:50:15.47	198.76	0.62	-49.2	-61.3	3.6	8.45e-01	0	38	104	4704960512	60	41945
2026-01-07 16:50:19.51	198.80	0.37	-49.2	-61.3	3.6	8.45e-01	0	38	104	4704960512	60	41799
2026-01-07 16:50:23.55	198.84	0.13	-49.2	-61.3	3.6	8.45e-01	0	38	104	4704960512	60	41923
2026-01-07 16:50:27.59	198.88	-0.11	-49.2	-61.3	3.6	8.45e-01	0	38	104	4704960512	60	42017

#Closed at: 2026-01-07 16:50:28
#Recorded file [4704 MB]: D:/lorett/data/35029_260108_043454.dat