passes_logs/2026/01/07/R4.6S_Anadyr/R4.6S_Anadyr__20260107_232010_NOAA_21_JPSS-2_rec.log

#Pass ID: 20260107_232010_NOAA 21 (JPSS-2)
#Satellite: NOAA 21 (JPSS-2)
#Configuration: NOAA-21
#almurnet v.1.7.20251203
#Start time: 2026-01-07 23:20:15

#Version: 2.2.20231116
#Station: R4.6S_Anadyr
#Location: 177.4865 lon 64.73178 lat
#TLE: 1 54234U 22150A   26005.42670836  .00000142  00000+0  88292-4 0  9996
#TLE: 2 54234  98.7490 306.4427 0001045 340.6622  19.4514 14.19532269163451

#Time	Az	El	Level	Level2	SNR	BER	BlckErr	Temp	State	Recorded	gain1	gain2
2026-01-07 23:20:15.54	134.56	0.33	-49.8	-51.2	3.4	0.00e+00	0	35	0	0	60	44689
2026-01-07 23:20:19.57	134.47	0.57	-49.6	-62.5	3.5	1.52e+00	0	37	104	0	60	46541
2026-01-07 23:20:23.61	134.38	0.81	-49.2	-62.2	3.5	1.52e+00	0	37	104	0	60	45055
2026-01-07 23:20:27.65	134.29	1.06	-48.9	-61.7	3.5	1.52e+00	0	37	104	0	60	42701
2026-01-07 23:20:31.69	134.20	1.31	-47.8	-60.9	3.5	1.52e+00	0	38	104	0	60	38894
2026-01-07 23:20:35.73	134.11	1.56	-47.8	-61.0	3.5	1.52e+00	0	37	104	0	60	39222
2026-01-07 23:20:39.77	134.01	1.81	-47.8	-60.8	3.5	1.52e+00	0	38	104	0	60	38622
2026-01-07 23:20:43.81	133.92	2.07	-47.8	-60.6	3.5	1.52e+00	0	38	104	0	60	37621
2026-01-07 23:20:47.84	133.82	2.33	-47.8	-60.9	3.5	1.52e+00	0	38	104	0	60	39053
2026-01-07 23:20:51.88	133.72	2.59	-47.8	-60.5	3.5	1.52e+00	0	38	104	0	60	37376
2026-01-07 23:20:55.92	133.62	2.85	-47.7	-59.5	3.5	1.51e+00	0	38	104	0	60	33305
2026-01-07 23:20:59.96	133.51	3.11	-47.8	-60.2	3.5	1.52e+00	0	38	104	0	60	35858
2026-01-07 23:21:04.00	133.41	3.38	-44.7	-47.9	12.2	4.74e-04	0	38	0	6291456	60	8742
2026-01-07 23:21:08.03	133.30	3.65	-40.5	-42.1	18.0	0.00e+00	0	38	0	18874368	54	6289
2026-01-07 23:21:12.06	133.19	3.92	-48.2	-60.1	3.5	1.51e+00	0	38	104	27262976	60	35526
2026-01-07 23:21:16.10	133.07	4.19	-41.3	-43.3	17.4	1.30e-04	0	38	104	32505856	58	5731
2026-01-07 23:21:20.14	132.96	4.47	-38.3	-39.4	20.6	0.00e+00	0	38	0	44040192	50	5851
2026-01-07 23:21:24.17	132.84	4.75	-38.0	-39.1	20.8	0.00e+00	0	38	0	56623104	50	5654
2026-01-07 23:21:28.21	132.72	5.03	-37.8	-38.9	21.0	0.00e+00	0	38	0	69206016	48	6177
2026-01-07 23:21:32.25	132.60	5.32	-37.6	-38.7	21.2	0.00e+00	0	38	0	82837504	48	6032
2026-01-07 23:21:36.30	132.47	5.61	-37.7	-38.8	21.2	0.00e+00	0	38	0	94371840	48	6078
2026-01-07 23:21:40.34	132.34	5.90	-37.5	-38.6	21.3	0.00e+00	0	38	0	108003328	48	5987
2026-01-07 23:21:44.37	132.21	6.19	-37.4	-38.5	21.5	0.00e+00	0	38	0	120586240	48	5885
2026-01-07 23:21:48.41	132.08	6.49	-37.4	-38.5	21.5	0.00e+00	0	38	0	133169152	48	5919
2026-01-07 23:21:52.44	131.94	6.79	-37.3	-38.4	21.6	0.00e+00	0	38	0	145752064	48	5798
2026-01-07 23:21:56.48	131.80	7.09	-37.4	-38.5	21.6	0.00e+00	0	38	0	158334976	48	5883
2026-01-07 23:22:00.52	131.66	7.40	-37.4	-38.4	21.7	0.00e+00	0	38	0	170917888	48	5857
2026-01-07 23:22:04.56	131.51	7.71	-37.1	-38.2	22.0	0.00e+00	0	38	0	183500800	48	5672
2026-01-07 23:22:08.61	131.36	8.03	-36.8	-37.9	22.3	0.00e+00	0	38	0	196083712	48	5475
2026-01-07 23:22:12.65	131.20	8.35	-36.7	-37.7	22.5	0.00e+00	0	38	0	208666624	46	6029
2026-01-07 23:22:16.68	131.05	8.67	-36.9	-37.9	22.4	0.00e+00	0	38	0	221249536	46	6151
2026-01-07 23:22:20.72	130.88	9.00	-36.6	-37.6	22.6	0.00e+00	0	38	0	233832448	46	5966
2026-01-07 23:22:24.76	130.72	9.33	-36.3	-37.3	22.9	0.00e+00	0	38	0	246415360	46	5735
2026-01-07 23:22:28.79	130.55	9.66	-36.1	-37.1	23.1	0.00e+00	0	38	0	258998272	46	5614
2026-01-07 23:22:32.83	130.38	10.00	-35.9	-36.8	23.3	0.00e+00	0	38	0	271581184	46	5461
2026-01-07 23:22:36.87	130.20	10.35	-35.8	-36.8	23.4	0.00e+00	0	38	0	284164096	46	5411
2026-01-07 23:22:40.91	130.01	10.70	-35.5	-36.5	23.7	0.00e+00	0	38	0	296747008	44	5861
2026-01-07 23:22:44.94	129.83	11.05	-35.6	-36.5	23.6	0.00e+00	0	38	0	309329920	44	5916
2026-01-07 23:22:48.98	129.63	11.41	-35.3	-36.2	23.8	0.00e+00	0	38	0	321912832	44	5691
2026-01-07 23:22:53.02	129.44	11.77	-35.2	-36.1	23.9	0.00e+00	0	38	0	334495744	44	5649
2026-01-07 23:22:57.05	129.23	12.14	-35.1	-36.0	24.0	0.00e+00	0	38	0	347078656	44	5564
2026-01-07 23:23:01.08	129.03	12.51	-35.0	-35.9	24.1	0.00e+00	0	39	0	359661568	44	5482
2026-01-07 23:23:05.12	128.81	12.89	-35.0	-35.9	24.0	0.00e+00	0	38	0	372244480	44	5503
2026-01-07 23:23:09.16	128.59	13.27	-35.2	-36.1	23.9	0.00e+00	0	38	0	384827392	44	5636
2026-01-07 23:23:13.20	128.37	13.66	-35.5	-36.4	23.7	0.00e+00	0	38	0	397410304	44	5829
2026-01-07 23:23:17.24	128.13	14.06	-35.2	-36.2	23.9	0.00e+00	0	38	0	409993216	44	5664
2026-01-07 23:23:21.28	127.89	14.46	-35.2	-36.1	24.0	0.00e+00	0	39	0	422576128	44	5637
2026-01-07 23:23:25.31	127.65	14.87	-35.1	-36.0	24.1	0.00e+00	0	39	0	435159040	44	5587
2026-01-07 23:23:29.35	127.40	15.28	-35.1	-36.0	24.1	0.00e+00	0	39	0	448790528	44	5583
2026-01-07 23:23:33.39	127.14	15.70	-35.1	-36.0	24.1	0.00e+00	0	38	0	460324864	44	5554
2026-01-07 23:23:37.43	126.87	16.13	-35.2	-36.1	24.0	0.00e+00	0	38	0	473956352	44	5617
2026-01-07 23:23:41.47	126.59	16.57	-35.1	-36.0	24.1	0.00e+00	0	38	0	486539264	44	5584
2026-01-07 23:23:45.51	126.31	17.01	-35.4	-36.4	23.8	0.00e+00	0	38	0	499122176	44	5804
2026-01-07 23:23:49.55	126.01	17.46	-35.5	-36.4	23.8	0.00e+00	0	39	0	511705088	44	5821
2026-01-07 23:23:53.59	125.71	17.91	-35.6	-36.5	23.8	0.00e+00	0	38	0	524288000	44	5921
2026-01-07 23:23:57.62	125.40	18.38	-35.7	-36.7	23.7	0.00e+00	0	38	0	536870912	44	6005
2026-01-07 23:24:01.66	125.07	18.85	-35.5	-36.4	23.9	0.00e+00	0	39	0	549453824	44	5830
2026-01-07 23:24:05.69	124.74	19.33	-35.1	-36.0	24.1	0.00e+00	0	38	0	562036736	44	5591
2026-01-07 23:24:09.73	124.39	19.82	-35.1	-36.0	24.2	0.00e+00	0	39	0	574619648	44	5542
2026-01-07 23:24:13.76	124.04	20.31	-34.9	-35.8	24.3	0.00e+00	0	39	0	587202560	44	5421
2026-01-07 23:24:17.80	123.67	20.82	-34.6	-35.5	24.6	0.00e+00	0	39	0	599785472	42	5898
2026-01-07 23:24:21.84	123.29	21.33	-34.3	-35.2	24.8	0.00e+00	0	39	0	612368384	42	5683
2026-01-07 23:24:25.87	122.89	21.86	-33.9	-34.7	25.2	0.00e+00	0	39	0	624951296	42	5396
2026-01-07 23:24:29.91	122.49	22.39	-33.8	-34.7	25.1	0.00e+00	0	39	0	637534208	40	6008
2026-01-07 23:24:33.95	122.06	22.93	-33.8	-34.6	25.1	0.00e+00	0	39	0	650117120	40	5985
2026-01-07 23:24:37.99	121.62	23.49	-34.1	-35.0	24.9	0.00e+00	0	39	0	662700032	40	6212
2026-01-07 23:24:42.03	121.17	24.05	-34.0	-34.8	25.1	0.00e+00	0	39	0	675282944	40	6127
2026-01-07 23:24:46.07	120.69	24.62	-34.0	-34.9	25.1	0.00e+00	0	39	0	687865856	40	6177
2026-01-07 23:24:50.11	120.20	25.21	-34.3	-35.2	24.7	0.00e+00	0	39	0	700448768	40	6386
2026-01-07 23:24:54.14	119.69	25.80	-34.7	-35.6	24.4	0.00e+00	0	39	0	713031680	40	6708
2026-01-07 23:24:58.18	119.16	26.41	-34.9	-35.8	24.3	0.00e+00	0	39	0	725614592	42	6122
2026-01-07 23:25:02.22	118.61	27.02	-35.1	-36.0	24.2	0.00e+00	0	39	0	738197504	42	6268
2026-01-07 23:25:06.26	118.04	27.65	-35.2	-36.1	23.8	0.00e+00	0	39	0	750780416	42	6310
2026-01-07 23:25:10.29	117.44	28.29	-35.3	-36.3	23.9	0.00e+00	0	38	0	763363328	42	6453
2026-01-07 23:25:14.33	116.82	28.94	-35.2	-36.2	24.3	0.00e+00	0	39	0	775946240	42	6351
2026-01-07 23:25:18.37	116.17	29.60	-34.8	-35.7	24.3	0.00e+00	0	39	0	788529152	42	6053
2026-01-07 23:25:22.41	115.50	30.27	-35.1	-36.0	23.7	0.00e+00	0	38	0	801112064	42	6270
2026-01-07 23:25:26.44	114.79	30.95	-35.4	-36.4	24.0	0.00e+00	0	39	0	813694976	42	6504
2026-01-07 23:25:30.48	114.06	31.65	-34.9	-35.7	24.6	0.00e+00	0	39	0	826277888	42	6058
2026-01-07 23:25:34.52	113.29	32.35	-34.8	-35.7	24.1	0.00e+00	0	39	0	839909376	42	6053
2026-01-07 23:25:38.56	112.48	33.07	-35.4	-36.3	24.0	0.00e+00	0	39	0	852492288	42	6489
2026-01-07 23:25:42.60	111.64	33.80	-35.5	-36.4	24.1	0.00e+00	0	39	0	865075200	42	6569
2026-01-07 23:25:46.64	110.76	34.53	-35.9	-36.8	23.8	0.00e+00	0	39	0	877658112	44	6126
2026-01-07 23:25:50.68	109.84	35.28	-36.4	-37.3	23.3	0.00e+00	0	39	0	890241024	44	6485
2026-01-07 23:25:54.72	108.88	36.03	-36.5	-37.4	23.3	0.00e+00	0	39	0	902823936	44	6569
2026-01-07 23:25:58.76	107.86	36.80	-37.0	-38.0	22.8	0.00e+00	0	39	0	915406848	46	6230
2026-01-07 23:26:02.79	106.81	37.56	-37.3	-38.3	22.5	0.00e+00	0	39	0	927989760	46	6440
2026-01-07 23:26:06.83	105.69	38.34	-37.0	-37.9	22.7	0.00e+00	0	39	0	940572672	46	6201
2026-01-07 23:26:10.86	104.53	39.12	-36.8	-37.8	23.0	0.00e+00	0	39	0	953155584	46	6078
2026-01-07 23:26:14.90	103.30	39.90	-37.1	-38.2	22.6	0.00e+00	0	39	0	965738496	46	6364
2026-01-07 23:26:18.94	102.02	40.69	-37.0	-38.0	22.6	0.00e+00	0	39	0	978321408	46	6253
2026-01-07 23:26:22.98	100.67	41.47	-38.2	-39.3	21.8	0.00e+00	0	39	0	990904320	48	6494
2026-01-07 23:26:27.02	99.25	42.26	-37.8	-38.9	21.8	0.00e+00	0	39	0	1003487232	48	6145
2026-01-07 23:26:31.05	97.76	43.03	-37.8	-38.8	22.1	0.00e+00	0	39	0	1016070144	48	6113
2026-01-07 23:26:35.09	96.20	43.80	-37.4	-38.4	22.5	0.00e+00	0	39	0	1028653056	48	5807
2026-01-07 23:26:39.13	94.56	44.57	-37.8	-38.8	22.1	0.00e+00	0	39	0	1041235968	48	6128
2026-01-07 23:26:43.17	92.84	45.31	-37.8	-38.9	22.0	0.00e+00	0	39	0	1053818880	48	6149
2026-01-07 23:26:47.21	91.04	46.05	-38.1	-39.2	21.8	0.00e+00	0	39	0	1066401792	48	6373
2026-01-07 23:26:51.24	89.15	46.76	-37.3	-38.3	22.7	0.00e+00	0	39	0	1078984704	48	5737
2026-01-07 23:26:55.28	87.18	47.44	-36.7	-37.7	23.2	0.00e+00	0	39	0	1091567616	48	5349
2026-01-07 23:26:59.32	85.12	48.10	-37.5	-38.5	22.2	0.00e+00	0	39	0	1104150528	46	6648
2026-01-07 23:27:03.35	82.97	48.73	-37.1	-38.1	22.4	0.00e+00	0	39	0	1116733440	46	6305
2026-01-07 23:27:07.39	80.74	49.32	-37.3	-38.3	22.4	0.00e+00	0	39	0	1129316352	46	6487
2026-01-07 23:27:11.43	78.42	49.87	-36.9	-37.9	22.9	0.00e+00	0	39	0	1141899264	46	6181
2026-01-07 23:27:15.47	76.01	50.37	-37.3	-38.4	22.4	0.00e+00	0	39	0	1154482176	46	6504
2026-01-07 23:27:19.50	73.54	50.82	-37.2	-38.2	22.6	0.00e+00	0	39	0	1167065088	46	6404
2026-01-07 23:27:23.54	70.99	51.22	-37.6	-38.6	22.3	0.00e+00	0	39	0	1179648000	46	6705
2026-01-07 23:27:27.58	68.37	51.56	-37.3	-38.3	22.5	0.00e+00	0	39	0	1192230912	46	6455
2026-01-07 23:27:31.62	65.70	51.83	-37.4	-38.5	22.0	0.00e+00	0	39	0	1205862400	46	6600
2026-01-07 23:27:35.66	62.99	52.05	-36.3	-37.3	23.2	0.00e+00	0	39	0	1218445312	46	5748
2026-01-07 23:27:39.69	60.25	52.19	-36.5	-37.5	23.3	0.00e+00	0	39	0	1231028224	46	5871
2026-01-07 23:27:43.73	57.49	52.27	-36.0	-36.9	23.5	0.00e+00	0	39	0	1243611136	46	5494
2026-01-07 23:27:47.77	54.71	52.28	-35.5	-36.4	23.9	0.00e+00	0	39	0	1256194048	44	5818
2026-01-07 23:27:51.81	51.94	52.22	-36.3	-37.2	22.8	0.00e+00	0	39	0	1268776960	44	6392
2026-01-07 23:27:55.85	49.19	52.08	-36.0	-36.9	23.5	0.00e+00	0	39	0	1281359872	44	6160
2026-01-07 23:27:59.88	46.48	51.89	-36.6	-37.5	23.2	0.00e+00	0	39	0	1293942784	44	6649
2026-01-07 23:28:03.92	43.80	51.62	-36.4	-37.4	23.2	0.00e+00	0	39	0	1306525696	44	6503
2026-01-07 23:28:07.95	41.18	51.30	-36.4	-37.4	23.1	0.00e+00	0	39	0	1319108608	44	6528
2026-01-07 23:28:11.99	38.62	50.91	-37.7	-38.8	21.8	0.00e+00	0	39	0	1331691520	46	6813
2026-01-07 23:28:16.03	36.13	50.48	-36.3	-37.2	23.4	0.00e+00	0	39	0	1344274432	46	5715
2026-01-07 23:28:20.07	33.71	49.98	-37.8	-38.9	21.7	0.00e+00	0	39	0	1356857344	48	6163
2026-01-07 23:28:24.10	31.38	49.45	-37.6	-38.6	22.3	0.00e+00	0	39	0	1369440256	46	6681
2026-01-07 23:28:28.14	29.13	48.87	-36.9	-37.9	23.1	0.00e+00	0	39	0	1382023168	48	5477
2026-01-07 23:28:32.18	26.96	48.25	-37.7	-38.8	21.7	0.00e+00	0	39	0	1394606080	48	6086
2026-01-07 23:28:36.22	24.89	47.60	-36.1	-37.0	23.7	0.00e+00	0	39	0	1407188992	46	5585
2026-01-07 23:28:40.26	22.90	46.92	-37.7	-38.8	21.8	0.00e+00	0	39	0	1419771904	48	6074
2026-01-07 23:28:44.29	21.00	46.22	-36.1	-37.0	23.6	0.00e+00	0	39	0	1432354816	44	6264
2026-01-07 23:28:48.33	19.18	45.49	-38.5	-39.6	20.9	0.00e+00	0	39	0	1444937728	50	5984
2026-01-07 23:28:52.36	17.45	44.75	-38.7	-39.8	21.4	0.00e+00	0	39	0	1457520640	50	6127
2026-01-07 23:28:56.40	15.80	43.99	-39.0	-40.1	21.1	0.00e+00	0	39	0	1470103552	52	5650
2026-01-07 23:29:00.44	14.22	43.23	-37.1	-38.1	22.7	0.00e+00	0	39	0	1482686464	48	5628
2026-01-07 23:29:04.48	12.72	42.45	-39.4	-40.7	20.3	0.00e+00	0	39	0	1495269376	50	6771
2026-01-07 23:29:08.52	11.29	41.67	-36.8	-37.7	23.0	0.00e+00	0	39	0	1507852288	48	5398
2026-01-07 23:29:12.55	9.93	40.89	-38.5	-39.6	21.5	0.00e+00	0	39	0	1520435200	48	6696
2026-01-07 23:29:16.59	8.63	40.11	-37.2	-38.2	22.8	0.00e+00	0	39	0	1533018112	48	5703
2026-01-07 23:29:20.63	7.40	39.33	-36.3	-37.3	23.5	0.00e+00	0	39	0	1545601024	46	5746
2026-01-07 23:29:24.67	6.22	38.55	-37.8	-39.0	21.6	0.00e+00	0	39	0	1558183936	48	6210
2026-01-07 23:29:28.71	5.10	37.78	-35.9	-36.8	23.7	0.00e+00	0	39	0	1571815424	46	5463
2026-01-07 23:29:32.75	4.03	37.01	-36.9	-37.9	22.9	0.00e+00	0	39	0	1583349760	46	6138
2026-01-07 23:29:36.79	3.01	36.25	-36.3	-37.3	23.4	0.00e+00	0	39	0	1596981248	46	5747
2026-01-07 23:29:40.82	2.04	35.49	-35.6	-36.6	23.5	0.00e+00	0	39	0	1609564160	44	5943
2026-01-07 23:29:44.86	1.11	34.75	-36.9	-38.0	23.0	0.00e+00	0	39	0	1622147072	46	6213
2026-01-07 23:29:48.90	0.22	34.01	-36.0	-37.0	23.4	0.00e+00	0	39	0	1634729984	46	5557
2026-01-07 23:29:52.94	359.38	33.29	-35.5	-36.4	24.0	0.00e+00	0	39	0	1647312896	44	5831
2026-01-07 23:29:56.97	358.57	32.57	-35.7	-36.7	23.8	0.00e+00	0	39	0	1659895808	44	6016
2026-01-07 23:30:01.01	357.79	31.87	-35.1	-36.0	24.1	0.00e+00	0	39	0	1672478720	44	5594
2026-01-07 23:30:05.05	357.05	31.17	-35.4	-36.3	24.0	0.00e+00	0	39	0	1685061632	44	5761
2026-01-07 23:30:09.08	356.35	30.49	-35.5	-36.4	24.0	0.00e+00	0	39	0	1697644544	44	5857
2026-01-07 23:30:13.12	355.67	29.82	-35.3	-36.2	24.1	0.00e+00	0	39	0	1710227456	44	5711
2026-01-07 23:30:17.16	355.01	29.16	-34.9	-35.9	24.1	0.00e+00	0	39	0	1722810368	44	5481
2026-01-07 23:30:21.20	354.39	28.51	-34.5	-35.3	24.5	0.00e+00	0	39	0	1735393280	42	5784
2026-01-07 23:30:25.23	353.79	27.87	-34.5	-35.3	24.7	0.00e+00	0	39	0	1747976192	42	5778
2026-01-07 23:30:29.27	353.21	27.24	-34.5	-35.4	24.7	0.00e+00	0	39	0	1760559104	42	5831
2026-01-07 23:30:33.31	352.66	26.63	-34.6	-35.5	24.3	0.00e+00	0	39	0	1773142016	42	5892
2026-01-07 23:30:37.35	352.13	26.02	-34.5	-35.4	24.5	0.00e+00	0	39	0	1785724928	42	5809
2026-01-07 23:30:41.39	351.61	25.43	-34.3	-35.2	24.8	0.00e+00	0	39	0	1798307840	42	5696
2026-01-07 23:30:45.42	351.12	24.84	-34.4	-35.2	24.9	0.00e+00	0	39	0	1810890752	42	5711
2026-01-07 23:30:49.46	350.65	24.27	-34.4	-35.3	24.9	0.00e+00	0	39	0	1823473664	42	5750
2026-01-07 23:30:53.50	350.19	23.71	-34.2	-35.1	25.0	0.00e+00	0	39	0	1836056576	42	5624
2026-01-07 23:30:57.54	349.75	23.15	-34.6	-35.5	24.7	0.00e+00	0	39	0	1848639488	42	5907
2026-01-07 23:31:01.58	349.33	22.61	-35.0	-35.9	24.3	0.00e+00	0	39	0	1861222400	42	6181
2026-01-07 23:31:05.62	348.92	22.07	-35.1	-36.0	24.0	0.00e+00	0	39	0	1873805312	42	6237
2026-01-07 23:31:09.65	348.52	21.55	-34.6	-35.5	24.2	0.00e+00	0	39	0	1886388224	42	5896
2026-01-07 23:31:13.69	348.14	21.04	-34.3	-35.2	24.6	0.00e+00	0	39	0	1898971136	42	5664
2026-01-07 23:31:17.72	347.77	20.53	-33.8	-34.6	25.0	0.00e+00	0	39	0	1911554048	40	5987
2026-01-07 23:31:21.76	347.41	20.03	-33.6	-34.4	25.1	0.00e+00	0	39	0	1924136960	40	5820
2026-01-07 23:31:25.80	347.07	19.54	-33.9	-34.7	25.0	0.00e+00	0	39	0	1936719872	40	6047
2026-01-07 23:31:29.84	346.73	19.06	-34.1	-35.0	24.8	0.00e+00	0	39	0	1949302784	40	6237
2026-01-07 23:31:33.88	346.41	18.59	-34.6	-35.5	24.5	0.00e+00	0	39	0	1961885696	40	6583
2026-01-07 23:31:37.92	346.10	18.13	-34.8	-35.7	24.2	0.00e+00	0	39	0	1975517184	42	6051
2026-01-07 23:31:41.95	345.80	17.67	-35.0	-36.0	24.0	0.00e+00	0	39	0	1988100096	42	6217
2026-01-07 23:31:45.99	345.50	17.22	-35.3	-36.3	23.6	0.00e+00	0	39	0	2000683008	42	6434
2026-01-07 23:31:50.03	345.22	16.78	-35.1	-36.1	23.8	0.00e+00	0	39	0	2013265920	42	6282
2026-01-07 23:31:54.07	344.94	16.34	-35.3	-36.2	23.6	0.00e+00	0	39	0	2025848832	42	6413
2026-01-07 23:31:58.10	344.67	15.92	-35.3	-36.2	23.7	0.00e+00	0	39	0	2038431744	42	6386
2026-01-07 23:32:02.14	344.41	15.50	-35.4	-36.3	23.7	0.00e+00	0	39	0	2051014656	42	6461
2026-01-07 23:32:06.17	344.16	15.08	-35.5	-36.4	23.8	0.00e+00	0	39	0	2063597568	42	6526
2026-01-07 23:32:10.21	343.92	14.67	-35.4	-36.4	23.8	0.00e+00	0	39	0	2076180480	42	6514
2026-01-07 23:32:14.25	343.68	14.27	-35.5	-36.4	23.8	0.00e+00	0	39	0	2088763392	42	6520
2026-01-07 23:32:18.28	343.45	13.88	-35.5	-36.4	23.7	0.00e+00	0	39	0	2101346304	42	6537
2026-01-07 23:32:22.32	343.22	13.49	-35.5	-36.4	23.7	0.00e+00	0	39	0	2113929216	44	5812
2026-01-07 23:32:26.36	343.00	13.10	-35.6	-36.5	23.6	0.00e+00	0	39	0	2126512128	44	5901
2026-01-07 23:32:30.40	342.79	12.72	-35.5	-36.4	23.7	0.00e+00	0	39	0	2139095040	44	5830
2026-01-07 23:32:34.43	342.58	12.35	-35.5	-36.4	23.6	0.00e+00	0	39	0	2151677952	44	5855
2026-01-07 23:32:38.47	342.38	11.98	-35.6	-36.6	23.6	0.00e+00	0	39	0	2164260864	44	5941
2026-01-07 23:32:42.51	342.19	11.62	-35.8	-36.8	23.4	0.00e+00	0	39	0	2176843776	44	6070
2026-01-07 23:32:46.54	342.00	11.26	-35.9	-36.8	23.3	0.00e+00	0	39	0	2189426688	44	6108
2026-01-07 23:32:50.58	341.81	10.91	-36.1	-37.0	23.2	0.00e+00	0	39	0	2202009600	44	6269
2026-01-07 23:32:54.61	341.63	10.56	-36.1	-37.1	23.0	0.00e+00	0	39	0	2214592512	44	6289
2026-01-07 23:32:58.64	341.45	10.21	-36.1	-37.1	23.0	0.00e+00	0	39	0	2227175424	44	6304
2026-01-07 23:33:02.69	341.28	9.87	-36.4	-37.4	22.8	0.00e+00	0	39	0	2239758336	44	6528
2026-01-07 23:33:06.73	341.11	9.54	-36.6	-37.5	22.5	0.00e+00	0	39	0	2252341248	44	6645
2026-01-07 23:33:10.77	340.95	9.21	-36.5	-37.4	22.6	0.00e+00	0	39	0	2264924160	44	6565
2026-01-07 23:33:14.81	340.79	8.88	-36.6	-37.6	22.5	0.00e+00	0	39	0	2277507072	44	6664
2026-01-07 23:33:18.85	340.63	8.56	-36.7	-37.7	22.4	0.00e+00	0	39	0	2290089984	46	6052
2026-01-07 23:33:22.89	340.48	8.24	-36.9	-37.9	22.3	0.00e+00	0	39	0	2302672896	46	6149
2026-01-07 23:33:26.93	340.33	7.92	-37.2	-38.3	21.9	0.00e+00	0	39	0	2315255808	46	6449
2026-01-07 23:33:30.97	340.19	7.61	-37.2	-38.3	21.9	0.00e+00	0	39	0	2327838720	46	6457
2026-01-07 23:33:35.01	340.05	7.30	-37.5	-38.6	21.5	0.00e+00	0	39	0	2341470208	46	6700
2026-01-07 23:33:39.05	339.91	7.00	-37.7	-38.8	21.3	0.00e+00	0	39	0	2353004544	48	6094
2026-01-07 23:33:43.09	339.77	6.70	-37.7	-38.8	21.4	0.00e+00	0	39	0	2366636032	48	6066
2026-01-07 23:33:47.13	339.64	6.40	-37.6	-38.7	21.3	0.00e+00	0	39	0	2379218944	48	6019
2026-01-07 23:33:51.17	339.51	6.10	-37.9	-39.0	20.9	0.00e+00	0	39	0	2391801856	48	6242
2026-01-07 23:33:55.20	339.39	5.81	-38.1	-39.3	20.5	0.00e+00	0	39	0	2404384768	48	6479
2026-01-07 23:33:59.24	339.26	5.52	-38.7	-40.0	19.6	0.00e+00	0	39	0	2416967680	50	6245
2026-01-07 23:34:03.28	339.14	5.24	-39.8	-41.3	17.9	0.00e+00	0	39	0	2429550592	52	6452
2026-01-07 23:34:07.31	339.03	4.96	-41.1	-43.1	15.5	0.00e+00	0	39	0	2442133504	54	7066
2026-01-07 23:34:11.35	338.91	4.68	-42.5	-45.6	12.4	1.59e-04	0	39	0	2454716416	56	8428
2026-01-07 23:34:15.39	338.80	4.40	-43.6	-48.2	8.5	2.91e-02	0	39	0	2467299328	58	10105
2026-01-07 23:34:19.43	338.69	4.12	-44.2	-51.9	5.1	5.33e-01	0	39	0	2475687936	60	13879
2026-01-07 23:34:23.46	338.58	3.85	-44.4	-55.4	3.7	1.51e+00	0	39	104	2475687936	60	20557
2026-01-07 23:34:27.50	338.47	3.58	-44.5	-57.3	3.5	1.52e+00	0	39	104	2475687936	60	25575
2026-01-07 23:34:31.54	338.37	3.32	-44.4	-57.1	3.5	1.52e+00	0	39	104	2475687936	60	25237
2026-01-07 23:34:35.57	338.27	3.05	-44.4	-57.3	3.5	1.52e+00	0	39	104	2475687936	60	25799
2026-01-07 23:34:39.62	338.17	2.79	-49.1	-62.0	3.5	1.52e+00	0	39	104	2475687936	60	44212
2026-01-07 23:34:43.65	338.07	2.53	-49.6	-62.5	3.5	1.52e+00	0	39	104	2475687936	60	46608
2026-01-07 23:34:47.69	337.98	2.27	-49.5	-62.4	3.5	1.52e+00	0	39	104	2475687936	60	46107
2026-01-07 23:34:51.72	337.89	2.02	-49.5	-62.4	3.5	1.52e+00	0	39	104	2475687936	60	46008
2026-01-07 23:34:55.76	337.79	1.77	-49.5	-62.4	3.5	1.52e+00	0	39	104	2475687936	60	46035
2026-01-07 23:34:59.80	337.70	1.52	-49.5	-62.3	3.5	1.52e+00	0	39	104	2475687936	60	45986
2026-01-07 23:35:03.84	337.62	1.27	-49.5	-62.4	3.5	1.52e+00	0	39	104	2475687936	60	46084
2026-01-07 23:35:07.88	337.53	1.02	-49.5	-62.3	3.5	1.52e+00	0	39	104	2475687936	60	45957
2026-01-07 23:35:11.91	337.45	0.78	-49.5	-62.4	3.5	1.51e+00	0	39	104	2475687936	60	46062
2026-01-07 23:35:15.95	337.36	0.53	-49.5	-62.3	3.5	1.52e+00	0	39	104	2475687936	60	45870
2026-01-07 23:35:19.99	337.28	0.29	-49.4	-62.3	3.5	1.51e+00	0	39	104	2475687936	60	45727
2026-01-07 23:35:24.03	337.20	0.05	-49.4	-62.3	3.5	1.52e+00	0	39	104	2475687936	60	45880

#Closed at: 2026-01-07 23:35:25
#Recorded file [2475 MB]: D:/lorett/data/35029_260108_112015.dat