passes_logs/2026/01/07/R4.6S_Anadyr/R4.6S_Anadyr__20260107_191424_NOAA_20_JPSS-1_rec.log

#Pass ID: 20260107_191424_NOAA 20 (JPSS-1)
#Satellite: NOAA 20 (JPSS-1)
#Configuration: NOAA 20
#almurnet v.1.7.20251203
#Start time: 2026-01-07 19:14:27

#Version: 2.2.20231116
#Station: R4.6S_Anadyr
#Location: 177.4865 lon 64.73178 lat
#TLE: 1 43013U 17073A   26005.46207808  .00000128  00000+0  81791-4 0  9997
#TLE: 2 43013  98.7627 306.5027 0001826  53.0458 307.0885 14.19533487421381

#Time	Az	El	Level	Level2	SNR	BER	BlckErr	Temp	State	Recorded	gain1	gain2
2026-01-07 19:14:27.11	50.35	0.11	-49.0	-64.3	3.5	1.51e+00	0	36	0	0	60	59006
2026-01-07 19:14:30.13	50.12	0.25	-48.9	-64.5	3.6	1.51e+00	0	37	104	0	60	60798
2026-01-07 19:14:33.16	49.89	0.40	-48.9	-64.5	3.6	1.51e+00	0	37	104	0	60	60709
2026-01-07 19:14:36.19	49.65	0.55	-48.9	-64.5	3.6	1.51e+00	0	37	104	0	60	60538
2026-01-07 19:14:39.22	49.41	0.70	-48.9	-64.5	3.6	1.51e+00	0	37	104	0	60	60567
2026-01-07 19:14:42.24	49.18	0.85	-48.9	-64.5	3.6	1.51e+00	0	37	104	0	60	60388
2026-01-07 19:14:45.27	48.93	0.99	-48.9	-64.5	3.6	1.51e+00	0	37	104	0	60	60803
2026-01-07 19:14:48.30	48.69	1.14	-48.9	-64.5	3.6	1.51e+00	0	37	104	0	60	60520
2026-01-07 19:14:51.33	48.44	1.29	-48.9	-64.5	3.6	1.51e+00	0	37	104	0	60	60650
2026-01-07 19:14:54.36	48.19	1.44	-48.9	-64.5	3.6	1.51e+00	0	37	104	0	60	60692
2026-01-07 19:14:57.38	47.94	1.59	-48.9	-64.5	3.6	1.51e+00	0	37	104	0	60	60435
2026-01-07 19:15:00.41	47.69	1.74	-48.9	-64.5	3.6	1.51e+00	0	37	104	0	60	60494
2026-01-07 19:15:03.44	47.43	1.89	-48.9	-64.5	3.6	1.51e+00	0	38	104	0	60	60737
2026-01-07 19:15:06.47	47.17	2.04	-48.9	-64.5	3.6	1.51e+00	0	37	104	0	60	60708
2026-01-07 19:15:09.50	46.91	2.19	-48.9	-64.5	3.6	1.51e+00	0	38	104	0	60	60621
2026-01-07 19:15:12.52	46.64	2.34	-48.9	-64.5	3.6	1.51e+00	0	38	104	0	60	60584
2026-01-07 19:15:15.55	46.37	2.49	-48.9	-64.5	3.6	1.51e+00	0	38	104	0	60	60457
2026-01-07 19:15:18.58	46.10	2.64	-48.9	-64.5	3.6	1.51e+00	0	37	104	0	60	60765
2026-01-07 19:15:21.61	45.83	2.79	-48.9	-64.5	3.6	1.51e+00	0	38	104	0	60	60718
2026-01-07 19:15:24.64	45.55	2.95	-48.9	-64.5	3.6	1.51e+00	0	38	104	0	60	61032
2026-01-07 19:15:27.67	45.27	3.10	-48.9	-64.5	3.6	1.51e+00	0	38	104	0	60	60804
2026-01-07 19:15:30.70	44.99	3.25	-48.9	-64.5	3.6	1.51e+00	0	38	104	0	60	60641
2026-01-07 19:15:33.74	44.70	3.40	-48.9	-64.5	3.6	1.51e+00	0	38	104	0	60	60796
2026-01-07 19:15:36.77	44.41	3.55	-48.9	-64.5	3.6	1.51e+00	0	38	104	0	60	60541
2026-01-07 19:15:39.80	44.12	3.71	-48.9	-64.5	3.6	1.51e+00	0	38	104	0	60	60805
2026-01-07 19:15:42.83	43.82	3.86	-48.9	-64.5	3.6	1.51e+00	0	38	104	0	60	60488
2026-01-07 19:15:45.85	43.53	4.01	-48.9	-64.5	3.6	1.51e+00	0	38	104	0	60	60588
2026-01-07 19:15:48.88	43.22	4.17	-48.9	-64.5	3.6	1.51e+00	0	38	104	0	60	60624
2026-01-07 19:15:51.91	42.92	4.32	-48.9	-64.5	3.6	1.51e+00	0	38	104	0	60	60410
2026-01-07 19:15:54.94	42.61	4.47	-48.9	-64.5	3.6	1.51e+00	0	38	104	0	60	60768
2026-01-07 19:15:57.96	42.30	4.62	-48.9	-64.5	3.6	1.51e+00	0	38	104	0	60	60518
2026-01-07 19:16:00.99	41.98	4.78	-48.9	-64.5	3.6	1.51e+00	0	38	104	0	60	60848
2026-01-07 19:16:04.02	41.66	4.93	-48.9	-64.5	3.6	1.51e+00	0	38	104	0	60	60561
2026-01-07 19:16:07.05	41.34	5.08	-48.9	-64.5	3.6	1.51e+00	0	38	104	0	60	60728
2026-01-07 19:16:10.08	41.02	5.24	-48.9	-64.4	3.6	1.51e+00	0	38	104	0	60	60286
2026-01-07 19:16:13.11	40.69	5.39	-48.9	-64.5	3.6	1.51e+00	0	38	104	0	60	60676
2026-01-07 19:16:16.14	40.35	5.54	-48.9	-64.5	3.6	1.51e+00	0	38	104	0	60	60681
2026-01-07 19:16:19.16	40.02	5.70	-48.9	-64.5	3.6	1.51e+00	0	38	104	0	60	60380
2026-01-07 19:16:22.19	39.68	5.85	-48.9	-64.5	3.6	1.51e+00	0	38	104	0	60	60574
2026-01-07 19:16:25.22	39.34	6.00	-48.9	-64.5	3.6	1.51e+00	0	38	104	0	60	60579
2026-01-07 19:16:28.25	38.99	6.16	-48.9	-64.4	3.6	1.51e+00	0	38	104	0	60	60307
2026-01-07 19:16:31.28	38.64	6.31	-48.9	-64.5	3.6	1.51e+00	0	38	104	0	60	60441
2026-01-07 19:16:34.31	38.28	6.46	-48.9	-64.5	3.6	1.51e+00	0	38	104	0	60	60689
2026-01-07 19:16:37.33	37.92	6.61	-48.9	-64.5	3.6	1.51e+00	0	38	104	0	60	60451
2026-01-07 19:16:40.37	37.56	6.77	-48.9	-64.5	3.6	1.51e+00	0	38	104	0	60	60738
2026-01-07 19:16:43.40	37.19	6.92	-48.9	-64.5	3.6	1.51e+00	0	38	104	0	60	60559
2026-01-07 19:16:46.42	36.82	7.07	-48.9	-64.5	3.6	1.51e+00	0	38	104	0	60	60662
2026-01-07 19:16:49.45	36.45	7.22	-48.9	-64.5	3.6	1.51e+00	0	38	104	0	60	60418
2026-01-07 19:16:52.48	36.07	7.37	-48.9	-64.5	3.6	1.51e+00	0	38	104	0	60	60676
2026-01-07 19:16:55.51	35.69	7.53	-48.9	-64.5	3.6	1.51e+00	0	38	104	0	60	60683
2026-01-07 19:16:58.54	35.30	7.68	-48.9	-64.5	3.6	1.51e+00	0	38	104	0	60	60721
2026-01-07 19:17:01.57	34.91	7.83	-48.9	-64.5	3.6	1.51e+00	0	38	104	0	60	60440
2026-01-07 19:17:04.60	34.51	7.98	-48.9	-64.5	3.6	1.51e+00	0	38	104	0	60	60607
2026-01-07 19:17:07.63	34.11	8.13	-48.9	-64.5	3.6	1.51e+00	0	38	104	0	60	60434
2026-01-07 19:17:10.66	33.71	8.28	-49.0	-64.5	3.6	1.51e+00	0	38	104	0	60	60825
2026-01-07 19:17:13.69	33.30	8.43	-48.9	-64.5	3.6	1.51e+00	0	38	104	0	60	60667
2026-01-07 19:17:16.72	32.89	8.57	-48.9	-64.5	3.6	1.51e+00	0	38	104	0	60	60609
2026-01-07 19:17:19.75	32.47	8.72	-48.9	-64.5	3.6	1.51e+00	0	38	104	0	60	60660
2026-01-07 19:17:22.78	32.05	8.87	-49.0	-64.5	3.6	1.51e+00	0	38	104	0	60	60710
2026-01-07 19:17:25.81	31.63	9.02	-48.9	-64.5	3.6	1.51e+00	0	38	104	0	60	60666
2026-01-07 19:17:28.84	31.20	9.16	-48.9	-64.5	3.6	1.51e+00	0	38	104	0	60	60530
2026-01-07 19:17:31.87	30.77	9.31	-48.9	-64.5	3.6	1.51e+00	0	38	104	0	60	60702
2026-01-07 19:17:34.90	30.33	9.45	-48.9	-64.5	3.6	1.51e+00	0	38	104	0	60	60456
2026-01-07 19:17:37.93	29.88	9.59	-48.9	-64.5	3.6	1.51e+00	0	38	104	0	60	60660
2026-01-07 19:17:40.95	29.44	9.74	-48.9	-64.5	3.6	1.51e+00	0	38	104	0	60	60710
2026-01-07 19:17:43.98	28.99	9.88	-49.0	-64.5	3.6	1.51e+00	0	38	104	0	60	60766
2026-01-07 19:17:47.01	28.53	10.02	-49.0	-64.5	3.6	1.51e+00	0	38	104	0	60	60571
2026-01-07 19:17:50.04	28.07	10.16	-48.9	-64.5	3.6	1.51e+00	0	38	104	0	60	60483
2026-01-07 19:17:53.06	27.61	10.30	-49.0	-64.5	3.6	1.51e+00	0	38	104	0	60	60637
2026-01-07 19:17:56.09	27.14	10.44	-49.0	-64.5	3.6	1.51e+00	0	38	104	0	60	60598
2026-01-07 19:17:59.12	26.66	10.57	-49.0	-64.5	3.6	1.51e+00	0	38	104	0	60	60534
2026-01-07 19:18:02.15	26.19	10.71	-49.0	-64.5	3.6	1.51e+00	0	38	104	0	60	60822
2026-01-07 19:18:05.19	25.70	10.84	-49.0	-64.4	3.6	1.51e+00	0	38	104	0	60	60304
2026-01-07 19:18:08.21	25.22	10.98	-48.9	-64.5	3.6	1.51e+00	0	38	104	0	60	60370
2026-01-07 19:18:11.25	24.72	11.11	-48.9	-64.5	3.6	1.51e+00	0	38	104	0	60	60711
2026-01-07 19:18:14.28	24.23	11.24	-48.9	-64.5	3.6	1.51e+00	0	38	104	0	60	60723
2026-01-07 19:18:17.31	23.72	11.37	-49.0	-64.4	3.6	1.51e+00	0	38	104	0	60	60229
2026-01-07 19:18:20.34	23.22	11.49	-49.0	-64.5	3.6	1.51e+00	0	38	104	0	60	60735
2026-01-07 19:18:23.37	22.71	11.62	-49.0	-64.4	3.6	1.51e+00	0	38	104	0	60	60325
2026-01-07 19:18:26.39	22.20	11.74	-49.0	-64.5	3.6	1.51e+00	0	38	104	0	60	60543
2026-01-07 19:18:29.42	21.68	11.87	-49.0	-64.5	3.6	1.51e+00	0	38	104	0	60	60586
2026-01-07 19:18:32.45	21.16	11.99	-48.9	-64.5	3.6	1.51e+00	0	38	104	0	60	60868
2026-01-07 19:18:35.48	20.63	12.11	-48.9	-64.5	3.6	1.51e+00	0	38	104	0	60	60501
2026-01-07 19:18:38.51	20.10	12.22	-49.0	-64.5	3.6	1.51e+00	0	38	104	0	60	60620
2026-01-07 19:18:41.54	19.56	12.34	-49.0	-64.5	3.6	1.51e+00	0	38	104	0	60	60356
2026-01-07 19:18:44.58	19.02	12.45	-49.0	-64.5	3.6	1.51e+00	0	38	104	0	60	60529
2026-01-07 19:18:47.61	18.47	12.56	-49.0	-64.4	3.6	1.51e+00	0	38	104	0	60	60269
2026-01-07 19:18:50.63	17.93	12.67	-48.9	-64.5	3.6	1.51e+00	0	38	104	0	60	60726
2026-01-07 19:18:53.67	17.37	12.78	-49.0	-64.5	3.6	1.51e+00	0	38	104	0	60	60570
2026-01-07 19:18:56.69	16.82	12.89	-49.0	-64.5	3.6	1.51e+00	0	38	104	0	60	60655
2026-01-07 19:18:59.72	16.26	12.99	-48.9	-64.5	3.6	1.51e+00	0	38	104	0	60	60506
2026-01-07 19:19:02.75	15.69	13.09	-48.9	-64.5	3.6	1.51e+00	0	38	104	0	60	60554
2026-01-07 19:19:05.78	15.12	13.19	-48.9	-64.5	3.6	1.51e+00	0	38	104	0	60	60430
2026-01-07 19:19:08.81	14.55	13.28	-49.0	-64.4	3.6	1.51e+00	0	38	104	0	60	60284
2026-01-07 19:19:11.84	13.97	13.38	-49.0	-64.5	3.6	1.51e+00	0	38	104	0	60	60593
2026-01-07 19:19:14.87	13.40	13.47	-48.9	-64.5	3.6	1.51e+00	0	38	104	0	60	60376
2026-01-07 19:19:17.89	12.81	13.55	-48.9	-64.5	3.6	1.51e+00	0	38	104	0	60	60729
2026-01-07 19:19:20.92	12.23	13.64	-48.9	-64.4	3.6	1.51e+00	0	38	104	0	60	60296
2026-01-07 19:19:23.95	11.64	13.72	-48.9	-64.5	3.6	1.51e+00	0	38	104	0	60	60420
2026-01-07 19:19:26.98	11.04	13.80	-48.9	-64.5	3.6	1.51e+00	0	38	104	0	60	60425
2026-01-07 19:19:30.01	10.45	13.88	-48.9	-64.5	3.6	1.51e+00	0	38	104	0	60	60476
2026-01-07 19:19:33.04	9.85	13.95	-48.9	-64.5	3.6	1.51e+00	0	38	104	0	60	60626
2026-01-07 19:19:36.07	9.24	14.02	-48.9	-64.5	3.6	1.51e+00	0	38	104	0	60	60445
2026-01-07 19:19:39.10	8.64	14.09	-48.9	-64.5	3.6	1.51e+00	0	38	104	0	60	60656
2026-01-07 19:19:42.13	8.03	14.16	-48.9	-64.4	3.6	1.51e+00	0	38	104	0	60	60284
2026-01-07 19:19:45.16	7.42	14.22	-48.9	-64.5	3.6	1.51e+00	0	38	104	0	60	60455
2026-01-07 19:19:48.19	6.81	14.28	-48.9	-64.5	3.6	1.51e+00	0	38	104	0	60	60606
2026-01-07 19:19:51.22	6.19	14.34	-48.9	-64.5	3.6	1.51e+00	0	38	104	0	60	60482
2026-01-07 19:19:54.25	5.57	14.39	-48.9	-64.5	3.6	1.51e+00	0	38	104	0	60	60550
2026-01-07 19:19:57.27	4.95	14.44	-48.9	-64.5	3.6	1.51e+00	0	38	104	0	60	60562
2026-01-07 19:20:00.30	4.33	14.48	-48.9	-64.5	3.6	1.51e+00	0	38	104	0	60	60387
2026-01-07 19:20:03.33	3.71	14.53	-48.9	-64.5	3.6	1.51e+00	0	38	104	0	60	60347
2026-01-07 19:20:06.36	3.08	14.57	-48.9	-64.5	3.6	1.51e+00	0	38	104	0	60	60643
2026-01-07 19:20:09.39	2.45	14.60	-48.9	-64.5	3.6	1.51e+00	0	38	104	0	60	60763
2026-01-07 19:20:12.42	1.83	14.64	-48.9	-64.5	3.6	1.51e+00	0	38	104	0	60	60497
2026-01-07 19:20:15.45	1.20	14.66	-48.9	-64.4	3.6	1.51e+00	0	38	104	0	60	60233
2026-01-07 19:20:18.48	0.56	14.69	-48.9	-64.5	3.6	1.51e+00	0	38	104	0	60	60437
2026-01-07 19:20:21.51	359.93	14.71	-48.9	-64.5	3.6	1.51e+00	0	38	104	0	60	60401
2026-01-07 19:20:24.54	359.30	14.73	-48.9	-64.4	3.6	1.51e+00	0	39	104	0	60	60224
2026-01-07 19:20:27.57	358.66	14.75	-48.9	-64.5	3.6	1.51e+00	0	38	104	0	60	60428
2026-01-07 19:20:30.60	358.03	14.76	-48.9	-64.5	3.6	1.51e+00	0	39	104	0	60	60604
2026-01-07 19:20:33.63	357.39	14.77	-48.9	-64.4	3.6	1.51e+00	0	38	104	0	60	60281
2026-01-07 19:20:36.66	356.76	14.77	-48.9	-64.5	3.6	1.51e+00	0	38	104	0	60	60399
2026-01-07 19:20:39.69	356.12	14.77	-48.9	-64.5	3.6	1.51e+00	0	38	104	0	60	60446
2026-01-07 19:20:42.71	355.49	14.77	-48.9	-64.4	3.6	1.51e+00	0	38	104	0	60	60318
2026-01-07 19:20:45.75	354.85	14.77	-48.9	-64.5	3.6	1.51e+00	0	38	104	0	60	60448
2026-01-07 19:20:48.77	354.22	14.76	-48.9	-64.5	3.6	1.51e+00	0	38	104	0	60	60531
2026-01-07 19:20:51.80	353.58	14.74	-48.9	-64.5	3.6	1.51e+00	0	38	104	0	60	60466
2026-01-07 19:20:54.83	352.95	14.73	-48.9	-64.4	3.6	1.51e+00	0	38	104	0	60	60202
2026-01-07 19:20:57.86	352.32	14.71	-48.9	-64.5	3.6	1.51e+00	0	38	104	0	60	60446
2026-01-07 19:21:00.89	351.68	14.68	-48.9	-64.4	3.6	1.51e+00	0	38	104	0	60	60327
2026-01-07 19:21:03.92	351.05	14.66	-48.9	-64.5	3.6	1.51e+00	0	38	104	0	60	60521
2026-01-07 19:21:06.95	350.42	14.63	-48.9	-64.5	3.6	1.51e+00	0	38	104	0	60	60560
2026-01-07 19:21:09.98	349.79	14.59	-48.9	-64.5	3.6	1.51e+00	0	38	104	0	60	60517
2026-01-07 19:21:13.02	349.16	14.56	-48.9	-64.4	3.6	1.51e+00	0	38	104	0	60	60045
2026-01-07 19:21:16.05	348.54	14.52	-48.9	-64.4	3.6	1.51e+00	0	38	104	0	60	60271
2026-01-07 19:21:19.07	347.92	14.47	-48.9	-64.5	3.6	1.51e+00	0	38	104	0	60	60374
2026-01-07 19:21:22.10	347.29	14.43	-48.9	-64.4	3.5	1.51e+00	0	38	104	0	60	60238
2026-01-07 19:21:25.13	346.67	14.38	-48.9	-64.4	3.6	1.51e+00	0	39	104	0	60	60309
2026-01-07 19:21:28.16	346.06	14.32	-48.9	-64.5	3.6	1.51e+00	0	38	104	0	60	60955
2026-01-07 19:21:31.19	345.44	14.27	-48.9	-64.5	3.6	1.51e+00	0	38	104	0	60	60352
2026-01-07 19:21:34.23	344.83	14.21	-48.9	-64.5	3.6	1.51e+00	0	38	104	0	60	60568
2026-01-07 19:21:37.25	344.22	14.14	-48.9	-64.5	3.6	1.51e+00	0	38	104	0	60	60576
2026-01-07 19:21:40.28	343.61	14.08	-48.9	-64.4	3.6	1.51e+00	0	38	104	0	60	60070
2026-01-07 19:21:43.31	343.01	14.01	-48.9	-64.5	3.6	1.51e+00	0	38	104	0	60	60472
2026-01-07 19:21:46.34	342.40	13.94	-48.9	-64.4	3.6	1.51e+00	0	38	104	0	60	60325
2026-01-07 19:21:49.38	341.80	13.86	-48.9	-64.4	3.6	1.51e+00	0	38	104	0	60	60120
2026-01-07 19:21:52.41	341.21	13.78	-48.9	-64.5	3.6	1.51e+00	0	38	104	0	60	60527
2026-01-07 19:21:55.44	340.62	13.70	-48.9	-64.5	3.6	1.51e+00	0	38	104	0	60	60562
2026-01-07 19:21:58.47	340.03	13.62	-48.9	-64.5	3.6	1.51e+00	0	39	104	0	60	60502
2026-01-07 19:22:01.50	339.44	13.53	-48.9	-64.4	3.6	1.51e+00	0	38	104	0	60	60222
2026-01-07 19:22:04.53	338.86	13.44	-48.9	-64.5	3.6	1.51e+00	0	39	104	0	60	60347
2026-01-07 19:22:07.56	338.28	13.35	-48.9	-64.5	3.6	1.51e+00	0	39	104	0	60	60529
2026-01-07 19:22:10.59	337.70	13.26	-48.9	-64.5	3.6	1.51e+00	0	38	104	0	60	60432
2026-01-07 19:22:13.62	337.13	13.16	-48.9	-64.5	3.6	1.51e+00	0	39	104	0	60	60443
2026-01-07 19:22:16.65	336.57	13.06	-48.9	-64.5	3.6	1.51e+00	0	39	104	0	60	60873
2026-01-07 19:22:19.68	336.00	12.96	-48.9	-64.5	3.6	1.51e+00	0	38	104	0	60	60597
2026-01-07 19:22:22.71	335.44	12.86	-48.9	-64.5	3.6	1.51e+00	0	38	104	0	60	60464
2026-01-07 19:22:25.74	334.89	12.75	-48.9	-64.5	3.6	1.51e+00	0	38	104	0	60	60555
2026-01-07 19:22:28.77	334.33	12.65	-48.9	-64.5	3.6	1.51e+00	0	38	104	0	60	60825
2026-01-07 19:22:31.80	333.79	12.54	-48.9	-64.4	3.6	1.51e+00	0	38	104	0	60	60205
2026-01-07 19:22:34.83	333.24	12.42	-48.9	-64.5	3.6	1.51e+00	0	39	104	0	60	60525
2026-01-07 19:22:37.86	332.70	12.31	-48.9	-64.5	3.6	1.51e+00	0	39	104	0	60	60362
2026-01-07 19:22:40.89	332.17	12.19	-48.9	-64.4	3.6	1.51e+00	0	38	104	0	60	60234
2026-01-07 19:22:43.92	331.64	12.08	-48.9	-64.5	3.6	1.51e+00	0	39	104	0	60	60523
2026-01-07 19:22:46.95	331.11	11.96	-48.9	-64.5	3.6	1.51e+00	0	38	104	0	60	60517
2026-01-07 19:22:49.98	330.59	11.84	-48.9	-64.5	3.6	1.51e+00	0	39	104	0	60	60387
2026-01-07 19:22:53.01	330.07	11.71	-48.9	-64.5	3.6	1.51e+00	0	39	104	0	60	60645
2026-01-07 19:22:56.04	329.56	11.59	-48.9	-64.5	3.6	1.51e+00	0	39	104	0	60	60604
2026-01-07 19:22:59.06	329.05	11.46	-48.9	-64.4	3.6	1.51e+00	0	39	104	0	60	60282
2026-01-07 19:23:02.09	328.55	11.34	-48.9	-64.4	3.6	1.51e+00	0	39	104	0	60	60285
2026-01-07 19:23:05.12	328.05	11.21	-48.9	-64.5	3.6	1.51e+00	0	39	104	0	60	60463
2026-01-07 19:23:08.15	327.55	11.08	-48.9	-64.5	3.6	1.51e+00	0	38	104	0	60	60637
2026-01-07 19:23:11.19	327.06	10.94	-48.9	-64.5	3.6	1.51e+00	0	38	104	0	60	60356
2026-01-07 19:23:14.22	326.57	10.81	-48.9	-64.5	3.6	1.51e+00	0	39	104	0	60	60386
2026-01-07 19:23:17.25	326.09	10.67	-48.9	-64.5	3.6	1.51e+00	0	39	104	0	60	60416
2026-01-07 19:23:20.28	325.62	10.54	-48.9	-64.5	3.6	1.51e+00	0	39	104	0	60	60477
2026-01-07 19:23:23.30	325.14	10.40	-48.9	-64.5	3.6	1.51e+00	0	38	104	0	60	60462
2026-01-07 19:23:26.33	324.68	10.26	-48.9	-64.5	3.6	1.51e+00	0	39	104	0	60	60597
2026-01-07 19:23:29.36	324.21	10.13	-48.9	-64.5	3.6	1.51e+00	0	38	104	0	60	60624
2026-01-07 19:23:32.39	323.75	9.99	-48.9	-64.5	3.6	1.51e+00	0	39	104	0	60	60394
2026-01-07 19:23:35.42	323.30	9.84	-48.9	-64.5	3.6	1.51e+00	0	39	104	0	60	60513
2026-01-07 19:23:38.45	322.85	9.70	-48.9	-64.5	3.6	1.51e+00	0	38	104	0	60	60758
2026-01-07 19:23:41.48	322.40	9.56	-48.9	-64.4	3.6	1.51e+00	0	38	104	0	60	60275
2026-01-07 19:23:44.51	321.96	9.42	-48.9	-64.4	3.6	1.51e+00	0	39	104	0	60	60329
2026-01-07 19:23:47.54	321.52	9.27	-48.9	-64.5	3.6	1.51e+00	0	39	104	0	60	60907
2026-01-07 19:23:50.56	321.09	9.13	-48.9	-64.4	3.6	1.51e+00	0	39	104	0	60	60259
2026-01-07 19:23:53.59	320.66	8.98	-48.9	-64.5	3.6	1.51e+00	0	38	104	0	60	60564
2026-01-07 19:23:56.62	320.24	8.83	-48.9	-64.4	3.6	1.51e+00	0	39	104	0	60	60172
2026-01-07 19:23:59.65	319.82	8.69	-48.9	-64.5	3.6	1.51e+00	0	39	104	0	60	60672
2026-01-07 19:24:02.69	319.40	8.54	-48.9	-64.5	3.6	1.51e+00	0	39	104	0	60	60494
2026-01-07 19:24:05.71	318.99	8.39	-48.9	-64.5	3.6	1.51e+00	0	39	104	0	60	60496
2026-01-07 19:24:08.74	318.59	8.24	-48.9	-64.5	3.6	1.51e+00	0	39	104	0	60	60396
2026-01-07 19:24:11.77	318.18	8.09	-48.9	-64.5	3.6	1.51e+00	0	39	104	0	60	60363
2026-01-07 19:24:14.80	317.79	7.94	-48.9	-64.5	3.6	1.51e+00	0	39	104	0	60	60439
2026-01-07 19:24:17.83	317.39	7.79	-48.9	-64.5	3.6	1.51e+00	0	39	104	0	60	60792
2026-01-07 19:24:20.86	317.00	7.64	-48.9	-64.5	3.6	1.51e+00	0	39	104	0	60	60511
2026-01-07 19:24:23.89	316.62	7.49	-48.9	-64.4	3.6	1.51e+00	0	39	104	0	60	60275
2026-01-07 19:24:26.92	316.23	7.34	-48.9	-64.5	3.6	1.51e+00	0	39	104	0	60	60387
2026-01-07 19:24:29.94	315.86	7.19	-48.9	-64.5	3.6	1.51e+00	0	39	104	0	60	60400
2026-01-07 19:24:32.97	315.48	7.04	-48.9	-64.4	3.6	1.51e+00	0	39	104	0	60	60311
2026-01-07 19:24:36.00	315.11	6.88	-48.9	-64.5	3.6	1.51e+00	0	39	104	0	60	60594
2026-01-07 19:24:39.03	314.75	6.73	-48.9	-64.5	3.6	1.51e+00	0	39	104	0	60	60374
2026-01-07 19:24:42.06	314.39	6.58	-48.9	-64.5	3.6	1.51e+00	0	39	104	0	60	60582
2026-01-07 19:24:45.09	314.03	6.43	-48.9	-64.4	3.6	1.51e+00	0	38	104	0	60	60247
2026-01-07 19:24:48.12	313.67	6.27	-48.9	-64.5	3.6	1.51e+00	0	38	104	0	60	60593
2026-01-07 19:24:51.15	313.32	6.12	-48.9	-64.5	3.6	1.51e+00	0	39	104	0	60	60495
2026-01-07 19:24:54.17	312.98	5.97	-48.9	-64.5	3.6	1.51e+00	0	39	104	0	60	60378
2026-01-07 19:24:57.20	312.63	5.81	-48.9	-64.5	3.6	1.51e+00	0	39	104	0	60	60365
2026-01-07 19:25:00.23	312.30	5.66	-48.9	-64.5	3.6	1.51e+00	0	39	104	0	60	60525
2026-01-07 19:25:03.26	311.96	5.51	-48.9	-64.5	3.6	1.51e+00	0	39	104	0	60	60408
2026-01-07 19:25:06.29	311.63	5.35	-48.9	-64.5	3.6	1.51e+00	0	39	104	0	60	60605
2026-01-07 19:25:09.32	311.30	5.20	-80.8	-89.3	2.4	1.57e+00	0	39	104	0	60	1048574
2026-01-07 19:25:12.35	310.97	5.05	-80.7	-89.3	2.5	1.57e+00	0	39	104	0	60	1048575
2026-01-07 19:25:15.38	310.65	4.89	-48.8	-64.4	3.6	1.51e+00	0	39	104	0	60	60247
2026-01-07 19:25:18.41	310.33	4.74	-48.8	-64.5	3.6	1.51e+00	0	39	104	0	60	60475
2026-01-07 19:25:21.44	310.02	4.59	-48.8	-64.4	3.6	1.51e+00	0	39	104	0	60	60082
2026-01-07 19:25:24.47	309.71	4.43	-48.8	-64.4	3.6	1.51e+00	0	39	104	0	60	60305
2026-01-07 19:25:27.50	309.40	4.28	-48.8	-64.5	3.6	1.51e+00	0	39	104	0	60	60462
2026-01-07 19:25:30.53	309.10	4.13	-48.8	-64.5	3.6	1.51e+00	0	39	104	0	60	60520
2026-01-07 19:25:33.56	308.80	3.98	-49.1	-64.5	3.6	1.51e+00	0	39	104	0	60	61025
2026-01-07 19:25:36.59	308.50	3.82	-49.3	-64.6	3.6	1.51e+00	0	39	104	0	60	61242
2026-01-07 19:25:39.62	308.20	3.67	-49.3	-64.5	3.6	1.51e+00	0	39	104	0	60	60405
2026-01-07 19:25:42.65	307.91	3.52	-49.3	-64.5	3.6	1.51e+00	0	39	104	0	60	60696
2026-01-07 19:25:45.68	307.62	3.37	-49.3	-64.5	3.6	1.51e+00	0	39	104	0	60	60738
2026-01-07 19:25:48.71	307.34	3.21	-49.3	-64.5	3.6	1.51e+00	0	39	104	0	60	60537
2026-01-07 19:25:51.74	307.05	3.06	-49.3	-64.5	3.6	1.51e+00	0	39	104	0	60	60747
2026-01-07 19:25:54.77	306.77	2.91	-49.3	-64.5	3.6	1.51e+00	0	39	104	0	60	60631
2026-01-07 19:25:57.80	306.50	2.76	-49.3	-64.5	3.6	1.51e+00	0	39	104	0	60	60433
2026-01-07 19:26:00.83	306.22	2.61	-49.3	-64.5	3.6	1.51e+00	0	39	104	0	60	60751
2026-01-07 19:26:03.86	305.95	2.46	-49.3	-64.5	3.6	1.51e+00	0	39	104	0	60	60766
2026-01-07 19:26:06.89	305.69	2.31	-49.3	-64.5	3.6	1.51e+00	0	39	104	0	60	60716
2026-01-07 19:26:09.91	305.42	2.16	-49.3	-64.5	3.6	1.51e+00	0	39	104	0	60	60594
2026-01-07 19:26:12.94	305.16	2.01	-49.3	-64.5	3.6	1.51e+00	0	39	104	0	60	60851
2026-01-07 19:26:15.97	304.90	1.86	-49.3	-64.5	3.6	1.51e+00	0	39	104	0	60	60522
2026-01-07 19:26:19.00	304.64	1.71	-49.3	-64.5	3.6	1.51e+00	0	39	104	0	60	60660
2026-01-07 19:26:22.03	304.39	1.56	-49.3	-64.5	3.6	1.51e+00	0	39	104	0	60	60598
2026-01-07 19:26:25.06	304.14	1.41	-49.3	-64.5	3.6	1.51e+00	0	39	104	0	60	60843
2026-01-07 19:26:28.09	303.89	1.26	-49.3	-64.5	3.6	1.51e+00	0	39	104	0	60	60489
2026-01-07 19:26:31.12	303.64	1.11	-49.3	-64.5	3.6	1.51e+00	0	39	104	0	60	60555
2026-01-07 19:26:34.15	303.40	0.96	-49.3	-64.5	3.6	1.51e+00	0	39	104	0	60	60782
2026-01-07 19:26:37.18	303.16	0.81	-49.3	-64.5	3.6	1.51e+00	0	39	104	0	60	60506
2026-01-07 19:26:40.21	302.92	0.66	-49.3	-64.5	3.6	1.51e+00	0	39	104	0	60	60480
2026-01-07 19:26:43.23	302.68	0.52	-49.3	-64.5	3.6	1.51e+00	0	39	104	0	60	60515
2026-01-07 19:26:46.26	302.45	0.37	-49.3	-64.5	3.6	1.51e+00	0	39	104	0	60	60662
2026-01-07 19:26:49.29	302.22	0.22	-49.3	-64.5	3.6	1.51e+00	0	39	104	0	60	60635
2026-01-07 19:26:52.32	301.99	0.07	-49.3	-64.5	3.6	1.51e+00	0	39	104	0	60	60607

#Closed at: 2026-01-07 19:26:53
#Recorded file [0 MB]: D:/lorett/data/35029_260108_071427.dat