passes_logs/2026/01/15/XPeterburg/XPeterburg__20260115_121221_FENGYUN_3D_rec.log

#Pass ID: 20260115_121221_FENGYUN 3D
#Satellite: FENGYUN 3D
#Configuration: FENGYUN 3D
#Start time: 2026-01-15 12:12:15

#Version: 1.5.20200625
#Station: XPeterburg
#Location: 30.318091 lon 59.932769 lat
#TLE: 1 43010U 17072A   26015.21499343  .00000031  00000+0  36298-4 0  9999
#TLE: 2 43010  98.9933 347.0344 0002357 107.2550 252.8884 14.19695486423282

#Time	Az	El	Level	Level2	SNR	BER	Gain	Gain2
2026-01-15 12:12:15.01	124.70	67.75	-38.7	-40.9	3.3	8390739	95	3169
2026-01-15 12:12:15.41	124.43	67.90	-38.5	-42.2	3.5	8435874	93	3801
2026-01-15 12:12:15.81	124.15	68.06	-38.5	-41.4	3.3	8419292	93	3432
2026-01-15 12:12:16.21	123.86	68.21	-38.4	-42.4	3.6	8398132	93	3907
2026-01-15 12:12:16.62	123.57	68.37	-38.2	-40.5	3.4	8405353	93	3204
2026-01-15 12:12:17.02	123.28	68.52	-37.9	-40.8	3.7	8399940	93	3433
2026-01-15 12:12:17.42	122.98	68.67	-37.2	-37.6	4.1	8419990	93	2556
2026-01-15 12:12:17.82	122.68	68.82	-36.5	-36.4	4.8	8042850	91	2448
2026-01-15 12:12:18.22	122.37	68.98	-35.3	-34.7	6.1	7186351	89	2296
2026-01-15 12:12:18.63	122.05	69.13	-33.9	-33.4	7.5	1793701	86	2313
2026-01-15 12:12:19.03	121.73	69.28	-32.9	-32.2	8.9	808284	84	2283
2026-01-15 12:12:19.43	121.41	69.43	-31.9	-31.3	10.2	321659	82	2282
2026-01-15 12:12:19.83	121.09	69.58	-31.0	-30.3	11.5	32821	80	2279
2026-01-15 12:12:20.24	120.74	69.74	-29.9	-29.2	12.6	8205	78	2263
2026-01-15 12:12:20.64	120.41	69.89	-29.3	-28.8	13.4	1865	76	2341
2026-01-15 12:12:21.04	120.06	70.04	-28.4	-27.6	14.1	125	75	2250
2026-01-15 12:12:21.44	119.72	70.18	-28.1	-27.6	14.5	34	74	2303
2026-01-15 12:12:21.84	119.36	70.33	-28.0	-27.3	14.6	22	74	2263
2026-01-15 12:12:22.25	118.99	70.48	-28.1	-27.5	14.5	22	74	2301
2026-01-15 12:12:22.65	118.63	70.63	-28.1	-27.6	14.5	22	74	2307
2026-01-15 12:12:23.05	118.26	70.78	-28.1	-27.6	14.5	22	74	2305
2026-01-15 12:12:23.45	117.88	70.92	-28.1	-27.4	14.7	0	74	2281
2026-01-15 12:12:23.85	117.49	71.07	-28.0	-27.4	14.7	0	74	2280
2026-01-15 12:12:24.26	117.09	71.22	-28.1	-27.5	14.7	0	74	2293
2026-01-15 12:12:24.66	116.70	71.36	-28.2	-27.7	14.6	0	74	2317
2026-01-15 12:12:25.06	116.29	71.51	-28.3	-28.0	14.5	0	74	2370
2026-01-15 12:12:25.46	115.88	71.65	-28.3	-28.0	14.5	11	74	2373
2026-01-15 12:12:25.86	115.46	71.79	-28.2	-27.7	14.7	0	74	2331
2026-01-15 12:12:26.26	115.04	71.93	-28.0	-27.3	15.0	0	74	2274
2026-01-15 12:12:26.67	114.60	72.08	-27.8	-26.9	15.3	0	74	2224
2026-01-15 12:12:27.07	114.16	72.22	-27.8	-26.8	15.3	0	74	2212
2026-01-15 12:12:27.47	113.71	72.35	-27.8	-27.3	15.3	0	73	2346
2026-01-15 12:12:27.87	113.26	72.49	-27.9	-27.6	15.2	0	73	2385
2026-01-15 12:12:28.27	112.80	72.63	-28.0	-27.8	15.1	0	73	2418
2026-01-15 12:12:28.68	112.32	72.77	-28.0	-28.0	15.1	0	73	2434
2026-01-15 12:12:29.08	111.84	72.90	-28.0	-27.9	15.2	0	73	2421
2026-01-15 12:12:29.48	111.36	73.04	-27.9	-27.7	15.3	0	73	2391
2026-01-15 12:12:29.88	110.87	73.17	-27.8	-27.4	15.5	0	73	2358
2026-01-15 12:12:30.28	110.36	73.30	-27.6	-27.1	15.7	0	73	2315
2026-01-15 12:12:30.69	109.84	73.44	-27.5	-26.9	15.8	0	73	2290
2026-01-15 12:12:31.09	109.32	73.57	-27.5	-26.8	15.8	0	73	2278
2026-01-15 12:12:31.49	108.80	73.70	-27.5	-26.9	15.8	0	73	2295
2026-01-15 12:12:31.89	108.26	73.82	-27.5	-27.0	15.8	0	73	2301
2026-01-15 12:12:32.30	107.70	73.95	-27.4	-26.6	15.9	0	73	2257
2026-01-15 12:12:32.70	107.15	74.08	-27.3	-26.9	16.1	0	72	2363
2026-01-15 12:12:33.10	106.59	74.20	-27.1	-26.5	16.3	0	72	2300
2026-01-15 12:12:33.50	106.02	74.32	-27.0	-26.3	16.4	0	72	2272
2026-01-15 12:12:33.91	105.42	74.45	-26.9	-26.2	16.4	0	72	2262
2026-01-15 12:12:34.31	104.83	74.57	-26.9	-26.1	16.5	0	72	2247
2026-01-15 12:12:34.71	104.23	74.69	-26.9	-26.0	16.5	0	72	2234
2026-01-15 12:12:35.11	103.62	74.80	-26.8	-26.0	16.5	0	72	2229
2026-01-15 12:12:35.51	103.00	74.92	-26.8	-25.9	16.5	0	72	2224
2026-01-15 12:12:35.92	102.35	75.03	-26.5	-25.9	16.6	0	71	2279
2026-01-15 12:12:36.32	101.71	75.14	-26.3	-25.5	16.8	0	71	2226
2026-01-15 12:12:36.72	101.06	75.25	-26.3	-25.9	16.8	0	70	2354
2026-01-15 12:12:37.12	100.40	75.36	-26.2	-25.7	17.0	0	70	2317
2026-01-15 12:12:37.53	99.72	75.47	-26.1	-25.5	17.1	0	70	2294
2026-01-15 12:12:37.93	99.04	75.57	-26.2	-25.6	17.0	0	70	2307
2026-01-15 12:12:38.33	98.35	75.68	-26.1	-25.5	17.1	0	70	2290
2026-01-15 12:12:38.73	97.65	75.78	-26.1	-25.5	17.1	0	70	2292
2026-01-15 12:12:39.13	96.94	75.87	-26.0	-25.2	17.2	0	70	2259
2026-01-15 12:12:39.54	96.20	75.97	-25.8	-24.8	17.3	0	70	2204
2026-01-15 12:12:39.94	95.47	76.07	-25.6	-25.0	17.3	0	69	2293
2026-01-15 12:12:40.34	94.72	76.16	-25.6	-25.0	17.2	0	69	2291
2026-01-15 12:12:40.74	93.97	76.25	-25.6	-25.0	17.2	0	69	2292
2026-01-15 12:12:41.14	93.21	76.34	-25.6	-24.9	17.2	0	69	2277
2026-01-15 12:12:41.55	92.42	76.42	-25.5	-24.8	17.2	0	69	2260
2026-01-15 12:12:41.95	91.64	76.51	-25.5	-24.7	17.3	0	69	2250
2026-01-15 12:12:42.35	90.85	76.59	-25.5	-24.7	17.4	0	69	2244
2026-01-15 12:12:42.75	90.05	76.66	-25.5	-24.7	17.4	0	69	2241
2026-01-15 12:12:43.15	89.23	76.74	-25.5	-24.8	17.3	0	69	2260
2026-01-15 12:12:43.56	88.39	76.81	-25.6	-24.9	17.3	0	69	2276
2026-01-15 12:12:43.96	87.56	76.88	-25.7	-25.1	17.2	0	69	2295
2026-01-15 12:12:44.36	86.73	76.95	-25.8	-25.3	17.1	0	69	2335
2026-01-15 12:12:44.76	85.88	77.01	-25.9	-25.5	17.0	0	69	2353
2026-01-15 12:12:45.17	85.00	77.08	-25.8	-25.3	17.1	0	69	2327
2026-01-15 12:12:45.57	84.14	77.14	-25.7	-25.1	17.2	0	69	2297
2026-01-15 12:12:45.97	83.26	77.19	-25.6	-24.9	17.3	0	69	2282
2026-01-15 12:12:46.37	82.38	77.24	-25.5	-24.8	17.3	0	69	2260
2026-01-15 12:12:46.77	81.50	77.29	-25.5	-24.7	17.3	0	69	2243
2026-01-15 12:12:47.18	80.58	77.34	-25.5	-24.7	17.3	0	69	2246
2026-01-15 12:12:47.58	79.68	77.39	-25.5	-24.7	17.3	0	69	2249
2026-01-15 12:12:47.98	78.77	77.43	-25.8	-25.2	17.1	0	69	2321
2026-01-15 12:12:48.38	77.86	77.47	-25.9	-25.6	17.0	0	69	2372
2026-01-15 12:12:48.78	76.94	77.50	-26.1	-25.9	16.8	0	69	2412
2026-01-15 12:12:49.19	75.99	77.53	-26.1	-26.0	16.8	0	69	2425
2026-01-15 12:12:49.59	75.07	77.56	-26.1	-25.9	16.8	0	69	2405
2026-01-15 12:12:49.99	74.13	77.59	-25.9	-25.5	17.0	0	69	2348
2026-01-15 12:12:50.39	73.20	77.61	-25.7	-25.2	17.2	0	69	2308
2026-01-15 12:12:50.80	72.24	77.63	-25.6	-24.9	17.3	0	69	2273
2026-01-15 12:12:51.20	71.29	77.64	-25.7	-25.1	17.3	0	69	2293
2026-01-15 12:12:51.60	70.35	77.65	-25.8	-25.2	17.2	0	69	2319
2026-01-15 12:12:52.00	69.40	77.66	-26.0	-25.7	17.0	0	69	2379
2026-01-15 12:12:52.40	68.46	77.67	-26.0	-25.8	16.8	0	69	2397
2026-01-15 12:12:52.81	67.49	77.67	-26.0	-25.8	16.8	0	69	2394
2026-01-15 12:12:53.21	66.54	77.67	-26.0	-25.7	16.9	0	69	2388
2026-01-15 12:12:53.61	65.59	77.66	-26.0	-25.7	16.9	0	69	2385
2026-01-15 12:12:54.01	64.65	77.66	-26.1	-25.9	16.8	0	69	2404
2026-01-15 12:12:54.41	63.70	77.65	-26.2	-26.1	16.7	0	69	2435
2026-01-15 12:12:54.82	62.74	77.63	-26.3	-26.3	16.6	0	69	2461
2026-01-15 12:12:55.22	61.80	77.61	-26.4	-26.5	16.4	0	69	2494
2026-01-15 12:12:55.62	60.86	77.59	-26.6	-26.4	16.3	0	70	2402
2026-01-15 12:12:56.02	59.93	77.57	-26.6	-26.4	16.3	0	70	2401
2026-01-15 12:12:56.43	58.97	77.54	-26.5	-26.2	16.3	0	70	2379
2026-01-15 12:12:56.83	58.05	77.51	-26.5	-26.3	16.3	0	70	2392
2026-01-15 12:12:57.23	57.13	77.48	-26.6	-26.5	16.2	0	70	2425
2026-01-15 12:12:57.63	56.21	77.44	-26.8	-26.8	16.0	0	70	2469
2026-01-15 12:12:58.03	55.31	77.40	-26.9	-27.0	15.9	0	70	2503
2026-01-15 12:12:58.44	54.38	77.36	-26.7	-26.7	16.1	0	70	2450
2026-01-15 12:12:58.84	53.48	77.31	-26.6	-26.5	16.2	0	70	2418
2026-01-15 12:12:59.24	52.60	77.26	-26.5	-26.3	16.4	0	70	2395
2026-01-15 12:12:59.64	51.71	77.21	-26.5	-26.3	16.5	0	70	2397
2026-01-15 12:13:00.04	50.84	77.15	-26.6	-26.5	16.3	0	70	2432
2026-01-15 12:13:00.45	49.95	77.09	-26.7	-26.6	16.3	0	70	2441
2026-01-15 12:13:00.85	49.09	77.03	-26.7	-26.7	16.3	0	70	2451
2026-01-15 12:13:01.25	48.24	76.97	-26.7	-26.6	16.3	0	70	2437
2026-01-15 12:13:01.65	47.40	76.90	-26.6	-26.5	16.3	0	70	2426
2026-01-15 12:13:02.05	46.57	76.83	-26.6	-26.4	16.4	0	70	2415
2026-01-15 12:13:02.46	45.73	76.76	-26.6	-26.5	16.4	0	70	2422
2026-01-15 12:13:02.86	44.91	76.69	-26.6	-26.5	16.3	0	70	2432
2026-01-15 12:13:03.26	44.11	76.61	-26.9	-27.0	16.1	0	70	2505
2026-01-15 12:13:03.66	43.32	76.53	-27.0	-26.7	16.0	0	71	2394
2026-01-15 12:13:04.06	42.53	76.45	-26.9	-26.6	16.0	0	71	2374
2026-01-15 12:13:04.47	41.74	76.36	-26.9	-26.5	16.1	0	71	2368
2026-01-15 12:13:04.87	40.97	76.28	-26.8	-26.4	16.1	0	71	2354
2026-01-15 12:13:05.27	40.22	76.19	-26.8	-26.4	16.1	0	71	2342
2026-01-15 12:13:05.67	39.48	76.10	-26.9	-26.5	16.0	0	71	2365
2026-01-15 12:13:06.07	38.74	76.00	-26.9	-26.6	16.1	0	71	2369
2026-01-15 12:13:06.48	38.00	75.90	-27.0	-26.8	16.0	0	71	2402
2026-01-15 12:13:06.88	37.29	75.81	-27.2	-27.1	15.9	0	71	2453
2026-01-15 12:13:07.28	36.58	75.71	-27.1	-27.0	16.0	0	71	2436
2026-01-15 12:13:07.68	35.89	75.61	-27.1	-26.9	16.0	0	71	2424
2026-01-15 12:13:08.08	35.21	75.50	-27.1	-27.0	16.0	0	71	2434
2026-01-15 12:13:08.49	34.52	75.39	-27.1	-27.0	16.0	0	71	2432
2026-01-15 12:13:08.89	33.85	75.29	-27.1	-27.1	16.0	0	71	2449
2026-01-15 12:13:09.29	33.20	75.18	-27.0	-26.8	16.1	0	71	2411
2026-01-15 12:13:09.69	32.56	75.07	-26.9	-26.5	16.3	0	71	2374
2026-01-15 12:13:10.09	31.93	74.96	-26.7	-26.3	16.5	0	71	2343
2026-01-15 12:13:10.50	31.29	74.84	-26.8	-26.4	16.5	0	71	2357
2026-01-15 12:13:10.90	30.68	74.72	-26.9	-26.5	16.4	0	71	2369
2026-01-15 12:13:11.30	30.07	74.61	-27.1	-27.0	16.2	0	71	2431
2026-01-15 12:13:11.70	29.48	74.49	-27.3	-27.3	15.9	0	71	2487
2026-01-15 12:13:12.10	28.90	74.37	-27.3	-27.4	15.9	0	71	2500
2026-01-15 12:13:12.51	28.31	74.24	-27.4	-27.5	15.8	0	71	2515
2026-01-15 12:13:12.91	27.74	74.12	-27.3	-27.5	15.8	0	71	2513
2026-01-15 12:13:13.31	27.19	73.99	-27.5	-27.4	15.9	0	72	2425
2026-01-15 12:13:13.71	26.64	73.87	-27.6	-27.5	15.8	0	72	2443
2026-01-15 12:13:14.11	26.10	73.74	-27.6	-27.5	15.8	0	72	2446
2026-01-15 12:13:14.52	25.56	73.61	-27.6	-27.6	15.8	0	72	2455
2026-01-15 12:13:14.92	25.04	73.48	-27.7	-27.7	15.8	0	72	2464
2026-01-15 12:13:15.32	24.53	73.35	-27.6	-27.5	15.8	0	72	2445
2026-01-15 12:13:15.72	24.02	73.22	-27.6	-27.5	15.7	0	72	2444
2026-01-15 12:13:16.13	23.52	73.08	-27.4	-27.2	15.7	0	72	2392
2026-01-15 12:13:16.53	23.03	72.95	-27.4	-27.1	15.8	0	72	2383
2026-01-15 12:13:16.93	22.55	72.81	-27.3	-26.8	15.8	0	72	2345
2026-01-15 12:13:17.33	22.08	72.68	-27.2	-26.8	15.9	0	72	2332
2026-01-15 12:13:17.73	21.62	72.54	-27.3	-26.8	15.9	0	72	2345
2026-01-15 12:13:18.14	21.15	72.40	-27.2	-26.8	15.8	0	72	2334
2026-01-15 12:13:18.54	20.70	72.26	-27.3	-26.9	15.7	0	72	2346
2026-01-15 12:13:18.94	20.26	72.12	-27.2	-26.8	15.7	0	72	2333
2026-01-15 12:13:19.34	19.83	71.98	-27.1	-26.4	15.8	0	72	2285
2026-01-15 12:13:19.75	19.39	71.84	-27.1	-26.4	15.9	0	72	2281
2026-01-15 12:13:20.15	18.97	71.70	-26.9	-26.1	16.0	22	72	2239
2026-01-15 12:13:20.55	18.56	71.56	-27.0	-26.2	16.0	0	72	2253
2026-01-15 12:13:20.95	18.16	71.41	-27.0	-26.3	16.1	0	72	2261
2026-01-15 12:13:21.36	17.75	71.26	-27.0	-26.3	16.0	0	72	2273
2026-01-15 12:13:21.76	17.36	71.12	-27.1	-26.5	15.9	0	72	2297
2026-01-15 12:13:22.16	16.97	70.98	-27.2	-26.8	15.6	0	72	2325
2026-01-15 12:13:22.56	16.59	70.83	-27.3	-27.0	15.5	0	72	2355
2026-01-15 12:13:22.96	16.22	70.68	-27.6	-27.6	15.2	0	72	2447
2026-01-15 12:13:23.36	15.85	70.54	-34.2	-35.0	7.5	1625	85	2694
2026-01-15 12:13:23.77	15.48	70.39	-38.9	-43.9	3.6	1491508	94	4389
2026-01-15 12:13:24.17	15.12	70.24	-38.6	-41.8	3.4	8434902	94	3538

#Closed at: 2026-01-15 12:13:24