passes_logs/2026/01/14/planumMaritime01/planumMaritime01__20260114_062102_METOP-B_rec.log

#Pass ID: 20260114_062102_METOP-B
#Satellite: METOP-B
#Configuration: METOP-B
#Start time: 2026-01-14 06:21:07.388540

#LorettStation: 1.0.0 05.05.2024
#Station: planumMaritime01
#Location: 37.49445 lon 55.92918 lat
#TLE: 1 38771U 12049A   26012.90633838  .00000094  00000+0  63105-4 0  9994
#TLE: 2 38771  98.6755  67.3301 0003319  81.0772 279.0781 14.21421823691209

#Time	Az	El	Level	SNR
2026-01-14 06:21:09.555249	28.0	10.2	-69.7	0.0
2026-01-14 06:21:11.807601	28.1	10.4	-64.1	0.0
2026-01-14 06:21:14.061123	28.3	10.5	-62.5	0.0
2026-01-14 06:21:16.318213	28.5	10.7	-56.7	0.0
2026-01-14 06:21:18.574094	28.7	10.9	-57.1	0.0
2026-01-14 06:21:20.827049	28.8	11.1	-51.9	0.0
2026-01-14 06:21:23.080535	29.0	11.3	-51.8	0.0
2026-01-14 06:21:25.333521	29.2	11.4	-50.8	0.0
2026-01-14 06:21:27.586374	29.4	11.6	-55.8	0.0
2026-01-14 06:21:29.841272	29.6	11.8	-54.8	0.0
2026-01-14 06:21:32.094030	29.8	12.0	-55.1	0.0
2026-01-14 06:21:34.347836	30.0	12.2	-52.7	0.0
2026-01-14 06:21:36.603884	30.2	12.4	-55.8	0.0
2026-01-14 06:21:38.856482	30.4	12.6	-53.3	0.0
2026-01-14 06:21:41.109074	30.6	12.8	-53.2	0.0
2026-01-14 06:21:43.363058	30.8	13.0	-54.2	0.0
2026-01-14 06:21:45.616521	31.0	13.2	-56.2	0.0
2026-01-14 06:21:47.867746	31.2	13.4	-57.6	0.0
2026-01-14 06:21:50.120502	31.4	13.6	-55.8	0.0
2026-01-14 06:21:52.372751	31.6	13.8	-53.6	0.0
2026-01-14 06:21:54.623161	31.9	14.0	-52.3	0.0
2026-01-14 06:21:56.875225	32.1	14.2	-53.6	0.0
2026-01-14 06:21:59.127820	32.3	14.4	-53.5	0.0
2026-01-14 06:22:01.380486	32.5	14.6	-54.6	0.0
2026-01-14 06:22:03.631521	32.8	14.8	-54.7	0.0
2026-01-14 06:22:05.883311	33.0	15.0	-56.6	0.0
2026-01-14 06:22:08.135257	33.2	15.2	-58.8	0.0
2026-01-14 06:22:10.387425	33.5	15.4	-57.8	0.0
2026-01-14 06:22:12.640268	33.7	15.6	-56.5	0.0
2026-01-14 06:22:14.894359	34.0	15.9	-55.2	0.0
2026-01-14 06:22:17.147014	34.2	16.1	-56.3	0.0
2026-01-14 06:22:19.402699	34.5	16.3	-58.7	0.0
2026-01-14 06:22:21.653421	34.7	16.5	-57.1	0.0
2026-01-14 06:22:23.909633	35.0	16.7	-60.2	0.0
2026-01-14 06:22:26.161347	35.2	17.0	-56.1	0.0
2026-01-14 06:22:28.415930	35.5	17.2	-54.8	0.0
2026-01-14 06:22:30.667055	35.8	17.4	-55.1	0.0
2026-01-14 06:22:32.920752	36.1	17.6	-57.0	0.0
2026-01-14 06:22:35.174602	36.3	17.9	-55.4	0.0
2026-01-14 06:22:37.426506	36.6	18.1	-58.5	0.0
2026-01-14 06:22:39.678922	36.9	18.3	-53.8	0.0
2026-01-14 06:22:41.933121	37.2	18.6	-56.8	0.0
2026-01-14 06:22:44.188540	37.5	18.8	-56.7	0.0
2026-01-14 06:22:46.445068	37.8	19.0	-60.3	0.0
2026-01-14 06:22:48.700296	38.1	19.3	-61.6	0.0
2026-01-14 06:22:50.951394	38.4	19.5	-61.0	0.0
2026-01-14 06:22:53.204717	38.7	19.7	-55.8	0.0
2026-01-14 06:22:55.455921	39.1	20.0	-62.0	0.0
2026-01-14 06:22:57.710207	39.4	20.2	-59.9	0.0
2026-01-14 06:22:59.970708	39.7	20.5	-58.6	0.0
2026-01-14 06:23:02.223537	40.1	20.7	-61.3	0.0
2026-01-14 06:23:04.479200	40.4	21.0	-59.6	0.0
2026-01-14 06:23:06.734147	40.8	21.2	-62.4	0.0
2026-01-14 06:23:08.988142	41.1	21.5	-61.3	0.0
2026-01-14 06:23:11.241134	41.5	21.7	-64.1	0.0
2026-01-14 06:23:13.493135	41.8	22.0	-61.0	0.0
2026-01-14 06:23:15.748082	42.2	22.2	-63.5	0.0
2026-01-14 06:23:18.001111	42.6	22.5	-63.6	0.0
2026-01-14 06:23:20.254668	43.0	22.7	-64.3	0.0
2026-01-14 06:23:22.506621	43.3	23.0	-64.5	0.0
2026-01-14 06:23:24.757219	43.7	23.3	-63.9	0.0
2026-01-14 06:23:27.007457	44.1	23.5	-65.7	0.0
2026-01-14 06:23:29.281307	44.6	23.8	-61.6	0.0
2026-01-14 06:23:31.530445	45.0	24.0	-66.9	0.0
2026-01-14 06:23:33.782347	45.4	24.3	-65.2	0.0
2026-01-14 06:23:36.034470	45.8	24.6	-64.5	0.0
2026-01-14 06:23:38.288785	46.3	24.8	-65.1	0.0
2026-01-14 06:23:40.542230	46.7	25.1	-66.1	0.0
2026-01-14 06:23:42.795303	47.1	25.4	-66.7	0.0
2026-01-14 06:23:45.047201	47.6	25.6	-66.2	0.0
2026-01-14 06:23:47.303143	48.1	25.9	-64.3	0.0
2026-01-14 06:23:49.557015	48.5	26.2	-63.0	0.0
2026-01-14 06:23:51.810917	49.0	26.5	-67.3	0.0
2026-01-14 06:23:54.062955	49.5	26.7	-65.8	0.0
2026-01-14 06:23:56.320095	50.0	27.0	-65.8	0.0
2026-01-14 06:23:58.572944	50.5	27.3	-64.6	0.0
2026-01-14 06:24:00.824923	51.0	27.6	-66.6	0.0
2026-01-14 06:24:03.078290	51.6	27.8	-67.6	0.0
2026-01-14 06:24:05.333772	52.1	28.1	-66.7	0.0
2026-01-14 06:24:07.586524	52.6	28.4	-67.2	0.0
2026-01-14 06:24:09.839672	53.2	28.7	-66.7	0.0
2026-01-14 06:24:12.095056	53.7	28.9	-66.2	0.0
2026-01-14 06:24:14.348974	54.3	29.2	-68.7	0.0
2026-01-14 06:24:16.603782	54.9	29.5	-68.0	0.0
2026-01-14 06:24:18.859897	55.5	29.8	-65.3	0.0
2026-01-14 06:24:21.110511	56.1	30.0	-64.8	0.0
2026-01-14 06:24:23.364343	56.7	30.3	-64.2	0.0
2026-01-14 06:24:25.616553	57.3	30.6	-64.6	0.0
2026-01-14 06:24:27.869424	57.9	30.9	-67.0	0.0
2026-01-14 06:24:30.122139	58.6	31.1	-67.5	0.0
2026-01-14 06:24:32.376793	59.2	31.4	-67.5	0.0
2026-01-14 06:24:34.629459	59.9	31.7	-68.7	1.6
2026-01-14 06:24:36.885703	60.6	31.9	-68.0	0.0
2026-01-14 06:24:39.138000	61.3	32.2	-68.4	0.0
2026-01-14 06:24:41.390743	62.0	32.4	-67.1	0.0
2026-01-14 06:24:43.644674	62.7	32.7	-69.1	1.8
2026-01-14 06:24:45.895593	63.4	33.0	-65.6	0.0
2026-01-14 06:24:48.148852	64.1	33.2	-68.8	0.0
2026-01-14 06:24:50.400379	64.8	33.5	-68.5	1.5
2026-01-14 06:24:52.654859	65.6	33.7	-69.3	1.4
2026-01-14 06:24:54.906182	66.4	33.9	-69.6	2.4
2026-01-14 06:24:57.158401	67.1	34.2	-70.0	2.1
2026-01-14 06:24:59.411534	67.9	34.4	-71.5	4.9
2026-01-14 06:25:01.663448	68.7	34.7	-67.0	0.0
2026-01-14 06:25:03.913918	69.5	34.9	-69.5	0.3
2026-01-14 06:25:06.168470	70.3	35.1	-70.1	5.3
2026-01-14 06:25:08.421268	71.2	35.3	-69.7	2.5
2026-01-14 06:25:10.677091	72.0	35.5	-69.8	2.3
2026-01-14 06:25:12.929890	72.9	35.7	-70.1	3.5
2026-01-14 06:25:15.185202	73.7	35.9	-71.1	5.8
2026-01-14 06:25:17.439774	74.6	36.1	-70.2	3.9
2026-01-14 06:25:19.691729	75.5	36.3	-70.7	5.9
2026-01-14 06:25:21.944763	76.4	36.5	-70.0	3.4
2026-01-14 06:25:24.201535	77.3	36.7	-69.8	4.7
2026-01-14 06:25:26.457427	78.2	36.9	-70.7	8.1
2026-01-14 06:25:28.711983	79.1	37.0	-69.3	4.7
2026-01-14 06:25:30.965742	80.0	37.2	-70.4	6.2
2026-01-14 06:25:33.218935	81.0	37.3	-69.6	7.3
2026-01-14 06:25:35.470330	81.9	37.5	-69.6	5.8
2026-01-14 06:25:37.723161	82.9	37.6	-69.6	3.8
2026-01-14 06:25:39.974396	83.8	37.7	-70.7	6.9
2026-01-14 06:25:42.228573	84.8	37.8	-69.8	2.1
2026-01-14 06:25:44.483004	85.8	37.9	-70.8	4.9
2026-01-14 06:25:46.736660	86.8	38.0	-71.0	7.3
2026-01-14 06:25:48.991791	87.7	38.1	-71.2	4.2
2026-01-14 06:25:51.246707	88.7	38.2	-70.0	3.6
2026-01-14 06:25:53.499868	89.7	38.3	-71.4	3.9
2026-01-14 06:25:55.751690	90.7	38.3	-70.6	8.1
2026-01-14 06:25:58.004137	91.7	38.4	-70.9	5.2
2026-01-14 06:26:00.256184	92.7	38.4	-68.9	2.0
2026-01-14 06:26:02.510679	93.8	38.4	-69.6	3.0
2026-01-14 06:26:04.764751	94.8	38.5	-70.4	5.4
2026-01-14 06:26:07.014575	95.8	38.5	-70.3	6.0
2026-01-14 06:26:09.269602	96.8	38.5	-69.6	1.6
2026-01-14 06:26:11.522583	97.8	38.5	-69.9	4.1
2026-01-14 06:26:13.774327	98.8	38.4	-70.6	4.8
2026-01-14 06:26:16.026958	99.8	38.4	-70.3	4.0
2026-01-14 06:26:18.277235	100.8	38.4	-71.9	6.9
2026-01-14 06:26:20.531231	101.8	38.3	-69.8	1.4
2026-01-14 06:26:22.783711	102.8	38.3	-69.6	2.1
2026-01-14 06:26:25.034983	103.8	38.2	-68.2	0.0
2026-01-14 06:26:27.285591	104.8	38.1	-71.6	6.5
2026-01-14 06:26:29.535939	105.8	38.0	-71.1	6.4
2026-01-14 06:26:31.788058	106.8	37.9	-71.2	4.9
2026-01-14 06:26:34.041067	107.8	37.8	-71.1	7.3
2026-01-14 06:26:36.292678	108.7	37.7	-71.4	8.2
2026-01-14 06:26:38.544435	109.7	37.6	-71.1	6.8
2026-01-14 06:26:40.794439	110.7	37.5	-70.7	5.5
2026-01-14 06:26:43.047078	111.6	37.3	-70.3	7.1
2026-01-14 06:26:45.302018	112.5	37.2	-70.1	4.1
2026-01-14 06:26:47.554025	113.5	37.0	-70.4	5.1
2026-01-14 06:26:49.805526	114.4	36.9	-71.3	6.7
2026-01-14 06:26:52.058473	115.3	36.7	-72.2	9.2
2026-01-14 06:26:54.308923	116.2	36.5	-71.4	6.4
2026-01-14 06:26:56.562698	117.1	36.3	-72.0	7.9
2026-01-14 06:26:58.817797	118.0	36.2	-70.7	7.1
2026-01-14 06:27:01.070724	118.9	36.0	-70.8	8.2
2026-01-14 06:27:03.324329	119.7	35.8	-72.2	9.0
2026-01-14 06:27:05.579874	120.6	35.6	-72.0	9.2
2026-01-14 06:27:07.832889	121.4	35.3	-72.1	9.2
2026-01-14 06:27:10.085748	122.3	35.1	-72.5	8.8
2026-01-14 06:27:12.339506	123.1	34.9	-71.6	8.5
2026-01-14 06:27:14.593553	123.9	34.7	-72.4	9.4
2026-01-14 06:27:16.850358	124.7	34.4	-71.8	5.1
2026-01-14 06:27:19.105243	125.5	34.2	-71.7	4.9
2026-01-14 06:27:21.358885	126.3	34.0	-72.3	7.9
2026-01-14 06:27:23.611208	127.0	33.7	-72.6	8.4
2026-01-14 06:27:25.862416	127.8	33.5	-72.4	7.3
2026-01-14 06:27:28.115007	128.5	33.2	-72.8	7.9
2026-01-14 06:27:30.372564	129.3	33.0	-72.3	6.4
2026-01-14 06:27:32.622580	130.0	32.7	-73.5	8.7
2026-01-14 06:27:34.872989	130.7	32.4	-72.9	7.7
2026-01-14 06:27:37.127062	131.4	32.2	-73.3	7.7
2026-01-14 06:27:39.379860	132.1	31.9	-73.4	7.9
2026-01-14 06:27:41.630972	132.8	31.7	-73.1	7.5
2026-01-14 06:27:43.881066	133.4	31.4	-72.6	7.9
2026-01-14 06:27:46.134352	134.1	31.1	-72.8	8.1
2026-01-14 06:27:48.387249	134.7	30.8	-73.2	8.6
2026-01-14 06:27:50.637363	135.3	30.6	-72.5	8.0
2026-01-14 06:27:52.889000	136.0	30.3	-72.7	8.4
2026-01-14 06:27:55.139844	136.6	30.0	-73.0	8.3
2026-01-14 06:27:57.392583	137.2	29.8	-72.3	9.2
2026-01-14 06:27:59.646418	137.8	29.5	-71.8	5.9
2026-01-14 06:28:01.899485	138.4	29.2	-72.7	8.1
2026-01-14 06:28:04.152223	138.9	28.9	-72.6	7.8
2026-01-14 06:28:06.406041	139.5	28.6	-72.7	7.6
2026-01-14 06:28:08.661374	140.0	28.4	-72.3	7.0
2026-01-14 06:28:10.913861	140.6	28.1	-72.8	6.4
2026-01-14 06:28:13.167317	141.1	27.8	-72.6	7.0
2026-01-14 06:28:15.418459	141.7	27.5	-72.9	8.4
2026-01-14 06:28:17.671955	142.2	27.3	-73.1	8.2
2026-01-14 06:28:19.925082	142.7	27.0	-72.5	8.2
2026-01-14 06:28:22.181581	143.2	26.7	-73.4	8.0
2026-01-14 06:28:24.432954	143.7	26.4	-73.0	8.2
2026-01-14 06:28:26.686589	144.2	26.2	-73.4	7.1
2026-01-14 06:28:28.940957	144.6	25.9	-73.1	5.2
2026-01-14 06:28:31.193802	145.1	25.6	-73.1	7.0
2026-01-14 06:28:33.447147	145.6	25.3	-73.0	6.8
2026-01-14 06:28:35.697293	146.0	25.1	-72.7	5.2
2026-01-14 06:28:37.952653	146.5	24.8	-73.7	6.6
2026-01-14 06:28:40.203627	146.9	24.5	-73.5	5.1
2026-01-14 06:28:42.453777	147.3	24.3	-73.5	6.7
2026-01-14 06:28:44.703368	147.7	24.0	-73.5	6.2
2026-01-14 06:28:46.955210	148.2	23.7	-74.1	6.4
2026-01-14 06:28:49.204757	148.6	23.5	-73.9	6.4
2026-01-14 06:28:51.461420	149.0	23.2	-73.0	4.5
2026-01-14 06:28:53.711002	149.4	22.9	-73.9	6.4
2026-01-14 06:28:55.964637	149.8	22.7	-73.1	6.4
2026-01-14 06:28:58.218856	150.1	22.4	-72.8	3.2
2026-01-14 06:29:00.469861	150.5	22.2	-72.3	5.3
2026-01-14 06:29:02.717917	150.9	21.9	-72.0	4.0
2026-01-14 06:29:04.972701	151.2	21.7	-71.3	3.1
2026-01-14 06:29:07.223864	151.6	21.4	-73.1	5.3
2026-01-14 06:29:09.477401	152.0	21.1	-71.5	4.9
2026-01-14 06:29:11.729808	152.3	20.9	-71.6	4.2
2026-01-14 06:29:13.983796	152.7	20.6	-72.6	4.8
2026-01-14 06:29:16.235180	153.0	20.4	-71.9	2.2
2026-01-14 06:29:18.487829	153.3	20.2	-71.9	2.2
2026-01-14 06:29:20.737604	153.6	19.9	-72.4	2.7
2026-01-14 06:29:22.994942	154.0	19.7	-73.3	4.3
2026-01-14 06:29:25.247827	154.3	19.4	-72.8	4.6
2026-01-14 06:29:27.501324	154.6	19.2	-71.9	2.4
2026-01-14 06:29:29.754019	154.9	18.9	-72.9	3.8
2026-01-14 06:29:32.007639	155.2	18.7	-72.6	2.7
2026-01-14 06:29:34.261397	155.5	18.5	-71.7	0.4
2026-01-14 06:29:36.516788	155.8	18.2	-72.6	1.9
2026-01-14 06:29:38.770536	156.1	18.0	-72.8	2.2
2026-01-14 06:29:41.023700	156.4	17.8	-73.5	4.7
2026-01-14 06:29:43.275858	156.7	17.5	-73.2	4.6
2026-01-14 06:29:45.531132	156.9	17.3	-74.2	4.1
2026-01-14 06:29:47.783254	157.2	17.1	-73.1	2.7
2026-01-14 06:29:50.034675	157.5	16.9	-73.5	2.7
2026-01-14 06:29:52.288713	157.7	16.6	-73.8	1.6
2026-01-14 06:29:54.542547	158.0	16.4	-72.2	0.0
2026-01-14 06:29:56.795279	158.3	16.2	-73.0	1.1
2026-01-14 06:29:59.048173	158.5	16.0	-72.9	1.6
2026-01-14 06:30:01.302814	158.8	15.8	-73.3	1.2
2026-01-14 06:30:03.555599	159.0	15.5	-72.6	0.0
2026-01-14 06:30:05.809401	159.2	15.3	-72.8	0.7
2026-01-14 06:30:08.063005	159.5	15.1	-73.7	3.1
2026-01-14 06:30:10.317793	159.7	14.9	-74.1	1.7
2026-01-14 06:30:12.571877	160.0	14.7	-73.7	2.8
2026-01-14 06:30:14.822543	160.2	14.5	-73.7	2.9
2026-01-14 06:30:17.077010	160.4	14.3	-74.6	4.7
2026-01-14 06:30:19.328673	160.6	14.1	-74.5	3.6
2026-01-14 06:30:21.581612	160.9	13.9	-74.6	2.4
2026-01-14 06:30:23.833915	161.1	13.7	-74.7	1.8
2026-01-14 06:30:26.087377	161.3	13.5	-74.9	2.3
2026-01-14 06:30:28.342277	161.5	13.3	-74.7	3.3
2026-01-14 06:30:30.598252	161.7	13.1	-74.5	2.6
2026-01-14 06:30:32.851691	161.9	12.9	-74.4	1.4
2026-01-14 06:30:35.106373	162.1	12.7	-75.3	3.9
2026-01-14 06:30:37.359830	162.3	12.5	-74.8	2.0
2026-01-14 06:30:39.610426	162.5	12.3	-74.9	3.3
2026-01-14 06:30:41.865202	162.7	12.1	-74.9	1.6
2026-01-14 06:30:44.117155	162.9	11.9	-74.5	3.2
2026-01-14 06:30:46.371696	163.1	11.7	-74.9	3.1
2026-01-14 06:30:48.623475	163.3	11.5	-75.1	1.7
2026-01-14 06:30:50.876019	163.5	11.3	-74.9	1.7
2026-01-14 06:30:53.126940	163.7	11.1	-75.0	2.2
2026-01-14 06:30:55.381384	163.9	10.9	-75.0	0.0
2026-01-14 06:30:57.634070	164.0	10.8	-74.0	0.0
2026-01-14 06:30:59.889317	164.2	10.6	-74.2	0.0
2026-01-14 06:31:02.142820	164.4	10.4	-75.9	0.0
2026-01-14 06:31:04.395643	164.6	10.2	-80.8	0.0
#Closed at: 2026-01-14 06:21:02.395155