passes_logs/2026/01/14/planumMaritime01/planumMaritime01__20260114_114851_METEOR-M2_4_rec.log

#Pass ID: 20260114_114851_METEOR-M2 4
#Satellite: METEOR-M2 4
#Configuration: METEOR-M2 4
#Start time: 2026-01-14 11:48:56.914677

#LorettStation: 1.0.0 05.05.2024
#Station: planumMaritime01
#Location: 37.49445 lon 55.92918 lat
#TLE: 1 59051U 24039A   26012.93756097  .00000021  00000+0  29173-4 0  9993
#TLE: 2 59051  98.6810 334.3643 0005973 258.1895 101.8613 14.22407037 97198

#Time	Az	El	Level	SNR
2026-01-14 11:48:59.091644	178.3	10.2	-81.5	0.0
2026-01-14 11:49:01.359755	178.4	10.4	-79.8	0.1
2026-01-14 11:49:03.629653	178.5	10.6	-79.0	4.6
2026-01-14 11:49:05.901518	178.6	10.8	-78.4	7.2
2026-01-14 11:49:08.171696	178.7	11.0	-77.7	7.1
2026-01-14 11:49:10.443164	178.8	11.2	-78.4	6.3
2026-01-14 11:49:12.709705	178.9	11.4	-78.3	6.3
2026-01-14 11:49:14.980814	179.0	11.6	-78.0	7.5
2026-01-14 11:49:17.255422	179.1	11.8	-78.2	7.1
2026-01-14 11:49:19.527930	179.2	12.0	-78.3	7.2
2026-01-14 11:49:21.804405	179.3	12.2	-78.2	8.9
2026-01-14 11:49:24.080523	179.4	12.4	-77.7	8.3
2026-01-14 11:49:26.354183	179.5	12.7	-77.3	7.1
2026-01-14 11:49:28.626283	179.6	12.9	-77.6	8.1
2026-01-14 11:49:30.900316	179.7	13.1	-77.5	8.7
2026-01-14 11:49:33.171579	179.8	13.3	-77.6	8.6
2026-01-14 11:49:35.430240	180.0	13.5	-77.6	9.2
2026-01-14 11:49:37.690379	180.1	13.8	-77.4	8.5
2026-01-14 11:49:39.948616	180.2	14.0	-77.1	8.6
2026-01-14 11:49:42.210716	180.3	14.2	-77.5	8.2
2026-01-14 11:49:44.470076	180.4	14.4	-77.2	8.3
2026-01-14 11:49:46.731545	180.5	14.7	-77.3	8.8
2026-01-14 11:49:49.004790	180.7	14.9	-77.5	6.2
2026-01-14 11:49:51.277760	180.8	15.1	-77.5	8.5
2026-01-14 11:49:53.549607	180.9	15.4	-77.2	8.2
2026-01-14 11:49:55.818775	181.0	15.6	-76.8	5.7
2026-01-14 11:49:58.088003	181.2	15.9	-77.6	8.7
2026-01-14 11:50:00.358985	181.3	16.1	-77.3	8.4
2026-01-14 11:50:02.622276	181.4	16.4	-76.9	8.3
2026-01-14 11:50:04.889373	181.6	16.6	-77.2	7.3
2026-01-14 11:50:07.159722	181.7	16.9	-77.4	6.8
2026-01-14 11:50:09.425420	181.9	17.1	-76.8	6.6
2026-01-14 11:50:11.692898	182.0	17.4	-77.4	7.8
2026-01-14 11:50:13.967038	182.1	17.6	-76.8	7.1
2026-01-14 11:50:16.232275	182.3	17.9	-77.0	6.9
2026-01-14 11:50:18.502426	182.4	18.2	-77.1	7.1
2026-01-14 11:50:20.773279	182.6	18.4	-77.2	5.8
2026-01-14 11:50:23.043274	182.8	18.7	-76.9	8.9
2026-01-14 11:50:25.309116	182.9	19.0	-77.3	8.3
2026-01-14 11:50:27.583605	183.1	19.3	-76.7	8.3
2026-01-14 11:50:29.854192	183.2	19.5	-75.6	6.2
2026-01-14 11:50:32.123753	183.4	19.8	-76.1	6.6
2026-01-14 11:50:34.393609	183.6	20.1	-76.5	7.3
2026-01-14 11:50:36.660902	183.7	20.4	-77.0	8.6
2026-01-14 11:50:38.931127	183.9	20.7	-77.1	7.6
2026-01-14 11:50:41.206960	184.1	21.0	-76.9	8.2
2026-01-14 11:50:43.483677	184.3	21.3	-76.8	7.3
2026-01-14 11:50:45.757722	184.5	21.6	-76.8	8.7
2026-01-14 11:50:48.032951	184.7	21.9	-76.3	7.1
2026-01-14 11:50:50.307391	184.9	22.2	-76.2	7.3
2026-01-14 11:50:52.582487	185.1	22.5	-76.0	6.0
2026-01-14 11:50:54.855581	185.3	22.8	-76.3	7.1
2026-01-14 11:50:57.130076	185.5	23.1	-76.9	8.9
2026-01-14 11:50:59.409272	185.7	23.5	-76.4	6.9
2026-01-14 11:51:01.682309	185.9	23.8	-76.7	8.2
2026-01-14 11:51:03.959310	186.1	24.1	-76.7	8.0
2026-01-14 11:51:06.232593	186.3	24.5	-77.2	9.0
2026-01-14 11:51:08.512275	186.6	24.8	-77.2	8.2
2026-01-14 11:51:10.790139	186.8	25.1	-76.8	8.8
2026-01-14 11:51:13.057789	187.0	25.5	-77.1	8.8
2026-01-14 11:51:15.322660	187.3	25.8	-77.1	9.7
2026-01-14 11:51:17.585983	187.5	26.2	-77.1	7.7
2026-01-14 11:51:19.849270	187.8	26.6	-76.7	9.5
2026-01-14 11:51:22.114627	188.0	26.9	-77.0	9.7
2026-01-14 11:51:24.380917	188.3	27.3	-77.0	6.8
2026-01-14 11:51:26.643503	188.6	27.7	-77.1	8.3
2026-01-14 11:51:28.912035	188.8	28.0	-77.2	7.3
2026-01-14 11:51:31.173509	189.1	28.4	-77.0	8.3
2026-01-14 11:51:33.435369	189.4	28.8	-77.6	9.2
2026-01-14 11:51:35.708941	189.7	29.2	-77.3	8.7
2026-01-14 11:51:37.984125	190.0	29.6	-77.2	8.4
2026-01-14 11:51:40.254346	190.3	30.0	-77.1	8.6
2026-01-14 11:51:42.528801	190.6	30.4	-78.0	11.0
2026-01-14 11:51:44.800594	190.9	30.8	-77.2	10.2
2026-01-14 11:51:47.074154	191.3	31.2	-77.4	10.8
2026-01-14 11:51:49.348451	191.6	31.6	-77.8	8.9
2026-01-14 11:51:51.618802	192.0	32.1	-77.8	10.5
2026-01-14 11:51:53.892007	192.3	32.5	-77.7	9.9
2026-01-14 11:51:56.166419	192.7	32.9	-77.8	10.3
2026-01-14 11:51:58.442114	193.1	33.4	-78.1	9.9
2026-01-14 11:52:00.714850	193.5	33.8	-78.1	9.9
2026-01-14 11:52:02.990262	193.9	34.2	-78.4	10.7
2026-01-14 11:52:05.267290	194.3	34.7	-78.0	10.2
2026-01-14 11:52:07.542834	194.7	35.2	-78.4	11.9
2026-01-14 11:52:09.818255	195.2	35.6	-78.0	11.6
2026-01-14 11:52:12.080679	195.6	36.1	-78.0	11.3
2026-01-14 11:52:14.342789	196.1	36.6	-78.0	11.7
2026-01-14 11:52:16.603267	196.5	37.0	-78.0	11.9
2026-01-14 11:52:18.869386	197.0	37.5	-78.5	12.2
2026-01-14 11:52:21.143278	197.5	38.0	-78.1	11.4
2026-01-14 11:52:23.416806	198.0	38.5	-78.1	12.2
2026-01-14 11:52:25.697667	198.6	39.0	-78.1	12.1
2026-01-14 11:52:27.974027	199.1	39.5	-78.2	12.4
2026-01-14 11:52:30.251400	199.7	40.0	-78.6	12.7
2026-01-14 11:52:32.528009	200.3	40.5	-78.7	12.9
2026-01-14 11:52:34.803101	200.9	41.0	-78.7	12.6
2026-01-14 11:52:37.077869	201.5	41.6	-78.6	12.1
2026-01-14 11:52:39.352213	202.1	42.1	-78.9	12.4
2026-01-14 11:52:41.632734	202.8	42.6	-78.9	12.0
2026-01-14 11:52:43.909808	203.5	43.1	-78.9	12.7
2026-01-14 11:52:46.184240	204.2	43.7	-78.8	12.5
2026-01-14 11:52:48.461578	204.9	44.2	-78.6	12.1
2026-01-14 11:52:50.729222	205.7	44.7	-78.9	12.7
2026-01-14 11:52:52.998325	206.5	45.3	-79.4	11.9
2026-01-14 11:52:55.264543	207.3	45.8	-79.2	11.2
2026-01-14 11:52:57.531370	208.1	46.4	-79.3	10.9
2026-01-14 11:52:59.800954	209.0	46.9	-79.9	10.7
2026-01-14 11:53:02.078079	209.8	47.4	-79.8	10.3
2026-01-14 11:53:04.356355	210.8	48.0	-80.2	9.9
2026-01-14 11:53:06.625774	211.7	48.5	-79.7	9.4
2026-01-14 11:53:08.892131	212.7	49.0	-79.8	9.2
2026-01-14 11:53:11.157122	213.7	49.6	-79.8	9.9
2026-01-14 11:53:13.421690	214.8	50.1	-79.3	9.5
2026-01-14 11:53:15.685069	215.9	50.6	-79.6	10.7
2026-01-14 11:53:17.947843	217.0	51.1	-79.8	10.6
2026-01-14 11:53:20.209382	218.2	51.7	-79.8	10.1
2026-01-14 11:53:22.472783	219.4	52.2	-79.6	9.8
2026-01-14 11:53:24.734759	220.6	52.7	-79.5	8.3
2026-01-14 11:53:27.001688	221.9	53.1	-80.0	9.8
2026-01-14 11:53:29.263105	223.3	53.6	-80.3	10.0
2026-01-14 11:53:31.527105	224.7	54.1	-80.2	9.2
2026-01-14 11:53:33.793267	226.1	54.5	-80.4	8.3
2026-01-14 11:53:36.062903	227.6	55.0	-80.4	7.7
2026-01-14 11:53:38.328776	229.1	55.4	-80.5	9.2
2026-01-14 11:53:40.597006	230.6	55.8	-80.3	8.6
2026-01-14 11:53:42.863112	232.2	56.2	-80.1	9.7
2026-01-14 11:53:45.127356	233.9	56.6	-80.1	9.6
2026-01-14 11:53:47.393622	235.6	56.9	-80.1	10.5
2026-01-14 11:53:49.662714	237.3	57.2	-80.1	9.7
2026-01-14 11:53:51.933346	239.1	57.5	-80.3	9.2
2026-01-14 11:53:54.207719	240.9	57.8	-79.9	9.0
2026-01-14 11:53:56.480473	242.8	58.1	-80.2	9.4
2026-01-14 11:53:58.750303	244.6	58.3	-79.8	8.4
2026-01-14 11:54:01.023070	246.6	58.5	-80.5	8.9
2026-01-14 11:54:03.293751	248.5	58.6	-80.1	7.0
2026-01-14 11:54:05.566062	250.5	58.8	-80.0	8.3
2026-01-14 11:54:07.838217	252.4	58.9	-79.6	7.4
2026-01-14 11:54:10.111964	254.4	59.0	-79.3	6.5
2026-01-14 11:54:12.371910	256.4	59.0	-80.1	8.9
2026-01-14 11:54:14.632591	258.4	59.0	-79.9	7.7
2026-01-14 11:54:16.892329	260.4	59.0	-79.2	6.0
2026-01-14 11:54:19.153683	262.4	58.9	-79.0	4.8
2026-01-14 11:54:21.413748	264.4	58.9	-79.6	6.6
2026-01-14 11:54:23.677929	266.3	58.7	-79.6	6.4
2026-01-14 11:54:25.934735	268.3	58.6	-79.5	6.7
2026-01-14 11:54:28.194782	270.2	58.4	-79.0	5.4
2026-01-14 11:54:30.454525	272.1	58.2	-78.7	5.6
2026-01-14 11:54:32.709688	273.9	58.0	-78.1	4.7
2026-01-14 11:54:34.978884	275.8	57.7	-78.2	4.7
2026-01-14 11:54:37.253270	277.6	57.5	-78.0	4.3
2026-01-14 11:54:39.528195	279.3	57.1	-77.8	1.5
2026-01-14 11:54:41.806143	281.1	56.8	-78.0	0.9
2026-01-14 11:54:44.078971	282.8	56.5	-77.6	0.0
2026-01-14 11:54:46.355365	284.4	56.1	-77.4	2.3
2026-01-14 11:54:48.631619	286.0	55.7	-77.0	1.3
2026-01-14 11:54:50.911189	287.6	55.3	-76.0	0.2
2026-01-14 11:54:53.182290	289.1	54.9	-76.7	0.6
2026-01-14 11:54:55.454417	290.5	54.4	-76.2	0.0
2026-01-14 11:54:57.724680	291.9	54.0	-76.5	1.3
2026-01-14 11:54:59.997861	293.3	53.5	-77.2	3.2
2026-01-14 11:55:02.276070	294.6	53.0	-77.0	0.2
2026-01-14 11:55:04.546965	295.9	52.5	-74.3	0.0
2026-01-14 11:55:06.820966	297.1	52.0	-76.4	2.1
2026-01-14 11:55:09.095639	298.3	51.5	-76.9	0.0
2026-01-14 11:55:11.369382	299.5	51.0	-75.9	0.0
2026-01-14 11:55:13.641946	300.6	50.5	-77.1	1.2
2026-01-14 11:55:15.915290	301.7	50.0	-75.2	0.0
2026-01-14 11:55:18.187885	302.8	49.4	-77.3	0.0
2026-01-14 11:55:20.463332	303.8	48.9	-76.2	0.0
2026-01-14 11:55:22.736653	304.8	48.4	-76.6	0.0
2026-01-14 11:55:25.010119	305.7	47.8	-75.2	0.0
2026-01-14 11:55:27.282547	306.6	47.3	-75.6	4.5
2026-01-14 11:55:29.556929	307.5	46.8	-75.3	0.0
2026-01-14 11:55:31.829687	308.3	46.2	-76.6	2.8
2026-01-14 11:55:34.098181	309.2	45.7	-75.7	3.3
2026-01-14 11:55:36.373470	310.0	45.1	-75.8	5.5
2026-01-14 11:55:38.647210	310.7	44.6	-76.5	4.5
2026-01-14 11:55:40.920558	311.5	44.1	-76.7	4.3
2026-01-14 11:55:43.192360	312.2	43.6	-77.1	6.0
2026-01-14 11:55:45.469400	312.9	43.0	-74.9	0.4
2026-01-14 11:55:47.732852	313.6	42.5	-76.7	3.7
2026-01-14 11:55:49.999700	314.2	42.0	-75.8	3.5
2026-01-14 11:55:52.267931	314.9	41.5	-75.2	1.5
2026-01-14 11:55:54.533919	315.5	41.0	-76.2	5.3
2026-01-14 11:55:56.795570	316.1	40.4	-76.0	2.4
2026-01-14 11:55:59.056277	316.6	39.9	-75.6	2.5
2026-01-14 11:56:01.319342	317.2	39.4	-76.0	4.1
2026-01-14 11:56:03.582533	317.7	38.9	-76.3	2.0
2026-01-14 11:56:05.840767	318.3	38.5	-75.2	2.4
2026-01-14 11:56:08.107229	318.8	38.0	-75.3	1.8
2026-01-14 11:56:10.375370	319.3	37.5	-75.5	2.6
2026-01-14 11:56:12.642764	319.7	37.0	-75.3	2.6
2026-01-14 11:56:14.915384	320.2	36.5	-75.7	4.4
2026-01-14 11:56:17.182251	320.7	36.1	-75.1	3.5
2026-01-14 11:56:19.450442	321.1	35.6	-74.8	2.5
2026-01-14 11:56:21.714892	321.5	35.1	-75.0	0.8
2026-01-14 11:56:23.982087	322.0	34.7	-74.3	2.1
2026-01-14 11:56:26.250530	322.4	34.2	-74.5	4.4
2026-01-14 11:56:28.517997	322.8	33.8	-74.3	3.0
2026-01-14 11:56:30.786792	323.2	33.4	-74.4	1.6
2026-01-14 11:56:33.052785	323.5	32.9	-73.8	0.3
2026-01-14 11:56:35.325423	323.9	32.5	-73.0	0.0
2026-01-14 11:56:37.593803	324.3	32.1	-74.3	0.0
2026-01-14 11:56:39.868054	324.6	31.6	-73.4	1.7
2026-01-14 11:56:42.146278	324.9	31.2	-73.4	0.0
2026-01-14 11:56:44.419146	325.3	30.8	-73.6	0.0
2026-01-14 11:56:46.682324	325.6	30.4	-73.4	0.9
2026-01-14 11:56:48.939113	325.9	30.0	-73.6	0.0
2026-01-14 11:56:51.198190	326.2	29.6	-73.5	1.1
2026-01-14 11:56:53.456978	326.5	29.2	-74.3	2.8
2026-01-14 11:56:55.720115	326.8	28.8	-73.9	3.8
2026-01-14 11:56:57.984764	327.1	28.5	-73.7	0.7
2026-01-14 11:57:00.240979	327.4	28.1	-73.0	0.0
2026-01-14 11:57:02.501167	327.7	27.7	-72.4	0.0
2026-01-14 11:57:04.764789	327.9	27.4	-72.6	0.0
2026-01-14 11:57:07.020894	328.2	27.0	-72.8	0.0
2026-01-14 11:57:09.293933	328.4	26.6	-72.7	0.0
2026-01-14 11:57:11.568122	328.7	26.3	-71.7	0.0
2026-01-14 11:57:13.836781	328.9	25.9	-72.5	0.0
2026-01-14 11:57:16.114198	329.2	25.6	-71.5	0.0
2026-01-14 11:57:18.390606	329.4	25.2	-72.1	0.0
2026-01-14 11:57:20.667083	329.7	24.9	-72.2	0.0
2026-01-14 11:57:22.943676	329.9	24.5	-72.5	0.0
2026-01-14 11:57:25.219875	330.1	24.2	-72.3	0.0
2026-01-14 11:57:27.493543	330.3	23.9	-71.4	0.0
2026-01-14 11:57:29.770063	330.5	23.6	-72.6	0.0
2026-01-14 11:57:32.048683	330.7	23.2	-72.8	0.0
2026-01-14 11:57:34.324065	331.0	22.9	-71.6	0.0
2026-01-14 11:57:36.601752	331.2	22.6	-71.8	0.0
2026-01-14 11:57:38.876368	331.4	22.3	-71.8	0.0
2026-01-14 11:57:41.153168	331.5	22.0	-71.5	0.0
2026-01-14 11:57:43.426231	331.7	21.7	-70.1	0.0
2026-01-14 11:57:45.696160	331.9	21.4	-72.7	0.0
2026-01-14 11:57:47.969145	332.1	21.1	-70.9	0.0
2026-01-14 11:57:50.242377	332.3	20.8	-71.6	0.0
2026-01-14 11:57:52.513696	332.5	20.5	-70.8	0.0
2026-01-14 11:57:54.784102	332.6	20.2	-71.0	0.0
2026-01-14 11:57:57.056699	332.8	19.9	-69.3	0.0
2026-01-14 11:57:59.322387	333.0	19.7	-71.3	0.0
2026-01-14 11:58:01.579210	333.1	19.4	-70.5	0.0
2026-01-14 11:58:03.837136	333.3	19.1	-71.6	0.0
2026-01-14 11:58:06.096535	333.5	18.8	-69.6	0.0
2026-01-14 11:58:08.356209	333.6	18.6	-71.5	0.0
2026-01-14 11:58:10.613485	333.8	18.3	-70.0	0.0
2026-01-14 11:58:12.871265	333.9	18.0	-69.7	0.0
2026-01-14 11:58:15.132158	334.1	17.8	-70.1	0.0
2026-01-14 11:58:17.391970	334.2	17.5	-71.0	0.0
2026-01-14 11:58:19.653903	334.4	17.3	-70.8	0.0
2026-01-14 11:58:21.918703	334.5	17.0	-70.4	0.0
2026-01-14 11:58:24.183260	334.6	16.8	-70.3	0.0
2026-01-14 11:58:26.449289	334.8	16.5	-69.2	0.0
2026-01-14 11:58:28.719174	334.9	16.3	-69.8	0.0
2026-01-14 11:58:30.986977	335.1	16.0	-68.8	0.0
2026-01-14 11:58:33.250209	335.2	15.8	-70.0	0.0
2026-01-14 11:58:35.517546	335.3	15.5	-70.9	0.0
2026-01-14 11:58:37.783691	335.4	15.3	-70.7	0.0
2026-01-14 11:58:40.038843	335.6	15.1	-69.8	0.0
2026-01-14 11:58:42.293021	335.7	14.8	-71.6	0.0
2026-01-14 11:58:44.545700	335.8	14.6	-71.5	0.0
2026-01-14 11:58:46.797602	335.9	14.4	-72.5	0.0
2026-01-14 11:58:49.049294	336.0	14.2	-71.3	0.0
2026-01-14 11:58:51.298207	336.2	13.9	-71.5	0.0
2026-01-14 11:58:53.551788	336.3	13.7	-72.8	0.0
2026-01-14 11:58:55.810909	336.4	13.5	-72.9	0.0
2026-01-14 11:58:58.070210	336.5	13.3	-73.9	0.0
2026-01-14 11:59:00.328400	336.6	13.1	-75.4	0.0
2026-01-14 11:59:02.585784	336.7	12.8	-73.8	0.0
2026-01-14 11:59:04.842010	336.8	12.6	-75.1	0.0
2026-01-14 11:59:07.113335	336.9	12.4	-74.6	0.0
2026-01-14 11:59:09.384865	337.0	12.2	-74.9	0.0
2026-01-14 11:59:11.658021	337.2	12.0	-74.3	0.0
2026-01-14 11:59:13.929321	337.3	11.8	-74.6	0.0
2026-01-14 11:59:16.201615	337.4	11.6	-74.6	0.0
2026-01-14 11:59:18.474168	337.5	11.4	-75.0	0.0
2026-01-14 11:59:20.744138	337.6	11.2	-74.6	0.0
2026-01-14 11:59:23.010075	337.7	11.0	-72.9	0.0
2026-01-14 11:59:25.282024	337.7	10.8	-71.9	0.0
2026-01-14 11:59:27.554926	337.8	10.6	-74.1	0.0
2026-01-14 11:59:29.828406	337.9	10.4	-75.2	0.0
2026-01-14 11:59:32.100987	338.0	10.2	-79.4	0.0
#Closed at: 2026-01-14 11:48:51.919676