passes_logs/2026/01/14/planumMaritime01/planumMaritime01__20260114_080109_METOP-B_rec.log

#Pass ID: 20260114_080109_METOP-B
#Satellite: METOP-B
#Configuration: METOP-B
#Start time: 2026-01-14 08:01:14.954702

#LorettStation: 1.0.0 05.05.2024
#Station: planumMaritime01
#Location: 37.49445 lon 55.92918 lat
#TLE: 1 38771U 12049A   26012.90633838  .00000094  00000+0  63105-4 0  9994
#TLE: 2 38771  98.6755  67.3301 0003319  81.0772 279.0781 14.21421823691209

#Time	Az	El	Level	SNR
2026-01-14 08:01:17.131042	8.7	10.2	-63.7	0.0
2026-01-14 08:01:19.387179	8.5	10.4	-63.0	0.0
2026-01-14 08:01:21.643520	8.4	10.6	-62.6	0.0
2026-01-14 08:01:23.897724	8.3	10.8	-63.1	0.0
2026-01-14 08:01:26.152333	8.2	10.9	-62.1	0.0
2026-01-14 08:01:28.403570	8.0	11.1	-62.7	0.0
2026-01-14 08:01:30.656386	7.9	11.3	-60.8	0.0
2026-01-14 08:01:32.910424	7.8	11.5	-61.8	0.0
2026-01-14 08:01:35.163031	7.7	11.7	-62.0	0.0
2026-01-14 08:01:37.417008	7.5	11.9	-62.5	0.0
2026-01-14 08:01:39.671469	7.4	12.1	-61.7	0.0
2026-01-14 08:01:41.926336	7.2	12.3	-62.5	0.0
2026-01-14 08:01:44.181655	7.1	12.5	-62.9	0.0
2026-01-14 08:01:46.434099	7.0	12.8	-63.4	0.0
2026-01-14 08:01:48.686642	6.8	13.0	-59.1	0.0
2026-01-14 08:01:50.940944	6.7	13.2	-60.5	0.0
2026-01-14 08:01:53.196769	6.5	13.4	-63.0	0.0
2026-01-14 08:01:55.449953	6.4	13.6	-64.1	0.0
2026-01-14 08:01:57.704082	6.2	13.8	-60.3	0.0
2026-01-14 08:01:59.954632	6.1	14.0	-63.7	0.0
2026-01-14 08:02:02.209941	5.9	14.2	-62.5	0.0
2026-01-14 08:02:04.465923	5.7	14.5	-65.0	0.0
2026-01-14 08:02:06.719623	5.6	14.7	-64.0	0.0
2026-01-14 08:02:08.972148	5.4	14.9	-63.9	0.0
2026-01-14 08:02:11.226849	5.3	15.1	-61.6	0.0
2026-01-14 08:02:13.479704	5.1	15.4	-60.3	0.0
2026-01-14 08:02:15.731626	4.9	15.6	-65.6	0.0
2026-01-14 08:02:17.985692	4.7	15.8	-64.6	0.0
2026-01-14 08:02:20.238522	4.5	16.1	-64.2	0.0
2026-01-14 08:02:22.493194	4.4	16.3	-63.8	0.0
2026-01-14 08:02:24.748164	4.2	16.5	-61.1	0.0
2026-01-14 08:02:27.002120	4.0	16.8	-63.3	0.0
2026-01-14 08:02:29.254844	3.8	17.0	-63.6	0.0
2026-01-14 08:02:31.509910	3.6	17.3	-61.7	0.0
2026-01-14 08:02:33.763294	3.4	17.5	-62.7	0.0
2026-01-14 08:02:36.017861	3.2	17.7	-63.6	0.0
2026-01-14 08:02:38.269944	3.0	18.0	-62.1	0.0
2026-01-14 08:02:40.523870	2.8	18.3	-62.9	0.0
2026-01-14 08:02:42.773081	2.6	18.5	-63.0	0.0
2026-01-14 08:02:45.026316	2.4	18.8	-63.7	0.0
2026-01-14 08:02:47.280459	2.1	19.0	-63.5	0.0
2026-01-14 08:02:49.531505	1.9	19.3	-62.6	0.0
2026-01-14 08:02:51.784868	1.7	19.5	-61.5	0.0
2026-01-14 08:02:54.037018	1.5	19.8	-61.5	0.0
2026-01-14 08:02:56.293423	1.2	20.1	-63.5	0.0
2026-01-14 08:02:58.543706	1.0	20.3	-62.8	0.0
2026-01-14 08:03:00.794715	0.7	20.6	-64.5	0.0
2026-01-14 08:03:03.045827	0.5	20.9	-58.8	0.0
2026-01-14 08:03:05.299844	0.2	21.2	-63.2	0.0
2026-01-14 08:03:07.554968	360.0	21.4	-64.3	0.0
2026-01-14 08:03:09.809348	359.7	21.7	-64.6	0.0
2026-01-14 08:03:12.059719	359.4	22.0	-61.1	0.0
2026-01-14 08:03:14.314948	359.2	22.3	-64.4	0.0
2026-01-14 08:03:16.566696	358.9	22.6	-64.4	0.0
2026-01-14 08:03:18.821985	358.6	22.9	-64.6	0.0
2026-01-14 08:03:21.073364	358.3	23.2	-63.7	0.0
2026-01-14 08:03:23.332045	358.0	23.5	-65.4	0.0
2026-01-14 08:03:25.579722	357.7	23.8	-65.3	0.0
2026-01-14 08:03:27.831629	357.4	24.1	-66.1	0.0
2026-01-14 08:03:30.082517	357.1	24.4	-64.0	0.0
2026-01-14 08:03:32.334363	356.8	24.7	-64.1	0.0
2026-01-14 08:03:34.587063	356.4	25.0	-62.4	0.0
2026-01-14 08:03:36.840487	356.1	25.3	-64.1	0.0
2026-01-14 08:03:39.092114	355.8	25.6	-66.2	0.0
2026-01-14 08:03:41.344360	355.4	26.0	-65.8	0.0
2026-01-14 08:03:43.596791	355.1	26.3	-67.8	0.0
2026-01-14 08:03:45.850073	354.7	26.6	-64.9	0.0
2026-01-14 08:03:48.102743	354.3	26.9	-65.5	0.0
2026-01-14 08:03:50.355645	353.9	27.3	-65.1	0.0
2026-01-14 08:03:52.608742	353.6	27.6	-62.0	0.0
2026-01-14 08:03:54.862740	353.2	27.9	-61.5	0.0
2026-01-14 08:03:57.114100	352.8	28.3	-67.0	0.0
2026-01-14 08:03:59.366522	352.3	28.6	-66.4	0.0
2026-01-14 08:04:01.621563	351.9	28.9	-65.8	0.0
2026-01-14 08:04:03.873534	351.5	29.3	-65.6	0.0
2026-01-14 08:04:06.126906	351.0	29.6	-65.9	0.0
2026-01-14 08:04:08.384338	350.6	30.0	-66.9	0.0
2026-01-14 08:04:10.637998	350.1	30.3	-67.4	0.0
2026-01-14 08:04:12.890461	349.7	30.7	-67.2	0.0
2026-01-14 08:04:15.144193	349.2	31.0	-66.4	0.0
2026-01-14 08:04:17.396307	348.7	31.4	-66.2	0.0
2026-01-14 08:04:19.650729	348.2	31.8	-66.0	0.0
2026-01-14 08:04:21.904658	347.7	32.1	-64.2	0.0
2026-01-14 08:04:24.157064	347.1	32.5	-67.7	0.0
2026-01-14 08:04:26.411614	346.6	32.8	-68.1	0.0
2026-01-14 08:04:28.665139	346.1	33.2	-67.4	0.0
2026-01-14 08:04:30.920589	345.5	33.6	-67.8	0.0
2026-01-14 08:04:33.175082	344.9	34.0	-68.0	0.0
2026-01-14 08:04:35.428751	344.3	34.3	-66.9	0.0
2026-01-14 08:04:37.680002	343.7	34.7	-65.7	0.0
2026-01-14 08:04:39.933289	343.1	35.1	-65.7	0.0
2026-01-14 08:04:42.187329	342.5	35.4	-67.2	0.0
2026-01-14 08:04:44.438286	341.8	35.8	-67.9	0.0
2026-01-14 08:04:46.693766	341.2	36.2	-67.9	1.1
2026-01-14 08:04:48.944025	340.5	36.6	-67.6	1.3
2026-01-14 08:04:51.200005	339.8	36.9	-69.3	1.3
2026-01-14 08:04:53.450982	339.1	37.3	-69.7	3.2
2026-01-14 08:04:55.704714	338.4	37.7	-68.6	2.1
2026-01-14 08:04:57.959016	337.6	38.0	-69.4	1.4
2026-01-14 08:05:00.211700	336.8	38.4	-70.0	1.8
2026-01-14 08:05:02.464140	336.1	38.8	-69.3	1.0
2026-01-14 08:05:04.717058	335.3	39.1	-69.8	3.5
2026-01-14 08:05:06.969092	334.5	39.5	-69.3	0.0
2026-01-14 08:05:09.222947	333.6	39.9	-70.8	4.3
2026-01-14 08:05:11.475192	332.8	40.2	-70.9	5.3
2026-01-14 08:05:13.726656	331.9	40.6	-70.6	4.9
2026-01-14 08:05:15.978284	331.0	40.9	-70.8	3.9
2026-01-14 08:05:18.231166	330.1	41.2	-70.3	3.1
2026-01-14 08:05:20.482113	329.2	41.6	-71.1	5.6
2026-01-14 08:05:22.731751	328.2	41.9	-71.0	5.5
2026-01-14 08:05:24.984942	327.3	42.2	-71.1	4.9
2026-01-14 08:05:27.237842	326.3	42.6	-70.2	2.6
2026-01-14 08:05:29.490108	325.3	42.9	-69.9	5.1
2026-01-14 08:05:31.740710	324.3	43.2	-70.3	4.6
2026-01-14 08:05:33.995624	323.2	43.5	-70.4	4.3
2026-01-14 08:05:36.246887	322.1	43.7	-71.3	7.2
2026-01-14 08:05:38.499102	321.1	44.0	-70.7	3.2
2026-01-14 08:05:40.749887	320.0	44.3	-70.8	5.6
2026-01-14 08:05:43.004822	318.8	44.6	-71.6	1.2
2026-01-14 08:05:45.256832	317.7	44.8	-71.0	3.5
2026-01-14 08:05:47.510901	316.5	45.0	-70.9	5.3
2026-01-14 08:05:49.762004	315.4	45.3	-72.0	4.2
2026-01-14 08:05:52.015962	314.2	45.5	-70.7	0.0
2026-01-14 08:05:54.267459	313.0	45.7	-70.8	3.5
2026-01-14 08:05:56.518518	311.8	45.8	-71.8	4.3
2026-01-14 08:05:58.768242	310.5	46.0	-71.2	6.0
2026-01-14 08:06:01.020873	309.3	46.2	-72.1	3.6
2026-01-14 08:06:03.273900	308.0	46.3	-71.3	1.6
2026-01-14 08:06:05.526192	306.7	46.4	-72.5	1.5
2026-01-14 08:06:07.778498	305.5	46.6	-72.4	1.3
2026-01-14 08:06:10.031939	304.2	46.7	-72.7	5.4
2026-01-14 08:06:12.285553	302.9	46.7	-73.2	5.4
2026-01-14 08:06:14.538139	301.6	46.8	-72.9	4.7
2026-01-14 08:06:16.792178	300.3	46.9	-72.6	4.8
2026-01-14 08:06:19.045971	299.0	46.9	-72.3	3.6
2026-01-14 08:06:21.301366	297.6	46.9	-72.7	5.7
2026-01-14 08:06:23.555137	296.3	46.9	-72.4	5.3
2026-01-14 08:06:25.809532	295.0	46.9	-71.1	4.6
2026-01-14 08:06:28.062644	293.7	46.8	-71.5	6.5
2026-01-14 08:06:30.312541	292.4	46.8	-71.3	3.5
2026-01-14 08:06:32.566494	291.1	46.7	-71.7	5.5
2026-01-14 08:06:34.817840	289.8	46.6	-71.8	3.0
2026-01-14 08:06:37.069120	288.5	46.6	-70.8	4.6
2026-01-14 08:06:39.318806	287.2	46.4	-71.8	1.3
2026-01-14 08:06:41.571022	286.0	46.3	-72.0	6.2
2026-01-14 08:06:43.821297	284.7	46.2	-72.3	5.8
2026-01-14 08:06:46.073768	283.4	46.0	-71.3	4.6
2026-01-14 08:06:48.324632	282.2	45.8	-72.2	5.8
2026-01-14 08:06:50.576517	281.0	45.6	-72.6	6.5
2026-01-14 08:06:52.828206	279.8	45.4	-72.9	4.8
2026-01-14 08:06:55.078878	278.6	45.2	-73.7	8.0
2026-01-14 08:06:57.330493	277.4	45.0	-74.1	6.9
2026-01-14 08:06:59.580732	276.3	44.8	-73.9	7.7
2026-01-14 08:07:01.832320	275.1	44.5	-72.1	4.2
2026-01-14 08:07:04.084165	274.0	44.3	-73.6	8.0
2026-01-14 08:07:06.334914	272.9	44.0	-73.1	9.0
2026-01-14 08:07:08.588050	271.8	43.7	-73.6	8.2
2026-01-14 08:07:10.838085	270.8	43.4	-73.6	8.6
2026-01-14 08:07:13.087916	269.7	43.1	-73.6	8.6
2026-01-14 08:07:15.340153	268.7	42.8	-73.0	7.3
2026-01-14 08:07:17.590761	267.7	42.5	-73.3	7.9
2026-01-14 08:07:19.844370	266.7	42.2	-73.3	8.5
2026-01-14 08:07:22.093985	265.7	41.9	-73.3	9.6
2026-01-14 08:07:24.348142	264.8	41.5	-73.8	8.8
2026-01-14 08:07:26.599444	263.9	41.2	-73.6	9.2
2026-01-14 08:07:28.851490	262.9	40.9	-73.6	9.5
2026-01-14 08:07:31.103041	262.1	40.5	-73.9	9.5
2026-01-14 08:07:33.352848	261.2	40.2	-74.0	8.8
2026-01-14 08:07:35.602963	260.3	39.8	-73.9	8.2
2026-01-14 08:07:37.853511	259.5	39.4	-73.9	8.9
2026-01-14 08:07:40.107140	258.7	39.1	-74.1	8.9
2026-01-14 08:07:42.358475	257.9	38.7	-74.3	9.5
2026-01-14 08:07:44.608909	257.1	38.4	-74.3	9.3
2026-01-14 08:07:46.862945	256.4	38.0	-73.9	9.5
2026-01-14 08:07:49.115385	255.6	37.6	-73.7	9.2
2026-01-14 08:07:51.366828	254.9	37.2	-74.3	9.5
2026-01-14 08:07:53.622650	254.2	36.9	-73.9	7.7
2026-01-14 08:07:55.874728	253.5	36.5	-74.1	9.5
2026-01-14 08:07:58.130104	252.8	36.1	-74.3	8.9
2026-01-14 08:08:00.379312	252.1	35.7	-74.3	9.1
2026-01-14 08:08:02.629908	251.5	35.4	-73.9	9.8
2026-01-14 08:08:04.879115	250.9	35.0	-73.7	9.5
2026-01-14 08:08:07.131936	250.2	34.6	-74.0	9.1
2026-01-14 08:08:09.383094	249.6	34.3	-74.2	9.5
2026-01-14 08:08:11.635349	249.0	33.9	-73.9	9.9
2026-01-14 08:08:13.888289	248.5	33.5	-74.2	9.6
2026-01-14 08:08:16.140856	247.9	33.1	-74.4	9.5
2026-01-14 08:08:18.393872	247.3	32.8	-74.6	8.6
2026-01-14 08:08:20.644880	246.8	32.4	-74.5	8.7
2026-01-14 08:08:22.894202	246.3	32.0	-74.7	9.0
2026-01-14 08:08:25.148534	245.8	31.7	-74.3	9.0
2026-01-14 08:08:27.399485	245.3	31.3	-74.2	7.7
2026-01-14 08:08:29.653608	244.8	31.0	-73.9	8.3
2026-01-14 08:08:31.906142	244.3	30.6	-74.6	9.9
2026-01-14 08:08:34.159211	243.8	30.3	-74.4	8.7
2026-01-14 08:08:36.413083	243.3	29.9	-74.5	8.2
2026-01-14 08:08:38.660882	242.9	29.6	-74.7	9.0
2026-01-14 08:08:40.912329	242.5	29.2	-74.5	7.7
2026-01-14 08:08:43.165289	242.0	28.9	-74.6	7.5
2026-01-14 08:08:45.417057	241.6	28.5	-74.5	7.4
2026-01-14 08:08:47.668774	241.2	28.2	-74.6	8.4
2026-01-14 08:08:49.923677	240.8	27.8	-74.5	8.4
2026-01-14 08:08:52.178798	240.4	27.5	-74.0	8.3
2026-01-14 08:08:54.431477	240.0	27.2	-74.0	7.7
2026-01-14 08:08:56.683792	239.6	26.8	-74.0	7.1
2026-01-14 08:08:58.937079	239.2	26.5	-74.4	7.4
2026-01-14 08:09:01.188827	238.9	26.2	-74.1	7.0
2026-01-14 08:09:03.442225	238.5	25.9	-73.7	4.5
2026-01-14 08:09:05.694180	238.2	25.5	-74.2	6.7
2026-01-14 08:09:07.942770	237.8	25.2	-75.3	7.1
2026-01-14 08:09:10.194162	237.5	24.9	-74.4	6.5
2026-01-14 08:09:12.448747	237.2	24.6	-74.5	6.0
2026-01-14 08:09:14.701535	236.8	24.3	-74.8	5.8
2026-01-14 08:09:16.951282	236.5	24.0	-74.8	6.8
2026-01-14 08:09:19.203338	236.2	23.7	-74.7	5.8
2026-01-14 08:09:21.453787	235.9	23.4	-74.6	6.4
2026-01-14 08:09:23.704308	235.6	23.1	-74.3	5.0
2026-01-14 08:09:25.956331	235.3	22.8	-74.7	5.6
2026-01-14 08:09:28.209050	235.0	22.5	-74.5	5.4
2026-01-14 08:09:30.461844	234.8	22.2	-74.6	6.0
2026-01-14 08:09:32.712812	234.5	21.9	-74.4	5.6
2026-01-14 08:09:34.961750	234.2	21.6	-74.6	5.8
2026-01-14 08:09:37.213450	233.9	21.3	-74.4	5.9
2026-01-14 08:09:39.462963	233.7	21.1	-74.9	6.9
2026-01-14 08:09:41.713208	233.4	20.8	-74.5	4.4
2026-01-14 08:09:43.965793	233.2	20.5	-74.3	5.1
2026-01-14 08:09:46.218042	232.9	20.2	-74.2	4.5
2026-01-14 08:09:48.470080	232.7	20.0	-74.5	4.2
2026-01-14 08:09:50.721176	232.5	19.7	-74.5	4.2
2026-01-14 08:09:52.972684	232.2	19.4	-74.4	2.9
2026-01-14 08:09:55.219754	232.0	19.2	-74.3	3.6
2026-01-14 08:09:57.470962	231.8	18.9	-74.5	3.3
2026-01-14 08:09:59.722787	231.5	18.7	-74.5	4.4
2026-01-14 08:10:01.973729	231.3	18.4	-74.6	3.4
2026-01-14 08:10:04.227443	231.1	18.1	-74.4	3.5
2026-01-14 08:10:06.479018	230.9	17.9	-73.9	3.1
2026-01-14 08:10:08.731085	230.7	17.6	-74.7	3.4
2026-01-14 08:10:10.983365	230.5	17.4	-74.5	3.6
2026-01-14 08:10:13.234318	230.3	17.1	-74.4	2.6
2026-01-14 08:10:15.486365	230.1	16.9	-74.5	1.8
2026-01-14 08:10:17.738054	229.9	16.7	-74.3	2.1
2026-01-14 08:10:19.992091	229.7	16.4	-74.6	4.3
2026-01-14 08:10:22.240352	229.5	16.2	-74.0	2.8
2026-01-14 08:10:24.492724	229.3	15.9	-74.7	3.6
2026-01-14 08:10:26.744317	229.2	15.7	-74.7	3.6
2026-01-14 08:10:28.997738	229.0	15.5	-74.5	4.4
2026-01-14 08:10:31.248576	228.8	15.3	-74.7	3.4
2026-01-14 08:10:33.500272	228.6	15.0	-74.5	2.8
2026-01-14 08:10:35.752336	228.5	14.8	-75.0	2.0
2026-01-14 08:10:38.003271	228.3	14.6	-74.6	3.0
2026-01-14 08:10:40.256062	228.1	14.4	-74.3	1.6
2026-01-14 08:10:42.509611	228.0	14.1	-74.2	2.6
2026-01-14 08:10:44.763182	227.8	13.9	-75.0	2.5
2026-01-14 08:10:47.014954	227.6	13.7	-74.6	1.5
2026-01-14 08:10:49.267279	227.5	13.5	-74.6	3.4
2026-01-14 08:10:51.517427	227.3	13.3	-74.1	2.1
2026-01-14 08:10:53.771222	227.2	13.1	-73.7	2.1
2026-01-14 08:10:56.024013	227.0	12.8	-73.8	1.0
2026-01-14 08:10:58.276801	226.9	12.6	-74.6	3.8
2026-01-14 08:11:00.528800	226.7	12.4	-75.0	1.5
2026-01-14 08:11:02.781470	226.6	12.2	-75.0	3.6
2026-01-14 08:11:05.032001	226.5	12.0	-74.7	2.2
2026-01-14 08:11:07.282265	226.3	11.8	-74.4	3.4
2026-01-14 08:11:09.537263	226.2	11.6	-74.4	1.2
2026-01-14 08:11:11.791454	226.1	11.4	-74.5	2.8
2026-01-14 08:11:14.041475	225.9	11.2	-74.3	0.4
2026-01-14 08:11:16.295634	225.8	11.0	-74.8	3.5
2026-01-14 08:11:18.548146	225.7	10.8	-76.8	1.9
2026-01-14 08:11:20.797851	225.5	10.6	-78.6	0.0
2026-01-14 08:11:23.053619	225.4	10.4	-79.5	0.0
2026-01-14 08:11:25.304346	225.3	10.2	-79.5	0.0
2026-01-14 08:11:27.557194	225.2	10.1	-79.3	0.0
#Closed at: 2026-01-14 08:01:09.960217