passes_logs/2026/01/14/planumMaritime01/planumMaritime01__20260114_182942_METOP-C_rec.log

#Pass ID: 20260114_182942_METOP-C
#Satellite: METOP-C
#Configuration: METOP-C
#Start time: 2026-01-14 18:29:47.224165

#LorettStation: 1.0.0 05.05.2024
#Station: planumMaritime01
#Location: 37.49445 lon 55.92918 lat
#TLE: 1 43689U 18087A   26014.12997339  .00000084  00000+0  58125-4 0  9996
#TLE: 2 43689  98.6881  76.3953 0000492 186.3195 173.7977 14.21498107372946

#Time	Az	El	Level	SNR
2026-01-14 18:29:49.382442	176.8	10.2	-73.3	0.0
2026-01-14 18:29:51.625657	176.8	10.4	-72.8	0.0
2026-01-14 18:29:53.869448	176.9	10.6	-73.1	0.0
2026-01-14 18:29:56.116710	177.0	10.8	-72.8	0.0
2026-01-14 18:29:58.364075	177.1	11.0	-73.2	1.8
2026-01-14 18:30:00.610612	177.2	11.2	-73.0	2.2
2026-01-14 18:30:02.857408	177.3	11.4	-73.6	2.4
2026-01-14 18:30:05.104198	177.4	11.6	-73.6	3.4
2026-01-14 18:30:07.346286	177.5	11.8	-72.6	2.9
2026-01-14 18:30:09.588419	177.6	12.0	-73.8	5.0
2026-01-14 18:30:11.831574	177.6	12.2	-73.5	3.1
2026-01-14 18:30:14.075833	177.7	12.4	-73.6	5.0
2026-01-14 18:30:16.323602	177.8	12.6	-73.6	4.1
2026-01-14 18:30:18.572780	177.9	12.8	-73.6	3.3
2026-01-14 18:30:20.818327	178.0	13.1	-73.4	4.8
2026-01-14 18:30:23.066504	178.1	13.3	-73.9	5.4
2026-01-14 18:30:25.311165	178.2	13.5	-71.9	3.6
2026-01-14 18:30:27.557721	178.3	13.7	-72.5	4.2
2026-01-14 18:30:29.802621	178.4	14.0	-72.7	4.4
2026-01-14 18:30:32.048903	178.6	14.2	-72.8	5.4
2026-01-14 18:30:34.297871	178.7	14.4	-72.6	2.2
2026-01-14 18:30:36.544575	178.8	14.6	-72.4	3.6
2026-01-14 18:30:38.793387	178.9	14.9	-73.0	4.4
2026-01-14 18:30:41.039250	179.0	15.1	-71.9	2.0
2026-01-14 18:30:43.288310	179.1	15.3	-72.9	2.7
2026-01-14 18:30:45.534540	179.2	15.6	-72.6	2.1
2026-01-14 18:30:47.779037	179.3	15.8	-72.1	3.5
2026-01-14 18:30:50.026052	179.5	16.1	-72.8	0.9
2026-01-14 18:30:52.269669	179.6	16.3	-73.0	3.6
2026-01-14 18:30:54.514486	179.7	16.6	-72.4	1.6
2026-01-14 18:30:56.759787	179.8	16.8	-73.0	2.5
2026-01-14 18:30:59.003695	180.0	17.1	-71.6	0.7
2026-01-14 18:31:01.245239	180.1	17.3	-72.1	2.9
2026-01-14 18:31:03.490831	180.2	17.6	-71.8	1.0
2026-01-14 18:31:05.737143	180.4	17.8	-72.5	2.9
2026-01-14 18:31:07.984973	180.5	18.1	-71.5	2.0
2026-01-14 18:31:10.230658	180.6	18.4	-71.3	1.6
2026-01-14 18:31:12.475928	180.8	18.6	-71.3	3.3
2026-01-14 18:31:14.723317	180.9	18.9	-70.9	2.8
2026-01-14 18:31:16.970694	181.1	19.2	-70.9	4.1
2026-01-14 18:31:19.214839	181.2	19.5	-70.9	2.3
2026-01-14 18:31:21.462896	181.4	19.8	-71.1	2.0
2026-01-14 18:31:23.707633	181.5	20.0	-70.4	2.0
2026-01-14 18:31:25.950546	181.7	20.3	-71.5	3.2
2026-01-14 18:31:28.195165	181.8	20.6	-71.7	3.1
2026-01-14 18:31:30.444667	182.0	20.9	-71.0	1.6
2026-01-14 18:31:32.689065	182.2	21.2	-71.2	2.8
2026-01-14 18:31:34.933987	182.3	21.5	-71.1	2.7
2026-01-14 18:31:37.181640	182.5	21.8	-70.5	2.6
2026-01-14 18:31:39.430767	182.7	22.1	-70.0	1.7
2026-01-14 18:31:41.675851	182.8	22.4	-71.2	1.1
2026-01-14 18:31:43.921330	183.0	22.8	-70.8	1.7
2026-01-14 18:31:46.170069	183.2	23.1	-70.6	2.3
2026-01-14 18:31:48.416372	183.4	23.4	-71.4	2.8
2026-01-14 18:31:50.659434	183.6	23.7	-70.6	2.1
2026-01-14 18:31:52.907543	183.8	24.0	-71.2	4.3
2026-01-14 18:31:55.152426	184.0	24.4	-70.1	3.8
2026-01-14 18:31:57.401219	184.2	24.7	-70.4	0.6
2026-01-14 18:31:59.643192	184.4	25.1	-70.9	2.8
2026-01-14 18:32:01.890895	184.6	25.4	-70.6	4.9
2026-01-14 18:32:04.137637	184.8	25.8	-70.4	5.0
2026-01-14 18:32:06.385161	185.1	26.1	-71.6	4.3
2026-01-14 18:32:08.633004	185.3	26.5	-70.9	2.7
2026-01-14 18:32:10.878164	185.5	26.8	-71.4	5.6
2026-01-14 18:32:13.121130	185.8	27.2	-71.6	2.3
2026-01-14 18:32:15.369166	186.0	27.6	-71.8	4.5
2026-01-14 18:32:17.614254	186.2	27.9	-71.8	5.4
2026-01-14 18:32:19.859311	186.5	28.3	-71.5	5.0
2026-01-14 18:32:22.106752	186.8	28.7	-71.1	4.0
2026-01-14 18:32:24.355592	187.0	29.1	-72.2	7.1
2026-01-14 18:32:26.599218	187.3	29.5	-71.1	5.6
2026-01-14 18:32:28.845509	187.6	29.9	-71.3	6.0
2026-01-14 18:32:31.089512	187.9	30.3	-71.6	5.8
2026-01-14 18:32:33.334699	188.2	30.7	-71.8	6.0
2026-01-14 18:32:35.584159	188.5	31.1	-71.3	6.5
2026-01-14 18:32:37.832399	188.8	31.5	-71.9	5.7
2026-01-14 18:32:40.078599	189.1	32.0	-72.0	9.3
2026-01-14 18:32:42.324618	189.4	32.4	-72.1	9.4
2026-01-14 18:32:44.570961	189.7	32.8	-71.8	8.4
2026-01-14 18:32:46.815483	190.1	33.3	-72.3	7.8
2026-01-14 18:32:49.058329	190.4	33.7	-71.9	6.7
2026-01-14 18:32:51.303689	190.8	34.2	-72.2	8.3
2026-01-14 18:32:53.548625	191.2	34.6	-72.5	10.1
2026-01-14 18:32:55.794796	191.5	35.1	-72.5	10.8
2026-01-14 18:32:58.042193	191.9	35.6	-72.9	10.6
2026-01-14 18:33:00.286349	192.3	36.0	-72.8	9.8
2026-01-14 18:33:02.534417	192.7	36.5	-73.2	12.4
2026-01-14 18:33:04.780580	193.2	37.0	-72.7	11.6
2026-01-14 18:33:07.027543	193.6	37.5	-73.0	12.8
2026-01-14 18:33:09.276985	194.1	38.0	-72.8	11.0
2026-01-14 18:33:11.521648	194.5	38.5	-72.4	12.0
2026-01-14 18:33:13.769254	195.0	39.0	-73.1	13.7
2026-01-14 18:33:16.014431	195.5	39.5	-72.9	13.5
2026-01-14 18:33:18.260728	196.0	40.0	-73.4	13.5
2026-01-14 18:33:20.507376	196.5	40.6	-73.6	14.2
2026-01-14 18:33:22.755182	197.1	41.1	-73.5	13.6
2026-01-14 18:33:25.002653	197.7	41.6	-73.7	13.7
2026-01-14 18:33:27.250175	198.2	42.2	-73.7	12.6
2026-01-14 18:33:29.496717	198.8	42.7	-73.8	11.9
2026-01-14 18:33:31.742182	199.5	43.2	-73.8	13.6
2026-01-14 18:33:33.986702	200.1	43.8	-73.4	12.7
2026-01-14 18:33:36.231993	200.8	44.3	-73.2	13.0
2026-01-14 18:33:38.472775	201.4	44.9	-73.2	12.5
2026-01-14 18:33:40.718730	202.2	45.5	-72.6	13.1
2026-01-14 18:33:42.970484	202.9	46.0	-72.8	13.1
2026-01-14 18:33:45.219049	203.7	46.6	-72.4	12.9
2026-01-14 18:33:47.465022	204.5	47.2	-72.5	12.0
2026-01-14 18:33:49.707248	205.3	47.7	-72.4	11.9
2026-01-14 18:33:51.949992	206.1	48.3	-72.3	11.9
2026-01-14 18:33:54.194497	207.0	48.9	-72.6	11.9
2026-01-14 18:33:56.441586	207.9	49.5	-72.8	11.2
2026-01-14 18:33:58.688400	208.9	50.0	-72.2	11.7
2026-01-14 18:34:00.932545	209.9	50.6	-72.4	11.6
2026-01-14 18:34:03.178320	210.9	51.2	-72.2	10.6
2026-01-14 18:34:05.424865	211.9	51.7	-72.1	11.1
2026-01-14 18:34:07.667738	213.0	52.3	-72.2	10.6
2026-01-14 18:34:09.909543	214.2	52.8	-72.9	13.8
2026-01-14 18:34:12.158593	215.4	53.4	-72.7	11.1
2026-01-14 18:34:14.406372	216.6	53.9	-72.3	12.3
2026-01-14 18:34:16.652469	217.9	54.5	-72.6	11.6
2026-01-14 18:34:18.896931	219.2	55.0	-72.6	11.2
2026-01-14 18:34:21.140771	220.6	55.5	-72.6	11.2
2026-01-14 18:34:23.385927	222.0	56.0	-72.4	10.7
2026-01-14 18:34:25.629932	223.5	56.5	-72.3	11.6
2026-01-14 18:34:27.875707	225.0	57.0	-72.8	11.5
2026-01-14 18:34:30.124077	226.6	57.4	-73.2	10.2
2026-01-14 18:34:32.368865	228.3	57.9	-72.9	11.0
2026-01-14 18:34:34.617055	230.0	58.3	-72.9	11.7
2026-01-14 18:34:36.865097	231.7	58.7	-72.6	10.3
2026-01-14 18:34:39.112231	233.5	59.1	-73.2	11.4
2026-01-14 18:34:41.355485	235.3	59.5	-73.4	11.0
2026-01-14 18:34:43.602489	237.2	59.8	-73.2	11.1
2026-01-14 18:34:45.851577	239.2	60.1	-72.9	11.0
2026-01-14 18:34:48.097261	241.2	60.4	-72.2	9.9
2026-01-14 18:34:50.344971	243.2	60.6	-73.0	11.3
2026-01-14 18:34:52.593664	245.3	60.8	-72.6	11.2
2026-01-14 18:34:54.838328	247.4	61.0	-72.3	10.6
2026-01-14 18:34:57.083320	249.5	61.2	-72.8	13.1
2026-01-14 18:34:59.331514	251.6	61.3	-72.9	12.9
2026-01-14 18:35:01.578024	253.8	61.3	-72.6	11.3
2026-01-14 18:35:03.824791	256.0	61.4	-72.5	10.3
2026-01-14 18:35:06.070219	258.2	61.4	-72.1	12.2
2026-01-14 18:35:08.317463	260.3	61.4	-72.0	9.7
2026-01-14 18:35:10.563601	262.5	61.3	-71.7	7.7
2026-01-14 18:35:12.806519	264.7	61.2	-72.1	6.4
2026-01-14 18:35:15.052641	266.8	61.1	-71.6	7.8
2026-01-14 18:35:17.299551	268.9	60.9	-72.2	9.8
2026-01-14 18:35:19.542089	271.0	60.7	-72.0	8.6
2026-01-14 18:35:21.786472	273.0	60.5	-71.6	6.2
2026-01-14 18:35:24.034600	275.0	60.2	-71.6	8.8
2026-01-14 18:35:26.283128	277.0	59.9	-71.9	9.4
2026-01-14 18:35:28.531787	278.9	59.6	-72.0	9.7
2026-01-14 18:35:30.777961	280.8	59.3	-70.7	7.9
2026-01-14 18:35:33.020634	282.6	58.9	-71.2	6.7
2026-01-14 18:35:35.266500	284.4	58.5	-70.3	6.9
2026-01-14 18:35:37.513489	286.1	58.1	-70.6	7.0
2026-01-14 18:35:39.758566	287.7	57.7	-69.9	6.0
2026-01-14 18:35:42.005968	289.3	57.2	-68.6	5.4
2026-01-14 18:35:44.249611	290.9	56.7	-69.7	5.5
2026-01-14 18:35:46.493809	292.4	56.3	-69.3	3.9
2026-01-14 18:35:48.737742	293.8	55.8	-70.3	7.9
2026-01-14 18:35:50.982691	295.2	55.3	-70.0	4.8
2026-01-14 18:35:53.230548	296.6	54.7	-69.3	2.2
2026-01-14 18:35:55.475982	297.9	54.2	-69.3	5.5
2026-01-14 18:35:57.722143	299.1	53.7	-69.8	5.0
2026-01-14 18:35:59.969331	300.4	53.1	-69.3	3.3
2026-01-14 18:36:02.217462	301.5	52.6	-69.9	4.0
2026-01-14 18:36:04.466636	302.6	52.0	-69.1	3.8
2026-01-14 18:36:06.710024	303.7	51.5	-69.0	2.5
2026-01-14 18:36:08.956147	304.8	50.9	-69.9	3.1
2026-01-14 18:36:11.200684	305.8	50.3	-70.1	5.3
2026-01-14 18:36:13.446379	306.7	49.8	-70.2	5.7
2026-01-14 18:36:15.694836	307.7	49.2	-70.8	7.3
2026-01-14 18:36:17.939453	308.6	48.6	-69.3	6.4
2026-01-14 18:36:20.186298	309.4	48.0	-69.6	4.4
2026-01-14 18:36:22.430415	310.3	47.5	-67.9	3.4
2026-01-14 18:36:24.678337	311.1	46.9	-69.3	3.6
2026-01-14 18:36:26.924375	311.8	46.3	-69.2	5.5
2026-01-14 18:36:29.171315	312.6	45.8	-69.7	7.0
2026-01-14 18:36:31.413746	313.3	45.2	-68.5	3.2
2026-01-14 18:36:33.660042	314.0	44.7	-68.7	5.0
2026-01-14 18:36:35.904582	314.7	44.1	-69.6	4.0
2026-01-14 18:36:38.149451	315.3	43.6	-69.6	3.6
2026-01-14 18:36:40.392720	316.0	43.0	-69.4	6.3
2026-01-14 18:36:42.636403	316.6	42.5	-69.0	4.9
2026-01-14 18:36:44.880581	317.2	41.9	-69.1	4.0
2026-01-14 18:36:47.122725	317.7	41.4	-68.8	1.2
2026-01-14 18:36:49.370512	318.3	40.9	-68.9	3.2
2026-01-14 18:36:51.617760	318.8	40.4	-69.3	4.8
2026-01-14 18:36:53.866396	319.3	39.8	-69.8	6.3
2026-01-14 18:36:56.110810	319.8	39.3	-68.7	3.5
2026-01-14 18:36:58.358143	320.3	38.8	-69.0	2.1
2026-01-14 18:37:00.601475	320.8	38.3	-68.9	3.9
2026-01-14 18:37:02.846414	321.3	37.8	-68.2	2.8
2026-01-14 18:37:05.090568	321.7	37.3	-68.6	3.9
2026-01-14 18:37:07.334234	322.1	36.9	-68.4	3.8
2026-01-14 18:37:09.577005	322.6	36.4	-68.7	4.2
2026-01-14 18:37:11.822510	323.0	35.9	-68.2	1.5
2026-01-14 18:37:14.064521	323.4	35.4	-67.0	0.0
2026-01-14 18:37:16.308334	323.7	35.0	-67.5	0.0
2026-01-14 18:37:18.553576	324.1	34.5	-66.6	0.0
2026-01-14 18:37:20.798802	324.5	34.1	-66.9	0.0
2026-01-14 18:37:23.043250	324.8	33.6	-66.0	0.0
2026-01-14 18:37:25.289167	325.2	33.2	-68.2	1.9
2026-01-14 18:37:27.536897	325.5	32.7	-64.6	0.0
2026-01-14 18:37:29.780723	325.9	32.3	-66.6	0.0
2026-01-14 18:37:32.026263	326.2	31.9	-67.6	0.0
2026-01-14 18:37:34.274774	326.5	31.5	-68.5	0.0
2026-01-14 18:37:36.521499	326.8	31.0	-68.2	0.0
2026-01-14 18:37:38.764427	327.1	30.6	-67.4	0.0
2026-01-14 18:37:41.008498	327.4	30.2	-67.4	0.0
2026-01-14 18:37:43.253935	327.7	29.8	-68.4	0.0
2026-01-14 18:37:45.499160	327.9	29.4	-65.0	0.0
2026-01-14 18:37:47.742196	328.2	29.0	-66.4	0.0
2026-01-14 18:37:49.987511	328.5	28.6	-66.8	0.0
2026-01-14 18:37:52.232387	328.7	28.3	-68.3	0.0
2026-01-14 18:37:54.479041	329.0	27.9	-65.8	0.0
2026-01-14 18:37:56.725080	329.2	27.5	-65.8	0.0
2026-01-14 18:37:58.970515	329.5	27.2	-65.9	0.0
2026-01-14 18:38:01.214330	329.7	26.8	-64.1	0.0
2026-01-14 18:38:03.459116	329.9	26.4	-66.0	0.0
2026-01-14 18:38:05.703633	330.2	26.1	-66.6	0.0
2026-01-14 18:38:07.948187	330.4	25.7	-65.8	0.0
2026-01-14 18:38:10.193804	330.6	25.4	-66.0	0.0
2026-01-14 18:38:12.437345	330.8	25.0	-64.0	0.0
2026-01-14 18:38:14.683643	331.0	24.7	-64.9	0.0
2026-01-14 18:38:16.926591	331.2	24.4	-66.5	0.0
2026-01-14 18:38:19.171876	331.4	24.0	-65.7	0.0
2026-01-14 18:38:21.417423	331.6	23.7	-64.7	0.0
2026-01-14 18:38:23.662366	331.8	23.4	-64.3	0.0
2026-01-14 18:38:25.903914	332.0	23.1	-64.2	0.0
2026-01-14 18:38:28.150320	332.2	22.8	-63.7	0.0
2026-01-14 18:38:30.399199	332.4	22.4	-64.8	0.0
2026-01-14 18:38:32.643081	332.5	22.1	-65.2	0.0
2026-01-14 18:38:34.886813	332.7	21.8	-65.6	0.0
2026-01-14 18:38:37.133080	332.9	21.5	-64.7	0.0
2026-01-14 18:38:39.378228	333.0	21.2	-63.5	0.0
2026-01-14 18:38:41.622297	333.2	20.9	-64.1	0.0
2026-01-14 18:38:43.873627	333.4	20.6	-63.5	0.0
2026-01-14 18:38:46.116161	333.5	20.4	-63.9	0.0
2026-01-14 18:38:48.362998	333.7	20.1	-63.2	0.0
2026-01-14 18:38:50.607493	333.8	19.8	-63.7	0.0
2026-01-14 18:38:52.855162	334.0	19.5	-65.1	0.0
2026-01-14 18:38:55.097606	334.1	19.2	-64.2	0.0
2026-01-14 18:38:57.342424	334.3	19.0	-64.9	0.0
2026-01-14 18:38:59.586695	334.4	18.7	-64.1	0.0
2026-01-14 18:39:01.831588	334.6	18.4	-64.9	0.0
2026-01-14 18:39:04.076625	334.7	18.2	-64.1	0.0
2026-01-14 18:39:06.317272	334.8	17.9	-60.9	0.0
2026-01-14 18:39:08.562594	335.0	17.6	-65.1	0.0
2026-01-14 18:39:10.806366	335.1	17.4	-63.1	0.0
2026-01-14 18:39:13.053468	335.2	17.1	-66.6	0.0
2026-01-14 18:39:15.297805	335.4	16.9	-64.3	0.0
2026-01-14 18:39:17.539917	335.5	16.6	-65.5	0.0
2026-01-14 18:39:19.784913	335.6	16.4	-65.3	0.0
2026-01-14 18:39:22.028132	335.7	16.1	-65.2	0.0
2026-01-14 18:39:24.271103	335.9	15.9	-63.1	0.0
2026-01-14 18:39:26.518189	336.0	15.7	-66.5	0.0
2026-01-14 18:39:28.763567	336.1	15.4	-66.1	0.0
2026-01-14 18:39:31.008394	336.2	15.2	-65.6	0.0
2026-01-14 18:39:33.251594	336.3	14.9	-65.4	0.0
2026-01-14 18:39:35.494228	336.4	14.7	-65.3	0.0
2026-01-14 18:39:37.737302	336.5	14.5	-66.8	0.0
2026-01-14 18:39:39.982697	336.7	14.3	-65.0	0.0
2026-01-14 18:39:42.225048	336.8	14.0	-67.0	0.0
2026-01-14 18:39:44.470490	336.9	13.8	-68.2	0.0
2026-01-14 18:39:46.715923	337.0	13.6	-70.0	0.0
2026-01-14 18:39:48.959191	337.1	13.4	-68.8	0.0
2026-01-14 18:39:51.203375	337.2	13.2	-66.1	0.0
2026-01-14 18:39:53.450679	337.3	12.9	-70.1	0.0
2026-01-14 18:39:55.694105	337.4	12.7	-69.6	0.0
2026-01-14 18:39:57.938573	337.5	12.5	-71.1	0.0
2026-01-14 18:40:00.184858	337.6	12.3	-70.3	0.0
2026-01-14 18:40:02.429765	337.7	12.1	-70.3	0.0
2026-01-14 18:40:04.675843	337.8	11.9	-68.4	0.0
2026-01-14 18:40:06.920446	337.9	11.7	-69.0	0.0
2026-01-14 18:40:09.166240	337.9	11.5	-65.1	0.0
2026-01-14 18:40:11.410316	338.0	11.3	-68.9	0.0
2026-01-14 18:40:13.655978	338.1	11.1	-68.0	0.0
2026-01-14 18:40:15.907992	338.2	10.9	-64.9	0.0
2026-01-14 18:40:18.161648	338.3	10.7	-62.5	0.0
2026-01-14 18:40:20.409310	338.4	10.5	-65.1	0.0
2026-01-14 18:40:22.659193	338.5	10.3	-67.8	0.0
2026-01-14 18:40:24.906627	338.6	10.1	-70.9	0.0
#Closed at: 2026-01-14 18:29:42.231402