passes_logs/2026/01/14/planumMaritime01/planumMaritime01__20260114_001918_METEOR-M2_4_rec.log

#Pass ID: 20260114_001918_METEOR-M2 4
#Satellite: METEOR-M2 4
#Configuration: METEOR-M2 4
#Start time: 2026-01-14 00:19:23.417129

#LorettStation: 1.0.0 05.05.2024
#Station: planumMaritime01
#Location: 37.49445 lon 55.92918 lat
#TLE: 1 59051U 24039A   26012.93756097  .00000021  00000+0  29173-4 0  9993
#TLE: 2 59051  98.6810 334.3643 0005973 258.1895 101.8613 14.22407037 97198

#Time	Az	El	Level	SNR
2026-01-14 00:19:25.590737	25.5	10.2	-78.1	0.0
2026-01-14 00:19:27.847611	25.7	10.4	-74.4	0.0
2026-01-14 00:19:30.103692	25.8	10.5	-75.6	0.0
2026-01-14 00:19:32.361930	26.0	10.7	-72.3	0.0
2026-01-14 00:19:34.620601	26.1	10.9	-70.7	0.0
2026-01-14 00:19:36.876709	26.2	11.1	-71.6	0.0
2026-01-14 00:19:39.135687	26.4	11.3	-69.4	0.0
2026-01-14 00:19:41.393307	26.6	11.5	-70.4	0.0
2026-01-14 00:19:43.653354	26.7	11.7	-66.4	0.0
2026-01-14 00:19:45.911767	26.9	11.9	-69.1	0.0
2026-01-14 00:19:48.172237	27.0	12.1	-71.6	0.0
2026-01-14 00:19:50.428116	27.2	12.3	-69.9	0.0
2026-01-14 00:19:52.683204	27.3	12.5	-71.3	0.0
2026-01-14 00:19:54.941547	27.5	12.7	-71.8	0.0
2026-01-14 00:19:57.200980	27.7	12.9	-70.6	0.0
2026-01-14 00:19:59.460820	27.9	13.1	-68.7	0.0
2026-01-14 00:20:01.721433	28.0	13.3	-70.1	0.0
2026-01-14 00:20:03.992388	28.2	13.5	-71.7	0.0
2026-01-14 00:20:06.261932	28.4	13.7	-70.4	0.0
2026-01-14 00:20:08.529803	28.6	13.9	-70.5	0.0
2026-01-14 00:20:10.784033	28.7	14.2	-70.5	0.0
2026-01-14 00:20:13.041522	28.9	14.4	-69.9	0.0
2026-01-14 00:20:15.299381	29.1	14.6	-68.1	0.0
2026-01-14 00:20:17.557888	29.3	14.8	-69.1	0.0
2026-01-14 00:20:19.816377	29.5	15.0	-68.4	0.0
2026-01-14 00:20:22.074033	29.7	15.2	-67.0	0.0
2026-01-14 00:20:24.333367	29.9	15.5	-69.1	0.0
2026-01-14 00:20:26.591000	30.1	15.7	-68.6	0.0
2026-01-14 00:20:28.861111	30.3	15.9	-67.8	0.0
2026-01-14 00:20:31.131654	30.5	16.1	-69.5	0.0
2026-01-14 00:20:33.402100	30.7	16.4	-68.2	0.0
2026-01-14 00:20:35.667058	30.9	16.6	-68.1	0.0
2026-01-14 00:20:37.938970	31.1	16.8	-71.5	0.0
2026-01-14 00:20:40.204898	31.3	17.1	-72.1	0.0
2026-01-14 00:20:42.472204	31.6	17.3	-70.7	0.0
2026-01-14 00:20:44.744842	31.8	17.6	-71.8	0.0
2026-01-14 00:20:47.016219	32.0	17.8	-69.9	0.0
2026-01-14 00:20:49.288754	32.3	18.1	-69.5	0.0
2026-01-14 00:20:51.568480	32.5	18.3	-72.0	0.0
2026-01-14 00:20:53.844105	32.7	18.6	-67.7	0.0
2026-01-14 00:20:56.115973	33.0	18.8	-71.8	0.0
2026-01-14 00:20:58.384370	33.2	19.1	-71.9	0.0
2026-01-14 00:21:00.651080	33.5	19.3	-70.8	0.0
2026-01-14 00:21:02.920365	33.7	19.6	-73.4	0.0
2026-01-14 00:21:05.193837	34.0	19.8	-72.6	0.0
2026-01-14 00:21:07.462785	34.3	20.1	-71.0	0.0
2026-01-14 00:21:09.734875	34.5	20.4	-65.1	0.0
2026-01-14 00:21:12.007701	34.8	20.6	-72.5	0.0
2026-01-14 00:21:14.281551	35.1	20.9	-63.9	0.0
2026-01-14 00:21:16.556241	35.4	21.2	-73.5	0.0
2026-01-14 00:21:18.829486	35.7	21.4	-63.4	0.0
2026-01-14 00:21:21.103614	36.0	21.7	-64.4	0.0
2026-01-14 00:21:23.378960	36.3	22.0	-72.5	0.0
2026-01-14 00:21:25.653657	36.6	22.3	-64.2	0.0
2026-01-14 00:21:27.925729	36.9	22.6	-63.3	0.0
2026-01-14 00:21:30.196082	37.2	22.8	-71.2	0.0
2026-01-14 00:21:32.470275	37.5	23.1	-70.8	0.0
2026-01-14 00:21:34.742037	37.8	23.4	-67.5	0.0
2026-01-14 00:21:37.011154	38.2	23.7	-70.6	0.0
2026-01-14 00:21:39.279515	38.5	24.0	-71.0	0.0
2026-01-14 00:21:41.546824	38.8	24.3	-73.2	0.0
2026-01-14 00:21:43.815710	39.2	24.6	-73.9	0.0
2026-01-14 00:21:46.079163	39.6	24.9	-74.1	0.0
2026-01-14 00:21:48.344643	39.9	25.2	-74.0	0.0
2026-01-14 00:21:50.609224	40.3	25.5	-74.5	0.0
2026-01-14 00:21:52.879509	40.7	25.8	-74.1	2.2
2026-01-14 00:21:55.151289	41.1	26.1	-73.4	0.0
2026-01-14 00:21:57.424008	41.4	26.4	-74.4	3.1
2026-01-14 00:21:59.693405	41.8	26.8	-74.4	3.6
2026-01-14 00:22:01.966391	42.3	27.1	-74.7	5.2
2026-01-14 00:22:04.239445	42.7	27.4	-75.1	5.7
2026-01-14 00:22:06.511604	43.1	27.7	-74.2	3.3
2026-01-14 00:22:08.783370	43.5	28.0	-73.6	0.0
2026-01-14 00:22:11.056292	44.0	28.4	-74.7	0.9
2026-01-14 00:22:13.328794	44.4	28.7	-73.9	1.6
2026-01-14 00:22:15.600949	44.9	29.0	-73.9	2.6
2026-01-14 00:22:17.879808	45.4	29.4	-73.1	0.0
2026-01-14 00:22:20.150373	45.8	29.7	-75.2	2.8
2026-01-14 00:22:22.417992	46.3	30.0	-75.9	6.7
2026-01-14 00:22:24.683427	46.8	30.4	-73.9	1.5
2026-01-14 00:22:26.956945	47.3	30.7	-76.0	7.5
2026-01-14 00:22:29.221294	47.9	31.1	-75.7	5.4
2026-01-14 00:22:31.484188	48.4	31.4	-75.4	6.1
2026-01-14 00:22:33.744263	48.9	31.7	-75.5	5.4
2026-01-14 00:22:36.003783	49.5	32.1	-74.6	2.8
2026-01-14 00:22:38.262438	50.0	32.4	-75.9	4.7
2026-01-14 00:22:40.518698	50.6	32.8	-75.7	4.6
2026-01-14 00:22:42.775244	51.2	33.1	-76.0	6.5
2026-01-14 00:22:45.034490	51.8	33.5	-76.3	9.2
2026-01-14 00:22:47.296967	52.4	33.8	-77.1	2.6
2026-01-14 00:22:49.555615	53.1	34.2	-76.5	3.6
2026-01-14 00:22:51.812278	53.7	34.5	-76.6	6.9
2026-01-14 00:22:54.073574	54.3	34.9	-76.3	5.6
2026-01-14 00:22:56.349571	55.0	35.2	-76.2	6.4
2026-01-14 00:22:58.626747	55.7	35.6	-75.8	2.3
2026-01-14 00:23:00.900623	56.4	35.9	-75.0	3.5
2026-01-14 00:23:03.178685	57.1	36.3	-73.5	1.8
2026-01-14 00:23:05.456542	57.9	36.6	-75.5	7.4
2026-01-14 00:23:07.731626	58.6	37.0	-77.0	8.0
2026-01-14 00:23:10.004887	59.4	37.3	-76.1	6.9
2026-01-14 00:23:12.277144	60.1	37.6	-76.2	7.7
2026-01-14 00:23:14.547138	60.9	38.0	-76.7	8.1
2026-01-14 00:23:16.812568	61.7	38.3	-75.8	7.0
2026-01-14 00:23:19.078885	62.6	38.6	-76.8	8.5
2026-01-14 00:23:21.347471	63.4	39.0	-76.5	9.0
2026-01-14 00:23:23.622031	64.3	39.3	-75.2	4.6
2026-01-14 00:23:25.900591	65.1	39.6	-76.6	7.3
2026-01-14 00:23:28.168560	66.0	39.9	-77.4	8.0
2026-01-14 00:23:30.431116	67.0	40.3	-76.5	6.2
2026-01-14 00:23:32.700841	67.9	40.6	-77.0	7.7
2026-01-14 00:23:34.970852	68.8	40.9	-77.2	7.3
2026-01-14 00:23:37.242872	69.8	41.2	-76.7	1.6
2026-01-14 00:23:39.512800	70.8	41.4	-77.2	5.6
2026-01-14 00:23:41.780340	71.8	41.7	-77.1	6.1
2026-01-14 00:23:44.049471	72.8	42.0	-76.4	7.9
2026-01-14 00:23:46.313806	73.8	42.3	-76.9	7.5
2026-01-14 00:23:48.584059	74.9	42.5	-76.4	6.6
2026-01-14 00:23:50.856335	75.9	42.8	-77.3	8.5
2026-01-14 00:23:53.126878	77.0	43.0	-77.3	8.4
2026-01-14 00:23:55.399436	78.1	43.2	-77.1	8.6
2026-01-14 00:23:57.670380	79.2	43.5	-77.9	8.0
2026-01-14 00:23:59.944517	80.4	43.7	-77.8	6.3
2026-01-14 00:24:02.216123	81.5	43.9	-78.1	7.0
2026-01-14 00:24:04.492927	82.7	44.0	-76.8	4.1
2026-01-14 00:24:06.763522	83.8	44.2	-77.3	6.7
2026-01-14 00:24:09.031323	85.0	44.4	-78.1	6.6
2026-01-14 00:24:11.300804	86.2	44.5	-77.6	6.4
2026-01-14 00:24:13.571369	87.4	44.7	-78.4	8.5
2026-01-14 00:24:15.838344	88.6	44.8	-76.7	6.2
2026-01-14 00:24:18.098767	89.9	44.9	-77.6	6.4
2026-01-14 00:24:20.356861	91.1	45.0	-78.9	5.5
2026-01-14 00:24:22.617428	92.3	45.1	-78.2	7.6
2026-01-14 00:24:24.874711	93.5	45.1	-78.5	9.3
2026-01-14 00:24:27.129181	94.8	45.2	-78.6	7.3
2026-01-14 00:24:29.384149	96.0	45.2	-78.5	7.2
2026-01-14 00:24:31.638696	97.3	45.2	-78.8	8.2
2026-01-14 00:24:33.893798	98.5	45.2	-78.9	7.4
2026-01-14 00:24:36.149093	99.8	45.2	-79.3	8.2
2026-01-14 00:24:38.405319	101.0	45.2	-79.1	9.2
2026-01-14 00:24:40.663699	102.3	45.2	-78.6	8.8
2026-01-14 00:24:42.937437	103.5	45.1	-79.0	9.9
2026-01-14 00:24:45.213058	104.8	45.0	-78.7	10.2
2026-01-14 00:24:47.487805	106.0	45.0	-77.8	6.0
2026-01-14 00:24:49.756094	107.2	44.9	-79.1	10.6
2026-01-14 00:24:52.031016	108.4	44.8	-79.5	9.5
2026-01-14 00:24:54.303843	109.7	44.6	-79.4	9.9
2026-01-14 00:24:56.579282	110.9	44.5	-79.4	9.7
2026-01-14 00:24:58.851184	112.1	44.3	-79.7	10.3
2026-01-14 00:25:01.121157	113.3	44.2	-79.9	10.8
2026-01-14 00:25:03.394000	114.4	44.0	-80.1	11.0
2026-01-14 00:25:05.671833	115.6	43.8	-79.2	10.3
2026-01-14 00:25:07.948173	116.7	43.6	-79.3	9.6
2026-01-14 00:25:10.218918	117.9	43.4	-79.5	12.0
2026-01-14 00:25:12.493426	119.0	43.2	-79.2	11.9
2026-01-14 00:25:14.766829	120.1	43.0	-79.2	12.4
2026-01-14 00:25:17.041589	121.2	42.7	-78.9	13.3
2026-01-14 00:25:19.314045	122.2	42.5	-78.8	11.8
2026-01-14 00:25:21.591177	123.3	42.2	-78.7	12.6
2026-01-14 00:25:23.863601	124.3	41.9	-79.4	12.9
2026-01-14 00:25:26.139604	125.3	41.7	-79.2	12.8
2026-01-14 00:25:28.415633	126.3	41.4	-79.5	12.8
2026-01-14 00:25:30.691517	127.3	41.1	-79.4	11.6
2026-01-14 00:25:32.968127	128.3	40.8	-79.4	12.9
2026-01-14 00:25:35.244375	129.2	40.5	-79.5	13.1
2026-01-14 00:25:37.518379	130.2	40.2	-79.3	12.9
2026-01-14 00:25:39.792044	131.1	39.9	-79.3	13.0
2026-01-14 00:25:42.067838	132.0	39.5	-79.3	13.3
2026-01-14 00:25:44.338487	132.9	39.2	-79.1	13.4
2026-01-14 00:25:46.608056	133.7	38.9	-79.4	13.3
2026-01-14 00:25:48.880717	134.6	38.5	-79.2	11.1
2026-01-14 00:25:51.151305	135.4	38.2	-79.6	13.2
2026-01-14 00:25:53.419156	136.2	37.9	-79.0	12.7
2026-01-14 00:25:55.686175	137.0	37.5	-79.5	13.7
2026-01-14 00:25:57.954609	137.8	37.2	-79.1	11.9
2026-01-14 00:26:00.225082	138.5	36.8	-79.0	12.7
2026-01-14 00:26:02.500295	139.3	36.5	-79.0	11.9
2026-01-14 00:26:04.774008	140.0	36.1	-78.6	12.4
2026-01-14 00:26:07.048393	140.7	35.8	-78.5	13.2
2026-01-14 00:26:09.322023	141.4	35.4	-78.5	13.0
2026-01-14 00:26:11.596286	142.1	35.1	-79.0	13.3
2026-01-14 00:26:13.868667	142.8	34.7	-78.8	13.7
2026-01-14 00:26:16.138589	143.4	34.4	-78.9	13.8
2026-01-14 00:26:18.408172	144.1	34.0	-76.3	0.0
2026-01-14 00:26:20.681869	144.7	33.7	-76.6	5.1
2026-01-14 00:26:22.950720	145.3	33.3	-75.9	0.0
2026-01-14 00:26:25.220501	145.9	33.0	-75.2	3.8
2026-01-14 00:26:27.493016	146.5	32.6	-75.8	0.0
2026-01-14 00:26:29.759926	147.1	32.3	-75.9	0.0
2026-01-14 00:26:32.030294	147.6	31.9	-76.0	0.0
2026-01-14 00:26:34.305012	148.2	31.6	-75.8	0.0
2026-01-14 00:26:36.583751	148.7	31.2	-75.4	0.0
2026-01-14 00:26:38.857723	149.3	30.9	-74.6	0.0
2026-01-14 00:26:41.131771	149.8	30.5	-75.0	0.0
2026-01-14 00:26:43.403094	150.3	30.2	-74.8	0.0
2026-01-14 00:26:45.669783	150.8	29.9	-74.4	0.0
2026-01-14 00:26:47.942442	151.3	29.5	-75.0	0.0
2026-01-14 00:26:50.214743	151.8	29.2	-74.5	0.0
2026-01-14 00:26:52.493784	152.2	28.8	-73.2	0.0
2026-01-14 00:26:54.768099	152.7	28.5	-75.1	0.0
2026-01-14 00:26:57.041418	153.2	28.2	-74.0	0.0
2026-01-14 00:26:59.319519	153.6	27.8	-73.2	0.0
2026-01-14 00:27:01.596733	154.0	27.5	-74.1	0.0
2026-01-14 00:27:03.872897	154.5	27.2	-74.6	0.0
2026-01-14 00:27:06.147526	154.9	26.9	-74.9	0.0
2026-01-14 00:27:08.419301	155.3	26.5	-73.6	0.0
2026-01-14 00:27:10.694602	155.7	26.2	-73.8	0.0
2026-01-14 00:27:12.968621	156.1	25.9	-73.9	0.0
2026-01-14 00:27:15.241759	156.5	25.6	-74.7	0.0
2026-01-14 00:27:17.515558	156.8	25.3	-73.7	0.0
2026-01-14 00:27:19.789014	157.2	25.0	-74.8	0.0
2026-01-14 00:27:22.061478	157.6	24.7	-74.5	0.0
2026-01-14 00:27:24.329451	157.9	24.4	-75.5	0.0
2026-01-14 00:27:26.587725	158.3	24.1	-74.5	0.0
2026-01-14 00:27:28.850245	158.6	23.8	-74.3	0.0
2026-01-14 00:27:31.115556	158.9	23.5	-74.4	0.0
2026-01-14 00:27:33.381626	159.3	23.2	-74.4	0.0
2026-01-14 00:27:35.641378	159.6	22.9	-74.7	0.0
2026-01-14 00:27:37.909590	159.9	22.6	-74.9	0.0
2026-01-14 00:27:40.176174	160.2	22.3	-75.2	0.0
2026-01-14 00:27:42.436532	160.5	22.0	-74.7	0.0
2026-01-14 00:27:44.695966	160.8	21.8	-75.8	0.0
2026-01-14 00:27:46.958022	161.1	21.5	-76.4	0.0
2026-01-14 00:27:49.216592	161.4	21.2	-76.0	0.0
2026-01-14 00:27:51.475561	161.7	20.9	-76.2	0.0
2026-01-14 00:27:53.733075	162.0	20.7	-76.4	0.0
2026-01-14 00:27:56.007756	162.3	20.4	-76.4	0.0
2026-01-14 00:27:58.277786	162.5	20.1	-77.5	2.5
2026-01-14 00:28:00.546618	162.8	19.9	-77.2	3.7
2026-01-14 00:28:02.816938	163.1	19.6	-77.4	2.6
2026-01-14 00:28:05.081065	163.3	19.3	-77.6	4.1
2026-01-14 00:28:07.348507	163.6	19.1	-78.0	7.6
2026-01-14 00:28:09.622584	163.8	18.8	-78.6	9.1
2026-01-14 00:28:11.890709	164.1	18.6	-78.7	9.5
2026-01-14 00:28:14.160425	164.3	18.3	-79.0	9.9
2026-01-14 00:28:16.430363	164.6	18.1	-78.8	9.6
2026-01-14 00:28:18.707729	164.8	17.8	-77.2	7.8
2026-01-14 00:28:20.978843	165.0	17.6	-79.2	11.7
2026-01-14 00:28:23.251232	165.3	17.3	-79.4	12.0
2026-01-14 00:28:25.527936	165.5	17.1	-79.3	10.4
2026-01-14 00:28:27.803904	165.7	16.8	-79.2	10.3
2026-01-14 00:28:30.079150	165.9	16.6	-79.2	11.0
2026-01-14 00:28:32.345779	166.1	16.4	-79.4	11.0
2026-01-14 00:28:34.600494	166.3	16.1	-79.3	11.8
2026-01-14 00:28:36.859004	166.6	15.9	-79.2	11.6
2026-01-14 00:28:39.122552	166.8	15.7	-79.4	11.2
2026-01-14 00:28:41.385757	167.0	15.4	-79.8	10.9
2026-01-14 00:28:43.643324	167.2	15.2	-79.4	11.6
2026-01-14 00:28:45.900375	167.4	15.0	-79.5	10.6
2026-01-14 00:28:48.161147	167.5	14.8	-79.9	11.6
2026-01-14 00:28:50.425375	167.7	14.5	-79.9	12.2
2026-01-14 00:28:52.683017	167.9	14.3	-79.9	11.5
2026-01-14 00:28:54.941492	168.1	14.1	-79.8	11.0
2026-01-14 00:28:57.218587	168.3	13.9	-79.9	11.4
2026-01-14 00:28:59.494207	168.5	13.7	-79.8	11.0
2026-01-14 00:29:01.769130	168.7	13.5	-80.0	11.9
2026-01-14 00:29:04.044294	168.8	13.2	-79.5	11.4
2026-01-14 00:29:06.320753	169.0	13.0	-79.6	11.3
2026-01-14 00:29:08.600108	169.2	12.8	-79.9	11.1
2026-01-14 00:29:10.876475	169.3	12.6	-79.5	11.7
2026-01-14 00:29:13.150690	169.5	12.4	-80.0	10.7
2026-01-14 00:29:15.426971	169.7	12.2	-80.1	10.0
2026-01-14 00:29:17.704502	169.8	12.0	-80.0	10.6
2026-01-14 00:29:19.976493	170.0	11.8	-80.4	9.9
2026-01-14 00:29:22.246284	170.1	11.6	-80.5	9.9
2026-01-14 00:29:24.514235	170.3	11.4	-80.0	11.0
2026-01-14 00:29:26.784055	170.5	11.2	-80.4	10.3
2026-01-14 00:29:29.058088	170.6	11.0	-79.8	11.3
2026-01-14 00:29:31.327964	170.8	10.8	-81.5	8.4
2026-01-14 00:29:33.594300	170.9	10.6	-83.4	0.0
2026-01-14 00:29:35.856615	171.1	10.4	-84.3	0.0
2026-01-14 00:29:38.118920	171.2	10.2	-85.5	0.0
2026-01-14 00:29:40.381667	171.3	10.1	-86.7	0.0
#Closed at: 2026-01-14 00:19:18.421663