passes_logs/2026/01/14/planumMaritime01/planumMaritime01__20260114_100937_METEOR-M2_4_rec.log

#Pass ID: 20260114_100937_METEOR-M2 4
#Satellite: METEOR-M2 4
#Configuration: METEOR-M2 4
#Start time: 2026-01-14 10:09:42.633875

#LorettStation: 1.0.0 05.05.2024
#Station: planumMaritime01
#Location: 37.49445 lon 55.92918 lat
#TLE: 1 59051U 24039A   26012.93756097  .00000021  00000+0  29173-4 0  9993
#TLE: 2 59051  98.6810 334.3643 0005973 258.1895 101.8613 14.22407037 97198

#Time	Az	El	Level	SNR
2026-01-14 10:09:44.807039	118.7	10.2	-81.2	0.0
2026-01-14 10:09:47.075947	118.5	10.3	-80.0	1.9
2026-01-14 10:09:49.349453	118.3	10.5	-79.0	2.8
2026-01-14 10:09:51.624390	118.1	10.7	-77.3	1.6
2026-01-14 10:09:53.901544	117.9	10.9	-77.3	2.4
2026-01-14 10:09:56.176311	117.7	11.1	-77.0	3.8
2026-01-14 10:09:58.453157	117.5	11.2	-75.8	3.9
2026-01-14 10:10:00.726021	117.3	11.4	-76.7	3.3
2026-01-14 10:10:02.996159	117.1	11.6	-76.2	3.5
2026-01-14 10:10:05.270107	116.9	11.8	-76.6	3.8
2026-01-14 10:10:07.542426	116.6	12.0	-77.2	5.8
2026-01-14 10:10:09.815798	116.4	12.2	-76.6	3.5
2026-01-14 10:10:12.086578	116.2	12.4	-77.3	5.4
2026-01-14 10:10:14.360531	116.0	12.5	-76.7	2.4
2026-01-14 10:10:16.633624	115.7	12.7	-76.7	2.5
2026-01-14 10:10:18.905727	115.5	12.9	-76.9	3.3
2026-01-14 10:10:21.178814	115.3	13.1	-77.0	4.2
2026-01-14 10:10:23.450726	115.0	13.3	-75.7	0.3
2026-01-14 10:10:25.722262	114.8	13.5	-77.0	6.1
2026-01-14 10:10:27.996643	114.5	13.7	-76.8	4.6
2026-01-14 10:10:30.268974	114.3	13.9	-75.9	2.8
2026-01-14 10:10:32.542326	114.0	14.1	-76.1	4.3
2026-01-14 10:10:34.819365	113.8	14.3	-75.3	3.0
2026-01-14 10:10:37.092121	113.5	14.5	-76.1	4.5
2026-01-14 10:10:39.358870	113.2	14.7	-75.6	2.9
2026-01-14 10:10:41.630141	113.0	14.9	-76.5	3.5
2026-01-14 10:10:43.903034	112.7	15.1	-76.5	5.8
2026-01-14 10:10:46.172743	112.4	15.3	-76.2	5.6
2026-01-14 10:10:48.445349	112.1	15.5	-76.9	6.6
2026-01-14 10:10:50.719014	111.8	15.7	-77.2	5.6
2026-01-14 10:10:52.991867	111.6	15.9	-76.1	5.3
2026-01-14 10:10:55.255490	111.3	16.1	-75.6	2.2
2026-01-14 10:10:57.516286	111.0	16.3	-75.6	3.7
2026-01-14 10:10:59.777656	110.7	16.5	-75.8	3.1
2026-01-14 10:11:02.040501	110.4	16.8	-76.1	3.9
2026-01-14 10:11:04.305038	110.1	17.0	-76.4	4.4
2026-01-14 10:11:06.575100	109.8	17.2	-77.2	5.7
2026-01-14 10:11:08.837693	109.4	17.4	-77.1	4.1
2026-01-14 10:11:11.098518	109.1	17.6	-77.0	5.6
2026-01-14 10:11:13.363432	108.8	17.8	-75.7	4.2
2026-01-14 10:11:15.638163	108.5	18.0	-76.7	5.2
2026-01-14 10:11:17.911073	108.1	18.2	-76.6	4.1
2026-01-14 10:11:20.187062	107.8	18.5	-77.3	6.6
2026-01-14 10:11:22.460416	107.4	18.7	-76.4	4.3
2026-01-14 10:11:24.731860	107.1	18.9	-77.1	5.8
2026-01-14 10:11:27.002988	106.7	19.1	-77.1	5.7
2026-01-14 10:11:29.273134	106.4	19.3	-77.4	6.9
2026-01-14 10:11:31.546161	106.0	19.6	-76.9	4.3
2026-01-14 10:11:33.821478	105.6	19.8	-77.1	6.3
2026-01-14 10:11:36.097561	105.2	20.0	-77.4	6.4
2026-01-14 10:11:38.373136	104.9	20.2	-77.0	5.3
2026-01-14 10:11:40.647308	104.5	20.5	-76.9	6.0
2026-01-14 10:11:42.919766	104.1	20.7	-77.3	6.5
2026-01-14 10:11:45.191679	103.7	20.9	-76.6	5.6
2026-01-14 10:11:47.457704	103.3	21.1	-77.0	5.2
2026-01-14 10:11:49.727667	102.8	21.4	-76.5	2.4
2026-01-14 10:11:52.000843	102.4	21.6	-76.9	5.6
2026-01-14 10:11:54.271683	102.0	21.8	-77.3	5.9
2026-01-14 10:11:56.543803	101.6	22.1	-77.2	3.9
2026-01-14 10:11:58.814742	101.1	22.3	-76.4	5.3
2026-01-14 10:12:01.086987	100.7	22.5	-76.2	4.9
2026-01-14 10:12:03.356993	100.2	22.7	-77.0	6.6
2026-01-14 10:12:05.630264	99.8	23.0	-75.7	4.7
2026-01-14 10:12:07.903913	99.3	23.2	-76.3	5.6
2026-01-14 10:12:10.176619	98.8	23.4	-76.7	7.1
2026-01-14 10:12:12.448685	98.4	23.7	-75.7	3.2
2026-01-14 10:12:14.719761	97.9	23.9	-76.3	6.1
2026-01-14 10:12:16.993253	97.4	24.1	-75.2	3.4
2026-01-14 10:12:19.263885	96.9	24.3	-75.8	3.5
2026-01-14 10:12:21.536138	96.4	24.6	-75.6	4.8
2026-01-14 10:12:23.808307	95.8	24.8	-75.4	5.4
2026-01-14 10:12:26.084215	95.3	25.0	-75.4	4.2
2026-01-14 10:12:28.360745	94.8	25.2	-76.1	4.7
2026-01-14 10:12:30.629996	94.2	25.5	-75.9	4.7
2026-01-14 10:12:32.897009	93.7	25.7	-75.9	6.4
2026-01-14 10:12:35.162918	93.1	25.9	-76.1	6.0
2026-01-14 10:12:37.431472	92.6	26.1	-75.3	4.4
2026-01-14 10:12:39.700240	92.0	26.4	-75.2	3.4
2026-01-14 10:12:41.967749	91.4	26.6	-75.4	5.2
2026-01-14 10:12:44.235536	90.9	26.8	-75.1	3.6
2026-01-14 10:12:46.508410	90.3	27.0	-75.5	3.2
2026-01-14 10:12:48.784193	89.7	27.2	-74.8	5.0
2026-01-14 10:12:51.058222	89.0	27.4	-75.8	3.1
2026-01-14 10:12:53.336475	88.4	27.6	-75.8	5.8
2026-01-14 10:12:55.612755	87.8	27.9	-74.6	3.8
2026-01-14 10:12:57.889227	87.2	28.1	-76.0	5.6
2026-01-14 10:13:00.164549	86.5	28.3	-75.4	6.0
2026-01-14 10:13:02.442494	85.9	28.5	-75.5	7.0
2026-01-14 10:13:04.708110	85.2	28.7	-75.3	5.8
2026-01-14 10:13:06.970097	84.5	28.9	-75.3	6.1
2026-01-14 10:13:09.236545	83.9	29.0	-75.5	8.0
2026-01-14 10:13:11.499972	83.2	29.2	-75.8	7.7
2026-01-14 10:13:13.765336	82.5	29.4	-76.5	7.8
2026-01-14 10:13:16.028651	81.8	29.6	-76.0	5.6
2026-01-14 10:13:18.294327	81.1	29.8	-76.0	7.0
2026-01-14 10:13:20.559204	80.4	30.0	-75.9	7.0
2026-01-14 10:13:22.823763	79.7	30.1	-76.5	5.8
2026-01-14 10:13:25.090092	78.9	30.3	-75.3	5.8
2026-01-14 10:13:27.357369	78.2	30.4	-73.5	0.0
2026-01-14 10:13:29.628002	77.4	30.6	-74.6	4.4
2026-01-14 10:13:31.897594	76.7	30.8	-74.9	2.9
2026-01-14 10:13:34.166634	75.9	30.9	-74.4	1.9
2026-01-14 10:13:36.439506	75.2	31.0	-75.5	4.4
2026-01-14 10:13:38.715992	74.4	31.2	-75.5	5.0
2026-01-14 10:13:40.989660	73.6	31.3	-76.0	4.4
2026-01-14 10:13:43.270859	72.8	31.4	-75.5	2.0
2026-01-14 10:13:45.545912	72.0	31.6	-75.6	2.5
2026-01-14 10:13:47.818385	71.2	31.7	-75.3	3.4
2026-01-14 10:13:50.089991	70.4	31.8	-75.9	4.4
2026-01-14 10:13:52.362081	69.6	31.9	-74.3	2.8
2026-01-14 10:13:54.628659	68.8	32.0	-74.2	0.0
2026-01-14 10:13:56.898349	68.0	32.1	-73.2	0.0
2026-01-14 10:13:59.167779	67.2	32.2	-74.3	2.5
2026-01-14 10:14:01.435249	66.3	32.2	-74.3	1.2
2026-01-14 10:14:03.697807	65.5	32.3	-74.5	2.6
2026-01-14 10:14:05.955567	64.7	32.4	-75.5	4.3
2026-01-14 10:14:08.221456	63.9	32.4	-73.7	0.0
2026-01-14 10:14:10.488886	63.0	32.5	-73.8	0.0
2026-01-14 10:14:12.763221	62.2	32.5	-73.1	0.0
2026-01-14 10:14:15.038583	61.3	32.6	-72.9	0.0
2026-01-14 10:14:17.315108	60.5	32.6	-73.9	2.0
2026-01-14 10:14:19.587748	59.6	32.6	-71.4	0.0
2026-01-14 10:14:21.859679	58.8	32.6	-72.0	0.0
2026-01-14 10:14:24.131443	57.9	32.7	-72.6	0.0
2026-01-14 10:14:26.403000	57.1	32.7	-72.0	0.0
2026-01-14 10:14:28.678974	56.2	32.7	-72.8	0.0
2026-01-14 10:14:30.947927	55.4	32.6	-74.4	2.5
2026-01-14 10:14:33.221293	54.5	32.6	-74.2	0.0
2026-01-14 10:14:35.492538	53.7	32.6	-71.9	0.0
2026-01-14 10:14:37.765893	52.8	32.6	-71.6	0.0
2026-01-14 10:14:40.041858	52.0	32.5	-73.5	0.0
2026-01-14 10:14:42.316709	51.2	32.5	-74.2	2.1
2026-01-14 10:14:44.592214	50.3	32.4	-72.2	0.0
2026-01-14 10:14:46.867707	49.5	32.4	-73.3	0.0
2026-01-14 10:14:49.144761	48.6	32.3	-73.7	0.0
2026-01-14 10:14:51.416628	47.8	32.2	-71.2	0.0
2026-01-14 10:14:53.688856	47.0	32.1	-74.1	0.0
2026-01-14 10:14:55.961880	46.2	32.0	-72.0	0.0
2026-01-14 10:14:58.237967	45.4	32.0	-72.3	0.0
2026-01-14 10:15:00.511098	44.5	31.9	-70.0	0.0
2026-01-14 10:15:02.787787	43.7	31.7	-70.5	0.0
2026-01-14 10:15:05.063701	42.9	31.6	-71.0	0.0
2026-01-14 10:15:07.337798	42.1	31.5	-71.0	0.0
2026-01-14 10:15:09.613164	41.4	31.4	-69.4	0.0
2026-01-14 10:15:11.878909	40.6	31.3	-71.5	0.0
2026-01-14 10:15:14.143769	39.8	31.1	-67.4	0.0
2026-01-14 10:15:16.410186	39.0	31.0	-71.3	0.0
2026-01-14 10:15:18.673868	38.3	30.8	-71.1	0.0
2026-01-14 10:15:20.938548	37.5	30.7	-71.4	0.0
2026-01-14 10:15:23.206416	36.8	30.5	-71.2	0.0
2026-01-14 10:15:25.472120	36.0	30.4	-70.3	0.0
2026-01-14 10:15:27.736029	35.3	30.2	-69.1	0.0
2026-01-14 10:15:30.003412	34.6	30.1	-69.1	0.0
2026-01-14 10:15:32.273812	33.9	29.9	-70.1	0.0
2026-01-14 10:15:34.544980	33.2	29.7	-70.9	0.0
2026-01-14 10:15:36.819995	32.5	29.5	-71.1	0.0
2026-01-14 10:15:39.091615	31.8	29.4	-69.8	0.0
2026-01-14 10:15:41.364214	31.1	29.2	-70.8	0.0
2026-01-14 10:15:43.637822	30.4	29.0	-67.1	0.0
2026-01-14 10:15:45.908682	29.7	28.8	-69.5	0.0
2026-01-14 10:15:48.182628	29.1	28.6	-67.0	0.0
2026-01-14 10:15:50.454665	28.4	28.4	-70.2	0.0
2026-01-14 10:15:52.730522	27.8	28.2	-69.2	0.0
2026-01-14 10:15:55.003597	27.1	28.0	-69.0	0.0
2026-01-14 10:15:57.276176	26.5	27.8	-70.0	0.0
2026-01-14 10:15:59.546102	25.9	27.6	-66.8	0.0
2026-01-14 10:16:01.817875	25.3	27.4	-70.5	0.0
2026-01-14 10:16:04.093010	24.7	27.2	-68.5	0.0
2026-01-14 10:16:06.364838	24.1	26.9	-68.2	0.0
2026-01-14 10:16:08.638081	23.5	26.7	-69.5	0.0
2026-01-14 10:16:10.905529	22.9	26.5	-70.1	0.0
2026-01-14 10:16:13.169685	22.3	26.3	-68.2	0.0
2026-01-14 10:16:15.438259	21.8	26.1	-65.1	0.0
2026-01-14 10:16:17.704763	21.2	25.8	-68.0	0.0
2026-01-14 10:16:19.971482	20.7	25.6	-65.5	0.0
2026-01-14 10:16:22.241006	20.1	25.4	-67.9	0.0
2026-01-14 10:16:24.509401	19.6	25.2	-69.7	0.0
2026-01-14 10:16:26.783092	19.1	25.0	-66.7	0.0
2026-01-14 10:16:29.060497	18.5	24.7	-68.6	0.0
2026-01-14 10:16:31.332267	18.0	24.5	-67.6	0.0
2026-01-14 10:16:33.601314	17.5	24.3	-66.1	0.0
2026-01-14 10:16:35.870961	17.0	24.0	-67.4	0.0
2026-01-14 10:16:38.138409	16.5	23.8	-68.1	0.0
2026-01-14 10:16:40.408112	16.1	23.6	-67.4	0.0
2026-01-14 10:16:42.676739	15.6	23.4	-67.0	0.0
2026-01-14 10:16:44.948229	15.1	23.1	-70.0	0.0
2026-01-14 10:16:47.223592	14.7	22.9	-68.5	0.0
2026-01-14 10:16:49.499985	14.2	22.7	-68.2	0.0
2026-01-14 10:16:51.774156	13.8	22.5	-67.7	0.0
2026-01-14 10:16:54.044819	13.3	22.2	-70.2	0.0
2026-01-14 10:16:56.318987	12.9	22.0	-69.3	0.0
2026-01-14 10:16:58.582699	12.5	21.8	-69.2	0.0
2026-01-14 10:17:00.856864	12.0	21.5	-69.8	0.0
2026-01-14 10:17:03.132907	11.6	21.3	-66.6	0.0
2026-01-14 10:17:05.408853	11.2	21.1	-69.1	0.0
2026-01-14 10:17:07.684062	10.8	20.9	-70.2	0.0
2026-01-14 10:17:09.959386	10.4	20.6	-69.4	0.0
2026-01-14 10:17:12.235938	10.0	20.4	-68.1	0.0
2026-01-14 10:17:14.503658	9.6	20.2	-70.2	0.0
2026-01-14 10:17:16.763170	9.3	20.0	-69.4	0.0
2026-01-14 10:17:19.019318	8.9	19.8	-68.6	0.0
2026-01-14 10:17:21.276934	8.5	19.5	-68.5	0.0
2026-01-14 10:17:23.535276	8.2	19.3	-70.1	0.0
2026-01-14 10:17:25.791849	7.8	19.1	-68.1	0.0
2026-01-14 10:17:28.049500	7.5	18.9	-70.3	0.0
2026-01-14 10:17:30.309370	7.1	18.7	-71.2	0.0
2026-01-14 10:17:32.566566	6.8	18.4	-71.4	0.0
2026-01-14 10:17:34.826392	6.4	18.2	-70.9	0.0
2026-01-14 10:17:37.085915	6.1	18.0	-67.2	0.0
2026-01-14 10:17:39.363820	5.8	17.8	-71.0	0.0
2026-01-14 10:17:41.638601	5.4	17.6	-71.4	0.0
2026-01-14 10:17:43.914530	5.1	17.4	-71.2	0.0
2026-01-14 10:17:46.186158	4.8	17.2	-72.2	0.0
2026-01-14 10:17:48.458274	4.5	17.0	-72.2	0.0
2026-01-14 10:17:50.732808	4.2	16.7	-70.4	0.0
2026-01-14 10:17:53.006470	3.9	16.5	-71.8	0.0
2026-01-14 10:17:55.277503	3.6	16.3	-69.8	0.0
2026-01-14 10:17:57.550890	3.3	16.1	-68.7	0.0
2026-01-14 10:17:59.821034	3.0	15.9	-66.3	0.0
2026-01-14 10:18:02.091808	2.7	15.7	-69.5	0.0
2026-01-14 10:18:04.362826	2.5	15.5	-70.3	0.0
2026-01-14 10:18:06.633747	2.2	15.3	-72.2	0.0
2026-01-14 10:18:08.906784	1.9	15.1	-71.0	0.0
2026-01-14 10:18:11.175741	1.6	14.9	-69.7	0.0
2026-01-14 10:18:13.446087	1.4	14.7	-70.3	0.0
2026-01-14 10:18:15.722469	1.1	14.5	-70.8	0.0
2026-01-14 10:18:17.995718	0.9	14.3	-71.4	0.0
2026-01-14 10:18:20.271299	0.6	14.1	-71.7	0.0
2026-01-14 10:18:22.543692	0.4	13.9	-72.3	0.0
2026-01-14 10:18:24.817601	0.1	13.7	-69.2	0.0
2026-01-14 10:18:27.090006	359.9	13.5	-67.6	0.0
2026-01-14 10:18:29.365047	359.6	13.3	-71.0	0.0
2026-01-14 10:18:31.637777	359.4	13.1	-71.3	0.0
2026-01-14 10:18:33.913292	359.1	12.9	-69.0	0.0
2026-01-14 10:18:36.186947	358.9	12.8	-69.2	0.0
2026-01-14 10:18:38.456035	358.7	12.6	-71.8	0.0
2026-01-14 10:18:40.731181	358.5	12.4	-70.5	0.0
2026-01-14 10:18:43.003128	358.2	12.2	-71.7	0.0
2026-01-14 10:18:45.275412	358.0	12.0	-71.6	0.0
2026-01-14 10:18:47.547086	357.8	11.8	-70.9	0.0
2026-01-14 10:18:49.817092	357.6	11.6	-71.2	0.0
2026-01-14 10:18:52.087081	357.4	11.5	-69.4	0.0
2026-01-14 10:18:54.358683	357.2	11.3	-71.1	0.0
2026-01-14 10:18:56.627069	357.0	11.1	-67.4	0.0
2026-01-14 10:18:58.895869	356.8	10.9	-69.8	0.0
2026-01-14 10:19:01.164889	356.6	10.7	-71.1	0.0
2026-01-14 10:19:03.433860	356.4	10.6	-70.4	0.0
2026-01-14 10:19:05.700851	356.2	10.4	-73.4	0.0
2026-01-14 10:19:07.964388	356.0	10.2	-76.3	0.0
#Closed at: 2026-01-14 10:09:37.639858