passes_logs/2026/01/14/planumMaritime01/planumMaritime01__20260114_083957_METOP-C_rec.log

#Pass ID: 20260114_083957_METOP-C
#Satellite: METOP-C
#Configuration: METOP-C
#Start time: 2026-01-14 08:40:02.289164

#LorettStation: 1.0.0 05.05.2024
#Station: planumMaritime01
#Location: 37.49445 lon 55.92918 lat
#TLE: 1 43689U 18087A   26012.93337629  .00000090  00000+0  60903-4 0  9997
#TLE: 2 43689  98.6883  75.2176 0000430 188.2836 171.8334 14.21497815372770

#Time	Az	El	Level	SNR
2026-01-14 08:40:04.454759	7.5	10.2	-65.2	0.0
2026-01-14 08:40:06.707637	7.3	10.4	-63.7	0.0
2026-01-14 08:40:08.959620	7.2	10.6	-63.5	0.0
2026-01-14 08:40:11.212988	7.1	10.7	-61.2	0.0
2026-01-14 08:40:13.468326	6.9	10.9	-63.4	0.0
2026-01-14 08:40:15.722876	6.8	11.1	-63.0	0.0
2026-01-14 08:40:17.978958	6.6	11.3	-64.0	0.0
2026-01-14 08:40:20.231705	6.5	11.5	-60.8	0.0
2026-01-14 08:40:22.486384	6.3	11.7	-60.9	0.0
2026-01-14 08:40:24.739228	6.2	11.9	-63.2	0.0
2026-01-14 08:40:26.991042	6.0	12.1	-62.4	0.0
2026-01-14 08:40:29.243878	5.8	12.3	-63.2	0.0
2026-01-14 08:40:31.498698	5.7	12.5	-60.0	0.0
2026-01-14 08:40:33.754722	5.5	12.7	-59.9	0.0
2026-01-14 08:40:36.007940	5.3	12.9	-63.1	0.0
2026-01-14 08:40:38.260507	5.2	13.1	-64.0	0.0
2026-01-14 08:40:40.512639	5.0	13.3	-61.1	0.0
2026-01-14 08:40:42.763232	4.8	13.5	-64.9	0.0
2026-01-14 08:40:45.015816	4.7	13.7	-63.4	0.0
2026-01-14 08:40:47.268635	4.5	13.9	-64.4	0.0
2026-01-14 08:40:49.525380	4.3	14.2	-62.9	0.0
2026-01-14 08:40:51.778021	4.1	14.4	-64.8	0.0
2026-01-14 08:40:54.028884	3.9	14.6	-64.5	0.0
2026-01-14 08:40:56.284566	3.7	14.8	-63.9	0.0
2026-01-14 08:40:58.537359	3.5	15.0	-63.8	0.0
2026-01-14 08:41:00.792416	3.3	15.2	-61.4	0.0
2026-01-14 08:41:03.049170	3.1	15.5	-64.7	0.0
2026-01-14 08:41:05.302844	2.9	15.7	-62.5	0.0
2026-01-14 08:41:07.558027	2.7	15.9	-63.0	0.0
2026-01-14 08:41:09.808883	2.5	16.1	-65.4	0.0
2026-01-14 08:41:12.060428	2.3	16.4	-62.4	0.0
2026-01-14 08:41:14.319873	2.1	16.6	-64.3	0.0
2026-01-14 08:41:16.572423	1.9	16.8	-64.0	0.0
2026-01-14 08:41:18.828012	1.6	17.1	-63.7	0.0
2026-01-14 08:41:21.080385	1.4	17.3	-65.0	0.0
2026-01-14 08:41:23.333822	1.2	17.5	-63.8	0.0
2026-01-14 08:41:25.589912	1.0	17.8	-63.6	0.0
2026-01-14 08:41:27.841440	0.7	18.0	-64.4	0.0
2026-01-14 08:41:30.095285	0.5	18.3	-65.7	0.0
2026-01-14 08:41:32.353087	0.2	18.5	-64.9	0.0
2026-01-14 08:41:34.605871	360.0	18.8	-66.5	0.0
2026-01-14 08:41:36.862129	359.7	19.0	-64.2	0.0
2026-01-14 08:41:39.112583	359.5	19.3	-67.2	0.0
2026-01-14 08:41:41.365904	359.2	19.5	-67.7	0.0
2026-01-14 08:41:43.619135	358.9	19.8	-65.9	0.0
2026-01-14 08:41:45.871709	358.7	20.0	-64.7	0.0
2026-01-14 08:41:48.125779	358.4	20.3	-63.5	0.0
2026-01-14 08:41:50.378904	358.1	20.5	-65.5	0.0
2026-01-14 08:41:52.632023	357.8	20.8	-64.5	0.0
2026-01-14 08:41:54.883268	357.5	21.1	-62.8	0.0
2026-01-14 08:41:57.137655	357.2	21.3	-62.8	0.0
2026-01-14 08:41:59.389772	356.9	21.6	-64.4	0.0
2026-01-14 08:42:01.645564	356.6	21.9	-64.4	0.0
2026-01-14 08:42:03.898689	356.3	22.1	-64.3	0.0
2026-01-14 08:42:06.151256	356.0	22.4	-64.7	0.0
2026-01-14 08:42:08.408172	355.6	22.7	-66.2	0.0
2026-01-14 08:42:10.660755	355.3	23.0	-65.4	0.0
2026-01-14 08:42:12.915900	355.0	23.3	-65.7	0.0
2026-01-14 08:42:15.168574	354.6	23.5	-63.9	0.0
2026-01-14 08:42:17.422523	354.3	23.8	-66.0	0.0
2026-01-14 08:42:19.674996	353.9	24.1	-66.1	0.0
2026-01-14 08:42:21.933783	353.6	24.4	-66.0	0.0
2026-01-14 08:42:24.189220	353.2	24.7	-66.4	0.0
2026-01-14 08:42:26.443945	352.8	25.0	-66.2	0.0
2026-01-14 08:42:28.697713	352.4	25.3	-65.4	0.0
2026-01-14 08:42:30.950810	352.0	25.6	-64.5	0.0
2026-01-14 08:42:33.204443	351.6	25.9	-65.5	0.0
2026-01-14 08:42:35.460704	351.2	26.2	-65.1	0.0
2026-01-14 08:42:37.718240	350.8	26.5	-65.4	0.0
2026-01-14 08:42:39.971848	350.4	26.8	-66.0	0.0
2026-01-14 08:42:42.224427	350.0	27.1	-67.5	0.0
2026-01-14 08:42:44.483762	349.5	27.4	-67.4	0.0
2026-01-14 08:42:46.738830	349.1	27.7	-67.8	0.0
2026-01-14 08:42:48.993821	348.6	28.0	-66.7	0.0
2026-01-14 08:42:51.248310	348.1	28.3	-68.0	0.0
2026-01-14 08:42:53.502016	347.7	28.6	-68.7	0.0
2026-01-14 08:42:55.752941	347.2	28.9	-67.5	0.0
2026-01-14 08:42:58.010911	346.7	29.3	-69.6	0.0
2026-01-14 08:43:00.265511	346.2	29.6	-68.2	0.0
2026-01-14 08:43:02.519549	345.6	29.9	-68.7	0.0
2026-01-14 08:43:04.774282	345.1	30.2	-67.9	0.0
2026-01-14 08:43:07.028207	344.6	30.5	-67.8	0.0
2026-01-14 08:43:09.281985	344.0	30.9	-67.7	0.0
2026-01-14 08:43:11.535822	343.5	31.2	-67.4	0.0
2026-01-14 08:43:13.788545	342.9	31.5	-67.5	0.0
2026-01-14 08:43:16.042321	342.3	31.8	-67.2	0.0
2026-01-14 08:43:18.293979	341.7	32.1	-68.0	0.0
2026-01-14 08:43:20.546694	341.1	32.5	-68.3	0.0
2026-01-14 08:43:22.799516	340.5	32.8	-68.6	0.0
2026-01-14 08:43:25.052448	339.9	33.1	-68.2	0.0
2026-01-14 08:43:27.306391	339.2	33.4	-68.5	0.0
2026-01-14 08:43:29.558990	338.6	33.7	-67.8	0.9
2026-01-14 08:43:31.811145	337.9	34.0	-68.6	0.0
2026-01-14 08:43:34.062850	337.2	34.4	-68.1	1.3
2026-01-14 08:43:36.316702	336.5	34.7	-68.7	0.4
2026-01-14 08:43:38.570948	335.8	35.0	-70.2	2.7
2026-01-14 08:43:40.826633	335.1	35.3	-67.9	0.0
2026-01-14 08:43:43.079192	334.3	35.6	-68.4	0.0
2026-01-14 08:43:45.333803	333.6	35.9	-70.4	2.7
2026-01-14 08:43:47.589457	332.8	36.2	-69.3	4.1
2026-01-14 08:43:49.843894	332.0	36.5	-70.1	4.1
2026-01-14 08:43:52.097507	331.2	36.8	-68.7	3.1
2026-01-14 08:43:54.349561	330.4	37.1	-70.8	6.7
2026-01-14 08:43:56.604059	329.6	37.4	-71.1	6.0
2026-01-14 08:43:58.854476	328.8	37.7	-70.9	1.7
2026-01-14 08:44:01.108810	327.9	38.0	-70.3	4.6
2026-01-14 08:44:03.364708	327.0	38.2	-69.9	4.3
2026-01-14 08:44:05.619861	326.2	38.5	-70.4	0.6
2026-01-14 08:44:07.871025	325.3	38.8	-70.4	2.8
2026-01-14 08:44:10.121905	324.3	39.0	-70.5	3.0
2026-01-14 08:44:12.373125	323.4	39.3	-69.2	2.5
2026-01-14 08:44:14.626083	322.5	39.5	-70.5	4.3
2026-01-14 08:44:16.879367	321.5	39.7	-72.0	6.7
2026-01-14 08:44:19.133225	320.5	40.0	-71.2	3.8
2026-01-14 08:44:21.387855	319.6	40.2	-71.4	5.1
2026-01-14 08:44:23.640640	318.6	40.4	-71.9	8.2
2026-01-14 08:44:25.893551	317.6	40.6	-72.0	9.3
2026-01-14 08:44:28.147340	316.5	40.8	-69.9	3.4
2026-01-14 08:44:30.398515	315.5	41.0	-71.7	8.8
2026-01-14 08:44:32.653929	314.4	41.2	-68.4	2.6
2026-01-14 08:44:34.907743	313.4	41.3	-70.6	5.0
2026-01-14 08:44:37.160850	312.3	41.5	-67.9	0.0
2026-01-14 08:44:39.413807	311.2	41.6	-68.1	1.1
2026-01-14 08:44:41.665898	310.2	41.7	-68.9	4.0
2026-01-14 08:44:43.918749	309.1	41.9	-71.2	7.5
2026-01-14 08:44:46.170760	308.0	42.0	-71.4	5.9
2026-01-14 08:44:48.424003	306.8	42.1	-72.2	7.7
2026-01-14 08:44:50.677427	305.7	42.2	-67.4	0.0
2026-01-14 08:44:52.930705	304.6	42.2	-68.1	2.1
2026-01-14 08:44:55.182173	303.5	42.3	-67.2	0.0
2026-01-14 08:44:57.439385	302.3	42.3	-68.6	1.7
2026-01-14 08:44:59.691713	301.2	42.4	-70.1	3.1
2026-01-14 08:45:01.950230	300.1	42.4	-71.7	6.3
2026-01-14 08:45:04.207208	298.9	42.4	-70.9	7.7
2026-01-14 08:45:06.459155	297.8	42.4	-67.2	0.0
2026-01-14 08:45:08.711454	296.6	42.4	-71.7	8.7
2026-01-14 08:45:10.964598	295.5	42.4	-70.6	5.9
2026-01-14 08:45:13.216134	294.4	42.3	-71.2	6.6
2026-01-14 08:45:15.470198	293.2	42.3	-70.7	6.0
2026-01-14 08:45:17.723844	292.1	42.2	-71.1	7.9
2026-01-14 08:45:19.976700	291.0	42.1	-71.6	6.2
2026-01-14 08:45:22.230829	289.9	42.0	-71.8	9.4
2026-01-14 08:45:24.485745	288.8	41.9	-71.7	7.0
2026-01-14 08:45:26.737989	287.7	41.8	-71.6	6.6
2026-01-14 08:45:28.995886	286.6	41.7	-71.5	7.7
2026-01-14 08:45:31.249624	285.5	41.6	-72.0	8.8
2026-01-14 08:45:33.500441	284.4	41.4	-71.6	9.1
2026-01-14 08:45:35.752883	283.3	41.2	-71.7	6.5
2026-01-14 08:45:38.005813	282.3	41.1	-72.0	8.9
2026-01-14 08:45:40.262385	281.2	40.9	-71.9	9.2
2026-01-14 08:45:42.514300	280.2	40.7	-71.5	8.3
2026-01-14 08:45:44.768496	279.2	40.5	-71.8	8.0
2026-01-14 08:45:47.025697	278.2	40.3	-72.3	8.9
2026-01-14 08:45:49.277739	277.2	40.1	-71.7	5.8
2026-01-14 08:45:51.532570	276.2	39.9	-72.8	10.4
2026-01-14 08:45:53.784826	275.2	39.6	-73.0	9.5
2026-01-14 08:45:56.037352	274.3	39.4	-72.6	8.0
2026-01-14 08:45:58.293332	273.3	39.1	-72.4	7.2
2026-01-14 08:46:00.543595	272.4	38.9	-73.1	10.1
2026-01-14 08:46:02.796903	271.5	38.6	-73.2	7.9
2026-01-14 08:46:05.053786	270.6	38.4	-73.5	9.0
2026-01-14 08:46:07.306140	269.7	38.1	-73.0	9.3
2026-01-14 08:46:09.558207	268.9	37.8	-73.3	8.9
2026-01-14 08:46:11.808788	268.0	37.5	-73.4	9.5
2026-01-14 08:46:14.061599	267.2	37.3	-72.8	8.8
2026-01-14 08:46:16.319173	266.4	37.0	-72.9	11.2
2026-01-14 08:46:18.571541	265.6	36.7	-73.2	10.6
2026-01-14 08:46:20.824334	264.8	36.4	-73.4	10.5
2026-01-14 08:46:23.074932	264.0	36.1	-73.3	9.0
2026-01-14 08:46:25.326961	263.2	35.8	-72.6	7.9
2026-01-14 08:46:27.580066	262.5	35.5	-73.5	9.3
2026-01-14 08:46:29.832553	261.7	35.1	-73.5	10.6
2026-01-14 08:46:32.084045	261.0	34.8	-73.5	9.7
2026-01-14 08:46:34.337091	260.3	34.5	-73.8	10.9
2026-01-14 08:46:36.589682	259.6	34.2	-73.5	11.3
2026-01-14 08:46:38.841110	258.9	33.9	-73.5	10.1
2026-01-14 08:46:41.094643	258.3	33.6	-73.6	9.9
2026-01-14 08:46:43.346145	257.6	33.2	-74.1	10.7
2026-01-14 08:46:45.597797	257.0	32.9	-73.9	8.2
2026-01-14 08:46:47.851523	256.3	32.6	-74.2	9.4
2026-01-14 08:46:50.106593	255.7	32.3	-74.1	8.9
2026-01-14 08:46:52.357074	255.1	32.0	-74.5	9.5
2026-01-14 08:46:54.608588	254.5	31.6	-74.0	8.6
2026-01-14 08:46:56.860961	254.0	31.3	-74.3	8.2
2026-01-14 08:46:59.112384	253.4	31.0	-73.9	9.0
2026-01-14 08:47:01.365767	252.8	30.7	-74.0	9.9
2026-01-14 08:47:03.618341	252.3	30.4	-74.0	10.1
2026-01-14 08:47:05.871137	251.7	30.0	-73.7	8.6
2026-01-14 08:47:08.127894	251.2	29.7	-73.8	9.2
2026-01-14 08:47:10.381494	250.7	29.4	-74.3	9.2
2026-01-14 08:47:12.635663	250.2	29.1	-74.1	9.2
2026-01-14 08:47:14.888300	249.7	28.8	-74.6	9.4
2026-01-14 08:47:17.140050	249.2	28.5	-74.6	9.4
2026-01-14 08:47:19.393071	248.7	28.1	-74.6	9.8
2026-01-14 08:47:21.646446	248.3	27.8	-74.5	10.5
2026-01-14 08:47:23.900063	247.8	27.5	-74.2	10.2
2026-01-14 08:47:26.152209	247.4	27.2	-73.9	9.3
2026-01-14 08:47:28.403471	246.9	26.9	-74.2	8.9
2026-01-14 08:47:30.654912	246.5	26.6	-74.5	9.2
2026-01-14 08:47:32.907023	246.1	26.3	-74.1	10.2
2026-01-14 08:47:35.160560	245.7	26.0	-74.2	9.9
2026-01-14 08:47:37.412005	245.3	25.7	-74.1	9.8
2026-01-14 08:47:39.665840	244.9	25.4	-74.6	7.5
2026-01-14 08:47:41.917841	244.5	25.1	-74.3	6.5
2026-01-14 08:47:44.168285	244.1	24.8	-74.2	9.2
2026-01-14 08:47:46.421305	243.7	24.5	-74.0	9.0
2026-01-14 08:47:48.674677	243.3	24.2	-74.2	9.0
2026-01-14 08:47:50.928418	243.0	23.9	-74.0	8.4
2026-01-14 08:47:53.181334	242.6	23.6	-74.1	7.6
2026-01-14 08:47:55.435138	242.3	23.4	-74.1	8.0
2026-01-14 08:47:57.691507	241.9	23.1	-74.2	7.5
2026-01-14 08:47:59.942315	241.6	22.8	-74.3	8.3
2026-01-14 08:48:02.194563	241.2	22.5	-74.2	7.6
2026-01-14 08:48:04.445679	240.9	22.2	-74.1	6.6
2026-01-14 08:48:06.697845	240.6	22.0	-74.3	7.9
2026-01-14 08:48:08.949009	240.3	21.7	-74.8	7.6
2026-01-14 08:48:11.202378	240.0	21.4	-74.7	8.1
2026-01-14 08:48:13.455511	239.7	21.1	-75.3	7.6
2026-01-14 08:48:15.709058	239.4	20.9	-74.9	8.4
2026-01-14 08:48:17.960027	239.1	20.6	-74.7	7.6
2026-01-14 08:48:20.211716	238.8	20.3	-74.9	6.7
2026-01-14 08:48:22.465906	238.5	20.1	-74.9	5.8
2026-01-14 08:48:24.719051	238.2	19.8	-75.1	8.0
2026-01-14 08:48:26.973877	238.0	19.6	-74.9	6.4
2026-01-14 08:48:29.228822	237.7	19.3	-75.1	6.2
2026-01-14 08:48:31.481130	237.4	19.1	-74.3	6.7
2026-01-14 08:48:33.737764	237.2	18.8	-74.8	7.1
2026-01-14 08:48:35.991261	236.9	18.6	-74.7	6.0
2026-01-14 08:48:38.245024	236.7	18.3	-74.3	4.7
2026-01-14 08:48:40.499771	236.4	18.1	-75.1	5.0
2026-01-14 08:48:42.756653	236.2	17.8	-75.3	6.1
2026-01-14 08:48:45.013867	235.9	17.6	-75.4	6.0
2026-01-14 08:48:47.270816	235.7	17.3	-75.4	6.9
2026-01-14 08:48:49.524540	235.5	17.1	-75.0	6.5
2026-01-14 08:48:51.775497	235.2	16.9	-75.3	7.0
2026-01-14 08:48:54.026800	235.0	16.6	-74.8	4.8
2026-01-14 08:48:56.281691	234.8	16.4	-75.1	6.7
2026-01-14 08:48:58.531379	234.6	16.2	-75.3	5.3
2026-01-14 08:49:00.783282	234.4	15.9	-74.7	5.8
2026-01-14 08:49:03.035696	234.2	15.7	-75.1	4.7
2026-01-14 08:49:05.287754	234.0	15.5	-74.7	3.8
2026-01-14 08:49:07.538709	233.8	15.3	-74.1	3.2
2026-01-14 08:49:09.789828	233.6	15.0	-73.5	2.6
2026-01-14 08:49:12.045724	233.4	14.8	-73.6	2.5
2026-01-14 08:49:14.294869	233.2	14.6	-75.4	5.5
2026-01-14 08:49:16.545162	233.0	14.4	-75.1	4.9
2026-01-14 08:49:18.794938	232.8	14.2	-74.7	4.1
2026-01-14 08:49:21.048808	232.6	14.0	-74.7	2.0
2026-01-14 08:49:23.301008	232.4	13.7	-75.0	4.6
2026-01-14 08:49:25.552892	232.2	13.5	-75.2	5.5
2026-01-14 08:49:27.803683	232.1	13.3	-74.9	4.4
2026-01-14 08:49:30.060572	231.9	13.1	-73.8	3.1
2026-01-14 08:49:32.311747	231.7	12.9	-74.0	4.7
2026-01-14 08:49:34.565387	231.5	12.7	-73.5	3.0
2026-01-14 08:49:36.819716	231.4	12.5	-74.3	4.4
2026-01-14 08:49:39.070728	231.2	12.3	-74.3	1.4
2026-01-14 08:49:41.322326	231.0	12.1	-75.0	5.1
2026-01-14 08:49:43.573352	230.9	11.9	-74.7	3.9
2026-01-14 08:49:45.824694	230.7	11.7	-75.0	4.7
2026-01-14 08:49:48.076535	230.6	11.5	-74.9	3.1
2026-01-14 08:49:50.328791	230.4	11.3	-75.1	3.2
2026-01-14 08:49:52.582462	230.3	11.1	-75.3	3.1
2026-01-14 08:49:54.834988	230.1	10.9	-74.8	2.9
2026-01-14 08:49:57.085827	230.0	10.7	-76.0	2.9
2026-01-14 08:49:59.337788	229.8	10.5	-77.7	0.0
2026-01-14 08:50:01.590758	229.7	10.4	-78.6	0.0
2026-01-14 08:50:03.843478	229.5	10.2	-79.0	0.0
#Closed at: 2026-01-14 08:39:57.295148