passes_logs/2026/01/14/planumMaritime01/planumMaritime01__20260114_235752_METEOR-M2_4_rec.log

#Pass ID: 20260114_235752_METEOR-M2 4
#Satellite: METEOR-M2 4
#Configuration: METEOR-M2 4
#Start time: 2026-01-14 23:57:57.221144

#LorettStation: 1.0.0 05.05.2024
#Station: planumMaritime01
#Location: 37.49445 lon 55.92918 lat
#TLE: 1 59051U 24039A   26014.27408039  .00000009  00000+0  23553-4 0  9994
#TLE: 2 59051  98.6812 335.6805 0005983 253.6260 106.4261 14.22407180 97381

#Time	Az	El	Level	SNR
2026-01-14 23:57:59.389680	30.8	10.2	-82.0	0.0
2026-01-14 23:58:01.635192	31.0	10.3	-81.7	0.0
2026-01-14 23:58:03.883784	31.2	10.5	-80.5	0.0
2026-01-14 23:58:06.133498	31.4	10.7	-75.8	0.0
2026-01-14 23:58:08.377787	31.6	10.8	-74.9	0.0
2026-01-14 23:58:10.624571	31.8	11.0	-73.9	0.0
2026-01-14 23:58:12.870934	32.1	11.2	-70.4	0.0
2026-01-14 23:58:15.118574	32.3	11.4	-71.3	0.0
2026-01-14 23:58:17.363403	32.5	11.5	-68.9	0.0
2026-01-14 23:58:19.612850	32.7	11.7	-72.2	0.0
2026-01-14 23:58:21.860999	33.0	11.9	-71.7	0.0
2026-01-14 23:58:24.111097	33.2	12.1	-71.5	0.0
2026-01-14 23:58:26.359100	33.4	12.3	-71.4	0.0
2026-01-14 23:58:28.610562	33.7	12.4	-68.9	0.0
2026-01-14 23:58:30.861115	33.9	12.6	-72.1	0.0
2026-01-14 23:58:33.107139	34.1	12.8	-72.3	0.0
2026-01-14 23:58:35.353804	34.4	13.0	-73.0	0.0
2026-01-14 23:58:37.603257	34.6	13.2	-70.7	0.0
2026-01-14 23:58:39.849879	34.9	13.4	-73.2	0.0
2026-01-14 23:58:42.099534	35.1	13.5	-72.7	0.0
2026-01-14 23:58:44.346208	35.4	13.7	-70.7	0.0
2026-01-14 23:58:46.593926	35.6	13.9	-72.0	0.0
2026-01-14 23:58:48.841778	35.9	14.1	-72.7	0.0
2026-01-14 23:58:51.087167	36.2	14.3	-73.5	0.0
2026-01-14 23:58:53.337727	36.4	14.5	-74.3	0.0
2026-01-14 23:58:55.589644	36.7	14.7	-72.1	0.0
2026-01-14 23:58:57.838017	37.0	14.9	-73.2	0.0
2026-01-14 23:59:00.084519	37.3	15.1	-74.6	0.0
2026-01-14 23:59:02.330684	37.6	15.3	-75.2	0.0
2026-01-14 23:59:04.577889	37.8	15.5	-75.0	0.0
2026-01-14 23:59:06.825183	38.1	15.7	-74.0	0.0
2026-01-14 23:59:09.073761	38.4	15.9	-74.7	0.2
2026-01-14 23:59:11.323068	38.7	16.1	-72.9	0.0
2026-01-14 23:59:13.569532	39.0	16.3	-75.0	0.0
2026-01-14 23:59:15.818679	39.3	16.5	-73.9	0.0
2026-01-14 23:59:18.066068	39.6	16.7	-72.4	0.0
2026-01-14 23:59:20.315828	40.0	16.9	-75.2	2.8
2026-01-14 23:59:22.565232	40.3	17.1	-74.5	0.0
2026-01-14 23:59:24.811518	40.6	17.3	-72.2	0.0
2026-01-14 23:59:27.060066	40.9	17.5	-73.2	0.0
2026-01-14 23:59:29.310806	41.3	17.7	-73.4	1.0
2026-01-14 23:59:31.558386	41.6	17.9	-72.3	0.0
2026-01-14 23:59:33.808240	41.9	18.1	-75.4	3.2
2026-01-14 23:59:36.054528	42.3	18.3	-74.7	1.4
2026-01-14 23:59:38.301920	42.6	18.5	-75.9	3.0
2026-01-14 23:59:40.546904	43.0	18.7	-75.6	3.1
2026-01-14 23:59:42.795462	43.3	18.9	-75.3	2.5
2026-01-14 23:59:45.044805	43.7	19.1	-75.8	5.1
2026-01-14 23:59:47.294034	44.1	19.3	-75.7	1.8
2026-01-14 23:59:49.541023	44.4	19.6	-75.2	0.4
2026-01-14 23:59:51.787267	44.8	19.8	-75.6	3.9
2026-01-14 23:59:54.038501	45.2	20.0	-74.9	4.9
2026-01-14 23:59:56.288729	45.6	20.2	-76.1	7.3
2026-01-14 23:59:58.537547	46.0	20.4	-76.3	6.5
2026-01-15 00:00:00.784908	46.4	20.6	-76.4	4.4
2026-01-15 00:00:03.031365	46.8	20.8	-76.4	8.0
2026-01-15 00:00:05.279300	47.2	21.1	-76.2	6.7
2026-01-15 00:00:07.528793	47.6	21.3	-76.7	8.8
2026-01-15 00:00:09.776081	48.0	21.5	-76.7	7.3
2026-01-15 00:00:12.028555	48.5	21.7	-75.6	4.2
2026-01-15 00:00:14.277846	48.9	21.9	-75.3	3.9
2026-01-15 00:00:16.525883	49.3	22.2	-75.5	5.2
2026-01-15 00:00:18.775612	49.8	22.4	-75.3	4.4
2026-01-15 00:00:21.023473	50.2	22.6	-75.6	5.7
2026-01-15 00:00:23.271379	50.7	22.8	-76.0	5.6
2026-01-15 00:00:25.519374	51.2	23.0	-75.9	5.1
2026-01-15 00:00:27.764083	51.6	23.2	-74.6	4.9
2026-01-15 00:00:30.009561	52.1	23.5	-76.7	4.7
2026-01-15 00:00:32.258787	52.6	23.7	-76.3	9.0
2026-01-15 00:00:34.509796	53.1	23.9	-77.1	9.9
2026-01-15 00:00:36.759407	53.6	24.1	-76.5	6.3
2026-01-15 00:00:39.005420	54.1	24.3	-76.9	8.1
2026-01-15 00:00:41.253859	54.6	24.5	-76.1	9.3
2026-01-15 00:00:43.502620	55.1	24.8	-76.8	8.5
2026-01-15 00:00:45.751586	55.7	25.0	-77.3	9.6
2026-01-15 00:00:47.998715	56.2	25.2	-75.7	6.7
2026-01-15 00:00:50.247416	56.7	25.4	-77.0	8.9
2026-01-15 00:00:52.493468	57.3	25.6	-77.3	10.0
2026-01-15 00:00:54.741893	57.8	25.8	-77.4	9.4
2026-01-15 00:00:56.989749	58.4	26.0	-76.8	6.5
2026-01-15 00:00:59.238126	59.0	26.3	-77.6	10.3
2026-01-15 00:01:01.486805	59.5	26.5	-77.6	10.2
2026-01-15 00:01:03.731454	60.1	26.7	-77.2	11.0
2026-01-15 00:01:05.977555	60.7	26.9	-77.0	9.8
2026-01-15 00:01:08.230878	61.3	27.1	-76.8	7.6
2026-01-15 00:01:10.479810	61.9	27.3	-77.0	9.6
2026-01-15 00:01:12.729088	62.5	27.5	-77.5	9.4
2026-01-15 00:01:14.977565	63.2	27.7	-77.5	11.6
2026-01-15 00:01:17.223622	63.8	27.9	-77.6	9.9
2026-01-15 00:01:19.471528	64.4	28.1	-77.7	11.6
2026-01-15 00:01:21.718443	65.1	28.3	-77.8	12.0
2026-01-15 00:01:23.965529	65.7	28.4	-77.7	12.2
2026-01-15 00:01:26.214084	66.4	28.6	-77.7	12.5
2026-01-15 00:01:28.461726	67.1	28.8	-77.2	11.4
2026-01-15 00:01:30.713247	67.7	29.0	-77.4	12.0
2026-01-15 00:01:32.962513	68.4	29.2	-77.7	12.9
2026-01-15 00:01:35.211739	69.1	29.3	-77.5	11.3
2026-01-15 00:01:37.462922	69.8	29.5	-77.9	12.2
2026-01-15 00:01:39.714551	70.5	29.7	-77.9	11.8
2026-01-15 00:01:41.961546	71.2	29.8	-78.3	11.4
2026-01-15 00:01:44.209461	71.9	30.0	-77.8	12.4
2026-01-15 00:01:46.456793	72.7	30.2	-78.3	12.9
2026-01-15 00:01:48.707840	73.4	30.3	-78.2	12.3
2026-01-15 00:01:50.953323	74.1	30.5	-78.1	11.5
2026-01-15 00:01:53.200064	74.9	30.6	-77.9	12.7
2026-01-15 00:01:55.446111	75.6	30.7	-78.3	12.5
2026-01-15 00:01:57.694802	76.4	30.9	-78.0	12.1
2026-01-15 00:01:59.942820	77.2	31.0	-78.1	12.0
2026-01-15 00:02:02.192382	77.9	31.1	-77.8	11.5
2026-01-15 00:02:04.442752	78.7	31.2	-77.9	11.7
2026-01-15 00:02:06.691995	79.5	31.3	-78.2	12.8
2026-01-15 00:02:08.938799	80.3	31.4	-78.4	11.9
2026-01-15 00:02:11.187056	81.1	31.5	-77.2	10.6
2026-01-15 00:02:13.434342	81.9	31.6	-77.7	12.2
2026-01-15 00:02:15.679952	82.7	31.7	-77.8	12.6
2026-01-15 00:02:17.927771	83.5	31.8	-77.8	11.2
2026-01-15 00:02:20.177494	84.3	31.9	-76.3	12.0
2026-01-15 00:02:22.427668	85.1	32.0	-77.9	12.5
2026-01-15 00:02:24.676068	85.9	32.0	-77.8	12.0
2026-01-15 00:02:26.923378	86.7	32.1	-77.8	12.3
2026-01-15 00:02:29.171950	87.6	32.1	-78.0	11.8
2026-01-15 00:02:31.423763	88.4	32.2	-78.2	12.1
2026-01-15 00:02:33.674882	89.2	32.2	-78.2	12.9
2026-01-15 00:02:35.926055	90.1	32.3	-78.0	11.3
2026-01-15 00:02:38.176271	90.9	32.3	-78.1	12.3
2026-01-15 00:02:40.424275	91.7	32.3	-78.3	12.7
2026-01-15 00:02:42.671947	92.6	32.3	-78.1	12.7
2026-01-15 00:02:44.921372	93.4	32.3	-77.8	12.5
2026-01-15 00:02:47.171009	94.2	32.3	-77.9	12.9
2026-01-15 00:02:49.422946	95.1	32.3	-78.0	12.9
2026-01-15 00:02:51.673437	95.9	32.3	-78.2	13.3
2026-01-15 00:02:53.921683	96.7	32.3	-78.1	12.8
2026-01-15 00:02:56.170582	97.6	32.3	-77.7	13.0
2026-01-15 00:02:58.417510	98.4	32.2	-78.2	12.7
2026-01-15 00:03:00.665202	99.2	32.2	-78.4	12.6
2026-01-15 00:03:02.914131	100.1	32.2	-78.3	12.6
2026-01-15 00:03:05.162598	100.9	32.1	-78.2	12.8
2026-01-15 00:03:07.415604	101.7	32.1	-78.2	13.1
2026-01-15 00:03:09.665976	102.5	32.0	-78.3	12.9
2026-01-15 00:03:11.913723	103.4	31.9	-78.1	13.9
2026-01-15 00:03:14.163817	104.2	31.8	-78.1	13.1
2026-01-15 00:03:16.413616	105.0	31.8	-78.2	12.9
2026-01-15 00:03:18.663920	105.8	31.7	-78.2	13.3
2026-01-15 00:03:20.913624	106.6	31.6	-78.4	12.8
2026-01-15 00:03:23.161925	107.4	31.5	-78.5	13.0
2026-01-15 00:03:25.408240	108.2	31.4	-78.2	12.6
2026-01-15 00:03:27.656225	109.0	31.3	-78.4	13.6
2026-01-15 00:03:29.904639	109.7	31.1	-78.4	13.0
2026-01-15 00:03:32.156567	110.5	31.0	-78.6	13.7
2026-01-15 00:03:34.404987	111.3	30.9	-78.5	13.5
2026-01-15 00:03:36.651633	112.1	30.8	-78.5	12.6
2026-01-15 00:03:38.903324	112.8	30.6	-78.6	13.1
2026-01-15 00:03:41.153300	113.6	30.5	-78.5	13.5
2026-01-15 00:03:43.401048	114.3	30.3	-78.5	14.0
2026-01-15 00:03:45.647640	115.0	30.2	-78.4	13.7
2026-01-15 00:03:47.896968	115.8	30.0	-78.6	13.6
2026-01-15 00:03:50.143814	116.5	29.9	-78.4	13.1
2026-01-15 00:03:52.392602	117.2	29.7	-78.6	13.1
2026-01-15 00:03:54.642280	117.9	29.5	-78.5	13.3
2026-01-15 00:03:56.890990	118.6	29.4	-78.6	13.7
2026-01-15 00:03:59.138520	119.3	29.2	-78.8	13.3
2026-01-15 00:04:01.388241	120.0	29.0	-78.9	13.4
2026-01-15 00:04:03.637332	120.7	28.8	-78.5	13.5
2026-01-15 00:04:05.888729	121.4	28.7	-78.7	13.1
2026-01-15 00:04:08.136335	122.0	28.5	-78.3	12.4
2026-01-15 00:04:10.385596	122.7	28.3	-78.9	13.2
2026-01-15 00:04:12.631198	123.3	28.1	-78.8	13.0
2026-01-15 00:04:14.878856	124.0	27.9	-78.6	13.3
2026-01-15 00:04:17.127072	124.6	27.7	-78.3	13.5
2026-01-15 00:04:19.376394	125.3	27.5	-78.9	12.9
2026-01-15 00:04:21.625187	125.9	27.3	-78.8	12.6
2026-01-15 00:04:23.872020	126.5	27.1	-78.5	12.4
2026-01-15 00:04:26.118351	127.1	26.9	-78.8	12.6
2026-01-15 00:04:28.365752	127.7	26.7	-78.6	12.4
2026-01-15 00:04:30.615060	128.3	26.5	-79.0	11.4
2026-01-15 00:04:32.865310	128.9	26.3	-78.8	12.8
2026-01-15 00:04:35.113550	129.4	26.1	-78.9	10.6
2026-01-15 00:04:37.365837	130.0	25.9	-78.6	12.8
2026-01-15 00:04:39.613435	130.6	25.6	-78.6	12.1
2026-01-15 00:04:41.860641	131.1	25.4	-78.0	10.3
2026-01-15 00:04:44.107471	131.7	25.2	-78.6	11.9
2026-01-15 00:04:46.359346	132.2	25.0	-79.0	8.7
2026-01-15 00:04:48.607053	132.7	24.8	-78.9	12.1
2026-01-15 00:04:50.855696	133.2	24.6	-79.0	10.0
2026-01-15 00:04:53.100886	133.8	24.3	-78.8	12.4
2026-01-15 00:04:55.349366	134.3	24.1	-78.8	12.6
2026-01-15 00:04:57.596548	134.8	23.9	-79.0	12.7
2026-01-15 00:04:59.843427	135.3	23.7	-78.5	11.4
2026-01-15 00:05:02.089806	135.8	23.5	-78.0	13.2
2026-01-15 00:05:04.335648	136.2	23.2	-78.6	12.2
2026-01-15 00:05:06.584055	136.7	23.0	-78.7	12.9
2026-01-15 00:05:08.831146	137.2	22.8	-78.5	12.9
2026-01-15 00:05:11.081701	137.7	22.6	-78.7	12.4
2026-01-15 00:05:13.328761	138.1	22.4	-78.7	9.9
2026-01-15 00:05:15.579234	138.6	22.1	-78.9	11.2
2026-01-15 00:05:17.827939	139.0	21.9	-79.0	12.6
2026-01-15 00:05:20.075535	139.4	21.7	-78.2	12.2
2026-01-15 00:05:22.325229	139.9	21.5	-79.0	11.6
2026-01-15 00:05:24.573731	140.3	21.3	-79.1	10.8
2026-01-15 00:05:26.825407	140.7	21.0	-78.7	12.1
2026-01-15 00:05:29.072680	141.1	20.8	-78.7	12.4
2026-01-15 00:05:31.323157	141.5	20.6	-78.7	10.8
2026-01-15 00:05:33.571985	141.9	20.4	-78.8	12.6
2026-01-15 00:05:35.818450	142.3	20.2	-78.8	12.1
2026-01-15 00:05:38.068201	142.7	19.9	-78.5	12.7
2026-01-15 00:05:40.313604	143.1	19.7	-78.4	11.9
2026-01-15 00:05:42.563807	143.5	19.5	-79.0	12.4
2026-01-15 00:05:44.811035	143.9	19.3	-79.1	12.1
2026-01-15 00:05:47.064958	144.2	19.1	-79.2	12.1
2026-01-15 00:05:49.313067	144.6	18.9	-79.2	12.1
2026-01-15 00:05:51.563029	145.0	18.7	-79.3	10.3
2026-01-15 00:05:53.809344	145.3	18.4	-79.4	11.3
2026-01-15 00:05:56.060467	145.7	18.2	-78.9	11.5
2026-01-15 00:05:58.311296	146.0	18.0	-78.8	11.7
2026-01-15 00:06:00.559572	146.4	17.8	-79.1	11.2
2026-01-15 00:06:02.808450	146.7	17.6	-79.1	11.3
2026-01-15 00:06:05.055985	147.0	17.4	-79.6	11.0
2026-01-15 00:06:07.304437	147.4	17.2	-79.4	10.2
2026-01-15 00:06:09.551056	147.7	17.0	-79.4	10.5
2026-01-15 00:06:11.802284	148.0	16.8	-79.2	10.1
2026-01-15 00:06:14.051526	148.3	16.6	-79.0	10.1
2026-01-15 00:06:16.301457	148.6	16.4	-78.9	9.9
2026-01-15 00:06:18.549962	149.0	16.2	-79.2	10.7
2026-01-15 00:06:20.799684	149.3	16.0	-79.2	11.0
2026-01-15 00:06:23.046114	149.6	15.8	-79.4	10.5
2026-01-15 00:06:25.292329	149.8	15.6	-79.4	10.6
2026-01-15 00:06:27.541452	150.1	15.4	-79.4	10.3
2026-01-15 00:06:29.789711	150.4	15.2	-79.2	10.1
2026-01-15 00:06:32.039343	150.7	15.0	-79.2	9.9
2026-01-15 00:06:34.289571	151.0	14.8	-79.0	10.2
2026-01-15 00:06:36.539457	151.3	14.6	-79.2	10.4
2026-01-15 00:06:38.787197	151.5	14.4	-79.1	10.3
2026-01-15 00:06:41.032895	151.8	14.2	-79.4	10.3
2026-01-15 00:06:43.281050	152.1	14.0	-79.4	10.4
2026-01-15 00:06:45.534330	152.3	13.8	-79.5	10.2
2026-01-15 00:06:47.784602	152.6	13.6	-79.5	10.6
2026-01-15 00:06:50.032092	152.9	13.4	-79.3	10.7
2026-01-15 00:06:52.284407	153.1	13.2	-79.5	9.9
2026-01-15 00:06:54.532463	153.4	13.1	-79.7	9.9
2026-01-15 00:06:56.779495	153.6	12.9	-79.2	9.9
2026-01-15 00:06:59.025776	153.9	12.7	-79.5	10.2
2026-01-15 00:07:01.277500	154.1	12.5	-79.9	9.2
2026-01-15 00:07:03.526710	154.3	12.3	-79.9	9.1
2026-01-15 00:07:05.776852	154.6	12.1	-79.5	8.4
2026-01-15 00:07:08.027420	154.8	11.9	-79.5	8.9
2026-01-15 00:07:10.277705	155.0	11.8	-79.6	8.7
2026-01-15 00:07:12.524070	155.3	11.6	-79.4	8.6
2026-01-15 00:07:14.772872	155.5	11.4	-79.1	8.8
2026-01-15 00:07:17.018951	155.7	11.2	-79.8	7.4
2026-01-15 00:07:19.270357	155.9	11.1	-79.6	7.8
2026-01-15 00:07:21.518823	156.2	10.9	-80.5	8.7
2026-01-15 00:07:23.766968	156.4	10.7	-82.7	3.3
2026-01-15 00:07:26.014683	156.6	10.5	-83.1	0.0
2026-01-15 00:07:28.266541	156.8	10.4	-85.6	0.0
2026-01-15 00:07:30.513662	157.0	10.2	-86.0	0.0
#Closed at: 2026-01-14 23:57:52.225296