passes_logs/2026/01/14/planumMaritime01/planumMaritime01__20260114_065944_METOP-C_rec.log

#Pass ID: 20260114_065944_METOP-C
#Satellite: METOP-C
#Configuration: METOP-C
#Start time: 2026-01-14 06:59:49.289292

#LorettStation: 1.0.0 05.05.2024
#Station: planumMaritime01
#Location: 37.49445 lon 55.92918 lat
#TLE: 1 43689U 18087A   26012.93337629  .00000090  00000+0  60903-4 0  9997
#TLE: 2 43689  98.6883  75.2176 0000430 188.2836 171.8334 14.21497815372770

#Time	Az	El	Level	SNR
2026-01-14 06:59:55.515341	26.5	10.5	-61.0	0.0
2026-01-14 06:59:57.769266	26.7	10.7	-58.2	0.0
2026-01-14 07:00:00.020573	26.8	10.9	-58.8	0.0
2026-01-14 07:00:02.273417	27.0	11.1	-59.5	0.0
2026-01-14 07:00:04.523699	27.1	11.3	-55.6	0.0
2026-01-14 07:00:06.776841	27.3	11.4	-53.4	0.0
2026-01-14 07:00:09.028233	27.5	11.6	-53.5	0.0
2026-01-14 07:00:11.280537	27.6	11.8	-56.1	0.0
2026-01-14 07:00:13.530971	27.8	12.0	-54.0	0.0
2026-01-14 07:00:15.783984	28.0	12.2	-53.0	0.0
2026-01-14 07:00:18.036273	28.1	12.4	-55.1	0.0
2026-01-14 07:00:20.288608	28.3	12.6	-55.7	0.0
2026-01-14 07:00:22.542025	28.5	12.8	-56.7	0.0
2026-01-14 07:00:24.794282	28.7	13.0	-53.7	0.0
2026-01-14 07:00:27.043304	28.9	13.2	-56.9	0.0
2026-01-14 07:00:29.294014	29.0	13.4	-59.2	0.0
2026-01-14 07:00:31.547495	29.2	13.6	-54.6	0.0
2026-01-14 07:00:33.800524	29.4	13.8	-55.4	0.0
2026-01-14 07:00:36.053264	29.6	14.1	-58.4	0.0
2026-01-14 07:00:38.302452	29.8	14.3	-58.8	0.0
2026-01-14 07:00:40.555100	30.0	14.5	-52.5	0.0
2026-01-14 07:00:42.807946	30.2	14.7	-60.4	0.0
2026-01-14 07:00:45.060795	30.4	14.9	-53.4	0.0
2026-01-14 07:00:47.313260	30.6	15.1	-51.9	0.0
2026-01-14 07:00:49.565865	30.8	15.3	-55.0	0.0
2026-01-14 07:00:51.818688	31.0	15.6	-58.7	0.0
2026-01-14 07:00:54.069229	31.2	15.8	-54.2	0.0
2026-01-14 07:00:56.319846	31.5	16.0	-52.9	0.0
2026-01-14 07:00:58.573244	31.7	16.2	-54.8	0.0
2026-01-14 07:01:00.825956	31.9	16.5	-51.5	0.0
2026-01-14 07:01:03.078838	32.1	16.7	-52.4	0.0
2026-01-14 07:01:05.332952	32.4	16.9	-52.5	0.0
2026-01-14 07:01:07.586000	32.6	17.2	-53.1	0.0
2026-01-14 07:01:09.841539	32.8	17.4	-55.6	0.0
2026-01-14 07:01:12.096115	33.1	17.6	-56.8	0.0
2026-01-14 07:01:14.347069	33.3	17.9	-53.9	0.0
2026-01-14 07:01:16.600486	33.6	18.1	-53.8	0.0
2026-01-14 07:01:18.853259	33.8	18.3	-51.7	0.0
2026-01-14 07:01:21.105529	34.1	18.6	-57.4	0.0
2026-01-14 07:01:23.358535	34.3	18.8	-54.5	0.0
2026-01-14 07:01:25.614835	34.6	19.1	-54.0	0.0
2026-01-14 07:01:27.867277	34.9	19.3	-55.4	0.0
2026-01-14 07:01:30.117764	35.1	19.6	-56.1	0.0
2026-01-14 07:01:32.369668	35.4	19.8	-53.1	0.0
2026-01-14 07:01:34.623258	35.7	20.1	-56.7	0.0
2026-01-14 07:01:36.878560	36.0	20.4	-52.8	0.0
2026-01-14 07:01:39.133389	36.3	20.6	-56.4	0.0
2026-01-14 07:01:41.385433	36.6	20.9	-57.9	0.0
2026-01-14 07:01:43.637801	36.9	21.1	-54.7	0.0
2026-01-14 07:01:45.891157	37.2	21.4	-56.5	0.0
2026-01-14 07:01:48.144714	37.5	21.7	-60.0	0.0
2026-01-14 07:01:50.396556	37.8	21.9	-58.3	0.0
2026-01-14 07:01:52.649373	38.1	22.2	-55.0	0.0
2026-01-14 07:01:54.906252	38.4	22.5	-57.2	0.0
2026-01-14 07:01:57.159010	38.8	22.8	-63.9	0.0
2026-01-14 07:01:59.411331	39.1	23.0	-58.4	0.0
2026-01-14 07:02:01.663794	39.5	23.3	-60.4	0.0
2026-01-14 07:02:03.916510	39.8	23.6	-58.4	0.0
2026-01-14 07:02:06.169142	40.2	23.9	-60.1	0.0
2026-01-14 07:02:08.422183	40.5	24.2	-61.0	0.0
2026-01-14 07:02:10.676301	40.9	24.5	-61.8	0.0
2026-01-14 07:02:12.929110	41.3	24.7	-62.2	0.0
2026-01-14 07:02:15.187005	41.6	25.0	-64.4	0.0
2026-01-14 07:02:17.440917	42.0	25.3	-64.2	0.0
2026-01-14 07:02:19.692069	42.4	25.6	-66.8	0.0
2026-01-14 07:02:21.948330	42.8	25.9	-66.5	0.0
2026-01-14 07:02:24.202559	43.3	26.2	-62.5	0.0
2026-01-14 07:02:26.455974	43.7	26.5	-63.2	0.0
2026-01-14 07:02:28.709340	44.1	26.8	-62.3	0.0
2026-01-14 07:02:30.964847	44.5	27.1	-66.4	0.0
2026-01-14 07:02:33.219398	45.0	27.4	-64.5	0.0
2026-01-14 07:02:35.471656	45.4	27.8	-64.2	0.0
2026-01-14 07:02:37.724818	45.9	28.1	-67.8	0.0
2026-01-14 07:02:39.979925	46.4	28.4	-68.5	0.0
2026-01-14 07:02:42.235240	46.8	28.7	-67.7	0.0
2026-01-14 07:02:44.490396	47.3	29.0	-66.5	0.0
2026-01-14 07:02:46.741719	47.8	29.3	-67.1	0.0
2026-01-14 07:02:48.993698	48.3	29.6	-66.8	0.0
2026-01-14 07:02:51.245879	48.8	30.0	-64.9	0.0
2026-01-14 07:02:53.498691	49.4	30.3	-63.8	0.0
2026-01-14 07:02:55.752014	49.9	30.6	-66.1	0.0
2026-01-14 07:02:58.005185	50.5	30.9	-65.9	0.0
2026-01-14 07:03:00.258419	51.0	31.2	-66.9	0.0
2026-01-14 07:03:02.511584	51.6	31.6	-66.2	0.0
2026-01-14 07:03:04.762647	52.2	31.9	-67.4	0.0
2026-01-14 07:03:07.015985	52.8	32.2	-67.9	0.0
2026-01-14 07:03:09.271271	53.4	32.5	-67.9	0.4
2026-01-14 07:03:11.522675	54.0	32.9	-68.5	3.3
2026-01-14 07:03:13.774561	54.6	33.2	-67.9	0.0
2026-01-14 07:03:16.028209	55.3	33.5	-67.5	0.4
2026-01-14 07:03:18.278610	55.9	33.8	-67.1	0.0
2026-01-14 07:03:20.531152	56.6	34.1	-67.8	3.2
2026-01-14 07:03:22.786780	57.3	34.5	-66.6	0.0
2026-01-14 07:03:25.038537	57.9	34.8	-66.4	0.0
2026-01-14 07:03:27.291104	58.7	35.1	-68.6	0.7
2026-01-14 07:03:29.544321	59.4	35.4	-68.5	1.2
2026-01-14 07:03:31.794876	60.1	35.7	-69.3	1.8
2026-01-14 07:03:34.044202	60.9	36.0	-68.9	4.3
2026-01-14 07:03:36.297229	61.6	36.4	-67.2	0.0
2026-01-14 07:03:38.547962	62.4	36.7	-67.7	0.9
2026-01-14 07:03:40.800340	63.2	37.0	-68.4	0.0
2026-01-14 07:03:43.051917	64.0	37.3	-69.7	7.4
2026-01-14 07:03:45.304517	64.8	37.6	-68.3	3.7
2026-01-14 07:03:47.558315	65.7	37.9	-69.3	2.4
2026-01-14 07:03:49.809879	66.5	38.2	-68.5	6.2
2026-01-14 07:03:52.059038	67.4	38.4	-68.1	2.3
2026-01-14 07:03:54.309596	68.2	38.7	-68.1	2.6
2026-01-14 07:03:56.563452	69.1	39.0	-68.2	2.2
2026-01-14 07:03:58.817229	70.1	39.3	-68.2	2.3
2026-01-14 07:04:01.069720	71.0	39.5	-68.0	3.4
2026-01-14 07:04:03.322156	71.9	39.8	-68.4	0.3
2026-01-14 07:04:05.575383	72.9	40.0	-69.6	4.0
2026-01-14 07:04:07.828048	73.9	40.3	-66.8	0.0
2026-01-14 07:04:10.081753	74.8	40.5	-69.4	6.5
2026-01-14 07:04:12.335480	75.8	40.7	-66.8	3.5
2026-01-14 07:04:14.589507	76.8	41.0	-67.5	2.9
2026-01-14 07:04:16.841261	77.9	41.2	-68.2	3.3
2026-01-14 07:04:19.094347	78.9	41.4	-69.6	6.6
2026-01-14 07:04:21.346355	80.0	41.6	-67.1	0.0
2026-01-14 07:04:23.598522	81.0	41.7	-69.3	0.6
2026-01-14 07:04:25.851390	82.1	41.9	-69.6	3.3
2026-01-14 07:04:28.106970	83.2	42.1	-69.5	6.1
2026-01-14 07:04:30.359259	84.3	42.2	-69.5	5.7
2026-01-14 07:04:32.609952	85.4	42.4	-68.6	3.3
2026-01-14 07:04:34.862332	86.5	42.5	-68.7	2.6
2026-01-14 07:04:37.115934	87.6	42.6	-68.6	4.7
2026-01-14 07:04:39.370697	88.8	42.7	-67.6	1.6
2026-01-14 07:04:41.621332	89.9	42.8	-68.9	9.3
2026-01-14 07:04:43.873433	91.1	42.9	-69.3	4.6
2026-01-14 07:04:46.127411	92.2	43.0	-68.5	4.1
2026-01-14 07:04:48.378892	93.4	43.0	-68.1	2.9
2026-01-14 07:04:50.629809	94.5	43.1	-69.3	2.8
2026-01-14 07:04:52.883223	95.7	43.1	-69.0	5.3
2026-01-14 07:04:55.133496	96.8	43.1	-69.7	3.5
2026-01-14 07:04:57.382170	98.0	43.1	-68.5	5.3
2026-01-14 07:04:59.632221	99.2	43.1	-68.0	3.1
2026-01-14 07:05:01.884162	100.3	43.1	-67.6	2.7
2026-01-14 07:05:04.139064	101.5	43.0	-69.2	5.1
2026-01-14 07:05:06.390186	102.7	43.0	-67.0	1.9
2026-01-14 07:05:08.643576	103.8	42.9	-67.4	0.4
2026-01-14 07:05:10.898982	105.0	42.9	-66.9	0.0
2026-01-14 07:05:13.152717	106.1	42.8	-68.2	2.8
2026-01-14 07:05:15.403227	107.3	42.7	-68.9	3.9
2026-01-14 07:05:17.653138	108.4	42.6	-68.4	3.3
2026-01-14 07:05:19.906807	109.5	42.5	-69.3	3.7
2026-01-14 07:05:22.160266	110.6	42.3	-69.8	4.8
2026-01-14 07:05:24.414770	111.7	42.2	-69.5	4.7
2026-01-14 07:05:26.663945	112.8	42.0	-68.8	3.7
2026-01-14 07:05:28.914381	113.9	41.9	-70.0	6.5
2026-01-14 07:05:31.165769	115.0	41.7	-69.5	3.4
2026-01-14 07:05:33.418683	116.0	41.5	-68.8	3.5
2026-01-14 07:05:35.669749	117.1	41.3	-69.7	5.5
2026-01-14 07:05:37.919483	118.1	41.1	-69.5	5.8
2026-01-14 07:05:40.170342	119.2	40.9	-69.7	7.2
2026-01-14 07:05:42.423017	120.2	40.7	-70.6	8.1
2026-01-14 07:05:44.676907	121.2	40.4	-70.4	7.1
2026-01-14 07:05:46.927483	122.1	40.2	-69.6	6.9
2026-01-14 07:05:49.180594	123.1	39.9	-69.4	6.9
2026-01-14 07:05:51.432477	124.1	39.7	-70.2	7.9
2026-01-14 07:05:53.685464	125.0	39.4	-70.2	6.8
2026-01-14 07:05:55.938363	125.9	39.2	-71.1	8.1
2026-01-14 07:05:58.190758	126.8	38.9	-71.1	7.6
2026-01-14 07:06:00.444413	127.7	38.6	-70.4	7.6
2026-01-14 07:06:02.696237	128.6	38.3	-71.0	7.3
2026-01-14 07:06:04.948318	129.5	38.0	-71.1	8.2
2026-01-14 07:06:07.200055	130.3	37.8	-70.9	7.8
2026-01-14 07:06:09.451365	131.2	37.5	-70.8	7.9
2026-01-14 07:06:11.704061	132.0	37.2	-70.7	8.3
2026-01-14 07:06:13.956676	132.8	36.9	-71.0	7.4
2026-01-14 07:06:16.210186	133.6	36.5	-71.2	7.8
2026-01-14 07:06:18.461764	134.4	36.2	-70.9	7.8
2026-01-14 07:06:20.713208	135.1	35.9	-71.4	6.9
2026-01-14 07:06:22.966453	135.9	35.6	-70.5	5.5
2026-01-14 07:06:25.216439	136.6	35.3	-71.5	7.7
2026-01-14 07:06:27.472160	137.3	35.0	-71.5	7.8
2026-01-14 07:06:29.726384	138.0	34.6	-71.9	8.6
2026-01-14 07:06:31.980285	138.7	34.3	-71.9	6.4
2026-01-14 07:06:34.234668	139.4	34.0	-71.9	7.7
2026-01-14 07:06:36.486405	140.0	33.7	-72.4	7.9
2026-01-14 07:06:38.740214	140.7	33.4	-71.9	7.5
2026-01-14 07:06:40.990815	141.3	33.0	-71.6	6.8
2026-01-14 07:06:43.241392	142.0	32.7	-71.7	5.7
2026-01-14 07:06:45.494188	142.6	32.4	-72.2	7.4
2026-01-14 07:06:47.747640	143.2	32.1	-72.2	7.5
2026-01-14 07:06:49.997474	143.8	31.7	-72.0	7.7
2026-01-14 07:06:52.250866	144.4	31.4	-71.2	4.8
2026-01-14 07:06:54.503112	144.9	31.1	-71.6	7.9
2026-01-14 07:06:56.755639	145.5	30.8	-72.1	7.0
2026-01-14 07:06:59.008914	146.0	30.4	-72.2	7.2
2026-01-14 07:07:01.260134	146.6	30.1	-72.2	7.5
2026-01-14 07:07:03.510890	147.1	29.8	-71.9	7.1
2026-01-14 07:07:05.763144	147.6	29.5	-72.3	7.0
2026-01-14 07:07:08.013676	148.1	29.1	-72.3	7.3
2026-01-14 07:07:10.263792	148.6	28.8	-72.4	8.1
2026-01-14 07:07:12.514920	149.1	28.5	-72.4	7.4
2026-01-14 07:07:14.764736	149.6	28.2	-73.0	9.1
2026-01-14 07:07:17.018335	150.0	27.9	-72.5	6.3
2026-01-14 07:07:19.272053	150.5	27.6	-72.2	7.0
2026-01-14 07:07:21.525017	150.9	27.3	-72.4	8.2
2026-01-14 07:07:23.775710	151.4	27.0	-72.9	8.0
2026-01-14 07:07:26.029296	151.8	26.7	-72.2	6.6
2026-01-14 07:07:28.284280	152.2	26.3	-72.2	7.1
2026-01-14 07:07:30.535395	152.7	26.0	-71.1	4.9
2026-01-14 07:07:32.786573	153.1	25.7	-71.3	3.7
2026-01-14 07:07:35.037301	153.5	25.4	-71.1	7.5
2026-01-14 07:07:37.289475	153.9	25.1	-71.4	5.4
2026-01-14 07:07:39.541507	154.2	24.9	-69.7	1.5
2026-01-14 07:07:41.792543	154.6	24.6	-72.0	6.5
2026-01-14 07:07:44.043771	155.0	24.3	-72.2	5.1
2026-01-14 07:07:46.294183	155.4	24.0	-72.6	7.9
2026-01-14 07:07:48.547736	155.7	23.7	-72.6	8.3
2026-01-14 07:07:50.799553	156.1	23.4	-71.3	6.3
2026-01-14 07:07:53.050765	156.4	23.1	-72.3	6.0
2026-01-14 07:07:55.299563	156.8	22.8	-72.9	5.2
2026-01-14 07:07:57.553023	157.1	22.6	-72.7	3.0
2026-01-14 07:07:59.808270	157.4	22.3	-72.4	4.9
2026-01-14 07:08:02.062340	157.8	22.0	-73.2	4.5
2026-01-14 07:08:04.313039	158.1	21.7	-72.7	5.8
2026-01-14 07:08:06.566025	158.4	21.5	-72.8	5.3
2026-01-14 07:08:08.818128	158.7	21.2	-73.0	5.0
2026-01-14 07:08:11.069386	159.0	20.9	-73.2	6.0
2026-01-14 07:08:13.324214	159.3	20.7	-73.3	6.2
2026-01-14 07:08:15.574471	159.6	20.4	-73.6	4.4
2026-01-14 07:08:17.826115	159.9	20.1	-73.2	4.8
2026-01-14 07:08:20.076938	160.2	19.9	-73.0	4.6
2026-01-14 07:08:22.328081	160.5	19.6	-73.2	6.4
2026-01-14 07:08:24.578006	160.7	19.4	-73.0	5.4
2026-01-14 07:08:26.834681	161.0	19.1	-73.2	4.0
2026-01-14 07:08:29.085419	161.3	18.9	-73.2	4.2
2026-01-14 07:08:31.335863	161.5	18.6	-72.8	2.7
2026-01-14 07:08:33.588654	161.8	18.4	-73.5	3.7
2026-01-14 07:08:35.840478	162.0	18.1	-73.8	4.8
2026-01-14 07:08:38.093290	162.3	17.9	-73.9	4.4
2026-01-14 07:08:40.344603	162.5	17.6	-74.1	5.4
2026-01-14 07:08:42.595369	162.8	17.4	-74.0	5.3
2026-01-14 07:08:44.848064	163.0	17.2	-73.0	3.3
2026-01-14 07:08:47.101591	163.2	16.9	-72.8	3.5
2026-01-14 07:08:49.351396	163.5	16.7	-73.8	5.1
2026-01-14 07:08:51.602185	163.7	16.5	-74.0	5.3
2026-01-14 07:08:53.850385	163.9	16.2	-73.5	4.5
2026-01-14 07:08:56.105246	164.2	16.0	-74.3	3.2
2026-01-14 07:08:58.357928	164.4	15.8	-74.1	4.3
2026-01-14 07:09:00.608332	164.6	15.6	-74.6	5.3
2026-01-14 07:09:02.858053	164.8	15.3	-74.6	4.6
2026-01-14 07:09:05.108300	165.0	15.1	-74.7	5.8
2026-01-14 07:09:07.359497	165.2	14.9	-74.2	6.6
2026-01-14 07:09:09.610068	165.4	14.7	-75.0	6.0
2026-01-14 07:09:11.860430	165.6	14.5	-74.0	5.8
2026-01-14 07:09:14.112472	165.8	14.2	-74.9	5.6
2026-01-14 07:09:16.362496	166.0	14.0	-75.0	5.4
2026-01-14 07:09:18.615818	166.2	13.8	-75.3	5.0
2026-01-14 07:09:20.864926	166.4	13.6	-74.7	4.5
2026-01-14 07:09:23.116836	166.6	13.4	-75.2	6.7
2026-01-14 07:09:25.367562	166.8	13.2	-74.9	5.0
2026-01-14 07:09:27.619111	166.9	13.0	-75.0	5.6
2026-01-14 07:09:29.871619	167.1	12.8	-74.7	4.7
2026-01-14 07:09:32.123818	167.3	12.6	-74.7	5.2
2026-01-14 07:09:34.378148	167.5	12.4	-75.0	4.7
2026-01-14 07:09:36.629050	167.6	12.2	-74.3	4.8
2026-01-14 07:09:38.881286	167.8	12.0	-75.2	4.3
2026-01-14 07:09:41.134592	168.0	11.8	-74.8	2.6
2026-01-14 07:09:43.389200	168.1	11.6	-74.6	3.2
2026-01-14 07:09:45.641815	168.3	11.4	-74.5	0.0
2026-01-14 07:09:47.893415	168.5	11.2	-74.7	4.6
2026-01-14 07:09:50.147195	168.6	11.0	-73.8	3.9
2026-01-14 07:09:52.398555	168.8	10.8	-75.1	4.0
2026-01-14 07:09:54.651296	168.9	10.6	-74.0	0.0
2026-01-14 07:09:56.900857	169.1	10.4	-74.6	0.0
2026-01-14 07:09:59.153295	169.3	10.3	-77.7	0.0
2026-01-14 07:10:01.407242	169.4	10.1	-80.6	0.0
#Closed at: 2026-01-14 06:59:44.294583