passes_logs/2026/01/14/planumMaritime01/planumMaritime01__20260114_015929_METEOR-M2_4_rec.log

#Pass ID: 20260114_015929_METEOR-M2 4
#Satellite: METEOR-M2 4
#Configuration: METEOR-M2 4
#Start time: 2026-01-14 01:59:34.949077

#LorettStation: 1.0.0 05.05.2024
#Station: planumMaritime01
#Location: 37.49445 lon 55.92918 lat
#TLE: 1 59051U 24039A   26012.93756097  .00000021  00000+0  29173-4 0  9993
#TLE: 2 59051  98.6810 334.3643 0005973 258.1895 101.8613 14.22407037 97198

#Time	Az	El	Level	SNR
2026-01-14 01:59:37.124098	7.0	10.2	-76.9	0.0
2026-01-14 01:59:39.393378	6.8	10.4	-77.4	0.0
2026-01-14 01:59:41.663558	6.7	10.5	-77.1	0.0
2026-01-14 01:59:43.939220	6.5	10.7	-74.7	0.0
2026-01-14 01:59:46.212300	6.4	10.9	-73.1	0.0
2026-01-14 01:59:48.485673	6.2	11.1	-71.9	0.0
2026-01-14 01:59:50.757959	6.0	11.3	-72.4	0.0
2026-01-14 01:59:53.036304	5.9	11.5	-72.2	0.0
2026-01-14 01:59:55.312964	5.7	11.7	-71.7	0.0
2026-01-14 01:59:57.584613	5.5	11.9	-72.1	0.0
2026-01-14 01:59:59.861101	5.4	12.1	-72.9	0.0
2026-01-14 02:00:02.135136	5.2	12.3	-72.9	0.0
2026-01-14 02:00:04.411590	5.0	12.5	-72.0	0.0
2026-01-14 02:00:06.681569	4.9	12.7	-71.3	0.0
2026-01-14 02:00:08.938473	4.7	12.9	-71.5	0.0
2026-01-14 02:00:11.195891	4.5	13.1	-72.1	0.0
2026-01-14 02:00:13.452771	4.3	13.3	-71.4	0.0
2026-01-14 02:00:15.710879	4.1	13.5	-71.6	0.0
2026-01-14 02:00:17.967404	4.0	13.7	-71.9	0.0
2026-01-14 02:00:20.224786	3.8	13.9	-72.1	0.0
2026-01-14 02:00:22.484320	3.6	14.1	-72.3	0.0
2026-01-14 02:00:24.744577	3.4	14.3	-71.7	0.0
2026-01-14 02:00:27.004791	3.2	14.6	-71.6	0.0
2026-01-14 02:00:29.267906	3.0	14.8	-71.6	0.0
2026-01-14 02:00:31.530497	2.8	15.0	-72.5	0.0
2026-01-14 02:00:33.805912	2.6	15.2	-71.9	0.0
2026-01-14 02:00:36.081799	2.3	15.4	-70.4	0.0
2026-01-14 02:00:38.360739	2.1	15.7	-67.6	0.0
2026-01-14 02:00:40.636965	1.9	15.9	-71.1	0.0
2026-01-14 02:00:42.915431	1.7	16.1	-70.1	0.0
2026-01-14 02:00:45.192837	1.5	16.3	-68.4	0.0
2026-01-14 02:00:47.465282	1.2	16.6	-71.0	0.0
2026-01-14 02:00:49.736789	1.0	16.8	-73.5	0.0
2026-01-14 02:00:52.004473	0.8	17.0	-73.9	0.0
2026-01-14 02:00:54.275021	0.5	17.3	-72.9	0.0
2026-01-14 02:00:56.543998	0.3	17.5	-72.0	0.0
2026-01-14 02:00:58.813546	0.0	17.7	-73.3	0.0
2026-01-14 02:01:01.083761	359.8	18.0	-73.6	0.0
2026-01-14 02:01:03.352058	359.5	18.2	-71.5	0.0
2026-01-14 02:01:05.617701	359.3	18.5	-74.2	0.0
2026-01-14 02:01:07.888174	359.0	18.7	-74.0	0.0
2026-01-14 02:01:10.154751	358.7	18.9	-73.9	0.0
2026-01-14 02:01:12.422360	358.5	19.2	-73.4	0.0
2026-01-14 02:01:14.686201	358.2	19.4	-73.1	0.0
2026-01-14 02:01:16.948591	357.9	19.7	-73.7	0.0
2026-01-14 02:01:19.213280	357.6	19.9	-70.4	0.0
2026-01-14 02:01:21.482261	357.3	20.2	-74.9	0.0
2026-01-14 02:01:23.756087	357.0	20.5	-74.8	0.0
2026-01-14 02:01:26.025292	356.7	20.7	-74.8	0.0
2026-01-14 02:01:28.294267	356.4	21.0	-71.0	0.0
2026-01-14 02:01:30.562054	356.1	21.2	-74.5	0.0
2026-01-14 02:01:32.833659	355.8	21.5	-74.7	0.0
2026-01-14 02:01:35.099378	355.4	21.8	-74.0	0.0
2026-01-14 02:01:37.377846	355.1	22.0	-73.8	0.0
2026-01-14 02:01:39.651602	354.8	22.3	-74.0	0.5
2026-01-14 02:01:41.927737	354.4	22.6	-72.8	0.0
2026-01-14 02:01:44.205391	354.1	22.9	-74.2	0.0
2026-01-14 02:01:46.478719	353.7	23.1	-73.9	0.0
2026-01-14 02:01:48.747962	353.4	23.4	-73.6	0.0
2026-01-14 02:01:51.020598	353.0	23.7	-72.4	0.0
2026-01-14 02:01:53.282837	352.6	24.0	-73.6	0.0
2026-01-14 02:01:55.540947	352.2	24.2	-73.1	0.0
2026-01-14 02:01:57.798886	351.8	24.5	-73.8	0.0
2026-01-14 02:02:00.056918	351.4	24.8	-73.3	0.0
2026-01-14 02:02:02.319598	351.0	25.1	-73.1	0.0
2026-01-14 02:02:04.578126	350.6	25.4	-73.1	0.0
2026-01-14 02:02:06.834818	350.2	25.7	-72.9	0.0
2026-01-14 02:02:09.094190	349.8	26.0	-72.8	0.0
2026-01-14 02:02:11.354162	349.4	26.3	-73.4	0.2
2026-01-14 02:02:13.615394	348.9	26.5	-73.1	0.0
2026-01-14 02:02:15.876392	348.5	26.8	-73.5	1.4
2026-01-14 02:02:18.146592	348.0	27.1	-73.1	0.0
2026-01-14 02:02:20.421759	347.5	27.4	-73.1	2.5
2026-01-14 02:02:22.695443	347.0	27.7	-72.2	0.0
2026-01-14 02:02:24.972287	346.6	28.0	-72.7	1.6
2026-01-14 02:02:27.245687	346.1	28.3	-73.1	0.0
2026-01-14 02:02:29.522232	345.5	28.6	-72.0	0.0
2026-01-14 02:02:31.788154	345.0	28.9	-73.4	0.0
2026-01-14 02:02:34.056660	344.5	29.2	-73.4	4.0
2026-01-14 02:02:36.324612	344.0	29.5	-74.1	3.7
2026-01-14 02:02:38.592180	343.4	29.8	-73.9	3.7
2026-01-14 02:02:40.863858	342.9	30.1	-73.7	3.6
2026-01-14 02:02:43.135240	342.3	30.5	-74.6	5.2
2026-01-14 02:02:45.404413	341.7	30.8	-74.5	1.8
2026-01-14 02:02:47.678630	341.1	31.1	-74.7	4.6
2026-01-14 02:02:49.948181	340.5	31.4	-75.1	4.5
2026-01-14 02:02:52.217017	339.9	31.7	-75.5	5.2
2026-01-14 02:02:54.483677	339.3	32.0	-75.0	4.9
2026-01-14 02:02:56.748935	338.6	32.3	-74.7	1.8
2026-01-14 02:02:59.015388	338.0	32.6	-74.8	4.5
2026-01-14 02:03:01.287925	337.3	32.9	-76.1	4.7
2026-01-14 02:03:03.554932	336.7	33.2	-75.1	5.3
2026-01-14 02:03:05.824487	336.0	33.5	-76.5	6.3
2026-01-14 02:03:08.088826	335.3	33.8	-76.5	5.8
2026-01-14 02:03:10.356098	334.6	34.0	-76.2	4.2
2026-01-14 02:03:12.628398	333.8	34.3	-75.2	5.0
2026-01-14 02:03:14.900849	333.1	34.6	-75.0	5.0
2026-01-14 02:03:17.174589	332.3	34.9	-75.8	6.1
2026-01-14 02:03:19.447236	331.6	35.2	-75.5	5.6
2026-01-14 02:03:21.719817	330.8	35.5	-75.5	7.2
2026-01-14 02:03:23.994335	330.0	35.7	-76.5	8.0
2026-01-14 02:03:26.259179	329.2	36.0	-76.6	8.8
2026-01-14 02:03:28.527342	328.4	36.3	-77.0	9.1
2026-01-14 02:03:30.787735	327.5	36.5	-76.3	8.5
2026-01-14 02:03:33.055601	326.7	36.8	-77.2	8.2
2026-01-14 02:03:35.328577	325.8	37.0	-77.3	5.6
2026-01-14 02:03:37.600334	325.0	37.3	-77.6	9.6
2026-01-14 02:03:39.869813	324.1	37.5	-77.2	8.3
2026-01-14 02:03:42.143126	323.2	37.8	-77.4	7.9
2026-01-14 02:03:44.419820	322.3	38.0	-77.5	9.4
2026-01-14 02:03:46.690715	321.3	38.2	-77.9	9.9
2026-01-14 02:03:48.952891	320.4	38.4	-77.8	9.9
2026-01-14 02:03:51.215367	319.5	38.6	-78.4	10.0
2026-01-14 02:03:53.476801	318.5	38.8	-78.8	9.6
2026-01-14 02:03:55.737102	317.5	39.0	-78.0	7.8
2026-01-14 02:03:57.995594	316.6	39.2	-77.7	7.0
2026-01-14 02:04:00.253217	315.6	39.3	-77.8	9.7
2026-01-14 02:04:02.517279	314.6	39.5	-78.0	9.7
2026-01-14 02:04:04.780686	313.6	39.7	-78.1	8.9
2026-01-14 02:04:07.050332	312.5	39.8	-78.0	9.5
2026-01-14 02:04:09.325754	311.5	39.9	-77.8	9.0
2026-01-14 02:04:11.598783	310.5	40.1	-77.9	9.5
2026-01-14 02:04:13.874141	309.4	40.2	-77.4	6.0
2026-01-14 02:04:16.148434	308.3	40.3	-77.5	9.0
2026-01-14 02:04:18.423347	307.3	40.4	-76.1	8.3
2026-01-14 02:04:20.695097	306.2	40.4	-78.0	9.1
2026-01-14 02:04:22.968174	305.1	40.5	-77.7	6.1
2026-01-14 02:04:25.223257	304.1	40.6	-77.3	6.7
2026-01-14 02:04:27.478080	303.0	40.6	-76.7	6.9
2026-01-14 02:04:29.732785	301.9	40.7	-77.6	8.8
2026-01-14 02:04:31.989269	300.8	40.7	-77.6	6.0
2026-01-14 02:04:34.248563	299.8	40.7	-77.6	7.8
2026-01-14 02:04:36.512618	298.7	40.7	-75.9	4.7
2026-01-14 02:04:38.767161	297.6	40.7	-77.8	10.3
2026-01-14 02:04:41.025229	296.5	40.7	-76.5	7.7
2026-01-14 02:04:43.282433	295.4	40.6	-76.8	7.2
2026-01-14 02:04:45.536724	294.4	40.6	-76.8	4.3
2026-01-14 02:04:47.797365	293.3	40.5	-77.2	8.2
2026-01-14 02:04:50.061760	292.2	40.4	-78.3	7.1
2026-01-14 02:04:52.323835	291.1	40.4	-78.9	7.6
2026-01-14 02:04:54.583828	290.1	40.3	-78.8	6.7
2026-01-14 02:04:56.845723	289.0	40.2	-79.1	8.2
2026-01-14 02:04:59.108099	288.0	40.1	-79.0	7.4
2026-01-14 02:05:01.374644	286.9	39.9	-78.8	8.8
2026-01-14 02:05:03.641301	285.9	39.8	-78.0	7.1
2026-01-14 02:05:05.910255	284.9	39.7	-78.6	10.1
2026-01-14 02:05:08.181207	283.9	39.5	-78.4	10.1
2026-01-14 02:05:10.455086	282.9	39.3	-78.0	9.1
2026-01-14 02:05:12.723589	281.9	39.2	-78.7	10.9
2026-01-14 02:05:14.996070	280.9	39.0	-77.6	7.3
2026-01-14 02:05:17.265312	279.9	38.8	-78.7	11.9
2026-01-14 02:05:19.531128	278.9	38.6	-79.0	11.1
2026-01-14 02:05:21.801560	278.0	38.4	-79.3	10.7
2026-01-14 02:05:24.069706	277.0	38.2	-78.5	8.6
2026-01-14 02:05:26.340124	276.1	38.0	-79.3	9.0
2026-01-14 02:05:28.610349	275.2	37.7	-79.8	9.0
2026-01-14 02:05:30.882826	274.3	37.5	-79.4	10.2
2026-01-14 02:05:33.149846	273.4	37.3	-79.7	11.3
2026-01-14 02:05:35.421076	272.5	37.0	-79.5	10.7
2026-01-14 02:05:37.692607	271.7	36.8	-79.3	12.4
2026-01-14 02:05:39.970625	270.8	36.5	-79.4	11.8
2026-01-14 02:05:42.247406	270.0	36.2	-79.2	11.2
2026-01-14 02:05:44.521078	269.2	36.0	-79.0	11.1
2026-01-14 02:05:46.796723	268.4	35.7	-79.0	11.1
2026-01-14 02:05:49.071262	267.6	35.4	-78.7	10.6
2026-01-14 02:05:51.346941	266.8	35.2	-79.1	10.5
2026-01-14 02:05:53.620374	266.0	34.9	-79.6	12.7
2026-01-14 02:05:55.891941	265.3	34.6	-79.2	12.9
2026-01-14 02:05:58.170185	264.5	34.3	-78.9	11.3
2026-01-14 02:06:00.443754	263.8	34.0	-79.1	12.7
2026-01-14 02:06:02.716995	263.1	33.7	-79.4	12.6
2026-01-14 02:06:04.992049	262.4	33.4	-79.6	13.2
2026-01-14 02:06:07.262036	261.7	33.1	-79.3	12.4
2026-01-14 02:06:09.538675	261.0	32.8	-79.5	11.2
2026-01-14 02:06:11.813690	260.3	32.5	-79.4	11.2
2026-01-14 02:06:14.089216	259.7	32.2	-79.4	12.9
2026-01-14 02:06:16.362410	259.0	31.9	-79.3	12.9
2026-01-14 02:06:18.636173	258.4	31.6	-79.0	11.7
2026-01-14 02:06:20.898238	257.8	31.3	-78.9	12.1
2026-01-14 02:06:23.161207	257.2	31.0	-78.8	12.5
2026-01-14 02:06:25.416302	256.6	30.7	-78.7	13.1
2026-01-14 02:06:27.688045	256.0	30.4	-78.6	12.3
2026-01-14 02:06:29.963970	255.4	30.1	-78.4	12.9
2026-01-14 02:06:32.237843	254.9	29.8	-78.7	13.4
2026-01-14 02:06:34.509187	254.3	29.5	-79.2	12.1
2026-01-14 02:06:36.780219	253.8	29.2	-79.1	12.0
2026-01-14 02:06:39.058405	253.3	28.9	-79.4	13.0
2026-01-14 02:06:41.338278	252.7	28.5	-79.2	12.8
2026-01-14 02:06:43.616771	252.2	28.2	-79.0	12.3
2026-01-14 02:06:45.895725	251.7	27.9	-79.1	12.2
2026-01-14 02:06:48.171181	251.2	27.6	-79.2	13.5
2026-01-14 02:06:50.446980	250.7	27.3	-79.1	13.3
2026-01-14 02:06:52.723010	250.3	27.0	-78.8	13.7
2026-01-14 02:06:54.996476	249.8	26.7	-78.8	13.4
2026-01-14 02:06:57.270298	249.4	26.4	-79.3	13.5
2026-01-14 02:06:59.541760	248.9	26.1	-79.3	12.6
2026-01-14 02:07:01.811280	248.5	25.9	-79.6	13.8
2026-01-14 02:07:04.078511	248.0	25.6	-79.5	13.6
2026-01-14 02:07:06.346631	247.6	25.3	-79.6	13.3
2026-01-14 02:07:08.615362	247.2	25.0	-80.0	13.1
2026-01-14 02:07:10.886114	246.8	24.7	-79.4	13.2
2026-01-14 02:07:13.156427	246.4	24.4	-79.7	13.6
2026-01-14 02:07:15.426662	246.0	24.1	-79.7	12.7
2026-01-14 02:07:17.690544	245.6	23.8	-79.9	12.3
2026-01-14 02:07:19.962720	245.3	23.6	-80.1	11.5
2026-01-14 02:07:22.230897	244.9	23.3	-79.9	12.0
2026-01-14 02:07:24.503119	244.5	23.0	-79.7	12.8
2026-01-14 02:07:26.777235	244.2	22.7	-79.7	13.3
2026-01-14 02:07:29.043306	243.8	22.4	-79.8	12.7
2026-01-14 02:07:31.318219	243.5	22.2	-79.7	12.2
2026-01-14 02:07:33.584545	243.1	21.9	-80.1	12.4
2026-01-14 02:07:35.851032	242.8	21.6	-80.1	12.3
2026-01-14 02:07:38.117375	242.5	21.4	-79.8	12.7
2026-01-14 02:07:40.385280	242.1	21.1	-79.5	10.2
2026-01-14 02:07:42.646471	241.8	20.8	-79.8	12.7
2026-01-14 02:07:44.907476	241.5	20.6	-79.8	12.2
2026-01-14 02:07:47.168343	241.2	20.3	-79.8	12.3
2026-01-14 02:07:49.427109	240.9	20.1	-79.9	12.8
2026-01-14 02:07:51.693690	240.6	19.8	-79.5	12.3
2026-01-14 02:07:53.959401	240.3	19.5	-79.7	12.4
2026-01-14 02:07:56.222276	240.0	19.3	-79.6	12.3
2026-01-14 02:07:58.487888	239.8	19.0	-79.4	12.9
2026-01-14 02:08:00.753554	239.5	18.8	-79.5	12.3
2026-01-14 02:08:03.019395	239.2	18.6	-79.6	12.3
2026-01-14 02:08:05.292939	239.0	18.3	-79.7	11.1
2026-01-14 02:08:07.564346	238.7	18.1	-79.4	10.2
2026-01-14 02:08:09.838175	238.4	17.8	-79.9	12.7
2026-01-14 02:08:12.107237	238.2	17.6	-80.0	11.7
2026-01-14 02:08:14.373126	237.9	17.3	-79.6	12.4
2026-01-14 02:08:16.637552	237.7	17.1	-79.9	11.9
2026-01-14 02:08:18.900937	237.4	16.9	-80.1	11.8
2026-01-14 02:08:21.169855	237.2	16.6	-80.0	12.7
2026-01-14 02:08:23.435963	237.0	16.4	-79.9	12.3
2026-01-14 02:08:25.703939	236.7	16.2	-79.7	11.8
2026-01-14 02:08:27.969277	236.5	15.9	-79.8	12.0
2026-01-14 02:08:30.235078	236.3	15.7	-79.8	11.3
2026-01-14 02:08:32.493858	236.1	15.5	-80.1	12.0
2026-01-14 02:08:34.752259	235.8	15.3	-80.3	11.7
2026-01-14 02:08:37.012137	235.6	15.1	-80.2	11.1
2026-01-14 02:08:39.269413	235.4	14.8	-80.2	10.9
2026-01-14 02:08:41.528389	235.2	14.6	-80.2	11.0
2026-01-14 02:08:43.785480	235.0	14.4	-80.2	10.7
2026-01-14 02:08:46.041288	234.8	14.2	-80.1	10.9
2026-01-14 02:08:48.296546	234.6	14.0	-80.3	10.6
2026-01-14 02:08:50.552008	234.4	13.8	-80.3	10.9
2026-01-14 02:08:52.809169	234.2	13.6	-80.2	11.1
2026-01-14 02:08:55.080096	234.0	13.3	-80.2	11.2
2026-01-14 02:08:57.353282	233.9	13.1	-80.3	10.3
2026-01-14 02:08:59.621852	233.7	12.9	-80.0	10.8
2026-01-14 02:09:01.894427	233.5	12.7	-80.0	11.2
2026-01-14 02:09:04.170067	233.3	12.5	-79.7	11.1
2026-01-14 02:09:06.443273	233.1	12.3	-80.0	10.1
2026-01-14 02:09:08.715758	233.0	12.1	-80.5	10.2
2026-01-14 02:09:10.981183	232.8	11.9	-80.4	9.7
2026-01-14 02:09:13.247121	232.6	11.7	-80.4	10.0
2026-01-14 02:09:15.517233	232.4	11.5	-80.1	10.2
2026-01-14 02:09:17.784952	232.3	11.3	-79.9	10.7
2026-01-14 02:09:20.050246	232.1	11.1	-80.0	10.5
2026-01-14 02:09:22.305594	232.0	11.0	-79.9	10.7
2026-01-14 02:09:24.566698	231.8	10.8	-81.4	8.7
2026-01-14 02:09:26.832921	231.6	10.6	-83.9	1.3
2026-01-14 02:09:29.097376	231.5	10.4	-85.5	0.0
2026-01-14 02:09:31.356937	231.3	10.2	-85.0	0.9
#Closed at: 2026-01-14 01:59:29.954792