passes_logs/2026/01/14/planumMaritime01/planumMaritime01__20260114_190147_METEOR-M2_3_rec.log

#Pass ID: 20260114_190147_METEOR-M2 3
#Satellite: METEOR-M2 3
#Configuration: METEOR-M2 3
#Start time: 2026-01-14 19:01:52.576478

#LorettStation: 1.0.0 05.05.2024
#Station: planumMaritime01
#Location: 37.49445 lon 55.92918 lat
#TLE: 1 57166U 23091A   26014.29359836 -.00000001  00000+0  18460-4 0  9992
#TLE: 2 57166  98.6331  72.2568 0002921 251.9031 108.1830 14.24030470132611

#Time	Az	El	Level	SNR
2026-01-14 19:01:54.737675	208.2	10.2	-83.5	0.0
2026-01-14 19:01:56.988351	208.4	10.3	-83.2	0.0
2026-01-14 19:01:59.235656	208.6	10.5	-83.6	0.0
2026-01-14 19:02:01.481395	208.9	10.7	-81.4	0.0
2026-01-14 19:02:03.729458	209.1	10.8	-79.0	1.7
2026-01-14 19:02:05.977967	209.3	11.0	-77.5	3.6
2026-01-14 19:02:08.230419	209.6	11.2	-77.6	6.6
2026-01-14 19:02:10.477373	209.8	11.3	-76.7	6.2
2026-01-14 19:02:12.729282	210.1	11.5	-77.4	7.0
2026-01-14 19:02:14.977355	210.3	11.7	-76.7	5.8
2026-01-14 19:02:17.227417	210.6	11.9	-77.2	5.5
2026-01-14 19:02:19.477043	210.8	12.0	-76.6	4.8
2026-01-14 19:02:21.725216	211.1	12.2	-77.1	5.1
2026-01-14 19:02:23.972642	211.4	12.4	-77.4	7.3
2026-01-14 19:02:26.218947	211.6	12.5	-76.9	6.5
2026-01-14 19:02:28.470700	211.9	12.7	-77.3	7.2
2026-01-14 19:02:30.719507	212.2	12.9	-77.5	7.3
2026-01-14 19:02:32.967459	212.5	13.1	-77.6	8.3
2026-01-14 19:02:35.216002	212.7	13.3	-77.4	5.9
2026-01-14 19:02:37.463043	213.0	13.4	-77.6	7.0
2026-01-14 19:02:39.713573	213.3	13.6	-77.1	6.5
2026-01-14 19:02:41.962940	213.6	13.8	-77.8	7.8
2026-01-14 19:02:44.211195	213.9	14.0	-78.2	8.1
2026-01-14 19:02:46.464013	214.2	14.2	-77.5	7.8
2026-01-14 19:02:48.714354	214.5	14.3	-77.9	8.3
2026-01-14 19:02:50.960957	214.8	14.5	-77.6	8.2
2026-01-14 19:02:53.212088	215.1	14.7	-77.8	7.7
2026-01-14 19:02:55.459777	215.4	14.9	-77.8	8.2
2026-01-14 19:02:57.710597	215.7	15.1	-78.3	8.6
2026-01-14 19:02:59.958287	216.0	15.3	-78.0	8.1
2026-01-14 19:03:02.209045	216.4	15.4	-78.0	8.7
2026-01-14 19:03:04.458406	216.7	15.6	-78.1	8.9
2026-01-14 19:03:06.708429	217.0	15.8	-78.0	8.1
2026-01-14 19:03:08.954427	217.4	16.0	-77.9	8.5
2026-01-14 19:03:11.203720	217.7	16.2	-78.3	9.8
2026-01-14 19:03:13.455290	218.0	16.4	-78.3	9.6
2026-01-14 19:03:15.703789	218.4	16.6	-78.2	9.1
2026-01-14 19:03:17.952664	218.7	16.8	-78.0	7.5
2026-01-14 19:03:20.198774	219.1	17.0	-78.4	10.0
2026-01-14 19:03:22.447254	219.5	17.1	-78.5	10.4
2026-01-14 19:03:24.696907	219.8	17.3	-78.3	10.5
2026-01-14 19:03:26.945888	220.2	17.5	-78.2	10.0
2026-01-14 19:03:29.194792	220.6	17.7	-78.0	9.2
2026-01-14 19:03:31.442067	220.9	17.9	-77.9	8.7
2026-01-14 19:03:33.689341	221.3	18.1	-77.8	9.2
2026-01-14 19:03:35.938787	221.7	18.3	-78.2	9.9
2026-01-14 19:03:38.188266	222.1	18.5	-77.9	9.0
2026-01-14 19:03:40.435621	222.5	18.7	-78.4	10.2
2026-01-14 19:03:42.684294	222.9	18.9	-78.1	8.8
2026-01-14 19:03:44.933675	223.3	19.1	-78.0	9.9
2026-01-14 19:03:47.186031	223.7	19.3	-77.8	10.3
2026-01-14 19:03:49.434370	224.2	19.5	-78.3	10.5
2026-01-14 19:03:51.683705	224.6	19.7	-77.8	9.9
2026-01-14 19:03:53.931729	225.0	19.8	-77.6	9.0
2026-01-14 19:03:56.179220	225.4	20.0	-78.1	10.9
2026-01-14 19:03:58.430960	225.9	20.2	-77.4	9.8
2026-01-14 19:04:00.677437	226.3	20.4	-77.5	9.3
2026-01-14 19:04:02.927078	226.8	20.6	-77.5	9.9
2026-01-14 19:04:05.173526	227.2	20.8	-77.7	10.2
2026-01-14 19:04:07.423187	227.7	21.0	-78.1	10.7
2026-01-14 19:04:09.670994	228.2	21.2	-77.8	11.2
2026-01-14 19:04:11.920632	228.6	21.4	-78.4	11.9
2026-01-14 19:04:14.170615	229.1	21.6	-78.1	11.1
2026-01-14 19:04:16.420685	229.6	21.8	-77.9	11.7
2026-01-14 19:04:18.669411	230.1	22.0	-78.2	11.5
2026-01-14 19:04:20.918970	230.6	22.2	-78.3	11.9
2026-01-14 19:04:23.167442	231.1	22.3	-78.3	11.3
2026-01-14 19:04:25.416250	231.6	22.5	-78.7	11.5
2026-01-14 19:04:27.665284	232.1	22.7	-78.0	10.7
2026-01-14 19:04:29.915599	232.6	22.9	-77.9	9.8
2026-01-14 19:04:32.164969	233.2	23.1	-77.9	10.6
2026-01-14 19:04:34.412628	233.7	23.3	-78.0	8.9
2026-01-14 19:04:36.661931	234.2	23.5	-78.1	11.2
2026-01-14 19:04:38.912801	234.8	23.6	-77.9	10.7
2026-01-14 19:04:41.160767	235.3	23.8	-77.7	9.6
2026-01-14 19:04:43.410364	235.9	24.0	-78.0	9.7
2026-01-14 19:04:45.656648	236.5	24.2	-77.4	10.4
2026-01-14 19:04:47.908997	237.0	24.3	-77.7	10.6
2026-01-14 19:04:50.159942	237.6	24.5	-77.3	9.8
2026-01-14 19:04:52.407627	238.2	24.7	-77.2	9.3
2026-01-14 19:04:54.655546	238.8	24.9	-77.9	10.6
2026-01-14 19:04:56.905376	239.4	25.0	-77.0	9.1
2026-01-14 19:04:59.154272	240.0	25.2	-77.5	11.2
2026-01-14 19:05:01.402715	240.6	25.3	-77.7	13.2
2026-01-14 19:05:03.650325	241.2	25.5	-77.4	12.4
2026-01-14 19:05:05.899237	241.8	25.7	-77.9	12.4
2026-01-14 19:05:08.146991	242.4	25.8	-77.6	12.0
2026-01-14 19:05:10.396325	243.1	26.0	-77.5	12.9
2026-01-14 19:05:12.646287	243.7	26.1	-77.7	12.0
2026-01-14 19:05:14.895270	244.3	26.3	-76.8	10.5
2026-01-14 19:05:17.144600	245.0	26.4	-77.8	11.6
2026-01-14 19:05:19.390175	245.6	26.6	-77.7	12.0
2026-01-14 19:05:21.638320	246.3	26.7	-77.6	11.6
2026-01-14 19:05:23.889270	247.0	26.8	-77.7	11.3
2026-01-14 19:05:26.140169	247.6	27.0	-77.1	12.1
2026-01-14 19:05:28.391148	248.3	27.1	-77.0	10.8
2026-01-14 19:05:30.637901	249.0	27.2	-77.4	11.1
2026-01-14 19:05:32.886583	249.7	27.3	-77.0	12.1
2026-01-14 19:05:35.132448	250.4	27.4	-77.5	10.7
2026-01-14 19:05:37.381656	251.1	27.5	-77.6	11.8
2026-01-14 19:05:39.628396	251.8	27.7	-77.3	12.1
2026-01-14 19:05:41.877492	252.5	27.8	-77.1	12.5
2026-01-14 19:05:44.124095	253.2	27.9	-77.2	12.1
2026-01-14 19:05:46.373497	253.9	28.0	-77.7	13.0
2026-01-14 19:05:48.623374	254.6	28.0	-77.7	12.5
2026-01-14 19:05:50.871958	255.4	28.1	-77.5	10.8
2026-01-14 19:05:53.119310	256.1	28.2	-76.9	10.1
2026-01-14 19:05:55.367551	256.8	28.3	-77.7	11.1
2026-01-14 19:05:57.618036	257.5	28.4	-77.1	12.2
2026-01-14 19:05:59.869126	258.3	28.4	-76.6	10.2
2026-01-14 19:06:02.116315	259.0	28.5	-77.7	13.3
2026-01-14 19:06:04.365166	259.8	28.5	-77.6	12.3
2026-01-14 19:06:06.613636	260.5	28.6	-77.1	11.3
2026-01-14 19:06:08.861584	261.2	28.6	-77.4	12.5
2026-01-14 19:06:11.109597	262.0	28.7	-76.3	9.3
2026-01-14 19:06:13.356098	262.7	28.7	-77.0	8.6
2026-01-14 19:06:15.606816	263.5	28.8	-76.5	9.4
2026-01-14 19:06:17.854607	264.2	28.8	-76.7	8.4
2026-01-14 19:06:20.102563	265.0	28.8	-76.4	11.1
2026-01-14 19:06:22.351904	265.8	28.8	-75.0	5.8
2026-01-14 19:06:24.601636	266.5	28.8	-75.2	6.4
2026-01-14 19:06:26.846441	267.3	28.8	-75.9	8.6
2026-01-14 19:06:29.095171	268.0	28.8	-76.0	8.2
2026-01-14 19:06:31.344502	268.8	28.8	-76.7	8.6
2026-01-14 19:06:33.592836	269.5	28.8	-77.0	11.8
2026-01-14 19:06:35.841967	270.3	28.8	-77.1	9.1
2026-01-14 19:06:38.089031	271.0	28.8	-75.8	5.7
2026-01-14 19:06:40.335385	271.8	28.8	-76.2	7.8
2026-01-14 19:06:42.585406	272.5	28.7	-75.7	8.9
2026-01-14 19:06:44.834585	273.3	28.7	-75.6	8.0
2026-01-14 19:06:47.085087	274.0	28.6	-76.2	8.5
2026-01-14 19:06:49.334632	274.8	28.6	-75.4	6.2
2026-01-14 19:06:51.584763	275.5	28.5	-75.7	6.8
2026-01-14 19:06:53.833542	276.3	28.5	-73.8	3.7
2026-01-14 19:06:56.082834	277.0	28.4	-73.2	2.2
2026-01-14 19:06:58.330663	277.7	28.4	-72.5	1.7
2026-01-14 19:07:00.576163	278.5	28.3	-73.3	3.2
2026-01-14 19:07:02.825691	279.2	28.2	-75.2	6.6
2026-01-14 19:07:05.077463	279.9	28.1	-73.1	5.0
2026-01-14 19:07:07.325308	280.6	28.0	-73.3	0.2
2026-01-14 19:07:09.574715	281.4	27.9	-74.2	4.0
2026-01-14 19:07:11.819430	282.1	27.9	-73.1	3.1
2026-01-14 19:07:14.067212	282.8	27.8	-73.6	3.8
2026-01-14 19:07:16.315413	283.5	27.7	-73.6	4.3
2026-01-14 19:07:18.562676	284.2	27.5	-74.0	3.6
2026-01-14 19:07:20.812558	284.9	27.4	-73.4	1.7
2026-01-14 19:07:23.064060	285.6	27.3	-74.0	1.8
2026-01-14 19:07:25.311022	286.2	27.2	-74.9	2.7
2026-01-14 19:07:27.558902	286.9	27.1	-73.6	2.2
2026-01-14 19:07:29.805908	287.6	26.9	-73.5	2.0
2026-01-14 19:07:32.057946	288.3	26.8	-73.6	0.4
2026-01-14 19:07:34.306503	288.9	26.7	-72.7	0.0
2026-01-14 19:07:36.552835	289.6	26.5	-72.4	0.0
2026-01-14 19:07:38.804536	290.2	26.4	-71.7	0.0
2026-01-14 19:07:41.052457	290.9	26.3	-71.9	0.0
2026-01-14 19:07:43.298420	291.5	26.1	-71.7	0.0
2026-01-14 19:07:45.545369	292.2	26.0	-72.2	0.0
2026-01-14 19:07:47.792846	292.8	25.8	-71.8	0.0
2026-01-14 19:07:50.043110	293.4	25.7	-71.5	0.0
2026-01-14 19:07:52.291954	294.0	25.5	-71.8	0.0
2026-01-14 19:07:54.539664	294.6	25.4	-71.2	0.0
2026-01-14 19:07:56.792415	295.2	25.2	-72.4	0.7
2026-01-14 19:07:59.040378	295.8	25.0	-72.6	0.5
2026-01-14 19:08:01.289834	296.4	24.9	-71.6	0.0
2026-01-14 19:08:03.538442	297.0	24.7	-73.5	2.9
2026-01-14 19:08:05.787307	297.6	24.5	-73.9	2.7
2026-01-14 19:08:08.039405	298.2	24.4	-73.8	2.1
2026-01-14 19:08:10.288064	298.7	24.2	-73.8	3.1
2026-01-14 19:08:12.535777	299.3	24.0	-73.3	2.4
2026-01-14 19:08:14.783609	299.8	23.8	-73.6	3.3
2026-01-14 19:08:17.030940	300.4	23.6	-72.8	2.7
2026-01-14 19:08:19.277522	300.9	23.5	-73.8	0.0
2026-01-14 19:08:21.524747	301.5	23.3	-70.3	0.0
2026-01-14 19:08:23.772636	302.0	23.1	-74.2	0.6
2026-01-14 19:08:26.023248	302.5	22.9	-71.4	0.0
2026-01-14 19:08:28.275152	303.0	22.7	-73.6	0.9
2026-01-14 19:08:30.523603	303.6	22.6	-73.5	1.6
2026-01-14 19:08:32.772204	304.1	22.4	-73.8	0.9
2026-01-14 19:08:35.022686	304.6	22.2	-73.5	2.4
2026-01-14 19:08:37.272636	305.1	22.0	-74.0	0.0
2026-01-14 19:08:39.520732	305.6	21.8	-72.6	0.0
2026-01-14 19:08:41.769331	306.0	21.6	-72.7	0.0
2026-01-14 19:08:44.019095	306.5	21.4	-72.8	0.0
2026-01-14 19:08:46.268100	307.0	21.2	-72.5	0.7
2026-01-14 19:08:48.516728	307.4	21.0	-73.9	0.0
2026-01-14 19:08:50.767572	307.9	20.9	-74.1	0.0
2026-01-14 19:08:53.017484	308.4	20.7	-73.7	1.8
2026-01-14 19:08:55.268740	308.8	20.5	-75.3	3.5
2026-01-14 19:08:57.519481	309.3	20.3	-74.8	0.5
2026-01-14 19:08:59.767800	309.7	20.1	-73.6	0.0
2026-01-14 19:09:02.013356	310.1	19.9	-72.3	0.0
2026-01-14 19:09:04.263841	310.6	19.7	-71.4	0.0
2026-01-14 19:09:06.509530	311.0	19.5	-72.6	0.0
2026-01-14 19:09:08.757509	311.4	19.3	-72.6	0.0
2026-01-14 19:09:11.005402	311.8	19.1	-72.1	0.0
2026-01-14 19:09:13.254150	312.2	18.9	-73.8	0.0
2026-01-14 19:09:15.502283	312.6	18.7	-74.3	2.2
2026-01-14 19:09:17.753426	313.0	18.6	-73.7	0.0
2026-01-14 19:09:20.001835	313.4	18.4	-73.8	1.4
2026-01-14 19:09:22.247583	313.8	18.2	-70.3	0.0
2026-01-14 19:09:24.496988	314.2	18.0	-71.4	0.0
2026-01-14 19:09:26.745466	314.5	17.8	-73.4	0.0
2026-01-14 19:09:28.991494	314.9	17.6	-72.4	0.0
2026-01-14 19:09:31.241641	315.3	17.4	-73.2	0.0
2026-01-14 19:09:33.493946	315.7	17.2	-72.8	0.0
2026-01-14 19:09:35.742297	316.0	17.0	-72.8	0.0
2026-01-14 19:09:37.990525	316.4	16.8	-71.7	0.0
2026-01-14 19:09:40.239470	316.7	16.7	-73.4	0.0
2026-01-14 19:09:42.487393	317.1	16.5	-71.4	0.0
2026-01-14 19:09:44.738651	317.4	16.3	-70.4	0.0
2026-01-14 19:09:46.987157	317.7	16.1	-69.7	0.0
2026-01-14 19:09:49.235026	318.1	15.9	-71.6	0.0
2026-01-14 19:09:51.484684	318.4	15.7	-73.3	0.0
2026-01-14 19:09:53.731056	318.7	15.5	-70.4	0.0
2026-01-14 19:09:55.975136	319.1	15.4	-68.0	0.0
2026-01-14 19:09:58.221850	319.4	15.2	-72.3	0.0
2026-01-14 19:10:00.473023	319.7	15.0	-70.6	0.0
2026-01-14 19:10:02.722889	320.0	14.8	-70.9	0.0
2026-01-14 19:10:04.969983	320.3	14.6	-74.4	0.0
2026-01-14 19:10:07.217489	320.6	14.4	-74.1	0.0
2026-01-14 19:10:09.466078	320.9	14.3	-71.7	0.0
2026-01-14 19:10:11.715731	321.2	14.1	-73.3	0.0
2026-01-14 19:10:13.961296	321.5	13.9	-73.1	0.0
2026-01-14 19:10:16.206347	321.8	13.7	-72.0	0.0
2026-01-14 19:10:18.456352	322.1	13.5	-71.7	0.0
2026-01-14 19:10:20.701230	322.4	13.4	-72.4	0.0
2026-01-14 19:10:22.949160	322.6	13.2	-71.1	0.0
2026-01-14 19:10:25.196332	322.9	13.0	-74.2	0.0
2026-01-14 19:10:27.443367	323.2	12.8	-72.6	0.0
2026-01-14 19:10:29.688871	323.5	12.7	-72.9	0.0
2026-01-14 19:10:31.939610	323.7	12.5	-70.5	0.0
2026-01-14 19:10:34.193488	324.0	12.3	-68.2	0.0
2026-01-14 19:10:36.440270	324.3	12.1	-66.2	0.0
2026-01-14 19:10:38.688492	324.5	12.0	-65.8	0.0
2026-01-14 19:10:40.935782	324.8	11.8	-72.3	0.0
2026-01-14 19:10:43.183097	325.0	11.6	-71.5	0.0
2026-01-14 19:10:45.435583	325.3	11.5	-70.1	0.0
2026-01-14 19:10:47.682786	325.5	11.3	-73.1	0.0
2026-01-14 19:10:49.929026	325.8	11.1	-72.9	0.0
2026-01-14 19:10:52.177222	326.0	11.0	-71.1	0.0
2026-01-14 19:10:54.423133	326.2	10.8	-70.3	0.0
2026-01-14 19:10:56.672076	326.5	10.6	-71.1	0.0
2026-01-14 19:10:58.920014	326.7	10.5	-74.9	0.0
2026-01-14 19:11:01.167225	326.9	10.3	-75.0	0.0
2026-01-14 19:11:03.412880	327.2	10.1	-77.9	0.0
#Closed at: 2026-01-14 19:01:47.582857