passes_logs/2026/01/14/planumMaritime01/planumMaritime01__20260114_154347_METEOR-M2_3_rec.log

#Pass ID: 20260114_154347_METEOR-M2 3
#Satellite: METEOR-M2 3
#Configuration: METEOR-M2 3
#Start time: 2026-01-14 15:43:52.401233

#LorettStation: 1.0.0 05.05.2024
#Station: planumMaritime01
#Location: 37.49445 lon 55.92918 lat
#TLE: 1 57166U 23091A   26014.29359836 -.00000001  00000+0  18460-4 0  9992
#TLE: 2 57166  98.6331  72.2568 0002921 251.9031 108.1830 14.24030470132611

#Time	Az	El	Level	SNR
2026-01-14 15:43:54.577800	83.3	10.1	-74.9	0.0
2026-01-14 15:43:55.702576	83.1	10.2	-75.5	0.0
2026-01-14 15:43:56.825409	83.0	10.2	-75.4	0.0
2026-01-14 15:43:57.947386	82.8	10.3	-78.4	0.0
2026-01-14 15:43:59.072853	82.6	10.4	-78.0	0.0
2026-01-14 15:44:00.196539	82.5	10.4	-75.5	0.0
2026-01-14 15:44:01.320393	82.3	10.5	-78.0	0.0
2026-01-14 15:44:02.443997	82.1	10.5	-77.8	0.0
2026-01-14 15:44:03.568555	82.0	10.6	-77.0	0.0
2026-01-14 15:44:04.691783	81.8	10.7	-75.3	0.0
2026-01-14 15:44:05.816241	81.6	10.7	-74.1	0.0
2026-01-14 15:44:06.941656	81.5	10.8	-74.9	0.0
2026-01-14 15:44:08.063521	81.3	10.8	-75.2	0.0
2026-01-14 15:44:09.187081	81.1	10.9	-75.0	0.0
2026-01-14 15:44:10.310147	80.9	11.0	-74.2	0.0
2026-01-14 15:44:11.433799	80.8	11.0	-72.8	0.0
2026-01-14 15:44:12.557271	80.6	11.1	-74.4	0.0
2026-01-14 15:44:13.682837	80.4	11.1	-74.9	0.0
2026-01-14 15:44:14.805821	80.2	11.2	-73.9	0.0
2026-01-14 15:44:15.930845	80.1	11.2	-74.8	0.0
2026-01-14 15:44:17.054813	79.9	11.3	-72.5	0.0
2026-01-14 15:44:18.179255	79.7	11.4	-73.2	0.0
2026-01-14 15:44:19.304925	79.5	11.4	-71.2	0.0
2026-01-14 15:44:20.428679	79.4	11.5	-72.0	0.0
2026-01-14 15:44:21.550787	79.2	11.5	-73.7	0.0
2026-01-14 15:44:22.676573	79.0	11.6	-73.5	0.0
2026-01-14 15:44:23.798573	78.8	11.7	-73.5	0.0
2026-01-14 15:44:24.923268	78.6	11.7	-72.6	0.0
2026-01-14 15:44:26.048349	78.5	11.8	-71.6	0.0
2026-01-14 15:44:27.173916	78.3	11.8	-72.4	0.0
2026-01-14 15:44:28.299764	78.1	11.9	-70.0	0.0
2026-01-14 15:44:29.422198	77.9	11.9	-73.3	0.0
2026-01-14 15:44:30.546541	77.7	12.0	-70.8	0.0
2026-01-14 15:44:31.671310	77.5	12.1	-69.2	0.0
2026-01-14 15:44:32.795903	77.4	12.1	-71.6	0.0
2026-01-14 15:44:33.921152	77.2	12.2	-70.8	0.0
2026-01-14 15:44:35.046257	77.0	12.2	-69.6	0.0
2026-01-14 15:44:36.169861	76.8	12.3	-71.6	0.0
2026-01-14 15:44:37.291287	76.6	12.3	-72.3	0.0
2026-01-14 15:44:38.415853	76.4	12.4	-70.1	0.0
2026-01-14 15:44:39.541239	76.2	12.5	-71.3	0.0
2026-01-14 15:44:40.663797	76.0	12.5	-72.4	0.0
2026-01-14 15:44:41.788103	75.8	12.6	-71.6	0.0
2026-01-14 15:44:42.912479	75.6	12.6	-73.5	0.0
2026-01-14 15:44:44.034647	75.5	12.7	-71.1	0.0
2026-01-14 15:44:45.157737	75.3	12.7	-70.1	0.0
2026-01-14 15:44:46.281779	75.1	12.8	-74.0	0.0
2026-01-14 15:44:47.406473	74.9	12.8	-70.5	0.0
2026-01-14 15:44:48.531200	74.7	12.9	-72.2	0.0
2026-01-14 15:44:49.653836	74.5	12.9	-72.7	0.0
2026-01-14 15:44:50.779481	74.3	13.0	-73.2	0.0
2026-01-14 15:44:51.903280	74.1	13.0	-72.2	0.0
2026-01-14 15:44:53.026564	73.9	13.1	-72.4	0.0
2026-01-14 15:44:54.152026	73.7	13.2	-72.6	0.0
2026-01-14 15:44:55.277584	73.5	13.2	-72.3	0.0
2026-01-14 15:44:56.404733	73.3	13.3	-71.9	0.0
2026-01-14 15:44:57.528309	73.1	13.3	-71.3	0.0
2026-01-14 15:44:58.652660	72.9	13.4	-73.8	0.0
2026-01-14 15:44:59.777006	72.7	13.4	-73.6	0.0
2026-01-14 15:45:00.904792	72.5	13.5	-71.7	0.0
2026-01-14 15:45:02.028842	72.3	13.5	-71.7	0.0
2026-01-14 15:45:03.152755	72.1	13.6	-71.7	0.0
2026-01-14 15:45:04.277205	71.8	13.6	-71.0	0.0
2026-01-14 15:45:05.401077	71.6	13.7	-70.6	0.0
2026-01-14 15:45:06.524276	71.4	13.7	-71.2	0.0
2026-01-14 15:45:07.648622	71.2	13.8	-71.3	0.0
2026-01-14 15:45:08.773103	71.0	13.8	-71.1	0.0
2026-01-14 15:45:09.897564	70.8	13.9	-70.0	0.0
2026-01-14 15:45:11.020709	70.6	13.9	-70.5	0.0
2026-01-14 15:45:12.146346	70.4	14.0	-71.7	0.0
2026-01-14 15:45:13.270661	70.2	14.0	-71.2	0.0
2026-01-14 15:45:14.397704	70.0	14.1	-71.2	0.0
2026-01-14 15:45:15.520836	69.7	14.1	-70.4	0.0
2026-01-14 15:45:16.645411	69.5	14.2	-72.7	0.0
2026-01-14 15:45:17.767650	69.3	14.2	-69.5	0.0
2026-01-14 15:45:18.892422	69.1	14.3	-72.8	0.0
2026-01-14 15:45:20.016220	68.9	14.3	-71.7	0.0
2026-01-14 15:45:21.141184	68.7	14.3	-71.2	0.0
2026-01-14 15:45:22.268483	68.4	14.4	-68.7	0.0
2026-01-14 15:45:23.390691	68.2	14.4	-70.0	0.0
2026-01-14 15:45:24.515597	68.0	14.5	-71.4	0.0
2026-01-14 15:45:25.639354	67.8	14.5	-71.8	0.0
2026-01-14 15:45:26.763873	67.6	14.6	-72.1	0.0
2026-01-14 15:45:27.888306	67.3	14.6	-70.3	0.0
2026-01-14 15:45:29.013116	67.1	14.7	-71.8	0.0
2026-01-14 15:45:30.135055	66.9	14.7	-71.7	0.0
2026-01-14 15:45:31.259669	66.7	14.8	-71.1	0.0
2026-01-14 15:45:32.384252	66.5	14.8	-69.9	0.0
2026-01-14 15:45:33.508245	66.2	14.8	-68.6	0.0
2026-01-14 15:45:34.633821	66.0	14.9	-70.7	0.0
2026-01-14 15:45:35.757618	65.8	14.9	-71.1	0.0
2026-01-14 15:45:36.881278	65.6	15.0	-70.3	0.0
2026-01-14 15:45:38.004970	65.3	15.0	-68.7	0.0
2026-01-14 15:45:39.127428	65.1	15.0	-70.5	0.0
2026-01-14 15:45:40.250856	64.9	15.1	-72.2	0.0
2026-01-14 15:45:41.373840	64.6	15.1	-70.9	0.0
2026-01-14 15:45:42.499853	64.4	15.2	-71.3	0.0
2026-01-14 15:45:43.621222	64.2	15.2	-70.2	0.0
2026-01-14 15:45:44.744199	64.0	15.2	-71.4	0.0
2026-01-14 15:45:45.867993	63.7	15.3	-71.9	0.0
2026-01-14 15:45:46.994107	63.5	15.3	-72.7	0.0
2026-01-14 15:45:48.119869	63.3	15.4	-72.6	0.0
2026-01-14 15:45:49.245591	63.0	15.4	-71.6	0.0
2026-01-14 15:45:50.369124	62.8	15.4	-70.6	0.0
2026-01-14 15:45:51.493172	62.6	15.5	-68.0	0.0
2026-01-14 15:45:52.616315	62.3	15.5	-72.2	0.0
2026-01-14 15:45:53.739417	62.1	15.5	-71.7	0.0
2026-01-14 15:45:54.860483	61.8	15.6	-70.9	0.0
2026-01-14 15:45:55.984966	61.6	15.6	-71.7	0.0
2026-01-14 15:45:57.108716	61.4	15.6	-70.9	0.0
2026-01-14 15:45:58.229863	61.1	15.7	-72.9	0.0
2026-01-14 15:45:59.353838	60.9	15.7	-70.9	0.0
2026-01-14 15:46:00.477454	60.7	15.7	-72.5	0.0
2026-01-14 15:46:01.603122	60.4	15.8	-72.7	0.0
2026-01-14 15:46:02.726210	60.2	15.8	-73.2	0.0
2026-01-14 15:46:03.850981	59.9	15.8	-72.6	0.0
2026-01-14 15:46:04.974916	59.7	15.9	-72.1	0.0
2026-01-14 15:46:06.098320	59.5	15.9	-70.5	0.0
2026-01-14 15:46:07.222657	59.2	15.9	-72.7	0.0
2026-01-14 15:46:08.346864	59.0	16.0	-71.0	0.0
2026-01-14 15:46:09.470794	58.7	16.0	-71.0	0.0
2026-01-14 15:46:10.595654	58.5	16.0	-70.3	0.0
2026-01-14 15:46:11.720100	58.2	16.0	-71.5	0.0
2026-01-14 15:46:12.844645	58.0	16.1	-72.5	0.0
2026-01-14 15:46:13.967862	57.8	16.1	-72.7	0.0
2026-01-14 15:46:15.093089	57.5	16.1	-71.8	0.0
2026-01-14 15:46:16.217981	57.3	16.2	-72.1	0.0
2026-01-14 15:46:17.341788	57.0	16.2	-71.9	0.0
2026-01-14 15:46:18.465406	56.8	16.2	-71.4	0.0
2026-01-14 15:46:19.589688	56.5	16.2	-72.3	0.0
2026-01-14 15:46:20.712499	56.3	16.3	-71.1	0.0
2026-01-14 15:46:21.837430	56.0	16.3	-71.3	0.0
2026-01-14 15:46:22.961697	55.8	16.3	-71.4	0.0
2026-01-14 15:46:24.085522	55.5	16.3	-71.0	0.0
2026-01-14 15:46:25.209358	55.3	16.3	-72.0	0.0
2026-01-14 15:46:26.332063	55.0	16.4	-71.0	0.0
2026-01-14 15:46:27.456704	54.8	16.4	-68.4	0.0
2026-01-14 15:46:28.578908	54.5	16.4	-67.7	0.0
2026-01-14 15:46:29.704712	54.3	16.4	-71.2	0.0
2026-01-14 15:46:30.828812	54.0	16.4	-71.6	0.0
2026-01-14 15:46:31.951934	53.8	16.5	-70.9	0.0
2026-01-14 15:46:33.075923	53.5	16.5	-71.5	0.0
2026-01-14 15:46:34.196986	53.3	16.5	-70.4	0.0
2026-01-14 15:46:35.321606	53.0	16.5	-70.9	0.0
2026-01-14 15:46:36.446768	52.8	16.5	-69.4	0.0
2026-01-14 15:46:37.569320	52.5	16.5	-70.2	0.0
2026-01-14 15:46:38.694282	52.3	16.6	-67.5	0.0
2026-01-14 15:46:39.818132	52.0	16.6	-68.4	0.0
2026-01-14 15:46:40.943942	51.8	16.6	-69.1	0.0
2026-01-14 15:46:42.068358	51.5	16.6	-70.0	0.0
2026-01-14 15:46:43.197923	51.3	16.6	-70.1	0.0
2026-01-14 15:46:44.319545	51.0	16.6	-69.5	0.0
2026-01-14 15:46:45.442556	50.8	16.6	-70.7	0.0
2026-01-14 15:46:46.567009	50.5	16.7	-69.8	0.0
2026-01-14 15:46:47.691439	50.3	16.7	-71.1	0.0
2026-01-14 15:46:48.815840	50.0	16.7	-70.0	0.0
2026-01-14 15:46:49.939854	49.8	16.7	-70.0	0.0
2026-01-14 15:46:51.062199	49.5	16.7	-69.5	0.0
2026-01-14 15:46:52.184506	49.2	16.7	-68.5	0.0
2026-01-14 15:46:53.309032	49.0	16.7	-69.9	0.0
2026-01-14 15:46:54.431579	48.7	16.7	-70.2	0.0
2026-01-14 15:46:55.556455	48.5	16.7	-64.2	0.0
2026-01-14 15:46:56.680777	48.2	16.7	-68.5	0.0
2026-01-14 15:46:57.805773	48.0	16.7	-67.8	0.0
2026-01-14 15:46:58.931470	47.7	16.7	-69.7	0.0
2026-01-14 15:47:00.056845	47.5	16.8	-68.5	0.0
2026-01-14 15:47:01.180714	47.2	16.8	-66.9	0.0
2026-01-14 15:47:02.306179	46.9	16.8	-61.5	0.0
2026-01-14 15:47:03.429112	46.7	16.8	-67.5	0.0
2026-01-14 15:47:04.554100	46.4	16.8	-69.6	0.0
2026-01-14 15:47:05.678876	46.2	16.8	-64.9	0.0
2026-01-14 15:47:06.804866	45.9	16.8	-68.7	0.0
2026-01-14 15:47:07.930737	45.7	16.8	-67.6	0.0
2026-01-14 15:47:09.055216	45.4	16.8	-60.4	0.0
2026-01-14 15:47:10.176310	45.2	16.8	-61.0	0.0
2026-01-14 15:47:11.300384	44.9	16.8	-68.1	0.0
2026-01-14 15:47:12.424847	44.6	16.8	-61.9	0.0
2026-01-14 15:47:13.549048	44.4	16.8	-61.6	0.0
2026-01-14 15:47:14.672589	44.1	16.8	-65.1	0.0
2026-01-14 15:47:15.796682	43.9	16.8	-64.7	0.0
2026-01-14 15:47:16.920829	43.6	16.8	-65.3	0.0
2026-01-14 15:47:18.044905	43.4	16.8	-63.5	0.0
2026-01-14 15:47:19.169194	43.1	16.7	-62.5	0.0
2026-01-14 15:47:20.292692	42.9	16.7	-65.0	0.0
2026-01-14 15:47:21.416308	42.6	16.7	-64.9	0.0
2026-01-14 15:47:22.538889	42.3	16.7	-62.7	0.0
2026-01-14 15:47:23.661167	42.1	16.7	-63.1	0.0
2026-01-14 15:47:24.785385	41.8	16.7	-65.9	0.0
2026-01-14 15:47:25.907880	41.6	16.7	-64.4	0.0
2026-01-14 15:47:27.030606	41.3	16.7	-65.6	0.0
2026-01-14 15:47:28.154382	41.1	16.7	-63.2	0.0
2026-01-14 15:47:29.280056	40.8	16.7	-63.7	0.0
2026-01-14 15:47:30.404654	40.6	16.7	-64.3	0.0
2026-01-14 15:47:31.528477	40.3	16.7	-64.3	0.0
2026-01-14 15:47:32.651559	40.1	16.6	-64.2	0.0
2026-01-14 15:47:33.776382	39.8	16.6	-63.9	0.0
2026-01-14 15:47:34.900607	39.5	16.6	-65.1	0.0
2026-01-14 15:47:36.024384	39.3	16.6	-65.5	0.0
2026-01-14 15:47:37.145616	39.0	16.6	-63.6	0.0
2026-01-14 15:47:38.271416	38.8	16.6	-67.2	0.0
2026-01-14 15:47:39.395033	38.5	16.6	-64.1	0.0
2026-01-14 15:47:40.517495	38.3	16.5	-64.1	0.0
2026-01-14 15:47:41.638703	38.0	16.5	-63.3	0.0
2026-01-14 15:47:42.761949	37.8	16.5	-63.2	0.0
2026-01-14 15:47:43.885235	37.5	16.5	-59.4	0.0
2026-01-14 15:47:45.007885	37.3	16.5	-60.7	0.0
2026-01-14 15:47:46.130794	37.0	16.5	-65.1	0.0
2026-01-14 15:47:47.255801	36.8	16.4	-66.3	0.0
2026-01-14 15:47:48.378101	36.5	16.4	-65.6	0.0
2026-01-14 15:47:49.503967	36.3	16.4	-64.8	0.0
2026-01-14 15:47:50.627086	36.0	16.4	-63.9	0.0
2026-01-14 15:47:51.751677	35.8	16.4	-64.4	0.0
2026-01-14 15:47:52.876776	35.5	16.3	-63.7	0.0
2026-01-14 15:47:53.999302	35.3	16.3	-64.2	0.0
2026-01-14 15:47:55.123666	35.0	16.3	-62.9	0.0
2026-01-14 15:47:56.246332	34.8	16.3	-63.5	0.0
2026-01-14 15:47:57.370169	34.6	16.2	-65.4	0.0
2026-01-14 15:47:58.494194	34.3	16.2	-62.2	0.0
2026-01-14 15:47:59.620478	34.1	16.2	-63.7	0.0
2026-01-14 15:48:00.744509	33.8	16.2	-65.2	0.0
2026-01-14 15:48:01.866255	33.6	16.1	-64.8	0.0
2026-01-14 15:48:02.990267	33.3	16.1	-63.2	0.0
2026-01-14 15:48:04.113942	33.1	16.1	-65.3	0.0
2026-01-14 15:48:05.240155	32.8	16.1	-62.2	0.0
2026-01-14 15:48:06.363983	32.6	16.0	-64.1	0.0
2026-01-14 15:48:07.488403	32.3	16.0	-64.8	0.0
2026-01-14 15:48:08.611652	32.1	16.0	-63.4	0.0
2026-01-14 15:48:09.734211	31.9	16.0	-65.5	0.0
2026-01-14 15:48:10.856409	31.6	15.9	-65.3	0.0
2026-01-14 15:48:11.981860	31.4	15.9	-65.2	0.0
2026-01-14 15:48:13.105573	31.1	15.9	-64.3	0.0
2026-01-14 15:48:14.229629	30.9	15.8	-64.3	0.0
2026-01-14 15:48:15.352619	30.7	15.8	-63.4	0.0
2026-01-14 15:48:16.476304	30.4	15.8	-63.3	0.0
2026-01-14 15:48:17.599286	30.2	15.7	-61.3	0.0
2026-01-14 15:48:18.723967	29.9	15.7	-64.3	0.0
2026-01-14 15:48:19.847257	29.7	15.7	-63.1	0.0
2026-01-14 15:48:20.973917	29.5	15.6	-63.6	0.0
2026-01-14 15:48:22.099109	29.2	15.6	-66.2	0.0
2026-01-14 15:48:23.223159	29.0	15.6	-64.1	0.0
2026-01-14 15:48:24.348151	28.8	15.5	-62.0	0.0
2026-01-14 15:48:25.473145	28.5	15.5	-63.0	0.0
2026-01-14 15:48:26.598460	28.3	15.5	-64.9	0.0
2026-01-14 15:48:27.723261	28.1	15.4	-65.8	0.0
2026-01-14 15:48:28.849031	27.8	15.4	-65.9	0.0
2026-01-14 15:48:29.973559	27.6	15.3	-66.5	0.0
2026-01-14 15:48:31.098266	27.4	15.3	-65.2	0.0
2026-01-14 15:48:32.224189	27.1	15.3	-64.5	0.0
2026-01-14 15:48:33.347504	26.9	15.2	-66.2	0.0
2026-01-14 15:48:34.469868	26.7	15.2	-66.5	0.0
2026-01-14 15:48:35.593629	26.4	15.2	-66.5	0.0
2026-01-14 15:48:36.715930	26.2	15.1	-64.7	0.0
2026-01-14 15:48:37.841227	26.0	15.1	-62.8	0.0
2026-01-14 15:48:38.964861	25.8	15.0	-65.5	0.0
2026-01-14 15:48:40.088544	25.5	15.0	-66.0	0.0
2026-01-14 15:48:41.211984	25.3	15.0	-64.6	0.0
2026-01-14 15:48:42.336114	25.1	14.9	-64.5	0.0
2026-01-14 15:48:43.458462	24.9	14.9	-64.9	0.0
2026-01-14 15:48:44.583234	24.6	14.8	-62.6	0.0
2026-01-14 15:48:45.705711	24.4	14.8	-65.4	0.0
2026-01-14 15:48:46.828408	24.2	14.7	-65.0	0.0
2026-01-14 15:48:47.952313	24.0	14.7	-65.0	0.0
2026-01-14 15:48:49.074547	23.7	14.7	-63.9	0.0
2026-01-14 15:48:50.198994	23.5	14.6	-63.9	0.0
2026-01-14 15:48:51.321914	23.3	14.6	-65.6	0.0
2026-01-14 15:48:52.448559	23.1	14.5	-64.2	0.0
2026-01-14 15:48:53.570365	22.9	14.5	-64.2	0.0
2026-01-14 15:48:54.694105	22.7	14.4	-65.8	0.0
2026-01-14 15:48:55.817389	22.4	14.4	-65.2	0.0
2026-01-14 15:48:56.941590	22.2	14.3	-61.8	0.0
2026-01-14 15:48:58.066518	22.0	14.3	-64.8	0.0
2026-01-14 15:48:59.190205	21.8	14.2	-63.0	0.0
2026-01-14 15:49:00.314895	21.6	14.2	-65.2	0.0
2026-01-14 15:49:01.436855	21.4	14.2	-65.6	0.0
2026-01-14 15:49:02.561514	21.1	14.1	-63.8	0.0
2026-01-14 15:49:03.686465	20.9	14.1	-64.1	0.0
2026-01-14 15:49:04.812534	20.7	14.0	-66.6	0.0
2026-01-14 15:49:05.936287	20.5	14.0	-65.6	0.0
2026-01-14 15:49:07.061693	20.3	13.9	-66.7	0.0
2026-01-14 15:49:08.186356	20.1	13.9	-66.6	0.0
2026-01-14 15:49:09.308339	19.9	13.8	-64.8	0.0
2026-01-14 15:49:10.433965	19.7	13.8	-64.1	0.0
2026-01-14 15:49:11.558962	19.5	13.7	-64.5	0.0
2026-01-14 15:49:12.683745	19.3	13.7	-67.4	0.0
2026-01-14 15:49:13.805327	19.1	13.6	-65.4	0.0
2026-01-14 15:49:14.926380	18.8	13.6	-66.5	0.0
2026-01-14 15:49:16.050089	18.6	13.5	-65.9	0.0
2026-01-14 15:49:17.176865	18.4	13.5	-67.6	0.0
2026-01-14 15:49:18.299149	18.2	13.4	-67.8	0.0
2026-01-14 15:49:19.421465	18.0	13.4	-67.7	0.0
2026-01-14 15:49:20.547241	17.8	13.3	-68.4	0.0
2026-01-14 15:49:21.670712	17.6	13.3	-66.0	0.0
2026-01-14 15:49:22.795794	17.4	13.2	-67.7	0.0
2026-01-14 15:49:23.920470	17.2	13.1	-69.2	0.0
2026-01-14 15:49:25.046496	17.0	13.1	-67.6	0.0
2026-01-14 15:49:26.171403	16.8	13.0	-68.5	0.0
2026-01-14 15:49:27.294729	16.6	13.0	-66.7	0.0
2026-01-14 15:49:28.417212	16.4	12.9	-66.8	0.0
2026-01-14 15:49:29.540253	16.2	12.9	-68.4	0.0
2026-01-14 15:49:30.664032	16.0	12.8	-67.3	0.0
2026-01-14 15:49:31.785792	15.9	12.8	-66.0	0.0
2026-01-14 15:49:32.908909	15.7	12.7	-62.3	0.0
2026-01-14 15:49:34.033703	15.5	12.7	-67.1	0.0
2026-01-14 15:49:35.156743	15.3	12.6	-65.9	0.0
2026-01-14 15:49:36.279702	15.1	12.6	-66.4	0.0
2026-01-14 15:49:37.402862	14.9	12.5	-66.2	0.0
2026-01-14 15:49:38.528144	14.7	12.4	-65.6	0.0
2026-01-14 15:49:39.650324	14.5	12.4	-67.7	0.0
2026-01-14 15:49:40.775797	14.3	12.3	-68.2	0.0
2026-01-14 15:49:41.900325	14.1	12.3	-68.1	0.0
2026-01-14 15:49:43.024450	14.0	12.2	-66.5	0.0
2026-01-14 15:49:44.148780	13.8	12.2	-64.5	0.0
2026-01-14 15:49:45.273425	13.6	12.1	-67.4	0.0
2026-01-14 15:49:46.396731	13.4	12.1	-64.3	0.0
2026-01-14 15:49:47.521814	13.2	12.0	-64.0	0.0
2026-01-14 15:49:48.645667	13.0	11.9	-65.0	0.0
2026-01-14 15:49:49.768781	12.8	11.9	-65.9	0.0
2026-01-14 15:49:50.892964	12.7	11.8	-65.4	0.0
2026-01-14 15:49:52.016401	12.5	11.8	-68.4	0.0
2026-01-14 15:49:53.139644	12.3	11.7	-64.2	0.0
2026-01-14 15:49:54.262688	12.1	11.7	-67.1	0.0
2026-01-14 15:49:55.384881	11.9	11.6	-68.2	0.0
2026-01-14 15:49:56.506148	11.8	11.5	-65.4	0.0
2026-01-14 15:49:57.628943	11.6	11.5	-66.3	0.0
2026-01-14 15:49:58.751518	11.4	11.4	-67.3	0.0
2026-01-14 15:49:59.875542	11.2	11.4	-67.1	0.0
2026-01-14 15:50:00.997745	11.1	11.3	-63.9	0.0
2026-01-14 15:50:02.122534	10.9	11.2	-68.7	0.0
2026-01-14 15:50:03.245564	10.7	11.2	-65.9	0.0
2026-01-14 15:50:04.368544	10.5	11.1	-64.0	0.0
2026-01-14 15:50:05.492131	10.4	11.1	-65.0	0.0
2026-01-14 15:50:06.615252	10.2	11.0	-63.2	0.0
2026-01-14 15:50:07.739955	10.0	11.0	-65.7	0.0
2026-01-14 15:50:08.863921	9.9	10.9	-67.0	0.0
2026-01-14 15:50:09.987406	9.7	10.8	-70.2	0.0
2026-01-14 15:50:11.109095	9.5	10.8	-70.5	0.0
2026-01-14 15:50:12.232272	9.3	10.7	-68.5	0.0
2026-01-14 15:50:13.358166	9.2	10.7	-69.5	0.0
2026-01-14 15:50:14.481604	9.0	10.6	-74.1	0.0
2026-01-14 15:50:15.605755	8.8	10.5	-77.8	0.0
2026-01-14 15:50:16.729592	8.7	10.5	-75.2	0.0
2026-01-14 15:50:17.854693	8.5	10.4	-75.7	0.0
2026-01-14 15:50:18.979249	8.3	10.4	-76.2	0.0
2026-01-14 15:50:20.102631	8.2	10.3	-75.7	0.0
2026-01-14 15:50:21.228391	8.0	10.2	-75.1	0.0
2026-01-14 15:50:22.351435	7.9	10.2	-76.6	0.0
2026-01-14 15:50:23.476317	7.7	10.1	-77.1	0.0
2026-01-14 15:50:24.600823	7.5	10.1	-78.8	0.0
2026-01-14 15:50:25.725366	7.4	10.0	-79.7	0.0
#Closed at: 2026-01-14 15:43:47.408934