passes_logs/2026/01/14/planumMaritime01/planumMaritime01__20260114_165030_METOP-C_rec.log

#Pass ID: 20260114_165030_METOP-C
#Satellite: METOP-C
#Configuration: METOP-C
#Start time: 2026-01-14 16:50:35.000225

#LorettStation: 1.0.0 05.05.2024
#Station: planumMaritime01
#Location: 37.49445 lon 55.92918 lat
#TLE: 1 43689U 18087A   26014.12997339  .00000084  00000+0  58125-4 0  9996
#TLE: 2 43689  98.6881  76.3953 0000492 186.3195 173.7977 14.21498107372946

#Time	Az	El	Level	SNR
2026-01-14 16:50:37.162975	117.1	10.2	-75.9	0.0
2026-01-14 16:50:39.411835	116.9	10.3	-74.9	0.0
2026-01-14 16:50:41.658844	116.7	10.5	-75.1	0.0
2026-01-14 16:50:43.910130	116.5	10.7	-74.7	0.0
2026-01-14 16:50:46.155732	116.3	10.9	-73.1	0.0
2026-01-14 16:50:48.406402	116.1	11.0	-71.7	0.0
2026-01-14 16:50:50.654296	115.9	11.2	-72.6	0.0
2026-01-14 16:50:52.904815	115.7	11.4	-71.2	0.0
2026-01-14 16:50:55.152680	115.4	11.6	-72.2	0.0
2026-01-14 16:50:57.403608	115.2	11.8	-72.9	0.0
2026-01-14 16:50:59.653012	115.0	11.9	-70.8	0.0
2026-01-14 16:51:01.897336	114.8	12.1	-72.8	0.0
2026-01-14 16:51:04.143257	114.5	12.3	-72.5	0.0
2026-01-14 16:51:06.388596	114.3	12.5	-73.4	0.0
2026-01-14 16:51:08.634691	114.1	12.7	-72.0	0.0
2026-01-14 16:51:10.881276	113.8	12.9	-72.2	0.0
2026-01-14 16:51:13.128886	113.6	13.0	-72.3	0.0
2026-01-14 16:51:15.374201	113.4	13.2	-72.4	0.0
2026-01-14 16:51:17.618847	113.1	13.4	-72.7	0.0
2026-01-14 16:51:19.865397	112.8	13.6	-73.4	0.0
2026-01-14 16:51:22.111286	112.6	13.8	-72.6	0.0
2026-01-14 16:51:24.354470	112.3	14.0	-73.2	0.0
2026-01-14 16:51:26.598238	112.1	14.2	-72.8	0.0
2026-01-14 16:51:28.841828	111.8	14.4	-73.1	0.0
2026-01-14 16:51:31.086507	111.5	14.6	-72.4	0.0
2026-01-14 16:51:33.334240	111.3	14.8	-71.9	0.0
2026-01-14 16:51:35.579665	111.0	15.0	-72.1	0.0
2026-01-14 16:51:37.823226	110.7	15.2	-71.8	0.0
2026-01-14 16:51:40.067520	110.4	15.4	-71.1	0.0
2026-01-14 16:51:42.316024	110.1	15.6	-72.8	0.0
2026-01-14 16:51:44.560960	109.8	15.8	-73.4	0.0
2026-01-14 16:51:46.804893	109.6	16.0	-73.0	0.0
2026-01-14 16:51:49.048929	109.3	16.2	-72.8	0.0
2026-01-14 16:51:51.290878	109.0	16.4	-73.3	0.0
2026-01-14 16:51:53.535921	108.6	16.6	-71.8	0.0
2026-01-14 16:51:55.786394	108.3	16.8	-72.4	0.0
2026-01-14 16:51:58.031775	108.0	17.0	-73.0	2.2
2026-01-14 16:52:00.276658	107.7	17.2	-72.3	0.0
2026-01-14 16:52:02.523326	107.4	17.4	-72.3	0.0
2026-01-14 16:52:04.768591	107.0	17.6	-72.6	0.0
2026-01-14 16:52:07.012121	106.7	17.8	-72.1	0.5
2026-01-14 16:52:09.257901	106.4	18.0	-70.0	0.0
2026-01-14 16:52:11.503720	106.0	18.2	-72.2	1.1
2026-01-14 16:52:13.747488	105.7	18.4	-72.1	1.5
2026-01-14 16:52:15.992140	105.3	18.6	-71.9	1.1
2026-01-14 16:52:18.235637	105.0	18.9	-71.7	0.0
2026-01-14 16:52:20.479541	104.6	19.1	-72.4	1.7
2026-01-14 16:52:22.724978	104.2	19.3	-72.0	0.0
2026-01-14 16:52:24.969805	103.9	19.5	-71.5	0.4
2026-01-14 16:52:27.213381	103.5	19.7	-71.5	0.9
2026-01-14 16:52:29.457555	103.1	19.9	-72.2	0.9
2026-01-14 16:52:31.701601	102.7	20.1	-71.6	0.5
2026-01-14 16:52:33.950202	102.3	20.4	-70.8	0.8
2026-01-14 16:52:36.194480	101.9	20.6	-70.9	0.0
2026-01-14 16:52:38.441194	101.5	20.8	-72.1	1.7
2026-01-14 16:52:40.685011	101.1	21.0	-72.2	3.4
2026-01-14 16:52:42.930749	100.7	21.2	-72.1	1.3
2026-01-14 16:52:45.177397	100.2	21.4	-71.3	0.0
2026-01-14 16:52:47.422935	99.8	21.7	-71.5	0.0
2026-01-14 16:52:49.670635	99.4	21.9	-72.2	1.5
2026-01-14 16:52:51.913621	98.9	22.1	-72.1	2.0
2026-01-14 16:52:54.160635	98.5	22.3	-72.2	0.0
2026-01-14 16:52:56.401025	98.0	22.5	-72.3	1.0
2026-01-14 16:52:58.645170	97.5	22.7	-72.3	4.2
2026-01-14 16:53:00.890228	97.1	23.0	-71.9	0.3
2026-01-14 16:53:03.134765	96.6	23.2	-71.6	0.9
2026-01-14 16:53:05.377473	96.1	23.4	-70.8	0.5
2026-01-14 16:53:07.624283	95.6	23.6	-70.4	0.0
2026-01-14 16:53:09.869015	95.1	23.8	-69.4	0.0
2026-01-14 16:53:12.113048	94.6	24.0	-70.3	0.0
2026-01-14 16:53:14.361332	94.1	24.2	-68.5	0.0
2026-01-14 16:53:16.605947	93.6	24.5	-70.0	0.6
2026-01-14 16:53:18.850655	93.1	24.7	-70.7	0.0
2026-01-14 16:53:21.093351	92.5	24.9	-71.8	1.6
2026-01-14 16:53:23.336512	92.0	25.1	-70.8	3.8
2026-01-14 16:53:25.583185	91.5	25.3	-71.1	0.6
2026-01-14 16:53:27.830634	90.9	25.5	-70.6	0.2
2026-01-14 16:53:30.075199	90.3	25.7	-71.1	0.0
2026-01-14 16:53:32.318625	89.8	25.9	-70.4	0.0
2026-01-14 16:53:34.563458	89.2	26.1	-71.1	3.3
2026-01-14 16:53:36.809419	88.6	26.3	-71.6	2.2
2026-01-14 16:53:39.056364	88.0	26.5	-70.1	0.0
2026-01-14 16:53:41.300072	87.4	26.7	-71.8	0.6
2026-01-14 16:53:43.549819	86.8	26.9	-70.0	0.0
2026-01-14 16:53:45.795662	86.2	27.1	-71.8	3.5
2026-01-14 16:53:48.040378	85.6	27.3	-71.1	3.5
2026-01-14 16:53:50.284897	85.0	27.5	-71.9	2.7
2026-01-14 16:53:52.529438	84.3	27.7	-71.8	1.0
2026-01-14 16:53:54.773111	83.7	27.9	-71.1	0.0
2026-01-14 16:53:57.019226	83.0	28.1	-72.0	2.0
2026-01-14 16:53:59.264012	82.4	28.2	-71.1	0.0
2026-01-14 16:54:01.506872	81.7	28.4	-69.4	1.5
2026-01-14 16:54:03.747690	81.0	28.6	-70.4	0.0
2026-01-14 16:54:05.995701	80.4	28.7	-71.4	2.7
2026-01-14 16:54:08.241724	79.7	28.9	-70.5	1.1
2026-01-14 16:54:10.488152	79.0	29.1	-71.6	3.6
2026-01-14 16:54:12.730089	78.3	29.2	-71.5	3.5
2026-01-14 16:54:14.974148	77.6	29.4	-70.6	3.3
2026-01-14 16:54:17.217804	76.9	29.5	-70.8	2.7
2026-01-14 16:54:19.464301	76.1	29.7	-69.5	1.0
2026-01-14 16:54:21.711217	75.4	29.8	-69.9	0.5
2026-01-14 16:54:23.955458	74.7	30.0	-69.7	2.2
2026-01-14 16:54:26.200616	73.9	30.1	-69.2	0.0
2026-01-14 16:54:28.443184	73.2	30.2	-69.0	0.0
2026-01-14 16:54:30.687865	72.4	30.3	-69.2	0.0
2026-01-14 16:54:32.935048	71.7	30.5	-67.1	0.0
2026-01-14 16:54:35.181151	70.9	30.6	-70.4	2.7
2026-01-14 16:54:37.425580	70.2	30.7	-70.3	0.0
2026-01-14 16:54:39.669373	69.4	30.8	-68.8	0.0
2026-01-14 16:54:41.915243	68.6	30.9	-69.8	0.0
2026-01-14 16:54:44.162179	67.8	31.0	-67.1	0.0
2026-01-14 16:54:46.410577	67.0	31.0	-68.7	1.8
2026-01-14 16:54:48.656947	66.3	31.1	-70.5	1.5
2026-01-14 16:54:50.901566	65.5	31.2	-67.4	0.0
2026-01-14 16:54:53.147944	64.7	31.3	-68.7	0.0
2026-01-14 16:54:55.389668	63.9	31.3	-68.1	0.0
2026-01-14 16:54:57.636103	63.1	31.4	-68.5	0.0
2026-01-14 16:54:59.883920	62.3	31.4	-68.8	0.0
2026-01-14 16:55:02.127525	61.5	31.5	-67.1	0.0
2026-01-14 16:55:04.375275	60.6	31.5	-67.6	0.0
2026-01-14 16:55:06.618387	59.8	31.5	-67.6	0.0
2026-01-14 16:55:08.863876	59.0	31.5	-66.9	0.0
2026-01-14 16:55:11.112337	58.2	31.6	-67.7	0.0
2026-01-14 16:55:13.357842	57.4	31.6	-68.2	0.0
2026-01-14 16:55:15.602882	56.6	31.6	-67.1	0.0
2026-01-14 16:55:17.848356	55.8	31.6	-68.4	0.0
2026-01-14 16:55:20.093424	55.0	31.6	-67.6	0.0
2026-01-14 16:55:22.335629	54.1	31.5	-67.1	0.0
2026-01-14 16:55:24.579849	53.3	31.5	-69.2	0.0
2026-01-14 16:55:26.824689	52.5	31.5	-67.6	0.0
2026-01-14 16:55:29.072159	51.7	31.4	-65.3	0.0
2026-01-14 16:55:31.316981	50.9	31.4	-67.4	0.0
2026-01-14 16:55:33.563041	50.1	31.4	-66.1	0.0
2026-01-14 16:55:35.808879	49.3	31.3	-66.0	0.0
2026-01-14 16:55:38.053844	48.5	31.2	-67.3	0.0
2026-01-14 16:55:40.297632	47.7	31.2	-68.1	0.0
2026-01-14 16:55:42.545989	46.9	31.1	-66.9	0.0
2026-01-14 16:55:44.792827	46.1	31.0	-66.3	0.0
2026-01-14 16:55:47.036255	45.4	30.9	-65.0	0.0
2026-01-14 16:55:49.276696	44.6	30.8	-66.4	0.0
2026-01-14 16:55:51.523354	43.8	30.7	-65.2	0.0
2026-01-14 16:55:53.769328	43.0	30.6	-65.5	0.0
2026-01-14 16:55:56.017286	42.3	30.5	-63.9	0.0
2026-01-14 16:55:58.263404	41.5	30.4	-63.5	0.0
2026-01-14 16:56:00.510518	40.8	30.3	-62.4	0.0
2026-01-14 16:56:02.756644	40.0	30.2	-63.3	0.0
2026-01-14 16:56:05.006469	39.3	30.1	-62.3	0.0
2026-01-14 16:56:07.254575	38.5	29.9	-61.8	0.0
2026-01-14 16:56:09.497738	37.8	29.8	-63.9	0.0
2026-01-14 16:56:11.739924	37.1	29.6	-62.3	0.0
2026-01-14 16:56:13.983926	36.4	29.5	-62.8	0.0
2026-01-14 16:56:16.227824	35.6	29.3	-64.2	0.0
2026-01-14 16:56:18.471675	34.9	29.2	-62.3	0.0
2026-01-14 16:56:20.717470	34.2	29.0	-62.3	0.0
2026-01-14 16:56:22.963170	33.6	28.9	-63.3	0.0
2026-01-14 16:56:25.205941	32.9	28.7	-64.3	0.0
2026-01-14 16:56:27.450464	32.2	28.5	-65.2	0.0
2026-01-14 16:56:29.694748	31.5	28.4	-64.1	0.0
2026-01-14 16:56:31.944051	30.9	28.2	-62.6	0.0
2026-01-14 16:56:34.188838	30.2	28.0	-61.5	0.0
2026-01-14 16:56:36.435771	29.6	27.8	-59.2	0.0
2026-01-14 16:56:38.682383	28.9	27.6	-63.9	0.0
2026-01-14 16:56:40.931289	28.3	27.5	-62.1	0.0
2026-01-14 16:56:43.176296	27.7	27.3	-63.2	0.0
2026-01-14 16:56:45.424400	27.1	27.1	-63.3	0.0
2026-01-14 16:56:47.669024	26.5	26.9	-62.1	0.0
2026-01-14 16:56:49.916813	25.8	26.7	-62.2	0.0
2026-01-14 16:56:52.163724	25.3	26.5	-59.8	0.0
2026-01-14 16:56:54.397415	24.7	26.3	-59.9	0.0
2026-01-14 16:56:56.645370	24.1	26.1	-60.6	0.0
2026-01-14 16:56:58.891760	23.5	25.9	-61.9	0.0
2026-01-14 16:57:01.136564	23.0	25.7	-61.1	0.0
2026-01-14 16:57:03.381640	22.4	25.5	-63.5	0.0
2026-01-14 16:57:05.628456	21.9	25.3	-63.3	0.0
2026-01-14 16:57:07.878673	21.3	25.1	-63.4	0.0
2026-01-14 16:57:10.124247	20.8	24.8	-63.8	0.0
2026-01-14 16:57:12.370989	20.2	24.6	-63.6	0.0
2026-01-14 16:57:14.620420	19.7	24.4	-62.4	0.0
2026-01-14 16:57:16.868385	19.2	24.2	-59.8	0.0
2026-01-14 16:57:19.116178	18.7	24.0	-61.7	0.0
2026-01-14 16:57:21.365132	18.2	23.8	-59.7	0.0
2026-01-14 16:57:23.610870	17.7	23.6	-60.8	0.0
2026-01-14 16:57:25.854452	17.2	23.4	-59.8	0.0
2026-01-14 16:57:28.104143	16.7	23.1	-59.7	0.0
2026-01-14 16:57:30.350773	16.3	22.9	-63.5	0.0
2026-01-14 16:57:32.593358	15.8	22.7	-61.5	0.0
2026-01-14 16:57:34.842733	15.4	22.5	-61.4	0.0
2026-01-14 16:57:37.089240	14.9	22.3	-63.0	0.0
2026-01-14 16:57:39.334688	14.5	22.1	-63.9	0.0
2026-01-14 16:57:41.580494	14.0	21.8	-62.1	0.0
2026-01-14 16:57:43.823858	13.6	21.6	-62.2	0.0
2026-01-14 16:57:46.068346	13.2	21.4	-65.2	0.0
2026-01-14 16:57:48.313438	12.7	21.2	-63.9	0.0
2026-01-14 16:57:50.559847	12.3	21.0	-62.3	0.0
2026-01-14 16:57:52.806067	11.9	20.8	-63.2	0.0
2026-01-14 16:57:55.052179	11.5	20.5	-61.4	0.0
2026-01-14 16:57:57.297993	11.1	20.3	-62.5	0.0
2026-01-14 16:57:59.544508	10.7	20.1	-56.6	0.0
2026-01-14 16:58:01.790068	10.3	19.9	-63.1	0.0
2026-01-14 16:58:04.036856	9.9	19.7	-64.0	0.0
2026-01-14 16:58:06.283600	9.6	19.5	-62.8	0.0
2026-01-14 16:58:08.526382	9.2	19.3	-62.9	0.0
2026-01-14 16:58:10.772262	8.8	19.1	-63.6	0.0
2026-01-14 16:58:13.015498	8.5	18.8	-63.4	0.0
2026-01-14 16:58:15.260802	8.1	18.6	-64.1	0.0
2026-01-14 16:58:17.505932	7.8	18.4	-64.6	0.0
2026-01-14 16:58:19.754598	7.4	18.2	-63.8	0.0
2026-01-14 16:58:22.003370	7.1	18.0	-64.5	0.0
2026-01-14 16:58:24.248524	6.7	17.8	-63.9	0.0
2026-01-14 16:58:26.495229	6.4	17.6	-64.6	0.0
2026-01-14 16:58:28.744393	6.1	17.4	-64.3	0.0
2026-01-14 16:58:30.990827	5.8	17.2	-62.5	0.0
2026-01-14 16:58:33.238747	5.4	17.0	-62.6	0.0
2026-01-14 16:58:35.482745	5.1	16.8	-57.5	0.0
2026-01-14 16:58:37.724721	4.8	16.6	-63.5	0.0
2026-01-14 16:58:39.972067	4.5	16.4	-62.5	0.0
2026-01-14 16:58:42.216749	4.2	16.2	-62.8	0.0
2026-01-14 16:58:44.463331	3.9	16.0	-63.3	0.0
2026-01-14 16:58:46.706945	3.6	15.8	-64.1	0.0
2026-01-14 16:58:48.952715	3.3	15.6	-64.0	0.0
2026-01-14 16:58:51.197387	3.1	15.4	-65.7	0.0
2026-01-14 16:58:53.440584	2.8	15.2	-63.4	0.0
2026-01-14 16:58:55.683845	2.5	15.0	-66.5	0.0
2026-01-14 16:58:57.928746	2.2	14.8	-66.5	0.0
2026-01-14 16:59:00.176932	2.0	14.6	-66.0	0.0
2026-01-14 16:59:02.425136	1.7	14.4	-64.9	0.0
2026-01-14 16:59:04.672042	1.4	14.2	-65.8	0.0
2026-01-14 16:59:06.915808	1.2	14.0	-65.4	0.0
2026-01-14 16:59:09.161977	0.9	13.8	-63.5	0.0
2026-01-14 16:59:11.406053	0.7	13.6	-65.2	0.0
2026-01-14 16:59:13.650547	0.4	13.4	-65.0	0.0
2026-01-14 16:59:15.897089	0.2	13.3	-61.9	0.0
2026-01-14 16:59:18.139825	359.9	13.1	-67.3	0.0
2026-01-14 16:59:20.386472	359.7	12.9	-65.8	0.0
2026-01-14 16:59:22.629767	359.5	12.7	-62.1	0.0
2026-01-14 16:59:24.872304	359.2	12.5	-61.7	0.0
2026-01-14 16:59:27.119658	359.0	12.3	-65.5	0.0
2026-01-14 16:59:29.362863	358.8	12.1	-62.3	0.0
2026-01-14 16:59:31.607625	358.5	12.0	-65.6	0.0
2026-01-14 16:59:33.851778	358.3	11.8	-65.8	0.0
2026-01-14 16:59:36.101917	358.1	11.6	-65.5	0.0
2026-01-14 16:59:38.346890	357.9	11.4	-66.8	0.0
2026-01-14 16:59:40.593004	357.7	11.2	-66.3	0.0
2026-01-14 16:59:42.838048	357.5	11.1	-63.6	0.0
2026-01-14 16:59:45.082304	357.3	10.9	-60.5	0.0
2026-01-14 16:59:47.325960	357.1	10.7	-64.0	0.0
2026-01-14 16:59:49.572038	356.9	10.5	-64.7	0.0
2026-01-14 16:59:51.819580	356.7	10.4	-67.1	0.0
2026-01-14 16:59:54.065704	356.5	10.2	-72.8	0.0
#Closed at: 2026-01-14 16:50:30.002360