passes_logs/2026/01/14/planumMaritime01/planumMaritime01__20260114_172049_METEOR-M2_3_rec.log

#Pass ID: 20260114_172049_METEOR-M2 3
#Satellite: METEOR-M2 3
#Configuration: METEOR-M2 3
#Start time: 2026-01-14 17:20:54.816659

#LorettStation: 1.0.0 05.05.2024
#Station: planumMaritime01
#Location: 37.49445 lon 55.92918 lat
#TLE: 1 57166U 23091A   26014.29359836 -.00000001  00000+0  18460-4 0  9992
#TLE: 2 57166  98.6331  72.2568 0002921 251.9031 108.1830 14.24030470132611

#Time	Az	El	Level	SNR
2026-01-14 17:20:56.978794	145.8	10.2	-80.2	0.0
2026-01-14 17:20:59.225419	145.7	10.4	-80.9	0.0
2026-01-14 17:21:01.472353	145.6	10.6	-81.4	0.0
2026-01-14 17:21:03.720670	145.6	10.8	-78.7	5.9
2026-01-14 17:21:05.971365	145.5	11.0	-78.4	6.4
2026-01-14 17:21:08.219871	145.4	11.2	-78.0	6.6
2026-01-14 17:21:10.469114	145.3	11.4	-78.3	6.4
2026-01-14 17:21:12.718968	145.3	11.6	-78.5	6.1
2026-01-14 17:21:14.970480	145.2	11.8	-78.3	6.6
2026-01-14 17:21:17.218880	145.1	12.0	-78.4	5.9
2026-01-14 17:21:19.469002	145.0	12.2	-78.4	6.7
2026-01-14 17:21:21.717281	144.9	12.4	-78.6	7.3
2026-01-14 17:21:23.964329	144.8	12.7	-78.3	5.6
2026-01-14 17:21:26.212348	144.8	12.9	-78.4	6.3
2026-01-14 17:21:28.458732	144.7	13.1	-78.8	6.6
2026-01-14 17:21:30.707255	144.6	13.3	-78.6	6.9
2026-01-14 17:21:32.956070	144.5	13.5	-79.0	8.0
2026-01-14 17:21:35.206804	144.4	13.8	-78.7	6.8
2026-01-14 17:21:37.458581	144.3	14.0	-79.0	7.6
2026-01-14 17:21:39.706320	144.2	14.2	-79.1	8.6
2026-01-14 17:21:41.956092	144.1	14.5	-79.0	7.8
2026-01-14 17:21:44.202665	144.0	14.7	-79.0	8.2
2026-01-14 17:21:46.451008	143.9	14.9	-79.0	8.9
2026-01-14 17:21:48.703189	143.8	15.2	-79.4	8.2
2026-01-14 17:21:50.952168	143.7	15.4	-79.3	9.0
2026-01-14 17:21:53.200186	143.6	15.7	-78.9	7.6
2026-01-14 17:21:55.448651	143.5	15.9	-78.9	8.0
2026-01-14 17:21:57.697005	143.4	16.1	-78.7	8.4
2026-01-14 17:21:59.947619	143.3	16.4	-79.1	8.8
2026-01-14 17:22:02.197308	143.2	16.6	-79.0	8.5
2026-01-14 17:22:04.446859	143.1	16.9	-79.0	9.0
2026-01-14 17:22:06.696932	143.0	17.2	-78.9	9.7
2026-01-14 17:22:08.944414	142.8	17.4	-78.9	9.6
2026-01-14 17:22:11.191048	142.7	17.7	-78.8	8.3
2026-01-14 17:22:13.441544	142.6	18.0	-78.6	9.1
2026-01-14 17:22:15.690479	142.5	18.2	-78.5	7.4
2026-01-14 17:22:17.939309	142.4	18.5	-78.9	9.3
2026-01-14 17:22:20.187540	142.2	18.8	-78.4	9.4
2026-01-14 17:22:22.434660	142.1	19.0	-78.7	9.0
2026-01-14 17:22:24.685520	142.0	19.3	-78.8	7.4
2026-01-14 17:22:26.934708	141.8	19.6	-78.2	8.8
2026-01-14 17:22:29.180673	141.7	19.9	-78.4	8.9
2026-01-14 17:22:31.427422	141.5	20.2	-78.6	9.0
2026-01-14 17:22:33.680416	141.4	20.5	-78.6	9.1
2026-01-14 17:22:35.929562	141.3	20.8	-78.8	8.5
2026-01-14 17:22:38.179735	141.1	21.1	-78.5	8.5
2026-01-14 17:22:40.430770	140.9	21.4	-78.4	8.1
2026-01-14 17:22:42.679514	140.8	21.7	-78.6	9.0
2026-01-14 17:22:44.929830	140.6	22.0	-78.4	7.6
2026-01-14 17:22:47.180698	140.5	22.3	-78.3	7.9
2026-01-14 17:22:49.427276	140.3	22.6	-78.3	8.2
2026-01-14 17:22:51.673246	140.1	22.9	-78.3	8.8
2026-01-14 17:22:53.925822	140.0	23.3	-78.8	9.8
2026-01-14 17:22:56.171251	139.8	23.6	-78.3	9.4
2026-01-14 17:22:58.418996	139.6	23.9	-77.8	9.9
2026-01-14 17:23:00.665148	139.4	24.3	-77.7	9.0
2026-01-14 17:23:02.913268	139.2	24.6	-77.7	9.1
2026-01-14 17:23:05.161602	139.0	25.0	-77.7	9.7
2026-01-14 17:23:07.411988	138.8	25.3	-77.8	9.8
2026-01-14 17:23:09.657977	138.6	25.7	-77.4	9.6
2026-01-14 17:23:11.909118	138.4	26.0	-77.5	9.5
2026-01-14 17:23:14.156267	138.2	26.4	-77.0	8.3
2026-01-14 17:23:16.405791	138.0	26.7	-78.0	10.6
2026-01-14 17:23:18.653182	137.8	27.1	-77.5	9.5
2026-01-14 17:23:20.906475	137.5	27.5	-77.6	9.5
2026-01-14 17:23:23.156765	137.3	27.9	-77.4	9.5
2026-01-14 17:23:25.408809	137.1	28.3	-77.6	10.1
2026-01-14 17:23:27.654898	136.8	28.6	-77.6	11.1
2026-01-14 17:23:29.903694	136.6	29.0	-77.3	10.0
2026-01-14 17:23:32.156839	136.3	29.4	-77.8	11.0
2026-01-14 17:23:34.402263	136.0	29.9	-77.5	11.0
2026-01-14 17:23:36.651797	135.8	30.3	-77.5	11.0
2026-01-14 17:23:38.902743	135.5	30.7	-77.9	11.0
2026-01-14 17:23:41.151106	135.2	31.1	-77.5	10.8
2026-01-14 17:23:43.400023	134.9	31.5	-77.8	10.6
2026-01-14 17:23:45.650398	134.6	32.0	-77.5	9.3
2026-01-14 17:23:47.897843	134.3	32.4	-77.8	9.3
2026-01-14 17:23:50.146989	134.0	32.8	-77.5	8.5
2026-01-14 17:23:52.393351	133.6	33.3	-78.0	9.9
2026-01-14 17:23:54.641756	133.3	33.7	-78.4	9.8
2026-01-14 17:23:56.893651	132.9	34.2	-78.3	9.5
2026-01-14 17:23:59.141594	132.6	34.7	-78.3	9.9
2026-01-14 17:24:01.389286	132.2	35.1	-78.1	9.8
2026-01-14 17:24:03.640709	131.8	35.6	-78.1	8.8
2026-01-14 17:24:05.890031	131.4	36.1	-77.7	8.3
2026-01-14 17:24:08.141076	131.0	36.6	-77.7	8.1
2026-01-14 17:24:10.390850	130.6	37.1	-77.7	8.5
2026-01-14 17:24:12.634505	130.2	37.6	-77.6	9.2
2026-01-14 17:24:14.885310	129.7	38.1	-77.6	9.2
2026-01-14 17:24:17.133505	129.3	38.6	-76.1	4.9
2026-01-14 17:24:19.385917	128.8	39.1	-77.5	8.6
2026-01-14 17:24:21.635392	128.3	39.6	-77.0	7.8
2026-01-14 17:24:23.883649	127.8	40.2	-77.3	7.3
2026-01-14 17:24:26.133590	127.3	40.7	-75.9	3.6
2026-01-14 17:24:28.382993	126.7	41.2	-76.8	8.1
2026-01-14 17:24:30.631012	126.2	41.8	-76.9	5.9
2026-01-14 17:24:32.881944	125.6	42.3	-76.0	4.5
2026-01-14 17:24:35.131464	125.0	42.9	-76.5	6.1
2026-01-14 17:24:37.380224	124.4	43.4	-76.4	5.8
2026-01-14 17:24:39.631089	123.8	44.0	-76.4	5.9
2026-01-14 17:24:41.881650	123.1	44.5	-76.4	4.0
2026-01-14 17:24:44.128999	122.4	45.1	-75.7	3.4
2026-01-14 17:24:46.381114	121.7	45.7	-76.9	5.2
2026-01-14 17:24:48.631567	120.9	46.3	-75.8	4.9
2026-01-14 17:24:50.881692	120.2	46.8	-76.2	3.3
2026-01-14 17:24:53.130696	119.4	47.4	-76.9	6.8
2026-01-14 17:24:55.380662	118.6	48.0	-76.6	4.0
2026-01-14 17:24:57.629390	117.7	48.6	-75.7	4.5
2026-01-14 17:24:59.877557	116.8	49.2	-77.3	7.3
2026-01-14 17:25:02.125348	115.9	49.8	-76.7	4.5
2026-01-14 17:25:04.370799	114.9	50.3	-76.6	5.1
2026-01-14 17:25:06.618982	113.9	50.9	-76.8	4.7
2026-01-14 17:25:08.867019	112.9	51.5	-77.7	4.9
2026-01-14 17:25:11.117252	111.8	52.1	-77.4	1.3
2026-01-14 17:25:13.362240	110.7	52.6	-77.8	6.5
2026-01-14 17:25:15.609157	109.5	53.2	-77.9	6.0
2026-01-14 17:25:17.855558	108.3	53.8	-77.1	3.5
2026-01-14 17:25:20.104050	107.0	54.3	-77.0	3.5
2026-01-14 17:25:22.351313	105.7	54.9	-77.1	4.4
2026-01-14 17:25:24.600506	104.3	55.4	-76.6	1.8
2026-01-14 17:25:26.848727	102.9	55.9	-77.3	3.7
2026-01-14 17:25:29.096458	101.5	56.4	-76.4	2.1
2026-01-14 17:25:31.345758	99.9	56.9	-78.0	3.3
2026-01-14 17:25:33.596272	98.3	57.4	-77.0	0.9
2026-01-14 17:25:35.844609	96.7	57.8	-78.7	3.8
2026-01-14 17:25:38.095851	95.0	58.3	-77.3	2.2
2026-01-14 17:25:40.342170	93.3	58.7	-76.8	0.0
2026-01-14 17:25:42.589411	91.5	59.1	-77.4	0.0
2026-01-14 17:25:44.835402	89.6	59.5	-75.0	0.0
2026-01-14 17:25:47.083016	87.7	59.8	-76.7	0.0
2026-01-14 17:25:49.329796	85.8	60.1	-77.0	1.3
2026-01-14 17:25:51.579556	83.8	60.4	-77.6	2.2
2026-01-14 17:25:53.827805	81.7	60.7	-75.3	0.0
2026-01-14 17:25:56.077368	79.7	60.9	-76.2	3.3
2026-01-14 17:25:58.324776	77.5	61.1	-76.1	0.0
2026-01-14 17:26:00.574408	75.4	61.3	-75.9	0.0
2026-01-14 17:26:02.822543	73.2	61.4	-75.6	0.0
2026-01-14 17:26:05.068652	71.0	61.5	-76.0	0.0
2026-01-14 17:26:07.315112	68.8	61.5	-75.6	0.0
2026-01-14 17:26:09.564805	66.6	61.5	-75.7	0.0
2026-01-14 17:26:11.810937	64.4	61.5	-74.9	0.0
2026-01-14 17:26:14.058111	62.2	61.4	-75.8	0.5
2026-01-14 17:26:16.305389	60.0	61.3	-75.2	0.0
2026-01-14 17:26:18.550496	57.9	61.2	-74.9	0.0
2026-01-14 17:26:20.799031	55.7	61.0	-75.4	0.7
2026-01-14 17:26:23.049324	53.6	60.8	-75.2	0.0
2026-01-14 17:26:25.297913	51.5	60.6	-75.8	0.0
2026-01-14 17:26:27.545362	49.5	60.3	-75.6	0.0
2026-01-14 17:26:29.796891	47.5	60.0	-76.0	0.0
2026-01-14 17:26:32.042979	45.6	59.7	-76.4	0.6
2026-01-14 17:26:34.292717	43.7	59.4	-75.8	0.0
2026-01-14 17:26:36.540505	41.9	59.0	-76.2	1.1
2026-01-14 17:26:38.786415	40.1	58.6	-75.9	1.1
2026-01-14 17:26:41.034419	38.4	58.2	-75.5	0.9
2026-01-14 17:26:43.282611	36.7	57.7	-76.4	0.9
2026-01-14 17:26:45.533759	35.1	57.3	-75.6	0.7
2026-01-14 17:26:47.782190	33.5	56.8	-77.4	3.0
2026-01-14 17:26:50.030709	32.0	56.3	-77.6	0.5
2026-01-14 17:26:52.279614	30.6	55.8	-77.5	0.8
2026-01-14 17:26:54.526188	29.2	55.3	-76.7	1.7
2026-01-14 17:26:56.773096	27.8	54.7	-76.7	1.7
2026-01-14 17:26:59.022660	26.5	54.2	-77.1	2.9
2026-01-14 17:27:01.272928	25.3	53.6	-77.2	3.0
2026-01-14 17:27:03.524933	24.1	53.1	-76.4	2.9
2026-01-14 17:27:05.771899	22.9	52.5	-76.3	2.2
2026-01-14 17:27:08.020551	21.8	51.9	-77.1	5.3
2026-01-14 17:27:10.270743	20.7	51.4	-77.0	5.4
2026-01-14 17:27:12.519404	19.7	50.8	-76.8	2.9
2026-01-14 17:27:14.767447	18.7	50.2	-76.6	3.8
2026-01-14 17:27:17.016600	17.8	49.6	-76.0	4.3
2026-01-14 17:27:19.265823	16.8	49.0	-76.8	6.0
2026-01-14 17:27:21.509910	16.0	48.5	-76.6	3.6
2026-01-14 17:27:23.758436	15.1	47.9	-76.7	5.1
2026-01-14 17:27:26.008285	14.3	47.3	-76.0	5.1
2026-01-14 17:27:28.256801	13.5	46.7	-75.1	3.2
2026-01-14 17:27:30.504171	12.8	46.2	-74.1	0.8
2026-01-14 17:27:32.752432	12.0	45.6	-74.9	1.3
2026-01-14 17:27:34.998959	11.3	45.0	-74.8	0.8
2026-01-14 17:27:37.245425	10.6	44.5	-74.4	1.4
2026-01-14 17:27:39.494659	10.0	43.9	-73.8	0.4
2026-01-14 17:27:41.742172	9.3	43.3	-72.5	0.0
2026-01-14 17:27:43.994187	8.7	42.8	-73.0	0.0
2026-01-14 17:27:46.241534	8.1	42.2	-73.2	0.5
2026-01-14 17:27:48.491598	7.6	41.7	-72.5	0.0
2026-01-14 17:27:50.737056	7.0	41.1	-72.5	0.0
2026-01-14 17:27:52.986976	6.5	40.6	-72.4	0.0
2026-01-14 17:27:55.235847	6.0	40.1	-71.5	0.0
2026-01-14 17:27:57.483222	5.5	39.6	-70.1	0.0
2026-01-14 17:27:59.733167	5.0	39.0	-70.3	0.0
2026-01-14 17:28:01.981957	4.5	38.5	-70.7	0.0
2026-01-14 17:28:04.227510	4.1	38.0	-71.1	0.0
2026-01-14 17:28:06.475125	3.6	37.5	-70.3	0.0
2026-01-14 17:28:08.723900	3.2	37.0	-70.1	0.0
2026-01-14 17:28:10.972198	2.8	36.5	-70.2	0.0
2026-01-14 17:28:13.218534	2.4	36.1	-70.4	0.0
2026-01-14 17:28:15.466079	2.0	35.6	-69.8	0.0
2026-01-14 17:28:17.713375	1.6	35.1	-70.5	0.0
2026-01-14 17:28:19.961196	1.3	34.6	-70.0	0.0
2026-01-14 17:28:22.209659	0.9	34.2	-70.4	0.0
2026-01-14 17:28:24.456919	0.6	33.7	-68.1	0.0
2026-01-14 17:28:26.706444	0.2	33.3	-70.1	0.0
2026-01-14 17:28:28.952707	359.9	32.8	-70.9	0.0
2026-01-14 17:28:31.202751	359.6	32.4	-70.2	0.0
2026-01-14 17:28:33.450778	359.3	32.0	-70.2	0.0
2026-01-14 17:28:35.700474	359.0	31.5	-70.3	0.0
2026-01-14 17:28:37.949752	358.7	31.1	-68.9	0.0
2026-01-14 17:28:40.201819	358.4	30.7	-70.0	0.0
2026-01-14 17:28:42.450778	358.1	30.3	-72.2	0.0
2026-01-14 17:28:44.699739	357.9	29.9	-71.7	0.0
2026-01-14 17:28:46.952150	357.6	29.5	-68.7	0.0
2026-01-14 17:28:49.196973	357.3	29.1	-69.8	0.0
2026-01-14 17:28:51.446725	357.1	28.7	-70.0	0.0
2026-01-14 17:28:53.695134	356.8	28.3	-70.2	0.0
2026-01-14 17:28:55.943307	356.6	27.9	-70.2	0.0
2026-01-14 17:28:58.193649	356.4	27.5	-71.1	0.0
2026-01-14 17:29:00.442784	356.1	27.1	-69.8	0.0
2026-01-14 17:29:02.691201	355.9	26.8	-70.7	0.0
2026-01-14 17:29:04.941954	355.7	26.4	-71.0	0.0
2026-01-14 17:29:07.188679	355.5	26.1	-70.5	0.0
2026-01-14 17:29:09.438203	355.3	25.7	-70.0	0.0
2026-01-14 17:29:11.686868	355.1	25.3	-70.2	0.0
2026-01-14 17:29:13.934789	354.9	25.0	-70.2	0.0
2026-01-14 17:29:16.182325	354.7	24.7	-70.1	0.0
2026-01-14 17:29:18.432122	354.5	24.3	-70.0	0.0
2026-01-14 17:29:20.682882	354.3	24.0	-69.6	0.0
2026-01-14 17:29:22.932991	354.2	23.7	-70.6	0.0
2026-01-14 17:29:25.183229	354.0	23.3	-70.3	0.0
2026-01-14 17:29:27.430102	353.8	23.0	-70.3	0.0
2026-01-14 17:29:29.678008	353.6	22.7	-71.5	0.0
2026-01-14 17:29:31.928499	353.5	22.4	-71.4	0.0
2026-01-14 17:29:34.177463	353.3	22.1	-70.5	0.0
2026-01-14 17:29:36.425981	353.2	21.8	-70.2	0.0
2026-01-14 17:29:38.675779	353.0	21.4	-69.4	0.0
2026-01-14 17:29:40.927793	352.9	21.1	-70.4	0.0
2026-01-14 17:29:43.178190	352.7	20.8	-70.9	0.0
2026-01-14 17:29:45.427165	352.6	20.6	-70.6	0.0
2026-01-14 17:29:47.676370	352.4	20.3	-72.4	0.0
2026-01-14 17:29:49.927910	352.3	20.0	-71.5	0.0
2026-01-14 17:29:52.174470	352.1	19.7	-70.0	0.0
2026-01-14 17:29:54.423506	352.0	19.4	-70.3	0.0
2026-01-14 17:29:56.674846	351.9	19.1	-69.3	0.0
2026-01-14 17:29:58.923234	351.7	18.9	-70.3	0.0
2026-01-14 17:30:01.174771	351.6	18.6	-70.2	0.0
2026-01-14 17:30:03.422772	351.5	18.3	-71.7	0.0
2026-01-14 17:30:05.669928	351.4	18.0	-72.3	0.0
2026-01-14 17:30:07.920177	351.3	17.8	-70.6	0.0
2026-01-14 17:30:10.168872	351.1	17.5	-70.2	0.0
2026-01-14 17:30:12.416192	351.0	17.3	-71.4	0.0
2026-01-14 17:30:14.663040	350.9	17.0	-71.9	0.0
2026-01-14 17:30:16.912167	350.8	16.7	-71.4	0.0
2026-01-14 17:30:19.161243	350.7	16.5	-70.9	0.0
2026-01-14 17:30:21.408037	350.6	16.2	-70.6	0.0
2026-01-14 17:30:23.656226	350.5	16.0	-71.7	0.0
2026-01-14 17:30:25.904241	350.4	15.8	-71.1	0.0
2026-01-14 17:30:28.151176	350.3	15.5	-70.5	0.0
2026-01-14 17:30:30.403714	350.2	15.3	-71.2	0.0
2026-01-14 17:30:32.651435	350.1	15.0	-71.0	0.0
2026-01-14 17:30:34.900231	350.0	14.8	-72.5	0.0
2026-01-14 17:30:37.147281	349.9	14.6	-71.1	0.0
2026-01-14 17:30:39.395635	349.8	14.3	-71.6	0.0
2026-01-14 17:30:41.646041	349.7	14.1	-71.1	0.0
2026-01-14 17:30:43.893871	349.6	13.9	-71.5	0.0
2026-01-14 17:30:46.143193	349.5	13.7	-71.2	0.0
2026-01-14 17:30:48.391489	349.4	13.4	-70.9	0.0
2026-01-14 17:30:50.637221	349.3	13.2	-72.5	0.0
2026-01-14 17:30:52.887081	349.3	13.0	-71.3	0.0
2026-01-14 17:30:55.134858	349.2	12.8	-72.0	0.0
2026-01-14 17:30:57.384722	349.1	12.6	-70.6	0.0
2026-01-14 17:30:59.631064	349.0	12.4	-71.7	0.0
2026-01-14 17:31:01.876506	348.9	12.1	-72.1	0.0
2026-01-14 17:31:04.127629	348.9	11.9	-71.2	0.0
2026-01-14 17:31:06.375874	348.8	11.7	-71.6	0.0
2026-01-14 17:31:08.624675	348.7	11.5	-69.0	0.0
2026-01-14 17:31:10.873515	348.6	11.3	-68.6	0.0
2026-01-14 17:31:13.121024	348.6	11.1	-71.4	0.0
2026-01-14 17:31:15.366241	348.5	10.9	-72.5	0.0
2026-01-14 17:31:17.615843	348.4	10.7	-69.9	0.0
2026-01-14 17:31:19.861208	348.4	10.5	-68.3	0.0
2026-01-14 17:31:22.110490	348.3	10.3	-71.9	0.0
2026-01-14 17:31:24.357597	348.2	10.1	-78.5	0.0
#Closed at: 2026-01-14 17:20:49.822759