passes_logs/2026/01/14/planumMaritime01/planumMaritime01__20260114_161200_METOP-B_rec.log

#Pass ID: 20260114_161200_METOP-B
#Satellite: METOP-B
#Configuration: METOP-B
#Start time: 2026-01-14 16:12:05.429607

#LorettStation: 1.0.0 05.05.2024
#Station: planumMaritime01
#Location: 37.49445 lon 55.92918 lat
#TLE: 1 38771U 12049A   26014.10299954  .00000088  00000+0  60141-4 0  9995
#TLE: 2 38771  98.6752  68.5059 0003295  78.6468 281.5080 14.21422114691378

#Time	Az	El	Level	SNR
2026-01-14 16:12:07.600919	112.6	10.2	-76.4	0.0
2026-01-14 16:12:09.848661	112.4	10.3	-74.4	0.0
2026-01-14 16:12:12.101301	112.2	10.5	-74.5	0.0
2026-01-14 16:12:14.350677	111.9	10.7	-71.0	0.0
2026-01-14 16:12:16.602343	111.7	10.8	-71.3	0.0
2026-01-14 16:12:18.854333	111.5	11.0	-71.1	0.0
2026-01-14 16:12:21.104818	111.2	11.2	-71.1	0.0
2026-01-14 16:12:23.353378	111.0	11.4	-70.0	0.0
2026-01-14 16:12:25.601761	110.8	11.5	-70.5	0.0
2026-01-14 16:12:27.852291	110.5	11.7	-71.9	0.0
2026-01-14 16:12:30.096223	110.3	11.9	-70.5	0.0
2026-01-14 16:12:32.348461	110.0	12.1	-71.4	0.0
2026-01-14 16:12:34.601243	109.8	12.2	-71.2	0.0
2026-01-14 16:12:36.853868	109.5	12.4	-71.2	0.0
2026-01-14 16:12:39.104743	109.3	12.6	-72.4	0.0
2026-01-14 16:12:41.354906	109.0	12.8	-69.5	0.0
2026-01-14 16:12:43.606732	108.7	12.9	-71.1	0.0
2026-01-14 16:12:45.854850	108.5	13.1	-71.0	0.0
2026-01-14 16:12:48.105024	108.2	13.3	-69.8	0.0
2026-01-14 16:12:50.356596	107.9	13.5	-70.7	0.0
2026-01-14 16:12:52.604752	107.6	13.7	-71.2	0.0
2026-01-14 16:12:54.854006	107.4	13.8	-70.1	0.0
2026-01-14 16:12:57.104335	107.1	14.0	-71.1	0.0
2026-01-14 16:12:59.352928	106.8	14.2	-70.8	0.0
2026-01-14 16:13:01.601320	106.5	14.4	-71.0	0.0
2026-01-14 16:13:03.850127	106.2	14.6	-70.2	0.0
2026-01-14 16:13:06.099011	105.9	14.8	-72.1	0.0
2026-01-14 16:13:08.345004	105.6	15.0	-73.0	0.0
2026-01-14 16:13:10.593453	105.3	15.1	-72.1	0.0
2026-01-14 16:13:12.842330	105.0	15.3	-71.6	0.0
2026-01-14 16:13:15.093211	104.7	15.5	-72.6	0.0
2026-01-14 16:13:17.338475	104.3	15.7	-72.2	0.0
2026-01-14 16:13:19.579788	104.0	15.9	-71.5	0.0
2026-01-14 16:13:21.821213	103.7	16.1	-72.0	0.0
2026-01-14 16:13:24.063843	103.4	16.3	-72.2	0.0
2026-01-14 16:13:26.308782	103.0	16.5	-71.4	0.0
2026-01-14 16:13:28.555768	102.7	16.7	-71.7	0.0
2026-01-14 16:13:30.799734	102.3	16.9	-70.8	0.0
2026-01-14 16:13:33.042386	102.0	17.0	-71.4	0.0
2026-01-14 16:13:35.286960	101.6	17.2	-71.2	0.0
2026-01-14 16:13:37.531481	101.3	17.4	-70.3	0.0
2026-01-14 16:13:39.775953	100.9	17.6	-70.9	0.0
2026-01-14 16:13:42.021991	100.6	17.8	-69.5	0.0
2026-01-14 16:13:44.267218	100.2	18.0	-70.7	0.0
2026-01-14 16:13:46.511745	99.8	18.2	-69.7	0.0
2026-01-14 16:13:48.760683	99.4	18.4	-69.6	0.0
2026-01-14 16:13:51.003576	99.0	18.6	-71.0	0.0
2026-01-14 16:13:53.248701	98.6	18.8	-70.5	0.0
2026-01-14 16:13:55.495251	98.2	19.0	-70.9	0.0
2026-01-14 16:13:57.742354	97.8	19.2	-68.5	0.0
2026-01-14 16:13:59.987568	97.4	19.4	-71.2	0.0
2026-01-14 16:14:02.232224	97.0	19.6	-71.0	0.0
2026-01-14 16:14:04.480054	96.6	19.8	-71.0	0.0
2026-01-14 16:14:06.724591	96.2	20.0	-69.2	0.0
2026-01-14 16:14:08.970022	95.8	20.2	-67.4	0.0
2026-01-14 16:14:11.213668	95.3	20.3	-70.0	0.0
2026-01-14 16:14:13.459916	94.9	20.5	-69.7	0.0
2026-01-14 16:14:15.704008	94.4	20.7	-68.9	0.0
2026-01-14 16:14:17.950052	94.0	20.9	-69.8	0.0
2026-01-14 16:14:20.194381	93.5	21.1	-67.7	0.0
2026-01-14 16:14:22.441172	93.1	21.3	-68.3	0.0
2026-01-14 16:14:24.689595	92.6	21.5	-67.2	0.0
2026-01-14 16:14:26.934357	92.1	21.7	-68.7	0.0
2026-01-14 16:14:29.177433	91.6	21.9	-68.9	0.0
2026-01-14 16:14:31.421951	91.1	22.1	-68.5	0.0
2026-01-14 16:14:33.665128	90.7	22.3	-68.0	0.0
2026-01-14 16:14:35.911324	90.2	22.5	-69.3	0.0
2026-01-14 16:14:38.155435	89.6	22.7	-68.2	0.0
2026-01-14 16:14:40.402459	89.1	22.8	-69.4	0.0
2026-01-14 16:14:42.652811	88.6	23.0	-68.9	0.0
2026-01-14 16:14:44.898412	88.1	23.2	-69.4	0.0
2026-01-14 16:14:47.142103	87.6	23.4	-69.6	0.0
2026-01-14 16:14:49.386610	87.0	23.6	-69.9	0.0
2026-01-14 16:14:51.633681	86.5	23.8	-68.9	0.0
2026-01-14 16:14:53.879406	85.9	23.9	-69.9	0.0
2026-01-14 16:14:56.123793	85.4	24.1	-68.1	0.0
2026-01-14 16:14:58.370934	84.8	24.3	-69.3	0.0
2026-01-14 16:15:00.616827	84.3	24.5	-69.5	0.0
2026-01-14 16:15:02.862711	83.7	24.6	-69.9	0.0
2026-01-14 16:15:05.107001	83.1	24.8	-69.0	0.0
2026-01-14 16:15:07.348640	82.5	25.0	-68.8	0.0
2026-01-14 16:15:09.594052	81.9	25.1	-68.6	0.0
2026-01-14 16:15:11.839713	81.3	25.3	-68.8	0.0
2026-01-14 16:15:14.082263	80.7	25.5	-69.9	0.0
2026-01-14 16:15:16.330294	80.1	25.6	-69.7	3.3
2026-01-14 16:15:18.578630	79.5	25.8	-70.0	0.0
2026-01-14 16:15:20.823294	78.9	25.9	-69.8	0.0
2026-01-14 16:15:23.068871	78.2	26.1	-69.7	0.0
2026-01-14 16:15:25.313694	77.6	26.2	-70.4	2.4
2026-01-14 16:15:27.558202	77.0	26.4	-71.5	0.0
2026-01-14 16:15:29.804047	76.3	26.5	-70.5	0.0
2026-01-14 16:15:32.048096	75.7	26.6	-69.9	0.0
2026-01-14 16:15:34.291758	75.0	26.8	-70.2	0.0
2026-01-14 16:15:36.536824	74.3	26.9	-70.6	0.0
2026-01-14 16:15:38.781772	73.7	27.0	-68.3	0.0
2026-01-14 16:15:41.029513	73.0	27.1	-69.5	0.0
2026-01-14 16:15:43.276471	72.3	27.3	-68.2	0.0
2026-01-14 16:15:45.522912	71.6	27.4	-70.2	0.0
2026-01-14 16:15:47.771773	70.9	27.5	-68.8	0.0
2026-01-14 16:15:50.017223	70.2	27.6	-69.1	0.0
2026-01-14 16:15:52.261941	69.5	27.7	-68.5	0.0
2026-01-14 16:15:54.509832	68.8	27.8	-68.4	0.0
2026-01-14 16:15:56.753008	68.1	27.9	-66.7	0.0
2026-01-14 16:15:58.999667	67.4	28.0	-66.9	0.0
2026-01-14 16:16:01.244446	66.7	28.1	-66.5	0.0
2026-01-14 16:16:03.488734	66.0	28.1	-69.1	0.0
2026-01-14 16:16:05.732959	65.3	28.2	-68.8	0.0
2026-01-14 16:16:07.977417	64.5	28.3	-68.3	0.0
2026-01-14 16:16:10.220918	63.8	28.3	-67.6	0.0
2026-01-14 16:16:12.466008	63.1	28.4	-68.1	0.0
2026-01-14 16:16:14.711390	62.3	28.5	-68.0	0.0
2026-01-14 16:16:16.956756	61.6	28.5	-68.2	0.0
2026-01-14 16:16:19.201910	60.9	28.5	-69.0	0.0
2026-01-14 16:16:21.445873	60.1	28.6	-68.4	0.0
2026-01-14 16:16:23.690644	59.4	28.6	-67.4	0.0
2026-01-14 16:16:25.936441	58.6	28.6	-67.1	0.0
2026-01-14 16:16:28.183336	57.9	28.7	-67.6	0.0
2026-01-14 16:16:30.428140	57.2	28.7	-65.9	0.0
2026-01-14 16:16:32.673212	56.4	28.7	-66.9	0.0
2026-01-14 16:16:34.919940	55.7	28.7	-67.1	0.0
2026-01-14 16:16:37.165425	54.9	28.7	-67.4	0.0
2026-01-14 16:16:39.410231	54.2	28.7	-66.9	0.0
2026-01-14 16:16:41.655362	53.4	28.7	-68.3	0.0
2026-01-14 16:16:43.904554	52.7	28.7	-68.3	0.0
2026-01-14 16:16:46.147522	51.9	28.7	-67.3	0.0
2026-01-14 16:16:48.394146	51.2	28.6	-69.5	0.0
2026-01-14 16:16:50.638249	50.4	28.6	-66.8	0.0
2026-01-14 16:16:52.882861	49.7	28.6	-66.8	0.0
2026-01-14 16:16:55.128316	49.0	28.5	-67.3	0.0
2026-01-14 16:16:57.371343	48.2	28.5	-66.9	0.0
2026-01-14 16:16:59.618911	47.5	28.4	-65.4	0.0
2026-01-14 16:17:01.862712	46.8	28.4	-66.9	0.0
2026-01-14 16:17:04.110219	46.0	28.3	-67.2	0.0
2026-01-14 16:17:06.354690	45.3	28.2	-65.3	0.0
2026-01-14 16:17:08.602251	44.6	28.2	-65.8	0.0
2026-01-14 16:17:10.849475	43.9	28.1	-67.4	0.0
2026-01-14 16:17:13.095832	43.2	28.0	-62.6	0.0
2026-01-14 16:17:15.339220	42.4	27.9	-64.3	0.0
2026-01-14 16:17:17.584308	41.7	27.8	-64.4	0.0
2026-01-14 16:17:19.828827	41.0	27.7	-63.8	0.0
2026-01-14 16:17:22.078183	40.3	27.6	-60.9	0.0
2026-01-14 16:17:24.322577	39.6	27.5	-63.5	0.0
2026-01-14 16:17:26.565031	39.0	27.4	-62.0	0.0
2026-01-14 16:17:28.809372	38.3	27.3	-62.6	0.0
2026-01-14 16:17:31.053261	37.6	27.2	-59.6	0.0
2026-01-14 16:17:33.302162	36.9	27.1	-60.9	0.0
2026-01-14 16:17:35.547056	36.2	26.9	-61.6	0.0
2026-01-14 16:17:37.791198	35.6	26.8	-61.5	0.0
2026-01-14 16:17:40.034912	34.9	26.7	-60.4	0.0
2026-01-14 16:17:42.278652	34.3	26.6	-61.4	0.0
2026-01-14 16:17:44.524515	33.6	26.4	-60.8	0.0
2026-01-14 16:17:46.769917	33.0	26.3	-61.4	0.0
2026-01-14 16:17:49.013899	32.3	26.1	-60.9	0.0
2026-01-14 16:17:51.261391	31.7	26.0	-60.2	0.0
2026-01-14 16:17:53.503814	31.1	25.8	-60.5	0.0
2026-01-14 16:17:55.747199	30.5	25.7	-60.7	0.0
2026-01-14 16:17:57.991989	29.9	25.5	-60.5	0.0
2026-01-14 16:18:00.239844	29.3	25.4	-58.3	0.0
2026-01-14 16:18:02.484614	28.7	25.2	-60.0	0.0
2026-01-14 16:18:04.729550	28.1	25.0	-58.0	0.0
2026-01-14 16:18:06.975154	27.5	24.9	-61.6	0.0
2026-01-14 16:18:09.219059	26.9	24.7	-61.9	0.0
2026-01-14 16:18:11.463467	26.3	24.5	-60.2	0.0
2026-01-14 16:18:13.707966	25.7	24.4	-61.7	0.0
2026-01-14 16:18:15.952761	25.2	24.2	-59.4	0.0
2026-01-14 16:18:18.197370	24.6	24.0	-60.9	0.0
2026-01-14 16:18:20.441577	24.1	23.8	-61.0	0.0
2026-01-14 16:18:22.689935	23.5	23.7	-63.3	0.0
2026-01-14 16:18:24.934015	23.0	23.5	-60.0	0.0
2026-01-14 16:18:27.180418	22.5	23.3	-59.6	0.0
2026-01-14 16:18:29.427756	21.9	23.1	-60.2	0.0
2026-01-14 16:18:31.672880	21.4	22.9	-60.0	0.0
2026-01-14 16:18:33.921874	20.9	22.7	-60.0	0.0
2026-01-14 16:18:36.166820	20.4	22.6	-58.9	0.0
2026-01-14 16:18:38.411487	19.9	22.4	-61.5	0.0
2026-01-14 16:18:40.658918	19.4	22.2	-59.2	0.0
2026-01-14 16:18:42.905628	18.9	22.0	-59.4	0.0
2026-01-14 16:18:45.149157	18.5	21.8	-59.1	0.0
2026-01-14 16:18:47.396716	18.0	21.6	-58.7	0.0
2026-01-14 16:18:49.643348	17.5	21.4	-60.8	0.0
2026-01-14 16:18:51.891404	17.0	21.2	-60.3	0.0
2026-01-14 16:18:54.135742	16.6	21.0	-63.6	0.0
2026-01-14 16:18:56.385543	16.1	20.8	-62.0	0.0
2026-01-14 16:18:58.629940	15.7	20.6	-64.1	0.0
2026-01-14 16:19:00.876158	15.2	20.4	-63.5	0.0
2026-01-14 16:19:03.122074	14.8	20.3	-58.7	0.0
2026-01-14 16:19:05.370134	14.4	20.1	-63.5	0.0
2026-01-14 16:19:07.613909	14.0	19.9	-62.8	0.0
2026-01-14 16:19:09.857835	13.5	19.7	-63.8	0.0
2026-01-14 16:19:12.100324	13.1	19.5	-62.5	0.0
2026-01-14 16:19:14.342208	12.7	19.3	-63.3	0.0
2026-01-14 16:19:16.586759	12.3	19.1	-62.9	0.0
2026-01-14 16:19:18.831372	11.9	18.9	-63.4	0.0
2026-01-14 16:19:21.079077	11.5	18.7	-62.9	0.0
2026-01-14 16:19:23.324614	11.1	18.5	-61.9	0.0
2026-01-14 16:19:25.569694	10.8	18.3	-62.6	0.0
2026-01-14 16:19:27.816306	10.4	18.1	-63.4	0.0
2026-01-14 16:19:30.058575	10.0	17.9	-64.0	0.0
2026-01-14 16:19:32.307329	9.6	17.7	-63.1	0.0
2026-01-14 16:19:34.553642	9.3	17.5	-63.9	0.0
2026-01-14 16:19:36.797685	8.9	17.3	-63.2	0.0
2026-01-14 16:19:39.043819	8.6	17.2	-63.8	0.0
2026-01-14 16:19:41.292711	8.2	17.0	-63.1	0.0
2026-01-14 16:19:43.538438	7.9	16.8	-63.3	0.0
2026-01-14 16:19:45.785306	7.5	16.6	-63.4	0.0
2026-01-14 16:19:48.032004	7.2	16.4	-62.8	0.0
2026-01-14 16:19:50.276560	6.9	16.2	-62.8	0.0
2026-01-14 16:19:52.521715	6.5	16.0	-61.6	0.0
2026-01-14 16:19:54.765829	6.2	15.8	-63.6	0.0
2026-01-14 16:19:57.015287	5.9	15.6	-62.5	0.0
2026-01-14 16:19:59.260219	5.6	15.4	-62.7	0.0
2026-01-14 16:20:01.506877	5.3	15.3	-61.8	0.0
2026-01-14 16:20:03.751379	5.0	15.1	-61.4	0.0
2026-01-14 16:20:05.994703	4.7	14.9	-62.8	0.0
2026-01-14 16:20:08.240418	4.4	14.7	-63.2	0.0
2026-01-14 16:20:10.486334	4.1	14.5	-63.2	0.0
2026-01-14 16:20:12.730737	3.8	14.3	-64.0	0.0
2026-01-14 16:20:14.977820	3.5	14.2	-64.3	0.0
2026-01-14 16:20:17.222797	3.2	14.0	-63.8	0.0
2026-01-14 16:20:19.467033	2.9	13.8	-64.3	0.0
2026-01-14 16:20:21.710114	2.7	13.6	-62.8	0.0
2026-01-14 16:20:23.954562	2.4	13.4	-64.9	0.0
2026-01-14 16:20:26.200680	2.1	13.2	-60.5	0.0
2026-01-14 16:20:28.448638	1.9	13.1	-64.1	0.0
2026-01-14 16:20:30.693161	1.6	12.9	-64.5	0.0
2026-01-14 16:20:32.938759	1.3	12.7	-64.3	0.0
2026-01-14 16:20:35.182435	1.1	12.5	-63.7	0.0
2026-01-14 16:20:37.427724	0.8	12.4	-64.3	0.0
2026-01-14 16:20:39.674067	0.6	12.2	-64.2	0.0
2026-01-14 16:20:41.921882	0.3	12.0	-63.0	0.0
2026-01-14 16:20:44.169940	0.1	11.8	-64.0	0.0
2026-01-14 16:20:46.418229	359.8	11.7	-62.7	0.0
2026-01-14 16:20:48.663786	359.6	11.5	-63.1	0.0
2026-01-14 16:20:50.909801	359.4	11.3	-65.3	0.0
2026-01-14 16:20:53.156107	359.1	11.1	-64.6	0.0
2026-01-14 16:20:55.402179	358.9	11.0	-66.1	0.0
2026-01-14 16:20:57.647355	358.7	10.8	-64.5	0.0
2026-01-14 16:20:59.891691	358.5	10.6	-66.1	0.0
2026-01-14 16:21:02.135581	358.2	10.5	-67.6	0.0
2026-01-14 16:21:04.383999	358.0	10.3	-71.7	0.0
2026-01-14 16:21:06.627059	357.8	10.1	-73.2	0.0
2026-01-14 16:21:08.874430	357.6	10.0	-73.4	0.0
#Closed at: 2026-01-14 16:12:00.435033