passes_logs/2026/01/26/R3.2S_Murmansk_2ch/R3.2S_Murmansk_2ch__20260126_103909_TY-42_rec.log

#Pass ID: 20260126_103909_TY-42
#Satellite: TY-42
#Configuration: TY-42_900M
#almurnet v.1.7.20251203
#Start time: 2026-01-26 10:39:11

#Version: 2.2.20260125
#Station: R3.2S_Murmansk_2ch
#Location: 33.079688 lon 68.888172 lat
#TLE: 1 64048U 25103A   26025.90722222  .00008016  00000-0  38191-3 0 09994
#TLE: 2 64048 097.4113 101.1198 0001664 095.7251 298.2114 15.19193032 38479

#Time	Az	El	Level	Level2	SNR	BER	BlckErr	Temp	State	Recorded	gain1	gain2
2026-01-26 10:39:11.53	22.36	2.08	-42.3	-44.9	6.3	0.00e+00	0	50	0	0	55	20202
2026-01-26 10:39:14.55	22.21	2.28	-42.2	-44.8	6.2	0.00e+00	0	50	104	0	56	18971
2026-01-26 10:39:17.58	22.05	2.48	-42.2	-44.8	6.2	0.00e+00	0	51	104	0	56	18966
2026-01-26 10:39:20.61	21.90	2.69	-42.2	-44.8	6.2	0.00e+00	0	51	104	0	56	18943
2026-01-26 10:39:23.64	21.74	2.90	-42.2	-44.8	6.2	0.00e+00	0	51	104	0	56	18929
2026-01-26 10:39:26.67	21.58	3.11	-42.2	-44.8	6.2	0.00e+00	0	51	104	0	56	18893
2026-01-26 10:39:29.70	21.41	3.33	-42.2	-44.8	6.2	0.00e+00	0	51	104	0	56	18872
2026-01-26 10:39:32.73	21.24	3.54	-42.2	-44.8	6.2	0.00e+00	0	51	104	0	56	18888
2026-01-26 10:39:35.76	21.07	3.76	-42.2	-44.8	6.2	0.00e+00	0	52	104	0	56	18961
2026-01-26 10:39:38.79	20.89	3.98	-42.3	-44.8	6.2	0.00e+00	0	52	104	0	56	19012
2026-01-26 10:39:41.82	20.71	4.20	-42.2	-44.8	6.2	0.00e+00	0	52	104	0	56	18900
2026-01-26 10:39:44.84	20.53	4.43	-42.2	-44.8	6.2	0.00e+00	0	52	104	0	56	18952
2026-01-26 10:39:47.88	20.34	4.65	-42.2	-44.8	6.2	0.00e+00	0	52	104	0	56	18920
2026-01-26 10:39:50.91	20.15	4.88	-42.2	-44.8	6.2	0.00e+00	0	52	104	0	56	18946
2026-01-26 10:39:53.94	19.95	5.11	-42.2	-44.8	6.2	0.00e+00	0	53	104	0	56	18955
2026-01-26 10:39:56.97	19.75	5.34	-42.2	-44.8	6.2	0.00e+00	0	53	104	0	56	18991
2026-01-26 10:40:00.00	19.55	5.58	-42.3	-44.8	6.2	0.00e+00	0	53	104	0	56	18949
2026-01-26 10:40:03.03	19.34	5.82	-42.3	-44.8	6.2	0.00e+00	0	53	104	0	56	19024
2026-01-26 10:40:06.06	19.13	6.06	-42.3	-44.9	6.2	0.00e+00	0	53	104	0	56	19045
2026-01-26 10:40:09.09	18.91	6.30	-42.2	-44.8	6.2	0.00e+00	0	53	104	0	56	18954
2026-01-26 10:40:12.13	18.69	6.55	-42.3	-44.8	6.2	0.00e+00	0	53	104	0	56	18933
2026-01-26 10:40:15.15	18.46	6.80	-42.3	-44.8	6.2	0.00e+00	0	53	104	0	56	18925
2026-01-26 10:40:18.19	18.23	7.05	-42.2	-44.8	6.2	0.00e+00	0	53	104	0	56	18989
2026-01-26 10:40:21.22	17.99	7.30	-42.3	-44.8	6.2	0.00e+00	0	53	104	0	56	18976
2026-01-26 10:40:24.25	17.74	7.56	-42.3	-44.8	6.2	0.00e+00	0	53	104	0	56	19009
2026-01-26 10:40:27.28	17.50	7.82	-42.3	-44.8	6.2	0.00e+00	0	54	104	0	56	18994
2026-01-26 10:40:30.31	17.24	8.09	-42.3	-44.8	6.2	0.00e+00	0	54	104	0	56	19005
2026-01-26 10:40:33.35	16.98	8.35	-42.3	-44.8	6.2	0.00e+00	0	54	104	0	56	18980
2026-01-26 10:40:36.38	16.71	8.63	-42.3	-44.8	6.2	0.00e+00	0	54	104	0	56	18977
2026-01-26 10:40:39.41	16.44	8.90	-42.3	-44.8	6.2	0.00e+00	0	54	104	0	56	18991
2026-01-26 10:40:42.44	16.15	9.18	-42.3	-44.8	6.2	0.00e+00	0	54	104	0	56	18955
2026-01-26 10:40:45.47	15.87	9.46	-42.3	-44.8	6.2	0.00e+00	0	54	104	0	56	19008
2026-01-26 10:40:48.50	15.57	9.74	-42.3	-44.8	6.2	0.00e+00	0	54	104	0	56	19034
2026-01-26 10:40:51.54	15.27	10.03	-42.3	-44.8	6.2	0.00e+00	0	54	104	0	56	18978
2026-01-26 10:40:54.56	14.96	10.32	-42.3	-44.9	6.2	0.00e+00	0	54	104	0	56	19040
2026-01-26 10:40:57.60	14.64	10.62	-42.3	-44.8	6.2	0.00e+00	0	54	104	0	56	19020
2026-01-26 10:41:00.63	14.31	10.92	-42.3	-44.8	6.2	0.00e+00	0	54	104	0	56	19027
2026-01-26 10:41:03.66	13.98	11.22	-42.3	-44.9	6.2	0.00e+00	0	54	104	0	56	19040
2026-01-26 10:41:06.69	13.63	11.53	-42.3	-44.8	6.2	0.00e+00	0	54	104	0	56	19012
2026-01-26 10:41:09.72	13.28	11.84	-42.3	-44.8	6.2	0.00e+00	0	54	104	0	56	19005
2026-01-26 10:41:12.75	12.92	12.16	-42.3	-44.8	6.2	0.00e+00	0	55	104	0	56	19017
2026-01-26 10:41:15.78	12.55	12.48	-42.3	-44.9	6.2	0.00e+00	0	54	104	0	56	19050
2026-01-26 10:41:18.81	12.16	12.80	-42.3	-44.8	6.2	0.00e+00	0	54	104	0	56	19023
2026-01-26 10:41:21.84	11.77	13.13	-42.3	-44.9	6.2	0.00e+00	0	54	104	0	56	19051
2026-01-26 10:41:24.87	11.37	13.47	-42.3	-44.9	6.2	0.00e+00	0	55	104	0	56	19038
2026-01-26 10:41:27.90	10.95	13.81	-42.3	-44.8	6.2	0.00e+00	0	54	104	0	56	19016
2026-01-26 10:41:30.93	10.52	14.15	-42.3	-44.9	6.2	0.00e+00	0	55	104	0	56	19059
2026-01-26 10:41:33.97	10.08	14.50	-42.3	-44.9	6.2	0.00e+00	0	54	104	0	56	19036
2026-01-26 10:41:36.99	9.63	14.85	-42.3	-44.8	6.2	0.00e+00	0	55	104	0	56	18999
2026-01-26 10:41:40.03	9.16	15.21	-42.3	-44.9	6.2	0.00e+00	0	55	104	0	56	19043
2026-01-26 10:41:43.06	8.68	15.58	-42.3	-44.9	6.2	0.00e+00	0	55	104	0	56	19079
2026-01-26 10:41:46.08	8.19	15.95	-42.3	-44.9	6.2	0.00e+00	0	55	104	0	56	19068
2026-01-26 10:41:49.11	7.68	16.32	-42.3	-44.8	6.2	0.00e+00	0	55	104	0	56	19032
2026-01-26 10:41:52.15	7.16	16.70	-42.3	-44.9	6.2	0.00e+00	0	55	104	0	56	19070
2026-01-26 10:41:55.18	6.62	17.09	-42.3	-44.8	6.2	0.00e+00	0	55	104	0	56	18972
2026-01-26 10:41:58.21	6.06	17.48	-42.3	-44.8	6.2	0.00e+00	0	55	104	0	56	19007
2026-01-26 10:42:01.24	5.48	17.88	-42.3	-44.8	6.2	0.00e+00	0	55	104	0	56	18994
2026-01-26 10:42:04.27	4.89	18.28	-42.3	-44.9	6.2	0.00e+00	0	55	104	0	56	19042
2026-01-26 10:42:07.30	4.28	18.69	-42.3	-44.9	6.2	0.00e+00	0	55	104	0	56	19043
2026-01-26 10:42:10.33	3.65	19.10	-42.3	-44.9	6.2	0.00e+00	0	55	104	0	56	19047
2026-01-26 10:42:13.37	2.99	19.52	-42.3	-44.9	6.2	0.00e+00	0	55	104	0	56	19094
2026-01-26 10:42:16.40	2.32	19.95	-42.3	-44.8	6.2	0.00e+00	0	55	104	0	56	18988
2026-01-26 10:42:19.43	1.62	20.38	-42.3	-44.8	6.2	0.00e+00	0	55	104	0	56	19026
2026-01-26 10:42:22.46	0.91	20.81	-42.3	-44.8	6.2	0.00e+00	0	55	104	0	56	19023
2026-01-26 10:42:25.49	0.16	21.25	-42.3	-44.8	6.2	0.00e+00	0	55	104	0	56	19016
2026-01-26 10:42:28.52	359.40	21.69	-42.3	-44.8	6.2	0.00e+00	0	55	104	0	56	19011
2026-01-26 10:42:31.55	358.61	22.14	-42.3	-44.8	6.2	0.00e+00	0	55	104	0	56	19033
2026-01-26 10:42:34.58	357.79	22.60	-42.3	-44.9	6.2	0.00e+00	0	55	104	0	56	19065
2026-01-26 10:42:37.61	356.94	23.06	-42.3	-44.8	6.2	0.00e+00	0	55	104	0	56	19016
2026-01-26 10:42:40.65	356.06	23.52	-42.3	-44.9	6.2	0.00e+00	0	55	104	0	56	19045
2026-01-26 10:42:43.68	355.16	23.98	-42.3	-44.9	6.2	0.00e+00	0	55	104	0	56	19051
2026-01-26 10:42:46.71	354.22	24.45	-42.3	-44.8	6.2	0.00e+00	0	55	104	0	56	19012
2026-01-26 10:42:49.74	353.25	24.92	-42.3	-44.9	6.2	0.00e+00	0	55	104	0	56	19066
2026-01-26 10:42:52.77	352.25	25.39	-42.3	-44.9	6.2	0.00e+00	0	55	104	0	56	19046
2026-01-26 10:42:55.80	351.22	25.86	-42.3	-44.8	6.2	0.00e+00	0	55	104	0	56	18983
2026-01-26 10:42:58.84	350.14	26.34	-42.3	-44.9	6.2	0.00e+00	0	55	104	0	56	19038
2026-01-26 10:43:01.87	349.04	26.81	-42.3	-44.9	6.2	0.00e+00	0	55	104	0	56	19063
2026-01-26 10:43:04.90	347.89	27.28	-42.3	-44.9	6.2	0.00e+00	0	55	104	0	56	19045
2026-01-26 10:43:07.93	346.71	27.75	-42.3	-44.9	6.2	0.00e+00	0	55	104	0	56	19075
2026-01-26 10:43:10.96	345.50	28.22	-42.3	-44.9	6.2	0.00e+00	0	55	104	0	56	19087
2026-01-26 10:43:13.99	344.24	28.68	-42.3	-44.8	6.2	0.00e+00	0	55	104	0	56	19029
2026-01-26 10:43:17.01	342.94	29.13	-42.3	-44.8	6.2	0.00e+00	0	55	104	0	56	19006
2026-01-26 10:43:20.04	341.60	29.58	-42.3	-44.8	6.2	0.00e+00	0	55	104	0	56	19034
2026-01-26 10:43:23.08	340.22	30.02	-42.3	-44.8	6.2	0.00e+00	0	55	104	0	56	19009
2026-01-26 10:43:26.11	338.80	30.45	-42.3	-44.9	6.2	0.00e+00	0	55	104	0	56	19062
2026-01-26 10:43:29.14	337.34	30.87	-42.3	-44.8	6.2	0.00e+00	0	55	104	0	56	18998
2026-01-26 10:43:32.17	335.83	31.27	-42.3	-44.8	6.2	0.00e+00	0	55	104	0	56	18974
2026-01-26 10:43:35.20	334.29	31.66	-42.3	-44.8	6.2	0.00e+00	0	55	104	0	56	19023
2026-01-26 10:43:38.23	332.71	32.03	-42.3	-44.8	6.2	0.00e+00	0	55	104	0	56	18997
2026-01-26 10:43:41.26	331.08	32.39	-42.3	-44.8	6.2	0.00e+00	0	55	104	0	56	19015
2026-01-26 10:43:44.29	329.42	32.72	-42.3	-44.9	6.2	0.00e+00	0	55	104	0	56	19040
2026-01-26 10:43:47.32	327.73	33.03	-42.3	-44.9	6.2	0.00e+00	0	55	104	0	56	19116
2026-01-26 10:43:50.35	326.00	33.32	-42.3	-44.8	6.2	0.00e+00	0	55	104	0	56	19027
2026-01-26 10:43:53.38	324.24	33.58	-42.3	-44.9	6.2	0.00e+00	0	55	104	0	56	19117
2026-01-26 10:43:56.42	322.44	33.81	-42.2	-44.8	6.2	0.00e+00	0	55	104	0	56	18914
2026-01-26 10:43:59.45	320.63	34.02	-42.3	-44.9	6.2	0.00e+00	0	55	104	0	56	19040
2026-01-26 10:44:02.48	318.79	34.20	-42.3	-44.8	6.2	0.00e+00	0	55	104	0	56	18987
2026-01-26 10:44:05.51	316.93	34.34	-42.3	-44.9	6.2	0.00e+00	0	55	104	0	56	19043
2026-01-26 10:44:08.54	315.05	34.45	-42.3	-44.8	6.2	0.00e+00	0	55	104	0	56	19015
2026-01-26 10:44:11.58	313.16	34.53	-42.3	-44.9	6.2	0.00e+00	0	55	104	0	56	19049
2026-01-26 10:44:14.61	311.26	34.58	-42.3	-44.8	6.2	0.00e+00	0	55	104	0	56	19020
2026-01-26 10:44:17.64	309.36	34.59	-42.3	-44.8	6.2	0.00e+00	0	55	104	0	56	18993
2026-01-26 10:44:20.67	307.47	34.57	-42.3	-44.9	6.2	0.00e+00	0	55	104	0	56	19063
2026-01-26 10:44:23.70	305.57	34.52	-42.3	-44.8	6.2	0.00e+00	0	55	104	0	56	18980
2026-01-26 10:44:26.73	303.69	34.43	-42.3	-44.8	6.2	0.00e+00	0	55	104	0	56	18968
2026-01-26 10:44:29.76	301.81	34.31	-42.3	-44.8	6.2	0.00e+00	0	56	104	0	56	19010
2026-01-26 10:44:32.79	299.96	34.15	-42.3	-44.8	6.2	0.00e+00	0	55	104	0	56	18998
2026-01-26 10:44:35.82	298.12	33.97	-42.3	-44.8	6.2	0.00e+00	0	55	104	0	56	19030
2026-01-26 10:44:38.85	296.31	33.76	-42.3	-44.9	6.2	0.00e+00	0	55	104	0	56	19087
2026-01-26 10:44:41.89	294.52	33.51	-42.3	-44.9	6.2	0.00e+00	0	55	104	0	56	19072
2026-01-26 10:44:44.91	292.77	33.24	-42.3	-44.8	6.2	0.00e+00	0	55	104	0	56	19026
2026-01-26 10:44:47.95	291.04	32.95	-42.3	-44.9	6.2	0.00e+00	0	55	104	0	56	19053
2026-01-26 10:44:50.98	289.35	32.63	-42.3	-44.9	6.2	0.00e+00	0	55	104	0	56	19076
2026-01-26 10:44:54.01	287.70	32.29	-42.3	-44.9	6.2	0.00e+00	0	55	104	0	56	19065
2026-01-26 10:44:57.04	286.08	31.93	-42.3	-44.9	6.2	0.00e+00	0	55	104	0	56	19068
2026-01-26 10:45:00.07	284.51	31.56	-42.3	-44.9	6.2	0.00e+00	0	55	104	0	56	19063
2026-01-26 10:45:03.10	282.97	31.16	-42.3	-44.9	6.2	0.00e+00	0	55	104	0	56	19065
2026-01-26 10:45:06.13	281.47	30.75	-42.3	-44.9	6.2	0.00e+00	0	55	104	0	56	19043
2026-01-26 10:45:09.16	280.02	30.33	-42.3	-44.9	6.2	0.00e+00	0	55	104	0	56	19040
2026-01-26 10:45:12.19	278.60	29.90	-42.3	-44.9	6.2	0.00e+00	0	55	104	0	56	19082
2026-01-26 10:45:15.22	277.23	29.46	-42.3	-44.9	6.2	0.00e+00	0	55	104	0	56	19090
2026-01-26 10:45:18.25	275.90	29.00	-42.3	-44.9	6.2	0.00e+00	0	55	104	0	56	19071
2026-01-26 10:45:21.28	274.61	28.55	-42.3	-44.9	6.2	0.00e+00	0	55	104	0	56	19067
2026-01-26 10:45:24.32	273.35	28.08	-42.3	-44.9	6.2	0.00e+00	0	55	104	0	56	19075
2026-01-26 10:45:27.35	272.14	27.61	-42.3	-44.9	6.2	0.00e+00	0	55	104	0	56	19045
2026-01-26 10:45:30.38	270.97	27.14	-42.3	-44.8	6.2	0.00e+00	0	55	104	0	56	19008
2026-01-26 10:45:33.41	269.83	26.67	-42.3	-44.9	6.2	0.00e+00	0	55	104	0	56	19050
2026-01-26 10:45:36.44	268.73	26.19	-42.3	-44.9	6.2	0.00e+00	0	56	104	0	56	19058
2026-01-26 10:45:39.47	267.67	25.72	-42.3	-44.9	6.2	0.00e+00	0	56	104	0	56	19069
2026-01-26 10:45:42.50	266.64	25.24	-42.3	-44.9	6.2	0.00e+00	0	55	104	0	56	19074
2026-01-26 10:45:45.53	265.64	24.77	-42.3	-44.9	6.2	0.00e+00	0	55	104	0	56	19082
2026-01-26 10:45:48.56	264.68	24.30	-42.3	-44.9	6.2	0.00e+00	0	56	104	0	56	19070
2026-01-26 10:45:51.59	263.75	23.83	-42.3	-44.9	6.2	0.00e+00	0	55	104	0	56	19100
2026-01-26 10:45:54.63	262.84	23.36	-42.3	-44.9	6.2	0.00e+00	0	55	104	0	56	19068
2026-01-26 10:45:57.66	261.97	22.90	-42.3	-44.9	6.2	0.00e+00	0	55	104	0	56	19094
2026-01-26 10:46:00.69	261.13	22.44	-42.3	-44.9	6.2	0.00e+00	0	55	104	0	56	19098
2026-01-26 10:46:03.72	260.32	21.99	-42.3	-44.9	6.2	0.00e+00	0	56	104	0	56	19095
2026-01-26 10:46:06.75	259.53	21.54	-42.3	-44.9	6.2	0.00e+00	0	55	104	0	56	19082
2026-01-26 10:46:09.78	258.77	21.09	-42.3	-44.9	6.2	0.00e+00	0	55	104	0	56	19128
2026-01-26 10:46:12.81	258.03	20.65	-42.3	-44.9	6.2	0.00e+00	0	56	104	0	56	19081
2026-01-26 10:46:15.84	257.31	20.22	-42.3	-44.9	6.2	0.00e+00	0	55	104	0	56	19148
2026-01-26 10:46:18.87	256.62	19.79	-42.3	-44.9	6.2	0.00e+00	0	56	104	0	56	19098
2026-01-26 10:46:21.90	255.95	19.36	-42.3	-44.9	6.2	0.00e+00	0	56	104	0	56	19120
2026-01-26 10:46:24.93	255.30	18.95	-42.3	-44.9	6.2	0.00e+00	0	56	104	0	56	19095
2026-01-26 10:46:27.96	254.67	18.53	-42.3	-44.9	6.2	0.00e+00	0	55	104	0	56	19092
2026-01-26 10:46:30.99	254.07	18.12	-42.3	-44.9	6.2	0.00e+00	0	55	104	0	56	19069
2026-01-26 10:46:34.02	253.47	17.72	-42.3	-44.9	6.2	0.00e+00	0	55	104	0	56	19058
2026-01-26 10:46:37.05	252.90	17.32	-42.3	-44.9	6.2	0.00e+00	0	55	104	0	56	19166
2026-01-26 10:46:40.08	252.35	16.93	-42.3	-44.9	6.2	0.00e+00	0	55	104	0	56	19120
2026-01-26 10:46:43.11	251.81	16.55	-42.3	-44.8	6.2	0.00e+00	0	55	104	0	56	19013
2026-01-26 10:46:46.14	251.29	16.17	-42.3	-44.9	6.2	0.00e+00	0	56	104	0	56	19094
2026-01-26 10:46:49.17	250.78	15.79	-42.3	-44.9	6.2	0.00e+00	0	56	104	0	56	19120
2026-01-26 10:46:52.20	250.29	15.42	-42.3	-44.9	6.2	0.00e+00	0	55	104	0	56	19087
2026-01-26 10:46:55.23	249.81	15.06	-42.3	-44.9	6.2	0.00e+00	0	55	104	0	56	19106
2026-01-26 10:46:58.26	249.34	14.70	-42.3	-44.9	6.2	0.00e+00	0	55	104	0	56	19097
2026-01-26 10:47:01.29	248.89	14.34	-42.3	-44.9	6.2	0.00e+00	0	55	104	0	56	19113
2026-01-26 10:47:04.33	248.45	13.99	-42.3	-44.9	6.2	0.00e+00	0	56	104	0	56	19116
2026-01-26 10:47:07.35	248.03	13.65	-42.3	-44.9	6.2	0.00e+00	0	56	104	0	56	19108
2026-01-26 10:47:10.38	247.61	13.31	-42.3	-44.9	6.2	0.00e+00	0	56	104	0	56	19150
2026-01-26 10:47:13.41	247.21	12.98	-42.3	-44.8	6.2	0.00e+00	0	55	104	0	56	19008
2026-01-26 10:47:16.44	246.82	12.65	-42.3	-44.9	6.2	0.00e+00	0	55	104	0	56	19049
2026-01-26 10:47:19.48	246.44	12.32	-42.3	-44.9	6.2	0.00e+00	0	56	104	0	56	19077
2026-01-26 10:47:22.50	246.07	12.00	-42.3	-44.9	6.2	0.00e+00	0	55	104	0	56	19122
2026-01-26 10:47:25.54	245.70	11.69	-42.3	-44.9	6.2	0.00e+00	0	56	104	0	56	19111
2026-01-26 10:47:28.57	245.35	11.37	-42.3	-44.9	6.2	0.00e+00	0	56	104	0	56	19081
2026-01-26 10:47:31.60	245.01	11.07	-42.3	-44.9	6.2	0.00e+00	0	56	104	0	56	19064
2026-01-26 10:47:34.63	244.67	10.76	-42.3	-44.9	6.2	0.00e+00	0	56	104	0	56	19066
2026-01-26 10:47:37.66	244.35	10.46	-42.3	-44.9	6.2	0.00e+00	0	56	104	0	56	19133
2026-01-26 10:47:40.69	244.03	10.17	-42.3	-44.9	6.2	0.00e+00	0	56	104	0	56	19073
2026-01-26 10:47:43.72	243.72	9.88	-42.3	-44.9	6.2	0.00e+00	0	56	104	0	56	19066
2026-01-26 10:47:46.75	243.42	9.59	-42.3	-44.9	6.2	0.00e+00	0	56	104	0	56	19105
2026-01-26 10:47:49.78	243.12	9.30	-42.3	-44.9	6.2	0.00e+00	0	56	104	0	56	19105
2026-01-26 10:47:52.82	242.83	9.02	-42.3	-44.9	6.2	0.00e+00	0	55	104	0	56	19126
2026-01-26 10:47:55.85	242.55	8.75	-42.3	-44.9	6.2	0.00e+00	0	56	104	0	56	19108
2026-01-26 10:47:58.88	242.28	8.47	-42.3	-44.9	6.2	0.00e+00	0	56	104	0	56	19127
2026-01-26 10:48:01.91	242.01	8.20	-42.3	-44.9	6.2	0.00e+00	0	56	104	0	56	19112
2026-01-26 10:48:04.94	241.75	7.94	-42.3	-44.9	6.2	0.00e+00	0	55	104	0	56	19113
2026-01-26 10:48:07.97	241.49	7.67	-42.3	-44.9	6.2	0.00e+00	0	56	104	0	56	19116
2026-01-26 10:48:11.00	241.24	7.41	-42.3	-44.9	6.2	0.00e+00	0	56	104	0	56	19086
2026-01-26 10:48:14.03	241.00	7.15	-42.3	-44.9	6.2	0.00e+00	0	56	104	0	56	19099
2026-01-26 10:48:17.06	240.76	6.90	-42.3	-44.9	6.2	0.00e+00	0	56	104	0	56	19087
2026-01-26 10:48:20.09	240.53	6.65	-42.3	-44.9	6.2	0.00e+00	0	56	104	0	56	19151
2026-01-26 10:48:23.12	240.30	6.40	-42.3	-44.9	6.2	0.00e+00	0	56	104	0	56	19171
2026-01-26 10:48:26.16	240.08	6.15	-43.3	-45.9	6.2	0.00e+00	0	56	104	0	57	20207
2026-01-26 10:48:29.19	239.86	5.91	-43.3	-45.9	6.2	0.00e+00	0	56	104	0	57	20192
2026-01-26 10:48:32.22	239.64	5.67	-43.3	-45.9	6.2	0.00e+00	0	56	104	0	57	20195
2026-01-26 10:48:35.25	239.43	5.43	-43.3	-45.9	6.2	0.00e+00	0	56	104	0	57	20184
2026-01-26 10:48:38.28	239.23	5.19	-43.3	-45.9	6.2	0.00e+00	0	56	104	0	57	20222
2026-01-26 10:48:41.31	239.03	4.96	-43.3	-45.9	6.2	0.00e+00	0	56	104	0	57	20240
2026-01-26 10:48:44.34	238.83	4.73	-43.3	-45.9	6.2	0.00e+00	0	56	104	0	57	20209
2026-01-26 10:48:47.37	238.64	4.50	-43.3	-45.9	6.2	0.00e+00	0	55	104	0	57	20176
2026-01-26 10:48:50.40	238.45	4.28	-43.3	-45.9	6.2	0.00e+00	0	56	104	0	57	20181
2026-01-26 10:48:53.44	238.27	4.05	-43.3	-45.8	6.2	0.00e+00	0	56	104	0	57	20128
2026-01-26 10:48:56.47	238.09	3.83	-43.3	-45.8	6.2	0.00e+00	0	55	104	0	57	20123
2026-01-26 10:48:59.50	237.91	3.61	-43.3	-45.9	6.2	0.00e+00	0	56	104	0	57	20179
2026-01-26 10:49:02.53	237.74	3.39	-43.3	-45.8	6.2	0.00e+00	0	56	104	0	57	20132
2026-01-26 10:49:05.56	237.57	3.18	-43.3	-45.8	6.2	0.00e+00	0	56	104	0	57	20106
2026-01-26 10:49:08.59	237.40	2.96	-43.6	-46.1	6.2	0.00e+00	0	56	104	0	57	20796
2026-01-26 10:49:11.62	237.24	2.75	-43.6	-46.2	6.2	0.00e+00	0	56	104	0	57	20896
2026-01-26 10:49:14.65	237.08	2.54	-43.6	-46.2	6.2	0.00e+00	0	56	104	0	57	20924
2026-01-26 10:49:17.68	236.92	2.34	-43.6	-46.1	6.2	0.00e+00	0	56	104	0	57	20867
2026-01-26 10:49:20.71	236.76	2.13	-43.6	-46.2	6.2	0.00e+00	0	55	104	0	57	20891

#Closed at: 2026-01-26 10:49:22
#Recorded file [0 MB]: D:/lorett/data/31045_260126_133911.dat