passes_logs/2026/01/26/R3.2S_Murmansk_2ch/R3.2S_Murmansk_2ch__20260126_210020_JL1KF02B07_rec.log

#Pass ID: 20260126_210020_JL1KF02B07
#Satellite: JL1KF02B07
#Configuration: 01B_900M
#almurnet v.1.7.20251203
#Start time: 2026-01-26 21:00:21

#Version: 2.2.20260125
#Station: R3.2S_Murmansk_2ch
#Location: 33.079688 lon 68.888172 lat
#TLE: 1 65939U 25226B   26025.87153421  .00007226  00000+0  45653-3 0  9997
#TLE: 2 65939  97.6523 104.8567 0017782 261.5678  98.3535 15.09229066 16108

#Time	Az	El	Level	Level2	SNR	BER	BlckErr	Temp	State	Recorded	gain1	gain2
2026-01-26 21:00:21.01	212.70	2.02	-48.0	-50.6	6.3	0.00e+00	0	44	0	0	67	19488
2026-01-26 21:00:24.03	212.98	2.20	-46.9	-49.4	6.2	0.00e+00	0	44	104	0	65	19171
2026-01-26 21:00:27.07	213.26	2.38	-46.8	-49.4	6.2	0.00e+00	0	44	104	0	65	19158
2026-01-26 21:00:30.17	213.56	2.56	-46.8	-49.4	6.2	0.00e+00	0	44	104	0	65	19085
2026-01-26 21:00:33.06	213.84	2.74	-46.8	-49.4	6.2	0.00e+00	0	45	104	0	65	19106
2026-01-26 21:00:36.24	214.15	2.93	-46.8	-49.4	6.2	0.00e+00	0	45	104	0	65	19075
2026-01-26 21:00:39.12	214.43	3.11	-46.8	-49.4	6.2	0.00e+00	0	45	104	0	65	19094
2026-01-26 21:00:42.30	214.75	3.30	-46.8	-49.4	6.2	0.00e+00	0	45	104	0	65	19039
2026-01-26 21:00:45.19	215.05	3.48	-46.8	-49.4	6.2	0.00e+00	0	45	104	0	65	19082
2026-01-26 21:00:48.36	215.38	3.67	-46.8	-49.3	6.2	0.00e+00	0	45	104	0	65	19006
2026-01-26 21:00:51.25	215.68	3.85	-46.8	-49.4	6.2	0.00e+00	0	45	104	0	65	19071
2026-01-26 21:00:54.42	216.02	4.05	-46.8	-49.3	6.2	0.00e+00	0	45	104	0	65	19024
2026-01-26 21:00:57.31	216.34	4.23	-46.8	-49.3	6.2	0.00e+00	0	45	104	0	65	19032
2026-01-26 21:01:00.48	216.68	4.43	-46.8	-49.3	6.2	0.00e+00	0	45	104	0	65	18993
2026-01-26 21:01:03.37	217.01	4.62	-46.8	-49.3	6.2	0.00e+00	0	45	104	0	65	18987
2026-01-26 21:01:06.53	217.37	4.82	-46.8	-49.3	6.2	0.00e+00	0	46	104	0	65	18930
2026-01-26 21:01:09.40	217.70	5.00	-46.7	-49.3	6.2	0.00e+00	0	46	104	0	65	18963
2026-01-26 21:01:12.56	218.07	5.21	-46.7	-49.3	6.2	0.00e+00	0	46	104	0	65	18872
2026-01-26 21:01:15.43	218.41	5.39	-46.9	-49.4	6.2	0.00e+00	0	46	104	0	65	19089
2026-01-26 21:01:18.59	218.79	5.60	-46.9	-49.4	6.2	0.00e+00	0	46	104	0	65	19178
2026-01-26 21:01:21.46	219.14	5.79	-46.7	-49.3	6.2	0.00e+00	0	46	104	0	65	18862
2026-01-26 21:01:24.63	219.54	6.00	-46.7	-49.3	6.2	0.00e+00	0	46	104	0	65	18882
2026-01-26 21:01:27.52	219.91	6.19	-46.9	-49.4	6.2	0.00e+00	0	46	104	0	65	19149
2026-01-26 21:01:30.69	220.32	6.40	-46.9	-49.5	6.2	0.00e+00	0	46	104	0	65	19298
2026-01-26 21:01:33.58	220.69	6.59	-46.8	-49.3	6.2	0.00e+00	0	46	104	0	65	18971
2026-01-26 21:01:36.75	221.12	6.80	-46.7	-49.3	6.2	0.00e+00	0	46	104	0	65	18971
2026-01-26 21:01:39.64	221.51	7.00	-46.9	-49.4	6.2	0.00e+00	0	46	104	0	65	19179
2026-01-26 21:01:42.81	221.94	7.21	-46.9	-49.5	6.2	0.00e+00	0	46	104	0	65	19408
2026-01-26 21:01:45.70	222.35	7.41	-46.8	-49.4	6.2	0.00e+00	0	46	104	0	65	19086
2026-01-26 21:01:48.88	222.80	7.63	-46.8	-49.4	6.2	0.00e+00	0	46	104	0	65	19078
2026-01-26 21:01:51.76	223.21	7.83	-46.9	-49.5	6.2	0.00e+00	0	47	104	0	65	19292
2026-01-26 21:01:54.94	223.68	8.05	-47.0	-49.5	6.2	0.00e+00	0	47	104	0	65	19478
2026-01-26 21:01:57.83	224.11	8.25	-46.9	-49.4	6.2	0.00e+00	0	46	104	0	65	19202
2026-01-26 21:02:01.00	224.59	8.47	-46.8	-49.4	6.2	0.00e+00	0	47	104	0	65	19215
2026-01-26 21:02:03.89	225.04	8.67	-47.0	-49.5	6.2	0.00e+00	0	47	104	0	65	19399
2026-01-26 21:02:07.06	225.54	8.89	-45.7	-47.6	6.3	0.00e+00	0	46	104	0	62	18489
2026-01-26 21:02:09.94	226.00	9.09	-45.0	-46.7	6.3	0.00e+00	0	46	104	0	61	17726
2026-01-26 21:02:13.12	226.51	9.32	-46.5	-48.7	6.2	0.00e+00	0	47	104	0	64	18817
2026-01-26 21:02:16.01	226.99	9.52	-45.9	-47.9	6.2	0.00e+00	0	47	104	0	63	18034
2026-01-26 21:02:19.18	227.52	9.75	-46.2	-48.3	6.2	0.00e+00	0	47	104	0	63	18924
2026-01-26 21:02:22.06	228.01	9.95	-32.5	-32.7	14.2	6.75e-04	0	47	0	117440512	37	14002
2026-01-26 21:02:25.24	228.56	10.18	-27.9	-28.0	16.3	1.90e-05	0	47	0	385875968	27	14460
2026-01-26 21:02:28.13	229.07	10.39	-24.9	-25.0	17.8	1.90e-06	0	47	0	713031680	21	14446
2026-01-26 21:02:31.31	229.65	10.62	-23.7	-23.8	18.2	0.00e+00	0	47	0	1073741824	19	14245
2026-01-26 21:02:34.19	230.17	10.82	-23.7	-23.8	18.0	0.00e+00	0	47	0	1400897536	19	14126
2026-01-26 21:02:37.37	230.76	11.05	-23.6	-23.6	17.9	0.00e+00	0	47	0	1753219072	18	14764
2026-01-26 21:02:40.25	231.31	11.26	-23.4	-23.5	17.9	0.00e+00	0	47	0	2080374784	18	14478
2026-01-26 21:02:43.43	231.92	11.49	-23.3	-23.4	17.9	0.00e+00	0	47	0	2432696320	18	14339
2026-01-26 21:02:46.32	232.48	11.70	-23.2	-23.3	17.9	0.00e+00	0	47	0	2759852032	18	14209
2026-01-26 21:02:49.49	233.11	11.93	-23.1	-23.2	18.1	0.00e+00	0	47	0	3120562176	18	14035
2026-01-26 21:02:52.38	233.70	12.13	-23.1	-23.2	18.1	0.00e+00	0	47	0	3439329280	18	14087
2026-01-26 21:02:55.56	234.35	12.36	-23.0	-23.1	18.1	0.00e+00	0	47	0	3800039424	18	13899
2026-01-26 21:02:58.44	234.95	12.57	-23.0	-23.1	18.5	0.00e+00	0	47	0	4127195136	18	13868
2026-01-26 21:03:01.62	235.63	12.80	-22.9	-23.0	18.3	0.00e+00	0	47	0	4479516672	17	14546
2026-01-26 21:03:04.51	236.26	13.01	-22.9	-23.0	18.5	0.00e+00	0	47	0	4806672384	17	14488
2026-01-26 21:03:07.69	236.95	13.23	-22.8	-22.9	18.4	0.00e+00	0	47	0	5158993920	17	14292
2026-01-26 21:03:10.57	237.60	13.44	-22.7	-22.8	18.4	0.00e+00	0	47	0	5486149632	17	14201
2026-01-26 21:03:13.74	238.32	13.66	-22.8	-22.9	18.3	0.00e+00	0	47	0	5846859776	17	14334
2026-01-26 21:03:16.63	238.99	13.86	-22.6	-22.6	18.3	0.00e+00	0	47	0	6165626880	17	13949
2026-01-26 21:03:19.81	239.73	14.09	-22.4	-22.5	18.1	0.00e+00	0	47	0	6526337024	16	14452
2026-01-26 21:03:22.70	240.42	14.29	-22.4	-22.5	18.1	0.00e+00	0	47	0	6853492736	16	14459
2026-01-26 21:03:25.87	241.19	14.50	-22.2	-22.3	18.1	0.00e+00	0	48	0	7214202880	16	14141
2026-01-26 21:03:28.76	241.90	14.70	-22.3	-22.4	18.3	0.00e+00	0	48	0	7532969984	16	14390
2026-01-26 21:03:31.93	242.69	14.92	-22.2	-22.3	18.1	0.00e+00	0	47	0	7893680128	16	14237
2026-01-26 21:03:34.82	243.42	15.11	-22.1	-22.2	18.1	0.00e+00	0	47	0	8220835840	16	14073
2026-01-26 21:03:37.99	244.24	15.32	-22.1	-22.2	18.0	0.00e+00	0	48	0	8581545984	16	14032
2026-01-26 21:03:40.88	245.00	15.51	-21.9	-21.9	17.9	1.90e-06	0	48	0	8900313088	15	14425
2026-01-26 21:03:44.06	245.84	15.71	-21.8	-21.9	17.6	0.00e+00	0	48	0	9261023232	15	14327
2026-01-26 21:03:46.94	246.61	15.89	-21.8	-21.9	17.7	0.00e+00	0	48	0	9579790336	15	14277
2026-01-26 21:03:50.12	247.48	16.09	-21.8	-21.8	17.2	0.00e+00	0	48	0	9940500480	15	14256
2026-01-26 21:03:53.01	248.28	16.27	-21.6	-21.6	17.2	0.00e+00	0	48	0	10267656192	15	13948
2026-01-26 21:03:56.18	249.17	16.46	-21.5	-21.6	17.3	0.00e+00	0	48	0	10619977728	15	13825
2026-01-26 21:03:59.07	249.99	16.63	-21.4	-21.5	17.2	0.00e+00	0	48	0	10947133440	14	14460
2026-01-26 21:04:02.25	250.91	16.81	-21.4	-21.5	17.2	0.00e+00	0	48	0	11307843584	14	14472
2026-01-26 21:04:05.13	251.75	16.97	-21.3	-21.4	16.8	0.00e+00	0	48	0	11626610688	14	14332
2026-01-26 21:04:08.31	252.69	17.14	-21.4	-21.5	16.8	0.00e+00	0	48	0	11987320832	14	14512
2026-01-26 21:04:11.19	253.55	17.29	-21.2	-21.3	16.5	0.00e+00	0	48	0	12314476544	14	14164
2026-01-26 21:04:14.37	254.51	17.46	-21.2	-21.3	16.4	0.00e+00	0	48	0	12666798080	14	14163
2026-01-26 21:04:17.26	255.39	17.60	-21.2	-21.3	16.3	0.00e+00	0	48	0	12993953792	14	14113
2026-01-26 21:04:20.42	256.37	17.75	-21.1	-21.2	16.4	0.00e+00	0	48	0	13346275328	14	14028
2026-01-26 21:04:23.31	257.27	17.88	-21.1	-21.2	16.3	0.00e+00	0	48	0	13673431040	14	14025
2026-01-26 21:04:26.49	258.27	18.02	-21.1	-21.2	16.6	0.00e+00	0	48	0	14025752576	14	14003
2026-01-26 21:04:29.37	259.18	18.14	-21.1	-21.2	17.0	0.00e+00	0	48	0	14352908288	14	14032
2026-01-26 21:04:32.55	260.20	18.26	-21.0	-21.0	16.6	0.00e+00	0	48	0	14713618432	13	14559
2026-01-26 21:04:35.43	261.14	18.37	-20.9	-21.0	17.0	0.00e+00	0	48	0	15032385536	13	14516
2026-01-26 21:04:38.61	262.17	18.48	-21.0	-21.0	16.8	0.00e+00	0	48	0	15393095680	13	14554
2026-01-26 21:04:41.50	263.12	18.57	-21.0	-21.1	17.0	0.00e+00	0	48	0	15720251392	13	14727
2026-01-26 21:04:44.67	264.17	18.67	-21.1	-21.1	16.9	0.00e+00	0	48	0	16072572928	13	14763
2026-01-26 21:04:47.56	265.13	18.74	-21.0	-21.0	17.4	0.00e+00	0	48	0	16399728640	13	14578
2026-01-26 21:04:50.74	266.19	18.82	-21.0	-21.1	17.8	0.00e+00	0	48	0	16760438784	13	14729
2026-01-26 21:04:53.63	267.16	18.89	-21.1	-21.2	17.9	0.00e+00	0	48	0	17079205888	13	14804
2026-01-26 21:04:56.80	268.23	18.95	-21.0	-21.1	18.1	0.00e+00	0	48	0	17439916032	13	14650
2026-01-26 21:04:59.69	269.21	19.00	-21.0	-21.1	18.1	0.00e+00	0	48	0	17767071744	13	14699
2026-01-26 21:05:02.87	270.30	19.04	-21.1	-21.2	18.2	0.00e+00	0	48	0	18119393280	13	14839
2026-01-26 21:05:05.75	271.28	19.08	-21.1	-21.2	18.8	0.00e+00	0	48	0	18446548992	13	14900
2026-01-26 21:05:08.93	272.36	19.11	-21.1	-21.2	18.7	0.00e+00	0	48	0	18807259136	13	14903
2026-01-26 21:05:11.82	273.35	19.12	-21.2	-21.2	19.0	0.00e+00	0	48	0	19126026240	13	14889
2026-01-26 21:05:15.00	274.44	19.13	-21.2	-21.3	18.7	0.00e+00	0	48	0	19486736384	13	15009
2026-01-26 21:05:17.88	275.43	19.13	-21.2	-21.2	19.2	0.00e+00	0	48	0	19813892096	13	14947
2026-01-26 21:05:21.06	276.52	19.13	-21.3	-21.4	18.9	0.00e+00	0	48	0	20174602240	13	15179
2026-01-26 21:05:23.94	277.51	19.11	-21.3	-21.4	19.4	0.00e+00	0	48	0	20493369344	13	15168
2026-01-26 21:05:27.12	278.59	19.09	-21.4	-21.4	19.0	0.00e+00	0	48	0	20854079488	13	15285
2026-01-26 21:05:30.01	279.58	19.06	-21.4	-21.5	19.4	0.00e+00	0	48	0	21181235200	13	15324
2026-01-26 21:05:33.18	280.65	19.01	-21.5	-21.5	19.3	0.00e+00	0	48	0	21533556736	13	15445
2026-01-26 21:05:36.07	281.63	18.97	-21.6	-21.6	19.2	0.00e+00	0	48	0	21860712448	13	15638
2026-01-26 21:05:39.24	282.70	18.91	-21.7	-21.8	18.8	0.00e+00	0	48	0	22221422592	14	15018
2026-01-26 21:05:42.13	283.68	18.84	-21.6	-21.7	19.2	0.00e+00	0	48	0	22540189696	14	14898
2026-01-26 21:05:45.31	284.74	18.77	-21.7	-21.8	19.2	0.00e+00	0	48	0	22900899840	14	15033
2026-01-26 21:05:48.19	285.70	18.69	-21.8	-21.8	18.9	0.00e+00	0	48	0	23228055552	14	15105
2026-01-26 21:05:51.37	286.75	18.60	-21.8	-21.9	19.0	0.00e+00	0	48	0	23580377088	14	15206
2026-01-26 21:05:54.26	287.69	18.51	-21.9	-22.0	18.9	0.00e+00	0	48	0	23907532800	14	15359
2026-01-26 21:05:57.43	288.73	18.40	-22.0	-22.0	18.8	0.00e+00	0	48	0	24259854336	14	15425
2026-01-26 21:06:00.32	289.66	18.29	-22.0	-22.1	18.8	0.00e+00	0	48	0	24587010048	14	15552
2026-01-26 21:06:03.49	290.68	18.17	-22.1	-22.2	19.0	0.00e+00	0	48	0	24947720192	14	15680
2026-01-26 21:06:06.38	291.59	18.06	-22.3	-22.4	19.1	0.00e+00	0	48	0	25266487296	15	15210
2026-01-26 21:06:09.56	292.59	17.92	-22.4	-22.5	18.8	0.00e+00	0	48	0	25627197440	15	15300
2026-01-26 21:06:12.44	293.49	17.79	-22.3	-22.4	19.0	0.00e+00	0	48	0	25945964544	15	15174
2026-01-26 21:06:15.62	294.47	17.64	-22.3	-22.4	18.7	0.00e+00	0	48	0	26306674688	15	15146
2026-01-26 21:06:18.50	295.35	17.50	-22.3	-22.4	18.7	0.00e+00	0	48	0	26633830400	15	15184
2026-01-26 21:06:21.68	296.31	17.34	-22.3	-22.3	18.7	0.00e+00	0	48	0	26986151936	15	15096
2026-01-26 21:06:24.57	297.17	17.19	-22.2	-22.3	18.9	0.00e+00	0	48	0	27313307648	15	15044
2026-01-26 21:06:27.74	298.11	17.02	-22.3	-22.4	18.8	0.00e+00	0	48	0	27674017792	15	15187
2026-01-26 21:06:30.63	298.95	16.87	-22.3	-22.4	18.9	0.00e+00	0	48	0	27992784896	15	15170
2026-01-26 21:06:33.81	299.86	16.69	-22.4	-22.5	18.8	0.00e+00	0	48	0	28353495040	15	15346
2026-01-26 21:06:36.70	300.69	16.52	-22.3	-22.3	18.9	0.00e+00	0	48	0	28680650752	15	15113
2026-01-26 21:06:39.88	301.58	16.33	-22.3	-22.4	18.9	0.00e+00	0	48	0	29032972288	15	15143
2026-01-26 21:06:42.76	302.37	16.16	-22.3	-22.4	19.0	0.00e+00	0	48	0	29360128000	15	15208
2026-01-26 21:06:45.94	303.24	15.96	-22.4	-22.4	19.2	0.00e+00	0	48	0	29712449536	15	15273
2026-01-26 21:06:48.82	304.01	15.78	-22.5	-22.6	19.1	0.00e+00	0	48	0	30039605248	15	15607
2026-01-26 21:06:52.00	304.86	15.58	-22.6	-22.7	19.0	0.00e+00	0	48	0	30400315392	15	15674
2026-01-26 21:06:54.89	305.61	15.39	-22.7	-22.8	18.6	0.00e+00	0	48	0	30719082496	16	15009
2026-01-26 21:06:58.06	306.43	15.19	-22.8	-22.9	18.9	0.00e+00	0	48	0	31079792640	16	15123
2026-01-26 21:07:00.95	307.16	15.00	-22.9	-23.0	18.8	0.00e+00	0	48	0	31406948352	16	15297
2026-01-26 21:07:04.13	307.95	14.78	-22.9	-22.9	18.8	0.00e+00	0	48	0	31767658496	16	15293
2026-01-26 21:07:07.01	308.66	14.59	-23.0	-23.1	18.7	0.00e+00	0	48	0	32086425600	16	15579
2026-01-26 21:07:10.19	309.43	14.37	-23.0	-23.1	18.6	0.00e+00	0	48	0	32447135744	16	15521
2026-01-26 21:07:13.08	310.12	14.17	-23.2	-23.3	18.7	0.00e+00	0	48	0	32774291456	17	14974
2026-01-26 21:07:16.25	310.86	13.95	-47.3	-50.0	6.2	0.00e+00	0	48	104	32900120576	65	20436
2026-01-26 21:07:19.14	311.53	13.75	-47.4	-50.0	6.2	0.00e+00	0	48	104	32900120576	65	20494
2026-01-26 21:07:22.32	312.25	13.53	-47.4	-50.0	6.2	0.00e+00	0	48	104	32900120576	65	20473
2026-01-26 21:07:25.21	312.89	13.33	-47.4	-50.0	6.2	0.00e+00	0	48	104	32900120576	65	20520
2026-01-26 21:07:28.38	313.59	13.10	-47.4	-50.0	6.2	0.00e+00	0	48	104	32900120576	65	20441
2026-01-26 21:07:31.27	314.21	12.90	-47.3	-49.9	6.2	0.00e+00	0	48	104	32900120576	65	20278
2026-01-26 21:07:34.45	314.89	12.67	-47.3	-49.9	6.2	0.00e+00	0	48	104	32900120576	65	20272
2026-01-26 21:07:37.34	315.49	12.47	-47.2	-49.8	6.2	0.00e+00	0	48	104	32900120576	65	20024
2026-01-26 21:07:40.51	316.14	12.24	-47.3	-49.9	6.2	0.00e+00	0	47	104	32900120576	65	20200
2026-01-26 21:07:43.40	316.73	12.04	-47.1	-49.6	6.2	0.00e+00	0	48	104	32900120576	65	19652
2026-01-26 21:07:46.57	317.36	11.81	-47.2	-49.8	6.2	0.00e+00	0	48	104	32900120576	65	20028
2026-01-26 21:07:49.46	317.92	11.60	-47.0	-49.5	6.2	0.00e+00	0	48	104	32900120576	65	19444
2026-01-26 21:07:52.64	318.53	11.38	-47.2	-49.7	6.2	0.00e+00	0	48	104	32900120576	65	19885
2026-01-26 21:07:55.52	319.08	11.17	-47.0	-49.5	6.2	0.00e+00	0	48	104	32900120576	65	19281
2026-01-26 21:07:58.69	319.67	10.94	-47.1	-49.7	6.2	0.00e+00	0	48	104	32900120576	65	19781
2026-01-26 21:08:01.58	320.19	10.74	-46.8	-49.3	6.2	0.00e+00	0	48	104	32900120576	65	18833
2026-01-26 21:08:04.76	320.76	10.51	-47.1	-49.7	6.2	0.00e+00	0	48	104	32900120576	65	19716
2026-01-26 21:08:07.64	321.27	10.31	-46.5	-48.8	6.2	0.00e+00	0	48	104	32900120576	64	18848
2026-01-26 21:08:10.81	321.82	10.08	-46.4	-48.6	6.2	0.00e+00	0	48	104	32900120576	64	18601
2026-01-26 21:08:13.70	322.32	9.88	-47.1	-49.6	6.2	0.00e+00	0	48	104	32900120576	64	20716
2026-01-26 21:08:16.88	322.85	9.65	-45.8	-47.7	6.3	0.00e+00	0	48	104	32900120576	63	17584
2026-01-26 21:08:19.77	323.33	9.45	-45.5	-47.3	6.3	0.00e+00	0	48	104	32900120576	62	17862
2026-01-26 21:08:22.94	323.84	9.23	-46.8	-49.3	6.2	0.00e+00	0	48	104	32900120576	64	20042
2026-01-26 21:08:25.83	324.30	9.03	-44.4	-45.9	6.5	0.00e+00	0	48	104	32900120576	60	17037
2026-01-26 21:08:29.01	324.80	8.81	-43.7	-45.0	6.7	0.00e+00	0	48	104	32900120576	59	16289
2026-01-26 21:08:31.89	325.25	8.61	-44.6	-46.1	6.5	0.00e+00	0	47	104	32900120576	59	18421
2026-01-26 21:08:35.07	325.73	8.39	-42.6	-43.7	7.0	0.00e+00	0	47	104	32900120576	57	15790
2026-01-26 21:08:37.96	326.16	8.19	-46.7	-49.1	6.2	0.00e+00	0	47	104	32900120576	64	19565
2026-01-26 21:08:41.13	326.63	7.97	-41.7	-42.6	7.3	0.00e+00	0	48	104	32900120576	55	15601
2026-01-26 21:08:44.02	327.04	7.77	-41.0	-41.8	7.4	0.00e+00	0	48	104	32900120576	54	15088
2026-01-26 21:08:47.19	327.50	7.56	-40.6	-41.4	7.5	0.00e+00	0	48	104	32900120576	52	16051
2026-01-26 21:08:50.08	327.90	7.36	-40.2	-41.0	7.6	0.00e+00	0	48	104	32900120576	51	16210
2026-01-26 21:08:53.26	328.34	7.15	-44.4	-45.5	6.7	0.00e+00	0	48	104	32900120576	58	18205
2026-01-26 21:08:56.14	328.73	6.95	-40.6	-41.4	7.5	0.00e+00	0	47	104	32900120576	53	15162
2026-01-26 21:08:59.32	329.15	6.74	-38.2	-38.9	8.1	0.00e+00	0	48	0	32900120576	48	15182
2026-01-26 21:09:02.21	329.53	6.55	-42.7	-43.8	6.9	0.00e+00	0	47	104	32900120576	57	15967
2026-01-26 21:09:05.38	329.94	6.34	-38.0	-38.6	8.1	0.00e+00	0	48	0	32900120576	48	14773
2026-01-26 21:09:08.27	330.31	6.15	-36.4	-37.0	8.4	0.00e+00	0	47	0	32900120576	44	15314
2026-01-26 21:09:11.44	330.70	5.94	-39.8	-40.6	7.7	0.00e+00	0	48	0	32900120576	50	16444
2026-01-26 21:09:14.33	331.06	5.76	-36.4	-37.0	8.4	0.00e+00	0	48	0	32900120576	43	16211
2026-01-26 21:09:17.50	331.44	5.55	-46.0	-48.3	6.2	0.00e+00	0	47	104	32900120576	62	19964
2026-01-26 21:09:20.39	331.79	5.36	-36.1	-36.6	8.3	0.00e+00	0	47	104	32900120576	43	15580
2026-01-26 21:09:23.57	332.16	5.16	-36.0	-36.6	8.4	0.00e+00	0	47	0	32900120576	42	16437
2026-01-26 21:09:26.45	332.49	4.98	-45.6	-47.7	6.2	0.00e+00	0	48	104	32900120576	62	18746
2026-01-26 21:09:29.62	332.85	4.78	-47.3	-49.8	6.2	0.00e+00	0	48	104	32900120576	65	20002
2026-01-26 21:09:32.51	333.18	4.59	-47.6	-50.1	6.2	0.00e+00	0	47	104	32900120576	65	20802
2026-01-26 21:09:35.68	333.53	4.40	-47.6	-50.1	6.2	0.00e+00	0	47	104	32900120576	65	20807
2026-01-26 21:09:38.57	333.84	4.22	-47.4	-49.9	6.2	0.00e+00	0	48	104	32900120576	65	20383
2026-01-26 21:09:41.75	334.18	4.02	-47.5	-50.1	6.2	0.00e+00	0	47	104	32900120576	65	20669
2026-01-26 21:09:44.63	334.49	3.84	-47.6	-50.2	6.2	0.00e+00	0	48	104	32900120576	65	20897
2026-01-26 21:09:47.80	334.82	3.65	-47.7	-50.2	6.2	0.00e+00	0	48	104	32900120576	65	21018
2026-01-26 21:09:50.69	335.12	3.47	-47.6	-50.1	6.2	0.00e+00	0	47	104	32900120576	65	20851
2026-01-26 21:09:53.87	335.44	3.28	-47.6	-50.1	6.2	0.00e+00	0	48	104	32900120576	65	20785
2026-01-26 21:09:56.76	335.73	3.10	-47.5	-50.1	6.2	0.00e+00	0	47	104	32900120576	65	20745
2026-01-26 21:09:59.93	336.04	2.91	-47.5	-50.1	6.2	0.00e+00	0	47	104	32900120576	65	20679
2026-01-26 21:10:02.81	336.32	2.74	-47.5	-50.1	6.2	0.00e+00	0	48	104	32900120576	65	20658
2026-01-26 21:10:05.99	336.62	2.55	-47.5	-50.1	6.2	0.00e+00	0	47	104	32900120576	65	20653
2026-01-26 21:10:08.88	336.89	2.38	-47.5	-50.0	6.2	0.00e+00	0	48	104	32900120576	65	20600
2026-01-26 21:10:12.05	337.19	2.19	-47.5	-50.0	6.2	0.00e+00	0	48	104	32900120576	65	20537
2026-01-26 21:10:14.94	337.45	2.02	-47.5	-50.0	6.2	0.00e+00	0	47	104	32900120576	65	20534

#Closed at: 2026-01-26 21:10:16
#Recorded file [32900 MB]: D:/lorett/data/31045_260127_000020.dat