passes_logs/2026/01/26/R3.2S_Murmansk_2ch/R3.2S_Murmansk_2ch__20260126_213428_JL1KF02B03_rec.log

#Pass ID: 20260126_213428_JL1KF02B03
#Satellite: JL1KF02B03
#Configuration: 01B_900M
#almurnet v.1.7.20251203
#Start time: 2026-01-26 21:34:28

#Version: 2.2.20260125
#Station: R3.2S_Murmansk_2ch
#Location: 33.079688 lon 68.888172 lat
#TLE: 1 61190U 24169B   26025.63038829  .00007757  00000+0  48594-3 0  9991
#TLE: 2 61190  97.5617 116.6103 0014983 146.0369 214.1822 15.09544070 74327

#Time	Az	El	Level	Level2	SNR	BER	BlckErr	Temp	State	Recorded	gain1	gain2
2026-01-26 21:34:28.97	205.93	2.04	-48.3	-50.9	6.2	0.00e+00	0	45	0	0	67	20238
2026-01-26 21:34:31.87	206.17	2.22	-48.2	-50.7	6.2	0.00e+00	0	45	104	0	68	18802
2026-01-26 21:34:34.79	206.42	2.40	-48.4	-50.9	6.2	0.00e+00	0	45	104	0	68	19219
2026-01-26 21:34:37.69	206.67	2.58	-48.6	-51.1	6.2	0.00e+00	0	45	104	0	68	19602
2026-01-26 21:34:40.62	206.92	2.76	-48.5	-51.1	6.2	0.00e+00	0	45	104	0	68	19490
2026-01-26 21:34:43.53	207.18	2.95	-48.4	-51.0	6.2	0.00e+00	0	45	104	0	68	19267
2026-01-26 21:34:46.44	207.44	3.13	-48.3	-50.9	6.2	0.00e+00	0	46	104	0	68	19056
2026-01-26 21:34:49.34	207.71	3.32	-48.1	-50.7	6.2	0.00e+00	0	45	104	0	68	18635
2026-01-26 21:34:52.24	207.97	3.50	-48.0	-50.5	6.2	0.00e+00	0	46	104	0	67	19396
2026-01-26 21:34:55.15	208.25	3.69	-47.6	-50.1	6.2	0.00e+00	0	45	104	0	67	18579
2026-01-26 21:34:58.06	208.53	3.88	-46.9	-49.4	6.2	0.00e+00	0	46	104	0	65	19197
2026-01-26 21:35:00.97	208.81	4.07	-46.9	-49.4	6.2	0.00e+00	0	46	104	0	65	19166
2026-01-26 21:35:03.88	209.09	4.26	-46.9	-49.4	6.2	0.00e+00	0	46	104	0	65	19125
2026-01-26 21:35:06.79	209.39	4.46	-46.8	-49.4	6.2	0.00e+00	0	46	104	0	65	19134
2026-01-26 21:35:09.70	209.68	4.65	-46.8	-49.4	6.2	0.00e+00	0	46	104	0	65	19063
2026-01-26 21:35:12.61	209.98	4.84	-46.8	-49.4	6.2	0.00e+00	0	46	104	0	65	19094
2026-01-26 21:35:15.51	210.29	5.04	-47.0	-49.6	6.2	0.00e+00	0	46	104	0	65	19489
2026-01-26 21:35:18.41	210.59	5.24	-46.8	-49.4	6.2	0.00e+00	0	46	104	0	65	19169
2026-01-26 21:35:21.32	210.91	5.44	-46.8	-49.4	6.2	0.00e+00	0	46	104	0	65	19098
2026-01-26 21:35:24.22	211.23	5.64	-46.7	-49.3	6.2	0.00e+00	0	46	104	0	65	18942
2026-01-26 21:35:27.14	211.56	5.84	-46.8	-49.4	6.2	0.00e+00	0	46	104	0	65	19082
2026-01-26 21:35:30.05	211.89	6.04	-46.9	-49.4	6.2	0.00e+00	0	46	104	0	65	19235
2026-01-26 21:35:32.96	212.22	6.25	-46.8	-49.3	6.2	0.00e+00	0	46	104	0	65	18977
2026-01-26 21:35:35.88	212.56	6.45	-46.8	-49.4	6.2	0.00e+00	0	46	104	0	65	19095
2026-01-26 21:35:38.78	212.91	6.66	-46.9	-49.5	6.2	0.00e+00	0	46	104	0	65	19295
2026-01-26 21:35:41.69	213.26	6.87	-47.0	-49.5	6.2	0.00e+00	0	46	104	0	65	19405
2026-01-26 21:35:44.61	213.63	7.08	-46.8	-49.4	6.2	0.00e+00	0	47	104	0	65	19105
2026-01-26 21:35:47.52	213.99	7.29	-46.9	-49.4	6.2	0.00e+00	0	47	104	0	65	19232
2026-01-26 21:35:50.43	214.36	7.50	-47.0	-49.5	6.2	0.00e+00	0	47	104	0	65	19419
2026-01-26 21:35:53.34	214.74	7.72	-46.9	-49.5	6.2	0.00e+00	0	47	104	0	65	19443
2026-01-26 21:35:56.25	215.13	7.94	-46.9	-49.5	6.2	0.00e+00	0	47	104	0	65	19313
2026-01-26 21:35:59.16	215.52	8.15	-47.0	-49.5	6.2	0.00e+00	0	47	104	0	65	19316
2026-01-26 21:36:02.06	215.92	8.37	-47.0	-49.6	6.2	0.00e+00	0	47	104	0	65	19605
2026-01-26 21:36:04.97	216.32	8.59	-47.0	-49.5	6.2	0.00e+00	0	47	104	0	65	19394
2026-01-26 21:36:07.88	216.73	8.81	-47.0	-49.5	6.2	0.00e+00	0	47	104	0	65	19448
2026-01-26 21:36:10.78	217.15	9.03	-47.1	-49.6	6.2	0.00e+00	0	47	104	0	65	19601
2026-01-26 21:36:13.69	217.58	9.26	-47.1	-49.6	6.2	0.00e+00	0	47	104	0	65	19691
2026-01-26 21:36:16.60	218.02	9.48	-25.7	-25.8	15.7	2.67e-05	0	47	0	16777216	23	14112
2026-01-26 21:36:19.50	218.46	9.71	-25.4	-25.4	15.9	1.90e-05	0	47	0	343932928	22	14426
2026-01-26 21:36:22.40	218.91	9.94	-25.4	-25.4	15.9	2.09e-05	0	47	0	671088640	22	14408
2026-01-26 21:36:25.32	219.37	10.17	-25.4	-25.5	15.9	3.43e-05	0	47	0	998244352	22	14482
2026-01-26 21:36:28.23	219.84	10.40	-25.3	-25.3	16.0	2.09e-05	0	47	0	1325400064	22	14271
2026-01-26 21:36:31.13	220.32	10.63	-25.3	-25.4	15.9	3.05e-05	0	47	0	1652555776	22	14278
2026-01-26 21:36:34.05	220.80	10.86	-25.2	-25.3	16.0	2.47e-05	0	47	0	1979711488	22	14145
2026-01-26 21:36:36.95	221.30	11.10	-25.2	-25.2	16.0	1.90e-05	0	47	0	2306867200	22	14057
2026-01-26 21:36:39.87	221.80	11.34	-25.2	-25.2	16.0	1.52e-05	0	47	0	2642411520	22	14047
2026-01-26 21:36:42.78	222.32	11.57	-24.9	-24.9	16.1	1.14e-05	0	47	0	2961178624	21	14389
2026-01-26 21:36:45.69	222.84	11.81	-24.9	-24.9	16.1	5.70e-06	0	48	0	3288334336	21	14378
2026-01-26 21:36:48.60	223.37	12.05	-25.0	-25.1	15.9	2.47e-05	0	48	0	3615490048	21	14628
2026-01-26 21:36:51.51	223.92	12.29	-24.7	-24.8	16.1	3.80e-06	0	48	0	3942645760	21	14167
2026-01-26 21:36:54.41	224.47	12.53	-24.7	-24.8	16.1	1.14e-05	0	48	0	4269801472	21	14114
2026-01-26 21:36:57.33	225.04	12.77	-24.4	-24.5	16.1	1.14e-05	0	48	0	4605345792	20	14509
2026-01-26 21:37:00.23	225.61	13.01	-24.5	-24.6	16.2	2.09e-05	0	48	0	4924112896	20	14685
2026-01-26 21:37:03.15	226.20	13.26	-24.4	-24.4	16.2	9.50e-06	0	48	0	5251268608	20	14361
2026-01-26 21:37:06.06	226.80	13.50	-24.3	-24.4	16.2	1.14e-05	0	48	0	5578424320	20	14325
2026-01-26 21:37:08.97	227.40	13.75	-24.3	-24.4	16.1	1.33e-05	0	48	0	5913968640	20	14349
2026-01-26 21:37:11.88	228.02	13.99	-24.2	-24.2	16.2	7.60e-06	0	48	0	6241124352	20	14095
2026-01-26 21:37:14.79	228.66	14.24	-24.2	-24.3	16.2	3.80e-06	0	48	0	6568280064	20	14127
2026-01-26 21:37:17.71	229.30	14.48	-24.1	-24.1	16.2	7.60e-06	0	48	0	6887047168	20	13909
2026-01-26 21:37:20.61	229.96	14.73	-24.2	-24.3	16.1	1.14e-05	0	48	0	7222591488	19	14990
2026-01-26 21:37:23.52	230.63	14.98	-24.1	-24.1	16.3	7.60e-06	0	48	0	7549747200	19	14719
2026-01-26 21:37:26.43	231.31	15.22	-24.0	-24.1	16.2	9.50e-06	0	48	0	7876902912	19	14640
2026-01-26 21:37:29.34	232.00	15.47	-23.9	-23.9	16.3	5.70e-06	0	48	0	8204058624	19	14440
2026-01-26 21:37:32.24	232.71	15.71	-24.0	-24.0	16.2	1.90e-06	0	48	0	8531214336	19	14561
2026-01-26 21:37:35.15	233.43	15.95	-23.7	-23.8	16.3	3.80e-06	0	48	0	8858370048	19	14150
2026-01-26 21:37:38.06	234.16	16.20	-23.7	-23.8	16.3	3.80e-06	0	48	0	9177137152	19	14146
2026-01-26 21:37:40.96	234.91	16.44	-23.6	-23.7	16.3	1.90e-06	0	48	0	9504292864	19	14007
2026-01-26 21:37:43.87	235.67	16.68	-23.6	-23.6	16.3	1.90e-06	0	48	0	9839837184	19	13946
2026-01-26 21:37:46.77	236.44	16.92	-23.4	-23.4	16.4	3.80e-06	0	48	0	10166992896	18	14438
2026-01-26 21:37:49.68	237.23	17.15	-23.4	-23.5	16.3	9.50e-06	0	48	0	10494148608	18	14533
2026-01-26 21:37:52.59	238.03	17.39	-23.4	-23.4	16.3	1.90e-06	0	48	0	10821304320	18	14392
2026-01-26 21:37:55.50	238.85	17.62	-23.3	-23.3	16.4	7.60e-06	0	48	0	11140071424	18	14257
2026-01-26 21:37:58.40	239.67	17.85	-23.4	-23.4	16.4	7.60e-06	0	48	0	11467227136	18	14408
2026-01-26 21:38:01.31	240.52	18.08	-23.2	-23.3	16.4	3.80e-06	0	48	0	11794382848	18	14146
2026-01-26 21:38:04.22	241.38	18.31	-23.4	-23.4	16.4	5.70e-06	0	48	0	12129927168	18	14348
2026-01-26 21:38:07.13	242.25	18.53	-23.0	-23.1	16.4	1.90e-06	0	48	0	12457082880	18	13834
2026-01-26 21:38:10.05	243.14	18.75	-23.0	-23.0	16.4	1.90e-06	0	48	0	12784238592	18	13762
2026-01-26 21:38:12.96	244.04	18.96	-23.1	-23.2	16.3	0.00e+00	0	48	0	13103005696	17	14794
2026-01-26 21:38:15.87	244.96	19.17	-22.9	-23.0	16.5	9.50e-06	0	48	0	13438550016	17	14486
2026-01-26 21:38:18.78	245.89	19.38	-22.9	-22.9	16.4	0.00e+00	0	48	0	13765705728	17	14408
2026-01-26 21:38:21.70	246.84	19.58	-22.9	-22.9	16.3	5.70e-06	0	48	0	14092861440	17	14424
2026-01-26 21:38:24.61	247.79	19.78	-22.9	-22.9	16.3	1.90e-06	0	48	0	14420017152	17	14359
2026-01-26 21:38:27.52	248.77	19.97	-22.8	-22.9	16.3	5.70e-06	0	48	0	14747172864	17	14347
2026-01-26 21:38:30.43	249.75	20.15	-22.7	-22.7	16.3	3.80e-06	0	48	0	15074328576	17	14073
2026-01-26 21:38:33.33	250.74	20.33	-22.7	-22.7	16.3	0.00e+00	0	48	0	15401484288	17	14061
2026-01-26 21:38:36.24	251.75	20.50	-22.6	-22.6	16.4	0.00e+00	0	48	0	15728640000	17	13906
2026-01-26 21:38:39.15	252.78	20.67	-22.5	-22.6	16.4	0.00e+00	0	48	0	16055795712	17	13847
2026-01-26 21:38:42.05	253.81	20.82	-22.5	-22.5	16.5	3.80e-06	0	48	0	16382951424	16	14602
2026-01-26 21:38:44.96	254.85	20.97	-22.5	-22.5	16.4	0.00e+00	0	48	0	16710107136	16	14533
2026-01-26 21:38:47.86	255.90	21.12	-22.7	-22.7	16.3	1.90e-06	0	48	0	17037262848	16	14859
2026-01-26 21:38:50.77	256.97	21.25	-22.6	-22.6	16.3	0.00e+00	0	48	0	17364418560	16	14702
2026-01-26 21:38:53.68	258.05	21.38	-22.4	-22.4	16.3	1.90e-06	0	48	0	17691574272	16	14363
2026-01-26 21:38:56.58	259.13	21.49	-22.3	-22.4	16.3	0.00e+00	0	48	0	18018729984	16	14275
2026-01-26 21:38:59.50	260.23	21.60	-22.3	-22.4	16.3	1.90e-06	0	48	0	18345885696	16	14316
2026-01-26 21:39:02.41	261.33	21.70	-22.3	-22.3	16.4	0.00e+00	0	48	0	18673041408	16	14210
2026-01-26 21:39:05.31	262.44	21.79	-22.3	-22.4	16.3	0.00e+00	0	48	0	19000197120	16	14293
2026-01-26 21:39:08.22	263.56	21.87	-22.2	-22.2	16.3	0.00e+00	0	48	0	19327352832	16	14109
2026-01-26 21:39:11.13	264.68	21.94	-22.3	-22.3	16.3	1.90e-06	0	48	0	19654508544	16	14195
2026-01-26 21:39:14.04	265.81	22.00	-22.3	-22.3	16.4	3.80e-06	0	48	0	19981664256	16	14182
2026-01-26 21:39:16.94	266.94	22.05	-22.3	-22.3	16.3	5.70e-06	0	48	0	20308819968	16	14247
2026-01-26 21:39:19.84	268.07	22.09	-22.2	-22.2	16.3	5.70e-06	0	48	0	20635975680	16	14086
2026-01-26 21:39:22.75	269.21	22.12	-22.2	-22.2	16.4	1.90e-06	0	48	0	20963131392	16	14012
2026-01-26 21:39:25.66	270.35	22.13	-22.2	-22.3	16.2	5.70e-06	0	48	0	21281898496	16	14151
2026-01-26 21:39:28.56	271.49	22.14	-22.3	-22.3	16.3	1.90e-06	0	48	0	21617442816	16	14202
2026-01-26 21:39:31.47	272.63	22.14	-22.2	-22.3	16.5	0.00e+00	0	48	0	21944598528	16	14197
2026-01-26 21:39:34.38	273.77	22.13	-22.3	-22.3	16.4	1.90e-06	0	48	0	22271754240	16	14208
2026-01-26 21:39:37.27	274.90	22.10	-22.3	-22.3	16.5	0.00e+00	0	48	0	22598909952	16	14195
2026-01-26 21:39:40.18	276.04	22.07	-22.4	-22.4	16.7	1.90e-06	0	48	0	22926065664	16	14375
2026-01-26 21:39:43.08	277.17	22.02	-22.3	-22.4	16.6	1.90e-06	0	48	0	23244832768	16	14291
2026-01-26 21:39:45.99	278.30	21.97	-22.5	-22.5	16.5	3.80e-06	0	48	0	23571988480	16	14557
2026-01-26 21:39:48.90	279.42	21.90	-22.4	-22.4	16.7	3.80e-06	0	48	0	23899144192	16	14406
2026-01-26 21:39:51.80	280.54	21.82	-22.4	-22.4	16.7	1.90e-06	0	48	0	24226299904	16	14425
2026-01-26 21:39:54.70	281.65	21.74	-22.5	-22.6	16.8	0.00e+00	0	48	0	24553455616	16	14641
2026-01-26 21:39:57.61	282.76	21.64	-22.5	-22.5	16.8	0.00e+00	0	48	0	24880611328	16	14601
2026-01-26 21:40:00.51	283.85	21.54	-22.5	-22.5	16.9	0.00e+00	0	48	0	25207767040	16	14575
2026-01-26 21:40:03.42	284.94	21.43	-22.6	-22.6	16.9	1.90e-06	0	48	0	25534922752	16	14719
2026-01-26 21:40:06.32	286.02	21.31	-22.6	-22.6	17.1	0.00e+00	0	48	0	25862078464	16	14708
2026-01-26 21:40:09.23	287.09	21.17	-22.6	-22.6	17.2	0.00e+00	0	48	0	26189234176	16	14763
2026-01-26 21:40:12.12	288.14	21.04	-22.8	-22.9	17.3	0.00e+00	0	48	0	26516389888	16	15142
2026-01-26 21:40:15.03	289.19	20.89	-22.9	-22.9	17.4	1.90e-06	0	48	0	26843545600	16	15244
2026-01-26 21:40:17.93	290.23	20.74	-22.9	-23.0	17.6	0.00e+00	0	48	0	27170701312	16	15363
2026-01-26 21:40:20.83	291.25	20.57	-22.9	-23.0	17.7	0.00e+00	0	48	0	27497857024	16	15343
2026-01-26 21:40:23.74	292.27	20.41	-22.9	-22.9	17.8	0.00e+00	0	48	0	27825012736	16	15259
2026-01-26 21:40:26.64	293.27	20.23	-23.0	-23.0	17.9	0.00e+00	0	48	0	28143779840	16	15383
2026-01-26 21:40:29.54	294.25	20.05	-23.1	-23.1	18.0	0.00e+00	0	48	0	28470935552	16	15619
2026-01-26 21:40:32.45	295.23	19.86	-23.2	-23.2	18.1	0.00e+00	0	48	0	28798091264	16	15786
2026-01-26 21:40:35.35	296.19	19.67	-23.1	-23.1	18.3	0.00e+00	0	48	0	29125246976	16	15617
2026-01-26 21:40:38.26	297.14	19.47	-23.2	-23.2	18.4	0.00e+00	0	48	0	29452402688	17	14871
2026-01-26 21:40:41.16	298.08	19.27	-23.2	-23.3	18.4	0.00e+00	0	49	0	29787947008	17	14978
2026-01-26 21:40:44.06	298.99	19.06	-23.4	-23.4	18.5	0.00e+00	0	48	0	30115102720	17	15196
2026-01-26 21:40:46.96	299.90	18.85	-23.3	-23.4	18.5	0.00e+00	0	48	0	30433869824	17	15122
2026-01-26 21:40:49.87	300.79	18.63	-23.2	-23.3	18.7	0.00e+00	0	48	0	30761025536	17	15008
2026-01-26 21:40:52.77	301.67	18.41	-23.4	-23.5	18.7	0.00e+00	0	48	0	31088181248	17	15299
2026-01-26 21:40:55.66	302.53	18.19	-23.5	-23.5	18.7	0.00e+00	0	48	0	31415336960	17	15472
2026-01-26 21:40:58.56	303.38	17.96	-23.5	-23.6	18.8	0.00e+00	0	48	0	31742492672	17	15506
2026-01-26 21:41:01.47	304.22	17.73	-23.5	-23.5	18.9	0.00e+00	0	48	0	32069648384	17	15463
2026-01-26 21:41:04.38	305.04	17.50	-23.6	-23.6	19.0	0.00e+00	0	49	0	32396804096	17	15647
2026-01-26 21:41:07.28	305.85	17.27	-23.9	-23.9	18.9	0.00e+00	0	48	0	32723959808	18	15238
2026-01-26 21:41:10.18	306.64	17.03	-23.7	-23.8	19.1	0.00e+00	0	48	0	33051115520	18	15034
2026-01-26 21:41:13.08	307.42	16.80	-23.9	-23.9	19.0	0.00e+00	0	48	0	33369882624	18	15221
2026-01-26 21:41:15.98	308.19	16.56	-23.9	-24.0	19.0	0.00e+00	0	48	0	33697038336	18	15300
2026-01-26 21:41:18.89	308.94	16.32	-24.0	-24.0	19.0	0.00e+00	0	48	0	34024194048	18	15422
2026-01-26 21:41:21.79	309.68	16.07	-23.9	-24.0	19.0	0.00e+00	0	48	0	34351349760	18	15360
2026-01-26 21:41:24.69	310.40	15.83	-24.0	-24.1	19.0	0.00e+00	0	49	0	34678505472	18	15540
2026-01-26 21:41:27.59	311.12	15.59	-24.1	-24.2	19.0	0.00e+00	0	49	0	35005661184	18	15663
2026-01-26 21:41:30.50	311.82	15.34	-24.4	-24.4	18.9	0.00e+00	0	49	0	35332816896	19	15216
2026-01-26 21:41:33.41	312.51	15.10	-24.3	-24.3	18.9	0.00e+00	0	48	0	35659972608	19	15106
2026-01-26 21:41:36.32	313.18	14.85	-24.5	-24.5	18.8	0.00e+00	0	48	0	35987128320	19	15377
2026-01-26 21:41:39.22	313.84	14.61	-24.6	-24.6	18.8	0.00e+00	0	48	0	36314284032	19	15632
2026-01-26 21:41:42.12	314.49	14.36	-24.5	-24.5	18.8	0.00e+00	0	49	0	36641439744	19	15413
2026-01-26 21:41:45.02	315.13	14.12	-24.6	-24.7	18.7	0.00e+00	0	48	0	36968595456	19	15711
2026-01-26 21:41:47.96	315.76	13.87	-24.6	-24.7	18.6	0.00e+00	0	49	0	37295751168	19	15736
2026-01-26 21:41:50.96	316.39	13.62	-24.6	-24.7	18.6	0.00e+00	0	48	0	37631295488	20	14780
2026-01-26 21:41:53.98	317.02	13.37	-24.6	-24.7	18.6	0.00e+00	0	49	0	37975228416	20	14782
2026-01-26 21:41:57.01	317.64	13.11	-24.9	-24.9	18.4	1.90e-06	0	49	0	38310772736	20	15289
2026-01-26 21:42:00.04	318.24	12.86	-47.4	-49.9	6.2	0.00e+00	0	48	104	38453379072	65	20337
2026-01-26 21:42:03.06	318.83	12.61	-47.4	-49.9	6.2	0.00e+00	0	48	104	38453379072	65	20389
2026-01-26 21:42:06.09	319.41	12.36	-47.4	-49.9	6.2	0.00e+00	0	48	104	38453379072	65	20317
2026-01-26 21:42:09.13	319.98	12.11	-47.4	-49.9	6.2	0.00e+00	0	48	104	38453379072	65	20317
2026-01-26 21:42:12.16	320.54	11.86	-47.3	-49.8	6.2	0.00e+00	0	48	104	38453379072	65	20121
2026-01-26 21:42:15.19	321.09	11.61	-47.3	-49.8	6.2	0.00e+00	0	48	104	38453379072	65	20069
2026-01-26 21:42:18.21	321.62	11.36	-47.2	-49.8	6.2	0.00e+00	0	48	104	38453379072	65	20024
2026-01-26 21:42:21.25	322.15	11.12	-47.2	-49.8	6.2	0.00e+00	0	48	104	38453379072	65	20020
2026-01-26 21:42:24.28	322.67	10.87	-47.2	-49.7	6.2	0.00e+00	0	48	104	38453379072	65	19797
2026-01-26 21:42:27.31	323.18	10.63	-47.1	-49.7	6.2	0.00e+00	0	48	104	38453379072	65	19759
2026-01-26 21:42:30.34	323.67	10.39	-47.1	-49.7	6.2	0.00e+00	0	48	104	38453379072	65	19770
2026-01-26 21:42:33.37	324.16	10.15	-47.1	-49.7	6.2	0.00e+00	0	48	104	38453379072	65	19767
2026-01-26 21:42:36.40	324.64	9.91	-47.1	-49.6	6.2	0.00e+00	0	48	104	38453379072	65	19617
2026-01-26 21:42:39.43	325.11	9.67	-47.1	-49.6	6.2	0.00e+00	0	48	104	38453379072	65	19648
2026-01-26 21:42:42.46	325.57	9.44	-47.0	-49.6	6.2	0.00e+00	0	48	104	38453379072	65	19493
2026-01-26 21:42:45.48	326.02	9.20	-47.0	-49.6	6.2	0.00e+00	0	48	104	38453379072	65	19593
2026-01-26 21:42:48.52	326.47	8.97	-46.9	-49.5	6.2	0.00e+00	0	48	104	38453379072	65	19275
2026-01-26 21:42:51.55	326.91	8.74	-47.0	-49.5	6.2	0.00e+00	0	48	104	38453379072	65	19368
2026-01-26 21:42:54.58	327.33	8.51	-46.9	-49.5	6.2	0.00e+00	0	48	104	38453379072	65	19318
2026-01-26 21:42:57.60	327.75	8.28	-46.9	-49.5	6.2	0.00e+00	0	48	104	38453379072	65	19370
2026-01-26 21:43:00.63	328.17	8.05	-46.9	-49.4	6.2	0.00e+00	0	48	104	38453379072	65	19153
2026-01-26 21:43:03.66	328.57	7.83	-46.9	-49.4	6.2	0.00e+00	0	48	104	38453379072	65	19240
2026-01-26 21:43:06.69	328.97	7.61	-46.8	-49.3	6.2	0.00e+00	0	48	104	38453379072	65	18930
2026-01-26 21:43:09.72	329.36	7.38	-46.9	-49.4	6.2	0.00e+00	0	48	104	38453379072	65	19160
2026-01-26 21:43:12.75	329.75	7.16	-46.7	-49.3	6.2	0.00e+00	0	48	104	38453379072	65	18866
2026-01-26 21:43:15.78	330.12	6.94	-46.7	-49.2	6.2	0.00e+00	0	48	104	38453379072	65	18751
2026-01-26 21:43:18.81	330.49	6.73	-46.7	-49.3	6.2	0.00e+00	0	48	104	38453379072	65	18843
2026-01-26 21:43:21.84	330.86	6.51	-46.7	-49.2	6.2	0.00e+00	0	48	104	38453379072	65	18755
2026-01-26 21:43:24.87	331.22	6.30	-46.6	-49.1	6.2	0.00e+00	0	48	104	38453379072	65	18482
2026-01-26 21:43:27.90	331.57	6.08	-46.6	-49.1	6.2	0.00e+00	0	48	104	38453379072	65	18548
2026-01-26 21:43:30.94	331.92	5.87	-46.6	-49.1	6.2	0.00e+00	0	48	104	38453379072	65	18454
2026-01-26 21:43:33.97	332.26	5.66	-46.6	-49.1	6.2	0.00e+00	0	48	104	38453379072	64	19635
2026-01-26 21:43:36.99	332.59	5.45	-46.4	-49.0	6.2	0.00e+00	0	48	104	38453379072	64	19381
2026-01-26 21:43:40.02	332.92	5.24	-46.4	-49.0	6.2	0.00e+00	0	48	104	38453379072	64	19360
2026-01-26 21:43:43.05	333.25	5.04	-46.3	-48.9	6.2	0.00e+00	0	48	104	38453379072	64	19066
2026-01-26 21:43:46.08	333.57	4.83	-32.4	-33.2	6.3	0.00e+00	0	48	104	38453379072	34	17635
2026-01-26 21:43:49.11	333.88	4.63	-47.6	-50.1	6.2	0.00e+00	0	48	104	38453379072	65	20780
2026-01-26 21:43:52.14	334.19	4.43	-47.7	-50.2	6.2	0.00e+00	0	48	104	38453379072	65	21059
2026-01-26 21:43:55.17	334.49	4.23	-47.5	-50.0	6.2	0.00e+00	0	48	104	38453379072	65	20593
2026-01-26 21:43:58.20	334.79	4.03	-47.5	-50.1	6.2	0.00e+00	0	48	104	38453379072	65	20668
2026-01-26 21:44:01.24	335.09	3.83	-47.7	-50.2	6.2	0.00e+00	0	48	104	38453379072	65	20971
2026-01-26 21:44:04.27	335.37	3.64	-47.7	-50.3	6.2	0.00e+00	0	48	104	38453379072	65	21140
2026-01-26 21:44:07.30	335.66	3.44	-47.6	-50.2	6.2	0.00e+00	0	48	104	38453379072	65	20919
2026-01-26 21:44:10.32	335.94	3.25	-47.6	-50.2	6.2	0.00e+00	0	48	104	38453379072	65	20914
2026-01-26 21:44:13.35	336.22	3.06	-47.6	-50.1	6.2	0.00e+00	0	48	104	38453379072	65	20753
2026-01-26 21:44:16.38	336.49	2.87	-47.6	-50.1	6.2	0.00e+00	0	48	104	38453379072	65	20712
2026-01-26 21:44:19.41	336.76	2.68	-47.5	-50.1	6.2	0.00e+00	0	48	104	38453379072	65	20679
2026-01-26 21:44:22.44	337.02	2.49	-47.5	-50.1	6.2	0.00e+00	0	48	104	38453379072	65	20664
2026-01-26 21:44:25.47	337.28	2.30	-47.5	-50.1	6.2	0.00e+00	0	48	104	38453379072	65	20668
2026-01-26 21:44:28.50	337.54	2.11	-47.5	-50.1	6.2	0.00e+00	0	48	104	38453379072	65	20725

#Closed at: 2026-01-26 21:44:30
#Recorded file [38453 MB]: D:/lorett/data/31045_260127_003428.dat