passes_logs/2026/01/20/R2.0S_Raduga/R2.0S_Raduga__20260120_095428_NOAA_20_JPSS-1_rec.log

#Pass ID: 20260120_095428_NOAA 20 (JPSS-1)
#Satellite: NOAA 20 (JPSS-1)
#Configuration: NOAA 20 (JPSS-1)
#Start time: 2026-01-20 09:54:33.391801

#LorettStation: 1.0.0 05.05.2024
#Station: R2.0S_Raduga
#Location: 37.601861 lon 55.688408 lat
#TLE: 1 43013U 17073A   26018.92475364  .00000071  00000+0  54435-4 0  9998
#TLE: 2 43013  98.7641 319.8227 0001354  33.6678 326.4584 14.19536868423299

#Time	Az	El	Level	SNR
2026-01-20 09:54:41.567271	158.2	15.9	-94.8	0.0
2026-01-20 09:54:43.837586	158.2	16.1	-94.8	0.0
2026-01-20 09:54:46.109935	158.2	16.4	-94.7	0.0
2026-01-20 09:54:48.371885	158.2	16.7	-94.9	0.0
2026-01-20 09:54:50.642128	158.2	16.9	-94.8	0.0
2026-01-20 09:54:52.907797	158.2	17.2	-94.8	0.0
2026-01-20 09:54:55.170581	158.1	17.5	-94.7	0.0
2026-01-20 09:54:57.442234	158.1	17.7	-94.9	0.0
2026-01-20 09:54:59.706460	158.1	18.0	-94.8	0.0
2026-01-20 09:55:01.978972	158.1	18.3	-94.7	0.0
2026-01-20 09:55:04.247711	158.1	18.6	-94.6	0.0
2026-01-20 09:55:06.518491	158.1	18.8	-94.7	0.0
2026-01-20 09:55:08.781504	158.0	19.1	-94.8	0.0
2026-01-20 09:55:11.049588	158.0	19.4	-94.7	0.0
2026-01-20 09:55:13.321813	158.0	19.7	-94.9	0.0
2026-01-20 09:55:15.589716	158.0	20.0	-94.7	0.0
2026-01-20 09:55:17.854452	158.0	20.3	-95.0	0.0
2026-01-20 09:55:20.122816	158.0	20.6	-94.8	0.0
2026-01-20 09:55:22.393718	157.9	20.9	-94.9	0.0
2026-01-20 09:55:24.659961	157.9	21.2	-94.9	0.0
2026-01-20 09:55:26.927435	157.9	21.5	-94.8	0.0
2026-01-20 09:55:29.195361	157.9	21.9	-94.8	0.0
2026-01-20 09:55:31.470418	157.8	22.2	-94.6	0.0
2026-01-20 09:55:33.737813	157.8	22.5	-94.9	0.0
2026-01-20 09:55:36.002141	157.8	22.9	-94.8	0.0
2026-01-20 09:55:38.272060	157.8	23.2	-94.8	0.0
2026-01-20 09:55:40.539745	157.7	23.5	-94.6	0.0
2026-01-20 09:55:42.805656	157.7	23.9	-94.7	0.0
2026-01-20 09:55:45.075452	157.7	24.2	-94.8	0.0
2026-01-20 09:55:47.342233	157.7	24.6	-94.8	0.0
2026-01-20 09:55:49.609674	157.6	24.9	-94.9	0.0
2026-01-20 09:55:51.878872	157.6	25.3	-94.8	0.0
2026-01-20 09:55:54.150424	157.6	25.7	-94.9	0.0
2026-01-20 09:55:56.418561	157.6	26.0	-94.7	0.0
2026-01-20 09:55:58.694157	157.5	26.4	-94.8	0.0
2026-01-20 09:56:00.961393	157.5	26.8	-94.9	0.0
2026-01-20 09:56:03.226678	157.5	27.2	-94.9	0.0
2026-01-20 09:56:05.496045	157.4	27.6	-94.9	0.0
2026-01-20 09:56:07.768959	157.4	28.0	-94.8	0.0
2026-01-20 09:56:10.040615	157.3	28.4	-94.8	0.0
2026-01-20 09:56:12.312866	157.3	28.8	-94.8	0.0
2026-01-20 09:56:14.586286	157.3	29.3	-94.8	0.0
2026-01-20 09:56:16.853830	157.2	29.7	-94.8	0.0
2026-01-20 09:56:19.126521	157.2	30.1	-94.8	0.0
2026-01-20 09:56:21.396943	157.2	30.6	-94.7	0.0
2026-01-20 09:56:23.669814	157.1	31.0	-94.8	0.0
2026-01-20 09:56:25.934057	157.1	31.5	-95.0	0.0
2026-01-20 09:56:28.197687	157.0	31.9	-94.8	0.0
2026-01-20 09:56:30.464638	157.0	32.4	-95.0	0.0
2026-01-20 09:56:32.732580	156.9	32.9	-94.9	0.0
2026-01-20 09:56:34.993067	156.9	33.3	-94.9	0.0
2026-01-20 09:56:37.262642	156.8	33.8	-94.7	0.0
2026-01-20 09:56:39.532770	156.8	34.3	-94.8	0.0
2026-01-20 09:56:41.798108	156.7	34.8	-94.8	0.0
2026-01-20 09:56:44.061136	156.6	35.4	-94.8	0.0
2026-01-20 09:56:46.326700	156.6	35.9	-94.9	0.0
2026-01-20 09:56:48.597190	156.5	36.4	-94.8	0.0
2026-01-20 09:56:50.858024	156.5	37.0	-94.8	0.0
2026-01-20 09:56:53.120466	156.4	37.5	-94.8	0.0
2026-01-20 09:56:55.384070	156.3	38.1	-94.6	0.0
2026-01-20 09:56:57.655752	156.2	38.6	-94.7	0.0
2026-01-20 09:56:59.916144	156.2	39.2	-94.8	0.0
2026-01-20 09:57:02.191123	156.1	39.8	-94.7	0.0
2026-01-20 09:57:04.456106	156.0	40.4	-94.7	0.0
2026-01-20 09:57:06.720048	155.9	41.0	-94.8	0.0
2026-01-20 09:57:08.991940	155.8	41.6	-94.8	0.0
2026-01-20 09:57:11.262112	155.7	42.2	-94.6	0.0
2026-01-20 09:57:13.532741	155.6	42.9	-94.8	0.0
2026-01-20 09:57:15.799636	155.5	43.5	-94.7	0.0
2026-01-20 09:57:18.064715	155.4	44.2	-94.6	0.0
2026-01-20 09:57:20.342979	155.3	44.9	-94.7	0.0
2026-01-20 09:57:22.612995	155.2	45.6	-94.8	0.0
2026-01-20 09:57:24.885690	155.1	46.3	-94.8	0.0
2026-01-20 09:57:27.157166	154.9	47.0	-94.9	0.0
2026-01-20 09:57:29.425961	154.8	47.7	-94.6	0.0
2026-01-20 09:57:31.690480	154.7	48.4	-95.0	0.0
2026-01-20 09:57:33.965096	154.5	49.2	-94.9	0.0
2026-01-20 09:57:36.230633	154.4	49.9	-94.9	0.0
2026-01-20 09:57:38.501723	154.2	50.7	-94.9	0.0
2026-01-20 09:57:40.765043	154.0	51.5	-94.8	0.0
2026-01-20 09:57:43.034171	153.8	52.3	-94.9	0.0
2026-01-20 09:57:45.308689	153.7	53.1	-94.7	0.0
2026-01-20 09:57:47.577752	153.4	53.9	-94.9	0.0
2026-01-20 09:57:49.848522	153.2	54.7	-94.8	0.0
2026-01-20 09:57:52.119266	153.0	55.6	-94.9	0.0
2026-01-20 09:57:54.382008	152.8	56.4	-94.7	0.0
2026-01-20 09:57:56.650648	152.5	57.3	-94.7	0.0
2026-01-20 09:57:58.920451	152.2	58.2	-94.7	0.0
2026-01-20 09:58:01.196278	151.9	59.1	-94.8	0.0
2026-01-20 09:58:03.460503	151.6	60.0	-94.8	0.0
2026-01-20 09:58:05.734067	151.2	60.9	-94.9	0.0
2026-01-20 09:58:07.999840	150.9	61.9	-94.8	0.0
2026-01-20 09:58:10.275656	150.5	62.8	-94.8	0.0
2026-01-20 09:58:12.544026	150.0	63.8	-94.9	0.0
2026-01-20 09:58:14.803948	149.5	64.7	-95.1	0.0
2026-01-20 09:58:17.070484	149.0	65.7	-94.8	0.0
2026-01-20 09:58:19.333512	148.5	66.7	-95.0	0.0
2026-01-20 09:58:21.607366	147.8	67.7	-94.7	0.0
2026-01-20 09:58:23.885967	147.1	68.7	-94.9	0.0
2026-01-20 09:58:26.157425	146.4	69.8	-94.7	0.0
2026-01-20 09:58:28.429426	145.5	70.8	-95.1	0.0
2026-01-20 09:58:30.693970	144.6	71.8	-94.9	0.0
2026-01-20 09:58:32.967678	143.5	72.8	-94.8	0.0
2026-01-20 09:58:35.236870	142.2	73.9	-94.8	0.0
2026-01-20 09:58:37.503172	140.8	74.9	-94.9	0.0
2026-01-20 09:58:39.776496	139.2	76.0	-94.9	0.0
2026-01-20 09:58:42.041181	137.3	77.0	-94.9	0.0
2026-01-20 09:58:44.307242	135.1	78.0	-94.9	0.0
2026-01-20 09:58:46.573619	132.4	79.0	-94.9	0.0
2026-01-20 09:58:48.836533	129.2	80.0	-94.8	0.0
2026-01-20 09:58:51.103235	125.3	80.9	-94.8	0.0
2026-01-20 09:58:53.371320	120.5	81.8	-94.8	0.0
2026-01-20 09:58:55.644707	114.5	82.7	-94.8	0.0
2026-01-20 09:58:57.910144	107.1	83.4	-94.7	0.0
2026-01-20 09:59:00.189990	98.0	84.0	-94.9	0.0
2026-01-20 09:59:02.457731	87.1	84.5	-94.7	0.0
2026-01-20 09:59:04.719464	75.0	84.7	-94.9	0.0
2026-01-20 09:59:06.988413	62.5	84.6	-94.9	0.0
2026-01-20 09:59:09.259831	50.8	84.3	-94.8	0.0
2026-01-20 09:59:11.525720	40.6	83.8	-94.8	0.0
2026-01-20 09:59:13.804915	32.2	83.1	-94.9	0.0
2026-01-20 09:59:16.080752	25.4	82.4	-95.0	0.0
2026-01-20 09:59:18.344473	19.9	81.5	-94.8	0.0
2026-01-20 09:59:20.621383	15.5	80.6	-94.9	0.0
2026-01-20 09:59:22.887396	11.9	79.6	-94.8	0.0
2026-01-20 09:59:25.160035	9.0	78.6	-94.8	0.0
2026-01-20 09:59:27.425181	6.5	77.6	-94.9	0.0
2026-01-20 09:59:29.690271	4.4	76.6	-94.8	0.0
2026-01-20 09:59:31.957374	2.6	75.5	-94.9	0.0
2026-01-20 09:59:34.222436	1.1	74.5	-94.7	0.0
2026-01-20 09:59:36.496238	359.8	73.5	-94.9	0.0
2026-01-20 09:59:38.766219	358.6	72.4	-94.7	0.0
2026-01-20 09:59:41.042794	357.6	71.4	-94.8	0.0
2026-01-20 09:59:43.312307	356.7	70.4	-94.8	0.0
2026-01-20 09:59:45.583377	355.8	69.3	-94.9	0.0
2026-01-20 09:59:47.851091	355.1	68.3	-94.8	0.0
2026-01-20 09:59:50.122477	354.4	67.3	-94.8	0.0
2026-01-20 09:59:52.387371	353.8	66.3	-94.8	0.0
2026-01-20 09:59:54.656346	353.3	65.4	-94.7	0.0
2026-01-20 09:59:56.925880	352.8	64.4	-94.8	0.0
2026-01-20 09:59:59.200068	352.3	63.4	-94.9	0.0
2026-01-20 10:00:01.469341	351.9	62.5	-94.8	0.0
2026-01-20 10:00:03.735469	351.5	61.5	-94.9	0.0
2026-01-20 10:00:06.002294	351.2	60.6	-94.8	0.0
2026-01-20 10:00:08.277120	350.8	59.7	-94.8	0.0
2026-01-20 10:00:10.543781	350.5	58.8	-94.8	0.0
2026-01-20 10:00:12.813867	350.2	57.9	-94.7	0.0
2026-01-20 10:00:15.083688	349.9	57.0	-94.9	0.0
2026-01-20 10:00:17.349419	349.7	56.1	-95.1	0.0
2026-01-20 10:00:19.620390	349.5	55.3	-94.9	0.0
2026-01-20 10:00:21.884363	349.2	54.5	-95.0	0.0
2026-01-20 10:00:24.147742	349.0	53.6	-94.7	0.0
2026-01-20 10:00:26.415812	348.8	52.8	-94.8	0.0
2026-01-20 10:00:28.687729	348.6	52.0	-95.0	0.0
2026-01-20 10:00:30.964958	348.4	51.2	-94.7	0.0
2026-01-20 10:00:33.238294	348.3	50.5	-94.8	0.0
2026-01-20 10:00:35.514572	348.1	49.7	-94.7	0.0
2026-01-20 10:00:37.783542	348.0	48.9	-94.8	0.0
2026-01-20 10:00:40.044195	347.8	48.2	-94.9	0.0
2026-01-20 10:00:42.318181	347.7	47.5	-94.8	0.0
2026-01-20 10:00:44.584657	347.6	46.8	-94.9	0.0
2026-01-20 10:00:46.852736	347.4	46.1	-94.7	0.0
2026-01-20 10:00:49.115777	347.3	45.4	-94.9	0.0
2026-01-20 10:00:51.391247	347.2	44.7	-94.9	0.0
2026-01-20 10:00:53.661317	347.1	44.0	-94.9	0.0
2026-01-20 10:00:55.926978	347.0	43.4	-94.7	0.0
2026-01-20 10:00:58.193310	346.9	42.7	-94.8	0.0
2026-01-20 10:01:00.464122	346.8	42.1	-94.9	0.0
2026-01-20 10:01:02.730770	346.7	41.5	-94.8	0.0
2026-01-20 10:01:05.004630	346.6	40.9	-94.6	0.0
2026-01-20 10:01:07.266727	346.5	40.3	-94.9	0.0
2026-01-20 10:01:09.530505	346.4	39.7	-94.8	0.0
2026-01-20 10:01:11.794479	346.4	39.1	-94.8	0.0
2026-01-20 10:01:14.065311	346.3	38.5	-94.8	0.0
2026-01-20 10:01:16.337403	346.2	38.0	-94.7	0.0
2026-01-20 10:01:18.610039	346.2	37.4	-94.8	0.0
2026-01-20 10:01:20.876730	346.1	36.9	-94.8	0.0
2026-01-20 10:01:23.139139	346.0	36.3	-94.8	0.0
2026-01-20 10:01:25.407080	346.0	35.8	-94.8	0.0
2026-01-20 10:01:27.674235	345.9	35.3	-94.8	0.0
2026-01-20 10:01:29.943818	345.8	34.8	-94.9	0.0
2026-01-20 10:01:32.212413	345.8	34.3	-94.7	0.0
2026-01-20 10:01:34.476980	345.7	33.8	-94.9	0.0
2026-01-20 10:01:36.746344	345.7	33.3	-94.9	0.0
2026-01-20 10:01:39.011300	345.6	32.8	-94.7	0.0
2026-01-20 10:01:41.284559	345.6	32.3	-94.9	0.0
2026-01-20 10:01:43.544708	345.5	31.9	-94.7	0.0
2026-01-20 10:01:45.817422	345.5	31.4	-94.7	0.0
2026-01-20 10:01:48.081978	345.5	31.0	-94.8	0.0
2026-01-20 10:01:50.348260	345.4	30.5	-94.9	0.0
2026-01-20 10:01:52.617764	345.4	30.1	-94.8	0.0
2026-01-20 10:01:54.878339	345.3	29.7	-94.9	0.0
2026-01-20 10:01:57.144579	345.3	29.2	-94.7	0.0
2026-01-20 10:01:59.409988	345.3	28.8	-94.7	0.0
2026-01-20 10:02:01.678569	345.2	28.4	-94.8	0.0
2026-01-20 10:02:03.946077	345.2	28.0	-94.7	0.0
2026-01-20 10:02:06.213620	345.2	27.6	-94.9	0.0
2026-01-20 10:02:08.482289	345.1	27.2	-94.7	0.0
2026-01-20 10:02:10.755382	345.1	26.8	-94.9	0.0
2026-01-20 10:02:13.027107	345.1	26.4	-95.0	0.0
2026-01-20 10:02:15.296587	345.0	26.1	-94.7	0.0
2026-01-20 10:02:17.563502	345.0	25.7	-94.8	0.0
2026-01-20 10:02:19.831927	345.0	25.3	-94.8	0.0
2026-01-20 10:02:22.099632	344.9	25.0	-94.8	0.0
2026-01-20 10:02:24.369937	344.9	24.6	-94.7	0.0
2026-01-20 10:02:26.637421	344.9	24.3	-94.9	0.0
2026-01-20 10:02:28.906855	344.9	23.9	-94.7	0.0
2026-01-20 10:02:31.179150	344.8	23.6	-94.9	0.0
2026-01-20 10:02:33.443227	344.8	23.2	-94.7	0.0
2026-01-20 10:02:35.707047	344.8	22.9	-94.9	0.0
2026-01-20 10:02:37.970989	344.8	22.6	-94.9	0.0
2026-01-20 10:02:40.235591	344.8	22.2	-94.9	0.0
2026-01-20 10:02:42.501478	344.7	21.9	-94.8	0.0
2026-01-20 10:02:44.769573	344.7	21.6	-94.8	0.0
2026-01-20 10:02:47.051017	344.7	21.3	-94.8	0.0
2026-01-20 10:02:49.321009	344.7	21.0	-94.6	0.0
2026-01-20 10:02:51.583295	344.7	20.7	-94.9	0.0
2026-01-20 10:02:53.845348	344.6	20.4	-94.8	0.0
2026-01-20 10:02:56.113976	344.6	20.1	-94.8	0.0
2026-01-20 10:02:58.384110	344.6	19.8	-94.9	0.0
2026-01-20 10:03:00.667959	344.6	19.5	-94.7	0.0
2026-01-20 10:03:02.939515	344.6	19.2	-94.8	0.0
2026-01-20 10:03:05.203533	344.6	18.9	-94.7	0.0
2026-01-20 10:03:07.475650	344.5	18.6	-94.8	0.0
2026-01-20 10:03:09.742585	344.5	18.4	-94.7	0.0
2026-01-20 10:03:12.019964	344.5	18.1	-94.7	0.0
2026-01-20 10:03:14.285780	344.5	17.8	-94.8	0.0
2026-01-20 10:03:16.553482	344.5	17.5	-94.8	0.0
2026-01-20 10:03:18.817576	344.5	17.3	-94.8	0.0
2026-01-20 10:03:21.085892	344.5	17.0	-94.8	0.0
2026-01-20 10:03:23.354477	344.5	16.8	-94.7	0.0
2026-01-20 10:03:25.622796	344.4	16.5	-94.9	0.0
2026-01-20 10:03:27.894362	344.4	16.2	-94.8	0.0
2026-01-20 10:03:30.166003	344.4	16.0	-94.8	0.0
2026-01-20 10:03:32.442895	344.4	15.7	-94.8	0.0
2026-01-20 10:03:34.710257	344.4	15.5	-94.8	0.0
2026-01-20 10:03:36.988030	344.4	15.2	-94.9	0.0
2026-01-20 10:03:39.259422	344.4	15.0	-94.8	0.0
#Closed at: 2026-01-20 09:54:28.394841