passes_logs/2026/01/20/R2.0S_Raduga/R2.0S_Raduga__20260120_040549_FENGYUN_3E_rec.log

#Pass ID: 20260120_040549_FENGYUN 3E
#Satellite: FENGYUN 3E
#Configuration: FENGYUN 3E
#Start time: 2026-01-20 04:05:54.899066

#LorettStation: 1.0.0 05.05.2024
#Station: R2.0S_Raduga
#Location: 37.601861 lon 55.688408 lat
#TLE: 1 49008U 21062A   26018.95190407 -.00000301  00000+0 -12097-3 0  9991
#TLE: 2 49008  98.7482  24.0337 0002210 129.7386 230.3985 14.19884646235406

#Time	Az	El	Level	SNR
2026-01-20 04:05:59.073922	15.1	15.4	-92.3	0.0
2026-01-20 04:06:01.342076	15.1	15.7	-92.4	0.0
2026-01-20 04:06:03.622658	15.1	15.9	-92.4	0.0
2026-01-20 04:06:05.884364	15.1	16.2	-92.5	0.0
2026-01-20 04:06:08.155217	15.0	16.5	-92.4	0.0
2026-01-20 04:06:10.420439	15.0	16.7	-92.4	0.0
2026-01-20 04:06:12.682648	15.0	17.0	-92.6	0.0
2026-01-20 04:06:14.949809	15.0	17.2	-92.4	0.0
2026-01-20 04:06:17.218304	15.0	17.5	-92.5	0.0
2026-01-20 04:06:19.480932	14.9	17.8	-92.4	0.0
2026-01-20 04:06:21.747332	14.9	18.0	-92.6	0.0
2026-01-20 04:06:24.018428	14.9	18.3	-92.4	0.0
2026-01-20 04:06:26.286714	14.9	18.6	-92.4	0.0
2026-01-20 04:06:28.550414	14.8	18.9	-92.3	0.0
2026-01-20 04:06:30.810938	14.8	19.2	-92.5	0.0
2026-01-20 04:06:33.086592	14.8	19.4	-92.5	0.0
2026-01-20 04:06:35.350501	14.8	19.7	-92.4	0.0
2026-01-20 04:06:37.612801	14.7	20.0	-92.6	0.0
2026-01-20 04:06:39.880459	14.7	20.3	-92.5	0.0
2026-01-20 04:06:42.147712	14.7	20.6	-92.5	0.0
2026-01-20 04:06:44.415166	14.7	20.9	-92.4	0.0
2026-01-20 04:06:46.688343	14.6	21.2	-92.3	0.0
2026-01-20 04:06:48.957786	14.6	21.6	-92.4	0.0
2026-01-20 04:06:51.226979	14.6	21.9	-92.4	0.0
2026-01-20 04:06:53.495259	14.5	22.2	-92.4	0.0
2026-01-20 04:06:55.762802	14.5	22.5	-92.4	0.0
2026-01-20 04:06:58.033357	14.5	22.8	-92.3	0.0
2026-01-20 04:07:00.299873	14.4	23.2	-92.4	0.0
2026-01-20 04:07:02.565730	14.4	23.5	-92.3	0.0
2026-01-20 04:07:04.831025	14.4	23.9	-92.5	0.0
2026-01-20 04:07:07.102762	14.3	24.2	-92.5	0.0
2026-01-20 04:07:09.369356	14.3	24.6	-92.5	0.0
2026-01-20 04:07:11.630022	14.2	24.9	-92.5	0.0
2026-01-20 04:07:13.889544	14.2	25.3	-92.6	0.0
2026-01-20 04:07:16.155919	14.2	25.6	-92.5	0.0
2026-01-20 04:07:18.426243	14.1	26.0	-92.4	0.0
2026-01-20 04:07:20.709723	14.1	26.4	-92.4	0.0
2026-01-20 04:07:22.984985	14.0	26.8	-92.3	0.0
2026-01-20 04:07:25.269229	14.0	27.2	-92.5	0.0
2026-01-20 04:07:27.556289	13.9	27.5	-92.4	0.0
2026-01-20 04:07:29.836385	13.9	27.9	-92.5	0.0
2026-01-20 04:07:32.139892	13.8	28.4	-92.5	0.0
2026-01-20 04:07:34.415170	13.8	28.8	-92.5	0.0
2026-01-20 04:07:36.685041	13.7	29.2	-92.5	0.0
2026-01-20 04:07:38.958693	13.7	29.6	-92.5	0.0
2026-01-20 04:07:41.240060	13.6	30.0	-92.2	0.0
2026-01-20 04:07:43.512066	13.6	30.5	-92.3	0.0
2026-01-20 04:07:45.800581	13.5	30.9	-92.4	0.0
2026-01-20 04:07:48.090557	13.4	31.4	-92.4	0.0
2026-01-20 04:07:50.355204	13.4	31.8	-92.4	0.0
2026-01-20 04:07:52.634887	13.3	32.3	-92.3	0.0
2026-01-20 04:07:54.919713	13.2	32.8	-92.4	0.0
2026-01-20 04:07:57.209576	13.2	33.3	-92.3	0.0
2026-01-20 04:07:59.490365	13.1	33.7	-92.5	0.0
2026-01-20 04:08:01.775134	13.0	34.2	-92.4	0.0
2026-01-20 04:08:04.049768	12.9	34.7	-92.4	0.0
2026-01-20 04:08:06.322301	12.8	35.3	-92.3	0.0
2026-01-20 04:08:08.598841	12.8	35.8	-92.3	0.0
2026-01-20 04:08:10.894670	12.7	36.3	-92.5	0.0
2026-01-20 04:08:13.174659	12.6	36.8	-92.4	0.0
2026-01-20 04:08:15.460443	12.5	37.4	-92.5	0.0
2026-01-20 04:08:17.743314	12.4	38.0	-92.5	0.0
2026-01-20 04:08:20.005875	12.3	38.5	-92.4	0.0
2026-01-20 04:08:22.280955	12.2	39.1	-92.3	0.0
2026-01-20 04:08:24.540213	12.1	39.7	-92.5	0.0
2026-01-20 04:08:26.811256	11.9	40.3	-92.4	0.0
2026-01-20 04:08:29.089268	11.8	40.9	-92.6	0.0
2026-01-20 04:08:31.380318	11.7	41.5	-92.3	0.0
2026-01-20 04:08:33.668777	11.6	42.1	-92.6	0.0
2026-01-20 04:08:35.957281	11.4	42.7	-92.4	0.0
2026-01-20 04:08:38.240621	11.3	43.4	-92.4	0.0
2026-01-20 04:08:40.515160	11.1	44.1	-92.2	0.0
2026-01-20 04:08:42.794884	11.0	44.7	-92.4	0.0
2026-01-20 04:08:45.063971	10.8	45.4	-92.4	0.0
2026-01-20 04:08:47.349573	10.7	46.1	-92.3	0.0
2026-01-20 04:08:49.622731	10.5	46.8	-92.6	0.0
2026-01-20 04:08:51.914803	10.3	47.5	-92.5	0.0
2026-01-20 04:08:54.218520	10.1	48.2	-92.3	0.0
2026-01-20 04:08:56.501205	9.9	49.0	-92.6	0.0
2026-01-20 04:08:58.773240	9.7	49.7	-92.4	0.0
2026-01-20 04:09:01.053770	9.4	50.5	-92.3	0.0
2026-01-20 04:09:03.330570	9.2	51.3	-92.4	0.0
2026-01-20 04:09:05.609585	9.0	52.1	-92.4	0.0
2026-01-20 04:09:07.891180	8.7	52.9	-92.4	0.0
2026-01-20 04:09:10.178735	8.4	53.7	-92.4	0.0
2026-01-20 04:09:12.449668	8.1	54.5	-92.5	0.0
2026-01-20 04:09:14.734786	7.8	55.3	-92.6	0.0
2026-01-20 04:09:17.026707	7.4	56.2	-92.4	0.0
2026-01-20 04:09:19.307061	7.1	57.1	-92.5	0.0
2026-01-20 04:09:21.577038	6.7	57.9	-92.3	0.0
2026-01-20 04:09:23.871300	6.3	58.8	-92.4	0.0
2026-01-20 04:09:26.146871	5.9	59.7	-92.5	0.0
2026-01-20 04:09:28.429675	5.4	60.6	-92.5	0.0
2026-01-20 04:09:30.692234	4.9	61.5	-92.6	0.0
2026-01-20 04:09:32.965904	4.3	62.5	-92.2	0.0
2026-01-20 04:09:35.259291	3.7	63.4	-92.4	0.0
2026-01-20 04:09:37.533313	3.1	64.4	-92.4	0.0
2026-01-20 04:09:39.801028	2.4	65.3	-92.4	0.0
2026-01-20 04:09:42.066187	1.6	66.3	-92.5	0.0
2026-01-20 04:09:44.356222	0.8	67.3	-92.4	0.0
2026-01-20 04:09:46.619463	359.9	68.3	-92.5	0.0
2026-01-20 04:09:48.909450	358.8	69.3	-92.5	0.0
2026-01-20 04:09:51.197885	357.7	70.2	-92.5	0.0
2026-01-20 04:09:53.470017	356.5	71.2	-92.3	0.0
2026-01-20 04:09:55.734893	355.1	72.2	-92.3	0.0
2026-01-20 04:09:58.002027	353.5	73.2	-92.4	0.0
2026-01-20 04:10:00.287375	351.7	74.2	-92.5	0.0
2026-01-20 04:10:02.574701	349.6	75.2	-92.3	0.0
2026-01-20 04:10:04.854716	347.3	76.2	-92.5	0.0
2026-01-20 04:10:07.148453	344.6	77.1	-92.4	0.0
2026-01-20 04:10:09.438439	341.4	78.0	-92.4	0.0
2026-01-20 04:10:11.711460	337.7	78.9	-92.4	0.0
2026-01-20 04:10:13.994778	333.4	79.7	-92.4	0.0
2026-01-20 04:10:16.264620	328.4	80.5	-92.5	0.0
2026-01-20 04:10:18.529585	322.5	81.2	-92.3	0.0
2026-01-20 04:10:20.814487	315.7	81.8	-92.3	0.0
2026-01-20 04:10:23.097023	307.9	82.2	-92.4	0.0
2026-01-20 04:10:25.384557	299.3	82.5	-92.6	0.0
2026-01-20 04:10:27.664831	290.3	82.6	-92.4	0.0
2026-01-20 04:10:29.927889	281.3	82.6	-92.4	0.0
2026-01-20 04:10:32.204539	272.6	82.3	-92.5	0.0
2026-01-20 04:10:34.481117	264.6	81.9	-92.4	0.0
2026-01-20 04:10:36.763107	257.5	81.4	-92.4	0.0
2026-01-20 04:10:39.046164	251.3	80.7	-92.7	0.0
2026-01-20 04:10:41.316107	246.1	80.0	-92.5	0.0
2026-01-20 04:10:43.612131	241.5	79.1	-92.5	0.0
2026-01-20 04:10:45.891209	237.7	78.3	-92.5	0.0
2026-01-20 04:10:48.181675	234.4	77.4	-92.4	0.0
2026-01-20 04:10:50.451696	231.6	76.4	-92.6	0.0
2026-01-20 04:10:52.716573	229.1	75.5	-92.6	0.0
2026-01-20 04:10:54.990718	227.0	74.5	-92.4	0.0
2026-01-20 04:10:57.272094	225.1	73.5	-92.5	0.0
2026-01-20 04:10:59.547230	223.5	72.5	-92.4	0.0
2026-01-20 04:11:01.832795	222.0	71.5	-92.5	0.0
2026-01-20 04:11:04.109269	220.7	70.5	-92.5	0.0
2026-01-20 04:11:06.394651	219.6	69.5	-92.4	0.0
2026-01-20 04:11:08.669384	218.5	68.5	-92.3	0.0
2026-01-20 04:11:10.960580	217.6	67.5	-92.5	0.0
2026-01-20 04:11:13.232174	216.7	66.5	-92.5	0.0
2026-01-20 04:11:15.504515	215.9	65.6	-92.4	0.0
2026-01-20 04:11:17.769726	215.2	64.6	-92.4	0.0
2026-01-20 04:11:20.042877	214.6	63.7	-92.4	0.0
2026-01-20 04:11:22.318149	214.0	62.7	-92.3	0.0
2026-01-20 04:11:24.585664	213.4	61.8	-92.4	0.0
2026-01-20 04:11:26.854456	212.9	60.9	-92.5	0.0
2026-01-20 04:11:29.137054	212.4	59.9	-92.4	0.0
2026-01-20 04:11:31.421178	211.9	59.0	-92.5	0.0
2026-01-20 04:11:33.716218	211.5	58.1	-92.4	0.0
2026-01-20 04:11:36.000966	211.1	57.2	-92.5	0.0
2026-01-20 04:11:38.288899	210.8	56.4	-92.4	0.0
2026-01-20 04:11:40.567165	210.4	55.5	-92.4	0.0
2026-01-20 04:11:42.844499	210.1	54.7	-92.3	0.0
2026-01-20 04:11:45.126445	209.8	53.8	-92.5	0.0
2026-01-20 04:11:47.404497	209.5	53.0	-92.4	0.0
2026-01-20 04:11:49.684561	209.2	52.2	-92.5	0.0
2026-01-20 04:11:51.965986	209.0	51.4	-92.4	0.0
2026-01-20 04:11:54.250297	208.7	50.6	-92.4	0.0
2026-01-20 04:11:56.529630	208.5	49.9	-92.4	0.0
2026-01-20 04:11:58.814622	208.3	49.1	-92.5	0.0
2026-01-20 04:12:01.096054	208.1	48.4	-92.4	0.0
2026-01-20 04:12:03.369858	207.9	47.6	-92.5	0.0
2026-01-20 04:12:05.648576	207.7	46.9	-92.6	0.0
2026-01-20 04:12:07.928314	207.5	46.2	-92.3	0.0
2026-01-20 04:12:10.188984	207.3	45.5	-92.5	0.0
2026-01-20 04:12:12.477892	207.2	44.8	-92.3	0.0
2026-01-20 04:12:14.742025	207.0	44.2	-92.5	0.0
2026-01-20 04:12:17.010170	206.9	43.5	-92.6	0.0
2026-01-20 04:12:19.285839	206.7	42.8	-92.6	0.0
2026-01-20 04:12:21.554465	206.6	42.2	-92.4	0.0
2026-01-20 04:12:23.829743	206.4	41.6	-92.6	0.0
2026-01-20 04:12:26.108191	206.3	41.0	-92.6	0.0
2026-01-20 04:12:28.397989	206.2	40.3	-92.5	0.0
2026-01-20 04:12:30.688153	206.1	39.7	-92.4	0.0
2026-01-20 04:12:32.977787	206.0	39.1	-92.7	0.0
2026-01-20 04:12:35.259662	205.8	38.6	-92.3	0.0
2026-01-20 04:12:37.540411	205.7	38.0	-92.5	0.0
2026-01-20 04:12:39.806193	205.6	37.4	-92.4	0.0
2026-01-20 04:12:42.080182	205.5	36.9	-92.5	0.0
2026-01-20 04:12:44.354663	205.5	36.3	-92.4	0.0
2026-01-20 04:12:46.644324	205.4	35.8	-92.6	0.0
2026-01-20 04:12:48.924609	205.3	35.3	-92.6	0.0
2026-01-20 04:12:51.191360	205.2	34.8	-92.5	0.0
2026-01-20 04:12:53.461316	205.1	34.3	-92.4	0.0
2026-01-20 04:12:55.737997	205.0	33.8	-92.6	0.0
2026-01-20 04:12:58.005961	205.0	33.3	-92.5	0.0
2026-01-20 04:13:00.274620	204.9	32.8	-92.4	0.0
2026-01-20 04:13:02.561504	204.8	32.3	-92.4	0.0
2026-01-20 04:13:04.819821	204.7	31.9	-92.5	0.0
2026-01-20 04:13:07.104599	204.7	31.4	-92.5	0.0
2026-01-20 04:13:09.375423	204.6	30.9	-92.4	0.0
2026-01-20 04:13:11.644464	204.5	30.5	-92.5	0.0
2026-01-20 04:13:13.931697	204.5	30.0	-92.5	0.0
2026-01-20 04:13:16.204596	204.4	29.6	-92.5	0.0
2026-01-20 04:13:18.474679	204.4	29.2	-92.5	0.0
2026-01-20 04:13:20.762036	204.3	28.8	-92.5	0.0
2026-01-20 04:13:23.030610	204.2	28.3	-92.6	0.0
2026-01-20 04:13:25.316011	204.2	27.9	-92.5	0.0
2026-01-20 04:13:27.589476	204.1	27.5	-92.4	0.0
2026-01-20 04:13:29.891831	204.1	27.1	-92.5	0.0
2026-01-20 04:13:32.164266	204.0	26.7	-92.3	0.0
2026-01-20 04:13:34.442510	204.0	26.4	-92.3	0.0
2026-01-20 04:13:36.718232	204.0	26.0	-92.5	0.0
2026-01-20 04:13:39.001086	203.9	25.6	-92.4	0.0
2026-01-20 04:13:41.286604	203.9	25.2	-92.3	0.0
2026-01-20 04:13:43.552581	203.8	24.9	-92.4	0.0
2026-01-20 04:13:45.818098	203.8	24.5	-92.4	0.0
2026-01-20 04:13:48.083416	203.7	24.2	-92.4	0.0
2026-01-20 04:13:50.367465	203.7	23.8	-92.5	0.0
2026-01-20 04:13:52.636970	203.7	23.5	-92.4	0.0
2026-01-20 04:13:54.914574	203.6	23.1	-92.5	0.0
2026-01-20 04:13:57.178227	203.6	22.8	-92.3	0.0
2026-01-20 04:13:59.464212	203.6	22.4	-92.5	0.0
2026-01-20 04:14:01.744793	203.5	22.1	-92.5	0.0
2026-01-20 04:14:04.010215	203.5	21.8	-92.5	0.0
2026-01-20 04:14:06.293949	203.5	21.5	-92.3	0.0
2026-01-20 04:14:08.576712	203.4	21.2	-92.6	0.0
2026-01-20 04:14:10.855149	203.4	20.8	-92.6	0.0
2026-01-20 04:14:13.145732	203.4	20.5	-92.3	0.0
2026-01-20 04:14:15.424164	203.3	20.2	-92.4	0.0
2026-01-20 04:14:17.724344	203.3	19.9	-92.3	0.0
2026-01-20 04:14:20.014368	203.3	19.6	-92.3	0.0
2026-01-20 04:14:22.290664	203.2	19.3	-92.3	0.0
2026-01-20 04:14:24.556274	203.2	19.0	-92.3	0.0
2026-01-20 04:14:26.826338	203.2	18.8	-92.4	0.0
2026-01-20 04:14:29.099714	203.2	18.5	-92.6	0.0
2026-01-20 04:14:31.394187	203.1	18.2	-92.5	0.0
2026-01-20 04:14:33.665712	203.1	17.9	-92.4	0.0
2026-01-20 04:14:35.928288	203.1	17.6	-92.4	0.0
2026-01-20 04:14:38.201688	203.1	17.4	-92.4	0.0
2026-01-20 04:14:40.489257	203.0	17.1	-92.6	0.0
2026-01-20 04:14:42.764931	203.0	16.8	-92.4	0.0
2026-01-20 04:14:45.050943	203.0	16.6	-92.6	0.0
2026-01-20 04:14:47.339075	203.0	16.3	-92.4	0.0
2026-01-20 04:14:49.614227	203.0	16.1	-92.4	0.0
2026-01-20 04:14:51.884498	202.9	15.8	-92.4	0.0
2026-01-20 04:14:54.168841	202.9	15.6	-92.4	0.0
2026-01-20 04:14:56.454645	202.9	15.3	-92.4	0.0
2026-01-20 04:14:58.724195	202.9	15.1	-92.5	0.0
#Closed at: 2026-01-20 04:05:49.901695