passes_logs/2026/01/20/R2.0S_Raduga/R2.0S_Raduga__20260120_005426_NOAA_21_JPSS-2_rec.log

#Pass ID: 20260120_005426_NOAA 21 (JPSS-2)
#Satellite: NOAA 21 (JPSS-2)
#Configuration: NOAA 21 (JPSS-2)
#Start time: 2026-01-20 00:54:31.013341

#LorettStation: 1.0.0 05.05.2024
#Station: R2.0S_Raduga
#Location: 37.601861 lon 55.688408 lat
#TLE: 1 54234U 22150A   26018.88939962  .00000052  00000+0  45304-4 0  9995
#TLE: 2 54234  98.7504 319.7421 0000606 261.7569  98.3539 14.19535520165361

#Time	Az	El	Level	SNR
2026-01-20 00:54:35.207807	357.8	15.4	-93.3	0.0
2026-01-20 00:54:36.343686	357.7	15.5	-93.2	0.0
2026-01-20 00:54:37.477652	357.5	15.6	-93.3	0.0
2026-01-20 00:54:38.611814	357.4	15.7	-93.2	0.0
2026-01-20 00:54:39.747893	357.2	15.8	-93.3	0.0
2026-01-20 00:54:40.883826	357.1	15.9	-93.4	0.0
2026-01-20 00:54:42.020323	357.0	16.0	-93.2	0.0
2026-01-20 00:54:43.158110	356.8	16.1	-93.4	0.0
2026-01-20 00:54:44.296537	356.7	16.2	-93.3	0.0
2026-01-20 00:54:45.438178	356.5	16.3	-93.2	0.0
2026-01-20 00:54:46.571671	356.4	16.4	-93.3	0.0
2026-01-20 00:54:47.711864	356.2	16.5	-93.3	0.0
2026-01-20 00:54:48.845484	356.1	16.6	-93.3	0.0
2026-01-20 00:54:49.994185	355.9	16.7	-93.2	0.0
2026-01-20 00:54:51.136239	355.8	16.8	-93.3	0.0
2026-01-20 00:54:52.277742	355.6	16.9	-93.2	0.0
2026-01-20 00:54:53.413846	355.5	17.0	-93.2	0.0
2026-01-20 00:54:54.551118	355.3	17.1	-93.3	0.0
2026-01-20 00:54:55.693446	355.2	17.2	-93.2	0.0
2026-01-20 00:54:56.830078	355.0	17.3	-93.2	0.0
2026-01-20 00:54:57.966993	354.9	17.5	-93.1	0.0
2026-01-20 00:54:59.106734	354.7	17.6	-93.2	0.0
2026-01-20 00:55:00.248676	354.5	17.7	-93.3	0.0
2026-01-20 00:55:01.385047	354.4	17.8	-93.1	0.0
2026-01-20 00:55:02.527044	354.2	17.9	-93.4	0.0
2026-01-20 00:55:03.660703	354.0	18.0	-93.3	0.0
2026-01-20 00:55:04.799107	353.9	18.1	-93.1	0.0
2026-01-20 00:55:05.940709	353.7	18.2	-93.3	0.0
2026-01-20 00:55:07.082976	353.6	18.3	-93.2	0.0
2026-01-20 00:55:08.223346	353.4	18.4	-93.3	0.0
2026-01-20 00:55:09.366605	353.2	18.5	-93.3	0.0
2026-01-20 00:55:10.505678	353.0	18.6	-93.3	0.0
2026-01-20 00:55:11.649355	352.9	18.7	-93.2	0.0
2026-01-20 00:55:12.782181	352.7	18.9	-93.4	0.0
2026-01-20 00:55:13.925884	352.5	19.0	-93.2	0.0
2026-01-20 00:55:15.076204	352.3	19.1	-93.3	0.0
2026-01-20 00:55:16.208977	352.2	19.2	-93.2	0.0
2026-01-20 00:55:17.346480	352.0	19.3	-93.3	0.0
2026-01-20 00:55:18.486042	351.8	19.4	-93.5	0.0
2026-01-20 00:55:19.626096	351.6	19.5	-93.4	0.0
2026-01-20 00:55:20.766952	351.5	19.6	-93.3	0.0
2026-01-20 00:55:21.910389	351.3	19.7	-93.4	0.0
2026-01-20 00:55:23.047767	351.1	19.9	-93.2	0.0
2026-01-20 00:55:24.184190	350.9	20.0	-93.1	0.0
2026-01-20 00:55:25.333799	350.7	20.1	-93.3	0.0
2026-01-20 00:55:26.466081	350.5	20.2	-93.2	0.0
2026-01-20 00:55:27.604770	350.3	20.3	-93.3	0.0
2026-01-20 00:55:28.744483	350.1	20.4	-93.3	0.0
2026-01-20 00:55:29.884183	349.9	20.5	-93.4	0.0
2026-01-20 00:55:31.022451	349.8	20.6	-93.3	0.0
2026-01-20 00:55:32.161532	349.6	20.7	-93.2	0.0
2026-01-20 00:55:33.308635	349.4	20.9	-93.4	0.0
2026-01-20 00:55:34.447009	349.2	21.0	-93.3	0.0
2026-01-20 00:55:35.587768	349.0	21.1	-93.4	0.0
2026-01-20 00:55:36.728206	348.8	21.2	-93.2	0.0
2026-01-20 00:55:37.871642	348.5	21.3	-93.2	0.0
2026-01-20 00:55:39.011001	348.3	21.4	-93.3	0.0
2026-01-20 00:55:40.147034	348.1	21.5	-93.4	0.0
2026-01-20 00:55:41.292834	347.9	21.7	-93.1	0.0
2026-01-20 00:55:42.434349	347.7	21.8	-93.2	0.0
2026-01-20 00:55:43.574294	347.5	21.9	-93.3	0.0
2026-01-20 00:55:44.712382	347.3	22.0	-93.2	0.0
2026-01-20 00:55:45.851397	347.1	22.1	-93.1	0.0
2026-01-20 00:55:46.983026	346.9	22.2	-93.4	0.0
2026-01-20 00:55:48.120954	346.6	22.3	-93.3	0.0
2026-01-20 00:55:49.257009	346.4	22.4	-93.2	0.0
2026-01-20 00:55:50.404586	346.2	22.6	-93.4	0.0
2026-01-20 00:55:51.550125	346.0	22.7	-93.2	0.0
2026-01-20 00:55:52.689985	345.8	22.8	-93.1	0.0
2026-01-20 00:55:53.828374	345.5	22.9	-93.3	0.0
2026-01-20 00:55:54.971236	345.3	23.0	-93.1	0.0
2026-01-20 00:55:56.100568	345.1	23.1	-93.1	0.0
2026-01-20 00:55:57.233937	344.8	23.2	-93.3	0.0
2026-01-20 00:55:58.378937	344.6	23.4	-93.4	0.0
2026-01-20 00:55:59.511296	344.4	23.5	-93.3	0.0
2026-01-20 00:56:00.657171	344.1	23.6	-93.1	0.0
2026-01-20 00:56:01.798014	343.9	23.7	-93.2	0.0
2026-01-20 00:56:02.938270	343.7	23.8	-93.1	0.0
2026-01-20 00:56:04.085593	343.4	23.9	-93.3	0.0
2026-01-20 00:56:05.228830	343.2	24.0	-93.3	0.0
2026-01-20 00:56:06.367704	342.9	24.2	-93.3	0.0
2026-01-20 00:56:07.507230	342.7	24.3	-93.2	0.0
2026-01-20 00:56:08.653366	342.4	24.4	-93.3	0.0
2026-01-20 00:56:09.789105	342.2	24.5	-93.3	0.0
2026-01-20 00:56:10.925467	341.9	24.6	-93.2	0.0
2026-01-20 00:56:12.067012	341.7	24.7	-93.4	0.0
2026-01-20 00:56:13.204782	341.4	24.8	-93.4	0.0
2026-01-20 00:56:14.344156	341.2	25.0	-93.2	0.0
2026-01-20 00:56:15.485514	340.9	25.1	-93.2	0.0
2026-01-20 00:56:16.617385	340.6	25.2	-93.3	0.0
2026-01-20 00:56:17.759517	340.4	25.3	-93.2	0.0
2026-01-20 00:56:18.899635	340.1	25.4	-93.2	0.0
2026-01-20 00:56:20.044282	339.8	25.5	-93.3	0.0
2026-01-20 00:56:21.180648	339.6	25.6	-93.2	0.0
2026-01-20 00:56:22.319853	339.3	25.7	-93.4	0.0
2026-01-20 00:56:23.467425	339.0	25.9	-93.3	0.0
2026-01-20 00:56:24.602529	338.8	26.0	-93.3	0.0
2026-01-20 00:56:25.738593	338.5	26.1	-93.3	0.0
2026-01-20 00:56:26.875143	338.2	26.2	-93.3	0.0
2026-01-20 00:56:28.009516	337.9	26.3	-93.2	0.0
2026-01-20 00:56:29.149381	337.6	26.4	-93.1	0.0
2026-01-20 00:56:30.287745	337.4	26.5	-93.2	0.0
2026-01-20 00:56:31.423603	337.1	26.6	-93.2	0.0
2026-01-20 00:56:32.579784	336.8	26.7	-93.4	0.0
2026-01-20 00:56:33.712658	336.5	26.8	-93.3	0.0
2026-01-20 00:56:34.849411	336.2	27.0	-93.3	0.0
2026-01-20 00:56:35.983086	335.9	27.1	-93.2	0.0
2026-01-20 00:56:37.122530	335.6	27.2	-93.2	0.0
2026-01-20 00:56:38.261251	335.3	27.3	-93.2	0.0
2026-01-20 00:56:39.396105	335.0	27.4	-93.3	0.0
2026-01-20 00:56:40.529325	334.7	27.5	-93.2	0.0
2026-01-20 00:56:41.677683	334.4	27.6	-93.4	0.0
2026-01-20 00:56:42.814233	334.1	27.7	-93.4	0.0
2026-01-20 00:56:43.948033	333.8	27.8	-93.2	0.0
2026-01-20 00:56:45.087610	333.5	27.9	-93.2	0.0
2026-01-20 00:56:46.237998	333.1	28.0	-93.2	0.0
2026-01-20 00:56:47.374961	332.8	28.1	-93.2	0.0
2026-01-20 00:56:48.508933	332.5	28.2	-93.1	0.0
2026-01-20 00:56:49.647521	332.2	28.3	-93.4	0.0
2026-01-20 00:56:50.781392	331.9	28.4	-93.2	0.0
2026-01-20 00:56:51.930451	331.5	28.5	-93.3	0.0
2026-01-20 00:56:53.068828	331.2	28.6	-93.2	0.0
2026-01-20 00:56:54.209182	330.9	28.7	-93.3	0.0
2026-01-20 00:56:55.340082	330.6	28.8	-93.3	0.0
2026-01-20 00:56:56.486862	330.2	28.9	-93.4	0.0
2026-01-20 00:56:57.622829	329.9	29.0	-93.3	0.0
2026-01-20 00:56:58.761036	329.6	29.1	-93.4	0.0
2026-01-20 00:56:59.905397	329.2	29.2	-93.3	0.0
2026-01-20 00:57:01.041493	328.9	29.3	-93.3	0.0
2026-01-20 00:57:02.184873	328.5	29.4	-93.3	0.0
2026-01-20 00:57:03.321584	328.2	29.5	-93.3	0.0
2026-01-20 00:57:04.456678	327.8	29.6	-93.2	0.0
2026-01-20 00:57:05.601798	327.5	29.7	-93.4	0.0
2026-01-20 00:57:06.738655	327.1	29.8	-93.4	0.0
2026-01-20 00:57:07.873839	326.8	29.9	-93.2	0.0
2026-01-20 00:57:09.016150	326.4	29.9	-93.2	0.0
2026-01-20 00:57:10.189656	326.1	30.0	-93.3	0.0
2026-01-20 00:57:11.329569	325.7	30.1	-93.2	0.0
2026-01-20 00:57:12.463751	325.4	30.2	-93.2	0.0
2026-01-20 00:57:13.607516	325.0	30.3	-93.1	0.0
2026-01-20 00:57:14.753532	324.6	30.4	-93.1	0.0
2026-01-20 00:57:15.892910	324.3	30.5	-93.3	0.0
2026-01-20 00:57:17.035818	323.9	30.5	-93.2	0.0
2026-01-20 00:57:18.169195	323.5	30.6	-93.3	0.0
2026-01-20 00:57:19.305535	323.2	30.7	-93.3	0.0
2026-01-20 00:57:20.456104	322.8	30.8	-93.3	0.0
2026-01-20 00:57:21.592966	322.4	30.8	-93.3	0.0
2026-01-20 00:57:22.730800	322.0	30.9	-93.3	0.0
2026-01-20 00:57:23.872704	321.6	31.0	-93.1	0.0
2026-01-20 00:57:25.006572	321.3	31.1	-93.2	0.0
2026-01-20 00:57:26.151603	320.9	31.1	-93.2	0.0
2026-01-20 00:57:27.285883	320.5	31.2	-93.3	0.0
2026-01-20 00:57:28.432348	320.1	31.3	-93.3	0.0
2026-01-20 00:57:29.572912	319.7	31.3	-93.2	0.0
2026-01-20 00:57:30.705617	319.3	31.4	-93.3	0.0
2026-01-20 00:57:31.843657	319.0	31.5	-93.2	0.0
2026-01-20 00:57:32.977917	318.6	31.5	-93.4	0.0
2026-01-20 00:57:34.115670	318.2	31.6	-93.2	0.0
2026-01-20 00:57:35.253357	317.8	31.7	-93.3	0.0
2026-01-20 00:57:36.390745	317.4	31.7	-93.2	0.0
2026-01-20 00:57:37.534565	317.0	31.8	-93.1	0.0
2026-01-20 00:57:38.669463	316.6	31.8	-93.3	0.0
2026-01-20 00:57:39.808950	316.2	31.9	-93.3	0.0
2026-01-20 00:57:40.940391	315.8	32.0	-93.0	0.0
2026-01-20 00:57:42.087877	315.4	32.0	-93.3	0.0
2026-01-20 00:57:43.218249	315.0	32.1	-93.1	0.0
2026-01-20 00:57:44.353613	314.6	32.1	-93.3	0.0
2026-01-20 00:57:45.493986	314.2	32.2	-93.4	0.0
2026-01-20 00:57:46.636869	313.7	32.2	-93.3	0.0
2026-01-20 00:57:47.771919	313.3	32.2	-93.3	0.0
2026-01-20 00:57:48.914904	312.9	32.3	-93.2	0.0
2026-01-20 00:57:50.057378	312.5	32.3	-93.2	0.0
2026-01-20 00:57:51.209200	312.1	32.4	-93.3	0.0
2026-01-20 00:57:52.351649	311.7	32.4	-93.1	0.0
2026-01-20 00:57:53.486982	311.3	32.4	-93.4	0.0
2026-01-20 00:57:54.637376	310.8	32.5	-93.0	0.0
2026-01-20 00:57:55.775628	310.4	32.5	-93.2	0.0
2026-01-20 00:57:56.916197	310.0	32.5	-93.4	0.0
2026-01-20 00:57:58.051829	309.6	32.6	-93.3	0.0
2026-01-20 00:57:59.187573	309.2	32.6	-93.3	0.0
2026-01-20 00:58:00.322366	308.8	32.6	-93.1	0.0
2026-01-20 00:58:01.464142	308.3	32.6	-93.2	0.0
2026-01-20 00:58:02.603187	307.9	32.7	-93.3	0.0
2026-01-20 00:58:03.750305	307.5	32.7	-93.3	0.0
2026-01-20 00:58:04.885671	307.1	32.7	-93.4	0.0
2026-01-20 00:58:06.031350	306.6	32.7	-93.3	0.0
2026-01-20 00:58:07.169029	306.2	32.7	-93.3	0.0
2026-01-20 00:58:08.308861	305.8	32.8	-93.3	0.0
2026-01-20 00:58:09.445612	305.4	32.8	-93.3	0.0
2026-01-20 00:58:10.592214	304.9	32.8	-93.1	0.0
2026-01-20 00:58:11.734451	304.5	32.8	-93.2	0.0
2026-01-20 00:58:12.873179	304.1	32.8	-93.2	0.0
2026-01-20 00:58:14.011416	303.7	32.8	-93.3	0.0
2026-01-20 00:58:15.155514	303.2	32.8	-93.2	0.0
2026-01-20 00:58:16.301419	302.8	32.8	-93.4	0.0
2026-01-20 00:58:17.437089	302.4	32.8	-93.2	0.0
2026-01-20 00:58:18.581337	302.0	32.8	-93.2	0.0
2026-01-20 00:58:19.719190	301.5	32.8	-93.2	0.0
2026-01-20 00:58:20.856670	301.1	32.8	-93.2	0.0
2026-01-20 00:58:21.998355	300.7	32.8	-93.3	0.0
2026-01-20 00:58:23.135204	300.3	32.8	-93.2	0.0
2026-01-20 00:58:24.275458	299.8	32.8	-93.1	0.0
2026-01-20 00:58:25.431748	299.4	32.8	-93.0	0.0
2026-01-20 00:58:26.568354	299.0	32.7	-93.1	0.0
2026-01-20 00:58:27.710340	298.6	32.7	-93.5	0.0
2026-01-20 00:58:28.842240	298.1	32.7	-93.2	0.0
2026-01-20 00:58:29.993260	297.7	32.7	-93.1	0.0
2026-01-20 00:58:31.130304	297.3	32.7	-93.2	0.0
2026-01-20 00:58:32.267170	296.9	32.6	-93.1	0.0
2026-01-20 00:58:33.402039	296.5	32.6	-93.3	0.0
2026-01-20 00:58:34.543396	296.0	32.6	-93.1	0.0
2026-01-20 00:58:35.690278	295.6	32.6	-93.2	0.0
2026-01-20 00:58:36.838860	295.2	32.5	-93.2	0.0
2026-01-20 00:58:37.978611	294.8	32.5	-93.2	0.0
2026-01-20 00:58:39.117501	294.4	32.5	-93.1	0.0
2026-01-20 00:58:40.259800	293.9	32.4	-93.2	0.0
2026-01-20 00:58:41.397687	293.5	32.4	-93.3	0.0
2026-01-20 00:58:42.547971	293.1	32.4	-93.3	0.0
2026-01-20 00:58:43.681779	292.7	32.3	-93.1	0.0
2026-01-20 00:58:44.821279	292.3	32.3	-93.3	0.0
2026-01-20 00:58:45.967150	291.9	32.2	-93.2	0.0
2026-01-20 00:58:47.103894	291.5	32.2	-93.1	0.0
2026-01-20 00:58:48.243257	291.0	32.1	-93.2	0.0
2026-01-20 00:58:49.378639	290.6	32.1	-93.2	0.0
2026-01-20 00:58:50.523358	290.2	32.0	-93.2	0.0
2026-01-20 00:58:51.664053	289.8	32.0	-93.1	0.0
2026-01-20 00:58:52.802453	289.4	31.9	-93.1	0.0
2026-01-20 00:58:53.943882	289.0	31.9	-93.3	0.0
2026-01-20 00:58:55.080273	288.6	31.8	-93.4	0.0
2026-01-20 00:58:56.219854	288.2	31.8	-93.4	0.0
2026-01-20 00:58:57.361742	287.8	31.7	-93.3	0.0
2026-01-20 00:58:58.495503	287.4	31.6	-93.1	0.0
2026-01-20 00:58:59.631859	287.0	31.6	-93.2	0.0
2026-01-20 00:59:00.766426	286.6	31.5	-93.3	0.0
2026-01-20 00:59:01.922112	286.2	31.5	-93.2	0.0
2026-01-20 00:59:03.061625	285.9	31.4	-93.2	0.0
2026-01-20 00:59:04.199311	285.5	31.3	-93.3	0.0
2026-01-20 00:59:05.332380	285.1	31.3	-93.3	0.0
2026-01-20 00:59:06.478920	284.7	31.2	-93.0	0.0
2026-01-20 00:59:07.610661	284.3	31.1	-93.2	0.0
2026-01-20 00:59:08.754483	283.9	31.0	-93.2	0.0
2026-01-20 00:59:09.904208	283.5	31.0	-93.2	0.0
2026-01-20 00:59:11.042386	283.2	30.9	-93.2	0.0
2026-01-20 00:59:12.182402	282.8	30.8	-93.4	0.0
2026-01-20 00:59:13.321264	282.4	30.7	-93.2	0.0
2026-01-20 00:59:14.459524	282.0	30.7	-93.3	0.0
2026-01-20 00:59:15.603184	281.7	30.6	-93.3	0.0
2026-01-20 00:59:16.740657	281.3	30.5	-93.2	0.0
2026-01-20 00:59:17.881690	280.9	30.4	-93.3	0.0
2026-01-20 00:59:19.025164	280.6	30.3	-93.3	0.0
2026-01-20 00:59:20.160352	280.2	30.3	-93.4	0.0
2026-01-20 00:59:21.298152	279.8	30.2	-93.2	0.0
2026-01-20 00:59:22.443961	279.5	30.1	-93.3	0.0
2026-01-20 00:59:23.578679	279.1	30.0	-93.3	0.0
2026-01-20 00:59:24.716188	278.8	29.9	-93.2	0.0
2026-01-20 00:59:25.855178	278.4	29.8	-93.2	0.0
2026-01-20 00:59:27.000222	278.0	29.7	-93.2	0.0
2026-01-20 00:59:28.143820	277.7	29.6	-93.2	0.0
2026-01-20 00:59:29.278878	277.3	29.5	-93.3	0.0
2026-01-20 00:59:30.418160	277.0	29.5	-93.2	0.0
2026-01-20 00:59:31.555273	276.6	29.4	-93.2	0.0
2026-01-20 00:59:32.705146	276.3	29.3	-93.4	0.0
2026-01-20 00:59:33.849470	276.0	29.2	-93.3	0.0
2026-01-20 00:59:34.981791	275.6	29.1	-93.2	0.0
2026-01-20 00:59:36.115964	275.3	29.0	-93.2	0.0
2026-01-20 00:59:37.254308	275.0	28.9	-93.3	0.0
2026-01-20 00:59:38.405495	274.6	28.8	-93.3	0.0
2026-01-20 00:59:39.545636	274.3	28.7	-93.1	0.0
2026-01-20 00:59:40.685365	274.0	28.6	-93.4	0.0
2026-01-20 00:59:41.831297	273.6	28.5	-93.2	0.0
2026-01-20 00:59:42.979664	273.3	28.4	-93.1	0.0
2026-01-20 00:59:44.118358	273.0	28.3	-93.3	0.0
2026-01-20 00:59:45.254231	272.7	28.2	-93.2	0.0
2026-01-20 00:59:46.391084	272.3	28.1	-93.2	0.0
2026-01-20 00:59:47.527677	272.0	28.0	-93.3	0.0
2026-01-20 00:59:48.671913	271.7	27.9	-93.3	0.0
2026-01-20 00:59:49.811281	271.4	27.8	-93.2	0.0
2026-01-20 00:59:50.947239	271.1	27.7	-93.1	0.0
2026-01-20 00:59:52.086116	270.8	27.5	-93.5	0.0
2026-01-20 00:59:53.222253	270.5	27.4	-93.3	0.0
2026-01-20 00:59:54.356454	270.2	27.3	-93.4	0.0
2026-01-20 00:59:55.493518	269.9	27.2	-93.2	0.0
2026-01-20 00:59:56.633548	269.6	27.1	-93.3	0.0
2026-01-20 00:59:57.775912	269.3	27.0	-93.3	0.0
2026-01-20 00:59:58.915539	269.0	26.9	-93.1	0.0
2026-01-20 01:00:00.053906	268.7	26.8	-93.1	0.0
2026-01-20 01:00:01.192269	268.4	26.7	-93.2	0.0
2026-01-20 01:00:02.338128	268.1	26.6	-93.3	0.0
2026-01-20 01:00:03.485505	267.8	26.5	-93.3	0.0
2026-01-20 01:00:04.634368	267.5	26.4	-93.2	0.0
2026-01-20 01:00:05.768183	267.2	26.2	-93.4	0.0
2026-01-20 01:00:06.920185	267.0	26.1	-93.3	0.0
2026-01-20 01:00:08.060715	266.7	26.0	-93.4	0.0
2026-01-20 01:00:09.200791	266.4	25.9	-93.1	0.0
2026-01-20 01:00:10.345696	266.1	25.8	-93.2	0.0
2026-01-20 01:00:11.481257	265.8	25.7	-93.3	0.0
2026-01-20 01:00:12.619654	265.6	25.6	-93.2	0.0
2026-01-20 01:00:13.769538	265.3	25.5	-93.3	0.0
2026-01-20 01:00:14.905495	265.0	25.3	-93.3	0.0
2026-01-20 01:00:16.043851	264.8	25.2	-93.3	0.0
2026-01-20 01:00:17.179369	264.5	25.1	-93.2	0.0
2026-01-20 01:00:18.315598	264.2	25.0	-93.2	0.0
2026-01-20 01:00:19.455490	264.0	24.9	-93.2	0.0
2026-01-20 01:00:20.591609	263.7	24.8	-93.3	0.0
2026-01-20 01:00:21.725702	263.5	24.7	-93.3	0.0
2026-01-20 01:00:22.872064	263.2	24.6	-93.4	0.0
2026-01-20 01:00:24.015624	263.0	24.4	-93.3	0.0
2026-01-20 01:00:25.152215	262.7	24.3	-93.2	0.0
2026-01-20 01:00:26.292591	262.5	24.2	-93.3	0.0
2026-01-20 01:00:27.431282	262.2	24.1	-93.3	0.0
2026-01-20 01:00:28.568627	262.0	24.0	-93.2	0.0
2026-01-20 01:00:29.702633	261.7	23.9	-93.2	0.0
2026-01-20 01:00:30.855536	261.5	23.7	-93.1	0.0
2026-01-20 01:00:31.988196	261.2	23.6	-93.2	0.0
2026-01-20 01:00:33.135552	261.0	23.5	-93.2	0.0
2026-01-20 01:00:34.270577	260.8	23.4	-93.2	0.0
2026-01-20 01:00:35.406121	260.5	23.3	-93.2	0.0
2026-01-20 01:00:36.545430	260.3	23.2	-93.2	0.0
2026-01-20 01:00:37.677619	260.1	23.1	-93.3	0.0
2026-01-20 01:00:38.807998	259.8	22.9	-93.2	0.0
2026-01-20 01:00:39.945435	259.6	22.8	-93.0	0.0
2026-01-20 01:00:41.087198	259.4	22.7	-93.3	0.0
2026-01-20 01:00:42.228772	259.2	22.6	-93.2	0.0
2026-01-20 01:00:43.374142	258.9	22.5	-93.3	0.0
2026-01-20 01:00:44.529983	258.7	22.4	-93.2	0.0
2026-01-20 01:00:45.671089	258.5	22.3	-93.2	0.0
2026-01-20 01:00:46.803947	258.3	22.1	-93.1	0.0
2026-01-20 01:00:47.938156	258.1	22.0	-93.4	0.0
2026-01-20 01:00:49.071701	257.8	21.9	-93.4	0.0
2026-01-20 01:00:50.214629	257.6	21.8	-93.4	0.0
2026-01-20 01:00:51.350505	257.4	21.7	-93.2	0.0
2026-01-20 01:00:52.497560	257.2	21.6	-93.1	0.0
2026-01-20 01:00:53.640424	257.0	21.5	-93.4	0.0
2026-01-20 01:00:54.782335	256.8	21.3	-93.3	0.0
2026-01-20 01:00:55.932121	256.6	21.2	-93.3	0.0
2026-01-20 01:00:57.076988	256.4	21.1	-93.2	0.0
2026-01-20 01:00:58.214349	256.2	21.0	-93.2	0.0
2026-01-20 01:00:59.353309	256.0	20.9	-93.2	0.0
2026-01-20 01:01:00.509155	255.8	20.8	-93.2	0.0
2026-01-20 01:01:01.646872	255.6	20.7	-93.1	0.0
2026-01-20 01:01:02.791027	255.4	20.5	-93.3	0.0
2026-01-20 01:01:03.926494	255.2	20.4	-93.3	0.0
2026-01-20 01:01:05.072809	255.0	20.3	-93.2	0.0
2026-01-20 01:01:06.212784	254.8	20.2	-93.2	0.0
2026-01-20 01:01:07.349370	254.6	20.1	-93.1	0.0
2026-01-20 01:01:08.480367	254.4	20.0	-93.2	0.0
2026-01-20 01:01:09.619088	254.2	19.9	-93.2	0.0
2026-01-20 01:01:10.760105	254.0	19.8	-93.3	0.0
2026-01-20 01:01:11.896963	253.8	19.7	-93.1	0.0
2026-01-20 01:01:13.035075	253.7	19.5	-93.2	0.0
2026-01-20 01:01:14.165937	253.5	19.4	-93.2	0.0
2026-01-20 01:01:15.301992	253.3	19.3	-93.2	0.0
2026-01-20 01:01:16.438852	253.1	19.2	-93.4	0.0
2026-01-20 01:01:17.578173	252.9	19.1	-93.0	0.0
2026-01-20 01:01:18.713175	252.8	19.0	-93.4	0.0
2026-01-20 01:01:19.852516	252.6	18.9	-93.2	0.0
2026-01-20 01:01:20.994487	252.4	18.8	-93.2	0.0
2026-01-20 01:01:22.130565	252.2	18.7	-93.1	0.0
2026-01-20 01:01:23.264540	252.1	18.5	-93.2	0.0
2026-01-20 01:01:24.411623	251.9	18.4	-93.2	0.0
2026-01-20 01:01:25.557245	251.7	18.3	-93.3	0.0
2026-01-20 01:01:26.703568	251.6	18.2	-93.1	0.0
2026-01-20 01:01:27.839770	251.4	18.1	-93.4	0.0
2026-01-20 01:01:28.975731	251.2	18.0	-93.2	0.0
2026-01-20 01:01:30.110086	251.1	17.9	-93.2	0.0
2026-01-20 01:01:31.251423	250.9	17.8	-93.4	0.0
2026-01-20 01:01:32.386623	250.7	17.7	-93.0	0.0
2026-01-20 01:01:33.517325	250.6	17.6	-93.3	0.0
2026-01-20 01:01:34.660386	250.4	17.5	-93.2	0.0
2026-01-20 01:01:35.798243	250.3	17.4	-93.4	0.0
2026-01-20 01:01:36.942388	250.1	17.2	-93.3	0.0
2026-01-20 01:01:38.083107	249.9	17.1	-93.1	0.0
2026-01-20 01:01:39.222584	249.8	17.0	-93.4	0.0
2026-01-20 01:01:40.361832	249.6	16.9	-93.2	0.0
2026-01-20 01:01:41.507333	249.5	16.8	-93.3	0.0
2026-01-20 01:01:42.652455	249.3	16.7	-93.2	0.0
2026-01-20 01:01:43.784301	249.2	16.6	-93.1	0.0
2026-01-20 01:01:44.921455	249.0	16.5	-93.3	0.0
2026-01-20 01:01:46.059270	248.9	16.4	-93.2	0.0
2026-01-20 01:01:47.201849	248.7	16.3	-93.3	0.0
2026-01-20 01:01:48.347410	248.6	16.2	-93.1	0.0
2026-01-20 01:01:49.478616	248.4	16.1	-93.1	0.0
2026-01-20 01:01:50.615509	248.3	16.0	-93.3	0.0
2026-01-20 01:01:51.760105	248.1	15.9	-93.3	0.0
2026-01-20 01:01:52.897717	248.0	15.8	-93.3	0.0
2026-01-20 01:01:54.040513	247.9	15.7	-93.3	0.0
2026-01-20 01:01:55.173577	247.7	15.6	-93.3	0.0
2026-01-20 01:01:56.309354	247.6	15.5	-93.3	0.0
2026-01-20 01:01:57.448944	247.4	15.4	-93.2	0.0
2026-01-20 01:01:58.590265	247.3	15.3	-93.2	0.0
2026-01-20 01:01:59.726482	247.2	15.2	-93.2	0.0
2026-01-20 01:02:00.863232	247.0	15.1	-93.2	0.0
2026-01-20 01:02:02.000408	246.9	15.0	-93.2	0.0
#Closed at: 2026-01-20 00:54:26.018014