passes_logs/2026/01/20/R2.0S_Raduga/R2.0S_Raduga__20260120_003814_AURA_rec.log

#Pass ID: 20260120_003814_AURA
#Satellite: AURA
#Configuration: AURA
#Start time: 2026-01-20 00:38:19.984612

#LorettStation: 1.0.0 05.05.2024
#Station: R2.0S_Raduga
#Location: 37.601861 lon 55.688408 lat
#TLE: 1 28376U 04026A   26018.91010266  .00000896  00000+0  19248-3 0  9999
#TLE: 2 28376  98.3235 334.3213 0001599  73.1831 286.9545 14.61013889144418

#Time	Az	El	Level	SNR
2026-01-20 00:38:24.147704	16.3	15.5	-96.1	0.0
2026-01-20 00:38:25.285039	16.3	15.6	-96.2	0.0
2026-01-20 00:38:26.425726	16.3	15.8	-96.0	0.0
2026-01-20 00:38:27.562813	16.4	15.9	-96.3	0.0
2026-01-20 00:38:28.701381	16.4	16.0	-96.2	0.0
2026-01-20 00:38:29.837604	16.4	16.2	-96.2	0.0
2026-01-20 00:38:30.969978	16.4	16.3	-96.2	0.0
2026-01-20 00:38:32.106046	16.4	16.5	-96.3	0.0
2026-01-20 00:38:33.240316	16.4	16.6	-96.2	0.0
2026-01-20 00:38:34.376957	16.4	16.7	-96.3	0.0
2026-01-20 00:38:35.509989	16.4	16.9	-96.2	0.0
2026-01-20 00:38:36.647493	16.4	17.0	-96.3	0.0
2026-01-20 00:38:37.786347	16.4	17.2	-96.4	0.0
2026-01-20 00:38:38.919476	16.4	17.3	-96.2	0.0
2026-01-20 00:38:40.073914	16.4	17.5	-96.4	0.0
2026-01-20 00:38:41.209368	16.4	17.6	-96.4	0.0
2026-01-20 00:38:42.343761	16.4	17.8	-96.5	0.0
2026-01-20 00:38:43.484362	16.4	17.9	-96.4	0.0
2026-01-20 00:38:44.622315	16.5	18.1	-96.4	0.0
2026-01-20 00:38:45.755604	16.5	18.2	-96.4	0.0
2026-01-20 00:38:46.893011	16.5	18.4	-96.5	0.0
2026-01-20 00:38:48.028007	16.5	18.5	-96.3	0.0
2026-01-20 00:38:49.167212	16.5	18.7	-96.5	0.0
2026-01-20 00:38:50.304617	16.5	18.8	-96.4	0.0
2026-01-20 00:38:51.442409	16.5	19.0	-96.5	0.0
2026-01-20 00:38:52.579782	16.5	19.2	-96.6	0.0
2026-01-20 00:38:53.717896	16.5	19.3	-96.6	0.0
2026-01-20 00:38:54.853325	16.5	19.5	-96.3	0.0
2026-01-20 00:38:55.990133	16.5	19.6	-96.6	0.0
2026-01-20 00:38:57.127351	16.5	19.8	-96.7	0.0
2026-01-20 00:38:58.265637	16.5	20.0	-96.6	0.0
2026-01-20 00:38:59.400767	16.5	20.1	-96.4	0.0
2026-01-20 00:39:00.544186	16.5	20.3	-96.5	0.0
2026-01-20 00:39:01.689403	16.6	20.5	-96.5	0.0
2026-01-20 00:39:02.827372	16.6	20.6	-96.3	0.0
2026-01-20 00:39:03.967000	16.6	20.8	-96.5	0.0
2026-01-20 00:39:05.101873	16.6	21.0	-96.4	0.0
2026-01-20 00:39:06.237591	16.6	21.2	-96.4	0.0
2026-01-20 00:39:07.375755	16.6	21.3	-96.5	0.0
2026-01-20 00:39:08.512362	16.6	21.5	-96.6	0.0
2026-01-20 00:39:09.647785	16.6	21.7	-96.4	0.0
2026-01-20 00:39:10.791073	16.6	21.9	-96.5	0.0
2026-01-20 00:39:11.925582	16.6	22.0	-96.4	0.0
2026-01-20 00:39:13.059893	16.6	22.2	-96.5	0.0
2026-01-20 00:39:14.201960	16.6	22.4	-96.6	0.0
2026-01-20 00:39:15.333952	16.6	22.6	-96.4	0.0
2026-01-20 00:39:16.473997	16.6	22.8	-96.5	0.0
2026-01-20 00:39:17.609451	16.7	23.0	-96.4	0.0
2026-01-20 00:39:18.744603	16.7	23.2	-96.5	0.0
2026-01-20 00:39:19.883020	16.7	23.4	-96.6	0.0
2026-01-20 00:39:21.014377	16.7	23.5	-96.5	0.0
2026-01-20 00:39:22.149543	16.7	23.7	-96.5	0.0
2026-01-20 00:39:23.283948	16.7	23.9	-96.4	0.0
2026-01-20 00:39:24.419821	16.7	24.1	-96.3	0.0
2026-01-20 00:39:25.557496	16.7	24.3	-96.5	0.0
2026-01-20 00:39:26.692120	16.7	24.5	-96.5	0.0
2026-01-20 00:39:27.832323	16.7	24.7	-96.4	0.0
2026-01-20 00:39:28.971033	16.7	24.9	-96.4	0.0
2026-01-20 00:39:30.108001	16.7	25.1	-96.4	0.0
2026-01-20 00:39:31.248901	16.7	25.3	-96.3	0.0
2026-01-20 00:39:32.384229	16.8	25.6	-96.5	0.0
2026-01-20 00:39:33.522908	16.8	25.8	-96.5	0.0
2026-01-20 00:39:34.659462	16.8	26.0	-96.4	0.0
2026-01-20 00:39:35.804381	16.8	26.2	-96.4	0.0
2026-01-20 00:39:36.953245	16.8	26.4	-96.4	0.0
2026-01-20 00:39:38.095331	16.8	26.6	-96.4	0.0
2026-01-20 00:39:39.229375	16.8	26.8	-96.5	0.0
2026-01-20 00:39:40.367273	16.8	27.1	-96.5	0.0
2026-01-20 00:39:41.507472	16.8	27.3	-96.4	0.0
2026-01-20 00:39:42.641984	16.8	27.5	-96.3	0.0
2026-01-20 00:39:43.776329	16.8	27.7	-96.5	0.0
2026-01-20 00:39:44.908116	16.8	28.0	-96.6	0.0
2026-01-20 00:39:46.048546	16.9	28.2	-96.5	0.0
2026-01-20 00:39:47.184789	16.9	28.4	-96.4	0.0
2026-01-20 00:39:48.327296	16.9	28.7	-96.4	0.0
2026-01-20 00:39:49.464846	16.9	28.9	-96.4	0.0
2026-01-20 00:39:50.598223	16.9	29.2	-96.4	0.0
2026-01-20 00:39:51.733535	16.9	29.4	-96.4	0.0
2026-01-20 00:39:52.873909	16.9	29.6	-96.4	0.0
2026-01-20 00:39:54.006206	16.9	29.9	-96.4	0.0
2026-01-20 00:39:55.142060	16.9	30.1	-96.5	0.0
2026-01-20 00:39:56.282193	16.9	30.4	-96.5	0.0
2026-01-20 00:39:57.418047	16.9	30.6	-96.3	0.0
2026-01-20 00:39:58.558496	17.0	30.9	-96.5	0.0
2026-01-20 00:39:59.697442	17.0	31.2	-96.4	0.0
2026-01-20 00:40:00.832301	17.0	31.4	-96.4	0.0
2026-01-20 00:40:01.966987	17.0	31.7	-96.4	0.0
2026-01-20 00:40:03.103544	17.0	32.0	-96.5	0.0
2026-01-20 00:40:04.243905	17.0	32.2	-96.5	0.0
2026-01-20 00:40:05.384686	17.0	32.5	-96.4	0.0
2026-01-20 00:40:06.517755	17.0	32.8	-96.5	0.0
2026-01-20 00:40:07.653785	17.0	33.1	-96.5	0.0
2026-01-20 00:40:08.791148	17.0	33.3	-96.5	0.0
2026-01-20 00:40:09.931836	17.1	33.6	-96.5	0.0
2026-01-20 00:40:11.081938	17.1	33.9	-96.6	0.0
2026-01-20 00:40:12.225503	17.1	34.2	-96.4	0.0
2026-01-20 00:40:13.364009	17.1	34.5	-96.3	0.0
2026-01-20 00:40:14.499450	17.1	34.8	-96.6	0.0
2026-01-20 00:40:15.638133	17.1	35.1	-96.4	0.0
2026-01-20 00:40:16.779225	17.1	35.4	-96.5	0.0
2026-01-20 00:40:17.915533	17.1	35.7	-96.5	0.0
2026-01-20 00:40:19.055519	17.1	36.0	-96.5	0.0
2026-01-20 00:40:20.193047	17.1	36.3	-96.4	0.0
2026-01-20 00:40:21.340504	17.2	36.6	-96.3	0.0
2026-01-20 00:40:22.477383	17.2	36.9	-96.5	0.0
2026-01-20 00:40:23.616789	17.2	37.3	-96.5	0.0
2026-01-20 00:40:24.748921	17.2	37.6	-96.4	0.0
2026-01-20 00:40:25.883723	17.2	37.9	-96.4	0.0
2026-01-20 00:40:27.029931	17.2	38.2	-96.4	0.0
2026-01-20 00:40:28.168829	17.2	38.6	-96.6	0.0
2026-01-20 00:40:29.306741	17.2	38.9	-96.4	0.0
2026-01-20 00:40:30.449536	17.3	39.2	-96.5	0.0
2026-01-20 00:40:31.585761	17.3	39.6	-96.4	0.0
2026-01-20 00:40:32.723815	17.3	39.9	-96.4	0.0
2026-01-20 00:40:33.861411	17.3	40.3	-96.4	0.0
2026-01-20 00:40:35.015410	17.3	40.6	-96.3	0.0
2026-01-20 00:40:36.153889	17.3	41.0	-96.5	0.0
2026-01-20 00:40:37.292669	17.3	41.4	-96.5	0.0
2026-01-20 00:40:38.429421	17.4	41.7	-96.6	0.0
2026-01-20 00:40:39.561004	17.4	42.1	-96.3	0.0
2026-01-20 00:40:40.694155	17.4	42.5	-96.2	0.0
2026-01-20 00:40:41.830424	17.4	42.9	-96.4	0.0
2026-01-20 00:40:42.963934	17.4	43.2	-96.4	0.0
2026-01-20 00:40:44.102880	17.4	43.6	-96.6	0.0
2026-01-20 00:40:45.237606	17.4	44.0	-96.4	0.0
2026-01-20 00:40:46.374031	17.5	44.4	-96.5	0.0
2026-01-20 00:40:47.517464	17.5	44.8	-96.6	0.0
2026-01-20 00:40:48.651843	17.5	45.2	-96.6	0.0
2026-01-20 00:40:49.788547	17.5	45.6	-96.3	0.0
2026-01-20 00:40:50.923803	17.5	46.0	-96.6	0.0
2026-01-20 00:40:52.060819	17.6	46.4	-96.5	0.0
2026-01-20 00:40:53.195141	17.6	46.9	-96.4	0.0
2026-01-20 00:40:54.336015	17.6	47.3	-96.4	0.0
2026-01-20 00:40:55.473113	17.6	47.7	-96.6	0.0
2026-01-20 00:40:56.614856	17.6	48.2	-96.6	0.0
2026-01-20 00:40:57.752937	17.6	48.6	-96.5	0.0
2026-01-20 00:40:58.886240	17.7	49.0	-96.4	0.0
2026-01-20 00:41:00.030789	17.7	49.5	-96.5	0.0
2026-01-20 00:41:01.169345	17.7	49.9	-96.5	0.0
2026-01-20 00:41:02.303231	17.7	50.4	-96.4	0.0
2026-01-20 00:41:03.442956	17.8	50.9	-96.4	0.0
2026-01-20 00:41:04.577734	17.8	51.3	-96.4	0.0
2026-01-20 00:41:05.715532	17.8	51.8	-96.5	0.0
2026-01-20 00:41:06.851420	17.8	52.3	-96.5	0.0
2026-01-20 00:41:07.992439	17.9	52.8	-96.4	0.0
2026-01-20 00:41:09.126840	17.9	53.2	-96.6	0.0
2026-01-20 00:41:10.265445	17.9	53.7	-96.4	0.0
2026-01-20 00:41:11.409835	17.9	54.2	-96.4	0.0
2026-01-20 00:41:12.553833	18.0	54.7	-96.4	0.0
2026-01-20 00:41:13.691220	18.0	55.3	-96.4	0.0
2026-01-20 00:41:14.826853	18.0	55.8	-96.4	0.0
2026-01-20 00:41:15.963212	18.1	56.3	-96.5	0.0
2026-01-20 00:41:17.100574	18.1	56.8	-96.3	0.0
2026-01-20 00:41:18.236949	18.1	57.3	-96.4	0.0
2026-01-20 00:41:19.374268	18.1	57.9	-96.4	0.0
2026-01-20 00:41:20.511627	18.2	58.4	-96.4	0.0
2026-01-20 00:41:21.644295	18.2	58.9	-96.3	0.0
2026-01-20 00:41:22.781353	18.3	59.5	-96.3	0.0
2026-01-20 00:41:23.915325	18.3	60.0	-96.4	0.0
2026-01-20 00:41:25.052402	18.3	60.6	-96.3	0.0
2026-01-20 00:41:26.187862	18.4	61.2	-96.4	0.0
2026-01-20 00:41:27.333354	18.4	61.7	-96.5	0.0
2026-01-20 00:41:28.467784	18.5	62.3	-96.5	0.0
2026-01-20 00:41:29.605417	18.5	62.9	-96.6	0.0
2026-01-20 00:41:30.740792	18.6	63.5	-96.5	0.0
2026-01-20 00:41:31.878297	18.6	64.1	-96.4	0.0
2026-01-20 00:41:33.012214	18.7	64.6	-96.5	0.0
2026-01-20 00:41:34.149999	18.7	65.2	-96.6	0.0
2026-01-20 00:41:35.290239	18.8	65.8	-96.5	0.0
2026-01-20 00:41:36.430096	18.9	66.5	-96.4	0.0
2026-01-20 00:41:37.569454	18.9	67.1	-96.5	0.0
2026-01-20 00:41:38.705531	19.0	67.7	-96.5	0.0
2026-01-20 00:41:39.847672	19.1	68.3	-96.5	0.0
2026-01-20 00:41:40.984675	19.2	68.9	-96.3	0.0
2026-01-20 00:41:42.123178	19.3	69.6	-96.5	0.0
2026-01-20 00:41:43.259863	19.4	70.2	-96.4	0.0
2026-01-20 00:41:44.399040	19.5	70.8	-96.4	0.0
2026-01-20 00:41:45.536162	19.6	71.5	-96.6	0.0
2026-01-20 00:41:46.672748	19.7	72.1	-96.4	0.0
2026-01-20 00:41:47.806454	19.8	72.8	-96.6	0.0
2026-01-20 00:41:48.940594	19.9	73.4	-96.4	0.0
2026-01-20 00:41:50.074459	20.1	74.1	-96.5	0.0
2026-01-20 00:41:51.212612	20.2	74.8	-96.5	0.0
2026-01-20 00:41:52.349468	20.4	75.4	-96.5	0.0
2026-01-20 00:41:53.488674	20.6	76.1	-96.5	0.0
2026-01-20 00:41:54.628189	20.8	76.8	-96.5	0.0
2026-01-20 00:41:55.765378	21.0	77.4	-96.3	0.0
2026-01-20 00:41:56.903554	21.3	78.1	-96.4	0.0
2026-01-20 00:41:58.045374	21.6	78.8	-96.6	0.0
2026-01-20 00:41:59.180971	21.9	79.5	-96.3	0.0
2026-01-20 00:42:00.315220	22.3	80.2	-96.5	0.0
2026-01-20 00:42:01.453724	22.7	80.9	-96.4	0.0
2026-01-20 00:42:02.588845	23.2	81.6	-96.3	0.0
2026-01-20 00:42:03.722723	23.8	82.2	-96.4	0.0
2026-01-20 00:42:04.858966	24.5	82.9	-96.5	0.0
2026-01-20 00:42:06.002822	25.3	83.6	-96.5	0.0
2026-01-20 00:42:07.140681	26.4	84.3	-96.5	0.0
2026-01-20 00:42:08.276194	27.8	85.0	-96.5	0.0
2026-01-20 00:42:09.413811	29.6	85.7	-96.4	0.0
2026-01-20 00:42:10.550412	32.1	86.4	-96.5	0.0
2026-01-20 00:42:11.687308	35.7	87.1	-96.3	0.0
2026-01-20 00:42:12.827813	41.5	87.7	-96.4	0.0
2026-01-20 00:42:13.962818	51.8	88.3	-96.5	0.0
2026-01-20 00:42:15.100796	72.4	88.8	-96.4	0.0
2026-01-20 00:42:16.241796	110.4	89.0	-96.5	0.0
2026-01-20 00:42:17.380560	145.7	88.8	-96.4	0.0
2026-01-20 00:42:18.519009	164.0	88.2	-96.5	0.0
2026-01-20 00:42:19.659790	173.3	87.6	-96.4	0.0
2026-01-20 00:42:20.797066	178.6	87.0	-96.6	0.0
2026-01-20 00:42:21.932667	182.0	86.3	-96.4	0.0
2026-01-20 00:42:23.069118	184.4	85.6	-96.4	0.0
2026-01-20 00:42:24.207188	186.1	84.9	-96.4	0.0
2026-01-20 00:42:25.344859	187.4	84.2	-96.5	0.0
2026-01-20 00:42:26.481185	188.4	83.5	-96.4	0.0
2026-01-20 00:42:27.619780	189.3	82.8	-96.4	0.0
2026-01-20 00:42:28.757843	189.9	82.1	-96.5	0.0
2026-01-20 00:42:29.891290	190.5	81.4	-96.5	0.0
2026-01-20 00:42:31.027192	191.0	80.7	-96.7	0.0
2026-01-20 00:42:32.169265	191.4	80.1	-96.4	0.0
2026-01-20 00:42:33.310630	191.8	79.4	-96.4	0.0
2026-01-20 00:42:34.450833	192.1	78.7	-96.5	0.0
2026-01-20 00:42:35.591865	192.4	78.0	-96.5	0.0
2026-01-20 00:42:36.731609	192.6	77.3	-96.5	0.0
2026-01-20 00:42:37.871200	192.9	76.6	-96.2	0.0
2026-01-20 00:42:39.007925	193.1	76.0	-96.5	0.0
2026-01-20 00:42:40.146276	193.3	75.3	-96.4	0.0
2026-01-20 00:42:41.285837	193.4	74.6	-96.3	0.0
2026-01-20 00:42:42.420541	193.6	74.0	-96.5	0.0
2026-01-20 00:42:43.557901	193.7	73.3	-96.5	0.0
2026-01-20 00:42:44.695024	193.8	72.7	-96.5	0.0
2026-01-20 00:42:45.831892	194.0	72.0	-96.3	0.0
2026-01-20 00:42:46.971232	194.1	71.3	-96.7	0.0
2026-01-20 00:42:48.110796	194.2	70.7	-96.3	0.0
2026-01-20 00:42:49.249570	194.3	70.1	-96.6	0.0
2026-01-20 00:42:50.387794	194.4	69.4	-96.3	0.0
2026-01-20 00:42:51.524836	194.5	68.8	-96.4	0.0
2026-01-20 00:42:52.661183	194.5	68.2	-96.4	0.0
2026-01-20 00:42:53.798633	194.6	67.5	-96.5	0.0
2026-01-20 00:42:54.935625	194.7	66.9	-96.4	0.0
2026-01-20 00:42:56.071282	194.8	66.3	-96.4	0.0
2026-01-20 00:42:57.206769	194.8	65.7	-96.4	0.0
2026-01-20 00:42:58.341483	194.9	65.1	-96.6	0.0
2026-01-20 00:42:59.477062	194.9	64.5	-96.4	0.0
2026-01-20 00:43:00.613242	195.0	63.9	-96.5	0.0
2026-01-20 00:43:01.752633	195.0	63.3	-96.4	0.0
2026-01-20 00:43:02.889219	195.1	62.7	-96.5	0.0
2026-01-20 00:43:04.026255	195.1	62.2	-96.4	0.0
2026-01-20 00:43:05.158334	195.2	61.6	-96.5	0.0
2026-01-20 00:43:06.291902	195.2	61.0	-96.3	0.0
2026-01-20 00:43:07.431084	195.3	60.5	-96.7	0.0
2026-01-20 00:43:08.570300	195.3	59.9	-96.5	0.0
2026-01-20 00:43:09.707025	195.4	59.3	-96.6	0.0
2026-01-20 00:43:10.841960	195.4	58.8	-96.4	0.0
2026-01-20 00:43:11.980744	195.4	58.3	-96.7	0.0
2026-01-20 00:43:13.119390	195.5	57.7	-96.5	0.0
2026-01-20 00:43:14.252613	195.5	57.2	-96.5	0.0
2026-01-20 00:43:15.392648	195.5	56.7	-96.4	0.0
2026-01-20 00:43:16.543162	195.6	56.1	-96.6	0.0
2026-01-20 00:43:17.678795	195.6	55.6	-96.5	0.0
2026-01-20 00:43:18.810973	195.6	55.1	-96.5	0.0
2026-01-20 00:43:19.947325	195.7	54.6	-96.5	0.0
2026-01-20 00:43:21.084652	195.7	54.1	-96.4	0.0
2026-01-20 00:43:22.226956	195.7	53.6	-96.4	0.0
2026-01-20 00:43:23.365172	195.7	53.1	-96.5	0.0
2026-01-20 00:43:24.507970	195.8	52.6	-96.3	0.0
2026-01-20 00:43:25.641555	195.8	52.1	-96.3	0.0
2026-01-20 00:43:26.776243	195.8	51.6	-96.4	0.0
2026-01-20 00:43:27.911775	195.8	51.2	-96.5	0.0
2026-01-20 00:43:29.045753	195.9	50.7	-96.6	0.0
2026-01-20 00:43:30.178208	195.9	50.2	-96.4	0.0
2026-01-20 00:43:31.314569	195.9	49.8	-96.5	0.0
2026-01-20 00:43:32.453640	195.9	49.3	-96.3	0.0
2026-01-20 00:43:33.593828	195.9	48.9	-96.6	0.0
2026-01-20 00:43:34.730621	196.0	48.4	-96.6	0.0
2026-01-20 00:43:35.866715	196.0	48.0	-96.5	0.0
2026-01-20 00:43:37.002715	196.0	47.6	-96.5	0.0
2026-01-20 00:43:38.145585	196.0	47.1	-96.4	0.0
2026-01-20 00:43:39.281963	196.0	46.7	-96.5	0.0
2026-01-20 00:43:40.416054	196.1	46.3	-96.5	0.0
2026-01-20 00:43:41.549864	196.1	45.9	-96.5	0.0
2026-01-20 00:43:42.687529	196.1	45.5	-96.5	0.0
2026-01-20 00:43:43.822888	196.1	45.1	-96.5	0.0
2026-01-20 00:43:44.961580	196.1	44.6	-96.4	0.0
2026-01-20 00:43:46.100016	196.1	44.2	-96.5	0.0
2026-01-20 00:43:47.236688	196.2	43.9	-96.6	0.0
2026-01-20 00:43:48.371594	196.2	43.5	-96.5	0.0
2026-01-20 00:43:49.504075	196.2	43.1	-96.6	0.0
2026-01-20 00:43:50.639417	196.2	42.7	-96.5	0.0
2026-01-20 00:43:51.774368	196.2	42.3	-96.6	0.0
2026-01-20 00:43:52.911323	196.2	41.9	-96.6	0.0
2026-01-20 00:43:54.044050	196.2	41.6	-96.4	0.0
2026-01-20 00:43:55.178864	196.3	41.2	-96.5	0.0
2026-01-20 00:43:56.316752	196.3	40.8	-96.5	0.0
2026-01-20 00:43:57.455147	196.3	40.5	-96.4	0.0
2026-01-20 00:43:58.588139	196.3	40.1	-96.4	0.0
2026-01-20 00:43:59.727510	196.3	39.8	-96.5	0.0
2026-01-20 00:44:00.858930	196.3	39.4	-96.5	0.0
2026-01-20 00:44:01.992289	196.3	39.1	-96.4	0.0
2026-01-20 00:44:03.128518	196.4	38.7	-96.4	0.0
2026-01-20 00:44:04.268130	196.4	38.4	-96.4	0.0
2026-01-20 00:44:05.402009	196.4	38.1	-96.6	0.0
2026-01-20 00:44:06.541067	196.4	37.7	-96.4	0.0
2026-01-20 00:44:07.682447	196.4	37.4	-96.4	0.0
2026-01-20 00:44:08.822623	196.4	37.1	-96.5	0.0
2026-01-20 00:44:09.959456	196.4	36.8	-96.5	0.0
2026-01-20 00:44:11.096020	196.4	36.5	-96.5	0.0
2026-01-20 00:44:12.227940	196.4	36.1	-96.5	0.0
2026-01-20 00:44:13.368030	196.5	35.8	-96.6	0.0
2026-01-20 00:44:14.505174	196.5	35.5	-96.5	0.0
2026-01-20 00:44:15.639245	196.5	35.2	-96.5	0.0
2026-01-20 00:44:16.781002	196.5	34.9	-96.7	0.0
2026-01-20 00:44:17.923165	196.5	34.6	-96.3	0.0
2026-01-20 00:44:19.064030	196.5	34.3	-96.5	0.0
2026-01-20 00:44:20.210012	196.5	34.0	-96.4	0.0
2026-01-20 00:44:21.347352	196.5	33.7	-96.6	0.0
2026-01-20 00:44:22.484627	196.5	33.5	-96.4	0.0
2026-01-20 00:44:23.626041	196.6	33.2	-96.5	0.0
2026-01-20 00:44:24.763628	196.6	32.9	-96.4	0.0
2026-01-20 00:44:25.908478	196.6	32.6	-96.4	0.0
2026-01-20 00:44:27.044913	196.6	32.3	-96.3	0.0
2026-01-20 00:44:28.186732	196.6	32.1	-96.5	0.0
2026-01-20 00:44:29.326450	196.6	31.8	-96.3	0.0
2026-01-20 00:44:30.462824	196.6	31.5	-96.5	0.0
2026-01-20 00:44:31.600650	196.6	31.3	-96.3	0.0
2026-01-20 00:44:32.737102	196.6	31.0	-96.6	0.0
2026-01-20 00:44:33.870866	196.6	30.7	-96.4	0.0
2026-01-20 00:44:35.005346	196.6	30.5	-96.4	0.0
2026-01-20 00:44:36.142908	196.7	30.2	-96.4	0.0
2026-01-20 00:44:37.285044	196.7	30.0	-96.5	0.0
2026-01-20 00:44:38.423421	196.7	29.7	-96.5	0.0
2026-01-20 00:44:39.561021	196.7	29.5	-96.4	0.0
2026-01-20 00:44:40.701729	196.7	29.2	-96.6	0.0
2026-01-20 00:44:41.837497	196.7	29.0	-96.5	0.0
2026-01-20 00:44:42.980014	196.7	28.7	-96.3	0.0
2026-01-20 00:44:44.120385	196.7	28.5	-96.5	0.0
2026-01-20 00:44:45.257554	196.7	28.3	-96.7	0.0
2026-01-20 00:44:46.397848	196.7	28.0	-96.4	0.0
2026-01-20 00:44:47.531598	196.7	27.8	-96.4	0.0
2026-01-20 00:44:48.667457	196.7	27.6	-96.6	0.0
2026-01-20 00:44:49.807451	196.8	27.3	-96.6	0.0
2026-01-20 00:44:50.941667	196.8	27.1	-96.4	0.0
2026-01-20 00:44:52.082639	196.8	26.9	-96.4	0.0
2026-01-20 00:44:53.221902	196.8	26.7	-96.4	0.0
2026-01-20 00:44:54.358516	196.8	26.4	-96.3	0.0
2026-01-20 00:44:55.499302	196.8	26.2	-96.5	0.0
2026-01-20 00:44:56.635194	196.8	26.0	-96.5	0.0
2026-01-20 00:44:57.769867	196.8	25.8	-96.6	0.0
2026-01-20 00:44:58.901758	196.8	25.6	-96.5	0.0
2026-01-20 00:45:00.039362	196.8	25.4	-96.3	0.0
2026-01-20 00:45:01.179446	196.8	25.2	-96.5	0.0
2026-01-20 00:45:02.317045	196.8	25.0	-96.3	0.0
2026-01-20 00:45:03.453379	196.8	24.8	-96.3	0.0
2026-01-20 00:45:04.586312	196.9	24.5	-96.3	0.0
2026-01-20 00:45:05.722654	196.9	24.3	-96.7	0.0
2026-01-20 00:45:06.860008	196.9	24.1	-96.5	0.0
2026-01-20 00:45:08.004559	196.9	23.9	-96.4	0.0
2026-01-20 00:45:09.140672	196.9	23.7	-96.3	0.0
2026-01-20 00:45:10.279884	196.9	23.6	-96.5	0.0
2026-01-20 00:45:11.428324	196.9	23.4	-96.5	0.0
2026-01-20 00:45:12.565718	196.9	23.2	-96.4	0.0
2026-01-20 00:45:13.702946	196.9	23.0	-96.4	0.0
2026-01-20 00:45:14.841720	196.9	22.8	-96.6	0.0
2026-01-20 00:45:15.984804	196.9	22.6	-96.5	0.0
2026-01-20 00:45:17.122803	196.9	22.4	-96.5	0.0
2026-01-20 00:45:18.261435	196.9	22.2	-96.5	0.0
2026-01-20 00:45:19.397416	196.9	22.0	-96.5	0.0
2026-01-20 00:45:20.552438	196.9	21.9	-96.5	0.0
2026-01-20 00:45:21.686442	197.0	21.7	-96.6	0.0
2026-01-20 00:45:22.825073	197.0	21.5	-96.4	0.0
2026-01-20 00:45:23.962471	197.0	21.3	-96.4	0.0
2026-01-20 00:45:25.101999	197.0	21.1	-96.4	0.0
2026-01-20 00:45:26.238521	197.0	21.0	-96.5	0.0
2026-01-20 00:45:27.371381	197.0	20.8	-96.4	0.0
2026-01-20 00:45:28.509040	197.0	20.6	-96.4	0.0
2026-01-20 00:45:29.644861	197.0	20.4	-96.4	0.0
2026-01-20 00:45:30.779527	197.0	20.3	-96.4	0.0
2026-01-20 00:45:31.917381	197.0	20.1	-96.5	0.0
2026-01-20 00:45:33.055137	197.0	19.9	-96.5	0.0
2026-01-20 00:45:34.193700	197.0	19.8	-96.4	0.0
2026-01-20 00:45:35.331796	197.0	19.6	-96.5	0.0
2026-01-20 00:45:36.470148	197.0	19.4	-96.5	0.0
2026-01-20 00:45:37.605052	197.0	19.3	-96.4	0.0
2026-01-20 00:45:38.740622	197.0	19.1	-96.3	0.0
2026-01-20 00:45:39.882982	197.1	19.0	-96.4	0.0
2026-01-20 00:45:41.014751	197.1	18.8	-96.4	0.0
2026-01-20 00:45:42.149754	197.1	18.6	-96.5	0.0
2026-01-20 00:45:43.285345	197.1	18.5	-96.3	0.0
2026-01-20 00:45:44.426008	197.1	18.3	-96.4	0.0
2026-01-20 00:45:45.564496	197.1	18.2	-96.4	0.0
2026-01-20 00:45:46.702460	197.1	18.0	-96.4	0.0
2026-01-20 00:45:47.835966	197.1	17.9	-96.4	0.0
2026-01-20 00:45:48.974931	197.1	17.7	-96.5	0.0
2026-01-20 00:45:50.116514	197.1	17.6	-96.5	0.0
2026-01-20 00:45:51.252178	197.1	17.4	-96.4	0.0
2026-01-20 00:45:52.390138	197.1	17.3	-96.6	0.0
2026-01-20 00:45:53.525723	197.1	17.1	-96.4	0.0
2026-01-20 00:45:54.660926	197.1	17.0	-96.5	0.0
2026-01-20 00:45:55.795420	197.1	16.8	-96.5	0.0
2026-01-20 00:45:56.944182	197.1	16.7	-96.5	0.0
2026-01-20 00:45:58.076521	197.1	16.5	-96.5	0.0
2026-01-20 00:45:59.212482	197.2	16.4	-96.5	0.0
2026-01-20 00:46:00.352670	197.2	16.3	-96.5	0.0
2026-01-20 00:46:01.489353	197.2	16.1	-96.5	0.0
2026-01-20 00:46:02.628125	197.2	16.0	-96.4	0.0
2026-01-20 00:46:03.764967	197.2	15.8	-96.3	0.0
2026-01-20 00:46:04.900744	197.2	15.7	-96.4	0.0
2026-01-20 00:46:06.044610	197.2	15.6	-96.4	0.0
2026-01-20 00:46:07.177471	197.2	15.4	-96.4	0.0
2026-01-20 00:46:08.312386	197.2	15.3	-96.4	0.0
2026-01-20 00:46:09.448976	197.2	15.2	-96.4	0.0
2026-01-20 00:46:10.591382	197.2	15.0	-96.5	0.0
#Closed at: 2026-01-20 00:38:14.987120