passes_logs/2026/01/26/R2.0S_Moscow/R2.0S_Moscow__20260126_230931_SUOMI_NPP_rec.log

#Pass ID: 20260126_230931_SUOMI NPP
#Satellite: SUOMI NPP
#Configuration: NPP
#almurnet v.1.7.20251203
#Start time: 2026-01-26 23:09:31

#Version: 2.2.20231116
#Station: R2.0S_Moscow
#Location: 37.707566 lon 55.798166 lat
#TLE: 1 37849U 11061A   26026.52266023  .00000173  00000+0  10323-3 0  9994
#TLE: 2 37849  98.7822 328.4727 0002140  43.9411 316.1934 14.19530258738341

#Time	Az	El	Level	Level2	SNR	BER	BlckErr	Temp	State	Recorded	gain1	gain2
2026-01-26 23:09:31.20	19.13	2.00	-42.1	-56.6	3.8	1.49e+00	0	52	0	0	56	18451
2026-01-26 23:09:35.23	19.25	2.25	-41.9	-56.4	3.8	1.49e+00	0	53	104	0	55	19162
2026-01-26 23:09:39.27	19.38	2.51	-41.9	-56.4	3.8	1.49e+00	0	53	104	0	55	19096
2026-01-26 23:09:43.31	19.51	2.76	-41.9	-56.4	3.8	1.49e+00	0	54	104	0	55	19068
2026-01-26 23:09:47.35	19.64	3.02	-41.9	-56.4	3.8	1.49e+00	0	54	104	0	55	19140
2026-01-26 23:09:51.40	19.77	3.29	-41.9	-56.4	3.8	1.49e+00	0	54	104	0	55	19036
2026-01-26 23:09:55.44	19.90	3.55	-41.8	-56.4	3.8	1.49e+00	0	54	104	0	55	19073
2026-01-26 23:09:59.48	20.04	3.82	-41.9	-56.4	3.8	1.49e+00	0	54	104	0	55	19011
2026-01-26 23:10:03.52	20.17	4.08	-41.8	-56.4	3.8	1.49e+00	0	55	104	0	55	19086
2026-01-26 23:10:07.56	20.31	4.36	-41.8	-56.4	3.8	1.49e+00	0	55	104	0	55	19072
2026-01-26 23:10:11.60	20.45	4.63	-41.8	-56.4	3.8	1.49e+00	0	55	104	0	55	19019
2026-01-26 23:10:15.64	20.60	4.91	-41.8	-56.4	3.8	1.49e+00	0	55	104	0	55	19014
2026-01-26 23:10:19.69	20.75	5.19	-41.8	-56.4	3.8	1.49e+00	0	56	104	0	55	19053
2026-01-26 23:10:23.73	20.89	5.47	-41.8	-56.4	3.8	1.49e+00	0	56	104	0	55	19064
2026-01-26 23:10:27.77	21.05	5.75	-41.8	-56.4	3.8	1.49e+00	0	56	104	0	55	19069
2026-01-26 23:10:31.81	21.20	6.04	-41.9	-56.4	3.8	1.49e+00	0	56	104	0	55	19063
2026-01-26 23:10:35.86	21.36	6.33	-41.8	-56.4	3.8	1.49e+00	0	56	104	0	55	19060
2026-01-26 23:10:39.90	21.52	6.63	-41.8	-56.4	3.8	1.49e+00	0	56	104	0	55	19033
2026-01-26 23:10:43.94	21.68	6.93	-41.8	-56.4	3.8	1.49e+00	0	57	104	0	55	18973
2026-01-26 23:10:47.98	21.85	7.23	-41.8	-56.0	3.8	1.49e+00	0	57	104	0	55	18152
2026-01-26 23:10:52.02	22.02	7.53	-41.8	-55.6	3.8	1.49e+00	0	57	104	0	55	17439
2026-01-26 23:10:56.06	22.19	7.84	-41.6	-52.5	4.3	1.45e+00	0	57	0	0	55	12162
2026-01-26 23:11:00.11	22.36	8.15	-41.6	-49.5	6.1	3.28e-01	0	57	0	7340032	54	9084
2026-01-26 23:11:04.15	22.54	8.47	-42.1	-49.2	6.9	6.62e-02	0	58	0	10485760	54	8798
2026-01-26 23:11:08.19	22.73	8.78	-41.7	-47.6	8.6	3.06e-02	0	58	0	18874368	54	7360
2026-01-26 23:11:12.23	22.91	9.11	-41.8	-47.6	8.8	2.99e-02	0	58	0	26214400	54	7360
2026-01-26 23:11:16.27	23.10	9.43	-41.8	-47.3	9.4	1.62e-02	0	58	0	33554432	54	7043
2026-01-26 23:11:20.31	23.29	9.77	-42.1	-47.8	9.0	1.57e-02	0	58	0	40894464	54	7514
2026-01-26 23:11:24.35	23.49	10.10	-42.0	-47.3	9.7	1.24e-02	0	58	0	49283072	54	7056
2026-01-26 23:11:28.39	23.69	10.44	-41.9	-47.0	10.0	1.04e-02	0	58	0	56623104	54	6872
2026-01-26 23:11:32.43	23.90	10.78	-41.9	-46.8	10.3	5.81e-03	0	59	0	63963136	54	6682
2026-01-26 23:11:36.47	24.11	11.13	-41.9	-46.6	10.6	3.58e-03	0	59	0	71303168	54	6543
2026-01-26 23:11:40.51	24.33	11.49	-42.0	-46.7	10.6	3.14e-03	0	59	0	78643200	54	6628
2026-01-26 23:11:44.55	24.55	11.85	-41.8	-46.4	10.9	2.06e-03	0	59	0	87031808	54	6374
2026-01-26 23:11:48.59	24.77	12.21	-41.8	-46.3	11.1	1.81e-03	0	59	0	94371840	54	6279
2026-01-26 23:11:52.63	25.00	12.58	-41.7	-46.0	11.4	8.21e-04	0	59	0	101711872	54	6071
2026-01-26 23:11:56.67	25.24	12.95	-41.6	-45.7	11.8	6.24e-04	0	59	0	109051904	54	5885
2026-01-26 23:12:00.71	25.48	13.33	-41.5	-45.4	12.1	2.47e-04	0	59	0	116391936	54	5703
2026-01-26 23:12:04.74	25.73	13.71	-41.4	-45.1	12.4	1.24e-04	0	59	0	124780544	54	5519
2026-01-26 23:12:08.78	25.98	14.10	-41.3	-45.0	12.6	7.85e-05	0	59	0	132120576	54	5426
2026-01-26 23:12:12.82	26.24	14.50	-41.4	-45.2	12.5	9.07e-05	0	59	0	139460608	54	5539
2026-01-26 23:12:16.86	26.51	14.90	-41.3	-45.0	12.8	6.71e-05	0	59	0	146800640	54	5403
2026-01-26 23:12:20.90	26.78	15.31	-41.1	-44.6	13.0	5.18e-05	0	59	0	155189248	54	5204
2026-01-26 23:12:24.94	27.06	15.73	-41.2	-44.7	13.0	5.26e-05	0	60	0	162529280	54	5235
2026-01-26 23:12:28.98	27.35	16.15	-41.2	-44.6	13.1	3.43e-05	0	60	0	169869312	54	5202
2026-01-26 23:12:33.03	27.65	16.58	-41.2	-44.6	13.2	2.05e-05	0	60	0	177209344	54	5211
2026-01-26 23:12:37.06	27.95	17.01	-41.1	-44.5	13.3	1.37e-05	0	60	0	184549376	54	5139
2026-01-26 23:12:41.11	28.26	17.46	-41.1	-44.5	13.4	8.30e-06	0	60	0	192937984	54	5107
2026-01-26 23:12:45.15	28.59	17.91	-41.0	-44.3	13.6	1.22e-05	0	60	0	200278016	53	5306
2026-01-26 23:12:49.18	28.91	18.36	-41.2	-44.6	13.4	9.10e-06	0	60	0	207618048	53	5466
2026-01-26 23:12:53.22	29.26	18.83	-41.3	-44.7	13.2	1.60e-05	0	60	0	214958080	53	5550
2026-01-26 23:12:57.26	29.61	19.30	-41.2	-44.5	13.4	1.37e-05	0	60	0	223346688	53	5446
2026-01-26 23:13:01.30	29.97	19.78	-41.1	-44.4	13.5	8.30e-06	0	60	0	230686720	53	5388
2026-01-26 23:13:05.34	30.34	20.27	-41.2	-44.5	13.5	1.37e-05	0	60	0	238026752	53	5407
2026-01-26 23:13:09.38	30.72	20.77	-41.1	-44.4	13.6	8.30e-06	0	60	0	245366784	53	5359
2026-01-26 23:13:13.42	31.12	21.28	-41.1	-44.3	13.6	3.80e-06	0	60	0	252706816	53	5336
2026-01-26 23:13:17.46	31.53	21.80	-41.2	-44.4	13.6	7.60e-06	0	60	0	261095424	53	5391
2026-01-26 23:13:21.49	31.95	22.32	-41.2	-44.5	13.6	6.10e-06	0	60	0	268435456	53	5420
2026-01-26 23:13:25.53	32.38	22.86	-41.0	-44.1	14.0	3.80e-06	0	60	0	275775488	53	5204
2026-01-26 23:13:29.57	32.83	23.40	-41.2	-44.4	13.6	5.30e-06	0	61	0	283115520	53	5375
2026-01-26 23:13:33.61	33.30	23.96	-41.4	-44.9	13.1	1.52e-05	0	60	0	291504128	53	5684
2026-01-26 23:13:37.64	33.78	24.52	-41.3	-44.6	13.4	1.29e-05	0	60	0	298844160	53	5523
2026-01-26 23:13:41.68	34.28	25.10	-41.4	-44.7	13.4	1.60e-05	0	60	0	306184192	53	5587
2026-01-26 23:13:45.72	34.80	25.68	-41.4	-44.8	13.3	2.36e-05	0	60	0	313524224	53	5615
2026-01-26 23:13:49.76	35.33	26.28	-41.6	-45.2	12.9	4.88e-05	0	61	0	320864256	54	5561
2026-01-26 23:13:53.80	35.89	26.89	-41.6	-45.1	12.9	4.57e-05	0	60	0	329252864	54	5523
2026-01-26 23:13:57.84	36.47	27.51	-41.8	-45.5	12.6	4.95e-05	0	60	0	336592896	54	5725
2026-01-26 23:14:01.88	37.07	28.14	-42.1	-46.0	12.1	1.68e-04	0	61	0	343932928	54	6095
2026-01-26 23:14:05.92	37.69	28.78	-42.4	-46.8	11.3	7.08e-04	0	61	0	351272960	55	6296
2026-01-26 23:14:09.96	38.34	29.43	-43.1	-48.1	10.1	5.34e-03	0	61	0	359661568	56	6930
2026-01-26 23:14:13.99	39.02	30.10	-43.0	-47.8	10.5	5.40e-03	0	61	0	367001600	56	6674
2026-01-26 23:14:18.03	39.72	30.77	-42.9	-47.6	10.7	2.45e-03	0	61	0	374341632	56	6525
2026-01-26 23:14:22.07	40.45	31.46	-42.6	-47.0	11.3	8.88e-04	0	61	0	381681664	56	6081
2026-01-26 23:14:26.11	41.22	32.16	-42.5	-46.6	11.7	6.02e-04	0	61	0	389021696	56	5823
2026-01-26 23:14:30.16	42.01	32.87	-42.6	-47.0	11.4	1.28e-03	0	61	0	397410304	56	6067
2026-01-26 23:14:34.19	42.84	33.59	-42.0	-45.6	12.8	1.02e-04	0	61	0	404750336	56	5174
2026-01-26 23:14:38.23	43.71	34.32	-42.0	-45.9	12.4	7.32e-05	0	61	0	412090368	55	5657
2026-01-26 23:14:42.27	44.62	35.06	-42.2	-46.1	12.1	2.23e-04	0	61	0	419430400	55	5805
2026-01-26 23:14:46.31	45.57	35.81	-42.1	-45.9	12.3	2.39e-04	0	61	0	427819008	55	5718
2026-01-26 23:14:50.34	46.57	36.57	-41.7	-45.2	13.0	4.27e-05	0	61	0	435159040	55	5277
2026-01-26 23:14:54.38	47.61	37.34	-41.8	-45.3	12.9	5.49e-05	0	61	0	442499072	55	5308
2026-01-26 23:14:58.42	48.70	38.11	-41.4	-44.6	13.6	1.22e-05	0	61	0	449839104	54	5209
2026-01-26 23:15:02.46	49.84	38.89	-41.7	-45.3	13.0	1.44e-05	0	61	0	457179136	54	5600
2026-01-26 23:15:06.50	51.04	39.68	-41.9	-45.6	12.7	1.13e-04	0	61	0	465567744	54	5827
2026-01-26 23:15:10.54	52.30	40.47	-41.8	-45.3	13.0	3.20e-05	0	61	0	472907776	54	5652
2026-01-26 23:15:14.58	53.62	41.26	-41.5	-44.7	13.6	1.29e-05	0	61	0	480247808	54	5261
2026-01-26 23:15:18.62	55.01	42.05	-42.1	-45.9	12.5	1.79e-04	0	61	0	487587840	54	6025
2026-01-26 23:15:22.66	56.46	42.84	-41.9	-45.4	12.9	3.96e-05	0	61	0	495976448	54	5714
2026-01-26 23:15:26.70	57.99	43.62	-41.8	-45.3	13.0	4.04e-05	0	61	0	503316480	54	5650
2026-01-26 23:15:30.74	59.59	44.40	-42.1	-45.8	12.5	8.62e-05	0	61	0	510656512	55	5642
2026-01-26 23:15:34.78	61.27	45.17	-42.3	-46.2	12.2	1.05e-04	0	61	0	517996544	55	5865
2026-01-26 23:15:38.82	63.04	45.92	-42.6	-47.0	11.3	7.38e-04	0	61	0	525336576	55	6462
2026-01-26 23:15:42.87	64.89	46.66	-42.0	-45.7	12.7	5.79e-05	0	61	0	533725184	55	5544
2026-01-26 23:15:46.90	66.82	47.38	-41.4	-44.5	13.8	2.20e-06	0	61	0	541065216	54	5136
2026-01-26 23:15:50.94	68.84	48.07	-41.6	-44.9	13.5	5.30e-06	0	61	0	548405248	54	5346
2026-01-26 23:15:54.98	70.96	48.73	-41.8	-45.2	13.1	3.58e-05	0	61	0	555745280	54	5572
2026-01-26 23:15:59.02	73.16	49.36	-42.2	-46.1	12.3	1.01e-04	0	62	0	564133888	55	5805
2026-01-26 23:16:03.06	75.46	49.95	-42.4	-46.3	12.0	3.03e-04	0	61	0	571473920	55	5990
2026-01-26 23:16:07.11	77.84	50.50	-42.6	-46.8	11.6	4.37e-04	0	61	0	578813952	55	6312
2026-01-26 23:16:11.15	80.31	51.01	-42.8	-47.3	11.2	2.02e-03	0	61	0	586153984	56	6284
2026-01-26 23:16:15.19	82.85	51.46	-42.4	-46.2	12.3	2.33e-04	0	62	0	593494016	56	5585
2026-01-26 23:16:19.23	85.47	51.85	-41.8	-45.2	13.3	2.13e-05	0	61	0	601882624	55	5224
2026-01-26 23:16:23.26	88.15	52.19	-41.6	-44.9	13.6	8.30e-06	0	61	0	609222656	54	5373
2026-01-26 23:16:27.30	90.88	52.46	-42.3	-46.2	12.1	3.34e-04	0	62	0	616562688	55	5900
2026-01-26 23:16:31.34	93.67	52.67	-42.0	-45.7	12.7	2.97e-05	0	62	0	623902720	54	5871
2026-01-26 23:16:35.38	96.48	52.80	-42.4	-46.4	11.8	2.43e-04	0	62	0	632291328	55	6057
2026-01-26 23:16:39.42	99.32	52.87	-42.3	-46.1	12.1	3.38e-04	0	61	0	639631360	55	5835
2026-01-26 23:16:43.47	102.17	52.87	-42.5	-46.6	11.7	5.01e-04	0	62	0	646971392	55	6201
2026-01-26 23:16:47.51	105.00	52.79	-42.3	-46.1	12.5	1.70e-04	0	62	0	654311424	56	5503
2026-01-26 23:16:51.55	107.82	52.65	-41.6	-45.0	13.4	1.14e-05	0	62	0	662700032	54	5404
2026-01-26 23:16:55.59	110.60	52.44	-40.1	-42.5	15.8	0.00e+00	0	62	0	670040064	52	4588
2026-01-26 23:16:59.63	113.33	52.16	-41.6	-44.9	13.5	6.80e-06	0	62	0	677380096	53	5707
2026-01-26 23:17:03.67	116.01	51.82	-42.4	-46.5	11.9	1.65e-04	0	62	0	684720128	55	6080
2026-01-26 23:17:07.71	118.63	51.42	-41.4	-44.6	13.8	5.30e-06	0	61	0	692060160	54	5179
2026-01-26 23:17:11.75	121.17	50.96	-41.5	-44.7	13.7	0.00e+00	0	62	0	700448768	53	5570
2026-01-26 23:17:15.79	123.63	50.45	-41.7	-45.1	13.3	2.67e-05	0	62	0	707788800	55	5195
2026-01-26 23:17:19.83	126.01	49.90	-41.5	-44.7	13.7	8.30e-06	0	62	0	715128832	54	5269
2026-01-26 23:17:23.87	128.30	49.30	-42.2	-46.0	12.3	1.62e-04	0	62	0	722468864	55	5749
2026-01-26 23:17:27.90	130.49	48.66	-41.8	-45.3	13.1	1.50e-06	0	62	0	730857472	54	5596
2026-01-26 23:17:31.94	132.60	48.00	-42.9	-47.3	11.1	1.25e-03	0	62	0	738197504	56	6342
2026-01-26 23:17:35.98	134.62	47.30	-43.8	-49.7	8.7	3.81e-02	0	62	0	745537536	58	7438
2026-01-26 23:17:40.02	136.55	46.58	-44.0	-50.5	7.9	5.31e-02	0	62	0	752877568	58	8149
2026-01-26 23:17:44.06	138.40	45.84	-43.6	-49.2	9.2	9.03e-03	0	62	0	760217600	57	7428
2026-01-26 23:17:48.10	140.16	45.08	-44.0	-50.4	8.0	1.24e-01	0	62	0	768606208	59	7606
2026-01-26 23:17:52.13	141.83	44.31	-44.5	-52.8	5.9	4.02e-01	0	62	0	775946240	59	9999
2026-01-26 23:17:56.18	143.44	43.52	-45.0	-58.0	3.8	1.48e+00	0	62	104	782237696	60	17237
2026-01-26 23:18:00.22	144.96	42.74	-44.0	-50.6	7.6	1.68e-01	0	62	0	785383424	59	7783
2026-01-26 23:18:04.26	146.41	41.94	-44.3	-52.6	6.1	4.20e-01	0	62	0	792723456	60	9184
2026-01-26 23:18:08.30	147.79	41.15	-44.9	-57.8	3.8	1.46e+00	0	62	104	799014912	60	16751
2026-01-26 23:18:12.34	149.11	40.35	-42.4	-46.3	12.1	3.56e-04	0	62	0	801112064	56	5637
2026-01-26 23:18:16.38	150.36	39.56	-44.1	-51.4	7.0	1.88e-01	0	62	0	808452096	59	8503
2026-01-26 23:18:20.42	151.56	38.77	-43.2	-48.3	10.1	5.34e-03	0	62	0	816840704	57	6650
2026-01-26 23:18:24.45	152.70	37.99	-43.3	-48.4	9.8	6.99e-03	0	62	0	824180736	58	6355
2026-01-26 23:18:28.49	153.79	37.21	-42.0	-45.7	12.7	8.46e-05	0	62	0	831520768	56	5227
2026-01-26 23:18:32.53	154.83	36.44	-42.4	-46.6	11.6	7.27e-04	0	62	0	838860800	55	6144
2026-01-26 23:18:36.57	155.82	35.68	-41.8	-45.4	12.8	1.29e-05	0	62	0	847249408	54	5661
2026-01-26 23:18:40.61	156.76	34.92	-43.3	-48.7	9.5	1.11e-02	0	62	0	854589440	57	6989
2026-01-26 23:18:44.65	157.67	34.18	-42.8	-47.4	10.7	5.29e-03	0	62	0	861929472	57	6054
2026-01-26 23:18:48.69	158.54	33.44	-42.6	-46.9	11.3	8.57e-04	0	62	0	869269504	56	6033
2026-01-26 23:18:52.73	159.37	32.72	-43.3	-48.7	9.5	1.37e-02	0	62	0	876609536	57	6964
2026-01-26 23:18:56.77	160.16	32.01	-42.4	-46.4	11.8	4.21e-04	0	62	0	884998144	56	5690
2026-01-26 23:19:00.81	160.92	31.31	-42.7	-47.1	10.9	2.52e-03	0	62	0	892338176	56	6185
2026-01-26 23:19:04.85	161.65	30.62	-42.7	-47.1	11.0	1.35e-03	0	62	0	899678208	56	6198
2026-01-26 23:19:08.88	162.35	29.94	-43.2	-48.5	9.5	1.58e-02	0	62	0	907018240	57	6822
2026-01-26 23:19:12.92	163.02	29.27	-43.0	-48.1	9.9	1.29e-02	0	62	0	915406848	57	6513
2026-01-26 23:19:16.95	163.67	28.62	-41.5	-45.0	13.0	4.73e-05	0	62	0	922746880	54	5423
2026-01-26 23:19:21.00	164.29	27.98	-41.6	-45.3	12.7	1.87e-04	0	62	0	930086912	54	5609
2026-01-26 23:19:25.04	164.89	27.34	-41.7	-45.3	12.7	5.34e-05	0	62	0	937426944	54	5594
2026-01-26 23:19:29.07	165.46	26.72	-41.9	-45.7	12.3	1.41e-04	0	62	0	944766976	54	5885
2026-01-26 23:19:33.11	166.01	26.11	-42.2	-46.4	11.5	9.70e-04	0	62	0	953155584	55	6001
2026-01-26 23:19:37.15	166.55	25.51	-42.9	-47.9	10.1	6.52e-03	0	62	0	960495616	56	6758
2026-01-26 23:19:41.19	167.06	24.93	-42.9	-47.8	10.2	9.77e-03	0	62	0	967835648	56	6710
2026-01-26 23:19:45.23	167.56	24.35	-42.2	-46.1	11.9	4.32e-04	0	62	0	975175680	56	5519
2026-01-26 23:19:49.26	168.04	23.78	-41.7	-45.3	12.5	1.13e-04	0	62	0	983564288	55	5328
2026-01-26 23:19:53.30	168.50	23.22	-42.5	-47.1	10.7	2.17e-03	0	62	0	990904320	55	6526
2026-01-26 23:19:57.35	168.95	22.68	-42.3	-46.7	11.1	2.77e-03	0	62	0	998244352	55	6234
2026-01-26 23:20:01.39	169.38	22.14	-41.8	-45.6	12.1	2.84e-04	0	62	0	1005584384	55	5507
2026-01-26 23:20:05.43	169.80	21.61	-41.7	-45.4	12.4	1.67e-04	0	62	0	1012924416	54	5673
2026-01-26 23:20:09.47	170.21	21.09	-42.1	-46.2	11.4	8.22e-04	0	62	0	1021313024	54	6270
2026-01-26 23:20:13.51	170.60	20.58	-41.8	-45.6	12.2	2.35e-04	0	62	0	1028653056	54	5800
2026-01-26 23:20:17.55	170.98	20.08	-41.3	-44.8	13.0	3.96e-05	0	62	0	1035993088	54	5326
2026-01-26 23:20:21.59	171.35	19.59	-41.0	-44.2	13.6	9.90e-06	0	62	0	1043333120	54	4983
2026-01-26 23:20:25.63	171.70	19.11	-41.0	-44.3	13.5	1.22e-05	0	62	0	1051721728	53	5321
2026-01-26 23:20:29.67	172.05	18.63	-41.4	-45.0	12.7	4.80e-05	0	62	0	1059061760	53	5748
2026-01-26 23:20:33.72	172.39	18.17	-41.9	-46.0	11.7	5.21e-04	0	62	0	1066401792	54	6117
2026-01-26 23:20:37.76	172.72	17.71	-42.2	-46.6	11.0	1.85e-03	0	62	0	1073741824	55	6187
2026-01-26 23:20:41.80	173.03	17.26	-42.2	-46.7	11.0	2.39e-03	0	62	0	1082130432	55	6223
2026-01-26 23:20:45.84	173.34	16.81	-42.0	-46.3	11.3	1.56e-03	0	62	0	1089470464	55	5951
2026-01-26 23:20:49.88	173.64	16.37	-41.7	-45.6	12.0	3.47e-04	0	62	0	1096810496	55	5523
2026-01-26 23:20:53.92	173.94	15.95	-41.5	-45.3	12.3	1.88e-04	0	62	0	1104150528	55	5317
2026-01-26 23:20:57.96	174.22	15.52	-41.4	-45.0	12.6	7.47e-05	0	62	0	1111490560	54	5428
2026-01-26 23:21:02.00	174.50	15.11	-41.2	-44.8	12.8	7.40e-05	0	62	0	1119879168	54	5300
2026-01-26 23:21:06.04	174.77	14.70	-41.3	-44.8	12.8	7.09e-05	0	62	0	1127219200	54	5325
2026-01-26 23:21:10.08	175.03	14.29	-41.3	-44.9	12.7	5.56e-05	0	62	0	1134559232	54	5367
2026-01-26 23:21:14.12	175.29	13.90	-41.4	-45.2	12.4	1.01e-04	0	62	0	1141899264	54	5552
2026-01-26 23:21:18.16	175.54	13.50	-41.4	-45.2	12.3	1.89e-04	0	62	0	1150287872	54	5560
2026-01-26 23:21:22.20	175.78	13.12	-41.3	-45.1	12.4	1.66e-04	0	62	0	1157627904	54	5471
2026-01-26 23:21:26.24	176.02	12.74	-41.3	-45.1	12.4	1.34e-04	0	62	0	1164967936	54	5482
2026-01-26 23:21:30.28	176.25	12.36	-41.3	-45.0	12.5	1.67e-04	0	62	0	1172307968	54	5442
2026-01-26 23:21:34.32	176.48	11.99	-41.2	-44.9	12.6	9.23e-05	0	62	0	1179648000	54	5373
2026-01-26 23:21:38.36	176.70	11.63	-41.4	-45.3	12.2	2.03e-04	0	62	0	1188036608	54	5604
2026-01-26 23:21:42.40	176.91	11.27	-41.4	-45.4	12.0	3.16e-04	0	62	0	1195376640	54	5698
2026-01-26 23:21:46.44	177.12	10.92	-41.7	-45.9	11.4	8.77e-04	0	62	0	1202716672	54	6034
2026-01-26 23:21:50.48	177.33	10.57	-41.9	-46.4	10.8	1.89e-03	0	62	0	1210056704	54	6414
2026-01-26 23:21:54.52	177.53	10.22	-42.0	-46.9	10.3	4.98e-03	0	62	0	1218445312	54	6742
2026-01-26 23:21:58.56	177.73	9.88	-42.1	-47.3	9.7	8.71e-03	0	62	0	1225785344	54	7117
2026-01-26 23:22:02.60	177.92	9.54	-42.1	-47.3	9.7	1.19e-02	0	62	0	1233125376	54	7091
2026-01-26 23:22:06.64	178.11	9.21	-42.0	-47.3	9.7	1.20e-02	0	62	0	1240465408	54	7044
2026-01-26 23:22:10.68	178.30	8.88	-42.1	-47.6	9.2	1.77e-02	0	62	0	1247805440	54	7340
2026-01-26 23:22:14.71	178.48	8.56	-42.0	-47.5	9.3	1.84e-02	0	62	0	1256194048	54	7273
2026-01-26 23:22:18.75	178.66	8.24	-41.9	-47.4	9.3	1.98e-02	0	62	0	1263534080	54	7161
2026-01-26 23:22:22.80	178.83	7.92	-44.6	-59.1	3.8	1.48e+00	0	62	104	1269825536	59	20615
2026-01-26 23:22:26.84	179.00	7.61	-45.0	-59.7	3.8	1.49e+00	0	62	104	1269825536	60	20783
2026-01-26 23:22:30.88	179.17	7.30	-45.1	-59.8	3.8	1.49e+00	0	62	104	1269825536	60	21109
2026-01-26 23:22:34.92	179.34	7.00	-45.0	-59.6	3.8	1.49e+00	0	62	104	1269825536	60	20629
2026-01-26 23:22:38.96	179.50	6.70	-44.9	-59.5	3.8	1.49e+00	0	62	104	1269825536	60	20498
2026-01-26 23:22:43.00	179.65	6.40	-44.9	-59.5	3.8	1.49e+00	0	62	104	1269825536	60	20486
2026-01-26 23:22:47.05	179.81	6.10	-44.9	-59.5	3.8	1.49e+00	0	62	104	1269825536	60	20380
2026-01-26 23:22:51.09	179.96	5.81	-44.9	-59.5	3.8	1.49e+00	0	62	104	1269825536	60	20404
2026-01-26 23:22:55.13	180.11	5.52	-44.8	-59.4	3.8	1.49e+00	0	62	104	1269825536	60	20250
2026-01-26 23:22:59.17	180.26	5.24	-44.8	-59.4	3.8	1.49e+00	0	62	104	1269825536	60	20269
2026-01-26 23:23:03.21	180.40	4.95	-44.8	-59.4	3.8	1.49e+00	0	62	104	1269825536	60	20261
2026-01-26 23:23:07.25	180.54	4.67	-44.8	-59.4	3.8	1.49e+00	0	62	104	1269825536	60	20235
2026-01-26 23:23:11.30	180.68	4.39	-44.8	-59.4	3.8	1.49e+00	0	62	104	1269825536	60	20210
2026-01-26 23:23:15.34	180.82	4.12	-44.8	-59.4	3.8	1.49e+00	0	62	104	1269825536	60	20212
2026-01-26 23:23:19.38	180.95	3.85	-44.8	-59.4	3.8	1.49e+00	0	62	104	1269825536	60	20175
2026-01-26 23:23:23.42	181.09	3.58	-44.8	-59.4	3.8	1.49e+00	0	62	104	1269825536	60	20183
2026-01-26 23:23:27.47	181.22	3.31	-44.8	-59.4	3.8	1.49e+00	0	62	104	1269825536	60	20185
2026-01-26 23:23:31.51	181.34	3.05	-44.8	-59.4	3.8	1.49e+00	0	62	104	1269825536	60	20174
2026-01-26 23:23:35.55	181.47	2.78	-44.8	-59.4	3.8	1.49e+00	0	62	104	1269825536	60	20247
2026-01-26 23:23:39.59	181.59	2.52	-44.8	-59.4	3.8	1.49e+00	0	62	104	1269825536	60	20214
2026-01-26 23:23:43.63	181.72	2.27	-44.8	-59.4	3.8	1.49e+00	0	62	104	1269825536	60	20237
2026-01-26 23:23:47.67	181.83	2.01	-44.8	-59.4	3.8	1.49e+00	0	62	104	1269825536	60	20175

#Closed at: 2026-01-26 23:23:48
#Recorded file [1269 MB]: D:/lorett/data/31039_260127_020931.dat