passes_logs/2026/01/26/R2.0S_Moscow/R2.0S_Moscow__20260126_133806_FENGYUN_3D_rec.log

#Pass ID: 20260126_133806_FENGYUN 3D
#Satellite: FENGYUN 3D
#Configuration: FENGYUN 3D
#almurnet v.1.7.20251203
#Start time: 2026-01-26 13:38:06

#Version: 2.2.20231116
#Station: R2.0S_Moscow
#Location: 37.707566 lon 55.798166 lat
#TLE: 1 43010U 17072A   26025.99795741 -.00000136  00000+0 -42313-4 0  9999
#TLE: 2 43010  98.9962 357.9855 0002515  89.6991 270.4472 14.19699257424818

#Time	Az	El	Level	Level2	SNR	BER	BlckErr	Temp	State	Recorded	gain1	gain2
2026-01-26 13:38:06.77	210.70	1.99	-43.9	-55.5	3.8	8.47e-01	0	53	0	0	58	14439
2026-01-26 13:38:09.79	210.93	2.15	-43.9	-55.5	3.8	8.45e-01	0	54	104	0	59	13626
2026-01-26 13:38:12.82	211.17	2.32	-43.9	-55.5	3.8	8.45e-01	0	54	104	0	59	13600
2026-01-26 13:38:15.85	211.41	2.48	-43.9	-55.4	3.8	8.46e-01	0	54	104	0	59	13566
2026-01-26 13:38:18.89	211.65	2.64	-43.8	-55.4	3.8	8.47e-01	0	54	104	0	59	13566
2026-01-26 13:38:21.92	211.89	2.81	-43.9	-55.5	3.8	8.46e-01	0	55	104	0	59	13597
2026-01-26 13:38:24.95	212.14	2.97	-43.9	-55.4	3.8	8.46e-01	0	55	104	0	59	13566
2026-01-26 13:38:27.98	212.39	3.14	-43.9	-55.4	3.8	8.47e-01	0	55	104	0	59	13562
2026-01-26 13:38:31.01	212.64	3.31	-43.9	-55.5	3.8	8.46e-01	0	55	104	0	59	13596
2026-01-26 13:38:34.05	212.89	3.47	-43.9	-55.4	3.8	8.45e-01	0	55	104	0	59	13537
2026-01-26 13:38:37.07	213.15	3.64	-43.9	-55.4	3.8	8.48e-01	0	56	104	0	59	13540
2026-01-26 13:38:40.11	213.41	3.81	-43.9	-55.4	3.8	8.47e-01	0	56	104	0	59	13547
2026-01-26 13:38:43.14	213.67	3.98	-43.8	-55.4	3.8	8.45e-01	0	56	104	0	59	13542
2026-01-26 13:38:46.17	213.94	4.15	-43.8	-55.4	3.8	8.47e-01	0	56	104	0	59	13553
2026-01-26 13:38:49.20	214.20	4.32	-43.8	-55.4	3.8	8.47e-01	0	56	104	0	59	13517
2026-01-26 13:38:52.23	214.48	4.49	-43.8	-55.4	3.8	8.47e-01	0	57	104	0	59	13455
2026-01-26 13:38:55.26	214.75	4.66	-43.8	-55.4	3.8	8.46e-01	0	57	104	0	59	13503
2026-01-26 13:38:58.29	215.03	4.83	-43.8	-55.4	3.8	8.46e-01	0	57	104	0	59	13465
2026-01-26 13:39:01.32	215.31	5.00	-43.8	-55.4	3.8	8.46e-01	0	57	104	0	59	13500
2026-01-26 13:39:04.36	215.59	5.17	-43.8	-55.4	3.8	8.47e-01	0	57	104	0	59	13492
2026-01-26 13:39:07.39	215.88	5.35	-43.8	-55.3	3.8	8.47e-01	0	57	104	0	59	13380
2026-01-26 13:39:10.42	216.17	5.52	-43.8	-55.2	3.8	8.46e-01	0	57	104	0	58	13935
2026-01-26 13:39:13.45	216.47	5.70	-43.8	-54.8	3.8	8.45e-01	0	58	104	0	58	13368
2026-01-26 13:39:16.48	216.76	5.87	-43.7	-54.5	3.8	8.46e-01	0	58	104	0	58	12828
2026-01-26 13:39:19.52	217.06	6.05	-43.7	-54.2	3.8	8.46e-01	0	58	104	0	58	12395
2026-01-26 13:39:22.55	217.37	6.22	-43.6	-53.5	3.8	8.45e-01	0	58	104	0	58	11453
2026-01-26 13:39:25.58	217.68	6.40	-43.4	-52.1	4.1	8.43e-01	0	58	104	0	58	9799
2026-01-26 13:39:28.61	217.99	6.57	-43.1	-50.1	4.8	8.02e-01	0	58	0	0	58	7780
2026-01-26 13:39:31.65	218.30	6.75	-42.6	-48.5	5.9	4.11e-01	0	58	0	7340032	57	6806
2026-01-26 13:39:34.68	218.62	6.93	-42.2	-47.2	7.0	2.23e-01	0	58	0	24117248	56	6208
2026-01-26 13:39:37.71	218.95	7.11	-42.4	-47.8	6.5	2.41e-01	0	58	0	40894464	56	6679
2026-01-26 13:39:40.74	219.27	7.29	-42.6	-48.4	5.9	4.20e-01	0	59	0	57671680	56	7174
2026-01-26 13:39:43.78	219.60	7.47	-42.1	-47.0	7.1	2.03e-01	0	59	0	75497472	56	6089
2026-01-26 13:39:46.81	219.94	7.65	-40.7	-44.2	9.7	1.78e-02	0	59	0	92274688	53	5267
2026-01-26 13:39:49.84	220.28	7.83	-39.5	-42.2	12.0	6.05e-04	0	59	0	109051904	51	4654
2026-01-26 13:39:52.87	220.62	8.01	-39.5	-42.1	12.1	3.81e-04	0	59	0	126877696	50	4905
2026-01-26 13:39:55.91	220.97	8.19	-42.1	-47.3	6.8	6.59e-03	0	59	0	143654912	54	7096
2026-01-26 13:39:58.94	221.32	8.37	-39.5	-41.9	12.5	2.16e-03	0	59	0	152043520	51	4518
2026-01-26 13:40:01.97	221.67	8.55	-39.2	-41.5	13.0	5.03e-05	0	59	0	168820736	50	4579
2026-01-26 13:40:05.00	222.03	8.73	-38.9	-41.0	13.4	1.94e-05	0	59	0	186646528	49	4596
2026-01-26 13:40:08.03	222.40	8.92	-38.9	-41.0	13.5	1.71e-05	0	59	0	203423744	49	4590
2026-01-26 13:40:11.06	222.76	9.10	-38.8	-41.0	13.6	1.25e-05	0	59	0	220200960	49	4567
2026-01-26 13:40:14.10	223.14	9.28	-38.8	-41.0	13.6	5.70e-06	0	60	0	236978176	49	4573
2026-01-26 13:40:17.13	223.52	9.47	-38.7	-40.8	13.8	9.10e-06	0	60	0	254803968	49	4450
2026-01-26 13:40:20.16	223.90	9.65	-38.7	-40.8	13.8	8.00e-06	0	60	0	271581184	49	4493
2026-01-26 13:40:23.19	224.28	9.83	-38.9	-41.0	13.6	1.60e-05	0	60	0	288358400	49	4583
2026-01-26 13:40:26.22	224.68	10.02	-38.7	-40.8	13.8	5.70e-06	0	60	0	305135616	49	4478
2026-01-26 13:40:29.25	225.07	10.20	-38.6	-40.6	14.1	1.10e-06	0	60	0	322961408	49	4347
2026-01-26 13:40:32.29	225.47	10.39	-38.3	-40.2	14.5	0.00e+00	0	60	0	339738624	48	4411
2026-01-26 13:40:35.32	225.88	10.57	-38.5	-40.5	14.2	3.40e-06	0	60	0	356515840	48	4553
2026-01-26 13:40:38.35	226.29	10.76	-38.6	-40.6	14.1	1.10e-06	0	60	0	374341632	48	4628
2026-01-26 13:40:41.38	226.71	10.94	-38.5	-40.6	14.2	2.20e-06	0	60	0	391118848	48	4605
2026-01-26 13:40:44.41	227.13	11.13	-38.5	-40.5	14.3	1.10e-06	0	61	0	407896064	48	4577
2026-01-26 13:40:47.44	227.55	11.31	-38.5	-40.4	14.3	0.00e+00	0	61	0	424673280	48	4542
2026-01-26 13:40:50.48	227.99	11.50	-38.3	-40.3	14.5	2.20e-06	0	61	0	442499072	48	4452
2026-01-26 13:40:53.51	228.42	11.68	-38.4	-40.3	14.5	0.00e+00	0	61	0	459276288	48	4467
2026-01-26 13:40:56.53	228.87	11.87	-38.3	-40.3	14.5	0.00e+00	0	61	0	476053504	48	4458
2026-01-26 13:40:59.57	229.31	12.05	-38.3	-40.3	14.5	0.00e+00	0	60	0	492830720	48	4448
2026-01-26 13:41:02.60	229.77	12.24	-38.2	-40.1	14.7	0.00e+00	0	61	0	510656512	48	4377
2026-01-26 13:41:05.63	230.23	12.42	-38.1	-40.0	14.9	1.10e-06	0	61	0	527433728	48	4296
2026-01-26 13:41:08.67	230.69	12.60	-38.1	-39.9	15.0	0.00e+00	0	61	0	544210944	48	4260
2026-01-26 13:41:11.70	231.16	12.79	-37.9	-39.7	15.1	0.00e+00	0	61	0	560988160	47	4398
2026-01-26 13:41:14.73	231.64	12.97	-38.0	-39.9	14.9	0.00e+00	0	61	0	578813952	47	4498
2026-01-26 13:41:17.76	232.12	13.15	-37.8	-39.6	15.1	0.00e+00	0	61	0	595591168	47	4368
2026-01-26 13:41:20.79	232.61	13.34	-37.8	-39.6	15.2	0.00e+00	0	61	0	612368384	47	4366
2026-01-26 13:41:23.82	233.10	13.52	-38.1	-39.9	14.8	0.00e+00	0	61	0	630194176	47	4535
2026-01-26 13:41:26.85	233.60	13.70	-38.1	-39.9	14.8	0.00e+00	0	61	0	646971392	47	4540
2026-01-26 13:41:29.89	234.10	13.88	-38.0	-39.9	14.9	0.00e+00	0	61	0	663748608	47	4514
2026-01-26 13:41:32.92	234.62	14.06	-38.0	-39.8	14.9	1.10e-06	0	61	0	680525824	47	4486
2026-01-26 13:41:35.95	235.13	14.24	-37.7	-39.5	15.3	0.00e+00	0	61	0	698351616	47	4326
2026-01-26 13:41:38.98	235.66	14.42	-37.7	-39.4	15.4	0.00e+00	0	61	0	715128832	47	4265
2026-01-26 13:41:42.01	236.18	14.59	-37.8	-39.6	15.2	0.00e+00	0	61	0	731906048	47	4362
2026-01-26 13:41:45.04	236.72	14.77	-37.7	-39.4	15.4	1.10e-06	0	62	0	748683264	47	4282
2026-01-26 13:41:48.07	237.26	14.94	-37.7	-39.4	15.4	0.00e+00	0	61	0	766509056	47	4287
2026-01-26 13:41:51.11	237.81	15.12	-37.7	-39.4	15.4	0.00e+00	0	61	0	783286272	47	4267
2026-01-26 13:41:54.14	238.36	15.29	-37.5	-39.3	15.6	0.00e+00	0	62	0	800063488	47	4198
2026-01-26 13:41:57.17	238.92	15.46	-37.5	-39.2	15.6	0.00e+00	0	62	0	816840704	46	4436
2026-01-26 13:42:00.20	239.49	15.63	-37.5	-39.2	15.7	0.00e+00	0	61	0	834666496	46	4394
2026-01-26 13:42:03.23	240.06	15.80	-37.5	-39.2	15.7	0.00e+00	0	62	0	851443712	46	4399
2026-01-26 13:42:06.26	240.64	15.97	-37.3	-39.0	15.9	0.00e+00	0	61	0	868220928	46	4313
2026-01-26 13:42:09.30	241.23	16.13	-37.3	-38.9	16.0	0.00e+00	0	62	0	884998144	46	4272
2026-01-26 13:42:12.33	241.82	16.30	-37.2	-38.9	16.0	0.00e+00	0	62	0	902823936	46	4254
2026-01-26 13:42:15.36	242.42	16.46	-37.2	-38.8	16.1	0.00e+00	0	62	0	919601152	46	4210
2026-01-26 13:42:18.39	243.02	16.62	-37.2	-38.9	16.0	0.00e+00	0	62	0	936378368	46	4244
2026-01-26 13:42:21.42	243.63	16.78	-37.3	-38.9	15.9	0.00e+00	0	62	0	953155584	46	4291
2026-01-26 13:42:24.45	244.25	16.93	-37.2	-38.8	16.1	0.00e+00	0	62	0	970981376	46	4219
2026-01-26 13:42:27.48	244.87	17.08	-37.2	-38.8	16.1	0.00e+00	0	62	0	987758592	46	4207
2026-01-26 13:42:30.51	245.50	17.24	-37.2	-38.8	16.1	0.00e+00	0	62	0	1004535808	46	4204
2026-01-26 13:42:33.54	246.13	17.38	-37.3	-39.0	15.9	0.00e+00	0	62	0	1022361600	46	4300
2026-01-26 13:42:36.57	246.77	17.53	-37.0	-38.6	16.3	0.00e+00	0	62	0	1039138816	46	4123
2026-01-26 13:42:39.60	247.42	17.67	-36.9	-38.5	16.4	0.00e+00	0	62	0	1055916032	45	4304
2026-01-26 13:42:42.64	248.08	17.81	-37.0	-38.6	16.2	0.00e+00	0	62	0	1072693248	45	4378
2026-01-26 13:42:45.67	248.73	17.95	-36.9	-38.5	16.4	0.00e+00	0	62	0	1089470464	45	4312
2026-01-26 13:42:48.70	249.40	18.09	-36.9	-38.5	16.4	0.00e+00	0	62	0	1107296256	45	4314
2026-01-26 13:42:51.73	250.07	18.22	-36.7	-38.3	16.6	0.00e+00	0	62	0	1124073472	45	4200
2026-01-26 13:42:54.76	250.74	18.35	-36.9	-38.5	16.4	0.00e+00	0	62	0	1140850688	45	4302
2026-01-26 13:42:57.79	251.43	18.47	-37.0	-38.6	16.3	0.00e+00	0	62	0	1158676480	45	4350
2026-01-26 13:43:00.83	252.11	18.60	-36.8	-38.4	16.5	0.00e+00	0	62	0	1175453696	45	4260
2026-01-26 13:43:03.86	252.81	18.71	-37.0	-38.6	16.3	0.00e+00	0	62	0	1192230912	45	4359
2026-01-26 13:43:06.89	253.50	18.83	-36.8	-38.4	16.5	0.00e+00	0	62	0	1209008128	45	4260
2026-01-26 13:43:09.92	254.21	18.94	-36.8	-38.3	16.6	0.00e+00	0	62	0	1226833920	45	4242
2026-01-26 13:43:12.94	254.91	19.05	-36.7	-38.2	16.7	0.00e+00	0	62	0	1243611136	45	4178
2026-01-26 13:43:15.97	255.62	19.15	-36.7	-38.2	16.7	0.00e+00	0	62	0	1260388352	45	4165
2026-01-26 13:43:19.00	256.34	19.25	-36.7	-38.2	16.7	0.00e+00	0	62	0	1277165568	45	4169
2026-01-26 13:43:22.03	257.06	19.35	-36.7	-38.2	16.7	0.00e+00	0	62	0	1294991360	45	4164
2026-01-26 13:43:25.06	257.78	19.44	-36.5	-38.0	16.9	0.00e+00	0	62	0	1311768576	45	4056
2026-01-26 13:43:28.09	258.51	19.53	-36.5	-38.0	16.9	0.00e+00	0	62	0	1328545792	44	4312
2026-01-26 13:43:31.12	259.25	19.61	-36.5	-38.0	16.9	0.00e+00	0	62	0	1345323008	44	4295
2026-01-26 13:43:34.15	259.98	19.69	-36.6	-38.1	16.8	0.00e+00	0	62	0	1363148800	44	4371
2026-01-26 13:43:37.18	260.72	19.76	-36.6	-38.1	16.8	0.00e+00	0	62	0	1379926016	44	4366
2026-01-26 13:43:40.20	261.47	19.83	-36.6	-38.1	16.8	0.00e+00	0	62	0	1396703232	44	4373
2026-01-26 13:43:43.23	262.21	19.90	-36.5	-38.0	16.9	0.00e+00	0	62	0	1413480448	44	4296
2026-01-26 13:43:46.26	262.96	19.96	-36.5	-38.1	16.8	0.00e+00	0	62	0	1431306240	44	4347
2026-01-26 13:43:49.29	263.72	20.01	-36.6	-38.1	16.8	0.00e+00	0	62	0	1448083456	44	4381
2026-01-26 13:43:52.32	264.47	20.07	-36.6	-38.1	16.8	0.00e+00	0	62	0	1464860672	44	4354
2026-01-26 13:43:55.35	265.23	20.11	-36.4	-37.9	17.0	0.00e+00	0	62	0	1481637888	44	4280
2026-01-26 13:43:58.38	265.99	20.15	-36.6	-38.1	16.8	0.00e+00	0	62	0	1499463680	44	4383
2026-01-26 13:44:01.41	266.75	20.19	-36.5	-38.0	16.9	0.00e+00	0	62	0	1516240896	44	4308
2026-01-26 13:44:04.44	267.51	20.22	-36.4	-37.9	17.0	0.00e+00	0	62	0	1533018112	44	4264
2026-01-26 13:44:07.48	268.28	20.25	-36.4	-37.9	17.0	0.00e+00	0	62	0	1550843904	44	4250
2026-01-26 13:44:10.50	269.04	20.27	-36.3	-37.8	17.1	0.00e+00	0	62	0	1567621120	44	4203
2026-01-26 13:44:13.53	269.81	20.29	-36.4	-37.9	17.0	0.00e+00	0	62	0	1584398336	44	4245
2026-01-26 13:44:16.57	270.58	20.30	-36.4	-37.9	17.0	0.00e+00	0	62	0	1601175552	44	4266
2026-01-26 13:44:19.59	271.35	20.30	-36.4	-37.9	17.0	0.00e+00	0	62	0	1617952768	44	4275
2026-01-26 13:44:22.62	272.11	20.30	-36.4	-37.9	17.0	0.00e+00	0	62	0	1635778560	44	4264
2026-01-26 13:44:25.65	272.88	20.30	-36.5	-38.0	16.9	0.00e+00	0	62	0	1652555776	44	4296
2026-01-26 13:44:28.68	273.65	20.29	-36.4	-37.9	17.0	0.00e+00	0	62	0	1669332992	44	4274
2026-01-26 13:44:31.71	274.41	20.28	-36.6	-38.1	16.8	0.00e+00	0	62	0	1686110208	44	4347
2026-01-26 13:44:34.74	275.18	20.26	-36.4	-37.9	17.0	0.00e+00	0	62	0	1703936000	44	4253
2026-01-26 13:44:37.77	275.94	20.23	-36.5	-38.0	16.9	0.00e+00	0	62	0	1720713216	44	4309
2026-01-26 13:44:40.79	276.70	20.20	-36.6	-38.1	16.8	0.00e+00	0	62	0	1737490432	44	4360
2026-01-26 13:44:43.82	277.47	20.17	-36.7	-38.2	16.7	0.00e+00	0	62	0	1754267648	44	4433
2026-01-26 13:44:46.85	278.23	20.13	-36.6	-38.1	16.8	0.00e+00	0	62	0	1772093440	44	4369
2026-01-26 13:44:49.88	278.98	20.09	-36.5	-38.0	16.9	0.00e+00	0	62	0	1788870656	44	4309
2026-01-26 13:44:52.91	279.74	20.04	-36.2	-37.7	17.2	0.00e+00	0	62	0	1805647872	44	4146
2026-01-26 13:44:55.94	280.49	19.98	-36.6	-38.1	16.8	0.00e+00	0	62	0	1822425088	44	4356
2026-01-26 13:44:58.98	281.24	19.93	-36.7	-38.3	16.6	0.00e+00	0	62	0	1840250880	44	4450
2026-01-26 13:45:02.01	281.99	19.86	-36.7	-38.3	16.6	0.00e+00	0	62	0	1857028096	44	4466
2026-01-26 13:45:05.03	282.73	19.79	-36.9	-38.5	16.3	0.00e+00	0	62	0	1873805312	44	4594
2026-01-26 13:45:08.06	283.47	19.72	-37.0	-38.7	16.2	0.00e+00	0	62	0	1890582528	44	4655
2026-01-26 13:45:11.10	284.21	19.65	-36.8	-38.4	16.5	0.00e+00	0	62	0	1908408320	44	4521
2026-01-26 13:45:14.13	284.95	19.56	-36.8	-38.3	16.6	0.00e+00	0	62	0	1925185536	44	4478
2026-01-26 13:45:17.16	285.67	19.48	-36.9	-38.5	16.3	0.00e+00	0	62	0	1941962752	44	4591
2026-01-26 13:45:20.19	286.40	19.39	-36.8	-38.3	16.5	0.00e+00	0	62	0	1958739968	44	4489
2026-01-26 13:45:23.22	287.12	19.30	-36.8	-38.4	16.5	0.00e+00	0	62	0	1976565760	44	4499
2026-01-26 13:45:26.25	287.84	19.20	-36.8	-38.3	16.5	0.00e+00	0	62	0	1993342976	44	4483
2026-01-26 13:45:29.28	288.55	19.10	-36.8	-38.3	16.5	0.00e+00	0	62	0	2010120192	44	4484
2026-01-26 13:45:32.31	289.26	18.99	-36.7	-38.3	16.6	0.00e+00	0	62	0	2026897408	44	4446
2026-01-26 13:45:35.34	289.96	18.88	-36.8	-38.4	16.4	0.00e+00	0	62	0	2044723200	44	4534
2026-01-26 13:45:38.37	290.65	18.77	-36.9	-38.5	16.3	0.00e+00	0	62	0	2061500416	44	4583
2026-01-26 13:45:41.40	291.35	18.65	-37.0	-38.6	16.2	0.00e+00	0	62	0	2078277632	44	4650
2026-01-26 13:45:44.43	292.03	18.53	-37.0	-38.6	16.2	1.10e-06	0	62	0	2096103424	44	4637
2026-01-26 13:45:47.46	292.71	18.41	-37.0	-38.6	16.2	0.00e+00	0	62	0	2112880640	44	4620
2026-01-26 13:45:50.49	293.39	18.28	-37.2	-38.9	16.0	0.00e+00	0	62	0	2129657856	44	4771
2026-01-26 13:45:53.52	294.06	18.15	-37.1	-38.8	16.0	0.00e+00	0	62	0	2146435072	44	4727
2026-01-26 13:45:56.55	294.72	18.02	-37.2	-38.9	15.9	0.00e+00	0	62	0	2163212288	44	4771
2026-01-26 13:45:59.58	295.38	17.89	-37.3	-38.9	15.9	0.00e+00	0	62	0	2181038080	45	4530
2026-01-26 13:46:02.62	296.04	17.75	-37.2	-38.9	15.9	0.00e+00	0	62	0	2197815296	45	4526
2026-01-26 13:46:05.65	296.68	17.61	-37.3	-38.9	15.9	0.00e+00	0	62	0	2214592512	45	4536
2026-01-26 13:46:08.68	297.33	17.46	-37.3	-39.1	15.8	0.00e+00	0	62	0	2232418304	45	4600
2026-01-26 13:46:11.71	297.96	17.31	-37.2	-38.8	15.9	0.00e+00	0	62	0	2249195520	45	4477
2026-01-26 13:46:14.74	298.59	17.17	-37.3	-38.9	15.8	0.00e+00	0	62	0	2265972736	45	4539
2026-01-26 13:46:17.77	299.21	17.02	-37.4	-39.1	15.7	0.00e+00	0	62	0	2282749952	45	4622
2026-01-26 13:46:20.80	299.83	16.86	-37.3	-39.0	15.7	0.00e+00	0	62	0	2300575744	45	4586
2026-01-26 13:46:23.83	300.44	16.71	-37.4	-39.1	15.7	0.00e+00	0	62	0	2317352960	45	4616
2026-01-26 13:46:26.86	301.04	16.55	-37.2	-38.9	15.9	0.00e+00	0	62	0	2334130176	45	4512
2026-01-26 13:46:29.89	301.64	16.39	-37.4	-39.1	15.7	0.00e+00	0	62	0	2350907392	45	4631
2026-01-26 13:46:32.92	302.23	16.23	-37.7	-39.4	15.3	0.00e+00	0	62	0	2368733184	45	4810
2026-01-26 13:46:35.96	302.82	16.06	-37.8	-39.6	15.2	0.00e+00	0	62	0	2385510400	46	4616
2026-01-26 13:46:38.99	303.40	15.90	-37.7	-39.5	15.3	0.00e+00	0	62	0	2402287616	46	4575
2026-01-26 13:46:42.02	303.97	15.73	-37.7	-39.5	15.3	0.00e+00	0	63	0	2420113408	46	4566
2026-01-26 13:46:45.05	304.54	15.57	-37.7	-39.4	15.3	0.00e+00	0	62	0	2436890624	46	4529
2026-01-26 13:46:48.09	305.10	15.40	-37.6	-39.4	15.3	0.00e+00	0	62	0	2453667840	46	4522
2026-01-26 13:46:51.12	305.65	15.23	-37.7	-39.5	15.2	0.00e+00	0	62	0	2470445056	46	4596
2026-01-26 13:46:54.15	306.20	15.05	-38.0	-39.8	14.9	0.00e+00	0	62	0	2487222272	46	4745
2026-01-26 13:46:57.18	306.74	14.88	-38.1	-39.9	14.8	0.00e+00	0	63	0	2505048064	46	4810
2026-01-26 13:47:00.21	307.28	14.71	-38.1	-40.0	14.7	0.00e+00	0	62	0	2521825280	46	4831
2026-01-26 13:47:03.25	307.81	14.53	-38.2	-40.2	14.5	1.10e-06	0	62	0	2538602496	47	4682
2026-01-26 13:47:06.28	308.34	14.36	-38.3	-40.3	14.4	1.10e-06	0	62	0	2556428288	47	4715
2026-01-26 13:47:09.31	308.85	14.18	-38.1	-40.0	14.7	1.10e-06	0	62	0	2573205504	47	4561
2026-01-26 13:47:12.34	309.36	14.00	-37.9	-39.8	14.9	0.00e+00	0	63	0	2589982720	47	4465
2026-01-26 13:47:15.37	309.87	13.82	-38.0	-39.9	14.8	0.00e+00	0	62	0	2606759936	47	4498
2026-01-26 13:47:18.41	310.37	13.64	-38.0	-39.9	14.8	0.00e+00	0	62	0	2624585728	47	4509
2026-01-26 13:47:21.43	310.86	13.47	-38.1	-40.0	14.7	0.00e+00	0	62	0	2641362944	47	4550
2026-01-26 13:47:24.47	311.35	13.28	-37.9	-39.8	14.9	0.00e+00	0	62	0	2658140160	47	4462
2026-01-26 13:47:27.49	311.83	13.10	-38.1	-39.9	14.7	0.00e+00	0	62	0	2674917376	47	4545
2026-01-26 13:47:30.52	312.31	12.92	-38.2	-40.2	14.4	1.10e-06	0	62	0	2691694592	47	4678
2026-01-26 13:47:33.55	312.78	12.74	-38.3	-40.3	14.3	2.20e-06	0	63	0	2709520384	47	4743
2026-01-26 13:47:36.58	313.25	12.56	-38.3	-40.3	14.3	3.40e-06	0	63	0	2726297600	47	4748
2026-01-26 13:47:39.61	313.71	12.38	-38.6	-40.6	14.0	4.50e-06	0	62	0	2743074816	47	4910
2026-01-26 13:47:42.64	314.16	12.20	-38.6	-40.7	13.9	2.20e-06	0	62	0	2760900608	47	4938
2026-01-26 13:47:45.68	314.61	12.01	-38.6	-40.6	13.9	5.70e-06	0	62	0	2777677824	47	4925
2026-01-26 13:47:48.71	315.06	11.83	-38.6	-40.6	13.9	8.00e-06	0	62	0	2794455040	47	4917
2026-01-26 13:47:51.74	315.49	11.65	-38.6	-40.7	13.9	4.50e-06	0	63	0	2811232256	47	4953
2026-01-26 13:47:54.77	315.93	11.46	-38.3	-40.4	14.2	1.10e-06	0	62	0	2829058048	47	4769
2026-01-26 13:47:57.80	316.35	11.28	-38.4	-40.4	14.1	2.20e-06	0	62	0	2845835264	47	4789
2026-01-26 13:48:00.83	316.78	11.10	-38.4	-40.4	14.1	3.40e-06	0	63	0	2862612480	47	4794
2026-01-26 13:48:03.86	317.19	10.91	-38.6	-40.7	13.8	1.14e-05	0	63	0	2879389696	47	4957
2026-01-26 13:48:06.89	317.61	10.73	-38.6	-40.7	13.7	1.37e-05	0	63	0	2897215488	47	4980
2026-01-26 13:48:09.92	318.01	10.55	-38.8	-41.0	13.6	2.40e-05	0	63	0	2913992704	48	4825
2026-01-26 13:48:12.95	318.42	10.37	-38.9	-41.1	13.4	2.40e-05	0	63	0	2930769920	48	4914
2026-01-26 13:48:15.99	318.81	10.18	-39.1	-41.3	13.2	3.08e-05	0	63	0	2948595712	48	5034
2026-01-26 13:48:19.02	319.21	10.00	-39.3	-41.7	12.8	1.13e-04	0	63	0	2965372928	49	4964
2026-01-26 13:48:22.05	319.60	9.82	-39.1	-41.4	13.1	4.57e-05	0	63	0	2982150144	49	4761
2026-01-26 13:48:25.08	319.98	9.64	-39.3	-41.7	12.8	1.40e-04	0	62	0	2998927360	49	4937
2026-01-26 13:48:28.12	320.36	9.45	-39.0	-41.3	13.2	6.29e-05	0	62	0	3015704576	49	4735
2026-01-26 13:48:31.15	320.73	9.27	-39.3	-41.7	12.7	1.38e-04	0	62	0	3033530368	49	4951
2026-01-26 13:48:34.18	321.10	9.09	-39.5	-42.0	12.4	1.30e-04	0	62	0	3050307584	49	5113
2026-01-26 13:48:37.20	321.47	8.91	-39.3	-41.8	12.6	1.67e-04	0	62	0	3067084800	49	4987
2026-01-26 13:48:40.24	321.83	8.73	-39.2	-41.6	12.8	8.23e-05	0	62	0	3084910592	49	4892
2026-01-26 13:48:43.26	322.19	8.55	-39.4	-41.9	12.5	1.54e-04	0	62	0	3101687808	49	5067
2026-01-26 13:48:46.30	322.54	8.37	-39.3	-41.8	12.6	1.51e-04	0	63	0	3118465024	49	5005
2026-01-26 13:48:49.32	322.89	8.19	-39.4	-41.9	12.5	1.50e-04	0	63	0	3135242240	49	5050
2026-01-26 13:48:52.35	323.23	8.01	-39.6	-42.1	12.2	1.98e-04	0	63	0	3153068032	49	5206
2026-01-26 13:48:55.38	323.57	7.83	-44.7	-56.4	3.8	8.46e-01	0	62	104	3154116608	60	14327
2026-01-26 13:48:58.42	323.91	7.66	-45.0	-56.7	3.8	8.46e-01	0	62	104	3154116608	60	14847
2026-01-26 13:49:01.45	324.24	7.48	-45.0	-56.8	3.8	8.46e-01	0	63	104	3154116608	60	14963
2026-01-26 13:49:04.48	324.57	7.30	-44.9	-56.7	3.8	8.46e-01	0	62	104	3154116608	60	14725
2026-01-26 13:49:07.50	324.90	7.13	-44.6	-56.6	3.8	8.46e-01	0	62	104	3154116608	60	14604
2026-01-26 13:49:10.53	325.22	6.95	-44.9	-56.6	3.8	8.46e-01	0	63	104	3154116608	60	14639
2026-01-26 13:49:13.56	325.54	6.77	-44.4	-56.4	3.8	8.46e-01	0	62	104	3154116608	59	15126
2026-01-26 13:49:16.59	325.85	6.60	-44.8	-56.6	3.8	8.45e-01	0	63	104	3154116608	60	14640
2026-01-26 13:49:19.63	326.16	6.42	-44.8	-56.6	3.8	8.47e-01	0	62	104	3154116608	60	14624
2026-01-26 13:49:22.66	326.47	6.25	-44.8	-56.6	3.8	8.46e-01	0	63	104	3154116608	60	14610
2026-01-26 13:49:25.69	326.77	6.08	-44.8	-56.6	3.8	8.46e-01	0	63	104	3154116608	60	14631
2026-01-26 13:49:28.73	327.07	5.90	-44.8	-56.6	3.8	8.47e-01	0	63	104	3154116608	60	14610
2026-01-26 13:49:31.76	327.37	5.73	-44.8	-56.6	3.8	8.45e-01	0	63	104	3154116608	60	14625
2026-01-26 13:49:34.79	327.66	5.56	-44.8	-56.6	3.8	8.46e-01	0	62	104	3154116608	60	14632
2026-01-26 13:49:37.82	327.95	5.39	-44.8	-56.6	3.8	8.46e-01	0	63	104	3154116608	60	14580
2026-01-26 13:49:40.85	328.24	5.21	-44.8	-56.6	3.8	8.46e-01	0	63	104	3154116608	60	14621
2026-01-26 13:49:43.88	328.52	5.04	-44.8	-56.6	3.8	8.47e-01	0	63	104	3154116608	60	14598
2026-01-26 13:49:46.91	328.80	4.87	-44.8	-56.6	3.8	8.45e-01	0	63	104	3154116608	60	14557
2026-01-26 13:49:49.94	329.08	4.70	-44.8	-56.6	3.8	8.46e-01	0	63	104	3154116608	60	14552
2026-01-26 13:49:52.97	329.35	4.54	-44.8	-56.6	3.8	8.46e-01	0	63	104	3154116608	60	14585
2026-01-26 13:49:56.01	329.63	4.37	-44.8	-56.5	3.8	8.46e-01	0	63	104	3154116608	60	14535
2026-01-26 13:49:59.04	329.89	4.20	-44.8	-56.6	3.8	8.46e-01	0	63	104	3154116608	60	14578
2026-01-26 13:50:02.07	330.16	4.03	-44.8	-56.6	3.8	8.47e-01	0	63	104	3154116608	60	14597
2026-01-26 13:50:05.10	330.42	3.87	-44.8	-56.5	3.8	8.46e-01	0	62	104	3154116608	60	14504
2026-01-26 13:50:08.13	330.68	3.70	-44.8	-56.6	3.8	8.47e-01	0	63	104	3154116608	60	14563
2026-01-26 13:50:11.17	330.94	3.53	-44.8	-56.5	3.8	8.46e-01	0	63	104	3154116608	60	14511
2026-01-26 13:50:14.20	331.20	3.37	-44.8	-56.6	3.8	8.46e-01	0	63	104	3154116608	60	14574
2026-01-26 13:50:17.23	331.45	3.20	-44.8	-56.6	3.8	8.46e-01	0	63	104	3154116608	60	14578
2026-01-26 13:50:20.26	331.70	3.04	-44.8	-56.6	3.8	8.46e-01	0	63	104	3154116608	60	14553
2026-01-26 13:50:23.29	331.94	2.88	-44.8	-56.6	3.8	8.46e-01	0	63	104	3154116608	60	14605
2026-01-26 13:50:26.32	332.19	2.71	-44.7	-56.5	3.8	8.45e-01	0	63	104	3154116608	60	14536
2026-01-26 13:50:29.35	332.43	2.55	-44.8	-56.5	3.8	8.46e-01	0	63	104	3154116608	60	14512
2026-01-26 13:50:32.39	332.67	2.39	-44.8	-56.5	3.8	8.47e-01	0	63	104	3154116608	60	14502
2026-01-26 13:50:35.42	332.90	2.23	-44.8	-56.6	3.8	8.46e-01	0	63	104	3154116608	60	14542
2026-01-26 13:50:38.45	333.14	2.07	-44.8	-56.5	3.8	8.45e-01	0	63	104	3154116608	60	14517

#Closed at: 2026-01-26 13:50:41
#Recorded file [3154 MB]: D:/lorett/data/31039_260126_163806.dat