passes_logs/2026/01/26/R2.0S_Moscow/R2.0S_Moscow__20260126_102935_NOAA_21_JPSS-2_rec.log

#Pass ID: 20260126_102935_NOAA 21 (JPSS-2)
#Satellite: NOAA 21 (JPSS-2)
#Configuration: NOAA-21
#almurnet v.1.7.20251203
#Start time: 2026-01-26 10:30:18

#Version: 2.2.20231116
#Station: R2.0S_Moscow
#Location: 37.707566 lon 55.798166 lat
#TLE: 1 54234U 22150A   26025.79694208  .00000182  00000+0  10700-3 0  9999
#TLE: 2 54234  98.7509 326.5666 0000777 213.2444 146.8684 14.19539347166346

#Time	Az	El	Level	Level2	SNR	BER	BlckErr	Temp	State	Recorded	gain1	gain2
2026-01-26 10:30:18.02	178.72	4.84	-43.9	-56.7	3.8	8.45e-01	0	62	0	0	60	14744
2026-01-26 10:30:22.05	178.86	5.12	-45.3	-57.7	3.8	1.49e+00	0	62	104	0	62	14842
2026-01-26 10:30:26.09	179.00	5.41	-41.0	-53.3	3.8	1.49e+00	0	62	104	0	54	14159
2026-01-26 10:30:30.13	179.14	5.70	-44.1	-55.8	3.8	1.49e+00	0	62	104	0	60	13359
2026-01-26 10:30:34.17	179.28	5.99	-44.1	-54.7	3.8	1.49e+00	0	62	104	0	59	12431
2026-01-26 10:30:38.21	179.43	6.28	-43.8	-52.6	4.3	1.46e+00	0	62	104	0	59	9756
2026-01-26 10:30:42.26	179.58	6.58	-43.6	-51.1	5.0	7.15e-01	0	62	0	1048576	59	8185
2026-01-26 10:30:46.30	179.74	6.89	-43.3	-49.8	5.8	4.15e-01	0	62	0	13631488	58	7529
2026-01-26 10:30:50.34	179.89	7.19	-43.3	-49.8	5.7	4.00e-01	0	62	0	26214400	58	7505
2026-01-26 10:30:54.38	180.05	7.50	-43.4	-50.3	5.4	5.05e-01	0	62	0	38797312	58	7917
2026-01-26 10:30:58.42	180.21	7.81	-43.1	-49.2	6.2	3.30e-01	0	62	0	51380224	58	7006
2026-01-26 10:31:02.46	180.38	8.13	-42.3	-46.9	8.3	5.77e-02	0	62	0	63963136	56	6040
2026-01-26 10:31:06.50	180.55	8.45	-41.2	-44.7	10.4	4.86e-03	0	62	0	76546048	54	5240
2026-01-26 10:31:10.55	180.72	8.77	-40.7	-43.8	11.3	1.16e-03	0	62	0	89128960	53	5040
2026-01-26 10:31:14.59	180.90	9.10	-41.0	-44.5	10.8	7.95e-03	0	62	0	101711872	53	5408
2026-01-26 10:31:18.63	181.08	9.43	-40.7	-43.7	11.5	7.99e-04	0	62	0	110100480	53	4976
2026-01-26 10:31:22.67	181.26	9.76	-40.5	-43.5	11.8	5.45e-04	0	62	0	122683392	53	4839
2026-01-26 10:31:26.72	181.45	10.11	-40.5	-43.5	11.8	5.54e-04	0	62	0	135266304	53	4816
2026-01-26 10:31:30.76	181.64	10.45	-40.4	-43.2	12.2	2.54e-04	0	62	0	147849216	52	4932
2026-01-26 10:31:34.80	181.84	10.80	-40.2	-43.0	12.3	1.79e-04	0	62	0	160432128	52	4827
2026-01-26 10:31:38.83	182.04	11.15	-40.2	-43.0	12.4	1.50e-04	0	62	0	173015040	52	4819
2026-01-26 10:31:42.86	182.24	11.51	-40.2	-42.9	12.5	1.26e-04	0	62	0	185597952	52	4796
2026-01-26 10:31:46.90	182.45	11.88	-40.3	-42.9	12.5	1.35e-04	0	62	0	198180864	52	4804
2026-01-26 10:31:50.94	182.66	12.24	-40.1	-42.7	12.7	8.77e-05	0	62	0	210763776	52	4696
2026-01-26 10:31:54.98	182.88	12.62	-40.2	-42.8	12.6	8.01e-05	0	62	0	223346688	52	4727
2026-01-26 10:31:59.02	183.11	13.00	-40.1	-42.6	12.8	5.95e-05	0	62	0	235929600	52	4639
2026-01-26 10:32:03.06	183.34	13.38	-40.0	-42.5	13.1	3.89e-05	0	62	0	248512512	51	4848
2026-01-26 10:32:07.10	183.58	13.78	-40.0	-42.5	13.1	2.89e-05	0	62	0	261095424	51	4839
2026-01-26 10:32:11.13	183.82	14.17	-40.0	-42.5	13.2	2.13e-05	0	62	0	273678336	51	4829
2026-01-26 10:32:15.17	184.07	14.58	-40.0	-42.4	13.2	2.21e-05	0	62	0	286261248	51	4809
2026-01-26 10:32:19.21	184.33	14.99	-40.0	-42.5	13.2	1.60e-05	0	62	0	298844160	51	4821
2026-01-26 10:32:23.25	184.59	15.40	-40.0	-42.4	13.3	1.75e-05	0	62	0	311427072	51	4767
2026-01-26 10:32:27.29	184.86	15.83	-39.9	-42.2	13.4	1.60e-05	0	62	0	324009984	51	4702
2026-01-26 10:32:31.33	185.13	16.26	-39.8	-42.2	13.5	1.37e-05	0	62	0	337641472	51	4653
2026-01-26 10:32:35.37	185.42	16.69	-39.8	-42.1	13.5	1.60e-05	0	62	0	349175808	51	4631
2026-01-26 10:32:39.40	185.71	17.14	-39.9	-42.2	13.5	1.44e-05	0	62	0	362807296	51	4697
2026-01-26 10:32:43.44	186.01	17.59	-39.9	-42.3	13.5	1.37e-05	0	62	0	375390208	51	4732
2026-01-26 10:32:47.48	186.32	18.05	-39.9	-42.2	13.5	6.10e-06	0	62	0	387973120	51	4699
2026-01-26 10:32:51.52	186.64	18.52	-40.0	-42.3	13.4	1.44e-05	0	62	0	400556032	51	4754
2026-01-26 10:32:55.56	186.97	18.99	-40.1	-42.6	13.3	1.67e-05	0	62	0	413138944	51	4873
2026-01-26 10:32:59.60	187.31	19.48	-40.2	-42.7	13.1	3.20e-05	0	62	0	425721856	51	4930
2026-01-26 10:33:03.62	187.66	19.97	-40.2	-42.6	13.2	2.36e-05	0	62	0	438304768	51	4893
2026-01-26 10:33:07.65	188.02	20.47	-39.9	-42.3	13.5	1.22e-05	0	62	0	450887680	51	4725
2026-01-26 10:33:11.69	188.39	20.98	-39.9	-42.3	13.5	1.14e-05	0	62	0	463470592	51	4706
2026-01-26 10:33:15.73	188.77	21.50	-39.6	-41.7	14.1	0.00e+00	0	62	0	476053504	51	4427
2026-01-26 10:33:19.77	189.17	22.03	-39.5	-41.6	14.3	7.00e-07	0	62	0	488636416	50	4620
2026-01-26 10:33:23.80	189.58	22.56	-39.0	-40.9	14.9	0.00e+00	0	62	0	501219328	49	4541
2026-01-26 10:33:27.85	190.00	23.12	-38.9	-40.8	15.0	0.00e+00	0	62	0	513802240	49	4481
2026-01-26 10:33:31.89	190.44	23.68	-39.0	-41.0	14.9	7.00e-07	0	62	0	526385152	49	4569
2026-01-26 10:33:35.93	190.90	24.25	-39.0	-41.0	14.8	0.00e+00	0	62	0	538968064	49	4566
2026-01-26 10:33:39.97	191.37	24.83	-39.1	-41.1	14.8	0.00e+00	0	62	0	551550976	49	4622
2026-01-26 10:33:44.00	191.85	25.42	-39.3	-41.3	14.6	0.00e+00	0	62	0	564133888	49	4736
2026-01-26 10:33:48.04	192.36	26.02	-39.5	-41.6	14.4	1.50e-06	0	62	0	576716800	49	4897
2026-01-26 10:33:52.08	192.89	26.64	-39.8	-41.9	14.0	3.00e-06	0	62	0	589299712	50	4807
2026-01-26 10:33:56.12	193.43	27.26	-39.8	-42.0	14.0	5.30e-06	0	62	0	601882624	50	4830
2026-01-26 10:34:00.16	194.00	27.90	-40.1	-42.4	13.5	9.10e-06	0	62	0	614465536	50	5057
2026-01-26 10:34:04.20	194.59	28.55	-40.1	-42.4	13.6	9.90e-06	0	62	0	627048448	51	4773
2026-01-26 10:34:08.24	195.20	29.22	-40.0	-42.2	13.8	6.80e-06	0	62	0	639631360	51	4689
2026-01-26 10:34:12.28	195.84	29.89	-40.0	-42.3	13.7	3.80e-06	0	62	0	652214272	51	4727
2026-01-26 10:34:16.32	196.51	30.58	-39.8	-42.0	14.0	1.50e-06	0	62	0	664797184	51	4576
2026-01-26 10:34:20.36	197.20	31.28	-39.7	-41.9	14.2	2.20e-06	0	62	0	677380096	51	4496
2026-01-26 10:34:24.40	197.93	31.99	-39.8	-42.0	14.0	3.00e-06	0	62	0	689963008	51	4571
2026-01-26 10:34:28.44	198.68	32.71	-39.9	-42.1	14.0	7.00e-07	0	62	0	703594496	51	4607
2026-01-26 10:34:32.48	199.47	33.45	-40.1	-42.4	13.6	3.80e-06	0	62	0	716177408	51	4806
2026-01-26 10:34:36.51	200.30	34.20	-40.7	-43.3	12.6	7.47e-05	0	62	0	728760320	52	5034
2026-01-26 10:34:40.55	201.16	34.96	-41.1	-43.9	12.1	2.54e-04	0	62	0	741343232	52	5378
2026-01-26 10:34:44.59	202.07	35.73	-41.0	-43.8	12.2	2.51e-04	0	62	0	753926144	52	5300
2026-01-26 10:34:48.63	203.02	36.51	-41.1	-44.0	12.0	2.92e-04	0	62	0	766509056	52	5404
2026-01-26 10:34:52.67	204.01	37.30	-41.0	-43.7	12.3	1.69e-04	0	62	0	779091968	52	5271
2026-01-26 10:34:56.71	205.06	38.10	-41.3	-44.3	11.6	5.85e-04	0	62	0	791674880	53	5336
2026-01-26 10:35:00.74	206.15	38.91	-41.5	-44.7	11.2	1.34e-03	0	62	0	804257792	53	5532
2026-01-26 10:35:04.78	207.30	39.72	-41.6	-44.7	11.2	1.51e-03	0	62	0	816840704	53	5588
2026-01-26 10:35:08.82	208.51	40.55	-41.3	-44.3	11.7	6.58e-04	0	62	0	829423616	53	5284
2026-01-26 10:35:12.86	209.78	41.37	-41.1	-43.9	12.1	3.04e-04	0	62	0	842006528	53	5056
2026-01-26 10:35:16.90	211.12	42.20	-41.1	-43.8	12.2	2.47e-04	0	62	0	854589440	53	5036
2026-01-26 10:35:20.95	212.53	43.03	-41.8	-45.2	10.8	2.14e-03	0	62	0	867172352	54	5533
2026-01-26 10:35:24.99	214.01	43.86	-41.8	-45.0	10.9	2.01e-03	0	62	0	879755264	54	5460
2026-01-26 10:35:29.03	215.57	44.69	-41.7	-44.9	10.9	1.97e-03	0	62	0	892338176	54	5388
2026-01-26 10:35:33.07	217.21	45.50	-41.0	-43.7	12.3	1.98e-04	0	62	0	904921088	53	4967
2026-01-26 10:35:37.10	218.93	46.31	-41.0	-43.8	12.3	1.72e-04	0	62	0	917504000	53	4996
2026-01-26 10:35:41.14	220.74	47.10	-41.2	-44.1	11.8	5.00e-04	0	62	0	930086912	53	5215
2026-01-26 10:35:45.18	222.64	47.87	-41.6	-44.9	11.1	1.35e-03	0	62	0	942669824	53	5669
2026-01-26 10:35:49.22	224.64	48.63	-41.4	-44.4	11.5	7.33e-04	0	62	0	955252736	53	5374
2026-01-26 10:35:53.25	226.74	49.35	-41.3	-44.3	11.6	7.15e-04	0	62	0	967835648	53	5332
2026-01-26 10:35:57.29	228.93	50.05	-41.2	-44.0	11.9	4.20e-04	0	62	0	980418560	53	5152
2026-01-26 10:36:01.33	231.23	50.71	-40.6	-43.1	12.9	5.49e-05	0	62	0	993001472	52	4920
2026-01-26 10:36:05.37	233.62	51.33	-40.4	-42.8	13.3	1.90e-05	0	62	0	1005584384	51	5003
2026-01-26 10:36:09.41	236.11	51.90	-40.5	-43.0	13.0	2.89e-05	0	62	0	1018167296	51	5125
2026-01-26 10:36:13.45	238.69	52.42	-40.5	-43.1	12.9	5.18e-05	0	62	0	1030750208	52	4900
2026-01-26 10:36:17.49	241.36	52.89	-40.7	-43.4	12.6	1.01e-04	0	62	0	1044381696	52	5055
2026-01-26 10:36:21.52	244.11	53.29	-41.0	-43.9	11.9	4.02e-04	0	62	0	1056964608	52	5396
2026-01-26 10:36:25.56	246.93	53.64	-40.8	-43.5	12.4	1.04e-04	0	62	0	1069547520	52	5115
2026-01-26 10:36:29.60	249.81	53.91	-40.2	-42.5	13.4	1.22e-05	0	62	0	1082130432	52	4598
2026-01-26 10:36:33.64	252.73	54.11	-40.3	-42.6	13.3	1.98e-05	0	62	0	1094713344	52	4644
2026-01-26 10:36:37.68	255.69	54.23	-40.2	-42.5	13.4	1.83e-05	0	62	0	1107296256	52	4589
2026-01-26 10:36:41.72	258.67	54.28	-40.3	-42.6	13.3	1.22e-05	0	62	0	1119879168	52	4632
2026-01-26 10:36:45.75	261.64	54.26	-40.9	-43.6	12.4	1.85e-04	0	62	0	1132462080	52	5164
2026-01-26 10:36:49.79	264.61	54.15	-40.6	-43.2	12.7	8.31e-05	0	62	0	1145044992	52	4949
2026-01-26 10:36:53.83	267.54	53.97	-40.1	-42.4	13.5	1.06e-05	0	63	0	1157627904	52	4504
2026-01-26 10:36:57.87	270.44	53.72	-40.6	-43.2	12.6	5.11e-05	0	63	0	1170210816	52	4969
2026-01-26 10:37:01.90	273.27	53.40	-40.0	-42.3	13.7	4.50e-06	0	63	0	1182793728	51	4719
2026-01-26 10:37:05.94	276.03	53.02	-40.9	-43.6	12.3	1.33e-04	0	62	0	1195376640	52	5184
2026-01-26 10:37:09.98	278.73	52.57	-40.6	-43.2	12.8	6.71e-05	0	62	0	1207959552	52	4939
2026-01-26 10:37:14.02	281.33	52.07	-40.2	-42.5	13.5	1.44e-05	0	62	0	1220542464	52	4588
2026-01-26 10:37:18.06	283.84	51.51	-40.8	-43.4	12.6	8.62e-05	0	62	0	1233125376	52	5070
2026-01-26 10:37:22.10	286.26	50.90	-41.5	-44.6	11.3	7.90e-04	0	62	0	1245708288	53	5512
2026-01-26 10:37:26.14	288.58	50.26	-41.0	-43.8	12.2	3.32e-04	0	62	0	1258291200	53	5014
2026-01-26 10:37:30.17	290.80	49.58	-41.0	-43.8	12.2	2.33e-04	0	62	0	1270874112	53	4997
2026-01-26 10:37:34.21	292.92	48.86	-41.0	-43.7	12.3	1.57e-04	0	62	0	1283457024	53	4961
2026-01-26 10:37:38.26	294.95	48.12	-41.3	-44.3	11.6	7.03e-04	0	62	0	1296039936	53	5289
2026-01-26 10:37:42.29	296.88	47.35	-41.2	-43.9	12.0	3.36e-04	0	62	0	1308622848	53	5095
2026-01-26 10:37:46.33	298.71	46.57	-41.4	-44.4	11.5	9.41e-04	0	62	0	1321205760	53	5349
2026-01-26 10:37:50.37	300.46	45.77	-40.9	-43.6	12.3	1.47e-04	0	63	0	1333788672	53	4924
2026-01-26 10:37:54.41	302.12	44.96	-41.6	-44.7	11.2	1.34e-03	0	63	0	1346371584	53	5575
2026-01-26 10:37:58.45	303.70	44.14	-41.8	-45.0	10.8	2.02e-03	0	63	0	1358954496	54	5456
2026-01-26 10:38:02.49	305.20	43.32	-41.9	-45.3	10.5	4.52e-03	0	63	0	1371537408	54	5612
2026-01-26 10:38:06.53	306.62	42.50	-41.0	-43.8	12.0	2.48e-04	0	63	0	1385168896	54	4733
2026-01-26 10:38:10.57	307.98	41.67	-41.4	-44.3	11.6	7.54e-04	0	63	0	1397751808	54	5030
2026-01-26 10:38:14.61	309.27	40.85	-41.3	-44.3	11.5	7.84e-04	0	62	0	1410334720	54	5006
2026-01-26 10:38:18.65	310.49	40.03	-41.7	-44.9	11.0	1.85e-03	0	63	0	1422917632	54	5347
2026-01-26 10:38:22.69	311.66	39.21	-41.5	-44.5	11.3	1.09e-03	0	62	0	1435500544	54	5128
2026-01-26 10:38:26.73	312.77	38.41	-41.0	-43.8	12.1	3.23e-04	0	62	0	1448083456	54	4720
2026-01-26 10:38:30.77	313.83	37.61	-40.5	-43.0	12.9	4.34e-05	0	62	0	1460666368	52	4815
2026-01-26 10:38:34.81	314.83	36.82	-41.1	-43.9	11.9	3.59e-04	0	62	0	1473249280	52	5396
2026-01-26 10:38:38.85	315.80	36.04	-40.7	-43.4	12.4	1.14e-04	0	63	0	1485832192	52	5061
2026-01-26 10:38:42.89	316.71	35.27	-40.8	-43.5	12.2	2.39e-04	0	63	0	1498415104	52	5152
2026-01-26 10:38:46.93	317.59	34.51	-40.6	-43.2	12.7	9.30e-05	0	62	0	1510998016	52	4951
2026-01-26 10:38:50.97	318.43	33.76	-40.5	-43.1	12.8	6.10e-05	0	62	0	1523580928	52	4892
2026-01-26 10:38:55.01	319.23	33.03	-40.2	-42.5	13.4	1.44e-05	0	63	0	1536163840	52	4594
2026-01-26 10:38:59.05	319.99	32.30	-40.0	-42.3	13.5	1.14e-05	0	62	0	1548746752	52	4489
2026-01-26 10:39:03.09	320.73	31.59	-39.9	-42.1	13.9	4.50e-06	0	62	0	1561329664	51	4622
2026-01-26 10:39:07.13	321.43	30.89	-39.4	-41.4	14.6	7.00e-07	0	62	0	1573912576	50	4506
2026-01-26 10:39:11.18	322.11	30.20	-39.7	-41.9	14.1	2.20e-06	0	62	0	1586495488	50	4760
2026-01-26 10:39:15.22	322.75	29.53	-40.1	-42.4	13.4	1.14e-05	0	62	0	1599078400	50	5086
2026-01-26 10:39:19.26	323.38	28.87	-39.7	-41.9	14.0	3.80e-06	0	62	0	1611661312	50	4806
2026-01-26 10:39:23.29	323.97	28.22	-39.6	-41.7	14.3	7.00e-07	0	62	0	1624244224	50	4659
2026-01-26 10:39:27.34	324.55	27.58	-39.7	-41.8	14.1	2.20e-06	0	62	0	1636827136	50	4753
2026-01-26 10:39:31.38	325.10	26.95	-39.6	-41.7	14.2	0.00e+00	0	63	0	1649410048	50	4658
2026-01-26 10:39:35.42	325.63	26.33	-39.6	-41.7	14.2	5.30e-06	0	62	0	1661992960	50	4679
2026-01-26 10:39:39.46	326.15	25.73	-39.7	-41.8	14.0	3.00e-06	0	62	0	1674575872	50	4752
2026-01-26 10:39:43.50	326.64	25.14	-39.7	-41.8	14.1	5.30e-06	0	62	0	1687158784	50	4743
2026-01-26 10:39:47.55	327.12	24.55	-39.5	-41.6	14.2	2.20e-06	0	62	0	1700790272	50	4651
2026-01-26 10:39:51.58	327.58	23.98	-39.7	-41.9	13.9	4.50e-06	0	62	0	1713373184	50	4801
2026-01-26 10:39:55.63	328.03	23.42	-39.6	-41.8	14.0	3.80e-06	0	62	0	1725956096	50	4732
2026-01-26 10:39:59.66	328.46	22.87	-39.5	-41.7	14.1	4.50e-06	0	62	0	1738539008	50	4653
2026-01-26 10:40:03.71	328.87	22.33	-39.5	-41.6	14.2	1.50e-06	0	62	0	1751121920	50	4612
2026-01-26 10:40:07.75	329.27	21.80	-39.5	-41.7	14.0	7.00e-07	0	62	0	1763704832	50	4673
2026-01-26 10:40:11.79	329.66	21.28	-39.7	-42.0	13.8	5.30e-06	0	62	0	1776287744	50	4815
2026-01-26 10:40:15.84	330.04	20.77	-39.7	-41.9	13.8	3.00e-06	0	63	0	1788870656	50	4810
2026-01-26 10:40:19.88	330.41	20.27	-39.8	-42.2	13.5	1.37e-05	0	62	0	1801453568	50	4936
2026-01-26 10:40:23.92	330.76	19.78	-39.9	-42.3	13.3	2.36e-05	0	62	0	1814036480	50	5011
2026-01-26 10:40:27.96	331.11	19.29	-39.9	-42.2	13.4	1.37e-05	0	62	0	1826619392	50	4977
2026-01-26 10:40:32.00	331.44	18.82	-39.6	-41.9	13.7	3.80e-06	0	62	0	1839202304	50	4800
2026-01-26 10:40:36.04	331.77	18.35	-39.6	-41.8	13.7	5.30e-06	0	62	0	1851785216	50	4726
2026-01-26 10:40:40.08	332.08	17.89	-39.5	-41.7	13.8	6.10e-06	0	62	0	1864368128	50	4705
2026-01-26 10:40:44.12	332.39	17.44	-39.5	-41.8	13.7	3.00e-06	0	62	0	1876951040	50	4718
2026-01-26 10:40:48.16	332.68	16.99	-39.5	-41.8	13.7	4.50e-06	0	62	0	1889533952	50	4714
2026-01-26 10:40:52.20	332.97	16.56	-39.7	-42.0	13.4	1.22e-05	0	62	0	1902116864	50	4840
2026-01-26 10:40:56.25	333.26	16.12	-39.8	-42.2	13.2	2.05e-05	0	62	0	1914699776	50	4945
2026-01-26 10:41:00.29	333.53	15.70	-40.0	-42.4	12.9	4.80e-05	0	62	0	1927282688	50	5091
2026-01-26 10:41:04.33	333.80	15.29	-40.1	-42.7	12.7	8.54e-05	0	62	0	1939865600	50	5220
2026-01-26 10:41:08.37	334.06	14.88	-40.1	-42.8	12.5	1.07e-04	0	62	0	1952448512	50	5284
2026-01-26 10:41:12.42	334.31	14.47	-40.2	-42.8	12.4	1.42e-04	0	62	0	1965031424	50	5340
2026-01-26 10:41:16.46	334.56	14.07	-40.1	-42.8	12.4	1.45e-04	0	62	0	1977614336	51	5008
2026-01-26 10:41:20.50	334.80	13.68	-40.2	-43.0	12.1	2.39e-04	0	62	0	1991245824	51	5131
2026-01-26 10:41:24.54	335.04	13.30	-40.2	-43.0	12.0	2.73e-04	0	62	0	2003828736	51	5154
2026-01-26 10:41:28.59	335.27	12.92	-40.1	-43.0	12.0	2.73e-04	0	62	0	2016411648	51	5130
2026-01-26 10:41:32.63	335.50	12.54	-40.2	-43.1	11.8	4.96e-04	0	62	0	2028994560	51	5203
2026-01-26 10:41:36.67	335.72	12.17	-40.3	-43.3	11.5	7.50e-04	0	62	0	2041577472	51	5336
2026-01-26 10:41:40.71	335.93	11.81	-40.2	-43.2	11.6	5.83e-04	0	62	0	2054160384	51	5227
2026-01-26 10:41:44.76	336.14	11.45	-40.4	-43.5	11.2	1.25e-03	0	62	0	2066743296	51	5408
2026-01-26 10:41:48.80	336.35	11.09	-40.3	-43.5	11.2	1.43e-03	0	63	0	2079326208	51	5422
2026-01-26 10:41:52.84	336.55	10.75	-40.3	-43.5	11.0	1.65e-03	0	62	0	2091909120	51	5456
2026-01-26 10:41:56.88	336.74	10.40	-40.3	-43.6	10.9	2.22e-03	0	62	0	2104492032	51	5477
2026-01-26 10:42:00.92	336.94	10.06	-40.4	-43.7	10.7	2.96e-03	0	62	0	2117074944	51	5584
2026-01-26 10:42:04.96	337.13	9.73	-40.1	-43.3	11.1	1.84e-03	0	62	0	2129657856	51	5300
2026-01-26 10:42:09.00	337.31	9.39	-40.0	-43.2	11.0	1.33e-03	0	62	0	2142240768	51	5231
2026-01-26 10:42:13.05	337.49	9.07	-40.3	-43.9	10.1	6.09e-03	0	62	0	2154823680	51	5676
2026-01-26 10:42:17.09	337.67	8.74	-40.3	-44.1	9.7	1.06e-02	0	62	0	2167406592	51	5807
2026-01-26 10:42:21.13	337.84	8.42	-40.1	-43.8	9.9	9.97e-03	0	62	0	2179989504	51	5602
2026-01-26 10:42:25.17	338.01	8.11	-39.8	-43.3	10.2	6.64e-03	0	62	0	2192572416	51	5292
2026-01-26 10:42:29.22	338.18	7.80	-44.7	-57.0	3.8	1.49e+00	0	63	104	2196766720	60	15362
2026-01-26 10:42:33.26	338.35	7.49	-45.2	-57.6	3.8	1.49e+00	0	62	104	2196766720	60	16384
2026-01-26 10:42:37.30	338.51	7.18	-44.9	-57.7	3.8	1.49e+00	0	62	104	2196766720	61	15640
2026-01-26 10:42:41.34	338.67	6.88	-45.1	-57.6	3.8	1.49e+00	0	63	104	2196766720	61	15423
2026-01-26 10:42:45.39	338.82	6.58	-45.1	-57.5	3.8	1.49e+00	0	62	104	2196766720	60	16176
2026-01-26 10:42:49.43	338.97	6.29	-44.7	-57.5	3.8	1.49e+00	0	62	104	2196766720	60	16186
2026-01-26 10:42:53.47	339.12	6.00	-45.0	-57.4	3.8	1.49e+00	0	62	104	2196766720	60	16102
2026-01-26 10:42:57.51	339.27	5.71	-45.0	-57.4	3.8	1.49e+00	0	62	104	2196766720	60	16022
2026-01-26 10:43:01.55	339.42	5.42	-44.4	-57.4	3.8	1.49e+00	0	63	104	2196766720	60	16003
2026-01-26 10:43:05.60	339.56	5.14	-44.9	-57.3	3.8	1.49e+00	0	62	104	2196766720	60	15920
2026-01-26 10:43:09.64	339.70	4.86	-44.8	-57.3	3.8	1.49e+00	0	63	104	2196766720	60	15856
2026-01-26 10:43:13.68	339.84	4.59	-44.8	-57.3	3.8	1.49e+00	0	62	104	2196766720	60	15849
2026-01-26 10:43:17.72	339.97	4.31	-44.9	-57.3	3.8	1.49e+00	0	62	104	2196766720	60	15881
2026-01-26 10:43:21.76	340.11	4.04	-44.9	-57.3	3.8	1.49e+00	0	63	104	2196766720	60	15843
2026-01-26 10:43:25.80	340.24	3.77	-44.9	-57.3	3.8	1.49e+00	0	63	104	2196766720	60	15838
2026-01-26 10:43:29.85	340.37	3.50	-44.9	-57.3	3.8	1.49e+00	0	63	104	2196766720	60	15888
2026-01-26 10:43:33.89	340.49	3.24	-44.9	-57.3	3.8	1.49e+00	0	63	104	2196766720	60	15898
2026-01-26 10:43:37.93	340.62	2.98	-44.9	-57.3	3.8	1.49e+00	0	63	104	2196766720	60	15856
2026-01-26 10:43:41.97	340.74	2.72	-44.8	-57.3	3.8	1.49e+00	0	63	104	2196766720	60	15880
2026-01-26 10:43:46.02	340.86	2.46	-44.9	-57.3	3.8	1.49e+00	0	62	104	2196766720	60	15837
2026-01-26 10:43:50.06	340.98	2.21	-44.9	-57.3	3.8	1.49e+00	0	63	104	2196766720	60	15895
2026-01-26 10:43:54.10	341.10	1.96	-44.9	-57.3	3.8	1.49e+00	0	63	104	2196766720	60	15866

#Closed at: 2026-01-26 10:43:54
#Recorded file [2196 MB]: D:/lorett/data/31039_260126_133017.dat