passes_logs/2026/01/26/R2.0S_Moscow/R2.0S_Moscow__20260126_233003_NOAA_20_JPSS-1_rec.log

#Pass ID: 20260126_233003_NOAA 20 (JPSS-1)
#Satellite: NOAA 20 (JPSS-1)
#Configuration: NOAA 20
#almurnet v.1.7.20251203
#Start time: 2026-01-26 23:30:03

#Version: 2.2.20231116
#Station: R2.0S_Moscow
#Location: 37.707566 lon 55.798166 lat
#TLE: 1 43013U 17073A   26026.46665230  .00000148  00000+0  91302-4 0  9998
#TLE: 2 43013  98.7646 327.2856 0001008  22.9532 337.1688 14.19540616424360

#Time	Az	El	Level	Level2	SNR	BER	BlckErr	Temp	State	Recorded	gain1	gain2
2026-01-26 23:30:03.39	16.97	2.02	-42.2	-56.8	3.8	1.49e+00	0	53	0	0	56	18918
2026-01-26 23:30:07.43	17.01	2.28	-42.2	-56.8	3.8	1.49e+00	0	54	104	0	56	18870
2026-01-26 23:30:11.47	17.06	2.54	-42.2	-56.8	3.8	1.49e+00	0	54	104	0	56	18844
2026-01-26 23:30:15.51	17.11	2.80	-42.2	-56.8	3.8	1.49e+00	0	54	104	0	56	18878
2026-01-26 23:30:19.55	17.16	3.07	-42.2	-56.8	3.8	1.49e+00	0	55	104	0	56	18907
2026-01-26 23:30:23.59	17.21	3.33	-42.2	-56.8	3.8	1.49e+00	0	55	104	0	56	18836
2026-01-26 23:30:27.63	17.26	3.60	-42.2	-56.8	3.8	1.49e+00	0	55	104	0	56	18874
2026-01-26 23:30:31.67	17.31	3.88	-42.2	-56.8	3.8	1.49e+00	0	55	104	0	56	18794
2026-01-26 23:30:35.72	17.36	4.15	-42.2	-56.8	3.8	1.49e+00	0	56	104	0	56	18845
2026-01-26 23:30:39.75	17.41	4.43	-42.2	-56.8	3.8	1.49e+00	0	56	104	0	56	18838
2026-01-26 23:30:43.80	17.46	4.71	-42.2	-56.8	3.8	1.49e+00	0	56	104	0	56	18856
2026-01-26 23:30:47.84	17.52	5.00	-42.2	-56.8	3.8	1.49e+00	0	56	104	0	56	18847
2026-01-26 23:30:51.88	17.57	5.29	-42.2	-56.8	3.8	1.49e+00	0	57	104	0	56	18846
2026-01-26 23:30:55.92	17.62	5.58	-42.2	-56.8	3.8	1.49e+00	0	57	104	0	56	18852
2026-01-26 23:30:59.97	17.68	5.87	-42.2	-56.8	3.8	1.49e+00	0	57	104	0	56	18812
2026-01-26 23:31:04.01	17.74	6.17	-42.2	-56.8	3.8	1.49e+00	0	57	104	0	56	18766
2026-01-26 23:31:08.05	17.79	6.47	-42.2	-56.8	3.8	1.49e+00	0	57	104	0	56	18833
2026-01-26 23:31:12.09	17.85	6.77	-42.2	-56.7	3.8	1.49e+00	0	57	104	0	56	18636
2026-01-26 23:31:16.13	17.91	7.08	-42.2	-56.3	3.8	1.49e+00	0	58	104	0	56	17810
2026-01-26 23:31:20.18	17.97	7.39	-42.2	-55.9	3.8	1.49e+00	0	58	104	0	56	16894
2026-01-26 23:31:24.22	18.03	7.71	-41.8	-52.9	4.3	1.41e+00	0	58	0	0	55	12692
2026-01-26 23:31:28.26	18.09	8.03	-41.4	-49.3	6.2	3.98e-01	0	58	0	6291456	54	8888
2026-01-26 23:31:32.30	18.15	8.35	-41.7	-50.3	4.3	1.44e+00	0	58	104	11534336	54	10025
2026-01-26 23:31:36.35	18.21	8.68	-41.8	-48.0	8.3	6.49e-02	0	59	0	17825792	54	7700
2026-01-26 23:31:40.39	18.28	9.01	-41.8	-47.5	9.0	3.24e-02	0	58	0	25165824	54	7265
2026-01-26 23:31:44.42	18.34	9.35	-41.7	-47.0	9.6	1.11e-02	0	59	0	33554432	54	6859
2026-01-26 23:31:48.47	18.41	9.69	-41.8	-47.1	9.7	1.05e-02	0	59	0	40894464	54	6905
2026-01-26 23:31:52.50	18.48	10.04	-41.8	-46.8	10.2	6.06e-03	0	59	0	48234496	54	6689
2026-01-26 23:31:56.55	18.55	10.39	-41.8	-46.7	10.4	4.76e-03	0	59	0	55574528	54	6631
2026-01-26 23:32:00.58	18.62	10.74	-41.7	-46.3	10.8	3.66e-03	0	59	0	63963136	54	6322
2026-01-26 23:32:04.62	18.69	11.10	-41.8	-46.4	10.7	2.29e-03	0	59	0	71303168	54	6417
2026-01-26 23:32:08.66	18.76	11.47	-41.6	-46.0	11.3	1.38e-03	0	59	0	78643200	54	6105
2026-01-26 23:32:12.70	18.83	11.84	-41.7	-46.0	11.4	1.01e-03	0	59	0	85983232	54	6087
2026-01-26 23:32:16.74	18.91	12.22	-41.6	-45.9	11.6	8.54e-04	0	59	0	93323264	54	6007
2026-01-26 23:32:20.78	18.99	12.60	-41.6	-45.8	11.7	5.03e-04	0	60	0	101711872	54	5924
2026-01-26 23:32:24.82	19.06	12.99	-41.5	-45.5	12.0	3.85e-04	0	60	0	109051904	54	5781
2026-01-26 23:32:28.85	19.14	13.39	-41.6	-45.6	12.0	3.03e-04	0	60	0	116391936	54	5808
2026-01-26 23:32:32.89	19.23	13.79	-41.5	-45.5	12.0	3.51e-04	0	60	0	123731968	54	5788
2026-01-26 23:32:36.93	19.31	14.20	-41.6	-45.7	11.9	3.41e-04	0	60	0	132120576	54	5870
2026-01-26 23:32:40.97	19.40	14.62	-41.5	-45.4	12.2	2.36e-04	0	60	0	139460608	54	5701
2026-01-26 23:32:45.00	19.48	15.04	-41.6	-45.5	12.2	2.20e-04	0	60	0	146800640	54	5767
2026-01-26 23:32:49.04	19.57	15.47	-41.7	-45.6	12.2	2.43e-04	0	60	0	154140672	54	5808
2026-01-26 23:32:53.08	19.67	15.91	-41.7	-45.6	12.1	2.68e-04	0	60	0	161480704	54	5845
2026-01-26 23:32:57.12	19.76	16.36	-41.7	-45.7	12.0	3.46e-04	0	60	0	169869312	54	5912
2026-01-26 23:33:01.15	19.86	16.81	-41.8	-45.9	11.9	4.69e-04	0	60	0	177209344	54	6027
2026-01-26 23:33:05.19	19.95	17.28	-41.9	-46.0	11.8	6.35e-04	0	61	0	184549376	54	6112
2026-01-26 23:33:09.23	20.06	17.75	-42.0	-46.2	11.6	6.83e-04	0	60	0	191889408	54	6223
2026-01-26 23:33:13.27	20.16	18.23	-42.1	-46.4	11.4	9.60e-04	0	60	0	200278016	54	6381
2026-01-26 23:33:17.31	20.27	18.72	-42.3	-46.8	11.0	1.59e-03	0	60	0	207618048	55	6301
2026-01-26 23:33:21.35	20.38	19.23	-42.3	-46.8	11.1	1.69e-03	0	60	0	214958080	55	6287
2026-01-26 23:33:25.39	20.49	19.74	-42.4	-46.9	10.9	2.22e-03	0	61	0	222298112	55	6420
2026-01-26 23:33:29.43	20.61	20.26	-42.4	-47.0	10.8	2.34e-03	0	61	0	229638144	55	6476
2026-01-26 23:33:33.47	20.73	20.79	-42.4	-47.0	10.9	2.39e-03	0	61	0	238026752	55	6445
2026-01-26 23:33:37.52	20.85	21.34	-42.4	-47.0	10.9	2.38e-03	0	61	0	245366784	55	6474
2026-01-26 23:33:41.56	20.98	21.90	-42.4	-46.9	11.0	2.01e-03	0	61	0	252706816	55	6419
2026-01-26 23:33:45.59	21.11	22.47	-42.4	-46.9	11.1	1.64e-03	0	61	0	260046848	55	6355
2026-01-26 23:33:49.63	21.25	23.05	-42.4	-46.7	11.2	1.23e-03	0	61	0	268435456	55	6273
2026-01-26 23:33:53.67	21.39	23.65	-42.2	-46.4	11.7	7.25e-04	0	61	0	275775488	55	6009
2026-01-26 23:33:57.71	21.53	24.26	-42.1	-46.1	12.0	3.94e-04	0	61	0	283115520	55	5822
2026-01-26 23:34:01.73	21.68	24.88	-42.0	-46.0	12.1	2.38e-04	0	61	0	290455552	55	5727
2026-01-26 23:34:05.77	21.84	25.52	-42.0	-46.0	12.0	3.58e-04	0	61	0	297795584	55	5757
2026-01-26 23:34:09.81	22.00	26.17	-42.1	-46.2	12.0	3.11e-04	0	61	0	306184192	55	5856
2026-01-26 23:34:13.85	22.17	26.84	-42.3	-46.6	11.5	7.75e-04	0	61	0	313524224	55	6135
2026-01-26 23:34:17.88	22.34	27.53	-42.6	-47.1	11.0	2.03e-03	0	61	0	320864256	55	6532
2026-01-26 23:34:21.92	22.53	28.24	-43.0	-47.8	10.4	3.74e-03	0	61	0	328204288	56	6687
2026-01-26 23:34:25.96	22.72	28.96	-43.0	-48.0	10.3	5.25e-03	0	61	0	336592896	56	6805
2026-01-26 23:34:29.99	22.91	29.70	-43.1	-48.1	10.1	6.70e-03	0	61	0	343932928	56	6899
2026-01-26 23:34:34.03	23.12	30.46	-43.1	-48.1	10.2	5.80e-03	0	61	0	351272960	56	6897
2026-01-26 23:34:38.07	23.34	31.25	-43.1	-48.2	10.0	8.80e-03	0	61	0	358612992	56	6996
2026-01-26 23:34:42.11	23.56	32.05	-43.2	-48.3	9.9	9.05e-03	0	62	0	365953024	57	6699
2026-01-26 23:34:46.15	23.80	32.88	-43.1	-48.0	10.2	7.24e-03	0	61	0	374341632	57	6472
2026-01-26 23:34:50.19	24.05	33.73	-42.9	-47.6	10.7	3.10e-03	0	61	0	381681664	57	6186
2026-01-26 23:34:54.23	24.31	34.60	-42.4	-46.6	11.8	4.59e-04	0	61	0	389021696	56	5791
2026-01-26 23:34:58.27	24.58	35.50	-42.4	-46.3	12.0	2.94e-04	0	61	0	396361728	56	5641
2026-01-26 23:35:02.31	24.87	36.42	-42.3	-46.1	12.3	2.04e-04	0	61	0	404750336	56	5510
2026-01-26 23:35:06.35	25.18	37.37	-42.1	-45.8	12.6	8.46e-05	0	61	0	412090368	56	5294
2026-01-26 23:35:10.39	25.50	38.34	-42.4	-46.5	11.9	3.08e-04	0	61	0	419430400	56	5730
2026-01-26 23:35:14.43	25.84	39.35	-42.5	-46.6	11.8	5.27e-04	0	62	0	426770432	56	5854
2026-01-26 23:35:18.47	26.20	40.38	-42.5	-46.5	11.9	3.11e-04	0	61	0	434110464	56	5756
2026-01-26 23:35:22.51	26.59	41.44	-42.7	-47.1	11.3	1.16e-03	0	62	0	442499072	56	6168
2026-01-26 23:35:26.56	27.01	42.54	-42.6	-46.9	11.5	8.25e-04	0	62	0	449839104	56	6001
2026-01-26 23:35:30.59	27.44	43.66	-42.8	-47.3	11.1	9.78e-04	0	62	0	457179136	56	6284
2026-01-26 23:35:34.63	27.92	44.82	-43.1	-48.0	10.3	5.92e-03	0	62	0	464519168	56	6817
2026-01-26 23:35:38.67	28.42	46.01	-43.1	-47.9	10.4	4.88e-03	0	62	0	472907776	56	6755
2026-01-26 23:35:42.72	28.97	47.24	-43.1	-47.9	10.5	3.92e-03	0	62	0	480247808	56	6727
2026-01-26 23:35:46.76	29.56	48.49	-43.1	-47.8	10.6	4.69e-03	0	62	0	487587840	57	6332
2026-01-26 23:35:50.80	30.20	49.79	-42.4	-46.2	12.2	2.28e-04	0	62	0	494927872	56	5580
2026-01-26 23:35:54.84	30.90	51.11	-41.3	-44.4	14.0	5.30e-06	0	62	0	502267904	54	5047
2026-01-26 23:35:58.88	31.66	52.47	-40.6	-43.2	15.2	0.00e+00	0	62	0	510656512	53	4685
2026-01-26 23:36:02.91	32.49	53.86	-40.3	-42.8	15.6	0.00e+00	0	62	0	517996544	52	4712
2026-01-26 23:36:06.95	33.41	55.28	-40.4	-42.9	15.4	0.00e+00	0	62	0	525336576	52	4807
2026-01-26 23:36:11.00	34.42	56.74	-40.9	-43.8	14.6	0.00e+00	0	62	0	532676608	52	5288
2026-01-26 23:36:15.04	35.55	58.23	-41.1	-44.1	14.3	2.20e-06	0	62	0	541065216	53	5200
2026-01-26 23:36:19.08	36.81	59.74	-40.3	-42.7	15.6	0.00e+00	0	62	0	548405248	52	4695
2026-01-26 23:36:23.11	38.22	61.27	-40.0	-42.4	16.0	0.00e+00	0	62	0	555745280	51	4788
2026-01-26 23:36:27.15	39.82	62.83	-40.1	-42.5	16.0	0.00e+00	0	62	0	563085312	51	4837
2026-01-26 23:36:31.19	41.64	64.40	-40.7	-43.4	14.9	0.00e+00	0	62	0	570425344	52	5057
2026-01-26 23:36:35.23	43.72	65.98	-41.6	-44.9	13.4	5.30e-06	0	62	0	578813952	53	5689
2026-01-26 23:36:39.28	46.14	67.56	-42.2	-46.1	12.0	4.84e-04	0	62	0	586153984	55	5842
2026-01-26 23:36:43.32	48.95	69.12	-42.5	-46.8	11.2	1.83e-03	0	62	0	593494016	55	6341
2026-01-26 23:36:47.36	52.24	70.66	-42.2	-46.0	12.1	2.91e-04	0	62	0	600834048	55	5770
2026-01-26 23:36:51.40	56.13	72.15	-43.1	-48.0	10.2	3.39e-03	0	62	0	609222656	56	6813
2026-01-26 23:36:55.45	60.76	73.57	-43.1	-48.1	10.2	7.48e-03	0	62	0	616562688	56	6890
2026-01-26 23:36:59.48	66.24	74.87	-42.3	-46.1	12.1	2.41e-04	0	62	0	623902720	56	5508
2026-01-26 23:37:03.52	72.75	76.04	-43.0	-47.8	10.3	3.14e-03	0	62	0	631242752	56	6673
2026-01-26 23:37:07.56	80.37	77.01	-43.1	-48.0	10.1	7.23e-03	0	62	0	639631360	57	6474
2026-01-26 23:37:11.60	89.08	77.73	-43.2	-48.2	9.8	4.93e-03	0	62	0	646971392	57	6641
2026-01-26 23:37:15.63	98.63	78.14	-42.9	-47.6	10.6	2.92e-03	0	62	0	654311424	57	6157
2026-01-26 23:37:19.67	108.61	78.21	-42.4	-46.5	11.7	7.77e-04	0	62	0	661651456	56	5724
2026-01-26 23:37:23.71	118.42	77.94	-43.3	-48.5	9.4	1.37e-02	0	62	0	668991488	57	6858
2026-01-26 23:37:27.75	127.55	77.35	-43.6	-49.7	8.4	3.17e-02	0	62	0	677380096	57	7822
2026-01-26 23:37:31.79	135.65	76.48	-43.7	-49.9	8.2	4.15e-02	0	62	0	684720128	58	7584
2026-01-26 23:37:35.83	142.64	75.39	-43.1	-48.0	10.0	8.47e-03	0	62	0	692060160	58	6096
2026-01-26 23:37:39.87	148.55	74.13	-43.3	-48.7	9.3	2.26e-02	0	62	0	699400192	58	6627
2026-01-26 23:37:43.92	153.54	72.75	-42.7	-47.1	11.0	6.23e-03	0	62	0	707788800	57	5849
2026-01-26 23:37:47.96	157.72	71.29	-41.8	-45.4	12.7	1.17e-04	0	62	0	715128832	55	5372
2026-01-26 23:37:51.99	161.25	69.77	-42.6	-47.2	10.9	1.74e-03	0	62	0	722468864	55	6575
2026-01-26 23:37:56.03	164.25	68.21	-43.3	-48.6	9.4	2.41e-02	0	62	0	729808896	57	6902
2026-01-26 23:38:00.07	166.82	66.64	-42.4	-46.4	11.8	1.93e-03	0	62	0	737148928	56	5708
2026-01-26 23:38:04.11	169.04	65.05	-41.2	-44.2	13.9	0.00e+00	0	62	0	745537536	54	4939
2026-01-26 23:38:08.15	170.97	63.48	-40.6	-43.3	15.0	0.00e+00	0	62	0	752877568	52	4990
2026-01-26 23:38:12.19	172.66	61.91	-40.2	-42.6	15.7	0.00e+00	0	62	0	760217600	51	4891
2026-01-26 23:38:16.24	174.16	60.35	-42.4	-46.5	11.5	5.68e-04	0	62	0	767557632	55	6102
2026-01-26 23:38:20.27	175.47	58.83	-42.7	-47.2	10.9	3.38e-04	0	62	0	775946240	55	6621
2026-01-26 23:38:24.31	176.65	57.33	-42.2	-45.9	12.3	2.06e-04	0	62	0	783286272	56	5391
2026-01-26 23:38:28.35	177.71	55.85	-41.5	-44.9	13.3	1.67e-05	0	62	0	790626304	55	5051
2026-01-26 23:38:32.39	178.67	54.41	-40.9	-43.9	14.3	3.00e-06	0	62	0	797966336	53	5049
2026-01-26 23:38:36.43	179.54	53.00	-41.3	-44.5	13.7	4.50e-06	0	62	0	805306368	53	5412
2026-01-26 23:38:40.47	180.33	51.62	-42.4	-46.4	11.6	4.83e-04	0	62	0	813694976	55	6060
2026-01-26 23:38:44.51	181.05	50.28	-44.0	-50.8	7.2	1.55e-01	0	62	0	821035008	58	8444
2026-01-26 23:38:48.55	181.71	48.97	-43.7	-49.8	8.3	6.12e-02	0	62	0	828375040	58	7497
2026-01-26 23:38:52.59	182.32	47.69	-43.6	-49.3	8.8	1.94e-02	0	62	0	835715072	58	7085
2026-01-26 23:38:56.63	182.88	46.45	-42.9	-47.5	10.6	5.06e-03	0	62	0	844103680	57	6128
2026-01-26 23:39:00.67	183.41	45.24	-41.5	-44.7	13.5	2.28e-05	0	62	0	851443712	54	5255
2026-01-26 23:39:04.71	183.89	44.06	-41.9	-45.6	12.5	7.17e-05	0	62	0	858783744	54	5833
2026-01-26 23:39:08.75	184.34	42.92	-41.3	-44.6	13.5	6.25e-05	0	62	0	866123776	54	5165
2026-01-26 23:39:12.78	184.77	41.81	-41.1	-44.1	14.1	1.50e-06	0	62	0	873463808	53	5178
2026-01-26 23:39:16.83	185.16	40.73	-42.9	-47.7	10.4	3.14e-03	0	62	0	881852416	56	6606
2026-01-26 23:39:20.87	185.54	39.68	-41.7	-45.2	12.9	1.43e-04	0	62	0	889192448	55	5227
2026-01-26 23:39:24.91	185.89	38.66	-42.2	-46.2	11.9	1.88e-04	0	62	0	896532480	55	5876
2026-01-26 23:39:28.95	186.22	37.67	-43.7	-50.1	8.0	5.38e-02	0	62	0	903872512	57	8232
2026-01-26 23:39:32.99	186.53	36.70	-43.2	-48.3	9.7	1.44e-02	0	62	0	912261120	58	6334
2026-01-26 23:39:37.03	186.82	35.77	-42.4	-46.4	11.8	5.82e-04	0	62	0	919601152	56	5709
2026-01-26 23:39:41.08	187.10	34.85	-43.0	-48.0	10.1	4.26e-03	0	62	0	926941184	56	6867
2026-01-26 23:39:45.12	187.37	33.97	-43.9	-51.0	7.1	1.35e-01	0	62	0	934281216	58	8639
2026-01-26 23:39:49.16	187.62	33.10	-43.8	-50.5	7.6	1.22e-01	0	62	0	941621248	58	8112
2026-01-26 23:39:53.20	187.86	32.27	-44.6	-56.1	4.1	1.42e+00	0	62	104	946864128	60	13731
2026-01-26 23:39:57.23	188.08	31.45	-43.2	-48.6	9.4	1.63e-02	0	62	0	953155584	58	6553
2026-01-26 23:40:01.27	188.30	30.66	-43.2	-48.5	9.6	1.30e-02	0	62	0	961544192	58	6429
2026-01-26 23:40:05.31	188.51	29.88	-42.9	-47.8	10.2	6.36e-03	0	62	0	968884224	57	6337
2026-01-26 23:40:09.35	188.71	29.13	-42.7	-47.2	10.8	2.84e-03	0	62	0	976224256	57	5923
2026-01-26 23:40:13.39	188.90	28.39	-42.5	-46.8	11.3	1.28e-03	0	62	0	983564288	57	5641
2026-01-26 23:40:17.42	189.08	27.68	-42.1	-45.9	12.2	2.46e-04	0	62	0	991952896	56	5395
2026-01-26 23:40:21.47	189.26	26.98	-41.7	-45.4	12.6	1.04e-04	0	62	0	999292928	55	5394
2026-01-26 23:40:25.50	189.43	26.30	-41.7	-45.3	12.7	8.85e-05	0	62	0	1006632960	55	5316
2026-01-26 23:40:29.54	189.59	25.64	-41.6	-45.2	12.8	7.40e-05	0	62	0	1013972992	55	5263
2026-01-26 23:40:33.59	189.75	24.99	-41.6	-45.3	12.7	6.94e-05	0	62	0	1021313024	55	5280
2026-01-26 23:40:37.62	189.90	24.36	-41.3	-44.6	13.4	2.74e-05	0	62	0	1029701632	54	5205
2026-01-26 23:40:41.66	190.04	23.74	-41.1	-44.4	13.6	7.60e-06	0	62	0	1037041664	54	5048
2026-01-26 23:40:45.70	190.18	23.13	-41.0	-44.2	13.8	4.50e-06	0	62	0	1044381696	53	5239
2026-01-26 23:40:49.74	190.32	22.54	-40.9	-44.0	13.9	2.20e-06	0	62	0	1051721728	53	5147
2026-01-26 23:40:53.78	190.45	21.97	-41.0	-44.2	13.7	3.80e-06	0	62	0	1060110336	53	5245
2026-01-26 23:40:57.82	190.58	21.40	-41.1	-44.4	13.5	9.10e-06	0	62	0	1067450368	53	5361
2026-01-26 23:41:01.86	190.70	20.85	-41.3	-44.7	13.3	1.98e-05	0	62	0	1074790400	53	5534
2026-01-26 23:41:05.90	190.82	20.31	-41.3	-44.7	13.3	2.05e-05	0	62	0	1082130432	53	5543
2026-01-26 23:41:09.93	190.93	19.78	-41.3	-44.8	13.1	2.82e-05	0	62	0	1089470464	53	5610
2026-01-26 23:41:13.97	191.04	19.26	-41.4	-44.9	12.9	4.19e-05	0	62	0	1097859072	53	5707
2026-01-26 23:41:18.01	191.15	18.76	-41.5	-45.2	12.6	8.85e-05	0	62	0	1105199104	53	5879
2026-01-26 23:41:22.05	191.26	18.26	-41.6	-45.4	12.4	1.52e-04	0	62	0	1112539136	53	6018
2026-01-26 23:41:26.09	191.36	17.77	-41.7	-45.6	12.2	1.91e-04	0	62	0	1119879168	54	5789
2026-01-26 23:41:30.12	191.46	17.30	-41.8	-45.7	12.1	2.66e-04	0	62	0	1128267776	54	5883
2026-01-26 23:41:34.16	191.56	16.83	-41.8	-45.7	12.0	3.55e-04	0	62	0	1135607808	54	5896
2026-01-26 23:41:38.21	191.65	16.36	-41.7	-45.6	12.1	2.59e-04	0	62	0	1142947840	54	5814
2026-01-26 23:41:42.25	191.74	15.91	-41.6	-45.4	12.3	1.77e-04	0	62	0	1150287872	54	5714
2026-01-26 23:41:46.28	191.83	15.47	-41.6	-45.4	12.3	1.88e-04	0	62	0	1157627904	54	5696
2026-01-26 23:41:50.32	191.92	15.03	-41.5	-45.3	12.4	1.50e-04	0	62	0	1166016512	54	5616
2026-01-26 23:41:54.36	192.00	14.61	-41.5	-45.3	12.4	1.61e-04	0	62	0	1173356544	54	5621
2026-01-26 23:41:58.40	192.09	14.19	-41.7	-45.5	12.1	2.34e-04	0	62	0	1180696576	54	5785
2026-01-26 23:42:02.45	192.17	13.77	-41.7	-45.5	12.2	2.28e-04	0	62	0	1188036608	54	5778
2026-01-26 23:42:06.49	192.25	13.36	-41.6	-45.6	12.1	2.56e-04	0	62	0	1196425216	54	5806
2026-01-26 23:42:10.53	192.32	12.96	-41.7	-45.8	11.9	4.45e-04	0	62	0	1203765248	54	5932
2026-01-26 23:42:14.57	192.40	12.57	-41.8	-45.9	11.7	5.35e-04	0	62	0	1211105280	54	5996
2026-01-26 23:42:18.61	192.47	12.18	-41.8	-46.1	11.5	7.34e-04	0	62	0	1218445312	54	6132
2026-01-26 23:42:22.65	192.55	11.80	-41.8	-46.1	11.4	1.02e-03	0	62	0	1226833920	54	6183
2026-01-26 23:42:26.69	192.62	11.43	-41.9	-46.2	11.2	1.45e-03	0	62	0	1234173952	54	6262
2026-01-26 23:42:30.72	192.68	11.06	-41.9	-46.2	11.2	1.35e-03	0	62	0	1241513984	54	6269
2026-01-26 23:42:34.76	192.75	10.69	-41.9	-46.4	11.1	1.78e-03	0	62	0	1248854016	54	6352
2026-01-26 23:42:38.80	192.82	10.33	-42.0	-46.5	10.9	1.75e-03	0	62	0	1256194048	54	6445
2026-01-26 23:42:42.84	192.88	9.98	-41.9	-46.4	11.0	1.91e-03	0	62	0	1264582656	54	6397
2026-01-26 23:42:46.88	192.95	9.63	-41.9	-46.5	10.8	2.16e-03	0	62	0	1271922688	54	6431
2026-01-26 23:42:50.92	193.01	9.29	-41.9	-46.4	10.8	2.13e-03	0	62	0	1279262720	54	6390
2026-01-26 23:42:54.96	193.07	8.95	-41.8	-46.4	10.8	2.22e-03	0	62	0	1286602752	54	6375
2026-01-26 23:42:59.00	193.13	8.61	-41.7	-46.2	11.0	2.12e-03	0	62	0	1294991360	54	6265
2026-01-26 23:43:03.04	193.19	8.28	-41.7	-46.2	10.9	2.42e-03	0	62	0	1302331392	54	6223
2026-01-26 23:43:07.08	193.25	7.96	-44.3	-57.7	3.9	3.36e-01	0	62	104	1309671424	59	17493
2026-01-26 23:43:11.12	193.31	7.63	-45.0	-59.7	3.8	1.49e+00	0	62	104	1309671424	60	20918
2026-01-26 23:43:15.16	193.36	7.32	-45.1	-59.8	3.8	1.49e+00	0	62	104	1309671424	60	21061
2026-01-26 23:43:19.20	193.42	7.00	-45.0	-59.6	3.8	1.49e+00	0	62	104	1309671424	60	20667
2026-01-26 23:43:23.25	193.47	6.69	-45.0	-59.6	3.8	1.49e+00	0	62	104	1309671424	60	20553
2026-01-26 23:43:27.29	193.52	6.38	-44.9	-59.5	3.8	1.49e+00	0	62	104	1309671424	60	20500
2026-01-26 23:43:31.33	193.58	6.08	-44.9	-59.5	3.8	1.49e+00	0	62	104	1309671424	60	20395
2026-01-26 23:43:35.37	193.63	5.78	-44.9	-59.5	3.8	1.49e+00	0	62	104	1309671424	60	20513
2026-01-26 23:43:39.42	193.68	5.49	-44.9	-59.5	3.8	1.49e+00	0	62	104	1309671424	60	20439
2026-01-26 23:43:43.46	193.73	5.19	-44.9	-59.5	3.8	1.49e+00	0	62	104	1309671424	60	20314
2026-01-26 23:43:47.50	193.78	4.90	-44.9	-59.4	3.8	1.49e+00	0	62	104	1309671424	60	20264
2026-01-26 23:43:51.54	193.83	4.62	-44.9	-59.4	3.8	1.49e+00	0	62	104	1309671424	60	20253
2026-01-26 23:43:55.58	193.87	4.33	-44.9	-59.4	3.8	1.49e+00	0	62	104	1309671424	60	20238
2026-01-26 23:43:59.63	193.92	4.05	-44.8	-59.4	3.8	1.49e+00	0	62	104	1309671424	60	20262
2026-01-26 23:44:03.67	193.97	3.77	-44.8	-59.4	3.8	1.49e+00	0	62	104	1309671424	60	20193
2026-01-26 23:44:07.71	194.01	3.50	-44.8	-59.4	3.8	1.49e+00	0	62	104	1309671424	60	20217
2026-01-26 23:44:11.75	194.06	3.23	-44.8	-59.4	3.8	1.49e+00	0	62	104	1309671424	60	20148
2026-01-26 23:44:15.79	194.10	2.96	-44.8	-59.4	3.8	1.49e+00	0	62	104	1309671424	60	20104
2026-01-26 23:44:19.84	194.15	2.69	-44.8	-59.4	3.8	1.49e+00	0	62	104	1309671424	60	20278
2026-01-26 23:44:23.88	194.19	2.43	-44.8	-59.4	3.8	1.49e+00	0	62	104	1309671424	60	20199
2026-01-26 23:44:27.92	194.23	2.16	-44.8	-59.4	3.8	1.49e+00	0	62	104	1309671424	60	20254
2026-01-26 23:44:31.96	194.27	1.90	-44.8	-59.4	3.8	1.49e+00	0	62	104	1309671424	60	20140

#Closed at: 2026-01-26 23:44:33
#Recorded file [1309 MB]: D:/lorett/data/31039_260127_023003.dat