passes_logs/2026/01/26/R2.0S_Moscow/R2.0S_Moscow__20260126_152001_FENGYUN_3E_rec.log

#Pass ID: 20260126_152001_FENGYUN 3E
#Satellite: FENGYUN 3E
#Configuration: FENGYUN 3E
#almurnet v.1.7.20251203
#Start time: 2026-01-26 15:20:02

#Version: 2.2.20231116
#Station: R2.0S_Moscow
#Location: 37.707566 lon 55.798166 lat
#TLE: 1 49008U 21062A   26025.99868676  .00000027  00000+0  33666-4 0  9992
#TLE: 2 49008  98.7499  30.9985 0002454 117.4834 242.6592 14.19886826236404

#Time	Az	El	Level	Level2	SNR	BER	BlckErr	Temp	State	Recorded	gain1	gain2
2026-01-26 15:20:02.87	194.43	2.11	-44.0	-55.0	3.8	8.46e-01	0	53	0	0	59	12231
2026-01-26 15:20:06.91	194.65	2.35	-44.0	-55.1	3.8	8.46e-01	0	54	104	0	59	12251
2026-01-26 15:20:10.95	194.87	2.59	-44.0	-55.0	3.8	8.46e-01	0	54	104	0	59	12192
2026-01-26 15:20:14.99	195.09	2.84	-44.0	-55.0	3.8	8.47e-01	0	54	104	0	59	12197
2026-01-26 15:20:19.04	195.32	3.08	-44.0	-55.0	3.8	8.47e-01	0	55	104	0	59	12173
2026-01-26 15:20:23.08	195.56	3.33	-44.0	-55.1	3.8	8.46e-01	0	55	104	0	59	12245
2026-01-26 15:20:27.12	195.79	3.58	-44.0	-55.0	3.8	8.47e-01	0	55	104	0	59	12219
2026-01-26 15:20:31.17	196.04	3.84	-44.0	-55.0	3.8	8.46e-01	0	56	104	0	59	12122
2026-01-26 15:20:35.21	196.28	4.09	-44.0	-55.0	3.8	8.46e-01	0	56	104	0	59	12144
2026-01-26 15:20:39.25	196.53	4.35	-44.0	-55.0	3.8	8.46e-01	0	56	104	0	59	12161
2026-01-26 15:20:43.29	196.78	4.60	-44.0	-54.9	3.8	8.45e-01	0	56	104	0	59	12089
2026-01-26 15:20:47.33	197.04	4.86	-43.9	-54.7	3.8	8.46e-01	0	56	104	0	58	12402
2026-01-26 15:20:51.37	197.30	5.13	-43.9	-54.5	3.8	8.46e-01	0	56	104	0	58	12199
2026-01-26 15:20:55.41	197.57	5.39	-43.8	-53.9	3.8	8.45e-01	0	57	104	0	58	11346
2026-01-26 15:20:59.46	197.84	5.66	-43.7	-53.0	3.8	8.45e-01	0	57	104	0	58	10192
2026-01-26 15:21:03.49	198.12	5.93	-43.3	-51.0	4.3	8.32e-01	0	57	0	0	57	8567
2026-01-26 15:21:07.54	198.40	6.20	-42.8	-49.2	5.2	7.25e-01	0	57	0	0	56	7399
2026-01-26 15:21:11.58	198.68	6.47	-41.8	-46.7	6.9	1.94e-01	0	57	0	23068672	54	6246
2026-01-26 15:21:15.62	198.97	6.75	-41.8	-46.7	6.8	1.72e-01	0	58	0	52428800	54	6259
2026-01-26 15:21:19.66	199.27	7.03	-41.7	-46.3	7.2	1.43e-01	0	58	0	81788928	54	5967
2026-01-26 15:21:23.71	199.57	7.31	-40.5	-44.0	9.5	1.52e-02	0	58	0	111149056	52	5114
2026-01-26 15:21:27.75	199.88	7.59	-39.0	-41.6	12.1	4.62e-04	0	58	0	139460608	49	4604
2026-01-26 15:21:31.79	200.19	7.88	-38.1	-40.5	12.9	4.80e-05	0	58	0	168820736	47	4587
2026-01-26 15:21:35.84	200.51	8.17	-43.0	-50.8	4.3	5.18e-02	0	59	0	197132288	55	9465
2026-01-26 15:21:39.88	200.84	8.46	-39.2	-41.9	12.0	5.48e-03	0	59	0	220200960	49	4787
2026-01-26 15:21:43.92	201.17	8.75	-39.2	-41.9	12.1	3.26e-04	0	59	0	249561088	49	4770
2026-01-26 15:21:47.97	201.51	9.05	-38.5	-40.8	13.2	2.51e-05	0	59	0	278921216	48	4480
2026-01-26 15:21:52.01	201.86	9.35	-38.2	-40.5	13.4	1.71e-05	0	59	0	308281344	47	4590
2026-01-26 15:21:56.05	202.21	9.65	-38.1	-40.3	13.6	1.83e-05	0	59	0	336592896	46	4738
2026-01-26 15:22:00.09	202.57	9.95	-38.1	-40.3	13.7	1.60e-05	0	59	0	365953024	46	4754
2026-01-26 15:22:04.13	202.93	10.26	-38.2	-40.4	13.7	4.50e-06	0	59	0	395313152	46	4764
2026-01-26 15:22:08.17	203.31	10.57	-37.7	-39.8	14.3	0.00e+00	0	59	0	424673280	46	4447
2026-01-26 15:22:12.21	203.69	10.89	-37.9	-40.0	14.1	5.70e-06	0	60	0	454033408	46	4587
2026-01-26 15:22:16.25	204.08	11.20	-37.9	-39.9	14.2	5.70e-06	0	60	0	483393536	46	4532
2026-01-26 15:22:20.29	204.48	11.52	-37.9	-40.0	14.2	0.00e+00	0	60	0	511705088	46	4564
2026-01-26 15:22:24.33	204.88	11.84	-37.8	-39.9	14.3	0.00e+00	0	60	0	541065216	46	4527
2026-01-26 15:22:28.38	205.30	12.17	-37.6	-39.6	14.6	1.10e-06	0	60	0	570425344	45	4625
2026-01-26 15:22:32.42	205.72	12.49	-37.3	-39.3	14.9	0.00e+00	0	60	0	599785472	45	4481
2026-01-26 15:22:36.45	206.16	12.82	-37.4	-39.4	14.9	0.00e+00	0	60	0	629145600	45	4518
2026-01-26 15:22:40.50	206.60	13.16	-37.2	-39.2	15.1	0.00e+00	0	60	0	657457152	45	4423
2026-01-26 15:22:44.54	207.05	13.50	-37.3	-39.4	14.9	0.00e+00	0	60	0	686817280	45	4528
2026-01-26 15:22:48.57	207.52	13.84	-37.2	-39.2	15.1	0.00e+00	0	60	0	716177408	45	4422
2026-01-26 15:22:52.62	207.99	14.18	-37.0	-39.0	15.2	0.00e+00	0	61	0	745537536	44	4598
2026-01-26 15:22:56.65	208.47	14.52	-37.0	-39.1	15.3	0.00e+00	0	61	0	774897664	44	4601
2026-01-26 15:23:00.69	208.97	14.87	-37.0	-39.0	15.3	1.10e-06	0	61	0	804257792	44	4589
2026-01-26 15:23:04.73	209.47	15.23	-36.7	-38.7	15.7	0.00e+00	0	61	0	832569344	44	4393
2026-01-26 15:23:08.77	209.99	15.58	-36.7	-38.6	15.7	0.00e+00	0	61	0	861929472	44	4347
2026-01-26 15:23:12.81	210.52	15.94	-36.3	-38.2	16.0	0.00e+00	0	61	0	891289600	43	4415
2026-01-26 15:23:16.85	211.07	16.30	-36.4	-38.3	15.9	0.00e+00	0	61	0	920649728	43	4464
2026-01-26 15:23:20.89	211.62	16.67	-36.6	-38.5	15.8	0.00e+00	0	61	0	950009856	43	4546
2026-01-26 15:23:24.93	212.19	17.03	-36.3	-38.1	16.1	0.00e+00	0	61	0	978321408	43	4384
2026-01-26 15:23:28.97	212.77	17.40	-36.2	-37.9	16.3	0.00e+00	0	61	0	1007681536	43	4285
2026-01-26 15:23:33.01	213.37	17.78	-35.9	-37.6	16.7	0.00e+00	0	61	0	1037041664	42	4362
2026-01-26 15:23:37.05	213.98	18.15	-36.0	-37.7	16.6	0.00e+00	0	61	0	1066401792	42	4398
2026-01-26 15:23:41.08	214.61	18.53	-36.0	-37.7	16.6	0.00e+00	0	61	0	1095761920	42	4427
2026-01-26 15:23:45.13	215.25	18.91	-35.9	-37.7	16.6	0.00e+00	0	61	0	1125122048	42	4412
2026-01-26 15:23:49.17	215.91	19.29	-35.8	-37.5	16.8	0.00e+00	0	61	0	1153433600	42	4331
2026-01-26 15:23:53.21	216.58	19.68	-35.5	-37.2	17.0	0.00e+00	0	61	0	1182793728	42	4186
2026-01-26 15:23:57.25	217.27	20.06	-35.7	-37.4	16.8	0.00e+00	0	61	0	1212153856	41	4525
2026-01-26 15:24:01.29	217.98	20.45	-35.7	-37.5	16.7	0.00e+00	0	61	0	1241513984	41	4574
2026-01-26 15:24:05.33	218.71	20.84	-35.7	-37.5	16.8	0.00e+00	0	61	0	1270874112	41	4557
2026-01-26 15:24:09.38	219.45	21.24	-35.4	-37.1	17.1	0.00e+00	0	61	0	1299185664	41	4374
2026-01-26 15:24:13.42	220.21	21.63	-35.4	-37.1	17.2	0.00e+00	0	61	0	1328545792	41	4341
2026-01-26 15:24:17.46	221.00	22.02	-35.3	-37.0	17.3	0.00e+00	0	62	0	1357905920	41	4294
2026-01-26 15:24:21.50	221.80	22.42	-35.5	-37.2	17.1	0.00e+00	0	62	0	1387266048	41	4398
2026-01-26 15:24:25.54	222.62	22.81	-35.5	-37.2	17.1	0.00e+00	0	61	0	1416626176	41	4401
2026-01-26 15:24:29.59	223.46	23.21	-35.3	-37.0	17.3	0.00e+00	0	61	0	1445986304	41	4328
2026-01-26 15:24:33.63	224.32	23.60	-35.4	-37.1	17.2	0.00e+00	0	62	0	1474297856	41	4350
2026-01-26 15:24:37.67	225.21	24.00	-35.0	-36.7	17.6	0.00e+00	0	62	0	1503657984	41	4147
2026-01-26 15:24:41.72	226.12	24.39	-35.1	-36.8	17.5	0.00e+00	0	62	0	1533018112	40	4449
2026-01-26 15:24:45.76	227.05	24.78	-35.3	-37.1	17.2	0.00e+00	0	62	0	1562378240	40	4613
2026-01-26 15:24:49.80	228.00	25.17	-35.2	-36.8	17.4	0.00e+00	0	62	0	1591738368	40	4483
2026-01-26 15:24:53.84	228.97	25.56	-35.3	-37.0	17.3	0.00e+00	0	62	0	1620049920	40	4582
2026-01-26 15:24:57.88	229.97	25.94	-35.0	-36.7	17.6	0.00e+00	0	62	0	1649410048	40	4394
2026-01-26 15:25:01.92	230.99	26.32	-34.8	-36.5	17.8	0.00e+00	0	62	0	1678770176	40	4294
2026-01-26 15:25:05.96	232.04	26.69	-34.8	-36.5	17.8	0.00e+00	0	62	0	1708130304	40	4303
2026-01-26 15:25:10.00	233.11	27.06	-34.9	-36.6	17.7	0.00e+00	0	62	0	1737490432	40	4363
2026-01-26 15:25:14.05	234.21	27.43	-34.9	-36.6	17.7	0.00e+00	0	62	0	1766850560	40	4363
2026-01-26 15:25:18.09	235.32	27.78	-34.9	-36.5	17.8	0.00e+00	0	62	0	1795162112	40	4311
2026-01-26 15:25:22.13	236.47	28.13	-34.8	-36.5	17.8	0.00e+00	0	62	0	1824522240	40	4298
2026-01-26 15:25:26.17	237.64	28.47	-34.6	-36.2	18.0	0.00e+00	0	62	0	1853882368	40	4172
2026-01-26 15:25:30.21	238.83	28.81	-34.7	-36.3	17.9	0.00e+00	0	62	0	1883242496	40	4220
2026-01-26 15:25:34.25	240.04	29.13	-34.7	-36.3	17.9	0.00e+00	0	62	0	1912602624	40	4217
2026-01-26 15:25:38.30	241.29	29.44	-34.7	-36.3	17.9	0.00e+00	0	62	0	1940914176	40	4233
2026-01-26 15:25:42.34	242.55	29.74	-34.6	-36.2	18.0	0.00e+00	0	62	0	1970274304	40	4164
2026-01-26 15:25:46.38	243.84	30.03	-34.6	-36.3	18.0	0.00e+00	0	62	0	1999634432	40	4197
2026-01-26 15:25:50.42	245.14	30.31	-34.6	-36.3	17.9	0.00e+00	0	62	0	2028994560	40	4219
2026-01-26 15:25:54.46	246.47	30.57	-34.6	-36.2	18.0	0.00e+00	0	62	0	2058354688	40	4184
2026-01-26 15:25:58.50	247.82	30.82	-34.7	-36.4	17.9	0.00e+00	0	62	0	2087714816	39	4504
2026-01-26 15:26:02.55	249.20	31.05	-34.4	-35.9	18.4	0.00e+00	0	62	0	2116026368	39	4273
2026-01-26 15:26:06.59	250.59	31.26	-34.6	-36.1	18.2	0.00e+00	0	62	0	2145386496	39	4388
2026-01-26 15:26:10.63	251.99	31.46	-34.7	-36.3	17.9	0.00e+00	0	62	0	2174746624	39	4489
2026-01-26 15:26:14.67	253.42	31.64	-34.8	-36.5	17.8	0.00e+00	0	62	0	2204106752	39	4553
2026-01-26 15:26:18.71	254.85	31.81	-35.0	-36.2	18.5	0.00e+00	0	62	0	2233466880	40	4160
2026-01-26 15:26:22.75	256.31	31.95	-34.8	-36.0	18.8	0.00e+00	0	62	0	2262827008	40	4053
2026-01-26 15:26:26.80	257.77	32.07	-34.9	-36.0	18.7	0.00e+00	0	62	0	2291138560	40	4061
2026-01-26 15:26:30.84	259.24	32.18	-35.0	-36.1	18.6	0.00e+00	0	62	0	2320498688	40	4143
2026-01-26 15:26:34.89	260.73	32.26	-34.8	-35.9	18.8	0.00e+00	0	62	0	2349858816	40	4036
2026-01-26 15:26:38.92	262.21	32.33	-35.0	-36.1	18.6	0.00e+00	0	62	0	2379218944	40	4130
2026-01-26 15:26:42.97	263.71	32.37	-34.9	-36.1	18.7	0.00e+00	0	62	0	2408579072	40	4101
2026-01-26 15:26:47.01	265.20	32.39	-34.9	-36.0	18.7	0.00e+00	0	62	0	2436890624	40	4098
2026-01-26 15:26:51.05	266.70	32.39	-34.6	-35.7	19.1	0.00e+00	0	62	0	2466250752	40	3931
2026-01-26 15:26:55.09	268.19	32.37	-34.5	-35.6	19.1	0.00e+00	0	62	0	2495610880	40	3896
2026-01-26 15:26:59.14	269.69	32.32	-35.0	-36.1	18.7	0.00e+00	0	62	0	2524971008	39	4361
2026-01-26 15:27:03.18	271.17	32.26	-35.0	-36.2	18.6	0.00e+00	0	62	0	2554331136	40	4154
2026-01-26 15:27:07.22	272.65	32.17	-35.1	-36.2	18.5	0.00e+00	0	62	0	2583691264	40	4185
2026-01-26 15:27:11.26	274.12	32.07	-35.2	-36.3	18.4	0.00e+00	0	62	0	2612002816	40	4228
2026-01-26 15:27:15.29	275.58	31.94	-34.5	-35.6	19.1	0.00e+00	0	62	0	2641362944	40	3892
2026-01-26 15:27:19.34	277.03	31.80	-34.9	-36.0	18.7	0.00e+00	0	62	0	2670723072	40	4082
2026-01-26 15:27:23.38	278.46	31.64	-34.9	-36.0	18.7	0.00e+00	0	62	0	2700083200	40	4075
2026-01-26 15:27:27.42	279.88	31.46	-35.1	-36.3	18.4	0.00e+00	0	62	0	2729443328	40	4214
2026-01-26 15:27:31.46	281.29	31.26	-35.2	-36.4	18.4	0.00e+00	0	62	0	2757754880	40	4255
2026-01-26 15:27:35.50	282.67	31.04	-35.1	-36.3	18.6	0.00e+00	0	62	0	2787115008	40	4203
2026-01-26 15:27:39.54	284.04	30.81	-35.1	-36.2	18.6	0.00e+00	0	62	0	2816475136	40	4178
2026-01-26 15:27:43.58	285.38	30.56	-35.2	-36.3	18.4	0.00e+00	0	62	0	2845835264	40	4241
2026-01-26 15:27:47.62	286.71	30.30	-35.1	-36.3	18.5	0.00e+00	0	62	0	2875195392	40	4200
2026-01-26 15:27:51.67	288.02	30.02	-34.9	-36.0	18.7	0.00e+00	0	62	0	2904555520	40	4091
2026-01-26 15:27:55.71	289.30	29.74	-35.1	-36.2	18.6	0.00e+00	0	62	0	2932867072	40	4179
2026-01-26 15:27:59.75	290.56	29.44	-35.1	-36.2	18.5	0.00e+00	0	62	0	2962227200	40	4190
2026-01-26 15:28:03.79	291.79	29.13	-35.1	-36.2	18.5	0.00e+00	0	62	0	2991587328	40	4192
2026-01-26 15:28:07.84	293.01	28.80	-35.0	-36.2	18.5	0.00e+00	0	62	0	3020947456	40	4153
2026-01-26 15:28:11.88	294.19	28.47	-35.3	-36.5	18.2	0.00e+00	0	62	0	3050307584	40	4335
2026-01-26 15:28:15.92	295.36	28.13	-35.1	-36.3	18.4	0.00e+00	0	62	0	3078619136	40	4202
2026-01-26 15:28:19.97	296.50	27.78	-35.2	-36.4	18.3	0.00e+00	0	62	0	3107979264	40	4245
2026-01-26 15:28:24.01	297.61	27.43	-35.3	-36.4	18.3	0.00e+00	0	62	0	3137339392	40	4280
2026-01-26 15:28:28.05	298.70	27.07	-35.4	-36.6	18.1	0.00e+00	0	62	0	3166699520	40	4366
2026-01-26 15:28:32.10	299.77	26.70	-35.5	-36.8	17.9	0.00e+00	0	62	0	3196059648	40	4449
2026-01-26 15:28:36.14	300.81	26.33	-35.5	-36.7	18.0	0.00e+00	0	62	0	3225419776	40	4412
2026-01-26 15:28:40.18	301.83	25.95	-35.4	-36.6	18.1	0.00e+00	0	62	0	3254779904	40	4375
2026-01-26 15:28:44.22	302.82	25.57	-35.6	-36.9	17.8	0.00e+00	0	62	0	3283091456	40	4501
2026-01-26 15:28:48.26	303.79	25.19	-35.6	-36.8	17.9	0.00e+00	0	62	0	3312451584	40	4448
2026-01-26 15:28:52.30	304.74	24.80	-35.4	-36.6	18.1	0.00e+00	0	62	0	3341811712	40	4347
2026-01-26 15:28:56.34	305.66	24.41	-35.5	-36.7	17.9	0.00e+00	0	62	0	3371171840	40	4434
2026-01-26 15:29:00.39	306.57	24.02	-35.8	-37.0	17.6	0.00e+00	0	62	0	3400531968	41	4325
2026-01-26 15:29:04.42	307.45	23.63	-35.7	-37.0	17.6	0.00e+00	0	62	0	3428843520	41	4303
2026-01-26 15:29:08.46	308.31	23.24	-35.6	-36.8	17.8	0.00e+00	0	62	0	3458203648	41	4205
2026-01-26 15:29:12.50	309.15	22.85	-35.6	-36.8	17.8	0.00e+00	0	62	0	3487563776	41	4206
2026-01-26 15:29:16.54	309.97	22.46	-36.0	-37.2	17.3	0.00e+00	0	62	0	3516923904	41	4436
2026-01-26 15:29:20.58	310.76	22.06	-36.2	-37.5	17.1	0.00e+00	0	62	0	3546284032	41	4569
2026-01-26 15:29:24.62	311.54	21.67	-36.0	-37.3	17.2	0.00e+00	0	62	0	3574595584	41	4467
2026-01-26 15:29:28.66	312.30	21.28	-36.0	-37.3	17.2	0.00e+00	0	62	0	3603955712	41	4471
2026-01-26 15:29:32.71	313.05	20.89	-36.4	-37.7	16.8	0.00e+00	0	62	0	3633315840	42	4424
2026-01-26 15:29:36.75	313.77	20.51	-36.6	-37.9	16.6	0.00e+00	0	62	0	3662675968	42	4537
2026-01-26 15:29:40.79	314.47	20.12	-36.3	-37.7	16.8	0.00e+00	0	62	0	3692036096	42	4412
2026-01-26 15:29:44.83	315.16	19.74	-36.1	-37.4	17.1	0.00e+00	0	62	0	3721396224	42	4251
2026-01-26 15:29:48.87	315.84	19.35	-36.1	-37.4	17.1	0.00e+00	0	62	0	3749707776	42	4268
2026-01-26 15:29:52.91	316.49	18.98	-36.6	-38.0	16.5	0.00e+00	0	62	0	3779067904	42	4565
2026-01-26 15:29:56.96	317.13	18.60	-36.9	-38.4	16.1	0.00e+00	0	62	0	3808428032	43	4495
2026-01-26 15:30:01.00	317.76	18.22	-37.0	-38.4	16.1	0.00e+00	0	62	0	3837788160	43	4534
2026-01-26 15:30:05.04	318.37	17.85	-36.8	-38.2	16.2	0.00e+00	0	62	0	3867148288	43	4422
2026-01-26 15:30:09.08	318.97	17.48	-36.6	-38.0	16.4	0.00e+00	0	62	0	3896508416	43	4336
2026-01-26 15:30:13.13	319.55	17.11	-36.9	-38.4	16.0	0.00e+00	0	63	0	3925868544	43	4517
2026-01-26 15:30:17.17	320.12	16.75	-37.0	-38.5	15.9	0.00e+00	0	62	0	3954180096	43	4562
2026-01-26 15:30:21.21	320.67	16.39	-37.2	-38.7	15.7	0.00e+00	0	63	0	3983540224	43	4673
2026-01-26 15:30:25.25	321.22	16.03	-37.4	-39.0	15.5	0.00e+00	0	62	0	4012900352	44	4558
2026-01-26 15:30:29.29	321.75	15.67	-37.3	-38.8	15.7	0.00e+00	0	62	0	4042260480	44	4480
2026-01-26 15:30:33.33	322.26	15.32	-37.1	-38.6	15.9	0.00e+00	0	62	0	4071620608	44	4354
2026-01-26 15:30:37.37	322.77	14.97	-37.1	-38.6	15.9	0.00e+00	0	63	0	4099932160	44	4364
2026-01-26 15:30:41.41	323.27	14.62	-37.2	-38.8	15.7	0.00e+00	0	62	0	4129292288	44	4449
2026-01-26 15:30:45.45	323.75	14.28	-37.5	-39.1	15.3	0.00e+00	0	62	0	4158652416	44	4626
2026-01-26 15:30:49.50	324.23	13.94	-37.7	-39.3	15.1	0.00e+00	0	63	0	4188012544	45	4477
2026-01-26 15:30:53.54	324.69	13.60	-37.5	-39.1	15.2	0.00e+00	0	62	0	4217372672	45	4364
2026-01-26 15:30:57.58	325.14	13.27	-37.6	-39.2	15.1	0.00e+00	0	63	0	4246732800	45	4440
2026-01-26 15:31:01.62	325.59	12.94	-37.7	-39.3	15.0	0.00e+00	0	62	0	4275044352	45	4477
2026-01-26 15:31:05.67	326.02	12.61	-38.0	-39.7	14.6	0.00e+00	0	62	0	4304404480	45	4670
2026-01-26 15:31:09.71	326.45	12.28	-38.1	-39.8	14.5	0.00e+00	0	63	0	4333764608	45	4727
2026-01-26 15:31:13.75	326.86	11.96	-38.3	-40.0	14.2	0.00e+00	0	63	0	4363124736	46	4592
2026-01-26 15:31:17.79	327.27	11.64	-38.0	-39.7	14.6	0.00e+00	0	63	0	4392484864	46	4398
2026-01-26 15:31:21.83	327.67	11.32	-38.0	-39.7	14.5	0.00e+00	0	62	0	4421844992	46	4408
2026-01-26 15:31:25.87	328.06	11.01	-38.1	-39.8	14.3	1.10e-06	0	62	0	4450156544	46	4485
2026-01-26 15:31:29.91	328.45	10.70	-38.2	-40.0	14.1	0.00e+00	0	63	0	4479516672	46	4580
2026-01-26 15:31:33.95	328.82	10.39	-38.4	-40.2	13.8	2.20e-06	0	63	0	4508876800	46	4703
2026-01-26 15:31:37.99	329.19	10.09	-38.5	-40.5	13.6	8.00e-06	0	63	0	4538236928	46	4836
2026-01-26 15:31:42.03	329.55	9.79	-38.5	-40.4	13.6	1.14e-05	0	62	0	4567597056	46	4806
2026-01-26 15:31:46.07	329.91	9.49	-38.5	-40.5	13.4	1.14e-05	0	63	0	4595908608	46	4852
2026-01-26 15:31:50.12	330.25	9.19	-38.6	-40.6	13.3	1.94e-05	0	63	0	4625268736	47	4617
2026-01-26 15:31:54.16	330.60	8.89	-38.6	-40.7	13.1	3.31e-05	0	62	0	4654628864	47	4671
2026-01-26 15:31:58.20	330.93	8.60	-38.5	-40.5	13.3	1.25e-05	0	63	0	4683988992	47	4566
2026-01-26 15:32:02.24	331.26	8.31	-38.9	-41.1	12.6	7.55e-05	0	63	0	4713349120	47	4913
2026-01-26 15:32:06.28	331.58	8.03	-38.9	-41.1	12.6	8.92e-05	0	63	0	4742709248	47	4879
2026-01-26 15:32:10.32	331.90	7.74	-45.2	-56.2	3.8	8.45e-01	0	63	104	4744806400	59	13973
2026-01-26 15:32:14.37	332.21	7.46	-45.4	-56.7	3.8	8.46e-01	0	63	104	4744806400	60	13998
2026-01-26 15:32:18.41	332.51	7.18	-45.2	-56.6	3.8	8.45e-01	0	63	104	4744806400	60	13766
2026-01-26 15:32:22.45	332.81	6.91	-45.1	-56.5	3.8	8.45e-01	0	63	104	4744806400	60	13667
2026-01-26 15:32:26.49	333.11	6.63	-45.2	-56.5	3.8	8.46e-01	0	63	104	4744806400	60	13677
2026-01-26 15:32:30.53	333.40	6.36	-45.1	-56.5	3.8	8.47e-01	0	63	104	4744806400	60	13634
2026-01-26 15:32:34.58	333.68	6.09	-45.1	-56.5	3.8	8.46e-01	0	63	104	4744806400	60	13698
2026-01-26 15:32:38.62	333.96	5.82	-45.1	-56.5	3.8	8.47e-01	0	63	104	4744806400	60	13610
2026-01-26 15:32:42.67	334.24	5.56	-45.1	-56.5	3.8	8.46e-01	0	63	104	4744806400	60	13624
2026-01-26 15:32:46.71	334.51	5.30	-45.1	-56.5	3.8	8.46e-01	0	63	104	4744806400	60	13594
2026-01-26 15:32:50.75	334.77	5.03	-45.1	-56.5	3.8	8.46e-01	0	63	104	4744806400	60	13596
2026-01-26 15:32:54.79	335.03	4.78	-45.1	-56.5	3.8	8.46e-01	0	63	104	4744806400	60	13643
2026-01-26 15:32:58.84	335.29	4.52	-45.1	-56.5	3.8	8.46e-01	0	63	104	4744806400	60	13645
2026-01-26 15:33:02.88	335.54	4.26	-45.1	-56.5	3.8	8.45e-01	0	63	104	4744806400	60	13613
2026-01-26 15:33:06.92	335.79	4.01	-45.1	-56.5	3.8	8.47e-01	0	63	104	4744806400	60	13603
2026-01-26 15:33:10.97	336.04	3.76	-45.1	-56.5	3.8	8.46e-01	0	63	104	4744806400	60	13656
2026-01-26 15:33:15.01	336.28	3.51	-45.1	-56.5	3.8	8.46e-01	0	63	104	4744806400	60	13570
2026-01-26 15:33:19.05	336.52	3.27	-45.1	-56.5	3.8	8.46e-01	0	63	104	4744806400	60	13606
2026-01-26 15:33:23.09	336.75	3.02	-45.1	-56.5	3.8	8.46e-01	0	63	104	4744806400	60	13628
2026-01-26 15:33:27.13	336.98	2.78	-45.1	-56.5	3.8	8.47e-01	0	63	104	4744806400	60	13575
2026-01-26 15:33:31.18	337.21	2.54	-45.1	-56.5	3.8	8.46e-01	0	63	104	4744806400	60	13664
2026-01-26 15:33:35.21	337.43	2.30	-45.1	-56.5	3.8	8.46e-01	0	63	104	4744806400	60	13714
2026-01-26 15:33:39.25	337.65	2.06	-45.1	-56.5	3.8	8.46e-01	0	63	104	4744806400	60	13607

#Closed at: 2026-01-26 15:33:40
#Recorded file [4744 MB]: D:/lorett/data/31039_260126_182002.dat