passes_logs/2026/01/26/R2.0S_Moscow/R2.0S_Moscow__20260126_105942_SUOMI_NPP_rec.log

#Pass ID: 20260126_105942_SUOMI NPP
#Satellite: SUOMI NPP
#Configuration: NPP
#almurnet v.1.7.20251203
#Start time: 2026-01-26 11:00:53

#Version: 2.2.20231116
#Station: R2.0S_Moscow
#Location: 37.707566 lon 55.798166 lat
#TLE: 1 37849U 11061A   26025.81780576  .00000180  00000+0  10635-3 0  9993
#TLE: 2 37849  98.7822 327.7738 0002159  45.0809 315.0541 14.19529973738242

#Time	Az	El	Level	Level2	SNR	BER	BlckErr	Temp	State	Recorded	gain1	gain2
2026-01-26 11:00:53.94	194.14	6.66	-45.9	-64.5	3.8	7.44e-01	0	62	0	0	62	32326
2026-01-26 11:00:57.97	194.40	6.94	-45.2	-59.9	3.8	1.49e+00	0	62	104	0	62	19098
2026-01-26 11:01:02.02	194.67	7.23	-40.8	-55.1	3.8	1.49e+00	0	62	104	0	53	18513
2026-01-26 11:01:06.06	194.94	7.52	-43.8	-58.0	3.8	1.49e+00	0	62	104	0	59	18302
2026-01-26 11:01:10.10	195.22	7.81	-43.8	-57.9	3.8	1.49e+00	0	62	104	0	59	17967
2026-01-26 11:01:14.15	195.50	8.11	-43.7	-57.6	3.8	1.49e+00	0	62	104	0	59	17339
2026-01-26 11:01:18.19	195.79	8.41	-43.7	-56.7	3.8	1.49e+00	0	62	104	0	59	15598
2026-01-26 11:01:22.23	196.08	8.71	-43.5	-54.8	4.1	1.43e+00	0	62	0	0	59	12608
2026-01-26 11:01:26.27	196.38	9.02	-43.3	-52.9	4.8	8.70e-01	0	62	0	5242880	58	10729
2026-01-26 11:01:30.32	196.69	9.33	-43.2	-52.4	5.0	6.67e-01	0	62	0	12582912	58	10157
2026-01-26 11:01:34.35	197.00	9.64	-43.2	-52.6	4.9	7.28e-01	0	62	0	19922944	58	10346
2026-01-26 11:01:38.39	197.32	9.95	-43.0	-51.0	5.9	4.10e-01	0	62	0	27262976	58	8644
2026-01-26 11:01:42.43	197.64	10.27	-42.3	-48.2	8.5	5.57e-02	0	62	0	34603008	56	7012
2026-01-26 11:01:46.47	197.97	10.59	-41.6	-46.4	10.1	7.81e-03	0	62	0	42991616	55	6040
2026-01-26 11:01:50.51	198.31	10.92	-41.9	-46.6	10.8	5.71e-02	0	62	0	47185920	55	6153
2026-01-26 11:01:54.55	198.66	11.25	-41.7	-46.5	9.9	6.18e-03	0	62	0	52428800	55	6130
2026-01-26 11:01:58.59	199.01	11.58	-40.3	-46.1	8.5	4.61e-02	0	62	0	59768832	52	6883
2026-01-26 11:02:02.63	199.37	11.91	-40.0	-46.3	7.8	7.59e-02	0	62	0	67108864	51	7476
2026-01-26 11:02:06.67	199.74	12.25	-41.1	-46.1	9.9	1.27e-02	0	62	0	74448896	52	6884
2026-01-26 11:02:10.71	200.12	12.60	-41.3	-45.9	11.1	2.25e-03	0	62	0	81788928	53	6354
2026-01-26 11:02:14.74	200.51	12.94	-40.6	-45.7	10.6	2.98e-03	0	62	0	90177536	53	6258
2026-01-26 11:02:18.79	200.90	13.29	-40.4	-45.6	10.5	3.58e-03	0	62	0	97517568	52	6566
2026-01-26 11:02:22.83	201.31	13.65	-40.0	-45.4	9.8	1.15e-02	0	62	0	104857600	51	6755
2026-01-26 11:02:26.87	201.72	14.01	-39.6	-45.4	8.7	3.59e-02	0	62	0	112197632	51	6774
2026-01-26 11:02:30.91	202.15	14.37	-39.8	-45.4	8.8	3.45e-02	0	62	0	120586240	51	6780
2026-01-26 11:02:34.95	202.58	14.73	-40.6	-45.7	9.8	1.03e-02	0	62	0	127926272	51	7013
2026-01-26 11:02:38.99	203.03	15.10	-41.1	-45.6	11.2	1.60e-03	0	62	0	135266304	52	6496
2026-01-26 11:02:43.03	203.48	15.48	-41.5	-45.8	11.5	8.98e-04	0	63	0	142606336	53	6293
2026-01-26 11:02:47.07	203.95	15.86	-41.7	-45.8	11.8	4.94e-04	0	62	0	149946368	53	6276
2026-01-26 11:02:51.11	204.43	16.24	-41.7	-45.6	12.0	4.91e-04	0	62	0	158334976	54	5843
2026-01-26 11:02:55.14	204.92	16.63	-41.9	-45.9	11.9	3.70e-04	0	62	0	165675008	54	6000
2026-01-26 11:02:59.18	205.42	17.02	-42.1	-46.2	11.7	6.68e-04	0	62	0	173015040	54	6218
2026-01-26 11:03:03.21	205.94	17.41	-42.0	-46.0	11.9	3.28e-04	0	62	0	180355072	54	6093
2026-01-26 11:03:07.25	206.47	17.81	-41.9	-45.6	12.3	2.09e-04	0	62	0	188743680	54	5843
2026-01-26 11:03:11.30	207.01	18.22	-41.9	-45.8	12.1	2.06e-04	0	62	0	196083712	54	5959
2026-01-26 11:03:15.33	207.57	18.62	-42.1	-46.1	11.9	3.92e-04	0	62	0	203423744	54	6168
2026-01-26 11:03:19.37	208.14	19.03	-42.3	-46.5	11.6	7.32e-04	0	62	0	210763776	55	6064
2026-01-26 11:03:23.41	208.73	19.45	-42.4	-46.7	11.4	7.26e-04	0	62	0	218103808	55	6219
2026-01-26 11:03:27.45	209.33	19.87	-42.3	-46.5	11.6	7.79e-04	0	62	0	226492416	55	6104
2026-01-26 11:03:31.48	209.95	20.29	-42.1	-46.1	12.0	3.76e-04	0	62	0	233832448	55	5795
2026-01-26 11:03:35.52	210.58	20.72	-42.2	-46.4	11.7	6.28e-04	0	62	0	241172480	55	6001
2026-01-26 11:03:39.56	211.24	21.15	-42.4	-46.7	11.3	1.15e-03	0	62	0	248512512	55	6271
2026-01-26 11:03:43.60	211.91	21.59	-42.3	-46.5	11.5	1.14e-03	0	62	0	256901120	55	6113
2026-01-26 11:03:47.64	212.60	22.03	-42.1	-46.0	12.0	4.05e-04	0	62	0	264241152	55	5779
2026-01-26 11:03:51.68	213.31	22.47	-41.9	-45.6	12.5	1.05e-04	0	62	0	271581184	55	5498
2026-01-26 11:03:55.72	214.04	22.92	-42.0	-46.0	12.1	3.15e-04	0	62	0	278921216	55	5782
2026-01-26 11:03:59.76	214.79	23.36	-42.1	-46.1	12.0	2.85e-04	0	62	0	286261248	55	5813
2026-01-26 11:04:03.80	215.56	23.82	-41.9	-45.6	12.5	7.40e-05	0	62	0	294649856	55	5501
2026-01-26 11:04:07.84	216.36	24.27	-42.1	-46.0	12.0	3.26e-04	0	62	0	301989888	55	5783
2026-01-26 11:04:11.88	217.17	24.73	-42.4	-46.6	11.5	6.90e-04	0	62	0	309329920	55	6137
2026-01-26 11:04:15.92	218.01	25.18	-41.9	-45.6	12.6	1.13e-04	0	62	0	316669952	55	5465
2026-01-26 11:04:19.96	218.88	25.64	-41.8	-45.4	12.7	1.34e-04	0	62	0	325058560	55	5349
2026-01-26 11:04:24.00	219.77	26.10	-41.8	-45.4	12.7	9.91e-05	0	62	0	332398592	55	5400
2026-01-26 11:04:28.04	220.68	26.56	-41.9	-45.5	12.6	8.08e-05	0	62	0	339738624	55	5435
2026-01-26 11:04:32.08	221.63	27.02	-41.7	-45.1	13.1	2.21e-05	0	62	0	347078656	55	5195
2026-01-26 11:04:36.12	222.59	27.48	-41.6	-45.0	13.2	1.22e-05	0	62	0	354418688	54	5424
2026-01-26 11:04:40.16	223.59	27.94	-41.8	-45.4	12.7	5.95e-05	0	62	0	362807296	54	5691
2026-01-26 11:04:44.20	224.61	28.40	-41.9	-45.5	12.6	6.25e-05	0	62	0	370147328	54	5784
2026-01-26 11:04:48.23	225.66	28.85	-42.0	-45.7	12.4	1.36e-04	0	62	0	377487360	54	5907
2026-01-26 11:04:52.27	226.75	29.30	-42.5	-46.9	11.3	1.06e-03	0	62	0	384827392	55	6350
2026-01-26 11:04:56.30	227.86	29.75	-42.9	-47.4	10.7	1.65e-03	0	62	0	393216000	56	6412
2026-01-26 11:05:00.34	229.00	30.19	-43.0	-47.8	10.4	3.88e-03	0	62	0	400556032	56	6705
2026-01-26 11:05:04.38	230.17	30.62	-43.5	-49.1	9.0	1.87e-02	0	62	0	407896064	57	7353
2026-01-26 11:05:08.42	231.38	31.05	-43.5	-49.2	9.1	2.07e-02	0	62	0	415236096	57	7393
2026-01-26 11:05:12.46	232.62	31.47	-43.9	-50.5	7.7	8.55e-02	0	62	0	422576128	58	8097
2026-01-26 11:05:16.50	233.88	31.89	-43.4	-48.8	9.4	1.70e-02	0	62	0	430964736	58	6673
2026-01-26 11:05:20.54	235.18	32.29	-43.4	-49.2	9.0	2.86e-02	0	62	0	438304768	58	6972
2026-01-26 11:05:24.58	236.51	32.68	-43.8	-49.9	8.3	6.23e-02	0	62	0	445644800	58	7595
2026-01-26 11:05:28.62	237.88	33.06	-43.4	-48.9	9.3	1.55e-02	0	62	0	452984832	58	6745
2026-01-26 11:05:32.66	239.27	33.42	-43.7	-49.6	8.6	3.72e-02	0	62	0	461373440	58	7323
2026-01-26 11:05:36.70	240.69	33.77	-42.7	-47.1	11.2	1.80e-03	0	62	0	468713472	57	5793
2026-01-26 11:05:40.74	242.15	34.11	-43.5	-49.1	9.1	2.16e-02	0	62	0	476053504	57	7327
2026-01-26 11:05:44.77	243.63	34.43	-42.9	-47.5	10.7	3.32e-03	0	62	0	483393536	57	6075
2026-01-26 11:05:48.82	245.14	34.72	-42.5	-46.5	11.8	3.76e-04	0	62	0	490733568	56	5753
2026-01-26 11:05:52.86	246.68	35.00	-42.9	-47.6	10.7	3.26e-03	0	62	0	499122176	56	6522
2026-01-26 11:05:56.90	248.24	35.26	-42.5	-46.7	11.6	5.16e-04	0	62	0	506462208	56	5874
2026-01-26 11:06:00.94	249.82	35.50	-42.3	-46.2	12.0	3.30e-04	0	62	0	513802240	56	5552
2026-01-26 11:06:04.97	251.43	35.71	-42.7	-47.1	11.2	1.79e-03	0	62	0	521142272	56	6179
2026-01-26 11:06:09.01	253.05	35.90	-42.9	-47.6	10.6	1.92e-03	0	62	0	529530880	56	6543
2026-01-26 11:06:13.05	254.70	36.07	-42.7	-47.0	11.2	1.11e-03	0	62	0	536870912	56	6071
2026-01-26 11:06:17.10	256.36	36.21	-42.4	-46.4	11.8	4.55e-04	0	62	0	544210944	56	5686
2026-01-26 11:06:21.14	258.03	36.32	-43.3	-48.5	9.6	8.48e-03	0	62	0	551550976	57	6829
2026-01-26 11:06:25.18	259.71	36.41	-42.8	-47.2	11.0	2.04e-03	0	62	0	558891008	57	5913
2026-01-26 11:06:29.22	261.40	36.47	-43.1	-47.9	10.3	5.86e-03	0	62	0	567279616	57	6372
2026-01-26 11:06:33.26	263.10	36.50	-43.4	-49.0	9.2	1.97e-02	0	62	0	574619648	57	7233
2026-01-26 11:06:37.30	264.79	36.51	-42.9	-47.5	10.7	3.39e-03	0	62	0	581959680	57	6096
2026-01-26 11:06:41.34	266.49	36.49	-43.3	-48.6	9.5	1.04e-02	0	62	0	589299712	57	6937
2026-01-26 11:06:45.38	268.18	36.44	-43.5	-49.2	8.9	2.27e-02	0	62	0	597688320	57	7382
2026-01-26 11:06:49.41	269.86	36.36	-43.0	-47.7	10.5	3.80e-03	0	62	0	605028352	57	6241
2026-01-26 11:06:53.45	271.53	36.26	-43.5	-49.0	9.2	1.67e-02	0	62	0	612368384	57	7255
2026-01-26 11:06:57.49	273.19	36.12	-43.7	-49.7	8.6	6.60e-02	0	62	0	619708416	58	7397
2026-01-26 11:07:01.53	274.84	35.97	-43.6	-49.3	8.9	3.55e-02	0	62	0	627048448	58	7095
2026-01-26 11:07:05.57	276.47	35.79	-44.0	-50.7	7.4	7.55e-02	0	62	0	635437056	58	8307
2026-01-26 11:07:09.61	278.08	35.58	-43.4	-48.9	9.4	1.66e-02	0	62	0	642777088	58	6729
2026-01-26 11:07:13.64	279.67	35.36	-43.7	-49.8	8.5	6.33e-02	0	62	0	650117120	58	7507
2026-01-26 11:07:17.69	281.24	35.11	-44.2	-51.6	6.6	2.85e-01	0	62	0	657457152	59	8687
2026-01-26 11:07:21.72	282.78	34.84	-44.7	-55.4	4.4	5.66e-01	0	62	0	665845760	60	12763
2026-01-26 11:07:25.76	284.29	34.54	-44.1	-51.8	6.5	1.07e+00	0	62	0	667942912	60	8440
2026-01-26 11:07:29.81	285.79	34.23	-43.2	-48.2	10.0	1.20e-02	0	62	0	675282944	58	6273
2026-01-26 11:07:33.85	287.25	33.91	-42.9	-47.6	10.7	4.00e-03	0	62	0	683671552	57	6144
2026-01-26 11:07:37.89	288.68	33.56	-43.3	-48.5	9.6	9.37e-03	0	62	0	691011584	57	6865
2026-01-26 11:07:41.93	290.08	33.21	-42.8	-47.4	10.8	2.76e-03	0	62	0	698351616	57	6018
2026-01-26 11:07:45.97	291.45	32.83	-43.2	-48.5	9.6	1.99e-02	0	62	0	705691648	57	6837
2026-01-26 11:07:50.01	292.78	32.45	-42.4	-46.4	11.8	3.75e-04	0	62	0	714080256	56	5710
2026-01-26 11:07:54.05	294.09	32.05	-42.5	-46.6	11.6	5.42e-04	0	62	0	721420288	56	5809
2026-01-26 11:07:58.08	295.36	31.65	-43.0	-47.9	10.3	4.49e-03	0	62	0	728760320	56	6772
2026-01-26 11:08:02.12	296.61	31.23	-41.2	-44.4	13.8	4.50e-06	0	62	0	736100352	54	5049
2026-01-26 11:08:06.16	297.82	30.81	-42.3	-46.5	11.6	1.34e-03	0	62	0	743440384	55	6099
2026-01-26 11:08:10.21	299.00	30.38	-42.2	-46.2	12.0	2.78e-04	0	62	0	751828992	55	5856
2026-01-26 11:08:14.25	300.16	29.94	-41.8	-45.4	12.7	3.12e-04	0	62	0	759169024	55	5352
2026-01-26 11:08:18.29	301.27	29.50	-41.9	-45.5	12.7	1.67e-05	0	62	0	766509056	54	5763
2026-01-26 11:08:22.33	302.36	29.05	-41.4	-44.7	13.4	3.73e-05	0	62	0	773849088	54	5261
2026-01-26 11:08:26.37	303.42	28.61	-42.5	-46.9	11.1	1.29e-03	0	62	0	782237696	55	6376
2026-01-26 11:08:30.41	304.46	28.15	-41.9	-45.7	12.4	9.30e-05	0	62	0	789577728	55	5531
2026-01-26 11:08:34.45	305.46	27.70	-42.4	-46.8	11.2	1.73e-03	0	62	0	796917760	55	6302
2026-01-26 11:08:38.48	306.43	27.24	-41.3	-44.5	13.5	1.22e-05	0	62	0	804257792	54	5157
2026-01-26 11:08:42.53	307.38	26.79	-42.6	-47.2	10.8	2.92e-03	0	62	0	811597824	55	6595
2026-01-26 11:08:46.57	308.30	26.33	-42.3	-46.6	11.4	9.22e-04	0	62	0	819986432	55	6139
2026-01-26 11:08:50.60	309.20	25.87	-42.7	-47.2	10.9	5.23e-03	0	62	0	827326464	56	6204
2026-01-26 11:08:54.64	310.07	25.42	-42.4	-46.4	11.7	2.79e-04	0	62	0	834666496	56	5718
2026-01-26 11:08:58.68	310.92	24.96	-43.1	-48.4	9.6	1.34e-02	0	62	0	842006528	57	6765
2026-01-26 11:09:02.71	311.74	24.51	-41.5	-44.9	13.1	5.26e-05	0	62	0	850395136	55	5066
2026-01-26 11:09:06.75	312.54	24.06	-42.3	-46.5	11.4	6.93e-04	0	62	0	857735168	55	6131
2026-01-26 11:09:10.79	313.32	23.61	-41.7	-45.2	12.7	1.55e-04	0	62	0	865075200	55	5258
2026-01-26 11:09:14.83	314.07	23.17	-41.4	-44.6	13.3	1.44e-05	0	62	0	872415232	54	5215
2026-01-26 11:09:18.87	314.81	22.72	-41.7	-45.3	12.7	9.46e-05	0	62	0	879755264	54	5618
2026-01-26 11:09:22.91	315.53	22.28	-41.2	-44.4	13.5	1.14e-05	0	62	0	888143872	54	5095
2026-01-26 11:09:26.95	316.22	21.85	-41.7	-45.3	12.7	4.80e-05	0	62	0	895483904	54	5599
2026-01-26 11:09:30.99	316.90	21.41	-41.6	-45.1	12.8	7.70e-05	0	62	0	902823936	54	5507
2026-01-26 11:09:35.03	317.56	20.98	-41.2	-44.5	13.5	1.98e-05	0	62	0	910163968	54	5114
2026-01-26 11:09:39.07	318.20	20.56	-41.4	-44.8	13.1	1.83e-05	0	62	0	918552576	54	5300
2026-01-26 11:09:43.11	318.83	20.14	-41.7	-45.3	12.6	7.93e-05	0	62	0	925892608	54	5636
2026-01-26 11:09:47.15	319.44	19.72	-41.5	-45.1	12.8	7.17e-05	0	62	0	933232640	54	5468
2026-01-26 11:09:51.19	320.03	19.30	-41.4	-44.8	13.1	2.89e-05	0	62	0	940572672	54	5296
2026-01-26 11:09:55.22	320.61	18.89	-41.3	-44.7	13.2	2.44e-05	0	62	0	947912704	54	5240
2026-01-26 11:09:59.27	321.17	18.49	-41.2	-44.4	13.4	1.75e-05	0	62	0	956301312	54	5094
2026-01-26 11:10:03.30	321.72	18.09	-41.2	-44.5	13.4	1.60e-05	0	62	0	963641344	54	5105
2026-01-26 11:10:07.34	322.25	17.69	-41.9	-46.0	11.8	2.87e-04	0	62	0	970981376	54	6081
2026-01-26 11:10:11.38	322.78	17.29	-42.3	-46.8	10.9	2.36e-03	0	62	0	978321408	55	6318
2026-01-26 11:10:15.43	323.28	16.90	-42.6	-47.7	9.9	8.22e-03	0	62	0	986710016	55	6976
2026-01-26 11:10:19.46	323.78	16.52	-42.2	-46.6	11.2	1.38e-03	0	62	0	994050048	55	6137
2026-01-26 11:10:23.50	324.26	16.14	-42.0	-46.2	11.6	6.86e-04	0	62	0	1001390080	55	5867
2026-01-26 11:10:27.54	324.74	15.76	-42.1	-46.4	11.3	7.92e-04	0	62	0	1008730112	55	6007
2026-01-26 11:10:31.58	325.20	15.39	-42.3	-46.8	10.7	3.36e-03	0	62	0	1016070144	55	6327
2026-01-26 11:10:35.62	325.65	15.02	-42.0	-46.3	11.3	1.08e-03	0	62	0	1024458752	55	5967
2026-01-26 11:10:39.66	326.09	14.65	-41.7	-45.7	12.0	3.78e-04	0	62	0	1031798784	55	5533
2026-01-26 11:10:43.70	326.52	14.29	-41.9	-46.0	11.7	4.05e-04	0	62	0	1039138816	55	5728
2026-01-26 11:10:47.74	326.94	13.93	-42.0	-46.4	11.1	1.09e-03	0	62	0	1046478848	55	6053
2026-01-26 11:10:51.78	327.35	13.58	-42.0	-46.3	11.2	1.20e-03	0	62	0	1054867456	55	5945
2026-01-26 11:10:55.82	327.75	13.23	-41.6	-45.6	11.9	3.35e-04	0	62	0	1062207488	55	5494
2026-01-26 11:10:59.86	328.14	12.89	-41.6	-45.5	12.0	2.85e-04	0	62	0	1069547520	54	5747
2026-01-26 11:11:03.89	328.52	12.54	-41.8	-46.1	11.4	7.48e-04	0	62	0	1076887552	54	6149
2026-01-26 11:11:07.93	328.90	12.21	-42.0	-46.5	10.9	2.31e-03	0	62	0	1084227584	54	6478
2026-01-26 11:11:11.97	329.26	11.87	-42.1	-46.9	10.5	3.47e-03	0	62	0	1092616192	54	6725
2026-01-26 11:11:16.02	329.62	11.54	-42.1	-46.7	10.7	3.13e-03	0	62	0	1099956224	54	6580
2026-01-26 11:11:20.06	329.97	11.21	-42.0	-46.7	10.7	2.35e-03	0	62	0	1107296256	54	6571
2026-01-26 11:11:24.09	330.32	10.89	-42.0	-46.5	10.8	2.65e-03	0	62	0	1114636288	54	6463
2026-01-26 11:11:28.13	330.65	10.57	-42.0	-46.6	10.7	3.17e-03	0	62	0	1123024896	54	6500
2026-01-26 11:11:32.17	330.99	10.25	-41.8	-46.3	10.9	2.37e-03	0	62	0	1130364928	54	6299
2026-01-26 11:11:36.21	331.31	9.94	-41.7	-46.2	11.0	1.47e-03	0	62	0	1137704960	54	6209
2026-01-26 11:11:40.25	331.63	9.63	-41.6	-46.0	11.1	1.39e-03	0	62	0	1145044992	54	6101
2026-01-26 11:11:44.29	331.94	9.32	-41.5	-45.8	11.3	1.34e-03	0	62	0	1152385024	54	5990
2026-01-26 11:11:48.33	332.24	9.01	-41.6	-46.0	11.1	1.48e-03	0	62	0	1160773632	54	6099
2026-01-26 11:11:52.36	332.54	8.71	-41.6	-46.2	10.8	3.21e-03	0	62	0	1168113664	54	6219
2026-01-26 11:11:56.40	332.83	8.42	-41.6	-46.3	10.5	3.27e-03	0	62	0	1175453696	54	6342
2026-01-26 11:12:00.44	333.12	8.12	-41.6	-46.4	10.4	5.28e-03	0	62	0	1182793728	54	6354
2026-01-26 11:12:04.48	333.40	7.83	-44.7	-59.1	3.8	1.49e+00	0	62	104	1186988032	59	20609
2026-01-26 11:12:08.52	333.68	7.54	-45.2	-59.8	3.8	1.49e+00	0	62	104	1186988032	60	21131
2026-01-26 11:12:12.56	333.95	7.25	-45.1	-59.8	3.8	1.49e+00	0	62	104	1186988032	61	19981
2026-01-26 11:12:16.60	334.22	6.97	-45.0	-59.7	3.8	1.49e+00	0	62	104	1186988032	60	21009
2026-01-26 11:12:20.65	334.48	6.68	-45.0	-59.6	3.8	1.49e+00	0	62	104	1186988032	60	20776
2026-01-26 11:12:24.68	334.74	6.41	-45.0	-59.6	3.8	1.49e+00	0	62	104	1186988032	60	20700
2026-01-26 11:12:28.72	334.99	6.13	-45.0	-59.6	3.8	1.49e+00	0	62	104	1186988032	60	20751
2026-01-26 11:12:32.77	335.24	5.85	-45.0	-59.6	3.8	1.49e+00	0	62	104	1186988032	60	20619
2026-01-26 11:12:36.81	335.49	5.58	-45.0	-59.6	3.8	1.49e+00	0	62	104	1186988032	60	20741
2026-01-26 11:12:40.85	335.73	5.31	-44.9	-59.6	3.8	1.49e+00	0	62	104	1186988032	60	20683
2026-01-26 11:12:44.90	335.96	5.05	-44.7	-59.6	3.8	1.49e+00	0	62	104	1186988032	60	20635
2026-01-26 11:12:48.94	336.20	4.78	-45.0	-59.6	3.8	1.49e+00	0	62	104	1186988032	60	20625
2026-01-26 11:12:52.98	336.42	4.52	-44.9	-59.6	3.8	1.49e+00	0	62	104	1186988032	60	20678
2026-01-26 11:12:57.02	336.65	4.26	-45.0	-59.6	3.8	1.49e+00	0	62	104	1186988032	60	20686
2026-01-26 11:13:01.07	336.87	4.00	-45.0	-59.6	3.8	1.49e+00	0	62	104	1186988032	60	20625
2026-01-26 11:13:05.11	337.09	3.75	-45.0	-59.6	3.8	1.49e+00	0	62	104	1186988032	60	20658
2026-01-26 11:13:09.15	337.30	3.49	-45.0	-59.6	3.8	1.49e+00	0	62	104	1186988032	60	20607
2026-01-26 11:13:13.19	337.51	3.24	-45.0	-59.6	3.8	1.49e+00	0	63	104	1186988032	60	20615
2026-01-26 11:13:17.23	337.72	2.99	-45.0	-59.6	3.8	1.49e+00	0	62	104	1186988032	60	20681
2026-01-26 11:13:21.27	337.93	2.74	-45.0	-59.6	3.8	1.49e+00	0	62	104	1186988032	60	20673
2026-01-26 11:13:25.31	338.13	2.50	-45.0	-59.6	3.8	1.49e+00	0	62	104	1186988032	60	20633
2026-01-26 11:13:29.35	338.33	2.25	-45.0	-59.6	3.8	1.49e+00	0	62	104	1186988032	60	20617
2026-01-26 11:13:33.40	338.52	2.01	-45.0	-59.6	3.8	1.49e+00	0	62	104	1186988032	60	20700

#Closed at: 2026-01-26 11:13:35
#Recorded file [1186 MB]: D:/lorett/data/31039_260126_140053.dat