passes_logs/2026/01/26/R2.0S_Moscow/R2.0S_Moscow__20260126_104832_AQUA_rec.log

#Pass ID: 20260126_104832_AQUA
#Satellite: AQUA
#Configuration: AQUA
#almurnet v.1.7.20251203
#Start time: 2026-01-26 10:48:32

#Version: 2.2.20231116
#Station: R2.0S_Moscow
#Location: 37.707566 lon 55.798166 lat
#TLE: 1 27424U 02022A   26025.63222646  .00001891  00000+0  38818-3 0  9990
#TLE: 2 27424  98.4099 352.2393 0001892  65.6900 348.5270 14.61859542262445

#Time	Az	El	Level	Level2	SNR	BER	BlckErr	Temp	State	Recorded	gain1	gain2
2026-01-26 10:48:32.75	133.95	2.01	-10.7	-26.9	3.8	7.56e-01	0	54	0	0	0	15178
2026-01-26 10:48:35.77	133.81	2.21	-11.1	-25.6	4.0	7.58e-01	0	55	104	0	0	13094
2026-01-26 10:48:38.80	133.68	2.40	-12.2	-27.4	3.7	7.53e-01	0	55	104	0	0	15991
2026-01-26 10:48:41.83	133.53	2.60	-10.5	-27.5	3.8	7.54e-01	0	55	104	0	0	16295
2026-01-26 10:48:44.86	133.39	2.80	-10.9	-26.6	3.7	7.53e-01	0	55	104	0	0	14548
2026-01-26 10:48:47.89	133.25	3.00	-13.5	-29.7	3.8	7.52e-01	0	55	104	0	0	20975
2026-01-26 10:48:50.92	133.10	3.20	-14.3	-26.7	3.9	7.52e-01	0	56	104	0	0	14750
2026-01-26 10:48:53.96	132.95	3.40	-13.2	-29.9	3.9	7.52e-01	0	56	104	0	0	21481
2026-01-26 10:48:56.99	132.80	3.61	-13.7	-31.6	3.5	7.54e-01	0	56	104	0	0	25923
2026-01-26 10:49:00.02	132.64	3.81	-11.8	-29.3	3.6	7.60e-01	0	56	104	0	0	20061
2026-01-26 10:49:03.06	132.49	4.02	-12.3	-27.0	3.7	7.42e-01	0	56	104	0	0	15365
2026-01-26 10:49:06.09	132.33	4.23	-12.0	-27.5	3.8	7.50e-01	0	56	104	0	0	16264
2026-01-26 10:49:09.11	132.16	4.44	-14.7	-29.7	3.6	7.56e-01	0	56	104	0	0	20925
2026-01-26 10:49:12.14	132.00	4.65	-15.4	-30.9	3.6	7.51e-01	0	57	104	0	1	22547
2026-01-26 10:49:15.17	131.83	4.86	-13.2	-28.2	3.6	7.46e-01	0	57	104	0	0	17599
2026-01-26 10:49:18.20	131.66	5.08	-10.7	-29.3	3.8	7.55e-01	0	57	104	0	0	19967
2026-01-26 10:49:21.23	131.49	5.30	-10.7	-30.1	3.7	7.60e-01	0	57	104	0	0	21917
2026-01-26 10:49:24.26	131.31	5.52	-14.8	-32.1	3.4	7.54e-01	0	57	104	0	3	23058
2026-01-26 10:49:27.29	131.13	5.74	-16.1	-30.4	3.5	7.45e-01	0	57	104	0	0	22629
2026-01-26 10:49:30.32	130.95	5.96	-12.5	-25.9	3.9	7.52e-01	0	58	104	0	0	13445
2026-01-26 10:49:33.35	130.76	6.18	-13.7	-27.9	3.5	7.53e-01	0	58	104	0	0	17012
2026-01-26 10:49:36.38	130.57	6.41	-11.7	-27.1	3.9	7.61e-01	0	58	104	0	0	15514
2026-01-26 10:49:39.41	130.38	6.64	-13.3	-28.6	3.7	7.52e-01	0	58	104	0	0	18356
2026-01-26 10:49:42.44	130.19	6.87	-11.8	-28.6	3.8	7.67e-01	0	58	104	0	0	18414
2026-01-26 10:49:45.48	129.99	7.10	-10.0	-28.6	3.6	7.50e-01	0	58	104	0	0	18325
2026-01-26 10:49:48.51	129.78	7.34	-13.8	-28.1	4.0	7.55e-01	0	58	104	0	0	17349
2026-01-26 10:49:51.54	129.58	7.57	-10.9	-30.0	3.8	7.55e-01	0	58	104	0	0	21715
2026-01-26 10:49:54.57	129.36	7.81	-9.2	-26.6	3.5	7.43e-01	0	58	104	0	0	14679
2026-01-26 10:49:57.61	129.15	8.05	-12.8	-31.1	3.7	7.59e-01	0	59	104	0	1	23107
2026-01-26 10:50:00.63	128.93	8.29	-12.9	-30.2	3.7	7.62e-01	0	59	104	0	0	22185
2026-01-26 10:50:03.66	128.71	8.54	-13.7	-28.9	3.7	7.61e-01	0	59	104	0	0	19024
2026-01-26 10:50:06.69	128.48	8.79	-11.6	-26.7	3.6	7.52e-01	0	59	104	0	0	14860
2026-01-26 10:50:09.72	128.25	9.04	-11.9	-27.6	3.8	7.59e-01	0	59	104	0	0	16315
2026-01-26 10:50:12.75	128.01	9.29	-12.5	-27.3	3.7	7.50e-01	0	59	104	0	0	15856
2026-01-26 10:50:15.78	127.77	9.54	-13.0	-29.0	3.7	7.51e-01	0	59	104	0	0	19235
2026-01-26 10:50:18.81	127.53	9.80	-14.4	-30.6	3.4	7.50e-01	0	59	104	0	1	21863
2026-01-26 10:50:21.84	127.28	10.06	-11.6	-28.6	3.8	7.40e-01	0	59	104	0	0	18502
2026-01-26 10:50:24.87	127.02	10.32	-15.2	-32.8	3.6	7.58e-01	0	60	104	0	0	29784
2026-01-26 10:50:27.89	126.76	10.59	-13.6	-29.3	3.7	7.50e-01	0	59	104	0	0	20054
2026-01-26 10:50:30.92	126.50	10.85	-17.1	-33.1	3.7	7.58e-01	0	60	104	0	4	24649
2026-01-26 10:50:33.95	126.23	11.12	-15.1	-30.9	3.7	7.53e-01	0	60	104	0	0	23946
2026-01-26 10:50:36.98	125.95	11.40	-16.5	-34.0	3.9	7.60e-01	0	60	104	0	3	28713
2026-01-26 10:50:40.01	125.67	11.67	-20.6	-44.5	3.8	7.47e-01	0	60	104	0	29	21545
2026-01-26 10:50:43.04	125.38	11.95	-17.8	-34.3	3.7	7.54e-01	0	59	104	0	3	29708
2026-01-26 10:50:46.08	125.09	12.23	-16.2	-32.0	3.6	7.60e-01	0	60	104	0	1	25722
2026-01-26 10:50:49.10	124.79	12.52	-37.2	-51.3	4.1	7.44e-01	0	60	104	0	41	23762
2026-01-26 10:50:52.14	124.48	12.80	-14.9	-34.4	3.3	7.59e-01	0	60	104	0	2	31989
2026-01-26 10:50:55.16	124.16	13.09	-28.0	-40.0	3.7	7.57e-01	0	60	104	0	15	28685
2026-01-26 10:50:58.19	123.84	13.39	-27.6	-36.3	3.8	7.60e-01	0	60	104	0	11	23790
2026-01-26 10:51:01.22	123.52	13.68	-22.0	-37.9	3.9	7.51e-01	0	60	104	0	18	19009
2026-01-26 10:51:04.25	123.18	13.98	-33.7	-48.2	4.5	7.38e-01	0	60	104	0	47	11805
2026-01-26 10:51:07.28	122.84	14.29	-22.7	-36.7	3.9	7.56e-01	0	60	104	0	17	17679
2026-01-26 10:51:10.31	122.49	14.59	-35.3	-47.9	4.2	7.45e-01	0	60	104	0	41	16053
2026-01-26 10:51:13.34	122.13	14.90	-36.9	-46.7	4.5	7.38e-01	0	60	104	0	42	13184
2026-01-26 10:51:16.37	121.76	15.21	-33.3	-46.3	3.9	7.63e-01	0	60	104	0	31	23786
2026-01-26 10:51:19.40	121.39	15.53	-35.0	-44.0	4.3	7.35e-01	0	61	104	0	39	11495
2026-01-26 10:51:22.43	121.01	15.85	-40.3	-47.9	4.6	7.28e-01	0	60	104	0	48	10664
2026-01-26 10:51:25.46	120.61	16.17	-35.0	-44.1	6.9	6.59e-01	43	61	0	2621440	45	8187
2026-01-26 10:51:28.49	120.21	16.50	-36.2	-43.8	6.9	6.72e-01	92	61	0	5767168	44	8463
2026-01-26 10:51:31.52	119.80	16.83	-40.3	-45.0	12.0	6.18e-01	34	60	104	8388608	51	6442
2026-01-26 10:51:34.55	119.38	17.16	-41.8	-45.8	10.2	6.23e-01	52	61	0	10485760	52	6723
2026-01-26 10:51:37.58	118.95	17.50	-39.4	-44.9	12.8	6.20e-01	33	60	0	14680064	51	6378
2026-01-26 10:51:40.61	118.50	17.84	-41.9	-45.7	15.7	6.06e-01	0	61	0	20447232	54	5891
2026-01-26 10:51:43.64	118.05	18.18	-42.5	-45.8	9.3	6.48e-01	59	61	0	26214400	51	7112
2026-01-26 10:51:46.67	117.59	18.53	-42.0	-45.5	16.5	6.05e-01	0	61	0	31457280	54	5736
2026-01-26 10:51:49.70	117.11	18.88	-41.9	-45.1	18.1	6.05e-01	0	61	0	37224448	54	5518
2026-01-26 10:51:52.74	116.62	19.23	-38.9	-44.8	13.7	6.16e-01	13	61	0	42991616	52	5971
2026-01-26 10:51:55.77	116.12	19.59	-41.9	-45.1	16.2	6.06e-01	0	61	0	48758784	54	5526
2026-01-26 10:51:58.79	115.61	19.95	-41.7	-45.1	17.8	6.07e-01	0	61	0	54525952	54	5519
2026-01-26 10:52:01.82	115.09	20.31	-41.7	-45.3	17.2	6.06e-01	0	61	0	60293120	54	5623
2026-01-26 10:52:04.85	114.55	20.68	-42.1	-45.5	17.8	6.08e-01	0	61	0	66060288	54	5752
2026-01-26 10:52:07.88	114.00	21.05	-42.0	-45.5	17.2	6.05e-01	0	61	0	71303168	54	5754
2026-01-26 10:52:10.91	113.43	21.42	-42.0	-45.4	16.9	6.09e-01	0	61	0	77070336	54	5703
2026-01-26 10:52:13.93	112.85	21.80	-42.2	-45.6	17.5	6.07e-01	0	61	0	82837504	54	5806
2026-01-26 10:52:16.96	112.25	22.18	-42.0	-45.2	18.3	6.07e-01	0	61	0	88604672	54	5565
2026-01-26 10:52:19.99	111.64	22.56	-42.1	-45.3	18.1	6.05e-01	0	61	0	94371840	54	5652
2026-01-26 10:52:23.02	111.01	22.95	-42.1	-45.5	18.0	6.05e-01	0	61	0	99614720	54	5732
2026-01-26 10:52:26.05	110.36	23.33	-42.2	-45.6	17.7	6.07e-01	0	61	0	105381888	54	5798
2026-01-26 10:52:29.08	109.70	23.73	-42.1	-45.4	18.1	6.06e-01	0	61	0	111149056	55	5364
2026-01-26 10:52:32.11	109.02	24.12	-42.1	-45.4	18.1	6.04e-01	0	61	0	116916224	55	5396
2026-01-26 10:52:35.14	108.32	24.51	-42.1	-45.4	18.2	6.05e-01	0	61	0	122683392	55	5359
2026-01-26 10:52:38.17	107.60	24.91	-42.2	-45.5	18.2	6.05e-01	0	61	0	128450560	55	5426
2026-01-26 10:52:41.20	106.87	25.31	-42.1	-45.4	18.1	6.06e-01	0	61	0	134217728	55	5392
2026-01-26 10:52:44.23	106.11	25.71	-42.1	-45.3	18.3	6.07e-01	0	61	0	139460608	55	5324
2026-01-26 10:52:47.26	105.33	26.11	-41.9	-45.0	18.7	6.06e-01	0	61	0	145227776	55	5112
2026-01-26 10:52:50.29	104.54	26.51	-42.0	-45.1	18.5	6.06e-01	0	62	0	150994944	55	5213
2026-01-26 10:52:53.32	103.72	26.91	-42.0	-45.1	18.3	6.09e-01	0	61	0	156762112	55	5175
2026-01-26 10:52:56.35	102.88	27.32	-42.0	-45.1	18.5	6.08e-01	0	61	0	162529280	55	5201
2026-01-26 10:52:59.38	102.01	27.72	-41.8	-44.8	18.8	6.07e-01	0	62	0	167772160	55	5012
2026-01-26 10:53:02.41	101.13	28.12	-41.8	-44.8	18.9	6.07e-01	0	61	0	173539328	55	4988
2026-01-26 10:53:05.45	100.22	28.52	-41.8	-44.8	18.8	6.06e-01	0	62	0	179306496	55	5012
2026-01-26 10:53:08.48	99.28	28.92	-41.7	-44.6	19.0	6.07e-01	0	61	0	185073664	55	4899
2026-01-26 10:53:11.51	98.32	29.31	-41.7	-44.6	19.1	6.06e-01	0	61	0	190840832	55	4920
2026-01-26 10:53:14.54	97.34	29.70	-41.7	-44.6	19.2	6.08e-01	0	61	0	196608000	55	4882
2026-01-26 10:53:17.57	96.34	30.09	-41.5	-44.3	19.3	6.08e-01	0	62	0	202375168	54	4991
2026-01-26 10:53:20.60	95.30	30.48	-41.5	-44.4	19.4	6.05e-01	0	62	0	207618048	54	5055
2026-01-26 10:53:23.63	94.25	30.85	-41.7	-44.6	19.2	6.06e-01	0	62	0	213385216	54	5183
2026-01-26 10:53:26.66	93.16	31.23	-41.5	-44.3	19.5	6.08e-01	0	62	0	219152384	54	5000
2026-01-26 10:53:29.69	92.05	31.59	-41.6	-44.4	19.4	6.07e-01	0	61	0	224919552	54	5077
2026-01-26 10:53:32.72	90.92	31.95	-41.6	-44.4	19.4	6.05e-01	0	62	0	230686720	54	5083
2026-01-26 10:53:35.75	89.76	32.30	-41.6	-44.4	19.4	6.05e-01	0	61	0	236453888	54	5062
2026-01-26 10:53:38.78	88.57	32.65	-41.7	-44.5	19.3	6.09e-01	0	62	0	241696768	54	5151
2026-01-26 10:53:41.81	87.36	32.98	-41.8	-44.7	19.3	6.06e-01	0	62	0	247463936	54	5236
2026-01-26 10:53:44.84	86.12	33.30	-41.8	-44.7	19.3	6.06e-01	0	62	0	253231104	54	5248
2026-01-26 10:53:47.87	84.86	33.61	-41.9	-44.8	19.1	6.06e-01	0	61	0	258998272	54	5338
2026-01-26 10:53:50.90	83.57	33.91	-42.0	-45.0	18.7	6.05e-01	0	62	0	264765440	54	5463
2026-01-26 10:53:53.93	82.26	34.19	-42.0	-45.0	18.8	6.06e-01	0	62	0	270532608	54	5464
2026-01-26 10:53:56.96	80.93	34.46	-42.2	-45.3	18.6	6.08e-01	0	62	0	275775488	54	5629
2026-01-26 10:53:59.99	79.57	34.71	-42.1	-45.2	18.8	6.04e-01	0	62	0	281542656	54	5534
2026-01-26 10:54:03.02	78.19	34.95	-42.1	-45.1	18.9	6.05e-01	0	62	0	287309824	54	5509
2026-01-26 10:54:06.06	76.79	35.17	-42.2	-45.4	18.6	6.07e-01	0	62	0	293076992	55	5349
2026-01-26 10:54:09.09	75.37	35.38	-42.3	-45.4	18.6	6.07e-01	0	62	0	298844160	55	5367
2026-01-26 10:54:12.11	73.95	35.56	-42.3	-45.4	18.5	6.05e-01	0	61	0	304611328	55	5390
2026-01-26 10:54:15.14	72.50	35.73	-42.3	-45.5	18.4	6.06e-01	0	62	0	310378496	55	5448
2026-01-26 10:54:18.18	71.03	35.88	-42.3	-45.5	18.4	6.06e-01	0	62	0	315621376	55	5447
2026-01-26 10:54:21.20	69.56	36.00	-42.3	-45.5	18.5	6.07e-01	0	62	0	321388544	55	5418
2026-01-26 10:54:24.23	68.07	36.11	-42.2	-45.4	18.6	6.06e-01	0	62	0	327155712	55	5358
2026-01-26 10:54:27.26	66.58	36.19	-42.5	-45.8	18.2	6.06e-01	0	62	0	332922880	55	5614
2026-01-26 10:54:30.29	65.07	36.25	-42.4	-45.7	18.3	6.06e-01	0	62	0	338690048	55	5554
2026-01-26 10:54:33.31	63.57	36.29	-42.6	-46.0	18.0	6.04e-01	0	62	0	343932928	55	5740
2026-01-26 10:54:36.34	62.06	36.31	-42.6	-46.0	18.0	6.07e-01	0	62	0	349700096	55	5744
2026-01-26 10:54:39.37	60.55	36.30	-42.5	-45.7	18.3	6.08e-01	0	62	0	355467264	55	5592
2026-01-26 10:54:42.40	59.05	36.28	-42.5	-45.7	18.3	6.10e-01	0	62	0	361234432	55	5577
2026-01-26 10:54:45.43	57.54	36.23	-42.6	-46.0	18.1	6.08e-01	0	62	0	367001600	55	5725
2026-01-26 10:54:48.46	56.04	36.16	-42.6	-45.9	18.1	6.07e-01	0	62	0	372768768	56	5397
2026-01-26 10:54:51.49	54.55	36.07	-42.8	-46.2	17.9	6.06e-01	0	62	0	378011648	56	5573
2026-01-26 10:54:54.52	53.07	35.95	-42.7	-46.1	18.0	6.06e-01	0	62	0	383778816	56	5495
2026-01-26 10:54:57.55	51.60	35.82	-42.5	-45.8	18.3	6.06e-01	0	62	0	389545984	56	5313
2026-01-26 10:55:00.57	50.15	35.67	-42.7	-46.1	18.0	6.06e-01	0	62	0	395313152	56	5473
2026-01-26 10:55:03.60	48.71	35.49	-42.5	-45.8	18.3	6.05e-01	0	62	0	401080320	56	5304
2026-01-26 10:55:06.63	47.29	35.30	-42.6	-45.9	18.2	6.06e-01	0	62	0	406847488	56	5363
2026-01-26 10:55:09.66	45.88	35.09	-42.7	-46.0	18.1	6.07e-01	0	62	0	412090368	56	5413
2026-01-26 10:55:12.69	44.49	34.87	-42.5	-45.7	18.3	6.09e-01	0	62	0	417857536	56	5236
2026-01-26 10:55:15.72	43.13	34.62	-42.9	-55.7	3.8	7.46e-01	0	62	104	418906112	56	16595
2026-01-26 10:55:18.75	41.78	34.36	-44.7	-59.0	3.8	7.49e-01	0	62	104	418906112	59	20470
2026-01-26 10:55:21.78	40.46	34.09	-42.6	-55.2	3.8	7.43e-01	0	62	104	418906112	57	14796
2026-01-26 10:55:24.80	39.17	33.80	-44.2	-57.9	3.8	7.48e-01	0	62	104	418906112	58	19084
2026-01-26 10:55:27.83	37.89	33.50	-44.0	-57.4	3.8	7.44e-01	0	62	104	418906112	58	17931
2026-01-26 10:55:30.86	36.64	33.19	-42.8	-55.6	3.7	7.46e-01	0	62	104	418906112	57	15521
2026-01-26 10:55:33.88	35.42	32.86	-44.6	-59.6	3.8	7.46e-01	0	62	104	418906112	60	20619
2026-01-26 10:55:36.92	34.22	32.53	-42.8	-55.7	3.9	7.44e-01	0	62	104	418906112	57	15661
2026-01-26 10:55:39.95	33.05	32.18	-44.4	-58.8	3.8	7.47e-01	0	62	104	418906112	59	19928
2026-01-26 10:55:42.98	31.90	31.83	-44.8	-60.0	3.8	7.45e-01	0	62	104	418906112	60	21665
2026-01-26 10:55:46.01	30.78	31.47	-42.7	-55.5	3.8	7.43e-01	0	62	104	418906112	57	15300
2026-01-26 10:55:49.04	29.68	31.10	-45.0	-60.3	3.8	7.45e-01	0	62	104	418906112	60	22465
2026-01-26 10:55:52.08	28.61	30.73	-45.6	-62.5	3.8	7.41e-01	0	62	104	418906112	61	27127
2026-01-26 10:55:55.11	27.57	30.35	-42.7	-55.4	3.8	7.45e-01	0	62	104	418906112	57	15112
2026-01-26 10:55:58.14	26.55	29.97	-44.6	-59.9	3.8	7.44e-01	0	62	104	418906112	60	21488
2026-01-26 10:56:01.16	25.56	29.58	-42.6	-55.4	3.8	7.44e-01	0	62	104	418906112	57	15098
2026-01-26 10:56:04.19	24.59	29.19	-44.7	-59.8	3.8	7.42e-01	0	62	104	418906112	60	21080
2026-01-26 10:56:07.22	23.64	28.79	-44.2	-58.9	3.8	7.42e-01	0	62	104	418906112	60	19002
2026-01-26 10:56:10.25	22.72	28.40	-42.9	-55.7	3.8	7.44e-01	0	62	104	418906112	57	15607
2026-01-26 10:56:13.28	21.83	28.00	-44.1	-58.5	3.9	7.46e-01	0	62	104	418906112	60	18256
2026-01-26 10:56:16.32	20.95	27.60	-45.3	-61.9	3.8	7.42e-01	0	62	104	418906112	61	25356
2026-01-26 10:56:19.34	20.10	27.20	-42.8	-55.6	3.8	7.47e-01	0	62	104	418906112	56	16486
2026-01-26 10:56:22.37	19.27	26.80	-45.0	-60.9	3.8	7.41e-01	0	62	104	418906112	61	22751
2026-01-26 10:56:25.40	18.47	26.40	-42.9	-56.0	3.8	7.46e-01	0	62	104	418906112	57	16177
2026-01-26 10:56:28.43	17.68	26.00	-43.0	-56.1	3.8	7.43e-01	0	62	104	418906112	58	15567
2026-01-26 10:56:31.46	16.92	25.60	-42.7	-55.4	3.8	7.48e-01	0	62	104	418906112	56	15995
2026-01-26 10:56:34.50	16.17	25.20	-42.5	-55.3	3.8	7.45e-01	0	62	104	418906112	57	14997
2026-01-26 10:56:37.53	15.44	24.81	-43.1	-56.1	3.8	7.48e-01	0	62	104	418906112	57	16498
2026-01-26 10:56:40.56	14.74	24.41	-43.3	-56.5	3.9	7.44e-01	0	62	104	418906112	58	16210
2026-01-26 10:56:43.59	14.05	24.02	-43.1	-56.3	3.8	7.43e-01	0	62	104	418906112	56	17885
2026-01-26 10:56:46.62	13.38	23.63	-44.2	-58.8	3.9	7.45e-01	0	62	104	418906112	60	18882
2026-01-26 10:56:49.65	12.72	23.24	-42.6	-55.4	3.8	7.46e-01	0	62	104	418906112	57	15123
2026-01-26 10:56:52.68	12.09	22.86	-43.4	-56.8	3.8	7.44e-01	0	62	104	418906112	57	17767
2026-01-26 10:56:55.71	11.47	22.48	-43.1	-56.0	3.8	7.47e-01	0	62	104	418906112	57	16189
2026-01-26 10:56:58.74	10.87	22.10	-42.7	-55.7	3.8	7.48e-01	0	62	104	418906112	57	15743
2026-01-26 10:57:01.77	10.28	21.72	-44.9	-61.0	3.8	7.50e-01	0	62	104	418906112	60	24254
2026-01-26 10:57:04.81	9.70	21.34	-42.7	-55.5	3.8	7.43e-01	0	62	104	418906112	57	15394
2026-01-26 10:57:07.84	9.14	20.97	-42.9	-56.2	3.8	7.43e-01	0	62	104	418906112	56	17511
2026-01-26 10:57:10.87	8.60	20.61	-44.3	-59.5	3.8	7.47e-01	0	62	104	418906112	60	20454
2026-01-26 10:57:13.90	8.07	20.24	-42.4	-55.2	3.8	7.44e-01	0	62	104	418906112	56	15606
2026-01-26 10:57:16.93	7.55	19.88	-43.5	-57.0	3.8	7.45e-01	0	62	104	418906112	57	18204
2026-01-26 10:57:19.96	7.05	19.52	-44.7	-59.5	3.8	7.45e-01	0	62	104	418906112	59	21670
2026-01-26 10:57:22.99	6.56	19.17	-42.4	-55.3	3.8	7.46e-01	0	62	104	418906112	56	15829
2026-01-26 10:57:26.02	6.08	18.82	-45.0	-61.9	3.8	7.47e-01	0	62	104	418906112	60	26793
2026-01-26 10:57:29.05	5.61	18.47	-42.4	-55.1	3.8	7.47e-01	0	62	104	418906112	56	15435
2026-01-26 10:57:32.08	5.15	18.13	-42.9	-56.5	3.8	7.46e-01	0	62	104	418906112	56	18218
2026-01-26 10:57:35.11	4.71	17.79	-44.2	-59.5	3.8	7.43e-01	0	62	104	418906112	59	21666
2026-01-26 10:57:38.14	4.27	17.45	-42.3	-55.4	3.8	7.42e-01	0	62	104	418906112	56	15952
2026-01-26 10:57:41.17	3.85	17.12	-42.7	-56.1	3.9	7.45e-01	0	62	104	418906112	56	17392
2026-01-26 10:57:44.20	3.43	16.79	-44.1	-59.1	3.8	7.45e-01	0	62	104	418906112	60	19613
2026-01-26 10:57:47.23	3.03	16.46	-42.3	-55.5	3.8	7.45e-01	0	62	104	418906112	56	16285
2026-01-26 10:57:50.26	2.63	16.14	-44.4	-61.4	3.8	7.44e-01	0	62	104	418906112	59	27002
2026-01-26 10:57:53.29	2.25	15.82	-42.2	-55.1	3.8	7.45e-01	0	62	104	418906112	56	15533
2026-01-26 10:57:56.32	1.87	15.50	-42.2	-55.7	3.8	7.47e-01	0	62	104	418906112	56	16585
2026-01-26 10:57:59.35	1.50	15.19	-42.5	-57.0	3.9	7.43e-01	0	62	104	418906112	57	18117
2026-01-26 10:58:02.38	1.14	14.88	-41.8	-55.0	3.8	7.46e-01	0	62	104	418906112	55	16135
2026-01-26 10:58:05.41	0.79	14.57	-41.6	-55.2	3.8	7.45e-01	0	62	104	418906112	55	16573
2026-01-26 10:58:08.44	0.44	14.27	-42.7	-57.5	3.9	7.41e-01	0	62	104	418906112	57	19179
2026-01-26 10:58:11.47	0.11	13.97	-41.0	-54.5	3.8	7.44e-01	0	62	104	418906112	54	16167
2026-01-26 10:58:14.50	359.78	13.67	-41.8	-58.8	3.8	7.45e-01	0	62	104	418906112	54	26570
2026-01-26 10:58:17.53	359.46	13.38	-42.2	-57.6	3.8	7.46e-01	0	62	104	418906112	56	20705
2026-01-26 10:58:20.56	359.14	13.09	-42.7	-59.7	3.8	7.42e-01	0	62	104	418906112	56	26200
2026-01-26 10:58:23.59	358.83	12.80	-42.5	-60.4	3.8	7.44e-01	0	62	104	418906112	55	30317
2026-01-26 10:58:26.62	358.53	12.51	-42.5	-61.0	3.8	7.43e-01	0	62	104	418906112	57	28920
2026-01-26 10:58:29.66	358.23	12.23	-41.4	-60.3	3.8	7.48e-01	0	62	104	418906112	54	31765
2026-01-26 10:58:32.69	357.94	11.95	-41.4	-60.4	3.8	7.45e-01	0	62	104	418906112	54	31942
2026-01-26 10:58:35.72	357.66	11.68	-40.9	-59.8	3.8	7.47e-01	0	62	104	418906112	53	31759
2026-01-26 10:58:38.75	357.38	11.40	-41.9	-60.7	3.8	7.42e-01	0	62	104	418906112	54	33085
2026-01-26 10:58:41.78	357.11	11.13	-41.0	-60.0	3.8	7.46e-01	0	62	104	418906112	54	30520
2026-01-26 10:58:44.80	356.85	10.86	-40.9	-59.9	3.8	7.47e-01	0	62	104	418906112	53	31971
2026-01-26 10:58:47.84	356.59	10.60	-41.0	-60.0	3.8	7.45e-01	0	62	104	418906112	53	32402
2026-01-26 10:58:50.87	356.33	10.34	-40.9	-59.9	3.8	7.44e-01	0	62	104	418906112	53	31885
2026-01-26 10:58:53.90	356.08	10.08	-41.3	-60.3	3.8	7.47e-01	0	62	104	418906112	53	33413
2026-01-26 10:58:56.93	355.84	9.82	-41.2	-60.2	3.8	7.44e-01	0	62	104	418906112	53	33128
2026-01-26 10:58:59.96	355.60	9.56	-41.0	-60.0	3.8	7.45e-01	0	62	104	418906112	53	32278
2026-01-26 10:59:02.99	355.36	9.31	-41.1	-60.1	3.8	7.47e-01	0	62	104	418906112	53	32559
2026-01-26 10:59:06.02	355.13	9.06	-41.0	-60.0	3.8	7.45e-01	0	62	104	418906112	53	32268
2026-01-26 10:59:09.05	354.90	8.81	-41.1	-60.1	3.8	7.43e-01	0	62	104	418906112	53	32714
2026-01-26 10:59:12.08	354.68	8.57	-41.0	-60.0	3.8	7.45e-01	0	62	104	418906112	53	32246
2026-01-26 10:59:15.11	354.46	8.32	-41.1	-60.0	3.8	7.45e-01	0	62	104	418906112	53	32430
2026-01-26 10:59:18.14	354.25	8.08	-41.0	-59.9	3.8	7.44e-01	0	62	104	418906112	53	32069
2026-01-26 10:59:21.17	354.04	7.84	-43.2	-62.1	3.8	7.47e-01	0	62	104	418906112	56	34482
2026-01-26 10:59:24.20	353.83	7.60	-46.2	-64.8	3.8	7.47e-01	0	62	104	418906112	62	33403
2026-01-26 10:59:27.23	353.63	7.37	-46.3	-64.9	3.8	7.44e-01	0	62	104	418906112	63	31957
2026-01-26 10:59:30.26	353.43	7.14	-45.2	-63.2	4.1	7.61e-01	0	62	104	418906112	61	29407
2026-01-26 10:59:33.29	353.24	6.91	-46.2	-64.8	3.8	7.45e-01	0	62	104	418906112	63	31669
2026-01-26 10:59:36.32	353.05	6.68	-46.1	-64.6	3.8	7.50e-01	0	62	104	418906112	63	31086
2026-01-26 10:59:39.35	352.86	6.45	-46.0	-64.5	3.9	7.46e-01	0	62	104	418906112	62	32514
2026-01-26 10:59:42.38	352.67	6.23	-46.0	-64.5	3.8	7.42e-01	0	62	104	418906112	62	32543
2026-01-26 10:59:45.41	352.49	6.00	-46.0	-64.5	3.8	7.43e-01	0	62	104	418906112	62	32464
2026-01-26 10:59:48.45	352.31	5.78	-46.0	-64.5	3.8	7.45e-01	0	62	104	418906112	62	32506
2026-01-26 10:59:51.48	352.14	5.56	-46.0	-64.5	3.8	7.44e-01	0	62	104	418906112	62	32389
2026-01-26 10:59:54.51	351.97	5.34	-46.0	-64.5	3.8	7.45e-01	0	62	104	418906112	62	32406
2026-01-26 10:59:57.54	351.80	5.13	-45.7	-64.6	3.8	7.47e-01	0	62	104	418906112	62	32644
2026-01-26 11:00:00.57	351.63	4.91	-46.0	-64.5	3.8	7.46e-01	0	62	104	418906112	62	32409
2026-01-26 11:00:03.60	351.47	4.70	-46.0	-64.5	3.8	7.44e-01	0	62	104	418906112	62	32404
2026-01-26 11:00:06.63	351.31	4.49	-46.0	-64.5	3.8	7.44e-01	0	62	104	418906112	62	32380
2026-01-26 11:00:09.66	351.15	4.28	-46.0	-64.5	3.8	7.44e-01	0	62	104	418906112	62	32330
2026-01-26 11:00:12.70	350.99	4.07	-46.0	-64.5	3.8	7.46e-01	0	62	104	418906112	62	32360
2026-01-26 11:00:15.73	350.84	3.87	-46.0	-64.5	3.8	7.46e-01	0	62	104	418906112	62	32461
2026-01-26 11:00:18.75	350.69	3.66	-46.0	-64.5	3.8	7.45e-01	0	62	104	418906112	62	32409
2026-01-26 11:00:21.79	350.54	3.46	-46.0	-64.5	3.8	7.44e-01	0	62	104	418906112	62	32415
2026-01-26 11:00:24.82	350.40	3.26	-46.0	-64.5	3.8	7.45e-01	0	62	104	418906112	62	32378
2026-01-26 11:00:27.85	350.25	3.06	-46.0	-64.5	3.8	7.44e-01	0	62	104	418906112	62	32185
2026-01-26 11:00:30.88	350.11	2.86	-46.0	-64.5	3.8	7.44e-01	0	62	104	418906112	62	32253
2026-01-26 11:00:33.91	349.98	2.66	-46.0	-64.5	3.8	7.47e-01	0	62	104	418906112	62	32220
2026-01-26 11:00:36.95	349.84	2.47	-46.0	-64.5	3.8	7.42e-01	0	62	104	418906112	62	32259
2026-01-26 11:00:39.98	349.70	2.27	-46.0	-64.5	3.8	7.47e-01	0	62	104	418906112	62	32275
2026-01-26 11:00:43.01	349.57	2.08	-46.0	-64.5	3.8	7.43e-01	0	62	104	418906112	62	32254
2026-01-26 11:00:46.04	349.44	1.89	-45.9	-64.5	3.8	7.43e-01	0	62	104	418906112	62	32296

#Closed at: 2026-01-26 11:00:46
#Recorded file [418 MB]: D:/lorett/data/31039_260126_134832.dat