passes_logs/2026/01/26/R2.0S_Moscow/R2.0S_Moscow__20260126_034837_FENGYUN_3E_rec.log

#Pass ID: 20260126_034837_FENGYUN 3E
#Satellite: FENGYUN 3E
#Configuration: FENGYUN 3E
#almurnet v.1.7.20251203
#Start time: 2026-01-26 03:58:25

#Version: 2.2.20231116
#Station: R2.0S_Moscow
#Location: 37.707566 lon 55.798166 lat
#TLE: 1 49008U 21062A   26025.50541212  .00000123  00000+0  78606-4 0  9993
#TLE: 2 49008  98.7497  30.5110 0002440 117.2537 242.8888 14.19886993236338

#Time	Az	El	Level	Level2	SNR	BER	BlckErr	Temp	State	Recorded	gain1	gain2
2026-01-26 03:58:25.77	189.81	32.42	-44.7	-56.4	3.8	8.46e-01	0	61	0	0	60	14316
2026-01-26 03:58:27.78	189.91	32.00	-45.6	-57.0	3.8	8.44e-01	0	62	104	0	62	12833
2026-01-26 03:58:29.81	190.00	31.59	-45.4	-56.6	3.8	8.46e-01	0	62	104	0	61	13069
2026-01-26 03:58:31.83	190.10	31.19	-45.3	-56.1	3.8	8.47e-01	0	62	104	0	61	12358
2026-01-26 03:58:33.85	190.18	30.79	-45.2	-56.4	3.8	8.46e-01	0	62	104	0	61	12739
2026-01-26 03:58:35.87	190.27	30.39	-45.2	-56.4	3.8	8.46e-01	0	62	104	0	61	12751
2026-01-26 03:58:37.89	190.36	30.01	-45.1	-56.4	3.8	8.46e-01	0	62	104	0	61	12729
2026-01-26 03:58:39.91	190.44	29.62	-45.1	-56.4	3.8	8.46e-01	0	62	104	0	61	12741
2026-01-26 03:58:41.93	190.52	29.24	-45.1	-56.4	3.8	8.46e-01	0	62	104	0	61	12780
2026-01-26 03:58:43.95	190.60	28.87	-45.1	-56.4	3.8	8.45e-01	0	62	104	0	61	12798
2026-01-26 03:58:45.97	190.68	28.50	-45.1	-56.4	3.8	8.46e-01	0	62	104	0	61	12726
2026-01-26 03:58:47.99	190.76	28.14	-45.1	-56.4	3.8	8.46e-01	0	62	104	0	61	12671
2026-01-26 03:58:50.01	190.83	27.78	-45.1	-56.4	3.8	8.47e-01	0	62	104	0	61	12667
2026-01-26 03:58:52.03	190.91	27.42	-45.1	-56.3	3.8	8.46e-01	0	62	104	0	61	12628
2026-01-26 03:58:54.05	190.98	27.07	-45.0	-55.8	3.8	8.46e-01	0	62	104	0	61	11913
2026-01-26 03:58:56.07	191.05	26.73	-44.8	-54.4	3.8	8.46e-01	0	62	104	0	60	10688
2026-01-26 03:58:58.09	191.12	26.39	-44.6	-52.9	4.2	8.38e-01	0	62	0	0	60	9036
2026-01-26 03:59:00.11	191.19	26.05	-44.7	-53.2	4.1	8.39e-01	0	62	0	0	60	9304
2026-01-26 03:59:02.13	191.25	25.72	-45.0	-55.5	3.8	8.46e-01	0	62	104	0	60	12113
2026-01-26 03:59:04.15	191.32	25.39	-44.6	-52.8	4.2	8.40e-01	0	62	0	0	60	8910
2026-01-26 03:59:06.17	191.38	25.06	-43.2	-47.5	7.4	1.88e-01	0	62	0	6291456	57	5780
2026-01-26 03:59:08.19	191.45	24.74	-41.9	-45.0	9.8	1.36e-02	0	62	0	20971520	54	5122
2026-01-26 03:59:10.21	191.51	24.43	-42.0	-45.2	9.6	1.08e-02	0	62	0	35651584	54	5249
2026-01-26 03:59:12.23	191.57	24.11	-43.4	-48.2	6.8	1.34e-01	0	62	0	50331648	56	6587
2026-01-26 03:59:14.25	191.63	23.80	-43.1	-47.2	7.7	1.55e-01	0	62	0	65011712	57	5560
2026-01-26 03:59:16.26	191.69	23.50	-39.9	-42.0	13.0	1.37e-04	0	62	0	78643200	50	4574
2026-01-26 03:59:18.29	191.75	23.19	-37.1	-38.5	16.4	0.00e+00	0	62	0	93323264	45	4059
2026-01-26 03:59:20.31	191.80	22.90	-35.7	-36.9	17.8	0.00e+00	0	62	0	108003328	42	4033
2026-01-26 03:59:22.33	191.86	22.60	-38.0	-39.6	15.3	1.14e-03	0	62	0	122683392	47	4122
2026-01-26 03:59:24.35	191.91	22.31	-40.2	-42.4	12.4	1.38e-01	0	62	0	137363456	51	4507
2026-01-26 03:59:26.37	191.97	22.02	-35.7	-36.9	17.8	0.00e+00	0	62	0	150994944	42	4027
2026-01-26 03:59:28.39	192.02	21.73	-35.5	-36.7	18.0	0.00e+00	0	62	0	166723584	42	3940
2026-01-26 03:59:30.41	192.07	21.45	-35.4	-36.6	18.1	0.00e+00	0	62	0	180355072	41	4127
2026-01-26 03:59:32.43	192.12	21.17	-35.4	-36.6	18.1	0.00e+00	0	62	0	195035136	41	4113
2026-01-26 03:59:34.45	192.17	20.89	-35.6	-36.8	17.8	0.00e+00	0	62	0	209715200	41	4217
2026-01-26 03:59:36.47	192.22	20.62	-35.5	-36.7	17.9	0.00e+00	0	62	0	224395264	41	4178
2026-01-26 03:59:38.49	192.27	20.35	-35.4	-36.5	18.1	0.00e+00	0	62	0	239075328	41	4091
2026-01-26 03:59:40.51	192.32	20.08	-35.4	-36.5	18.0	0.00e+00	0	62	0	253755392	41	4095
2026-01-26 03:59:42.53	192.37	19.82	-35.4	-36.6	18.0	0.00e+00	0	62	0	268435456	41	4139
2026-01-26 03:59:44.55	192.42	19.56	-35.4	-36.6	17.9	0.00e+00	0	62	0	283115520	41	4142
2026-01-26 03:59:46.58	192.46	19.30	-35.5	-36.7	17.9	0.00e+00	0	62	0	297795584	41	4174
2026-01-26 03:59:48.60	192.51	19.04	-35.6	-36.9	17.7	0.00e+00	0	62	0	312475648	41	4250
2026-01-26 03:59:50.62	192.55	18.79	-35.7	-36.9	17.7	0.00e+00	0	62	0	326107136	41	4254
2026-01-26 03:59:52.63	192.60	18.54	-35.8	-37.0	17.6	0.00e+00	0	62	0	340787200	41	4336
2026-01-26 03:59:54.65	192.64	18.29	-35.9	-37.1	17.5	0.00e+00	0	62	0	355467264	41	4371
2026-01-26 03:59:56.67	192.68	18.04	-36.0	-37.3	17.3	0.00e+00	0	62	0	370147328	41	4467
2026-01-26 03:59:58.69	192.73	17.80	-36.1	-37.4	17.2	0.00e+00	0	62	0	384827392	41	4513
2026-01-26 04:00:00.71	192.77	17.56	-36.1	-37.4	17.2	0.00e+00	0	62	0	399507456	41	4513
2026-01-26 04:00:02.73	192.81	17.32	-36.2	-37.5	17.1	0.00e+00	0	62	0	414187520	41	4562
2026-01-26 04:00:04.75	192.85	17.08	-36.3	-37.6	17.0	0.00e+00	0	62	0	428867584	42	4357
2026-01-26 04:00:06.77	192.89	16.85	-36.4	-37.7	16.9	0.00e+00	0	62	0	443547648	42	4417
2026-01-26 04:00:08.79	192.93	16.61	-36.4	-37.7	16.8	0.00e+00	0	62	0	458227712	42	4441
2026-01-26 04:00:10.81	192.97	16.38	-36.4	-37.7	16.8	0.00e+00	0	62	0	471859200	42	4441
2026-01-26 04:00:12.83	193.01	16.16	-36.5	-37.8	16.7	0.00e+00	0	62	0	487587840	42	4487
2026-01-26 04:00:14.85	193.05	15.93	-36.6	-38.0	16.5	0.00e+00	0	62	0	501219328	42	4551
2026-01-26 04:00:16.87	193.08	15.71	-36.6	-38.0	16.5	0.00e+00	0	62	0	515899392	42	4563
2026-01-26 04:00:18.89	193.12	15.48	-36.6	-38.0	16.5	0.00e+00	0	62	0	530579456	42	4576
2026-01-26 04:00:20.91	193.16	15.26	-36.7	-38.1	16.4	0.00e+00	0	62	0	545259520	42	4618
2026-01-26 04:00:22.93	193.19	15.05	-36.7	-38.1	16.3	0.00e+00	0	62	0	559939584	43	4390
2026-01-26 04:00:24.95	193.23	14.83	-36.7	-38.1	16.3	0.00e+00	0	62	0	574619648	43	4384
2026-01-26 04:00:26.97	193.27	14.62	-36.8	-38.2	16.3	0.00e+00	0	62	0	589299712	43	4423
2026-01-26 04:00:28.98	193.30	14.41	-36.9	-38.3	16.1	0.00e+00	0	62	0	603979776	43	4465
2026-01-26 04:00:31.00	193.33	14.20	-36.8	-38.2	16.2	0.00e+00	0	62	0	617611264	43	4439
2026-01-26 04:00:33.02	193.37	13.99	-36.9	-38.4	16.0	0.00e+00	0	62	0	632291328	43	4507
2026-01-26 04:00:35.04	193.40	13.78	-36.9	-38.4	16.0	0.00e+00	0	62	0	646971392	43	4497
2026-01-26 04:00:37.06	193.44	13.58	-37.0	-38.5	15.9	0.00e+00	0	62	0	661651456	43	4549
2026-01-26 04:00:39.08	193.47	13.37	-37.0	-38.5	15.9	0.00e+00	0	62	0	676331520	43	4568
2026-01-26 04:00:41.10	193.50	13.17	-37.0	-38.5	15.9	0.00e+00	0	62	0	691011584	43	4554
2026-01-26 04:00:43.12	193.53	12.97	-37.1	-38.6	15.8	0.00e+00	0	62	0	705691648	43	4622
2026-01-26 04:00:45.14	193.57	12.77	-37.1	-38.6	15.8	0.00e+00	0	62	0	720371712	43	4605
2026-01-26 04:00:47.16	193.60	12.58	-37.1	-38.6	15.7	0.00e+00	0	62	0	735051776	43	4643
2026-01-26 04:00:49.18	193.63	12.38	-37.3	-38.9	15.6	0.00e+00	0	62	0	749731840	44	4505
2026-01-26 04:00:51.20	193.66	12.19	-37.4	-39.0	15.5	0.00e+00	0	62	0	764411904	44	4553
2026-01-26 04:00:53.22	193.69	12.00	-37.5	-39.1	15.4	0.00e+00	0	62	0	779091968	44	4613
2026-01-26 04:00:55.25	193.72	11.80	-37.5	-39.0	15.4	0.00e+00	0	62	0	792723456	44	4583
2026-01-26 04:00:57.27	193.75	11.62	-37.7	-39.2	15.2	1.10e-06	0	62	0	807403520	44	4702
2026-01-26 04:00:59.29	193.78	11.43	-37.6	-39.2	15.2	0.00e+00	0	62	0	822083584	44	4673
2026-01-26 04:01:01.31	193.81	11.24	-37.6	-39.2	15.2	0.00e+00	0	62	0	836763648	44	4672
2026-01-26 04:01:03.33	193.84	11.06	-37.7	-39.3	15.2	0.00e+00	0	62	0	851443712	44	4710
2026-01-26 04:01:05.35	193.87	10.87	-37.8	-39.4	15.0	0.00e+00	0	62	0	866123776	45	4517
2026-01-26 04:01:07.37	193.90	10.69	-37.8	-39.4	15.0	0.00e+00	0	62	0	880803840	45	4516
2026-01-26 04:01:09.39	193.92	10.51	-37.9	-39.5	14.9	1.10e-06	0	62	0	895483904	45	4579
2026-01-26 04:01:11.40	193.95	10.33	-37.9	-39.6	14.8	0.00e+00	0	62	0	910163968	45	4613
2026-01-26 04:01:13.42	193.98	10.15	-37.9	-39.6	14.7	0.00e+00	0	62	0	924844032	45	4601
2026-01-26 04:01:15.44	194.01	9.98	-38.0	-39.7	14.6	0.00e+00	0	62	0	938475520	45	4660
2026-01-26 04:01:17.47	194.03	9.80	-38.1	-39.9	14.4	0.00e+00	0	62	0	953155584	45	4777
2026-01-26 04:01:19.49	194.06	9.63	-38.1	-39.9	14.4	2.20e-06	0	62	0	967835648	45	4781
2026-01-26 04:01:21.50	194.09	9.45	-38.1	-39.8	14.4	0.00e+00	0	62	0	982515712	45	4737
2026-01-26 04:01:23.52	194.11	9.28	-38.1	-39.8	14.4	1.10e-06	0	62	0	997195776	45	4741
2026-01-26 04:01:25.54	194.14	9.11	-38.2	-39.9	14.2	1.10e-06	0	62	0	1011875840	45	4813
2026-01-26 04:01:27.57	194.17	8.94	-38.3	-40.1	14.0	0.00e+00	0	62	0	1026555904	46	4651
2026-01-26 04:01:29.59	194.19	8.77	-38.2	-39.9	14.2	4.50e-06	0	62	0	1041235968	46	4543
2026-01-26 04:01:31.61	194.22	8.61	-38.3	-40.1	14.0	2.20e-06	0	62	0	1055916032	46	4638
2026-01-26 04:01:33.62	194.24	8.44	-38.2	-40.1	14.0	3.40e-06	0	62	0	1070596096	46	4608
2026-01-26 04:01:35.65	194.27	8.27	-38.3	-40.2	13.9	1.02e-05	0	62	0	1085276160	46	4652
2026-01-26 04:01:37.66	194.29	8.11	-38.3	-40.2	13.8	0.00e+00	0	62	0	1098907648	46	4664
2026-01-26 04:01:39.69	194.32	7.95	-42.3	-46.6	7.5	2.25e-03	0	62	0	1113587712	54	6140
2026-01-26 04:01:41.71	194.34	7.79	-45.1	-56.4	3.8	8.46e-01	0	62	104	1115684864	60	13522
2026-01-26 04:01:43.73	194.36	7.63	-45.4	-56.8	3.8	8.45e-01	0	62	104	1115684864	60	14058
2026-01-26 04:01:45.75	194.39	7.47	-45.5	-56.9	3.8	8.45e-01	0	62	104	1115684864	60	14317
2026-01-26 04:01:47.77	194.41	7.31	-45.6	-57.0	3.8	8.47e-01	0	62	104	1115684864	60	14387
2026-01-26 04:01:49.79	194.44	7.15	-45.6	-56.9	3.8	8.46e-01	0	62	104	1115684864	60	14319
2026-01-26 04:01:51.81	194.46	6.99	-45.5	-56.9	3.8	8.45e-01	0	62	104	1115684864	60	14241
2026-01-26 04:01:53.83	194.48	6.84	-45.5	-56.9	3.8	8.45e-01	0	62	104	1115684864	60	14210
2026-01-26 04:01:55.85	194.51	6.68	-45.4	-56.8	3.8	8.47e-01	0	62	104	1115684864	60	14157
2026-01-26 04:01:57.87	194.53	6.53	-45.4	-56.8	3.8	8.46e-01	0	62	104	1115684864	60	14159
2026-01-26 04:01:59.89	194.55	6.37	-45.4	-56.8	3.8	8.47e-01	0	62	104	1115684864	60	14069
2026-01-26 04:02:01.91	194.57	6.22	-45.4	-56.8	3.8	8.46e-01	0	62	104	1115684864	60	14063
2026-01-26 04:02:03.93	194.59	6.07	-45.4	-56.7	3.8	8.45e-01	0	62	104	1115684864	60	14033
2026-01-26 04:02:05.96	194.62	5.92	-45.4	-56.7	3.8	8.46e-01	0	62	104	1115684864	60	14039
2026-01-26 04:02:07.98	194.64	5.77	-45.4	-56.7	3.8	8.45e-01	0	62	104	1115684864	60	14036
2026-01-26 04:02:10.00	194.66	5.62	-45.4	-56.7	3.8	8.47e-01	0	62	104	1115684864	60	14023
2026-01-26 04:02:12.02	194.68	5.47	-45.3	-56.7	3.8	8.46e-01	0	62	104	1115684864	60	13987
2026-01-26 04:02:14.04	194.70	5.33	-45.3	-56.7	3.8	8.47e-01	0	62	104	1115684864	60	13992
2026-01-26 04:02:16.07	194.72	5.18	-45.4	-56.7	3.8	8.46e-01	0	62	104	1115684864	60	13952
2026-01-26 04:02:18.09	194.75	5.03	-45.3	-56.7	3.8	8.45e-01	0	62	104	1115684864	60	13962
2026-01-26 04:02:20.11	194.77	4.89	-45.3	-56.7	3.8	8.46e-01	0	62	104	1115684864	60	13955
2026-01-26 04:02:22.13	194.79	4.75	-45.3	-56.7	3.8	8.46e-01	0	62	104	1115684864	60	13922
2026-01-26 04:02:24.15	194.81	4.60	-45.3	-56.6	3.8	8.46e-01	0	62	104	1115684864	60	13879
2026-01-26 04:02:26.17	194.83	4.46	-45.3	-56.6	3.8	8.46e-01	0	62	104	1115684864	60	13841
2026-01-26 04:02:28.20	194.85	4.32	-45.2	-56.6	3.8	8.45e-01	0	62	104	1115684864	60	13758
2026-01-26 04:02:30.22	194.87	4.18	-45.2	-56.6	3.8	8.45e-01	0	62	104	1115684864	60	13819
2026-01-26 04:02:32.24	194.89	4.04	-45.2	-56.6	3.8	8.46e-01	0	62	104	1115684864	60	13825
2026-01-26 04:02:34.26	194.91	3.90	-45.2	-56.6	3.8	8.45e-01	0	62	104	1115684864	60	13792
2026-01-26 04:02:36.29	194.93	3.76	-45.2	-56.6	3.8	8.47e-01	0	62	104	1115684864	60	13804
2026-01-26 04:02:38.31	194.95	3.62	-45.2	-56.6	3.8	8.45e-01	0	62	104	1115684864	60	13843
2026-01-26 04:02:40.33	194.97	3.48	-45.2	-56.6	3.8	8.46e-01	0	62	104	1115684864	60	13798
2026-01-26 04:02:42.35	194.99	3.35	-45.2	-56.6	3.8	8.47e-01	0	63	104	1115684864	60	13790
2026-01-26 04:02:44.37	195.01	3.21	-45.2	-56.6	3.8	8.47e-01	0	62	104	1115684864	60	13764
2026-01-26 04:02:46.39	195.02	3.08	-45.2	-56.6	3.8	8.47e-01	0	62	104	1115684864	60	13805
2026-01-26 04:02:48.41	195.04	2.94	-45.2	-56.6	3.8	8.46e-01	0	62	104	1115684864	60	13732
2026-01-26 04:02:50.44	195.06	2.81	-45.2	-56.5	3.8	8.47e-01	0	62	104	1115684864	60	13726
2026-01-26 04:02:52.46	195.08	2.67	-45.2	-56.6	3.8	8.46e-01	0	62	104	1115684864	60	13835
2026-01-26 04:02:54.48	195.10	2.54	-45.2	-56.6	3.8	8.46e-01	0	62	104	1115684864	60	13831
2026-01-26 04:02:56.50	195.12	2.41	-45.2	-56.6	3.8	8.45e-01	0	62	104	1115684864	60	13803
2026-01-26 04:02:58.52	195.14	2.28	-45.2	-56.6	3.8	8.45e-01	0	62	104	1115684864	60	13755
2026-01-26 04:03:00.54	195.15	2.15	-45.2	-56.6	3.8	8.47e-01	0	63	104	1115684864	60	13812
2026-01-26 04:03:02.56	195.17	2.02	-45.2	-56.6	3.8	8.47e-01	0	62	104	1115684864	60	13767

#Closed at: 2026-01-26 04:03:02
#Recorded file [1115 MB]: D:/lorett/data/31039_260126_065825.dat