passes_logs/2026/01/26/R2.0S_Moscow/R2.0S_Moscow__20260126_223950_NOAA_21_JPSS-2_rec.log

#Pass ID: 20260126_223950_NOAA 21 (JPSS-2)
#Satellite: NOAA 21 (JPSS-2)
#Configuration: NOAA-21
#almurnet v.1.7.20251203
#Start time: 2026-01-26 22:39:51

#Version: 2.2.20231116
#Station: R2.0S_Moscow
#Location: 37.707566 lon 55.798166 lat
#TLE: 1 54234U 22150A   26026.43130734  .00000179  00000+0  10559-3 0  9998
#TLE: 2 54234  98.7509 327.1934 0000805 209.8356 150.2774 14.19539635166435

#Time	Az	El	Level	Level2	SNR	BER	BlckErr	Temp	State	Recorded	gain1	gain2
2026-01-26 22:39:51.74	21.61	2.10	-42.7	-55.0	3.8	1.49e+00	0	53	0	0	57	14388
2026-01-26 22:39:55.77	21.81	2.34	-42.7	-54.9	3.8	1.49e+00	0	53	104	0	57	14368
2026-01-26 22:39:59.81	22.02	2.59	-42.7	-55.0	3.8	1.49e+00	0	54	104	0	57	14379
2026-01-26 22:40:03.85	22.22	2.83	-42.6	-54.9	3.8	1.49e+00	0	54	104	0	57	14342
2026-01-26 22:40:07.89	22.43	3.08	-42.6	-54.9	3.8	1.49e+00	0	54	104	0	57	14355
2026-01-26 22:40:11.93	22.64	3.33	-42.7	-54.9	3.8	1.49e+00	0	54	104	0	57	14371
2026-01-26 22:40:15.97	22.86	3.58	-42.6	-54.9	3.8	1.49e+00	0	55	104	0	57	14324
2026-01-26 22:40:20.01	23.08	3.83	-42.7	-54.9	3.8	1.49e+00	0	55	104	0	57	14348
2026-01-26 22:40:24.05	23.30	4.09	-42.7	-55.0	3.8	1.49e+00	0	55	104	0	57	14413
2026-01-26 22:40:28.09	23.53	4.35	-42.7	-55.0	3.8	1.49e+00	0	55	104	0	57	14383
2026-01-26 22:40:32.14	23.76	4.61	-42.7	-55.0	3.8	1.49e+00	0	56	104	0	57	14397
2026-01-26 22:40:36.18	23.99	4.87	-42.7	-54.9	3.8	1.49e+00	0	56	104	0	57	14358
2026-01-26 22:40:40.22	24.23	5.13	-42.7	-54.9	3.8	1.49e+00	0	56	104	0	57	14362
2026-01-26 22:40:44.26	24.47	5.40	-42.6	-54.9	3.8	1.49e+00	0	56	104	0	57	14363
2026-01-26 22:40:48.31	24.72	5.67	-42.6	-54.9	3.8	1.49e+00	0	56	104	0	57	14321
2026-01-26 22:40:52.35	24.97	5.94	-42.6	-54.9	3.8	1.49e+00	0	56	104	0	57	14337
2026-01-26 22:40:56.39	25.22	6.21	-42.6	-54.9	3.8	1.49e+00	0	57	104	0	57	14324
2026-01-26 22:41:00.43	25.48	6.49	-42.6	-54.9	3.8	1.49e+00	0	57	104	0	57	14331
2026-01-26 22:41:04.47	25.75	6.77	-42.6	-54.9	3.8	1.49e+00	0	57	104	0	57	14303
2026-01-26 22:41:08.51	26.01	7.05	-42.6	-54.9	3.8	1.49e+00	0	57	104	0	57	14282
2026-01-26 22:41:12.55	26.29	7.33	-42.5	-54.1	3.8	1.49e+00	0	57	104	0	57	13059
2026-01-26 22:41:16.59	26.57	7.62	-41.6	-48.7	5.3	6.88e-01	0	57	0	0	55	7844
2026-01-26 22:41:20.63	26.85	7.91	-40.2	-44.4	9.0	3.18e-02	0	58	0	12582912	52	5667
2026-01-26 22:41:24.68	27.14	8.20	-41.4	-47.8	6.0	6.24e-02	0	58	0	25165824	53	7940
2026-01-26 22:41:28.72	27.43	8.50	-40.5	-44.1	10.1	9.60e-03	0	58	0	32505856	52	5516
2026-01-26 22:41:32.76	27.73	8.79	-40.4	-44.0	10.4	4.76e-03	0	58	0	45088768	52	5421
2026-01-26 22:41:36.80	28.04	9.10	-40.4	-43.8	10.8	2.89e-03	0	58	0	57671680	52	5297
2026-01-26 22:41:40.84	28.35	9.40	-40.3	-43.5	11.1	1.76e-03	0	58	0	70254592	52	5147
2026-01-26 22:41:44.89	28.67	9.71	-40.3	-43.5	11.2	1.11e-03	0	58	0	82837504	52	5137
2026-01-26 22:41:48.93	29.00	10.02	-40.4	-43.5	11.3	1.18e-03	0	58	0	95420416	52	5111
2026-01-26 22:41:52.97	29.33	10.33	-40.4	-43.4	11.5	8.54e-04	0	59	0	108003328	52	5097
2026-01-26 22:41:57.02	29.66	10.65	-40.4	-43.4	11.7	5.43e-04	0	59	0	120586240	52	5054
2026-01-26 22:42:01.05	30.01	10.96	-40.2	-43.1	12.0	3.49e-04	0	59	0	133169152	52	4920
2026-01-26 22:42:05.10	30.36	11.29	-40.4	-43.3	11.9	4.03e-04	0	59	0	145752064	51	5306
2026-01-26 22:42:09.13	30.72	11.61	-40.2	-43.0	12.2	2.57e-04	0	59	0	158334976	51	5158
2026-01-26 22:42:13.17	31.09	11.94	-40.1	-42.8	12.4	1.43e-04	0	59	0	170917888	51	5041
2026-01-26 22:42:17.21	31.46	12.28	-40.1	-42.8	12.5	1.38e-04	0	59	0	183500800	51	5039
2026-01-26 22:42:21.25	31.85	12.61	-40.1	-42.8	12.6	9.84e-05	0	59	0	196083712	51	4987
2026-01-26 22:42:25.29	32.24	12.95	-40.0	-42.7	12.7	6.17e-05	0	59	0	208666624	51	4933
2026-01-26 22:42:29.34	32.64	13.30	-40.0	-42.5	12.8	6.40e-05	0	59	0	221249536	51	4870
2026-01-26 22:42:33.37	33.05	13.65	-40.0	-42.7	12.8	5.64e-05	0	60	0	233832448	51	4928
2026-01-26 22:42:37.41	33.47	14.00	-40.0	-42.6	12.8	6.02e-05	0	60	0	246415360	51	4915
2026-01-26 22:42:41.46	33.90	14.35	-40.1	-42.7	12.8	6.17e-05	0	60	0	260046848	51	4932
2026-01-26 22:42:45.50	34.34	14.71	-40.1	-42.6	12.9	4.34e-05	0	60	0	272629760	51	4900
2026-01-26 22:42:49.54	34.79	15.07	-40.1	-42.7	12.8	5.87e-05	0	60	0	285212672	51	4961
2026-01-26 22:42:53.58	35.25	15.44	-40.2	-42.8	12.7	7.01e-05	0	60	0	297795584	51	5034
2026-01-26 22:42:57.63	35.72	15.81	-40.2	-42.8	12.8	7.01e-05	0	60	0	310378496	51	5014
2026-01-26 22:43:01.67	36.20	16.19	-40.1	-42.7	13.0	4.95e-05	0	60	0	322961408	51	4946
2026-01-26 22:43:05.72	36.70	16.57	-40.2	-42.7	12.9	4.57e-05	0	60	0	335544320	51	4967
2026-01-26 22:43:09.76	37.20	16.95	-40.0	-42.5	13.1	2.51e-05	0	60	0	348127232	51	4849
2026-01-26 22:43:13.80	37.72	17.33	-40.0	-42.5	13.2	2.74e-05	0	60	0	360710144	51	4822
2026-01-26 22:43:17.84	38.25	17.72	-40.0	-42.5	13.2	1.67e-05	0	60	0	373293056	51	4845
2026-01-26 22:43:21.88	38.80	18.12	-40.0	-42.5	13.3	2.21e-05	0	60	0	385875968	51	4817
2026-01-26 22:43:25.93	39.36	18.52	-40.0	-42.5	13.2	1.83e-05	0	60	0	398458880	51	4826
2026-01-26 22:43:29.97	39.93	18.92	-39.9	-42.3	13.5	1.52e-05	0	60	0	411041792	51	4730
2026-01-26 22:43:34.01	40.52	19.33	-39.9	-42.4	13.4	9.90e-06	0	60	0	423624704	51	4765
2026-01-26 22:43:38.05	41.13	19.73	-39.9	-42.2	13.5	8.30e-06	0	60	0	436207616	51	4697
2026-01-26 22:43:42.09	41.75	20.15	-39.7	-41.9	13.8	3.00e-06	0	60	0	448790528	51	4530
2026-01-26 22:43:46.14	42.38	20.57	-39.5	-41.8	14.0	2.20e-06	0	61	0	461373440	51	4448
2026-01-26 22:43:50.18	43.04	20.99	-39.5	-41.7	14.1	2.20e-06	0	61	0	473956352	50	4681
2026-01-26 22:43:54.22	43.71	21.41	-39.4	-41.5	14.3	3.00e-06	0	60	0	486539264	50	4597
2026-01-26 22:43:58.26	44.40	21.84	-39.2	-41.2	14.6	0.00e+00	0	61	0	499122176	50	4412
2026-01-26 22:44:02.30	45.11	22.27	-39.1	-41.2	14.7	0.00e+00	0	61	0	512753664	50	4393
2026-01-26 22:44:06.34	45.84	22.70	-39.2	-41.3	14.6	0.00e+00	0	61	0	525336576	50	4443
2026-01-26 22:44:10.39	46.59	23.14	-39.0	-41.0	14.8	7.00e-07	0	61	0	537919488	50	4325
2026-01-26 22:44:14.43	47.36	23.57	-39.0	-41.0	14.8	0.00e+00	0	61	0	550502400	49	4588
2026-01-26 22:44:18.47	48.15	24.01	-39.1	-41.2	14.6	7.00e-07	0	61	0	563085312	49	4669
2026-01-26 22:44:22.51	48.96	24.46	-39.2	-41.2	14.5	7.00e-07	0	61	0	575668224	49	4699
2026-01-26 22:44:26.55	49.79	24.90	-39.3	-41.4	14.4	1.50e-06	0	61	0	588251136	49	4809
2026-01-26 22:44:30.59	50.65	25.34	-39.5	-41.6	14.2	7.00e-07	0	61	0	600834048	49	4918
2026-01-26 22:44:34.63	51.54	25.79	-39.6	-41.8	14.0	1.50e-06	0	61	0	613416960	49	5033
2026-01-26 22:44:38.67	52.44	26.23	-39.7	-42.0	13.9	1.50e-06	0	61	0	625999872	49	5104
2026-01-26 22:44:42.71	53.37	26.68	-39.8	-42.0	13.9	4.50e-06	0	61	0	638582784	50	4863
2026-01-26 22:44:46.75	54.33	27.12	-39.8	-42.0	13.9	1.50e-06	0	61	0	651165696	50	4855
2026-01-26 22:44:50.79	55.32	27.57	-40.0	-42.3	13.6	3.80e-06	0	61	0	663748608	50	5021
2026-01-26 22:44:54.83	56.33	28.01	-40.1	-42.4	13.5	8.30e-06	0	61	0	676331520	50	5096
2026-01-26 22:44:58.87	57.37	28.45	-40.0	-42.3	13.7	3.00e-06	0	61	0	688914432	50	5012
2026-01-26 22:45:02.92	58.44	28.88	-40.0	-42.3	13.7	6.80e-06	0	61	0	701497344	50	5024
2026-01-26 22:45:06.96	59.54	29.31	-40.0	-42.4	13.6	6.80e-06	0	61	0	714080256	50	5042
2026-01-26 22:45:11.00	60.66	29.74	-39.7	-41.9	14.0	5.30e-06	0	61	0	726663168	50	4808
2026-01-26 22:45:15.04	61.82	30.16	-39.7	-41.8	14.2	3.80e-06	0	61	0	739246080	50	4751
2026-01-26 22:45:19.09	63.01	30.57	-39.8	-42.0	14.0	4.50e-06	0	61	0	751828992	50	4868
2026-01-26 22:45:23.13	64.23	30.98	-39.6	-41.8	14.3	3.00e-06	0	61	0	764411904	50	4723
2026-01-26 22:45:27.17	65.47	31.38	-39.8	-41.9	14.1	0.00e+00	0	61	0	776994816	50	4813
2026-01-26 22:45:31.21	66.75	31.76	-39.9	-42.1	14.0	3.00e-06	0	61	0	789577728	50	4908
2026-01-26 22:45:35.25	68.05	32.14	-40.1	-42.4	13.7	7.60e-06	0	61	0	803209216	50	5055
2026-01-26 22:45:39.29	69.39	32.51	-40.1	-42.4	13.6	4.50e-06	0	61	0	815792128	50	5079
2026-01-26 22:45:43.33	70.76	32.86	-40.5	-43.0	13.1	3.28e-05	0	61	0	828375040	51	5101
2026-01-26 22:45:47.37	72.15	33.20	-40.3	-42.7	13.3	1.14e-05	0	61	0	840957952	51	4954
2026-01-26 22:45:51.41	73.57	33.52	-40.5	-43.0	13.1	3.66e-05	0	61	0	853540864	51	5120
2026-01-26 22:45:55.45	75.02	33.82	-40.4	-42.8	13.1	2.05e-05	0	61	0	866123776	51	5026
2026-01-26 22:45:59.49	76.50	34.11	-40.3	-42.7	13.3	1.60e-05	0	61	0	878706688	51	4968
2026-01-26 22:46:03.53	78.00	34.38	-40.4	-42.9	13.1	2.59e-05	0	62	0	891289600	51	5066
2026-01-26 22:46:07.57	79.53	34.63	-40.6	-43.2	12.8	5.11e-05	0	62	0	903872512	52	4956
2026-01-26 22:46:11.61	81.08	34.86	-40.4	-42.9	13.2	2.59e-05	0	61	0	916455424	52	4765
2026-01-26 22:46:15.65	82.65	35.07	-40.5	-43.0	13.0	3.50e-05	0	61	0	929038336	52	4824
2026-01-26 22:46:19.69	84.24	35.26	-40.4	-42.9	13.0	2.89e-05	0	61	0	941621248	52	4805
2026-01-26 22:46:23.73	85.85	35.42	-40.9	-43.6	12.4	1.40e-04	0	61	0	954204160	52	5187
2026-01-26 22:46:27.77	87.47	35.56	-40.6	-43.1	12.9	7.55e-05	0	61	0	966787072	52	4915
2026-01-26 22:46:31.81	89.10	35.67	-40.6	-43.1	12.9	3.66e-05	0	61	0	979369984	52	4925
2026-01-26 22:46:35.85	90.74	35.76	-40.6	-43.1	13.0	2.59e-05	0	62	0	991952896	52	4883
2026-01-26 22:46:39.89	92.39	35.82	-40.5	-43.0	13.1	3.96e-05	0	62	0	1004535808	52	4828
2026-01-26 22:46:43.93	94.05	35.85	-40.2	-42.6	13.5	1.06e-05	0	62	0	1017118720	52	4612
2026-01-26 22:46:47.97	95.71	35.86	-40.4	-42.8	13.2	2.51e-05	0	62	0	1029701632	52	4736
2026-01-26 22:46:52.01	97.37	35.84	-40.5	-43.0	13.0	3.35e-05	0	62	0	1042284544	52	4868
2026-01-26 22:46:56.05	99.02	35.80	-40.6	-43.2	12.8	6.02e-05	0	62	0	1054867456	52	4967
2026-01-26 22:47:00.10	100.68	35.73	-40.6	-43.1	13.0	4.65e-05	0	62	0	1067450368	52	4909
2026-01-26 22:47:04.13	102.32	35.63	-40.6	-43.2	12.8	4.65e-05	0	62	0	1080033280	52	4958
2026-01-26 22:47:08.18	103.95	35.51	-41.0	-43.9	12.2	2.15e-04	0	62	0	1092616192	52	5350
2026-01-26 22:47:12.22	105.57	35.37	-40.5	-43.1	12.9	5.03e-05	0	62	0	1105199104	52	4877
2026-01-26 22:47:16.26	107.17	35.19	-40.5	-43.1	12.9	3.43e-05	0	62	0	1118830592	52	4879
2026-01-26 22:47:20.30	108.76	35.00	-40.7	-43.4	12.6	8.08e-05	0	62	0	1131413504	52	5054
2026-01-26 22:47:24.34	110.32	34.79	-40.6	-43.2	12.9	6.33e-05	0	62	0	1143996416	52	4965
2026-01-26 22:47:28.38	111.87	34.55	-40.8	-43.5	12.5	1.25e-04	0	62	0	1156579328	52	5102
2026-01-26 22:47:32.43	113.40	34.29	-40.2	-42.6	13.4	1.37e-05	0	62	0	1169162240	52	4637
2026-01-26 22:47:36.46	114.89	34.01	-40.5	-43.0	13.1	3.05e-05	0	62	0	1181745152	52	4829
2026-01-26 22:47:40.50	116.36	33.72	-40.4	-42.9	13.1	3.50e-05	0	62	0	1194328064	52	4778
2026-01-26 22:47:44.55	117.81	33.40	-40.3	-42.8	13.2	2.89e-05	0	62	0	1206910976	52	4736
2026-01-26 22:47:48.59	119.23	33.07	-40.2	-42.7	13.3	1.90e-05	0	62	0	1219493888	52	4658
2026-01-26 22:47:52.64	120.62	32.73	-40.0	-42.3	13.8	5.30e-06	0	62	0	1232076800	51	4724
2026-01-26 22:47:56.68	121.98	32.37	-40.1	-42.4	13.7	9.10e-06	0	62	0	1244659712	51	4766
2026-01-26 22:48:00.72	123.31	32.00	-39.9	-42.2	13.9	3.80e-06	0	62	0	1257242624	51	4662
2026-01-26 22:48:04.76	124.61	31.61	-39.8	-42.0	14.0	2.20e-06	0	62	0	1269825536	51	4589
2026-01-26 22:48:08.80	125.88	31.22	-39.9	-42.2	13.9	3.80e-06	0	62	0	1282408448	51	4681
2026-01-26 22:48:12.84	127.12	30.82	-39.7	-41.8	14.2	3.00e-06	0	62	0	1294991360	51	4481
2026-01-26 22:48:16.88	128.33	30.41	-39.9	-42.1	13.9	3.00e-06	0	62	0	1307574272	51	4649
2026-01-26 22:48:20.92	129.51	29.99	-39.6	-41.8	14.3	1.50e-06	0	62	0	1320157184	51	4452
2026-01-26 22:48:24.96	130.66	29.56	-39.4	-41.5	14.5	1.50e-06	0	62	0	1332740096	50	4549
2026-01-26 22:48:29.00	131.78	29.13	-39.4	-41.4	14.6	7.00e-07	0	62	0	1345323008	50	4543
2026-01-26 22:48:33.04	132.87	28.69	-39.9	-42.1	13.9	3.80e-06	0	62	0	1357905920	50	4900
2026-01-26 22:48:37.08	133.94	28.26	-39.7	-41.9	14.1	7.00e-07	0	62	0	1370488832	50	4797
2026-01-26 22:48:41.12	134.97	27.81	-39.5	-41.6	14.4	0.00e+00	0	62	0	1383071744	50	4648
2026-01-26 22:48:45.17	135.98	27.37	-39.4	-41.5	14.6	7.00e-07	0	62	0	1395654656	50	4572
2026-01-26 22:48:49.21	136.96	26.92	-39.5	-41.6	14.5	7.00e-07	0	62	0	1409286144	50	4620
2026-01-26 22:48:53.26	137.91	26.47	-39.6	-41.8	14.2	7.00e-07	0	62	0	1421869056	50	4710
2026-01-26 22:48:57.30	138.84	26.02	-39.5	-41.6	14.4	0.00e+00	0	62	0	1434451968	50	4613
2026-01-26 22:49:01.34	139.74	25.57	-39.3	-41.4	14.6	7.00e-07	0	62	0	1447034880	50	4499
2026-01-26 22:49:05.38	140.62	25.12	-39.3	-41.3	14.7	0.00e+00	0	62	0	1459617792	50	4455
2026-01-26 22:49:09.41	141.47	24.68	-39.3	-41.4	14.6	0.00e+00	0	62	0	1472200704	50	4500
2026-01-26 22:49:13.46	142.30	24.23	-39.2	-41.2	14.7	0.00e+00	0	62	0	1484783616	50	4433
2026-01-26 22:49:17.50	143.11	23.78	-39.4	-41.4	14.5	7.00e-07	0	62	0	1497366528	50	4543
2026-01-26 22:49:21.54	143.89	23.34	-39.3	-41.4	14.6	0.00e+00	0	62	0	1509949440	50	4510
2026-01-26 22:49:25.58	144.66	22.90	-39.6	-41.8	14.2	1.50e-06	0	62	0	1522532352	50	4716
2026-01-26 22:49:29.62	145.40	22.46	-39.6	-41.8	14.1	7.00e-07	0	62	0	1535115264	50	4750
2026-01-26 22:49:33.66	146.12	22.03	-39.6	-41.8	14.1	2.20e-06	0	62	0	1547698176	50	4712
2026-01-26 22:49:37.70	146.83	21.60	-39.8	-42.1	13.9	4.50e-06	0	62	0	1560281088	50	4872
2026-01-26 22:49:41.74	147.51	21.17	-39.9	-42.1	13.8	7.60e-06	0	62	0	1572864000	50	4925
2026-01-26 22:49:45.78	148.18	20.74	-39.8	-42.1	13.9	3.80e-06	0	62	0	1585446912	50	4879
2026-01-26 22:49:49.83	148.83	20.32	-39.9	-42.1	13.8	4.50e-06	0	62	0	1598029824	50	4923
2026-01-26 22:49:53.87	149.46	19.90	-39.7	-41.9	14.0	7.60e-06	0	62	0	1610612736	50	4771
2026-01-26 22:49:57.91	150.07	19.48	-39.6	-41.8	14.1	7.00e-07	0	62	0	1623195648	50	4738
2026-01-26 22:50:01.95	150.67	19.07	-39.5	-41.7	14.2	1.50e-06	0	62	0	1635778560	50	4678
2026-01-26 22:50:05.98	151.26	18.66	-39.5	-41.7	14.2	0.00e+00	0	62	0	1648361472	50	4675
2026-01-26 22:50:10.02	151.82	18.26	-39.6	-41.9	14.0	2.20e-06	0	62	0	1660944384	50	4768
2026-01-26 22:50:14.06	152.38	17.86	-39.7	-42.0	13.9	2.20e-06	0	62	0	1673527296	50	4816
2026-01-26 22:50:18.10	152.92	17.46	-39.8	-42.0	13.8	3.80e-06	0	62	0	1686110208	50	4868
2026-01-26 22:50:22.14	153.45	17.07	-39.9	-42.3	13.5	6.80e-06	0	62	0	1699741696	50	5003
2026-01-26 22:50:26.18	153.96	16.68	-40.0	-42.4	13.4	1.75e-05	0	62	0	1712324608	50	5085
2026-01-26 22:50:30.22	154.46	16.30	-40.0	-42.4	13.4	1.90e-05	0	62	0	1724907520	50	5069
2026-01-26 22:50:34.27	154.95	15.92	-40.1	-42.5	13.2	2.36e-05	0	62	0	1737490432	50	5153
2026-01-26 22:50:38.31	155.43	15.54	-40.2	-42.8	13.0	4.27e-05	0	62	0	1750073344	51	4987
2026-01-26 22:50:42.35	155.90	15.17	-40.2	-42.8	12.9	5.34e-05	0	62	0	1762656256	51	5000
2026-01-26 22:50:46.39	156.35	14.80	-40.4	-43.0	12.8	5.95e-05	0	62	0	1775239168	51	5119
2026-01-26 22:50:50.43	156.80	14.44	-40.2	-42.8	13.0	4.11e-05	0	62	0	1787822080	51	4993
2026-01-26 22:50:54.47	157.23	14.08	-40.2	-42.8	12.9	5.49e-05	0	62	0	1800404992	51	5024
2026-01-26 22:50:58.51	157.65	13.72	-40.3	-42.9	12.8	6.48e-05	0	62	0	1812987904	51	5063
2026-01-26 22:51:02.55	158.07	13.37	-40.5	-43.2	12.4	1.23e-04	0	62	0	1825570816	51	5253
2026-01-26 22:51:06.59	158.47	13.02	-40.5	-43.2	12.2	1.87e-04	0	62	0	1838153728	51	5268
2026-01-26 22:51:10.63	158.87	12.68	-40.5	-43.2	12.3	2.27e-04	0	62	0	1850736640	51	5268
2026-01-26 22:51:14.66	159.25	12.33	-40.4	-43.2	12.3	1.86e-04	0	62	0	1863319552	51	5245
2026-01-26 22:51:18.71	159.63	12.00	-40.4	-43.2	12.3	1.38e-04	0	62	0	1875902464	51	5238
2026-01-26 22:51:22.75	160.00	11.66	-40.5	-43.3	12.2	2.05e-04	0	62	0	1888485376	51	5298
2026-01-26 22:51:26.79	160.37	11.33	-40.5	-43.4	12.0	2.60e-04	0	62	0	1901068288	51	5362
2026-01-26 22:51:30.82	160.72	11.00	-40.6	-43.6	11.7	5.10e-04	0	62	0	1913651200	51	5508
2026-01-26 22:51:34.86	161.07	10.68	-40.7	-43.8	11.4	7.26e-04	0	62	0	1926234112	52	5323
2026-01-26 22:51:38.90	161.41	10.36	-40.8	-44.1	11.1	1.45e-03	0	62	0	1938817024	52	5467
2026-01-26 22:51:42.94	161.74	10.04	-40.8	-44.0	11.1	1.49e-03	0	62	0	1951399936	52	5447
2026-01-26 22:51:46.99	162.07	9.73	-40.7	-43.9	11.1	1.55e-03	0	62	0	1963982848	52	5391
2026-01-26 22:51:51.03	162.39	9.42	-40.8	-44.1	10.9	2.03e-03	0	62	0	1976565760	52	5478
2026-01-26 22:51:55.07	162.70	9.11	-40.8	-44.1	10.9	2.07e-03	0	62	0	1989148672	52	5467
2026-01-26 22:51:59.11	163.01	8.80	-40.6	-43.9	11.0	2.05e-03	0	62	0	2001731584	52	5343
2026-01-26 22:52:03.16	163.31	8.50	-40.7	-44.0	10.9	2.19e-03	0	62	0	2015363072	52	5424
2026-01-26 22:52:07.20	163.60	8.20	-40.7	-44.1	10.7	2.67e-03	0	62	0	2027945984	52	5495
2026-01-26 22:52:11.24	163.89	7.91	-44.7	-57.1	3.8	1.49e+00	0	62	104	2035286016	60	15570
2026-01-26 22:52:15.28	164.18	7.61	-45.0	-57.5	3.8	1.49e+00	0	62	104	2035286016	60	16265
2026-01-26 22:52:19.32	164.46	7.32	-45.1	-57.5	3.8	1.49e+00	0	62	104	2035286016	60	16198
2026-01-26 22:52:23.36	164.73	7.03	-44.9	-57.3	3.8	1.49e+00	0	62	104	2035286016	60	15850
2026-01-26 22:52:27.40	165.00	6.75	-44.9	-57.3	3.8	1.49e+00	0	62	104	2035286016	60	15865
2026-01-26 22:52:31.44	165.26	6.47	-44.9	-57.3	3.8	1.49e+00	0	62	104	2035286016	60	15853
2026-01-26 22:52:35.48	165.52	6.19	-44.9	-57.3	3.8	1.49e+00	0	62	104	2035286016	60	15773
2026-01-26 22:52:39.52	165.77	5.91	-44.9	-57.3	3.8	1.49e+00	0	62	104	2035286016	60	15808
2026-01-26 22:52:43.57	166.02	5.64	-44.9	-57.3	3.8	1.49e+00	0	62	104	2035286016	60	15791
2026-01-26 22:52:47.61	166.27	5.36	-44.9	-57.3	3.8	1.49e+00	0	62	104	2035286016	60	15770
2026-01-26 22:52:51.65	166.51	5.09	-44.9	-57.3	3.8	1.49e+00	0	62	104	2035286016	60	15782
2026-01-26 22:52:55.69	166.74	4.83	-44.9	-57.3	3.8	1.49e+00	0	62	104	2035286016	60	15771
2026-01-26 22:52:59.72	166.98	4.56	-44.9	-57.2	3.8	1.49e+00	0	62	104	2035286016	60	15752
2026-01-26 22:53:03.76	167.20	4.30	-44.9	-57.3	3.8	1.49e+00	0	62	104	2035286016	60	15789
2026-01-26 22:53:07.81	167.43	4.04	-44.9	-57.2	3.8	1.49e+00	0	62	104	2035286016	60	15721
2026-01-26 22:53:11.85	167.65	3.78	-44.9	-57.2	3.8	1.49e+00	0	62	104	2035286016	60	15739
2026-01-26 22:53:15.89	167.87	3.52	-44.9	-57.3	3.8	1.49e+00	0	62	104	2035286016	60	15806
2026-01-26 22:53:19.93	168.08	3.27	-44.9	-57.2	3.8	1.49e+00	0	62	104	2035286016	60	15746
2026-01-26 22:53:23.97	168.29	3.01	-44.9	-57.2	3.8	1.49e+00	0	62	104	2035286016	60	15746
2026-01-26 22:53:28.01	168.50	2.76	-44.9	-57.2	3.8	1.49e+00	0	62	104	2035286016	60	15674
2026-01-26 22:53:32.05	168.70	2.52	-44.8	-57.2	3.8	1.49e+00	0	62	104	2035286016	60	15657
2026-01-26 22:53:36.09	168.90	2.27	-44.8	-57.2	3.8	1.49e+00	0	62	104	2035286016	60	15713
2026-01-26 22:53:40.13	169.10	2.02	-44.8	-57.2	3.8	1.49e+00	0	62	104	2035286016	60	15713

#Closed at: 2026-01-26 22:53:43
#Recorded file [2035 MB]: D:/lorett/data/31039_260127_013951.dat