passes_logs/2026/01/26/R2.0S_Moscow/R2.0S_Moscow__20260126_002540_FENGYUN_3D_rec.log

#Pass ID: 20260126_002540_FENGYUN 3D
#Satellite: FENGYUN 3D
#Configuration: FENGYUN 3D
#almurnet v.1.7.20251203
#Start time: 2026-01-26 00:25:42

#Version: 2.2.20231116
#Station: R2.0S_Moscow
#Location: 37.707566 lon 55.798166 lat
#TLE: 1 43010U 17072A   26025.50461972  .00000046  00000+0  43592-4 0  9990
#TLE: 2 43010  98.9962 357.4844 0002523  89.7890 270.3575 14.19699798424744

#Time	Az	El	Level	Level2	SNR	BER	BlckErr	Temp	State	Recorded	gain1	gain2
2026-01-26 00:25:42.64	24.58	2.12	-42.5	-54.0	3.8	8.46e-01	0	52	0	0	57	12926
2026-01-26 00:25:46.67	24.85	2.35	-42.5	-54.1	3.8	8.45e-01	0	53	104	0	56	13756
2026-01-26 00:25:50.71	25.11	2.58	-42.5	-54.1	3.8	8.45e-01	0	53	104	0	56	13766
2026-01-26 00:25:54.76	25.39	2.81	-42.5	-54.1	3.8	8.46e-01	0	53	104	0	56	13727
2026-01-26 00:25:58.80	25.66	3.04	-42.5	-54.0	3.8	8.47e-01	0	54	104	0	56	13709
2026-01-26 00:26:02.84	25.94	3.28	-42.5	-54.1	3.8	8.46e-01	0	54	104	0	56	13753
2026-01-26 00:26:06.88	26.22	3.51	-42.5	-54.0	3.8	8.46e-01	0	54	104	0	56	13684
2026-01-26 00:26:10.93	26.51	3.75	-42.5	-54.0	3.8	8.47e-01	0	54	104	0	56	13668
2026-01-26 00:26:14.97	26.81	3.99	-42.5	-54.0	3.8	8.46e-01	0	55	104	0	56	13629
2026-01-26 00:26:19.01	27.10	4.23	-42.5	-54.0	3.8	8.46e-01	0	55	104	0	56	13709
2026-01-26 00:26:23.06	27.41	4.47	-42.5	-54.0	3.8	8.45e-01	0	55	104	0	56	13650
2026-01-26 00:26:27.10	27.71	4.72	-42.5	-54.0	3.8	8.48e-01	0	55	104	0	56	13657
2026-01-26 00:26:31.14	28.02	4.96	-42.5	-54.0	3.8	8.46e-01	0	55	104	0	56	13606
2026-01-26 00:26:35.19	28.34	5.21	-42.5	-54.0	3.8	8.47e-01	0	56	104	0	56	13688
2026-01-26 00:26:39.23	28.66	5.46	-42.5	-54.0	3.8	8.48e-01	0	56	104	0	56	13713
2026-01-26 00:26:43.27	28.99	5.71	-42.5	-54.0	3.8	8.46e-01	0	56	104	0	56	13637
2026-01-26 00:26:47.31	29.32	5.96	-42.5	-54.0	3.8	8.46e-01	0	56	104	0	56	13681
2026-01-26 00:26:51.36	29.66	6.22	-42.5	-54.0	3.8	8.47e-01	0	56	104	0	56	13640
2026-01-26 00:26:55.40	30.00	6.47	-42.4	-53.5	3.8	8.46e-01	0	57	104	0	56	12847
2026-01-26 00:26:59.44	30.35	6.73	-42.3	-52.3	3.8	8.45e-01	0	57	104	0	56	11207
2026-01-26 00:27:03.48	30.71	6.99	-42.0	-50.6	4.2	8.37e-01	0	57	0	0	56	9178
2026-01-26 00:27:07.53	31.07	7.25	-42.2	-51.9	3.8	8.45e-01	0	57	104	0	56	10749
2026-01-26 00:27:11.57	31.43	7.51	-41.6	-48.9	4.7	8.12e-01	0	57	0	0	55	8078
2026-01-26 00:27:15.61	31.81	7.77	-39.5	-42.9	9.7	1.67e-02	0	57	0	12582912	51	5079
2026-01-26 00:27:19.65	32.19	8.04	-39.1	-42.2	10.5	2.81e-03	0	58	0	35651584	48	5584
2026-01-26 00:27:23.69	32.57	8.31	-40.3	-43.8	9.8	8.28e-03	0	58	0	51380224	51	5598
2026-01-26 00:27:27.73	32.97	8.58	-39.0	-41.7	11.7	7.55e-04	0	58	0	73400320	50	4696
2026-01-26 00:27:31.78	33.37	8.85	-39.0	-41.6	12.0	4.32e-04	0	58	0	96468992	49	4898
2026-01-26 00:27:35.82	33.78	9.12	-38.8	-41.4	12.3	2.70e-04	0	58	0	118489088	49	4760
2026-01-26 00:27:39.87	34.19	9.40	-38.6	-41.0	12.9	9.38e-05	0	58	0	141557760	49	4563
2026-01-26 00:27:43.91	34.61	9.67	-38.8	-41.1	12.9	6.29e-05	0	58	0	164626432	49	4641
2026-01-26 00:27:47.95	35.04	9.95	-38.6	-40.8	13.4	1.94e-05	0	59	0	187695104	49	4474
2026-01-26 00:27:52.00	35.48	10.23	-38.5	-40.7	13.7	1.25e-05	0	59	0	209715200	48	4652
2026-01-26 00:27:56.04	35.93	10.51	-38.3	-40.4	14.0	3.40e-06	0	58	0	232783872	48	4527
2026-01-26 00:28:00.08	36.38	10.80	-38.4	-40.5	14.0	5.70e-06	0	59	0	255852544	48	4556
2026-01-26 00:28:04.12	36.85	11.08	-38.4	-40.4	14.1	5.70e-06	0	59	0	277872640	48	4524
2026-01-26 00:28:08.16	37.32	11.37	-38.2	-40.2	14.4	2.20e-06	0	59	0	300941312	48	4392
2026-01-26 00:28:12.20	37.80	11.66	-38.2	-40.1	14.5	1.10e-06	0	59	0	324009984	48	4377
2026-01-26 00:28:16.24	38.29	11.95	-38.3	-40.2	14.4	0.00e+00	0	59	0	346030080	48	4430
2026-01-26 00:28:20.28	38.79	12.24	-38.3	-40.2	14.5	5.70e-06	0	59	0	369098752	48	4428
2026-01-26 00:28:24.33	39.30	12.53	-38.2	-40.1	14.6	0.00e+00	0	59	0	392167424	48	4358
2026-01-26 00:28:28.37	39.82	12.83	-38.1	-40.1	14.7	0.00e+00	0	59	0	414187520	48	4345
2026-01-26 00:28:32.41	40.35	13.13	-38.1	-40.0	14.8	2.20e-06	0	59	0	437256192	48	4298
2026-01-26 00:28:36.45	40.89	13.42	-38.1	-39.9	14.9	0.00e+00	0	59	0	460324864	48	4285
2026-01-26 00:28:40.49	41.44	13.72	-38.1	-40.0	14.8	0.00e+00	0	59	0	483393536	48	4305
2026-01-26 00:28:44.54	42.00	14.02	-37.9	-39.7	15.0	0.00e+00	0	60	0	505413632	47	4428
2026-01-26 00:28:48.58	42.58	14.33	-37.5	-39.3	15.4	0.00e+00	0	59	0	528482304	47	4229
2026-01-26 00:28:52.62	43.16	14.63	-37.4	-39.1	15.7	0.00e+00	0	60	0	550502400	46	4372
2026-01-26 00:28:56.66	43.76	14.93	-37.5	-39.2	15.5	0.00e+00	0	60	0	573571072	46	4423
2026-01-26 00:29:00.71	44.37	15.24	-37.5	-39.3	15.6	0.00e+00	0	60	0	596639744	46	4445
2026-01-26 00:29:04.75	44.99	15.54	-37.6	-39.4	15.5	0.00e+00	0	60	0	619708416	46	4499
2026-01-26 00:29:08.79	45.62	15.85	-37.7	-39.5	15.4	0.00e+00	0	60	0	641728512	46	4550
2026-01-26 00:29:12.83	46.26	16.16	-37.5	-39.2	15.7	0.00e+00	0	60	0	664797184	46	4403
2026-01-26 00:29:16.87	46.92	16.47	-37.4	-39.1	15.8	0.00e+00	0	60	0	687865856	46	4346
2026-01-26 00:29:20.92	47.59	16.77	-37.3	-39.0	15.9	0.00e+00	0	60	0	709885952	46	4323
2026-01-26 00:29:24.96	48.28	17.08	-37.3	-38.9	16.0	0.00e+00	0	60	0	732954624	46	4274
2026-01-26 00:29:29.00	48.98	17.39	-37.0	-38.6	16.3	0.00e+00	0	60	0	756023296	46	4141
2026-01-26 00:29:33.05	49.69	17.70	-37.1	-38.8	16.2	0.00e+00	0	60	0	778043392	46	4211
2026-01-26 00:29:37.09	50.42	18.01	-37.1	-38.7	16.2	0.00e+00	0	60	0	801112064	46	4174
2026-01-26 00:29:41.13	51.16	18.31	-37.0	-38.6	16.4	0.00e+00	0	60	0	824180736	46	4115
2026-01-26 00:29:45.18	51.92	18.62	-36.8	-38.4	16.6	0.00e+00	0	60	0	846200832	45	4267
2026-01-26 00:29:49.22	52.69	18.92	-36.7	-38.2	16.8	0.00e+00	0	60	0	869269504	45	4162
2026-01-26 00:29:53.26	53.48	19.23	-36.7	-38.2	16.8	0.00e+00	0	60	0	892338176	45	4162
2026-01-26 00:29:57.30	54.28	19.53	-36.7	-38.2	16.8	0.00e+00	0	60	0	915406848	45	4165
2026-01-26 00:30:01.35	55.10	19.83	-36.7	-38.3	16.7	0.00e+00	0	60	0	937426944	45	4210
2026-01-26 00:30:05.39	55.93	20.13	-36.8	-38.3	16.7	0.00e+00	0	60	0	960495616	45	4225
2026-01-26 00:30:09.43	56.78	20.42	-36.6	-38.1	16.9	0.00e+00	0	61	0	982515712	45	4144
2026-01-26 00:30:13.47	57.65	20.72	-36.6	-38.1	16.9	0.00e+00	0	60	0	1005584384	45	4122
2026-01-26 00:30:17.51	58.53	21.01	-36.6	-38.1	17.0	0.00e+00	0	61	0	1028653056	45	4102
2026-01-26 00:30:21.55	59.43	21.29	-36.4	-38.1	16.7	0.00e+00	0	61	0	1051721728	44	4347
2026-01-26 00:30:25.59	60.34	21.57	-36.3	-37.9	16.8	0.00e+00	0	61	0	1073741824	44	4289
2026-01-26 00:30:29.63	61.27	21.85	-35.9	-37.4	17.2	0.00e+00	0	61	0	1096810496	43	4266
2026-01-26 00:30:33.68	62.22	22.12	-36.2	-37.9	16.7	0.00e+00	0	60	0	1119879168	43	4507
2026-01-26 00:30:37.72	63.19	22.39	-35.9	-37.5	17.0	0.00e+00	0	61	0	1141899264	43	4339
2026-01-26 00:30:41.76	64.17	22.65	-35.9	-37.5	17.1	0.00e+00	0	61	0	1164967936	43	4314
2026-01-26 00:30:45.80	65.16	22.91	-36.0	-37.6	17.0	0.00e+00	0	61	0	1188036608	43	4350
2026-01-26 00:30:49.85	66.18	23.16	-35.8	-37.4	17.2	0.00e+00	0	61	0	1210056704	43	4264
2026-01-26 00:30:53.89	67.21	23.40	-35.9	-37.5	17.1	0.00e+00	0	61	0	1233125376	43	4304
2026-01-26 00:30:57.93	68.25	23.64	-35.8	-37.4	17.2	0.00e+00	0	61	0	1256194048	43	4271
2026-01-26 00:31:01.97	69.31	23.87	-35.7	-37.2	17.4	0.00e+00	0	61	0	1278214144	43	4173
2026-01-26 00:31:06.01	70.38	24.09	-35.7	-37.3	17.3	0.00e+00	0	61	0	1301282816	43	4212
2026-01-26 00:31:10.05	71.47	24.30	-35.7	-37.2	17.4	0.00e+00	0	61	0	1324351488	43	4165
2026-01-26 00:31:14.10	72.58	24.50	-35.6	-37.1	17.5	0.00e+00	0	61	0	1347420160	43	4136
2026-01-26 00:31:18.14	73.70	24.69	-35.5	-37.0	17.6	0.00e+00	0	61	0	1369440256	43	4088
2026-01-26 00:31:22.18	74.83	24.87	-35.4	-36.9	17.6	0.00e+00	0	61	0	1392508928	42	4277
2026-01-26 00:31:26.22	75.97	25.05	-35.4	-36.9	17.7	0.00e+00	0	61	0	1414529024	42	4274
2026-01-26 00:31:30.27	77.13	25.21	-35.4	-36.9	17.7	0.00e+00	0	61	0	1437597696	42	4278
2026-01-26 00:31:34.31	78.29	25.36	-35.4	-36.9	17.7	0.00e+00	0	61	0	1460666368	42	4287
2026-01-26 00:31:38.34	79.47	25.50	-35.3	-36.7	17.9	0.00e+00	0	61	0	1483735040	42	4178
2026-01-26 00:31:42.39	80.66	25.62	-35.2	-36.7	17.9	0.00e+00	0	61	0	1505755136	42	4160
2026-01-26 00:31:46.43	81.85	25.74	-35.4	-36.8	17.7	0.00e+00	0	61	0	1528823808	42	4241
2026-01-26 00:31:50.47	83.06	25.84	-35.2	-36.7	17.9	0.00e+00	0	61	0	1551892480	42	4154
2026-01-26 00:31:54.51	84.27	25.92	-35.4	-37.0	17.6	0.00e+00	0	61	0	1573912576	42	4301
2026-01-26 00:31:58.55	85.49	26.00	-35.5	-37.0	17.6	0.00e+00	0	61	0	1596981248	42	4328
2026-01-26 00:32:02.58	86.70	26.06	-35.3	-36.8	17.8	0.00e+00	0	61	0	1619001344	42	4217
2026-01-26 00:32:06.62	87.93	26.11	-35.3	-36.7	17.9	0.00e+00	0	61	0	1642070016	42	4187
2026-01-26 00:32:10.66	89.16	26.14	-35.3	-36.8	17.9	0.00e+00	0	61	0	1665138688	42	4215
2026-01-26 00:32:14.70	90.39	26.16	-35.3	-36.7	17.9	0.00e+00	0	61	0	1688207360	42	4190
2026-01-26 00:32:18.74	91.63	26.17	-35.2	-36.6	18.1	0.00e+00	0	61	0	1710227456	42	4143
2026-01-26 00:32:22.79	92.86	26.16	-35.3	-36.7	18.0	0.00e+00	0	61	0	1733296128	42	4175
2026-01-26 00:32:26.83	94.10	26.14	-35.2	-36.6	18.2	0.00e+00	0	61	0	1756364800	42	4107
2026-01-26 00:32:30.87	95.33	26.11	-35.4	-36.8	17.9	0.00e+00	0	61	0	1778384896	42	4242
2026-01-26 00:32:34.91	96.56	26.06	-35.5	-37.0	17.7	0.00e+00	0	61	0	1801453568	42	4306
2026-01-26 00:32:38.95	97.78	26.00	-35.4	-36.8	17.9	0.00e+00	0	61	0	1824522240	42	4231
2026-01-26 00:32:42.99	99.00	25.92	-35.3	-36.7	18.0	0.00e+00	0	61	0	1846542336	42	4181
2026-01-26 00:32:47.03	100.21	25.83	-35.4	-36.9	17.9	0.00e+00	0	61	0	1869611008	42	4243
2026-01-26 00:32:51.07	101.41	25.73	-35.5	-37.1	17.7	0.00e+00	0	61	0	1892679680	42	4349
2026-01-26 00:32:55.11	102.61	25.61	-35.6	-37.1	17.7	0.00e+00	0	61	0	1914699776	42	4374
2026-01-26 00:32:59.15	103.80	25.49	-35.5	-37.0	17.7	0.00e+00	0	61	0	1937768448	42	4314
2026-01-26 00:33:03.19	104.98	25.35	-35.7	-37.2	17.5	0.00e+00	0	61	0	1960837120	42	4439
2026-01-26 00:33:07.23	106.15	25.20	-35.5	-37.0	17.7	0.00e+00	0	61	0	1982857216	42	4319
2026-01-26 00:33:11.27	107.30	25.03	-35.4	-36.8	17.9	0.00e+00	0	61	0	2005925888	42	4236
2026-01-26 00:33:15.31	108.45	24.86	-35.6	-37.1	17.7	0.00e+00	0	61	0	2028994560	42	4373
2026-01-26 00:33:19.35	109.58	24.68	-35.8	-37.3	17.5	0.00e+00	0	61	0	2051014656	42	4486
2026-01-26 00:33:23.39	110.70	24.48	-35.7	-37.2	17.5	0.00e+00	0	61	0	2074083328	42	4435
2026-01-26 00:33:27.44	111.81	24.28	-35.8	-37.3	17.5	0.00e+00	0	62	0	2097152000	42	4476
2026-01-26 00:33:31.48	112.90	24.07	-35.8	-37.4	17.4	0.00e+00	0	61	0	2119172096	42	4503
2026-01-26 00:33:35.53	113.98	23.85	-35.8	-37.3	17.4	0.00e+00	0	61	0	2142240768	42	4460
2026-01-26 00:33:39.57	115.04	23.62	-35.9	-37.5	17.3	0.00e+00	0	62	0	2165309440	42	4556
2026-01-26 00:33:43.61	116.09	23.38	-36.0	-37.6	17.2	0.00e+00	0	62	0	2188378112	42	4625
2026-01-26 00:33:47.65	117.12	23.13	-35.7	-37.2	17.5	0.00e+00	0	61	0	2210398208	42	4423
2026-01-26 00:33:51.69	118.13	22.88	-35.9	-37.5	17.3	0.00e+00	0	62	0	2233466880	42	4563
2026-01-26 00:33:55.74	119.14	22.62	-36.1	-37.7	17.0	0.00e+00	0	62	0	2255486976	42	4689
2026-01-26 00:33:59.77	120.12	22.36	-36.1	-37.7	17.0	0.00e+00	0	62	0	2278555648	42	4681
2026-01-26 00:34:03.82	121.09	22.09	-36.0	-37.6	17.1	0.00e+00	0	62	0	2301624320	42	4647
2026-01-26 00:34:07.86	122.04	21.81	-36.0	-37.6	17.2	0.00e+00	0	61	0	2324692992	43	4361
2026-01-26 00:34:11.89	122.97	21.53	-35.9	-37.5	17.3	0.00e+00	0	62	0	2346713088	43	4294
2026-01-26 00:34:15.92	123.88	21.25	-36.3	-38.0	16.7	0.00e+00	0	62	0	2369781760	43	4561
2026-01-26 00:34:19.97	124.78	20.96	-36.3	-37.9	16.8	0.00e+00	0	62	0	2392850432	43	4541
2026-01-26 00:34:24.02	125.67	20.67	-36.4	-38.1	16.6	0.00e+00	0	61	0	2414870528	43	4605
2026-01-26 00:34:28.06	126.54	20.37	-36.9	-38.6	16.2	0.00e+00	0	62	0	2437939200	44	4644
2026-01-26 00:34:32.10	127.39	20.08	-36.6	-38.2	16.6	0.00e+00	0	62	0	2461007872	44	4432
2026-01-26 00:34:36.13	128.22	19.78	-36.4	-38.1	16.7	0.00e+00	0	61	0	2483027968	44	4355
2026-01-26 00:34:40.17	129.04	19.47	-36.8	-38.6	16.2	0.00e+00	0	62	0	2506096640	44	4612
2026-01-26 00:34:44.21	129.85	19.17	-36.8	-38.5	16.1	0.00e+00	0	62	0	2529165312	44	4577
2026-01-26 00:34:48.26	130.64	18.86	-36.9	-38.7	16.0	2.40e-05	0	61	0	2551185408	44	4684
2026-01-26 00:34:52.30	131.41	18.55	-36.9	-38.7	16.1	2.28e-05	0	62	0	2574254080	44	4673
2026-01-26 00:34:56.34	132.17	18.25	-37.0	-38.8	15.9	4.69e-05	0	62	0	2596274176	44	4755
2026-01-26 00:35:00.38	132.91	17.94	-37.2	-39.0	15.7	8.01e-05	0	62	0	2619342848	44	4861
2026-01-26 00:35:04.42	133.64	17.63	-37.3	-39.1	15.5	2.16e-04	0	62	0	2642411520	45	4638
2026-01-26 00:35:08.47	134.36	17.32	-37.1	-39.0	15.5	4.29e-04	0	62	0	2665480192	45	4551
2026-01-26 00:35:12.50	135.06	17.01	-37.1	-38.9	15.7	3.39e-04	0	62	0	2687500288	44	4807
2026-01-26 00:35:16.55	135.74	16.69	-37.4	-39.3	15.3	1.89e-04	0	62	0	2710568960	45	4726
2026-01-26 00:35:20.59	136.42	16.38	-37.3	-39.1	15.5	2.17e-04	0	62	0	2733637632	45	4631
2026-01-26 00:35:24.63	137.07	16.07	-37.3	-39.2	15.4	5.83e-05	0	62	0	2755657728	45	4697
2026-01-26 00:35:28.67	137.72	15.76	-37.3	-39.3	15.4	1.02e-05	0	62	0	2778726400	45	4707
2026-01-26 00:35:32.71	138.35	15.45	-37.4	-39.3	15.3	5.70e-06	0	62	0	2801795072	45	4729
2026-01-26 00:35:36.75	138.97	15.14	-37.6	-39.5	15.1	0.00e+00	0	62	0	2823815168	45	4847
2026-01-26 00:35:40.79	139.58	14.84	-37.7	-39.6	15.0	0.00e+00	0	62	0	2846883840	45	4916
2026-01-26 00:35:44.83	140.18	14.53	-37.7	-39.7	14.9	0.00e+00	0	62	0	2869952512	45	4931
2026-01-26 00:35:48.87	140.76	14.22	-37.9	-39.9	14.6	0.00e+00	0	62	0	2891972608	46	4810
2026-01-26 00:35:52.92	141.34	13.92	-37.9	-40.0	14.6	0.00e+00	0	62	0	2915041280	46	4821
2026-01-26 00:35:56.96	141.90	13.62	-38.0	-40.1	14.5	1.10e-06	0	62	0	2938109952	46	4889
2026-01-26 00:36:01.00	142.45	13.31	-37.8	-39.9	14.7	0.00e+00	0	62	0	2961178624	46	4761
2026-01-26 00:36:05.04	142.99	13.01	-37.7	-39.7	14.8	0.00e+00	0	62	0	2983198720	46	4693
2026-01-26 00:36:09.09	143.52	12.71	-37.9	-40.0	14.5	1.10e-06	0	62	0	3006267392	46	4847
2026-01-26 00:36:13.13	144.04	12.42	-38.0	-40.1	14.3	0.00e+00	0	62	0	3028287488	46	4917
2026-01-26 00:36:17.18	144.55	12.12	-37.9	-40.0	14.4	1.10e-06	0	62	0	3051356160	46	4840
2026-01-26 00:36:21.21	145.04	11.83	-38.0	-40.1	14.3	0.00e+00	0	62	0	3074424832	46	4909
2026-01-26 00:36:25.25	145.53	11.53	-38.2	-40.4	14.0	1.10e-06	0	62	0	3097493504	46	5049
2026-01-26 00:36:29.30	146.02	11.24	-38.3	-40.6	13.7	2.20e-06	0	62	0	3119513600	47	4902
2026-01-26 00:36:33.34	146.49	10.95	-38.4	-40.7	13.6	1.10e-06	0	62	0	3142582272	47	4930
2026-01-26 00:36:37.38	146.95	10.66	-38.3	-40.6	13.6	4.50e-06	0	62	0	3165650944	47	4915
2026-01-26 00:36:41.42	147.40	10.38	-38.4	-40.8	13.4	3.40e-06	0	62	0	3187671040	47	4994
2026-01-26 00:36:45.46	147.85	10.09	-38.6	-41.0	13.1	1.14e-05	0	62	0	3210739712	47	5144
2026-01-26 00:36:49.50	148.28	9.81	-38.6	-41.1	13.0	3.08e-05	0	62	0	3233808384	47	5191
2026-01-26 00:36:53.54	148.71	9.53	-38.7	-41.2	12.8	4.46e-05	0	62	0	3255828480	47	5262
2026-01-26 00:36:57.58	149.13	9.25	-38.8	-41.3	12.8	3.89e-05	0	62	0	3278897152	48	5028
2026-01-26 00:37:01.62	149.55	8.98	-38.9	-41.5	12.6	7.78e-05	0	62	0	3301965824	48	5114
2026-01-26 00:37:05.66	149.95	8.70	-39.0	-41.6	12.4	9.49e-05	0	62	0	3323985920	48	5175
2026-01-26 00:37:09.71	150.35	8.43	-38.9	-41.4	12.5	8.46e-05	0	62	0	3347054592	48	5089
2026-01-26 00:37:13.75	150.74	8.15	-38.9	-41.5	12.4	1.04e-04	0	62	0	3370123264	48	5133
2026-01-26 00:37:17.79	151.13	7.88	-44.5	-56.0	3.8	8.47e-01	0	62	104	3386900480	59	14416
2026-01-26 00:37:21.84	151.50	7.62	-45.4	-57.2	3.8	8.47e-01	0	62	104	3386900480	61	14874
2026-01-26 00:37:25.88	151.88	7.35	-45.6	-57.4	3.8	8.47e-01	0	62	104	3386900480	61	15134
2026-01-26 00:37:29.92	152.24	7.09	-45.4	-57.1	3.8	8.45e-01	0	62	104	3386900480	61	14675
2026-01-26 00:37:33.96	152.60	6.82	-45.2	-56.9	3.8	8.48e-01	0	62	104	3386900480	61	14315
2026-01-26 00:37:38.00	152.95	6.56	-45.2	-56.9	3.8	8.46e-01	0	62	104	3386900480	61	14320
2026-01-26 00:37:42.05	153.30	6.30	-45.2	-56.9	3.8	8.46e-01	0	62	104	3386900480	61	14311
2026-01-26 00:37:46.09	153.64	6.05	-45.2	-56.9	3.8	8.45e-01	0	62	104	3386900480	61	14292
2026-01-26 00:37:50.13	153.97	5.79	-45.1	-56.9	3.8	8.45e-01	0	62	104	3386900480	61	14239
2026-01-26 00:37:54.17	154.30	5.54	-45.1	-56.9	3.8	8.47e-01	0	62	104	3386900480	61	14241
2026-01-26 00:37:58.22	154.62	5.28	-45.1	-56.8	3.8	8.46e-01	0	62	104	3386900480	61	14179
2026-01-26 00:38:02.26	154.94	5.03	-45.1	-56.9	3.8	8.46e-01	0	62	104	3386900480	61	14218
2026-01-26 00:38:06.29	155.26	4.78	-45.1	-56.8	3.8	8.46e-01	0	62	104	3386900480	61	14157
2026-01-26 00:38:10.33	155.56	4.54	-45.1	-56.8	3.8	8.45e-01	0	62	104	3386900480	61	14138
2026-01-26 00:38:14.37	155.87	4.29	-45.1	-56.8	3.8	8.46e-01	0	62	104	3386900480	61	14067
2026-01-26 00:38:18.41	156.16	4.05	-45.1	-56.8	3.8	8.45e-01	0	62	104	3386900480	61	14135
2026-01-26 00:38:22.46	156.46	3.80	-45.1	-56.8	3.8	8.47e-01	0	62	104	3386900480	61	14108
2026-01-26 00:38:26.50	156.75	3.56	-45.1	-56.7	3.8	8.46e-01	0	62	104	3386900480	61	13986
2026-01-26 00:38:30.54	157.03	3.32	-45.0	-56.8	3.8	8.46e-01	0	62	104	3386900480	61	14108
2026-01-26 00:38:34.58	157.31	3.09	-45.0	-56.8	3.8	8.46e-01	0	62	104	3386900480	61	14060
2026-01-26 00:38:38.62	157.59	2.85	-45.0	-56.7	3.8	8.47e-01	0	62	104	3386900480	61	13973
2026-01-26 00:38:42.66	157.86	2.61	-45.0	-56.7	3.8	8.46e-01	0	62	104	3386900480	61	13994
2026-01-26 00:38:46.71	158.13	2.38	-45.0	-56.7	3.8	8.46e-01	0	62	104	3386900480	61	13970
2026-01-26 00:38:50.75	158.39	2.15	-45.0	-56.7	3.8	8.45e-01	0	62	104	3386900480	61	13930

#Closed at: 2026-01-26 00:38:53
#Recorded file [3386 MB]: D:/lorett/data/31039_260126_032542.dat