passes_logs/2026/01/26/R2.0S_Moscow/R2.0S_Moscow__20260126_091911_SUOMI_NPP_rec.log

#Pass ID: 20260126_091911_SUOMI NPP
#Satellite: SUOMI NPP
#Configuration: NPP
#almurnet v.1.7.20251203
#Start time: 2026-01-26 09:19:12

#Version: 2.2.20231116
#Station: R2.0S_Moscow
#Location: 37.707566 lon 55.798166 lat
#TLE: 1 37849U 11061A   26025.81780576  .00000180  00000+0  10635-3 0  9993
#TLE: 2 37849  98.7822 327.7738 0002159  45.0809 315.0541 14.19529973738242

#Time	Az	El	Level	Level2	SNR	BER	BlckErr	Temp	State	Recorded	gain1	gain2
2026-01-26 09:19:12.18	140.83	2.04	-40.5	-56.7	4.2	1.49e+00	0	52	0	0	52	23455
2026-01-26 09:19:16.22	140.71	2.30	-34.7	-56.3	3.7	1.50e+00	0	53	104	0	45	33381
2026-01-26 09:19:20.26	140.60	2.56	-41.3	-55.6	3.7	1.50e+00	0	53	104	0	38	46409
2026-01-26 09:19:24.30	140.48	2.82	-32.1	-53.1	3.9	1.49e+00	0	53	104	0	33	46074
2026-01-26 09:19:28.34	140.37	3.08	-30.7	-54.8	3.6	1.50e+00	0	54	104	0	45	28068
2026-01-26 09:19:32.38	140.25	3.35	-35.7	-50.8	4.0	1.51e+00	0	54	104	0	30	42301
2026-01-26 09:19:36.42	140.12	3.62	-27.4	-43.1	3.8	1.51e+00	0	54	104	0	25	23175
2026-01-26 09:19:40.47	140.00	3.89	-28.0	-51.9	3.9	1.51e+00	0	54	104	0	32	42620
2026-01-26 09:19:44.51	139.87	4.16	-26.5	-42.3	4.0	1.52e+00	0	55	104	0	26	19955
2026-01-26 09:19:48.55	139.74	4.44	-30.0	-47.2	4.0	1.52e+00	0	55	104	0	29	29492
2026-01-26 09:19:52.59	139.61	4.71	-33.2	-48.8	4.0	1.50e+00	0	55	104	0	41	17687
2026-01-26 09:19:56.63	139.47	5.00	-36.6	-54.0	4.5	1.50e+00	0	55	104	0	50	19342
2026-01-26 09:20:00.68	139.33	5.28	-29.5	-44.2	3.8	1.52e+00	0	56	0	0	29	20969
2026-01-26 09:20:04.72	139.19	5.57	-33.9	-51.5	4.2	1.51e+00	0	56	104	0	42	22806
2026-01-26 09:20:08.76	139.04	5.86	-30.1	-48.1	5.0	1.51e+00	0	56	104	0	38	19459
2026-01-26 09:20:12.80	138.90	6.15	-35.7	-51.2	4.4	1.52e+00	0	56	0	0	39	26219
2026-01-26 09:20:16.84	138.75	6.45	-42.3	-56.7	3.8	1.51e+00	0	56	104	0	51	24719
2026-01-26 09:20:20.89	138.59	6.75	-32.8	-50.1	4.4	1.51e+00	0	57	104	0	41	20597
2026-01-26 09:20:24.93	138.43	7.05	-33.3	-55.0	4.1	1.50e+00	0	57	104	0	51	20316
2026-01-26 09:20:28.97	138.27	7.36	-39.7	-56.0	4.1	1.50e+00	0	57	104	0	50	24378
2026-01-26 09:20:33.01	138.11	7.67	-32.4	-54.4	3.7	1.50e+00	0	57	104	0	38	40370
2026-01-26 09:20:37.06	137.94	7.98	-39.0	-54.9	4.1	1.50e+00	0	57	104	0	45	28676
2026-01-26 09:20:41.10	137.77	8.30	-34.8	-54.7	3.4	1.50e+00	0	57	104	0	44	29625
2026-01-26 09:20:45.14	137.59	8.62	-33.8	-52.1	4.3	1.51e+00	0	58	104	0	34	38712
2026-01-26 09:20:49.18	137.41	8.94	-38.5	-54.1	4.5	1.50e+00	0	58	104	0	38	38736
2026-01-26 09:20:53.22	137.22	9.27	-33.7	-52.3	3.6	1.50e+00	0	58	104	0	42	25075
2026-01-26 09:20:57.26	137.03	9.61	-39.3	-55.9	4.2	1.50e+00	0	58	104	0	46	30187
2026-01-26 09:21:01.30	136.84	9.94	-35.8	-55.8	4.1	1.50e+00	0	58	104	0	44	33388
2026-01-26 09:21:05.34	136.64	10.28	-25.0	-39.7	3.8	1.52e+00	0	58	104	0	24	16552
2026-01-26 09:21:09.38	136.44	10.63	-33.3	-46.4	5.3	1.47e+00	0	58	104	0	40	14322
2026-01-26 09:21:13.42	136.23	10.98	-29.8	-44.2	6.0	1.08e+00	0	58	0	2097152	41	10478
2026-01-26 09:21:17.46	136.01	11.34	-36.1	-47.7	6.9	5.32e-01	0	58	0	7340032	49	9879
2026-01-26 09:21:21.51	135.79	11.70	-36.7	-47.5	4.1	7.51e-01	0	59	104	12582912	40	16272
2026-01-26 09:21:25.55	135.57	12.06	-37.1	-46.4	8.2	1.24e+00	0	59	0	12582912	49	8529
2026-01-26 09:21:29.59	135.33	12.43	-25.0	-40.3	4.9	1.43e+00	0	59	104	13631488	32	11180
2026-01-26 09:21:33.64	135.10	12.81	-37.3	-45.7	7.7	4.25e-01	0	59	0	18874368	46	9342
2026-01-26 09:21:37.68	134.85	13.19	-34.8	-47.9	4.3	1.40e+00	0	59	104	23068672	42	15161
2026-01-26 09:21:41.72	134.60	13.57	-41.5	-50.4	6.3	1.44e+00	0	59	104	23068672	52	11310
2026-01-26 09:21:45.76	134.34	13.97	-37.2	-42.6	5.6	6.13e-01	0	59	0	23068672	27	19468
2026-01-26 09:21:49.79	134.08	14.36	-39.9	-45.9	5.3	9.08e-01	0	59	104	29360128	49	8036
2026-01-26 09:21:53.84	133.80	14.77	-29.2	-45.1	4.9	1.32e+00	0	59	104	29360128	36	15543
2026-01-26 09:21:57.88	133.52	15.18	-40.6	-52.4	4.5	3.24e-01	0	60	0	30408704	46	20075
2026-01-26 09:22:01.92	133.24	15.59	-39.5	-46.4	8.8	6.06e-01	0	60	0	30408704	50	8083
2026-01-26 09:22:05.96	132.94	16.01	-29.8	-46.9	4.1	1.46e+00	0	60	104	35651584	32	24100
2026-01-26 09:22:10.00	132.63	16.44	-32.5	-46.4	4.2	1.25e+00	0	60	104	35651584	30	25346
2026-01-26 09:22:14.04	132.32	16.88	-27.0	-42.4	3.9	1.51e+00	0	60	104	35651584	26	20235
2026-01-26 09:22:18.08	131.99	17.32	-41.9	-54.1	4.2	1.23e+00	0	60	0	35651584	54	15410
2026-01-26 09:22:22.13	131.66	17.77	-39.1	-43.6	11.9	2.95e-01	0	60	0	38797312	50	5840
2026-01-26 09:22:26.17	131.31	18.23	-36.7	-46.0	7.2	2.58e-01	0	60	0	47185920	45	10199
2026-01-26 09:22:30.21	130.96	18.69	-40.8	-45.7	9.7	6.05e-03	0	60	0	54525952	50	7382
2026-01-26 09:22:34.25	130.59	19.17	-41.7	-45.6	11.3	7.37e-03	0	60	0	61865984	53	6202
2026-01-26 09:22:38.29	130.21	19.65	-39.4	-46.4	10.8	2.56e-03	0	60	0	69206016	52	7178
2026-01-26 09:22:42.32	129.82	20.13	-42.0	-45.8	12.3	1.95e-04	0	60	0	77594624	54	5976
2026-01-26 09:22:46.36	129.41	20.63	-42.5	-47.1	10.9	2.16e-03	0	60	0	84934656	55	6550
2026-01-26 09:22:50.40	128.99	21.13	-42.0	-46.0	12.2	2.98e-04	0	60	0	92274688	55	5730
2026-01-26 09:22:54.44	128.56	21.65	-42.1	-46.1	12.1	3.80e-04	0	60	0	99614720	55	5789
2026-01-26 09:22:58.48	128.11	22.17	-41.9	-45.6	12.6	6.25e-05	0	60	0	106954752	55	5473
2026-01-26 09:23:02.52	127.65	22.70	-42.5	-47.0	11.3	9.73e-04	0	60	0	115343360	55	6434
2026-01-26 09:23:06.56	127.17	23.24	-42.3	-46.6	11.6	5.31e-04	0	60	0	122683392	55	6154
2026-01-26 09:23:10.59	126.67	23.79	-42.9	-47.6	10.8	3.74e-03	0	60	0	130023424	56	6534
2026-01-26 09:23:14.63	126.16	24.35	-42.4	-46.4	12.0	3.49e-04	0	60	0	137363456	56	5676
2026-01-26 09:23:18.68	125.62	24.92	-42.9	-47.5	11.0	2.12e-03	0	61	0	145752064	56	6432
2026-01-26 09:23:22.71	125.07	25.49	-42.7	-47.0	11.4	1.02e-03	0	61	0	153092096	56	6089
2026-01-26 09:23:26.75	124.49	26.08	-42.5	-46.5	11.9	5.32e-04	0	61	0	160432128	56	5788
2026-01-26 09:23:30.79	123.89	26.68	-42.4	-46.3	12.1	2.01e-04	0	61	0	167772160	56	5652
2026-01-26 09:23:34.83	123.27	27.28	-42.5	-46.6	11.9	4.87e-04	0	61	0	175112192	56	5796
2026-01-26 09:23:38.86	122.62	27.90	-42.5	-46.5	12.0	4.29e-04	0	61	0	183500800	56	5769
2026-01-26 09:23:42.90	121.95	28.52	-42.6	-46.8	11.6	4.47e-04	0	61	0	190840832	56	5985
2026-01-26 09:23:46.94	121.25	29.16	-43.0	-47.6	10.9	2.81e-03	0	61	0	198180864	56	6538
2026-01-26 09:23:50.98	120.52	29.80	-42.9	-47.3	11.1	1.11e-03	0	61	0	205520896	56	6338
2026-01-26 09:23:55.01	119.77	30.46	-42.9	-47.3	11.2	1.49e-03	0	61	0	213909504	56	6303
2026-01-26 09:23:59.05	118.98	31.12	-43.1	-48.0	10.5	4.95e-03	0	61	0	221249536	57	6421
2026-01-26 09:24:03.09	118.15	31.79	-43.3	-48.5	10.1	8.50e-03	0	61	0	228589568	57	6821
2026-01-26 09:24:07.14	117.29	32.47	-43.3	-48.3	10.1	5.35e-03	0	61	0	235929600	57	6699
2026-01-26 09:24:11.18	116.39	33.16	-43.2	-48.1	10.4	4.43e-03	0	61	0	243269632	57	6516
2026-01-26 09:24:15.22	115.46	33.86	-43.4	-48.7	9.7	9.24e-03	0	61	0	251658240	57	7033
2026-01-26 09:24:19.26	114.48	34.56	-43.0	-47.7	10.7	2.13e-03	0	61	0	258998272	57	6270
2026-01-26 09:24:23.30	113.46	35.27	-43.1	-47.9	10.5	2.09e-03	0	61	0	266338304	57	6395
2026-01-26 09:24:27.34	112.39	35.98	-43.9	-50.5	8.0	6.83e-02	0	61	0	273678336	58	8094
2026-01-26 09:24:31.38	111.28	36.70	-43.5	-49.1	9.3	1.74e-02	0	61	0	282066944	58	6929
2026-01-26 09:24:35.42	110.11	37.42	-43.0	-47.6	10.9	1.83e-03	0	61	0	289406976	57	6181
2026-01-26 09:24:39.46	108.89	38.14	-43.0	-47.6	10.9	1.67e-03	0	61	0	296747008	57	6178
2026-01-26 09:24:43.50	107.62	38.87	-43.1	-47.9	10.5	3.50e-03	0	61	0	304087040	57	6414
2026-01-26 09:24:47.54	106.28	39.59	-43.5	-49.0	9.7	9.81e-03	0	61	0	312475648	57	7243
2026-01-26 09:24:51.58	104.89	40.30	-43.1	-47.8	10.7	6.75e-03	0	61	0	319815680	57	6311
2026-01-26 09:24:55.62	103.44	41.01	-43.3	-48.3	10.3	3.65e-03	0	61	0	327155712	57	6669
2026-01-26 09:24:59.66	101.91	41.72	-42.9	-47.2	11.4	1.19e-03	0	61	0	334495744	57	5916
2026-01-26 09:25:03.69	100.33	42.41	-43.4	-48.5	10.0	5.73e-03	0	61	0	341835776	57	6804
2026-01-26 09:25:07.73	98.67	43.08	-44.0	-50.7	7.8	5.62e-02	0	61	0	350224384	58	8306
2026-01-26 09:25:11.77	96.94	43.75	-43.0	-47.6	11.0	3.76e-03	0	61	0	357564416	58	5799
2026-01-26 09:25:15.81	95.14	44.39	-42.2	-46.1	12.4	1.83e-05	0	62	0	364904448	55	5816
2026-01-26 09:25:19.85	93.27	45.01	-42.8	-47.6	11.0	2.11e-03	0	61	0	372244480	56	6500
2026-01-26 09:25:23.89	91.32	45.60	-42.6	-47.0	11.6	7.71e-04	0	61	0	380633088	56	6112
2026-01-26 09:25:27.93	89.30	46.17	-42.5	-46.6	12.0	9.29e-04	0	62	0	387973120	56	5854
2026-01-26 09:25:31.96	87.22	46.70	-42.4	-46.4	12.3	2.00e-04	0	61	0	395313152	56	5659
2026-01-26 09:25:36.01	85.05	47.19	-43.3	-49.0	9.6	1.61e-02	0	61	0	402653184	57	7242
2026-01-26 09:25:40.05	82.82	47.64	-43.7	-50.7	7.7	9.16e-02	0	61	0	409993216	58	8344
2026-01-26 09:25:44.09	80.53	48.05	-43.6	-50.1	8.4	2.97e-02	0	61	0	418381824	58	7743
2026-01-26 09:25:48.12	78.19	48.41	-43.2	-48.6	10.0	5.91e-03	0	62	0	425721856	57	6921
2026-01-26 09:25:52.16	75.79	48.72	-43.0	-48.2	10.3	5.17e-03	0	61	0	433061888	57	6618
2026-01-26 09:25:56.20	73.35	48.98	-42.3	-46.5	12.1	5.31e-04	0	61	0	440401920	56	5781
2026-01-26 09:26:00.24	70.87	49.18	-41.5	-45.1	13.3	4.34e-05	0	62	0	448790528	55	5200
2026-01-26 09:26:04.28	68.36	49.32	-41.7	-45.4	13.0	3.00e-06	0	61	0	456130560	53	6055
2026-01-26 09:26:08.32	65.84	49.41	-42.5	-47.6	10.7	1.45e-03	0	61	0	463470592	55	6931
2026-01-26 09:26:12.36	63.30	49.43	-42.6	-47.8	10.6	2.23e-03	0	61	0	470810624	55	7078
2026-01-26 09:26:16.40	60.77	49.39	-41.7	-45.6	12.7	7.32e-05	0	62	0	478150656	55	5506
2026-01-26 09:26:20.44	58.25	49.30	-41.3	-44.8	13.7	6.10e-06	0	62	0	486539264	54	5290
2026-01-26 09:26:24.48	55.74	49.15	-41.9	-46.0	12.4	1.33e-04	0	62	0	493879296	54	6109
2026-01-26 09:26:28.52	53.27	48.93	-42.0	-46.2	12.2	4.05e-04	0	62	0	501219328	55	5870
2026-01-26 09:26:32.56	50.84	48.67	-42.5	-47.2	11.1	2.24e-03	0	61	0	508559360	55	6642
2026-01-26 09:26:36.60	48.45	48.35	-42.0	-46.0	12.3	3.83e-04	0	62	0	516947968	55	5759
2026-01-26 09:26:40.64	46.12	47.98	-42.9	-47.9	10.4	4.16e-03	0	62	0	524288000	56	6777
2026-01-26 09:26:44.68	43.84	47.56	-42.6	-47.1	11.4	7.54e-04	0	62	0	531628032	56	6178
2026-01-26 09:26:48.72	41.63	47.10	-42.8	-47.8	10.6	2.23e-03	0	62	0	538968064	56	6709
2026-01-26 09:26:52.76	39.49	46.60	-42.9	-47.9	10.4	4.74e-03	0	62	0	546308096	56	6771
2026-01-26 09:26:56.80	37.42	46.07	-42.4	-46.7	11.7	1.26e-03	0	62	0	554696704	56	5886
2026-01-26 09:27:00.84	35.42	45.50	-42.4	-46.8	11.7	2.25e-04	0	62	0	562036736	56	5969
2026-01-26 09:27:04.88	33.49	44.90	-43.4	-49.3	9.1	1.72e-02	0	62	0	569376768	57	7486
2026-01-26 09:27:08.92	31.63	44.28	-43.1	-48.5	9.9	3.11e-03	0	62	0	576716800	56	7262
2026-01-26 09:27:12.96	29.85	43.64	-42.2	-46.2	12.3	2.64e-04	0	61	0	585105408	56	5537
2026-01-26 09:27:16.99	28.14	42.98	-41.8	-45.6	12.7	7.01e-05	0	62	0	592445440	55	5489
2026-01-26 09:27:21.03	26.50	42.30	-41.9	-45.7	12.6	1.82e-04	0	61	0	599785472	55	5549
2026-01-26 09:27:25.07	24.93	41.61	-43.0	-48.2	10.1	5.03e-03	0	62	0	607125504	56	6997
2026-01-26 09:27:29.11	23.43	40.91	-43.5	-49.9	8.5	5.56e-02	0	62	0	614465536	57	8036
2026-01-26 09:27:33.15	21.99	40.20	-42.8	-47.5	10.9	2.97e-03	0	62	0	622854144	57	6076
2026-01-26 09:27:37.19	20.61	39.48	-43.2	-48.7	9.7	9.16e-03	0	62	0	630194176	57	6960
2026-01-26 09:27:41.24	19.29	38.76	-43.0	-48.2	10.0	3.96e-03	0	62	0	637534208	57	6623
2026-01-26 09:27:45.27	18.03	38.05	-43.9	-51.3	7.0	1.73e-01	0	62	0	644874240	58	8914
2026-01-26 09:27:49.31	16.83	37.33	-44.0	-51.6	6.7	1.57e-01	0	62	0	653262848	58	9268
2026-01-26 09:27:53.35	15.68	36.61	-43.3	-48.9	9.3	2.65e-01	0	62	0	660602880	58	6752
2026-01-26 09:27:57.39	14.58	35.90	-42.3	-46.2	12.1	6.04e-04	0	62	0	667942912	56	5586
2026-01-26 09:28:01.43	13.52	35.19	-43.1	-48.2	10.1	5.19e-03	0	62	0	675282944	56	6978
2026-01-26 09:28:05.47	12.51	34.48	-43.9	-51.1	7.2	1.23e-01	0	62	0	682622976	58	8701
2026-01-26 09:28:09.52	11.54	33.78	-43.6	-50.0	8.2	5.75e-02	0	62	0	689963008	58	7658
2026-01-26 09:28:13.56	10.62	33.09	-42.7	-47.3	11.0	2.67e-03	0	62	0	698351616	57	5978
2026-01-26 09:28:17.60	9.73	32.41	-43.2	-48.5	9.7	8.92e-03	0	62	0	705691648	56	7258
2026-01-26 09:28:21.63	8.89	31.73	-43.2	-48.6	9.7	1.68e-02	0	62	0	713031680	58	6497
2026-01-26 09:28:25.67	8.07	31.07	-41.8	-45.6	12.6	9.15e-05	0	62	0	720371712	55	5474
2026-01-26 09:28:29.71	7.29	30.41	-43.3	-49.0	9.2	1.49e-02	0	62	0	727711744	57	7233
2026-01-26 09:28:33.75	6.54	29.76	-42.9	-47.8	10.4	5.19e-03	0	62	0	736100352	57	6319
2026-01-26 09:28:37.79	5.82	29.12	-42.8	-47.8	10.4	5.32e-03	0	62	0	743440384	57	6283
2026-01-26 09:28:41.83	5.13	28.49	-42.3	-46.5	11.6	6.90e-04	0	62	0	750780416	56	5770
2026-01-26 09:28:45.87	4.47	27.87	-42.4	-46.6	11.5	9.78e-04	0	62	0	758120448	56	5848
2026-01-26 09:28:49.91	3.83	27.25	-42.7	-47.6	10.5	2.97e-03	0	62	0	766509056	56	6531
2026-01-26 09:28:53.95	3.21	26.65	-43.6	-50.1	8.0	5.69e-02	0	62	0	773849088	57	8189
2026-01-26 09:28:57.99	2.62	26.06	-42.9	-48.0	10.1	8.56e-03	0	62	0	781189120	57	6449
2026-01-26 09:29:02.02	2.06	25.48	-42.6	-47.3	10.8	3.52e-03	0	62	0	788529152	57	5961
2026-01-26 09:29:06.06	1.51	24.91	-42.3	-46.7	11.3	7.06e-04	0	62	0	795869184	56	5908
2026-01-26 09:29:10.10	0.98	24.34	-42.7	-47.6	10.4	5.59e-03	0	62	0	804257792	56	6544
2026-01-26 09:29:14.14	0.47	23.79	-42.3	-46.6	11.3	1.29e-03	0	62	0	811597824	56	5850
2026-01-26 09:29:18.18	359.98	23.24	-41.9	-46.0	11.8	3.13e-04	0	62	0	818937856	55	5769
2026-01-26 09:29:22.22	359.51	22.71	-41.7	-45.6	12.2	2.33e-04	0	62	0	826277888	55	5511
2026-01-26 09:29:26.26	359.05	22.18	-41.9	-46.2	11.5	5.68e-04	0	62	0	834666496	55	5879
2026-01-26 09:29:30.31	358.60	21.66	-42.3	-47.3	10.2	5.94e-03	0	62	0	842006528	55	6659
2026-01-26 09:29:34.34	358.18	21.15	-42.1	-46.8	10.6	3.98e-03	0	62	0	849346560	55	6286
2026-01-26 09:29:38.38	357.77	20.65	-41.9	-46.6	10.5	2.07e-03	0	62	0	856686592	55	6194
2026-01-26 09:29:42.42	357.37	20.16	-41.7	-46.7	10.2	5.19e-03	0	62	0	864026624	55	6218
2026-01-26 09:29:46.46	356.98	19.67	-41.6	-46.9	9.8	1.25e-02	0	62	0	872415232	55	6350
2026-01-26 09:29:50.50	356.61	19.20	-41.2	-46.4	9.9	6.81e-03	0	62	0	879755264	54	6352
2026-01-26 09:29:54.54	356.24	18.73	-41.4	-47.7	8.1	3.59e-02	0	62	0	887095296	54	7411
2026-01-26 09:29:58.58	355.89	18.27	-41.5	-50.3	5.5	4.47e-01	0	62	0	894435328	54	10004
2026-01-26 09:30:02.62	355.55	17.81	-41.9	-54.1	3.8	1.49e+00	0	62	104	898629632	54	15466
2026-01-26 09:30:06.66	355.22	17.37	-42.0	-54.7	3.8	1.49e+00	0	62	104	898629632	55	15691
2026-01-26 09:30:10.70	354.90	16.93	-40.8	-55.4	3.8	1.49e+00	0	62	104	898629632	53	19044
2026-01-26 09:30:14.73	354.60	16.49	-40.9	-55.4	3.8	1.49e+00	0	62	104	898629632	53	19146
2026-01-26 09:30:18.77	354.29	16.07	-40.8	-55.4	3.8	1.49e+00	0	62	104	898629632	53	19124
2026-01-26 09:30:22.81	354.00	15.65	-40.8	-55.4	3.8	1.49e+00	0	62	104	898629632	53	19046
2026-01-26 09:30:26.85	353.72	15.24	-40.7	-55.3	3.8	1.49e+00	0	62	104	898629632	53	18799
2026-01-26 09:30:30.89	353.44	14.83	-40.6	-55.1	3.8	1.49e+00	0	62	104	898629632	53	18431
2026-01-26 09:30:34.93	353.18	14.43	-40.5	-55.0	3.8	1.49e+00	0	62	104	898629632	53	18294
2026-01-26 09:30:38.97	352.92	14.03	-40.5	-55.0	3.8	1.49e+00	0	62	104	898629632	52	19322
2026-01-26 09:30:43.01	352.66	13.64	-40.5	-55.1	3.8	1.49e+00	0	62	104	898629632	52	19414
2026-01-26 09:30:47.05	352.42	13.26	-40.6	-55.2	3.8	1.49e+00	0	62	104	898629632	52	19648
2026-01-26 09:30:51.09	352.18	12.88	-40.7	-55.2	3.8	1.49e+00	0	62	104	898629632	52	19802
2026-01-26 09:30:55.13	351.94	12.51	-40.7	-55.2	3.8	1.49e+00	0	62	104	898629632	52	19750
2026-01-26 09:30:59.17	351.72	12.14	-40.6	-55.1	3.8	1.49e+00	0	62	104	898629632	52	19590
2026-01-26 09:31:03.21	351.50	11.78	-40.5	-55.1	3.8	1.49e+00	0	62	104	898629632	52	19454
2026-01-26 09:31:07.25	351.28	11.42	-40.5	-55.1	3.8	1.49e+00	0	62	104	898629632	52	19410
2026-01-26 09:31:11.28	351.07	11.07	-40.5	-55.1	3.8	1.49e+00	0	62	104	898629632	52	19490
2026-01-26 09:31:15.32	350.87	10.72	-40.6	-55.2	3.8	1.49e+00	0	62	104	898629632	52	19715
2026-01-26 09:31:19.36	350.67	10.37	-40.7	-55.2	3.8	1.49e+00	0	62	104	898629632	52	19760
2026-01-26 09:31:23.40	350.47	10.04	-40.6	-55.1	3.8	1.49e+00	0	62	104	898629632	52	19573
2026-01-26 09:31:27.43	350.28	9.70	-40.5	-55.1	3.8	1.49e+00	0	62	104	898629632	52	19419
2026-01-26 09:31:31.47	350.10	9.37	-40.5	-55.1	3.8	1.49e+00	0	62	104	898629632	52	19505
2026-01-26 09:31:35.51	349.92	9.04	-40.6	-55.1	3.8	1.49e+00	0	62	104	898629632	52	19544
2026-01-26 09:31:39.54	349.74	8.72	-40.6	-55.2	3.8	1.49e+00	0	62	104	898629632	52	19621
2026-01-26 09:31:43.58	349.57	8.40	-40.6	-55.1	3.8	1.49e+00	0	62	104	898629632	52	19611
2026-01-26 09:31:47.62	349.40	8.08	-40.7	-55.3	3.8	1.49e+00	0	62	104	898629632	52	19851
2026-01-26 09:31:51.66	349.24	7.77	-44.4	-58.8	3.8	1.49e+00	0	62	104	898629632	59	20050
2026-01-26 09:31:55.70	349.08	7.46	-45.1	-59.8	3.8	1.49e+00	0	62	104	898629632	60	21044
2026-01-26 09:31:59.75	348.92	7.16	-45.1	-59.8	3.8	1.49e+00	0	62	104	898629632	60	21043
2026-01-26 09:32:03.79	348.77	6.86	-45.0	-59.6	3.8	1.49e+00	0	62	104	898629632	60	20652
2026-01-26 09:32:07.83	348.62	6.56	-44.9	-59.5	3.8	1.49e+00	0	62	104	898629632	60	20496
2026-01-26 09:32:11.87	348.48	6.26	-45.0	-59.6	3.8	1.49e+00	0	62	104	898629632	60	20588
2026-01-26 09:32:15.91	348.33	5.97	-44.9	-59.5	3.8	1.49e+00	0	62	104	898629632	60	20479
2026-01-26 09:32:19.95	348.19	5.68	-44.9	-59.5	3.8	1.49e+00	0	62	104	898629632	60	20448
2026-01-26 09:32:23.99	348.06	5.40	-44.9	-59.5	3.8	1.49e+00	0	62	104	898629632	60	20413
2026-01-26 09:32:28.04	347.92	5.11	-44.9	-59.5	3.8	1.49e+00	0	62	104	898629632	60	20399
2026-01-26 09:32:32.08	347.79	4.83	-44.9	-59.5	3.8	1.49e+00	0	62	104	898629632	60	20416
2026-01-26 09:32:36.12	347.66	4.55	-43.1	-59.0	3.8	1.49e+00	0	62	104	898629632	59	20462
2026-01-26 09:32:40.17	347.54	4.28	-44.6	-59.5	3.8	1.49e+00	0	62	104	898629632	60	20392
2026-01-26 09:32:44.21	347.42	4.01	-44.9	-59.5	3.8	1.49e+00	0	62	104	898629632	60	20387
2026-01-26 09:32:48.25	347.30	3.74	-44.9	-59.5	3.8	1.49e+00	0	62	104	898629632	60	20469
2026-01-26 09:32:52.30	347.18	3.47	-44.9	-59.5	3.8	1.49e+00	0	62	104	898629632	60	20369
2026-01-26 09:32:56.34	347.06	3.21	-44.9	-59.5	3.8	1.49e+00	0	62	104	898629632	60	20346
2026-01-26 09:33:00.36	346.95	2.94	-44.8	-59.5	3.8	1.49e+00	0	62	104	898629632	60	20332
2026-01-26 09:33:04.39	346.84	2.68	-44.3	-59.5	3.8	1.49e+00	0	62	104	898629632	60	20321
2026-01-26 09:33:08.43	346.73	2.43	-44.9	-59.4	3.8	1.49e+00	0	62	104	898629632	60	20293
2026-01-26 09:33:12.47	346.63	2.17	-44.9	-59.4	3.8	1.49e+00	0	62	104	898629632	60	20251
2026-01-26 09:33:16.52	346.52	1.92	-44.9	-59.4	3.8	1.49e+00	0	62	104	898629632	60	20262

#Closed at: 2026-01-26 09:33:17
#Recorded file [898 MB]: D:/lorett/data/31039_260126_121912.dat