passes_logs/2026/01/26/R2.0S_Moscow/R2.0S_Moscow__20260126_084951_NOAA_21_JPSS-2_rec.log

#Pass ID: 20260126_084951_NOAA 21 (JPSS-2)
#Satellite: NOAA 21 (JPSS-2)
#Configuration: NOAA-21
#almurnet v.1.7.20251203
#Start time: 2026-01-26 08:49:52

#Version: 2.2.20231116
#Station: R2.0S_Moscow
#Location: 37.707566 lon 55.798166 lat
#TLE: 1 54234U 22150A   26025.79694208  .00000182  00000+0  10700-3 0  9999
#TLE: 2 54234  98.7509 326.5666 0000777 213.2444 146.8684 14.19539347166346

#Time	Az	El	Level	Level2	SNR	BER	BlckErr	Temp	State	Recorded	gain1	gain2
2026-01-26 08:49:52.03	128.84	2.01	-27.7	-44.5	3.8	1.52e+00	0	53	0	0	29	21689
2026-01-26 08:49:56.06	128.66	2.25	-26.0	-40.4	3.5	1.52e+00	0	53	104	0	24	17906
2026-01-26 08:50:00.10	128.47	2.50	-27.4	-41.0	3.8	1.52e+00	0	53	104	0	26	17216
2026-01-26 08:50:04.14	128.29	2.75	-25.3	-38.5	3.6	1.52e+00	0	54	104	0	24	14445
2026-01-26 08:50:08.19	128.09	3.01	-33.9	-48.2	4.1	1.51e+00	0	54	104	0	39	18627
2026-01-26 08:50:12.23	127.90	3.26	-26.9	-41.2	4.0	1.51e+00	0	54	104	0	33	11778
2026-01-26 08:50:16.27	127.70	3.52	-30.6	-43.9	3.8	1.51e+00	0	54	104	0	21	31916
2026-01-26 08:50:20.32	127.50	3.78	-25.8	-43.1	3.9	1.51e+00	0	55	104	0	29	18480
2026-01-26 08:50:24.36	127.30	4.04	-30.0	-43.5	3.7	1.51e+00	0	55	104	0	29	19216
2026-01-26 08:50:28.40	127.09	4.30	-29.2	-45.4	3.9	1.51e+00	0	55	104	0	32	20292
2026-01-26 08:50:32.44	126.87	4.57	-31.2	-46.1	3.7	1.52e+00	0	55	104	0	34	19497
2026-01-26 08:50:36.48	126.66	4.83	-31.4	-45.2	4.0	1.52e+00	0	56	104	0	33	18573
2026-01-26 08:50:40.53	126.44	5.10	-31.2	-45.1	3.9	1.51e+00	0	56	104	0	34	17311
2026-01-26 08:50:44.57	126.21	5.38	-35.0	-47.3	4.1	1.51e+00	0	56	104	0	39	16752
2026-01-26 08:50:48.61	125.98	5.65	-28.9	-44.1	4.3	1.51e+00	0	56	104	0	37	13051
2026-01-26 08:50:52.65	125.75	5.93	-31.0	-46.6	3.7	1.51e+00	0	56	104	0	31	24693
2026-01-26 08:50:56.69	125.51	6.21	-29.0	-44.7	4.0	1.51e+00	0	57	104	0	32	18686
2026-01-26 08:51:00.73	125.26	6.49	-31.6	-47.2	3.7	1.52e+00	0	57	104	0	28	31235
2026-01-26 08:51:04.77	125.01	6.78	-27.3	-42.1	3.7	1.52e+00	0	57	104	0	26	19509
2026-01-26 08:51:08.81	124.76	7.06	-28.4	-43.4	3.4	1.51e+00	0	57	104	0	23	27000
2026-01-26 08:51:12.86	124.50	7.35	-25.2	-40.0	3.8	1.52e+00	0	57	104	0	23	18225
2026-01-26 08:51:16.90	124.23	7.65	-29.3	-43.5	3.9	1.51e+00	0	57	104	0	29	19225
2026-01-26 08:51:20.94	123.96	7.94	-25.2	-39.0	3.9	1.50e+00	0	57	104	0	20	19239
2026-01-26 08:51:24.98	123.69	8.24	-28.9	-43.2	3.6	1.45e+00	0	58	104	0	29	18603
2026-01-26 08:51:29.02	123.40	8.54	-31.7	-43.5	4.0	1.29e+00	0	58	104	0	39	10902
2026-01-26 08:51:33.06	123.12	8.85	-25.9	-44.2	4.0	1.48e+00	0	58	104	0	28	22182
2026-01-26 08:51:37.10	122.82	9.15	-25.5	-39.3	3.8	1.51e+00	0	58	104	0	22	17696
2026-01-26 08:51:41.14	122.52	9.46	-31.4	-45.2	4.0	1.50e+00	0	58	104	0	35	16624
2026-01-26 08:51:45.17	122.21	9.78	-28.6	-43.8	4.1	1.25e+00	0	58	104	0	33	15773
2026-01-26 08:51:49.22	121.90	10.10	-33.0	-47.4	3.9	1.50e+00	0	59	104	0	33	23956
2026-01-26 08:51:53.26	121.58	10.42	-37.2	-47.4	4.2	1.46e+00	0	59	104	0	44	12753
2026-01-26 08:51:57.30	121.25	10.74	-30.7	-46.6	4.2	1.40e+00	0	59	104	0	39	15420
2026-01-26 08:52:01.34	120.91	11.07	-35.1	-42.8	7.1	2.81e-01	7	59	0	2097152	39	10038
2026-01-26 08:52:05.38	120.57	11.40	-28.9	-39.9	4.4	4.90e-01	0	59	104	8388608	27	14337
2026-01-26 08:52:09.42	120.21	11.73	-33.0	-41.6	10.0	1.41e-01	5	59	0	17825792	46	5822
2026-01-26 08:52:13.46	119.85	12.07	-29.7	-40.6	4.3	7.03e-01	0	59	104	22020096	25	17395
2026-01-26 08:52:17.50	119.48	12.41	-34.5	-41.8	9.3	2.35e-01	4	59	0	27262976	40	8408
2026-01-26 08:52:21.54	119.10	12.75	-30.9	-41.5	9.1	2.73e-01	8	59	0	38797312	33	12160
2026-01-26 08:52:25.58	118.72	13.10	-36.9	-42.6	10.1	1.37e+00	6	60	104	46137344	42	8249
2026-01-26 08:52:29.61	118.32	13.45	-31.2	-42.1	9.5	2.74e-01	1	60	0	56623104	37	10331
2026-01-26 08:52:33.65	117.91	13.80	-34.4	-41.5	7.7	3.19e-01	7	59	0	68157440	31	13643
2026-01-26 08:52:37.70	117.49	14.16	-35.7	-41.8	8.2	1.59e-01	3	60	0	70254592	40	8461
2026-01-26 08:52:41.74	117.07	14.53	-37.6	-42.4	11.1	2.03e-02	0	60	0	82837504	46	6401
2026-01-26 08:52:45.78	116.63	14.89	-39.2	-42.6	11.7	1.36e-02	0	60	0	95420416	46	6566
2026-01-26 08:52:49.82	116.18	15.26	-39.3	-42.3	12.9	2.08e-03	0	60	0	108003328	50	4991
2026-01-26 08:52:53.86	115.72	15.64	-39.8	-42.4	12.7	1.58e-03	0	60	0	120586240	49	5374
2026-01-26 08:52:57.90	115.24	16.02	-39.7	-42.3	13.0	3.20e-03	0	60	0	133169152	50	5033
2026-01-26 08:53:01.95	114.76	16.40	-37.2	-42.1	12.6	4.60e-03	0	60	0	145752064	48	5471
2026-01-26 08:53:05.98	114.26	16.78	-39.9	-42.5	13.1	2.95e-04	0	60	0	158334976	50	5101
2026-01-26 08:53:10.02	113.75	17.17	-40.0	-42.4	13.2	3.90e-04	0	60	0	170917888	50	5090
2026-01-26 08:53:14.06	113.22	17.57	-39.9	-42.3	13.3	4.65e-05	0	60	0	183500800	50	5019
2026-01-26 08:53:18.10	112.68	17.96	-39.9	-42.3	13.3	1.22e-05	0	60	0	196083712	50	5014
2026-01-26 08:53:22.14	112.13	18.36	-39.9	-42.3	13.3	1.98e-05	0	60	0	208666624	50	5030
2026-01-26 08:53:26.18	111.56	18.77	-39.8	-42.2	13.4	1.52e-05	0	60	0	221249536	50	4982
2026-01-26 08:53:30.22	110.98	19.18	-39.6	-41.9	13.8	2.20e-06	0	61	0	233832448	50	4803
2026-01-26 08:53:34.26	110.38	19.59	-39.5	-41.7	14.0	1.50e-06	0	60	0	246415360	50	4696
2026-01-26 08:53:38.31	109.76	20.01	-39.4	-41.6	14.2	1.50e-06	0	60	0	258998272	50	4600
2026-01-26 08:53:42.35	109.12	20.42	-39.3	-41.4	14.4	1.50e-06	0	61	0	271581184	50	4510
2026-01-26 08:53:46.39	108.47	20.85	-39.0	-41.1	14.7	7.00e-07	0	61	0	284164096	50	4356
2026-01-26 08:53:50.43	107.80	21.27	-38.9	-40.9	14.9	0.00e+00	0	61	0	296747008	49	4520
2026-01-26 08:53:54.47	107.11	21.70	-39.0	-41.0	14.7	0.00e+00	0	61	0	309329920	49	4589
2026-01-26 08:53:58.51	106.40	22.13	-38.9	-40.9	14.9	0.00e+00	0	61	0	321912832	49	4543
2026-01-26 08:54:02.56	105.67	22.56	-38.8	-40.7	15.0	0.00e+00	0	61	0	335544320	49	4436
2026-01-26 08:54:06.60	104.92	23.00	-38.9	-41.0	14.8	0.00e+00	0	61	0	348127232	49	4552
2026-01-26 08:54:10.64	104.15	23.44	-38.9	-41.0	14.8	0.00e+00	0	60	0	360710144	49	4555
2026-01-26 08:54:14.68	103.35	23.87	-38.8	-40.8	15.1	0.00e+00	0	61	0	373293056	49	4451
2026-01-26 08:54:18.72	102.54	24.31	-39.0	-41.0	14.8	0.00e+00	0	61	0	385875968	49	4589
2026-01-26 08:54:22.76	101.70	24.76	-39.0	-41.1	14.8	0.00e+00	0	61	0	398458880	49	4607
2026-01-26 08:54:26.80	100.83	25.20	-39.1	-41.1	14.7	1.50e-06	0	61	0	411041792	49	4641
2026-01-26 08:54:30.84	99.95	25.64	-39.3	-41.4	14.5	7.00e-07	0	61	0	423624704	49	4809
2026-01-26 08:54:34.89	99.03	26.08	-39.4	-41.6	14.3	2.20e-06	0	61	0	436207616	49	4889
2026-01-26 08:54:38.93	98.09	26.52	-39.6	-41.9	14.1	7.00e-07	0	61	0	448790528	49	5044
2026-01-26 08:54:42.97	97.12	26.96	-39.6	-41.8	14.2	2.20e-06	0	61	0	461373440	50	4746
2026-01-26 08:54:47.02	96.13	27.39	-39.5	-41.6	14.3	7.00e-07	0	61	0	473956352	50	4639
2026-01-26 08:54:51.06	95.11	27.83	-39.3	-41.4	14.5	0.00e+00	0	61	0	486539264	50	4526
2026-01-26 08:54:55.10	94.06	28.26	-39.3	-41.3	14.6	7.00e-07	0	61	0	499122176	50	4482
2026-01-26 08:54:59.14	92.98	28.68	-39.3	-41.3	14.6	1.50e-06	0	61	0	511705088	50	4488
2026-01-26 08:55:03.18	91.88	29.10	-39.6	-41.8	14.2	1.50e-06	0	61	0	524288000	50	4718
2026-01-26 08:55:07.22	90.74	29.51	-39.6	-41.8	14.1	0.00e+00	0	61	0	536870912	50	4755
2026-01-26 08:55:11.26	89.58	29.92	-39.6	-41.8	14.2	2.20e-06	0	61	0	549453824	50	4721
2026-01-26 08:55:15.30	88.38	30.32	-39.6	-41.7	14.3	1.50e-06	0	61	0	562036736	50	4681
2026-01-26 08:55:19.34	87.16	30.71	-39.6	-41.7	14.3	7.00e-07	0	61	0	574619648	50	4703
2026-01-26 08:55:23.38	85.91	31.09	-39.6	-41.8	14.3	7.00e-07	0	61	0	587202560	50	4724
2026-01-26 08:55:27.42	84.62	31.46	-39.6	-41.7	14.3	0.00e+00	0	61	0	599785472	50	4681
2026-01-26 08:55:31.46	83.31	31.81	-39.7	-41.9	14.2	2.20e-06	0	61	0	612368384	50	4790
2026-01-26 08:55:35.50	81.97	32.15	-40.2	-42.5	13.5	6.80e-06	0	61	0	625999872	50	5154
2026-01-26 08:55:39.54	80.61	32.48	-40.1	-42.4	13.6	9.10e-06	0	61	0	638582784	50	5092
2026-01-26 08:55:43.58	79.21	32.80	-40.1	-42.4	13.7	4.50e-06	0	61	0	651165696	50	5084
2026-01-26 08:55:47.62	77.79	33.09	-40.1	-42.5	13.7	6.80e-06	0	61	0	663748608	51	4823
2026-01-26 08:55:51.66	76.34	33.37	-40.1	-42.5	13.6	7.60e-06	0	61	0	676331520	51	4822
2026-01-26 08:55:55.70	74.87	33.63	-40.3	-42.7	13.4	1.29e-05	0	61	0	688914432	51	4969
2026-01-26 08:55:59.74	73.38	33.87	-40.3	-42.7	13.4	1.37e-05	0	62	0	701497344	51	4971
2026-01-26 08:56:03.78	71.86	34.09	-40.2	-42.6	13.6	7.60e-06	0	62	0	714080256	51	4877
2026-01-26 08:56:07.82	70.33	34.29	-40.3	-42.7	13.4	1.98e-05	0	62	0	726663168	51	4955
2026-01-26 08:56:11.86	68.77	34.47	-40.4	-42.8	13.3	2.51e-05	0	62	0	739246080	51	5028
2026-01-26 08:56:15.90	67.21	34.62	-40.4	-42.9	13.3	1.37e-05	0	62	0	751828992	51	5048
2026-01-26 08:56:19.95	65.62	34.75	-40.4	-42.9	13.3	1.14e-05	0	62	0	764411904	51	5063
2026-01-26 08:56:23.99	64.03	34.85	-40.6	-43.2	13.0	4.80e-05	0	62	0	776994816	51	5251
2026-01-26 08:56:28.03	62.43	34.93	-40.7	-43.3	12.8	4.73e-05	0	62	0	789577728	52	4990
2026-01-26 08:56:32.07	60.82	34.98	-40.7	-43.3	12.8	6.17e-05	0	62	0	802160640	52	5016
2026-01-26 08:56:36.11	59.21	35.01	-40.2	-42.5	13.6	6.80e-06	0	62	0	814743552	52	4588
2026-01-26 08:56:40.15	57.59	35.01	-40.5	-42.9	13.2	1.44e-05	0	62	0	827326464	52	4806
2026-01-26 08:56:44.19	55.98	34.99	-40.6	-43.1	13.0	3.81e-05	0	62	0	839909376	52	4906
2026-01-26 08:56:48.24	54.37	34.94	-40.6	-43.1	12.9	4.65e-05	0	62	0	852492288	52	4919
2026-01-26 08:56:52.28	52.77	34.86	-40.7	-43.4	12.7	9.91e-05	0	62	0	865075200	52	5057
2026-01-26 08:56:56.32	51.18	34.76	-40.7	-43.3	12.9	4.27e-05	0	62	0	877658112	52	4989
2026-01-26 08:57:00.36	49.59	34.64	-40.8	-43.4	12.7	6.63e-05	0	62	0	890241024	52	5066
2026-01-26 08:57:04.41	48.02	34.49	-40.4	-42.9	13.2	2.05e-05	0	62	0	902823936	52	4781
2026-01-26 08:57:08.44	46.47	34.32	-40.3	-42.7	13.4	8.30e-06	0	62	0	916455424	52	4679
2026-01-26 08:57:12.49	44.94	34.12	-40.4	-42.9	13.2	2.44e-05	0	62	0	929038336	52	4774
2026-01-26 08:57:16.53	43.42	33.90	-40.3	-42.8	13.3	1.83e-05	0	62	0	941621248	52	4719
2026-01-26 08:57:20.57	41.93	33.67	-40.7	-43.3	12.8	5.49e-05	0	62	0	954204160	52	5013
2026-01-26 08:57:24.62	40.45	33.41	-40.3	-42.8	13.3	1.90e-05	0	62	0	966787072	52	4714
2026-01-26 08:57:28.66	39.01	33.13	-40.7	-43.3	12.8	4.73e-05	0	62	0	979369984	52	4999
2026-01-26 08:57:32.70	37.58	32.84	-40.4	-43.0	13.2	2.67e-05	0	62	0	991952896	52	4817
2026-01-26 08:57:36.74	36.19	32.53	-40.0	-42.3	13.8	3.00e-06	0	62	0	1004535808	52	4455
2026-01-26 08:57:40.78	34.82	32.20	-40.3	-42.7	13.3	1.83e-05	0	62	0	1017118720	52	4680
2026-01-26 08:57:44.82	33.48	31.86	-40.0	-42.3	13.8	7.60e-06	0	62	0	1029701632	52	4463
2026-01-26 08:57:48.86	32.17	31.51	-40.2	-42.5	13.5	9.10e-06	0	62	0	1042284544	51	4867
2026-01-26 08:57:52.90	30.89	31.14	-39.9	-42.1	14.0	2.20e-06	0	62	0	1054867456	51	4651
2026-01-26 08:57:56.95	29.63	30.77	-40.5	-43.0	13.1	2.44e-05	0	62	0	1067450368	51	5112
2026-01-26 08:58:00.99	28.41	30.38	-40.1	-42.4	13.7	4.50e-06	0	62	0	1080033280	51	4795
2026-01-26 08:58:05.03	27.22	29.98	-40.0	-42.3	13.8	6.10e-06	0	62	0	1092616192	51	4725
2026-01-26 08:58:09.07	26.05	29.58	-39.8	-42.0	14.1	0.00e+00	0	62	0	1105199104	51	4568
2026-01-26 08:58:13.10	24.92	29.17	-40.1	-42.4	13.7	6.10e-06	0	62	0	1117782016	51	4779
2026-01-26 08:58:17.14	23.82	28.75	-39.9	-42.1	14.0	3.80e-06	0	62	0	1130364928	51	4638
2026-01-26 08:58:21.18	22.74	28.33	-39.7	-41.8	14.3	7.00e-07	0	62	0	1142947840	51	4465
2026-01-26 08:58:25.22	21.69	27.90	-39.5	-41.6	14.5	0.00e+00	0	62	0	1155530752	50	4606
2026-01-26 08:58:29.27	20.67	27.47	-39.9	-42.1	14.0	3.80e-06	0	62	0	1168113664	50	4926
2026-01-26 08:58:33.31	19.68	27.04	-39.9	-42.2	13.9	5.30e-06	0	62	0	1180696576	50	4971
2026-01-26 08:58:37.36	18.71	26.60	-39.5	-41.6	14.4	0.00e+00	0	62	0	1193279488	50	4646
2026-01-26 08:58:41.40	17.77	26.17	-39.4	-41.5	14.6	1.50e-06	0	62	0	1206910976	50	4553
2026-01-26 08:58:45.44	16.86	25.73	-39.5	-41.6	14.4	7.00e-07	0	62	0	1219493888	50	4627
2026-01-26 08:58:49.49	15.97	25.29	-40.1	-42.5	13.5	8.30e-06	0	62	0	1232076800	50	5105
2026-01-26 08:58:53.53	15.11	24.85	-39.8	-42.0	13.9	1.50e-06	0	62	0	1244659712	50	4862
2026-01-26 08:58:57.57	14.27	24.41	-39.3	-41.4	14.6	0.00e+00	0	62	0	1257242624	50	4505
2026-01-26 08:59:01.61	13.45	23.97	-39.3	-41.3	14.6	0.00e+00	0	62	0	1269825536	50	4482
2026-01-26 08:59:05.65	12.66	23.53	-39.1	-41.1	14.8	0.00e+00	0	62	0	1282408448	50	4351
2026-01-26 08:59:09.69	11.89	23.10	-39.2	-41.3	14.6	0.00e+00	0	62	0	1294991360	50	4444
2026-01-26 08:59:13.73	11.14	22.66	-39.4	-41.5	14.3	1.50e-06	0	62	0	1307574272	50	4596
2026-01-26 08:59:17.75	10.42	22.24	-39.3	-41.4	14.5	7.00e-07	0	62	0	1320157184	50	4507
2026-01-26 08:59:21.79	9.71	21.81	-39.5	-41.7	14.2	1.50e-06	0	62	0	1332740096	50	4688
2026-01-26 08:59:25.84	9.02	21.38	-39.7	-41.9	13.9	4.50e-06	0	62	0	1345323008	50	4810
2026-01-26 08:59:29.88	8.35	20.96	-39.6	-41.8	13.9	6.10e-06	0	62	0	1357905920	50	4757
2026-01-26 08:59:33.92	7.70	20.54	-39.7	-42.0	13.8	5.30e-06	0	62	0	1370488832	50	4826
2026-01-26 08:59:37.96	7.07	20.12	-39.7	-42.0	13.6	3.80e-06	0	62	0	1383071744	50	4865
2026-01-26 08:59:42.00	6.45	19.70	-39.6	-41.8	13.9	0.00e+00	0	62	0	1395654656	50	4743
2026-01-26 08:59:46.04	5.85	19.29	-39.5	-41.7	13.9	7.00e-07	0	62	0	1408237568	50	4674
2026-01-26 08:59:50.08	5.27	18.89	-39.0	-41.1	14.5	0.00e+00	0	62	0	1420820480	50	4360
2026-01-26 08:59:54.12	4.70	18.48	-39.2	-41.4	14.2	2.20e-06	0	62	0	1433403392	50	4495
2026-01-26 08:59:58.16	4.15	18.08	-39.3	-41.5	14.0	3.00e-06	0	62	0	1445986304	50	4561
2026-01-26 09:00:02.20	3.61	17.69	-39.4	-41.6	13.7	5.30e-06	0	62	0	1458569216	50	4631
2026-01-26 09:00:06.24	3.09	17.30	-39.4	-41.7	13.7	5.30e-06	0	62	0	1471152128	50	4664
2026-01-26 09:00:10.28	2.58	16.91	-39.7	-42.1	13.0	2.97e-05	0	62	0	1484783616	50	4918
2026-01-26 09:00:14.32	2.08	16.52	-40.0	-42.7	12.4	1.54e-04	0	62	0	1496317952	50	5259
2026-01-26 09:00:18.37	1.60	16.14	-40.0	-42.8	12.2	2.20e-04	0	62	0	1508900864	50	5296
2026-01-26 09:00:22.40	1.13	15.76	-39.8	-42.6	12.3	1.88e-04	0	62	0	1522532352	50	5162
2026-01-26 09:00:26.45	0.67	15.39	-39.8	-42.6	12.1	2.76e-04	0	62	0	1535115264	50	5189
2026-01-26 09:00:30.49	0.22	15.02	-39.9	-42.9	11.5	9.52e-04	0	62	0	1547698176	50	5398
2026-01-26 09:00:34.53	359.79	14.66	-39.9	-43.2	10.9	1.87e-03	0	62	0	1560281088	50	5577
2026-01-26 09:00:38.57	359.36	14.29	-39.8	-43.0	11.0	1.86e-03	0	62	0	1572864000	50	5436
2026-01-26 09:00:42.61	358.95	13.94	-39.4	-42.5	11.0	1.67e-03	0	62	0	1585446912	50	5159
2026-01-26 09:00:46.66	358.54	13.58	-39.6	-43.2	10.0	5.57e-03	0	62	0	1598029824	50	5543
2026-01-26 09:00:50.70	358.15	13.23	-39.8	-44.1	8.7	3.16e-02	0	62	0	1610612736	50	6170
2026-01-26 09:00:54.74	357.76	12.88	-40.2	-45.6	7.0	1.32e-01	0	62	0	1623195648	51	6950
2026-01-26 09:00:58.78	357.39	12.54	-40.2	-45.4	7.2	1.27e-01	0	62	0	1635778560	51	6770
2026-01-26 09:01:02.83	357.02	12.20	-41.7	-51.5	3.9	5.89e-01	0	62	104	1641021440	53	12177
2026-01-26 09:01:06.87	356.66	11.86	-40.6	-51.1	3.9	1.48e+00	0	62	104	1641021440	53	11682
2026-01-26 09:01:10.91	356.31	11.53	-41.5	-52.8	3.8	1.49e+00	0	62	104	1641021440	53	14172
2026-01-26 09:01:14.95	355.97	11.20	-40.4	-52.7	3.8	1.49e+00	0	62	104	1641021440	52	14776
2026-01-26 09:01:18.99	355.63	10.87	-40.4	-52.7	3.8	1.49e+00	0	62	104	1641021440	52	14811
2026-01-26 09:01:23.03	355.31	10.55	-40.3	-52.7	3.8	1.49e+00	0	62	104	1641021440	52	14710
2026-01-26 09:01:27.07	354.99	10.23	-40.2	-52.6	3.8	1.49e+00	0	62	104	1641021440	52	14610
2026-01-26 09:01:31.11	354.68	9.92	-40.2	-52.5	3.8	1.49e+00	0	62	104	1641021440	52	14515
2026-01-26 09:01:35.15	354.37	9.60	-40.2	-52.5	3.8	1.49e+00	0	62	104	1641021440	52	14424
2026-01-26 09:01:39.19	354.08	9.29	-40.1	-52.5	3.8	1.49e+00	0	62	104	1641021440	52	14424
2026-01-26 09:01:43.23	353.78	8.99	-40.1	-52.4	3.8	1.49e+00	0	62	104	1641021440	52	14320
2026-01-26 09:01:47.27	353.50	8.68	-40.1	-52.4	3.8	1.49e+00	0	62	104	1641021440	52	14254
2026-01-26 09:01:51.31	353.22	8.38	-40.1	-52.5	3.8	1.49e+00	0	62	104	1641021440	52	14394
2026-01-26 09:01:55.35	352.95	8.08	-40.2	-52.5	3.8	1.49e+00	0	62	104	1641021440	52	14453
2026-01-26 09:01:59.39	352.68	7.79	-44.5	-56.7	3.8	1.49e+00	0	62	104	1641021440	59	15671
2026-01-26 09:02:03.44	352.42	7.49	-45.2	-57.7	3.8	1.49e+00	0	62	104	1641021440	60	16504
2026-01-26 09:02:07.48	352.16	7.21	-45.2	-57.6	3.8	1.49e+00	0	62	104	1641021440	61	15537
2026-01-26 09:02:11.52	351.91	6.92	-45.0	-57.5	3.8	1.49e+00	0	62	104	1641021440	60	16128
2026-01-26 09:02:15.56	351.67	6.63	-44.9	-57.3	3.8	1.49e+00	0	62	104	1641021440	60	15859
2026-01-26 09:02:19.60	351.43	6.35	-45.0	-57.3	3.8	1.49e+00	0	62	104	1641021440	60	15918
2026-01-26 09:02:23.64	351.19	6.07	-44.9	-57.3	3.8	1.49e+00	0	62	104	1641021440	60	15849
2026-01-26 09:02:27.69	350.96	5.80	-44.9	-57.3	3.8	1.49e+00	0	62	104	1641021440	60	15843
2026-01-26 09:02:31.73	350.73	5.52	-44.9	-57.3	3.8	1.49e+00	0	62	104	1641021440	60	15802
2026-01-26 09:02:35.77	350.51	5.25	-44.9	-57.3	3.8	1.49e+00	0	62	104	1641021440	60	15830
2026-01-26 09:02:39.81	350.30	4.98	-44.9	-57.3	3.8	1.49e+00	0	62	104	1641021440	60	15812
2026-01-26 09:02:43.85	350.08	4.71	-44.9	-57.3	3.8	1.49e+00	0	62	104	1641021440	60	15813
2026-01-26 09:02:47.89	349.87	4.45	-44.8	-57.3	3.8	1.49e+00	0	62	104	1641021440	60	15796
2026-01-26 09:02:51.93	349.67	4.18	-44.9	-57.3	3.8	1.49e+00	0	62	104	1641021440	60	15803
2026-01-26 09:02:55.97	349.47	3.92	-44.9	-57.3	3.8	1.49e+00	0	62	104	1641021440	60	15782
2026-01-26 09:03:00.01	349.27	3.67	-44.9	-57.2	3.8	1.49e+00	0	62	104	1641021440	60	15750
2026-01-26 09:03:04.05	349.08	3.41	-44.9	-57.3	3.8	1.49e+00	0	62	104	1641021440	60	15781
2026-01-26 09:03:08.09	348.89	3.16	-44.9	-57.2	3.8	1.49e+00	0	62	104	1641021440	60	15707
2026-01-26 09:03:12.14	348.70	2.90	-44.9	-57.3	3.8	1.49e+00	0	62	104	1641021440	60	15787
2026-01-26 09:03:16.18	348.52	2.65	-44.9	-57.3	3.8	1.49e+00	0	62	104	1641021440	60	15776
2026-01-26 09:03:20.22	348.34	2.40	-44.9	-57.3	3.8	1.49e+00	0	62	104	1641021440	60	15761
2026-01-26 09:03:24.26	348.16	2.16	-44.9	-57.3	3.8	1.49e+00	0	62	104	1641021440	60	15793

#Closed at: 2026-01-26 09:03:27
#Recorded file [1641 MB]: D:/lorett/data/31039_260126_114951.dat