passes_logs/2026/01/26/R2.0S_Moscow/R2.0S_Moscow__20260126_052908_FENGYUN_3E_rec.log

#Pass ID: 20260126_052908_FENGYUN 3E
#Satellite: FENGYUN 3E
#Configuration: FENGYUN 3E
#almurnet v.1.7.20251203
#Start time: 2026-01-26 05:29:09

#Version: 2.2.20231116
#Station: R2.0S_Moscow
#Location: 37.707566 lon 55.798166 lat
#TLE: 1 49008U 21062A   26025.85775150 -.00000016  00000+0  13398-4 0  9990
#TLE: 2 49008  98.7498  30.8591 0002468 117.3618 242.7810 14.19886460236384

#Time	Az	El	Level	Level2	SNR	BER	BlckErr	Temp	State	Recorded	gain1	gain2
2026-01-26 05:29:09.05	10.55	2.02	-40.2	-50.9	3.8	8.47e-01	0	52	0	0	51	12025
2026-01-26 05:29:13.08	10.31	2.26	-40.2	-50.9	3.8	8.46e-01	0	53	104	0	51	12044
2026-01-26 05:29:17.12	10.06	2.49	-40.1	-50.9	3.8	8.45e-01	0	53	104	0	51	11994
2026-01-26 05:29:21.17	9.81	2.73	-40.1	-50.9	3.8	8.46e-01	0	53	104	0	51	11994
2026-01-26 05:29:25.21	9.56	2.97	-40.1	-50.9	3.8	8.46e-01	0	54	104	0	51	12019
2026-01-26 05:29:29.25	9.30	3.20	-40.1	-50.9	3.8	8.47e-01	0	54	104	0	51	12023
2026-01-26 05:29:33.29	9.03	3.44	-40.1	-50.9	3.8	8.46e-01	0	54	104	0	51	11996
2026-01-26 05:29:37.33	8.77	3.69	-40.1	-50.9	3.8	8.46e-01	0	54	104	0	51	12004
2026-01-26 05:29:41.37	8.49	3.93	-40.1	-50.9	3.8	8.44e-01	0	55	104	0	51	12028
2026-01-26 05:29:45.41	8.22	4.17	-40.1	-50.9	3.8	8.46e-01	0	55	104	0	51	12021
2026-01-26 05:29:49.45	7.93	4.42	-40.1	-50.9	3.8	8.47e-01	0	55	104	0	51	11992
2026-01-26 05:29:53.49	7.64	4.67	-40.1	-50.9	3.8	8.47e-01	0	55	104	0	51	12012
2026-01-26 05:29:57.54	7.35	4.92	-40.1	-50.9	3.8	8.46e-01	0	55	104	0	51	11987
2026-01-26 05:30:01.58	7.05	5.17	-40.1	-50.9	3.8	8.46e-01	0	56	104	0	51	12013
2026-01-26 05:30:05.62	6.75	5.42	-40.1	-50.9	3.8	8.47e-01	0	56	104	0	51	11987
2026-01-26 05:30:09.66	6.44	5.68	-40.1	-50.9	3.8	8.46e-01	0	56	104	0	51	11986
2026-01-26 05:30:13.70	6.12	5.93	-40.1	-50.9	3.8	8.46e-01	0	56	104	0	51	12026
2026-01-26 05:30:17.74	5.80	6.19	-40.1	-50.8	3.8	8.46e-01	0	57	104	0	51	11951
2026-01-26 05:30:21.77	5.47	6.45	-40.1	-50.8	3.8	8.47e-01	0	57	104	0	51	11950
2026-01-26 05:30:25.82	5.14	6.71	-40.1	-50.9	3.8	8.47e-01	0	57	104	0	51	11971
2026-01-26 05:30:29.86	4.80	6.97	-40.1	-50.9	3.8	8.47e-01	0	57	104	0	51	11967
2026-01-26 05:30:33.90	4.45	7.24	-40.1	-50.9	3.8	8.46e-01	0	57	104	0	51	11982
2026-01-26 05:30:37.94	4.10	7.50	-40.1	-50.8	3.8	8.46e-01	0	57	104	0	51	11932
2026-01-26 05:30:41.98	3.74	7.77	-40.1	-50.9	3.8	8.45e-01	0	57	104	0	51	11983
2026-01-26 05:30:46.02	3.37	8.04	-40.1	-50.9	3.8	8.45e-01	0	58	104	0	51	11956
2026-01-26 05:30:50.06	3.00	8.31	-40.4	-51.1	3.8	8.46e-01	0	58	104	0	51	12375
2026-01-26 05:30:54.10	2.62	8.59	-40.3	-51.1	3.8	8.46e-01	0	58	104	0	51	12305
2026-01-26 05:30:58.14	2.23	8.86	-40.3	-51.1	3.8	8.46e-01	0	58	104	0	51	12303
2026-01-26 05:31:02.18	1.83	9.14	-40.4	-51.1	3.8	8.45e-01	0	58	104	0	51	12292
2026-01-26 05:31:06.22	1.43	9.42	-40.3	-51.1	3.8	8.46e-01	0	58	104	0	51	12314
2026-01-26 05:31:10.26	1.01	9.70	-40.3	-51.1	3.8	8.45e-01	0	59	104	0	51	12240
2026-01-26 05:31:14.29	0.59	9.98	-40.3	-51.1	3.8	8.46e-01	0	59	104	0	51	12271
2026-01-26 05:31:18.34	0.16	10.26	-40.4	-51.2	3.8	8.46e-01	0	59	104	0	51	12385
2026-01-26 05:31:22.38	359.72	10.55	-40.5	-51.2	3.8	8.46e-01	0	59	104	0	51	12451
2026-01-26 05:31:26.42	359.28	10.83	-40.5	-51.2	3.8	8.48e-01	0	59	104	0	51	12403
2026-01-26 05:31:30.46	358.82	11.12	-40.5	-51.2	3.8	8.46e-01	0	59	104	0	51	12413
2026-01-26 05:31:34.50	358.36	11.41	-40.6	-51.3	3.8	8.44e-01	0	59	104	0	51	12610
2026-01-26 05:31:38.53	357.88	11.70	-40.3	-51.0	3.8	8.46e-01	0	59	104	0	51	12104
2026-01-26 05:31:42.57	357.40	12.00	-40.6	-50.0	3.8	8.38e-01	0	59	104	0	52	10271
2026-01-26 05:31:46.61	356.90	12.29	-39.0	-42.4	8.8	3.97e-02	0	59	0	16777216	49	5096
2026-01-26 05:31:50.65	356.39	12.59	-38.3	-41.5	9.4	1.43e-02	0	60	0	45088768	47	5142
2026-01-26 05:31:54.69	355.88	12.88	-40.3	-46.9	4.7	7.77e-01	0	59	0	68157440	50	7994
2026-01-26 05:31:58.73	355.35	13.18	-40.9	-51.5	3.8	8.46e-01	0	59	104	68157440	51	12955
2026-01-26 05:32:02.75	354.82	13.48	-40.8	-51.5	3.8	8.46e-01	0	60	104	68157440	52	12106
2026-01-26 05:32:06.80	354.26	13.78	-41.0	-51.7	3.8	8.46e-01	0	60	104	68157440	52	12488
2026-01-26 05:32:10.84	353.70	14.08	-40.7	-51.5	3.8	8.48e-01	0	60	104	68157440	52	12188
2026-01-26 05:32:14.88	353.13	14.39	-40.9	-51.8	3.8	8.46e-01	0	60	104	68157440	52	12524
2026-01-26 05:32:18.92	352.54	14.69	-41.1	-51.9	3.8	8.46e-01	0	60	104	68157440	52	12717
2026-01-26 05:32:22.96	351.95	14.99	-40.9	-51.7	3.8	8.46e-01	0	60	104	68157440	52	12474
2026-01-26 05:32:27.00	351.34	15.30	-41.0	-51.7	3.8	8.46e-01	0	60	104	68157440	52	12519
2026-01-26 05:32:31.04	350.71	15.61	-41.1	-51.9	3.8	8.46e-01	0	60	104	68157440	52	12739
2026-01-26 05:32:35.08	350.08	15.91	-41.2	-52.0	3.8	8.47e-01	0	60	104	68157440	52	12855
2026-01-26 05:32:39.12	349.43	16.22	-41.4	-52.2	3.8	8.47e-01	0	60	104	68157440	52	13236
2026-01-26 05:32:43.16	348.76	16.52	-41.4	-52.1	3.8	8.46e-01	0	60	104	68157440	52	13094
2026-01-26 05:32:47.20	348.09	16.83	-41.5	-52.4	3.8	8.45e-01	0	60	104	68157440	52	13495
2026-01-26 05:32:51.24	347.40	17.13	-41.7	-52.6	3.8	8.45e-01	0	61	104	68157440	53	13000
2026-01-26 05:32:55.28	346.69	17.44	-41.6	-52.5	3.8	8.47e-01	0	61	104	68157440	53	12880
2026-01-26 05:32:59.32	345.97	17.74	-41.4	-52.1	3.8	8.45e-01	0	61	104	68157440	53	12367
2026-01-26 05:33:03.36	345.23	18.05	-41.2	-52.1	3.8	8.46e-01	0	60	104	68157440	53	12255
2026-01-26 05:33:07.40	344.48	18.35	-41.1	-51.8	3.8	8.47e-01	0	61	104	68157440	53	11939
2026-01-26 05:33:11.44	343.72	18.65	-41.0	-51.6	3.8	8.45e-01	0	61	104	68157440	52	12357
2026-01-26 05:33:15.48	342.94	18.95	-41.1	-51.7	3.8	8.47e-01	0	61	104	68157440	52	12478
2026-01-26 05:33:19.52	342.14	19.24	-41.3	-51.8	3.8	8.46e-01	0	61	104	68157440	52	12628
2026-01-26 05:33:23.56	341.33	19.54	-41.6	-52.2	3.8	8.45e-01	0	61	104	68157440	52	13228
2026-01-26 05:33:27.60	340.50	19.83	-41.1	-51.2	3.8	8.47e-01	0	61	104	68157440	53	11081
2026-01-26 05:33:31.65	339.65	20.12	-40.7	-47.9	4.4	8.35e-01	0	61	0	68157440	52	8078
2026-01-26 05:33:35.69	338.79	20.40	-40.4	-44.8	7.0	1.96e-01	0	61	0	76546048	51	5984
2026-01-26 05:33:39.73	337.91	20.68	-37.9	-39.7	14.1	0.00e+00	0	61	0	105906176	45	4674
2026-01-26 05:33:43.77	337.02	20.96	-35.9	-37.2	17.0	0.00e+00	0	61	0	135266304	42	4164
2026-01-26 05:33:47.82	336.11	21.23	-35.8	-37.1	17.2	0.00e+00	0	61	0	164626432	42	4133
2026-01-26 05:33:51.86	335.18	21.50	-36.0	-37.3	17.2	0.00e+00	0	61	0	193986560	42	4210
2026-01-26 05:33:55.90	334.24	21.76	-35.7	-36.9	17.6	0.00e+00	0	61	0	223346688	42	4050
2026-01-26 05:33:59.94	333.28	22.02	-35.4	-36.6	18.0	0.00e+00	0	61	0	251658240	41	4115
2026-01-26 05:34:03.98	332.30	22.27	-35.1	-36.3	18.3	0.00e+00	0	61	0	281018368	41	3978
2026-01-26 05:34:08.02	331.31	22.51	-35.3	-36.4	18.2	0.00e+00	0	61	0	310378496	41	4034
2026-01-26 05:34:12.06	330.31	22.75	-35.7	-36.9	17.7	0.00e+00	0	61	0	339738624	41	4289
2026-01-26 05:34:16.10	329.28	22.98	-35.7	-36.9	17.8	0.00e+00	0	61	0	369098752	41	4273
2026-01-26 05:34:20.14	328.25	23.20	-35.4	-36.6	18.1	0.00e+00	0	61	0	397410304	41	4126
2026-01-26 05:34:24.19	327.19	23.41	-35.4	-36.6	18.2	0.00e+00	0	61	0	426770432	41	4099
2026-01-26 05:34:28.23	326.13	23.61	-35.4	-36.6	18.1	0.00e+00	0	61	0	456130560	41	4115
2026-01-26 05:34:32.27	325.05	23.81	-35.3	-36.5	18.2	0.00e+00	0	61	0	485490688	41	4055
2026-01-26 05:34:36.32	323.95	23.99	-35.0	-36.2	18.5	0.00e+00	0	61	0	514850816	41	3925
2026-01-26 05:34:40.36	322.85	24.17	-35.2	-36.4	18.3	0.00e+00	0	61	0	544210944	41	4023
2026-01-26 05:34:44.40	321.73	24.33	-35.3	-36.5	18.2	0.00e+00	0	61	0	572522496	41	4065
2026-01-26 05:34:48.44	320.60	24.48	-35.4	-36.6	18.2	0.00e+00	0	61	0	601882624	41	4105
2026-01-26 05:34:52.48	319.46	24.62	-35.2	-36.4	18.3	0.00e+00	0	62	0	631242752	41	4026
2026-01-26 05:34:56.52	318.31	24.75	-35.2	-36.4	18.3	0.00e+00	0	61	0	660602880	41	4011
2026-01-26 05:35:00.56	317.15	24.87	-35.2	-36.4	18.3	0.00e+00	0	61	0	689963008	41	4030
2026-01-26 05:35:04.60	315.98	24.98	-35.2	-36.4	18.3	0.00e+00	0	61	0	719323136	41	4030
2026-01-26 05:35:08.64	314.80	25.07	-35.1	-36.3	18.4	0.00e+00	0	62	0	747634688	41	3970
2026-01-26 05:35:12.69	313.62	25.15	-35.2	-36.4	18.3	0.00e+00	0	62	0	776994816	41	4029
2026-01-26 05:35:16.73	312.43	25.22	-35.2	-36.3	18.3	0.00e+00	0	61	0	806354944	41	4003
2026-01-26 05:35:20.77	311.24	25.27	-34.9	-36.0	18.7	0.00e+00	0	62	0	835715072	40	4076
2026-01-26 05:35:24.81	310.04	25.31	-35.0	-36.1	18.5	0.00e+00	0	62	0	865075200	40	4143
2026-01-26 05:35:28.86	308.84	25.33	-35.1	-36.2	18.5	0.00e+00	0	62	0	894435328	40	4184
2026-01-26 05:35:32.90	307.64	25.35	-35.1	-36.3	18.4	0.00e+00	0	61	0	922746880	40	4203
2026-01-26 05:35:36.94	306.44	25.35	-35.1	-36.3	18.4	0.00e+00	0	61	0	952107008	40	4208
2026-01-26 05:35:40.98	305.24	25.33	-35.2	-36.3	18.3	0.00e+00	0	61	0	981467136	40	4233
2026-01-26 05:35:45.03	304.04	25.30	-35.1	-36.3	18.4	0.00e+00	0	61	0	1010827264	40	4211
2026-01-26 05:35:49.07	302.84	25.26	-35.1	-36.3	18.4	0.00e+00	0	62	0	1040187392	40	4221
2026-01-26 05:35:53.11	301.65	25.20	-35.1	-36.2	18.5	0.00e+00	0	61	0	1069547520	40	4178
2026-01-26 05:35:57.15	300.46	25.13	-35.0	-36.2	18.5	0.00e+00	0	62	0	1098907648	40	4151
2026-01-26 05:36:01.19	299.28	25.05	-35.1	-36.2	18.5	0.00e+00	0	62	0	1127219200	40	4173
2026-01-26 05:36:05.24	298.10	24.96	-35.0	-36.1	18.5	0.00e+00	0	61	0	1156579328	40	4136
2026-01-26 05:36:09.28	296.93	24.85	-34.9	-36.1	18.6	0.00e+00	0	62	0	1185939456	40	4108
2026-01-26 05:36:13.31	295.78	24.73	-35.0	-36.2	18.5	0.00e+00	0	62	0	1215299584	40	4152
2026-01-26 05:36:17.35	294.63	24.59	-35.2	-36.4	18.3	0.00e+00	0	62	0	1244659712	40	4245
2026-01-26 05:36:21.39	293.49	24.45	-35.0	-36.2	18.5	0.00e+00	0	62	0	1272971264	40	4151
2026-01-26 05:36:25.44	292.35	24.29	-35.2	-36.4	18.3	0.00e+00	0	62	0	1302331392	40	4254
2026-01-26 05:36:29.48	291.24	24.13	-35.2	-36.4	18.3	0.00e+00	0	62	0	1331691520	40	4261
2026-01-26 05:36:33.52	290.13	23.95	-35.1	-36.2	18.4	0.00e+00	0	62	0	1361051648	40	4190
2026-01-26 05:36:37.56	289.04	23.76	-35.5	-36.7	18.0	0.00e+00	0	62	0	1390411776	40	4393
2026-01-26 05:36:41.60	287.96	23.57	-35.1	-36.2	18.4	0.00e+00	0	62	0	1419771904	40	4180
2026-01-26 05:36:45.65	286.89	23.36	-35.2	-36.4	18.2	0.00e+00	0	61	0	1448083456	40	4269
2026-01-26 05:36:49.69	285.84	23.15	-35.1	-36.3	18.4	0.00e+00	0	62	0	1477443584	40	4206
2026-01-26 05:36:53.73	284.80	22.92	-35.3	-36.5	18.1	0.00e+00	0	62	0	1506803712	40	4303
2026-01-26 05:36:57.78	283.77	22.69	-35.4	-36.6	18.0	0.00e+00	0	62	0	1536163840	40	4354
2026-01-26 05:37:01.82	282.77	22.45	-35.1	-36.3	18.3	0.00e+00	0	62	0	1565523968	40	4215
2026-01-26 05:37:05.86	281.78	22.21	-35.2	-36.4	18.2	0.00e+00	0	62	0	1594884096	40	4261
2026-01-26 05:37:09.90	280.80	21.95	-35.3	-36.5	18.1	0.00e+00	0	62	0	1623195648	40	4315
2026-01-26 05:37:13.94	279.84	21.70	-35.3	-36.5	18.1	0.00e+00	0	62	0	1652555776	40	4318
2026-01-26 05:37:17.98	278.90	21.43	-35.2	-36.4	18.2	0.00e+00	0	62	0	1681915904	40	4243
2026-01-26 05:37:22.02	277.97	21.16	-35.3	-36.5	18.1	0.00e+00	0	62	0	1711276032	40	4334
2026-01-26 05:37:26.06	277.06	20.89	-35.4	-36.6	18.0	0.00e+00	0	62	0	1740636160	40	4368
2026-01-26 05:37:30.10	276.17	20.61	-35.6	-36.8	17.8	0.00e+00	0	62	0	1768947712	40	4453
2026-01-26 05:37:34.14	275.29	20.33	-35.6	-36.8	17.8	0.00e+00	0	62	0	1798307840	40	4445
2026-01-26 05:37:38.19	274.43	20.04	-35.6	-36.9	17.7	0.00e+00	0	62	0	1827667968	40	4500
2026-01-26 05:37:42.22	273.58	19.75	-35.9	-37.1	17.4	0.00e+00	0	62	0	1857028096	41	4386
2026-01-26 05:37:46.26	272.75	19.46	-35.7	-36.9	17.6	0.00e+00	0	62	0	1886388224	41	4276
2026-01-26 05:37:50.31	271.94	19.16	-35.8	-37.0	17.5	0.00e+00	0	62	0	1915748352	41	4335
2026-01-26 05:37:54.35	271.14	18.86	-35.7	-37.0	17.5	0.00e+00	0	62	0	1944059904	41	4306
2026-01-26 05:37:58.39	270.36	18.56	-35.9	-37.2	17.3	0.00e+00	0	62	0	1973420032	41	4412
2026-01-26 05:38:02.43	269.59	18.26	-36.0	-37.3	17.2	0.00e+00	0	62	0	2002780160	41	4470
2026-01-26 05:38:06.48	268.84	17.96	-35.9	-37.2	17.2	0.00e+00	0	62	0	2032140288	41	4417
2026-01-26 05:38:10.52	268.10	17.65	-36.1	-37.4	17.1	0.00e+00	0	62	0	2061500416	41	4524
2026-01-26 05:38:14.56	267.38	17.35	-36.4	-37.8	16.7	0.00e+00	0	61	0	2089811968	42	4444
2026-01-26 05:38:18.59	266.67	17.04	-36.4	-37.8	16.7	0.00e+00	0	62	0	2119172096	42	4450
2026-01-26 05:38:22.64	265.98	16.73	-36.6	-38.1	16.4	0.00e+00	0	62	0	2148532224	42	4602
2026-01-26 05:38:26.68	265.30	16.43	-36.7	-38.1	16.4	0.00e+00	0	62	0	2177892352	43	4365
2026-01-26 05:38:30.72	264.64	16.12	-36.6	-38.0	16.4	0.00e+00	0	62	0	2207252480	43	4323
2026-01-26 05:38:34.76	263.99	15.81	-36.7	-38.2	16.2	0.00e+00	0	62	0	2236612608	43	4400
2026-01-26 05:38:38.80	263.35	15.50	-36.7	-38.1	16.3	0.00e+00	0	62	0	2264924160	43	4382
2026-01-26 05:38:42.85	262.72	15.20	-36.8	-38.2	16.2	0.00e+00	0	62	0	2294284288	43	4410
2026-01-26 05:38:46.89	262.11	14.89	-37.1	-38.6	15.8	0.00e+00	0	62	0	2323644416	43	4605
2026-01-26 05:38:50.93	261.51	14.59	-37.2	-38.7	15.7	0.00e+00	0	62	0	2353004544	43	4675
2026-01-26 05:38:54.97	260.92	14.28	-37.2	-38.7	15.7	0.00e+00	0	62	0	2382364672	43	4666
2026-01-26 05:38:59.01	260.35	13.98	-37.2	-38.7	15.6	0.00e+00	0	62	0	2410676224	43	4666
2026-01-26 05:39:03.05	259.79	13.67	-37.2	-38.7	15.6	0.00e+00	0	62	0	2440036352	43	4683
2026-01-26 05:39:07.08	259.24	13.37	-37.4	-39.0	15.5	0.00e+00	0	62	0	2469396480	44	4562
2026-01-26 05:39:11.13	258.70	13.07	-37.6	-39.2	15.2	0.00e+00	0	62	0	2498756608	44	4696
2026-01-26 05:39:15.17	258.17	12.77	-38.0	-39.7	14.7	0.00e+00	0	62	0	2528116736	45	4660
2026-01-26 05:39:19.21	257.65	12.47	-37.7	-39.4	15.0	0.00e+00	0	62	0	2557476864	45	4494
2026-01-26 05:39:23.26	257.14	12.18	-37.4	-38.9	15.4	0.00e+00	0	62	0	2585788416	45	4275
2026-01-26 05:39:27.30	256.64	11.88	-37.7	-39.3	15.0	0.00e+00	0	62	0	2615148544	45	4490
2026-01-26 05:39:31.34	256.15	11.59	-38.2	-40.0	14.3	0.00e+00	0	62	0	2644508672	45	4829
2026-01-26 05:39:35.38	255.68	11.30	-38.1	-39.8	14.5	0.00e+00	0	62	0	2673868800	46	4486
2026-01-26 05:39:39.41	255.21	11.01	-37.9	-39.6	14.7	0.00e+00	0	62	0	2703228928	46	4357
2026-01-26 05:39:43.45	254.75	10.72	-37.8	-39.5	14.8	0.00e+00	0	62	0	2731540480	46	4307
2026-01-26 05:39:47.49	254.30	10.43	-37.8	-39.5	14.8	0.00e+00	0	62	0	2760900608	46	4307
2026-01-26 05:39:51.54	253.86	10.14	-37.9	-39.6	14.6	0.00e+00	0	62	0	2790260736	46	4378
2026-01-26 05:39:55.58	253.43	9.86	-38.0	-39.7	14.5	0.00e+00	0	62	0	2819620864	46	4413
2026-01-26 05:39:59.62	253.00	9.58	-38.2	-40.0	14.2	1.10e-06	0	62	0	2848980992	46	4573
2026-01-26 05:40:03.66	252.59	9.29	-38.3	-40.1	14.1	2.20e-06	0	62	0	2878341120	46	4636
2026-01-26 05:40:07.70	252.18	9.02	-38.4	-40.3	13.8	4.50e-06	0	62	0	2906652672	46	4742
2026-01-26 05:40:11.74	251.78	8.74	-38.5	-40.4	13.7	2.20e-06	0	62	0	2936012800	46	4798
2026-01-26 05:40:15.79	251.39	8.46	-38.5	-40.4	13.7	5.70e-06	0	62	0	2965372928	46	4777
2026-01-26 05:40:19.82	251.01	8.19	-38.3	-40.1	13.9	1.10e-06	0	62	0	2994733056	46	4645
2026-01-26 05:40:23.86	250.63	7.92	-45.0	-56.0	3.8	8.46e-01	0	62	104	3015704576	59	13654
2026-01-26 05:40:27.91	250.26	7.65	-45.3	-56.7	3.8	8.46e-01	0	62	104	3015704576	60	13922
2026-01-26 05:40:31.95	249.90	7.38	-45.4	-56.8	3.8	8.46e-01	0	62	104	3015704576	60	14126
2026-01-26 05:40:35.99	249.54	7.11	-45.3	-56.7	3.8	8.46e-01	0	62	104	3015704576	60	13935
2026-01-26 05:40:40.03	249.19	6.85	-45.3	-56.7	3.8	8.47e-01	0	62	104	3015704576	60	13886
2026-01-26 05:40:44.07	248.85	6.58	-45.2	-56.6	3.8	8.47e-01	0	62	104	3015704576	60	13778
2026-01-26 05:40:48.11	248.51	6.32	-45.2	-56.5	3.8	8.46e-01	0	62	104	3015704576	60	13691
2026-01-26 05:40:52.15	248.18	6.06	-45.2	-56.6	3.8	8.46e-01	0	62	104	3015704576	60	13734
2026-01-26 05:40:56.19	247.86	5.80	-45.2	-56.5	3.8	8.47e-01	0	62	104	3015704576	60	13721
2026-01-26 05:41:00.23	247.54	5.55	-45.2	-56.6	3.8	8.47e-01	0	62	104	3015704576	60	13745
2026-01-26 05:41:04.27	247.23	5.29	-45.1	-56.5	3.8	8.46e-01	0	62	104	3015704576	60	13716
2026-01-26 05:41:08.31	246.92	5.04	-45.2	-56.5	3.8	8.46e-01	0	62	104	3015704576	60	13693
2026-01-26 05:41:12.36	246.62	4.79	-45.2	-56.5	3.8	8.47e-01	0	62	104	3015704576	60	13674
2026-01-26 05:41:16.40	246.32	4.54	-45.2	-56.6	3.8	8.46e-01	0	62	104	3015704576	60	13766
2026-01-26 05:41:20.44	246.03	4.29	-45.2	-56.5	3.8	8.46e-01	0	62	104	3015704576	60	13720
2026-01-26 05:41:24.48	245.74	4.04	-45.2	-56.5	3.8	8.46e-01	0	62	104	3015704576	60	13656
2026-01-26 05:41:28.52	245.46	3.80	-45.2	-56.5	3.8	8.47e-01	0	62	104	3015704576	60	13695
2026-01-26 05:41:32.56	245.18	3.55	-45.2	-56.5	3.8	8.45e-01	0	62	104	3015704576	60	13715
2026-01-26 05:41:36.60	244.91	3.31	-45.2	-56.5	3.8	8.46e-01	0	62	104	3015704576	60	13662
2026-01-26 05:41:40.64	244.64	3.07	-45.2	-56.5	3.8	8.45e-01	0	62	104	3015704576	60	13706
2026-01-26 05:41:44.68	244.38	2.83	-45.1	-56.5	3.8	8.45e-01	0	62	104	3015704576	60	13662
2026-01-26 05:41:48.72	244.12	2.59	-45.0	-56.3	3.8	8.46e-01	0	62	104	3015704576	59	14067
2026-01-26 05:41:52.76	243.87	2.36	-44.8	-56.3	3.8	8.46e-01	0	62	104	3015704576	59	14131
2026-01-26 05:41:56.80	243.62	2.12	-44.6	-56.3	3.8	8.47e-01	0	62	104	3015704576	59	14052

#Closed at: 2026-01-26 05:41:59
#Recorded file [3015 MB]: D:/lorett/data/31039_260126_082908.dat