passes_logs/2026/01/26/R2.0S_Moscow/R2.0S_Moscow__20260126_003859_NOAA_21_JPSS-2_rec.log

#Pass ID: 20260126_003859_NOAA 21 (JPSS-2)
#Satellite: NOAA 21 (JPSS-2)
#Configuration: NOAA-21
#almurnet v.1.7.20251203
#Start time: 2026-01-26 00:39:04

#Version: 2.2.20231116
#Station: R2.0S_Moscow
#Location: 37.707566 lon 55.798166 lat
#TLE: 1 54234U 22150A   26025.44451686  .00000186  00000+0  10896-3 0  9992
#TLE: 2 54234  98.7509 326.2184 0000763 215.1852 144.9274 14.19539183166293

#Time	Az	El	Level	Level2	SNR	BER	BlckErr	Temp	State	Recorded	gain1	gain2
2026-01-26 00:39:04.31	12.17	2.32	-45.6	-58.1	3.8	1.49e+00	0	62	0	0	61	16319
2026-01-26 00:39:08.34	12.01	2.57	-44.5	-57.0	3.8	1.49e+00	0	62	104	0	61	14437
2026-01-26 00:39:12.39	11.85	2.82	-40.0	-52.3	3.8	1.49e+00	0	62	104	0	52	14100
2026-01-26 00:39:16.43	11.69	3.08	-40.1	-52.4	3.8	1.49e+00	0	62	104	0	51	15120
2026-01-26 00:39:20.48	11.52	3.33	-40.0	-52.3	3.8	1.49e+00	0	62	104	0	51	15013
2026-01-26 00:39:24.52	11.35	3.59	-40.0	-52.3	3.8	1.49e+00	0	62	104	0	51	14929
2026-01-26 00:39:28.56	11.18	3.86	-40.0	-52.3	3.8	1.49e+00	0	62	104	0	51	15031
2026-01-26 00:39:32.60	11.00	4.12	-40.0	-52.3	3.8	1.49e+00	0	62	104	0	51	15008
2026-01-26 00:39:36.64	10.82	4.39	-40.0	-52.3	3.8	1.49e+00	0	62	104	0	51	14974
2026-01-26 00:39:40.68	10.64	4.65	-40.0	-52.3	3.8	1.49e+00	0	62	104	0	51	14963
2026-01-26 00:39:44.73	10.45	4.92	-40.0	-52.3	3.8	1.49e+00	0	62	104	0	51	14961
2026-01-26 00:39:48.77	10.26	5.20	-40.0	-52.3	3.8	1.49e+00	0	62	104	0	51	14939
2026-01-26 00:39:52.81	10.07	5.47	-40.0	-52.3	3.8	1.49e+00	0	62	104	0	51	14978
2026-01-26 00:39:56.85	9.87	5.75	-40.0	-52.3	3.8	1.49e+00	0	62	104	0	51	14952
2026-01-26 00:40:00.89	9.66	6.03	-40.0	-52.3	3.8	1.49e+00	0	62	104	0	51	14909
2026-01-26 00:40:04.93	9.46	6.32	-40.0	-52.3	3.8	1.49e+00	0	62	104	0	51	14907
2026-01-26 00:40:08.97	9.24	6.60	-40.0	-52.3	3.8	1.49e+00	0	62	104	0	51	14916
2026-01-26 00:40:13.00	9.03	6.89	-40.0	-52.3	3.8	1.49e+00	0	62	104	0	51	14907
2026-01-26 00:40:17.04	8.81	7.18	-40.0	-52.3	3.8	1.49e+00	0	62	104	0	51	14928
2026-01-26 00:40:21.08	8.58	7.48	-40.0	-52.3	3.8	1.49e+00	0	62	104	0	51	14959
2026-01-26 00:40:25.12	8.35	7.78	-40.0	-52.3	3.8	1.49e+00	0	62	104	0	51	14899
2026-01-26 00:40:29.16	8.11	8.08	-40.0	-52.3	3.8	1.49e+00	0	62	104	0	51	14900
2026-01-26 00:40:33.20	7.87	8.38	-40.2	-52.5	3.8	1.49e+00	0	62	104	0	51	15369
2026-01-26 00:40:37.24	7.63	8.69	-40.2	-52.5	3.8	1.49e+00	0	62	104	0	51	15254
2026-01-26 00:40:41.27	7.37	9.00	-40.2	-52.5	3.8	1.49e+00	0	62	104	0	51	15256
2026-01-26 00:40:45.31	7.12	9.31	-40.2	-52.5	3.8	1.49e+00	0	62	104	0	51	15385
2026-01-26 00:40:49.35	6.85	9.63	-40.3	-52.6	3.8	1.49e+00	0	62	104	0	51	15472
2026-01-26 00:40:53.39	6.58	9.95	-39.8	-52.1	3.8	1.49e+00	0	62	104	0	51	14670
2026-01-26 00:40:57.43	6.30	10.27	-40.1	-52.4	3.8	1.49e+00	0	62	104	0	51	15206
2026-01-26 00:41:01.46	6.02	10.60	-40.1	-52.4	3.8	1.49e+00	0	62	104	0	51	15097
2026-01-26 00:41:05.50	5.73	10.93	-40.3	-52.5	3.8	1.49e+00	0	62	104	0	52	14400
2026-01-26 00:41:09.54	5.43	11.27	-40.4	-52.6	3.8	1.49e+00	0	62	104	0	51	15545
2026-01-26 00:41:13.58	5.13	11.61	-40.7	-52.5	3.8	1.47e+00	0	62	104	0	53	13665
2026-01-26 00:41:17.62	4.82	11.95	-40.6	-48.8	4.0	1.26e+00	0	62	104	1048576	53	8889
2026-01-26 00:41:21.66	4.50	12.30	-40.8	-50.8	3.9	8.01e-01	0	62	104	3145728	53	11181
2026-01-26 00:41:25.70	4.17	12.65	-40.8	-47.8	5.3	5.86e-01	0	62	0	6291456	53	7927
2026-01-26 00:41:29.74	3.83	13.00	-41.2	-48.1	5.4	5.41e-01	0	62	0	18874368	53	8258
2026-01-26 00:41:33.78	3.49	13.36	-40.6	-48.4	4.9	2.86e-01	0	62	0	26214400	52	9017
2026-01-26 00:41:37.82	3.13	13.73	-38.8	-41.9	11.4	9.09e-04	0	62	0	36700160	49	5060
2026-01-26 00:41:41.86	2.77	14.10	-39.4	-42.5	11.1	1.39e-03	0	62	0	49283072	49	5464
2026-01-26 00:41:45.90	2.40	14.47	-39.6	-42.6	11.4	1.09e-03	0	62	0	61865984	50	5200
2026-01-26 00:41:49.94	2.02	14.84	-39.4	-42.1	12.3	1.58e-04	0	62	0	74448896	50	4899
2026-01-26 00:41:53.98	1.62	15.23	-39.6	-42.2	12.6	8.08e-05	0	62	0	87031808	50	4933
2026-01-26 00:41:58.02	1.22	15.61	-39.6	-42.2	12.7	8.85e-05	0	62	0	99614720	50	4939
2026-01-26 00:42:02.06	0.81	16.00	-39.8	-42.5	12.4	1.39e-04	0	62	0	112197632	50	5122
2026-01-26 00:42:06.10	0.38	16.40	-39.8	-42.5	12.4	1.50e-04	0	62	0	124780544	50	5132
2026-01-26 00:42:10.14	359.94	16.80	-39.7	-42.3	12.6	1.13e-04	0	62	0	137363456	50	5016
2026-01-26 00:42:14.18	359.49	17.20	-39.8	-42.4	12.6	8.92e-05	0	62	0	149946368	50	5078
2026-01-26 00:42:18.22	359.03	17.61	-39.9	-42.5	12.5	1.17e-04	0	62	0	162529280	50	5151
2026-01-26 00:42:22.26	358.56	18.03	-40.0	-42.8	12.2	1.76e-04	0	62	0	175112192	50	5295
2026-01-26 00:42:26.30	358.07	18.45	-40.0	-42.7	12.2	2.28e-04	0	62	0	187695104	50	5276
2026-01-26 00:42:30.34	357.56	18.87	-39.4	-42.0	12.7	8.31e-05	0	62	0	200278016	50	4823
2026-01-26 00:42:34.39	357.04	19.31	-39.3	-41.9	12.5	1.07e-04	0	62	0	212860928	50	4793
2026-01-26 00:42:38.42	356.51	19.74	-39.9	-43.2	10.9	1.59e-03	0	62	0	225443840	50	5573
2026-01-26 00:42:42.46	355.96	20.18	-40.2	-43.8	10.1	7.14e-03	0	62	0	238026752	51	5649
2026-01-26 00:42:46.50	355.40	20.62	-40.0	-43.3	10.9	2.20e-03	0	62	0	250609664	51	5313
2026-01-26 00:42:50.54	354.81	21.07	-38.6	-41.0	13.1	5.49e-05	0	62	0	263192576	49	4592
2026-01-26 00:42:54.58	354.21	21.53	-38.4	-40.8	13.3	1.22e-05	0	62	0	275775488	48	4710
2026-01-26 00:42:58.62	353.59	21.99	-38.4	-40.7	13.5	1.83e-05	0	62	0	288358400	48	4696
2026-01-26 00:43:02.67	352.96	22.45	-38.3	-40.4	14.1	1.50e-06	0	62	0	300941312	48	4541
2026-01-26 00:43:06.70	352.30	22.92	-38.8	-41.1	13.8	6.80e-06	0	62	0	313524224	48	4872
2026-01-26 00:43:10.74	351.62	23.39	-38.8	-41.0	14.1	1.50e-06	0	62	0	326107136	48	4826
2026-01-26 00:43:14.78	350.92	23.87	-38.9	-41.0	14.2	7.00e-07	0	62	0	339738624	48	4836
2026-01-26 00:43:18.82	350.20	24.35	-39.0	-41.2	14.1	1.50e-06	0	62	0	352321536	48	4939
2026-01-26 00:43:22.86	349.45	24.84	-39.3	-41.5	13.9	3.80e-06	0	62	0	364904448	49	4836
2026-01-26 00:43:26.90	348.69	25.32	-39.4	-41.7	13.7	7.60e-06	0	62	0	377487360	49	4966
2026-01-26 00:43:30.95	347.89	25.82	-39.5	-41.7	13.7	3.00e-06	0	62	0	390070272	49	4961
2026-01-26 00:43:34.99	347.07	26.31	-40.0	-42.5	13.1	2.28e-05	0	62	0	402653184	50	5108
2026-01-26 00:43:39.03	346.23	26.81	-40.3	-42.9	12.8	6.10e-05	0	62	0	415236096	51	5063
2026-01-26 00:43:43.07	345.35	27.31	-39.7	-42.0	13.7	5.30e-06	0	62	0	427819008	50	4825
2026-01-26 00:43:47.11	344.45	27.81	-39.8	-42.2	13.6	8.30e-06	0	62	0	440401920	50	4935
2026-01-26 00:43:51.16	343.52	28.31	-39.6	-41.7	14.1	3.00e-06	0	62	0	452984832	50	4680
2026-01-26 00:43:55.20	342.56	28.81	-39.9	-42.2	13.6	3.80e-06	0	62	0	465567744	50	4930
2026-01-26 00:43:59.24	341.57	29.31	-39.7	-41.8	14.0	3.00e-06	0	62	0	478150656	50	4754
2026-01-26 00:44:03.28	340.55	29.81	-39.7	-41.9	13.9	2.20e-06	0	62	0	490733568	50	4795
2026-01-26 00:44:07.32	339.49	30.31	-39.7	-41.8	14.0	1.50e-06	0	62	0	503316480	50	4744
2026-01-26 00:44:11.36	338.41	30.81	-39.7	-41.9	14.0	1.50e-06	0	62	0	515899392	50	4772
2026-01-26 00:44:15.41	337.28	31.30	-39.7	-41.9	14.1	3.00e-06	0	62	0	528482304	50	4770
2026-01-26 00:44:19.44	336.13	31.79	-39.9	-42.2	13.8	5.30e-06	0	62	0	541065216	50	4936
2026-01-26 00:44:23.48	334.93	32.27	-40.2	-42.6	13.4	1.52e-05	0	62	0	553648128	50	5160
2026-01-26 00:44:27.51	333.71	32.75	-40.1	-42.4	13.6	9.90e-06	0	62	0	566231040	51	4766
2026-01-26 00:44:31.55	332.44	33.21	-39.9	-42.1	13.9	3.80e-06	0	62	0	578813952	51	4618
2026-01-26 00:44:35.59	331.14	33.67	-40.0	-42.2	13.7	4.50e-06	0	62	0	591396864	51	4698
2026-01-26 00:44:39.63	329.80	34.12	-40.3	-42.6	13.3	2.13e-05	0	62	0	603979776	51	4923
2026-01-26 00:44:43.67	328.42	34.55	-40.2	-42.6	13.4	1.67e-05	0	62	0	616562688	51	4885
2026-01-26 00:44:47.72	327.00	34.98	-40.5	-42.9	13.1	2.51e-05	0	62	0	630194176	51	5073
2026-01-26 00:44:51.76	325.55	35.38	-40.5	-43.0	13.0	4.57e-05	0	62	0	641728512	51	5101
2026-01-26 00:44:55.80	324.07	35.77	-40.3	-42.7	13.3	2.59e-05	0	62	0	655360000	51	4941
2026-01-26 00:44:59.84	322.54	36.15	-40.3	-42.7	13.2	1.90e-05	0	62	0	667942912	51	4978
2026-01-26 00:45:03.88	320.99	36.50	-40.3	-42.6	13.3	1.83e-05	0	62	0	680525824	51	4922
2026-01-26 00:45:07.92	319.39	36.83	-40.5	-42.9	13.0	3.35e-05	0	62	0	693108736	51	5087
2026-01-26 00:45:11.96	317.77	37.14	-40.7	-43.3	12.5	9.38e-05	0	62	0	705691648	52	4998
2026-01-26 00:45:16.00	316.12	37.43	-41.0	-43.8	12.0	2.92e-04	0	62	0	718274560	52	5325
2026-01-26 00:45:20.04	314.44	37.69	-41.0	-43.7	12.1	2.53e-04	0	62	0	730857472	52	5276
2026-01-26 00:45:24.08	312.73	37.92	-41.0	-43.7	12.1	2.39e-04	0	62	0	743440384	52	5279
2026-01-26 00:45:28.12	311.00	38.12	-40.7	-43.4	12.5	1.35e-04	0	62	0	756023296	52	5044
2026-01-26 00:45:32.16	309.25	38.30	-40.6	-43.2	12.7	8.69e-05	0	62	0	768606208	52	4950
2026-01-26 00:45:36.21	307.47	38.45	-40.7	-43.3	12.6	1.09e-04	0	62	0	781189120	52	5014
2026-01-26 00:45:40.25	305.69	38.56	-40.6	-43.2	12.6	8.23e-05	0	62	0	793772032	52	4962
2026-01-26 00:45:44.29	303.90	38.65	-41.0	-43.9	12.0	3.25e-04	0	62	0	806354944	52	5351
2026-01-26 00:45:48.33	302.09	38.70	-40.9	-43.6	12.3	1.88e-04	0	62	0	818937856	52	5183
2026-01-26 00:45:52.37	300.29	38.72	-40.8	-43.5	12.4	1.30e-04	0	62	0	831520768	52	5120
2026-01-26 00:45:56.41	298.48	38.70	-41.1	-43.9	12.0	2.95e-04	0	62	0	844103680	52	5361
2026-01-26 00:46:00.45	296.68	38.66	-41.0	-43.8	12.0	2.97e-04	0	62	0	856686592	52	5325
2026-01-26 00:46:04.49	294.88	38.58	-40.9	-43.6	12.2	2.39e-04	0	62	0	869269504	52	5212
2026-01-26 00:46:08.53	293.09	38.47	-40.8	-43.5	12.3	1.61e-04	0	62	0	881852416	52	5147
2026-01-26 00:46:12.57	291.32	38.33	-40.9	-43.7	12.2	2.50e-04	0	62	0	894435328	52	5221
2026-01-26 00:46:16.62	289.55	38.16	-40.5	-43.0	12.9	5.56e-05	0	62	0	908066816	52	4861
2026-01-26 00:46:20.66	287.82	37.96	-40.4	-42.8	13.1	3.89e-05	0	62	0	919601152	52	4731
2026-01-26 00:46:24.70	286.10	37.73	-40.4	-42.9	13.0	4.11e-05	0	62	0	932184064	52	4778
2026-01-26 00:46:28.74	284.41	37.48	-40.7	-43.3	12.5	1.20e-04	0	62	0	945815552	52	5034
2026-01-26 00:46:32.78	282.75	37.20	-41.0	-43.8	12.1	2.75e-04	0	62	0	958398464	52	5309
2026-01-26 00:46:36.82	281.12	36.89	-40.7	-43.4	12.5	1.24e-04	0	62	0	970981376	52	5044
2026-01-26 00:46:40.87	279.51	36.56	-40.3	-42.8	13.1	3.43e-05	0	62	0	983564288	52	4720
2026-01-26 00:46:44.90	277.95	36.21	-40.4	-42.9	13.0	5.95e-05	0	62	0	996147200	52	4768
2026-01-26 00:46:48.94	276.41	35.84	-40.0	-42.3	13.6	9.90e-06	0	62	0	1008730112	51	4718
2026-01-26 00:46:52.98	274.91	35.46	-40.5	-43.0	12.9	3.28e-05	0	62	0	1021313024	51	5151
2026-01-26 00:46:57.01	273.46	35.05	-40.1	-42.5	13.4	1.60e-05	0	62	0	1033895936	51	4830
2026-01-26 00:47:01.05	272.03	34.63	-40.1	-42.5	13.5	1.06e-05	0	62	0	1046478848	51	4822
2026-01-26 00:47:05.09	270.64	34.20	-40.4	-42.9	12.9	3.28e-05	0	62	0	1059061760	51	5051
2026-01-26 00:47:09.12	269.29	33.75	-40.4	-42.9	13.0	4.04e-05	0	62	0	1071644672	51	5042
2026-01-26 00:47:13.15	267.98	33.30	-39.9	-42.1	13.8	3.00e-06	0	62	0	1084227584	51	4625
2026-01-26 00:47:17.20	266.70	32.83	-39.8	-42.0	13.9	3.80e-06	0	62	0	1096810496	51	4592
2026-01-26 00:47:21.23	265.46	32.35	-40.0	-42.3	13.5	9.10e-06	0	62	0	1109393408	51	4728
2026-01-26 00:47:25.27	264.25	31.87	-39.2	-41.1	14.7	0.00e+00	0	62	0	1121976320	50	4388
2026-01-26 00:47:29.31	263.08	31.38	-39.6	-41.8	14.0	4.50e-06	0	62	0	1134559232	50	4729
2026-01-26 00:47:33.35	261.95	30.89	-39.5	-41.6	14.1	7.00e-07	0	62	0	1147142144	50	4639
2026-01-26 00:47:37.39	260.85	30.39	-40.2	-42.6	13.3	7.60e-06	0	62	0	1159725056	50	5163
2026-01-26 00:47:41.43	259.78	29.89	-39.7	-41.9	13.9	7.60e-06	0	62	0	1172307968	50	4765
2026-01-26 00:47:45.47	258.75	29.39	-39.3	-41.3	14.5	7.00e-07	0	62	0	1184890880	50	4456
2026-01-26 00:47:49.51	257.75	28.88	-39.6	-41.7	14.1	1.50e-06	0	62	0	1197473792	50	4696
2026-01-26 00:47:53.55	256.78	28.38	-39.1	-41.1	14.7	0.00e+00	0	62	0	1210056704	50	4360
2026-01-26 00:47:57.58	255.84	27.88	-39.1	-41.1	14.7	0.00e+00	0	62	0	1222639616	50	4359
2026-01-26 00:48:01.62	254.93	27.37	-39.1	-41.0	14.8	0.00e+00	0	62	0	1235222528	50	4329
2026-01-26 00:48:05.66	254.04	26.87	-39.3	-41.4	14.4	1.50e-06	0	62	0	1247805440	50	4508
2026-01-26 00:48:09.70	253.19	26.37	-39.8	-42.0	13.8	6.80e-06	0	62	0	1260388352	50	4851
2026-01-26 00:48:13.73	252.36	25.87	-39.1	-41.1	14.6	0.00e+00	0	62	0	1272971264	50	4381
2026-01-26 00:48:17.77	251.56	25.38	-39.4	-41.6	14.2	1.50e-06	0	62	0	1286602752	50	4600
2026-01-26 00:48:21.81	250.78	24.89	-39.4	-41.5	14.3	1.50e-06	0	62	0	1299185664	50	4564
2026-01-26 00:48:25.85	250.03	24.40	-39.1	-41.0	14.7	0.00e+00	0	62	0	1311768576	50	4335
2026-01-26 00:48:29.90	249.29	23.91	-38.9	-40.9	14.9	0.00e+00	0	62	0	1324351488	49	4495
2026-01-26 00:48:33.93	248.59	23.44	-39.0	-40.9	14.8	0.00e+00	0	62	0	1336934400	49	4543
2026-01-26 00:48:37.97	247.90	22.96	-39.3	-41.4	14.4	7.00e-07	0	62	0	1349517312	49	4789
2026-01-26 00:48:42.01	247.23	22.49	-39.1	-41.1	14.7	0.00e+00	0	62	0	1362100224	49	4605
2026-01-26 00:48:46.05	246.59	22.02	-39.3	-41.3	14.4	0.00e+00	0	62	0	1374683136	49	4759
2026-01-26 00:48:50.09	245.96	21.56	-39.2	-41.3	14.4	0.00e+00	0	62	0	1387266048	49	4716
2026-01-26 00:48:54.14	245.35	21.10	-39.3	-41.3	14.3	0.00e+00	0	62	0	1399848960	49	4753
2026-01-26 00:48:58.17	244.76	20.65	-39.4	-41.6	14.1	2.20e-06	0	62	0	1412431872	49	4878
2026-01-26 00:49:02.21	244.19	20.20	-39.4	-41.5	14.1	7.00e-07	0	62	0	1425014784	49	4866
2026-01-26 00:49:06.25	243.63	19.76	-39.1	-41.2	14.5	7.00e-07	0	62	0	1437597696	49	4662
2026-01-26 00:49:10.29	243.09	19.32	-39.0	-40.9	14.7	0.00e+00	0	62	0	1450180608	49	4541
2026-01-26 00:49:14.33	242.57	18.88	-39.1	-41.1	14.6	7.00e-07	0	62	0	1462763520	49	4618
2026-01-26 00:49:18.37	242.05	18.46	-38.9	-40.8	14.8	7.00e-07	0	62	0	1475346432	49	4491
2026-01-26 00:49:22.41	241.56	18.03	-38.9	-40.9	14.8	0.00e+00	0	62	0	1487929344	49	4496
2026-01-26 00:49:26.45	241.08	17.62	-39.1	-41.2	14.4	7.00e-07	0	62	0	1500512256	49	4658
2026-01-26 00:49:30.49	240.61	17.20	-39.2	-41.3	14.3	7.00e-07	0	62	0	1513095168	49	4755
2026-01-26 00:49:34.53	240.15	16.79	-39.5	-41.7	13.9	2.20e-06	0	62	0	1525678080	49	4962
2026-01-26 00:49:38.56	239.71	16.39	-39.8	-42.2	13.4	1.06e-05	0	62	0	1538260992	50	4929
2026-01-26 00:49:42.60	239.28	15.99	-39.9	-42.3	13.2	1.60e-05	0	62	0	1550843904	50	5000
2026-01-26 00:49:46.64	238.86	15.60	-39.8	-42.2	13.3	1.44e-05	0	62	0	1563426816	50	4929
2026-01-26 00:49:50.68	238.45	15.21	-39.7	-42.0	13.5	7.60e-06	0	62	0	1576009728	50	4857
2026-01-26 00:49:54.72	238.05	14.83	-39.7	-42.0	13.5	1.22e-05	0	62	0	1588592640	50	4865
2026-01-26 00:49:58.76	237.66	14.45	-39.9	-42.3	13.2	2.05e-05	0	62	0	1602224128	50	5028
2026-01-26 00:50:02.80	237.28	14.07	-40.1	-42.6	12.8	6.02e-05	0	62	0	1613758464	50	5214
2026-01-26 00:50:06.84	236.91	13.70	-40.0	-42.6	12.9	6.25e-05	0	62	0	1627389952	50	5172
2026-01-26 00:50:10.88	236.55	13.34	-39.9	-42.4	13.0	3.66e-05	0	62	0	1639972864	50	5073
2026-01-26 00:50:14.92	236.20	12.97	-39.7	-42.1	13.2	1.67e-05	0	62	0	1652555776	50	4904
2026-01-26 00:50:18.96	235.86	12.62	-39.7	-42.0	13.4	1.52e-05	0	62	0	1665138688	50	4855
2026-01-26 00:50:23.00	235.53	12.26	-39.8	-42.2	13.2	2.44e-05	0	62	0	1677721600	50	4951
2026-01-26 00:50:27.03	235.20	11.92	-39.9	-42.4	12.9	3.20e-05	0	62	0	1690304512	50	5087
2026-01-26 00:50:31.07	234.88	11.57	-40.2	-42.8	12.5	1.01e-04	0	62	0	1702887424	50	5331
2026-01-26 00:50:35.11	234.57	11.23	-40.2	-42.9	12.4	1.81e-04	0	62	0	1715470336	51	5098
2026-01-26 00:50:39.16	234.27	10.89	-40.2	-42.9	12.3	1.57e-04	0	62	0	1728053248	51	5089
2026-01-26 00:50:43.20	233.97	10.56	-40.1	-42.7	12.5	1.50e-04	0	62	0	1740636160	51	4961
2026-01-26 00:50:47.24	233.68	10.23	-40.0	-42.7	12.4	1.19e-04	0	62	0	1753219072	51	4957
2026-01-26 00:50:51.28	233.40	9.90	-40.1	-42.7	12.4	1.71e-04	0	62	0	1765801984	51	4975
2026-01-26 00:50:55.32	233.13	9.58	-40.2	-42.9	12.2	1.98e-04	0	62	0	1778384896	51	5088
2026-01-26 00:50:59.36	232.86	9.26	-40.1	-42.9	12.2	2.01e-04	0	62	0	1790967808	51	5054
2026-01-26 00:51:03.40	232.59	8.94	-40.3	-43.2	11.9	4.12e-04	0	62	0	1803550720	51	5226
2026-01-26 00:51:07.45	232.33	8.63	-40.4	-43.4	11.7	5.80e-04	0	62	0	1816133632	51	5341
2026-01-26 00:51:11.48	232.08	8.32	-40.5	-43.5	11.5	7.47e-04	0	62	0	1828716544	51	5417
2026-01-26 00:51:15.53	231.84	8.02	-42.7	-48.4	7.0	4.49e-03	0	62	0	1841299456	55	7555
2026-01-26 00:51:19.57	231.59	7.71	-45.0	-57.5	3.8	1.49e+00	0	62	104	1842348032	60	16148
2026-01-26 00:51:23.61	231.36	7.41	-45.2	-57.7	3.8	1.49e+00	0	62	104	1842348032	60	16507
2026-01-26 00:51:27.65	231.13	7.12	-45.1	-57.5	3.8	1.49e+00	0	63	104	1842348032	60	16305
2026-01-26 00:51:31.69	230.90	6.82	-45.2	-57.6	3.8	1.49e+00	0	62	104	1842348032	60	16315
2026-01-26 00:51:35.73	230.68	6.53	-45.1	-57.5	3.8	1.49e+00	0	62	104	1842348032	60	16177
2026-01-26 00:51:39.77	230.46	6.25	-45.1	-57.4	3.8	1.49e+00	0	62	104	1842348032	60	16108
2026-01-26 00:51:43.81	230.25	5.96	-45.1	-57.4	3.8	1.49e+00	0	62	104	1842348032	60	16112
2026-01-26 00:51:47.85	230.04	5.68	-45.1	-57.4	3.8	1.49e+00	0	62	104	1842348032	60	16052
2026-01-26 00:51:51.90	229.83	5.40	-45.1	-57.5	3.8	1.49e+00	0	62	104	1842348032	60	16185
2026-01-26 00:51:55.94	229.63	5.12	-45.0	-57.4	3.8	1.49e+00	0	62	104	1842348032	60	16094
2026-01-26 00:51:59.98	229.44	4.85	-45.0	-57.4	3.8	1.49e+00	0	62	104	1842348032	60	16037
2026-01-26 00:52:04.03	229.24	4.57	-45.0	-57.3	3.8	1.49e+00	0	62	104	1842348032	60	15903
2026-01-26 00:52:08.07	229.05	4.30	-44.9	-57.3	3.8	1.49e+00	0	62	104	1842348032	60	15890
2026-01-26 00:52:12.11	228.87	4.04	-44.9	-57.3	3.8	1.49e+00	0	62	104	1842348032	60	15859
2026-01-26 00:52:16.15	228.69	3.77	-44.9	-57.3	3.8	1.49e+00	0	63	104	1842348032	60	15895
2026-01-26 00:52:20.19	228.51	3.51	-44.9	-57.3	3.8	1.49e+00	0	63	104	1842348032	60	15846
2026-01-26 00:52:24.23	228.33	3.25	-44.9	-57.3	3.8	1.49e+00	0	62	104	1842348032	60	15837
2026-01-26 00:52:28.27	228.16	2.99	-44.9	-57.3	3.8	1.49e+00	0	62	104	1842348032	60	15843
2026-01-26 00:52:32.31	227.99	2.74	-44.9	-57.3	3.8	1.49e+00	0	63	104	1842348032	60	15799
2026-01-26 00:52:36.35	227.83	2.48	-44.9	-57.3	3.8	1.49e+00	0	62	104	1842348032	60	15814
2026-01-26 00:52:40.39	227.66	2.23	-44.9	-57.3	3.8	1.49e+00	0	62	104	1842348032	60	15836
2026-01-26 00:52:44.43	227.50	1.98	-44.9	-57.3	3.8	1.49e+00	0	62	104	1842348032	60	15802

#Closed at: 2026-01-26 00:52:45
#Recorded file [1842 MB]: D:/lorett/data/31039_260126_033904.dat