passes_logs/2026/01/26/R2.0S_Moscow/R2.0S_Moscow__20260126_101740_FENGYUN_3D_rec.log

#Pass ID: 20260126_101740_FENGYUN 3D
#Satellite: FENGYUN 3D
#Configuration: FENGYUN 3D
#almurnet v.1.7.20251203
#Start time: 2026-01-26 10:17:41

#Version: 2.2.20231116
#Station: R2.0S_Moscow
#Location: 37.707566 lon 55.798166 lat
#TLE: 1 43010U 17072A   26025.85700374 -.00000071  00000+0 -11715-4 0  9992
#TLE: 2 43010  98.9962 357.8423 0002518  90.2035 269.9429 14.19699460424796

#Time	Az	El	Level	Level2	SNR	BER	BlckErr	Temp	State	Recorded	gain1	gain2
2026-01-26 10:17:41.83	110.73	2.09	-19.3	-38.5	3.9	8.46e-01	0	53	0	0	10	32543
2026-01-26 10:17:44.85	110.53	2.26	-25.0	-41.4	3.6	8.46e-01	0	53	104	0	17	30218
2026-01-26 10:17:47.89	110.32	2.43	-23.2	-40.5	3.8	8.44e-01	0	53	104	0	14	32415
2026-01-26 10:17:50.92	110.11	2.60	-26.5	-42.0	4.0	8.44e-01	0	53	104	0	19	28996
2026-01-26 10:17:53.95	109.89	2.78	-28.6	-42.1	3.8	8.42e-01	0	54	104	0	15	36799
2026-01-26 10:17:56.98	109.68	2.95	-18.7	-38.3	3.7	8.42e-01	0	54	104	0	12	28120
2026-01-26 10:18:00.01	109.46	3.12	-20.0	-40.3	4.0	8.45e-01	0	54	104	0	13	33538
2026-01-26 10:18:03.04	109.23	3.30	-24.0	-40.4	3.7	8.44e-01	0	54	104	0	17	26852
2026-01-26 10:18:06.07	109.01	3.48	-25.3	-40.8	3.6	8.45e-01	0	54	104	0	20	23622
2026-01-26 10:18:09.10	108.78	3.65	-19.8	-40.0	4.1	8.45e-01	0	54	104	0	17	25622
2026-01-26 10:18:12.14	108.55	3.83	-26.4	-41.2	4.0	8.42e-01	0	55	104	0	22	22030
2026-01-26 10:18:15.17	108.32	4.01	-23.5	-39.6	3.7	8.44e-01	0	55	104	0	13	31057
2026-01-26 10:18:18.20	108.08	4.18	-19.9	-38.7	3.7	8.37e-01	0	55	104	0	14	26170
2026-01-26 10:18:21.23	107.84	4.36	-31.1	-46.5	4.2	8.43e-01	0	55	104	0	33	21732
2026-01-26 10:18:24.26	107.60	4.54	-23.4	-41.7	3.5	8.41e-01	0	56	104	0	14	36953
2026-01-26 10:18:27.30	107.36	4.73	-30.5	-46.2	3.7	8.39e-01	0	56	104	0	26	31265
2026-01-26 10:18:30.33	107.11	4.91	-28.1	-46.2	3.9	8.37e-01	0	56	104	0	33	20966
2026-01-26 10:18:33.36	106.86	5.09	-32.4	-48.6	4.2	8.40e-01	0	56	104	0	41	17356
2026-01-26 10:18:36.39	106.60	5.27	-32.4	-45.0	4.0	8.42e-01	0	56	104	0	35	16266
2026-01-26 10:18:39.42	106.34	5.45	-22.2	-40.3	3.9	8.42e-01	0	56	0	0	21	21230
2026-01-26 10:18:42.45	106.08	5.64	-23.0	-41.8	3.9	8.43e-01	0	56	104	0	21	25182
2026-01-26 10:18:45.48	105.82	5.82	-22.6	-40.8	3.9	8.39e-01	0	57	104	0	23	19933
2026-01-26 10:18:48.51	105.55	6.01	-24.9	-41.1	3.7	8.42e-01	0	57	104	0	21	23113
2026-01-26 10:18:51.54	105.28	6.20	-21.8	-41.3	3.6	8.44e-01	0	57	104	0	11	42290
2026-01-26 10:18:54.58	105.00	6.38	-32.7	-45.4	3.7	8.39e-01	0	57	104	0	25	30183
2026-01-26 10:18:57.61	104.72	6.57	-32.8	-46.4	3.5	8.42e-01	0	57	104	0	24	35790
2026-01-26 10:19:00.64	104.44	6.76	-24.1	-40.3	3.7	8.41e-01	0	57	104	0	17	26621
2026-01-26 10:19:03.67	104.15	6.95	-29.2	-43.0	3.8	8.38e-01	0	58	104	0	22	27194
2026-01-26 10:19:06.70	103.86	7.14	-25.9	-41.3	3.8	8.42e-01	0	58	104	0	22	22277
2026-01-26 10:19:09.72	103.57	7.33	-31.9	-49.0	4.3	8.37e-01	0	57	104	0	37	22882
2026-01-26 10:19:12.75	103.27	7.52	-32.0	-49.0	4.0	8.42e-01	0	58	104	0	40	19386
2026-01-26 10:19:15.78	102.97	7.71	-29.2	-47.4	3.8	8.41e-01	0	58	104	0	31	26822
2026-01-26 10:19:18.82	102.66	7.91	-25.9	-40.5	4.1	8.45e-01	0	58	104	0	14	32493
2026-01-26 10:19:21.85	102.35	8.10	-30.3	-48.6	4.0	8.42e-01	0	58	104	0	37	21890
2026-01-26 10:19:24.88	102.04	8.30	-29.2	-43.8	4.0	8.43e-01	0	58	104	0	33	15849
2026-01-26 10:19:27.92	101.72	8.49	-30.1	-45.1	4.1	8.40e-01	0	58	104	0	25	29298
2026-01-26 10:19:30.94	101.39	8.69	-33.8	-46.1	3.9	8.40e-01	0	58	104	0	29	25898
2026-01-26 10:19:33.97	101.07	8.88	-27.0	-46.2	4.6	8.41e-01	0	58	104	0	23	37372
2026-01-26 10:19:37.00	100.73	9.08	-31.9	-42.3	4.0	8.42e-01	0	58	104	0	22	25092
2026-01-26 10:19:40.03	100.40	9.28	-22.5	-40.8	4.0	8.42e-01	0	59	104	0	20	23798
2026-01-26 10:19:43.06	100.05	9.48	-26.3	-41.1	4.0	8.42e-01	0	59	104	0	22	21828
2026-01-26 10:19:46.08	99.71	9.67	-21.9	-40.0	4.0	8.42e-01	0	59	104	0	17	25716
2026-01-26 10:19:49.11	99.36	9.87	-30.1	-46.0	4.2	8.41e-01	0	59	104	0	26	30577
2026-01-26 10:19:52.15	99.00	10.07	-29.1	-43.8	4.2	8.45e-01	0	59	0	0	19	35644
2026-01-26 10:19:55.17	98.64	10.27	-28.4	-44.1	4.0	8.44e-01	0	59	104	0	25	25880
2026-01-26 10:19:58.21	98.27	10.48	-20.5	-40.7	3.9	8.42e-01	0	59	104	0	28	14750
2026-01-26 10:20:01.24	97.90	10.68	-30.5	-40.9	6.8	6.92e-01	0	59	0	0	35	10060
2026-01-26 10:20:04.27	97.52	10.88	-33.6	-41.9	6.8	4.05e-01	0	59	0	7340032	37	10080
2026-01-26 10:20:07.29	97.14	11.08	-27.9	-43.9	4.2	8.41e-01	0	59	104	14680064	28	21380
2026-01-26 10:20:10.32	96.75	11.28	-32.5	-40.7	7.3	4.28e-01	0	59	0	15728640	35	9943
2026-01-26 10:20:13.35	96.36	11.49	-36.0	-41.4	9.8	1.43e-01	0	60	0	32505856	41	7546
2026-01-26 10:20:16.38	95.96	11.69	-33.1	-41.7	8.0	9.55e-02	0	59	0	49283072	37	9901
2026-01-26 10:20:19.41	95.56	11.89	-37.6	-41.8	11.1	4.16e-02	0	60	0	66060288	46	5970
2026-01-26 10:20:22.45	95.15	12.10	-38.9	-42.2	11.1	4.81e-03	0	59	0	82837504	48	5587
2026-01-26 10:20:25.48	94.73	12.30	-39.0	-42.3	11.2	1.48e-03	0	59	0	99614720	49	5301
2026-01-26 10:20:28.50	94.31	12.51	-38.3	-40.9	12.8	2.83e-04	0	60	0	116391936	47	5092
2026-01-26 10:20:31.54	93.88	12.71	-38.6	-41.6	11.7	5.56e-04	0	60	0	134217728	48	5161
2026-01-26 10:20:34.57	93.45	12.92	-38.2	-40.6	13.1	1.17e-04	0	60	0	150994944	47	4925
2026-01-26 10:20:37.60	93.01	13.12	-37.9	-40.3	13.4	2.17e-05	0	60	0	167772160	47	4723
2026-01-26 10:20:40.63	92.56	13.33	-38.0	-40.3	13.3	7.43e-05	0	60	0	185597952	47	4751
2026-01-26 10:20:43.66	92.11	13.53	-39.0	-41.7	12.0	3.63e-04	0	60	0	202375168	48	5248
2026-01-26 10:20:46.69	91.65	13.74	-39.0	-42.0	11.5	1.14e-03	0	60	0	219152384	48	5453
2026-01-26 10:20:49.72	91.18	13.94	-39.0	-41.8	11.7	8.09e-04	0	60	0	235929600	49	5005
2026-01-26 10:20:52.76	90.71	14.15	-38.6	-41.1	12.6	2.04e-04	0	60	0	253755392	48	4908
2026-01-26 10:20:55.79	90.23	14.35	-37.8	-40.1	13.4	3.77e-05	0	60	0	270532608	47	4644
2026-01-26 10:20:58.82	89.75	14.56	-38.4	-41.1	12.3	2.54e-04	0	60	0	287309824	47	5173
2026-01-26 10:21:01.85	89.25	14.76	-38.4	-41.2	12.0	4.45e-04	0	60	0	304087040	47	5233
2026-01-26 10:21:04.88	88.75	14.96	-38.2	-40.8	12.3	3.00e-04	0	60	0	321912832	47	5036
2026-01-26 10:21:07.91	88.25	15.17	-38.4	-41.1	12.0	4.94e-04	0	60	0	338690048	47	5216
2026-01-26 10:21:10.94	87.74	15.37	-39.0	-42.0	11.0	2.36e-03	0	60	0	355467264	48	5452
2026-01-26 10:21:13.97	87.22	15.57	-38.7	-41.7	11.0	2.29e-03	0	60	0	372244480	48	5273
2026-01-26 10:21:17.00	86.69	15.77	-39.1	-42.6	10.0	9.51e-03	0	60	0	390070272	48	5831
2026-01-26 10:21:20.03	86.15	15.97	-39.1	-42.4	10.4	6.23e-03	0	60	0	406847488	48	5693
2026-01-26 10:21:23.06	85.61	16.17	-39.2	-42.5	10.3	7.06e-03	0	61	0	423624704	48	5766
2026-01-26 10:21:26.09	85.06	16.37	-38.8	-41.9	10.9	3.30e-03	0	60	0	440401920	48	5365
2026-01-26 10:21:29.12	84.51	16.56	-38.8	-41.8	11.1	2.32e-03	0	61	0	458227712	48	5330
2026-01-26 10:21:32.15	83.94	16.76	-38.9	-41.7	11.7	8.82e-04	0	60	0	475004928	48	5257
2026-01-26 10:21:35.18	83.37	16.95	-39.0	-41.8	11.5	1.16e-03	0	61	0	491782144	48	5336
2026-01-26 10:21:38.21	82.80	17.15	-38.7	-41.5	11.7	7.78e-04	0	61	0	508559360	48	5103
2026-01-26 10:21:41.25	82.21	17.34	-38.0	-40.5	12.7	1.36e-04	0	61	0	526385152	48	4575
2026-01-26 10:21:44.27	81.62	17.53	-38.3	-40.8	12.6	1.14e-04	0	61	0	543162368	48	4727
2026-01-26 10:21:47.30	81.02	17.72	-38.3	-40.8	12.5	1.44e-04	0	61	0	559939584	48	4754
2026-01-26 10:21:50.33	80.41	17.90	-38.5	-41.4	11.6	9.14e-04	0	61	0	577765376	48	5054
2026-01-26 10:21:53.37	79.79	18.09	-38.8	-42.0	10.6	3.83e-03	0	61	0	594542592	48	5458
2026-01-26 10:21:56.40	79.17	18.27	-38.9	-42.1	10.6	5.37e-03	0	61	0	611319808	48	5517
2026-01-26 10:21:59.43	78.54	18.45	-38.6	-41.4	11.7	9.21e-04	0	61	0	628097024	48	5056
2026-01-26 10:22:02.46	77.90	18.63	-38.4	-41.2	12.0	4.84e-04	0	61	0	644874240	48	4927
2026-01-26 10:22:05.49	77.25	18.80	-38.0	-40.5	12.6	1.67e-04	0	61	0	662700032	48	4595
2026-01-26 10:22:08.51	76.60	18.97	-38.0	-40.6	12.5	1.65e-04	0	61	0	679477248	47	4881
2026-01-26 10:22:11.55	75.94	19.14	-38.0	-40.6	12.5	2.02e-04	0	61	0	696254464	47	4897
2026-01-26 10:22:14.58	75.27	19.31	-38.0	-40.4	12.8	8.69e-05	0	61	0	714080256	47	4807
2026-01-26 10:22:17.60	74.60	19.47	-37.7	-40.1	13.0	4.69e-05	0	61	0	730857472	47	4639
2026-01-26 10:22:20.63	73.91	19.63	-37.7	-40.0	13.3	2.97e-05	0	61	0	747634688	47	4586
2026-01-26 10:22:23.67	73.22	19.79	-37.7	-39.9	13.7	1.48e-05	0	61	0	764411904	47	4537
2026-01-26 10:22:26.69	72.53	19.95	-37.9	-40.2	13.4	2.28e-05	0	61	0	782237696	47	4688
2026-01-26 10:22:29.73	71.82	20.10	-37.9	-40.3	13.4	2.28e-05	0	61	0	799014912	47	4709
2026-01-26 10:22:32.76	71.11	20.24	-37.8	-39.9	14.1	2.20e-06	0	61	0	815792128	47	4538
2026-01-26 10:22:35.79	70.39	20.39	-37.6	-39.7	14.7	1.10e-06	0	61	0	832569344	47	4400
2026-01-26 10:22:38.82	69.67	20.52	-37.1	-39.0	15.4	0.00e+00	0	61	0	849346560	46	4335
2026-01-26 10:22:41.85	68.94	20.66	-37.0	-38.8	15.7	0.00e+00	0	61	0	867172352	46	4234
2026-01-26 10:22:44.88	68.20	20.79	-36.7	-38.4	16.2	0.00e+00	0	61	0	883949568	45	4265
2026-01-26 10:22:47.91	67.46	20.92	-36.7	-38.5	16.2	0.00e+00	0	61	0	900726784	45	4312
2026-01-26 10:22:50.94	66.71	21.04	-36.5	-38.2	16.6	0.00e+00	0	61	0	918552576	44	4395
2026-01-26 10:22:53.97	65.95	21.15	-36.5	-38.2	16.6	0.00e+00	0	61	0	935329792	44	4397
2026-01-26 10:22:57.00	65.19	21.27	-36.6	-38.3	16.5	0.00e+00	0	61	0	952107008	44	4442
2026-01-26 10:23:00.03	64.43	21.37	-36.7	-38.4	16.4	0.00e+00	0	61	0	968884224	44	4520
2026-01-26 10:23:03.06	63.65	21.48	-36.8	-38.6	16.3	0.00e+00	0	61	0	986710016	44	4602
2026-01-26 10:23:06.10	62.88	21.57	-36.7	-38.3	16.5	0.00e+00	0	61	0	1003487232	44	4493
2026-01-26 10:23:09.13	62.09	21.67	-36.9	-38.6	16.2	0.00e+00	0	61	0	1020264448	44	4631
2026-01-26 10:23:12.16	61.31	21.75	-36.8	-38.5	16.3	0.00e+00	0	61	0	1037041664	44	4568
2026-01-26 10:23:15.19	60.52	21.83	-36.5	-38.1	16.7	0.00e+00	0	61	0	1054867456	44	4375
2026-01-26 10:23:18.22	59.73	21.91	-36.5	-38.2	16.6	0.00e+00	0	61	0	1071644672	44	4420
2026-01-26 10:23:21.25	58.93	21.98	-36.5	-38.2	16.7	0.00e+00	0	61	0	1088421888	44	4397
2026-01-26 10:23:24.29	58.12	22.04	-36.6	-38.2	16.6	0.00e+00	0	61	0	1106247680	44	4430
2026-01-26 10:23:27.32	57.32	22.10	-36.4	-38.1	16.8	0.00e+00	0	61	0	1123024896	44	4350
2026-01-26 10:23:30.35	56.51	22.15	-36.5	-38.1	16.8	0.00e+00	0	62	0	1139802112	44	4368
2026-01-26 10:23:33.38	55.70	22.20	-36.8	-38.3	16.8	0.00e+00	0	61	0	1156579328	44	4474
2026-01-26 10:23:36.41	54.89	22.24	-36.9	-38.5	16.7	0.00e+00	0	61	0	1173356544	44	4549
2026-01-26 10:23:39.44	54.08	22.27	-36.7	-38.3	16.9	0.00e+00	0	62	0	1191182336	44	4452
2026-01-26 10:23:42.48	53.26	22.30	-36.4	-37.9	17.3	0.00e+00	0	62	0	1207959552	44	4249
2026-01-26 10:23:45.51	52.44	22.32	-36.5	-38.0	17.2	0.00e+00	0	62	0	1224736768	44	4301
2026-01-26 10:23:48.54	51.63	22.34	-36.6	-38.1	17.1	0.00e+00	0	61	0	1242562560	44	4364
2026-01-26 10:23:51.57	50.81	22.35	-36.7	-38.3	16.9	0.00e+00	0	61	0	1259339776	44	4452
2026-01-26 10:23:54.60	49.99	22.35	-37.0	-38.6	16.7	0.00e+00	0	62	0	1276116992	44	4601
2026-01-26 10:23:57.62	49.18	22.35	-37.0	-38.5	16.7	0.00e+00	0	62	0	1292894208	44	4575
2026-01-26 10:24:00.65	48.36	22.34	-36.7	-38.2	17.0	0.00e+00	0	62	0	1310720000	44	4430
2026-01-26 10:24:03.68	47.54	22.32	-36.5	-38.0	17.2	0.00e+00	0	62	0	1327497216	44	4329
2026-01-26 10:24:06.71	46.72	22.30	-36.6	-38.0	17.2	0.00e+00	0	62	0	1344274432	44	4330
2026-01-26 10:24:09.74	45.91	22.27	-36.6	-38.0	17.2	0.00e+00	0	62	0	1361051648	44	4335
2026-01-26 10:24:12.78	45.09	22.24	-36.7	-38.2	17.1	0.00e+00	0	62	0	1378877440	44	4398
2026-01-26 10:24:15.81	44.28	22.20	-36.7	-38.2	17.0	0.00e+00	0	62	0	1395654656	44	4434
2026-01-26 10:24:18.84	43.47	22.15	-36.7	-38.2	17.0	0.00e+00	0	62	0	1412431872	44	4430
2026-01-26 10:24:21.87	42.67	22.10	-36.6	-38.1	17.1	0.00e+00	0	62	0	1429209088	44	4352
2026-01-26 10:24:24.90	41.86	22.04	-36.7	-38.2	17.0	0.00e+00	0	62	0	1447034880	44	4400
2026-01-26 10:24:27.93	41.06	21.98	-36.6	-38.1	17.1	0.00e+00	0	62	0	1463812096	44	4360
2026-01-26 10:24:30.96	40.27	21.91	-36.6	-38.2	17.1	0.00e+00	0	62	0	1480589312	44	4394
2026-01-26 10:24:34.00	39.47	21.83	-36.7	-38.2	17.0	0.00e+00	0	62	0	1497366528	44	4409
2026-01-26 10:24:37.03	38.68	21.75	-36.6	-38.1	17.1	0.00e+00	0	62	0	1515192320	44	4386
2026-01-26 10:24:40.06	37.90	21.67	-36.9	-38.4	16.8	0.00e+00	0	62	0	1531969536	44	4537
2026-01-26 10:24:43.09	37.12	21.58	-36.9	-38.4	16.8	0.00e+00	0	62	0	1548746752	44	4516
2026-01-26 10:24:46.12	36.35	21.48	-36.8	-38.4	16.9	0.00e+00	0	62	0	1565523968	44	4497
2026-01-26 10:24:49.15	35.58	21.38	-36.9	-38.4	16.8	0.00e+00	0	62	0	1583349760	44	4544
2026-01-26 10:24:52.18	34.81	21.27	-36.8	-38.3	16.9	0.00e+00	0	62	0	1600126976	44	4457
2026-01-26 10:24:55.21	34.05	21.16	-36.8	-38.3	16.9	0.00e+00	0	62	0	1616904192	44	4463
2026-01-26 10:24:58.24	33.30	21.04	-36.8	-38.3	17.0	0.00e+00	0	62	0	1634729984	44	4452
2026-01-26 10:25:01.27	32.55	20.92	-36.9	-38.5	16.8	0.00e+00	0	62	0	1651507200	44	4546
2026-01-26 10:25:04.31	31.81	20.79	-36.9	-38.5	16.8	0.00e+00	0	62	0	1668284416	44	4547
2026-01-26 10:25:07.34	31.07	20.66	-37.0	-38.6	16.6	0.00e+00	0	62	0	1685061632	44	4634
2026-01-26 10:25:10.37	30.34	20.53	-37.0	-38.6	16.6	0.00e+00	0	62	0	1702887424	44	4620
2026-01-26 10:25:13.40	29.62	20.39	-37.0	-38.5	16.7	0.00e+00	0	62	0	1719664640	44	4593
2026-01-26 10:25:16.43	28.91	20.25	-37.0	-38.6	16.6	0.00e+00	0	62	0	1736441856	44	4619
2026-01-26 10:25:19.47	28.20	20.10	-37.0	-38.6	16.7	0.00e+00	0	62	0	1753219072	44	4623
2026-01-26 10:25:22.50	27.49	19.95	-37.0	-38.6	16.6	0.00e+00	0	62	0	1771044864	44	4637
2026-01-26 10:25:25.53	26.80	19.80	-37.1	-38.7	16.5	0.00e+00	0	62	0	1787822080	44	4699
2026-01-26 10:25:28.56	26.11	19.64	-37.3	-38.9	16.3	0.00e+00	0	62	0	1804599296	45	4510
2026-01-26 10:25:31.59	25.43	19.48	-37.2	-38.8	16.4	0.00e+00	0	62	0	1821376512	45	4470
2026-01-26 10:25:34.62	24.76	19.32	-37.4	-39.0	16.2	1.10e-06	0	62	0	1839202304	45	4586
2026-01-26 10:25:37.65	24.09	19.15	-37.3	-38.9	16.3	0.00e+00	0	62	0	1855979520	45	4516
2026-01-26 10:25:40.69	23.43	18.98	-37.3	-38.9	16.3	0.00e+00	0	62	0	1872756736	45	4538
2026-01-26 10:25:43.71	22.78	18.81	-37.4	-39.0	16.1	0.00e+00	0	62	0	1889533952	45	4595
2026-01-26 10:25:46.74	22.14	18.64	-37.4	-39.1	16.1	0.00e+00	0	62	0	1907359744	45	4613
2026-01-26 10:25:49.77	21.50	18.46	-37.6	-39.2	15.9	0.00e+00	0	62	0	1924136960	45	4703
2026-01-26 10:25:52.79	20.88	18.28	-37.9	-39.6	15.5	0.00e+00	0	62	0	1940914176	46	4647
2026-01-26 10:25:55.83	20.25	18.10	-37.9	-39.7	15.4	0.00e+00	0	62	0	1958739968	46	4684
2026-01-26 10:25:58.86	19.64	17.91	-37.8	-39.6	15.5	0.00e+00	0	62	0	1975517184	46	4615
2026-01-26 10:26:01.90	19.03	17.73	-38.0	-39.8	15.4	0.00e+00	0	62	0	1992294400	46	4712
2026-01-26 10:26:04.93	18.44	17.54	-37.6	-39.2	15.8	0.00e+00	0	62	0	2009071616	46	4437
2026-01-26 10:26:07.96	17.85	17.35	-37.7	-39.4	15.7	0.00e+00	0	62	0	2025848832	46	4530
2026-01-26 10:26:10.99	17.26	17.16	-37.6	-39.3	15.8	0.00e+00	0	62	0	2043674624	46	4484
2026-01-26 10:26:14.02	16.69	16.97	-37.7	-39.4	15.6	0.00e+00	0	62	0	2060451840	46	4532
2026-01-26 10:26:17.06	16.12	16.77	-37.8	-39.5	15.5	0.00e+00	0	62	0	2077229056	46	4587
2026-01-26 10:26:20.09	15.56	16.58	-37.7	-39.4	15.6	0.00e+00	0	62	0	2095054848	46	4541
2026-01-26 10:26:23.12	15.00	16.38	-37.8	-39.6	15.3	0.00e+00	0	62	0	2111832064	46	4645
2026-01-26 10:26:26.15	14.46	16.19	-37.7	-39.4	15.6	0.00e+00	0	62	0	2128609280	46	4528
2026-01-26 10:26:29.18	13.92	15.99	-37.9	-39.6	15.3	0.00e+00	0	62	0	2145386496	46	4647
2026-01-26 10:26:32.21	13.39	15.79	-37.9	-39.8	15.1	1.10e-06	0	62	0	2163212288	46	4714
2026-01-26 10:26:35.24	12.86	15.59	-38.1	-39.9	14.9	0.00e+00	0	62	0	2179989504	46	4797
2026-01-26 10:26:38.27	12.35	15.39	-38.1	-40.0	14.8	0.00e+00	0	62	0	2196766720	46	4861
2026-01-26 10:26:41.30	11.83	15.19	-38.1	-40.1	14.8	0.00e+00	0	62	0	2213543936	47	4602
2026-01-26 10:26:44.33	11.33	14.98	-38.1	-40.0	14.6	1.10e-06	0	62	0	2231369728	47	4588
2026-01-26 10:26:47.36	10.84	14.78	-38.1	-40.1	14.5	2.20e-06	0	62	0	2248146944	47	4605
2026-01-26 10:26:50.39	10.35	14.58	-38.1	-40.0	14.6	1.10e-06	0	62	0	2264924160	47	4548
2026-01-26 10:26:53.42	9.86	14.38	-38.0	-40.0	14.5	1.10e-06	0	62	0	2281701376	47	4551
2026-01-26 10:26:56.45	9.39	14.17	-38.1	-40.2	14.2	4.50e-06	0	62	0	2299527168	47	4662
2026-01-26 10:26:59.48	8.92	13.97	-38.1	-40.2	14.1	5.70e-06	0	62	0	2316304384	47	4669
2026-01-26 10:27:02.51	8.46	13.76	-38.2	-40.3	13.9	1.48e-05	0	62	0	2333081600	47	4728
2026-01-26 10:27:05.54	8.00	13.56	-38.3	-40.5	13.4	1.83e-05	0	62	0	2349858816	47	4870
2026-01-26 10:27:08.57	7.55	13.36	-38.0	-40.3	13.2	3.89e-05	0	62	0	2367684608	47	4717
2026-01-26 10:27:11.60	7.11	13.15	-38.3	-40.8	12.5	9.95e-05	0	62	0	2384461824	47	5018
2026-01-26 10:27:14.64	6.67	12.95	-38.3	-40.7	12.4	2.15e-04	0	62	0	2401239040	47	4983
2026-01-26 10:27:17.67	6.24	12.74	-37.7	-40.0	13.0	1.17e-04	0	62	0	2418016256	47	4565
2026-01-26 10:27:20.70	5.81	12.54	-37.9	-40.4	12.3	2.52e-04	0	62	0	2435842048	47	4804
2026-01-26 10:27:23.74	5.39	12.33	-38.5	-41.5	11.0	1.86e-03	0	62	0	2452619264	47	5424
2026-01-26 10:27:26.76	4.98	12.13	-39.3	-43.0	9.2	2.10e-02	0	62	0	2469396480	49	5762
2026-01-26 10:27:29.79	4.57	11.93	-40.8	-48.4	4.6	7.87e-01	0	62	0	2483027968	52	8991
2026-01-26 10:27:32.83	4.17	11.72	-41.0	-51.9	3.8	8.45e-01	0	62	104	2483027968	52	13536
2026-01-26 10:27:35.86	3.77	11.52	-40.4	-52.0	3.8	8.46e-01	0	62	104	2483027968	52	13598
2026-01-26 10:27:38.89	3.38	11.32	-40.2	-51.8	3.8	8.46e-01	0	62	104	2483027968	52	13302
2026-01-26 10:27:41.92	3.00	11.12	-40.1	-51.7	3.8	8.48e-01	0	62	104	2483027968	52	13209
2026-01-26 10:27:44.95	2.62	10.91	-40.1	-51.7	3.8	8.45e-01	0	62	104	2483027968	52	13173
2026-01-26 10:27:47.97	2.25	10.71	-40.0	-51.6	3.8	8.45e-01	0	62	104	2483027968	52	12985
2026-01-26 10:27:51.00	1.88	10.51	-40.5	-52.1	3.8	8.46e-01	0	62	104	2483027968	51	14580
2026-01-26 10:27:54.04	1.51	10.31	-40.4	-51.9	3.8	8.46e-01	0	62	104	2483027968	51	14324
2026-01-26 10:27:57.07	1.16	10.11	-40.2	-51.8	3.8	8.46e-01	0	62	104	2483027968	51	14065
2026-01-26 10:28:00.09	0.80	9.91	-40.1	-51.6	3.8	8.46e-01	0	62	104	2483027968	51	13849
2026-01-26 10:28:03.12	0.45	9.71	-40.1	-51.6	3.8	8.47e-01	0	62	104	2483027968	51	13839
2026-01-26 10:28:06.15	0.11	9.52	-40.2	-51.8	3.8	8.46e-01	0	62	104	2483027968	51	14052
2026-01-26 10:28:09.18	359.77	9.32	-40.1	-51.6	3.8	8.46e-01	0	62	104	2483027968	51	13850
2026-01-26 10:28:12.21	359.44	9.12	-40.0	-51.6	3.8	8.46e-01	0	62	104	2483027968	51	13742
2026-01-26 10:28:15.25	359.11	8.92	-40.1	-51.7	3.8	8.46e-01	0	62	104	2483027968	51	13907
2026-01-26 10:28:18.27	358.78	8.73	-40.0	-51.6	3.8	8.48e-01	0	62	104	2483027968	51	13809
2026-01-26 10:28:21.30	358.46	8.53	-40.0	-51.6	3.8	8.46e-01	0	62	104	2483027968	51	13794
2026-01-26 10:28:24.33	358.15	8.34	-39.9	-51.5	3.8	8.47e-01	0	62	104	2483027968	51	13659
2026-01-26 10:28:27.37	357.83	8.15	-39.9	-51.5	3.8	8.47e-01	0	62	104	2483027968	51	13680
2026-01-26 10:28:30.40	357.53	7.95	-41.0	-52.6	3.8	8.46e-01	0	62	104	2483027968	52	14575
2026-01-26 10:28:33.43	357.22	7.76	-45.1	-56.9	3.8	8.47e-01	0	62	104	2483027968	60	15138
2026-01-26 10:28:36.46	356.92	7.57	-45.3	-57.2	3.8	8.45e-01	0	62	104	2483027968	61	14714
2026-01-26 10:28:39.49	356.63	7.38	-45.2	-57.1	3.8	8.46e-01	0	62	104	2483027968	61	14559
2026-01-26 10:28:42.53	356.34	7.19	-45.2	-56.9	3.8	8.46e-01	0	62	104	2483027968	60	15132
2026-01-26 10:28:45.56	356.05	7.00	-45.0	-56.8	3.8	8.46e-01	0	62	104	2483027968	60	14981
2026-01-26 10:28:48.59	355.77	6.81	-45.0	-56.7	3.8	8.46e-01	0	62	104	2483027968	60	14832
2026-01-26 10:28:51.62	355.49	6.62	-45.0	-56.8	3.8	8.45e-01	0	62	104	2483027968	60	14883
2026-01-26 10:28:54.65	355.21	6.43	-44.6	-56.7	3.8	8.47e-01	0	62	104	2483027968	60	14749
2026-01-26 10:28:57.68	354.94	6.25	-45.0	-56.7	3.8	8.45e-01	0	62	104	2483027968	60	14868
2026-01-26 10:29:00.71	354.67	6.06	-45.0	-56.7	3.8	8.45e-01	0	62	104	2483027968	60	14840
2026-01-26 10:29:03.74	354.40	5.87	-45.0	-56.7	3.8	8.46e-01	0	62	104	2483027968	60	14794
2026-01-26 10:29:06.77	354.14	5.69	-45.0	-56.7	3.8	8.46e-01	0	62	104	2483027968	60	14856
2026-01-26 10:29:09.80	353.88	5.51	-45.0	-56.7	3.8	8.45e-01	0	62	104	2483027968	60	14801
2026-01-26 10:29:12.83	353.63	5.32	-45.0	-56.7	3.8	8.46e-01	0	62	104	2483027968	60	14805
2026-01-26 10:29:15.87	353.38	5.14	-45.0	-56.7	3.8	8.46e-01	0	62	104	2483027968	60	14840
2026-01-26 10:29:18.89	353.13	4.96	-45.0	-56.7	3.8	8.45e-01	0	62	104	2483027968	60	14748
2026-01-26 10:29:21.92	352.89	4.78	-44.8	-57.0	3.8	8.47e-01	0	62	104	2483027968	60	15298
2026-01-26 10:29:24.96	352.64	4.60	-44.9	-56.7	3.8	8.48e-01	0	62	104	2483027968	60	14744
2026-01-26 10:29:27.99	352.40	4.42	-44.9	-56.7	3.8	8.46e-01	0	62	104	2483027968	60	14760
2026-01-26 10:29:31.02	352.17	4.24	-45.5	-56.9	3.8	8.47e-01	0	62	104	2483027968	60	15188
2026-01-26 10:29:34.05	351.94	4.06	-44.9	-56.7	3.8	8.48e-01	0	62	104	2483027968	60	14728
2026-01-26 10:29:37.08	351.71	3.88	-44.8	-56.7	3.8	8.46e-01	0	62	104	2483027968	60	14765
2026-01-26 10:29:40.11	351.48	3.71	-45.0	-56.6	3.8	8.46e-01	0	62	104	2483027968	60	14692
2026-01-26 10:29:43.14	351.26	3.53	-44.9	-56.7	3.8	8.47e-01	0	62	104	2483027968	60	14722
2026-01-26 10:29:46.17	351.03	3.36	-44.9	-56.7	3.8	8.46e-01	0	62	104	2483027968	60	14738
2026-01-26 10:29:49.20	350.82	3.18	-44.9	-56.7	3.8	8.46e-01	0	62	104	2483027968	60	14763
2026-01-26 10:29:52.23	350.60	3.01	-44.9	-56.6	3.8	8.45e-01	0	62	104	2483027968	60	14705
2026-01-26 10:29:55.26	350.39	2.84	-44.9	-56.7	3.8	8.46e-01	0	62	104	2483027968	60	14775
2026-01-26 10:29:58.29	350.18	2.66	-44.9	-56.7	3.8	8.46e-01	0	62	104	2483027968	60	14770
2026-01-26 10:30:01.32	349.97	2.49	-44.9	-56.6	3.8	8.47e-01	0	62	104	2483027968	60	14696
2026-01-26 10:30:04.35	349.76	2.32	-43.6	-56.6	3.8	8.46e-01	0	62	104	2483027968	60	14689
2026-01-26 10:30:07.38	349.56	2.15	-44.9	-56.6	3.8	8.46e-01	0	62	104	2483027968	60	14677
2026-01-26 10:30:10.41	349.36	1.98	-44.9	-56.7	3.8	8.46e-01	0	62	104	2483027968	60	14728

#Closed at: 2026-01-26 10:30:10
#Recorded file [2483 MB]: D:/lorett/data/31039_260126_131741.dat