passes_logs/2026/01/26/R2.0S_Moscow/R2.0S_Moscow__20260126_195729_FENGYUN_3G_rec.log

#Pass ID: 20260126_195729_FENGYUN 3G
#Satellite: FENGYUN 3G
#Configuration: FENGYUN 3G
#almurnet v.1.7.20251203
#Start time: 2026-01-26 19:57:29

#Version: 2.2.20231116
#Station: R2.0S_Moscow
#Location: 37.707566 lon 55.798166 lat
#TLE: 1 56232U 23055A   26025.91671677  .00046094  00000+0  69205-3 0  9999
#TLE: 2 56232  49.9949 359.5770 0004051  85.3034 274.8396 15.54373411157896

#Time	Az	El	Level	Level2	SNR	BER	BlckErr	Temp	State	Recorded	gain1	gain2
2026-01-26 19:57:29.20	262.25	2.00	-43.9	-62.0	3.8	8.46e-01	0	52	0	0	59	28898
2026-01-26 19:57:32.22	262.02	2.19	-43.9	-61.9	3.8	8.47e-01	0	53	104	0	59	28419
2026-01-26 19:57:35.25	261.78	2.38	-43.9	-61.8	3.8	8.44e-01	0	53	104	0	59	28197
2026-01-26 19:57:38.28	261.54	2.58	-43.9	-61.7	3.8	8.46e-01	0	53	104	0	59	27853
2026-01-26 19:57:41.31	261.29	2.78	-43.9	-61.8	3.8	8.46e-01	0	53	104	0	59	28153
2026-01-26 19:57:44.34	261.03	2.98	-43.9	-61.9	3.8	8.46e-01	0	54	104	0	59	28583
2026-01-26 19:57:47.37	260.77	3.18	-43.9	-62.0	3.8	8.46e-01	0	54	104	0	59	28882
2026-01-26 19:57:50.40	260.51	3.38	-43.9	-61.9	3.8	8.46e-01	0	54	104	0	59	28500
2026-01-26 19:57:53.43	260.24	3.59	-43.9	-61.5	3.8	8.46e-01	0	54	104	0	59	27297
2026-01-26 19:57:56.46	259.96	3.79	-43.9	-61.7	3.8	8.46e-01	0	54	104	0	59	28023
2026-01-26 19:57:59.49	259.68	4.00	-43.9	-61.9	3.8	8.46e-01	0	55	104	0	59	28636
2026-01-26 19:58:02.52	259.39	4.21	-43.9	-61.9	3.8	8.46e-01	0	55	104	0	59	28525
2026-01-26 19:58:05.55	259.10	4.42	-43.9	-61.8	3.8	8.46e-01	0	55	104	0	59	28114
2026-01-26 19:58:08.59	258.79	4.64	-43.9	-61.9	3.8	8.46e-01	0	55	104	0	59	28567
2026-01-26 19:58:11.62	258.49	4.86	-43.9	-61.5	3.8	8.46e-01	0	55	104	0	59	27116
2026-01-26 19:58:14.65	258.17	5.08	-43.9	-60.5	3.8	8.45e-01	0	55	104	0	59	24345
2026-01-26 19:58:17.68	257.85	5.30	-43.9	-61.1	3.8	8.46e-01	0	56	104	0	59	25915
2026-01-26 19:58:20.71	257.52	5.52	-43.9	-61.8	3.8	8.46e-01	0	56	104	0	59	28276
2026-01-26 19:58:23.74	257.19	5.75	-43.9	-61.2	3.8	8.46e-01	0	56	104	0	59	26312
2026-01-26 19:58:26.77	256.84	5.97	-43.9	-60.4	3.8	8.45e-01	0	56	104	0	59	24081
2026-01-26 19:58:29.81	256.49	6.20	-43.8	-59.8	3.8	8.46e-01	0	56	104	0	59	22503
2026-01-26 19:58:32.84	256.13	6.44	-43.8	-58.5	4.2	8.44e-01	0	56	0	0	59	19308
2026-01-26 19:58:35.87	255.77	6.67	-43.6	-54.9	5.9	8.13e-01	0	56	0	0	59	12785
2026-01-26 19:58:38.90	255.39	6.91	-43.2	-52.0	8.6	1.96e-01	0	57	0	3145728	58	9637
2026-01-26 19:58:41.93	255.01	7.15	-43.3	-52.6	8.1	3.30e-02	0	57	0	6815744	58	10406
2026-01-26 19:58:44.96	254.61	7.39	-43.9	-61.4	3.8	2.35e-01	0	57	104	8388608	58	28485
2026-01-26 19:58:48.00	254.21	7.64	-43.0	-51.1	9.5	3.03e-01	0	57	0	9437184	58	8727
2026-01-26 19:58:51.03	253.79	7.88	-41.2	-45.7	15.1	9.10e-06	0	57	0	12582912	54	5878
2026-01-26 19:58:54.06	253.37	8.13	-41.2	-45.5	15.3	0.00e+00	0	57	0	16252928	53	6088
2026-01-26 19:58:57.09	252.94	8.39	-43.2	-51.0	10.4	3.69e-01	0	57	0	18874368	56	9625
2026-01-26 19:59:00.12	252.49	8.64	-41.0	-45.1	15.8	1.02e-03	0	57	0	22544384	54	5488
2026-01-26 19:59:03.15	252.04	8.90	-40.9	-44.8	16.1	0.00e+00	0	57	0	25690112	53	5637
2026-01-26 19:59:06.19	251.57	9.16	-40.5	-44.1	16.9	0.00e+00	0	58	0	29360128	52	5475
2026-01-26 19:59:09.22	251.09	9.43	-40.6	-44.2	16.8	0.00e+00	0	58	0	32505856	52	5533
2026-01-26 19:59:12.25	250.60	9.69	-40.6	-44.2	16.8	0.00e+00	0	58	0	36175872	52	5570
2026-01-26 19:59:15.28	250.10	9.96	-40.6	-44.3	16.8	0.00e+00	0	58	0	39321600	52	5620
2026-01-26 19:59:18.31	249.58	10.23	-40.7	-44.3	16.8	0.00e+00	0	58	0	42991616	52	5625
2026-01-26 19:59:21.33	249.06	10.51	-40.3	-43.7	17.4	0.00e+00	0	58	0	46137344	52	5255
2026-01-26 19:59:24.36	248.52	10.79	-40.1	-43.4	17.7	0.00e+00	0	58	0	49807360	52	5073
2026-01-26 19:59:27.39	247.96	11.07	-40.3	-43.7	17.5	0.00e+00	0	58	0	52953088	52	5255
2026-01-26 19:59:30.42	247.39	11.35	-40.2	-43.5	17.7	0.00e+00	0	58	0	56623104	52	5105
2026-01-26 19:59:33.45	246.80	11.63	-40.2	-43.3	17.9	0.00e+00	0	58	0	59768832	52	5038
2026-01-26 19:59:36.48	246.20	11.92	-39.9	-42.9	18.3	0.00e+00	0	58	0	63438848	51	5092
2026-01-26 19:59:39.51	245.58	12.21	-39.8	-42.7	18.6	0.00e+00	0	58	0	66584576	51	4960
2026-01-26 19:59:42.53	244.95	12.51	-40.0	-43.0	18.4	0.00e+00	0	58	0	70254592	51	5104
2026-01-26 19:59:45.56	244.30	12.80	-39.7	-42.5	18.8	0.00e+00	0	58	0	73400320	51	4842
2026-01-26 19:59:48.59	243.63	13.10	-39.6	-42.3	19.1	0.00e+00	0	59	0	77070336	50	5032
2026-01-26 19:59:51.62	242.94	13.40	-39.7	-42.5	18.9	0.00e+00	0	59	0	80216064	50	5116
2026-01-26 19:59:54.65	242.23	13.70	-39.7	-42.5	18.9	0.00e+00	0	59	0	83886080	50	5120
2026-01-26 19:59:57.68	241.51	14.01	-39.5	-42.3	19.2	0.00e+00	0	59	0	87031808	50	4987
2026-01-26 20:00:00.71	240.77	14.31	-39.1	-41.7	19.8	0.00e+00	0	59	0	90701824	50	4658
2026-01-26 20:00:03.74	240.00	14.62	-39.3	-41.9	19.6	0.00e+00	0	59	0	93847552	50	4786
2026-01-26 20:00:06.77	239.22	14.93	-39.2	-41.8	19.7	0.00e+00	0	59	0	97517568	50	4715
2026-01-26 20:00:09.80	238.41	15.24	-39.2	-41.7	19.8	0.00e+00	0	59	0	100663296	50	4672
2026-01-26 20:00:12.83	237.58	15.55	-39.0	-41.5	20.0	0.00e+00	0	59	0	104333312	49	4818
2026-01-26 20:00:15.86	236.73	15.87	-39.0	-41.5	20.1	0.00e+00	0	59	0	107479040	49	4824
2026-01-26 20:00:18.89	235.85	16.18	-39.1	-41.5	19.9	0.00e+00	0	59	0	111149056	49	4868
2026-01-26 20:00:21.92	234.96	16.49	-38.7	-41.0	20.4	0.00e+00	0	59	0	114294784	49	4583
2026-01-26 20:00:24.95	234.04	16.81	-38.5	-40.8	20.7	0.00e+00	0	59	0	117964800	49	4463
2026-01-26 20:00:27.98	233.09	17.12	-38.7	-41.1	20.5	0.00e+00	0	59	0	121110528	49	4599
2026-01-26 20:00:31.01	232.12	17.43	-38.9	-41.3	20.3	0.00e+00	0	59	0	124780544	49	4737
2026-01-26 20:00:34.04	231.12	17.74	-38.4	-40.7	20.9	0.00e+00	0	59	0	127926272	48	4670
2026-01-26 20:00:37.07	230.10	18.05	-37.9	-40.0	21.5	0.00e+00	0	59	0	131596288	47	4588
2026-01-26 20:00:40.10	229.05	18.35	-38.2	-40.4	21.2	0.00e+00	0	59	0	134742016	47	4765
2026-01-26 20:00:43.13	227.98	18.65	-38.8	-41.2	20.4	0.00e+00	0	59	0	138412032	48	4931
2026-01-26 20:00:46.16	226.88	18.95	-38.2	-40.3	21.3	0.00e+00	0	60	0	141557760	48	4480
2026-01-26 20:00:49.19	225.76	19.24	-37.8	-39.9	21.7	0.00e+00	0	59	0	145227776	47	4511
2026-01-26 20:00:52.22	224.60	19.53	-37.8	-39.9	21.7	0.00e+00	0	60	0	148373504	47	4511
2026-01-26 20:00:55.25	223.42	19.81	-38.0	-40.2	21.5	0.00e+00	0	60	0	152043520	47	4667
2026-01-26 20:00:58.28	222.22	20.09	-38.2	-40.4	21.2	0.00e+00	0	60	0	155189248	47	4770
2026-01-26 20:01:01.31	220.98	20.36	-38.4	-40.6	21.0	0.00e+00	0	60	0	158859264	47	4908
2026-01-26 20:01:04.34	219.73	20.62	-38.3	-40.5	21.2	0.00e+00	0	60	0	162004992	47	4828
2026-01-26 20:01:07.37	218.44	20.87	-38.0	-40.2	21.5	0.00e+00	0	60	0	165675008	47	4656
2026-01-26 20:01:10.40	217.13	21.11	-37.7	-39.7	22.0	0.00e+00	0	60	0	168820736	47	4419
2026-01-26 20:01:13.43	215.80	21.34	-37.5	-39.5	22.1	0.00e+00	0	60	0	172490752	47	4321
2026-01-26 20:01:16.46	214.44	21.56	-37.5	-39.5	22.1	0.00e+00	0	60	0	175636480	46	4585
2026-01-26 20:01:19.49	213.07	21.77	-37.4	-39.3	22.4	0.00e+00	0	60	0	179306496	46	4493
2026-01-26 20:01:22.52	211.66	21.96	-37.8	-39.8	21.8	0.00e+00	0	60	0	182452224	46	4754
2026-01-26 20:01:25.55	210.24	22.14	-37.7	-39.7	22.0	0.00e+00	0	60	0	186122240	46	4664
2026-01-26 20:01:28.58	208.80	22.30	-37.4	-39.4	22.3	0.00e+00	0	60	0	189267968	46	4497
2026-01-26 20:01:31.61	207.35	22.45	-37.5	-39.5	22.2	0.00e+00	0	60	0	192937984	46	4555
2026-01-26 20:01:34.64	205.87	22.58	-37.0	-38.8	22.8	0.00e+00	0	60	0	196083712	45	4493
2026-01-26 20:01:37.67	204.39	22.70	-37.1	-39.0	22.7	0.00e+00	0	60	0	199753728	45	4556
2026-01-26 20:01:40.70	202.89	22.80	-37.3	-39.3	22.4	0.00e+00	0	60	0	202899456	45	4707
2026-01-26 20:01:43.73	201.38	22.88	-37.1	-39.1	22.6	0.00e+00	0	60	0	206569472	45	4605
2026-01-26 20:01:46.76	199.86	22.94	-37.3	-39.3	22.4	0.00e+00	0	60	0	209715200	45	4716
2026-01-26 20:01:49.79	198.34	22.99	-37.7	-39.8	21.9	0.00e+00	0	60	0	213385216	46	4717
2026-01-26 20:01:52.82	196.81	23.01	-37.8	-39.9	21.8	0.00e+00	0	60	0	216530944	46	4767
2026-01-26 20:01:55.85	195.28	23.02	-37.4	-39.4	22.3	0.00e+00	0	60	0	220200960	46	4517
2026-01-26 20:01:58.89	193.75	23.01	-37.1	-39.0	22.7	0.00e+00	0	60	0	223346688	46	4335
2026-01-26 20:02:01.91	192.22	22.98	-37.6	-39.6	22.1	0.00e+00	0	60	0	227016704	46	4638
2026-01-26 20:02:04.94	190.70	22.92	-37.9	-40.0	21.7	0.00e+00	0	60	0	230162432	46	4837
2026-01-26 20:02:07.97	189.19	22.86	-37.6	-39.7	22.0	0.00e+00	0	60	0	233832448	46	4652
2026-01-26 20:02:11.00	187.68	22.77	-37.1	-39.0	22.6	0.00e+00	0	60	0	236978176	46	4338
2026-01-26 20:02:14.03	186.18	22.67	-37.0	-38.8	22.8	0.00e+00	0	60	0	240648192	45	4493
2026-01-26 20:02:17.06	184.70	22.54	-37.2	-39.1	22.5	0.00e+00	0	60	0	243793920	45	4630
2026-01-26 20:02:20.09	183.23	22.41	-36.6	-38.4	23.2	0.00e+00	0	61	0	247463936	45	4266
2026-01-26 20:02:23.12	181.78	22.25	-37.2	-39.1	22.5	0.00e+00	0	60	0	250609664	45	4643
2026-01-26 20:02:26.15	180.34	22.08	-37.6	-39.6	22.0	0.00e+00	0	61	0	254279680	45	4888
2026-01-26 20:02:29.17	178.93	21.90	-37.2	-39.1	22.5	0.00e+00	0	61	0	257425408	45	4625
2026-01-26 20:02:32.20	177.54	21.70	-37.6	-39.7	22.0	0.00e+00	0	61	0	261095424	45	4934
2026-01-26 20:02:35.23	176.17	21.49	-37.8	-39.8	21.8	0.00e+00	0	61	0	264241152	46	4753
2026-01-26 20:02:38.27	174.81	21.27	-37.6	-39.6	22.0	0.00e+00	0	61	0	267911168	46	4651
2026-01-26 20:02:41.30	173.48	21.03	-38.1	-40.2	21.5	0.00e+00	0	61	0	271056896	47	4675
2026-01-26 20:02:44.33	172.18	20.79	-37.9	-40.0	21.7	0.00e+00	0	61	0	274726912	47	4566
2026-01-26 20:02:47.36	170.91	20.53	-38.1	-40.3	21.5	0.00e+00	0	61	0	277872640	47	4712
2026-01-26 20:02:50.39	169.65	20.27	-38.3	-40.5	21.2	0.00e+00	0	61	0	281542656	47	4827
2026-01-26 20:02:53.42	168.43	20.00	-38.6	-40.9	20.8	0.00e+00	0	61	0	284688384	47	5100
2026-01-26 20:02:56.45	167.23	19.72	-37.9	-40.0	21.8	0.00e+00	0	61	0	288358400	47	4552
2026-01-26 20:02:59.48	166.06	19.44	-38.5	-40.7	21.1	0.00e+00	0	61	0	291504128	47	4982
2026-01-26 20:03:02.50	164.91	19.15	-38.7	-41.0	20.8	0.00e+00	0	61	0	295174144	48	4865
2026-01-26 20:03:05.53	163.79	18.85	-38.5	-40.7	21.0	0.00e+00	0	61	0	298319872	48	4697
2026-01-26 20:03:08.56	162.70	18.55	-38.3	-40.5	21.3	0.00e+00	0	61	0	301989888	48	4584
2026-01-26 20:03:11.59	161.63	18.25	-38.7	-41.0	20.9	0.00e+00	0	61	0	305135616	48	4855
2026-01-26 20:03:14.63	160.59	17.94	-38.6	-40.8	21.1	0.00e+00	0	61	0	308805632	48	4741
2026-01-26 20:03:17.66	159.58	17.63	-38.6	-40.8	21.0	0.00e+00	0	61	0	311951360	48	4754
2026-01-26 20:03:20.69	158.59	17.32	-38.8	-41.1	20.8	0.00e+00	0	61	0	315621376	48	4890
2026-01-26 20:03:23.72	157.62	17.01	-38.8	-41.1	20.7	0.00e+00	0	61	0	318767104	48	4923
2026-01-26 20:03:26.75	156.68	16.70	-39.0	-41.4	20.5	0.00e+00	0	61	0	322437120	48	5062
2026-01-26 20:03:29.78	155.77	16.38	-38.8	-41.1	20.7	0.00e+00	0	61	0	325582848	48	4917
2026-01-26 20:03:32.81	154.88	16.07	-39.2	-41.7	20.1	0.00e+00	0	61	0	329252864	48	5251
2026-01-26 20:03:35.84	154.01	15.76	-39.3	-41.8	20.0	0.00e+00	0	61	0	332398592	49	5007
2026-01-26 20:03:38.87	153.16	15.44	-39.4	-42.0	19.8	0.00e+00	0	61	0	336068608	49	5125
2026-01-26 20:03:41.90	152.34	15.13	-39.4	-42.0	19.8	0.00e+00	0	61	0	339214336	49	5133
2026-01-26 20:03:44.93	151.54	14.82	-39.5	-42.1	19.7	0.00e+00	0	61	0	342884352	49	5215
2026-01-26 20:03:47.96	150.76	14.51	-39.6	-42.4	19.4	0.00e+00	0	61	0	346030080	49	5350
2026-01-26 20:03:50.99	150.00	14.20	-39.6	-42.3	19.4	0.00e+00	0	61	0	349700096	49	5339
2026-01-26 20:03:54.02	149.26	13.89	-39.9	-42.8	18.9	0.00e+00	0	61	0	352845824	50	5340
2026-01-26 20:03:57.05	148.54	13.59	-39.7	-42.5	19.2	0.00e+00	0	61	0	356515840	50	5131
2026-01-26 20:04:00.07	147.84	13.29	-39.9	-42.7	19.1	0.00e+00	0	61	0	359661568	50	5245
2026-01-26 20:04:03.11	147.15	12.99	-40.1	-43.2	18.5	0.00e+00	0	61	0	363331584	50	5572
2026-01-26 20:04:06.13	146.49	12.69	-40.1	-43.3	18.3	0.00e+00	0	61	0	366477312	51	5340
2026-01-26 20:04:09.16	145.85	12.39	-40.4	-43.6	18.0	0.00e+00	0	61	0	370147328	51	5508
2026-01-26 20:04:12.20	145.21	12.10	-40.2	-43.4	18.2	0.00e+00	0	61	0	373293056	51	5369
2026-01-26 20:04:15.22	144.60	11.81	-40.3	-43.5	18.0	0.00e+00	0	61	0	376963072	51	5439
2026-01-26 20:04:18.25	144.00	11.52	-40.2	-43.6	17.9	0.00e+00	0	61	0	380108800	51	5469
2026-01-26 20:04:21.28	143.42	11.24	-40.3	-43.5	17.9	0.00e+00	0	61	0	383778816	51	5454
2026-01-26 20:04:24.31	142.85	10.95	-40.3	-43.6	17.8	0.00e+00	0	61	0	386924544	51	5479
2026-01-26 20:04:27.33	142.30	10.68	-40.5	-44.0	17.3	0.00e+00	0	61	0	390594560	51	5766
2026-01-26 20:04:30.36	141.76	10.40	-40.5	-44.1	17.0	0.00e+00	0	61	0	393740288	51	5843
2026-01-26 20:04:33.40	141.23	10.12	-40.6	-44.4	16.7	0.00e+00	0	61	0	397410304	51	6049
2026-01-26 20:04:36.43	140.72	9.85	-40.3	-44.1	16.7	0.00e+00	0	61	0	400556032	52	5482
2026-01-26 20:04:39.46	140.22	9.58	-40.5	-44.5	16.1	1.10e-06	0	61	0	404226048	52	5784
2026-01-26 20:04:42.49	139.73	9.32	-40.5	-44.9	15.6	1.48e-05	0	61	0	407371776	52	6007
2026-01-26 20:04:45.52	139.26	9.05	-41.3	-48.4	11.3	2.06e-04	0	61	0	411041792	53	8537
2026-01-26 20:04:48.55	138.79	8.79	-42.4	-57.2	4.2	4.00e-01	0	61	0	412614656	55	20834
2026-01-26 20:04:51.58	138.34	8.54	-41.5	-59.6	3.8	8.42e-01	0	61	104	412614656	53	30814
2026-01-26 20:04:54.60	137.90	8.28	-41.7	-60.6	4.0	8.45e-01	0	61	104	412614656	54	32690
2026-01-26 20:04:57.63	137.47	8.03	-39.1	-57.2	5.6	8.38e-01	0	61	104	412614656	40	49543
2026-01-26 20:05:00.66	137.05	7.78	-45.1	-63.4	3.8	8.40e-01	0	62	104	412614656	60	32031
2026-01-26 20:05:03.69	136.64	7.53	-45.3	-63.6	3.8	8.46e-01	0	61	104	412614656	61	30903
2026-01-26 20:05:06.72	136.24	7.29	-45.3	-63.6	3.8	8.45e-01	0	61	104	412614656	61	30994
2026-01-26 20:05:09.76	135.84	7.05	-45.1	-63.3	3.8	8.46e-01	0	61	104	412614656	61	29795
2026-01-26 20:05:12.79	135.46	6.81	-45.0	-63.1	3.8	8.46e-01	0	61	104	412614656	61	29225
2026-01-26 20:05:15.82	135.09	6.57	-44.9	-63.1	3.8	8.46e-01	0	61	104	412614656	61	29085
2026-01-26 20:05:18.85	134.72	6.34	-45.0	-63.1	3.8	8.46e-01	0	61	104	412614656	61	29064
2026-01-26 20:05:21.88	134.36	6.10	-45.0	-63.1	3.8	8.46e-01	0	61	104	412614656	61	29081
2026-01-26 20:05:24.91	134.02	5.87	-45.0	-63.1	3.8	8.46e-01	0	62	104	412614656	61	29047
2026-01-26 20:05:27.94	133.67	5.65	-44.9	-63.1	3.8	8.46e-01	0	61	104	412614656	61	29023
2026-01-26 20:05:30.97	133.34	5.42	-44.9	-63.0	3.8	8.46e-01	0	61	104	412614656	61	28966
2026-01-26 20:05:34.00	133.01	5.20	-44.9	-63.0	3.8	8.46e-01	0	61	104	412614656	61	28827
2026-01-26 20:05:37.03	132.69	4.98	-44.9	-63.0	3.8	8.46e-01	0	61	104	412614656	60	30551
2026-01-26 20:05:40.06	132.38	4.76	-44.9	-63.0	3.8	8.46e-01	0	61	104	412614656	60	30519
2026-01-26 20:05:43.09	132.07	4.54	-44.9	-63.0	3.8	8.46e-01	0	61	104	412614656	60	30515
2026-01-26 20:05:46.12	131.77	4.33	-44.9	-63.0	3.8	8.45e-01	0	62	104	412614656	60	30506
2026-01-26 20:05:49.15	131.48	4.12	-44.9	-63.0	3.8	8.47e-01	0	61	104	412614656	60	30471
2026-01-26 20:05:52.18	131.19	3.91	-44.9	-63.0	3.8	8.45e-01	0	62	104	412614656	60	30520
2026-01-26 20:05:55.21	130.91	3.70	-44.9	-63.0	3.8	8.47e-01	0	62	104	412614656	60	30540
2026-01-26 20:05:58.24	130.64	3.49	-44.9	-63.0	3.8	8.46e-01	0	61	104	412614656	60	30527
2026-01-26 20:06:01.27	130.37	3.29	-44.8	-63.0	3.8	8.47e-01	0	61	104	412614656	60	30461
2026-01-26 20:06:04.30	130.10	3.08	-44.9	-62.9	3.8	8.46e-01	0	61	104	412614656	60	30352
2026-01-26 20:06:07.33	129.84	2.88	-44.9	-63.0	3.8	8.46e-01	0	61	104	412614656	60	30408
2026-01-26 20:06:10.36	129.59	2.68	-44.9	-62.9	3.8	8.46e-01	0	61	104	412614656	60	30322
2026-01-26 20:06:13.40	129.34	2.48	-44.9	-62.9	3.8	8.46e-01	0	61	104	412614656	60	30344
2026-01-26 20:06:16.43	129.10	2.29	-44.9	-62.9	3.8	8.45e-01	0	62	104	412614656	60	30346
2026-01-26 20:06:19.46	128.86	2.09	-44.9	-63.0	3.8	8.46e-01	0	62	104	412614656	60	30400

#Closed at: 2026-01-26 20:06:21
#Recorded file [412 MB]: D:/lorett/data/31039_260126_225729.dat