passes_logs/2026/01/26/R2.0S_Moscow/R2.0S_Moscow__20260126_115616_FENGYUN_3D_rec.log

#Pass ID: 20260126_115616_FENGYUN 3D
#Satellite: FENGYUN 3D
#Configuration: FENGYUN 3D
#almurnet v.1.7.20251203
#Start time: 2026-01-26 11:56:17

#Version: 2.2.20231116
#Station: R2.0S_Moscow
#Location: 37.707566 lon 55.798166 lat
#TLE: 1 43010U 17072A   26025.85700374 -.00000071  00000+0 -11715-4 0  9992
#TLE: 2 43010  98.9962 357.8423 0002518  90.2035 269.9429 14.19699460424796

#Time	Az	El	Level	Level2	SNR	BER	BlckErr	Temp	State	Recorded	gain1	gain2
2026-01-26 11:56:17.57	158.99	2.04	-44.1	-55.7	3.8	8.46e-01	0	53	0	0	59	13930
2026-01-26 11:56:21.62	158.99	2.30	-44.0	-55.6	3.8	8.47e-01	0	53	104	0	59	13885
2026-01-26 11:56:25.66	159.00	2.57	-44.0	-55.6	3.8	8.46e-01	0	54	104	0	59	13846
2026-01-26 11:56:29.70	159.00	2.84	-44.0	-55.6	3.8	8.46e-01	0	54	104	0	59	13841
2026-01-26 11:56:33.74	159.00	3.10	-44.0	-55.6	3.8	8.46e-01	0	54	104	0	59	13858
2026-01-26 11:56:37.78	159.00	3.38	-44.0	-55.6	3.8	8.47e-01	0	55	104	0	59	13827
2026-01-26 11:56:41.82	159.00	3.65	-44.0	-55.6	3.8	8.47e-01	0	55	104	0	59	13781
2026-01-26 11:56:45.87	159.00	3.93	-43.9	-55.6	3.8	8.46e-01	0	55	104	0	59	13766
2026-01-26 11:56:49.91	159.01	4.21	-44.0	-55.6	3.8	8.46e-01	0	55	104	0	59	13837
2026-01-26 11:56:53.95	159.01	4.49	-43.9	-55.5	3.8	8.46e-01	0	56	104	0	59	13717
2026-01-26 11:56:57.99	159.01	4.78	-43.9	-55.6	3.8	8.46e-01	0	56	104	0	59	13741
2026-01-26 11:57:02.04	159.01	5.07	-43.9	-55.4	3.8	8.46e-01	0	56	104	0	59	13478
2026-01-26 11:57:06.08	159.01	5.36	-43.9	-55.0	3.8	8.46e-01	0	56	104	0	59	12955
2026-01-26 11:57:10.12	159.01	5.66	-43.7	-53.6	3.9	8.46e-01	0	57	104	0	59	11021
2026-01-26 11:57:14.17	159.01	5.96	-43.5	-51.9	4.2	8.36e-01	0	57	0	0	58	9538
2026-01-26 11:57:18.21	159.01	6.26	-43.3	-50.9	4.6	8.18e-01	0	57	0	0	58	8509
2026-01-26 11:57:22.25	159.01	6.57	-43.4	-51.4	4.4	8.28e-01	0	57	0	0	58	9059
2026-01-26 11:57:26.29	159.01	6.88	-43.7	-54.0	3.8	8.46e-01	0	57	104	0	58	12116
2026-01-26 11:57:30.34	159.01	7.19	-43.4	-51.7	4.3	8.38e-01	0	58	0	0	58	9309
2026-01-26 11:57:34.38	159.01	7.51	-41.6	-46.1	7.9	1.15e-01	0	58	0	11534336	55	5840
2026-01-26 11:57:38.42	159.01	7.83	-40.1	-43.1	11.0	3.16e-03	0	58	0	34603008	52	4925
2026-01-26 11:57:42.46	159.01	8.16	-40.1	-43.1	11.2	3.07e-03	0	58	0	56623104	51	5218
2026-01-26 11:57:46.51	159.00	8.49	-41.4	-45.5	8.4	4.57e-01	0	58	0	75497472	55	5459
2026-01-26 11:57:50.55	159.00	8.82	-39.6	-42.3	12.0	4.15e-04	0	58	0	98566144	51	4742
2026-01-26 11:57:54.59	159.00	9.16	-39.5	-42.1	12.3	2.32e-04	0	59	0	120586240	50	4912
2026-01-26 11:57:58.63	159.00	9.51	-39.1	-41.6	13.0	6.52e-05	0	59	0	143654912	50	4603
2026-01-26 11:58:02.67	158.99	9.86	-39.1	-41.4	13.1	2.97e-05	0	59	0	166723584	50	4533
2026-01-26 11:58:06.72	158.99	10.21	-39.0	-41.3	13.4	3.54e-05	0	59	0	188743680	49	4747
2026-01-26 11:58:10.76	158.99	10.57	-39.1	-41.4	13.3	2.51e-05	0	59	0	211812352	49	4767
2026-01-26 11:58:14.80	158.98	10.93	-39.0	-41.2	13.6	1.25e-05	0	59	0	234881024	49	4683
2026-01-26 11:58:18.84	158.98	11.30	-38.9	-41.2	13.6	1.83e-05	0	59	0	256901120	49	4676
2026-01-26 11:58:22.89	158.97	11.68	-39.0	-41.2	13.7	8.00e-06	0	59	0	279969792	49	4684
2026-01-26 11:58:26.93	158.97	12.06	-38.8	-41.0	13.9	5.70e-06	0	59	0	303038464	49	4573
2026-01-26 11:58:30.97	158.96	12.45	-38.8	-40.9	14.0	8.00e-06	0	59	0	326107136	49	4518
2026-01-26 11:58:35.01	158.96	12.84	-38.6	-40.7	14.2	2.20e-06	0	60	0	348127232	49	4419
2026-01-26 11:58:39.05	158.95	13.24	-38.5	-40.6	14.4	2.20e-06	0	60	0	371195904	49	4356
2026-01-26 11:58:43.09	158.94	13.65	-38.4	-40.4	14.6	1.10e-06	0	60	0	393216000	48	4518
2026-01-26 11:58:47.13	158.94	14.06	-38.3	-40.3	14.8	0.00e+00	0	60	0	416284672	48	4450
2026-01-26 11:58:51.18	158.93	14.49	-38.1	-40.1	15.0	0.00e+00	0	60	0	439353344	48	4346
2026-01-26 11:58:55.22	158.92	14.92	-38.1	-40.0	15.1	0.00e+00	0	60	0	462422016	48	4307
2026-01-26 11:58:59.26	158.91	15.35	-37.7	-39.6	15.4	0.00e+00	0	60	0	484442112	47	4364
2026-01-26 11:59:03.30	158.90	15.80	-37.6	-39.5	15.5	0.00e+00	0	60	0	507510784	47	4304
2026-01-26 11:59:07.34	158.89	16.25	-37.5	-39.3	15.6	0.00e+00	0	60	0	530579456	47	4237
2026-01-26 11:59:11.38	158.88	16.71	-37.5	-39.3	15.7	0.00e+00	0	60	0	552599552	47	4208
2026-01-26 11:59:15.42	158.87	17.18	-37.3	-39.0	15.9	0.00e+00	0	60	0	575668224	46	4330
2026-01-26 11:59:19.47	158.86	17.66	-37.2	-39.0	16.0	0.00e+00	0	61	0	598736896	46	4294
2026-01-26 11:59:23.51	158.84	18.15	-37.1	-38.8	16.2	0.00e+00	0	61	0	620756992	46	4230
2026-01-26 11:59:27.54	158.83	18.65	-37.0	-38.6	16.4	0.00e+00	0	61	0	643825664	45	4388
2026-01-26 11:59:31.58	158.81	19.16	-36.9	-38.6	16.4	0.00e+00	0	61	0	666894336	45	4348
2026-01-26 11:59:35.62	158.80	19.68	-36.9	-38.5	16.5	0.00e+00	0	61	0	688914432	45	4328
2026-01-26 11:59:39.67	158.78	20.21	-37.0	-38.6	16.4	0.00e+00	0	61	0	711983104	45	4369
2026-01-26 11:59:43.71	158.76	20.75	-36.9	-38.5	16.4	0.00e+00	0	61	0	735051776	45	4333
2026-01-26 11:59:47.75	158.74	21.31	-36.9	-38.5	16.4	0.00e+00	0	61	0	757071872	45	4337
2026-01-26 11:59:51.79	158.72	21.87	-36.5	-38.1	16.8	0.00e+00	0	61	0	780140544	45	4144
2026-01-26 11:59:55.83	158.70	22.45	-36.5	-38.1	16.9	0.00e+00	0	61	0	803209216	44	4371
2026-01-26 11:59:59.87	158.68	23.05	-36.3	-37.8	17.2	0.00e+00	0	61	0	825229312	44	4218
2026-01-26 12:00:03.91	158.66	23.65	-36.2	-37.7	17.3	0.00e+00	0	61	0	848297984	44	4160
2026-01-26 12:00:07.95	158.63	24.28	-36.2	-37.7	17.3	0.00e+00	0	61	0	871366656	44	4169
2026-01-26 12:00:12.00	158.60	24.91	-36.1	-37.5	17.5	0.00e+00	0	61	0	893386752	44	4093
2026-01-26 12:00:16.04	158.58	25.57	-36.1	-37.6	17.4	0.00e+00	0	61	0	916455424	44	4122
2026-01-26 12:00:20.08	158.55	26.24	-36.1	-37.5	17.4	0.00e+00	0	61	0	939524096	44	4097
2026-01-26 12:00:24.13	158.51	26.92	-36.0	-37.5	17.5	0.00e+00	0	61	0	962592768	44	4089
2026-01-26 12:00:28.17	158.48	27.63	-36.2	-37.7	17.3	0.00e+00	0	62	0	984612864	44	4169
2026-01-26 12:00:32.21	158.44	28.35	-36.1	-37.6	17.3	0.00e+00	0	61	0	1007681536	44	4131
2026-01-26 12:00:36.25	158.41	29.09	-36.3	-37.8	17.1	0.00e+00	0	61	0	1029701632	44	4234
2026-01-26 12:00:40.30	158.37	29.86	-36.1	-37.6	17.3	0.00e+00	0	61	0	1052770304	44	4143
2026-01-26 12:00:44.34	158.32	30.64	-35.7	-37.2	17.6	0.00e+00	0	61	0	1075838976	43	4175
2026-01-26 12:00:48.38	158.28	31.45	-35.5	-36.9	17.9	0.00e+00	0	61	0	1098907648	42	4273
2026-01-26 12:00:52.43	158.23	32.28	-35.5	-37.0	17.8	0.00e+00	0	62	0	1120927744	42	4315
2026-01-26 12:00:56.47	158.17	33.13	-35.7	-37.2	17.7	0.00e+00	0	62	0	1143996416	42	4393
2026-01-26 12:01:00.51	158.12	34.00	-35.6	-37.1	17.7	0.00e+00	0	61	0	1167065088	42	4360
2026-01-26 12:01:04.55	158.06	34.91	-35.4	-36.8	18.0	0.00e+00	0	62	0	1189085184	42	4224
2026-01-26 12:01:08.59	158.00	35.83	-35.3	-36.7	18.1	0.00e+00	0	61	0	1212153856	42	4183
2026-01-26 12:01:12.63	157.93	36.79	-35.4	-36.8	18.0	0.00e+00	0	62	0	1235222528	42	4240
2026-01-26 12:01:16.67	157.85	37.78	-35.2	-36.6	18.2	0.00e+00	0	61	0	1257242624	42	4144
2026-01-26 12:01:20.71	157.78	38.79	-35.1	-36.5	18.3	0.00e+00	0	62	0	1280311296	42	4070
2026-01-26 12:01:24.75	157.69	39.83	-35.8	-37.2	17.6	0.00e+00	0	62	0	1303379968	42	4441
2026-01-26 12:01:28.79	157.60	40.91	-36.2	-37.8	17.2	0.00e+00	0	62	0	1325400064	42	4712
2026-01-26 12:01:32.83	157.50	42.02	-35.9	-37.3	17.6	0.00e+00	0	62	0	1348468736	42	4484
2026-01-26 12:01:36.87	157.40	43.17	-35.9	-37.4	17.6	0.00e+00	0	62	0	1371537408	42	4499
2026-01-26 12:01:40.91	157.28	44.35	-35.8	-37.3	17.7	0.00e+00	0	62	0	1393557504	42	4445
2026-01-26 12:01:44.96	157.16	45.57	-36.1	-37.6	17.4	0.00e+00	0	62	0	1416626176	42	4625
2026-01-26 12:01:49.00	157.02	46.82	-35.9	-37.4	17.6	0.00e+00	0	62	0	1439694848	42	4496
2026-01-26 12:01:53.03	156.87	48.11	-35.8	-37.2	17.8	0.00e+00	0	62	0	1461714944	42	4416
2026-01-26 12:01:57.08	156.71	49.44	-36.0	-37.5	17.6	0.00e+00	0	62	0	1484783616	42	4554
2026-01-26 12:02:01.11	156.53	50.81	-36.2	-37.7	17.4	0.00e+00	0	62	0	1507852288	43	4413
2026-01-26 12:02:05.16	156.33	52.23	-36.5	-38.1	17.0	0.00e+00	0	62	0	1529872384	43	4627
2026-01-26 12:02:09.20	156.11	53.69	-37.0	-38.6	16.6	0.00e+00	0	62	0	1552941056	44	4632
2026-01-26 12:02:13.24	155.86	55.18	-37.2	-38.8	16.4	0.00e+00	0	62	0	1576009728	45	4488
2026-01-26 12:02:17.28	155.59	56.72	-36.5	-38.0	17.2	0.00e+00	0	62	0	1599078400	44	4305
2026-01-26 12:02:21.33	155.28	58.31	-36.4	-37.9	17.3	0.00e+00	0	62	0	1621098496	44	4277
2026-01-26 12:02:25.37	154.93	59.94	-36.2	-37.6	17.5	0.00e+00	0	62	0	1644167168	44	4140
2026-01-26 12:02:29.41	154.53	61.60	-36.2	-37.7	17.5	0.00e+00	0	62	0	1666187264	44	4157
2026-01-26 12:02:33.45	154.07	63.31	-35.4	-36.7	18.2	0.00e+00	0	62	0	1689255936	42	4192
2026-01-26 12:02:37.50	153.54	65.07	-35.2	-36.6	18.3	0.00e+00	0	62	0	1712324608	42	4108
2026-01-26 12:02:41.54	152.91	66.85	-34.9	-36.2	18.6	0.00e+00	0	62	0	1735393280	41	4189
2026-01-26 12:02:45.58	152.16	68.68	-34.8	-36.1	18.7	0.00e+00	0	62	0	1757413376	41	4111
2026-01-26 12:02:49.63	151.26	70.54	-34.4	-35.7	19.1	0.00e+00	0	62	0	1780482048	40	4150
2026-01-26 12:02:53.67	150.15	72.42	-34.5	-35.8	19.0	0.00e+00	0	62	0	1803550720	40	4236
2026-01-26 12:02:57.71	148.74	74.33	-34.2	-35.5	19.2	0.00e+00	0	62	0	1825570816	40	4054
2026-01-26 12:03:01.75	146.93	76.26	-34.1	-35.4	19.3	0.00e+00	0	62	0	1848639488	40	4018
2026-01-26 12:03:05.79	144.49	78.19	-33.8	-35.1	19.7	0.00e+00	0	62	0	1871708160	39	4107
2026-01-26 12:03:09.83	141.07	80.12	-33.4	-34.6	20.0	0.00e+00	0	62	0	1893728256	38	4140
2026-01-26 12:03:13.87	135.97	82.02	-33.0	-34.2	20.4	0.00e+00	0	62	0	1916796928	38	3942
2026-01-26 12:03:17.92	127.71	83.83	-33.2	-34.4	20.2	0.00e+00	0	62	0	1939865600	37	4261
2026-01-26 12:03:21.96	113.22	85.41	-33.9	-35.1	19.6	0.00e+00	0	62	0	1961885696	38	4385
2026-01-26 12:03:26.00	87.32	86.45	-33.8	-35.1	19.6	0.00e+00	0	62	0	1984954368	38	4344
2026-01-26 12:03:30.05	53.17	86.42	-34.3	-35.6	19.1	0.00e+00	0	62	0	2008023040	39	4354
2026-01-26 12:03:34.09	28.00	85.34	-33.7	-34.9	19.7	0.00e+00	0	62	0	2031091712	39	4043
2026-01-26 12:03:38.13	13.99	83.73	-33.5	-34.8	19.9	0.00e+00	0	62	0	2053111808	38	4206
2026-01-26 12:03:42.17	6.00	81.92	-33.0	-34.2	20.5	0.00e+00	0	62	0	2076180480	38	3935
2026-01-26 12:03:46.21	1.01	80.02	-33.4	-34.6	20.1	0.00e+00	0	62	0	2098200576	37	4371
2026-01-26 12:03:50.25	357.66	78.10	-33.8	-35.1	19.7	0.00e+00	0	62	0	2121269248	38	4357
2026-01-26 12:03:54.29	355.26	76.17	-34.0	-35.3	19.6	0.00e+00	0	62	0	2144337920	38	4452
2026-01-26 12:03:58.33	353.47	74.24	-34.2	-35.5	19.3	0.00e+00	0	62	0	2167406592	39	4326
2026-01-26 12:04:02.37	352.09	72.34	-34.5	-35.8	19.1	0.00e+00	0	62	0	2189426688	39	4451
2026-01-26 12:04:06.42	350.99	70.45	-34.8	-36.1	18.7	0.00e+00	0	62	0	2212495360	40	4384
2026-01-26 12:04:10.46	350.09	68.60	-35.0	-36.4	18.5	0.00e+00	0	62	0	2235564032	41	4259
2026-01-26 12:04:14.50	349.35	66.78	-35.1	-36.4	18.5	0.00e+00	0	62	0	2257584128	41	4285
2026-01-26 12:04:18.55	348.73	65.00	-35.2	-36.6	18.4	0.00e+00	0	62	0	2280652800	40	4610
2026-01-26 12:04:22.58	348.20	63.26	-35.0	-36.3	18.8	0.00e+00	0	62	0	2303721472	40	4467
2026-01-26 12:04:26.63	347.75	61.55	-35.2	-36.5	18.5	0.00e+00	0	62	0	2325741568	41	4336
2026-01-26 12:04:30.66	347.35	59.90	-35.7	-37.2	17.9	3.40e-06	0	62	0	2348810240	41	4653
2026-01-26 12:04:34.70	347.01	58.28	-36.2	-37.7	17.4	9.10e-06	0	62	0	2371878912	42	4652
2026-01-26 12:04:38.74	346.70	56.70	-36.4	-37.9	17.2	0.00e+00	0	62	0	2393899008	43	4499
2026-01-26 12:04:42.78	346.43	55.17	-36.9	-38.5	16.8	0.00e+00	0	62	0	2416967680	44	4567
2026-01-26 12:04:46.82	346.19	53.68	-36.6	-38.1	17.1	0.00e+00	0	62	0	2440036352	44	4363
2026-01-26 12:04:50.87	345.97	52.23	-36.7	-38.1	17.3	0.00e+00	0	62	0	2463105024	44	4380
2026-01-26 12:04:54.91	345.77	50.82	-36.2	-37.5	17.9	0.00e+00	0	62	0	2485125120	44	4096
2026-01-26 12:04:58.95	345.60	49.45	-36.0	-37.3	18.0	0.00e+00	0	62	0	2508193792	43	4237
2026-01-26 12:05:02.99	345.44	48.13	-36.0	-37.4	17.9	0.00e+00	0	62	0	2530213888	43	4259
2026-01-26 12:05:07.04	345.29	46.84	-35.7	-37.1	18.2	0.00e+00	0	62	0	2553282560	43	4116
2026-01-26 12:05:11.08	345.15	45.59	-35.8	-37.2	18.1	0.00e+00	0	62	0	2576351232	43	4154
2026-01-26 12:05:15.12	345.03	44.38	-35.6	-36.9	18.4	0.00e+00	0	62	0	2599419904	43	4018
2026-01-26 12:05:19.16	344.92	43.20	-35.9	-37.3	18.0	0.00e+00	0	62	0	2621440000	43	4225
2026-01-26 12:05:23.21	344.81	42.06	-35.9	-37.3	18.0	0.00e+00	0	62	0	2644508672	43	4199
2026-01-26 12:05:27.25	344.72	40.96	-35.5	-36.7	18.5	0.00e+00	0	62	0	2667577344	42	4189
2026-01-26 12:05:31.29	344.63	39.89	-35.4	-36.7	18.6	0.00e+00	0	62	0	2689597440	42	4155
2026-01-26 12:05:35.34	344.54	38.84	-34.8	-36.0	19.1	0.00e+00	0	62	0	2712666112	41	4080
2026-01-26 12:05:39.38	344.47	37.83	-35.1	-36.3	18.9	0.00e+00	0	62	0	2735734784	41	4226
2026-01-26 12:05:43.42	344.40	36.85	-35.6	-37.0	18.2	0.00e+00	0	62	0	2757754880	41	4568
2026-01-26 12:05:47.46	344.33	35.90	-35.6	-36.9	18.2	0.00e+00	0	62	0	2780823552	41	4524
2026-01-26 12:05:51.50	344.27	34.98	-35.3	-36.6	18.6	0.00e+00	0	62	0	2803892224	41	4343
2026-01-26 12:05:55.54	344.21	34.08	-35.6	-36.9	18.2	0.00e+00	0	62	0	2825912320	41	4510
2026-01-26 12:05:59.58	344.16	33.21	-35.9	-37.3	17.8	0.00e+00	0	62	0	2848980992	42	4461
2026-01-26 12:06:03.62	344.11	32.36	-36.0	-37.4	17.7	0.00e+00	0	62	0	2872049664	42	4541
2026-01-26 12:06:07.67	344.06	31.54	-35.8	-37.2	17.9	0.00e+00	0	62	0	2894069760	42	4421
2026-01-26 12:06:11.71	344.02	30.73	-35.7	-37.0	18.1	0.00e+00	0	62	0	2917138432	42	4304
2026-01-26 12:06:15.75	343.98	29.95	-35.6	-36.9	18.1	0.00e+00	0	62	0	2940207104	42	4273
2026-01-26 12:06:19.78	343.94	29.20	-35.8	-37.1	17.9	0.00e+00	0	62	0	2962227200	42	4379
2026-01-26 12:06:23.82	343.90	28.46	-35.8	-37.1	17.9	0.00e+00	0	62	0	2985295872	42	4373
2026-01-26 12:06:27.86	343.87	27.74	-35.6	-36.9	18.0	0.00e+00	0	62	0	3008364544	42	4257
2026-01-26 12:06:31.91	343.84	27.03	-35.5	-36.8	18.1	0.00e+00	0	62	0	3030384640	42	4219
2026-01-26 12:06:35.95	343.81	26.35	-35.6	-37.0	17.8	0.00e+00	0	62	0	3053453312	42	4318
2026-01-26 12:06:39.99	343.78	25.68	-35.9	-37.4	17.3	0.00e+00	0	62	0	3076521984	42	4514
2026-01-26 12:06:44.03	343.75	25.03	-36.0	-37.5	17.1	0.00e+00	0	62	0	3098542080	42	4572
2026-01-26 12:06:48.07	343.73	24.40	-36.1	-37.5	17.0	0.00e+00	0	62	0	3121610752	42	4582
2026-01-26 12:06:52.12	343.71	23.78	-36.1	-37.6	16.8	0.00e+00	0	62	0	3144679424	42	4638
2026-01-26 12:06:56.16	343.69	23.17	-36.0	-37.5	16.6	0.00e+00	0	62	0	3166699520	43	4327
2026-01-26 12:07:00.20	343.67	22.58	-36.3	-38.1	15.3	0.00e+00	0	62	0	3189768192	43	4624
2026-01-26 12:07:04.24	343.65	22.00	-36.1	-37.8	15.3	0.00e+00	0	62	0	3212836864	43	4485
2026-01-26 12:07:08.28	343.63	21.44	-37.2	-39.4	13.6	2.20e-06	0	62	0	3235905536	44	5057
2026-01-26 12:07:12.32	343.61	20.89	-40.1	-44.8	7.3	7.30e-02	0	62	0	3257925632	50	6697
2026-01-26 12:07:16.37	343.60	20.34	-41.0	-50.5	3.9	8.46e-01	0	62	104	3265265664	52	11507
2026-01-26 12:07:20.41	343.58	19.82	-41.0	-52.3	3.8	8.47e-01	0	62	104	3265265664	52	14161
2026-01-26 12:07:24.45	343.57	19.30	-40.7	-52.1	3.8	8.47e-01	0	62	104	3265265664	53	13075
2026-01-26 12:07:28.49	343.56	18.79	-41.0	-52.5	3.8	8.47e-01	0	62	104	3265265664	53	13658
2026-01-26 12:07:32.52	343.55	18.29	-40.8	-52.3	3.8	8.46e-01	0	62	104	3265265664	53	13341
2026-01-26 12:07:36.57	343.54	17.81	-40.8	-52.3	3.8	8.45e-01	0	62	104	3265265664	53	13303
2026-01-26 12:07:40.61	343.53	17.33	-40.8	-52.3	3.8	8.45e-01	0	62	104	3265265664	53	13334
2026-01-26 12:07:44.65	343.52	16.86	-40.8	-52.3	3.8	8.46e-01	0	62	104	3265265664	53	13291
2026-01-26 12:07:48.69	343.51	16.40	-40.7	-52.2	3.8	8.47e-01	0	62	104	3265265664	53	13253
2026-01-26 12:07:52.73	343.51	15.95	-40.8	-52.3	3.8	8.45e-01	0	62	104	3265265664	53	13403
2026-01-26 12:07:56.77	343.50	15.51	-40.8	-52.3	3.8	8.47e-01	0	62	104	3265265664	53	13402
2026-01-26 12:08:00.82	343.49	15.07	-40.8	-52.3	3.8	8.46e-01	0	63	104	3265265664	53	13368
2026-01-26 12:08:04.86	343.49	14.64	-40.7	-52.2	3.8	8.45e-01	0	62	104	3265265664	53	13244
2026-01-26 12:08:08.90	343.48	14.22	-40.7	-52.2	3.8	8.45e-01	0	62	104	3265265664	53	13216
2026-01-26 12:08:12.94	343.48	13.81	-40.8	-52.3	3.8	8.45e-01	0	62	104	3265265664	53	13277
2026-01-26 12:08:16.97	343.48	13.41	-40.8	-52.3	3.8	8.46e-01	0	62	104	3265265664	53	13281
2026-01-26 12:08:21.01	343.47	13.01	-40.7	-52.2	3.8	8.46e-01	0	62	104	3265265664	53	13207
2026-01-26 12:08:25.05	343.47	12.61	-40.6	-52.1	3.8	8.46e-01	0	62	104	3265265664	53	13022
2026-01-26 12:08:29.09	343.47	12.23	-40.6	-52.1	3.8	8.46e-01	0	63	104	3265265664	53	12986
2026-01-26 12:08:33.13	343.47	11.85	-40.6	-52.1	3.8	8.47e-01	0	62	104	3265265664	53	13041
2026-01-26 12:08:37.17	343.47	11.47	-40.6	-52.2	3.8	8.45e-01	0	62	104	3265265664	52	13903
2026-01-26 12:08:41.21	343.47	11.10	-40.6	-52.1	3.8	8.47e-01	0	62	104	3265265664	52	13833
2026-01-26 12:08:45.25	343.47	10.74	-40.5	-52.0	3.8	8.46e-01	0	62	104	3265265664	52	13624
2026-01-26 12:08:49.29	343.47	10.38	-40.4	-51.9	3.8	8.45e-01	0	62	104	3265265664	52	13514
2026-01-26 12:08:53.33	343.47	10.03	-40.4	-51.9	3.8	8.45e-01	0	62	104	3265265664	52	13540
2026-01-26 12:08:57.36	343.47	9.68	-40.5	-52.0	3.8	8.46e-01	0	62	104	3265265664	52	13632
2026-01-26 12:09:01.41	343.47	9.34	-40.5	-52.0	3.8	8.46e-01	0	63	104	3265265664	52	13721
2026-01-26 12:09:05.45	343.47	9.00	-40.4	-51.9	3.8	8.46e-01	0	62	104	3265265664	52	13517
2026-01-26 12:09:09.49	343.48	8.67	-40.4	-51.9	3.8	8.46e-01	0	62	104	3265265664	52	13423
2026-01-26 12:09:13.53	343.48	8.34	-40.3	-51.9	3.8	8.46e-01	0	63	104	3265265664	52	13426
2026-01-26 12:09:17.57	343.48	8.01	-40.4	-51.9	3.8	8.46e-01	0	62	104	3265265664	52	13458
2026-01-26 12:09:21.61	343.49	7.69	-44.9	-56.7	3.8	8.47e-01	0	62	104	3265265664	60	14754
2026-01-26 12:09:25.65	343.49	7.37	-45.2	-57.0	3.8	8.47e-01	0	62	104	3265265664	60	15244
2026-01-26 12:09:29.70	343.49	7.06	-45.2	-56.9	3.8	8.47e-01	0	62	104	3265265664	60	15143
2026-01-26 12:09:33.74	343.50	6.75	-44.9	-56.8	3.8	8.47e-01	0	62	104	3265265664	60	14952
2026-01-26 12:09:37.78	343.50	6.44	-45.1	-56.8	3.8	8.46e-01	0	62	104	3265265664	60	14929
2026-01-26 12:09:41.82	343.51	6.14	-45.0	-56.8	3.8	8.48e-01	0	63	104	3265265664	60	14908
2026-01-26 12:09:45.86	343.51	5.84	-45.0	-56.7	3.8	8.46e-01	0	62	104	3265265664	60	14873
2026-01-26 12:09:49.90	343.52	5.55	-45.0	-56.8	3.8	8.46e-01	0	62	104	3265265664	60	14929
2026-01-26 12:09:53.94	343.52	5.26	-45.0	-56.8	3.8	8.46e-01	0	62	104	3265265664	60	14917
2026-01-26 12:09:57.99	343.53	4.97	-45.0	-56.8	3.8	8.47e-01	0	62	104	3265265664	60	14883
2026-01-26 12:10:02.03	343.53	4.68	-45.0	-56.8	3.8	8.46e-01	0	62	104	3265265664	60	14914
2026-01-26 12:10:06.07	343.54	4.40	-45.0	-56.8	3.8	8.47e-01	0	62	104	3265265664	60	14951
2026-01-26 12:10:10.11	343.55	4.12	-45.0	-56.7	3.8	8.46e-01	0	62	104	3265265664	60	14873
2026-01-26 12:10:14.16	343.55	3.84	-45.0	-56.7	3.8	8.47e-01	0	62	104	3265265664	60	14867
2026-01-26 12:10:18.20	343.56	3.57	-45.0	-56.8	3.8	8.47e-01	0	63	104	3265265664	60	14913
2026-01-26 12:10:22.24	343.57	3.30	-45.0	-56.7	3.8	8.45e-01	0	62	104	3265265664	60	14830
2026-01-26 12:10:26.28	343.57	3.03	-45.0	-56.7	3.8	8.46e-01	0	62	104	3265265664	60	14832
2026-01-26 12:10:30.32	343.58	2.76	-45.0	-56.7	3.8	8.46e-01	0	63	104	3265265664	60	14852
2026-01-26 12:10:34.36	343.59	2.50	-45.0	-56.7	3.8	8.47e-01	0	62	104	3265265664	60	14833
2026-01-26 12:10:38.40	343.60	2.24	-44.9	-56.7	3.8	8.47e-01	0	62	104	3265265664	60	14725
2026-01-26 12:10:42.44	343.60	1.98	-45.0	-56.7	3.8	8.45e-01	0	62	104	3265265664	60	14817

#Closed at: 2026-01-26 12:10:43
#Recorded file [3265 MB]: D:/lorett/data/31039_260126_145617.dat