passes_logs/2026/01/26/R2.0S_Moscow/R2.0S_Moscow__20260126_011421_AQUA_rec.log

#Pass ID: 20260126_011421_AQUA
#Satellite: AQUA
#Configuration: AQUA
#almurnet v.1.7.20251203
#Start time: 2026-01-26 01:22:04

#Version: 2.2.20231116
#Station: R2.0S_Moscow
#Location: 37.707566 lon 55.798166 lat
#TLE: 1 27424U 02022A   26025.50647354  .00001868  00000+0  38363-3 0  9992
#TLE: 2 27424  98.4099 352.1114 0001896  65.7986  47.0097 14.61858879262422

#Time	Az	El	Level	Level2	SNR	BER	BlckErr	Temp	State	Recorded	gain1	gain2
2026-01-26 01:22:04.97	183.52	48.20	-45.0	-59.6	3.8	1.49e+00	0	61	0	0	60	20560
2026-01-26 01:22:06.98	183.83	47.45	-46.4	-64.8	3.8	7.45e-01	0	61	104	0	63	31693
2026-01-26 01:22:09.00	184.13	46.70	-46.3	-64.5	3.8	7.43e-01	0	62	104	0	63	30407
2026-01-26 01:22:11.02	184.41	45.97	-46.2	-64.5	3.8	7.47e-01	0	61	104	0	63	30693
2026-01-26 01:22:13.04	184.69	45.25	-46.1	-64.5	3.8	7.47e-01	0	61	104	0	63	30463
2026-01-26 01:22:15.07	184.95	44.54	-46.1	-64.5	3.8	7.44e-01	0	61	104	0	63	30546
2026-01-26 01:22:17.09	185.20	43.84	-46.1	-64.6	3.8	7.48e-01	0	61	104	0	63	30770
2026-01-26 01:22:19.11	185.44	43.16	-46.1	-64.6	3.8	7.44e-01	0	61	104	0	63	30851
2026-01-26 01:22:21.14	185.67	42.49	-46.1	-64.4	3.8	7.45e-01	0	61	104	0	63	30204
2026-01-26 01:22:23.15	185.89	41.84	-46.1	-64.3	3.8	7.45e-01	0	61	104	0	63	29944
2026-01-26 01:22:25.18	186.10	41.19	-46.1	-64.5	3.8	7.47e-01	0	61	104	0	63	30692
2026-01-26 01:22:27.20	186.30	40.55	-46.1	-64.3	3.8	7.47e-01	0	61	104	0	63	29908
2026-01-26 01:22:29.22	186.50	39.93	-46.1	-64.2	3.8	7.47e-01	0	61	104	0	63	29686
2026-01-26 01:22:31.24	186.69	39.32	-46.1	-64.2	3.8	7.48e-01	0	61	104	0	63	29586
2026-01-26 01:22:33.26	186.87	38.72	-46.0	-64.3	3.8	7.46e-01	0	62	104	0	63	29840
2026-01-26 01:22:35.28	187.05	38.13	-46.0	-63.3	3.8	7.45e-01	0	61	104	0	63	26500
2026-01-26 01:22:37.30	187.22	37.55	-46.1	-64.2	3.8	7.47e-01	0	61	104	0	63	29415
2026-01-26 01:22:39.33	187.38	36.97	-46.0	-63.0	3.9	7.44e-01	0	62	104	0	63	25628
2026-01-26 01:22:41.35	187.54	36.41	-46.0	-64.4	3.8	7.48e-01	0	61	104	0	63	30223
2026-01-26 01:22:43.37	187.69	35.86	-45.9	-60.2	4.0	7.41e-01	0	61	104	0	63	18536
2026-01-26 01:22:45.40	187.84	35.32	-45.7	-56.5	6.8	6.66e-01	92	61	0	1572864	63	12179
2026-01-26 01:22:47.41	187.99	34.79	-45.8	-58.5	5.3	7.01e-01	0	61	0	5242880	63	15264
2026-01-26 01:22:49.44	188.13	34.27	-45.9	-60.3	4.3	7.27e-01	0	62	104	5242880	63	18798
2026-01-26 01:22:51.46	188.26	33.76	-44.8	-51.6	11.7	6.08e-01	0	62	0	7864320	61	7737
2026-01-26 01:22:53.48	188.39	33.25	-44.6	-50.9	12.6	6.02e-01	0	61	0	11534336	60	7546
2026-01-26 01:22:55.50	188.52	32.76	-44.7	-51.1	12.1	6.05e-01	0	61	0	15204352	60	7803
2026-01-26 01:22:57.52	188.64	32.27	-42.4	-45.7	18.1	6.00e-01	0	61	0	19398656	56	5242
2026-01-26 01:22:59.54	188.76	31.79	-43.0	-46.7	17.8	6.01e-01	0	61	0	23068672	56	5867
2026-01-26 01:23:01.56	188.88	31.32	-41.3	-44.0	19.9	6.00e-01	0	62	0	26738688	54	4845
2026-01-26 01:23:03.58	188.99	30.86	-40.9	-43.5	20.0	6.01e-01	0	61	0	30408704	54	4582
2026-01-26 01:23:05.60	189.10	30.40	-41.1	-43.7	19.9	6.00e-01	0	62	0	34603008	54	4683
2026-01-26 01:23:07.62	189.21	29.96	-41.1	-43.7	19.9	6.00e-01	0	61	0	38273024	54	4687
2026-01-26 01:23:09.64	189.31	29.52	-41.0	-43.7	19.9	5.99e-01	0	61	0	41943040	54	4662
2026-01-26 01:23:11.66	189.42	29.08	-41.1	-43.8	19.8	6.00e-01	0	62	0	45613056	54	4745
2026-01-26 01:23:13.68	189.52	28.66	-41.1	-43.8	19.8	6.00e-01	0	61	0	49807360	54	4746
2026-01-26 01:23:15.70	189.61	28.24	-41.1	-43.7	19.8	5.98e-01	0	62	0	53477376	54	4704
2026-01-26 01:23:17.72	189.71	27.82	-40.9	-43.5	20.1	6.02e-01	0	61	0	57147392	53	4851
2026-01-26 01:23:19.74	189.80	27.42	-41.0	-43.7	19.9	5.98e-01	0	61	0	60817408	53	4933
2026-01-26 01:23:21.76	189.89	27.02	-41.0	-43.6	19.9	6.03e-01	0	62	0	64487424	53	4916
2026-01-26 01:23:23.78	189.98	26.62	-41.1	-43.8	19.8	6.02e-01	0	61	0	68681728	53	5012
2026-01-26 01:23:25.80	190.06	26.24	-41.2	-44.0	19.6	6.01e-01	0	62	0	72351744	53	5112
2026-01-26 01:23:27.81	190.14	25.86	-41.3	-44.1	19.4	6.02e-01	0	62	0	76021760	53	5206
2026-01-26 01:23:29.83	190.23	25.48	-41.4	-44.3	19.2	6.00e-01	0	61	0	79691776	53	5335
2026-01-26 01:23:31.85	190.31	25.11	-41.6	-44.6	19.0	6.01e-01	0	62	0	83361792	53	5465
2026-01-26 01:23:33.87	190.38	24.74	-41.7	-44.7	18.8	6.01e-01	0	61	0	87556096	53	5574
2026-01-26 01:23:35.89	190.46	24.39	-41.7	-44.8	18.7	6.02e-01	0	62	0	91226112	54	5330
2026-01-26 01:23:37.90	190.54	24.03	-41.6	-44.7	18.9	5.97e-01	0	62	0	94896128	54	5221
2026-01-26 01:23:39.92	190.61	23.68	-41.7	-44.7	18.8	6.00e-01	0	61	0	98566144	54	5249
2026-01-26 01:23:41.95	190.68	23.34	-41.6	-44.7	18.9	6.01e-01	0	62	0	102760448	54	5220
2026-01-26 01:23:43.96	190.75	23.00	-41.6	-44.6	18.9	6.01e-01	0	61	0	106430464	54	5186
2026-01-26 01:23:45.98	190.82	22.66	-41.6	-44.5	18.9	6.01e-01	0	62	0	110100480	54	5154
2026-01-26 01:23:48.00	190.89	22.33	-41.5	-44.4	19.1	6.01e-01	0	62	0	113770496	54	5082
2026-01-26 01:23:50.02	190.95	22.01	-41.5	-44.4	19.1	6.01e-01	0	62	0	117964800	54	5090
2026-01-26 01:23:52.04	191.02	21.69	-41.4	-44.3	19.2	6.00e-01	0	61	0	121634816	54	5000
2026-01-26 01:23:54.06	191.08	21.37	-41.4	-44.3	19.2	5.99e-01	0	61	0	125304832	54	5010
2026-01-26 01:23:56.08	191.15	21.06	-41.4	-44.3	19.2	5.98e-01	0	61	0	128974848	54	4992
2026-01-26 01:23:58.10	191.21	20.75	-41.3	-44.2	19.3	6.01e-01	0	62	0	132644864	54	4953
2026-01-26 01:24:00.12	191.27	20.45	-41.4	-44.3	19.2	6.03e-01	0	61	0	136839168	54	5008
2026-01-26 01:24:02.14	191.33	20.15	-41.4	-44.3	19.2	5.99e-01	0	62	0	140509184	54	5008
2026-01-26 01:24:04.16	191.38	19.85	-41.4	-44.4	19.1	6.01e-01	0	62	0	144179200	54	5051
2026-01-26 01:24:06.18	191.44	19.56	-41.4	-44.3	19.2	5.99e-01	0	62	0	147849216	54	5022
2026-01-26 01:24:08.20	191.50	19.27	-41.4	-44.3	19.1	6.03e-01	0	61	0	151519232	54	5017
2026-01-26 01:24:10.22	191.55	18.98	-41.4	-44.3	19.1	6.00e-01	0	61	0	155713536	54	5020
2026-01-26 01:24:12.24	191.61	18.70	-41.4	-44.4	19.1	6.00e-01	0	62	0	159383552	54	5058
2026-01-26 01:24:14.26	191.66	18.42	-41.4	-44.4	19.1	6.00e-01	0	62	0	163053568	54	5042
2026-01-26 01:24:16.27	191.71	18.15	-41.5	-44.5	18.9	6.01e-01	0	62	0	166723584	54	5144
2026-01-26 01:24:18.29	191.76	17.88	-41.5	-44.5	18.9	6.00e-01	0	61	0	170917888	54	5124
2026-01-26 01:24:20.31	191.81	17.61	-41.5	-44.5	18.9	6.03e-01	0	62	0	174587904	54	5143
2026-01-26 01:24:22.33	191.86	17.34	-41.5	-44.6	18.8	6.02e-01	0	61	0	178257920	54	5180
2026-01-26 01:24:24.35	191.91	17.08	-41.5	-44.6	18.8	6.00e-01	0	62	0	181927936	54	5209
2026-01-26 01:24:26.37	191.96	16.82	-41.6	-44.6	18.7	6.00e-01	0	61	0	186122240	54	5218
2026-01-26 01:24:28.39	192.01	16.57	-41.6	-44.6	18.7	6.00e-01	0	62	0	189792256	54	5210
2026-01-26 01:24:30.41	192.05	16.31	-41.5	-44.6	18.7	6.01e-01	0	62	0	193462272	54	5195
2026-01-26 01:24:32.43	192.10	16.06	-41.4	-44.5	18.8	5.99e-01	0	62	0	197132288	54	5114
2026-01-26 01:24:34.45	192.14	15.82	-41.5	-44.6	18.7	6.02e-01	0	61	0	200802304	54	5169
2026-01-26 01:24:36.46	192.19	15.57	-41.5	-44.6	18.7	5.99e-01	0	61	0	204996608	54	5166
2026-01-26 01:24:38.49	192.23	15.33	-41.4	-44.4	18.9	6.02e-01	0	62	0	208666624	54	5062
2026-01-26 01:24:40.51	192.28	15.09	-41.3	-44.3	18.9	6.04e-01	0	62	0	212336640	54	5026
2026-01-26 01:24:42.53	192.32	14.85	-41.3	-44.3	18.9	6.00e-01	0	61	0	216006656	54	5037
2026-01-26 01:24:44.54	192.36	14.62	-41.3	-44.3	18.9	6.01e-01	0	62	0	219676672	54	5029
2026-01-26 01:24:46.57	192.40	14.39	-41.3	-44.3	18.9	6.00e-01	0	61	0	223870976	54	5033
2026-01-26 01:24:48.59	192.44	14.16	-41.3	-44.4	18.9	6.00e-01	0	61	0	227540992	54	5044
2026-01-26 01:24:50.61	192.48	13.93	-41.3	-44.3	18.9	5.98e-01	0	62	0	231211008	54	4992
2026-01-26 01:24:52.63	192.52	13.71	-41.3	-44.3	18.9	6.02e-01	0	61	0	234881024	54	5024
2026-01-26 01:24:54.65	192.56	13.48	-41.3	-44.2	18.9	6.01e-01	0	61	0	239075328	54	4980
2026-01-26 01:24:56.67	192.60	13.26	-41.3	-44.3	18.8	6.00e-01	0	62	0	242745344	54	5041
2026-01-26 01:24:58.69	192.64	13.05	-41.3	-44.3	18.9	6.01e-01	0	61	0	246415360	54	5009
2026-01-26 01:25:00.70	192.68	12.83	-41.3	-44.3	18.9	6.02e-01	0	62	0	250085376	54	5005
2026-01-26 01:25:02.72	192.71	12.62	-41.3	-44.3	18.8	6.00e-01	0	61	0	254279680	54	5026
2026-01-26 01:25:04.74	192.75	12.41	-41.3	-44.4	18.7	6.01e-01	0	62	0	257949696	54	5068
2026-01-26 01:25:06.76	192.79	12.20	-41.3	-44.4	18.7	6.03e-01	0	61	0	261619712	54	5060
2026-01-26 01:25:08.78	192.82	11.99	-41.3	-44.4	18.6	6.01e-01	0	62	0	265289728	54	5090
2026-01-26 01:25:10.80	192.86	11.78	-41.3	-44.5	18.6	6.00e-01	0	61	0	268959744	54	5102
2026-01-26 01:25:12.82	192.89	11.58	-41.4	-44.5	18.5	6.01e-01	0	61	0	273154048	54	5148
2026-01-26 01:25:14.83	192.92	11.38	-41.4	-44.5	18.5	5.99e-01	0	62	0	276824064	54	5132
2026-01-26 01:25:16.85	192.96	11.18	-41.4	-44.6	18.5	6.00e-01	0	61	0	280494080	54	5173
2026-01-26 01:25:18.87	192.99	10.98	-41.4	-44.6	18.4	6.01e-01	0	61	0	284164096	54	5206
2026-01-26 01:25:20.89	193.03	10.78	-41.5	-44.7	18.4	6.00e-01	0	61	0	287834112	54	5252
2026-01-26 01:25:22.91	193.06	10.59	-41.5	-44.8	18.3	6.00e-01	0	61	0	292028416	54	5281
2026-01-26 01:25:24.93	193.09	10.39	-41.5	-44.8	18.3	6.00e-01	0	61	0	295698432	54	5281
2026-01-26 01:25:26.95	193.12	10.20	-41.5	-44.8	18.2	6.01e-01	0	61	0	299368448	54	5306
2026-01-26 01:25:28.97	193.15	10.01	-41.6	-44.9	18.0	5.99e-01	0	61	0	303038464	54	5373
2026-01-26 01:25:30.99	193.19	9.82	-41.6	-44.9	17.9	5.99e-01	0	61	0	307232768	54	5373
2026-01-26 01:25:33.01	193.22	9.64	-41.6	-45.0	17.9	6.00e-01	0	62	0	310902784	54	5412
2026-01-26 01:25:35.02	193.25	9.45	-41.6	-45.1	17.8	6.01e-01	0	62	0	314572800	54	5469
2026-01-26 01:25:37.05	193.28	9.27	-41.7	-45.2	17.6	6.01e-01	0	61	0	318242816	54	5540
2026-01-26 01:25:39.07	193.31	9.09	-41.7	-45.3	17.5	6.01e-01	0	61	0	321912832	54	5608
2026-01-26 01:25:41.08	193.34	8.91	-41.8	-45.4	17.4	6.01e-01	0	61	0	326107136	54	5679
2026-01-26 01:25:43.10	193.37	8.73	-41.7	-45.3	17.5	6.04e-01	0	61	0	329777152	54	5620
2026-01-26 01:25:45.12	193.39	8.55	-41.8	-45.4	17.4	6.01e-01	0	61	0	333447168	54	5711
2026-01-26 01:25:47.14	193.42	8.37	-41.8	-45.5	17.2	6.03e-01	0	62	0	337117184	54	5753
2026-01-26 01:25:49.15	193.45	8.20	-41.9	-45.7	17.0	6.02e-01	0	62	0	341311488	54	5889
2026-01-26 01:25:51.17	193.48	8.03	-41.9	-45.7	17.0	6.02e-01	0	61	0	344981504	54	5919
2026-01-26 01:25:53.19	193.51	7.85	-45.7	-64.1	3.8	7.47e-01	0	62	104	346554368	62	31050
2026-01-26 01:25:55.21	193.54	7.68	-46.1	-64.6	3.8	7.46e-01	0	62	104	346554368	62	32745
2026-01-26 01:25:57.24	193.56	7.51	-46.3	-64.8	3.8	7.41e-01	0	62	104	346554368	63	31587
2026-01-26 01:25:59.26	193.59	7.34	-46.3	-64.8	3.8	7.44e-01	0	62	104	346554368	63	31764
2026-01-26 01:26:01.28	193.62	7.18	-46.3	-64.8	3.8	7.44e-01	0	62	104	346554368	63	31737
2026-01-26 01:26:03.30	193.64	7.01	-46.3	-64.8	3.8	7.44e-01	0	62	104	346554368	63	31617
2026-01-26 01:26:05.32	193.67	6.85	-46.3	-64.8	3.8	7.47e-01	0	62	104	346554368	63	31669
2026-01-26 01:26:07.34	193.69	6.68	-46.2	-64.7	3.8	7.47e-01	0	62	104	346554368	63	31224
2026-01-26 01:26:09.36	193.72	6.52	-46.2	-64.7	3.8	7.46e-01	0	62	104	346554368	63	31205
2026-01-26 01:26:11.38	193.75	6.36	-46.2	-64.7	3.8	7.43e-01	0	62	104	346554368	63	31265
2026-01-26 01:26:13.40	193.77	6.20	-46.2	-64.7	3.8	7.45e-01	0	62	104	346554368	63	31231
2026-01-26 01:26:15.43	193.80	6.04	-46.2	-64.7	3.8	7.43e-01	0	62	104	346554368	63	31142
2026-01-26 01:26:17.45	193.82	5.88	-46.2	-64.7	3.8	7.44e-01	0	62	104	346554368	63	31216
2026-01-26 01:26:19.47	193.84	5.72	-46.2	-64.7	3.8	7.47e-01	0	62	104	346554368	63	31184
2026-01-26 01:26:21.49	193.87	5.57	-46.2	-64.7	3.8	7.43e-01	0	62	104	346554368	63	31191
2026-01-26 01:26:23.51	193.89	5.41	-46.2	-64.7	3.8	7.46e-01	0	62	104	346554368	63	31096
2026-01-26 01:26:25.53	193.92	5.26	-46.2	-64.6	3.8	7.45e-01	0	61	104	346554368	63	31076
2026-01-26 01:26:27.55	193.94	5.10	-46.2	-64.6	3.8	7.46e-01	0	62	104	346554368	63	31015
2026-01-26 01:26:29.57	193.96	4.95	-46.2	-64.7	3.8	7.46e-01	0	62	104	346554368	63	31127
2026-01-26 01:26:31.59	193.99	4.80	-46.2	-64.6	3.8	7.44e-01	0	62	104	346554368	63	31067
2026-01-26 01:26:33.62	194.01	4.65	-46.2	-64.6	3.8	7.45e-01	0	62	104	346554368	63	31059
2026-01-26 01:26:35.64	194.03	4.50	-46.2	-64.7	3.8	7.48e-01	0	62	104	346554368	63	31119
2026-01-26 01:26:37.66	194.06	4.35	-46.2	-64.6	3.8	7.46e-01	0	62	104	346554368	63	31073
2026-01-26 01:26:39.68	194.08	4.21	-46.2	-64.6	3.8	7.45e-01	0	62	104	346554368	63	31001
2026-01-26 01:26:41.70	194.10	4.06	-46.1	-64.6	3.8	7.46e-01	0	62	104	346554368	63	31008
2026-01-26 01:26:43.72	194.12	3.91	-46.1	-64.6	3.8	7.47e-01	0	62	104	346554368	63	30938
2026-01-26 01:26:45.74	194.14	3.77	-46.1	-64.6	3.8	7.47e-01	0	62	104	346554368	63	30931
2026-01-26 01:26:47.77	194.17	3.62	-46.1	-64.6	3.8	7.46e-01	0	62	104	346554368	63	30870
2026-01-26 01:26:49.79	194.19	3.48	-46.1	-64.6	3.8	7.48e-01	0	62	104	346554368	63	30880
2026-01-26 01:26:51.81	194.21	3.34	-46.1	-64.6	3.8	7.46e-01	0	62	104	346554368	63	30907
2026-01-26 01:26:53.83	194.23	3.20	-46.1	-64.6	3.8	7.45e-01	0	62	104	346554368	63	30806
2026-01-26 01:26:55.85	194.25	3.06	-46.1	-64.6	3.8	7.48e-01	0	62	104	346554368	63	30840
2026-01-26 01:26:57.87	194.27	2.92	-46.1	-64.6	3.8	7.47e-01	0	62	104	346554368	63	30845
2026-01-26 01:26:59.89	194.29	2.78	-46.1	-64.6	3.8	7.46e-01	0	62	104	346554368	63	30790
2026-01-26 01:27:01.91	194.31	2.64	-46.1	-64.6	3.8	7.45e-01	0	61	104	346554368	63	30858
2026-01-26 01:27:03.93	194.33	2.50	-46.1	-64.6	3.8	7.49e-01	0	62	104	346554368	63	30895
2026-01-26 01:27:05.95	194.35	2.37	-46.1	-64.6	3.8	7.43e-01	0	62	104	346554368	63	30847
2026-01-26 01:27:07.98	194.37	2.23	-46.1	-64.6	3.8	7.48e-01	0	62	104	346554368	63	30827
2026-01-26 01:27:10.00	194.39	2.09	-46.1	-64.6	3.8	7.47e-01	0	62	104	346554368	63	30882
2026-01-26 01:27:12.02	194.41	1.96	-46.1	-64.6	3.8	7.44e-01	0	62	104	346554368	63	30790

#Closed at: 2026-01-26 01:27:12
#Recorded file [346 MB]: D:/lorett/data/31039_260126_042204.dat