passes_logs/2026/01/26/R2.0S_Moscow/R2.0S_Moscow__20260126_093929_NOAA_20_JPSS-1_rec.log

#Pass ID: 20260126_093929_NOAA 20 (JPSS-1)
#Satellite: NOAA 20 (JPSS-1)
#Configuration: NOAA 20
#almurnet v.1.7.20251203
#Start time: 2026-01-26 09:39:29

#Version: 2.2.20231116
#Station: R2.0S_Moscow
#Location: 37.707566 lon 55.798166 lat
#TLE: 1 43013U 17073A   26025.83228772  .00000162  00000+0  97663-4 0  9996
#TLE: 2 43013  98.7646 326.6579 0001036  23.5840 336.5383 14.19540376424273

#Time	Az	El	Level	Level2	SNR	BER	BlckErr	Temp	State	Recorded	gain1	gain2
2026-01-26 09:39:29.58	152.86	2.00	-44.0	-58.5	3.8	1.49e+00	0	54	0	0	59	19363
2026-01-26 09:39:33.61	152.82	2.26	-43.9	-58.5	3.8	1.49e+00	0	54	104	0	59	19309
2026-01-26 09:39:37.65	152.78	2.52	-43.9	-58.5	3.8	1.49e+00	0	55	104	0	59	19255
2026-01-26 09:39:41.70	152.74	2.79	-43.9	-58.5	3.8	1.49e+00	0	55	104	0	59	19193
2026-01-26 09:39:45.74	152.70	3.05	-43.9	-58.5	3.8	1.49e+00	0	55	104	0	59	19185
2026-01-26 09:39:49.78	152.66	3.33	-43.9	-58.4	3.8	1.49e+00	0	55	104	0	59	19146
2026-01-26 09:39:53.83	152.62	3.60	-43.9	-58.4	3.8	1.49e+00	0	55	104	0	59	19153
2026-01-26 09:39:57.87	152.57	3.88	-43.9	-58.5	3.8	1.49e+00	0	56	104	0	59	19191
2026-01-26 09:40:01.91	152.53	4.15	-43.9	-58.4	3.8	1.49e+00	0	56	104	0	59	19145
2026-01-26 09:40:05.95	152.48	4.44	-43.9	-58.4	3.8	1.49e+00	0	56	104	0	59	19166
2026-01-26 09:40:09.99	152.44	4.72	-43.9	-58.4	3.8	1.49e+00	0	57	104	0	59	19149
2026-01-26 09:40:14.03	152.39	5.01	-43.8	-58.4	3.8	1.49e+00	0	57	104	0	59	19071
2026-01-26 09:40:18.08	152.34	5.30	-43.8	-58.3	3.8	1.49e+00	0	57	104	0	59	18774
2026-01-26 09:40:22.12	152.29	5.59	-43.8	-57.7	3.8	1.49e+00	0	57	104	0	59	17576
2026-01-26 09:40:26.16	152.24	5.89	-43.7	-56.9	3.8	1.49e+00	0	58	104	0	59	16012
2026-01-26 09:40:30.21	152.18	6.19	-43.7	-55.5	3.9	1.44e+00	0	58	104	0	59	13689
2026-01-26 09:40:34.25	152.13	6.50	-43.6	-55.3	4.1	1.42e+00	0	58	0	0	59	13393
2026-01-26 09:40:38.29	152.07	6.81	-43.8	-56.8	3.8	1.49e+00	0	58	104	0	59	15923
2026-01-26 09:40:42.33	152.02	7.12	-43.8	-57.4	3.8	1.49e+00	0	58	104	0	59	17034
2026-01-26 09:40:46.38	151.96	7.43	-43.4	-53.0	5.0	8.33e-01	0	58	0	1048576	58	10801
2026-01-26 09:40:50.42	151.90	7.75	-42.7	-49.1	8.0	8.67e-02	0	58	0	9437184	57	7357
2026-01-26 09:40:54.46	151.84	8.08	-43.4	-51.5	6.5	1.16e-02	0	58	0	16777216	57	9668
2026-01-26 09:40:58.50	151.77	8.40	-42.2	-47.2	9.9	8.94e-01	0	59	0	19922944	56	6228
2026-01-26 09:41:02.54	151.71	8.74	-41.8	-46.5	10.6	3.34e-03	0	59	0	27262976	55	6105
2026-01-26 09:41:06.58	151.64	9.07	-41.7	-46.3	11.0	1.82e-03	0	59	0	35651584	55	5952
2026-01-26 09:41:10.62	151.57	9.41	-41.7	-46.2	11.0	2.04e-03	0	59	0	42991616	55	5914
2026-01-26 09:41:14.66	151.50	9.76	-41.7	-46.2	11.2	1.24e-03	0	59	0	50331648	55	5898
2026-01-26 09:41:18.71	151.43	10.11	-41.8	-46.3	11.1	1.80e-03	0	59	0	57671680	55	5952
2026-01-26 09:41:22.74	151.35	10.47	-41.7	-46.0	11.5	1.01e-03	0	59	0	66060288	55	5727
2026-01-26 09:41:26.78	151.28	10.83	-41.6	-45.8	11.7	6.31e-04	0	59	0	73400320	55	5622
2026-01-26 09:41:30.82	151.20	11.19	-41.6	-45.7	11.9	4.30e-04	0	60	0	80740352	55	5544
2026-01-26 09:41:34.86	151.12	11.56	-41.7	-45.8	11.8	4.58e-04	0	60	0	88080384	55	5629
2026-01-26 09:41:38.90	151.04	11.94	-41.6	-45.6	12.1	2.85e-04	0	59	0	95420416	55	5506
2026-01-26 09:41:42.94	150.95	12.32	-41.6	-45.5	12.2	2.71e-04	0	60	0	103809024	55	5453
2026-01-26 09:41:46.98	150.86	12.71	-41.6	-45.5	12.3	1.74e-04	0	60	0	111149056	55	5414
2026-01-26 09:41:51.03	150.77	13.11	-41.5	-45.3	12.6	1.04e-04	0	60	0	118489088	55	5288
2026-01-26 09:41:55.07	150.68	13.51	-41.4	-45.1	12.8	7.62e-05	0	60	0	125829120	54	5474
2026-01-26 09:41:59.10	150.58	13.92	-41.5	-45.1	12.8	6.86e-05	0	60	0	134217728	54	5482
2026-01-26 09:42:03.14	150.48	14.33	-41.5	-45.1	12.9	6.33e-05	0	60	0	141557760	54	5470
2026-01-26 09:42:07.18	150.38	14.76	-41.4	-44.8	13.2	2.59e-05	0	60	0	148897792	54	5314
2026-01-26 09:42:11.22	150.27	15.19	-41.3	-44.8	13.3	1.60e-05	0	60	0	156237824	54	5284
2026-01-26 09:42:15.26	150.16	15.62	-41.3	-44.8	13.3	1.29e-05	0	60	0	163577856	54	5282
2026-01-26 09:42:19.30	150.05	16.07	-41.4	-44.9	13.2	1.60e-05	0	60	0	171966464	54	5356
2026-01-26 09:42:23.34	149.93	16.52	-41.3	-44.7	13.4	1.75e-05	0	60	0	179306496	54	5261
2026-01-26 09:42:27.38	149.81	16.98	-41.3	-44.5	13.7	1.67e-05	0	61	0	186646528	54	5146
2026-01-26 09:42:31.43	149.69	17.46	-41.3	-44.6	13.6	1.75e-05	0	61	0	193986560	54	5211
2026-01-26 09:42:35.47	149.56	17.94	-41.3	-44.7	13.6	9.90e-06	0	61	0	202375168	54	5223
2026-01-26 09:42:39.50	149.42	18.42	-41.1	-44.3	14.0	7.60e-06	0	61	0	209715200	54	4995
2026-01-26 09:42:43.55	149.28	18.92	-41.1	-44.2	14.1	2.20e-06	0	61	0	217055232	54	4952
2026-01-26 09:42:47.58	149.14	19.43	-41.2	-44.3	13.9	5.30e-06	0	61	0	224395264	54	5032
2026-01-26 09:42:51.62	148.99	19.95	-41.2	-44.4	14.0	3.00e-06	0	61	0	231735296	54	5045
2026-01-26 09:42:55.66	148.84	20.48	-41.2	-44.4	14.0	2.20e-06	0	61	0	240123904	54	5044
2026-01-26 09:42:59.70	148.68	21.02	-41.1	-44.2	14.2	1.50e-06	0	61	0	247463936	54	4943
2026-01-26 09:43:03.73	148.51	21.58	-41.0	-43.9	14.4	0.00e+00	0	61	0	254803968	54	4801
2026-01-26 09:43:07.77	148.34	22.14	-41.0	-44.0	14.4	0.00e+00	0	61	0	262144000	54	4850
2026-01-26 09:43:11.81	148.16	22.72	-41.2	-44.3	14.1	7.00e-07	0	61	0	270532608	54	5023
2026-01-26 09:43:15.85	147.97	23.31	-41.2	-44.3	14.1	3.80e-06	0	61	0	277872640	54	5019
2026-01-26 09:43:19.89	147.78	23.91	-41.3	-44.5	13.9	2.20e-06	0	61	0	285212672	54	5122
2026-01-26 09:43:23.93	147.57	24.53	-41.6	-44.9	13.5	1.14e-05	0	61	0	292552704	54	5400
2026-01-26 09:43:27.97	147.36	25.16	-41.5	-44.8	13.6	3.80e-06	0	61	0	299892736	54	5324
2026-01-26 09:43:32.01	147.14	25.81	-41.8	-45.3	13.1	2.28e-05	0	61	0	308281344	54	5618
2026-01-26 09:43:36.05	146.91	26.47	-42.2	-46.2	12.2	1.70e-04	0	61	0	315621376	54	6208
2026-01-26 09:43:40.09	146.67	27.15	-42.3	-46.2	12.1	2.60e-04	0	61	0	322961408	55	5896
2026-01-26 09:43:44.13	146.42	27.85	-42.5	-46.8	11.6	5.65e-04	0	61	0	330301440	55	6302
2026-01-26 09:43:48.18	146.15	28.56	-43.0	-47.7	10.8	2.43e-03	0	61	0	338690048	56	6633
2026-01-26 09:43:52.22	145.88	29.29	-43.0	-47.7	10.8	2.70e-03	0	61	0	346030080	56	6612
2026-01-26 09:43:56.26	145.59	30.04	-43.3	-48.5	10.0	7.41e-03	0	61	0	353370112	57	6828
2026-01-26 09:44:00.30	145.28	30.81	-43.5	-48.9	9.6	1.21e-02	0	61	0	360710144	57	7188
2026-01-26 09:44:04.34	144.96	31.60	-43.6	-49.3	9.2	1.97e-02	0	61	0	369098752	57	7464
2026-01-26 09:44:08.38	144.63	32.41	-43.9	-50.0	8.4	4.17e-02	0	62	0	376438784	58	7713
2026-01-26 09:44:12.42	144.27	33.24	-43.8	-49.8	8.7	3.42e-02	0	61	0	383778816	58	7507
2026-01-26 09:44:16.46	143.90	34.09	-43.9	-50.2	8.2	5.31e-02	0	61	0	391118848	58	7895
2026-01-26 09:44:20.50	143.50	34.97	-43.8	-49.6	8.9	3.37e-02	0	61	0	398458880	58	7308
2026-01-26 09:44:24.54	143.08	35.87	-43.5	-48.8	9.7	1.51e-02	0	62	0	406847488	58	6706
2026-01-26 09:44:28.58	142.64	36.79	-43.7	-49.5	9.0	2.28e-02	0	62	0	414187520	58	7210
2026-01-26 09:44:32.62	142.17	37.73	-43.9	-50.1	8.4	5.29e-02	0	62	0	421527552	58	7754
2026-01-26 09:44:36.66	141.68	38.71	-43.9	-49.9	8.5	3.60e-02	0	62	0	428867584	58	7616
2026-01-26 09:44:40.69	141.15	39.70	-43.9	-50.2	8.3	4.62e-02	0	62	0	437256192	58	7822
2026-01-26 09:44:44.74	140.58	40.73	-43.7	-49.3	9.1	2.31e-02	0	62	0	444596224	58	7113
2026-01-26 09:44:48.78	139.98	41.78	-43.6	-49.0	9.5	1.46e-02	0	62	0	451936256	58	6817
2026-01-26 09:44:52.82	139.34	42.85	-43.3	-48.3	10.2	7.49e-03	0	62	0	459276288	58	6342
2026-01-26 09:44:56.85	138.65	43.95	-43.2	-47.9	10.7	3.46e-03	0	62	0	466616320	58	5997
2026-01-26 09:45:00.89	137.91	45.08	-42.9	-47.2	11.4	9.59e-04	0	62	0	475004928	57	5866
2026-01-26 09:45:04.93	137.11	46.24	-42.4	-46.2	12.5	1.17e-04	0	62	0	482344960	56	5564
2026-01-26 09:45:08.97	136.25	47.43	-42.4	-46.2	12.4	1.81e-04	0	62	0	489684992	56	5586
2026-01-26 09:45:13.02	135.32	48.64	-42.6	-46.5	12.1	2.49e-04	0	62	0	497025024	56	5786
2026-01-26 09:45:17.05	134.32	49.87	-42.4	-46.2	12.4	1.62e-04	0	62	0	505413632	56	5592
2026-01-26 09:45:21.10	133.22	51.13	-41.8	-45.1	13.4	1.60e-05	0	62	0	512753664	55	5195
2026-01-26 09:45:25.14	132.03	52.41	-41.5	-44.7	13.8	4.50e-06	0	62	0	520093696	55	4948
2026-01-26 09:45:29.18	130.73	53.71	-41.5	-44.7	13.9	3.00e-06	0	62	0	527433728	55	4936
2026-01-26 09:45:33.22	129.31	55.03	-41.9	-45.4	13.2	2.67e-05	0	62	0	534773760	55	5357
2026-01-26 09:45:37.25	127.74	56.36	-42.9	-47.3	11.3	8.28e-04	0	62	0	543162368	56	6297
2026-01-26 09:45:41.29	126.02	57.70	-43.8	-49.6	8.8	2.27e-02	0	62	0	550502400	58	7346
2026-01-26 09:45:45.33	124.11	59.04	-43.7	-49.3	9.2	2.19e-02	0	62	0	557842432	58	7088
2026-01-26 09:45:49.36	122.01	60.38	-43.1	-47.6	11.0	2.58e-03	0	62	0	565182464	58	5825
2026-01-26 09:45:53.40	119.66	61.71	-42.1	-45.6	13.1	7.24e-05	0	62	0	573571072	56	5163
2026-01-26 09:45:57.44	117.05	63.02	-41.1	-43.9	14.5	0.00e+00	0	62	0	580911104	53	5093
2026-01-26 09:46:01.48	114.14	64.30	-41.7	-45.0	13.5	1.44e-05	0	62	0	588251136	54	5437
2026-01-26 09:46:05.52	110.89	65.53	-42.5	-46.5	11.9	1.45e-04	0	62	0	595591168	55	6119
2026-01-26 09:46:09.56	107.27	66.70	-43.5	-48.8	9.7	9.08e-03	0	62	0	602931200	57	7046
2026-01-26 09:46:13.60	103.24	67.79	-43.4	-48.6	9.9	1.23e-02	0	62	0	611319808	57	6897
2026-01-26 09:46:17.65	98.76	68.78	-43.2	-47.9	10.5	3.60e-03	0	62	0	618659840	57	6395
2026-01-26 09:46:21.69	93.85	69.65	-42.5	-46.4	12.2	2.53e-04	0	62	0	625999872	57	5356
2026-01-26 09:46:25.73	88.51	70.37	-42.5	-46.4	12.0	4.42e-04	0	62	0	633339904	56	5721
2026-01-26 09:46:29.77	82.79	70.93	-42.7	-46.7	11.8	4.14e-04	0	62	0	641728512	56	5905
2026-01-26 09:46:33.81	76.76	71.29	-42.7	-46.7	11.7	3.44e-04	0	62	0	649068544	56	5908
2026-01-26 09:46:37.85	70.56	71.46	-43.0	-47.5	11.0	2.05e-03	0	62	0	656408576	56	6474
2026-01-26 09:46:41.90	64.30	71.41	-42.4	-46.2	12.4	1.75e-04	0	62	0	663748608	56	5565
2026-01-26 09:46:45.94	58.15	71.16	-42.3	-46.0	12.4	1.70e-04	0	62	0	672137216	56	5453
2026-01-26 09:46:49.98	52.25	70.71	-42.6	-46.6	11.8	3.55e-04	0	62	0	679477248	56	5855
2026-01-26 09:46:54.02	46.69	70.09	-43.2	-48.1	10.3	3.59e-03	0	62	0	686817280	57	6567
2026-01-26 09:46:58.06	41.53	69.30	-43.8	-49.6	8.8	3.33e-02	0	62	0	694157312	58	7319
2026-01-26 09:47:02.10	36.82	68.38	-43.8	-49.6	8.8	2.22e-02	0	62	0	701497344	58	7312
2026-01-26 09:47:06.14	32.54	67.35	-43.8	-49.6	8.8	4.63e-02	0	62	0	709885952	58	7340
2026-01-26 09:47:10.18	28.69	66.22	-43.0	-47.5	11.0	3.76e-03	0	62	0	717225984	58	5779
2026-01-26 09:47:14.21	25.25	65.03	-42.0	-45.4	13.2	3.28e-05	0	62	0	724566016	56	5069
2026-01-26 09:47:18.25	22.15	63.78	-41.5	-44.6	13.8	4.50e-06	0	62	0	731906048	54	5197
2026-01-26 09:47:22.29	19.37	62.49	-41.5	-44.6	13.8	3.00e-06	0	62	0	740294656	54	5210
2026-01-26 09:47:26.33	16.88	61.17	-41.9	-45.4	13.0	2.28e-05	0	62	0	747634688	54	5674
2026-01-26 09:47:30.37	14.64	59.84	-42.2	-46.5	11.8	2.93e-04	0	62	0	754974720	55	6129
2026-01-26 09:47:34.41	12.62	58.50	-43.2	-47.9	10.5	3.47e-03	0	62	0	762314752	57	6409
2026-01-26 09:47:38.44	10.80	57.17	-43.4	-48.8	9.6	1.30e-02	0	62	0	769654784	57	7061
2026-01-26 09:47:42.48	9.15	55.84	-42.3	-46.4	12.1	3.43e-04	0	62	0	778043392	56	5680
2026-01-26 09:47:46.52	7.65	54.51	-41.8	-45.1	13.3	2.44e-05	0	62	0	785383424	54	5507
2026-01-26 09:47:50.56	6.28	53.21	-41.6	-44.8	13.6	1.52e-05	0	62	0	792723456	54	5298
2026-01-26 09:47:54.60	5.03	51.92	-41.9	-45.4	13.0	2.44e-05	0	62	0	800063488	54	5678
2026-01-26 09:47:58.64	3.89	50.65	-42.6	-46.8	11.4	5.84e-04	0	62	0	808452096	55	6330
2026-01-26 09:48:02.68	2.83	49.41	-43.1	-47.9	10.5	3.74e-03	0	62	0	815792128	56	6744
2026-01-26 09:48:06.72	1.86	48.19	-43.3	-48.2	10.1	6.61e-03	0	62	0	823132160	57	6626
2026-01-26 09:48:10.75	0.97	47.00	-43.1	-47.9	10.5	4.27e-03	0	62	0	830472192	56	6781
2026-01-26 09:48:14.80	0.14	45.83	-42.9	-47.7	10.7	3.60e-03	0	62	0	837812224	56	6578
2026-01-26 09:48:18.83	359.37	44.69	-43.2	-48.1	10.3	4.89e-03	0	62	0	846200832	56	6901
2026-01-26 09:48:22.88	358.65	43.57	-43.2	-48.0	10.4	4.51e-03	0	62	0	853540864	56	6862
2026-01-26 09:48:26.92	357.98	42.48	-43.5	-49.3	8.9	2.59e-02	0	62	0	860880896	57	7465
2026-01-26 09:48:30.96	357.36	41.42	-43.6	-49.2	9.2	2.38e-02	0	62	0	868220928	57	7387
2026-01-26 09:48:35.00	356.77	40.39	-43.5	-48.8	9.5	1.91e-02	0	62	0	876609536	57	7087
2026-01-26 09:48:39.04	356.23	39.38	-43.3	-48.4	9.9	9.49e-03	0	62	0	883949568	57	6762
2026-01-26 09:48:43.08	355.71	38.40	-43.1	-47.8	10.6	3.20e-03	0	62	0	891289600	57	6279
2026-01-26 09:48:47.12	355.23	37.44	-43.0	-47.7	10.7	2.91e-03	0	62	0	898629632	57	6207
2026-01-26 09:48:51.15	354.77	36.51	-43.0	-47.8	10.6	3.19e-03	0	62	0	905969664	57	6281
2026-01-26 09:48:55.18	354.35	35.60	-43.2	-48.3	9.9	8.05e-03	0	62	0	914358272	57	6721
2026-01-26 09:48:59.22	353.94	34.72	-43.3	-48.5	9.8	8.69e-03	0	62	0	921698304	57	6824
2026-01-26 09:49:03.26	353.56	33.85	-43.4	-48.7	9.5	1.53e-02	0	62	0	929038336	57	7001
2026-01-26 09:49:07.29	353.19	33.02	-43.5	-49.2	9.0	2.35e-02	0	62	0	936378368	57	7387
2026-01-26 09:49:11.33	352.85	32.20	-43.3	-48.7	9.5	1.75e-02	0	62	0	944766976	57	7002
2026-01-26 09:49:15.37	352.52	31.40	-43.5	-49.2	8.9	2.41e-02	0	62	0	952107008	57	7435
2026-01-26 09:49:19.41	352.21	30.62	-43.6	-49.5	8.7	3.55e-02	0	62	0	959447040	57	7648
2026-01-26 09:49:23.45	351.91	29.87	-43.5	-49.3	8.8	3.24e-02	0	62	0	966787072	57	7508
2026-01-26 09:49:27.49	351.63	29.13	-43.3	-48.7	9.4	1.70e-02	0	62	0	974127104	57	7011
2026-01-26 09:49:31.53	351.36	28.41	-43.3	-48.9	9.2	2.11e-02	0	62	0	982515712	57	7137
2026-01-26 09:49:35.56	351.11	27.70	-43.1	-48.5	9.5	1.55e-02	0	62	0	989855744	57	6820
2026-01-26 09:49:39.60	350.86	27.02	-42.9	-47.7	10.2	5.97e-03	0	62	0	997195776	57	6274
2026-01-26 09:49:43.65	350.63	26.35	-42.8	-47.9	10.0	8.16e-03	0	62	0	1004535808	57	6371
2026-01-26 09:49:47.68	350.40	25.69	-42.8	-48.0	9.7	1.20e-02	0	62	0	1011875840	57	6463
2026-01-26 09:49:51.72	350.19	25.05	-42.6	-47.5	10.2	7.01e-03	0	62	0	1020264448	57	6121
2026-01-26 09:49:55.76	349.98	24.43	-42.4	-47.2	10.4	4.41e-03	0	62	0	1027604480	56	6247
2026-01-26 09:49:59.80	349.79	23.82	-42.2	-46.8	10.7	3.65e-03	0	62	0	1034944512	56	5972
2026-01-26 09:50:03.84	349.60	23.22	-41.7	-46.2	10.9	2.18e-03	0	62	0	1042284544	55	5887
2026-01-26 09:50:07.88	349.42	22.64	-41.5	-46.2	10.4	5.64e-03	0	62	0	1050673152	55	5899
2026-01-26 09:50:11.92	349.24	22.07	-41.1	-46.1	9.9	8.99e-03	0	62	0	1058013184	54	6189
2026-01-26 09:50:15.96	349.07	21.51	-41.5	-48.0	7.7	6.98e-02	0	62	0	1065353216	54	7697
2026-01-26 09:50:20.00	348.91	20.96	-41.7	-52.7	4.3	1.16e+00	0	62	0	1072693248	54	13150
2026-01-26 09:50:24.03	348.76	20.43	-41.3	-55.7	3.8	1.49e+00	0	62	104	1072693248	54	18622
2026-01-26 09:50:28.07	348.61	19.91	-41.2	-55.7	3.8	1.49e+00	0	62	104	1072693248	54	18575
2026-01-26 09:50:32.11	348.47	19.39	-41.1	-55.6	3.8	1.49e+00	0	62	104	1072693248	54	18392
2026-01-26 09:50:36.15	348.33	18.89	-40.9	-55.4	3.8	1.49e+00	0	62	104	1072693248	53	19141
2026-01-26 09:50:40.19	348.19	18.40	-41.0	-55.5	3.8	1.49e+00	0	62	104	1072693248	53	19211
2026-01-26 09:50:44.23	348.06	17.91	-41.2	-55.7	3.8	1.49e+00	0	62	104	1072693248	53	19638
2026-01-26 09:50:48.27	347.94	17.44	-41.4	-55.9	3.8	1.49e+00	0	62	104	1072693248	53	20119
2026-01-26 09:50:52.31	347.82	16.97	-41.4	-55.9	3.8	1.49e+00	0	62	104	1072693248	53	20131
2026-01-26 09:50:56.35	347.70	16.51	-41.4	-55.8	3.8	1.49e+00	0	62	104	1072693248	53	20002
2026-01-26 09:51:00.39	347.59	16.07	-41.4	-55.8	3.8	1.49e+00	0	62	104	1072693248	53	20039
2026-01-26 09:51:04.43	347.48	15.62	-41.4	-55.9	3.8	1.49e+00	0	62	104	1072693248	53	20192
2026-01-26 09:51:08.47	347.38	15.19	-41.4	-55.9	3.8	1.49e+00	0	62	104	1072693248	53	20094
2026-01-26 09:51:12.51	347.28	14.77	-41.3	-55.8	3.8	1.49e+00	0	62	104	1072693248	53	19989
2026-01-26 09:51:16.55	347.18	14.35	-41.2	-55.7	3.8	1.49e+00	0	62	104	1072693248	53	19813
2026-01-26 09:51:20.59	347.08	13.94	-41.2	-55.7	3.8	1.49e+00	0	62	104	1072693248	53	19812
2026-01-26 09:51:24.63	346.99	13.53	-41.1	-55.7	3.8	1.49e+00	0	62	104	1072693248	53	19669
2026-01-26 09:51:28.67	346.90	13.13	-41.0	-55.6	3.8	1.49e+00	0	62	104	1072693248	53	19423
2026-01-26 09:51:32.72	346.82	12.74	-41.0	-55.5	3.8	1.49e+00	0	62	104	1072693248	53	19316
2026-01-26 09:51:36.75	346.73	12.36	-41.0	-55.5	3.8	1.49e+00	0	62	104	1072693248	53	19346
2026-01-26 09:51:40.79	346.65	11.98	-41.0	-55.5	3.8	1.49e+00	0	62	104	1072693248	53	19307
2026-01-26 09:51:44.84	346.57	11.60	-40.9	-55.4	3.8	1.49e+00	0	62	104	1072693248	53	19106
2026-01-26 09:51:48.87	346.50	11.23	-40.8	-55.4	3.8	1.49e+00	0	62	104	1072693248	53	18984
2026-01-26 09:51:52.91	346.42	10.87	-40.8	-55.4	3.8	1.49e+00	0	62	104	1072693248	53	19028
2026-01-26 09:51:56.96	346.35	10.51	-40.8	-55.4	3.8	1.49e+00	0	62	104	1072693248	53	18993
2026-01-26 09:52:00.99	346.28	10.16	-40.7	-55.3	3.8	1.49e+00	0	62	104	1072693248	53	18922
2026-01-26 09:52:05.03	346.22	9.81	-40.7	-55.3	3.8	1.49e+00	0	62	104	1072693248	53	18750
2026-01-26 09:52:09.07	346.15	9.47	-40.7	-55.2	3.8	1.49e+00	0	62	104	1072693248	53	18649
2026-01-26 09:52:13.11	346.09	9.13	-40.7	-55.2	3.8	1.49e+00	0	62	104	1072693248	53	18645
2026-01-26 09:52:17.16	346.03	8.80	-40.7	-55.2	3.8	1.49e+00	0	62	104	1072693248	53	18605
2026-01-26 09:52:21.20	345.97	8.47	-40.6	-55.2	3.8	1.49e+00	0	62	104	1072693248	53	18548
2026-01-26 09:52:25.24	345.91	8.14	-40.6	-55.1	3.8	1.49e+00	0	62	104	1072693248	53	18515
2026-01-26 09:52:29.28	345.85	7.82	-40.8	-55.3	3.8	1.49e+00	0	62	104	1072693248	52	19995
2026-01-26 09:52:33.33	345.79	7.50	-45.0	-59.7	3.8	1.49e+00	0	62	104	1072693248	60	20892
2026-01-26 09:52:37.37	345.74	7.19	-44.9	-59.8	3.8	1.49e+00	0	62	104	1072693248	60	21200
2026-01-26 09:52:41.41	345.69	6.88	-45.1	-59.7	3.8	1.49e+00	0	62	104	1072693248	60	20911
2026-01-26 09:52:45.45	345.64	6.57	-45.0	-59.6	3.8	1.49e+00	0	62	104	1072693248	60	20684
2026-01-26 09:52:49.50	345.59	6.27	-45.0	-59.6	3.8	1.49e+00	0	62	104	1072693248	60	20628
2026-01-26 09:52:53.54	345.54	5.97	-45.0	-59.5	3.8	1.49e+00	0	62	104	1072693248	60	20518
2026-01-26 09:52:57.58	345.50	5.68	-45.0	-59.6	3.8	1.49e+00	0	62	104	1072693248	60	20582
2026-01-26 09:53:01.62	345.45	5.39	-44.9	-59.6	3.8	1.49e+00	0	62	104	1072693248	60	20563
2026-01-26 09:53:05.66	345.41	5.10	-45.0	-59.5	3.8	1.49e+00	0	62	104	1072693248	60	20524
2026-01-26 09:53:09.70	345.36	4.81	-45.0	-59.6	3.8	1.49e+00	0	62	104	1072693248	60	20606
2026-01-26 09:53:13.75	345.32	4.53	-45.0	-59.6	3.8	1.49e+00	0	62	104	1072693248	60	20559
2026-01-26 09:53:17.79	345.28	4.25	-45.0	-59.6	3.8	1.49e+00	0	62	104	1072693248	60	20541
2026-01-26 09:53:21.83	345.24	3.97	-44.8	-59.6	3.8	1.49e+00	0	62	104	1072693248	60	20551
2026-01-26 09:53:25.87	345.20	3.70	-45.0	-59.5	3.8	1.49e+00	0	62	104	1072693248	60	20528
2026-01-26 09:53:29.91	345.17	3.42	-45.0	-59.6	3.8	1.49e+00	0	62	104	1072693248	60	20541
2026-01-26 09:53:33.95	345.13	3.15	-45.0	-59.5	3.8	1.49e+00	0	62	104	1072693248	60	20518
2026-01-26 09:53:38.00	345.09	2.89	-45.0	-59.5	3.8	1.49e+00	0	62	104	1072693248	60	20507
2026-01-26 09:53:42.04	345.06	2.62	-44.9	-59.5	3.8	1.49e+00	0	62	104	1072693248	60	20496
2026-01-26 09:53:46.08	345.03	2.36	-45.0	-59.6	3.8	1.49e+00	0	62	104	1072693248	60	20574
2026-01-26 09:53:50.12	344.99	2.10	-45.0	-59.6	3.8	1.49e+00	0	62	104	1072693248	60	20584

#Closed at: 2026-01-26 09:53:53
#Recorded file [1072 MB]: D:/lorett/data/31039_260126_123929.dat