passes_logs/2026/01/26/R2.0S_Moscow/R2.0S_Moscow__20260126_080114_NOAA_20_JPSS-1_rec.log

#Pass ID: 20260126_080114_NOAA 20 (JPSS-1)
#Satellite: NOAA 20 (JPSS-1)
#Configuration: NOAA 20
#almurnet v.1.7.20251203
#Start time: 2026-01-26 08:01:14

#Version: 2.2.20231116
#Station: R2.0S_Moscow
#Location: 37.707566 lon 55.798166 lat
#TLE: 1 43013U 17073A   26025.83228772  .00000162  00000+0  97663-4 0  9996
#TLE: 2 43013  98.7646 326.6579 0001036  23.5840 336.5383 14.19540376424273

#Time	Az	El	Level	Level2	SNR	BER	BlckErr	Temp	State	Recorded	gain1	gain2
2026-01-26 08:01:14.97	104.46	2.05	-38.2	-53.7	3.9	1.49e+00	0	53	0	0	48	20806
2026-01-26 08:01:17.99	104.23	2.21	-39.6	-54.5	3.8	1.49e+00	0	53	104	0	50	20415
2026-01-26 08:01:21.02	104.00	2.38	-39.6	-54.5	3.8	1.49e+00	0	53	104	0	50	20532
2026-01-26 08:01:24.06	103.76	2.54	-38.7	-54.0	3.8	1.49e+00	0	53	104	0	49	20513
2026-01-26 08:01:27.09	103.52	2.71	-40.2	-54.5	3.9	1.49e+00	0	54	104	0	49	21744
2026-01-26 08:01:30.12	103.28	2.87	-40.0	-54.7	3.8	1.49e+00	0	54	104	0	50	20840
2026-01-26 08:01:33.15	103.04	3.04	-36.4	-53.2	4.0	1.49e+00	0	54	104	0	44	24949
2026-01-26 08:01:36.18	102.79	3.20	-40.1	-54.6	3.9	1.49e+00	0	54	104	0	50	20667
2026-01-26 08:01:39.21	102.54	3.37	-39.3	-54.5	3.8	1.49e+00	0	55	104	0	50	20424
2026-01-26 08:01:42.24	102.29	3.54	-39.8	-54.6	3.8	1.49e+00	0	55	104	0	50	20569
2026-01-26 08:01:45.27	102.04	3.71	-40.0	-54.7	3.8	1.49e+00	0	55	104	0	50	20917
2026-01-26 08:01:48.31	101.78	3.88	-40.0	-54.5	3.8	1.49e+00	0	55	104	0	50	20536
2026-01-26 08:01:51.34	101.52	4.04	-39.6	-54.3	3.8	1.49e+00	0	55	104	0	50	20052
2026-01-26 08:01:54.37	101.25	4.21	-38.2	-54.2	4.0	1.49e+00	0	55	104	0	48	22214
2026-01-26 08:01:57.40	100.98	4.38	-37.1	-53.9	4.0	1.49e+00	0	56	104	0	46	23931
2026-01-26 08:02:00.43	100.71	4.55	-36.2	-53.3	4.0	1.49e+00	0	56	104	0	48	20006
2026-01-26 08:02:03.46	100.44	4.73	-39.1	-54.3	3.9	1.49e+00	0	56	104	0	50	19880
2026-01-26 08:02:06.49	100.16	4.90	-39.5	-54.5	3.8	1.49e+00	0	56	104	0	50	20476
2026-01-26 08:02:09.53	99.88	5.07	-39.6	-54.5	3.8	1.49e+00	0	56	104	0	50	20498
2026-01-26 08:02:12.56	99.60	5.24	-39.6	-54.4	3.9	1.49e+00	0	56	104	0	50	20077
2026-01-26 08:02:15.59	99.31	5.41	-39.6	-54.9	3.7	1.49e+00	0	57	104	0	50	21313
2026-01-26 08:02:18.62	99.02	5.59	-39.5	-54.4	3.9	1.49e+00	0	57	104	0	48	22640
2026-01-26 08:02:21.65	98.72	5.76	-39.0	-54.1	3.9	1.49e+00	0	57	104	0	48	21758
2026-01-26 08:02:24.68	98.42	5.93	-38.3	-53.4	3.8	1.49e+00	0	57	104	0	48	20073
2026-01-26 08:02:27.71	98.12	6.11	-39.3	-54.3	3.8	1.49e+00	0	57	104	0	49	21068
2026-01-26 08:02:30.74	97.82	6.28	-38.9	-54.3	3.8	1.49e+00	0	57	104	0	49	21247
2026-01-26 08:02:33.77	97.51	6.46	-39.9	-54.5	3.9	1.49e+00	0	57	104	0	50	20425
2026-01-26 08:02:36.80	97.19	6.64	-39.1	-54.2	3.7	1.49e+00	0	57	104	0	48	22021
2026-01-26 08:02:39.84	96.88	6.81	-38.9	-53.7	3.9	1.49e+00	0	58	104	0	49	19830
2026-01-26 08:02:42.87	96.56	6.99	-39.9	-54.6	3.8	1.49e+00	0	58	104	0	50	20560
2026-01-26 08:02:45.90	96.23	7.17	-39.7	-54.5	3.8	1.49e+00	0	57	104	0	50	20494
2026-01-26 08:02:48.93	95.90	7.34	-39.1	-53.5	3.7	1.49e+00	0	58	104	0	47	21732
2026-01-26 08:02:51.96	95.57	7.52	-37.5	-54.4	3.8	1.49e+00	0	58	104	0	50	20261
2026-01-26 08:02:54.99	95.23	7.70	-38.9	-54.4	3.7	1.49e+00	0	58	104	0	46	25324
2026-01-26 08:02:58.02	94.89	7.88	-38.9	-53.6	3.8	1.49e+00	0	58	104	0	48	20551
2026-01-26 08:03:01.05	94.54	8.05	-40.0	-54.6	3.8	1.49e+00	0	58	104	0	50	20757
2026-01-26 08:03:04.09	94.19	8.23	-38.7	-54.2	3.8	1.49e+00	0	58	104	0	50	19791
2026-01-26 08:03:07.12	93.84	8.41	-39.8	-54.9	3.8	1.49e+00	0	58	104	0	50	21267
2026-01-26 08:03:10.15	93.48	8.59	-40.2	-54.9	3.8	1.49e+00	0	58	104	0	51	20102
2026-01-26 08:03:13.18	93.11	8.77	-38.9	-53.8	3.9	1.49e+00	0	59	104	0	47	22461
2026-01-26 08:03:16.21	92.74	8.95	-39.8	-54.5	3.8	1.49e+00	0	59	104	0	50	20438
2026-01-26 08:03:19.23	92.37	9.13	-40.3	-54.9	3.8	1.49e+00	0	59	104	0	51	20190
2026-01-26 08:03:22.26	92.00	9.31	-39.8	-54.8	3.9	1.49e+00	0	59	104	0	51	19857
2026-01-26 08:03:25.29	91.61	9.49	-40.3	-54.9	3.8	1.49e+00	0	59	104	0	51	20093
2026-01-26 08:03:28.32	91.23	9.67	-40.6	-54.1	3.8	1.49e+00	0	59	104	0	51	18400
2026-01-26 08:03:31.35	90.83	9.85	-40.7	-54.4	3.8	1.49e+00	0	59	104	0	52	18054
2026-01-26 08:03:34.38	90.44	10.03	-40.9	-55.1	3.8	1.49e+00	0	59	104	0	52	19581
2026-01-26 08:03:37.41	90.03	10.21	-41.2	-55.4	3.8	1.49e+00	0	59	104	0	53	19136
2026-01-26 08:03:40.44	89.63	10.39	-40.5	-55.1	3.8	1.49e+00	0	59	104	0	51	20610
2026-01-26 08:03:43.47	89.22	10.57	-40.9	-55.5	3.8	1.49e+00	0	59	104	0	52	20322
2026-01-26 08:03:46.50	88.80	10.75	-40.6	-55.2	3.8	1.49e+00	0	60	104	0	52	19668
2026-01-26 08:03:49.53	88.38	10.93	-40.5	-55.2	3.8	1.49e+00	0	59	104	0	51	20944
2026-01-26 08:03:52.57	87.95	11.11	-40.7	-55.3	3.9	1.49e+00	0	59	104	0	52	20042
2026-01-26 08:03:55.60	87.51	11.29	-40.6	-55.3	3.8	1.49e+00	0	59	104	0	51	21119
2026-01-26 08:03:58.62	87.08	11.47	-40.6	-55.2	3.8	1.49e+00	0	60	104	0	51	20999
2026-01-26 08:04:01.65	86.63	11.64	-40.5	-55.2	3.8	1.49e+00	0	60	104	0	52	19646
2026-01-26 08:04:04.69	86.18	11.82	-40.8	-55.4	3.8	1.49e+00	0	60	104	0	52	20230
2026-01-26 08:04:07.72	85.73	12.00	-40.6	-55.2	3.8	1.49e+00	0	60	104	0	51	20987
2026-01-26 08:04:10.75	85.27	12.18	-40.4	-55.0	3.8	1.49e+00	0	60	104	0	51	20407
2026-01-26 08:04:13.78	84.80	12.35	-40.3	-54.9	3.8	1.49e+00	0	60	104	0	52	19076
2026-01-26 08:04:16.81	84.33	12.53	-40.7	-55.3	3.8	1.49e+00	0	60	104	0	51	21151
2026-01-26 08:04:19.84	83.85	12.70	-40.5	-55.1	3.8	1.49e+00	0	60	104	0	51	20549
2026-01-26 08:04:22.86	83.37	12.88	-40.3	-54.9	3.8	1.49e+00	0	60	104	0	52	19042
2026-01-26 08:04:25.89	82.88	13.05	-40.4	-55.0	3.8	1.49e+00	0	60	104	0	51	20411
2026-01-26 08:04:28.91	82.39	13.22	-40.8	-55.3	3.8	1.49e+00	0	60	104	0	52	20046
2026-01-26 08:04:31.95	81.88	13.40	-40.3	-55.1	3.8	1.49e+00	0	60	104	0	52	19440
2026-01-26 08:04:34.98	81.38	13.57	-41.5	-55.6	3.8	1.49e+00	0	60	104	0	53	19493
2026-01-26 08:04:38.01	80.86	13.74	-40.8	-55.4	3.8	1.49e+00	0	60	104	0	52	20118
2026-01-26 08:04:41.04	80.35	13.91	-40.8	-53.1	3.8	1.48e+00	0	60	104	0	52	15462
2026-01-26 08:04:44.08	79.82	14.07	-41.2	-52.4	4.2	1.18e+00	0	60	0	0	53	13455
2026-01-26 08:04:47.10	79.29	14.24	-40.9	-51.0	4.6	1.37e+00	0	60	104	0	53	11468
2026-01-26 08:04:50.13	78.75	14.40	-40.7	-48.5	6.3	2.83e-01	0	61	0	5242880	53	8614
2026-01-26 08:04:53.16	78.21	14.57	-41.2	-50.4	5.1	6.25e-01	0	60	0	10485760	53	10685
2026-01-26 08:04:56.19	77.66	14.73	-41.4	-51.2	4.7	9.51e-01	0	60	0	15728640	53	11812
2026-01-26 08:04:59.22	77.11	14.89	-40.5	-47.5	7.2	1.28e-01	0	60	0	20971520	52	8152
2026-01-26 08:05:02.26	76.55	15.05	-40.6	-47.8	7.0	1.75e-01	0	61	0	26214400	52	8443
2026-01-26 08:05:05.28	75.98	15.20	-41.2	-50.3	5.0	1.48e+00	0	61	0	29360128	53	10580
2026-01-26 08:05:08.31	75.41	15.36	-41.3	-54.3	3.8	1.08e+00	0	61	104	31457280	53	16714
2026-01-26 08:05:11.34	74.83	15.51	-40.7	-49.8	5.2	5.83e-01	0	61	0	35651584	53	10002
2026-01-26 08:05:14.38	74.25	15.66	-41.0	-50.1	5.3	5.00e-01	0	61	0	40894464	53	10375
2026-01-26 08:05:17.40	73.66	15.81	-41.5	-52.9	4.1	1.20e+00	0	61	104	42991616	53	14356
2026-01-26 08:05:20.43	73.06	15.96	-40.9	-48.6	6.4	2.46e-01	0	61	0	46137344	52	9238
2026-01-26 08:05:23.46	72.46	16.10	-40.7	-48.2	6.7	2.05e-01	0	61	0	51380224	52	8786
2026-01-26 08:05:26.49	71.85	16.25	-40.9	-49.3	5.9	3.32e-01	0	61	0	57671680	52	9954
2026-01-26 08:05:29.52	71.24	16.39	-40.8	-48.0	7.1	4.37e-01	0	61	0	59768832	53	8095
2026-01-26 08:05:32.54	70.62	16.52	-40.8	-47.3	7.9	8.98e-02	0	61	0	63963136	53	7489
2026-01-26 08:05:35.58	69.99	16.66	-40.9	-46.3	9.4	1.52e-02	0	61	0	69206016	53	6700
2026-01-26 08:05:38.61	69.36	16.79	-41.0	-46.1	10.0	8.18e-03	0	61	0	75497472	53	6545
2026-01-26 08:05:41.64	68.73	16.92	-41.0	-45.5	10.9	2.84e-03	0	61	0	80740352	53	6121
2026-01-26 08:05:44.67	68.08	17.04	-41.0	-45.2	11.6	7.54e-04	0	61	0	87031808	53	5863
2026-01-26 08:05:47.70	67.44	17.17	-41.1	-45.2	11.8	5.74e-04	0	61	0	92274688	53	5863
2026-01-26 08:05:50.73	66.79	17.29	-41.0	-44.7	12.5	1.51e-04	0	61	0	98566144	53	5556
2026-01-26 08:05:53.76	66.13	17.40	-41.0	-44.7	12.7	7.78e-05	0	61	0	103809024	53	5577
2026-01-26 08:05:56.79	65.47	17.51	-41.1	-44.7	12.8	4.73e-05	0	61	0	109051904	53	5543
2026-01-26 08:05:59.82	64.80	17.62	-41.1	-44.8	12.8	5.87e-05	0	61	0	115343360	53	5618
2026-01-26 08:06:02.85	64.13	17.73	-41.3	-45.0	12.6	8.62e-05	0	61	0	120586240	53	5747
2026-01-26 08:06:05.88	63.45	17.83	-41.2	-44.8	12.9	5.79e-05	0	61	0	126877696	53	5606
2026-01-26 08:06:08.91	62.77	17.93	-41.1	-44.5	13.1	2.21e-05	0	61	0	132120576	53	5459
2026-01-26 08:06:11.94	62.09	18.03	-41.2	-44.8	12.9	3.28e-05	0	61	0	137363456	53	5631
2026-01-26 08:06:14.97	61.40	18.12	-41.3	-44.9	12.8	4.65e-05	0	61	0	143654912	53	5704
2026-01-26 08:06:18.00	60.70	18.20	-41.4	-45.2	12.5	1.04e-04	0	61	0	148897792	53	5885
2026-01-26 08:06:21.03	60.01	18.29	-41.7	-45.7	12.1	2.46e-04	0	61	0	155189248	53	6211
2026-01-26 08:06:24.06	59.30	18.36	-41.7	-45.6	12.2	2.40e-04	0	61	0	160432128	54	5803
2026-01-26 08:06:27.09	58.60	18.44	-41.7	-45.6	12.1	2.59e-04	0	61	0	166723584	54	5849
2026-01-26 08:06:30.12	57.89	18.51	-41.7	-45.5	12.3	2.44e-04	0	61	0	171966464	54	5774
2026-01-26 08:06:33.15	57.18	18.57	-41.8	-45.8	12.0	3.38e-04	0	61	0	177209344	54	5987
2026-01-26 08:06:36.18	56.47	18.64	-41.9	-46.0	11.8	3.99e-04	0	61	0	183500800	54	6086
2026-01-26 08:06:39.21	55.75	18.69	-42.0	-46.2	11.6	6.55e-04	0	61	0	188743680	54	6205
2026-01-26 08:06:42.24	55.03	18.74	-42.0	-46.2	11.6	8.45e-04	0	62	0	195035136	54	6273
2026-01-26 08:06:45.27	54.31	18.79	-41.9	-45.9	11.9	4.34e-04	0	61	0	200278016	54	6036
2026-01-26 08:06:48.30	53.58	18.84	-41.9	-46.1	11.7	4.05e-04	0	62	0	205520896	54	6161
2026-01-26 08:06:51.33	52.86	18.87	-41.9	-45.9	11.9	4.52e-04	0	61	0	211812352	54	6056
2026-01-26 08:06:54.36	52.13	18.91	-41.9	-46.1	11.8	5.26e-04	0	61	0	217055232	54	6138
2026-01-26 08:06:57.39	51.40	18.94	-41.8	-45.8	12.1	3.32e-04	0	62	0	223346688	54	5929
2026-01-26 08:07:00.42	50.67	18.96	-41.8	-45.8	12.1	2.92e-04	0	61	0	228589568	54	5968
2026-01-26 08:07:03.45	49.94	18.98	-41.8	-45.8	12.2	2.53e-04	0	62	0	234881024	54	5925
2026-01-26 08:07:06.48	49.21	18.99	-42.0	-46.2	11.7	5.26e-04	0	62	0	240123904	54	6216
2026-01-26 08:07:09.51	48.48	19.00	-41.8	-45.8	12.1	3.11e-04	0	61	0	245366784	54	5979
2026-01-26 08:07:12.54	47.74	19.01	-41.6	-45.4	12.5	1.42e-04	0	61	0	251658240	54	5696
2026-01-26 08:07:15.57	47.01	19.01	-41.5	-45.2	12.6	1.12e-04	0	61	0	256901120	54	5577
2026-01-26 08:07:18.60	46.28	19.00	-41.6	-45.4	12.5	8.31e-05	0	62	0	263192576	54	5690
2026-01-26 08:07:21.64	45.54	18.99	-41.6	-45.3	12.7	1.11e-04	0	62	0	268435456	54	5609
2026-01-26 08:07:24.67	44.81	18.98	-41.4	-45.0	13.0	3.43e-05	0	62	0	273678336	54	5403
2026-01-26 08:07:27.69	44.08	18.96	-41.3	-44.8	13.1	2.74e-05	0	62	0	279969792	54	5323
2026-01-26 08:07:30.72	43.35	18.93	-41.4	-45.0	13.0	3.81e-05	0	61	0	285212672	54	5407
2026-01-26 08:07:33.75	42.63	18.91	-41.4	-45.0	12.9	5.41e-05	0	62	0	291504128	54	5434
2026-01-26 08:07:36.79	41.90	18.87	-41.2	-44.5	13.5	1.75e-05	0	62	0	296747008	54	5130
2026-01-26 08:07:39.82	41.17	18.83	-41.1	-44.4	13.5	1.14e-05	0	62	0	303038464	54	5082
2026-01-26 08:07:42.85	40.45	18.79	-41.0	-44.3	13.7	9.90e-06	0	62	0	308281344	53	5299
2026-01-26 08:07:45.88	39.73	18.74	-40.9	-44.1	13.9	5.30e-06	0	62	0	313524224	53	5174
2026-01-26 08:07:48.91	39.01	18.69	-41.0	-44.3	13.6	6.10e-06	0	62	0	319815680	53	5308
2026-01-26 08:07:51.94	38.29	18.63	-41.2	-44.5	13.4	1.52e-05	0	62	0	325058560	53	5450
2026-01-26 08:07:54.97	37.58	18.57	-41.2	-44.6	13.3	1.44e-05	0	62	0	331350016	53	5505
2026-01-26 08:07:58.00	36.87	18.50	-41.3	-44.8	13.1	3.05e-05	0	62	0	336592896	53	5626
2026-01-26 08:08:01.03	36.17	18.43	-41.4	-44.9	13.0	4.95e-05	0	62	0	342884352	53	5707
2026-01-26 08:08:04.06	35.46	18.36	-41.3	-44.9	13.0	3.28e-05	0	62	0	348127232	53	5664
2026-01-26 08:08:07.08	34.77	18.28	-41.5	-45.2	12.7	4.95e-05	0	62	0	353370112	53	5869
2026-01-26 08:08:10.11	34.07	18.20	-41.6	-45.5	12.4	1.15e-04	0	62	0	359661568	53	6064
2026-01-26 08:08:13.14	33.38	18.11	-41.5	-45.3	12.6	7.47e-05	0	62	0	364904448	53	5930
2026-01-26 08:08:16.17	32.69	18.02	-41.6	-45.5	12.4	1.32e-04	0	62	0	371195904	53	6097
2026-01-26 08:08:19.20	32.01	17.93	-41.8	-45.9	12.0	2.94e-04	0	62	0	376438784	54	5995
2026-01-26 08:08:22.23	31.33	17.83	-41.7	-45.6	12.2	2.19e-04	0	62	0	381681664	54	5851
2026-01-26 08:08:25.26	30.65	17.73	-41.6	-45.4	12.5	1.13e-04	0	62	0	387973120	54	5671
2026-01-26 08:08:28.29	29.98	17.62	-41.8	-45.6	12.3	1.46e-04	0	62	0	393216000	54	5844
2026-01-26 08:08:31.32	29.32	17.51	-41.7	-45.6	12.3	1.45e-04	0	62	0	399507456	54	5805
2026-01-26 08:08:34.35	28.66	17.40	-41.7	-45.5	12.4	1.48e-04	0	62	0	404750336	54	5784
2026-01-26 08:08:37.38	28.01	17.28	-41.8	-45.8	12.1	2.68e-04	0	62	0	411041792	54	5926
2026-01-26 08:08:40.41	27.36	17.16	-41.7	-45.5	12.3	2.11e-04	0	62	0	416284672	54	5759
2026-01-26 08:08:43.44	26.71	17.04	-41.7	-45.6	12.3	1.83e-04	0	62	0	421527552	54	5798
2026-01-26 08:08:46.47	26.07	16.91	-41.9	-45.9	12.0	3.23e-04	0	62	0	427819008	54	6022
2026-01-26 08:08:49.50	25.44	16.79	-41.9	-46.1	11.7	4.84e-04	0	62	0	433061888	54	6157
2026-01-26 08:08:52.53	24.81	16.65	-41.9	-46.0	11.8	4.97e-04	0	62	0	439353344	54	6070
2026-01-26 08:08:55.56	24.19	16.52	-41.9	-46.1	11.7	5.71e-04	0	62	0	444596224	54	6169
2026-01-26 08:08:58.58	23.58	16.38	-42.1	-46.5	11.3	1.03e-03	0	62	0	449839104	54	6424
2026-01-26 08:09:01.61	22.96	16.24	-42.0	-46.2	11.5	8.24e-04	0	62	0	456130560	54	6252
2026-01-26 08:09:04.64	22.36	16.10	-41.9	-46.0	11.7	5.46e-04	0	62	0	461373440	54	6101
2026-01-26 08:09:07.67	21.76	15.96	-41.9	-46.1	11.6	6.64e-04	0	62	0	467664896	54	6153
2026-01-26 08:09:10.70	21.17	15.81	-41.9	-46.2	11.5	7.02e-04	0	62	0	472907776	54	6217
2026-01-26 08:09:13.72	20.58	15.66	-42.0	-46.4	11.3	1.13e-03	0	62	0	479199232	54	6373
2026-01-26 08:09:16.75	20.00	15.51	-42.0	-46.5	11.2	1.27e-03	0	62	0	484442112	54	6429
2026-01-26 08:09:19.78	19.42	15.36	-42.1	-46.7	11.0	1.78e-03	0	62	0	489684992	54	6575
2026-01-26 08:09:22.82	18.85	15.21	-42.0	-46.4	11.3	1.32e-03	0	62	0	495976448	54	6366
2026-01-26 08:09:25.85	18.29	15.05	-41.8	-46.1	11.6	7.61e-04	0	62	0	501219328	54	6147
2026-01-26 08:09:28.87	17.73	14.89	-42.1	-46.7	10.8	2.08e-03	0	62	0	507510784	54	6635
2026-01-26 08:09:31.90	17.18	14.73	-42.2	-47.0	10.6	3.50e-03	0	62	0	512753664	54	6804
2026-01-26 08:09:34.93	16.64	14.57	-42.2	-47.0	10.5	3.90e-03	0	62	0	517996544	54	6833
2026-01-26 08:09:37.96	16.10	14.41	-42.3	-47.2	10.3	5.11e-03	0	62	0	524288000	55	6604
2026-01-26 08:09:40.99	15.57	14.24	-42.2	-47.1	10.3	5.81e-03	0	62	0	529530880	55	6554
2026-01-26 08:09:44.02	15.04	14.08	-42.2	-47.0	10.4	4.90e-03	0	62	0	535822336	55	6491
2026-01-26 08:09:47.05	14.52	13.91	-42.1	-47.0	10.3	4.96e-03	0	62	0	541065216	55	6459
2026-01-26 08:09:50.09	14.00	13.74	-42.2	-47.2	10.0	7.04e-03	0	62	0	547356672	55	6622
2026-01-26 08:09:53.11	13.49	13.57	-42.1	-47.1	10.0	8.11e-03	0	62	0	552599552	55	6565
2026-01-26 08:09:56.15	12.99	13.40	-41.9	-46.8	10.4	4.88e-03	0	62	0	557842432	55	6296
2026-01-26 08:09:59.18	12.49	13.23	-41.8	-46.5	10.6	3.86e-03	0	62	0	564133888	55	6122
2026-01-26 08:10:02.21	12.00	13.06	-41.8	-46.6	10.3	5.07e-03	0	62	0	569376768	54	6565
2026-01-26 08:10:05.24	11.51	12.89	-41.7	-46.6	10.3	4.86e-03	0	62	0	575668224	54	6525
2026-01-26 08:10:08.27	11.03	12.71	-41.5	-46.3	10.2	5.92e-03	0	62	0	580911104	54	6335
2026-01-26 08:10:11.30	10.56	12.54	-41.2	-46.0	10.4	4.58e-03	0	62	0	586153984	54	6077
2026-01-26 08:10:14.33	10.09	12.36	-41.1	-45.8	10.5	4.05e-03	0	62	0	592445440	54	5951
2026-01-26 08:10:17.36	9.63	12.19	-40.9	-45.7	10.4	4.66e-03	0	62	0	597688320	53	6264
2026-01-26 08:10:20.39	9.17	12.01	-40.6	-45.5	10.3	4.60e-03	0	62	0	603979776	53	6067
2026-01-26 08:10:23.42	8.72	11.83	-40.7	-46.3	9.2	1.61e-02	0	62	0	609222656	53	6652
2026-01-26 08:10:26.45	8.27	11.66	-40.9	-47.6	7.6	7.37e-02	0	62	0	615514112	53	7782
2026-01-26 08:10:29.48	7.83	11.48	-40.9	-49.2	5.9	2.82e-01	0	62	0	620756992	53	9327
2026-01-26 08:10:32.51	7.40	11.30	-41.3	-51.8	4.4	1.23e+00	60	62	0	625999872	53	12543
2026-01-26 08:10:35.54	6.97	11.12	-41.2	-54.4	3.8	1.49e+00	0	62	104	627048448	52	18090
2026-01-26 08:10:38.57	6.54	10.94	-41.2	-54.7	3.8	1.49e+00	0	62	104	627048448	54	16572
2026-01-26 08:10:41.60	6.12	10.77	-40.5	-54.7	3.8	1.49e+00	0	62	104	627048448	52	18547
2026-01-26 08:10:44.63	5.71	10.59	-40.1	-54.6	3.8	1.49e+00	0	62	104	627048448	51	19464
2026-01-26 08:10:47.66	5.30	10.41	-39.9	-54.4	3.8	1.49e+00	0	62	104	627048448	51	19122
2026-01-26 08:10:50.69	4.90	10.23	-40.1	-54.6	3.8	1.49e+00	0	62	104	627048448	51	19557
2026-01-26 08:10:53.72	4.50	10.05	-39.9	-54.5	3.8	1.49e+00	0	62	104	627048448	51	19171
2026-01-26 08:10:56.75	4.10	9.87	-39.9	-54.5	3.8	1.49e+00	0	62	104	627048448	51	19276
2026-01-26 08:10:59.78	3.72	9.69	-40.1	-54.7	3.8	1.49e+00	0	62	104	627048448	51	19636
2026-01-26 08:11:02.81	3.33	9.51	-39.9	-54.5	3.8	1.49e+00	0	62	104	627048448	51	19227
2026-01-26 08:11:05.84	2.95	9.33	-39.9	-54.5	3.8	1.49e+00	0	62	104	627048448	51	19197
2026-01-26 08:11:08.88	2.58	9.15	-40.1	-54.7	3.8	1.49e+00	0	62	104	627048448	51	19644
2026-01-26 08:11:11.91	2.21	8.97	-39.9	-54.5	3.8	1.49e+00	0	62	104	627048448	51	19200
2026-01-26 08:11:14.94	1.84	8.79	-39.9	-54.5	3.8	1.49e+00	0	62	104	627048448	51	19224
2026-01-26 08:11:17.96	1.48	8.62	-40.0	-54.5	3.8	1.49e+00	0	62	104	627048448	51	19323
2026-01-26 08:11:20.99	1.13	8.44	-40.0	-54.5	3.8	1.49e+00	0	62	104	627048448	51	19331
2026-01-26 08:11:24.03	0.78	8.26	-39.9	-54.5	3.8	1.49e+00	0	62	104	627048448	51	19232
2026-01-26 08:11:27.05	0.43	8.08	-39.9	-54.5	3.8	1.49e+00	0	62	104	627048448	51	19174
2026-01-26 08:11:30.08	0.09	7.90	-44.2	-58.7	3.8	1.49e+00	0	62	104	627048448	58	20808
2026-01-26 08:11:33.11	359.75	7.73	-45.2	-59.9	3.8	1.49e+00	0	62	104	627048448	60	21349
2026-01-26 08:11:36.14	359.41	7.55	-44.7	-60.0	3.7	1.49e+00	0	62	104	627048448	60	21719
2026-01-26 08:11:39.18	359.08	7.37	-42.2	-60.1	3.8	1.49e+00	0	62	104	627048448	57	25869
2026-01-26 08:11:42.21	358.76	7.19	-45.1	-59.7	3.8	1.49e+00	0	62	104	627048448	60	20997
2026-01-26 08:11:45.24	358.44	7.02	-45.0	-59.6	3.8	1.49e+00	0	62	104	627048448	60	20739
2026-01-26 08:11:48.27	358.12	6.84	-44.6	-59.6	3.8	1.49e+00	0	62	104	627048448	60	20610
2026-01-26 08:11:51.30	357.80	6.67	-45.0	-59.6	3.8	1.49e+00	0	62	104	627048448	60	20648
2026-01-26 08:11:54.33	357.49	6.49	-45.0	-59.6	3.8	1.49e+00	0	62	104	627048448	60	20611
2026-01-26 08:11:57.36	357.19	6.32	-45.0	-59.6	3.9	1.49e+00	0	62	104	627048448	60	20606
2026-01-26 08:12:00.39	356.89	6.14	-45.0	-59.6	3.8	1.49e+00	0	62	104	627048448	60	20596
2026-01-26 08:12:03.42	356.59	5.97	-45.0	-59.6	3.8	1.49e+00	0	62	104	627048448	60	20562
2026-01-26 08:12:06.46	356.29	5.79	-45.0	-59.6	3.8	1.49e+00	0	62	104	627048448	60	20545
2026-01-26 08:12:09.49	356.00	5.62	-45.0	-59.6	3.8	1.49e+00	0	62	104	627048448	60	20544
2026-01-26 08:12:12.52	355.71	5.45	-44.9	-59.5	3.8	1.49e+00	0	62	104	627048448	60	20518
2026-01-26 08:12:15.55	355.43	5.28	-45.0	-59.6	3.8	1.49e+00	0	62	104	627048448	60	20646
2026-01-26 08:12:18.58	355.15	5.10	-45.0	-59.6	3.8	1.49e+00	0	62	104	627048448	60	20567
2026-01-26 08:12:21.61	354.87	4.93	-45.0	-59.5	3.8	1.49e+00	0	62	104	627048448	60	20507
2026-01-26 08:12:24.65	354.60	4.76	-44.9	-59.6	3.8	1.49e+00	0	62	104	627048448	60	20601
2026-01-26 08:12:27.68	354.33	4.59	-45.0	-59.6	3.8	1.49e+00	0	62	104	627048448	60	20546
2026-01-26 08:12:30.71	354.06	4.42	-45.0	-59.6	3.8	1.49e+00	0	62	104	627048448	60	20540
2026-01-26 08:12:33.74	353.79	4.25	-44.9	-59.5	3.8	1.49e+00	0	62	104	627048448	60	20445
2026-01-26 08:12:36.77	353.53	4.08	-44.9	-59.5	3.8	1.49e+00	0	62	104	627048448	60	20472
2026-01-26 08:12:39.80	353.28	3.91	-44.9	-59.5	3.8	1.49e+00	0	62	104	627048448	60	20414
2026-01-26 08:12:42.84	353.02	3.75	-44.9	-59.5	3.8	1.49e+00	0	62	104	627048448	60	20415
2026-01-26 08:12:45.87	352.77	3.58	-44.8	-59.5	3.8	1.49e+00	0	62	104	627048448	60	20410
2026-01-26 08:12:48.90	352.52	3.41	-44.9	-59.5	3.8	1.49e+00	0	62	104	627048448	60	20332
2026-01-26 08:12:51.93	352.27	3.25	-44.1	-59.2	3.8	1.49e+00	0	62	104	627048448	59	20871
2026-01-26 08:12:54.96	352.03	3.08	-44.9	-59.5	3.8	1.49e+00	0	62	104	627048448	60	20337
2026-01-26 08:12:58.00	351.79	2.91	-44.9	-59.5	3.8	1.49e+00	0	62	104	627048448	60	20343
2026-01-26 08:13:01.03	351.55	2.75	-44.8	-59.4	3.8	1.49e+00	0	62	104	627048448	60	20244
2026-01-26 08:13:04.06	351.32	2.58	-44.9	-59.5	3.8	1.49e+00	0	62	104	627048448	60	20365
2026-01-26 08:13:07.09	351.09	2.42	-44.8	-59.4	3.8	1.49e+00	0	62	104	627048448	60	20225
2026-01-26 08:13:10.12	350.86	2.26	-44.8	-59.4	3.8	1.49e+00	0	62	104	627048448	60	20240
2026-01-26 08:13:13.16	350.63	2.09	-44.8	-59.4	3.8	1.49e+00	0	62	104	627048448	60	20224
2026-01-26 08:13:16.19	350.41	1.93	-44.8	-59.4	3.8	1.49e+00	0	62	104	627048448	60	20215

#Closed at: 2026-01-26 08:13:16
#Recorded file [627 MB]: D:/lorett/data/31039_260126_110114.dat