passes_logs/2026/01/26/R2.0S_Moscow/R2.0S_Moscow__20260126_025207_AQUA_rec.log

#Pass ID: 20260126_025207_AQUA
#Satellite: AQUA
#Configuration: AQUA
#almurnet v.1.7.20251203
#Start time: 2026-01-26 02:52:09

#Version: 2.2.20231116
#Station: R2.0S_Moscow
#Location: 37.707566 lon 55.798166 lat
#TLE: 1 27424U 02022A   26025.50647354  .00001868  00000+0  38363-3 0  9992
#TLE: 2 27424  98.4099 352.1114 0001896  65.7986  47.0097 14.61858879262422

#Time	Az	El	Level	Level2	SNR	BER	BlckErr	Temp	State	Recorded	gain1	gain2
2026-01-26 02:52:09.62	7.17	2.12	-40.7	-59.7	3.8	7.46e-01	0	52	0	0	53	31401
2026-01-26 02:52:12.65	6.95	2.30	-40.7	-59.7	3.8	7.47e-01	0	52	104	0	52	33245
2026-01-26 02:52:15.68	6.72	2.48	-40.7	-59.7	3.8	7.46e-01	0	52	104	0	52	33214
2026-01-26 02:52:18.71	6.50	2.66	-40.7	-59.7	3.8	7.46e-01	0	52	104	0	52	33125
2026-01-26 02:52:21.74	6.27	2.84	-40.7	-59.7	3.8	7.48e-01	0	53	104	0	52	33156
2026-01-26 02:52:24.77	6.03	3.02	-40.7	-59.7	3.8	7.44e-01	0	53	104	0	52	33220
2026-01-26 02:52:27.80	5.80	3.20	-40.7	-59.7	3.8	7.48e-01	0	53	104	0	52	33169
2026-01-26 02:52:30.83	5.56	3.39	-40.6	-59.7	3.8	7.46e-01	0	54	104	0	52	33145
2026-01-26 02:52:33.86	5.31	3.57	-40.7	-59.7	3.8	7.45e-01	0	53	104	0	52	33105
2026-01-26 02:52:36.90	5.07	3.75	-40.7	-59.7	3.8	7.43e-01	0	54	104	0	52	33063
2026-01-26 02:52:39.93	4.82	3.94	-40.6	-59.7	3.8	7.45e-01	0	54	104	0	52	33160
2026-01-26 02:52:42.96	4.56	4.13	-40.6	-59.7	3.8	7.43e-01	0	54	104	0	52	33066
2026-01-26 02:52:45.99	4.30	4.31	-40.6	-59.7	3.8	7.47e-01	0	54	104	0	52	33027
2026-01-26 02:52:49.02	4.04	4.50	-40.6	-59.7	3.8	7.42e-01	0	55	104	0	52	33017
2026-01-26 02:52:52.05	3.78	4.69	-40.6	-59.7	3.8	7.47e-01	0	55	104	0	52	33054
2026-01-26 02:52:55.09	3.50	4.88	-40.6	-59.7	3.8	7.45e-01	0	55	104	0	52	33031
2026-01-26 02:52:58.12	3.23	5.07	-40.6	-59.7	3.8	7.45e-01	0	55	104	0	52	33029
2026-01-26 02:53:01.15	2.95	5.27	-40.6	-59.7	3.8	7.46e-01	0	55	104	0	52	32969
2026-01-26 02:53:04.18	2.67	5.46	-40.6	-59.7	3.8	7.44e-01	0	55	104	0	52	32935
2026-01-26 02:53:07.21	2.38	5.65	-40.6	-59.7	3.8	7.46e-01	0	56	104	0	52	32993
2026-01-26 02:53:10.24	2.09	5.85	-40.6	-59.6	3.8	7.44e-01	0	56	104	0	52	32900
2026-01-26 02:53:13.27	1.80	6.05	-40.6	-59.7	3.8	7.46e-01	0	56	104	0	52	33023
2026-01-26 02:53:16.31	1.50	6.24	-40.6	-59.7	3.8	7.42e-01	0	56	104	0	52	32972
2026-01-26 02:53:19.34	1.19	6.44	-40.6	-59.7	3.8	7.47e-01	0	56	104	0	52	32933
2026-01-26 02:53:22.37	0.88	6.64	-40.6	-59.6	3.8	7.43e-01	0	56	104	0	52	32916
2026-01-26 02:53:25.40	0.57	6.84	-40.6	-59.7	3.8	7.45e-01	0	56	104	0	52	32961
2026-01-26 02:53:28.43	0.25	7.04	-40.6	-59.7	3.8	7.44e-01	0	56	104	0	52	32996
2026-01-26 02:53:31.46	359.93	7.24	-40.6	-59.7	3.8	7.45e-01	0	56	104	0	52	32938
2026-01-26 02:53:34.49	359.60	7.45	-40.6	-59.7	3.8	7.46e-01	0	57	104	0	52	32962
2026-01-26 02:53:37.52	359.26	7.65	-40.6	-59.7	3.8	7.45e-01	0	57	104	0	52	32929
2026-01-26 02:53:40.54	358.93	7.85	-40.6	-59.7	3.8	7.45e-01	0	57	104	0	52	32955
2026-01-26 02:53:43.57	358.58	8.06	-40.6	-59.7	3.8	7.45e-01	0	57	104	0	52	32976
2026-01-26 02:53:46.60	358.23	8.27	-40.9	-59.9	3.8	7.45e-01	0	57	104	0	52	33749
2026-01-26 02:53:49.63	357.87	8.47	-40.8	-59.8	3.8	7.43e-01	0	57	104	0	52	33690
2026-01-26 02:53:52.66	357.51	8.68	-40.8	-59.9	3.8	7.43e-01	0	57	104	0	52	33807
2026-01-26 02:53:55.69	357.14	8.89	-40.9	-59.9	3.8	7.49e-01	0	57	104	0	52	33862
2026-01-26 02:53:58.72	356.77	9.10	-40.9	-59.9	3.8	7.46e-01	0	58	104	0	52	33825
2026-01-26 02:54:01.74	356.39	9.31	-40.8	-59.8	3.8	7.45e-01	0	58	104	0	52	33545
2026-01-26 02:54:04.77	356.01	9.52	-41.0	-60.0	3.8	7.47e-01	0	58	104	0	52	34340
2026-01-26 02:54:07.80	355.61	9.74	-40.9	-59.9	3.8	7.47e-01	0	58	104	0	52	33883
2026-01-26 02:54:10.83	355.22	9.95	-41.2	-60.2	3.8	7.46e-01	0	58	104	0	52	34927
2026-01-26 02:54:13.86	354.81	10.16	-41.0	-60.0	3.8	7.44e-01	0	58	104	0	53	32391
2026-01-26 02:54:16.89	354.40	10.38	-41.3	-60.3	3.8	7.47e-01	0	58	104	0	53	33486
2026-01-26 02:54:19.92	353.98	10.59	-41.2	-60.2	3.8	7.43e-01	0	58	104	0	53	33130
2026-01-26 02:54:22.95	353.56	10.81	-41.4	-60.3	3.8	7.48e-01	0	58	104	0	53	33562
2026-01-26 02:54:25.98	353.12	11.03	-41.3	-60.2	3.8	7.43e-01	0	58	104	0	53	33257
2026-01-26 02:54:29.01	352.68	11.24	-41.4	-60.4	3.8	7.47e-01	0	58	104	0	53	33904
2026-01-26 02:54:32.04	352.24	11.46	-41.4	-60.3	3.8	7.42e-01	0	58	104	0	54	31754
2026-01-26 02:54:35.06	351.78	11.68	-41.4	-60.3	3.8	7.46e-01	0	58	104	0	54	31738
2026-01-26 02:54:38.09	351.32	11.90	-41.7	-60.7	3.8	7.46e-01	0	58	104	0	54	33072
2026-01-26 02:54:41.12	350.85	12.12	-41.6	-60.6	3.8	7.45e-01	0	59	104	0	54	32871
2026-01-26 02:54:44.15	350.38	12.34	-41.8	-60.7	3.8	7.46e-01	0	59	104	0	54	33259
2026-01-26 02:54:47.18	349.89	12.56	-41.9	-60.8	3.8	7.46e-01	0	58	104	0	54	33597
2026-01-26 02:54:50.21	349.40	12.78	-41.6	-60.6	3.8	7.43e-01	0	59	104	0	54	32765
2026-01-26 02:54:53.24	348.90	13.00	-42.1	-61.0	3.8	7.43e-01	0	59	104	0	54	34214
2026-01-26 02:54:56.27	348.39	13.22	-42.0	-60.8	3.8	7.45e-01	0	59	104	0	54	33564
2026-01-26 02:54:59.30	347.87	13.44	-42.2	-61.1	3.8	7.45e-01	0	59	104	0	55	32691
2026-01-26 02:55:02.33	347.34	13.66	-42.2	-61.1	3.8	7.45e-01	0	59	104	0	55	32712
2026-01-26 02:55:05.36	346.81	13.88	-42.1	-61.0	3.8	7.42e-01	0	59	104	0	55	32365
2026-01-26 02:55:08.38	346.27	14.10	-41.9	-60.8	3.8	7.46e-01	0	59	104	0	55	31555
2026-01-26 02:55:11.42	345.71	14.32	-41.8	-60.6	3.8	7.47e-01	0	59	104	0	55	31019
2026-01-26 02:55:14.45	345.15	14.54	-42.0	-61.0	3.8	7.45e-01	0	59	104	0	55	32222
2026-01-26 02:55:17.48	344.58	14.76	-42.0	-60.9	3.8	7.44e-01	0	59	104	0	55	31988
2026-01-26 02:55:20.51	344.00	14.98	-42.0	-61.0	3.8	7.45e-01	0	59	104	0	55	32311
2026-01-26 02:55:23.53	343.41	15.20	-41.7	-60.7	3.8	7.47e-01	0	59	104	0	55	31215
2026-01-26 02:55:26.56	342.82	15.42	-41.6	-60.6	3.8	7.44e-01	0	59	104	0	55	30946
2026-01-26 02:55:29.60	342.21	15.63	-41.7	-60.7	3.8	7.45e-01	0	59	104	0	55	31153
2026-01-26 02:55:32.63	341.59	15.85	-41.5	-60.6	3.8	7.44e-01	0	59	104	0	54	32584
2026-01-26 02:55:35.66	340.96	16.06	-41.7	-60.7	3.8	7.44e-01	0	60	104	0	54	33015
2026-01-26 02:55:38.69	340.32	16.28	-42.3	-59.8	3.9	7.45e-01	0	59	104	0	55	28287
2026-01-26 02:55:41.72	339.68	16.49	-43.2	-54.0	7.1	6.62e-01	92	60	0	1048576	56	13651
2026-01-26 02:55:44.75	339.02	16.70	-43.5	-52.4	9.3	6.26e-01	0	60	0	6815744	57	10673
2026-01-26 02:55:47.78	338.35	16.91	-42.1	-46.6	15.6	6.03e-01	0	60	0	12058624	56	5820
2026-01-26 02:55:50.81	337.68	17.11	-41.7	-45.5	17.1	6.05e-01	0	60	0	17825792	54	5763
2026-01-26 02:55:53.84	336.99	17.32	-41.8	-45.5	17.2	6.01e-01	0	60	0	23592960	54	5779
2026-01-26 02:55:56.87	336.29	17.52	-41.6	-45.1	17.8	6.03e-01	0	60	0	29360128	54	5471
2026-01-26 02:55:59.89	335.59	17.72	-41.6	-44.9	18.1	6.04e-01	0	60	0	35127296	54	5363
2026-01-26 02:56:02.92	334.87	17.91	-41.5	-44.8	18.2	6.02e-01	0	60	0	40894464	54	5325
2026-01-26 02:56:05.95	334.15	18.11	-41.5	-44.7	18.2	6.02e-01	0	60	0	46137344	54	5233
2026-01-26 02:56:08.98	333.41	18.30	-41.5	-44.8	18.4	6.03e-01	0	60	0	51904512	54	5292
2026-01-26 02:56:12.01	332.66	18.49	-41.7	-44.9	18.3	6.01e-01	0	60	0	57671680	54	5383
2026-01-26 02:56:15.04	331.91	18.67	-41.6	-44.8	18.3	6.05e-01	0	60	0	63438848	54	5321
2026-01-26 02:56:18.07	331.14	18.86	-41.6	-44.9	18.3	6.00e-01	0	60	0	69206016	54	5346
2026-01-26 02:56:21.10	330.36	19.03	-41.6	-45.0	18.2	6.02e-01	0	60	0	74973184	54	5429
2026-01-26 02:56:24.13	329.58	19.21	-41.4	-44.9	18.2	6.01e-01	0	60	0	80216064	54	5363
2026-01-26 02:56:27.16	328.78	19.38	-41.6	-45.0	18.2	6.03e-01	0	60	0	85983232	54	5443
2026-01-26 02:56:30.19	327.98	19.54	-41.2	-45.0	17.9	6.01e-01	0	60	0	91750400	54	5405
2026-01-26 02:56:33.22	327.16	19.70	-41.6	-45.0	18.0	6.03e-01	0	60	0	97517568	54	5453
2026-01-26 02:56:36.25	326.34	19.86	-41.6	-45.0	18.2	6.02e-01	0	60	0	103284736	54	5458
2026-01-26 02:56:39.28	325.51	20.01	-41.9	-45.2	18.0	6.03e-01	0	60	0	109051904	54	5592
2026-01-26 02:56:42.31	324.67	20.16	-41.8	-45.0	18.2	6.00e-01	0	60	0	114819072	54	5447
2026-01-26 02:56:45.35	323.82	20.30	-41.8	-45.2	18.1	6.02e-01	0	60	0	120061952	54	5575
2026-01-26 02:56:48.37	322.96	20.43	-41.9	-45.3	18.0	6.05e-01	0	60	0	125829120	54	5598
2026-01-26 02:56:51.40	322.10	20.56	-41.9	-45.3	18.1	6.01e-01	0	60	0	131596288	54	5613
2026-01-26 02:56:54.43	321.22	20.68	-41.9	-45.3	18.2	5.99e-01	0	60	0	137363456	54	5599
2026-01-26 02:56:57.46	320.34	20.80	-41.9	-45.2	18.2	6.02e-01	0	60	0	143130624	54	5574
2026-01-26 02:57:00.49	319.46	20.91	-41.9	-45.3	18.1	6.02e-01	0	60	0	148373504	54	5633
2026-01-26 02:57:03.52	318.56	21.02	-42.0	-45.3	18.1	6.02e-01	0	60	0	154140672	54	5645
2026-01-26 02:57:06.55	317.66	21.11	-42.0	-45.3	18.2	6.02e-01	0	60	0	159907840	54	5623
2026-01-26 02:57:09.58	316.76	21.20	-42.0	-45.4	18.1	6.03e-01	0	60	0	165675008	54	5673
2026-01-26 02:57:12.60	315.85	21.29	-42.0	-45.4	18.2	6.02e-01	0	60	0	171442176	54	5660
2026-01-26 02:57:15.63	314.93	21.37	-42.1	-45.5	18.0	6.03e-01	0	60	0	177209344	54	5737
2026-01-26 02:57:18.66	314.01	21.43	-42.1	-45.5	18.0	6.01e-01	0	60	0	182452224	54	5732
2026-01-26 02:57:21.69	313.08	21.50	-42.1	-45.6	17.8	6.00e-01	0	61	0	188219392	54	5821
2026-01-26 02:57:24.72	312.15	21.55	-42.0	-45.4	18.0	6.03e-01	0	60	0	193986560	54	5666
2026-01-26 02:57:27.75	311.22	21.60	-42.0	-45.3	17.9	6.02e-01	0	60	0	199753728	54	5642
2026-01-26 02:57:30.78	310.29	21.64	-42.2	-45.7	17.5	6.00e-01	0	60	0	205520896	54	5915
2026-01-26 02:57:33.81	309.35	21.67	-42.0	-45.3	17.9	6.02e-01	0	60	0	211288064	55	5326
2026-01-26 02:57:36.84	308.41	21.69	-41.9	-45.2	18.0	6.01e-01	0	60	0	216530944	55	5271
2026-01-26 02:57:39.87	307.47	21.71	-42.1	-45.4	17.8	6.03e-01	0	60	0	222298112	55	5398
2026-01-26 02:57:42.90	306.53	21.72	-42.0	-45.3	17.9	6.02e-01	0	60	0	228065280	55	5318
2026-01-26 02:57:45.93	305.58	21.72	-42.0	-45.3	17.9	6.04e-01	0	60	0	233832448	55	5296
2026-01-26 02:57:48.96	304.64	21.71	-42.1	-45.5	17.7	6.03e-01	0	60	0	239599616	55	5416
2026-01-26 02:57:51.99	303.70	21.69	-42.2	-45.7	17.6	6.04e-01	0	60	0	245366784	55	5542
2026-01-26 02:57:55.02	302.76	21.67	-42.0	-45.4	18.0	6.03e-01	0	60	0	251133952	55	5368
2026-01-26 02:57:58.05	301.82	21.64	-42.1	-45.6	17.8	6.02e-01	0	60	0	256376832	55	5504
2026-01-26 02:58:01.08	300.89	21.60	-42.4	-46.2	17.1	6.04e-01	0	61	0	262144000	55	5883
2026-01-26 02:58:04.11	299.95	21.55	-42.1	-45.5	17.8	6.00e-01	0	61	0	267911168	55	5447
2026-01-26 02:58:07.13	299.03	21.50	-42.2	-45.8	17.6	6.04e-01	0	61	0	273678336	55	5629
2026-01-26 02:58:10.17	298.10	21.44	-42.1	-45.6	18.0	6.02e-01	0	61	0	279445504	54	5830
2026-01-26 02:58:13.20	297.17	21.37	-42.3	-45.9	17.5	6.02e-01	0	61	0	284688384	55	5675
2026-01-26 02:58:16.23	296.26	21.29	-42.6	-46.3	17.4	6.00e-01	0	61	0	290455552	56	5621
2026-01-26 02:58:19.26	295.34	21.21	-42.5	-46.3	17.1	6.03e-01	0	60	0	296222720	56	5619
2026-01-26 02:58:22.29	294.43	21.12	-41.8	-45.0	18.4	6.01e-01	0	60	0	301989888	55	5138
2026-01-26 02:58:25.32	293.53	21.02	-42.7	-46.7	16.7	6.02e-01	0	61	0	307757056	56	5921
2026-01-26 02:58:28.34	292.64	20.92	-42.2	-45.7	17.8	6.02e-01	0	61	0	313524224	55	5555
2026-01-26 02:58:31.38	291.75	20.81	-42.1	-45.5	18.0	6.03e-01	0	61	0	319291392	55	5417
2026-01-26 02:58:34.41	290.86	20.69	-41.9	-45.3	18.2	6.04e-01	0	61	0	324534272	55	5295
2026-01-26 02:58:37.43	289.99	20.57	-42.2	-45.7	17.7	6.01e-01	0	61	0	330301440	55	5551
2026-01-26 02:58:40.46	289.12	20.44	-41.8	-45.0	18.5	6.01e-01	0	61	0	336068608	55	5114
2026-01-26 02:58:43.49	288.26	20.30	-42.0	-45.3	18.1	6.03e-01	0	61	0	341835776	55	5322
2026-01-26 02:58:46.52	287.41	20.16	-42.0	-45.4	18.0	6.02e-01	0	61	0	347602944	55	5387
2026-01-26 02:58:49.55	286.57	20.02	-42.1	-45.6	17.8	6.01e-01	0	61	0	352845824	55	5509
2026-01-26 02:58:52.58	285.73	19.86	-42.4	-46.2	17.2	6.00e-01	0	61	0	358612992	55	5886
2026-01-26 02:58:55.61	284.91	19.71	-41.9	-45.2	18.2	6.02e-01	0	61	0	364380160	55	5224
2026-01-26 02:58:58.64	284.09	19.55	-41.7	-44.9	18.5	6.00e-01	0	61	0	370147328	55	5085
2026-01-26 02:59:01.68	283.28	19.38	-42.1	-45.5	17.9	6.02e-01	0	61	0	375914496	55	5450
2026-01-26 02:59:04.71	282.48	19.21	-42.2	-45.8	17.6	6.06e-01	0	61	0	381681664	55	5609
2026-01-26 02:59:07.74	281.69	19.04	-42.3	-46.0	17.4	6.02e-01	0	60	0	387448832	55	5763
2026-01-26 02:59:10.77	280.91	18.86	-42.2	-46.0	17.3	6.01e-01	0	61	0	392691712	55	5737
2026-01-26 02:59:13.79	280.14	18.68	-42.1	-45.8	17.5	6.00e-01	0	61	0	398458880	54	5932
2026-01-26 02:59:16.82	279.38	18.49	-42.0	-45.5	17.7	6.02e-01	0	61	0	404226048	54	5770
2026-01-26 02:59:19.85	278.63	18.30	-41.9	-45.3	17.9	6.03e-01	0	61	0	409993216	54	5656
2026-01-26 02:59:22.88	277.89	18.11	-42.2	-45.9	17.4	6.03e-01	0	61	0	415760384	54	6017
2026-01-26 02:59:25.90	277.16	17.92	-41.8	-45.1	18.2	6.04e-01	0	61	0	421003264	54	5467
2026-01-26 02:59:28.93	276.44	17.72	-41.7	-44.9	18.4	6.03e-01	0	61	0	426770432	54	5379
2026-01-26 02:59:31.96	275.73	17.52	-41.8	-45.1	18.2	6.03e-01	0	61	0	432537600	54	5503
2026-01-26 02:59:34.99	275.03	17.32	-41.7	-44.9	18.3	6.02e-01	0	61	0	438304768	54	5391
2026-01-26 02:59:38.02	274.34	17.11	-41.7	-45.0	18.3	6.03e-01	0	61	0	444071936	54	5436
2026-01-26 02:59:41.04	273.66	16.90	-41.7	-45.0	18.3	6.01e-01	0	61	0	449839104	54	5448
2026-01-26 02:59:44.07	272.99	16.70	-41.7	-44.9	18.3	6.00e-01	0	61	0	455606272	54	5379
2026-01-26 02:59:47.10	272.33	16.48	-41.8	-45.2	18.0	6.03e-01	0	61	0	460849152	54	5567
2026-01-26 02:59:50.13	271.68	16.27	-41.7	-45.1	18.2	6.02e-01	0	61	0	466616320	54	5478
2026-01-26 02:59:53.16	271.04	16.06	-41.7	-44.9	18.3	6.02e-01	0	61	0	472383488	54	5376
2026-01-26 02:59:56.19	270.41	15.84	-41.8	-45.1	18.1	6.03e-01	0	61	0	478150656	54	5520
2026-01-26 02:59:59.22	269.79	15.63	-41.7	-45.1	18.1	6.02e-01	0	61	0	483917824	54	5488
2026-01-26 03:00:02.25	269.18	15.41	-41.6	-44.9	18.3	6.02e-01	0	61	0	489160704	54	5361
2026-01-26 03:00:05.28	268.57	15.19	-41.8	-45.2	18.0	6.01e-01	0	61	0	494927872	54	5531
2026-01-26 03:00:08.31	267.98	14.97	-41.7	-45.0	18.2	6.02e-01	0	61	0	500695040	54	5435
2026-01-26 03:00:11.34	267.40	14.75	-41.7	-45.0	18.2	6.01e-01	0	61	0	506462208	54	5421
2026-01-26 03:00:14.37	266.82	14.53	-41.7	-45.1	18.1	6.04e-01	0	61	0	512229376	54	5494
2026-01-26 03:00:17.39	266.26	14.31	-41.7	-45.1	18.1	6.02e-01	0	61	0	517996544	54	5499
2026-01-26 03:00:20.42	265.70	14.09	-41.8	-45.2	17.9	6.01e-01	0	61	0	523239424	54	5578
2026-01-26 03:00:23.45	265.15	13.87	-41.7	-45.0	18.1	6.01e-01	0	61	0	529006592	54	5432
2026-01-26 03:00:26.48	264.62	13.65	-41.8	-45.3	17.9	6.02e-01	0	61	0	534773760	54	5595
2026-01-26 03:00:29.50	264.09	13.43	-41.8	-45.2	17.9	6.03e-01	0	61	0	540540928	54	5537
2026-01-26 03:00:32.53	263.57	13.21	-41.8	-45.2	17.9	6.04e-01	0	61	0	546308096	54	5571
2026-01-26 03:00:35.56	263.05	12.98	-41.8	-45.2	17.8	6.01e-01	0	61	0	552075264	54	5585
2026-01-26 03:00:38.59	262.55	12.76	-41.8	-45.2	17.8	6.02e-01	0	61	0	557318144	54	5566
2026-01-26 03:00:41.63	262.05	12.54	-41.9	-45.4	17.6	6.02e-01	0	61	0	563085312	54	5695
2026-01-26 03:00:44.66	261.56	12.32	-41.8	-45.3	17.7	6.00e-01	0	61	0	568852480	54	5624
2026-01-26 03:00:47.69	261.08	12.10	-41.8	-45.3	17.7	6.04e-01	0	61	0	574619648	54	5633
2026-01-26 03:00:50.72	260.61	11.88	-41.9	-45.4	17.6	6.02e-01	0	61	0	580386816	54	5714
2026-01-26 03:00:53.75	260.14	11.66	-41.9	-45.5	17.5	6.01e-01	0	61	0	586153984	54	5762
2026-01-26 03:00:56.78	259.68	11.44	-41.9	-45.6	17.4	6.01e-01	0	61	0	591396864	54	5798
2026-01-26 03:00:59.81	259.23	11.22	-42.0	-45.6	17.3	6.02e-01	0	61	0	597164032	54	5846
2026-01-26 03:01:02.83	258.79	11.00	-41.9	-45.6	17.3	6.02e-01	0	61	0	602931200	54	5834
2026-01-26 03:01:05.86	258.36	10.78	-41.9	-45.6	17.3	6.02e-01	0	61	0	608698368	54	5833
2026-01-26 03:01:08.89	257.93	10.57	-42.0	-45.7	17.2	6.05e-01	0	61	0	614465536	54	5917
2026-01-26 03:01:11.92	257.50	10.35	-42.0	-45.8	17.1	6.01e-01	0	61	0	620232704	54	5931
2026-01-26 03:01:14.95	257.09	10.13	-41.9	-45.7	17.2	6.03e-01	0	61	0	625475584	54	5881
2026-01-26 03:01:17.98	256.68	9.92	-42.0	-45.7	17.1	6.02e-01	0	61	0	631242752	54	5919
2026-01-26 03:01:21.00	256.28	9.71	-42.0	-45.8	17.0	6.04e-01	0	61	0	637009920	54	5984
2026-01-26 03:01:24.03	255.88	9.49	-42.1	-46.0	16.9	6.02e-01	0	61	0	642777088	54	6074
2026-01-26 03:01:27.06	255.49	9.28	-42.1	-46.1	16.7	6.01e-01	0	61	0	648544256	54	6174
2026-01-26 03:01:30.09	255.11	9.07	-42.1	-46.2	16.6	6.02e-01	0	61	0	654311424	54	6207
2026-01-26 03:01:33.12	254.73	8.86	-42.0	-45.9	16.8	6.03e-01	0	61	0	659554304	54	6060
2026-01-26 03:01:36.15	254.36	8.65	-42.1	-46.1	16.7	6.02e-01	0	61	0	665321472	54	6156
2026-01-26 03:01:39.18	254.00	8.44	-42.1	-46.2	16.6	6.03e-01	0	61	0	671088640	54	6251
2026-01-26 03:01:42.21	253.64	8.23	-42.1	-46.1	16.7	6.01e-01	0	61	0	676855808	54	6168
2026-01-26 03:01:45.24	253.28	8.02	-42.1	-46.1	16.6	6.03e-01	0	61	0	682622976	54	6170
2026-01-26 03:01:48.27	252.93	7.81	-45.9	-64.5	3.8	7.44e-01	0	61	104	683671552	62	32247
2026-01-26 03:01:51.30	252.59	7.61	-46.2	-64.7	3.8	7.43e-01	0	61	104	683671552	62	33089
2026-01-26 03:01:54.33	252.25	7.40	-46.2	-64.8	3.8	7.40e-01	0	61	104	683671552	63	31507
2026-01-26 03:01:57.36	251.92	7.20	-46.1	-64.7	3.8	7.47e-01	0	61	104	683671552	63	31089
2026-01-26 03:02:00.40	251.59	7.00	-46.1	-64.6	3.8	7.45e-01	0	61	104	683671552	63	30903
2026-01-26 03:02:03.43	251.27	6.80	-46.1	-64.5	3.8	7.45e-01	0	61	104	683671552	63	30718
2026-01-26 03:02:06.46	250.95	6.60	-46.0	-64.6	3.8	7.47e-01	0	61	104	683671552	63	30750
2026-01-26 03:02:09.49	250.64	6.40	-46.0	-64.5	3.8	7.46e-01	0	61	104	683671552	62	32491
2026-01-26 03:02:12.52	250.33	6.20	-46.0	-64.5	3.8	7.45e-01	0	61	104	683671552	62	32513
2026-01-26 03:02:15.55	250.03	6.00	-46.0	-64.5	3.8	7.48e-01	0	61	104	683671552	62	32537
2026-01-26 03:02:18.59	249.73	5.80	-46.0	-64.5	3.8	7.47e-01	0	61	104	683671552	62	32476
2026-01-26 03:02:21.62	249.43	5.61	-46.0	-64.5	3.8	7.45e-01	0	61	104	683671552	62	32424
2026-01-26 03:02:24.65	249.14	5.41	-46.0	-64.5	3.8	7.48e-01	0	61	104	683671552	62	32393
2026-01-26 03:02:27.68	248.86	5.22	-46.0	-64.5	3.8	7.44e-01	0	62	104	683671552	62	32439
2026-01-26 03:02:30.71	248.58	5.02	-46.0	-64.5	3.8	7.48e-01	0	61	104	683671552	62	32413
2026-01-26 03:02:33.74	248.30	4.83	-46.0	-64.5	3.8	7.43e-01	0	61	104	683671552	62	32394
2026-01-26 03:02:36.77	248.03	4.64	-46.0	-64.5	3.8	7.45e-01	0	61	104	683671552	62	32284
2026-01-26 03:02:39.80	247.76	4.45	-46.0	-64.5	3.8	7.45e-01	0	61	104	683671552	62	32296
2026-01-26 03:02:42.84	247.49	4.26	-46.0	-64.4	3.8	7.45e-01	0	61	104	683671552	62	32154
2026-01-26 03:02:45.87	247.23	4.07	-45.9	-64.4	3.8	7.45e-01	0	61	104	683671552	62	32120
2026-01-26 03:02:48.90	246.97	3.89	-45.9	-64.4	3.8	7.46e-01	0	62	104	683671552	62	32093
2026-01-26 03:02:51.93	246.72	3.70	-45.9	-64.4	3.8	7.45e-01	0	61	104	683671552	62	32135
2026-01-26 03:02:54.96	246.47	3.51	-45.9	-64.4	3.8	7.43e-01	0	62	104	683671552	62	32073
2026-01-26 03:02:57.99	246.22	3.33	-45.9	-64.4	3.8	7.46e-01	0	61	104	683671552	62	32118
2026-01-26 03:03:01.02	245.97	3.15	-45.9	-64.4	3.8	7.44e-01	0	61	104	683671552	62	32075
2026-01-26 03:03:04.05	245.73	2.96	-45.9	-64.4	3.8	7.48e-01	0	62	104	683671552	62	32118
2026-01-26 03:03:07.08	245.50	2.78	-45.9	-64.4	3.8	7.44e-01	0	61	104	683671552	62	32074
2026-01-26 03:03:10.11	245.26	2.60	-45.9	-64.4	3.8	7.46e-01	0	61	104	683671552	62	32074
2026-01-26 03:03:13.15	245.03	2.42	-45.9	-64.4	3.8	7.42e-01	0	61	104	683671552	62	32126
2026-01-26 03:03:16.18	244.81	2.24	-45.9	-64.4	3.8	7.44e-01	0	61	104	683671552	62	32092
2026-01-26 03:03:19.21	244.58	2.06	-45.9	-64.4	3.8	7.46e-01	0	61	104	683671552	62	32127

#Closed at: 2026-01-26 03:03:20
#Recorded file [683 MB]: D:/lorett/data/31039_260126_055209.dat