passes_logs/2026/01/26/R2.0S_Moscow/R2.0S_Moscow__20260126_112052_NOAA_20_JPSS-1_rec.log

#Pass ID: 20260126_112052_NOAA 20 (JPSS-1)
#Satellite: NOAA 20 (JPSS-1)
#Configuration: NOAA 20
#almurnet v.1.7.20251203
#Start time: 2026-01-26 11:20:53

#Version: 2.2.20231116
#Station: R2.0S_Moscow
#Location: 37.707566 lon 55.798166 lat
#TLE: 1 43013U 17073A   26025.83228772  .00000162  00000+0  97663-4 0  9996
#TLE: 2 43013  98.7646 326.6579 0001036  23.5840 336.5383 14.19540376424273

#Time	Az	El	Level	Level2	SNR	BER	BlckErr	Temp	State	Recorded	gain1	gain2
2026-01-26 11:20:53.53	203.67	2.09	-44.0	-58.5	3.8	1.49e+00	0	54	0	0	59	19282
2026-01-26 11:20:57.56	203.94	2.32	-44.0	-58.5	3.8	1.49e+00	0	55	104	0	59	19258
2026-01-26 11:21:01.61	204.21	2.55	-44.0	-58.5	3.8	1.49e+00	0	55	104	0	59	19221
2026-01-26 11:21:05.65	204.49	2.78	-44.0	-58.5	3.8	1.49e+00	0	55	104	0	59	19222
2026-01-26 11:21:09.70	204.78	3.01	-44.0	-58.5	3.8	1.49e+00	0	55	104	0	59	19219
2026-01-26 11:21:13.74	205.07	3.25	-44.0	-58.5	3.8	1.49e+00	0	56	104	0	59	19198
2026-01-26 11:21:17.79	205.36	3.48	-44.0	-58.5	3.8	1.49e+00	0	56	104	0	59	19173
2026-01-26 11:21:21.83	205.66	3.72	-44.0	-58.5	3.8	1.49e+00	0	56	104	0	59	19175
2026-01-26 11:21:25.87	205.96	3.96	-44.0	-58.4	3.8	1.49e+00	0	57	104	0	59	19136
2026-01-26 11:21:29.91	206.27	4.20	-44.0	-58.4	3.8	1.49e+00	0	57	104	0	59	19105
2026-01-26 11:21:33.95	206.58	4.44	-44.0	-58.4	3.8	1.49e+00	0	57	104	0	59	19160
2026-01-26 11:21:38.00	206.90	4.69	-44.0	-58.5	3.8	1.49e+00	0	57	104	0	59	19191
2026-01-26 11:21:42.04	207.22	4.93	-44.0	-58.4	3.8	1.49e+00	0	57	104	0	59	19113
2026-01-26 11:21:46.08	207.55	5.18	-44.0	-58.4	3.8	1.49e+00	0	58	104	0	59	19067
2026-01-26 11:21:50.12	207.88	5.43	-44.0	-58.2	3.8	1.49e+00	0	58	104	0	59	18651
2026-01-26 11:21:54.16	208.22	5.68	-44.0	-58.0	3.8	1.49e+00	0	58	104	0	59	18198
2026-01-26 11:21:58.21	208.56	5.93	-43.9	-57.6	3.8	1.49e+00	0	58	104	0	59	17362
2026-01-26 11:22:02.25	208.91	6.18	-43.9	-56.3	3.8	1.49e+00	0	58	104	0	59	15013
2026-01-26 11:22:06.29	209.27	6.43	-43.7	-54.4	4.3	1.34e+00	56	58	0	0	59	12018
2026-01-26 11:22:10.33	209.63	6.69	-43.5	-52.9	5.0	7.12e-01	0	59	0	7340032	59	10121
2026-01-26 11:22:14.37	210.00	6.95	-43.5	-52.9	5.0	6.86e-01	0	59	0	14680064	58	10752
2026-01-26 11:22:18.41	210.37	7.21	-43.6	-53.7	4.6	9.19e-01	0	59	0	22020096	58	11759
2026-01-26 11:22:22.46	210.75	7.47	-43.3	-51.4	6.0	3.85e-01	0	59	0	30408704	58	8983
2026-01-26 11:22:26.50	211.14	7.73	-42.6	-48.7	8.4	5.50e-02	0	59	0	37748736	57	7008
2026-01-26 11:22:30.54	211.53	7.99	-42.3	-47.8	9.4	1.41e-02	0	59	0	45088768	56	6661
2026-01-26 11:22:34.58	211.93	8.26	-43.1	-49.5	7.9	1.37e-01	0	59	0	50331648	57	7646
2026-01-26 11:22:38.62	212.34	8.53	-42.5	-47.8	9.5	1.53e-02	0	59	0	57671680	56	6699
2026-01-26 11:22:42.66	212.76	8.80	-42.4	-47.4	9.9	9.41e-03	0	59	0	66060288	56	6416
2026-01-26 11:22:46.69	213.18	9.07	-42.2	-47.0	10.4	4.26e-03	0	60	0	73400320	56	6096
2026-01-26 11:22:50.74	213.61	9.34	-42.2	-47.0	10.5	4.04e-03	0	60	0	80740352	56	6077
2026-01-26 11:22:54.78	214.05	9.61	-42.3	-47.0	10.6	3.64e-03	0	60	0	88080384	56	6112
2026-01-26 11:22:58.82	214.50	9.89	-42.3	-47.0	10.6	3.57e-03	0	60	0	95420416	56	6094
2026-01-26 11:23:02.86	214.95	10.16	-42.2	-46.7	11.0	2.16e-03	0	60	0	103809024	56	5897
2026-01-26 11:23:06.90	215.41	10.44	-42.1	-46.5	11.2	1.50e-03	0	60	0	111149056	56	5773
2026-01-26 11:23:10.94	215.88	10.72	-42.1	-46.5	11.2	1.35e-03	0	60	0	118489088	56	5754
2026-01-26 11:23:14.98	216.36	11.00	-41.9	-46.2	11.4	9.20e-04	0	60	0	125829120	55	5889
2026-01-26 11:23:19.01	216.85	11.28	-41.9	-46.2	11.4	1.02e-03	0	60	0	134217728	55	5874
2026-01-26 11:23:23.05	217.35	11.57	-41.9	-46.1	11.6	8.85e-04	0	60	0	141557760	55	5826
2026-01-26 11:23:27.08	217.86	11.85	-42.0	-46.2	11.4	8.17e-04	0	61	0	148897792	55	5917
2026-01-26 11:23:31.11	218.37	12.14	-42.1	-46.4	11.3	1.14e-03	0	61	0	156237824	55	6049
2026-01-26 11:23:35.16	218.90	12.43	-42.0	-46.1	11.6	6.95e-04	0	60	0	163577856	55	5831
2026-01-26 11:23:39.20	219.44	12.72	-42.0	-46.1	11.7	5.74e-04	0	61	0	171966464	55	5809
2026-01-26 11:23:43.24	219.99	13.01	-41.8	-45.8	12.0	3.87e-04	0	61	0	179306496	55	5640
2026-01-26 11:23:47.27	220.54	13.30	-41.8	-45.6	12.1	2.66e-04	0	61	0	186646528	55	5528
2026-01-26 11:23:51.31	221.11	13.59	-41.8	-45.7	12.2	2.22e-04	0	61	0	193986560	55	5544
2026-01-26 11:23:55.35	221.69	13.88	-41.8	-45.8	12.0	3.49e-04	0	61	0	202375168	55	5645
2026-01-26 11:23:59.39	222.29	14.18	-41.9	-46.0	11.8	4.03e-04	0	61	0	209715200	55	5726
2026-01-26 11:24:03.43	222.89	14.47	-41.9	-45.9	11.9	4.50e-04	0	61	0	217055232	55	5712
2026-01-26 11:24:07.47	223.50	14.77	-41.8	-45.8	12.1	2.65e-04	0	61	0	224395264	55	5594
2026-01-26 11:24:11.51	224.13	15.06	-41.8	-45.7	12.2	1.83e-04	0	61	0	231735296	55	5544
2026-01-26 11:24:15.54	224.77	15.36	-41.7	-45.5	12.5	1.43e-04	0	61	0	240123904	55	5403
2026-01-26 11:24:19.58	225.42	15.65	-41.7	-45.5	12.5	1.34e-04	0	61	0	247463936	55	5428
2026-01-26 11:24:23.62	226.08	15.95	-41.7	-45.5	12.5	1.57e-04	0	61	0	254803968	54	5731
2026-01-26 11:24:27.66	226.76	16.25	-41.6	-45.1	12.9	5.41e-05	0	61	0	262144000	54	5497
2026-01-26 11:24:31.70	227.45	16.54	-41.6	-45.1	12.8	5.72e-05	0	61	0	270532608	54	5527
2026-01-26 11:24:35.74	228.15	16.84	-41.5	-45.0	13.0	4.95e-05	0	62	0	277872640	54	5460
2026-01-26 11:24:39.78	228.87	17.13	-41.7	-45.3	12.7	7.09e-05	0	61	0	285212672	54	5634
2026-01-26 11:24:43.82	229.60	17.43	-41.8	-45.5	12.4	1.40e-04	0	62	0	292552704	54	5782
2026-01-26 11:24:47.86	230.34	17.72	-41.8	-45.6	12.3	1.77e-04	0	62	0	299892736	54	5841
2026-01-26 11:24:51.90	231.10	18.01	-41.8	-45.6	12.4	1.46e-04	0	62	0	308281344	54	5824
2026-01-26 11:24:55.93	231.87	18.30	-41.5	-45.0	13.0	3.73e-05	0	61	0	315621376	54	5450
2026-01-26 11:24:59.97	232.66	18.59	-41.5	-45.0	12.9	3.96e-05	0	62	0	322961408	54	5445
2026-01-26 11:25:04.01	233.46	18.88	-41.3	-44.6	13.5	1.06e-05	0	62	0	330301440	54	5161
2026-01-26 11:25:08.05	234.28	19.16	-41.1	-44.2	13.8	1.50e-06	0	62	0	338690048	54	4954
2026-01-26 11:25:12.10	235.11	19.45	-41.1	-44.4	13.7	7.60e-06	0	62	0	346030080	54	5047
2026-01-26 11:25:16.14	235.96	19.73	-40.9	-44.0	14.1	1.50e-06	0	62	0	353370112	53	5117
2026-01-26 11:25:20.18	236.82	20.00	-41.0	-44.1	14.0	0.00e+00	0	61	0	360710144	53	5166
2026-01-26 11:25:24.22	237.70	20.27	-41.1	-44.2	13.8	6.10e-06	0	62	0	368050176	53	5260
2026-01-26 11:25:28.26	238.59	20.54	-41.1	-44.3	13.8	3.00e-06	0	62	0	376438784	53	5283
2026-01-26 11:25:32.30	239.49	20.81	-41.2	-44.4	13.6	1.06e-05	0	62	0	383778816	53	5382
2026-01-26 11:25:36.34	240.42	21.07	-41.3	-44.6	13.5	9.10e-06	0	62	0	391118848	53	5468
2026-01-26 11:25:40.38	241.35	21.32	-41.4	-44.8	13.2	1.37e-05	0	62	0	398458880	53	5630
2026-01-26 11:25:44.42	242.31	21.57	-41.7	-45.2	12.8	6.71e-05	0	62	0	406847488	53	5906
2026-01-26 11:25:48.46	243.27	21.82	-41.7	-45.2	12.9	4.73e-05	0	62	0	414187520	54	5582
2026-01-26 11:25:52.50	244.26	22.05	-41.8	-45.5	12.5	1.09e-04	0	62	0	421527552	54	5775
2026-01-26 11:25:56.54	245.25	22.28	-41.7	-45.3	12.8	8.62e-05	0	62	0	428867584	54	5615
2026-01-26 11:26:00.58	246.26	22.51	-41.6	-45.1	13.0	4.04e-05	0	62	0	436207616	54	5475
2026-01-26 11:26:04.61	247.29	22.73	-41.9	-45.7	12.3	1.43e-04	0	62	0	444596224	54	5886
2026-01-26 11:26:08.66	248.33	22.94	-41.9	-45.8	12.3	2.08e-04	0	62	0	451936256	54	5932
2026-01-26 11:26:12.69	249.38	23.14	-42.0	-45.8	12.2	2.33e-04	0	62	0	459276288	54	5979
2026-01-26 11:26:16.73	250.44	23.33	-42.3	-46.6	11.5	7.18e-04	0	62	0	466616320	55	6133
2026-01-26 11:26:20.77	251.52	23.51	-42.4	-46.7	11.3	1.22e-03	0	62	0	475004928	55	6214
2026-01-26 11:26:24.81	252.61	23.69	-42.0	-46.0	12.1	2.72e-04	0	62	0	482344960	55	5729
2026-01-26 11:26:28.85	253.71	23.86	-42.2	-46.2	11.8	4.05e-04	0	62	0	489684992	55	5870
2026-01-26 11:26:32.89	254.82	24.01	-42.4	-46.8	11.2	1.48e-03	0	62	0	497025024	55	6289
2026-01-26 11:26:36.93	255.95	24.16	-42.2	-46.4	11.6	5.85e-04	0	62	0	505413632	55	6007
2026-01-26 11:26:40.97	257.08	24.29	-42.6	-47.1	10.8	2.13e-03	0	62	0	512753664	55	6540
2026-01-26 11:26:45.00	258.22	24.41	-42.6	-47.2	10.7	3.25e-03	0	62	0	520093696	55	6633
2026-01-26 11:26:49.04	259.37	24.53	-42.4	-46.8	11.1	1.47e-03	0	62	0	527433728	55	6290
2026-01-26 11:26:53.08	260.53	24.63	-42.5	-47.0	10.9	1.98e-03	0	62	0	534773760	55	6458
2026-01-26 11:26:57.12	261.69	24.71	-42.3	-46.6	11.4	1.16e-03	0	62	0	543162368	55	6159
2026-01-26 11:27:01.16	262.86	24.79	-42.0	-45.9	12.1	2.78e-04	0	62	0	550502400	55	5706
2026-01-26 11:27:05.19	264.03	24.86	-42.1	-46.1	11.9	3.88e-04	0	62	0	557842432	55	5806
2026-01-26 11:27:09.23	265.21	24.91	-41.9	-45.8	12.2	2.37e-04	0	62	0	565182464	55	5612
2026-01-26 11:27:13.27	266.39	24.95	-42.0	-45.9	12.1	2.08e-04	0	62	0	572522496	55	5704
2026-01-26 11:27:17.31	267.58	24.97	-42.4	-46.8	11.2	1.40e-03	0	62	0	580911104	55	6307
2026-01-26 11:27:21.35	268.76	24.99	-41.9	-45.8	12.2	2.28e-04	0	62	0	588251136	55	5595
2026-01-26 11:27:25.39	269.95	24.99	-42.0	-45.9	12.2	1.77e-04	0	62	0	595591168	55	5663
2026-01-26 11:27:29.43	271.14	24.98	-42.0	-46.0	12.0	3.62e-04	0	62	0	602931200	55	5735
2026-01-26 11:27:33.47	272.32	24.95	-41.7	-45.4	12.7	8.54e-05	0	62	0	611319808	55	5352
2026-01-26 11:27:37.50	273.50	24.92	-42.0	-45.8	12.2	1.85e-04	0	62	0	618659840	55	5640
2026-01-26 11:27:41.54	274.68	24.87	-41.9	-45.7	12.3	1.81e-04	0	62	0	625999872	55	5548
2026-01-26 11:27:45.58	275.85	24.81	-41.7	-45.3	12.7	9.23e-05	0	62	0	633339904	55	5303
2026-01-26 11:27:49.62	277.02	24.73	-42.2	-46.3	11.7	5.16e-04	0	62	0	640679936	55	5927
2026-01-26 11:27:53.66	278.19	24.65	-42.2	-46.3	11.6	5.03e-04	0	62	0	649068544	55	5977
2026-01-26 11:27:57.70	279.34	24.55	-42.1	-46.1	11.9	4.29e-04	0	62	0	656408576	55	5839
2026-01-26 11:28:01.73	280.49	24.44	-42.0	-46.0	12.1	2.30e-04	0	62	0	663748608	55	5725
2026-01-26 11:28:05.77	281.63	24.32	-42.1	-46.2	11.8	4.74e-04	0	62	0	671088640	55	5861
2026-01-26 11:28:09.81	282.76	24.19	-41.8	-45.5	12.5	1.31e-04	0	62	0	679477248	55	5452
2026-01-26 11:28:13.85	283.89	24.05	-41.9	-45.6	12.4	1.56e-04	0	62	0	686817280	55	5508
2026-01-26 11:28:17.89	285.00	23.89	-41.6	-45.1	13.0	5.79e-05	0	62	0	694157312	55	5167
2026-01-26 11:28:21.93	286.10	23.73	-41.6	-45.1	12.9	4.73e-05	0	62	0	701497344	55	5212
2026-01-26 11:28:25.97	287.19	23.56	-41.6	-45.0	13.0	5.26e-05	0	62	0	708837376	55	5142
2026-01-26 11:28:30.00	288.26	23.38	-41.5	-45.0	13.0	3.05e-05	0	62	0	717225984	55	5147
2026-01-26 11:28:34.04	289.33	23.19	-41.2	-44.5	13.6	6.80e-06	0	62	0	724566016	54	5111
2026-01-26 11:28:38.08	290.38	22.99	-41.0	-44.0	14.0	3.00e-06	0	62	0	731906048	54	4857
2026-01-26 11:28:42.12	291.42	22.78	-40.8	-43.8	14.3	1.50e-06	0	62	0	739246080	53	4993
2026-01-26 11:28:46.16	292.44	22.57	-40.7	-43.6	14.4	2.20e-06	0	62	0	747634688	53	4913
2026-01-26 11:28:50.21	293.45	22.35	-41.1	-44.3	13.8	5.30e-06	0	62	0	754974720	53	5283
2026-01-26 11:28:54.25	294.45	22.12	-41.2	-44.4	13.6	1.06e-05	0	62	0	762314752	53	5382
2026-01-26 11:28:58.28	295.43	21.89	-41.0	-44.2	13.8	3.00e-06	0	62	0	769654784	53	5243
2026-01-26 11:29:02.32	296.40	21.64	-41.0	-44.2	13.8	4.50e-06	0	62	0	776994816	53	5245
2026-01-26 11:29:06.36	297.35	21.40	-41.7	-45.4	12.6	6.86e-05	0	62	0	785383424	53	6012
2026-01-26 11:29:10.40	298.28	21.15	-42.0	-46.1	11.8	4.54e-04	0	62	0	792723456	54	6169
2026-01-26 11:29:14.43	299.20	20.89	-42.0	-45.9	12.0	3.90e-04	0	62	0	800063488	54	6057
2026-01-26 11:29:18.47	300.11	20.63	-41.5	-44.9	13.0	4.19e-05	0	62	0	807403520	54	5394
2026-01-26 11:29:22.51	301.00	20.36	-41.6	-45.2	12.8	5.49e-05	0	62	0	815792128	54	5555
2026-01-26 11:29:26.55	301.88	20.09	-41.8	-45.7	12.2	1.79e-04	0	62	0	823132160	54	5897
2026-01-26 11:29:30.59	302.74	19.82	-41.9	-45.9	12.0	3.20e-04	0	62	0	830472192	54	5993
2026-01-26 11:29:34.62	303.58	19.55	-41.8	-45.6	12.3	1.56e-04	0	62	0	837812224	54	5799
2026-01-26 11:29:38.66	304.42	19.27	-41.7	-45.4	12.5	7.78e-05	0	62	0	845152256	54	5676
2026-01-26 11:29:42.70	305.23	18.99	-41.6	-45.3	12.6	1.17e-04	0	62	0	853540864	54	5648
2026-01-26 11:29:46.74	306.03	18.70	-41.7	-45.4	12.5	1.13e-04	0	62	0	860880896	54	5667
2026-01-26 11:29:50.77	306.82	18.42	-41.8	-45.7	12.2	2.24e-04	0	62	0	868220928	54	5863
2026-01-26 11:29:54.81	307.59	18.13	-42.0	-46.0	11.8	4.36e-04	0	62	0	875560960	54	6122
2026-01-26 11:29:58.85	308.35	17.84	-42.1	-46.4	11.4	1.19e-03	0	62	0	883949568	54	6391
2026-01-26 11:30:02.89	309.10	17.55	-41.6	-45.3	12.6	1.49e-04	0	62	0	891289600	54	5593
2026-01-26 11:30:06.93	309.83	17.26	-42.1	-46.3	11.4	7.46e-04	0	62	0	898629632	54	6330
2026-01-26 11:30:10.96	310.54	16.97	-41.9	-46.0	11.9	6.38e-04	0	62	0	905969664	54	6077
2026-01-26 11:30:15.01	311.25	16.68	-41.6	-45.8	12.0	2.85e-04	0	62	0	913309696	54	5926
2026-01-26 11:30:19.04	311.94	16.38	-41.6	-46.2	11.5	8.76e-04	0	62	0	921698304	54	6212
2026-01-26 11:30:23.08	312.62	16.09	-40.9	-46.0	11.5	8.82e-04	0	62	0	929038336	53	6426
2026-01-26 11:30:27.12	313.28	15.80	-33.9	-45.9	9.0	2.05e-03	0	62	0	936378368	39	14304
2026-01-26 11:30:31.16	313.93	15.50	-34.3	-46.3	9.0	2.16e-02	0	62	0	943718400	39	15041
2026-01-26 11:30:35.19	314.57	15.21	-40.8	-46.0	11.4	8.66e-04	0	62	0	952107008	52	6869
2026-01-26 11:30:39.23	315.20	14.92	-42.2	-46.8	10.9	2.03e-03	0	62	0	959447040	55	6278
2026-01-26 11:30:43.27	315.81	14.62	-42.1	-46.5	11.2	1.48e-03	0	62	0	966787072	55	6083
2026-01-26 11:30:47.32	316.42	14.33	-41.9	-45.9	11.7	5.29e-04	0	62	0	974127104	55	5712
2026-01-26 11:30:51.36	317.01	14.04	-42.2	-46.7	10.9	2.20e-03	0	62	0	981467136	55	6262
2026-01-26 11:30:55.40	317.59	13.75	-42.1	-46.5	11.2	1.69e-03	0	62	0	989855744	55	6084
2026-01-26 11:30:59.44	318.16	13.46	-41.9	-46.0	11.6	6.82e-04	0	62	0	997195776	55	5757
2026-01-26 11:31:03.48	318.72	13.17	-42.1	-46.6	10.9	2.00e-03	0	62	0	1004535808	55	6190
2026-01-26 11:31:07.52	319.27	12.88	-42.1	-46.6	11.0	1.85e-03	0	62	0	1011875840	55	6165
2026-01-26 11:31:11.56	319.81	12.60	-42.0	-46.3	11.3	1.09e-03	0	62	0	1020264448	55	5929
2026-01-26 11:31:15.61	320.34	12.31	-42.2	-46.9	10.6	3.17e-03	0	62	0	1027604480	55	6381
2026-01-26 11:31:19.65	320.86	12.03	-42.3	-47.2	10.2	5.77e-03	0	62	0	1034944512	55	6625
2026-01-26 11:31:23.69	321.37	11.75	-42.0	-46.5	11.0	2.11e-03	0	62	0	1042284544	55	6096
2026-01-26 11:31:27.73	321.87	11.46	-42.0	-46.5	11.0	1.82e-03	0	62	0	1050673152	55	6084
2026-01-26 11:31:31.77	322.37	11.18	-42.1	-46.7	10.8	2.57e-03	0	62	0	1058013184	55	6211
2026-01-26 11:31:35.81	322.85	10.91	-42.1	-46.8	10.6	3.56e-03	0	62	0	1065353216	55	6334
2026-01-26 11:31:39.85	323.32	10.63	-42.2	-47.1	10.3	4.55e-03	0	62	0	1072693248	55	6496
2026-01-26 11:31:43.89	323.79	10.35	-42.3	-47.5	9.8	8.55e-03	0	62	0	1080033280	55	6808
2026-01-26 11:31:47.93	324.24	10.08	-41.9	-47.5	9.8	1.11e-02	0	62	0	1088421888	55	6805
2026-01-26 11:31:51.97	324.69	9.81	-41.8	-47.5	9.7	1.18e-02	0	62	0	1095761920	55	6831
2026-01-26 11:31:56.01	325.13	9.53	-41.5	-47.4	9.8	1.02e-02	0	62	0	1103101952	54	7196
2026-01-26 11:32:00.05	325.57	9.26	-41.8	-47.5	9.8	1.03e-02	0	62	0	1110441984	54	7211
2026-01-26 11:32:04.09	325.99	9.00	-42.2	-47.8	9.4	1.91e-02	0	62	0	1118830592	55	7101
2026-01-26 11:32:08.12	326.41	8.73	-42.4	-48.1	9.1	2.55e-02	0	62	0	1126170624	55	7321
2026-01-26 11:32:12.16	326.82	8.47	-42.6	-48.7	8.4	4.70e-02	0	62	0	1133510656	55	7842
2026-01-26 11:32:16.20	327.22	8.20	-42.6	-48.6	8.5	4.66e-02	0	62	0	1140850688	55	7750
2026-01-26 11:32:20.24	327.62	7.94	-44.4	-58.8	3.8	1.48e+00	0	62	104	1147142144	59	20027
2026-01-26 11:32:24.28	328.01	7.68	-45.0	-59.7	3.8	1.49e+00	0	62	104	1147142144	60	20868
2026-01-26 11:32:28.32	328.39	7.42	-36.5	-56.3	3.7	1.49e+00	0	62	104	1147142144	45	33451
2026-01-26 11:32:32.36	328.77	7.16	-45.1	-59.7	3.8	1.49e+00	0	62	104	1147142144	60	20864
2026-01-26 11:32:36.41	329.14	6.91	-45.0	-59.6	3.8	1.49e+00	0	62	104	1147142144	60	20741
2026-01-26 11:32:40.45	329.51	6.66	-45.0	-59.7	3.8	1.49e+00	0	62	104	1147142144	60	20786
2026-01-26 11:32:44.49	329.87	6.40	-44.9	-59.6	3.8	1.49e+00	0	62	104	1147142144	60	20644
2026-01-26 11:32:48.54	330.22	6.15	-44.9	-59.6	3.8	1.49e+00	0	63	104	1147142144	60	20677
2026-01-26 11:32:52.58	330.57	5.90	-44.9	-59.6	3.8	1.49e+00	0	62	104	1147142144	60	20619
2026-01-26 11:32:56.62	330.91	5.65	-45.0	-59.6	3.8	1.49e+00	0	62	104	1147142144	60	20635
2026-01-26 11:33:00.64	331.25	5.41	-44.9	-59.6	3.8	1.49e+00	0	62	104	1147142144	60	20556
2026-01-26 11:33:04.68	331.58	5.17	-45.0	-59.6	3.8	1.49e+00	0	62	104	1147142144	60	20632
2026-01-26 11:33:08.72	331.90	4.92	-44.9	-59.6	3.8	1.49e+00	0	62	104	1147142144	60	20609
2026-01-26 11:33:12.76	332.22	4.68	-44.7	-59.6	3.8	1.49e+00	0	62	104	1147142144	60	20579
2026-01-26 11:33:16.80	332.54	4.44	-44.9	-59.6	3.8	1.49e+00	0	62	104	1147142144	60	20568
2026-01-26 11:33:20.84	332.85	4.20	-44.9	-59.5	3.8	1.49e+00	0	62	104	1147142144	60	20505
2026-01-26 11:33:24.88	333.16	3.97	-44.9	-59.6	3.8	1.49e+00	0	62	104	1147142144	60	20541
2026-01-26 11:33:28.93	333.46	3.73	-44.9	-59.6	3.8	1.49e+00	0	63	104	1147142144	60	20581
2026-01-26 11:33:32.96	333.76	3.50	-44.9	-59.6	3.8	1.49e+00	0	62	104	1147142144	60	20627
2026-01-26 11:33:37.01	334.05	3.26	-44.9	-59.6	3.8	1.49e+00	0	63	104	1147142144	60	20578
2026-01-26 11:33:41.05	334.34	3.03	-44.9	-59.6	3.8	1.49e+00	0	63	104	1147142144	60	20610
2026-01-26 11:33:45.09	334.62	2.80	-44.9	-59.6	3.8	1.49e+00	0	63	104	1147142144	60	20549
2026-01-26 11:33:49.13	334.91	2.57	-44.9	-59.6	3.8	1.49e+00	0	62	104	1147142144	60	20607
2026-01-26 11:33:53.17	335.18	2.35	-44.9	-59.6	3.8	1.49e+00	0	62	104	1147142144	60	20575
2026-01-26 11:33:57.21	335.45	2.12	-44.9	-59.6	3.8	1.49e+00	0	62	104	1147142144	60	20606
2026-01-26 11:34:01.25	335.72	1.89	-44.9	-59.5	3.8	1.49e+00	0	62	104	1147142144	60	20475

#Closed at: 2026-01-26 11:34:02
#Recorded file [1147 MB]: D:/lorett/data/31039_260126_142053.dat