passes_logs/2026/01/26/R2.0S_Moscow/R2.0S_Moscow__20260126_012927_NOAA_20_JPSS-1_rec.log

#Pass ID: 20260126_012927_NOAA 20 (JPSS-1)
#Satellite: NOAA 20 (JPSS-1)
#Configuration: NOAA 20
#almurnet v.1.7.20251203
#Start time: 2026-01-26 01:29:29

#Version: 2.2.20231116
#Station: R2.0S_Moscow
#Location: 37.707566 lon 55.798166 lat
#TLE: 1 43013U 17073A   26025.47986292  .00000161  00000+0  97249-4 0  9993
#TLE: 2 43013  98.7646 326.3091 0001052  24.2709 335.8516 14.19540188424225

#Time	Az	El	Level	Level2	SNR	BER	BlckErr	Temp	State	Recorded	gain1	gain2
2026-01-26 01:29:29.18	9.74	2.09	-39.9	-54.4	3.8	1.49e+00	0	56	0	0	51	19072
2026-01-26 01:29:32.20	9.52	2.26	-39.9	-54.4	3.8	1.49e+00	0	57	104	0	51	19024
2026-01-26 01:29:35.23	9.31	2.43	-39.8	-54.4	3.8	1.49e+00	0	57	104	0	51	18991
2026-01-26 01:29:38.26	9.09	2.59	-39.9	-54.4	3.8	1.49e+00	0	57	104	0	51	18950
2026-01-26 01:29:41.29	8.87	2.76	-39.8	-54.4	3.8	1.49e+00	0	57	104	0	51	18951
2026-01-26 01:29:44.32	8.65	2.93	-39.8	-54.4	3.8	1.49e+00	0	57	104	0	51	18951
2026-01-26 01:29:47.35	8.42	3.10	-39.8	-54.3	3.8	1.49e+00	0	57	104	0	51	18905
2026-01-26 01:29:50.37	8.19	3.27	-39.8	-54.3	3.8	1.49e+00	0	57	104	0	51	18903
2026-01-26 01:29:53.41	7.96	3.44	-39.8	-54.4	3.8	1.49e+00	0	57	104	0	51	18990
2026-01-26 01:29:56.43	7.73	3.62	-39.8	-54.3	3.8	1.49e+00	0	58	104	0	51	18898
2026-01-26 01:29:59.46	7.49	3.79	-39.8	-54.3	3.8	1.49e+00	0	58	104	0	51	18910
2026-01-26 01:30:02.49	7.25	3.96	-39.8	-54.3	3.8	1.49e+00	0	58	104	0	51	18836
2026-01-26 01:30:05.53	7.01	4.14	-39.8	-54.4	3.8	1.49e+00	0	58	104	0	51	18954
2026-01-26 01:30:08.56	6.76	4.31	-39.8	-54.3	3.8	1.49e+00	0	58	104	0	51	18867
2026-01-26 01:30:11.59	6.51	4.48	-39.8	-54.3	3.8	1.49e+00	0	58	104	0	51	18936
2026-01-26 01:30:14.62	6.26	4.66	-39.8	-54.3	3.8	1.49e+00	0	58	104	0	51	18913
2026-01-26 01:30:17.65	6.01	4.84	-39.8	-54.3	3.8	1.49e+00	0	58	104	0	51	18784
2026-01-26 01:30:20.69	5.75	5.01	-39.8	-54.3	3.8	1.49e+00	0	58	104	0	51	18834
2026-01-26 01:30:23.72	5.48	5.19	-39.8	-54.3	3.8	1.49e+00	0	59	104	0	51	18841
2026-01-26 01:30:26.74	5.22	5.37	-39.8	-54.3	3.8	1.49e+00	0	59	104	0	51	18807
2026-01-26 01:30:29.77	4.95	5.55	-39.7	-54.2	3.8	1.49e+00	0	59	104	0	51	18725
2026-01-26 01:30:32.80	4.68	5.73	-39.7	-54.3	3.8	1.49e+00	0	59	104	0	51	18784
2026-01-26 01:30:35.83	4.40	5.91	-39.7	-54.3	3.8	1.49e+00	0	59	104	0	51	18784
2026-01-26 01:30:38.86	4.12	6.09	-39.7	-54.3	3.8	1.49e+00	0	59	104	0	51	18758
2026-01-26 01:30:41.89	3.84	6.27	-39.7	-54.3	3.8	1.49e+00	0	59	104	0	51	18775
2026-01-26 01:30:44.93	3.55	6.45	-39.7	-54.3	3.8	1.49e+00	0	59	104	0	51	18758
2026-01-26 01:30:47.96	3.26	6.63	-39.7	-54.3	3.8	1.49e+00	0	59	104	0	51	18767
2026-01-26 01:30:50.99	2.97	6.81	-39.7	-54.3	3.8	1.49e+00	0	59	104	0	51	18763
2026-01-26 01:30:54.03	2.67	7.00	-39.7	-54.3	3.8	1.49e+00	0	59	104	0	51	18787
2026-01-26 01:30:57.06	2.37	7.18	-39.7	-54.3	3.8	1.49e+00	0	59	104	0	51	18735
2026-01-26 01:31:00.09	2.06	7.37	-39.7	-54.3	3.8	1.49e+00	0	60	104	0	51	18746
2026-01-26 01:31:03.12	1.75	7.55	-39.7	-54.3	3.8	1.49e+00	0	59	104	0	51	18734
2026-01-26 01:31:06.15	1.44	7.74	-39.7	-54.2	3.8	1.49e+00	0	59	104	0	51	18716
2026-01-26 01:31:09.18	1.12	7.92	-39.7	-54.3	3.8	1.49e+00	0	59	104	0	51	18736
2026-01-26 01:31:12.21	0.80	8.11	-39.8	-54.4	3.8	1.49e+00	0	60	104	0	51	19031
2026-01-26 01:31:15.25	0.47	8.30	-40.0	-54.6	3.8	1.49e+00	0	60	104	0	51	19416
2026-01-26 01:31:18.27	0.14	8.48	-39.9	-54.5	3.8	1.49e+00	0	60	104	0	51	19225
2026-01-26 01:31:21.31	359.80	8.67	-40.0	-54.6	3.8	1.49e+00	0	60	104	0	51	19390
2026-01-26 01:31:24.34	359.46	8.86	-40.0	-54.5	3.8	1.49e+00	0	60	104	0	51	19265
2026-01-26 01:31:27.37	359.12	9.05	-39.9	-54.5	3.8	1.49e+00	0	60	104	0	51	19259
2026-01-26 01:31:30.39	358.77	9.24	-39.9	-54.4	3.8	1.49e+00	0	60	104	0	51	19021
2026-01-26 01:31:33.42	358.41	9.43	-39.9	-54.5	3.8	1.49e+00	0	60	104	0	51	19236
2026-01-26 01:31:36.45	358.05	9.62	-39.9	-54.5	3.8	1.49e+00	0	60	104	0	51	19209
2026-01-26 01:31:39.48	357.69	9.81	-40.0	-54.5	3.8	1.49e+00	0	60	104	0	51	19319
2026-01-26 01:31:42.51	357.32	10.00	-39.9	-54.4	3.8	1.49e+00	0	60	104	0	51	19145
2026-01-26 01:31:45.54	356.95	10.19	-40.0	-54.5	3.8	1.49e+00	0	60	104	0	51	19243
2026-01-26 01:31:48.57	356.57	10.38	-40.1	-54.7	3.8	1.49e+00	0	60	104	0	51	19691
2026-01-26 01:31:51.60	356.19	10.57	-40.1	-54.7	3.8	1.49e+00	0	60	104	0	51	19670
2026-01-26 01:31:54.63	355.80	10.76	-40.3	-54.8	3.8	1.49e+00	0	60	104	0	51	19968
2026-01-26 01:31:57.66	355.40	10.96	-40.2	-54.8	3.8	1.49e+00	0	60	104	0	51	19892
2026-01-26 01:32:00.66	355.01	11.15	-40.5	-55.0	3.8	1.49e+00	0	60	104	0	51	20530
2026-01-26 01:32:03.69	354.60	11.34	-40.4	-54.9	3.8	1.49e+00	0	60	104	0	51	20167
2026-01-26 01:32:06.73	354.19	11.53	-40.3	-54.8	3.8	1.49e+00	0	60	104	0	51	20056
2026-01-26 01:32:09.75	353.78	11.72	-40.2	-54.8	3.8	1.49e+00	0	60	104	0	51	19876
2026-01-26 01:32:12.78	353.36	11.92	-40.5	-55.0	3.8	1.49e+00	0	60	104	0	51	20513
2026-01-26 01:32:15.81	352.93	12.11	-40.3	-54.9	3.8	1.49e+00	0	60	104	0	52	19017
2026-01-26 01:32:18.84	352.50	12.30	-40.6	-55.1	3.8	1.49e+00	0	61	104	0	52	19479
2026-01-26 01:32:21.88	352.05	12.49	-40.6	-55.1	3.8	1.49e+00	0	60	104	0	52	19498
2026-01-26 01:32:24.91	351.61	12.68	-40.7	-55.2	3.8	1.49e+00	0	60	104	0	52	19720
2026-01-26 01:32:27.94	351.16	12.88	-40.6	-55.1	3.8	1.49e+00	0	61	104	0	52	19474
2026-01-26 01:32:30.97	350.70	13.07	-40.8	-55.4	3.8	1.49e+00	0	61	104	0	52	20112
2026-01-26 01:32:34.00	350.24	13.26	-40.6	-55.1	3.8	1.49e+00	0	61	104	0	52	19479
2026-01-26 01:32:37.03	349.77	13.45	-40.7	-55.2	3.8	1.49e+00	0	61	104	0	52	19816
2026-01-26 01:32:40.06	349.30	13.64	-40.8	-55.4	3.8	1.49e+00	0	61	104	0	52	20169
2026-01-26 01:32:43.09	348.81	13.83	-41.2	-55.8	3.8	1.49e+00	0	61	104	0	52	21018
2026-01-26 01:32:46.12	348.33	14.02	-41.1	-55.6	3.8	1.49e+00	0	61	104	0	53	19539
2026-01-26 01:32:49.15	347.83	14.21	-41.3	-55.8	3.8	1.49e+00	0	61	104	0	53	19973
2026-01-26 01:32:52.18	347.33	14.39	-41.2	-55.7	3.8	1.49e+00	0	61	104	0	53	19758
2026-01-26 01:32:55.22	346.82	14.58	-41.2	-55.7	3.8	1.49e+00	0	61	104	0	53	19833
2026-01-26 01:32:58.25	346.31	14.77	-40.9	-55.5	3.8	1.49e+00	0	61	104	0	53	19216
2026-01-26 01:33:01.28	345.79	14.95	-41.0	-55.5	3.8	1.49e+00	0	61	104	0	53	19344
2026-01-26 01:33:04.31	345.26	15.14	-41.1	-55.6	3.8	1.49e+00	0	61	104	0	53	19526
2026-01-26 01:33:07.34	344.73	15.32	-41.0	-55.5	3.8	1.49e+00	0	61	104	0	53	19233
2026-01-26 01:33:10.37	344.19	15.50	-40.6	-55.1	3.8	1.49e+00	0	61	104	0	53	18397
2026-01-26 01:33:13.40	343.64	15.68	-40.6	-55.1	3.8	1.49e+00	0	61	104	0	53	18456
2026-01-26 01:33:16.43	343.09	15.86	-40.6	-55.2	3.8	1.49e+00	0	61	104	0	53	18518
2026-01-26 01:33:19.46	342.53	16.04	-40.6	-55.1	3.8	1.49e+00	0	61	104	0	53	18440
2026-01-26 01:33:22.49	341.96	16.21	-40.5	-55.0	3.8	1.49e+00	0	61	104	0	52	19353
2026-01-26 01:33:25.52	341.39	16.39	-40.5	-55.0	3.8	1.49e+00	0	61	104	0	52	19315
2026-01-26 01:33:28.54	340.81	16.56	-40.5	-55.0	3.8	1.49e+00	0	61	104	0	52	19265
2026-01-26 01:33:31.57	340.22	16.73	-40.7	-55.2	3.8	1.49e+00	0	61	104	0	53	18543
2026-01-26 01:33:34.60	339.63	16.90	-41.8	-53.8	3.9	1.49e+00	0	61	104	0	54	15023
2026-01-26 01:33:37.62	339.03	17.07	-41.5	-48.2	7.5	1.70e-01	0	61	0	0	53	8281
2026-01-26 01:33:40.65	338.42	17.23	-41.4	-46.6	9.6	1.41e-02	0	61	0	6291456	53	6949
2026-01-26 01:33:43.68	337.81	17.40	-41.1	-45.4	11.3	1.20e-03	0	61	0	11534336	53	6023
2026-01-26 01:33:46.71	337.19	17.56	-41.2	-45.2	11.9	6.47e-04	0	61	0	17825792	53	5868
2026-01-26 01:33:49.74	336.56	17.71	-40.9	-44.5	12.7	1.11e-04	0	61	0	23068672	53	5440
2026-01-26 01:33:52.77	335.92	17.87	-41.0	-44.6	12.7	8.16e-05	0	61	0	29360128	53	5495
2026-01-26 01:33:55.80	335.28	18.02	-41.1	-44.7	12.8	4.50e-05	0	61	0	34603008	53	5538
2026-01-26 01:33:58.83	334.64	18.17	-41.2	-44.7	12.8	4.34e-05	0	61	0	39845888	53	5588
2026-01-26 01:34:01.86	333.98	18.32	-41.2	-44.8	12.8	5.64e-05	0	61	0	46137344	53	5620
2026-01-26 01:34:04.89	333.32	18.46	-41.3	-44.9	12.7	6.17e-05	0	61	0	51380224	53	5699
2026-01-26 01:34:07.92	332.65	18.60	-41.3	-45.0	12.7	7.01e-05	0	61	0	57671680	53	5725
2026-01-26 01:34:10.95	331.98	18.74	-41.3	-44.8	12.8	6.63e-05	0	61	0	62914560	53	5650
2026-01-26 01:34:13.98	331.30	18.87	-41.0	-44.4	13.3	2.21e-05	0	61	0	68157440	53	5351
2026-01-26 01:34:17.01	330.62	19.01	-41.0	-44.2	13.5	1.06e-05	0	61	0	74448896	53	5240
2026-01-26 01:34:20.04	329.93	19.13	-40.9	-44.0	13.8	4.50e-06	0	61	0	79691776	53	5133
2026-01-26 01:34:23.06	329.23	19.25	-40.9	-44.0	13.8	1.06e-05	0	61	0	85983232	53	5128
2026-01-26 01:34:26.09	328.53	19.37	-40.8	-43.9	13.9	3.80e-06	0	61	0	91226112	53	5071
2026-01-26 01:34:29.13	327.82	19.49	-40.8	-43.9	13.8	2.20e-06	0	61	0	97517568	53	5098
2026-01-26 01:34:32.15	327.11	19.60	-40.8	-43.8	13.9	3.00e-06	0	61	0	102760448	53	5028
2026-01-26 01:34:35.18	326.39	19.71	-40.7	-43.8	14.1	2.20e-06	0	61	0	108003328	53	4990
2026-01-26 01:34:38.21	325.67	19.81	-40.9	-44.1	13.7	6.10e-06	0	61	0	114294784	53	5197
2026-01-26 01:34:41.24	324.94	19.91	-41.0	-44.2	13.5	6.10e-06	0	61	0	119537664	53	5261
2026-01-26 01:34:44.27	324.20	20.00	-41.1	-44.4	13.4	9.10e-06	0	61	0	125829120	53	5360
2026-01-26 01:34:47.30	323.47	20.09	-41.1	-44.5	13.3	1.52e-05	0	61	0	131072000	53	5408
2026-01-26 01:34:50.33	322.72	20.18	-41.1	-44.3	13.4	8.30e-06	0	62	0	137363456	53	5338
2026-01-26 01:34:53.36	321.98	20.26	-41.1	-44.4	13.4	1.60e-05	0	61	0	142606336	53	5370
2026-01-26 01:34:56.40	321.23	20.33	-41.3	-44.8	13.0	3.28e-05	0	61	0	147849216	53	5638
2026-01-26 01:34:59.42	320.48	20.40	-41.3	-44.8	12.9	4.11e-05	0	61	0	154140672	53	5638
2026-01-26 01:35:02.45	319.72	20.46	-41.5	-45.1	12.7	6.17e-05	0	61	0	159383552	53	5806
2026-01-26 01:35:05.48	318.96	20.52	-41.6	-45.4	12.4	1.41e-04	0	61	0	165675008	53	6024
2026-01-26 01:35:08.51	318.20	20.58	-41.8	-45.6	12.1	2.61e-04	0	61	0	170917888	54	5834
2026-01-26 01:35:11.54	317.43	20.63	-41.7	-45.5	12.3	2.06e-04	0	61	0	176160768	54	5758
2026-01-26 01:35:14.56	316.67	20.67	-41.8	-45.8	12.0	3.26e-04	0	61	0	182452224	54	5949
2026-01-26 01:35:17.59	315.90	20.71	-42.0	-46.1	11.6	6.74e-04	0	61	0	187695104	54	6160
2026-01-26 01:35:20.62	315.13	20.74	-41.9	-45.9	11.8	5.34e-04	0	61	0	193986560	54	6057
2026-01-26 01:35:23.65	314.35	20.77	-41.7	-45.5	12.3	2.51e-04	0	61	0	199229440	54	5748
2026-01-26 01:35:26.68	313.58	20.79	-41.8	-45.8	12.0	2.85e-04	0	61	0	205520896	54	5943
2026-01-26 01:35:29.71	312.80	20.81	-42.0	-46.1	11.6	6.28e-04	0	61	0	210763776	54	6175
2026-01-26 01:35:32.74	312.03	20.82	-41.9	-46.0	11.7	4.66e-04	0	61	0	216006656	54	6083
2026-01-26 01:35:35.77	311.25	20.83	-41.9	-45.9	11.9	3.89e-04	0	61	0	222298112	54	6015
2026-01-26 01:35:38.80	310.47	20.83	-41.8	-45.8	12.0	3.80e-04	0	61	0	227540992	54	5952
2026-01-26 01:35:41.83	309.70	20.82	-41.9	-45.8	12.0	3.26e-04	0	61	0	233832448	54	5956
2026-01-26 01:35:44.86	308.92	20.81	-41.7	-45.5	12.3	2.09e-04	0	61	0	239075328	54	5761
2026-01-26 01:35:47.89	308.14	20.79	-41.6	-45.3	12.5	1.30e-04	0	61	0	244318208	54	5631
2026-01-26 01:35:50.92	307.37	20.77	-41.5	-45.1	12.7	7.40e-05	0	61	0	250609664	54	5516
2026-01-26 01:35:53.95	306.60	20.74	-41.6	-45.2	12.6	1.16e-04	0	61	0	255852544	54	5571
2026-01-26 01:35:56.98	305.82	20.71	-41.4	-45.0	12.8	5.72e-05	0	61	0	262144000	54	5420
2026-01-26 01:36:00.01	305.05	20.67	-41.4	-44.9	12.9	4.04e-05	0	61	0	267386880	54	5390
2026-01-26 01:36:03.05	304.28	20.63	-41.0	-44.3	13.6	8.30e-06	0	61	0	273678336	54	4990
2026-01-26 01:36:06.08	303.52	20.58	-41.0	-44.1	13.7	6.80e-06	0	61	0	278921216	53	5217
2026-01-26 01:36:09.11	302.75	20.52	-41.1	-44.4	13.4	9.90e-06	0	61	0	284164096	53	5344
2026-01-26 01:36:12.14	301.99	20.46	-40.9	-44.0	13.8	3.00e-06	0	61	0	290455552	53	5148
2026-01-26 01:36:15.17	301.23	20.40	-40.8	-43.9	13.9	5.30e-06	0	61	0	295698432	53	5077
2026-01-26 01:36:18.20	300.48	20.33	-40.8	-43.8	14.0	2.20e-06	0	61	0	301989888	53	5024
2026-01-26 01:36:21.23	299.73	20.25	-40.5	-43.3	14.4	7.00e-07	0	61	0	307232768	53	4759
2026-01-26 01:36:24.26	298.98	20.17	-40.6	-43.5	14.3	1.50e-06	0	61	0	312475648	52	5124
2026-01-26 01:36:27.29	298.24	20.09	-40.9	-44.0	13.8	5.30e-06	0	61	0	318767104	52	5429
2026-01-26 01:36:30.32	297.50	20.00	-40.7	-43.7	14.0	7.00e-07	0	61	0	324009984	52	5273
2026-01-26 01:36:33.35	296.77	19.90	-40.5	-43.4	14.4	3.80e-06	0	62	0	330301440	52	5093
2026-01-26 01:36:36.38	296.04	19.81	-40.7	-43.7	14.1	2.20e-06	0	62	0	335544320	52	5252
2026-01-26 01:36:39.41	295.31	19.70	-41.0	-44.2	13.7	6.80e-06	0	61	0	341835776	52	5533
2026-01-26 01:36:42.44	294.59	19.60	-41.2	-44.6	13.2	2.28e-05	0	61	0	347078656	52	5801
2026-01-26 01:36:45.47	293.88	19.48	-41.4	-44.9	12.8	4.34e-05	0	62	0	352321536	53	5719
2026-01-26 01:36:48.49	293.17	19.37	-41.3	-44.7	13.1	3.50e-05	0	62	0	358612992	53	5574
2026-01-26 01:36:51.53	292.46	19.25	-41.3	-44.8	13.0	2.51e-05	0	62	0	363855872	53	5614
2026-01-26 01:36:54.56	291.76	19.13	-41.5	-45.2	12.5	1.03e-04	0	61	0	370147328	53	5911
2026-01-26 01:36:57.59	291.07	19.00	-41.6	-45.3	12.5	1.08e-04	0	62	0	375390208	53	5941
2026-01-26 01:37:00.62	290.38	18.87	-41.5	-45.3	12.4	1.36e-04	0	61	0	380633088	53	5951
2026-01-26 01:37:03.65	289.70	18.73	-41.6	-45.4	12.3	1.76e-04	0	61	0	386924544	53	6020
2026-01-26 01:37:06.68	289.03	18.59	-41.5	-45.2	12.5	1.06e-04	0	61	0	392167424	53	5922
2026-01-26 01:37:09.71	288.36	18.45	-41.6	-45.4	12.2	1.72e-04	0	62	0	398458880	53	6050
2026-01-26 01:37:12.74	287.70	18.31	-41.8	-45.9	11.8	4.05e-04	0	61	0	403701760	54	6011
2026-01-26 01:37:15.77	287.04	18.16	-41.7	-45.5	12.2	2.78e-04	0	62	0	409993216	54	5783
2026-01-26 01:37:18.80	286.39	18.01	-41.5	-45.1	12.6	1.17e-04	0	61	0	415236096	54	5517
2026-01-26 01:37:21.83	285.75	17.86	-41.6	-45.5	12.2	2.17e-04	0	61	0	420478976	54	5749
2026-01-26 01:37:24.86	285.11	17.70	-41.8	-45.9	11.8	4.87e-04	0	61	0	426770432	54	6036
2026-01-26 01:37:27.89	284.48	17.54	-41.9	-46.1	11.6	6.73e-04	0	61	0	432013312	54	6151
2026-01-26 01:37:30.92	283.86	17.38	-41.9	-46.0	11.6	5.97e-04	0	61	0	438304768	54	6086
2026-01-26 01:37:33.95	283.24	17.22	-41.9	-46.0	11.6	6.13e-04	0	62	0	443547648	54	6122
2026-01-26 01:37:36.98	282.63	17.05	-41.8	-45.8	11.8	4.93e-04	0	62	0	449839104	54	5968
2026-01-26 01:37:40.01	282.03	16.89	-41.8	-45.9	11.7	6.13e-04	0	61	0	455081984	54	6052
2026-01-26 01:37:43.04	281.43	16.72	-41.8	-46.0	11.6	6.31e-04	0	61	0	460324864	54	6069
2026-01-26 01:37:46.07	280.84	16.55	-41.7	-45.7	11.8	5.35e-04	0	61	0	466616320	54	5910
2026-01-26 01:37:49.10	280.26	16.37	-41.8	-46.0	11.6	5.79e-04	0	61	0	471859200	54	6082
2026-01-26 01:37:52.13	279.68	16.20	-41.9	-46.2	11.3	1.20e-03	0	62	0	478150656	54	6235
2026-01-26 01:37:55.16	279.11	16.02	-41.8	-45.9	11.6	6.51e-04	0	62	0	483393536	54	6022
2026-01-26 01:37:58.19	278.55	15.84	-41.7	-45.8	11.7	6.38e-04	0	62	0	488636416	54	5966
2026-01-26 01:38:01.23	277.99	15.66	-41.9	-46.1	11.4	7.57e-04	0	61	0	494927872	54	6179
2026-01-26 01:38:04.25	277.45	15.48	-42.1	-46.6	10.9	2.21e-03	0	62	0	500170752	54	6545
2026-01-26 01:38:07.28	276.90	15.30	-42.1	-46.7	10.8	2.96e-03	0	61	0	506462208	54	6574
2026-01-26 01:38:10.32	276.37	15.11	-42.0	-46.5	11.0	1.90e-03	0	62	0	511705088	54	6422
2026-01-26 01:38:13.35	275.84	14.93	-42.1	-46.8	10.7	3.01e-03	0	62	0	517996544	54	6656
2026-01-26 01:38:16.38	275.31	14.74	-42.2	-47.0	10.4	3.94e-03	0	62	0	523239424	54	6815
2026-01-26 01:38:19.41	274.80	14.56	-42.1	-46.7	10.7	3.28e-03	0	61	0	528482304	54	6606
2026-01-26 01:38:22.44	274.29	14.37	-42.0	-46.5	10.9	2.13e-03	0	61	0	534773760	54	6462
2026-01-26 01:38:25.46	273.79	14.18	-42.1	-46.7	10.6	3.01e-03	0	61	0	540016640	54	6625
2026-01-26 01:38:28.49	273.29	13.99	-42.0	-46.7	10.7	3.41e-03	0	61	0	546308096	54	6613
2026-01-26 01:38:31.52	272.80	13.80	-41.9	-46.3	11.1	2.40e-03	0	61	0	551550976	54	6298
2026-01-26 01:38:34.55	272.32	13.61	-41.7	-45.9	11.4	1.04e-03	0	62	0	556793856	54	6060
2026-01-26 01:38:37.58	271.84	13.42	-41.7	-46.0	11.3	1.08e-03	0	61	0	563085312	54	6104
2026-01-26 01:38:40.61	271.37	13.23	-41.7	-45.9	11.4	9.31e-04	0	62	0	568328192	54	6037
2026-01-26 01:38:43.63	270.90	13.04	-41.7	-46.0	11.4	1.09e-03	0	61	0	574619648	54	6064
2026-01-26 01:38:46.66	270.44	12.85	-41.6	-45.8	11.5	9.64e-04	0	61	0	579862528	54	5957
2026-01-26 01:38:49.69	269.99	12.65	-41.5	-45.5	11.8	5.28e-04	0	62	0	586153984	54	5765
2026-01-26 01:38:52.72	269.54	12.46	-41.5	-45.6	11.7	5.26e-04	0	62	0	591396864	54	5809
2026-01-26 01:38:55.75	269.10	12.27	-41.4	-45.4	11.8	4.42e-04	0	62	0	596639744	54	5717
2026-01-26 01:38:58.78	268.67	12.08	-41.3	-45.2	12.0	3.23e-04	0	62	0	602931200	54	5572
2026-01-26 01:39:01.81	268.24	11.88	-41.2	-45.0	12.2	2.04e-04	0	62	0	608174080	54	5448
2026-01-26 01:39:04.84	267.81	11.69	-41.1	-44.9	12.3	1.74e-04	0	61	0	614465536	54	5368
2026-01-26 01:39:07.86	267.39	11.50	-41.2	-45.1	12.1	2.91e-04	0	62	0	619708416	54	5517
2026-01-26 01:39:10.89	266.98	11.31	-41.2	-45.1	12.0	3.07e-04	0	61	0	624951296	54	5486
2026-01-26 01:39:13.93	266.57	11.11	-41.0	-44.9	12.2	2.01e-04	0	62	0	631242752	54	5341
2026-01-26 01:39:16.96	266.17	10.92	-41.1	-45.0	12.0	3.35e-04	0	61	0	636485632	54	5455
2026-01-26 01:39:19.98	265.77	10.73	-41.1	-45.1	11.9	3.42e-04	0	62	0	642777088	54	5495
2026-01-26 01:39:23.02	265.38	10.54	-41.1	-45.0	11.9	3.82e-04	0	62	0	648019968	54	5458
2026-01-26 01:39:26.04	265.00	10.34	-41.2	-45.4	11.6	6.06e-04	0	61	0	654311424	54	5671
2026-01-26 01:39:29.07	264.61	10.15	-41.2	-45.4	11.5	7.00e-04	0	61	0	659554304	54	5710
2026-01-26 01:39:32.10	264.24	9.96	-41.2	-45.4	11.5	8.34e-04	0	61	0	664797184	54	5677
2026-01-26 01:39:35.13	263.87	9.77	-41.2	-45.3	11.6	6.99e-04	0	62	0	671088640	54	5656
2026-01-26 01:39:38.16	263.50	9.58	-41.2	-45.4	11.4	9.62e-04	0	61	0	676331520	54	5686
2026-01-26 01:39:41.18	263.14	9.39	-41.2	-45.4	11.4	9.68e-04	0	62	0	682622976	54	5705
2026-01-26 01:39:44.21	262.78	9.20	-41.1	-45.2	11.7	6.25e-04	0	61	0	687865856	54	5546
2026-01-26 01:39:47.24	262.43	9.01	-41.1	-45.3	11.6	7.41e-04	0	61	0	693108736	54	5648
2026-01-26 01:39:50.27	262.08	8.82	-41.4	-45.9	11.0	1.85e-03	0	62	0	699400192	54	5993
2026-01-26 01:39:53.30	261.74	8.63	-41.6	-46.4	10.4	3.98e-03	0	61	0	704643072	54	6391
2026-01-26 01:39:56.33	261.40	8.44	-41.7	-46.5	10.3	5.46e-03	0	62	0	710934528	54	6468
2026-01-26 01:39:59.36	261.07	8.25	-41.7	-46.6	10.2	5.42e-03	0	62	0	716177408	54	6553
2026-01-26 01:40:02.40	260.74	8.07	-41.7	-46.6	10.2	5.68e-03	0	62	0	722468864	54	6513
2026-01-26 01:40:05.43	260.41	7.88	-44.6	-59.4	3.8	1.49e+00	0	61	104	724566016	60	20213
2026-01-26 01:40:08.46	260.09	7.69	-45.0	-59.7	3.8	1.49e+00	0	62	104	724566016	60	20975
2026-01-26 01:40:11.49	259.77	7.51	-45.1	-59.7	3.8	1.49e+00	0	62	104	724566016	60	21009
2026-01-26 01:40:14.52	259.46	7.32	-45.0	-59.7	3.8	1.49e+00	0	62	104	724566016	60	20778
2026-01-26 01:40:17.55	259.15	7.14	-45.0	-59.6	3.8	1.49e+00	0	62	104	724566016	60	20769
2026-01-26 01:40:20.59	258.85	6.95	-45.1	-59.8	3.8	1.49e+00	0	62	104	724566016	60	21140
2026-01-26 01:40:23.62	258.54	6.77	-45.1	-59.7	3.8	1.49e+00	0	62	104	724566016	60	20937
2026-01-26 01:40:26.65	258.25	6.58	-45.1	-59.7	3.8	1.49e+00	0	62	104	724566016	60	21014
2026-01-26 01:40:29.68	257.95	6.40	-45.1	-59.6	3.8	1.49e+00	0	62	104	724566016	60	20773
2026-01-26 01:40:32.71	257.66	6.22	-45.0	-59.6	3.8	1.49e+00	0	62	104	724566016	60	20702
2026-01-26 01:40:35.74	257.38	6.04	-45.0	-59.6	3.8	1.49e+00	0	62	104	724566016	60	20727
2026-01-26 01:40:38.77	257.10	5.86	-45.0	-59.6	3.8	1.49e+00	0	62	104	724566016	60	20655
2026-01-26 01:40:41.79	256.82	5.68	-45.0	-59.6	3.8	1.49e+00	0	62	104	724566016	60	20640
2026-01-26 01:40:44.82	256.54	5.50	-45.0	-59.6	3.8	1.49e+00	0	62	104	724566016	60	20691
2026-01-26 01:40:47.85	256.27	5.32	-45.0	-59.6	3.8	1.49e+00	0	62	104	724566016	60	20540
2026-01-26 01:40:50.88	256.00	5.14	-44.9	-59.5	3.8	1.49e+00	0	62	104	724566016	60	20511
2026-01-26 01:40:53.91	255.74	4.96	-44.9	-59.6	3.8	1.49e+00	0	62	104	724566016	60	20546
2026-01-26 01:40:56.94	255.48	4.78	-44.9	-59.5	3.8	1.49e+00	0	62	104	724566016	60	20472
2026-01-26 01:40:59.97	255.22	4.61	-44.9	-59.5	3.8	1.49e+00	0	62	104	724566016	60	20525
2026-01-26 01:41:03.00	254.96	4.43	-44.9	-59.5	3.8	1.49e+00	0	62	104	724566016	60	20440
2026-01-26 01:41:06.03	254.71	4.26	-44.9	-59.5	3.8	1.49e+00	0	62	104	724566016	60	20414
2026-01-26 01:41:09.06	254.46	4.08	-44.9	-59.5	3.8	1.49e+00	0	62	104	724566016	60	20366
2026-01-26 01:41:12.09	254.21	3.91	-44.9	-59.5	3.8	1.49e+00	0	62	104	724566016	60	20375
2026-01-26 01:41:15.12	253.97	3.73	-44.9	-59.5	3.8	1.49e+00	0	62	104	724566016	60	20392
2026-01-26 01:41:18.15	253.73	3.56	-44.9	-59.5	3.8	1.49e+00	0	62	104	724566016	60	20362
2026-01-26 01:41:21.18	253.49	3.39	-44.9	-59.5	3.8	1.49e+00	0	62	104	724566016	60	20412
2026-01-26 01:41:24.21	253.26	3.22	-44.9	-59.5	3.8	1.49e+00	0	62	104	724566016	60	20398
2026-01-26 01:41:27.24	253.03	3.05	-44.9	-59.5	3.8	1.49e+00	0	62	104	724566016	60	20471
2026-01-26 01:41:30.28	252.80	2.88	-44.9	-59.5	3.8	1.49e+00	0	62	104	724566016	60	20443
2026-01-26 01:41:33.31	252.57	2.71	-44.9	-59.5	3.8	1.49e+00	0	62	104	724566016	60	20324
2026-01-26 01:41:36.34	252.35	2.54	-44.9	-59.5	3.8	1.49e+00	0	62	104	724566016	60	20373
2026-01-26 01:41:39.37	252.13	2.37	-44.9	-59.5	3.8	1.49e+00	0	62	104	724566016	60	20456
2026-01-26 01:41:42.40	251.91	2.20	-44.9	-59.5	3.8	1.49e+00	0	62	104	724566016	60	20407
2026-01-26 01:41:45.43	251.69	2.03	-44.9	-59.5	3.8	1.49e+00	0	62	104	724566016	60	20420

#Closed at: 2026-01-26 01:41:46
#Recorded file [724 MB]: D:/lorett/data/31039_260126_042928.dat