passes_logs/2026/01/26/R2.0S_Moscow/R2.0S_Moscow__20260126_215012_NOAA_20_JPSS-1_rec.log

#Pass ID: 20260126_215012_NOAA 20 (JPSS-1)
#Satellite: NOAA 20 (JPSS-1)
#Configuration: NOAA 20
#almurnet v.1.7.20251203
#Start time: 2026-01-26 21:50:12

#Version: 2.2.20231116
#Station: R2.0S_Moscow
#Location: 37.707566 lon 55.798166 lat
#TLE: 1 43013U 17073A   26026.46665230  .00000148  00000+0  91302-4 0  9998
#TLE: 2 43013  98.7646 327.2856 0001008  22.9532 337.1688 14.19540616424360

#Time	Az	El	Level	Level2	SNR	BER	BlckErr	Temp	State	Recorded	gain1	gain2
2026-01-26 21:50:12.12	28.42	2.00	-44.7	-59.3	3.8	1.49e+00	0	52	0	0	60	20049
2026-01-26 21:50:15.16	28.68	2.15	-44.7	-59.3	3.8	1.49e+00	0	52	104	0	61	18913
2026-01-26 21:50:18.19	28.94	2.30	-44.7	-59.4	3.8	1.49e+00	0	53	104	0	60	20109
2026-01-26 21:50:21.22	29.21	2.45	-44.8	-59.3	3.8	1.49e+00	0	53	104	0	60	20022
2026-01-26 21:50:24.25	29.48	2.61	-44.7	-59.4	3.8	1.49e+00	0	53	104	0	60	20081
2026-01-26 21:50:27.28	29.75	2.76	-44.8	-59.4	3.8	1.49e+00	0	53	104	0	60	20108
2026-01-26 21:50:30.31	30.02	2.91	-44.8	-59.3	3.8	1.49e+00	0	54	104	0	60	20062
2026-01-26 21:50:33.34	30.30	3.06	-44.8	-59.4	3.8	1.49e+00	0	54	104	0	60	20121
2026-01-26 21:50:36.37	30.58	3.21	-44.8	-59.4	3.8	1.49e+00	0	54	104	0	60	20198
2026-01-26 21:50:39.41	30.86	3.37	-44.8	-59.4	3.8	1.49e+00	0	54	104	0	60	20096
2026-01-26 21:50:42.44	31.15	3.52	-44.8	-59.4	3.8	1.49e+00	0	54	104	0	60	20146
2026-01-26 21:50:45.47	31.44	3.67	-44.8	-59.4	3.8	1.49e+00	0	55	104	0	60	20167
2026-01-26 21:50:48.50	31.73	3.83	-44.8	-59.4	3.8	1.49e+00	0	55	104	0	60	20195
2026-01-26 21:50:51.53	32.02	3.98	-44.8	-59.4	3.8	1.49e+00	0	55	104	0	60	20152
2026-01-26 21:50:54.56	32.32	4.13	-44.8	-59.4	3.8	1.49e+00	0	55	104	0	60	20178
2026-01-26 21:50:57.60	32.62	4.29	-44.8	-59.4	3.8	1.49e+00	0	55	104	0	60	20167
2026-01-26 21:51:00.63	32.92	4.44	-44.8	-59.4	3.8	1.49e+00	0	56	104	0	60	20217
2026-01-26 21:51:03.66	33.23	4.60	-44.8	-59.4	3.8	1.49e+00	0	55	104	0	60	20242
2026-01-26 21:51:06.69	33.54	4.75	-44.8	-59.4	3.8	1.49e+00	0	56	104	0	60	20236
2026-01-26 21:51:09.72	33.85	4.91	-44.8	-59.4	3.8	1.49e+00	0	56	104	0	60	20247
2026-01-26 21:51:12.75	34.16	5.06	-44.8	-59.4	3.8	1.49e+00	0	56	104	0	60	20285
2026-01-26 21:51:15.78	34.48	5.22	-44.8	-59.4	3.8	1.49e+00	0	56	104	0	60	20269
2026-01-26 21:51:18.81	34.80	5.38	-44.8	-59.5	3.8	1.49e+00	0	57	104	0	60	20315
2026-01-26 21:51:21.84	35.13	5.53	-44.8	-59.4	3.8	1.49e+00	0	57	104	0	60	20211
2026-01-26 21:51:24.88	35.46	5.69	-44.8	-59.4	3.8	1.49e+00	0	56	104	0	60	20289
2026-01-26 21:51:27.91	35.79	5.85	-44.8	-59.5	3.8	1.49e+00	0	57	104	0	60	20313
2026-01-26 21:51:30.94	36.13	6.00	-44.8	-59.5	3.8	1.49e+00	0	57	104	0	60	20331
2026-01-26 21:51:33.97	36.46	6.16	-44.8	-59.5	3.8	1.49e+00	0	57	104	0	60	20343
2026-01-26 21:51:37.00	36.81	6.32	-44.9	-59.5	3.8	1.49e+00	0	57	104	0	60	20374
2026-01-26 21:51:40.03	37.15	6.47	-44.9	-59.5	3.8	1.49e+00	0	57	104	0	60	20362
2026-01-26 21:51:43.07	37.50	6.63	-44.9	-59.5	3.8	1.49e+00	0	57	104	0	60	20401
2026-01-26 21:51:46.09	37.85	6.79	-44.9	-59.5	3.8	1.49e+00	0	57	104	0	60	20443
2026-01-26 21:51:49.13	38.21	6.95	-44.9	-59.5	3.8	1.49e+00	0	57	104	0	60	20375
2026-01-26 21:51:52.16	38.57	7.10	-44.9	-59.5	3.8	1.49e+00	0	58	104	0	60	20427
2026-01-26 21:51:55.19	38.94	7.26	-44.9	-59.5	3.8	1.49e+00	0	58	104	0	60	20445
2026-01-26 21:51:58.22	39.31	7.42	-44.9	-59.5	3.8	1.49e+00	0	58	104	0	60	20421
2026-01-26 21:52:01.26	39.68	7.58	-44.9	-59.5	3.8	1.49e+00	0	58	104	0	60	20495
2026-01-26 21:52:04.28	40.05	7.73	-44.9	-59.6	3.8	1.49e+00	0	58	104	0	60	20550
2026-01-26 21:52:07.32	40.43	7.89	-44.9	-59.5	3.8	1.49e+00	0	58	104	0	60	20518
2026-01-26 21:52:10.35	40.82	8.05	-44.9	-59.5	3.8	1.49e+00	0	58	104	0	60	20511
2026-01-26 21:52:13.38	41.20	8.21	-44.9	-59.5	3.8	1.49e+00	0	58	104	0	60	20485
2026-01-26 21:52:16.41	41.60	8.36	-44.9	-59.6	3.8	1.49e+00	0	58	104	0	60	20616
2026-01-26 21:52:19.44	41.99	8.52	-44.9	-59.6	3.8	1.49e+00	0	58	104	0	60	20592
2026-01-26 21:52:22.48	42.39	8.68	-45.0	-59.6	3.8	1.49e+00	0	58	104	0	60	20614
2026-01-26 21:52:25.51	42.80	8.83	-45.0	-59.6	3.8	1.49e+00	0	59	104	0	60	20606
2026-01-26 21:52:28.54	43.21	8.99	-45.0	-59.6	3.8	1.49e+00	0	59	104	0	60	20628
2026-01-26 21:52:31.57	43.62	9.15	-45.0	-59.6	3.8	1.49e+00	0	59	104	0	60	20727
2026-01-26 21:52:34.60	44.04	9.30	-45.0	-59.6	3.8	1.49e+00	0	59	104	0	60	20713
2026-01-26 21:52:37.63	44.46	9.46	-45.0	-59.6	3.8	1.49e+00	0	59	104	0	60	20696
2026-01-26 21:52:40.66	44.88	9.61	-45.0	-59.7	3.8	1.49e+00	0	59	104	0	60	20788
2026-01-26 21:52:43.69	45.31	9.77	-45.0	-59.6	3.8	1.49e+00	0	59	104	0	60	20728
2026-01-26 21:52:46.72	45.75	9.92	-45.0	-59.6	3.8	1.49e+00	0	59	104	0	60	20684
2026-01-26 21:52:49.75	46.18	10.07	-45.0	-59.6	3.8	1.49e+00	0	59	104	0	60	20709
2026-01-26 21:52:52.78	46.63	10.23	-45.0	-59.6	3.8	1.49e+00	0	59	104	0	60	20757
2026-01-26 21:52:55.82	47.08	10.38	-45.0	-59.7	3.8	1.49e+00	0	59	104	0	60	20786
2026-01-26 21:52:58.85	47.53	10.53	-45.0	-59.7	3.8	1.49e+00	0	59	104	0	60	20785
2026-01-26 21:53:01.88	47.99	10.68	-45.0	-59.6	3.8	1.49e+00	0	59	104	0	60	20773
2026-01-26 21:53:04.91	48.45	10.83	-45.0	-59.7	3.8	1.49e+00	0	60	104	0	60	20839
2026-01-26 21:53:07.94	48.91	10.98	-45.0	-59.7	3.8	1.49e+00	0	59	104	0	60	20901
2026-01-26 21:53:10.97	49.38	11.13	-45.0	-59.7	3.8	1.49e+00	0	59	104	0	60	20841
2026-01-26 21:53:14.00	49.86	11.28	-45.0	-59.7	3.8	1.49e+00	0	60	104	0	60	20852
2026-01-26 21:53:17.03	50.34	11.43	-45.1	-59.7	3.8	1.49e+00	0	60	104	0	60	20865
2026-01-26 21:53:20.06	50.82	11.57	-45.0	-59.7	3.8	1.49e+00	0	60	104	0	60	20928
2026-01-26 21:53:23.09	51.31	11.72	-45.0	-59.7	3.8	1.49e+00	0	59	104	0	60	20896
2026-01-26 21:53:26.12	51.81	11.87	-45.1	-59.7	3.8	1.49e+00	0	60	104	0	60	20894
2026-01-26 21:53:29.15	52.31	12.01	-45.1	-59.7	3.8	1.49e+00	0	60	104	0	60	20872
2026-01-26 21:53:32.18	52.81	12.15	-45.1	-59.7	3.8	1.49e+00	0	60	104	0	60	20867
2026-01-26 21:53:35.22	53.32	12.29	-45.1	-59.7	3.8	1.49e+00	0	60	104	0	60	20893
2026-01-26 21:53:38.25	53.83	12.43	-45.1	-59.7	3.8	1.49e+00	0	60	104	0	60	20895
2026-01-26 21:53:41.28	54.35	12.57	-45.1	-59.7	3.8	1.49e+00	0	60	104	0	60	20905
2026-01-26 21:53:44.31	54.88	12.71	-45.1	-59.7	3.8	1.49e+00	0	60	104	0	60	20913
2026-01-26 21:53:47.34	55.40	12.85	-45.1	-59.7	3.8	1.49e+00	0	60	104	0	60	20918
2026-01-26 21:53:50.38	55.94	12.98	-45.1	-59.7	3.8	1.49e+00	0	60	104	0	60	20907
2026-01-26 21:53:53.41	56.47	13.11	-45.1	-59.7	3.8	1.49e+00	0	60	104	0	60	20969
2026-01-26 21:53:56.44	57.02	13.25	-45.1	-59.7	3.8	1.49e+00	0	60	104	0	60	20920
2026-01-26 21:53:59.47	57.56	13.37	-45.1	-59.7	3.8	1.49e+00	0	60	104	0	60	20990
2026-01-26 21:54:02.50	58.11	13.50	-45.1	-59.7	3.8	1.49e+00	0	60	104	0	60	20900
2026-01-26 21:54:05.53	58.67	13.63	-45.1	-59.7	3.8	1.49e+00	0	60	104	0	60	20988
2026-01-26 21:54:08.56	59.23	13.75	-45.1	-59.7	3.8	1.49e+00	0	60	104	0	60	20959
2026-01-26 21:54:11.59	59.80	13.88	-45.0	-59.7	3.8	1.49e+00	0	60	104	0	60	20876
2026-01-26 21:54:14.62	60.37	14.00	-45.0	-59.7	3.8	1.49e+00	0	60	104	0	60	20914
2026-01-26 21:54:17.66	60.94	14.12	-45.1	-59.7	3.8	1.49e+00	0	61	104	0	60	20928
2026-01-26 21:54:20.69	61.52	14.23	-45.1	-59.7	3.8	1.49e+00	0	61	104	0	60	20953
2026-01-26 21:54:23.72	62.10	14.35	-45.0	-59.7	3.8	1.49e+00	0	61	104	0	60	20886
2026-01-26 21:54:26.75	62.69	14.46	-45.0	-59.7	3.8	1.49e+00	0	61	104	0	60	20887
2026-01-26 21:54:29.79	63.28	14.57	-45.1	-59.7	3.8	1.49e+00	0	61	104	0	60	20887
2026-01-26 21:54:32.82	63.88	14.68	-45.0	-59.7	3.8	1.49e+00	0	61	104	0	60	20981
2026-01-26 21:54:35.85	64.48	14.78	-45.1	-59.7	3.8	1.49e+00	0	61	104	0	60	20926
2026-01-26 21:54:38.88	65.09	14.89	-45.0	-59.7	3.8	1.49e+00	0	61	104	0	60	20908
2026-01-26 21:54:41.91	65.69	14.99	-45.0	-59.7	3.8	1.49e+00	0	61	104	0	60	20898
2026-01-26 21:54:44.94	66.31	15.08	-45.0	-59.7	3.8	1.49e+00	0	61	104	0	60	20964
2026-01-26 21:54:47.97	66.92	15.18	-45.0	-59.7	3.8	1.49e+00	0	61	104	0	60	20850
2026-01-26 21:54:51.00	67.54	15.27	-45.0	-59.7	3.8	1.49e+00	0	61	104	0	60	20903
2026-01-26 21:54:54.04	68.17	15.36	-45.0	-59.7	3.8	1.49e+00	0	61	104	0	60	20842
2026-01-26 21:54:57.07	68.80	15.45	-45.0	-59.7	3.8	1.49e+00	0	61	104	0	60	20883
2026-01-26 21:55:00.10	69.43	15.53	-45.0	-59.7	3.8	1.49e+00	0	61	104	0	60	20921
2026-01-26 21:55:03.13	70.06	15.61	-45.0	-59.7	3.8	1.49e+00	0	61	104	0	60	20827
2026-01-26 21:55:06.16	70.70	15.69	-45.0	-59.7	3.8	1.49e+00	0	61	104	0	60	20853
2026-01-26 21:55:09.19	71.34	15.76	-45.0	-59.7	3.8	1.49e+00	0	61	104	0	60	20909
2026-01-26 21:55:12.23	71.99	15.83	-45.0	-59.7	3.8	1.49e+00	0	61	104	0	60	20932
2026-01-26 21:55:15.26	72.64	15.90	-45.0	-59.7	3.8	1.49e+00	0	61	104	0	60	20844
2026-01-26 21:55:18.29	73.29	15.97	-45.0	-59.7	3.8	1.49e+00	0	61	104	0	60	20880
2026-01-26 21:55:21.32	73.94	16.03	-45.0	-59.7	3.8	1.49e+00	0	61	104	0	60	20886
2026-01-26 21:55:24.35	74.59	16.09	-45.0	-59.7	3.8	1.49e+00	0	61	104	0	60	20830
2026-01-26 21:55:27.38	75.25	16.14	-45.0	-59.7	3.8	1.49e+00	0	61	104	0	60	20911
2026-01-26 21:55:30.41	75.91	16.19	-45.0	-59.7	3.8	1.49e+00	0	61	104	0	60	20879
2026-01-26 21:55:33.45	76.58	16.24	-45.0	-59.6	3.8	1.49e+00	0	61	104	0	60	20771
2026-01-26 21:55:36.47	77.24	16.28	-45.0	-59.7	3.8	1.49e+00	0	61	104	0	60	20808
2026-01-26 21:55:39.51	77.91	16.32	-45.0	-59.7	3.8	1.49e+00	0	61	104	0	60	20944
2026-01-26 21:55:42.54	78.57	16.36	-45.0	-59.7	3.8	1.49e+00	0	61	104	0	60	20866
2026-01-26 21:55:45.57	79.24	16.39	-45.0	-59.6	3.8	1.49e+00	0	61	104	0	60	20755
2026-01-26 21:55:48.60	79.91	16.42	-45.0	-59.7	3.8	1.49e+00	0	61	104	0	60	20784
2026-01-26 21:55:51.63	80.59	16.45	-45.0	-59.6	3.8	1.49e+00	0	61	104	0	60	20763
2026-01-26 21:55:54.66	81.26	16.47	-45.0	-59.7	3.8	1.49e+00	0	61	104	0	60	20780
2026-01-26 21:55:57.70	81.94	16.49	-45.0	-59.6	3.8	1.49e+00	0	61	104	0	60	20741
2026-01-26 21:56:00.73	82.61	16.50	-45.0	-59.6	3.8	1.49e+00	0	61	104	0	60	20768
2026-01-26 21:56:03.76	83.29	16.51	-44.9	-59.7	3.8	1.49e+00	0	61	104	0	60	20798
2026-01-26 21:56:06.78	83.96	16.52	-45.0	-59.6	3.8	1.49e+00	0	61	104	0	60	20727
2026-01-26 21:56:09.81	84.64	16.52	-45.0	-59.7	3.8	1.49e+00	0	61	104	0	60	20794
2026-01-26 21:56:12.85	85.32	16.52	-44.9	-59.6	3.8	1.49e+00	0	61	104	0	60	20729
2026-01-26 21:56:15.88	85.99	16.52	-44.9	-59.6	3.8	1.49e+00	0	61	104	0	60	20746
2026-01-26 21:56:18.91	86.67	16.51	-44.9	-59.6	3.8	1.49e+00	0	61	104	0	60	20714
2026-01-26 21:56:21.94	87.34	16.50	-44.9	-59.6	3.8	1.49e+00	0	61	104	0	60	20757
2026-01-26 21:56:24.97	88.02	16.48	-44.9	-59.7	3.8	1.49e+00	0	61	104	0	60	20783
2026-01-26 21:56:28.00	88.69	16.46	-44.9	-59.7	3.8	1.49e+00	0	61	104	0	60	20826
2026-01-26 21:56:31.03	89.37	16.44	-44.9	-59.6	3.8	1.49e+00	0	61	104	0	60	20764
2026-01-26 21:56:34.06	90.04	16.41	-44.9	-59.6	3.8	1.49e+00	0	61	104	0	60	20759
2026-01-26 21:56:37.09	90.71	16.38	-44.9	-59.7	3.8	1.49e+00	0	61	104	0	60	20787
2026-01-26 21:56:40.12	91.38	16.35	-44.9	-59.7	3.8	1.49e+00	0	62	104	0	60	20779
2026-01-26 21:56:43.15	92.05	16.31	-44.9	-59.7	3.8	1.49e+00	0	61	104	0	60	20788
2026-01-26 21:56:46.19	92.72	16.27	-44.9	-59.6	3.8	1.49e+00	0	62	104	0	60	20739
2026-01-26 21:56:49.22	93.38	16.22	-44.9	-59.7	3.8	1.49e+00	0	62	104	0	60	20799
2026-01-26 21:56:52.25	94.05	16.18	-44.9	-59.7	3.8	1.49e+00	0	61	104	0	60	20797
2026-01-26 21:56:55.28	94.71	16.12	-44.9	-59.6	3.8	1.49e+00	0	62	104	0	60	20763
2026-01-26 21:56:58.31	95.37	16.07	-44.9	-59.6	3.8	1.49e+00	0	61	104	0	60	20765
2026-01-26 21:57:01.34	96.02	16.01	-44.9	-59.6	3.8	1.49e+00	0	61	104	0	60	20762
2026-01-26 21:57:04.38	96.68	15.94	-44.9	-59.6	3.8	1.49e+00	0	62	104	0	60	20759
2026-01-26 21:57:07.41	97.33	15.88	-44.9	-59.6	3.8	1.49e+00	0	62	104	0	60	20623
2026-01-26 21:57:10.44	97.98	15.81	-44.9	-59.6	3.8	1.49e+00	0	62	104	0	60	20685
2026-01-26 21:57:13.47	98.62	15.74	-44.9	-59.6	3.8	1.49e+00	0	62	104	0	60	20686
2026-01-26 21:57:16.50	99.26	15.66	-44.9	-59.6	3.8	1.49e+00	0	61	104	0	60	20703
2026-01-26 21:57:19.54	99.90	15.58	-44.9	-59.6	3.8	1.49e+00	0	62	104	0	60	20758
2026-01-26 21:57:22.57	100.54	15.50	-44.9	-59.6	3.8	1.49e+00	0	62	104	0	60	20743
2026-01-26 21:57:25.60	101.17	15.42	-44.9	-59.6	3.8	1.49e+00	0	62	104	0	60	20708
2026-01-26 21:57:28.62	101.80	15.33	-44.9	-59.6	3.8	1.49e+00	0	61	104	0	60	20702
2026-01-26 21:57:31.66	102.42	15.24	-44.9	-59.7	3.8	1.49e+00	0	62	104	0	60	20796
2026-01-26 21:57:34.69	103.05	15.14	-44.9	-59.6	3.8	1.49e+00	0	62	104	0	60	20770
2026-01-26 21:57:37.72	103.66	15.05	-44.9	-59.6	3.8	1.49e+00	0	62	104	0	60	20720
2026-01-26 21:57:40.75	104.28	14.95	-44.9	-59.6	3.8	1.49e+00	0	62	104	0	60	20695
2026-01-26 21:57:43.78	104.89	14.85	-44.9	-59.7	3.8	1.49e+00	0	62	104	0	60	20804
2026-01-26 21:57:46.81	105.49	14.74	-44.9	-59.6	3.8	1.49e+00	0	62	104	0	60	20766
2026-01-26 21:57:49.84	106.09	14.64	-44.9	-59.6	3.8	1.49e+00	0	62	104	0	60	20701
2026-01-26 21:57:52.87	106.69	14.53	-44.9	-59.7	3.8	1.49e+00	0	62	104	0	60	20821
2026-01-26 21:57:55.90	107.28	14.42	-44.9	-59.6	3.8	1.49e+00	0	62	104	0	60	20730
2026-01-26 21:57:58.93	107.87	14.30	-44.9	-59.7	3.8	1.49e+00	0	62	104	0	60	20780
2026-01-26 21:58:01.96	108.46	14.19	-44.9	-59.6	3.8	1.49e+00	0	62	104	0	60	20712
2026-01-26 21:58:04.99	109.04	14.07	-44.9	-59.6	3.8	1.49e+00	0	62	104	0	60	20726
2026-01-26 21:58:08.03	109.61	13.95	-44.9	-59.6	3.8	1.49e+00	0	62	104	0	60	20740
2026-01-26 21:58:11.06	110.18	13.82	-44.9	-59.6	3.8	1.49e+00	0	62	104	0	60	20687
2026-01-26 21:58:14.09	110.75	13.70	-44.9	-59.6	3.8	1.49e+00	0	62	104	0	60	20735
2026-01-26 21:58:17.12	111.31	13.57	-44.9	-59.6	3.8	1.49e+00	0	62	104	0	60	20731
2026-01-26 21:58:20.16	111.87	13.45	-44.9	-59.6	3.8	1.49e+00	0	62	104	0	60	20718
2026-01-26 21:58:23.19	112.42	13.32	-44.9	-59.6	3.8	1.49e+00	0	62	104	0	60	20710
2026-01-26 21:58:26.22	112.97	13.18	-44.9	-59.6	3.8	1.49e+00	0	62	104	0	60	20727
2026-01-26 21:58:29.25	113.51	13.05	-44.9	-59.6	3.8	1.49e+00	0	62	104	0	60	20700
2026-01-26 21:58:32.28	114.05	12.92	-44.9	-59.6	3.8	1.49e+00	0	62	104	0	60	20703
2026-01-26 21:58:35.31	114.58	12.78	-44.9	-59.6	3.8	1.49e+00	0	62	104	0	60	20705
2026-01-26 21:58:38.34	115.11	12.64	-44.9	-59.6	3.8	1.49e+00	0	62	104	0	60	20649
2026-01-26 21:58:41.38	115.64	12.50	-44.9	-59.6	3.8	1.49e+00	0	62	104	0	60	20642
2026-01-26 21:58:44.41	116.15	12.36	-44.9	-59.6	3.8	1.49e+00	0	62	104	0	60	20697
2026-01-26 21:58:47.44	116.67	12.22	-44.8	-59.6	3.8	1.49e+00	0	62	104	0	60	20596
2026-01-26 21:58:50.47	117.18	12.08	-44.9	-59.6	3.8	1.49e+00	0	62	104	0	60	20690
2026-01-26 21:58:53.50	117.68	11.93	-44.9	-59.6	3.8	1.49e+00	0	62	104	0	60	20643
2026-01-26 21:58:56.53	118.18	11.79	-44.8	-59.6	3.8	1.49e+00	0	62	104	0	60	20617
2026-01-26 21:58:59.56	118.68	11.64	-44.9	-59.6	3.8	1.49e+00	0	62	104	0	60	20645
2026-01-26 21:59:02.59	119.17	11.49	-44.8	-59.6	3.8	1.49e+00	0	62	104	0	60	20623
2026-01-26 21:59:05.62	119.65	11.34	-44.8	-59.6	3.8	1.49e+00	0	62	104	0	60	20636
2026-01-26 21:59:08.65	120.13	11.20	-44.8	-59.6	3.8	1.49e+00	0	62	104	0	60	20577
2026-01-26 21:59:11.68	120.61	11.04	-44.8	-59.6	3.8	1.49e+00	0	62	104	0	60	20646
2026-01-26 21:59:14.71	121.08	10.89	-44.8	-59.5	3.8	1.49e+00	0	62	104	0	60	20525
2026-01-26 21:59:17.75	121.55	10.74	-44.8	-59.6	3.8	1.49e+00	0	62	104	0	60	20564
2026-01-26 21:59:20.78	122.01	10.59	-44.8	-59.6	3.8	1.49e+00	0	62	104	0	60	20629
2026-01-26 21:59:23.81	122.47	10.44	-44.8	-59.5	3.8	1.49e+00	0	62	104	0	60	20501
2026-01-26 21:59:26.84	122.92	10.28	-44.8	-59.6	3.8	1.49e+00	0	62	104	0	60	20542
2026-01-26 21:59:29.87	123.37	10.13	-44.8	-59.5	3.8	1.49e+00	0	62	104	0	60	20485
2026-01-26 21:59:32.90	123.81	9.97	-44.8	-59.5	3.8	1.49e+00	0	62	104	0	60	20427
2026-01-26 21:59:35.93	124.25	9.82	-44.8	-59.5	3.8	1.49e+00	0	62	104	0	60	20514
2026-01-26 21:59:38.96	124.68	9.66	-44.8	-59.5	3.8	1.49e+00	0	62	104	0	60	20444
2026-01-26 21:59:42.00	125.11	9.50	-44.8	-59.5	3.8	1.49e+00	0	62	104	0	60	20447
2026-01-26 21:59:45.03	125.54	9.35	-44.7	-59.5	3.8	1.49e+00	0	62	104	0	60	20410
2026-01-26 21:59:48.06	125.96	9.19	-44.7	-59.5	3.8	1.49e+00	0	62	104	0	60	20349
2026-01-26 21:59:51.09	126.38	9.03	-44.7	-59.4	3.8	1.49e+00	0	62	104	0	60	20293
2026-01-26 21:59:54.12	126.79	8.88	-44.7	-59.5	3.8	1.49e+00	0	62	104	0	60	20319
2026-01-26 21:59:57.15	127.20	8.72	-44.7	-59.5	3.8	1.49e+00	0	62	104	0	60	20351
2026-01-26 22:00:00.18	127.60	8.56	-44.7	-59.4	3.8	1.49e+00	0	62	104	0	60	20284
2026-01-26 22:00:03.21	128.00	8.40	-44.7	-59.4	3.8	1.49e+00	0	62	104	0	60	20259
2026-01-26 22:00:06.24	128.40	8.24	-44.7	-59.5	3.8	1.49e+00	0	62	104	0	60	20310
2026-01-26 22:00:09.27	128.79	8.08	-44.7	-59.4	3.8	1.49e+00	0	62	104	0	60	20219
2026-01-26 22:00:12.30	129.18	7.92	-44.6	-59.4	3.8	1.49e+00	0	62	104	0	60	20120
2026-01-26 22:00:15.33	129.56	7.76	-44.7	-59.4	3.8	1.49e+00	0	62	104	0	60	20188
2026-01-26 22:00:18.37	129.94	7.61	-44.6	-59.4	3.8	1.49e+00	0	62	104	0	60	20151
2026-01-26 22:00:21.39	130.31	7.45	-44.6	-59.4	3.8	1.49e+00	0	62	104	0	60	20215
2026-01-26 22:00:24.42	130.68	7.29	-44.6	-59.4	3.8	1.49e+00	0	62	104	0	60	20150
2026-01-26 22:00:27.45	131.05	7.13	-44.6	-59.3	3.8	1.49e+00	0	62	104	0	60	20001
2026-01-26 22:00:30.49	131.42	6.97	-44.6	-59.4	3.8	1.49e+00	0	62	104	0	60	20076
2026-01-26 22:00:33.51	131.77	6.81	-44.6	-59.3	3.8	1.49e+00	0	62	104	0	60	19992
2026-01-26 22:00:36.55	132.13	6.65	-44.6	-59.3	3.8	1.49e+00	0	62	104	0	60	19936
2026-01-26 22:00:39.58	132.48	6.49	-44.5	-59.3	3.8	1.49e+00	0	62	104	0	60	20000
2026-01-26 22:00:42.61	132.83	6.33	-44.6	-59.3	3.8	1.49e+00	0	62	104	0	60	20020
2026-01-26 22:00:45.64	133.18	6.17	-44.5	-59.3	3.8	1.49e+00	0	62	104	0	60	19945
2026-01-26 22:00:48.67	133.52	6.01	-44.5	-59.3	3.8	1.49e+00	0	62	104	0	60	19999
2026-01-26 22:00:51.70	133.85	5.86	-44.5	-59.3	3.8	1.49e+00	0	62	104	0	60	19903
2026-01-26 22:00:54.73	134.19	5.70	-44.5	-59.3	3.8	1.49e+00	0	62	104	0	60	19878
2026-01-26 22:00:57.77	134.52	5.54	-44.5	-59.3	3.8	1.49e+00	0	62	104	0	60	19843
2026-01-26 22:01:00.80	134.85	5.38	-44.5	-59.2	3.8	1.49e+00	0	62	104	0	60	19786
2026-01-26 22:01:03.83	135.17	5.22	-44.5	-59.2	3.8	1.49e+00	0	62	104	0	60	19812
2026-01-26 22:01:06.86	135.49	5.06	-44.4	-59.2	3.8	1.49e+00	0	62	104	0	60	19735
2026-01-26 22:01:09.89	135.81	4.91	-44.4	-59.2	3.8	1.49e+00	0	62	104	0	60	19682
2026-01-26 22:01:12.93	136.12	4.75	-44.4	-59.2	3.8	1.49e+00	0	62	104	0	60	19679
2026-01-26 22:01:15.96	136.43	4.59	-44.4	-59.2	3.8	1.49e+00	0	62	104	0	60	19652
2026-01-26 22:01:18.99	136.74	4.43	-44.4	-59.1	3.8	1.49e+00	0	62	104	0	60	19496
2026-01-26 22:01:22.02	137.05	4.28	-44.4	-59.1	3.8	1.49e+00	0	62	104	0	60	19577
2026-01-26 22:01:25.05	137.35	4.12	-44.3	-59.1	3.8	1.49e+00	0	62	104	0	60	19438
2026-01-26 22:01:28.08	137.64	3.96	-44.3	-59.1	3.8	1.49e+00	0	62	104	0	60	19456
2026-01-26 22:01:31.11	137.94	3.81	-44.3	-59.1	3.8	1.49e+00	0	62	104	0	60	19487
2026-01-26 22:01:34.14	138.23	3.65	-44.3	-59.1	3.8	1.49e+00	0	62	104	0	60	19445
2026-01-26 22:01:37.17	138.52	3.50	-44.3	-59.1	3.8	1.49e+00	0	62	104	0	60	19501
2026-01-26 22:01:40.20	138.81	3.34	-44.3	-59.1	3.8	1.49e+00	0	62	104	0	60	19404
2026-01-26 22:01:43.24	139.09	3.19	-44.3	-59.1	3.8	1.49e+00	0	62	104	0	60	19439
2026-01-26 22:01:46.27	139.37	3.03	-44.3	-59.0	3.8	1.49e+00	0	62	104	0	60	19356
2026-01-26 22:01:49.30	139.65	2.88	-44.2	-59.0	3.8	1.49e+00	0	62	104	0	60	19324
2026-01-26 22:01:52.33	139.92	2.73	-44.2	-59.0	3.8	1.49e+00	0	62	104	0	60	19290
2026-01-26 22:01:55.36	140.20	2.57	-44.2	-59.0	3.8	1.49e+00	0	62	104	0	60	19180
2026-01-26 22:01:58.39	140.46	2.42	-44.2	-58.9	3.8	1.49e+00	0	62	104	0	60	19157
2026-01-26 22:02:01.42	140.73	2.27	-44.2	-58.9	3.8	1.49e+00	0	62	104	0	60	19031
2026-01-26 22:02:04.45	140.99	2.11	-44.1	-58.9	3.8	1.49e+00	0	62	104	0	60	19075
2026-01-26 22:02:07.48	141.26	1.96	-44.1	-58.8	3.8	1.49e+00	0	62	104	0	60	18945

#Closed at: 2026-01-26 22:02:07
#Recorded file [0 MB]: D:/lorett/data/31039_260127_005011.dat