passes_logs/2026/01/26/R2.0S_Moscow/R2.0S_Moscow__20260126_020547_FENGYUN_3D_rec.log

#Pass ID: 20260126_020547_FENGYUN 3D
#Satellite: FENGYUN 3D
#Configuration: FENGYUN 3D
#almurnet v.1.7.20251203
#Start time: 2026-01-26 02:05:47

#Version: 2.2.20231116
#Station: R2.0S_Moscow
#Location: 37.707566 lon 55.798166 lat
#TLE: 1 43010U 17072A   26025.50461972  .00000046  00000+0  43592-4 0  9990
#TLE: 2 43010  98.9962 357.4844 0002523  89.7890 270.3575 14.19699798424744

#Time	Az	El	Level	Level2	SNR	BER	BlckErr	Temp	State	Recorded	gain1	gain2
2026-01-26 02:05:47.67	15.23	2.02	-42.9	-54.6	3.8	8.46e-01	0	52	0	0	57	13782
2026-01-26 02:05:51.70	15.19	2.28	-42.9	-54.6	3.8	8.45e-01	0	52	104	0	57	13788
2026-01-26 02:05:55.74	15.15	2.54	-42.9	-54.5	3.8	8.45e-01	0	53	104	0	57	13717
2026-01-26 02:05:59.78	15.11	2.81	-42.9	-54.6	3.8	8.47e-01	0	53	104	0	57	13767
2026-01-26 02:06:03.83	15.06	3.07	-42.9	-54.5	3.8	8.46e-01	0	53	104	0	57	13715
2026-01-26 02:06:07.87	15.02	3.34	-42.9	-54.6	3.8	8.47e-01	0	53	104	0	57	13744
2026-01-26 02:06:11.91	14.97	3.61	-42.9	-54.5	3.8	8.45e-01	0	54	104	0	57	13720
2026-01-26 02:06:15.95	14.92	3.88	-42.9	-54.5	3.8	8.46e-01	0	54	104	0	57	13671
2026-01-26 02:06:20.00	14.87	4.16	-42.9	-54.5	3.8	8.46e-01	0	54	104	0	57	13716
2026-01-26 02:06:24.04	14.82	4.44	-42.9	-54.5	3.8	8.46e-01	0	55	104	0	57	13714
2026-01-26 02:06:28.08	14.77	4.72	-42.9	-54.5	3.8	8.46e-01	0	55	104	0	57	13698
2026-01-26 02:06:32.12	14.72	5.01	-42.9	-54.3	3.8	8.46e-01	0	55	104	0	57	13378
2026-01-26 02:06:36.16	14.66	5.30	-42.9	-54.1	3.8	8.47e-01	0	55	104	0	57	13069
2026-01-26 02:06:40.21	14.61	5.59	-42.8	-53.9	3.8	8.46e-01	0	55	104	0	57	12666
2026-01-26 02:06:44.25	14.55	5.88	-42.9	-54.3	3.8	8.47e-01	0	56	104	0	57	13294
2026-01-26 02:06:48.29	14.49	6.18	-42.9	-54.2	3.8	8.46e-01	0	56	104	0	57	13193
2026-01-26 02:06:52.33	14.43	6.48	-42.8	-53.4	3.8	8.46e-01	0	56	104	0	57	12063
2026-01-26 02:06:56.37	14.37	6.79	-42.0	-48.7	5.2	7.79e-01	0	56	0	0	56	7398
2026-01-26 02:07:00.42	14.30	7.09	-40.2	-43.9	9.1	3.69e-02	0	56	0	18874368	52	5399
2026-01-26 02:07:04.46	14.24	7.41	-38.7	-41.3	12.0	5.84e-04	0	56	0	40894464	49	4748
2026-01-26 02:07:08.50	14.17	7.72	-38.8	-41.5	11.8	8.02e-04	0	57	0	63963136	49	4825
2026-01-26 02:07:12.55	14.10	8.04	-39.5	-42.7	10.5	5.61e-03	0	57	0	87031808	49	5590
2026-01-26 02:07:16.59	14.03	8.37	-41.3	-46.1	5.2	8.37e-01	0	57	104	104857600	54	6151
2026-01-26 02:07:20.63	13.96	8.69	-39.1	-41.7	11.9	2.20e-04	0	57	0	125829120	49	4982
2026-01-26 02:07:24.68	13.88	9.03	-38.8	-41.3	12.4	4.80e-05	0	57	0	148897792	49	4752
2026-01-26 02:07:28.72	13.80	9.36	-38.7	-41.1	12.7	7.78e-05	0	57	0	170917888	49	4648
2026-01-26 02:07:32.76	13.72	9.71	-38.7	-41.1	12.7	3.89e-05	0	58	0	193986560	49	4623
2026-01-26 02:07:36.80	13.64	10.05	-38.8	-41.2	12.6	3.77e-05	0	58	0	216006656	49	4674
2026-01-26 02:07:40.84	13.56	10.40	-38.6	-40.9	13.2	1.83e-05	0	58	0	239075328	49	4497
2026-01-26 02:07:44.89	13.47	10.76	-38.6	-40.9	13.1	1.83e-05	0	58	0	262144000	49	4509
2026-01-26 02:07:48.93	13.38	11.12	-38.5	-40.7	13.4	1.14e-05	0	58	0	285212672	49	4410
2026-01-26 02:07:52.97	13.29	11.49	-38.5	-40.7	13.4	6.80e-06	0	58	0	307232768	48	4684
2026-01-26 02:07:57.01	13.19	11.86	-38.5	-40.7	13.4	9.10e-06	0	58	0	330301440	48	4693
2026-01-26 02:08:01.05	13.10	12.24	-38.4	-40.6	13.6	2.20e-06	0	59	0	353370112	48	4609
2026-01-26 02:08:05.10	13.00	12.62	-38.5	-40.6	13.7	1.10e-06	0	58	0	375390208	48	4633
2026-01-26 02:08:09.14	12.89	13.01	-38.4	-40.5	13.8	1.10e-06	0	59	0	398458880	48	4594
2026-01-26 02:08:13.18	12.78	13.40	-38.5	-40.6	13.8	1.10e-06	0	59	0	421527552	48	4637
2026-01-26 02:08:17.23	12.67	13.81	-38.5	-40.6	13.9	2.20e-06	0	59	0	443547648	48	4630
2026-01-26 02:08:21.27	12.56	14.22	-38.4	-40.5	14.0	3.40e-06	0	59	0	466616320	48	4586
2026-01-26 02:08:25.31	12.44	14.63	-38.4	-40.5	14.1	0.00e+00	0	59	0	489684992	48	4553
2026-01-26 02:08:29.35	12.32	15.05	-38.2	-40.2	14.5	1.10e-06	0	59	0	511705088	48	4422
2026-01-26 02:08:33.39	12.20	15.48	-38.0	-39.8	14.9	0.00e+00	0	59	0	534773760	48	4238
2026-01-26 02:08:37.44	12.07	15.92	-37.9	-39.7	15.0	0.00e+00	0	59	0	557842432	47	4428
2026-01-26 02:08:41.48	11.93	16.37	-37.6	-39.3	15.5	0.00e+00	0	59	0	580911104	47	4228
2026-01-26 02:08:45.52	11.79	16.82	-37.4	-39.1	15.7	0.00e+00	0	59	0	602931200	46	4383
2026-01-26 02:08:49.56	11.65	17.28	-37.4	-39.1	15.8	0.00e+00	0	59	0	625999872	46	4349
2026-01-26 02:08:53.60	11.50	17.76	-37.2	-38.9	16.0	0.00e+00	0	59	0	648019968	46	4271
2026-01-26 02:08:57.64	11.35	18.24	-37.0	-38.6	16.3	0.00e+00	0	59	0	671088640	46	4124
2026-01-26 02:09:01.68	11.19	18.72	-36.7	-38.2	16.8	0.00e+00	0	60	0	694157312	45	4162
2026-01-26 02:09:05.73	11.02	19.22	-36.7	-38.2	16.8	0.00e+00	0	59	0	717225984	45	4187
2026-01-26 02:09:09.77	10.85	19.73	-36.8	-38.3	16.7	0.00e+00	0	60	0	739246080	45	4239
2026-01-26 02:09:13.81	10.68	20.25	-36.9	-38.4	16.6	0.00e+00	0	60	0	762314752	45	4288
2026-01-26 02:09:17.85	10.49	20.78	-37.1	-38.7	16.4	0.00e+00	0	60	0	785383424	45	4405
2026-01-26 02:09:21.89	10.30	21.32	-37.0	-38.6	16.4	0.00e+00	0	60	0	807403520	45	4385
2026-01-26 02:09:25.93	10.10	21.87	-37.0	-38.5	16.6	0.00e+00	0	60	0	830472192	45	4323
2026-01-26 02:09:29.98	9.90	22.44	-36.5	-38.0	17.1	0.00e+00	0	60	0	853540864	45	4086
2026-01-26 02:09:34.02	9.68	23.02	-36.1	-37.5	17.6	0.00e+00	0	60	0	875560960	44	4086
2026-01-26 02:09:38.06	9.46	23.61	-36.1	-37.5	17.6	0.00e+00	0	60	0	898629632	44	4084
2026-01-26 02:09:42.10	9.23	24.21	-36.2	-37.6	17.5	0.00e+00	0	60	0	921698304	44	4110
2026-01-26 02:09:46.15	8.98	24.83	-36.2	-37.6	17.5	0.00e+00	0	60	0	943718400	44	4130
2026-01-26 02:09:50.19	8.73	25.46	-36.1	-37.5	17.6	0.00e+00	0	60	0	966787072	44	4091
2026-01-26 02:09:54.23	8.47	26.10	-36.0	-37.4	17.8	0.00e+00	0	60	0	989855744	44	4018
2026-01-26 02:09:58.28	8.19	26.76	-35.7	-37.0	18.0	0.00e+00	0	60	0	1012924416	43	4095
2026-01-26 02:10:02.32	7.90	27.44	-35.9	-37.3	17.8	0.00e+00	0	60	0	1034944512	43	4198
2026-01-26 02:10:06.36	7.60	28.13	-35.9	-37.3	17.7	0.00e+00	0	60	0	1058013184	43	4227
2026-01-26 02:10:10.40	7.29	28.84	-35.9	-37.3	17.7	0.00e+00	0	60	0	1080033280	43	4229
2026-01-26 02:10:14.44	6.96	29.57	-35.9	-37.3	17.8	0.00e+00	0	60	0	1103101952	43	4201
2026-01-26 02:10:18.49	6.61	30.32	-36.0	-37.4	17.6	0.00e+00	0	60	0	1126170624	43	4278
2026-01-26 02:10:22.53	6.25	31.08	-35.8	-37.1	17.9	0.00e+00	0	60	0	1149239296	43	4139
2026-01-26 02:10:26.57	5.87	31.86	-35.7	-37.1	18.0	0.00e+00	0	60	0	1171259392	43	4102
2026-01-26 02:10:30.61	5.46	32.66	-35.3	-36.6	18.5	0.00e+00	0	60	0	1194328064	42	4113
2026-01-26 02:10:34.65	5.04	33.49	-35.3	-36.6	18.5	0.00e+00	0	61	0	1217396736	42	4121
2026-01-26 02:10:38.70	4.59	34.33	-35.4	-36.7	18.4	0.00e+00	0	61	0	1239416832	42	4193
2026-01-26 02:10:42.74	4.12	35.20	-35.4	-36.7	18.4	0.00e+00	0	60	0	1262485504	42	4178
2026-01-26 02:10:46.78	3.62	36.08	-34.9	-36.1	19.0	0.00e+00	0	60	0	1285554176	41	4134
2026-01-26 02:10:50.82	3.10	36.99	-35.1	-36.3	18.8	0.00e+00	0	61	0	1307574272	41	4234
2026-01-26 02:10:54.86	2.54	37.92	-35.4	-36.7	18.4	0.00e+00	0	61	0	1330642944	41	4416
2026-01-26 02:10:58.91	1.94	38.88	-35.0	-36.3	18.8	0.00e+00	0	60	0	1353711616	41	4212
2026-01-26 02:11:02.95	1.32	39.86	-35.7	-37.0	18.1	0.00e+00	0	61	0	1375731712	41	4579
2026-01-26 02:11:06.99	0.65	40.86	-35.8	-37.1	18.0	0.00e+00	0	61	0	1398800384	42	4372
2026-01-26 02:11:11.03	359.93	41.89	-35.6	-37.0	18.2	0.00e+00	0	60	0	1421869056	42	4296
2026-01-26 02:11:15.07	359.17	42.94	-35.8	-37.2	18.0	0.00e+00	0	61	0	1444937728	42	4402
2026-01-26 02:11:19.12	358.35	44.02	-35.5	-36.8	18.3	0.00e+00	0	61	0	1466957824	42	4231
2026-01-26 02:11:23.16	357.47	45.11	-35.8	-37.2	18.0	0.00e+00	0	61	0	1490026496	42	4415
2026-01-26 02:11:27.20	356.54	46.23	-35.8	-37.1	18.1	0.00e+00	0	61	0	1512046592	42	4383
2026-01-26 02:11:31.24	355.53	47.38	-35.6	-36.9	18.3	0.00e+00	0	61	0	1535115264	42	4259
2026-01-26 02:11:35.28	354.44	48.54	-35.9	-37.2	18.0	0.00e+00	0	61	0	1558183936	42	4438
2026-01-26 02:11:39.33	353.26	49.73	-36.4	-37.8	17.4	0.00e+00	0	61	0	1581252608	43	4452
2026-01-26 02:11:43.37	351.98	50.93	-36.5	-37.9	17.3	0.00e+00	0	61	0	1603272704	43	4541
2026-01-26 02:11:47.41	350.60	52.14	-36.8	-38.2	17.2	0.00e+00	0	61	0	1626341376	44	4432
2026-01-26 02:11:51.45	349.10	53.37	-36.6	-38.1	17.3	0.00e+00	0	61	0	1649410048	44	4343
2026-01-26 02:11:55.49	347.47	54.61	-36.4	-37.8	17.6	0.00e+00	0	61	0	1671430144	44	4215
2026-01-26 02:11:59.53	345.68	55.85	-36.5	-38.0	17.1	0.00e+00	0	61	0	1694498816	44	4324
2026-01-26 02:12:03.57	343.73	57.08	-36.3	-37.8	17.4	0.00e+00	0	61	0	1716518912	44	4199
2026-01-26 02:12:07.61	341.59	58.31	-36.2	-37.7	17.5	0.00e+00	0	61	0	1739587584	44	4161
2026-01-26 02:12:11.65	339.25	59.53	-35.6	-37.0	17.9	0.00e+00	0	61	0	1762656256	43	4085
2026-01-26 02:12:15.70	336.67	60.72	-35.5	-36.9	18.0	0.00e+00	0	61	0	1785724928	43	4047
2026-01-26 02:12:19.74	333.84	61.87	-35.5	-37.0	18.0	0.00e+00	0	61	0	1807745024	42	4293
2026-01-26 02:12:23.78	330.75	62.98	-35.2	-36.6	18.3	0.00e+00	0	61	0	1830813696	42	4127
2026-01-26 02:12:27.82	327.35	64.03	-34.8	-36.1	18.7	0.00e+00	0	61	0	1853882368	41	4141
2026-01-26 02:12:31.87	323.64	65.00	-34.8	-36.1	18.8	0.00e+00	0	61	0	1875902464	41	4128
2026-01-26 02:12:35.90	319.62	65.88	-34.9	-36.2	18.6	0.00e+00	0	61	0	1898971136	41	4184
2026-01-26 02:12:39.95	315.27	66.65	-34.4	-35.7	19.1	0.00e+00	0	61	0	1922039808	40	4176
2026-01-26 02:12:43.98	310.64	67.30	-34.3	-35.6	19.1	0.00e+00	0	61	0	1944059904	40	4138
2026-01-26 02:12:48.02	305.73	67.80	-34.1	-35.4	19.4	0.00e+00	0	61	0	1967128576	39	4272
2026-01-26 02:12:52.06	300.62	68.15	-34.2	-35.5	19.4	0.00e+00	0	61	0	1990197248	39	4306
2026-01-26 02:12:56.10	295.36	68.34	-34.3	-35.6	19.2	0.00e+00	0	61	0	2012217344	39	4369
2026-01-26 02:13:00.14	290.05	68.35	-34.4	-35.7	19.1	0.00e+00	0	61	0	2035286016	39	4403
2026-01-26 02:13:04.18	284.77	68.20	-34.5	-35.8	19.0	0.00e+00	0	61	0	2058354688	39	4455
2026-01-26 02:13:08.22	279.63	67.87	-34.3	-35.6	19.2	0.00e+00	0	61	0	2081423360	39	4355
2026-01-26 02:13:12.26	274.68	67.39	-34.1	-35.3	19.5	0.00e+00	0	61	0	2103443456	39	4237
2026-01-26 02:13:16.30	269.99	66.76	-34.4	-35.7	19.1	0.00e+00	0	61	0	2126512128	39	4437
2026-01-26 02:13:20.34	265.59	66.01	-34.4	-35.7	19.1	0.00e+00	0	61	0	2148532224	39	4436
2026-01-26 02:13:24.39	261.50	65.14	-34.7	-36.0	18.9	0.00e+00	0	61	0	2171600896	39	4569
2026-01-26 02:13:28.43	257.74	64.18	-34.8	-36.2	18.7	0.00e+00	0	61	0	2194669568	40	4392
2026-01-26 02:13:32.47	254.30	63.14	-34.7	-36.1	18.8	0.00e+00	0	61	0	2216689664	40	4350
2026-01-26 02:13:36.51	251.15	62.04	-35.0	-36.4	18.5	0.00e+00	0	61	0	2239758336	40	4494
2026-01-26 02:13:40.55	248.28	60.89	-34.9	-36.3	18.6	0.00e+00	0	61	0	2262827008	40	4461
2026-01-26 02:13:44.59	245.66	59.70	-35.8	-37.2	17.7	0.00e+00	0	61	0	2285895680	42	4439
2026-01-26 02:13:48.64	243.28	58.49	-35.7	-37.1	17.9	0.00e+00	0	61	0	2307915776	42	4355
2026-01-26 02:13:52.68	241.10	57.26	-35.5	-36.9	18.0	0.00e+00	0	61	0	2330984448	42	4285
2026-01-26 02:13:56.72	239.12	56.01	-35.6	-37.0	18.0	0.00e+00	0	61	0	2353004544	42	4308
2026-01-26 02:14:00.76	237.31	54.77	-35.8	-37.3	17.7	0.00e+00	0	61	0	2376073216	42	4457
2026-01-26 02:14:04.80	235.65	53.53	-35.8	-37.3	17.7	0.00e+00	0	61	0	2399141888	42	4468
2026-01-26 02:14:08.84	234.12	52.30	-36.1	-37.6	17.4	0.00e+00	0	61	0	2422210560	42	4601
2026-01-26 02:14:12.88	232.72	51.08	-36.0	-37.5	17.5	0.00e+00	0	61	0	2444230656	42	4569
2026-01-26 02:14:16.92	231.43	49.87	-35.3	-36.7	18.2	0.00e+00	0	61	0	2467299328	42	4176
2026-01-26 02:14:20.97	230.23	48.68	-35.6	-37.1	17.9	0.00e+00	0	61	0	2490368000	42	4343
2026-01-26 02:14:25.01	229.13	47.51	-35.5	-36.9	18.0	0.00e+00	0	61	0	2512388096	42	4279
2026-01-26 02:14:29.05	228.10	46.36	-35.0	-36.4	18.5	0.00e+00	0	61	0	2535456768	42	4030
2026-01-26 02:14:33.09	227.15	45.23	-34.9	-36.3	18.6	0.00e+00	0	61	0	2558525440	41	4216
2026-01-26 02:14:37.13	226.27	44.12	-35.0	-36.4	18.5	0.00e+00	0	61	0	2580545536	41	4263
2026-01-26 02:14:41.18	225.44	43.04	-35.1	-36.5	18.4	0.00e+00	0	61	0	2603614208	41	4320
2026-01-26 02:14:45.22	224.66	41.98	-34.9	-36.3	18.5	0.00e+00	0	61	0	2626682880	41	4228
2026-01-26 02:14:49.26	223.94	40.95	-34.7	-36.0	18.8	0.00e+00	0	61	0	2648702976	41	4079
2026-01-26 02:14:53.30	223.26	39.94	-34.7	-36.0	18.8	0.00e+00	0	61	0	2671771648	41	4079
2026-01-26 02:14:57.34	222.62	38.95	-34.9	-36.3	18.5	0.00e+00	0	61	0	2694840320	41	4194
2026-01-26 02:15:01.38	222.02	37.99	-35.1	-36.6	18.2	0.00e+00	0	61	0	2717908992	41	4341
2026-01-26 02:15:05.42	221.46	37.05	-34.8	-36.2	18.6	0.00e+00	0	61	0	2739929088	41	4150
2026-01-26 02:15:09.46	220.92	36.13	-34.6	-35.9	18.8	0.00e+00	0	61	0	2762997760	41	4034
2026-01-26 02:15:13.51	220.42	35.24	-34.6	-36.0	18.7	0.00e+00	0	61	0	2785017856	41	4065
2026-01-26 02:15:17.55	219.94	34.37	-34.7	-36.0	18.7	0.00e+00	0	61	0	2808086528	41	4093
2026-01-26 02:15:21.59	219.49	33.52	-34.5	-35.8	18.9	0.00e+00	0	61	0	2831155200	41	3981
2026-01-26 02:15:25.63	219.06	32.69	-34.8	-36.2	18.5	0.00e+00	0	61	0	2854223872	41	4162
2026-01-26 02:15:29.68	218.65	31.88	-35.0	-36.4	18.3	0.00e+00	0	61	0	2876243968	41	4258
2026-01-26 02:15:33.72	218.27	31.09	-35.1	-36.5	18.3	0.00e+00	0	61	0	2899312640	41	4301
2026-01-26 02:15:37.76	217.90	30.32	-35.0	-36.4	18.3	0.00e+00	0	61	0	2922381312	41	4291
2026-01-26 02:15:41.80	217.55	29.57	-35.0	-36.4	18.3	0.00e+00	0	61	0	2944401408	41	4288
2026-01-26 02:15:45.84	217.21	28.84	-35.2	-36.6	18.1	0.00e+00	0	62	0	2967470080	41	4378
2026-01-26 02:15:49.88	216.89	28.12	-35.3	-36.8	17.9	0.00e+00	0	61	0	2990538752	41	4466
2026-01-26 02:15:53.93	216.58	27.43	-35.2	-36.7	18.0	0.00e+00	0	61	0	3012558848	41	4412
2026-01-26 02:15:57.97	216.29	26.75	-35.2	-36.6	18.0	0.00e+00	0	61	0	3035627520	41	4389
2026-01-26 02:16:02.01	216.01	26.08	-35.3	-36.8	17.9	0.00e+00	0	61	0	3058696192	41	4448
2026-01-26 02:16:06.05	215.75	25.43	-35.3	-36.7	17.9	0.00e+00	0	61	0	3080716288	41	4425
2026-01-26 02:16:10.10	215.49	24.79	-35.5	-37.0	17.7	0.00e+00	0	61	0	3103784960	41	4557
2026-01-26 02:16:14.14	215.24	24.17	-35.4	-36.9	17.7	0.00e+00	0	61	0	3126853632	41	4535
2026-01-26 02:16:18.18	215.01	23.57	-35.4	-36.9	17.7	0.00e+00	0	61	0	3149922304	41	4520
2026-01-26 02:16:22.22	214.78	22.97	-35.4	-36.9	17.7	0.00e+00	0	61	0	3171942400	41	4521
2026-01-26 02:16:26.26	214.56	22.39	-35.7	-37.2	17.4	0.00e+00	0	61	0	3195011072	42	4439
2026-01-26 02:16:30.30	214.35	21.83	-35.8	-37.4	17.3	0.00e+00	0	62	0	3217031168	42	4494
2026-01-26 02:16:34.34	214.15	21.27	-35.9	-37.5	17.1	0.00e+00	0	61	0	3240099840	42	4589
2026-01-26 02:16:38.38	213.95	20.73	-36.0	-37.5	17.1	0.00e+00	0	62	0	3263168512	42	4595
2026-01-26 02:16:42.42	213.76	20.19	-35.8	-37.4	17.3	0.00e+00	0	61	0	3285188608	42	4500
2026-01-26 02:16:46.46	213.58	19.67	-35.7	-37.3	17.3	0.00e+00	0	61	0	3308257280	42	4448
2026-01-26 02:16:50.51	213.41	19.16	-35.9	-37.4	17.2	0.00e+00	0	61	0	3331325952	42	4527
2026-01-26 02:16:54.55	213.24	18.66	-36.2	-37.8	16.8	0.00e+00	0	61	0	3353346048	42	4735
2026-01-26 02:16:58.59	213.08	18.16	-36.4	-38.1	16.5	0.00e+00	0	61	0	3376414720	43	4601
2026-01-26 02:17:02.63	212.92	17.68	-36.5	-38.1	16.4	0.00e+00	0	62	0	3399483392	43	4645
2026-01-26 02:17:06.67	212.77	17.21	-36.7	-38.4	16.2	0.00e+00	0	61	0	3421503488	43	4779
2026-01-26 02:17:10.69	212.62	16.75	-36.9	-38.7	16.1	0.00e+00	0	61	0	3444572160	44	4655
2026-01-26 02:17:14.74	212.48	16.29	-37.2	-39.0	15.8	0.00e+00	0	62	0	3467640832	45	4552
2026-01-26 02:17:18.78	212.34	15.84	-37.1	-38.9	15.9	0.00e+00	0	61	0	3490709504	45	4504
2026-01-26 02:17:22.82	212.21	15.40	-37.3	-39.1	15.6	0.00e+00	0	61	0	3512729600	45	4610
2026-01-26 02:17:26.86	212.08	14.97	-37.4	-39.2	15.5	0.00e+00	0	62	0	3535798272	45	4682
2026-01-26 02:17:30.90	211.95	14.54	-37.5	-39.4	15.3	0.00e+00	0	62	0	3557818368	45	4780
2026-01-26 02:17:34.94	211.83	14.13	-37.6	-39.5	15.2	0.00e+00	0	62	0	3580887040	45	4815
2026-01-26 02:17:38.98	211.71	13.72	-37.7	-39.6	15.0	0.00e+00	0	61	0	3603955712	46	4637
2026-01-26 02:17:43.03	211.60	13.31	-37.7	-39.6	15.0	0.00e+00	0	61	0	3627024384	46	4650
2026-01-26 02:17:47.07	211.49	12.91	-37.8	-39.8	14.8	0.00e+00	0	62	0	3649044480	46	4715
2026-01-26 02:17:51.11	211.38	12.52	-37.8	-39.7	14.9	0.00e+00	0	61	0	3672113152	46	4702
2026-01-26 02:17:55.15	211.27	12.14	-37.9	-39.9	14.7	0.00e+00	0	61	0	3695181824	46	4774
2026-01-26 02:17:59.19	211.17	11.76	-37.8	-39.8	14.7	0.00e+00	0	61	0	3717201920	46	4744
2026-01-26 02:18:03.23	211.07	11.38	-38.0	-40.0	14.6	0.00e+00	0	61	0	3740270592	46	4838
2026-01-26 02:18:07.27	210.98	11.02	-38.1	-40.2	14.3	1.10e-06	0	62	0	3763339264	46	4933
2026-01-26 02:18:11.31	210.88	10.65	-38.1	-40.2	14.3	2.20e-06	0	62	0	3785359360	46	4937
2026-01-26 02:18:15.35	210.79	10.30	-38.1	-40.2	14.2	0.00e+00	0	62	0	3808428032	46	4969
2026-01-26 02:18:19.39	210.70	9.94	-38.1	-40.2	14.2	0.00e+00	0	62	0	3831496704	47	4683
2026-01-26 02:18:23.43	210.62	9.60	-38.2	-40.3	14.0	0.00e+00	0	62	0	3853516800	47	4736
2026-01-26 02:18:27.47	210.53	9.25	-38.3	-40.5	13.8	2.20e-06	0	62	0	3876585472	47	4853
2026-01-26 02:18:31.51	210.45	8.92	-38.2	-40.4	13.8	1.10e-06	0	61	0	3899654144	47	4806
2026-01-26 02:18:35.55	210.37	8.58	-38.4	-40.7	13.5	3.40e-06	0	62	0	3921674240	47	4939
2026-01-26 02:18:39.59	210.29	8.25	-38.4	-40.7	13.4	8.00e-06	0	62	0	3944742912	47	4942
2026-01-26 02:18:43.63	210.22	7.93	-44.7	-56.2	3.8	8.46e-01	0	61	104	3962568704	59	14800
2026-01-26 02:18:47.67	210.14	7.61	-45.1	-56.9	3.8	8.46e-01	0	61	104	3962568704	60	15165
2026-01-26 02:18:51.72	210.07	7.29	-45.2	-57.0	3.8	8.46e-01	0	62	104	3962568704	61	14455
2026-01-26 02:18:55.76	210.00	6.97	-45.1	-56.8	3.8	8.46e-01	0	62	104	3962568704	61	14201
2026-01-26 02:18:59.80	209.93	6.67	-45.1	-56.9	3.8	8.48e-01	0	62	104	3962568704	61	14257
2026-01-26 02:19:03.84	209.86	6.36	-45.1	-56.8	3.8	8.46e-01	0	62	104	3962568704	61	14155
2026-01-26 02:19:07.88	209.80	6.06	-45.1	-56.8	3.8	8.46e-01	0	62	104	3962568704	61	14184
2026-01-26 02:19:11.93	209.73	5.76	-45.1	-56.8	3.8	8.46e-01	0	62	104	3962568704	61	14109
2026-01-26 02:19:15.97	209.67	5.46	-45.0	-56.8	3.8	8.46e-01	0	61	104	3962568704	61	14092
2026-01-26 02:19:20.01	209.61	5.17	-45.0	-56.7	3.8	8.46e-01	0	61	104	3962568704	61	14045
2026-01-26 02:19:24.05	209.55	4.88	-45.1	-56.8	3.8	8.46e-01	0	62	104	3962568704	61	14109
2026-01-26 02:19:28.10	209.49	4.59	-45.0	-56.8	3.8	8.46e-01	0	62	104	3962568704	61	14088
2026-01-26 02:19:32.14	209.44	4.31	-45.0	-56.7	3.8	8.45e-01	0	62	104	3962568704	61	14044
2026-01-26 02:19:36.18	209.38	4.03	-45.0	-56.7	3.8	8.45e-01	0	62	104	3962568704	61	13952
2026-01-26 02:19:40.22	209.33	3.75	-44.9	-56.7	3.8	8.47e-01	0	62	104	3962568704	61	13886
2026-01-26 02:19:44.27	209.27	3.48	-45.0	-56.8	3.8	8.46e-01	0	62	104	3962568704	61	14104
2026-01-26 02:19:48.31	209.22	3.21	-44.9	-56.7	3.8	8.45e-01	0	62	104	3962568704	61	13935
2026-01-26 02:19:52.35	209.17	2.94	-44.9	-56.6	3.8	8.46e-01	0	62	104	3962568704	61	13865
2026-01-26 02:19:56.39	209.12	2.67	-44.9	-56.6	3.8	8.46e-01	0	62	104	3962568704	61	13876
2026-01-26 02:20:00.43	209.07	2.41	-44.9	-56.6	3.8	8.46e-01	0	62	104	3962568704	61	13859
2026-01-26 02:20:04.47	209.02	2.15	-44.9	-56.6	3.8	8.45e-01	0	62	104	3962568704	61	13835

#Closed at: 2026-01-26 02:20:07
#Recorded file [3962 MB]: D:/lorett/data/31039_260126_050547.dat