passes_logs/2026/01/26/R2.0S_Moscow/R2.0S_Moscow__20260126_034621_FENGYUN_3D_rec.log

#Pass ID: 20260126_034621_FENGYUN 3D
#Satellite: FENGYUN 3D
#Configuration: FENGYUN 3D
#almurnet v.1.7.20251203
#Start time: 2026-01-26 03:46:22

#Version: 2.2.20231116
#Station: R2.0S_Moscow
#Location: 37.707566 lon 55.798166 lat
#TLE: 1 43010U 17072A   26025.50461972  .00000046  00000+0  43592-4 0  9990
#TLE: 2 43010  98.9962 357.4844 0002523  89.7890 270.3575 14.19699798424744

#Time	Az	El	Level	Level2	SNR	BER	BlckErr	Temp	State	Recorded	gain1	gain2
2026-01-26 03:46:22.93	9.81	2.05	-39.8	-51.4	3.8	8.46e-01	0	52	0	0	51	13469
2026-01-26 03:46:25.97	9.58	2.22	-39.8	-51.4	3.8	8.46e-01	0	52	104	0	51	13432
2026-01-26 03:46:29.00	9.35	2.38	-39.8	-51.3	3.8	8.46e-01	0	53	104	0	51	13411
2026-01-26 03:46:32.03	9.11	2.54	-39.8	-51.4	3.8	8.45e-01	0	53	104	0	51	13420
2026-01-26 03:46:35.06	8.87	2.70	-39.8	-51.3	3.8	8.47e-01	0	53	104	0	51	13413
2026-01-26 03:46:38.09	8.63	2.87	-39.8	-51.4	3.8	8.46e-01	0	53	104	0	51	13441
2026-01-26 03:46:41.13	8.39	3.03	-39.8	-51.3	3.8	8.45e-01	0	54	104	0	51	13387
2026-01-26 03:46:44.16	8.14	3.20	-39.8	-51.3	3.8	8.46e-01	0	54	104	0	51	13337
2026-01-26 03:46:47.18	7.89	3.36	-39.7	-51.3	3.8	8.46e-01	0	54	104	0	51	13383
2026-01-26 03:46:50.22	7.64	3.53	-39.7	-51.3	3.8	8.46e-01	0	54	104	0	51	13309
2026-01-26 03:46:53.25	7.38	3.69	-39.7	-51.3	3.8	8.46e-01	0	54	104	0	51	13302
2026-01-26 03:46:56.28	7.12	3.86	-39.7	-51.3	3.8	8.47e-01	0	55	104	0	51	13273
2026-01-26 03:46:59.31	6.86	4.03	-39.7	-51.3	3.8	8.47e-01	0	55	104	0	51	13266
2026-01-26 03:47:02.34	6.59	4.19	-39.7	-51.2	3.8	8.46e-01	0	55	104	0	51	13199
2026-01-26 03:47:05.37	6.32	4.36	-39.7	-51.2	3.8	8.46e-01	0	55	104	0	51	13221
2026-01-26 03:47:08.40	6.05	4.53	-39.7	-51.2	3.8	8.46e-01	0	55	104	0	51	13219
2026-01-26 03:47:11.43	5.78	4.70	-39.7	-51.2	3.8	8.46e-01	0	55	104	0	51	13187
2026-01-26 03:47:14.46	5.50	4.87	-39.7	-51.2	3.8	8.46e-01	0	56	104	0	51	13231
2026-01-26 03:47:17.49	5.22	5.03	-39.7	-51.2	3.8	8.46e-01	0	56	104	0	51	13219
2026-01-26 03:47:20.52	4.93	5.20	-39.7	-51.3	3.8	8.46e-01	0	56	104	0	51	13271
2026-01-26 03:47:23.56	4.64	5.38	-39.7	-51.2	3.8	8.46e-01	0	56	104	0	51	13195
2026-01-26 03:47:26.59	4.35	5.55	-39.7	-51.2	3.8	8.46e-01	0	56	104	0	51	13218
2026-01-26 03:47:29.62	4.05	5.72	-39.7	-51.2	3.8	8.45e-01	0	56	104	0	51	13207
2026-01-26 03:47:32.65	3.75	5.89	-39.7	-51.2	3.8	8.46e-01	0	57	104	0	51	13210
2026-01-26 03:47:35.68	3.45	6.06	-39.6	-51.2	3.8	8.47e-01	0	57	104	0	51	13203
2026-01-26 03:47:38.71	3.14	6.23	-39.7	-51.2	3.8	8.46e-01	0	57	104	0	51	13142
2026-01-26 03:47:41.75	2.83	6.40	-39.7	-51.2	3.8	8.45e-01	0	57	104	0	51	13197
2026-01-26 03:47:44.78	2.52	6.58	-39.7	-51.2	3.8	8.46e-01	0	57	104	0	51	13203
2026-01-26 03:47:47.81	2.20	6.75	-39.7	-51.2	3.8	8.45e-01	0	57	104	0	51	13202
2026-01-26 03:47:50.84	1.88	6.92	-39.6	-51.2	3.8	8.46e-01	0	57	104	0	51	13201
2026-01-26 03:47:53.87	1.55	7.10	-39.7	-51.2	3.8	8.46e-01	0	57	104	0	51	13197
2026-01-26 03:47:56.90	1.22	7.27	-39.6	-51.2	3.8	8.46e-01	0	57	104	0	51	13184
2026-01-26 03:47:59.93	0.88	7.45	-39.6	-51.2	3.8	8.46e-01	0	58	104	0	51	13199
2026-01-26 03:48:02.97	0.54	7.62	-39.6	-51.2	3.8	8.46e-01	0	57	104	0	51	13188
2026-01-26 03:48:06.00	0.20	7.80	-39.7	-51.2	3.8	8.47e-01	0	58	104	0	51	13179
2026-01-26 03:48:09.03	359.85	7.97	-39.7	-51.2	3.8	8.46e-01	0	58	104	0	51	13215
2026-01-26 03:48:12.06	359.50	8.15	-39.9	-51.4	3.8	8.47e-01	0	58	104	0	51	13552
2026-01-26 03:48:15.09	359.15	8.32	-39.9	-51.4	3.8	8.46e-01	0	58	104	0	51	13516
2026-01-26 03:48:18.12	358.79	8.50	-39.9	-51.4	3.8	8.45e-01	0	58	104	0	51	13483
2026-01-26 03:48:21.15	358.42	8.67	-39.7	-51.3	3.8	8.47e-01	0	58	104	0	51	13271
2026-01-26 03:48:24.18	358.05	8.85	-39.8	-51.4	3.8	8.46e-01	0	58	104	0	51	13484
2026-01-26 03:48:27.21	357.68	9.02	-39.8	-51.3	3.8	8.47e-01	0	58	104	0	51	13347
2026-01-26 03:48:30.24	357.30	9.20	-39.8	-51.4	3.8	8.46e-01	0	58	104	0	51	13440
2026-01-26 03:48:33.27	356.91	9.38	-39.7	-51.3	3.8	8.46e-01	0	59	104	0	51	13334
2026-01-26 03:48:36.30	356.53	9.55	-39.9	-51.4	3.8	8.47e-01	0	59	104	0	51	13532
2026-01-26 03:48:39.33	356.13	9.73	-39.8	-51.3	3.8	8.46e-01	0	59	104	0	51	13383
2026-01-26 03:48:42.36	355.74	9.90	-40.1	-51.6	3.8	8.47e-01	0	59	104	0	51	13775
2026-01-26 03:48:45.40	355.33	10.08	-39.9	-51.4	3.8	8.46e-01	0	59	104	0	51	13548
2026-01-26 03:48:48.43	354.92	10.25	-40.1	-51.6	3.8	8.46e-01	0	59	104	0	51	13847
2026-01-26 03:48:51.46	354.51	10.43	-40.2	-51.7	3.8	8.46e-01	0	59	104	0	51	13966
2026-01-26 03:48:54.49	354.09	10.60	-40.2	-51.7	3.8	8.47e-01	0	59	104	0	51	14038
2026-01-26 03:48:57.52	353.67	10.78	-40.2	-51.8	3.8	8.46e-01	0	59	104	0	51	14064
2026-01-26 03:49:00.56	353.24	10.95	-40.2	-51.7	3.8	8.46e-01	0	59	104	0	51	13968
2026-01-26 03:49:03.58	352.81	11.13	-40.3	-51.9	3.8	8.47e-01	0	60	104	0	51	14268
2026-01-26 03:49:06.62	352.37	11.30	-40.6	-52.1	3.8	8.45e-01	0	59	104	0	51	14657
2026-01-26 03:49:09.65	351.92	11.47	-40.6	-52.1	3.8	8.46e-01	0	60	104	0	51	14657
2026-01-26 03:49:12.68	351.47	11.65	-40.5	-52.0	3.8	8.47e-01	0	60	104	0	51	14507
2026-01-26 03:49:15.71	351.02	11.82	-40.5	-52.0	3.8	8.46e-01	0	60	104	0	52	13633
2026-01-26 03:49:18.74	350.55	11.99	-40.6	-52.2	3.8	8.46e-01	0	60	104	0	52	13924
2026-01-26 03:49:21.77	350.09	12.16	-40.6	-52.1	3.8	8.47e-01	0	60	104	0	52	13872
2026-01-26 03:49:24.80	349.62	12.33	-40.6	-52.2	3.8	8.47e-01	0	60	104	0	52	13932
2026-01-26 03:49:27.83	349.14	12.50	-40.8	-52.3	3.8	8.46e-01	0	60	104	0	52	14206
2026-01-26 03:49:30.85	348.66	12.67	-40.7	-52.3	3.8	8.48e-01	0	60	104	0	52	14144
2026-01-26 03:49:33.88	348.17	12.84	-41.1	-52.6	3.8	8.47e-01	0	60	104	0	52	14705
2026-01-26 03:49:36.91	347.67	13.01	-40.9	-52.5	3.8	8.45e-01	0	60	104	0	52	14463
2026-01-26 03:49:39.94	347.17	13.17	-41.2	-52.7	3.8	8.46e-01	0	60	104	0	52	14811
2026-01-26 03:49:42.97	346.67	13.34	-41.1	-52.7	3.8	8.47e-01	0	60	104	0	52	14750
2026-01-26 03:49:46.00	346.16	13.50	-40.7	-52.2	3.8	8.46e-01	0	60	104	0	52	14044
2026-01-26 03:49:49.03	345.64	13.66	-40.6	-52.2	3.8	8.45e-01	0	60	104	0	52	13889
2026-01-26 03:49:52.06	345.11	13.82	-40.7	-52.3	3.8	8.45e-01	0	60	104	0	52	14093
2026-01-26 03:49:55.09	344.59	13.98	-40.6	-52.2	3.8	8.47e-01	0	60	104	0	52	13961
2026-01-26 03:49:58.12	344.05	14.14	-40.5	-52.0	3.8	8.45e-01	0	60	104	0	52	13660
2026-01-26 03:50:01.14	343.51	14.30	-40.5	-52.0	3.8	8.47e-01	0	60	104	0	52	13711
2026-01-26 03:50:04.17	342.96	14.45	-40.6	-52.1	3.8	8.45e-01	0	60	104	0	52	13811
2026-01-26 03:50:07.20	342.41	14.61	-40.5	-52.0	3.8	8.45e-01	0	60	104	0	52	13660
2026-01-26 03:50:10.23	341.85	14.76	-40.3	-51.9	3.8	8.45e-01	0	60	104	0	52	13434
2026-01-26 03:50:13.26	341.29	14.91	-40.5	-52.0	3.8	8.47e-01	0	60	104	0	52	13681
2026-01-26 03:50:16.29	340.72	15.06	-40.6	-52.1	3.8	8.46e-01	0	61	104	0	52	13873
2026-01-26 03:50:19.32	340.14	15.20	-40.5	-51.9	3.8	8.47e-01	0	60	104	0	52	13495
2026-01-26 03:50:22.35	339.56	15.35	-40.8	-46.9	5.5	7.44e-01	0	60	0	0	53	7204
2026-01-26 03:50:25.37	338.98	15.49	-39.1	-42.2	10.4	9.11e-03	0	60	0	9437184	50	4958
2026-01-26 03:50:28.40	338.38	15.63	-37.4	-39.6	13.4	2.63e-05	0	61	0	26214400	46	4632
2026-01-26 03:50:31.43	337.79	15.77	-37.3	-39.3	14.1	5.70e-06	0	61	0	42991616	45	4712
2026-01-26 03:50:34.46	337.18	15.90	-37.3	-39.2	14.5	1.10e-06	0	61	0	59768832	46	4418
2026-01-26 03:50:37.49	336.57	16.04	-37.2	-39.0	15.1	1.10e-06	0	61	0	76546048	46	4306
2026-01-26 03:50:40.52	335.96	16.17	-37.0	-38.8	15.5	0.00e+00	0	60	0	94371840	46	4210
2026-01-26 03:50:43.55	335.34	16.29	-37.2	-38.9	15.5	0.00e+00	0	61	0	111149056	46	4256
2026-01-26 03:50:46.59	334.71	16.42	-37.1	-38.7	15.7	0.00e+00	0	61	0	127926272	46	4193
2026-01-26 03:50:49.61	334.08	16.54	-37.0	-38.6	15.9	0.00e+00	0	61	0	144703488	45	4382
2026-01-26 03:50:52.64	333.44	16.66	-36.9	-38.6	15.9	0.00e+00	0	61	0	162529280	45	4355
2026-01-26 03:50:55.67	332.80	16.77	-36.9	-38.5	16.0	0.00e+00	0	61	0	179306496	45	4338
2026-01-26 03:50:58.70	332.16	16.88	-36.7	-38.3	16.3	0.00e+00	0	61	0	196083712	45	4203
2026-01-26 03:51:01.73	331.51	16.99	-36.8	-38.3	16.3	0.00e+00	0	61	0	213909504	45	4235
2026-01-26 03:51:04.76	330.85	17.10	-36.7	-38.3	16.4	0.00e+00	0	61	0	230686720	45	4218
2026-01-26 03:51:07.79	330.19	17.20	-36.6	-38.2	16.5	0.00e+00	0	61	0	247463936	45	4168
2026-01-26 03:51:10.82	329.53	17.30	-36.5	-38.1	16.6	0.00e+00	0	61	0	264241152	45	4113
2026-01-26 03:51:13.85	328.86	17.40	-36.6	-38.1	16.6	0.00e+00	0	61	0	281018368	45	4144
2026-01-26 03:51:16.88	328.18	17.49	-36.7	-38.3	16.4	0.00e+00	0	61	0	298844160	45	4219
2026-01-26 03:51:19.91	327.50	17.58	-36.8	-38.3	16.4	0.00e+00	0	61	0	315621376	45	4227
2026-01-26 03:51:22.95	326.82	17.66	-36.8	-38.4	16.3	0.00e+00	0	61	0	332398592	45	4261
2026-01-26 03:51:25.97	326.14	17.74	-36.7	-38.3	16.5	0.00e+00	0	61	0	350224384	45	4199
2026-01-26 03:51:29.01	325.45	17.82	-36.8	-38.4	16.4	0.00e+00	0	61	0	367001600	45	4258
2026-01-26 03:51:32.04	324.75	17.89	-36.7	-38.3	16.5	0.00e+00	0	61	0	383778816	45	4204
2026-01-26 03:51:35.07	324.06	17.96	-36.7	-38.2	16.5	0.00e+00	0	61	0	400556032	45	4171
2026-01-26 03:51:38.10	323.36	18.02	-36.6	-38.1	16.6	0.00e+00	0	61	0	418381824	45	4130
2026-01-26 03:51:41.13	322.66	18.08	-36.6	-38.2	16.6	0.00e+00	0	61	0	435159040	45	4149
2026-01-26 03:51:44.17	321.95	18.13	-36.5	-38.0	16.8	0.00e+00	0	61	0	451936256	44	4295
2026-01-26 03:51:47.20	321.24	18.19	-36.4	-37.9	16.9	0.00e+00	0	61	0	468713472	44	4254
2026-01-26 03:51:50.23	320.54	18.23	-36.5	-38.0	16.8	0.00e+00	0	61	0	486539264	44	4300
2026-01-26 03:51:53.27	319.82	18.27	-36.5	-38.0	16.8	0.00e+00	0	61	0	503316480	44	4323
2026-01-26 03:51:56.30	319.11	18.31	-36.4	-37.9	16.9	0.00e+00	0	61	0	520093696	44	4250
2026-01-26 03:51:59.33	318.39	18.34	-36.3	-37.8	17.0	0.00e+00	0	61	0	537919488	44	4225
2026-01-26 03:52:02.36	317.68	18.37	-36.3	-37.8	17.0	0.00e+00	0	61	0	554696704	44	4207
2026-01-26 03:52:05.40	316.96	18.40	-36.4	-38.0	16.8	0.00e+00	0	61	0	571473920	44	4292
2026-01-26 03:52:08.43	316.24	18.42	-36.4	-37.9	16.9	0.00e+00	0	61	0	588251136	44	4276
2026-01-26 03:52:11.46	315.52	18.43	-36.4	-37.8	16.9	0.00e+00	0	61	0	605028352	44	4232
2026-01-26 03:52:14.49	314.80	18.44	-36.2	-37.6	17.1	0.00e+00	0	61	0	622854144	44	4137
2026-01-26 03:52:17.52	314.08	18.44	-36.2	-37.6	17.1	0.00e+00	0	61	0	639631360	44	4140
2026-01-26 03:52:20.56	313.35	18.45	-35.8	-37.2	17.4	0.00e+00	0	61	0	656408576	43	4179
2026-01-26 03:52:23.59	312.63	18.44	-36.0	-37.5	17.1	0.00e+00	0	61	0	674234368	43	4298
2026-01-26 03:52:26.62	311.91	18.43	-36.1	-37.6	17.1	0.00e+00	0	61	0	691011584	43	4342
2026-01-26 03:52:29.66	311.19	18.42	-36.2	-37.7	16.9	0.00e+00	0	61	0	707788800	43	4413
2026-01-26 03:52:32.69	310.47	18.40	-36.5	-38.0	16.6	0.00e+00	0	61	0	724566016	43	4594
2026-01-26 03:52:35.72	309.75	18.38	-36.3	-37.8	16.9	0.00e+00	0	61	0	742391808	43	4451
2026-01-26 03:52:38.74	309.04	18.35	-36.2	-37.7	17.0	0.00e+00	0	61	0	759169024	43	4394
2026-01-26 03:52:41.77	308.32	18.32	-35.9	-37.4	17.2	0.00e+00	0	61	0	775946240	43	4246
2026-01-26 03:52:44.80	307.61	18.28	-36.0	-37.5	17.1	0.00e+00	0	61	0	792723456	43	4298
2026-01-26 03:52:47.83	306.90	18.24	-36.1	-37.6	17.0	0.00e+00	0	61	0	810549248	43	4369
2026-01-26 03:52:50.86	306.19	18.19	-36.0	-37.5	17.1	0.00e+00	0	61	0	827326464	43	4301
2026-01-26 03:52:53.89	305.48	18.14	-36.2	-37.7	16.9	0.00e+00	0	61	0	844103680	43	4400
2026-01-26 03:52:56.92	304.77	18.09	-36.2	-37.7	16.9	0.00e+00	0	61	0	860880896	43	4431
2026-01-26 03:52:59.95	304.07	18.03	-36.4	-37.9	16.7	0.00e+00	0	61	0	878706688	43	4535
2026-01-26 03:53:02.98	303.37	17.97	-36.3	-37.8	16.8	0.00e+00	0	61	0	895483904	43	4486
2026-01-26 03:53:06.01	302.67	17.90	-36.4	-37.9	16.7	0.00e+00	0	61	0	912261120	43	4539
2026-01-26 03:53:09.05	301.97	17.83	-36.4	-38.0	16.6	0.00e+00	0	61	0	929038336	43	4570
2026-01-26 03:53:12.08	301.28	17.75	-36.5	-38.1	16.5	0.00e+00	0	61	0	946864128	43	4599
2026-01-26 03:53:15.11	300.60	17.67	-36.4	-38.0	16.6	0.00e+00	0	61	0	963641344	43	4564
2026-01-26 03:53:18.14	299.91	17.59	-36.5	-38.1	16.5	0.00e+00	0	61	0	980418560	43	4605
2026-01-26 03:53:21.17	299.23	17.50	-36.6	-38.1	16.4	0.00e+00	0	61	0	997195776	43	4648
2026-01-26 03:53:24.20	298.56	17.41	-36.6	-38.2	16.3	0.00e+00	0	61	0	1015021568	43	4675
2026-01-26 03:53:27.23	297.89	17.32	-36.4	-37.9	16.6	0.00e+00	0	61	0	1031798784	43	4533
2026-01-26 03:53:30.26	297.22	17.22	-36.4	-38.0	16.6	0.00e+00	0	61	0	1048576000	43	4551
2026-01-26 03:53:33.29	296.56	17.11	-36.4	-38.0	16.5	0.00e+00	0	61	0	1066401792	43	4563
2026-01-26 03:53:36.32	295.90	17.01	-36.5	-38.0	16.4	0.00e+00	0	62	0	1083179008	43	4598
2026-01-26 03:53:39.35	295.24	16.90	-36.7	-38.3	16.2	0.00e+00	0	61	0	1099956224	43	4738
2026-01-26 03:53:42.38	294.60	16.79	-36.8	-38.3	16.4	0.00e+00	0	61	0	1116733440	44	4479
2026-01-26 03:53:45.42	293.95	16.67	-36.8	-38.4	16.3	0.00e+00	0	61	0	1133510656	44	4498
2026-01-26 03:53:48.45	293.31	16.55	-36.6	-38.2	16.4	0.00e+00	0	61	0	1151336448	44	4410
2026-01-26 03:53:51.48	292.68	16.43	-36.7	-38.2	16.3	0.00e+00	0	61	0	1168113664	44	4441
2026-01-26 03:53:54.51	292.05	16.31	-36.8	-38.4	16.2	0.00e+00	0	61	0	1184890880	44	4533
2026-01-26 03:53:57.55	291.42	16.18	-36.9	-38.6	16.0	0.00e+00	0	61	0	1202716672	44	4614
2026-01-26 03:54:00.58	290.81	16.05	-36.9	-38.5	16.1	0.00e+00	0	62	0	1219493888	44	4564
2026-01-26 03:54:03.61	290.19	15.92	-37.2	-38.9	15.7	0.00e+00	0	61	0	1236271104	44	4761
2026-01-26 03:54:06.64	289.59	15.78	-37.1	-38.8	15.8	0.00e+00	0	61	0	1253048320	44	4745
2026-01-26 03:54:09.67	288.99	15.65	-37.1	-38.8	15.8	0.00e+00	0	61	0	1270874112	44	4708
2026-01-26 03:54:12.70	288.39	15.51	-37.1	-38.8	15.7	0.00e+00	0	61	0	1287651328	44	4713
2026-01-26 03:54:15.74	287.80	15.36	-37.1	-38.8	15.7	0.00e+00	0	62	0	1304428544	44	4736
2026-01-26 03:54:18.77	287.21	15.22	-37.0	-38.7	15.8	0.00e+00	0	61	0	1321205760	45	4417
2026-01-26 03:54:21.80	286.63	15.07	-37.1	-38.8	15.6	0.00e+00	0	61	0	1339031552	45	4464
2026-01-26 03:54:24.83	286.06	14.92	-37.3	-39.1	15.4	0.00e+00	0	61	0	1355808768	45	4607
2026-01-26 03:54:27.87	285.49	14.77	-37.2	-38.9	15.4	0.00e+00	0	61	0	1372585984	45	4533
2026-01-26 03:54:30.90	284.93	14.62	-37.2	-39.0	15.4	0.00e+00	0	61	0	1390411776	45	4566
2026-01-26 03:54:33.93	284.37	14.47	-37.5	-39.3	15.1	0.00e+00	0	61	0	1407188992	45	4754
2026-01-26 03:54:36.96	283.82	14.31	-37.5	-39.2	15.1	0.00e+00	0	61	0	1423966208	45	4705
2026-01-26 03:54:39.99	283.28	14.15	-37.4	-39.2	15.1	0.00e+00	0	62	0	1440743424	45	4701
2026-01-26 03:54:43.03	282.74	14.00	-37.5	-39.3	15.0	0.00e+00	0	61	0	1458569216	45	4733
2026-01-26 03:54:46.06	282.21	13.84	-37.6	-39.4	14.9	0.00e+00	0	62	0	1475346432	45	4810
2026-01-26 03:54:49.09	281.68	13.67	-37.7	-39.6	14.7	0.00e+00	0	62	0	1492123648	45	4892
2026-01-26 03:54:52.12	281.16	13.51	-37.8	-39.7	14.7	2.20e-06	0	62	0	1509949440	46	4672
2026-01-26 03:54:55.15	280.64	13.35	-37.6	-39.5	14.8	0.00e+00	0	61	0	1526726656	46	4548
2026-01-26 03:54:58.18	280.14	13.18	-37.8	-39.7	14.6	0.00e+00	0	62	0	1543503872	46	4674
2026-01-26 03:55:01.22	279.63	13.02	-37.6	-39.5	14.8	0.00e+00	0	61	0	1560281088	46	4548
2026-01-26 03:55:04.25	279.13	12.85	-37.6	-39.5	14.7	0.00e+00	0	62	0	1577058304	46	4577
2026-01-26 03:55:07.28	278.64	12.68	-37.6	-39.6	14.6	0.00e+00	0	61	0	1594884096	46	4606
2026-01-26 03:55:10.31	278.15	12.51	-37.6	-39.4	14.8	0.00e+00	0	61	0	1611661312	46	4534
2026-01-26 03:55:13.34	277.67	12.34	-37.7	-39.6	14.6	1.10e-06	0	62	0	1628438528	46	4633
2026-01-26 03:55:16.37	277.20	12.17	-37.8	-39.8	14.4	1.10e-06	0	61	0	1645215744	46	4708
2026-01-26 03:55:19.40	276.73	12.00	-37.8	-39.7	14.4	0.00e+00	0	61	0	1663041536	46	4684
2026-01-26 03:55:22.44	276.26	11.83	-37.9	-40.0	14.1	2.20e-06	0	62	0	1679818752	46	4819
2026-01-26 03:55:25.47	275.80	11.65	-38.0	-40.1	13.9	3.40e-06	0	61	0	1696595968	46	4872
2026-01-26 03:55:28.50	275.35	11.48	-38.0	-40.0	13.9	9.10e-06	0	62	0	1714421760	46	4867
2026-01-26 03:55:31.53	274.90	11.31	-38.1	-40.3	13.5	1.94e-05	0	61	0	1731198976	46	5000
2026-01-26 03:55:34.56	274.46	11.13	-38.2	-40.5	13.2	2.28e-05	0	61	0	1747976192	47	4834
2026-01-26 03:55:37.59	274.02	10.96	-38.3	-40.5	13.1	5.49e-05	0	62	0	1764753408	47	4868
2026-01-26 03:55:40.62	273.59	10.78	-38.3	-40.6	12.9	6.98e-05	0	61	0	1781530624	47	4884
2026-01-26 03:55:43.65	273.16	10.61	-38.4	-40.9	12.4	1.48e-04	0	61	0	1799356416	47	5089
2026-01-26 03:55:46.68	272.74	10.43	-38.7	-41.3	12.0	4.84e-04	0	62	0	1816133632	47	5302
2026-01-26 03:55:49.71	272.33	10.26	-38.9	-41.6	11.6	9.10e-04	0	62	0	1832910848	48	5212
2026-01-26 03:55:52.74	271.91	10.08	-39.0	-41.9	11.2	1.79e-03	0	62	0	1850736640	48	5349
2026-01-26 03:55:55.77	271.51	9.90	-38.9	-41.8	11.1	2.02e-03	0	62	0	1867513856	48	5338
2026-01-26 03:55:58.81	271.10	9.73	-38.9	-41.8	11.1	2.19e-03	0	62	0	1884291072	48	5296
2026-01-26 03:56:01.84	270.71	9.55	-38.9	-41.9	10.9	3.11e-03	0	62	0	1901068288	48	5377
2026-01-26 03:56:04.86	270.32	9.38	-39.0	-42.2	10.4	5.66e-03	0	62	0	1918894080	48	5544
2026-01-26 03:56:07.89	269.93	9.20	-39.2	-42.6	9.9	1.12e-02	0	62	0	1935671296	48	5823
2026-01-26 03:56:10.92	269.55	9.02	-39.5	-43.4	8.7	3.42e-02	0	62	0	1952448512	49	6058
2026-01-26 03:56:13.95	269.17	8.85	-40.0	-44.6	7.4	1.16e-01	0	61	0	1969225728	50	6559
2026-01-26 03:56:16.98	268.80	8.67	-40.3	-45.8	6.2	2.91e-01	0	62	0	1987051520	51	7049
2026-01-26 03:56:20.02	268.43	8.49	-41.1	-46.9	5.9	3.30e-01	0	62	0	1999634432	52	7620
2026-01-26 03:56:23.04	268.06	8.32	-41.0	-48.4	4.6	7.93e-01	0	62	0	2001731584	52	9067
2026-01-26 03:56:26.08	267.70	8.14	-40.7	-48.1	4.6	8.10e-01	0	62	0	2001731584	52	8740
2026-01-26 03:56:29.10	267.35	7.97	-44.1	-55.3	3.8	8.44e-01	0	62	104	2001731584	58	14177
2026-01-26 03:56:32.13	267.00	7.79	-44.8	-56.7	3.8	8.46e-01	0	61	104	2001731584	60	14721
2026-01-26 03:56:35.16	266.65	7.62	-45.0	-56.7	3.8	8.46e-01	0	62	104	2001731584	60	14864
2026-01-26 03:56:38.19	266.31	7.44	-45.1	-56.8	3.8	8.46e-01	0	62	104	2001731584	60	14991
2026-01-26 03:56:41.22	265.97	7.27	-45.0	-56.7	3.8	8.46e-01	0	62	104	2001731584	60	14744
2026-01-26 03:56:44.25	265.64	7.09	-44.9	-56.7	3.8	8.46e-01	0	62	104	2001731584	60	14724
2026-01-26 03:56:47.29	265.31	6.92	-44.9	-56.6	3.8	8.47e-01	0	62	104	2001731584	60	14675
2026-01-26 03:56:50.32	264.98	6.74	-44.9	-56.6	3.8	8.46e-01	0	62	104	2001731584	60	14556
2026-01-26 03:56:53.35	264.66	6.57	-44.9	-56.6	3.8	8.48e-01	0	62	104	2001731584	60	14563
2026-01-26 03:56:56.38	264.34	6.40	-44.8	-56.6	3.8	8.45e-01	0	62	104	2001731584	60	14618
2026-01-26 03:56:59.41	264.03	6.22	-44.8	-56.5	3.8	8.46e-01	0	62	104	2001731584	60	14473
2026-01-26 03:57:02.44	263.72	6.05	-44.8	-56.5	3.8	8.46e-01	0	62	104	2001731584	60	14467
2026-01-26 03:57:05.47	263.41	5.88	-44.8	-56.5	3.8	8.46e-01	0	62	104	2001731584	60	14451
2026-01-26 03:57:08.51	263.11	5.71	-44.7	-56.5	3.8	8.46e-01	0	62	104	2001731584	60	14427
2026-01-26 03:57:11.54	262.81	5.54	-44.7	-56.4	3.8	8.45e-01	0	62	104	2001731584	60	14368
2026-01-26 03:57:14.57	262.51	5.36	-44.7	-56.4	3.8	8.46e-01	0	62	104	2001731584	60	14344
2026-01-26 03:57:17.60	262.22	5.19	-44.7	-56.4	3.8	8.46e-01	0	62	104	2001731584	60	14344
2026-01-26 03:57:20.63	261.93	5.02	-44.7	-56.5	3.8	8.46e-01	0	62	104	2001731584	60	14459
2026-01-26 03:57:23.66	261.64	4.85	-44.7	-56.4	3.8	8.45e-01	0	62	104	2001731584	60	14368
2026-01-26 03:57:26.69	261.36	4.68	-44.7	-56.5	3.8	8.47e-01	0	62	104	2001731584	60	14425
2026-01-26 03:57:29.73	261.08	4.51	-44.7	-56.5	3.8	8.46e-01	0	62	104	2001731584	60	14384
2026-01-26 03:57:32.76	260.81	4.35	-44.7	-56.4	3.8	8.46e-01	0	62	104	2001731584	60	14343
2026-01-26 03:57:35.79	260.53	4.18	-44.7	-56.4	3.8	8.47e-01	0	62	104	2001731584	60	14348
2026-01-26 03:57:38.82	260.27	4.01	-44.7	-56.4	3.8	8.47e-01	0	62	104	2001731584	60	14316
2026-01-26 03:57:41.85	260.00	3.84	-44.7	-56.5	3.8	8.46e-01	0	62	104	2001731584	60	14432
2026-01-26 03:57:44.89	259.74	3.68	-44.7	-56.4	3.8	8.47e-01	0	62	104	2001731584	60	14371
2026-01-26 03:57:47.92	259.48	3.51	-44.7	-56.5	3.8	8.46e-01	0	62	104	2001731584	60	14425
2026-01-26 03:57:50.95	259.22	3.34	-44.7	-56.5	3.8	8.46e-01	0	62	104	2001731584	60	14469
2026-01-26 03:57:53.98	258.97	3.18	-44.7	-56.4	3.8	8.47e-01	0	62	104	2001731584	60	14342
2026-01-26 03:57:57.01	258.72	3.01	-44.7	-56.4	3.8	8.47e-01	0	62	104	2001731584	60	14302
2026-01-26 03:58:00.05	258.47	2.85	-44.7	-56.4	3.8	8.46e-01	0	62	104	2001731584	60	14359
2026-01-26 03:58:03.08	258.22	2.69	-44.7	-56.4	3.8	8.46e-01	0	62	104	2001731584	60	14343
2026-01-26 03:58:06.11	257.98	2.52	-44.7	-56.4	3.8	8.46e-01	0	62	104	2001731584	60	14370
2026-01-26 03:58:09.14	257.74	2.36	-44.7	-56.4	3.8	8.46e-01	0	62	104	2001731584	60	14278
2026-01-26 03:58:12.17	257.50	2.20	-44.7	-56.4	3.8	8.46e-01	0	62	104	2001731584	60	14348
2026-01-26 03:58:15.21	257.27	2.04	-44.7	-56.4	3.8	8.46e-01	0	62	104	2001731584	60	14296
2026-01-26 03:58:18.24	257.04	1.87	-44.7	-56.4	3.8	8.46e-01	0	62	104	2001731584	60	14342

#Closed at: 2026-01-26 03:58:18
#Recorded file [2001 MB]: D:/lorett/data/31039_260126_064622.dat