passes_logs/2026/01/26/R2.0S_Moscow/R2.0S_Moscow__20260126_122547_AQUA_rec.log

#Pass ID: 20260126_122547_AQUA
#Satellite: AQUA
#Configuration: AQUA
#almurnet v.1.7.20251203
#Start time: 2026-01-26 12:25:48

#Version: 2.2.20231116
#Station: R2.0S_Moscow
#Location: 37.707566 lon 55.798166 lat
#TLE: 1 27424U 02022A   26025.63222646  .00001891  00000+0  38818-3 0  9990
#TLE: 2 27424  98.4099 352.2393 0001892  65.6900 348.5270 14.61859542262445

#Time	Az	El	Level	Level2	SNR	BER	BlckErr	Temp	State	Recorded	gain1	gain2
2026-01-26 12:25:48.52	184.58	2.06	-45.0	-63.6	3.8	7.45e-01	0	53	0	0	61	30768
2026-01-26 12:25:51.54	184.72	2.26	-45.0	-63.5	3.8	7.44e-01	0	54	104	0	60	32549
2026-01-26 12:25:54.57	184.85	2.46	-45.0	-63.6	3.8	7.45e-01	0	54	104	0	60	32597
2026-01-26 12:25:57.61	184.98	2.66	-45.0	-63.6	3.8	7.44e-01	0	54	104	0	60	32618
2026-01-26 12:26:00.64	185.12	2.86	-45.0	-63.6	3.8	7.45e-01	0	54	104	0	60	32575
2026-01-26 12:26:03.67	185.26	3.06	-45.0	-63.6	3.8	7.45e-01	0	55	104	0	60	32607
2026-01-26 12:26:06.70	185.40	3.26	-45.0	-63.6	3.8	7.45e-01	0	55	104	0	60	32571
2026-01-26 12:26:09.73	185.54	3.46	-45.0	-63.5	3.8	7.45e-01	0	55	104	0	60	32468
2026-01-26 12:26:12.76	185.69	3.67	-45.0	-63.6	3.8	7.45e-01	0	55	104	0	60	32580
2026-01-26 12:26:15.79	185.84	3.88	-45.0	-63.6	3.8	7.43e-01	0	56	104	0	60	32579
2026-01-26 12:26:18.82	185.99	4.09	-45.0	-63.5	3.8	7.45e-01	0	55	104	0	60	32296
2026-01-26 12:26:21.85	186.14	4.30	-45.0	-63.4	3.8	7.47e-01	0	56	104	0	60	32080
2026-01-26 12:26:24.88	186.29	4.51	-45.0	-63.0	3.8	7.45e-01	0	56	104	0	60	30686
2026-01-26 12:26:27.92	186.45	4.72	-45.0	-62.5	3.8	7.46e-01	0	56	104	0	60	28999
2026-01-26 12:26:30.95	186.61	4.94	-44.9	-62.2	3.8	7.44e-01	0	56	104	0	60	27953
2026-01-26 12:26:33.98	186.77	5.16	-44.9	-61.4	3.8	7.44e-01	0	56	104	0	60	25552
2026-01-26 12:26:37.01	186.93	5.38	-44.9	-60.0	4.0	7.32e-01	0	57	104	0	60	21542
2026-01-26 12:26:40.04	187.10	5.60	-44.8	-57.5	5.3	7.01e-01	3	57	0	0	60	16136
2026-01-26 12:26:43.07	187.27	5.82	-44.5	-54.8	7.4	6.57e-01	92	57	0	4194304	60	11954
2026-01-26 12:26:46.10	187.44	6.05	-44.2	-52.9	9.3	6.31e-01	0	57	0	9961472	60	9535
2026-01-26 12:26:49.14	187.61	6.28	-44.0	-51.5	10.8	6.18e-01	0	57	0	15728640	60	8150
2026-01-26 12:26:52.17	187.79	6.51	-44.2	-51.5	11.2	6.15e-01	0	57	0	20971520	59	8626
2026-01-26 12:26:55.20	187.97	6.74	-44.3	-52.1	10.7	6.19e-01	0	57	0	26738688	59	9216
2026-01-26 12:26:58.23	188.16	6.97	-44.4	-52.8	9.9	6.22e-01	0	58	0	32505856	59	9945
2026-01-26 12:27:01.26	188.34	7.21	-44.3	-52.0	10.7	6.20e-01	0	58	0	38273024	59	9119
2026-01-26 12:27:04.30	188.53	7.45	-43.6	-49.6	13.2	6.10e-01	0	58	0	44040192	59	6913
2026-01-26 12:27:07.33	188.72	7.69	-42.8	-47.5	15.4	6.06e-01	0	58	0	49807360	57	6084
2026-01-26 12:27:10.36	188.92	7.93	-42.5	-46.7	16.2	6.09e-01	0	58	0	55574528	56	5865
2026-01-26 12:27:13.39	189.12	8.17	-44.0	-50.4	11.3	6.14e-01	0	58	0	60293120	59	7589
2026-01-26 12:27:16.42	189.32	8.42	-42.7	-46.9	15.9	6.08e-01	0	58	0	64487424	57	5703
2026-01-26 12:27:19.45	189.53	8.67	-42.5	-46.7	16.3	6.08e-01	0	58	0	70254592	57	5557
2026-01-26 12:27:22.48	189.74	8.92	-42.4	-46.3	16.7	6.06e-01	0	59	0	76021760	56	5653
2026-01-26 12:27:25.51	189.95	9.18	-42.6	-46.7	16.3	6.06e-01	0	59	0	81788928	56	5892
2026-01-26 12:27:28.54	190.17	9.44	-42.5	-46.5	16.5	6.06e-01	0	59	0	87556096	56	5788
2026-01-26 12:27:31.56	190.39	9.70	-42.3	-46.1	17.1	6.06e-01	0	59	0	92798976	56	5480
2026-01-26 12:27:34.59	190.62	9.96	-42.2	-45.9	17.2	6.06e-01	0	59	0	98566144	56	5398
2026-01-26 12:27:37.63	190.85	10.23	-42.2	-45.9	17.3	6.05e-01	0	59	0	104333312	56	5355
2026-01-26 12:27:40.66	191.09	10.49	-42.3	-46.0	17.2	6.07e-01	0	59	0	110100480	56	5430
2026-01-26 12:27:43.69	191.32	10.77	-42.3	-45.9	17.4	6.05e-01	0	59	0	115867648	56	5360
2026-01-26 12:27:46.72	191.57	11.04	-42.2	-45.8	17.5	6.06e-01	0	59	0	121110528	56	5295
2026-01-26 12:27:49.75	191.82	11.32	-42.2	-45.8	17.5	6.06e-01	0	59	0	126877696	56	5300
2026-01-26 12:27:52.78	192.07	11.60	-42.1	-45.6	17.6	6.06e-01	0	59	0	132644864	56	5203
2026-01-26 12:27:55.81	192.33	11.88	-41.9	-45.4	17.8	6.09e-01	0	59	0	138412032	55	5350
2026-01-26 12:27:58.83	192.59	12.17	-42.0	-45.4	17.8	6.06e-01	0	60	0	144179200	55	5383
2026-01-26 12:28:01.86	192.86	12.46	-42.0	-45.5	17.7	6.06e-01	0	60	0	149946368	55	5433
2026-01-26 12:28:04.89	193.14	12.75	-41.9	-45.3	17.9	6.04e-01	0	60	0	155713536	55	5309
2026-01-26 12:28:07.92	193.42	13.05	-41.9	-45.2	18.0	6.05e-01	0	60	0	160956416	55	5263
2026-01-26 12:28:10.95	193.71	13.35	-41.8	-45.1	18.1	6.06e-01	0	60	0	166723584	55	5215
2026-01-26 12:28:13.98	194.00	13.66	-41.9	-45.2	18.1	6.05e-01	0	60	0	172490752	55	5247
2026-01-26 12:28:17.01	194.30	13.96	-41.7	-45.0	18.2	6.05e-01	0	60	0	178257920	55	5125
2026-01-26 12:28:20.04	194.60	14.28	-41.8	-45.0	18.2	6.04e-01	0	60	0	184025088	55	5143
2026-01-26 12:28:23.07	194.92	14.59	-41.7	-44.9	18.4	6.05e-01	0	60	0	189267968	55	5097
2026-01-26 12:28:26.09	195.24	14.91	-41.6	-44.7	18.6	6.06e-01	0	60	0	195035136	55	4977
2026-01-26 12:28:29.12	195.56	15.23	-41.8	-44.9	18.4	6.07e-01	0	60	0	200802304	55	5100
2026-01-26 12:28:32.15	195.90	15.56	-41.8	-44.9	18.4	6.07e-01	0	60	0	206569472	55	5099
2026-01-26 12:28:35.18	196.24	15.89	-41.7	-44.9	18.5	6.05e-01	0	60	0	212336640	55	5046
2026-01-26 12:28:38.21	196.59	16.23	-41.7	-44.9	18.5	6.06e-01	0	60	0	218103808	55	5070
2026-01-26 12:28:41.24	196.95	16.57	-41.7	-44.8	18.7	6.05e-01	0	60	0	223870976	55	4985
2026-01-26 12:28:44.28	197.31	16.91	-41.5	-44.6	18.9	6.07e-01	0	60	0	229113856	55	4879
2026-01-26 12:28:47.31	197.69	17.26	-41.6	-44.7	18.8	6.08e-01	0	60	0	234881024	55	4937
2026-01-26 12:28:50.34	198.07	17.61	-41.7	-44.8	18.7	6.07e-01	0	61	0	240648192	55	5003
2026-01-26 12:28:53.37	198.47	17.97	-41.6	-44.6	18.9	6.07e-01	0	61	0	246415360	55	4913
2026-01-26 12:28:56.40	198.87	18.33	-41.7	-44.8	18.7	6.05e-01	0	60	0	252182528	55	5025
2026-01-26 12:28:59.42	199.28	18.69	-41.7	-44.8	18.7	6.05e-01	0	60	0	257949696	55	5038
2026-01-26 12:29:02.45	199.70	19.06	-41.8	-45.0	18.6	6.07e-01	0	61	0	263192576	55	5101
2026-01-26 12:29:05.48	200.14	19.44	-41.7	-44.8	18.7	6.06e-01	0	60	0	268959744	55	5013
2026-01-26 12:29:08.51	200.58	19.82	-41.6	-44.6	19.0	6.07e-01	0	61	0	274726912	55	4919
2026-01-26 12:29:11.54	201.04	20.20	-41.8	-45.0	18.6	6.08e-01	0	61	0	280494080	55	5119
2026-01-26 12:29:14.57	201.51	20.59	-41.8	-44.9	18.7	6.06e-01	0	61	0	286261248	55	5053
2026-01-26 12:29:17.60	201.99	20.99	-41.9	-45.1	18.5	6.06e-01	0	61	0	292028416	55	5209
2026-01-26 12:29:20.63	202.49	21.39	-42.0	-45.1	18.5	6.07e-01	0	61	0	297271296	55	5213
2026-01-26 12:29:23.66	202.99	21.79	-42.0	-45.3	18.3	6.07e-01	0	61	0	303038464	55	5307
2026-01-26 12:29:26.69	203.52	22.20	-41.9	-45.0	18.6	6.04e-01	0	61	0	308805632	55	5124
2026-01-26 12:29:29.72	204.05	22.61	-41.9	-45.0	18.6	6.06e-01	0	61	0	314572800	55	5152
2026-01-26 12:29:32.75	204.60	23.03	-42.0	-45.1	18.5	6.05e-01	0	61	0	320339968	55	5203
2026-01-26 12:29:35.78	205.17	23.46	-42.0	-45.1	18.5	6.06e-01	0	61	0	326107136	55	5190
2026-01-26 12:29:38.81	205.75	23.89	-42.0	-45.2	18.5	6.05e-01	0	61	0	331350016	55	5234
2026-01-26 12:29:41.84	206.35	24.32	-42.1	-45.3	18.4	6.05e-01	0	61	0	337117184	55	5283
2026-01-26 12:29:44.87	206.96	24.76	-41.9	-45.0	18.7	6.05e-01	0	61	0	342884352	55	5157
2026-01-26 12:29:47.90	207.60	25.20	-41.9	-45.0	18.7	6.05e-01	0	61	0	348651520	55	5139
2026-01-26 12:29:50.93	208.25	25.65	-42.0	-45.2	18.6	6.05e-01	0	61	0	354418688	55	5227
2026-01-26 12:29:53.96	208.92	26.10	-41.9	-45.0	18.8	6.04e-01	0	61	0	360185856	55	5105
2026-01-26 12:29:56.99	209.61	26.55	-42.0	-45.1	18.7	6.07e-01	0	61	0	365428736	55	5173
2026-01-26 12:30:00.02	210.32	27.01	-41.9	-45.0	18.7	6.04e-01	0	61	0	371195904	55	5143
2026-01-26 12:30:03.05	211.05	27.48	-42.0	-45.1	18.6	6.08e-01	0	61	0	376963072	55	5208
2026-01-26 12:30:06.08	211.81	27.94	-42.0	-45.1	18.7	6.07e-01	0	61	0	382730240	55	5194
2026-01-26 12:30:09.10	212.58	28.41	-41.9	-45.0	18.8	6.07e-01	0	61	0	388497408	55	5132
2026-01-26 12:30:12.13	213.39	28.88	-41.9	-45.0	18.8	6.06e-01	0	61	0	394264576	55	5118
2026-01-26 12:30:15.16	214.21	29.36	-41.9	-45.0	18.7	6.08e-01	0	61	0	399507456	55	5153
2026-01-26 12:30:18.19	215.06	29.84	-41.9	-45.0	18.8	6.07e-01	0	61	0	405274624	55	5146
2026-01-26 12:30:21.22	215.94	30.32	-42.0	-45.2	18.6	6.07e-01	0	61	0	411041792	55	5220
2026-01-26 12:30:24.25	216.84	30.80	-41.9	-45.0	18.8	6.06e-01	0	61	0	416808960	54	5458
2026-01-26 12:30:27.27	217.77	31.28	-42.0	-45.1	18.7	6.06e-01	0	62	0	422576128	54	5490
2026-01-26 12:30:30.30	218.73	31.76	-42.2	-45.4	18.4	6.05e-01	0	61	0	428343296	54	5662
2026-01-26 12:30:33.33	219.72	32.24	-42.1	-45.2	18.6	6.07e-01	0	61	0	433586176	55	5225
2026-01-26 12:30:36.36	220.74	32.72	-42.2	-45.4	18.4	6.06e-01	0	61	0	439353344	55	5387
2026-01-26 12:30:39.39	221.79	33.20	-42.2	-45.4	18.4	6.07e-01	0	61	0	445120512	55	5387
2026-01-26 12:30:42.42	222.87	33.68	-42.3	-45.7	18.1	6.05e-01	0	62	0	450887680	55	5543
2026-01-26 12:30:45.44	223.98	34.15	-42.4	-45.8	18.0	6.04e-01	0	61	0	456654848	55	5596
2026-01-26 12:30:48.47	225.12	34.62	-42.4	-45.8	18.0	6.06e-01	0	62	0	462422016	55	5612
2026-01-26 12:30:51.50	226.30	35.08	-42.4	-45.8	18.0	6.06e-01	0	62	0	467664896	55	5619
2026-01-26 12:30:54.53	227.52	35.54	-42.5	-46.0	17.7	6.05e-01	0	61	0	473432064	55	5768
2026-01-26 12:30:57.56	228.77	35.99	-42.4	-45.9	17.9	6.04e-01	0	62	0	479199232	55	5693
2026-01-26 12:31:00.58	230.05	36.42	-42.5	-45.9	17.9	6.08e-01	0	62	0	484966400	55	5673
2026-01-26 12:31:03.61	231.37	36.86	-42.5	-46.0	17.8	6.07e-01	0	62	0	490733568	55	5733
2026-01-26 12:31:06.64	232.72	37.27	-42.5	-45.9	17.8	6.05e-01	0	62	0	496500736	55	5713
2026-01-26 12:31:09.67	234.11	37.68	-42.5	-46.0	17.7	6.06e-01	0	62	0	501743616	55	5731
2026-01-26 12:31:12.70	235.53	38.08	-42.6	-46.1	17.6	6.05e-01	0	62	0	507510784	55	5821
2026-01-26 12:31:15.73	236.99	38.45	-42.4	-45.7	18.1	6.04e-01	0	62	0	513277952	55	5539
2026-01-26 12:31:18.76	238.48	38.82	-42.4	-45.7	18.0	6.07e-01	0	62	0	519045120	55	5590
2026-01-26 12:31:21.79	240.01	39.16	-42.3	-45.5	18.3	6.05e-01	0	62	0	524812288	55	5454
2026-01-26 12:31:24.82	241.56	39.49	-42.4	-45.7	18.1	6.06e-01	0	62	0	530579456	55	5563
2026-01-26 12:31:27.85	243.15	39.79	-42.3	-45.6	18.2	6.04e-01	0	62	0	535822336	55	5517
2026-01-26 12:31:30.89	244.77	40.08	-42.4	-45.8	18.0	6.08e-01	0	62	0	541589504	55	5619
2026-01-26 12:31:33.91	246.41	40.33	-42.5	-45.9	17.9	6.06e-01	0	62	0	547356672	55	5718
2026-01-26 12:31:36.94	248.08	40.57	-42.3	-45.5	18.3	6.05e-01	0	62	0	553123840	55	5446
2026-01-26 12:31:39.97	249.77	40.78	-42.1	-45.3	18.5	6.06e-01	0	62	0	558891008	55	5301
2026-01-26 12:31:43.01	251.49	40.97	-42.1	-45.3	18.6	6.05e-01	0	62	0	564658176	55	5301
2026-01-26 12:31:46.04	253.22	41.12	-42.0	-45.1	18.7	6.06e-01	0	62	0	569901056	55	5197
2026-01-26 12:31:49.07	254.97	41.25	-42.2	-45.3	18.5	6.05e-01	0	62	0	575668224	55	5329
2026-01-26 12:31:52.10	256.73	41.35	-42.2	-45.4	18.5	6.05e-01	0	62	0	581435392	55	5357
2026-01-26 12:31:55.13	258.50	41.42	-42.1	-45.3	18.5	6.07e-01	0	62	0	587202560	55	5307
2026-01-26 12:31:58.16	260.27	41.46	-42.1	-45.2	18.6	6.07e-01	0	62	0	592969728	55	5259
2026-01-26 12:32:01.19	262.05	41.47	-42.1	-45.2	18.6	6.05e-01	0	62	0	598736896	55	5258
2026-01-26 12:32:04.22	263.82	41.45	-42.2	-45.4	18.5	6.04e-01	0	62	0	603979776	55	5357
2026-01-26 12:32:07.25	265.59	41.41	-42.3	-45.6	18.3	6.07e-01	0	62	0	609746944	55	5468
2026-01-26 12:32:10.28	267.36	41.33	-42.2	-45.4	18.5	6.08e-01	0	62	0	615514112	55	5348
2026-01-26 12:32:13.31	269.11	41.22	-42.4	-45.8	18.0	6.04e-01	0	62	0	621281280	55	5639
2026-01-26 12:32:16.34	270.86	41.08	-42.5	-45.9	18.0	6.04e-01	0	62	0	627048448	55	5666
2026-01-26 12:32:19.37	272.58	40.92	-42.2	-45.4	18.5	6.06e-01	0	62	0	632815616	55	5365
2026-01-26 12:32:22.40	274.29	40.73	-42.1	-45.3	18.5	6.06e-01	0	62	0	638058496	55	5318
2026-01-26 12:32:25.43	275.97	40.51	-42.4	-45.6	18.2	6.07e-01	0	62	0	643825664	55	5521
2026-01-26 12:32:28.46	277.63	40.27	-42.3	-45.5	18.3	6.06e-01	0	62	0	649592832	55	5433
2026-01-26 12:32:31.49	279.26	40.01	-42.4	-45.7	18.2	6.06e-01	0	62	0	655360000	55	5555
2026-01-26 12:32:34.52	280.87	39.72	-42.4	-45.7	18.2	6.07e-01	0	62	0	661127168	55	5541
2026-01-26 12:32:37.55	282.45	39.41	-42.3	-45.6	18.2	6.05e-01	0	62	0	666894336	55	5507
2026-01-26 12:32:40.58	283.99	39.08	-42.2	-45.4	18.5	6.07e-01	0	62	0	672661504	55	5366
2026-01-26 12:32:43.61	285.50	38.73	-42.4	-45.7	18.1	6.05e-01	0	62	0	677904384	55	5588
2026-01-26 12:32:46.64	286.98	38.37	-42.4	-45.7	18.1	6.06e-01	0	62	0	683671552	55	5583
2026-01-26 12:32:49.67	288.43	37.99	-42.3	-45.5	18.3	6.07e-01	0	62	0	689438720	55	5426
2026-01-26 12:32:52.70	289.84	37.59	-42.2	-45.3	18.5	6.05e-01	0	62	0	695205888	55	5337
2026-01-26 12:32:55.73	291.21	37.18	-42.2	-45.4	18.5	6.06e-01	0	62	0	700973056	55	5353
2026-01-26 12:32:58.76	292.55	36.76	-42.0	-45.2	18.7	6.06e-01	0	62	0	706215936	55	5221
2026-01-26 12:33:01.77	293.85	36.34	-42.1	-45.2	18.6	6.06e-01	0	62	0	711983104	55	5227
2026-01-26 12:33:04.80	295.12	35.89	-41.9	-45.0	18.8	6.05e-01	0	62	0	717750272	55	5108
2026-01-26 12:33:07.83	296.36	35.45	-42.0	-45.1	18.7	6.06e-01	0	62	0	723517440	55	5172
2026-01-26 12:33:10.86	297.56	34.99	-41.9	-44.9	18.9	6.08e-01	0	62	0	729284608	55	5063
2026-01-26 12:33:13.89	298.73	34.53	-41.8	-44.8	18.9	6.06e-01	0	62	0	735051776	55	5040
2026-01-26 12:33:16.92	299.86	34.06	-41.8	-44.7	19.1	6.04e-01	0	62	0	740294656	55	4969
2026-01-26 12:33:19.95	300.96	33.59	-41.5	-44.3	19.5	6.06e-01	0	62	0	746061824	55	4755
2026-01-26 12:33:22.98	302.03	33.12	-41.6	-44.4	19.4	6.06e-01	0	62	0	751828992	55	4793
2026-01-26 12:33:26.01	303.07	32.64	-41.3	-44.1	19.7	6.05e-01	0	62	0	757596160	54	4894
2026-01-26 12:33:29.05	304.08	32.16	-41.5	-44.3	19.4	6.06e-01	0	62	0	763363328	54	5007
2026-01-26 12:33:32.08	305.06	31.68	-41.5	-44.3	19.4	6.05e-01	0	62	0	769130496	54	5009
2026-01-26 12:33:35.11	306.01	31.20	-41.6	-44.5	19.2	6.07e-01	0	62	0	774373376	54	5130
2026-01-26 12:33:38.14	306.93	30.73	-41.6	-44.4	19.3	6.04e-01	0	62	0	780140544	54	5083
2026-01-26 12:33:41.17	307.83	30.25	-41.6	-44.6	19.2	6.06e-01	0	62	0	785907712	54	5163
2026-01-26 12:33:44.20	308.69	29.77	-41.5	-44.4	19.4	6.07e-01	0	62	0	791674880	54	5077
2026-01-26 12:33:47.23	309.54	29.30	-41.8	-44.9	18.9	6.08e-01	0	62	0	797442048	54	5341
2026-01-26 12:33:50.26	310.35	28.83	-41.7	-44.7	19.1	6.06e-01	0	62	0	803209216	54	5226
2026-01-26 12:33:53.29	311.14	28.36	-41.9	-54.3	7.1	7.48e-01	2	62	0	808452096	54	15887
2026-01-26 12:33:56.32	311.91	27.89	-42.1	-54.5	3.9	7.44e-01	0	62	104	808452096	54	16198
2026-01-26 12:33:59.35	312.66	27.43	-43.8	-58.1	3.7	7.43e-01	0	62	104	808452096	59	18345
2026-01-26 12:34:02.38	313.39	26.97	-42.5	-55.1	3.8	7.46e-01	0	62	104	808452096	57	14680
2026-01-26 12:34:05.41	314.09	26.52	-42.5	-55.3	3.9	7.41e-01	0	62	104	808452096	57	15002
2026-01-26 12:34:08.44	314.77	26.06	-44.1	-58.3	3.9	7.47e-01	0	62	104	808452096	59	18867
2026-01-26 12:34:11.47	315.44	25.62	-42.4	-54.9	3.8	7.42e-01	0	62	104	808452096	56	15143
2026-01-26 12:34:14.50	316.08	25.17	-45.2	-62.3	3.8	7.44e-01	0	62	104	808452096	61	26476
2026-01-26 12:34:17.53	316.71	24.74	-43.0	-56.1	3.9	7.51e-01	0	62	104	808452096	58	15420
2026-01-26 12:34:20.56	317.32	24.30	-42.7	-55.7	3.8	7.44e-01	0	62	104	808452096	56	16577
2026-01-26 12:34:23.59	317.92	23.87	-42.4	-55.1	3.8	7.43e-01	0	62	104	808452096	56	15471
2026-01-26 12:34:26.61	318.49	23.45	-42.5	-55.2	3.8	7.43e-01	0	62	104	808452096	56	15750
2026-01-26 12:34:29.64	319.05	23.03	-43.4	-57.0	3.8	7.45e-01	0	62	104	808452096	57	18258
2026-01-26 12:34:32.67	319.60	22.62	-43.1	-56.5	3.8	7.45e-01	0	62	104	808452096	58	16200
2026-01-26 12:34:35.70	320.13	22.21	-42.5	-55.5	3.8	7.48e-01	0	62	104	808452096	56	16181
2026-01-26 12:34:38.73	320.65	21.80	-45.1	-61.7	3.8	7.47e-01	0	62	104	808452096	60	26248
2026-01-26 12:34:41.76	321.15	21.40	-42.3	-55.1	3.8	7.43e-01	0	62	104	808452096	56	15533
2026-01-26 12:34:44.79	321.64	21.01	-44.1	-58.5	3.8	7.47e-01	0	62	104	808452096	58	20533
2026-01-26 12:34:47.82	322.12	20.61	-42.9	-55.8	3.8	7.48e-01	0	62	104	808452096	56	16882
2026-01-26 12:34:50.85	322.59	20.23	-42.6	-55.6	3.8	7.43e-01	0	62	104	808452096	57	15517
2026-01-26 12:34:53.87	323.04	19.85	-44.7	-60.2	3.8	7.46e-01	0	62	104	808452096	59	23452
2026-01-26 12:34:56.90	323.48	19.47	-42.4	-55.4	3.8	7.48e-01	0	62	104	808452096	56	16127
2026-01-26 12:34:59.94	323.92	19.10	-43.3	-57.1	3.8	7.42e-01	0	62	104	808452096	57	18316
2026-01-26 12:35:02.96	324.34	18.73	-44.9	-61.3	3.8	7.50e-01	0	62	104	808452096	61	23678
2026-01-26 12:35:06.00	324.75	18.37	-42.6	-55.4	3.8	7.43e-01	0	62	104	808452096	57	15133
2026-01-26 12:35:09.02	325.15	18.01	-44.4	-59.2	3.8	7.48e-01	0	62	104	808452096	59	20979
2026-01-26 12:35:12.05	325.54	17.66	-44.7	-60.6	3.9	7.48e-01	0	62	104	808452096	60	23200
2026-01-26 12:35:15.08	325.92	17.31	-42.1	-54.9	3.8	7.47e-01	0	62	104	808452096	56	15093
2026-01-26 12:35:18.11	326.30	16.97	-45.0	-62.1	3.8	7.41e-01	0	62	104	808452096	60	27646
2026-01-26 12:35:21.14	326.66	16.63	-42.4	-55.2	3.8	7.46e-01	0	62	104	808452096	56	15757
2026-01-26 12:35:24.17	327.02	16.29	-42.6	-55.7	3.8	7.42e-01	0	62	104	808452096	56	16588
2026-01-26 12:35:27.20	327.37	15.96	-44.4	-60.1	3.9	7.44e-01	0	62	104	808452096	60	21769
2026-01-26 12:35:30.23	327.71	15.63	-42.0	-54.7	3.8	7.42e-01	0	62	104	808452096	56	14833
2026-01-26 12:35:33.26	328.04	15.30	-43.9	-58.6	3.9	7.44e-01	0	62	104	808452096	59	19552
2026-01-26 12:35:36.29	328.37	14.98	-43.7	-57.8	3.9	7.46e-01	0	62	104	808452096	58	18893
2026-01-26 12:35:39.32	328.68	14.67	-42.2	-55.0	3.8	7.49e-01	0	62	104	808452096	56	15298
2026-01-26 12:35:42.35	329.00	14.36	-44.4	-60.2	3.8	7.44e-01	0	62	104	808452096	59	23459
2026-01-26 12:35:45.38	329.30	14.05	-42.3	-55.3	3.8	7.47e-01	0	62	104	808452096	56	15804
2026-01-26 12:35:48.41	329.60	13.74	-42.1	-55.1	3.8	7.45e-01	0	62	104	808452096	56	15408
2026-01-26 12:35:51.44	329.89	13.44	-43.3	-57.3	3.9	7.42e-01	0	62	104	808452096	58	17813
2026-01-26 12:35:54.47	330.18	13.14	-42.4	-55.4	3.8	7.46e-01	0	62	104	808452096	56	16070
2026-01-26 12:35:57.50	330.46	12.85	-42.0	-54.9	3.9	7.42e-01	0	62	104	808452096	56	15138
2026-01-26 12:36:00.52	330.74	12.56	-43.3	-57.3	3.9	7.45e-01	0	62	104	808452096	58	17797
2026-01-26 12:36:03.55	331.01	12.27	-42.3	-55.4	3.8	7.45e-01	0	62	104	808452096	56	16053
2026-01-26 12:36:06.58	331.27	11.98	-44.5	-61.1	3.8	7.45e-01	0	62	104	808452096	60	24638
2026-01-26 12:36:09.61	331.53	11.70	-42.6	-55.8	3.8	7.50e-01	0	62	104	808452096	57	15925
2026-01-26 12:36:12.64	331.78	11.42	-43.0	-56.4	3.8	7.45e-01	0	62	104	808452096	56	18007
2026-01-26 12:36:15.67	332.03	11.15	-43.2	-57.0	3.8	7.45e-01	0	62	104	808452096	56	19327
2026-01-26 12:36:18.70	332.28	10.88	-42.3	-55.4	3.8	7.45e-01	0	62	104	808452096	56	16014
2026-01-26 12:36:21.74	332.52	10.61	-43.8	-58.8	3.8	7.49e-01	0	62	104	808452096	58	21192
2026-01-26 12:36:24.77	332.76	10.34	-42.7	-56.2	3.8	7.43e-01	0	62	104	808452096	57	16581
2026-01-26 12:36:27.80	332.99	10.08	-42.2	-55.4	3.8	7.45e-01	0	62	104	808452096	56	15946
2026-01-26 12:36:30.83	333.21	9.81	-44.6	-61.4	3.8	7.47e-01	0	62	104	808452096	59	26964
2026-01-26 12:36:33.86	333.44	9.56	-42.4	-55.9	3.8	7.42e-01	0	62	104	808452096	56	16902
2026-01-26 12:36:36.89	333.66	9.30	-44.0	-59.3	3.8	7.46e-01	0	62	104	808452096	58	22334
2026-01-26 12:36:39.92	333.87	9.05	-44.1	-59.8	3.8	7.44e-01	0	62	104	808452096	58	23689
2026-01-26 12:36:42.95	334.08	8.80	-42.3	-55.9	3.8	7.44e-01	0	62	104	808452096	56	16931
2026-01-26 12:36:45.98	334.29	8.55	-44.3	-61.3	3.8	7.42e-01	0	62	104	808452096	59	26670
2026-01-26 12:36:49.01	334.50	8.30	-42.7	-56.7	3.8	7.45e-01	0	62	104	808452096	57	17540
2026-01-26 12:36:52.04	334.70	8.06	-42.6	-56.7	3.8	7.43e-01	0	62	104	808452096	56	18675
2026-01-26 12:36:55.07	334.90	7.82	-45.6	-64.2	3.8	7.44e-01	0	63	104	808452096	61	33163
2026-01-26 12:36:58.10	335.09	7.58	-46.1	-64.7	3.8	7.44e-01	0	62	104	808452096	62	32948
2026-01-26 12:37:01.13	335.28	7.34	-46.2	-64.8	3.8	7.46e-01	0	62	104	808452096	62	33479
2026-01-26 12:37:04.17	335.47	7.11	-45.9	-64.1	3.8	7.42e-01	0	62	104	808452096	62	30883
2026-01-26 12:37:07.20	335.65	6.88	-46.1	-64.6	3.8	7.42e-01	0	62	104	808452096	62	32751
2026-01-26 12:37:10.23	335.84	6.65	-46.0	-64.5	3.8	7.47e-01	0	62	104	808452096	62	32475
2026-01-26 12:37:13.26	336.02	6.42	-46.0	-64.5	3.8	7.46e-01	0	63	104	808452096	62	32456
2026-01-26 12:37:16.29	336.19	6.19	-45.4	-64.5	3.8	7.45e-01	0	62	104	808452096	62	32346
2026-01-26 12:37:19.32	336.37	5.97	-46.0	-64.5	3.8	7.48e-01	0	63	104	808452096	62	32337
2026-01-26 12:37:22.35	336.54	5.75	-46.0	-64.5	3.8	7.46e-01	0	62	104	808452096	62	32251
2026-01-26 12:37:25.38	336.71	5.53	-45.9	-64.5	3.8	7.46e-01	0	62	104	808452096	62	32210
2026-01-26 12:37:28.41	336.87	5.31	-45.8	-64.7	3.7	7.48e-01	0	62	104	808452096	62	33207
2026-01-26 12:37:31.44	337.04	5.09	-45.8	-64.5	3.8	7.45e-01	0	62	104	808452096	62	32202
2026-01-26 12:37:34.48	337.20	4.88	-46.0	-64.4	3.8	7.45e-01	0	62	104	808452096	62	32179
2026-01-26 12:37:37.51	337.36	4.67	-45.9	-64.5	3.8	7.46e-01	0	63	104	808452096	62	32205
2026-01-26 12:37:40.54	337.51	4.46	-46.0	-64.5	3.8	7.41e-01	0	62	104	808452096	62	32240
2026-01-26 12:37:43.57	337.67	4.25	-45.9	-64.4	3.8	7.45e-01	0	62	104	808452096	62	32152
2026-01-26 12:37:46.60	337.82	4.04	-45.9	-64.5	3.8	7.46e-01	0	62	104	808452096	62	32183
2026-01-26 12:37:49.64	337.97	3.83	-45.9	-64.4	3.8	7.45e-01	0	62	104	808452096	62	32097
2026-01-26 12:37:52.67	338.12	3.63	-45.9	-64.5	3.8	7.48e-01	0	63	104	808452096	62	32187
2026-01-26 12:37:55.70	338.26	3.42	-45.9	-64.5	3.8	7.47e-01	0	62	104	808452096	62	32200
2026-01-26 12:37:58.73	338.41	3.22	-46.0	-64.4	3.8	7.48e-01	0	62	104	808452096	62	32148
2026-01-26 12:38:01.76	338.55	3.02	-45.9	-64.4	3.8	7.48e-01	0	62	104	808452096	62	32141
2026-01-26 12:38:04.79	338.69	2.82	-45.9	-64.4	3.8	7.46e-01	0	62	104	808452096	62	32140
2026-01-26 12:38:07.83	338.83	2.63	-45.8	-64.4	3.8	7.42e-01	0	62	104	808452096	62	32117
2026-01-26 12:38:10.86	338.96	2.43	-45.9	-64.4	3.8	7.44e-01	0	62	104	808452096	62	32158
2026-01-26 12:38:13.89	339.10	2.24	-46.0	-64.4	3.8	7.44e-01	0	62	104	808452096	62	32107
2026-01-26 12:38:16.92	339.23	2.04	-46.0	-64.5	3.8	7.48e-01	0	62	104	808452096	62	32210

#Closed at: 2026-01-26 12:38:18
#Recorded file [808 MB]: D:/lorett/data/31039_260126_152548.dat