passes_logs/2026/01/26/R2.0S_Moscow/R2.0S_Moscow__20260126_010848_SUOMI_NPP_rec.log

#Pass ID: 20260126_010848_SUOMI NPP
#Satellite: SUOMI NPP
#Configuration: NPP
#almurnet v.1.7.20251203
#Start time: 2026-01-26 01:08:49

#Version: 2.2.20231116
#Station: R2.0S_Moscow
#Location: 37.707566 lon 55.798166 lat
#TLE: 1 37849U 11061A   26025.53586395  .00000179  00000+0  10601-3 0  9996
#TLE: 2 37849  98.7821 327.4943 0002169  45.6246 314.5108 14.19529815738202

#Time	Az	El	Level	Level2	SNR	BER	BlckErr	Temp	State	Recorded	gain1	gain2
2026-01-26 01:08:49.28	11.04	2.06	-39.8	-54.4	3.8	1.49e+00	0	52	0	0	51	19017
2026-01-26 01:08:53.31	10.82	2.29	-39.8	-54.3	3.8	1.49e+00	0	53	104	0	51	18886
2026-01-26 01:08:57.35	10.60	2.53	-39.8	-54.3	3.8	1.49e+00	0	53	104	0	51	18935
2026-01-26 01:09:01.39	10.37	2.77	-39.8	-54.3	3.8	1.49e+00	0	54	104	0	51	18843
2026-01-26 01:09:05.43	10.14	3.02	-39.8	-54.3	3.8	1.49e+00	0	54	104	0	51	18887
2026-01-26 01:09:09.47	9.90	3.26	-39.8	-54.3	3.8	1.49e+00	0	54	104	0	51	18896
2026-01-26 01:09:13.52	9.66	3.51	-39.8	-54.3	3.8	1.49e+00	0	54	104	0	51	18855
2026-01-26 01:09:17.56	9.41	3.76	-39.8	-54.3	3.8	1.49e+00	0	54	104	0	51	18880
2026-01-26 01:09:21.60	9.16	4.00	-39.8	-54.3	3.8	1.49e+00	0	55	104	0	51	18879
2026-01-26 01:09:25.64	8.91	4.26	-39.8	-54.3	3.8	1.49e+00	0	55	104	0	51	18875
2026-01-26 01:09:29.68	8.65	4.51	-39.8	-54.3	3.8	1.49e+00	0	55	104	0	51	18862
2026-01-26 01:09:33.73	8.39	4.76	-39.8	-54.3	3.8	1.49e+00	0	56	104	0	51	18901
2026-01-26 01:09:37.77	8.12	5.02	-39.8	-54.3	3.8	1.49e+00	0	56	104	0	51	18870
2026-01-26 01:09:41.81	7.84	5.28	-39.8	-54.3	3.8	1.49e+00	0	56	104	0	51	18801
2026-01-26 01:09:45.86	7.56	5.54	-39.8	-54.3	3.8	1.49e+00	0	56	104	0	51	18875
2026-01-26 01:09:49.90	7.28	5.80	-39.8	-54.3	3.8	1.49e+00	0	56	104	0	51	18871
2026-01-26 01:09:53.94	6.99	6.07	-39.8	-54.3	3.8	1.49e+00	0	56	104	0	51	18839
2026-01-26 01:09:57.99	6.69	6.33	-39.8	-54.3	3.8	1.49e+00	0	56	104	0	51	18872
2026-01-26 01:10:02.03	6.39	6.60	-39.8	-54.3	3.8	1.49e+00	0	57	104	0	51	18847
2026-01-26 01:10:06.07	6.08	6.87	-39.8	-54.3	3.8	1.49e+00	0	57	104	0	51	18802
2026-01-26 01:10:10.11	5.77	7.14	-39.8	-54.3	3.8	1.49e+00	0	57	104	0	51	18830
2026-01-26 01:10:14.15	5.45	7.42	-39.8	-54.3	3.8	1.49e+00	0	57	104	0	51	18855
2026-01-26 01:10:18.20	5.13	7.70	-39.8	-54.3	3.8	1.49e+00	0	57	104	0	51	18816
2026-01-26 01:10:22.24	4.79	7.97	-39.8	-54.3	3.8	1.49e+00	0	57	104	0	51	18821
2026-01-26 01:10:26.28	4.45	8.25	-39.9	-54.5	3.8	1.49e+00	0	57	104	0	51	19197
2026-01-26 01:10:30.31	4.11	8.54	-40.0	-54.5	3.8	1.49e+00	0	57	104	0	51	19221
2026-01-26 01:10:34.35	3.76	8.82	-39.9	-54.4	3.8	1.49e+00	0	57	104	0	51	19130
2026-01-26 01:10:38.38	3.40	9.11	-39.9	-54.4	3.8	1.49e+00	0	58	104	0	51	19106
2026-01-26 01:10:42.42	3.03	9.40	-39.9	-54.4	3.8	1.49e+00	0	58	104	0	51	19163
2026-01-26 01:10:46.46	2.65	9.69	-39.9	-54.5	3.8	1.49e+00	0	58	104	0	51	19280
2026-01-26 01:10:50.50	2.27	9.98	-40.0	-54.5	3.8	1.49e+00	0	58	104	0	51	19289
2026-01-26 01:10:54.53	1.88	10.28	-40.0	-54.5	3.8	1.49e+00	0	58	104	0	51	19334
2026-01-26 01:10:58.57	1.48	10.58	-40.0	-54.5	3.8	1.49e+00	0	58	104	0	51	19380
2026-01-26 01:11:02.61	1.07	10.88	-40.1	-54.6	3.8	1.49e+00	0	59	104	0	51	19581
2026-01-26 01:11:06.65	0.65	11.18	-40.0	-54.6	3.8	1.49e+00	0	59	104	0	51	19412
2026-01-26 01:11:10.69	0.23	11.48	-40.0	-54.5	3.8	1.49e+00	0	59	104	0	51	19350
2026-01-26 01:11:14.73	359.79	11.79	-40.3	-54.8	3.8	1.49e+00	0	59	104	0	52	18939
2026-01-26 01:11:18.77	359.35	12.10	-40.1	-54.6	3.8	1.49e+00	0	59	104	0	52	18482
2026-01-26 01:11:22.80	358.89	12.41	-40.6	-55.1	3.8	1.49e+00	0	59	104	0	53	18347
2026-01-26 01:11:26.84	358.43	12.72	-40.3	-54.5	3.8	1.49e+00	0	59	104	0	52	18281
2026-01-26 01:11:30.88	357.95	13.04	-41.9	-51.5	4.8	1.09e+00	0	59	0	0	54	11459
2026-01-26 01:11:34.92	357.47	13.36	-40.5	-46.2	8.9	3.83e-02	0	59	0	5242880	53	6618
2026-01-26 01:11:38.96	356.97	13.68	-41.0	-47.6	7.6	9.35e-02	0	59	0	12582912	52	8222
2026-01-26 01:11:43.00	356.46	14.00	-40.9	-47.4	7.8	6.71e-02	0	59	0	20971520	52	8037
2026-01-26 01:11:47.04	355.94	14.32	-41.2	-50.7	4.9	5.42e-01	0	59	0	28311552	52	11778
2026-01-26 01:11:51.08	355.41	14.65	-40.7	-55.1	3.8	1.49e+00	0	59	104	30408704	53	18489
2026-01-26 01:11:55.12	354.87	14.98	-41.1	-55.2	3.8	1.49e+00	0	60	104	30408704	54	17638
2026-01-26 01:11:59.16	354.31	15.30	-40.6	-55.1	3.8	1.49e+00	0	60	104	30408704	53	18412
2026-01-26 01:12:03.19	353.74	15.63	-40.7	-55.2	3.8	1.49e+00	0	59	104	30408704	52	19780
2026-01-26 01:12:07.23	353.16	15.97	-40.6	-55.1	3.8	1.49e+00	0	60	104	30408704	52	19524
2026-01-26 01:12:11.27	352.57	16.30	-40.5	-55.1	3.8	1.49e+00	0	60	104	30408704	52	19448
2026-01-26 01:12:15.31	351.96	16.64	-40.7	-55.2	3.8	1.49e+00	0	60	104	30408704	52	19707
2026-01-26 01:12:19.35	351.34	16.97	-40.7	-55.2	3.8	1.49e+00	0	60	104	30408704	52	19696
2026-01-26 01:12:23.39	350.70	17.31	-40.7	-55.2	3.8	1.49e+00	0	60	104	30408704	52	19770
2026-01-26 01:12:27.43	350.05	17.65	-40.9	-55.4	3.8	1.49e+00	0	60	104	30408704	52	20239
2026-01-26 01:12:31.47	349.38	17.99	-40.9	-55.4	3.8	1.49e+00	0	60	104	30408704	52	20151
2026-01-26 01:12:35.51	348.70	18.33	-40.8	-55.3	3.8	1.49e+00	0	60	104	30408704	52	19978
2026-01-26 01:12:39.55	348.00	18.67	-40.9	-55.4	3.8	1.49e+00	0	60	104	30408704	53	19153
2026-01-26 01:12:43.59	347.29	19.01	-41.1	-55.6	3.8	1.49e+00	0	60	104	30408704	53	19603
2026-01-26 01:12:47.63	346.56	19.35	-41.1	-55.6	3.8	1.49e+00	0	60	104	30408704	53	19562
2026-01-26 01:12:51.67	345.81	19.69	-41.1	-55.6	3.8	1.49e+00	0	60	104	30408704	53	19526
2026-01-26 01:12:55.71	345.04	20.03	-41.2	-55.6	3.8	1.49e+00	0	60	104	30408704	53	19515
2026-01-26 01:12:59.75	344.26	20.36	-41.5	-55.1	3.8	1.49e+00	0	61	104	30408704	53	18421
2026-01-26 01:13:03.78	343.46	20.70	-41.4	-53.2	3.9	1.45e+00	0	61	104	30408704	54	13978
2026-01-26 01:13:07.82	342.65	21.04	-41.8	-50.3	5.6	5.12e-01	0	60	0	34603008	54	10012
2026-01-26 01:13:11.86	341.81	21.37	-41.9	-49.1	6.8	1.47e+00	0	60	0	39845888	54	8758
2026-01-26 01:13:15.91	340.96	21.70	-40.5	-44.8	11.3	2.10e-03	0	60	0	47185920	52	5935
2026-01-26 01:13:19.95	340.08	22.03	-41.5	-46.6	9.8	1.30e-02	0	61	0	54525952	53	6938
2026-01-26 01:13:23.99	339.19	22.36	-41.4	-45.6	11.5	9.60e-04	0	61	0	61865984	53	6155
2026-01-26 01:13:28.02	338.28	22.68	-40.9	-44.4	13.0	5.18e-05	0	61	0	69206016	53	5377
2026-01-26 01:13:32.06	337.35	22.99	-40.8	-44.2	13.3	2.28e-05	0	61	0	77594624	53	5264
2026-01-26 01:13:36.10	336.41	23.31	-41.1	-44.8	12.9	3.66e-05	0	60	0	84934656	53	5599
2026-01-26 01:13:40.14	335.44	23.62	-41.4	-45.2	12.5	1.06e-04	0	61	0	92274688	53	5872
2026-01-26 01:13:44.17	334.45	23.92	-40.8	-44.0	13.8	1.29e-05	0	61	0	99614720	53	5132
2026-01-26 01:13:48.21	333.45	24.22	-41.2	-44.6	13.2	1.22e-05	0	61	0	108003328	53	5517
2026-01-26 01:13:52.25	332.42	24.51	-40.9	-44.2	13.6	7.60e-06	0	61	0	115343360	53	5244
2026-01-26 01:13:56.29	331.37	24.79	-40.8	-43.9	14.0	2.20e-06	0	61	0	122683392	53	5060
2026-01-26 01:14:00.33	330.31	25.07	-41.0	-44.3	13.5	9.10e-06	0	61	0	130023424	53	5315
2026-01-26 01:14:04.37	329.23	25.34	-41.1	-44.5	13.4	1.14e-05	0	61	0	137363456	53	5407
2026-01-26 01:14:08.41	328.13	25.60	-41.6	-45.4	12.6	7.70e-05	0	61	0	145752064	53	5996
2026-01-26 01:14:12.45	327.01	25.85	-41.0	-44.1	13.8	3.00e-06	0	61	0	153092096	53	5208
2026-01-26 01:14:16.49	325.87	26.09	-41.6	-45.3	12.6	8.23e-05	0	61	0	160432128	53	5970
2026-01-26 01:14:20.53	324.71	26.32	-41.2	-44.6	13.3	3.20e-05	0	61	0	167772160	53	5469
2026-01-26 01:14:24.57	323.54	26.53	-41.2	-44.6	13.3	2.13e-05	0	61	0	176160768	53	5492
2026-01-26 01:14:28.61	322.36	26.74	-41.2	-44.5	13.4	1.98e-05	0	61	0	183500800	53	5463
2026-01-26 01:14:32.65	321.15	26.94	-41.0	-44.2	13.7	4.50e-06	0	61	0	190840832	53	5235
2026-01-26 01:14:36.69	319.94	27.12	-41.3	-44.7	13.2	2.05e-05	0	61	0	198180864	53	5576
2026-01-26 01:14:40.74	318.70	27.29	-41.5	-45.2	12.6	9.07e-05	0	61	0	206569472	53	5865
2026-01-26 01:14:44.77	317.46	27.44	-42.1	-46.3	11.5	5.63e-04	0	61	0	213909504	54	6321
2026-01-26 01:14:48.81	316.21	27.58	-41.6	-45.3	12.5	1.43e-04	0	61	0	221249536	54	5631
2026-01-26 01:14:52.85	314.94	27.71	-42.1	-46.3	11.5	3.43e-04	0	61	0	228589568	54	6346
2026-01-26 01:14:56.89	313.67	27.82	-42.2	-46.5	11.3	1.18e-03	0	61	0	235929600	55	6110
2026-01-26 01:15:00.93	312.38	27.91	-42.2	-46.8	11.0	1.15e-03	0	61	0	244318208	55	6316
2026-01-26 01:15:04.97	311.09	27.99	-42.0	-46.2	11.6	6.47e-04	0	61	0	251658240	55	5892
2026-01-26 01:15:09.01	309.80	28.06	-41.8	-46.0	11.9	6.48e-04	0	61	0	258998272	55	5725
2026-01-26 01:15:13.05	308.49	28.10	-42.1	-46.7	11.0	1.45e-03	0	61	0	266338304	55	6268
2026-01-26 01:15:17.09	307.19	28.13	-42.4	-47.5	10.2	5.88e-03	0	61	0	274726912	55	6805
2026-01-26 01:15:21.13	305.88	28.15	-42.2	-46.8	11.0	3.07e-03	0	61	0	282066944	55	6340
2026-01-26 01:15:25.17	304.58	28.14	-41.3	-44.9	13.0	9.30e-05	0	61	0	289406976	54	5373
2026-01-26 01:15:29.21	303.27	28.13	-41.6	-45.4	12.4	1.23e-04	0	61	0	296747008	54	5717
2026-01-26 01:15:33.24	301.97	28.09	-41.7	-45.6	12.3	2.61e-04	0	61	0	304087040	54	5820
2026-01-26 01:15:37.28	300.67	28.04	-41.7	-45.4	12.4	9.07e-05	0	61	0	312475648	54	5721
2026-01-26 01:15:41.33	299.37	27.97	-42.1	-46.4	11.5	1.11e-03	0	61	0	319815680	54	6379
2026-01-26 01:15:45.36	298.08	27.89	-42.0	-46.3	11.6	7.57e-04	0	61	0	327155712	55	5926
2026-01-26 01:15:49.40	296.80	27.79	-41.0	-44.2	13.7	6.80e-06	0	61	0	334495744	54	4965
2026-01-26 01:15:53.44	295.53	27.67	-41.4	-45.1	12.7	3.50e-05	0	61	0	342884352	53	5822
2026-01-26 01:15:57.47	294.26	27.54	-40.9	-44.0	13.8	1.83e-05	0	61	0	350224384	53	5154
2026-01-26 01:16:01.51	293.01	27.40	-41.3	-44.6	13.4	1.37e-05	0	61	0	357564416	53	5478
2026-01-26 01:16:05.55	291.77	27.24	-41.3	-44.6	13.3	6.80e-06	0	61	0	364904448	53	5510
2026-01-26 01:16:09.58	290.54	27.07	-41.8	-45.6	12.3	1.67e-04	0	61	0	372244480	54	5838
2026-01-26 01:16:13.62	289.33	26.88	-41.6	-45.2	12.8	8.46e-05	0	61	0	380633088	54	5557
2026-01-26 01:16:17.66	288.13	26.68	-41.4	-44.8	13.1	1.83e-05	0	61	0	387973120	54	5324
2026-01-26 01:16:21.70	286.94	26.47	-41.3	-44.6	13.4	1.52e-05	0	61	0	395313152	54	5171
2026-01-26 01:16:25.74	285.77	26.25	-41.7	-45.3	12.8	6.10e-05	0	62	0	402653184	54	5610
2026-01-26 01:16:29.78	284.62	26.02	-42.0	-46.0	11.9	3.11e-04	0	61	0	409993216	54	6104
2026-01-26 01:16:33.82	283.49	25.77	-42.3	-46.7	11.2	1.77e-03	0	61	0	418381824	55	6207
2026-01-26 01:16:37.85	282.37	25.52	-42.4	-46.9	10.9	1.97e-03	0	61	0	425721856	55	6376
2026-01-26 01:16:41.90	281.27	25.26	-42.0	-45.9	12.0	4.48e-04	0	61	0	433061888	55	5680
2026-01-26 01:16:45.93	280.19	24.99	-41.7	-45.3	12.6	8.08e-05	0	61	0	440401920	55	5298
2026-01-26 01:16:49.96	279.13	24.71	-41.8	-45.6	12.2	2.08e-04	0	61	0	448790528	55	5513
2026-01-26 01:16:54.00	278.09	24.42	-41.4	-44.9	13.0	4.11e-05	0	61	0	456130560	54	5382
2026-01-26 01:16:58.03	277.06	24.13	-42.1	-46.4	11.4	9.70e-04	0	61	0	463470592	54	6348
2026-01-26 01:17:02.07	276.06	23.83	-42.0	-46.2	11.6	8.43e-04	0	61	0	470810624	55	5864
2026-01-26 01:17:06.11	275.07	23.52	-41.6	-45.3	12.5	1.14e-04	0	61	0	478150656	55	5282
2026-01-26 01:17:10.14	274.11	23.21	-41.9	-46.0	11.8	4.54e-04	0	62	0	486539264	54	6118
2026-01-26 01:17:14.18	273.16	22.89	-41.9	-46.0	11.9	5.23e-04	0	61	0	493879296	55	5728
2026-01-26 01:17:18.22	272.23	22.57	-41.1	-44.4	13.4	8.30e-06	0	61	0	501219328	54	5068
2026-01-26 01:17:22.26	271.33	22.25	-41.1	-44.4	13.6	5.30e-06	0	61	0	508559360	53	5346
2026-01-26 01:17:26.30	270.44	21.92	-40.9	-44.0	13.8	4.50e-06	0	61	0	516947968	53	5122
2026-01-26 01:17:30.33	269.57	21.59	-40.8	-43.9	14.0	1.50e-06	0	61	0	524288000	53	5045
2026-01-26 01:17:34.37	268.71	21.26	-40.7	-43.8	14.0	1.50e-06	0	62	0	531628032	53	4994
2026-01-26 01:17:38.41	267.88	20.92	-41.3	-44.8	13.0	2.21e-05	0	62	0	538968064	53	5620
2026-01-26 01:17:42.45	267.06	20.59	-41.7	-45.5	12.3	2.61e-04	0	62	0	546308096	54	5748
2026-01-26 01:17:46.49	266.27	20.25	-41.1	-44.3	13.5	9.10e-06	0	61	0	554696704	54	5012
2026-01-26 01:17:50.53	265.49	19.91	-41.2	-44.6	13.1	3.43e-05	0	62	0	562036736	54	5214
2026-01-26 01:17:54.57	264.72	19.57	-40.4	-43.3	14.5	1.50e-06	0	61	0	569376768	52	4987
2026-01-26 01:17:58.62	263.97	19.23	-40.3	-43.1	14.7	1.50e-06	0	62	0	576716800	52	4893
2026-01-26 01:18:02.65	263.25	18.89	-40.6	-43.6	14.2	7.00e-07	0	62	0	585105408	52	5201
2026-01-26 01:18:06.69	262.53	18.54	-40.7	-43.7	14.0	7.00e-07	0	61	0	592445440	52	5262
2026-01-26 01:18:10.74	261.83	18.20	-40.7	-43.7	14.0	2.20e-06	0	62	0	599785472	52	5256
2026-01-26 01:18:14.78	261.15	17.86	-40.9	-44.1	13.6	8.30e-06	0	62	0	607125504	52	5504
2026-01-26 01:18:18.82	260.49	17.52	-41.2	-44.6	13.1	1.14e-05	0	61	0	614465536	52	5829
2026-01-26 01:18:22.85	259.84	17.18	-40.6	-43.6	14.1	7.00e-07	0	62	0	622854144	52	5206
2026-01-26 01:18:26.89	259.20	16.84	-40.7	-43.8	13.9	1.50e-06	0	62	0	630194176	52	5335
2026-01-26 01:18:30.93	258.58	16.51	-41.3	-44.8	12.8	5.26e-05	0	62	0	637534208	53	5654
2026-01-26 01:18:34.97	257.97	16.17	-41.0	-44.4	13.2	2.51e-05	0	62	0	644874240	53	5379
2026-01-26 01:18:39.01	257.37	15.84	-41.0	-44.4	13.2	2.05e-05	0	62	0	653262848	53	5384
2026-01-26 01:18:43.05	256.79	15.50	-41.1	-44.6	13.0	2.59e-05	0	61	0	660602880	53	5499
2026-01-26 01:18:47.10	256.22	15.17	-41.5	-45.3	12.3	1.81e-04	0	62	0	667942912	53	5964
2026-01-26 01:18:51.14	255.66	14.84	-41.6	-45.5	12.1	4.04e-04	0	62	0	675282944	54	5748
2026-01-26 01:18:55.18	255.12	14.51	-41.0	-44.4	13.2	3.05e-05	0	62	0	683671552	54	5094
2026-01-26 01:18:59.21	254.59	14.19	-41.1	-44.5	13.1	1.83e-05	0	62	0	691011584	53	5436
2026-01-26 01:19:03.25	254.07	13.86	-41.2	-44.8	12.7	7.93e-05	0	62	0	698351616	53	5631
2026-01-26 01:19:07.29	253.56	13.54	-41.2	-44.7	12.9	4.50e-05	0	62	0	705691648	53	5535
2026-01-26 01:19:11.33	253.06	13.22	-41.3	-44.9	12.6	1.11e-04	0	62	0	713031680	53	5710
2026-01-26 01:19:15.37	252.58	12.90	-41.4	-45.2	12.2	1.21e-04	0	62	0	721420288	53	5914
2026-01-26 01:19:19.41	252.10	12.59	-41.6	-45.6	11.9	3.58e-04	0	61	0	728760320	53	6136
2026-01-26 01:19:23.45	251.63	12.27	-41.8	-46.1	11.3	1.16e-03	0	62	0	736100352	54	6162
2026-01-26 01:19:27.49	251.18	11.96	-41.9	-46.4	11.0	1.87e-03	0	62	0	743440384	54	6407
2026-01-26 01:19:31.54	250.73	11.65	-41.6	-45.7	11.7	4.29e-04	0	62	0	751828992	54	5890
2026-01-26 01:19:35.58	250.29	11.34	-41.6	-45.7	11.8	4.55e-04	0	62	0	759169024	54	5873
2026-01-26 01:19:39.62	249.87	11.04	-41.9	-46.4	10.9	1.77e-03	0	62	0	766509056	54	6384
2026-01-26 01:19:43.66	249.45	10.73	-42.1	-46.8	10.5	3.25e-03	0	62	0	773849088	54	6672
2026-01-26 01:19:47.70	249.04	10.43	-41.7	-46.1	11.3	1.22e-03	0	62	0	781189120	54	6145
2026-01-26 01:19:51.73	248.64	10.14	-41.4	-45.4	12.0	3.97e-04	0	62	0	789577728	54	5684
2026-01-26 01:19:55.77	248.24	9.84	-41.5	-45.6	11.7	5.93e-04	0	62	0	796917760	54	5827
2026-01-26 01:19:59.81	247.86	9.55	-41.8	-46.4	10.9	1.81e-03	0	62	0	804257792	54	6357
2026-01-26 01:20:03.85	247.48	9.25	-42.1	-47.2	10.0	6.82e-03	0	62	0	811597824	54	6982
2026-01-26 01:20:07.89	247.11	8.97	-42.3	-47.6	9.6	1.18e-02	0	62	0	819986432	55	6940
2026-01-26 01:20:11.93	246.75	8.68	-42.4	-47.9	9.1	1.92e-02	0	62	0	827326464	55	7174
2026-01-26 01:20:15.97	246.39	8.39	-42.3	-47.8	9.3	2.16e-02	0	62	0	834666496	55	7049
2026-01-26 01:20:20.01	246.05	8.11	-42.3	-48.0	9.1	2.23e-02	0	62	0	842006528	55	7216
2026-01-26 01:20:24.05	245.70	7.83	-44.8	-59.5	3.8	1.49e+00	0	62	104	845152256	60	20433
2026-01-26 01:20:28.09	245.37	7.55	-45.1	-59.8	3.8	1.49e+00	0	62	104	845152256	60	21212
2026-01-26 01:20:32.13	245.04	7.27	-45.2	-59.8	3.8	1.49e+00	0	62	104	845152256	60	21112
2026-01-26 01:20:36.17	244.72	7.00	-45.1	-59.7	3.8	1.49e+00	0	62	104	845152256	60	20902
2026-01-26 01:20:40.22	244.40	6.73	-45.1	-59.7	3.8	1.49e+00	0	62	104	845152256	60	20789
2026-01-26 01:20:44.26	244.09	6.46	-45.1	-59.7	3.8	1.49e+00	0	62	104	845152256	60	20844
2026-01-26 01:20:48.30	243.79	6.19	-45.1	-59.6	3.8	1.49e+00	0	62	104	845152256	60	20747
2026-01-26 01:20:52.34	243.49	5.92	-45.0	-59.7	3.8	1.49e+00	0	62	104	845152256	60	20777
2026-01-26 01:20:56.38	243.20	5.66	-45.0	-59.6	3.8	1.49e+00	0	62	104	845152256	60	20747
2026-01-26 01:21:00.42	242.91	5.40	-45.0	-59.6	3.8	1.49e+00	0	62	104	845152256	60	20635
2026-01-26 01:21:04.47	242.63	5.13	-45.0	-59.6	3.8	1.49e+00	0	62	104	845152256	60	20757
2026-01-26 01:21:08.51	242.35	4.88	-45.0	-59.6	3.8	1.49e+00	0	62	104	845152256	60	20697
2026-01-26 01:21:12.55	242.08	4.62	-45.0	-59.5	3.8	1.49e+00	0	62	104	845152256	60	20525
2026-01-26 01:21:16.60	241.81	4.36	-45.0	-59.5	3.8	1.49e+00	0	62	104	845152256	60	20535
2026-01-26 01:21:20.64	241.55	4.11	-45.0	-59.5	3.8	1.49e+00	0	62	104	845152256	60	20512
2026-01-26 01:21:24.68	241.29	3.86	-45.0	-59.6	3.8	1.49e+00	0	62	104	845152256	60	20597
2026-01-26 01:21:28.72	241.04	3.61	-44.9	-59.6	3.8	1.49e+00	0	62	104	845152256	60	20539
2026-01-26 01:21:32.76	240.79	3.36	-44.9	-59.6	3.8	1.49e+00	0	62	104	845152256	60	20589
2026-01-26 01:21:36.80	240.55	3.12	-44.9	-59.5	3.8	1.49e+00	0	62	104	845152256	60	20510
2026-01-26 01:21:40.84	240.31	2.87	-45.0	-59.6	3.8	1.49e+00	0	62	104	845152256	60	20585
2026-01-26 01:21:44.88	240.07	2.63	-44.9	-59.5	3.8	1.49e+00	0	62	104	845152256	60	20531
2026-01-26 01:21:48.92	239.84	2.39	-44.9	-59.6	3.8	1.49e+00	0	62	104	845152256	60	20542
2026-01-26 01:21:52.97	239.61	2.15	-45.0	-59.5	3.8	1.49e+00	0	62	104	845152256	60	20519
2026-01-26 01:21:57.00	239.39	1.91	-44.9	-59.6	3.8	1.49e+00	0	62	104	845152256	60	20558

#Closed at: 2026-01-26 01:21:57
#Recorded file [845 MB]: D:/lorett/data/31039_260126_040849.dat