passes_logs/2026/01/26/R2.0S_Moscow/R2.0S_Moscow__20260126_182117_FENGYUN_3G_rec.log

#Pass ID: 20260126_182117_FENGYUN 3G
#Satellite: FENGYUN 3G
#Configuration: FENGYUN 3G
#almurnet v.1.7.20251203
#Start time: 2026-01-26 18:21:17

#Version: 2.2.20231116
#Station: R2.0S_Moscow
#Location: 37.707566 lon 55.798166 lat
#TLE: 1 56232U 23055A   26025.91671677  .00046094  00000+0  69205-3 0  9999
#TLE: 2 56232  49.9949 359.5770 0004051  85.3034 274.8396 15.54373411157896

#Time	Az	El	Level	Level2	SNR	BER	BlckErr	Temp	State	Recorded	gain1	gain2
2026-01-26 18:21:17.99	247.14	2.05	-43.9	-62.0	3.8	8.45e-01	0	52	0	0	59	28777
2026-01-26 18:21:21.01	246.95	2.25	-43.9	-62.0	3.8	8.47e-01	0	53	104	0	59	28820
2026-01-26 18:21:24.04	246.76	2.45	-43.9	-61.9	3.8	8.46e-01	0	53	104	0	59	28492
2026-01-26 18:21:27.07	246.56	2.65	-43.9	-61.9	3.8	8.46e-01	0	53	104	0	59	28505
2026-01-26 18:21:30.10	246.35	2.86	-43.9	-61.9	3.8	8.45e-01	0	53	104	0	59	28512
2026-01-26 18:21:33.14	246.15	3.07	-43.9	-61.9	3.8	8.45e-01	0	53	104	0	59	28465
2026-01-26 18:21:36.17	245.93	3.27	-43.9	-61.9	3.8	8.47e-01	0	53	104	0	59	28515
2026-01-26 18:21:39.20	245.72	3.49	-43.9	-61.9	3.8	8.46e-01	0	54	104	0	59	28567
2026-01-26 18:21:42.23	245.50	3.70	-43.9	-62.0	3.8	8.46e-01	0	54	104	0	59	28694
2026-01-26 18:21:45.26	245.27	3.92	-43.9	-61.8	3.8	8.46e-01	0	54	104	0	59	28245
2026-01-26 18:21:48.29	245.04	4.13	-43.8	-61.2	3.8	8.47e-01	0	54	104	0	59	26283
2026-01-26 18:21:51.32	244.80	4.36	-43.8	-60.7	3.8	8.45e-01	0	54	104	0	59	24852
2026-01-26 18:21:54.35	244.56	4.58	-43.8	-60.7	3.8	8.45e-01	0	55	104	0	59	24960
2026-01-26 18:21:57.39	244.32	4.81	-43.8	-61.1	3.8	8.45e-01	0	55	104	0	59	26068
2026-01-26 18:22:00.42	244.06	5.03	-43.8	-60.8	3.8	8.47e-01	0	55	104	0	59	25116
2026-01-26 18:22:03.45	243.80	5.26	-43.8	-59.8	3.9	8.45e-01	0	55	104	0	59	22288
2026-01-26 18:22:06.48	243.54	5.50	-43.8	-58.7	4.1	8.40e-01	0	55	0	0	59	19809
2026-01-26 18:22:09.51	243.27	5.73	-43.7	-57.8	4.4	8.33e-01	0	56	0	0	59	17814
2026-01-26 18:22:12.55	242.99	5.97	-43.7	-58.0	4.3	8.30e-01	0	55	0	0	59	18192
2026-01-26 18:22:15.58	242.71	6.22	-43.6	-55.6	5.4	8.10e-01	0	56	0	0	59	13808
2026-01-26 18:22:18.61	242.42	6.46	-43.2	-52.4	8.1	3.32e-01	0	56	0	2621440	58	10133
2026-01-26 18:22:21.64	242.12	6.71	-42.8	-50.3	10.4	2.55e-02	0	56	0	5767168	57	8425
2026-01-26 18:22:24.67	241.81	6.96	-43.1	-51.6	9.1	6.79e-03	0	56	0	9437184	57	9797
2026-01-26 18:22:27.71	241.50	7.22	-43.8	-60.2	3.8	2.28e-01	0	56	104	11010048	58	24731
2026-01-26 18:22:30.74	241.18	7.47	-43.0	-51.3	9.3	8.31e-01	0	56	0	12058624	58	8901
2026-01-26 18:22:33.77	240.85	7.73	-41.4	-46.2	14.5	3.43e-05	0	56	0	15204352	54	6210
2026-01-26 18:22:36.80	240.51	8.00	-41.3	-45.9	14.9	1.10e-06	0	57	0	18874368	54	6006
2026-01-26 18:22:39.83	240.17	8.27	-43.2	-52.0	9.9	3.31e-04	0	57	0	22020096	56	10782
2026-01-26 18:22:42.86	239.81	8.54	-41.0	-45.2	15.3	3.05e-01	0	57	0	25165824	54	5591
2026-01-26 18:22:45.89	239.45	8.81	-40.8	-44.8	16.0	0.00e+00	0	57	0	28311552	53	5601
2026-01-26 18:22:48.91	239.07	9.09	-40.2	-43.7	17.3	0.00e+00	0	57	0	31981568	52	5230
2026-01-26 18:22:51.94	238.69	9.38	-40.2	-43.7	17.3	0.00e+00	0	57	0	35127296	52	5233
2026-01-26 18:22:54.97	238.29	9.66	-40.2	-43.6	17.4	0.00e+00	0	57	0	38797312	52	5217
2026-01-26 18:22:58.00	237.89	9.95	-40.3	-43.7	17.3	0.00e+00	0	57	0	41943040	52	5267
2026-01-26 18:23:01.04	237.47	10.25	-40.1	-43.4	17.7	0.00e+00	0	57	0	45613056	51	5350
2026-01-26 18:23:04.06	237.04	10.55	-40.0	-43.2	17.9	0.00e+00	0	58	0	48758784	51	5250
2026-01-26 18:23:07.09	236.60	10.85	-40.1	-43.2	17.8	0.00e+00	0	58	0	52428800	51	5276
2026-01-26 18:23:10.12	236.15	11.16	-40.1	-43.3	17.8	0.00e+00	0	57	0	55574528	51	5332
2026-01-26 18:23:13.15	235.68	11.47	-39.9	-43.0	18.2	0.00e+00	0	58	0	59244544	51	5102
2026-01-26 18:23:16.18	235.20	11.79	-39.6	-42.5	18.7	0.00e+00	0	58	0	62390272	51	4858
2026-01-26 18:23:19.20	234.71	12.11	-39.6	-42.6	18.7	0.00e+00	0	58	0	66060288	51	4871
2026-01-26 18:23:22.23	234.20	12.44	-39.8	-42.8	18.4	0.00e+00	0	58	0	69206016	51	5022
2026-01-26 18:23:25.27	233.67	12.77	-39.8	-42.8	18.5	0.00e+00	0	58	0	72876032	51	4994
2026-01-26 18:23:28.30	233.13	13.10	-39.5	-42.3	18.9	0.00e+00	0	58	0	76021760	50	5037
2026-01-26 18:23:31.33	232.57	13.44	-39.4	-42.2	19.1	0.00e+00	0	58	0	79691776	50	4928
2026-01-26 18:23:34.36	232.00	13.79	-39.3	-42.0	19.3	0.00e+00	0	58	0	82837504	50	4849
2026-01-26 18:23:37.38	231.41	14.14	-39.5	-42.3	19.0	0.00e+00	0	59	0	86507520	50	5027
2026-01-26 18:23:40.41	230.79	14.49	-39.5	-42.3	19.0	0.00e+00	0	58	0	89653248	50	5024
2026-01-26 18:23:43.44	230.16	14.86	-39.1	-41.7	19.7	0.00e+00	0	59	0	93323264	50	4680
2026-01-26 18:23:46.47	229.51	15.22	-39.0	-41.5	19.8	0.00e+00	0	59	0	96468992	49	4854
2026-01-26 18:23:49.51	228.84	15.59	-39.2	-41.8	19.6	0.00e+00	0	59	0	100139008	49	5013
2026-01-26 18:23:52.53	228.15	15.97	-38.8	-41.3	20.1	0.00e+00	0	59	0	103284736	49	4724
2026-01-26 18:23:55.56	227.43	16.35	-38.4	-40.8	20.6	0.00e+00	0	59	0	106954752	48	4710
2026-01-26 18:23:58.59	226.69	16.73	-38.6	-41.0	20.4	0.00e+00	0	59	0	110100480	48	4844
2026-01-26 18:24:01.62	225.93	17.12	-39.0	-41.4	20.0	0.00e+00	0	59	0	113770496	48	5092
2026-01-26 18:24:04.65	225.14	17.51	-38.5	-40.8	20.7	0.00e+00	0	59	0	116916224	48	4714
2026-01-26 18:24:07.68	224.33	17.91	-38.5	-40.8	20.7	0.00e+00	0	59	0	120586240	48	4711
2026-01-26 18:24:10.71	223.48	18.31	-38.3	-40.6	20.9	0.00e+00	0	59	0	123731968	48	4619
2026-01-26 18:24:13.74	222.61	18.72	-38.4	-40.7	20.8	0.00e+00	0	59	0	127401984	48	4677
2026-01-26 18:24:16.77	221.71	19.13	-38.2	-40.4	21.1	0.00e+00	0	59	0	130547712	48	4526
2026-01-26 18:24:19.80	220.78	19.54	-38.0	-40.1	21.4	0.00e+00	0	59	0	134217728	47	4635
2026-01-26 18:24:22.83	219.82	19.96	-38.0	-40.2	21.3	0.00e+00	0	59	0	137363456	47	4693
2026-01-26 18:24:25.86	218.83	20.37	-38.0	-40.2	21.4	0.00e+00	0	59	0	141033472	47	4656
2026-01-26 18:24:28.89	217.80	20.79	-37.7	-39.7	21.8	0.00e+00	0	59	0	144179200	47	4438
2026-01-26 18:24:31.92	216.74	21.21	-37.6	-39.7	21.9	0.00e+00	0	59	0	147849216	46	4678
2026-01-26 18:24:34.95	215.64	21.63	-38.0	-40.2	21.4	0.00e+00	0	59	0	150994944	46	4944
2026-01-26 18:24:37.98	214.51	22.05	-37.7	-39.8	21.8	0.00e+00	0	59	0	154664960	46	4725
2026-01-26 18:24:41.01	213.34	22.47	-37.4	-39.5	22.1	0.00e+00	0	60	0	157810688	46	4555
2026-01-26 18:24:44.04	212.14	22.89	-36.9	-38.8	22.8	0.00e+00	0	60	0	161480704	45	4459
2026-01-26 18:24:47.07	210.89	23.30	-37.1	-39.0	22.5	0.00e+00	0	60	0	164626432	45	4596
2026-01-26 18:24:50.10	209.60	23.71	-37.5	-39.5	22.1	0.00e+00	0	60	0	168296448	45	4823
2026-01-26 18:24:53.13	208.28	24.12	-37.3	-39.3	22.3	0.00e+00	0	60	0	171442176	45	4719
2026-01-26 18:24:56.16	206.91	24.51	-37.3	-39.2	22.4	0.00e+00	0	60	0	175112192	45	4691
2026-01-26 18:24:59.19	205.51	24.90	-37.2	-39.1	22.5	0.00e+00	0	60	0	178257920	45	4617
2026-01-26 18:25:02.22	204.06	25.28	-37.3	-39.2	22.4	0.00e+00	0	60	0	181927936	45	4705
2026-01-26 18:25:05.25	202.58	25.65	-37.0	-38.9	22.7	0.00e+00	0	60	0	185073664	45	4535
2026-01-26 18:25:08.28	201.05	26.01	-37.0	-38.9	22.8	0.00e+00	0	60	0	188743680	45	4494
2026-01-26 18:25:11.31	199.49	26.35	-36.6	-38.4	23.2	0.00e+00	0	60	0	191889408	45	4265
2026-01-26 18:25:14.34	197.89	26.67	-36.4	-38.2	23.4	0.00e+00	0	60	0	195559424	44	4399
2026-01-26 18:25:17.37	196.25	26.98	-36.7	-38.5	23.1	0.00e+00	0	60	0	198705152	44	4595
2026-01-26 18:25:20.39	194.58	27.27	-36.4	-38.1	23.4	0.00e+00	0	60	0	202375168	44	4371
2026-01-26 18:25:23.42	192.87	27.54	-36.6	-38.4	23.2	0.00e+00	0	60	0	205520896	44	4512
2026-01-26 18:25:26.46	191.12	27.78	-36.1	-37.8	23.8	0.00e+00	0	60	0	209190912	44	4228
2026-01-26 18:25:29.49	189.35	28.00	-36.3	-38.0	23.6	0.00e+00	0	60	0	212336640	44	4322
2026-01-26 18:25:32.51	187.56	28.20	-36.3	-38.0	23.5	0.00e+00	0	60	0	216006656	44	4340
2026-01-26 18:25:35.54	185.74	28.37	-37.1	-39.0	22.7	0.00e+00	0	60	0	219152384	44	4822
2026-01-26 18:25:38.57	183.90	28.51	-37.1	-39.0	22.6	0.00e+00	0	60	0	222822400	44	4847
2026-01-26 18:25:41.60	182.05	28.62	-37.1	-39.0	22.7	0.00e+00	0	60	0	225968128	45	4558
2026-01-26 18:25:44.64	180.17	28.71	-36.9	-38.7	22.9	0.00e+00	0	60	0	229638144	45	4428
2026-01-26 18:25:47.66	178.30	28.76	-37.0	-38.8	22.8	0.00e+00	0	60	0	232783872	45	4489
2026-01-26 18:25:50.69	176.42	28.78	-36.8	-38.6	23.0	0.00e+00	0	60	0	236453888	45	4367
2026-01-26 18:25:53.72	174.54	28.77	-37.1	-38.9	22.9	0.00e+00	0	60	0	239599616	45	4542
2026-01-26 18:25:56.75	172.66	28.73	-36.9	-38.7	23.0	0.00e+00	0	60	0	243269632	45	4438
2026-01-26 18:25:59.78	170.78	28.66	-36.8	-38.6	23.1	0.00e+00	0	60	0	246415360	45	4357
2026-01-26 18:26:02.81	168.92	28.56	-36.9	-38.8	22.8	0.00e+00	0	60	0	250085376	45	4480
2026-01-26 18:26:05.84	167.08	28.43	-36.7	-38.5	23.3	0.00e+00	0	60	0	253231104	44	4573
2026-01-26 18:26:08.87	165.25	28.27	-37.1	-39.0	22.9	0.00e+00	0	60	0	256901120	44	4835
2026-01-26 18:26:11.90	163.44	28.09	-36.5	-38.3	23.4	0.00e+00	0	60	0	260046848	44	4465
2026-01-26 18:26:14.93	161.66	27.87	-36.8	-38.7	23.1	0.00e+00	0	60	0	263716864	44	4653
2026-01-26 18:26:17.96	159.91	27.64	-36.6	-38.4	23.4	0.00e+00	0	60	0	266862592	44	4538
2026-01-26 18:26:21.00	158.18	27.38	-36.6	-38.5	23.4	0.00e+00	0	60	0	270532608	44	4551
2026-01-26 18:26:24.02	156.50	27.10	-36.4	-38.2	23.7	0.00e+00	0	60	0	273678336	44	4392
2026-01-26 18:26:27.05	154.85	26.80	-36.6	-38.4	23.5	0.00e+00	0	60	0	277348352	44	4541
2026-01-26 18:26:30.08	153.23	26.48	-37.7	-39.7	22.2	0.00e+00	0	60	0	280494080	45	4970
2026-01-26 18:26:33.11	151.65	26.15	-36.9	-38.8	23.1	0.00e+00	0	60	0	284164096	45	4447
2026-01-26 18:26:36.15	150.10	25.79	-37.2	-39.2	22.8	0.00e+00	0	60	0	287309824	45	4664
2026-01-26 18:26:39.17	148.61	25.43	-37.6	-39.6	22.3	0.00e+00	0	60	0	290979840	45	4893
2026-01-26 18:26:42.20	147.15	25.06	-37.5	-39.5	22.4	0.00e+00	0	60	0	294125568	45	4869
2026-01-26 18:26:45.23	145.73	24.67	-37.6	-39.6	22.3	0.00e+00	0	60	0	297795584	45	4908
2026-01-26 18:26:48.26	144.35	24.28	-37.4	-39.4	22.5	0.00e+00	0	61	0	300941312	45	4800
2026-01-26 18:26:51.29	143.01	23.88	-37.1	-39.0	22.8	0.00e+00	0	60	0	304611328	45	4575
2026-01-26 18:26:54.32	141.70	23.47	-37.9	-40.0	21.8	0.00e+00	0	60	0	307757056	46	4842
2026-01-26 18:26:57.35	140.44	23.06	-37.7	-39.7	22.0	0.00e+00	0	61	0	311427072	46	4697
2026-01-26 18:27:00.38	139.22	22.64	-37.5	-39.5	22.3	0.00e+00	0	60	0	314572800	46	4597
2026-01-26 18:27:03.41	138.04	22.23	-37.7	-39.8	22.1	0.00e+00	0	61	0	318242816	46	4720
2026-01-26 18:27:06.43	136.89	21.81	-37.9	-40.1	21.8	0.00e+00	0	61	0	321388544	46	4881
2026-01-26 18:27:09.46	135.78	21.39	-37.8	-39.9	22.0	0.00e+00	0	61	0	325058560	46	4776
2026-01-26 18:27:12.49	134.71	20.97	-38.2	-40.5	21.4	0.00e+00	0	61	0	328204288	47	4835
2026-01-26 18:27:15.52	133.67	20.55	-38.2	-40.4	21.4	0.00e+00	0	61	0	331874304	47	4809
2026-01-26 18:27:18.55	132.66	20.13	-38.1	-40.4	21.5	0.00e+00	0	61	0	335020032	47	4767
2026-01-26 18:27:21.58	131.69	19.71	-38.1	-40.4	19.4	0.00e+00	0	61	0	338690048	46	5076
2026-01-26 18:27:24.61	130.75	19.30	-38.2	-40.2	19.0	6.80e-06	0	61	0	341835776	45	5262
2026-01-26 18:27:27.64	129.84	18.89	-38.3	-40.7	20.8	1.60e-04	0	60	0	345505792	47	4956
2026-01-26 18:27:30.67	128.95	18.48	-38.4	-40.7	20.9	1.35e-04	0	61	0	348651520	47	4964
2026-01-26 18:27:33.70	128.10	18.08	-38.5	-40.8	20.8	3.40e-06	0	61	0	352321536	47	5020
2026-01-26 18:27:36.73	127.27	17.68	-38.8	-41.4	19.8	0.00e+00	0	61	0	355467264	47	5360
2026-01-26 18:27:39.75	126.48	17.29	-38.8	-41.3	20.4	0.00e+00	0	61	0	359137280	48	5011
2026-01-26 18:27:42.79	125.70	16.89	-38.5	-40.8	20.7	0.00e+00	0	61	0	362283008	47	5033
2026-01-26 18:27:45.82	124.95	16.51	-39.3	-42.0	19.3	0.00e+00	0	61	0	365953024	49	5136
2026-01-26 18:27:48.85	124.23	16.13	-38.6	-41.7	19.8	2.20e-06	0	61	0	369098752	48	5246
2026-01-26 18:27:51.87	123.53	15.75	-38.4	-41.3	18.5	3.08e-05	0	61	0	372768768	47	5297
2026-01-26 18:27:54.90	122.85	15.38	-38.5	-41.7	17.7	7.01e-04	0	61	0	375914496	48	5260
2026-01-26 18:27:57.93	122.19	15.01	-38.4	-42.4	16.1	4.45e-04	0	61	0	379584512	48	5720
2026-01-26 18:28:00.96	121.55	14.65	-30.8	-41.5	14.8	3.63e-03	0	61	0	382730240	40	8146
2026-01-26 18:28:03.99	120.93	14.29	-35.9	-42.2	13.4	1.88e-02	0	61	0	386400256	43	7455
2026-01-26 18:28:07.02	120.33	13.94	-36.3	-42.7	13.3	3.10e-02	0	61	0	389545984	38	10485
2026-01-26 18:28:10.04	119.75	13.59	-26.2	-41.3	10.7	4.18e-02	0	61	0	393216000	31	13283
2026-01-26 18:28:13.07	119.19	13.25	-34.2	-41.9	12.7	7.95e-02	0	61	0	396361728	36	10723
2026-01-26 18:28:16.10	118.64	12.91	-29.5	-42.0	10.9	9.54e-02	0	61	0	399507456	34	12209
2026-01-26 18:28:19.13	118.11	12.58	-34.7	-42.9	11.7	7.28e-02	0	61	0	402653184	38	10660
2026-01-26 18:28:22.16	117.60	12.25	-29.3	-41.6	8.8	3.26e-02	0	61	0	406323200	29	15470
2026-01-26 18:28:25.19	117.10	11.93	-34.4	-42.8	11.8	8.85e-02	0	61	0	409468928	37	11248
2026-01-26 18:28:28.21	116.61	11.61	-34.2	-43.1	11.6	1.47e-01	0	61	0	412614656	38	10937
2026-01-26 18:28:31.24	116.14	11.30	-32.5	-43.6	8.1	3.56e-01	0	61	0	415236096	34	14647
2026-01-26 18:28:34.27	115.68	10.99	-24.5	-42.2	4.7	3.49e-01	0	61	0	417333248	20	27739
2026-01-26 18:28:37.30	115.23	10.68	-27.1	-41.9	4.6	6.85e-01	0	61	104	418381824	18	30060
2026-01-26 18:28:40.33	114.80	10.38	-24.7	-42.0	7.1	6.98e-01	0	61	0	418906112	26	19326
2026-01-26 18:28:43.36	114.38	10.08	-19.7	-43.1	4.0	8.21e-01	0	61	104	418906112	13	46067
2026-01-26 18:28:46.38	113.97	9.79	-20.1	-45.3	3.6	8.37e-01	0	61	104	418906112	14	56256
2026-01-26 18:28:49.41	113.57	9.50	-27.2	-47.6	4.3	8.33e-01	0	61	104	418906112	25	39091
2026-01-26 18:28:52.45	113.18	9.22	-22.1	-45.6	3.9	8.36e-01	0	61	104	418906112	19	43617
2026-01-26 18:28:55.48	112.80	8.94	-26.5	-47.4	3.5	8.38e-01	0	61	104	418906112	21	48029
2026-01-26 18:28:58.51	112.43	8.66	-25.1	-42.4	6.5	8.34e-01	0	61	104	418906112	24	22738
2026-01-26 18:29:01.54	112.07	8.39	-26.0	-43.7	6.0	7.18e-01	0	61	0	418906112	26	23564
2026-01-26 18:29:04.57	111.72	8.12	-28.6	-44.8	5.9	6.11e-01	0	61	0	418906112	27	25191
2026-01-26 18:29:07.60	111.38	7.85	-44.6	-62.7	3.8	7.94e-01	0	61	104	419430400	59	31428
2026-01-26 18:29:10.63	111.05	7.59	-45.0	-63.3	3.8	8.46e-01	0	61	104	419430400	60	31610
2026-01-26 18:29:13.67	110.73	7.33	-45.4	-63.7	3.8	8.45e-01	0	61	104	419430400	61	31263
2026-01-26 18:29:16.70	110.41	7.07	-45.2	-63.5	3.8	8.45e-01	0	61	104	419430400	61	30581
2026-01-26 18:29:19.73	110.10	6.82	-45.1	-63.2	3.8	8.46e-01	0	61	104	419430400	61	29483
2026-01-26 18:29:22.76	109.80	6.57	-44.9	-63.0	3.8	8.44e-01	0	61	104	419430400	60	30598
2026-01-26 18:29:25.79	109.51	6.33	-44.9	-63.0	3.8	8.47e-01	0	61	104	419430400	60	30446
2026-01-26 18:29:28.82	109.22	6.08	-44.9	-63.0	3.8	8.47e-01	0	61	104	419430400	60	30495
2026-01-26 18:29:31.86	108.94	5.84	-44.9	-62.9	3.8	8.47e-01	0	61	104	419430400	60	30323
2026-01-26 18:29:34.89	108.67	5.60	-44.8	-62.9	3.8	8.45e-01	0	61	104	419430400	60	30334
2026-01-26 18:29:37.91	108.40	5.37	-44.8	-63.0	3.8	8.47e-01	0	61	104	419430400	60	30401
2026-01-26 18:29:40.94	108.14	5.14	-44.8	-63.0	3.8	8.46e-01	0	61	104	419430400	60	30525
2026-01-26 18:29:43.98	107.89	4.91	-44.8	-62.9	3.8	8.47e-01	0	61	104	419430400	60	30368
2026-01-26 18:29:47.01	107.64	4.68	-44.8	-62.9	3.8	8.46e-01	0	61	104	419430400	60	30259
2026-01-26 18:29:50.04	107.39	4.46	-44.8	-62.9	3.8	8.46e-01	0	61	104	419430400	60	30080
2026-01-26 18:29:53.07	107.16	4.24	-43.6	-62.6	3.8	8.45e-01	0	61	104	419430400	58	32818
2026-01-26 18:29:56.10	106.92	4.02	-44.9	-63.3	3.8	8.46e-01	0	61	104	419430400	59	33546
2026-01-26 18:29:59.13	106.70	3.80	-43.8	-62.6	3.7	8.46e-01	0	61	104	419430400	58	32712
2026-01-26 18:30:02.17	106.47	3.58	-44.8	-62.9	3.8	8.45e-01	0	61	104	419430400	60	30200
2026-01-26 18:30:05.19	106.26	3.37	-42.9	-62.3	3.9	8.46e-01	0	62	104	419430400	58	31588
2026-01-26 18:30:08.22	106.04	3.16	-44.8	-62.9	3.8	8.45e-01	0	61	104	419430400	60	30232
2026-01-26 18:30:11.26	105.83	2.95	-44.7	-62.9	3.8	8.45e-01	0	61	104	419430400	60	30192
2026-01-26 18:30:14.29	105.63	2.75	-44.7	-62.9	3.8	8.47e-01	0	61	104	419430400	60	30219
2026-01-26 18:30:17.32	105.43	2.54	-44.8	-62.9	3.8	8.46e-01	0	61	104	419430400	60	30226
2026-01-26 18:30:20.35	105.23	2.34	-44.8	-62.9	3.8	8.46e-01	0	61	104	419430400	60	30268
2026-01-26 18:30:23.38	105.04	2.14	-44.8	-62.9	3.8	8.45e-01	0	61	104	419430400	60	30229

#Closed at: 2026-01-26 18:30:25
#Recorded file [419 MB]: D:/lorett/data/31039_260126_212117.dat