passes_logs/2026/01/20/R2M6_AANII_01/R2M6_AANII_01__20260120_115449_AQUA_rec.log

#Pass ID: 20260120_115449_AQUA
#Satellite: AQUA
#Configuration: AQUA
#almurnet v.1.7.20240730
#Start time: 2026-01-20 11:54:49

#Version: 2.2.20231116
#Station: R2M6_AANII_01
#Location: 30.233357 lon 59.946436 lat
#TLE: 1 27424U 02022A   26019.60905539  .00000968  00000+0  20374-3 0  9991
#TLE: 2 27424  98.4090 346.1140 0001992  72.7126 342.3847 14.61830366261565

#Time	Az	El	Level	Level2	SNR	BER	BlckErr	Temp	State	Recorded	gain1	gain2
2026-01-20 11:54:49.28	155.37	6.96	-31.0	-36.6	5.2	7.11e-01	0	41	0	0	23	6877
2026-01-20 11:54:52.29	155.35	7.21	-31.5	-37.1	14.3	6.05e-01	0	42	0	1572864	24	6882
2026-01-20 11:54:55.29	155.33	7.46	-31.1	-35.8	15.2	6.05e-01	0	42	0	7340032	24	6143
2026-01-20 11:54:58.31	155.31	7.71	-30.5	-34.5	16.4	6.07e-01	0	42	0	13107200	23	5701
2026-01-20 11:55:01.30	155.28	7.97	-30.4	-34.3	16.7	6.05e-01	0	42	0	18350080	23	5583
2026-01-20 11:55:04.30	155.26	8.22	-30.3	-34.3	17.0	6.05e-01	0	42	0	24117248	22	5669
2026-01-20 11:55:07.32	155.24	8.49	-30.4	-34.3	17.1	6.07e-01	0	42	0	29884416	22	5650
2026-01-20 11:55:10.33	155.21	8.75	-30.5	-34.4	17.0	6.05e-01	0	42	0	35651584	22	5675
2026-01-20 11:55:13.33	155.19	9.02	-30.4	-34.2	17.3	6.05e-01	0	42	0	41418752	22	5563
2026-01-20 11:55:16.34	155.16	9.29	-30.3	-33.9	17.4	6.07e-01	0	42	0	46661632	22	5476
2026-01-20 11:55:19.35	155.14	9.56	-30.2	-33.6	17.7	6.07e-01	0	42	0	52428800	22	5351
2026-01-20 11:55:22.36	155.11	9.84	-30.1	-33.6	17.6	6.08e-01	0	43	0	58195968	22	5336
2026-01-20 11:55:25.38	155.08	10.13	-30.1	-33.4	17.8	6.06e-01	0	43	0	63438848	22	5240
2026-01-20 11:55:28.37	155.05	10.41	-30.3	-33.8	17.6	6.06e-01	0	43	0	69206016	22	5420
2026-01-20 11:55:31.38	155.02	10.70	-30.3	-33.8	17.7	6.06e-01	0	43	0	74973184	22	5367
2026-01-20 11:55:34.39	154.99	10.99	-30.4	-33.6	17.9	6.06e-01	0	43	0	80740352	22	5248
2026-01-20 11:55:37.40	154.96	11.29	-30.2	-33.2	18.2	6.08e-01	0	43	0	86507520	22	5095
2026-01-20 11:55:40.41	154.93	11.59	-30.2	-33.4	18.1	6.07e-01	0	43	0	91750400	22	5162
2026-01-20 11:55:43.41	154.90	11.89	-30.2	-33.1	18.2	6.07e-01	0	43	0	97517568	22	5052
2026-01-20 11:55:46.42	154.86	12.20	-30.0	-32.7	18.6	6.06e-01	0	43	0	103284736	22	4906
2026-01-20 11:55:49.43	154.83	12.52	-30.2	-33.2	18.3	6.08e-01	0	43	0	109051904	22	5087
2026-01-20 11:55:52.44	154.79	12.83	-30.1	-32.9	18.5	6.06e-01	0	43	0	114294784	22	4935
2026-01-20 11:55:55.45	154.75	13.16	-30.1	-32.9	18.5	6.06e-01	0	43	0	120061952	22	4955
2026-01-20 11:55:58.46	154.72	13.49	-30.3	-33.3	18.3	6.08e-01	0	43	0	125829120	22	5096
2026-01-20 11:56:01.46	154.68	13.82	-30.4	-33.6	18.1	6.07e-01	0	43	0	131596288	22	5204
2026-01-20 11:56:04.47	154.64	14.15	-30.4	-33.6	18.2	6.07e-01	0	43	0	136839168	22	5196
2026-01-20 11:56:07.48	154.59	14.50	-30.3	-33.4	18.3	6.05e-01	0	44	0	142606336	22	5140
2026-01-20 11:56:10.48	154.55	14.85	-30.1	-32.9	18.6	6.06e-01	0	43	0	148373504	22	4950
2026-01-20 11:56:13.47	154.51	15.20	-29.8	-32.6	19.1	6.08e-01	0	43	0	153616384	21	4947
2026-01-20 11:56:16.48	154.46	15.56	-29.9	-32.9	19.0	6.07e-01	0	43	0	159383552	21	5056
2026-01-20 11:56:19.49	154.41	15.92	-30.0	-33.1	18.9	6.07e-01	0	44	0	165150720	21	5113
2026-01-20 11:56:22.50	154.37	16.30	-30.0	-33.0	19.0	6.07e-01	0	43	0	170917888	21	5092
2026-01-20 11:56:25.50	154.32	16.67	-30.0	-33.1	18.9	6.05e-01	0	44	0	176685056	21	5127
2026-01-20 11:56:28.52	154.26	17.06	-30.0	-33.1	18.9	6.05e-01	0	43	0	181927936	21	5143
2026-01-20 11:56:31.53	154.21	17.45	-30.0	-33.0	19.0	6.03e-01	0	44	0	187695104	21	5072
2026-01-20 11:56:34.53	154.16	17.85	-30.0	-33.0	19.0	6.06e-01	0	44	0	193462272	21	5083
2026-01-20 11:56:37.53	154.10	18.25	-30.1	-33.1	19.1	6.06e-01	0	44	0	199229440	21	5090
2026-01-20 11:56:40.55	154.04	18.67	-30.3	-33.5	18.8	6.06e-01	0	44	0	204472320	21	5249
2026-01-20 11:56:43.56	153.98	19.09	-30.3	-33.7	18.7	6.07e-01	0	44	0	210239488	21	5309
2026-01-20 11:56:46.58	153.92	19.52	-30.3	-33.6	18.9	6.06e-01	0	44	0	216006656	21	5241
2026-01-20 11:56:49.59	153.85	19.96	-30.3	-33.5	18.9	6.06e-01	0	44	0	221773824	21	5217
2026-01-20 11:56:52.59	153.78	20.40	-30.1	-33.0	19.2	6.06e-01	0	43	0	227016704	21	5034
2026-01-20 11:56:55.60	153.71	20.85	-30.2	-33.3	19.1	6.06e-01	0	43	0	232783872	21	5131
2026-01-20 11:56:58.61	153.64	21.32	-30.2	-33.4	19.1	6.07e-01	0	44	0	238551040	21	5153
2026-01-20 11:57:01.61	153.57	21.79	-30.2	-33.3	19.2	6.06e-01	0	44	0	244318208	21	5127
2026-01-20 11:57:04.62	153.49	22.27	-30.3	-33.5	19.1	6.04e-01	0	44	0	249561088	21	5202
2026-01-20 11:57:07.63	153.41	22.76	-30.2	-33.1	19.3	6.07e-01	0	44	0	255328256	21	5048
2026-01-20 11:57:10.64	153.32	23.27	-30.2	-33.1	19.4	6.07e-01	0	44	0	261095424	21	5049
2026-01-20 11:57:13.65	153.24	23.78	-30.4	-33.6	19.1	6.08e-01	0	44	0	266862592	21	5220
2026-01-20 11:57:16.65	153.15	24.31	-30.4	-33.7	19.1	6.07e-01	0	44	0	272629760	21	5248
2026-01-20 11:57:19.66	153.05	24.84	-30.4	-33.6	19.2	6.06e-01	0	44	0	277872640	21	5202
2026-01-20 11:57:22.68	152.95	25.39	-30.2	-33.2	19.4	6.07e-01	0	44	0	283639808	21	5066
2026-01-20 11:57:25.69	152.85	25.95	-30.2	-33.2	19.5	6.07e-01	0	44	0	289406976	21	5058
2026-01-20 11:57:28.69	152.75	26.53	-30.3	-33.4	19.4	6.06e-01	0	44	0	295174144	21	5129
2026-01-20 11:57:31.69	152.64	27.11	-30.4	-33.7	19.2	6.08e-01	0	44	0	300417024	21	5234
2026-01-20 11:57:34.70	152.52	27.71	-30.1	-32.8	19.8	6.05e-01	0	44	0	306184192	21	4916
2026-01-20 11:57:37.71	152.40	28.33	-30.0	-32.7	19.8	6.06e-01	0	44	0	311951360	21	4866
2026-01-20 11:57:40.71	152.28	28.96	-30.2	-33.0	19.6	6.06e-01	0	44	0	317718528	21	4994
2026-01-20 11:57:43.70	152.15	29.60	-30.0	-32.5	20.0	6.05e-01	0	44	0	322961408	21	4804
2026-01-20 11:57:46.71	152.01	30.26	-29.7	-31.8	20.5	6.06e-01	0	44	0	328728576	21	4569
2026-01-20 11:57:49.71	151.87	30.94	-30.0	-32.5	20.0	6.04e-01	0	44	0	334495744	21	4823
2026-01-20 11:57:52.72	151.72	31.63	-30.0	-32.6	20.0	6.07e-01	0	44	0	339738624	21	4825
2026-01-20 11:57:55.73	151.56	32.35	-30.0	-32.4	20.1	6.06e-01	0	44	0	345505792	21	4778
2026-01-20 11:57:58.74	151.39	33.08	-30.1	-32.6	20.0	6.08e-01	0	44	0	351272960	21	4842
2026-01-20 11:58:01.75	151.22	33.83	-30.4	-33.5	19.5	6.03e-01	0	44	0	357040128	21	5161
2026-01-20 11:58:04.76	151.04	34.60	-30.5	-33.8	19.3	6.06e-01	0	44	0	362807296	21	5270
2026-01-20 11:58:07.75	150.85	35.38	-30.7	-33.8	19.1	6.07e-01	0	44	0	368050176	22	5125
2026-01-20 11:58:10.76	150.64	36.19	-31.0	-34.5	18.6	6.05e-01	0	44	0	373817344	22	5407
2026-01-20 11:58:13.76	150.43	37.02	-31.0	-34.5	18.6	6.07e-01	0	44	0	379584512	22	5391
2026-01-20 11:58:16.77	150.20	37.88	-31.3	-35.0	18.0	6.08e-01	0	44	0	384827392	23	5478
2026-01-20 11:58:19.79	149.96	38.76	-31.3	-34.9	18.0	6.07e-01	0	44	0	390594560	23	5473
2026-01-20 11:58:22.78	149.71	39.66	-31.4	-35.1	17.9	6.04e-01	0	44	0	396361728	23	5548
2026-01-20 11:58:25.80	149.44	40.59	-31.2	-34.5	18.3	6.06e-01	0	44	0	402128896	23	5301
2026-01-20 11:58:28.80	149.16	41.53	-31.1	-34.2	18.5	6.07e-01	0	44	0	407896064	23	5165
2026-01-20 11:58:31.80	148.85	42.51	-30.9	-33.8	18.8	6.06e-01	0	44	0	413138944	23	5009
2026-01-20 11:58:34.80	148.53	43.51	-30.7	-33.3	19.1	6.05e-01	0	44	0	418906112	23	4853
2026-01-20 11:58:37.81	148.18	44.54	-30.7	-33.1	19.2	6.07e-01	0	44	0	424673280	23	4778
2026-01-20 11:58:40.82	147.81	45.60	-30.6	-32.9	19.4	6.06e-01	0	44	0	429916160	23	4701
2026-01-20 11:58:43.83	147.42	46.69	-30.7	-33.8	19.2	6.05e-01	0	44	0	435683328	22	5137
2026-01-20 11:58:46.84	146.99	47.80	-30.8	-34.0	19.1	6.05e-01	0	44	0	441450496	22	5193
2026-01-20 11:58:49.85	146.53	48.95	-30.6	-33.6	19.3	6.06e-01	0	44	0	447217664	22	5042
2026-01-20 11:58:52.86	146.03	50.12	-30.6	-33.5	19.4	6.05e-01	0	44	0	452984832	22	5019
2026-01-20 11:58:55.86	145.49	51.32	-30.4	-33.0	19.7	6.06e-01	0	44	0	458227712	22	4853
2026-01-20 11:58:58.86	144.90	52.55	-30.3	-32.8	19.8	6.06e-01	0	44	0	463994880	22	4766
2026-01-20 11:59:01.87	144.26	53.82	-29.6	-31.5	20.9	6.06e-01	0	44	0	469762048	21	4462
2026-01-20 11:59:04.87	143.56	55.11	-29.9	-32.3	20.4	6.06e-01	0	44	0	475004928	21	4721
2026-01-20 11:59:07.87	142.79	56.42	-30.4	-33.3	19.9	6.03e-01	0	44	0	480772096	21	5059
2026-01-20 11:59:10.87	141.95	57.77	-30.8	-33.9	19.2	6.05e-01	0	44	0	486539264	22	5161
2026-01-20 11:59:13.88	141.00	59.14	-30.9	-33.8	19.0	6.07e-01	0	44	0	492306432	23	5014
2026-01-20 11:59:16.89	139.95	60.54	-31.5	-35.3	18.1	6.04e-01	0	44	0	498073600	23	5594
2026-01-20 11:59:19.90	138.78	61.96	-31.4	-35.1	18.2	6.04e-01	0	44	0	503316480	23	5487
2026-01-20 11:59:22.91	137.46	63.41	-31.7	-35.5	17.7	6.07e-01	0	44	0	509083648	24	5531
2026-01-20 11:59:25.92	135.96	64.86	-32.3	-36.8	16.6	6.06e-01	0	44	0	514850816	25	5984
2026-01-20 11:59:28.92	134.26	66.33	-32.7	-37.4	15.8	6.04e-01	0	44	0	520093696	26	6154
2026-01-20 11:59:31.93	132.31	67.80	-33.0	-38.5	15.0	6.08e-01	0	44	0	525860864	26	6746
2026-01-20 11:59:34.95	130.04	69.28	-32.7	-37.6	15.6	6.08e-01	0	44	0	531628032	26	6289
2026-01-20 11:59:37.95	127.40	70.74	-32.6	-36.9	16.1	6.07e-01	0	44	0	537395200	26	5945
2026-01-20 11:59:40.95	124.31	72.17	-32.7	-37.4	15.7	6.05e-01	0	44	0	543162368	26	6197
2026-01-20 11:59:43.95	120.66	73.56	-33.3	-39.0	14.2	6.09e-01	0	44	0	548405248	27	6962
2026-01-20 11:59:46.95	116.30	74.89	-32.8	-37.0	15.8	6.08e-01	0	44	0	554172416	27	5890
2026-01-20 11:59:49.97	111.06	76.15	-32.9	-38.1	15.3	6.09e-01	0	44	0	559939584	26	6547
2026-01-20 11:59:52.98	104.82	77.27	-32.0	-34.9	17.5	6.06e-01	0	44	0	565706752	26	5064
2026-01-20 11:59:56.00	97.41	78.23	-32.1	-35.9	17.2	6.09e-01	0	44	0	570949632	25	5566
2026-01-20 11:59:59.00	88.88	78.97	-31.9	-35.8	17.6	6.04e-01	0	44	0	576716800	24	5636
2026-01-20 12:00:02.00	79.35	79.43	-31.7	-35.2	18.0	6.06e-01	0	44	0	582483968	24	5402
2026-01-20 12:00:05.00	69.23	79.59	-31.7	-35.3	17.9	6.07e-01	0	44	0	588251136	24	5442
2026-01-20 12:00:08.02	59.05	79.42	-32.0	-35.6	17.4	6.05e-01	0	44	0	593494016	25	5436
2026-01-20 12:00:11.03	49.52	78.94	-32.1	-35.7	17.2	6.08e-01	0	44	0	599261184	25	5511
2026-01-20 12:00:14.03	41.03	78.20	-31.6	-34.4	18.1	6.05e-01	0	44	0	605028352	25	4991
2026-01-20 12:00:17.04	33.69	77.24	-31.7	-35.1	18.0	6.06e-01	0	44	0	610795520	24	5366
2026-01-20 12:00:20.05	27.49	76.11	-32.3	-36.6	16.6	6.06e-01	0	44	0	616038400	25	5897
2026-01-20 12:00:23.06	22.29	74.86	-32.7	-37.4	15.8	6.07e-01	0	44	0	621805568	26	6164
2026-01-20 12:00:26.05	17.98	73.53	-32.5	-36.8	16.1	6.07e-01	0	44	0	627572736	26	5869
2026-01-20 12:00:29.04	14.35	72.15	-32.5	-36.8	16.1	6.06e-01	0	44	0	633339904	26	5905
2026-01-20 12:00:32.05	11.26	70.71	-33.0	-37.7	15.1	6.06e-01	0	44	0	638582784	27	6207
2026-01-20 12:00:35.06	8.64	69.25	-33.2	-38.7	14.5	6.08e-01	0	44	0	644349952	27	6774
2026-01-20 12:00:38.06	6.39	67.79	-33.2	-38.7	14.4	6.06e-01	0	44	0	650117120	27	6765
2026-01-20 12:00:41.07	4.44	66.32	-32.9	-37.6	15.1	6.08e-01	0	44	0	655360000	27	6205
2026-01-20 12:00:44.08	2.74	64.85	-32.7	-36.8	15.7	6.06e-01	0	44	0	661127168	27	5800
2026-01-20 12:00:47.09	1.25	63.40	-31.9	-35.3	17.5	6.05e-01	0	44	0	666894336	25	5354
2026-01-20 12:00:50.08	359.94	61.97	-31.3	-34.2	18.6	6.08e-01	0	44	0	672661504	24	5015
2026-01-20 12:00:53.08	358.77	60.56	-31.6	-35.0	17.9	6.07e-01	0	44	0	678428672	24	5344
2026-01-20 12:00:56.09	357.73	59.16	-31.5	-34.9	18.2	6.06e-01	0	44	0	683671552	24	5275
2026-01-20 12:00:59.09	356.79	57.80	-30.9	-33.5	19.2	6.06e-01	0	44	0	689438720	23	4878
2026-01-20 12:01:02.10	355.94	56.45	-30.1	-32.0	20.5	6.05e-01	0	44	0	695205888	22	4483
2026-01-20 12:01:05.11	355.17	55.14	-29.5	-31.0	21.2	6.06e-01	0	44	0	700973056	21	4310
2026-01-20 12:01:08.12	354.47	53.85	-29.8	-32.3	20.8	6.06e-01	0	44	0	706215936	20	4820
2026-01-20 12:01:11.13	353.84	52.59	-29.6	-31.9	21.0	6.06e-01	0	44	0	711983104	20	4683
2026-01-20 12:01:14.13	353.25	51.36	-30.2	-32.8	20.2	6.07e-01	0	44	0	717750272	21	4877
2026-01-20 12:01:17.13	352.71	50.17	-30.3	-32.5	20.0	6.06e-01	0	44	0	722993152	22	4669
2026-01-20 12:01:20.14	352.22	49.00	-30.1	-32.2	20.3	6.06e-01	0	44	0	728760320	22	4546
2026-01-20 12:01:23.15	351.76	47.86	-30.3	-32.7	20.0	6.07e-01	0	44	0	734527488	22	4725
2026-01-20 12:01:26.16	351.33	46.74	-30.5	-33.0	19.8	6.05e-01	0	44	0	740294656	22	4829
2026-01-20 12:01:29.17	350.93	45.66	-30.3	-32.6	20.0	6.07e-01	0	44	0	746061824	22	4686
2026-01-20 12:01:32.18	350.56	44.61	-30.5	-33.2	19.6	6.05e-01	0	44	0	751304704	22	4884
2026-01-20 12:01:35.20	350.22	43.58	-30.5	-33.1	19.6	6.04e-01	0	44	0	757071872	22	4848
2026-01-20 12:01:38.20	349.89	42.58	-30.7	-33.7	19.3	6.08e-01	0	44	0	762839040	22	5080
2026-01-20 12:01:41.21	349.59	41.60	-31.0	-34.5	18.8	6.06e-01	0	44	0	768606208	22	5366
2026-01-20 12:01:44.21	349.31	40.66	-31.5	-35.3	18.0	6.06e-01	0	44	0	773849088	23	5576
2026-01-20 12:01:47.22	349.04	39.74	-31.2	-34.5	18.5	6.04e-01	0	44	0	779616256	23	5254
2026-01-20 12:01:50.23	348.79	38.84	-31.3	-34.8	18.3	6.07e-01	0	44	0	785383424	23	5369
2026-01-20 12:01:53.24	348.55	37.96	-31.2	-34.6	18.5	6.07e-01	0	44	0	791150592	23	5284
2026-01-20 12:01:56.24	348.33	37.11	-31.4	-35.2	18.0	6.07e-01	0	44	0	796393472	23	5557
2026-01-20 12:01:59.24	348.12	36.29	-31.0	-34.0	18.7	6.07e-01	0	44	0	802160640	23	5089
2026-01-20 12:02:02.25	347.91	35.48	-30.6	-33.0	19.4	6.05e-01	0	44	0	807927808	23	4724
2026-01-20 12:02:05.27	347.72	34.69	-30.6	-32.8	19.5	6.07e-01	0	44	0	813694976	23	4658
2026-01-20 12:02:08.27	347.54	33.93	-30.8	-33.4	19.1	6.08e-01	0	44	0	818937856	23	4860
2026-01-20 12:02:11.28	347.37	33.18	-30.1	-32.0	20.2	6.06e-01	0	44	0	824705024	22	4525
2026-01-20 12:02:14.28	347.21	32.45	-29.9	-32.2	20.4	6.08e-01	0	44	0	830472192	21	4671
2026-01-20 12:02:17.29	347.05	31.74	-29.6	-31.4	20.9	6.05e-01	0	44	0	836239360	21	4442
2026-01-20 12:02:20.31	346.90	31.05	-29.7	-31.7	20.6	6.05e-01	0	44	0	841482240	21	4549
2026-01-20 12:02:23.32	346.76	30.37	-29.5	-31.3	20.8	6.06e-01	0	44	0	847249408	21	4418
2026-01-20 12:02:26.32	346.62	29.71	-29.7	-31.7	20.6	6.05e-01	0	44	0	853016576	21	4527
2026-01-20 12:02:29.33	346.49	29.07	-29.8	-32.0	20.4	6.05e-01	0	44	0	858783744	21	4623
2026-01-20 12:02:32.33	346.37	28.45	-29.9	-32.2	20.3	6.05e-01	0	44	0	864550912	21	4701
2026-01-20 12:02:35.34	346.25	27.83	-30.2	-33.0	19.9	6.06e-01	0	44	0	869793792	21	4947
2026-01-20 12:02:38.35	346.14	27.23	-30.3	-33.3	19.7	6.02e-01	0	44	0	875560960	21	5082
2026-01-20 12:02:41.36	346.03	26.65	-30.2	-33.0	19.8	6.04e-01	0	44	0	881328128	21	4961
2026-01-20 12:02:44.35	345.92	26.08	-30.2	-33.0	19.8	6.03e-01	0	44	0	886571008	21	4976
2026-01-20 12:02:47.37	345.82	25.52	-30.4	-33.4	19.5	6.02e-01	0	44	0	892338176	21	5109
2026-01-20 12:02:50.37	345.73	24.97	-30.1	-32.8	19.9	5.99e-01	0	44	0	898105344	21	4909
2026-01-20 12:02:53.39	345.64	24.44	-30.6	-33.9	19.2	6.04e-01	0	44	0	903872512	21	5303
2026-01-20 12:02:56.40	345.55	23.91	-30.7	-33.8	18.9	6.03e-01	0	44	0	909639680	22	5158
2026-01-20 12:02:59.40	345.46	23.40	-30.7	-33.8	19.0	6.02e-01	0	44	0	914882560	22	5143
2026-01-20 12:03:02.41	345.38	22.90	-30.7	-33.9	18.9	6.00e-01	0	44	0	920649728	22	5177
2026-01-20 12:03:05.43	345.30	22.41	-30.5	-33.4	19.2	6.03e-01	0	44	0	926416896	22	4988
2026-01-20 12:03:08.44	345.22	21.93	-30.4	-33.1	19.3	6.03e-01	0	44	0	932184064	22	4905
2026-01-20 12:03:11.46	345.15	21.45	-30.3	-32.8	19.5	6.03e-01	0	44	0	937426944	22	4794
2026-01-20 12:03:14.45	345.08	20.99	-30.4	-33.0	19.3	6.03e-01	0	44	0	943194112	22	4877
2026-01-20 12:03:17.45	345.01	20.54	-30.3	-32.7	19.5	6.02e-01	0	44	0	948961280	22	4784
2026-01-20 12:03:20.47	344.95	20.10	-30.5	-33.2	19.2	6.02e-01	0	44	0	954728448	22	4947
2026-01-20 12:03:23.47	344.88	19.66	-30.5	-33.3	19.1	6.02e-01	0	44	0	959971328	22	4994
2026-01-20 12:03:26.48	344.82	19.24	-30.3	-32.9	19.3	6.02e-01	0	44	0	965738496	22	4857
2026-01-20 12:03:29.48	344.76	18.82	-30.4	-33.1	19.1	6.02e-01	0	44	0	971505664	22	4910
2026-01-20 12:03:32.47	344.71	18.41	-30.4	-33.2	19.1	6.03e-01	0	44	0	976748544	22	4951
2026-01-20 12:03:35.46	344.65	18.01	-30.5	-33.3	19.0	6.02e-01	0	44	0	982515712	22	4995
2026-01-20 12:03:38.46	344.60	17.61	-30.5	-33.4	18.9	6.03e-01	0	44	0	988282880	22	5040
2026-01-20 12:03:41.47	344.55	17.22	-30.6	-33.8	18.7	6.01e-01	0	44	0	994050048	22	5172
2026-01-20 12:03:44.48	344.50	16.83	-30.6	-33.8	18.7	6.04e-01	0	44	0	999817216	22	5175
2026-01-20 12:03:47.49	344.45	16.46	-30.4	-33.1	19.1	6.03e-01	0	44	0	1005060096	22	4942
2026-01-20 12:03:50.50	344.40	16.09	-30.4	-33.2	18.9	6.03e-01	0	44	0	1010827264	22	4985
2026-01-20 12:03:53.49	344.36	15.72	-30.2	-32.7	19.3	6.06e-01	0	44	0	1016594432	22	4798
2026-01-20 12:03:56.49	344.31	15.37	-30.2	-32.7	19.2	6.02e-01	0	44	0	1021837312	22	4792
2026-01-20 12:03:59.49	344.27	15.01	-30.2	-32.6	19.3	6.01e-01	0	44	0	1027604480	22	4771
2026-01-20 12:04:02.50	344.23	14.67	-30.3	-32.9	19.1	6.04e-01	0	44	0	1033371648	22	4874
2026-01-20 12:04:05.51	344.19	14.32	-30.4	-33.4	18.8	6.01e-01	0	44	0	1039138816	22	5045
2026-01-20 12:04:08.52	344.15	13.99	-30.3	-33.1	18.8	6.00e-01	0	44	0	1044381696	22	4962
2026-01-20 12:04:11.52	344.11	13.66	-30.4	-33.2	18.8	6.04e-01	0	44	0	1050148864	22	5006
2026-01-20 12:04:14.54	344.08	13.33	-30.2	-32.8	19.0	6.03e-01	0	44	0	1055916032	22	4866
2026-01-20 12:04:17.55	344.04	13.01	-30.3	-33.0	18.8	6.04e-01	0	44	0	1061683200	22	4935
2026-01-20 12:04:20.56	344.01	12.69	-30.3	-33.1	18.9	6.03e-01	0	44	0	1066926080	22	4947
2026-01-20 12:04:23.57	343.98	12.37	-30.4	-33.3	18.6	6.03e-01	0	44	0	1072693248	22	5043
2026-01-20 12:04:26.58	343.94	12.07	-30.3	-33.1	18.7	6.01e-01	0	44	0	1078460416	22	4968
2026-01-20 12:04:29.58	343.91	11.76	-30.3	-33.0	18.8	6.02e-01	0	44	0	1084227584	22	4916
2026-01-20 12:04:32.60	343.88	11.46	-30.4	-33.4	18.6	6.04e-01	0	44	0	1089994752	22	5068
2026-01-20 12:04:35.62	343.85	11.16	-30.2	-32.9	18.8	6.03e-01	0	44	0	1095237632	22	4903
2026-01-20 12:04:38.62	343.83	10.87	-30.3	-33.1	18.7	6.02e-01	0	44	0	1101004800	22	4985
2026-01-20 12:04:41.63	343.80	10.58	-30.5	-33.6	18.3	6.01e-01	0	44	0	1106771968	22	5144
2026-01-20 12:04:44.63	343.77	10.30	-30.3	-33.0	18.6	6.03e-01	0	44	0	1112539136	22	4953
2026-01-20 12:04:47.65	343.75	10.02	-30.4	-33.4	18.3	6.03e-01	0	44	0	1117782016	22	5109
2026-01-20 12:04:50.66	343.72	9.74	-30.5	-33.6	18.2	6.03e-01	0	44	0	1123549184	22	5174
2026-01-20 12:04:53.67	343.70	9.47	-30.7	-34.2	17.9	6.00e-01	0	44	0	1129316352	22	5412
2026-01-20 12:04:56.68	343.68	9.20	-30.6	-34.0	17.9	6.04e-01	0	44	0	1135083520	22	5339
2026-01-20 12:04:59.68	343.65	8.93	-30.7	-34.3	17.7	6.03e-01	0	44	0	1140326400	22	5446
2026-01-20 12:05:02.69	343.63	8.67	-30.7	-34.4	17.6	6.03e-01	0	44	0	1146093568	22	5523
2026-01-20 12:05:05.70	343.61	8.40	-30.8	-34.6	17.5	6.01e-01	0	44	0	1151860736	22	5581
2026-01-20 12:05:08.72	343.59	8.14	-30.7	-34.4	17.5	6.03e-01	0	44	0	1157627904	22	5534
2026-01-20 12:05:11.73	343.57	7.89	-30.9	-35.1	17.1	6.02e-01	0	44	0	1162870784	22	5809
2026-01-20 12:05:14.73	343.55	7.64	-30.9	-35.0	17.1	6.02e-01	0	44	0	1168637952	22	5766
2026-01-20 12:05:17.74	343.53	7.39	-30.9	-35.2	16.9	6.04e-01	0	44	0	1174405120	22	5880
2026-01-20 12:05:20.75	343.51	7.14	-30.8	-34.9	17.1	6.02e-01	0	44	0	1180172288	22	5739
2026-01-20 12:05:23.76	343.50	6.90	-34.3	-53.5	3.8	7.47e-01	0	44	104	1181220864	29	32848

#Closed at: 2026-01-20 12:05:23
#Recorded file [1181 MB]: D:/data/31010_260120_145451.dat