passes_logs/2026/01/20/R2M6_AANII_01/R2M6_AANII_01__20260120_090500_NOAA_21_JPSS-2_rec.log

#Pass ID: 20260120_090500_NOAA 21 (JPSS-2)
#Satellite: NOAA 21 (JPSS-2)
#Configuration: NOAA 21
#almurnet v.1.7.20240730
#Start time: 2026-01-20 09:05:02

#Version: 2.2.20231116
#Station: R2M6_AANII_01
#Location: 30.233357 lon 59.946436 lat
#TLE: 1 54234U 22150A   26019.59425193  .00000067  00000+0  52811-4 0  9997
#TLE: 2 54234  98.7505 320.4385 0000607 256.3203 103.7906 14.19535690165464

#Time	Az	El	Level	Level2	SNR	BER	BlckErr	Temp	State	Recorded	gain1	gain2
2026-01-20 09:05:02.91	121.93	7.14	-30.8	-34.7	4.7	1.39e+00	0	42	0	0	23	5656
2026-01-20 09:05:05.91	121.74	7.36	-30.7	-34.0	9.4	1.82e-02	0	42	0	3145728	22	5273
2026-01-20 09:05:08.93	121.56	7.58	-30.5	-33.3	9.9	1.07e-02	0	42	0	12582912	22	5004
2026-01-20 09:05:11.94	121.37	7.80	-29.5	-31.7	11.7	6.19e-04	0	42	0	22020096	20	4626
2026-01-20 09:05:14.95	121.17	8.02	-29.4	-31.7	12.1	2.54e-04	0	42	0	30408704	19	4732
2026-01-20 09:05:17.96	120.98	8.25	-29.3	-31.6	12.2	1.93e-04	0	42	0	40894464	19	4692
2026-01-20 09:05:20.97	120.78	8.47	-29.3	-31.5	12.3	2.29e-04	0	42	0	49283072	19	4639
2026-01-20 09:05:23.98	120.57	8.70	-29.0	-30.9	12.7	6.33e-05	0	42	0	58720256	19	4458
2026-01-20 09:05:26.99	120.37	8.93	-29.1	-31.1	12.6	9.07e-05	0	42	0	68157440	19	4518
2026-01-20 09:05:30.00	120.16	9.16	-29.0	-30.9	12.8	7.09e-05	0	42	0	77594624	19	4444
2026-01-20 09:05:33.02	119.95	9.40	-29.1	-31.1	12.7	4.65e-05	0	43	0	87031808	19	4513
2026-01-20 09:05:36.02	119.73	9.63	-29.0	-30.9	12.8	4.27e-05	0	43	0	96468992	19	4441
2026-01-20 09:05:39.01	119.51	9.87	-28.9	-30.4	13.2	5.72e-05	0	43	0	105906176	19	4290
2026-01-20 09:05:42.01	119.29	10.11	-29.0	-30.8	13.0	2.74e-05	0	43	0	115343360	19	4408
2026-01-20 09:05:45.02	119.06	10.35	-28.7	-30.4	13.5	2.05e-05	0	43	0	124780544	18	4395
2026-01-20 09:05:48.02	118.83	10.59	-28.7	-30.5	13.5	1.14e-05	0	43	0	134217728	18	4423
2026-01-20 09:05:51.03	118.59	10.83	-28.4	-29.9	13.8	4.50e-06	0	43	0	143654912	18	4238
2026-01-20 09:05:54.05	118.35	11.08	-28.5	-30.1	13.7	2.20e-06	0	43	0	153092096	18	4293
2026-01-20 09:05:57.05	118.11	11.33	-28.5	-30.0	13.8	7.60e-06	0	43	0	162529280	18	4271
2026-01-20 09:06:00.06	117.86	11.58	-28.6	-30.3	13.6	3.80e-06	0	43	0	171966464	18	4359
2026-01-20 09:06:03.07	117.61	11.83	-28.5	-29.9	13.8	1.50e-06	0	43	0	181403648	18	4255
2026-01-20 09:06:06.08	117.35	12.09	-28.3	-29.5	14.1	7.00e-07	0	43	0	190840832	18	4130
2026-01-20 09:06:09.07	117.09	12.34	-28.4	-29.8	14.0	1.50e-06	0	43	0	200278016	18	4204
2026-01-20 09:06:12.08	116.83	12.60	-28.3	-30.0	14.1	2.20e-06	0	43	0	209715200	17	4383
2026-01-20 09:06:15.09	116.56	12.86	-28.3	-30.0	14.2	7.00e-07	0	43	0	219152384	17	4365
2026-01-20 09:06:18.09	116.28	13.12	-28.3	-30.0	14.2	1.50e-06	0	43	0	228589568	17	4379
2026-01-20 09:06:21.11	116.00	13.39	-28.4	-30.3	14.0	3.00e-06	0	43	0	238026752	17	4465
2026-01-20 09:06:24.12	115.71	13.66	-28.5	-30.4	14.0	4.50e-06	0	43	0	247463936	17	4499
2026-01-20 09:06:27.13	115.42	13.93	-28.5	-30.5	14.0	6.10e-06	0	43	0	256901120	17	4518
2026-01-20 09:06:30.15	115.12	14.20	-28.3	-30.0	14.2	0.00e+00	0	44	0	266338304	17	4373
2026-01-20 09:06:33.14	114.82	14.47	-28.3	-29.9	14.3	0.00e+00	0	43	0	275775488	17	4337
2026-01-20 09:06:36.16	114.51	14.75	-28.3	-30.0	14.3	0.00e+00	0	43	0	284164096	17	4357
2026-01-20 09:06:39.18	114.20	15.03	-28.3	-30.0	14.3	2.20e-06	0	44	0	294649856	17	4358
2026-01-20 09:06:42.18	113.88	15.31	-28.4	-30.1	14.3	3.00e-06	0	44	0	303038464	17	4391
2026-01-20 09:06:45.18	113.55	15.59	-28.2	-29.8	14.5	1.50e-06	0	44	0	312475648	17	4308
2026-01-20 09:06:48.27	113.21	15.88	-28.3	-29.9	14.4	7.00e-07	0	44	0	321912832	17	4323
2026-01-20 09:06:51.14	112.88	16.16	-28.1	-29.5	14.7	1.50e-06	0	44	0	331350016	17	4221
2026-01-20 09:06:54.29	112.52	16.46	-28.2	-29.6	14.6	3.00e-06	0	44	0	340787200	17	4261
2026-01-20 09:06:57.16	112.18	16.74	-28.3	-29.8	14.5	0.00e+00	0	44	0	350224384	17	4312
2026-01-20 09:07:00.31	111.81	17.05	-28.3	-29.9	14.5	1.50e-06	0	44	0	359661568	17	4324
2026-01-20 09:07:03.17	111.46	17.33	-28.4	-30.2	14.3	3.00e-06	0	44	0	369098752	17	4422
2026-01-20 09:07:06.31	111.06	17.65	-28.6	-30.6	14.1	2.20e-06	0	44	0	378535936	17	4546
2026-01-20 09:07:09.19	110.70	17.94	-28.5	-30.3	14.3	0.00e+00	0	44	0	387973120	17	4443
2026-01-20 09:07:12.34	110.29	18.26	-28.7	-30.7	14.0	3.80e-06	0	44	0	397410304	17	4572
2026-01-20 09:07:15.20	109.91	18.55	-28.6	-30.5	14.2	2.20e-06	0	44	0	406847488	17	4499
2026-01-20 09:07:18.34	109.48	18.87	-28.6	-30.5	14.2	2.20e-06	0	43	0	416284672	17	4501
2026-01-20 09:07:21.20	109.09	19.17	-28.3	-29.9	14.6	7.00e-07	0	44	0	425721856	17	4323
2026-01-20 09:07:24.36	108.64	19.50	-28.2	-29.7	14.7	7.00e-07	0	44	0	435159040	17	4255
2026-01-20 09:07:27.22	108.23	19.80	-28.2	-29.7	14.7	0.00e+00	0	44	0	443547648	17	4272
2026-01-20 09:07:30.38	107.76	20.13	-27.9	-28.9	15.2	0.00e+00	0	44	0	454033408	17	4058
2026-01-20 09:07:33.25	107.33	20.44	-27.8	-28.8	15.3	7.00e-07	0	44	0	462422016	17	4038
2026-01-20 09:07:36.41	106.85	20.78	-27.7	-29.1	15.4	0.00e+00	0	44	0	472907776	16	4194
2026-01-20 09:07:39.27	106.40	21.09	-27.7	-28.9	15.5	0.00e+00	0	44	0	481296384	16	4137
2026-01-20 09:07:42.42	105.89	21.43	-27.5	-28.5	15.7	0.00e+00	0	44	0	491782144	16	4049
2026-01-20 09:07:45.29	105.42	21.74	-27.6	-28.9	15.6	0.00e+00	0	44	0	500170752	16	4139
2026-01-20 09:07:48.43	104.90	22.09	-27.4	-28.3	15.9	0.00e+00	0	44	0	510656512	16	3980
2026-01-20 09:07:51.28	104.41	22.40	-27.4	-28.2	15.9	0.00e+00	0	44	0	519045120	16	3968
2026-01-20 09:07:54.43	103.86	22.75	-27.5	-28.6	15.8	0.00e+00	0	44	0	529530880	16	4069
2026-01-20 09:07:57.29	103.35	23.07	-27.1	-28.1	16.1	0.00e+00	0	44	0	537919488	15	4046
2026-01-20 09:08:00.45	102.78	23.43	-27.4	-28.8	15.8	0.00e+00	0	44	0	548405248	15	4243
2026-01-20 09:08:03.32	102.24	23.75	-27.6	-29.3	15.5	0.00e+00	0	44	0	556793856	15	4379
2026-01-20 09:08:06.47	101.64	24.11	-27.6	-29.2	15.6	0.00e+00	0	44	0	566231040	15	4342
2026-01-20 09:08:09.34	101.08	24.44	-27.3	-28.6	15.9	0.00e+00	0	44	0	575668224	15	4178
2026-01-20 09:08:12.49	100.45	24.80	-27.6	-29.2	15.6	0.00e+00	0	44	0	585105408	15	4359
2026-01-20 09:08:15.35	99.87	25.12	-27.5	-29.1	15.6	0.00e+00	0	44	0	594542592	15	4317
2026-01-20 09:08:18.51	99.21	25.49	-27.5	-29.0	15.7	0.00e+00	0	44	0	603979776	15	4282
2026-01-20 09:08:21.36	98.61	25.81	-27.8	-29.8	15.3	0.00e+00	0	44	0	613416960	15	4508
2026-01-20 09:08:24.51	97.92	26.18	-28.1	-30.0	15.1	7.00e-07	0	44	0	622854144	16	4441
2026-01-20 09:08:27.37	97.29	26.50	-27.7	-29.0	15.7	0.00e+00	0	44	0	632291328	16	4164
2026-01-20 09:08:30.53	96.57	26.87	-27.8	-29.2	15.6	0.00e+00	0	44	0	641728512	16	4206
2026-01-20 09:08:33.40	95.90	27.20	-28.2	-30.1	15.1	0.00e+00	0	44	0	651165696	16	4470
2026-01-20 09:08:36.55	95.15	27.56	-28.1	-29.9	15.2	0.00e+00	0	44	0	660602880	16	4430
2026-01-20 09:08:39.40	94.46	27.89	-28.2	-30.1	15.1	0.00e+00	0	44	0	670040064	16	4463
2026-01-20 09:08:42.56	93.68	28.25	-28.3	-30.3	15.0	0.00e+00	0	44	0	679477248	16	4530
2026-01-20 09:08:45.43	92.95	28.58	-28.1	-29.9	15.2	0.00e+00	0	44	0	688914432	16	4412
2026-01-20 09:08:48.58	92.14	28.93	-28.0	-29.5	15.4	0.00e+00	0	44	0	698351616	16	4312
2026-01-20 09:08:51.46	91.37	29.26	-28.0	-29.6	15.4	0.00e+00	0	44	0	707788800	16	4342
2026-01-20 09:08:54.61	90.52	29.61	-28.3	-30.2	15.0	0.00e+00	0	44	0	717225984	16	4505
2026-01-20 09:08:57.48	89.73	29.93	-28.0	-29.7	15.4	0.00e+00	0	44	0	725614592	16	4346
2026-01-20 09:09:00.63	88.84	30.28	-28.0	-29.7	15.4	0.00e+00	0	44	0	736100352	16	4344
2026-01-20 09:09:03.49	88.02	30.59	-28.2	-30.1	15.2	0.00e+00	0	44	0	744488960	16	4464
2026-01-20 09:09:06.66	87.09	30.93	-28.0	-29.5	15.5	0.00e+00	0	44	0	754974720	16	4300
2026-01-20 09:09:09.53	86.23	31.23	-27.9	-29.4	15.5	0.00e+00	0	44	0	763363328	16	4270
2026-01-20 09:09:12.69	85.27	31.56	-28.2	-30.1	15.1	0.00e+00	0	44	0	773849088	16	4481
2026-01-20 09:09:15.55	84.38	31.86	-28.6	-30.4	14.7	0.00e+00	0	44	0	782237696	17	4448
2026-01-20 09:09:18.70	83.38	32.18	-28.2	-29.6	15.2	0.00e+00	0	44	0	792723456	17	4212
2026-01-20 09:09:21.57	82.45	32.46	-28.4	-30.0	15.0	0.00e+00	0	44	0	801112064	17	4318
2026-01-20 09:09:24.73	81.41	32.77	-28.6	-30.5	14.7	0.00e+00	0	44	0	811597824	17	4471
2026-01-20 09:09:27.58	80.46	33.04	-28.8	-30.8	14.5	0.00e+00	0	44	0	819986432	17	4564
2026-01-20 09:09:30.72	79.39	33.32	-29.0	-30.9	14.2	2.20e-06	0	44	0	830472192	18	4473
2026-01-20 09:09:33.58	78.40	33.58	-28.8	-30.4	14.5	0.00e+00	0	44	0	838860800	18	4329
2026-01-20 09:09:36.73	77.29	33.85	-28.6	-29.9	14.8	7.00e-07	0	44	0	848297984	18	4188
2026-01-20 09:09:39.59	76.27	34.09	-28.5	-29.6	14.9	0.00e+00	0	44	0	857735168	18	4111
2026-01-20 09:09:42.75	75.12	34.34	-28.8	-30.4	14.5	0.00e+00	0	44	0	867172352	18	4342
2026-01-20 09:09:45.61	74.07	34.56	-29.0	-30.8	14.3	0.00e+00	0	44	0	876609536	18	4452
2026-01-20 09:09:48.75	72.90	34.79	-29.3	-31.6	13.8	6.10e-06	0	44	0	886046720	18	4704
2026-01-20 09:09:51.61	71.81	34.99	-29.4	-31.9	13.7	6.80e-06	0	44	0	895483904	18	4791
2026-01-20 09:09:54.77	70.60	35.19	-29.2	-31.3	14.0	4.50e-06	0	44	0	904921088	18	4598
2026-01-20 09:09:57.64	69.49	35.37	-28.9	-30.6	14.4	0.00e+00	0	44	0	914358272	18	4395
2026-01-20 09:10:00.80	68.25	35.55	-29.2	-31.4	14.0	5.30e-06	0	44	0	923795456	18	4620
2026-01-20 09:10:03.66	67.12	35.70	-29.5	-31.5	13.6	1.14e-05	0	44	0	933232640	19	4548
2026-01-20 09:10:06.82	65.86	35.85	-29.5	-31.6	13.5	1.67e-05	0	44	0	942669824	19	4573
2026-01-20 09:10:09.69	64.70	35.98	-29.4	-31.3	13.7	1.14e-05	0	44	0	952107008	19	4496
2026-01-20 09:10:12.85	63.42	36.10	-28.9	-30.2	14.4	0.00e+00	0	44	0	961544192	19	4156
2026-01-20 09:10:15.70	62.25	36.20	-29.0	-30.2	14.4	7.00e-07	0	44	0	970981376	19	4175
2026-01-20 09:10:18.84	60.96	36.29	-29.1	-30.7	14.1	2.20e-06	0	44	0	980418560	19	4293
2026-01-20 09:10:21.71	59.78	36.36	-29.3	-31.0	13.9	7.60e-06	0	44	0	989855744	19	4377
2026-01-20 09:10:24.86	58.47	36.42	-29.4	-31.2	13.8	2.20e-06	0	44	0	999292928	19	4447
2026-01-20 09:10:27.73	57.28	36.46	-29.0	-30.3	14.4	0.00e+00	0	44	0	1007681536	19	4176
2026-01-20 09:10:30.88	55.96	36.48	-29.3	-31.1	13.9	4.50e-06	0	44	0	1018167296	19	4425
2026-01-20 09:10:33.75	54.77	36.49	-29.3	-31.1	13.9	1.50e-06	0	44	0	1026555904	19	4433
2026-01-20 09:10:36.91	53.45	36.49	-29.3	-31.1	13.9	7.00e-07	0	44	0	1037041664	19	4413
2026-01-20 09:10:39.78	52.25	36.47	-29.1	-30.6	14.1	1.50e-06	0	44	0	1045430272	19	4286
2026-01-20 09:10:42.93	50.94	36.43	-29.3	-31.1	13.9	1.50e-06	0	44	0	1055916032	19	4427
2026-01-20 09:10:45.79	49.75	36.38	-29.5	-31.5	13.6	7.60e-06	0	44	0	1064304640	19	4543
2026-01-20 09:10:48.94	48.45	36.31	-29.2	-30.8	14.1	1.50e-06	0	44	0	1074790400	19	4315
2026-01-20 09:10:51.81	47.27	36.23	-28.9	-30.1	14.4	0.00e+00	0	44	0	1083179008	19	4133
2026-01-20 09:10:54.95	45.99	36.13	-29.0	-30.4	14.3	0.00e+00	0	44	0	1093664768	19	4214
2026-01-20 09:10:57.82	44.82	36.02	-28.9	-30.0	14.5	7.00e-07	0	44	0	1102053376	19	4115
2026-01-20 09:11:00.98	43.55	35.89	-29.3	-31.0	13.9	1.50e-06	0	44	0	1111490560	19	4389
2026-01-20 09:11:03.85	42.40	35.76	-29.2	-30.9	13.9	3.00e-06	0	44	0	1120927744	19	4357
2026-01-20 09:11:07.00	41.15	35.59	-29.3	-31.2	13.8	4.50e-06	0	44	0	1131413504	19	4444
2026-01-20 09:11:09.86	40.03	35.43	-29.2	-30.9	14.0	7.00e-07	0	44	0	1139802112	19	4346
2026-01-20 09:11:13.01	38.80	35.25	-28.9	-30.2	14.3	7.00e-07	0	44	0	1149239296	19	4165
2026-01-20 09:11:15.87	37.71	35.06	-28.9	-30.1	14.4	2.20e-06	0	44	0	1158676480	19	4143
2026-01-20 09:11:19.03	36.51	34.85	-28.9	-30.1	14.4	7.00e-07	0	44	0	1168113664	19	4129
2026-01-20 09:11:21.90	35.43	34.64	-29.2	-30.9	13.9	2.20e-06	0	44	0	1177550848	19	4379
2026-01-20 09:11:25.05	34.27	34.41	-29.2	-30.9	13.9	0.00e+00	0	44	0	1186988032	19	4352
2026-01-20 09:11:27.91	33.23	34.18	-29.4	-31.3	13.7	7.60e-06	0	44	0	1196425216	19	4486
2026-01-20 09:11:31.06	32.10	33.92	-29.6	-31.9	13.3	2.05e-05	0	44	0	1205862400	19	4660
2026-01-20 09:11:33.93	31.09	33.68	-28.5	-29.7	14.9	0.00e+00	0	44	0	1215299584	18	4118
2026-01-20 09:11:37.09	29.99	33.40	-28.6	-30.5	14.6	0.00e+00	0	44	0	1224736768	17	4476
2026-01-20 09:11:39.94	29.02	33.14	-29.6	-31.8	13.3	1.60e-05	0	44	0	1234173952	19	4654
2026-01-20 09:11:43.09	27.96	32.85	-28.0	-29.0	15.5	0.00e+00	0	44	0	1243611136	17	4040
2026-01-20 09:11:45.95	27.02	32.57	-28.1	-29.3	15.3	0.00e+00	0	44	0	1253048320	17	4140
2026-01-20 09:11:49.10	26.00	32.27	-28.7	-30.7	14.5	0.00e+00	0	44	0	1262485504	17	4526
2026-01-20 09:11:51.97	25.08	31.98	-28.8	-30.8	14.4	0.00e+00	0	44	0	1270874112	17	4560
2026-01-20 09:11:55.13	24.10	31.66	-29.1	-31.1	14.0	3.80e-06	0	44	0	1281359872	18	4554
2026-01-20 09:11:57.99	23.22	31.36	-28.7	-30.2	14.5	1.50e-06	0	44	0	1289748480	18	4263
2026-01-20 09:12:01.14	22.28	31.03	-29.2	-31.3	13.9	7.00e-07	0	44	0	1300234240	18	4592
2026-01-20 09:12:04.01	21.43	30.72	-29.3	-31.2	13.7	1.14e-05	0	44	0	1308622848	19	4453
2026-01-20 09:12:07.16	20.53	30.38	-28.9	-30.1	14.3	0.00e+00	0	44	0	1319108608	19	4141
2026-01-20 09:12:10.03	19.71	30.07	-28.8	-30.0	14.4	1.50e-06	0	44	0	1327497216	19	4109
2026-01-20 09:12:13.18	18.84	29.72	-28.4	-29.5	14.9	0.00e+00	0	44	0	1337982976	18	4094
2026-01-20 09:12:16.04	18.07	29.40	-27.9	-28.9	15.5	0.00e+00	0	44	0	1346371584	17	4029
2026-01-20 09:12:19.19	17.23	29.05	-27.5	-28.4	16.0	0.00e+00	0	44	0	1356857344	16	4013
2026-01-20 09:12:22.05	16.49	28.73	-27.6	-28.7	15.8	0.00e+00	0	44	0	1365245952	16	4086
2026-01-20 09:12:25.22	15.69	28.37	-27.4	-28.3	16.1	0.00e+00	0	44	0	1375731712	16	3975
2026-01-20 09:12:28.09	14.97	28.04	-27.7	-28.9	15.7	0.00e+00	0	44	0	1384120320	16	4134
2026-01-20 09:12:31.24	14.20	27.68	-28.1	-29.9	15.2	0.00e+00	0	44	0	1394606080	16	4407
2026-01-20 09:12:34.11	13.52	27.35	-27.9	-29.3	15.5	0.00e+00	0	44	0	1402994688	16	4255
2026-01-20 09:12:37.25	12.79	26.99	-27.9	-29.4	15.4	0.00e+00	0	44	0	1412431872	16	4283
2026-01-20 09:12:40.11	12.14	26.66	-28.3	-30.3	14.9	0.00e+00	0	44	0	1421869056	16	4540
2026-01-20 09:12:43.27	11.43	26.30	-27.7	-29.0	15.6	0.00e+00	0	44	0	1431306240	16	4156
2026-01-20 09:12:46.13	10.81	25.97	-27.7	-28.9	15.6	0.00e+00	0	44	0	1440743424	16	4150
2026-01-20 09:12:49.29	10.14	25.61	-27.7	-28.9	15.7	0.00e+00	0	44	0	1450180608	16	4134
2026-01-20 09:12:52.15	9.54	25.29	-28.2	-30.2	14.9	0.00e+00	0	44	0	1459617792	16	4500
2026-01-20 09:12:55.31	8.89	24.93	-27.9	-29.4	15.3	0.00e+00	0	44	0	1469054976	16	4284
2026-01-20 09:12:58.18	8.32	24.60	-28.0	-29.5	15.2	0.00e+00	0	44	0	1478492160	16	4318
2026-01-20 09:13:01.34	7.70	24.24	-27.7	-29.0	15.5	7.00e-07	0	44	0	1487929344	16	4166
2026-01-20 09:13:04.19	7.16	23.92	-27.5	-28.5	15.8	0.00e+00	0	44	0	1497366528	16	4023
2026-01-20 09:13:07.34	6.57	23.56	-27.7	-28.8	15.6	0.00e+00	0	44	0	1506803712	16	4128
2026-01-20 09:13:10.21	6.05	23.24	-27.4	-28.3	15.9	0.00e+00	0	44	0	1516240896	16	3983
2026-01-20 09:13:13.36	5.48	22.89	-27.5	-28.4	15.8	0.00e+00	0	44	0	1525678080	16	4020
2026-01-20 09:13:16.23	4.98	22.57	-27.7	-29.0	15.5	0.00e+00	0	44	0	1535115264	16	4181
2026-01-20 09:13:19.38	4.44	22.22	-27.8	-29.2	15.3	0.00e+00	0	44	0	1544552448	16	4238
2026-01-20 09:13:22.24	3.96	21.91	-27.8	-29.3	15.3	0.00e+00	0	44	0	1552941056	16	4250
2026-01-20 09:13:25.40	3.44	21.57	-27.9	-29.3	15.2	7.00e-07	0	44	0	1563426816	16	4271
2026-01-20 09:13:28.26	2.99	21.26	-27.9	-29.4	15.2	0.00e+00	0	44	0	1571815424	16	4296
2026-01-20 09:13:31.41	2.49	20.92	-28.4	-30.2	14.5	1.50e-06	0	44	0	1582301184	17	4402
2026-01-20 09:13:34.29	2.05	20.61	-28.2	-29.6	14.8	0.00e+00	0	44	0	1590689792	17	4238
2026-01-20 09:13:37.45	1.57	20.27	-28.3	-29.8	14.6	7.00e-07	0	44	0	1601175552	17	4306
2026-01-20 09:13:40.31	1.15	19.97	-28.0	-29.1	15.1	0.00e+00	0	44	0	1609564160	17	4088
2026-01-20 09:13:43.46	0.70	19.64	-28.0	-29.2	15.0	0.00e+00	0	44	0	1620049920	17	4113
2026-01-20 09:13:46.33	0.29	19.34	-28.2	-29.6	14.8	7.00e-07	0	44	0	1628438528	17	4244
2026-01-20 09:13:49.49	359.86	19.01	-27.9	-28.9	15.1	0.00e+00	0	44	0	1638924288	17	4045
2026-01-20 09:13:52.36	359.47	18.72	-27.7	-28.9	15.4	0.00e+00	0	44	0	1647312896	16	4163
2026-01-20 09:13:55.50	359.05	18.40	-27.9	-29.3	15.1	0.00e+00	0	44	0	1657798656	16	4270
2026-01-20 09:13:58.36	358.68	18.11	-27.8	-29.3	15.1	0.00e+00	0	44	0	1666187264	16	4269
2026-01-20 09:14:01.52	358.28	17.79	-28.0	-29.8	14.9	0.00e+00	0	44	0	1676673024	16	4398
2026-01-20 09:14:04.38	357.92	17.51	-28.3	-30.4	14.5	7.00e-07	0	44	0	1685061632	16	4598
2026-01-20 09:14:07.55	357.53	17.20	-28.3	-30.3	14.6	1.50e-06	0	44	0	1695547392	16	4564
2026-01-20 09:14:10.42	357.19	16.91	-28.2	-30.2	14.6	0.00e+00	0	44	0	1703936000	16	4510
2026-01-20 09:14:13.57	356.82	16.61	-28.0	-29.6	14.9	0.00e+00	0	44	0	1713373184	16	4359
2026-01-20 09:14:16.44	356.49	16.33	-28.1	-30.0	14.7	0.00e+00	0	44	0	1722810368	16	4471
2026-01-20 09:14:19.59	356.13	16.03	-28.3	-30.5	14.4	2.20e-06	0	44	0	1732247552	16	4607
2026-01-20 09:14:22.45	355.82	15.76	-28.8	-31.1	13.7	5.30e-06	0	44	0	1741684736	17	4704
2026-01-20 09:14:25.60	355.48	15.46	-28.8	-31.1	13.7	6.10e-06	0	44	0	1751121920	17	4706
2026-01-20 09:14:28.46	355.17	15.20	-28.8	-31.1	13.7	6.10e-06	0	44	0	1760559104	17	4714
2026-01-20 09:14:31.61	354.84	14.91	-28.6	-30.7	13.9	4.50e-06	0	44	0	1769996288	17	4580
2026-01-20 09:14:34.46	354.55	14.64	-28.6	-30.5	13.9	3.80e-06	0	44	0	1779433472	17	4518
2026-01-20 09:14:37.61	354.23	14.36	-28.2	-29.7	14.5	0.00e+00	0	44	0	1788870656	17	4263
2026-01-20 09:14:40.47	353.95	14.10	-28.3	-29.9	14.3	7.00e-07	0	44	0	1798307840	17	4341
2026-01-20 09:14:43.62	353.65	13.82	-28.4	-30.1	14.2	1.50e-06	0	44	0	1807745024	17	4404
2026-01-20 09:14:46.49	353.38	13.56	-28.8	-31.2	13.5	1.22e-05	0	44	0	1817182208	17	4729
2026-01-20 09:14:49.63	353.08	13.29	-28.9	-31.4	13.4	2.13e-05	0	44	0	1826619392	17	4814
2026-01-20 09:14:52.50	352.82	13.03	-28.9	-31.5	13.3	1.98e-05	0	44	0	1836056576	17	4826
2026-01-20 09:14:55.65	352.54	12.76	-28.9	-31.4	13.3	9.10e-06	0	44	0	1845493760	17	4821
2026-01-20 09:14:58.51	352.29	12.52	-28.8	-31.2	13.5	1.14e-05	0	44	0	1853882368	17	4753
2026-01-20 09:15:01.68	352.01	12.25	-28.8	-31.2	13.4	8.30e-06	0	44	0	1864368128	17	4753
2026-01-20 09:15:04.54	351.77	12.00	-28.8	-30.7	13.4	1.83e-05	0	44	0	1872756736	18	4483
2026-01-20 09:15:07.70	351.51	11.74	-28.6	-30.1	13.7	6.10e-06	0	44	0	1883242496	18	4303
2026-01-20 09:15:10.58	351.27	11.50	-28.6	-30.2	13.7	9.90e-06	0	44	0	1891631104	18	4311
2026-01-20 09:15:13.73	351.02	11.24	-28.8	-30.7	13.4	1.29e-05	0	44	0	1902116864	18	4474
2026-01-20 09:15:16.60	350.79	11.01	-28.7	-30.5	13.5	9.90e-06	0	44	0	1910505472	18	4401
2026-01-20 09:15:19.74	350.54	10.75	-28.7	-30.4	13.5	1.29e-05	0	44	0	1920991232	18	4391
2026-01-20 09:15:22.61	350.33	10.52	-28.9	-30.8	13.3	1.83e-05	0	44	0	1929379840	18	4523
2026-01-20 09:15:25.76	350.09	10.27	-29.0	-31.3	13.0	6.63e-05	0	44	0	1939865600	18	4670
2026-01-20 09:15:28.62	349.88	10.04	-29.1	-31.4	12.9	4.27e-05	0	44	0	1948254208	18	4700
2026-01-20 09:15:31.77	349.65	9.79	-29.3	-31.9	12.6	1.20e-04	0	44	0	1958739968	18	4878
2026-01-20 09:15:34.63	349.44	9.57	-29.4	-32.3	12.3	1.96e-04	0	44	0	1967128576	18	5001
2026-01-20 09:15:37.78	349.22	9.33	-29.5	-31.9	12.2	2.08e-04	0	44	0	1976565760	19	4777
2026-01-20 09:15:40.64	349.03	9.11	-29.4	-31.8	12.3	1.50e-04	0	44	0	1986002944	19	4718
2026-01-20 09:15:43.78	348.81	8.87	-29.7	-32.5	11.8	4.99e-04	0	44	0	1995440128	19	4976
2026-01-20 09:15:46.64	348.62	8.65	-29.8	-32.3	11.5	9.44e-04	0	44	0	2004877312	20	4809
2026-01-20 09:15:49.79	348.42	8.41	-29.9	-32.7	11.1	1.24e-03	0	44	0	2014314496	20	4958
2026-01-20 09:15:52.66	348.23	8.20	-29.7	-32.1	11.5	9.15e-04	0	44	0	2023751680	20	4754
2026-01-20 09:15:55.81	348.03	7.97	-29.6	-31.9	11.6	8.90e-04	0	44	0	2033188864	20	4703
2026-01-20 09:15:58.68	347.85	7.75	-29.6	-31.9	11.6	5.94e-04	0	44	0	2042626048	20	4689
2026-01-20 09:16:01.84	347.66	7.52	-29.8	-32.4	11.3	1.69e-03	0	44	0	2052063232	20	4873
2026-01-20 09:16:04.71	347.48	7.32	-29.9	-32.7	11.0	1.76e-03	0	44	0	2061500416	20	4963
2026-01-20 09:16:07.86	347.30	7.09	-29.9	-32.8	11.0	1.84e-03	0	44	0	2070937600	20	5000

#Closed at: 2026-01-20 09:16:10
#Recorded file [2073 MB]: D:/data/31010_260120_120504.dat