passes_logs/2026/01/20/R2M6_AANII_01/R2M6_AANII_01__20260120_232227_SUOMI_NPP_rec.log

#Pass ID: 20260120_232227_SUOMI NPP
#Satellite: SUOMI NPP
#Configuration: NPP
#almurnet v.1.7.20240730
#Start time: 2026-01-20 23:22:29

#Version: 2.2.20231116
#Station: R2M6_AANII_01
#Location: 30.233357 lon 59.946436 lat
#TLE: 1 37849U 11061A   26020.31993517  .00000142  00000+0  88240-4 0  9990
#TLE: 2 37849  98.7818 322.3228 0002330  54.3778 305.7615 14.19527005737466

#Time	Az	El	Level	Level2	SNR	BER	BlckErr	Temp	State	Recorded	gain1	gain2
2026-01-20 23:22:29.19	24.90	7.09	-32.1	-36.9	4.9	1.27e+00	0	42	0	0	24	6234
2026-01-20 23:22:32.20	25.09	7.30	-32.3	-37.8	7.0	1.67e-01	0	42	0	1048576	24	6747
2026-01-20 23:22:35.21	25.29	7.52	-31.9	-35.5	8.8	4.66e-02	0	42	0	7340032	24	5485
2026-01-20 23:22:38.21	25.48	7.73	-31.7	-35.5	9.3	2.67e-02	0	42	0	12582912	23	5528
2026-01-20 23:22:41.23	25.68	7.95	-31.7	-35.1	9.6	1.11e-02	0	42	0	17825792	23	5368
2026-01-20 23:22:44.25	25.88	8.17	-31.5	-34.6	10.0	8.73e-03	0	43	0	24117248	23	5136
2026-01-20 23:22:47.27	26.09	8.40	-31.6	-34.9	9.8	8.29e-03	0	43	0	29360128	23	5257
2026-01-20 23:22:50.27	26.29	8.62	-31.5	-34.6	10.1	6.38e-03	0	43	0	35651584	23	5132
2026-01-20 23:22:53.29	26.50	8.85	-31.4	-34.2	10.4	4.80e-03	0	43	0	40894464	23	4960
2026-01-20 23:22:56.30	26.72	9.08	-31.4	-34.0	10.5	4.24e-03	0	43	0	46137344	23	4882
2026-01-20 23:22:59.31	26.93	9.31	-31.3	-33.7	10.8	2.28e-03	0	43	0	52428800	23	4760
2026-01-20 23:23:02.32	27.15	9.54	-31.3	-34.2	10.9	2.28e-03	0	43	0	57671680	22	5012
2026-01-20 23:23:05.33	27.37	9.77	-31.3	-34.1	10.9	2.27e-03	0	43	0	63963136	22	4990
2026-01-20 23:23:08.33	27.60	10.01	-31.6	-34.3	11.2	9.35e-04	0	43	0	69206016	22	4886
2026-01-20 23:23:11.33	27.83	10.24	-31.1	-33.4	11.5	9.41e-04	0	43	0	74448896	22	4691
2026-01-20 23:23:14.35	28.06	10.48	-30.9	-33.3	11.9	6.07e-04	0	43	0	80740352	21	4749
2026-01-20 23:23:17.36	28.30	10.72	-31.0	-33.2	11.7	4.82e-04	0	43	0	85983232	22	4619
2026-01-20 23:23:20.38	28.54	10.97	-31.0	-33.0	11.8	8.72e-04	0	43	0	91226112	22	4575
2026-01-20 23:23:23.39	28.78	11.21	-30.9	-33.5	11.8	6.14e-04	0	43	0	97517568	21	4834
2026-01-20 23:23:26.40	29.03	11.46	-30.9	-33.4	11.9	7.13e-04	0	44	0	102760448	21	4798
2026-01-20 23:23:29.41	29.28	11.71	-31.0	-33.2	11.7	8.97e-04	0	44	0	109051904	22	4638
2026-01-20 23:23:32.43	29.54	11.96	-31.0	-33.3	11.7	5.58e-04	0	44	0	114294784	22	4651
2026-01-20 23:23:35.44	29.80	12.21	-30.9	-33.3	12.0	3.32e-04	0	44	0	119537664	21	4772
2026-01-20 23:23:38.44	30.06	12.47	-30.8	-33.0	12.3	6.27e-04	0	44	0	125829120	21	4656
2026-01-20 23:23:41.45	30.33	12.72	-30.9	-33.2	12.1	4.90e-04	0	44	0	131072000	21	4728
2026-01-20 23:23:44.46	30.60	12.98	-30.7	-32.7	12.4	4.48e-04	0	44	0	137363456	21	4531
2026-01-20 23:23:47.46	30.88	13.25	-30.7	-32.6	12.5	4.31e-04	0	44	0	142606336	21	4517
2026-01-20 23:23:50.47	31.16	13.51	-30.6	-32.3	12.8	4.16e-04	0	44	0	147849216	21	4400
2026-01-20 23:23:53.48	31.45	13.78	-30.4	-31.8	13.1	2.26e-04	0	44	0	154140672	21	4247
2026-01-20 23:23:56.48	31.74	14.04	-30.3	-32.1	13.2	3.08e-04	0	44	0	159383552	20	4430
2026-01-20 23:23:59.49	32.04	14.32	-30.4	-31.9	13.1	2.42e-04	0	44	0	164626432	21	4278
2026-01-20 23:24:02.50	32.34	14.59	-30.6	-32.2	12.8	2.70e-04	0	44	0	170917888	21	4368
2026-01-20 23:24:05.50	32.65	14.86	-30.7	-32.8	12.5	3.33e-04	0	44	0	176160768	21	4557
2026-01-20 23:24:08.52	32.96	15.14	-31.1	-33.2	11.9	4.07e-04	0	44	0	182452224	22	4606
2026-01-20 23:24:11.52	33.28	15.42	-30.9	-32.6	12.3	3.04e-04	0	44	0	187695104	22	4389
2026-01-20 23:24:14.53	33.60	15.71	-30.6	-31.9	12.9	8.92e-05	0	44	0	192937984	22	4152
2026-01-20 23:24:17.53	33.93	15.99	-30.7	-32.2	12.6	1.28e-04	0	44	0	199229440	22	4260
2026-01-20 23:24:20.56	34.27	16.28	-30.6	-31.9	13.0	3.28e-05	0	44	0	204472320	22	4157
2026-01-20 23:24:23.57	34.62	16.57	-30.7	-32.2	12.8	1.94e-04	0	44	0	209715200	22	4246
2026-01-20 23:24:26.58	34.97	16.87	-30.7	-32.5	12.9	2.00e-04	0	44	0	216006656	21	4434
2026-01-20 23:24:29.59	35.32	17.16	-30.8	-32.8	12.7	6.48e-05	0	44	0	221249536	21	4547
2026-01-20 23:24:32.60	35.69	17.46	-30.9	-33.2	12.4	1.06e-04	0	44	0	227540992	21	4700
2026-01-20 23:24:35.61	36.06	17.76	-31.1	-33.3	12.0	3.39e-04	0	44	0	232783872	22	4614
2026-01-20 23:24:38.60	36.43	18.06	-31.1	-33.3	12.1	3.31e-04	0	44	0	238026752	22	4624
2026-01-20 23:24:41.61	36.82	18.37	-31.3	-33.8	11.7	7.11e-04	0	44	0	244318208	22	4798
2026-01-20 23:24:44.63	37.21	18.68	-31.2	-33.4	12.0	2.73e-04	0	44	0	249561088	22	4662
2026-01-20 23:24:47.63	37.61	18.99	-31.0	-33.0	12.3	1.70e-04	0	44	0	254803968	22	4512
2026-01-20 23:24:50.64	38.02	19.31	-30.8	-32.3	12.8	8.01e-05	0	44	0	261095424	22	4277
2026-01-20 23:24:53.65	38.44	19.62	-30.9	-32.6	12.6	5.72e-05	0	44	0	266338304	22	4369
2026-01-20 23:24:56.66	38.86	19.94	-30.8	-32.4	12.8	7.70e-05	0	44	0	272629760	22	4293
2026-01-20 23:24:59.66	39.29	20.26	-30.9	-32.6	12.6	6.33e-05	0	44	0	277872640	22	4363
2026-01-20 23:25:02.68	39.74	20.59	-31.0	-32.8	12.4	1.49e-04	0	44	0	283115520	22	4435
2026-01-20 23:25:05.68	40.19	20.91	-30.8	-32.3	12.8	5.34e-05	0	44	0	289406976	22	4284
2026-01-20 23:25:08.69	40.65	21.24	-30.7	-32.6	13.0	1.20e-04	0	44	0	294649856	21	4459
2026-01-20 23:25:11.69	41.12	21.58	-30.6	-32.2	13.3	2.21e-05	0	44	0	300941312	21	4323
2026-01-20 23:25:14.70	41.60	21.91	-30.6	-32.3	13.2	7.47e-05	0	45	0	306184192	21	4359
2026-01-20 23:25:17.71	42.09	22.25	-30.7	-32.6	13.0	4.04e-05	0	45	0	311427072	21	4436
2026-01-20 23:25:20.72	42.59	22.59	-30.5	-31.9	13.5	1.37e-05	0	44	0	317718528	21	4236
2026-01-20 23:25:23.72	43.10	22.93	-30.4	-31.5	13.7	3.80e-06	0	44	0	322961408	21	4106
2026-01-20 23:25:26.73	43.63	23.27	-30.7	-32.3	13.3	1.37e-05	0	44	0	328204288	21	4335
2026-01-20 23:25:29.75	44.16	23.62	-31.0	-32.8	12.6	9.15e-05	0	44	0	334495744	22	4423
2026-01-20 23:25:32.76	44.71	23.97	-30.7	-31.8	13.3	6.71e-05	0	45	0	339738624	22	4107
2026-01-20 23:25:35.77	45.27	24.32	-30.3	-30.8	13.9	2.28e-05	0	44	0	346030080	22	3808
2026-01-20 23:25:38.78	45.84	24.67	-30.0	-30.6	14.4	9.00e-05	0	45	0	351272960	21	3845
2026-01-20 23:25:41.78	46.42	25.02	-30.2	-31.1	14.1	2.20e-06	0	45	0	356515840	21	3981
2026-01-20 23:25:44.79	47.02	25.38	-30.1	-30.7	14.3	1.50e-06	0	45	0	362807296	21	3872
2026-01-20 23:25:47.79	47.63	25.74	-30.1	-30.7	14.3	7.00e-07	0	45	0	368050176	21	3885
2026-01-20 23:25:50.80	48.25	26.10	-30.0	-30.6	14.4	7.00e-07	0	45	0	374341632	21	3844
2026-01-20 23:25:53.79	48.88	26.45	-29.8	-30.1	14.7	1.50e-06	0	44	0	379584512	21	3705
2026-01-20 23:25:56.79	49.53	26.81	-30.1	-31.3	14.3	2.42e-04	0	45	0	384827392	20	4121
2026-01-20 23:25:59.80	50.20	27.18	-30.2	-31.5	14.2	2.20e-06	0	45	0	391118848	20	4189
2026-01-20 23:26:02.81	50.88	27.54	-30.3	-31.8	13.9	6.80e-06	0	44	0	396361728	20	4287
2026-01-20 23:26:05.81	51.57	27.90	-30.6	-32.0	13.6	5.64e-04	0	45	0	401604608	21	4236
2026-01-20 23:26:08.83	52.29	28.27	-30.7	-32.2	13.4	3.27e-04	0	45	0	407896064	21	4302
2026-01-20 23:26:11.83	53.01	28.63	-30.8	-32.7	13.1	3.20e-05	0	44	0	413138944	21	4463
2026-01-20 23:26:14.84	53.76	28.99	-31.1	-33.0	12.7	5.18e-05	0	45	0	418381824	22	4448
2026-01-20 23:26:17.85	54.52	29.35	-31.6	-33.8	11.7	2.49e-04	0	45	0	424673280	23	4651
2026-01-20 23:26:20.86	55.30	29.72	-31.4	-32.8	12.1	5.21e-04	0	44	0	429916160	24	4231
2026-01-20 23:26:23.87	56.10	30.08	-31.4	-33.4	12.1	1.96e-04	0	45	0	436207616	23	4490
2026-01-20 23:26:26.87	56.91	30.44	-31.9	-34.3	11.0	2.44e-03	0	45	0	441450496	24	4746
2026-01-20 23:26:29.88	57.74	30.79	-32.6	-36.2	9.3	1.26e-02	0	45	0	446693376	25	5424
2026-01-20 23:26:32.90	58.59	31.15	-32.7	-36.6	8.9	2.21e-02	0	45	0	452984832	25	5646
2026-01-20 23:26:35.90	59.46	31.50	-32.7	-36.6	8.9	1.82e-02	0	44	0	458227712	25	5623
2026-01-20 23:26:38.91	60.34	31.85	-32.9	-37.2	8.5	3.69e-02	0	45	0	464519168	25	5931
2026-01-20 23:26:41.92	61.25	32.20	-32.5	-35.6	9.7	1.46e-02	0	45	0	469762048	25	5192
2026-01-20 23:26:44.92	62.17	32.54	-32.8	-36.8	8.9	2.65e-02	0	45	0	475004928	25	5709
2026-01-20 23:26:47.92	63.11	32.88	-33.1	-37.5	8.0	7.23e-02	0	44	0	481296384	26	5971
2026-01-20 23:26:50.94	64.08	33.21	-32.9	-36.9	8.4	4.39e-02	0	45	0	486539264	26	5673
2026-01-20 23:26:53.96	65.07	33.54	-32.2	-34.9	10.3	6.15e-03	0	45	0	491782144	25	4886
2026-01-20 23:26:56.98	66.07	33.86	-32.7	-36.4	9.0	1.64e-02	0	45	0	498073600	25	5546
2026-01-20 23:26:59.98	67.09	34.18	-32.6	-36.2	9.4	3.27e-02	0	44	0	503316480	25	5421
2026-01-20 23:27:02.98	68.13	34.49	-31.7	-33.6	11.7	6.58e-04	0	45	0	509607936	24	4465
2026-01-20 23:27:05.99	69.19	34.79	-32.1	-34.9	10.8	1.43e-03	0	45	0	514850816	24	4950
2026-01-20 23:27:09.00	70.27	35.08	-32.6	-35.9	9.6	1.13e-02	0	45	0	520093696	25	5301
2026-01-20 23:27:12.00	71.37	35.36	-31.9	-33.6	11.4	1.46e-03	0	45	0	526385152	25	4397
2026-01-20 23:27:15.00	72.48	35.64	-31.3	-32.4	12.5	1.71e-04	0	45	0	531628032	24	4082
2026-01-20 23:27:18.01	73.62	35.90	-31.6	-33.8	11.9	5.83e-04	0	45	0	536870912	23	4635
2026-01-20 23:27:21.02	74.78	36.16	-31.5	-33.3	12.3	2.02e-04	0	45	0	543162368	23	4459
2026-01-20 23:27:24.02	75.95	36.40	-31.5	-33.6	12.1	1.54e-04	0	45	0	548405248	23	4543
2026-01-20 23:27:27.03	77.14	36.63	-31.5	-33.0	12.2	6.24e-04	0	44	0	554696704	24	4256
2026-01-20 23:27:30.04	78.34	36.85	-31.6	-33.9	11.8	1.86e-04	0	44	0	559939584	23	4665
2026-01-20 23:27:33.05	79.57	37.06	-30.8	-31.5	13.4	7.62e-05	0	45	0	565182464	23	3912
2026-01-20 23:27:36.04	80.80	37.25	-30.3	-31.3	14.2	0.00e+00	0	44	0	571473920	21	4015
2026-01-20 23:27:39.05	82.05	37.43	-31.4	-33.7	12.3	1.07e-04	0	44	0	576716800	22	4690
2026-01-20 23:27:42.06	83.31	37.60	-31.6	-33.7	12.0	3.15e-04	0	44	0	581959680	23	4611
2026-01-20 23:27:45.07	84.59	37.75	-31.2	-32.5	12.8	7.09e-05	0	45	0	588251136	23	4200
2026-01-20 23:27:48.07	85.87	37.89	-31.4	-33.0	12.5	9.30e-05	0	45	0	593494016	23	4350
2026-01-20 23:27:51.06	87.16	38.01	-31.8	-34.4	11.5	5.23e-04	0	44	0	599785472	23	4853
2026-01-20 23:27:54.07	88.47	38.11	-32.5	-35.6	9.8	7.37e-03	0	44	0	605028352	25	5129
2026-01-20 23:27:57.06	89.78	38.20	-31.6	-33.3	12.0	3.29e-04	0	45	0	610271232	24	4372
2026-01-20 23:28:00.08	91.10	38.27	-31.3	-32.3	12.7	1.50e-04	0	45	0	616562688	24	4052
2026-01-20 23:28:03.08	92.43	38.33	-32.8	-36.9	9.0	1.16e-02	0	44	0	621805568	25	5731
2026-01-20 23:28:06.09	93.76	38.36	-31.6	-33.1	12.2	5.88e-04	0	45	0	627048448	24	4291
2026-01-20 23:28:09.10	95.09	38.39	-30.9	-31.6	13.4	2.05e-05	0	45	0	633339904	23	3932
2026-01-20 23:28:12.11	96.43	38.39	-31.0	-32.4	13.1	2.13e-05	0	45	0	638582784	22	4258
2026-01-20 23:28:15.13	97.76	38.38	-30.7	-31.8	13.7	1.90e-05	0	44	0	644874240	22	4066
2026-01-20 23:28:18.14	99.10	38.35	-30.9	-32.2	13.4	1.29e-05	0	45	0	650117120	22	4197
2026-01-20 23:28:21.16	100.43	38.30	-30.6	-31.4	13.9	7.00e-07	0	45	0	655360000	22	3944
2026-01-20 23:28:24.17	101.76	38.24	-30.5	-31.2	14.1	3.00e-06	0	45	0	661651456	22	3894
2026-01-20 23:28:27.17	103.07	38.15	-31.0	-33.0	13.3	4.50e-06	0	45	0	666894336	21	4530
2026-01-20 23:28:30.18	104.38	38.06	-31.2	-32.5	12.7	9.84e-05	0	45	0	672137216	23	4193
2026-01-20 23:28:33.20	105.69	37.94	-31.2	-32.7	12.8	5.03e-05	0	45	0	678428672	23	4261
2026-01-20 23:28:36.21	106.99	37.82	-31.0	-32.2	13.0	2.67e-05	0	44	0	683671552	23	4102
2026-01-20 23:28:39.23	108.28	37.67	-32.2	-35.1	10.5	4.50e-03	0	45	0	689963008	24	5047
2026-01-20 23:28:42.22	109.54	37.51	-30.7	-31.7	13.7	4.50e-06	0	45	0	695205888	22	4047
2026-01-20 23:28:45.23	110.80	37.34	-31.4	-33.1	12.4	2.36e-04	0	44	0	700448768	23	4379
2026-01-20 23:28:48.23	112.04	37.15	-31.2	-33.1	12.8	1.52e-05	0	44	0	706740224	22	4477
2026-01-20 23:28:51.24	113.27	36.95	-32.4	-35.2	10.1	8.19e-03	0	45	0	711983104	25	4987
2026-01-20 23:28:54.24	114.49	36.73	-32.1	-34.2	10.9	2.12e-03	0	45	0	718274560	25	4599
2026-01-20 23:28:57.26	115.69	36.51	-30.8	-31.6	13.3	1.24e-04	0	45	0	723517440	23	3921
2026-01-20 23:29:00.25	116.87	36.27	-30.7	-32.3	13.5	8.30e-06	0	45	0	728760320	21	4311
2026-01-20 23:29:03.27	118.04	36.02	-31.8	-33.9	11.5	1.55e-03	0	45	0	735051776	24	4565
2026-01-20 23:29:06.27	119.18	35.76	-31.5	-33.3	12.2	8.77e-05	0	45	0	740294656	23	4479
2026-01-20 23:29:09.28	120.31	35.48	-31.5	-33.5	12.0	6.67e-04	0	44	0	745537536	23	4535
2026-01-20 23:29:12.28	121.42	35.20	-30.9	-32.2	13.3	1.14e-05	0	45	0	751828992	22	4205
2026-01-20 23:29:15.29	122.51	34.91	-32.0	-34.5	11.0	3.92e-03	0	45	0	757071872	24	4813
2026-01-20 23:29:18.29	123.58	34.62	-31.6	-33.3	11.9	2.49e-04	0	45	0	762314752	24	4376
2026-01-20 23:29:21.30	124.64	34.31	-33.0	-37.3	8.1	5.76e-02	0	45	0	768606208	26	5905
2026-01-20 23:29:24.31	125.67	34.00	-32.6	-35.6	9.4	1.44e-02	0	45	0	773849088	26	5069
2026-01-20 23:29:27.31	126.68	33.68	-33.2	-38.2	7.4	1.13e-01	0	45	0	780140544	26	6388
2026-01-20 23:29:30.32	127.68	33.35	-32.0	-34.2	10.8	2.79e-03	0	44	0	785383424	25	4616
2026-01-20 23:29:33.32	128.65	33.02	-33.5	-39.3	6.3	1.35e-01	0	45	0	790626304	27	6990
2026-01-20 23:29:36.33	129.61	32.68	-31.8	-33.6	11.1	6.06e-03	0	45	0	796917760	25	4424
2026-01-20 23:29:39.34	130.54	32.34	-32.5	-35.8	9.6	6.14e-03	0	45	0	802160640	25	5273
2026-01-20 23:29:42.35	131.46	31.99	-32.4	-35.1	9.8	2.13e-02	0	45	0	808452096	26	4889
2026-01-20 23:29:45.36	132.36	31.64	-31.9	-34.5	10.8	1.82e-03	0	45	0	813694976	24	4846
2026-01-20 23:29:48.37	133.24	31.29	-31.2	-32.8	12.2	4.41e-04	0	45	0	818937856	23	4348
2026-01-20 23:29:51.36	134.09	30.93	-31.4	-33.5	11.9	4.20e-04	0	45	0	825229312	23	4567
2026-01-20 23:29:54.37	134.93	30.57	-31.9	-34.6	10.7	4.00e-03	0	45	0	830472192	24	4883
2026-01-20 23:29:57.38	135.76	30.21	-30.9	-31.9	13.0	4.68e-04	0	45	0	835715072	23	4048
2026-01-20 23:30:00.39	136.57	29.85	-31.5	-33.6	11.8	1.47e-03	0	45	0	842006528	23	4595
2026-01-20 23:30:03.41	137.36	29.49	-30.3	-31.2	14.0	7.12e-04	0	45	0	847249408	21	4017
2026-01-20 23:30:06.42	138.13	29.12	-30.9	-33.0	12.8	5.91e-04	0	45	0	853540864	21	4558
2026-01-20 23:30:09.43	138.88	28.76	-30.5	-32.0	13.5	3.28e-05	0	45	0	858783744	21	4241
2026-01-20 23:30:12.44	139.62	28.39	-30.5	-31.9	13.5	1.06e-05	0	45	0	864026624	21	4227
2026-01-20 23:30:15.44	140.34	28.02	-31.3	-33.5	12.1	2.97e-04	0	45	0	870318080	22	4655
2026-01-20 23:30:18.44	141.04	27.66	-29.5	-29.8	15.1	0.00e+00	0	45	0	875560960	20	3713
2026-01-20 23:30:21.45	141.73	27.29	-29.3	-30.4	15.4	0.00e+00	0	45	0	880803840	18	4046
2026-01-20 23:30:24.46	142.41	26.93	-29.8	-31.1	14.7	1.20e-03	0	45	0	887095296	19	4179
2026-01-20 23:30:27.46	143.06	26.57	-28.7	-28.9	16.2	0.00e+00	0	45	0	892338176	18	3683
2026-01-20 23:30:30.48	143.71	26.20	-29.1	-29.9	15.7	0.00e+00	0	45	0	898629632	18	3927
2026-01-20 23:30:33.49	144.34	25.84	-29.9	-31.3	14.5	7.00e-07	0	45	0	903872512	19	4235
2026-01-20 23:30:36.51	144.96	25.48	-29.3	-30.4	15.4	0.00e+00	0	45	0	909115392	18	4059
2026-01-20 23:30:39.51	145.56	25.12	-29.4	-30.1	15.1	0.00e+00	0	45	0	915406848	19	3901
2026-01-20 23:30:42.51	146.15	24.77	-29.8	-31.1	14.5	7.00e-07	0	45	0	920649728	19	4192
2026-01-20 23:30:45.52	146.73	24.41	-28.7	-29.8	14.6	7.00e-07	0	45	0	925892608	19	4103
2026-01-20 23:30:48.53	147.29	24.06	-29.1	-29.9	14.1	1.86e-03	0	45	0	932184064	18	3944
2026-01-20 23:30:51.53	147.85	23.71	-29.5	-30.8	14.9	0.00e+00	0	44	0	937426944	18	4179
2026-01-20 23:30:54.54	148.39	23.36	-30.0	-31.2	14.1	0.00e+00	0	45	0	943718400	20	4129
2026-01-20 23:30:57.55	148.92	23.01	-29.7	-30.8	14.6	0.00e+00	0	45	0	948961280	19	4101
2026-01-20 23:31:00.56	149.43	22.66	-29.7	-30.9	14.5	7.00e-07	0	45	0	954204160	19	4127
2026-01-20 23:31:03.57	149.94	22.32	-29.6	-30.6	14.6	0.00e+00	0	45	0	960495616	19	4039
2026-01-20 23:31:06.59	150.44	21.98	-29.3	-30.5	15.1	1.96e-03	0	45	0	965738496	18	4103
2026-01-20 23:31:09.60	150.92	21.64	-29.7	-30.9	14.5	2.23e-03	0	45	0	972029952	19	4129
2026-01-20 23:31:12.60	151.40	21.31	-29.9	-31.4	14.2	2.01e-03	0	45	0	977272832	19	4282
2026-01-20 23:31:15.61	151.86	20.97	-29.8	-31.0	14.4	1.98e-03	0	45	0	982515712	19	4157
2026-01-20 23:31:18.62	152.32	20.64	-30.0	-31.6	14.0	7.00e-07	0	45	0	988807168	19	4341
2026-01-20 23:31:21.63	152.77	20.32	-30.7	-32.6	12.7	7.17e-05	0	45	0	994050048	21	4474
2026-01-20 23:31:24.64	153.20	19.99	-31.1	-33.4	11.8	2.67e-03	0	45	0	999292928	22	4677
2026-01-20 23:31:27.65	153.63	19.67	-30.7	-32.8	12.5	2.53e-03	0	45	0	1005584384	21	4561
2026-01-20 23:31:30.65	154.05	19.35	-30.4	-32.3	13.1	2.30e-03	0	45	0	1010827264	20	4507
2026-01-20 23:31:33.67	154.47	19.03	-30.4	-32.5	12.9	2.17e-03	0	45	0	1017118720	20	4575
2026-01-20 23:31:36.67	154.87	18.72	-30.7	-32.7	12.5	2.56e-03	0	44	0	1022361600	21	4533
2026-01-20 23:31:39.67	155.26	18.41	-30.8	-32.9	12.3	2.19e-04	0	45	0	1027604480	21	4617
2026-01-20 23:31:42.68	155.65	18.10	-30.4	-32.0	12.9	2.26e-03	0	45	0	1033895936	21	4307
2026-01-20 23:31:45.69	156.03	17.79	-30.2	-32.0	13.2	2.41e-03	0	45	0	1039138816	20	4400
2026-01-20 23:31:48.69	156.40	17.49	-30.3	-32.2	13.0	2.29e-03	0	45	0	1044381696	20	4501
2026-01-20 23:31:51.70	156.77	17.18	-30.4	-32.5	12.8	2.12e-03	0	45	0	1050673152	20	4572
2026-01-20 23:31:54.71	157.13	16.89	-30.7	-32.9	12.3	2.51e-03	0	45	0	1055916032	21	4610
2026-01-20 23:31:57.71	157.48	16.59	-30.5	-32.3	12.7	9.84e-05	0	45	0	1062207488	21	4401
2026-01-20 23:32:00.71	157.82	16.30	-30.5	-32.3	12.6	1.45e-04	0	45	0	1067450368	21	4408
2026-01-20 23:32:03.72	158.16	16.01	-30.4	-32.0	12.8	9.38e-05	0	45	0	1072693248	21	4327
2026-01-20 23:32:06.73	158.49	15.72	-30.8	-33.1	12.0	2.77e-04	0	45	0	1078984704	21	4693
2026-01-20 23:32:09.75	158.82	15.43	-31.2	-33.9	11.1	4.01e-03	0	45	0	1084227584	22	4909
2026-01-20 23:32:12.75	159.14	15.15	-31.2	-33.9	11.1	3.96e-03	0	45	0	1089470464	22	4924
2026-01-20 23:32:15.77	159.46	14.87	-31.1	-33.7	11.2	9.72e-04	0	45	0	1095761920	22	4849
2026-01-20 23:32:18.76	159.77	14.59	-30.9	-33.6	11.6	5.25e-04	0	45	0	1101004800	21	4926
2026-01-20 23:32:21.77	160.07	14.31	-30.7	-33.1	11.9	3.47e-04	0	45	0	1107296256	21	4746
2026-01-20 23:32:24.78	160.37	14.04	-30.7	-33.1	11.7	5.88e-04	0	45	0	1112539136	21	4769
2026-01-20 23:32:27.80	160.66	13.77	-30.7	-33.3	11.7	6.81e-04	0	45	0	1117782016	21	4832
2026-01-20 23:32:30.80	160.95	13.50	-30.8	-33.5	11.5	7.69e-04	0	45	0	1124073472	21	4934
2026-01-20 23:32:33.81	161.23	13.23	-30.8	-33.5	11.6	8.00e-04	0	45	0	1129316352	21	4893
2026-01-20 23:32:36.81	161.51	12.97	-30.7	-33.0	11.8	3.97e-04	0	45	0	1134559232	21	4691
2026-01-20 23:32:39.82	161.78	12.70	-30.6	-32.7	12.0	2.31e-04	0	45	0	1140850688	21	4602
2026-01-20 23:32:42.84	162.05	12.44	-30.5	-32.6	12.1	1.94e-04	0	45	0	1146093568	21	4571
2026-01-20 23:32:45.84	162.32	12.19	-30.3	-32.5	12.5	1.30e-04	0	45	0	1152385024	20	4652
2026-01-20 23:32:48.84	162.58	11.93	-30.3	-32.2	12.3	2.78e-04	0	45	0	1157627904	21	4489
2026-01-20 23:32:51.85	162.83	11.68	-30.4	-33.1	12.0	3.58e-04	0	45	0	1162870784	20	4896
2026-01-20 23:32:54.85	163.08	11.43	-30.6	-33.3	11.4	9.03e-04	0	45	0	1169162240	21	4923
2026-01-20 23:32:57.86	163.33	11.18	-30.9	-34.3	10.6	2.42e-03	0	45	0	1174405120	21	5322
2026-01-20 23:33:00.86	163.57	10.93	-31.0	-34.3	10.4	5.01e-03	0	45	0	1179648000	22	5239
2026-01-20 23:33:03.88	163.82	10.69	-31.1	-34.3	10.3	3.64e-03	0	45	0	1185939456	22	5248
2026-01-20 23:33:06.88	164.05	10.44	-31.2	-34.9	9.8	9.39e-03	0	45	0	1191182336	22	5490
2026-01-20 23:33:09.88	164.28	10.20	-31.3	-35.1	9.7	1.35e-02	0	45	0	1197473792	22	5566
2026-01-20 23:33:12.89	164.51	9.96	-31.3	-34.8	10.0	8.91e-03	0	45	0	1202716672	22	5387
2026-01-20 23:33:15.90	164.74	9.73	-31.4	-35.2	9.7	9.68e-03	0	45	0	1207959552	22	5538
2026-01-20 23:33:18.90	164.96	9.49	-31.5	-35.0	9.4	1.44e-02	0	45	0	1214251008	23	5379
2026-01-20 23:33:21.91	165.18	9.26	-31.5	-34.8	9.6	1.56e-02	0	45	0	1219493888	23	5293
2026-01-20 23:33:24.91	165.39	9.03	-31.7	-35.6	8.9	2.10e-02	0	45	0	1224736768	23	5665
2026-01-20 23:33:27.92	165.60	8.80	-31.2	-34.5	10.1	7.57e-03	0	45	0	1231028224	22	5259
2026-01-20 23:33:30.92	165.81	8.57	-31.1	-34.2	10.3	5.72e-03	0	45	0	1236271104	22	5136
2026-01-20 23:33:33.94	166.02	8.34	-31.2	-34.5	10.1	5.49e-03	0	45	0	1242562560	22	5235
2026-01-20 23:33:36.95	166.22	8.12	-31.3	-34.6	10.0	9.35e-03	0	45	0	1247805440	22	5316
2026-01-20 23:33:39.95	166.42	7.90	-31.3	-34.7	9.9	8.83e-03	0	45	0	1253048320	22	5357
2026-01-20 23:33:42.97	166.62	7.67	-31.3	-34.9	9.6	1.07e-02	0	45	0	1259339776	22	5410
2026-01-20 23:33:45.98	166.81	7.45	-31.4	-35.0	9.7	9.70e-03	0	45	0	1264582656	22	5472
2026-01-20 23:33:48.99	167.00	7.24	-31.3	-34.6	9.9	9.26e-03	0	45	0	1270874112	22	5312
2026-01-20 23:33:52.01	167.19	7.02	-32.9	-45.3	3.8	1.49e+00	0	45	104	1275068416	26	15115

#Closed at: 2026-01-20 23:33:54
#Recorded file [1275 MB]: D:/data/31010_260121_022231.dat