passes_logs/2026/01/20/R2M6_AANII_01/R2M6_AANII_01__20260120_234259_NOAA_20_JPSS-1_rec.log

#Pass ID: 20260120_234259_NOAA 20 (JPSS-1)
#Satellite: NOAA 20 (JPSS-1)
#Configuration: NOAA 20
#almurnet v.1.7.20240730
#Start time: 2026-01-20 23:43:00

#Version: 2.2.20231116
#Station: R2M6_AANII_01
#Location: 30.233357 lon 59.946436 lat
#TLE: 1 43013U 17073A   26020.26397077  .00000127  00000+0  80954-4 0  9999
#TLE: 2 43013  98.7643 321.1479 0001288  31.3158 328.8095 14.19537595423482

#Time	Az	El	Level	Level2	SNR	BER	BlckErr	Temp	State	Recorded	gain1	gain2
2026-01-20 23:43:00.31	21.80	7.03	-31.4	-37.3	5.2	1.24e+00	0	42	0	0	22	7134
2026-01-20 23:43:03.32	21.91	7.25	-31.8	-38.6	7.4	1.28e-01	0	42	0	1048576	23	7890
2026-01-20 23:43:06.32	22.03	7.48	-31.6	-37.4	8.4	4.89e-02	0	42	0	7340032	23	7009
2026-01-20 23:43:09.33	22.15	7.71	-31.5	-37.1	8.7	3.38e-02	0	42	0	12582912	23	6828
2026-01-20 23:43:12.33	22.27	7.94	-31.4	-37.1	9.1	2.48e-02	0	42	0	17825792	22	6912
2026-01-20 23:43:15.35	22.40	8.17	-30.9	-35.8	10.4	5.10e-03	0	43	0	24117248	21	6331
2026-01-20 23:43:18.36	22.53	8.41	-30.9	-35.9	10.5	4.10e-03	0	43	0	29360128	21	6337
2026-01-20 23:43:21.37	22.65	8.65	-30.9	-35.6	10.6	3.49e-03	0	43	0	35651584	21	6212
2026-01-20 23:43:24.38	22.78	8.89	-31.0	-35.4	10.4	5.10e-03	0	43	0	40894464	22	6005
2026-01-20 23:43:27.39	22.92	9.13	-30.7	-35.1	11.0	2.27e-03	0	43	0	46137344	21	5972
2026-01-20 23:43:30.40	23.05	9.37	-30.5	-34.4	11.6	9.94e-04	0	43	0	52428800	21	5619
2026-01-20 23:43:33.42	23.18	9.62	-30.5	-34.5	11.5	9.31e-04	0	43	0	57671680	21	5652
2026-01-20 23:43:36.43	23.32	9.87	-30.5	-34.7	11.8	7.26e-04	0	43	0	63963136	20	5860
2026-01-20 23:43:39.44	23.46	10.12	-30.5	-34.4	11.7	8.31e-04	0	43	0	69206016	21	5602
2026-01-20 23:43:42.45	23.61	10.37	-30.5	-34.3	11.8	8.73e-04	0	43	0	74448896	21	5560
2026-01-20 23:43:45.45	23.75	10.63	-30.6	-34.4	11.6	9.31e-04	0	43	0	80740352	21	5623
2026-01-20 23:43:48.46	23.90	10.89	-30.5	-34.3	11.8	1.09e-03	0	43	0	85983232	21	5584
2026-01-20 23:43:51.46	24.04	11.15	-30.4	-34.5	12.0	6.02e-04	0	43	0	91226112	20	5756
2026-01-20 23:43:54.48	24.20	11.41	-30.6	-34.6	11.6	7.41e-04	0	43	0	97517568	21	5670
2026-01-20 23:43:57.48	24.35	11.68	-30.3	-34.1	12.3	1.46e-04	0	43	0	102760448	20	5575
2026-01-20 23:44:00.49	24.51	11.95	-30.3	-34.2	12.3	5.48e-04	0	43	0	109051904	20	5597
2026-01-20 23:44:03.50	24.67	12.22	-30.3	-34.2	12.3	6.00e-04	0	44	0	114294784	20	5598
2026-01-20 23:44:06.51	24.83	12.50	-30.4	-34.0	12.1	7.79e-04	0	44	0	119537664	21	5412
2026-01-20 23:44:09.52	24.99	12.77	-30.8	-35.2	11.3	1.03e-03	0	44	0	125829120	21	5957
2026-01-20 23:44:12.53	25.16	13.06	-31.0	-35.2	11.0	1.78e-03	0	44	0	131072000	22	5814
2026-01-20 23:44:15.54	25.33	13.34	-30.9	-35.5	11.1	1.17e-03	0	44	0	136314880	21	6064
2026-01-20 23:44:18.56	25.51	13.63	-30.5	-34.2	12.1	3.32e-04	0	44	0	142606336	21	5478
2026-01-20 23:44:21.56	25.68	13.92	-30.7	-34.5	11.9	4.32e-04	0	44	0	147849216	21	5624
2026-01-20 23:44:24.57	25.86	14.21	-30.7	-34.8	11.7	6.23e-04	0	44	0	154140672	21	5736
2026-01-20 23:44:27.57	26.05	14.51	-30.6	-34.4	12.0	5.68e-04	0	44	0	159383552	21	5556
2026-01-20 23:44:30.56	26.23	14.81	-30.4	-34.4	12.3	1.84e-04	0	44	0	164626432	20	5668
2026-01-20 23:44:33.57	26.42	15.11	-29.8	-32.5	13.6	8.30e-06	0	44	0	170917888	20	4905
2026-01-20 23:44:36.59	26.62	15.42	-29.8	-32.9	13.8	8.30e-06	0	44	0	176160768	19	5162
2026-01-20 23:44:39.59	26.81	15.73	-29.6	-32.6	14.0	3.80e-06	0	44	0	181403648	19	5043
2026-01-20 23:44:42.61	27.02	16.05	-29.7	-32.8	13.6	8.30e-06	0	44	0	187695104	19	5126
2026-01-20 23:44:45.63	27.22	16.37	-29.5	-32.1	14.3	0.00e+00	0	44	0	192937984	19	4876
2026-01-20 23:44:48.63	27.43	16.69	-29.4	-32.0	14.4	2.89e-04	0	44	0	199229440	19	4834
2026-01-20 23:44:51.64	27.65	17.02	-29.5	-32.6	14.4	2.90e-04	0	44	0	204472320	18	5150
2026-01-20 23:44:54.65	27.87	17.35	-29.4	-31.9	14.5	7.00e-07	0	44	0	209715200	19	4803
2026-01-20 23:44:57.66	28.09	17.68	-29.4	-32.3	14.6	0.00e+00	0	44	0	216006656	18	5047
2026-01-20 23:45:00.67	28.32	18.02	-29.3	-32.1	14.7	0.00e+00	0	44	0	221249536	18	4955
2026-01-20 23:45:03.68	28.55	18.37	-29.3	-32.2	14.7	0.00e+00	0	44	0	227540992	18	5006
2026-01-20 23:45:06.68	28.79	18.72	-29.4	-32.4	14.6	7.39e-04	0	44	0	232783872	18	5064
2026-01-20 23:45:09.69	29.03	19.07	-29.4	-32.4	14.5	6.49e-04	0	44	0	238026752	18	5099
2026-01-20 23:45:12.70	29.28	19.43	-29.6	-32.5	14.1	5.37e-04	0	44	0	244318208	19	5010
2026-01-20 23:45:15.71	29.54	19.79	-29.5	-32.1	14.4	3.65e-04	0	44	0	249561088	19	4876
2026-01-20 23:45:18.73	29.80	20.16	-29.5	-32.5	14.5	2.86e-04	0	44	0	254803968	18	5110
2026-01-20 23:45:21.74	30.06	20.53	-29.7	-32.5	14.2	2.33e-04	0	44	0	261095424	19	5007
2026-01-20 23:45:24.74	30.34	20.91	-29.4	-32.3	14.7	2.48e-04	0	44	0	266338304	18	5023
2026-01-20 23:45:27.75	30.61	21.29	-29.4	-32.4	14.7	2.41e-04	0	44	0	272629760	18	5063
2026-01-20 23:45:30.76	30.90	21.67	-29.1	-31.6	15.2	3.95e-04	0	44	0	277872640	18	4797
2026-01-20 23:45:33.77	31.19	22.07	-29.1	-31.5	15.3	6.21e-04	0	44	0	283115520	18	4750
2026-01-20 23:45:36.78	31.49	22.47	-29.1	-31.5	15.3	1.46e-03	0	44	0	289406976	18	4739
2026-01-20 23:45:39.78	31.80	22.87	-29.2	-31.8	15.1	0.00e+00	0	44	0	294649856	18	4852
2026-01-20 23:45:42.78	32.11	23.28	-29.2	-31.8	15.1	0.00e+00	0	44	0	300941312	18	4842
2026-01-20 23:45:45.78	32.44	23.69	-29.1	-31.4	15.3	1.49e-04	0	44	0	306184192	18	4732
2026-01-20 23:45:48.80	32.77	24.11	-29.1	-31.6	15.2	7.85e-05	0	44	0	311427072	18	4793
2026-01-20 23:45:51.80	33.11	24.54	-29.5	-32.4	14.7	7.47e-05	0	44	0	317718528	18	5063
2026-01-20 23:45:54.81	33.46	24.97	-29.7	-32.5	14.4	2.89e-05	0	44	0	322961408	19	4966
2026-01-20 23:45:57.81	33.81	25.41	-29.8	-32.8	14.2	7.00e-07	0	44	0	328204288	19	5078
2026-01-20 23:46:00.80	34.18	25.85	-29.9	-33.1	14.0	1.50e-06	0	44	0	334495744	19	5200
2026-01-20 23:46:03.83	34.56	26.31	-30.0	-33.2	14.0	2.20e-06	0	44	0	339738624	19	5243
2026-01-20 23:46:06.84	34.95	26.76	-30.1	-33.0	13.7	3.80e-06	0	44	0	346030080	20	5067
2026-01-20 23:46:09.84	35.35	27.23	-30.3	-33.6	13.4	7.60e-06	0	44	0	351272960	20	5260
2026-01-20 23:46:12.85	35.76	27.70	-30.3	-33.6	13.3	1.06e-05	0	44	0	356515840	20	5274
2026-01-20 23:46:15.86	36.19	28.18	-30.2	-33.4	13.5	9.10e-06	0	44	0	362807296	20	5202
2026-01-20 23:46:18.86	36.62	28.66	-30.6	-33.9	12.9	3.35e-05	0	44	0	368050176	21	5266
2026-01-20 23:46:21.87	37.07	29.15	-31.1	-34.9	11.9	2.72e-04	0	44	0	373293056	22	5581
2026-01-20 23:46:24.89	37.53	29.65	-31.3	-35.5	11.4	6.99e-04	0	44	0	379584512	22	5862
2026-01-20 23:46:27.89	38.01	30.16	-31.4	-35.3	11.3	1.52e-03	0	44	0	384827392	23	5656
2026-01-20 23:46:30.90	38.50	30.67	-31.7	-36.3	10.5	3.21e-03	0	44	0	391118848	23	6125
2026-01-20 23:46:33.90	39.01	31.18	-31.5	-35.5	11.2	1.18e-03	0	44	0	396361728	23	5714
2026-01-20 23:46:36.92	39.53	31.71	-31.5	-35.5	11.2	1.49e-03	0	45	0	401604608	23	5718
2026-01-20 23:46:39.92	40.07	32.24	-31.5	-35.7	11.1	1.81e-03	0	45	0	407896064	23	5812
2026-01-20 23:46:42.93	40.63	32.78	-31.4	-35.4	11.2	1.67e-03	0	44	0	413138944	23	5676
2026-01-20 23:46:45.93	41.21	33.33	-31.1	-34.4	12.0	4.05e-04	0	45	0	418381824	23	5253
2026-01-20 23:46:48.94	41.80	33.88	-30.8	-33.4	12.7	9.15e-05	0	45	0	424673280	23	4876
2026-01-20 23:46:51.94	42.42	34.44	-30.7	-33.6	12.9	4.27e-05	0	44	0	429916160	22	5044
2026-01-20 23:46:54.96	43.06	35.01	-30.7	-33.6	12.9	6.94e-05	0	44	0	436207616	22	5030
2026-01-20 23:46:57.96	43.72	35.58	-30.5	-33.0	13.3	4.50e-05	0	45	0	441450496	22	4830
2026-01-20 23:47:00.96	44.40	36.16	-30.1	-32.5	14.0	5.30e-06	0	45	0	446693376	21	4746
2026-01-20 23:47:03.97	45.10	36.74	-30.3	-33.5	13.7	7.00e-07	0	44	0	452984832	20	5203
2026-01-20 23:47:06.98	45.84	37.33	-30.2	-33.2	13.9	8.30e-06	0	44	0	458227712	20	5103
2026-01-20 23:47:09.99	46.60	37.93	-30.1	-33.0	14.0	4.50e-06	0	44	0	463470592	20	5012
2026-01-20 23:47:13.00	47.38	38.53	-29.7	-32.0	14.6	9.90e-06	0	45	0	469762048	20	4684
2026-01-20 23:47:16.00	48.20	39.13	-29.4	-32.1	15.3	2.14e-04	0	44	0	475004928	18	4921
2026-01-20 23:47:19.02	49.05	39.75	-29.5	-32.3	15.1	3.25e-04	0	45	0	481296384	18	5008
2026-01-20 23:47:22.03	49.93	40.36	-29.4	-31.5	15.3	1.75e-04	0	45	0	486539264	19	4627
2026-01-20 23:47:25.04	50.84	40.98	-29.6	-32.0	15.0	0.00e+00	0	44	0	491782144	19	4786
2026-01-20 23:47:28.06	51.79	41.60	-29.6	-32.1	15.0	0.00e+00	0	44	0	498073600	19	4805
2026-01-20 23:47:31.07	52.78	42.22	-29.7	-32.3	14.8	7.00e-07	0	45	0	503316480	19	4886
2026-01-20 23:47:34.08	53.80	42.84	-30.0	-32.6	14.3	0.00e+00	0	45	0	509607936	20	4894
2026-01-20 23:47:37.09	54.87	43.46	-30.2	-33.1	14.0	9.90e-06	0	45	0	514850816	20	5057
2026-01-20 23:47:40.11	55.97	44.09	-30.3	-33.5	13.7	2.44e-04	0	45	0	520093696	20	5200
2026-01-20 23:47:43.11	57.12	44.70	-31.0	-34.9	12.5	7.40e-05	0	45	0	526385152	21	5674
2026-01-20 23:47:46.12	58.31	45.32	-31.5	-35.4	11.5	6.47e-04	0	45	0	531628032	23	5645
2026-01-20 23:47:49.13	59.55	45.93	-31.3	-34.8	11.9	3.24e-04	0	44	0	536870912	23	5382
2026-01-20 23:47:52.14	60.84	46.54	-31.9	-36.5	10.7	2.61e-03	0	44	0	543162368	23	6176
2026-01-20 23:47:55.15	62.18	47.13	-30.8	-33.4	12.9	6.33e-05	0	45	0	548405248	23	4842
2026-01-20 23:47:58.16	63.57	47.72	-30.8	-33.7	13.0	2.82e-05	0	44	0	554696704	22	5062
2026-01-20 23:48:01.18	65.02	48.30	-31.1	-34.8	12.3	2.18e-04	0	45	0	559939584	22	5518
2026-01-20 23:48:04.19	66.51	48.87	-30.9	-34.0	12.8	3.73e-05	0	45	0	565182464	22	5173
2026-01-20 23:48:07.19	68.06	49.42	-31.1	-34.7	12.4	1.30e-04	0	44	0	571473920	22	5434
2026-01-20 23:48:10.20	69.67	49.96	-31.0	-34.3	12.7	7.24e-05	0	45	0	576716800	22	5293
2026-01-20 23:48:13.21	71.33	50.48	-30.7	-33.4	13.4	1.44e-05	0	44	0	581959680	22	4932
2026-01-20 23:48:16.23	73.06	50.98	-29.9	-31.9	14.6	0.00e+00	0	45	0	588251136	21	4531
2026-01-20 23:48:19.25	74.84	51.45	-29.8	-32.1	14.8	0.00e+00	0	45	0	593494016	20	4693
2026-01-20 23:48:22.26	76.67	51.90	-29.8	-32.1	14.8	0.00e+00	0	45	0	599785472	20	4695
2026-01-20 23:48:25.27	78.56	52.33	-29.3	-31.3	15.6	0.00e+00	0	45	0	605028352	19	4555
2026-01-20 23:48:28.28	80.50	52.72	-29.5	-31.9	15.2	0.00e+00	0	45	0	610271232	19	4727
2026-01-20 23:48:31.29	82.49	53.09	-29.0	-30.5	16.0	0.00e+00	0	45	0	616562688	19	4312
2026-01-20 23:48:34.30	84.53	53.42	-29.3	-31.3	15.7	0.00e+00	0	45	0	621805568	19	4540
2026-01-20 23:48:37.30	86.61	53.71	-29.5	-31.9	15.3	0.00e+00	0	45	0	628097024	19	4725
2026-01-20 23:48:40.30	88.72	53.97	-29.7	-32.3	15.1	0.00e+00	0	45	0	633339904	19	4851
2026-01-20 23:48:43.30	90.87	54.19	-29.5	-31.9	15.3	0.00e+00	0	45	0	638582784	19	4734
2026-01-20 23:48:46.32	93.07	54.37	-29.7	-32.2	15.1	7.00e-07	0	45	0	644874240	19	4816
2026-01-20 23:48:49.33	95.28	54.51	-29.5	-31.8	15.4	0.00e+00	0	45	0	650117120	19	4697
2026-01-20 23:48:52.34	97.52	54.61	-30.1	-32.9	14.3	2.20e-06	0	45	0	655360000	20	4958
2026-01-20 23:48:55.34	99.75	54.67	-29.5	-31.2	15.4	0.00e+00	0	45	0	661651456	20	4414
2026-01-20 23:48:58.36	102.01	54.68	-29.7	-31.7	15.1	1.50e-06	0	45	0	666894336	20	4575
2026-01-20 23:49:01.36	104.25	54.65	-29.2	-31.1	15.8	0.00e+00	0	45	0	673185792	19	4463
2026-01-20 23:49:04.37	106.49	54.57	-29.2	-31.1	15.8	0.00e+00	0	45	0	678428672	19	4454
2026-01-20 23:49:07.38	108.72	54.46	-28.9	-30.9	16.2	0.00e+00	0	45	0	683671552	18	4526
2026-01-20 23:49:10.39	110.92	54.30	-29.7	-32.2	15.2	0.00e+00	0	45	0	689963008	19	4815
2026-01-20 23:49:13.39	113.09	54.10	-30.1	-32.8	14.5	0.00e+00	0	45	0	695205888	20	4910
2026-01-20 23:49:16.39	115.23	53.86	-29.7	-31.7	15.1	0.00e+00	0	44	0	700448768	20	4548
2026-01-20 23:49:19.41	117.35	53.58	-29.6	-31.7	15.1	0.00e+00	0	45	0	706740224	20	4540
2026-01-20 23:49:22.42	119.41	53.27	-29.2	-30.9	15.9	0.00e+00	0	44	0	711983104	19	4414
2026-01-20 23:49:25.42	121.42	52.92	-29.0	-30.7	16.1	0.00e+00	0	45	0	718274560	19	4333
2026-01-20 23:49:28.43	123.40	52.54	-29.4	-31.6	15.6	0.00e+00	0	45	0	723517440	19	4621
2026-01-20 23:49:31.43	125.31	52.13	-28.9	-30.2	16.4	0.00e+00	0	45	0	728760320	19	4207
2026-01-20 23:49:34.44	127.17	51.69	-29.5	-31.9	15.4	0.00e+00	0	45	0	735051776	19	4709
2026-01-20 23:49:37.44	128.98	51.23	-29.8	-32.4	15.1	0.00e+00	0	44	0	740294656	19	4891
2026-01-20 23:49:40.45	130.73	50.74	-30.9	-34.0	13.0	7.24e-05	0	45	0	745537536	22	5157
2026-01-20 23:49:43.46	132.43	50.24	-32.8	-39.5	7.8	5.44e-03	0	45	0	751828992	25	7744
2026-01-20 23:49:46.46	134.07	49.71	-32.1	-36.2	10.4	1.12e-02	0	45	0	757071872	25	5772
2026-01-20 23:49:49.47	135.65	49.16	-33.3	-40.9	6.5	1.67e-01	0	44	0	763363328	26	8651
2026-01-20 23:49:52.48	137.18	48.60	-32.1	-36.1	10.5	4.19e-03	0	44	0	768606208	25	5708
2026-01-20 23:49:55.49	138.66	48.03	-32.9	-39.7	7.6	8.37e-02	0	45	0	773849088	25	7814
2026-01-20 23:49:58.50	140.08	47.44	-31.7	-35.5	11.2	1.01e-03	0	45	0	780140544	24	5591
2026-01-20 23:50:01.51	141.45	46.85	-32.8	-39.2	8.1	6.09e-02	0	45	0	785383424	25	7533
2026-01-20 23:50:04.53	142.77	46.24	-31.9	-35.6	10.8	2.76e-03	0	45	0	791674880	25	5528
2026-01-20 23:50:07.54	144.04	45.63	-32.7	-38.7	8.5	3.72e-02	0	45	0	796917760	25	7152
2026-01-20 23:50:10.55	145.26	45.01	-32.0	-36.0	10.5	1.20e-02	0	44	0	802160640	25	5705
2026-01-20 23:50:13.55	146.43	44.39	-32.4	-37.9	9.3	9.81e-03	0	45	0	808452096	24	6818
2026-01-20 23:50:16.56	147.56	43.77	-32.2	-37.0	9.8	2.55e-02	0	45	0	813694976	24	6303
2026-01-20 23:50:19.56	148.65	43.15	-32.1	-36.9	10.0	1.69e-03	0	45	0	818937856	24	6263
2026-01-20 23:50:22.56	149.69	42.53	-32.6	-38.4	8.6	5.08e-02	0	45	0	825229312	25	7004
2026-01-20 23:50:25.56	150.70	41.90	-32.7	-38.7	8.4	4.73e-02	0	45	0	830472192	25	7161
2026-01-20 23:50:28.56	151.66	41.28	-32.3	-37.5	9.7	1.12e-02	0	45	0	836763648	24	6536
2026-01-20 23:50:31.58	152.60	40.66	-32.1	-36.9	10.2	9.28e-03	0	45	0	842006528	24	6235
2026-01-20 23:50:34.58	153.50	40.04	-32.1	-36.9	10.1	5.60e-03	0	45	0	847249408	24	6263
2026-01-20 23:50:37.59	154.36	39.43	-32.1	-36.9	10.0	3.10e-03	0	45	0	853540864	24	6268
2026-01-20 23:50:40.59	155.20	38.82	-31.8	-36.0	10.7	1.44e-02	0	45	0	858783744	24	5807
2026-01-20 23:50:43.60	156.00	38.21	-31.3	-35.2	12.0	1.57e-04	0	45	0	864026624	22	5668
2026-01-20 23:50:46.62	156.78	37.61	-32.2	-37.3	9.7	2.47e-02	0	45	0	870318080	24	6472
2026-01-20 23:50:49.63	157.53	37.01	-31.2	-35.0	12.2	8.00e-04	0	45	0	875560960	22	5558
2026-01-20 23:50:52.64	158.25	36.42	-32.2	-37.4	9.6	1.03e-02	0	45	0	881852416	24	6551
2026-01-20 23:50:55.64	158.95	35.84	-32.1	-37.1	9.8	1.46e-02	0	45	0	887095296	24	6411
2026-01-20 23:50:58.64	159.62	35.26	-31.8	-36.5	10.7	3.56e-03	0	45	0	892338176	23	6173
2026-01-20 23:51:01.65	160.27	34.69	-32.1	-37.0	9.9	2.40e-03	0	45	0	898629632	24	6314
2026-01-20 23:51:04.66	160.90	34.12	-32.7	-38.9	8.0	1.21e-01	0	45	0	903872512	25	7398
2026-01-20 23:51:07.66	161.50	33.56	-31.7	-36.1	10.9	5.83e-03	0	45	0	909115392	23	5988
2026-01-20 23:51:10.66	162.09	33.01	-31.4	-35.5	11.6	2.75e-03	0	45	0	915406848	22	5833
2026-01-20 23:51:13.68	162.66	32.46	-32.0	-36.9	9.9	6.87e-03	0	45	0	920649728	24	6290
2026-01-20 23:51:16.70	163.21	31.92	-31.9	-36.8	10.4	5.09e-03	0	45	0	926941184	23	6337
2026-01-20 23:51:19.70	163.75	31.39	-32.0	-36.8	9.9	7.97e-03	0	45	0	932184064	24	6267
2026-01-20 23:51:22.72	164.26	30.86	-31.7	-36.3	10.7	4.10e-03	0	45	0	937426944	23	6099
2026-01-20 23:51:25.71	164.76	30.35	-31.3	-35.6	11.5	7.28e-04	0	45	0	943718400	22	5895
2026-01-20 23:51:28.72	165.25	29.84	-31.9	-37.1	10.0	6.02e-03	0	45	0	948961280	23	6574
2026-01-20 23:51:31.73	165.72	29.33	-32.1	-37.6	9.3	1.80e-02	0	45	0	954204160	24	6738
2026-01-20 23:51:34.74	166.17	28.83	-31.3	-35.0	11.5	2.62e-03	0	45	0	960495616	23	5524
2026-01-20 23:51:37.75	166.62	28.34	-30.9	-34.7	12.4	1.38e-04	0	45	0	965738496	21	5615
2026-01-20 23:51:40.75	167.05	27.86	-31.2	-35.1	11.8	3.58e-04	0	45	0	972029952	22	5679
2026-01-20 23:51:43.76	167.46	27.38	-31.3	-35.7	11.4	1.11e-03	0	45	0	977272832	22	5955
2026-01-20 23:51:46.77	167.87	26.91	-31.6	-35.9	10.9	2.26e-03	0	45	0	982515712	23	5930
2026-01-20 23:51:49.77	168.26	26.45	-31.4	-35.5	11.1	1.74e-03	0	45	0	988807168	23	5762
2026-01-20 23:51:52.79	168.65	25.99	-31.4	-36.0	11.2	2.09e-03	0	45	0	994050048	22	6070
2026-01-20 23:51:55.79	169.02	25.54	-30.6	-33.9	12.9	8.08e-05	0	45	0	999292928	21	5264
2026-01-20 23:51:58.80	169.38	25.10	-30.2	-33.3	13.7	9.10e-06	0	45	0	1005584384	20	5150
2026-01-20 23:52:01.81	169.74	24.66	-30.3	-33.7	13.4	1.06e-05	0	45	0	1010827264	20	5290
2026-01-20 23:52:04.81	170.08	24.23	-30.6	-34.1	12.8	4.95e-05	0	45	0	1017118720	21	5345
2026-01-20 23:52:07.83	170.42	23.80	-30.8	-34.5	12.5	1.17e-04	0	45	0	1022361600	21	5516
2026-01-20 23:52:10.84	170.74	23.38	-30.5	-33.8	13.0	4.27e-05	0	45	0	1027604480	21	5232
2026-01-20 23:52:13.85	171.06	22.96	-30.1	-32.9	13.4	1.44e-05	0	45	0	1033895936	21	4943
2026-01-20 23:52:16.86	171.37	22.56	-30.0	-32.9	13.7	9.23e-05	0	45	0	1039138816	20	4996
2026-01-20 23:52:19.87	171.68	22.15	-29.9	-32.7	13.9	7.60e-06	0	45	0	1045430272	20	4947
2026-01-20 23:52:22.88	171.97	21.75	-30.0	-32.8	13.8	3.80e-06	0	45	0	1050673152	20	4992
2026-01-20 23:52:25.89	172.26	21.36	-30.0	-32.9	13.8	1.50e-06	0	45	0	1055916032	20	5017
2026-01-20 23:52:28.90	172.54	20.98	-30.1	-33.1	13.6	4.50e-06	0	45	0	1062207488	20	5100
2026-01-20 23:52:31.91	172.82	20.59	-30.0	-32.8	13.8	1.50e-06	0	45	0	1067450368	20	4994
2026-01-20 23:52:34.91	173.08	20.22	-29.8	-32.8	14.1	2.75e-04	0	45	0	1072693248	19	5100
2026-01-20 23:52:37.92	173.34	19.85	-29.7	-32.5	14.4	2.77e-04	0	45	0	1078984704	19	4968
2026-01-20 23:52:40.92	173.60	19.48	-29.8	-32.9	14.1	3.06e-04	0	45	0	1084227584	19	5112
2026-01-20 23:52:43.94	173.85	19.12	-29.7	-32.5	14.3	8.16e-05	0	45	0	1090519040	19	4990
2026-01-20 23:52:46.95	174.10	18.76	-29.9	-33.1	13.9	7.00e-07	0	44	0	1095761920	19	5222
2026-01-20 23:52:49.96	174.34	18.41	-29.8	-32.8	14.1	7.00e-07	0	45	0	1101004800	19	5103
2026-01-20 23:52:52.96	174.57	18.06	-29.8	-32.9	13.9	1.17e-04	0	45	0	1107296256	19	5156
2026-01-20 23:52:55.97	174.80	17.72	-29.7	-32.7	14.1	4.95e-05	0	45	0	1112539136	19	5100
2026-01-20 23:52:58.98	175.02	17.38	-29.7	-32.6	14.2	4.11e-05	0	45	0	1117782016	19	5050
2026-01-20 23:53:01.99	175.24	17.04	-29.5	-32.2	14.4	7.00e-07	0	45	0	1124073472	19	4916
2026-01-20 23:53:04.99	175.46	16.71	-29.7	-32.8	14.1	3.80e-06	0	45	0	1129316352	19	5118
2026-01-20 23:53:08.00	175.67	16.39	-29.8	-33.1	13.8	5.30e-06	0	45	0	1135607808	19	5241
2026-01-20 23:53:11.02	175.87	16.06	-30.2	-33.7	13.0	3.05e-05	0	45	0	1140850688	20	5381
2026-01-20 23:53:14.03	176.08	15.75	-30.3	-34.0	12.8	6.25e-05	0	45	0	1146093568	20	5507
2026-01-20 23:53:17.03	176.27	15.43	-30.7	-34.7	12.0	1.50e-04	0	45	0	1152385024	21	5690
2026-01-20 23:53:20.03	176.47	15.12	-30.2	-33.1	13.1	1.27e-04	0	45	0	1157627904	21	5018
2026-01-20 23:53:23.04	176.66	14.81	-30.1	-33.4	13.2	9.46e-05	0	45	0	1163919360	20	5245
2026-01-20 23:53:26.05	176.85	14.51	-30.3	-33.7	13.0	1.24e-04	0	44	0	1169162240	20	5382
2026-01-20 23:53:29.06	177.03	14.21	-30.3	-34.0	12.7	6.10e-05	0	45	0	1174405120	20	5487
2026-01-20 23:53:32.08	177.21	13.91	-30.6	-34.3	12.2	1.85e-04	0	45	0	1180696576	21	5509
2026-01-20 23:53:35.09	177.39	13.62	-30.4	-34.2	12.6	3.13e-04	0	45	0	1185939456	20	5559
2026-01-20 23:53:38.10	177.56	13.33	-30.5	-34.1	12.3	2.73e-04	0	45	0	1191182336	21	5435
2026-01-20 23:53:41.11	177.73	13.04	-30.4	-33.6	12.6	3.17e-04	0	44	0	1197473792	21	5228
2026-01-20 23:53:44.11	177.90	12.76	-30.2	-33.6	13.0	1.27e-04	0	45	0	1202716672	20	5315
2026-01-20 23:53:47.12	178.06	12.48	-30.2	-33.7	12.8	4.95e-05	0	45	0	1209008128	20	5394
2026-01-20 23:53:50.13	178.22	12.20	-30.2	-33.5	13.0	3.73e-05	0	45	0	1214251008	20	5287
2026-01-20 23:53:53.14	178.38	11.92	-30.4	-34.2	12.5	2.08e-04	0	45	0	1219493888	20	5587
2026-01-20 23:53:56.14	178.54	11.65	-30.4	-33.7	12.4	2.99e-04	0	45	0	1225785344	21	5283
2026-01-20 23:53:59.14	178.69	11.38	-30.5	-34.1	12.2	3.68e-04	0	45	0	1231028224	21	5428
2026-01-20 23:54:02.15	178.84	11.12	-30.7	-34.5	11.9	6.07e-04	0	45	0	1236271104	21	5634
2026-01-20 23:54:05.15	178.99	10.85	-30.9	-35.2	11.3	7.50e-04	0	45	0	1242562560	21	5953
2026-01-20 23:54:08.16	179.13	10.59	-30.6	-34.4	11.9	3.67e-04	0	44	0	1247805440	21	5572
2026-01-20 23:54:11.17	179.28	10.33	-30.7	-34.8	11.6	8.38e-04	0	45	0	1254096896	21	5742
2026-01-20 23:54:14.18	179.42	10.08	-30.7	-34.7	11.7	7.54e-04	0	45	0	1259339776	21	5701
2026-01-20 23:54:17.20	179.56	9.82	-30.7	-34.8	11.5	9.44e-04	0	45	0	1264582656	21	5782
2026-01-20 23:54:20.21	179.69	9.57	-30.9	-35.3	11.1	1.34e-03	0	45	0	1270874112	21	6025
2026-01-20 23:54:23.22	179.83	9.32	-30.8	-35.0	11.4	1.19e-03	0	45	0	1276116992	21	5848
2026-01-20 23:54:26.23	179.96	9.08	-30.6	-34.4	11.8	5.54e-04	0	45	0	1282408448	21	5606
2026-01-20 23:54:29.24	180.09	8.83	-30.6	-34.4	11.8	4.60e-04	0	45	0	1287651328	21	5600
2026-01-20 23:54:32.25	180.22	8.59	-30.4	-33.9	12.1	5.52e-04	0	45	0	1292894208	21	5401
2026-01-20 23:54:35.25	180.34	8.35	-30.4	-34.5	12.0	5.36e-04	0	45	0	1299185664	20	5767
2026-01-20 23:54:38.26	180.47	8.11	-30.6	-34.5	11.6	6.48e-04	0	45	0	1304428544	21	5632
2026-01-20 23:54:41.27	180.59	7.88	-30.5	-34.3	11.7	6.75e-04	0	45	0	1309671424	21	5577
2026-01-20 23:54:44.28	180.71	7.65	-30.4	-34.1	11.8	5.36e-04	0	45	0	1315962880	21	5489
2026-01-20 23:54:47.28	180.83	7.41	-30.5	-34.5	11.5	6.67e-04	0	45	0	1321205760	21	5678
2026-01-20 23:54:50.29	180.95	7.19	-30.5	-34.3	11.6	6.16e-04	0	45	0	1327497216	21	5574

#Closed at: 2026-01-20 23:54:53
#Recorded file [1329 MB]: D:/data/31010_260121_024302.dat