passes_logs/2026/01/20/R2M6_AANII_01/R2M6_AANII_01__20260120_103343_FENGYUN_3D_rec.log

#Pass ID: 20260120_103343_FENGYUN 3D
#Satellite: FENGYUN 3D
#Configuration: FENGYUN 3D
#almurnet v.1.7.20240730
#Start time: 2026-01-20 10:33:44

#Version: 2.2.20231116
#Station: R2M6_AANII_01
#Location: 30.233357 lon 59.946436 lat
#TLE: 1 43010U 17072A   26019.65504262 -.00000232  00000+0 -88147-4 0  9993
#TLE: 2 43010  98.9941 351.5427 0002443 100.5024 259.6427 14.19695886423913

#Time	Az	El	Level	Level2	SNR	BER	BlckErr	Temp	State	Recorded	gain1	gain2
2026-01-20 10:33:44.42	104.08	7.07	-30.2	-33.4	5.2	7.87e-01	0	42	0	0	21	5198
2026-01-20 10:33:47.42	103.82	7.27	-29.9	-32.4	9.9	7.53e-03	0	42	0	5242880	21	4783
2026-01-20 10:33:50.43	103.55	7.47	-30.0	-33.3	9.7	8.46e-03	0	42	0	22020096	20	5225
2026-01-20 10:33:53.43	103.29	7.67	-29.2	-31.5	11.3	1.08e-03	0	42	0	38797312	19	4688
2026-01-20 10:33:56.45	103.01	7.87	-28.2	-30.0	12.9	2.05e-05	0	43	0	55574528	17	4414
2026-01-20 10:33:59.46	102.74	8.07	-27.9	-29.7	13.4	1.14e-05	0	42	0	73400320	16	4440
2026-01-20 10:34:02.48	102.45	8.27	-27.9	-29.7	13.4	1.14e-05	0	43	0	90177536	16	4442
2026-01-20 10:34:05.50	102.17	8.48	-27.7	-29.3	13.7	0.00e+00	0	43	0	106954752	16	4314
2026-01-20 10:34:08.51	101.88	8.69	-27.6	-28.9	13.8	4.50e-06	0	43	0	123731968	16	4219
2026-01-20 10:34:11.51	101.59	8.89	-27.6	-29.2	13.8	1.10e-06	0	43	0	140509184	16	4287
2026-01-20 10:34:14.52	101.29	9.10	-27.8	-29.5	13.6	2.20e-06	0	43	0	158334976	16	4371
2026-01-20 10:34:17.54	100.99	9.31	-27.8	-29.4	13.6	2.20e-06	0	43	0	175112192	16	4351
2026-01-20 10:34:20.55	100.68	9.52	-27.7	-29.3	13.7	1.10e-06	0	43	0	191889408	16	4329
2026-01-20 10:34:23.56	100.37	9.73	-27.5	-28.8	14.0	2.20e-06	0	43	0	208666624	16	4173
2026-01-20 10:34:26.57	100.05	9.94	-27.6	-29.0	13.9	1.10e-06	0	43	0	225443840	16	4231
2026-01-20 10:34:29.57	99.74	10.15	-27.5	-28.9	14.0	2.20e-06	0	43	0	242221056	16	4205
2026-01-20 10:34:32.58	99.41	10.36	-27.8	-29.4	13.7	2.20e-06	0	43	0	258998272	16	4348
2026-01-20 10:34:35.59	99.08	10.58	-27.7	-29.3	13.8	1.10e-06	0	43	0	275775488	16	4323
2026-01-20 10:34:38.60	98.75	10.79	-27.3	-28.9	14.1	1.10e-06	0	43	0	293601280	15	4331
2026-01-20 10:34:41.61	98.41	11.01	-27.1	-28.4	14.4	0.00e+00	0	43	0	310378496	15	4191
2026-01-20 10:34:44.62	98.06	11.23	-27.2	-28.5	14.4	0.00e+00	0	43	0	327155712	15	4219
2026-01-20 10:34:47.63	97.71	11.44	-27.0	-28.1	14.6	0.00e+00	0	43	0	343932928	15	4107
2026-01-20 10:34:50.64	97.35	11.66	-26.9	-27.9	14.8	1.10e-06	0	44	0	360710144	15	4051
2026-01-20 10:34:53.65	96.99	11.88	-27.0	-28.2	14.6	0.00e+00	0	44	0	377487360	15	4138
2026-01-20 10:34:56.66	96.63	12.10	-27.1	-28.4	14.5	0.00e+00	0	44	0	394264576	15	4184
2026-01-20 10:34:59.67	96.25	12.32	-26.9	-28.5	14.8	0.00e+00	0	44	0	412090368	14	4325
2026-01-20 10:35:02.68	95.88	12.54	-27.2	-29.1	14.5	0.00e+00	0	44	0	428867584	14	4477
2026-01-20 10:35:05.69	95.49	12.77	-26.7	-27.9	15.1	0.00e+00	0	44	0	445644800	14	4155
2026-01-20 10:35:08.70	95.10	12.99	-26.6	-27.8	15.2	0.00e+00	0	44	0	462422016	14	4127
2026-01-20 10:35:11.71	94.71	13.21	-26.7	-28.0	15.2	0.00e+00	0	44	0	479199232	14	4171
2026-01-20 10:35:14.72	94.30	13.44	-26.6	-27.7	15.4	0.00e+00	0	44	0	495976448	14	4090
2026-01-20 10:35:17.71	93.90	13.66	-26.6	-27.7	15.4	0.00e+00	0	44	0	512753664	14	4086
2026-01-20 10:35:20.73	93.48	13.89	-26.4	-27.3	15.6	0.00e+00	0	44	0	530579456	14	3991
2026-01-20 10:35:23.74	93.06	14.12	-26.5	-27.6	15.5	0.00e+00	0	44	0	547356672	14	4059
2026-01-20 10:35:26.75	92.63	14.34	-26.5	-27.5	15.6	0.00e+00	0	44	0	564133888	14	4038
2026-01-20 10:35:29.75	92.20	14.57	-26.3	-27.5	15.9	0.00e+00	0	44	0	580911104	13	4145
2026-01-20 10:35:32.75	91.76	14.80	-26.5	-27.9	15.7	0.00e+00	0	44	0	597688320	13	4242
2026-01-20 10:35:35.76	91.31	15.03	-26.1	-27.0	16.1	0.00e+00	0	44	0	614465536	13	4015
2026-01-20 10:35:38.77	90.86	15.26	-26.0	-26.9	16.2	0.00e+00	0	44	0	631242752	13	3993
2026-01-20 10:35:41.77	90.39	15.49	-26.1	-27.0	16.2	0.00e+00	0	44	0	649068544	13	4022
2026-01-20 10:35:44.79	89.92	15.72	-25.9	-26.7	16.4	0.00e+00	0	44	0	665845760	13	3940
2026-01-20 10:35:47.79	89.45	15.94	-26.0	-26.8	16.3	0.00e+00	0	44	0	682622976	13	3973
2026-01-20 10:35:50.80	88.96	16.17	-26.0	-26.9	16.3	0.00e+00	0	44	0	699400192	13	3985
2026-01-20 10:35:53.80	88.47	16.40	-25.9	-26.8	16.3	0.00e+00	0	44	0	716177408	13	3953
2026-01-20 10:35:56.81	87.97	16.63	-25.9	-26.8	16.3	0.00e+00	0	44	0	732954624	13	3951
2026-01-20 10:35:59.83	87.46	16.86	-26.0	-26.8	16.3	0.00e+00	0	44	0	749731840	13	3957
2026-01-20 10:36:02.84	86.95	17.09	-26.0	-26.9	16.3	0.00e+00	0	44	0	766509056	13	3991
2026-01-20 10:36:05.84	86.43	17.32	-25.9	-26.6	16.5	0.00e+00	0	44	0	784334848	13	3902
2026-01-20 10:36:08.85	85.90	17.55	-25.8	-26.4	16.6	0.00e+00	0	44	0	801112064	13	3860
2026-01-20 10:36:11.86	85.36	17.78	-25.8	-27.0	16.5	0.00e+00	0	44	0	817889280	12	4114
2026-01-20 10:36:14.87	84.81	18.01	-25.5	-26.3	16.9	0.00e+00	0	44	0	834666496	12	3953
2026-01-20 10:36:17.88	84.25	18.23	-25.4	-26.2	17.0	0.00e+00	0	44	0	851443712	12	3910
2026-01-20 10:36:20.87	83.69	18.46	-25.4	-26.1	17.0	0.00e+00	0	44	0	868220928	12	3888
2026-01-20 10:36:23.88	83.12	18.68	-25.4	-26.5	17.2	0.00e+00	0	44	0	884998144	11	4106
2026-01-20 10:36:26.89	82.53	18.91	-25.2	-26.2	17.3	0.00e+00	0	44	0	902823936	11	4030
2026-01-20 10:36:29.91	81.94	19.13	-25.1	-25.9	17.5	0.00e+00	0	44	0	919601152	11	3943
2026-01-20 10:36:32.91	81.34	19.35	-24.8	-25.4	17.8	0.00e+00	0	44	0	936378368	11	3817
2026-01-20 10:36:35.92	80.74	19.58	-24.8	-25.7	17.9	0.00e+00	0	44	0	953155584	10	4010
2026-01-20 10:36:38.92	80.12	19.79	-24.9	-26.0	17.7	0.00e+00	0	44	0	969932800	10	4088
2026-01-20 10:36:41.92	79.50	20.01	-25.1	-26.3	17.6	0.00e+00	0	44	0	986710016	10	4166
2026-01-20 10:36:44.94	78.86	20.23	-25.0	-26.1	17.7	0.00e+00	0	44	0	1003487232	10	4116
2026-01-20 10:36:47.95	78.22	20.44	-25.1	-26.5	17.5	0.00e+00	0	44	0	1020264448	10	4196
2026-01-20 10:36:50.96	77.56	20.65	-25.0	-26.1	17.7	0.00e+00	0	44	0	1038090240	10	4118
2026-01-20 10:36:53.96	76.90	20.86	-24.9	-26.1	17.7	0.00e+00	0	44	0	1054867456	10	4093
2026-01-20 10:36:56.96	76.23	21.07	-24.6	-25.3	18.1	0.00e+00	0	44	0	1071644672	10	3920
2026-01-20 10:36:59.96	75.56	21.28	-24.7	-25.6	18.0	0.00e+00	0	44	0	1088421888	10	3984
2026-01-20 10:37:02.98	74.86	21.48	-24.9	-26.1	17.8	0.00e+00	0	44	0	1105199104	10	4093
2026-01-20 10:37:05.99	74.17	21.68	-24.7	-25.5	18.0	0.00e+00	0	44	0	1121976320	10	3966
2026-01-20 10:37:08.99	73.46	21.87	-24.8	-25.6	18.0	0.00e+00	0	44	0	1138753536	10	3992
2026-01-20 10:37:11.99	72.75	22.07	-24.7	-25.5	18.0	0.00e+00	0	44	0	1155530752	10	3965
2026-01-20 10:37:15.00	72.02	22.26	-25.0	-26.2	17.7	0.00e+00	0	44	0	1173356544	10	4122
2026-01-20 10:37:18.00	71.29	22.44	-24.5	-25.2	18.2	0.00e+00	0	44	0	1190133760	10	3883
2026-01-20 10:37:21.01	70.55	22.62	-24.7	-25.6	18.0	0.00e+00	0	44	0	1206910976	10	3988
2026-01-20 10:37:24.03	69.79	22.80	-24.8	-25.7	18.0	0.00e+00	0	44	0	1223688192	10	4008
2026-01-20 10:37:27.02	69.04	22.98	-24.7	-25.5	18.3	0.00e+00	0	44	0	1240465408	10	3930
2026-01-20 10:37:30.02	68.27	23.14	-24.5	-25.0	18.5	0.00e+00	0	44	0	1257242624	10	3833
2026-01-20 10:37:33.03	67.49	23.31	-25.1	-26.2	17.9	0.00e+00	0	44	0	1274019840	10	4111
2026-01-20 10:37:36.04	66.71	23.47	-24.4	-24.8	18.6	0.00e+00	0	44	0	1290797056	10	3776
2026-01-20 10:37:39.06	65.91	23.63	-24.3	-25.1	18.7	0.00e+00	0	44	0	1308622848	9	3953
2026-01-20 10:37:42.06	65.11	23.78	-24.4	-25.3	18.6	0.00e+00	0	44	0	1325400064	9	4006
2026-01-20 10:37:45.07	64.31	23.92	-24.1	-24.7	18.9	0.00e+00	0	44	0	1342177280	9	3855
2026-01-20 10:37:48.07	63.49	24.06	-24.0	-24.5	19.0	0.00e+00	0	44	0	1358954496	9	3812
2026-01-20 10:37:51.08	62.67	24.20	-24.2	-25.0	18.8	0.00e+00	0	44	0	1375731712	9	3916
2026-01-20 10:37:54.10	61.84	24.33	-24.5	-25.6	18.5	0.00e+00	0	44	0	1392508928	9	4065
2026-01-20 10:37:57.12	61.00	24.45	-24.4	-25.3	18.7	0.00e+00	0	44	0	1410334720	9	3990
2026-01-20 10:38:00.13	60.15	24.56	-24.3	-25.1	18.8	0.00e+00	0	44	0	1427111936	9	3950
2026-01-20 10:38:03.14	59.30	24.68	-24.4	-25.3	18.7	0.00e+00	0	44	0	1443889152	9	3986
2026-01-20 10:38:06.15	58.45	24.78	-24.2	-24.9	18.9	0.00e+00	0	44	0	1460666368	9	3894
2026-01-20 10:38:09.15	57.59	24.88	-24.2	-24.9	18.9	0.00e+00	0	44	0	1477443584	9	3896
2026-01-20 10:38:12.16	56.72	24.97	-24.1	-24.8	18.9	0.00e+00	0	44	0	1494220800	9	3873
2026-01-20 10:38:15.17	55.85	25.05	-24.3	-25.0	18.8	0.00e+00	0	44	0	1510998016	9	3928
2026-01-20 10:38:18.19	54.98	25.13	-24.4	-25.3	18.6	0.00e+00	0	44	0	1528823808	9	4003
2026-01-20 10:38:21.19	54.10	25.19	-24.7	-25.9	18.3	0.00e+00	0	44	0	1545601024	9	4134
2026-01-20 10:38:24.20	53.22	25.26	-24.9	-26.4	18.1	0.00e+00	0	44	0	1562378240	9	4273
2026-01-20 10:38:27.21	52.33	25.31	-24.1	-24.6	19.0	0.00e+00	0	44	0	1579155456	9	3836
2026-01-20 10:38:30.22	51.44	25.36	-23.9	-24.3	19.2	0.00e+00	0	44	0	1595932672	9	3753
2026-01-20 10:38:33.23	50.55	25.40	-24.1	-24.7	19.0	0.00e+00	0	44	0	1612709888	9	3858
2026-01-20 10:38:36.24	49.66	25.43	-24.2	-24.8	19.0	0.00e+00	0	44	0	1629487104	9	3884
2026-01-20 10:38:39.24	48.77	25.46	-24.3	-25.1	18.8	0.00e+00	0	44	0	1646264320	9	3952
2026-01-20 10:38:42.25	47.87	25.47	-24.0	-24.6	19.1	0.00e+00	0	45	0	1664090112	9	3824
2026-01-20 10:38:45.26	46.98	25.48	-24.0	-24.4	19.1	0.00e+00	0	44	0	1680867328	9	3785
2026-01-20 10:38:48.28	46.08	25.48	-23.9	-24.2	19.2	0.00e+00	0	44	0	1697644544	9	3750
2026-01-20 10:38:51.29	45.18	25.48	-23.8	-24.0	19.4	0.00e+00	0	44	0	1714421760	9	3690
2026-01-20 10:38:54.29	44.29	25.46	-24.1	-25.3	18.9	0.00e+00	0	44	0	1731198976	8	4100
2026-01-20 10:38:57.30	43.39	25.44	-24.2	-25.4	18.9	0.00e+00	0	45	0	1747976192	8	4118
2026-01-20 10:39:00.31	42.50	25.41	-24.3	-25.7	18.7	0.00e+00	0	44	0	1764753408	8	4209
2026-01-20 10:39:03.32	41.61	25.38	-24.0	-25.0	19.1	0.00e+00	0	44	0	1782579200	8	4030
2026-01-20 10:39:06.33	40.72	25.33	-24.1	-25.1	19.0	0.00e+00	0	44	0	1799356416	8	4067
2026-01-20 10:39:09.33	39.83	25.28	-23.9	-24.8	19.2	0.00e+00	0	44	0	1816133632	8	3995
2026-01-20 10:39:12.33	38.95	25.22	-23.8	-24.6	19.3	0.00e+00	0	44	0	1832910848	8	3940
2026-01-20 10:39:15.35	38.07	25.16	-24.3	-25.5	18.8	0.00e+00	0	44	0	1849688064	8	4165
2026-01-20 10:39:18.36	37.20	25.08	-24.8	-26.1	18.3	0.00e+00	0	44	0	1867513856	9	4188
2026-01-20 10:39:21.37	36.32	25.00	-24.3	-24.6	18.8	0.00e+00	0	44	0	1884291072	10	3723
2026-01-20 10:39:24.39	35.45	24.92	-24.1	-24.7	19.0	0.00e+00	0	44	0	1901068288	9	3854
2026-01-20 10:39:27.41	34.59	24.82	-24.1	-24.7	19.0	0.00e+00	0	44	0	1917845504	9	3859
2026-01-20 10:39:30.40	33.74	24.72	-24.0	-24.5	19.1	0.00e+00	0	44	0	1934622720	9	3813
2026-01-20 10:39:33.41	32.89	24.62	-24.2	-25.0	18.9	0.00e+00	0	44	0	1951399936	9	3914
2026-01-20 10:39:36.42	32.04	24.50	-24.2	-24.8	18.9	0.00e+00	0	44	0	1968177152	9	3884
2026-01-20 10:39:39.42	31.21	24.38	-24.1	-24.7	19.0	0.00e+00	0	44	0	1984954368	9	3849
2026-01-20 10:39:42.44	30.37	24.26	-24.0	-24.5	19.1	0.00e+00	0	44	0	2002780160	9	3803
2026-01-20 10:39:45.45	29.55	24.13	-24.2	-24.9	18.9	0.00e+00	0	44	0	2019557376	9	3902
2026-01-20 10:39:48.46	28.73	23.99	-24.1	-24.8	18.9	0.00e+00	0	44	0	2036334592	9	3876
2026-01-20 10:39:51.46	27.92	23.85	-24.0	-24.4	19.1	0.00e+00	0	44	0	2053111808	9	3790
2026-01-20 10:39:54.47	27.12	23.70	-24.1	-24.7	18.9	0.00e+00	0	44	0	2069889024	9	3861
2026-01-20 10:39:57.47	26.33	23.55	-24.0	-24.5	19.1	0.00e+00	0	44	0	2086666240	9	3803
2026-01-20 10:40:00.48	25.54	23.39	-24.2	-24.9	18.9	0.00e+00	0	44	0	2103443456	9	3893
2026-01-20 10:40:03.49	24.76	23.22	-24.5	-25.5	18.5	0.00e+00	0	44	0	2120220672	9	4052
2026-01-20 10:40:06.49	23.99	23.06	-24.0	-24.5	19.1	0.00e+00	0	45	0	2138046464	9	3804
2026-01-20 10:40:09.50	23.23	22.89	-24.1	-24.6	19.0	0.00e+00	0	44	0	2154823680	9	3834
2026-01-20 10:40:12.51	22.48	22.71	-24.3	-25.2	18.7	0.00e+00	0	44	0	2171600896	9	3966
2026-01-20 10:40:15.51	21.74	22.53	-24.3	-25.2	18.7	0.00e+00	0	45	0	2188378112	9	3965
2026-01-20 10:40:18.53	21.00	22.34	-24.5	-25.5	18.5	0.00e+00	0	44	0	2205155328	9	4049
2026-01-20 10:40:21.54	20.27	22.16	-24.4	-25.4	18.6	0.00e+00	0	44	0	2221932544	9	4012
2026-01-20 10:40:24.56	19.55	21.97	-24.6	-25.7	18.4	0.00e+00	0	44	0	2238709760	9	4089
2026-01-20 10:40:27.58	18.84	21.77	-24.6	-25.7	18.4	0.00e+00	0	44	0	2256535552	9	4107
2026-01-20 10:40:30.58	18.14	21.57	-24.6	-25.7	18.4	0.00e+00	0	44	0	2273312768	9	4095
2026-01-20 10:40:33.58	17.45	21.37	-24.8	-26.1	18.2	0.00e+00	0	44	0	2290089984	9	4194
2026-01-20 10:40:36.58	16.77	21.17	-24.5	-25.5	18.5	0.00e+00	0	44	0	2306867200	9	4034
2026-01-20 10:40:39.59	16.10	20.97	-24.6	-25.7	18.4	0.00e+00	0	44	0	2323644416	9	4083
2026-01-20 10:40:42.60	15.43	20.76	-24.8	-26.3	18.0	0.00e+00	0	45	0	2340421632	9	4251
2026-01-20 10:40:45.61	14.78	20.55	-24.7	-26.0	18.2	0.00e+00	0	44	0	2357198848	9	4167
2026-01-20 10:40:48.62	14.13	20.33	-25.1	-26.4	17.7	0.00e+00	0	45	0	2375024640	10	4160
2026-01-20 10:40:51.64	13.50	20.12	-24.9	-25.8	18.0	0.00e+00	0	44	0	2391801856	10	4008
2026-01-20 10:40:54.65	12.87	19.90	-25.1	-26.4	17.7	0.00e+00	0	44	0	2408579072	10	4160
2026-01-20 10:40:57.65	12.25	19.69	-25.2	-26.5	17.6	0.00e+00	0	44	0	2425356288	10	4180
2026-01-20 10:41:00.66	11.64	19.47	-25.0	-26.2	17.8	0.00e+00	0	44	0	2442133504	10	4096
2026-01-20 10:41:03.66	11.04	19.25	-25.1	-26.2	17.8	0.00e+00	0	44	0	2458910720	10	4119
2026-01-20 10:41:06.68	10.45	19.02	-25.1	-26.3	17.7	0.00e+00	0	45	0	2475687936	10	4137
2026-01-20 10:41:09.69	9.87	18.80	-25.0	-26.2	17.8	0.00e+00	0	44	0	2493513728	10	4106
2026-01-20 10:41:12.70	9.29	18.57	-24.9	-25.8	18.0	0.00e+00	0	44	0	2510290944	10	4008
2026-01-20 10:41:15.71	8.72	18.35	-25.1	-26.3	17.7	0.00e+00	0	45	0	2527068160	10	4146
2026-01-20 10:41:18.73	8.17	18.12	-25.3	-26.7	17.5	0.00e+00	0	44	0	2543845376	10	4239
2026-01-20 10:41:21.74	7.62	17.90	-25.4	-27.0	17.3	0.00e+00	0	44	0	2560622592	10	4326
2026-01-20 10:41:24.75	7.08	17.67	-25.6	-26.9	17.1	0.00e+00	0	44	0	2577399808	11	4184
2026-01-20 10:41:27.76	6.54	17.44	-25.5	-26.8	17.2	0.00e+00	0	44	0	2594177024	11	4148
2026-01-20 10:41:30.78	6.02	17.21	-25.7	-27.2	16.9	0.00e+00	0	44	0	2612002816	11	4247
2026-01-20 10:41:33.78	5.50	16.98	-25.8	-26.8	16.8	0.00e+00	0	44	0	2628780032	12	4059
2026-01-20 10:41:36.80	4.99	16.75	-25.9	-27.0	16.7	0.00e+00	0	44	0	2645557248	12	4099
2026-01-20 10:41:39.80	4.49	16.52	-25.8	-26.8	16.7	0.00e+00	0	44	0	2662334464	12	4055
2026-01-20 10:41:42.82	4.00	16.30	-25.8	-26.8	16.8	0.00e+00	0	44	0	2679111680	12	4042
2026-01-20 10:41:45.82	3.52	16.07	-25.8	-26.9	16.7	0.00e+00	0	44	0	2695888896	12	4081
2026-01-20 10:41:48.84	3.04	15.84	-25.9	-27.1	16.6	0.00e+00	0	44	0	2713714688	12	4116
2026-01-20 10:41:51.85	2.57	15.61	-25.8	-26.9	16.7	0.00e+00	0	44	0	2730491904	12	4085
2026-01-20 10:41:54.85	2.10	15.38	-25.9	-27.2	16.5	0.00e+00	0	44	0	2747269120	12	4142
2026-01-20 10:41:57.86	1.65	15.15	-26.1	-27.5	16.3	0.00e+00	0	44	0	2764046336	12	4238
2026-01-20 10:42:00.87	1.20	14.92	-25.9	-27.2	16.5	0.00e+00	0	44	0	2780823552	12	4149
2026-01-20 10:42:03.89	0.76	14.70	-26.1	-27.4	16.4	0.00e+00	0	44	0	2797600768	12	4203
2026-01-20 10:42:06.89	0.32	14.47	-26.3	-27.9	16.0	0.00e+00	0	44	0	2814377984	12	4340
2026-01-20 10:42:09.89	359.90	14.24	-26.2	-27.7	16.2	0.00e+00	0	44	0	2831155200	12	4297
2026-01-20 10:42:12.89	359.48	14.02	-26.2	-27.8	16.1	0.00e+00	0	44	0	2848980992	12	4309
2026-01-20 10:42:15.90	359.06	13.79	-26.3	-28.0	16.0	0.00e+00	0	44	0	2865758208	12	4373
2026-01-20 10:42:18.91	358.65	13.57	-26.2	-27.7	16.1	0.00e+00	0	44	0	2882535424	12	4299
2026-01-20 10:42:21.92	358.25	13.34	-26.5	-28.0	15.7	0.00e+00	0	44	0	2899312640	13	4259
2026-01-20 10:42:24.93	357.85	13.12	-26.6	-28.1	15.6	0.00e+00	0	44	0	2916089856	13	4284
2026-01-20 10:42:27.93	357.46	12.90	-26.7	-28.4	15.4	0.00e+00	0	44	0	2932867072	13	4366
2026-01-20 10:42:30.94	357.08	12.67	-26.9	-28.7	15.2	0.00e+00	0	44	0	2949644288	13	4458
2026-01-20 10:42:33.94	356.70	12.45	-27.3	-29.2	14.6	0.00e+00	0	44	0	2967470080	14	4496
2026-01-20 10:42:36.95	356.33	12.23	-27.1	-28.8	14.9	0.00e+00	0	44	0	2984247296	14	4364
2026-01-20 10:42:39.96	355.96	12.01	-27.0	-28.5	15.0	0.00e+00	0	44	0	3001024512	14	4297
2026-01-20 10:42:42.96	355.61	11.79	-27.4	-29.4	14.5	0.00e+00	0	44	0	3017801728	14	4529
2026-01-20 10:42:45.95	355.25	11.58	-27.0	-28.6	15.0	0.00e+00	0	44	0	3034578944	14	4306
2026-01-20 10:42:48.97	354.90	11.36	-26.9	-28.4	15.0	0.00e+00	0	44	0	3051356160	14	4265
2026-01-20 10:42:51.98	354.56	11.14	-26.9	-28.3	15.1	0.00e+00	0	44	0	3068133376	14	4233
2026-01-20 10:42:54.99	354.22	10.93	-27.0	-28.6	14.9	0.00e+00	0	44	0	3084910592	14	4319
2026-01-20 10:42:58.01	353.88	10.71	-27.1	-28.7	14.8	1.10e-06	0	45	0	3102736384	14	4347
2026-01-20 10:43:01.02	353.55	10.50	-27.1	-28.7	14.8	0.00e+00	0	45	0	3119513600	14	4345
2026-01-20 10:43:04.03	353.23	10.28	-27.2	-28.9	14.6	0.00e+00	0	45	0	3136290816	14	4411
2026-01-20 10:43:07.02	352.91	10.07	-27.1	-28.7	14.8	0.00e+00	0	45	0	3153068032	14	4349
2026-01-20 10:43:10.03	352.59	9.86	-27.2	-28.9	14.6	0.00e+00	0	45	0	3169845248	14	4411
2026-01-20 10:43:13.04	352.28	9.65	-27.2	-29.1	14.5	0.00e+00	0	44	0	3186622464	14	4472
2026-01-20 10:43:16.05	351.98	9.44	-27.6	-29.5	14.0	1.10e-06	0	44	0	3203399680	15	4474
2026-01-20 10:43:19.05	351.68	9.24	-27.4	-29.1	14.2	0.00e+00	0	44	0	3220176896	15	4349
2026-01-20 10:43:22.07	351.38	9.03	-27.5	-29.2	14.2	2.20e-06	0	45	0	3238002688	15	4378
2026-01-20 10:43:25.08	351.09	8.82	-27.4	-29.0	14.3	0.00e+00	0	44	0	3254779904	15	4338
2026-01-20 10:43:28.10	350.80	8.62	-27.5	-29.2	14.1	1.10e-06	0	45	0	3271557120	15	4373
2026-01-20 10:43:31.11	350.51	8.41	-27.6	-29.5	13.8	2.20e-06	0	44	0	3288334336	15	4473
2026-01-20 10:43:34.11	350.23	8.21	-27.5	-29.2	14.1	0.00e+00	0	44	0	3305111552	15	4374
2026-01-20 10:43:37.11	349.96	8.01	-27.6	-29.4	13.9	4.50e-06	0	44	0	3322937344	15	4456
2026-01-20 10:43:40.11	349.69	7.81	-27.5	-29.2	14.0	3.40e-06	0	44	0	3338665984	15	4383
2026-01-20 10:43:43.11	349.42	7.61	-27.6	-29.5	13.8	0.00e+00	0	44	0	3355443200	15	4485
2026-01-20 10:43:46.13	349.16	7.41	-27.8	-29.9	13.5	2.20e-06	0	44	0	3373268992	15	4599
2026-01-20 10:43:49.14	348.89	7.21	-28.1	-30.0	13.3	5.70e-06	0	44	0	3390046208	16	4522
2026-01-20 10:43:52.14	348.64	7.01	-33.2	-42.1	3.9	8.44e-01	0	45	104	3403677696	26	10080

#Closed at: 2026-01-20 10:43:54
#Recorded file [3403 MB]: D:/data/31010_260120_133346.dat