passes_logs/2026/01/20/R2M6_AANII_01/R2M6_AANII_01__20260120_023229_NOAA_21_JPSS-2_rec.log

#Pass ID: 20260120_023229_NOAA 21 (JPSS-2)
#Satellite: NOAA 21 (JPSS-2)
#Configuration: NOAA 21
#almurnet v.1.7.20240730
#Start time: 2026-01-20 02:32:30

#Version: 2.2.20231116
#Station: R2M6_AANII_01
#Location: 30.233357 lon 59.946436 lat
#TLE: 1 54234U 22150A   26019.31231101  .00000073  00000+0  55355-4 0  9994
#TLE: 2 54234  98.7504 320.1599 0000604 258.3686 101.7423 14.19535697165426

#Time	Az	El	Level	Level2	SNR	BER	BlckErr	Temp	State	Recorded	gain1	gain2
2026-01-20 02:32:30.14	9.47	7.03	-34.4	-46.7	3.8	1.49e+00	0	45	0	0	28	14801
2026-01-20 02:32:33.13	9.17	7.21	-33.5	-43.8	3.9	1.49e+00	0	44	104	0	27	11873
2026-01-20 02:32:36.14	8.86	7.39	-33.5	-45.0	3.8	1.49e+00	0	44	104	0	27	13506
2026-01-20 02:32:39.15	8.54	7.57	-33.5	-45.0	3.8	1.49e+00	0	44	104	0	27	13500
2026-01-20 02:32:42.16	8.22	7.75	-32.9	-40.4	4.7	1.28e+00	0	44	104	0	26	8510
2026-01-20 02:32:45.17	7.90	7.93	-31.8	-36.6	7.7	9.31e-02	0	44	0	7340032	23	6285
2026-01-20 02:32:48.17	7.57	8.11	-31.1	-34.9	9.2	2.02e-02	0	45	0	16777216	22	5585
2026-01-20 02:32:51.19	7.24	8.30	-30.8	-34.4	9.9	9.64e-03	0	44	0	26214400	21	5474
2026-01-20 02:32:54.20	6.91	8.48	-30.8	-34.6	9.8	9.80e-03	0	44	0	35651584	21	5555
2026-01-20 02:32:57.20	6.57	8.66	-29.9	-32.5	11.6	9.13e-04	0	44	0	45088768	20	4864
2026-01-20 02:33:00.20	6.23	8.85	-29.3	-31.4	12.7	9.46e-05	0	45	0	54525952	19	4587
2026-01-20 02:33:03.21	5.88	9.03	-29.5	-32.0	12.3	1.46e-04	0	44	0	63963136	19	4791
2026-01-20 02:33:06.22	5.52	9.22	-29.4	-31.7	12.6	1.16e-04	0	45	0	73400320	19	4677
2026-01-20 02:33:09.23	5.17	9.40	-29.2	-31.6	13.0	3.28e-05	0	45	0	82837504	18	4759
2026-01-20 02:33:12.23	4.80	9.59	-29.0	-31.2	13.2	2.44e-05	0	44	0	92274688	18	4634
2026-01-20 02:33:15.24	4.44	9.77	-29.2	-31.6	13.0	3.28e-05	0	45	0	101711872	18	4747
2026-01-20 02:33:18.25	4.06	9.96	-29.1	-31.5	13.1	3.12e-05	0	45	0	111149056	18	4707
2026-01-20 02:33:21.25	3.69	10.14	-29.0	-31.2	13.3	2.28e-05	0	44	0	120586240	18	4613
2026-01-20 02:33:24.27	3.30	10.33	-28.9	-31.3	13.5	1.06e-05	0	44	0	130023424	17	4747
2026-01-20 02:33:27.27	2.92	10.52	-28.8	-31.0	13.7	6.10e-06	0	45	0	139460608	17	4679
2026-01-20 02:33:30.28	2.53	10.70	-29.0	-31.5	13.4	8.30e-06	0	45	0	148897792	17	4831
2026-01-20 02:33:33.29	2.13	10.89	-29.0	-31.1	13.4	1.98e-05	0	45	0	158334976	18	4573
2026-01-20 02:33:36.30	1.73	11.08	-28.8	-31.1	13.7	1.22e-05	0	45	0	167772160	17	4685
2026-01-20 02:33:39.29	1.32	11.26	-28.6	-30.6	14.0	2.20e-06	0	44	0	176160768	17	4552
2026-01-20 02:33:42.29	0.91	11.45	-28.6	-30.6	14.0	2.31e-04	0	45	0	185597952	17	4539
2026-01-20 02:33:45.31	0.49	11.63	-28.6	-30.7	13.9	5.30e-06	0	45	0	195035136	17	4566
2026-01-20 02:33:48.33	0.06	11.82	-28.5	-30.3	14.2	1.27e-04	0	45	0	204472320	17	4464
2026-01-20 02:33:51.33	359.64	12.01	-28.4	-30.6	14.3	1.50e-06	0	44	0	213909504	16	4658
2026-01-20 02:33:54.34	359.20	12.19	-28.4	-30.6	14.3	2.43e-04	0	45	0	223346688	16	4659
2026-01-20 02:33:57.35	358.76	12.38	-28.7	-30.8	14.0	2.97e-04	0	45	0	232783872	17	4587
2026-01-20 02:34:00.35	358.32	12.56	-28.8	-31.1	13.8	3.47e-04	0	45	0	242221056	17	4690
2026-01-20 02:34:03.36	357.86	12.75	-28.8	-31.0	13.9	2.94e-04	0	45	0	251658240	17	4647
2026-01-20 02:34:06.37	357.40	12.93	-28.7	-30.8	14.0	3.00e-06	0	45	0	261095424	17	4584
2026-01-20 02:34:09.37	356.94	13.12	-28.8	-31.0	13.9	3.75e-04	0	45	0	270532608	17	4654
2026-01-20 02:34:12.36	356.48	13.30	-28.7	-30.8	14.0	3.58e-04	0	45	0	279969792	17	4604
2026-01-20 02:34:15.38	356.00	13.48	-28.6	-30.5	14.2	2.53e-04	0	45	0	289406976	17	4497
2026-01-20 02:34:18.38	355.52	13.66	-28.6	-30.6	14.2	1.16e-04	0	45	0	298844160	17	4516
2026-01-20 02:34:21.39	355.03	13.85	-28.8	-31.1	13.8	4.50e-06	0	45	0	308281344	17	4686
2026-01-20 02:34:24.41	354.53	14.03	-28.7	-30.8	14.0	2.65e-04	0	45	0	317718528	17	4577
2026-01-20 02:34:27.42	354.03	14.21	-28.5	-30.3	14.3	1.50e-06	0	45	0	327155712	17	4447
2026-01-20 02:34:30.42	353.53	14.39	-28.6	-30.6	14.2	2.20e-06	0	44	0	336592896	17	4535
2026-01-20 02:34:33.43	353.02	14.57	-28.8	-30.9	14.0	2.20e-06	0	45	0	346030080	17	4636
2026-01-20 02:34:36.43	352.50	14.74	-28.5	-30.4	14.3	0.00e+00	0	45	0	355467264	17	4470
2026-01-20 02:34:39.44	351.97	14.92	-28.5	-30.3	14.4	7.00e-07	0	45	0	364904448	17	4448
2026-01-20 02:34:42.44	351.44	15.09	-28.9	-31.2	13.9	1.06e-05	0	45	0	374341632	17	4709
2026-01-20 02:34:45.44	350.91	15.27	-28.7	-30.7	14.2	1.50e-06	0	45	0	383778816	17	4542
2026-01-20 02:34:48.45	350.36	15.44	-29.0	-31.0	13.8	6.10e-06	0	44	0	393216000	18	4532
2026-01-20 02:34:51.47	349.81	15.61	-28.9	-31.3	13.8	3.00e-06	0	45	0	402653184	17	4727
2026-01-20 02:34:54.49	349.25	15.78	-28.9	-31.3	13.8	2.20e-06	0	45	0	412090368	17	4757
2026-01-20 02:34:57.50	348.69	15.95	-28.7	-30.7	14.2	7.00e-07	0	45	0	421527552	17	4560
2026-01-20 02:35:00.51	348.12	16.11	-28.8	-31.1	14.0	1.50e-06	0	45	0	429916160	17	4671
2026-01-20 02:35:03.51	347.54	16.28	-28.8	-30.9	14.1	4.50e-06	0	45	0	439353344	17	4609
2026-01-20 02:35:06.51	346.96	16.44	-28.8	-31.1	14.0	2.20e-06	0	44	0	448790528	17	4677
2026-01-20 02:35:09.52	346.37	16.60	-29.1	-31.2	13.7	6.80e-06	0	45	0	458227712	18	4597
2026-01-20 02:35:12.52	345.78	16.76	-28.8	-30.6	14.0	1.50e-06	0	45	0	467664896	18	4402
2026-01-20 02:35:15.53	345.17	16.91	-28.7	-30.7	14.2	1.50e-06	0	45	0	477102080	17	4565
2026-01-20 02:35:18.53	344.57	17.07	-28.7	-30.7	14.3	1.50e-06	0	44	0	486539264	17	4536
2026-01-20 02:35:21.53	343.95	17.22	-28.5	-30.4	14.4	7.00e-07	0	44	0	495976448	17	4467
2026-01-20 02:35:24.53	343.34	17.37	-28.6	-30.4	14.4	0.00e+00	0	45	0	505413632	17	4471
2026-01-20 02:35:27.54	342.71	17.51	-28.4	-30.5	14.7	0.00e+00	0	44	0	514850816	16	4603
2026-01-20 02:35:30.54	342.08	17.66	-28.6	-30.6	12.6	1.50e-06	0	44	0	524288000	17	4513
2026-01-20 02:35:33.53	341.44	17.80	-28.5	-30.2	14.5	0.00e+00	0	44	0	533725184	17	4406
2026-01-20 02:35:36.53	340.80	17.93	-28.2	-30.2	14.2	2.20e-06	0	44	0	543162368	17	4562
2026-01-20 02:35:39.53	340.15	18.07	-28.4	-30.7	12.6	0.00e+00	0	44	0	552599552	16	4651
2026-01-20 02:35:42.56	339.49	18.20	-28.2	-30.1	14.8	4.45e-03	0	45	0	562036736	16	4494
2026-01-20 02:35:45.57	338.82	18.33	-28.1	-29.9	15.0	0.00e+00	0	44	0	571473920	16	4426
2026-01-20 02:35:48.58	338.16	18.45	-27.9	-29.8	15.2	0.00e+00	0	45	0	580911104	15	4525
2026-01-20 02:35:51.59	337.48	18.58	-27.9	-29.9	15.1	4.41e-03	0	44	0	590348288	15	4544
2026-01-20 02:35:54.60	336.80	18.69	-27.9	-29.9	15.1	0.00e+00	0	44	0	599785472	15	4528
2026-01-20 02:35:57.60	336.12	18.81	-27.8	-29.6	15.3	4.31e-03	0	44	0	609222656	15	4453
2026-01-20 02:36:00.63	335.43	18.92	-27.8	-29.8	15.2	4.11e-03	0	44	0	618659840	15	4510
2026-01-20 02:36:03.63	334.73	19.03	-27.7	-29.6	15.3	3.79e-03	0	45	0	628097024	15	4445
2026-01-20 02:36:06.63	334.03	19.13	-27.6	-29.3	15.5	4.26e-03	0	45	0	636485632	15	4371
2026-01-20 02:36:09.64	333.33	19.23	-27.6	-29.3	15.4	4.31e-03	0	45	0	646971392	15	4376
2026-01-20 02:36:12.65	332.62	19.32	-27.6	-29.2	15.5	3.94e-03	0	44	0	656408576	15	4327
2026-01-20 02:36:15.65	331.91	19.41	-27.6	-29.3	15.5	0.00e+00	0	45	0	664797184	15	4375
2026-01-20 02:36:18.67	331.19	19.50	-27.6	-29.2	15.5	4.14e-03	0	45	0	674234368	15	4329
2026-01-20 02:36:21.67	330.47	19.58	-27.6	-29.3	15.5	0.00e+00	0	44	0	683671552	15	4373
2026-01-20 02:36:24.68	329.74	19.66	-27.6	-29.2	15.5	0.00e+00	0	45	0	693108736	15	4339
2026-01-20 02:36:27.68	329.02	19.73	-27.5	-29.1	15.6	0.00e+00	0	45	0	702545920	15	4320
2026-01-20 02:36:30.69	328.29	19.80	-27.6	-29.3	15.5	0.00e+00	0	45	0	711983104	15	4367
2026-01-20 02:36:33.70	327.55	19.86	-27.7	-29.6	15.3	0.00e+00	0	44	0	721420288	15	4449
2026-01-20 02:36:36.70	326.81	19.92	-27.7	-29.6	15.3	0.00e+00	0	45	0	730857472	15	4444
2026-01-20 02:36:39.65	326.09	19.97	-27.7	-29.4	15.4	0.00e+00	0	45	0	740294656	15	4400
2026-01-20 02:36:42.65	325.34	20.02	-27.8	-29.8	15.2	0.00e+00	0	45	0	749731840	15	4507
2026-01-20 02:36:45.65	324.60	20.06	-27.9	-30.0	15.1	0.00e+00	0	44	0	759169024	15	4572
2026-01-20 02:36:48.66	323.85	20.10	-27.8	-29.8	15.2	0.00e+00	0	45	0	768606208	15	4501
2026-01-20 02:36:51.68	323.10	20.13	-27.8	-29.7	15.3	0.00e+00	0	45	0	778043392	15	4470
2026-01-20 02:36:54.68	322.35	20.16	-28.1	-29.9	15.1	0.00e+00	0	45	0	787480576	16	4412
2026-01-20 02:36:57.67	321.60	20.18	-28.0	-29.7	15.2	0.00e+00	0	45	0	796917760	16	4366
2026-01-20 02:37:00.68	320.85	20.20	-27.8	-29.7	15.3	0.00e+00	0	45	0	806354944	15	4473
2026-01-20 02:37:03.67	320.10	20.21	-27.7	-29.5	15.4	0.00e+00	0	45	0	815792128	15	4412
2026-01-20 02:37:06.69	319.34	20.22	-27.8	-29.8	15.2	0.00e+00	0	45	0	825229312	15	4515
2026-01-20 02:37:09.69	318.59	20.22	-27.9	-29.9	15.1	0.00e+00	0	45	0	834666496	15	4536
2026-01-20 02:37:12.70	317.83	20.22	-27.8	-29.8	15.1	7.00e-07	0	45	0	844103680	15	4522
2026-01-20 02:37:15.71	317.08	20.21	-27.8	-29.8	15.2	7.00e-07	0	44	0	853540864	15	4515
2026-01-20 02:37:18.72	316.32	20.20	-28.3	-30.3	14.8	0.00e+00	0	44	0	861929472	16	4538
2026-01-20 02:37:21.72	315.57	20.18	-28.1	-29.8	15.0	0.00e+00	0	45	0	871366656	16	4406
2026-01-20 02:37:24.74	314.82	20.15	-27.7	-29.7	14.8	0.00e+00	0	44	0	881852416	16	4489
2026-01-20 02:37:27.74	314.07	20.13	-27.8	-29.7	13.6	0.00e+00	0	45	0	890241024	15	4479
2026-01-20 02:37:30.76	313.31	20.09	-27.9	-29.8	15.2	0.00e+00	0	44	0	899678208	15	4528
2026-01-20 02:37:33.76	312.57	20.05	-27.9	-30.0	15.0	7.00e-07	0	45	0	909115392	15	4574
2026-01-20 02:37:36.78	311.82	20.01	-27.8	-29.8	15.2	0.00e+00	0	45	0	918552576	15	4522
2026-01-20 02:37:39.79	311.07	19.96	-27.7	-29.4	15.4	3.77e-03	0	45	0	927989760	15	4398
2026-01-20 02:37:42.80	310.33	19.90	-27.9	-29.8	15.1	0.00e+00	0	45	0	937426944	15	4526
2026-01-20 02:37:45.81	309.59	19.84	-28.1	-29.8	15.0	3.95e-03	0	44	0	946864128	16	4400
2026-01-20 02:37:48.82	308.86	19.78	-27.7	-29.5	15.3	4.50e-05	0	45	0	956301312	15	4428
2026-01-20 02:37:51.83	308.12	19.71	-27.7	-29.4	15.4	4.14e-03	0	45	0	965738496	15	4408
2026-01-20 02:37:54.85	307.39	19.64	-27.7	-29.5	15.3	4.36e-03	0	44	0	975175680	15	4422
2026-01-20 02:37:57.86	306.67	19.56	-27.7	-29.6	15.3	3.54e-03	0	45	0	984612864	15	4451
2026-01-20 02:38:00.87	305.94	19.48	-27.9	-29.9	15.1	3.04e-03	0	45	0	994050048	15	4542
2026-01-20 02:38:03.88	305.23	19.39	-27.9	-30.0	15.0	0.00e+00	0	45	0	1003487232	15	4561
2026-01-20 02:38:06.88	304.51	19.30	-27.9	-29.4	15.2	2.39e-03	0	45	0	1012924416	16	4295
2026-01-20 02:38:09.89	303.81	19.20	-27.8	-29.8	15.1	0.00e+00	0	45	0	1022361600	15	4529
2026-01-20 02:38:12.89	303.10	19.10	-27.8	-29.7	15.2	0.00e+00	0	45	0	1031798784	15	4492
2026-01-20 02:38:15.90	302.40	19.00	-27.8	-29.6	15.2	0.00e+00	0	45	0	1041235968	15	4463
2026-01-20 02:38:18.92	301.70	18.89	-27.8	-29.8	15.1	0.00e+00	0	44	0	1050673152	15	4519
2026-01-20 02:38:21.92	301.02	18.78	-27.8	-29.9	15.1	0.00e+00	0	45	0	1060110336	15	4542
2026-01-20 02:38:24.93	300.33	18.66	-27.9	-30.0	15.0	0.00e+00	0	45	0	1069547520	15	4579
2026-01-20 02:38:27.93	299.65	18.55	-28.1	-30.0	14.9	1.50e-06	0	45	0	1078984704	16	4459
2026-01-20 02:38:30.95	298.98	18.42	-27.8	-29.9	15.0	0.00e+00	0	45	0	1088421888	15	4540
2026-01-20 02:38:33.95	298.31	18.30	-27.9	-29.9	15.0	0.00e+00	0	45	0	1097859072	15	4553
2026-01-20 02:38:36.96	297.65	18.17	-28.1	-29.9	14.9	0.00e+00	0	45	0	1107296256	16	4417
2026-01-20 02:38:39.96	296.99	18.03	-27.7	-29.6	15.1	7.00e-07	0	45	0	1116733440	15	4467
2026-01-20 02:38:42.96	296.34	17.90	-27.9	-30.0	14.9	0.00e+00	0	45	0	1126170624	15	4578
2026-01-20 02:38:45.98	295.69	17.76	-27.8	-29.8	15.0	0.00e+00	0	44	0	1135607808	15	4521
2026-01-20 02:38:48.99	295.05	17.62	-27.9	-30.1	14.9	0.00e+00	0	45	0	1145044992	15	4608
2026-01-20 02:38:51.99	294.42	17.47	-27.7	-29.5	15.2	0.00e+00	0	44	0	1154482176	15	4422
2026-01-20 02:38:55.00	293.79	17.33	-27.7	-29.5	15.1	0.00e+00	0	44	0	1162870784	15	4446
2026-01-20 02:38:58.00	293.17	17.18	-27.9	-30.1	14.8	0.00e+00	0	44	0	1172307968	15	4603
2026-01-20 02:39:01.01	292.56	17.02	-28.3	-30.3	14.6	7.00e-07	0	45	0	1181745152	16	4537
2026-01-20 02:39:04.02	291.95	16.87	-28.1	-29.8	14.8	0.00e+00	0	45	0	1191182336	16	4405
2026-01-20 02:39:07.04	291.34	16.71	-27.7	-29.6	15.1	0.00e+00	0	44	0	1200619520	15	4463
2026-01-20 02:39:10.03	290.75	16.55	-27.8	-29.8	15.0	0.00e+00	0	45	0	1210056704	15	4513
2026-01-20 02:39:13.04	290.16	16.39	-28.2	-30.2	14.6	1.50e-06	0	45	0	1219493888	16	4539
2026-01-20 02:39:16.05	289.58	16.23	-28.3	-30.4	14.5	7.00e-07	0	44	0	1228931072	16	4577
2026-01-20 02:39:19.06	289.00	16.06	-28.1	-29.9	14.4	0.00e+00	0	45	0	1238368256	16	4431
2026-01-20 02:39:22.06	288.43	15.90	-27.8	-29.8	14.9	7.00e-07	0	44	0	1247805440	15	4528
2026-01-20 02:39:25.08	287.86	15.73	-27.7	-29.7	14.9	0.00e+00	0	44	0	1257242624	15	4487
2026-01-20 02:39:28.08	287.31	15.56	-27.7	-29.5	15.1	0.00e+00	0	44	0	1266679808	15	4431
2026-01-20 02:39:31.09	286.76	15.39	-27.8	-29.7	14.9	9.91e-04	0	44	0	1276116992	15	4512
2026-01-20 02:39:34.11	286.21	15.21	-27.8	-29.9	14.8	7.21e-04	0	45	0	1285554176	15	4558
2026-01-20 02:39:37.12	285.67	15.04	-28.2	-30.3	14.4	0.00e+00	0	44	0	1294991360	16	4559
2026-01-20 02:39:40.13	285.14	14.86	-28.5	-30.9	14.1	6.64e-04	0	45	0	1304428544	16	4741
2026-01-20 02:39:43.12	284.61	14.69	-28.6	-30.7	13.9	3.00e-06	0	44	0	1313865728	17	4586
2026-01-20 02:39:46.13	284.09	14.51	-28.4	-30.2	14.2	6.96e-04	0	45	0	1323302912	17	4423
2026-01-20 02:39:49.14	283.58	14.33	-28.2	-30.2	14.5	7.38e-04	0	45	0	1332740096	16	4524
2026-01-20 02:39:52.15	283.07	14.15	-28.3	-30.5	14.3	1.11e-03	0	44	0	1342177280	16	4622
2026-01-20 02:39:55.16	282.57	13.97	-28.3	-30.4	14.3	8.15e-04	0	45	0	1351614464	16	4577
2026-01-20 02:39:58.16	282.08	13.79	-28.2	-30.1	14.5	2.20e-06	0	44	0	1361051648	16	4505
2026-01-20 02:40:01.16	281.59	13.60	-28.1	-30.0	14.5	6.63e-05	0	45	0	1370488832	16	4482
2026-01-20 02:40:04.16	281.11	13.42	-28.3	-30.5	14.2	2.20e-06	0	44	0	1379926016	16	4632
2026-01-20 02:40:07.18	280.63	13.24	-28.4	-30.8	14.0	6.13e-04	0	44	0	1389363200	16	4722
2026-01-20 02:40:10.19	280.16	13.05	-28.5	-30.4	14.0	3.00e-06	0	44	0	1398800384	17	4494
2026-01-20 02:40:13.20	279.70	12.87	-28.7	-30.8	13.7	9.10e-06	0	44	0	1408237568	17	4613
2026-01-20 02:40:16.21	279.24	12.68	-28.3	-29.9	14.2	0.00e+00	0	45	0	1416626176	17	4338
2026-01-20 02:40:19.21	278.78	12.50	-28.2	-30.3	14.3	0.00e+00	0	44	0	1426063360	16	4567
2026-01-20 02:40:22.22	278.34	12.31	-28.5	-30.6	13.8	1.30e-03	0	44	0	1435500544	17	4549
2026-01-20 02:40:25.22	277.90	12.12	-28.7	-31.0	13.5	6.80e-06	0	44	0	1444937728	17	4672
2026-01-20 02:40:28.24	277.46	11.94	-28.5	-30.4	13.9	3.80e-06	0	45	0	1454374912	17	4496
2026-01-20 02:40:31.25	277.03	11.75	-28.5	-30.5	13.8	3.80e-06	0	45	0	1463812096	17	4523
2026-01-20 02:40:34.26	276.60	11.56	-28.8	-31.2	13.4	1.06e-05	0	44	0	1473249280	17	4755
2026-01-20 02:40:37.26	276.18	11.38	-29.2	-31.6	12.8	4.57e-05	0	44	0	1482686464	18	4765
2026-01-20 02:40:40.25	275.77	11.19	-28.9	-31.6	13.1	1.98e-05	0	45	0	1492123648	17	4872
2026-01-20 02:40:43.27	275.36	11.00	-28.9	-31.5	13.2	2.89e-05	0	45	0	1501560832	17	4833
2026-01-20 02:40:46.28	274.96	10.82	-28.9	-31.3	13.2	1.75e-05	0	44	0	1510998016	17	4796
2026-01-20 02:40:49.28	274.56	10.63	-29.2	-31.6	12.8	5.34e-05	0	45	0	1520435200	18	4771
2026-01-20 02:40:52.30	274.17	10.44	-29.0	-31.3	13.0	4.34e-05	0	45	0	1529872384	18	4666
2026-01-20 02:40:55.30	273.78	10.26	-29.0	-31.3	12.9	4.50e-05	0	45	0	1539309568	18	4674
2026-01-20 02:40:58.30	273.40	10.07	-29.0	-31.2	13.0	4.11e-05	0	45	0	1548746752	18	4638
2026-01-20 02:41:01.31	273.02	9.88	-29.0	-31.2	13.0	3.96e-05	0	44	0	1558183936	18	4631
2026-01-20 02:41:04.33	272.64	9.70	-28.8	-31.2	13.3	2.28e-05	0	45	0	1567621120	17	4743
2026-01-20 02:41:07.34	272.28	9.51	-29.1	-31.6	12.7	6.40e-05	0	44	0	1577058304	18	4786
2026-01-20 02:41:10.35	271.91	9.32	-29.5	-32.2	12.0	2.94e-04	0	45	0	1586495488	19	4866
2026-01-20 02:41:13.35	271.55	9.14	-29.9	-33.0	11.4	8.51e-04	0	44	0	1595932672	19	5160
2026-01-20 02:41:16.36	271.20	8.95	-29.7	-32.6	11.7	6.92e-04	0	45	0	1605369856	19	5022
2026-01-20 02:41:19.37	270.85	8.77	-29.3	-31.9	12.4	2.13e-04	0	44	0	1614807040	18	4899
2026-01-20 02:41:22.38	270.50	8.58	-28.4	-31.1	11.2	2.14e-04	0	45	0	1624244224	18	4965
2026-01-20 02:41:25.40	270.16	8.40	-28.9	-31.6	12.8	6.56e-03	0	45	0	1633681408	17	4911
2026-01-20 02:41:28.40	269.83	8.22	-29.2	-31.9	12.4	1.38e-04	0	45	0	1643118592	18	4893
2026-01-20 02:41:31.41	269.49	8.03	-29.4	-32.3	12.1	2.77e-04	0	45	0	1652555776	18	5033
2026-01-20 02:41:34.42	269.16	7.85	-29.6	-32.4	11.7	4.68e-03	0	44	0	1661992960	19	4953
2026-01-20 02:41:37.41	268.84	7.67	-29.7	-32.5	11.6	8.31e-04	0	45	0	1670381568	19	5021
2026-01-20 02:41:40.42	268.52	7.49	-29.4	-32.4	12.0	5.92e-03	0	45	0	1679818752	18	5065
2026-01-20 02:41:43.43	268.21	7.30	-29.6	-32.4	11.6	6.30e-04	0	44	0	1689255936	19	4972
2026-01-20 02:41:46.43	267.90	7.12	-29.7	-32.8	11.3	1.02e-02	0	45	0	1698693120	19	5113
2026-01-20 02:41:49.44	267.59	6.94	-33.8	-46.0	3.8	1.49e+00	0	44	104	1701838848	27	14625

#Closed at: 2026-01-20 02:41:49
#Recorded file [1701 MB]: D:/data/31010_260120_053242.dat