passes_logs/2026/01/20/R2M6_AANII_01/R2M6_AANII_01__20260120_135401_FENGYUN_3D_rec.log

#Pass ID: 20260120_135401_FENGYUN 3D
#Satellite: FENGYUN 3D
#Configuration: FENGYUN 3D
#almurnet v.1.7.20240730
#Start time: 2026-01-20 13:54:01

#Version: 2.2.20231116
#Station: R2M6_AANII_01
#Location: 30.233357 lon 59.946436 lat
#TLE: 1 43010U 17072A   26019.93695019 -.00000250  00000+0 -96545-4 0  9996
#TLE: 2 43010  98.9942 351.8290 0002452 100.7901 259.3550 14.19695974423957

#Time	Az	El	Level	Level2	SNR	BER	BlckErr	Temp	State	Recorded	gain1	gain2
2026-01-20 13:54:01.59	209.89	7.01	-27.8	-29.6	5.8	7.57e-01	0	42	0	0	16	4409
2026-01-20 13:54:04.60	210.16	7.21	-29.6	-32.4	10.5	2.18e-03	0	41	0	5242880	19	5021
2026-01-20 13:54:07.62	210.44	7.40	-28.8	-30.5	11.8	3.97e-04	0	42	0	22020096	19	4376
2026-01-20 13:54:10.62	210.72	7.60	-28.5	-30.2	12.3	1.69e-04	0	42	0	38797312	18	4385
2026-01-20 13:54:13.63	211.01	7.80	-28.5	-30.3	12.3	2.05e-04	0	42	0	55574528	18	4396
2026-01-20 13:54:16.63	211.29	8.00	-28.8	-31.1	11.8	2.63e-04	0	42	0	73400320	18	4649
2026-01-20 13:54:19.63	211.59	8.19	-27.7	-29.3	13.5	5.70e-06	0	42	0	90177536	16	4336
2026-01-20 13:54:22.64	211.88	8.39	-27.4	-28.5	14.0	3.40e-06	0	42	0	106954752	16	4099
2026-01-20 13:54:25.65	212.18	8.60	-27.0	-28.3	14.3	1.10e-06	0	42	0	123731968	15	4159
2026-01-20 13:54:28.67	212.49	8.80	-27.0	-28.3	14.3	1.10e-06	0	42	0	140509184	15	4153
2026-01-20 13:54:31.69	212.80	9.00	-27.0	-28.2	14.4	1.10e-06	0	42	0	158334976	15	4114
2026-01-20 13:54:34.70	213.11	9.21	-26.9	-28.0	14.5	0.00e+00	0	43	0	175112192	15	4087
2026-01-20 13:54:37.71	213.43	9.41	-26.9	-28.4	14.6	0.00e+00	0	43	0	191889408	14	4288
2026-01-20 13:54:40.72	213.75	9.62	-26.7	-28.0	14.8	0.00e+00	0	42	0	208666624	14	4178
2026-01-20 13:54:43.72	214.08	9.82	-26.6	-27.9	14.9	0.00e+00	0	43	0	225443840	14	4139
2026-01-20 13:54:46.73	214.41	10.03	-26.5	-27.6	15.0	0.00e+00	0	43	0	242221056	14	4068
2026-01-20 13:54:49.74	214.75	10.24	-26.6	-27.6	15.0	0.00e+00	0	43	0	258998272	14	4082
2026-01-20 13:54:52.76	215.09	10.45	-26.7	-27.9	14.9	0.00e+00	0	43	0	275775488	14	4137
2026-01-20 13:54:55.75	215.43	10.66	-26.8	-28.3	14.7	1.10e-06	0	43	0	293601280	14	4248
2026-01-20 13:54:58.77	215.78	10.87	-26.7	-28.0	14.8	0.00e+00	0	43	0	310378496	14	4186
2026-01-20 13:55:01.78	216.13	11.08	-26.7	-27.9	14.9	0.00e+00	0	43	0	327155712	14	4142
2026-01-20 13:55:04.78	216.49	11.29	-26.4	-27.4	15.2	0.00e+00	0	43	0	343932928	14	4008
2026-01-20 13:55:07.79	216.86	11.51	-26.5	-27.4	15.2	0.00e+00	0	43	0	360710144	14	4021
2026-01-20 13:55:10.80	217.23	11.72	-26.7	-27.9	14.9	0.00e+00	0	43	0	377487360	14	4153
2026-01-20 13:55:13.82	217.60	11.94	-26.4	-27.2	15.4	0.00e+00	0	43	0	394264576	14	3967
2026-01-20 13:55:16.82	217.98	12.16	-26.2	-27.2	15.7	0.00e+00	0	43	0	411041792	13	4073
2026-01-20 13:55:19.84	218.37	12.37	-26.1	-27.1	15.7	0.00e+00	0	43	0	428867584	13	4050
2026-01-20 13:55:22.85	218.76	12.59	-26.2	-27.3	15.6	0.00e+00	0	43	0	445644800	13	4094
2026-01-20 13:55:25.85	219.16	12.81	-26.2	-27.4	15.6	0.00e+00	0	43	0	462422016	13	4130
2026-01-20 13:55:28.87	219.56	13.03	-26.1	-27.2	15.7	0.00e+00	0	43	0	479199232	13	4076
2026-01-20 13:55:31.88	219.97	13.25	-26.2	-27.4	15.6	0.00e+00	0	44	0	495976448	13	4111
2026-01-20 13:55:34.90	220.39	13.47	-26.2	-27.4	15.6	0.00e+00	0	43	0	513802240	13	4121
2026-01-20 13:55:37.92	220.81	13.69	-26.3	-27.6	15.6	0.00e+00	0	43	0	530579456	13	4177
2026-01-20 13:55:40.92	221.23	13.91	-25.9	-26.7	16.1	0.00e+00	0	44	0	547356672	13	3936
2026-01-20 13:55:43.93	221.67	14.14	-25.8	-26.8	16.3	0.00e+00	0	44	0	564133888	12	4072
2026-01-20 13:55:46.93	222.10	14.36	-26.0	-27.4	16.0	0.00e+00	0	43	0	580911104	12	4221
2026-01-20 13:55:49.94	222.55	14.58	-26.0	-27.4	16.0	0.00e+00	0	43	0	597688320	12	4216
2026-01-20 13:55:52.96	223.00	14.81	-25.8	-26.8	16.3	0.00e+00	0	44	0	614465536	12	4066
2026-01-20 13:55:55.98	223.46	15.03	-25.7	-26.8	16.3	0.00e+00	0	44	0	631242752	12	4063
2026-01-20 13:55:58.99	223.93	15.26	-25.5	-26.3	16.6	0.00e+00	0	44	0	649068544	12	3945
2026-01-20 13:56:01.98	224.40	15.48	-25.3	-25.9	16.8	0.00e+00	0	44	0	665845760	12	3856
2026-01-20 13:56:04.99	224.88	15.71	-25.4	-26.5	16.9	0.00e+00	0	44	0	682622976	11	4091
2026-01-20 13:56:08.01	225.37	15.93	-25.5	-26.7	16.8	0.00e+00	0	44	0	699400192	11	4144
2026-01-20 13:56:11.01	225.86	16.16	-25.5	-26.8	16.7	0.00e+00	0	44	0	716177408	11	4178
2026-01-20 13:56:14.02	226.36	16.38	-25.5	-26.8	16.8	0.00e+00	0	44	0	732954624	11	4169
2026-01-20 13:56:17.02	226.87	16.61	-25.5	-26.8	16.8	0.00e+00	0	44	0	749731840	11	4156
2026-01-20 13:56:20.04	227.39	16.84	-25.5	-26.7	16.8	0.00e+00	0	44	0	766509056	11	4139
2026-01-20 13:56:23.06	227.91	17.06	-25.2	-26.1	17.2	0.00e+00	0	44	0	784334848	11	3985
2026-01-20 13:56:26.06	228.44	17.29	-25.0	-25.7	17.4	0.00e+00	0	43	0	801112064	11	3892
2026-01-20 13:56:29.08	228.98	17.51	-25.3	-26.4	17.0	0.00e+00	0	44	0	817889280	11	4062
2026-01-20 13:56:32.08	229.53	17.74	-25.5	-26.7	16.9	0.00e+00	0	44	0	834666496	11	4147
2026-01-20 13:56:35.08	230.08	17.96	-25.3	-26.4	17.1	0.00e+00	0	44	0	851443712	11	4055
2026-01-20 13:56:38.10	230.64	18.18	-24.9	-25.5	17.5	0.00e+00	0	44	0	869269504	11	3858
2026-01-20 13:56:41.10	231.21	18.41	-25.0	-25.7	17.5	0.00e+00	0	44	0	886046720	11	3885
2026-01-20 13:56:44.11	231.79	18.63	-24.9	-25.5	17.5	0.00e+00	0	44	0	902823936	11	3849
2026-01-20 13:56:47.12	232.38	18.85	-25.0	-25.6	17.5	0.00e+00	0	44	0	919601152	11	3874
2026-01-20 13:56:50.12	232.97	19.07	-24.9	-25.4	17.6	0.00e+00	0	44	0	936378368	11	3815
2026-01-20 13:56:53.13	233.58	19.29	-24.8	-25.8	17.7	0.00e+00	0	44	0	953155584	10	4013
2026-01-20 13:56:56.14	234.19	19.50	-24.9	-25.9	17.6	0.00e+00	0	44	0	969932800	10	4055
2026-01-20 13:56:59.16	234.81	19.72	-24.7	-25.5	17.9	0.00e+00	0	44	0	987758592	10	3937
2026-01-20 13:57:02.16	235.44	19.94	-24.8	-25.7	17.7	0.00e+00	0	44	0	1004535808	10	4005
2026-01-20 13:57:05.17	236.08	20.15	-24.6	-25.3	18.0	0.00e+00	0	44	0	1021313024	10	3887
2026-01-20 13:57:08.19	236.73	20.36	-24.5	-25.1	18.1	0.00e+00	0	44	0	1038090240	10	3855
2026-01-20 13:57:11.19	237.38	20.57	-24.5	-25.2	18.1	0.00e+00	0	44	0	1054867456	10	3871
2026-01-20 13:57:14.21	238.05	20.78	-24.5	-25.1	18.1	1.10e-06	0	44	0	1071644672	10	3840
2026-01-20 13:57:17.23	238.72	20.99	-24.6	-25.3	18.0	0.00e+00	0	44	0	1088421888	10	3900
2026-01-20 13:57:20.24	239.40	21.19	-24.7	-25.5	17.9	0.00e+00	0	44	0	1105199104	10	3956
2026-01-20 13:57:23.24	240.09	21.39	-24.7	-25.4	18.0	0.00e+00	0	44	0	1123024896	10	3926
2026-01-20 13:57:26.23	240.79	21.59	-24.7	-25.5	17.9	0.00e+00	0	44	0	1139802112	10	3936
2026-01-20 13:57:29.23	241.49	21.78	-24.5	-25.0	18.2	0.00e+00	0	44	0	1156579328	10	3828
2026-01-20 13:57:32.24	242.21	21.97	-24.7	-25.6	17.9	0.00e+00	0	44	0	1173356544	10	3964
2026-01-20 13:57:35.25	242.93	22.16	-24.7	-25.4	18.0	0.00e+00	0	44	0	1190133760	10	3927
2026-01-20 13:57:38.24	243.66	22.35	-24.8	-25.7	17.9	0.00e+00	0	44	0	1206910976	10	3987
2026-01-20 13:57:41.26	244.41	22.53	-25.0	-26.2	17.6	0.00e+00	0	44	0	1223688192	10	4112
2026-01-20 13:57:44.25	245.15	22.71	-24.4	-24.8	18.3	0.00e+00	0	44	0	1240465408	10	3788
2026-01-20 13:57:47.26	245.91	22.88	-24.2	-24.9	18.5	0.00e+00	0	44	0	1258291200	9	3916
2026-01-20 13:57:50.26	246.68	23.05	-24.1	-24.8	18.6	0.00e+00	0	44	0	1275068416	9	3883
2026-01-20 13:57:53.28	247.46	23.22	-24.2	-25.0	18.5	0.00e+00	0	44	0	1291845632	9	3933
2026-01-20 13:57:56.27	248.23	23.38	-24.0	-24.5	18.8	0.00e+00	0	44	0	1308622848	9	3816
2026-01-20 13:57:59.28	249.02	23.54	-24.0	-24.4	18.8	0.00e+00	0	44	0	1325400064	9	3790
2026-01-20 13:58:02.29	249.82	23.69	-24.0	-24.5	18.7	0.00e+00	0	44	0	1342177280	9	3823
2026-01-20 13:58:05.32	250.64	23.84	-24.0	-24.4	18.8	0.00e+00	0	44	0	1358954496	9	3804
2026-01-20 13:58:08.34	251.45	23.99	-23.8	-24.2	18.9	0.00e+00	0	44	0	1375731712	9	3737
2026-01-20 13:58:11.34	252.27	24.12	-23.9	-24.8	18.9	0.00e+00	0	44	0	1393557504	8	3985
2026-01-20 13:58:14.35	253.10	24.26	-23.8	-24.6	19.0	0.00e+00	0	44	0	1410334720	8	3953
2026-01-20 13:58:17.37	253.94	24.38	-23.7	-24.3	19.1	0.00e+00	0	44	0	1427111936	8	3862
2026-01-20 13:58:20.38	254.78	24.51	-23.8	-24.6	19.0	0.00e+00	0	44	0	1443889152	8	3957
2026-01-20 13:58:23.40	255.63	24.62	-23.6	-24.2	19.2	0.00e+00	0	44	0	1460666368	8	3852
2026-01-20 13:58:26.42	256.48	24.73	-23.6	-24.1	19.3	0.00e+00	0	44	0	1478492160	8	3821
2026-01-20 13:58:29.42	257.34	24.83	-23.5	-23.9	19.3	0.00e+00	0	44	0	1495269376	8	3786
2026-01-20 13:58:32.44	258.21	24.93	-23.6	-24.2	19.2	0.00e+00	0	44	0	1512046592	8	3856
2026-01-20 13:58:35.45	259.08	25.02	-23.7	-24.4	19.1	0.00e+00	0	44	0	1528823808	8	3896
2026-01-20 13:58:38.46	259.95	25.11	-23.8	-24.7	19.0	0.00e+00	0	44	0	1545601024	8	3954
2026-01-20 13:58:41.48	260.83	25.18	-23.7	-24.4	19.1	0.00e+00	0	44	0	1562378240	8	3895
2026-01-20 13:58:44.48	261.71	25.25	-23.6	-24.2	19.2	0.00e+00	0	44	0	1579155456	8	3853
2026-01-20 13:58:47.48	262.59	25.32	-23.5	-24.0	19.3	0.00e+00	0	44	0	1595932672	8	3808
2026-01-20 13:58:50.49	263.48	25.37	-23.5	-23.9	19.4	0.00e+00	0	44	0	1613758464	8	3788
2026-01-20 13:58:53.50	264.37	25.42	-23.6	-24.2	19.2	0.00e+00	0	44	0	1630535680	8	3862
2026-01-20 13:58:56.51	265.27	25.46	-23.6	-24.1	19.2	0.00e+00	0	44	0	1647312896	8	3827
2026-01-20 13:58:59.52	266.16	25.50	-23.6	-24.1	19.3	0.00e+00	0	44	0	1664090112	8	3828
2026-01-20 13:59:02.53	267.06	25.53	-23.8	-24.5	19.1	0.00e+00	0	44	0	1680867328	8	3931
2026-01-20 13:59:05.54	267.96	25.55	-23.9	-24.7	18.9	0.00e+00	0	44	0	1698693120	8	3981
2026-01-20 13:59:08.56	268.86	25.56	-23.8	-24.5	19.1	0.00e+00	0	44	0	1715470336	8	3914
2026-01-20 13:59:11.57	269.76	25.57	-23.9	-24.8	18.9	0.00e+00	0	44	0	1732247552	8	3984
2026-01-20 13:59:14.57	270.66	25.56	-23.7	-24.4	19.2	0.00e+00	0	44	0	1749024768	8	3881
2026-01-20 13:59:17.57	271.56	25.56	-23.7	-24.4	19.1	0.00e+00	0	44	0	1765801984	8	3893
2026-01-20 13:59:20.58	272.46	25.54	-23.8	-24.5	19.1	0.00e+00	0	44	0	1782579200	8	3929
2026-01-20 13:59:23.59	273.36	25.52	-23.7	-24.3	19.2	0.00e+00	0	44	0	1799356416	8	3871
2026-01-20 13:59:26.59	274.25	25.48	-23.8	-24.5	19.1	0.00e+00	0	44	0	1816133632	8	3915
2026-01-20 13:59:29.61	275.15	25.45	-23.9	-24.7	18.9	0.00e+00	0	44	0	1833959424	8	3981
2026-01-20 13:59:32.62	276.04	25.40	-24.0	-25.1	18.8	0.00e+00	0	44	0	1850736640	8	4065
2026-01-20 13:59:35.63	276.93	25.35	-23.7	-24.4	19.2	0.00e+00	0	44	0	1867513856	8	3896
2026-01-20 13:59:38.64	277.82	25.29	-23.7	-24.4	19.2	0.00e+00	0	44	0	1884291072	8	3886
2026-01-20 13:59:41.65	278.70	25.22	-23.7	-24.4	19.1	0.00e+00	0	44	0	1901068288	8	3893
2026-01-20 13:59:44.65	279.58	25.15	-23.6	-24.2	19.2	0.00e+00	0	44	0	1917845504	8	3857
2026-01-20 13:59:47.66	280.45	25.07	-23.8	-24.5	19.1	0.00e+00	0	44	0	1934622720	8	3917
2026-01-20 13:59:50.67	281.32	24.98	-23.9	-24.7	19.0	0.00e+00	0	44	0	1952448512	8	3968
2026-01-20 13:59:53.68	282.19	24.89	-23.9	-24.7	19.0	0.00e+00	0	44	0	1969225728	8	3964
2026-01-20 13:59:56.69	283.05	24.79	-23.9	-24.7	19.0	0.00e+00	0	44	0	1986002944	8	3970
2026-01-20 13:59:59.71	283.90	24.68	-24.1	-25.2	18.7	0.00e+00	0	44	0	2002780160	8	4097
2026-01-20 14:00:02.71	284.75	24.57	-24.3	-25.6	18.5	0.00e+00	0	44	0	2019557376	8	4200
2026-01-20 14:00:05.73	285.60	24.45	-24.0	-25.1	18.8	0.00e+00	0	44	0	2036334592	8	4063
2026-01-20 14:00:08.74	286.43	24.33	-23.9	-24.7	18.9	0.00e+00	0	44	0	2054160384	8	3968
2026-01-20 14:00:11.74	287.26	24.20	-24.0	-25.0	18.8	0.00e+00	0	44	0	2070937600	8	4032
2026-01-20 14:00:14.76	288.08	24.07	-23.9	-24.8	18.9	0.00e+00	0	44	0	2087714816	8	3999
2026-01-20 14:00:17.77	288.90	23.93	-24.0	-24.9	18.8	0.00e+00	0	44	0	2104492032	8	4026
2026-01-20 14:00:20.78	289.71	23.78	-24.4	-25.8	18.4	0.00e+00	0	44	0	2121269248	8	4233
2026-01-20 14:00:23.78	290.51	23.63	-24.2	-25.4	18.6	0.00e+00	0	44	0	2138046464	8	4145
2026-01-20 14:00:26.79	291.30	23.48	-24.4	-25.4	18.3	0.00e+00	0	44	0	2154823680	9	4032
2026-01-20 14:00:29.78	292.08	23.32	-24.3	-25.1	18.5	0.00e+00	0	44	0	2171600896	9	3944
2026-01-20 14:00:32.78	292.86	23.16	-24.4	-25.3	18.4	0.00e+00	0	44	0	2188378112	9	3996
2026-01-20 14:00:35.79	293.63	22.99	-24.2	-24.9	18.6	0.00e+00	0	44	0	2206203904	9	3907
2026-01-20 14:00:38.80	294.39	22.82	-24.4	-25.3	18.4	0.00e+00	0	44	0	2222981120	9	4005
2026-01-20 14:00:41.79	295.13	22.64	-24.3	-25.1	18.5	0.00e+00	0	44	0	2239758336	9	3949
2026-01-20 14:00:44.81	295.88	22.46	-24.4	-25.3	18.4	0.00e+00	0	44	0	2256535552	9	4011
2026-01-20 14:00:47.82	296.62	22.28	-24.4	-25.4	18.3	0.00e+00	0	44	0	2273312768	9	4023
2026-01-20 14:00:50.83	297.35	22.10	-24.5	-25.5	18.3	0.00e+00	0	44	0	2290089984	9	4065
2026-01-20 14:00:53.85	298.07	21.91	-24.7	-26.1	18.0	0.00e+00	0	44	0	2307915776	9	4207
2026-01-20 14:00:56.86	298.78	21.71	-24.7	-25.9	18.1	0.00e+00	0	44	0	2324692992	9	4149
2026-01-20 14:00:59.86	299.48	21.52	-24.4	-25.4	18.4	0.00e+00	0	44	0	2341470208	9	4012
2026-01-20 14:01:02.87	300.17	21.32	-24.6	-25.8	18.1	0.00e+00	0	44	0	2358247424	9	4133
2026-01-20 14:01:05.89	300.86	21.12	-25.0	-26.6	17.7	0.00e+00	0	44	0	2375024640	9	4323
2026-01-20 14:01:08.91	301.53	20.92	-25.0	-26.6	17.7	0.00e+00	0	44	0	2391801856	9	4330
2026-01-20 14:01:11.93	302.20	20.71	-24.9	-25.9	17.8	0.00e+00	0	44	0	2408579072	10	4045
2026-01-20 14:01:14.93	302.86	20.50	-24.9	-25.9	17.8	0.00e+00	0	44	0	2425356288	10	4034
2026-01-20 14:01:17.95	303.51	20.29	-25.0	-26.0	17.7	0.00e+00	0	44	0	2443182080	10	4071
2026-01-20 14:01:20.97	304.15	20.08	-25.2	-26.6	17.5	0.00e+00	0	44	0	2459959296	10	4207
2026-01-20 14:01:23.99	304.79	19.87	-25.0	-26.1	17.7	0.00e+00	0	44	0	2476736512	10	4101
2026-01-20 14:01:26.99	305.41	19.66	-25.0	-26.2	17.6	0.00e+00	0	44	0	2493513728	10	4120
2026-01-20 14:01:30.02	306.03	19.44	-25.3	-26.8	17.3	0.00e+00	0	44	0	2510290944	10	4273
2026-01-20 14:01:33.03	306.63	19.22	-25.2	-26.6	17.4	0.00e+00	0	44	0	2528116736	10	4210
2026-01-20 14:01:36.04	307.23	19.00	-25.4	-27.0	17.2	0.00e+00	0	44	0	2544893952	10	4326
2026-01-20 14:01:39.05	307.82	18.79	-25.6	-26.9	17.0	0.00e+00	0	44	0	2561671168	11	4189
2026-01-20 14:01:42.06	308.40	18.57	-25.5	-26.7	17.0	0.00e+00	0	44	0	2578448384	11	4141
2026-01-20 14:01:45.07	308.98	18.34	-25.8	-27.3	16.7	0.00e+00	0	44	0	2595225600	11	4292
2026-01-20 14:01:48.07	309.54	18.12	-25.7	-27.1	16.8	0.00e+00	0	44	0	2612002816	11	4245
2026-01-20 14:01:51.07	310.10	17.90	-25.5	-26.6	17.1	0.00e+00	0	44	0	2628780032	11	4114
2026-01-20 14:01:54.08	310.65	17.68	-25.4	-26.5	17.1	0.00e+00	0	44	0	2645557248	11	4078
2026-01-20 14:01:57.10	311.19	17.46	-25.6	-26.9	16.9	0.00e+00	0	44	0	2663383040	11	4183
2026-01-20 14:02:00.10	311.72	17.23	-25.9	-27.2	16.4	0.00e+00	0	44	0	2680160256	12	4155
2026-01-20 14:02:03.09	312.24	17.01	-25.9	-27.1	16.4	0.00e+00	0	44	0	2696937472	12	4138
2026-01-20 14:02:06.10	312.76	16.79	-25.8	-26.8	16.6	0.00e+00	0	44	0	2713714688	12	4049
2026-01-20 14:02:09.11	313.27	16.56	-26.1	-27.6	16.2	0.00e+00	0	44	0	2730491904	12	4262
2026-01-20 14:02:12.13	313.78	16.34	-26.1	-27.5	16.3	0.00e+00	0	44	0	2747269120	12	4226
2026-01-20 14:02:15.15	314.28	16.12	-26.1	-27.5	16.2	0.00e+00	0	44	0	2765094912	12	4225
2026-01-20 14:02:18.16	314.77	15.89	-26.0	-27.3	16.3	0.00e+00	0	44	0	2781872128	12	4192
2026-01-20 14:02:21.18	315.25	15.67	-25.9	-27.2	16.4	0.00e+00	0	44	0	2798649344	12	4144
2026-01-20 14:02:24.19	315.73	15.44	-26.0	-27.3	16.3	0.00e+00	0	44	0	2815426560	12	4185
2026-01-20 14:02:27.20	316.19	15.22	-26.1	-27.6	16.1	0.00e+00	0	44	0	2832203776	12	4263
2026-01-20 14:02:30.21	316.66	15.00	-26.2	-27.7	16.1	0.00e+00	0	44	0	2848980992	12	4287
2026-01-20 14:02:33.22	317.11	14.78	-26.0	-27.3	16.3	0.00e+00	0	44	0	2865758208	12	4177
2026-01-20 14:02:36.23	317.56	14.55	-26.2	-27.7	16.1	0.00e+00	0	44	0	2883584000	12	4277
2026-01-20 14:02:39.23	318.00	14.33	-26.3	-27.9	15.9	0.00e+00	0	44	0	2900361216	12	4347
2026-01-20 14:02:42.25	318.44	14.11	-26.3	-27.9	15.9	0.00e+00	0	44	0	2917138432	12	4357
2026-01-20 14:02:45.26	318.87	13.89	-26.3	-28.0	15.8	0.00e+00	0	44	0	2933915648	12	4379
2026-01-20 14:02:48.27	319.29	13.67	-26.5	-28.4	15.6	0.00e+00	0	44	0	2950692864	12	4480
2026-01-20 14:02:51.28	319.71	13.45	-27.0	-28.5	15.0	0.00e+00	0	44	0	2967470080	14	4301
2026-01-20 14:02:54.29	320.12	13.23	-26.6	-27.5	15.5	0.00e+00	0	44	0	2985295872	14	4032
2026-01-20 14:02:57.31	320.53	13.01	-26.6	-27.6	15.4	0.00e+00	0	44	0	3002073088	14	4067
2026-01-20 14:03:00.31	320.92	12.80	-26.8	-28.2	15.1	0.00e+00	0	44	0	3018850304	14	4198
2026-01-20 14:03:03.31	321.32	12.58	-26.8	-28.2	15.1	0.00e+00	0	44	0	3035627520	14	4223
2026-01-20 14:03:06.33	321.71	12.37	-26.7	-27.9	15.3	0.00e+00	0	44	0	3052404736	14	4121
2026-01-20 14:03:09.35	322.09	12.15	-26.7	-27.9	15.3	0.00e+00	0	44	0	3069181952	14	4112
2026-01-20 14:03:12.36	322.47	11.94	-26.7	-27.9	15.2	0.00e+00	0	44	0	3087007744	14	4130
2026-01-20 14:03:15.37	322.84	11.72	-26.9	-28.2	15.0	2.20e-06	0	44	0	3103784960	14	4216
2026-01-20 14:03:18.38	323.21	11.51	-27.1	-28.8	14.7	0.00e+00	0	44	0	3120562176	14	4380
2026-01-20 14:03:21.40	323.57	11.30	-27.1	-28.8	14.7	0.00e+00	0	44	0	3137339392	14	4363
2026-01-20 14:03:24.41	323.93	11.09	-27.1	-28.7	14.7	0.00e+00	0	44	0	3154116608	14	4345
2026-01-20 14:03:27.41	324.28	10.88	-27.2	-29.1	14.5	0.00e+00	0	44	0	3170893824	14	4448
2026-01-20 14:03:30.41	324.63	10.67	-27.0	-28.6	14.8	0.00e+00	0	44	0	3187671040	14	4326
2026-01-20 14:03:33.43	324.97	10.46	-27.0	-28.6	14.8	0.00e+00	0	44	0	3204448256	14	4333
2026-01-20 14:03:36.44	325.31	10.25	-26.9	-28.4	14.9	0.00e+00	0	44	0	3222274048	14	4269
2026-01-20 14:03:39.45	325.65	10.05	-27.1	-28.9	14.6	0.00e+00	0	44	0	3239051264	14	4413
2026-01-20 14:03:42.46	325.97	9.84	-27.2	-29.0	14.5	0.00e+00	0	44	0	3255828480	14	4440
2026-01-20 14:03:45.46	326.30	9.64	-27.4	-29.6	14.2	0.00e+00	0	44	0	3272605696	14	4604
2026-01-20 14:03:48.46	326.62	9.43	-27.3	-28.8	14.3	0.00e+00	0	44	0	3289382912	15	4272
2026-01-20 14:03:51.47	326.93	9.23	-27.5	-29.3	14.0	2.20e-06	0	44	0	3306160128	15	4429
2026-01-20 14:03:54.49	327.25	9.03	-27.7	-29.6	13.8	2.20e-06	0	44	0	3323985920	15	4520
2026-01-20 14:03:57.50	327.56	8.83	-27.7	-29.7	13.7	6.80e-06	0	44	0	3340763136	15	4538
2026-01-20 14:04:00.52	327.86	8.63	-27.6	-29.5	13.8	2.20e-06	0	44	0	3357540352	15	4477
2026-01-20 14:04:03.53	328.16	8.43	-27.7	-29.7	13.7	1.10e-06	0	44	0	3374317568	15	4550
2026-01-20 14:04:06.54	328.46	8.23	-27.7	-29.6	13.7	4.50e-06	0	44	0	3391094784	15	4499
2026-01-20 14:04:09.55	328.75	8.03	-27.8	-30.0	13.5	3.40e-06	0	44	0	3407872000	15	4632
2026-01-20 14:04:12.57	329.04	7.84	-27.8	-30.0	13.5	3.40e-06	0	44	0	3424649216	15	4626
2026-01-20 14:04:15.58	329.33	7.64	-28.0	-30.4	13.2	1.83e-05	0	44	0	3442475008	15	4761
2026-01-20 14:04:18.59	329.61	7.45	-28.3	-30.7	12.9	3.20e-05	0	44	0	3459252224	16	4740
2026-01-20 14:04:21.59	329.88	7.25	-28.5	-30.7	12.5	5.60e-05	0	44	0	3476029440	17	4615
2026-01-20 14:04:24.60	330.16	7.06	-33.3	-44.2	3.8	5.05e-01	0	44	104	3491758080	26	12591

#Closed at: 2026-01-20 14:04:27
#Recorded file [3491 MB]: D:/data/31010_260120_165403.dat