passes_logs/2026/01/20/R2M6_AANII_01/R2M6_AANII_01__20260120_054404_FENGYUN_3E_rec.log

#Pass ID: 20260120_054404_FENGYUN 3E
#Satellite: FENGYUN 3E
#Configuration: FENGYUN 3E
#almurnet v.1.7.20240730
#Start time: 2026-01-20 05:44:06

#Version: 2.2.20231116
#Station: R2M6_AANII_01
#Location: 30.233357 lon 59.946436 lat
#TLE: 1 49008U 21062A   26019.58611515 -.00000153  00000+0 -51205-4 0  9999
#TLE: 2 49008  98.7481  24.6604 0002215 127.7537 232.3840 14.19884915235499

#Time	Az	El	Level	Level2	SNR	BER	BlckErr	Temp	State	Recorded	gain1	gain2
2026-01-20 05:44:06.19	13.03	7.14	-30.5	-33.2	5.1	7.93e-01	0	42	0	0	21	4919
2026-01-20 05:44:09.20	12.87	7.36	-30.5	-33.2	8.1	5.58e-02	0	42	0	7340032	21	4903
2026-01-20 05:44:12.21	12.70	7.58	-31.1	-34.3	7.1	1.45e-01	0	42	0	28311552	22	5237
2026-01-20 05:44:15.23	12.53	7.80	-29.6	-31.0	10.0	1.21e-02	0	42	0	50331648	20	4255
2026-01-20 05:44:18.23	12.35	8.03	-28.3	-29.2	12.1	3.65e-04	0	42	0	72351744	17	4025
2026-01-20 05:44:21.23	12.18	8.25	-27.9	-28.9	12.7	4.69e-05	0	42	0	93323264	16	4039
2026-01-20 05:44:24.25	12.00	8.48	-27.7	-28.5	13.0	6.52e-05	0	42	0	115343360	16	3927
2026-01-20 05:44:27.26	11.82	8.71	-27.6	-28.2	13.2	2.28e-05	0	42	0	137363456	16	3863
2026-01-20 05:44:30.27	11.63	8.95	-27.7	-28.3	13.1	2.05e-05	0	42	0	159383552	16	3879
2026-01-20 05:44:33.27	11.44	9.18	-27.5	-27.8	13.5	1.37e-05	0	42	0	180355072	16	3754
2026-01-20 05:44:36.28	11.25	9.42	-27.4	-28.2	13.4	1.37e-05	0	43	0	202375168	15	3944
2026-01-20 05:44:39.28	11.06	9.65	-27.2	-27.8	13.6	1.02e-05	0	43	0	224395264	15	3862
2026-01-20 05:44:42.29	10.86	9.89	-27.1	-27.5	13.8	5.70e-06	0	43	0	245366784	15	3771
2026-01-20 05:44:45.30	10.66	10.13	-27.4	-28.2	13.5	6.80e-06	0	43	0	267386880	15	3956
2026-01-20 05:44:48.31	10.45	10.38	-27.3	-28.0	13.6	9.10e-06	0	43	0	289406976	15	3907
2026-01-20 05:44:51.32	10.24	10.62	-27.4	-28.3	13.5	1.02e-05	0	43	0	311427072	15	3966
2026-01-20 05:44:54.34	10.03	10.87	-27.1	-27.5	14.0	6.80e-06	0	43	0	333447168	15	3766
2026-01-20 05:44:57.34	9.81	11.12	-26.7	-27.1	14.4	0.00e+00	0	43	0	354418688	14	3782
2026-01-20 05:45:00.36	9.59	11.37	-26.6	-27.0	14.5	0.00e+00	0	43	0	376438784	14	3749
2026-01-20 05:45:03.38	9.36	11.63	-26.6	-26.8	14.6	0.00e+00	0	43	0	398458880	14	3694
2026-01-20 05:45:06.38	9.14	11.88	-26.6	-27.3	14.6	0.00e+00	0	43	0	419430400	13	3921
2026-01-20 05:45:09.39	8.90	12.14	-26.4	-26.9	14.9	0.00e+00	0	43	0	441450496	13	3827
2026-01-20 05:45:12.40	8.66	12.40	-26.4	-27.0	14.8	1.10e-06	0	43	0	463470592	13	3858
2026-01-20 05:45:15.40	8.42	12.67	-26.7	-27.6	14.5	0.00e+00	0	43	0	484442112	13	3992
2026-01-20 05:45:18.41	8.18	12.93	-26.4	-26.9	14.9	0.00e+00	0	43	0	506462208	13	3829
2026-01-20 05:45:21.43	7.92	13.20	-26.4	-26.9	14.9	0.00e+00	0	43	0	528482304	13	3831
2026-01-20 05:45:24.44	7.67	13.47	-26.3	-26.6	15.1	0.00e+00	0	43	0	550502400	13	3755
2026-01-20 05:45:27.45	7.41	13.74	-26.3	-26.6	15.1	0.00e+00	0	43	0	571473920	13	3761
2026-01-20 05:45:30.45	7.14	14.02	-26.1	-26.2	15.4	0.00e+00	0	43	0	593494016	13	3652
2026-01-20 05:45:33.45	6.87	14.30	-26.2	-26.5	15.3	0.00e+00	0	43	0	615514112	13	3715
2026-01-20 05:45:36.47	6.59	14.58	-26.1	-26.8	15.3	0.00e+00	0	43	0	636485632	12	3902
2026-01-20 05:45:39.47	6.31	14.86	-26.0	-26.6	15.5	0.00e+00	0	43	0	658505728	12	3849
2026-01-20 05:45:42.47	6.02	15.14	-26.0	-26.5	15.5	0.00e+00	0	43	0	680525824	12	3832
2026-01-20 05:45:45.47	5.73	15.43	-26.1	-26.9	15.4	0.00e+00	0	44	0	701497344	12	3913
2026-01-20 05:45:48.46	5.43	15.72	-26.2	-27.1	15.2	0.00e+00	0	43	0	723517440	12	3967
2026-01-20 05:45:51.47	5.13	16.01	-26.0	-26.6	15.5	0.00e+00	0	44	0	745537536	12	3859
2026-01-20 05:45:54.50	4.81	16.31	-26.0	-26.4	15.6	0.00e+00	0	44	0	767557632	12	3806
2026-01-20 05:45:57.50	4.50	16.61	-25.7	-25.8	15.9	0.00e+00	0	44	0	788529152	12	3662
2026-01-20 05:46:00.50	4.17	16.91	-25.7	-25.8	16.0	0.00e+00	0	44	0	810549248	12	3654
2026-01-20 05:46:03.51	3.84	17.21	-25.7	-25.8	16.0	0.00e+00	0	44	0	832569344	12	3668
2026-01-20 05:46:06.52	3.50	17.52	-25.6	-25.8	16.0	0.00e+00	0	44	0	853540864	12	3646
2026-01-20 05:46:09.53	3.15	17.83	-25.7	-25.9	16.0	0.00e+00	0	44	0	875560960	12	3678
2026-01-20 05:46:12.55	2.80	18.15	-25.6	-25.6	16.1	0.00e+00	0	44	0	897581056	12	3615
2026-01-20 05:46:15.55	2.44	18.46	-25.5	-25.5	16.2	0.00e+00	0	44	0	919601152	12	3587
2026-01-20 05:46:18.56	2.07	18.78	-25.4	-25.6	16.4	0.00e+00	0	44	0	940572672	11	3715
2026-01-20 05:46:21.58	1.69	19.10	-25.1	-25.1	16.7	0.00e+00	0	44	0	962592768	11	3590
2026-01-20 05:46:24.59	1.30	19.42	-25.0	-24.9	16.9	0.00e+00	0	44	0	984612864	11	3554
2026-01-20 05:46:27.60	0.91	19.75	-24.9	-25.2	17.0	0.00e+00	0	44	0	1006632960	10	3727
2026-01-20 05:46:30.61	0.51	20.08	-24.7	-24.8	17.2	0.00e+00	0	44	0	1027604480	10	3619
2026-01-20 05:46:33.61	0.10	20.41	-24.8	-24.9	17.2	0.00e+00	0	44	0	1049624576	10	3653
2026-01-20 05:46:36.63	359.67	20.75	-24.9	-25.2	17.0	0.00e+00	0	44	0	1070596096	10	3711
2026-01-20 05:46:39.63	359.24	21.09	-25.0	-25.4	16.9	0.00e+00	0	44	0	1092616192	10	3757
2026-01-20 05:46:42.64	358.80	21.43	-24.7	-24.7	17.3	0.00e+00	0	44	0	1114636288	10	3598
2026-01-20 05:46:45.66	358.35	21.77	-24.4	-24.1	17.6	0.00e+00	0	44	0	1136656384	10	3484
2026-01-20 05:46:48.66	357.89	22.12	-24.4	-24.1	17.6	0.00e+00	0	44	0	1157627904	10	3476
2026-01-20 05:46:51.68	357.42	22.47	-24.5	-24.8	17.5	0.00e+00	0	44	0	1179648000	9	3716
2026-01-20 05:46:54.69	356.93	22.82	-24.1	-24.0	17.9	0.00e+00	0	44	0	1201668096	9	3549
2026-01-20 05:46:57.69	356.44	23.18	-24.6	-25.0	17.4	0.00e+00	0	44	0	1223688192	9	3776
2026-01-20 05:47:00.70	355.94	23.53	-24.7	-25.2	17.4	0.00e+00	0	44	0	1244659712	9	3807
2026-01-20 05:47:03.71	355.42	23.89	-24.6	-25.0	17.4	0.00e+00	0	44	0	1266679808	9	3777
2026-01-20 05:47:06.71	354.89	24.25	-24.6	-25.1	17.4	0.00e+00	0	44	0	1288699904	9	3783
2026-01-20 05:47:09.72	354.35	24.62	-24.8	-25.4	17.3	0.00e+00	0	44	0	1309671424	9	3863
2026-01-20 05:47:12.73	353.79	24.99	-24.5	-24.9	17.5	0.00e+00	0	44	0	1331691520	9	3748
2026-01-20 05:47:15.73	353.22	25.35	-24.4	-24.5	17.7	0.00e+00	0	44	0	1353711616	9	3663
2026-01-20 05:47:18.73	352.64	25.72	-24.4	-24.7	17.7	0.00e+00	0	44	0	1374683136	9	3702
2026-01-20 05:47:21.74	352.05	26.10	-24.7	-25.1	17.4	0.00e+00	0	44	0	1396703232	9	3796
2026-01-20 05:47:24.74	351.44	26.47	-24.6	-25.0	17.5	0.00e+00	0	44	0	1418723328	9	3778
2026-01-20 05:47:27.75	350.81	26.84	-24.6	-25.0	17.5	0.00e+00	0	44	0	1440743424	9	3762
2026-01-20 05:47:30.76	350.17	27.22	-24.6	-25.1	17.5	0.00e+00	0	44	0	1461714944	9	3785
2026-01-20 05:47:33.78	349.51	27.60	-24.5	-24.7	17.7	0.00e+00	0	44	0	1483735040	9	3707
2026-01-20 05:47:36.78	348.84	27.98	-24.4	-24.7	17.7	0.00e+00	0	44	0	1505755136	9	3695
2026-01-20 05:47:39.77	348.15	28.36	-24.3	-24.5	17.8	0.00e+00	0	44	0	1526726656	9	3650
2026-01-20 05:47:42.78	347.45	28.74	-24.3	-24.3	17.9	0.00e+00	0	44	0	1548746752	9	3601
2026-01-20 05:47:45.78	346.73	29.12	-24.1	-23.9	18.1	0.00e+00	0	44	0	1570766848	9	3533
2026-01-20 05:47:48.80	345.98	29.50	-24.2	-24.1	18.0	0.00e+00	0	44	0	1592786944	9	3575
2026-01-20 05:47:51.80	345.23	29.88	-24.0	-23.8	18.2	0.00e+00	0	44	0	1613758464	9	3500
2026-01-20 05:47:54.81	344.45	30.26	-24.0	-24.2	18.2	0.00e+00	0	44	0	1635778560	8	3697
2026-01-20 05:47:57.82	343.65	30.63	-24.0	-24.3	18.2	0.00e+00	0	44	0	1656750080	8	3718
2026-01-20 05:48:00.83	342.84	31.01	-24.0	-24.3	18.2	0.00e+00	0	44	0	1678770176	8	3703
2026-01-20 05:48:03.84	342.01	31.38	-24.0	-24.3	18.2	0.00e+00	0	44	0	1700790272	8	3709
2026-01-20 05:48:06.85	341.15	31.76	-24.1	-24.4	18.1	0.00e+00	0	44	0	1722810368	8	3742
2026-01-20 05:48:09.86	340.28	32.13	-24.0	-24.3	18.2	0.00e+00	0	44	0	1743781888	8	3717
2026-01-20 05:48:12.87	339.38	32.49	-24.3	-24.8	17.9	0.00e+00	0	44	0	1765801984	8	3835
2026-01-20 05:48:15.86	338.47	32.85	-24.6	-25.0	17.6	0.00e+00	0	44	0	1787822080	9	3771
2026-01-20 05:48:18.86	337.54	33.21	-24.0	-23.7	18.2	0.00e+00	0	44	0	1808793600	9	3486
2026-01-20 05:48:21.87	336.59	33.57	-24.0	-24.2	18.2	0.00e+00	0	44	0	1830813696	8	3698
2026-01-20 05:48:24.88	335.61	33.92	-23.5	-23.2	18.7	0.00e+00	0	44	0	1852833792	8	3477
2026-01-20 05:48:27.90	334.61	34.26	-23.9	-23.9	18.4	0.00e+00	0	44	0	1874853888	8	3626
2026-01-20 05:48:30.91	333.59	34.60	-24.0	-24.2	18.3	0.00e+00	0	44	0	1895825408	8	3690
2026-01-20 05:48:33.90	332.55	34.92	-24.3	-25.0	17.8	0.00e+00	0	44	0	1917845504	8	3865
2026-01-20 05:48:36.90	331.49	35.25	-23.8	-23.7	18.5	0.00e+00	0	44	0	1939865600	8	3583
2026-01-20 05:48:39.91	330.41	35.56	-23.9	-23.9	18.4	0.00e+00	0	44	0	1960837120	8	3637
2026-01-20 05:48:42.93	329.30	35.87	-24.0	-24.2	18.2	0.00e+00	0	44	0	1982857216	8	3701
2026-01-20 05:48:45.94	328.18	36.16	-23.8	-23.8	18.5	0.00e+00	0	44	0	2004877312	8	3596
2026-01-20 05:48:48.95	327.03	36.45	-23.3	-23.2	19.0	0.00e+00	0	44	0	2026897408	7	3576
2026-01-20 05:48:51.96	325.86	36.72	-24.0	-24.8	18.1	0.00e+00	0	44	0	2047868928	7	3927
2026-01-20 05:48:54.97	324.68	36.98	-24.0	-24.3	18.2	0.00e+00	0	44	0	2069889024	8	3703
2026-01-20 05:48:57.99	323.47	37.24	-23.9	-23.9	18.4	0.00e+00	0	44	0	2091909120	8	3626
2026-01-20 05:49:01.01	322.24	37.47	-23.8	-23.7	18.5	0.00e+00	0	44	0	2113929216	8	3589
2026-01-20 05:49:04.01	321.01	37.70	-23.9	-24.1	18.3	0.00e+00	0	44	0	2134900736	8	3666
2026-01-20 05:49:07.01	319.75	37.91	-24.2	-24.6	18.0	0.00e+00	0	44	0	2156920832	8	3791
2026-01-20 05:49:10.02	318.48	38.10	-24.0	-24.1	18.3	0.00e+00	0	44	0	2178940928	8	3669
2026-01-20 05:49:13.03	317.19	38.28	-23.6	-23.5	18.6	0.00e+00	0	44	0	2199912448	8	3536
2026-01-20 05:49:16.04	315.89	38.45	-23.8	-23.8	18.4	0.00e+00	0	44	0	2221932544	8	3602
2026-01-20 05:49:19.05	314.57	38.60	-23.7	-23.7	18.5	0.00e+00	0	44	0	2243952640	8	3575
2026-01-20 05:49:22.05	313.25	38.73	-24.1	-24.4	18.1	0.00e+00	0	44	0	2265972736	8	3735
2026-01-20 05:49:25.06	311.91	38.84	-24.5	-25.3	17.7	0.00e+00	0	44	0	2286944256	8	3938
2026-01-20 05:49:28.06	310.57	38.94	-24.1	-24.5	18.1	0.00e+00	0	44	0	2308964352	8	3755
2026-01-20 05:49:31.08	309.22	39.02	-24.1	-24.5	18.1	0.00e+00	0	44	0	2329935872	8	3765
2026-01-20 05:49:34.09	307.86	39.08	-23.8	-23.8	18.4	0.00e+00	0	44	0	2351955968	8	3608
2026-01-20 05:49:37.10	306.49	39.12	-24.0	-24.3	18.1	0.00e+00	0	44	0	2373976064	8	3722
2026-01-20 05:49:40.11	305.13	39.15	-23.9	-23.9	18.3	0.00e+00	0	44	0	2395996160	8	3632
2026-01-20 05:49:43.12	303.76	39.15	-23.8	-23.9	18.4	0.00e+00	0	44	0	2416967680	8	3620
2026-01-20 05:49:46.13	302.39	39.14	-23.9	-24.1	18.2	0.00e+00	0	44	0	2438987776	8	3659
2026-01-20 05:49:49.13	301.03	39.11	-24.2	-24.7	17.9	0.00e+00	0	44	0	2461007872	8	3810
2026-01-20 05:49:52.13	299.67	39.06	-24.0	-24.2	18.2	0.00e+00	0	44	0	2481979392	8	3690
2026-01-20 05:49:55.13	298.32	38.99	-24.3	-24.8	17.9	0.00e+00	0	44	0	2503999488	8	3832
2026-01-20 05:49:58.14	296.97	38.90	-24.2	-24.6	18.0	0.00e+00	0	44	0	2526019584	8	3771
2026-01-20 05:50:01.14	295.63	38.80	-23.9	-24.0	18.3	0.00e+00	0	44	0	2548039680	8	3654
2026-01-20 05:50:04.15	294.30	38.68	-23.9	-24.1	18.2	0.00e+00	0	44	0	2569011200	8	3662
2026-01-20 05:50:07.16	292.97	38.54	-23.9	-24.0	18.3	0.00e+00	0	44	0	2591031296	8	3644
2026-01-20 05:50:10.17	291.66	38.38	-23.7	-23.6	18.5	0.00e+00	0	44	0	2613051392	8	3569
2026-01-20 05:50:13.17	290.37	38.21	-23.9	-24.0	18.3	0.00e+00	0	44	0	2634022912	8	3641
2026-01-20 05:50:16.18	289.08	38.03	-23.9	-24.0	18.3	0.00e+00	0	44	0	2656043008	8	3638
2026-01-20 05:50:19.19	287.81	37.82	-23.8	-23.9	18.3	0.00e+00	0	44	0	2678063104	8	3628
2026-01-20 05:50:22.21	286.56	37.61	-24.1	-24.4	18.0	0.00e+00	0	44	0	2700083200	8	3742
2026-01-20 05:50:25.20	285.33	37.38	-24.0	-24.1	18.2	0.00e+00	0	44	0	2721054720	8	3674
2026-01-20 05:50:28.21	284.11	37.14	-23.9	-24.0	18.3	0.00e+00	0	44	0	2743074816	8	3649
2026-01-20 05:50:31.22	282.91	36.88	-23.9	-24.0	18.2	0.00e+00	0	44	0	2765094912	8	3655
2026-01-20 05:50:34.23	281.73	36.61	-23.4	-23.5	18.7	0.00e+00	0	44	0	2786066432	7	3649
2026-01-20 05:50:37.23	280.57	36.33	-23.6	-23.8	18.5	0.00e+00	0	44	0	2808086528	7	3712
2026-01-20 05:50:40.24	279.43	36.04	-23.7	-24.1	18.4	0.00e+00	0	44	0	2830106624	7	3774
2026-01-20 05:50:43.24	278.32	35.74	-23.0	-22.7	19.1	0.00e+00	0	44	0	2851078144	7	3469
2026-01-20 05:50:46.24	277.22	35.43	-23.3	-23.3	18.8	0.00e+00	0	44	0	2873098240	7	3599
2026-01-20 05:50:49.25	276.14	35.12	-23.4	-23.6	18.6	0.00e+00	0	44	0	2895118336	7	3665
2026-01-20 05:50:52.26	275.08	34.79	-23.5	-23.7	18.6	0.00e+00	0	44	0	2916089856	7	3673
2026-01-20 05:50:55.26	274.05	34.46	-23.4	-23.5	18.7	0.00e+00	0	44	0	2938109952	7	3640
2026-01-20 05:50:58.27	273.04	34.12	-23.2	-23.0	18.9	0.00e+00	0	44	0	2960130048	7	3529
2026-01-20 05:51:01.28	272.04	33.77	-23.0	-22.6	19.1	0.00e+00	0	44	0	2981101568	7	3457
2026-01-20 05:51:04.29	271.07	33.42	-23.3	-23.3	18.8	0.00e+00	0	44	0	3003121664	7	3596
2026-01-20 05:51:07.28	270.12	33.06	-23.7	-24.1	18.3	0.00e+00	0	44	0	3025141760	7	3766
2026-01-20 05:51:10.28	269.20	32.70	-23.9	-24.6	18.0	0.00e+00	0	44	0	3046113280	7	3896
2026-01-20 05:51:13.28	268.29	32.34	-23.8	-23.9	18.2	0.00e+00	0	44	0	3068133376	8	3622
2026-01-20 05:51:16.28	267.40	31.97	-23.4	-23.4	18.6	0.00e+00	0	44	0	3090153472	7	3625
2026-01-20 05:51:19.29	266.53	31.60	-23.4	-23.5	18.6	0.00e+00	0	44	0	3111124992	7	3631
2026-01-20 05:51:22.29	265.69	31.22	-23.8	-24.4	18.1	0.00e+00	0	44	0	3133145088	7	3843
2026-01-20 05:51:25.30	264.86	30.84	-24.1	-24.6	17.8	0.00e+00	0	44	0	3155165184	8	3776
2026-01-20 05:51:28.31	264.05	30.47	-24.3	-24.9	17.6	0.00e+00	0	44	0	3177185280	8	3862
2026-01-20 05:51:31.32	263.25	30.09	-23.8	-23.7	18.2	0.00e+00	0	44	0	3198156800	8	3594
2026-01-20 05:51:34.33	262.48	29.70	-23.7	-23.7	18.2	0.00e+00	0	44	0	3220176896	8	3585
2026-01-20 05:51:37.34	261.73	29.32	-23.9	-24.0	18.1	0.00e+00	0	44	0	3242196992	8	3643
2026-01-20 05:51:40.34	260.99	28.94	-23.9	-24.1	18.0	0.00e+00	0	44	0	3264217088	8	3680
2026-01-20 05:51:43.35	260.27	28.56	-23.8	-23.9	18.1	0.00e+00	0	44	0	3285188608	8	3636
2026-01-20 05:51:46.36	259.57	28.18	-24.1	-24.5	17.8	0.00e+00	0	44	0	3307208704	8	3754
2026-01-20 05:51:49.38	258.88	27.79	-23.9	-24.0	18.0	0.00e+00	0	44	0	3329228800	8	3663
2026-01-20 05:51:52.39	258.21	27.41	-24.1	-24.6	17.6	0.00e+00	0	44	0	3350200320	8	3780
2026-01-20 05:51:55.40	257.56	27.03	-23.8	-23.7	18.1	0.00e+00	0	44	0	3372220416	8	3592
2026-01-20 05:51:58.41	256.92	26.66	-23.9	-24.0	18.0	0.00e+00	0	44	0	3394240512	8	3662
2026-01-20 05:52:01.42	256.30	26.28	-23.8	-23.8	18.1	0.00e+00	0	44	0	3415212032	8	3623
2026-01-20 05:52:04.43	255.69	25.90	-23.9	-24.2	17.9	0.00e+00	0	44	0	3437232128	8	3690
2026-01-20 05:52:07.43	255.09	25.53	-23.9	-24.2	17.9	0.00e+00	0	44	0	3459252224	8	3693
2026-01-20 05:52:10.43	254.52	25.16	-23.9	-24.0	17.9	0.00e+00	0	44	0	3480223744	8	3656
2026-01-20 05:52:13.45	253.95	24.79	-23.6	-23.5	18.2	0.00e+00	0	44	0	3502243840	8	3547
2026-01-20 05:52:16.46	253.39	24.42	-23.8	-23.8	18.0	0.00e+00	0	44	0	3524263936	8	3605
2026-01-20 05:52:19.47	252.85	24.06	-24.0	-24.3	17.8	0.00e+00	0	44	0	3546284032	8	3732
2026-01-20 05:52:22.47	252.33	23.70	-24.2	-24.8	17.5	0.00e+00	0	44	0	3567255552	8	3836
2026-01-20 05:52:25.47	251.81	23.34	-24.2	-24.7	17.5	0.00e+00	0	44	0	3589275648	8	3811
2026-01-20 05:52:28.48	251.31	22.98	-24.1	-24.5	17.7	0.00e+00	0	44	0	3611295744	8	3761
2026-01-20 05:52:31.48	250.82	22.62	-24.2	-24.8	17.4	0.00e+00	0	44	0	3632267264	8	3835
2026-01-20 05:52:34.49	250.34	22.27	-24.4	-25.1	17.3	0.00e+00	0	44	0	3654287360	8	3918
2026-01-20 05:52:37.50	249.87	21.92	-24.0	-24.3	17.7	0.00e+00	0	44	0	3676307456	8	3713
2026-01-20 05:52:40.51	249.41	21.57	-24.1	-24.4	17.6	0.00e+00	0	44	0	3698327552	8	3750
2026-01-20 05:52:43.51	248.96	21.23	-24.3	-24.9	17.4	0.00e+00	0	44	0	3719299072	8	3858
2026-01-20 05:52:46.53	248.52	20.89	-24.4	-25.2	17.2	0.00e+00	0	44	0	3741319168	8	3929
2026-01-20 05:52:49.55	248.09	20.55	-24.5	-25.3	17.1	0.00e+00	0	44	0	3763339264	8	3952
2026-01-20 05:52:52.56	247.67	20.21	-24.6	-25.1	17.0	0.00e+00	0	44	0	3785359360	9	3810
2026-01-20 05:52:55.56	247.26	19.88	-24.7	-25.2	16.9	0.00e+00	0	44	0	3806330880	9	3835
2026-01-20 05:52:58.56	246.86	19.55	-24.6	-25.0	17.0	0.00e+00	0	44	0	3828350976	9	3777
2026-01-20 05:53:01.55	246.47	19.23	-24.5	-24.8	17.1	0.00e+00	0	44	0	3850371072	9	3738
2026-01-20 05:53:04.56	246.08	18.90	-24.7	-25.3	16.7	0.00e+00	0	44	0	3871342592	9	3853
2026-01-20 05:53:07.58	245.70	18.58	-25.0	-25.5	16.4	0.00e+00	0	44	0	3893362688	10	3791
2026-01-20 05:53:10.58	245.33	18.26	-24.9	-25.3	16.6	0.00e+00	0	44	0	3915382784	10	3743
2026-01-20 05:53:13.58	244.97	17.95	-25.1	-25.5	16.4	0.00e+00	0	44	0	3936354304	10	3800
2026-01-20 05:53:16.58	244.62	17.64	-25.2	-25.9	16.2	0.00e+00	0	44	0	3958374400	10	3888
2026-01-20 05:53:19.59	244.28	17.32	-25.2	-25.9	16.1	0.00e+00	0	44	0	3980394496	10	3902
2026-01-20 05:53:22.61	243.94	17.02	-25.1	-25.7	16.3	0.00e+00	0	44	0	4001366016	10	3852
2026-01-20 05:53:25.61	243.60	16.71	-25.1	-25.7	16.2	0.00e+00	0	44	0	4023386112	10	3848
2026-01-20 05:53:28.62	243.28	16.41	-25.2	-25.9	16.1	0.00e+00	0	44	0	4045406208	10	3889
2026-01-20 05:53:31.63	242.96	16.11	-25.3	-26.0	16.0	0.00e+00	0	44	0	4066377728	10	3914
2026-01-20 05:53:34.62	242.65	15.82	-25.4	-26.2	15.9	0.00e+00	0	44	0	4088397824	10	3981
2026-01-20 05:53:37.62	242.35	15.53	-25.5	-26.6	15.7	0.00e+00	0	44	0	4110417920	10	4065
2026-01-20 05:53:40.63	242.05	15.23	-25.8	-26.6	15.4	0.00e+00	0	44	0	4131389440	11	3956
2026-01-20 05:53:43.63	241.75	14.95	-25.9	-26.8	15.3	0.00e+00	0	44	0	4153409536	11	4012
2026-01-20 05:53:46.63	241.46	14.66	-25.7	-26.4	15.5	0.00e+00	0	44	0	4175429632	11	3916
2026-01-20 05:53:49.64	241.18	14.38	-25.8	-26.8	15.3	0.00e+00	0	44	0	4197449728	11	4002
2026-01-20 05:53:52.64	240.91	14.10	-25.9	-27.0	15.2	0.00e+00	0	44	0	4218421248	11	4050
2026-01-20 05:53:55.65	240.63	13.82	-25.9	-26.9	15.1	0.00e+00	0	44	0	4240441344	11	4039
2026-01-20 05:53:58.66	240.37	13.55	-26.0	-27.2	15.0	0.00e+00	0	44	0	4262461440	11	4119
2026-01-20 05:54:01.66	240.11	13.27	-25.9	-26.3	15.1	0.00e+00	0	44	0	4283432960	12	3799
2026-01-20 05:54:04.66	239.85	13.01	-25.9	-26.4	15.0	0.00e+00	0	44	0	4305453056	12	3827
2026-01-20 05:54:07.67	239.60	12.74	-26.1	-26.8	14.8	0.00e+00	0	44	0	4327473152	12	3915
2026-01-20 05:54:10.68	239.35	12.47	-26.1	-26.9	14.8	0.00e+00	0	44	0	4348444672	12	3928
2026-01-20 05:54:13.70	239.11	12.21	-26.5	-27.7	14.2	1.10e-06	0	44	0	4370464768	12	4154
2026-01-20 05:54:16.71	238.87	11.95	-26.6	-27.5	14.1	0.00e+00	0	44	0	4392484864	13	3998
2026-01-20 05:54:19.71	238.63	11.69	-26.8	-28.0	13.8	1.10e-06	0	44	0	4414504960	13	4114
2026-01-20 05:54:22.73	238.40	11.43	-26.7	-27.7	14.0	4.50e-06	0	44	0	4435476480	13	4035
2026-01-20 05:54:25.74	238.18	11.18	-26.7	-27.7	14.0	1.10e-06	0	44	0	4457496576	13	4037
2026-01-20 05:54:28.75	237.95	10.92	-26.7	-27.7	13.9	1.10e-06	0	44	0	4479516672	13	4042
2026-01-20 05:54:31.76	237.74	10.67	-26.5	-27.1	14.2	0.00e+00	0	44	0	4501536768	13	3900
2026-01-20 05:54:34.78	237.52	10.43	-26.6	-27.5	14.0	2.20e-06	0	44	0	4522508288	13	4004
2026-01-20 05:54:37.78	237.31	10.18	-27.0	-28.3	13.5	6.80e-06	0	44	0	4544528384	13	4213
2026-01-20 05:54:40.79	237.10	9.94	-26.8	-27.9	13.7	3.40e-06	0	44	0	4565499904	13	4102
2026-01-20 05:54:43.80	236.90	9.70	-26.9	-28.1	13.6	4.50e-06	0	44	0	4587520000	13	4147
2026-01-20 05:54:46.80	236.70	9.46	-26.6	-27.5	14.0	0.00e+00	0	44	0	4609540096	13	3984
2026-01-20 05:54:49.82	236.50	9.22	-26.6	-27.6	13.8	4.50e-06	0	44	0	4631560192	13	4024
2026-01-20 05:54:52.82	236.31	8.98	-26.9	-28.2	13.5	3.40e-06	0	44	0	4652531712	13	4171
2026-01-20 05:54:55.82	236.12	8.75	-26.8	-28.0	13.6	9.10e-06	0	44	0	4674551808	13	4126
2026-01-20 05:54:58.83	235.94	8.52	-27.1	-28.6	13.2	1.25e-05	0	44	0	4696571904	13	4300
2026-01-20 05:55:01.83	235.75	8.29	-27.0	-27.9	13.3	1.37e-05	0	44	0	4717543424	14	4004
2026-01-20 05:55:04.85	235.57	8.06	-27.4	-28.9	12.7	4.69e-05	0	44	0	4739563520	14	4267
2026-01-20 05:55:07.86	235.39	7.83	-27.4	-28.9	12.7	7.55e-05	0	44	0	4761583616	14	4270
2026-01-20 05:55:10.87	235.22	7.61	-27.4	-28.8	12.7	5.49e-05	0	44	0	4783603712	14	4261
2026-01-20 05:55:13.86	235.05	7.39	-27.4	-28.9	12.7	8.58e-05	0	44	0	4804575232	14	4268
2026-01-20 05:55:16.88	234.88	7.16	-27.4	-28.8	12.7	6.98e-05	0	44	0	4826595328	14	4250

#Closed at: 2026-01-20 05:55:19
#Recorded file [4838 MB]: D:/data/31010_260120_084408.dat