passes_logs/2026/01/20/R2M6_AANII_01/R2M6_AANII_01__20260120_111438_SUOMI_NPP_rec.log

#Pass ID: 20260120_111438_SUOMI NPP
#Satellite: SUOMI NPP
#Configuration: NPP
#almurnet v.1.7.20240730
#Start time: 2026-01-20 11:14:37

#Version: 2.2.20231116
#Station: R2M6_AANII_01
#Location: 30.233357 lon 59.946436 lat
#TLE: 1 37849U 11061A   26019.61507914  .00000076  00000+0  57195-4 0  9994
#TLE: 2 37849  98.7817 321.6240 0002347  55.5899 304.5499 14.19526391737369

#Time	Az	El	Level	Level2	SNR	BER	BlckErr	Temp	State	Recorded	gain1	gain2
2026-01-20 11:14:37.97	186.99	6.97	-31.0	-33.4	5.4	1.21e+00	0	42	0	0	23	4746
2026-01-20 11:14:40.96	187.15	7.19	-31.6	-35.6	8.7	4.49e-02	0	42	0	1048576	23	5708
2026-01-20 11:14:43.98	187.31	7.41	-31.4	-34.9	9.2	1.79e-02	0	42	0	7340032	23	5356
2026-01-20 11:14:47.00	187.47	7.64	-30.9	-33.1	10.6	6.11e-03	0	42	0	12582912	23	4626
2026-01-20 11:14:50.01	187.64	7.87	-31.2	-34.0	9.9	6.72e-03	0	42	0	17825792	23	4976
2026-01-20 11:14:53.03	187.81	8.10	-31.2	-33.9	10.1	7.25e-03	0	42	0	24117248	23	4901
2026-01-20 11:14:56.03	187.98	8.33	-31.3	-34.1	10.0	1.01e-02	0	42	0	29360128	23	5003
2026-01-20 11:14:59.04	188.15	8.56	-31.3	-34.2	9.9	1.26e-02	0	43	0	35651584	23	5033
2026-01-20 11:15:02.05	188.33	8.80	-31.1	-33.6	10.5	4.27e-03	0	43	0	40894464	23	4775
2026-01-20 11:15:05.06	188.51	9.03	-31.0	-33.3	10.6	3.95e-03	0	43	0	46137344	23	4674
2026-01-20 11:15:08.08	188.69	9.27	-31.1	-33.4	10.5	3.56e-03	0	43	0	52428800	23	4728
2026-01-20 11:15:11.09	188.87	9.51	-31.0	-33.4	10.6	3.68e-03	0	43	0	57671680	23	4698
2026-01-20 11:15:14.10	189.06	9.76	-31.0	-33.2	10.7	3.41e-03	0	43	0	63963136	23	4616
2026-01-20 11:15:17.10	189.25	10.00	-31.0	-33.1	10.8	2.94e-03	0	43	0	69206016	23	4598
2026-01-20 11:15:20.12	189.44	10.25	-30.7	-32.8	11.4	1.37e-03	0	43	0	74448896	22	4565
2026-01-20 11:15:23.12	189.64	10.50	-30.8	-33.1	11.3	9.30e-04	0	43	0	80740352	22	4663
2026-01-20 11:15:26.13	189.84	10.75	-30.7	-32.5	11.7	5.74e-04	0	43	0	85983232	22	4427
2026-01-20 11:15:29.14	190.04	11.00	-30.9	-33.1	11.3	1.13e-03	0	43	0	91226112	22	4646
2026-01-20 11:15:32.14	190.24	11.26	-30.8	-32.7	11.6	6.53e-04	0	43	0	97517568	22	4507
2026-01-20 11:15:35.14	190.45	11.52	-30.8	-32.7	11.6	6.80e-04	0	43	0	102760448	22	4498
2026-01-20 11:15:38.16	190.67	11.78	-30.9	-33.1	11.3	6.42e-04	0	44	0	109051904	22	4645
2026-01-20 11:15:41.16	190.88	12.04	-30.3	-31.9	12.5	1.09e-04	0	43	0	114294784	21	4337
2026-01-20 11:15:44.16	191.10	12.31	-30.3	-32.0	12.5	1.35e-04	0	43	0	119537664	21	4346
2026-01-20 11:15:47.16	191.33	12.58	-30.3	-31.8	12.5	1.36e-04	0	44	0	125829120	21	4304
2026-01-20 11:15:50.16	191.55	12.85	-30.1	-31.4	12.8	5.11e-05	0	43	0	131072000	21	4189
2026-01-20 11:15:53.16	191.78	13.12	-30.5	-32.5	12.0	2.68e-04	0	44	0	136314880	21	4552
2026-01-20 11:15:56.15	192.02	13.39	-30.0	-31.0	12.9	3.05e-05	0	44	0	142606336	21	4068
2026-01-20 11:15:59.16	192.26	13.67	-30.0	-31.0	13.1	1.83e-05	0	44	0	147849216	21	4033
2026-01-20 11:16:02.16	192.50	13.96	-29.9	-30.6	13.4	9.10e-06	0	43	0	153092096	21	3932
2026-01-20 11:16:05.17	192.75	14.24	-29.8	-31.0	13.5	8.30e-06	0	44	0	159383552	20	4126
2026-01-20 11:16:08.17	193.01	14.53	-29.9	-31.1	13.4	1.14e-05	0	43	0	164626432	20	4158
2026-01-20 11:16:11.18	193.27	14.82	-29.8	-30.9	13.6	9.90e-06	0	44	0	170917888	20	4088
2026-01-20 11:16:14.19	193.53	15.11	-29.7	-30.5	13.9	7.60e-06	0	44	0	176160768	20	3973
2026-01-20 11:16:17.20	193.80	15.41	-29.8	-30.9	13.7	4.50e-06	0	43	0	181403648	20	4090
2026-01-20 11:16:20.20	194.07	15.71	-29.8	-30.9	13.8	4.50e-06	0	44	0	187695104	20	4079
2026-01-20 11:16:23.21	194.35	16.01	-29.6	-30.4	14.1	1.50e-06	0	44	0	192937984	20	3942
2026-01-20 11:16:26.22	194.64	16.32	-29.7	-30.5	14.0	1.50e-06	0	44	0	199229440	20	3968
2026-01-20 11:16:29.23	194.93	16.63	-29.8	-30.9	13.9	3.00e-06	0	44	0	204472320	20	4078
2026-01-20 11:16:32.23	195.22	16.94	-30.0	-31.2	13.7	3.80e-06	0	44	0	209715200	20	4150
2026-01-20 11:16:35.24	195.53	17.26	-30.0	-31.3	13.7	6.80e-06	0	44	0	216006656	20	4174
2026-01-20 11:16:38.25	195.83	17.58	-30.1	-31.5	13.4	1.52e-05	0	44	0	221249536	20	4257
2026-01-20 11:16:41.25	196.15	17.90	-30.1	-31.7	13.3	1.37e-05	0	44	0	226492416	20	4297
2026-01-20 11:16:44.25	196.47	18.23	-30.1	-31.6	13.4	2.21e-05	0	44	0	232783872	20	4282
2026-01-20 11:16:47.26	196.80	18.56	-30.4	-32.4	12.9	3.28e-05	0	44	0	238026752	20	4541
2026-01-20 11:16:50.28	197.13	18.89	-30.5	-32.1	12.8	6.17e-05	0	44	0	244318208	21	4351
2026-01-20 11:16:53.28	197.48	19.23	-30.5	-32.1	12.8	5.87e-05	0	44	0	249561088	21	4346
2026-01-20 11:16:56.27	197.82	19.57	-30.6	-32.4	12.7	4.80e-05	0	44	0	254803968	21	4427
2026-01-20 11:16:59.27	198.18	19.91	-30.4	-31.9	13.0	3.73e-05	0	44	0	261095424	21	4277
2026-01-20 11:17:02.28	198.55	20.26	-30.6	-32.4	12.7	8.23e-05	0	44	0	266338304	21	4433
2026-01-20 11:17:05.29	198.92	20.61	-30.8	-32.9	12.4	1.48e-04	0	44	0	271581184	21	4589
2026-01-20 11:17:08.30	199.30	20.97	-30.6	-32.5	12.7	8.54e-05	0	44	0	277872640	21	4443
2026-01-20 11:17:11.31	199.69	21.33	-30.5	-32.0	13.0	3.05e-05	0	44	0	283115520	21	4295
2026-01-20 11:17:14.31	200.09	21.69	-30.2	-31.4	13.4	1.14e-05	0	44	0	289406976	21	4106
2026-01-20 11:17:17.32	200.50	22.06	-30.1	-31.1	13.7	6.10e-06	0	44	0	294649856	21	4033
2026-01-20 11:17:20.33	200.92	22.43	-30.5	-32.0	13.1	1.14e-05	0	44	0	299892736	21	4305
2026-01-20 11:17:23.34	201.35	22.80	-30.5	-32.1	13.0	4.27e-05	0	44	0	306184192	21	4312
2026-01-20 11:17:26.36	201.79	23.18	-30.5	-32.0	13.1	2.51e-05	0	44	0	311427072	21	4285
2026-01-20 11:17:29.37	202.23	23.57	-30.4	-31.8	13.3	9.10e-06	0	44	0	317718528	21	4217
2026-01-20 11:17:32.38	202.69	23.95	-30.3	-31.6	13.4	9.90e-06	0	44	0	322961408	21	4180
2026-01-20 11:17:35.38	203.16	24.34	-30.4	-31.9	13.2	1.29e-05	0	44	0	328204288	21	4251
2026-01-20 11:17:38.39	203.65	24.74	-30.3	-31.4	13.6	1.06e-05	0	44	0	334495744	21	4101
2026-01-20 11:17:41.40	204.14	25.14	-30.4	-31.8	13.3	2.21e-05	0	44	0	339738624	21	4214
2026-01-20 11:17:44.41	204.65	25.54	-30.2	-31.2	13.7	2.05e-05	0	44	0	344981504	21	4059
2026-01-20 11:17:47.42	205.17	25.95	-29.9	-30.5	14.2	3.00e-06	0	44	0	351272960	21	3845
2026-01-20 11:17:50.42	205.70	26.36	-30.3	-31.5	13.6	7.00e-07	0	44	0	356515840	21	4130
2026-01-20 11:17:53.43	206.24	26.77	-30.4	-31.7	13.4	1.37e-05	0	44	0	362807296	21	4191
2026-01-20 11:17:56.45	206.81	27.19	-30.1	-31.0	13.8	3.80e-06	0	44	0	368050176	21	3992
2026-01-20 11:17:59.45	207.38	27.61	-30.2	-31.1	13.8	5.30e-06	0	44	0	373293056	21	4029
2026-01-20 11:18:02.45	207.97	28.03	-30.6	-32.4	13.0	2.82e-05	0	44	0	379584512	21	4398
2026-01-20 11:18:05.46	208.57	28.46	-31.2	-33.5	11.9	3.89e-04	0	44	0	384827392	22	4701
2026-01-20 11:18:08.47	209.20	28.89	-31.7	-34.4	10.9	2.06e-03	0	44	0	390070272	23	4956
2026-01-20 11:18:11.48	209.83	29.32	-31.4	-33.7	11.5	1.36e-03	0	44	0	396361728	23	4671
2026-01-20 11:18:14.49	210.49	29.76	-31.7	-34.4	11.0	6.51e-04	0	44	0	401604608	23	4919
2026-01-20 11:18:17.49	211.16	30.20	-31.6	-34.0	11.2	1.46e-03	0	44	0	407896064	23	4774
2026-01-20 11:18:20.50	211.85	30.64	-31.5	-33.7	11.6	1.15e-03	0	44	0	413138944	23	4657
2026-01-20 11:18:23.51	212.56	31.08	-31.1	-32.7	12.3	3.40e-04	0	44	0	418381824	23	4299
2026-01-20 11:18:26.52	213.29	31.53	-31.4	-33.6	11.7	4.36e-04	0	44	0	424673280	23	4612
2026-01-20 11:18:29.52	214.04	31.97	-32.0	-34.8	10.4	4.02e-03	0	44	0	429916160	24	4978
2026-01-20 11:18:32.53	214.81	32.42	-31.7	-34.0	11.0	1.51e-03	0	44	0	435159040	24	4672
2026-01-20 11:18:35.53	215.59	32.87	-31.6	-33.5	11.3	1.92e-03	0	44	0	441450496	24	4503
2026-01-20 11:18:38.54	216.41	33.32	-31.4	-33.4	11.9	4.36e-04	0	44	0	446693376	23	4536
2026-01-20 11:18:41.55	217.24	33.77	-31.5	-33.7	11.6	5.21e-04	0	44	0	452984832	23	4658
2026-01-20 11:18:44.56	218.10	34.22	-32.2	-35.4	9.9	9.82e-03	0	44	0	458227712	24	5251
2026-01-20 11:18:47.58	218.98	34.67	-31.2	-32.8	12.3	3.61e-04	0	44	0	463470592	23	4347
2026-01-20 11:18:50.58	219.89	35.12	-31.4	-33.3	11.9	3.32e-04	0	44	0	469762048	23	4519
2026-01-20 11:18:53.60	220.82	35.57	-31.7	-34.5	11.2	1.41e-03	0	44	0	475004928	23	4934
2026-01-20 11:18:56.60	221.77	36.01	-30.8	-31.7	13.0	1.14e-04	0	44	0	480247808	23	3984
2026-01-20 11:18:59.61	222.75	36.45	-31.0	-32.8	12.6	7.47e-05	0	44	0	486539264	22	4426
2026-01-20 11:19:02.63	223.76	36.89	-31.2	-33.2	12.4	2.30e-04	0	44	0	491782144	22	4570
2026-01-20 11:19:05.63	224.80	37.32	-31.2	-33.4	12.3	3.18e-04	0	44	0	498073600	22	4642
2026-01-20 11:19:08.63	225.85	37.75	-30.9	-32.4	12.9	8.46e-05	0	44	0	503316480	22	4290
2026-01-20 11:19:11.63	226.94	38.17	-31.9	-35.0	10.8	1.08e-03	0	45	0	508559360	23	5153
2026-01-20 11:19:14.64	228.06	38.59	-31.8	-34.4	10.8	4.06e-03	0	44	0	514850816	24	4814
2026-01-20 11:19:17.65	229.20	39.00	-31.7	-34.0	11.1	1.27e-03	0	44	0	520093696	24	4683
2026-01-20 11:19:20.66	230.38	39.40	-31.6	-33.7	11.3	1.48e-03	0	44	0	525336576	24	4553
2026-01-20 11:19:23.67	231.58	39.79	-31.4	-33.0	11.8	7.67e-04	0	44	0	531628032	24	4326
2026-01-20 11:19:26.67	232.81	40.17	-31.3	-33.1	12.1	1.59e-04	0	44	0	536870912	23	4418
2026-01-20 11:19:29.67	234.06	40.54	-31.1	-32.4	12.6	3.40e-04	0	44	0	543162368	23	4202
2026-01-20 11:19:32.68	235.35	40.90	-30.8	-32.1	13.2	1.83e-05	0	44	0	548405248	22	4195
2026-01-20 11:19:35.68	236.66	41.25	-31.0	-32.8	12.8	4.73e-05	0	44	0	553648128	22	4411
2026-01-20 11:19:38.70	238.01	41.58	-30.6	-31.6	13.5	2.05e-05	0	44	0	559939584	22	4051
2026-01-20 11:19:41.70	239.38	41.90	-30.2	-31.0	14.2	1.50e-06	0	44	0	565182464	21	3954
2026-01-20 11:19:44.72	240.78	42.21	-31.2	-33.2	12.5	1.43e-04	0	44	0	571473920	22	4524
2026-01-20 11:19:47.75	242.21	42.49	-31.0	-32.6	12.9	3.66e-05	0	44	0	576716800	22	4355
2026-01-20 11:19:50.76	243.66	42.76	-31.1	-33.0	12.6	7.55e-05	0	44	0	581959680	22	4477
2026-01-20 11:19:53.77	245.13	43.01	-30.7	-31.7	13.4	9.90e-06	0	45	0	588251136	22	4056
2026-01-20 11:19:56.77	246.61	43.24	-31.5	-33.7	11.9	1.50e-04	0	44	0	593494016	23	4621
2026-01-20 11:19:59.76	248.11	43.45	-30.8	-31.6	13.3	8.92e-05	0	44	0	598736896	23	3935
2026-01-20 11:20:02.77	249.65	43.64	-30.3	-31.3	14.1	3.00e-06	0	45	0	605028352	21	4022
2026-01-20 11:20:05.78	251.19	43.81	-30.8	-32.5	13.3	3.80e-06	0	44	0	610271232	21	4408
2026-01-20 11:20:08.80	252.76	43.95	-30.2	-31.1	14.2	1.50e-06	0	44	0	616562688	21	3969
2026-01-20 11:20:11.79	254.32	44.07	-30.8	-32.6	13.2	1.22e-05	0	44	0	621805568	21	4410
2026-01-20 11:20:14.79	255.91	44.17	-30.9	-32.8	13.1	2.51e-05	0	44	0	627048448	21	4492
2026-01-20 11:20:17.80	257.50	44.25	-30.4	-31.4	14.1	3.00e-06	0	44	0	633339904	21	4051
2026-01-20 11:20:20.80	259.09	44.30	-31.5	-33.9	12.1	1.17e-04	0	44	0	638582784	22	4757
2026-01-20 11:20:23.81	260.70	44.33	-30.4	-31.0	14.0	1.29e-05	0	44	0	643825664	22	3859
2026-01-20 11:20:26.81	262.30	44.33	-30.3	-31.2	14.1	1.50e-06	0	44	0	650117120	21	3983
2026-01-20 11:20:29.82	263.90	44.31	-30.8	-32.6	13.3	2.20e-06	0	45	0	655360000	21	4408
2026-01-20 11:20:32.82	265.50	44.26	-30.9	-32.2	13.3	3.05e-05	0	44	0	661651456	22	4210
2026-01-20 11:20:35.84	267.10	44.19	-31.2	-33.2	12.6	4.73e-05	0	44	0	666894336	22	4530
2026-01-20 11:20:38.86	268.69	44.10	-30.3	-30.8	14.1	3.00e-06	0	44	0	672137216	22	3789
2026-01-20 11:20:41.86	270.26	43.98	-31.4	-33.6	12.4	1.13e-04	0	44	0	678428672	22	4670
2026-01-20 11:20:44.87	271.83	43.84	-30.9	-32.8	13.1	1.52e-05	0	44	0	683671552	21	4492
2026-01-20 11:20:47.88	273.38	43.68	-31.7	-33.7	11.7	1.62e-03	0	44	0	688914432	24	4501
2026-01-20 11:20:50.89	274.91	43.49	-32.8	-37.0	8.8	9.26e-03	0	44	0	695205888	25	5815
2026-01-20 11:20:53.91	276.43	43.29	-32.2	-34.7	10.5	5.85e-03	0	44	0	700448768	25	4790
2026-01-20 11:20:56.91	277.91	43.06	-32.5	-35.7	9.8	1.18e-02	0	44	0	706740224	25	5207
2026-01-20 11:20:59.92	279.39	42.82	-32.9	-37.1	8.8	8.66e-03	0	44	0	711983104	25	5853
2026-01-20 11:21:02.92	280.83	42.55	-33.7	-40.0	5.9	3.64e-01	0	44	0	717225984	27	7462
2026-01-20 11:21:05.93	282.25	42.27	-32.8	-36.2	9.1	2.67e-02	0	44	0	723517440	26	5327
2026-01-20 11:21:08.93	283.65	41.97	-32.5	-35.0	10.0	8.16e-03	0	44	0	728760320	26	4834
2026-01-20 11:21:11.94	285.02	41.66	-31.8	-33.5	11.4	1.43e-03	0	44	0	734003200	25	4338
2026-01-20 11:21:14.95	286.37	41.33	-32.2	-35.3	10.5	3.65e-03	0	45	0	740294656	24	5105
2026-01-20 11:21:17.95	287.68	40.99	-30.9	-31.8	13.3	2.05e-05	0	45	0	745537536	23	3995
2026-01-20 11:21:20.95	288.97	40.64	-32.0	-34.5	11.0	3.08e-03	0	44	0	751828992	24	4778
2026-01-20 11:21:23.96	290.23	40.27	-31.0	-32.0	13.1	2.89e-05	0	44	0	757071872	23	4049
2026-01-20 11:21:26.96	291.46	39.89	-31.0	-32.0	13.2	2.21e-05	0	44	0	762314752	23	4045
2026-01-20 11:21:29.96	292.66	39.50	-30.8	-31.9	13.4	1.37e-05	0	45	0	768606208	22	4102
2026-01-20 11:21:32.97	293.84	39.11	-31.4	-33.6	12.4	1.22e-04	0	44	0	773849088	22	4654
2026-01-20 11:21:35.98	294.99	38.70	-29.7	-30.3	15.1	0.00e+00	0	45	0	779091968	20	3830
2026-01-20 11:21:38.99	296.11	38.29	-30.8	-32.5	13.5	2.20e-06	0	44	0	785383424	21	4374
2026-01-20 11:21:41.98	297.20	37.87	-29.0	-29.0	16.2	0.00e+00	0	45	0	790626304	19	3587
2026-01-20 11:21:44.99	298.26	37.45	-29.0	-29.1	16.1	0.00e+00	0	45	0	796917760	19	3602
2026-01-20 11:21:48.01	299.30	37.01	-29.4	-30.0	15.6	0.00e+00	0	44	0	802160640	19	3846
2026-01-20 11:21:51.01	300.31	36.58	-29.1	-29.1	16.1	0.00e+00	0	44	0	807403520	19	3625
2026-01-20 11:21:53.99	301.29	36.15	-29.2	-29.4	16.0	0.00e+00	0	45	0	813694976	19	3678
2026-01-20 11:21:56.99	302.24	35.71	-30.1	-31.3	14.5	0.00e+00	0	45	0	818937856	20	4111
2026-01-20 11:22:00.00	303.18	35.26	-29.6	-30.0	15.3	0.00e+00	0	44	0	824180736	20	3751
2026-01-20 11:22:03.02	304.09	34.82	-30.5	-31.2	13.8	2.97e-05	0	44	0	830472192	22	3898
2026-01-20 11:22:06.02	304.97	34.37	-29.9	-30.6	14.9	0.00e+00	0	45	0	835715072	20	3909
2026-01-20 11:22:09.02	305.83	33.93	-31.2	-33.2	12.6	9.99e-05	0	44	0	842006528	22	4539
2026-01-20 11:22:12.03	306.67	33.48	-30.7	-31.8	13.5	9.10e-06	0	44	0	847249408	22	4076
2026-01-20 11:22:15.02	307.48	33.03	-31.8	-34.5	11.5	2.24e-04	0	44	0	852492288	23	4897
2026-01-20 11:22:18.03	308.27	32.59	-31.6	-33.3	11.7	1.47e-03	0	44	0	858783744	24	4369
2026-01-20 11:22:21.04	309.04	32.14	-30.5	-31.7	13.9	7.00e-07	0	44	0	864026624	21	4124
2026-01-20 11:22:24.04	309.79	31.70	-32.5	-36.0	9.5	3.28e-03	0	44	0	869269504	25	5345
2026-01-20 11:22:27.05	310.52	31.25	-31.1	-32.3	12.9	2.55e-04	0	44	0	875560960	23	4143
2026-01-20 11:22:30.06	311.24	30.81	-31.3	-33.5	12.4	4.04e-05	0	45	0	880803840	22	4634
2026-01-20 11:22:33.07	311.93	30.37	-32.1	-34.9	10.6	3.59e-03	0	44	0	887095296	24	4980
2026-01-20 11:22:36.08	312.61	29.94	-30.9	-31.8	13.2	7.70e-05	0	44	0	892338176	23	3988
2026-01-20 11:22:39.10	313.27	29.50	-30.9	-32.4	13.2	8.30e-06	0	45	0	897581056	22	4245
2026-01-20 11:22:42.10	313.91	29.07	-32.4	-36.0	9.7	1.06e-02	0	45	0	903872512	24	5462
2026-01-20 11:22:45.10	314.53	28.64	-30.8	-31.6	13.2	8.39e-05	0	44	0	909115392	23	3941
2026-01-20 11:22:48.11	315.14	28.22	-29.8	-30.5	14.9	0.00e+00	0	44	0	914358272	20	3897
2026-01-20 11:22:51.12	315.73	27.79	-31.1	-33.0	12.7	3.35e-05	0	44	0	920649728	22	4465
2026-01-20 11:22:54.13	316.31	27.38	-31.1	-32.5	12.5	1.49e-04	0	45	0	925892608	23	4235
2026-01-20 11:22:57.15	316.87	26.96	-30.4	-31.1	13.8	1.50e-06	0	45	0	932184064	22	3897
2026-01-20 11:23:00.16	317.42	26.55	-30.8	-32.1	13.2	1.29e-05	0	44	0	937426944	22	4168
2026-01-20 11:23:03.17	317.96	26.14	-30.8	-32.2	13.1	2.36e-05	0	45	0	942669824	22	4209
2026-01-20 11:23:06.19	318.48	25.73	-30.2	-30.9	14.1	4.50e-06	0	44	0	948961280	21	3931
2026-01-20 11:23:09.19	318.99	25.33	-29.7	-30.2	15.0	7.00e-07	0	45	0	954204160	20	3829
2026-01-20 11:23:12.20	319.49	24.94	-29.9	-30.7	14.5	0.00e+00	0	45	0	959447040	20	3956
2026-01-20 11:23:15.20	319.97	24.54	-30.3	-31.8	13.9	3.80e-06	0	45	0	965738496	20	4276
2026-01-20 11:23:18.20	320.44	24.16	-30.7	-32.4	13.1	1.83e-05	0	45	0	970981376	21	4377
2026-01-20 11:23:21.22	320.91	23.77	-30.6	-32.1	13.4	3.66e-05	0	45	0	977272832	21	4275
2026-01-20 11:23:24.24	321.36	23.39	-29.8	-30.1	14.6	7.00e-07	0	44	0	982515712	21	3711
2026-01-20 11:23:27.25	321.80	23.01	-30.0	-30.9	14.4	0.00e+00	0	44	0	987758592	20	4027
2026-01-20 11:23:30.26	322.23	22.63	-30.6	-32.2	13.2	1.06e-05	0	44	0	994050048	21	4333
2026-01-20 11:23:33.26	322.65	22.27	-30.9	-32.5	12.6	1.15e-04	0	45	0	999292928	22	4339
2026-01-20 11:23:36.27	323.06	21.90	-31.0	-32.7	12.6	9.23e-05	0	44	0	1005584384	22	4395
2026-01-20 11:23:39.27	323.47	21.54	-30.7	-31.9	13.2	3.43e-05	0	44	0	1010827264	22	4143
2026-01-20 11:23:42.28	323.86	21.18	-30.8	-32.1	13.0	2.44e-05	0	44	0	1016070144	22	4195
2026-01-20 11:23:45.30	324.24	20.82	-30.9	-32.4	12.8	4.11e-05	0	44	0	1022361600	22	4291
2026-01-20 11:23:48.31	324.62	20.47	-31.2	-33.3	12.1	1.93e-04	0	44	0	1027604480	22	4606
2026-01-20 11:23:51.32	324.99	20.13	-30.9	-32.5	12.5	1.37e-04	0	44	0	1032847360	22	4318
2026-01-20 11:23:54.32	325.35	19.78	-30.4	-31.3	13.4	1.52e-05	0	44	0	1039138816	22	3960
2026-01-20 11:23:57.34	325.70	19.44	-30.0	-30.7	14.1	2.20e-06	0	44	0	1044381696	21	3873
2026-01-20 11:24:00.36	326.05	19.10	-30.2	-31.2	13.8	2.20e-06	0	45	0	1050673152	21	4034
2026-01-20 11:24:03.38	326.39	18.77	-30.6	-32.2	13.2	2.59e-05	0	44	0	1055916032	21	4325
2026-01-20 11:24:06.37	326.72	18.44	-31.2	-33.3	12.1	2.35e-04	0	44	0	1061158912	22	4603
2026-01-20 11:24:09.37	327.04	18.12	-31.2	-33.4	12.1	4.45e-04	0	45	0	1067450368	22	4645
2026-01-20 11:24:12.38	327.36	17.80	-30.8	-32.2	12.8	8.92e-05	0	44	0	1072693248	22	4242
2026-01-20 11:24:15.38	327.67	17.48	-30.4	-31.3	13.3	2.13e-05	0	44	0	1077936128	22	3965
2026-01-20 11:24:18.40	327.97	17.16	-30.3	-31.0	13.5	3.05e-05	0	44	0	1084227584	22	3880
2026-01-20 11:24:21.41	328.27	16.85	-30.7	-32.6	12.8	7.01e-05	0	44	0	1089470464	21	4479
2026-01-20 11:24:24.42	328.57	16.54	-31.1	-33.3	12.0	3.73e-04	0	45	0	1095761920	22	4614
2026-01-20 11:24:27.42	328.85	16.24	-31.5	-33.8	11.3	7.26e-04	0	44	0	1101004800	23	4712
2026-01-20 11:24:30.44	329.13	15.93	-31.4	-33.7	11.3	1.09e-03	0	45	0	1106247680	23	4670
2026-01-20 11:24:33.45	329.41	15.63	-31.2	-33.1	11.8	6.15e-04	0	44	0	1112539136	23	4464
2026-01-20 11:24:36.46	329.68	15.34	-31.2	-32.9	11.8	4.44e-04	0	44	0	1117782016	23	4405
2026-01-20 11:24:39.45	329.95	15.05	-31.3	-33.5	11.4	7.22e-04	0	44	0	1123024896	23	4598
2026-01-20 11:24:42.45	330.21	14.76	-31.5	-33.8	11.1	1.01e-03	0	45	0	1129316352	23	4739
2026-01-20 11:24:45.45	330.46	14.47	-31.6	-34.2	10.8	2.17e-03	0	44	0	1134559232	23	4886
2026-01-20 11:24:48.46	330.72	14.19	-31.7	-34.6	10.5	3.49e-03	0	44	0	1140850688	23	5042
2026-01-20 11:24:51.47	330.96	13.91	-31.5	-34.1	10.8	2.08e-03	0	44	0	1146093568	23	4837
2026-01-20 11:24:54.48	331.21	13.63	-31.2	-33.2	11.5	1.06e-03	0	44	0	1151336448	23	4519
2026-01-20 11:24:57.50	331.45	13.35	-30.9	-32.2	12.2	3.63e-04	0	45	0	1157627904	23	4185
2026-01-20 11:25:00.50	331.68	13.08	-30.8	-32.5	12.3	1.53e-04	0	45	0	1162870784	22	4384
2026-01-20 11:25:03.52	331.91	12.81	-30.8	-32.3	12.4	1.53e-04	0	45	0	1169162240	22	4326
2026-01-20 11:25:06.53	332.14	12.54	-31.0	-33.0	11.9	2.01e-04	0	45	0	1174405120	22	4552
2026-01-20 11:25:09.55	332.36	12.27	-30.9	-32.9	11.9	4.79e-04	0	44	0	1179648000	22	4521
2026-01-20 11:25:12.56	332.58	12.01	-30.7	-32.2	12.4	1.15e-04	0	44	0	1185939456	22	4280
2026-01-20 11:25:15.57	332.80	11.75	-30.9	-32.9	12.0	3.13e-04	0	44	0	1191182336	22	4510
2026-01-20 11:25:18.58	333.01	11.49	-31.0	-33.1	11.8	4.17e-04	0	44	0	1196425216	22	4585
2026-01-20 11:25:21.59	333.22	11.23	-31.1	-33.3	11.6	6.84e-04	0	44	0	1202716672	22	4680
2026-01-20 11:25:24.61	333.43	10.98	-31.2	-33.9	11.2	1.88e-03	0	44	0	1207959552	22	4878
2026-01-20 11:25:27.61	333.63	10.73	-31.5	-34.1	10.6	2.85e-03	0	44	0	1214251008	23	4894
2026-01-20 11:25:30.62	333.83	10.48	-31.7	-34.8	10.0	6.53e-03	0	44	0	1219493888	23	5190
2026-01-20 11:25:33.63	334.02	10.23	-31.6	-34.6	10.3	6.37e-03	0	44	0	1224736768	23	5080
2026-01-20 11:25:36.63	334.22	9.99	-31.5	-34.3	10.3	6.66e-03	0	45	0	1231028224	23	4988
2026-01-20 11:25:39.64	334.41	9.75	-31.6	-34.5	10.2	6.20e-03	0	44	0	1236271104	23	5062
2026-01-20 11:25:42.65	334.59	9.51	-31.5	-34.4	10.2	6.92e-03	0	45	0	1241513984	23	5038
2026-01-20 11:25:45.66	334.78	9.27	-31.5	-34.3	10.3	4.71e-03	0	44	0	1247805440	23	4985
2026-01-20 11:25:48.66	334.96	9.04	-31.5	-34.6	10.1	7.40e-03	0	44	0	1253048320	23	5114
2026-01-20 11:25:51.66	335.14	8.80	-31.6	-34.8	9.9	9.93e-03	0	44	0	1259339776	23	5204
2026-01-20 11:25:54.67	335.31	8.57	-31.8	-35.5	9.3	1.76e-02	0	44	0	1264582656	23	5555
2026-01-20 11:25:57.69	335.49	8.34	-31.8	-35.8	9.1	2.01e-02	0	45	0	1269825536	23	5681
2026-01-20 11:26:00.70	335.66	8.11	-31.7	-35.3	9.4	1.83e-02	0	45	0	1276116992	23	5470
2026-01-20 11:26:03.71	335.83	7.88	-31.9	-35.9	8.9	2.33e-02	0	45	0	1281359872	23	5757
2026-01-20 11:26:06.72	335.99	7.66	-32.0	-36.0	8.4	4.07e-02	0	44	0	1287651328	24	5728
2026-01-20 11:26:09.72	336.16	7.44	-32.0	-36.1	8.3	5.04e-02	0	44	0	1292894208	24	5772
2026-01-20 11:26:12.74	336.32	7.22	-32.0	-36.1	8.2	5.85e-02	0	45	0	1298137088	24	5771
2026-01-20 11:26:15.76	336.48	7.00	-33.8	-46.2	3.8	1.49e+00	0	45	104	1302331392	27	15168

#Closed at: 2026-01-20 11:26:18
#Recorded file [1302 MB]: D:/data/31010_260120_141439.dat