passes_logs/2026/01/20/R2M6_AANII_01/R2M6_AANII_01__20260120_000146_NOAA_20_JPSS-1_rec.log

#Pass ID: 20260120_000146_NOAA 20 (JPSS-1)
#Satellite: NOAA 20 (JPSS-1)
#Configuration: NOAA 20
#almurnet v.1.7.20240730
#Start time: 2026-01-20 00:01:46

#Version: 2.2.20231116
#Station: R2M6_AANII_01
#Location: 30.233357 lon 59.946436 lat
#TLE: 1 43013U 17073A   26019.27717929  .00000087  00000+0  62288-4 0  9995
#TLE: 2 43013  98.7641 320.1715 0001339  33.1986 326.9274 14.19537047423343

#Time	Az	El	Level	Level2	SNR	BER	BlckErr	Temp	State	Recorded	gain1	gain2
2026-01-20 00:01:46.32	19.85	6.97	-31.4	-37.5	5.1	1.26e+00	0	42	0	0	22	7254
2026-01-20 00:01:49.32	19.91	7.20	-31.6	-37.6	8.0	6.47e-02	0	42	0	1048576	23	7232
2026-01-20 00:01:52.33	19.98	7.43	-30.7	-36.7	8.2	6.58e-02	0	42	0	7340032	23	7182
2026-01-20 00:01:55.34	20.05	7.67	-31.7	-38.1	7.6	5.74e-02	0	42	0	12582912	23	7526
2026-01-20 00:01:58.35	20.11	7.90	-31.4	-37.0	8.9	4.48e-02	0	42	0	17825792	22	6906
2026-01-20 00:02:01.35	20.18	8.14	-30.9	-35.8	10.3	7.81e-03	0	42	0	24117248	21	6326
2026-01-20 00:02:04.35	20.25	8.38	-30.6	-34.7	11.2	1.67e-03	0	42	0	29360128	21	5776
2026-01-20 00:02:07.36	20.32	8.62	-30.6	-34.9	11.1	1.18e-03	0	43	0	35651584	21	5871
2026-01-20 00:02:10.37	20.39	8.87	-30.4	-34.6	11.6	2.62e-03	0	43	0	40894464	20	5865
2026-01-20 00:02:13.39	20.46	9.12	-30.5	-34.8	11.5	2.78e-03	0	43	0	46137344	20	5936
2026-01-20 00:02:16.39	20.53	9.36	-30.4	-34.5	11.8	2.46e-03	0	43	0	52428800	20	5781
2026-01-20 00:02:19.39	20.60	9.62	-30.5	-34.5	11.5	6.68e-04	0	43	0	57671680	21	5663
2026-01-20 00:02:22.38	20.68	9.87	-30.8	-35.4	10.8	2.09e-03	0	43	0	62914560	21	6096
2026-01-20 00:02:25.38	20.75	10.13	-30.5	-34.7	11.7	7.49e-04	0	43	0	69206016	20	5878
2026-01-20 00:02:28.39	20.83	10.39	-30.5	-34.4	11.6	2.72e-03	0	43	0	74448896	21	5607
2026-01-20 00:02:31.39	20.91	10.65	-30.3	-34.2	12.1	2.44e-03	0	43	0	80740352	20	5656
2026-01-20 00:02:34.40	20.99	10.92	-30.2	-33.8	12.5	2.38e-03	0	43	0	85983232	20	5444
2026-01-20 00:02:37.41	21.07	11.18	-30.3	-34.2	12.2	2.47e-03	0	43	0	91226112	20	5638
2026-01-20 00:02:40.42	21.15	11.46	-30.0	-33.4	12.8	2.07e-03	0	43	0	97517568	20	5266
2026-01-20 00:02:43.43	21.23	11.73	-30.0	-33.1	13.0	2.32e-03	0	43	0	102760448	20	5166
2026-01-20 00:02:46.43	21.31	12.01	-30.0	-33.3	12.9	2.28e-03	0	43	0	108003328	20	5247
2026-01-20 00:02:49.45	21.40	12.29	-30.3	-33.9	12.5	2.06e-03	0	43	0	114294784	20	5489
2026-01-20 00:02:52.46	21.49	12.57	-30.3	-34.1	12.4	2.53e-03	0	44	0	119537664	20	5559
2026-01-20 00:02:55.46	21.57	12.86	-30.3	-34.0	12.5	2.44e-03	0	44	0	125829120	20	5530
2026-01-20 00:02:58.48	21.66	13.15	-30.2	-33.7	12.7	2.11e-03	0	43	0	131072000	20	5392
2026-01-20 00:03:01.49	21.76	13.45	-30.0	-33.3	13.0	3.66e-05	0	44	0	136314880	20	5214
2026-01-20 00:03:04.50	21.85	13.75	-30.0	-33.3	13.0	3.96e-05	0	44	0	142606336	20	5213
2026-01-20 00:03:07.51	21.94	14.05	-30.1	-33.4	13.0	2.11e-03	0	43	0	147849216	20	5261
2026-01-20 00:03:10.50	22.04	14.35	-30.1	-33.4	13.0	2.22e-03	0	44	0	153092096	20	5260
2026-01-20 00:03:13.52	22.14	14.66	-30.2	-33.7	12.8	1.88e-03	0	44	0	159383552	20	5380
2026-01-20 00:03:16.52	22.24	14.97	-30.2	-33.7	12.9	5.11e-05	0	44	0	164626432	20	5358
2026-01-20 00:03:19.53	22.34	15.29	-30.3	-33.9	12.7	6.02e-05	0	44	0	170917888	20	5461
2026-01-20 00:03:22.54	22.44	15.61	-30.4	-34.1	12.6	9.07e-05	0	44	0	176160768	20	5548
2026-01-20 00:03:25.55	22.55	15.94	-30.4	-34.1	12.6	6.40e-05	0	44	0	181403648	20	5552
2026-01-20 00:03:28.56	22.65	16.27	-30.7	-34.4	12.0	3.02e-04	0	44	0	187695104	21	5568
2026-01-20 00:03:31.57	22.76	16.60	-30.4	-33.7	12.6	1.28e-04	0	44	0	192937984	21	5256
2026-01-20 00:03:34.56	22.87	16.94	-30.4	-34.2	12.6	7.62e-05	0	44	0	198180864	20	5576
2026-01-20 00:03:37.57	22.99	17.28	-30.5	-33.9	12.5	1.14e-04	0	44	0	204472320	21	5337
2026-01-20 00:03:40.58	23.10	17.63	-30.5	-34.3	12.5	8.23e-05	0	44	0	209715200	20	5626
2026-01-20 00:03:43.59	23.22	17.99	-30.4	-33.7	12.6	1.07e-04	0	44	0	216006656	21	5261
2026-01-20 00:03:46.59	23.34	18.34	-30.4	-34.0	12.8	7.40e-05	0	44	0	221249536	20	5494
2026-01-20 00:03:49.59	23.47	18.71	-30.4	-34.1	12.6	1.11e-04	0	44	0	226492416	20	5531
2026-01-20 00:03:52.60	23.59	19.07	-30.6	-34.3	11.9	2.02e-04	0	44	0	232783872	21	5495
2026-01-20 00:03:55.62	23.72	19.45	-30.6	-34.1	12.5	1.74e-03	0	44	0	238026752	21	5388
2026-01-20 00:03:58.62	23.86	19.83	-30.7	-34.5	12.2	1.87e-03	0	44	0	244318208	21	5581
2026-01-20 00:04:01.63	23.99	20.22	-30.5	-33.9	12.6	9.23e-05	0	44	0	249561088	21	5319
2026-01-20 00:04:04.64	24.13	20.61	-30.5	-34.0	12.6	1.65e-04	0	44	0	254803968	21	5332
2026-01-20 00:04:07.65	24.27	21.01	-30.4	-34.2	12.8	4.27e-05	0	44	0	261095424	20	5527
2026-01-20 00:04:10.67	24.42	21.41	-30.4	-34.1	12.9	5.49e-05	0	44	0	266338304	20	5486
2026-01-20 00:04:13.67	24.56	21.82	-30.5	-34.2	12.8	1.44e-03	0	44	0	272629760	20	5529
2026-01-20 00:04:16.67	24.72	22.24	-30.3	-33.9	13.1	1.18e-03	0	44	0	277872640	20	5413
2026-01-20 00:04:19.68	24.87	22.66	-30.3	-33.8	13.0	7.23e-04	0	44	0	283115520	20	5386
2026-01-20 00:04:22.70	25.03	23.09	-30.4	-33.9	12.9	5.92e-04	0	44	0	289406976	20	5424
2026-01-20 00:04:25.70	25.20	23.53	-30.3	-33.6	13.1	1.75e-05	0	44	0	294649856	20	5301
2026-01-20 00:04:28.72	25.37	23.98	-30.2	-33.4	13.3	9.90e-06	0	44	0	299892736	20	5207
2026-01-20 00:04:31.72	25.54	24.43	-30.2	-33.4	13.4	1.43e-03	0	44	0	306184192	20	5221
2026-01-20 00:04:34.73	25.72	24.89	-30.1	-33.3	13.4	1.41e-03	0	44	0	311427072	20	5155
2026-01-20 00:04:37.73	25.90	25.36	-30.2	-33.3	13.5	1.41e-03	0	44	0	317718528	20	5181
2026-01-20 00:04:40.75	26.09	25.83	-30.2	-33.5	13.4	1.25e-03	0	44	0	322961408	20	5257
2026-01-20 00:04:43.76	26.28	26.32	-30.4	-33.9	13.1	1.31e-03	0	44	0	328204288	20	5416
2026-01-20 00:04:46.77	26.48	26.81	-30.3	-33.7	13.3	7.16e-04	0	44	0	334495744	20	5314
2026-01-20 00:04:49.78	26.68	27.32	-30.3	-33.6	13.4	8.54e-05	0	44	0	339738624	20	5289
2026-01-20 00:04:52.77	26.89	27.83	-30.4	-34.0	13.2	3.24e-04	0	44	0	344981504	20	5410
2026-01-20 00:04:55.77	27.11	28.34	-30.7	-34.3	12.6	2.64e-04	0	44	0	351272960	21	5445
2026-01-20 00:04:58.78	27.33	28.88	-30.9	-34.7	12.4	2.09e-04	0	44	0	356515840	21	5624
2026-01-20 00:05:01.78	27.57	29.41	-31.2	-35.2	11.7	4.58e-04	0	44	0	362807296	22	5702
2026-01-20 00:05:04.79	27.80	29.97	-31.4	-35.8	11.3	1.38e-03	0	44	0	368050176	22	5964
2026-01-20 00:05:07.80	28.05	30.53	-31.3	-35.5	11.5	7.87e-04	0	44	0	373293056	22	5854
2026-01-20 00:05:10.81	28.31	31.10	-31.5	-35.8	10.9	2.62e-03	0	44	0	379584512	23	5901
2026-01-20 00:05:13.82	28.57	31.68	-31.8	-36.6	10.4	3.97e-03	0	44	0	384827392	23	6246
2026-01-20 00:05:16.83	28.84	32.27	-31.7	-36.2	10.7	3.36e-03	0	44	0	390070272	23	6054
2026-01-20 00:05:19.83	29.13	32.88	-31.5	-35.5	11.2	1.36e-03	0	44	0	396361728	23	5732
2026-01-20 00:05:22.83	29.42	33.49	-31.1	-34.3	12.1	3.79e-04	0	44	0	401604608	23	5209
2026-01-20 00:05:25.84	29.72	34.12	-31.0	-34.1	12.2	2.20e-04	0	44	0	407896064	23	5124
2026-01-20 00:05:28.85	30.04	34.76	-31.0	-34.1	12.2	2.54e-04	0	44	0	413138944	23	5140
2026-01-20 00:05:31.85	30.37	35.41	-31.2	-34.6	11.9	4.07e-04	0	44	0	418381824	23	5326
2026-01-20 00:05:34.86	30.71	36.08	-31.5	-35.7	11.1	1.19e-03	0	44	0	424673280	23	5809
2026-01-20 00:05:37.87	31.06	36.76	-31.6	-35.9	11.0	1.51e-03	0	44	0	429916160	23	5902
2026-01-20 00:05:40.87	31.43	37.45	-32.0	-37.1	10.0	6.28e-03	0	44	0	435159040	23	6523
2026-01-20 00:05:43.88	31.82	38.15	-32.0	-36.7	10.0	7.26e-03	0	44	0	441450496	24	6210
2026-01-20 00:05:46.89	32.22	38.87	-32.2	-37.4	9.5	1.26e-02	0	44	0	446693376	24	6579
2026-01-20 00:05:49.89	32.64	39.60	-32.3	-37.8	9.2	2.51e-02	0	44	0	452984832	24	6794
2026-01-20 00:05:52.90	33.08	40.35	-32.4	-38.4	8.9	2.52e-02	0	44	0	458227712	24	7116
2026-01-20 00:05:55.89	33.54	41.10	-32.3	-37.7	9.3	2.06e-02	0	44	0	463470592	24	6740
2026-01-20 00:05:58.90	34.02	41.88	-32.2	-37.4	9.6	1.19e-02	0	45	0	469762048	24	6528
2026-01-20 00:06:01.90	34.52	42.67	-32.2	-37.3	9.6	1.18e-02	0	44	0	475004928	24	6510
2026-01-20 00:06:04.91	35.05	43.47	-32.0	-36.7	10.1	7.64e-03	0	44	0	480247808	24	6178
2026-01-20 00:06:07.92	35.60	44.29	-32.0	-36.5	10.3	4.96e-03	0	44	0	486539264	24	6040
2026-01-20 00:06:10.93	36.19	45.12	-31.6	-35.4	11.2	2.66e-03	0	44	0	491782144	24	5543
2026-01-20 00:06:13.93	36.80	45.97	-31.6	-35.2	11.4	5.74e-04	0	44	0	498073600	24	5458
2026-01-20 00:06:16.93	37.45	46.83	-31.7	-35.6	11.0	2.07e-03	0	44	0	503316480	24	5639
2026-01-20 00:06:19.93	38.13	47.70	-31.7	-35.6	11.1	2.09e-03	0	44	0	508559360	24	5612
2026-01-20 00:06:22.95	38.86	48.59	-31.7	-35.4	11.2	1.72e-03	0	44	0	514850816	24	5515
2026-01-20 00:06:25.95	39.63	49.49	-31.0	-33.9	12.7	1.25e-04	0	45	0	520093696	23	5018
2026-01-20 00:06:28.95	40.44	50.41	-31.0	-34.0	12.6	1.05e-04	0	44	0	525336576	23	5071
2026-01-20 00:06:31.95	41.30	51.33	-30.5	-32.9	13.6	3.43e-05	0	44	0	531628032	22	4762
2026-01-20 00:06:34.95	42.22	52.27	-29.6	-31.7	15.0	0.00e+00	0	44	0	536870912	20	4570
2026-01-20 00:06:37.93	43.19	53.21	-29.4	-31.7	15.4	0.00e+00	0	44	0	542113792	19	4655
2026-01-20 00:06:40.94	44.23	54.17	-28.6	-30.1	16.7	0.00e+00	0	44	0	548405248	18	4289
2026-01-20 00:06:43.96	45.35	55.14	-29.5	-31.8	15.4	0.00e+00	0	44	0	553648128	19	4681
2026-01-20 00:06:46.97	46.55	56.12	-30.0	-32.5	14.6	0.00e+00	0	44	0	559939584	20	4845
2026-01-20 00:06:49.97	47.82	57.09	-30.2	-33.1	14.3	7.00e-07	0	44	0	565182464	20	5039
2026-01-20 00:06:52.98	49.20	58.08	-30.5	-33.3	13.8	5.30e-06	0	44	0	570425344	21	5003
2026-01-20 00:06:55.99	50.68	59.06	-30.1	-32.8	14.5	7.00e-07	0	44	0	576716800	20	4902
2026-01-20 00:06:58.99	52.27	60.03	-29.7	-31.9	15.0	7.00e-07	0	44	0	581959680	20	4605
2026-01-20 00:07:01.99	53.98	61.01	-29.4	-32.0	15.6	0.00e+00	0	44	0	587202560	18	4849
2026-01-20 00:07:04.99	55.82	61.97	-29.5	-32.1	15.6	0.00e+00	0	44	0	593494016	18	4901
2026-01-20 00:07:08.01	57.83	62.92	-29.9	-32.4	14.8	0.00e+00	0	44	0	598736896	20	4790
2026-01-20 00:07:11.02	60.00	63.85	-30.7	-33.8	13.5	6.02e-05	0	44	0	605028352	21	5170
2026-01-20 00:07:14.04	62.35	64.76	-30.8	-33.6	13.4	1.94e-04	0	44	0	610271232	22	4984
2026-01-20 00:07:17.05	64.89	65.64	-30.7	-33.8	13.5	2.26e-04	0	44	0	615514112	21	5186
2026-01-20 00:07:20.06	67.63	66.49	-30.2	-32.5	14.4	1.62e-04	0	44	0	621805568	21	4712
2026-01-20 00:07:23.06	70.58	67.28	-30.3	-33.4	14.1	7.00e-07	0	44	0	627048448	20	5126
2026-01-20 00:07:26.07	73.77	68.03	-31.0	-34.6	13.0	1.60e-05	0	44	0	632291328	21	5500
2026-01-20 00:07:29.08	77.19	68.71	-30.9	-33.9	13.3	1.50e-04	0	44	0	638582784	22	5083
2026-01-20 00:07:32.08	80.83	69.32	-31.2	-34.7	12.6	2.39e-04	0	44	0	643825664	22	5422
2026-01-20 00:07:35.08	84.69	69.86	-30.9	-34.0	13.2	2.42e-04	0	44	0	650117120	22	5117
2026-01-20 00:07:38.09	88.78	70.31	-30.9	-34.5	13.2	5.95e-05	0	44	0	655360000	21	5427
2026-01-20 00:07:41.10	93.04	70.66	-30.6	-33.6	13.7	1.50e-06	0	44	0	660602880	21	5082
2026-01-20 00:07:44.11	97.45	70.91	-29.8	-32.0	15.1	0.00e+00	0	44	0	666894336	20	4631
2026-01-20 00:07:47.12	101.96	71.05	-30.2	-33.0	14.4	1.87e-04	0	44	0	672137216	20	4972
2026-01-20 00:07:50.11	106.48	71.09	-29.7	-32.3	14.9	1.87e-04	0	44	0	677380096	19	4841
2026-01-20 00:07:53.11	111.00	71.01	-30.0	-32.8	14.9	1.76e-04	0	44	0	683671552	19	5018
2026-01-20 00:07:56.10	115.45	70.82	-29.4	-32.4	13.9	1.68e-04	0	44	0	688914432	21	5052
2026-01-20 00:07:59.10	119.79	70.53	-30.9	-34.4	13.3	4.50e-06	0	44	0	695205888	21	5389
2026-01-20 00:08:02.11	123.99	70.13	-31.2	-34.7	12.9	1.36e-04	0	44	0	700448768	22	5378
2026-01-20 00:08:05.13	128.00	69.65	-31.4	-35.1	12.6	1.82e-03	0	44	0	705691648	22	5547
2026-01-20 00:08:08.14	131.79	69.08	-31.1	-34.4	13.0	5.57e-04	0	44	0	711983104	22	5282
2026-01-20 00:08:11.15	135.35	68.43	-31.6	-35.5	12.1	6.79e-05	0	44	0	717225984	23	5596
2026-01-20 00:08:14.15	138.66	67.72	-31.8	-36.2	11.4	5.37e-04	0	44	0	722468864	23	5969
2026-01-20 00:08:17.15	141.75	66.95	-31.5	-35.2	12.2	3.16e-04	0	44	0	728760320	23	5506
2026-01-20 00:08:20.17	144.63	66.13	-32.4	-37.6	10.0	3.37e-03	0	44	0	734003200	24	6564
2026-01-20 00:08:23.19	147.30	65.27	-31.7	-35.8	11.8	1.05e-03	0	44	0	740294656	23	5751
2026-01-20 00:08:26.20	149.75	64.38	-31.5	-34.6	12.2	6.32e-04	0	44	0	745537536	24	5159
2026-01-20 00:08:29.21	152.02	63.45	-31.0	-33.5	13.3	2.36e-05	0	44	0	750780416	23	4846
2026-01-20 00:08:32.22	154.12	62.51	-30.8	-33.5	13.7	1.44e-05	0	44	0	757071872	22	4917
2026-01-20 00:08:35.22	156.06	61.55	-30.6	-33.6	13.8	7.00e-07	0	44	0	762314752	21	5087
2026-01-20 00:08:38.23	157.86	60.58	-31.5	-35.1	12.1	2.96e-04	0	44	0	767557632	23	5483
2026-01-20 00:08:41.24	159.52	59.60	-31.9	-36.4	11.3	4.85e-04	0	44	0	773849088	23	6075
2026-01-20 00:08:44.24	161.06	58.62	-31.1	-33.8	13.0	6.30e-04	0	44	0	779091968	23	4957
2026-01-20 00:08:47.25	162.50	57.64	-32.5	-37.6	9.6	4.17e-03	0	44	0	785383424	25	6467
2026-01-20 00:08:50.26	163.83	56.65	-30.2	-32.5	14.5	1.29e-03	0	45	0	790626304	21	4693
2026-01-20 00:08:53.26	165.07	55.67	-31.6	-35.4	11.9	1.22e-03	0	44	0	795869184	23	5599
2026-01-20 00:08:56.26	166.23	54.70	-28.1	-29.3	17.5	0.00e+00	0	44	0	802160640	17	4166
2026-01-20 00:08:59.27	167.32	53.73	-27.7	-29.5	17.9	0.00e+00	0	44	0	807403520	15	4440
2026-01-20 00:09:02.28	168.33	52.77	-28.1	-29.5	17.5	0.00e+00	0	44	0	812646400	17	4206
2026-01-20 00:09:05.29	169.29	51.82	-28.6	-30.7	16.8	0.00e+00	0	44	0	818937856	17	4550
2026-01-20 00:09:08.30	170.18	50.89	-30.3	-33.2	14.3	0.00e+00	0	44	0	824180736	20	5059
2026-01-20 00:09:11.32	171.03	49.96	-30.6	-33.7	13.7	8.30e-06	0	44	0	830472192	21	5111
2026-01-20 00:09:14.33	171.82	49.04	-32.3	-37.4	10.0	1.46e-03	0	44	0	835715072	24	6453
2026-01-20 00:09:17.34	172.57	48.14	-31.2	-34.3	12.5	6.94e-04	0	44	0	840957952	23	5145
2026-01-20 00:09:20.34	173.28	47.26	-30.7	-33.2	13.6	6.80e-06	0	44	0	847249408	22	4841
2026-01-20 00:09:23.35	173.95	46.38	-31.4	-35.4	12.2	1.65e-04	0	44	0	852492288	22	5685
2026-01-20 00:09:26.36	174.58	45.52	-31.1	-34.2	12.7	1.41e-04	0	44	0	858783744	23	5091
2026-01-20 00:09:29.37	175.18	44.68	-30.7	-33.4	13.5	1.29e-05	0	44	0	864026624	22	4903
2026-01-20 00:09:32.38	175.76	43.85	-31.4	-35.3	12.2	8.16e-05	0	44	0	869269504	22	5657
2026-01-20 00:09:35.38	176.30	43.04	-31.3	-34.8	12.3	3.45e-04	0	44	0	875560960	23	5328
2026-01-20 00:09:38.39	176.81	42.24	-30.7	-33.3	13.5	1.83e-05	0	44	0	880803840	22	4870
2026-01-20 00:09:41.39	177.31	41.45	-30.4	-33.7	13.9	1.50e-06	0	44	0	886046720	20	5264
2026-01-20 00:09:44.40	177.78	40.68	-32.5	-38.1	9.3	1.17e-02	0	44	0	892338176	24	6900
2026-01-20 00:09:47.41	178.23	39.92	-31.5	-35.4	11.8	7.41e-04	0	44	0	897581056	23	5597
2026-01-20 00:09:50.41	178.65	39.18	-31.3	-35.3	12.1	1.67e-03	0	45	0	903872512	22	5655
2026-01-20 00:09:53.41	179.06	38.45	-32.0	-36.8	10.7	4.27e-03	0	44	0	909115392	23	6267
2026-01-20 00:09:56.43	179.46	37.74	-32.2	-37.3	9.9	8.45e-03	0	44	0	914358272	24	6442
2026-01-20 00:09:59.44	179.84	37.03	-31.2	-34.3	12.4	3.23e-04	0	44	0	920649728	23	5155
2026-01-20 00:10:02.46	180.20	36.34	-30.7	-33.4	13.3	1.06e-05	0	44	0	925892608	22	4942
2026-01-20 00:10:05.46	180.55	35.67	-30.7	-33.9	13.3	1.37e-05	0	44	0	931135488	21	5206
2026-01-20 00:10:08.46	180.88	35.01	-30.9	-34.5	12.9	4.11e-05	0	44	0	937426944	21	5461
2026-01-20 00:10:11.47	181.20	34.36	-31.3	-35.3	12.1	1.75e-04	0	44	0	942669824	22	5682
2026-01-20 00:10:14.49	181.51	33.72	-31.3	-34.8	12.0	3.86e-04	0	44	0	948961280	23	5383
2026-01-20 00:10:17.50	181.81	33.09	-31.2	-34.5	12.2	2.16e-04	0	44	0	954204160	23	5250
2026-01-20 00:10:20.50	182.10	32.48	-31.1	-34.1	12.4	1.74e-04	0	44	0	959447040	23	5103
2026-01-20 00:10:23.50	182.38	31.88	-31.3	-34.6	12.1	2.52e-04	0	44	0	965738496	23	5302
2026-01-20 00:10:26.51	182.64	31.29	-31.6	-35.8	11.2	1.22e-03	0	44	0	970981376	23	5824
2026-01-20 00:10:29.52	182.90	30.71	-31.7	-36.2	10.9	2.84e-03	0	44	0	976224256	23	6021
2026-01-20 00:10:32.52	183.15	30.15	-31.8	-36.5	10.7	4.28e-03	0	44	0	982515712	23	6163
2026-01-20 00:10:35.53	183.39	29.59	-31.1	-34.8	12.3	7.01e-04	0	44	0	987758592	22	5504
2026-01-20 00:10:38.53	183.63	29.04	-30.8	-34.2	13.0	6.39e-04	0	44	0	994050048	21	5379
2026-01-20 00:10:41.54	183.86	28.50	-30.6	-33.6	13.3	1.83e-05	0	44	0	999292928	21	5142
2026-01-20 00:10:44.54	184.07	27.98	-30.1	-32.8	14.1	8.79e-04	0	44	0	1004535808	20	4950
2026-01-20 00:10:47.55	184.29	27.46	-29.9	-32.5	14.3	1.48e-03	0	44	0	1010827264	20	4831
2026-01-20 00:10:50.56	184.49	26.95	-30.0	-33.1	14.3	1.51e-03	0	44	0	1016070144	19	5160
2026-01-20 00:10:53.58	184.70	26.45	-30.2	-33.2	13.8	1.71e-03	0	44	0	1021313024	20	5121
2026-01-20 00:10:56.57	184.89	25.96	-30.3	-33.5	13.7	1.68e-03	0	44	0	1027604480	20	5202
2026-01-20 00:10:59.58	185.08	25.48	-30.3	-33.5	13.6	8.30e-06	0	44	0	1032847360	20	5224
2026-01-20 00:11:02.58	185.26	25.00	-29.9	-32.4	14.3	7.00e-07	0	44	0	1039138816	20	4820
2026-01-20 00:11:05.59	185.44	24.54	-29.8	-32.6	14.6	1.50e-06	0	44	0	1044381696	19	4998
2026-01-20 00:11:08.60	185.62	24.08	-30.0	-33.2	14.2	1.50e-06	0	44	0	1049624576	19	5210
2026-01-20 00:11:11.61	185.78	23.63	-29.9	-32.6	14.1	1.50e-06	0	44	0	1055916032	20	4892
2026-01-20 00:11:14.62	185.95	23.18	-30.1	-33.2	13.7	4.50e-06	0	45	0	1061158912	20	5105
2026-01-20 00:11:17.63	186.11	22.75	-30.3	-33.6	13.5	1.90e-05	0	44	0	1067450368	20	5256
2026-01-20 00:11:20.64	186.27	22.32	-29.8	-32.4	14.2	7.00e-07	0	44	0	1072693248	20	4828
2026-01-20 00:11:23.64	186.42	21.90	-30.3	-33.7	13.4	9.90e-06	0	44	0	1077936128	20	5298
2026-01-20 00:11:26.65	186.57	21.48	-29.8	-32.4	14.0	2.20e-06	0	44	0	1084227584	20	4840
2026-01-20 00:11:29.65	186.71	21.07	-29.5	-32.0	14.6	0.00e+00	0	44	0	1089470464	19	4818
2026-01-20 00:11:32.66	186.85	20.67	-29.5	-32.0	14.8	1.84e-04	0	44	0	1094713344	19	4797
2026-01-20 00:11:35.66	186.99	20.27	-29.7	-32.4	14.4	1.62e-04	0	44	0	1101004800	19	4921
2026-01-20 00:11:38.68	187.13	19.88	-29.5	-32.0	14.8	0.00e+00	0	44	0	1106247680	19	4787
2026-01-20 00:11:41.69	187.26	19.50	-29.6	-32.3	14.6	0.00e+00	0	44	0	1112539136	19	4908
2026-01-20 00:11:44.69	187.39	19.12	-29.8	-32.8	14.3	0.00e+00	0	44	0	1117782016	19	5086
2026-01-20 00:11:47.68	187.51	18.75	-29.9	-32.7	13.9	3.80e-06	0	44	0	1123024896	20	4955
2026-01-20 00:11:50.69	187.64	18.38	-30.0	-33.0	13.7	1.31e-04	0	44	0	1129316352	20	5058
2026-01-20 00:11:53.70	187.76	18.02	-30.1	-33.2	13.6	1.38e-04	0	44	0	1134559232	20	5147
2026-01-20 00:11:56.71	187.88	17.66	-30.1	-33.3	13.5	1.49e-04	0	44	0	1139802112	20	5166
2026-01-20 00:11:59.72	187.99	17.31	-30.1	-33.1	13.6	1.55e-04	0	44	0	1146093568	20	5108
2026-01-20 00:12:02.72	188.10	16.96	-30.1	-33.3	13.5	1.22e-05	0	44	0	1151336448	20	5162
2026-01-20 00:12:05.73	188.21	16.62	-30.3	-33.7	13.2	9.10e-06	0	44	0	1157627904	20	5335
2026-01-20 00:12:08.74	188.32	16.28	-30.2	-33.5	13.3	9.99e-05	0	44	0	1162870784	20	5244
2026-01-20 00:12:11.76	188.43	15.95	-30.1	-33.2	13.4	4.88e-05	0	44	0	1168113664	20	5142
2026-01-20 00:12:14.76	188.53	15.62	-30.2	-33.4	13.4	3.58e-05	0	44	0	1174405120	20	5203
2026-01-20 00:12:17.77	188.64	15.30	-30.3	-33.7	13.1	3.89e-05	0	44	0	1179648000	20	5358
2026-01-20 00:12:20.77	188.74	14.98	-30.4	-34.1	12.8	9.76e-05	0	45	0	1184890880	20	5509
2026-01-20 00:12:23.77	188.83	14.66	-30.3	-33.7	13.1	4.27e-05	0	44	0	1191182336	20	5342
2026-01-20 00:12:26.78	188.93	14.35	-30.3	-33.8	12.9	4.50e-05	0	44	0	1196425216	20	5410
2026-01-20 00:12:29.79	189.03	14.04	-30.2	-33.4	13.2	5.11e-05	0	44	0	1202716672	20	5243
2026-01-20 00:12:32.80	189.12	13.74	-30.3	-33.7	13.0	3.05e-05	0	44	0	1207959552	20	5366
2026-01-20 00:12:35.79	189.21	13.44	-30.2	-33.6	13.0	3.28e-05	0	44	0	1213202432	20	5319
2026-01-20 00:12:38.79	189.30	13.14	-30.3	-33.9	12.9	7.32e-05	0	44	0	1219493888	20	5416
2026-01-20 00:12:41.80	189.39	12.85	-30.5	-33.8	12.5	1.18e-04	0	44	0	1224736768	21	5303
2026-01-20 00:12:44.81	189.47	12.56	-30.4	-34.2	12.6	5.95e-05	0	44	0	1229979648	20	5591
2026-01-20 00:12:47.79	189.56	12.27	-30.4	-34.2	12.6	9.30e-05	0	44	0	1236271104	20	5556
2026-01-20 00:12:50.79	189.64	11.99	-30.4	-34.2	12.6	1.11e-04	0	44	0	1241513984	20	5561
2026-01-20 00:12:53.79	189.72	11.71	-30.6	-34.3	12.1	1.93e-04	0	44	0	1246756864	21	5492
2026-01-20 00:12:56.78	189.80	11.43	-30.5	-34.1	12.3	1.59e-04	0	44	0	1253048320	21	5416
2026-01-20 00:12:59.80	189.88	11.16	-30.3	-33.4	12.7	1.15e-04	0	44	0	1258291200	21	5165
2026-01-20 00:13:02.80	189.96	10.89	-30.4	-34.3	12.4	1.18e-04	0	44	0	1264582656	20	5623
2026-01-20 00:13:05.80	190.04	10.62	-30.7	-34.6	11.8	3.10e-04	0	44	0	1269825536	21	5652
2026-01-20 00:13:08.81	190.11	10.36	-30.5	-34.1	12.1	2.36e-04	0	44	0	1275068416	21	5445
2026-01-20 00:13:11.82	190.19	10.09	-30.7	-34.7	11.7	4.57e-04	0	44	0	1281359872	21	5692
2026-01-20 00:13:14.82	190.26	9.83	-30.5	-34.2	12.0	3.17e-04	0	44	0	1286602752	21	5483
2026-01-20 00:13:17.83	190.33	9.58	-30.6	-34.3	11.9	5.54e-04	0	44	0	1291845632	21	5560
2026-01-20 00:13:20.85	190.40	9.32	-30.7	-34.7	11.7	5.00e-04	0	44	0	1298137088	21	5698
2026-01-20 00:13:23.86	190.47	9.07	-30.6	-34.4	11.8	5.65e-04	0	44	0	1303379968	21	5598
2026-01-20 00:13:26.85	190.54	8.82	-30.6	-34.5	11.7	4.68e-04	0	44	0	1309671424	21	5655
2026-01-20 00:13:29.87	190.61	8.57	-30.7	-34.7	11.5	9.64e-04	0	44	0	1314914304	21	5737
2026-01-20 00:13:32.86	190.68	8.33	-30.7	-35.0	11.3	1.21e-03	0	44	0	1320157184	21	5858
2026-01-20 00:13:35.86	190.74	8.09	-30.8	-35.3	11.1	1.60e-03	0	44	0	1326448640	21	6019
2026-01-20 00:13:38.86	190.81	7.85	-30.7	-35.0	11.2	1.23e-03	0	44	0	1331691520	21	5877
2026-01-20 00:13:41.87	190.87	7.61	-29.6	-34.6	10.8	1.61e-03	0	44	0	1336934400	20	6395
2026-01-20 00:13:44.87	190.94	7.37	-30.9	-35.6	10.3	2.04e-03	0	44	0	1343225856	21	6209
2026-01-20 00:13:47.88	191.00	7.14	-31.0	-35.7	10.2	4.76e-03	0	44	0	1348468736	22	6148
2026-01-20 00:13:50.89	191.06	6.91	-33.5	-47.7	3.8	1.49e+00	0	44	104	1349517312	27	18417

#Closed at: 2026-01-20 00:13:51
#Recorded file [1349 MB]: D:/data/31010_260120_030148.dat