passes_logs/2026/01/20/R2M6_AANII_01/R2M6_AANII_01__20260120_095438_NOAA_20_JPSS-1_rec.log

#Pass ID: 20260120_095438_NOAA 20 (JPSS-1)
#Satellite: NOAA 20 (JPSS-1)
#Configuration: NOAA 20
#almurnet v.1.7.20240730
#Start time: 2026-01-20 09:54:39

#Version: 2.2.20231116
#Station: R2M6_AANII_01
#Location: 30.233357 lon 59.946436 lat
#TLE: 1 43013U 17073A   26019.55911981  .00000079  00000+0  58510-4 0  9994
#TLE: 2 43013  98.7641 320.4504 0001323  32.6518 327.4739 14.19537050423380

#Time	Az	El	Level	Level2	SNR	BER	BlckErr	Temp	State	Recorded	gain1	gain2
2026-01-20 09:54:39.50	147.40	7.11	-30.9	-37.0	5.2	1.25e+00	0	41	0	0	22	7286
2026-01-20 09:54:42.51	147.34	7.35	-31.0	-36.7	8.5	4.87e-02	0	42	0	1048576	23	6914
2026-01-20 09:54:45.51	147.29	7.58	-30.6	-35.5	9.9	1.03e-02	0	42	0	7340032	22	6294
2026-01-20 09:54:48.53	147.23	7.82	-30.5	-35.0	10.3	5.63e-03	0	42	0	12582912	22	6017
2026-01-20 09:54:51.54	147.17	8.06	-30.2	-34.2	11.3	1.57e-03	0	42	0	17825792	21	5709
2026-01-20 09:54:54.56	147.11	8.30	-30.2	-34.1	11.5	1.09e-03	0	42	0	24117248	21	5610
2026-01-20 09:54:57.55	147.05	8.55	-30.4	-34.2	11.6	7.70e-04	0	42	0	29360128	21	5605
2026-01-20 09:55:00.55	146.99	8.79	-30.3	-33.8	12.0	4.00e-04	0	42	0	35651584	21	5389
2026-01-20 09:55:03.56	146.93	9.04	-30.4	-34.0	11.9	5.31e-04	0	42	0	40894464	21	5460
2026-01-20 09:55:06.57	146.87	9.30	-30.3	-33.7	12.1	2.49e-04	0	42	0	46137344	21	5332
2026-01-20 09:55:09.58	146.80	9.55	-30.3	-33.7	12.2	2.64e-04	0	42	0	52428800	21	5311
2026-01-20 09:55:12.60	146.74	9.81	-30.1	-33.4	12.3	1.91e-04	0	42	0	57671680	21	5245
2026-01-20 09:55:15.61	146.67	10.07	-30.1	-33.2	12.5	1.61e-04	0	43	0	63963136	21	5180
2026-01-20 09:55:18.61	146.60	10.33	-30.0	-33.1	12.5	9.00e-05	0	43	0	69206016	21	5167
2026-01-20 09:55:21.61	146.53	10.60	-29.9	-32.8	12.8	7.62e-05	0	43	0	74448896	21	5020
2026-01-20 09:55:24.62	146.46	10.87	-29.9	-32.7	12.9	4.65e-05	0	43	0	80740352	21	4976
2026-01-20 09:55:27.63	146.39	11.14	-29.9	-32.6	13.0	5.34e-05	0	43	0	85983232	21	4929
2026-01-20 09:55:30.64	146.31	11.41	-29.9	-32.5	13.1	4.50e-05	0	43	0	91226112	21	4894
2026-01-20 09:55:33.64	146.24	11.69	-29.8	-32.4	13.2	2.59e-05	0	43	0	97517568	21	4866
2026-01-20 09:55:36.64	146.16	11.97	-29.8	-32.4	13.2	3.43e-05	0	43	0	102760448	21	4853
2026-01-20 09:55:39.65	146.08	12.25	-29.9	-32.5	13.1	2.05e-05	0	43	0	109051904	21	4887
2026-01-20 09:55:42.66	146.00	12.54	-30.0	-32.9	13.0	3.73e-05	0	43	0	114294784	21	5005
2026-01-20 09:55:45.67	145.92	12.83	-30.0	-32.8	13.1	2.67e-05	0	43	0	119537664	21	4952
2026-01-20 09:55:48.67	145.83	13.12	-30.1	-32.9	13.1	3.89e-05	0	43	0	125829120	21	4967
2026-01-20 09:55:51.66	145.75	13.42	-29.9	-32.4	13.4	9.10e-06	0	43	0	131072000	21	4784
2026-01-20 09:55:54.67	145.66	13.72	-29.8	-32.5	13.7	8.30e-06	0	43	0	136314880	20	4920
2026-01-20 09:55:57.68	145.57	14.02	-29.8	-32.6	13.7	7.60e-06	0	43	0	142606336	20	4946
2026-01-20 09:56:00.67	145.48	14.33	-29.8	-32.5	13.7	3.00e-06	0	43	0	147849216	20	4931
2026-01-20 09:56:03.68	145.38	14.64	-29.9	-32.8	13.6	6.10e-06	0	43	0	153092096	20	5012
2026-01-20 09:56:06.70	145.28	14.96	-29.9	-32.9	13.5	6.10e-06	0	43	0	159383552	20	5055
2026-01-20 09:56:09.72	145.18	15.28	-29.9	-32.9	13.5	1.22e-05	0	43	0	164626432	20	5046
2026-01-20 09:56:12.73	145.08	15.61	-29.8	-32.6	13.7	5.30e-06	0	43	0	170917888	20	4943
2026-01-20 09:56:15.74	144.98	15.94	-29.9	-32.8	13.6	5.30e-06	0	43	0	176160768	20	5029
2026-01-20 09:56:18.74	144.87	16.27	-30.0	-32.9	13.6	6.80e-06	0	44	0	181403648	20	5043
2026-01-20 09:56:21.75	144.76	16.61	-30.0	-33.1	13.4	1.06e-05	0	43	0	187695104	20	5106
2026-01-20 09:56:24.76	144.65	16.95	-29.9	-32.6	13.8	7.60e-06	0	44	0	192937984	20	4937
2026-01-20 09:56:27.77	144.54	17.30	-29.8	-32.3	14.0	5.30e-06	0	44	0	199229440	20	4815
2026-01-20 09:56:30.77	144.42	17.65	-29.9	-32.6	14.0	3.00e-06	0	44	0	204472320	20	4915
2026-01-20 09:56:33.79	144.30	18.01	-30.0	-32.9	13.7	3.00e-06	0	44	0	209715200	20	5031
2026-01-20 09:56:36.79	144.18	18.37	-29.7	-32.0	14.4	7.00e-07	0	44	0	216006656	20	4708
2026-01-20 09:56:39.80	144.05	18.73	-29.6	-31.9	14.5	7.00e-07	0	44	0	221249536	20	4651
2026-01-20 09:56:42.81	143.92	19.11	-29.7	-32.0	14.5	0.00e+00	0	44	0	226492416	20	4687
2026-01-20 09:56:45.81	143.79	19.48	-29.8	-32.3	14.3	1.50e-06	0	44	0	232783872	20	4787
2026-01-20 09:56:48.82	143.65	19.87	-29.8	-32.3	14.4	1.50e-06	0	44	0	238026752	20	4791
2026-01-20 09:56:51.83	143.51	20.26	-29.9	-32.4	14.3	7.00e-07	0	44	0	244318208	20	4805
2026-01-20 09:56:54.84	143.36	20.65	-30.0	-32.8	14.1	2.20e-06	0	44	0	249561088	20	4960
2026-01-20 09:56:57.84	143.22	21.05	-30.0	-32.8	14.1	2.20e-06	0	44	0	254803968	20	4954
2026-01-20 09:57:00.84	143.06	21.46	-30.0	-32.8	14.1	1.50e-06	0	44	0	261095424	20	4969
2026-01-20 09:57:03.84	142.91	21.87	-29.9	-32.5	14.3	5.30e-06	0	44	0	266338304	20	4842
2026-01-20 09:57:06.85	142.75	22.30	-29.7	-32.0	14.7	0.00e+00	0	44	0	272629760	20	4674
2026-01-20 09:57:09.85	142.58	22.72	-29.8	-32.1	14.7	0.00e+00	0	44	0	277872640	20	4703
2026-01-20 09:57:12.86	142.41	23.16	-29.9	-32.4	14.5	0.00e+00	0	44	0	283115520	20	4802
2026-01-20 09:57:15.86	142.23	23.60	-30.0	-32.7	14.3	1.50e-06	0	44	0	289406976	20	4897
2026-01-20 09:57:18.88	142.05	24.05	-29.9	-32.4	14.5	0.00e+00	0	44	0	294649856	20	4785
2026-01-20 09:57:21.88	141.86	24.51	-30.2	-33.3	14.0	1.50e-06	0	44	0	299892736	20	5110
2026-01-20 09:57:24.90	141.67	24.97	-30.2	-33.1	14.1	7.00e-07	0	44	0	306184192	20	5034
2026-01-20 09:57:27.91	141.47	25.44	-30.2	-33.2	14.0	2.20e-06	0	44	0	311427072	20	5100
2026-01-20 09:57:30.91	141.27	25.92	-30.5	-33.5	13.5	7.60e-06	0	44	0	317718528	21	5098
2026-01-20 09:57:33.91	141.06	26.41	-30.7	-34.0	13.2	2.44e-05	0	44	0	322961408	21	5274
2026-01-20 09:57:36.91	140.84	26.91	-30.9	-34.7	12.8	5.03e-05	0	44	0	328204288	21	5526
2026-01-20 09:57:39.93	140.61	27.41	-31.4	-35.4	12.1	2.25e-04	0	44	0	334495744	22	5709
2026-01-20 09:57:42.94	140.38	27.93	-31.7	-36.0	11.3	1.09e-03	0	44	0	339738624	23	5907
2026-01-20 09:57:45.95	140.14	28.46	-31.9	-36.4	11.0	1.70e-03	0	44	0	344981504	23	6076
2026-01-20 09:57:48.94	139.89	28.99	-31.6	-35.6	11.6	7.41e-04	0	44	0	351272960	23	5695
2026-01-20 09:57:51.94	139.63	29.53	-31.7	-35.7	11.5	6.09e-04	0	44	0	356515840	23	5740
2026-01-20 09:57:54.95	139.36	30.08	-31.9	-36.3	11.1	1.47e-03	0	44	0	362807296	23	6028
2026-01-20 09:57:57.96	139.08	30.64	-32.0	-36.4	10.7	3.16e-03	0	44	0	368050176	24	5965
2026-01-20 09:58:00.96	138.80	31.22	-32.4	-37.6	9.8	6.85e-03	0	44	0	373293056	24	6568
2026-01-20 09:58:03.96	138.50	31.80	-32.5	-37.9	9.6	1.13e-02	0	44	0	379584512	24	6755
2026-01-20 09:58:06.96	138.19	32.39	-32.8	-38.6	8.6	3.88e-02	0	44	0	384827392	25	7063
2026-01-20 09:58:09.95	137.87	33.00	-32.6	-37.8	9.3	2.34e-02	0	44	0	390070272	25	6580
2026-01-20 09:58:12.96	137.53	33.61	-32.3	-36.8	10.1	7.53e-03	0	44	0	396361728	25	6051
2026-01-20 09:58:15.95	137.19	34.24	-32.4	-37.1	9.9	1.08e-02	0	44	0	401604608	25	6204
2026-01-20 09:58:18.96	136.83	34.88	-32.4	-37.2	9.9	9.71e-03	0	44	0	406847488	25	6250
2026-01-20 09:58:21.96	136.45	35.53	-32.6	-37.8	9.4	1.24e-02	0	44	0	413138944	25	6573
2026-01-20 09:58:24.97	136.06	36.19	-32.8	-38.5	8.9	2.85e-02	0	44	0	418381824	25	6945
2026-01-20 09:58:27.98	135.65	36.87	-32.6	-38.0	9.3	1.85e-02	0	44	0	424673280	25	6655
2026-01-20 09:58:30.99	135.22	37.56	-32.6	-38.0	9.3	1.96e-02	0	44	0	429916160	25	6670
2026-01-20 09:58:34.01	134.77	38.26	-32.5	-37.5	9.8	1.08e-02	0	44	0	435159040	25	6353
2026-01-20 09:58:37.02	134.30	38.98	-32.4	-37.0	10.2	7.62e-03	0	44	0	441450496	25	6110
2026-01-20 09:58:40.02	133.82	39.70	-32.2	-36.5	10.6	3.66e-03	0	44	0	446693376	25	5850
2026-01-20 09:58:43.03	133.31	40.44	-32.0	-35.7	11.1	1.39e-03	0	44	0	451936256	25	5520
2026-01-20 09:58:46.04	132.77	41.20	-31.8	-34.9	11.7	6.92e-04	0	44	0	458227712	25	5167
2026-01-20 09:58:49.06	132.21	41.96	-31.7	-35.2	11.9	3.78e-04	0	44	0	463470592	24	5377
2026-01-20 09:58:52.07	131.62	42.74	-31.6	-34.9	12.1	2.06e-04	0	44	0	469762048	24	5247
2026-01-20 09:58:55.07	131.00	43.53	-31.7	-35.0	12.0	3.48e-04	0	44	0	475004928	24	5260
2026-01-20 09:58:58.07	130.35	44.33	-31.0	-33.5	13.4	1.44e-05	0	44	0	480247808	23	4809
2026-01-20 09:59:01.07	129.66	45.15	-31.2	-33.9	13.1	1.75e-05	0	44	0	486539264	23	4946
2026-01-20 09:59:04.08	128.94	45.97	-30.8	-33.5	13.8	6.10e-06	0	44	0	491782144	22	4907
2026-01-20 09:59:07.09	128.18	46.81	-30.8	-33.3	13.9	6.10e-06	0	44	0	497025024	22	4843
2026-01-20 09:59:10.10	127.37	47.66	-31.0	-33.9	13.5	7.60e-06	0	44	0	503316480	22	5058
2026-01-20 09:59:13.10	126.53	48.52	-31.1	-34.2	13.4	1.29e-05	0	44	0	508559360	22	5152
2026-01-20 09:59:16.11	125.62	49.39	-30.8	-33.3	14.0	3.00e-06	0	44	0	514850816	22	4839
2026-01-20 09:59:19.12	124.67	50.27	-30.6	-32.8	14.3	1.50e-06	0	44	0	520093696	22	4660
2026-01-20 09:59:22.14	123.65	51.16	-30.2	-32.3	14.9	0.00e+00	0	44	0	525336576	21	4605
2026-01-20 09:59:25.14	122.58	52.06	-30.1	-32.1	15.1	0.00e+00	0	44	0	531628032	21	4541
2026-01-20 09:59:28.15	121.44	52.96	-30.0	-31.7	15.3	0.00e+00	0	44	0	536870912	21	4420
2026-01-20 09:59:31.16	120.23	53.86	-30.2	-32.4	15.0	7.00e-07	0	44	0	543162368	21	4610
2026-01-20 09:59:34.16	118.94	54.76	-30.6	-33.4	14.3	0.00e+00	0	44	0	548405248	21	4973
2026-01-20 09:59:37.17	117.56	55.67	-31.4	-34.9	13.0	1.52e-05	0	44	0	553648128	22	5418
2026-01-20 09:59:40.17	116.09	56.57	-31.8	-35.8	12.1	2.11e-04	0	44	0	559939584	23	5685
2026-01-20 09:59:43.19	114.51	57.47	-32.4	-37.1	10.7	2.39e-03	0	44	0	565182464	24	6219
2026-01-20 09:59:46.20	112.84	58.36	-32.2	-35.8	11.3	1.26e-03	0	44	0	570425344	25	5482
2026-01-20 09:59:49.21	111.04	59.24	-32.0	-35.4	11.6	7.48e-04	0	44	0	576716800	25	5319
2026-01-20 09:59:52.21	109.13	60.10	-32.0	-35.7	11.8	3.03e-04	0	44	0	581959680	24	5511
2026-01-20 09:59:55.23	107.07	60.94	-30.2	-32.2	15.1	7.00e-07	0	44	0	588251136	21	4561
2026-01-20 09:59:58.24	104.88	61.76	-30.1	-32.1	15.2	0.00e+00	0	44	0	593494016	21	4532
2026-01-20 10:00:01.25	102.54	62.55	-29.8	-31.8	15.7	0.00e+00	0	44	0	598736896	20	4522
2026-01-20 10:00:04.26	100.05	63.31	-29.3	-31.2	16.3	0.00e+00	0	44	0	605028352	19	4450
2026-01-20 10:00:07.27	97.39	64.02	-29.9	-32.6	15.5	0.00e+00	0	44	0	610271232	19	4906
2026-01-20 10:00:10.29	94.56	64.69	-30.2	-32.9	15.0	0.00e+00	0	44	0	615514112	20	4871
2026-01-20 10:00:13.30	91.58	65.31	-31.1	-34.2	13.6	2.20e-06	0	44	0	621805568	22	5132
2026-01-20 10:00:16.30	88.44	65.86	-31.7	-35.4	12.4	2.84e-04	0	44	0	627048448	23	5495
2026-01-20 10:00:19.31	85.14	66.35	-31.6	-35.1	12.7	5.26e-05	0	44	0	633339904	23	5369
2026-01-20 10:00:22.31	81.71	66.77	-31.9	-36.0	12.0	2.04e-04	0	44	0	638582784	23	5742
2026-01-20 10:00:25.33	78.14	67.11	-31.6	-34.6	12.7	9.46e-05	0	44	0	643825664	24	5078
2026-01-20 10:00:28.33	74.48	67.36	-31.6	-34.7	12.7	7.40e-05	0	44	0	650117120	24	5105
2026-01-20 10:00:31.34	70.74	67.53	-31.6	-34.6	12.6	8.62e-05	0	44	0	655360000	24	5087
2026-01-20 10:00:34.36	66.93	67.61	-31.8	-35.2	12.3	1.78e-04	0	44	0	661651456	24	5316
2026-01-20 10:00:37.36	63.14	67.60	-31.9	-35.6	11.9	3.82e-04	0	44	0	666894336	24	5481
2026-01-20 10:00:40.36	59.37	67.50	-31.5	-34.3	12.8	9.15e-05	0	44	0	672137216	24	4973
2026-01-20 10:00:43.37	55.64	67.31	-31.7	-34.9	12.4	1.28e-04	0	44	0	678428672	24	5204
2026-01-20 10:00:46.38	52.00	67.04	-31.5	-34.2	12.9	2.59e-05	0	44	0	683671552	24	4901
2026-01-20 10:00:49.39	48.46	66.68	-31.6	-34.6	12.6	9.53e-05	0	44	0	688914432	24	5085
2026-01-20 10:00:52.40	45.05	66.25	-31.4	-34.4	13.1	1.22e-05	0	44	0	695205888	23	5090
2026-01-20 10:00:55.40	41.80	65.74	-31.2	-33.9	13.4	6.80e-06	0	44	0	700448768	23	4923
2026-01-20 10:00:58.41	38.70	65.18	-30.2	-32.2	15.1	0.00e+00	0	44	0	706740224	21	4569
2026-01-20 10:01:01.42	35.75	64.55	-29.3	-31.0	16.5	0.00e+00	0	44	0	711983104	19	4404
2026-01-20 10:01:04.43	32.98	63.87	-29.8	-32.2	15.8	0.00e+00	0	44	0	717225984	19	4768
2026-01-20 10:01:07.43	30.37	63.15	-30.0	-32.4	15.3	0.00e+00	0	44	0	723517440	20	4716
2026-01-20 10:01:10.44	27.91	62.39	-30.9	-34.2	13.8	2.20e-06	0	44	0	728760320	21	5247
2026-01-20 10:01:13.45	25.61	61.59	-31.1	-34.2	13.6	3.00e-06	0	44	0	734003200	22	5135
2026-01-20 10:01:16.48	23.44	60.77	-31.7	-35.5	12.3	1.32e-04	0	44	0	740294656	23	5543
2026-01-20 10:01:19.48	21.43	59.92	-32.0	-35.7	11.8	5.59e-04	0	44	0	745537536	24	5550
2026-01-20 10:01:22.50	19.53	59.06	-32.4	-36.7	10.7	4.07e-03	0	44	0	751828992	25	5900
2026-01-20 10:01:25.50	17.78	58.18	-32.1	-35.7	11.4	7.44e-04	0	44	0	757071872	25	5450
2026-01-20 10:01:28.51	16.12	57.29	-32.0	-35.4	11.6	5.71e-04	0	44	0	762314752	25	5326
2026-01-20 10:01:31.52	14.58	56.39	-31.8	-35.3	12.1	2.70e-04	0	44	0	768606208	24	5375
2026-01-20 10:01:34.52	13.13	55.50	-30.8	-32.8	14.0	6.10e-06	0	44	0	773849088	23	4562
2026-01-20 10:01:37.53	11.78	54.59	-30.2	-32.5	14.8	0.00e+00	0	44	0	779091968	21	4649
2026-01-20 10:01:40.51	10.52	53.70	-30.1	-32.1	15.0	0.00e+00	0	44	0	785383424	21	4528
2026-01-20 10:01:43.53	9.31	52.80	-30.3	-32.6	14.7	0.00e+00	0	44	0	790626304	21	4695
2026-01-20 10:01:46.53	8.19	51.90	-30.2	-32.3	14.9	7.00e-07	0	44	0	796917760	21	4607
2026-01-20 10:01:49.53	7.14	51.02	-30.6	-33.5	14.1	0.00e+00	0	44	0	802160640	21	5018
2026-01-20 10:01:52.54	6.14	50.13	-30.7	-33.7	13.9	5.30e-06	0	44	0	807403520	21	5086
2026-01-20 10:01:55.54	5.20	49.26	-31.3	-34.9	12.9	4.27e-05	0	44	0	813694976	22	5430
2026-01-20 10:01:58.55	4.31	48.40	-31.4	-35.1	12.7	6.86e-05	0	44	0	818937856	22	5534
2026-01-20 10:02:01.56	3.47	47.54	-31.4	-34.5	12.7	8.08e-05	0	44	0	824180736	23	5182
2026-01-20 10:02:04.57	2.68	46.69	-32.0	-36.0	11.4	7.07e-04	0	44	0	830472192	24	5678
2026-01-20 10:02:07.58	1.93	45.86	-32.1	-36.2	11.2	2.02e-03	0	44	0	835715072	24	5790
2026-01-20 10:02:10.59	1.21	45.04	-31.8	-35.4	11.8	5.04e-04	0	44	0	842006528	24	5422
2026-01-20 10:02:13.61	0.53	44.23	-31.6	-34.8	12.2	2.78e-04	0	44	0	847249408	24	5203
2026-01-20 10:02:16.63	359.89	43.42	-32.1	-36.5	10.9	1.89e-03	0	44	0	852492288	24	5918
2026-01-20 10:02:19.64	359.28	42.64	-32.3	-37.0	10.6	3.61e-03	0	44	0	858783744	24	6191
2026-01-20 10:02:22.66	358.69	41.86	-32.7	-37.9	9.6	1.19e-02	0	44	0	864026624	25	6560
2026-01-20 10:02:25.67	358.14	41.10	-32.9	-38.9	8.7	2.86e-02	0	44	0	870318080	25	7145
2026-01-20 10:02:28.68	357.61	40.36	-32.5	-36.7	10.1	9.68e-03	0	44	0	875560960	26	5810
2026-01-20 10:02:31.69	357.10	39.62	-32.2	-36.2	10.7	2.83e-03	0	44	0	880803840	25	5684
2026-01-20 10:02:34.68	356.63	38.91	-32.2	-36.1	10.8	2.56e-03	0	44	0	887095296	25	5657
2026-01-20 10:02:37.68	356.17	38.20	-31.8	-35.0	11.6	6.61e-04	0	44	0	892338176	25	5184
2026-01-20 10:02:40.68	355.73	37.50	-32.0	-35.7	11.1	1.34e-03	0	44	0	897581056	25	5488
2026-01-20 10:02:43.70	355.30	36.82	-31.9	-35.3	11.4	8.75e-04	0	44	0	903872512	25	5298
2026-01-20 10:02:46.70	354.90	36.15	-31.9	-35.7	11.4	6.74e-04	0	44	0	909115392	24	5606
2026-01-20 10:02:49.70	354.51	35.49	-31.6	-34.9	12.0	3.71e-04	0	44	0	915406848	24	5249
2026-01-20 10:02:52.72	354.14	34.84	-31.7	-35.1	11.9	3.76e-04	0	44	0	920649728	24	5315
2026-01-20 10:02:55.73	353.78	34.21	-31.9	-35.7	11.4	8.52e-04	0	44	0	925892608	24	5612
2026-01-20 10:02:58.73	353.44	33.58	-31.7	-35.0	11.8	3.49e-04	0	44	0	932184064	24	5309
2026-01-20 10:03:01.74	353.11	32.97	-32.0	-36.2	11.1	1.25e-03	0	44	0	937426944	24	5792
2026-01-20 10:03:04.75	352.79	32.37	-32.3	-37.1	10.4	4.34e-03	0	44	0	942669824	24	6246
2026-01-20 10:03:07.75	352.48	31.78	-32.6	-37.8	9.4	1.51e-02	0	44	0	948961280	25	6556
2026-01-20 10:03:10.74	352.19	31.20	-32.7	-38.4	8.9	2.57e-02	0	44	0	954204160	25	6870
2026-01-20 10:03:13.76	351.91	30.63	-32.7	-38.3	9.0	2.70e-02	0	44	0	960495616	25	6863
2026-01-20 10:03:16.76	351.63	30.08	-32.7	-38.1	9.1	2.30e-02	0	44	0	965738496	25	6743
2026-01-20 10:03:19.77	351.37	29.53	-32.6	-37.6	9.6	1.41e-02	0	44	0	970981376	25	6425
2026-01-20 10:03:22.77	351.11	28.99	-32.3	-36.8	10.1	8.66e-03	0	44	0	977272832	25	6050
2026-01-20 10:03:25.78	350.87	28.46	-32.4	-37.2	9.8	9.10e-03	0	44	0	982515712	25	6252
2026-01-20 10:03:28.79	350.63	27.94	-32.3	-36.6	10.2	6.28e-03	0	44	0	987758592	25	5960
2026-01-20 10:03:31.80	350.40	27.43	-32.2	-36.3	10.5	4.79e-03	0	44	0	994050048	25	5783
2026-01-20 10:03:34.81	350.18	26.92	-31.9	-35.5	11.0	2.31e-03	0	44	0	999292928	25	5442
2026-01-20 10:03:37.81	349.96	26.43	-31.5	-34.7	11.9	6.73e-04	0	44	0	1005584384	24	5214
2026-01-20 10:03:40.80	349.75	25.95	-31.5	-34.7	11.9	3.83e-04	0	44	0	1010827264	24	5193
2026-01-20 10:03:43.81	349.55	25.47	-31.6	-35.1	11.6	6.16e-04	0	44	0	1016070144	24	5384
2026-01-20 10:03:46.83	349.35	25.00	-31.9	-35.9	10.9	1.23e-03	0	44	0	1022361600	24	5724
2026-01-20 10:03:49.83	349.16	24.54	-31.4	-34.6	11.9	7.00e-04	0	44	0	1027604480	24	5171
2026-01-20 10:03:52.83	348.98	24.09	-31.2	-34.3	12.5	1.81e-04	0	44	0	1032847360	23	5150
2026-01-20 10:03:55.83	348.80	23.64	-31.1	-34.1	12.5	7.55e-05	0	44	0	1039138816	23	5073
2026-01-20 10:03:58.84	348.63	23.20	-30.8	-33.8	13.1	2.74e-05	0	44	0	1044381696	22	5084
2026-01-20 10:04:01.85	348.46	22.77	-30.8	-33.6	13.2	2.89e-05	0	44	0	1050673152	22	4998
2026-01-20 10:04:04.85	348.30	22.35	-30.8	-33.8	13.0	2.97e-05	0	44	0	1055916032	22	5081
2026-01-20 10:04:07.86	348.14	21.93	-30.8	-33.8	13.0	4.11e-05	0	44	0	1061158912	22	5096
2026-01-20 10:04:10.85	347.99	21.52	-30.9	-34.2	12.7	6.17e-05	0	44	0	1067450368	22	5227
2026-01-20 10:04:13.86	347.84	21.11	-30.9	-34.0	12.9	5.72e-05	0	44	0	1072693248	22	5136
2026-01-20 10:04:16.87	347.69	20.72	-30.9	-34.1	12.7	3.73e-05	0	44	0	1077936128	22	5215
2026-01-20 10:04:19.88	347.55	20.32	-30.9	-34.0	12.9	6.17e-05	0	44	0	1084227584	22	5152
2026-01-20 10:04:22.90	347.41	19.93	-31.1	-34.6	12.4	1.58e-04	0	44	0	1089470464	22	5418
2026-01-20 10:04:25.90	347.28	19.55	-31.1	-34.8	12.3	1.79e-04	0	44	0	1095761920	22	5493
2026-01-20 10:04:28.90	347.15	19.18	-31.1	-34.6	12.3	1.45e-04	0	44	0	1101004800	22	5419
2026-01-20 10:04:31.88	347.02	18.81	-31.1	-34.7	12.3	1.94e-04	0	44	0	1106247680	22	5456
2026-01-20 10:04:34.90	346.90	18.44	-31.3	-35.2	11.8	4.18e-04	0	44	0	1112539136	22	5682
2026-01-20 10:04:37.91	346.78	18.08	-31.3	-35.5	11.7	7.87e-04	0	44	0	1117782016	22	5806
2026-01-20 10:04:40.91	346.66	17.73	-31.7	-36.1	10.8	1.48e-03	0	44	0	1123024896	23	6005
2026-01-20 10:04:43.92	346.54	17.38	-32.0	-37.2	10.0	4.76e-03	0	44	0	1129316352	23	6550
2026-01-20 10:04:46.92	346.43	17.04	-31.4	-34.7	11.5	1.89e-03	0	44	0	1134559232	24	5272
2026-01-20 10:04:49.94	346.32	16.69	-31.5	-35.2	11.1	1.51e-03	0	44	0	1140850688	24	5492
2026-01-20 10:04:52.95	346.22	16.36	-31.5	-35.1	11.1	1.47e-03	0	44	0	1146093568	24	5434
2026-01-20 10:04:55.96	346.11	16.03	-31.6	-35.4	10.9	1.63e-03	0	44	0	1151336448	24	5582
2026-01-20 10:04:58.96	346.01	15.70	-31.8	-36.0	10.4	3.63e-03	0	44	0	1157627904	24	5883
2026-01-20 10:05:01.97	345.91	15.38	-31.9	-36.6	9.9	7.26e-03	0	44	0	1162870784	24	6178
2026-01-20 10:05:04.98	345.82	15.06	-32.0	-36.8	9.7	1.01e-02	0	44	0	1168113664	24	6292
2026-01-20 10:05:07.97	345.72	14.75	-31.9	-36.5	10.0	1.41e-02	0	44	0	1174405120	24	6121
2026-01-20 10:05:10.98	345.63	14.44	-31.6	-35.5	10.7	2.88e-03	0	44	0	1179648000	24	5644
2026-01-20 10:05:13.99	345.54	14.13	-31.7	-35.7	10.5	3.15e-03	0	44	0	1185939456	24	5744
2026-01-20 10:05:16.99	345.45	13.83	-31.7	-35.8	10.5	3.68e-03	0	44	0	1191182336	24	5765
2026-01-20 10:05:19.99	345.37	13.53	-31.6	-35.5	10.6	3.49e-03	0	44	0	1196425216	24	5662
2026-01-20 10:05:23.01	345.28	13.23	-31.5	-35.4	10.7	3.27e-03	0	44	0	1202716672	24	5628
2026-01-20 10:05:26.01	345.20	12.94	-31.5	-35.4	10.6	3.30e-03	0	44	0	1207959552	24	5633
2026-01-20 10:05:29.03	345.12	12.65	-31.5	-35.4	10.6	3.02e-03	0	44	0	1213202432	24	5623
2026-01-20 10:05:32.03	345.04	12.36	-31.5	-35.3	10.7	2.87e-03	0	44	0	1219493888	24	5581
2026-01-20 10:05:35.03	344.97	12.08	-31.4	-35.0	10.9	2.17e-03	0	44	0	1224736768	24	5470
2026-01-20 10:05:38.04	344.89	11.80	-31.5	-35.3	10.7	2.74e-03	0	44	0	1231028224	24	5594
2026-01-20 10:05:41.05	344.82	11.53	-31.4	-35.0	10.9	2.09e-03	0	44	0	1236271104	24	5438
2026-01-20 10:05:44.05	344.75	11.25	-31.4	-35.0	10.8	2.57e-03	0	44	0	1241513984	24	5481
2026-01-20 10:05:47.06	344.68	10.98	-31.6	-35.7	10.2	4.33e-03	0	44	0	1247805440	24	5790
2026-01-20 10:05:50.07	344.61	10.72	-31.5	-35.4	10.5	4.19e-03	0	44	0	1253048320	24	5665
2026-01-20 10:05:53.06	344.54	10.45	-31.6	-35.9	10.1	5.40e-03	0	44	0	1258291200	24	5909
2026-01-20 10:05:56.06	344.48	10.19	-31.6	-35.7	10.2	7.54e-03	0	44	0	1264582656	24	5790
2026-01-20 10:05:59.07	344.41	9.93	-31.6	-35.7	10.2	5.05e-03	0	44	0	1269825536	24	5790
2026-01-20 10:06:02.08	344.35	9.68	-31.5	-35.7	10.2	6.06e-03	0	44	0	1276116992	24	5811
2026-01-20 10:06:05.09	344.29	9.42	-31.7	-36.2	9.8	8.77e-03	0	44	0	1281359872	24	6057
2026-01-20 10:06:08.08	344.23	9.17	-31.6	-36.0	9.8	1.10e-02	0	44	0	1286602752	24	5978
2026-01-20 10:06:11.08	344.17	8.93	-31.7	-36.4	9.5	1.41e-02	0	45	0	1292894208	24	6190
2026-01-20 10:06:14.08	344.11	8.68	-31.8	-36.8	9.2	1.38e-02	0	44	0	1298137088	24	6402
2026-01-20 10:06:17.10	344.05	8.43	-31.8	-36.7	9.2	1.62e-02	0	44	0	1303379968	24	6357
2026-01-20 10:06:20.09	344.00	8.19	-31.7	-36.4	9.4	1.72e-02	0	44	0	1309671424	24	6185
2026-01-20 10:06:23.10	343.94	7.95	-31.8	-37.0	9.0	2.08e-02	0	44	0	1314914304	24	6517
2026-01-20 10:06:26.11	343.89	7.72	-31.9	-37.3	8.6	2.38e-02	0	44	0	1321205760	24	6725
2026-01-20 10:06:29.13	343.84	7.48	-31.8	-37.0	8.8	3.07e-02	0	44	0	1326448640	24	6567
2026-01-20 10:06:32.13	343.79	7.25	-31.8	-37.1	8.8	3.00e-02	0	44	0	1331691520	24	6600
2026-01-20 10:06:35.14	343.74	7.02	-33.5	-48.0	3.8	1.49e+00	0	44	104	1335885824	26	19185
2026-01-20 10:06:38.15	343.69	6.79	-34.1	-48.3	3.8	1.49e+00	0	44	104	1335885824	28	18499

#Closed at: 2026-01-20 10:06:38
#Recorded file [1335 MB]: D:/data/31010_260120_125441.dat