passes_logs/2026/01/20/R2M6_AANII_01/R2M6_AANII_01__20260120_040011_FENGYUN_3D_rec.log

#Pass ID: 20260120_040011_FENGYUN 3D
#Satellite: FENGYUN 3D
#Configuration: FENGYUN 3D
#almurnet v.1.7.20240730
#Start time: 2026-01-20 04:05:13

#Version: 2.2.20231116
#Station: R2M6_AANII_01
#Location: 30.233357 lon 59.946436 lat
#TLE: 1 43010U 17072A   26019.30265705  .00000224  00000+0  12791-3 0  9991
#TLE: 2 43010  98.9940 351.1850 0002428 100.8496 259.2953 14.19697535423864

#Time	Az	El	Level	Level2	SNR	BER	BlckErr	Temp	State	Recorded	gain1	gain2
2026-01-20 04:05:13.40	315.87	29.21	-34.2	-53.4	3.8	7.45e-01	0	44	0	0	29	32836
2026-01-20 04:05:15.39	315.20	29.24	-34.7	-45.9	3.8	8.46e-01	0	44	104	0	29	13091
2026-01-20 04:05:17.39	314.53	29.27	-34.6	-45.9	3.8	8.46e-01	0	44	104	0	29	13094
2026-01-20 04:05:19.40	313.86	29.29	-34.7	-45.9	3.8	8.45e-01	0	44	104	0	29	13122
2026-01-20 04:05:21.41	313.19	29.31	-34.6	-45.8	3.8	8.46e-01	0	44	104	0	29	13064
2026-01-20 04:05:23.42	312.51	29.33	-34.6	-45.7	3.8	8.46e-01	0	44	104	0	29	13025
2026-01-20 04:05:25.43	311.84	29.34	-34.5	-45.6	3.8	8.46e-01	0	44	104	0	29	12926
2026-01-20 04:05:27.44	311.16	29.35	-34.5	-45.6	3.8	8.46e-01	0	44	104	0	29	12919
2026-01-20 04:05:29.44	310.49	29.35	-34.5	-45.6	3.8	8.47e-01	0	44	104	0	29	12913
2026-01-20 04:05:31.46	309.81	29.35	-34.5	-45.6	3.8	8.45e-01	0	44	104	0	29	12891
2026-01-20 04:05:33.47	309.14	29.34	-34.5	-45.6	3.8	8.46e-01	0	44	104	0	29	12912
2026-01-20 04:05:35.48	308.46	29.33	-34.5	-45.6	3.8	8.45e-01	0	44	104	0	29	12918
2026-01-20 04:05:37.49	307.79	29.31	-34.4	-46.0	3.8	8.46e-01	0	44	104	0	28	13634
2026-01-20 04:05:39.50	307.11	29.29	-30.5	-43.6	3.8	8.46e-01	0	44	104	0	22	16094
2026-01-20 04:05:41.51	306.44	29.27	-34.4	-45.9	3.8	8.47e-01	0	44	104	0	28	13486
2026-01-20 04:05:43.51	305.77	29.24	-34.4	-45.8	3.8	8.46e-01	0	44	104	0	28	13397
2026-01-20 04:05:45.52	305.10	29.21	-34.3	-45.7	3.8	8.46e-01	0	44	104	0	28	13378
2026-01-20 04:05:47.53	304.43	29.17	-34.1	-45.1	3.8	8.44e-01	0	44	104	0	28	12697
2026-01-20 04:05:49.53	303.77	29.13	-34.1	-45.1	3.8	8.45e-01	0	44	104	0	28	12738
2026-01-20 04:05:51.53	303.10	29.08	-34.1	-45.3	3.8	8.47e-01	0	44	104	0	28	12991
2026-01-20 04:05:53.53	302.44	29.03	-34.0	-44.2	3.8	8.46e-01	0	44	104	0	28	11644
2026-01-20 04:05:55.53	301.78	28.98	-33.9	-43.2	3.8	8.46e-01	0	44	104	0	28	10462
2026-01-20 04:05:57.54	301.12	28.92	-33.9	-43.7	3.8	8.46e-01	0	44	104	0	28	11108
2026-01-20 04:05:59.55	300.47	28.86	-34.0	-44.2	3.8	8.46e-01	0	44	104	0	28	11604
2026-01-20 04:06:01.56	299.81	28.79	-34.1	-45.0	3.8	8.46e-01	0	45	104	0	28	12662
2026-01-20 04:06:03.56	299.16	28.72	-33.5	-40.4	4.4	8.40e-01	0	45	104	0	28	7929
2026-01-20 04:06:05.57	298.52	28.64	-32.1	-35.7	7.8	2.05e-01	0	45	0	3145728	25	5464
2026-01-20 04:06:07.56	297.88	28.57	-26.8	-27.6	15.8	0.00e+00	0	44	0	13631488	15	3907
2026-01-20 04:06:09.57	297.23	28.48	-26.3	-27.3	16.5	0.00e+00	0	44	0	25165824	13	4061
2026-01-20 04:06:11.57	296.60	28.40	-25.8	-26.9	17.0	0.00e+00	0	44	0	36700160	12	4058
2026-01-20 04:06:13.57	295.97	28.31	-25.8	-27.2	17.1	0.00e+00	0	45	0	47185920	11	4252
2026-01-20 04:06:15.58	295.33	28.22	-26.2	-27.3	16.5	0.00e+00	0	44	0	58720256	13	4055
2026-01-20 04:06:17.59	294.71	28.12	-24.8	-25.2	18.1	0.00e+00	0	44	0	70254592	11	3768
2026-01-20 04:06:19.61	294.08	28.02	-23.9	-24.3	19.1	0.00e+00	0	44	0	81788928	9	3770
2026-01-20 04:06:21.61	293.46	27.92	-23.1	-23.6	17.9	0.00e+00	0	44	0	93323264	8	3844
2026-01-20 04:06:23.62	292.85	27.81	-23.7	-24.8	19.2	0.00e+00	0	44	0	103809024	7	4101
2026-01-20 04:06:25.63	292.23	27.70	-23.5	-24.4	19.5	8.96e-04	0	44	0	115343360	7	3987
2026-01-20 04:06:27.64	291.63	27.59	-23.5	-24.5	19.5	0.00e+00	0	44	0	126877696	7	4018
2026-01-20 04:06:29.64	291.03	27.47	-23.6	-24.6	19.4	0.00e+00	0	44	0	138412032	7	4059
2026-01-20 04:06:31.65	290.43	27.35	-23.3	-24.1	19.7	0.00e+00	0	44	0	148897792	7	3929
2026-01-20 04:06:33.65	289.83	27.23	-23.6	-24.6	19.4	0.00e+00	0	44	0	160432128	7	4049
2026-01-20 04:06:35.65	289.25	27.10	-23.6	-24.7	19.4	0.00e+00	0	45	0	171966464	7	4064
2026-01-20 04:06:37.66	288.66	26.98	-23.7	-24.8	19.3	1.08e-03	0	45	0	183500800	7	4103
2026-01-20 04:06:39.66	288.08	26.85	-23.7	-24.8	19.3	8.15e-04	0	44	0	195035136	7	4087
2026-01-20 04:06:41.67	287.51	26.71	-23.8	-25.0	19.2	0.00e+00	0	44	0	205520896	7	4154
2026-01-20 04:06:43.67	286.94	26.58	-23.5	-24.4	19.5	0.00e+00	0	44	0	219152384	7	4005
2026-01-20 04:06:45.68	286.37	26.44	-23.5	-24.4	19.5	1.36e-03	0	45	0	229638144	7	3998
2026-01-20 04:06:47.69	285.81	26.30	-23.7	-24.9	19.3	2.86e-05	0	44	0	241172480	7	4117
2026-01-20 04:06:49.70	285.26	26.16	-23.6	-24.7	19.3	0.00e+00	0	44	0	252706816	7	4066
2026-01-20 04:06:51.71	284.71	26.01	-23.7	-24.9	19.2	0.00e+00	0	45	0	264241152	7	4136
2026-01-20 04:06:53.72	284.16	25.87	-23.7	-24.9	19.2	0.00e+00	0	44	0	274726912	7	4131
2026-01-20 04:06:55.73	283.62	25.72	-23.6	-24.7	19.3	0.00e+00	0	44	0	286261248	7	4075
2026-01-20 04:06:57.73	283.09	25.57	-23.8	-25.0	19.2	0.00e+00	0	44	0	297795584	7	4139
2026-01-20 04:06:59.74	282.56	25.41	-23.7	-24.8	19.2	0.00e+00	0	44	0	309329920	7	4094
2026-01-20 04:07:01.74	282.03	25.26	-23.8	-25.1	19.1	0.00e+00	0	44	0	319815680	7	4179
2026-01-20 04:07:03.73	281.52	25.11	-23.9	-25.3	19.0	0.00e+00	0	45	0	331350016	7	4219
2026-01-20 04:07:05.77	280.99	24.95	-23.8	-25.1	19.1	0.00e+00	0	44	0	342884352	7	4171
2026-01-20 04:07:07.78	280.48	24.79	-23.8	-25.1	19.0	0.00e+00	0	44	0	354418688	7	4178
2026-01-20 04:07:09.78	279.98	24.63	-23.7	-24.8	19.2	0.00e+00	0	44	0	365953024	7	4108
2026-01-20 04:07:11.78	279.48	24.47	-23.6	-24.7	19.3	0.00e+00	0	44	0	376438784	7	4076
2026-01-20 04:07:13.78	278.99	24.30	-23.3	-24.1	19.5	0.00e+00	0	45	0	387973120	7	3927
2026-01-20 04:07:15.79	278.50	24.14	-23.4	-24.3	19.4	0.00e+00	0	45	0	399507456	7	3980
2026-01-20 04:07:17.80	278.02	23.97	-23.8	-25.1	19.0	0.00e+00	0	44	0	411041792	7	4187
2026-01-20 04:07:19.81	277.54	23.81	-23.8	-25.0	19.1	0.00e+00	0	44	0	421527552	7	4149
2026-01-20 04:07:21.82	277.07	23.64	-23.6	-24.6	19.3	0.00e+00	0	44	0	433061888	7	4049
2026-01-20 04:07:23.84	276.59	23.47	-23.8	-25.0	19.1	0.00e+00	0	44	0	444596224	7	4144
2026-01-20 04:07:25.85	276.13	23.30	-23.7	-24.9	19.1	0.00e+00	0	44	0	456130560	7	4129
2026-01-20 04:07:27.85	275.67	23.13	-23.9	-25.2	18.9	0.00e+00	0	44	0	466616320	7	4213
2026-01-20 04:07:29.86	275.22	22.95	-23.8	-25.1	19.0	0.00e+00	0	44	0	478150656	7	4186
2026-01-20 04:07:31.87	274.77	22.78	-23.9	-25.3	18.9	0.00e+00	0	45	0	489684992	7	4231
2026-01-20 04:07:33.87	274.33	22.61	-23.5	-24.4	15.6	0.00e+00	0	45	0	501219328	8	3988
2026-01-20 04:07:35.89	273.89	22.44	-24.0	-25.0	15.8	0.00e+00	0	44	0	512753664	8	4051
2026-01-20 04:07:37.89	273.46	22.26	-24.2	-25.4	18.6	0.00e+00	0	44	0	523239424	8	4142
2026-01-20 04:07:39.89	273.03	22.09	-24.3	-25.5	18.5	1.20e-03	0	44	0	534773760	8	4171
2026-01-20 04:07:41.91	272.60	21.91	-24.4	-25.8	18.3	1.23e-03	0	45	0	546308096	8	4239
2026-01-20 04:07:43.92	272.19	21.73	-24.3	-25.7	18.4	0.00e+00	0	45	0	557842432	8	4203
2026-01-20 04:07:45.92	271.77	21.56	-24.3	-25.7	18.3	0.00e+00	0	44	0	569376768	8	4215
2026-01-20 04:07:47.93	271.36	21.38	-24.3	-25.5	18.5	0.00e+00	0	45	0	579862528	8	4170
2026-01-20 04:07:49.94	270.96	21.21	-24.4	-25.8	18.3	0.00e+00	0	45	0	591396864	8	4238
2026-01-20 04:07:51.95	270.56	21.03	-24.4	-25.9	18.3	6.26e-04	0	44	0	602931200	8	4264
2026-01-20 04:07:53.95	270.16	20.85	-24.3	-25.7	18.4	7.44e-04	0	44	0	614465536	8	4202
2026-01-20 04:07:55.97	269.77	20.67	-24.5	-25.6	18.1	0.00e+00	0	44	0	624951296	9	4081
2026-01-20 04:07:57.97	269.39	20.50	-24.5	-25.5	18.2	8.66e-04	0	45	0	636485632	9	4059
2026-01-20 04:07:59.98	269.00	20.32	-24.6	-25.8	18.1	1.27e-03	0	44	0	648019968	9	4118
2026-01-20 04:08:01.98	268.63	20.14	-24.7	-25.9	17.9	0.00e+00	0	45	0	659554304	9	4167
2026-01-20 04:08:03.98	268.26	19.96	-24.6	-25.8	18.0	1.65e-03	0	45	0	670040064	9	4131
2026-01-20 04:08:05.99	267.89	19.79	-24.5	-25.5	18.1	1.70e-03	0	44	0	681574400	9	4063
2026-01-20 04:08:08.00	267.52	19.61	-24.6	-25.7	18.0	3.43e-04	0	44	0	693108736	9	4106
2026-01-20 04:08:10.01	267.16	19.43	-24.4	-25.3	18.3	1.59e-03	0	45	0	704643072	9	3997
2026-01-20 04:08:12.03	266.80	19.25	-24.6	-25.7	18.0	1.61e-03	0	44	0	716177408	9	4102
2026-01-20 04:08:14.05	266.45	19.07	-24.6	-25.9	17.9	0.00e+00	0	44	0	726663168	9	4146
2026-01-20 04:08:16.05	266.10	18.89	-24.8	-26.2	17.8	0.00e+00	0	44	0	738197504	9	4229
2026-01-20 04:08:18.05	265.76	18.72	-24.8	-26.2	17.8	0.00e+00	0	44	0	749731840	9	4225
2026-01-20 04:08:20.06	265.42	18.54	-25.0	-26.1	17.6	1.10e-06	0	45	0	761266176	10	4084
2026-01-20 04:08:22.06	265.09	18.37	-24.9	-25.9	17.7	9.14e-04	0	44	0	771751936	10	4048
2026-01-20 04:08:24.07	264.76	18.19	-25.0	-26.6	17.6	6.16e-04	0	44	0	783286272	9	4331
2026-01-20 04:08:26.07	264.43	18.01	-25.1	-26.4	17.4	0.00e+00	0	45	0	794820608	10	4182
2026-01-20 04:08:28.07	264.11	17.84	-25.2	-26.5	17.3	0.00e+00	0	44	0	806354944	10	4196
2026-01-20 04:08:30.07	263.79	17.66	-25.1	-26.4	17.4	0.00e+00	0	44	0	816840704	10	4169
2026-01-20 04:08:32.09	263.47	17.49	-25.2	-26.6	17.3	1.10e-06	0	44	0	828375040	10	4214
2026-01-20 04:08:34.09	263.16	17.31	-25.4	-26.9	17.1	0.00e+00	0	44	0	839909376	10	4302
2026-01-20 04:08:36.10	262.85	17.14	-25.2	-26.6	17.3	0.00e+00	0	44	0	851443712	10	4212
2026-01-20 04:08:38.09	262.55	16.96	-25.2	-26.6	17.2	3.40e-06	0	45	0	861929472	10	4229
2026-01-20 04:08:40.10	262.24	16.79	-25.2	-26.7	17.2	0.00e+00	0	45	0	873463808	10	4244
2026-01-20 04:08:42.11	261.94	16.62	-25.4	-27.1	16.9	0.00e+00	0	44	0	884998144	10	4365
2026-01-20 04:08:44.12	261.65	16.44	-25.8	-27.3	16.5	4.50e-06	0	44	0	896532480	11	4314
2026-01-20 04:08:46.12	261.36	16.27	-25.5	-26.7	16.9	0.00e+00	0	44	0	907018240	11	4152
2026-01-20 04:08:48.12	261.07	16.10	-25.6	-26.9	16.8	0.00e+00	0	44	0	918552576	11	4186
2026-01-20 04:08:50.13	260.79	15.93	-25.6	-26.9	16.8	0.00e+00	0	44	0	930086912	11	4193
2026-01-20 04:08:52.14	260.51	15.76	-25.5	-26.8	16.8	0.00e+00	0	45	0	941621248	11	4171
2026-01-20 04:08:54.14	260.23	15.59	-25.6	-27.0	16.7	0.00e+00	0	44	0	952107008	11	4224
2026-01-20 04:08:56.14	259.95	15.42	-25.7	-27.2	16.6	0.00e+00	0	44	0	963641344	11	4267
2026-01-20 04:08:58.16	259.68	15.25	-25.7	-27.1	16.6	1.10e-06	0	44	0	975175680	11	4247
2026-01-20 04:09:00.17	259.41	15.08	-25.8	-27.3	16.5	0.00e+00	0	45	0	986710016	11	4308
2026-01-20 04:09:02.17	259.15	14.91	-25.9	-27.7	16.3	0.00e+00	0	44	0	998244352	11	4401
2026-01-20 04:09:04.19	258.88	14.74	-26.0	-27.4	16.1	0.00e+00	0	44	0	1008730112	12	4217
2026-01-20 04:09:06.20	258.62	14.57	-25.9	-27.1	16.2	0.00e+00	0	45	0	1020264448	12	4133
2026-01-20 04:09:08.20	258.37	14.41	-26.0	-27.8	16.2	0.00e+00	0	45	0	1031798784	11	4424
2026-01-20 04:09:10.21	258.11	14.24	-26.1	-27.5	16.0	0.00e+00	0	45	0	1043333120	12	4236
2026-01-20 04:09:12.21	257.86	14.08	-25.9	-27.2	16.1	0.00e+00	0	45	0	1053818880	12	4166
2026-01-20 04:09:14.21	257.62	13.91	-26.0	-27.7	16.1	0.00e+00	0	44	0	1065353216	11	4414
2026-01-20 04:09:16.22	257.37	13.75	-26.1	-27.6	15.9	0.00e+00	0	44	0	1076887552	12	4265
2026-01-20 04:09:18.24	257.13	13.58	-25.8	-27.6	12.3	0.00e+00	0	45	0	1088421888	11	4429
2026-01-20 04:09:20.24	256.89	13.42	-26.0	-27.4	14.6	0.00e+00	0	44	0	1098907648	12	4223
2026-01-20 04:09:22.25	256.65	13.26	-26.1	-27.5	15.9	0.00e+00	0	45	0	1110441984	12	4236
2026-01-20 04:09:24.25	256.42	13.10	-26.1	-27.6	15.9	0.00e+00	0	44	0	1121976320	12	4259
2026-01-20 04:09:26.27	256.18	12.93	-26.2	-27.9	15.7	2.61e-03	0	45	0	1133510656	12	4348
2026-01-20 04:09:28.27	255.95	12.77	-26.5	-28.5	15.3	7.98e-04	0	44	0	1145044992	12	4517
2026-01-20 04:09:30.28	255.73	12.61	-26.5	-28.1	15.3	2.18e-03	0	44	0	1155530752	13	4291
2026-01-20 04:09:32.29	255.50	12.45	-26.8	-28.7	14.9	1.10e-06	0	45	0	1167065088	13	4480
2026-01-20 04:09:34.29	255.28	12.29	-26.3	-28.1	15.5	0.00e+00	0	44	0	1178599424	12	4397
2026-01-20 04:09:36.30	255.06	12.14	-26.5	-28.4	15.3	0.00e+00	0	44	0	1190133760	12	4505
2026-01-20 04:09:38.29	254.85	11.98	-26.5	-28.0	15.3	1.69e-03	0	45	0	1200619520	13	4286
2026-01-20 04:09:40.29	254.63	11.82	-26.6	-28.3	15.1	2.76e-04	0	44	0	1212153856	13	4349
2026-01-20 04:09:42.30	254.42	11.67	-26.7	-28.4	15.0	2.92e-03	0	44	0	1223688192	13	4396
2026-01-20 04:09:44.32	254.21	11.51	-26.5	-27.9	15.3	3.04e-03	0	45	0	1235222528	13	4260
2026-01-20 04:09:46.33	254.00	11.35	-26.5	-28.0	15.2	8.06e-04	0	45	0	1245708288	13	4280
2026-01-20 04:09:48.34	253.79	11.20	-26.6	-28.3	15.0	2.57e-03	0	44	0	1257242624	13	4364
2026-01-20 04:09:50.35	253.59	11.04	-26.8	-28.6	14.9	0.00e+00	0	45	0	1268776960	13	4438
2026-01-20 04:09:52.36	253.39	10.89	-26.7	-28.4	15.0	9.60e-04	0	45	0	1280311296	13	4382
2026-01-20 04:09:54.35	253.19	10.74	-26.7	-28.5	14.9	3.24e-03	0	45	0	1291845632	13	4411
2026-01-20 04:09:56.37	252.99	10.59	-26.7	-28.6	14.9	3.33e-03	0	45	0	1302331392	13	4437
2026-01-20 04:09:58.37	252.80	10.43	-26.8	-28.6	14.8	1.11e-03	0	44	0	1313865728	13	4450
2026-01-20 04:10:00.41	252.60	10.28	-26.7	-28.6	14.8	3.58e-04	0	45	0	1325400064	13	4437
2026-01-20 04:10:02.43	252.41	10.13	-26.8	-28.7	14.8	1.10e-06	0	45	0	1336934400	13	4470
2026-01-20 04:10:04.42	252.23	9.98	-26.8	-28.6	14.8	1.10e-06	0	45	0	1347420160	13	4452
2026-01-20 04:10:06.43	252.04	9.83	-26.8	-28.7	14.7	1.10e-06	0	45	0	1358954496	13	4475
2026-01-20 04:10:08.44	251.85	9.68	-27.0	-28.6	14.5	0.00e+00	0	45	0	1370488832	14	4325
2026-01-20 04:10:10.44	251.67	9.54	-26.9	-28.9	14.6	1.34e-03	0	45	0	1382023168	13	4539
2026-01-20 04:10:12.46	251.49	9.39	-27.0	-28.7	14.5	1.10e-06	0	45	0	1393557504	14	4362
2026-01-20 04:10:14.46	251.31	9.24	-27.0	-29.1	14.5	3.40e-06	0	45	0	1404043264	13	4593
2026-01-20 04:10:16.47	251.13	9.09	-27.0	-28.6	14.5	1.10e-06	0	44	0	1415577600	14	4345
2026-01-20 04:10:18.47	250.96	8.95	-27.0	-28.8	14.4	3.40e-06	0	44	0	1427111936	14	4388
2026-01-20 04:10:20.48	250.78	8.80	-27.0	-28.7	14.4	2.20e-06	0	45	0	1438646272	14	4367
2026-01-20 04:10:22.49	250.61	8.66	-27.0	-28.6	14.4	0.00e+00	0	45	0	1449132032	14	4345
2026-01-20 04:10:24.50	250.44	8.51	-27.0	-28.7	14.4	1.10e-06	0	45	0	1460666368	14	4369
2026-01-20 04:10:26.49	250.27	8.37	-27.1	-28.9	14.2	3.40e-06	0	45	0	1472200704	14	4431
2026-01-20 04:10:28.50	250.11	8.23	-27.1	-28.8	14.3	3.40e-06	0	45	0	1483735040	14	4407
2026-01-20 04:10:30.51	249.94	8.09	-27.2	-29.1	14.1	1.10e-06	0	45	0	1494220800	14	4481
2026-01-20 04:10:32.53	249.78	7.94	-27.2	-29.1	14.1	2.20e-06	0	45	0	1505755136	14	4492
2026-01-20 04:10:34.53	249.62	7.80	-27.3	-29.4	13.9	3.40e-06	0	45	0	1517289472	14	4568
2026-01-20 04:10:36.54	249.46	7.66	-27.3	-29.5	13.8	6.80e-06	0	45	0	1528823808	14	4605
2026-01-20 04:10:38.53	249.30	7.52	-27.3	-29.4	13.9	3.40e-06	0	45	0	1539309568	14	4576
2026-01-20 04:10:40.54	249.14	7.39	-27.3	-29.4	13.9	4.50e-06	0	45	0	1550843904	14	4575
2026-01-20 04:10:42.55	248.99	7.25	-27.5	-29.3	13.6	9.10e-06	0	45	0	1562378240	15	4441
2026-01-20 04:10:44.56	248.83	7.11	-27.3	-29.4	13.9	8.00e-06	0	45	0	1573912576	14	4565
2026-01-20 04:10:46.56	248.68	6.97	-33.6	-44.7	3.8	8.46e-01	0	45	104	1577058304	27	12972

#Closed at: 2026-01-20 04:10:47
#Recorded file [1577 MB]: D:/data/31010_260120_070604.dat