passes_logs/2026/01/20/R2M6_AANII_01/R2M6_AANII_01__20260120_081619_NOAA_20_JPSS-1_rec.log

#Pass ID: 20260120_081619_NOAA 20 (JPSS-1)
#Satellite: NOAA 20 (JPSS-1)
#Configuration: NOAA 20
#almurnet v.1.7.20240730
#Start time: 2026-01-20 08:16:21

#Version: 2.2.20231116
#Station: R2M6_AANII_01
#Location: 30.233357 lon 59.946436 lat
#TLE: 1 43013U 17073A   26019.55911981  .00000079  00000+0  58510-4 0  9994
#TLE: 2 43013  98.7641 320.4504 0001323  32.6518 327.4739 14.19537050423380

#Time	Az	El	Level	Level2	SNR	BER	BlckErr	Temp	State	Recorded	gain1	gain2
2026-01-20 08:16:21.46	96.48	7.10	-31.3	-45.2	3.8	1.49e+00	0	42	0	0	23	17864
2026-01-20 08:16:24.47	96.19	7.29	-31.0	-44.6	3.8	1.49e+00	0	42	104	0	23	17227
2026-01-20 08:16:27.49	95.89	7.47	-31.0	-44.6	3.8	1.49e+00	0	42	104	0	23	17286
2026-01-20 08:16:30.49	95.58	7.66	-31.1	-44.8	3.8	1.49e+00	0	42	104	0	23	17471
2026-01-20 08:16:33.51	95.28	7.85	-31.3	-45.1	3.8	1.49e+00	0	42	104	0	23	17782
2026-01-20 08:16:36.53	94.96	8.04	-31.3	-45.2	3.8	1.49e+00	0	42	104	0	23	17875
2026-01-20 08:16:39.54	94.65	8.23	-31.4	-45.4	3.8	1.49e+00	0	42	104	0	23	17970
2026-01-20 08:16:42.55	94.33	8.43	-31.6	-45.6	3.8	1.49e+00	0	42	104	0	23	18169
2026-01-20 08:16:45.56	94.01	8.62	-31.7	-45.4	3.8	1.49e+00	0	42	104	0	23	17432
2026-01-20 08:16:48.56	93.68	8.81	-31.8	-45.2	3.8	1.49e+00	0	42	104	0	23	16797
2026-01-20 08:16:51.57	93.35	9.00	-31.8	-42.5	4.0	1.37e+00	0	43	104	0	23	12424
2026-01-20 08:16:54.57	93.01	9.20	-32.1	-42.5	4.4	1.34e+00	0	42	0	0	24	11921
2026-01-20 08:16:57.58	92.67	9.39	-32.0	-39.5	6.4	2.37e-01	0	42	0	6291456	24	8478
2026-01-20 08:17:00.59	92.32	9.58	-32.1	-38.9	7.0	2.05e-01	0	43	0	11534336	24	7937
2026-01-20 08:17:03.59	91.97	9.78	-32.2	-39.4	6.8	1.74e-01	0	43	0	16777216	24	8243
2026-01-20 08:17:06.59	91.62	9.97	-32.2	-39.2	7.1	1.18e-01	0	43	0	23068672	24	8008
2026-01-20 08:17:09.61	91.25	10.17	-31.9	-37.3	8.7	4.14e-02	0	43	0	28311552	24	6734
2026-01-20 08:17:12.62	90.89	10.37	-31.3	-35.1	10.5	5.25e-03	0	43	0	33554432	24	5557
2026-01-20 08:17:15.62	90.52	10.56	-31.4	-35.7	10.4	4.52e-03	0	43	0	39845888	23	5951
2026-01-20 08:17:18.62	90.14	10.76	-31.3	-35.5	10.7	3.51e-03	0	43	0	45088768	23	5827
2026-01-20 08:17:21.62	89.76	10.96	-31.2	-35.1	10.9	3.15e-03	0	43	0	51380224	23	5653
2026-01-20 08:17:24.64	89.37	11.16	-31.3	-35.5	10.7	2.36e-03	0	43	0	56623104	23	5819
2026-01-20 08:17:27.65	88.98	11.36	-31.3	-35.4	10.8	3.65e-03	0	43	0	61865984	23	5746
2026-01-20 08:17:30.65	88.59	11.55	-31.2	-34.9	11.2	1.30e-03	0	43	0	68157440	23	5526
2026-01-20 08:17:33.65	88.19	11.75	-31.1	-34.8	11.3	1.14e-03	0	43	0	73400320	23	5461
2026-01-20 08:17:36.66	87.78	11.95	-31.2	-34.8	11.3	9.64e-04	0	43	0	79691776	23	5468
2026-01-20 08:17:39.66	87.36	12.15	-31.2	-35.0	11.2	1.20e-03	0	43	0	84934656	23	5547
2026-01-20 08:17:42.67	86.94	12.35	-31.4	-35.5	10.8	2.70e-03	0	43	0	90177536	23	5792
2026-01-20 08:17:45.69	86.52	12.55	-31.3	-35.2	11.0	2.05e-03	0	43	0	96468992	23	5670
2026-01-20 08:17:48.69	86.09	12.75	-31.5	-35.9	10.6	1.79e-03	0	43	0	101711872	23	5960
2026-01-20 08:17:51.69	85.65	12.95	-31.3	-35.1	11.2	1.29e-03	0	43	0	106954752	23	5587
2026-01-20 08:17:54.70	85.21	13.15	-31.4	-35.5	10.9	1.75e-03	0	43	0	113246208	23	5786
2026-01-20 08:17:57.70	84.76	13.35	-31.4	-35.3	11.1	1.54e-03	0	44	0	118489088	23	5696
2026-01-20 08:18:00.70	84.30	13.54	-31.4	-35.5	11.0	2.19e-03	0	43	0	123731968	23	5749
2026-01-20 08:18:03.69	83.85	13.74	-31.5	-35.8	10.8	3.29e-03	0	44	0	130023424	23	5923
2026-01-20 08:18:06.69	83.38	13.94	-31.5	-35.8	10.7	2.36e-03	0	44	0	135266304	23	5926
2026-01-20 08:18:09.69	82.91	14.14	-31.5	-35.9	10.7	3.11e-03	0	44	0	141557760	23	5980
2026-01-20 08:18:12.69	82.43	14.34	-31.7	-36.4	10.4	5.19e-03	0	44	0	146800640	23	6201
2026-01-20 08:18:15.71	81.94	14.53	-31.7	-36.4	10.4	5.38e-03	0	44	0	152043520	23	6165
2026-01-20 08:18:18.72	81.44	14.73	-31.8	-36.7	10.2	5.22e-03	0	44	0	158334976	23	6331
2026-01-20 08:18:21.72	80.94	14.93	-31.6	-36.1	10.6	3.01e-03	0	44	0	163577856	23	6052
2026-01-20 08:18:24.73	80.44	15.12	-31.7	-36.3	10.4	3.86e-03	0	44	0	168820736	23	6162
2026-01-20 08:18:27.72	79.92	15.32	-31.9	-37.0	10.0	6.96e-03	0	44	0	175112192	23	6482
2026-01-20 08:18:30.73	79.40	15.51	-31.4	-35.3	11.2	1.67e-03	0	44	0	180355072	23	5668
2026-01-20 08:18:33.75	78.87	15.71	-31.2	-34.6	11.8	6.49e-04	0	44	0	186646528	23	5327
2026-01-20 08:18:36.77	78.34	15.90	-31.1	-34.3	12.0	3.71e-04	0	44	0	191889408	23	5212
2026-01-20 08:18:39.79	77.79	16.09	-31.0	-34.2	12.1	2.25e-04	0	44	0	197132288	23	5202
2026-01-20 08:18:42.79	77.25	16.28	-31.0	-34.2	12.1	2.76e-04	0	44	0	203423744	23	5186
2026-01-20 08:18:45.80	76.69	16.47	-30.9	-33.7	12.4	1.49e-04	0	44	0	208666624	23	4992
2026-01-20 08:18:48.81	76.13	16.66	-30.7	-33.7	12.8	5.56e-05	0	44	0	214958080	22	5093
2026-01-20 08:18:51.82	75.56	16.85	-30.7	-33.7	12.8	4.57e-05	0	44	0	220200960	22	5084
2026-01-20 08:18:54.83	74.98	17.03	-30.5	-33.0	13.3	2.21e-05	0	44	0	225443840	22	4827
2026-01-20 08:18:57.84	74.39	17.21	-30.2	-32.9	13.7	7.60e-06	0	44	0	231735296	21	4892
2026-01-20 08:19:00.85	73.80	17.39	-30.2	-32.7	13.8	3.00e-06	0	44	0	236978176	21	4837
2026-01-20 08:19:03.86	73.20	17.57	-30.3	-33.0	13.6	2.20e-06	0	44	0	242221056	21	4937
2026-01-20 08:19:06.87	72.60	17.75	-30.2	-32.7	13.8	3.00e-06	0	44	0	248512512	21	4828
2026-01-20 08:19:09.89	71.98	17.93	-30.1	-32.6	13.9	2.20e-06	0	44	0	253755392	21	4770
2026-01-20 08:19:12.89	71.36	18.10	-30.1	-32.4	14.1	3.00e-06	0	44	0	260046848	21	4706
2026-01-20 08:19:15.90	70.74	18.27	-30.3	-32.9	13.8	1.50e-06	0	44	0	265289728	21	4893
2026-01-20 08:19:18.91	70.10	18.44	-30.3	-33.1	13.6	1.22e-05	0	44	0	270532608	21	4945
2026-01-20 08:19:21.92	69.46	18.61	-30.5	-33.5	13.4	1.06e-05	0	44	0	276824064	21	5111
2026-01-20 08:19:24.93	68.81	18.77	-30.5	-33.6	13.3	1.60e-05	0	44	0	282066944	21	5134
2026-01-20 08:19:27.94	68.16	18.93	-30.4	-33.4	13.5	1.14e-05	0	44	0	287309824	21	5047
2026-01-20 08:19:30.93	67.50	19.09	-30.2	-32.7	14.0	5.30e-06	0	44	0	293601280	21	4798
2026-01-20 08:19:33.94	66.83	19.24	-30.0	-32.3	14.2	7.00e-07	0	44	0	298844160	21	4666
2026-01-20 08:19:36.95	66.15	19.39	-29.9	-31.8	14.5	0.00e+00	0	44	0	305135616	21	4504
2026-01-20 08:19:39.96	65.47	19.54	-29.8	-32.0	14.7	0.00e+00	0	44	0	310378496	20	4676
2026-01-20 08:19:42.96	64.78	19.69	-29.7	-31.8	14.8	1.50e-06	0	44	0	315621376	20	4613
2026-01-20 08:19:45.97	64.09	19.83	-29.7	-31.9	14.8	7.00e-07	0	44	0	321912832	20	4636
2026-01-20 08:19:48.98	63.38	19.97	-29.6	-31.6	15.0	0.00e+00	0	44	0	327155712	20	4543
2026-01-20 08:19:51.99	62.68	20.10	-29.5	-31.5	15.1	0.00e+00	0	44	0	332398592	20	4506
2026-01-20 08:19:55.00	61.96	20.23	-29.7	-31.8	15.0	0.00e+00	0	44	0	338690048	20	4591
2026-01-20 08:19:58.01	61.24	20.35	-29.7	-31.7	14.9	0.00e+00	0	44	0	343932928	20	4581
2026-01-20 08:20:01.01	60.52	20.48	-30.0	-32.5	14.5	0.00e+00	0	44	0	350224384	20	4829
2026-01-20 08:20:04.02	59.78	20.59	-29.6	-31.7	15.0	0.00e+00	0	44	0	355467264	20	4559
2026-01-20 08:20:07.02	59.05	20.70	-29.9	-32.3	14.6	0.00e+00	0	44	0	360710144	20	4769
2026-01-20 08:20:10.01	58.31	20.81	-29.8	-32.1	14.8	0.00e+00	0	44	0	367001600	20	4678
2026-01-20 08:20:13.02	57.56	20.92	-30.1	-32.9	14.2	0.00e+00	0	44	0	372244480	20	4969
2026-01-20 08:20:16.02	56.81	21.01	-30.2	-33.1	14.1	1.50e-06	0	44	0	377487360	20	5044
2026-01-20 08:20:19.03	56.05	21.11	-30.3	-33.4	14.0	4.50e-06	0	44	0	383778816	20	5145
2026-01-20 08:20:22.05	55.29	21.20	-30.5	-33.5	13.5	1.06e-05	0	44	0	389021696	21	5090
2026-01-20 08:20:25.06	54.52	21.28	-30.4	-33.2	13.7	4.50e-06	0	44	0	395313152	21	4961
2026-01-20 08:20:28.07	53.75	21.36	-30.7	-33.9	13.2	2.44e-05	0	44	0	400556032	21	5235
2026-01-20 08:20:31.07	52.98	21.43	-30.9	-34.5	12.9	2.97e-05	0	44	0	405798912	21	5449
2026-01-20 08:20:34.08	52.20	21.50	-31.2	-34.9	12.3	2.13e-04	0	44	0	412090368	22	5520
2026-01-20 08:20:37.09	51.42	21.56	-31.2	-34.8	12.4	1.50e-04	0	44	0	417333248	22	5480
2026-01-20 08:20:40.10	50.64	21.62	-31.3	-35.2	12.1	2.43e-04	0	44	0	422576128	22	5634
2026-01-20 08:20:43.10	49.85	21.67	-30.8	-33.8	13.0	3.58e-05	0	44	0	428867584	22	5088
2026-01-20 08:20:46.11	49.07	21.72	-30.8	-33.9	12.9	4.34e-05	0	44	0	434110464	22	5139
2026-01-20 08:20:49.13	48.27	21.76	-31.0	-34.3	12.7	6.79e-05	0	44	0	440401920	22	5265
2026-01-20 08:20:52.14	47.48	21.79	-31.0	-34.3	12.7	8.62e-05	0	44	0	445644800	22	5264
2026-01-20 08:20:55.14	46.69	21.82	-31.0	-34.3	12.7	7.55e-05	0	44	0	450887680	22	5281
2026-01-20 08:20:58.15	45.89	21.84	-31.0	-34.3	12.6	9.53e-05	0	44	0	457179136	22	5275
2026-01-20 08:21:01.15	45.10	21.86	-30.8	-33.7	13.2	2.13e-05	0	44	0	462422016	22	5026
2026-01-20 08:21:04.16	44.30	21.87	-30.7	-33.6	13.2	2.82e-05	0	44	0	467664896	22	5003
2026-01-20 08:21:07.17	43.50	21.87	-30.7	-33.5	13.2	2.74e-05	0	44	0	473956352	22	4979
2026-01-20 08:21:10.17	42.71	21.87	-30.5	-33.0	13.6	8.30e-06	0	44	0	479199232	22	4784
2026-01-20 08:21:13.18	41.91	21.86	-30.2	-32.6	14.1	3.80e-06	0	44	0	485490688	21	4750
2026-01-20 08:21:16.18	41.11	21.85	-30.1	-32.4	14.2	1.50e-06	0	44	0	490733568	21	4696
2026-01-20 08:21:19.20	40.31	21.83	-30.1	-32.5	14.1	7.00e-07	0	44	0	495976448	21	4741
2026-01-20 08:21:22.20	39.52	21.81	-29.8	-31.8	14.6	7.00e-07	0	44	0	502267904	21	4502
2026-01-20 08:21:25.22	38.73	21.78	-29.6	-31.6	15.0	0.00e+00	0	44	0	507510784	20	4541
2026-01-20 08:21:28.22	37.94	21.74	-29.4	-31.1	15.3	0.00e+00	0	44	0	513802240	20	4399
2026-01-20 08:21:31.22	37.15	21.70	-29.4	-31.0	15.3	7.00e-07	0	44	0	519045120	20	4368
2026-01-20 08:21:34.23	36.36	21.65	-29.4	-31.2	15.2	7.00e-07	0	44	0	524288000	20	4427
2026-01-20 08:21:37.24	35.58	21.60	-29.7	-31.8	14.8	7.00e-07	0	44	0	530579456	20	4611
2026-01-20 08:21:40.26	34.79	21.54	-29.1	-30.9	15.7	0.00e+00	0	44	0	535822336	19	4412
2026-01-20 08:21:43.26	34.02	21.47	-29.4	-31.6	15.3	0.00e+00	0	44	0	541065216	19	4636
2026-01-20 08:21:46.27	33.24	21.40	-29.3	-31.3	15.5	0.00e+00	0	44	0	547356672	19	4556
2026-01-20 08:21:49.27	32.47	21.33	-29.3	-31.4	15.5	0.00e+00	0	44	0	552599552	19	4570
2026-01-20 08:21:52.27	31.71	21.25	-29.6	-32.1	15.0	0.00e+00	0	44	0	558891008	19	4811
2026-01-20 08:21:55.29	30.94	21.16	-29.9	-32.9	14.5	0.00e+00	0	44	0	564133888	19	5086
2026-01-20 08:21:58.30	30.18	21.07	-29.9	-32.8	14.6	7.00e-07	0	44	0	569376768	19	5050
2026-01-20 08:22:01.31	29.43	20.97	-30.0	-32.8	14.2	0.00e+00	0	44	0	575668224	20	4928
2026-01-20 08:22:04.32	28.68	20.87	-30.1	-33.0	14.1	7.00e-07	0	44	0	580911104	20	5013
2026-01-20 08:22:07.34	27.93	20.77	-30.2	-33.3	13.9	4.50e-06	0	44	0	586153984	20	5119
2026-01-20 08:22:10.35	27.19	20.66	-30.4	-33.7	13.6	1.29e-05	0	44	0	592445440	20	5292
2026-01-20 08:22:13.35	26.46	20.54	-30.4	-33.3	13.5	1.14e-05	0	44	0	597688320	21	5017
2026-01-20 08:22:16.37	25.73	20.43	-30.4	-33.2	13.6	1.37e-05	0	44	0	603979776	21	4988
2026-01-20 08:22:19.38	25.01	20.30	-30.5	-33.7	13.3	1.52e-05	0	44	0	609222656	21	5154
2026-01-20 08:22:22.39	24.29	20.18	-30.6	-34.0	13.1	2.13e-05	0	44	0	614465536	21	5272
2026-01-20 08:22:25.40	23.58	20.04	-30.8	-34.2	12.9	4.50e-05	0	44	0	620756992	21	5379
2026-01-20 08:22:28.41	22.88	19.91	-30.5	-33.5	13.4	1.22e-05	0	44	0	625999872	21	5099
2026-01-20 08:22:31.42	22.18	19.77	-30.5	-33.5	13.4	1.14e-05	0	44	0	632291328	21	5088
2026-01-20 08:22:34.43	21.49	19.63	-30.8	-34.5	12.7	6.56e-05	0	44	0	637534208	21	5490
2026-01-20 08:22:37.43	20.81	19.48	-30.9	-34.5	12.7	1.27e-04	0	44	0	642777088	21	5487
2026-01-20 08:22:40.43	20.13	19.33	-30.7	-34.0	13.0	1.98e-05	0	44	0	649068544	21	5302
2026-01-20 08:22:43.44	19.46	19.18	-30.7	-34.2	12.9	3.58e-05	0	44	0	654311424	21	5341
2026-01-20 08:22:46.45	18.80	19.03	-30.9	-34.7	12.6	9.53e-05	0	44	0	659554304	21	5558
2026-01-20 08:22:49.46	18.14	18.87	-31.2	-35.1	11.9	3.23e-04	0	44	0	665845760	22	5647
2026-01-20 08:22:52.48	17.49	18.71	-31.2	-35.1	12.0	2.58e-04	0	44	0	671088640	22	5643
2026-01-20 08:22:55.48	16.85	18.54	-31.3	-35.2	11.8	5.20e-04	0	44	0	677380096	22	5697
2026-01-20 08:22:58.47	16.21	18.38	-31.2	-35.1	11.9	3.68e-04	0	44	0	682622976	22	5624
2026-01-20 08:23:01.49	15.58	18.21	-30.6	-33.3	13.2	5.87e-05	0	44	0	687865856	22	4911
2026-01-20 08:23:04.50	14.96	18.04	-30.5	-33.1	13.3	1.44e-05	0	44	0	694157312	22	4836
2026-01-20 08:23:07.51	14.35	17.86	-30.5	-33.0	13.4	9.90e-06	0	44	0	699400192	22	4803
2026-01-20 08:23:10.51	13.74	17.69	-30.3	-32.6	13.6	8.30e-06	0	44	0	704643072	22	4684
2026-01-20 08:23:13.52	13.14	17.51	-30.5	-33.1	13.3	2.59e-05	0	44	0	710934528	22	4837
2026-01-20 08:23:16.53	12.55	17.33	-30.7	-33.6	12.9	5.49e-05	0	44	0	716177408	22	5042
2026-01-20 08:23:19.54	11.96	17.15	-30.6	-33.4	13.1	2.82e-05	0	44	0	722468864	22	4956
2026-01-20 08:23:22.55	11.38	16.96	-30.8	-33.9	12.7	1.02e-04	0	44	0	727711744	22	5144
2026-01-20 08:23:25.56	10.81	16.78	-30.6	-33.5	13.0	4.11e-05	0	44	0	732954624	22	4981
2026-01-20 08:23:28.57	10.25	16.59	-30.8	-33.9	12.7	7.09e-05	0	44	0	739246080	22	5133
2026-01-20 08:23:31.58	9.69	16.40	-30.7	-33.5	12.9	3.81e-05	0	44	0	744488960	22	5008
2026-01-20 08:23:34.60	9.14	16.21	-30.8	-34.0	12.6	7.17e-05	0	44	0	749731840	22	5194
2026-01-20 08:23:37.60	8.59	16.02	-30.7	-33.7	12.8	5.87e-05	0	44	0	756023296	22	5093
2026-01-20 08:23:40.59	8.06	15.83	-30.5	-33.2	13.1	3.50e-05	0	44	0	761266176	22	4901
2026-01-20 08:23:43.59	7.53	15.64	-30.7	-33.6	12.8	6.56e-05	0	44	0	767557632	22	5043
2026-01-20 08:23:46.59	7.01	15.45	-30.5	-33.0	13.2	1.44e-05	0	44	0	772800512	22	4830
2026-01-20 08:23:49.61	6.50	15.26	-30.4	-32.9	13.3	1.60e-05	0	44	0	778043392	22	4794
2026-01-20 08:23:52.63	5.99	15.06	-30.4	-32.8	13.4	2.21e-05	0	44	0	784334848	22	4740
2026-01-20 08:23:55.62	5.49	14.87	-30.1	-32.7	13.7	1.06e-05	0	44	0	789577728	21	4820
2026-01-20 08:23:58.64	4.99	14.67	-29.9	-32.1	14.0	4.50e-06	0	44	0	794820608	21	4636
2026-01-20 08:24:01.64	4.50	14.47	-29.9	-32.1	14.1	3.80e-06	0	44	0	801112064	21	4606
2026-01-20 08:24:04.65	4.02	14.28	-30.2	-32.9	13.5	6.80e-06	0	44	0	806354944	21	4905
2026-01-20 08:24:07.65	3.55	14.08	-30.2	-33.0	13.4	1.37e-05	0	44	0	812646400	21	4944
2026-01-20 08:24:10.65	3.08	13.88	-30.2	-32.9	13.5	1.44e-05	0	44	0	817889280	21	4928
2026-01-20 08:24:13.65	2.62	13.68	-30.1	-32.6	13.6	1.37e-05	0	44	0	823132160	21	4808
2026-01-20 08:24:16.66	2.16	13.49	-30.0	-32.3	13.9	1.50e-06	0	44	0	829423616	21	4707
2026-01-20 08:24:19.67	1.71	13.29	-30.2	-32.8	13.5	4.50e-06	0	44	0	834666496	21	4892
2026-01-20 08:24:22.67	1.27	13.09	-30.3	-33.2	13.2	1.44e-05	0	44	0	839909376	21	5047
2026-01-20 08:24:25.69	0.83	12.89	-30.3	-33.4	13.1	1.60e-05	0	44	0	846200832	21	5088
2026-01-20 08:24:28.71	0.39	12.69	-30.5	-33.8	12.7	7.24e-05	0	44	0	851443712	21	5267
2026-01-20 08:24:31.72	359.97	12.49	-30.3	-33.2	13.2	2.13e-05	0	44	0	857735168	21	5040
2026-01-20 08:24:34.72	359.55	12.29	-30.6	-34.0	12.6	8.23e-05	0	44	0	862978048	21	5324
2026-01-20 08:24:37.72	359.13	12.09	-30.4	-33.6	12.9	5.72e-05	0	44	0	868220928	21	5182
2026-01-20 08:24:40.72	358.73	11.90	-30.4	-33.6	12.8	3.81e-05	0	44	0	874512384	21	5210
2026-01-20 08:24:43.73	358.32	11.70	-30.2	-33.1	13.2	1.44e-05	0	44	0	879755264	21	4998
2026-01-20 08:24:46.73	357.93	11.50	-30.4	-33.6	12.8	4.57e-05	0	44	0	884998144	21	5194
2026-01-20 08:24:49.74	357.53	11.30	-30.5	-33.8	12.6	8.46e-05	0	44	0	891289600	21	5284
2026-01-20 08:24:52.74	357.15	11.11	-30.5	-34.0	12.5	1.27e-04	0	44	0	896532480	21	5336
2026-01-20 08:24:55.75	356.77	10.91	-30.7	-34.4	12.3	1.75e-04	0	44	0	902823936	21	5508
2026-01-20 08:24:58.77	356.39	10.71	-30.7	-34.4	12.2	1.88e-04	0	44	0	908066816	21	5532
2026-01-20 08:25:01.77	356.02	10.52	-30.7	-34.5	12.1	2.50e-04	0	44	0	913309696	21	5564
2026-01-20 08:25:04.77	355.65	10.32	-30.8	-34.7	12.0	3.13e-04	0	44	0	919601152	21	5648
2026-01-20 08:25:07.79	355.29	10.12	-30.8	-34.8	11.9	4.52e-04	0	44	0	924844032	21	5729
2026-01-20 08:25:10.80	354.94	9.93	-30.8	-34.5	11.8	7.80e-04	0	44	0	931135488	22	5451
2026-01-20 08:25:13.81	354.58	9.73	-31.0	-35.0	11.4	7.48e-04	0	44	0	936378368	22	5687
2026-01-20 08:25:16.82	354.24	9.54	-31.0	-34.9	11.4	1.41e-03	0	44	0	941621248	22	5629
2026-01-20 08:25:19.84	353.89	9.34	-30.9	-34.7	11.5	9.37e-04	0	44	0	947912704	22	5579
2026-01-20 08:25:22.84	353.56	9.15	-30.9	-34.7	11.5	8.16e-04	0	44	0	953155584	22	5557
2026-01-20 08:25:25.85	353.23	8.96	-30.9	-34.8	11.4	9.10e-04	0	44	0	958398464	22	5625
2026-01-20 08:25:28.84	352.90	8.77	-31.0	-35.2	11.1	1.75e-03	0	44	0	964689920	22	5777
2026-01-20 08:25:31.85	352.58	8.58	-31.2	-35.8	10.7	2.52e-03	0	44	0	969932800	22	6097
2026-01-20 08:25:34.87	352.26	8.38	-31.3	-36.2	10.3	4.96e-03	0	44	0	976224256	22	6312
2026-01-20 08:25:37.87	351.94	8.19	-31.5	-36.7	9.9	6.06e-03	0	44	0	981467136	22	6546
2026-01-20 08:25:40.88	351.63	8.00	-31.5	-36.5	9.7	1.03e-02	0	44	0	986710016	23	6352
2026-01-20 08:25:43.88	351.32	7.82	-31.7	-37.3	9.1	2.12e-02	0	44	0	993001472	23	6803
2026-01-20 08:25:46.89	351.02	7.63	-31.7	-37.3	9.0	2.94e-02	0	44	0	998244352	23	6857
2026-01-20 08:25:49.90	350.72	7.44	-31.6	-36.7	9.5	1.45e-02	0	44	0	1003487232	23	6482
2026-01-20 08:25:52.92	350.43	7.25	-31.4	-36.1	9.9	1.09e-02	0	44	0	1009778688	23	6191
2026-01-20 08:25:55.91	350.14	7.07	-33.3	-45.6	3.8	1.37e+00	0	44	104	1015021568	26	14976

#Closed at: 2026-01-20 08:25:58
#Recorded file [1015 MB]: D:/data/31010_260120_111653.dat