passes_logs/2026/01/20/R2M6_AANII_01/R2M6_AANII_01__20260120_133338_AQUA_rec.log

#Pass ID: 20260120_133338_AQUA
#Satellite: AQUA
#Configuration: AQUA
#almurnet v.1.7.20240730
#Start time: 2026-01-20 13:33:39

#Version: 2.2.20231116
#Station: R2M6_AANII_01
#Location: 30.233357 lon 59.946436 lat
#TLE: 1 27424U 02022A   26019.95447505  .00001296  00000+0  26931-3 0  9993
#TLE: 2 27424  98.4091 346.4652 0001983  72.1988 359.6274 14.61832814261618

#Time	Az	El	Level	Level2	SNR	BER	BlckErr	Temp	State	Recorded	gain1	gain2
2026-01-20 13:33:39.45	213.15	7.04	-30.7	-35.4	5.2	7.08e-01	0	41	0	0	23	6201
2026-01-20 13:33:42.46	213.48	7.24	-31.5	-37.0	14.2	6.09e-01	0	41	0	1572864	24	6791
2026-01-20 13:33:45.46	213.81	7.44	-31.1	-35.3	15.6	6.07e-01	0	42	0	7340032	24	5839
2026-01-20 13:33:48.47	214.15	7.64	-30.8	-34.8	16.4	6.06e-01	0	42	0	13107200	23	5691
2026-01-20 13:33:51.46	214.50	7.85	-30.3	-33.8	17.4	6.07e-01	0	42	0	18350080	22	5389
2026-01-20 13:33:54.46	214.85	8.05	-30.4	-34.2	17.2	6.05e-01	0	42	0	24117248	22	5516
2026-01-20 13:33:57.48	215.20	8.26	-30.3	-33.8	17.5	6.06e-01	0	42	0	29884416	22	5357
2026-01-20 13:34:00.48	215.56	8.46	-30.3	-33.8	17.5	6.07e-01	0	42	0	35651584	22	5356
2026-01-20 13:34:03.48	215.93	8.67	-30.5	-34.1	17.3	6.05e-01	0	42	0	40894464	22	5492
2026-01-20 13:34:06.48	216.30	8.88	-30.4	-33.9	17.4	6.06e-01	0	42	0	46661632	22	5415
2026-01-20 13:34:09.49	216.68	9.09	-30.4	-33.8	17.5	6.06e-01	0	42	0	52428800	22	5358
2026-01-20 13:34:12.49	217.06	9.30	-30.4	-33.8	17.5	6.04e-01	0	42	0	58195968	22	5360
2026-01-20 13:34:15.50	217.45	9.51	-30.5	-34.1	17.4	6.08e-01	0	43	0	63438848	22	5454
2026-01-20 13:34:18.50	217.84	9.72	-30.3	-33.6	17.7	6.06e-01	0	42	0	69206016	22	5276
2026-01-20 13:34:21.50	218.24	9.93	-30.2	-33.4	17.8	6.06e-01	0	42	0	74973184	22	5180
2026-01-20 13:34:24.52	218.65	10.15	-30.2	-33.2	18.0	6.07e-01	0	43	0	80740352	22	5109
2026-01-20 13:34:27.53	219.06	10.36	-30.2	-33.2	18.0	6.03e-01	0	42	0	85983232	22	5113
2026-01-20 13:34:30.54	219.48	10.58	-30.2	-33.3	18.0	6.04e-01	0	43	0	91750400	22	5148
2026-01-20 13:34:33.55	219.91	10.79	-30.6	-34.5	17.3	6.08e-01	0	43	0	97517568	22	5601
2026-01-20 13:34:36.55	220.34	11.01	-30.5	-34.0	17.6	6.06e-01	0	43	0	103284736	22	5395
2026-01-20 13:34:39.57	220.78	11.23	-30.2	-33.3	18.0	6.07e-01	0	43	0	108527616	22	5108
2026-01-20 13:34:42.57	221.23	11.45	-30.2	-33.2	18.1	6.05e-01	0	43	0	114294784	22	5082
2026-01-20 13:34:45.57	221.68	11.67	-30.3	-33.3	18.0	6.08e-01	0	43	0	120061952	22	5132
2026-01-20 13:34:48.58	222.14	11.89	-30.3	-33.4	18.0	6.05e-01	0	43	0	125829120	22	5161
2026-01-20 13:34:51.59	222.61	12.11	-30.3	-33.3	18.1	6.05e-01	0	43	0	131072000	22	5129
2026-01-20 13:34:54.59	223.09	12.33	-30.1	-33.0	18.3	6.06e-01	0	43	0	136839168	22	4983
2026-01-20 13:34:57.61	223.57	12.55	-30.2	-33.0	18.3	6.06e-01	0	43	0	142606336	22	5005
2026-01-20 13:35:00.61	224.06	12.77	-29.9	-32.8	18.8	6.07e-01	0	43	0	148373504	21	5014
2026-01-20 13:35:03.63	224.56	13.00	-29.9	-32.8	18.7	6.07e-01	0	43	0	153616384	21	5028
2026-01-20 13:35:06.63	225.07	13.22	-29.8	-32.4	19.0	6.06e-01	0	43	0	159383552	21	4895
2026-01-20 13:35:09.64	225.58	13.44	-29.8	-32.5	19.0	6.06e-01	0	43	0	165150720	21	4916
2026-01-20 13:35:12.65	226.10	13.66	-30.0	-33.0	18.8	6.05e-01	0	43	0	170917888	21	5096
2026-01-20 13:35:15.65	226.63	13.89	-29.8	-32.5	19.1	6.04e-01	0	43	0	176685056	21	4900
2026-01-20 13:35:18.66	227.17	14.11	-29.8	-32.6	19.0	6.05e-01	0	43	0	181927936	21	4928
2026-01-20 13:35:21.66	227.72	14.33	-29.7	-32.3	19.2	6.07e-01	0	43	0	187695104	21	4855
2026-01-20 13:35:24.67	228.28	14.56	-29.9	-32.7	18.9	6.06e-01	0	43	0	193462272	21	4993
2026-01-20 13:35:27.68	228.84	14.78	-29.7	-32.3	19.3	6.06e-01	0	43	0	198705152	21	4831
2026-01-20 13:35:30.69	229.42	15.01	-30.0	-32.9	18.9	6.07e-01	0	43	0	204472320	21	5037
2026-01-20 13:35:33.70	230.00	15.23	-29.7	-32.3	19.3	6.06e-01	0	43	0	210239488	21	4820
2026-01-20 13:35:36.71	230.59	15.45	-29.9	-32.8	19.0	6.05e-01	0	43	0	216006656	21	5009
2026-01-20 13:35:39.72	231.19	15.67	-29.8	-32.5	19.1	6.04e-01	0	43	0	221773824	21	4909
2026-01-20 13:35:42.71	231.80	15.89	-29.8	-32.4	19.3	6.09e-01	0	43	0	227016704	21	4860
2026-01-20 13:35:45.73	232.42	16.12	-29.7	-32.2	19.4	6.06e-01	0	43	0	232783872	21	4791
2026-01-20 13:35:48.73	233.05	16.33	-29.7	-32.1	19.5	6.06e-01	0	43	0	238551040	21	4749
2026-01-20 13:35:51.75	233.69	16.55	-29.7	-32.1	19.5	6.05e-01	0	44	0	244318208	21	4748
2026-01-20 13:35:54.76	234.34	16.77	-29.8	-32.4	19.4	6.06e-01	0	43	0	249561088	21	4828
2026-01-20 13:35:57.77	235.00	16.99	-29.9	-32.7	19.2	6.05e-01	0	44	0	255328256	21	4953
2026-01-20 13:36:00.77	235.67	17.20	-29.9	-32.7	19.2	6.07e-01	0	43	0	261095424	21	4943
2026-01-20 13:36:03.77	236.34	17.42	-29.6	-31.9	19.6	6.06e-01	0	44	0	266862592	21	4690
2026-01-20 13:36:06.78	237.03	17.63	-29.8	-32.4	19.4	6.05e-01	0	44	0	272105472	21	4848
2026-01-20 13:36:09.80	237.73	17.84	-30.0	-33.0	19.1	6.05e-01	0	44	0	277872640	21	5032
2026-01-20 13:36:12.79	238.44	18.04	-29.7	-32.1	19.5	6.08e-01	0	44	0	283639808	21	4744
2026-01-20 13:36:15.80	239.16	18.25	-29.7	-32.0	19.6	6.05e-01	0	44	0	289406976	21	4714
2026-01-20 13:36:18.80	239.88	18.45	-29.7	-32.1	19.6	6.07e-01	0	44	0	294649856	21	4723
2026-01-20 13:36:21.81	240.62	18.65	-29.9	-32.5	19.3	6.04e-01	0	44	0	300417024	21	4876
2026-01-20 13:36:24.83	241.37	18.85	-30.0	-32.7	19.3	6.06e-01	0	43	0	306184192	21	4943
2026-01-20 13:36:27.83	242.13	19.05	-29.9	-32.5	19.4	6.06e-01	0	44	0	311951360	21	4852
2026-01-20 13:36:30.85	242.90	19.24	-30.0	-32.9	19.2	6.05e-01	0	44	0	317194240	21	5008
2026-01-20 13:36:33.85	243.68	19.43	-29.9	-32.6	19.4	6.03e-01	0	44	0	322961408	21	4890
2026-01-20 13:36:36.87	244.47	19.61	-29.9	-32.5	19.4	6.05e-01	0	44	0	328728576	21	4853
2026-01-20 13:36:39.87	245.26	19.79	-29.8	-32.4	19.5	6.07e-01	0	43	0	334495744	21	4818
2026-01-20 13:36:42.89	246.07	19.97	-29.8	-32.3	19.6	6.05e-01	0	44	0	339738624	21	4794
2026-01-20 13:36:45.90	246.89	20.14	-29.9	-32.4	19.5	6.07e-01	0	44	0	345505792	21	4829
2026-01-20 13:36:48.91	247.72	20.31	-30.0	-32.9	19.3	6.06e-01	0	44	0	351272960	21	4983
2026-01-20 13:36:51.92	248.55	20.48	-30.0	-32.7	19.4	6.05e-01	0	44	0	357040128	21	4927
2026-01-20 13:36:54.93	249.40	20.64	-29.9	-32.5	19.5	6.05e-01	0	44	0	362807296	21	4866
2026-01-20 13:36:57.95	250.26	20.79	-29.9	-32.4	19.6	6.06e-01	0	44	0	368050176	21	4826
2026-01-20 13:37:00.96	251.12	20.94	-30.0	-32.8	19.3	6.05e-01	0	44	0	373817344	21	4954
2026-01-20 13:37:03.96	251.99	21.08	-30.1	-33.1	19.1	6.07e-01	0	44	0	379584512	21	5071
2026-01-20 13:37:06.96	252.87	21.22	-30.0	-32.8	19.3	6.05e-01	0	44	0	385351680	21	4976
2026-01-20 13:37:09.97	253.75	21.35	-29.9	-32.4	19.5	6.06e-01	0	44	0	390594560	21	4835
2026-01-20 13:37:12.97	254.64	21.48	-30.0	-32.8	19.3	6.05e-01	0	44	0	396361728	21	4979
2026-01-20 13:37:15.98	255.55	21.60	-30.2	-33.4	19.0	6.06e-01	0	44	0	402128896	21	5174
2026-01-20 13:37:18.99	256.46	21.71	-30.2	-33.4	19.0	6.05e-01	0	44	0	407896064	21	5166
2026-01-20 13:37:22.00	257.37	21.82	-30.3	-33.5	18.9	6.07e-01	0	44	0	413138944	21	5219
2026-01-20 13:37:25.01	258.29	21.92	-30.4	-33.8	18.8	6.09e-01	0	44	0	418906112	21	5323
2026-01-20 13:37:28.01	259.22	22.02	-30.3	-33.6	18.9	6.05e-01	0	44	0	424673280	21	5256
2026-01-20 13:37:31.02	260.15	22.10	-30.4	-33.8	18.8	6.06e-01	0	44	0	430440448	21	5307
2026-01-20 13:37:34.03	261.09	22.18	-30.3	-33.5	18.9	6.06e-01	0	44	0	435683328	21	5203
2026-01-20 13:37:37.03	262.03	22.25	-30.1	-33.1	19.2	6.05e-01	0	44	0	441450496	21	5045
2026-01-20 13:37:40.04	262.98	22.32	-30.1	-33.1	19.2	6.07e-01	0	44	0	447217664	21	5062
2026-01-20 13:37:43.04	263.93	22.38	-30.0	-32.8	19.4	6.08e-01	0	44	0	452984832	21	4951
2026-01-20 13:37:46.05	264.88	22.43	-30.2	-33.1	19.2	6.05e-01	0	44	0	458227712	21	5063
2026-01-20 13:37:49.06	265.84	22.47	-30.1	-33.0	19.3	6.06e-01	0	44	0	463994880	21	5006
2026-01-20 13:37:52.08	266.80	22.50	-30.2	-33.2	19.1	6.05e-01	0	44	0	469762048	21	5113
2026-01-20 13:37:55.09	267.77	22.53	-30.1	-33.1	19.3	6.04e-01	0	44	0	475529216	21	5037
2026-01-20 13:37:58.10	268.73	22.55	-30.3	-33.5	19.0	6.06e-01	0	44	0	481296384	21	5205
2026-01-20 13:38:01.11	269.69	22.56	-30.2	-33.3	19.1	6.08e-01	0	44	0	486539264	21	5135
2026-01-20 13:38:04.13	270.66	22.56	-30.4	-33.7	18.9	6.07e-01	0	44	0	492306432	21	5258
2026-01-20 13:38:07.14	271.62	22.56	-30.1	-32.9	19.3	6.05e-01	0	44	0	498073600	21	4988
2026-01-20 13:38:10.15	272.59	22.54	-30.3	-33.6	19.0	6.04e-01	0	44	0	503840768	21	5220
2026-01-20 13:38:13.15	273.55	22.52	-30.2	-33.3	19.1	6.06e-01	0	44	0	509083648	21	5121
2026-01-20 13:38:16.16	274.51	22.49	-30.2	-33.3	19.1	6.06e-01	0	44	0	514850816	21	5132
2026-01-20 13:38:19.17	275.46	22.45	-30.3	-33.4	19.0	6.06e-01	0	44	0	520617984	21	5169
2026-01-20 13:38:22.20	276.43	22.41	-30.3	-33.5	19.0	6.05e-01	0	44	0	526385152	21	5206
2026-01-20 13:38:25.20	277.38	22.36	-30.2	-33.1	19.2	6.07e-01	0	44	0	531628032	21	5055
2026-01-20 13:38:28.21	278.32	22.30	-30.2	-33.3	19.1	6.06e-01	0	44	0	537395200	21	5128
2026-01-20 13:38:31.22	279.27	22.23	-30.2	-33.3	19.1	6.08e-01	0	44	0	543162368	21	5137
2026-01-20 13:38:34.24	280.21	22.15	-30.2	-33.2	19.2	6.07e-01	0	44	0	548929536	21	5097
2026-01-20 13:38:37.24	281.14	22.07	-30.2	-33.3	19.1	6.07e-01	0	44	0	554696704	21	5123
2026-01-20 13:38:40.26	282.08	21.98	-30.2	-33.1	19.2	6.08e-01	0	44	0	559939584	21	5059
2026-01-20 13:38:43.27	283.00	21.89	-30.3	-33.4	19.1	6.07e-01	0	44	0	565706752	21	5154
2026-01-20 13:38:46.27	283.92	21.78	-30.3	-33.3	19.1	6.06e-01	0	44	0	571473920	21	5140
2026-01-20 13:38:49.29	284.83	21.68	-30.3	-33.4	19.1	6.06e-01	0	44	0	577241088	21	5148
2026-01-20 13:38:52.29	285.73	21.56	-30.1	-32.8	19.4	6.05e-01	0	44	0	582483968	21	4959
2026-01-20 13:38:55.29	286.63	21.44	-30.2	-33.1	19.3	6.08e-01	0	44	0	588251136	21	5049
2026-01-20 13:38:58.29	287.51	21.31	-30.1	-33.1	19.3	6.06e-01	0	44	0	594018304	21	5047
2026-01-20 13:39:01.30	288.39	21.18	-30.1	-33.0	19.2	6.08e-01	0	44	0	599785472	21	5028
2026-01-20 13:39:04.31	289.27	21.04	-30.3	-33.5	19.0	6.07e-01	0	44	0	605028352	21	5200
2026-01-20 13:39:07.32	290.13	20.89	-30.3	-33.6	18.9	6.04e-01	0	44	0	610795520	21	5223
2026-01-20 13:39:10.32	290.99	20.74	-30.2	-33.3	19.1	6.07e-01	0	44	0	616562688	21	5133
2026-01-20 13:39:13.34	291.84	20.59	-30.4	-33.7	18.8	6.05e-01	0	44	0	621805568	21	5284
2026-01-20 13:39:16.35	292.68	20.43	-30.1	-32.9	19.3	6.07e-01	0	44	0	627572736	21	4998
2026-01-20 13:39:19.35	293.50	20.26	-30.1	-32.8	19.4	6.06e-01	0	44	0	633339904	21	4958
2026-01-20 13:39:22.34	294.32	20.09	-30.3	-33.6	18.9	6.07e-01	0	44	0	639107072	21	5245
2026-01-20 13:39:25.35	295.13	19.92	-30.1	-32.9	19.3	6.08e-01	0	44	0	644874240	21	4982
2026-01-20 13:39:28.37	295.93	19.74	-30.1	-32.9	19.3	6.04e-01	0	44	0	650117120	21	4971
2026-01-20 13:39:31.38	296.72	19.56	-30.1	-33.0	19.3	6.06e-01	0	44	0	655884288	21	5018
2026-01-20 13:39:34.40	297.51	19.37	-30.1	-32.8	19.4	6.05e-01	0	44	0	661651456	21	4964
2026-01-20 13:39:37.40	298.28	19.19	-30.1	-33.1	19.2	6.04e-01	0	44	0	667418624	21	5041
2026-01-20 13:39:40.41	299.04	19.00	-29.9	-32.5	19.6	6.06e-01	0	44	0	672661504	21	4845
2026-01-20 13:39:43.42	299.79	18.80	-30.2	-33.2	19.1	6.07e-01	0	44	0	678428672	21	5096
2026-01-20 13:39:46.44	300.54	18.60	-30.0	-32.7	19.4	6.07e-01	0	44	0	684195840	21	4915
2026-01-20 13:39:49.43	301.26	18.40	-30.1	-33.0	19.2	6.05e-01	0	44	0	689963008	21	5039
2026-01-20 13:39:52.44	301.99	18.20	-30.0	-32.7	19.4	6.06e-01	0	44	0	695205888	21	4926
2026-01-20 13:39:55.44	302.69	18.00	-30.0	-32.8	19.3	6.06e-01	0	44	0	700973056	21	4942
2026-01-20 13:39:58.45	303.40	17.79	-30.0	-32.8	19.3	6.05e-01	0	44	0	706740224	21	4965
2026-01-20 13:40:01.47	304.09	17.58	-30.0	-32.7	19.4	6.05e-01	0	44	0	712507392	21	4911
2026-01-20 13:40:04.47	304.77	17.37	-30.0	-32.6	19.4	6.05e-01	0	44	0	717750272	21	4899
2026-01-20 13:40:07.48	305.44	17.16	-29.9	-32.6	19.4	6.06e-01	0	44	0	723517440	21	4890
2026-01-20 13:40:10.48	306.10	16.95	-30.0	-32.9	19.3	6.06e-01	0	44	0	729284608	21	4987
2026-01-20 13:40:13.49	306.76	16.73	-30.1	-33.0	19.2	6.05e-01	0	44	0	735051776	21	5030
2026-01-20 13:40:16.51	307.40	16.51	-30.2	-33.2	19.0	6.05e-01	0	44	0	740294656	21	5107
2026-01-20 13:40:19.52	308.03	16.30	-29.9	-32.6	19.4	6.06e-01	0	44	0	746061824	21	4886
2026-01-20 13:40:22.53	308.66	16.08	-30.1	-32.9	19.2	6.03e-01	0	44	0	751828992	21	5005
2026-01-20 13:40:25.53	309.27	15.86	-30.1	-32.9	19.2	6.06e-01	0	44	0	757596160	21	5018
2026-01-20 13:40:28.53	309.87	15.64	-30.1	-33.1	19.1	6.06e-01	0	44	0	762839040	21	5064
2026-01-20 13:40:31.54	310.47	15.42	-30.2	-33.4	18.9	6.06e-01	0	44	0	768606208	21	5189
2026-01-20 13:40:34.56	311.06	15.20	-30.2	-33.3	18.9	6.07e-01	0	44	0	774373376	21	5143
2026-01-20 13:40:37.57	311.64	14.98	-30.0	-32.8	19.2	6.05e-01	0	44	0	780140544	21	4967
2026-01-20 13:40:40.58	312.20	14.76	-30.0	-32.8	19.1	6.07e-01	0	44	0	785907712	21	4984
2026-01-20 13:40:43.58	312.76	14.53	-30.2	-33.3	18.9	6.06e-01	0	44	0	791150592	21	5152
2026-01-20 13:40:46.59	313.31	14.31	-30.0	-32.9	19.1	6.06e-01	0	44	0	796917760	21	5008
2026-01-20 13:40:49.61	313.86	14.09	-30.0	-32.8	19.2	6.05e-01	0	44	0	802684928	21	4968
2026-01-20 13:40:52.62	314.39	13.87	-30.1	-33.2	19.0	6.05e-01	0	44	0	808452096	21	5102
2026-01-20 13:40:55.63	314.92	13.65	-30.1	-33.2	19.0	6.07e-01	0	44	0	813694976	21	5113
2026-01-20 13:40:58.64	315.44	13.42	-30.2	-33.3	18.8	6.06e-01	0	44	0	819462144	21	5171
2026-01-20 13:41:01.64	315.95	13.20	-30.3	-33.5	18.7	6.05e-01	0	44	0	825229312	21	5244
2026-01-20 13:41:04.65	316.45	12.98	-30.1	-33.2	18.8	6.06e-01	0	44	0	830996480	21	5128
2026-01-20 13:41:07.66	316.94	12.76	-30.3	-33.6	18.6	6.07e-01	0	44	0	836239360	21	5298
2026-01-20 13:41:10.67	317.43	12.54	-30.1	-33.1	19.0	5.98e-01	0	44	0	842006528	21	5077
2026-01-20 13:41:13.67	317.91	12.32	-30.3	-33.6	18.6	6.00e-01	0	44	0	847773696	21	5282
2026-01-20 13:41:16.67	318.38	12.11	-30.2	-33.5	18.6	6.01e-01	0	44	0	853540864	21	5249
2026-01-20 13:41:19.67	318.84	11.89	-30.3	-33.6	18.5	6.03e-01	0	44	0	858783744	21	5295
2026-01-20 13:41:22.69	319.30	11.67	-30.3	-33.6	18.5	6.01e-01	0	44	0	864550912	21	5299
2026-01-20 13:41:25.69	319.75	11.45	-30.3	-33.8	18.5	6.01e-01	0	44	0	870318080	21	5378
2026-01-20 13:41:28.69	320.19	11.24	-30.4	-34.0	18.3	6.00e-01	0	44	0	876085248	21	5466
2026-01-20 13:41:31.70	320.63	11.02	-30.3	-33.6	18.5	5.99e-01	0	44	0	881328128	21	5308
2026-01-20 13:41:34.72	321.06	10.80	-30.4	-34.0	18.2	6.00e-01	0	44	0	887095296	21	5435
2026-01-20 13:41:37.72	321.48	10.59	-30.4	-33.9	18.2	5.98e-01	0	44	0	892862464	21	5407
2026-01-20 13:41:40.73	321.90	10.38	-30.5	-34.3	18.0	6.01e-01	0	44	0	898629632	21	5559
2026-01-20 13:41:43.74	322.31	10.17	-30.4	-34.1	18.1	6.01e-01	0	44	0	904396800	21	5504
2026-01-20 13:41:46.75	322.71	9.95	-30.8	-34.7	17.4	6.01e-01	0	44	0	909639680	22	5620
2026-01-20 13:41:49.77	323.11	9.74	-30.7	-34.5	17.6	6.01e-01	0	44	0	915406848	22	5562
2026-01-20 13:41:52.77	323.50	9.53	-30.8	-34.7	17.4	6.00e-01	0	44	0	921174016	22	5621
2026-01-20 13:41:55.77	323.89	9.32	-30.6	-34.3	17.7	5.99e-01	0	44	0	926416896	22	5465
2026-01-20 13:41:58.79	324.27	9.12	-30.6	-34.2	17.6	6.00e-01	0	44	0	932184064	22	5457
2026-01-20 13:42:01.81	324.65	8.91	-30.6	-34.1	17.7	6.02e-01	0	44	0	937951232	22	5406
2026-01-20 13:42:04.81	325.02	8.70	-30.6	-34.1	17.6	6.04e-01	0	44	0	943718400	22	5411
2026-01-20 13:42:07.82	325.38	8.50	-30.6	-34.1	17.6	6.02e-01	0	44	0	949485568	22	5423
2026-01-20 13:42:10.82	325.74	8.29	-30.8	-34.8	17.1	6.02e-01	0	44	0	954728448	22	5711
2026-01-20 13:42:13.84	326.09	8.09	-30.9	-35.2	16.8	5.98e-01	0	44	0	960495616	22	5894
2026-01-20 13:42:16.85	326.44	7.89	-30.9	-35.1	16.9	6.03e-01	0	44	0	966262784	22	5850
2026-01-20 13:42:19.86	326.79	7.68	-30.8	-34.8	17.1	5.99e-01	0	44	0	972029952	22	5722
2026-01-20 13:42:22.86	327.12	7.48	-30.9	-35.1	16.9	6.01e-01	0	44	0	977272832	22	5855
2026-01-20 13:42:25.88	327.46	7.28	-30.9	-35.2	16.8	6.01e-01	0	44	0	983040000	22	5900
2026-01-20 13:42:28.89	327.79	7.09	-31.0	-34.8	16.7	5.99e-01	0	44	0	988807168	23	5638

#Closed at: 2026-01-20 13:42:31
#Recorded file [989 MB]: D:/data/31010_260120_163341.dat