passes_logs/2026/01/20/R2M6_AANII_01/R2M6_AANII_01__20260120_153706_FENGYUN_3E_rec.log

#Pass ID: 20260120_153706_FENGYUN 3E
#Satellite: FENGYUN 3E
#Configuration: FENGYUN 3E
#almurnet v.1.7.20240730
#Start time: 2026-01-20 15:37:06

#Version: 2.2.20231116
#Station: R2M6_AANII_01
#Location: 30.233357 lon 59.946436 lat
#TLE: 1 49008U 21062A   26020.00892250 -.00000287  00000+0 -11478-3 0  9990
#TLE: 2 49008  98.7482  25.0782 0002252 128.5071 231.6308 14.19884466235554

#Time	Az	El	Level	Level2	SNR	BER	BlckErr	Temp	State	Recorded	gain1	gain2
2026-01-20 15:37:06.78	192.55	7.01	-28.3	-29.9	5.6	7.55e-01	0	41	0	0	16	4335
2026-01-20 15:37:09.79	192.74	7.23	-29.1	-30.9	10.5	3.42e-03	0	42	0	7340032	18	4428
2026-01-20 15:37:12.81	192.93	7.45	-28.1	-29.0	12.0	4.02e-04	0	42	0	28311552	17	3989
2026-01-20 15:37:15.80	193.12	7.67	-27.2	-27.8	13.2	2.40e-05	0	42	0	50331648	15	3883
2026-01-20 15:37:18.81	193.32	7.89	-27.1	-27.7	13.3	1.71e-05	0	42	0	72351744	15	3849
2026-01-20 15:37:21.81	193.51	8.11	-27.1	-28.1	13.3	1.48e-05	0	42	0	93323264	14	4058
2026-01-20 15:37:24.81	193.71	8.33	-27.0	-27.8	13.5	4.80e-05	0	42	0	115343360	14	3980
2026-01-20 15:37:27.83	193.92	8.56	-27.0	-27.9	13.6	1.37e-05	0	42	0	137363456	14	3983
2026-01-20 15:37:30.83	194.12	8.79	-27.3	-28.6	13.1	1.71e-05	0	43	0	159383552	14	4180
2026-01-20 15:37:33.83	194.33	9.02	-27.0	-27.9	13.5	9.10e-06	0	43	0	180355072	14	3985
2026-01-20 15:37:36.84	194.55	9.25	-27.0	-27.8	13.6	5.70e-06	0	43	0	202375168	14	3972
2026-01-20 15:37:39.84	194.76	9.49	-26.9	-27.6	13.8	4.50e-06	0	43	0	224395264	14	3903
2026-01-20 15:37:42.84	194.98	9.72	-26.6	-27.1	14.1	0.00e+00	0	43	0	245366784	14	3783
2026-01-20 15:37:45.85	195.21	9.96	-26.6	-26.9	14.2	6.80e-06	0	43	0	267386880	14	3749
2026-01-20 15:37:48.86	195.43	10.20	-26.6	-27.1	14.1	2.20e-06	0	43	0	289406976	14	3776
2026-01-20 15:37:51.86	195.66	10.44	-26.6	-27.0	14.1	3.40e-06	0	43	0	310378496	14	3771
2026-01-20 15:37:54.87	195.90	10.68	-26.6	-27.0	14.1	1.10e-06	0	43	0	332398592	14	3775
2026-01-20 15:37:57.88	196.14	10.93	-26.7	-27.7	14.1	4.50e-06	0	43	0	354418688	13	4038
2026-01-20 15:38:00.89	196.38	11.18	-26.7	-27.6	14.1	4.50e-06	0	43	0	376438784	13	4017
2026-01-20 15:38:03.91	196.62	11.43	-26.6	-27.5	14.2	4.50e-06	0	43	0	397410304	13	3992
2026-01-20 15:38:06.91	196.87	11.68	-26.4	-27.1	14.5	0.00e+00	0	43	0	419430400	13	3882
2026-01-20 15:38:09.92	197.13	11.93	-26.5	-27.3	14.4	0.00e+00	0	43	0	440401920	13	3927
2026-01-20 15:38:12.92	197.39	12.19	-26.3	-26.8	14.6	3.40e-06	0	43	0	462422016	13	3825
2026-01-20 15:38:15.92	197.65	12.45	-26.4	-27.0	14.6	5.70e-06	0	43	0	484442112	13	3855
2026-01-20 15:38:18.94	197.92	12.71	-26.3	-26.8	14.7	1.10e-06	0	44	0	506462208	13	3807
2026-01-20 15:38:21.94	198.19	12.97	-26.4	-27.0	14.6	0.00e+00	0	43	0	527433728	13	3858
2026-01-20 15:38:24.94	198.46	13.23	-26.1	-26.4	14.9	1.10e-06	0	44	0	549453824	13	3713
2026-01-20 15:38:27.94	198.74	13.50	-26.0	-26.6	15.1	0.00e+00	0	44	0	571473920	12	3867
2026-01-20 15:38:30.95	199.03	13.77	-26.1	-26.7	15.0	0.00e+00	0	44	0	592445440	12	3891
2026-01-20 15:38:33.96	199.32	14.04	-26.1	-26.8	15.0	1.10e-06	0	44	0	614465536	12	3901
2026-01-20 15:38:36.97	199.62	14.32	-26.0	-26.5	15.2	0.00e+00	0	44	0	636485632	12	3825
2026-01-20 15:38:39.97	199.92	14.60	-26.1	-26.8	15.1	1.10e-06	0	44	0	658505728	12	3897
2026-01-20 15:38:42.98	200.22	14.87	-25.9	-26.4	15.3	0.00e+00	0	44	0	679477248	12	3815
2026-01-20 15:38:45.98	200.54	15.16	-25.8	-26.3	15.4	0.00e+00	0	44	0	701497344	12	3776
2026-01-20 15:38:48.99	200.85	15.44	-25.8	-26.2	15.4	0.00e+00	0	44	0	723517440	12	3763
2026-01-20 15:38:52.00	201.18	15.73	-25.6	-25.8	15.7	0.00e+00	0	44	0	744488960	12	3662
2026-01-20 15:38:55.01	201.51	16.02	-25.6	-26.2	15.8	0.00e+00	0	44	0	766509056	11	3867
2026-01-20 15:38:58.03	201.85	16.31	-25.3	-25.6	16.1	0.00e+00	0	44	0	788529152	11	3726
2026-01-20 15:39:01.05	202.19	16.61	-25.3	-25.6	16.1	0.00e+00	0	44	0	810549248	11	3720
2026-01-20 15:39:04.06	202.54	16.91	-25.3	-25.6	16.1	0.00e+00	0	44	0	831520768	11	3722
2026-01-20 15:39:07.06	202.90	17.20	-25.4	-25.8	16.1	0.00e+00	0	44	0	853540864	11	3772
2026-01-20 15:39:10.07	203.26	17.51	-25.5	-25.9	16.0	0.00e+00	0	44	0	875560960	11	3784
2026-01-20 15:39:13.07	203.63	17.81	-25.4	-25.7	16.2	0.00e+00	0	44	0	896532480	11	3747
2026-01-20 15:39:16.07	204.01	18.12	-25.0	-24.9	16.6	0.00e+00	0	44	0	918552576	11	3568
2026-01-20 15:39:19.08	204.39	18.43	-24.9	-24.8	16.7	0.00e+00	0	44	0	940572672	11	3531
2026-01-20 15:39:22.08	204.79	18.74	-24.9	-25.2	16.7	0.00e+00	0	44	0	962592768	10	3728
2026-01-20 15:39:25.09	205.19	19.06	-24.9	-25.2	16.7	0.00e+00	0	44	0	983564288	10	3721
2026-01-20 15:39:28.09	205.60	19.38	-24.9	-25.3	16.7	0.00e+00	0	44	0	1005584384	10	3738
2026-01-20 15:39:31.10	206.01	19.70	-24.7	-24.8	17.0	0.00e+00	0	44	0	1026555904	10	3632
2026-01-20 15:39:34.11	206.44	20.02	-24.8	-25.0	16.9	0.00e+00	0	44	0	1048576000	10	3679
2026-01-20 15:39:37.10	206.87	20.35	-24.7	-24.8	17.0	0.00e+00	0	44	0	1070596096	10	3628
2026-01-20 15:39:40.11	207.32	20.68	-24.5	-24.4	17.2	0.00e+00	0	44	0	1091567616	10	3549
2026-01-20 15:39:43.12	207.77	21.01	-24.5	-24.4	17.2	0.00e+00	0	44	0	1113587712	10	3545
2026-01-20 15:39:46.13	208.23	21.35	-24.5	-24.3	17.3	0.00e+00	0	44	0	1135607808	10	3516
2026-01-20 15:39:49.14	208.71	21.68	-24.5	-24.4	17.2	0.00e+00	0	44	0	1157627904	10	3547
2026-01-20 15:39:52.14	209.19	22.02	-24.6	-24.6	17.2	0.00e+00	0	44	0	1178599424	10	3585
2026-01-20 15:39:55.15	209.68	22.37	-24.5	-24.4	17.3	0.00e+00	0	44	0	1200619520	10	3549
2026-01-20 15:39:58.16	210.19	22.71	-24.6	-24.9	17.2	0.00e+00	0	44	0	1222639616	9	3764
2026-01-20 15:40:01.17	210.70	23.06	-24.6	-25.1	17.1	0.00e+00	0	44	0	1244659712	9	3800
2026-01-20 15:40:04.18	211.23	23.41	-24.4	-24.7	17.4	0.00e+00	0	44	0	1265631232	9	3710
2026-01-20 15:40:07.20	211.77	23.76	-24.3	-24.5	17.5	0.00e+00	0	44	0	1287651328	9	3659
2026-01-20 15:40:10.20	212.32	24.12	-24.5	-24.8	17.3	0.00e+00	0	44	0	1309671424	9	3732
2026-01-20 15:40:13.20	212.88	24.47	-24.9	-25.6	16.9	0.00e+00	0	44	0	1330642944	9	3917
2026-01-20 15:40:16.20	213.46	24.83	-24.2	-24.3	17.6	0.00e+00	0	44	0	1352663040	9	3619
2026-01-20 15:40:19.21	214.04	25.19	-24.1	-24.0	17.8	0.00e+00	0	44	0	1374683136	9	3553
2026-01-20 15:40:22.22	214.65	25.55	-24.0	-23.8	17.9	0.00e+00	0	44	0	1395654656	9	3520
2026-01-20 15:40:25.23	215.26	25.91	-24.0	-23.7	17.9	0.00e+00	0	44	0	1417674752	9	3499
2026-01-20 15:40:28.22	215.89	26.28	-24.0	-24.2	17.9	0.00e+00	0	44	0	1439694848	8	3693
2026-01-20 15:40:31.24	216.53	26.65	-24.0	-24.2	17.9	0.00e+00	0	44	0	1461714944	8	3704
2026-01-20 15:40:34.25	217.19	27.01	-23.8	-23.9	18.1	0.00e+00	0	44	0	1482686464	8	3625
2026-01-20 15:40:37.26	217.87	27.38	-24.1	-24.5	17.8	0.00e+00	0	44	0	1504706560	8	3765
2026-01-20 15:40:40.26	218.55	27.75	-24.0	-24.3	17.9	0.00e+00	0	44	0	1526726656	8	3710
2026-01-20 15:40:43.27	219.26	28.12	-24.0	-24.4	17.9	0.00e+00	0	44	0	1547698176	8	3733
2026-01-20 15:40:46.27	219.97	28.49	-23.8	-23.8	18.1	0.00e+00	0	44	0	1569718272	8	3615
2026-01-20 15:40:49.28	220.71	28.86	-24.0	-24.3	17.9	0.00e+00	0	44	0	1591738368	8	3730
2026-01-20 15:40:52.29	221.47	29.23	-23.9	-24.1	18.1	0.00e+00	0	44	0	1613758464	8	3684
2026-01-20 15:40:55.31	222.24	29.60	-23.8	-23.9	18.1	0.00e+00	0	44	0	1634729984	8	3641
2026-01-20 15:40:58.31	223.02	29.97	-24.0	-24.2	18.0	0.00e+00	0	44	0	1656750080	8	3702
2026-01-20 15:41:01.32	223.83	30.33	-23.7	-23.5	18.3	0.00e+00	0	44	0	1677721600	8	3551
2026-01-20 15:41:04.34	224.66	30.70	-23.9	-24.0	18.1	0.00e+00	0	44	0	1699741696	8	3656
2026-01-20 15:41:07.35	225.50	31.06	-23.6	-23.4	18.5	0.00e+00	0	44	0	1721761792	8	3518
2026-01-20 15:41:10.37	226.37	31.43	-23.8	-23.7	18.3	0.00e+00	0	44	0	1743781888	8	3591
2026-01-20 15:41:13.38	227.25	31.78	-23.8	-23.9	18.2	0.00e+00	0	44	0	1765801984	8	3633
2026-01-20 15:41:16.38	228.14	32.14	-23.9	-24.1	18.1	0.00e+00	0	44	0	1786773504	8	3670
2026-01-20 15:41:19.40	229.07	32.49	-23.9	-24.0	18.1	0.00e+00	0	44	0	1808793600	8	3657
2026-01-20 15:41:22.41	230.00	32.84	-24.1	-24.5	17.9	0.00e+00	0	44	0	1830813696	8	3754
2026-01-20 15:41:25.42	230.96	33.18	-23.9	-24.1	18.1	0.00e+00	0	44	0	1851785216	8	3679
2026-01-20 15:41:28.42	231.94	33.52	-23.7	-23.6	18.4	0.00e+00	0	44	0	1873805312	8	3572
2026-01-20 15:41:31.42	232.93	33.85	-23.8	-23.7	18.3	0.00e+00	0	44	0	1895825408	8	3590
2026-01-20 15:41:34.44	233.96	34.18	-23.8	-23.8	18.3	0.00e+00	0	44	0	1917845504	8	3604
2026-01-20 15:41:37.45	234.99	34.50	-23.9	-24.0	18.2	0.00e+00	0	44	0	1938817024	8	3640
2026-01-20 15:41:40.45	236.05	34.81	-23.7	-23.7	18.3	0.00e+00	0	44	0	1960837120	8	3573
2026-01-20 15:41:43.46	237.13	35.11	-23.8	-23.8	18.3	0.00e+00	0	44	0	1982857216	8	3609
2026-01-20 15:41:46.45	238.22	35.41	-23.9	-24.0	18.2	0.00e+00	0	44	0	2003828736	8	3657
2026-01-20 15:41:49.46	239.34	35.69	-24.0	-24.2	18.1	0.00e+00	0	44	0	2025848832	8	3697
2026-01-20 15:41:52.47	240.47	35.97	-23.8	-23.9	18.3	0.00e+00	0	44	0	2047868928	8	3625
2026-01-20 15:41:55.48	241.63	36.24	-23.8	-23.8	18.3	0.00e+00	0	44	0	2069889024	8	3611
2026-01-20 15:41:58.48	242.80	36.49	-23.7	-23.6	18.4	0.00e+00	0	44	0	2090860544	8	3567
2026-01-20 15:42:01.49	243.99	36.74	-23.4	-23.4	18.8	0.00e+00	0	44	0	2112880640	7	3624
2026-01-20 15:42:04.49	245.19	36.97	-23.5	-23.6	18.7	0.00e+00	0	44	0	2134900736	7	3663
2026-01-20 15:42:07.49	246.42	37.19	-23.8	-24.4	18.3	0.00e+00	0	44	0	2155872256	7	3838
2026-01-20 15:42:10.51	247.66	37.39	-23.3	-23.3	18.9	0.00e+00	0	44	0	2177892352	7	3586
2026-01-20 15:42:13.52	248.92	37.59	-23.6	-23.9	18.5	0.00e+00	0	44	0	2199912448	7	3731
2026-01-20 15:42:16.53	250.19	37.76	-24.1	-24.4	18.0	0.00e+00	0	44	0	2221932544	8	3747
2026-01-20 15:42:19.55	251.47	37.93	-24.4	-25.1	17.7	0.00e+00	0	44	0	2242904064	8	3894
2026-01-20 15:42:22.55	252.77	38.08	-24.4	-24.5	17.8	0.00e+00	0	44	0	2264924160	9	3653
2026-01-20 15:42:25.55	254.07	38.21	-24.0	-23.8	18.1	0.00e+00	0	44	0	2285895680	9	3514
2026-01-20 15:42:28.56	255.38	38.32	-24.3	-24.4	17.8	0.00e+00	0	44	0	2307915776	9	3629
2026-01-20 15:42:31.55	256.70	38.42	-24.2	-24.1	18.0	0.00e+00	0	44	0	2329935872	9	3565
2026-01-20 15:42:34.56	258.03	38.51	-23.9	-24.1	18.2	0.00e+00	0	45	0	2350907392	8	3676
2026-01-20 15:42:37.57	259.37	38.57	-23.7	-23.6	18.5	0.00e+00	0	44	0	2372927488	8	3567
2026-01-20 15:42:40.57	260.71	38.62	-23.5	-23.2	18.7	0.00e+00	0	44	0	2394947584	8	3483
2026-01-20 15:42:43.58	262.05	38.66	-23.7	-23.6	18.5	0.00e+00	0	44	0	2416967680	8	3562
2026-01-20 15:42:46.60	263.41	38.67	-23.8	-23.7	18.4	0.00e+00	0	44	0	2437939200	8	3589
2026-01-20 15:42:49.61	264.75	38.67	-24.0	-24.3	18.2	0.00e+00	0	44	0	2459959296	8	3699
2026-01-20 15:42:52.61	266.10	38.65	-23.9	-24.1	18.3	0.00e+00	0	44	0	2481979392	8	3674
2026-01-20 15:42:55.61	267.44	38.61	-24.0	-24.1	18.2	0.00e+00	0	44	0	2502950912	8	3672
2026-01-20 15:42:58.63	268.78	38.55	-23.6	-23.5	18.6	0.00e+00	0	44	0	2524971008	8	3535
2026-01-20 15:43:01.64	270.12	38.48	-23.7	-23.6	18.5	0.00e+00	0	44	0	2546991104	8	3563
2026-01-20 15:43:04.66	271.45	38.39	-24.0	-24.2	18.2	0.00e+00	0	44	0	2569011200	8	3686
2026-01-20 15:43:07.67	272.77	38.29	-23.8	-23.9	18.4	0.00e+00	0	44	0	2591031296	8	3611
2026-01-20 15:43:10.68	274.08	38.17	-24.3	-24.8	17.9	0.00e+00	0	44	0	2612002816	8	3826
2026-01-20 15:43:13.69	275.38	38.03	-23.9	-24.0	18.4	0.00e+00	0	44	0	2634022912	8	3645
2026-01-20 15:43:16.70	276.67	37.87	-24.0	-24.2	18.2	0.00e+00	0	44	0	2656043008	8	3702
2026-01-20 15:43:19.71	277.95	37.71	-24.2	-24.6	18.0	0.00e+00	0	44	0	2677014528	8	3786
2026-01-20 15:43:22.71	279.21	37.52	-23.9	-24.0	18.4	0.00e+00	0	44	0	2699034624	8	3636
2026-01-20 15:43:25.72	280.46	37.33	-24.0	-24.2	18.2	0.00e+00	0	44	0	2721054720	8	3702
2026-01-20 15:43:28.73	281.69	37.12	-24.0	-24.2	18.2	0.00e+00	0	44	0	2743074816	8	3678
2026-01-20 15:43:31.74	282.91	36.89	-23.7	-23.6	18.5	0.00e+00	0	44	0	2764046336	8	3557
2026-01-20 15:43:34.75	284.11	36.66	-23.6	-23.3	18.7	0.00e+00	0	44	0	2786066432	8	3502
2026-01-20 15:43:37.76	285.29	36.41	-23.9	-24.1	18.3	0.00e+00	0	44	0	2808086528	8	3658
2026-01-20 15:43:40.76	286.45	36.15	-23.9	-24.1	18.3	0.00e+00	0	45	0	2829058048	8	3662
2026-01-20 15:43:43.76	287.60	35.88	-23.9	-24.1	18.3	0.00e+00	0	44	0	2851078144	8	3668
2026-01-20 15:43:46.77	288.72	35.60	-23.9	-24.0	18.4	0.00e+00	0	45	0	2872049664	8	3646
2026-01-20 15:43:49.78	289.83	35.32	-23.8	-23.9	18.4	0.00e+00	0	45	0	2894069760	8	3624
2026-01-20 15:43:52.80	290.92	35.02	-24.0	-24.3	18.2	0.00e+00	0	44	0	2916089856	8	3711
2026-01-20 15:43:55.81	291.99	34.71	-24.1	-24.5	18.1	0.00e+00	0	44	0	2938109952	8	3757
2026-01-20 15:43:58.81	293.04	34.40	-24.2	-24.7	18.0	0.00e+00	0	45	0	2959081472	8	3805
2026-01-20 15:44:01.82	294.07	34.08	-24.2	-24.7	18.0	0.00e+00	0	44	0	2981101568	8	3799
2026-01-20 15:44:04.82	295.07	33.75	-24.0	-24.2	18.2	0.00e+00	0	45	0	3003121664	8	3683
2026-01-20 15:44:07.84	296.07	33.42	-23.8	-23.8	18.4	0.00e+00	0	44	0	3025141760	8	3602
2026-01-20 15:44:10.84	297.03	33.08	-23.9	-24.1	18.2	0.00e+00	0	44	0	3046113280	8	3671
2026-01-20 15:44:13.85	297.98	32.74	-23.9	-23.9	18.4	0.00e+00	0	45	0	3068133376	8	3633
2026-01-20 15:44:16.85	298.91	32.39	-24.0	-24.3	18.2	0.00e+00	0	45	0	3090153472	8	3703
2026-01-20 15:44:19.86	299.82	32.04	-24.4	-25.0	17.8	0.00e+00	0	44	0	3111124992	8	3874
2026-01-20 15:44:22.87	300.71	31.69	-24.4	-25.2	17.7	0.00e+00	0	44	0	3133145088	8	3917
2026-01-20 15:44:25.89	301.58	31.33	-24.8	-25.4	17.3	0.00e+00	0	45	0	3155165184	9	3865
2026-01-20 15:44:28.91	302.44	30.97	-23.8	-23.8	18.4	0.00e+00	0	45	0	3177185280	8	3606
2026-01-20 15:44:31.91	303.27	30.61	-24.3	-24.8	17.9	0.00e+00	0	45	0	3198156800	8	3828
2026-01-20 15:44:34.93	304.09	30.24	-24.6	-24.9	17.6	0.00e+00	0	44	0	3220176896	9	3744
2026-01-20 15:44:37.93	304.88	29.88	-24.5	-24.7	17.7	0.00e+00	0	44	0	3242196992	9	3699
2026-01-20 15:44:40.94	305.66	29.51	-24.4	-24.6	17.5	0.00e+00	0	44	0	3264217088	9	3691
2026-01-20 15:44:43.96	306.43	29.14	-24.1	-23.8	18.1	0.00e+00	0	44	0	3285188608	9	3514
2026-01-20 15:44:46.95	307.17	28.78	-24.5	-24.7	17.6	0.00e+00	0	44	0	3307208704	9	3704
2026-01-20 15:44:49.96	307.90	28.41	-24.4	-24.7	17.7	0.00e+00	0	45	0	3329228800	9	3702
2026-01-20 15:44:52.96	308.61	28.04	-24.4	-24.6	17.7	0.00e+00	0	44	0	3350200320	9	3681
2026-01-20 15:44:55.97	309.31	27.68	-24.2	-24.2	17.9	0.00e+00	0	45	0	3372220416	9	3590
2026-01-20 15:44:58.99	309.99	27.31	-24.1	-23.9	18.1	0.00e+00	0	44	0	3394240512	9	3521
2026-01-20 15:45:01.99	310.66	26.94	-24.3	-24.3	17.9	0.00e+00	0	44	0	3415212032	9	3604
2026-01-20 15:45:05.01	311.31	26.58	-24.4	-24.6	17.7	0.00e+00	0	44	0	3437232128	9	3683
2026-01-20 15:45:08.00	311.95	26.21	-24.5	-24.8	17.6	0.00e+00	0	44	0	3459252224	9	3731
2026-01-20 15:45:11.01	312.57	25.85	-24.6	-24.9	17.5	0.00e+00	0	45	0	3480223744	9	3754
2026-01-20 15:45:14.03	313.18	25.49	-24.4	-24.6	17.6	0.00e+00	0	45	0	3502243840	9	3670
2026-01-20 15:45:17.05	313.78	25.13	-24.5	-24.7	17.6	0.00e+00	0	45	0	3524263936	9	3709
2026-01-20 15:45:20.06	314.36	24.77	-24.7	-25.1	17.4	0.00e+00	0	44	0	3546284032	9	3795
2026-01-20 15:45:23.06	314.93	24.42	-24.6	-24.9	17.4	0.00e+00	0	44	0	3567255552	9	3758
2026-01-20 15:45:26.08	315.49	24.06	-24.4	-24.7	17.6	0.00e+00	0	44	0	3589275648	9	3692
2026-01-20 15:45:29.09	316.04	23.71	-24.2	-24.2	17.8	0.00e+00	0	45	0	3611295744	9	3601
2026-01-20 15:45:32.11	316.57	23.36	-24.5	-24.7	17.5	0.00e+00	0	45	0	3633315840	9	3702
2026-01-20 15:45:35.11	317.09	23.02	-24.6	-24.9	17.4	0.00e+00	0	45	0	3654287360	9	3755
2026-01-20 15:45:38.11	317.60	22.67	-24.7	-25.2	17.3	0.00e+00	0	45	0	3676307456	9	3818
2026-01-20 15:45:41.12	318.10	22.33	-24.8	-25.3	17.2	0.00e+00	0	44	0	3698327552	9	3846
2026-01-20 15:45:44.12	318.59	21.99	-24.5	-24.9	17.3	0.00e+00	0	45	0	3720347648	9	3738
2026-01-20 15:45:47.13	319.07	21.65	-24.6	-24.9	17.4	0.00e+00	0	45	0	3741319168	9	3757
2026-01-20 15:45:50.14	319.54	21.32	-24.7	-25.3	17.2	0.00e+00	0	44	0	3763339264	9	3848
2026-01-20 15:45:53.14	320.00	20.99	-25.0	-25.8	16.9	0.00e+00	0	45	0	3785359360	9	3969
2026-01-20 15:45:56.15	320.45	20.66	-25.6	-26.2	16.1	0.00e+00	0	44	0	3806330880	11	3855
2026-01-20 15:45:59.16	320.89	20.33	-25.2	-25.3	16.6	0.00e+00	0	44	0	3828350976	11	3645
2026-01-20 15:46:02.17	321.33	20.01	-25.3	-25.5	16.6	0.00e+00	0	44	0	3850371072	11	3680
2026-01-20 15:46:05.18	321.75	19.69	-25.3	-25.6	16.5	0.00e+00	0	44	0	3872391168	11	3707
2026-01-20 15:46:08.20	322.17	19.37	-25.5	-25.9	16.3	0.00e+00	0	44	0	3893362688	11	3765
2026-01-20 15:46:11.20	322.57	19.05	-25.5	-26.0	16.3	0.00e+00	0	44	0	3915382784	11	3810
2026-01-20 15:46:14.21	322.97	18.74	-25.5	-25.9	16.3	0.00e+00	0	45	0	3937402880	11	3787
2026-01-20 15:46:17.22	323.36	18.43	-25.5	-26.0	16.2	0.00e+00	0	45	0	3958374400	11	3798
2026-01-20 15:46:20.22	323.74	18.12	-25.6	-26.1	16.2	0.00e+00	0	44	0	3980394496	11	3838
2026-01-20 15:46:23.23	324.12	17.81	-25.7	-26.4	16.0	0.00e+00	0	45	0	4002414592	11	3902
2026-01-20 15:46:26.24	324.49	17.51	-25.5	-26.0	16.2	0.00e+00	0	44	0	4023386112	11	3809
2026-01-20 15:46:29.24	324.85	17.21	-25.6	-26.2	16.1	0.00e+00	0	44	0	4045406208	11	3854
2026-01-20 15:46:32.24	325.20	16.91	-25.6	-26.2	16.1	0.00e+00	0	44	0	4067426304	11	3856
2026-01-20 15:46:35.25	325.55	16.62	-25.9	-26.8	15.7	0.00e+00	0	45	0	4088397824	11	3999
2026-01-20 15:46:38.27	325.90	16.33	-26.0	-26.6	15.5	0.00e+00	0	45	0	4110417920	12	3845
2026-01-20 15:46:41.29	326.23	16.04	-26.1	-26.9	15.3	0.00e+00	0	45	0	4132438016	12	3909
2026-01-20 15:46:44.30	326.56	15.75	-26.1	-26.8	15.4	0.00e+00	0	45	0	4154458112	12	3892
2026-01-20 15:46:47.31	326.89	15.46	-26.1	-26.8	15.3	0.00e+00	0	45	0	4175429632	12	3889
2026-01-20 15:46:50.32	327.20	15.18	-26.1	-26.9	15.3	1.10e-06	0	45	0	4197449728	12	3909
2026-01-20 15:46:53.33	327.51	14.90	-26.1	-26.8	15.3	0.00e+00	0	45	0	4219469824	12	3889
2026-01-20 15:46:56.34	327.82	14.62	-26.2	-27.1	15.1	0.00e+00	0	45	0	4241489920	12	3964
2026-01-20 15:46:59.35	328.12	14.35	-26.1	-26.9	15.2	0.00e+00	0	45	0	4262461440	12	3907
2026-01-20 15:47:02.34	328.42	14.08	-26.2	-27.0	15.2	0.00e+00	0	45	0	4284481536	12	3940
2026-01-20 15:47:05.34	328.71	13.81	-26.3	-27.3	15.0	0.00e+00	0	44	0	4306501632	12	4017
2026-01-20 15:47:08.35	328.99	13.54	-26.4	-27.5	14.9	0.00e+00	0	45	0	4327473152	12	4071
2026-01-20 15:47:11.35	329.27	13.28	-26.5	-27.7	14.8	0.00e+00	0	45	0	4349493248	12	4113
2026-01-20 15:47:14.36	329.55	13.02	-26.7	-27.6	14.5	0.00e+00	0	44	0	4371513344	13	3991
2026-01-20 15:47:17.36	329.82	12.76	-26.8	-27.8	14.4	2.20e-06	0	45	0	4392484864	13	4047
2026-01-20 15:47:20.38	330.09	12.50	-27.0	-28.2	14.1	0.00e+00	0	45	0	4414504960	13	4164
2026-01-20 15:47:23.38	330.35	12.24	-27.0	-28.4	14.0	1.10e-06	0	45	0	4436525056	13	4193
2026-01-20 15:47:26.38	330.61	11.99	-27.1	-28.0	14.0	2.20e-06	0	44	0	4458545152	14	4001
2026-01-20 15:47:29.40	330.86	11.73	-27.0	-27.7	14.1	0.00e+00	0	45	0	4479516672	14	3922
2026-01-20 15:47:32.41	331.11	11.48	-27.0	-27.7	14.1	0.00e+00	0	45	0	4501536768	14	3928
2026-01-20 15:47:35.42	331.36	11.24	-27.0	-27.8	14.0	0.00e+00	0	45	0	4523556864	14	3946
2026-01-20 15:47:38.42	331.60	10.99	-27.1	-28.1	13.9	6.80e-06	0	45	0	4545576960	14	4013
2026-01-20 15:47:41.43	331.84	10.75	-27.3	-28.4	13.7	4.50e-06	0	44	0	4566548480	14	4090
2026-01-20 15:47:44.45	332.07	10.51	-27.4	-28.1	13.5	8.00e-06	0	45	0	4588568576	15	3929
2026-01-20 15:47:47.46	332.31	10.27	-27.3	-28.0	13.6	2.20e-06	0	44	0	4609540096	15	3890
2026-01-20 15:47:50.46	332.53	10.03	-27.4	-28.2	13.5	1.02e-05	0	45	0	4631560192	15	3939
2026-01-20 15:47:53.46	332.76	9.79	-27.4	-28.2	13.5	9.10e-06	0	44	0	4653580288	15	3942
2026-01-20 15:47:56.47	332.98	9.56	-27.4	-28.3	13.4	1.25e-05	0	45	0	4675600384	15	3966
2026-01-20 15:47:59.48	333.20	9.33	-27.4	-28.2	13.4	8.00e-06	0	45	0	4696571904	15	3952
2026-01-20 15:48:02.50	333.41	9.10	-27.3	-28.1	13.4	6.80e-06	0	45	0	4718592000	15	3925
2026-01-20 15:48:05.51	333.62	8.87	-27.4	-28.3	13.3	1.37e-05	0	44	0	4740612096	15	3984
2026-01-20 15:48:08.52	333.83	8.64	-27.3	-28.1	13.4	1.14e-05	0	45	0	4761583616	15	3912
2026-01-20 15:48:11.53	334.04	8.42	-27.5	-28.3	13.3	1.02e-05	0	44	0	4783603712	15	3989
2026-01-20 15:48:14.53	334.24	8.19	-27.4	-28.1	13.4	1.02e-05	0	45	0	4805623808	15	3942
2026-01-20 15:48:17.54	334.44	7.97	-27.5	-28.4	13.2	1.71e-05	0	44	0	4827643904	15	4003
2026-01-20 15:48:20.55	334.63	7.75	-27.6	-28.6	13.0	2.51e-05	0	45	0	4848615424	15	4065
2026-01-20 15:48:23.55	334.83	7.53	-27.6	-28.7	13.0	3.31e-05	0	45	0	4870635520	15	4084
2026-01-20 15:48:26.55	335.02	7.32	-27.7	-29.0	12.8	3.89e-05	0	44	0	4892655616	15	4162
2026-01-20 15:48:29.56	335.21	7.10	-28.0	-29.6	12.4	1.32e-04	0	45	0	4913627136	15	4328

#Closed at: 2026-01-20 15:48:32
#Recorded file [4919 MB]: D:/data/31010_260120_183708.dat