passes_logs/2026/01/20/R2M6_AANII_01/R2M6_AANII_01__20260120_122743_NOAA_21_JPSS-2_rec.log

#Pass ID: 20260120_122743_NOAA 21 (JPSS-2)
#Satellite: NOAA 21 (JPSS-2)
#Configuration: NOAA 21
#almurnet v.1.7.20240730
#Start time: 2026-01-20 12:27:47

#Version: 2.2.20231116
#Station: R2M6_AANII_01
#Location: 30.233357 lon 59.946436 lat
#TLE: 1 54234U 22150A   26019.59425193  .00000067  00000+0  52811-4 0  9997
#TLE: 2 54234  98.7505 320.4385 0000607 256.3203 103.7906 14.19535690165464

#Time	Az	El	Level	Level2	SNR	BER	BlckErr	Temp	State	Recorded	gain1	gain2
2026-01-20 12:27:47.04	233.71	7.17	-34.6	-46.6	3.8	1.49e+00	0	45	0	0	29	14276
2026-01-20 12:27:50.03	234.08	7.33	-34.7	-46.3	3.8	1.49e+00	0	45	104	0	30	13660
2026-01-20 12:27:53.04	234.46	7.48	-34.7	-46.2	3.8	1.49e+00	0	45	104	0	30	13590
2026-01-20 12:27:56.06	234.84	7.63	-34.6	-46.1	3.8	1.49e+00	0	45	104	0	30	13545
2026-01-20 12:27:59.07	235.23	7.79	-34.6	-46.1	3.8	1.49e+00	0	45	104	0	30	13511
2026-01-20 12:28:02.07	235.62	7.94	-34.6	-46.1	3.8	1.49e+00	0	45	104	0	30	13491
2026-01-20 12:28:05.07	236.01	8.09	-34.5	-45.8	3.8	1.49e+00	0	45	104	0	30	13316
2026-01-20 12:28:08.08	236.41	8.24	-34.4	-45.7	3.8	1.49e+00	0	45	104	0	30	13163
2026-01-20 12:28:11.07	236.81	8.39	-34.3	-45.5	3.8	1.49e+00	0	45	104	0	30	13051
2026-01-20 12:28:14.08	237.21	8.55	-34.1	-45.6	3.8	1.49e+00	0	45	104	0	29	13488
2026-01-20 12:28:17.08	237.62	8.70	-33.8	-45.3	3.8	1.49e+00	0	45	104	0	28	13600
2026-01-20 12:28:20.07	238.03	8.85	-33.3	-44.0	3.8	1.49e+00	0	45	104	0	28	12405
2026-01-20 12:28:23.08	238.45	9.00	-33.3	-44.2	3.8	1.49e+00	0	45	104	0	28	12572
2026-01-20 12:28:26.10	238.87	9.15	-33.3	-44.5	3.8	1.49e+00	0	45	104	0	27	12986
2026-01-20 12:28:29.10	239.30	9.30	-32.2	-37.6	6.2	4.07e-01	0	45	104	0	25	6688
2026-01-20 12:28:32.12	239.73	9.45	-30.4	-33.1	10.3	7.27e-03	0	45	0	8388608	22	4902
2026-01-20 12:28:35.13	240.17	9.59	-29.7	-32.2	11.6	5.93e-04	0	45	0	17825792	20	4785
2026-01-20 12:28:38.14	240.60	9.74	-30.4	-34.1	10.3	5.12e-03	0	45	0	27262976	20	5488
2026-01-20 12:28:41.14	241.05	9.89	-30.1	-33.1	11.0	2.19e-03	0	45	0	36700160	20	5086
2026-01-20 12:28:44.16	241.50	10.04	-29.6	-31.8	11.8	4.88e-04	0	45	0	46137344	20	4656
2026-01-20 12:28:47.16	241.95	10.18	-29.6	-31.7	11.9	3.78e-04	0	45	0	55574528	20	4601
2026-01-20 12:28:50.15	242.40	10.33	-29.5	-31.6	12.0	3.49e-04	0	45	0	65011712	20	4575
2026-01-20 12:28:53.17	242.86	10.47	-28.8	-30.7	13.4	1.90e-05	0	45	0	74448896	18	4478
2026-01-20 12:28:56.19	243.33	10.62	-28.9	-31.0	13.2	1.52e-05	0	45	0	83886080	18	4570
2026-01-20 12:28:59.20	243.80	10.76	-28.8	-30.7	13.3	2.89e-05	0	45	0	93323264	18	4492
2026-01-20 12:29:02.21	244.27	10.90	-28.7	-30.5	13.5	1.52e-05	0	45	0	102760448	18	4439
2026-01-20 12:29:05.22	244.75	11.04	-28.7	-30.4	13.5	9.90e-06	0	45	0	112197632	18	4382
2026-01-20 12:29:08.22	245.23	11.18	-28.7	-30.5	13.5	1.83e-05	0	45	0	121634816	18	4404
2026-01-20 12:29:11.22	245.72	11.32	-28.5	-29.9	13.9	4.50e-06	0	45	0	131072000	18	4239
2026-01-20 12:29:14.22	246.21	11.46	-28.7	-30.5	13.5	6.10e-06	0	45	0	139460608	18	4421
2026-01-20 12:29:17.21	246.70	11.60	-28.6	-30.2	13.7	8.30e-06	0	45	0	148897792	18	4344
2026-01-20 12:29:20.21	247.20	11.73	-28.7	-30.4	13.6	7.60e-06	0	45	0	158334976	18	4398
2026-01-20 12:29:23.19	247.70	11.86	-28.6	-30.1	13.8	4.50e-06	0	45	0	167772160	18	4310
2026-01-20 12:29:26.20	248.21	12.00	-28.5	-30.1	13.8	6.10e-06	0	45	0	177209344	18	4283
2026-01-20 12:29:29.19	248.72	12.13	-28.6	-30.2	13.8	6.10e-06	0	45	0	186646528	18	4308
2026-01-20 12:29:32.21	249.24	12.26	-28.8	-30.6	13.5	9.90e-06	0	45	0	196083712	18	4438
2026-01-20 12:29:35.22	249.77	12.39	-28.8	-30.7	13.5	1.06e-05	0	45	0	205520896	18	4479
2026-01-20 12:29:38.22	250.29	12.52	-28.9	-30.9	13.4	1.22e-05	0	45	0	214958080	18	4530
2026-01-20 12:29:41.23	250.82	12.64	-28.9	-31.0	13.3	1.37e-05	0	45	0	224395264	18	4550
2026-01-20 12:29:44.24	251.36	12.77	-28.6	-30.2	13.8	3.80e-06	0	45	0	233832448	18	4322
2026-01-20 12:29:47.25	251.90	12.89	-28.8	-30.6	13.5	1.14e-05	0	45	0	243269632	18	4450
2026-01-20 12:29:50.26	252.45	13.01	-29.0	-31.1	13.2	2.21e-05	0	45	0	252706816	18	4602
2026-01-20 12:29:53.28	253.00	13.13	-29.1	-31.5	13.0	3.50e-05	0	45	0	262144000	18	4706
2026-01-20 12:29:56.27	253.55	13.25	-29.1	-31.4	13.1	2.44e-05	0	45	0	271581184	18	4676
2026-01-20 12:29:59.28	254.10	13.36	-29.3	-31.8	12.8	6.79e-05	0	45	0	281018368	18	4829
2026-01-20 12:30:02.29	254.67	13.48	-28.7	-30.5	13.7	6.10e-06	0	45	0	290455552	18	4397
2026-01-20 12:30:05.29	255.23	13.59	-29.0	-31.2	13.2	1.67e-05	0	45	0	299892736	18	4627
2026-01-20 12:30:08.30	255.80	13.70	-28.9	-30.8	13.5	8.30e-06	0	45	0	309329920	18	4512
2026-01-20 12:30:11.30	256.37	13.80	-28.7	-30.4	13.7	1.22e-05	0	45	0	318767104	18	4394
2026-01-20 12:30:14.30	256.95	13.91	-28.9	-30.8	13.5	8.30e-06	0	45	0	328204288	18	4481
2026-01-20 12:30:17.30	257.53	14.01	-28.6	-30.1	14.0	4.50e-06	0	45	0	337641472	18	4280
2026-01-20 12:30:20.29	258.11	14.11	-28.6	-30.2	13.9	6.10e-06	0	45	0	346030080	18	4317
2026-01-20 12:30:23.31	258.70	14.21	-28.5	-30.0	14.1	4.50e-06	0	45	0	355467264	18	4250
2026-01-20 12:30:26.31	259.29	14.30	-28.3	-29.4	14.3	2.20e-06	0	45	0	364904448	18	4097
2026-01-20 12:30:29.31	259.89	14.40	-28.2	-29.8	14.4	1.50e-06	0	45	0	374341632	17	4306
2026-01-20 12:30:32.32	260.49	14.49	-28.5	-30.3	14.2	7.00e-07	0	45	0	383778816	17	4464
2026-01-20 12:30:35.33	261.09	14.58	-28.4	-30.2	14.2	7.00e-07	0	45	0	393216000	17	4412
2026-01-20 12:30:38.34	261.70	14.66	-28.3	-29.8	14.4	1.50e-06	0	45	0	402653184	17	4309
2026-01-20 12:30:41.35	262.31	14.75	-28.4	-30.1	14.3	7.00e-07	0	45	0	412090368	17	4398
2026-01-20 12:30:44.36	262.93	14.83	-28.4	-30.1	14.3	1.50e-06	0	45	0	421527552	17	4392
2026-01-20 12:30:47.37	263.54	14.90	-28.3	-29.9	14.4	0.00e+00	0	45	0	430964736	17	4339
2026-01-20 12:30:50.38	264.16	14.98	-28.2	-29.7	14.5	0.00e+00	0	45	0	440401920	17	4272
2026-01-20 12:30:53.39	264.79	15.05	-28.7	-30.8	13.9	7.00e-07	0	45	0	449839104	17	4605
2026-01-20 12:30:56.40	265.41	15.12	-28.5	-30.5	14.0	2.20e-06	0	45	0	459276288	17	4514
2026-01-20 12:30:59.41	266.04	15.18	-28.7	-30.8	13.9	3.80e-06	0	45	0	468713472	17	4599
2026-01-20 12:31:02.43	266.67	15.24	-28.5	-30.4	14.1	6.10e-06	0	45	0	478150656	17	4473
2026-01-20 12:31:05.43	267.31	15.30	-28.4	-30.2	14.3	1.50e-06	0	45	0	487587840	17	4410
2026-01-20 12:31:08.43	267.94	15.36	-28.2	-29.7	14.5	0.00e+00	0	45	0	497025024	17	4272
2026-01-20 12:31:11.43	268.58	15.41	-28.2	-29.8	14.5	7.00e-07	0	45	0	506462208	17	4290
2026-01-20 12:31:14.45	269.22	15.46	-28.3	-30.0	14.4	1.50e-06	0	45	0	515899392	17	4349
2026-01-20 12:31:17.46	269.86	15.51	-28.2	-29.7	14.5	1.50e-06	0	45	0	525336576	17	4284
2026-01-20 12:31:20.45	270.50	15.55	-28.3	-30.0	14.4	1.50e-06	0	45	0	534773760	17	4361
2026-01-20 12:31:23.45	271.14	15.59	-28.3	-30.0	14.4	1.50e-06	0	44	0	544210944	17	4357
2026-01-20 12:31:26.44	271.79	15.63	-28.3	-29.8	14.5	7.00e-07	0	45	0	553648128	17	4300
2026-01-20 12:31:29.44	272.43	15.66	-28.4	-30.2	14.3	0.00e+00	0	45	0	563085312	17	4410
2026-01-20 12:31:32.44	273.08	15.69	-28.2	-29.7	14.6	0.00e+00	0	45	0	571473920	17	4268
2026-01-20 12:31:35.45	273.73	15.72	-28.2	-29.6	14.6	0.00e+00	0	45	0	580911104	17	4251
2026-01-20 12:31:38.44	274.38	15.74	-28.3	-29.9	14.4	7.00e-07	0	45	0	590348288	17	4330
2026-01-20 12:31:41.44	275.03	15.76	-28.5	-30.4	14.2	7.00e-07	0	45	0	599785472	17	4472
2026-01-20 12:31:44.46	275.69	15.77	-28.5	-30.4	14.1	1.50e-06	0	45	0	609222656	17	4493
2026-01-20 12:31:47.47	276.34	15.78	-28.3	-30.0	14.4	0.00e+00	0	45	0	618659840	17	4347
2026-01-20 12:31:50.47	276.99	15.79	-28.4	-30.2	14.3	7.00e-07	0	45	0	628097024	17	4418
2026-01-20 12:31:53.48	277.65	15.80	-28.5	-30.3	14.2	7.00e-07	0	45	0	637534208	17	4460
2026-01-20 12:31:56.49	278.30	15.80	-28.4	-30.1	14.4	7.00e-07	0	45	0	646971392	17	4375
2026-01-20 12:31:59.49	278.96	15.80	-28.3	-29.9	14.5	0.00e+00	0	45	0	656408576	17	4338
2026-01-20 12:32:02.51	279.61	15.79	-28.3	-29.9	14.5	7.00e-07	0	45	0	665845760	17	4314
2026-01-20 12:32:05.51	280.27	15.78	-28.5	-30.5	14.1	6.80e-06	0	45	0	675282944	17	4497
2026-01-20 12:32:08.51	280.92	15.77	-28.7	-30.8	13.9	3.80e-06	0	45	0	684720128	17	4612
2026-01-20 12:32:11.52	281.57	15.76	-28.5	-30.5	14.1	1.50e-06	0	45	0	694157312	17	4492
2026-01-20 12:32:14.52	282.22	15.74	-28.3	-30.0	14.4	2.20e-06	0	45	0	703594496	17	4363
2026-01-20 12:32:17.54	282.88	15.71	-28.4	-30.1	14.3	1.50e-06	0	45	0	713031680	17	4383
2026-01-20 12:32:20.54	283.52	15.69	-28.4	-30.2	14.3	7.00e-07	0	45	0	722468864	17	4407
2026-01-20 12:32:23.53	284.17	15.66	-28.5	-30.5	14.2	7.00e-07	0	45	0	731906048	17	4494
2026-01-20 12:32:26.52	284.81	15.63	-28.4	-30.2	14.3	7.00e-07	0	45	0	741343232	17	4403
2026-01-20 12:32:29.54	285.46	15.59	-28.4	-30.3	14.3	1.50e-06	0	45	0	750780416	17	4431
2026-01-20 12:32:32.55	286.11	15.55	-28.3	-30.0	14.4	0.00e+00	0	45	0	760217600	17	4358
2026-01-20 12:32:35.57	286.75	15.51	-28.3	-29.8	14.5	7.00e-07	0	45	0	769654784	17	4291
2026-01-20 12:32:38.58	287.39	15.46	-28.4	-30.1	14.3	4.50e-06	0	45	0	778043392	17	4393
2026-01-20 12:32:41.58	288.03	15.41	-28.5	-30.5	14.1	3.00e-06	0	45	0	787480576	17	4511
2026-01-20 12:32:44.58	288.66	15.36	-28.4	-30.2	14.3	7.00e-07	0	45	0	796917760	17	4425
2026-01-20 12:32:47.59	289.30	15.30	-28.4	-30.1	14.3	1.50e-06	0	45	0	806354944	17	4398
2026-01-20 12:32:50.60	289.93	15.24	-28.5	-30.3	14.2	0.00e+00	0	45	0	815792128	17	4458
2026-01-20 12:32:53.61	290.56	15.18	-28.4	-30.2	14.3	7.00e-07	0	45	0	825229312	17	4414
2026-01-20 12:32:56.61	291.18	15.12	-28.6	-30.6	14.1	2.20e-06	0	45	0	834666496	17	4535
2026-01-20 12:32:59.62	291.81	15.05	-28.6	-30.7	14.0	3.00e-06	0	45	0	844103680	17	4564
2026-01-20 12:33:02.63	292.43	14.98	-28.4	-30.2	14.3	0.00e+00	0	45	0	853540864	17	4405
2026-01-20 12:33:05.65	293.05	14.90	-28.6	-30.7	13.9	3.00e-06	0	45	0	862978048	17	4566
2026-01-20 12:33:08.66	293.67	14.82	-28.4	-30.2	14.3	1.50e-06	0	45	0	872415232	17	4426
2026-01-20 12:33:11.68	294.28	14.74	-28.7	-30.7	14.0	7.00e-07	0	45	0	881852416	17	4584
2026-01-20 12:33:14.68	294.89	14.66	-28.5	-30.3	14.2	1.50e-06	0	45	0	891289600	17	4439
2026-01-20 12:33:17.70	295.49	14.58	-28.4	-30.2	14.3	7.00e-07	0	45	0	900726784	17	4421
2026-01-20 12:33:20.71	296.10	14.49	-28.6	-30.6	14.1	3.00e-06	0	45	0	910163968	17	4523
2026-01-20 12:33:23.73	296.70	14.40	-28.4	-30.2	14.2	0.00e+00	0	45	0	919601152	17	4419
2026-01-20 12:33:26.74	297.29	14.31	-28.4	-30.2	14.2	2.20e-06	0	45	0	929038336	17	4421
2026-01-20 12:33:29.74	297.88	14.21	-28.5	-30.3	14.2	2.20e-06	0	45	0	938475520	17	4433
2026-01-20 12:33:32.75	298.47	14.11	-28.6	-30.5	14.0	7.00e-07	0	45	0	947912704	17	4525
2026-01-20 12:33:35.76	299.05	14.01	-28.7	-30.8	13.9	6.10e-06	0	45	0	957349888	17	4598
2026-01-20 12:33:38.77	299.63	13.91	-28.5	-30.3	14.2	1.50e-06	0	45	0	966787072	17	4449
2026-01-20 12:33:41.79	300.21	13.81	-28.4	-30.2	14.2	2.20e-06	0	45	0	976224256	17	4430
2026-01-20 12:33:44.80	300.78	13.70	-28.4	-30.2	14.2	1.50e-06	0	45	0	985661440	17	4425
2026-01-20 12:33:47.81	301.35	13.59	-28.4	-30.2	14.2	7.00e-07	0	45	0	995098624	17	4429
2026-01-20 12:33:50.81	301.91	13.48	-28.5	-30.5	14.0	3.00e-06	0	45	0	1004535808	17	4514
2026-01-20 12:33:53.83	302.47	13.37	-28.6	-30.5	14.0	4.50e-06	0	45	0	1013972992	17	4510
2026-01-20 12:33:56.83	303.02	13.25	-28.4	-30.1	14.3	1.50e-06	0	45	0	1023410176	17	4378
2026-01-20 12:33:59.85	303.58	13.14	-28.5	-30.3	14.1	7.00e-07	0	45	0	1032847360	17	4465
2026-01-20 12:34:02.86	304.12	13.02	-28.3	-29.9	14.4	1.50e-06	0	45	0	1042284544	17	4321
2026-01-20 12:34:05.87	304.66	12.90	-28.5	-30.4	14.1	0.00e+00	0	45	0	1051721728	17	4476
2026-01-20 12:34:08.87	305.20	12.77	-28.5	-30.4	14.1	1.50e-06	0	45	0	1061158912	17	4469
2026-01-20 12:34:11.87	305.73	12.65	-28.4	-30.3	14.1	1.50e-06	0	45	0	1070596096	17	4452
2026-01-20 12:34:14.89	306.26	12.53	-28.5	-30.3	14.1	7.00e-07	0	45	0	1080033280	17	4445
2026-01-20 12:34:17.90	306.79	12.40	-28.5	-30.4	14.0	1.50e-06	0	45	0	1089470464	17	4464
2026-01-20 12:34:20.91	307.31	12.27	-28.7	-30.9	13.7	4.50e-06	0	45	0	1098907648	17	4630
2026-01-20 12:34:23.91	307.82	12.14	-28.8	-31.2	13.5	4.50e-06	0	45	0	1107296256	17	4737
2026-01-20 12:34:26.92	308.33	12.01	-29.3	-31.9	12.8	3.43e-05	0	45	0	1116733440	18	4830
2026-01-20 12:34:29.93	308.84	11.88	-28.8	-30.6	13.7	3.80e-06	0	45	0	1126170624	18	4433
2026-01-20 12:34:32.94	309.34	11.75	-28.8	-30.6	13.6	7.60e-06	0	45	0	1135607808	18	4443
2026-01-20 12:34:35.95	309.84	11.61	-28.8	-30.6	13.6	9.10e-06	0	45	0	1145044992	18	4449
2026-01-20 12:34:38.95	310.33	11.48	-29.0	-31.0	13.4	1.60e-05	0	45	0	1154482176	18	4553
2026-01-20 12:34:41.96	310.82	11.34	-29.2	-31.5	13.1	2.51e-05	0	45	0	1163919360	18	4722
2026-01-20 12:34:44.96	311.31	11.20	-29.0	-31.2	13.3	1.75e-05	0	45	0	1173356544	18	4607
2026-01-20 12:34:47.98	311.79	11.06	-29.3	-31.8	12.9	4.34e-05	0	45	0	1182793728	18	4799
2026-01-20 12:34:50.99	312.27	10.92	-29.4	-32.1	12.6	9.68e-05	0	45	0	1192230912	18	4913
2026-01-20 12:34:54.00	312.74	10.78	-29.4	-31.7	12.7	1.20e-04	0	45	0	1201668096	19	4665
2026-01-20 12:34:57.01	313.20	10.64	-29.4	-31.7	12.6	9.68e-05	0	45	0	1211105280	19	4668
2026-01-20 12:35:00.02	313.67	10.50	-29.7	-32.3	12.2	1.38e-04	0	46	0	1220542464	19	4876
2026-01-20 12:35:03.03	314.13	10.35	-29.9	-32.8	11.9	3.65e-04	0	45	0	1229979648	19	5068
2026-01-20 12:35:06.05	314.58	10.21	-29.6	-32.2	12.3	2.43e-04	0	45	0	1239416832	19	4837
2026-01-20 12:35:09.05	315.03	10.07	-29.7	-31.9	12.0	3.91e-04	0	45	0	1248854016	20	4650
2026-01-20 12:35:12.06	315.48	9.92	-29.5	-31.5	12.3	1.62e-04	0	45	0	1258291200	20	4516
2026-01-20 12:35:15.04	315.91	9.78	-29.5	-31.3	12.4	1.67e-04	0	45	0	1267728384	20	4465
2026-01-20 12:35:18.06	316.35	9.63	-29.3	-31.5	12.7	7.17e-05	0	45	0	1277165568	19	4603
2026-01-20 12:35:21.07	316.78	9.48	-29.3	-31.5	12.6	7.24e-05	0	45	0	1286602752	19	4602
2026-01-20 12:35:24.07	317.21	9.33	-29.5	-31.8	12.4	1.27e-04	0	45	0	1296039936	19	4719
2026-01-20 12:35:27.07	317.63	9.19	-29.5	-32.0	12.3	1.63e-04	0	45	0	1305477120	19	4798
2026-01-20 12:35:30.08	318.05	9.04	-29.8	-32.9	11.8	6.25e-04	0	45	0	1314914304	19	5088
2026-01-20 12:35:33.09	318.47	8.89	-30.0	-33.2	11.5	6.84e-04	0	45	0	1324351488	19	5208
2026-01-20 12:35:36.10	318.88	8.74	-30.1	-33.1	11.1	1.94e-03	0	45	0	1333788672	20	5089
2026-01-20 12:35:39.11	319.29	8.59	-30.2	-33.3	11.0	2.50e-03	0	45	0	1343225856	20	5135
2026-01-20 12:35:42.11	319.69	8.44	-30.6	-33.9	10.2	5.30e-03	0	45	0	1351614464	21	5300
2026-01-20 12:35:45.12	320.09	8.29	-30.9	-34.9	9.5	1.56e-02	0	45	0	1361051648	21	5719
2026-01-20 12:35:48.14	320.49	8.14	-30.2	-32.9	10.9	2.03e-03	0	45	0	1371537408	21	4898
2026-01-20 12:35:51.15	320.88	7.99	-29.8	-31.9	11.6	8.52e-04	0	45	0	1379926016	21	4568
2026-01-20 12:35:54.16	321.27	7.84	-30.0	-32.3	11.3	1.19e-03	0	45	0	1389363200	21	4679
2026-01-20 12:35:57.17	321.65	7.69	-30.3	-33.2	10.6	2.62e-03	0	45	0	1398800384	21	5010
2026-01-20 12:36:00.18	322.04	7.54	-30.0	-32.3	11.3	1.63e-03	0	45	0	1408237568	21	4693
2026-01-20 12:36:03.18	322.41	7.38	-30.4	-33.4	10.4	2.92e-03	0	45	0	1417674752	21	5105
2026-01-20 12:36:06.19	322.78	7.23	-29.9	-32.1	11.3	1.06e-03	0	45	0	1427111936	21	4648
2026-01-20 12:36:09.20	323.15	7.08	-29.6	-31.8	11.9	2.48e-03	0	45	0	1436549120	20	4625
2026-01-20 12:36:12.21	323.52	6.93	-34.2	-46.2	3.8	1.49e+00	0	45	104	1437597696	28	14340

#Closed at: 2026-01-20 12:36:12
#Recorded file [1437 MB]: D:/data/31010_260120_152829.dat