passes_logs/2026/01/20/R2M6_AANII_01/R2M6_AANII_01__20260120_113546_NOAA_20_JPSS-1_rec.log

#Pass ID: 20260120_113546_NOAA 20 (JPSS-1)
#Satellite: NOAA 20 (JPSS-1)
#Configuration: NOAA 20
#almurnet v.1.7.20240730
#Start time: 2026-01-20 11:35:48

#Version: 2.2.20231116
#Station: R2M6_AANII_01
#Location: 30.233357 lon 59.946436 lat
#TLE: 1 43013U 17073A   26019.55911981  .00000079  00000+0  58510-4 0  9994
#TLE: 2 43013  98.7641 320.4504 0001323  32.6518 327.4739 14.19537050423380

#Time	Az	El	Level	Level2	SNR	BER	BlckErr	Temp	State	Recorded	gain1	gain2
2026-01-20 11:35:48.31	201.31	7.11	-30.7	-36.7	5.0	1.25e+00	0	42	0	0	22	7124
2026-01-20 11:35:51.30	201.54	7.31	-30.8	-38.1	6.3	2.50e-01	0	42	0	1048576	22	8267
2026-01-20 11:35:54.31	201.77	7.52	-30.8	-36.7	8.1	7.50e-02	0	42	0	7340032	22	7057
2026-01-20 11:35:57.33	202.01	7.73	-31.0	-35.9	10.0	9.52e-03	0	42	0	12582912	22	6270
2026-01-20 11:36:00.34	202.26	7.94	-31.1	-35.6	10.4	5.82e-03	0	42	0	17825792	22	6072
2026-01-20 11:36:03.34	202.50	8.16	-31.0	-35.5	10.3	5.25e-03	0	43	0	24117248	22	6071
2026-01-20 11:36:06.36	202.75	8.37	-30.9	-35.4	10.2	4.85e-03	0	43	0	29360128	22	6068
2026-01-20 11:36:09.37	203.00	8.59	-30.8	-35.1	10.6	3.91e-03	0	43	0	35651584	22	5854
2026-01-20 11:36:12.38	203.26	8.81	-30.8	-34.9	10.8	2.85e-03	0	43	0	40894464	22	5752
2026-01-20 11:36:15.38	203.52	9.02	-30.8	-34.9	10.9	2.73e-03	0	42	0	46137344	22	5725
2026-01-20 11:36:18.38	203.78	9.24	-30.8	-34.7	11.0	1.95e-03	0	43	0	52428800	22	5655
2026-01-20 11:36:21.38	204.05	9.46	-30.5	-34.1	11.2	1.69e-03	0	43	0	57671680	22	5403
2026-01-20 11:36:24.39	204.32	9.69	-30.6	-34.3	11.1	1.20e-03	0	43	0	62914560	22	5494
2026-01-20 11:36:27.39	204.59	9.91	-30.5	-34.0	11.2	1.49e-03	0	43	0	69206016	22	5383
2026-01-20 11:36:30.41	204.87	10.14	-30.5	-34.1	11.1	1.47e-03	0	43	0	74448896	22	5417
2026-01-20 11:36:33.41	205.15	10.36	-30.7	-34.4	11.1	1.60e-03	0	43	0	80740352	22	5517
2026-01-20 11:36:36.42	205.44	10.59	-30.7	-34.3	11.4	1.53e-03	0	43	0	85983232	22	5453
2026-01-20 11:36:39.43	205.73	10.82	-30.6	-33.8	12.0	3.13e-04	0	43	0	91226112	22	5227
2026-01-20 11:36:42.44	206.03	11.05	-30.5	-33.5	12.4	2.01e-04	0	43	0	97517568	22	5066
2026-01-20 11:36:45.44	206.33	11.29	-30.3	-33.4	12.8	4.34e-05	0	43	0	102760448	21	5127
2026-01-20 11:36:48.45	206.64	11.52	-30.2	-33.2	12.9	9.76e-05	0	43	0	108003328	21	5076
2026-01-20 11:36:51.46	206.95	11.76	-30.3	-33.4	12.8	6.25e-05	0	43	0	114294784	21	5148
2026-01-20 11:36:54.44	207.26	11.99	-30.2	-33.2	12.9	6.79e-05	0	43	0	119537664	21	5072
2026-01-20 11:36:57.44	207.58	12.23	-30.2	-33.0	13.1	3.35e-05	0	43	0	125829120	21	4988
2026-01-20 11:37:00.46	207.91	12.47	-30.2	-33.2	13.0	4.04e-05	0	43	0	131072000	21	5059
2026-01-20 11:37:03.46	208.23	12.72	-30.1	-32.9	13.2	1.29e-05	0	43	0	136314880	21	4934
2026-01-20 11:37:06.47	208.57	12.96	-30.1	-32.8	13.3	2.59e-05	0	44	0	142606336	21	4893
2026-01-20 11:37:09.47	208.91	13.21	-30.1	-32.9	13.2	1.22e-05	0	43	0	147849216	21	4933
2026-01-20 11:37:12.48	209.26	13.45	-30.2	-32.9	13.2	1.52e-05	0	44	0	153092096	21	4958
2026-01-20 11:37:15.49	209.61	13.70	-30.1	-32.7	13.3	2.21e-05	0	44	0	159383552	21	4885
2026-01-20 11:37:18.50	209.97	13.95	-30.2	-33.1	13.1	2.44e-05	0	44	0	164626432	21	5022
2026-01-20 11:37:21.52	210.33	14.21	-30.2	-33.1	13.2	3.73e-05	0	44	0	170917888	21	5016
2026-01-20 11:37:24.52	210.70	14.46	-30.3	-33.4	13.0	4.11e-05	0	44	0	176160768	21	5123
2026-01-20 11:37:27.52	211.08	14.71	-30.5	-33.8	12.8	5.18e-05	0	44	0	181403648	21	5266
2026-01-20 11:37:30.53	211.46	14.97	-30.6	-34.3	12.5	1.10e-04	0	44	0	187695104	21	5455
2026-01-20 11:37:33.54	211.85	15.23	-30.9	-35.0	11.9	3.55e-04	0	44	0	192937984	21	5773
2026-01-20 11:37:36.56	212.25	15.49	-30.8	-34.7	12.2	2.53e-04	0	44	0	199229440	21	5630
2026-01-20 11:37:39.56	212.65	15.75	-30.6	-34.2	12.6	7.32e-05	0	44	0	204472320	21	5427
2026-01-20 11:37:42.56	213.06	16.01	-30.5	-33.8	12.8	6.17e-05	0	44	0	209715200	21	5278
2026-01-20 11:37:45.59	213.47	16.28	-30.7	-34.4	12.5	8.08e-05	0	44	0	216006656	21	5503
2026-01-20 11:37:48.59	213.90	16.54	-30.9	-34.8	12.2	2.36e-04	0	44	0	221249536	21	5685
2026-01-20 11:37:51.60	214.33	16.81	-30.9	-34.9	12.1	3.12e-04	0	44	0	226492416	21	5705
2026-01-20 11:37:54.61	214.77	17.08	-31.0	-35.2	11.9	2.57e-04	0	44	0	232783872	21	5843
2026-01-20 11:37:57.61	215.21	17.35	-31.0	-34.7	12.0	3.83e-04	0	44	0	238026752	22	5515
2026-01-20 11:38:00.61	215.66	17.62	-30.7	-33.8	12.6	7.85e-05	0	44	0	244318208	22	5136
2026-01-20 11:38:03.61	216.12	17.89	-30.8	-34.0	12.5	5.87e-05	0	44	0	249561088	22	5207
2026-01-20 11:38:06.62	216.59	18.16	-30.5	-33.2	13.1	2.74e-05	0	44	0	254803968	22	4908
2026-01-20 11:38:09.63	217.07	18.44	-30.5	-33.1	13.2	3.50e-05	0	44	0	261095424	22	4878
2026-01-20 11:38:12.63	217.56	18.71	-30.4	-32.9	13.3	1.22e-05	0	44	0	266338304	22	4789
2026-01-20 11:38:15.64	218.05	18.99	-30.5	-33.0	13.2	1.90e-05	0	44	0	271581184	22	4845
2026-01-20 11:38:18.64	218.55	19.27	-30.4	-32.8	13.4	1.06e-05	0	44	0	277872640	22	4759
2026-01-20 11:38:21.63	219.06	19.55	-30.4	-33.3	13.4	1.06e-05	0	44	0	283115520	21	5058
2026-01-20 11:38:24.63	219.58	19.82	-30.4	-33.4	13.3	2.82e-05	0	44	0	289406976	21	5071
2026-01-20 11:38:27.64	220.11	20.11	-30.3	-33.0	13.6	1.37e-05	0	44	0	294649856	21	4931
2026-01-20 11:38:30.65	220.66	20.39	-30.1	-32.6	13.9	1.50e-06	0	44	0	299892736	21	4803
2026-01-20 11:38:33.66	221.21	20.67	-29.9	-31.9	14.4	0.00e+00	0	44	0	306184192	21	4550
2026-01-20 11:38:36.68	221.77	20.95	-30.0	-32.2	14.1	3.80e-06	0	44	0	311427072	21	4664
2026-01-20 11:38:39.69	222.34	21.24	-30.0	-32.3	14.1	2.20e-06	0	44	0	316669952	21	4700
2026-01-20 11:38:42.70	222.92	21.52	-29.8	-31.8	14.4	2.20e-06	0	44	0	322961408	21	4532
2026-01-20 11:38:45.71	223.51	21.80	-29.5	-31.6	14.9	0.00e+00	0	44	0	328204288	20	4544
2026-01-20 11:38:48.71	224.11	22.08	-29.4	-31.2	15.1	0.00e+00	0	44	0	334495744	20	4439
2026-01-20 11:38:51.71	224.72	22.37	-29.5	-31.5	15.0	0.00e+00	0	44	0	339738624	20	4519
2026-01-20 11:38:54.73	225.35	22.65	-29.5	-31.6	14.9	0.00e+00	0	44	0	344981504	20	4552
2026-01-20 11:38:57.74	225.99	22.93	-29.6	-31.8	14.8	7.00e-07	0	44	0	351272960	20	4608
2026-01-20 11:39:00.76	226.63	23.22	-29.4	-31.7	15.2	0.00e+00	0	44	0	356515840	19	4675
2026-01-20 11:39:03.77	227.29	23.50	-29.3	-31.3	15.5	0.00e+00	0	44	0	362807296	19	4562
2026-01-20 11:39:06.77	227.96	23.78	-29.5	-31.8	15.2	7.00e-07	0	44	0	368050176	19	4711
2026-01-20 11:39:09.78	228.64	24.06	-29.5	-31.9	15.1	0.00e+00	0	44	0	373293056	19	4765
2026-01-20 11:39:12.79	229.33	24.34	-29.7	-32.3	14.9	0.00e+00	0	44	0	379584512	19	4897
2026-01-20 11:39:15.80	230.04	24.61	-29.8	-32.6	14.7	0.00e+00	0	44	0	384827392	19	4980
2026-01-20 11:39:18.81	230.76	24.89	-29.9	-32.5	14.5	1.50e-06	0	44	0	390070272	20	4836
2026-01-20 11:39:21.82	231.49	25.16	-29.6	-31.6	15.0	1.50e-06	0	44	0	396361728	20	4534
2026-01-20 11:39:24.84	232.23	25.44	-29.8	-32.2	14.6	0.00e+00	0	44	0	401604608	20	4739
2026-01-20 11:39:27.84	232.98	25.70	-30.1	-33.0	14.1	1.50e-06	0	44	0	407896064	20	5008
2026-01-20 11:39:30.86	233.75	25.97	-30.3	-33.3	13.9	7.00e-07	0	44	0	413138944	20	5129
2026-01-20 11:39:33.88	234.54	26.24	-30.3	-33.5	13.8	5.30e-06	0	44	0	418381824	20	5191
2026-01-20 11:39:36.89	235.33	26.50	-30.5	-33.4	13.6	6.80e-06	0	44	0	424673280	21	5052
2026-01-20 11:39:39.89	236.13	26.75	-30.6	-33.8	13.3	1.75e-05	0	44	0	429916160	21	5199
2026-01-20 11:39:42.90	236.95	27.01	-30.7	-33.9	13.3	1.60e-05	0	44	0	435159040	21	5224
2026-01-20 11:39:45.91	237.78	27.26	-30.9	-34.6	12.8	6.10e-05	0	44	0	441450496	21	5503
2026-01-20 11:39:48.92	238.62	27.50	-31.5	-35.3	11.7	6.67e-04	0	44	0	446693376	23	5573
2026-01-20 11:39:51.93	239.48	27.74	-31.7	-36.0	11.2	1.22e-03	0	44	0	452984832	23	5913
2026-01-20 11:39:54.94	240.35	27.98	-31.7	-35.8	11.4	1.09e-03	0	44	0	458227712	23	5807
2026-01-20 11:39:57.94	241.23	28.21	-31.5	-35.4	11.7	6.88e-04	0	44	0	463470592	23	5612
2026-01-20 11:40:00.94	242.12	28.43	-31.3	-34.5	12.3	1.77e-04	0	44	0	469762048	23	5236
2026-01-20 11:40:03.95	243.02	28.65	-31.4	-35.0	12.0	3.14e-04	0	44	0	475004928	23	5437
2026-01-20 11:40:06.96	243.94	28.87	-31.4	-34.8	12.1	2.43e-04	0	44	0	481296384	23	5359
2026-01-20 11:40:09.97	244.87	29.07	-30.9	-33.6	12.9	4.57e-05	0	44	0	486539264	23	4871
2026-01-20 11:40:12.98	245.81	29.28	-31.2	-34.4	12.4	9.46e-05	0	44	0	491782144	23	5209
2026-01-20 11:40:15.99	246.76	29.47	-31.5	-35.1	11.9	3.53e-04	0	44	0	498073600	23	5495
2026-01-20 11:40:19.00	247.73	29.66	-31.5	-35.1	11.9	6.50e-04	0	44	0	503316480	23	5469
2026-01-20 11:40:22.00	248.70	29.83	-31.5	-35.4	11.8	3.42e-04	0	44	0	508559360	23	5583
2026-01-20 11:40:25.02	249.69	30.01	-32.1	-36.6	10.5	3.51e-03	0	44	0	514850816	24	6062
2026-01-20 11:40:28.02	250.68	30.17	-32.5	-37.6	9.4	1.49e-02	0	44	0	520093696	25	6510
2026-01-20 11:40:31.01	251.68	30.32	-32.6	-37.9	9.1	2.39e-02	0	44	0	526385152	25	6658
2026-01-20 11:40:34.01	252.69	30.47	-32.4	-37.2	9.7	1.17e-02	0	44	0	531628032	25	6275
2026-01-20 11:40:37.02	253.71	30.60	-32.5	-37.6	9.4	1.61e-02	0	44	0	536870912	25	6458
2026-01-20 11:40:40.03	254.74	30.73	-32.2	-36.6	10.1	1.01e-02	0	44	0	543162368	25	5964
2026-01-20 11:40:43.03	255.77	30.85	-32.1	-36.2	10.5	3.77e-03	0	44	0	548405248	25	5760
2026-01-20 11:40:46.03	256.81	30.96	-32.1	-36.0	10.6	4.15e-03	0	44	0	553648128	25	5657
2026-01-20 11:40:49.03	257.86	31.05	-32.1	-36.0	10.6	3.26e-03	0	44	0	559939584	25	5672
2026-01-20 11:40:52.04	258.92	31.14	-32.2	-36.5	10.3	4.80e-03	0	44	0	565182464	25	5883
2026-01-20 11:40:55.06	259.99	31.22	-32.1	-36.1	10.5	3.25e-03	0	44	0	571473920	25	5722
2026-01-20 11:40:58.08	261.06	31.29	-32.0	-35.9	10.7	3.20e-03	0	44	0	576716800	25	5612
2026-01-20 11:41:01.09	262.13	31.34	-31.6	-35.1	11.6	7.19e-04	0	44	0	581959680	24	5389
2026-01-20 11:41:04.11	263.20	31.39	-31.8	-35.6	11.3	1.21e-03	0	44	0	588251136	24	5599
2026-01-20 11:41:07.11	264.28	31.42	-32.3	-37.5	9.9	6.14e-03	0	44	0	593494016	24	6504
2026-01-20 11:41:10.12	265.36	31.45	-31.9	-35.8	11.2	2.16e-03	0	44	0	598736896	24	5656
2026-01-20 11:41:13.12	266.43	31.46	-31.7	-35.1	11.6	9.30e-04	0	44	0	605028352	24	5380
2026-01-20 11:41:16.14	267.52	31.46	-31.4	-34.3	12.2	2.38e-04	0	44	0	610271232	24	5035
2026-01-20 11:41:19.15	268.60	31.45	-31.0	-33.6	13.1	2.82e-05	0	44	0	616562688	23	4866
2026-01-20 11:41:22.15	269.67	31.43	-31.2	-34.4	12.6	7.40e-05	0	44	0	621805568	23	5178
2026-01-20 11:41:25.16	270.75	31.40	-31.4	-34.7	12.3	1.49e-04	0	44	0	627048448	23	5291
2026-01-20 11:41:28.18	271.83	31.36	-32.0	-36.3	10.8	1.98e-03	0	44	0	633339904	24	5884
2026-01-20 11:41:31.18	272.89	31.30	-31.9	-35.8	11.2	1.71e-03	0	44	0	638582784	24	5670
2026-01-20 11:41:34.20	273.96	31.24	-31.8	-35.4	11.5	1.06e-03	0	44	0	643825664	24	5476
2026-01-20 11:41:37.21	275.03	31.17	-32.1	-36.5	10.6	2.11e-03	0	44	0	650117120	24	5996
2026-01-20 11:41:40.22	276.08	31.08	-32.2	-36.7	10.5	4.05e-03	0	44	0	655360000	24	6102
2026-01-20 11:41:43.22	277.13	30.99	-31.9	-35.8	11.3	1.06e-03	0	44	0	661651456	24	5634
2026-01-20 11:41:46.24	278.18	30.88	-32.0	-36.4	10.8	2.33e-03	0	44	0	666894336	24	5915
2026-01-20 11:41:49.24	279.22	30.77	-32.4	-37.5	10.0	8.54e-03	0	44	0	672137216	24	6476
2026-01-20 11:41:52.25	280.25	30.64	-32.3	-37.4	10.0	9.38e-03	0	44	0	678428672	24	6423
2026-01-20 11:41:55.25	281.26	30.51	-32.1	-36.6	10.7	2.84e-03	0	44	0	683671552	24	6005
2026-01-20 11:41:58.25	282.27	30.37	-32.7	-38.2	9.0	1.72e-02	0	45	0	689963008	25	6806
2026-01-20 11:42:01.25	283.28	30.22	-32.5	-37.5	9.5	1.72e-02	0	44	0	695205888	25	6406
2026-01-20 11:42:04.27	284.27	30.06	-32.2	-36.3	10.4	5.12e-03	0	44	0	700448768	25	5780
2026-01-20 11:42:07.28	285.26	29.89	-32.0	-35.6	11.0	3.07e-03	0	44	0	706740224	25	5452
2026-01-20 11:42:10.29	286.23	29.71	-31.8	-35.5	11.4	7.15e-04	0	44	0	711983104	24	5515
2026-01-20 11:42:13.29	287.20	29.53	-31.9	-35.7	11.3	1.10e-03	0	44	0	717225984	24	5614
2026-01-20 11:42:16.29	288.15	29.34	-31.8	-35.7	11.2	1.64e-03	0	44	0	723517440	24	5621
2026-01-20 11:42:19.30	289.09	29.14	-31.3	-34.0	12.5	1.47e-04	0	44	0	728760320	24	4921
2026-01-20 11:42:22.31	290.02	28.94	-31.0	-33.7	13.0	3.89e-05	0	44	0	735051776	23	4918
2026-01-20 11:42:25.33	290.94	28.73	-31.3	-34.7	12.3	1.54e-04	0	44	0	740294656	23	5276
2026-01-20 11:42:28.33	291.84	28.51	-31.9	-36.4	11.2	9.18e-04	0	44	0	745537536	23	6018
2026-01-20 11:42:31.34	292.74	28.29	-32.0	-36.1	11.0	2.08e-03	0	44	0	751828992	24	5804
2026-01-20 11:42:34.35	293.62	28.06	-32.0	-36.2	10.9	2.99e-03	0	44	0	757071872	24	5871
2026-01-20 11:42:37.37	294.49	27.83	-31.8	-35.5	11.5	1.27e-03	0	44	0	762314752	24	5508
2026-01-20 11:42:40.38	295.35	27.59	-32.1	-36.5	10.7	2.47e-03	0	44	0	768606208	24	5967
2026-01-20 11:42:43.37	296.19	27.35	-32.1	-36.7	10.4	5.27e-03	0	44	0	773849088	24	6109
2026-01-20 11:42:46.38	297.02	27.10	-31.9	-36.0	11.0	1.99e-03	0	44	0	780140544	24	5778
2026-01-20 11:42:49.39	297.84	26.85	-31.8	-35.8	11.1	1.75e-03	0	44	0	785383424	24	5684
2026-01-20 11:42:52.39	298.64	26.60	-31.7	-35.4	11.5	1.09e-03	0	44	0	790626304	24	5496
2026-01-20 11:42:55.41	299.44	26.34	-31.4	-34.4	12.2	2.88e-04	0	44	0	796917760	24	5087
2026-01-20 11:42:58.41	300.21	26.08	-31.0	-33.8	12.8	4.42e-05	0	44	0	802160640	23	4987
2026-01-20 11:43:01.40	300.98	25.81	-31.3	-34.6	12.4	1.56e-04	0	44	0	807403520	23	5292
2026-01-20 11:43:04.40	301.73	25.55	-31.3	-34.6	12.3	2.89e-04	0	44	0	813694976	23	5294
2026-01-20 11:43:07.42	302.48	25.28	-31.2	-34.3	12.5	1.16e-04	0	44	0	818937856	23	5146
2026-01-20 11:43:10.44	303.21	25.01	-31.3	-34.5	12.4	1.49e-04	0	44	0	825229312	23	5211
2026-01-20 11:43:13.46	303.93	24.73	-30.8	-33.5	13.4	1.75e-05	0	44	0	830472192	22	4948
2026-01-20 11:43:16.46	304.63	24.46	-31.1	-34.5	12.7	4.04e-05	0	44	0	835715072	22	5333
2026-01-20 11:43:19.47	305.33	24.18	-30.8	-33.7	13.2	4.04e-05	0	44	0	842006528	22	5021
2026-01-20 11:43:22.47	306.01	23.91	-30.8	-33.6	13.3	1.29e-05	0	44	0	847249408	22	5006
2026-01-20 11:43:25.48	306.68	23.63	-31.6	-35.6	11.5	4.94e-04	0	44	0	852492288	23	5693
2026-01-20 11:43:28.50	307.34	23.35	-31.1	-34.1	12.7	1.22e-04	0	44	0	858783744	23	5061
2026-01-20 11:43:31.51	307.99	23.07	-31.2	-34.3	12.5	1.21e-04	0	44	0	864026624	23	5153
2026-01-20 11:43:34.52	308.62	22.79	-31.4	-35.1	11.9	4.76e-04	0	44	0	870318080	23	5505
2026-01-20 11:43:37.52	309.25	22.51	-30.9	-33.5	13.0	3.35e-05	0	45	0	875560960	23	4864
2026-01-20 11:43:40.52	309.86	22.23	-30.9	-34.1	12.9	4.19e-05	0	44	0	880803840	22	5194
2026-01-20 11:43:43.52	310.46	21.95	-31.4	-35.5	12.0	2.65e-04	0	44	0	887095296	22	5756
2026-01-20 11:43:46.53	311.05	21.67	-31.2	-34.8	12.4	1.04e-04	0	44	0	892338176	22	5453
2026-01-20 11:43:49.54	311.64	21.39	-31.4	-35.5	12.0	1.72e-04	0	44	0	897581056	22	5749
2026-01-20 11:43:52.54	312.21	21.11	-31.5	-35.4	11.7	5.64e-04	0	44	0	903872512	23	5607
2026-01-20 11:43:55.57	312.77	20.83	-31.2	-34.5	12.3	2.15e-04	0	44	0	909115392	23	5230
2026-01-20 11:43:58.57	313.32	20.55	-31.0	-33.7	12.7	5.41e-05	0	44	0	915406848	23	4947
2026-01-20 11:44:01.58	313.87	20.27	-31.2	-34.4	12.3	1.86e-04	0	44	0	920649728	23	5221
2026-01-20 11:44:04.58	314.40	19.99	-30.8	-33.6	13.2	3.20e-05	0	44	0	925892608	22	5011
2026-01-20 11:44:07.59	314.92	19.71	-30.5	-33.0	13.6	8.30e-06	0	44	0	932184064	22	4773
2026-01-20 11:44:10.61	315.44	19.43	-30.8	-33.9	13.0	2.82e-05	0	44	0	937426944	22	5105
2026-01-20 11:44:13.61	315.94	19.16	-30.7	-33.5	13.2	2.67e-05	0	44	0	943718400	22	4969
2026-01-20 11:44:16.62	316.44	18.88	-30.5	-32.8	13.5	6.80e-06	0	44	0	948961280	22	4729
2026-01-20 11:44:19.62	316.93	18.61	-30.4	-32.8	13.5	1.14e-05	0	44	0	954204160	22	4708
2026-01-20 11:44:22.63	317.41	18.34	-30.0	-32.1	14.4	7.00e-07	0	44	0	960495616	21	4594
2026-01-20 11:44:25.64	317.88	18.06	-29.9	-31.9	14.6	0.00e+00	0	44	0	965738496	21	4517
2026-01-20 11:44:28.65	318.34	17.79	-30.0	-32.1	14.4	7.00e-07	0	44	0	970981376	21	4600
2026-01-20 11:44:31.65	318.80	17.53	-30.3	-33.0	13.8	1.50e-06	0	44	0	977272832	21	4887
2026-01-20 11:44:34.66	319.24	17.26	-30.4	-33.1	13.8	6.10e-06	0	44	0	982515712	21	4958
2026-01-20 11:44:37.67	319.68	16.99	-30.4	-33.3	13.5	1.60e-05	0	44	0	988807168	21	5003
2026-01-20 11:44:40.67	320.11	16.73	-30.5	-33.6	13.4	7.60e-06	0	44	0	994050048	21	5140
2026-01-20 11:44:43.68	320.54	16.46	-30.5	-33.6	13.3	1.52e-05	0	44	0	999292928	21	5128
2026-01-20 11:44:46.69	320.96	16.20	-30.4	-33.3	13.5	1.83e-05	0	44	0	1005584384	21	5029
2026-01-20 11:44:49.70	321.37	15.94	-30.5	-33.6	13.4	2.59e-05	0	44	0	1010827264	21	5126
2026-01-20 11:44:52.71	321.77	15.68	-30.6	-33.8	13.1	3.50e-05	0	44	0	1016070144	21	5223
2026-01-20 11:44:55.71	322.17	15.42	-30.7	-34.1	12.9	3.35e-05	0	44	0	1022361600	21	5312
2026-01-20 11:44:58.71	322.56	15.17	-30.7	-34.2	12.8	5.87e-05	0	44	0	1027604480	21	5379
2026-01-20 11:45:01.71	322.94	14.91	-31.0	-34.9	12.4	1.21e-04	0	44	0	1033895936	21	5670
2026-01-20 11:45:04.73	323.32	14.66	-31.2	-35.1	11.9	5.35e-04	0	44	0	1039138816	22	5623
2026-01-20 11:45:07.74	323.69	14.40	-31.1	-34.8	12.1	2.88e-04	0	44	0	1044381696	22	5528
2026-01-20 11:45:10.74	324.06	14.15	-31.0	-34.6	12.2	2.84e-04	0	44	0	1050673152	22	5429
2026-01-20 11:45:13.75	324.42	13.91	-31.0	-34.4	12.3	2.40e-04	0	44	0	1055916032	22	5335
2026-01-20 11:45:16.76	324.77	13.66	-31.2	-35.1	11.8	3.84e-04	0	44	0	1061158912	22	5638
2026-01-20 11:45:19.76	325.12	13.41	-31.3	-35.4	11.6	6.03e-04	0	44	0	1067450368	22	5764
2026-01-20 11:45:22.77	325.47	13.17	-31.4	-35.8	11.3	1.19e-03	0	44	0	1072693248	22	5964
2026-01-20 11:45:25.78	325.80	12.93	-31.4	-35.8	11.3	1.14e-03	0	44	0	1078984704	22	5959
2026-01-20 11:45:28.79	326.14	12.68	-31.3	-35.5	11.4	9.90e-04	0	44	0	1084227584	22	5847
2026-01-20 11:45:31.79	326.46	12.44	-31.4	-35.8	11.3	8.57e-04	0	44	0	1089470464	22	5963
2026-01-20 11:45:34.80	326.79	12.21	-31.2	-35.1	11.7	4.98e-04	0	44	0	1095761920	22	5675
2026-01-20 11:45:37.79	327.10	11.97	-31.2	-35.3	11.5	6.17e-04	0	44	0	1101004800	22	5752
2026-01-20 11:45:40.81	327.42	11.74	-31.3	-35.7	11.3	1.16e-03	0	44	0	1106247680	22	5924
2026-01-20 11:45:43.81	327.72	11.50	-31.4	-35.9	11.1	1.55e-03	0	44	0	1112539136	22	6019
2026-01-20 11:45:46.83	328.03	11.27	-31.4	-36.0	11.0	1.70e-03	0	44	0	1117782016	22	6081
2026-01-20 11:45:49.84	328.33	11.04	-31.0	-34.6	11.9	7.02e-04	0	44	0	1124073472	22	5468
2026-01-20 11:45:52.85	328.62	10.81	-30.9	-34.4	12.1	2.41e-04	0	44	0	1129316352	22	5385
2026-01-20 11:45:55.87	328.91	10.58	-30.9	-34.2	12.2	4.07e-04	0	44	0	1134559232	22	5306
2026-01-20 11:45:58.89	329.20	10.36	-30.9	-34.4	12.1	2.84e-04	0	44	0	1140850688	22	5372
2026-01-20 11:46:01.88	329.48	10.13	-31.1	-35.0	11.6	5.20e-04	0	45	0	1146093568	22	5626
2026-01-20 11:46:04.88	329.76	9.91	-31.1	-35.1	11.5	8.77e-04	0	44	0	1152385024	22	5701
2026-01-20 11:46:07.89	330.03	9.69	-31.1	-35.1	11.5	7.41e-04	0	44	0	1157627904	22	5696
2026-01-20 11:46:10.88	330.30	9.47	-31.2	-35.4	11.2	1.23e-03	0	44	0	1162870784	22	5853
2026-01-20 11:46:13.89	330.56	9.25	-31.3	-35.7	11.0	2.11e-03	0	44	0	1169162240	22	5981
2026-01-20 11:46:16.91	330.83	9.03	-31.1	-35.2	11.3	9.56e-04	0	44	0	1174405120	22	5766
2026-01-20 11:46:19.92	331.09	8.82	-31.2	-35.6	11.0	1.93e-03	0	44	0	1179648000	22	5952
2026-01-20 11:46:22.92	331.34	8.60	-31.1	-35.2	11.3	1.25e-03	0	45	0	1185939456	22	5776
2026-01-20 11:46:25.92	331.59	8.39	-31.3	-35.7	10.9	2.21e-03	0	44	0	1191182336	22	6017
2026-01-20 11:46:28.93	331.84	8.18	-31.4	-36.1	10.5	4.04e-03	0	45	0	1197473792	22	6211
2026-01-20 11:46:31.94	332.08	7.97	-31.4	-35.6	10.6	4.31e-03	0	44	0	1202716672	23	5867
2026-01-20 11:46:34.95	332.33	7.76	-31.3	-35.5	10.6	3.24e-03	0	44	0	1207959552	23	5838
2026-01-20 11:46:37.96	332.56	7.55	-31.3	-35.3	10.7	2.55e-03	0	44	0	1214251008	23	5728
2026-01-20 11:46:40.97	332.80	7.34	-31.1	-34.7	11.2	1.41e-03	0	45	0	1219493888	23	5450
2026-01-20 11:46:43.98	333.03	7.14	-31.1	-34.7	11.2	7.72e-04	0	45	0	1224736768	23	5456

#Closed at: 2026-01-20 11:46:46
#Recorded file [1227 MB]: D:/data/31010_260120_143550.dat