passes_logs/2026/01/20/R2M6_AANII_01/R2M6_AANII_01__20260120_040338_FENGYUN_3E_rec.log

#Pass ID: 20260120_040338_FENGYUN 3E
#Satellite: FENGYUN 3E
#Configuration: FENGYUN 3E
#almurnet v.1.7.20240730
#Start time: 2026-01-20 04:10:54

#Version: 2.2.20231116
#Station: R2M6_AANII_01
#Location: 30.233357 lon 59.946436 lat
#TLE: 1 49008U 21062A   26019.23377557 -.00000048  00000+0 -18182-5 0  9997
#TLE: 2 49008  98.7482  24.3123 0002210 128.5385 231.5989 14.19885253235444

#Time	Az	El	Level	Level2	SNR	BER	BlckErr	Temp	State	Recorded	gain1	gain2
2026-01-20 04:10:54.31	151.13	45.72	-33.9	-45.4	3.8	8.47e-01	0	44	0	0	27	13548
2026-01-20 04:10:56.32	151.87	45.26	-34.7	-44.2	3.8	8.46e-01	0	45	104	0	29	10804
2026-01-20 04:10:58.33	152.59	44.80	-34.7	-44.2	3.8	8.47e-01	0	44	104	0	29	10821
2026-01-20 04:11:00.34	153.28	44.34	-34.7	-44.2	3.8	8.45e-01	0	45	104	0	29	10813
2026-01-20 04:11:02.34	153.96	43.88	-34.6	-44.1	3.8	8.46e-01	0	45	104	0	29	10749
2026-01-20 04:11:04.34	154.62	43.43	-34.5	-44.5	3.8	8.45e-01	0	45	104	0	28	11275
2026-01-20 04:11:06.35	155.26	42.97	-34.5	-44.5	3.8	8.45e-01	0	45	104	0	28	11348
2026-01-20 04:11:08.34	155.88	42.52	-34.5	-44.5	3.8	8.47e-01	0	45	104	0	28	11356
2026-01-20 04:11:10.35	156.49	42.07	-34.5	-44.5	3.8	8.45e-01	0	45	104	0	28	11307
2026-01-20 04:11:12.36	157.08	41.62	-34.4	-44.2	3.8	8.47e-01	0	45	104	0	28	11195
2026-01-20 04:11:14.38	157.66	41.17	-34.4	-44.1	3.8	8.47e-01	0	45	104	0	28	11082
2026-01-20 04:11:16.38	158.21	40.73	-34.3	-44.0	3.8	8.45e-01	0	45	104	0	28	10992
2026-01-20 04:11:18.38	158.76	40.29	-34.1	-43.5	3.8	8.46e-01	0	45	104	0	28	10696
2026-01-20 04:11:20.39	159.29	39.85	-34.0	-43.4	3.8	8.45e-01	0	45	104	0	27	10643
2026-01-20 04:11:22.39	159.80	39.42	-33.8	-42.3	3.8	8.46e-01	0	45	104	0	28	9615
2026-01-20 04:11:24.39	160.30	38.99	-33.9	-42.8	3.8	8.46e-01	0	45	104	0	27	10033
2026-01-20 04:11:26.40	160.79	38.55	-33.8	-42.6	3.8	8.45e-01	0	45	104	0	27	9929
2026-01-20 04:11:28.41	161.27	38.13	-33.8	-42.6	3.8	8.46e-01	0	45	104	0	27	9852
2026-01-20 04:11:30.42	161.74	37.70	-33.7	-42.0	3.8	8.46e-01	0	45	104	0	27	9292
2026-01-20 04:11:32.42	162.19	37.28	-33.7	-41.7	3.9	8.44e-01	0	45	104	0	27	9036
2026-01-20 04:11:34.42	162.63	36.87	-33.8	-42.1	3.9	8.46e-01	0	45	104	0	27	9383
2026-01-20 04:11:36.42	163.06	36.46	-33.6	-41.3	3.8	8.45e-01	0	45	104	0	27	8665
2026-01-20 04:11:38.42	163.48	36.05	-33.4	-40.2	4.2	8.36e-01	0	45	0	0	26	7922
2026-01-20 04:11:40.43	163.89	35.64	-33.0	-38.8	4.8	8.04e-01	0	45	0	0	25	7005
2026-01-20 04:11:42.43	164.29	35.24	-30.7	-32.6	9.3	3.52e-02	0	45	0	8388608	22	4460
2026-01-20 04:11:44.44	164.68	34.84	-26.3	-26.7	15.3	2.20e-06	0	45	0	22020096	13	3761
2026-01-20 04:11:46.46	165.07	34.44	-24.5	-24.7	17.5	0.00e+00	0	45	0	36700160	9	3716
2026-01-20 04:11:48.47	165.44	34.05	-26.0	-27.1	15.8	0.00e+00	0	45	0	51380224	11	4060
2026-01-20 04:11:50.48	165.81	33.66	-27.3	-28.4	14.1	6.67e-04	0	45	0	66060288	14	4095
2026-01-20 04:11:52.48	166.16	33.28	-27.3	-28.3	14.2	4.27e-04	0	45	0	80740352	14	4074
2026-01-20 04:11:54.49	166.51	32.90	-25.8	-26.1	15.9	0.00e+00	0	45	0	95420416	12	3712
2026-01-20 04:11:56.49	166.85	32.52	-25.0	-24.8	17.0	0.00e+00	0	45	0	109051904	11	3532
2026-01-20 04:11:58.50	167.18	32.14	-24.7	-25.3	17.1	4.06e-04	0	45	0	123731968	9	3832
2026-01-20 04:12:00.50	167.51	31.78	-24.1	-24.0	17.7	0.00e+00	0	45	0	138412032	9	3553
2026-01-20 04:12:02.50	167.82	31.41	-23.9	-24.0	18.1	6.72e-04	0	45	0	153092096	8	3643
2026-01-20 04:12:04.51	168.14	31.05	-23.7	-24.2	18.2	0.00e+00	0	45	0	167772160	7	3809
2026-01-20 04:12:06.52	168.44	30.69	-23.9	-24.5	18.1	0.00e+00	0	45	0	182452224	7	3858
2026-01-20 04:12:08.52	168.74	30.33	-23.7	-24.2	18.1	0.00e+00	0	45	0	196083712	7	3806
2026-01-20 04:12:10.52	169.03	29.98	-23.9	-24.6	18.0	3.16e-04	0	45	0	210763776	7	3898
2026-01-20 04:12:12.53	169.32	29.63	-24.0	-24.7	17.9	0.00e+00	0	45	0	225443840	7	3919
2026-01-20 04:12:14.53	169.60	29.29	-24.1	-25.0	17.8	0.00e+00	0	45	0	240123904	7	3982
2026-01-20 04:12:16.53	169.87	28.95	-24.5	-24.9	17.3	0.00e+00	0	45	0	253755392	9	3753
2026-01-20 04:12:18.54	170.14	28.61	-24.0	-23.7	17.9	0.00e+00	0	45	0	268435456	9	3494
2026-01-20 04:12:20.55	170.40	28.27	-23.9	-24.1	18.0	0.00e+00	0	45	0	283115520	8	3667
2026-01-20 04:12:22.56	170.66	27.94	-24.1	-24.4	17.8	0.00e+00	0	45	0	297795584	8	3734
2026-01-20 04:12:24.57	170.91	27.61	-24.0	-24.3	17.8	0.00e+00	0	45	0	312475648	8	3728
2026-01-20 04:12:26.57	171.16	27.29	-24.0	-24.3	17.8	0.00e+00	0	45	0	327155712	8	3720
2026-01-20 04:12:28.58	171.40	26.97	-24.1	-24.4	17.8	0.00e+00	0	45	0	340787200	8	3748
2026-01-20 04:12:30.59	171.64	26.65	-23.8	-23.9	18.0	0.00e+00	0	45	0	355467264	8	3641
2026-01-20 04:12:32.58	171.88	26.34	-23.9	-24.0	17.9	0.00e+00	0	45	0	370147328	8	3659
2026-01-20 04:12:34.59	172.11	26.03	-23.8	-23.9	18.0	0.00e+00	0	45	0	384827392	8	3624
2026-01-20 04:12:36.58	172.33	25.72	-23.7	-23.6	18.2	0.00e+00	0	45	0	398458880	8	3565
2026-01-20 04:12:38.60	172.55	25.41	-23.6	-23.5	18.2	0.00e+00	0	45	0	413138944	8	3536
2026-01-20 04:12:40.59	172.77	25.11	-23.7	-23.6	18.2	9.10e-06	0	45	0	427819008	8	3566
2026-01-20 04:12:42.60	172.98	24.81	-23.9	-24.0	17.9	0.00e+00	0	45	0	442499072	8	3643
2026-01-20 04:12:44.60	173.19	24.52	-23.9	-24.0	17.9	0.00e+00	0	45	0	457179136	8	3647
2026-01-20 04:12:46.61	173.39	24.22	-24.0	-24.2	17.8	1.02e-05	0	45	0	470810624	8	3704
2026-01-20 04:12:48.61	173.60	23.93	-24.2	-24.6	17.6	0.00e+00	0	45	0	485490688	8	3798
2026-01-20 04:12:50.61	173.79	23.65	-24.0	-24.3	17.8	0.00e+00	0	45	0	500170752	8	3721
2026-01-20 04:12:52.61	173.99	23.36	-23.9	-24.1	17.8	0.00e+00	0	45	0	514850816	8	3678
2026-01-20 04:12:54.62	174.18	23.08	-24.0	-24.3	17.8	0.00e+00	0	45	0	529530880	8	3714
2026-01-20 04:12:56.61	174.37	22.80	-24.0	-24.2	17.8	0.00e+00	0	45	0	544210944	8	3705
2026-01-20 04:12:58.63	174.55	22.52	-24.0	-24.2	17.7	0.00e+00	0	45	0	557842432	8	3699
2026-01-20 04:13:00.63	174.73	22.25	-24.1	-24.5	17.6	0.00e+00	0	45	0	572522496	8	3761
2026-01-20 04:13:02.64	174.91	21.98	-24.1	-24.4	17.7	0.00e+00	0	45	0	587202560	8	3752
2026-01-20 04:13:04.64	175.09	21.71	-24.2	-24.7	17.5	0.00e+00	0	45	0	601882624	8	3821
2026-01-20 04:13:06.64	175.26	21.45	-24.2	-24.8	17.5	0.00e+00	0	45	0	615514112	8	3829
2026-01-20 04:13:08.64	175.43	21.18	-24.4	-25.2	17.2	0.00e+00	0	45	0	630194176	8	3926
2026-01-20 04:13:10.65	175.60	20.92	-24.7	-25.4	16.9	0.00e+00	0	45	0	644874240	9	3869
2026-01-20 04:13:12.66	175.77	20.66	-24.5	-24.9	17.1	0.00e+00	0	45	0	659554304	9	3766
2026-01-20 04:13:14.66	175.93	20.41	-24.6	-25.0	17.1	0.00e+00	0	45	0	673185792	9	3788
2026-01-20 04:13:16.65	176.09	20.16	-24.6	-25.2	17.0	0.00e+00	0	45	0	687865856	9	3825
2026-01-20 04:13:18.66	176.24	19.90	-24.7	-25.4	16.9	0.00e+00	0	45	0	702545920	9	3868
2026-01-20 04:13:20.66	176.40	19.65	-24.9	-25.6	16.7	0.00e+00	0	45	0	717225984	9	3928
2026-01-20 04:13:22.67	176.55	19.41	-25.2	-25.9	15.7	0.00e+00	0	45	0	731906048	10	3904
2026-01-20 04:13:24.68	176.70	19.16	-24.9	-25.2	16.6	0.00e+00	0	45	0	746586112	10	3717
2026-01-20 04:13:26.68	176.85	18.92	-24.7	-24.8	16.8	0.00e+00	0	45	0	760217600	10	3647
2026-01-20 04:13:28.69	176.99	18.68	-24.8	-25.0	16.7	0.00e+00	0	45	0	774897664	10	3687
2026-01-20 04:13:30.70	177.14	18.44	-24.8	-25.1	16.7	1.94e-04	0	45	0	789577728	10	3700
2026-01-20 04:13:32.70	177.28	18.21	-24.8	-25.0	16.7	0.00e+00	0	45	0	804257792	10	3689
2026-01-20 04:13:34.71	177.42	17.97	-24.8	-25.5	16.7	0.00e+00	0	45	0	817889280	9	3901
2026-01-20 04:13:36.71	177.56	17.74	-24.9	-25.8	16.5	0.00e+00	0	45	0	833617920	9	3974
2026-01-20 04:13:38.72	177.69	17.51	-24.9	-25.8	16.5	0.00e+00	0	45	0	847249408	9	3976
2026-01-20 04:13:40.73	177.82	17.28	-24.9	-25.8	16.5	7.86e-04	0	45	0	861929472	9	3976
2026-01-20 04:13:42.74	177.96	17.06	-25.0	-25.9	16.4	8.80e-04	0	45	0	876609536	9	4001
2026-01-20 04:13:44.75	178.09	16.83	-25.5	-26.5	15.9	0.00e+00	0	45	0	891289600	10	4039
2026-01-20 04:13:46.76	178.21	16.61	-25.2	-25.8	16.2	9.25e-04	0	45	0	904921088	10	3865
2026-01-20 04:13:48.77	178.34	16.39	-25.1	-25.7	16.3	9.36e-04	0	45	0	920649728	10	3838
2026-01-20 04:13:50.78	178.47	16.17	-25.2	-25.8	16.2	0.00e+00	0	45	0	934281216	10	3873
2026-01-20 04:13:52.79	178.59	15.95	-25.3	-26.0	16.1	9.51e-04	0	45	0	948961280	10	3918
2026-01-20 04:13:54.79	178.71	15.74	-25.3	-26.0	16.0	0.00e+00	0	45	0	963641344	10	3918
2026-01-20 04:13:56.80	178.83	15.53	-25.3	-26.1	16.0	0.00e+00	0	45	0	978321408	10	3950
2026-01-20 04:13:58.80	178.95	15.32	-25.4	-26.2	15.9	8.67e-04	0	45	0	991952896	10	3978
2026-01-20 04:14:00.81	179.06	15.11	-25.3	-26.2	15.9	8.69e-04	0	45	0	1006632960	10	3960
2026-01-20 04:14:02.82	179.18	14.90	-25.5	-26.6	15.7	0.00e+00	0	45	0	1021313024	10	4062
2026-01-20 04:14:04.82	179.29	14.69	-25.5	-26.6	15.7	0.00e+00	0	45	0	1035993088	10	4065
2026-01-20 04:14:06.82	179.40	14.49	-25.6	-26.2	15.6	0.00e+00	0	45	0	1050673152	11	3863
2026-01-20 04:14:08.82	179.51	14.29	-25.9	-27.0	15.2	0.00e+00	0	45	0	1065353216	11	4058
2026-01-20 04:14:10.83	179.62	14.09	-26.0	-27.0	15.2	0.00e+00	0	45	0	1078984704	11	4070
2026-01-20 04:14:12.84	179.73	13.89	-25.9	-26.9	15.2	0.00e+00	0	45	0	1093664768	11	4029
2026-01-20 04:14:14.85	179.84	13.69	-26.4	-27.5	14.6	0.00e+00	0	45	0	1108344832	12	4074
2026-01-20 04:14:16.86	179.94	13.49	-26.6	-27.5	14.3	0.00e+00	0	45	0	1123024896	13	3973
2026-01-20 04:14:18.87	180.05	13.30	-26.1	-26.4	14.9	2.20e-06	0	45	0	1137704960	13	3714
2026-01-20 04:14:20.88	180.15	13.10	-26.1	-26.3	14.9	0.00e+00	0	45	0	1151336448	13	3698
2026-01-20 04:14:22.88	180.25	12.91	-26.4	-27.1	14.5	0.00e+00	0	45	0	1166016512	13	3882
2026-01-20 04:14:24.89	180.35	12.72	-26.0	-26.2	15.0	0.00e+00	0	45	0	1180696576	13	3673
2026-01-20 04:14:26.89	180.45	12.53	-26.1	-26.8	14.8	0.00e+00	0	45	0	1195376640	12	3914
2026-01-20 04:14:28.90	180.55	12.34	-26.2	-27.2	14.7	0.00e+00	0	45	0	1210056704	12	4007
2026-01-20 04:14:30.91	180.64	12.16	-26.1	-26.9	14.8	0.00e+00	0	45	0	1223688192	12	3943
2026-01-20 04:14:32.91	180.74	11.97	-26.1	-26.9	14.8	5.70e-06	0	45	0	1238368256	12	3945
2026-01-20 04:14:34.91	180.83	11.79	-26.2	-27.0	14.7	0.00e+00	0	45	0	1253048320	12	3964
2026-01-20 04:14:36.90	180.92	11.61	-26.3	-27.2	14.6	0.00e+00	0	45	0	1267728384	12	4020
2026-01-20 04:14:38.90	181.02	11.43	-26.3	-27.2	14.6	3.40e-06	0	45	0	1281359872	12	4025
2026-01-20 04:14:40.91	181.11	11.25	-26.2	-27.2	14.6	0.00e+00	0	45	0	1296039936	12	4011
2026-01-20 04:14:42.92	181.20	11.07	-26.4	-27.5	14.4	1.10e-06	0	45	0	1310720000	12	4100
2026-01-20 04:14:44.92	181.29	10.89	-26.4	-27.5	14.4	0.00e+00	0	45	0	1325400064	12	4099
2026-01-20 04:14:46.93	181.37	10.71	-26.3	-27.4	14.4	0.00e+00	0	45	0	1340080128	12	4071
2026-01-20 04:14:48.94	181.46	10.54	-26.3	-27.4	14.4	2.20e-06	0	45	0	1354760192	12	4062
2026-01-20 04:14:50.95	181.55	10.36	-26.3	-27.4	14.4	0.00e+00	0	45	0	1368391680	12	4074
2026-01-20 04:14:52.96	181.63	10.19	-26.4	-27.6	14.3	1.10e-06	0	45	0	1383071744	12	4106
2026-01-20 04:14:54.97	181.72	10.02	-26.4	-27.7	14.3	1.10e-06	0	45	0	1397751808	12	4141
2026-01-20 04:14:56.97	181.80	9.85	-26.7	-27.7	13.9	5.70e-06	0	45	0	1412431872	13	4048
2026-01-20 04:14:58.98	181.88	9.68	-26.6	-27.5	14.1	1.10e-06	0	45	0	1427111936	13	3986
2026-01-20 04:15:00.97	181.96	9.51	-26.7	-27.7	13.9	2.20e-06	0	45	0	1441792000	13	4048
2026-01-20 04:15:02.97	182.04	9.35	-26.7	-27.8	13.8	2.20e-06	0	45	0	1455423488	13	4084
2026-01-20 04:15:04.97	182.12	9.18	-26.7	-27.8	13.8	2.20e-06	0	45	0	1470103552	13	4070
2026-01-20 04:15:06.98	182.20	9.02	-26.7	-27.7	13.9	3.40e-06	0	45	0	1484783616	13	4032
2026-01-20 04:15:09.00	182.28	8.85	-27.0	-28.5	13.4	1.37e-05	0	45	0	1499463680	13	4258
2026-01-20 04:15:11.00	182.36	8.69	-26.8	-28.0	13.7	8.00e-06	0	45	0	1513095168	13	4118
2026-01-20 04:15:13.01	182.44	8.53	-26.8	-28.1	13.6	9.10e-06	0	45	0	1527775232	13	4139
2026-01-20 04:15:15.01	182.51	8.37	-26.9	-28.1	13.6	1.02e-05	0	45	0	1542455296	13	4148
2026-01-20 04:15:17.02	182.59	8.21	-26.9	-28.1	13.6	9.10e-06	0	45	0	1557135360	13	4146
2026-01-20 04:15:19.03	182.66	8.05	-26.9	-28.3	13.5	1.14e-05	0	45	0	1571815424	13	4205
2026-01-20 04:15:21.04	182.73	7.89	-27.5	-29.1	12.7	7.89e-05	0	45	0	1586495488	14	4332
2026-01-20 04:15:23.06	182.81	7.73	-27.6	-28.8	12.6	7.89e-05	0	45	0	1600126976	15	4140
2026-01-20 04:15:25.06	182.88	7.58	-27.7	-29.1	12.4	1.42e-03	0	45	0	1614807040	15	4216
2026-01-20 04:15:27.07	182.95	7.42	-27.6	-28.9	12.5	1.10e-04	0	45	0	1629487104	15	4171
2026-01-20 04:15:29.08	183.02	7.27	-27.7	-29.0	12.4	1.10e-04	0	45	0	1644167168	15	4186
2026-01-20 04:15:31.08	183.09	7.11	-28.7	-30.4	11.2	2.31e-03	0	45	0	1658847232	17	4361
2026-01-20 04:15:33.09	183.16	6.96	-33.2	-43.0	3.8	8.46e-01	0	45	104	1659895808	26	11166

#Closed at: 2026-01-20 04:15:34
#Recorded file [1659 MB]: D:/data/31010_260120_071138.dat