passes_logs/2026/01/20/R2M6_AANII_01/R2M6_AANII_01__20260120_093417_SUOMI_NPP_rec.log

#Pass ID: 20260120_093417_SUOMI NPP
#Satellite: SUOMI NPP
#Configuration: NPP
#almurnet v.1.7.20240730
#Start time: 2026-01-20 09:34:17

#Version: 2.2.20231116
#Station: R2M6_AANII_01
#Location: 30.233357 lon 59.946436 lat
#TLE: 1 37849U 11061A   26019.61507914  .00000076  00000+0  57195-4 0  9994
#TLE: 2 37849  98.7817 321.6240 0002347  55.5899 304.5499 14.19526391737369

#Time	Az	El	Level	Level2	SNR	BER	BlckErr	Temp	State	Recorded	gain1	gain2
2026-01-20 09:34:17.42	134.71	7.01	-31.5	-34.7	5.2	1.26e+00	0	41	0	0	24	5230
2026-01-20 09:34:20.42	134.60	7.23	-32.1	-37.6	6.7	1.90e-01	0	42	0	1048576	24	6753
2026-01-20 09:34:23.43	134.47	7.46	-31.8	-36.1	7.8	1.14e-01	0	42	0	7340032	24	5927
2026-01-20 09:34:26.44	134.35	7.69	-31.3	-34.3	9.2	2.47e-02	0	42	0	12582912	24	5055
2026-01-20 09:34:29.44	134.22	7.92	-30.9	-33.2	10.4	8.66e-03	0	42	0	17825792	23	4699
2026-01-20 09:34:32.45	134.10	8.16	-30.7	-33.0	11.1	1.68e-03	0	42	0	24117248	22	4702
2026-01-20 09:34:35.45	133.97	8.40	-31.5	-35.7	9.1	1.35e-02	0	42	0	29360128	22	5846
2026-01-20 09:34:38.46	133.83	8.64	-31.9	-37.2	7.6	1.05e-01	0	42	0	35651584	23	6558
2026-01-20 09:34:41.47	133.70	8.88	-31.9	-36.2	7.9	1.13e-01	0	42	0	40894464	24	5945
2026-01-20 09:34:44.46	133.56	9.12	-31.5	-34.5	9.4	1.50e-02	0	42	0	46137344	24	5098
2026-01-20 09:34:47.46	133.42	9.36	-31.3	-34.2	10.0	5.87e-03	0	43	0	52428800	23	5038
2026-01-20 09:34:50.47	133.28	9.61	-31.8	-36.2	8.7	2.49e-02	0	43	0	57671680	23	5913
2026-01-20 09:34:53.47	133.13	9.86	-32.3	-37.8	7.0	1.51e-01	0	43	0	62914560	24	6761
2026-01-20 09:34:56.49	132.99	10.12	-32.1	-36.6	7.9	1.01e-01	0	43	0	69206016	24	6068
2026-01-20 09:34:59.50	132.83	10.37	-31.3	-33.6	10.2	9.07e-03	0	43	0	74448896	24	4677
2026-01-20 09:35:02.51	132.68	10.63	-31.1	-33.5	10.7	2.01e-03	0	43	0	80740352	23	4734
2026-01-20 09:35:05.52	132.53	10.89	-30.9	-32.9	11.2	1.26e-03	0	43	0	85983232	23	4507
2026-01-20 09:35:08.53	132.37	11.15	-30.9	-32.9	11.2	1.18e-03	0	43	0	91226112	23	4517
2026-01-20 09:35:11.54	132.20	11.42	-30.7	-32.8	11.5	1.32e-03	0	43	0	97517568	22	4573
2026-01-20 09:35:14.55	132.04	11.69	-30.2	-31.8	12.6	1.34e-04	0	43	0	102760448	21	4314
2026-01-20 09:35:17.54	131.87	11.95	-30.2	-31.6	12.9	2.51e-05	0	43	0	108003328	21	4228
2026-01-20 09:35:20.53	131.70	12.23	-30.7	-33.1	11.8	3.81e-04	0	43	0	114294784	21	4729
2026-01-20 09:35:23.55	131.52	12.50	-30.9	-33.0	11.6	9.15e-04	0	43	0	119537664	22	4611
2026-01-20 09:35:26.57	131.35	12.78	-30.6	-32.2	12.2	2.80e-04	0	43	0	125829120	22	4321
2026-01-20 09:35:29.58	131.16	13.07	-30.5	-31.8	12.5	1.52e-04	0	43	0	131072000	22	4180
2026-01-20 09:35:32.59	130.98	13.35	-30.6	-32.2	12.2	1.87e-04	0	43	0	136314880	22	4325
2026-01-20 09:35:35.59	130.79	13.64	-30.7	-32.6	11.9	4.85e-04	0	43	0	142606336	22	4455
2026-01-20 09:35:38.59	130.59	13.93	-30.4	-31.7	12.6	2.93e-04	0	43	0	147849216	22	4156
2026-01-20 09:35:41.59	130.40	14.22	-30.4	-31.7	12.5	1.34e-04	0	43	0	153092096	22	4204
2026-01-20 09:35:44.60	130.20	14.52	-30.5	-32.6	12.2	1.10e-04	0	43	0	159383552	21	4582
2026-01-20 09:35:47.60	129.99	14.82	-30.8	-33.2	11.8	4.00e-04	0	44	0	164626432	21	4792
2026-01-20 09:35:50.61	129.78	15.13	-30.6	-32.7	12.4	1.73e-04	0	44	0	170917888	21	4554
2026-01-20 09:35:53.60	129.57	15.43	-30.6	-32.5	12.5	1.43e-04	0	44	0	176160768	21	4479
2026-01-20 09:35:56.61	129.35	15.74	-30.7	-32.7	12.4	1.34e-04	0	44	0	181403648	21	4555
2026-01-20 09:35:59.63	129.12	16.06	-30.7	-32.9	12.3	2.12e-04	0	44	0	187695104	21	4628
2026-01-20 09:36:02.64	128.89	16.38	-30.3	-31.8	13.0	2.74e-05	0	44	0	192937984	21	4274
2026-01-20 09:36:05.65	128.66	16.70	-30.5	-32.4	12.6	8.08e-05	0	44	0	198180864	21	4453
2026-01-20 09:36:08.65	128.42	17.02	-30.7	-32.9	12.3	1.39e-04	0	44	0	204472320	21	4629
2026-01-20 09:36:11.67	128.17	17.36	-30.4	-32.0	12.9	6.10e-05	0	44	0	209715200	21	4354
2026-01-20 09:36:14.66	127.92	17.69	-30.0	-31.0	13.6	6.10e-06	0	44	0	216006656	21	4020
2026-01-20 09:36:17.68	127.67	18.03	-30.3	-31.8	13.1	1.44e-05	0	44	0	221249536	21	4257
2026-01-20 09:36:20.69	127.40	18.37	-30.8	-33.0	12.3	2.26e-04	0	44	0	226492416	21	4671
2026-01-20 09:36:23.69	127.14	18.71	-30.9	-33.4	12.1	1.94e-04	0	44	0	232783872	21	4765
2026-01-20 09:36:26.68	126.86	19.06	-30.8	-32.5	12.4	1.62e-04	0	44	0	238026752	22	4376
2026-01-20 09:36:29.69	126.58	19.42	-30.9	-32.8	12.3	1.57e-04	0	44	0	243269632	22	4465
2026-01-20 09:36:32.69	126.29	19.77	-30.8	-32.3	12.6	7.40e-05	0	44	0	249561088	22	4303
2026-01-20 09:36:35.72	125.99	20.14	-30.7	-32.0	12.8	8.54e-05	0	44	0	254803968	22	4207
2026-01-20 09:36:38.72	125.69	20.51	-31.0	-32.9	12.3	1.99e-04	0	44	0	261095424	22	4490
2026-01-20 09:36:41.72	125.38	20.88	-31.0	-33.0	12.3	2.97e-04	0	44	0	266338304	22	4517
2026-01-20 09:36:44.72	125.07	21.25	-30.6	-31.9	13.0	8.08e-05	0	44	0	271581184	22	4144
2026-01-20 09:36:47.73	124.74	21.64	-30.9	-32.7	12.4	9.07e-05	0	44	0	277872640	22	4414
2026-01-20 09:36:50.73	124.41	22.02	-30.8	-32.3	12.8	6.63e-05	0	44	0	283115520	22	4273
2026-01-20 09:36:53.75	124.06	22.41	-30.9	-32.6	12.6	4.04e-05	0	44	0	289406976	22	4385
2026-01-20 09:36:56.76	123.71	22.81	-31.2	-33.6	11.9	5.04e-04	0	44	0	294649856	22	4706
2026-01-20 09:36:59.76	123.35	23.21	-31.1	-33.0	12.4	1.92e-04	0	44	0	299892736	22	4487
2026-01-20 09:37:02.77	122.98	23.62	-31.4	-34.1	11.6	5.13e-04	0	44	0	306184192	22	4885
2026-01-20 09:37:05.79	122.59	24.03	-31.6	-34.2	11.2	1.56e-03	0	44	0	311427072	23	4833
2026-01-20 09:37:08.79	122.20	24.45	-31.1	-32.5	12.4	1.81e-04	0	44	0	316669952	23	4229
2026-01-20 09:37:11.80	121.80	24.87	-31.6	-34.2	11.2	5.10e-04	0	44	0	322961408	23	4847
2026-01-20 09:37:14.80	121.39	25.29	-31.5	-33.7	11.6	9.95e-04	0	44	0	328204288	23	4658
2026-01-20 09:37:17.80	120.96	25.72	-31.0	-32.2	12.6	9.84e-05	0	44	0	334495744	23	4153
2026-01-20 09:37:20.81	120.53	26.16	-31.0	-32.2	12.7	8.39e-05	0	44	0	339738624	23	4148
2026-01-20 09:37:23.80	120.08	26.60	-30.8	-32.2	13.1	2.13e-05	0	44	0	344981504	22	4230
2026-01-20 09:37:26.82	119.62	27.05	-31.1	-33.1	12.5	7.17e-05	0	44	0	351272960	22	4509
2026-01-20 09:37:29.82	119.14	27.50	-31.0	-32.7	12.8	9.15e-05	0	44	0	356515840	22	4365
2026-01-20 09:37:32.83	118.65	27.96	-31.3	-33.6	12.2	1.93e-04	0	44	0	361758720	22	4692
2026-01-20 09:37:35.85	118.14	28.43	-31.5	-33.9	11.5	1.27e-03	0	44	0	368050176	23	4755
2026-01-20 09:37:38.85	117.63	28.90	-31.4	-33.4	11.8	4.65e-04	0	44	0	373293056	23	4562
2026-01-20 09:37:41.87	117.09	29.37	-31.3	-33.1	12.1	2.29e-04	0	44	0	379584512	23	4436
2026-01-20 09:37:44.87	116.54	29.85	-31.3	-33.1	12.1	2.08e-04	0	44	0	384827392	23	4460
2026-01-20 09:37:47.88	115.97	30.33	-31.4	-33.6	11.8	3.90e-04	0	44	0	390070272	23	4633
2026-01-20 09:37:50.88	115.39	30.82	-31.5	-33.7	11.7	1.07e-03	0	44	0	396361728	23	4660
2026-01-20 09:37:53.89	114.78	31.32	-31.7	-34.3	11.2	8.31e-04	0	44	0	401604608	23	4893
2026-01-20 09:37:56.91	114.16	31.82	-31.6	-34.1	11.6	9.94e-04	0	44	0	406847488	23	4809
2026-01-20 09:37:59.93	113.51	32.32	-31.5	-33.8	11.7	7.86e-04	0	44	0	413138944	23	4689
2026-01-20 09:38:02.94	112.85	32.83	-31.4	-33.5	11.9	4.46e-04	0	44	0	418381824	23	4575
2026-01-20 09:38:05.95	112.16	33.34	-31.6	-34.0	11.6	3.46e-04	0	44	0	424673280	23	4742
2026-01-20 09:38:08.96	111.45	33.86	-31.7	-33.9	11.4	1.99e-03	0	44	0	429916160	24	4609
2026-01-20 09:38:11.98	110.72	34.38	-31.7	-33.9	11.4	8.80e-04	0	44	0	435159040	24	4599
2026-01-20 09:38:14.98	109.97	34.90	-31.5	-33.3	11.8	3.72e-04	0	44	0	441450496	24	4409
2026-01-20 09:38:18.00	109.19	35.43	-32.0	-35.1	10.4	2.51e-03	0	44	0	446693376	24	5110
2026-01-20 09:38:21.00	108.38	35.95	-32.4	-35.7	9.7	1.42e-02	0	44	0	452984832	25	5299
2026-01-20 09:38:24.00	107.55	36.48	-32.3	-35.3	9.8	1.18e-02	0	44	0	458227712	25	5111
2026-01-20 09:38:27.01	106.70	37.01	-31.5	-33.1	11.8	8.16e-04	0	44	0	463470592	24	4364
2026-01-20 09:38:30.02	105.81	37.54	-31.2	-32.7	12.5	8.69e-05	0	44	0	469762048	23	4318
2026-01-20 09:38:33.04	104.89	38.08	-31.8	-34.6	11.2	8.69e-04	0	44	0	475004928	23	5002
2026-01-20 09:38:36.05	103.94	38.61	-31.4	-33.4	12.1	2.78e-04	0	44	0	480247808	23	4551
2026-01-20 09:38:39.05	102.96	39.14	-32.0	-35.3	10.7	1.74e-03	0	44	0	486539264	23	5265
2026-01-20 09:38:42.05	101.95	39.66	-31.9	-34.6	10.9	2.69e-03	0	44	0	491782144	24	4924
2026-01-20 09:38:45.05	100.91	40.19	-31.8	-34.3	11.1	3.24e-03	0	44	0	498073600	24	4792
2026-01-20 09:38:48.06	99.83	40.71	-31.2	-33.1	12.1	1.44e-04	0	44	0	503316480	23	4459
2026-01-20 09:38:51.07	98.71	41.23	-31.7	-34.5	11.2	3.12e-03	0	44	0	508559360	23	4972
2026-01-20 09:38:54.07	97.56	41.74	-31.6	-34.1	11.6	5.61e-04	0	44	0	514850816	23	4794
2026-01-20 09:38:57.06	96.38	42.25	-31.5	-33.9	11.8	4.84e-04	0	44	0	520093696	23	4701
2026-01-20 09:39:00.06	95.16	42.74	-31.8	-34.8	11.1	1.16e-03	0	44	0	525336576	23	5072
2026-01-20 09:39:03.07	93.89	43.23	-31.7	-34.1	11.2	3.17e-03	0	44	0	531628032	24	4725
2026-01-20 09:39:06.08	92.59	43.71	-30.4	-31.0	14.0	7.60e-06	0	44	0	536870912	22	3883
2026-01-20 09:39:09.08	91.25	44.18	-31.0	-32.6	13.1	7.60e-06	0	44	0	543162368	22	4346
2026-01-20 09:39:12.08	89.87	44.64	-31.8	-34.7	11.3	1.08e-03	0	44	0	548405248	23	5026
2026-01-20 09:39:15.08	88.45	45.08	-31.3	-32.7	12.2	5.26e-04	0	44	0	553648128	24	4238
2026-01-20 09:39:18.08	87.00	45.50	-31.0	-32.3	12.9	5.18e-05	0	44	0	559939584	23	4171
2026-01-20 09:39:21.10	85.49	45.91	-30.8	-32.2	13.3	1.44e-05	0	44	0	565182464	22	4233
2026-01-20 09:39:24.11	83.95	46.31	-30.3	-31.4	14.2	2.20e-06	0	44	0	570425344	21	4077
2026-01-20 09:39:27.11	82.37	46.68	-31.8	-34.9	11.0	2.99e-04	0	44	0	576716800	23	5130
2026-01-20 09:39:30.13	80.75	47.03	-32.2	-35.7	10.2	2.02e-03	0	44	0	581959680	24	5428
2026-01-20 09:39:33.13	79.11	47.35	-32.5	-36.6	9.0	3.95e-02	0	44	0	588251136	25	5769
2026-01-20 09:39:36.14	77.42	47.66	-32.0	-35.3	10.2	2.67e-03	0	44	0	593494016	24	5297
2026-01-20 09:39:39.15	75.71	47.94	-31.7	-33.9	11.3	2.37e-03	0	44	0	598736896	24	4654
2026-01-20 09:39:42.15	73.97	48.19	-31.7	-34.0	11.3	1.18e-03	0	44	0	605028352	24	4696
2026-01-20 09:39:45.16	72.20	48.41	-32.0	-34.9	10.7	2.05e-03	0	44	0	610271232	24	5027
2026-01-20 09:39:48.17	70.40	48.60	-30.8	-32.3	13.2	1.60e-05	0	44	0	615514112	22	4290
2026-01-20 09:39:51.18	68.58	48.77	-31.4	-33.6	11.9	6.77e-04	0	44	0	621805568	23	4630
2026-01-20 09:39:54.19	66.75	48.90	-29.8	-30.8	14.8	7.00e-07	0	44	0	627048448	20	4036
2026-01-20 09:39:57.20	64.90	49.00	-29.8	-31.1	14.9	0.00e+00	0	44	0	633339904	19	4206
2026-01-20 09:40:00.20	63.05	49.07	-30.8	-33.0	13.0	1.98e-05	0	44	0	638582784	21	4626
2026-01-20 09:40:03.20	61.19	49.11	-30.9	-32.5	12.6	4.36e-04	0	44	0	643825664	23	4319
2026-01-20 09:40:06.21	59.32	49.11	-31.5	-34.6	11.5	3.11e-04	0	44	0	650117120	22	5152
2026-01-20 09:40:09.22	57.45	49.08	-30.2	-31.3	14.1	3.00e-06	0	44	0	655360000	21	4090
2026-01-20 09:40:12.23	55.59	49.02	-29.9	-30.6	14.5	7.00e-07	0	44	0	660602880	21	3876
2026-01-20 09:40:15.24	53.74	48.93	-29.7	-30.4	15.0	7.00e-07	0	44	0	666894336	20	3901
2026-01-20 09:40:18.25	51.90	48.80	-30.6	-32.4	13.3	1.52e-05	0	44	0	672137216	21	4436
2026-01-20 09:40:21.26	50.08	48.65	-30.8	-32.7	12.9	4.61e-04	0	44	0	678428672	22	4440
2026-01-20 09:40:24.26	48.29	48.46	-31.1	-33.4	12.3	5.03e-05	0	44	0	683671552	22	4699
2026-01-20 09:40:27.27	46.51	48.24	-31.0	-33.0	12.7	7.93e-05	0	44	0	688914432	22	4537
2026-01-20 09:40:30.27	44.77	48.00	-30.8	-32.3	13.1	3.43e-05	0	44	0	695205888	22	4280
2026-01-20 09:40:33.29	43.04	47.73	-32.0	-35.5	10.6	8.12e-04	0	44	0	700448768	23	5385
2026-01-20 09:40:36.30	41.35	47.43	-31.4	-33.1	12.1	4.32e-04	0	44	0	705691648	24	4355
2026-01-20 09:40:39.30	39.70	47.11	-31.4	-33.7	12.0	2.07e-04	0	44	0	711983104	23	4646
2026-01-20 09:40:42.31	38.08	46.77	-31.8	-34.8	11.1	1.33e-03	0	44	0	717225984	23	5107
2026-01-20 09:40:45.32	36.49	46.40	-32.3	-36.2	9.7	8.66e-03	0	44	0	723517440	24	5621
2026-01-20 09:40:48.32	34.95	46.02	-32.0	-34.5	10.6	3.54e-03	0	44	0	728760320	25	4794
2026-01-20 09:40:51.32	33.45	45.62	-31.4	-33.1	11.9	6.54e-04	0	44	0	734003200	24	4360
2026-01-20 09:40:54.32	31.98	45.20	-31.7	-34.0	11.3	7.44e-04	0	44	0	740294656	24	4689
2026-01-20 09:40:57.33	30.55	44.76	-31.6	-33.6	11.7	5.34e-04	0	44	0	745537536	24	4520
2026-01-20 09:41:00.34	29.16	44.31	-31.1	-32.5	12.6	3.70e-04	0	44	0	750780416	23	4239
2026-01-20 09:41:03.35	27.81	43.84	-31.8	-34.8	11.1	9.66e-04	0	44	0	757071872	23	5090
2026-01-20 09:41:06.37	26.50	43.36	-30.8	-32.1	13.3	3.05e-05	0	44	0	762314752	22	4191
2026-01-20 09:41:09.37	25.23	42.88	-31.4	-33.4	12.1	2.43e-04	0	44	0	768606208	23	4507
2026-01-20 09:41:12.38	24.00	42.38	-30.5	-31.4	13.8	3.80e-06	0	44	0	773849088	22	3984
2026-01-20 09:41:15.39	22.80	41.88	-30.9	-32.5	13.0	5.18e-05	0	44	0	779091968	22	4311
2026-01-20 09:41:18.40	21.65	41.37	-31.8	-34.7	11.1	5.52e-04	0	44	0	785383424	23	5009
2026-01-20 09:41:21.40	20.53	40.86	-32.8	-37.2	8.6	3.46e-02	0	44	0	790626304	25	5963
2026-01-20 09:41:24.41	19.44	40.34	-32.5	-35.5	9.5	1.88e-02	0	44	0	795869184	26	5053
2026-01-20 09:41:27.42	18.39	39.81	-32.3	-34.6	10.1	9.12e-03	0	44	0	802160640	26	4689
2026-01-20 09:41:30.41	17.38	39.29	-32.3	-35.0	10.3	3.98e-03	0	44	0	807403520	25	4963
2026-01-20 09:41:33.44	16.39	38.76	-32.4	-35.5	9.9	6.71e-03	0	44	0	813694976	25	5166
2026-01-20 09:41:36.45	15.44	38.23	-32.0	-34.3	10.6	2.13e-03	0	44	0	818937856	25	4702
2026-01-20 09:41:39.46	14.52	37.70	-33.1	-38.0	7.5	4.84e-02	0	44	0	824180736	26	6316
2026-01-20 09:41:42.47	13.62	37.17	-33.0	-37.8	7.6	9.27e-02	0	44	0	830472192	26	6219
2026-01-20 09:41:45.47	12.76	36.64	-33.4	-39.7	6.2	2.30e-01	0	44	0	835715072	26	7428
2026-01-20 09:41:48.49	11.92	36.11	-32.7	-36.1	9.0	2.94e-02	0	44	0	842006528	26	5324
2026-01-20 09:41:51.48	11.12	35.59	-32.3	-34.7	10.0	1.18e-02	0	44	0	847249408	26	4739
2026-01-20 09:41:54.49	10.34	35.07	-31.7	-33.7	11.5	8.37e-04	0	44	0	852492288	24	4536
2026-01-20 09:41:57.49	9.58	34.55	-32.2	-35.3	10.3	4.21e-03	0	44	0	858783744	24	5166
2026-01-20 09:42:00.51	8.85	34.03	-32.6	-36.3	9.0	2.87e-02	0	44	0	864026624	25	5552
2026-01-20 09:42:03.51	8.14	33.52	-32.3	-35.2	9.9	7.29e-03	0	44	0	869269504	25	5062
2026-01-20 09:42:06.52	7.45	33.01	-32.1	-34.5	10.4	5.02e-03	0	44	0	875560960	25	4771
2026-01-20 09:42:09.54	6.78	32.50	-31.9	-34.5	10.8	1.86e-03	0	44	0	880803840	24	4850
2026-01-20 09:42:12.54	6.14	32.00	-32.4	-36.2	9.5	1.12e-02	0	44	0	887095296	24	5553
2026-01-20 09:42:15.54	5.52	31.50	-32.7	-36.6	8.0	1.21e-01	0	44	0	892338176	26	5592
2026-01-20 09:42:18.54	4.91	31.01	-30.8	-32.3	13.1	7.47e-05	0	44	0	897581056	22	4248
2026-01-20 09:42:21.56	4.32	30.52	-31.0	-32.7	12.7	5.18e-05	0	44	0	903872512	22	4374
2026-01-20 09:42:24.57	3.75	30.03	-32.1	-35.2	10.2	3.48e-03	0	44	0	909115392	24	5136
2026-01-20 09:42:27.57	3.20	29.56	-32.3	-35.9	9.7	1.29e-02	0	44	0	914358272	24	5439
2026-01-20 09:42:30.59	2.66	29.08	-31.7	-34.0	11.0	3.22e-03	0	44	0	920649728	24	4687
2026-01-20 09:42:33.59	2.14	28.62	-31.7	-33.7	11.2	1.42e-03	0	44	0	925892608	24	4579
2026-01-20 09:42:36.60	1.63	28.15	-31.7	-34.0	11.0	1.27e-03	0	44	0	932184064	24	4676
2026-01-20 09:42:39.61	1.14	27.69	-31.5	-33.4	11.4	1.47e-03	0	44	0	937426944	24	4468
2026-01-20 09:42:42.62	0.66	27.24	-31.0	-32.2	12.6	8.46e-05	0	44	0	942669824	23	4150
2026-01-20 09:42:45.63	0.20	26.79	-31.6	-34.1	11.3	7.78e-04	0	44	0	948961280	23	4800
2026-01-20 09:42:48.62	359.75	26.35	-32.5	-36.7	8.9	1.64e-02	0	44	0	954204160	24	5876
2026-01-20 09:42:51.62	359.32	25.92	-32.2	-35.6	9.8	1.14e-02	0	44	0	959447040	24	5323
2026-01-20 09:42:54.63	358.89	25.49	-31.6	-33.6	11.2	1.33e-03	0	44	0	965738496	24	4534
2026-01-20 09:42:57.64	358.48	25.06	-30.9	-32.0	12.6	1.41e-04	0	44	0	970981376	23	4109
2026-01-20 09:43:00.65	358.07	24.64	-30.6	-31.8	13.1	3.50e-05	0	44	0	977272832	22	4119
2026-01-20 09:43:03.64	357.68	24.22	-31.4	-34.0	11.6	3.65e-04	0	44	0	982515712	22	4887
2026-01-20 09:43:06.64	357.30	23.81	-31.5	-34.0	11.2	1.48e-03	0	44	0	987758592	23	4791
2026-01-20 09:43:09.65	356.93	23.41	-31.2	-32.9	12.0	3.09e-04	0	44	0	994050048	23	4381
2026-01-20 09:43:12.65	356.57	23.01	-30.8	-31.8	12.8	7.93e-05	0	44	0	999292928	23	4037
2026-01-20 09:43:15.66	356.22	22.61	-30.7	-31.9	13.0	4.27e-05	0	44	0	1004535808	22	4163
2026-01-20 09:43:18.68	355.87	22.22	-30.5	-31.4	13.4	9.10e-06	0	44	0	1010827264	22	4006
2026-01-20 09:43:21.68	355.54	21.83	-30.8	-32.3	12.7	9.61e-05	0	44	0	1016070144	22	4292
2026-01-20 09:43:24.68	355.21	21.45	-31.5	-34.3	11.4	5.47e-04	0	44	0	1022361600	22	4980
2026-01-20 09:43:27.68	354.90	21.08	-31.3	-33.3	11.7	6.38e-04	0	44	0	1027604480	23	4534
2026-01-20 09:43:30.69	354.58	20.71	-31.0	-32.6	12.2	2.36e-04	0	44	0	1032847360	23	4286
2026-01-20 09:43:33.71	354.28	20.34	-30.9	-32.2	12.5	1.55e-04	0	44	0	1039138816	23	4166
2026-01-20 09:43:36.71	353.99	19.98	-31.1	-32.7	12.1	3.51e-04	0	44	0	1044381696	23	4315
2026-01-20 09:43:39.71	353.70	19.62	-31.3	-33.3	11.6	8.00e-04	0	44	0	1049624576	23	4553
2026-01-20 09:43:42.72	353.42	19.26	-31.1	-32.7	12.0	4.08e-04	0	45	0	1055916032	23	4350
2026-01-20 09:43:45.72	353.14	18.91	-31.0	-32.3	12.2	2.30e-04	0	44	0	1061158912	23	4226
2026-01-20 09:43:48.74	352.88	18.57	-30.5	-31.6	13.1	4.73e-05	0	44	0	1067450368	22	4084
2026-01-20 09:43:51.75	352.61	18.22	-30.2	-31.3	13.6	1.06e-05	0	44	0	1072693248	21	4071
2026-01-20 09:43:54.76	352.36	17.89	-30.1	-30.9	13.8	7.60e-06	0	44	0	1077936128	21	3966
2026-01-20 09:43:57.76	352.11	17.55	-30.1	-31.0	13.7	8.30e-06	0	45	0	1084227584	21	4004
2026-01-20 09:44:00.78	351.86	17.22	-30.5	-32.3	12.9	4.19e-05	0	44	0	1089470464	21	4384
2026-01-20 09:44:03.79	351.62	16.90	-31.1	-33.4	11.8	2.81e-04	0	44	0	1094713344	22	4677
2026-01-20 09:44:06.81	351.39	16.57	-31.5	-34.5	11.0	1.66e-03	0	44	0	1101004800	22	5114
2026-01-20 09:44:09.81	351.16	16.26	-31.8	-35.1	10.1	7.56e-03	0	44	0	1106247680	23	5297
2026-01-20 09:44:12.81	350.94	15.94	-32.0	-35.4	9.5	1.32e-02	0	44	0	1112539136	24	5317
2026-01-20 09:44:15.82	350.72	15.63	-31.9	-35.1	9.7	1.34e-02	0	44	0	1117782016	24	5191
2026-01-20 09:44:18.83	350.51	15.32	-31.7	-34.3	10.2	7.54e-03	0	44	0	1123024896	24	4887
2026-01-20 09:44:21.84	350.30	15.02	-31.6	-34.1	10.3	6.47e-03	0	44	0	1129316352	24	4819
2026-01-20 09:44:24.85	350.09	14.72	-31.7	-34.6	9.9	1.24e-02	0	44	0	1134559232	24	4983
2026-01-20 09:44:27.86	349.89	14.42	-31.4	-33.9	10.8	2.33e-03	0	44	0	1139802112	23	4813
2026-01-20 09:44:30.86	349.70	14.13	-31.5	-34.5	10.3	4.22e-03	0	44	0	1146093568	23	5062
2026-01-20 09:44:33.87	349.50	13.84	-31.6	-34.7	10.2	5.28e-03	0	44	0	1151336448	23	5157
2026-01-20 09:44:36.88	349.32	13.55	-31.6	-34.6	10.1	6.55e-03	0	44	0	1157627904	23	5123
2026-01-20 09:44:39.88	349.13	13.26	-31.8	-35.3	9.7	8.28e-03	0	44	0	1162870784	23	5430
2026-01-20 09:44:42.88	348.95	12.98	-31.7	-35.0	9.9	9.96e-03	0	44	0	1168113664	23	5283
2026-01-20 09:44:45.89	348.77	12.70	-31.4	-34.0	10.6	3.08e-03	0	44	0	1174405120	23	4884
2026-01-20 09:44:48.91	348.60	12.43	-31.5	-34.4	10.4	6.11e-03	0	44	0	1179648000	23	5029
2026-01-20 09:44:51.92	348.43	12.15	-31.7	-35.1	9.7	1.43e-02	0	44	0	1185939456	23	5345
2026-01-20 09:44:54.95	348.26	11.88	-32.0	-36.2	8.8	2.03e-02	0	44	0	1191182336	23	5874
2026-01-20 09:44:57.96	348.10	11.61	-32.0	-35.8	8.7	2.87e-02	0	44	0	1196425216	24	5573
2026-01-20 09:45:00.97	347.94	11.35	-31.9	-35.4	9.1	2.58e-02	0	44	0	1202716672	24	5387
2026-01-20 09:45:03.98	347.78	11.08	-31.7	-34.6	9.7	1.29e-02	0	44	0	1207959552	24	5036
2026-01-20 09:45:06.99	347.63	10.82	-31.4	-33.6	10.4	5.10e-03	0	44	0	1213202432	24	4656
2026-01-20 09:45:09.98	347.48	10.57	-31.3	-33.7	10.6	2.73e-03	0	44	0	1219493888	23	4788
2026-01-20 09:45:12.99	347.33	10.31	-31.1	-33.4	10.9	1.54e-03	0	44	0	1224736768	23	4649
2026-01-20 09:45:15.99	347.18	10.06	-31.1	-33.3	10.9	1.66e-03	0	44	0	1231028224	23	4620
2026-01-20 09:45:18.98	347.04	9.81	-31.4	-34.2	10.3	5.30e-03	0	44	0	1236271104	23	4977
2026-01-20 09:45:22.00	346.90	9.56	-31.3	-34.0	10.3	5.11e-03	0	44	0	1241513984	23	4901
2026-01-20 09:45:24.99	346.76	9.32	-31.3	-34.2	10.2	5.38e-03	0	44	0	1247805440	23	4974
2026-01-20 09:45:28.00	346.63	9.08	-31.3	-34.2	10.2	6.70e-03	0	45	0	1253048320	23	4973
2026-01-20 09:45:31.00	346.49	8.83	-31.2	-33.9	10.3	3.95e-03	0	44	0	1258291200	23	4870
2026-01-20 09:45:34.00	346.36	8.60	-31.4	-34.3	10.0	6.84e-03	0	44	0	1264582656	23	5050
2026-01-20 09:45:37.00	346.23	8.36	-31.6	-35.3	9.2	1.27e-02	0	44	0	1269825536	23	5505
2026-01-20 09:45:40.00	346.11	8.13	-31.4	-34.4	9.8	1.56e-02	0	44	0	1275068416	23	5125
2026-01-20 09:45:43.00	345.99	7.89	-31.5	-34.9	9.4	1.97e-02	0	44	0	1281359872	23	5317
2026-01-20 09:45:46.02	345.86	7.66	-31.4	-34.8	9.5	9.87e-03	0	44	0	1286602752	23	5271
2026-01-20 09:45:49.02	345.74	7.43	-31.4	-34.6	9.6	1.64e-02	0	44	0	1292894208	23	5221
2026-01-20 09:45:52.03	345.63	7.21	-31.4	-34.7	9.5	1.73e-02	0	44	0	1298137088	23	5254
2026-01-20 09:45:55.04	345.51	6.98	-33.7	-46.0	3.8	1.49e+00	0	44	104	1301282816	27	14823

#Closed at: 2026-01-20 09:45:55
#Recorded file [1301 MB]: D:/data/31010_260120_123419.dat