passes_logs/2026/01/20/R2M6_AANII_01/R2M6_AANII_01__20260120_101900_AQUA_rec.log

#Pass ID: 20260120_101900_AQUA
#Satellite: AQUA
#Configuration: AQUA
#almurnet v.1.7.20240730
#Start time: 2026-01-20 10:18:59

#Version: 2.2.20231116
#Station: R2M6_AANII_01
#Location: 30.233357 lon 59.946436 lat
#TLE: 1 27424U 02022A   26019.60905539  .00000968  00000+0  20374-3 0  9991
#TLE: 2 27424  98.4090 346.1140 0001992  72.7126 342.3847 14.61830366261565

#Time	Az	El	Level	Level2	SNR	BER	BlckErr	Temp	State	Recorded	gain1	gain2
2026-01-20 10:18:59.36	101.90	6.95	-32.6	-41.9	4.7	7.20e-01	0	42	0	0	27	10533
2026-01-20 10:19:02.36	101.57	7.15	-31.7	-37.5	13.3	6.08e-01	0	42	0	1572864	25	7013
2026-01-20 10:19:05.38	101.24	7.35	-31.3	-36.6	14.3	6.06e-01	0	42	0	7340032	24	6595
2026-01-20 10:19:08.39	100.90	7.55	-31.7	-39.5	11.4	6.15e-01	0	42	0	13107200	24	8769
2026-01-20 10:19:11.39	100.56	7.75	-31.6	-39.4	11.1	6.17e-01	0	42	0	18350080	24	8877
2026-01-20 10:19:14.39	100.21	7.95	-30.7	-35.1	15.4	6.07e-01	0	42	0	24117248	23	5989
2026-01-20 10:19:17.40	99.86	8.16	-30.2	-33.6	17.3	6.07e-01	0	42	0	29884416	22	5332
2026-01-20 10:19:20.41	99.50	8.36	-30.2	-33.4	17.5	6.07e-01	0	42	0	35651584	22	5213
2026-01-20 10:19:23.42	99.13	8.57	-30.6	-34.7	16.7	6.08e-01	0	42	0	41418752	22	5765
2026-01-20 10:19:26.41	98.76	8.77	-30.5	-34.4	16.9	6.07e-01	0	42	0	46661632	22	5675
2026-01-20 10:19:29.42	98.39	8.98	-31.6	-38.0	13.7	6.06e-01	0	43	0	52428800	23	7567
2026-01-20 10:19:32.42	98.01	9.19	-32.0	-40.1	11.4	6.14e-01	0	43	0	58195968	24	9097
2026-01-20 10:19:35.43	97.62	9.40	-32.1	-39.3	11.9	6.14e-01	0	43	0	63438848	25	8261
2026-01-20 10:19:38.43	97.23	9.61	-31.8	-37.2	13.9	6.08e-01	0	43	0	69206016	25	6750
2026-01-20 10:19:41.43	96.83	9.82	-31.4	-35.7	15.2	6.05e-01	0	43	0	74973184	25	5884
2026-01-20 10:19:44.43	96.42	10.03	-31.0	-34.7	16.3	6.07e-01	0	43	0	80740352	24	5499
2026-01-20 10:19:47.43	96.01	10.24	-30.7	-34.3	16.9	6.08e-01	0	43	0	85983232	23	5472
2026-01-20 10:19:50.43	95.59	10.45	-31.3	-36.0	15.9	6.06e-01	0	43	0	91750400	23	6207
2026-01-20 10:19:53.45	95.16	10.66	-30.4	-33.3	17.7	6.05e-01	0	43	0	97517568	23	5005
2026-01-20 10:19:56.47	94.73	10.88	-30.4	-33.7	17.9	6.05e-01	0	43	0	103284736	22	5251
2026-01-20 10:19:59.47	94.29	11.09	-30.3	-33.3	18.2	6.04e-01	0	43	0	108527616	22	5115
2026-01-20 10:20:02.47	93.84	11.31	-30.2	-33.1	18.4	6.04e-01	0	43	0	114294784	22	5013
2026-01-20 10:20:05.49	93.38	11.52	-30.3	-33.4	18.2	6.06e-01	0	43	0	120061952	22	5118
2026-01-20 10:20:08.50	92.92	11.74	-30.3	-33.2	18.4	6.05e-01	0	43	0	125829120	22	5063
2026-01-20 10:20:11.51	92.45	11.95	-30.3	-33.4	18.3	6.04e-01	0	43	0	131596288	22	5105
2026-01-20 10:20:14.53	91.97	12.17	-30.4	-33.4	18.3	6.06e-01	0	43	0	136839168	22	5132
2026-01-20 10:20:17.53	91.49	12.39	-30.3	-33.2	18.5	6.05e-01	0	43	0	142606336	22	5024
2026-01-20 10:20:20.53	90.99	12.60	-30.4	-33.5	18.4	6.07e-01	0	43	0	148373504	22	5129
2026-01-20 10:20:23.54	90.49	12.82	-30.5	-33.7	18.2	6.05e-01	0	43	0	153616384	22	5229
2026-01-20 10:20:26.56	89.98	13.04	-30.4	-33.4	18.4	6.06e-01	0	43	0	159383552	22	5100
2026-01-20 10:20:29.57	89.47	13.26	-30.3	-33.2	18.6	6.06e-01	0	44	0	165150720	22	5000
2026-01-20 10:20:32.58	88.94	13.47	-30.3	-33.0	18.8	6.05e-01	0	43	0	170917888	22	4954
2026-01-20 10:20:35.58	88.41	13.69	-30.4	-33.5	18.5	6.04e-01	0	44	0	176685056	22	5113
2026-01-20 10:20:38.60	87.86	13.91	-30.3	-33.1	18.8	6.03e-01	0	43	0	181927936	22	4959
2026-01-20 10:20:41.60	87.31	14.12	-30.4	-33.3	18.7	6.06e-01	0	43	0	187695104	22	5035
2026-01-20 10:20:44.61	86.75	14.34	-30.4	-33.2	18.7	6.07e-01	0	44	0	193462272	22	5002
2026-01-20 10:20:47.61	86.19	14.55	-30.5	-33.5	18.5	6.06e-01	0	43	0	199229440	22	5114
2026-01-20 10:20:50.61	85.61	14.77	-30.4	-33.4	18.7	6.05e-01	0	44	0	204472320	22	5056
2026-01-20 10:20:53.63	85.02	14.98	-30.5	-33.6	18.4	6.06e-01	0	43	0	210239488	22	5152
2026-01-20 10:20:56.63	84.43	15.19	-30.4	-33.4	18.6	6.08e-01	0	44	0	216006656	22	5067
2026-01-20 10:20:59.64	83.82	15.40	-30.5	-33.7	18.5	6.06e-01	0	44	0	221773824	22	5187
2026-01-20 10:21:02.63	83.21	15.61	-30.4	-33.3	18.7	6.04e-01	0	44	0	227016704	22	5028
2026-01-20 10:21:05.65	82.59	15.83	-30.4	-33.3	18.7	6.06e-01	0	44	0	232783872	22	5049
2026-01-20 10:21:08.65	81.96	16.03	-30.2	-32.8	19.0	6.05e-01	0	44	0	238551040	22	4853
2026-01-20 10:21:11.66	81.31	16.24	-30.4	-33.3	18.8	6.06e-01	0	44	0	244318208	22	5038
2026-01-20 10:21:14.68	80.66	16.45	-30.4	-33.4	18.8	6.06e-01	0	44	0	249561088	22	5054
2026-01-20 10:21:17.69	80.00	16.65	-30.4	-33.4	18.7	6.07e-01	0	44	0	255328256	22	5054
2026-01-20 10:21:20.69	79.33	16.85	-30.5	-33.7	18.6	6.05e-01	0	44	0	261095424	22	5157
2026-01-20 10:21:23.70	78.65	17.05	-30.4	-33.4	18.8	6.06e-01	0	44	0	266862592	22	5077
2026-01-20 10:21:26.70	77.96	17.25	-30.4	-33.2	18.9	6.09e-01	0	44	0	272105472	22	4970
2026-01-20 10:21:29.71	77.26	17.44	-30.5	-33.6	18.7	6.06e-01	0	44	0	277872640	22	5138
2026-01-20 10:21:32.72	76.55	17.64	-30.4	-33.3	18.9	6.08e-01	0	44	0	283639808	22	5001
2026-01-20 10:21:35.73	75.83	17.82	-30.5	-33.6	18.7	6.07e-01	0	44	0	289406976	22	5118
2026-01-20 10:21:38.74	75.10	18.01	-30.5	-33.5	18.8	6.07e-01	0	44	0	294649856	22	5075
2026-01-20 10:21:41.73	74.37	18.19	-30.4	-33.3	18.9	6.06e-01	0	44	0	300417024	22	5014
2026-01-20 10:21:44.74	73.62	18.37	-30.5	-33.7	18.7	6.05e-01	0	44	0	306184192	22	5150
2026-01-20 10:21:47.76	72.86	18.55	-30.5	-33.5	18.7	6.06e-01	0	44	0	311951360	22	5103
2026-01-20 10:21:50.78	72.09	18.73	-30.6	-33.8	18.6	6.04e-01	0	44	0	317718528	22	5205
2026-01-20 10:21:53.78	71.32	18.90	-30.5	-33.4	18.9	6.06e-01	0	44	0	322961408	22	5046
2026-01-20 10:21:56.79	70.53	19.06	-30.6	-33.7	18.6	6.04e-01	0	44	0	328728576	22	5182
2026-01-20 10:21:59.79	69.74	19.22	-30.6	-33.7	18.7	6.07e-01	0	44	0	334495744	22	5166
2026-01-20 10:22:02.81	68.93	19.38	-30.7	-34.1	18.4	6.06e-01	0	44	0	339738624	22	5303
2026-01-20 10:22:05.81	68.13	19.53	-30.8	-34.5	18.2	6.04e-01	0	44	0	345505792	22	5457
2026-01-20 10:22:08.83	67.30	19.68	-30.9	-34.5	18.2	6.05e-01	0	44	0	351272960	22	5484
2026-01-20 10:22:11.84	66.48	19.82	-30.6	-33.6	18.7	6.06e-01	0	44	0	357040128	22	5122
2026-01-20 10:22:14.84	65.64	19.96	-30.6	-33.8	18.7	6.06e-01	0	44	0	362807296	22	5191
2026-01-20 10:22:17.84	64.80	20.09	-30.7	-34.0	18.5	6.06e-01	0	44	0	368050176	22	5253
2026-01-20 10:22:20.84	63.95	20.22	-30.8	-34.2	18.5	6.06e-01	0	44	0	373817344	22	5324
2026-01-20 10:22:23.86	63.09	20.34	-30.7	-34.0	18.6	6.08e-01	0	44	0	379584512	22	5268
2026-01-20 10:22:26.87	62.23	20.45	-30.7	-34.0	18.6	6.06e-01	0	44	0	385351680	22	5250
2026-01-20 10:22:29.86	61.36	20.56	-30.7	-34.0	18.6	6.05e-01	0	44	0	390594560	22	5239
2026-01-20 10:22:32.87	60.48	20.66	-30.7	-33.9	18.6	6.06e-01	0	44	0	396361728	22	5226
2026-01-20 10:22:35.88	59.60	20.76	-30.7	-33.9	18.7	6.03e-01	0	44	0	402128896	22	5193
2026-01-20 10:22:38.88	58.71	20.85	-30.7	-33.9	18.7	6.07e-01	0	44	0	407896064	22	5212
2026-01-20 10:22:41.89	57.81	20.93	-30.8	-34.1	18.6	6.06e-01	0	44	0	413138944	22	5295
2026-01-20 10:22:44.89	56.92	21.00	-30.7	-34.0	18.6	6.06e-01	0	44	0	418906112	22	5267
2026-01-20 10:22:47.90	56.01	21.07	-30.7	-33.9	18.7	6.04e-01	0	44	0	424673280	22	5220
2026-01-20 10:22:50.92	55.10	21.14	-30.8	-34.1	18.5	6.05e-01	0	44	0	430440448	22	5298
2026-01-20 10:22:53.93	54.19	21.19	-30.8	-34.2	18.5	6.06e-01	0	44	0	435683328	22	5318
2026-01-20 10:22:56.94	53.27	21.24	-31.0	-34.2	18.2	6.07e-01	0	44	0	441450496	23	5215
2026-01-20 10:22:59.94	52.36	21.28	-30.8	-33.8	18.4	6.06e-01	0	44	0	447217664	23	5063
2026-01-20 10:23:02.95	51.44	21.31	-31.0	-34.3	18.2	6.03e-01	0	44	0	452984832	23	5236
2026-01-20 10:23:05.96	50.52	21.33	-30.7	-33.3	18.7	6.07e-01	0	44	0	458227712	23	4884
2026-01-20 10:23:08.96	49.60	21.35	-30.8	-33.6	18.7	6.06e-01	0	44	0	463994880	23	4969
2026-01-20 10:23:11.98	48.67	21.36	-30.9	-34.0	18.3	6.06e-01	0	44	0	469762048	23	5142
2026-01-20 10:23:14.99	47.75	21.36	-31.1	-34.4	18.2	6.06e-01	0	44	0	475529216	23	5280
2026-01-20 10:23:18.00	46.82	21.36	-31.1	-34.5	18.0	6.06e-01	0	44	0	480772096	23	5335
2026-01-20 10:23:21.01	45.90	21.35	-31.0	-34.1	18.2	6.04e-01	0	44	0	486539264	23	5188
2026-01-20 10:23:24.02	44.98	21.33	-30.6	-33.2	18.9	6.04e-01	0	44	0	492306432	23	4831
2026-01-20 10:23:27.03	44.06	21.30	-30.9	-33.9	18.5	6.03e-01	0	44	0	498073600	23	5102
2026-01-20 10:23:30.04	43.14	21.26	-30.9	-34.0	18.4	6.07e-01	0	44	0	503316480	23	5124
2026-01-20 10:23:33.05	42.22	21.22	-31.4	-35.4	17.5	6.07e-01	0	44	0	509083648	23	5692
2026-01-20 10:23:36.04	41.32	21.17	-31.3	-35.1	17.6	6.06e-01	0	44	0	514850816	23	5593
2026-01-20 10:23:39.05	40.41	21.11	-31.3	-35.2	17.6	6.05e-01	0	44	0	520617984	23	5638
2026-01-20 10:23:42.06	39.50	21.05	-31.1	-34.1	17.9	6.06e-01	0	44	0	526385152	24	5089
2026-01-20 10:23:45.07	38.60	20.98	-30.7	-33.5	18.7	6.05e-01	0	44	0	531628032	23	4948
2026-01-20 10:23:48.08	37.70	20.90	-30.7	-33.5	18.6	6.03e-01	0	44	0	537395200	23	4975
2026-01-20 10:23:51.08	36.81	20.81	-31.0	-34.3	18.1	6.07e-01	0	44	0	543162368	23	5249
2026-01-20 10:23:54.08	35.93	20.72	-30.6	-33.1	18.9	6.06e-01	0	44	0	548405248	23	4803
2026-01-20 10:23:57.09	35.05	20.63	-30.6	-33.1	18.9	6.06e-01	0	44	0	554172416	23	4830
2026-01-20 10:24:00.08	34.18	20.52	-30.7	-33.4	18.7	6.06e-01	0	44	0	559939584	23	4918
2026-01-20 10:24:03.08	33.31	20.41	-30.6	-33.2	18.8	6.00e-01	0	44	0	565706752	23	4850
2026-01-20 10:24:06.08	32.46	20.29	-30.6	-33.1	18.9	6.01e-01	0	44	0	570949632	23	4814
2026-01-20 10:24:09.07	31.61	20.17	-30.7	-33.5	18.6	6.00e-01	0	44	0	576716800	23	4957
2026-01-20 10:24:12.08	30.76	20.05	-30.5	-32.9	19.0	6.00e-01	0	44	0	582483968	23	4744
2026-01-20 10:24:15.09	29.92	19.91	-30.5	-33.0	18.9	5.98e-01	0	44	0	588251136	23	4773
2026-01-20 10:24:18.10	29.09	19.77	-30.8	-33.6	18.6	6.01e-01	0	44	0	593494016	23	4994
2026-01-20 10:24:21.11	28.27	19.63	-30.7	-33.3	18.6	6.00e-01	0	44	0	599261184	23	4898
2026-01-20 10:24:24.12	27.46	19.48	-30.6	-33.1	19.0	6.01e-01	0	44	0	605028352	23	4804
2026-01-20 10:24:27.13	26.65	19.33	-30.5	-33.4	18.9	6.02e-01	0	44	0	610795520	22	5033
2026-01-20 10:24:30.14	25.85	19.17	-30.4	-33.2	19.1	6.01e-01	0	44	0	616038400	22	4943
2026-01-20 10:24:33.14	25.07	19.01	-30.5	-33.5	18.9	6.02e-01	0	44	0	621805568	22	5073
2026-01-20 10:24:36.15	24.29	18.84	-30.4	-33.1	19.1	6.02e-01	0	44	0	627572736	22	4918
2026-01-20 10:24:39.16	23.52	18.67	-30.5	-33.3	18.9	6.05e-01	0	44	0	633339904	22	5006
2026-01-20 10:24:42.17	22.76	18.50	-30.4	-33.1	19.1	6.00e-01	0	44	0	638582784	22	4916
2026-01-20 10:24:45.17	22.01	18.32	-30.6	-33.7	18.8	5.99e-01	0	44	0	644349952	22	5142
2026-01-20 10:24:48.18	21.27	18.14	-30.7	-34.0	18.5	6.01e-01	0	44	0	650117120	22	5259
2026-01-20 10:24:51.19	20.53	17.95	-30.7	-33.9	18.6	6.00e-01	0	44	0	655884288	22	5227
2026-01-20 10:24:54.20	19.81	17.77	-30.4	-33.2	19.0	6.01e-01	0	44	0	661127168	22	4974
2026-01-20 10:24:57.21	19.10	17.58	-30.4	-33.1	19.1	6.03e-01	0	44	0	666894336	22	4937
2026-01-20 10:25:00.22	18.40	17.38	-30.4	-33.3	18.9	6.01e-01	0	44	0	672661504	22	5007
2026-01-20 10:25:03.22	17.70	17.19	-30.5	-33.4	18.9	6.00e-01	0	44	0	678428672	22	5026
2026-01-20 10:25:06.22	17.02	16.99	-30.3	-33.0	19.1	6.01e-01	0	44	0	683671552	22	4889
2026-01-20 10:25:09.25	16.34	16.79	-30.4	-33.1	19.0	6.01e-01	0	44	0	689438720	22	4929
2026-01-20 10:25:12.25	15.68	16.59	-30.6	-33.6	18.6	6.00e-01	0	44	0	695205888	22	5128
2026-01-20 10:25:15.26	15.03	16.39	-30.6	-33.9	18.5	6.02e-01	0	44	0	700973056	22	5224
2026-01-20 10:25:18.26	14.38	16.18	-30.6	-33.9	18.5	6.01e-01	0	44	0	706740224	22	5218
2026-01-20 10:25:21.28	13.74	15.97	-30.3	-33.1	19.0	6.00e-01	0	44	0	711983104	22	4942
2026-01-20 10:25:24.29	13.12	15.77	-30.3	-32.9	19.1	6.02e-01	0	44	0	717750272	22	4865
2026-01-20 10:25:27.31	12.50	15.56	-30.4	-33.2	19.0	6.01e-01	0	44	0	723517440	22	4970
2026-01-20 10:25:30.32	11.89	15.35	-30.5	-42.7	3.8	7.45e-01	0	44	104	728760320	22	14744
2026-01-20 10:25:33.32	11.29	15.13	-30.6	-43.2	3.8	7.45e-01	0	44	104	728760320	22	15316
2026-01-20 10:25:36.33	10.71	14.92	-30.9	-43.9	3.8	7.45e-01	0	44	104	728760320	22	16063
2026-01-20 10:25:39.34	10.13	14.71	-31.6	-45.0	3.8	7.42e-01	0	44	104	728760320	24	16797
2026-01-20 10:25:42.36	9.55	14.49	-32.3	-46.3	3.8	7.45e-01	0	44	104	728760320	25	18052
2026-01-20 10:25:45.37	8.99	14.28	-33.0	-48.6	3.9	7.40e-01	0	44	104	728760320	26	21540
2026-01-20 10:25:48.39	8.43	14.06	-33.3	-49.5	3.8	7.45e-01	0	44	104	728760320	27	23185
2026-01-20 10:25:51.40	7.89	13.85	-33.5	-50.6	3.8	7.46e-01	0	44	104	728760320	27	25543
2026-01-20 10:25:54.41	7.35	13.63	-33.6	-50.4	3.8	7.44e-01	0	44	104	728760320	28	24963
2026-01-20 10:25:57.42	6.83	13.42	-33.5	-50.2	3.8	7.45e-01	0	44	104	728760320	28	24578
2026-01-20 10:26:00.43	6.31	13.20	-33.3	-49.2	3.8	7.44e-01	0	44	104	728760320	28	22389
2026-01-20 10:26:03.45	5.79	12.98	-32.9	-47.7	3.8	7.41e-01	0	44	104	728760320	27	19808
2026-01-20 10:26:06.45	5.29	12.77	-32.3	-45.9	3.8	7.43e-01	0	44	104	728760320	26	17278
2026-01-20 10:26:09.47	4.79	12.55	-31.9	-44.9	3.8	7.42e-01	0	44	104	728760320	26	16124
2026-01-20 10:26:12.48	4.31	12.34	-31.1	-43.3	3.8	7.41e-01	0	44	104	728760320	24	14760
2026-01-20 10:26:15.49	3.83	12.12	-30.7	-42.9	3.8	7.43e-01	0	44	104	728760320	23	14594
2026-01-20 10:26:18.50	3.36	11.90	-30.8	-43.1	3.8	7.44e-01	0	44	104	728760320	23	14891
2026-01-20 10:26:21.51	2.89	11.69	-30.7	-42.9	3.8	7.46e-01	0	44	104	728760320	23	14659
2026-01-20 10:26:24.52	2.44	11.47	-31.2	-44.4	3.8	7.45e-01	0	44	104	728760320	23	16360
2026-01-20 10:26:27.54	1.98	11.26	-31.9	-46.0	3.8	7.45e-01	0	44	104	728760320	24	18159
2026-01-20 10:26:30.54	1.54	11.05	-32.6	-47.4	3.8	7.41e-01	0	44	104	728760320	26	19809
2026-01-20 10:26:33.56	1.11	10.83	-33.0	-49.1	3.8	7.46e-01	0	44	104	728760320	26	22946
2026-01-20 10:26:36.57	0.68	10.62	-33.4	-50.1	3.8	7.47e-01	0	44	104	728760320	27	24715
2026-01-20 10:26:39.58	0.26	10.41	-33.5	-51.0	3.8	7.45e-01	0	44	104	728760320	27	26969
2026-01-20 10:26:42.59	359.84	10.20	-33.4	-50.6	3.8	7.42e-01	0	44	104	728760320	27	26038
2026-01-20 10:26:45.60	359.43	9.99	-33.4	-50.6	3.8	7.46e-01	0	44	104	728760320	27	25938
2026-01-20 10:26:48.62	359.03	9.77	-33.3	-49.9	3.8	7.46e-01	0	44	104	728760320	27	24372
2026-01-20 10:26:51.64	358.63	9.56	-32.9	-48.3	3.8	7.49e-01	0	44	104	728760320	27	21258
2026-01-20 10:26:54.65	358.25	9.36	-32.5	-46.5	3.8	7.45e-01	0	44	104	728760320	27	18143
2026-01-20 10:26:57.66	357.86	9.15	-31.7	-44.9	3.8	7.44e-01	0	44	104	728760320	25	16481
2026-01-20 10:27:00.66	357.49	8.94	-31.2	-44.0	3.8	7.43e-01	0	44	104	728760320	24	15644
2026-01-20 10:27:03.68	357.12	8.73	-31.0	-43.5	3.8	7.45e-01	0	44	104	728760320	24	15084
2026-01-20 10:27:06.70	356.75	8.53	-31.2	-44.0	3.8	7.44e-01	0	44	104	728760320	24	15565
2026-01-20 10:27:09.72	356.39	8.32	-31.2	-44.0	3.8	7.45e-01	0	44	104	728760320	24	15670
2026-01-20 10:27:12.73	356.03	8.12	-31.6	-45.1	3.8	7.44e-01	0	44	104	728760320	24	17181
2026-01-20 10:27:15.74	355.69	7.92	-32.3	-47.0	3.8	7.44e-01	0	44	104	728760320	25	19583
2026-01-20 10:27:18.76	355.34	7.71	-32.9	-49.2	3.8	7.42e-01	0	44	104	728760320	26	23515
2026-01-20 10:27:21.77	355.00	7.51	-33.2	-50.0	3.8	7.44e-01	0	44	104	728760320	27	25040
2026-01-20 10:27:24.79	354.67	7.31	-33.2	-50.5	3.8	7.44e-01	0	44	104	728760320	27	26232
2026-01-20 10:27:27.80	354.34	7.11	-33.2	-50.8	3.8	7.44e-01	0	44	104	728760320	27	27160

#Closed at: 2026-01-20 10:27:30
#Recorded file [728 MB]: D:/data/31010_260120_131901.dat