passes_logs/2026/01/20/R2M6_AANII_01/R2M6_AANII_01__20260120_030217_SUOMI_NPP_rec.log

#Pass ID: 20260120_030217_SUOMI NPP
#Satellite: SUOMI NPP
#Configuration: NPP
#almurnet v.1.7.20240730
#Start time: 2026-01-20 03:02:17

#Version: 2.2.20231116
#Station: R2M6_AANII_01
#Location: 30.233357 lon 59.946436 lat
#TLE: 1 37849U 11061A   26019.26265094  .00000081  00000+0  59609-4 0  9993
#TLE: 2 37849  98.7817 321.2746 0002356  56.2510 303.8890 14.19526363737315

#Time	Az	El	Level	Level2	SNR	BER	BlckErr	Temp	State	Recorded	gain1	gain2
2026-01-20 03:02:17.66	8.37	7.01	-32.8	-39.3	4.3	1.39e+00	0	42	0	0	26	7644
2026-01-20 03:02:19.66	8.14	7.12	-32.3	-37.7	7.1	1.48e-01	0	42	0	0	24	6680
2026-01-20 03:02:21.66	7.90	7.22	-32.4	-38.1	6.8	1.82e-01	0	42	0	3145728	24	6937
2026-01-20 03:02:23.66	7.66	7.33	-32.5	-38.4	6.6	1.89e-01	0	42	0	7340032	24	7106
2026-01-20 03:02:25.67	7.42	7.44	-32.3	-37.6	7.1	1.58e-01	0	42	0	10485760	24	6639
2026-01-20 03:02:27.68	7.18	7.54	-31.9	-36.4	8.5	5.28e-02	0	42	0	14680064	23	6005
2026-01-20 03:02:29.69	6.94	7.65	-31.7	-35.3	9.4	1.86e-02	0	42	0	17825792	23	5469
2026-01-20 03:02:31.68	6.70	7.76	-31.6	-34.9	9.8	7.89e-03	0	42	0	22020096	23	5266
2026-01-20 03:02:33.69	6.45	7.86	-31.7	-35.3	9.5	1.72e-02	0	42	0	26214400	23	5429
2026-01-20 03:02:35.70	6.20	7.97	-31.7	-35.3	9.5	1.40e-02	0	42	0	29360128	23	5473
2026-01-20 03:02:37.71	5.95	8.08	-31.4	-34.4	10.2	7.35e-03	0	43	0	33554432	23	5049
2026-01-20 03:02:39.72	5.70	8.18	-31.4	-34.7	10.2	5.22e-03	0	43	0	36700160	22	5269
2026-01-20 03:02:41.73	5.44	8.29	-31.5	-34.9	10.2	7.61e-03	0	42	0	40894464	22	5374
2026-01-20 03:02:43.74	5.18	8.40	-31.7	-35.1	9.7	8.59e-03	0	43	0	45088768	23	5375
2026-01-20 03:02:45.75	4.93	8.50	-31.7	-35.3	9.6	1.60e-02	0	43	0	48234496	23	5422
2026-01-20 03:02:47.75	4.67	8.61	-31.5	-34.5	10.1	9.46e-03	0	43	0	52428800	23	5100
2026-01-20 03:02:49.75	4.41	8.72	-31.4	-34.4	10.2	7.15e-03	0	43	0	55574528	23	5054
2026-01-20 03:02:51.76	4.14	8.82	-31.6	-34.9	9.8	1.17e-02	0	43	0	59768832	23	5284
2026-01-20 03:02:53.76	3.88	8.93	-31.7	-35.3	9.6	1.27e-02	0	43	0	62914560	23	5426
2026-01-20 03:02:55.76	3.61	9.03	-31.6	-34.9	9.8	1.16e-02	0	43	0	67108864	23	5266
2026-01-20 03:02:57.77	3.34	9.14	-31.6	-35.0	9.8	1.22e-02	0	43	0	71303168	23	5316
2026-01-20 03:02:59.78	3.07	9.24	-31.7	-35.2	9.6	1.23e-02	0	43	0	74448896	23	5383
2026-01-20 03:03:01.78	2.79	9.35	-31.5	-34.5	10.2	6.17e-03	0	43	0	78643200	23	5098
2026-01-20 03:03:03.78	2.52	9.45	-31.6	-34.8	9.9	1.25e-02	0	43	0	81788928	23	5205
2026-01-20 03:03:05.79	2.24	9.56	-31.7	-35.2	9.7	1.36e-02	0	43	0	85983232	23	5374
2026-01-20 03:03:07.79	1.96	9.66	-31.6	-34.9	9.9	9.45e-03	0	43	0	90177536	23	5264
2026-01-20 03:03:09.79	1.68	9.77	-31.5	-34.5	10.2	7.45e-03	0	43	0	93323264	23	5099
2026-01-20 03:03:11.80	1.40	9.87	-31.5	-34.4	10.3	7.40e-03	0	43	0	97517568	23	5035
2026-01-20 03:03:13.81	1.11	9.98	-31.5	-34.5	10.1	4.76e-03	0	43	0	100663296	23	5100
2026-01-20 03:03:15.81	0.82	10.08	-31.7	-35.2	9.7	1.15e-02	0	43	0	104857600	23	5387
2026-01-20 03:03:17.82	0.53	10.18	-31.7	-35.3	9.7	1.24e-02	0	43	0	109051904	23	5426
2026-01-20 03:03:19.82	0.24	10.29	-31.8	-35.5	9.4	1.67e-02	0	43	0	112197632	23	5536
2026-01-20 03:03:21.82	359.94	10.39	-31.9	-35.8	9.2	2.11e-02	0	43	0	116391936	23	5678
2026-01-20 03:03:23.84	359.65	10.49	-32.0	-36.1	9.1	2.73e-02	0	43	0	119537664	23	5800
2026-01-20 03:03:25.84	359.35	10.59	-32.0	-35.9	8.8	3.14e-02	0	43	0	123731968	24	5628
2026-01-20 03:03:27.85	359.05	10.69	-31.9	-35.8	9.3	2.30e-02	0	43	0	126877696	23	5642
2026-01-20 03:03:29.85	358.74	10.80	-31.7	-34.9	9.9	1.19e-02	0	43	0	131072000	23	5256
2026-01-20 03:03:31.85	358.44	10.90	-31.8	-35.5	9.6	9.21e-03	0	43	0	135266304	23	5479
2026-01-20 03:03:33.85	358.13	11.00	-31.8	-35.6	9.5	1.34e-02	0	44	0	138412032	23	5559
2026-01-20 03:03:35.85	357.83	11.10	-31.8	-35.4	9.7	1.13e-02	0	44	0	142606336	23	5441
2026-01-20 03:03:37.85	357.51	11.20	-31.6	-34.8	10.1	9.42e-03	0	44	0	145752064	23	5194
2026-01-20 03:03:39.85	357.20	11.30	-31.6	-34.7	10.2	6.09e-03	0	44	0	149946368	23	5132
2026-01-20 03:03:41.85	356.89	11.39	-31.6	-34.7	10.2	7.03e-03	0	44	0	153092096	23	5155
2026-01-20 03:03:43.86	356.57	11.49	-31.3	-33.9	10.7	3.31e-03	0	44	0	157286400	23	4837
2026-01-20 03:03:45.87	356.25	11.59	-31.0	-33.5	11.4	1.11e-03	0	44	0	161480704	22	4754
2026-01-20 03:03:47.88	355.92	11.69	-30.8	-33.3	11.9	2.34e-03	0	44	0	164626432	21	4797
2026-01-20 03:03:49.88	355.60	11.78	-30.8	-33.1	12.0	2.86e-04	0	44	0	168820736	21	4710
2026-01-20 03:03:51.88	355.27	11.88	-30.8	-33.2	12.0	1.15e-03	0	44	0	171966464	21	4725
2026-01-20 03:03:53.89	354.94	11.98	-30.8	-33.2	11.9	3.03e-04	0	44	0	176160768	21	4764
2026-01-20 03:03:55.90	354.61	12.07	-31.0	-33.3	11.5	9.00e-04	0	44	0	180355072	22	4703
2026-01-20 03:03:57.90	354.28	12.17	-31.0	-33.3	11.7	8.42e-04	0	44	0	183500800	22	4678
2026-01-20 03:03:59.91	353.94	12.26	-30.8	-33.3	11.9	3.89e-04	0	44	0	187695104	21	4783
2026-01-20 03:04:01.91	353.61	12.35	-31.2	-34.0	11.2	8.83e-04	0	44	0	190840832	22	4932
2026-01-20 03:04:03.91	353.27	12.45	-31.3	-34.1	11.1	1.75e-03	0	44	0	195035136	22	5000
2026-01-20 03:04:05.91	352.93	12.54	-31.3	-34.1	11.1	1.96e-03	0	44	0	199229440	22	4972
2026-01-20 03:04:07.91	352.58	12.63	-31.0	-33.3	11.7	8.19e-04	0	44	0	202375168	22	4675
2026-01-20 03:04:09.92	352.24	12.72	-31.1	-33.6	11.5	7.74e-04	0	44	0	206569472	22	4782
2026-01-20 03:04:11.93	351.89	12.81	-31.0	-33.3	11.6	5.26e-04	0	44	0	209715200	22	4690
2026-01-20 03:04:13.94	351.53	12.90	-31.0	-33.5	11.5	7.31e-04	0	44	0	213909504	22	4754
2026-01-20 03:04:15.95	351.18	12.99	-31.0	-33.3	11.6	5.84e-04	0	44	0	217055232	22	4676
2026-01-20 03:04:17.95	350.83	13.08	-30.9	-33.5	11.9	3.73e-04	0	44	0	221249536	21	4841
2026-01-20 03:04:19.95	350.47	13.17	-30.6	-32.5	12.5	1.39e-04	0	44	0	225443840	21	4494
2026-01-20 03:04:21.97	350.11	13.25	-30.3	-31.7	13.0	6.33e-05	0	44	0	228589568	21	4242
2026-01-20 03:04:23.97	349.75	13.34	-30.1	-31.7	12.5	7.60e-06	0	44	0	232783872	20	4307
2026-01-20 03:04:25.98	349.38	13.42	-30.0	-31.8	13.1	4.50e-06	0	44	0	235929600	19	4427
2026-01-20 03:04:27.98	349.02	13.51	-30.2	-31.9	13.3	2.13e-05	0	44	0	240123904	20	4383
2026-01-20 03:04:29.99	348.65	13.59	-30.7	-32.8	12.4	1.73e-03	0	44	0	244318208	21	4586
2026-01-20 03:04:31.99	348.28	13.67	-30.8	-33.0	12.3	1.45e-04	0	44	0	247463936	21	4667
2026-01-20 03:04:34.00	347.91	13.75	-30.9	-33.5	12.0	2.67e-04	0	44	0	251658240	21	4825
2026-01-20 03:04:36.00	347.53	13.83	-30.8	-33.1	12.1	2.18e-04	0	44	0	254803968	21	4711
2026-01-20 03:04:38.01	347.16	13.91	-30.9	-33.5	11.9	2.89e-04	0	44	0	258998272	21	4834
2026-01-20 03:04:40.02	346.78	13.99	-31.4	-34.2	11.1	1.37e-03	0	44	0	263192576	22	5020
2026-01-20 03:04:42.02	346.40	14.07	-30.9	-33.4	12.0	3.78e-04	0	44	0	266338304	21	4813
2026-01-20 03:04:44.02	346.02	14.14	-31.0	-33.2	11.8	2.21e-03	0	44	0	270532608	22	4635
2026-01-20 03:04:46.02	345.63	14.22	-31.2	-33.8	11.4	6.64e-04	0	44	0	273678336	22	4865
2026-01-20 03:04:48.03	345.25	14.29	-31.0	-33.2	11.8	2.73e-03	0	44	0	277872640	22	4627
2026-01-20 03:04:50.04	344.86	14.37	-30.8	-32.9	12.3	2.43e-04	0	44	0	281018368	21	4622
2026-01-20 03:04:52.05	344.47	14.44	-30.7	-32.6	12.6	6.02e-05	0	44	0	285212672	21	4519
2026-01-20 03:04:54.06	344.07	14.51	-30.7	-32.8	12.4	2.37e-03	0	44	0	289406976	21	4586
2026-01-20 03:04:56.06	343.68	14.58	-31.0	-33.0	12.0	4.45e-04	0	44	0	292552704	22	4546
2026-01-20 03:04:58.07	343.28	14.65	-31.0	-33.1	11.9	4.37e-04	0	44	0	296747008	22	4565
2026-01-20 03:05:00.07	342.89	14.71	-30.8	-33.0	12.4	1.85e-04	0	44	0	299892736	21	4625
2026-01-20 03:05:02.07	342.49	14.78	-30.9	-33.3	12.1	2.75e-03	0	44	0	304087040	21	4748
2026-01-20 03:05:04.08	342.09	14.85	-31.2	-33.6	11.6	5.55e-04	0	44	0	308281344	22	4760
2026-01-20 03:05:06.08	341.68	14.91	-31.2	-33.8	11.5	3.75e-03	0	44	0	311427072	22	4818
2026-01-20 03:05:08.08	341.28	14.97	-30.5	-32.3	12.8	2.51e-03	0	44	0	315621376	21	4406
2026-01-20 03:05:10.08	340.87	15.03	-30.2	-31.8	13.5	1.84e-04	0	44	0	318767104	20	4336
2026-01-20 03:05:12.08	340.47	15.09	-30.2	-31.7	13.6	2.87e-03	0	44	0	322961408	20	4301
2026-01-20 03:05:14.08	340.06	15.15	-29.9	-31.1	14.0	2.73e-04	0	44	0	326107136	20	4118
2026-01-20 03:05:16.08	339.65	15.21	-29.9	-31.0	14.0	3.24e-04	0	44	0	330301440	20	4094
2026-01-20 03:05:18.08	339.24	15.26	-29.9	-31.5	14.1	2.43e-03	0	44	0	334495744	19	4322
2026-01-20 03:05:20.08	338.82	15.32	-30.2	-31.8	13.5	2.40e-03	0	44	0	337641472	20	4324
2026-01-20 03:05:22.09	338.41	15.37	-30.5	-32.0	13.1	2.82e-04	0	44	0	341835776	21	4303
2026-01-20 03:05:24.10	337.99	15.42	-30.4	-32.4	13.1	2.17e-03	0	44	0	344981504	20	4531
2026-01-20 03:05:26.10	337.57	15.47	-30.3	-32.0	13.4	2.23e-03	0	44	0	349175808	20	4389
2026-01-20 03:05:28.10	337.15	15.52	-30.3	-32.1	13.3	1.75e-05	0	44	0	352321536	20	4424
2026-01-20 03:05:30.10	336.73	15.57	-30.6	-32.5	12.7	2.48e-03	0	44	0	356515840	21	4478
2026-01-20 03:05:32.10	336.31	15.61	-30.8	-33.0	12.4	1.54e-04	0	44	0	360710144	21	4632
2026-01-20 03:05:34.10	335.88	15.66	-30.9	-33.2	12.2	3.60e-04	0	44	0	363855872	21	4710
2026-01-20 03:05:36.10	335.46	15.70	-30.5	-32.2	12.9	2.67e-03	0	44	0	368050176	21	4378
2026-01-20 03:05:38.11	335.03	15.74	-30.5	-32.1	12.9	2.77e-03	0	44	0	371195904	21	4350
2026-01-20 03:05:40.12	334.60	15.78	-30.6	-32.5	12.7	1.69e-04	0	44	0	375390208	21	4465
2026-01-20 03:05:42.12	334.17	15.82	-30.6	-32.4	12.8	7.32e-05	0	44	0	379584512	21	4428
2026-01-20 03:05:44.13	333.74	15.86	-30.5	-32.1	13.0	2.44e-03	0	44	0	382730240	21	4325
2026-01-20 03:05:46.13	333.31	15.89	-30.2	-31.9	13.4	1.90e-05	0	44	0	386924544	20	4365
2026-01-20 03:05:48.14	332.88	15.92	-30.2	-31.7	13.6	2.61e-03	0	44	0	390070272	20	4302
2026-01-20 03:05:50.14	332.45	15.96	-30.3	-32.0	13.4	9.10e-06	0	44	0	394264576	20	4402
2026-01-20 03:05:52.13	332.02	15.98	-30.1	-31.6	13.6	8.30e-06	0	44	0	397410304	20	4273
2026-01-20 03:05:54.14	331.58	16.01	-30.2	-31.8	13.5	1.29e-05	0	44	0	401604608	20	4330
2026-01-20 03:05:56.14	331.15	16.04	-30.3	-32.0	13.3	1.52e-05	0	44	0	405798912	20	4403
2026-01-20 03:05:58.14	330.71	16.07	-30.3	-32.3	13.1	4.95e-05	0	44	0	408944640	20	4495
2026-01-20 03:06:00.15	330.27	16.09	-30.6	-32.6	12.5	8.77e-05	0	44	0	413138944	21	4534
2026-01-20 03:06:02.15	329.83	16.11	-30.8	-33.2	12.1	2.69e-03	0	44	0	416284672	21	4716
2026-01-20 03:06:04.15	329.40	16.13	-30.9	-33.4	12.1	2.87e-04	0	44	0	420478976	21	4787
2026-01-20 03:06:06.14	328.96	16.15	-31.0	-33.6	11.8	2.37e-04	0	44	0	424673280	21	4886
2026-01-20 03:06:08.15	328.52	16.17	-30.8	-33.2	12.1	2.61e-04	0	44	0	427819008	21	4741
2026-01-20 03:06:10.16	328.08	16.18	-30.9	-32.8	12.1	3.15e-04	0	44	0	432013312	22	4479
2026-01-20 03:06:12.16	327.64	16.19	-30.9	-33.3	12.1	2.30e-04	0	44	0	435159040	21	4761
2026-01-20 03:06:14.16	327.20	16.21	-30.9	-33.3	12.1	2.98e-04	0	44	0	439353344	21	4744
2026-01-20 03:06:16.16	326.76	16.22	-30.9	-32.9	12.0	3.64e-04	0	44	0	442499072	22	4535
2026-01-20 03:06:18.17	326.32	16.22	-30.8	-33.1	12.2	2.17e-04	0	44	0	446693376	21	4706
2026-01-20 03:06:20.18	325.87	16.23	-30.6	-32.5	12.7	1.07e-04	0	44	0	450887680	21	4464
2026-01-20 03:06:22.19	325.43	16.24	-30.4	-32.0	13.0	6.56e-05	0	44	0	454033408	21	4315
2026-01-20 03:06:24.19	324.99	16.24	-30.5	-32.3	12.8	2.97e-05	0	44	0	458227712	21	4398
2026-01-20 03:06:26.19	324.55	16.24	-30.8	-32.9	11.6	2.55e-03	0	44	0	461373440	21	4619
2026-01-20 03:06:28.20	324.10	16.24	-31.0	-33.6	11.0	3.59e-04	0	44	0	465567744	21	4882
2026-01-20 03:06:30.20	323.66	16.24	-30.9	-32.9	12.0	3.77e-04	0	45	0	469762048	22	4534
2026-01-20 03:06:32.21	323.22	16.23	-30.6	-32.5	12.5	9.84e-05	0	44	0	472907776	21	4495
2026-01-20 03:06:34.21	322.78	16.23	-30.7	-32.8	12.4	1.18e-04	0	44	0	477102080	21	4570
2026-01-20 03:06:36.22	322.34	16.22	-30.7	-32.7	12.5	6.09e-04	0	44	0	480247808	21	4528
2026-01-20 03:06:38.21	321.90	16.21	-30.5	-32.2	12.8	6.02e-05	0	44	0	484442112	21	4386
2026-01-20 03:06:40.21	321.46	16.20	-30.7	-32.8	12.4	2.52e-03	0	44	0	487587840	21	4587
2026-01-20 03:06:42.26	321.01	16.19	-30.7	-32.7	12.5	1.02e-04	0	44	0	491782144	21	4554
2026-01-20 03:06:44.22	320.58	16.17	-30.7	-32.9	12.3	2.86e-03	0	44	0	495976448	21	4636
2026-01-20 03:06:46.23	320.13	16.16	-30.7	-32.8	12.4	2.08e-04	0	44	0	499122176	21	4601
2026-01-20 03:06:48.24	319.69	16.14	-30.9	-33.4	11.9	2.62e-04	0	44	0	503316480	21	4820
2026-01-20 03:06:50.24	319.26	16.12	-31.1	-33.4	11.6	4.84e-04	0	44	0	506462208	22	4718
2026-01-20 03:06:52.25	318.82	16.10	-31.0	-33.6	11.8	4.97e-04	0	44	0	510656512	21	4901
2026-01-20 03:06:54.25	318.38	16.08	-30.8	-33.1	12.1	6.99e-04	0	44	0	514850816	21	4717
2026-01-20 03:06:56.24	317.94	16.05	-30.8	-33.2	12.1	2.48e-04	0	44	0	517996544	21	4730
2026-01-20 03:06:58.25	317.51	16.03	-30.7	-32.9	12.2	2.15e-03	0	44	0	522190848	21	4633
2026-01-20 03:07:00.25	317.07	16.00	-30.8	-33.0	12.2	1.52e-04	0	44	0	525336576	21	4656
2026-01-20 03:07:02.26	316.64	15.97	-30.7	-32.7	12.4	2.26e-03	0	44	0	529530880	21	4559
2026-01-20 03:07:04.26	316.20	15.94	-30.7	-32.7	12.4	2.49e-03	0	44	0	532676608	21	4562
2026-01-20 03:07:06.27	315.77	15.91	-30.5	-32.3	12.7	5.92e-04	0	44	0	536870912	21	4425
2026-01-20 03:07:08.27	315.34	15.87	-30.3	-32.1	13.2	2.31e-03	0	44	0	541065216	20	4446
2026-01-20 03:07:10.27	314.91	15.84	-30.4	-32.4	13.0	3.35e-05	0	44	0	544210944	20	4536
2026-01-20 03:07:12.28	314.48	15.80	-30.1	-31.6	13.6	3.96e-04	0	44	0	548405248	20	4270
2026-01-20 03:07:14.28	314.05	15.76	-30.1	-31.5	13.6	1.29e-05	0	44	0	551550976	20	4258
2026-01-20 03:07:16.29	313.62	15.72	-30.2	-32.0	13.3	2.52e-03	0	44	0	555745280	20	4403
2026-01-20 03:07:18.30	313.19	15.68	-30.3	-32.2	13.1	7.72e-04	0	44	0	559939584	20	4463
2026-01-20 03:07:20.31	312.77	15.63	-30.3	-32.2	13.1	2.19e-03	0	44	0	563085312	20	4485
2026-01-20 03:07:22.31	312.34	15.59	-30.5	-32.6	12.8	2.08e-03	0	44	0	567279616	20	4609
2026-01-20 03:07:24.31	311.92	15.54	-30.4	-32.3	13.0	4.24e-04	0	44	0	570425344	20	4523
2026-01-20 03:07:26.32	311.50	15.49	-30.6	-32.4	12.6	2.43e-03	0	44	0	574619648	21	4455
2026-01-20 03:07:28.33	311.08	15.44	-30.6	-32.6	12.5	2.50e-03	0	44	0	577765376	21	4521
2026-01-20 03:07:30.33	310.66	15.39	-30.3	-32.1	13.2	7.40e-04	0	44	0	581959680	20	4448
2026-01-20 03:07:32.34	310.24	15.34	-30.3	-32.1	13.1	1.96e-03	0	44	0	586153984	20	4454
2026-01-20 03:07:34.35	309.82	15.29	-30.0	-31.3	13.6	1.94e-03	0	44	0	589299712	20	4197
2026-01-20 03:07:36.36	309.41	15.23	-30.2	-31.9	13.2	2.17e-04	0	44	0	593494016	20	4368
2026-01-20 03:07:38.36	309.00	15.18	-30.1	-31.7	13.4	1.06e-05	0	44	0	596639744	20	4306
2026-01-20 03:07:40.35	308.59	15.12	-29.9	-31.1	13.8	2.22e-03	0	44	0	600834048	20	4131
2026-01-20 03:07:42.36	308.18	15.06	-30.1	-31.6	13.4	4.50e-06	0	44	0	605028352	20	4291
2026-01-20 03:07:44.36	307.77	15.00	-30.1	-31.7	13.4	2.44e-03	0	44	0	608174080	20	4314
2026-01-20 03:07:46.36	307.37	14.94	-30.3	-32.2	13.0	2.57e-03	0	44	0	612368384	20	4475
2026-01-20 03:07:48.36	306.96	14.87	-30.4	-32.6	12.7	5.41e-05	0	44	0	615514112	20	4629
2026-01-20 03:07:50.37	306.56	14.81	-30.5	-32.4	12.5	2.58e-03	0	44	0	619708416	21	4459
2026-01-20 03:07:52.38	306.16	14.74	-30.6	-32.7	12.3	1.58e-04	0	44	0	622854144	21	4560
2026-01-20 03:07:54.39	305.76	14.68	-30.6	-32.7	12.3	2.60e-04	0	44	0	627048448	21	4558
2026-01-20 03:07:56.40	305.36	14.61	-30.6	-32.6	12.3	2.21e-04	0	44	0	631242752	21	4555
2026-01-20 03:07:58.40	304.96	14.54	-30.6	-32.5	12.5	1.49e-04	0	44	0	634388480	21	4491
2026-01-20 03:08:00.40	304.57	14.47	-30.4	-32.1	12.8	7.09e-05	0	44	0	638582784	21	4352
2026-01-20 03:08:02.41	304.18	14.40	-30.3	-32.2	13.0	6.79e-05	0	44	0	641728512	20	4478
2026-01-20 03:08:04.42	303.79	14.33	-30.3	-32.2	12.9	2.58e-04	0	45	0	645922816	20	4504
2026-01-20 03:08:06.42	303.40	14.25	-30.3	-32.4	12.8	4.73e-05	0	44	0	650117120	20	4567
2026-01-20 03:08:08.43	303.01	14.18	-30.3	-32.3	12.9	1.80e-03	0	44	0	653262848	20	4533
2026-01-20 03:08:10.44	302.63	14.10	-30.2	-32.0	13.0	3.89e-05	0	44	0	657457152	20	4436
2026-01-20 03:08:12.45	302.24	14.02	-29.9	-31.3	13.5	6.80e-06	0	44	0	660602880	20	4202
2026-01-20 03:08:14.46	301.86	13.95	-30.2	-31.9	13.1	1.67e-05	0	45	0	664797184	20	4395
2026-01-20 03:08:16.46	301.49	13.87	-30.2	-32.1	13.0	4.11e-05	0	44	0	668991488	20	4465
2026-01-20 03:08:18.47	301.11	13.79	-30.4	-32.5	12.8	7.24e-05	0	44	0	672137216	20	4592
2026-01-20 03:08:20.48	300.73	13.71	-30.6	-32.6	12.4	9.76e-05	0	44	0	676331520	21	4526
2026-01-20 03:08:22.48	300.36	13.62	-30.7	-33.0	12.0	3.32e-04	0	44	0	679477248	21	4695
2026-01-20 03:08:24.49	299.99	13.54	-31.1	-33.6	11.3	7.97e-04	0	44	0	683671552	22	4800
2026-01-20 03:08:26.49	299.63	13.46	-31.2	-33.9	11.0	1.53e-03	0	44	0	686817280	22	4929
2026-01-20 03:08:28.49	299.26	13.37	-31.1	-33.7	11.2	1.37e-03	0	44	0	691011584	22	4866
2026-01-20 03:08:30.50	298.90	13.29	-31.1	-33.8	10.9	1.77e-03	0	44	0	695205888	22	4870
2026-01-20 03:08:32.50	298.54	13.20	-30.9	-33.5	11.5	9.96e-04	0	44	0	698351616	21	4877
2026-01-20 03:08:34.51	298.18	13.11	-30.8	-33.4	11.6	6.90e-04	0	44	0	702545920	21	4858
2026-01-20 03:08:36.52	297.82	13.03	-30.8	-33.2	11.8	4.60e-04	0	44	0	705691648	21	4774
2026-01-20 03:08:38.52	297.46	12.94	-30.9	-33.5	11.6	7.70e-04	0	44	0	709885952	21	4892
2026-01-20 03:08:40.53	297.11	12.85	-31.1	-33.9	11.0	1.38e-03	0	44	0	714080256	22	4923
2026-01-20 03:08:42.54	296.76	12.76	-31.2	-34.0	10.9	2.31e-03	0	44	0	717225984	22	4963
2026-01-20 03:08:44.54	296.41	12.67	-31.3	-34.3	10.7	2.94e-03	0	44	0	721420288	22	5086
2026-01-20 03:08:46.54	296.07	12.58	-31.3	-34.5	10.5	4.25e-03	0	44	0	724566016	22	5196
2026-01-20 03:08:48.55	295.72	12.48	-30.9	-33.5	11.5	1.57e-03	0	44	0	728760320	21	4896
2026-01-20 03:08:50.55	295.38	12.39	-30.5	-32.6	12.2	4.19e-04	0	44	0	731906048	21	4551
2026-01-20 03:08:52.56	295.04	12.30	-30.3	-32.3	12.6	7.78e-05	0	44	0	736100352	20	4563
2026-01-20 03:08:54.55	294.70	12.21	-30.2	-32.2	12.8	6.86e-05	0	45	0	740294656	20	4527
2026-01-20 03:08:56.56	294.37	12.11	-30.7	-32.9	11.9	5.68e-04	0	44	0	743440384	21	4687
2026-01-20 03:08:58.56	294.04	12.02	-30.8	-33.4	11.6	8.71e-04	0	44	0	747634688	21	4850
2026-01-20 03:09:00.57	293.70	11.92	-31.1	-33.7	11.0	2.75e-03	0	44	0	750780416	22	4886
2026-01-20 03:09:02.58	293.37	11.82	-31.0	-33.4	11.2	1.71e-03	0	45	0	754974720	22	4784
2026-01-20 03:09:04.58	293.05	11.73	-30.8	-33.3	11.5	2.85e-03	0	44	0	759169024	21	4835
2026-01-20 03:09:06.59	292.72	11.63	-30.8	-33.5	11.4	1.23e-03	0	44	0	762314752	21	4900
2026-01-20 03:09:08.60	292.40	11.53	-30.8	-33.4	11.5	6.65e-04	0	44	0	766509056	21	4874
2026-01-20 03:09:10.61	292.08	11.43	-31.3	-34.5	10.3	3.90e-03	0	44	0	769654784	22	5228
2026-01-20 03:09:12.61	291.76	11.33	-31.8	-36.0	8.8	1.56e-02	0	44	0	773849088	23	5850
2026-01-20 03:09:14.62	291.44	11.23	-32.1	-36.6	7.9	6.27e-02	0	45	0	776994816	24	6089
2026-01-20 03:09:16.62	291.13	11.13	-32.1	-37.0	7.6	1.02e-01	0	44	0	781189120	24	6328
2026-01-20 03:09:18.63	290.82	11.03	-32.1	-36.9	7.8	8.47e-02	0	44	0	785383424	24	6229
2026-01-20 03:09:20.63	290.51	10.93	-31.9	-35.8	8.6	4.38e-02	0	44	0	788529152	24	5651
2026-01-20 03:09:22.63	290.20	10.83	-31.9	-36.3	8.6	4.16e-02	0	44	0	792723456	23	5975
2026-01-20 03:09:24.62	289.90	10.73	-31.8	-35.9	8.8	2.85e-02	0	45	0	795869184	23	5776
2026-01-20 03:09:26.62	289.60	10.63	-31.5	-34.7	9.7	1.71e-02	0	45	0	800063488	23	5259
2026-01-20 03:09:28.62	289.30	10.53	-31.1	-33.9	10.7	7.34e-03	0	44	0	804257792	22	5001
2026-01-20 03:09:30.63	289.00	10.43	-31.0	-33.5	10.9	2.09e-03	0	45	0	807403520	22	4841
2026-01-20 03:09:32.64	288.70	10.32	-31.1	-34.0	10.6	2.80e-03	0	44	0	811597824	22	5035
2026-01-20 03:09:34.65	288.41	10.22	-31.2	-34.5	10.2	8.15e-03	0	45	0	814743552	22	5237
2026-01-20 03:09:36.65	288.12	10.12	-31.2	-34.5	10.2	8.25e-03	0	45	0	818937856	22	5253
2026-01-20 03:09:38.66	287.83	10.01	-31.2	-34.5	10.1	8.50e-03	0	45	0	822083584	22	5267
2026-01-20 03:09:40.66	287.54	9.91	-31.1	-34.1	10.4	4.20e-03	0	45	0	826277888	22	5078
2026-01-20 03:09:42.66	287.25	9.81	-30.9	-34.0	10.9	4.52e-03	0	45	0	830472192	21	5145
2026-01-20 03:09:44.66	286.97	9.70	-31.0	-33.8	10.6	2.85e-03	0	44	0	833617920	22	4959
2026-01-20 03:09:46.66	286.69	9.60	-30.8	-33.5	11.2	3.17e-03	0	44	0	837812224	21	4925
2026-01-20 03:09:48.66	286.41	9.49	-30.8	-33.8	10.9	2.00e-03	0	45	0	840957952	21	5064
2026-01-20 03:09:50.68	286.13	9.39	-30.9	-34.0	10.8	2.23e-03	0	45	0	845152256	21	5143
2026-01-20 03:09:52.69	285.85	9.28	-31.2	-34.6	10.0	7.27e-03	0	44	0	849346560	22	5279
2026-01-20 03:09:54.70	285.58	9.18	-31.2	-34.6	10.0	7.18e-03	0	44	0	852492288	22	5290
2026-01-20 03:09:56.70	285.31	9.07	-31.0	-33.9	10.5	4.54e-03	0	44	0	856686592	22	5021
2026-01-20 03:09:58.71	285.04	8.97	-31.0	-33.8	10.6	3.88e-03	0	45	0	859832320	22	4959
2026-01-20 03:10:00.71	284.77	8.86	-31.1	-34.1	10.3	1.08e-02	0	45	0	864026624	22	5116
2026-01-20 03:10:02.71	284.50	8.75	-31.0	-33.8	10.6	3.37e-03	0	45	0	867172352	22	4968
2026-01-20 03:10:04.72	284.24	8.65	-30.9	-34.1	10.7	3.26e-03	0	44	0	871366656	21	5166
2026-01-20 03:10:06.72	283.98	8.54	-30.8	-33.7	10.9	2.00e-03	0	44	0	875560960	21	5021
2026-01-20 03:10:08.72	283.72	8.44	-30.6	-33.1	11.3	9.99e-04	0	44	0	878706688	21	4796
2026-01-20 03:10:10.73	283.46	8.33	-30.5	-32.8	11.5	6.93e-04	0	44	0	882900992	21	4676
2026-01-20 03:10:12.74	283.20	8.22	-30.4	-32.5	11.7	7.21e-04	0	44	0	886046720	21	4576
2026-01-20 03:10:14.74	282.95	8.11	-30.2	-32.5	12.1	1.88e-03	0	45	0	890241024	20	4649
2026-01-20 03:10:16.74	282.70	8.01	-30.4	-32.9	11.8	4.01e-04	0	44	0	894435328	20	4823
2026-01-20 03:10:18.75	282.45	7.90	-30.6	-33.2	11.3	1.09e-03	0	45	0	897581056	21	4820
2026-01-20 03:10:20.75	282.20	7.79	-30.7	-33.3	11.1	2.11e-03	0	44	0	901775360	21	4868
2026-01-20 03:10:22.75	281.95	7.69	-30.5	-32.7	11.6	8.93e-04	0	45	0	904921088	21	4644
2026-01-20 03:10:24.76	281.71	7.58	-30.4	-32.9	11.7	3.46e-04	0	44	0	909115392	20	4811
2026-01-20 03:10:26.76	281.46	7.47	-30.3	-32.7	11.9	4.43e-04	0	45	0	912261120	20	4742
2026-01-20 03:10:28.77	281.22	7.37	-30.5	-32.7	11.5	8.36e-04	0	44	0	916455424	21	4648
2026-01-20 03:10:30.78	280.98	7.26	-29.3	-32.0	11.6	4.52e-04	0	45	0	920649728	20	4912
2026-01-20 03:10:32.78	280.74	7.15	-30.5	-33.4	10.5	1.15e-03	0	45	0	923795456	20	5006
2026-01-20 03:10:34.79	280.51	7.04	-33.1	-45.3	3.8	4.02e-02	0	44	104	926941184	26	14640

#Closed at: 2026-01-20 03:10:36
#Recorded file [926 MB]: D:/data/31010_260120_060219.dat