passes_logs/2026/01/20/R2M6_AANII_01/R2M6_AANII_01__20260120_012135_SUOMI_NPP_rec.log

#Pass ID: 20260120_012135_SUOMI NPP
#Satellite: SUOMI NPP
#Configuration: NPP
#almurnet v.1.7.20240730
#Start time: 2026-01-20 01:21:36

#Version: 2.2.20231116
#Station: R2M6_AANII_01
#Location: 30.233357 lon 59.946436 lat
#TLE: 1 37849U 11061A   26019.26265094  .00000081  00000+0  59609-4 0  9993
#TLE: 2 37849  98.7817 321.2746 0002356  56.2510 303.8890 14.19526363737315

#Time	Az	El	Level	Level2	SNR	BER	BlckErr	Temp	State	Recorded	gain1	gain2
2026-01-20 01:21:36.13	13.88	7.06	-31.8	-36.1	5.1	1.26e+00	0	42	0	0	23	5902
2026-01-20 01:21:39.14	13.74	7.28	-31.8	-36.2	8.5	3.87e-02	0	42	0	1048576	23	5934
2026-01-20 01:21:42.15	13.60	7.51	-31.5	-34.8	9.6	1.24e-02	0	42	0	7340032	23	5259
2026-01-20 01:21:45.16	13.46	7.73	-31.5	-34.7	9.7	2.14e-02	0	42	0	12582912	23	5220
2026-01-20 01:21:48.17	13.31	7.96	-31.2	-34.2	10.5	5.90e-03	0	42	0	17825792	22	5070
2026-01-20 01:21:51.17	13.16	8.19	-31.1	-33.7	10.8	2.94e-03	0	42	0	24117248	22	4895
2026-01-20 01:21:54.18	13.01	8.43	-31.0	-33.9	11.0	2.76e-03	0	43	0	29360128	21	5057
2026-01-20 01:21:57.18	12.86	8.66	-31.3	-34.3	10.5	3.95e-03	0	43	0	35651584	22	5110
2026-01-20 01:22:00.19	12.71	8.90	-31.1	-33.7	10.9	2.68e-03	0	43	0	40894464	22	4883
2026-01-20 01:22:03.19	12.55	9.13	-30.8	-33.4	11.6	1.23e-03	0	43	0	46137344	21	4833
2026-01-20 01:22:06.20	12.39	9.37	-30.9	-33.5	11.6	1.06e-03	0	43	0	52428800	21	4879
2026-01-20 01:22:09.21	12.23	9.62	-31.1	-33.8	11.0	2.12e-03	0	43	0	57671680	22	4897
2026-01-20 01:22:12.22	12.06	9.86	-30.8	-33.4	11.7	1.22e-03	0	43	0	62914560	21	4831
2026-01-20 01:22:15.23	11.89	10.11	-30.8	-33.3	11.7	1.06e-03	0	43	0	69206016	21	4799
2026-01-20 01:22:18.25	11.72	10.36	-30.7	-32.8	12.1	6.05e-04	0	43	0	74448896	21	4626
2026-01-20 01:22:21.26	11.54	10.61	-30.8	-33.1	11.9	4.20e-04	0	43	0	80740352	21	4707
2026-01-20 01:22:24.26	11.36	10.86	-30.6	-32.5	12.4	3.66e-04	0	43	0	85983232	21	4521
2026-01-20 01:22:27.28	11.18	11.12	-30.8	-33.2	11.9	5.50e-04	0	43	0	91226112	21	4758
2026-01-20 01:22:30.28	10.99	11.38	-30.8	-33.2	11.9	5.99e-04	0	43	0	97517568	21	4748
2026-01-20 01:22:33.28	10.80	11.64	-30.9	-33.6	11.7	8.11e-04	0	43	0	102760448	21	4885
2026-01-20 01:22:36.28	10.61	11.90	-30.7	-32.9	12.1	8.24e-04	0	44	0	109051904	21	4651
2026-01-20 01:22:39.29	10.42	12.17	-30.6	-32.6	12.4	2.71e-04	0	44	0	114294784	21	4519
2026-01-20 01:22:42.30	10.22	12.44	-30.4	-32.6	12.7	2.84e-04	0	44	0	119537664	20	4612
2026-01-20 01:22:45.31	10.01	12.71	-30.3	-32.2	13.0	2.69e-04	0	44	0	125829120	20	4486
2026-01-20 01:22:48.32	9.80	12.98	-30.5	-32.2	12.7	2.30e-04	0	44	0	131072000	21	4377
2026-01-20 01:22:51.32	9.59	13.26	-30.6	-32.5	12.6	2.97e-04	0	44	0	136314880	21	4475
2026-01-20 01:22:54.33	9.37	13.54	-30.6	-32.4	12.6	3.37e-04	0	44	0	142606336	21	4465
2026-01-20 01:22:57.34	9.15	13.82	-30.6	-32.5	12.6	1.01e-04	0	44	0	147849216	21	4489
2026-01-20 01:23:00.34	8.93	14.10	-29.9	-31.9	12.6	3.12e-04	0	44	0	154140672	21	4537
2026-01-20 01:23:03.36	8.70	14.39	-30.7	-32.7	11.9	2.14e-04	0	44	0	159383552	21	4548
2026-01-20 01:23:06.37	8.46	14.68	-30.6	-32.5	12.5	1.83e-04	0	44	0	164626432	21	4480
2026-01-20 01:23:09.37	8.22	14.98	-30.6	-32.4	12.7	1.64e-04	0	44	0	170917888	21	4443
2026-01-20 01:23:12.38	7.98	15.27	-30.6	-32.4	12.7	1.90e-04	0	44	0	176160768	21	4450
2026-01-20 01:23:15.39	7.73	15.57	-30.7	-32.9	12.4	1.65e-04	0	44	0	181403648	21	4590
2026-01-20 01:23:18.41	7.47	15.88	-30.8	-32.9	12.5	2.26e-03	0	44	0	187695104	21	4586
2026-01-20 01:23:21.41	7.21	16.18	-30.7	-32.8	12.6	2.45e-03	0	44	0	192937984	21	4554
2026-01-20 01:23:24.42	6.94	16.49	-31.0	-33.4	12.2	2.52e-03	0	44	0	199229440	21	4770
2026-01-20 01:23:27.43	6.67	16.81	-30.6	-32.4	12.9	7.62e-05	0	44	0	204472320	21	4422
2026-01-20 01:23:30.45	6.39	17.12	-30.3	-32.0	13.4	5.18e-05	0	44	0	209715200	20	4400
2026-01-20 01:23:33.46	6.11	17.44	-30.3	-32.0	13.4	1.75e-05	0	44	0	216006656	20	4391
2026-01-20 01:23:36.47	5.81	17.77	-30.3	-32.2	13.3	2.00e-03	0	44	0	221249536	20	4443
2026-01-20 01:23:39.47	5.52	18.09	-30.3	-32.1	13.4	2.29e-03	0	44	0	226492416	20	4414
2026-01-20 01:23:42.49	5.21	18.42	-30.5	-32.6	13.1	2.29e-03	0	44	0	232783872	20	4575
2026-01-20 01:23:45.50	4.90	18.76	-30.6	-32.5	12.9	2.08e-03	0	44	0	238026752	21	4449
2026-01-20 01:23:48.52	4.58	19.10	-30.8	-32.9	12.6	2.39e-03	0	44	0	244318208	21	4582
2026-01-20 01:23:51.53	4.26	19.44	-31.1	-33.2	12.1	2.05e-03	0	44	0	249561088	22	4609
2026-01-20 01:23:54.52	3.92	19.78	-31.3	-33.7	11.8	2.48e-03	0	44	0	254803968	22	4761
2026-01-20 01:23:57.53	3.58	20.13	-31.0	-32.9	12.3	2.83e-03	0	44	0	261095424	22	4468
2026-01-20 01:24:00.53	3.24	20.48	-31.1	-33.4	12.1	2.68e-03	0	44	0	266338304	22	4641
2026-01-20 01:24:03.54	2.88	20.83	-31.1	-33.2	12.2	2.58e-03	0	44	0	272629760	22	4559
2026-01-20 01:24:06.56	2.51	21.20	-30.8	-32.7	12.8	2.54e-03	0	44	0	277872640	21	4501
2026-01-20 01:24:09.55	2.14	21.56	-30.6	-32.4	13.1	2.67e-05	0	44	0	283115520	21	4394
2026-01-20 01:24:12.55	1.75	21.92	-30.8	-32.9	12.8	6.25e-05	0	44	0	289406976	21	4552
2026-01-20 01:24:15.57	1.36	22.30	-31.0	-32.9	12.5	1.60e-04	0	44	0	294649856	22	4492
2026-01-20 01:24:18.57	0.95	22.67	-31.4	-34.1	11.5	2.83e-03	0	44	0	299892736	22	4914
2026-01-20 01:24:21.58	0.54	23.05	-31.1	-33.2	12.2	2.41e-03	0	44	0	306184192	22	4577
2026-01-20 01:24:24.58	0.12	23.43	-31.0	-32.8	12.5	2.55e-03	0	44	0	311427072	22	4447
2026-01-20 01:24:27.59	359.68	23.82	-30.8	-32.8	12.8	5.18e-05	0	44	0	317718528	21	4521
2026-01-20 01:24:30.58	359.24	24.21	-31.2	-33.3	12.2	2.04e-04	0	44	0	322961408	22	4609
2026-01-20 01:24:33.58	358.78	24.61	-31.5	-33.9	11.5	8.32e-04	0	44	0	328204288	23	4729
2026-01-20 01:24:36.58	358.31	25.00	-31.4	-33.6	11.7	9.58e-04	0	44	0	334495744	23	4619
2026-01-20 01:24:39.60	357.83	25.41	-31.2	-33.3	12.2	1.02e-04	0	44	0	339738624	22	4614
2026-01-20 01:24:42.62	357.33	25.82	-30.7	-32.7	12.9	5.49e-05	0	44	0	344981504	21	4487
2026-01-20 01:24:45.62	356.82	26.23	-30.7	-32.7	12.9	6.86e-05	0	44	0	351272960	21	4517
2026-01-20 01:24:48.63	356.30	26.64	-31.1	-33.1	12.4	2.70e-04	0	44	0	356515840	22	4546
2026-01-20 01:24:51.63	355.77	27.06	-30.8	-32.4	12.8	7.24e-05	0	44	0	362807296	22	4301
2026-01-20 01:24:54.64	355.22	27.48	-30.7	-32.6	13.1	4.19e-05	0	44	0	368050176	21	4451
2026-01-20 01:24:57.65	354.65	27.91	-30.9	-33.1	12.8	5.72e-05	0	44	0	373293056	21	4610
2026-01-20 01:25:00.66	354.07	28.34	-31.1	-33.5	12.3	1.12e-04	0	44	0	379584512	21	4765
2026-01-20 01:25:03.65	353.47	28.77	-31.6	-34.0	10.9	5.42e-04	0	44	0	384827392	23	4774
2026-01-20 01:25:06.66	352.86	29.20	-31.5	-33.7	11.4	2.61e-03	0	45	0	390070272	23	4678
2026-01-20 01:25:09.67	352.23	29.64	-31.5	-34.2	11.7	1.56e-03	0	44	0	396361728	22	4940
2026-01-20 01:25:12.70	351.57	30.08	-31.5	-33.9	11.7	7.79e-04	0	44	0	401604608	23	4714
2026-01-20 01:25:15.71	350.91	30.53	-31.8	-34.6	11.2	1.43e-03	0	45	0	407896064	23	4964
2026-01-20 01:25:18.71	350.22	30.97	-31.9	-35.0	10.8	3.58e-03	0	44	0	413138944	23	5150
2026-01-20 01:25:21.70	349.52	31.42	-31.6	-34.1	11.5	1.48e-03	0	44	0	418381824	23	4771
2026-01-20 01:25:24.71	348.79	31.87	-31.6	-33.9	11.6	2.39e-03	0	44	0	424673280	23	4717
2026-01-20 01:25:27.71	348.05	32.32	-32.2	-35.4	10.2	4.59e-03	0	44	0	429916160	24	5234
2026-01-20 01:25:30.72	347.28	32.77	-32.3	-35.3	9.8	1.14e-02	0	44	0	435159040	25	5114
2026-01-20 01:25:33.74	346.49	33.23	-32.1	-35.3	10.2	5.03e-03	0	44	0	441450496	24	5205
2026-01-20 01:25:36.75	345.68	33.68	-32.1	-35.1	10.5	6.88e-03	0	45	0	446693376	24	5108
2026-01-20 01:25:39.75	344.84	34.13	-32.5	-36.1	9.3	1.50e-02	0	45	0	452984832	25	5451
2026-01-20 01:25:42.75	343.99	34.58	-32.5	-35.8	9.5	1.64e-02	0	44	0	458227712	25	5301
2026-01-20 01:25:45.77	343.10	35.04	-32.1	-34.9	10.6	4.79e-03	0	44	0	463470592	24	4987
2026-01-20 01:25:48.78	342.19	35.49	-31.9	-34.4	11.1	4.27e-03	0	44	0	469762048	24	4802
2026-01-20 01:25:51.79	341.25	35.94	-32.1	-35.0	10.6	6.54e-03	0	45	0	475004928	24	5012
2026-01-20 01:25:54.79	340.30	36.38	-32.1	-35.1	10.5	6.87e-03	0	44	0	481296384	24	5069
2026-01-20 01:25:57.80	339.31	36.82	-32.7	-36.6	8.9	1.87e-02	0	45	0	486539264	25	5681
2026-01-20 01:26:00.81	338.29	37.26	-33.1	-37.7	7.8	6.88e-02	0	45	0	491782144	26	6141
2026-01-20 01:26:03.82	337.25	37.69	-32.4	-35.6	9.8	1.54e-02	0	44	0	498073600	25	5192
2026-01-20 01:26:06.83	336.18	38.12	-32.4	-36.0	9.8	1.29e-02	0	45	0	503316480	24	5482
2026-01-20 01:26:09.85	335.07	38.55	-33.1	-38.0	7.6	8.57e-02	0	45	0	508559360	26	6301
2026-01-20 01:26:12.85	333.95	38.96	-32.1	-35.0	10.3	1.38e-02	0	44	0	514850816	24	5065
2026-01-20 01:26:15.85	332.79	39.36	-31.5	-34.2	11.8	2.81e-04	0	45	0	520093696	22	4918
2026-01-20 01:26:18.85	331.61	39.76	-31.8	-34.2	11.1	3.32e-03	0	45	0	526385152	24	4754
2026-01-20 01:26:21.85	330.40	40.15	-31.1	-33.1	12.6	8.31e-05	0	44	0	531628032	22	4512
2026-01-20 01:26:24.84	329.16	40.52	-31.5	-33.6	11.8	4.07e-04	0	45	0	536870912	23	4608
2026-01-20 01:26:27.85	327.89	40.88	-31.9	-34.7	10.7	4.90e-03	0	45	0	543162368	24	4935
2026-01-20 01:26:30.84	326.59	41.23	-31.1	-33.2	12.6	2.43e-03	0	45	0	548405248	22	4540
2026-01-20 01:26:33.84	325.26	41.57	-31.0	-32.6	12.9	4.65e-05	0	45	0	553648128	22	4363
2026-01-20 01:26:36.85	323.90	41.89	-31.1	-33.0	12.6	6.71e-05	0	44	0	559939584	22	4506
2026-01-20 01:26:39.84	322.53	42.20	-31.1	-33.2	12.4	1.50e-04	0	45	0	565182464	22	4576
2026-01-20 01:26:42.85	321.12	42.49	-30.7	-32.4	13.2	3.28e-05	0	45	0	570425344	21	4418
2026-01-20 01:26:45.85	319.68	42.76	-31.1	-33.0	12.5	1.29e-04	0	45	0	576716800	22	4497
2026-01-20 01:26:48.86	318.22	43.01	-30.6	-32.3	13.4	1.44e-03	0	44	0	581959680	21	4376
2026-01-20 01:26:51.87	316.74	43.25	-31.3	-33.8	12.0	2.03e-04	0	45	0	588251136	22	4779
2026-01-20 01:26:54.87	315.24	43.46	-31.3	-33.2	12.2	5.62e-04	0	45	0	593494016	23	4469
2026-01-20 01:26:57.89	313.71	43.65	-30.4	-31.6	13.9	4.50e-06	0	44	0	598736896	21	4132
2026-01-20 01:27:00.90	312.17	43.82	-31.4	-33.4	12.1	2.04e-04	0	45	0	605028352	23	4507
2026-01-20 01:27:03.90	310.61	43.97	-30.2	-32.4	12.4	1.62e-04	0	45	0	610271232	22	4604
2026-01-20 01:27:06.91	309.04	44.10	-31.0	-32.8	12.6	7.24e-05	0	45	0	615514112	22	4439
2026-01-20 01:27:09.92	307.46	44.20	-30.4	-31.5	13.9	9.90e-06	0	45	0	621805568	21	4111
2026-01-20 01:27:12.94	305.87	44.27	-31.5	-34.2	11.8	3.94e-04	0	45	0	627048448	22	4937
2026-01-20 01:27:15.94	304.27	44.32	-31.9	-35.2	10.8	2.02e-03	0	45	0	633339904	23	5233
2026-01-20 01:27:18.95	302.67	44.35	-31.7	-34.0	11.3	4.13e-03	0	45	0	638582784	24	4681
2026-01-20 01:27:21.96	301.07	44.35	-30.7	-32.1	13.2	1.90e-05	0	45	0	643825664	22	4205
2026-01-20 01:27:24.97	299.47	44.33	-31.8	-35.0	10.8	2.56e-03	0	45	0	650117120	23	5183
2026-01-20 01:27:27.97	297.88	44.28	-31.5	-33.6	11.8	1.54e-04	0	44	0	655360000	23	4627
2026-01-20 01:27:30.98	296.28	44.20	-32.2	-35.5	10.1	5.73e-03	0	45	0	661651456	24	5276
2026-01-20 01:27:33.99	294.70	44.10	-32.4	-35.9	9.3	1.62e-02	0	44	0	666894336	25	5420
2026-01-20 01:27:36.99	293.13	43.98	-32.4	-35.9	9.5	1.99e-02	0	44	0	672137216	25	5371
2026-01-20 01:27:39.99	291.58	43.84	-31.9	-34.7	10.7	3.74e-03	0	45	0	678428672	24	4950
2026-01-20 01:27:42.99	290.04	43.67	-32.2	-35.9	9.7	7.60e-03	0	45	0	683671552	24	5473
2026-01-20 01:27:45.99	288.51	43.48	-31.8	-34.6	10.7	1.23e-02	0	45	0	688914432	24	4926
2026-01-20 01:27:49.01	287.00	43.27	-31.8	-34.6	10.7	2.06e-03	0	45	0	695205888	24	4939
2026-01-20 01:27:52.01	285.52	43.04	-31.8	-34.7	10.5	8.48e-03	0	44	0	700448768	24	5004
2026-01-20 01:27:55.02	284.05	42.78	-30.5	-32.0	13.4	2.44e-05	0	45	0	705691648	21	4294
2026-01-20 01:27:58.02	282.62	42.51	-30.9	-32.8	12.6	8.31e-05	0	44	0	711983104	22	4469
2026-01-20 01:28:01.03	281.20	42.22	-30.0	-31.1	14.3	2.20e-06	0	44	0	717225984	20	4113
2026-01-20 01:28:04.05	279.80	41.92	-30.5	-32.0	13.4	1.98e-05	0	45	0	723517440	21	4304
2026-01-20 01:28:07.05	278.44	41.60	-30.2	-31.7	13.9	1.50e-06	0	45	0	728760320	20	4296
2026-01-20 01:28:10.06	277.11	41.26	-30.5	-32.0	13.4	1.44e-05	0	45	0	734003200	21	4307
2026-01-20 01:28:13.07	275.80	40.91	-29.6	-30.2	14.9	0.00e+00	0	45	0	740294656	20	3842
2026-01-20 01:28:16.07	274.53	40.54	-28.8	-29.2	16.1	0.00e+00	0	45	0	745537536	18	3758
2026-01-20 01:28:19.08	273.27	40.17	-29.8	-31.1	14.7	7.00e-07	0	45	0	751828992	19	4181
2026-01-20 01:28:22.09	272.05	39.78	-29.3	-30.4	15.4	0.00e+00	0	45	0	757071872	18	4074
2026-01-20 01:28:25.10	270.86	39.38	-28.8	-29.2	16.1	0.00e+00	0	44	0	762314752	18	3763
2026-01-20 01:28:28.10	269.70	38.98	-29.7	-31.0	14.8	0.00e+00	0	44	0	768606208	19	4156
2026-01-20 01:28:31.10	268.57	38.56	-29.4	-30.6	15.4	0.00e+00	0	44	0	773849088	18	4121
2026-01-20 01:28:34.11	267.47	38.14	-29.5	-30.8	15.4	0.00e+00	0	45	0	779091968	18	4175
2026-01-20 01:28:37.11	266.39	37.71	-30.4	-31.7	13.6	5.30e-06	0	44	0	785383424	21	4180
2026-01-20 01:28:40.13	265.34	37.28	-30.3	-31.8	13.6	7.00e-07	0	45	0	790626304	20	4302
2026-01-20 01:28:43.13	264.33	36.84	-30.5	-31.3	13.7	3.28e-05	0	45	0	796917760	22	3955
2026-01-20 01:28:46.14	263.33	36.40	-30.7	-32.4	13.2	2.13e-05	0	45	0	802160640	21	4390
2026-01-20 01:28:49.15	262.37	35.95	-30.5	-31.9	13.6	4.50e-06	0	45	0	807403520	21	4234
2026-01-20 01:28:52.16	261.43	35.50	-30.6	-32.1	13.4	1.74e-03	0	45	0	813694976	21	4293
2026-01-20 01:28:55.17	260.51	35.05	-30.5	-31.9	13.5	1.73e-03	0	45	0	818937856	21	4223
2026-01-20 01:28:58.18	259.62	34.59	-29.9	-31.3	13.8	1.24e-03	0	45	0	824180736	19	4238
2026-01-20 01:29:01.19	258.76	34.14	-31.6	-34.1	11.2	5.86e-04	0	45	0	830472192	23	4818
2026-01-20 01:29:04.20	257.92	33.68	-31.3	-33.6	12.0	1.43e-04	0	45	0	835715072	22	4712
2026-01-20 01:29:07.20	257.11	33.23	-31.9	-35.2	10.6	1.87e-03	0	45	0	842006528	23	5231
2026-01-20 01:29:10.21	256.31	32.77	-33.2	-39.3	6.3	1.13e-01	0	45	0	847249408	26	7270
2026-01-20 01:29:13.22	255.54	32.32	-32.3	-36.2	9.2	4.46e-02	0	45	0	852492288	24	5625
2026-01-20 01:29:16.23	254.79	31.87	-31.9	-35.3	10.4	5.09e-03	0	45	0	858783744	23	5306
2026-01-20 01:29:19.23	254.06	31.42	-32.0	-35.1	10.1	1.22e-02	0	45	0	864026624	24	5126
2026-01-20 01:29:22.25	253.35	30.96	-31.7	-34.7	10.8	2.86e-03	0	45	0	869269504	23	5036
2026-01-20 01:29:25.25	252.66	30.52	-31.6	-34.1	11.1	9.79e-04	0	45	0	875560960	23	4832
2026-01-20 01:29:28.27	251.99	30.07	-32.0	-35.5	10.3	3.48e-03	0	45	0	880803840	23	5373
2026-01-20 01:29:31.28	251.33	29.63	-31.4	-33.6	11.5	1.45e-03	0	45	0	887095296	23	4649
2026-01-20 01:29:34.29	250.70	29.19	-31.1	-33.1	12.3	2.33e-03	0	45	0	892338176	22	4543
2026-01-20 01:29:37.30	250.08	28.75	-31.3	-33.7	11.8	3.20e-03	0	45	0	897581056	22	4787
2026-01-20 01:29:40.31	249.48	28.32	-30.8	-32.8	12.7	2.07e-03	0	45	0	903872512	21	4556
2026-01-20 01:29:43.32	248.90	27.88	-31.0	-33.1	12.3	2.57e-03	0	45	0	909115392	22	4549
2026-01-20 01:29:46.32	248.33	27.46	-31.3	-33.9	11.6	4.10e-03	0	44	0	914358272	22	4845
2026-01-20 01:29:49.33	247.77	27.03	-31.2	-33.4	11.9	2.59e-03	0	45	0	920649728	22	4679
2026-01-20 01:29:52.33	247.24	26.62	-31.2	-33.6	11.8	4.44e-03	0	45	0	925892608	22	4735
2026-01-20 01:29:55.36	246.71	26.20	-31.0	-32.9	12.3	4.78e-03	0	44	0	932184064	22	4483
2026-01-20 01:29:58.36	246.20	25.78	-30.5	-31.9	13.2	3.12e-03	0	44	0	937426944	21	4271
2026-01-20 01:30:01.38	245.70	25.37	-30.7	-32.5	13.0	1.98e-03	0	45	0	942669824	21	4415
2026-01-20 01:30:04.38	245.21	24.97	-31.1	-33.2	12.2	7.51e-04	0	44	0	948961280	22	4571
2026-01-20 01:30:07.40	244.74	24.57	-30.9	-32.5	12.7	1.31e-04	0	45	0	954204160	22	4344
2026-01-20 01:30:10.40	244.28	24.17	-30.5	-32.1	13.2	2.74e-05	0	45	0	960495616	21	4295
2026-01-20 01:30:13.42	243.83	23.78	-30.4	-31.6	13.5	1.52e-05	0	45	0	965738496	21	4155
2026-01-20 01:30:16.42	243.39	23.39	-31.4	-34.0	11.6	4.23e-04	0	45	0	970981376	22	4858
2026-01-20 01:30:19.43	242.96	23.00	-31.9	-34.7	10.3	9.13e-03	0	45	0	977272832	24	4955
2026-01-20 01:30:22.42	242.55	22.63	-31.5	-33.9	11.2	4.11e-03	0	45	0	982515712	23	4756
2026-01-20 01:30:25.44	242.14	22.25	-31.5	-34.0	11.2	1.53e-03	0	45	0	987758592	23	4790
2026-01-20 01:30:28.45	241.74	21.87	-31.3	-33.7	11.7	7.93e-04	0	45	0	994050048	22	4772
2026-01-20 01:30:31.46	241.36	21.50	-31.1	-33.2	12.1	4.71e-04	0	45	0	999292928	22	4591
2026-01-20 01:30:34.46	240.98	21.14	-31.0	-32.9	12.3	1.86e-04	0	44	0	1005584384	22	4478
2026-01-20 01:30:37.47	240.61	20.78	-30.9	-33.1	12.4	1.07e-04	0	45	0	1010827264	21	4644
2026-01-20 01:30:40.48	240.25	20.42	-30.3	-31.9	12.8	1.75e-05	0	45	0	1016070144	20	4344
2026-01-20 01:30:43.48	239.90	20.07	-30.5	-31.9	13.1	7.19e-04	0	45	0	1022361600	21	4262
2026-01-20 01:30:46.49	239.56	19.72	-29.9	-31.9	12.6	7.24e-05	0	44	0	1027604480	21	4535
2026-01-20 01:30:49.50	239.22	19.37	-31.0	-33.5	11.5	3.09e-04	0	45	0	1032847360	21	4800
2026-01-20 01:30:52.50	238.89	19.03	-30.9	-33.2	12.2	2.89e-04	0	45	0	1039138816	21	4688
2026-01-20 01:30:55.51	238.57	18.69	-30.4	-32.4	13.1	3.35e-05	0	45	0	1044381696	20	4510
2026-01-20 01:30:58.52	238.26	18.36	-30.7	-32.8	12.5	1.11e-04	0	45	0	1050673152	21	4552
2026-01-20 01:31:01.53	237.95	18.03	-31.0	-33.4	12.0	3.38e-03	0	45	0	1055916032	21	4786
2026-01-20 01:31:04.54	237.65	17.70	-31.1	-33.3	11.8	3.93e-03	0	45	0	1061158912	22	4640
2026-01-20 01:31:07.54	237.36	17.38	-31.2	-33.7	11.5	4.09e-03	0	45	0	1067450368	22	4782
2026-01-20 01:31:10.54	237.07	17.06	-31.5	-34.5	10.8	1.53e-03	0	45	0	1072693248	22	5130
2026-01-20 01:31:13.55	236.79	16.74	-31.3	-34.0	11.2	2.18e-03	0	45	0	1077936128	22	4926
2026-01-20 01:31:16.55	236.52	16.43	-30.7	-32.9	12.3	2.55e-04	0	45	0	1084227584	21	4604
2026-01-20 01:31:19.57	236.25	16.11	-30.4	-32.5	12.9	2.14e-03	0	45	0	1089470464	20	4576
2026-01-20 01:31:22.58	235.98	15.81	-30.3	-32.3	13.0	2.50e-03	0	45	0	1095761920	20	4494
2026-01-20 01:31:25.58	235.73	15.50	-30.5	-32.7	12.7	2.51e-03	0	45	0	1101004800	20	4657
2026-01-20 01:31:28.59	235.47	15.20	-30.7	-32.7	12.3	2.51e-03	0	45	0	1106247680	21	4549
2026-01-20 01:31:31.60	235.23	14.90	-30.7	-32.9	12.2	2.86e-03	0	45	0	1112539136	21	4610
2026-01-20 01:31:34.60	234.98	14.61	-30.8	-33.0	12.1	3.81e-04	0	45	0	1117782016	21	4660
2026-01-20 01:31:37.60	234.75	14.32	-30.7	-32.8	12.2	2.68e-03	0	45	0	1123024896	21	4597
2026-01-20 01:31:40.61	234.51	14.03	-30.6	-32.7	12.2	3.20e-03	0	45	0	1129316352	21	4562
2026-01-20 01:31:43.61	234.29	13.74	-30.8	-33.3	11.8	3.23e-03	0	44	0	1134559232	21	4774
2026-01-20 01:31:46.61	234.06	13.46	-31.2	-34.1	10.9	4.46e-03	0	45	0	1140850688	22	4996
2026-01-20 01:31:49.62	233.84	13.18	-31.3	-34.5	10.5	6.07e-03	0	45	0	1146093568	22	5178
2026-01-20 01:31:52.63	233.63	12.90	-31.4	-34.6	10.4	5.29e-03	0	44	0	1151336448	22	5236
2026-01-20 01:31:55.63	233.42	12.63	-31.3	-34.6	10.4	4.21e-03	0	45	0	1157627904	22	5211
2026-01-20 01:31:58.63	233.21	12.36	-31.5	-34.5	10.0	8.43e-03	0	45	0	1162870784	23	5117
2026-01-20 01:32:01.64	233.01	12.09	-31.5	-34.5	10.0	9.86e-03	0	45	0	1168113664	23	5114
2026-01-20 01:32:04.65	232.81	11.82	-31.6	-34.8	9.8	1.17e-02	0	45	0	1174405120	23	5214
2026-01-20 01:32:07.66	232.61	11.56	-31.5	-34.7	9.9	1.14e-02	0	45	0	1179648000	23	5205
2026-01-20 01:32:10.67	232.42	11.30	-31.5	-34.6	9.9	1.09e-02	0	45	0	1185939456	23	5139
2026-01-20 01:32:13.67	232.23	11.04	-31.5	-34.5	10.0	8.35e-03	0	44	0	1191182336	23	5104
2026-01-20 01:32:16.68	232.05	10.78	-31.5	-34.7	9.8	1.13e-02	0	45	0	1196425216	23	5199
2026-01-20 01:32:19.68	231.87	10.53	-31.3	-34.6	10.2	5.20e-03	0	45	0	1202716672	22	5238
2026-01-20 01:32:22.69	231.69	10.27	-31.4	-34.7	10.1	6.46e-03	0	45	0	1207959552	22	5295
2026-01-20 01:32:25.70	231.51	10.02	-31.3	-34.6	10.2	6.93e-03	0	45	0	1213202432	22	5239
2026-01-20 01:32:28.71	231.34	9.78	-31.3	-34.7	10.1	8.88e-03	0	44	0	1219493888	22	5302
2026-01-20 01:32:31.71	231.17	9.53	-31.2	-34.3	10.4	6.32e-03	0	44	0	1224736768	22	5133
2026-01-20 01:32:34.71	231.01	9.29	-31.2	-34.3	10.3	4.96e-03	0	45	0	1231028224	22	5130
2026-01-20 01:32:37.71	230.84	9.05	-31.2	-34.4	10.2	6.12e-03	0	45	0	1236271104	22	5185
2026-01-20 01:32:40.72	230.68	8.81	-31.3	-34.6	10.0	7.47e-03	0	45	0	1241513984	22	5266
2026-01-20 01:32:43.72	230.52	8.57	-31.4	-35.1	9.6	1.23e-02	0	45	0	1247805440	22	5526
2026-01-20 01:32:46.73	230.37	8.34	-31.4	-35.3	9.4	1.44e-02	0	45	0	1253048320	22	5600
2026-01-20 01:32:49.74	230.22	8.10	-31.4	-35.1	9.6	1.34e-02	0	45	0	1258291200	22	5508
2026-01-20 01:32:52.74	230.07	7.87	-31.6	-35.5	8.8	2.18e-02	0	45	0	1264582656	23	5629
2026-01-20 01:32:55.75	229.92	7.64	-31.7	-35.8	8.5	2.97e-02	0	45	0	1269825536	23	5805
2026-01-20 01:32:58.76	229.77	7.42	-31.7	-35.8	8.5	4.38e-02	0	45	0	1276116992	23	5819
2026-01-20 01:33:01.77	229.63	7.19	-31.7	-36.0	8.4	5.34e-02	0	45	0	1281359872	23	5883
2026-01-20 01:33:04.78	229.49	6.97	-33.5	-45.8	3.8	1.49e+00	0	45	104	1284505600	27	14820

#Closed at: 2026-01-20 01:33:04
#Recorded file [1284 MB]: D:/data/31010_260120_042138.dat