passes_logs/2026/01/20/R2M6_AANII_01/R2M6_AANII_01__20260120_121223_FENGYUN_3D_rec.log

#Pass ID: 20260120_121223_FENGYUN 3D
#Satellite: FENGYUN 3D
#Configuration: FENGYUN 3D
#almurnet v.1.7.20240730
#Start time: 2026-01-20 12:12:23

#Version: 2.2.20231116
#Station: R2M6_AANII_01
#Location: 30.233357 lon 59.946436 lat
#TLE: 1 43010U 17072A   26019.65504262 -.00000232  00000+0 -88147-4 0  9993
#TLE: 2 43010  98.9941 351.5427 0002443 100.5024 259.6427 14.19695886423913

#Time	Az	El	Level	Level2	SNR	BER	BlckErr	Temp	State	Recorded	gain1	gain2
2026-01-20 12:12:23.27	154.85	7.01	-28.7	-31.3	5.6	7.81e-01	0	42	0	0	18	4852
2026-01-20 12:12:26.27	154.84	7.24	-29.1	-31.8	10.6	4.55e-03	0	42	0	5242880	19	4888
2026-01-20 12:12:29.27	154.83	7.48	-28.8	-30.8	11.4	1.65e-03	0	42	0	22020096	19	4522
2026-01-20 12:12:32.27	154.82	7.71	-28.4	-30.2	12.2	2.80e-04	0	42	0	38797312	18	4418
2026-01-20 12:12:35.27	154.80	7.95	-28.4	-30.7	12.2	4.27e-04	0	43	0	55574528	17	4682
2026-01-20 12:12:38.28	154.79	8.20	-28.3	-30.4	12.4	1.30e-04	0	43	0	73400320	17	4591
2026-01-20 12:12:41.29	154.78	8.44	-28.3	-30.4	12.4	2.56e-04	0	43	0	90177536	17	4589
2026-01-20 12:12:44.29	154.76	8.69	-28.1	-30.0	12.7	1.02e-04	0	43	0	106954752	17	4476
2026-01-20 12:12:47.30	154.75	8.94	-28.1	-30.0	12.7	1.04e-04	0	43	0	123731968	17	4480
2026-01-20 12:12:50.30	154.74	9.19	-27.7	-29.6	13.2	5.26e-05	0	43	0	140509184	16	4481
2026-01-20 12:12:53.32	154.72	9.45	-27.3	-28.5	13.9	4.50e-06	0	43	0	157286400	16	4150
2026-01-20 12:12:56.31	154.70	9.71	-27.0	-28.4	14.1	5.70e-06	0	43	0	174063616	15	4229
2026-01-20 12:12:59.31	154.69	9.97	-27.2	-28.8	13.9	3.40e-06	0	43	0	190840832	15	4330
2026-01-20 12:13:02.32	154.67	10.23	-27.0	-28.2	14.3	2.20e-06	0	43	0	208666624	15	4169
2026-01-20 12:13:05.33	154.66	10.50	-26.9	-28.1	14.4	1.10e-06	0	43	0	225443840	15	4133
2026-01-20 12:13:08.34	154.64	10.77	-27.1	-28.4	14.3	1.10e-06	0	43	0	242221056	15	4183
2026-01-20 12:13:11.35	154.62	11.04	-27.2	-28.6	14.2	4.50e-06	0	43	0	258998272	15	4240
2026-01-20 12:13:14.37	154.60	11.32	-27.1	-28.5	14.2	4.50e-06	0	43	0	275775488	15	4224
2026-01-20 12:13:17.37	154.58	11.60	-27.2	-28.6	14.2	1.10e-06	0	43	0	292552704	15	4242
2026-01-20 12:13:20.39	154.56	11.88	-27.2	-28.8	14.1	2.20e-06	0	43	0	309329920	15	4303
2026-01-20 12:13:23.39	154.54	12.16	-26.8	-27.9	14.6	0.00e+00	0	43	0	326107136	15	4061
2026-01-20 12:13:26.41	154.52	12.45	-26.7	-28.0	14.9	0.00e+00	0	44	0	343932928	14	4199
2026-01-20 12:13:29.42	154.50	12.75	-26.8	-28.3	14.8	2.20e-06	0	44	0	360710144	14	4257
2026-01-20 12:13:32.44	154.48	13.04	-26.9	-28.5	14.6	0.00e+00	0	44	0	377487360	14	4332
2026-01-20 12:13:35.44	154.46	13.34	-26.8	-28.2	14.8	1.10e-06	0	43	0	394264576	14	4251
2026-01-20 12:13:38.44	154.44	13.64	-26.6	-27.7	15.1	0.00e+00	0	44	0	411041792	14	4114
2026-01-20 12:13:41.45	154.41	13.95	-26.5	-27.6	15.2	1.10e-06	0	44	0	427819008	14	4077
2026-01-20 12:13:44.46	154.39	14.26	-26.4	-27.4	15.4	0.00e+00	0	44	0	445644800	14	4020
2026-01-20 12:13:47.47	154.36	14.58	-26.5	-27.6	15.2	0.00e+00	0	44	0	462422016	14	4088
2026-01-20 12:13:50.48	154.34	14.90	-26.4	-27.3	15.4	0.00e+00	0	44	0	479199232	14	3994
2026-01-20 12:13:53.50	154.31	15.22	-26.2	-27.5	15.6	0.00e+00	0	44	0	495976448	13	4164
2026-01-20 12:13:56.51	154.28	15.55	-26.4	-27.8	15.4	1.10e-06	0	44	0	512753664	13	4255
2026-01-20 12:13:59.51	154.26	15.88	-25.8	-26.6	16.1	0.00e+00	0	44	0	529530880	13	3937
2026-01-20 12:14:02.52	154.23	16.22	-25.9	-26.7	16.1	0.00e+00	0	44	0	546308096	13	3952
2026-01-20 12:14:05.52	154.20	16.56	-26.1	-27.2	15.8	0.00e+00	0	44	0	564133888	13	4076
2026-01-20 12:14:08.52	154.17	16.90	-26.2	-27.3	15.8	0.00e+00	0	44	0	580911104	13	4111
2026-01-20 12:14:11.52	154.14	17.25	-26.0	-27.0	15.9	0.00e+00	0	44	0	597688320	13	4041
2026-01-20 12:14:14.53	154.10	17.61	-25.7	-26.8	16.4	0.00e+00	0	44	0	614465536	12	4068
2026-01-20 12:14:17.54	154.07	17.97	-25.4	-26.1	16.8	0.00e+00	0	44	0	631242752	12	3902
2026-01-20 12:14:20.55	154.04	18.34	-25.4	-26.5	16.9	0.00e+00	0	44	0	648019968	11	4113
2026-01-20 12:14:23.56	154.00	18.71	-25.4	-26.6	16.9	0.00e+00	0	44	0	664797184	11	4140
2026-01-20 12:14:26.57	153.96	19.09	-25.2	-26.2	17.1	0.00e+00	0	44	0	681574400	11	4016
2026-01-20 12:14:29.58	153.93	19.47	-25.3	-26.4	17.0	0.00e+00	0	44	0	699400192	11	4072
2026-01-20 12:14:32.60	153.89	19.86	-25.2	-26.1	17.2	0.00e+00	0	44	0	716177408	11	3994
2026-01-20 12:14:35.60	153.85	20.26	-25.2	-26.2	17.1	0.00e+00	0	44	0	732954624	11	4032
2026-01-20 12:14:38.59	153.81	20.66	-25.4	-26.5	17.0	0.00e+00	0	44	0	749731840	11	4111
2026-01-20 12:14:41.59	153.76	21.07	-25.2	-26.1	17.2	0.00e+00	0	44	0	766509056	11	4006
2026-01-20 12:14:44.59	153.72	21.48	-25.2	-26.1	17.3	0.00e+00	0	44	0	783286272	11	4004
2026-01-20 12:14:47.60	153.67	21.91	-25.1	-25.9	17.4	0.00e+00	0	44	0	800063488	11	3960
2026-01-20 12:14:50.60	153.63	22.33	-25.2	-26.1	17.3	0.00e+00	0	44	0	816840704	11	4005
2026-01-20 12:14:53.61	153.58	22.77	-25.2	-26.0	17.4	0.00e+00	0	44	0	834666496	11	3988
2026-01-20 12:14:56.62	153.53	23.22	-25.1	-26.0	17.4	0.00e+00	0	44	0	851443712	11	3964
2026-01-20 12:14:59.64	153.47	23.67	-24.7	-25.6	17.8	0.00e+00	0	44	0	868220928	10	3991
2026-01-20 12:15:02.65	153.42	24.13	-25.0	-26.2	17.6	0.00e+00	0	44	0	884998144	10	4128
2026-01-20 12:15:05.67	153.36	24.60	-24.9	-26.0	17.8	0.00e+00	0	44	0	901775360	10	4066
2026-01-20 12:15:08.68	153.30	25.08	-25.0	-26.2	17.6	0.00e+00	0	44	0	918552576	10	4133
2026-01-20 12:15:11.69	153.24	25.57	-24.5	-25.2	18.2	0.00e+00	0	44	0	935329792	10	3897
2026-01-20 12:15:14.69	153.18	26.06	-24.5	-25.1	18.2	0.00e+00	0	44	0	953155584	10	3871
2026-01-20 12:15:17.70	153.12	26.56	-24.3	-24.8	18.4	0.00e+00	0	44	0	969932800	10	3784
2026-01-20 12:15:20.69	153.05	27.08	-24.2	-24.9	18.6	0.00e+00	0	44	0	986710016	9	3924
2026-01-20 12:15:23.71	152.98	27.60	-24.1	-24.8	18.6	0.00e+00	0	44	0	1003487232	9	3891
2026-01-20 12:15:26.71	152.91	28.13	-24.1	-24.7	18.7	0.00e+00	0	44	0	1020264448	9	3883
2026-01-20 12:15:29.71	152.83	28.68	-24.1	-24.8	18.7	0.00e+00	0	44	0	1037041664	9	3899
2026-01-20 12:15:32.73	152.76	29.23	-24.1	-24.8	18.7	0.00e+00	0	44	0	1053818880	9	3897
2026-01-20 12:15:35.73	152.68	29.80	-24.3	-25.1	18.5	0.00e+00	0	44	0	1070596096	9	3967
2026-01-20 12:15:38.75	152.59	30.38	-23.9	-24.3	19.0	0.00e+00	0	44	0	1088421888	9	3788
2026-01-20 12:15:41.75	152.50	30.97	-23.9	-24.3	19.0	0.00e+00	0	44	0	1105199104	9	3774
2026-01-20 12:15:44.76	152.41	31.57	-23.9	-24.4	19.0	0.00e+00	0	44	0	1121976320	9	3794
2026-01-20 12:15:47.76	152.32	32.18	-24.0	-24.6	18.8	0.00e+00	0	44	0	1138753536	9	3858
2026-01-20 12:15:50.77	152.22	32.81	-24.5	-25.5	18.4	0.00e+00	0	44	0	1155530752	9	4069
2026-01-20 12:15:53.78	152.11	33.45	-23.9	-24.4	19.0	0.00e+00	0	44	0	1172307968	9	3813
2026-01-20 12:15:56.80	152.01	34.10	-23.6	-24.2	19.3	0.00e+00	0	44	0	1189085184	8	3852
2026-01-20 12:15:59.81	151.89	34.77	-23.2	-24.0	19.7	0.00e+00	0	44	0	1206910976	7	3908
2026-01-20 12:16:02.83	151.77	35.46	-23.4	-24.4	19.5	0.00e+00	0	44	0	1223688192	7	4010
2026-01-20 12:16:05.84	151.65	36.15	-23.8	-25.1	19.2	0.00e+00	0	44	0	1240465408	7	4180
2026-01-20 12:16:08.85	151.52	36.86	-23.7	-24.9	19.2	0.00e+00	0	44	0	1257242624	7	4144
2026-01-20 12:16:11.87	151.38	37.59	-23.8	-25.2	19.1	0.00e+00	0	44	0	1274019840	7	4215
2026-01-20 12:16:14.88	151.24	38.34	-24.0	-25.5	19.0	0.00e+00	0	44	0	1290797056	7	4295
2026-01-20 12:16:17.90	151.09	39.10	-23.6	-24.2	19.4	0.00e+00	0	44	0	1308622848	8	3868
2026-01-20 12:16:20.90	150.93	39.88	-23.9	-24.8	19.1	0.00e+00	0	44	0	1325400064	8	3996
2026-01-20 12:16:23.91	150.77	40.67	-24.2	-25.4	18.8	0.00e+00	0	44	0	1342177280	8	4147
2026-01-20 12:16:26.92	150.59	41.48	-24.3	-25.6	18.7	0.00e+00	0	44	0	1358954496	8	4201
2026-01-20 12:16:29.93	150.41	42.31	-24.2	-25.5	18.8	0.00e+00	0	44	0	1375731712	8	4166
2026-01-20 12:16:32.94	150.22	43.16	-24.2	-25.4	18.9	0.00e+00	0	44	0	1392508928	8	4158
2026-01-20 12:16:35.94	150.01	44.03	-24.2	-25.3	18.9	0.00e+00	0	44	0	1409286144	8	4130
2026-01-20 12:16:38.93	149.79	44.91	-24.2	-25.6	18.8	0.00e+00	0	44	0	1426063360	8	4185
2026-01-20 12:16:41.94	149.56	45.81	-24.7	-25.9	18.4	0.00e+00	0	44	0	1443889152	9	4174
2026-01-20 12:16:44.95	149.32	46.74	-23.8	-24.1	19.3	0.00e+00	0	44	0	1460666368	9	3737
2026-01-20 12:16:47.95	149.06	47.69	-23.6	-24.2	19.5	0.00e+00	0	44	0	1477443584	8	3859
2026-01-20 12:16:50.94	148.78	48.65	-24.2	-25.4	19.0	0.00e+00	0	44	0	1494220800	8	4148
2026-01-20 12:16:53.95	148.48	49.64	-24.0	-24.9	19.3	0.00e+00	0	44	0	1510998016	8	4021
2026-01-20 12:16:56.94	148.17	50.64	-24.9	-26.5	18.2	0.00e+00	0	44	0	1527775232	9	4316
2026-01-20 12:16:59.96	147.83	51.67	-25.3	-26.7	17.9	0.00e+00	0	44	0	1544552448	10	4236
2026-01-20 12:17:02.98	147.46	52.73	-25.3	-26.9	17.8	0.00e+00	0	44	0	1562378240	10	4286
2026-01-20 12:17:05.99	147.06	53.80	-25.5	-26.7	17.7	0.00e+00	0	44	0	1579155456	11	4123
2026-01-20 12:17:09.01	146.64	54.90	-25.2	-26.1	17.9	0.00e+00	0	44	0	1595932672	11	3976
2026-01-20 12:17:12.00	146.18	56.01	-25.3	-26.2	17.9	0.00e+00	0	44	0	1612709888	11	4018
2026-01-20 12:17:15.01	145.68	57.15	-25.1	-25.8	18.1	0.00e+00	0	44	0	1629487104	11	3916
2026-01-20 12:17:18.02	145.13	58.31	-24.6	-25.2	18.7	0.00e+00	0	45	0	1646264320	10	3870
2026-01-20 12:17:21.03	144.54	59.49	-23.6	-24.2	19.7	0.00e+00	0	44	0	1663041536	8	3850
2026-01-20 12:17:24.03	143.88	60.68	-24.1	-25.1	19.3	0.00e+00	0	44	0	1679818752	8	4078
2026-01-20 12:17:27.04	143.16	61.90	-24.2	-25.4	19.1	0.00e+00	0	44	0	1697644544	8	4139
2026-01-20 12:17:30.04	142.37	63.13	-23.9	-24.8	19.4	0.00e+00	0	44	0	1714421760	8	3993
2026-01-20 12:17:33.05	141.48	64.38	-23.8	-24.6	19.5	0.00e+00	0	44	0	1731198976	8	3955
2026-01-20 12:17:36.07	140.49	65.65	-23.9	-24.8	19.4	0.00e+00	0	44	0	1747976192	8	3993
2026-01-20 12:17:39.08	139.37	66.93	-22.9	-23.2	20.4	0.00e+00	0	44	0	1764753408	7	3718
2026-01-20 12:17:42.07	138.12	68.22	-23.3	-23.9	20.0	0.00e+00	0	44	0	1781530624	7	3899
2026-01-20 12:17:45.07	136.70	69.51	-23.2	-24.4	20.0	0.00e+00	0	44	0	1798307840	6	4122
2026-01-20 12:17:48.08	135.05	70.81	-23.0	-23.9	20.3	0.00e+00	0	44	0	1815085056	6	4003
2026-01-20 12:17:51.07	133.17	72.10	-22.9	-23.8	20.4	0.00e+00	0	44	0	1832910848	6	3972
2026-01-20 12:17:54.09	130.94	73.40	-22.7	-23.4	20.5	0.00e+00	0	44	0	1849688064	6	3872
2026-01-20 12:17:57.10	128.33	74.69	-22.7	-23.4	20.5	0.00e+00	0	45	0	1866465280	6	3879
2026-01-20 12:18:00.11	125.23	75.94	-22.2	-22.8	21.0	0.00e+00	0	44	0	1883242496	5	3867
2026-01-20 12:18:03.11	121.52	77.16	-22.0	-22.4	21.2	0.00e+00	0	45	0	1900019712	5	3760
2026-01-20 12:18:06.11	117.02	78.32	-21.4	-21.6	21.8	0.00e+00	0	44	0	1916796928	4	3696
2026-01-20 12:18:09.12	111.52	79.40	-20.9	-21.1	22.4	0.00e+00	0	44	0	1933574144	3	3676
2026-01-20 12:18:12.13	104.82	80.38	-21.0	-21.2	22.6	0.00e+00	0	44	0	1950351360	3	3694
2026-01-20 12:18:15.13	96.74	81.20	-20.8	-20.9	22.7	0.00e+00	0	44	0	1968177152	3	3634
2026-01-20 12:18:18.14	87.19	81.81	-21.2	-21.8	22.3	0.00e+00	0	45	0	1984954368	3	3818
2026-01-20 12:18:21.15	76.42	82.17	-21.8	-22.9	21.8	0.00e+00	0	44	0	2001731584	3	4092
2026-01-20 12:18:24.15	65.08	82.23	-21.6	-22.6	22.0	0.00e+00	0	44	0	2018508800	3	4013
2026-01-20 12:18:27.17	53.93	82.00	-21.7	-22.7	21.9	0.00e+00	0	44	0	2035286016	3	4045
2026-01-20 12:18:30.18	43.81	81.48	-21.6	-22.6	21.9	0.00e+00	0	44	0	2052063232	3	4007
2026-01-20 12:18:33.19	35.09	80.74	-21.2	-21.7	22.3	0.00e+00	0	44	0	2068840448	3	3815
2026-01-20 12:18:36.20	27.82	79.83	-21.3	-21.9	22.2	0.00e+00	0	44	0	2085617664	3	3854
2026-01-20 12:18:39.21	21.85	78.79	-21.4	-22.2	22.1	0.00e+00	0	44	0	2103443456	3	3919
2026-01-20 12:18:42.22	16.95	77.65	-21.7	-22.7	21.9	0.00e+00	0	44	0	2120220672	3	4041
2026-01-20 12:18:45.23	12.92	76.46	-22.1	-23.1	21.4	0.00e+00	0	44	0	2136997888	4	4022
2026-01-20 12:18:48.23	9.59	75.22	-22.1	-22.6	21.4	0.00e+00	0	44	0	2153775104	5	3781
2026-01-20 12:18:51.24	6.79	73.95	-22.5	-23.2	21.1	0.00e+00	0	44	0	2170552320	5	3933
2026-01-20 12:18:54.26	4.41	72.66	-22.6	-23.5	20.9	0.00e+00	0	44	0	2187329536	5	4007
2026-01-20 12:18:57.27	2.39	71.36	-23.1	-24.2	20.4	0.00e+00	0	44	0	2205155328	6	4054
2026-01-20 12:19:00.29	0.65	70.05	-23.4	-24.8	20.0	0.00e+00	0	45	0	2221932544	6	4210
2026-01-20 12:19:03.30	359.13	68.76	-23.3	-24.5	20.2	0.00e+00	0	44	0	2238709760	6	4135
2026-01-20 12:19:06.30	357.81	67.47	-23.3	-23.9	20.2	0.00e+00	0	44	0	2255486976	7	3884
2026-01-20 12:19:09.31	356.65	66.19	-23.3	-23.9	20.2	0.00e+00	0	45	0	2272264192	7	3886
2026-01-20 12:19:12.31	355.61	64.92	-23.2	-23.8	20.3	0.00e+00	0	44	0	2289041408	7	3861
2026-01-20 12:19:15.33	354.68	63.66	-23.6	-24.7	19.8	0.00e+00	0	44	0	2305818624	7	4077
2026-01-20 12:19:18.35	353.85	62.42	-23.8	-25.1	19.6	0.00e+00	0	45	0	2323644416	7	4156
2026-01-20 12:19:21.36	353.10	61.20	-23.4	-24.2	20.1	0.00e+00	0	44	0	2340421632	7	3933
2026-01-20 12:19:24.36	352.43	60.00	-23.7	-24.9	19.7	0.00e+00	0	45	0	2357198848	7	4109
2026-01-20 12:19:27.37	351.81	58.81	-24.4	-25.7	19.1	0.00e+00	0	44	0	2373976064	8	4195
2026-01-20 12:19:30.37	351.25	57.65	-24.8	-26.1	18.6	0.00e+00	0	44	0	2390753280	9	4185
2026-01-20 12:19:33.39	350.73	56.51	-25.2	-26.4	18.2	0.00e+00	0	44	0	2407530496	10	4154
2026-01-20 12:19:36.40	350.25	55.38	-25.1	-26.3	18.3	0.00e+00	0	44	0	2424307712	10	4125
2026-01-20 12:19:39.40	349.81	54.29	-25.0	-26.1	18.4	0.00e+00	0	44	0	2442133504	10	4085
2026-01-20 12:19:42.40	349.41	53.21	-24.2	-24.9	19.2	0.00e+00	0	44	0	2458910720	9	3888
2026-01-20 12:19:45.41	349.03	52.15	-24.6	-25.7	18.8	0.00e+00	0	44	0	2475687936	9	4105
2026-01-20 12:19:48.43	348.68	51.11	-24.1	-24.6	19.3	0.00e+00	0	44	0	2492465152	9	3820
2026-01-20 12:19:51.43	348.36	50.10	-24.4	-25.3	19.0	0.00e+00	0	44	0	2509242368	9	3983
2026-01-20 12:19:54.44	348.05	49.11	-24.1	-24.7	19.3	0.00e+00	0	45	0	2526019584	9	3853
2026-01-20 12:19:57.43	347.77	48.14	-24.0	-24.5	19.4	0.00e+00	0	44	0	2542796800	9	3807
2026-01-20 12:20:00.44	347.50	47.19	-23.9	-24.2	19.5	0.00e+00	0	45	0	2559574016	9	3748
2026-01-20 12:20:03.45	347.25	46.26	-23.9	-24.2	19.5	0.00e+00	0	44	0	2577399808	9	3733
2026-01-20 12:20:06.47	347.01	45.34	-23.7	-24.3	19.7	0.00e+00	0	45	0	2594177024	8	3862
2026-01-20 12:20:09.47	346.79	44.45	-24.0	-24.9	19.4	0.00e+00	0	45	0	2610954240	8	4015
2026-01-20 12:20:12.47	346.58	43.58	-23.8	-24.6	19.6	0.00e+00	0	45	0	2627731456	8	3923
2026-01-20 12:20:15.47	346.39	42.73	-23.9	-24.8	19.4	0.00e+00	0	45	0	2644508672	8	3978
2026-01-20 12:20:18.48	346.20	41.90	-23.8	-24.5	19.6	0.00e+00	0	44	0	2661285888	8	3925
2026-01-20 12:20:21.50	346.02	41.08	-23.6	-24.1	19.8	0.00e+00	0	44	0	2678063104	8	3809
2026-01-20 12:20:24.51	345.85	40.28	-23.5	-23.9	19.9	0.00e+00	0	44	0	2695888896	8	3771
2026-01-20 12:20:27.53	345.69	39.49	-23.3	-23.5	20.0	0.00e+00	0	45	0	2712666112	8	3692
2026-01-20 12:20:30.54	345.54	38.73	-23.3	-23.6	20.0	0.00e+00	0	44	0	2729443328	8	3709
2026-01-20 12:20:33.55	345.40	37.98	-23.2	-23.7	20.1	0.00e+00	0	44	0	2746220544	7	3843
2026-01-20 12:20:36.54	345.26	37.25	-23.2	-23.9	20.1	0.00e+00	0	45	0	2762997760	7	3868
2026-01-20 12:20:39.57	345.13	36.53	-23.6	-24.6	19.7	0.00e+00	0	44	0	2779774976	7	4053
2026-01-20 12:20:42.58	345.00	35.83	-23.6	-24.7	19.6	0.00e+00	0	45	0	2797600768	7	4083
2026-01-20 12:20:45.59	344.88	35.15	-23.4	-24.2	19.9	0.00e+00	0	45	0	2814377984	7	3952
2026-01-20 12:20:48.60	344.77	34.48	-23.3	-24.1	19.9	0.00e+00	0	44	0	2831155200	7	3914
2026-01-20 12:20:51.61	344.66	33.82	-23.6	-24.5	19.7	0.00e+00	0	44	0	2847932416	7	4030
2026-01-20 12:20:54.61	344.56	33.18	-23.9	-25.3	19.3	0.00e+00	0	44	0	2864709632	7	4225
2026-01-20 12:20:57.62	344.46	32.55	-24.2	-25.3	19.1	0.00e+00	0	44	0	2881486848	8	4106
2026-01-20 12:21:00.64	344.36	31.93	-24.3	-25.6	18.9	0.00e+00	0	45	0	2898264064	8	4188
2026-01-20 12:21:03.66	344.27	31.32	-24.4	-25.8	18.8	0.00e+00	0	44	0	2915041280	8	4246
2026-01-20 12:21:06.66	344.18	30.73	-24.6	-25.7	18.6	0.00e+00	0	45	0	2932867072	9	4088
2026-01-20 12:21:09.67	344.10	30.15	-24.5	-25.5	18.7	0.00e+00	0	44	0	2949644288	9	4040
2026-01-20 12:21:12.68	344.02	29.58	-24.3	-25.1	18.9	0.00e+00	0	45	0	2966421504	9	3954
2026-01-20 12:21:15.69	343.94	29.02	-24.2	-24.8	19.0	0.00e+00	0	44	0	2983198720	9	3879
2026-01-20 12:21:18.71	343.87	28.47	-24.0	-24.5	19.2	0.00e+00	0	44	0	2999975936	9	3795
2026-01-20 12:21:21.72	343.79	27.93	-23.9	-24.7	19.3	0.00e+00	0	44	0	3017801728	8	3949
2026-01-20 12:21:24.72	343.72	27.41	-23.7	-24.3	19.5	0.00e+00	0	44	0	3034578944	8	3864
2026-01-20 12:21:27.73	343.66	26.89	-23.6	-24.1	19.6	0.00e+00	0	45	0	3051356160	8	3816
2026-01-20 12:21:30.75	343.59	26.38	-23.8	-24.5	19.4	0.00e+00	0	45	0	3068133376	8	3918
2026-01-20 12:21:33.75	343.53	25.89	-23.9	-24.8	19.2	0.00e+00	0	45	0	3084910592	8	3996
2026-01-20 12:21:36.75	343.47	25.40	-24.0	-25.1	19.0	0.00e+00	0	44	0	3101687808	8	4057
2026-01-20 12:21:39.76	343.42	24.92	-24.3	-25.6	18.8	0.00e+00	0	44	0	3118465024	8	4182
2026-01-20 12:21:42.77	343.36	24.45	-24.4	-25.4	18.6	0.00e+00	0	44	0	3135242240	9	4027
2026-01-20 12:21:45.79	343.31	23.99	-24.4	-25.2	18.7	0.00e+00	0	44	0	3153068032	9	3984
2026-01-20 12:21:48.80	343.26	23.53	-24.6	-25.8	18.4	0.00e+00	0	45	0	3169845248	9	4111
2026-01-20 12:21:51.79	343.21	23.09	-24.6	-25.7	18.4	0.00e+00	0	44	0	3186622464	9	4089
2026-01-20 12:21:54.81	343.16	22.65	-24.8	-26.1	18.2	0.00e+00	0	44	0	3203399680	9	4190
2026-01-20 12:21:57.82	343.11	22.21	-24.8	-26.2	18.2	0.00e+00	0	45	0	3220176896	9	4211
2026-01-20 12:22:00.84	343.07	21.79	-24.8	-26.2	18.1	0.00e+00	0	44	0	3236954112	9	4223
2026-01-20 12:22:03.86	343.02	21.37	-25.1	-26.4	17.8	0.00e+00	0	44	0	3253731328	10	4153
2026-01-20 12:22:06.86	342.98	20.96	-25.3	-26.7	17.6	0.00e+00	0	45	0	3271557120	10	4243
2026-01-20 12:22:09.87	342.94	20.56	-25.3	-26.6	17.6	0.00e+00	0	45	0	3288334336	10	4219
2026-01-20 12:22:12.88	342.90	20.16	-25.3	-26.8	17.5	0.00e+00	0	44	0	3305111552	10	4264
2026-01-20 12:22:15.89	342.87	19.77	-25.3	-26.7	17.5	0.00e+00	0	44	0	3321888768	10	4244
2026-01-20 12:22:18.90	342.83	19.38	-25.4	-27.0	17.4	0.00e+00	0	45	0	3338665984	10	4311
2026-01-20 12:22:21.92	342.79	19.00	-25.3	-26.3	17.4	0.00e+00	0	44	0	3355443200	11	4036
2026-01-20 12:22:24.92	342.76	18.63	-25.5	-26.7	17.2	0.00e+00	0	44	0	3373268992	11	4125
2026-01-20 12:22:27.93	342.73	18.26	-25.8	-27.3	16.9	0.00e+00	0	45	0	3390046208	11	4279
2026-01-20 12:22:30.95	342.70	17.89	-25.8	-27.4	16.8	0.00e+00	0	44	0	3406823424	11	4313
2026-01-20 12:22:33.95	342.67	17.54	-26.0	-27.3	16.5	0.00e+00	0	45	0	3423600640	12	4179
2026-01-20 12:22:36.96	342.64	17.19	-26.1	-27.5	16.4	0.00e+00	0	44	0	3440377856	12	4229
2026-01-20 12:22:39.96	342.61	16.84	-26.2	-27.6	16.3	0.00e+00	0	45	0	3457155072	12	4272
2026-01-20 12:22:42.96	342.58	16.50	-26.1	-27.4	16.4	0.00e+00	0	44	0	3473932288	12	4219
2026-01-20 12:22:45.97	342.55	16.16	-25.9	-27.0	16.7	0.00e+00	0	44	0	3490709504	12	4099
2026-01-20 12:22:48.98	342.53	15.83	-25.9	-27.2	16.5	0.00e+00	0	45	0	3508535296	12	4147
2026-01-20 12:22:51.99	342.50	15.50	-25.9	-27.2	16.5	0.00e+00	0	44	0	3525312512	12	4148
2026-01-20 12:22:55.00	342.48	15.17	-26.2	-27.8	16.1	0.00e+00	0	44	0	3542089728	12	4322
2026-01-20 12:22:58.01	342.45	14.85	-26.5	-28.0	15.7	0.00e+00	0	44	0	3558866944	13	4259
2026-01-20 12:23:01.01	342.43	14.54	-26.1	-27.0	16.3	0.00e+00	0	45	0	3575644160	13	3986
2026-01-20 12:23:04.01	342.41	14.23	-26.3	-27.6	15.9	0.00e+00	0	45	0	3592421376	13	4143
2026-01-20 12:23:07.01	342.39	13.92	-26.4	-27.8	15.8	0.00e+00	0	44	0	3609198592	13	4210
2026-01-20 12:23:10.02	342.37	13.62	-26.2	-27.2	16.1	0.00e+00	0	44	0	3625975808	13	4050
2026-01-20 12:23:13.04	342.35	13.32	-26.3	-27.4	15.9	0.00e+00	0	45	0	3643801600	13	4101
2026-01-20 12:23:16.05	342.33	13.02	-26.3	-27.4	16.0	0.00e+00	0	44	0	3660578816	13	4108
2026-01-20 12:23:19.06	342.31	12.73	-26.4	-27.7	15.8	0.00e+00	0	45	0	3677356032	13	4183
2026-01-20 12:23:22.06	342.29	12.44	-26.5	-28.0	15.6	0.00e+00	0	44	0	3694133248	13	4266
2026-01-20 12:23:25.08	342.27	12.15	-26.5	-27.8	15.7	0.00e+00	0	45	0	3710910464	13	4220
2026-01-20 12:23:28.09	342.25	11.87	-26.6	-28.1	15.5	0.00e+00	0	45	0	3727687680	13	4295
2026-01-20 12:23:31.10	342.24	11.59	-26.7	-28.4	15.3	0.00e+00	0	45	0	3744464896	13	4370
2026-01-20 12:23:34.11	342.22	11.31	-26.8	-28.7	15.1	0.00e+00	0	45	0	3762290688	13	4462
2026-01-20 12:23:37.11	342.21	11.04	-26.9	-28.9	15.0	0.00e+00	0	44	0	3779067904	13	4519
2026-01-20 12:23:40.11	342.19	10.77	-26.9	-28.3	15.0	1.10e-06	0	45	0	3795845120	14	4233
2026-01-20 12:23:43.12	342.18	10.50	-26.7	-27.9	15.2	0.00e+00	0	45	0	3812622336	14	4124
2026-01-20 12:23:46.13	342.16	10.24	-27.1	-28.7	14.8	0.00e+00	0	45	0	3829399552	14	4345
2026-01-20 12:23:49.15	342.15	9.97	-27.2	-29.0	14.6	0.00e+00	0	45	0	3846176768	14	4431
2026-01-20 12:23:52.16	342.14	9.72	-27.1	-28.8	14.7	1.10e-06	0	44	0	3862953984	14	4388
2026-01-20 12:23:55.16	342.12	9.46	-27.2	-29.0	14.6	0.00e+00	0	45	0	3880779776	14	4442
2026-01-20 12:23:58.18	342.11	9.21	-27.3	-29.2	14.4	1.10e-06	0	44	0	3897556992	14	4492
2026-01-20 12:24:01.19	342.10	8.95	-27.5	-29.2	14.1	3.40e-06	0	45	0	3914334208	15	4385
2026-01-20 12:24:04.20	342.09	8.71	-27.5	-29.2	14.1	4.50e-06	0	44	0	3931111424	15	4379
2026-01-20 12:24:07.21	342.08	8.46	-27.5	-29.2	14.1	3.40e-06	0	45	0	3947888640	15	4388
2026-01-20 12:24:10.22	342.07	8.22	-27.6	-29.4	14.0	8.00e-06	0	45	0	3964665856	15	4425
2026-01-20 12:24:13.23	342.06	7.97	-27.6	-29.4	13.9	6.80e-06	0	45	0	3982491648	15	4456
2026-01-20 12:24:16.25	342.05	7.73	-28.0	-29.9	13.5	3.54e-05	0	45	0	3999268864	16	4486
2026-01-20 12:24:19.27	342.04	7.50	-28.5	-30.4	12.8	1.02e-04	0	45	0	4016046080	17	4527
2026-01-20 12:24:22.28	342.03	7.26	-28.4	-30.3	12.9	4.80e-05	0	45	0	4032823296	17	4483
2026-01-20 12:24:25.28	342.02	7.03	-33.6	-44.8	3.8	8.45e-01	0	44	104	4045406208	27	13031

#Closed at: 2026-01-20 12:24:28
#Recorded file [4045 MB]: D:/data/31010_260120_151225.dat