passes_logs/2026/01/20/R2M6_AANII_01/R2M6_AANII_01__20260120_075634_SUOMI_NPP_rec.log

#Pass ID: 20260120_075634_SUOMI NPP
#Satellite: SUOMI NPP
#Configuration: NPP
#almurnet v.1.7.20240730
#Start time: 2026-01-20 07:56:35

#Version: 2.2.20231116
#Station: R2M6_AANII_01
#Location: 30.233357 lon 59.946436 lat
#TLE: 1 37849U 11061A   26019.61507914  .00000076  00000+0  57195-4 0  9994
#TLE: 2 37849  98.7817 321.6240 0002347  55.5899 304.5499 14.19526391737369

#Time	Az	El	Level	Level2	SNR	BER	BlckErr	Temp	State	Recorded	gain1	gain2
2026-01-20 07:56:35.53	83.75	7.05	-32.7	-40.4	4.1	1.45e+00	0	41	0	0	26	8705
2026-01-20 07:56:38.53	83.41	7.22	-32.5	-38.5	5.7	4.17e-01	0	42	0	1048576	26	7126
2026-01-20 07:56:41.54	83.07	7.38	-32.5	-38.3	5.8	4.45e-01	0	42	0	7340032	26	7024
2026-01-20 07:56:44.54	82.72	7.55	-32.1	-36.6	7.4	1.33e-01	0	42	0	12582912	25	6006
2026-01-20 07:56:47.54	82.37	7.72	-31.6	-34.8	9.2	3.03e-02	0	42	0	17825792	24	5191
2026-01-20 07:56:50.54	82.01	7.89	-31.5	-34.4	9.6	1.58e-02	0	42	0	24117248	24	5018
2026-01-20 07:56:53.56	81.65	8.06	-31.4	-34.3	10.0	6.20e-03	0	42	0	29360128	23	5058
2026-01-20 07:56:56.57	81.28	8.23	-31.3	-34.1	10.2	4.86e-03	0	42	0	35651584	23	4965
2026-01-20 07:56:59.57	80.91	8.39	-31.4	-34.4	10.0	8.18e-03	0	42	0	40894464	23	5065
2026-01-20 07:57:02.57	80.54	8.56	-31.6	-34.9	9.5	2.05e-02	0	42	0	46137344	23	5318
2026-01-20 07:57:05.57	80.16	8.73	-31.4	-34.4	10.0	7.40e-03	0	42	0	52428800	23	5079
2026-01-20 07:57:08.58	79.78	8.90	-31.7	-35.2	9.4	1.04e-02	0	42	0	57671680	23	5426
2026-01-20 07:57:11.59	79.39	9.07	-31.5	-34.8	9.8	1.01e-02	0	43	0	62914560	23	5264
2026-01-20 07:57:14.60	78.99	9.23	-31.3	-34.3	10.1	9.07e-03	0	43	0	69206016	23	5055
2026-01-20 07:57:17.60	78.60	9.40	-31.3	-34.3	10.1	6.39e-03	0	43	0	74448896	23	5054
2026-01-20 07:57:20.61	78.20	9.57	-31.4	-34.4	10.0	5.45e-03	0	43	0	80740352	23	5103
2026-01-20 07:57:23.62	77.79	9.74	-31.3	-34.0	10.3	5.62e-03	0	43	0	85983232	23	4945
2026-01-20 07:57:26.63	77.38	9.90	-31.3	-33.9	10.5	3.53e-03	0	43	0	91226112	23	4884
2026-01-20 07:57:29.64	76.96	10.07	-31.4	-34.4	10.1	6.57e-03	0	43	0	97517568	23	5098
2026-01-20 07:57:32.63	76.54	10.24	-31.4	-34.4	10.1	8.21e-03	0	43	0	102760448	23	5103
2026-01-20 07:57:35.62	76.12	10.40	-31.6	-35.1	9.6	9.05e-03	0	43	0	108003328	23	5416
2026-01-20 07:57:38.62	75.69	10.57	-31.7	-35.6	9.2	1.78e-02	0	43	0	114294784	23	5630
2026-01-20 07:57:41.63	75.25	10.73	-31.8	-36.0	9.0	2.17e-02	0	43	0	119537664	23	5814
2026-01-20 07:57:44.64	74.81	10.90	-31.7	-35.5	9.3	2.09e-02	0	43	0	125829120	23	5565
2026-01-20 07:57:47.66	74.36	11.06	-31.6	-35.1	9.7	9.43e-03	0	43	0	131072000	23	5374
2026-01-20 07:57:50.66	73.92	11.22	-31.6	-35.1	9.6	1.28e-02	0	43	0	136314880	23	5408
2026-01-20 07:57:53.66	73.46	11.39	-31.4	-34.4	10.2	5.41e-03	0	43	0	142606336	23	5063
2026-01-20 07:57:56.68	73.00	11.55	-31.2	-33.6	10.7	3.00e-03	0	43	0	147849216	23	4766
2026-01-20 07:57:59.69	72.53	11.71	-31.2	-33.6	10.8	2.35e-03	0	43	0	153092096	23	4744
2026-01-20 07:58:02.70	72.06	11.87	-31.2	-33.5	10.9	1.49e-03	0	43	0	159383552	23	4734
2026-01-20 07:58:05.71	71.58	12.03	-31.0	-33.1	11.1	2.01e-03	0	43	0	164626432	23	4570
2026-01-20 07:58:08.71	71.10	12.19	-31.0	-33.1	11.2	1.17e-03	0	43	0	170917888	23	4566
2026-01-20 07:58:11.71	70.61	12.35	-31.2	-33.6	10.8	3.66e-03	0	43	0	176160768	23	4769
2026-01-20 07:58:14.73	70.12	12.50	-31.1	-33.3	11.1	1.68e-03	0	43	0	181403648	23	4634
2026-01-20 07:58:17.74	69.62	12.66	-31.0	-33.0	11.3	1.15e-03	0	43	0	187695104	23	4548
2026-01-20 07:58:20.76	69.12	12.81	-31.0	-33.4	11.4	9.36e-04	0	43	0	192937984	22	4740
2026-01-20 07:58:23.77	68.61	12.97	-30.7	-32.7	11.9	6.49e-04	0	43	0	198180864	22	4504
2026-01-20 07:58:26.78	68.09	13.12	-31.0	-33.6	11.3	8.62e-04	0	43	0	204472320	22	4829
2026-01-20 07:58:29.79	67.57	13.27	-30.8	-32.8	11.8	5.06e-04	0	43	0	209715200	22	4571
2026-01-20 07:58:32.80	67.05	13.42	-31.3	-34.4	10.7	2.17e-03	0	43	0	216006656	22	5177
2026-01-20 07:58:35.81	66.52	13.57	-30.7	-32.7	11.9	5.42e-04	0	43	0	221249536	22	4508
2026-01-20 07:58:38.80	65.99	13.71	-30.5	-31.9	12.5	1.28e-04	0	43	0	226492416	22	4261
2026-01-20 07:58:41.80	65.45	13.85	-30.1	-31.2	13.3	1.52e-05	0	44	0	232783872	21	4112
2026-01-20 07:58:44.81	64.90	14.00	-30.2	-31.4	13.1	2.28e-05	0	43	0	238026752	21	4168
2026-01-20 07:58:47.81	64.35	14.14	-30.2	-31.6	13.1	1.98e-05	0	44	0	243269632	21	4217
2026-01-20 07:58:50.82	63.80	14.28	-30.5	-32.5	12.4	7.62e-05	0	44	0	249561088	21	4522
2026-01-20 07:58:53.84	63.23	14.41	-30.5	-32.3	12.6	1.50e-04	0	44	0	254803968	21	4452
2026-01-20 07:58:56.86	62.66	14.55	-30.2	-31.7	13.0	5.87e-05	0	44	0	261095424	21	4256
2026-01-20 07:58:59.87	62.09	14.68	-30.2	-31.5	13.1	2.59e-05	0	44	0	266338304	21	4204
2026-01-20 07:59:02.87	61.51	14.81	-30.6	-32.7	12.3	1.94e-04	0	43	0	271581184	21	4602
2026-01-20 07:59:05.88	60.93	14.94	-30.5	-32.4	12.5	1.27e-04	0	44	0	277872640	21	4489
2026-01-20 07:59:08.89	60.34	15.07	-30.3	-31.8	13.0	4.50e-05	0	44	0	283115520	21	4279
2026-01-20 07:59:11.91	59.75	15.19	-30.1	-31.3	13.3	2.21e-05	0	44	0	289406976	21	4117
2026-01-20 07:59:14.91	59.15	15.31	-30.2	-31.5	13.2	2.97e-05	0	44	0	294649856	21	4170
2026-01-20 07:59:17.91	58.55	15.43	-30.4	-32.0	12.8	3.43e-05	0	44	0	299892736	21	4349
2026-01-20 07:59:20.92	57.95	15.55	-30.2	-31.5	13.2	1.98e-05	0	44	0	306184192	21	4175
2026-01-20 07:59:23.93	57.33	15.66	-30.2	-31.5	13.2	1.98e-05	0	44	0	311427072	21	4182
2026-01-20 07:59:26.92	56.72	15.77	-29.8	-30.4	13.9	6.10e-06	0	44	0	316669952	21	3856
2026-01-20 07:59:29.93	56.10	15.88	-29.5	-30.2	14.2	3.80e-06	0	44	0	322961408	20	3902
2026-01-20 07:59:32.93	55.48	15.98	-29.7	-30.6	14.1	1.50e-06	0	44	0	328204288	20	4002
2026-01-20 07:59:35.94	54.85	16.08	-29.7	-30.6	14.1	1.50e-06	0	44	0	334495744	20	4009
2026-01-20 07:59:38.95	54.21	16.18	-30.3	-32.1	13.2	1.75e-05	0	43	0	339738624	20	4438
2026-01-20 07:59:41.95	53.58	16.28	-30.0	-31.3	13.6	6.80e-06	0	44	0	344981504	20	4214
2026-01-20 07:59:44.95	52.94	16.37	-30.1	-31.7	13.4	6.80e-06	0	44	0	351272960	20	4326
2026-01-20 07:59:47.96	52.29	16.46	-30.2	-32.0	13.2	2.05e-05	0	44	0	356515840	20	4419
2026-01-20 07:59:50.96	51.64	16.54	-30.2	-32.1	13.2	2.74e-05	0	44	0	361758720	20	4448
2026-01-20 07:59:53.97	50.99	16.62	-30.3	-32.3	13.1	3.89e-05	0	44	0	368050176	20	4521
2026-01-20 07:59:56.98	50.33	16.70	-30.5	-32.2	12.8	6.10e-05	0	44	0	373293056	21	4379
2026-01-20 07:59:59.99	49.67	16.78	-30.2	-31.3	13.4	1.98e-05	0	44	0	379584512	21	4120
2026-01-20 08:00:02.99	49.01	16.85	-30.3	-31.6	13.2	2.44e-05	0	44	0	384827392	21	4208
2026-01-20 08:00:06.01	48.34	16.92	-29.9	-30.7	13.8	2.20e-06	0	44	0	390070272	21	3938
2026-01-20 08:00:09.02	47.68	16.98	-30.0	-30.9	13.7	4.50e-06	0	44	0	396361728	21	3984
2026-01-20 08:00:12.03	47.00	17.04	-30.3	-31.6	13.2	8.30e-06	0	44	0	401604608	21	4198
2026-01-20 08:00:15.05	46.33	17.09	-30.4	-32.2	12.8	3.43e-05	0	44	0	407896064	21	4415
2026-01-20 08:00:18.05	45.65	17.15	-30.8	-33.4	11.9	2.51e-04	0	44	0	413138944	21	4843
2026-01-20 08:00:21.05	44.97	17.19	-30.9	-33.5	11.8	4.64e-04	0	44	0	418381824	21	4892
2026-01-20 08:00:24.07	44.29	17.24	-31.0	-33.5	11.6	5.91e-04	0	44	0	424673280	22	4781
2026-01-20 08:00:27.07	43.61	17.28	-30.8	-32.7	12.1	2.57e-04	0	44	0	429916160	22	4483
2026-01-20 08:00:30.08	42.92	17.31	-30.5	-32.0	12.5	1.19e-04	0	44	0	435159040	22	4271
2026-01-20 08:00:33.09	42.24	17.34	-30.5	-31.8	12.7	7.62e-05	0	44	0	441450496	22	4206
2026-01-20 08:00:36.10	41.55	17.37	-30.3	-31.2	13.1	3.35e-05	0	44	0	446693376	22	4017
2026-01-20 08:00:39.10	40.86	17.39	-30.2	-31.4	13.3	2.05e-05	0	44	0	452984832	21	4142
2026-01-20 08:00:42.10	40.18	17.41	-30.4	-32.0	12.9	3.66e-05	0	44	0	458227712	21	4330
2026-01-20 08:00:45.11	39.49	17.43	-30.9	-33.5	11.8	3.10e-04	0	44	0	463470592	21	4880
2026-01-20 08:00:48.12	38.80	17.44	-30.6	-32.8	12.3	1.52e-04	0	44	0	469762048	21	4610
2026-01-20 08:00:51.13	38.10	17.44	-30.6	-32.5	12.4	1.28e-04	0	44	0	475004928	21	4525
2026-01-20 08:00:54.14	37.41	17.44	-30.6	-32.5	12.6	9.38e-05	0	44	0	480247808	21	4498
2026-01-20 08:00:57.14	36.72	17.44	-30.7	-32.9	12.3	1.10e-04	0	44	0	486539264	21	4637
2026-01-20 08:01:00.14	36.03	17.43	-31.1	-33.6	11.5	7.02e-04	0	44	0	491782144	22	4787
2026-01-20 08:01:03.15	35.34	17.42	-31.2	-33.9	11.2	1.25e-03	0	44	0	498073600	22	4907
2026-01-20 08:01:06.16	34.65	17.41	-31.0	-33.2	11.7	5.84e-04	0	44	0	503316480	22	4652
2026-01-20 08:01:09.17	33.96	17.39	-30.6	-32.1	12.5	1.33e-04	0	44	0	508559360	22	4262
2026-01-20 08:01:12.17	33.28	17.36	-30.5	-31.7	12.8	6.10e-05	0	44	0	514850816	22	4150
2026-01-20 08:01:15.18	32.59	17.34	-30.2	-31.4	13.3	2.36e-05	0	44	0	520093696	21	4148
2026-01-20 08:01:18.18	31.91	17.30	-30.1	-31.3	13.3	1.37e-05	0	44	0	525336576	21	4116
2026-01-20 08:01:21.20	31.22	17.27	-30.2	-31.3	13.3	1.90e-05	0	44	0	531628032	21	4112
2026-01-20 08:01:24.21	30.54	17.23	-29.8	-30.7	14.0	4.50e-06	0	44	0	536870912	20	4030
2026-01-20 08:01:27.22	29.86	17.18	-29.7	-30.6	14.1	7.00e-07	0	44	0	543162368	20	3994
2026-01-20 08:01:30.23	29.18	17.13	-29.7	-30.4	14.3	4.50e-06	0	44	0	548405248	20	3935
2026-01-20 08:01:33.24	28.51	17.08	-30.0	-31.2	13.8	3.80e-06	0	44	0	553648128	20	4162
2026-01-20 08:01:36.25	27.83	17.03	-30.3	-32.1	13.2	1.67e-05	0	44	0	559939584	20	4445
2026-01-20 08:01:39.25	27.16	16.97	-30.1	-31.7	13.5	1.83e-05	0	44	0	565182464	20	4322
2026-01-20 08:01:42.26	26.50	16.90	-30.4	-32.0	13.0	4.88e-05	0	44	0	570425344	21	4306
2026-01-20 08:01:45.25	25.84	16.83	-30.0	-31.0	13.6	7.60e-06	0	44	0	576716800	21	4009
2026-01-20 08:01:48.25	25.18	16.76	-30.3	-31.7	13.2	1.67e-05	0	44	0	581959680	21	4218
2026-01-20 08:01:51.26	24.52	16.69	-30.3	-31.7	13.1	2.97e-05	0	44	0	588251136	21	4230
2026-01-20 08:01:54.27	23.86	16.61	-30.2	-31.4	13.3	3.89e-05	0	44	0	593494016	21	4122
2026-01-20 08:01:57.28	23.21	16.53	-30.5	-32.1	12.9	6.33e-05	0	44	0	598736896	21	4364
2026-01-20 08:02:00.28	22.57	16.44	-30.6	-32.5	12.5	1.18e-04	0	44	0	605028352	21	4504
2026-01-20 08:02:03.28	21.93	16.35	-30.9	-33.6	11.8	5.01e-04	0	44	0	610271232	21	4891
2026-01-20 08:02:06.29	21.29	16.26	-30.9	-33.0	11.9	7.81e-04	0	44	0	615514112	22	4566
2026-01-20 08:02:09.28	20.65	16.16	-31.0	-33.2	11.8	4.29e-04	0	44	0	621805568	22	4621
2026-01-20 08:02:12.28	20.02	16.06	-30.7	-32.2	12.4	2.15e-04	0	44	0	627048448	22	4306
2026-01-20 08:02:15.29	19.40	15.96	-30.7	-32.5	12.2	1.44e-04	0	44	0	633339904	22	4395
2026-01-20 08:02:18.29	18.78	15.86	-30.6	-32.0	12.6	8.77e-05	0	44	0	638582784	22	4235
2026-01-20 08:02:21.30	18.16	15.75	-30.1	-31.3	13.3	3.66e-05	0	44	0	643825664	21	4118
2026-01-20 08:02:24.30	17.55	15.64	-29.7	-30.5	14.1	3.00e-06	0	44	0	650117120	20	3960
2026-01-20 08:02:27.31	16.94	15.52	-29.8	-30.9	13.8	3.80e-06	0	44	0	655360000	20	4080
2026-01-20 08:02:30.30	16.34	15.41	-30.0	-31.3	13.6	1.22e-05	0	44	0	660602880	20	4206
2026-01-20 08:02:33.31	15.74	15.29	-30.4	-32.5	12.8	4.95e-05	0	44	0	666894336	20	4590
2026-01-20 08:02:36.31	15.14	15.17	-30.9	-33.4	11.8	5.19e-04	0	44	0	672137216	21	4835
2026-01-20 08:02:39.30	14.56	15.05	-30.8	-33.1	12.0	3.53e-04	0	44	0	677380096	21	4727
2026-01-20 08:02:42.31	13.97	14.92	-30.7	-32.8	12.1	2.66e-04	0	44	0	683671552	21	4625
2026-01-20 08:02:45.33	13.39	14.79	-30.9	-33.7	11.6	4.13e-04	0	44	0	688914432	21	4926
2026-01-20 08:02:48.33	12.82	14.66	-30.9	-33.0	11.9	4.50e-04	0	44	0	695205888	22	4574
2026-01-20 08:02:51.34	12.25	14.53	-30.6	-32.1	12.3	2.42e-04	0	44	0	700448768	22	4267
2026-01-20 08:02:54.35	11.69	14.39	-30.4	-31.6	12.6	9.84e-05	0	44	0	705691648	22	4139
2026-01-20 08:02:57.36	11.13	14.26	-30.5	-31.8	12.5	1.06e-04	0	44	0	711983104	22	4195
2026-01-20 08:03:00.37	10.57	14.12	-30.1	-31.3	13.2	3.66e-05	0	44	0	717225984	21	4132
2026-01-20 08:03:03.39	10.02	13.97	-30.5	-32.4	12.4	8.62e-05	0	44	0	723517440	21	4459
2026-01-20 08:03:06.40	9.48	13.83	-30.7	-32.8	12.2	2.68e-04	0	44	0	728760320	21	4624
2026-01-20 08:03:09.40	8.94	13.69	-30.6	-32.6	12.3	1.31e-04	0	44	0	734003200	21	4545
2026-01-20 08:03:12.41	8.41	13.54	-30.6	-32.6	12.3	2.01e-04	0	44	0	740294656	21	4544
2026-01-20 08:03:15.41	7.89	13.40	-31.1	-33.6	11.3	7.29e-04	0	44	0	745537536	22	4802
2026-01-20 08:03:18.42	7.37	13.25	-31.7	-35.3	9.6	9.75e-03	0	44	0	750780416	23	5452
2026-01-20 08:03:21.42	6.85	13.10	-32.1	-36.3	8.4	4.85e-02	0	44	0	757071872	24	5840
2026-01-20 08:03:24.44	6.34	12.94	-31.8	-35.1	9.3	1.68e-02	0	44	0	762314752	24	5284
2026-01-20 08:03:27.44	5.83	12.79	-31.7	-34.8	9.7	9.44e-03	0	44	0	768606208	24	5114
2026-01-20 08:03:30.44	5.34	12.64	-31.4	-33.9	10.3	6.73e-03	0	44	0	773849088	24	4751
2026-01-20 08:03:33.44	4.84	12.48	-31.2	-33.4	11.0	2.35e-03	0	44	0	779091968	23	4672
2026-01-20 08:03:36.45	4.35	12.33	-31.2	-33.4	11.0	1.60e-03	0	44	0	785383424	23	4656
2026-01-20 08:03:39.46	3.87	12.17	-31.2	-33.7	10.8	3.26e-03	0	44	0	790626304	23	4751
2026-01-20 08:03:42.46	3.39	12.01	-31.0	-33.0	11.3	1.21e-03	0	44	0	795869184	23	4503
2026-01-20 08:03:45.48	2.92	11.85	-31.1	-33.2	11.2	1.27e-03	0	44	0	802160640	23	4573
2026-01-20 08:03:48.49	2.45	11.69	-31.0	-32.9	11.4	1.17e-03	0	44	0	807403520	23	4462
2026-01-20 08:03:51.51	1.98	11.53	-31.0	-32.9	11.2	1.14e-03	0	44	0	813694976	23	4486
2026-01-20 08:03:54.52	1.52	11.37	-30.8	-32.9	11.6	5.61e-04	0	44	0	818937856	22	4585
2026-01-20 08:03:57.53	1.07	11.21	-31.0	-33.6	11.2	1.61e-03	0	44	0	824180736	22	4816
2026-01-20 08:04:00.54	0.62	11.04	-31.1	-33.6	11.1	1.69e-03	0	44	0	830472192	22	4821
2026-01-20 08:04:03.55	0.18	10.88	-30.9	-33.1	11.4	9.79e-04	0	44	0	835715072	22	4660
2026-01-20 08:04:06.55	359.74	10.71	-30.8	-32.7	11.7	5.15e-04	0	44	0	840957952	22	4519
2026-01-20 08:04:09.57	359.31	10.55	-30.2	-31.5	12.8	7.32e-05	0	44	0	847249408	21	4206
2026-01-20 08:04:12.58	358.88	10.38	-30.1	-31.4	13.0	2.36e-05	0	44	0	852492288	21	4158
2026-01-20 08:04:15.60	358.46	10.22	-30.0	-31.0	13.1	1.60e-05	0	44	0	858783744	21	4056
2026-01-20 08:04:18.60	358.04	10.05	-30.4	-32.3	12.3	1.89e-04	0	44	0	864026624	21	4463
2026-01-20 08:04:21.61	357.63	9.89	-30.6	-32.7	12.0	3.83e-04	0	44	0	869269504	21	4594
2026-01-20 08:04:24.62	357.22	9.72	-30.4	-32.1	12.4	1.54e-04	0	44	0	875560960	21	4406
2026-01-20 08:04:27.63	356.82	9.55	-30.2	-31.5	12.8	7.55e-05	0	44	0	880803840	21	4203
2026-01-20 08:04:30.63	356.42	9.39	-30.3	-31.8	12.6	5.64e-05	0	44	0	887095296	21	4283
2026-01-20 08:04:33.65	356.02	9.22	-30.4	-32.2	12.3	1.87e-04	0	44	0	892338176	21	4438
2026-01-20 08:04:36.64	355.64	9.05	-30.5	-32.6	12.1	2.52e-04	0	44	0	897581056	21	4558
2026-01-20 08:04:39.65	355.25	8.88	-30.7	-33.1	11.7	8.50e-04	0	44	0	903872512	21	4744
2026-01-20 08:04:42.66	354.87	8.72	-30.7	-33.2	11.6	7.68e-04	0	44	0	909115392	21	4803
2026-01-20 08:04:45.66	354.50	8.55	-30.9	-33.7	11.2	1.03e-03	0	44	0	914358272	21	5005
2026-01-20 08:04:48.67	354.13	8.38	-30.6	-32.9	11.7	8.96e-04	0	44	0	920649728	21	4697
2026-01-20 08:04:51.66	353.76	8.21	-30.4	-32.2	12.1	4.61e-04	0	44	0	925892608	21	4441
2026-01-20 08:04:54.68	353.40	8.04	-30.1	-31.5	12.6	2.24e-04	0	44	0	931135488	21	4215
2026-01-20 08:04:57.70	353.04	7.88	-30.3	-32.1	12.2	2.74e-04	0	44	0	937426944	21	4413
2026-01-20 08:05:00.71	352.68	7.71	-30.6	-33.0	11.5	3.91e-04	0	44	0	942669824	21	4752
2026-01-20 08:05:03.70	352.33	7.54	-30.7	-33.3	11.3	1.61e-03	0	44	0	948961280	21	4845
2026-01-20 08:05:06.71	351.99	7.37	-30.8	-33.7	11.0	1.75e-03	0	44	0	954204160	21	5005
2026-01-20 08:05:09.72	351.65	7.21	-30.5	-32.7	11.7	6.73e-04	0	44	0	959447040	21	4620
2026-01-20 08:05:12.72	351.31	7.04	-33.3	-45.4	3.8	1.10e-03	0	44	104	964689920	26	14426

#Closed at: 2026-01-20 08:05:15
#Recorded file [964 MB]: D:/data/31010_260120_105637.dat