passes_logs/2026/01/20/R2M6_AANII_01/R2M6_AANII_01__20260120_003950_FENGYUN_3D_rec.log

#Pass ID: 20260120_003950_FENGYUN 3D
#Satellite: FENGYUN 3D
#Configuration: FENGYUN 3D
#almurnet v.1.7.20240730
#Start time: 2026-01-20 00:39:50

#Version: 2.2.20231116
#Station: R2M6_AANII_01
#Location: 30.233357 lon 59.946436 lat
#TLE: 1 43010U 17072A   26019.30265705  .00000224  00000+0  12791-3 0  9991
#TLE: 2 43010  98.9940 351.1850 0002428 100.8496 259.2953 14.19697535423864

#Time	Az	El	Level	Level2	SNR	BER	BlckErr	Temp	State	Recorded	gain1	gain2
2026-01-20 00:39:50.21	32.36	6.97	-29.5	-32.3	5.5	7.66e-01	0	42	0	0	19	4945
2026-01-20 00:39:53.20	32.67	7.15	-30.4	-33.6	9.2	2.15e-02	0	42	0	5242880	21	5231
2026-01-20 00:39:56.22	32.98	7.33	-29.8	-32.6	10.3	1.02e-02	0	42	0	22020096	20	4957
2026-01-20 00:39:59.23	33.30	7.50	-29.2	-31.4	11.5	1.12e-03	0	42	0	38797312	19	4621
2026-01-20 00:40:02.22	33.62	7.68	-28.9	-31.1	12.0	6.05e-04	0	42	0	55574528	18	4640
2026-01-20 00:40:05.22	33.95	7.86	-27.9	-29.6	13.6	2.17e-05	0	42	0	72351744	16	4384
2026-01-20 00:40:08.23	34.28	8.04	-28.0	-29.3	13.4	2.97e-05	0	43	0	90177536	17	4206
2026-01-20 00:40:11.24	34.62	8.22	-28.2	-29.9	13.1	4.69e-05	0	42	0	106954752	17	4377
2026-01-20 00:40:14.26	34.96	8.41	-28.2	-30.3	13.2	3.31e-05	0	43	0	123731968	16	4611
2026-01-20 00:40:17.28	35.30	8.59	-27.6	-29.1	14.0	6.80e-06	0	43	0	140509184	16	4242
2026-01-20 00:40:20.28	35.65	8.77	-27.9	-29.7	13.7	1.94e-05	0	43	0	157286400	16	4402
2026-01-20 00:40:23.28	36.00	8.95	-27.4	-28.5	14.4	1.10e-06	0	43	0	174063616	16	4073
2026-01-20 00:40:26.28	36.35	9.14	-27.1	-28.4	14.7	1.10e-06	0	43	0	190840832	15	4155
2026-01-20 00:40:29.30	36.71	9.32	-27.6	-29.4	14.1	0.00e+00	0	43	0	207618048	15	4430
2026-01-20 00:40:32.30	37.08	9.50	-27.5	-29.2	14.2	2.20e-06	0	43	0	225443840	15	4383
2026-01-20 00:40:35.30	37.44	9.69	-27.4	-29.1	14.3	0.00e+00	0	43	0	242221056	15	4342
2026-01-20 00:40:38.30	37.82	9.87	-27.2	-28.5	14.6	0.00e+00	0	43	0	258998272	15	4202
2026-01-20 00:40:41.30	38.19	10.06	-27.1	-28.2	14.6	0.00e+00	0	43	0	275775488	15	4111
2026-01-20 00:40:44.30	38.57	10.24	-27.1	-28.3	14.8	1.10e-06	0	43	0	292552704	15	4143
2026-01-20 00:40:47.31	38.96	10.43	-27.1	-28.4	14.8	1.02e-05	0	43	0	309329920	15	4149
2026-01-20 00:40:50.31	39.35	10.61	-27.3	-28.7	14.6	0.00e+00	0	43	0	326107136	15	4240
2026-01-20 00:40:53.32	39.75	10.80	-27.1	-28.4	14.8	0.00e+00	0	43	0	342884352	15	4158
2026-01-20 00:40:56.34	40.15	10.99	-27.3	-28.7	14.6	2.21e-04	0	43	0	360710144	15	4243
2026-01-20 00:40:59.35	40.56	11.17	-27.0	-28.1	15.0	2.07e-04	0	43	0	377487360	15	4064
2026-01-20 00:41:02.35	40.97	11.36	-26.7	-27.8	15.4	0.00e+00	0	43	0	394264576	14	4097
2026-01-20 00:41:05.36	41.38	11.55	-26.4	-27.2	15.8	2.20e-06	0	44	0	411041792	14	3936
2026-01-20 00:41:08.35	41.80	11.73	-26.4	-27.1	15.8	0.00e+00	0	44	0	427819008	14	3925
2026-01-20 00:41:11.36	42.23	11.92	-26.5	-27.5	15.6	0.00e+00	0	44	0	444596224	14	4023
2026-01-20 00:41:14.36	42.66	12.11	-26.4	-27.3	15.8	1.10e-06	0	44	0	461373440	14	3961
2026-01-20 00:41:17.38	43.10	12.30	-26.4	-27.3	15.8	3.08e-05	0	44	0	479199232	14	3959
2026-01-20 00:41:20.40	43.55	12.48	-26.5	-27.4	15.7	9.04e-05	0	44	0	495976448	14	3996
2026-01-20 00:41:23.41	43.99	12.67	-26.6	-27.6	15.7	0.00e+00	0	44	0	512753664	14	4053
2026-01-20 00:41:26.43	44.45	12.86	-26.8	-28.1	15.4	0.00e+00	0	44	0	529530880	14	4178
2026-01-20 00:41:29.43	44.91	13.05	-26.7	-27.8	15.5	3.79e-04	0	44	0	546308096	14	4089
2026-01-20 00:41:32.44	45.37	13.23	-26.7	-27.9	15.5	0.00e+00	0	44	0	563085312	14	4123
2026-01-20 00:41:35.46	45.85	13.42	-26.3	-27.4	16.0	0.00e+00	0	44	0	580911104	13	4113
2026-01-20 00:41:38.47	46.32	13.61	-26.0	-26.8	16.3	0.00e+00	0	44	0	597688320	13	3956
2026-01-20 00:41:41.49	46.81	13.79	-26.0	-26.9	16.3	0.00e+00	0	44	0	614465536	13	3972
2026-01-20 00:41:44.50	47.30	13.98	-26.3	-27.4	16.1	0.00e+00	0	44	0	631242752	13	4107
2026-01-20 00:41:47.51	47.79	14.16	-26.0	-26.8	16.4	0.00e+00	0	44	0	648019968	13	3947
2026-01-20 00:41:50.52	48.29	14.35	-26.1	-27.1	16.2	0.00e+00	0	44	0	664797184	13	4025
2026-01-20 00:41:53.53	48.80	14.53	-26.0	-26.8	16.4	0.00e+00	0	44	0	681574400	13	3938
2026-01-20 00:41:56.54	49.31	14.71	-25.8	-26.8	16.7	0.00e+00	0	44	0	699400192	12	4045
2026-01-20 00:41:59.55	49.83	14.89	-25.9	-27.5	16.6	0.00e+00	0	44	0	716177408	11	4335
2026-01-20 00:42:02.56	50.36	15.08	-25.8	-27.4	16.7	0.00e+00	0	44	0	732954624	11	4305
2026-01-20 00:42:05.56	50.89	15.26	-25.9	-27.5	16.7	0.00e+00	0	44	0	749731840	11	4348
2026-01-20 00:42:08.57	51.43	15.43	-25.7	-27.0	16.9	0.00e+00	0	44	0	766509056	11	4213
2026-01-20 00:42:11.58	51.97	15.61	-25.7	-27.1	16.9	0.00e+00	0	44	0	783286272	11	4226
2026-01-20 00:42:14.58	52.52	15.79	-25.6	-27.0	17.0	0.00e+00	0	44	0	800063488	11	4201
2026-01-20 00:42:17.59	53.08	15.97	-25.6	-26.9	17.1	0.00e+00	0	44	0	816840704	11	4178
2026-01-20 00:42:20.59	53.64	16.14	-25.9	-27.6	16.7	0.00e+00	0	44	0	834666496	11	4364
2026-01-20 00:42:23.59	54.21	16.31	-25.7	-27.2	16.9	0.00e+00	0	44	0	851443712	11	4254
2026-01-20 00:42:26.60	54.79	16.48	-25.8	-27.3	16.9	0.00e+00	0	44	0	868220928	11	4285
2026-01-20 00:42:29.60	55.37	16.65	-25.8	-27.3	16.8	0.00e+00	0	44	0	884998144	11	4294
2026-01-20 00:42:32.60	55.95	16.82	-25.7	-27.1	17.0	0.00e+00	0	44	0	901775360	11	4230
2026-01-20 00:42:35.60	56.55	16.99	-25.4	-26.6	17.2	0.00e+00	0	44	0	918552576	11	4100
2026-01-20 00:42:38.61	57.15	17.15	-25.6	-27.0	17.0	0.00e+00	0	44	0	935329792	11	4202
2026-01-20 00:42:41.61	57.76	17.32	-25.6	-27.0	17.0	0.00e+00	0	44	0	952107008	11	4200
2026-01-20 00:42:44.63	58.37	17.48	-25.5	-26.8	17.1	0.00e+00	0	44	0	969932800	11	4142
2026-01-20 00:42:47.65	59.00	17.64	-25.5	-26.6	17.2	0.00e+00	0	44	0	986710016	11	4100
2026-01-20 00:42:50.64	59.62	17.79	-25.7	-27.1	17.0	0.00e+00	0	44	0	1003487232	11	4226
2026-01-20 00:42:53.64	60.25	17.95	-25.4	-26.4	17.3	0.00e+00	0	44	0	1020264448	11	4059
2026-01-20 00:42:56.65	60.89	18.10	-25.3	-26.8	17.4	0.00e+00	0	44	0	1037041664	10	4268
2026-01-20 00:42:59.66	61.54	18.25	-25.4	-26.9	17.4	0.00e+00	0	44	0	1053818880	10	4291
2026-01-20 00:43:02.67	62.19	18.40	-25.3	-26.8	17.4	0.00e+00	0	44	0	1070596096	10	4273
2026-01-20 00:43:05.68	62.85	18.54	-25.3	-26.3	17.4	0.00e+00	0	44	0	1087373312	11	4039
2026-01-20 00:43:08.69	63.52	18.68	-25.5	-26.6	17.3	0.00e+00	0	44	0	1105199104	11	4113
2026-01-20 00:43:11.70	64.19	18.82	-25.4	-26.9	17.4	0.00e+00	0	44	0	1121976320	10	4294
2026-01-20 00:43:14.71	64.87	18.96	-25.6	-26.9	17.1	0.00e+00	0	44	0	1138753536	11	4179
2026-01-20 00:43:17.72	65.55	19.09	-25.1	-26.3	17.7	0.00e+00	0	44	0	1155530752	10	4137
2026-01-20 00:43:20.72	66.24	19.22	-25.2	-26.5	17.6	0.00e+00	0	44	0	1172307968	10	4181
2026-01-20 00:43:23.74	66.94	19.34	-25.1	-26.2	17.7	0.00e+00	0	44	0	1189085184	10	4122
2026-01-20 00:43:26.74	67.63	19.46	-25.2	-26.6	17.6	0.00e+00	0	44	0	1205862400	10	4206
2026-01-20 00:43:29.74	68.34	19.58	-24.8	-25.7	18.0	0.00e+00	0	44	0	1222639616	10	4000
2026-01-20 00:43:32.74	69.05	19.69	-24.8	-25.6	18.1	0.00e+00	0	44	0	1240465408	10	3969
2026-01-20 00:43:35.74	69.76	19.81	-24.9	-25.9	17.9	0.00e+00	0	44	0	1257242624	10	4039
2026-01-20 00:43:38.74	70.48	19.91	-24.8	-25.7	18.0	0.00e+00	0	44	0	1274019840	10	3996
2026-01-20 00:43:41.75	71.21	20.01	-24.9	-25.9	18.0	0.00e+00	0	44	0	1290797056	10	4027
2026-01-20 00:43:44.76	71.94	20.11	-24.9	-25.8	18.0	0.00e+00	0	44	0	1307574272	10	4018
2026-01-20 00:43:47.77	72.67	20.21	-24.8	-25.7	18.1	0.00e+00	0	44	0	1324351488	10	3994
2026-01-20 00:43:50.77	73.41	20.30	-25.1	-26.3	17.6	0.00e+00	0	44	0	1341128704	10	4144
2026-01-20 00:43:53.78	74.15	20.38	-24.7	-25.7	17.9	0.00e+00	0	44	0	1358954496	10	4002
2026-01-20 00:43:56.78	74.90	20.46	-24.9	-26.0	17.7	0.00e+00	0	44	0	1375731712	10	4087
2026-01-20 00:43:59.77	75.65	20.54	-24.8	-25.8	17.9	0.00e+00	0	44	0	1392508928	10	4028
2026-01-20 00:44:02.77	76.40	20.61	-25.0	-26.1	17.7	0.00e+00	0	44	0	1409286144	10	4105
2026-01-20 00:44:05.78	77.16	20.68	-25.2	-26.6	17.5	0.00e+00	0	45	0	1426063360	10	4231
2026-01-20 00:44:08.80	77.92	20.74	-24.9	-26.0	17.8	0.00e+00	0	44	0	1442840576	10	4066
2026-01-20 00:44:11.80	78.68	20.80	-24.8	-25.7	17.9	0.00e+00	0	44	0	1459617792	10	4009
2026-01-20 00:44:14.80	79.45	20.85	-24.5	-25.1	18.2	0.00e+00	0	44	0	1476395008	10	3856
2026-01-20 00:44:17.80	80.22	20.90	-24.5	-25.1	18.2	0.00e+00	0	44	0	1493172224	10	3862
2026-01-20 00:44:20.82	80.99	20.94	-24.7	-25.4	18.0	0.00e+00	0	44	0	1510998016	10	3943
2026-01-20 00:44:23.83	81.77	20.98	-24.6	-25.4	18.0	0.00e+00	0	44	0	1527775232	10	3942
2026-01-20 00:44:26.83	82.54	21.01	-24.5	-25.0	18.2	0.00e+00	0	44	0	1544552448	10	3849
2026-01-20 00:44:29.84	83.32	21.03	-24.5	-25.1	17.8	0.00e+00	0	44	0	1561329664	10	3854
2026-01-20 00:44:32.85	84.10	21.06	-24.5	-25.1	18.2	0.00e+00	0	44	0	1578106880	10	3852
2026-01-20 00:44:35.85	84.87	21.07	-24.4	-24.8	18.3	0.00e+00	0	44	0	1594884096	10	3799
2026-01-20 00:44:38.85	85.65	21.08	-24.4	-24.9	18.3	0.00e+00	0	45	0	1611661312	10	3823
2026-01-20 00:44:41.86	86.43	21.09	-24.5	-25.2	18.2	0.00e+00	0	44	0	1629487104	10	3893
2026-01-20 00:44:44.88	87.22	21.09	-24.6	-25.3	18.1	0.00e+00	0	45	0	1646264320	10	3903
2026-01-20 00:44:47.89	88.00	21.08	-24.5	-25.2	18.1	1.27e-04	0	45	0	1663041536	10	3893
2026-01-20 00:44:50.88	88.77	21.07	-24.8	-25.8	17.8	1.85e-04	0	44	0	1679818752	10	4041
2026-01-20 00:44:53.89	89.55	21.06	-24.8	-25.7	17.9	1.97e-04	0	45	0	1696595968	10	4004
2026-01-20 00:44:56.91	90.34	21.04	-24.3	-25.2	18.4	2.41e-04	0	45	0	1713373184	9	4001
2026-01-20 00:44:59.92	91.11	21.01	-24.4	-25.4	18.3	2.08e-04	0	45	0	1730150400	9	4044
2026-01-20 00:45:02.92	91.89	20.98	-24.5	-25.8	18.1	3.31e-05	0	44	0	1746927616	9	4136
2026-01-20 00:45:05.91	92.66	20.94	-24.6	-25.9	18.0	0.00e+00	0	45	0	1764753408	9	4181
2026-01-20 00:45:08.93	93.44	20.90	-24.7	-26.1	17.9	4.92e-05	0	45	0	1781530624	9	4228
2026-01-20 00:45:11.93	94.20	20.85	-24.6	-25.9	18.0	8.58e-05	0	44	0	1798307840	9	4176
2026-01-20 00:45:14.96	94.98	20.80	-24.6	-25.8	18.1	0.00e+00	0	44	0	1815085056	9	4152
2026-01-20 00:45:17.96	95.74	20.74	-24.8	-26.2	17.9	0.00e+00	0	44	0	1831862272	9	4247
2026-01-20 00:45:20.96	96.50	20.68	-24.9	-26.0	17.7	0.00e+00	0	44	0	1848639488	10	4098
2026-01-20 00:45:23.96	97.26	20.62	-24.7	-25.6	17.9	0.00e+00	0	44	0	1865416704	10	3979
2026-01-20 00:45:26.95	98.01	20.55	-24.7	-25.5	18.0	0.00e+00	0	44	0	1882193920	10	3949
2026-01-20 00:45:29.96	98.77	20.47	-24.6	-25.3	18.1	0.00e+00	0	44	0	1900019712	10	3914
2026-01-20 00:45:32.97	99.52	20.39	-24.7	-25.6	17.9	1.19e-04	0	44	0	1916796928	10	3979
2026-01-20 00:45:35.98	100.26	20.30	-24.5	-25.2	18.1	0.00e+00	0	44	0	1933574144	10	3889
2026-01-20 00:45:38.96	101.00	20.21	-24.6	-25.5	18.0	0.00e+00	0	44	0	1950351360	10	3952
2026-01-20 00:45:41.97	101.74	20.12	-24.6	-25.4	18.0	0.00e+00	0	44	0	1967128576	10	3938
2026-01-20 00:45:44.97	102.47	20.02	-25.0	-26.2	17.6	0.00e+00	0	44	0	1983905792	10	4127
2026-01-20 00:45:47.99	103.20	19.92	-25.1	-26.4	17.4	0.00e+00	0	44	0	2000683008	10	4185
2026-01-20 00:45:50.99	103.92	19.81	-25.0	-26.2	17.5	0.00e+00	0	44	0	2017460224	10	4129
2026-01-20 00:45:54.00	104.64	19.70	-25.0	-26.1	17.6	0.00e+00	0	44	0	2034237440	10	4119
2026-01-20 00:45:57.01	105.35	19.59	-25.0	-26.2	17.5	0.00e+00	0	44	0	2051014656	10	4140
2026-01-20 00:46:00.02	106.06	19.47	-25.3	-26.9	17.2	0.00e+00	0	44	0	2068840448	10	4306
2026-01-20 00:46:03.03	106.76	19.35	-25.2	-26.6	17.3	0.00e+00	0	44	0	2085617664	10	4239
2026-01-20 00:46:06.04	107.46	19.22	-25.1	-26.5	17.4	0.00e+00	0	44	0	2102394880	10	4208
2026-01-20 00:46:09.04	108.15	19.09	-25.0	-26.1	17.6	0.00e+00	0	44	0	2119172096	10	4121
2026-01-20 00:46:12.05	108.84	18.96	-25.1	-26.4	17.4	0.00e+00	0	44	0	2135949312	10	4191
2026-01-20 00:46:15.06	109.52	18.82	-25.3	-26.8	17.2	3.40e-06	0	44	0	2153775104	10	4281
2026-01-20 00:46:18.07	110.19	18.68	-25.2	-26.6	17.3	1.10e-06	0	44	0	2170552320	10	4248
2026-01-20 00:46:21.08	110.86	18.54	-25.2	-26.7	17.2	0.00e+00	0	45	0	2187329536	10	4260
2026-01-20 00:46:24.08	111.52	18.40	-25.2	-26.7	17.2	2.20e-06	0	45	0	2204106752	10	4272
2026-01-20 00:46:27.09	112.18	18.25	-25.1	-26.5	16.6	1.10e-06	0	44	0	2220883968	10	4217
2026-01-20 00:46:30.10	112.83	18.10	-25.3	-26.9	17.1	1.10e-06	0	44	0	2237661184	10	4332
2026-01-20 00:46:33.11	113.47	17.95	-25.7	-27.2	16.6	0.00e+00	0	45	0	2254438400	11	4301
2026-01-20 00:46:36.12	114.11	17.79	-25.6	-27.1	16.7	0.00e+00	0	45	0	2271215616	11	4257
2026-01-20 00:46:39.12	114.74	17.63	-25.6	-27.0	16.8	1.37e-05	0	44	0	2289041408	11	4234
2026-01-20 00:46:42.14	115.36	17.47	-25.6	-26.9	16.8	3.89e-05	0	45	0	2305818624	11	4219
2026-01-20 00:46:45.15	115.98	17.31	-25.5	-26.8	16.9	0.00e+00	0	44	0	2322595840	11	4185
2026-01-20 00:46:48.16	116.59	17.15	-25.7	-27.1	16.7	0.00e+00	0	45	0	2339373056	11	4267
2026-01-20 00:46:51.17	117.20	16.98	-25.8	-27.5	16.4	0.00e+00	0	45	0	2356150272	11	4381
2026-01-20 00:46:54.18	117.80	16.81	-25.9	-27.2	16.3	4.57e-05	0	45	0	2372927488	12	4175
2026-01-20 00:46:57.20	118.39	16.64	-26.1	-27.6	16.1	1.05e-04	0	45	0	2389704704	12	4269
2026-01-20 00:47:00.21	118.98	16.47	-26.1	-27.6	16.0	2.39e-04	0	45	0	2407530496	12	4294
2026-01-20 00:47:03.21	119.55	16.30	-26.1	-27.5	16.1	1.54e-04	0	45	0	2424307712	12	4264
2026-01-20 00:47:06.22	120.13	16.12	-25.8	-27.0	16.4	0.00e+00	0	44	0	2441084928	12	4127
2026-01-20 00:47:09.22	120.69	15.95	-25.7	-26.8	16.5	0.00e+00	0	45	0	2457862144	12	4073
2026-01-20 00:47:12.24	121.25	15.77	-25.7	-26.8	16.5	5.60e-05	0	45	0	2474639360	12	4074
2026-01-20 00:47:15.23	121.80	15.59	-25.6	-26.4	16.6	3.66e-05	0	45	0	2491416576	12	3983
2026-01-20 00:47:18.24	122.35	15.41	-25.7	-26.9	16.4	0.00e+00	0	45	0	2508193792	12	4090
2026-01-20 00:47:21.25	122.89	15.23	-25.9	-27.2	16.2	0.00e+00	0	45	0	2524971008	12	4181
2026-01-20 00:47:24.26	123.42	15.05	-25.9	-27.1	16.2	2.83e-04	0	45	0	2541748224	12	4166
2026-01-20 00:47:27.27	123.95	14.87	-26.1	-27.7	15.9	0.00e+00	0	45	0	2559574016	12	4320
2026-01-20 00:47:30.26	124.47	14.68	-26.2	-27.8	15.9	0.00e+00	0	45	0	2576351232	12	4337
2026-01-20 00:47:33.26	124.98	14.50	-26.4	-28.3	15.5	0.00e+00	0	45	0	2593128448	12	4501
2026-01-20 00:47:36.26	125.49	14.31	-26.2	-28.0	15.7	0.00e+00	0	45	0	2609905664	12	4396
2026-01-20 00:47:39.27	126.00	14.13	-26.1	-27.7	15.9	0.00e+00	0	45	0	2626682880	12	4315
2026-01-20 00:47:42.27	126.49	13.94	-26.1	-27.7	15.8	0.00e+00	0	45	0	2643460096	12	4331
2026-01-20 00:47:45.28	126.98	13.76	-26.2	-27.8	15.8	0.00e+00	0	45	0	2660237312	12	4356
2026-01-20 00:47:48.28	127.47	13.57	-26.3	-28.0	15.6	0.00e+00	0	45	0	2677014528	12	4417
2026-01-20 00:47:51.28	127.94	13.38	-26.2	-27.9	15.7	0.00e+00	0	45	0	2694840320	12	4389
2026-01-20 00:47:54.29	128.42	13.19	-26.3	-28.0	15.6	0.00e+00	0	45	0	2711617536	12	4414
2026-01-20 00:47:57.30	128.88	13.01	-26.3	-28.0	15.6	0.00e+00	0	45	0	2728394752	12	4392
2026-01-20 00:48:00.30	129.35	12.82	-26.4	-28.4	15.4	0.00e+00	0	45	0	2745171968	12	4507
2026-01-20 00:48:03.31	129.80	12.63	-26.6	-28.2	15.2	0.00e+00	0	45	0	2761949184	13	4355
2026-01-20 00:48:06.31	130.25	12.44	-26.5	-28.1	15.2	1.10e-06	0	45	0	2778726400	13	4324
2026-01-20 00:48:09.32	130.70	12.25	-26.6	-28.3	15.1	1.10e-06	0	45	0	2795503616	13	4366
2026-01-20 00:48:12.33	131.14	12.06	-26.6	-28.3	15.1	0.00e+00	0	45	0	2812280832	13	4364
2026-01-20 00:48:15.33	131.57	11.87	-26.7	-28.5	14.9	0.00e+00	0	45	0	2830106624	13	4448
2026-01-20 00:48:18.34	132.00	11.69	-27.0	-29.1	14.6	0.00e+00	0	45	0	2846883840	13	4630
2026-01-20 00:48:21.35	132.42	11.50	-27.0	-28.7	14.5	0.00e+00	0	45	0	2863661056	14	4388
2026-01-20 00:48:24.36	132.84	11.31	-27.4	-29.7	14.0	1.10e-06	0	45	0	2880438272	14	4682
2026-01-20 00:48:27.37	133.25	11.12	-27.4	-29.1	14.0	3.40e-06	0	45	0	2897215488	15	4391
2026-01-20 00:48:30.38	133.66	10.93	-27.6	-29.7	13.6	2.05e-05	0	45	0	2913992704	15	4564
2026-01-20 00:48:33.39	134.06	10.74	-27.5	-29.4	13.8	1.14e-05	0	45	0	2930769920	15	4487
2026-01-20 00:48:36.40	134.46	10.55	-27.3	-29.4	14.1	2.20e-06	0	45	0	2947547136	14	4595
2026-01-20 00:48:39.41	134.85	10.36	-27.0	-28.8	14.3	1.10e-06	0	45	0	2965372928	14	4423
2026-01-20 00:48:42.41	135.24	10.18	-27.0	-28.7	14.4	1.10e-06	0	45	0	2982150144	14	4390
2026-01-20 00:48:45.42	135.62	9.99	-27.2	-29.2	14.1	4.50e-06	0	45	0	2998927360	14	4533
2026-01-20 00:48:48.43	136.00	9.80	-27.3	-29.4	14.0	3.40e-06	0	45	0	3015704576	14	4567
2026-01-20 00:48:51.45	136.38	9.62	-27.6	-29.6	13.6	1.94e-05	0	45	0	3032481792	15	4536
2026-01-20 00:48:54.46	136.75	9.43	-27.3	-29.1	13.8	1.14e-05	0	45	0	3050307584	15	4404
2026-01-20 00:48:57.46	137.11	9.24	-27.2	-28.9	13.9	1.37e-05	0	45	0	3066036224	15	4368
2026-01-20 00:49:00.46	137.47	9.06	-27.2	-29.4	13.9	8.00e-06	0	45	0	3083862016	14	4609
2026-01-20 00:49:03.46	137.82	8.87	-27.6	-29.7	13.4	1.83e-05	0	45	0	3100639232	15	4571
2026-01-20 00:49:06.46	138.17	8.69	-27.5	-29.5	13.4	1.25e-05	0	45	0	3117416448	15	4522
2026-01-20 00:49:09.47	138.52	8.51	-27.5	-29.6	13.4	1.60e-05	0	45	0	3134193664	15	4556
2026-01-20 00:49:12.47	138.86	8.32	-27.7	-29.9	13.2	3.20e-05	0	45	0	3150970880	15	4666
2026-01-20 00:49:15.48	139.20	8.14	-27.6	-29.7	13.3	1.71e-05	0	45	0	3167748096	15	4581
2026-01-20 00:49:18.48	139.54	7.96	-27.7	-29.9	13.2	3.77e-05	0	45	0	3184525312	15	4644
2026-01-20 00:49:21.49	139.87	7.77	-27.8	-30.1	12.9	6.29e-05	0	45	0	3201302528	15	4734
2026-01-20 00:49:24.51	140.20	7.59	-28.0	-30.4	12.6	1.20e-04	0	45	0	3219128320	16	4717
2026-01-20 00:49:27.52	140.52	7.41	-28.0	-30.5	12.4	1.92e-04	0	45	0	3235905536	16	4762
2026-01-20 00:49:30.53	140.84	7.23	-27.8	-29.9	12.7	1.37e-04	0	45	0	3252682752	16	4582
2026-01-20 00:49:33.53	141.15	7.05	-32.8	-43.2	3.8	2.45e-03	0	45	104	3268411392	25	11931
2026-01-20 00:49:36.54	141.47	6.87	-34.0	-45.1	3.8	8.46e-01	0	45	104	3268411392	28	12899

#Closed at: 2026-01-20 00:49:36
#Recorded file [3268 MB]: D:/data/31010_260120_033952.dat