passes_logs/2026/01/20/R2M6_AANII_01/R2M6_AANII_01__20260120_104438_NOAA_21_JPSS-2_rec.log

#Pass ID: 20260120_104438_NOAA 21 (JPSS-2)
#Satellite: NOAA 21 (JPSS-2)
#Configuration: NOAA 21
#almurnet v.1.7.20240730
#Start time: 2026-01-20 10:44:38

#Version: 2.2.20231116
#Station: R2M6_AANII_01
#Location: 30.233357 lon 59.946436 lat
#TLE: 1 54234U 22150A   26019.59425193  .00000067  00000+0  52811-4 0  9997
#TLE: 2 54234  98.7505 320.4385 0000607 256.3203 103.7906 14.19535690165464

#Time	Az	El	Level	Level2	SNR	BER	BlckErr	Temp	State	Recorded	gain1	gain2
2026-01-20 10:44:38.18	173.42	7.01	-33.9	-45.1	3.8	1.49e+00	0	44	0	0	29	13144
2026-01-20 10:44:41.17	173.50	7.24	-30.9	-34.4	8.8	4.00e-02	0	44	0	2097152	23	5344
2026-01-20 10:44:44.16	173.59	7.47	-30.0	-32.7	10.6	3.90e-03	0	44	0	11534336	21	4891
2026-01-20 10:44:47.17	173.68	7.71	-29.4	-31.5	11.7	4.89e-04	0	44	0	20971520	20	4584
2026-01-20 10:44:50.18	173.77	7.95	-29.3	-31.6	12.0	2.25e-04	0	44	0	30408704	19	4705
2026-01-20 10:44:53.19	173.86	8.18	-29.7	-32.7	11.3	9.77e-04	0	44	0	39845888	19	5090
2026-01-20 10:44:56.18	173.95	8.42	-30.4	-34.3	9.8	8.38e-03	0	44	0	49283072	20	5646
2026-01-20 10:44:59.19	174.04	8.67	-30.3	-33.5	10.0	8.07e-03	0	44	0	58720256	21	5193
2026-01-20 10:45:02.19	174.14	8.91	-29.3	-31.1	12.1	5.61e-04	0	44	0	68157440	20	4437
2026-01-20 10:45:05.19	174.23	9.16	-28.8	-30.4	12.9	4.65e-05	0	44	0	77594624	19	4319
2026-01-20 10:45:08.21	174.33	9.41	-29.0	-30.9	12.7	7.70e-05	0	44	0	87031808	19	4450
2026-01-20 10:45:11.22	174.43	9.67	-28.8	-30.8	13.0	3.28e-05	0	44	0	96468992	18	4543
2026-01-20 10:45:14.23	174.53	9.92	-28.8	-30.7	13.1	2.21e-05	0	44	0	105906176	18	4503
2026-01-20 10:45:17.24	174.64	10.18	-28.8	-30.9	13.0	4.19e-05	0	44	0	115343360	18	4550
2026-01-20 10:45:20.25	174.74	10.44	-29.3	-31.9	12.3	1.64e-04	0	44	0	124780544	18	4896
2026-01-20 10:45:23.25	174.85	10.71	-29.2	-31.8	12.5	1.40e-04	0	44	0	134217728	18	4846
2026-01-20 10:45:26.27	174.96	10.97	-29.0	-31.3	12.8	6.02e-05	0	44	0	143654912	18	4693
2026-01-20 10:45:29.28	175.07	11.24	-28.8	-30.9	13.0	4.11e-05	0	44	0	153092096	18	4560
2026-01-20 10:45:32.29	175.18	11.52	-28.3	-29.7	13.8	3.00e-06	0	44	0	162529280	18	4202
2026-01-20 10:45:35.30	175.29	11.79	-28.3	-29.7	13.9	6.80e-06	0	44	0	171966464	18	4197
2026-01-20 10:45:38.29	175.41	12.07	-28.3	-29.6	13.9	3.00e-06	0	44	0	181403648	18	4175
2026-01-20 10:45:41.28	175.52	12.35	-28.2	-29.7	14.1	0.00e+00	0	44	0	190840832	17	4302
2026-01-20 10:45:44.27	175.64	12.63	-28.2	-29.9	14.0	1.50e-06	0	44	0	200278016	17	4367
2026-01-20 10:45:47.27	175.76	12.92	-28.2	-29.7	14.2	0.00e+00	0	44	0	208666624	17	4293
2026-01-20 10:45:50.27	175.89	13.21	-28.3	-30.0	14.0	7.00e-07	0	44	0	218103808	17	4389
2026-01-20 10:45:53.27	176.01	13.50	-28.0	-29.4	14.4	1.50e-06	0	44	0	227540992	17	4197
2026-01-20 10:45:56.26	176.14	13.80	-28.0	-29.3	14.5	7.00e-07	0	44	0	236978176	17	4175
2026-01-20 10:45:59.28	176.27	14.10	-27.9	-29.2	14.6	1.50e-06	0	44	0	246415360	17	4149
2026-01-20 10:46:02.28	176.41	14.41	-28.0	-29.4	14.5	7.00e-07	0	44	0	255852544	17	4202
2026-01-20 10:46:05.27	176.54	14.72	-28.1	-29.5	14.4	7.00e-07	0	44	0	265289728	17	4246
2026-01-20 10:46:08.27	176.68	15.03	-28.2	-29.8	14.3	1.50e-06	0	45	0	274726912	17	4334
2026-01-20 10:46:11.27	176.82	15.34	-28.5	-30.5	13.9	3.00e-06	0	44	0	284164096	17	4517
2026-01-20 10:46:14.27	176.97	15.66	-28.3	-30.0	14.2	3.00e-06	0	44	0	293601280	17	4368
2026-01-20 10:46:17.29	177.11	15.99	-28.2	-29.8	14.3	7.00e-07	0	44	0	303038464	17	4335
2026-01-20 10:46:20.29	177.26	16.32	-28.2	-29.7	14.3	2.20e-06	0	44	0	312475648	17	4300
2026-01-20 10:46:23.30	177.42	16.65	-28.2	-29.8	14.3	0.00e+00	0	44	0	321912832	17	4334
2026-01-20 10:46:26.31	177.57	16.99	-28.2	-29.8	14.3	0.00e+00	0	44	0	331350016	17	4309
2026-01-20 10:46:29.32	177.74	17.33	-28.1	-29.5	14.5	0.00e+00	0	44	0	340787200	17	4244
2026-01-20 10:46:32.33	177.90	17.68	-28.2	-29.7	14.4	0.00e+00	0	44	0	350224384	17	4294
2026-01-20 10:46:35.33	178.07	18.03	-28.1	-29.5	14.6	0.00e+00	0	44	0	359661568	17	4222
2026-01-20 10:46:38.34	178.24	18.39	-28.0	-29.3	14.6	1.50e-06	0	44	0	369098752	17	4190
2026-01-20 10:46:41.35	178.41	18.75	-27.9	-29.1	14.8	0.00e+00	0	44	0	378535936	17	4123
2026-01-20 10:46:44.37	178.59	19.12	-27.8	-28.9	14.9	0.00e+00	0	44	0	387973120	17	4092
2026-01-20 10:46:47.37	178.77	19.49	-27.7	-29.1	15.1	0.00e+00	0	44	0	397410304	16	4242
2026-01-20 10:46:50.39	178.96	19.87	-27.7	-29.2	15.1	0.00e+00	0	44	0	406847488	16	4248
2026-01-20 10:46:53.39	179.15	20.25	-27.6	-28.8	15.3	0.00e+00	0	44	0	416284672	16	4149
2026-01-20 10:46:56.39	179.35	20.64	-27.6	-28.9	15.3	0.00e+00	0	45	0	425721856	16	4169
2026-01-20 10:46:59.39	179.55	21.04	-27.5	-28.7	15.4	0.00e+00	0	44	0	435159040	16	4100
2026-01-20 10:47:02.39	179.75	21.44	-27.4	-28.4	15.6	0.00e+00	0	44	0	443547648	16	4030
2026-01-20 10:47:05.41	179.96	21.84	-27.5	-28.5	15.6	0.00e+00	0	44	0	452984832	16	4050
2026-01-20 10:47:08.41	180.18	22.26	-27.4	-28.4	15.6	0.00e+00	0	45	0	462422016	16	4023
2026-01-20 10:47:11.41	180.40	22.68	-27.1	-28.2	15.8	0.00e+00	0	44	0	471859200	15	4081
2026-01-20 10:47:14.42	180.63	23.10	-27.0	-28.0	15.9	0.00e+00	0	45	0	481296384	15	4039
2026-01-20 10:47:17.44	180.86	23.54	-26.8	-27.6	16.2	0.00e+00	0	44	0	490733568	15	3933
2026-01-20 10:47:20.45	181.10	23.98	-26.8	-27.6	16.2	0.00e+00	0	44	0	500170752	15	3915
2026-01-20 10:47:23.45	181.35	24.42	-26.9	-27.7	16.2	0.00e+00	0	44	0	509607936	15	3946
2026-01-20 10:47:26.47	181.60	24.88	-26.9	-27.7	16.2	0.00e+00	0	44	0	519045120	15	3960
2026-01-20 10:47:29.47	181.86	25.34	-26.9	-27.7	16.2	0.00e+00	0	44	0	528482304	15	3962
2026-01-20 10:47:32.45	182.13	25.80	-27.1	-28.2	15.9	0.00e+00	0	44	0	537919488	15	4087
2026-01-20 10:47:35.45	182.40	26.28	-27.3	-28.7	15.7	0.00e+00	0	44	0	547356672	15	4202
2026-01-20 10:47:38.46	182.69	26.76	-27.6	-29.4	15.3	0.00e+00	0	45	0	556793856	15	4394
2026-01-20 10:47:41.47	182.98	27.25	-27.7	-29.4	15.3	0.00e+00	0	44	0	566231040	15	4401
2026-01-20 10:47:44.48	183.28	27.76	-27.7	-29.6	15.2	7.00e-07	0	44	0	575668224	15	4461
2026-01-20 10:47:47.48	183.59	28.26	-27.7	-29.6	15.2	0.00e+00	0	44	0	585105408	15	4456
2026-01-20 10:47:50.49	183.91	28.78	-27.9	-30.1	15.0	0.00e+00	0	44	0	594542592	15	4607
2026-01-20 10:47:53.49	184.24	29.31	-28.2	-30.0	14.9	7.00e-07	0	44	0	603979776	16	4450
2026-01-20 10:47:56.48	184.58	29.84	-27.9	-29.4	15.3	7.00e-07	0	44	0	613416960	16	4275
2026-01-20 10:47:59.49	184.93	30.38	-28.0	-29.5	15.2	0.00e+00	0	44	0	622854144	16	4320
2026-01-20 10:48:02.50	185.30	30.94	-27.8	-29.1	15.5	0.00e+00	0	44	0	632291328	16	4199
2026-01-20 10:48:05.50	185.67	31.50	-27.7	-28.9	15.6	0.00e+00	0	44	0	640679936	16	4129
2026-01-20 10:48:08.52	186.06	32.07	-27.9	-29.5	15.3	0.00e+00	0	44	0	650117120	16	4297
2026-01-20 10:48:11.52	186.46	32.66	-28.1	-29.8	15.1	0.00e+00	0	44	0	659554304	16	4377
2026-01-20 10:48:14.52	186.88	33.25	-28.3	-30.4	14.8	0.00e+00	0	44	0	668991488	16	4562
2026-01-20 10:48:17.52	187.31	33.85	-28.4	-30.5	14.7	0.00e+00	0	44	0	678428672	16	4591
2026-01-20 10:48:20.51	187.75	34.46	-28.3	-30.3	14.9	0.00e+00	0	44	0	687865856	16	4521
2026-01-20 10:48:23.52	188.22	35.08	-28.7	-30.8	14.2	7.00e-07	0	44	0	697303040	17	4578
2026-01-20 10:48:26.54	188.70	35.72	-29.4	-31.9	13.4	6.10e-06	0	45	0	706740224	18	4819
2026-01-20 10:48:29.55	189.21	36.36	-29.4	-31.4	13.4	1.60e-05	0	44	0	716177408	19	4516
2026-01-20 10:48:32.56	189.73	37.01	-29.4	-31.5	13.3	1.06e-05	0	44	0	725614592	19	4552
2026-01-20 10:48:35.55	190.27	37.68	-30.0	-32.8	12.6	4.73e-05	0	44	0	735051776	19	4976
2026-01-20 10:48:38.56	190.83	38.35	-29.5	-31.1	13.2	2.05e-05	0	44	0	744488960	20	4341
2026-01-20 10:48:41.56	191.42	39.04	-29.4	-30.8	13.4	1.44e-05	0	44	0	753926144	20	4259
2026-01-20 10:48:44.56	192.03	39.73	-29.5	-31.1	13.2	1.75e-05	0	44	0	763363328	20	4348
2026-01-20 10:48:47.56	192.66	40.43	-29.6	-31.3	13.2	2.28e-05	0	44	0	772800512	20	4395
2026-01-20 10:48:50.55	193.33	41.15	-29.8	-31.8	12.9	6.79e-05	0	44	0	782237696	20	4540
2026-01-20 10:48:53.55	194.02	41.87	-29.7	-31.7	12.9	4.11e-05	0	44	0	791674880	20	4508
2026-01-20 10:48:56.56	194.75	42.61	-29.7	-31.6	13.0	3.05e-05	0	44	0	801112064	20	4487
2026-01-20 10:48:59.56	195.51	43.35	-29.9	-32.1	12.7	7.62e-05	0	45	0	810549248	20	4639
2026-01-20 10:49:02.56	196.31	44.11	-29.8	-31.9	12.8	7.32e-05	0	44	0	819986432	20	4567
2026-01-20 10:49:05.57	197.14	44.87	-29.5	-31.2	13.3	2.82e-05	0	44	0	828375040	20	4364
2026-01-20 10:49:08.58	198.02	45.64	-29.7	-32.0	13.1	2.74e-05	0	44	0	838860800	19	4725
2026-01-20 10:49:11.57	198.93	46.42	-30.2	-32.8	12.3	1.84e-04	0	44	0	847249408	20	4866
2026-01-20 10:49:14.58	199.90	47.20	-30.1	-32.6	12.4	8.16e-05	0	45	0	856686592	20	4826
2026-01-20 10:49:17.60	200.92	47.99	-30.2	-32.9	12.2	2.30e-04	0	44	0	866123776	20	4913
2026-01-20 10:49:20.61	201.99	48.79	-30.0	-32.4	12.6	7.24e-05	0	44	0	875560960	20	4744
2026-01-20 10:49:23.61	203.11	49.59	-30.6	-33.4	11.6	5.01e-04	0	45	0	884998144	21	4988
2026-01-20 10:49:26.60	204.29	50.38	-29.7	-31.5	13.1	2.59e-05	0	45	0	894435328	20	4450
2026-01-20 10:49:29.60	205.53	51.18	-29.1	-30.7	14.1	1.50e-06	0	45	0	903872512	19	4303
2026-01-20 10:49:32.61	206.85	51.98	-29.2	-30.9	13.9	3.80e-06	0	44	0	913309696	19	4367
2026-01-20 10:49:35.61	208.23	52.78	-28.8	-30.4	14.5	2.20e-06	0	45	0	922746880	18	4343
2026-01-20 10:49:38.61	209.69	53.57	-28.6	-30.0	14.8	0.00e+00	0	44	0	932184064	18	4205
2026-01-20 10:49:41.62	211.23	54.35	-28.2	-29.4	15.4	0.00e+00	0	45	0	941621248	17	4161
2026-01-20 10:49:44.63	212.86	55.13	-28.1	-29.3	15.4	0.00e+00	0	45	0	951058432	17	4139
2026-01-20 10:49:47.64	214.58	55.89	-27.5	-28.4	16.3	0.00e+00	0	44	0	960495616	16	3989
2026-01-20 10:49:50.65	216.40	56.64	-27.8	-29.1	15.9	0.00e+00	0	45	0	969932800	16	4176
2026-01-20 10:49:53.65	218.30	57.36	-28.2	-30.0	15.3	0.00e+00	0	45	0	979369984	16	4433
2026-01-20 10:49:56.65	220.31	58.07	-28.0	-29.5	15.7	0.00e+00	0	45	0	988807168	16	4275
2026-01-20 10:49:59.65	222.43	58.74	-28.0	-29.5	15.6	0.00e+00	0	45	0	998244352	16	4301
2026-01-20 10:50:02.65	224.65	59.39	-27.6	-28.7	16.1	0.00e+00	0	45	0	1007681536	16	4082
2026-01-20 10:50:05.65	226.98	60.00	-27.6	-28.7	16.1	0.00e+00	0	45	0	1017118720	16	4072
2026-01-20 10:50:08.68	229.45	60.58	-27.1	-28.1	16.6	0.00e+00	0	44	0	1026555904	15	4022
2026-01-20 10:50:11.69	232.00	61.12	-27.0	-28.3	16.7	0.00e+00	0	45	0	1035993088	14	4184
2026-01-20 10:50:14.71	234.68	61.60	-27.1	-28.5	16.5	0.00e+00	0	45	0	1045430272	14	4248
2026-01-20 10:50:17.70	237.42	62.03	-27.1	-28.6	16.6	0.00e+00	0	45	0	1053818880	14	4267
2026-01-20 10:50:20.71	240.28	62.41	-27.4	-28.9	16.1	0.00e+00	0	45	0	1063256064	15	4233
2026-01-20 10:50:23.71	243.20	62.73	-27.2	-28.2	16.5	0.00e+00	0	45	0	1072693248	15	4050
2026-01-20 10:50:26.72	246.21	62.98	-27.2	-28.2	16.5	0.00e+00	0	45	0	1082130432	15	4054
2026-01-20 10:50:29.74	249.29	63.17	-26.8	-27.3	16.9	0.00e+00	0	45	0	1091567616	15	3844
2026-01-20 10:50:32.74	252.38	63.30	-27.5	-29.0	16.1	0.00e+00	0	45	0	1101004800	15	4260
2026-01-20 10:50:35.76	255.52	63.35	-27.2	-28.3	16.5	0.00e+00	0	45	0	1110441984	15	4076
2026-01-20 10:50:38.76	258.64	63.33	-26.9	-27.7	16.8	0.00e+00	0	44	0	1119879168	15	3928
2026-01-20 10:50:41.77	261.75	63.24	-27.2	-28.2	16.5	0.00e+00	0	45	0	1129316352	15	4053
2026-01-20 10:50:44.77	264.83	63.09	-27.4	-28.7	16.2	0.00e+00	0	45	0	1138753536	15	4189
2026-01-20 10:50:47.78	267.87	62.87	-26.9	-27.6	16.8	0.00e+00	0	45	0	1148190720	15	3911
2026-01-20 10:50:50.79	270.84	62.58	-26.8	-27.9	17.0	0.00e+00	0	45	0	1157627904	14	4073
2026-01-20 10:50:53.78	273.72	62.24	-27.1	-28.6	16.6	0.00e+00	0	45	0	1167065088	14	4251
2026-01-20 10:50:56.80	276.53	61.83	-27.1	-28.5	16.7	0.00e+00	0	45	0	1176502272	14	4232
2026-01-20 10:50:59.81	279.24	61.37	-27.9	-29.8	15.7	0.00e+00	0	45	0	1185939456	15	4486
2026-01-20 10:51:02.82	281.85	60.86	-26.5	-27.3	17.2	0.00e+00	0	45	0	1195376640	14	3938
2026-01-20 10:51:05.83	284.35	60.31	-27.1	-28.5	16.6	0.00e+00	0	45	0	1204813824	14	4248
2026-01-20 10:51:08.85	286.75	59.71	-27.1	-28.0	16.6	0.00e+00	0	45	0	1214251008	15	4000
2026-01-20 10:51:11.85	289.03	59.08	-28.8	-30.9	14.7	2.20e-06	0	45	0	1223688192	17	4573
2026-01-20 10:51:14.86	291.20	58.42	-28.2	-29.5	15.4	0.00e+00	0	45	0	1233125376	17	4170
2026-01-20 10:51:17.88	293.27	57.73	-28.0	-29.1	15.7	0.00e+00	0	45	0	1242562560	17	4074
2026-01-20 10:51:20.88	295.23	57.02	-28.7	-30.6	14.9	7.00e-07	0	45	0	1251999744	17	4473
2026-01-20 10:51:23.90	297.09	56.28	-27.9	-28.8	15.9	0.00e+00	0	45	0	1261436928	17	3982
2026-01-20 10:51:26.90	298.85	55.53	-28.9	-31.2	14.5	0.00e+00	0	45	0	1270874112	17	4662
2026-01-20 10:51:29.91	300.52	54.76	-28.7	-30.1	14.8	0.00e+00	0	45	0	1280311296	18	4229
2026-01-20 10:51:32.91	302.10	53.99	-28.3	-29.3	15.3	0.00e+00	0	45	0	1289748480	18	4009
2026-01-20 10:51:35.92	303.60	53.20	-29.3	-31.6	14.0	3.00e-06	0	45	0	1299185664	18	4689
2026-01-20 10:51:38.93	305.02	52.41	-29.0	-30.7	14.5	7.00e-07	0	45	0	1308622848	18	4404
2026-01-20 10:51:41.93	306.37	51.61	-29.3	-31.5	14.1	0.00e+00	0	45	0	1318060032	18	4638
2026-01-20 10:51:44.94	307.65	50.81	-30.3	-33.0	12.5	1.40e-04	0	45	0	1327497216	20	4903
2026-01-20 10:51:47.95	308.86	50.02	-29.3	-31.0	14.0	2.20e-06	0	45	0	1335885824	19	4385
2026-01-20 10:51:50.96	310.01	49.22	-29.7	-32.0	13.5	6.10e-06	0	45	0	1345323008	19	4677
2026-01-20 10:51:53.96	311.10	48.43	-30.1	-32.6	12.7	1.16e-04	0	45	0	1354760192	20	4776
2026-01-20 10:51:56.99	312.15	47.63	-30.1	-32.5	12.8	6.40e-05	0	45	0	1364197376	20	4738
2026-01-20 10:52:00.00	313.14	46.85	-30.2	-32.7	12.6	1.06e-04	0	45	0	1373634560	20	4829
2026-01-20 10:52:03.00	314.08	46.07	-31.5	-34.8	10.3	3.36e-03	0	45	0	1383071744	23	5282
2026-01-20 10:52:06.02	314.98	45.30	-31.0	-33.4	11.2	1.27e-03	0	45	0	1392508928	23	4730
2026-01-20 10:52:09.03	315.83	44.53	-30.5	-32.5	12.0	3.13e-04	0	45	0	1401946112	22	4524
2026-01-20 10:52:12.03	316.64	43.78	-30.2	-32.2	12.6	9.53e-05	0	45	0	1411383296	21	4544
2026-01-20 10:52:15.04	317.42	43.03	-30.0	-31.7	12.8	5.64e-05	0	45	0	1420820480	21	4396
2026-01-20 10:52:18.05	318.17	42.29	-29.5	-31.0	13.6	1.06e-05	0	45	0	1430257664	20	4268
2026-01-20 10:52:21.06	318.88	41.56	-29.3	-31.0	14.0	2.20e-06	0	45	0	1439694848	19	4372
2026-01-20 10:52:24.05	319.56	40.85	-30.1	-32.4	12.7	5.72e-05	0	45	0	1449132032	20	4725
2026-01-20 10:52:27.05	320.21	40.14	-30.0	-32.2	12.9	6.17e-05	0	45	0	1458569216	20	4640
2026-01-20 10:52:30.05	320.83	39.45	-30.6	-33.3	11.8	4.40e-04	0	45	0	1468006400	21	4926
2026-01-20 10:52:33.07	321.43	38.76	-29.9	-31.5	13.0	5.03e-05	0	45	0	1477443584	21	4331
2026-01-20 10:52:36.08	322.01	38.08	-29.7	-31.5	13.3	9.10e-06	0	45	0	1486880768	20	4435
2026-01-20 10:52:39.09	322.56	37.41	-29.8	-31.7	13.1	3.81e-05	0	45	0	1496317952	20	4512
2026-01-20 10:52:42.11	323.09	36.75	-29.8	-31.8	13.0	3.20e-05	0	45	0	1505755136	20	4544
2026-01-20 10:52:45.11	323.60	36.11	-29.3	-31.1	13.8	6.80e-06	0	45	0	1515192320	19	4431
2026-01-20 10:52:48.11	324.09	35.48	-28.7	-30.2	14.6	0.00e+00	0	45	0	1524629504	18	4266
2026-01-20 10:52:51.12	324.57	34.85	-29.2	-31.4	13.9	2.20e-06	0	45	0	1534066688	18	4617
2026-01-20 10:52:54.12	325.02	34.24	-29.4	-31.3	13.7	4.50e-06	0	45	0	1543503872	19	4483
2026-01-20 10:52:57.13	325.46	33.63	-29.2	-30.8	14.0	5.30e-06	0	45	0	1552941056	19	4320
2026-01-20 10:53:00.14	325.89	33.04	-29.1	-30.7	14.0	1.50e-06	0	45	0	1562378240	19	4290
2026-01-20 10:53:03.15	326.30	32.45	-28.4	-29.4	15.1	0.00e+00	0	45	0	1571815424	18	4038
2026-01-20 10:53:06.17	326.69	31.88	-27.8	-28.7	15.7	0.00e+00	0	45	0	1581252608	17	3979
2026-01-20 10:53:09.18	327.08	31.31	-28.0	-29.1	15.5	0.00e+00	0	45	0	1590689792	17	4084
2026-01-20 10:53:12.20	327.45	30.75	-28.0	-29.1	15.5	0.00e+00	0	45	0	1600126976	17	4089
2026-01-20 10:53:15.21	327.80	30.21	-28.1	-29.4	15.3	7.00e-07	0	45	0	1608515584	17	4158
2026-01-20 10:53:18.22	328.15	29.67	-28.3	-29.7	15.1	7.00e-07	0	45	0	1617952768	17	4249
2026-01-20 10:53:21.23	328.49	29.14	-28.4	-30.1	14.9	0.00e+00	0	45	0	1627389952	17	4352
2026-01-20 10:53:24.24	328.81	28.62	-28.5	-30.1	14.8	0.00e+00	0	45	0	1636827136	17	4366
2026-01-20 10:53:27.24	329.13	28.11	-28.4	-30.1	14.9	7.00e-07	0	45	0	1646264320	17	4353
2026-01-20 10:53:30.25	329.43	27.61	-27.7	-28.9	15.8	0.00e+00	0	45	0	1655701504	16	4135
2026-01-20 10:53:33.26	329.73	27.12	-27.6	-28.8	15.9	0.00e+00	0	45	0	1665138688	16	4092
2026-01-20 10:53:36.27	330.02	26.63	-27.6	-28.7	15.9	0.00e+00	0	45	0	1674575872	16	4092
2026-01-20 10:53:39.27	330.30	26.15	-27.5	-28.4	16.0	0.00e+00	0	45	0	1684013056	16	4001
2026-01-20 10:53:42.27	330.57	25.68	-27.4	-28.2	16.1	0.00e+00	0	45	0	1693450240	16	3954
2026-01-20 10:53:45.28	330.84	25.22	-27.7	-28.8	15.8	0.00e+00	0	45	0	1702887424	16	4119
2026-01-20 10:53:48.30	331.10	24.76	-28.0	-29.5	15.4	0.00e+00	0	45	0	1712324608	16	4306
2026-01-20 10:53:51.30	331.35	24.32	-28.0	-29.7	15.3	0.00e+00	0	45	0	1721761792	16	4357
2026-01-20 10:53:54.29	331.59	23.88	-27.9	-29.4	15.4	0.00e+00	0	45	0	1731198976	16	4279
2026-01-20 10:53:57.30	331.83	23.45	-28.2	-30.1	15.0	0.00e+00	0	45	0	1740636160	16	4464
2026-01-20 10:54:00.30	332.06	23.02	-28.4	-30.4	14.7	0.00e+00	0	45	0	1750073344	16	4574
2026-01-20 10:54:03.31	332.28	22.60	-28.3	-30.3	14.9	0.00e+00	0	45	0	1759510528	16	4533
2026-01-20 10:54:06.31	332.50	22.18	-28.2	-30.1	15.0	0.00e+00	0	45	0	1768947712	16	4462
2026-01-20 10:54:09.30	332.72	21.78	-28.3	-30.2	14.9	7.00e-07	0	45	0	1778384896	16	4508
2026-01-20 10:54:12.31	332.93	21.38	-28.3	-30.3	14.7	0.00e+00	0	45	0	1787822080	16	4535
2026-01-20 10:54:15.32	333.13	20.98	-27.9	-29.4	15.3	0.00e+00	0	45	0	1797259264	16	4282
2026-01-20 10:54:18.34	333.33	20.59	-27.7	-28.9	15.6	0.00e+00	0	45	0	1806696448	16	4150
2026-01-20 10:54:21.35	333.53	20.20	-27.6	-28.8	15.6	0.00e+00	0	45	0	1816133632	16	4108
2026-01-20 10:54:24.36	333.72	19.83	-27.7	-29.0	15.5	0.00e+00	0	45	0	1825570816	16	4182
2026-01-20 10:54:27.37	333.90	19.45	-28.0	-29.7	15.2	0.00e+00	0	45	0	1833959424	16	4351
2026-01-20 10:54:30.38	334.09	19.08	-28.1	-29.9	14.9	0.00e+00	0	45	0	1843396608	16	4433
2026-01-20 10:54:33.39	334.27	18.72	-28.3	-30.4	14.7	0.00e+00	0	45	0	1853882368	16	4575
2026-01-20 10:54:36.41	334.44	18.36	-28.4	-30.5	14.6	0.00e+00	0	45	0	1862270976	16	4611
2026-01-20 10:54:39.41	334.61	18.01	-28.3	-30.3	14.7	0.00e+00	0	45	0	1871708160	16	4551
2026-01-20 10:54:42.42	334.78	17.66	-28.3	-30.5	14.6	0.00e+00	0	45	0	1881145344	16	4591
2026-01-20 10:54:45.43	334.94	17.32	-28.3	-30.0	14.6	0.00e+00	0	45	0	1890582528	17	4331
2026-01-20 10:54:48.44	335.10	16.98	-28.4	-30.2	14.5	1.50e-06	0	45	0	1900019712	17	4390
2026-01-20 10:54:51.46	335.26	16.64	-28.5	-30.4	14.3	7.00e-07	0	45	0	1909456896	17	4476
2026-01-20 10:54:54.48	335.41	16.31	-28.6	-30.5	14.3	1.50e-06	0	45	0	1918894080	17	4487
2026-01-20 10:54:57.48	335.56	15.99	-28.5	-30.4	14.3	7.00e-07	0	45	0	1928331264	17	4473
2026-01-20 10:55:00.47	335.71	15.67	-28.7	-30.9	14.0	2.20e-06	0	45	0	1937768448	17	4615
2026-01-20 10:55:03.48	335.86	15.35	-28.8	-31.2	13.8	3.80e-06	0	45	0	1947205632	17	4706
2026-01-20 10:55:06.50	336.00	15.03	-29.0	-30.9	13.6	9.90e-06	0	45	0	1956642816	18	4519
2026-01-20 10:55:09.52	336.14	14.72	-28.9	-30.8	13.7	4.50e-06	0	45	0	1966080000	18	4494
2026-01-20 10:55:12.53	336.28	14.42	-29.1	-31.2	13.5	9.10e-06	0	45	0	1975517184	18	4601
2026-01-20 10:55:15.53	336.41	14.11	-29.3	-31.8	13.0	5.56e-05	0	45	0	1984954368	18	4815
2026-01-20 10:55:18.54	336.54	13.82	-29.8	-32.5	12.3	1.28e-04	0	45	0	1994391552	19	4926
2026-01-20 10:55:21.54	336.67	13.52	-29.4	-31.4	12.9	4.11e-05	0	45	0	2003828736	19	4579
2026-01-20 10:55:24.55	336.80	13.23	-29.1	-30.8	13.3	9.10e-06	0	45	0	2013265920	19	4392
2026-01-20 10:55:27.57	336.92	12.94	-29.3	-31.3	13.0	3.73e-05	0	45	0	2022703104	19	4537
2026-01-20 10:55:30.56	337.05	12.66	-28.8	-30.2	13.6	1.37e-05	0	45	0	2032140288	19	4200
2026-01-20 10:55:33.57	337.17	12.37	-28.9	-30.8	13.6	6.10e-06	0	45	0	2041577472	18	4480
2026-01-20 10:55:36.58	337.29	12.10	-28.9	-31.0	13.4	1.14e-05	0	45	0	2051014656	18	4542
2026-01-20 10:55:39.59	337.40	11.82	-29.1	-31.3	13.3	3.12e-05	0	45	0	2060451840	18	4640
2026-01-20 10:55:42.59	337.52	11.55	-29.1	-31.4	13.1	3.43e-05	0	45	0	2069889024	18	4669
2026-01-20 10:55:45.60	337.63	11.28	-29.1	-31.3	13.2	1.98e-05	0	45	0	2079326208	18	4664
2026-01-20 10:55:48.61	337.74	11.01	-29.0	-31.2	13.2	3.58e-05	0	45	0	2088763392	18	4614
2026-01-20 10:55:51.62	337.85	10.75	-29.0	-31.3	13.2	2.05e-05	0	45	0	2098200576	18	4643
2026-01-20 10:55:54.63	337.96	10.48	-29.0	-31.2	13.2	1.37e-05	0	45	0	2107637760	18	4613
2026-01-20 10:55:57.64	338.07	10.23	-29.0	-31.1	13.2	1.98e-05	0	45	0	2117074944	18	4601
2026-01-20 10:56:00.64	338.17	9.97	-29.0	-31.3	13.1	2.44e-05	0	45	0	2126512128	18	4651
2026-01-20 10:56:03.65	338.27	9.72	-29.2	-31.6	12.9	4.57e-05	0	45	0	2134900736	18	4776
2026-01-20 10:56:06.66	338.38	9.47	-29.4	-31.7	12.5	8.08e-05	0	45	0	2144337920	19	4687
2026-01-20 10:56:09.67	338.48	9.22	-29.3	-31.3	12.7	7.01e-05	0	45	0	2153775104	19	4569
2026-01-20 10:56:12.68	338.57	8.97	-29.4	-31.7	12.5	1.30e-04	0	45	0	2163212288	19	4680
2026-01-20 10:56:15.70	338.67	8.73	-29.0	-30.6	13.1	6.02e-05	0	45	0	2172649472	19	4349
2026-01-20 10:56:18.71	338.77	8.48	-29.2	-31.1	12.8	8.01e-05	0	45	0	2182086656	19	4490
2026-01-20 10:56:21.73	338.86	8.24	-29.4	-31.8	12.4	9.46e-05	0	45	0	2191523840	19	4718
2026-01-20 10:56:24.74	338.96	8.01	-29.0	-30.8	12.9	4.19e-05	0	45	0	2200961024	19	4411
2026-01-20 10:56:27.75	339.05	7.77	-29.3	-31.5	12.4	1.09e-04	0	45	0	2210398208	19	4652
2026-01-20 10:56:30.76	339.14	7.54	-29.5	-31.9	12.2	4.16e-04	0	45	0	2219835392	19	4775
2026-01-20 10:56:33.78	339.23	7.31	-29.7	-32.5	11.7	6.22e-04	0	45	0	2229272576	19	4988
2026-01-20 10:56:36.79	339.32	7.08	-33.5	-45.6	3.8	1.32e+00	0	45	104	2237661184	26	14495
2026-01-20 10:56:39.79	339.40	6.85	-34.1	-46.0	3.8	1.49e+00	0	45	104	2237661184	28	14188

#Closed at: 2026-01-20 10:56:39
#Recorded file [2237 MB]: D:/data/31010_260120_134440.dat