passes_logs/2026/01/20/R2M6_AANII_01/R2M6_AANII_01__20260120_021901_AQUA_rec.log

#Pass ID: 20260120_021901_AQUA
#Satellite: AQUA
#Configuration: AQUA
#almurnet v.1.7.20240730
#Start time: 2026-01-20 02:19:02

#Version: 2.2.20231116
#Station: R2M6_AANII_01
#Location: 30.233357 lon 59.946436 lat
#TLE: 1 27424U 02022A   26019.27629806  .00001032  00000+0  21655-3 0  9990
#TLE: 2 27424  98.4090 345.7756 0001997  73.0764  31.8912 14.61830109261513

#Time	Az	El	Level	Level2	SNR	BER	BlckErr	Temp	State	Recorded	gain1	gain2
2026-01-20 02:19:02.00	15.40	7.06	-31.9	-46.4	3.8	7.45e-01	0	42	0	0	24	19053
2026-01-20 02:19:05.01	15.35	7.31	-31.8	-46.1	3.8	7.45e-01	0	42	104	0	24	18605
2026-01-20 02:19:08.03	15.30	7.55	-31.6	-45.3	3.8	7.43e-01	0	42	104	0	24	17464
2026-01-20 02:19:11.04	15.25	7.80	-31.2	-44.5	3.8	7.43e-01	0	42	104	0	23	16639
2026-01-20 02:19:14.04	15.19	8.06	-30.9	-44.2	3.8	7.41e-01	0	42	104	0	22	16649
2026-01-20 02:19:17.06	15.14	8.31	-30.9	-44.1	3.8	7.44e-01	0	42	104	0	22	16508
2026-01-20 02:19:20.06	15.08	8.57	-31.1	-44.7	3.8	7.43e-01	0	42	104	0	22	17244
2026-01-20 02:19:23.06	15.03	8.83	-31.4	-45.1	3.8	7.47e-01	0	42	104	0	23	17403
2026-01-20 02:19:26.07	14.97	9.10	-31.8	-45.9	3.8	7.43e-01	0	42	104	0	24	18251
2026-01-20 02:19:29.08	14.91	9.37	-32.4	-47.5	3.8	7.44e-01	0	42	104	0	25	20477
2026-01-20 02:19:32.08	14.85	9.64	-33.0	-49.4	3.8	7.45e-01	0	42	104	0	26	23665
2026-01-20 02:19:35.09	14.78	9.92	-33.3	-50.1	3.8	7.44e-01	0	43	104	0	27	24842
2026-01-20 02:19:38.09	14.72	10.19	-33.3	-50.3	3.8	7.44e-01	0	43	104	0	27	25317
2026-01-20 02:19:41.10	14.65	10.47	-33.3	-50.1	3.8	7.43e-01	0	43	104	0	27	24830
2026-01-20 02:19:44.12	14.59	10.76	-33.2	-49.4	3.8	7.45e-01	0	43	104	0	27	23265
2026-01-20 02:19:47.13	14.52	11.05	-32.8	-48.3	3.8	7.44e-01	0	43	104	0	26	21423
2026-01-20 02:19:50.14	14.44	11.34	-32.2	-46.6	3.8	7.43e-01	0	43	104	0	25	18860
2026-01-20 02:19:53.15	14.37	11.64	-31.5	-44.6	3.8	7.43e-01	0	43	104	0	24	16325
2026-01-20 02:19:56.17	14.30	11.94	-30.8	-43.6	3.8	7.43e-01	0	43	104	0	22	15847
2026-01-20 02:19:59.16	14.22	12.25	-30.6	-43.2	3.8	7.47e-01	0	43	104	0	22	15372
2026-01-20 02:20:02.17	14.14	12.56	-30.4	-43.3	3.8	7.42e-01	0	43	104	0	21	15785
2026-01-20 02:20:05.17	14.06	12.87	-30.5	-43.5	3.8	7.47e-01	0	43	104	0	21	16041
2026-01-20 02:20:08.18	13.98	13.19	-30.4	-43.1	3.8	7.45e-01	0	43	104	0	21	15580
2026-01-20 02:20:11.20	13.89	13.51	-30.8	-43.8	3.8	7.46e-01	0	43	104	0	22	15955
2026-01-20 02:20:14.22	13.80	13.84	-30.4	-44.0	3.8	7.43e-01	0	43	104	0	22	17252
2026-01-20 02:20:17.23	13.71	14.17	-32.4	-47.1	3.8	7.47e-01	0	43	104	0	25	19376
2026-01-20 02:20:20.23	13.62	14.51	-32.9	-48.4	3.8	7.43e-01	0	43	104	0	26	21270
2026-01-20 02:20:23.24	13.53	14.85	-33.4	-49.7	3.8	7.44e-01	0	43	104	0	27	23446
2026-01-20 02:20:26.24	13.43	15.20	-33.5	-50.1	3.8	7.44e-01	0	43	104	0	27	24307
2026-01-20 02:20:29.25	13.33	15.55	-33.4	-49.6	3.8	7.42e-01	0	43	104	0	27	23376
2026-01-20 02:20:32.24	13.23	15.91	-33.2	-48.7	3.8	7.42e-01	0	43	104	0	27	21522
2026-01-20 02:20:35.25	13.12	16.27	-32.7	-47.3	3.8	7.44e-01	0	43	104	0	26	19278
2026-01-20 02:20:38.27	13.01	16.65	-31.9	-45.8	3.8	7.44e-01	0	43	104	0	24	17794
2026-01-20 02:20:41.28	12.90	17.02	-31.3	-44.4	3.8	7.47e-01	0	43	104	0	23	16340
2026-01-20 02:20:44.30	12.78	17.41	-30.6	-43.0	3.8	7.44e-01	0	43	104	0	22	15053
2026-01-20 02:20:47.32	12.66	17.80	-30.4	-43.1	3.8	7.44e-01	0	43	104	0	21	15523
2026-01-20 02:20:50.32	12.54	18.20	-30.5	-43.3	3.8	7.43e-01	0	43	104	0	21	15702
2026-01-20 02:20:53.33	12.41	18.60	-30.6	-43.4	3.8	7.45e-01	0	44	104	0	21	15837
2026-01-20 02:20:56.35	12.28	19.01	-30.7	-43.2	3.8	7.47e-01	0	44	104	0	22	15207
2026-01-20 02:20:59.36	12.14	19.43	-30.8	-43.4	3.8	7.45e-01	0	44	104	0	22	15479
2026-01-20 02:21:02.38	12.00	19.86	-31.6	-44.7	3.8	7.42e-01	0	44	104	0	24	16314
2026-01-20 02:21:05.38	11.86	20.29	-32.7	-46.9	3.8	7.46e-01	0	44	104	0	26	18571
2026-01-20 02:21:08.40	11.71	20.74	-33.4	-49.0	3.8	7.42e-01	0	44	104	0	27	21758
2026-01-20 02:21:11.40	11.55	21.19	-33.5	-49.3	3.8	7.44e-01	0	44	104	0	28	22071
2026-01-20 02:21:14.42	11.39	21.65	-33.7	-49.8	3.8	7.45e-01	0	44	104	0	28	23206
2026-01-20 02:21:17.44	11.23	22.12	-33.5	-49.0	3.8	7.46e-01	0	44	104	0	28	21571
2026-01-20 02:21:20.46	11.06	22.60	-33.4	-48.7	3.8	7.46e-01	0	44	104	0	28	20962
2026-01-20 02:21:23.47	10.88	23.09	-32.8	-46.7	3.8	7.45e-01	0	44	104	0	27	17978
2026-01-20 02:21:26.47	10.70	23.59	-32.0	-45.2	3.8	7.42e-01	0	44	104	0	25	16451
2026-01-20 02:21:29.49	10.51	24.10	-31.3	-43.8	3.8	7.46e-01	0	44	104	0	24	15198
2026-01-20 02:21:32.50	10.31	24.62	-31.1	-43.8	3.8	7.42e-01	0	43	104	0	23	15440
2026-01-20 02:21:35.51	10.11	25.15	-30.6	-43.0	3.8	7.40e-01	0	44	104	0	22	14937
2026-01-20 02:21:38.51	9.90	25.69	-30.8	-43.5	3.8	7.44e-01	0	44	104	0	22	15511
2026-01-20 02:21:41.52	9.68	26.24	-30.9	-43.6	3.8	7.45e-01	0	44	104	0	22	15646
2026-01-20 02:21:44.54	9.45	26.81	-30.0	-43.6	3.8	7.45e-01	0	44	104	0	22	17206
2026-01-20 02:21:47.55	9.21	27.39	-25.8	-42.8	3.8	7.45e-01	0	44	104	0	13	25516
2026-01-20 02:21:50.56	8.96	27.98	-29.2	-44.3	3.8	7.45e-01	0	44	104	0	19	20638
2026-01-20 02:21:53.58	8.70	28.58	-30.7	-46.4	3.8	7.45e-01	0	44	104	0	22	21963
2026-01-20 02:21:56.59	8.43	29.20	-33.1	-48.3	3.8	7.47e-01	0	44	104	0	27	20535
2026-01-20 02:21:59.60	8.15	29.84	-33.3	-48.4	3.8	7.45e-01	0	44	104	0	27	20446
2026-01-20 02:22:02.61	7.86	30.48	-33.6	-49.1	3.8	7.43e-01	0	44	104	0	28	21457
2026-01-20 02:22:05.62	7.56	31.14	-33.4	-48.7	3.7	7.46e-01	0	44	104	0	27	21180
2026-01-20 02:22:08.63	7.24	31.82	-33.1	-47.9	3.8	7.48e-01	0	44	104	0	26	19844
2026-01-20 02:22:11.64	6.91	32.52	-32.7	-46.6	3.8	7.45e-01	0	44	104	0	26	17950
2026-01-20 02:22:14.65	6.56	33.23	-31.6	-44.4	3.8	7.43e-01	0	44	104	0	24	15812
2026-01-20 02:22:17.66	6.19	33.95	-31.2	-43.8	3.8	7.47e-01	0	44	104	0	23	15379
2026-01-20 02:22:20.67	5.81	34.70	-31.4	-44.4	3.8	7.43e-01	0	44	104	0	23	16099
2026-01-20 02:22:23.67	5.41	35.46	-30.9	-43.6	3.8	7.45e-01	0	44	104	0	22	15479
2026-01-20 02:22:26.68	4.98	36.24	-31.1	-43.8	3.8	7.42e-01	0	44	104	0	23	15444
2026-01-20 02:22:29.69	4.54	37.03	-31.6	-44.7	3.8	7.47e-01	0	44	104	0	23	16415
2026-01-20 02:22:32.70	4.07	37.85	-32.4	-46.1	3.8	7.46e-01	0	44	104	0	25	17464
2026-01-20 02:22:35.70	3.58	38.69	-33.0	-47.2	3.8	7.47e-01	0	44	104	0	27	18302
2026-01-20 02:22:38.72	3.05	39.55	-32.7	-46.5	3.8	7.46e-01	0	44	104	0	26	17665
2026-01-20 02:22:41.73	2.50	40.42	-33.4	-48.5	3.8	7.45e-01	0	44	104	0	27	20348
2026-01-20 02:22:44.75	1.91	41.32	-33.7	-49.3	3.8	7.44e-01	0	44	104	0	28	21718
2026-01-20 02:22:47.76	1.29	42.24	-33.1	-47.1	3.8	7.44e-01	0	44	104	0	27	18232
2026-01-20 02:22:50.76	0.64	43.17	-33.3	-48.1	3.8	7.46e-01	0	44	104	0	27	19613
2026-01-20 02:22:53.78	359.94	44.13	-33.7	-49.2	3.8	7.43e-01	0	44	104	0	28	21408
2026-01-20 02:22:56.80	359.19	45.12	-33.1	-47.4	3.8	7.45e-01	0	44	104	0	27	18590
2026-01-20 02:22:59.81	358.40	46.11	-33.5	-48.4	3.8	7.43e-01	0	44	104	0	27	20050
2026-01-20 02:23:02.82	357.55	47.13	-32.4	-45.5	3.8	7.45e-01	0	44	104	0	26	16300
2026-01-20 02:23:05.81	356.65	48.16	-31.8	-45.0	3.8	7.45e-01	0	44	104	0	24	16362
2026-01-20 02:23:08.81	355.68	49.21	-31.9	-45.1	3.8	7.44e-01	0	44	104	0	24	16496
2026-01-20 02:23:11.83	354.64	50.29	-31.3	-44.1	3.8	7.46e-01	0	44	104	0	23	15634
2026-01-20 02:23:14.85	353.51	51.38	-30.7	-43.0	3.8	7.43e-01	0	44	104	0	22	14812
2026-01-20 02:23:17.86	352.31	52.48	-30.8	-43.2	3.8	7.43e-01	0	44	104	0	22	14999
2026-01-20 02:23:20.86	351.01	53.59	-31.2	-43.8	3.8	7.45e-01	0	44	104	0	23	15331
2026-01-20 02:23:23.86	349.60	54.71	-32.7	-46.4	3.8	7.49e-01	0	44	104	0	26	17377
2026-01-20 02:23:26.86	348.08	55.84	-32.8	-46.4	3.8	7.47e-01	0	44	104	0	27	17188
2026-01-20 02:23:29.86	346.43	56.97	-32.9	-47.2	3.8	7.42e-01	0	44	104	0	26	18545
2026-01-20 02:23:32.87	344.62	58.10	-33.4	-47.7	3.8	7.38e-01	0	44	104	0	28	18678
2026-01-20 02:23:35.88	342.66	59.22	-32.3	-45.2	3.8	7.46e-01	0	44	104	0	26	15842
2026-01-20 02:23:38.88	340.53	60.33	-32.4	-45.8	3.8	7.43e-01	0	44	104	0	25	16930
2026-01-20 02:23:41.90	338.19	61.43	-33.3	-48.0	3.8	7.46e-01	0	44	104	0	27	19420
2026-01-20 02:23:44.91	335.64	62.50	-33.6	-48.6	3.8	7.46e-01	0	44	104	0	28	20360
2026-01-20 02:23:47.93	332.84	63.53	-33.6	-48.6	3.8	7.49e-01	0	44	104	0	28	20264
2026-01-20 02:23:50.95	329.80	64.52	-34.0	-49.9	3.8	7.46e-01	0	44	104	0	28	22478
2026-01-20 02:23:53.97	326.48	65.45	-33.4	-48.1	3.8	7.47e-01	0	44	104	0	27	19585
2026-01-20 02:23:56.97	322.91	66.30	-33.1	-47.1	3.8	7.43e-01	0	44	104	0	27	18004
2026-01-20 02:23:59.99	319.03	67.08	-33.0	-39.0	5.4	7.09e-01	0	44	104	0	26	7205
2026-01-20 02:24:03.00	314.88	67.76	-33.1	-38.3	14.7	6.00e-01	0	44	0	2621440	27	6553
2026-01-20 02:24:06.00	310.48	68.33	-33.0	-37.9	15.0	6.01e-01	0	44	0	8388608	27	6331
2026-01-20 02:24:09.01	305.83	68.78	-33.0	-38.4	15.0	6.02e-01	0	44	0	13631488	26	6716
2026-01-20 02:24:12.00	301.04	69.09	-32.7	-37.0	15.6	6.01e-01	0	44	0	19398656	27	5873
2026-01-20 02:24:15.02	296.07	69.26	-32.5	-37.1	16.2	5.99e-01	0	44	0	25165824	25	6164
2026-01-20 02:24:18.03	291.07	69.29	-32.7	-37.5	15.6	6.02e-01	0	44	0	30932992	26	6255
2026-01-20 02:24:21.03	286.10	69.17	-32.7	-37.4	15.6	6.02e-01	0	44	0	36175872	26	6224
2026-01-20 02:24:24.03	281.24	68.91	-32.2	-36.5	16.5	6.05e-01	0	44	0	41943040	25	5897
2026-01-20 02:24:27.04	276.51	68.51	-32.4	-37.1	16.2	5.99e-01	0	44	0	47710208	25	6172
2026-01-20 02:24:30.04	272.02	67.99	-32.7	-37.5	15.4	6.02e-01	0	44	0	52953088	26	6285
2026-01-20 02:24:33.04	267.78	67.35	-32.8	-37.9	15.3	6.00e-01	0	44	0	58720256	26	6446
2026-01-20 02:24:36.05	263.80	66.61	-32.8	-37.9	15.1	6.01e-01	0	44	0	64487424	26	6476
2026-01-20 02:24:39.07	260.09	65.78	-32.6	-37.3	15.6	6.02e-01	0	44	0	70254592	26	6188
2026-01-20 02:24:42.08	256.67	64.88	-32.8	-37.9	15.2	6.01e-01	0	44	0	76021760	26	6470
2026-01-20 02:24:45.07	253.55	63.92	-32.8	-38.1	15.0	6.02e-01	0	44	0	81264640	26	6571
2026-01-20 02:24:48.07	250.68	62.90	-32.1	-36.0	16.8	6.04e-01	0	44	0	87031808	25	5686
2026-01-20 02:24:51.08	248.03	61.85	-31.6	-35.1	17.7	6.00e-01	0	44	0	92798976	24	5396
2026-01-20 02:24:54.10	245.60	60.76	-31.3	-34.4	18.2	6.00e-01	0	44	0	98566144	24	5118
2026-01-20 02:24:57.10	243.39	59.65	-31.5	-35.3	17.9	6.00e-01	0	44	0	103809024	23	5624
2026-01-20 02:25:00.10	241.36	58.53	-30.9	-34.3	18.9	6.03e-01	0	44	0	109576192	22	5308
2026-01-20 02:25:03.11	239.50	57.40	-30.6	-33.5	19.1	6.00e-01	0	44	0	115343360	22	5027
2026-01-20 02:25:06.11	237.79	56.27	-30.6	-33.6	19.2	6.01e-01	0	44	0	121110528	22	5063
2026-01-20 02:25:09.13	236.20	55.13	-29.4	-31.5	21.0	5.98e-01	0	44	0	126353408	20	4562
2026-01-20 02:25:12.14	234.74	54.00	-29.3	-31.8	21.1	6.00e-01	0	44	0	132120576	19	4798
2026-01-20 02:25:15.15	233.40	52.88	-29.4	-31.9	21.0	5.99e-01	0	44	0	137887744	19	4830
2026-01-20 02:25:18.16	232.15	51.77	-29.2	-31.5	21.3	6.00e-01	0	44	0	143654912	19	4703
2026-01-20 02:25:21.17	231.00	50.67	-29.5	-31.9	20.7	6.02e-01	0	44	0	148897792	20	4711
2026-01-20 02:25:24.17	229.93	49.59	-29.5	-31.8	20.8	6.00e-01	0	44	0	154664960	20	4686
2026-01-20 02:25:27.18	228.93	48.53	-29.9	-32.9	20.1	6.01e-01	0	44	0	160432128	20	5068
2026-01-20 02:25:30.19	227.99	47.48	-29.8	-32.6	20.3	6.04e-01	0	44	0	166199296	20	4961
2026-01-20 02:25:33.19	227.13	46.45	-30.1	-32.8	19.8	6.03e-01	0	44	0	171442176	21	4922
2026-01-20 02:25:36.18	226.32	45.45	-29.7	-31.9	20.4	6.04e-01	0	44	0	177209344	21	4606
2026-01-20 02:25:39.18	225.55	44.46	-29.8	-32.0	20.3	5.99e-01	0	44	0	182976512	21	4643
2026-01-20 02:25:42.17	224.84	43.50	-30.1	-33.0	19.7	6.01e-01	0	44	0	188219392	21	4974
2026-01-20 02:25:45.18	224.17	42.55	-30.1	-32.7	19.9	6.01e-01	0	44	0	193986560	21	4885
2026-01-20 02:25:48.19	223.53	41.62	-30.5	-34.0	19.1	6.03e-01	0	44	0	199753728	21	5362
2026-01-20 02:25:51.19	222.93	40.72	-30.7	-33.8	18.9	6.01e-01	0	44	0	205520896	22	5172
2026-01-20 02:25:54.20	222.37	39.83	-30.7	-33.8	18.9	5.99e-01	0	44	0	211288064	22	5152
2026-01-20 02:25:57.21	221.83	38.96	-31.0	-34.7	18.4	6.00e-01	0	44	0	216530944	22	5506
2026-01-20 02:26:00.22	221.32	38.12	-30.8	-33.6	18.7	6.01e-01	0	44	0	222298112	23	4978
2026-01-20 02:26:03.23	220.84	37.29	-31.0	-34.3	18.3	6.02e-01	0	44	0	228065280	23	5252
2026-01-20 02:26:06.24	220.39	36.48	-30.7	-33.4	18.8	6.00e-01	0	44	0	233308160	23	4915
2026-01-20 02:26:09.25	219.95	35.69	-30.5	-33.0	19.1	6.00e-01	0	44	0	239075328	23	4763
2026-01-20 02:26:12.25	219.54	34.92	-30.3	-32.7	19.5	6.03e-01	0	44	0	244842496	22	4786
2026-01-20 02:26:15.26	219.15	34.16	-30.1	-32.3	19.7	6.02e-01	0	44	0	250609664	22	4656
2026-01-20 02:26:18.27	218.77	33.43	-29.9	-32.3	20.1	6.01e-01	0	44	0	256376832	21	4733
2026-01-20 02:26:21.27	218.42	32.71	-29.9	-32.3	20.0	6.04e-01	0	44	0	261619712	21	4750
2026-01-20 02:26:24.27	218.08	32.01	-29.7	-31.9	20.3	5.98e-01	0	44	0	267386880	21	4614
2026-01-20 02:26:27.28	217.75	31.32	-29.5	-31.2	20.6	5.99e-01	0	44	0	273154048	21	4418
2026-01-20 02:26:30.28	217.44	30.66	-29.5	-31.8	20.5	6.05e-01	0	44	0	278396928	20	4718
2026-01-20 02:26:33.29	217.14	30.00	-29.7	-32.4	20.2	6.02e-01	0	44	0	284164096	20	4904
2026-01-20 02:26:36.29	216.86	29.36	-29.6	-32.1	20.4	6.00e-01	0	44	0	289931264	20	4804
2026-01-20 02:26:39.29	216.58	28.74	-29.6	-32.1	20.4	6.01e-01	0	44	0	295698432	20	4792
2026-01-20 02:26:42.28	216.32	28.13	-29.5	-32.0	20.4	6.01e-01	0	44	0	300941312	20	4781
2026-01-20 02:26:45.29	216.07	27.53	-29.5	-32.0	20.3	6.00e-01	0	44	0	306708480	20	4777
2026-01-20 02:26:48.30	215.82	26.95	-29.7	-32.4	20.1	5.99e-01	0	44	0	312475648	20	4915
2026-01-20 02:26:51.31	215.59	26.37	-29.9	-32.9	19.9	6.00e-01	0	44	0	318242816	20	5083
2026-01-20 02:26:54.31	215.37	25.81	-30.0	-33.2	19.7	6.02e-01	0	44	0	323485696	20	5194
2026-01-20 02:26:57.32	215.15	25.27	-30.4	-33.7	18.9	5.99e-01	0	44	0	329252864	21	5289
2026-01-20 02:27:00.32	214.94	24.73	-30.2	-33.3	19.2	6.01e-01	0	44	0	335020032	21	5150
2026-01-20 02:27:03.32	214.74	24.21	-30.2	-33.3	19.2	6.01e-01	0	44	0	340787200	21	5126
2026-01-20 02:27:06.34	214.55	23.69	-30.0	-32.9	19.4	6.01e-01	0	44	0	346030080	21	4988
2026-01-20 02:27:09.35	214.36	23.18	-30.0	-33.2	19.5	6.00e-01	0	44	0	351797248	20	5217
2026-01-20 02:27:12.36	214.18	22.69	-30.1	-33.4	19.4	5.99e-01	0	44	0	357564416	20	5290
2026-01-20 02:27:15.37	214.00	22.21	-30.2	-33.3	19.1	6.03e-01	0	44	0	363331584	21	5152
2026-01-20 02:27:18.38	213.83	21.73	-30.1	-33.1	19.3	6.00e-01	0	44	0	368574464	21	5056
2026-01-20 02:27:21.40	213.67	21.26	-30.3	-33.5	19.0	5.99e-01	0	44	0	374341632	21	5206
2026-01-20 02:27:24.41	213.51	20.81	-30.2	-33.4	19.1	6.00e-01	0	44	0	380108800	21	5166
2026-01-20 02:27:27.42	213.36	20.36	-30.4	-33.8	18.7	6.02e-01	0	44	0	385875968	21	5359
2026-01-20 02:27:30.42	213.21	19.92	-30.1	-33.1	19.2	5.98e-01	0	44	0	391643136	21	5069
2026-01-20 02:27:33.43	213.07	19.49	-30.2	-33.4	18.9	6.00e-01	0	44	0	396886016	21	5212
2026-01-20 02:27:36.44	212.93	19.07	-30.1	-33.6	19.2	5.99e-01	0	44	0	402653184	20	5369
2026-01-20 02:27:39.45	212.79	18.65	-30.1	-33.6	18.7	6.02e-01	0	44	0	408420352	20	5350
2026-01-20 02:27:42.46	212.66	18.24	-30.2	-33.4	17.8	6.04e-01	0	44	0	414187520	21	5182
2026-01-20 02:27:45.47	212.53	17.84	-30.1	-33.5	17.7	6.01e-01	0	44	0	419430400	20	5365
2026-01-20 02:27:48.48	212.41	17.44	-30.3	-33.5	18.7	6.00e-01	0	44	0	425197568	21	5260
2026-01-20 02:27:51.48	212.29	17.06	-30.2	-33.6	18.7	6.04e-01	0	44	0	430964736	21	5279
2026-01-20 02:27:54.50	212.17	16.68	-30.2	-33.5	18.7	5.99e-01	0	44	0	436731904	21	5252
2026-01-20 02:27:57.52	212.06	16.30	-30.0	-33.3	19.1	5.99e-01	0	44	0	441974784	20	5302
2026-01-20 02:28:00.53	211.95	15.93	-30.2	-33.4	18.8	6.00e-01	0	44	0	447741952	21	5200
2026-01-20 02:28:03.53	211.85	15.57	-30.6	-34.6	18.0	5.99e-01	0	44	0	453509120	21	5728
2026-01-20 02:28:06.54	211.74	15.21	-30.6	-34.2	17.8	5.98e-01	0	44	0	459276288	22	5450
2026-01-20 02:28:09.53	211.64	14.86	-30.5	-34.5	18.0	6.02e-01	0	44	0	464519168	21	5662
2026-01-20 02:28:12.54	211.54	14.52	-30.1	-33.7	18.8	6.00e-01	0	44	0	470286336	20	5453
2026-01-20 02:28:15.56	211.45	14.18	-30.2	-33.4	18.6	6.02e-01	0	44	0	476053504	21	5242
2026-01-20 02:28:18.56	211.35	13.84	-30.0	-33.7	18.8	6.01e-01	0	44	0	481820672	20	5455
2026-01-20 02:28:21.57	211.26	13.51	-30.0	-33.6	18.8	5.97e-01	0	44	0	487063552	20	5413
2026-01-20 02:28:24.57	211.17	13.19	-30.3	-34.0	18.2	5.99e-01	0	44	0	492830720	21	5482
2026-01-20 02:28:27.59	211.09	12.86	-29.9	-33.4	18.9	5.97e-01	0	44	0	498597888	20	5367
2026-01-20 02:28:30.61	211.00	12.55	-30.2	-33.5	18.5	6.00e-01	0	44	0	504365056	21	5295
2026-01-20 02:28:33.61	210.92	12.23	-30.2	-33.5	18.4	6.00e-01	0	44	0	510132224	21	5318
2026-01-20 02:28:36.61	210.84	11.93	-30.3	-33.8	18.2	6.01e-01	0	44	0	515375104	21	5434
2026-01-20 02:28:39.61	210.76	11.63	-30.3	-34.0	18.1	6.01e-01	0	44	0	521142272	21	5488
2026-01-20 02:28:42.61	210.69	11.33	-30.3	-33.9	18.1	6.01e-01	0	44	0	526909440	21	5465
2026-01-20 02:28:45.63	210.61	11.03	-30.3	-33.8	18.2	6.01e-01	0	44	0	532676608	21	5429
2026-01-20 02:28:48.64	210.54	10.74	-30.2	-33.6	18.3	6.01e-01	0	44	0	537919488	21	5328
2026-01-20 02:28:51.64	210.47	10.45	-30.1	-33.8	18.4	6.01e-01	0	44	0	543686656	20	5528
2026-01-20 02:28:54.65	210.40	10.17	-30.2	-33.7	18.1	6.02e-01	0	44	0	549453824	21	5395
2026-01-20 02:28:57.66	210.33	9.89	-30.3	-33.9	18.0	6.02e-01	0	44	0	555220992	21	5458
2026-01-20 02:29:00.65	210.27	9.61	-30.3	-34.0	17.9	6.02e-01	0	44	0	560463872	21	5500
2026-01-20 02:29:03.68	210.20	9.34	-30.3	-34.0	17.8	6.01e-01	0	44	0	566231040	21	5534
2026-01-20 02:29:06.68	210.14	9.07	-30.4	-34.4	17.6	6.02e-01	0	44	0	571998208	21	5680
2026-01-20 02:29:09.68	210.08	8.80	-30.5	-34.5	17.5	5.99e-01	0	44	0	577765376	21	5743
2026-01-20 02:29:12.68	210.02	8.54	-30.6	-34.8	17.2	5.98e-01	0	44	0	583008256	21	5885
2026-01-20 02:29:15.70	209.96	8.27	-30.4	-34.5	17.4	6.03e-01	0	44	0	588775424	21	5746
2026-01-20 02:29:18.70	209.90	8.02	-30.6	-34.9	17.1	5.99e-01	0	44	0	594542592	21	5915
2026-01-20 02:29:21.72	209.85	7.76	-30.5	-34.8	17.1	6.01e-01	0	44	0	600309760	21	5897
2026-01-20 02:29:24.72	209.79	7.51	-30.7	-34.7	16.9	5.99e-01	0	44	0	605552640	22	5744
2026-01-20 02:29:27.72	209.74	7.26	-30.6	-34.5	16.9	6.02e-01	0	44	0	611319808	22	5668
2026-01-20 02:29:30.72	209.69	7.01	-33.8	-53.0	3.8	7.46e-01	0	44	104	614465536	28	33157

#Closed at: 2026-01-20 02:29:33
#Recorded file [614 MB]: D:/data/31010_260120_052401.dat