passes_logs/2026/01/20/R2M6_AANII_01/R2M6_AANII_01__20260120_225254_NOAA_21_JPSS-2_rec.log

#Pass ID: 20260120_225254_NOAA 21 (JPSS-2)
#Satellite: NOAA 21 (JPSS-2)
#Configuration: NOAA 21
#almurnet v.1.7.20240730
#Start time: 2026-01-20 22:52:56

#Version: 2.2.20231116
#Station: R2M6_AANII_01
#Location: 30.233357 lon 59.946436 lat
#TLE: 1 54234U 22150A   26020.29910383  .00000141  00000+0  87571-4 0  9990
#TLE: 2 54234  98.7506 321.1348 0000615 250.8428 109.2682 14.19536295165564

#Time	Az	El	Level	Level2	SNR	BER	BlckErr	Temp	State	Recorded	gain1	gain2
2026-01-20 22:52:56.64	28.51	7.12	-31.3	-36.9	4.5	1.40e+00	0	42	0	0	22	6810
2026-01-20 22:52:59.65	28.77	7.31	-32.0	-37.6	6.3	2.80e-01	0	42	0	3145728	24	6862
2026-01-20 22:53:02.66	29.03	7.51	-31.0	-35.0	8.9	4.04e-02	0	42	0	12582912	22	5688
2026-01-20 22:53:05.67	29.30	7.71	-30.4	-34.0	10.3	4.79e-03	0	42	0	22020096	20	5447
2026-01-20 22:53:08.68	29.57	7.91	-30.0	-32.9	11.1	1.95e-03	0	42	0	30408704	20	5023
2026-01-20 22:53:11.68	29.84	8.11	-30.1	-33.1	11.0	2.15e-03	0	42	0	39845888	20	5123
2026-01-20 22:53:14.69	30.12	8.31	-30.2	-33.3	10.8	2.44e-03	0	43	0	49283072	20	5177
2026-01-20 22:53:17.69	30.40	8.52	-29.7	-32.5	11.9	4.24e-04	0	43	0	58720256	19	4956
2026-01-20 22:53:20.71	30.69	8.72	-29.7	-32.1	11.6	6.47e-04	0	43	0	68157440	20	4751
2026-01-20 22:53:23.72	30.98	8.93	-29.8	-32.8	11.7	5.24e-04	0	43	0	77594624	19	5062
2026-01-20 22:53:26.72	31.27	9.13	-29.8	-32.4	11.5	1.02e-03	0	43	0	87031808	20	4856
2026-01-20 22:53:29.73	31.56	9.34	-29.7	-32.4	11.9	3.77e-04	0	43	0	96468992	19	4947
2026-01-20 22:53:32.74	31.87	9.55	-29.2	-31.8	12.7	6.25e-05	0	43	0	105906176	18	4837
2026-01-20 22:53:35.76	32.17	9.76	-29.1	-31.4	12.9	5.11e-05	0	43	0	115343360	18	4714
2026-01-20 22:53:38.77	32.48	9.97	-29.0	-31.2	13.1	2.74e-05	0	43	0	124780544	18	4641
2026-01-20 22:53:41.78	32.79	10.18	-29.0	-31.3	13.1	2.67e-05	0	43	0	134217728	18	4654
2026-01-20 22:53:44.79	33.11	10.40	-28.7	-31.1	13.5	9.10e-06	0	43	0	143654912	17	4708
2026-01-20 22:53:47.81	33.44	10.61	-28.6	-30.6	13.8	5.30e-06	0	43	0	153092096	17	4576
2026-01-20 22:53:50.82	33.76	10.83	-28.4	-30.3	13.9	3.00e-06	0	43	0	162529280	17	4468
2026-01-20 22:53:53.83	34.09	11.04	-28.5	-30.5	13.9	2.20e-06	0	43	0	171966464	17	4517
2026-01-20 22:53:56.84	34.43	11.26	-28.5	-30.4	14.0	3.00e-06	0	44	0	181403648	17	4498
2026-01-20 22:53:59.85	34.77	11.48	-28.4	-30.3	14.0	0.00e+00	0	43	0	190840832	17	4469
2026-01-20 22:54:02.84	35.12	11.70	-28.2	-29.8	14.3	0.00e+00	0	43	0	200278016	17	4321
2026-01-20 22:54:05.85	35.47	11.92	-28.3	-30.0	14.2	0.00e+00	0	43	0	209715200	17	4368
2026-01-20 22:54:08.87	35.82	12.14	-28.5	-30.5	13.9	7.00e-07	0	44	0	219152384	17	4538
2026-01-20 22:54:11.88	36.19	12.37	-28.3	-30.1	14.2	3.00e-06	0	44	0	228589568	17	4390
2026-01-20 22:54:14.90	36.55	12.59	-28.3	-30.0	14.3	0.00e+00	0	44	0	238026752	17	4358
2026-01-20 22:54:17.90	36.93	12.82	-28.2	-29.6	14.5	1.50e-06	0	44	0	247463936	17	4266
2026-01-20 22:54:20.90	37.30	13.04	-28.2	-29.6	14.5	0.00e+00	0	44	0	256901120	17	4262
2026-01-20 22:54:23.91	37.69	13.27	-28.3	-29.9	14.4	7.00e-07	0	44	0	266338304	17	4345
2026-01-20 22:54:26.91	38.07	13.50	-28.2	-29.8	14.5	0.00e+00	0	44	0	275775488	17	4305
2026-01-20 22:54:29.92	38.47	13.72	-28.1	-29.6	14.6	0.00e+00	0	43	0	285212672	17	4242
2026-01-20 22:54:32.92	38.87	13.95	-28.2	-29.8	14.5	0.00e+00	0	44	0	294649856	17	4290
2026-01-20 22:54:35.93	39.27	14.18	-28.4	-30.3	14.2	7.00e-07	0	44	0	303038464	17	4439
2026-01-20 22:54:38.92	39.68	14.41	-28.3	-29.9	14.5	7.00e-07	0	44	0	312475648	17	4318
2026-01-20 22:54:41.95	40.11	14.65	-28.2	-30.1	14.6	7.00e-07	0	44	0	322961408	16	4511
2026-01-20 22:54:44.96	40.53	14.88	-28.4	-30.6	14.3	1.50e-06	0	44	0	331350016	16	4669
2026-01-20 22:54:47.97	40.96	15.12	-28.6	-30.5	14.1	7.00e-07	0	44	0	340787200	17	4510
2026-01-20 22:54:50.98	41.40	15.35	-28.4	-30.3	14.3	7.00e-07	0	44	0	350224384	17	4436
2026-01-20 22:54:53.98	41.85	15.59	-28.5	-30.4	14.2	7.00e-07	0	44	0	359661568	17	4487
2026-01-20 22:54:57.00	42.30	15.82	-28.7	-31.0	13.9	4.50e-06	0	44	0	369098752	17	4648
2026-01-20 22:55:00.01	42.76	16.06	-28.6	-30.7	14.1	1.50e-06	0	44	0	378535936	17	4577
2026-01-20 22:55:03.02	43.23	16.30	-28.6	-30.7	14.1	3.00e-06	0	44	0	387973120	17	4551
2026-01-20 22:55:06.03	43.70	16.54	-28.4	-30.1	14.4	0.00e+00	0	44	0	397410304	17	4388
2026-01-20 22:55:09.03	44.18	16.77	-28.6	-30.5	14.2	7.00e-07	0	44	0	406847488	17	4504
2026-01-20 22:55:12.05	44.67	17.01	-28.8	-31.1	13.9	2.20e-06	0	44	0	416284672	17	4682
2026-01-20 22:55:15.05	45.17	17.25	-28.9	-31.2	13.8	3.00e-06	0	44	0	425721856	17	4717
2026-01-20 22:55:18.06	45.67	17.49	-28.6	-30.5	14.3	7.00e-07	0	44	0	435159040	17	4493
2026-01-20 22:55:21.06	46.18	17.73	-28.6	-30.6	14.2	0.00e+00	0	44	0	444596224	17	4532
2026-01-20 22:55:24.06	46.70	17.97	-28.8	-31.0	14.0	4.50e-06	0	44	0	454033408	17	4662
2026-01-20 22:55:27.08	47.23	18.21	-28.6	-30.6	14.2	1.50e-06	0	44	0	463470592	17	4519
2026-01-20 22:55:30.09	47.76	18.45	-28.5	-30.4	14.4	0.00e+00	0	44	0	472907776	17	4454
2026-01-20 22:55:33.10	48.31	18.69	-28.5	-30.4	14.4	7.00e-07	0	44	0	482344960	17	4474
2026-01-20 22:55:36.10	48.86	18.93	-28.6	-30.5	14.3	7.00e-07	0	44	0	491782144	17	4496
2026-01-20 22:55:39.10	49.42	19.17	-28.4	-30.1	14.6	7.00e-07	0	44	0	501219328	17	4370
2026-01-20 22:55:42.12	49.99	19.41	-28.3	-29.9	14.6	7.00e-07	0	44	0	510656512	17	4304
2026-01-20 22:55:45.12	50.57	19.65	-28.3	-29.8	14.7	7.00e-07	0	44	0	520093696	17	4278
2026-01-20 22:55:48.14	51.16	19.89	-28.1	-29.3	15.0	3.28e-05	0	44	0	529530880	17	4144
2026-01-20 22:55:51.14	51.75	20.13	-28.2	-29.7	14.9	0.00e+00	0	44	0	538968064	17	4261
2026-01-20 22:55:54.14	52.35	20.36	-27.8	-29.2	15.4	0.00e+00	0	44	0	548405248	16	4242
2026-01-20 22:55:57.15	52.97	20.60	-27.7	-29.6	15.3	0.00e+00	0	44	0	557842432	15	4455
2026-01-20 22:56:00.16	53.59	20.83	-28.2	-30.0	15.0	7.19e-04	0	44	0	567279616	16	4455
2026-01-20 22:56:03.16	54.23	21.07	-27.9	-29.3	15.4	5.56e-04	0	44	0	576716800	16	4258
2026-01-20 22:56:06.18	54.87	21.30	-27.8	-29.3	15.4	0.00e+00	0	44	0	585105408	16	4247
2026-01-20 22:56:09.18	55.52	21.53	-28.0	-29.5	15.2	1.27e-04	0	44	0	594542592	16	4320
2026-01-20 22:56:12.18	56.18	21.76	-27.7	-29.0	15.6	7.78e-05	0	44	0	603979776	16	4160
2026-01-20 22:56:15.20	56.85	21.99	-27.6	-28.8	15.6	6.86e-05	0	44	0	613416960	16	4122
2026-01-20 22:56:18.21	57.54	22.21	-27.5	-28.5	15.8	1.72e-04	0	44	0	622854144	16	4038
2026-01-20 22:56:21.22	58.23	22.43	-27.6	-28.7	15.8	2.04e-04	0	44	0	632291328	16	4082
2026-01-20 22:56:24.23	58.93	22.65	-27.7	-28.9	15.6	1.58e-04	0	44	0	641728512	16	4141
2026-01-20 22:56:27.24	59.64	22.87	-27.4	-28.7	15.9	0.00e+00	0	44	0	651165696	15	4208
2026-01-20 22:56:30.26	60.36	23.09	-27.5	-29.0	15.7	1.43e-04	0	44	0	660602880	15	4291
2026-01-20 22:56:33.26	61.09	23.30	-27.4	-28.8	15.8	0.00e+00	0	44	0	670040064	15	4223
2026-01-20 22:56:36.27	61.83	23.51	-27.4	-28.7	15.9	0.00e+00	0	44	0	679477248	15	4197
2026-01-20 22:56:39.28	62.58	23.72	-27.3	-29.1	16.0	0.00e+00	0	44	0	688914432	14	4415
2026-01-20 22:56:42.29	63.34	23.92	-27.5	-29.5	15.7	0.00e+00	0	44	0	698351616	14	4538
2026-01-20 22:56:45.30	64.11	24.12	-27.8	-29.7	15.3	0.00e+00	0	44	0	707788800	15	4492
2026-01-20 22:56:48.31	64.88	24.32	-27.7	-29.5	15.5	0.00e+00	0	44	0	717225984	15	4419
2026-01-20 22:56:51.30	65.67	24.51	-27.8	-29.7	15.3	0.00e+00	0	44	0	726663168	15	4479
2026-01-20 22:56:54.32	66.47	24.69	-28.2	-30.0	15.0	0.00e+00	0	44	0	736100352	16	4454
2026-01-20 22:56:57.34	67.28	24.88	-27.9	-29.4	15.4	0.00e+00	0	44	0	745537536	16	4276
2026-01-20 22:57:00.33	68.09	25.06	-27.9	-29.4	15.5	0.00e+00	0	44	0	754974720	16	4260
2026-01-20 22:57:03.32	68.91	25.23	-27.9	-29.5	15.4	0.00e+00	0	44	0	764411904	16	4294
2026-01-20 22:57:06.34	69.74	25.40	-27.8	-29.2	15.6	0.00e+00	0	44	0	773849088	16	4207
2026-01-20 22:57:09.34	70.58	25.56	-28.1	-29.8	15.2	0.00e+00	0	44	0	783286272	16	4376
2026-01-20 22:57:12.36	71.44	25.72	-28.0	-29.5	15.3	0.00e+00	0	45	0	792723456	16	4309
2026-01-20 22:57:15.37	72.30	25.87	-27.8	-29.3	15.6	0.00e+00	0	44	0	802160640	16	4235
2026-01-20 22:57:18.38	73.16	26.01	-27.7	-29.0	15.7	0.00e+00	0	44	0	811597824	16	4174
2026-01-20 22:57:21.38	74.04	26.15	-27.8	-29.1	15.6	0.00e+00	0	44	0	821035008	16	4197
2026-01-20 22:57:24.38	74.92	26.29	-27.8	-29.1	15.6	0.00e+00	0	44	0	830472192	16	4194
2026-01-20 22:57:27.39	75.81	26.41	-27.8	-29.2	15.6	0.00e+00	0	45	0	839909376	16	4215
2026-01-20 22:57:30.40	76.70	26.53	-27.7	-29.0	15.7	0.00e+00	0	44	0	849346560	16	4167
2026-01-20 22:57:33.41	77.60	26.65	-27.7	-29.0	15.7	0.00e+00	0	44	0	857735168	16	4156
2026-01-20 22:57:36.41	78.51	26.75	-27.8	-29.1	15.6	0.00e+00	0	44	0	867172352	16	4193
2026-01-20 22:57:39.42	79.43	26.85	-28.1	-29.8	15.2	0.00e+00	0	44	0	876609536	16	4378
2026-01-20 22:57:42.43	80.35	26.94	-27.7	-28.9	15.8	0.00e+00	0	44	0	886046720	16	4132
2026-01-20 22:57:45.45	81.28	27.03	-27.7	-28.8	15.8	0.00e+00	0	44	0	895483904	16	4114
2026-01-20 22:57:48.46	82.21	27.10	-27.6	-28.7	15.8	0.00e+00	0	44	0	904921088	16	4092
2026-01-20 22:57:51.47	83.14	27.17	-27.5	-28.5	16.0	0.00e+00	0	44	0	914358272	16	4040
2026-01-20 22:57:54.48	84.08	27.23	-27.8	-29.1	15.7	0.00e+00	0	44	0	923795456	16	4184
2026-01-20 22:57:57.49	85.02	27.29	-27.7	-28.8	15.8	0.00e+00	0	44	0	933232640	16	4112
2026-01-20 22:58:00.50	85.97	27.33	-27.7	-29.0	15.7	5.30e-06	0	44	0	942669824	16	4172
2026-01-20 22:58:03.52	86.92	27.37	-27.7	-28.9	15.8	7.00e-07	0	44	0	952107008	16	4146
2026-01-20 22:58:06.52	87.86	27.39	-27.9	-29.3	15.5	0.00e+00	0	44	0	961544192	16	4256
2026-01-20 22:58:09.53	88.81	27.41	-27.8	-29.1	15.6	0.00e+00	0	44	0	970981376	16	4197
2026-01-20 22:58:12.54	89.76	27.43	-27.9	-29.3	15.5	0.00e+00	0	44	0	980418560	16	4241
2026-01-20 22:58:15.56	90.72	27.43	-27.9	-29.4	15.5	5.87e-05	0	44	0	989855744	16	4278
2026-01-20 22:58:18.57	91.67	27.42	-27.9	-29.3	15.5	2.66e-04	0	45	0	999292928	16	4244
2026-01-20 22:58:21.56	92.62	27.41	-28.0	-29.7	15.3	0.00e+00	0	44	0	1008730112	16	4347
2026-01-20 22:58:24.57	93.57	27.39	-27.2	-28.4	16.2	2.71e-04	0	44	0	1018167296	15	4116
2026-01-20 22:58:27.58	94.52	27.36	-27.2	-28.4	16.1	0.00e+00	0	45	0	1027604480	15	4121
2026-01-20 22:58:30.59	95.46	27.32	-27.4	-28.7	16.0	0.00e+00	0	44	0	1037041664	15	4197
2026-01-20 22:58:33.59	96.40	27.27	-27.7	-29.6	15.5	0.00e+00	0	44	0	1046478848	15	4436
2026-01-20 22:58:36.61	97.35	27.22	-27.7	-29.5	15.5	0.00e+00	0	44	0	1055916032	15	4423
2026-01-20 22:58:39.61	98.29	27.16	-28.3	-30.3	15.0	7.00e-07	0	44	0	1065353216	16	4516
2026-01-20 22:58:42.61	99.22	27.09	-27.6	-28.8	15.8	0.00e+00	0	45	0	1074790400	16	4120
2026-01-20 22:58:45.63	100.15	27.01	-27.4	-28.3	16.0	0.00e+00	0	45	0	1084227584	16	3998
2026-01-20 22:58:48.64	101.08	26.92	-27.5	-28.4	15.9	0.00e+00	0	45	0	1093664768	16	4021
2026-01-20 22:58:51.65	102.00	26.83	-27.5	-28.5	15.9	0.00e+00	0	44	0	1103101952	16	4051
2026-01-20 22:58:54.67	102.92	26.73	-27.7	-29.0	15.7	0.00e+00	0	45	0	1112539136	16	4174
2026-01-20 22:58:57.68	103.83	26.62	-27.7	-28.9	15.7	0.00e+00	0	44	0	1121976320	16	4150
2026-01-20 22:59:00.68	104.73	26.50	-27.8	-29.3	15.5	0.00e+00	0	44	0	1131413504	16	4252
2026-01-20 22:59:03.68	105.62	26.38	-27.8	-29.2	15.5	0.00e+00	0	44	0	1139802112	16	4224
2026-01-20 22:59:06.69	106.51	26.25	-28.0	-29.6	15.3	0.00e+00	0	45	0	1149239296	16	4335
2026-01-20 22:59:09.70	107.39	26.12	-28.0	-29.7	15.2	0.00e+00	0	45	0	1158676480	16	4357
2026-01-20 22:59:12.71	108.27	25.97	-27.9	-29.4	15.4	0.00e+00	0	45	0	1168113664	16	4291
2026-01-20 22:59:15.71	109.14	25.83	-27.8	-29.2	15.5	0.00e+00	0	45	0	1177550848	16	4204
2026-01-20 22:59:18.72	109.99	25.67	-27.5	-28.5	15.9	0.00e+00	0	45	0	1186988032	16	4038
2026-01-20 22:59:21.72	110.84	25.51	-27.3	-28.1	16.2	0.00e+00	0	45	0	1196425216	16	3921
2026-01-20 22:59:24.74	111.69	25.35	-27.1	-28.2	16.1	0.00e+00	0	45	0	1205862400	15	4056
2026-01-20 22:59:27.75	112.52	25.18	-27.4	-28.8	15.8	0.00e+00	0	44	0	1215299584	15	4234
2026-01-20 22:59:30.77	113.35	25.00	-27.3	-28.5	15.9	0.00e+00	0	44	0	1224736768	15	4156
2026-01-20 22:59:33.77	114.17	24.82	-27.2	-28.2	16.1	0.00e+00	0	45	0	1234173952	15	4074
2026-01-20 22:59:36.78	114.97	24.64	-27.7	-29.5	15.4	0.00e+00	0	44	0	1243611136	15	4440
2026-01-20 22:59:39.80	115.77	24.45	-28.4	-30.5	14.7	0.00e+00	0	45	0	1253048320	16	4609
2026-01-20 22:59:42.80	116.56	24.25	-28.8	-30.9	14.1	1.50e-06	0	45	0	1262485504	17	4621
2026-01-20 22:59:45.81	117.34	24.06	-27.8	-28.6	15.5	0.00e+00	0	45	0	1271922688	17	3973
2026-01-20 22:59:48.81	118.11	23.85	-28.0	-29.8	15.1	0.00e+00	0	45	0	1281359872	16	4396
2026-01-20 22:59:51.82	118.87	23.65	-28.2	-30.1	14.9	0.00e+00	0	44	0	1290797056	16	4493
2026-01-20 22:59:54.82	119.61	23.44	-28.1	-29.8	15.1	0.00e+00	0	44	0	1300234240	16	4407
2026-01-20 22:59:57.84	120.36	23.23	-28.1	-29.9	15.0	7.00e-07	0	45	0	1309671424	16	4432
2026-01-20 23:00:00.85	121.09	23.01	-28.3	-30.4	14.7	7.00e-07	0	44	0	1319108608	16	4572
2026-01-20 23:00:03.85	121.81	22.79	-28.3	-30.4	14.7	0.00e+00	0	45	0	1328545792	16	4574
2026-01-20 23:00:06.86	122.52	22.57	-27.9	-28.9	15.3	7.00e-07	0	44	0	1337982976	17	4036
2026-01-20 23:00:09.87	123.22	22.35	-27.6	-28.8	15.6	0.00e+00	0	45	0	1347420160	16	4117
2026-01-20 23:00:12.88	123.91	22.13	-27.7	-29.0	15.5	0.00e+00	0	44	0	1356857344	16	4190
2026-01-20 23:00:15.89	124.59	21.90	-27.9	-29.4	15.2	0.00e+00	0	45	0	1366294528	16	4287
2026-01-20 23:00:18.91	125.26	21.67	-27.7	-28.9	15.5	0.00e+00	0	44	0	1375731712	16	4150
2026-01-20 23:00:21.91	125.92	21.44	-27.5	-28.6	15.7	0.00e+00	0	44	0	1385168896	16	4061
2026-01-20 23:00:24.92	126.58	21.20	-27.6	-28.8	15.5	0.00e+00	0	44	0	1394606080	16	4127
2026-01-20 23:00:27.93	127.22	20.97	-27.4	-28.3	15.8	0.00e+00	0	44	0	1404043264	16	4002
2026-01-20 23:00:30.94	127.85	20.73	-27.5	-28.5	15.7	0.00e+00	0	45	0	1413480448	16	4051
2026-01-20 23:00:33.96	128.48	20.50	-27.6	-28.8	15.5	0.00e+00	0	45	0	1422917632	16	4124
2026-01-20 23:00:36.96	129.09	20.26	-27.8	-29.2	15.2	0.00e+00	0	45	0	1431306240	16	4250
2026-01-20 23:00:39.98	129.70	20.02	-27.7	-29.0	15.3	0.00e+00	0	45	0	1440743424	16	4189
2026-01-20 23:00:42.99	130.30	19.78	-27.7	-29.7	15.0	0.00e+00	0	45	0	1450180608	15	4506
2026-01-20 23:00:46.00	130.88	19.54	-27.5	-29.1	15.4	0.00e+00	0	44	0	1459617792	15	4325
2026-01-20 23:00:49.02	131.46	19.30	-27.6	-29.2	15.2	7.00e-07	0	45	0	1469054976	15	4368
2026-01-20 23:00:52.02	132.03	19.06	-27.7	-29.7	14.9	0.00e+00	0	44	0	1478492160	15	4515
2026-01-20 23:00:55.04	132.60	18.81	-27.7	-29.6	15.0	0.00e+00	0	45	0	1487929344	15	4482
2026-01-20 23:00:58.05	133.15	18.57	-27.8	-29.9	14.8	7.00e-07	0	45	0	1497366528	15	4564
2026-01-20 23:01:01.06	133.69	18.33	-27.9	-30.0	14.7	0.00e+00	0	44	0	1506803712	15	4610
2026-01-20 23:01:04.08	134.23	18.08	-27.9	-30.1	14.7	0.00e+00	0	45	0	1516240896	15	4637
2026-01-20 23:01:07.09	134.76	17.84	-28.3	-30.5	14.3	2.20e-06	0	45	0	1525678080	16	4618
2026-01-20 23:01:10.10	135.28	17.60	-28.4	-30.7	14.2	2.20e-06	0	44	0	1535115264	16	4684
2026-01-20 23:01:13.11	135.79	17.36	-28.3	-30.6	14.2	3.80e-06	0	44	0	1544552448	16	4646
2026-01-20 23:01:16.12	136.29	17.12	-28.4	-30.8	14.0	1.50e-06	0	45	0	1553989632	16	4751
2026-01-20 23:01:19.14	136.79	16.87	-28.3	-30.2	14.0	2.20e-06	0	45	0	1563426816	17	4446
2026-01-20 23:01:22.14	137.27	16.63	-28.2	-29.9	14.3	1.50e-06	0	44	0	1572864000	17	4338
2026-01-20 23:01:25.15	137.75	16.39	-28.1	-29.6	14.4	7.00e-07	0	44	0	1582301184	17	4268
2026-01-20 23:01:28.15	138.22	16.15	-28.3	-29.9	14.2	3.23e-04	0	45	0	1591738368	17	4338
2026-01-20 23:01:31.16	138.69	15.91	-28.1	-29.5	14.4	0.00e+00	0	45	0	1601175552	17	4238
2026-01-20 23:01:34.17	139.15	15.67	-28.2	-30.2	14.3	4.60e-04	0	45	0	1610612736	16	4565
2026-01-20 23:01:37.19	139.60	15.44	-28.3	-30.7	14.0	1.50e-06	0	45	0	1620049920	16	4716
2026-01-20 23:01:40.20	140.05	15.20	-28.4	-30.8	13.8	3.07e-04	0	44	0	1629487104	16	4756
2026-01-20 23:01:43.21	140.48	14.96	-28.3	-30.7	13.9	5.34e-04	0	45	0	1638924288	16	4719
2026-01-20 23:01:46.22	140.91	14.72	-28.3	-30.6	13.8	1.04e-03	0	44	0	1648361472	16	4716
2026-01-20 23:01:49.23	141.34	14.49	-28.5	-30.7	13.5	7.95e-04	0	45	0	1657798656	17	4621
2026-01-20 23:01:52.23	141.76	14.26	-28.9	-31.6	12.9	6.06e-04	0	45	0	1667235840	17	4911
2026-01-20 23:01:55.24	142.17	14.02	-28.7	-31.0	13.3	6.47e-04	0	45	0	1676673024	17	4699
2026-01-20 23:01:58.25	142.57	13.79	-28.8	-31.4	13.0	2.97e-05	0	45	0	1686110208	17	4828
2026-01-20 23:02:01.26	142.97	13.56	-28.5	-30.8	13.3	1.30e-03	0	45	0	1695547392	17	4667
2026-01-20 23:02:04.27	143.37	13.33	-28.6	-31.1	13.1	1.14e-03	0	45	0	1704984576	17	4790
2026-01-20 23:02:07.27	143.75	13.10	-28.5	-30.9	13.2	2.89e-05	0	45	0	1714421760	17	4732
2026-01-20 23:02:10.29	144.14	12.87	-28.5	-30.9	13.2	2.27e-03	0	45	0	1723858944	17	4727
2026-01-20 23:02:13.29	144.51	12.64	-28.6	-30.9	13.2	1.60e-05	0	44	0	1732247552	17	4726
2026-01-20 23:02:16.30	144.88	12.41	-28.9	-31.7	12.8	1.69e-03	0	45	0	1742733312	17	4961
2026-01-20 23:02:19.32	145.25	12.19	-28.8	-31.4	12.9	3.43e-05	0	45	0	1752170496	17	4883
2026-01-20 23:02:22.32	145.61	11.96	-28.8	-31.6	12.8	6.48e-05	0	45	0	1760559104	17	4938
2026-01-20 23:02:25.34	145.96	11.74	-28.7	-31.2	13.0	5.72e-05	0	45	0	1769996288	17	4817
2026-01-20 23:02:28.35	146.31	11.52	-28.6	-30.9	13.2	2.67e-05	0	45	0	1779433472	17	4692
2026-01-20 23:02:31.35	146.66	11.30	-28.7	-31.1	13.0	4.11e-05	0	45	0	1788870656	17	4794
2026-01-20 23:02:34.37	147.00	11.07	-28.7	-31.3	12.8	4.57e-05	0	45	0	1798307840	17	4884
2026-01-20 23:02:37.38	147.33	10.86	-28.7	-31.6	12.6	9.23e-05	0	45	0	1807745024	17	4992
2026-01-20 23:02:40.40	147.66	10.64	-28.7	-31.5	12.6	7.85e-05	0	45	0	1817182208	17	4964
2026-01-20 23:02:43.39	147.98	10.42	-28.9	-31.9	12.4	1.55e-04	0	44	0	1826619392	17	5090
2026-01-20 23:02:46.41	148.31	10.20	-28.8	-31.5	12.7	7.17e-05	0	45	0	1836056576	17	4924
2026-01-20 23:02:49.42	148.62	9.99	-28.9	-31.8	12.5	1.36e-04	0	45	0	1845493760	17	5032
2026-01-20 23:02:52.43	148.93	9.78	-28.9	-31.9	12.3	1.53e-04	0	45	0	1854930944	17	5100
2026-01-20 23:02:55.43	149.24	9.56	-29.2	-32.3	11.7	5.24e-04	0	45	0	1864368128	18	5158
2026-01-20 23:02:58.44	149.54	9.35	-29.1	-31.9	12.0	3.46e-04	0	45	0	1873805312	18	4966
2026-01-20 23:03:01.47	149.84	9.14	-29.2	-31.9	12.1	2.84e-04	0	45	0	1883242496	18	4950
2026-01-20 23:03:04.48	150.14	8.93	-29.3	-32.3	11.8	4.74e-04	0	45	0	1892679680	18	5083
2026-01-20 23:03:07.48	150.43	8.72	-29.2	-32.2	11.7	5.07e-04	0	45	0	1902116864	18	5099
2026-01-20 23:03:10.49	150.71	8.52	-29.1	-32.4	11.3	1.01e-03	0	45	0	1911554048	18	5259
2026-01-20 23:03:13.50	151.00	8.31	-28.9	-32.6	11.4	4.47e-03	0	45	0	1920991232	17	5525
2026-01-20 23:03:16.52	151.28	8.11	-28.8	-32.6	11.3	1.30e-03	0	45	0	1930428416	17	5551
2026-01-20 23:03:19.53	151.55	7.90	-28.9	-32.7	11.3	1.09e-03	0	45	0	1939865600	17	5572
2026-01-20 23:03:22.53	151.82	7.70	-28.9	-32.5	11.4	8.75e-04	0	45	0	1949302784	17	5460
2026-01-20 23:03:25.54	152.09	7.50	-29.2	-32.6	11.2	1.73e-03	0	45	0	1958739968	18	5275
2026-01-20 23:03:28.55	152.36	7.30	-29.4	-32.7	11.2	5.38e-03	0	45	0	1968177152	18	5303
2026-01-20 23:03:31.57	152.62	7.10	-29.5	-32.6	10.9	2.07e-03	0	45	0	1977614336	19	5159

#Closed at: 2026-01-20 23:03:34
#Recorded file [1979 MB]: D:/data/31010_260121_015258.dat