passes_logs/2026/01/20/R2M6_AANII_01/R2M6_AANII_01__20260120_035657_AQUA_rec.log

#Pass ID: 20260120_035657_AQUA
#Satellite: AQUA
#Configuration: AQUA
#almurnet v.1.7.20240730
#Start time: 2026-01-20 03:56:56

#Version: 2.2.20231116
#Station: R2M6_AANII_01
#Location: 30.233357 lon 59.946436 lat
#TLE: 1 27424U 02022A   26019.27629806  .00001032  00000+0  21655-3 0  9990
#TLE: 2 27424  98.4090 345.7756 0001997  73.0764  31.8912 14.61830109261513

#Time	Az	El	Level	Level2	SNR	BER	BlckErr	Temp	State	Recorded	gain1	gain2
2026-01-20 03:56:56.42	4.93	6.95	-33.5	-52.2	3.8	7.43e-01	0	41	0	0	27	30855
2026-01-20 03:56:58.42	4.70	7.07	-32.6	-48.4	3.8	7.47e-01	0	42	104	0	25	22275
2026-01-20 03:57:00.42	4.47	7.20	-32.6	-48.3	3.8	7.45e-01	0	42	104	0	25	22133
2026-01-20 03:57:02.43	4.23	7.33	-32.9	-49.1	3.8	7.45e-01	0	41	104	0	26	23313
2026-01-20 03:57:04.44	3.99	7.46	-33.1	-49.4	3.8	7.46e-01	0	42	104	0	27	23411
2026-01-20 03:57:06.44	3.75	7.58	-32.9	-48.9	3.8	7.45e-01	0	42	104	0	26	22773
2026-01-20 03:57:08.45	3.51	7.71	-32.8	-48.3	3.8	7.44e-01	0	42	104	0	26	21479
2026-01-20 03:57:10.45	3.26	7.84	-32.9	-48.7	3.8	7.46e-01	0	42	104	0	26	22240
2026-01-20 03:57:12.46	3.02	7.97	-32.7	-48.0	3.8	7.45e-01	0	42	104	0	26	20985
2026-01-20 03:57:14.47	2.76	8.10	-32.2	-46.5	3.8	7.45e-01	0	42	104	0	25	18836
2026-01-20 03:57:16.48	2.51	8.23	-31.7	-45.6	3.8	7.44e-01	0	42	104	0	24	17753
2026-01-20 03:57:18.50	2.25	8.36	-31.6	-45.2	3.8	7.47e-01	0	42	104	0	24	17290
2026-01-20 03:57:20.50	2.00	8.49	-31.9	-46.0	3.8	7.44e-01	0	42	104	0	24	18368
2026-01-20 03:57:22.51	1.74	8.62	-32.3	-47.1	3.8	7.46e-01	0	42	104	0	25	19706
2026-01-20 03:57:24.52	1.47	8.75	-32.4	-47.2	3.8	7.46e-01	0	42	104	0	25	19930
2026-01-20 03:57:26.53	1.21	8.88	-32.3	-47.0	3.8	7.48e-01	0	42	104	0	25	19477
2026-01-20 03:57:28.53	0.94	9.01	-32.3	-47.1	3.8	7.44e-01	0	43	104	0	25	19689
2026-01-20 03:57:30.54	0.67	9.14	-32.7	-48.0	3.8	7.48e-01	0	43	104	0	26	20981
2026-01-20 03:57:32.54	0.40	9.27	-33.1	-49.3	3.8	7.44e-01	0	42	104	0	27	23255
2026-01-20 03:57:34.54	0.12	9.40	-33.4	-50.6	3.8	7.44e-01	0	43	104	0	27	26074
2026-01-20 03:57:36.55	359.84	9.53	-33.4	-50.6	3.8	7.45e-01	0	43	104	0	27	26155
2026-01-20 03:57:38.56	359.56	9.66	-33.4	-50.5	3.8	7.40e-01	0	43	104	0	27	25805
2026-01-20 03:57:40.57	359.27	9.79	-33.4	-50.6	3.8	7.46e-01	0	43	104	0	27	25869
2026-01-20 03:57:42.58	358.99	9.93	-33.4	-50.6	3.8	7.44e-01	0	43	104	0	27	25998
2026-01-20 03:57:44.58	358.70	10.06	-33.3	-49.7	3.8	7.47e-01	0	43	104	0	27	23817
2026-01-20 03:57:46.59	358.40	10.19	-33.0	-48.2	3.8	7.43e-01	0	43	104	0	27	20838
2026-01-20 03:57:48.59	358.11	10.32	-32.7	-47.6	3.8	7.44e-01	0	43	104	0	26	20018
2026-01-20 03:57:50.60	357.81	10.45	-33.1	-49.2	3.8	7.49e-01	0	43	104	0	26	22963
2026-01-20 03:57:52.61	357.50	10.59	-33.5	-50.4	3.8	7.43e-01	0	43	104	0	27	25328
2026-01-20 03:57:54.62	357.20	10.72	-33.3	-49.4	3.8	7.47e-01	0	43	104	0	27	23038
2026-01-20 03:57:56.63	356.89	10.85	-33.0	-48.3	3.8	7.43e-01	0	43	104	0	27	20802
2026-01-20 03:57:58.62	356.58	10.98	-32.9	-48.2	3.8	7.43e-01	0	43	104	0	26	21056
2026-01-20 03:58:00.62	356.27	11.11	-32.7	-47.4	3.8	7.46e-01	0	43	104	0	26	19628
2026-01-20 03:58:02.63	355.95	11.25	-32.1	-45.9	3.8	7.43e-01	0	43	104	0	25	17704
2026-01-20 03:58:04.63	355.63	11.38	-30.8	-44.0	3.8	7.42e-01	0	43	104	0	24	16425
2026-01-20 03:58:06.64	355.31	11.51	-31.0	-44.0	3.8	7.44e-01	0	43	104	0	22	16067
2026-01-20 03:58:08.66	354.98	11.64	-31.1	-44.5	3.8	7.47e-01	0	43	104	0	22	16794
2026-01-20 03:58:10.67	354.64	11.77	-31.4	-44.8	3.8	7.44e-01	0	43	104	0	23	16876
2026-01-20 03:58:12.68	354.31	11.91	-31.9	-46.0	3.8	7.46e-01	0	43	104	0	24	18053
2026-01-20 03:58:14.68	353.97	12.04	-32.1	-46.3	3.8	7.43e-01	0	43	104	0	24	18486
2026-01-20 03:58:16.69	353.63	12.17	-32.1	-46.0	3.8	7.47e-01	0	43	104	0	25	17790
2026-01-20 03:58:18.69	353.29	12.30	-32.0	-46.2	3.8	7.47e-01	0	43	104	0	24	18470
2026-01-20 03:58:20.70	352.94	12.43	-32.6	-47.6	3.8	7.44e-01	0	43	104	0	25	20165
2026-01-20 03:58:22.71	352.59	12.56	-33.2	-48.7	3.8	7.43e-01	0	43	104	0	27	21492
2026-01-20 03:58:24.72	352.24	12.69	-33.5	-50.1	3.8	7.45e-01	0	43	104	0	27	24422
2026-01-20 03:58:26.72	351.88	12.82	-33.5	-50.2	3.8	7.47e-01	0	43	104	0	27	24526
2026-01-20 03:58:28.73	351.52	12.96	-33.5	-50.2	3.8	7.45e-01	0	43	104	0	27	24624
2026-01-20 03:58:30.73	351.16	13.08	-33.6	-50.6	3.8	7.46e-01	0	43	104	0	27	25471
2026-01-20 03:58:32.73	350.79	13.21	-33.6	-50.3	3.8	7.44e-01	0	43	104	0	28	24673
2026-01-20 03:58:34.74	350.42	13.34	-33.5	-50.3	3.8	7.48e-01	0	43	104	0	27	24743
2026-01-20 03:58:36.75	350.04	13.47	-33.2	-48.9	3.8	7.44e-01	0	43	104	0	27	21901
2026-01-20 03:58:38.75	349.66	13.60	-33.1	-48.5	3.8	7.45e-01	0	43	104	0	27	21116
2026-01-20 03:58:40.76	349.28	13.73	-33.6	-50.3	3.8	7.40e-01	0	44	104	0	28	24484
2026-01-20 03:58:42.77	348.89	13.86	-33.4	-49.7	3.8	7.43e-01	0	44	104	0	27	23442
2026-01-20 03:58:44.77	348.51	13.98	-32.9	-47.6	3.8	7.44e-01	0	44	104	0	27	19446
2026-01-20 03:58:46.79	348.11	14.11	-32.5	-47.2	3.8	7.43e-01	0	44	104	0	25	19468
2026-01-20 03:58:48.80	347.71	14.24	-32.3	-46.5	3.8	7.45e-01	0	44	104	0	25	18471
2026-01-20 03:58:50.81	347.31	14.36	-32.0	-45.6	3.8	7.47e-01	0	44	104	0	25	17187
2026-01-20 03:58:52.82	346.91	14.49	-31.4	-44.6	3.8	7.46e-01	0	44	104	0	23	16508
2026-01-20 03:58:54.82	346.50	14.61	-31.0	-43.5	3.8	7.45e-01	0	43	104	0	23	15253
2026-01-20 03:58:56.82	346.09	14.73	-30.7	-43.4	3.8	7.44e-01	0	44	104	0	22	15523
2026-01-20 03:58:58.82	345.68	14.86	-30.8	-43.5	3.8	7.44e-01	0	44	104	0	22	15565
2026-01-20 03:59:00.83	345.26	14.98	-31.2	-44.1	3.8	7.44e-01	0	44	104	0	23	15958
2026-01-20 03:59:02.84	344.83	15.10	-31.8	-45.3	3.8	7.46e-01	0	44	104	0	24	16986
2026-01-20 03:59:04.83	344.41	15.22	-31.9	-45.8	3.8	7.41e-01	0	44	104	0	24	17661
2026-01-20 03:59:06.84	343.98	15.34	-31.9	-45.6	3.9	7.46e-01	0	44	104	0	24	17506
2026-01-20 03:59:08.84	343.55	15.46	-32.0	-45.9	3.8	7.44e-01	0	44	104	0	24	17805
2026-01-20 03:59:10.84	343.11	15.57	-32.6	-47.3	3.8	7.44e-01	0	44	104	0	25	19608
2026-01-20 03:59:12.84	342.67	15.69	-33.2	-48.5	3.8	7.42e-01	0	44	104	0	27	21033
2026-01-20 03:59:14.85	342.23	15.80	-33.5	-49.9	3.8	7.43e-01	0	44	104	0	27	23799
2026-01-20 03:59:16.86	341.78	15.92	-33.5	-49.6	3.8	7.45e-01	0	44	104	0	28	23013
2026-01-20 03:59:18.87	341.32	16.03	-33.6	-50.0	3.8	7.44e-01	0	44	104	0	28	23834
2026-01-20 03:59:20.87	340.87	16.14	-33.7	-50.6	3.8	7.43e-01	0	44	104	0	28	25134
2026-01-20 03:59:22.87	340.41	16.25	-33.8	-51.1	3.8	7.45e-01	0	44	104	0	28	26330
2026-01-20 03:59:24.88	339.95	16.36	-33.8	-51.2	3.8	7.45e-01	0	44	104	0	28	26484
2026-01-20 03:59:26.87	339.48	16.47	-33.7	-50.5	3.8	7.44e-01	0	44	104	0	28	24923
2026-01-20 03:59:28.88	339.01	16.58	-33.8	-50.8	3.8	7.45e-01	0	44	104	0	28	25518
2026-01-20 03:59:30.88	338.54	16.68	-33.3	-48.7	3.8	7.42e-01	0	44	104	0	28	21106
2026-01-20 03:59:32.89	338.06	16.79	-32.9	-47.8	3.8	7.44e-01	0	44	104	0	26	20016
2026-01-20 03:59:34.90	337.58	16.89	-32.5	-46.9	3.8	7.46e-01	0	44	104	0	25	18935
2026-01-20 03:59:36.91	337.09	16.99	-32.0	-45.3	3.8	7.45e-01	0	44	104	0	25	16687
2026-01-20 03:59:38.91	336.61	17.09	-31.8	-45.1	3.8	7.45e-01	0	44	104	0	24	16785
2026-01-20 03:59:40.92	336.12	17.19	-31.6	-44.5	3.8	7.47e-01	0	44	104	0	24	16049
2026-01-20 03:59:42.92	335.62	17.29	-31.1	-43.8	3.8	7.44e-01	0	44	104	0	23	15520
2026-01-20 03:59:44.93	335.12	17.38	-30.8	-43.4	3.8	7.44e-01	0	44	104	0	22	15411
2026-01-20 03:59:46.94	334.62	17.47	-30.7	-43.3	3.8	7.42e-01	0	44	104	0	22	15301
2026-01-20 03:59:48.95	334.11	17.57	-30.8	-43.5	3.8	7.43e-01	0	44	104	0	22	15461
2026-01-20 03:59:50.96	333.60	17.66	-31.1	-43.9	3.8	7.47e-01	0	44	104	0	23	15719
2026-01-20 03:59:52.97	333.09	17.74	-31.8	-45.3	3.8	7.46e-01	0	44	104	0	24	16966
2026-01-20 03:59:54.97	332.58	17.83	-31.8	-45.3	3.8	7.46e-01	0	44	104	0	24	16993
2026-01-20 03:59:56.97	332.06	17.91	-32.0	-45.8	3.8	7.46e-01	0	44	104	0	24	17655
2026-01-20 03:59:58.99	331.54	17.99	-32.4	-46.6	3.8	7.45e-01	0	44	104	0	25	18432
2026-01-20 04:00:00.99	331.01	18.07	-32.9	-47.9	3.8	7.42e-01	0	44	104	0	26	20235
2026-01-20 04:00:02.99	330.49	18.15	-33.4	-49.1	3.8	7.43e-01	0	44	104	0	27	21978
2026-01-20 04:00:05.01	329.96	18.23	-33.6	-49.6	3.8	7.45e-01	0	44	104	0	28	22876
2026-01-20 04:00:07.02	329.42	18.30	-33.7	-50.1	3.8	7.44e-01	0	44	104	0	28	23861
2026-01-20 04:00:09.03	328.89	18.37	-33.8	-50.7	3.8	7.44e-01	0	44	104	0	28	25164
2026-01-20 04:00:11.03	328.35	18.44	-33.9	-51.2	3.8	7.47e-01	0	44	104	0	28	26521
2026-01-20 04:00:13.04	327.81	18.50	-33.8	-51.0	3.8	7.47e-01	0	44	104	0	28	26076
2026-01-20 04:00:15.04	327.27	18.57	-33.8	-51.1	3.8	7.48e-01	0	44	104	0	28	26096
2026-01-20 04:00:17.04	326.72	18.63	-33.7	-50.5	3.8	7.45e-01	0	44	104	0	28	24723
2026-01-20 04:00:19.05	326.17	18.69	-33.4	-49.3	3.8	7.46e-01	0	44	104	0	27	22305
2026-01-20 04:00:21.05	325.63	18.75	-32.9	-47.7	3.8	7.45e-01	0	44	104	0	26	19887
2026-01-20 04:00:23.06	325.07	18.80	-32.4	-46.5	3.8	7.45e-01	0	44	104	0	25	18333
2026-01-20 04:00:25.07	324.52	18.85	-31.9	-45.4	3.8	7.44e-01	0	44	104	0	24	17162
2026-01-20 04:00:27.08	323.96	18.90	-31.6	-44.8	3.8	7.42e-01	0	44	104	0	24	16328
2026-01-20 04:00:29.09	323.40	18.95	-31.4	-44.6	3.8	7.45e-01	0	44	104	0	23	16463
2026-01-20 04:00:31.10	322.84	18.99	-31.3	-44.2	3.8	7.44e-01	0	44	104	0	23	15975
2026-01-20 04:00:33.10	322.28	19.03	-31.0	-44.0	3.8	7.46e-01	0	44	104	0	22	16078
2026-01-20 04:00:35.10	321.72	19.07	-31.0	-44.0	3.8	7.43e-01	0	44	104	0	22	16167
2026-01-20 04:00:37.10	321.16	19.11	-31.0	-44.1	3.8	7.45e-01	0	44	104	0	22	16179
2026-01-20 04:00:39.11	320.59	19.14	-30.9	-43.8	3.8	7.44e-01	0	44	104	0	22	15927
2026-01-20 04:00:41.12	320.02	19.17	-31.2	-44.0	3.8	7.42e-01	0	44	104	0	23	15783
2026-01-20 04:00:43.13	319.45	19.20	-31.6	-44.9	3.8	7.42e-01	0	44	104	0	24	16461
2026-01-20 04:00:45.13	318.88	19.22	-31.9	-45.4	3.8	7.43e-01	0	44	104	0	24	17055
2026-01-20 04:00:47.13	318.32	19.25	-32.3	-46.4	3.8	7.42e-01	0	44	104	0	25	18068
2026-01-20 04:00:49.14	317.74	19.27	-32.9	-47.6	3.8	7.43e-01	0	44	104	0	26	19644
2026-01-20 04:00:51.14	317.17	19.28	-33.3	-48.7	3.8	7.46e-01	0	44	104	0	27	21213
2026-01-20 04:00:53.14	316.60	19.30	-33.6	-50.1	3.8	7.47e-01	0	44	104	0	27	24134
2026-01-20 04:00:55.15	316.03	19.31	-33.6	-50.0	3.8	7.44e-01	0	44	104	0	28	23767
2026-01-20 04:00:57.15	315.46	19.31	-33.7	-50.5	3.8	7.43e-01	0	44	104	0	28	24915
2026-01-20 04:00:59.17	314.88	19.32	-33.8	-50.7	3.8	7.45e-01	0	44	104	0	28	25210
2026-01-20 04:01:01.17	314.31	19.32	-33.7	-50.3	3.8	7.45e-01	0	44	104	0	28	24290
2026-01-20 04:01:03.18	313.73	19.32	-33.6	-50.2	3.8	7.44e-01	0	44	104	0	28	24321
2026-01-20 04:01:05.18	313.16	19.32	-33.5	-50.1	3.8	7.47e-01	0	44	104	0	27	24131
2026-01-20 04:01:07.18	312.59	19.31	-33.3	-48.8	3.8	7.47e-01	0	44	104	0	27	21428
2026-01-20 04:01:09.20	312.01	19.30	-32.8	-47.2	3.8	7.42e-01	0	44	104	0	26	19030
2026-01-20 04:01:11.20	311.44	19.29	-32.2	-45.9	3.8	7.47e-01	0	44	104	0	25	17448
2026-01-20 04:01:13.21	310.86	19.27	-31.8	-45.5	3.8	7.46e-01	0	44	104	0	24	17428
2026-01-20 04:01:15.23	310.29	19.26	-31.3	-44.1	3.8	7.45e-01	0	44	104	0	23	15771
2026-01-20 04:01:17.23	309.72	19.24	-30.9	-43.2	3.8	7.44e-01	0	44	104	0	23	14754
2026-01-20 04:01:19.23	309.15	19.21	-31.0	-44.1	3.8	7.45e-01	0	44	104	0	22	16273
2026-01-20 04:01:21.24	308.58	19.19	-31.1	-44.3	3.8	7.44e-01	0	44	104	0	22	16556
2026-01-20 04:01:23.24	308.01	19.16	-31.0	-43.8	3.8	7.48e-01	0	44	104	0	22	15821
2026-01-20 04:01:25.25	307.44	19.13	-31.0	-44.2	3.8	7.45e-01	0	44	104	0	22	16384
2026-01-20 04:01:27.25	306.88	19.09	-31.3	-44.1	3.8	7.43e-01	0	44	104	0	23	15861
2026-01-20 04:01:29.26	306.31	19.05	-31.2	-43.8	3.8	7.41e-01	0	44	104	0	23	15477
2026-01-20 04:01:31.28	305.75	19.01	-31.3	-44.6	3.8	7.48e-01	0	44	104	0	23	16609
2026-01-20 04:01:33.29	305.18	18.97	-31.7	-44.7	3.8	7.48e-01	0	44	104	0	24	16101
2026-01-20 04:01:35.30	304.62	18.93	-32.3	-46.3	3.8	7.45e-01	0	44	104	0	25	18146
2026-01-20 04:01:37.30	304.07	18.88	-32.8	-47.6	3.8	7.44e-01	0	44	104	0	26	19771
2026-01-20 04:01:39.30	303.51	18.83	-32.0	-47.7	3.8	7.44e-01	0	44	104	0	27	22039
2026-01-20 04:01:41.30	302.96	18.78	-33.5	-49.9	3.8	7.49e-01	0	44	104	0	27	23793
2026-01-20 04:01:43.31	302.41	18.72	-33.5	-49.8	3.8	7.46e-01	0	44	104	0	28	23378
2026-01-20 04:01:45.31	301.86	18.66	-33.6	-50.0	3.8	7.50e-01	0	44	104	0	28	23852
2026-01-20 04:01:47.32	301.31	18.60	-33.6	-50.2	3.8	7.44e-01	0	44	104	0	28	24250
2026-01-20 04:01:49.33	300.76	18.54	-33.6	-50.0	3.8	7.47e-01	0	44	104	0	27	23823
2026-01-20 04:01:51.33	300.22	18.47	-33.5	-49.4	3.8	7.45e-01	0	44	104	0	27	22663
2026-01-20 04:01:53.32	299.69	18.41	-33.3	-48.6	3.8	7.47e-01	0	44	104	0	27	21013
2026-01-20 04:01:55.34	299.14	18.34	-32.9	-48.0	3.8	7.45e-01	0	44	104	0	26	20401
2026-01-20 04:01:57.35	298.61	18.27	-32.5	-46.9	3.8	7.42e-01	0	44	104	0	25	18928
2026-01-20 04:01:59.36	298.07	18.19	-31.9	-45.5	3.8	7.43e-01	0	44	104	0	24	17267
2026-01-20 04:02:01.37	297.54	18.11	-31.4	-44.7	3.8	7.46e-01	0	44	104	0	23	16569
2026-01-20 04:02:03.37	297.02	18.04	-31.1	-44.1	3.8	7.47e-01	0	44	104	0	23	16049
2026-01-20 04:02:05.38	296.49	17.96	-30.8	-44.1	3.8	7.42e-01	0	44	104	0	22	16715
2026-01-20 04:02:07.39	295.97	17.87	-30.5	-43.6	3.8	7.43e-01	0	44	104	0	21	16128
2026-01-20 04:02:09.38	295.46	17.79	-30.5	-34.3	5.2	7.06e-01	0	44	104	0	22	5566
2026-01-20 04:02:11.39	294.94	17.70	-30.8	-35.1	5.2	7.08e-01	0	44	0	0	22	5889
2026-01-20 04:02:13.40	294.43	17.61	-30.9	-35.3	5.3	7.11e-01	0	44	0	0	22	6005
2026-01-20 04:02:15.41	293.92	17.52	-30.8	-35.2	5.3	7.09e-01	0	44	0	0	22	5935
2026-01-20 04:02:17.41	293.42	17.43	-30.6	-34.9	5.3	7.08e-01	0	44	0	0	21	5945
2026-01-20 04:02:19.43	292.91	17.34	-30.6	-34.6	5.2	7.08e-01	0	44	0	0	22	5681
2026-01-20 04:02:21.43	292.42	17.24	-30.8	-35.2	5.2	7.09e-01	0	44	0	0	22	5931
2026-01-20 04:02:23.44	291.92	17.14	-30.5	-34.8	5.3	7.06e-01	0	44	0	0	21	5874
2026-01-20 04:02:25.45	291.43	17.04	-30.4	-34.5	5.3	7.06e-01	0	44	0	0	21	5759
2026-01-20 04:02:27.45	290.94	16.94	-30.3	-34.3	5.3	7.06e-01	0	44	0	0	21	5684
2026-01-20 04:02:29.45	290.46	16.84	-30.8	-35.2	5.3	7.08e-01	0	44	0	0	22	5962
2026-01-20 04:02:31.45	289.98	16.74	-30.4	-34.5	5.3	7.08e-01	0	44	0	0	21	5767
2026-01-20 04:02:33.45	289.50	16.63	-30.4	-34.4	5.3	7.06e-01	0	44	0	0	21	5724
2026-01-20 04:02:35.46	289.03	16.53	-30.0	-33.4	5.4	7.01e-01	0	44	0	0	21	5324
2026-01-20 04:02:37.47	288.55	16.42	-30.0	-33.5	5.3	7.09e-01	0	44	0	0	21	5396
2026-01-20 04:02:39.47	288.09	16.31	-30.5	-34.9	5.3	7.05e-01	0	44	0	0	21	5983
2026-01-20 04:02:41.47	287.63	16.20	-30.1	-33.8	5.3	7.07e-01	0	44	0	0	21	5499
2026-01-20 04:02:43.47	287.17	16.09	-29.8	-33.0	5.3	7.09e-01	0	44	0	0	21	5187
2026-01-20 04:02:45.47	286.71	15.98	-30.5	-34.3	5.3	7.05e-01	0	44	0	0	22	5572
2026-01-20 04:02:47.47	286.26	15.86	-30.1	-33.8	5.3	7.06e-01	0	44	0	0	21	5503
2026-01-20 04:02:49.48	285.81	15.75	-29.8	-33.4	5.3	7.08e-01	0	44	0	0	20	5457
2026-01-20 04:02:51.48	285.37	15.63	-30.1	-33.9	5.3	7.05e-01	0	44	0	0	21	5553
2026-01-20 04:02:53.48	284.93	15.51	-30.2	-33.9	5.3	7.09e-01	0	44	0	0	21	5554
2026-01-20 04:02:55.49	284.49	15.40	-29.8	-33.5	5.4	7.10e-01	0	44	0	0	20	5491
2026-01-20 04:02:57.50	284.06	15.28	-30.3	-34.3	5.3	7.07e-01	0	44	0	0	21	5701
2026-01-20 04:02:59.52	283.62	15.16	-30.2	-34.1	5.3	7.05e-01	0	44	0	0	21	5642
2026-01-20 04:03:01.52	283.20	15.03	-30.3	-34.2	5.3	7.08e-01	0	44	0	0	21	5669
2026-01-20 04:03:03.52	282.78	14.91	-30.5	-35.0	5.2	7.05e-01	0	44	0	0	21	6012
2026-01-20 04:03:05.52	282.36	14.79	-30.6	-34.5	5.3	7.08e-01	0	44	0	0	22	5700
2026-01-20 04:03:07.53	281.94	14.67	-30.5	-34.4	5.3	7.06e-01	0	44	0	0	22	5649
2026-01-20 04:03:09.53	281.53	14.54	-30.4	-34.7	5.3	7.05e-01	0	44	0	0	21	5900
2026-01-20 04:03:11.55	281.12	14.42	-30.2	-34.1	5.3	7.07e-01	0	44	0	0	21	5630
2026-01-20 04:03:13.56	280.72	14.29	-30.2	-34.2	5.3	7.03e-01	0	44	0	0	21	5682
2026-01-20 04:03:15.56	280.32	14.17	-30.2	-34.2	5.3	7.09e-01	0	44	0	0	21	5711
2026-01-20 04:03:17.56	279.92	14.04	-30.0	-34.2	5.3	7.07e-01	0	44	0	0	20	5811
2026-01-20 04:03:19.55	279.53	13.91	-30.4	-34.6	5.3	7.06e-01	0	44	0	0	21	5883
2026-01-20 04:03:21.56	279.14	13.79	-30.1	-33.8	5.3	7.09e-01	0	44	0	0	21	5516
2026-01-20 04:03:23.57	278.76	13.66	-30.0	-34.1	5.3	7.08e-01	0	44	0	0	20	5786
2026-01-20 04:03:25.58	278.37	13.53	-30.2	-34.2	5.3	7.06e-01	0	44	0	0	21	5698
2026-01-20 04:03:27.58	278.00	13.40	-30.0	-33.6	5.3	7.08e-01	0	44	0	0	21	5460
2026-01-20 04:03:29.59	277.62	13.27	-30.0	-34.1	5.3	7.06e-01	0	44	0	0	20	5794
2026-01-20 04:03:31.60	277.25	13.14	-30.1	-33.9	5.3	7.07e-01	0	44	0	0	21	5588
2026-01-20 04:03:33.59	276.88	13.01	-30.3	-34.4	5.3	7.09e-01	0	44	0	0	21	5795
2026-01-20 04:03:35.59	276.52	12.88	-30.1	-33.9	5.3	7.07e-01	0	44	0	0	21	5593
2026-01-20 04:03:37.59	276.16	12.75	-29.3	-33.2	5.3	7.07e-01	0	44	0	0	21	5645
2026-01-20 04:03:39.60	275.80	12.62	-30.1	-33.8	5.3	7.08e-01	0	44	0	0	21	5547
2026-01-20 04:03:41.61	275.45	12.49	-30.1	-34.1	5.3	7.07e-01	0	44	0	0	21	5665
2026-01-20 04:03:43.63	275.09	12.36	-30.4	-34.6	5.3	7.08e-01	0	44	0	0	21	5902
2026-01-20 04:03:45.64	274.74	12.22	-30.0	-34.2	5.3	7.07e-01	0	44	0	0	20	5812
2026-01-20 04:03:47.64	274.40	12.09	-30.0	-34.3	5.3	7.06e-01	0	44	0	0	20	5850
2026-01-20 04:03:49.64	274.06	11.96	-30.2	-34.3	5.3	7.05e-01	0	44	0	0	21	5764
2026-01-20 04:03:51.64	273.72	11.83	-30.2	-34.1	5.3	7.09e-01	0	44	0	0	21	5684
2026-01-20 04:03:53.65	273.39	11.70	-30.2	-34.1	5.3	7.12e-01	0	44	0	0	21	5667
2026-01-20 04:03:55.65	273.06	11.56	-30.3	-34.5	5.3	7.10e-01	0	44	0	0	21	5821
2026-01-20 04:03:57.66	272.73	11.43	-30.4	-34.8	5.3	7.08e-01	0	44	0	0	21	5972
2026-01-20 04:03:59.68	272.41	11.30	-30.4	-34.7	5.3	7.04e-01	0	44	0	0	21	5919
2026-01-20 04:04:01.68	272.09	11.17	-30.4	-34.7	5.3	7.07e-01	0	44	0	0	21	5905
2026-01-20 04:04:03.69	271.77	11.03	-30.4	-34.9	5.2	7.06e-01	0	44	0	0	21	5997
2026-01-20 04:04:05.71	271.45	10.90	-30.5	-35.1	5.2	7.08e-01	0	44	0	0	21	6106
2026-01-20 04:04:07.71	271.14	10.77	-30.8	-35.5	5.2	7.07e-01	0	44	0	0	22	6176
2026-01-20 04:04:09.71	270.83	10.64	-30.6	-34.9	5.2	7.09e-01	0	44	0	0	22	5899
2026-01-20 04:04:11.71	270.53	10.50	-30.5	-35.0	5.2	7.10e-01	0	44	0	0	21	6090
2026-01-20 04:04:13.71	270.22	10.37	-30.5	-35.2	5.3	7.06e-01	0	44	0	0	21	6152
2026-01-20 04:04:15.73	269.92	10.24	-30.4	-34.8	5.3	7.08e-01	0	44	0	0	21	6000
2026-01-20 04:04:17.73	269.63	10.11	-30.4	-34.7	5.2	7.10e-01	0	44	0	0	21	5947
2026-01-20 04:04:19.74	269.33	9.97	-30.5	-35.3	5.3	7.09e-01	0	44	0	0	21	6201
2026-01-20 04:04:21.74	269.04	9.84	-30.6	-35.1	5.2	7.09e-01	0	44	0	0	22	6009
2026-01-20 04:04:23.74	268.75	9.71	-30.7	-35.2	5.2	7.08e-01	0	44	0	0	22	6038
2026-01-20 04:04:25.75	268.47	9.58	-30.6	-35.5	5.2	7.04e-01	0	44	0	0	21	6317
2026-01-20 04:04:27.75	268.19	9.45	-30.7	-35.2	5.2	7.03e-01	0	44	0	0	22	6086
2026-01-20 04:04:29.76	267.91	9.31	-30.4	-35.1	5.2	7.09e-01	0	44	0	0	21	6126
2026-01-20 04:04:31.76	267.63	9.18	-30.5	-35.2	5.2	7.08e-01	0	44	104	0	21	6194
2026-01-20 04:04:33.78	267.35	9.05	-30.4	-34.2	17.7	6.01e-01	0	44	0	1048576	21	5602
2026-01-20 04:04:35.79	267.08	8.92	-30.5	-34.5	17.6	6.02e-01	0	44	0	4718592	21	5721
2026-01-20 04:04:37.78	266.82	8.79	-30.5	-34.6	17.5	6.03e-01	0	44	0	8388608	21	5746
2026-01-20 04:04:39.78	266.55	8.66	-30.5	-34.6	17.5	6.04e-01	0	44	0	12058624	21	5759
2026-01-20 04:04:41.78	266.29	8.53	-30.8	-34.9	17.0	6.01e-01	0	44	0	15728640	22	5783
2026-01-20 04:04:43.78	266.03	8.40	-30.9	-35.4	16.6	6.02e-01	0	44	0	19398656	22	6017
2026-01-20 04:04:45.78	265.77	8.27	-31.0	-35.7	16.4	6.01e-01	0	44	0	23592960	22	6172
2026-01-20 04:04:47.79	265.51	8.14	-30.9	-35.4	16.5	6.01e-01	0	44	0	27262976	22	6046
2026-01-20 04:04:49.80	265.26	8.01	-30.9	-35.3	16.6	6.02e-01	0	44	0	30932992	22	5975
2026-01-20 04:04:51.80	265.01	7.88	-30.6	-34.5	17.1	6.01e-01	0	44	0	34603008	22	5605
2026-01-20 04:04:53.81	264.76	7.75	-30.6	-34.8	17.3	6.00e-01	0	44	0	38273024	21	5869
2026-01-20 04:04:55.81	264.52	7.62	-30.6	-34.8	17.2	6.05e-01	0	44	0	41943040	21	5890
2026-01-20 04:04:57.81	264.27	7.50	-30.5	-34.6	17.4	6.03e-01	0	44	0	45613056	21	5770
2026-01-20 04:04:59.81	264.03	7.37	-30.6	-34.4	17.2	6.00e-01	0	44	0	49807360	22	5588
2026-01-20 04:05:01.81	263.79	7.24	-30.7	-34.8	16.8	6.01e-01	0	44	0	53477376	22	5774
2026-01-20 04:05:03.81	263.56	7.11	-30.7	-34.8	16.7	6.02e-01	0	44	0	57147392	22	5806
2026-01-20 04:05:05.82	263.32	6.99	-33.9	-53.2	3.8	7.43e-01	0	44	104	58195968	28	33242

#Closed at: 2026-01-20 04:05:06
#Recorded file [58 MB]: D:/data/31010_260120_070433.dat