passes_logs/2026/01/20/R2M6_AANII_01/R2M6_AANII_01__20260120_014217_NOAA_20_JPSS-1_rec.log

#Pass ID: 20260120_014217_NOAA 20 (JPSS-1)
#Satellite: NOAA 20 (JPSS-1)
#Configuration: NOAA 20
#almurnet v.1.7.20240730
#Start time: 2026-01-20 01:42:19

#Version: 2.2.20231116
#Station: R2M6_AANII_01
#Location: 30.233357 lon 59.946436 lat
#TLE: 1 43013U 17073A   26019.27717929  .00000087  00000+0  62288-4 0  9995
#TLE: 2 43013  98.7641 320.1715 0001339  33.1986 326.9274 14.19537047423343

#Time	Az	El	Level	Level2	SNR	BER	BlckErr	Temp	State	Recorded	gain1	gain2
2026-01-20 01:42:19.46	12.15	7.14	-32.1	-38.8	4.9	1.28e+00	0	42	0	0	24	7737
2026-01-20 01:42:22.46	11.95	7.36	-32.2	-38.7	7.5	1.22e-01	0	42	0	1048576	24	7651
2026-01-20 01:42:25.46	11.75	7.57	-32.1	-38.4	7.8	8.53e-02	0	42	0	7340032	24	7423
2026-01-20 01:42:28.47	11.54	7.79	-31.8	-37.2	9.2	2.23e-02	0	42	0	12582912	23	6743
2026-01-20 01:42:31.47	11.33	8.00	-31.4	-36.4	10.3	4.94e-03	0	42	0	17825792	22	6380
2026-01-20 01:42:34.47	11.12	8.22	-31.5	-36.5	10.3	7.05e-03	0	42	0	24117248	22	6421
2026-01-20 01:42:37.48	10.90	8.44	-31.5	-36.0	10.2	6.88e-03	0	42	0	29360128	23	6086
2026-01-20 01:42:40.49	10.68	8.66	-31.3	-35.8	10.8	4.13e-03	0	42	0	35651584	22	6059
2026-01-20 01:42:43.49	10.46	8.89	-31.2	-35.7	10.9	2.24e-03	0	43	0	40894464	22	5986
2026-01-20 01:42:46.50	10.23	9.11	-31.3	-35.7	11.0	2.32e-03	0	43	0	46137344	22	5997
2026-01-20 01:42:49.49	10.00	9.34	-31.3	-35.8	10.9	1.99e-03	0	43	0	52428800	22	6031
2026-01-20 01:42:52.50	9.77	9.56	-31.3	-35.8	10.9	2.76e-03	0	43	0	57671680	22	6024
2026-01-20 01:42:55.50	9.53	9.79	-31.2	-35.3	11.3	1.81e-03	0	43	0	62914560	22	5827
2026-01-20 01:42:58.52	9.29	10.02	-31.2	-35.4	11.3	1.65e-03	0	43	0	69206016	22	5839
2026-01-20 01:43:01.52	9.04	10.26	-31.1	-35.2	11.4	1.81e-03	0	43	0	74448896	22	5755
2026-01-20 01:43:04.53	8.79	10.49	-31.2	-35.4	11.3	1.62e-03	0	43	0	80740352	22	5814
2026-01-20 01:43:07.53	8.54	10.73	-31.3	-35.6	11.1	1.46e-03	0	43	0	85983232	22	5945
2026-01-20 01:43:10.53	8.28	10.96	-31.4	-36.0	10.9	2.77e-03	0	43	0	91226112	22	6105
2026-01-20 01:43:13.54	8.01	11.20	-31.2	-35.3	11.5	8.43e-04	0	43	0	97517568	22	5750
2026-01-20 01:43:16.56	7.75	11.45	-31.2	-35.4	11.4	1.52e-03	0	43	0	102760448	22	5801
2026-01-20 01:43:19.57	7.47	11.69	-31.1	-35.0	11.7	8.41e-04	0	43	0	108003328	22	5653
2026-01-20 01:43:22.57	7.20	11.93	-31.2	-35.2	11.6	7.48e-04	0	43	0	114294784	22	5736
2026-01-20 01:43:25.58	6.91	12.18	-31.0	-34.5	12.1	3.65e-04	0	43	0	119537664	22	5415
2026-01-20 01:43:28.57	6.63	12.43	-31.0	-35.1	12.0	2.39e-04	0	43	0	125829120	21	5784
2026-01-20 01:43:31.58	6.33	12.68	-30.8	-34.4	12.5	1.51e-04	0	44	0	131072000	21	5500
2026-01-20 01:43:34.59	6.04	12.93	-30.9	-34.7	12.3	1.40e-04	0	44	0	136314880	21	5611
2026-01-20 01:43:37.59	5.73	13.18	-30.9	-34.8	12.3	1.75e-04	0	44	0	142606336	21	5630
2026-01-20 01:43:40.60	5.42	13.44	-30.9	-34.4	12.2	5.31e-04	0	44	0	147849216	22	5376
2026-01-20 01:43:43.61	5.11	13.70	-31.1	-34.8	12.0	2.75e-04	0	44	0	153092096	22	5525
2026-01-20 01:43:46.62	4.79	13.96	-31.2	-35.2	11.7	4.41e-04	0	43	0	159383552	22	5716
2026-01-20 01:43:49.63	4.46	14.22	-31.2	-35.2	11.8	7.21e-04	0	44	0	164626432	22	5683
2026-01-20 01:43:52.65	4.13	14.48	-31.0	-34.5	12.2	1.97e-04	0	44	0	170917888	22	5402
2026-01-20 01:43:55.65	3.79	14.75	-30.8	-34.4	12.7	7.93e-05	0	44	0	176160768	21	5446
2026-01-20 01:43:58.66	3.45	15.01	-30.7	-34.2	12.8	8.08e-05	0	43	0	181403648	21	5391
2026-01-20 01:44:01.66	3.10	15.28	-30.7	-34.2	12.8	4.73e-05	0	44	0	187695104	21	5377
2026-01-20 01:44:04.67	2.74	15.55	-30.9	-34.6	12.5	2.56e-03	0	44	0	192937984	21	5540
2026-01-20 01:44:07.69	2.38	15.83	-31.0	-34.9	12.4	1.27e-04	0	44	0	198180864	21	5650
2026-01-20 01:44:10.70	2.01	16.10	-31.1	-34.8	12.2	2.60e-04	0	44	0	204472320	22	5500
2026-01-20 01:44:13.70	1.63	16.38	-31.1	-34.8	12.2	1.74e-04	0	44	0	209715200	22	5490
2026-01-20 01:44:16.70	1.25	16.65	-31.1	-34.9	12.1	3.33e-04	0	44	0	216006656	22	5531
2026-01-20 01:44:19.69	0.86	16.93	-31.0	-34.5	12.5	1.07e-04	0	44	0	221249536	22	5349
2026-01-20 01:44:22.70	0.46	17.21	-30.9	-34.7	12.7	2.36e-03	0	44	0	226492416	21	5547
2026-01-20 01:44:25.71	0.05	17.50	-31.0	-34.9	12.5	2.41e-03	0	44	0	232783872	21	5628
2026-01-20 01:44:28.71	359.63	17.78	-31.1	-34.6	12.4	2.25e-03	0	44	0	238026752	22	5401
2026-01-20 01:44:31.72	359.21	18.07	-31.2	-34.9	12.2	2.60e-03	0	44	0	244318208	22	5545
2026-01-20 01:44:34.73	358.78	18.36	-31.4	-35.6	11.7	3.66e-04	0	44	0	249561088	22	5820
2026-01-20 01:44:37.74	358.33	18.65	-31.3	-35.2	12.0	3.55e-04	0	44	0	254803968	22	5678
2026-01-20 01:44:40.75	357.89	18.94	-31.2	-34.9	12.2	2.61e-03	0	44	0	261095424	22	5528
2026-01-20 01:44:43.76	357.43	19.23	-31.1	-34.6	12.5	2.40e-03	0	44	0	266338304	22	5396
2026-01-20 01:44:46.77	356.96	19.53	-31.1	-34.5	12.5	2.14e-03	0	44	0	271581184	22	5363
2026-01-20 01:44:49.78	356.48	19.82	-31.1	-34.5	12.6	2.38e-03	0	44	0	277872640	22	5349
2026-01-20 01:44:52.78	356.00	20.12	-31.0	-34.3	12.7	2.03e-03	0	44	0	283115520	22	5265
2026-01-20 01:44:55.79	355.50	20.42	-31.0	-34.3	12.7	7.70e-05	0	44	0	289406976	22	5278
2026-01-20 01:44:58.80	354.99	20.72	-31.1	-34.5	12.6	1.10e-03	0	44	0	294649856	22	5332
2026-01-20 01:45:01.81	354.48	21.02	-31.0	-34.4	12.7	1.38e-03	0	44	0	299892736	22	5293
2026-01-20 01:45:04.81	353.95	21.32	-30.9	-34.4	13.0	1.39e-03	0	44	0	306184192	21	5400
2026-01-20 01:45:07.81	353.42	21.62	-30.8	-34.2	13.2	1.56e-03	0	44	0	311427072	21	5316
2026-01-20 01:45:10.82	352.87	21.93	-30.8	-34.2	13.2	1.39e-03	0	44	0	316669952	21	5334
2026-01-20 01:45:13.84	352.31	22.23	-31.0	-34.7	12.8	5.11e-05	0	44	0	322961408	21	5549
2026-01-20 01:45:16.85	351.74	22.54	-31.1	-34.5	12.7	8.08e-05	0	44	0	328204288	22	5338
2026-01-20 01:45:19.85	351.16	22.85	-31.1	-34.7	12.5	9.46e-05	0	44	0	334495744	22	5410
2026-01-20 01:45:22.85	350.57	23.15	-31.3	-35.2	12.2	1.90e-03	0	44	0	339738624	22	5640
2026-01-20 01:45:25.87	349.96	23.46	-31.6	-35.5	11.7	2.64e-03	0	44	0	344981504	23	5633
2026-01-20 01:45:28.87	349.34	23.77	-31.4	-35.5	12.0	2.55e-03	0	44	0	351272960	22	5754
2026-01-20 01:45:31.88	348.71	24.07	-31.5	-35.2	11.9	4.20e-04	0	44	0	356515840	23	5513
2026-01-20 01:45:34.88	348.07	24.38	-31.3	-35.2	12.2	2.66e-04	0	44	0	361758720	22	5616
2026-01-20 01:45:37.88	347.42	24.68	-31.3	-35.1	12.4	1.27e-04	0	44	0	368050176	22	5562
2026-01-20 01:45:40.88	346.75	24.99	-31.2	-34.8	12.6	9.61e-05	0	44	0	373293056	22	5436
2026-01-20 01:45:43.89	346.07	25.29	-31.4	-35.4	12.2	1.85e-04	0	44	0	379584512	22	5684
2026-01-20 01:45:46.89	345.37	25.60	-30.9	-33.9	13.1	2.97e-05	0	44	0	384827392	22	5107
2026-01-20 01:45:49.90	344.67	25.90	-30.8	-34.3	13.2	2.05e-05	0	44	0	390070272	21	5344
2026-01-20 01:45:52.91	343.94	26.20	-31.1	-34.4	12.8	9.30e-05	0	44	0	396361728	22	5297
2026-01-20 01:45:55.92	343.21	26.50	-30.9	-34.1	13.0	4.27e-05	0	44	0	401604608	22	5185
2026-01-20 01:45:58.93	342.45	26.80	-30.8	-34.1	12.4	9.90e-06	0	44	0	406847488	21	5272
2026-01-20 01:46:01.93	341.69	27.09	-30.7	-34.0	12.9	1.98e-05	0	44	0	413138944	21	5230
2026-01-20 01:46:04.93	340.91	27.38	-31.1	-34.4	12.8	4.50e-05	0	44	0	418381824	22	5281
2026-01-20 01:46:07.93	340.12	27.67	-31.0	-34.3	12.9	6.86e-05	0	44	0	424673280	22	5245
2026-01-20 01:46:10.92	339.32	27.96	-31.2	-34.8	12.6	1.51e-03	0	44	0	429916160	22	5442
2026-01-20 01:46:13.92	338.50	28.24	-31.4	-35.3	12.2	2.04e-04	0	44	0	435159040	22	5667
2026-01-20 01:46:16.94	337.66	28.52	-31.8	-36.1	11.3	1.09e-03	0	44	0	441450496	23	5927
2026-01-20 01:46:19.96	336.80	28.79	-32.0	-36.2	10.9	1.87e-03	0	44	0	446693376	24	5861
2026-01-20 01:46:22.97	335.94	29.06	-32.3	-37.1	10.1	4.18e-03	0	44	0	451936256	24	6272
2026-01-20 01:46:25.98	335.05	29.33	-32.3	-37.1	10.2	6.33e-03	0	44	0	458227712	24	6279
2026-01-20 01:46:28.98	334.16	29.59	-32.4	-37.6	9.9	1.01e-02	0	44	0	463470592	24	6543
2026-01-20 01:46:32.00	333.24	29.84	-32.5	-37.9	9.7	1.11e-02	0	44	0	469762048	24	6733
2026-01-20 01:46:35.00	332.32	30.09	-32.8	-38.5	8.8	3.10e-02	0	44	0	475004928	25	6962
2026-01-20 01:46:38.01	331.38	30.33	-32.5	-37.4	9.7	1.47e-02	0	44	0	480247808	25	6332
2026-01-20 01:46:41.02	330.43	30.56	-32.4	-37.7	9.8	8.74e-03	0	44	0	486539264	24	6603
2026-01-20 01:46:44.05	329.45	30.79	-32.3	-37.2	10.2	7.47e-03	0	44	0	491782144	24	6317
2026-01-20 01:46:47.06	328.47	31.01	-32.3	-37.1	10.3	9.24e-03	0	44	0	497025024	24	6274
2026-01-20 01:46:50.06	327.48	31.22	-32.2	-36.7	10.6	6.26e-03	0	44	0	503316480	24	6093
2026-01-20 01:46:53.07	326.47	31.43	-32.0	-36.2	11.0	5.73e-03	0	45	0	508559360	24	5826
2026-01-20 01:46:56.07	325.45	31.62	-32.0	-36.6	11.1	4.83e-03	0	45	0	514850816	23	6105
2026-01-20 01:46:59.09	324.42	31.81	-32.1	-36.4	10.8	5.83e-03	0	44	0	520093696	24	5907
2026-01-20 01:47:02.09	323.37	31.98	-31.9	-36.3	11.3	1.23e-03	0	44	0	525336576	23	5970
2026-01-20 01:47:05.10	322.32	32.15	-32.2	-36.9	10.4	3.82e-03	0	44	0	531628032	24	6176
2026-01-20 01:47:08.11	321.25	32.30	-31.9	-36.3	11.3	3.39e-03	0	44	0	536870912	23	5969
2026-01-20 01:47:11.12	320.17	32.45	-31.8	-36.1	11.4	2.66e-03	0	44	0	543162368	23	5891
2026-01-20 01:47:14.12	319.09	32.58	-32.1	-36.4	10.8	4.14e-03	0	44	0	548405248	24	5946
2026-01-20 01:47:17.14	317.99	32.71	-31.7	-35.6	11.8	2.76e-03	0	44	0	553648128	23	5655
2026-01-20 01:47:20.15	316.89	32.82	-31.3	-35.1	12.5	1.20e-04	0	44	0	559939584	22	5536
2026-01-20 01:47:23.16	315.78	32.92	-31.1	-34.5	12.9	1.01e-04	0	44	0	565182464	22	5293
2026-01-20 01:47:26.17	314.66	33.01	-30.9	-34.3	13.4	1.23e-04	0	44	0	570425344	21	5338
2026-01-20 01:47:29.18	313.54	33.08	-31.3	-34.9	12.7	6.63e-05	0	44	0	576716800	22	5465
2026-01-20 01:47:32.18	312.42	33.14	-31.3	-35.0	12.6	1.01e-04	0	44	0	581959680	22	5520
2026-01-20 01:47:35.19	311.29	33.20	-31.4	-35.2	12.4	1.81e-03	0	44	0	588251136	22	5596
2026-01-20 01:47:38.20	310.15	33.23	-31.4	-35.4	12.3	3.10e-04	0	44	0	593494016	22	5686
2026-01-20 01:47:41.21	309.01	33.26	-31.6	-35.3	12.1	8.79e-04	0	45	0	598736896	23	5508
2026-01-20 01:47:44.22	307.88	33.27	-31.6	-35.3	12.0	7.85e-04	0	44	0	605028352	23	5529
2026-01-20 01:47:47.24	306.73	33.27	-31.9	-36.4	11.2	8.25e-04	0	44	0	610271232	23	6042
2026-01-20 01:47:50.24	305.60	33.26	-31.7	-35.8	11.7	8.73e-04	0	44	0	615514112	23	5723
2026-01-20 01:47:53.25	304.46	33.23	-31.8	-35.9	11.5	8.32e-04	0	44	0	621805568	23	5784
2026-01-20 01:47:56.26	303.33	33.19	-32.0	-36.5	11.2	1.30e-03	0	44	0	627048448	23	6069
2026-01-20 01:47:59.27	302.20	33.14	-32.4	-37.6	10.0	8.47e-03	0	44	0	633339904	24	6513
2026-01-20 01:48:02.28	301.07	33.08	-32.2	-36.8	10.5	4.49e-03	0	44	0	638582784	24	6116
2026-01-20 01:48:05.28	299.95	33.00	-32.1	-36.4	10.8	2.82e-03	0	44	0	643825664	24	5939
2026-01-20 01:48:08.29	298.83	32.91	-32.3	-37.1	10.3	5.92e-03	0	44	0	650117120	24	6275
2026-01-20 01:48:11.30	297.72	32.81	-31.9	-36.5	11.1	1.33e-03	0	44	0	655360000	23	6059
2026-01-20 01:48:14.31	296.62	32.70	-32.0	-36.2	11.0	2.15e-03	0	44	0	660602880	24	5814
2026-01-20 01:48:17.31	295.52	32.58	-32.0	-36.2	10.9	1.77e-03	0	44	0	666894336	24	5842
2026-01-20 01:48:20.32	294.44	32.44	-31.9	-36.3	11.2	1.77e-03	0	44	0	672137216	23	6010
2026-01-20 01:48:23.33	293.36	32.30	-32.2	-36.7	10.6	3.09e-03	0	45	0	678428672	24	6087
2026-01-20 01:48:26.33	292.29	32.14	-31.9	-36.0	11.0	2.55e-03	0	45	0	683671552	24	5762
2026-01-20 01:48:29.34	291.24	31.97	-32.0	-36.4	10.8	2.05e-03	0	44	0	688914432	24	5914
2026-01-20 01:48:32.35	290.19	31.80	-32.2	-36.7	10.5	3.98e-03	0	44	0	695205888	24	6096
2026-01-20 01:48:35.36	289.16	31.61	-31.9	-36.1	11.0	2.02e-03	0	44	0	700448768	24	5781
2026-01-20 01:48:38.37	288.13	31.42	-31.9	-36.0	11.0	1.48e-03	0	44	0	706740224	24	5733
2026-01-20 01:48:41.38	287.12	31.21	-32.3	-37.3	10.0	5.56e-03	0	44	0	711983104	24	6398
2026-01-20 01:48:44.39	286.13	31.00	-31.9	-36.1	11.0	2.43e-03	0	44	0	717225984	24	5778
2026-01-20 01:48:47.40	285.14	30.78	-31.7	-35.8	11.5	9.69e-04	0	44	0	723517440	23	5753
2026-01-20 01:48:50.42	284.17	30.55	-31.9	-36.3	11.1	1.29e-03	0	44	0	728760320	23	6017
2026-01-20 01:48:53.43	283.21	30.31	-31.9	-36.5	11.0	1.99e-03	0	44	0	734003200	23	6115
2026-01-20 01:48:56.43	282.27	30.07	-31.9	-35.8	11.1	2.74e-03	0	44	0	740294656	24	5685
2026-01-20 01:48:59.44	281.35	29.82	-31.7	-35.7	11.5	7.84e-04	0	44	0	745537536	23	5725
2026-01-20 01:49:02.45	280.43	29.57	-31.8	-36.3	11.1	1.47e-03	0	45	0	751828992	23	6013
2026-01-20 01:49:05.46	279.53	29.31	-31.7	-35.7	11.5	1.22e-03	0	44	0	757071872	23	5729
2026-01-20 01:49:08.47	278.65	29.04	-31.5	-35.3	11.8	4.71e-04	0	45	0	762314752	23	5549
2026-01-20 01:49:11.48	277.78	28.77	-31.7	-35.9	11.3	8.88e-04	0	44	0	768606208	23	5829
2026-01-20 01:49:14.49	276.93	28.50	-31.9	-36.2	10.7	3.21e-03	0	44	0	773849088	24	5887
2026-01-20 01:49:17.50	276.09	28.22	-31.6	-35.6	11.5	7.57e-04	0	44	0	779091968	23	5692
2026-01-20 01:49:20.52	275.26	27.93	-31.3	-34.7	12.2	2.62e-04	0	44	0	785383424	23	5300
2026-01-20 01:49:23.52	274.45	27.64	-31.7	-36.0	11.2	6.14e-04	0	44	0	790626304	23	5877
2026-01-20 01:49:26.53	273.65	27.35	-31.4	-35.0	11.9	5.86e-04	0	44	0	796917760	23	5430
2026-01-20 01:49:29.55	272.87	27.06	-31.1	-34.2	12.5	1.14e-04	0	44	0	802160640	23	5111
2026-01-20 01:49:32.56	272.10	26.76	-31.1	-34.2	12.4	1.25e-04	0	44	0	807403520	23	5148
2026-01-20 01:49:35.57	271.35	26.46	-30.7	-33.6	13.2	3.58e-05	0	44	0	813694976	22	4986
2026-01-20 01:49:38.56	270.62	26.17	-30.4	-33.2	13.7	9.10e-06	0	44	0	818937856	21	4979
2026-01-20 01:49:41.57	269.89	25.86	-30.2	-33.3	14.0	7.00e-07	0	44	0	825229312	20	5093
2026-01-20 01:49:44.57	269.18	25.56	-29.3	-32.3	14.0	3.80e-06	0	44	0	830472192	20	5072
2026-01-20 01:49:47.56	268.49	25.26	-30.0	-32.7	14.3	7.00e-07	0	44	0	835715072	20	4896
2026-01-20 01:49:50.56	267.81	24.95	-29.8	-32.3	14.6	1.74e-04	0	44	0	842006528	20	4757
2026-01-20 01:49:53.58	267.13	24.64	-29.6	-32.1	15.0	3.25e-04	0	44	0	847249408	19	4809
2026-01-20 01:49:56.58	266.48	24.34	-29.5	-32.3	15.3	8.83e-04	0	44	0	852492288	18	4978
2026-01-20 01:49:59.58	265.84	24.03	-29.4	-32.0	15.4	0.00e+00	0	44	0	858783744	18	4894
2026-01-20 01:50:02.59	265.20	23.72	-29.2	-31.5	15.7	0.00e+00	0	44	0	864026624	18	4713
2026-01-20 01:50:05.59	264.58	23.42	-29.1	-31.5	15.7	1.64e-04	0	44	0	869269504	18	4701
2026-01-20 01:50:08.60	263.98	23.11	-28.9	-31.5	16.0	1.88e-03	0	44	0	875560960	17	4824
2026-01-20 01:50:11.62	263.38	22.80	-29.4	-32.2	15.2	1.69e-03	0	44	0	880803840	18	4967
2026-01-20 01:50:14.64	262.79	22.49	-29.3	-32.0	15.3	1.44e-03	0	44	0	887095296	18	4892
2026-01-20 01:50:17.64	262.22	22.18	-29.4	-32.2	15.2	9.68e-05	0	44	0	892338176	18	4952
2026-01-20 01:50:20.65	261.66	21.88	-29.5	-32.3	15.1	2.15e-03	0	44	0	897581056	18	4999
2026-01-20 01:50:23.65	261.11	21.57	-29.5	-32.0	15.0	2.19e-03	0	44	0	903872512	19	4768
2026-01-20 01:50:26.66	260.57	21.27	-29.5	-31.9	15.0	2.19e-03	0	44	0	909115392	19	4756
2026-01-20 01:50:29.67	260.04	20.96	-29.7	-32.5	14.7	1.20e-03	0	44	0	915406848	19	4961
2026-01-20 01:50:32.67	259.53	20.66	-30.2	-33.1	13.9	8.89e-04	0	44	0	920649728	20	5077
2026-01-20 01:50:35.67	259.02	20.36	-30.3	-33.5	13.6	1.79e-03	0	44	0	925892608	20	5210
2026-01-20 01:50:38.67	258.52	20.06	-30.1	-32.9	14.0	2.37e-03	0	44	0	932184064	20	5006
2026-01-20 01:50:41.68	258.04	19.76	-30.1	-33.0	13.9	2.80e-03	0	44	0	937426944	20	5015
2026-01-20 01:50:44.69	257.56	19.47	-30.1	-33.0	13.9	2.52e-03	0	44	0	942669824	20	5032
2026-01-20 01:50:47.69	257.09	19.17	-30.1	-33.2	13.8	2.70e-03	0	44	0	948961280	20	5090
2026-01-20 01:50:50.69	256.63	18.88	-30.0	-32.9	13.9	2.64e-03	0	44	0	954204160	20	4986
2026-01-20 01:50:53.70	256.18	18.59	-30.2	-33.2	13.7	2.21e-03	0	44	0	959447040	20	5126
2026-01-20 01:50:56.71	255.74	18.30	-30.4	-33.8	13.3	1.22e-05	0	44	0	965738496	20	5328
2026-01-20 01:50:59.72	255.30	18.01	-30.4	-33.9	13.3	1.75e-05	0	44	0	970981376	20	5371
2026-01-20 01:51:02.73	254.87	17.72	-30.4	-33.9	13.3	2.44e-03	0	44	0	977272832	20	5373
2026-01-20 01:51:05.74	254.46	17.43	-30.6	-34.1	12.7	3.33e-03	0	44	0	982515712	21	5373
2026-01-20 01:51:08.75	254.05	17.15	-30.8	-34.7	12.4	3.72e-03	0	44	0	987758592	21	5596
2026-01-20 01:51:11.75	253.65	16.87	-31.0	-34.8	11.9	4.26e-04	0	44	0	994050048	22	5535
2026-01-20 01:51:14.76	253.25	16.58	-31.2	-35.4	11.4	7.09e-04	0	44	0	999292928	22	5845
2026-01-20 01:51:17.77	252.86	16.31	-30.8	-34.7	12.2	2.61e-04	0	44	0	1005584384	21	5617
2026-01-20 01:51:20.78	252.48	16.03	-30.8	-34.5	12.4	1.39e-04	0	44	0	1010827264	21	5540
2026-01-20 01:51:23.79	252.11	15.75	-30.8	-34.5	12.4	1.75e-04	0	44	0	1016070144	21	5552
2026-01-20 01:51:26.80	251.74	15.48	-30.9	-35.0	12.0	4.71e-03	0	44	0	1022361600	21	5756
2026-01-20 01:51:29.81	251.38	15.21	-31.2	-35.5	11.3	8.29e-04	0	44	0	1027604480	22	5870
2026-01-20 01:51:32.82	251.03	14.94	-30.9	-35.0	11.9	4.50e-04	0	44	0	1032847360	21	5762
2026-01-20 01:51:35.83	250.68	14.67	-31.2	-35.3	11.4	7.44e-04	0	44	0	1039138816	22	5784
2026-01-20 01:51:38.83	250.35	14.41	-30.8	-34.8	12.0	3.34e-04	0	44	0	1044381696	21	5666
2026-01-20 01:51:41.84	250.01	14.14	-30.8	-34.8	12.0	3.70e-04	0	44	0	1050673152	21	5680
2026-01-20 01:51:44.85	249.68	13.88	-30.8	-34.6	12.1	2.66e-04	0	44	0	1055916032	21	5623
2026-01-20 01:51:47.86	249.36	13.62	-30.9	-35.0	11.7	4.16e-04	0	44	0	1061158912	21	5782
2026-01-20 01:51:50.87	249.04	13.36	-31.1	-35.3	11.2	1.63e-03	0	44	0	1067450368	22	5800
2026-01-20 01:51:53.88	248.73	13.10	-31.3	-35.8	10.8	7.06e-03	0	44	0	1072693248	22	6076
2026-01-20 01:51:56.87	248.43	12.85	-31.4	-36.3	10.4	3.42e-03	0	44	0	1077936128	22	6337
2026-01-20 01:51:59.88	248.13	12.60	-31.4	-36.3	10.4	4.82e-03	0	44	0	1084227584	22	6294
2026-01-20 01:52:02.87	247.84	12.35	-31.2	-35.6	10.9	3.31e-03	0	45	0	1089470464	22	5979
2026-01-20 01:52:05.87	247.55	12.10	-31.1	-35.2	11.2	9.37e-04	0	44	0	1095761920	22	5767
2026-01-20 01:52:08.88	247.26	11.85	-31.2	-35.6	10.9	4.89e-03	0	44	0	1101004800	22	5955
2026-01-20 01:52:11.89	246.98	11.61	-31.2	-35.5	10.9	5.74e-03	0	44	0	1106247680	22	5958
2026-01-20 01:52:14.90	246.71	11.36	-31.1	-35.4	11.0	6.32e-03	0	44	0	1112539136	22	5871
2026-01-20 01:52:17.91	246.44	11.12	-30.9	-35.3	11.4	9.41e-04	0	44	0	1117782016	21	5952
2026-01-20 01:52:20.91	246.17	10.88	-30.9	-35.4	11.3	1.12e-03	0	44	0	1123024896	21	5997
2026-01-20 01:52:23.92	245.91	10.64	-31.3	-35.9	10.5	3.07e-03	0	44	0	1129316352	22	6143
2026-01-20 01:52:26.93	245.65	10.41	-31.1	-35.6	10.8	5.38e-03	0	44	0	1134559232	22	5984
2026-01-20 01:52:29.94	245.40	10.17	-31.1	-35.5	10.8	2.85e-03	0	44	0	1140850688	22	5955
2026-01-20 01:52:32.94	245.15	9.94	-31.3	-36.0	10.4	8.14e-03	0	45	0	1146093568	22	6237
2026-01-20 01:52:35.94	244.91	9.71	-31.2	-35.9	10.4	7.44e-03	0	45	0	1151336448	22	6183
2026-01-20 01:52:38.94	244.67	9.48	-31.2	-35.9	10.5	7.85e-03	0	44	0	1157627904	22	6156
2026-01-20 01:52:41.96	244.43	9.25	-31.2	-35.7	10.6	3.59e-03	0	44	0	1162870784	22	6079
2026-01-20 01:52:44.97	244.19	9.02	-31.2	-35.9	10.4	6.63e-03	0	44	0	1169162240	22	6194
2026-01-20 01:52:47.98	243.96	8.80	-31.2	-36.0	10.3	9.69e-03	0	44	0	1174405120	22	6259
2026-01-20 01:52:50.98	243.74	8.57	-31.4	-36.5	9.8	9.61e-03	0	44	0	1179648000	22	6545
2026-01-20 01:52:53.99	243.52	8.35	-31.3	-36.2	10.1	9.23e-03	0	44	0	1185939456	22	6369
2026-01-20 01:52:57.00	243.30	8.13	-31.2	-36.1	10.1	1.02e-02	0	44	0	1191182336	22	6333
2026-01-20 01:53:00.01	243.08	7.91	-31.3	-36.3	9.9	9.18e-03	0	44	0	1196425216	22	6455
2026-01-20 01:53:03.01	242.87	7.69	-31.3	-36.4	9.8	1.11e-02	0	44	0	1202716672	22	6504
2026-01-20 01:53:06.02	242.66	7.48	-31.3	-36.5	9.7	1.13e-02	0	44	0	1207959552	22	6560
2026-01-20 01:53:09.02	242.46	7.26	-31.4	-37.0	9.3	1.72e-02	0	45	0	1214251008	22	6858
2026-01-20 01:53:12.02	242.25	7.05	-33.3	-47.5	3.8	9.05e-01	0	44	104	1218445312	26	18559
2026-01-20 01:53:15.02	242.05	6.84	-34.0	-48.1	3.8	1.49e+00	0	44	104	1218445312	28	18237

#Closed at: 2026-01-20 01:53:15
#Recorded file [1218 MB]: D:/data/31010_260120_044221.dat