passes_logs/2026/01/20/R2M6_AANII_01/R2M6_AANII_01__20260120_005150_NOAA_21_JPSS-2_rec.log

#Pass ID: 20260120_005150_NOAA 21 (JPSS-2)
#Satellite: NOAA 21 (JPSS-2)
#Configuration: NOAA 21
#almurnet v.1.7.20240730
#Start time: 2026-01-20 00:51:51

#Version: 2.2.20231116
#Station: R2M6_AANII_01
#Location: 30.233357 lon 59.946436 lat
#TLE: 1 54234U 22150A   26019.31231101  .00000073  00000+0  55355-4 0  9994
#TLE: 2 54234  98.7504 320.1599 0000604 258.3686 101.7423 14.19535697165426

#Time	Az	El	Level	Level2	SNR	BER	BlckErr	Temp	State	Recorded	gain1	gain2
2026-01-20 00:51:51.31	15.57	7.10	-32.7	-40.4	4.1	1.47e+00	0	44	0	0	25	8758
2026-01-20 00:51:54.31	15.49	7.33	-31.3	-35.7	8.7	4.52e-02	0	45	0	3145728	22	5927
2026-01-20 00:51:57.31	15.42	7.56	-30.8	-34.5	9.8	1.27e-02	0	45	0	12582912	21	5519
2026-01-20 00:52:00.30	15.34	7.79	-31.0	-35.1	9.4	1.62e-02	0	45	0	20971520	21	5776
2026-01-20 00:52:03.31	15.26	8.03	-31.2	-35.2	9.0	3.03e-02	0	45	0	30408704	22	5711
2026-01-20 00:52:06.31	15.18	8.26	-30.9	-34.8	9.6	1.33e-02	0	45	0	39845888	21	5660
2026-01-20 00:52:09.33	15.10	8.51	-30.3	-33.6	10.9	2.54e-03	0	45	0	49283072	20	5270
2026-01-20 00:52:12.33	15.02	8.75	-29.9	-32.5	11.6	8.22e-04	0	45	0	58720256	20	4861
2026-01-20 00:52:15.34	14.94	8.99	-29.6	-32.2	12.3	1.93e-04	0	45	0	68157440	19	4828
2026-01-20 00:52:18.35	14.85	9.24	-29.4	-32.1	12.6	9.84e-05	0	45	0	77594624	18	4935
2026-01-20 00:52:21.35	14.77	9.49	-29.3	-31.8	12.9	6.17e-05	0	45	0	87031808	18	4815
2026-01-20 00:52:24.35	14.68	9.74	-29.4	-32.0	12.8	5.56e-05	0	45	0	96468992	18	4886
2026-01-20 00:52:27.36	14.59	10.00	-29.1	-31.3	13.2	2.89e-05	0	45	0	105906176	18	4659
2026-01-20 00:52:30.38	14.49	10.26	-29.1	-31.4	13.2	1.67e-05	0	45	0	115343360	18	4671
2026-01-20 00:52:33.39	14.40	10.52	-28.9	-31.3	13.5	6.80e-06	0	45	0	124780544	17	4771
2026-01-20 00:52:36.38	14.30	10.78	-28.8	-30.7	13.7	6.10e-06	0	45	0	134217728	18	4451
2026-01-20 00:52:39.39	14.20	11.04	-29.0	-31.2	13.4	1.37e-05	0	44	0	143654912	18	4603
2026-01-20 00:52:42.41	14.10	11.31	-28.8	-31.1	13.8	6.10e-06	0	45	0	153092096	17	4677
2026-01-20 00:52:45.42	14.00	11.58	-28.7	-31.0	13.8	5.30e-06	0	44	0	162529280	17	4646
2026-01-20 00:52:48.42	13.90	11.86	-28.8	-31.2	13.7	5.30e-06	0	45	0	171966464	17	4725
2026-01-20 00:52:51.42	13.79	12.13	-29.0	-31.4	13.6	9.10e-06	0	45	0	181403648	17	4799
2026-01-20 00:52:54.42	13.68	12.41	-28.9	-31.4	13.6	9.10e-06	0	45	0	190840832	17	4766
2026-01-20 00:52:57.43	13.57	12.70	-28.7	-30.8	14.0	3.00e-06	0	45	0	200278016	17	4580
2026-01-20 00:53:00.44	13.46	12.98	-28.6	-30.7	14.1	1.50e-06	0	45	0	209715200	17	4559
2026-01-20 00:53:03.46	13.34	13.28	-28.5	-30.4	13.2	1.50e-06	0	45	0	219152384	17	4466
2026-01-20 00:53:06.48	13.22	13.57	-28.5	-30.8	14.3	3.00e-06	0	45	0	228589568	16	4713
2026-01-20 00:53:09.48	13.10	13.87	-28.5	-30.7	14.4	1.62e-03	0	45	0	238026752	16	4682
2026-01-20 00:53:12.48	12.98	14.16	-28.5	-30.8	14.4	2.20e-06	0	45	0	247463936	16	4696
2026-01-20 00:53:15.49	12.85	14.47	-28.6	-30.6	14.2	3.96e-03	0	45	0	255852544	17	4508
2026-01-20 00:53:18.50	12.72	14.78	-28.6	-30.5	14.1	7.00e-07	0	45	0	265289728	17	4504
2026-01-20 00:53:21.49	12.59	15.09	-28.4	-30.7	14.5	4.81e-03	0	45	0	274726912	16	4651
2026-01-20 00:53:24.51	12.45	15.40	-28.2	-30.1	14.9	3.89e-03	0	45	0	284164096	16	4488
2026-01-20 00:53:27.50	12.31	15.72	-28.4	-30.5	14.7	0.00e+00	0	45	0	293601280	16	4587
2026-01-20 00:53:30.50	12.17	16.04	-28.2	-30.1	14.9	4.07e-03	0	45	0	303038464	16	4489
2026-01-20 00:53:33.50	12.03	16.37	-28.2	-30.1	14.9	4.02e-03	0	45	0	312475648	16	4464
2026-01-20 00:53:36.50	11.88	16.70	-28.3	-30.2	14.9	4.07e-03	0	45	0	321912832	16	4506
2026-01-20 00:53:39.52	11.72	17.04	-28.3	-30.3	14.8	4.18e-03	0	45	0	331350016	16	4541
2026-01-20 00:53:42.52	11.57	17.37	-28.3	-30.3	14.9	4.28e-03	0	45	0	340787200	16	4521
2026-01-20 00:53:45.53	11.41	17.72	-28.4	-30.5	14.8	3.53e-03	0	44	0	350224384	16	4582
2026-01-20 00:53:48.54	11.24	18.07	-28.5	-30.7	14.7	2.26e-04	0	44	0	359661568	16	4643
2026-01-20 00:53:51.55	11.07	18.42	-28.5	-30.3	14.6	4.14e-03	0	44	0	369098752	17	4433
2026-01-20 00:53:54.56	10.90	18.78	-28.6	-30.4	14.6	1.56e-04	0	44	0	378535936	17	4446
2026-01-20 00:53:57.56	10.72	19.15	-28.5	-30.7	14.7	8.46e-05	0	44	0	387973120	16	4641
2026-01-20 00:54:00.55	10.54	19.51	-28.4	-30.6	14.8	3.87e-03	0	44	0	397410304	16	4612
2026-01-20 00:54:03.55	10.36	19.89	-28.4	-29.9	14.9	2.92e-04	0	44	0	406847488	17	4311
2026-01-20 00:54:06.56	10.17	20.27	-28.3	-30.3	15.0	0.00e+00	0	45	0	416284672	16	4523
2026-01-20 00:54:09.57	9.97	20.65	-27.8	-29.7	15.4	2.43e-04	0	45	0	425721856	15	4473
2026-01-20 00:54:12.59	9.77	21.04	-28.2	-29.9	15.2	3.01e-04	0	45	0	435159040	16	4414
2026-01-20 00:54:15.59	9.56	21.44	-27.5	-29.0	15.8	3.27e-04	0	44	0	444596224	15	4280
2026-01-20 00:54:18.59	9.35	21.84	-27.5	-28.9	15.9	3.19e-04	0	45	0	454033408	15	4241
2026-01-20 00:54:21.60	9.13	22.25	-27.3	-29.1	16.0	0.00e+00	0	45	0	462422016	14	4415
2026-01-20 00:54:24.61	8.90	22.67	-27.4	-29.2	16.0	2.36e-05	0	45	0	472907776	14	4442
2026-01-20 00:54:27.62	8.67	23.09	-27.3	-29.0	16.2	0.00e+00	0	45	0	482344960	14	4377
2026-01-20 00:54:30.62	8.44	23.51	-27.2	-28.8	16.3	0.00e+00	0	45	0	490733568	14	4322
2026-01-20 00:54:33.62	8.19	23.95	-27.3	-29.0	16.2	0.00e+00	0	45	0	500170752	14	4373
2026-01-20 00:54:36.62	7.94	24.39	-27.4	-29.3	16.0	0.00e+00	0	45	0	509607936	14	4468
2026-01-20 00:54:39.63	7.68	24.83	-27.5	-29.0	16.0	0.00e+00	0	45	0	519045120	15	4273
2026-01-20 00:54:42.63	7.41	25.29	-27.6	-29.2	15.8	0.00e+00	0	45	0	528482304	15	4335
2026-01-20 00:54:45.64	7.14	25.75	-27.9	-29.9	15.5	0.00e+00	0	45	0	537919488	15	4521
2026-01-20 00:54:48.65	6.85	26.22	-28.1	-29.9	15.4	0.00e+00	0	45	0	547356672	16	4389
2026-01-20 00:54:51.65	6.56	26.69	-28.3	-30.2	15.2	0.00e+00	0	45	0	556793856	16	4494
2026-01-20 00:54:54.66	6.26	27.18	-28.3	-30.2	15.2	0.00e+00	0	45	0	566231040	16	4497
2026-01-20 00:54:57.67	5.94	27.67	-28.5	-30.2	15.0	0.00e+00	0	45	0	575668224	17	4384
2026-01-20 00:55:00.67	5.62	28.17	-28.7	-30.6	14.8	0.00e+00	0	45	0	585105408	17	4496
2026-01-20 00:55:03.69	5.29	28.68	-28.9	-31.1	14.5	0.00e+00	0	45	0	594542592	17	4632
2026-01-20 00:55:06.70	4.94	29.20	-28.5	-30.1	15.1	0.00e+00	0	45	0	603979776	17	4351
2026-01-20 00:55:09.71	4.59	29.72	-28.4	-30.5	15.2	0.00e+00	0	45	0	613416960	16	4560
2026-01-20 00:55:12.72	4.22	30.26	-28.1	-29.7	15.6	0.00e+00	0	45	0	622854144	16	4334
2026-01-20 00:55:15.73	3.84	30.80	-28.2	-30.0	15.5	0.00e+00	0	45	0	632291328	16	4406
2026-01-20 00:55:18.72	3.44	31.35	-28.3	-30.2	15.3	0.00e+00	0	45	0	641728512	16	4482
2026-01-20 00:55:21.74	3.03	31.91	-28.4	-30.4	15.2	0.00e+00	0	45	0	651165696	16	4532
2026-01-20 00:55:24.75	2.61	32.48	-28.4	-30.3	15.3	0.00e+00	0	45	0	660602880	16	4513
2026-01-20 00:55:27.75	2.17	33.05	-28.5	-30.1	15.2	0.00e+00	0	45	0	670040064	17	4331
2026-01-20 00:55:30.76	1.72	33.64	-28.6	-30.4	15.0	0.00e+00	0	45	0	679477248	17	4411
2026-01-20 00:55:33.77	1.24	34.24	-28.8	-30.9	14.7	0.00e+00	0	45	0	688914432	17	4575
2026-01-20 00:55:36.78	0.75	34.84	-29.0	-31.2	14.5	0.00e+00	0	45	0	698351616	17	4665
2026-01-20 00:55:39.79	0.24	35.46	-29.4	-31.8	14.0	7.00e-07	0	45	0	707788800	18	4720
2026-01-20 00:55:42.79	359.71	36.08	-29.8	-32.2	13.4	1.06e-05	0	45	0	716177408	19	4764
2026-01-20 00:55:45.80	359.16	36.72	-29.9	-32.4	13.3	2.44e-05	0	45	0	725614592	19	4804
2026-01-20 00:55:48.81	358.58	37.36	-30.1	-32.4	13.0	4.42e-05	0	45	0	736100352	20	4688
2026-01-20 00:55:51.81	357.99	38.01	-30.0	-32.2	13.1	7.93e-05	0	45	0	744488960	20	4637
2026-01-20 00:55:54.83	357.36	38.68	-30.4	-33.1	12.5	9.76e-05	0	45	0	753926144	20	4944
2026-01-20 00:55:57.82	356.72	39.34	-30.6	-33.3	12.1	2.42e-04	0	45	0	763363328	21	4915
2026-01-20 00:56:00.81	356.04	40.02	-30.2	-32.6	12.8	1.61e-04	0	45	0	772800512	20	4777
2026-01-20 00:56:03.83	355.34	40.71	-29.6	-31.7	13.7	4.50e-06	0	45	0	782237696	19	4591
2026-01-20 00:56:06.83	354.60	41.40	-29.9	-32.5	13.2	1.98e-05	0	45	0	791674880	19	4857
2026-01-20 00:56:09.83	353.83	42.10	-29.8	-31.8	13.4	2.44e-05	0	45	0	801112064	20	4501
2026-01-20 00:56:12.84	353.02	42.81	-30.0	-32.5	13.3	1.14e-05	0	45	0	810549248	19	4832
2026-01-20 00:56:15.84	352.18	43.53	-30.4	-32.5	12.6	1.19e-04	0	45	0	819986432	21	4625
2026-01-20 00:56:18.85	351.30	44.25	-30.7	-33.5	12.0	2.78e-04	0	45	0	829423616	21	4944
2026-01-20 00:56:21.87	350.37	44.99	-30.4	-32.8	12.4	1.41e-04	0	45	0	838860800	21	4709
2026-01-20 00:56:24.88	349.40	45.72	-30.5	-32.9	12.3	1.93e-04	0	45	0	848297984	21	4738
2026-01-20 00:56:27.88	348.39	46.46	-30.4	-32.6	12.5	1.35e-04	0	45	0	857735168	21	4655
2026-01-20 00:56:30.88	347.33	47.20	-29.9	-32.1	13.2	2.89e-05	0	45	0	867172352	20	4590
2026-01-20 00:56:33.88	346.22	47.94	-29.9	-32.0	13.2	2.51e-05	0	45	0	876609536	20	4573
2026-01-20 00:56:36.89	345.04	48.68	-29.9	-32.0	13.2	1.60e-05	0	45	0	886046720	20	4571
2026-01-20 00:56:39.89	343.82	49.42	-30.3	-33.1	12.5	1.14e-04	0	45	0	895483904	20	4933
2026-01-20 00:56:42.89	342.53	50.16	-29.8	-32.2	13.4	8.30e-06	0	45	0	904921088	19	4747
2026-01-20 00:56:45.90	341.17	50.89	-30.1	-32.5	12.8	4.73e-05	0	45	0	914358272	20	4731
2026-01-20 00:56:48.91	339.75	51.62	-29.8	-31.7	13.3	1.75e-05	0	45	0	923795456	20	4492
2026-01-20 00:56:51.92	338.25	52.34	-29.5	-31.0	13.8	1.06e-05	0	45	0	933232640	20	4283
2026-01-20 00:56:54.94	336.67	53.05	-29.2	-31.2	14.4	7.00e-07	0	45	0	942669824	18	4532
2026-01-20 00:56:57.96	335.01	53.75	-29.0	-30.4	14.6	7.00e-07	0	45	0	952107008	19	4200
2026-01-20 00:57:00.96	333.29	54.43	-28.7	-30.7	15.0	0.00e+00	0	45	0	961544192	17	4497
2026-01-20 00:57:03.96	331.48	55.09	-28.7	-30.1	15.0	0.00e+00	0	45	0	969932800	18	4230
2026-01-20 00:57:06.97	329.58	55.73	-28.8	-30.9	14.5	0.00e+00	0	45	0	979369984	17	4563
2026-01-20 00:57:09.99	327.58	56.35	-28.6	-30.4	15.0	0.00e+00	0	45	0	988807168	17	4407
2026-01-20 00:57:12.99	325.51	56.93	-28.3	-29.6	15.5	5.75e-04	0	45	0	998244352	17	4192
2026-01-20 00:57:16.00	323.35	57.48	-27.9	-29.2	16.0	0.00e+00	0	45	0	1007681536	16	4191
2026-01-20 00:57:19.01	321.10	58.00	-28.0	-29.4	15.8	3.15e-04	0	45	0	1017118720	16	4262
2026-01-20 00:57:22.02	318.76	58.48	-27.9	-29.8	15.8	0.00e+00	0	45	0	1026555904	15	4497
2026-01-20 00:57:25.03	316.34	58.92	-26.6	-27.5	17.3	2.48e-04	0	45	0	1035993088	14	3974
2026-01-20 00:57:28.05	313.83	59.31	-27.5	-28.9	16.3	5.40e-04	0	45	0	1045430272	15	4236
2026-01-20 00:57:31.05	311.27	59.65	-27.4	-28.6	16.3	0.00e+00	0	45	0	1054867456	15	4151
2026-01-20 00:57:34.06	308.63	59.94	-28.2	-29.9	15.5	1.40e-04	0	45	0	1064304640	16	4394
2026-01-20 00:57:37.06	305.95	60.17	-28.1	-29.8	15.6	0.00e+00	0	45	0	1073741824	16	4364
2026-01-20 00:57:40.07	303.22	60.35	-27.2	-28.2	16.7	8.91e-04	0	45	0	1083179008	15	4032
2026-01-20 00:57:43.07	300.47	60.47	-27.2	-28.9	16.5	8.63e-04	0	45	0	1092616192	14	4331
2026-01-20 00:57:46.08	297.68	60.52	-27.1	-28.5	16.7	1.35e-03	0	45	0	1102053376	14	4237
2026-01-20 00:57:49.08	294.90	60.52	-27.2	-28.8	16.5	2.73e-03	0	45	0	1111490560	14	4321
2026-01-20 00:57:52.08	292.13	60.46	-27.4	-29.1	16.3	0.00e+00	0	45	0	1120927744	14	4403
2026-01-20 00:57:55.08	289.37	60.34	-27.8	-29.5	15.9	3.16e-03	0	45	0	1130364928	15	4405
2026-01-20 00:57:58.10	286.63	60.16	-27.1	-28.5	16.7	0.00e+00	0	45	0	1139802112	14	4233
2026-01-20 00:58:01.10	283.95	59.92	-28.5	-30.6	15.1	0.00e+00	0	45	0	1149239296	16	4607
2026-01-20 00:58:04.11	281.32	59.63	-27.6	-29.1	16.1	0.00e+00	0	45	0	1158676480	15	4287
2026-01-20 00:58:07.11	278.76	59.29	-28.3	-30.2	15.4	0.00e+00	0	45	0	1168113664	16	4473
2026-01-20 00:58:10.12	276.26	58.90	-28.3	-30.2	15.2	0.00e+00	0	45	0	1177550848	16	4474
2026-01-20 00:58:13.13	273.84	58.46	-28.4	-30.5	15.2	0.00e+00	0	45	0	1186988032	16	4576
2026-01-20 00:58:16.14	271.50	57.98	-27.9	-29.3	15.9	2.43e-04	0	45	0	1196425216	16	4226
2026-01-20 00:58:19.16	269.24	57.46	-27.8	-29.7	15.7	0.00e+00	0	45	0	1205862400	15	4458
2026-01-20 00:58:22.18	267.07	56.90	-28.7	-30.6	14.8	0.00e+00	0	45	0	1215299584	17	4479
2026-01-20 00:58:25.19	264.99	56.31	-28.1	-29.8	15.5	0.00e+00	0	45	0	1223688192	16	4347
2026-01-20 00:58:28.20	263.01	55.69	-29.4	-31.8	13.9	2.20e-06	0	45	0	1233125376	18	4737
2026-01-20 00:58:31.21	261.11	55.05	-29.3	-31.5	13.8	1.97e-03	0	45	0	1242562560	18	4656
2026-01-20 00:58:34.22	259.29	54.39	-29.4	-31.8	13.8	2.11e-04	0	45	0	1251999744	18	4736
2026-01-20 00:58:37.22	257.57	53.70	-30.9	-34.2	11.2	9.72e-04	0	45	0	1261436928	21	5252
2026-01-20 00:58:40.24	255.91	53.00	-28.9	-30.0	14.5	1.50e-06	0	45	0	1270874112	19	4109
2026-01-20 00:58:43.24	254.34	52.29	-30.0	-32.4	12.7	2.36e-05	0	45	0	1280311296	20	4705
2026-01-20 00:58:46.25	252.85	51.57	-29.2	-30.8	14.0	1.29e-05	0	45	0	1289748480	19	4318
2026-01-20 00:58:49.26	251.42	50.84	-29.0	-30.9	14.2	1.98e-04	0	45	0	1299185664	18	4470
2026-01-20 00:58:52.27	250.06	50.10	-30.2	-32.7	12.5	1.63e-04	0	45	0	1308622848	20	4832
2026-01-20 00:58:55.28	248.77	49.36	-29.5	-31.2	13.2	4.73e-05	0	45	0	1318060032	20	4354
2026-01-20 00:58:58.28	247.55	48.61	-29.9	-32.5	13.0	1.62e-04	0	45	0	1327497216	19	4868
2026-01-20 00:59:01.28	246.38	47.87	-29.5	-32.3	10.9	2.38e-04	0	45	0	1336934400	20	4945
2026-01-20 00:59:04.29	245.26	47.13	-29.5	-32.0	13.2	2.59e-05	0	45	0	1346371584	18	4818
2026-01-20 00:59:07.29	244.20	46.38	-29.4	-31.7	13.7	1.45e-03	0	45	0	1355808768	18	4721
2026-01-20 00:59:10.30	243.18	45.64	-31.6	-35.2	9.8	5.52e-03	0	45	0	1365245952	23	5445
2026-01-20 00:59:13.31	242.21	44.90	-30.7	-33.8	11.3	2.51e-03	0	45	0	1374683136	21	5128
2026-01-20 00:59:16.32	241.29	44.17	-29.9	-32.2	12.7	7.93e-05	0	45	0	1384120320	20	4664
2026-01-20 00:59:19.34	240.40	43.44	-30.5	-33.2	11.8	3.91e-03	0	45	0	1393557504	21	4889
2026-01-20 00:59:22.36	239.56	42.72	-32.2	-36.7	8.3	4.91e-02	0	45	0	1402994688	24	6056
2026-01-20 00:59:25.37	238.75	42.01	-30.6	-33.3	11.5	4.06e-03	0	45	0	1412431872	21	4937
2026-01-20 00:59:28.38	237.98	41.30	-30.5	-33.2	11.7	4.56e-03	0	45	0	1421869056	21	4908
2026-01-20 00:59:31.39	237.24	40.60	-30.5	-33.2	11.8	1.92e-03	0	45	0	1431306240	21	4917
2026-01-20 00:59:34.41	236.53	39.91	-30.3	-33.1	12.1	3.86e-03	0	45	0	1440743424	20	5001
2026-01-20 00:59:37.42	235.85	39.23	-30.4	-32.9	11.8	6.93e-04	0	45	0	1450180608	21	4824
2026-01-20 00:59:40.44	235.20	38.55	-29.2	-31.4	13.8	3.63e-03	0	45	0	1459617792	18	4614
2026-01-20 00:59:43.44	234.58	37.89	-29.7	-32.0	13.1	2.82e-05	0	45	0	1469054976	19	4724
2026-01-20 00:59:46.45	233.98	37.24	-29.2	-31.4	13.8	6.80e-06	0	45	0	1478492160	18	4640
2026-01-20 00:59:49.45	233.41	36.59	-29.1	-31.2	13.9	3.79e-03	0	45	0	1487929344	18	4586
2026-01-20 00:59:52.46	232.86	35.96	-29.6	-31.9	13.1	2.36e-05	0	45	0	1497366528	19	4697
2026-01-20 00:59:55.47	232.33	35.33	-29.2	-31.5	13.8	7.60e-06	0	45	0	1506803712	18	4670
2026-01-20 00:59:58.49	231.81	34.71	-28.5	-30.4	14.6	0.00e+00	0	45	0	1516240896	17	4444
2026-01-20 01:00:01.49	231.32	34.10	-28.4	-30.5	14.9	0.00e+00	0	45	0	1524629504	16	4603
2026-01-20 01:00:04.49	230.85	33.51	-28.4	-30.1	14.8	0.00e+00	0	45	0	1534066688	17	4357
2026-01-20 01:00:07.49	230.40	32.92	-28.3	-30.3	15.0	0.00e+00	0	45	0	1543503872	16	4533
2026-01-20 01:00:10.50	229.96	32.34	-28.0	-29.7	15.3	0.00e+00	0	45	0	1552941056	16	4359
2026-01-20 01:00:13.52	229.53	31.77	-28.6	-30.5	14.5	7.00e-07	0	45	0	1562378240	17	4494
2026-01-20 01:00:16.53	229.12	31.21	-28.6	-30.5	14.4	7.00e-07	0	45	0	1571815424	17	4477
2026-01-20 01:00:19.54	228.73	30.65	-28.4	-30.0	14.7	7.00e-07	0	45	0	1581252608	17	4341
2026-01-20 01:00:22.56	228.34	30.11	-28.2	-30.2	14.9	0.00e+00	0	45	0	1590689792	16	4509
2026-01-20 01:00:25.57	227.97	29.57	-27.9	-29.9	15.2	0.00e+00	0	45	0	1600126976	15	4532
2026-01-20 01:00:28.58	227.62	29.05	-28.5	-30.4	14.5	2.07e-03	0	45	0	1609564160	17	4463
2026-01-20 01:00:31.60	227.27	28.53	-28.5	-30.4	14.5	7.00e-07	0	45	0	1619001344	17	4466
2026-01-20 01:00:34.61	226.94	28.02	-27.9	-30.0	15.1	1.82e-03	0	45	0	1628438528	15	4596
2026-01-20 01:00:37.61	226.61	27.52	-27.6	-29.3	15.5	1.11e-03	0	45	0	1637875712	15	4391
2026-01-20 01:00:40.63	226.30	27.02	-27.3	-29.1	15.9	4.32e-04	0	45	0	1647312896	14	4441
2026-01-20 01:00:43.63	226.00	26.54	-27.5	-29.5	15.6	2.82e-05	0	45	0	1656750080	14	4547
2026-01-20 01:00:46.64	225.70	26.06	-27.6	-29.3	15.4	0.00e+00	0	45	0	1666187264	15	4380
2026-01-20 01:00:49.65	225.42	25.59	-27.5	-29.2	15.5	0.00e+00	0	45	0	1675624448	15	4358
2026-01-20 01:00:52.65	225.14	25.13	-27.4	-29.4	15.0	8.50e-04	0	45	0	1685061632	14	4535
2026-01-20 01:00:55.66	224.87	24.67	-27.3	-29.1	15.8	4.60e-04	0	45	0	1694498816	14	4445
2026-01-20 01:00:58.66	224.61	24.22	-27.2	-28.9	15.9	2.55e-04	0	45	0	1703936000	14	4387
2026-01-20 01:01:01.66	224.36	23.78	-26.9	-28.8	16.2	5.58e-04	0	45	0	1713373184	13	4470
2026-01-20 01:01:04.68	224.11	23.35	-27.3	-29.2	15.7	5.80e-04	0	45	0	1722810368	14	4468
2026-01-20 01:01:07.68	223.87	22.92	-27.3	-29.1	15.7	0.00e+00	0	45	0	1732247552	14	4441
2026-01-20 01:01:10.69	223.64	22.50	-27.5	-29.5	15.5	5.01e-04	0	45	0	1741684736	14	4561
2026-01-20 01:01:13.71	223.41	22.08	-27.6	-29.3	15.3	2.91e-04	0	45	0	1751121920	15	4400
2026-01-20 01:01:16.73	223.19	21.67	-27.6	-29.4	15.3	1.29e-03	0	45	0	1760559104	15	4411
2026-01-20 01:01:19.74	222.98	21.27	-27.5	-29.1	15.4	6.71e-04	0	45	0	1769996288	15	4343
2026-01-20 01:01:22.75	222.77	20.87	-27.5	-29.1	15.4	7.23e-04	0	45	0	1779433472	15	4336
2026-01-20 01:01:25.76	222.57	20.48	-27.5	-29.2	15.3	7.46e-04	0	45	0	1788870656	15	4366
2026-01-20 01:01:28.77	222.37	20.09	-27.6	-29.3	15.2	8.45e-04	0	45	0	1798307840	15	4401
2026-01-20 01:01:31.77	222.18	19.71	-27.4	-29.4	15.5	0.00e+00	0	45	0	1807745024	14	4543
2026-01-20 01:01:34.78	221.99	19.34	-27.4	-29.4	15.5	6.83e-04	0	45	0	1817182208	14	4520
2026-01-20 01:01:37.79	221.80	18.97	-27.3	-29.2	15.5	0.00e+00	0	45	0	1825570816	14	4487
2026-01-20 01:01:40.79	221.63	18.60	-27.3	-29.3	15.5	0.00e+00	0	45	0	1835008000	14	4494
2026-01-20 01:01:43.80	221.45	18.24	-27.4	-29.0	15.3	0.00e+00	0	45	0	1844445184	15	4311
2026-01-20 01:01:46.80	221.28	17.89	-27.5	-29.1	15.3	0.00e+00	0	45	0	1853882368	15	4324
2026-01-20 01:01:49.81	221.12	17.54	-27.6	-29.3	15.2	0.00e+00	0	45	0	1863319552	15	4382
2026-01-20 01:01:52.80	220.96	17.20	-27.8	-29.7	14.9	0.00e+00	0	45	0	1872756736	15	4520
2026-01-20 01:01:55.82	220.80	16.85	-27.8	-29.9	14.7	0.00e+00	0	45	0	1882193920	15	4583
2026-01-20 01:01:58.82	220.64	16.52	-28.1	-30.0	14.6	0.00e+00	0	45	0	1891631104	16	4473
2026-01-20 01:02:01.84	220.49	16.19	-28.3	-30.4	14.3	7.00e-07	0	45	0	1901068288	16	4609
2026-01-20 01:02:04.85	220.34	15.86	-28.2	-30.3	14.4	7.00e-07	0	45	0	1910505472	16	4555
2026-01-20 01:02:07.86	220.20	15.53	-28.3	-30.6	14.2	2.20e-06	0	45	0	1919942656	16	4654
2026-01-20 01:02:10.86	220.06	15.22	-28.3	-30.5	14.2	7.00e-07	0	45	0	1929379840	16	4621
2026-01-20 01:02:13.86	219.92	14.90	-28.4	-30.6	14.1	0.00e+00	0	45	0	1938817024	16	4670
2026-01-20 01:02:16.87	219.79	14.59	-28.2	-30.3	14.3	2.20e-06	0	45	0	1948254208	16	4568
2026-01-20 01:02:19.87	219.66	14.28	-28.3	-30.6	14.1	0.00e+00	0	45	0	1957691392	16	4677
2026-01-20 01:02:22.88	219.53	13.98	-28.1	-30.1	14.3	7.00e-07	0	45	0	1967128576	16	4527
2026-01-20 01:02:25.89	219.40	13.68	-28.1	-30.1	14.4	0.00e+00	0	45	0	1976565760	16	4510
2026-01-20 01:02:28.90	219.28	13.38	-27.9	-30.1	14.4	0.00e+00	0	45	0	1986002944	15	4649
2026-01-20 01:02:31.89	219.16	13.09	-28.1	-30.0	14.4	7.00e-07	0	45	0	1995440128	16	4484
2026-01-20 01:02:34.90	219.04	12.80	-28.0	-29.9	14.4	7.00e-07	0	45	0	2004877312	16	4457
2026-01-20 01:02:37.90	218.92	12.51	-28.2	-30.2	14.2	1.50e-06	0	45	0	2014314496	16	4547
2026-01-20 01:02:40.91	218.81	12.23	-28.2	-30.2	14.2	3.00e-06	0	45	0	2023751680	16	4548
2026-01-20 01:02:43.91	218.70	11.95	-28.2	-30.4	14.1	0.00e+00	0	45	0	2033188864	16	4616
2026-01-20 01:02:46.93	218.59	11.67	-28.2	-30.3	13.8	4.49e-04	0	45	0	2042626048	16	4594
2026-01-20 01:02:49.93	218.48	11.39	-28.3	-30.6	13.9	0.00e+00	0	45	0	2051014656	16	4670
2026-01-20 01:02:52.94	218.38	11.12	-28.3	-30.6	13.9	3.00e-06	0	45	0	2060451840	16	4695
2026-01-20 01:02:55.94	218.28	10.86	-28.4	-30.7	13.8	3.00e-06	0	45	0	2069889024	16	4714
2026-01-20 01:02:58.95	218.18	10.59	-28.8	-31.4	13.1	2.13e-05	0	45	0	2079326208	17	4818
2026-01-20 01:03:01.96	218.08	10.33	-28.7	-31.0	13.3	2.59e-05	0	45	0	2088763392	17	4715
2026-01-20 01:03:04.97	217.98	10.07	-28.7	-31.2	13.1	2.74e-05	0	45	0	2098200576	17	4766
2026-01-20 01:03:07.97	217.89	9.81	-29.2	-31.8	12.5	1.12e-04	0	45	0	2107637760	18	4859
2026-01-20 01:03:10.97	217.79	9.55	-28.7	-31.0	13.2	3.05e-05	0	45	0	2117074944	17	4694
2026-01-20 01:03:13.99	217.70	9.30	-28.7	-31.0	13.2	2.05e-05	0	45	0	2126512128	17	4724
2026-01-20 01:03:16.99	217.61	9.05	-28.7	-31.2	13.1	3.28e-05	0	45	0	2135949312	17	4758
2026-01-20 01:03:20.01	217.52	8.80	-28.8	-31.2	13.0	1.42e-04	0	45	0	2145386496	17	4791
2026-01-20 01:03:23.01	217.44	8.56	-28.9	-31.6	12.8	1.25e-04	0	45	0	2154823680	17	4902
2026-01-20 01:03:26.02	217.35	8.31	-29.0	-31.4	12.6	9.46e-05	0	45	0	2164260864	18	4743
2026-01-20 01:03:29.03	217.27	8.07	-29.1	-31.6	12.4	4.70e-04	0	45	0	2173698048	18	4800
2026-01-20 01:03:32.05	217.19	7.83	-29.1	-31.6	12.3	1.67e-04	0	45	0	2183135232	18	4816
2026-01-20 01:03:35.06	217.11	7.60	-29.3	-32.1	12.0	3.63e-04	0	45	0	2192572416	18	5005
2026-01-20 01:03:38.07	217.03	7.36	-29.4	-32.4	11.8	4.63e-04	0	45	0	2202009600	18	5103
2026-01-20 01:03:41.07	216.95	7.13	-29.4	-31.9	11.7	5.45e-04	0	45	0	2211446784	19	4821

#Closed at: 2026-01-20 01:03:44
#Recorded file [2212 MB]: D:/data/31010_260120_035153.dat