passes_logs/2025/01/13/PPK-1/PPK-1__20250113_005937_TY-39_rec.log

#Pass ID: 20250113_005937_TY-39
#Satellite: TY-39
#Configuration: TY-39
#almurnet v.1.7.20230919.trace
#Start time: 2025-01-13 00:59:36

#Version: 2.2.20231116
#Station: PPK-1
#Location: 158.6 lon 53.06666 lat
#TLE: 1 51832U 22019J   25012.16372845  .00002965  00000+0  15358-3 0  9995
#TLE: 2 51832  97.4107  82.4322 0007839 244.4512 115.5912 15.16945469158715

#Time	Az	El	Level	Level2	SNR	BER	BlckErr	Temp	State
2025-01-13 00:59:36.44	355.60	7.93	-67.2	-73.4	3.6	0.00e+00	0	46	0
2025-01-13 00:59:38.33	355.38	8.08	-67.2	-73.4	3.6	0.00e+00	0	47	104
2025-01-13 00:59:40.23	355.16	8.23	-67.2	-73.5	3.6	0.00e+00	0	47	104
2025-01-13 00:59:42.13	354.93	8.39	-67.3	-73.0	3.7	0.00e+00	0	48	104
2025-01-13 00:59:44.03	354.71	8.54	-67.3	-73.0	3.7	0.00e+00	0	48	104
2025-01-13 00:59:45.93	354.48	8.70	-67.3	-73.0	3.7	0.00e+00	0	48	104
2025-01-13 00:59:47.82	354.24	8.86	-67.4	-73.1	3.6	0.00e+00	0	48	104
2025-01-13 00:59:49.72	354.01	9.01	-67.4	-73.2	3.6	0.00e+00	0	49	104
2025-01-13 00:59:51.61	353.77	9.17	-67.4	-73.2	3.6	0.00e+00	0	49	104
2025-01-13 00:59:53.51	353.52	9.33	-67.0	-72.5	3.7	0.00e+00	0	49	104
2025-01-13 00:59:55.41	353.28	9.49	-66.8	-71.9	3.7	0.00e+00	0	50	104
2025-01-13 00:59:57.31	353.03	9.66	-66.8	-71.8	3.6	0.00e+00	0	50	104
2025-01-13 00:59:59.21	352.77	9.82	-66.8	-71.9	3.5	0.00e+00	0	50	104
2025-01-13 01:00:01.11	352.52	9.98	-67.2	-72.6	3.6	0.00e+00	0	51	104
2025-01-13 01:00:03.01	352.26	10.15	-67.5	-73.2	3.6	0.00e+00	0	51	104
2025-01-13 01:00:04.91	351.99	10.31	-67.6	-73.6	3.7	0.00e+00	0	51	104
2025-01-13 01:00:06.81	351.72	10.48	-67.6	-73.7	3.7	0.00e+00	0	51	104
2025-01-13 01:00:08.71	351.45	10.65	-67.7	-73.7	3.7	0.00e+00	0	52	104
2025-01-13 01:00:10.61	351.18	10.82	-67.6	-73.5	3.6	0.00e+00	0	52	104
2025-01-13 01:00:12.50	350.90	10.98	-67.5	-73.2	3.6	0.00e+00	0	52	104
2025-01-13 01:00:14.40	350.61	11.15	-67.2	-72.8	3.6	0.00e+00	0	53	104
2025-01-13 01:00:16.30	350.33	11.33	-67.1	-72.6	3.7	0.00e+00	0	53	104
2025-01-13 01:00:18.20	350.03	11.50	-67.2	-72.9	3.7	0.00e+00	0	53	104
2025-01-13 01:00:20.10	349.74	11.67	-67.4	-73.2	3.6	0.00e+00	0	53	104
2025-01-13 01:00:22.00	349.44	11.85	-67.5	-73.3	3.6	0.00e+00	0	53	104
2025-01-13 01:00:23.90	349.13	12.02	-67.6	-73.4	3.6	0.00e+00	0	54	104
2025-01-13 01:00:25.80	348.82	12.20	-67.6	-73.5	3.6	0.00e+00	0	54	104
2025-01-13 01:00:27.70	348.51	12.37	-67.6	-73.5	3.7	0.00e+00	0	54	104
2025-01-13 01:00:29.60	348.19	12.55	-67.6	-73.5	3.7	0.00e+00	0	55	104
2025-01-13 01:00:31.50	347.87	12.73	-67.6	-73.6	3.7	0.00e+00	0	55	104
2025-01-13 01:00:33.39	347.54	12.91	-67.6	-73.6	3.7	0.00e+00	0	55	104
2025-01-13 01:00:35.29	347.20	13.09	-67.7	-73.6	3.6	0.00e+00	0	55	104
2025-01-13 01:00:37.19	346.87	13.27	-67.6	-73.6	3.6	0.00e+00	0	55	104
2025-01-13 01:00:39.09	346.52	13.45	-67.5	-73.4	3.7	0.00e+00	0	56	104
2025-01-13 01:00:40.99	346.17	13.64	-67.4	-73.2	3.7	0.00e+00	0	56	104
2025-01-13 01:00:42.88	345.82	13.82	-67.3	-73.2	3.7	0.00e+00	0	56	104
2025-01-13 01:00:44.78	345.46	14.01	-67.5	-73.4	3.6	0.00e+00	0	56	104
2025-01-13 01:00:46.68	345.10	14.19	-67.7	-73.8	3.6	0.00e+00	0	57	104
2025-01-13 01:00:48.58	344.73	14.38	-53.7	-56.3	5.8	0.00e+00	0	57	104
2025-01-13 01:00:50.48	344.35	14.57	-54.1	-57.6	13.0	0.00e+00	0	58	0
2025-01-13 01:00:52.38	343.97	14.75	-53.3	-56.0	13.5	2.77e-05	0	58	0
2025-01-13 01:00:54.28	343.58	14.94	-53.1	-56.5	13.5	0.00e+00	0	58	0
2025-01-13 01:00:56.17	343.19	15.13	-51.7	-54.1	14.3	6.90e-06	0	58	0
2025-01-13 01:00:58.07	342.79	15.32	-51.6	-54.3	14.5	0.00e+00	0	58	0
2025-01-13 01:00:59.96	342.39	15.51	-51.5	-54.3	14.5	0.00e+00	0	59	0
2025-01-13 01:01:01.86	341.98	15.70	-51.6	-54.4	14.4	0.00e+00	0	59	0
2025-01-13 01:01:03.76	341.56	15.90	-51.5	-54.3	14.4	0.00e+00	0	59	0
2025-01-13 01:01:05.66	341.13	16.09	-51.5	-54.1	14.5	0.00e+00	0	59	0
2025-01-13 01:01:07.56	340.70	16.28	-51.4	-54.0	14.5	0.00e+00	0	59	0
2025-01-13 01:01:09.46	340.27	16.48	-51.4	-53.9	14.4	0.00e+00	0	60	0
2025-01-13 01:01:11.36	339.82	16.67	-51.3	-53.8	14.4	0.00e+00	0	60	0
2025-01-13 01:01:13.26	339.37	16.87	-51.2	-53.7	14.5	0.00e+00	0	60	0
2025-01-13 01:01:15.16	338.91	17.06	-51.1	-53.5	14.6	0.00e+00	0	60	0
2025-01-13 01:01:17.05	338.45	17.26	-51.1	-53.8	14.6	0.00e+00	0	60	0
2025-01-13 01:01:18.95	337.98	17.45	-51.0	-53.8	14.5	0.00e+00	0	60	0
2025-01-13 01:01:20.85	337.50	17.65	-51.0	-53.7	14.5	0.00e+00	0	61	0
2025-01-13 01:01:22.74	337.01	17.84	-51.0	-53.7	14.7	0.00e+00	0	61	0
2025-01-13 01:01:24.64	336.52	18.04	-51.0	-53.7	14.7	0.00e+00	0	61	0
2025-01-13 01:01:26.54	336.02	18.23	-50.9	-53.5	14.7	0.00e+00	0	61	0
2025-01-13 01:01:28.44	335.51	18.43	-50.9	-53.4	14.7	0.00e+00	0	61	0
2025-01-13 01:01:30.34	334.99	18.62	-50.8	-53.3	14.8	0.00e+00	0	61	0
2025-01-13 01:01:32.24	334.47	18.82	-50.9	-53.5	14.8	0.00e+00	0	62	0
2025-01-13 01:01:34.14	333.93	19.01	-50.8	-53.2	14.9	0.00e+00	0	62	0
2025-01-13 01:01:36.04	333.39	19.21	-50.6	-52.9	14.9	0.00e+00	0	62	0
2025-01-13 01:01:37.94	332.85	19.40	-50.6	-53.0	14.9	0.00e+00	0	62	0
2025-01-13 01:01:39.84	332.29	19.60	-50.5	-53.2	15.0	0.00e+00	0	62	0
2025-01-13 01:01:41.73	331.73	19.79	-50.5	-53.2	15.0	0.00e+00	0	62	0
2025-01-13 01:01:43.63	331.15	19.98	-50.4	-53.0	15.0	0.00e+00	0	62	0
2025-01-13 01:01:45.53	330.57	20.17	-50.3	-52.8	15.1	0.00e+00	0	63	0
2025-01-13 01:01:47.42	329.99	20.36	-50.3	-52.8	15.1	0.00e+00	0	63	0
2025-01-13 01:01:49.32	329.39	20.55	-50.3	-52.9	15.1	0.00e+00	0	63	0
2025-01-13 01:01:51.22	328.78	20.74	-50.2	-52.6	15.1	0.00e+00	0	63	0
2025-01-13 01:01:53.12	328.17	20.92	-50.1	-52.5	15.1	0.00e+00	0	63	0
2025-01-13 01:01:55.02	327.54	21.11	-50.1	-52.5	15.1	0.00e+00	0	63	0
2025-01-13 01:01:56.92	326.91	21.29	-50.2	-52.6	15.1	0.00e+00	0	63	0
2025-01-13 01:01:58.82	326.27	21.47	-50.1	-52.3	15.1	0.00e+00	0	63	0
2025-01-13 01:02:00.72	325.62	21.65	-50.0	-52.6	15.1	0.00e+00	0	64	0
2025-01-13 01:02:02.62	324.96	21.83	-50.0	-52.6	15.1	0.00e+00	0	64	0
2025-01-13 01:02:04.52	324.29	22.01	-49.9	-52.5	15.1	0.00e+00	0	64	0
2025-01-13 01:02:06.42	323.62	22.18	-49.8	-52.2	15.2	0.00e+00	0	64	0
2025-01-13 01:02:08.31	322.94	22.35	-49.8	-52.3	15.1	0.00e+00	0	64	0
2025-01-13 01:02:10.21	322.25	22.52	-49.7	-52.2	15.0	0.00e+00	0	64	0
2025-01-13 01:02:12.10	321.55	22.68	-49.7	-52.2	15.1	0.00e+00	0	64	0
2025-01-13 01:02:14.00	320.84	22.85	-49.6	-51.9	15.0	0.00e+00	0	65	0
2025-01-13 01:02:15.90	320.12	23.01	-49.7	-52.1	15.0	0.00e+00	0	65	0
2025-01-13 01:02:17.80	319.40	23.16	-49.7	-52.0	15.0	0.00e+00	0	65	0
2025-01-13 01:02:19.70	318.66	23.31	-49.5	-52.2	15.1	0.00e+00	0	65	0
2025-01-13 01:02:21.60	317.92	23.46	-49.5	-52.2	15.1	0.00e+00	0	65	0
2025-01-13 01:02:23.50	317.17	23.61	-49.5	-52.2	15.2	0.00e+00	0	65	0
2025-01-13 01:02:25.40	316.41	23.75	-49.5	-52.1	15.4	0.00e+00	0	65	0
2025-01-13 01:02:27.29	315.65	23.89	-49.4	-52.0	15.5	0.00e+00	0	66	0
2025-01-13 01:02:29.19	314.88	24.02	-49.4	-52.0	15.4	0.00e+00	0	66	0
2025-01-13 01:02:31.09	314.10	24.15	-49.4	-52.0	15.4	0.00e+00	0	66	0
2025-01-13 01:02:32.99	313.31	24.27	-49.2	-51.6	15.5	0.00e+00	0	66	0
2025-01-13 01:02:34.88	312.52	24.39	-49.3	-51.7	15.5	0.00e+00	0	66	0
2025-01-13 01:02:36.78	311.72	24.51	-49.3	-51.8	15.5	0.00e+00	0	66	0
2025-01-13 01:02:38.68	310.91	24.62	-49.1	-51.3	15.5	0.00e+00	0	66	0
2025-01-13 01:02:40.58	310.10	24.72	-49.2	-51.5	15.4	0.00e+00	0	66	0
2025-01-13 01:02:42.48	309.28	24.82	-49.2	-51.6	15.4	0.00e+00	0	66	0
2025-01-13 01:02:44.38	308.46	24.92	-47.9	-50.5	15.4	0.00e+00	0	66	0
2025-01-13 01:02:46.28	307.63	25.00	-48.0	-50.7	15.4	0.00e+00	0	67	0
2025-01-13 01:02:48.18	306.79	25.09	-48.0	-50.7	15.2	0.00e+00	0	67	0
2025-01-13 01:02:50.08	305.95	25.16	-47.9	-50.4	15.4	0.00e+00	0	67	0
2025-01-13 01:02:51.98	305.10	25.23	-48.0	-50.6	15.3	0.00e+00	0	67	0
2025-01-13 01:02:53.88	304.26	25.30	-47.9	-50.6	15.4	0.00e+00	0	67	0
2025-01-13 01:02:55.77	303.41	25.36	-47.8	-50.4	15.4	0.00e+00	0	67	0
2025-01-13 01:02:57.67	302.55	25.41	-48.4	-51.6	15.2	0.00e+00	0	67	0
2025-01-13 01:02:59.57	301.69	25.46	-48.8	-51.8	14.9	0.00e+00	0	67	0
2025-01-13 01:03:01.47	300.83	25.50	-48.6	-51.4	14.9	0.00e+00	0	67	0
2025-01-13 01:03:03.37	299.96	25.53	-48.6	-51.5	15.1	0.00e+00	0	67	0
2025-01-13 01:03:05.27	299.10	25.56	-48.6	-51.3	15.1	0.00e+00	0	68	0
2025-01-13 01:03:07.17	298.23	25.58	-48.5	-51.1	15.1	0.00e+00	0	68	0
2025-01-13 01:03:09.07	297.36	25.59	-48.5	-51.1	15.2	0.00e+00	0	68	0
2025-01-13 01:03:10.97	296.49	25.60	-48.5	-51.2	15.3	0.00e+00	0	68	0
2025-01-13 01:03:12.87	295.62	25.60	-48.4	-51.1	15.2	0.00e+00	0	68	0
2025-01-13 01:03:14.77	294.75	25.59	-48.4	-51.0	15.1	0.00e+00	0	68	0
2025-01-13 01:03:16.66	293.89	25.58	-48.4	-50.9	15.2	0.00e+00	0	68	0
2025-01-13 01:03:18.56	293.02	25.56	-48.5	-51.2	15.1	0.00e+00	0	68	0
2025-01-13 01:03:20.46	292.15	25.53	-48.6	-51.4	15.1	0.00e+00	0	68	0
2025-01-13 01:03:22.36	291.29	25.50	-48.4	-51.0	15.1	0.00e+00	0	68	0
2025-01-13 01:03:24.26	290.42	25.46	-48.6	-51.3	15.1	0.00e+00	0	68	0
2025-01-13 01:03:26.16	289.56	25.42	-48.7	-51.6	15.0	0.00e+00	0	68	0
2025-01-13 01:03:28.06	288.70	25.37	-48.5	-51.2	15.1	0.00e+00	0	69	0
2025-01-13 01:03:29.96	287.85	25.31	-48.7	-51.6	15.1	0.00e+00	0	69	0
2025-01-13 01:03:31.86	287.00	25.24	-48.7	-51.7	15.1	0.00e+00	0	68	0
2025-01-13 01:03:33.76	286.15	25.17	-48.5	-51.3	15.1	0.00e+00	0	69	0
2025-01-13 01:03:35.66	285.30	25.10	-48.8	-51.9	14.7	0.00e+00	0	69	0
2025-01-13 01:03:37.55	284.47	25.02	-49.0	-52.3	14.7	0.00e+00	0	69	0
2025-01-13 01:03:39.45	283.64	24.93	-48.7	-51.6	15.0	0.00e+00	0	69	0
2025-01-13 01:03:41.34	282.81	24.83	-49.0	-52.1	14.7	0.00e+00	0	69	0
2025-01-13 01:03:43.24	281.99	24.74	-49.2	-52.5	14.8	0.00e+00	0	69	0
2025-01-13 01:03:45.14	281.17	24.63	-49.0	-52.2	14.8	0.00e+00	0	69	0
2025-01-13 01:03:47.04	280.36	24.52	-49.2	-52.6	14.6	0.00e+00	0	69	0
2025-01-13 01:03:48.94	279.55	24.41	-49.4	-52.6	14.6	0.00e+00	0	69	0
2025-01-13 01:03:50.84	278.75	24.29	-49.1	-51.8	14.9	0.00e+00	0	69	0
2025-01-13 01:03:52.74	277.96	24.16	-49.3	-52.2	14.9	0.00e+00	0	70	0
2025-01-13 01:03:54.63	277.18	24.03	-49.4	-52.5	14.9	0.00e+00	0	70	0
2025-01-13 01:03:56.53	276.40	23.90	-49.3	-52.3	14.8	0.00e+00	0	70	0
2025-01-13 01:03:58.43	275.63	23.76	-49.2	-52.1	14.9	0.00e+00	0	70	0
2025-01-13 01:04:00.33	274.87	23.62	-49.2	-52.1	14.9	0.00e+00	0	70	0
2025-01-13 01:04:02.23	274.12	23.47	-49.1	-52.0	15.1	0.00e+00	0	70	0
2025-01-13 01:04:04.12	273.37	23.33	-49.1	-51.9	14.9	0.00e+00	0	70	0
2025-01-13 01:04:06.02	272.63	23.17	-49.1	-51.9	14.9	0.00e+00	0	70	0
2025-01-13 01:04:07.92	271.90	23.02	-49.3	-52.2	15.0	0.00e+00	0	70	0
2025-01-13 01:04:09.82	271.18	22.86	-49.1	-51.9	15.0	0.00e+00	0	70	0
2025-01-13 01:04:11.72	270.46	22.69	-49.3	-52.3	14.9	0.00e+00	0	70	0
2025-01-13 01:04:13.62	269.76	22.53	-49.6	-52.8	14.8	0.00e+00	0	70	0
2025-01-13 01:04:15.52	269.06	22.36	-49.5	-52.7	14.8	0.00e+00	0	70	0
2025-01-13 01:04:17.42	268.37	22.19	-49.7	-53.0	14.7	0.00e+00	0	70	0
2025-01-13 01:04:19.32	267.69	22.01	-51.0	-54.2	14.9	0.00e+00	0	70	0
2025-01-13 01:04:21.22	267.02	21.83	-51.1	-54.4	14.8	0.00e+00	0	70	0
2025-01-13 01:04:23.12	266.35	21.66	-50.8	-53.7	14.9	0.00e+00	0	71	0
2025-01-13 01:04:25.01	265.70	21.48	-51.0	-54.2	14.8	0.00e+00	0	70	0
2025-01-13 01:04:26.91	265.05	21.29	-51.1	-54.4	14.8	0.00e+00	0	70	0
2025-01-13 01:04:28.81	264.42	21.11	-51.0	-54.2	14.7	0.00e+00	0	70	0
2025-01-13 01:04:30.71	263.79	20.92	-50.7	-53.6	14.9	0.00e+00	0	70	0
2025-01-13 01:04:32.61	263.17	20.73	-50.9	-54.0	14.8	0.00e+00	0	70	0
2025-01-13 01:04:34.51	262.55	20.54	-51.0	-54.1	14.8	0.00e+00	0	70	0
2025-01-13 01:04:36.41	261.95	20.35	-51.0	-54.2	14.8	0.00e+00	0	71	0
2025-01-13 01:04:38.31	261.35	20.16	-50.8	-53.9	14.9	0.00e+00	0	71	0
2025-01-13 01:04:40.21	260.77	19.97	-51.3	-54.2	14.6	0.00e+00	0	71	0
2025-01-13 01:04:42.11	260.19	19.77	-51.3	-54.4	14.6	0.00e+00	0	71	0
2025-01-13 01:04:44.01	259.62	19.58	-51.7	-55.1	14.5	0.00e+00	0	71	0
2025-01-13 01:04:45.91	259.05	19.38	-51.5	-54.8	14.6	0.00e+00	0	71	0
2025-01-13 01:04:47.80	258.50	19.19	-51.7	-55.1	14.5	0.00e+00	0	71	0
2025-01-13 01:04:49.70	257.96	18.99	-51.7	-55.1	14.4	0.00e+00	0	71	0
2025-01-13 01:04:51.60	257.42	18.80	-51.6	-54.5	14.3	0.00e+00	0	71	0
2025-01-13 01:04:53.50	256.89	18.60	-51.6	-54.4	14.3	0.00e+00	0	71	0
2025-01-13 01:04:55.40	256.37	18.40	-51.3	-53.8	14.6	0.00e+00	0	71	0
2025-01-13 01:04:57.30	255.85	18.20	-51.4	-54.0	14.5	0.00e+00	0	71	0
2025-01-13 01:04:59.20	255.34	18.01	-51.6	-54.5	14.3	0.00e+00	0	71	0
2025-01-13 01:05:01.10	254.84	17.81	-51.7	-54.6	14.4	0.00e+00	0	71	0
2025-01-13 01:05:03.00	254.35	17.61	-51.9	-54.9	14.3	0.00e+00	0	71	0
2025-01-13 01:05:04.89	253.87	17.41	-51.8	-54.9	14.3	0.00e+00	0	71	0
2025-01-13 01:05:06.79	253.39	17.22	-52.0	-55.3	14.2	0.00e+00	0	71	0
2025-01-13 01:05:08.69	252.92	17.02	-52.2	-55.6	14.1	0.00e+00	0	71	0
2025-01-13 01:05:10.58	252.46	16.82	-52.3	-55.4	14.1	0.00e+00	0	71	0
2025-01-13 01:05:12.48	252.01	16.63	-52.3	-55.3	14.2	0.00e+00	0	71	0
2025-01-13 01:05:14.38	251.56	16.43	-52.2	-55.1	14.1	0.00e+00	0	71	0
2025-01-13 01:05:16.28	251.11	16.23	-52.2	-55.1	14.0	0.00e+00	0	71	0
2025-01-13 01:05:18.18	250.68	16.04	-52.0	-54.7	13.9	0.00e+00	0	72	0
2025-01-13 01:05:20.08	250.25	15.84	-52.1	-54.9	13.8	0.00e+00	0	71	0
2025-01-13 01:05:21.97	249.83	15.65	-52.2	-55.1	13.9	0.00e+00	0	71	0
2025-01-13 01:05:23.87	249.41	15.46	-52.2	-55.2	14.1	0.00e+00	0	71	0
2025-01-13 01:05:25.77	249.00	15.26	-52.3	-55.3	14.2	0.00e+00	0	71	0
2025-01-13 01:05:27.67	248.60	15.07	-52.6	-55.9	14.0	0.00e+00	0	72	0
2025-01-13 01:05:29.57	248.20	14.88	-67.7	-74.1	3.6	0.00e+00	0	71	104
2025-01-13 01:05:31.47	247.81	14.69	-67.7	-74.1	3.6	0.00e+00	0	71	104
2025-01-13 01:05:33.36	247.42	14.50	-67.8	-74.1	3.6	0.00e+00	0	71	104
2025-01-13 01:05:35.26	247.04	14.31	-67.6	-73.7	3.7	0.00e+00	0	71	104
2025-01-13 01:05:37.16	246.67	14.12	-67.5	-73.5	3.7	0.00e+00	0	71	104
2025-01-13 01:05:39.06	246.30	13.94	-67.3	-73.1	3.6	0.00e+00	0	71	104
2025-01-13 01:05:40.96	245.94	13.75	-67.4	-73.2	3.6	0.00e+00	0	71	104
2025-01-13 01:05:42.86	245.58	13.56	-67.5	-73.4	3.6	0.00e+00	0	71	104
2025-01-13 01:05:44.76	245.22	13.38	-67.6	-73.6	3.6	0.00e+00	0	71	104
2025-01-13 01:05:46.66	244.88	13.19	-67.7	-73.8	3.7	0.00e+00	0	71	104
2025-01-13 01:05:48.56	244.53	13.01	-67.7	-73.7	3.7	0.00e+00	0	71	104
2025-01-13 01:05:50.46	244.20	12.83	-67.7	-73.6	3.7	0.00e+00	0	71	104
2025-01-13 01:05:52.36	243.86	12.64	-67.7	-73.5	3.6	0.00e+00	0	71	104
2025-01-13 01:05:54.25	243.54	12.47	-67.6	-73.4	3.6	0.00e+00	0	71	104
2025-01-13 01:05:56.15	243.22	12.29	-67.5	-73.1	3.6	0.00e+00	0	71	104
2025-01-13 01:05:58.05	242.90	12.11	-67.5	-73.0	3.7	0.00e+00	0	71	104
2025-01-13 01:05:59.95	242.58	11.93	-67.5	-73.1	3.7	0.00e+00	0	71	104
2025-01-13 01:06:01.85	242.27	11.75	-67.6	-73.2	3.6	0.00e+00	0	71	104
2025-01-13 01:06:03.75	241.97	11.58	-67.6	-73.4	3.6	0.00e+00	0	71	104
2025-01-13 01:06:05.65	241.67	11.40	-67.6	-73.5	3.6	0.00e+00	0	71	104
2025-01-13 01:06:07.55	241.37	11.23	-67.6	-73.5	3.6	0.00e+00	0	71	104
2025-01-13 01:06:09.45	241.08	11.05	-67.6	-73.5	3.7	0.00e+00	0	71	104
2025-01-13 01:06:11.35	240.79	10.88	-67.6	-73.5	3.7	0.00e+00	0	71	104
2025-01-13 01:06:13.25	240.51	10.71	-67.6	-73.3	3.7	0.00e+00	0	71	104
2025-01-13 01:06:15.14	240.23	10.54	-67.5	-73.1	3.7	0.00e+00	0	71	104
2025-01-13 01:06:17.04	239.96	10.37	-67.5	-73.1	3.6	0.00e+00	0	71	104
2025-01-13 01:06:18.93	239.69	10.21	-67.4	-73.1	3.6	0.00e+00	0	71	104
2025-01-13 01:06:20.83	239.42	10.04	-67.4	-73.2	3.6	0.00e+00	0	71	104
2025-01-13 01:06:22.73	239.15	9.87	-67.5	-73.3	3.7	0.00e+00	0	71	104
2025-01-13 01:06:24.63	238.89	9.71	-67.5	-73.4	3.7	0.00e+00	0	71	104
2025-01-13 01:06:26.53	238.64	9.54	-67.5	-73.3	3.6	0.00e+00	0	71	104
2025-01-13 01:06:28.43	238.38	9.38	-67.4	-73.0	3.6	0.00e+00	0	71	104
2025-01-13 01:06:30.33	238.13	9.22	-67.4	-73.0	3.6	0.00e+00	0	71	104
2025-01-13 01:06:32.22	237.89	9.06	-67.4	-73.0	3.6	0.00e+00	0	71	104
2025-01-13 01:06:34.12	237.65	8.90	-67.4	-72.9	3.7	0.00e+00	0	71	104
2025-01-13 01:06:36.02	237.41	8.74	-67.2	-72.7	3.7	0.00e+00	0	71	104
2025-01-13 01:06:37.92	237.17	8.58	-66.8	-72.5	3.6	0.00e+00	0	71	104
2025-01-13 01:06:39.82	236.93	8.42	-66.5	-72.8	3.6	0.00e+00	0	71	104
2025-01-13 01:06:41.71	236.71	8.26	-66.7	-72.9	3.6	0.00e+00	0	71	104
2025-01-13 01:06:43.61	236.48	8.11	-66.7	-72.8	3.6	0.00e+00	0	71	104

#Closed at: 2025-01-13 01:06:45
#Recorded file [20996 MB]: D:/data/31015_250113_130529.dat