passes_logs/2025/01/13/PPK-1/PPK-1__20250113_114552_TY-39_rec.log

#Pass ID: 20250113_114552_TY-39
#Satellite: TY-39
#Configuration: TY-39
#almurnet v.1.7.20230919.trace
#Start time: 2025-01-13 11:45:52

#Version: 2.2.20231116
#Station: PPK-1
#Location: 158.6 lon 53.06666 lat
#TLE: 1 51832U 22019J   25012.88933161  .00003179  00000+0  16437-3 0  9995
#TLE: 2 51832  97.4104  83.1414 0007876 241.6089 118.4351 15.16950046158829

#Time	Az	El	Level	Level2	SNR	BER	BlckErr	Temp	State
2025-01-13 11:45:52.22	211.50	7.96	-67.3	-73.0	3.6	0.00e+00	0	45	0
2025-01-13 11:45:54.11	211.77	8.11	-67.3	-72.9	3.6	0.00e+00	0	46	104
2025-01-13 11:45:56.01	212.03	8.25	-67.4	-73.1	3.6	0.00e+00	0	46	104
2025-01-13 11:45:57.91	212.30	8.40	-67.4	-73.2	3.7	0.00e+00	0	46	104
2025-01-13 11:45:59.81	212.58	8.54	-67.5	-73.4	3.7	0.00e+00	0	47	104
2025-01-13 11:46:01.71	212.85	8.69	-67.5	-73.4	3.6	0.00e+00	0	47	104
2025-01-13 11:46:03.60	213.13	8.84	-67.5	-73.2	3.6	0.00e+00	0	47	104
2025-01-13 11:46:05.50	213.41	8.99	-67.4	-73.1	3.6	0.00e+00	0	48	104
2025-01-13 11:46:07.40	213.70	9.13	-67.4	-73.1	3.6	0.00e+00	0	48	104
2025-01-13 11:46:09.30	213.99	9.28	-67.5	-73.3	3.7	0.00e+00	0	48	104
2025-01-13 11:46:11.20	214.28	9.43	-67.5	-73.5	3.7	0.00e+00	0	48	104
2025-01-13 11:46:13.10	214.58	9.58	-67.5	-73.4	3.6	0.00e+00	0	49	104
2025-01-13 11:46:15.00	214.88	9.73	-67.4	-73.3	3.6	0.00e+00	0	49	104
2025-01-13 11:46:16.90	215.19	9.89	-67.5	-73.2	3.6	0.00e+00	0	49	104
2025-01-13 11:46:18.80	215.50	10.04	-67.5	-73.3	3.7	0.00e+00	0	50	104
2025-01-13 11:46:20.70	215.81	10.19	-67.4	-73.2	3.7	0.00e+00	0	50	104
2025-01-13 11:46:22.60	216.12	10.34	-67.5	-73.4	3.7	0.00e+00	0	50	104
2025-01-13 11:46:24.49	216.44	10.50	-67.6	-73.5	3.6	0.00e+00	0	51	104
2025-01-13 11:46:26.39	216.77	10.65	-67.5	-73.3	3.6	0.00e+00	0	51	104
2025-01-13 11:46:28.28	217.09	10.81	-67.5	-73.4	3.6	0.00e+00	0	51	104
2025-01-13 11:46:30.18	217.43	10.96	-67.6	-73.5	3.7	0.00e+00	0	51	104
2025-01-13 11:46:32.08	217.76	11.12	-67.5	-73.4	3.7	0.00e+00	0	52	104
2025-01-13 11:46:33.98	218.10	11.27	-67.4	-73.2	3.6	0.00e+00	0	52	104
2025-01-13 11:46:35.88	218.45	11.43	-67.4	-73.3	3.6	0.00e+00	0	52	104
2025-01-13 11:46:37.78	218.80	11.59	-67.5	-73.5	3.6	0.00e+00	0	52	104
2025-01-13 11:46:39.68	219.15	11.75	-67.5	-73.6	3.6	0.00e+00	0	53	104
2025-01-13 11:46:41.58	219.51	11.91	-67.6	-73.7	3.7	0.00e+00	0	53	104
2025-01-13 11:46:43.47	219.87	12.06	-67.6	-73.7	3.7	0.00e+00	0	53	104
2025-01-13 11:46:45.37	220.24	12.22	-67.6	-73.6	3.6	0.00e+00	0	53	104
2025-01-13 11:46:47.27	220.61	12.38	-67.5	-73.4	3.6	0.00e+00	0	53	104
2025-01-13 11:46:49.17	220.98	12.54	-67.5	-73.3	3.6	0.00e+00	0	54	104
2025-01-13 11:46:51.06	221.36	12.70	-67.5	-73.3	3.6	0.00e+00	0	54	104
2025-01-13 11:46:52.96	221.75	12.86	-67.5	-73.6	3.7	0.00e+00	0	54	104
2025-01-13 11:46:54.86	222.14	13.02	-67.6	-73.6	3.7	0.00e+00	0	55	104
2025-01-13 11:46:56.76	222.54	13.19	-67.7	-73.7	3.7	0.00e+00	0	55	104
2025-01-13 11:46:58.66	222.94	13.35	-67.7	-73.7	3.6	0.00e+00	0	55	104
2025-01-13 11:47:00.55	223.34	13.51	-67.5	-73.5	3.6	0.00e+00	0	55	104
2025-01-13 11:47:02.45	223.75	13.67	-67.6	-73.6	3.6	0.00e+00	0	55	104
2025-01-13 11:47:04.35	224.17	13.83	-67.7	-73.7	3.7	0.00e+00	0	55	104
2025-01-13 11:47:06.25	224.59	14.00	-67.7	-73.7	3.7	0.00e+00	0	56	104
2025-01-13 11:47:08.15	225.02	14.16	-67.8	-73.8	3.7	0.00e+00	0	56	104
2025-01-13 11:47:10.05	225.45	14.32	-67.6	-73.8	3.6	0.00e+00	0	56	104
2025-01-13 11:47:11.95	225.89	14.48	-52.9	-55.6	13.7	0.00e+00	0	57	104
2025-01-13 11:47:13.84	226.33	14.64	-52.5	-55.3	13.9	0.00e+00	0	57	0
2025-01-13 11:47:15.74	226.78	14.81	-53.9	-57.0	12.9	5.54e-05	0	57	0
2025-01-13 11:47:17.64	227.24	14.97	-52.1	-54.9	13.8	6.90e-06	0	57	0
2025-01-13 11:47:19.54	227.70	15.13	-51.8	-54.4	13.9	0.00e+00	0	57	0
2025-01-13 11:47:21.44	228.16	15.29	-51.4	-54.0	14.0	6.90e-06	0	58	0
2025-01-13 11:47:23.33	228.63	15.45	-51.3	-53.8	14.1	0.00e+00	0	58	0
2025-01-13 11:47:25.23	229.11	15.62	-51.3	-53.7	14.2	0.00e+00	0	58	0
2025-01-13 11:47:27.13	229.59	15.78	-51.2	-53.7	14.2	0.00e+00	0	58	0
2025-01-13 11:47:29.03	230.08	15.94	-51.2	-53.6	14.2	0.00e+00	0	59	0
2025-01-13 11:47:30.92	230.58	16.10	-51.2	-53.5	14.1	0.00e+00	0	59	0
2025-01-13 11:47:32.82	231.08	16.26	-51.1	-53.5	14.1	0.00e+00	0	59	0
2025-01-13 11:47:34.72	231.59	16.42	-51.1	-53.5	14.2	6.90e-06	0	59	0
2025-01-13 11:47:36.62	232.10	16.58	-51.2	-54.1	14.1	0.00e+00	0	60	0
2025-01-13 11:47:38.52	232.62	16.73	-51.1	-54.0	14.1	0.00e+00	0	60	0
2025-01-13 11:47:40.42	233.15	16.89	-51.1	-53.9	14.1	0.00e+00	0	60	0
2025-01-13 11:47:42.32	233.68	17.05	-51.0	-53.8	14.0	0.00e+00	0	60	0
2025-01-13 11:47:44.22	234.22	17.20	-50.9	-53.5	14.0	0.00e+00	0	60	0
2025-01-13 11:47:46.12	234.77	17.36	-50.9	-53.5	14.1	0.00e+00	0	60	0
2025-01-13 11:47:48.02	235.32	17.51	-50.9	-53.5	14.2	0.00e+00	0	60	0
2025-01-13 11:47:49.92	235.88	17.66	-50.8	-53.3	14.3	0.00e+00	0	60	0
2025-01-13 11:47:51.82	236.44	17.81	-50.8	-53.3	14.3	0.00e+00	0	61	0
2025-01-13 11:47:53.72	237.01	17.96	-50.8	-53.2	14.3	0.00e+00	0	61	0
2025-01-13 11:47:55.62	237.59	18.11	-50.7	-53.2	14.3	0.00e+00	0	61	0
2025-01-13 11:47:57.52	238.17	18.26	-50.6	-53.0	14.4	0.00e+00	0	61	0
2025-01-13 11:47:59.42	238.76	18.40	-50.7	-53.1	14.4	0.00e+00	0	61	0
2025-01-13 11:48:01.32	239.36	18.55	-50.7	-53.1	14.4	0.00e+00	0	61	0
2025-01-13 11:48:03.22	239.96	18.69	-50.7	-53.1	14.4	0.00e+00	0	62	0
2025-01-13 11:48:05.12	240.57	18.83	-50.7	-53.0	14.2	1.38e-05	0	62	0
2025-01-13 11:48:07.02	241.18	18.97	-50.7	-53.6	14.3	0.00e+00	0	62	0
2025-01-13 11:48:08.92	241.80	19.10	-50.6	-53.4	14.3	0.00e+00	0	62	0
2025-01-13 11:48:10.82	242.43	19.24	-50.7	-53.6	14.3	0.00e+00	0	62	0
2025-01-13 11:48:12.72	243.06	19.37	-50.6	-53.3	14.1	0.00e+00	0	62	0
2025-01-13 11:48:14.62	243.70	19.50	-50.5	-53.3	14.0	0.00e+00	0	62	0
2025-01-13 11:48:16.52	244.35	19.63	-50.5	-53.2	14.1	0.00e+00	0	62	0
2025-01-13 11:48:18.42	245.00	19.75	-50.4	-53.1	14.3	0.00e+00	0	62	0
2025-01-13 11:48:20.32	245.65	19.87	-50.3	-52.9	14.6	0.00e+00	0	63	0
2025-01-13 11:48:22.22	246.32	19.99	-50.4	-53.0	14.6	0.00e+00	0	63	0
2025-01-13 11:48:24.12	246.99	20.11	-50.3	-52.8	14.6	0.00e+00	0	63	0
2025-01-13 11:48:26.01	247.66	20.22	-50.4	-53.0	14.5	1.38e-05	0	63	0
2025-01-13 11:48:27.91	248.34	20.33	-50.3	-52.8	14.4	0.00e+00	0	63	0
2025-01-13 11:48:29.81	249.02	20.44	-50.3	-52.8	14.4	0.00e+00	0	63	0
2025-01-13 11:48:31.71	249.71	20.54	-50.3	-52.7	14.4	0.00e+00	0	63	0
2025-01-13 11:48:33.61	250.40	20.64	-50.3	-52.9	14.4	0.00e+00	0	64	0
2025-01-13 11:48:35.51	251.10	20.74	-50.3	-52.8	14.4	0.00e+00	0	64	0
2025-01-13 11:48:37.41	251.81	20.84	-50.3	-52.8	14.3	0.00e+00	0	64	0
2025-01-13 11:48:39.31	252.52	20.93	-50.2	-52.7	14.4	0.00e+00	0	64	0
2025-01-13 11:48:41.21	253.23	21.01	-50.2	-52.6	14.4	0.00e+00	0	64	0
2025-01-13 11:48:43.11	253.95	21.10	-50.3	-52.8	14.3	0.00e+00	0	64	0
2025-01-13 11:48:45.01	254.67	21.17	-50.3	-52.7	14.4	0.00e+00	0	65	0
2025-01-13 11:48:46.91	255.40	21.25	-50.4	-52.9	14.3	0.00e+00	0	64	0
2025-01-13 11:48:48.81	256.13	21.32	-50.3	-52.7	14.5	0.00e+00	0	65	0
2025-01-13 11:48:50.71	256.86	21.39	-50.3	-52.8	14.6	0.00e+00	0	64	0
2025-01-13 11:48:52.60	257.60	21.45	-50.3	-52.8	14.6	0.00e+00	0	65	0
2025-01-13 11:48:54.50	258.34	21.51	-50.2	-52.6	14.6	0.00e+00	0	65	0
2025-01-13 11:48:56.40	259.08	21.56	-50.3	-52.8	14.5	0.00e+00	0	65	0
2025-01-13 11:48:58.30	259.82	21.61	-50.2	-52.7	14.6	0.00e+00	0	65	0
2025-01-13 11:49:00.20	260.57	21.66	-50.2	-52.6	14.5	0.00e+00	0	65	0
2025-01-13 11:49:02.10	261.32	21.70	-50.2	-52.6	14.4	0.00e+00	0	65	0
2025-01-13 11:49:04.00	262.08	21.74	-50.2	-52.6	14.4	0.00e+00	0	65	0
2025-01-13 11:49:05.90	262.83	21.77	-50.3	-52.8	14.4	0.00e+00	0	65	0
2025-01-13 11:49:07.80	263.59	21.80	-50.2	-52.6	14.5	0.00e+00	0	65	0
2025-01-13 11:49:09.70	264.34	21.82	-50.2	-52.6	14.5	0.00e+00	0	66	0
2025-01-13 11:49:11.60	265.10	21.84	-50.3	-52.8	14.5	0.00e+00	0	66	0
2025-01-13 11:49:13.49	265.86	21.85	-50.2	-52.5	14.5	0.00e+00	0	66	0
2025-01-13 11:49:15.39	266.62	21.86	-50.2	-52.7	14.5	0.00e+00	0	66	0
2025-01-13 11:49:17.29	267.38	21.87	-50.2	-52.7	14.5	0.00e+00	0	66	0
2025-01-13 11:49:19.19	268.14	21.87	-50.3	-52.8	14.5	0.00e+00	0	66	0
2025-01-13 11:49:21.09	268.90	21.86	-51.7	-55.2	14.0	0.00e+00	0	66	0
2025-01-13 11:49:22.99	269.66	21.85	-51.7	-54.7	14.0	0.00e+00	0	66	0
2025-01-13 11:49:24.89	270.41	21.84	-51.7	-54.6	14.0	0.00e+00	0	66	0
2025-01-13 11:49:26.79	271.17	21.82	-51.5	-54.3	14.2	0.00e+00	0	66	0
2025-01-13 11:49:28.69	271.93	21.80	-51.6	-54.4	14.2	0.00e+00	0	67	0
2025-01-13 11:49:30.59	272.68	21.77	-51.9	-55.0	14.0	0.00e+00	0	67	0
2025-01-13 11:49:32.49	273.44	21.73	-51.7	-54.7	13.9	6.90e-06	0	67	0
2025-01-13 11:49:34.39	274.19	21.70	-51.8	-54.8	13.9	6.90e-06	0	67	0
2025-01-13 11:49:36.28	274.93	21.66	-51.7	-54.6	14.0	0.00e+00	0	67	0
2025-01-13 11:49:38.18	275.68	21.61	-51.6	-54.3	14.0	6.90e-06	0	67	0
2025-01-13 11:49:40.08	276.42	21.56	-51.7	-54.6	14.1	0.00e+00	0	67	0
2025-01-13 11:49:41.98	277.16	21.50	-51.5	-54.3	14.1	0.00e+00	0	67	0
2025-01-13 11:49:43.88	277.90	21.45	-51.8	-54.9	14.0	0.00e+00	0	67	0
2025-01-13 11:49:45.78	278.64	21.38	-51.6	-54.4	14.1	0.00e+00	0	67	0
2025-01-13 11:49:47.68	279.37	21.32	-51.7	-54.5	13.9	0.00e+00	0	67	0
2025-01-13 11:49:49.58	280.10	21.24	-51.7	-54.6	13.9	0.00e+00	0	67	0
2025-01-13 11:49:51.48	280.82	21.17	-51.4	-54.0	14.1	1.38e-05	0	68	0
2025-01-13 11:49:53.38	281.54	21.09	-51.4	-53.9	14.1	0.00e+00	0	68	0
2025-01-13 11:49:55.28	282.25	21.01	-51.2	-53.6	14.1	0.00e+00	0	68	0
2025-01-13 11:49:57.18	282.96	20.92	-51.5	-54.1	14.0	6.90e-06	0	68	0
2025-01-13 11:49:59.07	283.67	20.83	-51.3	-53.8	14.1	0.00e+00	0	68	0
2025-01-13 11:50:00.97	284.37	20.74	-51.4	-54.0	14.1	0.00e+00	0	68	0
2025-01-13 11:50:02.87	285.07	20.64	-51.5	-54.3	13.9	0.00e+00	0	68	0
2025-01-13 11:50:04.77	285.76	20.54	-51.3	-53.8	13.9	0.00e+00	0	68	0
2025-01-13 11:50:06.67	286.44	20.43	-51.4	-54.0	14.0	0.00e+00	0	68	0
2025-01-13 11:50:08.57	287.13	20.33	-51.3	-53.9	14.0	0.00e+00	0	68	0
2025-01-13 11:50:10.47	287.80	20.22	-51.5	-54.2	14.0	0.00e+00	0	68	0
2025-01-13 11:50:12.37	288.47	20.10	-51.7	-54.7	13.7	0.00e+00	0	68	0
2025-01-13 11:50:14.27	289.14	19.99	-51.8	-54.8	13.7	0.00e+00	0	68	0
2025-01-13 11:50:16.17	289.79	19.87	-52.0	-55.3	13.7	0.00e+00	0	68	0
2025-01-13 11:50:18.07	290.45	19.75	-51.9	-55.1	13.7	2.08e-05	0	69	0
2025-01-13 11:50:19.96	291.09	19.63	-52.0	-55.3	13.7	0.00e+00	0	69	0
2025-01-13 11:50:21.86	291.73	19.50	-52.1	-55.5	13.7	0.00e+00	0	69	0
2025-01-13 11:50:23.76	292.37	19.37	-52.3	-55.4	13.6	1.38e-05	0	69	0
2025-01-13 11:50:25.66	293.00	19.24	-52.3	-55.4	13.6	0.00e+00	0	69	0
2025-01-13 11:50:27.56	293.62	19.11	-52.2	-55.2	13.4	6.90e-06	0	69	0
2025-01-13 11:50:29.46	294.24	18.97	-52.3	-55.3	13.4	0.00e+00	0	69	0
2025-01-13 11:50:31.36	294.85	18.83	-52.1	-55.0	13.6	0.00e+00	0	69	0
2025-01-13 11:50:33.26	295.45	18.70	-51.8	-54.4	13.9	0.00e+00	0	69	0
2025-01-13 11:50:35.16	296.05	18.55	-51.7	-54.1	13.9	0.00e+00	0	69	0
2025-01-13 11:50:37.06	296.64	18.41	-51.7	-54.1	13.9	0.00e+00	0	69	0
2025-01-13 11:50:38.96	297.23	18.27	-51.8	-54.3	14.0	0.00e+00	0	69	0
2025-01-13 11:50:40.86	297.81	18.12	-51.9	-54.6	13.8	0.00e+00	0	69	0
2025-01-13 11:50:42.75	298.38	17.98	-52.1	-54.9	13.9	0.00e+00	0	69	0
2025-01-13 11:50:44.65	298.94	17.83	-52.1	-54.9	13.8	0.00e+00	0	69	0
2025-01-13 11:50:46.55	299.51	17.68	-52.2	-55.1	13.7	6.90e-06	0	69	0
2025-01-13 11:50:48.45	300.06	17.53	-52.4	-55.6	13.6	2.08e-05	0	69	0
2025-01-13 11:50:50.35	300.61	17.38	-52.5	-55.7	13.6	0.00e+00	0	69	0
2025-01-13 11:50:52.25	301.15	17.22	-52.6	-56.0	13.5	6.90e-06	0	69	0
2025-01-13 11:50:54.15	301.68	17.07	-52.6	-55.9	13.5	0.00e+00	0	70	0
2025-01-13 11:50:56.05	302.21	16.91	-52.7	-56.2	13.4	6.90e-06	0	70	0
2025-01-13 11:50:57.95	302.74	16.76	-52.9	-56.0	13.3	2.77e-05	0	70	0
2025-01-13 11:50:59.85	303.25	16.60	-53.0	-56.2	13.4	3.46e-05	0	70	0
2025-01-13 11:51:01.75	303.76	16.44	-53.0	-56.2	13.3	6.90e-06	0	70	0
2025-01-13 11:51:03.64	304.26	16.29	-52.8	-55.9	13.2	2.08e-05	0	70	0
2025-01-13 11:51:05.54	304.76	16.13	-52.7	-55.5	13.4	3.46e-05	0	70	0
2025-01-13 11:51:07.44	305.26	15.97	-52.6	-55.4	13.5	0.00e+00	0	70	0
2025-01-13 11:51:09.34	305.74	15.81	-52.5	-55.3	13.5	6.90e-06	0	70	0
2025-01-13 11:51:11.24	306.22	15.65	-52.6	-55.5	13.5	0.00e+00	0	70	0
2025-01-13 11:51:13.14	306.70	15.49	-52.6	-55.4	13.6	1.38e-05	0	70	0
2025-01-13 11:51:15.04	307.17	15.33	-52.6	-55.5	13.5	1.38e-05	0	70	0
2025-01-13 11:51:16.94	307.63	15.17	-53.0	-56.2	13.3	1.38e-05	0	70	0
2025-01-13 11:51:18.84	308.09	15.01	-53.2	-56.5	13.2	1.38e-05	0	70	0
2025-01-13 11:51:20.74	308.54	14.85	-53.3	-56.4	13.2	6.90e-06	0	70	0
2025-01-13 11:51:22.64	308.98	14.69	-53.3	-56.4	13.2	2.08e-05	0	70	0
2025-01-13 11:51:24.54	309.42	14.53	-53.5	-56.7	13.0	4.85e-05	0	71	0
2025-01-13 11:51:26.43	309.86	14.37	-53.9	-57.1	12.8	8.32e-05	0	71	0
2025-01-13 11:51:28.33	310.29	14.21	-53.8	-56.9	12.8	4.85e-05	0	70	0
2025-01-13 11:51:30.23	310.71	14.05	-53.8	-56.9	12.8	8.32e-05	0	71	0
2025-01-13 11:51:32.13	311.13	13.89	-53.9	-57.0	12.8	6.93e-05	0	71	0
2025-01-13 11:51:34.03	311.54	13.72	-67.5	-73.5	3.6	6.93e-05	0	70	104
2025-01-13 11:51:35.93	311.95	13.56	-67.6	-73.6	3.7	6.93e-05	0	70	104
2025-01-13 11:51:37.83	312.36	13.40	-67.6	-73.6	3.7	6.93e-05	0	70	104
2025-01-13 11:51:39.73	312.76	13.24	-67.7	-73.8	3.7	6.93e-05	0	70	104
2025-01-13 11:51:41.63	313.15	13.08	-67.7	-73.8	3.7	6.93e-05	0	70	104
2025-01-13 11:51:43.53	313.54	12.93	-67.4	-73.4	3.6	6.93e-05	0	70	104
2025-01-13 11:51:45.43	313.92	12.77	-67.5	-73.5	3.6	6.93e-05	0	70	104
2025-01-13 11:51:47.32	314.30	12.61	-67.7	-73.6	3.7	6.93e-05	0	70	104
2025-01-13 11:51:49.22	314.67	12.45	-67.5	-73.3	3.7	6.93e-05	0	70	104
2025-01-13 11:51:51.12	315.04	12.29	-67.4	-73.3	3.7	0.00e+00	0	70	104
2025-01-13 11:51:53.02	315.41	12.13	-67.6	-73.6	3.6	0.00e+00	0	70	104
2025-01-13 11:51:54.92	315.77	11.98	-67.7	-73.8	3.6	0.00e+00	0	70	104
2025-01-13 11:51:56.82	316.12	11.82	-67.7	-73.9	3.6	0.00e+00	0	70	104
2025-01-13 11:51:58.72	316.47	11.66	-67.6	-73.7	3.7	0.00e+00	0	70	104
2025-01-13 11:52:00.62	316.82	11.51	-67.6	-73.6	3.7	0.00e+00	0	70	104
2025-01-13 11:52:02.52	317.16	11.35	-67.6	-73.6	3.7	0.00e+00	0	70	104
2025-01-13 11:52:04.42	317.50	11.20	-67.5	-73.3	3.6	0.00e+00	0	70	104
2025-01-13 11:52:06.32	317.84	11.04	-67.5	-73.1	3.6	0.00e+00	0	70	104
2025-01-13 11:52:08.21	318.17	10.89	-67.5	-73.2	3.6	0.00e+00	0	70	104
2025-01-13 11:52:10.11	318.49	10.74	-67.6	-73.4	3.6	0.00e+00	0	71	104
2025-01-13 11:52:12.01	318.82	10.58	-67.6	-73.6	3.7	0.00e+00	0	70	104
2025-01-13 11:52:13.91	319.13	10.43	-67.6	-73.6	3.7	0.00e+00	0	70	104
2025-01-13 11:52:15.81	319.45	10.28	-67.5	-73.6	3.6	0.00e+00	0	70	104
2025-01-13 11:52:17.71	319.76	10.13	-67.3	-73.3	3.6	0.00e+00	0	70	104
2025-01-13 11:52:19.61	320.07	9.98	-67.2	-73.2	3.6	0.00e+00	0	70	104
2025-01-13 11:52:21.51	320.37	9.83	-67.2	-73.0	3.6	0.00e+00	0	70	104
2025-01-13 11:52:23.41	320.67	9.68	-67.4	-73.0	3.7	0.00e+00	0	70	104
2025-01-13 11:52:25.31	320.96	9.53	-67.5	-73.1	3.7	0.00e+00	0	70	104
2025-01-13 11:52:27.21	321.26	9.38	-67.5	-73.3	3.6	0.00e+00	0	70	104
2025-01-13 11:52:29.10	321.54	9.24	-67.5	-73.3	3.6	0.00e+00	0	70	104
2025-01-13 11:52:31.00	321.83	9.09	-67.5	-73.4	3.6	0.00e+00	0	71	104
2025-01-13 11:52:32.90	322.11	8.94	-67.6	-73.4	3.6	0.00e+00	0	70	104
2025-01-13 11:52:34.80	322.39	8.80	-67.5	-73.3	3.7	0.00e+00	0	70	104
2025-01-13 11:52:36.70	322.67	8.65	-67.5	-73.3	3.7	0.00e+00	0	70	104
2025-01-13 11:52:38.60	322.94	8.51	-67.5	-73.3	3.6	0.00e+00	0	70	104
2025-01-13 11:52:40.50	323.21	8.36	-67.5	-73.3	3.6	0.00e+00	0	70	104
2025-01-13 11:52:42.40	323.47	8.22	-67.4	-73.0	3.6	0.00e+00	0	71	104
2025-01-13 11:52:44.30	323.74	8.08	-67.3	-72.9	3.6	0.00e+00	0	71	104
2025-01-13 11:52:46.20	324.00	7.93	-67.1	-72.3	3.7	0.00e+00	0	70	104

#Closed at: 2025-01-13 11:52:46
#Recorded file [19503 MB]: D:/data/31015_250113_235132.dat