passes_logs/2026/01/17/T1/T1__20260117_003757_SUOMI_NPP_rec.log

#Pass ID: 20260117_003757_SUOMI NPP
#Satellite: SUOMI NPP
#Configuration: NPP
#almurnet v.1.7.20251203
#Start time: 2026-01-17 00:37:57

#Version: 2.0.20230620
#Station: T1
#Location: 37.570604 lon 55.790049 lat
#TLE: 1 37849U 11061A   26016.23176763  .00000061  00000+0  49926-4 0  9990
#TLE: 2 37849  98.7812 318.2698 0002434  61.5135 298.6286 14.19525545736883

#Time	Az	El	Level	Level2	SNR	BER	BlckErr	Temp	State	Recorded	gain1	gain2
2026-01-17 00:37:57.55	11.09	5.02	-49.9	-65.8	3.8	1.49e+00	0	41	0	0	70	23762
2026-01-17 00:38:00.53	10.97	5.22	-47.4	-65.5	3.8	1.49e+00	0	41	104	0	65	30409
2026-01-17 00:38:03.52	10.84	5.43	-47.4	-65.4	3.8	1.49e+00	0	42	104	0	65	30323
2026-01-17 00:38:06.51	10.72	5.64	-47.4	-65.5	3.8	1.49e+00	0	42	104	0	65	30466
2026-01-17 00:38:09.50	10.58	5.85	-47.5	-65.5	3.8	1.49e+00	0	42	104	0	65	30411
2026-01-17 00:38:12.49	10.45	6.06	-47.4	-65.4	3.8	1.49e+00	0	42	104	0	65	30248
2026-01-17 00:38:15.48	10.32	6.27	-47.4	-65.4	3.8	1.49e+00	0	42	104	0	65	30191
2026-01-17 00:38:18.46	10.18	6.48	-47.4	-65.1	3.8	1.49e+00	0	42	104	0	65	29223
2026-01-17 00:38:21.46	10.04	6.70	-47.4	-64.2	3.8	1.49e+00	0	42	104	0	65	26415
2026-01-17 00:38:24.45	9.90	6.92	-47.4	-63.3	3.8	1.49e+00	0	42	104	0	65	23715
2026-01-17 00:38:27.44	9.76	7.14	-47.4	-63.1	3.8	1.48e+00	0	42	104	0	65	23102
2026-01-17 00:38:30.43	9.61	7.36	-47.4	-63.8	3.8	1.49e+00	0	42	104	0	65	25025
2026-01-17 00:38:33.42	9.46	7.58	-47.4	-65.0	3.8	1.49e+00	0	42	104	0	65	28744
2026-01-17 00:38:36.41	9.31	7.81	-47.4	-65.2	3.8	1.49e+00	0	42	104	0	65	29605
2026-01-17 00:38:39.40	9.16	8.03	-47.3	-60.7	4.6	1.40e+00	0	42	0	0	65	17655
2026-01-17 00:38:42.39	9.00	8.26	-46.6	-55.1	9.0	4.91e-02	0	42	0	5242880	65	9198
2026-01-17 00:38:45.38	8.84	8.49	-45.6	-51.4	12.8	1.53e-04	0	42	0	11534336	63	6777
2026-01-17 00:38:48.38	8.68	8.72	-45.0	-50.0	14.3	0.00e+00	0	42	0	16777216	62	6092
2026-01-17 00:38:51.37	8.51	8.96	-45.4	-50.8	13.5	6.80e-06	0	42	0	22020096	61	7086
2026-01-17 00:38:54.37	8.35	9.20	-46.4	-53.9	10.0	8.71e-02	0	42	0	28311552	64	8504
2026-01-17 00:38:57.37	8.17	9.43	-46.4	-52.7	11.1	1.65e-02	0	42	0	33554432	64	7382
2026-01-17 00:39:00.37	8.00	9.67	-44.0	-47.3	16.9	0.00e+00	0	42	0	39845888	60	5022
2026-01-17 00:39:03.38	7.82	9.92	-44.0	-47.2	16.9	0.00e+00	0	43	0	45088768	59	5277
2026-01-17 00:39:06.38	7.64	10.16	-44.0	-47.2	17.0	0.00e+00	0	42	0	50331648	59	5219
2026-01-17 00:39:09.38	7.46	10.41	-43.9	-47.0	17.2	0.00e+00	0	43	0	56623104	59	5125
2026-01-17 00:39:12.38	7.27	10.66	-44.0	-47.0	17.2	0.00e+00	0	43	0	61865984	59	5109
2026-01-17 00:39:15.38	7.08	10.91	-44.0	-46.9	17.3	0.00e+00	0	43	0	67108864	59	5087
2026-01-17 00:39:18.38	6.89	11.17	-43.9	-46.7	17.4	0.00e+00	0	43	0	73400320	59	4974
2026-01-17 00:39:21.38	6.69	11.42	-43.9	-46.9	17.4	0.00e+00	0	42	0	78643200	59	5045
2026-01-17 00:39:24.38	6.49	11.68	-44.0	-46.8	17.3	0.00e+00	0	43	0	83886080	59	5024
2026-01-17 00:39:27.39	6.28	11.94	-43.9	-46.7	17.5	0.00e+00	0	42	0	90177536	59	4959
2026-01-17 00:39:30.39	6.08	12.21	-43.8	-46.6	17.6	0.00e+00	0	43	0	95420416	59	4919
2026-01-17 00:39:33.39	5.86	12.47	-44.1	-46.9	17.3	0.00e+00	0	43	0	101711872	59	5077
2026-01-17 00:39:36.39	5.65	12.74	-44.0	-46.7	17.5	0.00e+00	0	43	0	106954752	59	4980
2026-01-17 00:39:39.39	5.43	13.01	-43.9	-46.7	17.5	0.00e+00	0	43	0	112197632	59	4952
2026-01-17 00:39:42.40	5.20	13.29	-44.1	-46.9	17.4	0.00e+00	0	43	0	118489088	59	5052
2026-01-17 00:39:45.40	4.97	13.56	-44.1	-46.9	17.4	0.00e+00	0	43	0	123731968	59	5064
2026-01-17 00:39:48.39	4.74	13.84	-44.1	-46.9	17.4	0.00e+00	0	42	0	128974848	59	5055
2026-01-17 00:39:51.39	4.50	14.12	-44.0	-46.7	17.6	0.00e+00	0	43	0	135266304	59	4953
2026-01-17 00:39:54.40	4.25	14.41	-43.9	-46.6	17.7	0.00e+00	0	43	0	140509184	59	4899
2026-01-17 00:39:57.40	4.00	14.69	-43.7	-46.3	17.9	0.00e+00	0	43	0	145752064	59	4747
2026-01-17 00:40:00.40	3.75	14.98	-43.7	-46.4	17.9	0.00e+00	0	43	0	152043520	59	4764
2026-01-17 00:40:03.40	3.49	15.28	-43.7	-46.3	18.0	0.00e+00	0	43	0	157286400	59	4719
2026-01-17 00:40:06.41	3.22	15.57	-43.9	-46.5	17.8	0.00e+00	0	43	0	163577856	59	4841
2026-01-17 00:40:09.41	2.95	15.87	-43.9	-46.5	17.7	0.00e+00	0	43	0	168820736	59	4869
2026-01-17 00:40:12.42	2.68	16.18	-44.1	-46.8	17.6	0.00e+00	0	43	0	174063616	59	5023
2026-01-17 00:40:15.42	2.40	16.48	-43.9	-46.6	17.7	0.00e+00	0	43	0	180355072	59	4906
2026-01-17 00:40:18.43	2.11	16.79	-44.0	-46.7	17.6	0.00e+00	0	43	0	185597952	59	4973
2026-01-17 00:40:21.43	1.81	17.10	-43.6	-46.2	18.1	0.00e+00	0	43	0	190840832	59	4678
2026-01-17 00:40:24.43	1.51	17.42	-43.9	-46.6	17.8	0.00e+00	0	43	0	197132288	58	5162
2026-01-17 00:40:27.43	1.21	17.73	-43.9	-46.6	17.7	0.00e+00	0	43	0	202375168	59	4905
2026-01-17 00:40:30.43	0.89	18.05	-44.4	-47.1	17.3	0.00e+00	0	43	0	208666624	59	5202
2026-01-17 00:40:33.43	0.57	18.38	-44.6	-47.5	16.9	0.00e+00	0	43	0	213909504	60	5108
2026-01-17 00:40:36.44	0.24	18.71	-44.5	-47.3	17.1	0.00e+00	0	43	0	219152384	60	5030
2026-01-17 00:40:39.44	359.91	19.04	-44.5	-47.2	17.2	0.00e+00	0	43	0	225443840	60	4983
2026-01-17 00:40:42.43	359.57	19.37	-44.7	-47.6	16.8	0.00e+00	0	43	0	230686720	60	5211
2026-01-17 00:40:45.44	359.21	19.71	-44.2	-47.0	17.4	0.00e+00	0	43	0	235929600	60	4859
2026-01-17 00:40:48.45	358.85	20.05	-44.4	-47.2	17.2	0.00e+00	0	43	0	242221056	60	4976
2026-01-17 00:40:51.45	358.49	20.40	-44.2	-47.0	17.5	0.00e+00	0	43	0	247463936	60	4825
2026-01-17 00:40:54.45	358.11	20.75	-44.4	-47.1	17.4	0.00e+00	0	43	0	253755392	60	4903
2026-01-17 00:40:57.45	357.73	21.10	-44.4	-47.1	17.4	0.00e+00	0	43	0	258998272	60	4915
2026-01-17 00:41:00.45	357.33	21.45	-44.3	-47.0	17.5	0.00e+00	0	43	0	264241152	60	4861
2026-01-17 00:41:03.45	356.93	21.81	-44.5	-47.3	17.3	0.00e+00	0	43	0	270532608	60	5025
2026-01-17 00:41:06.45	356.52	22.17	-44.5	-47.3	17.2	0.00e+00	0	43	0	275775488	60	5031
2026-01-17 00:41:09.45	356.09	22.54	-44.2	-46.9	17.6	0.00e+00	0	43	0	281018368	60	4796
2026-01-17 00:41:12.45	355.66	22.91	-44.6	-47.4	17.2	0.00e+00	0	43	0	287309824	60	5051
2026-01-17 00:41:15.45	355.22	23.28	-44.7	-47.6	17.0	0.00e+00	0	43	0	292552704	60	5169
2026-01-17 00:41:18.46	354.76	23.66	-44.6	-47.6	16.9	0.00e+00	0	42	0	297795584	60	5196
2026-01-17 00:41:21.46	354.29	24.04	-45.0	-48.1	16.6	0.00e+00	0	43	0	304087040	60	5482
2026-01-17 00:41:24.46	353.81	24.43	-44.8	-47.7	16.8	0.00e+00	0	43	0	309329920	61	4983
2026-01-17 00:41:27.47	353.32	24.81	-44.5	-47.2	17.4	0.00e+00	0	43	0	315621376	60	4952
2026-01-17 00:41:30.47	352.82	25.20	-44.5	-47.2	17.4	0.00e+00	0	43	0	320864256	60	4937
2026-01-17 00:41:33.47	352.30	25.60	-44.5	-47.3	17.3	0.00e+00	0	42	0	326107136	60	4997
2026-01-17 00:41:36.47	351.77	25.99	-44.9	-47.8	16.8	0.00e+00	0	42	0	332398592	60	5313
2026-01-17 00:41:39.48	351.23	26.40	-44.7	-47.6	17.0	0.00e+00	0	43	0	337641472	61	4875
2026-01-17 00:41:42.49	350.67	26.80	-44.5	-47.2	17.3	0.00e+00	0	43	0	342884352	60	4976
2026-01-17 00:41:45.49	350.10	27.21	-44.4	-47.2	17.4	0.00e+00	0	43	0	349175808	60	4936
2026-01-17 00:41:48.50	349.51	27.62	-45.2	-48.3	16.3	0.00e+00	0	43	0	354418688	61	5302
2026-01-17 00:41:51.51	348.91	28.03	-45.6	-48.8	15.8	0.00e+00	0	43	0	360710144	61	5648
2026-01-17 00:41:54.51	348.29	28.44	-45.8	-49.0	15.6	0.00e+00	0	43	0	365953024	62	5441
2026-01-17 00:41:57.51	347.65	28.86	-44.9	-47.8	16.9	0.00e+00	0	43	0	371195904	61	5008
2026-01-17 00:42:00.51	347.00	29.28	-45.3	-48.5	16.2	0.00e+00	0	43	0	377487360	61	5434
2026-01-17 00:42:03.51	346.33	29.70	-45.8	-49.2	15.5	0.00e+00	0	42	0	382730240	62	5572
2026-01-17 00:42:06.52	345.64	30.12	-46.2	-49.6	15.1	0.00e+00	0	43	0	387973120	63	5499
2026-01-17 00:42:09.51	344.94	30.55	-46.6	-50.5	14.2	1.50e-06	0	43	0	394264576	64	5767
2026-01-17 00:42:12.51	344.21	30.97	-46.2	-49.9	14.7	0.00e+00	0	42	0	399507456	64	5368
2026-01-17 00:42:15.52	343.47	31.40	-46.4	-50.1	14.8	0.00e+00	0	43	0	404750336	63	5819
2026-01-17 00:42:18.52	342.70	31.83	-46.7	-50.8	13.8	4.50e-06	0	42	0	411041792	64	5960
2026-01-17 00:42:21.52	341.92	32.25	-46.0	-49.8	14.9	4.50e-06	0	42	0	416284672	63	5656
2026-01-17 00:42:24.53	341.11	32.68	-46.3	-50.0	14.8	0.00e+00	0	43	0	422576128	63	5776
2026-01-17 00:42:27.53	340.28	33.11	-47.2	-51.4	13.3	2.36e-05	0	42	0	427819008	65	6035
2026-01-17 00:42:30.53	339.43	33.53	-46.2	-49.6	15.0	7.00e-07	0	43	0	433061888	64	5172
2026-01-17 00:42:33.52	338.56	33.95	-44.8	-47.5	17.0	0.00e+00	0	42	0	439353344	61	4864
2026-01-17 00:42:36.52	337.66	34.38	-44.6	-47.5	17.1	0.00e+00	0	43	0	444596224	61	4825
2026-01-17 00:42:39.52	336.74	34.80	-45.2	-48.4	16.5	0.00e+00	0	42	0	449839104	61	5342
2026-01-17 00:42:42.52	335.80	35.21	-45.5	-48.7	16.0	0.00e+00	0	42	0	456130560	61	5538
2026-01-17 00:42:45.52	334.83	35.62	-45.9	-49.1	15.6	0.00e+00	0	43	0	461373440	62	5516
2026-01-17 00:42:48.52	333.83	36.03	-45.7	-48.7	16.0	0.00e+00	0	42	0	466616320	63	4964
2026-01-17 00:42:51.52	332.82	36.44	-45.8	-49.0	15.8	0.00e+00	0	42	0	472907776	62	5417
2026-01-17 00:42:54.52	331.77	36.83	-46.7	-50.8	13.8	2.20e-06	0	42	0	478150656	64	5968
2026-01-17 00:42:57.52	330.70	37.22	-46.9	-51.2	13.5	2.82e-05	0	42	0	484442112	65	5922
2026-01-17 00:43:00.52	329.60	37.61	-46.4	-49.9	14.9	0.00e+00	0	42	0	489684992	64	5346
2026-01-17 00:43:03.52	328.48	37.98	-46.1	-49.5	15.0	0.00e+00	0	43	0	494927872	64	5143
2026-01-17 00:43:06.53	327.33	38.35	-45.4	-48.5	16.2	0.00e+00	0	42	0	501219328	62	5136
2026-01-17 00:43:09.53	326.15	38.71	-44.8	-47.9	16.8	0.00e+00	0	43	0	506462208	61	5072
2026-01-17 00:43:12.53	324.95	39.06	-44.9	-47.9	16.7	0.00e+00	0	43	0	511705088	61	5099
2026-01-17 00:43:15.54	323.72	39.39	-45.4	-48.4	16.2	0.00e+00	0	42	0	517996544	61	5342
2026-01-17 00:43:18.55	322.47	39.72	-44.7	-47.4	17.2	0.00e+00	0	42	0	523239424	61	4795
2026-01-17 00:43:21.55	321.19	40.03	-44.4	-47.1	17.5	0.00e+00	0	42	0	528482304	60	4917
2026-01-17 00:43:24.55	319.89	40.33	-44.1	-46.6	18.0	0.00e+00	0	42	0	534773760	59	4905
2026-01-17 00:43:27.55	318.56	40.61	-44.9	-47.7	16.8	0.00e+00	0	42	0	540016640	60	5237
2026-01-17 00:43:30.55	317.22	40.88	-43.4	-45.8	18.6	0.00e+00	0	42	0	546308096	58	4741
2026-01-17 00:43:33.55	315.85	41.13	-43.3	-45.7	18.8	0.00e+00	0	42	0	551550976	58	4668
2026-01-17 00:43:36.56	314.45	41.36	-42.5	-44.7	19.6	0.00e+00	0	42	0	556793856	56	4656
2026-01-17 00:43:39.56	313.04	41.58	-43.4	-45.7	18.6	0.00e+00	0	42	0	563085312	57	4979
2026-01-17 00:43:42.56	311.61	41.77	-45.3	-48.3	16.4	0.00e+00	0	42	0	568328192	61	5309
2026-01-17 00:43:45.57	310.16	41.95	-45.0	-47.9	16.8	0.00e+00	0	42	0	573571072	61	5048
2026-01-17 00:43:48.57	308.70	42.11	-44.2	-46.9	17.7	0.00e+00	0	42	0	579862528	60	4773
2026-01-17 00:43:51.58	307.22	42.24	-44.6	-47.4	17.1	0.00e+00	0	42	0	585105408	60	5061
2026-01-17 00:43:54.58	305.74	42.36	-44.2	-46.8	17.7	0.00e+00	0	42	0	591396864	59	5008
2026-01-17 00:43:57.58	304.24	42.45	-44.3	-46.9	17.7	0.00e+00	0	43	0	596639744	60	4760
2026-01-17 00:44:00.56	302.75	42.52	-44.0	-46.5	18.0	0.00e+00	0	42	0	601882624	59	4832
2026-01-17 00:44:03.56	301.24	42.57	-44.4	-47.0	17.6	0.00e+00	0	42	0	608174080	60	4852
2026-01-17 00:44:06.56	299.72	42.60	-45.0	-47.8	16.8	0.00e+00	0	42	0	613416960	60	5340
2026-01-17 00:44:09.57	298.20	42.61	-44.7	-47.5	17.2	0.00e+00	0	42	0	618659840	60	5113
2026-01-17 00:44:12.57	296.69	42.59	-45.8	-49.0	15.8	0.00e+00	0	42	0	624951296	62	5437
2026-01-17 00:44:15.57	295.18	42.55	-44.8	-47.5	17.2	0.00e+00	0	42	0	630194176	61	4868
2026-01-17 00:44:18.57	293.67	42.48	-45.9	-49.0	15.7	0.00e+00	0	42	0	635437056	62	5442
2026-01-17 00:44:21.57	292.17	42.40	-47.0	-50.9	13.9	5.30e-06	0	42	0	641728512	64	6001
2026-01-17 00:44:24.58	290.67	42.29	-46.0	-49.1	15.6	0.00e+00	0	42	0	646971392	63	5183
2026-01-17 00:44:27.58	289.19	42.16	-47.0	-50.8	13.8	5.30e-06	0	42	0	653262848	65	5611
2026-01-17 00:44:30.58	287.73	42.02	-46.9	-50.7	14.0	3.80e-06	0	42	0	658505728	65	5533
2026-01-17 00:44:33.58	286.27	41.85	-47.8	-52.3	12.2	4.30e-04	0	42	0	663748608	67	5990
2026-01-17 00:44:36.59	284.83	41.66	-47.6	-51.9	12.7	1.23e-04	0	42	0	670040064	66	6044
2026-01-17 00:44:39.59	283.41	41.45	-47.1	-51.0	13.5	5.30e-06	0	42	0	675282944	65	5750
2026-01-17 00:44:42.60	282.00	41.22	-46.7	-50.4	14.3	1.52e-05	0	42	0	680525824	65	5395
2026-01-17 00:44:45.60	280.62	40.98	-45.3	-48.3	16.3	0.00e+00	0	42	0	686817280	62	5011
2026-01-17 00:44:48.60	279.26	40.72	-44.3	-46.9	17.7	0.00e+00	0	42	0	692060160	60	4789
2026-01-17 00:44:51.60	277.93	40.44	-43.7	-46.1	18.4	0.00e+00	0	42	0	698351616	58	4906
2026-01-17 00:44:54.60	276.61	40.15	-43.4	-45.8	18.7	0.00e+00	0	42	0	703594496	58	4726
2026-01-17 00:44:57.61	275.32	39.84	-43.1	-45.5	18.9	0.00e+00	0	42	0	708837376	57	4822
2026-01-17 00:45:00.61	274.06	39.52	-43.0	-45.3	19.1	0.00e+00	0	42	0	715128832	57	4743
2026-01-17 00:45:03.62	272.81	39.19	-42.4	-44.6	19.8	0.00e+00	0	42	0	720371712	56	4607
2026-01-17 00:45:06.62	271.60	38.84	-41.9	-44.0	20.0	0.00e+00	0	42	0	725614592	55	4591
2026-01-17 00:45:09.63	270.41	38.49	-43.7	-46.2	18.3	0.00e+00	0	42	0	731906048	57	5219
2026-01-17 00:45:12.63	269.24	38.12	-43.8	-46.2	18.3	0.00e+00	0	42	0	737148928	58	4979
2026-01-17 00:45:15.64	268.10	37.75	-42.6	-44.8	19.6	0.00e+00	0	42	0	743440384	56	4714
2026-01-17 00:45:18.65	266.99	37.37	-43.9	-46.4	18.1	0.00e+00	0	42	0	748683264	58	5062
2026-01-17 00:45:21.66	265.90	36.97	-42.3	-44.4	19.8	0.00e+00	0	42	0	753926144	56	4537
2026-01-17 00:45:24.66	264.85	36.58	-42.2	-44.3	19.8	0.00e+00	0	42	0	760217600	55	4736
2026-01-17 00:45:27.66	263.81	36.18	-44.5	-47.3	17.2	0.00e+00	0	42	0	765460480	59	5308
2026-01-17 00:45:30.66	262.81	35.77	-43.4	-45.8	18.6	0.00e+00	0	42	0	770703360	58	4742
2026-01-17 00:45:33.66	261.83	35.36	-43.7	-46.2	18.3	0.00e+00	0	42	0	776994816	58	4938
2026-01-17 00:45:36.67	260.87	34.94	-44.3	-46.9	17.6	0.00e+00	0	42	0	782237696	59	5096
2026-01-17 00:45:39.67	259.93	34.52	-44.9	-47.7	16.9	0.00e+00	0	42	0	788529152	60	5253
2026-01-17 00:45:42.68	259.02	34.10	-45.3	-48.4	16.3	0.00e+00	0	42	0	793772032	62	5057
2026-01-17 00:45:45.68	258.14	33.67	-45.0	-47.9	16.7	0.00e+00	0	42	0	799014912	61	5075
2026-01-17 00:45:48.68	257.27	33.24	-44.6	-47.3	17.3	0.00e+00	0	42	0	805306368	61	4729
2026-01-17 00:45:51.68	256.44	32.82	-46.0	-49.3	15.4	0.00e+00	0	42	0	810549248	62	5642
2026-01-17 00:45:54.68	255.62	32.39	-45.3	-48.2	16.5	0.00e+00	0	42	0	815792128	62	4957
2026-01-17 00:45:57.68	254.82	31.96	-45.8	-49.0	15.7	0.00e+00	0	42	0	822083584	62	5412
2026-01-17 00:46:00.68	254.05	31.53	-47.1	-51.3	13.4	4.50e-06	0	42	0	827326464	64	6329
2026-01-17 00:46:03.67	253.29	31.11	-47.6	-52.1	12.4	1.27e-04	0	42	0	832569344	66	6176
2026-01-17 00:46:06.67	252.56	30.68	-46.1	-49.4	15.1	7.00e-07	0	42	0	838860800	64	5098
2026-01-17 00:46:09.67	251.84	30.25	-46.3	-49.9	14.7	0.00e+00	0	42	0	844103680	64	5402
2026-01-17 00:46:12.67	251.14	29.83	-45.6	-48.8	16.0	0.00e+00	0	42	0	850395136	62	5284
2026-01-17 00:46:15.68	250.46	29.40	-46.1	-49.5	15.2	0.00e+00	0	42	0	855638016	63	5426
2026-01-17 00:46:18.68	249.80	28.98	-45.6	-48.7	15.9	0.00e+00	0	42	0	860880896	62	5278
2026-01-17 00:46:21.69	249.16	28.56	-45.6	-48.6	16.0	0.00e+00	0	42	0	867172352	62	5216
2026-01-17 00:46:24.69	248.53	28.14	-45.1	-48.0	16.6	0.00e+00	0	42	0	872415232	62	4843
2026-01-17 00:46:27.69	247.92	27.73	-44.6	-47.4	17.2	0.00e+00	0	42	0	877658112	61	4785
2026-01-17 00:46:30.70	247.32	27.32	-43.9	-46.4	18.0	0.00e+00	0	42	0	883949568	59	4778
2026-01-17 00:46:33.69	246.74	26.91	-44.0	-46.4	18.0	0.00e+00	0	42	0	889192448	59	4804
2026-01-17 00:46:36.70	246.17	26.50	-44.5	-47.1	17.3	0.00e+00	0	42	0	894435328	59	5211
2026-01-17 00:46:39.70	245.62	26.10	-45.1	-48.0	16.6	0.00e+00	0	42	0	900726784	60	5437
2026-01-17 00:46:42.70	245.09	25.70	-45.8	-49.0	15.7	0.00e+00	0	42	0	905969664	62	5421
2026-01-17 00:46:45.70	244.56	25.30	-46.0	-49.3	15.4	0.00e+00	0	42	0	912261120	63	5326
2026-01-17 00:46:48.70	244.05	24.91	-45.6	-48.8	15.9	0.00e+00	0	42	0	917504000	63	4987
2026-01-17 00:46:51.70	243.55	24.52	-45.2	-48.2	16.5	0.00e+00	0	42	0	922746880	62	4930
2026-01-17 00:46:54.70	243.07	24.13	-45.1	-47.9	16.7	0.00e+00	0	42	0	929038336	62	4811
2026-01-17 00:46:57.71	242.59	23.75	-44.7	-47.4	17.1	0.00e+00	0	42	0	934281216	61	4807
2026-01-17 00:47:00.71	242.13	23.37	-44.8	-47.5	17.0	0.00e+00	0	42	0	939524096	60	5155
2026-01-17 00:47:03.71	241.68	22.99	-44.4	-47.1	17.4	0.00e+00	0	42	0	945815552	60	4902
2026-01-17 00:47:06.72	241.24	22.62	-44.0	-46.6	17.8	0.00e+00	0	42	0	951058432	59	4915
2026-01-17 00:47:09.72	240.81	22.25	-44.3	-47.0	17.4	0.00e+00	0	42	0	957349888	59	5146
2026-01-17 00:47:12.73	240.39	21.88	-46.2	-49.6	15.0	0.00e+00	0	42	0	962592768	62	5827
2026-01-17 00:47:15.72	239.98	21.52	-46.3	-49.9	14.6	7.00e-07	0	42	0	967835648	64	5378
2026-01-17 00:47:18.73	239.58	21.16	-45.6	-48.8	15.7	0.00e+00	0	42	0	974127104	63	5022
2026-01-17 00:47:21.73	239.19	20.81	-45.2	-48.2	16.3	0.00e+00	0	42	0	979369984	62	4975
2026-01-17 00:47:24.73	238.81	20.46	-45.0	-48.0	16.6	0.00e+00	0	42	0	984612864	61	5102
2026-01-17 00:47:27.73	238.43	20.11	-45.2	-48.2	16.2	0.00e+00	0	42	0	990904320	61	5274
2026-01-17 00:47:30.73	238.07	19.77	-45.3	-48.4	16.1	0.00e+00	0	42	0	996147200	61	5357
2026-01-17 00:47:33.74	237.71	19.43	-44.7	-47.5	17.0	0.00e+00	0	42	0	1001390080	61	4857
2026-01-17 00:47:36.74	237.36	19.09	-43.9	-46.4	17.9	0.00e+00	0	42	0	1007681536	59	4781
2026-01-17 00:47:39.74	237.02	18.75	-44.1	-46.7	17.7	0.00e+00	0	42	0	1012924416	59	4938
2026-01-17 00:47:42.72	236.69	18.43	-44.8	-47.6	16.9	0.00e+00	0	42	0	1019215872	60	5169
2026-01-17 00:47:45.73	236.36	18.10	-45.3	-48.3	16.2	0.00e+00	0	42	0	1024458752	61	5324
2026-01-17 00:47:48.73	236.04	17.78	-45.1	-48.1	16.3	0.00e+00	0	42	0	1029701632	61	5211
2026-01-17 00:47:51.73	235.73	17.46	-44.8	-47.7	16.7	0.00e+00	0	42	0	1035993088	61	4959
2026-01-17 00:47:54.73	235.43	17.14	-44.9	-47.8	16.6	0.00e+00	0	42	0	1041235968	61	5017
2026-01-17 00:47:57.73	235.13	16.83	-44.9	-47.8	16.6	0.00e+00	0	42	0	1046478848	61	5014
2026-01-17 00:48:00.74	234.83	16.51	-45.1	-48.0	16.4	0.00e+00	0	42	0	1052770304	61	5149
2026-01-17 00:48:03.75	234.55	16.21	-45.0	-48.0	16.4	0.00e+00	0	42	0	1058013184	61	5122
2026-01-17 00:48:06.75	234.27	15.90	-45.3	-48.3	16.1	0.00e+00	0	42	0	1064304640	61	5303
2026-01-17 00:48:09.76	233.99	15.60	-45.5	-48.7	15.7	0.00e+00	0	42	0	1069547520	61	5556
2026-01-17 00:48:12.76	233.72	15.30	-45.4	-48.5	15.9	0.00e+00	0	42	0	1074790400	62	5123
2026-01-17 00:48:15.76	233.46	15.01	-44.8	-47.7	16.7	0.00e+00	0	42	0	1081081856	61	4936
2026-01-17 00:48:18.75	233.20	14.72	-44.5	-47.2	17.1	0.00e+00	0	42	0	1086324736	60	4963
2026-01-17 00:48:21.75	232.95	14.43	-44.4	-47.0	17.3	0.00e+00	0	42	0	1091567616	60	4869
2026-01-17 00:48:24.75	232.70	14.14	-44.3	-47.0	17.4	0.00e+00	0	42	0	1097859072	60	4824
2026-01-17 00:48:27.76	232.45	13.86	-44.3	-47.1	17.3	0.00e+00	0	42	0	1103101952	60	4876
2026-01-17 00:48:30.77	232.21	13.57	-44.5	-47.2	17.1	0.00e+00	0	42	0	1108344832	60	4980
2026-01-17 00:48:33.77	231.98	13.30	-44.6	-47.4	16.9	0.00e+00	0	41	0	1114636288	60	5066
2026-01-17 00:48:36.77	231.75	13.02	-44.5	-47.2	17.0	0.00e+00	0	42	0	1119879168	60	4978
2026-01-17 00:48:39.78	231.52	12.75	-44.7	-47.5	16.8	0.00e+00	0	41	0	1126170624	60	5129
2026-01-17 00:48:42.79	231.30	12.48	-44.8	-47.7	16.6	0.00e+00	0	42	0	1131413504	60	5230
2026-01-17 00:48:45.79	231.08	12.21	-45.1	-48.0	16.2	0.00e+00	0	41	0	1136656384	60	5464
2026-01-17 00:48:48.79	230.87	11.94	-45.2	-48.2	16.1	0.00e+00	0	42	0	1142947840	61	5235
2026-01-17 00:48:51.79	230.66	11.68	-45.2	-48.3	15.9	0.00e+00	0	42	0	1148190720	61	5326
2026-01-17 00:48:54.79	230.46	11.42	-45.3	-48.5	15.8	0.00e+00	0	42	0	1153433600	61	5421
2026-01-17 00:48:57.80	230.25	11.16	-45.4	-48.6	15.7	0.00e+00	0	42	0	1159725056	61	5483
2026-01-17 00:49:00.80	230.06	10.91	-45.7	-49.1	15.2	0.00e+00	0	42	0	1164967936	62	5478
2026-01-17 00:49:03.80	229.86	10.65	-46.0	-49.5	14.8	0.00e+00	0	42	0	1171259392	62	5763
2026-01-17 00:49:06.80	229.67	10.40	-46.3	-50.1	14.1	1.50e-06	0	41	0	1176502272	63	5838
2026-01-17 00:49:09.80	229.48	10.15	-46.5	-50.5	13.8	1.50e-06	0	42	0	1181745152	63	6073
2026-01-17 00:49:12.81	229.30	9.91	-46.2	-50.0	14.2	7.00e-07	0	42	0	1188036608	63	5762
2026-01-17 00:49:15.82	229.12	9.66	-46.0	-49.6	14.6	7.00e-07	0	42	0	1193279488	63	5494
2026-01-17 00:49:18.82	228.94	9.42	-45.7	-49.0	15.1	0.00e+00	0	42	0	1198522368	63	5149
2026-01-17 00:49:21.82	228.76	9.18	-45.4	-48.6	15.5	0.00e+00	0	42	0	1204813824	62	5204
2026-01-17 00:49:24.82	228.59	8.94	-49.9	-62.1	4.6	2.28e-04	0	42	0	1210056704	70	15506
2026-01-17 00:49:27.81	228.42	8.70	-50.6	-66.0	3.8	1.49e+00	0	42	104	1210056704	71	22838
2026-01-17 00:49:30.80	228.26	8.47	-50.8	-66.1	3.8	1.49e+00	0	41	104	1210056704	72	21993
2026-01-17 00:49:33.79	228.09	8.24	-50.9	-66.2	3.8	1.49e+00	0	42	104	1210056704	72	22248
2026-01-17 00:49:36.77	227.93	8.01	-50.7	-66.2	3.8	1.49e+00	0	41	104	1210056704	72	22234
2026-01-17 00:49:39.76	227.77	7.78	-50.9	-66.3	3.8	1.49e+00	0	42	104	1210056704	72	22277
2026-01-17 00:49:42.75	227.62	7.56	-50.9	-66.2	3.8	1.49e+00	0	42	104	1210056704	72	22148
2026-01-17 00:49:45.74	227.47	7.33	-50.6	-66.1	3.8	1.49e+00	0	42	104	1210056704	72	21964
2026-01-17 00:49:48.73	227.32	7.11	-50.6	-66.2	3.8	1.49e+00	0	42	104	1210056704	72	22049
2026-01-17 00:49:51.72	227.17	6.89	-50.6	-66.1	3.8	1.49e+00	0	41	104	1210056704	72	21859
2026-01-17 00:49:54.71	227.02	6.67	-50.5	-66.2	3.8	1.49e+00	0	41	104	1210056704	72	22010
2026-01-17 00:49:57.70	226.88	6.45	-50.5	-66.1	3.8	1.49e+00	0	41	104	1210056704	72	21944
2026-01-17 00:50:00.69	226.74	6.24	-50.5	-66.1	3.8	1.49e+00	0	42	104	1210056704	72	21941
2026-01-17 00:50:03.67	226.60	6.02	-50.5	-66.1	3.8	1.49e+00	0	41	104	1210056704	72	21959
2026-01-17 00:50:06.66	226.46	5.81	-50.5	-66.1	3.8	1.49e+00	0	42	104	1210056704	72	21921
2026-01-17 00:50:09.65	226.33	5.60	-50.5	-66.1	3.8	1.49e+00	0	42	104	1210056704	72	21906
2026-01-17 00:50:12.64	226.20	5.39	-50.5	-66.1	3.8	1.49e+00	0	41	104	1210056704	72	21800
2026-01-17 00:50:15.63	226.06	5.18	-50.5	-66.1	3.8	1.49e+00	0	41	104	1210056704	72	21878
2026-01-17 00:50:18.62	225.94	4.98	-50.5	-66.1	3.8	1.49e+00	0	41	104	1210056704	72	21778

#Closed at: 2026-01-17 00:50:19
#Recorded file [1210 MB]: D:/Data/31040_260117_033757.dat