passes_logs/2026/01/17/T1/T1__20260117_021856_SUOMI_NPP_rec.log

#Pass ID: 20260117_021856_SUOMI NPP
#Satellite: SUOMI NPP
#Configuration: NPP
#almurnet v.1.7.20251203
#Start time: 2026-01-17 02:18:56

#Version: 2.0.20230620
#Station: T1
#Location: 37.570604 lon 55.790049 lat
#TLE: 1 37849U 11061A   26016.23176763  .00000061  00000+0  49926-4 0  9990
#TLE: 2 37849  98.7812 318.2698 0002434  61.5135 298.6286 14.19525545736883

#Time	Az	El	Level	Level2	SNR	BER	BlckErr	Temp	State	Recorded	gain1	gain2
2026-01-17 02:18:56.12	1.44	4.98	-49.8	-65.7	3.8	1.49e+00	0	38	0	0	71	22099
2026-01-17 02:18:58.10	1.22	5.07	-47.9	-65.2	3.8	1.49e+00	0	39	104	0	66	27856
2026-01-17 02:19:00.04	0.99	5.16	-47.9	-65.2	3.8	1.49e+00	0	39	104	0	66	27932
2026-01-17 02:19:02.03	0.76	5.25	-47.9	-65.2	3.8	1.49e+00	0	39	104	0	66	27915
2026-01-17 02:19:04.01	0.53	5.34	-47.9	-65.2	3.8	1.49e+00	0	39	104	0	66	27938
2026-01-17 02:19:06.00	0.29	5.43	-47.9	-65.2	3.8	1.49e+00	0	39	104	0	66	27939
2026-01-17 02:19:07.99	0.06	5.53	-47.9	-65.2	3.8	1.49e+00	0	39	104	0	66	27957
2026-01-17 02:19:09.97	359.82	5.62	-47.9	-65.2	3.8	1.49e+00	0	39	104	0	66	27901
2026-01-17 02:19:11.96	359.58	5.71	-47.9	-65.2	3.8	1.49e+00	0	39	104	0	66	27878
2026-01-17 02:19:13.95	359.34	5.80	-47.9	-65.2	3.8	1.49e+00	0	39	104	0	66	27925
2026-01-17 02:19:15.93	359.10	5.89	-47.9	-65.2	3.8	1.49e+00	0	39	104	0	66	27953
2026-01-17 02:19:17.92	358.86	5.98	-47.9	-65.2	3.8	1.49e+00	0	40	104	0	66	27917
2026-01-17 02:19:19.90	358.61	6.07	-47.9	-65.2	3.8	1.49e+00	0	40	104	0	66	27877
2026-01-17 02:19:21.89	358.37	6.16	-47.9	-65.2	3.8	1.49e+00	0	40	104	0	66	27969
2026-01-17 02:19:23.88	358.12	6.25	-47.9	-65.2	3.8	1.49e+00	0	40	104	0	66	27985
2026-01-17 02:19:25.87	357.87	6.34	-47.8	-65.2	3.8	1.49e+00	0	40	104	0	66	27888
2026-01-17 02:19:27.85	357.62	6.43	-47.8	-65.2	3.8	1.49e+00	0	40	104	0	66	27861
2026-01-17 02:19:29.84	357.36	6.52	-47.8	-65.2	3.8	1.49e+00	0	40	104	0	66	27834
2026-01-17 02:19:31.83	357.11	6.61	-47.8	-65.2	3.8	1.49e+00	0	40	104	0	66	27941
2026-01-17 02:19:33.81	356.85	6.70	-47.8	-65.2	3.8	1.49e+00	0	40	104	0	66	27785
2026-01-17 02:19:35.80	356.60	6.79	-47.8	-65.2	3.8	1.49e+00	0	40	104	0	66	27744
2026-01-17 02:19:37.79	356.34	6.87	-47.8	-65.2	3.8	1.49e+00	0	40	104	0	66	27722
2026-01-17 02:19:39.77	356.08	6.96	-47.8	-65.1	3.8	1.49e+00	0	40	104	0	66	27683
2026-01-17 02:19:41.76	355.81	7.05	-47.8	-65.2	3.8	1.49e+00	0	40	104	0	66	27791
2026-01-17 02:19:43.75	355.55	7.14	-47.8	-65.2	3.8	1.49e+00	0	40	104	0	66	27867
2026-01-17 02:19:45.74	355.28	7.22	-47.8	-65.2	3.8	1.49e+00	0	40	104	0	66	27969
2026-01-17 02:19:47.72	355.02	7.31	-47.8	-65.2	3.8	1.49e+00	0	40	104	0	66	27838
2026-01-17 02:19:49.71	354.75	7.40	-47.8	-65.2	3.8	1.49e+00	0	40	104	0	66	27710
2026-01-17 02:19:51.70	354.48	7.48	-47.8	-65.2	3.8	1.49e+00	0	40	104	0	66	27795
2026-01-17 02:19:53.68	354.21	7.57	-47.8	-65.2	3.8	1.49e+00	0	40	104	0	66	27764
2026-01-17 02:19:55.67	353.93	7.66	-47.8	-65.2	3.8	1.49e+00	0	40	104	0	66	27823
2026-01-17 02:19:57.66	353.66	7.74	-47.8	-65.2	3.8	1.49e+00	0	41	104	0	66	27907
2026-01-17 02:19:59.65	353.38	7.83	-47.8	-65.2	3.8	1.49e+00	0	40	104	0	66	27811
2026-01-17 02:20:01.63	353.10	7.91	-47.8	-65.2	3.8	1.49e+00	0	40	104	0	66	27754
2026-01-17 02:20:03.62	352.82	8.00	-47.8	-65.1	3.8	1.49e+00	0	41	104	0	66	27699
2026-01-17 02:20:05.61	352.54	8.08	-47.8	-65.2	3.8	1.49e+00	0	40	104	0	66	27859
2026-01-17 02:20:07.59	352.25	8.16	-47.8	-65.2	3.8	1.49e+00	0	40	104	0	66	27884
2026-01-17 02:20:09.58	351.97	8.25	-47.8	-65.2	3.8	1.49e+00	0	40	104	0	66	27783
2026-01-17 02:20:11.57	351.68	8.33	-47.8	-65.2	3.8	1.49e+00	0	41	104	0	66	27725
2026-01-17 02:20:13.56	351.39	8.41	-47.8	-64.5	3.8	1.49e+00	0	40	104	0	66	25668
2026-01-17 02:20:15.54	351.10	8.49	-47.8	-63.8	3.8	1.49e+00	0	41	104	0	66	23597
2026-01-17 02:20:17.53	350.81	8.58	-47.7	-63.2	3.9	1.49e+00	0	41	104	0	66	22044
2026-01-17 02:20:19.52	350.52	8.66	-47.7	-62.7	3.8	1.49e+00	0	41	104	0	66	20913
2026-01-17 02:20:21.50	350.22	8.74	-47.7	-62.0	4.1	1.44e+00	0	41	0	0	66	19290
2026-01-17 02:20:23.49	349.92	8.82	-47.6	-60.7	4.5	1.16e+00	0	41	0	1048576	66	16624
2026-01-17 02:20:25.48	349.62	8.90	-47.2	-57.2	6.6	3.31e-01	0	41	0	4194304	66	11153
2026-01-17 02:20:27.46	349.32	8.98	-46.1	-52.5	11.3	2.42e-03	0	41	0	8388608	64	7215
2026-01-17 02:20:29.45	349.02	9.06	-44.6	-49.0	15.0	0.00e+00	0	41	0	11534336	61	5752
2026-01-17 02:20:31.49	348.71	9.14	-44.6	-49.1	14.6	1.55e-03	0	41	0	15728640	61	5822
2026-01-17 02:20:33.49	348.40	9.21	-43.7	-47.3	16.2	1.28e-03	0	41	0	18874368	59	5290
2026-01-17 02:20:35.48	348.09	9.29	-43.3	-46.8	17.0	0.00e+00	0	41	0	23068672	58	5308
2026-01-17 02:20:37.47	347.78	9.37	-43.3	-46.9	16.9	0.00e+00	0	41	0	26214400	58	5383
2026-01-17 02:20:39.49	347.47	9.44	-42.7	-46.3	17.3	0.00e+00	0	41	0	30408704	57	5332
2026-01-17 02:20:41.51	347.15	9.52	-42.6	-46.5	17.3	0.00e+00	0	41	0	34603008	57	5408
2026-01-17 02:20:43.58	346.82	9.60	-42.6	-46.4	17.4	0.00e+00	0	41	0	37748736	57	5364
2026-01-17 02:20:45.61	346.50	9.67	-42.8	-46.6	17.1	0.00e+00	0	41	0	41943040	57	5508
2026-01-17 02:20:47.81	346.15	9.76	-42.4	-46.2	17.5	0.00e+00	0	41	0	46137344	56	5558
2026-01-17 02:20:49.81	345.83	9.83	-42.3	-46.0	17.7	0.00e+00	0	41	0	50331648	56	5447
2026-01-17 02:20:51.80	345.51	9.90	-42.6	-46.5	17.2	0.00e+00	0	41	0	53477376	56	5767
2026-01-17 02:20:53.79	345.18	9.97	-43.3	-47.2	16.6	0.00e+00	0	41	0	57671680	57	5916
2026-01-17 02:20:55.79	344.86	10.04	-43.5	-47.8	16.0	0.00e+00	0	41	0	60817408	57	6299
2026-01-17 02:20:57.87	344.52	10.12	-43.3	-47.7	16.1	0.00e+00	0	41	0	65011712	57	6257
2026-01-17 02:20:59.86	344.19	10.19	-43.2	-47.4	16.4	0.00e+00	0	41	0	69206016	57	6039
2026-01-17 02:21:01.85	343.86	10.26	-43.2	-47.0	16.8	0.00e+00	0	41	0	72351744	57	5724
2026-01-17 02:21:04.07	343.49	10.33	-43.0	-46.6	17.2	0.00e+00	0	41	0	76546048	57	5491
2026-01-17 02:21:06.06	343.16	10.40	-43.3	-46.8	17.0	0.00e+00	0	41	0	80740352	57	5610
2026-01-17 02:21:08.05	342.82	10.47	-43.2	-46.6	17.1	0.00e+00	0	41	0	83886080	57	5528
2026-01-17 02:21:10.06	342.49	10.53	-43.3	-46.6	17.2	0.00e+00	0	41	0	88080384	57	5490
2026-01-17 02:21:12.33	342.10	10.61	-43.5	-46.9	17.0	0.00e+00	0	41	0	92274688	57	5661
2026-01-17 02:21:14.32	341.76	10.67	-43.7	-47.1	16.7	0.00e+00	0	41	0	95420416	58	5507
2026-01-17 02:21:16.31	341.42	10.73	-43.7	-46.9	16.9	0.00e+00	0	41	0	99614720	58	5370
2026-01-17 02:21:18.63	341.02	10.81	-43.3	-46.4	17.4	0.00e+00	0	41	0	103809024	58	5042
2026-01-17 02:21:20.78	340.65	10.87	-43.4	-46.4	17.4	0.00e+00	0	41	0	108003328	58	5049
2026-01-17 02:21:22.77	340.30	10.93	-43.8	-46.8	17.1	0.00e+00	0	41	0	111149056	58	5306
2026-01-17 02:21:24.76	339.96	10.99	-44.2	-47.5	16.3	0.00e+00	0	41	0	115343360	59	5419
2026-01-17 02:21:26.76	339.61	11.05	-44.1	-47.5	16.4	0.00e+00	0	41	0	119537664	59	5410
2026-01-17 02:21:28.75	339.26	11.11	-43.7	-47.1	16.7	0.00e+00	0	41	0	122683392	59	5208
2026-01-17 02:21:30.74	338.91	11.17	-43.9	-47.1	16.8	0.00e+00	0	41	0	126877696	59	5181
2026-01-17 02:21:32.75	338.55	11.22	-43.8	-46.9	17.0	0.00e+00	0	41	0	130023424	59	5051
2026-01-17 02:21:34.74	338.20	11.28	-44.3	-47.6	16.3	0.00e+00	0	41	0	134217728	59	5497
2026-01-17 02:21:36.74	337.84	11.33	-44.6	-48.4	15.6	0.00e+00	0	41	0	137363456	59	6006
2026-01-17 02:21:38.75	337.48	11.39	-44.3	-48.2	15.8	0.00e+00	0	41	0	141557760	60	5538
2026-01-17 02:21:40.77	337.12	11.44	-44.2	-47.8	16.1	0.00e+00	0	41	0	145752064	60	5323
2026-01-17 02:21:42.76	336.76	11.49	-43.8	-47.1	16.8	0.00e+00	0	41	0	148897792	59	5167
2026-01-17 02:21:44.75	336.40	11.54	-43.6	-46.8	17.0	0.00e+00	0	41	0	153092096	59	5030
2026-01-17 02:21:46.74	336.04	11.59	-43.4	-46.5	17.3	0.00e+00	0	41	0	156237824	58	5128
2026-01-17 02:21:48.74	335.67	11.64	-43.2	-46.1	17.7	0.00e+00	0	41	0	160432128	58	4897
2026-01-17 02:21:50.74	335.31	11.68	-43.2	-45.9	17.9	0.00e+00	0	41	0	164626432	58	4768
2026-01-17 02:21:52.70	334.95	11.73	-43.3	-46.0	17.9	0.00e+00	0	41	0	167772160	58	4834
2026-01-17 02:21:54.69	334.58	11.78	-43.3	-46.0	17.8	0.00e+00	0	41	0	171966464	58	4860
2026-01-17 02:21:56.68	334.21	11.82	-43.4	-46.2	17.6	0.00e+00	0	41	0	175112192	58	4958
2026-01-17 02:21:58.81	333.82	11.86	-43.5	-46.2	17.6	0.00e+00	0	41	0	179306496	58	4962
2026-01-17 02:22:00.80	333.45	11.91	-43.4	-46.1	17.7	0.00e+00	0	41	0	182452224	58	4919
2026-01-17 02:22:02.80	333.07	11.95	-43.6	-46.3	17.5	0.00e+00	0	41	0	186646528	58	5041
2026-01-17 02:22:04.79	332.70	11.99	-44.0	-47.0	16.9	0.00e+00	0	41	0	190840832	58	5434
2026-01-17 02:22:06.78	332.33	12.03	-44.2	-47.3	16.6	0.00e+00	0	41	0	193986560	59	5336
2026-01-17 02:22:08.77	331.96	12.06	-44.5	-47.7	16.2	0.00e+00	0	41	0	198180864	59	5577
2026-01-17 02:22:10.83	331.57	12.10	-44.7	-47.9	16.1	0.00e+00	0	41	0	201326592	60	5378
2026-01-17 02:22:12.98	331.16	12.14	-44.4	-47.5	16.4	0.00e+00	0	41	0	205520896	60	5153
2026-01-17 02:22:15.08	330.76	12.17	-44.3	-47.4	16.6	0.00e+00	0	41	0	209715200	60	5055
2026-01-17 02:22:17.07	330.39	12.21	-44.4	-47.6	16.4	0.00e+00	0	41	0	213909504	60	5183
2026-01-17 02:22:19.06	330.01	12.24	-44.7	-47.9	16.1	0.00e+00	0	41	0	217055232	60	5377
2026-01-17 02:22:21.28	329.58	12.27	-44.6	-47.7	16.2	0.00e+00	0	41	0	221249536	60	5272
2026-01-17 02:22:23.27	329.20	12.30	-44.2	-47.2	16.8	0.00e+00	0	41	0	225443840	60	4942
2026-01-17 02:22:25.26	328.82	12.33	-43.8	-46.7	17.2	0.00e+00	0	41	0	228589568	59	4932
2026-01-17 02:22:27.25	328.44	12.35	-43.7	-46.5	17.3	0.00e+00	0	41	0	232783872	59	4862
2026-01-17 02:22:29.27	328.05	12.38	-43.9	-46.8	17.1	0.00e+00	0	41	0	235929600	59	5018
2026-01-17 02:22:31.28	327.67	12.40	-43.9	-46.9	17.0	0.00e+00	0	41	0	240123904	59	5056
2026-01-17 02:22:33.61	327.22	12.43	-43.9	-47.0	16.9	0.00e+00	0	41	0	244318208	59	5112
2026-01-17 02:22:35.58	326.84	12.45	-43.9	-47.1	16.8	0.00e+00	0	41	0	248512512	59	5188
2026-01-17 02:22:37.56	326.45	12.47	-43.7	-46.8	17.0	0.00e+00	0	41	0	251658240	59	5040
2026-01-17 02:22:39.55	326.07	12.49	-43.5	-46.6	17.3	0.00e+00	0	41	0	255852544	59	4873
2026-01-17 02:22:41.54	325.68	12.51	-43.5	-46.5	17.4	0.00e+00	0	41	0	258998272	58	5131
2026-01-17 02:22:43.53	325.29	12.52	-43.5	-46.5	17.3	0.00e+00	0	41	0	263192576	58	5156
2026-01-17 02:22:45.52	324.91	12.54	-43.5	-46.6	17.3	0.00e+00	0	41	0	266338304	58	5172
2026-01-17 02:22:47.51	324.52	12.55	-43.6	-46.7	17.2	0.00e+00	0	41	0	270532608	58	5240
2026-01-17 02:22:49.50	324.13	12.56	-43.7	-46.8	17.1	0.00e+00	0	41	0	274726912	58	5310
2026-01-17 02:22:51.49	323.75	12.57	-43.8	-46.9	17.1	0.00e+00	0	41	0	277872640	58	5345
2026-01-17 02:22:53.48	323.36	12.58	-44.0	-46.9	17.0	0.00e+00	0	41	0	282066944	58	5399
2026-01-17 02:22:55.48	322.97	12.59	-44.0	-46.8	17.2	0.00e+00	0	41	0	285212672	58	5305
2026-01-17 02:22:57.46	322.58	12.60	-43.9	-46.7	17.2	0.00e+00	0	41	0	289406976	58	5243
2026-01-17 02:22:59.45	322.19	12.61	-43.7	-46.5	17.3	0.00e+00	0	41	0	292552704	58	5150
2026-01-17 02:23:01.44	321.80	12.61	-43.5	-46.4	17.4	0.00e+00	0	42	0	296747008	58	5072
2026-01-17 02:23:03.43	321.41	12.61	-43.3	-46.0	17.8	0.00e+00	0	41	0	300941312	58	4852
2026-01-17 02:23:05.42	321.02	12.62	-43.1	-45.8	18.0	0.00e+00	0	41	0	304087040	58	4736
2026-01-17 02:23:07.41	320.63	12.62	-43.3	-46.1	17.8	0.00e+00	0	41	0	308281344	58	4896
2026-01-17 02:23:09.40	320.25	12.62	-43.6	-46.5	17.4	0.00e+00	0	41	0	311427072	58	5117
2026-01-17 02:23:11.47	319.84	12.61	-43.8	-46.8	17.2	0.00e+00	0	42	0	315621376	58	5322
2026-01-17 02:23:13.46	319.45	12.61	-43.9	-46.9	17.0	0.00e+00	0	41	0	318767104	58	5366
2026-01-17 02:23:15.45	319.06	12.61	-43.7	-46.5	17.3	0.00e+00	0	41	0	322961408	58	5145
2026-01-17 02:23:17.44	318.67	12.60	-43.6	-46.3	17.5	0.00e+00	0	41	0	327155712	58	5037
2026-01-17 02:23:19.43	318.28	12.59	-43.5	-46.2	17.6	0.00e+00	0	42	0	330301440	58	4943
2026-01-17 02:23:21.42	317.90	12.59	-43.6	-46.4	17.5	0.00e+00	0	41	0	334495744	58	5053
2026-01-17 02:23:23.40	317.51	12.58	-43.9	-46.8	17.1	0.00e+00	0	41	0	337641472	58	5290
2026-01-17 02:23:25.39	317.12	12.57	-43.9	-46.8	17.1	0.00e+00	0	42	0	341835776	58	5282
2026-01-17 02:23:27.46	316.72	12.55	-44.0	-46.9	17.0	0.00e+00	0	42	0	344981504	58	5393
2026-01-17 02:23:29.45	316.33	12.54	-44.1	-47.1	16.8	0.00e+00	0	41	0	349175808	58	5525
2026-01-17 02:23:31.44	315.94	12.52	-44.2	-47.3	16.6	0.00e+00	0	41	0	353370112	59	5329
2026-01-17 02:23:33.43	315.56	12.51	-44.3	-47.5	16.4	0.00e+00	0	41	0	356515840	59	5430
2026-01-17 02:23:35.42	315.17	12.49	-44.3	-47.4	16.5	0.00e+00	0	41	0	360710144	59	5361
2026-01-17 02:23:37.41	314.78	12.47	-44.1	-47.1	16.8	0.00e+00	0	41	0	363855872	59	5173
2026-01-17 02:23:39.40	314.40	12.45	-43.7	-46.5	17.3	0.00e+00	0	42	0	368050176	59	4862
2026-01-17 02:23:41.39	314.01	12.43	-43.5	-46.4	17.5	0.00e+00	0	42	0	371195904	58	5047
2026-01-17 02:23:43.43	313.62	12.41	-43.5	-46.3	17.5	0.00e+00	0	41	0	375390208	58	5025
2026-01-17 02:23:45.41	313.24	12.39	-43.9	-46.8	17.0	0.00e+00	0	41	0	379584512	58	5331
2026-01-17 02:23:47.49	312.84	12.36	-44.1	-47.1	16.8	0.00e+00	0	42	0	382730240	58	5498
2026-01-17 02:23:49.49	312.45	12.33	-44.1	-47.1	16.8	0.00e+00	0	41	0	386924544	58	5503
2026-01-17 02:23:51.48	312.07	12.31	-44.2	-47.3	16.6	0.00e+00	0	41	0	390070272	59	5290
2026-01-17 02:23:53.47	311.69	12.28	-44.3	-47.4	16.6	0.00e+00	0	41	0	394264576	59	5358
2026-01-17 02:23:55.46	311.31	12.25	-44.2	-47.3	16.6	0.00e+00	0	42	0	398458880	59	5281
2026-01-17 02:23:57.45	310.93	12.22	-44.5	-47.6	16.3	0.00e+00	0	42	0	401604608	59	5527
2026-01-17 02:23:59.43	310.55	12.19	-44.4	-47.5	16.4	0.00e+00	0	41	0	405798912	59	5463
2026-01-17 02:24:01.48	310.17	12.15	-44.4	-47.5	16.5	0.00e+00	0	42	0	408944640	59	5404
2026-01-17 02:24:03.53	309.78	12.12	-44.2	-47.1	16.8	0.00e+00	0	42	0	413138944	59	5201
2026-01-17 02:24:05.53	309.40	12.08	-44.0	-46.9	16.9	0.00e+00	0	42	0	416284672	59	5099
2026-01-17 02:24:07.55	309.02	12.04	-44.0	-46.9	16.9	0.00e+00	0	41	0	420478976	59	5093
2026-01-17 02:24:09.54	308.65	12.00	-44.4	-47.4	16.6	0.00e+00	0	42	0	424673280	59	5356
2026-01-17 02:24:11.69	308.24	11.96	-44.4	-47.4	16.6	0.00e+00	0	42	0	428867584	59	5349
2026-01-17 02:24:13.71	307.86	11.92	-44.5	-47.5	16.4	0.00e+00	0	41	0	432013312	59	5423
2026-01-17 02:24:15.81	307.47	11.88	-44.4	-47.3	16.6	0.00e+00	0	42	0	436207616	59	5336
2026-01-17 02:24:17.83	307.10	11.83	-44.4	-47.3	16.6	0.00e+00	0	42	0	440401920	59	5301
2026-01-17 02:24:19.84	306.73	11.79	-44.2	-47.1	16.8	0.00e+00	0	41	0	443547648	59	5176
2026-01-17 02:24:21.84	306.36	11.75	-44.2	-47.1	16.8	0.00e+00	0	42	0	447741952	59	5181
2026-01-17 02:24:23.84	305.99	11.70	-44.3	-47.3	16.6	0.00e+00	0	42	0	450887680	59	5311
2026-01-17 02:24:25.85	305.62	11.65	-44.8	-47.9	16.1	0.00e+00	0	42	0	455081984	60	5386
2026-01-17 02:24:27.87	305.25	11.60	-44.7	-47.9	16.1	0.00e+00	0	42	0	458227712	60	5349
2026-01-17 02:24:30.10	304.84	11.55	-44.4	-47.3	16.6	0.00e+00	0	42	0	462422016	60	5033
2026-01-17 02:24:32.09	304.48	11.50	-44.3	-47.3	16.6	0.00e+00	0	42	0	466616320	60	5004
2026-01-17 02:24:34.08	304.12	11.45	-44.4	-47.3	16.6	0.00e+00	0	42	0	470810624	60	5039
2026-01-17 02:24:36.07	303.76	11.40	-44.6	-47.7	16.3	0.00e+00	0	42	0	473956352	60	5238
2026-01-17 02:24:38.08	303.40	11.34	-44.8	-48.0	16.0	0.00e+00	0	42	0	478150656	60	5431
2026-01-17 02:24:40.15	303.03	11.29	-44.8	-48.1	15.9	0.00e+00	0	42	0	481296384	60	5467
2026-01-17 02:24:42.34	302.64	11.23	-44.7	-48.0	16.0	0.00e+00	0	42	0	485490688	60	5414
2026-01-17 02:24:44.34	302.28	11.17	-44.7	-47.8	16.1	0.00e+00	0	42	0	489684992	60	5308
2026-01-17 02:24:46.34	301.93	11.11	-44.6	-47.7	16.2	0.00e+00	0	42	0	493879296	60	5251
2026-01-17 02:24:48.33	301.58	11.05	-44.5	-47.5	16.4	0.00e+00	0	41	0	497025024	60	5153
2026-01-17 02:24:50.32	301.23	11.00	-44.4	-47.4	16.6	0.00e+00	0	41	0	501219328	60	5049
2026-01-17 02:24:52.34	300.88	10.93	-44.3	-47.3	16.6	0.00e+00	0	42	0	504365056	60	4987
2026-01-17 02:24:54.33	300.53	10.87	-44.3	-47.2	16.6	0.00e+00	0	42	0	508559360	60	4964
2026-01-17 02:24:56.34	300.18	10.81	-44.3	-47.3	16.6	0.00e+00	0	42	0	511705088	60	4986
2026-01-17 02:24:58.35	299.84	10.75	-44.2	-47.1	16.8	0.00e+00	0	41	0	515899392	60	4909
2026-01-17 02:25:00.36	299.49	10.69	-44.4	-47.3	16.6	0.00e+00	0	42	0	520093696	60	5038
2026-01-17 02:25:02.35	299.15	10.62	-44.4	-47.5	16.5	0.00e+00	0	42	0	523239424	60	5109
2026-01-17 02:25:04.35	298.81	10.56	-44.6	-47.6	16.3	0.00e+00	0	42	0	527433728	60	5209
2026-01-17 02:25:06.67	298.42	10.48	-44.5	-47.6	16.3	0.00e+00	0	42	0	531628032	60	5165
2026-01-17 02:25:09.01	298.02	10.40	-44.5	-47.5	16.4	0.00e+00	0	42	0	535822336	60	5102
2026-01-17 02:25:11.28	297.64	10.33	-44.2	-47.2	16.7	0.00e+00	0	42	0	540016640	60	4945
2026-01-17 02:25:13.55	297.26	10.25	-44.5	-47.5	16.4	0.00e+00	0	42	0	544210944	60	5125
2026-01-17 02:25:15.87	296.88	10.17	-44.5	-47.5	16.4	0.00e+00	0	42	0	548405248	60	5148
2026-01-17 02:25:18.15	296.50	10.09	-44.7	-47.8	16.1	0.00e+00	0	42	0	552599552	60	5291
2026-01-17 02:25:20.42	296.13	10.01	-44.8	-47.9	16.0	0.00e+00	0	42	0	556793856	60	5391
2026-01-17 02:25:22.69	295.76	9.93	-44.7	-47.9	16.0	0.00e+00	0	42	0	562036736	60	5357
2026-01-17 02:25:24.95	295.39	9.84	-44.7	-47.9	16.0	0.00e+00	0	42	0	566231040	60	5372
2026-01-17 02:25:27.10	295.05	9.77	-44.7	-48.0	15.9	0.00e+00	0	42	0	569376768	60	5404
2026-01-17 02:25:29.22	294.70	9.69	-44.8	-48.0	15.9	0.00e+00	0	42	0	573571072	60	5437
2026-01-17 02:25:31.21	294.39	9.61	-44.8	-48.0	15.9	0.00e+00	0	42	0	577765376	60	5442
2026-01-17 02:25:33.21	294.07	9.54	-45.0	-48.3	15.6	0.00e+00	0	42	0	580911104	60	5624
2026-01-17 02:25:35.23	293.75	9.46	-44.9	-48.1	15.9	0.00e+00	0	42	0	585105408	60	5473
2026-01-17 02:25:37.24	293.43	9.38	-44.9	-48.1	15.9	0.00e+00	0	42	0	589299712	60	5470
2026-01-17 02:25:39.23	293.12	9.31	-44.7	-47.9	16.0	0.00e+00	0	42	0	592445440	60	5355
2026-01-17 02:25:41.23	292.81	9.23	-45.0	-48.3	15.5	0.00e+00	0	42	0	596639744	60	5652
2026-01-17 02:25:43.24	292.50	9.15	-45.1	-48.4	15.5	0.00e+00	0	42	0	599785472	60	5680
2026-01-17 02:25:45.23	292.20	9.07	-45.5	-49.1	14.8	0.00e+00	0	42	0	603979776	61	5816
2026-01-17 02:25:47.23	291.89	8.99	-45.6	-49.2	14.7	0.00e+00	0	41	0	607125504	61	5857
2026-01-17 02:25:49.22	291.59	8.92	-50.4	-65.6	3.8	1.49e+00	0	42	104	609222656	71	21946
2026-01-17 02:25:51.21	291.29	8.84	-50.5	-65.8	3.8	1.49e+00	0	42	104	609222656	71	22423
2026-01-17 02:25:53.21	290.99	8.75	-50.7	-65.9	3.8	1.49e+00	0	42	104	609222656	71	22627
2026-01-17 02:25:55.19	290.69	8.67	-50.4	-65.9	3.8	1.49e+00	0	42	104	609222656	72	21457
2026-01-17 02:25:57.20	290.39	8.59	-50.7	-66.0	3.8	1.49e+00	0	42	104	609222656	72	21521
2026-01-17 02:25:59.18	290.10	8.51	-50.7	-66.0	3.8	1.49e+00	0	42	104	609222656	72	21535
2026-01-17 02:26:01.17	289.80	8.43	-50.7	-66.0	3.8	1.49e+00	0	42	104	609222656	72	21611
2026-01-17 02:26:03.16	289.51	8.35	-50.7	-66.0	3.8	1.49e+00	0	42	104	609222656	72	21624
2026-01-17 02:26:05.14	289.23	8.26	-50.7	-66.0	3.8	1.49e+00	0	42	104	609222656	72	21729
2026-01-17 02:26:07.13	288.94	8.18	-50.6	-66.0	3.8	1.49e+00	0	42	104	609222656	72	21728
2026-01-17 02:26:09.12	288.65	8.10	-50.4	-65.9	3.8	1.49e+00	0	42	104	609222656	72	21491
2026-01-17 02:26:11.10	288.37	8.01	-50.4	-65.9	3.8	1.49e+00	0	42	104	609222656	72	21461
2026-01-17 02:26:13.09	288.09	7.93	-50.4	-65.9	3.8	1.49e+00	0	42	104	609222656	72	21378
2026-01-17 02:26:15.09	287.80	7.84	-50.3	-65.9	3.8	1.49e+00	0	42	104	609222656	72	21364
2026-01-17 02:26:17.08	287.52	7.76	-50.4	-65.9	3.8	1.49e+00	0	42	104	609222656	72	21441
2026-01-17 02:26:19.06	287.25	7.67	-50.3	-65.9	3.8	1.49e+00	0	42	104	609222656	72	21408
2026-01-17 02:26:21.06	286.97	7.59	-50.3	-65.9	3.8	1.49e+00	0	42	104	609222656	72	21424
2026-01-17 02:26:23.07	286.69	7.50	-50.3	-65.9	3.8	1.49e+00	0	42	104	609222656	72	21404
2026-01-17 02:26:25.05	286.42	7.41	-50.3	-65.9	3.8	1.49e+00	0	42	104	609222656	72	21362
2026-01-17 02:26:27.07	286.15	7.32	-50.3	-65.9	3.8	1.49e+00	0	42	104	609222656	72	21444
2026-01-17 02:26:29.05	285.88	7.24	-50.3	-65.9	3.8	1.49e+00	0	42	104	609222656	72	21349
2026-01-17 02:26:31.04	285.61	7.15	-50.3	-65.9	3.8	1.49e+00	0	42	104	609222656	72	21410
2026-01-17 02:26:33.04	285.34	7.06	-50.3	-65.9	3.8	1.49e+00	0	42	104	609222656	72	21318
2026-01-17 02:26:35.03	285.08	6.97	-50.3	-65.9	3.8	1.49e+00	0	42	104	609222656	72	21375
2026-01-17 02:26:37.01	284.82	6.89	-50.3	-65.9	3.8	1.49e+00	0	42	104	609222656	72	21343
2026-01-17 02:26:39.03	284.55	6.80	-50.3	-65.9	3.8	1.49e+00	0	42	104	609222656	72	21275
2026-01-17 02:26:41.02	284.29	6.71	-50.3	-65.9	3.8	1.49e+00	0	42	104	609222656	72	21413
2026-01-17 02:26:43.01	284.03	6.62	-50.3	-65.9	3.8	1.49e+00	0	42	104	609222656	72	21329
2026-01-17 02:26:44.99	283.78	6.53	-50.3	-65.9	3.8	1.49e+00	0	42	104	609222656	72	21401
2026-01-17 02:26:46.98	283.52	6.44	-50.3	-65.9	3.8	1.49e+00	0	42	104	609222656	72	21455
2026-01-17 02:26:48.97	283.27	6.35	-50.3	-65.9	3.8	1.49e+00	0	42	104	609222656	72	21376
2026-01-17 02:26:50.95	283.02	6.26	-50.3	-65.9	3.8	1.49e+00	0	42	104	609222656	72	21291
2026-01-17 02:26:52.94	282.77	6.17	-50.3	-65.9	3.8	1.49e+00	0	42	104	609222656	72	21344
2026-01-17 02:26:54.93	282.52	6.08	-50.3	-65.9	3.8	1.49e+00	0	42	104	609222656	72	21301
2026-01-17 02:26:56.91	282.28	5.99	-50.3	-65.9	3.8	1.49e+00	0	42	104	609222656	72	21354
2026-01-17 02:26:58.90	282.03	5.90	-50.3	-65.8	3.8	1.49e+00	0	42	104	609222656	72	21203
2026-01-17 02:27:00.89	281.79	5.81	-50.3	-65.8	3.8	1.49e+00	0	42	104	609222656	72	21169
2026-01-17 02:27:02.88	281.54	5.72	-50.3	-65.8	3.8	1.49e+00	0	42	104	609222656	72	21258
2026-01-17 02:27:04.88	281.30	5.63	-50.3	-65.9	3.8	1.49e+00	0	42	104	609222656	72	21268
2026-01-17 02:27:06.87	281.06	5.53	-50.3	-65.8	3.8	1.49e+00	0	42	104	609222656	72	21209
2026-01-17 02:27:08.87	280.82	5.44	-50.3	-65.9	3.8	1.49e+00	0	42	104	609222656	72	21262
2026-01-17 02:27:10.85	280.59	5.35	-50.3	-65.9	3.8	1.49e+00	0	42	104	609222656	72	21290
2026-01-17 02:27:12.84	280.35	5.26	-50.3	-65.9	3.8	1.49e+00	0	42	104	609222656	72	21348
2026-01-17 02:27:14.84	280.12	5.17	-50.3	-65.8	3.8	1.49e+00	0	42	104	609222656	72	21241
2026-01-17 02:27:16.84	279.89	5.07	-50.3	-65.9	3.8	1.49e+00	0	42	104	609222656	72	21326
2026-01-17 02:27:18.83	279.66	4.98	-50.3	-65.9	3.8	1.49e+00	0	42	104	609222656	72	21326

#Closed at: 2026-01-17 02:27:19
#Recorded file [609 MB]: D:/Data/31040_260117_051856.dat