passes_logs/2026/01/17/T1/T1__20260117_163609_FENGYUN_3E_rec.log

#Pass ID: 20260117_163609_FENGYUN 3E
#Satellite: FENGYUN 3E
#Configuration: FENGYUN 3E
#almurnet v.1.7.20251203
#Start time: 2026-01-17 16:36:08

#Version: 2.0.20230620
#Station: T1
#Location: 37.570604 lon 55.790049 lat
#TLE: 1 49008U 21062A   26016.55599566  .00000255  00000+0  14071-3 0  9994
#TLE: 2 49008  98.7485  21.6664 0002094 134.5344 225.6004 14.19886148235063

#Time	Az	El	Level	Level2	SNR	BER	BlckErr	Temp	State	Recorded	gain1	gain2
2026-01-17 16:36:08.90	245.62	4.98	-48.4	-59.4	3.8	8.47e-01	0	38	0	0	67	12657
2026-01-17 16:36:10.88	245.88	5.06	-48.4	-59.4	3.8	8.46e-01	0	38	104	0	67	12539
2026-01-17 16:36:12.87	246.14	5.13	-48.3	-59.5	3.8	8.47e-01	0	38	104	0	67	12684
2026-01-17 16:36:14.85	246.39	5.21	-48.3	-59.4	3.8	8.47e-01	0	38	104	0	67	12602
2026-01-17 16:36:16.84	246.65	5.28	-48.4	-59.4	3.8	8.48e-01	0	38	104	0	67	12544
2026-01-17 16:36:18.83	246.92	5.36	-48.3	-59.4	3.8	8.47e-01	0	38	104	0	67	12612
2026-01-17 16:36:20.81	247.18	5.43	-48.3	-59.4	3.8	8.47e-01	0	38	104	0	67	12529
2026-01-17 16:36:22.80	247.44	5.50	-48.3	-59.4	3.8	8.47e-01	0	39	104	0	67	12633
2026-01-17 16:36:24.79	247.71	5.58	-48.3	-59.4	3.8	8.47e-01	0	39	104	0	67	12594
2026-01-17 16:36:26.77	247.98	5.65	-48.3	-59.4	3.8	8.48e-01	0	39	104	0	67	12610
2026-01-17 16:36:28.76	248.25	5.72	-48.3	-59.4	3.8	8.47e-01	0	39	104	0	67	12528
2026-01-17 16:36:30.74	248.51	5.79	-48.3	-59.4	3.8	8.47e-01	0	39	104	0	67	12530
2026-01-17 16:36:32.73	248.79	5.87	-48.3	-59.4	3.8	8.46e-01	0	39	104	0	67	12533
2026-01-17 16:36:34.72	249.06	5.94	-48.3	-59.3	3.8	8.47e-01	0	39	104	0	67	12475
2026-01-17 16:36:36.71	249.33	6.01	-48.3	-59.3	3.8	8.47e-01	0	39	104	0	67	12428
2026-01-17 16:36:38.69	249.61	6.08	-48.3	-59.3	3.8	8.48e-01	0	39	104	0	67	12500
2026-01-17 16:36:40.68	249.88	6.15	-48.3	-59.4	3.8	8.46e-01	0	39	104	0	67	12538
2026-01-17 16:36:42.67	250.16	6.22	-48.3	-59.3	3.8	8.47e-01	0	39	104	0	67	12470
2026-01-17 16:36:44.65	250.44	6.29	-48.3	-59.3	3.8	8.47e-01	0	39	104	0	67	12450
2026-01-17 16:36:46.64	250.72	6.36	-48.3	-59.3	3.8	8.47e-01	0	39	104	0	67	12437
2026-01-17 16:36:48.63	251.00	6.43	-48.3	-59.3	3.8	8.46e-01	0	39	104	0	67	12433
2026-01-17 16:36:50.61	251.28	6.49	-48.3	-59.3	3.8	8.46e-01	0	39	104	0	67	12438
2026-01-17 16:36:52.60	251.57	6.56	-48.3	-59.4	3.8	8.47e-01	0	39	104	0	67	12531
2026-01-17 16:36:54.59	251.85	6.63	-48.3	-59.3	3.8	8.46e-01	0	40	104	0	67	12486
2026-01-17 16:36:56.57	252.14	6.70	-48.3	-59.3	3.8	8.47e-01	0	40	104	0	67	12516
2026-01-17 16:36:58.56	252.43	6.76	-48.3	-59.4	3.8	8.47e-01	0	40	104	0	67	12530
2026-01-17 16:37:00.55	252.72	6.83	-48.3	-59.4	3.8	8.45e-01	0	40	104	0	67	12533
2026-01-17 16:37:02.54	253.01	6.90	-48.3	-59.4	3.8	8.47e-01	0	40	104	0	67	12539
2026-01-17 16:37:04.52	253.30	6.96	-48.3	-59.3	3.8	8.46e-01	0	40	104	0	67	12513
2026-01-17 16:37:06.51	253.59	7.03	-48.3	-59.3	3.8	8.48e-01	0	40	104	0	67	12450
2026-01-17 16:37:08.49	253.88	7.09	-48.3	-59.3	3.8	8.47e-01	0	40	104	0	67	12474
2026-01-17 16:37:10.48	254.18	7.16	-48.3	-59.4	3.8	8.46e-01	0	40	104	0	67	12532
2026-01-17 16:37:12.47	254.48	7.22	-48.3	-59.3	3.8	8.47e-01	0	40	104	0	67	12454
2026-01-17 16:37:14.45	254.77	7.28	-48.3	-59.3	3.8	8.46e-01	0	40	104	0	67	12405
2026-01-17 16:37:16.44	255.07	7.34	-48.3	-59.3	3.8	8.46e-01	0	40	104	0	67	12491
2026-01-17 16:37:18.43	255.37	7.41	-48.3	-59.3	3.8	8.47e-01	0	40	104	0	67	12435
2026-01-17 16:37:20.42	255.67	7.47	-48.3	-59.3	3.8	8.47e-01	0	40	104	0	67	12446
2026-01-17 16:37:22.40	255.98	7.53	-48.3	-59.4	3.8	8.47e-01	0	40	104	0	67	12575
2026-01-17 16:37:24.39	256.28	7.59	-48.3	-59.3	3.8	8.48e-01	0	40	104	0	67	12466
2026-01-17 16:37:26.37	256.58	7.65	-48.3	-59.3	3.8	8.47e-01	0	40	104	0	67	12444
2026-01-17 16:37:28.36	256.89	7.71	-48.3	-59.3	3.8	8.47e-01	0	40	104	0	67	12481
2026-01-17 16:37:30.34	257.20	7.77	-48.3	-59.3	3.8	8.47e-01	0	40	104	0	67	12443
2026-01-17 16:37:32.33	257.51	7.83	-48.3	-59.2	3.8	8.46e-01	0	40	104	0	67	12303
2026-01-17 16:37:34.32	257.82	7.88	-48.3	-59.1	3.8	8.47e-01	0	40	104	0	67	12186
2026-01-17 16:37:36.31	258.13	7.94	-48.3	-59.0	3.8	8.47e-01	0	40	104	0	67	12078
2026-01-17 16:37:38.29	258.44	8.00	-48.3	-59.0	3.8	8.47e-01	0	40	104	0	67	12092
2026-01-17 16:37:40.28	258.75	8.05	-48.3	-59.1	3.8	8.46e-01	0	40	104	0	67	12142
2026-01-17 16:37:42.26	259.07	8.11	-48.3	-58.9	3.8	8.47e-01	0	40	104	0	67	11920
2026-01-17 16:37:44.25	259.38	8.16	-48.3	-58.8	3.8	8.47e-01	0	40	104	0	67	11791
2026-01-17 16:37:46.23	259.70	8.22	-48.3	-59.1	3.8	8.47e-01	0	40	104	0	67	12185
2026-01-17 16:37:48.22	260.02	8.27	-48.3	-59.3	3.8	8.48e-01	0	40	104	0	67	12469
2026-01-17 16:37:50.20	260.34	8.32	-48.3	-59.3	3.8	8.47e-01	0	40	104	0	67	12438
2026-01-17 16:37:52.19	260.66	8.37	-48.3	-59.3	3.8	8.47e-01	0	40	104	0	67	12495
2026-01-17 16:37:54.18	260.98	8.42	-48.3	-59.1	3.8	8.47e-01	0	40	104	0	67	12228
2026-01-17 16:37:56.16	261.30	8.48	-48.3	-58.9	3.8	8.47e-01	0	40	104	0	67	11949
2026-01-17 16:37:58.15	261.62	8.53	-48.3	-59.1	3.8	8.47e-01	0	41	104	0	67	12171
2026-01-17 16:38:00.14	261.95	8.57	-48.3	-59.3	3.8	8.47e-01	0	40	104	0	67	12442
2026-01-17 16:38:02.12	262.27	8.62	-48.3	-59.3	3.8	8.45e-01	0	40	104	0	67	12439
2026-01-17 16:38:04.11	262.60	8.67	-48.3	-59.1	3.8	8.48e-01	0	40	104	0	67	12215
2026-01-17 16:38:06.09	262.93	8.72	-48.0	-56.6	4.0	8.44e-01	0	41	104	0	66	9679
2026-01-17 16:38:08.08	263.25	8.76	-48.1	-57.2	3.8	8.44e-01	0	41	104	0	66	10337
2026-01-17 16:38:10.07	263.58	8.81	-47.4	-54.0	4.9	8.31e-01	0	41	104	0	65	7628
2026-01-17 16:38:12.05	263.91	8.85	-42.6	-44.5	13.9	1.37e-05	0	40	0	12582912	56	4250
2026-01-17 16:38:14.04	264.25	8.90	-39.3	-40.6	17.7	0.00e+00	0	40	0	26214400	49	4052
2026-01-17 16:38:16.03	264.58	8.94	-38.4	-39.6	18.4	0.00e+00	0	41	0	40894464	47	4061
2026-01-17 16:38:18.01	264.91	8.99	-40.3	-41.6	16.6	0.00e+00	0	41	0	55574528	49	4587
2026-01-17 16:38:20.00	265.25	9.03	-38.2	-39.3	18.7	0.00e+00	0	41	0	70254592	47	3935
2026-01-17 16:38:21.99	265.58	9.07	-45.3	-48.5	9.7	4.19e-04	0	41	0	83886080	60	5398
2026-01-17 16:38:23.98	265.92	9.11	-40.9	-42.4	16.0	0.00e+00	0	41	0	98566144	51	4450
2026-01-17 16:38:25.97	266.26	9.15	-40.3	-41.7	16.6	0.00e+00	0	41	0	113246208	50	4354
2026-01-17 16:38:27.95	266.59	9.19	-39.9	-41.2	17.1	0.00e+00	0	41	0	126877696	50	4112
2026-01-17 16:38:29.95	266.93	9.22	-39.8	-41.1	17.2	0.00e+00	0	41	0	141557760	50	4067
2026-01-17 16:38:31.94	267.27	9.26	-38.8	-39.9	18.3	0.00e+00	0	41	0	155189248	48	3990
2026-01-17 16:38:33.92	267.61	9.30	-38.7	-39.8	18.4	0.00e+00	0	41	0	169869312	48	3951
2026-01-17 16:38:35.93	267.96	9.33	-37.9	-39.0	19.1	0.00e+00	0	41	0	184549376	46	4013
2026-01-17 16:38:37.98	268.31	9.37	-38.0	-39.1	19.0	0.00e+00	0	41	0	199229440	46	4078
2026-01-17 16:38:39.97	268.66	9.40	-37.7	-38.7	19.3	0.00e+00	0	41	0	213909504	46	3909
2026-01-17 16:38:41.96	269.00	9.44	-37.2	-38.2	19.8	0.00e+00	0	41	0	228589568	45	3881
2026-01-17 16:38:43.95	269.34	9.47	-37.2	-38.2	19.9	0.00e+00	0	41	0	242221056	44	4104
2026-01-17 16:38:45.94	269.69	9.50	-37.2	-38.2	19.8	0.00e+00	0	41	0	256901120	44	4103
2026-01-17 16:38:47.93	270.04	9.53	-37.1	-38.1	19.9	0.00e+00	0	41	0	271581184	44	4082
2026-01-17 16:38:49.92	270.38	9.56	-37.1	-38.1	19.9	0.00e+00	0	41	0	285212672	44	4060
2026-01-17 16:38:51.93	270.73	9.59	-37.1	-38.1	19.9	0.00e+00	0	41	0	299892736	44	4057
2026-01-17 16:38:53.95	271.09	9.62	-37.1	-38.1	19.9	0.00e+00	0	41	0	314572800	44	4066
2026-01-17 16:38:55.94	271.44	9.64	-37.0	-38.1	20.0	0.00e+00	0	41	0	329252864	44	4060
2026-01-17 16:38:57.93	271.79	9.67	-36.9	-38.0	20.0	0.00e+00	0	41	0	342884352	44	4022
2026-01-17 16:38:59.92	272.14	9.69	-36.9	-38.0	20.0	0.00e+00	0	41	0	357564416	44	4019
2026-01-17 16:39:01.91	272.49	9.72	-36.9	-37.9	20.1	0.00e+00	0	41	0	372244480	44	4001
2026-01-17 16:39:03.90	272.84	9.74	-37.2	-38.2	19.8	0.00e+00	0	41	0	386924544	44	4115
2026-01-17 16:39:05.89	273.19	9.76	-37.2	-38.2	19.8	0.00e+00	0	41	0	400556032	44	4143
2026-01-17 16:39:07.88	273.54	9.78	-37.2	-38.2	19.8	0.00e+00	0	41	0	415236096	44	4115
2026-01-17 16:39:09.82	273.88	9.80	-37.1	-38.1	19.9	0.00e+00	0	41	0	428867584	44	4095
2026-01-17 16:39:11.81	274.24	9.82	-37.0	-38.0	20.0	0.00e+00	0	41	0	443547648	44	4037
2026-01-17 16:39:13.80	274.59	9.84	-37.0	-38.0	20.0	0.00e+00	0	41	0	458227712	44	4041
2026-01-17 16:39:15.79	274.95	9.86	-37.0	-38.0	20.0	0.00e+00	0	41	0	471859200	44	4021
2026-01-17 16:39:17.77	275.30	9.88	-37.1	-38.2	19.9	0.00e+00	0	41	0	486539264	44	4102
2026-01-17 16:39:19.76	275.65	9.89	-37.2	-38.2	19.8	0.00e+00	0	41	0	501219328	44	4123
2026-01-17 16:39:21.86	276.03	9.91	-37.2	-38.2	19.9	0.00e+00	0	41	0	515899392	44	4104
2026-01-17 16:39:23.85	276.38	9.92	-37.1	-38.1	20.0	0.00e+00	0	41	0	530579456	44	4052
2026-01-17 16:39:25.84	276.74	9.93	-37.0	-38.0	20.0	0.00e+00	0	41	0	545259520	44	4037
2026-01-17 16:39:27.83	277.09	9.94	-37.1	-38.1	19.9	0.00e+00	0	41	0	558891008	44	4083
2026-01-17 16:39:29.82	277.45	9.96	-37.3	-38.3	19.8	0.00e+00	0	41	0	573571072	44	4163
2026-01-17 16:39:31.81	277.81	9.97	-37.3	-38.3	19.7	0.00e+00	0	41	0	588251136	44	4180
2026-01-17 16:39:33.80	278.16	9.97	-37.2	-38.2	19.8	0.00e+00	0	41	0	602931200	44	4124
2026-01-17 16:39:35.79	278.52	9.98	-37.2	-38.2	19.8	0.00e+00	0	41	0	616562688	44	4141
2026-01-17 16:39:37.83	278.89	9.99	-37.4	-38.4	19.6	0.00e+00	0	41	0	631242752	44	4239
2026-01-17 16:39:39.82	279.24	9.99	-37.4	-38.5	19.6	0.00e+00	0	41	0	645922816	44	4245
2026-01-17 16:39:41.81	279.60	10.00	-37.4	-38.5	19.6	0.00e+00	0	41	0	660602880	44	4262
2026-01-17 16:39:43.80	279.96	10.00	-37.3	-38.3	19.8	0.00e+00	0	41	0	674234368	44	4165
2026-01-17 16:39:45.88	280.33	10.01	-37.4	-38.4	19.6	0.00e+00	0	41	0	689963008	44	4238
2026-01-17 16:39:47.87	280.69	10.01	-37.2	-38.1	19.9	0.00e+00	0	41	0	703594496	44	4097
2026-01-17 16:39:49.86	281.05	10.01	-37.2	-38.2	19.9	0.00e+00	0	41	0	718274560	44	4100
2026-01-17 16:39:51.85	281.40	10.01	-37.1	-38.1	19.9	0.00e+00	0	41	0	732954624	44	4065
2026-01-17 16:39:53.84	281.76	10.01	-37.2	-38.2	19.8	0.00e+00	0	41	0	746586112	44	4113
2026-01-17 16:39:55.87	282.12	10.01	-37.3	-38.3	19.7	0.00e+00	0	41	0	761266176	44	4174
2026-01-17 16:39:57.93	282.49	10.00	-37.2	-38.1	19.9	0.00e+00	0	41	0	776994816	44	4092
2026-01-17 16:39:59.95	282.86	10.00	-37.3	-38.2	19.8	0.00e+00	0	41	0	791674880	44	4145
2026-01-17 16:40:01.94	283.21	9.99	-37.3	-38.2	19.8	0.00e+00	0	41	0	805306368	44	4134
2026-01-17 16:40:03.93	283.57	9.99	-37.3	-38.3	19.7	0.00e+00	0	41	0	819986432	44	4168
2026-01-17 16:40:06.06	283.95	9.98	-37.4	-38.4	19.7	0.00e+00	0	41	0	835715072	44	4197
2026-01-17 16:40:08.25	284.34	9.97	-37.3	-38.3	19.7	0.00e+00	0	41	0	851443712	44	4153
2026-01-17 16:40:10.27	284.71	9.96	-37.3	-38.4	19.7	0.00e+00	0	41	0	866123776	44	4194
2026-01-17 16:40:12.26	285.06	9.95	-37.2	-38.2	19.8	0.00e+00	0	41	0	879755264	44	4113
2026-01-17 16:40:14.25	285.42	9.94	-37.3	-38.3	19.7	0.00e+00	0	41	0	894435328	44	4167
2026-01-17 16:40:16.24	285.77	9.93	-37.4	-38.5	19.6	0.00e+00	0	41	0	909115392	44	4248
2026-01-17 16:40:18.23	286.13	9.92	-37.5	-38.6	19.4	0.00e+00	0	41	0	922746880	44	4306
2026-01-17 16:40:20.23	286.49	9.90	-37.7	-38.7	19.3	0.00e+00	0	41	0	937426944	44	4367
2026-01-17 16:40:22.28	286.85	9.89	-37.6	-38.7	19.4	0.00e+00	0	41	0	952107008	44	4344
2026-01-17 16:40:24.27	287.20	9.87	-37.5	-38.5	19.5	0.00e+00	0	41	0	966787072	44	4290
2026-01-17 16:40:26.26	287.56	9.86	-37.6	-38.6	19.4	0.00e+00	0	41	0	981467136	44	4304
2026-01-17 16:40:28.25	287.91	9.84	-37.6	-38.6	19.4	0.00e+00	0	41	0	995098624	44	4322
2026-01-17 16:40:30.24	288.26	9.82	-37.8	-38.8	19.2	0.00e+00	0	41	0	1009778688	44	4429
2026-01-17 16:40:32.23	288.62	9.80	-37.7	-38.7	19.3	0.00e+00	0	41	0	1024458752	45	4130
2026-01-17 16:40:34.22	288.97	9.78	-37.9	-38.9	19.1	0.00e+00	0	41	0	1038090240	45	4221
2026-01-17 16:40:36.22	289.32	9.76	-37.6	-38.7	19.3	0.00e+00	0	41	0	1052770304	45	4114
2026-01-17 16:40:38.20	289.67	9.74	-37.5	-38.5	19.4	0.00e+00	0	41	0	1067450368	45	4047
2026-01-17 16:40:40.29	290.04	9.71	-37.5	-38.5	19.4	0.00e+00	0	41	0	1082130432	45	4039
2026-01-17 16:40:42.28	290.39	9.69	-37.7	-38.7	19.3	0.00e+00	0	41	0	1096810496	45	4127
2026-01-17 16:40:44.27	290.74	9.66	-37.7	-38.7	19.3	0.00e+00	0	41	0	1111490560	45	4117
2026-01-17 16:40:46.26	291.09	9.64	-37.7	-38.8	19.2	0.00e+00	0	41	0	1125122048	45	4148
2026-01-17 16:40:48.26	291.44	9.61	-37.7	-38.7	19.3	0.00e+00	0	41	0	1139802112	45	4119
2026-01-17 16:40:50.36	291.80	9.58	-37.8	-38.8	19.2	0.00e+00	0	41	0	1155530752	45	4163
2026-01-17 16:40:52.43	292.16	9.55	-37.9	-39.0	19.0	0.00e+00	0	41	0	1170210816	45	4264
2026-01-17 16:40:54.42	292.51	9.52	-37.9	-39.0	19.0	0.00e+00	0	41	0	1183842304	45	4257
2026-01-17 16:40:56.41	292.85	9.49	-38.1	-39.1	18.9	0.00e+00	0	41	0	1198522368	45	4337
2026-01-17 16:40:58.40	293.20	9.46	-38.1	-39.1	18.9	0.00e+00	0	41	0	1213202432	45	4338
2026-01-17 16:41:00.39	293.54	9.43	-38.1	-39.1	18.9	0.00e+00	0	41	0	1226833920	45	4330
2026-01-17 16:41:02.38	293.89	9.39	-38.2	-39.2	18.8	0.00e+00	0	41	0	1241513984	46	4139
2026-01-17 16:41:04.37	294.23	9.36	-38.2	-39.2	18.8	0.00e+00	0	41	0	1256194048	46	4128
2026-01-17 16:41:06.36	294.57	9.32	-38.3	-39.4	18.6	0.00e+00	0	41	0	1270874112	46	4240
2026-01-17 16:41:08.35	294.91	9.29	-38.2	-39.3	18.7	0.00e+00	0	41	0	1285554176	46	4186
2026-01-17 16:41:10.34	295.25	9.25	-38.4	-39.5	18.5	0.00e+00	0	41	0	1299185664	46	4250
2026-01-17 16:41:12.33	295.59	9.22	-38.3	-39.5	18.6	0.00e+00	0	41	0	1313865728	46	4246
2026-01-17 16:41:14.32	295.93	9.18	-38.3	-39.4	18.6	0.00e+00	0	41	0	1327497216	46	4232
2026-01-17 16:41:16.32	296.26	9.14	-38.2	-39.3	18.7	0.00e+00	0	41	0	1342177280	46	4177
2026-01-17 16:41:18.31	296.60	9.10	-38.4	-39.5	18.5	0.00e+00	0	41	0	1356857344	46	4257
2026-01-17 16:41:20.30	296.94	9.06	-38.3	-39.4	18.6	0.00e+00	0	41	0	1371537408	46	4205
2026-01-17 16:41:22.29	297.27	9.02	-38.5	-39.7	18.3	0.00e+00	0	41	0	1385168896	46	4351
2026-01-17 16:41:24.37	297.62	8.97	-48.8	-59.5	3.8	8.35e-01	0	41	104	1396703232	67	12789
2026-01-17 16:41:26.36	297.95	8.93	-49.1	-59.9	3.8	8.46e-01	0	41	104	1396703232	67	13313
2026-01-17 16:41:28.45	298.30	8.88	-49.6	-60.2	3.8	8.46e-01	0	41	104	1396703232	68	13000
2026-01-17 16:41:30.50	298.64	8.84	-49.5	-60.3	3.8	8.46e-01	0	41	104	1396703232	68	13124
2026-01-17 16:41:32.55	298.98	8.79	-49.5	-60.3	3.8	8.48e-01	0	41	104	1396703232	68	13202
2026-01-17 16:41:34.54	299.31	8.75	-49.5	-60.3	3.8	8.46e-01	0	41	104	1396703232	68	13248
2026-01-17 16:41:36.53	299.64	8.70	-49.6	-60.4	3.8	8.47e-01	0	41	104	1396703232	68	13282
2026-01-17 16:41:38.52	299.96	8.65	-49.6	-60.3	3.8	8.46e-01	0	41	104	1396703232	68	13258
2026-01-17 16:41:40.50	300.29	8.61	-49.6	-60.3	3.8	8.47e-01	0	41	104	1396703232	68	13226
2026-01-17 16:41:42.49	300.61	8.56	-49.4	-60.3	3.8	8.47e-01	0	41	104	1396703232	68	13202
2026-01-17 16:41:44.48	300.93	8.51	-49.3	-60.3	3.8	8.46e-01	0	42	104	1396703232	68	13177
2026-01-17 16:41:46.46	301.25	8.46	-49.1	-60.3	3.8	8.47e-01	0	41	104	1396703232	68	13112
2026-01-17 16:41:48.48	301.58	8.41	-49.1	-60.2	3.8	8.47e-01	0	41	104	1396703232	68	13060
2026-01-17 16:41:50.47	301.90	8.35	-49.1	-60.2	3.8	8.47e-01	0	41	104	1396703232	68	12990
2026-01-17 16:41:52.46	302.22	8.30	-49.1	-60.2	3.8	8.46e-01	0	41	104	1396703232	68	13006
2026-01-17 16:41:54.44	302.53	8.25	-49.1	-60.2	3.8	8.46e-01	0	41	104	1396703232	68	13046
2026-01-17 16:41:56.43	302.85	8.20	-49.1	-60.2	3.8	8.46e-01	0	41	104	1396703232	68	12987
2026-01-17 16:41:58.41	303.17	8.14	-49.1	-60.1	3.8	8.48e-01	0	41	104	1396703232	68	12955
2026-01-17 16:42:00.40	303.48	8.09	-49.1	-60.1	3.8	8.46e-01	0	41	104	1396703232	68	12923
2026-01-17 16:42:02.39	303.79	8.03	-49.1	-60.2	3.8	8.46e-01	0	41	104	1396703232	68	13008
2026-01-17 16:42:04.38	304.11	7.98	-49.1	-60.2	3.8	8.46e-01	0	41	104	1396703232	68	13002
2026-01-17 16:42:06.36	304.41	7.92	-49.1	-60.2	3.8	8.48e-01	0	42	104	1396703232	68	13000
2026-01-17 16:42:08.35	304.72	7.87	-49.1	-60.2	3.8	8.46e-01	0	41	104	1396703232	68	13022
2026-01-17 16:42:10.34	305.03	7.81	-49.1	-60.2	3.8	8.46e-01	0	41	104	1396703232	68	13041
2026-01-17 16:42:12.32	305.34	7.75	-49.1	-60.2	3.8	8.47e-01	0	41	104	1396703232	68	12970
2026-01-17 16:42:14.31	305.64	7.69	-49.1	-60.2	3.8	8.47e-01	0	41	104	1396703232	68	12992
2026-01-17 16:42:16.29	305.95	7.63	-49.1	-60.2	3.8	8.47e-01	0	42	104	1396703232	68	13002
2026-01-17 16:42:18.28	306.25	7.57	-49.1	-60.2	3.8	8.46e-01	0	42	104	1396703232	68	13001
2026-01-17 16:42:20.27	306.55	7.51	-49.1	-60.1	3.8	8.47e-01	0	41	104	1396703232	68	12952
2026-01-17 16:42:22.25	306.85	7.45	-49.1	-60.2	3.8	8.47e-01	0	41	104	1396703232	68	13029
2026-01-17 16:42:24.24	307.15	7.39	-49.1	-60.1	3.8	8.46e-01	0	41	104	1396703232	68	12919
2026-01-17 16:42:26.23	307.45	7.33	-49.1	-60.2	3.8	8.46e-01	0	42	104	1396703232	68	12974
2026-01-17 16:42:28.21	307.75	7.27	-49.1	-60.2	3.8	8.46e-01	0	41	104	1396703232	68	13097
2026-01-17 16:42:30.20	308.05	7.20	-49.1	-60.2	3.8	8.48e-01	0	41	104	1396703232	68	12982
2026-01-17 16:42:32.18	308.34	7.14	-49.1	-60.2	3.8	8.46e-01	0	41	104	1396703232	68	12989
2026-01-17 16:42:34.17	308.63	7.08	-49.1	-60.1	3.8	8.47e-01	0	41	104	1396703232	68	12943
2026-01-17 16:42:36.16	308.93	7.01	-49.0	-60.1	3.8	8.47e-01	0	41	104	1396703232	68	12851
2026-01-17 16:42:38.14	309.22	6.95	-49.1	-60.2	3.8	8.48e-01	0	42	104	1396703232	68	12974
2026-01-17 16:42:40.13	309.51	6.88	-49.1	-60.1	3.8	8.46e-01	0	42	104	1396703232	68	12947
2026-01-17 16:42:42.12	309.79	6.82	-49.1	-60.2	3.8	8.47e-01	0	42	104	1396703232	68	12990
2026-01-17 16:42:44.10	310.08	6.75	-49.1	-60.2	3.8	8.47e-01	0	41	104	1396703232	68	12978
2026-01-17 16:42:46.09	310.37	6.69	-49.1	-60.1	3.8	8.47e-01	0	42	104	1396703232	68	12862
2026-01-17 16:42:48.07	310.65	6.62	-49.1	-60.1	3.8	8.47e-01	0	42	104	1396703232	68	12955
2026-01-17 16:42:50.06	310.93	6.55	-49.1	-60.1	3.8	8.47e-01	0	42	104	1396703232	68	12937
2026-01-17 16:42:52.05	311.22	6.49	-49.1	-60.1	3.8	8.45e-01	0	42	104	1396703232	68	12883
2026-01-17 16:42:54.03	311.50	6.42	-49.0	-60.1	3.8	8.47e-01	0	42	104	1396703232	68	12876
2026-01-17 16:42:56.02	311.78	6.35	-49.0	-60.1	3.8	8.48e-01	0	41	104	1396703232	68	12951
2026-01-17 16:42:58.00	312.05	6.28	-49.1	-60.1	3.8	8.47e-01	0	41	104	1396703232	68	12896
2026-01-17 16:42:59.99	312.33	6.21	-49.1	-60.1	3.8	8.47e-01	0	41	104	1396703232	68	12830
2026-01-17 16:43:01.97	312.61	6.14	-49.0	-60.1	3.8	8.47e-01	0	42	104	1396703232	68	12880
2026-01-17 16:43:03.96	312.88	6.07	-49.0	-60.1	3.8	8.47e-01	0	42	104	1396703232	68	12926
2026-01-17 16:43:05.95	313.15	6.00	-49.0	-60.2	3.8	8.46e-01	0	42	104	1396703232	68	12991
2026-01-17 16:43:07.93	313.43	5.93	-49.1	-60.1	3.8	8.46e-01	0	41	104	1396703232	68	12928
2026-01-17 16:43:09.92	313.70	5.86	-49.0	-60.1	3.8	8.47e-01	0	42	104	1396703232	68	12877
2026-01-17 16:43:11.90	313.96	5.79	-49.0	-60.1	3.8	8.46e-01	0	42	104	1396703232	68	12856
2026-01-17 16:43:13.89	314.23	5.72	-49.0	-60.1	3.8	8.47e-01	0	42	104	1396703232	68	12941
2026-01-17 16:43:15.88	314.50	5.65	-49.0	-60.1	3.8	8.47e-01	0	42	104	1396703232	68	12859
2026-01-17 16:43:17.86	314.77	5.57	-49.0	-60.1	3.8	8.47e-01	0	42	104	1396703232	68	12863
2026-01-17 16:43:19.85	315.03	5.50	-49.0	-60.2	3.8	8.47e-01	0	42	104	1396703232	68	12961
2026-01-17 16:43:21.84	315.29	5.43	-49.0	-60.0	3.8	8.47e-01	0	42	104	1396703232	68	12800
2026-01-17 16:43:23.82	315.55	5.36	-49.0	-60.1	3.8	8.46e-01	0	42	104	1396703232	68	12868
2026-01-17 16:43:25.81	315.81	5.28	-49.0	-60.2	3.8	8.46e-01	0	42	104	1396703232	68	12975
2026-01-17 16:43:27.79	316.07	5.21	-49.0	-60.1	3.8	8.46e-01	0	42	104	1396703232	68	12930
2026-01-17 16:43:29.78	316.33	5.14	-49.0	-60.1	3.8	8.46e-01	0	42	104	1396703232	68	12901
2026-01-17 16:43:31.77	316.59	5.06	
