passes_logs/2026/01/17/T1/T1__20260117_075026_KHAYYAM_rec.log

#Pass ID: 20260117_075026_KHAYYAM
#Satellite: KHAYYAM
#Configuration: KHAYYAM_480M
#almurnet v.1.7.20251203
#Start time: 2026-01-17 07:50:27

#Version: 2.0.20230620
#Station: T1
#Location: 37.570604 lon 55.790049 lat
#TLE: 1 53370U 22096A   26016.26944296  .00002688  00000+0  11195-3 0  9997
#TLE: 2 53370  97.3563 283.2565 0001591 106.1097 254.0316 15.24586395191431

#Time	Az	El	Level	Level2	SNR	BER	BlckErr	Temp	State	Recorded	gain1	gain2
2026-01-17 07:50:27.45	163.09	5.08	-50.6	-55.6	3.3	0.00e+00	0	46	0	0	73	24718
2026-01-17 07:50:30.43	163.09	5.33	-50.6	-55.6	3.7	0.00e+00	0	46	104	0	72	26215
2026-01-17 07:50:33.41	163.09	5.58	-50.6	-55.6	3.7	0.00e+00	0	46	104	0	72	26108
2026-01-17 07:50:36.39	163.09	5.83	-50.6	-55.6	3.7	0.00e+00	0	47	104	0	72	25993
2026-01-17 07:50:39.37	163.10	6.08	-50.6	-55.6	3.7	0.00e+00	0	47	104	0	72	26138
2026-01-17 07:50:42.35	163.10	6.34	-50.7	-55.6	3.7	0.00e+00	0	47	104	0	72	26194
2026-01-17 07:50:45.33	163.10	6.61	-50.6	-55.6	3.7	0.00e+00	0	48	104	0	72	26147
2026-01-17 07:50:48.31	163.10	6.87	-50.7	-55.6	3.7	0.00e+00	0	48	104	0	72	26249
2026-01-17 07:50:51.29	163.10	7.14	-50.7	-55.6	3.7	0.00e+00	0	48	104	0	72	26070
2026-01-17 07:50:54.27	163.10	7.42	-50.6	-55.6	3.7	0.00e+00	0	48	104	0	72	25992
2026-01-17 07:50:57.25	163.10	7.70	-50.6	-55.5	3.7	0.00e+00	0	48	104	0	72	25853
2026-01-17 07:51:00.23	163.10	7.98	-50.6	-55.6	3.7	0.00e+00	0	49	104	0	72	26056
2026-01-17 07:51:03.21	163.10	8.26	-50.6	-55.5	3.7	0.00e+00	0	49	104	0	72	25957
2026-01-17 07:51:06.19	163.10	8.56	-50.6	-55.6	3.7	0.00e+00	0	49	104	0	72	26017
2026-01-17 07:51:09.17	163.10	8.85	-50.6	-55.6	3.7	0.00e+00	0	49	104	0	72	26162
2026-01-17 07:51:12.15	163.10	9.15	-52.2	-56.9	3.7	0.00e+00	0	49	104	0	75	25501
2026-01-17 07:51:15.57	163.10	9.50	-51.2	-56.1	3.7	0.00e+00	0	49	104	0	74	24530
2026-01-17 07:51:18.48	163.10	9.81	-50.7	-55.6	3.7	0.00e+00	0	49	104	0	72	26234
2026-01-17 07:51:21.82	163.10	10.16	-51.7	-56.5	3.7	0.00e+00	0	49	104	0	74	25739
2026-01-17 07:51:24.54	163.09	10.46	-52.1	-56.9	3.7	0.00e+00	0	50	104	0	75	25406
2026-01-17 07:51:27.81	163.09	10.82	-52.3	-57.0	3.7	0.00e+00	0	49	104	0	75	25944
2026-01-17 07:51:30.54	163.09	11.13	-52.4	-57.0	3.7	0.00e+00	0	50	104	0	75	25908
2026-01-17 07:51:33.81	163.09	11.50	-52.3	-57.1	3.7	0.00e+00	0	50	104	0	75	26145
2026-01-17 07:51:36.53	163.08	11.82	-52.3	-56.9	3.7	0.00e+00	0	50	104	0	75	25528
2026-01-17 07:51:39.81	163.08	12.21	-52.3	-57.0	3.7	0.00e+00	0	50	104	0	75	25751
2026-01-17 07:51:42.56	163.08	12.54	-52.5	-57.4	3.7	0.00e+00	0	50	104	0	75	26898
2026-01-17 07:51:45.83	163.07	12.95	-52.6	-57.4	3.7	0.00e+00	0	50	104	0	75	27020
2026-01-17 07:51:48.60	163.07	13.30	-52.6	-57.4	3.7	0.00e+00	0	50	104	0	76	25593
2026-01-17 07:51:52.23	163.06	13.77	-52.7	-57.5	3.7	0.00e+00	0	50	104	0	76	25845
2026-01-17 07:51:54.96	163.06	14.13	-53.2	-57.8	3.7	0.00e+00	0	50	104	0	77	25141
2026-01-17 07:51:58.23	163.05	14.57	-53.2	-57.8	3.7	0.00e+00	0	50	104	0	77	25152
2026-01-17 07:52:00.93	163.05	14.94	-53.3	-57.8	3.7	0.00e+00	0	50	104	0	77	25318
2026-01-17 07:52:04.44	163.04	15.44	-53.2	-57.8	3.7	0.00e+00	0	50	104	0	77	25138
2026-01-17 07:52:07.42	163.03	15.87	-52.7	-57.2	3.7	0.00e+00	0	50	104	0	76	25007
2026-01-17 07:52:10.42	163.02	16.32	-52.6	-57.2	3.7	0.00e+00	0	50	104	0	76	25053
2026-01-17 07:52:13.41	163.01	16.77	-52.6	-57.2	3.7	0.00e+00	0	50	104	0	76	25055
2026-01-17 07:52:16.39	163.00	17.24	-52.6	-57.2	3.7	0.00e+00	0	50	104	0	76	25006
2026-01-17 07:52:19.38	162.99	17.71	-52.5	-57.0	3.7	0.00e+00	0	50	104	0	76	24427
2026-01-17 07:52:22.36	162.98	18.20	-52.6	-57.2	3.7	0.00e+00	0	50	104	0	76	24871
2026-01-17 07:52:25.35	162.97	18.70	-52.8	-57.2	3.7	0.00e+00	0	50	104	0	76	24896
2026-01-17 07:52:28.38	162.96	19.23	-53.1	-57.4	3.7	0.00e+00	0	51	104	0	77	24196
2026-01-17 07:52:31.46	162.95	19.77	-53.0	-57.5	3.7	0.00e+00	0	51	104	0	77	24423
2026-01-17 07:52:34.41	162.93	20.31	-53.1	-57.4	3.7	0.00e+00	0	51	104	0	77	24133
2026-01-17 07:52:37.70	162.92	20.93	-53.0	-57.5	3.7	0.00e+00	0	51	104	0	77	24251
2026-01-17 07:52:40.43	162.90	21.46	-53.3	-57.8	3.7	0.00e+00	0	51	104	0	77	25335
2026-01-17 07:52:43.70	162.88	22.11	-53.5	-57.8	3.7	0.00e+00	0	51	104	0	78	23719
2026-01-17 07:52:46.54	162.86	22.69	-53.7	-58.1	3.7	0.00e+00	0	51	104	0	78	24771
2026-01-17 07:52:49.67	162.84	23.36	-53.1	-57.7	3.7	0.00e+00	0	51	104	0	77	25044
2026-01-17 07:52:52.51	162.82	23.98	-53.0	-57.4	3.7	0.00e+00	0	51	104	0	77	24144
2026-01-17 07:52:55.67	162.80	24.69	-53.1	-57.3	3.7	0.00e+00	0	51	104	0	77	23707
2026-01-17 07:52:58.51	162.78	25.35	-53.4	-57.7	3.7	0.00e+00	0	51	104	0	77	24871
2026-01-17 07:53:01.74	162.75	26.12	-53.5	-57.7	3.7	0.00e+00	0	51	104	0	77	25075
2026-01-17 07:53:05.09	162.72	26.96	-53.0	-56.9	3.7	0.00e+00	0	51	104	0	77	22692
2026-01-17 07:53:07.79	162.69	27.66	-52.8	-56.1	3.7	0.00e+00	0	51	104	0	77	20817
2026-01-17 07:53:11.09	162.65	28.54	-53.5	-57.6	3.7	0.00e+00	0	51	104	0	78	23259
2026-01-17 07:53:13.90	162.62	29.31	-52.7	-56.4	3.7	0.00e+00	0	51	104	0	77	21416
2026-01-17 07:53:17.02	162.58	30.21	-52.7	-56.3	3.7	0.00e+00	0	51	104	0	76	22458
2026-01-17 07:53:19.86	162.55	31.05	-52.9	-57.0	3.7	0.00e+00	0	51	104	0	77	22921
2026-01-17 07:53:22.99	162.50	32.02	-52.3	-55.9	3.7	0.00e+00	0	51	104	0	76	21366
2026-01-17 07:53:25.83	162.46	32.93	-51.7	-55.1	3.7	0.00e+00	0	51	104	0	75	20829
2026-01-17 07:53:28.96	162.40	33.97	-52.5	-56.4	3.7	0.00e+00	0	51	104	0	76	22833
2026-01-17 07:53:31.81	162.35	34.95	-53.5	-57.7	3.7	0.00e+00	0	51	104	0	77	24892
2026-01-17 07:53:34.93	162.29	36.07	-53.5	-57.8	3.7	0.00e+00	0	51	104	0	77	25289
2026-01-17 07:53:37.78	162.23	37.14	-53.4	-57.8	3.7	0.00e+00	0	51	104	0	77	25337
2026-01-17 07:53:41.00	162.15	38.39	-53.7	-58.2	3.7	0.00e+00	0	51	104	0	78	24986
2026-01-17 07:53:43.93	162.08	39.58	-53.6	-58.0	3.7	0.00e+00	0	51	104	0	78	24413
2026-01-17 07:53:47.06	161.99	40.90	-53.7	-58.0	3.7	0.00e+00	0	51	104	0	78	24390
2026-01-17 07:53:49.91	161.91	42.15	-53.7	-58.0	3.7	0.00e+00	0	51	104	0	78	24439
2026-01-17 07:53:53.03	161.80	43.58	-53.7	-57.9	3.7	0.00e+00	0	51	104	0	78	24026
2026-01-17 07:53:56.02	161.69	45.01	-53.8	-58.1	3.7	0.00e+00	0	51	104	0	78	24564
2026-01-17 07:53:59.00	161.57	46.49	-53.9	-58.3	3.7	0.00e+00	0	51	104	0	78	25155
2026-01-17 07:54:01.98	161.43	48.04	-54.0	-58.4	3.7	0.00e+00	0	51	104	0	78	25596
2026-01-17 07:54:04.96	161.28	49.65	-53.8	-58.0	3.7	0.00e+00	0	51	104	0	78	24427
2026-01-17 07:54:08.26	161.09	51.51	-53.8	-58.3	3.7	0.00e+00	0	51	104	0	78	25150
2026-01-17 07:54:11.09	160.90	53.17	-54.0	-58.4	3.7	0.00e+00	0	51	104	0	78	25432
2026-01-17 07:54:14.50	160.64	55.25	-53.7	-58.1	3.7	0.00e+00	0	51	104	0	78	24629
2026-01-17 07:54:17.42	160.39	57.11	-54.0	-58.4	3.7	0.00e+00	0	51	104	0	78	25413
2026-01-17 07:54:20.83	160.04	59.37	-53.9	-58.4	3.7	0.00e+00	0	51	104	0	78	25444
2026-01-17 07:54:23.55	159.71	61.23	-53.7	-58.2	3.7	0.00e+00	0	51	104	0	78	24968
2026-01-17 07:54:26.85	159.23	63.57	-53.7	-58.1	3.7	0.00e+00	0	51	104	0	78	24556
2026-01-17 07:54:29.66	158.74	65.63	-53.2	-57.8	3.7	0.00e+00	0	51	104	0	77	25120
2026-01-17 07:54:33.08	158.00	68.22	-53.3	-57.6	3.7	0.00e+00	0	51	104	0	78	23406
2026-01-17 07:54:35.80	157.25	70.33	-53.7	-57.8	3.7	0.00e+00	0	51	104	0	78	23847
2026-01-17 07:54:39.07	156.07	72.93	-53.7	-57.8	3.7	0.00e+00	0	51	104	0	78	23825
2026-01-17 07:54:41.99	154.64	75.30	-53.4	-57.7	3.7	0.00e+00	0	51	104	0	78	23575
2026-01-17 07:54:44.98	152.57	77.77	-53.3	-57.1	3.7	0.00e+00	0	51	104	0	78	22108
2026-01-17 07:54:47.96	149.42	80.23	-53.6	-58.0	3.7	0.00e+00	0	51	104	0	78	24427
2026-01-17 07:54:50.98	144.00	82.72	-53.7	-58.3	3.7	0.00e+00	0	51	104	0	78	25297
2026-01-17 07:54:53.98	133.17	85.08	-53.1	-57.9	3.7	0.00e+00	0	51	104	0	78	24082
2026-01-17 07:54:56.96	106.27	86.99	-52.5	-57.2	3.7	0.00e+00	0	51	104	0	76	24998
2026-01-17 07:55:00.17	48.78	87.15	-53.4	-57.6	3.7	0.00e+00	0	51	104	0	77	24574
2026-01-17 07:55:03.31	17.23	85.26	-53.8	-58.1	3.7	0.00e+00	0	51	104	0	78	24765
2026-01-17 07:55:06.22	5.93	82.98	-53.4	-57.9	3.7	0.00e+00	0	51	104	0	78	23999
2026-01-17 07:55:09.50	359.78	80.29	-53.9	-58.2	3.7	0.00e+00	0	51	104	0	78	25062
2026-01-17 07:55:12.24	356.81	78.02	-53.5	-58.1	3.7	0.00e+00	0	51	104	0	78	24782
2026-01-17 07:55:15.54	354.47	75.31	-54.1	-58.5	3.7	0.00e+00	0	51	104	0	78	25810
2026-01-17 07:55:18.25	353.13	73.11	-53.8	-58.4	3.7	0.00e+00	0	51	104	0	78	25590
2026-01-17 07:55:21.64	351.90	70.42	-54.1	-58.5	3.7	0.00e+00	0	51	104	0	78	25816
2026-01-17 07:55:24.67	351.07	68.07	-53.9	-58.5	3.7	0.00e+00	0	51	104	0	78	25751
2026-01-17 07:55:28.27	350.30	65.37	-53.2	-58.1	3.7	0.00e+00	0	51	104	0	78	24777
2026-01-17 07:55:31.15	349.81	63.27	-53.8	-58.4	3.7	0.00e+00	0	51	104	0	78	25622
2026-01-17 07:55:34.47	349.35	60.93	-53.9	-58.4	3.7	0.00e+00	0	51	104	0	78	25451
2026-01-17 07:55:37.23	349.02	59.06	-53.5	-58.2	3.7	0.00e+00	0	51	104	0	77	26286
2026-01-17 07:55:40.49	348.70	56.92	-53.9	-58.4	3.7	0.00e+00	0	51	104	0	78	25658
2026-01-17 07:55:43.21	348.46	55.20	-53.7	-58.3	3.7	0.00e+00	0	51	104	0	78	25128
2026-01-17 07:55:46.48	348.22	53.21	-53.5	-58.2	3.7	0.00e+00	0	51	104	0	78	24955
2026-01-17 07:55:49.18	348.04	51.63	-53.3	-58.1	3.7	0.00e+00	0	51	104	0	78	24553
2026-01-17 07:55:52.48	347.85	49.77	-53.8	-58.3	3.7	0.00e+00	0	51	104	0	78	25347
2026-01-17 07:55:55.25	347.71	48.28	-53.4	-58.1	3.7	0.00e+00	0	51	104	0	78	24640
2026-01-17 07:55:58.63	347.55	46.53	-53.7	-58.3	3.7	0.00e+00	0	51	104	0	78	25097
2026-01-17 07:56:01.68	347.43	45.02	-52.8	-57.7	3.7	0.00e+00	0	51	104	0	77	25086
2026-01-17 07:56:04.84	347.31	43.52	-52.8	-57.8	3.7	0.00e+00	0	51	104	0	77	25359
2026-01-17 07:56:07.68	347.22	42.23	-53.4	-58.2	3.7	0.00e+00	0	51	104	0	78	24861
2026-01-17 07:56:10.81	347.12	40.86	-53.1	-58.0	3.7	0.00e+00	0	51	104	0	77	25843
2026-01-17 07:56:13.76	347.04	39.62	-53.8	-58.3	3.7	0.00e+00	0	51	104	0	78	25379
2026-01-17 07:56:16.97	346.96	38.33	-53.8	-58.4	3.7	0.00e+00	0	51	104	0	78	25420
2026-01-17 07:56:19.81	346.90	37.24	-52.2	-57.4	3.7	0.00e+00	0	51	104	0	76	25488
2026-01-17 07:56:22.94	346.83	36.07	-52.7	-57.7	3.7	0.00e+00	0	51	104	0	76	26342
2026-01-17 07:56:26.03	346.77	34.97	-53.4	-57.9	3.7	0.00e+00	0	51	104	0	77	25612
2026-01-17 07:56:28.87	346.72	34.00	-52.5	-57.5	3.7	0.00e+00	0	51	104	0	77	24386
2026-01-17 07:56:32.00	346.67	32.96	-51.7	-57.1	3.7	0.00e+00	0	52	104	0	75	26006
2026-01-17 07:56:34.84	346.63	32.06	-52.1	-57.4	3.7	0.00e+00	0	51	104	0	75	27012
2026-01-17 07:56:37.97	346.59	31.10	-53.1	-57.8	3.7	0.00e+00	0	51	104	0	76	26651
2026-01-17 07:56:40.83	346.55	30.26	-53.5	-58.1	3.7	0.00e+00	0	51	104	0	77	25998
2026-01-17 07:56:44.10	346.51	29.33	-52.1	-57.1	3.7	0.00e+00	0	52	104	0	76	24540
2026-01-17 07:56:46.88	346.48	28.57	-52.3	-57.2	3.7	0.00e+00	0	51	104	0	76	24925
2026-01-17 07:56:50.15	346.45	27.70	-52.6	-57.4	3.7	0.00e+00	0	51	104	0	76	25583
2026-01-17 07:56:53.07	346.42	26.95	-53.3	-57.7	3.7	0.00e+00	0	51	104	0	78	23531
2026-01-17 07:56:56.36	346.39	26.14	-53.2	-57.7	3.7	0.00e+00	0	51	104	0	76	26303
2026-01-17 07:56:59.31	346.36	25.44	-53.0	-57.6	3.7	0.00e+00	0	51	104	0	77	24774
2026-01-17 07:57:02.58	346.34	24.68	-52.3	-57.3	3.7	0.00e+00	0	52	104	0	75	26684
2026-01-17 07:57:05.33	346.32	24.07	-52.5	-57.6	3.7	0.00e+00	0	51	104	0	75	27728
2026-01-17 07:57:08.61	346.30	23.36	-52.9	-57.9	3.7	0.00e+00	0	51	104	0	76	26897
2026-01-17 07:57:11.45	346.28	22.76	-52.3	-57.5	3.7	0.00e+00	0	51	104	0	76	25696
2026-01-17 07:57:14.58	346.26	22.13	-51.1	-56.8	3.7	0.00e+00	0	51	104	0	74	26690
2026-01-17 07:57:17.42	346.25	21.56	-52.9	-57.7	3.7	0.00e+00	0	52	104	0	77	25074
2026-01-17 07:57:20.55	346.23	20.96	-52.0	-57.3	3.7	0.00e+00	0	52	104	0	74	28289
2026-01-17 07:57:23.39	346.22	20.43	-53.3	-57.7	3.7	0.00e+00	0	51	104	0	77	25032
2026-01-17 07:57:26.52	346.21	19.87	-52.7	-57.4	3.7	0.00e+00	0	51	104	0	76	25608
2026-01-17 07:57:29.36	346.20	19.36	-52.9	-57.3	3.7	0.00e+00	0	51	104	0	77	23726
2026-01-17 07:57:32.49	346.19	18.83	-51.4	-56.3	3.7	0.00e+00	0	51	104	0	74	25124
2026-01-17 07:57:35.33	346.18	18.35	-51.6	-56.4	3.7	0.00e+00	0	51	104	0	74	25527
2026-01-17 07:57:38.61	346.17	17.82	-52.4	-56.8	3.7	0.00e+00	0	51	104	0	76	23749
2026-01-17 07:57:41.33	346.16	17.38	-50.9	-55.9	3.7	0.00e+00	0	52	104	0	73	25493
2026-01-17 07:57:44.61	346.15	16.88	-49.5	-55.0	3.7	0.00e+00	0	51	104	0	70	27215
2026-01-17 07:57:47.33	346.14	16.46	-49.7	-55.1	3.7	0.00e+00	0	51	104	0	71	26263
2026-01-17 07:57:50.61	346.14	15.98	-51.0	-56.0	3.7	0.00e+00	0	51	104	0	72	27268
2026-01-17 07:57:53.32	346.13	15.59	-51.2	-55.9	3.7	0.00e+00	0	51	104	0	74	24193
2026-01-17 07:57:56.74	346.13	15.11	-51.3	-56.3	3.7	0.00e+00	0	51	104	0	74	25332
2026-01-17 07:57:59.44	346.12	14.73	-50.3	-55.6	3.7	0.00e+00	0	51	104	0	72	26247
2026-01-17 07:58:02.72	346.12	14.29	-51.6	-57.1	3.7	0.00e+00	0	52	104	0	73	29253
2026-01-17 07:58:05.45	346.11	13.93	-50.8	-56.3	3.7	0.00e+00	0	51	104	0	72	28417
2026-01-17 07:58:08.73	346.11	13.51	-51.4	-57.0	3.7	0.00e+00	0	51	104	0	73	28993
2026-01-17 07:58:11.70	346.11	13.13	-50.0	-56.0	3.7	0.00e+00	0	51	104	0	72	27355
2026-01-17 07:58:15.03	346.11	12.72	-50.6	-56.4	3.7	0.00e+00	0	52	104	0	72	28573
2026-01-17 07:58:17.75	346.10	12.39	-51.0	-56.7	3.7	0.00e+00	0	51	104	0	72	29742
2026-01-17 07:58:21.02	346.10	12.01	-50.8	-56.6	3.7	0.00e+00	0	51	104	0	72	29245
2026-01-17 07:58:23.73	346.10	11.69	-51.1	-56.7	3.7	0.00e+00	0	52	104	0	74	26475
2026-01-17 07:58:27.02	346.10	11.31	-48.1	-54.6	3.8	0.00e+00	0	52	104	0	68	29444
2026-01-17 07:58:30.03	346.10	10.98	-48.3	-54.8	3.8	0.00e+00	0	51	104	0	68	30146
2026-01-17 07:58:33.02	346.10	10.65	-48.3	-54.9	3.7	0.00e+00	0	51	104	0	68	30291
2026-01-17 07:58:36.00	346.10	10.33	-48.1	-54.7	3.8	0.00e+00	0	51	104	0	68	29656
2026-01-17 07:58:38.98	346.10	10.01	-48.1	-54.7	3.8	0.00e+00	0	51	104	0	67	31383
2026-01-17 07:58:42.17	346.10	9.68	-46.6	-53.2	3.9	0.00e+00	0	51	104	0	65	29742
2026-01-17 07:58:45.20	346.11	9.37	-46.8	-53.4	3.9	0.00e+00	0	51	104	0	65	30396
2026-01-17 07:58:48.50	346.11	9.03	-46.3	-53.0	3.9	0.00e+00	0	51	104	0	64	30576
2026-01-17 07:58:51.20	346.11	8.77	-52.2	-57.4	3.7	0.00e+00	0	52	104	0	76	25592
2026-01-17 07:58:54.48	346.11	8.45	-52.7	-57.0	3.7	0.00e+00	0	51	104	0	76	24275
2026-01-17 07:58:57.17	346.11	8.19	-52.4	-57.6	3.7	0.00e+00	0	51	104	0	77	24792
2026-01-17 07:59:00.44	346.12	7.88	-53.4	-57.5	3.7	0.00e+00	0	52	104	0	77	24455
2026-01-17 07:59:03.15	346.12	7.62	-53.7	-58.2	3.7	0.00e+00	0	51	104	0	78	25017
2026-01-17 07:59:06.43	346.12	7.32	-54.0	-58.5	3.7	0.00e+00	0	52	104	0	78	25716
2026-01-17 07:59:09.13	346.13	7.08	-54.1	-58.6	3.6	0.00e+00	0	51	104	0	79	24771
2026-01-17 07:59:12.39	346.13	6.79	-54.0	-58.4	3.7	0.00e+00	0	51	104	0	79	24058
2026-01-17 07:59:15.09	346.13	6.55	-53.6	-57.8	3.7	0.00e+00	0	51	104	0	78	23856
2026-01-17 07:59:18.35	346.14	6.27	-53.0	-57.4	3.7	0.00e+00	0	51	104	0	78	22805
2026-01-17 07:59:21.05	346.14	6.04	-53.0	-57.4	3.7	0.00e+00	0	51	104	0	78	22807
2026-01-17 07:59:24.31	346.15	5.76	-53.0	-57.4	3.7	0.00e+00	0	52	104	0	78	22724
2026-01-17 07:59:27.02	346.15	5.53	-53.0	-57.4	3.7	0.00e+00	0	52	104	0	78	22771
2026-01-17 07:59:30.29	346.15	5.27	-53.0	-57.4	3.7	0.00e+00	0	52	104	0	78	22778
2026-01-17 07:59:33.00	346.16	5.04	-53.0	-57.4	3.7	0.00e+00	0	51	104	0	78	22777

#Closed at: 2026-01-17 07:59:34
#Recorded file [0 MB]: D:/Data/31040_260117_105027.dat