passes_logs/2026/01/17/T1/T1__20260117_104928_NOAA_20_JPSS-1_rec.log

#Pass ID: 20260117_104928_NOAA 20 (JPSS-1)
#Satellite: NOAA 20 (JPSS-1)
#Configuration: NOAA 20
#almurnet v.1.7.20251203
#Start time: 2026-01-17 10:49:29

#Version: 2.0.20230620
#Station: T1
#Location: 37.570604 lon 55.790049 lat
#TLE: 1 43013U 17073A   26016.24631778  .00000038  00000+0  39093-4 0  9990
#TLE: 2 43013  98.7637 317.1726 0001455  37.6755 322.4523 14.19536243422915

#Time	Az	El	Level	Level2	SNR	BER	BlckErr	Temp	State	Recorded	gain1	gain2
2026-01-17 10:49:29.73	188.88	5.06	-48.6	-64.2	3.8	1.49e+00	0	41	0	0	67	23536
2026-01-17 10:49:32.71	189.03	5.26	-49.2	-65.4	3.8	1.49e+00	0	41	104	0	69	23939
2026-01-17 10:49:35.69	189.19	5.47	-49.2	-65.2	3.8	1.49e+00	0	41	104	0	69	23472
2026-01-17 10:49:38.67	189.34	5.67	-49.2	-65.1	3.8	1.49e+00	0	41	104	0	69	23220
2026-01-17 10:49:41.64	189.50	5.88	-49.2	-65.3	3.8	1.49e+00	0	41	104	0	69	23682
2026-01-17 10:49:44.62	189.67	6.09	-49.2	-65.3	3.8	1.49e+00	0	41	104	0	69	23762
2026-01-17 10:49:47.60	189.83	6.30	-49.2	-65.1	3.8	1.49e+00	0	41	104	0	69	23304
2026-01-17 10:49:50.59	190.00	6.51	-49.2	-65.2	3.8	1.49e+00	0	42	104	0	69	23462
2026-01-17 10:49:53.57	190.17	6.72	-49.2	-65.3	3.8	1.49e+00	0	42	104	0	69	23835
2026-01-17 10:49:56.55	190.34	6.94	-49.2	-65.1	3.8	1.49e+00	0	42	104	0	69	23251
2026-01-17 10:49:59.53	190.51	7.16	-49.1	-64.1	3.8	1.49e+00	0	42	104	0	69	20751
2026-01-17 10:50:02.51	190.69	7.37	-49.2	-64.1	3.8	1.49e+00	0	42	104	0	69	20724
2026-01-17 10:50:05.49	190.87	7.59	-49.2	-65.1	3.8	1.49e+00	0	42	104	0	69	23240
2026-01-17 10:50:08.47	191.05	7.81	-48.4	-57.0	7.0	3.61e-01	0	42	0	2097152	68	9695
2026-01-17 10:50:11.45	191.23	8.04	-46.5	-51.4	12.7	2.11e-04	0	42	0	7340032	65	5997
2026-01-17 10:50:14.43	191.42	8.26	-45.4	-49.1	15.1	0.00e+00	0	42	0	13631488	62	5492
2026-01-17 10:50:17.41	191.61	8.49	-45.4	-49.2	15.0	0.00e+00	0	42	0	18874368	62	5531
2026-01-17 10:50:20.39	191.80	8.72	-46.5	-51.3	12.8	1.67e-05	0	42	0	24117248	63	6701
2026-01-17 10:50:23.37	192.00	8.95	-47.8	-54.8	9.2	9.72e-03	0	42	0	30408704	66	8422
2026-01-17 10:50:26.35	192.20	9.18	-46.5	-51.2	13.3	0.00e+00	0	43	0	35651584	63	6571
2026-01-17 10:50:29.34	192.40	9.41	-47.3	-53.1	11.2	1.60e-05	0	42	0	38797312	65	7364
2026-01-17 10:50:32.32	192.60	9.65	-45.6	-49.4	14.8	0.00e+00	0	43	0	44040192	63	5361
2026-01-17 10:50:35.30	192.81	9.89	-45.0	-48.3	15.9	0.00e+00	0	42	0	49283072	62	5037
2026-01-17 10:50:38.35	193.03	10.13	-44.6	-47.8	16.3	0.00e+00	0	43	0	55574528	61	5007
2026-01-17 10:50:41.26	193.24	10.37	-44.5	-47.6	16.5	0.00e+00	0	42	0	60817408	61	4911
2026-01-17 10:50:44.24	193.46	10.61	-44.6	-47.7	16.4	0.00e+00	0	42	0	66060288	61	4954
2026-01-17 10:50:47.54	193.70	10.89	-44.6	-47.6	16.7	0.00e+00	0	43	0	72351744	61	4889
2026-01-17 10:50:50.24	193.90	11.11	-44.4	-47.3	16.9	0.00e+00	0	43	0	77594624	60	5028
2026-01-17 10:50:53.52	194.16	11.39	-44.3	-47.2	16.9	0.00e+00	0	43	0	83886080	60	4960
2026-01-17 10:50:56.23	194.37	11.62	-44.3	-47.2	16.9	0.00e+00	0	43	0	89128960	60	4959
2026-01-17 10:50:59.96	194.66	11.94	-44.2	-47.1	17.1	0.00e+00	0	43	0	95420416	60	4904
2026-01-17 10:51:02.88	194.90	12.19	-44.4	-47.4	16.9	0.00e+00	0	43	0	101711872	60	5043
2026-01-17 10:51:06.88	195.23	12.54	-44.2	-47.1	17.0	0.00e+00	0	43	0	109051904	60	4894
2026-01-17 10:51:09.83	195.48	12.80	-44.1	-47.0	17.1	0.00e+00	0	43	0	114294784	60	4817
2026-01-17 10:51:13.51	195.80	13.13	-44.0	-46.8	17.1	0.00e+00	0	43	0	121634816	59	5018
2026-01-17 10:51:16.22	196.03	13.37	-43.7	-46.8	16.3	0.00e+00	0	43	0	126877696	59	5008
2026-01-17 10:51:19.52	196.33	13.67	-43.4	-46.5	16.2	0.00e+00	0	43	0	132120576	58	5120
2026-01-17 10:51:22.24	196.57	13.92	-43.4	-46.4	16.6	0.00e+00	0	43	0	137363456	58	5065
2026-01-17 10:51:25.51	196.88	14.22	-43.6	-46.3	17.7	0.00e+00	0	43	0	143654912	58	5030
2026-01-17 10:51:28.22	197.13	14.48	-43.7	-46.3	17.9	0.00e+00	0	43	0	148897792	58	5030
2026-01-17 10:51:31.59	197.45	14.79	-43.8	-46.4	17.8	0.00e+00	0	43	0	155189248	58	5087
2026-01-17 10:51:34.46	197.73	15.07	-43.9	-46.6	17.6	0.00e+00	0	43	0	160432128	58	5175
2026-01-17 10:51:37.84	198.07	15.39	-43.9	-46.6	17.7	0.00e+00	0	43	0	166723584	58	5173
2026-01-17 10:51:40.54	198.34	15.65	-44.1	-46.8	17.5	0.00e+00	0	43	0	171966464	58	5293
2026-01-17 10:51:43.81	198.68	15.97	-44.2	-46.9	17.4	0.00e+00	0	43	0	178257920	59	5064
2026-01-17 10:51:46.60	198.97	16.25	-44.3	-47.0	17.3	0.00e+00	0	43	0	183500800	59	5127
2026-01-17 10:51:50.25	199.37	16.62	-44.2	-46.8	17.5	0.00e+00	0	43	0	189792256	59	5021
2026-01-17 10:51:52.95	199.66	16.89	-44.2	-46.9	17.5	0.00e+00	0	43	0	195035136	59	5082
2026-01-17 10:51:56.22	200.03	17.22	-44.1	-46.7	17.7	0.00e+00	0	43	0	201326592	59	4947
2026-01-17 10:51:58.94	200.34	17.50	-43.9	-46.4	17.9	0.00e+00	0	43	0	206569472	59	4808
2026-01-17 10:52:02.49	200.75	17.87	-43.8	-46.4	17.9	0.00e+00	0	43	0	212860928	59	4791
2026-01-17 10:52:05.21	201.07	18.16	-43.9	-46.5	17.9	0.00e+00	0	43	0	218103808	59	4849
2026-01-17 10:52:08.49	201.47	18.50	-43.9	-46.4	18.0	0.00e+00	0	43	0	224395264	59	4762
2026-01-17 10:52:11.21	201.81	18.79	-44.0	-46.5	17.9	0.00e+00	0	43	0	229638144	59	4847
2026-01-17 10:52:14.48	202.22	19.15	-44.0	-46.6	17.8	0.00e+00	0	43	0	235929600	59	4872
2026-01-17 10:52:17.18	202.57	19.44	-44.1	-46.7	17.7	0.00e+00	0	43	0	241172480	59	4968
2026-01-17 10:52:20.64	203.03	19.82	-44.3	-46.9	17.6	0.00e+00	0	43	0	247463936	59	5063
2026-01-17 10:52:23.67	203.44	20.16	-44.4	-47.0	17.4	0.00e+00	0	43	0	252706816	59	5156
2026-01-17 10:52:26.85	203.87	20.52	-44.4	-47.0	17.4	0.00e+00	0	43	0	258998272	59	5141
2026-01-17 10:52:29.83	204.29	20.85	-44.5	-47.2	17.3	0.00e+00	0	43	0	264241152	59	5226
2026-01-17 10:52:32.82	204.72	21.20	-44.5	-47.2	17.3	0.00e+00	0	43	0	270532608	59	5225
2026-01-17 10:52:35.74	205.15	21.53	-44.4	-47.1	17.3	0.00e+00	0	43	0	275775488	59	5204
2026-01-17 10:52:38.86	205.62	21.90	-44.4	-47.0	17.5	0.00e+00	0	43	0	281018368	59	5152
2026-01-17 10:52:41.71	206.06	22.23	-44.4	-47.0	17.5	0.00e+00	0	43	0	286261248	59	5120
2026-01-17 10:52:44.83	206.55	22.60	-44.4	-47.0	17.5	0.00e+00	0	43	0	292552704	59	5138
2026-01-17 10:52:47.72	207.01	22.94	-44.5	-47.2	17.4	0.00e+00	0	43	0	297795584	59	5226
2026-01-17 10:52:50.85	207.53	23.32	-44.4	-47.0	17.4	0.00e+00	0	43	0	304087040	59	5156
2026-01-17 10:52:53.69	208.01	23.66	-44.5	-47.1	17.4	0.00e+00	0	43	0	309329920	59	5200
2026-01-17 10:52:56.82	208.54	24.05	-44.5	-47.1	17.4	0.00e+00	0	43	0	314572800	59	5202
2026-01-17 10:52:59.66	209.04	24.40	-44.5	-47.2	17.3	0.00e+00	0	43	0	320864256	59	5234
2026-01-17 10:53:02.78	209.60	24.78	-44.6	-47.3	17.2	0.00e+00	0	43	0	326107136	59	5305
2026-01-17 10:53:05.62	210.13	25.14	-44.9	-47.7	16.9	0.00e+00	0	43	0	331350016	60	5254
2026-01-17 10:53:08.89	210.74	25.55	-44.7	-47.5	17.1	0.00e+00	0	43	0	337641472	60	5144
2026-01-17 10:53:11.61	211.27	25.89	-44.8	-47.5	17.1	0.00e+00	0	43	0	342884352	60	5155
2026-01-17 10:53:14.90	211.92	26.31	-44.8	-47.6	17.1	0.00e+00	0	43	0	349175808	60	5163
2026-01-17 10:53:17.60	212.46	26.66	-44.8	-47.5	17.1	0.00e+00	0	43	0	354418688	60	5154
2026-01-17 10:53:20.89	213.14	27.08	-45.0	-47.9	16.8	0.00e+00	0	43	0	360710144	60	5355
2026-01-17 10:53:23.59	213.71	27.43	-45.0	-47.8	16.8	0.00e+00	0	43	0	364904448	60	5328
2026-01-17 10:53:26.85	214.42	27.85	-44.9	-47.7	16.9	0.00e+00	0	43	0	371195904	60	5269
2026-01-17 10:53:29.57	215.03	28.21	-45.1	-48.0	16.7	0.00e+00	0	43	0	376438784	60	5408
2026-01-17 10:53:32.86	215.77	28.64	-45.2	-48.2	16.5	0.00e+00	0	43	0	382730240	61	5228
2026-01-17 10:53:35.58	216.41	29.00	-45.1	-48.0	16.7	0.00e+00	0	43	0	387973120	61	5103
2026-01-17 10:53:38.84	217.19	29.43	-45.2	-48.2	16.5	0.00e+00	0	43	0	394264576	61	5232
2026-01-17 10:53:41.55	217.85	29.78	-45.2	-48.1	16.5	0.00e+00	0	43	0	398458880	61	5211
2026-01-17 10:53:44.83	218.67	30.22	-45.2	-48.1	16.5	0.00e+00	0	43	0	404750336	61	5216
2026-01-17 10:53:47.66	219.40	30.59	-45.5	-48.5	16.2	0.00e+00	0	43	0	409993216	61	5427
2026-01-17 10:53:50.79	220.22	31.00	-45.4	-48.3	16.4	0.00e+00	0	43	0	416284672	61	5320
2026-01-17 10:53:53.63	220.98	31.38	-45.4	-48.3	16.4	0.00e+00	0	43	0	421527552	61	5297
2026-01-17 10:53:56.83	221.87	31.80	-45.7	-48.7	16.0	0.00e+00	0	43	0	427819008	62	5252
2026-01-17 10:53:59.71	222.68	32.17	-45.7	-48.8	15.9	0.00e+00	0	43	0	433061888	62	5322
2026-01-17 10:54:03.25	223.71	32.63	-46.0	-49.2	15.5	0.00e+00	0	43	0	439353344	62	5565
2026-01-17 10:54:05.97	224.51	32.98	-46.2	-49.6	15.2	0.00e+00	0	43	0	444596224	63	5465
2026-01-17 10:54:09.25	225.51	33.41	-46.0	-49.4	15.3	0.00e+00	0	43	0	450887680	63	5371
2026-01-17 10:54:11.95	226.35	33.75	-46.3	-49.8	15.0	0.00e+00	0	44	0	456130560	63	5607
2026-01-17 10:54:15.24	227.40	34.16	-46.5	-50.0	14.8	0.00e+00	0	43	0	462422016	63	5743
2026-01-17 10:54:17.94	228.28	34.50	-46.9	-50.8	13.9	2.20e-06	0	43	0	467664896	64	5977
2026-01-17 10:54:21.23	229.37	34.91	-46.6	-50.3	14.4	1.50e-06	0	43	0	472907776	64	5624
2026-01-17 10:54:24.10	230.35	35.25	-46.5	-50.0	14.6	0.00e+00	0	43	0	479199232	64	5437
2026-01-17 10:54:27.45	231.51	35.65	-46.8	-50.6	14.1	7.00e-07	0	44	0	485490688	64	5791
2026-01-17 10:54:30.33	232.54	35.99	-46.6	-50.1	14.6	7.00e-07	0	43	0	490733568	64	5511
2026-01-17 10:54:33.45	233.67	36.34	-46.2	-49.7	15.0	0.00e+00	0	43	0	495976448	64	5229
2026-01-17 10:54:36.29	234.73	36.66	-46.2	-49.7	15.0	0.00e+00	0	43	0	501219328	64	5221
2026-01-17 10:54:39.42	235.91	37.00	-46.8	-50.4	14.3	3.00e-06	0	43	0	507510784	64	5691
2026-01-17 10:54:42.26	237.01	37.30	-46.0	-49.1	15.5	7.00e-07	0	43	0	512753664	63	5174
2026-01-17 10:54:45.39	238.24	37.62	-45.4	-48.4	16.3	0.00e+00	0	43	0	519045120	62	5049
2026-01-17 10:54:48.23	239.38	37.90	-45.8	-48.8	15.9	0.00e+00	0	43	0	524288000	62	5330
2026-01-17 10:54:51.36	240.65	38.19	-45.4	-48.3	16.4	0.00e+00	0	43	0	529530880	62	4992
2026-01-17 10:54:54.21	241.83	38.45	-45.7	-48.7	16.0	0.00e+00	0	44	0	534773760	62	5273
2026-01-17 10:54:57.36	243.16	38.72	-45.7	-48.9	15.8	0.00e+00	0	43	0	541065216	62	5359
2026-01-17 10:55:00.21	244.37	38.95	-46.2	-49.4	15.3	0.00e+00	0	43	0	546308096	63	5397
2026-01-17 10:55:03.57	245.83	39.21	-45.7	-48.8	16.0	0.00e+00	0	43	0	552599552	63	5001
2026-01-17 10:55:06.50	247.12	39.42	-45.9	-49.0	15.8	0.00e+00	0	43	0	557842432	63	5135
2026-01-17 10:55:09.77	248.57	39.64	-45.8	-48.9	15.8	0.00e+00	0	43	0	564133888	63	5088
2026-01-17 10:55:12.49	249.80	39.80	-45.0	-47.8	16.9	0.00e+00	0	43	0	569376768	62	4759
2026-01-17 10:55:15.78	251.30	39.98	-45.6	-48.7	16.1	0.00e+00	0	43	0	575668224	61	5530
2026-01-17 10:55:18.59	252.59	40.12	-45.9	-49.1	15.7	0.00e+00	0	44	0	580911104	63	5174
2026-01-17 10:55:22.00	254.17	40.26	-44.7	-47.4	17.3	0.00e+00	0	44	0	587202560	61	4765
2026-01-17 10:55:24.71	255.43	40.36	-45.5	-48.4	16.3	0.00e+00	0	44	0	592445440	61	5392
2026-01-17 10:55:27.98	256.97	40.46	-46.0	-49.2	15.6	0.00e+00	0	44	0	598736896	63	5234
2026-01-17 10:55:30.68	258.25	40.52	-46.0	-49.3	15.5	0.00e+00	0	43	0	603979776	63	5283
2026-01-17 10:55:34.06	259.85	40.58	-47.5	-51.8	12.8	2.59e-05	0	44	0	610271232	65	6321
2026-01-17 10:55:36.76	261.13	40.61	-47.4	-51.7	13.0	5.64e-05	0	43	0	614465536	66	5891
2026-01-17 10:55:40.22	262.77	40.63	-46.6	-50.2	14.5	0.00e+00	0	43	0	621805568	65	5272
2026-01-17 10:55:42.93	264.06	40.62	-46.4	-50.0	14.8	0.00e+00	0	43	0	627048448	64	5405
2026-01-17 10:55:46.20	265.62	40.59	-45.9	-49.1	15.7	0.00e+00	0	44	0	632291328	63	5175
2026-01-17 10:55:48.90	266.90	40.55	-45.9	-49.1	15.7	0.00e+00	0	43	0	637534208	63	5185
2026-01-17 10:55:52.12	268.42	40.48	-45.8	-49.0	15.8	0.00e+00	0	43	0	643825664	63	5117
2026-01-17 10:55:55.23	269.88	40.39	-45.6	-48.6	16.2	0.00e+00	0	43	0	650117120	63	4897
2026-01-17 10:55:58.25	271.29	40.29	-45.9	-49.1	15.7	0.00e+00	0	44	0	655360000	62	5511
2026-01-17 10:56:01.53	272.81	40.15	-46.1	-49.4	15.5	0.00e+00	0	43	0	661651456	62	5665
2026-01-17 10:56:04.27	274.07	40.02	-46.3	-49.6	15.2	0.00e+00	0	43	0	666894336	63	5491
2026-01-17 10:56:07.56	275.57	39.85	-46.6	-50.1	14.7	0.00e+00	0	43	0	673185792	63	5854
2026-01-17 10:56:10.29	276.80	39.68	-46.8	-50.5	14.2	3.00e-06	0	43	0	677380096	64	5736
2026-01-17 10:56:13.60	278.28	39.47	-46.5	-50.2	14.5	0.00e+00	0	43	0	683671552	64	5544
2026-01-17 10:56:16.69	279.64	39.26	-46.0	-49.2	15.6	0.00e+00	0	43	0	689963008	63	5260
2026-01-17 10:56:19.82	281.00	39.02	-46.6	-50.2	14.5	1.50e-06	0	43	0	695205888	64	5544
2026-01-17 10:56:22.66	282.21	38.79	-45.3	-48.2	16.6	0.00e+00	0	43	0	701497344	62	4942
2026-01-17 10:56:25.79	283.53	38.53	-45.6	-48.7	16.1	0.00e+00	0	43	0	706740224	62	5239
2026-01-17 10:56:28.71	284.74	38.27	-44.7	-47.3	17.4	0.00e+00	0	43	0	711983104	61	4742
2026-01-17 10:56:31.88	286.03	37.97	-44.6	-47.2	17.5	0.00e+00	0	43	0	718274560	60	4955
2026-01-17 10:56:34.84	287.22	37.69	-43.4	-45.8	18.8	0.00e+00	0	43	0	723517440	58	4723
2026-01-17 10:56:37.97	288.45	37.37	-44.3	-46.9	17.7	0.00e+00	0	43	0	729808896	59	5062
2026-01-17 10:56:40.81	289.55	37.08	-43.5	-45.8	18.7	0.00e+00	0	43	0	735051776	59	4472
2026-01-17 10:56:43.94	290.73	36.74	-43.4	-45.7	18.9	0.00e+00	0	44	0	741343232	58	4662
2026-01-17 10:56:46.88	291.83	36.41	-42.5	-44.7	19.7	0.00e+00	0	43	0	746586112	56	4697
2026-01-17 10:56:50.06	292.98	36.06	-43.7	-46.2	18.4	0.00e+00	0	44	0	752877568	58	4930
2026-01-17 10:56:52.91	294.00	35.73	-43.1	-45.4	19.1	0.00e+00	0	44	0	758120448	58	4534
2026-01-17 10:56:56.03	295.08	35.36	-44.3	-47.0	17.6	0.00e+00	0	43	0	763363328	59	5127
2026-01-17 10:56:58.88	296.06	35.02	-44.0	-46.5	18.1	0.00e+00	0	43	0	768606208	59	4860
2026-01-17 10:57:02.00	297.10	34.64	-44.6	-47.3	17.3	0.00e+00	0	43	0	774897664	59	5295
2026-01-17 10:57:04.84	298.02	34.29	-44.0	-46.5	18.1	0.00e+00	0	43	0	780140544	60	4557
2026-01-17 10:57:08.11	299.07	33.88	-45.1	-48.0	16.7	0.00e+00	0	43	0	786432000	60	5450
2026-01-17 10:57:10.85	299.92	33.53	-44.8	-47.6	17.1	0.00e+00	0	44	0	791674880	61	4915
2026-01-17 10:57:14.07	300.90	33.12	-45.2	-48.2	16.5	0.00e+00	0	44	0	796917760	61	5256
2026-01-17 10:57:16.91	301.75	32.76	-45.6	-48.9	15.9	0.00e+00	0	43	0	803209216	62	5389
2026-01-17 10:57:20.04	302.66	32.35	-45.0	-47.9	16.8	0.00e+00	0	43	0	808452096	61	5093
2026-01-17 10:57:22.93	303.48	31.98	-46.3	-49.8	14.9	1.50e-06	0	44	0	813694976	63	5638
2026-01-17 10:57:26.12	304.36	31.56	-44.5	-47.1	17.6	0.00e+00	0	44	0	819986432	60	4901
2026-01-17 10:57:28.96	305.13	31.19	-46.0	-49.3	15.5	0.00e+00	0	43	0	825229312	62	5630
2026-01-17 10:57:32.09	305.96	30.78	-46.0	-49.4	15.4	7.00e-07	0	44	0	831520768	63	5352
2026-01-17 10:57:35.15	306.75	30.38	-45.3	-48.2	16.5	0.00e+00	0	43	0	836763648	62	4976
2026-01-17 10:57:38.48	307.59	29.95	-46.3	-49.8	14.9	0.00e+00	0	44	0	843055104	63	5631
2026-01-17 10:57:41.20	308.25	29.59	-43.9	-46.4	18.1	0.00e+00	0	44	0	848297984	59	4789
2026-01-17 10:57:44.77	309.11	29.12	-45.0	-47.9	16.8	0.00e+00	0	44	0	854589440	60	5365
2026-01-17 10:57:47.48	309.74	28.77	-44.7	-47.4	17.3	0.00e+00	0	44	0	859832320	61	4775
2026-01-17 10:57:50.75	310.49	28.34	-43.6	-46.0	18.5	0.00e+00	0	44	0	866123776	59	4581
2026-01-17 10:57:53.58	311.12	27.98	-44.6	-47.3	17.3	0.00e+00	0	43	0	871366656	59	5319
2026-01-17 10:57:56.70	311.79	27.58	-43.8	-46.3	18.2	0.00e+00	0	43	0	877658112	59	4722
2026-01-17 10:57:59.55	312.40	27.21	-43.3	-45.7	18.8	0.00e+00	0	43	0	882900992	58	4684
2026-01-17 10:58:02.68	313.05	26.81	-43.6	-46.1	18.4	0.00e+00	0	44	0	888143872	58	4918
2026-01-17 10:58:05.52	313.62	26.45	-42.8	-45.2	19.2	0.00e+00	0	43	0	893386752	57	4660
2026-01-17 10:58:08.64	314.24	26.05	-41.6	-43.7	20.4	0.00e+00	0	44	0	899678208	55	4432
2026-01-17 10:58:11.71	314.83	25.67	-42.6	-44.9	19.3	0.00e+00	0	44	0	905969664	55	5097
2026-01-17 10:58:14.72	315.40	25.29	-43.3	-45.7	18.8	0.00e+00	0	43	0	911212544	57	4927
2026-01-17 10:58:18.15	316.03	24.87	-42.4	-44.6	19.8	0.00e+00	0	44	0	917504000	56	4605
2026-01-17 10:58:20.87	316.52	24.53	-42.4	-44.6	19.7	0.00e+00	0	44	0	922746880	56	4650
2026-01-17 10:58:24.15	317.10	24.13	-43.2	-45.6	18.8	0.00e+00	0	43	0	929038336	57	4892
2026-01-17 10:58:27.11	317.60	23.77	-42.4	-44.7	19.7	0.00e+00	0	44	0	934281216	56	4668
2026-01-17 10:58:30.09	318.10	23.41	-41.8	-43.9	20.2	0.00e+00	0	43	0	939524096	55	4545
2026-01-17 10:58:33.07	318.59	23.06	-42.3	-44.5	19.6	0.00e+00	0	43	0	945815552	55	4863
2026-01-17 10:58:36.05	319.07	22.70	-42.9	-45.3	19.1	0.00e+00	0	43	0	951058432	56	5013
2026-01-17 10:58:39.04	319.54	22.35	-42.8	-45.2	19.2	0.00e+00	0	43	0	956301312	56	4962
2026-01-17 10:58:42.02	320.00	22.00	-42.8	-45.3	19.1	0.00e+00	0	44	0	962592768	56	4987
2026-01-17 10:58:45.01	320.45	21.66	-43.3	-45.8	18.6	0.00e+00	0	44	0	967835648	57	5006
2026-01-17 10:58:47.99	320.89	21.32	-42.9	-45.3	19.0	0.00e+00	0	44	0	973078528	57	4750
2026-01-17 10:58:50.98	321.32	20.98	-42.4	-44.7	19.6	0.00e+00	0	43	0	979369984	56	4690
2026-01-17 10:58:53.97	321.74	20.64	-42.7	-45.1	19.3	0.00e+00	0	43	0	984612864	56	4881
2026-01-17 10:58:56.95	322.15	20.31	-43.4	-45.9	18.6	0.00e+00	0	44	0	989855744	57	5043
2026-01-17 10:58:59.94	322.55	19.98	-43.7	-46.3	18.1	0.00e+00	0	44	0	996147200	58	5007
2026-01-17 10:59:02.92	322.95	19.65	-43.6	-46.1	18.3	0.00e+00	0	43	0	1001390080	58	4923
2026-01-17 10:59:05.99	323.35	19.32	-43.9	-46.5	17.9	0.00e+00	0	44	0	1007681536	58	5134
2026-01-17 10:59:08.83	323.71	19.02	-44.4	-47.4	17.1	0.00e+00	0	43	0	1012924416	59	5355
2026-01-17 10:59:11.95	324.10	18.68	-44.6	-47.7	16.9	0.00e+00	0	43	0	1018167296	60	5226
2026-01-17 10:59:14.84	324.45	18.38	-44.0	-46.7	17.8	0.00e+00	0	43	0	1023410176	60	4676
2026-01-17 10:59:18.08	324.84	18.04	-43.5	-46.0	18.4	0.00e+00	0	43	0	1029701632	58	4833
2026-01-17 10:59:20.94	325.17	17.75	-43.7	-46.2	18.2	0.00e+00	0	43	0	1034944512	58	4950
2026-01-17 10:59:24.06	325.53	17.43	-43.9	-46.6	17.8	0.00e+00	0	43	0	1041235968	58	5177
2026-01-17 10:59:26.91	325.85	17.14	-44.1	-47.0	17.4	0.00e+00	0	43	0	1046478848	58	5458
2026-01-17 10:59:30.03	326.20	16.82	-44.1	-47.1	17.3	0.00e+00	0	43	0	1052770304	58	5502
2026-01-17 10:59:32.87	326.50	16.54	-44.0	-46.8	17.6	0.00e+00	0	43	0	1058013184	58	5311
2026-01-17 10:59:36.08	326.85	16.22	-43.8	-46.6	17.8	0.00e+00	0	43	0	1063256064	58	5186
2026-01-17 10:59:38.92	327.14	15.95	-43.7	-46.5	17.9	0.00e+00	0	43	0	1068498944	58	5109
2026-01-17 10:59:42.05	327.46	15.64	-43.8	-46.6	17.7	0.00e+00	0	44	0	1074790400	58	5185
2026-01-17 10:59:44.89	327.75	15.37	-44.1	-47.0	17.4	0.00e+00	0	43	0	1080033280	58	5422
2026-01-17 10:59:48.01	328.06	15.07	-44.2	-47.0	17.4	0.00e+00	0	43	0	1086324736	59	5133
2026-01-17 10:59:50.85	328.33	14.81	-44.2	-46.9	17.4	0.00e+00	0	43	0	1091567616	59	5066
2026-01-17 10:59:54.10	328.64	14.50	-44.1	-46.8	17.6	0.00e+00	0	43	0	1097859072	59	4995
2026-01-17 10:59:56.96	328.91	14.24	-44.1	-46.7	17.6	0.00e+00	0	44	0	1103101952	59	4965
2026-01-17 11:00:00.09	329.20	13.95	-44.1	-46.8	17.5	0.00e+00	0	43	0	1108344832	59	5037
2026-01-17 11:00:03.04	329.47	13.69	-44.3	-47.0	17.3	0.00e+00	0	43	0	1114636288	59	5138
2026-01-17 11:00:06.03	329.73	13.42	-44.5	-47.3	17.1	0.00e+00	0	44	0	1119879168	59	5282
2026-01-17 11:00:09.01	329.99	13.15	-44.7	-47.5	16.7	0.00e+00	0	43	0	1125122048	59	5462
2026-01-17 11:00:12.00	330.25	12.89	-44.5	-47.4	16.9	0.00e+00	0	43	0	1131413504	59	5372
2026-01-17 11:00:14.98	330.50	12.63	-44.5	-47.3	16.9	0.00e+00	0	43	0	1136656384	59	5333
2026-01-17 11:00:17.96	330.75	12.37	-44.5	-47.3	17.0	0.00e+00	0	43	0	1141899264	59	5327
2026-01-17 11:00:20.94	330.99	12.11	-44.3	-47.0	17.2	0.00e+00	0	43	0	1148190720	59	5156
2026-01-17 11:00:23.93	331.23	11.86	-44.3	-47.0	17.2	0.00e+00	0	43	0	1153433600	59	5120
2026-01-17 11:00:26.91	331.47	11.61	-44.3	-47.0	17.2	0.00e+00	0	43	0	1158676480	59	5143
2026-01-17 11:00:29.90	331.70	11.36	-44.3	-47.1	17.1	0.00e+00	0	44	0	1164967936	59	5202
2026-01-17 11:00:32.85	331.92	11.11	-44.5	-47.4	16.8	0.00e+00	0	44	0	1170210816	59	5366
2026-01-17 11:00:36.12	332.17	10.84	-44.5	-47.5	16.6	0.00e+00	0	44	0	1176502272	59	5440
2026-01-17 11:00:38.83	332.37	10.62	-44.7	-47.8	16.5	0.00e+00	0	43	0	1181745152	60	5283
2026-01-17 11:00:42.10	332.61	10.36	-44.9	-48.0	16.3	0.00e+00	0	43	0	1186988032	60	5404
2026-01-17 11:00:44.82	332.80	10.14	-45.1	-48.3	15.4	0.00e+00	0	43	0	1192230912	60	5619
2026-01-17 11:00:48.14	333.04	9.88	-45.0	-48.2	14.8	0.00e+00	0	43	0	1198522368	60	5584
2026-01-17 11:00:50.96	333.24	9.66	-45.0	-48.4	14.1	0.00e+00	0	44	0	1203765248	60	5674
2026-01-17 11:00:54.25	333.46	9.40	-45.0	-48.4	15.4	0.00e+00	0	44	0	1210056704	60	5659
2026-01-17 11:00:56.95	333.64	9.19	-45.1	-48.4	15.8	0.00e+00	0	43	0	1215299584	60	5716
2026-01-17 11:01:00.23	333.86	8.94	-49.9	-65.3	3.8	6.29e-02	0	43	104	1220542464	70	22474
2026-01-17 11:01:02.93	334.04	8.73	-49.8	-65.9	3.8	1.49e+00	0	43	104	1220542464	70	24030
2026-01-17 11:01:06.21	334.25	8.48	-50.4	-66.1	3.8	1.49e+00	0	44	104	1220542464	71	23231
2026-01-17 11:01:08.94	334.43	8.28	-50.7	-66.1	3.8	1.49e+00	0	43	104	1220542464	72	22005
2026-01-17 11:01:12.22	334.63	8.03	-50.8	-66.2	3.8	1.49e+00	0	43	104	1220542464	72	22194
2026-01-17 11:01:15.01	334.80	7.83	-50.7	-66.2	3.8	1.49e+00	0	43	104	1220542464	72	22202
2026-01-17 11:01:18.28	335.00	7.59	-51.0	-66.2	3.8	1.49e+00	0	44	104	1220542464	72	22166
2026-01-17 11:01:21.04	335.17	7.39	-50.7	-66.2	3.8	1.49e+00	0	44	104	1220542464	72	22075
2026-01-17 11:01:24.34	335.37	7.15	-50.6	-66.1	3.8	1.49e+00	0	43	104	1220542464	72	21951
2026-01-17 11:01:27.06	335.53	6.95	-50.5	-66.1	3.8	1.49e+00	0	44	104	1220542464	72	21956
2026-01-17 11:01:30.34	335.71	6.72	-50.5	-66.1	3.8	1.49e+00	0	43	104	1220542464	72	21934
2026-01-17 11:01:33.04	335.87	6.53	-50.5	-66.1	3.8	1.49e+00	0	44	104	1220542464	72	21901
2026-01-17 11:01:36.31	336.05	6.30	-50.6	-66.1	3.8	1.49e+00	0	44	104	1220542464	72	21949
2026-01-17 11:01:39.03	336.20	6.11	-50.5	-66.1	3.8	1.49e+00	0	43	104	1220542464	72	21891
2026-01-17 11:01:42.29	336.38	5.89	-50.5	-66.1	3.8	1.49e+00	0	44	104	1220542464	72	21894
2026-01-17 11:01:44.99	336.53	5.70	-50.5	-66.1	3.8	1.49e+00	0	44	104	1220542464	72	21958
2026-01-17 11:01:48.25	336.70	5.48	-50.5	-66.1	3.8	1.49e+00	0	43	104	1220542464	72	21856
2026-01-17 11:01:50.94	336.84	5.30	-50.5	-66.1	3.8	1.49e+00	0	44	104	1220542464	72	21905
2026-01-17 11:01:54.22	337.02	5.08	-50.5	-66.1	3.8	1.49e+00	0	44	104	1220542464	72	21851

#Closed at: 2026-01-17 11:01:56
#Recorded file [1220 MB]: D:/Data/31040_260117_134929.dat