passes_logs/2026/01/17/T1/T1__20260117_064235_FENGYUN_3E_rec.log

#Pass ID: 20260117_064235_FENGYUN 3E
#Satellite: FENGYUN 3E
#Configuration: FENGYUN 3E
#almurnet v.1.7.20251203
#Start time: 2026-01-17 06:42:36

#Version: 2.0.20230620
#Station: T1
#Location: 37.570604 lon 55.790049 lat
#TLE: 1 49008U 21062A   26016.27412410  .00000434  00000+0  22502-3 0  9992
#TLE: 2 49008  98.7486  21.3880 0002096 134.9721 225.1626 14.19886506235025

#Time	Az	El	Level	Level2	SNR	BER	BlckErr	Temp	State	Recorded	gain1	gain2
2026-01-17 06:42:36.78	359.72	5.06	-46.7	-61.1	3.8	8.47e-01	0	41	0	0	62	20426
2026-01-17 06:42:38.77	359.48	5.15	-46.6	-61.1	3.8	8.46e-01	0	41	104	0	62	20455
2026-01-17 06:42:40.76	359.24	5.23	-46.6	-61.1	3.8	8.48e-01	0	41	104	0	62	20354
2026-01-17 06:42:42.76	358.99	5.31	-46.6	-61.1	3.8	8.46e-01	0	41	104	0	62	20484
2026-01-17 06:42:44.75	358.74	5.40	-46.6	-61.1	3.8	8.47e-01	0	41	104	0	62	20404
2026-01-17 06:42:46.74	358.49	5.48	-46.6	-61.1	3.8	8.47e-01	0	41	104	0	62	20477
2026-01-17 06:42:48.74	358.24	5.56	-46.6	-61.2	3.8	8.46e-01	0	41	104	0	62	20589
2026-01-17 06:42:50.73	357.99	5.64	-46.6	-61.1	3.8	8.47e-01	0	41	104	0	62	20527
2026-01-17 06:42:52.72	357.73	5.73	-46.6	-61.1	3.8	8.46e-01	0	41	104	0	62	20385
2026-01-17 06:42:54.72	357.48	5.81	-46.6	-61.1	3.8	8.46e-01	0	41	104	0	62	20456
2026-01-17 06:42:56.71	357.22	5.89	-46.5	-61.1	3.8	8.47e-01	0	41	104	0	62	20485
2026-01-17 06:42:58.70	356.96	5.97	-46.6	-61.1	3.8	8.47e-01	0	41	104	0	62	20442
2026-01-17 06:43:00.69	356.70	6.05	-46.5	-61.1	3.8	8.47e-01	0	42	104	0	62	20413
2026-01-17 06:43:02.69	356.44	6.13	-46.6	-61.1	3.8	8.47e-01	0	42	104	0	62	20510
2026-01-17 06:43:04.68	356.18	6.21	-46.6	-61.1	3.8	8.47e-01	0	42	104	0	62	20422
2026-01-17 06:43:06.67	355.91	6.29	-46.6	-61.1	3.8	8.47e-01	0	42	104	0	62	20420
2026-01-17 06:43:08.67	355.65	6.37	-46.6	-61.1	3.8	8.46e-01	0	42	104	0	62	20485
2026-01-17 06:43:10.66	355.38	6.45	-46.6	-61.1	3.8	8.47e-01	0	42	104	0	62	20369
2026-01-17 06:43:12.65	355.11	6.53	-46.6	-61.1	3.8	8.47e-01	0	42	104	0	62	20490
2026-01-17 06:43:14.65	354.84	6.61	-46.6	-61.1	3.8	8.46e-01	0	42	104	0	62	20355
2026-01-17 06:43:16.64	354.57	6.69	-46.6	-61.1	3.8	8.48e-01	0	42	104	0	62	20400
2026-01-17 06:43:18.64	354.29	6.77	-46.6	-61.0	3.8	8.46e-01	0	42	104	0	62	20291
2026-01-17 06:43:20.63	354.02	6.84	-46.6	-61.1	3.8	8.47e-01	0	42	104	0	62	20502
2026-01-17 06:43:22.62	353.74	6.92	-46.6	-61.1	3.8	8.47e-01	0	42	104	0	62	20427
2026-01-17 06:43:24.61	353.46	7.00	-46.6	-61.1	3.8	8.48e-01	0	42	104	0	62	20430
2026-01-17 06:43:26.61	353.18	7.07	-46.6	-61.1	3.8	8.46e-01	0	42	104	0	62	20448
2026-01-17 06:43:28.60	352.90	7.15	-46.6	-61.1	3.8	8.46e-01	0	42	104	0	62	20474
2026-01-17 06:43:30.59	352.62	7.22	-46.6	-61.1	3.8	8.48e-01	0	42	104	0	62	20517
2026-01-17 06:43:32.58	352.34	7.30	-46.6	-61.1	3.8	8.46e-01	0	43	104	0	62	20397
2026-01-17 06:43:34.57	352.05	7.37	-46.6	-61.1	3.8	8.47e-01	0	42	104	0	62	20409
2026-01-17 06:43:36.57	351.76	7.45	-46.7	-61.1	3.8	8.47e-01	0	43	104	0	62	20458
2026-01-17 06:43:38.56	351.48	7.52	-46.6	-61.0	3.8	8.47e-01	0	43	104	0	62	20283
2026-01-17 06:43:40.55	351.19	7.60	-46.7	-61.0	3.8	8.46e-01	0	42	104	0	62	20195
2026-01-17 06:43:42.55	350.89	7.67	-46.7	-61.0	3.8	8.46e-01	0	43	104	0	62	20123
2026-01-17 06:43:44.54	350.60	7.74	-46.6	-61.0	3.8	8.46e-01	0	43	104	0	62	20236
2026-01-17 06:43:46.53	350.31	7.81	-46.6	-61.0	3.8	8.46e-01	0	43	104	0	62	20296
2026-01-17 06:43:48.53	350.01	7.88	-46.6	-61.1	3.8	8.47e-01	0	43	104	0	62	20482
2026-01-17 06:43:50.52	349.71	7.95	-46.6	-61.1	3.8	8.46e-01	0	43	104	0	62	20345
2026-01-17 06:43:52.51	349.41	8.02	-46.6	-61.2	3.8	8.47e-01	0	43	104	0	62	20553
2026-01-17 06:43:54.51	349.11	8.09	-46.7	-60.9	3.8	8.47e-01	0	43	104	0	62	20067
2026-01-17 06:43:56.50	348.81	8.16	-46.6	-60.7	3.8	8.47e-01	0	43	104	0	62	19519
2026-01-17 06:43:58.49	348.51	8.23	-46.6	-60.8	3.8	8.46e-01	0	43	104	0	62	19816
2026-01-17 06:44:00.46	348.21	8.30	-46.6	-60.9	3.8	8.46e-01	0	43	104	0	62	20026
2026-01-17 06:44:02.45	347.90	8.37	-46.6	-60.7	3.8	8.47e-01	0	43	104	0	62	19594
2026-01-17 06:44:04.44	347.59	8.43	-46.6	-60.5	3.8	8.46e-01	0	43	104	0	62	19007
2026-01-17 06:44:06.43	347.28	8.50	-46.6	-60.7	3.8	8.47e-01	0	43	104	0	62	19455
2026-01-17 06:44:08.42	346.97	8.56	-46.6	-60.7	3.8	8.47e-01	0	43	104	0	62	19612
2026-01-17 06:44:10.41	346.66	8.63	-46.6	-59.7	3.8	8.47e-01	0	43	104	0	62	17474
2026-01-17 06:44:12.41	346.35	8.69	-46.5	-58.8	4.0	8.44e-01	0	43	104	0	62	15618
2026-01-17 06:44:14.40	346.03	8.76	-46.4	-57.6	4.2	8.40e-01	0	43	0	0	62	13591
2026-01-17 06:44:16.40	345.72	8.82	-46.3	-56.1	4.7	8.10e-01	0	43	0	0	62	11490
2026-01-17 06:44:18.39	345.40	8.88	-46.0	-54.3	5.8	6.18e-01	0	43	0	0	62	9356
2026-01-17 06:44:20.38	345.08	8.94	-44.9	-50.1	9.8	2.73e-02	0	43	0	14680064	60	6424
2026-01-17 06:44:22.38	344.76	9.00	-42.6	-45.3	14.6	5.70e-06	0	43	0	28311552	56	4686
2026-01-17 06:44:24.37	344.44	9.06	-41.6	-44.0	15.8	0.00e+00	0	43	0	42991616	53	4794
2026-01-17 06:44:26.38	344.11	9.12	-40.1	-41.9	18.0	0.00e+00	0	43	0	57671680	50	4480
2026-01-17 06:44:28.37	343.79	9.18	-40.8	-42.8	17.0	0.00e+00	0	43	0	72351744	51	4656
2026-01-17 06:44:30.37	343.46	9.24	-39.5	-41.3	18.5	0.00e+00	0	43	0	85983232	49	4409
2026-01-17 06:44:32.37	343.13	9.30	-39.4	-41.1	18.7	0.00e+00	0	43	0	100663296	49	4327
2026-01-17 06:44:34.38	342.80	9.35	-39.4	-41.0	18.8	0.00e+00	0	43	0	115343360	49	4263
2026-01-17 06:44:36.38	342.47	9.41	-39.6	-41.1	18.7	0.00e+00	0	43	0	130023424	49	4322
2026-01-17 06:44:38.37	342.14	9.46	-39.3	-40.7	19.1	0.00e+00	0	43	0	144703488	49	4127
2026-01-17 06:44:40.37	341.81	9.52	-39.2	-40.6	19.2	0.00e+00	0	43	0	158334976	49	4065
2026-01-17 06:44:42.37	341.47	9.57	-39.4	-40.8	19.0	0.00e+00	0	43	0	173015040	49	4157
2026-01-17 06:44:44.38	341.13	9.62	-39.3	-40.5	19.3	0.00e+00	0	43	0	187695104	49	4019
2026-01-17 06:44:46.38	340.80	9.68	-39.1	-40.3	19.5	0.00e+00	0	43	0	202375168	49	3921
2026-01-17 06:44:48.38	340.46	9.73	-39.3	-40.4	19.3	0.00e+00	0	43	0	216006656	49	3985
2026-01-17 06:44:50.38	340.12	9.78	-39.2	-40.3	19.4	0.00e+00	0	43	0	230686720	49	3940
2026-01-17 06:44:52.38	339.78	9.83	-39.3	-40.4	19.4	0.00e+00	0	43	0	245366784	49	3960
2026-01-17 06:44:54.38	339.43	9.87	-39.3	-40.4	19.3	0.00e+00	0	43	0	260046848	49	3985
2026-01-17 06:44:56.38	339.09	9.92	-39.4	-40.5	19.3	0.00e+00	0	43	0	274726912	49	4015
2026-01-17 06:44:58.39	338.75	9.97	-39.6	-40.7	19.1	0.00e+00	0	43	0	289406976	49	4117
2026-01-17 06:45:00.39	338.40	10.01	-39.6	-40.8	19.0	0.00e+00	0	43	0	303038464	49	4164
2026-01-17 06:45:02.39	338.05	10.06	-39.5	-40.7	19.1	0.00e+00	0	43	0	317718528	49	4130
2026-01-17 06:45:04.40	337.70	10.10	-39.6	-40.7	19.0	0.00e+00	0	43	0	332398592	49	4144
2026-01-17 06:45:06.40	337.36	10.15	-39.7	-40.8	19.0	0.00e+00	0	43	0	347078656	49	4169
2026-01-17 06:45:08.40	337.01	10.19	-39.6	-40.8	19.0	0.00e+00	0	43	0	360710144	49	4156
2026-01-17 06:45:10.39	336.66	10.23	-39.7	-40.9	18.9	0.00e+00	0	43	0	375390208	49	4207
2026-01-17 06:45:12.40	336.30	10.27	-39.7	-40.9	18.9	0.00e+00	0	43	0	390070272	49	4230
2026-01-17 06:45:14.40	335.95	10.31	-39.7	-40.8	19.0	0.00e+00	0	43	0	404750336	49	4190
2026-01-17 06:45:16.40	335.60	10.35	-39.9	-41.0	18.8	0.00e+00	0	43	0	419430400	49	4284
2026-01-17 06:45:18.40	335.24	10.38	-39.6	-40.7	19.1	0.00e+00	0	43	0	433061888	49	4134
2026-01-17 06:45:20.40	334.89	10.42	-39.5	-40.5	19.3	0.00e+00	0	43	0	447741952	49	4035
2026-01-17 06:45:22.41	334.53	10.45	-39.4	-40.4	19.4	0.00e+00	0	43	0	462422016	49	3992
2026-01-17 06:45:24.41	334.17	10.49	-39.3	-40.4	19.4	0.00e+00	0	43	0	477102080	49	3969
2026-01-17 06:45:26.41	333.81	10.52	-39.4	-40.5	19.3	0.00e+00	0	43	0	490733568	49	4007
2026-01-17 06:45:28.41	333.46	10.55	-39.7	-40.8	19.0	0.00e+00	0	43	0	505413632	49	4147
2026-01-17 06:45:30.42	333.09	10.58	-39.8	-40.9	18.9	0.00e+00	0	43	0	520093696	49	4228
2026-01-17 06:45:32.42	332.73	10.61	-39.9	-41.0	18.8	0.00e+00	0	43	0	534773760	49	4282
2026-01-17 06:45:34.42	332.37	10.64	-39.8	-40.9	18.9	0.00e+00	0	43	0	548405248	49	4230
2026-01-17 06:45:36.42	332.01	10.67	-39.8	-40.9	18.9	0.00e+00	0	43	0	563085312	49	4213
2026-01-17 06:45:38.42	331.65	10.70	-39.8	-40.9	19.0	0.00e+00	0	43	0	577765376	49	4194
2026-01-17 06:45:40.42	331.28	10.72	-39.7	-40.8	19.0	0.00e+00	0	43	0	592445440	49	4158
2026-01-17 06:45:42.43	330.92	10.75	-39.8	-40.9	19.0	0.00e+00	0	43	0	607125504	49	4199
2026-01-17 06:45:44.43	330.55	10.77	-39.6	-40.6	19.2	0.00e+00	0	43	0	620756992	49	4096
2026-01-17 06:45:46.43	330.19	10.79	-39.6	-40.7	19.1	0.00e+00	0	43	0	635437056	49	4115
2026-01-17 06:45:48.43	329.82	10.81	-39.6	-40.6	19.2	0.00e+00	0	43	0	650117120	49	4095
2026-01-17 06:45:50.43	329.46	10.83	-39.5	-40.5	19.3	0.00e+00	0	43	0	664797184	49	4034
2026-01-17 06:45:52.43	329.09	10.85	-39.3	-40.3	19.5	0.00e+00	0	43	0	678428672	49	3939
2026-01-17 06:45:54.43	328.72	10.87	-39.3	-40.3	19.5	0.00e+00	0	43	0	693108736	49	3933
2026-01-17 06:45:56.43	328.36	10.88	-39.3	-40.4	19.4	0.00e+00	0	43	0	707788800	49	3984
2026-01-17 06:45:58.43	327.99	10.90	-39.3	-40.4	19.4	0.00e+00	0	43	0	722468864	49	3974
2026-01-17 06:46:00.43	327.62	10.91	-39.2	-40.3	19.5	0.00e+00	0	43	0	736100352	49	3922
2026-01-17 06:46:02.42	327.25	10.93	-39.3	-40.3	19.5	0.00e+00	0	43	0	750780416	49	3955
2026-01-17 06:46:04.43	326.88	10.94	-39.3	-40.4	19.4	0.00e+00	0	43	0	765460480	49	3976
2026-01-17 06:46:06.43	326.51	10.95	-39.1	-40.3	19.6	0.00e+00	0	43	0	780140544	49	3914
2026-01-17 06:46:08.43	326.14	10.96	-39.1	-40.3	19.5	0.00e+00	0	43	0	793772032	48	4158
2026-01-17 06:46:10.43	325.77	10.97	-39.2	-40.3	19.5	0.00e+00	0	43	0	808452096	48	4177
2026-01-17 06:46:12.43	325.40	10.98	-39.2	-40.4	19.4	0.00e+00	0	43	0	823132160	48	4205
2026-01-17 06:46:14.43	325.03	10.98	-39.2	-40.3	19.5	0.00e+00	0	43	0	837812224	48	4179
2026-01-17 06:46:16.43	324.66	10.99	-39.4	-40.5	19.4	0.00e+00	0	43	0	852492288	48	4248
2026-01-17 06:46:18.43	324.29	10.99	-39.4	-40.5	19.3	0.00e+00	0	43	0	866123776	48	4288
2026-01-17 06:46:20.43	323.92	10.99	-39.4	-40.5	19.3	0.00e+00	0	43	0	880803840	48	4271
2026-01-17 06:46:22.43	323.55	11.00	-39.3	-40.4	19.4	0.00e+00	0	43	0	895483904	48	4216
2026-01-17 06:46:24.44	323.18	11.00	-39.3	-40.4	19.4	0.00e+00	0	43	0	910163968	48	4234
2026-01-17 06:46:26.43	322.81	11.00	-39.2	-40.2	19.6	0.00e+00	0	43	0	924844032	48	4132
2026-01-17 06:46:28.43	322.44	10.99	-39.3	-40.3	19.5	0.00e+00	0	43	0	939524096	48	4172
2026-01-17 06:46:30.44	322.06	10.99	-39.3	-40.3	19.5	0.00e+00	0	43	0	953155584	48	4170
2026-01-17 06:46:32.44	321.69	10.99	-39.3	-40.3	19.5	0.00e+00	0	43	0	967835648	48	4177
2026-01-17 06:46:34.44	321.32	10.98	-39.2	-40.3	19.5	0.00e+00	0	43	0	982515712	48	4173
2026-01-17 06:46:36.44	320.95	10.98	-39.3	-40.3	19.5	0.00e+00	0	43	0	997195776	48	4184
2026-01-17 06:46:38.45	320.58	10.97	-39.3	-40.3	19.5	0.00e+00	0	43	0	1010827264	48	4183
2026-01-17 06:46:40.45	320.21	10.96	-39.2	-40.3	19.6	0.00e+00	0	43	0	1025507328	48	4149
2026-01-17 06:46:42.45	319.84	10.95	-39.2	-40.3	19.5	0.00e+00	0	43	0	1040187392	48	4164
2026-01-17 06:46:44.45	319.47	10.94	-39.3	-40.4	19.5	0.00e+00	0	43	0	1054867456	48	4200
2026-01-17 06:46:46.45	319.10	10.93	-39.5	-40.6	19.2	0.00e+00	0	43	0	1068498944	48	4320
2026-01-17 06:46:48.45	318.73	10.91	-39.7	-40.7	19.1	0.00e+00	0	43	0	1083179008	48	4386
2026-01-17 06:46:50.45	318.36	10.90	-39.7	-40.8	19.0	0.00e+00	0	43	0	1097859072	48	4414
2026-01-17 06:46:52.45	318.00	10.88	-39.7	-40.8	19.1	0.00e+00	0	43	0	1112539136	49	4154
2026-01-17 06:46:54.45	317.63	10.87	-39.6	-40.7	19.2	0.00e+00	0	43	0	1127219200	49	4112
2026-01-17 06:46:56.45	317.26	10.85	-39.6	-40.6	19.2	0.00e+00	0	43	0	1140850688	49	4093
2026-01-17 06:46:58.46	316.89	10.83	-39.8	-40.9	18.9	0.00e+00	0	43	0	1155530752	49	4214
2026-01-17 06:47:00.46	316.52	10.81	-39.9	-40.9	18.9	0.00e+00	0	43	0	1170210816	49	4239
2026-01-17 06:47:02.46	316.16	10.79	-39.9	-41.0	18.8	0.00e+00	0	43	0	1184890880	49	4251
2026-01-17 06:47:04.47	315.79	10.77	-39.9	-41.0	18.8	0.00e+00	0	43	0	1198522368	49	4258
2026-01-17 06:47:06.47	315.43	10.74	-40.0	-41.1	18.7	0.00e+00	0	43	0	1213202432	49	4316
2026-01-17 06:47:08.47	315.06	10.72	-39.8	-40.8	19.1	0.00e+00	0	43	0	1227882496	49	4167
2026-01-17 06:47:10.47	314.70	10.69	-39.8	-40.8	19.0	0.00e+00	0	43	0	1242562560	49	4169
2026-01-17 06:47:12.48	314.33	10.67	-39.8	-40.9	18.9	0.00e+00	0	43	0	1256194048	49	4215
2026-01-17 06:47:14.48	313.97	10.64	-39.9	-41.0	18.9	0.00e+00	0	43	0	1270874112	49	4248
2026-01-17 06:47:16.48	313.61	10.61	-40.1	-41.2	18.6	0.00e+00	0	43	0	1285554176	49	4375
2026-01-17 06:47:18.49	313.25	10.58	-39.9	-41.1	18.7	0.00e+00	0	43	0	1300234240	49	4295
2026-01-17 06:47:20.49	312.89	10.55	-39.8	-40.9	18.9	0.00e+00	0	43	0	1314914304	49	4198
2026-01-17 06:47:22.49	312.53	10.52	-39.7	-40.8	19.0	0.00e+00	0	43	0	1329594368	49	4162
2026-01-17 06:47:24.49	312.17	10.48	-39.8	-40.9	18.9	0.00e+00	0	43	0	1343225856	49	4200
2026-01-17 06:47:26.50	311.81	10.45	-39.8	-40.9	18.9	0.00e+00	0	43	0	1357905920	49	4202
2026-01-17 06:47:28.50	311.45	10.41	-39.8	-40.8	18.9	0.00e+00	0	43	0	1372585984	49	4193
2026-01-17 06:47:30.50	311.10	10.38	-39.9	-40.9	18.8	0.00e+00	0	43	0	1387266048	49	4242
2026-01-17 06:47:32.50	310.74	10.34	-40.0	-41.1	18.7	0.00e+00	0	43	0	1400897536	49	4303
2026-01-17 06:47:34.50	310.39	10.30	-40.1	-41.2	18.6	0.00e+00	0	43	0	1415577600	49	4345
2026-01-17 06:47:36.51	310.03	10.26	-40.2	-41.3	18.5	0.00e+00	0	43	0	1430257664	49	4416
2026-01-17 06:47:38.51	309.68	10.22	-40.1	-41.2	18.6	0.00e+00	0	43	0	1444937728	50	4127
2026-01-17 06:47:40.50	309.33	10.18	-40.1	-41.2	18.6	0.00e+00	0	43	0	1459617792	50	4123
2026-01-17 06:47:42.50	308.98	10.14	-40.3	-41.4	18.4	0.00e+00	0	43	0	1473249280	50	4231
2026-01-17 06:47:44.50	308.63	10.10	-40.2	-41.3	18.5	0.00e+00	0	43	0	1487929344	50	4166
2026-01-17 06:47:46.51	308.28	10.05	-40.2	-41.3	18.4	0.00e+00	0	43	0	1502609408	50	4186
2026-01-17 06:47:48.51	307.93	10.01	-40.1	-41.2	18.6	0.00e+00	0	43	0	1517289472	50	4136
2026-01-17 06:47:50.51	307.59	9.96	-40.2	-41.3	18.6	0.00e+00	0	43	0	1530920960	50	4149
2026-01-17 06:47:52.51	307.24	9.92	-40.0	-41.1	18.7	0.00e+00	0	43	0	1545601024	50	4057
2026-01-17 06:47:54.51	306.90	9.87	-40.3	-41.4	18.4	0.00e+00	0	43	0	1560281088	50	4204
2026-01-17 06:47:56.51	306.55	9.82	-40.3	-41.4	18.4	0.00e+00	0	43	0	1574961152	50	4208
2026-01-17 06:47:58.51	306.21	9.77	-40.4	-41.6	18.2	0.00e+00	0	43	0	1588592640	50	4294
2026-01-17 06:48:00.51	305.87	9.72	-40.5	-41.6	18.1	0.00e+00	0	43	0	1603272704	50	4338
2026-01-17 06:48:02.52	305.53	9.67	-40.6	-41.8	18.1	0.00e+00	0	43	0	1617952768	50	4393
2026-01-17 06:48:04.52	305.19	9.62	-40.5	-41.6	18.2	0.00e+00	0	43	0	1632632832	50	4318
2026-01-17 06:48:06.52	304.86	9.57	-40.4	-41.5	18.2	0.00e+00	0	43	0	1647312896	50	4284
2026-01-17 06:48:08.52	304.52	9.51	-40.3	-41.4	18.3	0.00e+00	0	43	0	1660944384	50	4230
2026-01-17 06:48:10.52	304.19	9.46	-40.4	-41.6	18.2	0.00e+00	0	43	0	1675624448	50	4296
2026-01-17 06:48:12.52	303.85	9.40	-40.4	-41.5	18.3	0.00e+00	0	43	0	1690304512	50	4267
2026-01-17 06:48:14.53	303.52	9.35	-40.5	-41.7	18.1	0.00e+00	0	44	0	1704984576	50	4342
2026-01-17 06:48:16.53	303.19	9.29	-40.5	-41.6	18.2	0.00e+00	0	43	0	1719664640	50	4302
2026-01-17 06:48:18.53	302.86	9.23	-40.4	-41.5	18.3	0.00e+00	0	43	0	1733296128	50	4265
2026-01-17 06:48:20.53	302.53	9.18	-40.4	-41.6	18.2	0.00e+00	0	43	0	1747976192	50	4303
2026-01-17 06:48:22.54	302.20	9.12	-40.6	-41.7	18.0	0.00e+00	0	43	0	1762656256	50	4389
2026-01-17 06:48:24.54	301.88	9.06	-40.7	-41.8	18.0	0.00e+00	0	43	0	1777336320	50	4417
2026-01-17 06:48:26.54	301.55	9.00	-41.3	-42.5	17.2	0.00e+00	0	43	0	1792016384	52	4274
2026-01-17 06:48:28.53	301.23	8.93	-50.7	-61.4	3.8	8.47e-01	0	43	104	1794113536	70	13314
2026-01-17 06:48:30.52	300.91	8.87	-50.9	-61.7	3.8	8.47e-01	0	43	104	1794113536	71	13040
2026-01-17 06:48:32.51	300.59	8.81	-51.2	-61.8	3.8	8.47e-01	0	43	104	1794113536	71	13232
2026-01-17 06:48:34.50	300.28	8.75	-51.2	-61.9	3.8	8.47e-01	0	43	104	1794113536	71	13385
2026-01-17 06:48:36.50	299.96	8.68	-51.2	-61.9	3.8	8.47e-01	0	43	104	1794113536	71	13372
2026-01-17 06:48:38.49	299.65	8.62	-51.3	-62.0	3.8	8.47e-01	0	43	104	1794113536	71	13473
2026-01-17 06:48:40.48	299.33	8.55	-51.2	-61.9	3.8	8.46e-01	0	43	104	1794113536	72	12615
2026-01-17 06:48:42.47	299.02	8.49	-51.2	-61.9	3.8	8.46e-01	0	43	104	1794113536	72	12646
2026-01-17 06:48:44.46	298.71	8.42	-51.2	-61.9	3.8	8.47e-01	0	44	104	1794113536	72	12574
2026-01-17 06:48:46.46	298.40	8.36	-51.0	-61.9	3.8	8.48e-01	0	43	104	1794113536	72	12600
2026-01-17 06:48:48.45	298.10	8.29	-50.8	-61.8	3.8	8.46e-01	0	44	104	1794113536	72	12449
2026-01-17 06:48:50.44	297.79	8.22	-50.8	-61.8	3.8	8.48e-01	0	43	104	1794113536	72	12496
2026-01-17 06:48:52.43	297.49	8.15	-50.8	-61.8	3.8	8.46e-01	0	43	104	1794113536	72	12415
2026-01-17 06:48:54.43	297.18	8.08	-50.8	-61.8	3.8	8.47e-01	0	43	104	1794113536	72	12448
2026-01-17 06:48:56.42	296.88	8.01	-50.8	-61.8	3.8	8.47e-01	0	43	104	1794113536	72	12432
2026-01-17 06:48:58.41	296.58	7.94	-50.8	-61.8	3.8	8.46e-01	0	43	104	1794113536	72	12382
2026-01-17 06:49:00.41	296.28	7.87	-50.8	-61.7	3.8	8.47e-01	0	43	104	1794113536	72	12371
2026-01-17 06:49:02.40	295.98	7.80	-50.8	-61.8	3.8	8.47e-01	0	43	104	1794113536	72	12460
2026-01-17 06:49:04.39	295.69	7.73	-50.8	-61.7	3.8	8.48e-01	0	43	104	1794113536	72	12340
2026-01-17 06:49:06.39	295.39	7.66	-50.8	-61.8	3.8	8.48e-01	0	43	104	1794113536	72	12413
2026-01-17 06:49:08.38	295.10	7.58	-50.8	-61.8	3.8	8.47e-01	0	43	104	1794113536	72	12519
2026-01-17 06:49:10.37	294.81	7.51	-50.7	-61.8	3.8	8.47e-01	0	43	104	1794113536	72	12452
2026-01-17 06:49:12.37	294.52	7.44	-50.8	-61.8	3.8	8.47e-01	0	43	104	1794113536	72	12420
2026-01-17 06:49:14.36	294.23	7.36	-50.7	-61.8	3.8	8.47e-01	0	44	104	1794113536	72	12474
2026-01-17 06:49:16.35	293.94	7.29	-50.8	-61.7	3.8	8.46e-01	0	43	104	1794113536	72	12370
2026-01-17 06:49:18.34	293.66	7.21	-50.7	-61.7	3.8	8.47e-01	0	44	104	1794113536	72	12367
2026-01-17 06:49:20.33	293.38	7.14	-50.7	-61.7	3.8	8.47e-01	0	43	104	1794113536	72	12353
2026-01-17 06:49:22.33	293.09	7.06	-50.8	-61.8	3.8	8.47e-01	0	43	104	1794113536	72	12461
2026-01-17 06:49:24.32	292.81	6.98	-50.8	-61.8	3.8	8.47e-01	0	44	104	1794113536	72	12385
2026-01-17 06:49:26.31	292.53	6.91	-50.7	-61.7	3.8	8.47e-01	0	43	104	1794113536	72	12329
2026-01-17 06:49:28.31	292.25	6.83	-50.7	-61.7	3.8	8.45e-01	0	44	104	1794113536	72	12370
2026-01-17 06:49:30.30	291.98	6.75	-50.7	-61.8	3.8	8.47e-01	0	44	104	1794113536	72	12378
2026-01-17 06:49:32.30	291.70	6.67	-50.7	-61.8	3.8	8.47e-01	0	44	104	1794113536	72	12419
2026-01-17 06:49:34.29	291.43	6.59	-50.8	-61.8	3.8	8.47e-01	0	44	104	1794113536	72	12457
2026-01-17 06:49:36.28	291.16	6.52	-50.8	-61.8	3.8	8.47e-01	0	43	104	1794113536	72	12401
2026-01-17 06:49:38.27	290.89	6.44	-50.7	-61.8	3.8	8.48e-01	0	44	104	1794113536	72	12396
2026-01-17 06:49:40.27	290.62	6.36	-50.7	-61.8	3.8	8.46e-01	0	43	104	1794113536	72	12395
2026-01-17 06:49:42.26	290.35	6.28	-50.7	-61.8	3.8	8.46e-01	0	44	104	1794113536	72	12380
2026-01-17 06:49:44.25	290.09	6.20	-50.7	-61.8	3.8	8.47e-01	0	44	104	1794113536	72	12442
2026-01-17 06:49:46.24	289.82	6.12	-50.7	-61.8	3.8	8.48e-01	0	44	104	1794113536	72	12446
2026-01-17 06:49:48.24	289.56	6.04	-50.7	-61.8	3.8	8.48e-01	0	43	104	1794113536	72	12382
2026-01-17 06:49:50.23	289.30	5.95	-50.7	-61.7	3.8	8.46e-01	0	44	104	1794113536	72	12361
2026-01-17 06:49:52.23	289.04	5.87	-50.7	-61.8	3.8	8.46e-01	0	43	104	1794113536	72	12482
2026-01-17 06:49:54.22	288.78	5.79	-50.7	-61.8	3.8	8.47e-01	0	44	104	1794113536	72	12386
2026-01-17 06:49:56.21	288.52	5.71	-50.7	-61.8	3.8	8.46e-01	0	44	104	1794113536	72	12405
2026-01-17 06:49:58.20	288.27	5.63	-50.7	-61.7	3.8	8.46e-01	0	44	104	1794113536	72	12295
2026-01-17 06:50:00.20	288.01	5.54	-50.7	-61.7	3.8	8.47e-01	0	44	104	1794113536	72	12323
2026-01-17 06:50:02.19	287.76	5.46	-50.7	-61.7	3.8	8.46e-01	0	44	104	1794113536	72	12344
2026-01-17 06:50:04.18	287.51	5.38	-50.7	-61.7	3.8	8.48e-01	0	44	104	1794113536	72	12367
2026-01-17 06:50:06.17	287.26	5.29	-50.7	-61.8	3.8	8.47e-01	0	43	104	1794113536	72	12396
2026-01-17 06:50:08.16	287.01	5.21	-50.7	-61.7	3.8	8.46e-01	0	43	104	1794113536	72	12360
2026-01-17 06:50:10.15	286.76	5.13	-50.7	-61.7	3.8	8.48e-01	0	44	104	1794113536	72	12365
2026-01-17 06:50:12.14	286.52	5.04	-50.7	-61.8	3.8	8.46e-01	0	44	104	1794113536	72	12403

#Closed at: 2026-01-17 06:50:14
#Recorded file [1794 MB]: D:/Data/31040_260117_094236.dat