passes_logs/2026/01/17/T1/T1__20260117_012802_FENGYUN_3G_rec.log

#Pass ID: 20260117_012802_FENGYUN 3G
#Satellite: FENGYUN 3G
#Configuration: FENGYUN 3G
#almurnet v.1.7.20251203
#Start time: 2026-01-17 01:28:03

#Version: 2.0.20230620
#Station: T1
#Location: 37.570604 lon 55.790049 lat
#TLE: 1 56232U 23055A   26016.27117466  .00021245  00000+0  33355-3 0  9997
#TLE: 2 56232  49.9942  49.3739 0004180  33.4292 326.6938 15.53552571156398

#Time	Az	El	Level	Level2	SNR	BER	BlckErr	Temp	State	Recorded	gain1	gain2
2026-01-17 01:28:03.91	252.58	5.09	-49.8	-68.9	3.8	8.47e-01	0	36	0	0	71	31874
2026-01-17 01:28:05.89	252.22	5.20	-49.8	-68.8	3.8	8.48e-01	0	36	104	0	71	31800
2026-01-17 01:28:07.88	251.87	5.30	-49.8	-68.8	3.8	8.46e-01	0	36	104	0	71	31747
2026-01-17 01:28:09.86	251.51	5.40	-49.7	-68.8	3.8	8.47e-01	0	36	104	0	71	31785
2026-01-17 01:28:11.85	251.14	5.51	-49.8	-68.9	3.8	8.47e-01	0	36	104	0	71	31930
2026-01-17 01:28:13.84	250.77	5.61	-49.7	-68.9	3.8	8.48e-01	0	36	104	0	71	31940
2026-01-17 01:28:15.82	250.40	5.71	-49.8	-68.9	3.8	8.48e-01	0	36	104	0	71	31846
2026-01-17 01:28:17.81	250.03	5.82	-49.7	-68.8	3.8	8.47e-01	0	36	104	0	71	31786
2026-01-17 01:28:19.80	249.65	5.92	-49.7	-68.8	3.8	8.46e-01	0	36	104	0	71	31720
2026-01-17 01:28:21.78	249.27	6.02	-49.7	-68.8	3.8	8.46e-01	0	37	104	0	71	31749
2026-01-17 01:28:23.77	248.88	6.12	-49.7	-68.8	3.8	8.47e-01	0	37	104	0	71	31779
2026-01-17 01:28:25.75	248.49	6.22	-49.7	-68.9	3.8	8.47e-01	0	37	104	0	71	31817
2026-01-17 01:28:27.74	248.09	6.33	-49.7	-68.8	3.8	8.46e-01	0	37	104	0	71	31635
2026-01-17 01:28:29.73	247.69	6.43	-49.7	-68.8	3.8	8.47e-01	0	37	104	0	71	31467
2026-01-17 01:28:31.71	247.29	6.53	-49.7	-68.7	3.8	8.47e-01	0	37	104	0	71	31306
2026-01-17 01:28:33.70	246.89	6.63	-49.7	-68.8	3.8	8.47e-01	0	37	104	0	71	31538
2026-01-17 01:28:35.69	246.48	6.73	-49.7	-68.8	3.8	8.47e-01	0	37	104	0	71	31794
2026-01-17 01:28:37.67	246.06	6.82	-49.7	-68.8	3.8	8.47e-01	0	37	104	0	71	31578
2026-01-17 01:28:39.66	245.64	6.92	-49.7	-68.7	3.8	8.47e-01	0	37	104	0	71	31428
2026-01-17 01:28:41.65	245.22	7.02	-49.7	-68.8	3.8	8.47e-01	0	37	104	0	71	31452
2026-01-17 01:28:43.64	244.80	7.12	-49.7	-68.8	3.8	8.47e-01	0	37	104	0	71	31628
2026-01-17 01:28:45.62	244.37	7.22	-49.7	-68.6	3.8	8.46e-01	0	37	104	0	71	30796
2026-01-17 01:28:47.61	243.93	7.31	-49.7	-68.4	3.8	8.48e-01	0	37	104	0	71	30314
2026-01-17 01:28:49.59	243.50	7.41	-49.7	-68.6	3.8	8.47e-01	0	37	104	0	71	30978
2026-01-17 01:28:51.58	243.05	7.50	-49.7	-68.7	3.8	8.46e-01	0	37	104	0	71	31322
2026-01-17 01:28:53.57	242.61	7.60	-49.7	-68.7	3.8	8.46e-01	0	37	104	0	71	31262
2026-01-17 01:28:55.55	242.16	7.69	-49.7	-68.5	3.8	8.47e-01	0	37	104	0	71	30399
2026-01-17 01:28:57.54	241.70	7.78	-49.7	-68.4	3.8	8.47e-01	0	37	104	0	71	30253
2026-01-17 01:28:59.53	241.24	7.87	-49.7	-68.4	3.8	8.46e-01	0	38	104	0	71	30051
2026-01-17 01:29:01.52	240.78	7.97	-49.7	-68.6	3.8	8.46e-01	0	37	104	0	71	30827
2026-01-17 01:29:03.50	240.32	8.05	-49.7	-68.8	3.8	8.47e-01	0	37	104	0	71	31641
2026-01-17 01:29:05.49	239.85	8.14	-49.7	-68.7	3.8	8.47e-01	0	37	104	0	71	31216
2026-01-17 01:29:07.48	239.37	8.23	-49.7	-68.6	3.8	8.47e-01	0	38	104	0	71	31076
2026-01-17 01:29:09.46	238.90	8.32	-49.7	-68.6	3.8	8.47e-01	0	37	104	0	71	30959
2026-01-17 01:29:11.45	238.41	8.41	-49.7	-67.9	3.8	8.47e-01	0	37	104	0	71	28608
2026-01-17 01:29:13.44	237.93	8.49	-49.7	-68.3	3.8	8.46e-01	0	38	104	0	71	29899
2026-01-17 01:29:15.43	237.44	8.58	-49.7	-68.3	3.8	8.48e-01	0	38	104	0	71	29814
2026-01-17 01:29:17.41	236.94	8.66	-49.7	-68.3	3.8	8.47e-01	0	38	104	0	71	29962
2026-01-17 01:29:19.40	236.45	8.74	-49.7	-68.7	3.8	8.47e-01	0	38	104	0	71	31319
2026-01-17 01:29:21.38	235.95	8.82	-49.6	-66.7	3.8	8.47e-01	0	38	104	0	71	24815
2026-01-17 01:29:23.37	235.44	8.90	-49.2	-60.4	7.0	8.31e-01	0	38	0	0	70	12711
2026-01-17 01:29:25.36	234.93	8.98	-47.8	-54.0	13.4	3.05e-01	0	38	0	0	67	7264
2026-01-17 01:29:27.35	234.42	9.06	-50.0	-68.4	3.6	1.43e-01	0	38	104	0	70	32074
2026-01-17 01:29:29.34	233.90	9.13	-45.4	-49.0	18.2	3.95e-01	0	38	0	0	62	5412
2026-01-17 01:29:31.32	233.38	9.21	-49.4	-60.6	4.6	2.51e-01	0	38	104	0	70	12995
2026-01-17 01:29:33.31	232.86	9.28	-42.6	-45.2	22.3	1.03e-01	0	38	0	0	57	4702
2026-01-17 01:29:35.30	232.33	9.35	-42.1	-44.5	23.0	0.00e+00	0	38	0	0	56	4573
2026-01-17 01:29:37.23	231.81	9.42	-41.9	-44.3	23.0	0.00e+00	0	38	0	0	55	4754
2026-01-17 01:29:39.22	231.28	9.49	-41.8	-44.3	23.0	0.00e+00	0	38	0	0	55	4721
2026-01-17 01:29:41.21	230.74	9.55	-41.7	-44.2	23.2	0.00e+00	0	38	0	0	55	4678
2026-01-17 01:29:43.39	230.15	9.62	-41.7	-44.2	23.2	0.00e+00	0	38	0	0	55	4674
2026-01-17 01:29:45.40	229.60	9.69	-41.7	-44.1	23.2	0.00e+00	0	38	0	0	55	4629
2026-01-17 01:29:47.40	229.05	9.75	-42.1	-44.6	22.8	0.00e+00	0	38	0	0	55	4892
2026-01-17 01:29:49.41	228.49	9.81	-42.2	-44.7	22.7	0.00e+00	0	38	0	0	55	4968
2026-01-17 01:29:51.52	227.90	9.87	-42.2	-44.7	22.7	0.00e+00	0	38	0	0	55	4957
2026-01-17 01:29:53.72	227.28	9.93	-42.3	-44.8	22.6	0.00e+00	0	38	0	0	55	5013
2026-01-17 01:29:55.93	226.66	9.99	-42.1	-44.5	22.8	0.00e+00	0	38	0	0	55	4866
2026-01-17 01:29:57.95	226.09	10.05	-41.9	-44.3	23.0	0.00e+00	0	38	0	0	55	4757
2026-01-17 01:29:59.94	225.52	10.10	-42.1	-44.6	22.6	0.00e+00	0	38	0	0	55	4922
2026-01-17 01:30:01.94	224.95	10.15	-42.1	-44.6	22.8	0.00e+00	0	38	0	0	55	4876
2026-01-17 01:30:03.93	224.38	10.19	-42.1	-44.6	22.7	0.00e+00	0	38	0	0	55	4923
2026-01-17 01:30:05.92	223.80	10.24	-42.1	-44.6	22.8	0.00e+00	0	38	0	0	55	4881
2026-01-17 01:30:07.91	223.23	10.28	-41.9	-44.3	23.1	0.00e+00	0	38	0	0	55	4746
2026-01-17 01:30:09.90	222.65	10.32	-41.4	-43.8	23.4	0.00e+00	0	38	0	0	54	4733
2026-01-17 01:30:11.89	222.07	10.36	-41.2	-43.5	23.7	0.00e+00	0	38	0	0	54	4576
2026-01-17 01:30:14.08	221.43	10.40	-41.3	-43.8	23.5	0.00e+00	0	38	0	0	54	4726
2026-01-17 01:30:16.07	220.84	10.43	-41.4	-43.9	23.5	0.00e+00	0	38	0	0	54	4782
2026-01-17 01:30:18.08	220.25	10.46	-41.6	-44.1	23.3	0.00e+00	0	38	0	0	54	4871
2026-01-17 01:30:20.08	219.66	10.49	-41.6	-44.2	23.2	0.00e+00	0	38	0	0	54	4942
2026-01-17 01:30:22.02	219.08	10.52	-41.8	-44.3	23.1	0.00e+00	0	38	0	0	54	5019
2026-01-17 01:30:24.05	218.48	10.54	-42.0	-44.5	23.0	0.00e+00	0	38	0	0	54	5114
2026-01-17 01:30:26.13	217.86	10.56	-41.9	-44.4	23.0	0.00e+00	0	38	0	0	54	5076
2026-01-17 01:30:28.15	217.26	10.58	-42.0	-44.4	22.9	0.00e+00	0	38	0	0	54	5089
2026-01-17 01:30:30.14	216.66	10.60	-41.7	-44.2	23.2	0.00e+00	0	38	0	0	54	4931
2026-01-17 01:30:32.16	216.06	10.62	-41.3	-43.7	23.6	0.00e+00	0	38	0	0	54	4680
2026-01-17 01:30:34.38	215.39	10.63	-41.1	-43.4	23.8	0.00e+00	0	38	0	0	54	4537
2026-01-17 01:30:36.62	214.72	10.64	-41.0	-43.3	24.0	0.00e+00	0	38	0	0	54	4460
2026-01-17 01:30:38.62	214.12	10.65	-41.3	-43.6	23.7	0.00e+00	0	38	0	0	54	4630
2026-01-17 01:30:40.61	213.52	10.66	-41.1	-43.4	23.9	0.00e+00	0	38	0	0	54	4537
2026-01-17 01:30:42.60	212.93	10.66	-41.4	-43.8	23.5	0.00e+00	0	38	0	0	54	4731
2026-01-17 01:30:44.75	212.28	10.66	-41.4	-43.8	23.6	0.00e+00	0	38	0	0	54	4710
2026-01-17 01:30:46.74	211.68	10.66	-41.2	-43.5	23.8	0.00e+00	0	38	0	0	54	4583
2026-01-17 01:30:48.84	211.05	10.65	-41.2	-43.6	23.7	0.00e+00	0	38	0	0	54	4630
2026-01-17 01:30:50.83	210.45	10.65	-40.9	-43.2	24.0	0.00e+00	0	38	0	0	53	4691
2026-01-17 01:30:52.83	209.85	10.64	-40.5	-42.7	24.4	0.00e+00	0	38	0	0	52	4689
2026-01-17 01:30:54.82	209.25	10.63	-40.5	-42.7	24.5	0.00e+00	0	38	0	0	52	4700
2026-01-17 01:30:56.90	208.63	10.61	-40.8	-43.1	24.1	0.00e+00	0	38	0	0	52	4917
2026-01-17 01:30:58.89	208.04	10.60	-41.0	-43.3	23.9	0.00e+00	0	38	0	0	52	5038
2026-01-17 01:31:00.88	207.44	10.58	-41.3	-43.7	23.6	0.00e+00	0	38	0	0	53	4970
2026-01-17 01:31:02.87	206.85	10.56	-41.2	-43.5	23.7	0.00e+00	0	38	0	0	53	4867
2026-01-17 01:31:04.88	206.25	10.53	-40.8	-43.1	24.1	0.00e+00	0	38	0	0	53	4635
2026-01-17 01:31:06.87	205.66	10.51	-40.6	-42.9	24.4	0.00e+00	0	38	0	0	53	4515
2026-01-17 01:31:08.87	205.07	10.48	-41.0	-43.3	24.0	0.00e+00	0	38	0	0	53	4740
2026-01-17 01:31:10.86	204.48	10.45	-41.1	-43.5	23.8	0.00e+00	0	38	0	0	53	4828
2026-01-17 01:31:12.86	203.89	10.42	-41.8	-44.2	23.1	0.00e+00	0	38	0	0	54	4981
2026-01-17 01:31:14.86	203.30	10.38	-42.0	-44.6	22.8	0.00e+00	0	38	0	0	54	5168
2026-01-17 01:31:16.85	202.72	10.35	-41.4	-43.9	23.5	0.00e+00	0	38	0	0	54	4761
2026-01-17 01:31:18.84	202.14	10.31	-41.6	-44.0	23.4	0.00e+00	0	38	0	0	54	4819
2026-01-17 01:31:21.09	201.48	10.26	-41.3	-43.7	23.6	0.00e+00	0	38	0	0	54	4689
2026-01-17 01:31:23.10	200.90	10.22	-41.9	-44.4	23.0	0.00e+00	0	38	0	0	54	5047
2026-01-17 01:31:25.29	200.27	10.17	-42.0	-44.5	22.9	0.00e+00	0	38	0	0	54	5138
2026-01-17 01:31:27.57	199.61	10.11	-42.6	-45.4	22.0	0.00e+00	0	38	0	0	55	5350
2026-01-17 01:31:29.84	198.97	10.06	-42.3	-44.9	22.6	0.00e+00	0	38	0	0	56	4782
2026-01-17 01:31:32.11	198.32	10.00	-42.2	-44.8	22.7	0.00e+00	0	38	0	0	56	4729
2026-01-17 01:31:34.42	197.67	9.94	-41.6	-44.1	23.3	0.00e+00	0	38	0	0	55	4610
2026-01-17 01:31:36.77	197.01	9.87	-42.2	-44.9	22.5	0.00e+00	0	38	0	0	55	5052
2026-01-17 01:31:38.95	196.40	9.81	-42.4	-45.0	22.4	0.00e+00	0	38	0	0	55	5128
2026-01-17 01:31:40.94	195.85	9.75	-42.4	-45.0	22.3	0.00e+00	0	38	0	0	55	5158
2026-01-17 01:31:42.93	195.30	9.68	-42.4	-45.0	22.4	0.00e+00	0	38	0	0	55	5138
2026-01-17 01:31:44.94	194.75	9.62	-42.4	-45.1	22.2	0.00e+00	0	38	0	0	55	5193
2026-01-17 01:31:46.94	194.20	9.55	-42.7	-45.4	22.0	0.00e+00	0	38	0	0	55	5391
2026-01-17 01:31:48.95	193.66	9.49	-42.9	-45.6	21.9	0.00e+00	0	38	0	0	56	5208
2026-01-17 01:31:50.94	193.12	9.42	-42.8	-45.6	21.9	0.00e+00	0	38	0	0	56	5185
2026-01-17 01:31:52.94	192.59	9.35	-42.5	-45.1	22.4	0.00e+00	0	38	0	0	56	4920
2026-01-17 01:31:54.95	192.05	9.28	-42.2	-44.8	22.7	0.00e+00	0	38	0	0	56	4746
2026-01-17 01:31:56.95	191.53	9.20	-42.2	-44.8	22.7	0.00e+00	0	38	0	0	56	4727
2026-01-17 01:31:58.97	191.00	9.13	-42.3	-44.9	22.6	0.00e+00	0	38	0	0	56	4792
2026-01-17 01:32:00.96	190.48	9.05	-42.7	-45.5	22.1	0.00e+00	0	38	0	0	56	5104
2026-01-17 01:32:02.98	189.96	8.97	-49.2	-67.2	3.0	0.00e+00	0	38	104	0	69	29482
2026-01-17 01:32:04.96	189.45	8.89	-50.0	-69.2	3.8	7.98e-01	0	38	104	0	70	35084
2026-01-17 01:32:06.95	188.94	8.81	-50.4	-69.4	3.8	8.47e-01	0	38	104	0	71	33720
2026-01-17 01:32:08.94	188.44	8.73	-50.5	-69.4	3.8	8.47e-01	0	38	104	0	71	34050
2026-01-17 01:32:10.94	187.94	8.65	-50.7	-69.5	3.8	8.47e-01	0	38	104	0	71	34403
2026-01-17 01:32:12.94	187.44	8.57	-50.6	-69.5	3.8	8.48e-01	0	38	104	0	72	32375
2026-01-17 01:32:14.93	186.95	8.48	-50.6	-69.5	3.8	8.47e-01	0	38	104	0	72	32434
2026-01-17 01:32:16.92	186.46	8.40	-50.7	-69.5	3.8	8.47e-01	0	38	104	0	72	32361
2026-01-17 01:32:18.90	185.98	8.31	-50.7	-69.5	3.8	8.46e-01	0	38	104	0	72	32247
2026-01-17 01:32:20.92	185.49	8.22	-50.5	-69.5	3.8	8.47e-01	0	38	104	0	72	32237
2026-01-17 01:32:22.91	185.01	8.13	-50.6	-69.5	3.8	8.47e-01	0	38	104	0	72	32237
2026-01-17 01:32:24.89	184.55	8.04	-50.6	-69.5	3.8	8.45e-01	0	38	104	0	72	32251
2026-01-17 01:32:26.89	184.07	7.95	-50.4	-69.5	3.8	8.48e-01	0	38	104	0	72	32267
2026-01-17 01:32:28.88	183.61	7.86	-50.2	-69.4	3.8	8.47e-01	0	38	104	0	72	32032
2026-01-17 01:32:30.87	183.15	7.77	-50.2	-69.4	3.8	8.47e-01	0	38	104	0	72	32066
2026-01-17 01:32:32.85	182.70	7.68	-50.2	-69.4	3.8	8.46e-01	0	38	104	0	72	32007
2026-01-17 01:32:34.84	182.25	7.58	-50.2	-69.4	3.8	8.46e-01	0	38	104	0	72	32064
2026-01-17 01:32:36.83	181.80	7.49	-50.2	-69.4	3.8	8.46e-01	0	38	104	0	72	31931
2026-01-17 01:32:38.82	181.35	7.39	-50.2	-69.4	3.8	8.46e-01	0	39	104	0	72	31960
2026-01-17 01:32:40.80	180.92	7.30	-50.2	-69.4	3.8	8.46e-01	0	38	104	0	72	31978
2026-01-17 01:32:42.80	180.48	7.20	-50.2	-69.4	3.8	8.48e-01	0	38	104	0	72	32008
2026-01-17 01:32:44.79	180.05	7.10	-50.2	-69.4	3.8	8.46e-01	0	38	104	0	72	31981
2026-01-17 01:32:46.78	179.62	7.00	-50.2	-69.4	3.8	8.47e-01	0	39	104	0	72	31871
2026-01-17 01:32:48.78	179.19	6.91	-50.2	-69.4	3.8	8.46e-01	0	38	104	0	72	31915
2026-01-17 01:32:50.79	178.77	6.81	-50.2	-69.4	3.8	8.46e-01	0	39	104	0	72	31893
2026-01-17 01:32:52.79	178.35	6.71	-50.2	-69.4	3.8	8.48e-01	0	38	104	0	72	31912
2026-01-17 01:32:54.80	177.94	6.60	-50.2	-69.4	3.8	8.47e-01	0	38	104	0	72	31945
2026-01-17 01:32:56.78	177.53	6.50	-50.2	-69.4	3.8	8.48e-01	0	38	104	0	72	31925
2026-01-17 01:32:58.77	177.13	6.40	-50.2	-69.4	3.8	8.48e-01	0	38	104	0	72	31969
2026-01-17 01:33:00.77	176.73	6.30	-50.2	-69.4	3.8	8.46e-01	0	38	104	0	72	31883
2026-01-17 01:33:02.76	176.33	6.20	-50.2	-69.4	3.8	8.46e-01	0	38	104	0	72	32021
2026-01-17 01:33:04.74	175.94	6.10	-50.2	-69.4	3.8	8.47e-01	0	38	104	0	72	31905
2026-01-17 01:33:06.75	175.55	6.00	-50.2	-69.4	3.8	8.47e-01	0	38	104	0	72	31932
2026-01-17 01:33:08.73	175.16	5.89	-50.2	-69.4	3.8	8.48e-01	0	38	104	0	72	31852
2026-01-17 01:33:10.73	174.78	5.79	-50.2	-69.4	3.8	8.46e-01	0	38	104	0	72	31935
2026-01-17 01:33:12.72	174.40	5.69	-50.2	-69.4	3.8	8.47e-01	0	38	104	0	72	31967
2026-01-17 01:33:14.71	174.03	5.58	-50.2	-69.4	3.8	8.47e-01	0	38	104	0	72	31888
2026-01-17 01:33:16.71	173.66	5.48	-50.2	-69.4	3.8	8.48e-01	0	38	104	0	72	31971
2026-01-17 01:33:18.71	173.29	5.38	-50.2	-69.4	3.8	8.47e-01	0	38	104	0	72	31898
2026-01-17 01:33:20.70	172.93	5.27	-50.2	-69.4	3.8	8.46e-01	0	39	104	0	72	31931
2026-01-17 01:33:22.68	172.57	5.17	-50.2	-69.4	3.8	8.47e-01	0	38	104	0	72	31926
2026-01-17 01:33:24.68	172.22	5.06	-50.2	-69.4	3.8	8.48e-01	0	39	104	0	72	31982

#Closed at: 2026-01-17 01:33:26
#Recorded file [0 MB]: D:/Data/31040_260117_042803.dat