passes_logs/2026/01/17/T1/T1__20260117_225925_NOAA_20_JPSS-1_rec.log

#Pass ID: 20260117_225925_NOAA 20 (JPSS-1)
#Satellite: NOAA 20 (JPSS-1)
#Configuration: NOAA 20
#almurnet v.1.7.20251203
#Start time: 2026-01-17 22:59:26

#Version: 2.0.20230620
#Station: T1
#Location: 37.570604 lon 55.790049 lat
#TLE: 1 43013U 17073A   26017.30359522  .00000067  00000+0  52526-4 0  9990
#TLE: 2 43013  98.7639 318.2187 0001419  36.2087 323.9184 14.19536557423067

#Time	Az	El	Level	Level2	SNR	BER	BlckErr	Temp	State	Recorded	gain1	gain2
2026-01-17 22:59:26.79	21.55	5.08	-48.7	-64.7	3.8	1.49e+00	0	37	0	0	69	22088
2026-01-17 22:59:29.77	21.68	5.29	-48.5	-64.4	3.8	1.49e+00	0	37	104	0	67	24121
2026-01-17 22:59:32.74	21.81	5.49	-48.5	-64.5	3.8	1.49e+00	0	37	104	0	67	24196
2026-01-17 22:59:35.72	21.94	5.70	-48.5	-64.5	3.8	1.49e+00	0	37	104	0	67	24292
2026-01-17 22:59:38.70	22.07	5.91	-48.5	-64.5	3.8	1.49e+00	0	37	104	0	67	24251
2026-01-17 22:59:41.68	22.21	6.12	-48.5	-64.5	3.8	1.49e+00	0	37	104	0	67	24276
2026-01-17 22:59:44.66	22.34	6.33	-48.5	-64.5	3.8	1.49e+00	0	37	104	0	67	24204
2026-01-17 22:59:47.64	22.48	6.55	-48.5	-64.4	3.8	1.49e+00	0	37	104	0	67	24083
2026-01-17 22:59:50.62	22.62	6.76	-48.5	-64.4	3.8	1.49e+00	0	37	104	0	67	24009
2026-01-17 22:59:53.60	22.76	6.98	-48.5	-64.2	3.8	1.49e+00	0	37	104	0	67	23348
2026-01-17 22:59:56.58	22.90	7.20	-48.4	-63.6	3.8	1.49e+00	0	37	104	0	67	21883
2026-01-17 22:59:59.56	23.05	7.42	-48.4	-63.2	3.8	1.49e+00	0	38	104	0	67	20797
2026-01-17 23:00:02.54	23.20	7.64	-48.4	-63.0	3.8	1.49e+00	0	38	104	0	67	20367
2026-01-17 23:00:05.52	23.35	7.87	-48.4	-63.0	3.8	1.49e+00	0	38	104	0	67	20434
2026-01-17 23:00:08.50	23.50	8.09	-48.4	-63.0	3.8	1.49e+00	0	38	104	0	67	20365
2026-01-17 23:00:11.48	23.65	8.32	-48.3	-62.0	4.0	1.49e+00	0	38	104	0	67	18220
2026-01-17 23:00:14.46	23.81	8.55	-48.1	-59.0	4.9	8.17e-01	0	38	0	2097152	67	12916
2026-01-17 23:00:17.44	23.96	8.79	-47.5	-55.2	7.9	1.32e-01	0	38	0	7340032	67	8287
2026-01-17 23:00:20.42	24.13	9.02	-46.7	-52.6	10.6	5.67e-03	0	38	0	12582912	65	6913
2026-01-17 23:00:23.39	24.29	9.26	-47.4	-54.4	8.7	2.23e-01	0	38	0	18874368	66	8012
2026-01-17 23:00:26.52	24.46	9.51	-44.3	-47.6	15.8	0.00e+00	0	38	0	22020096	60	5215
2026-01-17 23:00:29.36	24.62	9.74	-44.1	-47.2	16.3	0.00e+00	0	38	0	27262976	59	5245
2026-01-17 23:00:32.49	24.80	9.99	-44.0	-47.0	16.4	0.00e+00	0	38	0	33554432	59	5151
2026-01-17 23:00:35.33	24.97	10.22	-43.8	-46.8	16.6	0.00e+00	0	38	0	38797312	59	5025
2026-01-17 23:00:38.46	25.15	10.48	-43.8	-46.8	16.7	0.00e+00	0	38	0	45088768	59	4999
2026-01-17 23:00:41.30	25.32	10.72	-43.5	-46.5	17.0	0.00e+00	0	38	0	50331648	59	4840
2026-01-17 23:00:44.61	25.52	11.00	-43.6	-46.6	16.9	0.00e+00	0	38	0	56623104	59	4873
2026-01-17 23:00:47.32	25.69	11.23	-43.5	-46.5	17.0	0.00e+00	0	38	0	60817408	59	4839
2026-01-17 23:00:50.60	25.90	11.51	-43.3	-46.3	17.2	0.00e+00	0	38	0	67108864	58	4990
2026-01-17 23:00:53.31	26.07	11.75	-43.3	-46.1	17.4	0.00e+00	0	38	0	72351744	58	4908
2026-01-17 23:00:56.63	26.29	12.04	-43.3	-46.0	17.5	0.00e+00	0	39	0	78643200	58	4859
2026-01-17 23:00:59.70	26.49	12.32	-43.3	-46.0	17.6	0.00e+00	0	38	0	84934656	58	4824
2026-01-17 23:01:02.83	26.70	12.60	-43.2	-45.9	17.6	0.00e+00	0	38	0	90177536	58	4788
2026-01-17 23:01:05.67	26.89	12.85	-43.2	-45.9	17.7	0.00e+00	0	38	0	95420416	58	4767
2026-01-17 23:01:08.92	27.12	13.15	-43.0	-45.7	17.8	0.00e+00	0	39	0	101711872	58	4705
2026-01-17 23:01:11.83	27.33	13.42	-43.0	-45.7	17.9	0.00e+00	0	38	0	106954752	58	4659
2026-01-17 23:01:14.96	27.55	13.71	-43.0	-45.6	17.8	0.00e+00	0	39	0	113246208	58	4641
2026-01-17 23:01:17.80	27.76	13.98	-42.9	-45.5	18.1	0.00e+00	0	39	0	118489088	57	4843
2026-01-17 23:01:20.93	28.00	14.28	-42.8	-45.5	18.1	0.00e+00	0	39	0	123731968	57	4830
2026-01-17 23:01:23.77	28.21	14.55	-43.0	-45.7	17.9	0.00e+00	0	39	0	130023424	57	4931
2026-01-17 23:01:26.90	28.46	14.86	-42.7	-45.2	18.3	0.00e+00	0	38	0	135266304	57	4705
2026-01-17 23:01:29.85	28.69	15.15	-42.6	-45.2	18.4	0.00e+00	0	39	0	140509184	57	4675
2026-01-17 23:01:33.12	28.96	15.47	-42.7	-45.2	18.4	0.00e+00	0	39	0	146800640	57	4677
2026-01-17 23:01:36.39	29.22	15.80	-42.8	-45.3	18.3	0.00e+00	0	39	0	153092096	57	4720
2026-01-17 23:01:39.15	29.46	16.09	-42.9	-45.4	18.2	0.00e+00	0	38	0	158334976	57	4765
2026-01-17 23:01:42.58	29.75	16.44	-42.9	-45.3	18.3	0.00e+00	0	39	0	164626432	57	4754
2026-01-17 23:01:45.36	29.99	16.73	-43.1	-45.6	18.0	0.00e+00	0	39	0	169869312	57	4898
2026-01-17 23:01:48.58	30.28	17.07	-43.2	-45.8	17.9	0.00e+00	0	39	0	176160768	57	4998
2026-01-17 23:01:51.71	30.57	17.40	-43.2	-45.9	17.8	0.00e+00	0	39	0	182452224	57	5043
2026-01-17 23:01:54.55	30.83	17.71	-43.1	-45.7	18.0	0.00e+00	0	39	0	187695104	57	4977
2026-01-17 23:01:57.68	31.13	18.05	-43.4	-46.0	17.7	0.00e+00	0	39	0	192937984	57	5130
2026-01-17 23:02:00.52	31.40	18.36	-43.4	-46.0	17.7	0.00e+00	0	39	0	198180864	57	5107
2026-01-17 23:02:03.85	31.73	18.74	-43.4	-46.0	17.7	0.00e+00	0	39	0	204472320	57	5106
2026-01-17 23:02:06.70	32.02	19.06	-43.5	-46.1	17.6	0.00e+00	0	39	0	209715200	57	5209
2026-01-17 23:02:09.82	32.35	19.42	-43.4	-46.1	17.6	0.00e+00	0	39	0	216006656	57	5180
2026-01-17 23:02:12.67	32.65	19.74	-43.3	-45.9	17.9	0.00e+00	0	39	0	221249536	57	5060
2026-01-17 23:02:15.87	32.99	20.12	-43.1	-45.7	18.0	0.00e+00	0	39	0	227540992	57	4973
2026-01-17 23:02:18.77	33.31	20.46	-43.2	-45.7	18.0	0.00e+00	0	39	0	232783872	57	4965
2026-01-17 23:02:22.01	33.68	20.85	-43.2	-45.7	18.0	0.00e+00	0	39	0	239075328	57	4954
2026-01-17 23:02:24.88	34.01	21.20	-43.3	-45.8	17.9	0.00e+00	0	39	0	244318208	57	5028
2026-01-17 23:02:28.08	34.39	21.59	-43.1	-45.6	18.1	0.00e+00	0	39	0	250609664	57	4907
2026-01-17 23:02:30.93	34.74	21.95	-43.2	-45.7	18.1	0.00e+00	0	39	0	255852544	57	4944
2026-01-17 23:02:34.00	35.12	22.33	-43.2	-45.7	18.0	0.00e+00	0	39	0	261095424	57	4975
2026-01-17 23:02:36.98	35.50	22.71	-43.3	-45.8	17.9	0.00e+00	0	39	0	266338304	57	5040
2026-01-17 23:02:39.97	35.88	23.10	-43.2	-45.7	18.1	0.00e+00	0	39	0	272629760	57	4946
2026-01-17 23:02:42.98	36.29	23.49	-43.0	-45.5	18.3	0.00e+00	0	39	0	277872640	57	4838
2026-01-17 23:02:45.96	36.69	23.88	-43.1	-45.5	18.2	0.00e+00	0	39	0	284164096	57	4863
2026-01-17 23:02:48.93	37.11	24.28	-43.1	-45.6	18.2	0.00e+00	0	39	0	289406976	57	4902
2026-01-17 23:02:51.92	37.54	24.68	-43.1	-45.6	18.2	0.00e+00	0	39	0	294649856	57	4905
2026-01-17 23:02:54.91	37.98	25.09	-43.0	-45.5	18.3	0.00e+00	0	39	0	300941312	57	4838
2026-01-17 23:02:57.99	38.44	25.51	-42.9	-45.3	18.4	0.00e+00	0	39	0	306184192	57	4759
2026-01-17 23:03:00.97	38.90	25.93	-43.0	-45.5	18.3	0.00e+00	0	39	0	311427072	57	4837
2026-01-17 23:03:03.95	39.37	26.35	-43.3	-45.8	18.0	0.00e+00	0	39	0	317718528	57	5011
2026-01-17 23:03:06.94	39.86	26.78	-43.6	-46.1	17.7	0.00e+00	0	39	0	322961408	57	5218
2026-01-17 23:03:09.92	40.36	27.20	-43.8	-46.5	17.4	0.00e+00	0	39	0	328204288	58	5113
2026-01-17 23:03:12.96	40.88	27.65	-43.9	-46.6	17.3	0.00e+00	0	39	0	334495744	58	5184
2026-01-17 23:03:15.89	41.40	28.08	-43.9	-46.6	17.2	0.00e+00	0	39	0	339738624	58	5207
2026-01-17 23:03:18.88	41.94	28.52	-44.2	-47.0	16.8	0.00e+00	0	39	0	344981504	59	5151
2026-01-17 23:03:21.87	42.50	28.97	-44.6	-47.5	16.4	0.00e+00	0	39	0	351272960	59	5442
2026-01-17 23:03:24.85	43.07	29.42	-44.9	-48.0	15.9	0.00e+00	0	39	0	356515840	60	5415
2026-01-17 23:03:27.85	43.66	29.88	-45.1	-48.2	15.8	0.00e+00	0	39	0	361758720	60	5551
2026-01-17 23:03:30.83	44.26	30.34	-44.6	-47.6	16.3	0.00e+00	0	39	0	368050176	60	5189
2026-01-17 23:03:33.81	44.88	30.81	-44.3	-47.1	17.0	0.00e+00	0	39	0	373293056	60	4882
2026-01-17 23:03:36.79	45.52	31.28	-44.3	-47.1	16.8	0.00e+00	0	39	0	378535936	60	4926
2026-01-17 23:03:39.78	46.18	31.75	-44.2	-47.1	16.9	0.00e+00	0	39	0	384827392	60	4882
2026-01-17 23:03:42.87	46.88	32.24	-44.1	-46.8	17.1	0.00e+00	0	39	0	390070272	60	4737
2026-01-17 23:03:45.93	47.59	32.74	-44.1	-46.9	17.0	0.00e+00	0	39	0	396361728	59	5042
2026-01-17 23:03:48.81	48.28	33.20	-44.0	-46.7	17.2	0.00e+00	0	39	0	401604608	59	4944
2026-01-17 23:03:51.94	49.06	33.71	-44.0	-46.6	17.3	0.00e+00	0	39	0	406847488	59	4908
2026-01-17 23:03:54.78	49.78	34.18	-44.1	-46.9	16.9	0.00e+00	0	39	0	413138944	59	5087
2026-01-17 23:03:57.90	50.60	34.69	-44.0	-46.7	17.2	0.00e+00	0	39	0	418381824	59	4967
2026-01-17 23:04:00.85	51.40	35.17	-44.0	-46.8	17.1	0.00e+00	0	39	0	423624704	59	5011
2026-01-17 23:04:04.10	52.31	35.71	-44.1	-46.9	17.0	0.00e+00	0	39	0	429916160	59	5068
2026-01-17 23:04:06.90	53.11	36.17	-43.5	-46.0	17.8	0.00e+00	0	39	0	435159040	59	4588
2026-01-17 23:04:10.02	54.04	36.69	-43.1	-45.6	18.3	0.00e+00	0	39	0	441450496	57	4896
2026-01-17 23:04:12.87	54.91	37.16	-43.6	-46.2	17.7	0.00e+00	0	39	0	446693376	57	5224
2026-01-17 23:04:15.99	55.89	37.68	-43.5	-46.1	17.8	0.00e+00	0	39	0	451936256	58	4887
2026-01-17 23:04:18.83	56.81	38.15	-43.2	-45.7	18.2	0.00e+00	0	39	0	458227712	58	4690
2026-01-17 23:04:22.10	57.90	38.68	-43.2	-45.7	18.2	0.00e+00	0	39	0	463470592	57	4939
2026-01-17 23:04:24.89	58.87	39.14	-43.9	-46.6	17.3	0.00e+00	0	39	0	468713472	58	5189
2026-01-17 23:04:28.02	59.98	39.65	-44.0	-46.7	17.3	0.00e+00	0	39	0	475004928	58	5241
2026-01-17 23:04:30.87	61.02	40.11	-43.6	-46.2	17.8	0.00e+00	0	39	0	480247808	58	4936
2026-01-17 23:04:34.08	62.23	40.62	-43.7	-46.3	17.7	0.00e+00	0	39	0	486539264	58	4987
2026-01-17 23:04:36.98	63.35	41.07	-43.5	-46.1	17.9	0.00e+00	0	39	0	491782144	58	4879
2026-01-17 23:04:40.11	64.60	41.55	-43.0	-45.4	18.5	0.00e+00	0	39	0	498073600	57	4790
2026-01-17 23:04:42.95	65.76	41.98	-43.5	-46.1	17.9	0.00e+00	0	39	0	503316480	57	5167
2026-01-17 23:04:46.30	67.18	42.48	-43.4	-45.9	18.0	0.00e+00	0	39	0	509607936	57	5078
2026-01-17 23:04:49.20	68.44	42.90	-44.0	-46.6	17.3	0.00e+00	0	39	0	514850816	58	5196
2026-01-17 23:04:52.96	70.12	43.43	-44.4	-47.2	16.8	0.00e+00	0	39	0	522190848	59	5252
2026-01-17 23:04:55.67	71.36	43.80	-44.7	-47.7	16.4	0.00e+00	0	39	0	526385152	60	5228
2026-01-17 23:04:58.95	72.91	44.23	-44.8	-47.9	16.1	0.00e+00	0	39	0	532676608	61	5063
2026-01-17 23:05:01.66	74.22	44.57	-44.2	-47.0	17.0	0.00e+00	0	39	0	537919488	60	4828
2026-01-17 23:05:05.08	75.91	44.98	-44.7	-47.7	16.4	0.00e+00	0	39	0	544210944	60	5232
2026-01-17 23:05:07.86	77.31	45.29	-44.9	-47.9	16.1	0.00e+00	0	39	0	549453824	60	5376
2026-01-17 23:05:11.15	79.01	45.65	-44.6	-47.5	16.6	0.00e+00	0	39	0	555745280	60	5120
2026-01-17 23:05:14.14	80.58	45.95	-44.1	-46.9	17.1	0.00e+00	0	39	0	560988160	60	4809
2026-01-17 23:05:17.14	82.19	46.22	-44.9	-48.0	16.0	0.00e+00	0	39	0	567279616	60	5463
2026-01-17 23:05:20.17	83.85	46.48	-44.2	-47.2	16.8	0.00e+00	0	39	0	572522496	60	4952
2026-01-17 23:05:23.16	85.51	46.71	-44.0	-46.8	17.1	0.00e+00	0	39	0	578813952	59	5019
2026-01-17 23:05:26.24	87.24	46.92	-44.6	-47.6	16.4	0.00e+00	0	39	0	584056832	59	5473
2026-01-17 23:05:29.49	89.09	47.12	-44.7	-47.9	16.1	0.00e+00	0	39	0	590348288	61	5045
2026-01-17 23:05:32.34	90.73	47.26	-44.6	-47.6	16.4	0.00e+00	0	39	0	595591168	60	5190
2026-01-17 23:05:35.47	92.55	47.39	-45.2	-48.5	15.5	0.00e+00	0	39	0	601882624	61	5440
2026-01-17 23:05:38.31	94.21	47.48	-43.3	-45.8	18.1	0.00e+00	0	39	0	607125504	58	4712
2026-01-17 23:05:41.44	96.05	47.55	-43.5	-46.0	17.9	0.00e+00	0	39	0	612368384	58	4841
2026-01-17 23:05:44.28	97.72	47.59	-43.5	-46.0	17.9	0.00e+00	0	39	0	617611264	58	4865
2026-01-17 23:05:47.61	99.69	47.60	-44.4	-47.2	16.8	0.00e+00	0	39	0	623902720	59	5274
2026-01-17 23:05:50.32	101.29	47.58	-44.1	-46.9	17.2	0.00e+00	0	39	0	629145600	59	5051
2026-01-17 23:05:53.61	103.23	47.52	-44.3	-47.1	17.0	0.00e+00	0	39	0	635437056	59	5163
2026-01-17 23:05:56.50	104.93	47.45	-44.6	-47.5	16.5	0.00e+00	0	39	0	640679936	59	5420
2026-01-17 23:05:59.61	106.74	47.33	-43.8	-46.5	17.4	0.00e+00	0	39	0	646971392	59	4841
2026-01-17 23:06:02.86	108.62	47.18	-44.2	-47.0	17.0	0.00e+00	0	39	0	653262848	59	5105
2026-01-17 23:06:06.23	110.55	47.00	-44.8	-47.7	16.3	0.00e+00	0	39	0	659554304	60	5268
2026-01-17 23:06:09.07	112.16	46.81	-45.4	-48.7	15.4	0.00e+00	0	39	0	664797184	62	5229
2026-01-17 23:06:12.20	113.91	46.58	-45.7	-49.1	15.0	0.00e+00	0	39	0	670040064	61	5817
2026-01-17 23:06:15.04	115.47	46.35	-45.7	-49.1	15.0	0.00e+00	0	39	0	675282944	62	5484
2026-01-17 23:06:18.29	117.23	46.06	-45.7	-49.1	15.1	0.00e+00	0	39	0	681574400	62	5476
2026-01-17 23:06:21.32	118.84	45.76	-45.3	-48.5	15.6	0.00e+00	0	39	0	687865856	62	5129
2026-01-17 23:06:24.45	120.47	45.43	-46.1	-49.8	14.3	6.10e-06	0	39	0	693108736	63	5612
2026-01-17 23:06:27.30	121.93	45.11	-44.1	-46.7	17.3	0.00e+00	0	39	0	698351616	60	4700
2026-01-17 23:06:30.42	123.49	44.75	-43.3	-45.7	18.3	0.00e+00	0	39	0	704643072	58	4672
2026-01-17 23:06:33.28	124.89	44.39	-43.2	-45.6	18.4	0.00e+00	0	39	0	709885952	57	4880
2026-01-17 23:06:36.41	126.39	43.99	-43.0	-45.4	18.5	0.00e+00	0	39	0	716177408	57	4781
2026-01-17 23:06:39.39	127.77	43.59	-42.9	-45.3	18.7	0.00e+00	0	39	0	721420288	57	4708
2026-01-17 23:06:42.38	129.13	43.18	-42.6	-44.9	19.1	0.00e+00	0	39	0	726663168	56	4792
2026-01-17 23:06:45.36	130.45	42.75	-42.7	-45.0	18.9	0.00e+00	0	39	0	732954624	57	4573
2026-01-17 23:06:48.34	131.74	42.31	-43.4	-45.9	18.1	0.00e+00	0	39	0	738197504	57	5057
2026-01-17 23:06:51.34	133.00	41.86	-42.8	-45.2	18.8	0.00e+00	0	39	0	743440384	57	4675
2026-01-17 23:06:54.33	134.22	41.41	-44.3	-47.0	17.1	0.00e+00	0	39	0	749731840	59	5127
2026-01-17 23:06:57.32	135.40	40.94	-42.7	-45.0	18.9	0.00e+00	0	39	0	754974720	57	4585
2026-01-17 23:07:00.30	136.55	40.47	-44.7	-47.7	16.4	0.00e+00	0	39	0	760217600	60	5246
2026-01-17 23:07:03.29	137.67	39.99	-43.5	-46.1	17.9	0.00e+00	0	39	0	766509056	59	4614
2026-01-17 23:07:06.27	138.76	39.51	-45.4	-48.7	15.4	0.00e+00	0	39	0	771751936	61	5547
2026-01-17 23:07:09.26	139.82	39.02	-43.8	-46.4	17.6	0.00e+00	0	39	0	776994816	59	4765
2026-01-17 23:07:12.24	140.84	38.53	-46.7	-51.0	13.0	0.00e+00	0	39	0	783286272	64	6105
2026-01-17 23:07:15.23	141.83	38.04	-44.3	-47.0	17.0	0.00e+00	0	39	0	788529152	60	4847
2026-01-17 23:07:18.56	142.91	37.48	-46.1	-49.7	14.4	0.00e+00	0	39	0	794820608	62	5918
2026-01-17 23:07:21.28	143.76	37.03	-44.5	-47.3	16.7	0.00e+00	0	39	0	800063488	60	5020
2026-01-17 23:07:24.56	144.76	36.48	-44.1	-46.8	17.2	0.00e+00	0	39	0	806354944	59	5019
2026-01-17 23:07:27.28	145.56	36.03	-46.0	-49.7	14.4	0.00e+00	0	39	0	811597824	63	5567
2026-01-17 23:07:30.72	146.54	35.46	-44.0	-46.6	17.4	0.00e+00	0	39	0	817889280	60	4641
2026-01-17 23:07:33.44	147.30	35.01	-45.5	-48.8	15.3	0.00e+00	0	39	0	823132160	61	5639
2026-01-17 23:07:36.71	148.17	34.47	-45.3	-48.6	15.4	0.00e+00	0	39	0	828375040	62	5181
2026-01-17 23:07:39.49	148.90	34.01	-44.1	-46.8	17.3	0.00e+00	0	39	0	833617920	60	4713
2026-01-17 23:07:42.81	149.74	33.46	-45.6	-49.1	15.0	0.00e+00	0	39	0	839909376	61	5795
2026-01-17 23:07:45.71	150.45	32.99	-45.8	-49.2	14.8	7.00e-07	0	39	0	846200832	63	5251
2026-01-17 23:07:49.00	151.24	32.45	-43.8	-46.4	17.5	0.00e+00	0	39	0	851443712	59	4800
2026-01-17 23:07:51.73	151.87	32.01	-45.2	-48.4	15.7	0.00e+00	0	39	0	856686592	61	5341
2026-01-17 23:07:55.00	152.60	31.49	-44.5	-47.4	16.6	0.00e+00	0	39	0	862978048	61	4781
2026-01-17 23:07:57.78	153.21	31.05	-43.4	-45.9	18.0	0.00e+00	0	39	0	868220928	58	4767
2026-01-17 23:08:01.15	153.92	30.52	-44.7	-47.8	16.2	0.00e+00	0	39	0	874512384	60	5321
2026-01-17 23:08:03.97	154.50	30.08	-45.6	-49.3	14.8	7.00e-07	0	39	0	879755264	62	5625
2026-01-17 23:08:07.24	155.16	29.57	-44.6	-47.8	16.2	0.00e+00	0	39	0	886046720	61	5004
2026-01-17 23:08:09.99	155.69	29.15	-44.3	-47.2	16.8	0.00e+00	0	39	0	891289600	60	4939
2026-01-17 23:08:13.26	156.31	28.65	-45.1	-48.4	15.7	0.00e+00	0	39	0	897581056	60	5663
2026-01-17 23:08:15.97	156.81	28.24	-44.9	-48.1	15.9	0.00e+00	0	39	0	902823936	61	5191
2026-01-17 23:08:19.21	157.39	27.76	-44.0	-46.7	17.3	0.00e+00	0	39	0	908066816	60	4689
2026-01-17 23:08:22.19	157.91	27.32	-43.5	-46.0	17.9	0.00e+00	0	39	0	914358272	59	4570
2026-01-17 23:08:25.18	158.41	26.89	-43.7	-46.3	17.7	0.00e+00	0	39	0	919601152	58	4989
2026-01-17 23:08:28.15	158.90	26.46	-43.9	-46.5	17.4	0.00e+00	0	39	0	924844032	58	5155
2026-01-17 23:08:31.50	159.44	25.98	-44.0	-46.7	17.2	0.00e+00	0	39	0	931135488	59	4952
2026-01-17 23:08:34.22	159.86	25.60	-43.7	-46.4	17.6	0.00e+00	0	39	0	936378368	59	4765
2026-01-17 23:08:37.48	160.36	25.14	-43.6	-46.1	17.8	0.00e+00	0	39	0	942669824	59	4634
2026-01-17 23:08:40.22	160.77	24.77	-44.2	-47.0	16.9	0.00e+00	0	39	0	947912704	59	5130
2026-01-17 23:08:43.49	161.24	24.32	-44.5	-47.4	16.5	0.00e+00	0	39	0	954204160	59	5399
2026-01-17 23:08:46.18	161.62	23.96	-44.0	-46.7	17.3	0.00e+00	0	39	0	959447040	59	4941
2026-01-17 23:08:49.45	162.07	23.52	-43.4	-45.9	18.0	0.00e+00	0	39	0	965738496	58	4778
2026-01-17 23:08:52.18	162.44	23.16	-43.3	-45.8	18.1	0.00e+00	0	39	0	969932800	58	4745
2026-01-17 23:08:55.45	162.87	22.74	-43.6	-46.2	17.7	0.00e+00	0	39	0	976224256	58	4938
2026-01-17 23:08:58.15	163.21	22.39	-43.7	-46.4	17.5	0.00e+00	0	39	0	981467136	58	5066
2026-01-17 23:09:01.42	163.62	21.97	-43.9	-46.6	17.3	0.00e+00	0	39	0	987758592	58	5161
2026-01-17 23:09:04.12	163.95	21.64	-44.1	-46.9	17.0	0.00e+00	0	39	0	993001472	58	5347
2026-01-17 23:09:07.39	164.34	21.23	-43.9	-46.6	17.3	0.00e+00	0	39	0	999292928	59	4871
2026-01-17 23:09:10.09	164.66	20.90	-43.6	-46.2	17.7	0.00e+00	0	39	0	1003487232	59	4655
2026-01-17 23:09:13.65	165.06	20.47	-43.7	-46.3	17.5	0.00e+00	0	39	0	1010827264	59	4743
2026-01-17 23:09:16.36	165.36	20.14	-43.9	-46.7	17.2	0.00e+00	0	39	0	1016070144	59	4936
2026-01-17 23:09:19.63	165.72	19.76	-44.3	-47.2	16.6	0.00e+00	0	39	0	1021313024	59	5273
2026-01-17 23:09:22.34	166.01	19.44	-44.4	-47.3	16.6	0.00e+00	0	39	0	1026555904	59	5305
2026-01-17 23:09:25.63	166.35	19.06	-44.1	-47.0	16.9	0.00e+00	0	39	0	1032847360	59	5113
2026-01-17 23:09:28.36	166.63	18.75	-43.8	-46.5	17.3	0.00e+00	0	39	0	1038090240	59	4849
2026-01-17 23:09:31.55	166.94	18.39	-43.5	-46.1	17.7	0.00e+00	0	39	0	1044381696	58	4896
2026-01-17 23:09:34.68	167.25	18.04	-43.2	-45.7	18.1	0.00e+00	0	39	0	1049624576	58	4694
2026-01-17 23:09:37.52	167.52	17.72	-43.2	-45.8	18.0	0.00e+00	0	39	0	1054867456	58	4712
2026-01-17 23:09:40.62	167.81	17.39	-43.3	-45.8	18.0	0.00e+00	0	39	0	1061158912	58	4737
2026-01-17 23:09:43.60	168.08	17.06	-43.5	-46.1	17.6	0.00e+00	0	39	0	1066401792	58	4924
2026-01-17 23:09:46.59	168.35	16.75	-43.6	-46.3	17.5	0.00e+00	0	39	0	1072693248	58	5009
2026-01-17 23:09:49.57	168.61	16.43	-43.5	-46.2	17.6	0.00e+00	0	39	0	1077936128	58	4948
2026-01-17 23:09:52.56	168.87	16.12	-43.5	-46.1	17.7	0.00e+00	0	39	0	1083179008	58	4911
2026-01-17 23:09:55.54	169.12	15.81	-43.2	-45.8	18.0	0.00e+00	0	39	0	1089470464	58	4728
2026-01-17 23:09:58.52	169.37	15.51	-43.1	-45.6	18.1	0.00e+00	0	39	0	1094713344	58	4635
2026-01-17 23:10:01.51	169.61	15.21	-43.2	-45.8	17.9	0.00e+00	0	39	0	1099956224	58	4728
2026-01-17 23:10:04.49	169.85	14.91	-43.5	-46.1	17.6	0.00e+00	0	39	0	1106247680	58	4916
2026-01-17 23:10:07.48	170.08	14.61	-43.7	-46.5	17.3	0.00e+00	0	39	0	1111490560	58	5126
2026-01-17 23:10:10.58	170.32	14.31	-43.8	-46.7	17.1	0.00e+00	0	39	0	1117782016	58	5221
2026-01-17 23:10:13.42	170.53	14.04	-44.0	-47.0	16.8	0.00e+00	0	39	0	1123024896	58	5405
2026-01-17 23:10:16.55	170.76	13.74	-44.1	-47.1	16.6	0.00e+00	0	39	0	1128267776	59	5190
2026-01-17 23:10:19.39	170.97	13.47	-44.0	-46.8	16.9	0.00e+00	0	39	0	1133510656	59	5004
2026-01-17 23:10:22.52	171.19	13.18	-44.0	-46.8	16.9	0.00e+00	0	39	0	1139802112	59	5017
2026-01-17 23:10:25.36	171.39	12.91	-43.7	-46.4	17.2	0.00e+00	0	39	0	1145044992	59	4800
2026-01-17 23:10:28.49	171.61	12.63	-43.6	-46.3	17.2	0.00e+00	0	39	0	1151336448	59	4745
2026-01-17 23:10:31.43	171.81	12.36	-43.5	-46.3	17.4	0.00e+00	0	39	0	1156579328	58	4984
2026-01-17 23:10:34.71	172.02	12.06	-43.5	-46.3	17.3	0.00e+00	0	39	0	1162870784	58	5040
2026-01-17 23:10:37.65	172.21	11.80	-43.4	-46.4	17.1	0.00e+00	0	39	0	1168113664	58	5083
2026-01-17 23:10:41.03	172.43	11.50	-43.4	-46.6	17.0	0.00e+00	0	39	0	1174405120	58	5216
2026-01-17 23:10:43.73	172.60	11.27	-43.4	-47.0	16.7	0.00e+00	0	39	0	1179648000	58	5411
2026-01-17 23:10:47.03	172.80	10.98	-43.5	-47.2	16.4	0.00e+00	0	39	0	1185939456	58	5569
2026-01-17 23:10:49.74	172.97	10.75	-43.6	-47.4	16.3	0.00e+00	0	39	0	1191182336	58	5657
2026-01-17 23:10:53.02	173.17	10.47	-43.8	-47.5	16.1	0.00e+00	0	39	0	1196425216	58	5781
2026-01-17 23:10:55.73	173.32	10.25	-43.8	-47.5	16.1	0.00e+00	0	39	0	1201668096	58	5735
2026-01-17 23:10:59.22	173.53	9.96	-43.7	-47.2	16.4	5.30e-06	0	39	0	1209008128	58	5561
2026-01-17 23:11:01.95	173.68	9.73	-43.7	-47.2	16.3	0.00e+00	0	39	0	1213202432	58	5565
2026-01-17 23:11:05.25	173.87	9.46	-43.7	-47.2	16.4	0.00e+00	0	39	0	1219493888	58	5536
2026-01-17 23:11:07.97	174.02	9.24	-43.5	-47.0	16.5	0.00e+00	0	39	0	1224736768	58	5454
2026-01-17 23:11:11.24	174.19	8.98	-47.2	-63.1	3.8	2.55e-01	0	39	104	1231028224	65	23182
2026-01-17 23:11:13.95	174.34	8.76	-49.8	-65.2	3.8	1.49e+00	0	39	104	1231028224	70	22169
2026-01-17 23:11:17.21	174.51	8.51	-50.1	-65.4	3.8	1.49e+00	0	39	104	1231028224	70	22655
2026-01-17 23:11:19.99	174.65	8.29	-50.2	-65.5	3.8	1.49e+00	0	39	104	1231028224	71	21542
2026-01-17 23:11:23.30	174.82	8.03	-50.3	-65.5	3.8	1.49e+00	0	39	104	1231028224	71	21668
2026-01-17 23:11:26.28	174.97	7.81	-50.4	-65.6	3.8	1.49e+00	0	39	104	1231028224	71	21763
2026-01-17 23:11:29.64	175.14	7.55	-50.4	-65.5	3.8	1.49e+00	0	39	104	1231028224	71	21722
2026-01-17 23:11:32.55	175.28	7.33	-50.3	-65.6	3.8	1.49e+00	0	39	104	1231028224	71	21841
2026-01-17 23:11:35.82	175.44	7.09	-50.3	-65.6	3.8	1.49e+00	0	39	104	1231028224	71	21889
2026-01-17 23:11:38.54	175.57	6.88	-50.0	-65.6	3.8	1.49e+00	0	39	104	1231028224	71	21849
2026-01-17 23:11:41.80	175.72	6.64	-50.0	-65.5	3.8	1.49e+00	0	39	104	1231028224	71	21704
2026-01-17 23:11:44.50	175.84	6.45	-50.0	-65.5	3.8	1.49e+00	0	39	104	1231028224	71	21588
2026-01-17 23:11:47.78	175.99	6.21	-50.0	-65.5	3.8	1.49e+00	0	39	104	1231028224	71	21544
2026-01-17 23:11:50.48	176.11	6.02	-50.0	-65.5	3.8	1.49e+00	0	39	104	1231028224	71	21573
2026-01-17 23:11:53.75	176.26	5.78	-49.9	-65.5	3.8	1.49e+00	0	39	104	1231028224	71	21547
2026-01-17 23:11:56.45	176.37	5.59	-50.0	-65.5	3.8	1.49e+00	0	39	104	1231028224	71	21560
2026-01-17 23:11:59.73	176.51	5.36	-49.9	-65.4	3.8	1.49e+00	0	39	104	1231028224	71	21466
2026-01-17 23:12:02.42	176.63	5.17	-49.9	-65.5	3.8	1.49e+00	0	39	104	1231028224	71	21583
2026-01-17 23:12:05.69	176.77	4.95	-49.9	-65.5	3.8	1.49e+00	0	39	104	1231028224	71	21595

#Closed at: 2026-01-17 23:12:06
#Recorded file [1231 MB]: D:/Data/31040_260118_015926.dat