passes_logs/2026/01/17/T1/T1__20260117_095843_NOAA_21_JPSS-2_rec.log

#Pass ID: 20260117_095843_NOAA 21 (JPSS-2)
#Satellite: NOAA 21 (JPSS-2)
#Configuration: NOAA 21
#almurnet v.1.7.20251203
#Start time: 2026-01-17 09:58:44

#Version: 2.0.20230620
#Station: T1
#Location: 37.570604 lon 55.790049 lat
#TLE: 1 54234U 22150A   26016.21096038  .00000027  00000+0  33607-4 0  9993
#TLE: 2 54234  98.7500 317.0960 0000625 282.3388  77.7718 14.19534911164985

#Time	Az	El	Level	Level2	SNR	BER	BlckErr	Temp	State	Recorded	gain1	gain2
2026-01-17 09:58:44.97	161.89	5.09	-49.8	-63.0	3.8	1.49e+00	0	39	0	0	71	16186
2026-01-17 09:58:47.94	161.90	5.31	-49.8	-62.8	3.8	1.49e+00	0	40	104	0	71	15882
2026-01-17 09:58:50.92	161.92	5.52	-49.8	-63.0	3.8	1.49e+00	0	40	104	0	71	16173
2026-01-17 09:58:53.90	161.93	5.74	-49.8	-63.1	3.8	1.49e+00	0	40	104	0	71	16418
2026-01-17 09:58:56.88	161.94	5.96	-49.8	-62.7	3.8	1.49e+00	0	40	104	0	71	15587
2026-01-17 09:58:59.86	161.96	6.19	-49.7	-61.9	3.8	1.49e+00	0	40	104	0	71	14310
2026-01-17 09:59:02.84	161.97	6.41	-49.7	-61.6	3.8	1.49e+00	0	40	104	0	71	13851
2026-01-17 09:59:05.82	161.99	6.64	-49.7	-62.2	3.8	1.49e+00	0	40	104	0	71	14820
2026-01-17 09:59:08.80	162.00	6.87	-49.8	-63.0	3.8	1.49e+00	0	40	104	0	71	16142
2026-01-17 09:59:11.78	162.01	7.10	-49.8	-63.1	3.8	1.49e+00	0	41	104	0	71	16317
2026-01-17 09:59:14.76	162.03	7.33	-49.7	-62.3	3.8	1.49e+00	0	41	104	0	71	14970
2026-01-17 09:59:17.74	162.04	7.57	-49.3	-58.1	4.7	1.30e+00	0	41	104	0	70	9787
2026-01-17 09:59:20.72	162.06	7.80	-48.0	-53.5	8.3	8.37e-02	0	41	0	0	68	6436
2026-01-17 09:59:23.70	162.07	8.04	-46.3	-50.0	11.7	9.16e-04	0	41	0	0	64	5414
2026-01-17 09:59:26.68	162.08	8.29	-45.3	-48.4	13.4	1.29e-05	0	41	0	0	62	5052
2026-01-17 09:59:29.66	162.10	8.53	-45.1	-48.1	13.7	9.90e-06	0	41	0	0	62	4910
2026-01-17 09:59:32.64	162.11	8.78	-46.2	-49.7	12.1	2.17e-04	0	41	0	0	62	5905
2026-01-17 09:59:35.62	162.13	9.03	-47.7	-52.9	8.6	2.58e-02	0	41	0	0	66	6791
2026-01-17 09:59:38.68	162.14	9.28	-47.0	-51.2	10.3	1.09e-01	0	41	0	0	66	5579
2026-01-17 09:59:41.64	162.16	9.54	-45.6	-48.8	12.9	3.16e-01	0	41	0	0	63	5006
2026-01-17 09:59:45.04	162.18	9.83	-43.1	-45.4	16.4	0.00e+00	0	41	0	0	57	4761
2026-01-17 09:59:47.98	162.19	10.09	-42.5	-44.6	17.1	0.00e+00	0	41	0	0	57	4346
2026-01-17 09:59:51.25	162.21	10.37	-41.6	-43.6	18.0	0.00e+00	0	41	0	0	55	4343
2026-01-17 09:59:53.99	162.22	10.62	-41.4	-43.4	18.1	0.00e+00	0	41	0	0	54	4514
2026-01-17 09:59:57.26	162.24	10.91	-41.5	-43.4	18.1	0.00e+00	0	41	0	0	54	4523
2026-01-17 09:59:59.96	162.26	11.16	-41.3	-43.2	18.3	0.00e+00	0	41	0	0	54	4435
2026-01-17 10:00:03.24	162.27	11.46	-41.2	-43.1	18.4	0.00e+00	0	41	0	0	54	4367
2026-01-17 10:00:05.96	162.29	11.72	-41.1	-42.9	18.6	0.00e+00	0	41	0	0	54	4289
2026-01-17 10:00:09.23	162.31	12.02	-40.9	-42.8	18.7	0.00e+00	0	41	0	0	53	4464
2026-01-17 10:00:11.94	162.32	12.28	-40.9	-42.8	18.7	0.00e+00	0	41	0	0	53	4458
2026-01-17 10:00:15.21	162.34	12.60	-40.9	-42.7	18.8	0.00e+00	0	41	0	0	53	4422
2026-01-17 10:00:18.26	162.36	12.90	-40.8	-42.6	18.9	0.00e+00	0	41	0	0	53	4358
2026-01-17 10:00:21.24	162.37	13.19	-40.7	-42.5	19.0	0.00e+00	0	41	0	0	53	4329
2026-01-17 10:00:24.23	162.39	13.49	-40.6	-42.4	19.1	0.00e+00	0	42	0	0	53	4280
2026-01-17 10:00:27.21	162.41	13.79	-40.6	-42.4	19.1	0.00e+00	0	41	0	0	53	4272
2026-01-17 10:00:30.20	162.43	14.10	-40.6	-42.4	19.1	0.00e+00	0	41	0	0	53	4274
2026-01-17 10:00:33.26	162.45	14.42	-40.5	-42.3	19.1	0.00e+00	0	42	0	0	53	4236
2026-01-17 10:00:36.25	162.46	14.73	-40.6	-42.4	19.0	0.00e+00	0	41	0	0	53	4285
2026-01-17 10:00:39.44	162.48	15.07	-40.5	-42.3	19.2	0.00e+00	0	42	0	0	52	4489
2026-01-17 10:00:42.32	162.50	15.39	-40.5	-42.3	19.2	0.00e+00	0	42	0	0	52	4491
2026-01-17 10:00:45.68	162.52	15.75	-40.6	-42.4	19.2	0.00e+00	0	42	0	0	52	4499
2026-01-17 10:00:48.43	162.54	16.06	-40.5	-42.3	19.2	0.00e+00	0	42	0	0	52	4493
2026-01-17 10:00:51.69	162.56	16.43	-40.6	-42.4	19.2	0.00e+00	0	42	0	0	52	4510
2026-01-17 10:00:54.40	162.58	16.74	-40.6	-42.4	19.1	0.00e+00	0	41	0	0	52	4533
2026-01-17 10:00:57.68	162.60	17.12	-40.7	-42.6	19.0	0.00e+00	0	42	0	0	52	4599
2026-01-17 10:01:00.69	162.62	17.47	-40.9	-42.8	18.8	0.00e+00	0	42	0	0	52	4713
2026-01-17 10:01:03.96	162.64	17.87	-40.8	-42.6	19.0	0.00e+00	0	42	0	0	52	4617
2026-01-17 10:01:06.69	162.66	18.20	-40.7	-42.5	19.1	0.00e+00	0	42	0	0	52	4556
2026-01-17 10:01:10.05	162.69	18.61	-40.7	-42.5	19.2	0.00e+00	0	42	0	0	52	4561
2026-01-17 10:01:12.78	162.70	18.95	-40.8	-42.6	19.0	0.00e+00	0	42	0	0	52	4614
2026-01-17 10:01:16.19	162.73	19.39	-40.6	-42.4	19.2	0.00e+00	0	42	0	0	52	4534
2026-01-17 10:01:18.94	162.75	19.74	-40.5	-42.3	19.4	0.00e+00	0	42	0	0	52	4459
2026-01-17 10:01:22.24	162.77	20.18	-40.5	-42.2	19.4	0.00e+00	0	42	0	0	52	4433
2026-01-17 10:01:24.96	162.79	20.54	-40.4	-42.2	19.4	0.00e+00	0	42	0	0	52	4417
2026-01-17 10:01:28.23	162.82	20.98	-40.3	-42.1	19.5	0.00e+00	0	42	0	0	52	4358
2026-01-17 10:01:30.99	162.84	21.36	-40.2	-41.9	19.6	0.00e+00	0	42	0	0	52	4278
2026-01-17 10:01:34.26	162.87	21.82	-40.0	-41.7	19.9	0.00e+00	0	42	0	0	51	4403
2026-01-17 10:01:37.16	162.89	22.23	-39.9	-41.6	20.0	0.00e+00	0	42	0	0	51	4363
2026-01-17 10:01:40.15	162.92	22.67	-39.9	-41.6	20.1	0.00e+00	0	42	0	0	51	4346
2026-01-17 10:01:43.16	162.94	23.11	-39.6	-41.3	20.2	0.00e+00	0	42	0	0	51	4215
2026-01-17 10:01:46.24	162.97	23.57	-39.7	-41.3	20.3	0.00e+00	0	42	0	0	51	4237
2026-01-17 10:01:49.24	162.99	24.03	-39.5	-41.2	20.4	0.00e+00	0	42	0	0	50	4398
2026-01-17 10:01:52.37	163.02	24.52	-39.6	-41.2	20.4	0.00e+00	0	42	0	0	50	4440
2026-01-17 10:01:55.31	163.05	24.98	-39.8	-41.5	20.2	0.00e+00	0	42	0	0	50	4589
2026-01-17 10:01:58.43	163.08	25.49	-39.9	-41.6	20.2	0.00e+00	0	42	0	0	50	4599
2026-01-17 10:02:01.28	163.10	25.95	-40.0	-41.7	20.1	0.00e+00	0	42	0	0	50	4659
2026-01-17 10:02:04.41	163.13	26.48	-40.3	-42.0	19.7	0.00e+00	0	42	0	0	51	4582
2026-01-17 10:02:07.25	163.16	26.96	-40.4	-42.1	19.7	0.00e+00	0	42	0	0	51	4635
2026-01-17 10:02:10.48	163.19	27.52	-40.7	-42.5	19.3	0.00e+00	0	42	0	0	52	4546
2026-01-17 10:02:13.38	163.22	28.04	-40.9	-42.7	19.1	0.00e+00	0	42	0	0	52	4678
2026-01-17 10:02:16.65	163.26	28.63	-40.9	-42.6	19.2	0.00e+00	0	42	0	0	52	4643
2026-01-17 10:02:19.37	163.29	29.13	-41.0	-42.8	19.0	0.00e+00	0	42	0	0	52	4711
2026-01-17 10:02:22.65	163.32	29.75	-40.5	-42.2	19.4	0.00e+00	0	42	0	0	52	4428
2026-01-17 10:02:25.38	163.36	30.27	-40.3	-42.1	19.6	0.00e+00	0	42	0	0	52	4341
2026-01-17 10:02:28.65	163.39	30.91	-39.8	-41.5	20.1	0.00e+00	0	42	0	0	51	4301
2026-01-17 10:02:31.72	163.43	31.52	-39.8	-41.4	20.1	0.00e+00	0	42	0	0	51	4282
2026-01-17 10:02:34.70	163.47	32.13	-40.1	-41.8	19.9	0.00e+00	0	42	0	0	51	4463
2026-01-17 10:02:37.69	163.51	32.76	-40.5	-42.2	19.5	0.00e+00	0	42	0	0	51	4685
2026-01-17 10:02:40.72	163.55	33.40	-40.8	-42.6	19.1	0.00e+00	0	42	0	0	52	4606
2026-01-17 10:02:43.98	163.59	34.11	-41.3	-43.2	18.6	0.00e+00	0	42	0	0	53	4687
2026-01-17 10:02:46.69	163.63	34.71	-41.8	-43.7	18.2	0.00e+00	0	42	0	0	54	4676
2026-01-17 10:02:49.96	163.67	35.46	-42.4	-44.5	17.5	0.00e+00	0	42	0	0	55	4844
2026-01-17 10:02:52.66	163.71	36.08	-42.6	-44.7	17.5	0.00e+00	0	42	0	0	56	4661
2026-01-17 10:02:56.02	163.77	36.88	-42.5	-44.5	17.6	0.00e+00	0	42	0	0	56	4560
2026-01-17 10:02:59.02	163.81	37.61	-42.3	-44.2	17.8	0.00e+00	0	42	0	0	56	4440
2026-01-17 10:03:02.01	163.86	38.35	-42.1	-44.0	18.0	0.00e+00	0	42	0	0	56	4315
2026-01-17 10:03:05.00	163.92	39.11	-41.8	-43.6	18.1	0.00e+00	0	42	0	0	55	4381
2026-01-17 10:03:08.06	163.97	39.90	-41.8	-43.7	18.0	0.00e+00	0	42	0	0	55	4424
2026-01-17 10:03:10.92	164.02	40.66	-41.9	-43.9	18.0	0.00e+00	0	42	0	0	55	4512
2026-01-17 10:03:14.05	164.08	41.51	-42.1	-44.0	18.0	0.00e+00	0	42	0	0	55	4593
2026-01-17 10:03:16.89	164.14	42.30	-42.6	-44.6	17.5	0.00e+00	0	42	0	0	55	4891
2026-01-17 10:03:20.08	164.21	43.21	-43.0	-45.1	17.1	0.00e+00	0	42	0	0	56	4885
2026-01-17 10:03:22.92	164.27	44.03	-43.2	-45.3	16.9	0.00e+00	0	42	0	0	56	5003
2026-01-17 10:03:25.98	164.34	44.94	-43.4	-45.6	16.5	0.00e+00	0	42	0	0	57	4889
2026-01-17 10:03:28.96	164.42	45.85	-43.5	-45.7	16.2	0.00e+00	0	43	0	0	57	4958
2026-01-17 10:03:31.95	164.49	46.77	-43.6	-45.8	16.3	0.00e+00	0	42	0	0	58	4754
2026-01-17 10:03:34.93	164.57	47.72	-42.6	-44.6	17.5	0.00e+00	0	42	0	0	57	4350
2026-01-17 10:03:37.92	164.66	48.69	-42.2	-44.1	18.0	0.00e+00	0	42	0	0	56	4365
2026-01-17 10:03:40.90	164.75	49.68	-42.1	-44.1	18.0	0.00e+00	0	42	0	0	56	4349
2026-01-17 10:03:43.89	164.85	50.70	-41.8	-43.7	18.4	0.00e+00	0	42	0	0	55	4392
2026-01-17 10:03:46.87	164.95	51.73	-41.7	-43.6	18.3	0.00e+00	0	42	0	0	55	4351
2026-01-17 10:03:49.86	165.06	52.79	-41.7	-43.5	18.4	0.00e+00	0	42	0	0	55	4327
2026-01-17 10:03:52.97	165.18	53.92	-41.6	-43.5	18.5	0.00e+00	0	42	0	0	55	4308
2026-01-17 10:03:55.81	165.30	54.97	-41.4	-43.3	18.6	0.00e+00	0	42	0	0	54	4464
2026-01-17 10:03:58.93	165.44	56.15	-40.4	-42.1	19.7	0.00e+00	0	42	0	0	52	4344
2026-01-17 10:04:01.77	165.57	57.25	-40.6	-42.3	19.5	0.00e+00	0	42	0	0	52	4468
2026-01-17 10:04:05.03	165.74	58.53	-40.7	-42.5	19.3	0.00e+00	0	42	0	0	52	4571
2026-01-17 10:04:07.87	165.91	59.68	-40.0	-41.7	20.1	0.00e+00	0	42	0	0	51	4406
2026-01-17 10:04:11.00	166.10	60.96	-39.6	-41.2	20.5	0.00e+00	0	42	0	0	51	4183
2026-01-17 10:04:13.85	166.30	62.15	-39.5	-41.1	20.6	0.00e+00	0	42	0	0	50	4374
2026-01-17 10:04:16.97	166.53	63.48	-39.5	-41.1	20.6	0.00e+00	0	42	0	0	50	4369
2026-01-17 10:04:19.82	166.77	64.71	-39.7	-41.4	20.3	0.00e+00	0	42	0	0	50	4520
2026-01-17 10:04:22.95	167.07	66.09	-39.0	-40.6	21.1	0.00e+00	0	42	0	0	49	4350
2026-01-17 10:04:25.79	167.36	67.36	-39.3	-41.0	20.6	0.00e+00	0	42	0	0	49	4552
2026-01-17 10:04:28.91	167.74	68.77	-39.3	-40.9	20.7	0.00e+00	0	42	0	0	49	4537
2026-01-17 10:04:31.75	168.13	70.08	-39.2	-40.8	20.9	0.00e+00	0	42	0	0	49	4451
2026-01-17 10:04:34.94	168.63	71.57	-38.8	-40.4	21.1	0.00e+00	0	42	0	0	49	4247
2026-01-17 10:04:37.78	169.16	72.92	-38.5	-40.0	21.4	0.00e+00	0	42	0	0	48	4339
2026-01-17 10:04:41.07	169.89	74.49	-39.0	-40.6	20.6	0.00e+00	0	42	0	0	48	4643
2026-01-17 10:04:44.20	170.75	76.00	-38.4	-40.0	21.4	0.00e+00	0	42	0	0	48	4325
2026-01-17 10:04:47.04	171.70	77.39	-38.8	-40.3	21.1	0.00e+00	0	42	0	0	48	4486
2026-01-17 10:04:50.17	173.04	78.92	-39.0	-40.7	20.9	0.00e+00	0	42	0	0	48	4656
2026-01-17 10:04:53.23	174.77	80.43	-38.7	-40.2	21.2	0.00e+00	0	42	0	0	49	4189
2026-01-17 10:04:56.07	176.95	81.82	-39.4	-41.1	20.5	0.00e+00	0	42	0	0	49	4613
2026-01-17 10:04:59.20	180.42	83.35	-39.5	-41.3	20.3	0.00e+00	0	42	0	0	49	4707
2026-01-17 10:05:02.05	185.32	84.72	-39.1	-40.7	20.8	0.00e+00	0	42	0	0	49	4413
2026-01-17 10:05:05.17	194.62	86.14	-38.9	-40.6	20.7	0.00e+00	0	42	0	0	49	4346
2026-01-17 10:05:08.03	211.30	87.27	-39.6	-41.3	19.9	0.00e+00	0	42	0	0	49	4717
2026-01-17 10:05:11.16	247.36	87.94	-39.0	-40.7	20.7	0.00e+00	0	42	0	0	50	4146
2026-01-17 10:05:14.21	286.58	87.52	-38.9	-40.5	21.0	0.00e+00	0	42	0	0	49	4326
2026-01-17 10:05:17.18	307.42	86.44	-38.4	-40.0	21.4	0.00e+00	0	42	0	0	48	4312
2026-01-17 10:05:20.16	317.82	85.11	-39.1	-40.7	20.3	0.00e+00	0	42	0	0	48	4698
2026-01-17 10:05:23.26	323.84	83.64	-38.9	-40.5	20.7	0.00e+00	0	42	0	0	49	4310
2026-01-17 10:05:26.53	327.74	82.04	-38.7	-40.3	21.1	0.00e+00	0	42	0	0	49	4211
2026-01-17 10:05:29.26	329.95	80.70	-38.6	-40.1	21.1	0.00e+00	0	42	0	0	49	4142
2026-01-17 10:05:32.52	331.88	79.10	-38.8	-40.4	20.7	0.00e+00	0	42	0	0	48	4534
2026-01-17 10:05:35.23	333.09	77.77	-38.8	-40.4	20.9	0.00e+00	0	43	0	0	48	4520
2026-01-17 10:05:38.49	334.24	76.18	-38.3	-39.8	21.4	0.00e+00	0	43	0	0	48	4224
2026-01-17 10:05:41.39	335.06	74.78	-38.5	-40.1	21.1	0.00e+00	0	42	0	0	48	4365
2026-01-17 10:05:45.54	335.99	72.80	-38.8	-40.4	20.6	0.00e+00	0	42	0	0	49	4259
2026-01-17 10:05:48.39	336.51	71.46	-37.5	-39.1	21.8	0.00e+00	0	42	0	0	46	4344
2026-01-17 10:05:52.45	337.13	69.57	-39.1	-40.8	20.5	0.00e+00	0	42	0	0	48	4709
2026-01-17 10:05:55.29	337.50	68.27	-38.6	-40.2	20.8	0.00e+00	0	42	0	0	48	4400
2026-01-17 10:05:59.00	337.92	66.61	-39.4	-41.1	20.3	0.00e+00	0	43	0	0	49	4599
2026-01-17 10:06:01.98	338.21	65.29	-38.4	-40.0	21.1	0.00e+00	0	42	0	0	48	4303
2026-01-17 10:06:04.96	338.47	63.99	-38.2	-39.8	21.2	0.00e+00	0	42	0	0	47	4447
2026-01-17 10:06:07.94	338.71	62.72	-39.8	-41.6	19.9	0.00e+00	0	42	0	0	50	4604
2026-01-17 10:06:10.92	338.92	61.47	-38.6	-40.2	20.8	0.00e+00	0	42	0	0	49	4156
2026-01-17 10:06:13.84	339.11	60.27	-39.8	-41.6	19.9	0.00e+00	0	42	0	0	50	4599
2026-01-17 10:06:16.97	339.30	59.00	-39.2	-40.8	20.4	0.00e+00	0	42	0	0	50	4231
2026-01-17 10:06:19.81	339.45	57.88	-39.1	-40.8	20.4	0.00e+00	0	42	0	0	50	4198
2026-01-17 10:06:22.98	339.61	56.65	-39.7	-41.4	20.0	0.00e+00	0	42	0	0	50	4525
2026-01-17 10:06:25.89	339.75	55.54	-40.9	-42.8	18.6	0.00e+00	0	42	0	0	52	4715
2026-01-17 10:06:29.02	339.88	54.38	-40.6	-42.4	18.7	0.00e+00	0	42	0	0	52	4543
2026-01-17 10:06:31.86	340.00	53.34	-39.8	-41.5	19.6	0.00e+00	0	42	0	0	51	4323
2026-01-17 10:06:34.99	340.11	52.23	-40.5	-42.3	19.2	0.00e+00	0	42	0	0	51	4719
2026-01-17 10:06:37.83	340.21	51.23	-41.7	-43.7	17.7	0.00e+00	0	42	0	0	54	4686
2026-01-17 10:06:40.95	340.32	50.17	-41.4	-43.3	18.1	0.00e+00	0	42	0	0	54	4486
2026-01-17 10:06:43.79	340.41	49.22	-41.5	-43.4	18.1	0.00e+00	0	42	0	0	54	4517
2026-01-17 10:06:46.92	340.50	48.20	-41.7	-43.7	17.8	0.00e+00	0	43	0	0	54	4690
2026-01-17 10:06:49.77	340.58	47.29	-42.4	-44.5	17.1	0.00e+00	0	42	0	0	55	4851
2026-01-17 10:06:52.89	340.66	46.31	-42.3	-44.4	17.1	0.00e+00	0	42	0	0	55	4784
2026-01-17 10:06:55.78	340.73	45.43	-42.2	-44.3	17.0	0.00e+00	0	42	0	0	55	4725
2026-01-17 10:06:59.05	340.81	44.45	-43.1	-45.5	16.3	0.00e+00	0	42	0	0	57	4853
2026-01-17 10:07:01.76	340.87	43.66	-42.8	-45.1	16.7	0.00e+00	0	42	0	0	57	4614
2026-01-17 10:07:05.05	340.95	42.72	-41.7	-43.6	17.8	0.00e+00	0	42	0	0	55	4388
2026-01-17 10:07:07.74	341.00	41.97	-42.2	-44.2	17.3	0.00e+00	0	42	0	0	55	4691
2026-01-17 10:07:11.25	341.07	41.02	-42.3	-44.5	17.2	0.00e+00	0	42	0	0	55	4822
2026-01-17 10:07:13.97	341.13	40.29	-42.4	-44.6	17.0	0.00e+00	0	42	0	0	55	4912
2026-01-17 10:07:17.23	341.19	39.44	-42.3	-44.4	17.3	0.00e+00	0	43	0	0	55	4766
2026-01-17 10:07:19.94	341.24	38.75	-41.7	-43.7	18.0	0.00e+00	0	42	0	0	55	4394
2026-01-17 10:07:23.20	341.29	37.94	-41.1	-43.0	18.4	0.00e+00	0	42	0	0	54	4292
2026-01-17 10:07:26.23	341.34	37.20	-40.6	-42.4	18.8	0.00e+00	0	43	0	0	53	4278
2026-01-17 10:07:29.77	341.40	36.36	-40.9	-42.8	18.6	0.00e+00	0	42	0	0	52	4743
2026-01-17 10:07:32.47	341.44	35.73	-41.1	-43.0	18.5	0.00e+00	0	42	0	0	52	4845
2026-01-17 10:07:35.74	341.49	34.99	-41.2	-43.1	18.4	0.00e+00	0	42	0	0	53	4630
2026-01-17 10:07:38.47	341.53	34.38	-41.4	-43.4	18.2	0.00e+00	0	43	0	0	53	4767
2026-01-17 10:07:41.74	341.57	33.67	-41.2	-43.1	18.5	0.00e+00	0	43	0	0	53	4608
2026-01-17 10:07:44.59	341.61	33.06	-40.9	-42.8	18.7	0.00e+00	0	42	0	0	53	4476
2026-01-17 10:07:48.08	341.66	32.34	-40.3	-42.2	19.4	0.00e+00	0	42	0	0	52	4392
2026-01-17 10:07:50.87	341.70	31.77	-40.2	-42.0	19.5	0.00e+00	0	43	0	0	52	4312
2026-01-17 10:07:54.07	341.74	31.13	-40.2	-41.9	19.6	0.00e+00	0	43	0	0	52	4282
2026-01-17 10:07:57.20	341.77	30.51	-40.4	-42.3	19.3	0.00e+00	0	43	0	0	52	4452
2026-01-17 10:08:00.22	341.81	29.94	-40.5	-42.3	19.2	0.00e+00	0	42	0	0	52	4478
2026-01-17 10:08:03.21	341.85	29.37	-40.5	-42.4	19.1	0.00e+00	0	43	0	0	52	4510
2026-01-17 10:08:06.19	341.88	28.83	-40.5	-42.4	19.0	0.00e+00	0	42	0	0	52	4494
2026-01-17 10:08:09.19	341.91	28.28	-40.5	-42.4	18.9	0.00e+00	0	42	0	0	52	4532
2026-01-17 10:08:12.15	341.95	27.76	-40.4	-42.4	18.9	0.00e+00	0	42	0	0	52	4497
2026-01-17 10:08:15.27	341.98	27.22	-40.0	-41.8	19.5	0.00e+00	0	43	0	0	52	4211
2026-01-17 10:08:18.29	342.01	26.70	-39.7	-41.4	19.8	0.00e+00	0	43	0	0	51	4287
2026-01-17 10:08:21.57	342.04	26.16	-39.5	-41.2	20.0	0.00e+00	0	43	0	0	50	4441
2026-01-17 10:08:24.28	342.07	25.71	-39.5	-41.3	20.1	0.00e+00	0	42	0	0	50	4448
2026-01-17 10:08:27.55	342.10	25.18	-39.4	-41.1	20.3	0.00e+00	0	42	0	0	50	4360
2026-01-17 10:08:30.28	342.13	24.75	-39.4	-41.2	20.2	0.00e+00	0	43	0	0	50	4393
2026-01-17 10:08:33.68	342.16	24.22	-39.7	-41.4	20.0	0.00e+00	0	43	0	0	50	4542
2026-01-17 10:08:36.39	342.19	23.81	-39.5	-41.2	20.3	0.00e+00	0	43	0	0	50	4408
2026-01-17 10:08:39.79	342.22	23.30	-39.4	-41.2	20.3	0.00e+00	0	43	0	0	50	4415
2026-01-17 10:08:42.49	342.24	22.90	-39.4	-41.1	20.3	0.00e+00	0	42	0	0	50	4386
2026-01-17 10:08:45.76	342.27	22.43	-39.3	-41.0	20.5	0.00e+00	0	43	0	0	50	4294
2026-01-17 10:08:48.46	342.30	22.05	-39.5	-41.2	20.3	0.00e+00	0	43	0	0	50	4393
2026-01-17 10:08:51.74	342.32	21.59	-39.6	-41.4	20.1	0.00e+00	0	43	0	0	50	4508
2026-01-17 10:08:54.68	342.35	21.18	-39.6	-41.4	20.1	0.00e+00	0	42	0	0	50	4543
2026-01-17 10:08:57.66	342.37	20.78	-39.8	-41.6	19.9	0.00e+00	0	43	0	0	50	4622
2026-01-17 10:09:00.65	342.40	20.38	-40.0	-41.7	19.8	0.00e+00	0	43	0	0	50	4689
2026-01-17 10:09:03.69	342.42	19.98	-40.1	-41.9	19.7	0.00e+00	0	43	0	0	50	4766
2026-01-17 10:09:06.60	342.45	19.61	-40.1	-41.8	19.7	0.00e+00	0	43	0	0	51	4488
2026-01-17 10:09:09.93	342.47	19.19	-40.1	-41.9	19.6	0.00e+00	0	43	0	0	51	4541
2026-01-17 10:09:12.84	342.50	18.82	-40.0	-41.8	19.7	0.00e+00	0	43	0	0	51	4468
2026-01-17 10:09:16.14	342.52	18.42	-40.0	-41.8	19.7	0.00e+00	0	42	0	0	51	4468
2026-01-17 10:09:19.21	342.55	18.04	-39.9	-41.7	19.8	0.00e+00	0	43	0	0	51	4394
2026-01-17 10:09:22.41	342.57	17.66	-40.0	-41.8	19.6	0.00e+00	0	43	0	0	51	4493
2026-01-17 10:09:25.26	342.59	17.33	-40.0	-41.8	19.6	0.00e+00	0	43	0	0	51	4488
2026-01-17 10:09:28.39	342.61	16.96	-40.1	-42.0	19.5	0.00e+00	0	43	0	0	51	4551
2026-01-17 10:09:31.23	342.64	16.64	-40.2	-42.1	19.4	0.00e+00	0	43	0	0	51	4599
2026-01-17 10:09:34.46	342.66	16.28	-40.4	-42.2	19.2	0.00e+00	0	43	0	0	51	4683
2026-01-17 10:09:37.34	342.68	15.96	-40.6	-42.4	19.0	0.00e+00	0	43	0	0	51	4800
2026-01-17 10:09:40.47	342.70	15.61	-40.5	-42.4	19.0	0.00e+00	0	43	0	0	51	4788
2026-01-17 10:09:43.31	342.72	15.31	-40.4	-42.4	19.0	0.00e+00	0	43	0	0	51	4765
2026-01-17 10:09:46.43	342.74	14.97	-40.5	-42.5	18.9	0.00e+00	0	42	0	0	51	4838
2026-01-17 10:09:49.28	342.76	14.67	-40.6	-42.6	18.9	0.00e+00	0	43	0	0	51	4871
2026-01-17 10:09:52.58	342.79	14.33	-40.7	-42.7	18.8	0.00e+00	0	43	0	0	51	4935
2026-01-17 10:09:55.48	342.81	14.03	-40.6	-42.6	18.8	0.00e+00	0	43	0	0	52	4611
2026-01-17 10:09:58.67	342.83	13.71	-40.5	-42.5	18.8	0.00e+00	0	42	0	0	52	4568
2026-01-17 10:10:01.52	342.85	13.42	-40.6	-42.7	18.6	0.00e+00	0	43	0	0	52	4667
2026-01-17 10:10:04.62	342.87	13.12	-40.6	-42.7	18.6	0.00e+00	0	42	0	0	52	4654
2026-01-17 10:10:07.60	342.89	12.83	-40.6	-42.7	18.6	0.00e+00	0	43	0	0	52	4682
2026-01-17 10:10:10.58	342.91	12.54	-40.6	-42.6	18.7	0.00e+00	0	43	0	0	52	4630
2026-01-17 10:10:13.57	342.93	12.26	-40.6	-42.6	18.6	0.00e+00	0	43	0	0	52	4643
2026-01-17 10:10:16.55	342.95	11.97	-40.7	-42.8	18.5	0.00e+00	0	43	0	0	52	4718
2026-01-17 10:10:19.57	342.97	11.69	-40.6	-42.8	18.5	0.00e+00	0	43	0	0	52	4711
2026-01-17 10:10:22.55	342.98	11.42	-40.6	-42.8	18.5	0.00e+00	0	43	0	0	52	4712
2026-01-17 10:10:25.53	343.00	11.15	-40.7	-43.0	18.3	0.00e+00	0	43	0	0	52	4816
2026-01-17 10:10:28.52	343.02	10.88	-40.8	-43.0	18.3	0.00e+00	0	43	0	0	52	4829
2026-01-17 10:10:31.51	343.04	10.61	-40.8	-43.1	18.2	0.00e+00	0	43	0	0	52	4877
2026-01-17 10:10:34.56	343.06	10.34	-40.6	-42.9	18.3	0.00e+00	0	43	0	0	52	4805
2026-01-17 10:10:37.42	343.08	10.09	-40.7	-43.2	18.0	0.00e+00	0	43	0	0	52	4953
2026-01-17 10:10:40.55	343.10	9.82	-40.8	-43.3	17.9	0.00e+00	0	43	0	0	52	5039
2026-01-17 10:10:43.39	343.11	9.58	-40.5	-43.2	18.1	0.00e+00	0	43	0	0	52	4939
2026-01-17 10:10:46.51	343.13	9.32	-40.5	-43.3	17.9	0.00e+00	0	43	0	0	52	5024
2026-01-17 10:10:49.35	343.15	9.08	-40.5	-43.4	17.9	0.00e+00	0	43	0	0	52	5067
2026-01-17 10:10:52.68	343.17	8.80	-48.6	-63.2	3.8	1.49e+00	0	43	104	0	69	18557
2026-01-17 10:10:55.44	343.19	8.58	-49.1	-63.4	3.8	1.49e+00	0	43	104	0	69	19040
2026-01-17 10:10:58.72	343.21	8.31	-49.8	-63.5	3.8	1.49e+00	0	43	104	0	71	17176
2026-01-17 10:11:01.41	343.22	8.10	-49.7	-63.5	3.8	1.49e+00	0	43	104	0	71	17265
2026-01-17 10:11:04.69	343.24	7.83	-50.4	-63.6	3.8	1.49e+00	0	42	104	0	71	17382
2026-01-17 10:11:07.44	343.26	7.62	-50.3	-63.6	3.8	1.49e+00	0	43	104	0	71	17308
2026-01-17 10:11:10.83	343.28	7.35	-50.5	-63.6	3.8	1.49e+00	0	43	104	0	71	17293
2026-01-17 10:11:13.59	343.30	7.14	-50.5	-63.6	3.8	1.49e+00	0	43	104	0	71	17334
2026-01-17 10:11:16.85	343.31	6.89	-50.4	-63.6	3.8	1.49e+00	0	43	104	0	71	17296
2026-01-17 10:11:19.55	343.33	6.68	-50.2	-63.5	3.8	1.49e+00	0	43	104	0	71	17248
2026-01-17 10:11:22.81	343.35	6.44	-50.2	-63.5	3.8	1.49e+00	0	43	104	0	71	17254
2026-01-17 10:11:25.51	343.36	6.24	-50.2	-63.5	3.8	1.49e+00	0	42	104	0	71	17218
2026-01-17 10:11:28.79	343.38	5.99	-50.2	-63.5	3.8	1.49e+00	0	42	104	0	71	17239
2026-01-17 10:11:31.49	343.40	5.79	-50.2	-63.5	3.8	1.49e+00	0	43	104	0	71	17199
2026-01-17 10:11:34.75	343.42	5.56	-50.2	-63.5	3.8	1.49e+00	0	43	104	0	71	17220
2026-01-17 10:11:37.48	343.43	5.36	-50.2	-63.5	3.8	1.49e+00	0	43	104	0	71	17236
2026-01-17 10:11:40.74	343.45	5.13	-50.2	-63.5	3.8	1.49e+00	0	43	104	0	71	17231

#Closed at: 2026-01-17 10:11:43
#Recorded file [0 MB]: D:/Data/31040_260117_125844.dat