passes_logs/2026/01/17/T1/T1__20260117_223855_SUOMI_NPP_rec.log

#Pass ID: 20260117_223855_SUOMI NPP
#Satellite: SUOMI NPP
#Configuration: NPP
#almurnet v.1.7.20251203
#Start time: 2026-01-17 22:38:57

#Version: 2.0.20230620
#Station: T1
#Location: 37.570604 lon 55.790049 lat
#TLE: 1 37849U 11061A   26017.28905266  .00000074  00000+0  55894-4 0  9999
#TLE: 2 37849  98.7814 319.3179 0002408  59.7048 300.4366 14.19525847737038

#Time	Az	El	Level	Level2	SNR	BER	BlckErr	Temp	State	Recorded	gain1	gain2
2026-01-17 22:38:57.32	25.46	5.15	-47.6	-63.2	3.8	1.49e+00	0	37	0	0	65	23573
2026-01-17 22:39:00.30	25.66	5.34	-47.6	-63.2	3.8	1.49e+00	0	37	104	0	65	23521
2026-01-17 22:39:03.28	25.86	5.53	-47.6	-63.3	3.8	1.49e+00	0	37	104	0	65	23614
2026-01-17 22:39:06.25	26.06	5.73	-47.6	-63.2	3.8	1.49e+00	0	37	104	0	65	23523
2026-01-17 22:39:09.24	26.27	5.92	-47.6	-63.2	3.8	1.49e+00	0	37	104	0	65	23504
2026-01-17 22:39:12.22	26.48	6.12	-47.6	-63.2	3.8	1.49e+00	0	37	104	0	65	23441
2026-01-17 22:39:15.20	26.69	6.32	-47.6	-63.2	3.8	1.49e+00	0	37	104	0	65	23535
2026-01-17 22:39:18.17	26.90	6.52	-47.6	-63.2	3.8	1.49e+00	0	38	104	0	65	23524
2026-01-17 22:39:21.15	27.12	6.72	-47.6	-63.2	3.8	1.49e+00	0	38	104	0	65	23522
2026-01-17 22:39:24.13	27.34	6.92	-47.6	-63.1	3.8	1.49e+00	0	38	104	0	65	23208
2026-01-17 22:39:27.11	27.56	7.12	-47.6	-63.0	3.8	1.49e+00	0	38	104	0	65	23014
2026-01-17 22:39:30.09	27.78	7.33	-47.6	-63.2	3.8	1.49e+00	0	38	104	0	65	23367
2026-01-17 22:39:33.07	28.01	7.53	-47.6	-63.2	3.8	1.49e+00	0	38	104	0	65	23348
2026-01-17 22:39:36.05	28.24	7.74	-47.6	-63.1	3.8	1.49e+00	0	38	104	0	65	23057
2026-01-17 22:39:39.03	28.47	7.95	-47.6	-62.9	3.8	1.49e+00	0	38	104	0	65	22681
2026-01-17 22:39:42.01	28.71	8.16	-47.6	-62.6	3.8	1.49e+00	0	38	104	0	65	21915
2026-01-17 22:39:44.99	28.95	8.37	-47.5	-62.0	3.8	1.49e+00	0	39	104	0	65	20419
2026-01-17 22:39:47.97	29.20	8.58	-47.4	-59.8	4.2	1.45e+00	0	39	0	0	65	15851
2026-01-17 22:39:50.95	29.44	8.80	-46.7	-54.7	7.1	2.64e-01	0	39	0	4194304	65	8819
2026-01-17 22:39:53.93	29.69	9.01	-45.5	-50.8	11.1	3.96e-03	0	39	0	9437184	63	6321
2026-01-17 22:39:56.91	29.95	9.23	-45.2	-50.1	12.0	3.44e-02	0	39	0	14680064	62	6181
2026-01-17 22:39:59.90	30.21	9.45	-42.5	-45.4	16.6	0.00e+00	0	38	0	18874368	56	5084
2026-01-17 22:40:02.81	30.46	9.66	-42.5	-45.4	16.7	0.00e+00	0	39	0	24117248	56	5047
2026-01-17 22:40:05.93	30.74	9.90	-41.7	-44.4	17.5	0.00e+00	0	39	0	30408704	55	4789
2026-01-17 22:40:08.78	31.00	10.11	-41.5	-44.1	17.8	0.00e+00	0	39	0	35651584	54	4883
2026-01-17 22:40:11.90	31.28	10.34	-41.6	-44.2	17.7	0.00e+00	0	39	0	41943040	54	4983
2026-01-17 22:40:14.82	31.55	10.56	-41.4	-43.9	17.9	0.00e+00	0	39	0	47185920	54	4802
2026-01-17 22:40:18.08	31.86	10.81	-41.2	-43.8	18.1	0.00e+00	0	39	0	53477376	54	4730
2026-01-17 22:40:20.92	32.13	11.03	-41.4	-44.1	17.9	0.00e+00	0	39	0	58720256	54	4895
2026-01-17 22:40:24.05	32.44	11.27	-41.5	-44.2	17.7	0.00e+00	0	39	0	63963136	54	4976
2026-01-17 22:40:26.90	32.72	11.50	-41.8	-44.6	17.4	0.00e+00	0	39	0	69206016	54	5196
2026-01-17 22:40:30.02	33.03	11.74	-41.7	-44.4	17.6	0.00e+00	0	39	0	75497472	54	5066
2026-01-17 22:40:32.86	33.32	11.96	-41.6	-44.2	17.7	0.00e+00	0	39	0	80740352	54	4979
2026-01-17 22:40:35.99	33.64	12.21	-41.5	-44.1	17.9	0.00e+00	0	39	0	87031808	54	4878
2026-01-17 22:40:38.84	33.94	12.44	-41.2	-43.6	18.3	0.00e+00	0	39	0	92274688	54	4635
2026-01-17 22:40:41.97	34.28	12.69	-41.3	-43.7	18.2	0.00e+00	0	39	0	97517568	54	4687
2026-01-17 22:40:44.81	34.59	12.92	-41.3	-43.7	18.2	0.00e+00	0	39	0	102760448	54	4692
2026-01-17 22:40:47.94	34.93	13.18	-41.4	-44.0	18.0	0.00e+00	0	39	0	109051904	54	4849
2026-01-17 22:40:50.86	35.26	13.42	-41.6	-44.2	17.8	0.00e+00	0	39	0	114294784	54	4980
2026-01-17 22:40:54.09	35.62	13.68	-41.6	-44.3	17.7	0.00e+00	0	39	0	120586240	54	5007
2026-01-17 22:40:56.93	35.95	13.92	-41.5	-44.2	17.9	0.00e+00	0	39	0	125829120	54	4930
2026-01-17 22:40:59.99	36.31	14.18	-41.5	-44.1	17.9	0.00e+00	0	39	0	132120576	54	4897
2026-01-17 22:41:02.98	36.67	14.43	-41.6	-44.2	17.8	0.00e+00	0	39	0	137363456	54	4951
2026-01-17 22:41:05.97	37.03	14.68	-41.7	-44.3	17.8	0.00e+00	0	39	0	142606336	54	4985
2026-01-17 22:41:08.95	37.40	14.94	-42.0	-44.7	17.4	0.00e+00	0	39	0	148897792	54	5223
2026-01-17 22:41:11.94	37.77	15.20	-41.9	-44.6	17.5	0.00e+00	0	39	0	154140672	54	5182
2026-01-17 22:41:14.93	38.15	15.45	-41.7	-44.3	17.7	0.00e+00	0	39	0	159383552	54	5017
2026-01-17 22:41:17.91	38.54	15.71	-41.6	-44.1	18.0	0.00e+00	0	39	0	165675008	54	4902
2026-01-17 22:41:20.89	38.93	15.97	-41.4	-43.9	18.1	0.00e+00	0	39	0	170917888	54	4811
2026-01-17 22:41:23.88	39.34	16.24	-41.2	-43.7	18.4	0.00e+00	0	39	0	176160768	54	4652
2026-01-17 22:41:26.98	39.76	16.51	-41.0	-43.4	18.6	0.00e+00	0	39	0	182452224	53	4772
2026-01-17 22:41:29.82	40.15	16.77	-41.1	-43.5	18.5	0.00e+00	0	39	0	187695104	53	4852
2026-01-17 22:41:32.95	40.59	17.05	-40.9	-43.3	18.7	0.00e+00	0	39	0	192937984	53	4706
2026-01-17 22:41:35.79	41.00	17.30	-41.1	-43.5	18.6	0.00e+00	0	39	0	198180864	53	4850
2026-01-17 22:41:38.98	41.47	17.59	-41.0	-43.4	18.6	0.00e+00	0	39	0	204472320	53	4791
2026-01-17 22:41:41.82	41.89	17.85	-41.1	-43.5	18.6	0.00e+00	0	39	0	209715200	53	4824
2026-01-17 22:41:44.95	42.37	18.14	-41.0	-43.3	18.7	0.00e+00	0	39	0	216006656	53	4740
2026-01-17 22:41:47.79	42.80	18.40	-40.9	-43.3	18.7	0.00e+00	0	39	0	221249536	53	4721
2026-01-17 22:41:50.93	43.30	18.69	-41.0	-43.4	18.7	0.00e+00	0	39	0	227540992	53	4788
2026-01-17 22:41:53.77	43.75	18.95	-40.8	-43.1	19.0	0.00e+00	0	39	0	232783872	53	4630
2026-01-17 22:41:57.10	44.29	19.26	-40.5	-42.8	19.2	0.00e+00	0	39	0	239075328	52	4737
2026-01-17 22:41:59.87	44.75	19.52	-40.4	-42.6	19.4	0.00e+00	0	39	0	244318208	52	4622
2026-01-17 22:42:03.15	45.30	19.83	-40.3	-42.5	19.6	0.00e+00	0	39	0	249561088	51	4828
2026-01-17 22:42:05.85	45.77	20.09	-40.3	-42.6	19.5	0.00e+00	0	39	0	254803968	51	4875
2026-01-17 22:42:09.17	46.35	20.40	-40.3	-42.5	19.6	0.00e+00	0	39	0	261095424	51	4844
2026-01-17 22:42:12.19	46.89	20.69	-40.2	-42.4	19.7	0.00e+00	0	39	0	267386880	51	4765
2026-01-17 22:42:15.47	47.48	21.00	-40.3	-42.4	19.7	0.00e+00	0	39	0	272629760	51	4807
2026-01-17 22:42:18.20	47.99	21.26	-40.2	-42.4	19.7	0.00e+00	0	39	0	277872640	51	4795
2026-01-17 22:42:21.51	48.61	21.58	-40.5	-42.7	19.4	0.00e+00	0	39	0	284164096	51	4983
2026-01-17 22:42:24.22	49.13	21.84	-40.6	-42.9	19.1	0.00e+00	0	39	0	289406976	52	4762
2026-01-17 22:42:27.49	49.77	22.15	-41.3	-43.7	18.5	0.00e+00	0	39	0	295698432	53	4947
2026-01-17 22:42:30.22	50.31	22.42	-41.0	-43.3	18.8	0.00e+00	0	39	0	300941312	53	4730
2026-01-17 22:42:33.49	50.97	22.73	-40.5	-42.8	19.3	0.00e+00	0	39	0	307232768	52	4709
2026-01-17 22:42:36.22	51.54	22.99	-40.4	-42.6	19.5	0.00e+00	0	39	0	312475648	52	4625
2026-01-17 22:42:39.55	52.24	23.31	-40.4	-42.7	19.4	0.00e+00	0	39	0	318767104	52	4671
2026-01-17 22:42:42.25	52.81	23.57	-40.6	-42.8	19.3	0.00e+00	0	39	0	322961408	52	4748
2026-01-17 22:42:45.52	53.53	23.89	-40.3	-42.5	19.6	0.00e+00	0	39	0	329252864	52	4565
2026-01-17 22:42:48.23	54.13	24.14	-40.1	-42.3	19.8	0.00e+00	0	39	0	334495744	52	4467
2026-01-17 22:42:51.51	54.87	24.46	-40.2	-42.4	19.8	0.00e+00	0	39	0	340787200	51	4776
2026-01-17 22:42:54.23	55.49	24.72	-40.1	-42.3	19.9	0.00e+00	0	39	0	346030080	51	4714
2026-01-17 22:42:57.50	56.26	25.03	-40.7	-43.0	19.1	0.00e+00	0	39	0	352321536	52	4851
2026-01-17 22:43:00.20	56.90	25.28	-40.9	-43.2	18.9	0.00e+00	0	39	0	356515840	52	4980
2026-01-17 22:43:03.47	57.69	25.59	-40.8	-43.1	19.1	0.00e+00	0	39	0	362807296	52	4890
2026-01-17 22:43:06.18	58.36	25.84	-40.7	-42.9	19.2	0.00e+00	0	39	0	368050176	52	4808
2026-01-17 22:43:09.46	59.18	26.14	-40.6	-42.9	19.2	0.00e+00	0	39	0	374341632	52	4799
2026-01-17 22:43:12.18	59.87	26.39	-40.6	-42.9	19.2	0.00e+00	0	40	0	379584512	52	4791
2026-01-17 22:43:15.46	60.72	26.68	-40.3	-42.5	19.6	0.00e+00	0	39	0	385875968	52	4570
2026-01-17 22:43:18.27	61.47	26.94	-40.4	-42.6	19.5	0.00e+00	0	39	0	391118848	52	4649
2026-01-17 22:43:21.62	62.36	27.23	-40.9	-43.2	18.9	0.00e+00	0	39	0	397410304	52	4972
2026-01-17 22:43:24.43	63.13	27.48	-41.1	-43.4	18.8	0.00e+00	0	39	0	402653184	53	4787
2026-01-17 22:43:27.70	64.04	27.76	-40.9	-43.1	19.0	0.00e+00	0	39	0	408944640	53	4645
2026-01-17 22:43:30.44	64.81	27.99	-40.5	-42.7	19.4	0.00e+00	0	39	0	413138944	52	4690
2026-01-17 22:43:33.72	65.75	28.26	-40.6	-42.8	19.3	0.00e+00	0	39	0	419430400	52	4745
2026-01-17 22:43:36.72	66.62	28.51	-41.2	-43.5	18.7	0.00e+00	0	39	0	425721856	53	4852
2026-01-17 22:43:39.65	67.48	28.74	-41.6	-44.0	18.2	0.00e+00	0	39	0	430964736	54	4858
2026-01-17 22:43:42.64	68.38	28.98	-41.1	-43.4	18.8	0.00e+00	0	39	0	436207616	54	4508
2026-01-17 22:43:45.62	69.28	29.20	-42.1	-44.7	17.6	0.00e+00	0	39	0	442499072	54	5253
2026-01-17 22:43:48.67	70.22	29.43	-41.8	-44.2	18.0	0.00e+00	0	39	0	447741952	55	4688
2026-01-17 22:43:51.69	71.17	29.65	-42.2	-44.7	17.5	0.00e+00	0	39	0	452984832	55	4983
2026-01-17 22:43:54.88	72.17	29.87	-43.1	-45.9	16.6	0.00e+00	0	39	0	459276288	56	5372
2026-01-17 22:43:57.78	73.10	30.07	-44.1	-47.3	15.2	0.00e+00	0	39	0	464519168	58	5616
2026-01-17 22:44:01.34	74.26	30.30	-42.9	-45.7	16.8	0.00e+00	0	39	0	471859200	57	4958
2026-01-17 22:44:04.19	75.20	30.47	-43.9	-47.0	15.6	0.00e+00	0	39	0	477102080	58	5449
2026-01-17 22:44:07.31	76.23	30.66	-43.8	-47.0	15.6	0.00e+00	0	40	0	482344960	58	5417
2026-01-17 22:44:10.16	77.19	30.82	-42.8	-45.5	17.0	0.00e+00	0	39	0	488636416	57	4827
2026-01-17 22:44:13.36	78.28	30.99	-43.4	-46.3	16.2	0.00e+00	0	39	0	493879296	57	5325
2026-01-17 22:44:16.20	79.25	31.13	-43.2	-46.1	16.4	0.00e+00	0	39	0	499122176	58	4887
2026-01-17 22:44:19.33	80.33	31.28	-42.6	-45.4	17.1	0.00e+00	0	39	0	505413632	56	5055
2026-01-17 22:44:22.17	81.32	31.41	-41.4	-43.9	18.4	0.00e+00	0	39	0	510656512	54	4772
2026-01-17 22:44:25.30	82.42	31.54	-41.8	-44.4	17.9	0.00e+00	0	39	0	516947968	54	5072
2026-01-17 22:44:28.14	83.43	31.64	-42.5	-45.4	16.9	0.00e+00	0	39	0	522190848	55	5364
2026-01-17 22:44:31.33	84.56	31.75	-41.8	-44.4	17.9	0.00e+00	0	39	0	527433728	55	4788
2026-01-17 22:44:34.17	85.58	31.84	-41.2	-43.6	18.6	0.00e+00	0	39	0	532676608	54	4631
2026-01-17 22:44:37.55	86.80	31.93	-41.9	-44.5	17.7	0.00e+00	0	39	0	540016640	54	5154
2026-01-17 22:44:40.46	87.86	32.00	-42.2	-44.9	17.4	0.00e+00	0	39	0	545259520	55	5076
2026-01-17 22:44:43.74	89.05	32.06	-41.6	-44.1	18.1	0.00e+00	0	39	0	551550976	55	4615
2026-01-17 22:44:46.46	90.04	32.11	-41.8	-44.3	17.9	0.00e+00	0	40	0	555745280	55	4747
2026-01-17 22:44:49.79	91.26	32.14	-41.5	-43.9	18.4	0.00e+00	0	39	0	562036736	54	4792
2026-01-17 22:44:52.61	92.29	32.17	-41.8	-44.4	17.9	0.00e+00	0	39	0	567279616	54	5055
2026-01-17 22:44:55.74	93.44	32.18	-41.5	-43.9	18.4	0.00e+00	0	39	0	573571072	54	4778
2026-01-17 22:44:58.58	94.48	32.18	-42.4	-45.1	17.2	0.00e+00	0	39	0	578813952	55	5211
2026-01-17 22:45:01.71	95.63	32.17	-41.2	-43.5	18.7	0.00e+00	0	39	0	585105408	54	4567
2026-01-17 22:45:04.55	96.68	32.15	-41.1	-43.4	18.7	0.00e+00	0	39	0	590348288	53	4813
2026-01-17 22:45:07.68	97.82	32.11	-41.9	-44.5	17.8	0.00e+00	0	39	0	595591168	54	5115
2026-01-17 22:45:10.92	99.01	32.06	-41.5	-43.9	18.3	0.00e+00	0	39	0	601882624	54	4805
2026-01-17 22:45:14.01	100.13	32.01	-41.0	-43.3	18.8	0.00e+00	0	39	0	608174080	53	4756
2026-01-17 22:45:16.85	101.16	31.94	-42.2	-44.8	17.5	0.00e+00	0	40	0	613416960	55	4994
2026-01-17 22:45:19.98	102.29	31.86	-42.8	-45.6	16.9	0.00e+00	0	39	0	618659840	56	5179
2026-01-17 22:45:22.82	103.31	31.77	-43.0	-45.8	16.6	0.00e+00	0	39	0	623902720	57	5011
2026-01-17 22:45:26.01	104.45	31.67	-42.0	-44.5	17.9	0.00e+00	0	39	0	630194176	56	4552
2026-01-17 22:45:28.85	105.46	31.56	-43.4	-46.5	16.0	0.00e+00	0	39	0	635437056	57	5407
2026-01-17 22:45:31.98	106.56	31.43	-42.0	-44.6	17.8	0.00e+00	0	39	0	641728512	56	4602
2026-01-17 22:45:34.82	107.56	31.31	-42.1	-44.7	17.6	0.00e+00	0	39	0	646971392	55	4928
2026-01-17 22:45:37.95	108.64	31.16	-41.3	-43.7	18.5	0.00e+00	0	39	0	653262848	54	4684
2026-01-17 22:45:40.80	109.62	31.02	-42.0	-44.6	17.7	0.00e+00	0	39	0	658505728	54	5173
2026-01-17 22:45:43.92	110.69	30.85	-41.6	-44.1	18.2	0.00e+00	0	39	0	663748608	54	4898
2026-01-17 22:45:46.86	111.68	30.69	-41.8	-44.4	17.9	0.00e+00	0	39	0	668991488	54	5044
2026-01-17 22:45:50.13	112.77	30.49	-41.8	-44.3	18.0	0.00e+00	0	39	0	675282944	54	5005
2026-01-17 22:45:52.98	113.71	30.32	-42.0	-44.7	17.6	0.00e+00	0	39	0	680525824	54	5234
2026-01-17 22:45:56.22	114.77	30.11	-42.1	-44.8	17.5	0.00e+00	0	40	0	686817280	55	5007
2026-01-17 22:45:59.58	115.85	29.88	-41.3	-43.7	18.6	0.00e+00	0	39	0	693108736	54	4697
2026-01-17 22:46:02.30	116.71	29.69	-41.9	-44.5	17.8	0.00e+00	0	39	0	698351616	55	4825
2026-01-17 22:46:05.85	117.83	29.44	-42.2	-44.9	17.4	0.00e+00	0	39	0	704643072	55	5042
2026-01-17 22:46:08.56	118.67	29.24	-42.5	-45.3	17.0	0.00e+00	0	39	0	709885952	55	5298
2026-01-17 22:46:11.83	119.66	28.99	-42.6	-45.4	17.1	0.00e+00	0	40	0	716177408	57	4768
2026-01-17 22:46:14.61	120.50	28.77	-42.6	-45.3	17.2	0.00e+00	0	39	0	721420288	56	5016
2026-01-17 22:46:18.39	121.62	28.46	-43.9	-47.0	15.5	0.00e+00	0	40	0	728760320	58	5457
2026-01-17 22:46:21.42	122.50	28.22	-43.0	-45.8	16.6	0.00e+00	0	39	0	734003200	58	4748
2026-01-17 22:46:25.45	123.65	27.88	-42.8	-45.5	16.9	0.00e+00	0	39	0	741343232	57	4859
2026-01-17 22:46:28.29	124.45	27.63	-43.6	-46.7	15.9	0.00e+00	0	39	0	746586112	57	5532
2026-01-17 22:46:32.65	125.65	27.25	-43.9	-47.2	15.3	0.00e+00	0	39	0	754974720	59	5259
2026-01-17 22:46:35.48	126.42	27.00	-43.4	-46.5	16.1	0.00e+00	0	40	0	760217600	58	5137
2026-01-17 22:46:39.46	127.47	26.64	-44.6	-48.2	14.3	0.00e+00	0	39	0	768606208	60	5571
2026-01-17 22:46:42.37	128.23	26.38	-43.0	-45.9	16.6	0.00e+00	0	39	0	773849088	57	5046
2026-01-17 22:46:46.13	129.19	26.03	-43.7	-46.9	15.5	0.00e+00	0	39	0	780140544	58	5397
2026-01-17 22:46:48.83	129.87	25.78	-43.5	-46.6	15.9	0.00e+00	0	39	0	785383424	58	5211
2026-01-17 22:46:52.25	130.71	25.46	-44.9	-48.8	13.8	2.20e-06	0	39	0	791674880	60	5951
2026-01-17 22:46:55.00	131.37	25.20	-44.3	-47.8	14.7	0.00e+00	0	39	0	796917760	60	5320
2026-01-17 22:46:58.28	132.15	24.89	-42.9	-45.7	16.8	0.00e+00	0	39	0	803209216	57	4962
2026-01-17 22:47:01.00	132.79	24.63	-43.8	-46.9	15.5	0.00e+00	0	39	0	808452096	58	5395
2026-01-17 22:47:04.24	133.53	24.32	-41.9	-44.4	17.8	0.00e+00	0	39	0	814743552	55	4786
2026-01-17 22:47:07.09	134.17	24.05	-42.6	-45.4	16.9	0.00e+00	0	39	0	819986432	55	5360
2026-01-17 22:47:10.21	134.86	23.75	-42.8	-45.6	16.8	0.00e+00	0	40	0	826277888	57	4917
2026-01-17 22:47:13.06	135.48	23.47	-42.1	-44.7	17.7	0.00e+00	0	39	0	831520768	56	4685
2026-01-17 22:47:16.27	136.17	23.16	-43.8	-47.0	15.4	0.00e+00	0	39	0	836763648	58	5426
2026-01-17 22:47:19.21	136.78	22.88	-43.4	-46.4	16.0	0.00e+00	0	39	0	843055104	58	5068
2026-01-17 22:47:22.37	137.43	22.57	-42.2	-44.8	17.6	0.00e+00	0	39	0	848297984	56	4707
2026-01-17 22:47:25.22	138.01	22.29	-41.4	-43.9	18.3	0.00e+00	0	39	0	853540864	54	4760
2026-01-17 22:47:28.35	138.63	21.99	-40.2	-42.4	19.6	0.00e+00	0	39	0	859832320	52	4527
2026-01-17 22:47:31.19	139.18	21.72	-40.6	-42.8	19.2	0.00e+00	0	39	0	865075200	52	4759
2026-01-17 22:47:34.41	139.80	21.40	-42.1	-44.7	17.5	0.00e+00	0	39	0	871366656	54	5253
2026-01-17 22:47:37.25	140.33	21.13	-42.2	-44.9	17.3	0.00e+00	0	40	0	876609536	55	5070
2026-01-17 22:47:40.38	140.91	20.83	-41.4	-43.8	18.3	0.00e+00	0	39	0	881852416	54	4721
2026-01-17 22:47:43.22	141.42	20.56	-41.3	-43.7	18.4	0.00e+00	0	39	0	888143872	54	4674
2026-01-17 22:47:46.33	141.97	20.26	-41.1	-43.6	18.5	0.00e+00	0	39	0	893386752	53	4878
2026-01-17 22:47:49.18	142.47	19.99	-40.9	-43.2	18.8	0.00e+00	0	39	0	898629632	53	4695
2026-01-17 22:47:52.40	143.02	19.68	-40.6	-42.9	19.1	0.00e+00	0	39	0	904921088	53	4535
2026-01-17 22:47:55.24	143.50	19.41	-40.7	-43.0	19.0	0.00e+00	0	39	0	910163968	53	4590
2026-01-17 22:47:58.76	144.08	19.08	-41.0	-43.6	18.5	0.00e+00	0	39	0	916455424	53	4872
2026-01-17 22:48:01.46	144.52	18.83	-40.9	-43.4	18.7	0.00e+00	0	39	0	921698304	53	4779
2026-01-17 22:48:04.73	145.04	18.52	-40.3	-42.5	19.4	0.00e+00	0	39	0	927989760	52	4579
2026-01-17 22:48:07.48	145.47	18.26	-40.1	-42.3	19.7	0.00e+00	0	39	0	933232640	51	4722
2026-01-17 22:48:10.72	145.97	17.96	-40.3	-42.6	19.5	0.00e+00	0	39	0	939524096	51	4879
2026-01-17 22:48:13.57	146.40	17.70	-40.5	-42.8	19.2	0.00e+00	0	39	0	944766976	52	4720
2026-01-17 22:48:16.69	146.86	17.41	-40.5	-42.8	19.2	0.00e+00	0	39	0	950009856	52	4737
2026-01-17 22:48:19.53	147.27	17.16	-41.0	-43.4	18.6	0.00e+00	0	39	0	956301312	52	5070
2026-01-17 22:48:22.66	147.72	16.87	-42.0	-44.6	17.5	0.00e+00	0	39	0	961544192	54	5210
2026-01-17 22:48:25.59	148.13	16.61	-42.3	-45.0	17.0	0.00e+00	0	39	0	966787072	55	5158
2026-01-17 22:48:29.11	148.62	16.29	-42.3	-45.1	17.0	0.00e+00	0	39	0	974127104	55	5165
2026-01-17 22:48:31.86	148.99	16.05	-42.1	-44.7	17.3	0.00e+00	0	39	0	978321408	55	4974
2026-01-17 22:48:35.26	149.44	15.75	-41.6	-44.2	17.9	0.00e+00	0	39	0	985661440	54	4927
2026-01-17 22:48:38.26	149.84	15.48	-41.8	-44.4	17.6	0.00e+00	0	39	0	990904320	54	5073
2026-01-17 22:48:41.55	150.26	15.19	-42.2	-45.0	17.0	0.00e+00	0	39	0	997195776	55	5116
2026-01-17 22:48:44.28	150.60	14.96	-42.2	-44.9	17.1	0.00e+00	0	39	0	1002438656	55	5047
2026-01-17 22:48:47.55	151.01	14.67	-41.7	-44.2	17.7	0.00e+00	0	39	0	1008730112	55	4681
2026-01-17 22:48:50.25	151.34	14.44	-41.2	-43.6	18.4	0.00e+00	0	39	0	1012924416	54	4627
2026-01-17 22:48:53.72	151.75	14.15	-41.2	-43.7	18.3	0.00e+00	0	39	0	1020264448	54	4661
2026-01-17 22:48:56.45	152.08	13.92	-41.8	-44.4	17.6	0.00e+00	0	39	0	1024458752	54	5100
2026-01-17 22:48:59.72	152.46	13.64	-41.8	-44.6	17.4	0.00e+00	0	39	0	1030750208	54	5167
2026-01-17 22:49:02.51	152.77	13.41	-41.7	-44.4	17.6	0.00e+00	0	39	0	1035993088	54	5076
2026-01-17 22:49:05.80	153.14	13.13	-41.2	-43.7	18.2	0.00e+00	0	39	0	1042284544	54	4678
2026-01-17 22:49:08.78	153.47	12.89	-41.2	-43.8	18.2	0.00e+00	0	39	0	1048576000	54	4715
2026-01-17 22:49:11.94	153.82	12.63	-41.5	-44.1	17.8	0.00e+00	0	39	0	1053818880	54	4887
2026-01-17 22:49:14.79	154.12	12.40	-41.9	-44.6	17.3	0.00e+00	0	39	0	1059061760	54	5213
2026-01-17 22:49:17.91	154.45	12.15	-42.0	-44.9	17.1	0.00e+00	0	39	0	1065353216	55	5066
2026-01-17 22:49:20.75	154.74	11.92	-42.0	-44.8	17.1	0.00e+00	0	39	0	1070596096	55	5041
2026-01-17 22:49:24.07	155.08	11.66	-41.8	-44.5	17.4	0.00e+00	0	39	0	1076887552	55	4826
2026-01-17 22:49:26.91	155.36	11.43	-42.0	-44.6	17.2	0.00e+00	0	39	0	1082130432	55	4924
2026-01-17 22:49:30.04	155.67	11.18	-42.0	-44.6	17.2	0.00e+00	0	39	0	1088421888	55	4908
2026-01-17 22:49:32.88	155.95	10.96	-41.7	-44.3	17.5	0.00e+00	0	39	0	1093664768	55	4709
2026-01-17 22:49:36.00	156.25	10.72	-42.0	-44.7	17.2	7.25e-03	0	39	0	1098907648	55	4956
2026-01-17 22:49:38.86	156.52	10.50	-41.9	-44.6	17.2	0.00e+00	0	39	0	1104150528	55	4923
2026-01-17 22:49:42.11	156.82	10.25	-41.8	-44.4	17.5	1.84e-02	0	39	0	1110441984	55	4772
2026-01-17 22:49:44.91	157.08	10.04	-41.9	-44.5	17.3	2.33e-02	0	39	0	1115684864	54	5143
2026-01-17 22:49:48.04	157.36	9.80	-41.6	-44.2	17.6	2.43e-02	0	39	0	1121976320	54	4949
2026-01-17 22:49:50.88	157.61	9.59	-41.6	-44.2	17.6	0.00e+00	0	39	0	1127219200	54	4961
2026-01-17 22:49:54.00	157.88	9.36	-41.6	-44.2	17.5	0.00e+00	0	39	0	1132462080	54	4979
2026-01-17 22:49:56.96	158.14	9.14	-41.9	-44.6	17.2	0.00e+00	0	39	0	1138753536	54	5168
2026-01-17 22:50:00.08	158.40	8.91	-47.8	-63.2	3.8	1.49e+00	0	39	104	1141899264	66	22104
2026-01-17 22:50:02.91	158.64	8.70	-48.3	-63.7	3.8	1.49e+00	0	39	104	1141899264	67	22080
2026-01-17 22:50:06.03	158.90	8.48	-48.9	-64.0	3.8	1.49e+00	0	39	104	1141899264	68	21753
2026-01-17 22:50:08.87	159.13	8.27	-48.9	-64.1	3.8	1.49e+00	0	39	104	1141899264	68	21896
2026-01-17 22:50:11.99	159.38	8.05	-49.0	-64.2	3.8	1.49e+00	0	39	104	1141899264	68	22067
2026-01-17 22:50:14.83	159.60	7.85	-48.6	-64.2	3.8	1.49e+00	0	39	104	1141899264	68	22111
2026-01-17 22:50:17.95	159.85	7.63	-49.0	-64.2	3.8	1.49e+00	0	39	104	1141899264	68	22159
2026-01-17 22:50:20.79	160.06	7.43	-48.9	-64.2	3.8	1.49e+00	0	39	104	1141899264	68	22128
2026-01-17 22:50:23.91	160.30	7.21	-48.6	-64.1	3.8	1.49e+00	0	39	104	1141899264	68	21915
2026-01-17 22:50:26.75	160.51	7.02	-48.6	-64.1	3.8	1.49e+00	0	39	104	1141899264	68	21827
2026-01-17 22:50:29.87	160.74	6.80	-48.6	-64.0	3.8	1.49e+00	0	39	104	1141899264	68	21748
2026-01-17 22:50:32.71	160.95	6.61	-48.6	-64.1	3.8	1.49e+00	0	39	104	1141899264	68	21822
2026-01-17 22:50:35.83	161.18	6.40	-48.6	-64.1	3.8	1.49e+00	0	39	104	1141899264	68	21823
2026-01-17 22:50:38.67	161.38	6.20	-48.5	-64.1	3.8	1.49e+00	0	39	104	1141899264	68	21823
2026-01-17 22:50:41.79	161.60	5.99	-48.5	-64.0	3.8	1.49e+00	0	39	104	1141899264	68	21751
2026-01-17 22:50:44.63	161.79	5.80	-48.5	-64.0	3.8	1.49e+00	0	39	104	1141899264	68	21731
2026-01-17 22:50:47.75	162.01	5.60	-48.5	-64.0	3.8	1.49e+00	0	39	104	1141899264	68	21717
2026-01-17 22:50:50.59	162.20	5.41	-48.5	-64.0	3.8	1.49e+00	0	39	104	1141899264	68	21674
2026-01-17 22:50:53.71	162.40	5.21	-48.5	-64.0	3.8	1.49e+00	0	40	104	1141899264	68	21651
2026-01-17 22:50:56.55	162.59	5.02	-48.5	-64.0	3.8	1.49e+00	0	39	104	1141899264	68	21746

#Closed at: 2026-01-17 22:50:58
#Recorded file [1141 MB]: D:/Data/31040_260118_013857.dat