passes_logs/2026/01/17/T1/T1__20260117_113620_AQUA_rec.log

#Pass ID: 20260117_113620_AQUA
#Satellite: AQUA
#Configuration: AQUA
#almurnet v.1.7.20251203
#Start time: 2026-01-17 11:36:21

#Version: 2.0.20230620
#Station: T1
#Location: 37.570604 lon 55.790049 lat
#TLE: 1 27424U 02022A   26016.26443506  .00000711  00000+0  15228-3 0  9999
#TLE: 2 27424  98.4083 342.7130 0002022  76.7284  27.4473 14.61823291261073

#Time	Az	El	Level	Level2	SNR	BER	BlckErr	Temp	State	Recorded	gain1	gain2
2026-01-17 11:36:21.40	158.47	5.10	-51.5	-70.6	3.8	7.45e-01	0	38	0	0	74	32762
2026-01-17 11:36:24.37	158.45	5.32	-51.5	-69.4	4.0	7.43e-01	0	39	104	0	73	30191
2026-01-17 11:36:27.35	158.44	5.55	-51.5	-70.8	3.8	7.43e-01	0	39	104	0	73	35436
2026-01-17 11:36:30.33	158.43	5.78	-51.5	-71.5	3.8	7.44e-01	0	39	104	0	73	38487
2026-01-17 11:36:33.31	158.42	6.01	-51.5	-68.2	4.2	7.35e-01	0	39	104	0	73	26159
2026-01-17 11:36:36.29	158.40	6.25	-51.4	-65.9	5.1	7.04e-01	0	39	0	0	73	20120
2026-01-17 11:36:39.27	158.39	6.49	-51.4	-66.3	4.9	7.10e-01	0	39	0	524288	73	21060
2026-01-17 11:36:42.25	158.38	6.73	-51.5	-69.6	3.9	7.46e-01	0	39	104	524288	73	30745
2026-01-17 11:36:45.23	158.36	6.97	-51.5	-71.7	3.8	7.46e-01	0	39	104	524288	73	39291
2026-01-17 11:36:48.21	158.35	7.22	-51.5	-69.8	3.8	7.47e-01	0	39	104	524288	73	31683
2026-01-17 11:36:51.19	158.33	7.47	-51.2	-64.2	6.3	6.77e-01	0	39	0	1572864	73	16506
2026-01-17 11:36:54.17	158.32	7.72	-50.2	-57.7	12.8	6.10e-01	0	40	0	6815744	72	8288
2026-01-17 11:36:57.15	158.30	7.97	-48.7	-53.6	16.9	6.07e-01	0	40	0	12582912	69	6174
2026-01-17 11:37:00.13	158.28	8.23	-47.5	-51.5	19.0	6.06e-01	0	40	0	18350080	67	5407
2026-01-17 11:37:03.11	158.27	8.49	-47.6	-51.6	18.9	6.07e-01	0	40	0	23592960	66	5794
2026-01-17 11:37:06.08	158.25	8.75	-48.6	-53.4	17.1	6.07e-01	0	40	0	29360128	67	6737
2026-01-17 11:37:09.06	158.23	9.01	-50.2	-57.5	13.1	6.11e-01	0	40	0	35127296	71	8635
2026-01-17 11:37:12.05	158.21	9.28	-48.8	-53.8	17.0	6.09e-01	0	40	0	40370176	69	6322
2026-01-17 11:37:15.03	158.19	9.56	-45.8	-48.8	21.6	6.06e-01	0	40	0	45613056	63	5026
2026-01-17 11:37:18.01	158.17	9.83	-44.5	-47.2	23.1	6.08e-01	0	40	0	51380224	61	4672
2026-01-17 11:37:21.00	158.15	10.11	-44.4	-47.0	23.3	6.09e-01	0	40	0	56623104	60	4868
2026-01-17 11:37:23.98	158.13	10.40	-44.4	-47.1	23.3	6.06e-01	0	40	0	62390272	60	4877
2026-01-17 11:37:26.97	158.11	10.68	-44.5	-47.2	23.1	6.07e-01	0	40	0	68157440	60	4933
2026-01-17 11:37:29.95	158.09	10.97	-44.2	-46.9	23.4	6.06e-01	0	40	0	73400320	60	4763
2026-01-17 11:37:32.94	158.07	11.27	-44.1	-46.7	23.6	6.06e-01	0	40	0	79167488	60	4664
2026-01-17 11:37:35.92	158.04	11.57	-44.2	-46.7	23.6	6.06e-01	0	40	0	84934656	60	4677
2026-01-17 11:37:38.90	158.02	11.87	-44.0	-46.5	23.8	6.07e-01	0	40	0	90177536	60	4556
2026-01-17 11:37:41.93	158.00	12.18	-44.2	-46.7	19.9	6.07e-01	0	40	0	95944704	59	4960
2026-01-17 11:37:44.98	157.97	12.50	-44.1	-46.6	23.8	6.06e-01	0	40	0	101711872	59	4920
2026-01-17 11:37:47.96	157.94	12.81	-44.1	-46.6	23.8	6.06e-01	0	40	0	107479040	59	4887
2026-01-17 11:37:50.94	157.92	13.13	-44.0	-46.5	23.9	6.09e-01	0	40	0	112721920	59	4838
2026-01-17 11:37:53.93	157.89	13.46	-44.0	-46.5	23.9	6.06e-01	0	40	0	118489088	59	4839
2026-01-17 11:37:56.91	157.86	13.79	-43.9	-46.3	24.0	6.09e-01	0	40	0	124256256	59	4754
2026-01-17 11:37:59.97	157.83	14.13	-44.1	-46.6	23.8	6.07e-01	0	40	0	130023424	59	4899
2026-01-17 11:38:02.99	157.80	14.48	-43.9	-46.4	24.0	6.06e-01	0	40	0	135266304	59	4765
2026-01-17 11:38:05.98	157.77	14.82	-43.8	-46.2	24.2	6.06e-01	0	40	0	141033472	59	4698
2026-01-17 11:38:08.96	157.73	15.17	-43.9	-46.4	24.1	6.06e-01	0	41	0	146800640	59	4789
2026-01-17 11:38:11.94	157.70	15.53	-43.8	-46.3	24.1	6.04e-01	0	40	0	152043520	59	4755
2026-01-17 11:38:14.97	157.66	15.90	-44.0	-46.6	23.9	6.07e-01	0	40	0	157810688	59	4914
2026-01-17 11:38:17.92	157.63	16.26	-44.0	-46.6	23.9	6.06e-01	0	41	0	163577856	59	4901
2026-01-17 11:38:20.91	157.59	16.64	-44.0	-46.5	24.0	6.06e-01	0	40	0	169345024	59	4842
2026-01-17 11:38:23.89	157.55	17.02	-43.9	-46.4	24.0	6.07e-01	0	40	0	174587904	59	4799
2026-01-17 11:38:26.87	157.51	17.41	-43.7	-46.2	24.2	6.10e-01	0	40	0	180355072	59	4672
2026-01-17 11:38:29.86	157.47	17.81	-43.7	-46.1	24.0	6.06e-01	0	40	0	186122240	59	4625
2026-01-17 11:38:32.86	157.43	18.21	-43.7	-46.2	24.3	6.06e-01	0	40	0	191365120	59	4669
2026-01-17 11:38:35.94	157.39	18.63	-44.0	-46.5	24.0	6.09e-01	0	41	0	197132288	59	4865
2026-01-17 11:38:38.78	157.34	19.03	-43.9	-46.5	24.0	6.05e-01	0	40	0	202375168	59	4837
2026-01-17 11:38:41.91	157.29	19.48	-44.1	-46.6	23.9	6.07e-01	0	41	0	208666624	59	4916
2026-01-17 11:38:44.75	157.25	19.89	-44.1	-46.6	23.9	6.06e-01	0	41	0	213909504	59	4918
2026-01-17 11:38:47.91	157.19	20.36	-44.0	-46.5	24.0	6.07e-01	0	40	0	219676672	59	4869
2026-01-17 11:38:50.86	157.14	20.80	-44.2	-46.7	23.8	6.06e-01	0	40	0	225443840	59	4981
2026-01-17 11:38:54.11	157.08	21.30	-44.5	-47.0	23.6	6.07e-01	0	40	0	231211008	59	5137
2026-01-17 11:38:56.95	157.03	21.75	-44.4	-46.9	23.7	6.07e-01	0	40	0	236978176	59	5074
2026-01-17 11:39:00.07	156.97	22.25	-44.2	-46.7	23.9	6.07e-01	0	40	0	242745344	59	4933
2026-01-17 11:39:03.12	156.91	22.75	-44.1	-46.6	24.0	6.06e-01	0	41	0	248512512	59	4874
2026-01-17 11:39:06.19	156.84	23.27	-44.1	-46.6	24.0	6.05e-01	0	41	0	253755392	59	4886
2026-01-17 11:39:09.18	156.77	23.78	-44.2	-46.7	23.9	6.07e-01	0	41	0	259522560	59	4953
2026-01-17 11:39:12.49	156.70	24.36	-44.2	-46.6	24.0	6.06e-01	0	41	0	265814016	59	4914
2026-01-17 11:39:15.22	156.63	24.85	-44.2	-46.6	24.0	6.06e-01	0	41	0	271056896	59	4917
2026-01-17 11:39:18.54	156.55	25.46	-44.1	-46.6	24.1	6.05e-01	0	41	0	277348352	59	4888
2026-01-17 11:39:21.25	156.48	25.96	-44.2	-46.7	24.0	6.06e-01	0	40	0	282066944	59	4943
2026-01-17 11:39:24.63	156.39	26.61	-44.2	-46.7	24.0	6.06e-01	0	40	0	288358400	59	4954
2026-01-17 11:39:27.68	156.30	27.21	-43.9	-46.3	24.3	6.07e-01	0	41	0	294125568	59	4742
2026-01-17 11:39:30.96	156.21	27.87	-43.6	-46.1	24.5	6.05e-01	0	40	0	300417024	59	4600
2026-01-17 11:39:33.67	156.12	28.43	-44.0	-46.5	24.2	6.06e-01	0	40	0	305659904	59	4832
2026-01-17 11:39:36.97	156.02	29.13	-44.0	-46.5	24.2	6.09e-01	0	40	0	311951360	59	4828
2026-01-17 11:39:39.71	155.92	29.72	-43.7	-46.2	24.4	6.06e-01	0	40	0	316669952	59	4691
2026-01-17 11:39:43.11	155.80	30.48	-43.4	-45.8	24.7	6.07e-01	0	40	0	323485696	58	4757
2026-01-17 11:39:45.82	155.70	31.10	-43.5	-46.0	24.6	6.07e-01	0	41	0	328204288	58	4818
2026-01-17 11:39:49.11	155.57	31.86	-43.5	-45.8	24.7	6.06e-01	0	41	0	334495744	58	4748
2026-01-17 11:39:51.83	155.46	32.52	-43.8	-46.2	24.4	6.07e-01	0	40	0	339738624	58	4973
2026-01-17 11:39:55.09	155.32	33.32	-44.2	-46.7	24.0	6.05e-01	0	40	0	345505792	59	4955
2026-01-17 11:39:58.10	155.19	34.08	-44.4	-46.8	23.9	6.05e-01	0	40	0	351272960	59	5038
2026-01-17 11:40:01.54	155.02	34.97	-44.5	-47.0	23.8	6.08e-01	0	40	0	357564416	59	5138
2026-01-17 11:40:04.24	154.89	35.69	-45.2	-47.9	23.0	6.08e-01	0	41	0	362807296	61	5068
2026-01-17 11:40:07.53	154.71	36.59	-45.2	-47.9	22.9	6.05e-01	0	40	0	369098752	61	5045
2026-01-17 11:40:10.27	154.56	37.37	-45.2	-47.9	22.9	6.07e-01	0	41	0	374341632	61	5052
2026-01-17 11:40:13.54	154.36	38.31	-45.7	-48.4	22.5	6.07e-01	0	41	0	380108800	61	5388
2026-01-17 11:40:16.26	154.19	39.12	-45.7	-48.5	22.4	6.07e-01	0	40	0	385351680	62	5119
2026-01-17 11:40:19.53	153.97	40.12	-45.7	-48.5	22.4	6.06e-01	0	41	0	391643136	62	5153
2026-01-17 11:40:22.24	153.78	40.97	-45.3	-48.0	22.9	6.07e-01	0	40	0	396361728	62	4847
2026-01-17 11:40:25.54	153.53	42.03	-45.0	-47.7	23.2	6.07e-01	0	40	0	402653184	62	4655
2026-01-17 11:40:28.25	153.31	42.93	-44.6	-47.1	23.6	6.08e-01	0	41	0	407896064	61	4625
2026-01-17 11:40:31.52	153.03	44.04	-44.4	-46.8	23.8	6.08e-01	0	41	0	414187520	60	4754
2026-01-17 11:40:34.24	152.78	45.00	-44.2	-46.6	24.2	6.08e-01	0	40	0	418906112	59	4901
2026-01-17 11:40:37.52	152.46	46.18	-44.5	-46.9	23.9	6.06e-01	0	41	0	425197568	59	5084
2026-01-17 11:40:40.43	152.15	47.25	-44.3	-46.8	24.0	6.06e-01	0	40	0	430964736	59	5015
2026-01-17 11:40:43.98	151.74	48.60	-44.4	-46.8	24.0	6.05e-01	0	40	0	437256192	59	5009
2026-01-17 11:40:46.69	151.40	49.66	-44.3	-46.8	24.0	6.06e-01	0	40	0	442499072	59	5003
2026-01-17 11:40:50.12	150.93	51.04	-44.2	-46.6	24.2	6.06e-01	0	40	0	448790528	59	4873
2026-01-17 11:40:53.17	150.48	52.30	-43.7	-46.1	24.6	6.07e-01	0	40	0	454557696	59	4616
2026-01-17 11:40:56.45	149.94	53.69	-43.2	-45.5	25.1	6.08e-01	0	40	0	460849152	58	4549
2026-01-17 11:40:59.18	149.45	54.88	-43.4	-45.7	24.9	6.06e-01	0	41	0	466092032	58	4669
2026-01-17 11:41:02.56	148.78	56.39	-43.8	-46.2	24.5	6.05e-01	0	41	0	472383488	58	4955
2026-01-17 11:41:05.27	148.19	57.62	-44.3	-46.8	24.1	6.07e-01	0	41	0	477102080	59	4990
2026-01-17 11:41:08.64	147.38	59.19	-44.7	-47.2	23.6	6.05e-01	0	40	0	483393536	60	4939
2026-01-17 11:41:11.46	146.61	60.53	-45.2	-47.9	23.1	6.07e-01	0	41	0	489160704	60	5358
2026-01-17 11:41:14.75	145.60	62.13	-45.4	-48.4	22.6	6.07e-01	0	40	0	494927872	61	5371
2026-01-17 11:41:17.48	144.66	63.48	-45.6	-48.5	22.5	6.06e-01	0	40	0	500170752	61	5422
2026-01-17 11:41:20.76	143.37	65.13	-46.6	-49.9	21.1	6.08e-01	0	41	0	506462208	64	5396
2026-01-17 11:41:23.49	142.14	66.51	-47.4	-51.0	20.2	6.07e-01	0	41	0	511180800	65	5735
2026-01-17 11:41:26.73	140.46	68.18	-47.8	-51.3	19.8	6.07e-01	0	40	0	517472256	66	5654
2026-01-17 11:41:29.57	138.73	69.65	-47.9	-51.5	19.7	6.07e-01	0	40	0	522715136	66	5761
2026-01-17 11:41:32.70	136.48	71.27	-47.3	-50.8	20.4	6.07e-01	0	41	0	528482304	65	5602
2026-01-17 11:41:35.54	134.05	72.74	-46.6	-49.8	21.2	6.09e-01	0	41	0	534249472	65	5024
2026-01-17 11:41:38.62	130.87	74.31	-47.4	-50.8	20.3	6.07e-01	0	40	0	540016640	65	5629
2026-01-17 11:41:41.60	127.10	75.79	-47.0	-50.2	21.0	6.08e-01	0	40	0	545259520	65	5222
2026-01-17 11:41:44.68	122.25	77.26	-46.4	-49.3	21.8	6.09e-01	0	41	0	551026688	63	5335
2026-01-17 11:41:47.95	115.72	78.72	-45.6	-48.4	22.5	6.06e-01	0	40	0	557318144	62	5086
2026-01-17 11:41:50.68	108.88	79.80	-44.8	-47.6	23.3	6.07e-01	0	41	0	562561024	61	4912
2026-01-17 11:41:53.96	98.64	80.87	-45.2	-47.9	23.1	6.07e-01	0	41	0	568852480	61	5052
2026-01-17 11:41:56.78	88.02	81.52	-44.7	-47.5	23.4	6.07e-01	0	41	0	574095360	61	4826
2026-01-17 11:42:00.11	73.90	81.85	-44.8	-47.3	23.5	6.05e-01	0	40	0	580386816	61	4739
2026-01-17 11:42:03.20	60.51	81.70	-44.9	-47.4	23.4	6.06e-01	0	40	0	586153984	61	4809
2026-01-17 11:42:06.04	49.16	81.20	-45.3	-48.0	22.9	6.06e-01	0	40	0	591396864	61	5108
2026-01-17 11:42:09.17	38.50	80.30	-44.6	-47.1	23.7	6.06e-01	0	40	0	597164032	61	4608
2026-01-17 11:42:12.12	30.36	79.21	-45.3	-47.9	23.1	6.07e-01	0	41	0	602406912	61	5062
2026-01-17 11:42:15.36	23.28	77.82	-45.8	-48.6	22.4	6.05e-01	0	40	0	608698368	63	4875
2026-01-17 11:42:18.20	18.35	76.50	-46.5	-49.5	21.5	6.07e-01	0	41	0	613941248	65	4841
2026-01-17 11:42:21.33	13.99	74.97	-47.1	-50.3	20.8	6.08e-01	0	40	0	619708416	65	5308
2026-01-17 11:42:24.17	10.77	73.54	-47.1	-50.3	20.8	6.06e-01	0	40	0	625475584	65	5316
2026-01-17 11:42:27.33	7.82	71.91	-47.9	-51.5	19.7	6.07e-01	0	41	0	631242752	66	5732
2026-01-17 11:42:30.18	5.61	70.44	-48.5	-52.3	18.8	6.09e-01	0	41	0	636485632	67	5968
2026-01-17 11:42:33.34	3.54	68.81	-48.8	-52.9	18.4	6.08e-01	0	41	0	642252800	68	6050
2026-01-17 11:42:36.18	1.96	67.35	-48.4	-52.2	19.1	6.09e-01	0	40	0	647495680	68	5575
2026-01-17 11:42:39.31	0.45	65.75	-47.7	-51.4	19.7	6.07e-01	0	40	0	653787136	67	5397
2026-01-17 11:42:42.15	359.26	64.32	-46.7	-49.9	21.1	6.08e-01	0	40	0	659030016	65	5088
2026-01-17 11:42:45.40	358.07	62.71	-45.5	-48.3	22.6	6.07e-01	0	40	0	665321472	62	5033
2026-01-17 11:42:48.24	357.16	61.32	-45.0	-47.7	23.2	6.08e-01	0	40	0	670564352	62	4661
2026-01-17 11:42:51.49	356.23	59.77	-45.2	-48.0	22.9	6.04e-01	0	40	0	676331520	62	4844
2026-01-17 11:42:54.38	355.50	58.41	-44.3	-46.9	23.9	6.08e-01	0	40	0	682098688	60	4773
2026-01-17 11:42:57.65	354.75	56.91	-44.0	-46.4	24.2	6.08e-01	0	40	0	687865856	60	4518
2026-01-17 11:43:00.38	354.19	55.69	-43.5	-45.8	24.8	6.09e-01	0	40	0	693108736	58	4751
2026-01-17 11:43:03.66	353.57	54.25	-43.5	-45.8	24.9	6.07e-01	0	40	0	699400192	58	4723
2026-01-17 11:43:06.47	353.10	53.05	-43.1	-45.4	25.1	6.07e-01	0	40	0	704643072	58	4510
2026-01-17 11:43:09.57	352.61	51.75	-43.9	-46.3	24.5	6.06e-01	0	40	0	710410240	58	5005
2026-01-17 11:43:12.82	352.15	50.43	-44.1	-46.5	24.3	6.07e-01	0	40	0	716701696	58	5116
2026-01-17 11:43:15.80	351.76	49.25	-44.3	-46.7	24.1	6.05e-01	0	40	0	721944576	59	4956
2026-01-17 11:43:18.79	351.40	48.10	-44.2	-46.7	24.0	6.08e-01	0	40	0	727711744	59	4933
2026-01-17 11:43:21.77	351.07	46.98	-44.4	-46.8	23.9	6.05e-01	0	40	0	733478912	59	5026
2026-01-17 11:43:24.85	350.75	45.86	-43.9	-46.4	24.3	6.07e-01	0	40	0	739246080	59	4806
2026-01-17 11:43:27.69	350.48	44.85	-43.8	-46.4	24.4	6.06e-01	0	40	0	744488960	59	4762
2026-01-17 11:43:30.82	350.19	43.77	-44.6	-47.1	23.8	6.05e-01	0	40	0	750256128	59	5184
2026-01-17 11:43:33.66	349.96	42.81	-44.4	-46.9	23.8	6.05e-01	0	40	0	755499008	60	4786
2026-01-17 11:43:36.78	349.71	41.79	-44.6	-47.3	23.5	6.07e-01	0	40	0	761266176	60	5025
2026-01-17 11:43:39.67	349.50	40.87	-45.3	-48.0	22.9	6.06e-01	0	41	0	767033344	61	5119
2026-01-17 11:43:43.24	349.25	39.76	-45.1	-47.7	23.1	6.08e-01	0	40	0	773324800	61	4957
2026-01-17 11:43:46.13	349.06	38.89	-45.9	-48.8	22.2	6.06e-01	0	40	0	779091968	62	5285
2026-01-17 11:43:49.41	348.86	37.93	-45.3	-48.5	22.4	6.09e-01	0	40	0	784859136	62	5101
2026-01-17 11:43:52.14	348.70	37.16	-45.0	-48.1	22.8	6.08e-01	0	40	0	790102016	62	4871
2026-01-17 11:43:55.44	348.52	36.24	-44.8	-47.5	23.3	6.07e-01	0	40	0	796393472	61	4823
2026-01-17 11:43:58.36	348.37	35.46	-44.1	-46.7	24.0	6.07e-01	0	40	0	801636352	60	4653
2026-01-17 11:44:01.85	348.21	34.54	-44.1	-46.7	24.1	6.07e-01	0	40	0	808452096	59	4937
2026-01-17 11:44:04.69	348.08	33.82	-43.7	-46.3	24.4	6.06e-01	0	40	0	813694976	59	4750
2026-01-17 11:44:07.80	347.94	33.05	-43.6	-46.2	24.4	6.08e-01	0	40	0	819462144	59	4689
2026-01-17 11:44:10.65	347.82	32.36	-43.2	-45.6	24.9	6.07e-01	0	40	0	824705024	58	4624
2026-01-17 11:44:13.93	347.69	31.58	-43.1	-45.5	25.1	6.07e-01	0	40	0	830996480	58	4556
2026-01-17 11:44:16.68	347.59	30.95	-43.1	-45.5	25.0	6.06e-01	0	40	0	836239360	57	4816
2026-01-17 11:44:20.31	347.46	30.14	-43.4	-45.8	24.8	6.06e-01	0	40	0	843055104	57	5034
2026-01-17 11:44:23.02	347.37	29.55	-43.6	-46.2	24.5	6.07e-01	0	40	0	848297984	57	5236
2026-01-17 11:44:26.31	347.26	28.85	-43.8	-46.3	24.3	6.08e-01	0	40	0	854065152	58	5014
2026-01-17 11:44:29.05	347.18	28.28	-43.6	-46.0	24.6	6.09e-01	0	40	0	859308032	58	4833
2026-01-17 11:44:32.31	347.08	27.62	-43.7	-46.1	24.5	6.06e-01	0	40	0	865599488	58	4913
2026-01-17 11:44:35.16	347.00	27.05	-43.5	-46.1	24.5	6.05e-01	0	40	0	870842368	58	4883
2026-01-17 11:44:38.28	346.91	26.45	-43.7	-46.1	24.5	6.06e-01	0	40	0	876609536	58	4921
2026-01-17 11:44:41.55	346.83	25.83	-43.9	-46.3	24.3	6.06e-01	0	40	0	882900992	58	5013
2026-01-17 11:44:44.42	346.76	25.30	-44.0	-46.7	24.0	6.08e-01	0	40	0	888143872	58	5244
2026-01-17 11:44:47.70	346.68	24.71	-44.4	-47.2	23.6	6.06e-01	0	40	0	894435328	59	5243
2026-01-17 11:44:50.50	346.62	24.21	-44.4	-47.1	23.6	6.07e-01	0	40	0	899678208	59	5163
2026-01-17 11:44:53.88	346.54	23.63	-44.3	-46.9	23.7	6.10e-01	0	40	0	905969664	59	5098
2026-01-17 11:44:56.72	346.48	23.15	-44.1	-46.9	23.8	6.06e-01	0	40	0	911212544	59	5082
2026-01-17 11:44:59.85	346.42	22.64	-43.8	-46.7	23.9	6.05e-01	0	40	0	916979712	59	4966
2026-01-17 11:45:02.69	346.36	22.18	-44.1	-46.8	23.9	6.06e-01	0	40	0	922222592	59	4997
2026-01-17 11:45:05.92	346.30	21.66	-44.2	-46.7	23.9	6.05e-01	0	40	0	928514048	59	4962
2026-01-17 11:45:08.76	346.25	21.22	-44.1	-46.7	24.0	6.07e-01	0	41	0	933756928	59	4957
2026-01-17 11:45:12.08	346.20	20.72	-44.0	-46.7	23.9	6.08e-01	0	40	0	940048384	59	4971
2026-01-17 11:45:14.81	346.15	20.31	-44.0	-46.7	24.0	6.05e-01	0	40	0	945291264	59	4941
2026-01-17 11:45:18.06	346.10	19.84	-44.2	-46.7	23.9	6.05e-01	0	40	0	951058432	59	4973
2026-01-17 11:45:20.90	346.06	19.43	-44.2	-46.9	23.7	6.04e-01	0	40	0	956825600	59	5089
2026-01-17 11:45:24.03	346.01	18.99	-44.2	-47.1	23.6	6.05e-01	0	40	0	962592768	59	5166
2026-01-17 11:45:26.88	345.97	18.59	-44.3	-47.2	23.5	6.06e-01	0	40	0	967835648	59	5260
2026-01-17 11:45:30.14	345.92	18.15	-44.3	-47.0	23.7	6.03e-01	0	40	0	974127104	59	5118
2026-01-17 11:45:32.86	345.89	17.79	-44.3	-47.0	23.6	6.02e-01	0	40	0	978845696	59	5136
2026-01-17 11:45:36.16	345.85	17.36	-44.0	-47.0	23.6	6.04e-01	0	40	0	985137152	59	5118
2026-01-17 11:45:39.25	345.81	16.96	-43.5	-46.8	23.8	6.04e-01	0	40	0	990904320	58	5280
2026-01-17 11:45:42.32	345.77	16.57	-43.6	-46.8	23.7	6.05e-01	0	40	0	996671488	58	5314
2026-01-17 11:45:45.83	345.73	16.14	-43.9	-46.7	23.8	6.03e-01	0	40	0	1003487232	58	5254
2026-01-17 11:45:48.55	345.70	15.81	-43.9	-46.6	23.9	6.04e-01	0	40	0	1008730112	58	5185
2026-01-17 11:45:51.83	345.67	15.41	-43.7	-46.6	24.0	6.06e-01	0	40	0	1014497280	58	5193
2026-01-17 11:45:54.56	345.64	15.09	-43.6	-46.7	23.9	6.05e-01	0	40	0	1019740160	58	5235
2026-01-17 11:45:57.85	345.61	14.71	-43.6	-46.5	24.0	6.05e-01	0	40	0	1026031616	58	5137
2026-01-17 11:46:00.59	345.58	14.40	-43.6	-46.5	24.1	6.02e-01	0	40	0	1030750208	58	5109
2026-01-17 11:46:03.87	345.55	14.03	-43.7	-46.5	24.0	6.03e-01	0	40	0	1037041664	58	5136
2026-01-17 11:46:06.58	345.52	13.73	-43.8	-46.4	24.1	6.04e-01	0	40	0	1042284544	58	5078
2026-01-17 11:46:09.86	345.50	13.37	-43.8	-46.6	24.0	6.04e-01	0	40	0	1048576000	58	5161
2026-01-17 11:46:12.59	345.47	13.08	-43.6	-46.7	23.9	6.04e-01	0	40	0	1053294592	58	5225
2026-01-17 11:46:15.86	345.45	12.73	-43.6	-46.7	23.8	6.04e-01	0	40	0	1059586048	58	5243
2026-01-17 11:46:18.67	345.43	12.44	-43.7	-46.7	23.9	6.04e-01	0	40	0	1064828928	58	5238
2026-01-17 11:46:22.28	345.40	12.07	-43.9	-46.9	23.7	6.04e-01	0	40	0	1071644672	58	5351
2026-01-17 11:46:25.00	345.38	11.79	-44.0	-47.0	23.6	6.04e-01	0	40	0	1076887552	58	5444
2026-01-17 11:46:28.28	345.36	11.46	-43.8	-47.1	23.5	6.03e-01	0	40	0	1082654720	58	5509
2026-01-17 11:46:31.02	345.34	11.19	-43.4	-47.2	23.4	6.02e-01	0	40	0	1087897600	58	5532
2026-01-17 11:46:34.29	345.32	10.88	-43.1	-47.2	23.4	6.05e-01	0	40	0	1094189056	58	5534
2026-01-17 11:46:36.99	345.30	10.62	-43.2	-47.4	23.1	6.05e-01	0	40	0	1099431936	58	5678
2026-01-17 11:46:40.29	345.28	10.30	-43.4	-47.4	23.1	6.03e-01	0	40	0	1105199104	58	5716
2026-01-17 11:46:43.05	345.26	10.05	-43.4	-47.5	23.0	6.04e-01	0	40	0	1110441984	58	5764
2026-01-17 11:46:46.35	345.24	9.74	-43.3	-47.7	22.9	6.04e-01	0	40	0	1116733440	58	5859
2026-01-17 11:46:49.07	345.23	9.49	-42.9	-47.6	22.9	6.03e-01	0	40	0	1121976320	57	6181
2026-01-17 11:46:52.63	345.21	9.17	-42.7	-47.6	22.8	6.03e-01	0	41	0	1128792064	57	6197
2026-01-17 11:46:55.49	345.20	8.92	-49.0	-71.5	3.9	7.41e-01	0	40	104	1132986368	68	51284
2026-01-17 11:46:58.75	345.18	8.63	-51.3	-72.8	3.8	7.42e-01	0	40	104	1132986368	73	44432
2026-01-17 11:47:01.56	345.17	8.39	-51.9	-72.7	3.8	7.46e-01	0	40	104	1132986368	75	39391
2026-01-17 11:47:04.85	345.15	8.11	-52.1	-72.8	3.8	7.45e-01	0	41	104	1132986368	75	39773
2026-01-17 11:47:07.57	345.14	7.88	-52.9	-72.9	3.8	7.46e-01	0	40	104	1132986368	76	37924
2026-01-17 11:47:10.83	345.13	7.60	-52.4	-72.9	3.8	7.47e-01	0	40	104	1132986368	76	38049
2026-01-17 11:47:13.53	345.12	7.38	-52.9	-72.9	3.8	7.47e-01	0	40	104	1132986368	76	38161
2026-01-17 11:47:16.81	345.10	7.11	-53.0	-73.0	3.8	7.47e-01	0	41	104	1132986368	76	38379
2026-01-17 11:47:19.57	345.09	6.88	-52.7	-73.0	3.8	7.49e-01	0	40	104	1132986368	76	38400
2026-01-17 11:47:22.83	345.08	6.62	-52.2	-73.0	3.8	7.48e-01	0	40	104	1132986368	76	38364
2026-01-17 11:47:25.57	345.07	6.40	-52.1	-73.0	3.8	7.45e-01	0	40	104	1132986368	76	38441
2026-01-17 11:47:28.85	345.06	6.15	-52.2	-73.0	3.8	7.47e-01	0	40	104	1132986368	76	38503
2026-01-17 11:47:31.54	345.05	5.94	-52.2	-73.0	3.8	7.48e-01	0	40	104	1132986368	76	38669
2026-01-17 11:47:34.81	345.04	5.68	-52.2	-73.1	3.8	7.41e-01	0	40	104	1132986368	76	38815
2026-01-17 11:47:37.50	345.03	5.48	-52.3	-73.1	3.8	7.45e-01	0	40	104	1132986368	76	38977
2026-01-17 11:47:40.78	345.03	5.23	-52.3	-73.2	3.8	7.43e-01	0	41	104	1132986368	76	39186
2026-01-17 11:47:43.49	345.02	5.03	-52.4	-73.2	3.8	7.48e-01	0	41	104	1132986368	76	39361

#Closed at: 2026-01-17 11:47:45
#Recorded file [1132 MB]: D:/Data/31040_260117_143621.dat