passes_logs/2026/01/17/T1/T1__20260117_082004_NOAA_21_JPSS-2_rec.log

#Pass ID: 20260117_082004_NOAA 21 (JPSS-2)
#Satellite: NOAA 21 (JPSS-2)
#Configuration: NOAA 21
#almurnet v.1.7.20251203
#Start time: 2026-01-17 08:20:03

#Version: 2.0.20230620
#Station: T1
#Location: 37.570604 lon 55.790049 lat
#TLE: 1 54234U 22150A   26016.21096038  .00000027  00000+0  33607-4 0  9993
#TLE: 2 54234  98.7500 317.0960 0000625 282.3388  77.7718 14.19534911164985

#Time	Az	El	Level	Level2	SNR	BER	BlckErr	Temp	State	Recorded	gain1	gain2
2026-01-17 08:20:03.72	109.81	4.98	-49.9	-62.9	3.8	1.49e+00	0	39	0	0	71	16113
2026-01-17 08:20:06.70	109.57	5.16	-49.9	-62.9	3.8	1.49e+00	0	40	104	0	71	16087
2026-01-17 08:20:09.67	109.33	5.34	-49.9	-62.9	3.8	1.49e+00	0	39	104	0	71	16109
2026-01-17 08:20:12.65	109.09	5.53	-49.8	-63.0	3.8	1.49e+00	0	39	104	0	71	16146
2026-01-17 08:20:15.64	108.84	5.71	-49.8	-62.9	3.8	1.49e+00	0	40	104	0	71	16045
2026-01-17 08:20:18.62	108.59	5.90	-49.8	-62.8	3.8	1.49e+00	0	40	104	0	71	15893
2026-01-17 08:20:21.60	108.33	6.08	-49.8	-62.7	3.8	1.49e+00	0	40	104	0	71	15624
2026-01-17 08:20:24.58	108.07	6.27	-49.8	-62.7	3.8	1.49e+00	0	40	104	0	71	15656
2026-01-17 08:20:27.56	107.81	6.46	-49.9	-62.7	3.8	1.49e+00	0	40	104	0	71	15684
2026-01-17 08:20:30.54	107.55	6.65	-49.9	-62.7	3.8	1.49e+00	0	40	104	0	71	15591
2026-01-17 08:20:33.52	107.28	6.84	-49.8	-62.3	3.8	1.49e+00	0	40	104	0	71	15035
2026-01-17 08:20:36.50	107.01	7.03	-49.7	-62.0	3.8	1.49e+00	0	40	104	0	71	14515
2026-01-17 08:20:39.48	106.73	7.22	-49.7	-62.1	3.8	1.49e+00	0	40	104	0	71	14652
2026-01-17 08:20:42.46	106.45	7.41	-49.8	-62.4	3.8	1.49e+00	0	40	104	0	71	15118
2026-01-17 08:20:45.44	106.17	7.60	-49.8	-61.8	3.8	1.49e+00	0	40	104	0	71	14184
2026-01-17 08:20:48.42	105.88	7.79	-49.7	-60.7	3.9	1.49e+00	0	41	104	0	71	12450
2026-01-17 08:20:51.40	105.59	7.99	-49.8	-62.4	3.8	1.49e+00	0	41	104	0	71	15081
2026-01-17 08:20:54.38	105.30	8.18	-48.3	-54.1	7.5	2.00e-01	0	41	0	0	68	6890
2026-01-17 08:20:57.36	105.00	8.38	-44.4	-47.1	14.5	1.50e-06	0	41	0	0	60	4899
2026-01-17 08:21:00.34	104.69	8.58	-42.6	-44.7	16.8	0.00e+00	0	41	0	0	57	4434
2026-01-17 08:21:03.32	104.39	8.77	-43.5	-45.9	15.7	0.00e+00	0	41	0	0	57	5080
2026-01-17 08:21:06.30	104.07	8.97	-46.7	-50.6	11.0	5.46e-04	0	41	0	0	63	6168
2026-01-17 08:21:09.29	103.76	9.17	-46.9	-50.9	10.5	1.09e-03	0	41	0	0	64	6061
2026-01-17 08:21:12.36	103.43	9.37	-49.7	-61.4	3.8	1.49e+00	0	41	104	0	70	14295
2026-01-17 08:21:15.30	103.11	9.57	-47.0	-51.3	10.2	6.18e-03	0	41	0	0	65	5932
2026-01-17 08:21:18.70	102.73	9.80	-45.3	-48.3	13.4	1.75e-05	0	41	0	0	62	5037
2026-01-17 08:21:21.40	102.43	9.98	-43.9	-46.4	15.3	0.00e+00	0	41	0	0	59	4762
2026-01-17 08:21:25.16	102.00	10.24	-42.8	-44.9	16.7	0.00e+00	0	41	0	0	57	4516
2026-01-17 08:21:28.01	101.67	10.43	-41.8	-43.7	17.7	0.00e+00	0	41	0	0	55	4433
2026-01-17 08:21:31.14	101.30	10.65	-41.7	-43.7	17.8	0.00e+00	0	41	0	0	55	4392
2026-01-17 08:21:33.98	100.96	10.84	-41.3	-43.1	18.3	0.00e+00	0	41	0	0	54	4382
2026-01-17 08:21:37.11	100.58	11.06	-41.1	-43.0	18.4	0.00e+00	0	41	0	0	54	4318
2026-01-17 08:21:39.95	100.24	11.25	-41.1	-43.0	18.4	0.00e+00	0	41	0	0	54	4309
2026-01-17 08:21:43.08	99.85	11.47	-41.1	-43.0	18.4	0.00e+00	0	41	0	0	54	4311
2026-01-17 08:21:46.40	99.43	11.70	-40.8	-42.7	18.7	0.00e+00	0	41	0	0	53	4397
2026-01-17 08:21:49.30	99.06	11.90	-40.8	-42.6	18.7	0.00e+00	0	41	0	0	53	4390
2026-01-17 08:21:52.85	98.59	12.15	-40.8	-42.6	18.8	0.00e+00	0	41	0	0	53	4352
2026-01-17 08:21:55.55	98.24	12.34	-41.0	-42.8	18.5	0.00e+00	0	41	0	0	53	4480
2026-01-17 08:21:58.83	97.80	12.57	-41.0	-42.8	18.6	0.00e+00	0	41	0	0	53	4480
2026-01-17 08:22:01.55	97.43	12.76	-40.9	-42.8	18.7	0.00e+00	0	41	0	0	53	4454
2026-01-17 08:22:04.82	96.98	12.99	-40.6	-42.4	19.0	7.60e-06	0	41	0	0	53	4279
2026-01-17 08:22:07.66	96.58	13.19	-40.6	-42.4	19.0	0.00e+00	0	41	0	0	53	4256
2026-01-17 08:22:10.79	96.13	13.41	-40.7	-42.5	18.9	0.00e+00	0	41	0	0	53	4320
2026-01-17 08:22:13.63	95.72	13.61	-40.6	-42.4	19.1	0.00e+00	0	41	0	0	53	4250
2026-01-17 08:22:16.76	95.27	13.83	-40.5	-42.3	19.2	0.00e+00	0	41	0	0	52	4447
2026-01-17 08:22:19.60	94.85	14.03	-40.8	-42.6	18.8	0.00e+00	0	41	0	0	52	4621
2026-01-17 08:22:22.72	94.38	14.25	-40.9	-42.7	18.7	0.00e+00	0	41	0	0	52	4702
2026-01-17 08:22:25.57	93.94	14.45	-40.8	-42.6	18.8	0.00e+00	0	41	0	0	52	4644
2026-01-17 08:22:28.69	93.46	14.68	-40.8	-42.6	18.8	0.00e+00	0	41	0	0	52	4638
2026-01-17 08:22:31.54	93.01	14.88	-41.0	-42.8	18.7	0.00e+00	0	41	0	0	52	4744
2026-01-17 08:22:34.76	92.50	15.10	-41.1	-42.9	18.6	0.00e+00	0	41	0	0	52	4798
2026-01-17 08:22:37.63	92.03	15.31	-40.9	-42.8	18.8	0.00e+00	0	41	0	0	52	4708
2026-01-17 08:22:40.96	91.49	15.54	-40.7	-42.5	19.0	0.00e+00	0	41	0	0	52	4570
2026-01-17 08:22:43.83	91.01	15.74	-40.8	-42.7	18.8	0.00e+00	0	41	0	0	52	4660
2026-01-17 08:22:46.96	90.48	15.96	-40.6	-42.4	19.1	0.00e+00	0	41	0	0	52	4517
2026-01-17 08:22:50.00	89.96	16.18	-40.2	-42.0	19.5	0.00e+00	0	41	0	0	52	4310
2026-01-17 08:22:53.29	89.38	16.41	-40.5	-42.3	19.1	0.00e+00	0	41	0	0	52	4458
2026-01-17 08:22:56.24	88.86	16.61	-40.4	-42.2	19.3	0.00e+00	0	41	0	0	52	4409
2026-01-17 08:22:59.64	88.25	16.85	-40.4	-42.2	19.2	0.00e+00	0	41	0	0	52	4415
2026-01-17 08:23:02.67	87.70	17.06	-40.5	-42.3	19.1	0.00e+00	0	41	0	0	52	4471
2026-01-17 08:23:05.89	87.11	17.28	-40.8	-42.6	18.9	0.00e+00	0	41	0	0	52	4618
2026-01-17 08:23:08.73	86.58	17.47	-40.7	-42.5	18.9	0.00e+00	0	41	0	0	53	4335
2026-01-17 08:23:11.86	85.98	17.69	-40.6	-42.4	19.0	0.00e+00	0	41	0	0	53	4290
2026-01-17 08:23:14.71	85.43	17.88	-40.6	-42.5	19.0	0.00e+00	0	41	0	0	53	4300
2026-01-17 08:23:17.89	84.81	18.09	-40.5	-42.3	19.1	0.00e+00	0	41	0	0	53	4228
2026-01-17 08:23:20.79	84.24	18.29	-40.6	-42.4	19.1	0.00e+00	0	41	0	0	53	4271
2026-01-17 08:23:24.09	83.58	18.50	-40.5	-42.4	19.1	0.00e+00	0	42	0	0	53	4249
2026-01-17 08:23:26.90	83.01	18.69	-40.5	-42.3	19.1	0.00e+00	0	41	0	0	52	4472
2026-01-17 08:23:30.20	82.33	18.90	-40.4	-42.2	19.3	0.00e+00	0	41	0	0	52	4395
2026-01-17 08:23:33.19	81.71	19.09	-40.3	-42.1	19.4	0.00e+00	0	41	0	0	52	4357
2026-01-17 08:23:36.62	80.98	19.31	-40.2	-42.0	19.4	0.00e+00	0	41	0	0	52	4322
2026-01-17 08:23:39.32	80.41	19.48	-40.4	-42.1	19.3	0.00e+00	0	41	0	0	52	4387
2026-01-17 08:23:42.62	79.69	19.68	-40.1	-41.9	19.6	0.00e+00	0	41	0	0	52	4262
2026-01-17 08:23:45.41	79.08	19.85	-40.2	-42.0	19.5	0.00e+00	0	41	0	0	52	4295
2026-01-17 08:23:48.54	78.39	20.04	-40.2	-41.9	19.5	0.00e+00	0	41	0	0	52	4279
2026-01-17 08:23:51.38	77.75	20.21	-40.2	-41.9	19.6	0.00e+00	0	41	0	0	52	4274
2026-01-17 08:23:54.58	77.02	20.40	-40.0	-41.8	19.7	0.00e+00	0	41	0	0	52	4215
2026-01-17 08:23:57.42	76.37	20.56	-40.1	-41.8	19.6	0.00e+00	0	41	0	0	52	4239
2026-01-17 08:24:00.55	75.64	20.73	-40.1	-41.9	19.6	0.00e+00	0	41	0	0	52	4253
2026-01-17 08:24:03.39	74.98	20.89	-40.1	-41.8	19.7	0.00e+00	0	41	0	0	52	4220
2026-01-17 08:24:06.52	74.23	21.06	-40.0	-41.7	19.8	0.00e+00	0	41	0	0	52	4178
2026-01-17 08:24:09.36	73.55	21.21	-40.0	-41.8	19.7	0.00e+00	0	41	0	0	51	4448
2026-01-17 08:24:12.49	72.80	21.37	-39.8	-41.5	20.0	0.00e+00	0	41	0	0	51	4317
2026-01-17 08:24:15.33	72.10	21.51	-39.7	-41.3	20.1	0.00e+00	0	41	0	0	51	4233
2026-01-17 08:24:18.68	71.28	21.67	-39.6	-41.3	20.2	0.00e+00	0	41	0	0	51	4210
2026-01-17 08:24:21.39	70.60	21.80	-39.8	-41.5	20.0	0.00e+00	0	41	0	0	51	4317
2026-01-17 08:24:24.66	69.78	21.95	-39.9	-41.7	19.9	0.00e+00	0	41	0	0	51	4396
2026-01-17 08:24:27.50	69.06	22.07	-40.0	-41.8	19.8	0.00e+00	0	41	0	0	51	4442
2026-01-17 08:24:30.63	68.26	22.20	-40.0	-41.7	19.9	0.00e+00	0	41	0	0	51	4403
2026-01-17 08:24:33.80	67.44	22.33	-40.2	-41.9	19.8	0.00e+00	0	41	0	0	51	4500
2026-01-17 08:24:36.82	66.66	22.45	-40.0	-41.7	19.8	0.00e+00	0	41	0	0	51	4437
2026-01-17 08:24:39.80	65.88	22.56	-39.8	-41.5	20.1	0.00e+00	0	41	0	0	51	4298
2026-01-17 08:24:42.79	65.09	22.66	-39.7	-41.4	20.2	0.00e+00	0	41	0	0	51	4259
2026-01-17 08:24:45.77	64.30	22.76	-39.9	-41.6	20.0	0.00e+00	0	41	0	0	51	4362
2026-01-17 08:24:48.73	63.51	22.86	-40.0	-41.7	19.9	0.00e+00	0	42	0	0	51	4404
2026-01-17 08:24:51.96	62.64	22.95	-39.8	-41.5	20.0	0.00e+00	0	41	0	0	51	4314
2026-01-17 08:24:54.79	61.87	23.03	-39.6	-41.3	20.2	0.00e+00	0	41	0	0	51	4212
2026-01-17 08:24:57.92	61.02	23.11	-39.8	-41.5	20.0	0.00e+00	0	41	0	0	51	4326
2026-01-17 08:25:00.77	60.25	23.18	-40.0	-41.8	19.8	0.00e+00	0	41	0	0	51	4447
2026-01-17 08:25:03.89	59.39	23.25	-40.0	-41.7	19.8	0.00e+00	0	41	0	0	51	4440
2026-01-17 08:25:06.73	58.61	23.30	-39.9	-41.6	19.9	0.00e+00	0	41	0	0	51	4389
2026-01-17 08:25:10.06	57.69	23.36	-39.9	-41.6	20.0	0.00e+00	0	41	0	0	51	4352
2026-01-17 08:25:12.79	56.94	23.40	-39.9	-41.6	20.0	0.00e+00	0	41	0	0	51	4381
2026-01-17 08:25:16.10	56.02	23.45	-39.8	-41.5	20.1	0.00e+00	0	41	0	0	51	4312
2026-01-17 08:25:18.87	55.25	23.48	-39.9	-41.6	19.9	0.00e+00	0	41	0	0	51	4379
2026-01-17 08:25:22.15	54.33	23.51	-40.0	-41.8	19.8	0.00e+00	0	41	0	0	51	4442
2026-01-17 08:25:24.85	53.58	23.53	-40.0	-41.7	19.9	0.00e+00	0	41	0	0	51	4409
2026-01-17 08:25:28.17	52.65	23.54	-40.0	-41.7	19.9	0.00e+00	0	41	0	0	51	4416
2026-01-17 08:25:30.88	51.89	23.55	-39.8	-41.5	20.1	0.00e+00	0	41	0	0	51	4296
2026-01-17 08:25:34.17	50.97	23.55	-39.7	-41.4	20.2	0.00e+00	0	41	0	0	51	4263
2026-01-17 08:25:36.89	50.21	23.54	-39.8	-41.4	20.1	0.00e+00	0	41	0	0	51	4289
2026-01-17 08:25:40.19	49.29	23.53	-39.9	-41.6	20.0	0.00e+00	0	41	0	0	51	4362
2026-01-17 08:25:43.01	48.50	23.51	-39.8	-41.4	20.0	0.00e+00	0	41	0	0	51	4282
2026-01-17 08:25:46.14	47.63	23.48	-39.8	-41.5	20.0	0.00e+00	0	41	0	0	51	4313
2026-01-17 08:25:48.98	46.84	23.45	-39.6	-41.3	20.1	0.00e+00	0	41	0	0	51	4225
2026-01-17 08:25:52.17	45.96	23.41	-39.5	-41.1	20.3	0.00e+00	0	41	0	0	50	4382
2026-01-17 08:25:55.30	45.09	23.36	-39.6	-41.2	20.3	0.00e+00	0	41	0	0	50	4428
2026-01-17 08:25:58.15	44.30	23.31	-39.7	-41.4	20.1	0.00e+00	0	41	0	0	50	4496
2026-01-17 08:26:01.27	43.45	23.25	-39.8	-41.5	20.0	0.00e+00	0	41	0	0	50	4566
2026-01-17 08:26:04.11	42.67	23.18	-40.0	-41.7	19.9	0.00e+00	0	41	0	0	50	4660
2026-01-17 08:26:07.24	41.82	23.11	-40.0	-41.7	19.9	0.00e+00	0	41	0	0	50	4674
2026-01-17 08:26:10.08	41.05	23.04	-40.0	-41.7	19.9	0.00e+00	0	41	0	0	50	4683
2026-01-17 08:26:13.26	40.19	22.95	-39.7	-41.4	20.2	0.00e+00	0	41	0	0	50	4517
2026-01-17 08:26:16.39	39.35	22.86	-39.9	-41.6	20.0	0.00e+00	0	41	0	0	50	4600
2026-01-17 08:26:19.23	38.60	22.77	-40.2	-42.0	19.7	0.00e+00	0	41	0	0	51	4555
2026-01-17 08:26:22.46	37.74	22.66	-40.0	-41.7	19.9	0.00e+00	0	41	0	0	51	4431
2026-01-17 08:26:25.30	36.99	22.56	-40.1	-41.9	19.7	0.00e+00	0	41	0	0	51	4496
2026-01-17 08:26:28.59	36.13	22.44	-40.0	-41.7	19.8	0.00e+00	0	41	0	0	51	4433
2026-01-17 08:26:31.32	35.43	22.33	-40.2	-41.9	19.7	0.00e+00	0	41	0	0	51	4523
2026-01-17 08:26:34.60	34.58	22.20	-40.4	-42.2	19.4	0.00e+00	0	41	0	0	51	4660
2026-01-17 08:26:37.34	33.88	22.08	-40.5	-42.3	19.3	0.00e+00	0	41	0	0	51	4724
2026-01-17 08:26:40.61	33.06	21.94	-40.2	-42.0	19.5	0.00e+00	0	41	0	0	51	4548
2026-01-17 08:26:43.36	32.37	21.81	-40.4	-42.2	19.3	0.00e+00	0	41	0	0	51	4690
2026-01-17 08:26:46.72	31.53	21.66	-40.6	-42.4	19.1	0.00e+00	0	41	0	0	52	4529
2026-01-17 08:26:49.42	30.87	21.53	-40.3	-42.1	19.4	0.00e+00	0	41	0	0	52	4360
2026-01-17 08:26:52.71	30.07	21.36	-40.2	-41.9	19.6	0.00e+00	0	41	0	0	52	4273
2026-01-17 08:26:55.41	29.42	21.23	-40.4	-42.1	19.3	0.00e+00	0	41	0	0	52	4391
2026-01-17 08:26:58.70	28.63	21.05	-40.2	-42.0	19.4	0.00e+00	0	41	0	0	52	4301
2026-01-17 08:27:01.54	27.96	20.90	-40.2	-41.9	19.5	0.00e+00	0	41	0	0	52	4286
2026-01-17 08:27:04.67	27.23	20.73	-40.1	-41.9	19.6	0.00e+00	0	41	0	0	52	4254
2026-01-17 08:27:07.51	26.57	20.57	-39.9	-41.7	19.8	0.00e+00	0	41	0	0	51	4399
2026-01-17 08:27:10.64	25.86	20.39	-40.0	-41.8	19.8	0.00e+00	0	41	0	0	51	4449
2026-01-17 08:27:13.49	25.21	20.23	-40.4	-42.3	19.4	0.00e+00	0	41	0	0	51	4709
2026-01-17 08:27:16.62	24.51	20.04	-40.1	-41.9	19.6	0.00e+00	0	41	0	0	51	4510
2026-01-17 08:27:19.70	23.83	19.86	-39.8	-41.6	19.9	0.00e+00	0	41	0	0	51	4344
2026-01-17 08:27:22.75	23.17	19.67	-39.9	-41.7	19.9	0.00e+00	0	41	0	0	51	4395
2026-01-17 08:27:25.87	22.49	19.48	-40.4	-42.2	19.5	0.00e+00	0	41	0	0	51	4662
2026-01-17 08:27:28.71	21.89	19.30	-40.4	-42.2	19.4	0.00e+00	0	41	0	0	51	4688
2026-01-17 08:27:31.84	21.23	19.11	-40.3	-42.1	19.4	0.00e+00	0	41	0	0	51	4634
2026-01-17 08:27:34.68	20.64	18.93	-40.3	-42.1	19.4	0.00e+00	0	41	0	0	51	4613
2026-01-17 08:27:38.01	19.96	18.71	-39.9	-41.6	19.9	0.00e+00	0	41	0	0	51	4359
2026-01-17 08:27:40.72	19.41	18.53	-40.0	-41.7	19.9	0.00e+00	0	41	0	0	51	4411
2026-01-17 08:27:43.98	18.76	18.32	-40.5	-42.3	19.3	0.00e+00	0	41	0	0	51	4747
2026-01-17 08:27:46.73	18.22	18.14	-40.6	-42.5	18.9	0.00e+00	0	41	0	0	52	4584
2026-01-17 08:27:50.06	17.58	17.91	-40.4	-42.3	19.0	0.00e+00	0	41	0	0	52	4459
2026-01-17 08:27:52.76	17.06	17.73	-40.3	-42.1	19.3	0.00e+00	0	41	0	0	52	4358
2026-01-17 08:27:56.22	16.40	17.50	-40.3	-42.1	19.4	0.00e+00	0	41	0	0	52	4346
2026-01-17 08:27:58.94	15.90	17.31	-40.0	-41.8	19.6	0.00e+00	0	41	0	0	52	4202
2026-01-17 08:28:02.44	15.26	17.07	-39.8	-41.5	20.0	0.00e+00	0	41	0	0	51	4334
2026-01-17 08:28:05.18	14.76	16.89	-40.1	-41.9	19.7	0.00e+00	0	41	0	0	51	4499
2026-01-17 08:28:08.54	14.16	16.65	-40.4	-42.3	19.3	0.00e+00	0	41	0	0	51	4743
2026-01-17 08:28:11.26	13.68	16.46	-40.2	-42.1	19.4	0.00e+00	0	41	0	0	51	4643
2026-01-17 08:28:14.52	13.12	16.24	-40.3	-42.2	19.3	0.00e+00	0	41	0	0	51	4662
2026-01-17 08:28:17.24	12.65	16.05	-40.5	-42.5	19.1	0.00e+00	0	41	0	0	51	4841
2026-01-17 08:28:20.54	12.09	15.82	-40.7	-42.6	18.9	0.00e+00	0	41	0	0	52	4644
2026-01-17 08:28:23.25	11.64	15.63	-40.6	-42.5	19.0	0.00e+00	0	41	0	0	52	4593
2026-01-17 08:28:26.52	11.11	15.40	-40.6	-42.5	19.0	0.00e+00	0	41	0	0	52	4591
2026-01-17 08:28:29.24	10.67	15.21	-40.7	-42.6	19.0	0.00e+00	0	41	0	0	52	4635
2026-01-17 08:28:32.57	10.14	14.97	-40.7	-42.6	18.9	0.00e+00	0	41	0	0	52	4649
2026-01-17 08:28:35.27	9.72	14.78	-40.6	-42.5	19.0	0.00e+00	0	41	0	0	52	4590
2026-01-17 08:28:38.76	9.18	14.54	-40.6	-42.6	19.0	0.00e+00	0	41	0	0	52	4604
2026-01-17 08:28:41.48	8.76	14.35	-40.8	-42.8	18.8	0.00e+00	0	41	0	0	52	4729
2026-01-17 08:28:44.75	8.27	14.12	-41.1	-43.2	18.4	0.00e+00	0	41	0	0	52	4929
2026-01-17 08:28:47.50	7.87	13.92	-41.0	-43.1	18.3	0.00e+00	0	41	0	0	53	4633
2026-01-17 08:28:50.77	7.39	13.69	-40.7	-42.8	18.7	0.00e+00	0	41	0	0	53	4452
2026-01-17 08:28:53.58	6.99	13.49	-40.7	-42.7	18.8	0.00e+00	0	41	0	0	53	4403
2026-01-17 08:28:56.70	6.54	13.27	-41.1	-43.2	18.4	0.00e+00	0	41	0	0	53	4680
2026-01-17 08:28:59.55	6.15	13.07	-41.5	-43.6	18.0	0.00e+00	0	41	0	0	53	4888
2026-01-17 08:29:02.67	5.72	12.86	-41.4	-43.4	18.1	0.00e+00	0	41	0	0	53	4787
2026-01-17 08:29:05.52	5.33	12.66	-41.2	-43.2	18.2	0.00e+00	0	41	0	0	53	4702
2026-01-17 08:29:08.64	4.92	12.44	-41.0	-43.1	18.4	0.00e+00	0	41	0	0	53	4618
2026-01-17 08:29:11.48	4.54	12.24	-41.4	-43.4	18.2	0.00e+00	0	41	0	0	53	4793
2026-01-17 08:29:14.61	4.14	12.02	-41.8	-43.8	17.8	0.00e+00	0	41	0	0	54	4755
2026-01-17 08:29:17.46	3.77	11.83	-41.8	-43.8	17.8	0.00e+00	0	41	0	0	54	4747
2026-01-17 08:29:20.81	3.35	11.59	-41.4	-43.5	18.0	0.00e+00	0	41	0	0	54	4582
2026-01-17 08:29:23.53	3.01	11.41	-41.2	-43.2	18.3	0.00e+00	0	41	0	0	54	4393
2026-01-17 08:29:26.80	2.61	11.18	-41.4	-43.3	18.2	0.00e+00	0	41	0	0	54	4483
2026-01-17 08:29:29.64	2.27	10.99	-41.4	-43.6	17.9	0.00e+00	0	41	0	0	54	4631
2026-01-17 08:29:32.77	1.90	10.77	-41.7	-44.0	17.6	0.00e+00	0	41	0	0	54	4851
2026-01-17 08:29:35.61	1.56	10.58	-41.7	-43.9	17.6	0.00e+00	0	41	0	0	54	4789
2026-01-17 08:29:38.74	1.20	10.37	-41.3	-43.3	18.0	0.00e+00	0	41	0	0	54	4489
2026-01-17 08:29:41.63	0.87	10.17	-41.1	-43.2	18.2	0.00e+00	0	41	0	0	54	4414
2026-01-17 08:29:44.90	0.51	9.95	-41.0	-43.1	18.4	0.00e+00	0	41	0	0	53	4614
2026-01-17 08:29:47.81	0.19	9.75	-41.5	-43.7	17.9	0.00e+00	0	41	0	0	53	4936
2026-01-17 08:29:51.79	359.75	9.49	-42.1	-44.4	17.2	0.00e+00	0	41	0	0	54	5090
2026-01-17 08:29:54.73	359.44	9.29	-42.3	-44.6	17.0	0.00e+00	0	41	0	0	55	4872
2026-01-17 08:29:58.10	359.08	9.07	-42.2	-44.3	17.1	0.00e+00	0	41	0	0	55	4739
2026-01-17 08:30:00.94	358.79	8.88	-49.3	-63.1	3.8	1.49e+00	0	41	104	0	69	18446
2026-01-17 08:30:04.06	358.47	8.67	-50.2	-63.6	3.8	1.49e+00	0	41	104	0	71	17441
2026-01-17 08:30:06.91	358.18	8.49	-50.3	-63.7	3.8	1.49e+00	0	41	104	0	71	17582
2026-01-17 08:30:10.04	357.87	8.28	-50.5	-63.7	3.8	1.49e+00	0	41	104	0	71	17681
2026-01-17 08:30:12.87	357.59	8.10	-50.6	-63.8	3.8	1.49e+00	0	41	104	0	72	16706
2026-01-17 08:30:15.99	357.29	7.89	-50.6	-63.8	3.8	1.49e+00	0	41	104	0	72	16772
2026-01-17 08:30:18.83	357.02	7.71	-50.4	-63.8	3.8	1.49e+00	0	41	104	0	72	16741
2026-01-17 08:30:21.95	356.72	7.51	-50.7	-63.8	3.8	1.49e+00	0	41	104	0	72	16764
2026-01-17 08:30:24.79	356.46	7.33	-50.7	-63.8	3.8	1.49e+00	0	41	104	0	72	16733
2026-01-17 08:30:27.91	356.17	7.13	-50.7	-63.8	3.8	1.49e+00	0	41	104	0	72	16785
2026-01-17 08:30:30.75	355.92	6.95	-50.4	-63.7	3.8	1.49e+00	0	41	104	0	72	16671
2026-01-17 08:30:33.87	355.64	6.75	-50.4	-63.7	3.8	1.49e+00	0	41	104	0	72	16681
2026-01-17 08:30:36.71	355.39	6.57	-50.4	-63.8	3.8	1.49e+00	0	41	104	0	72	16695
2026-01-17 08:30:39.83	355.12	6.37	-50.4	-63.7	3.8	1.49e+00	0	41	104	0	72	16646
2026-01-17 08:30:42.67	354.87	6.20	-50.4	-63.7	3.8	1.49e+00	0	41	104	0	72	16606
2026-01-17 08:30:45.79	354.61	6.00	-50.3	-63.7	3.8	1.49e+00	0	41	104	0	72	16592
2026-01-17 08:30:48.63	354.37	5.83	-50.3	-63.7	3.8	1.49e+00	0	41	104	0	72	16606
2026-01-17 08:30:51.75	354.12	5.63	-50.3	-63.7	3.8	1.49e+00	0	41	104	0	72	16593
2026-01-17 08:30:54.59	353.88	5.46	-50.3	-63.7	3.8	1.49e+00	0	41	104	0	72	16504
2026-01-17 08:30:57.71	353.63	5.27	-50.3	-63.7	3.8	1.49e+00	0	41	104	0	72	16517
2026-01-17 08:31:00.55	353.41	5.09	-50.3	-63.7	3.8	1.49e+00	0	41	104	0	72	16516

#Closed at: 2026-01-17 08:31:03
#Recorded file [0 MB]: D:/Data/31040_260117_112003.dat