passes_logs/2026/01/17/T1/T1__20260117_020244_AQUA_rec.log

#Pass ID: 20260117_020244_AQUA
#Satellite: AQUA
#Configuration: AQUA
#almurnet v.1.7.20251203
#Start time: 2026-01-17 02:02:44

#Version: 2.0.20230620
#Station: T1
#Location: 37.570604 lon 55.790049 lat
#TLE: 1 27424U 02022A   26016.26443506  .00000711  00000+0  15228-3 0  9999
#TLE: 2 27424  98.4083 342.7130 0002022  76.7284  27.4473 14.61823291261073

#Time	Az	El	Level	Level2	SNR	BER	BlckErr	Temp	State	Recorded	gain1	gain2
2026-01-17 02:02:44.01	10.15	4.97	-48.3	-71.9	3.7	7.46e-01	0	36	0	0	68	53627
2026-01-17 02:02:46.99	10.03	5.18	-48.0	-71.4	3.8	7.48e-01	0	37	104	0	66	56865
2026-01-17 02:02:49.97	9.91	5.40	-48.0	-71.4	3.8	7.43e-01	0	37	104	0	66	56820
2026-01-17 02:02:52.95	9.78	5.62	-47.9	-71.2	3.8	7.45e-01	0	37	104	0	66	55514
2026-01-17 02:02:55.93	9.65	5.85	-48.0	-71.0	3.8	7.43e-01	0	37	104	0	66	54468
2026-01-17 02:02:58.91	9.52	6.07	-47.9	-70.9	3.8	7.48e-01	0	37	104	0	66	53717
2026-01-17 02:03:01.89	9.39	6.30	-48.0	-70.9	3.8	7.49e-01	0	37	104	0	66	53572
2026-01-17 02:03:04.87	9.25	6.52	-47.9	-70.8	3.8	7.45e-01	0	38	104	0	66	53069
2026-01-17 02:03:07.85	9.11	6.75	-47.9	-69.4	3.9	7.43e-01	0	38	104	0	66	45275
2026-01-17 02:03:10.83	8.97	6.99	-47.9	-66.3	4.8	7.15e-01	0	38	104	0	66	31564
2026-01-17 02:03:13.81	8.83	7.22	-47.9	-65.6	5.2	7.09e-01	0	38	0	0	66	29185
2026-01-17 02:03:16.79	8.68	7.46	-47.9	-67.6	3.9	7.37e-01	0	38	104	0	66	36713
2026-01-17 02:03:19.77	8.54	7.70	-47.9	-70.8	3.8	7.46e-01	0	38	104	0	66	53128
2026-01-17 02:03:22.75	8.38	7.94	-47.9	-67.9	4.0	7.39e-01	0	38	104	0	66	37847
2026-01-17 02:03:25.73	8.23	8.18	-47.5	-59.1	11.1	6.14e-01	0	38	0	3670016	66	13823
2026-01-17 02:03:28.71	8.07	8.43	-46.5	-53.3	16.9	6.04e-01	0	38	0	8912896	64	7972
2026-01-17 02:03:31.69	7.91	8.68	-45.5	-50.7	19.7	6.05e-01	0	38	0	14680064	62	6613
2026-01-17 02:03:34.67	7.75	8.93	-45.3	-50.4	20.1	6.04e-01	0	39	0	20447232	62	6365
2026-01-17 02:03:37.65	7.58	9.19	-47.1	-55.8	15.0	6.02e-01	0	39	0	25690112	64	10612
2026-01-17 02:03:41.00	7.39	9.47	-47.4	-55.9	14.8	6.06e-01	0	39	0	31981568	65	10151
2026-01-17 02:03:43.91	7.21	9.73	-44.1	-47.2	23.1	6.01e-01	0	39	0	37748736	59	5253
2026-01-17 02:03:47.19	7.02	10.02	-44.1	-47.2	23.2	6.03e-01	0	39	0	44040192	59	5222
2026-01-17 02:03:49.89	6.85	10.26	-43.9	-47.0	23.4	6.04e-01	0	39	0	48758784	59	5129
2026-01-17 02:03:53.16	6.65	10.55	-43.9	-47.0	23.4	6.02e-01	0	39	0	55050240	59	5103
2026-01-17 02:03:55.92	6.47	10.81	-44.0	-47.0	23.4	6.05e-01	0	39	0	60293120	59	5157
2026-01-17 02:03:59.14	6.26	11.10	-43.7	-46.8	23.6	6.05e-01	0	39	0	66060288	59	4985
2026-01-17 02:04:02.21	6.06	11.39	-43.7	-46.7	23.6	6.05e-01	0	39	0	71827456	59	4953
2026-01-17 02:04:05.05	5.86	11.66	-43.5	-46.5	23.9	6.05e-01	0	39	0	77070336	59	4839
2026-01-17 02:04:08.18	5.64	11.96	-43.3	-46.3	24.1	6.06e-01	0	39	0	83361792	58	5006
2026-01-17 02:04:11.08	5.44	12.24	-43.2	-46.2	24.2	6.04e-01	0	39	0	88604672	58	4966
2026-01-17 02:04:14.38	5.20	12.56	-43.2	-46.1	24.3	6.04e-01	0	39	0	94896128	58	4920
2026-01-17 02:04:17.22	4.98	12.84	-43.2	-46.1	24.2	6.05e-01	0	39	0	100139008	58	4892
2026-01-17 02:04:20.47	4.74	13.17	-43.3	-46.2	24.2	6.04e-01	0	39	0	106430464	58	4982
2026-01-17 02:04:23.31	4.51	13.45	-43.3	-46.1	24.3	6.04e-01	0	39	0	111673344	58	4886
2026-01-17 02:04:26.44	4.26	13.78	-43.3	-46.1	24.3	6.03e-01	0	39	0	117440512	58	4895
2026-01-17 02:04:29.29	4.03	14.07	-43.4	-46.1	24.3	6.05e-01	0	39	0	122683392	58	4896
2026-01-17 02:04:32.42	3.77	14.40	-43.3	-46.0	24.4	6.04e-01	0	39	0	128450560	58	4858
2026-01-17 02:04:35.26	3.52	14.71	-43.5	-46.1	24.4	6.05e-01	0	39	0	133693440	58	4873
2026-01-17 02:04:38.52	3.23	15.06	-43.3	-45.9	24.4	6.04e-01	0	39	0	139984896	58	4783
2026-01-17 02:04:41.36	2.98	15.37	-43.3	-45.7	24.6	6.03e-01	0	39	0	145227776	58	4704
2026-01-17 02:04:44.48	2.69	15.72	-43.2	-45.7	24.6	6.04e-01	0	39	0	151519232	58	4697
2026-01-17 02:04:47.33	2.42	16.04	-43.3	-45.9	24.6	6.04e-01	0	39	0	156762112	58	4761
2026-01-17 02:04:50.46	2.11	16.39	-43.2	-46.0	24.5	6.02e-01	0	39	0	162529280	58	4822
2026-01-17 02:04:53.30	1.83	16.72	-43.0	-45.8	24.5	6.02e-01	0	39	0	167772160	58	4746
2026-01-17 02:04:56.53	1.50	17.10	-43.1	-45.8	24.7	6.03e-01	0	39	0	174063616	58	4743
2026-01-17 02:04:59.38	1.20	17.44	-43.0	-45.7	24.8	6.05e-01	0	39	0	179306496	58	4687
2026-01-17 02:05:02.62	0.85	17.83	-43.0	-45.6	24.9	6.03e-01	0	39	0	185073664	58	4612
2026-01-17 02:05:05.46	0.54	18.18	-43.1	-45.6	24.9	6.03e-01	0	39	0	190316544	58	4600
2026-01-17 02:05:08.82	0.15	18.59	-43.2	-45.6	24.8	6.05e-01	0	39	0	197132288	58	4620
2026-01-17 02:05:11.59	359.83	18.94	-43.3	-45.8	24.7	6.05e-01	0	39	0	201850880	58	4725
2026-01-17 02:05:15.22	359.39	19.40	-43.3	-45.8	24.6	6.05e-01	0	39	0	208666624	58	4753
2026-01-17 02:05:18.07	359.04	19.77	-43.5	-46.0	24.5	6.04e-01	0	39	0	214433792	58	4862
2026-01-17 02:05:22.07	358.52	20.30	-43.4	-45.9	24.6	6.02e-01	0	39	0	221773824	58	4801
2026-01-17 02:05:24.96	358.14	20.69	-43.3	-45.8	24.7	6.04e-01	0	40	0	227016704	58	4738
2026-01-17 02:05:28.21	357.70	21.13	-43.4	-45.9	24.7	6.04e-01	0	40	0	233308160	58	4764
2026-01-17 02:05:31.25	357.27	21.54	-43.6	-46.1	24.5	6.04e-01	0	40	0	239075328	58	4881
2026-01-17 02:05:34.48	356.81	21.99	-43.5	-46.1	24.4	6.03e-01	0	40	0	244842496	58	4896
2026-01-17 02:05:37.32	356.38	22.40	-43.6	-46.1	24.5	6.02e-01	0	40	0	250609664	58	4871
2026-01-17 02:05:40.46	355.90	22.85	-43.6	-46.1	24.5	6.05e-01	0	39	0	256376832	58	4901
2026-01-17 02:05:43.29	355.45	23.26	-43.4	-45.9	24.6	6.04e-01	0	39	0	261619712	58	4813
2026-01-17 02:05:46.42	354.94	23.72	-43.2	-45.9	24.7	6.07e-01	0	40	0	267386880	58	4789
2026-01-17 02:05:49.28	354.46	24.15	-43.4	-46.0	24.6	6.04e-01	0	40	0	272629760	58	4853
2026-01-17 02:05:52.75	353.86	24.68	-43.6	-46.1	24.5	6.04e-01	0	40	0	279445504	58	4887
2026-01-17 02:05:55.47	353.38	25.09	-43.4	-45.8	24.8	6.05e-01	0	39	0	284164096	58	4749
2026-01-17 02:05:58.75	352.77	25.60	-43.6	-46.0	24.6	6.02e-01	0	40	0	290455552	58	4854
2026-01-17 02:06:01.48	352.25	26.04	-43.4	-45.9	24.7	6.02e-01	0	40	0	295698432	58	4793
2026-01-17 02:06:04.76	351.60	26.56	-43.3	-45.7	24.9	6.03e-01	0	40	0	301989888	58	4688
2026-01-17 02:06:07.46	351.06	27.00	-43.3	-45.7	24.9	6.04e-01	0	39	0	306708480	58	4692
2026-01-17 02:06:10.75	350.37	27.54	-43.2	-45.6	24.9	6.05e-01	0	40	0	312999936	58	4633
2026-01-17 02:06:13.45	349.78	27.98	-43.1	-45.6	25.1	6.02e-01	0	40	0	318242816	58	4604
2026-01-17 02:06:16.72	349.05	28.53	-43.2	-45.6	25.0	6.04e-01	0	40	0	324009984	58	4605
2026-01-17 02:06:19.42	348.42	28.99	-43.1	-45.5	25.1	6.06e-01	0	40	0	329252864	58	4566
2026-01-17 02:06:22.70	347.64	29.55	-42.8	-45.3	25.3	6.05e-01	0	40	0	335544320	57	4712
2026-01-17 02:06:25.40	346.97	30.02	-43.0	-45.4	25.2	6.02e-01	0	40	0	340262912	57	4784
2026-01-17 02:06:28.74	346.12	30.60	-42.7	-45.0	25.5	6.03e-01	0	40	0	346554368	57	4565
2026-01-17 02:06:31.44	345.40	31.07	-42.6	-45.0	25.5	6.04e-01	0	40	0	351797248	57	4579
2026-01-17 02:06:34.74	344.50	31.66	-43.0	-45.4	25.1	6.02e-01	0	40	0	358088704	57	4799
2026-01-17 02:06:37.51	343.71	32.15	-42.8	-45.2	25.3	6.03e-01	0	40	0	363331584	57	4687
2026-01-17 02:06:40.78	342.75	32.74	-42.7	-45.3	25.2	6.03e-01	0	40	0	369098752	57	4758
2026-01-17 02:06:43.49	341.93	33.23	-43.3	-45.7	24.9	6.04e-01	0	40	0	374341632	57	4976
2026-01-17 02:06:46.78	340.89	33.82	-43.3	-45.6	25.0	6.04e-01	0	40	0	380633088	57	4924
2026-01-17 02:06:49.50	340.00	34.31	-43.6	-46.0	24.6	6.03e-01	0	40	0	385875968	57	5134
2026-01-17 02:06:52.78	338.90	34.91	-43.6	-46.2	24.5	6.03e-01	0	40	0	391643136	57	5277
2026-01-17 02:06:55.57	337.92	35.41	-43.7	-46.3	24.4	6.04e-01	0	40	0	396886016	57	5320
2026-01-17 02:06:59.22	336.60	36.08	-44.4	-47.1	23.7	6.04e-01	0	40	0	403701760	59	5181
2026-01-17 02:07:02.06	335.53	36.59	-44.4	-47.0	23.8	6.05e-01	0	40	0	408944640	59	5111
2026-01-17 02:07:06.02	333.98	37.29	-44.8	-47.5	23.2	6.05e-01	0	40	0	416808960	60	5151
2026-01-17 02:07:08.87	332.83	37.80	-44.1	-46.9	23.8	6.03e-01	0	40	0	422051840	60	4798
2026-01-17 02:07:12.84	331.15	38.49	-44.8	-47.5	23.2	6.03e-01	0	40	0	429391872	60	5112
2026-01-17 02:07:15.68	329.91	38.98	-44.7	-47.4	23.3	6.04e-01	0	40	0	434634752	60	5051
2026-01-17 02:07:20.16	327.87	39.73	-44.3	-47.5	23.3	6.02e-01	0	40	0	443023360	60	5113
2026-01-17 02:07:23.09	326.48	40.21	-44.6	-47.4	23.3	6.03e-01	0	40	0	448790528	60	5083
2026-01-17 02:07:26.08	325.02	40.68	-44.5	-47.1	23.5	6.04e-01	0	40	0	454033408	60	4915
2026-01-17 02:07:29.07	323.52	41.14	-44.7	-47.4	23.3	6.03e-01	0	40	0	459800576	60	5061
2026-01-17 02:07:32.05	321.97	41.58	-44.5	-47.1	23.6	6.02e-01	0	40	0	465567744	60	4915
2026-01-17 02:07:35.04	320.38	42.01	-44.4	-47.0	23.8	6.03e-01	0	40	0	470810624	60	4850
2026-01-17 02:07:38.02	318.76	42.41	-44.0	-46.6	24.1	6.03e-01	0	40	0	476577792	60	4630
2026-01-17 02:07:41.01	317.08	42.79	-44.1	-46.9	23.8	6.03e-01	0	40	0	482344960	60	4779
2026-01-17 02:07:44.00	315.37	43.15	-44.5	-47.2	23.6	6.04e-01	0	40	0	487587840	59	5257
2026-01-17 02:07:46.98	313.62	43.48	-44.3	-46.9	23.8	6.02e-01	0	40	0	493355008	59	5067
2026-01-17 02:07:49.97	311.84	43.79	-44.1	-46.6	23.7	6.04e-01	0	40	0	499122176	59	4919
2026-01-17 02:07:52.95	310.02	44.06	-43.9	-46.4	24.3	6.03e-01	0	40	0	504365056	59	4802
2026-01-17 02:07:55.94	308.17	44.31	-44.0	-46.6	24.2	6.02e-01	0	40	0	510132224	59	4878
2026-01-17 02:07:58.95	306.28	44.52	-43.9	-46.4	24.4	6.03e-01	0	40	0	515899392	59	4772
2026-01-17 02:08:01.93	304.38	44.70	-43.6	-46.0	24.6	6.05e-01	0	40	0	521666560	59	4546
2026-01-17 02:08:04.92	302.46	44.85	-44.1	-46.6	24.2	6.04e-01	0	40	0	526909440	59	4881
2026-01-17 02:08:07.91	300.52	44.96	-43.3	-45.7	24.8	6.03e-01	0	40	0	532676608	58	4704
2026-01-17 02:08:10.95	298.53	45.04	-43.8	-46.2	24.3	6.02e-01	0	40	0	538443776	59	4676
2026-01-17 02:08:13.91	296.59	45.07	-45.0	-48.0	22.9	6.06e-01	0	40	0	543686656	60	5415
2026-01-17 02:08:16.90	294.63	45.07	-43.5	-45.8	24.8	6.03e-01	0	40	0	549453824	58	4734
2026-01-17 02:08:19.91	292.66	45.04	-44.2	-46.7	24.0	6.03e-01	0	40	0	555220992	59	4958
2026-01-17 02:08:23.19	290.51	44.96	-44.4	-47.0	23.8	6.05e-01	0	40	0	561512448	59	5159
2026-01-17 02:08:25.91	288.75	44.86	-44.3	-46.8	23.8	6.02e-01	0	40	0	566231040	59	5037
2026-01-17 02:08:29.19	286.64	44.70	-43.9	-46.3	24.4	6.06e-01	0	40	0	572522496	58	4992
2026-01-17 02:08:31.89	284.92	44.53	-44.1	-46.5	24.1	6.04e-01	0	40	0	577765376	58	5125
2026-01-17 02:08:35.17	282.85	44.30	-44.1	-46.6	23.7	6.03e-01	0	40	0	584056832	60	4625
2026-01-17 02:08:37.90	281.16	44.07	-44.8	-47.5	23.3	6.05e-01	0	40	0	588775424	60	5128
2026-01-17 02:08:41.17	279.16	43.77	-44.3	-47.0	23.5	6.03e-01	0	40	0	595066880	60	4817
2026-01-17 02:08:44.17	277.37	43.46	-44.5	-47.2	23.6	6.04e-01	0	40	0	600834048	60	4934
2026-01-17 02:08:47.49	275.42	43.09	-44.3	-46.9	23.8	6.03e-01	0	40	0	607125504	59	5063
2026-01-17 02:08:50.28	273.83	42.75	-44.0	-46.4	23.9	6.04e-01	0	40	0	612368384	59	4814
2026-01-17 02:08:53.41	272.08	42.35	-44.6	-47.2	23.7	6.03e-01	0	40	0	618135552	59	5243
2026-01-17 02:08:56.26	270.52	41.96	-44.0	-46.5	24.0	6.03e-01	0	40	0	623378432	60	4546
2026-01-17 02:08:59.52	268.79	41.49	-43.9	-46.3	24.4	6.03e-01	0	40	0	629669888	59	4711
2026-01-17 02:09:02.24	267.39	41.08	-44.2	-46.7	24.1	6.04e-01	0	40	0	634388480	59	4956
2026-01-17 02:09:05.51	265.75	40.58	-44.2	-46.7	24.1	6.04e-01	0	40	0	640679936	59	4951
2026-01-17 02:09:08.21	264.43	40.15	-44.6	-47.2	23.5	6.05e-01	0	40	0	645922816	60	4952
2026-01-17 02:09:11.50	262.88	39.61	-44.4	-47.0	23.6	6.03e-01	0	40	0	651689984	60	4868
2026-01-17 02:09:14.26	261.62	39.14	-44.5	-47.1	23.6	6.06e-01	0	40	0	656932864	60	4899
2026-01-17 02:09:17.67	260.11	38.56	-44.5	-47.1	23.6	6.04e-01	0	40	0	663748608	60	4908
2026-01-17 02:09:20.44	258.92	38.07	-44.8	-47.4	23.2	6.05e-01	0	40	0	668467200	61	4807
2026-01-17 02:09:23.74	257.55	37.49	-44.4	-47.0	23.6	6.04e-01	0	41	0	674758656	60	4833
2026-01-17 02:09:26.47	256.46	37.00	-44.7	-47.4	23.2	6.04e-01	0	40	0	680001536	60	5070
2026-01-17 02:09:29.75	255.19	36.41	-44.6	-47.2	23.5	6.02e-01	0	40	0	686292992	60	4954
2026-01-17 02:09:32.53	254.15	35.91	-45.1	-47.8	23.0	6.03e-01	0	40	0	691535872	60	5291
2026-01-17 02:09:35.86	252.95	35.30	-44.8	-47.5	23.2	6.02e-01	0	40	0	697303040	60	5119
2026-01-17 02:09:38.69	251.96	34.79	-44.4	-46.9	23.7	6.04e-01	0	40	0	703070208	60	4810
2026-01-17 02:09:42.10	250.81	34.17	-44.5	-47.1	23.6	6.04e-01	0	41	0	709361664	60	4908
2026-01-17 02:09:45.31	249.77	33.58	-44.0	-46.4	24.2	6.02e-01	0	40	0	715128832	59	4814
2026-01-17 02:09:48.23	248.86	33.05	-44.2	-46.7	24.0	6.04e-01	0	40	0	720896000	59	4956
2026-01-17 02:09:51.48	247.88	32.46	-44.3	-46.8	24.0	6.04e-01	0	41	0	726663168	59	4998
2026-01-17 02:09:54.27	247.07	31.96	-44.0	-46.4	24.3	6.02e-01	0	41	0	731906048	59	4790
2026-01-17 02:09:57.78	246.08	31.33	-44.0	-46.4	23.6	6.04e-01	0	41	0	738721792	59	4794
2026-01-17 02:10:00.54	245.33	30.85	-44.1	-46.5	24.1	6.04e-01	0	41	0	743964672	59	4849
2026-01-17 02:10:03.84	244.47	30.26	-44.4	-47.0	23.8	6.02e-01	0	41	0	750256128	59	5111
2026-01-17 02:10:06.54	243.79	29.79	-43.7	-46.1	24.5	6.03e-01	0	40	0	754974720	59	4605
2026-01-17 02:10:09.82	242.98	29.23	-44.2	-46.7	24.0	6.03e-01	0	40	0	761266176	59	4975
2026-01-17 02:10:12.52	242.34	28.76	-44.0	-46.4	24.3	6.06e-01	0	41	0	766509056	59	4802
2026-01-17 02:10:16.08	241.53	28.16	-43.8	-46.2	24.4	6.04e-01	0	41	0	772800512	59	4698
2026-01-17 02:10:18.79	240.93	27.71	-44.4	-47.0	23.7	6.04e-01	0	41	0	778043392	59	5126
2026-01-17 02:10:22.07	240.23	27.17	-43.9	-46.5	24.2	6.03e-01	0	41	0	784334848	59	4818
2026-01-17 02:10:24.78	239.67	26.72	-44.2	-46.7	24.0	6.06e-01	0	41	0	789577728	59	4978
2026-01-17 02:10:28.07	239.01	26.19	-44.2	-46.7	24.0	6.06e-01	0	41	0	795344896	59	4947
2026-01-17 02:10:31.11	238.42	25.71	-44.4	-47.0	23.7	6.04e-01	0	41	0	801112064	59	5115
2026-01-17 02:10:34.63	237.76	25.15	-44.3	-46.9	23.8	6.03e-01	0	41	0	807927808	59	5068
2026-01-17 02:10:37.33	237.27	24.74	-44.2	-46.8	23.9	6.05e-01	0	41	0	812646400	59	5010
2026-01-17 02:10:40.60	236.69	24.23	-44.3	-46.9	23.9	6.05e-01	0	40	0	818937856	59	5058
2026-01-17 02:10:43.40	236.21	23.81	-44.4	-47.0	23.8	6.04e-01	0	41	0	824180736	59	5112
2026-01-17 02:10:46.53	235.69	23.35	-44.1	-46.6	24.0	6.02e-01	0	41	0	829947904	59	4914
2026-01-17 02:10:49.37	235.24	22.93	-44.3	-46.9	23.8	6.05e-01	0	41	0	835190784	59	5095
2026-01-17 02:10:52.61	234.73	22.46	-44.5	-47.1	23.6	6.05e-01	0	41	0	841482240	59	5180
2026-01-17 02:10:55.45	234.30	22.05	-44.2	-46.7	24.0	6.04e-01	0	41	0	846725120	59	4965
2026-01-17 02:10:58.58	233.84	21.61	-44.3	-46.9	23.8	6.04e-01	0	41	0	852492288	59	5065
2026-01-17 02:11:01.42	233.44	21.22	-44.2	-46.8	23.9	6.07e-01	0	41	0	858259456	59	4998
2026-01-17 02:11:04.55	233.00	20.79	-44.4	-46.9	23.7	6.04e-01	0	41	0	864026624	59	5080
2026-01-17 02:11:07.39	232.62	20.40	-44.3	-46.8	23.9	6.05e-01	0	41	0	869269504	59	4987
2026-01-17 02:11:10.85	232.17	19.94	-44.3	-46.8	23.8	6.04e-01	0	41	0	875560960	59	5028
2026-01-17 02:11:13.57	231.82	19.59	-44.1	-46.5	24.1	6.04e-01	0	41	0	880803840	59	4869
2026-01-17 02:11:16.84	231.41	19.16	-44.1	-46.5	24.1	6.04e-01	0	40	0	887095296	59	4859
2026-01-17 02:11:19.57	231.08	18.82	-44.2	-46.7	23.9	6.04e-01	0	41	0	891813888	59	4968
2026-01-17 02:11:22.87	230.70	18.40	-44.1	-46.7	23.9	6.05e-01	0	41	0	898105344	59	4929
2026-01-17 02:11:25.73	230.37	18.05	-44.1	-46.6	24.0	6.04e-01	0	41	0	903348224	59	4917
2026-01-17 02:11:28.85	230.02	17.66	-44.4	-47.0	23.6	6.05e-01	0	41	0	909639680	59	5152
2026-01-17 02:11:31.70	229.71	17.32	-44.5	-47.1	23.5	6.04e-01	0	41	0	914882560	59	5180
2026-01-17 02:11:34.90	229.38	16.94	-44.2	-46.7	23.7	6.04e-01	0	41	0	920649728	59	4938
2026-01-17 02:11:38.03	229.05	16.57	-44.1	-46.6	23.9	6.02e-01	0	41	0	926416896	59	4911
2026-01-17 02:11:40.87	228.77	16.24	-44.2	-46.7	23.9	6.04e-01	0	41	0	932184064	59	4972
2026-01-17 02:11:43.99	228.46	15.89	-44.3	-46.9	23.6	6.04e-01	0	41	0	937951232	59	5097
2026-01-17 02:11:46.83	228.19	15.57	-44.3	-46.9	23.7	6.05e-01	0	41	0	943194112	59	5051
2026-01-17 02:11:49.96	227.90	15.22	-44.2	-46.7	23.8	6.04e-01	0	41	0	948961280	59	4962
2026-01-17 02:11:52.81	227.64	14.90	-44.2	-46.8	23.8	6.04e-01	0	41	0	954204160	59	4999
2026-01-17 02:11:55.95	227.36	14.56	-44.4	-47.0	23.5	6.04e-01	0	41	0	959971328	59	5148
2026-01-17 02:11:58.79	227.12	14.26	-44.5	-47.1	23.3	6.03e-01	0	41	0	965738496	60	4924
2026-01-17 02:12:02.09	226.84	13.91	-44.4	-47.0	23.4	6.05e-01	0	41	0	971505664	60	4846
2026-01-17 02:12:04.79	226.61	13.63	-44.2	-46.7	23.6	6.03e-01	0	41	0	976748544	60	4697
2026-01-17 02:12:08.01	226.35	13.30	-44.2	-46.7	23.7	6.05e-01	0	41	0	983040000	59	4978
2026-01-17 02:12:11.01	226.12	12.99	-44.3	-46.9	23.6	6.05e-01	0	41	0	988282880	59	5065
2026-01-17 02:12:13.99	225.89	12.69	-44.4	-47.1	23.4	6.04e-01	0	41	0	994050048	59	5166
2026-01-17 02:12:16.98	225.66	12.40	-44.5	-47.2	23.3	6.04e-01	0	41	0	999817216	59	5232
2026-01-17 02:12:19.96	225.44	12.10	-44.6	-47.3	23.1	6.03e-01	0	41	0	1005060096	59	5306
2026-01-17 02:12:23.15	225.21	11.80	-44.3	-46.9	23.3	6.01e-01	0	41	0	1011351552	60	4807
2026-01-17 02:12:26.03	225.01	11.52	-44.2	-46.8	23.5	6.01e-01	0	41	0	1016594432	60	4754
2026-01-17 02:12:29.30	224.78	11.21	-44.4	-47.0	23.2	6.04e-01	0	41	0	1022885888	60	4869
2026-01-17 02:12:32.05	224.60	10.95	-44.5	-47.2	23.1	6.05e-01	0	41	0	1028128768	60	4943
2026-01-17 02:12:35.38	224.38	10.65	-44.6	-47.4	22.9	6.03e-01	0	41	0	1034420224	60	5065
2026-01-17 02:12:38.35	224.19	10.37	-44.5	-47.3	23.0	6.04e-01	0	41	0	1039663104	60	5028
2026-01-17 02:12:41.64	223.98	10.08	-44.5	-47.4	22.9	6.03e-01	0	41	0	1045954560	60	5055
2026-01-17 02:12:44.34	223.81	9.84	-44.6	-47.5	22.7	6.05e-01	0	41	0	1051197440	60	5154
2026-01-17 02:12:47.62	223.61	9.55	-44.7	-47.6	22.6	6.02e-01	0	41	0	1056964608	60	5215
2026-01-17 02:12:50.32	223.45	9.31	-44.9	-47.9	22.3	6.07e-01	0	41	0	1062207488	60	5368
2026-01-17 02:12:53.66	223.26	9.02	-47.5	-52.0	19.3	6.05e-01	0	41	0	1068498944	65	6451
2026-01-17 02:12:56.47	223.10	8.78	-51.9	-72.1	3.8	7.46e-01	0	41	104	1068498944	74	38727
2026-01-17 02:12:59.75	222.91	8.51	-51.7	-72.3	3.8	7.44e-01	0	41	104	1068498944	74	39682
2026-01-17 02:13:02.46	222.76	8.28	-52.1	-72.3	3.8	7.47e-01	0	41	104	1068498944	75	37711
2026-01-17 02:13:05.74	222.59	8.01	-52.4	-72.4	3.8	7.45e-01	0	41	104	1068498944	75	37898
2026-01-17 02:13:08.44	222.45	7.79	-52.1	-72.3	3.8	7.44e-01	0	41	104	1068498944	75	37804
2026-01-17 02:13:11.71	222.28	7.52	-51.9	-72.3	3.8	7.44e-01	0	41	104	1068498944	75	37800
2026-01-17 02:13:14.40	222.14	7.30	-51.4	-72.3	3.7	7.42e-01	0	41	104	1068498944	74	39877
2026-01-17 02:13:17.67	221.98	7.04	-51.4	-72.3	3.8	7.50e-01	0	41	104	1068498944	74	39768
2026-01-17 02:13:20.38	221.84	6.83	-51.4	-72.3	3.8	7.45e-01	0	41	104	1068498944	74	39742
2026-01-17 02:13:23.64	221.69	6.57	-51.4	-72.3	3.8	7.42e-01	0	41	104	1068498944	74	39726
2026-01-17 02:13:26.36	221.56	6.36	-51.4	-72.3	3.8	7.45e-01	0	41	104	1068498944	74	39679
2026-01-17 02:13:29.62	221.41	6.11	-51.4	-72.3	3.8	7.47e-01	0	41	104	1068498944	74	39605
2026-01-17 02:13:32.33	221.28	5.91	-51.3	-72.3	3.8	7.44e-01	0	41	104	1068498944	74	39632
2026-01-17 02:13:35.59	221.14	5.66	-51.3	-72.3	3.8	7.45e-01	0	41	104	1068498944	74	39667
2026-01-17 02:13:38.29	221.02	5.46	-51.3	-72.3	3.8	7.44e-01	0	41	104	1068498944	74	39612
2026-01-17 02:13:41.57	220.88	5.22	-51.4	-72.3	3.8	7.45e-01	0	41	104	1068498944	74	39597
2026-01-17 02:13:44.30	220.76	5.02	-51.3	-72.3	3.8	7.43e-01	0	41	104	1068498944	74	39631

#Closed at: 2026-01-17 02:13:46
#Recorded file [1068 MB]: D:/Data/31040_260117_050244.dat