passes_logs/2026/01/17/T1/T1__20260117_102830_SUOMI_NPP_rec.log

#Pass ID: 20260117_102830_SUOMI NPP
#Satellite: SUOMI NPP
#Configuration: NPP
#almurnet v.1.7.20251203
#Start time: 2026-01-17 10:28:29

#Version: 2.0.20230620
#Station: T1
#Location: 37.570604 lon 55.790049 lat
#TLE: 1 37849U 11061A   26016.23176763  .00000061  00000+0  49926-4 0  9990
#TLE: 2 37849  98.7812 318.2698 0002434  61.5135 298.6286 14.19525545736883

#Time	Az	El	Level	Level2	SNR	BER	BlckErr	Temp	State	Recorded	gain1	gain2
2026-01-17 10:28:29.85	175.14	4.96	-50.4	-65.9	3.8	1.49e+00	0	40	0	0	72	21468
2026-01-17 10:28:33.82	175.26	5.24	-48.1	-65.4	3.8	1.49e+00	0	41	104	0	68	25453
2026-01-17 10:28:37.79	175.37	5.53	-48.1	-65.3	3.8	1.49e+00	0	41	104	0	68	25121
2026-01-17 10:28:41.76	175.48	5.81	-48.0	-65.2	3.8	1.49e+00	0	41	104	0	68	24877
2026-01-17 10:28:45.73	175.60	6.10	-48.0	-65.2	3.8	1.49e+00	0	41	104	0	68	24807
2026-01-17 10:28:49.71	175.72	6.40	-48.0	-65.1	3.8	1.49e+00	0	41	104	0	68	24433
2026-01-17 10:28:53.68	175.84	6.70	-48.0	-64.4	3.8	1.49e+00	0	41	104	0	68	22658
2026-01-17 10:28:57.65	175.97	7.00	-47.9	-63.5	3.8	1.49e+00	0	41	104	0	67	21634
2026-01-17 10:29:01.63	176.09	7.30	-47.7	-60.5	4.7	1.23e+00	0	42	0	1048576	67	15272
2026-01-17 10:29:05.60	176.22	7.61	-46.9	-54.8	9.2	3.72e-02	0	42	0	8388608	65	8873
2026-01-17 10:29:09.58	176.35	7.92	-45.8	-51.1	13.1	8.01e-05	0	42	0	15728640	63	6526
2026-01-17 10:29:13.55	176.49	8.24	-45.5	-50.4	13.8	2.20e-06	0	42	0	23068672	62	6387
2026-01-17 10:29:17.52	176.62	8.55	-46.3	-52.3	11.8	2.63e-04	0	42	0	30408704	63	7543
2026-01-17 10:29:21.49	176.76	8.88	-47.4	-57.3	6.8	1.34e-01	0	42	0	37748736	65	11888
2026-01-17 10:29:25.47	176.90	9.21	-48.3	-60.4	4.6	1.34e+00	0	42	0	45088768	67	15059
2026-01-17 10:29:29.45	177.05	9.54	-44.9	-48.2	16.0	0.00e+00	0	42	0	50331648	61	5229
2026-01-17 10:29:33.43	177.20	9.87	-44.1	-47.2	16.9	0.00e+00	0	42	0	57671680	59	5241
2026-01-17 10:29:37.48	177.35	10.22	-43.9	-47.0	17.1	0.00e+00	0	42	0	65011712	59	5139
2026-01-17 10:29:41.46	177.51	10.57	-44.0	-47.1	16.9	0.00e+00	0	42	0	72351744	59	5215
2026-01-17 10:29:45.43	177.66	10.92	-44.0	-46.9	17.2	0.00e+00	0	42	0	79691776	59	5091
2026-01-17 10:29:49.41	177.83	11.27	-43.7	-46.3	17.7	0.00e+00	0	42	0	87031808	59	4752
2026-01-17 10:29:53.39	177.99	11.63	-43.7	-46.2	17.8	0.00e+00	0	42	0	94371840	59	4689
2026-01-17 10:29:57.40	178.16	12.00	-43.6	-46.1	18.0	0.00e+00	0	42	0	102760448	59	4609
2026-01-17 10:30:01.41	178.34	12.37	-43.5	-46.0	18.0	0.00e+00	0	43	0	110100480	58	4860
2026-01-17 10:30:05.39	178.52	12.75	-43.3	-45.7	18.3	0.00e+00	0	43	0	117440512	58	4699
2026-01-17 10:30:09.37	178.70	13.13	-43.3	-45.8	18.3	0.00e+00	0	43	0	124780544	58	4743
2026-01-17 10:30:13.32	178.88	13.52	-43.2	-45.7	18.4	0.00e+00	0	43	0	132120576	58	4655
2026-01-17 10:30:17.30	179.07	13.91	-43.3	-45.8	18.3	0.00e+00	0	42	0	139460608	58	4734
2026-01-17 10:30:21.27	179.27	14.31	-43.4	-45.9	18.3	0.00e+00	0	42	0	146800640	58	4765
2026-01-17 10:30:25.25	179.47	14.72	-43.5	-46.1	18.1	0.00e+00	0	43	0	155189248	58	4876
2026-01-17 10:30:29.23	179.68	15.13	-43.6	-46.2	18.0	0.00e+00	0	42	0	162529280	58	4932
2026-01-17 10:30:33.70	179.92	15.61	-43.7	-46.2	18.0	0.00e+00	0	43	0	170917888	58	4952
2026-01-17 10:30:37.68	180.13	16.03	-43.8	-46.3	17.9	0.00e+00	0	43	0	178257920	58	5039
2026-01-17 10:30:41.66	180.36	16.47	-43.9	-46.6	17.7	0.00e+00	0	43	0	185597952	58	5172
2026-01-17 10:30:45.64	180.59	16.91	-44.1	-46.8	17.5	0.00e+00	0	43	0	192937984	58	5306
2026-01-17 10:30:49.82	180.84	17.39	-44.0	-46.7	17.6	0.00e+00	0	43	0	200278016	59	4939
2026-01-17 10:30:53.80	181.08	17.85	-44.1	-46.8	17.4	0.00e+00	0	43	0	208666624	59	5025
2026-01-17 10:30:57.78	181.34	18.31	-44.4	-47.1	17.2	0.00e+00	0	43	0	216006656	59	5175
2026-01-17 10:31:01.78	181.60	18.79	-44.2	-46.9	17.5	0.00e+00	0	43	0	223346688	59	5044
2026-01-17 10:31:05.86	181.87	19.29	-44.5	-47.2	17.1	0.00e+00	0	43	0	230686720	59	5261
2026-01-17 10:31:09.79	182.14	19.78	-44.6	-47.4	17.0	0.00e+00	0	43	0	238026752	59	5373
2026-01-17 10:31:13.77	182.43	20.28	-44.5	-47.2	17.2	0.00e+00	0	43	0	245366784	60	4954
2026-01-17 10:31:17.74	182.72	20.79	-44.5	-47.2	17.2	0.00e+00	0	43	0	252706816	60	4979
2026-01-17 10:31:21.85	183.03	21.33	-44.4	-47.2	17.2	0.00e+00	0	43	0	261095424	60	4964
2026-01-17 10:31:26.06	183.36	21.90	-44.8	-47.7	16.8	0.00e+00	0	43	0	268435456	60	5254
2026-01-17 10:31:30.04	183.69	22.44	-44.3	-47.0	17.4	0.00e+00	0	43	0	275775488	60	4855
2026-01-17 10:31:34.02	184.02	23.00	-43.7	-46.1	18.2	0.00e+00	0	43	0	283115520	59	4647
2026-01-17 10:31:38.14	184.38	23.59	-43.1	-45.3	18.9	0.00e+00	0	43	0	291504128	58	4492
2026-01-17 10:31:42.15	184.75	24.17	-42.5	-44.6	19.5	0.00e+00	0	43	0	298844160	56	4636
2026-01-17 10:31:46.13	185.12	24.76	-42.3	-44.4	19.6	0.00e+00	0	43	0	306184192	56	4541
2026-01-17 10:31:50.18	185.51	25.38	-42.3	-44.4	19.7	0.00e+00	0	43	0	313524224	56	4533
2026-01-17 10:31:54.26	185.93	26.01	-42.4	-44.6	19.6	0.00e+00	0	43	0	321912832	56	4601
2026-01-17 10:31:58.33	186.35	26.65	-43.0	-45.3	19.0	0.00e+00	0	43	0	329252864	56	5018
2026-01-17 10:32:02.34	186.79	27.30	-43.1	-45.4	18.8	0.00e+00	0	43	0	336592896	57	4805
2026-01-17 10:32:06.45	187.26	27.98	-42.8	-45.1	19.2	0.00e+00	0	43	0	343932928	57	4608
2026-01-17 10:32:10.64	187.76	28.69	-43.1	-45.4	18.9	0.00e+00	0	43	0	352321536	57	4784
2026-01-17 10:32:14.62	188.25	29.37	-43.5	-45.8	18.5	0.00e+00	0	43	0	359661568	57	5033
2026-01-17 10:32:18.78	188.79	30.11	-43.9	-46.4	18.0	0.00e+00	0	43	0	367001600	58	5068
2026-01-17 10:32:22.77	189.33	30.83	-44.6	-47.2	17.3	0.00e+00	0	43	0	375390208	59	5260
2026-01-17 10:32:27.00	189.92	31.61	-45.5	-48.5	16.1	0.00e+00	0	43	0	382730240	61	5414
2026-01-17 10:32:30.98	190.51	32.36	-46.5	-50.1	14.5	0.00e+00	0	43	0	390070272	64	5473
2026-01-17 10:32:34.96	191.13	33.12	-46.3	-49.6	15.1	7.00e-07	0	43	0	397410304	63	5519
2026-01-17 10:32:38.94	191.77	33.90	-45.4	-48.3	16.4	0.00e+00	0	43	0	404750336	62	4985
2026-01-17 10:32:42.92	192.45	34.70	-44.8	-47.5	17.0	0.00e+00	0	43	0	413138944	61	4863
2026-01-17 10:32:46.90	193.16	35.52	-45.0	-47.8	16.8	0.00e+00	0	43	0	420478976	61	5001
2026-01-17 10:32:50.96	193.92	36.36	-46.0	-49.1	15.6	0.00e+00	0	43	0	427819008	63	5189
2026-01-17 10:32:54.94	194.70	37.21	-45.7	-48.8	15.9	0.00e+00	0	43	0	435159040	62	5302
2026-01-17 10:32:58.91	195.53	38.07	-46.2	-49.6	15.1	0.00e+00	0	43	0	442499072	63	5509
2026-01-17 10:33:02.99	196.42	38.97	-45.0	-47.8	16.8	0.00e+00	0	43	0	450887680	62	4731
2026-01-17 10:33:06.97	197.34	39.86	-45.8	-48.9	15.7	0.00e+00	0	43	0	458227712	62	5393
2026-01-17 10:33:10.95	198.31	40.77	-45.5	-48.5	16.2	0.00e+00	0	43	0	465567744	62	5101
2026-01-17 10:33:14.97	199.35	41.70	-44.5	-47.1	17.5	0.00e+00	0	43	0	472907776	60	4896
2026-01-17 10:33:19.03	200.46	42.66	-45.5	-48.6	16.1	0.00e+00	0	43	0	480247808	61	5495
2026-01-17 10:33:23.09	201.63	43.63	-45.1	-47.9	16.8	0.00e+00	0	43	0	487587840	61	5062
2026-01-17 10:33:27.07	202.86	44.58	-44.8	-47.5	17.1	0.00e+00	0	43	0	495976448	61	4865
2026-01-17 10:33:31.08	204.17	45.56	-45.1	-47.9	16.7	0.00e+00	0	43	0	503316480	61	5058
2026-01-17 10:33:35.28	205.63	46.58	-44.8	-47.7	17.0	0.00e+00	0	43	0	510656512	60	5225
2026-01-17 10:33:39.26	207.10	47.56	-44.8	-47.5	17.1	0.00e+00	0	43	0	517996544	60	5112
2026-01-17 10:33:43.23	208.66	48.54	-43.5	-45.7	18.6	0.00e+00	0	43	0	525336576	58	4702
2026-01-17 10:33:47.29	210.36	49.53	-46.0	-49.1	15.7	0.00e+00	0	43	0	533725184	62	5513
2026-01-17 10:33:51.48	212.24	50.55	-44.7	-47.3	17.4	0.00e+00	0	43	0	541065216	61	4721
2026-01-17 10:33:55.46	214.14	51.51	-45.1	-47.9	16.7	0.00e+00	0	43	0	548405248	61	5066
2026-01-17 10:33:59.44	216.17	52.45	-45.4	-48.3	16.4	0.00e+00	0	43	0	555745280	61	5323
2026-01-17 10:34:03.43	218.33	53.38	-43.5	-45.9	18.6	0.00e+00	0	43	0	564133888	58	4774
2026-01-17 10:34:07.40	220.62	54.27	-43.9	-46.4	18.0	0.00e+00	0	43	0	571473920	59	4795
2026-01-17 10:34:11.49	223.13	55.16	-43.6	-46.0	18.5	0.00e+00	0	43	0	578813952	58	4845
2026-01-17 10:34:15.47	225.72	55.98	-43.6	-46.0	18.3	0.00e+00	0	43	0	586153984	58	4835
2026-01-17 10:34:19.45	228.46	56.75	-44.9	-47.6	17.0	0.00e+00	0	43	0	593494016	61	4891
2026-01-17 10:34:23.43	231.35	57.47	-43.1	-45.3	19.1	0.00e+00	0	43	0	600834048	58	4458
2026-01-17 10:34:27.48	234.44	58.13	-43.6	-46.0	18.4	0.00e+00	0	43	0	609222656	58	4851
2026-01-17 10:34:31.46	237.63	58.72	-44.1	-46.5	18.0	0.00e+00	0	43	0	616562688	59	4835
2026-01-17 10:34:35.70	241.17	59.25	-43.6	-46.0	18.5	0.00e+00	0	43	0	623902720	57	5116
2026-01-17 10:34:39.69	244.62	59.66	-45.0	-47.7	17.0	0.00e+00	0	43	0	631242752	60	5248
2026-01-17 10:34:43.75	248.23	59.98	-44.2	-46.7	17.9	0.00e+00	0	43	0	639631360	60	4677
2026-01-17 10:34:48.12	252.20	60.21	-44.9	-47.7	16.9	0.00e+00	0	43	0	648019968	61	4955
2026-01-17 10:34:52.15	255.91	60.31	-45.1	-47.9	16.8	0.00e+00	0	43	0	655360000	62	4775
2026-01-17 10:34:56.14	259.59	60.31	-44.6	-47.4	17.2	0.00e+00	0	43	0	662700032	61	4800
2026-01-17 10:35:00.14	263.27	60.20	-44.0	-46.5	18.2	0.00e+00	0	43	0	670040064	60	4577
2026-01-17 10:35:04.35	267.09	59.98	-43.6	-45.9	18.6	0.00e+00	0	43	0	678428672	58	4796
2026-01-17 10:35:08.43	270.72	59.66	-45.5	-48.5	16.3	0.00e+00	0	43	0	685768704	61	5405
2026-01-17 10:35:12.40	274.15	59.25	-44.7	-47.4	17.3	0.00e+00	0	43	0	693108736	60	5086
2026-01-17 10:35:16.39	277.48	58.76	-46.0	-49.1	15.8	0.00e+00	0	43	0	700448768	62	5487
2026-01-17 10:35:20.43	280.72	58.17	-44.7	-47.3	17.3	0.00e+00	0	43	0	707788800	61	4738
2026-01-17 10:35:24.40	283.76	57.53	-44.2	-46.8	17.7	0.00e+00	0	43	0	715128832	59	4992
2026-01-17 10:35:28.38	286.66	56.82	-42.9	-45.2	19.3	0.00e+00	0	43	0	722468864	56	4938
2026-01-17 10:35:32.36	289.41	56.05	-41.3	-43.3	20.6	0.00e+00	0	43	0	730857472	54	4463
2026-01-17 10:35:36.33	292.00	55.24	-40.8	-42.7	21.1	0.00e+00	0	43	0	738197504	53	4412
2026-01-17 10:35:40.37	294.49	54.37	-40.2	-42.1	21.6	0.00e+00	0	43	0	745537536	52	4365
2026-01-17 10:35:44.39	296.81	53.47	-43.2	-45.5	18.9	0.00e+00	0	43	0	752877568	58	4586
2026-01-17 10:35:48.38	298.98	52.55	-41.6	-43.7	20.3	0.00e+00	0	43	0	760217600	55	4403
2026-01-17 10:35:52.39	301.03	51.61	-42.6	-44.8	19.5	0.00e+00	0	43	0	767557632	56	4746
2026-01-17 10:35:56.67	303.07	50.58	-45.6	-48.7	16.1	0.00e+00	0	43	0	775946240	63	4943
2026-01-17 10:36:00.66	304.86	49.61	-43.6	-46.0	18.5	0.00e+00	0	43	0	783286272	59	4570
2026-01-17 10:36:04.68	306.55	48.63	-46.6	-50.3	14.5	1.50e-06	0	43	0	790626304	64	5608
2026-01-17 10:36:08.73	308.15	47.64	-43.6	-46.0	18.5	0.00e+00	0	43	0	799014912	59	4563
2026-01-17 10:36:12.74	309.63	46.66	-44.8	-47.5	17.1	0.00e+00	0	43	0	806354944	61	4863
2026-01-17 10:36:16.72	311.02	45.69	-44.7	-47.4	17.2	0.00e+00	0	43	0	813694976	60	5090
2026-01-17 10:36:20.71	312.33	44.73	-43.1	-45.4	18.9	0.00e+00	0	43	0	821035008	58	4543
2026-01-17 10:36:24.69	313.55	43.77	-46.6	-50.3	14.3	0.00e+00	0	43	0	828375040	64	5608
2026-01-17 10:36:28.71	314.73	42.82	-43.8	-46.3	18.2	0.00e+00	0	43	0	835715072	59	4716
2026-01-17 10:36:32.69	315.82	41.89	-45.5	-48.6	15.9	0.00e+00	0	43	0	843055104	63	4920
2026-01-17 10:36:36.68	316.85	40.97	-44.7	-47.6	17.0	0.00e+00	0	43	0	851443712	60	5164
2026-01-17 10:36:40.78	317.86	40.03	-45.9	-49.1	15.5	0.00e+00	0	43	0	858783744	63	5210
2026-01-17 10:36:44.77	318.79	39.14	-43.5	-45.9	18.5	0.00e+00	0	43	0	866123776	58	4766
2026-01-17 10:36:48.79	319.67	38.26	-47.3	-51.8	12.9	3.80e-06	0	43	0	873463808	65	6277
2026-01-17 10:36:52.79	320.51	37.39	-44.9	-47.8	16.7	0.00e+00	0	43	0	880803840	61	5030
2026-01-17 10:36:56.77	321.29	36.55	-44.9	-48.0	16.6	0.00e+00	0	43	0	889192448	60	5439
2026-01-17 10:37:00.83	322.06	35.70	-44.4	-47.3	17.3	0.00e+00	0	43	0	896532480	60	5038
2026-01-17 10:37:04.93	322.79	34.87	-43.9	-46.4	18.0	0.00e+00	0	43	0	903872512	59	4813
2026-01-17 10:37:08.98	323.49	34.06	-45.7	-48.8	15.8	0.00e+00	0	43	0	911212544	62	5311
2026-01-17 10:37:12.99	324.14	33.28	-45.3	-48.5	16.2	0.00e+00	0	43	0	919601152	62	5127
2026-01-17 10:37:17.03	324.76	32.50	-44.8	-47.9	16.6	0.00e+00	0	43	0	926941184	61	5054
2026-01-17 10:37:21.18	325.38	31.72	-43.8	-46.3	18.0	0.00e+00	0	43	0	934281216	59	4740
2026-01-17 10:37:25.34	325.97	30.96	-43.7	-46.2	18.1	0.00e+00	0	43	0	942669824	58	4978
2026-01-17 10:37:29.34	326.51	30.24	-46.5	-50.4	14.2	7.00e-07	0	43	0	950009856	63	6049
2026-01-17 10:37:33.46	327.04	29.52	-45.1	-48.3	16.3	0.00e+00	0	43	0	957349888	62	4987
2026-01-17 10:37:37.72	327.57	28.79	-42.6	-45.0	19.2	0.00e+00	0	43	0	965738496	57	4580
2026-01-17 10:37:41.81	328.06	28.10	-43.2	-45.6	18.6	0.00e+00	0	43	0	973078528	57	4913
2026-01-17 10:37:45.80	328.51	27.44	-45.2	-48.3	16.2	0.00e+00	0	43	0	980418560	61	5311
2026-01-17 10:37:49.77	328.95	26.80	-44.7	-47.6	16.9	0.00e+00	0	43	0	987758592	61	4900
2026-01-17 10:37:53.85	329.38	26.16	-44.2	-47.0	17.5	0.00e+00	0	43	0	996147200	60	4848
2026-01-17 10:37:57.88	329.79	25.54	-45.2	-48.7	15.8	0.00e+00	0	43	0	1003487232	61	5580
2026-01-17 10:38:01.97	330.19	24.92	-45.0	-48.1	16.4	0.00e+00	0	43	0	1010827264	61	5192
2026-01-17 10:38:06.03	330.57	24.32	-44.4	-47.2	17.2	0.00e+00	0	43	0	1018167296	60	4962
2026-01-17 10:38:10.01	330.93	23.74	-44.1	-46.9	17.4	0.00e+00	0	43	0	1026555904	60	4770
2026-01-17 10:38:13.99	331.28	23.18	-43.1	-45.5	18.7	0.00e+00	0	43	0	1033895936	58	4586
2026-01-17 10:38:17.97	331.62	22.63	-42.2	-44.5	19.6	0.00e+00	0	43	0	1041235968	56	4559
2026-01-17 10:38:21.95	331.95	22.08	-42.7	-45.2	19.0	0.00e+00	0	43	0	1048576000	56	4952
2026-01-17 10:38:25.93	332.27	21.55	-43.9	-46.7	17.6	0.00e+00	0	43	0	1055916032	58	5241
2026-01-17 10:38:29.96	332.58	21.02	-44.2	-46.9	17.5	0.00e+00	0	43	0	1063256064	59	5050
2026-01-17 10:38:33.89	332.87	20.52	-43.3	-45.8	18.4	0.00e+00	0	43	0	1070596096	58	4737
2026-01-17 10:38:37.88	333.16	20.01	-42.6	-44.9	19.2	0.00e+00	0	43	0	1077936128	57	4515
2026-01-17 10:38:41.85	333.44	19.52	-42.1	-44.5	19.6	0.00e+00	0	43	0	1085276160	56	4563
2026-01-17 10:38:45.85	333.71	19.03	-42.2	-44.7	19.4	0.00e+00	0	43	0	1093664768	56	4684
2026-01-17 10:38:49.84	333.97	18.56	-43.0	-45.6	18.6	0.00e+00	0	43	0	1101004800	56	5165
2026-01-17 10:38:53.89	334.23	18.08	-43.9	-46.7	17.5	0.00e+00	0	43	0	1108344832	58	5239
2026-01-17 10:38:57.92	334.48	17.62	-44.3	-47.4	16.9	0.00e+00	0	43	0	1115684864	59	5343
2026-01-17 10:39:01.89	334.72	17.17	-44.2	-47.3	17.0	0.00e+00	0	43	0	1123024896	59	5298
2026-01-17 10:39:06.37	334.99	16.67	-44.0	-46.8	17.5	0.00e+00	0	43	0	1131413504	59	4999
2026-01-17 10:39:10.33	335.21	16.24	-43.6	-46.2	17.9	0.00e+00	0	43	0	1138753536	59	4701
2026-01-17 10:39:14.31	335.44	15.81	-43.6	-46.3	17.9	0.00e+00	0	43	0	1147142144	58	4996
2026-01-17 10:39:18.40	335.66	15.38	-43.3	-45.9	18.2	0.00e+00	0	43	0	1154482176	58	4775
2026-01-17 10:39:22.61	335.88	14.94	-43.4	-45.9	18.2	0.00e+00	0	43	0	1161822208	58	4773
2026-01-17 10:39:26.58	336.09	14.54	-43.3	-45.7	18.4	0.00e+00	0	43	0	1169162240	58	4669
2026-01-17 10:39:30.59	336.29	14.14	-43.3	-45.7	18.3	0.00e+00	0	43	0	1177550848	58	4696
2026-01-17 10:39:34.60	336.48	13.74	-43.3	-45.9	18.2	0.00e+00	0	43	0	1184890880	58	4763
2026-01-17 10:39:38.88	336.69	13.33	-43.4	-46.1	18.0	0.00e+00	0	43	0	1192230912	58	4902
2026-01-17 10:39:43.08	336.88	12.92	-43.6	-46.5	17.6	0.00e+00	0	43	0	1200619520	58	5123
2026-01-17 10:39:47.07	337.06	12.55	-43.5	-46.3	17.8	0.00e+00	0	43	0	1207959552	58	5029
2026-01-17 10:39:51.06	337.24	12.18	-43.5	-46.5	17.6	0.00e+00	0	43	0	1215299584	58	5103
2026-01-17 10:39:55.05	337.42	11.81	-43.4	-46.4	17.6	0.00e+00	0	43	0	1222639616	58	5089
2026-01-17 10:39:59.03	337.58	11.45	-43.3	-46.2	17.9	0.00e+00	0	43	0	1229979648	58	4947
2026-01-17 10:40:03.24	337.76	11.08	-43.4	-46.2	17.8	0.00e+00	0	43	0	1238368256	58	4945
2026-01-17 10:40:07.47	337.93	10.71	-43.5	-46.3	17.7	0.00e+00	0	43	0	1246756864	58	5026
2026-01-17 10:40:11.47	338.09	10.36	-43.5	-46.3	17.6	0.00e+00	0	43	0	1254096896	58	5026
2026-01-17 10:40:15.67	338.25	10.01	-43.5	-46.4	17.6	0.00e+00	0	43	0	1261436928	58	5088
2026-01-17 10:40:19.66	338.41	9.67	-43.7	-46.5	17.5	0.00e+00	0	43	0	1268776960	58	5140
2026-01-17 10:40:23.65	338.56	9.34	-43.9	-46.8	17.2	0.00e+00	0	43	0	1277165568	58	5291
2026-01-17 10:40:27.65	338.70	9.01	-45.0	-48.3	15.9	0.00e+00	0	43	0	1284505600	60	5649
2026-01-17 10:40:31.62	338.84	8.69	-50.3	-65.9	3.8	1.49e+00	0	43	104	1284505600	71	22734
2026-01-17 10:40:35.75	338.99	8.36	-50.7	-66.1	3.8	1.49e+00	0	44	104	1284505600	72	21843
2026-01-17 10:40:39.83	339.13	8.04	-50.6	-66.1	3.8	1.49e+00	0	43	104	1284505600	72	22001
2026-01-17 10:40:43.82	339.27	7.73	-50.9	-66.2	3.8	1.49e+00	0	43	104	1284505600	72	22010
2026-01-17 10:40:47.80	339.40	7.42	-51.0	-66.2	3.8	1.49e+00	0	43	104	1284505600	72	22140
2026-01-17 10:40:51.77	339.53	7.12	-50.8	-66.2	3.8	1.49e+00	0	43	104	1284505600	72	22087
2026-01-17 10:40:55.76	339.66	6.82	-50.6	-66.1	3.8	1.49e+00	0	43	104	1284505600	72	21946
2026-01-17 10:40:59.73	339.78	6.53	-50.6	-66.1	3.8	1.49e+00	0	43	104	1284505600	72	21961
2026-01-17 10:41:03.70	339.91	6.24	-50.6	-66.1	3.8	1.49e+00	0	43	104	1284505600	72	21979
2026-01-17 10:41:07.68	340.03	5.95	-50.6	-66.1	3.8	1.49e+00	0	43	104	1284505600	72	21953
2026-01-17 10:41:11.67	340.15	5.66	-50.6	-66.1	3.8	1.49e+00	0	43	104	1284505600	72	21897
2026-01-17 10:41:15.65	340.26	5.38	-50.5	-66.1	3.8	1.49e+00	0	43	104	1284505600	72	21820
2026-01-17 10:41:19.63	340.38	5.10	-50.5	-66.1	3.8	1.49e+00	0	43	104	1284505600	72	21898

#Closed at: 2026-01-17 10:41:22
#Recorded file [1284 MB]: D:/Data/31040_260117_132829.dat