passes_logs/2026/01/17/T1/T1__20260117_005843_NOAA_20_JPSS-1_rec.log

#Pass ID: 20260117_005843_NOAA 20 (JPSS-1)
#Satellite: NOAA 20 (JPSS-1)
#Configuration: NOAA 20
#almurnet v.1.7.20251203
#Start time: 2026-01-17 00:58:43

#Version: 2.0.20230620
#Station: T1
#Location: 37.570604 lon 55.790049 lat
#TLE: 1 43013U 17073A   26016.24631778  .00000038  00000+0  39093-4 0  9990
#TLE: 2 43013  98.7637 317.1726 0001455  37.6755 322.4523 14.19536243422915

#Time	Az	El	Level	Level2	SNR	BER	BlckErr	Temp	State	Recorded	gain1	gain2
2026-01-17 00:58:43.35	8.70	5.01	-49.6	-65.9	3.8	1.49e+00	0	38	0	0	70	24022
2026-01-17 00:58:46.33	8.51	5.21	-48.6	-65.5	3.8	1.49e+00	0	38	104	0	67	27112
2026-01-17 00:58:49.32	8.32	5.40	-48.6	-65.4	3.8	1.49e+00	0	38	104	0	67	27000
2026-01-17 00:58:52.31	8.13	5.60	-48.6	-65.4	3.8	1.49e+00	0	38	104	0	67	27001
2026-01-17 00:58:55.31	7.94	5.80	-48.6	-65.4	3.8	1.49e+00	0	38	104	0	67	26994
2026-01-17 00:58:58.30	7.74	6.00	-48.6	-65.4	3.8	1.49e+00	0	38	104	0	67	26833
2026-01-17 00:59:01.29	7.54	6.20	-48.6	-65.4	3.8	1.49e+00	0	38	104	0	67	26950
2026-01-17 00:59:04.28	7.33	6.40	-48.6	-65.5	3.8	1.49e+00	0	38	104	0	67	27087
2026-01-17 00:59:07.27	7.13	6.60	-48.6	-65.4	3.8	1.49e+00	0	39	104	0	67	26963
2026-01-17 00:59:10.26	6.92	6.81	-48.6	-65.3	3.8	1.49e+00	0	39	104	0	67	26746
2026-01-17 00:59:13.26	6.71	7.01	-48.6	-65.2	3.8	1.49e+00	0	39	104	0	67	26207
2026-01-17 00:59:16.25	6.49	7.22	-48.6	-64.5	3.8	1.49e+00	0	39	104	0	67	24272
2026-01-17 00:59:19.24	6.27	7.43	-48.5	-63.8	3.8	1.49e+00	0	39	104	0	67	22285
2026-01-17 00:59:22.24	6.05	7.64	-48.5	-63.8	3.8	1.49e+00	0	39	104	0	67	22508
2026-01-17 00:59:25.23	5.82	7.85	-48.6	-64.7	3.8	1.49e+00	0	39	104	0	67	24712
2026-01-17 00:59:28.22	5.59	8.06	-48.6	-65.4	3.8	1.49e+00	0	39	104	0	67	26999
2026-01-17 00:59:31.21	5.36	8.27	-48.4	-62.3	4.1	1.49e+00	0	39	104	0	67	18767
2026-01-17 00:59:34.20	5.13	8.48	-47.6	-55.7	8.3	9.12e-02	0	39	0	4194304	67	8801
2026-01-17 00:59:37.19	4.89	8.70	-46.5	-51.9	12.2	3.62e-04	0	39	0	9437184	65	6417
2026-01-17 00:59:40.18	4.64	8.92	-46.0	-50.8	13.5	1.06e-05	0	39	0	15728640	63	6318
2026-01-17 00:59:43.17	4.39	9.14	-46.1	-50.9	13.5	9.90e-06	0	39	0	20971520	63	6384
2026-01-17 00:59:46.17	4.14	9.36	-45.3	-48.7	15.6	0.00e+00	0	39	0	27262976	62	5269
2026-01-17 00:59:49.18	3.89	9.58	-45.3	-48.6	15.7	0.00e+00	0	39	0	32505856	62	5183
2026-01-17 00:59:52.19	3.62	9.80	-45.4	-48.6	15.7	0.00e+00	0	39	0	37748736	62	5198
2026-01-17 00:59:55.19	3.36	10.03	-45.4	-48.5	15.8	0.00e+00	0	40	0	44040192	62	5149
2026-01-17 00:59:58.18	3.09	10.25	-45.3	-48.4	16.0	0.00e+00	0	40	0	49283072	62	5077
2026-01-17 01:00:01.18	2.82	10.48	-45.2	-48.5	15.9	0.00e+00	0	39	0	54525952	62	5129
2026-01-17 01:00:04.18	2.54	10.71	-44.8	-48.2	16.2	0.00e+00	0	40	0	60817408	61	5236
2026-01-17 01:00:07.19	2.26	10.94	-44.7	-48.1	16.2	0.00e+00	0	40	0	66060288	61	5213
2026-01-17 01:00:10.18	1.97	11.17	-44.6	-48.1	16.2	0.00e+00	0	40	0	71303168	61	5213
2026-01-17 01:00:13.19	1.68	11.41	-44.5	-48.1	16.3	0.00e+00	0	40	0	77594624	60	5498
2026-01-17 01:00:16.19	1.38	11.64	-44.5	-48.1	16.3	0.00e+00	0	40	0	82837504	60	5467
2026-01-17 01:00:19.20	1.08	11.88	-44.6	-48.1	16.3	0.00e+00	0	40	0	89128960	60	5470
2026-01-17 01:00:22.20	0.77	12.12	-44.6	-48.0	16.4	0.00e+00	0	40	0	94371840	60	5451
2026-01-17 01:00:25.20	0.46	12.36	-44.6	-48.1	16.4	0.00e+00	0	40	0	99614720	60	5466
2026-01-17 01:00:28.20	0.14	12.60	-44.6	-47.9	16.6	0.00e+00	0	40	0	105906176	60	5365
2026-01-17 01:00:31.21	359.82	12.84	-44.7	-47.9	16.6	0.00e+00	0	40	0	111149056	60	5375
2026-01-17 01:00:34.21	359.49	13.08	-44.6	-47.6	16.8	0.00e+00	0	40	0	116391936	60	5213
2026-01-17 01:00:37.21	359.16	13.33	-44.6	-47.7	16.8	0.00e+00	0	40	0	122683392	60	5225
2026-01-17 01:00:40.21	358.82	13.58	-44.7	-47.7	16.8	0.00e+00	0	40	0	127926272	60	5250
2026-01-17 01:00:43.21	358.47	13.83	-44.8	-47.8	16.7	0.00e+00	0	40	0	134217728	60	5299
2026-01-17 01:00:46.21	358.12	14.08	-44.7	-47.7	16.8	0.00e+00	0	40	0	139460608	60	5226
2026-01-17 01:00:49.21	357.76	14.33	-44.8	-47.7	16.8	0.00e+00	0	40	0	144703488	60	5276
2026-01-17 01:00:52.21	357.40	14.58	-44.8	-47.8	16.7	0.00e+00	0	40	0	150994944	60	5333
2026-01-17 01:00:55.21	357.03	14.83	-44.8	-47.8	16.7	0.00e+00	0	40	0	156237824	60	5317
2026-01-17 01:00:58.21	356.65	15.09	-44.8	-47.7	16.8	0.00e+00	0	40	0	161480704	60	5257
2026-01-17 01:01:01.21	356.27	15.35	-44.8	-47.9	16.6	0.00e+00	0	40	0	167772160	60	5345
2026-01-17 01:01:04.22	355.88	15.61	-44.6	-47.6	16.9	0.00e+00	0	40	0	173015040	60	5204
2026-01-17 01:01:07.22	355.48	15.87	-44.6	-47.7	16.9	0.00e+00	0	40	0	178257920	60	5236
2026-01-17 01:01:10.22	355.08	16.13	-44.8	-47.8	16.7	0.00e+00	0	40	0	184549376	60	5322
2026-01-17 01:01:13.23	354.66	16.39	-44.9	-47.9	16.6	0.00e+00	0	40	0	189792256	60	5399
2026-01-17 01:01:16.23	354.24	16.66	-45.0	-48.0	16.6	0.00e+00	0	40	0	196083712	60	5414
2026-01-17 01:01:19.23	353.81	16.92	-45.0	-48.0	16.6	0.00e+00	0	40	0	201326592	60	5421
2026-01-17 01:01:22.23	353.38	17.19	-44.9	-48.0	16.5	0.00e+00	0	40	0	206569472	60	5443
2026-01-17 01:01:25.23	352.94	17.45	-44.7	-47.8	16.8	0.00e+00	0	40	0	212860928	60	5298
2026-01-17 01:01:28.24	352.48	17.72	-44.5	-47.6	16.9	0.00e+00	0	40	0	218103808	60	5211
2026-01-17 01:01:31.24	352.03	17.99	-44.6	-47.7	16.9	0.00e+00	0	40	0	223346688	60	5264
2026-01-17 01:01:34.25	351.56	18.26	-44.4	-47.4	17.1	0.00e+00	0	40	0	229638144	60	5078
2026-01-17 01:01:37.25	351.08	18.54	-44.3	-47.4	17.2	0.00e+00	0	40	0	234881024	60	5049
2026-01-17 01:01:40.24	350.60	18.81	-44.4	-47.3	17.3	0.00e+00	0	40	0	240123904	60	5036
2026-01-17 01:01:43.25	350.10	19.08	-44.3	-47.2	17.4	0.00e+00	0	40	0	246415360	60	4933
2026-01-17 01:01:46.25	349.60	19.36	-44.2	-46.9	17.7	0.00e+00	0	40	0	251658240	60	4795
2026-01-17 01:01:49.25	349.08	19.63	-44.3	-47.0	17.6	0.00e+00	0	40	0	257949696	60	4859
2026-01-17 01:01:52.25	348.56	19.91	-44.3	-47.1	17.5	0.00e+00	0	40	0	263192576	60	4881
2026-01-17 01:01:55.26	348.03	20.18	-44.1	-46.8	17.8	0.00e+00	0	40	0	268435456	60	4725
2026-01-17 01:01:58.25	347.49	20.46	-44.4	-47.0	17.6	0.00e+00	0	40	0	274726912	60	4856
2026-01-17 01:02:01.26	346.94	20.74	-44.5	-47.3	17.3	0.00e+00	0	40	0	279969792	60	5021
2026-01-17 01:02:04.26	346.37	21.01	-44.6	-47.5	17.2	0.00e+00	0	40	0	285212672	60	5103
2026-01-17 01:02:07.27	345.80	21.29	-44.7	-47.5	17.1	0.00e+00	0	40	0	291504128	60	5120
2026-01-17 01:02:10.27	345.22	21.57	-44.7	-47.5	17.1	0.00e+00	0	40	0	296747008	60	5135
2026-01-17 01:02:13.27	344.62	21.84	-44.5	-47.6	17.0	0.00e+00	0	40	0	303038464	60	5192
2026-01-17 01:02:16.27	344.02	22.12	-44.4	-47.5	17.1	0.00e+00	0	40	0	308281344	60	5137
2026-01-17 01:02:19.27	343.40	22.40	-44.2	-47.0	17.5	0.00e+00	0	40	0	313524224	60	4867
2026-01-17 01:02:22.27	342.78	22.67	-44.3	-47.0	17.6	0.00e+00	0	40	0	319815680	60	4868
2026-01-17 01:02:25.27	342.14	22.94	-44.0	-46.8	17.8	0.00e+00	0	40	0	325058560	59	5004
2026-01-17 01:02:28.28	341.49	23.22	-43.9	-46.6	18.0	0.00e+00	0	40	0	330301440	59	4893
2026-01-17 01:02:31.28	340.83	23.49	-44.0	-46.7	17.9	0.00e+00	0	40	0	336592896	59	4935
2026-01-17 01:02:34.28	340.16	23.76	-43.5	-45.9	18.6	0.00e+00	0	40	0	341835776	58	4812
2026-01-17 01:02:37.29	339.47	24.03	-43.5	-46.1	18.5	0.00e+00	0	40	0	347078656	58	4886
2026-01-17 01:02:40.29	338.77	24.30	-43.7	-46.3	18.2	0.00e+00	0	40	0	353370112	58	5019
2026-01-17 01:02:43.30	338.06	24.56	-43.6	-46.2	18.4	0.00e+00	0	40	0	358612992	58	4934
2026-01-17 01:02:46.30	337.34	24.83	-43.5	-46.0	18.5	0.00e+00	0	40	0	364904448	58	4837
2026-01-17 01:02:49.31	336.61	25.09	-43.2	-45.7	18.8	0.00e+00	0	40	0	370147328	58	4672
2026-01-17 01:02:52.31	335.86	25.35	-43.3	-45.9	18.6	0.00e+00	0	40	0	375390208	58	4776
2026-01-17 01:02:55.31	335.10	25.60	-43.2	-45.6	18.9	0.00e+00	0	40	0	381681664	58	4632
2026-01-17 01:02:58.31	334.33	25.85	-43.6	-46.0	18.4	0.00e+00	0	40	0	386924544	58	4849
2026-01-17 01:03:01.31	333.55	26.10	-43.9	-46.5	18.1	0.00e+00	0	40	0	393216000	58	5112
2026-01-17 01:03:04.31	332.76	26.35	-44.0	-46.6	18.0	0.00e+00	0	40	0	398458880	58	5201
2026-01-17 01:03:07.32	331.95	26.59	-43.9	-46.7	17.9	0.00e+00	0	40	0	403701760	58	5238
2026-01-17 01:03:10.32	331.13	26.83	-43.9	-46.9	17.7	0.00e+00	0	40	0	409993216	58	5366
2026-01-17 01:03:13.32	330.30	27.06	-44.1	-47.0	17.6	0.00e+00	0	40	0	415236096	59	5106
2026-01-17 01:03:16.33	329.45	27.29	-44.5	-47.3	17.3	0.00e+00	0	40	0	420478976	59	5291
2026-01-17 01:03:19.33	328.59	27.51	-44.5	-47.2	17.3	0.00e+00	0	40	0	426770432	59	5271
2026-01-17 01:03:22.33	327.72	27.73	-44.5	-47.4	17.2	0.00e+00	0	40	0	432013312	59	5367
2026-01-17 01:03:25.34	326.84	27.94	-44.4	-47.4	17.2	0.00e+00	0	40	0	437256192	59	5379
2026-01-17 01:03:28.34	325.95	28.14	-44.4	-47.2	17.3	0.00e+00	0	40	0	443547648	59	5277
2026-01-17 01:03:31.35	325.04	28.34	-44.2	-47.0	17.6	0.00e+00	0	40	0	448790528	59	5118
2026-01-17 01:03:34.35	324.13	28.53	-44.2	-47.0	17.5	0.00e+00	0	40	0	455081984	59	5152
2026-01-17 01:03:37.35	323.20	28.72	-44.5	-47.2	17.3	0.00e+00	0	40	0	460324864	59	5262
2026-01-17 01:03:40.35	322.27	28.90	-44.6	-47.5	17.1	0.00e+00	0	40	0	465567744	60	5135
2026-01-17 01:03:43.35	321.32	29.07	-44.6	-47.7	17.0	0.00e+00	0	40	0	471859200	60	5224
2026-01-17 01:03:46.36	320.36	29.23	-44.9	-47.9	16.8	0.00e+00	0	40	0	477102080	60	5346
2026-01-17 01:03:49.37	319.39	29.38	-44.8	-47.6	17.1	0.00e+00	0	40	0	482344960	60	5180
2026-01-17 01:03:52.37	318.42	29.53	-44.9	-47.7	17.0	0.00e+00	0	40	0	488636416	60	5250
2026-01-17 01:03:55.37	317.44	29.66	-45.0	-48.1	16.7	0.00e+00	0	40	0	493879296	60	5465
2026-01-17 01:03:58.37	316.44	29.79	-44.9	-48.1	16.6	0.00e+00	0	40	0	500170752	60	5465
2026-01-17 01:04:01.38	315.44	29.91	-44.9	-48.0	16.7	0.00e+00	0	40	0	505413632	60	5421
2026-01-17 01:04:04.38	314.43	30.02	-44.9	-47.8	16.9	0.00e+00	0	40	0	510656512	60	5331
2026-01-17 01:04:07.38	313.42	30.12	-44.9	-47.6	17.0	0.00e+00	0	40	0	516947968	60	5207
2026-01-17 01:04:10.38	312.40	30.21	-45.0	-47.8	16.9	0.00e+00	0	40	0	522190848	60	5334
2026-01-17 01:04:13.38	311.37	30.29	-44.9	-47.7	17.0	0.00e+00	0	40	0	527433728	60	5252
2026-01-17 01:04:16.38	310.34	30.36	-45.0	-47.8	16.9	0.00e+00	0	40	0	533725184	60	5327
2026-01-17 01:04:19.39	309.31	30.42	-45.1	-47.9	16.8	0.00e+00	0	40	0	538968064	60	5397
2026-01-17 01:04:22.39	308.27	30.47	-45.4	-48.4	16.3	0.00e+00	0	40	0	544210944	61	5364
2026-01-17 01:04:25.39	307.23	30.51	-45.4	-48.5	16.2	0.00e+00	0	40	0	550502400	61	5410
2026-01-17 01:04:28.39	306.19	30.54	-45.9	-49.3	15.5	0.00e+00	0	40	0	555745280	62	5600
2026-01-17 01:04:31.40	305.14	30.55	-46.0	-49.4	15.4	0.00e+00	0	40	0	562036736	62	5676
2026-01-17 01:04:34.40	304.09	30.56	-45.9	-49.1	15.6	0.00e+00	0	40	0	567279616	62	5490
2026-01-17 01:04:37.40	303.05	30.56	-45.7	-48.9	15.8	0.00e+00	0	40	0	572522496	62	5379
2026-01-17 01:04:40.41	302.00	30.54	-45.9	-49.2	15.6	0.00e+00	0	40	0	578813952	62	5541
2026-01-17 01:04:43.41	300.95	30.52	-45.7	-49.0	15.7	0.00e+00	0	40	0	584056832	62	5431
2026-01-17 01:04:46.41	299.91	30.48	-45.4	-48.5	16.2	0.00e+00	0	40	0	589299712	62	5150
2026-01-17 01:04:49.42	298.87	30.43	-44.9	-47.7	16.9	0.00e+00	0	40	0	595591168	61	4970
2026-01-17 01:04:52.42	297.83	30.38	-44.8	-47.7	17.0	0.00e+00	0	40	0	600834048	61	4928
2026-01-17 01:04:55.42	296.80	30.31	-44.7	-47.4	17.3	0.00e+00	0	40	0	607125504	61	4786
2026-01-17 01:04:58.43	295.77	30.23	-45.0	-48.0	16.7	0.00e+00	0	40	0	612368384	61	5110
2026-01-17 01:05:01.44	294.75	30.14	-45.2	-48.2	16.5	0.00e+00	0	40	0	617611264	61	5221
2026-01-17 01:05:04.44	293.73	30.05	-45.0	-47.9	16.8	0.00e+00	0	40	0	623902720	61	5067
2026-01-17 01:05:07.45	292.72	29.94	-44.8	-47.6	17.0	0.00e+00	0	40	0	629145600	61	4925
2026-01-17 01:05:10.45	291.71	29.82	-44.9	-47.7	16.9	0.00e+00	0	40	0	634388480	61	4941
2026-01-17 01:05:13.45	290.72	29.69	-45.0	-47.9	16.8	0.00e+00	0	40	0	640679936	61	5049
2026-01-17 01:05:16.45	289.73	29.56	-44.6	-47.4	17.3	0.00e+00	0	40	0	645922816	61	4770
2026-01-17 01:05:19.45	288.75	29.42	-44.5	-47.2	17.5	0.00e+00	0	40	0	652214272	60	4938
2026-01-17 01:05:22.45	287.78	29.26	-44.8	-47.5	17.1	0.00e+00	0	40	0	657457152	60	5134
2026-01-17 01:05:25.45	286.82	29.10	-45.0	-47.8	16.8	0.00e+00	0	40	0	662700032	60	5304
2026-01-17 01:05:28.46	285.87	28.93	-45.2	-48.2	16.5	0.00e+00	0	40	0	668991488	61	5219
2026-01-17 01:05:31.46	284.93	28.76	-45.4	-48.4	16.2	0.00e+00	0	40	0	674234368	61	5384
2026-01-17 01:05:34.47	283.99	28.57	-45.1	-47.9	16.7	0.00e+00	0	40	0	679477248	61	5084
2026-01-17 01:05:37.47	283.07	28.38	-45.4	-48.3	16.3	0.00e+00	0	40	0	685768704	61	5334
2026-01-17 01:05:40.48	282.16	28.18	-45.6	-48.7	16.0	0.00e+00	0	40	0	691011584	61	5568
2026-01-17 01:05:43.49	281.26	27.98	-45.8	-48.9	15.8	0.00e+00	0	40	0	696254464	62	5378
2026-01-17 01:05:46.50	280.37	27.77	-45.4	-48.3	16.4	0.00e+00	0	40	0	702545920	62	5014
2026-01-17 01:05:49.50	279.50	27.55	-45.3	-48.3	16.4	0.00e+00	0	40	0	707788800	62	4985
2026-01-17 01:05:52.50	278.64	27.33	-45.3	-48.3	16.3	0.00e+00	0	40	0	714080256	62	5036
2026-01-17 01:05:55.50	277.79	27.10	-45.4	-48.4	16.3	0.00e+00	0	40	0	719323136	62	5050
2026-01-17 01:05:58.50	276.95	26.87	-44.9	-47.7	16.9	0.00e+00	0	40	0	724566016	61	4949
2026-01-17 01:06:01.50	276.13	26.64	-45.1	-48.0	16.7	0.00e+00	0	40	0	730857472	61	5125
2026-01-17 01:06:04.51	275.31	26.39	-44.7	-47.4	17.2	0.00e+00	0	40	0	736100352	61	4790
2026-01-17 01:06:07.51	274.51	26.15	-44.7	-47.4	17.2	0.00e+00	0	40	0	741343232	61	4790
2026-01-17 01:06:10.51	273.72	25.90	-44.5	-47.2	17.4	0.00e+00	0	40	0	747634688	61	4693
2026-01-17 01:06:13.51	272.95	25.65	-44.6	-47.3	17.3	0.00e+00	0	40	0	752877568	60	5016
2026-01-17 01:06:16.52	272.18	25.39	-44.3	-47.0	17.6	0.00e+00	0	40	0	759169024	60	4819
2026-01-17 01:06:19.52	271.43	25.13	-44.0	-46.6	17.9	0.00e+00	0	40	0	764411904	59	4890
2026-01-17 01:06:22.52	270.69	24.87	-44.1	-46.7	17.9	0.00e+00	0	40	0	769654784	59	4930
2026-01-17 01:06:25.52	269.97	24.61	-43.7	-46.2	18.3	0.00e+00	0	40	0	775946240	59	4681
2026-01-17 01:06:28.52	269.25	24.34	-43.5	-45.9	18.5	0.00e+00	0	40	0	781189120	59	4527
2026-01-17 01:06:31.52	268.55	24.08	-43.4	-45.8	18.7	0.00e+00	0	40	0	786432000	58	4752
2026-01-17 01:06:34.52	267.86	23.81	-43.3	-45.6	18.8	0.00e+00	0	40	0	792723456	58	4631
2026-01-17 01:06:37.52	267.18	23.53	-43.0	-45.3	19.1	0.00e+00	0	40	0	797966336	58	4487
2026-01-17 01:06:40.52	266.52	23.26	-42.8	-45.1	19.3	0.00e+00	0	39	0	803209216	57	4604
2026-01-17 01:06:43.52	265.86	22.99	-42.7	-45.0	19.4	0.00e+00	0	40	0	809500672	57	4561
2026-01-17 01:06:46.53	265.22	22.71	-42.8	-45.0	19.5	0.00e+00	0	40	0	814743552	57	4579
2026-01-17 01:06:49.53	264.58	22.44	-42.4	-44.5	19.8	0.00e+00	0	39	0	821035008	56	4584
2026-01-17 01:06:52.53	263.96	22.16	-42.0	-44.1	20.2	0.00e+00	0	40	0	826277888	56	4380
2026-01-17 01:06:55.52	263.36	21.88	-41.7	-43.9	20.2	0.00e+00	0	40	0	831520768	55	4500
2026-01-17 01:06:58.52	262.76	21.61	-41.8	-43.9	20.2	0.00e+00	0	40	0	837812224	55	4536
2026-01-17 01:07:01.53	262.17	21.33	-41.9	-44.0	20.1	0.00e+00	0	40	0	843055104	55	4567
2026-01-17 01:07:04.53	261.59	21.05	-41.7	-43.8	20.3	0.00e+00	0	40	0	848297984	55	4489
2026-01-17 01:07:07.53	261.02	20.77	-41.7	-43.9	20.3	0.00e+00	0	40	0	854589440	55	4504
2026-01-17 01:07:10.54	260.46	20.49	-41.9	-44.1	20.1	0.00e+00	0	40	0	859832320	55	4603
2026-01-17 01:07:13.54	259.92	20.22	-42.0	-44.2	20.0	0.00e+00	0	40	0	865075200	55	4657
2026-01-17 01:07:16.54	259.38	19.94	-41.9	-44.1	20.0	0.00e+00	0	40	0	871366656	55	4631
2026-01-17 01:07:19.55	258.85	19.66	-42.1	-44.3	19.8	0.00e+00	0	40	0	876609536	55	4745
2026-01-17 01:07:22.55	258.33	19.38	-42.4	-44.6	19.5	0.00e+00	0	40	0	882900992	55	4914
2026-01-17 01:07:25.55	257.82	19.11	-42.3	-44.6	19.6	0.00e+00	0	39	0	888143872	55	4877
2026-01-17 01:07:28.56	257.32	18.83	-42.5	-44.7	19.4	0.00e+00	0	40	0	893386752	55	4969
2026-01-17 01:07:31.56	256.83	18.56	-43.1	-45.5	18.8	0.00e+00	0	40	0	899678208	56	5125
2026-01-17 01:07:34.56	256.35	18.29	-43.3	-45.7	18.6	0.00e+00	0	39	0	904921088	57	4940
2026-01-17 01:07:37.56	255.88	18.01	-43.2	-45.6	18.7	0.00e+00	0	40	0	910163968	57	4923
2026-01-17 01:07:40.56	255.41	17.74	-43.2	-45.6	18.7	0.00e+00	0	40	0	916455424	57	4901
2026-01-17 01:07:43.57	254.96	17.47	-43.3	-45.7	18.6	0.00e+00	0	40	0	921698304	57	4947
2026-01-17 01:07:46.57	254.51	17.20	-43.3	-45.8	18.5	0.00e+00	0	40	0	927989760	57	4991
2026-01-17 01:07:49.57	254.07	16.94	-43.4	-45.8	18.5	0.00e+00	0	40	0	933232640	57	5013
2026-01-17 01:07:52.58	253.64	16.67	-43.4	-45.9	18.4	0.00e+00	0	40	0	938475520	57	5071
2026-01-17 01:07:55.58	253.21	16.40	-43.6	-46.1	18.2	0.00e+00	0	40	0	944766976	57	5183
2026-01-17 01:07:58.57	252.80	16.14	-43.8	-46.3	18.0	0.00e+00	0	40	0	950009856	58	5004
2026-01-17 01:08:01.58	252.39	15.88	-43.6	-46.1	18.2	0.00e+00	0	40	0	955252736	58	4893
2026-01-17 01:08:04.58	251.98	15.62	-43.7	-46.2	18.1	0.00e+00	0	40	0	961544192	58	4952
2026-01-17 01:08:07.58	251.59	15.36	-43.7	-46.3	18.0	0.00e+00	0	40	0	966787072	58	4994
2026-01-17 01:08:10.58	251.20	15.10	-44.0	-46.6	17.7	0.00e+00	0	40	0	972029952	58	5174
2026-01-17 01:08:13.59	250.82	14.84	-44.1	-46.7	17.5	0.00e+00	0	39	0	978321408	58	5267
2026-01-17 01:08:16.59	250.44	14.58	-44.0	-46.6	17.7	0.00e+00	0	40	0	983564288	58	5189
2026-01-17 01:08:19.60	250.07	14.33	-44.0	-46.7	17.6	0.00e+00	0	40	0	989855744	58	5222
2026-01-17 01:08:22.60	249.71	14.08	-44.2	-46.9	17.4	0.00e+00	0	40	0	995098624	59	5051
2026-01-17 01:08:25.60	249.35	13.83	-44.6	-47.4	16.9	0.00e+00	0	40	0	1000341504	59	5392
2026-01-17 01:08:28.61	249.00	13.57	-44.7	-47.7	16.6	0.00e+00	0	40	0	1006632960	60	5248
2026-01-17 01:08:31.61	248.66	13.33	-44.6	-47.6	16.8	0.00e+00	0	40	0	1011875840	60	5160
2026-01-17 01:08:34.61	248.32	13.08	-44.4	-47.3	17.0	0.00e+00	0	40	0	1017118720	60	5017
2026-01-17 01:08:37.61	247.99	12.83	-44.5	-47.4	16.9	0.00e+00	0	40	0	1023410176	60	5073
2026-01-17 01:08:40.61	247.66	12.59	-44.7	-47.6	16.7	0.00e+00	0	40	0	1028653056	60	5189
2026-01-17 01:08:43.61	247.34	12.35	-45.0	-47.9	16.3	0.00e+00	0	40	0	1034944512	60	5380
2026-01-17 01:08:46.62	247.02	12.11	-44.9	-47.9	16.4	0.00e+00	0	40	0	1040187392	60	5355
2026-01-17 01:08:49.62	246.71	11.87	-44.8	-47.7	16.6	0.00e+00	0	40	0	1045430272	60	5247
2026-01-17 01:08:52.62	246.41	11.63	-44.7	-47.7	16.6	0.00e+00	0	39	0	1051721728	60	5232
2026-01-17 01:08:55.62	246.11	11.39	-44.8	-47.9	16.4	0.00e+00	0	40	0	1056964608	60	5362
2026-01-17 01:08:58.62	245.81	11.16	-44.9	-48.1	16.2	0.00e+00	0	40	0	1062207488	60	5481
2026-01-17 01:09:01.62	245.52	10.93	-45.1	-48.3	16.0	0.00e+00	0	40	0	1068498944	60	5600
2026-01-17 01:09:04.63	245.23	10.69	-45.1	-48.3	16.0	0.00e+00	0	40	0	1073741824	60	5598
2026-01-17 01:09:07.63	244.95	10.46	-45.0	-48.1	16.1	0.00e+00	0	40	0	1078984704	60	5513
2026-01-17 01:09:10.63	244.67	10.24	-45.2	-48.3	15.9	0.00e+00	0	40	0	1085276160	60	5605
2026-01-17 01:09:13.64	244.40	10.01	-45.2	-48.3	15.8	0.00e+00	0	40	0	1090519040	61	5329
2026-01-17 01:09:16.64	244.13	9.78	-45.5	-48.7	15.5	0.00e+00	0	40	0	1096810496	61	5562
2026-01-17 01:09:19.65	243.87	9.56	-45.7	-49.0	15.2	0.00e+00	0	40	0	1102053376	61	5742
2026-01-17 01:09:22.65	243.61	9.33	-45.8	-49.1	15.0	0.00e+00	0	40	0	1107296256	62	5510
2026-01-17 01:09:25.66	243.35	9.11	-45.6	-49.0	15.1	0.00e+00	0	40	0	1113587712	62	5437
2026-01-17 01:09:28.66	243.10	8.89	-49.9	-65.6	3.8	1.49e+00	0	40	104	1117782016	71	21883
2026-01-17 01:09:31.65	242.85	8.67	-50.5	-65.9	3.8	1.49e+00	0	40	104	1117782016	71	22727
2026-01-17 01:09:34.64	242.61	8.46	-50.6	-66.0	3.8	1.49e+00	0	40	104	1117782016	72	21688
2026-01-17 01:09:37.63	242.37	8.24	-50.9	-66.1	3.8	1.49e+00	0	40	104	1117782016	72	21803
2026-01-17 01:09:40.62	242.13	8.03	-50.8	-66.1	3.8	1.49e+00	0	40	104	1117782016	72	21854
2026-01-17 01:09:43.60	241.90	7.82	-50.8	-66.1	3.8	1.49e+00	0	40	104	1117782016	72	21876
2026-01-17 01:09:46.59	241.67	7.60	-50.7	-66.1	3.8	1.49e+00	0	40	104	1117782016	72	21835
2026-01-17 01:09:49.58	241.44	7.39	-50.4	-66.0	3.8	1.49e+00	0	40	104	1117782016	72	21705
2026-01-17 01:09:52.57	241.22	7.19	-50.4	-66.0	3.8	1.49e+00	0	40	104	1117782016	72	21656
2026-01-17 01:09:55.56	241.00	6.98	-50.4	-66.0	3.8	1.49e+00	0	40	104	1117782016	72	21672
2026-01-17 01:09:58.55	240.78	6.77	-50.4	-66.0	3.8	1.49e+00	0	40	104	1117782016	72	21695
2026-01-17 01:10:01.55	240.57	6.57	-50.4	-66.0	3.8	1.49e+00	0	40	104	1117782016	72	21642
2026-01-17 01:10:04.53	240.36	6.36	-50.4	-66.0	3.8	1.49e+00	0	40	104	1117782016	72	21684
2026-01-17 01:10:07.53	240.15	6.16	-50.4	-66.0	3.8	1.49e+00	0	40	104	1117782016	72	21649
2026-01-17 01:10:10.52	239.95	5.96	-50.4	-66.0	3.8	1.49e+00	0	40	104	1117782016	72	21594
2026-01-17 01:10:13.51	239.75	5.76	-50.4	-66.0	3.8	1.49e+00	0	40	104	1117782016	72	21526
2026-01-17 01:10:16.50	239.55	5.56	-50.4	-65.9	3.8	1.49e+00	0	40	104	1117782016	72	21444
2026-01-17 01:10:19.49	239.35	5.36	-50.4	-66.0	3.8	1.49e+00	0	40	104	1117782016	72	21563
2026-01-17 01:10:22.48	239.16	5.17	-50.4	-65.9	3.8	1.49e+00	0	40	104	1117782016	72	21505
2026-01-17 01:10:25.47	238.97	4.97	-50.4	-65.9	3.8	1.49e+00	0	40	104	1117782016	72	21447

#Closed at: 2026-01-17 01:10:26
#Recorded file [1117 MB]: D:/Data/31040_260117_035843.dat