passes_logs/2026/01/17/T1/T1__20260117_002519_AQUA_rec.log

#Pass ID: 20260117_002519_AQUA
#Satellite: AQUA
#Configuration: AQUA
#almurnet v.1.7.20251203
#Start time: 2026-01-17 00:25:21

#Version: 2.0.20230620
#Station: T1
#Location: 37.570604 lon 55.790049 lat
#TLE: 1 27424U 02022A   26016.26443506  .00000711  00000+0  15228-3 0  9999
#TLE: 2 27424  98.4083 342.7130 0002022  76.7284  27.4473 14.61823291261073

#Time	Az	El	Level	Level2	SNR	BER	BlckErr	Temp	State	Recorded	gain1	gain2
2026-01-17 00:25:21.64	25.60	5.15	-49.8	-71.8	3.8	7.48e-01	0	41	0	0	70	47460
2026-01-17 00:25:24.63	25.81	5.36	-49.8	-71.9	3.8	7.48e-01	0	41	104	0	70	47757
2026-01-17 00:25:27.62	26.02	5.57	-49.8	-71.8	3.8	7.46e-01	0	41	104	0	70	47337
2026-01-17 00:25:30.61	26.24	5.78	-49.8	-71.8	3.8	7.47e-01	0	41	104	0	70	47461
2026-01-17 00:25:33.60	26.46	5.99	-49.8	-71.8	3.8	7.46e-01	0	41	104	0	70	47477
2026-01-17 00:25:36.59	26.68	6.20	-49.8	-71.7	3.8	7.46e-01	0	42	104	0	70	46886
2026-01-17 00:25:39.58	26.90	6.41	-49.8	-71.8	3.8	7.44e-01	0	42	104	0	70	47502
2026-01-17 00:25:42.57	27.13	6.63	-49.8	-71.7	3.8	7.48e-01	0	42	104	0	70	46925
2026-01-17 00:25:45.56	27.36	6.85	-49.6	-71.2	3.8	7.51e-01	0	42	104	0	70	44041
2026-01-17 00:25:48.54	27.60	7.06	-49.5	-70.0	3.8	7.47e-01	0	42	104	0	70	38514
2026-01-17 00:25:51.53	27.84	7.29	-49.7	-70.9	3.8	7.44e-01	0	42	104	0	70	42483
2026-01-17 00:25:54.52	28.08	7.51	-49.6	-71.3	3.8	7.44e-01	0	42	104	0	70	44716
2026-01-17 00:25:57.51	28.33	7.73	-48.9	-69.5	3.8	7.44e-01	0	42	104	0	69	38349
2026-01-17 00:26:00.50	28.58	7.96	-49.3	-69.5	3.8	7.45e-01	0	42	104	0	69	38391
2026-01-17 00:26:03.49	28.83	8.19	-49.4	-69.1	3.8	7.45e-01	0	42	104	0	69	36659
2026-01-17 00:26:06.48	29.09	8.42	-49.7	-68.0	4.3	7.32e-01	0	43	104	0	70	30597
2026-01-17 00:26:09.47	29.35	8.65	-49.6	-63.7	6.9	6.64e-01	0	43	0	1048576	70	18625
2026-01-17 00:26:12.46	29.62	8.88	-48.7	-56.8	13.9	6.06e-01	0	43	0	6815744	69	8906
2026-01-17 00:26:15.46	29.89	9.12	-47.7	-55.1	16.0	6.02e-01	0	43	0	12582912	67	8204
2026-01-17 00:26:18.46	30.17	9.36	-47.8	-54.6	14.9	6.05e-01	0	43	0	17825792	67	7737
2026-01-17 00:26:21.46	30.45	9.60	-44.7	-48.3	22.3	6.05e-01	0	42	0	23592960	61	5322
2026-01-17 00:26:24.46	30.74	9.84	-44.6	-48.1	22.4	6.04e-01	0	43	0	29360128	61	5195
2026-01-17 00:26:27.47	31.03	10.08	-44.7	-47.9	22.6	6.04e-01	0	43	0	35127296	61	5099
2026-01-17 00:26:30.47	31.33	10.33	-44.8	-47.9	22.8	6.03e-01	0	43	0	40370176	61	5050
2026-01-17 00:26:33.48	31.63	10.58	-44.9	-47.7	22.9	6.03e-01	0	43	0	46137344	61	4983
2026-01-17 00:26:36.48	31.94	10.83	-44.6	-47.6	22.9	6.00e-01	0	43	0	51904512	61	4919
2026-01-17 00:26:39.48	32.25	11.08	-44.4	-47.6	23.0	6.02e-01	0	43	0	57671680	60	5205
2026-01-17 00:26:42.48	32.57	11.34	-44.5	-47.5	23.2	6.02e-01	0	43	0	62914560	60	5134
2026-01-17 00:26:45.48	32.90	11.60	-44.5	-47.4	23.3	6.03e-01	0	43	0	68681728	60	5064
2026-01-17 00:26:48.48	33.23	11.86	-44.5	-47.4	23.2	6.04e-01	0	43	0	74448896	60	5100
2026-01-17 00:26:51.48	33.57	12.12	-44.6	-47.4	23.3	6.04e-01	0	43	0	79691776	60	5042
2026-01-17 00:26:54.48	33.91	12.38	-44.4	-47.4	23.4	6.03e-01	0	43	0	85458944	60	5048
2026-01-17 00:26:57.48	34.26	12.65	-44.3	-47.2	23.5	6.03e-01	0	43	0	91226112	60	4931
2026-01-17 00:27:00.49	34.62	12.92	-44.3	-46.9	23.8	6.04e-01	0	43	0	96993280	60	4806
2026-01-17 00:27:03.49	34.98	13.19	-44.0	-47.2	23.6	6.04e-01	0	43	0	102236160	59	5238
2026-01-17 00:27:06.49	35.35	13.47	-44.3	-47.5	23.3	6.04e-01	0	43	0	108003328	59	5426
2026-01-17 00:27:09.50	35.73	13.75	-44.1	-47.1	23.7	6.03e-01	0	43	0	113770496	59	5197
2026-01-17 00:27:12.50	36.11	14.03	-43.7	-47.1	23.7	6.03e-01	0	43	0	119537664	59	5169
2026-01-17 00:27:15.51	36.51	14.31	-43.6	-47.2	23.7	6.03e-01	0	43	0	124780544	59	5235
2026-01-17 00:27:18.51	36.91	14.59	-44.2	-47.2	23.7	6.02e-01	0	43	0	130547712	59	5227
2026-01-17 00:27:21.52	37.32	14.88	-44.1	-47.2	23.7	6.01e-01	0	43	0	136314880	59	5224
2026-01-17 00:27:24.52	37.73	15.17	-43.2	-47.0	23.8	6.03e-01	0	43	0	142082048	58	5433
2026-01-17 00:27:27.52	38.16	15.46	-43.2	-47.0	23.8	6.02e-01	0	43	0	147324928	58	5452
2026-01-17 00:27:30.52	38.59	15.75	-43.8	-47.1	23.7	6.04e-01	0	43	0	153092096	58	5512
2026-01-17 00:27:33.53	39.04	16.05	-43.6	-46.9	23.8	6.03e-01	0	43	0	158859264	58	5398
2026-01-17 00:27:36.53	39.49	16.35	-43.6	-46.9	23.9	6.05e-01	0	43	0	164626432	58	5355
2026-01-17 00:27:39.53	39.95	16.65	-43.9	-46.8	24.0	6.04e-01	0	43	0	169869312	58	5336
2026-01-17 00:27:42.53	40.42	16.96	-44.3	-46.9	24.0	6.04e-01	0	43	0	175636480	59	5057
2026-01-17 00:27:45.53	40.90	17.26	-44.4	-46.9	23.9	6.05e-01	0	43	0	181403648	59	5081
2026-01-17 00:27:48.53	41.39	17.57	-44.2	-46.8	24.1	6.04e-01	0	43	0	186646528	59	4985
2026-01-17 00:27:51.53	41.89	17.88	-44.3	-46.8	24.1	6.03e-01	0	43	0	192413696	59	5000
2026-01-17 00:27:54.53	42.41	18.20	-44.3	-46.8	23.9	6.04e-01	0	43	0	198180864	59	4989
2026-01-17 00:27:57.53	42.93	18.51	-44.2	-46.7	24.1	6.05e-01	0	43	0	203948032	59	4960
2026-01-17 00:28:00.53	43.46	18.83	-44.2	-46.7	24.1	6.05e-01	0	43	0	209190912	59	4958
2026-01-17 00:28:03.53	44.01	19.15	-44.2	-46.8	24.0	6.03e-01	0	43	0	214958080	59	5038
2026-01-17 00:28:06.53	44.57	19.48	-44.3	-46.8	24.1	6.03e-01	0	43	0	220725248	59	5025
2026-01-17 00:28:09.54	45.14	19.80	-44.3	-46.8	24.1	6.05e-01	0	43	0	226492416	59	5012
2026-01-17 00:28:12.54	45.73	20.13	-44.1	-46.7	24.1	6.03e-01	0	43	0	231735296	59	4976
2026-01-17 00:28:15.54	46.32	20.46	-44.3	-46.9	24.0	6.03e-01	0	43	0	237502464	59	5061
2026-01-17 00:28:18.54	46.93	20.79	-44.2	-46.8	24.1	6.06e-01	0	43	0	243269632	59	4986
2026-01-17 00:28:21.54	47.56	21.12	-44.4	-46.9	24.0	6.06e-01	0	43	0	249036800	59	5058
2026-01-17 00:28:24.53	48.19	21.45	-44.5	-47.0	23.9	6.05e-01	0	43	0	254279680	59	5151
2026-01-17 00:28:27.53	48.85	21.79	-44.5	-47.0	23.8	6.05e-01	0	43	0	260046848	59	5135
2026-01-17 00:28:30.53	49.51	22.12	-44.3	-46.8	24.1	6.05e-01	0	43	0	265814016	59	5014
2026-01-17 00:28:33.54	50.20	22.46	-44.6	-47.1	23.8	6.04e-01	0	43	0	271056896	59	5182
2026-01-17 00:28:36.54	50.89	22.80	-44.5	-47.1	23.9	6.03e-01	0	43	0	276824064	59	5172
2026-01-17 00:28:39.55	51.61	23.14	-44.5	-47.0	23.9	6.03e-01	0	43	0	282591232	59	5140
2026-01-17 00:28:42.55	52.34	23.48	-44.5	-47.0	23.9	6.02e-01	0	43	0	288358400	59	5149
2026-01-17 00:28:45.55	53.08	23.82	-44.5	-47.1	23.8	6.05e-01	0	43	0	294125568	60	4871
2026-01-17 00:28:48.55	53.85	24.16	-44.4	-47.0	23.9	6.03e-01	0	43	0	299368448	60	4821
2026-01-17 00:28:51.54	54.62	24.49	-44.4	-47.0	23.9	6.04e-01	0	43	0	305135616	60	4842
2026-01-17 00:28:54.54	55.42	24.83	-44.6	-47.1	23.8	6.04e-01	0	43	0	310902784	60	4907
2026-01-17 00:28:57.54	56.24	25.17	-44.5	-46.9	23.9	6.03e-01	0	43	0	316145664	60	4809
2026-01-17 00:29:00.55	57.07	25.51	-44.4	-46.9	24.0	6.02e-01	0	43	0	321912832	60	4764
2026-01-17 00:29:03.55	57.92	25.84	-44.4	-46.9	23.9	6.04e-01	0	43	0	327680000	60	4805
2026-01-17 00:29:06.55	58.79	26.17	-44.5	-47.1	23.8	6.05e-01	0	43	0	333447168	60	4891
2026-01-17 00:29:09.56	59.68	26.51	-44.6	-47.1	23.8	6.04e-01	0	43	0	338690048	60	4891
2026-01-17 00:29:12.56	60.59	26.83	-44.5	-47.1	23.7	6.05e-01	0	43	0	344457216	60	4910
2026-01-17 00:29:15.55	61.52	27.16	-44.4	-47.1	23.9	6.03e-01	0	43	0	350224384	60	4872
2026-01-17 00:29:18.56	62.47	27.48	-44.4	-46.9	24.0	6.03e-01	0	43	0	355991552	60	4763
2026-01-17 00:29:21.56	63.43	27.79	-44.4	-46.9	24.0	6.04e-01	0	43	0	361234432	60	4779
2026-01-17 00:29:24.56	64.42	28.10	-44.3	-46.8	24.1	6.05e-01	0	43	0	367001600	60	4717
2026-01-17 00:29:27.56	65.42	28.41	-44.3	-46.7	24.1	6.02e-01	0	43	0	372768768	60	4676
2026-01-17 00:29:30.56	66.45	28.71	-44.4	-46.8	24.0	6.04e-01	0	43	0	378011648	60	4755
2026-01-17 00:29:33.57	67.50	29.01	-44.3	-46.8	24.1	6.03e-01	0	43	0	383778816	60	4726
2026-01-17 00:29:36.58	68.56	29.29	-44.4	-46.8	24.0	6.05e-01	0	43	0	389545984	60	4754
2026-01-17 00:29:39.58	69.65	29.57	-44.2	-46.6	24.2	6.04e-01	0	43	0	395313152	60	4632
2026-01-17 00:29:42.58	70.75	29.85	-44.3	-46.8	24.1	6.03e-01	0	43	0	400556032	60	4713
2026-01-17 00:29:45.58	71.87	30.11	-44.2	-46.6	24.2	6.04e-01	0	43	0	406323200	60	4613
2026-01-17 00:29:48.59	73.02	30.36	-44.1	-46.5	24.3	6.04e-01	0	43	0	412090368	60	4597
2026-01-17 00:29:51.58	74.17	30.61	-44.2	-46.7	24.2	6.03e-01	0	43	0	417857536	59	4946
2026-01-17 00:29:54.58	75.35	30.84	-44.1	-46.5	24.4	6.03e-01	0	43	0	423100416	59	4845
2026-01-17 00:29:57.59	76.54	31.06	-44.1	-46.6	24.2	6.04e-01	0	43	0	428867584	59	4886
2026-01-17 00:30:00.59	77.75	31.28	-44.2	-46.6	24.3	6.04e-01	0	43	0	434634752	59	4896
2026-01-17 00:30:03.59	78.98	31.48	-44.0	-46.4	24.5	6.02e-01	0	43	0	439877632	59	4777
2026-01-17 00:30:06.59	80.22	31.66	-44.1	-46.5	24.4	6.05e-01	0	43	0	445644800	59	4832
2026-01-17 00:30:09.59	81.48	31.83	-43.8	-46.2	24.7	6.04e-01	0	43	0	451411968	59	4676
2026-01-17 00:30:12.59	82.74	31.99	-43.8	-46.3	24.5	6.03e-01	0	44	0	457179136	59	4753
2026-01-17 00:30:15.59	84.03	32.14	-43.8	-46.3	24.6	6.03e-01	0	43	0	462946304	59	4740
2026-01-17 00:30:18.59	85.32	32.27	-43.7	-46.2	24.7	6.02e-01	0	43	0	468189184	59	4652
2026-01-17 00:30:21.58	86.61	32.38	-43.6	-46.1	24.7	6.04e-01	0	43	0	473956352	59	4635
2026-01-17 00:30:24.59	87.93	32.48	-43.7	-46.1	24.7	6.04e-01	0	43	0	479723520	59	4634
2026-01-17 00:30:27.59	89.25	32.57	-43.6	-46.0	24.8	6.05e-01	0	44	0	484966400	59	4578
2026-01-17 00:30:30.59	90.57	32.64	-43.7	-46.0	24.8	6.03e-01	0	43	0	490733568	59	4571
2026-01-17 00:30:33.59	91.90	32.69	-43.5	-45.9	24.9	6.02e-01	0	43	0	496500736	59	4512
2026-01-17 00:30:36.58	93.23	32.72	-43.7	-46.0	24.8	6.04e-01	0	43	0	501743616	59	4578
2026-01-17 00:30:39.59	94.57	32.74	-43.5	-45.9	24.9	6.04e-01	0	43	0	507510784	58	4780
2026-01-17 00:30:42.59	95.91	32.74	-43.6	-45.9	24.9	6.03e-01	0	43	0	513277952	58	4768
2026-01-17 00:30:45.59	97.25	32.73	-43.5	-45.8	25.0	6.03e-01	0	43	0	519045120	58	4741
2026-01-17 00:30:48.59	98.58	32.70	-43.6	-46.0	24.9	6.04e-01	0	43	0	524288000	58	4815
2026-01-17 00:30:51.59	99.92	32.65	-43.4	-45.7	25.1	6.04e-01	0	44	0	530055168	58	4673
2026-01-17 00:30:54.59	101.24	32.59	-43.2	-45.5	25.2	6.02e-01	0	43	0	535822336	58	4564
2026-01-17 00:30:57.58	102.56	32.51	-43.3	-45.6	25.2	6.03e-01	0	43	0	541589504	58	4637
2026-01-17 00:31:00.59	103.88	32.41	-43.4	-45.7	25.1	6.05e-01	0	44	0	546832384	58	4665
2026-01-17 00:31:03.58	105.18	32.30	-43.3	-45.6	25.2	6.05e-01	0	43	0	552599552	58	4627
2026-01-17 00:31:06.59	106.48	32.17	-43.3	-45.6	25.2	6.05e-01	0	43	0	558366720	58	4630
2026-01-17 00:31:09.59	107.77	32.03	-43.3	-45.6	25.2	6.03e-01	0	43	0	563609600	58	4603
2026-01-17 00:31:12.59	109.04	31.87	-43.2	-45.5	25.2	6.04e-01	0	43	0	569376768	58	4591
2026-01-17 00:31:15.59	110.30	31.70	-43.5	-45.8	25.0	6.02e-01	0	44	0	575143936	58	4723
2026-01-17 00:31:18.59	111.55	31.52	-43.1	-45.4	25.4	6.03e-01	0	43	0	580911104	58	4529
2026-01-17 00:31:21.60	112.78	31.32	-43.2	-45.6	25.2	6.02e-01	0	43	0	586678272	58	4616
2026-01-17 00:31:24.61	114.00	31.11	-43.1	-45.4	25.3	6.02e-01	0	43	0	591921152	58	4522
2026-01-17 00:31:27.61	115.20	30.89	-43.1	-45.4	25.3	6.04e-01	0	43	0	597688320	57	4792
2026-01-17 00:31:30.61	116.39	30.65	-43.3	-45.6	25.2	6.03e-01	0	44	0	603455488	57	4880
2026-01-17 00:31:33.62	117.56	30.41	-43.3	-45.6	25.2	6.02e-01	0	43	0	609222656	57	4894
2026-01-17 00:31:36.62	118.71	30.16	-43.2	-45.5	25.2	6.02e-01	0	43	0	614465536	57	4843
2026-01-17 00:31:39.63	119.84	29.89	-43.1	-45.4	25.3	6.05e-01	0	43	0	620232704	57	4795
2026-01-17 00:31:42.64	120.95	29.62	-43.3	-45.6	25.2	6.03e-01	0	43	0	625999872	57	4873
2026-01-17 00:31:45.64	122.04	29.34	-43.2	-45.5	25.2	6.06e-01	0	44	0	631242752	57	4829
2026-01-17 00:31:48.64	123.12	29.05	-43.4	-45.7	25.1	6.03e-01	0	43	0	637009920	57	4936
2026-01-17 00:31:51.65	124.17	28.76	-43.2	-45.4	25.3	6.04e-01	0	44	0	642777088	57	4794
2026-01-17 00:31:54.65	125.20	28.46	-43.6	-45.9	24.9	6.05e-01	0	43	0	648544256	57	5052
2026-01-17 00:31:57.65	126.22	28.15	-43.4	-45.7	25.0	6.05e-01	0	43	0	654311424	57	4971
2026-01-17 00:32:00.65	127.21	27.84	-43.6	-45.9	24.9	6.03e-01	0	43	0	659554304	57	5086
2026-01-17 00:32:03.65	128.18	27.52	-43.5	-45.9	24.9	6.03e-01	0	43	0	665321472	57	5047
2026-01-17 00:32:06.65	129.14	27.20	-43.5	-45.9	24.9	6.05e-01	0	43	0	671088640	57	5065
2026-01-17 00:32:09.66	130.08	26.87	-43.6	-46.0	24.8	6.03e-01	0	43	0	676331520	58	4859
2026-01-17 00:32:12.65	130.99	26.55	-43.6	-46.0	24.8	6.05e-01	0	43	0	682098688	58	4822
2026-01-17 00:32:15.65	131.88	26.21	-43.6	-46.0	24.8	6.03e-01	0	43	0	687865856	58	4835
2026-01-17 00:32:18.64	132.76	25.88	-43.7	-46.1	24.7	6.06e-01	0	43	0	693633024	58	4874
2026-01-17 00:32:21.65	133.62	25.54	-43.9	-46.4	24.4	6.05e-01	0	43	0	698875904	58	5065
2026-01-17 00:32:24.65	134.46	25.20	-43.7	-46.1	24.7	6.04e-01	0	43	0	704643072	58	4892
2026-01-17 00:32:27.65	135.28	24.87	-43.8	-46.2	24.5	6.02e-01	0	43	0	710410240	58	4976
2026-01-17 00:32:30.66	136.09	24.52	-43.7	-46.1	24.7	6.04e-01	0	43	0	716177408	58	4907
2026-01-17 00:32:33.66	136.87	24.18	-44.0	-46.4	24.4	6.06e-01	0	43	0	721420288	58	5073
2026-01-17 00:32:36.66	137.64	23.84	-43.9	-46.3	24.5	6.03e-01	0	43	0	727187456	58	5027
2026-01-17 00:32:39.67	138.40	23.50	-43.8	-46.2	24.5	6.03e-01	0	43	0	732954624	58	4967
2026-01-17 00:32:42.66	139.13	23.16	-43.9	-46.3	24.5	6.03e-01	0	43	0	738197504	58	4997
2026-01-17 00:32:45.67	139.85	22.81	-43.8	-46.1	24.6	6.06e-01	0	44	0	743964672	58	4916
2026-01-17 00:32:48.68	140.56	22.47	-43.7	-46.1	24.7	6.03e-01	0	43	0	749731840	58	4893
2026-01-17 00:32:51.68	141.24	22.13	-43.8	-46.2	24.6	6.05e-01	0	43	0	755499008	58	4933
2026-01-17 00:32:54.67	141.91	21.80	-43.8	-46.2	24.5	6.06e-01	0	43	0	760741888	58	4983
2026-01-17 00:32:57.67	142.57	21.46	-43.9	-46.3	24.5	6.05e-01	0	43	0	766509056	58	5028
2026-01-17 00:33:00.68	143.21	21.12	-43.8	-46.2	24.5	6.03e-01	0	43	0	772276224	58	4973
2026-01-17 00:33:03.68	143.84	20.79	-43.7	-46.1	24.7	6.04e-01	0	43	0	778043392	58	4882
2026-01-17 00:33:06.68	144.46	20.45	-43.5	-45.9	24.8	6.03e-01	0	43	0	783286272	58	4799
2026-01-17 00:33:09.68	145.06	20.12	-43.6	-46.1	24.6	6.04e-01	0	43	0	789053440	58	4923
2026-01-17 00:33:12.69	145.65	19.79	-43.7	-46.2	24.6	6.04e-01	0	43	0	794820608	58	4936
2026-01-17 00:33:15.69	146.22	19.46	-43.6	-46.1	24.6	6.03e-01	0	43	0	800587776	58	4894
2026-01-17 00:33:18.70	146.79	19.14	-43.6	-46.0	24.7	6.04e-01	0	43	0	805830656	58	4841
2026-01-17 00:33:21.70	147.34	18.81	-43.6	-45.9	24.7	6.04e-01	0	43	0	811597824	58	4801
2026-01-17 00:33:24.70	147.88	18.49	-43.5	-45.9	24.8	6.04e-01	0	43	0	817364992	58	4788
2026-01-17 00:33:27.71	148.40	18.17	-43.6	-45.9	24.7	6.05e-01	0	43	0	823132160	58	4812
2026-01-17 00:33:30.71	148.92	17.85	-43.7	-46.2	24.5	6.04e-01	0	43	0	828375040	58	4929
2026-01-17 00:33:33.71	149.42	17.54	-43.6	-45.9	24.7	6.02e-01	0	43	0	834142208	58	4804
2026-01-17 00:33:36.72	149.92	17.23	-43.7	-46.1	24.6	6.04e-01	0	43	0	839909376	58	4878
2026-01-17 00:33:39.72	150.40	16.92	-43.6	-46.0	24.7	6.00e-01	0	43	0	845152256	58	4832
2026-01-17 00:33:42.72	150.88	16.61	-43.6	-46.1	24.6	6.02e-01	0	43	0	850919424	58	4873
2026-01-17 00:33:45.72	151.34	16.31	-43.6	-46.0	24.6	6.03e-01	0	43	0	856686592	58	4852
2026-01-17 00:33:48.72	151.79	16.00	-43.6	-46.0	24.6	6.04e-01	0	43	0	862453760	58	4837
2026-01-17 00:33:51.72	152.24	15.70	-43.5	-45.9	24.7	6.03e-01	0	44	0	867696640	58	4799
2026-01-17 00:33:54.72	152.67	15.41	-43.6	-46.0	24.6	6.05e-01	0	43	0	873463808	58	4864
2026-01-17 00:33:57.72	153.10	15.11	-43.6	-46.0	24.6	6.05e-01	0	43	0	879230976	58	4865
2026-01-17 00:34:00.73	153.52	14.82	-43.5	-46.0	24.5	6.06e-01	0	43	0	884998144	58	4863
2026-01-17 00:34:03.73	153.93	14.53	-43.6	-46.1	24.5	6.04e-01	0	43	0	890241024	58	4917
2026-01-17 00:34:06.74	154.33	14.24	-43.5	-46.0	24.5	6.04e-01	0	43	0	896008192	58	4870
2026-01-17 00:34:09.74	154.73	13.96	-43.6	-46.1	24.5	6.01e-01	0	44	0	901775360	58	4891
2026-01-17 00:34:12.75	155.11	13.68	-43.7	-46.1	24.5	6.02e-01	0	44	0	907542528	58	4925
2026-01-17 00:34:15.76	155.49	13.40	-43.6	-46.1	24.5	6.03e-01	0	43	0	912785408	58	4906
2026-01-17 00:34:18.76	155.86	13.12	-43.8	-46.3	24.3	6.01e-01	0	44	0	918552576	58	4994
2026-01-17 00:34:21.76	156.23	12.85	-44.0	-46.5	24.1	6.04e-01	0	43	0	924319744	58	5113
2026-01-17 00:34:24.76	156.58	12.57	-44.0	-46.5	24.1	6.04e-01	0	44	0	930086912	58	5128
2026-01-17 00:34:27.76	156.93	12.30	-44.1	-46.6	24.1	6.04e-01	0	43	0	935329792	59	4872
2026-01-17 00:34:30.76	157.28	12.04	-44.1	-46.6	23.9	6.01e-01	0	44	0	941096960	59	4926
2026-01-17 00:34:33.76	157.61	11.77	-44.2	-46.7	23.9	6.05e-01	0	43	0	946864128	59	4931
2026-01-17 00:34:36.77	157.95	11.51	-44.2	-46.7	23.8	6.02e-01	0	43	0	952107008	59	4945
2026-01-17 00:34:39.77	158.27	11.25	-44.2	-46.7	23.9	6.03e-01	0	43	0	957874176	59	4956
2026-01-17 00:34:42.77	158.59	10.99	-44.2	-46.8	23.8	6.04e-01	0	43	0	963641344	59	4999
2026-01-17 00:34:45.78	158.90	10.74	-44.2	-46.7	23.7	6.03e-01	0	44	0	969408512	59	4979
2026-01-17 00:34:48.78	159.21	10.48	-44.3	-46.9	23.6	6.03e-01	0	43	0	974651392	59	5078
2026-01-17 00:34:51.78	159.51	10.23	-44.2	-46.8	23.6	6.03e-01	0	43	0	980418560	60	4734
2026-01-17 00:34:54.79	159.81	9.98	-44.2	-46.8	19.7	6.04e-01	0	43	0	986185728	60	4721
2026-01-17 00:34:57.79	160.10	9.74	-44.2	-46.8	23.6	6.02e-01	0	43	0	991952896	60	4735
2026-01-17 00:35:00.79	160.39	9.49	-44.3	-46.9	23.5	6.02e-01	0	43	0	997195776	60	4797
2026-01-17 00:35:03.79	160.67	9.25	-44.5	-47.2	23.2	6.00e-01	0	43	0	1002962944	60	4934
2026-01-17 00:35:06.79	160.95	9.01	-49.8	-55.2	17.1	6.04e-01	0	44	0	1008730112	69	7434
2026-01-17 00:35:09.78	161.22	8.77	-51.8	-72.2	3.8	7.48e-01	0	43	104	1008730112	74	39147
2026-01-17 00:35:12.77	161.49	8.54	-51.7	-72.4	3.8	7.51e-01	0	43	104	1008730112	75	38237
2026-01-17 00:35:15.75	161.75	8.30	-52.5	-72.6	3.8	7.46e-01	0	43	104	1008730112	75	38697
2026-01-17 00:35:18.74	162.00	8.07	-52.6	-72.7	3.8	7.44e-01	0	44	104	1008730112	76	36991
2026-01-17 00:35:21.74	162.26	7.84	-52.5	-72.7	3.8	7.45e-01	0	43	104	1008730112	76	37112
2026-01-17 00:35:24.73	162.51	7.61	-52.1	-72.6	3.8	7.44e-01	0	43	104	1008730112	75	39112
2026-01-17 00:35:27.72	162.75	7.39	-52.5	-72.7	3.8	7.45e-01	0	43	104	1008730112	76	37029
2026-01-17 00:35:30.70	162.99	7.16	-51.5	-72.6	3.8	7.47e-01	0	43	104	1008730112	7
