passes_logs/2026/01/17/T1/T1__20260117_090910_NOAA_20_JPSS-1_rec.log

#Pass ID: 20260117_090910_NOAA 20 (JPSS-1)
#Satellite: NOAA 20 (JPSS-1)
#Configuration: NOAA 20
#almurnet v.1.7.20251203
#Start time: 2026-01-17 09:09:09

#Version: 2.0.20230620
#Station: T1
#Location: 37.570604 lon 55.790049 lat
#TLE: 1 43013U 17073A   26016.24631778  .00000038  00000+0  39093-4 0  9990
#TLE: 2 43013  98.7637 317.1726 0001455  37.6755 322.4523 14.19536243422915

#Time	Az	El	Level	Level2	SNR	BER	BlckErr	Temp	State	Recorded	gain1	gain2
2026-01-17 09:09:09.85	135.96	4.97	-49.9	-65.1	3.8	1.49e+00	0	36	0	0	71	20547
2026-01-17 09:09:12.83	135.84	5.18	-49.9	-65.1	3.8	1.49e+00	0	36	104	0	71	20734
2026-01-17 09:09:15.81	135.72	5.39	-49.7	-65.1	3.8	1.49e+00	0	37	104	0	71	20734
2026-01-17 09:09:18.79	135.60	5.60	-49.7	-65.1	3.8	1.49e+00	0	37	104	0	71	20752
2026-01-17 09:09:21.77	135.48	5.81	-49.9	-65.1	3.8	1.49e+00	0	37	104	0	71	20711
2026-01-17 09:09:24.75	135.35	6.02	-49.6	-64.9	3.8	1.49e+00	0	37	104	0	71	20242
2026-01-17 09:09:27.73	135.22	6.24	-49.8	-64.7	3.8	1.49e+00	0	37	104	0	71	19708
2026-01-17 09:09:30.71	135.09	6.45	-49.6	-64.6	3.8	1.49e+00	0	37	104	0	71	19424
2026-01-17 09:09:33.69	134.96	6.67	-49.6	-64.9	3.8	1.49e+00	0	37	104	0	71	20181
2026-01-17 09:09:36.67	134.82	6.89	-49.7	-65.1	3.8	1.49e+00	0	37	104	0	71	20569
2026-01-17 09:09:39.65	134.68	7.11	-49.8	-64.4	3.8	1.49e+00	0	37	104	0	71	19152
2026-01-17 09:09:42.63	134.54	7.34	-49.7	-63.2	3.8	1.49e+00	0	37	104	0	71	16555
2026-01-17 09:09:45.61	134.40	7.56	-49.5	-60.5	4.5	1.30e+00	0	37	0	0	70	12835
2026-01-17 09:09:48.59	134.26	7.79	-48.6	-55.6	8.2	1.19e-01	0	38	0	6291456	68	8216
2026-01-17 09:09:51.57	134.11	8.02	-46.8	-51.3	12.4	4.07e-04	0	38	0	11534336	65	5962
2026-01-17 09:09:54.55	133.96	8.25	-45.4	-48.9	15.0	7.00e-07	0	38	0	16777216	62	5369
2026-01-17 09:09:57.53	133.81	8.48	-45.0	-48.3	15.5	0.00e+00	0	38	0	23068672	62	5024
2026-01-17 09:10:00.51	133.66	8.72	-46.0	-49.8	14.1	7.00e-07	0	38	0	28311552	62	5970
2026-01-17 09:10:03.49	133.50	8.95	-47.6	-52.9	10.8	8.20e-04	0	38	0	33554432	65	7167
2026-01-17 09:10:06.47	133.34	9.19	-46.0	-49.6	14.2	4.50e-06	0	38	0	39845888	63	5521
2026-01-17 09:10:09.50	133.18	9.44	-47.2	-52.0	11.8	3.68e-03	0	38	0	42991616	66	6072
2026-01-17 09:10:12.49	133.01	9.68	-47.0	-51.7	12.0	6.32e-04	0	38	0	49283072	66	5888
2026-01-17 09:10:15.47	132.84	9.92	-46.1	-49.9	14.0	1.50e-06	0	38	0	54525952	63	5706
2026-01-17 09:10:18.46	132.67	10.17	-46.0	-49.7	14.3	7.00e-07	0	38	0	59768832	63	5547
2026-01-17 09:10:21.44	132.50	10.42	-45.0	-48.1	15.9	0.00e+00	0	38	0	66060288	62	4890
2026-01-17 09:10:24.43	132.32	10.68	-44.3	-47.1	16.8	0.00e+00	0	38	0	71303168	60	4924
2026-01-17 09:10:27.47	132.14	10.94	-44.2	-47.0	16.9	0.00e+00	0	38	0	76546048	60	4862
2026-01-17 09:10:30.53	131.95	11.20	-44.4	-47.3	16.8	0.00e+00	0	38	0	82837504	60	4995
2026-01-17 09:10:33.38	131.77	11.45	-44.5	-47.4	16.6	0.00e+00	0	38	0	88080384	60	5086
2026-01-17 09:10:36.50	131.57	11.72	-44.2	-47.1	17.0	0.00e+00	0	38	0	94371840	60	4883
2026-01-17 09:10:39.35	131.38	11.97	-44.1	-46.9	17.2	0.00e+00	0	38	0	99614720	60	4769
2026-01-17 09:10:42.79	131.16	12.28	-44.0	-46.8	17.3	0.00e+00	0	39	0	105906176	60	4727
2026-01-17 09:10:45.49	130.97	12.53	-44.0	-46.8	17.3	0.00e+00	0	38	0	111149056	60	4720
2026-01-17 09:10:48.75	130.75	12.82	-43.7	-46.4	17.6	0.00e+00	0	39	0	116391936	59	4762
2026-01-17 09:10:51.50	130.55	13.08	-43.3	-46.4	17.6	0.00e+00	0	39	0	121634816	58	5093
2026-01-17 09:10:54.77	130.32	13.38	-42.6	-46.6	17.4	0.00e+00	0	38	0	127926272	57	5495
2026-01-17 09:10:57.73	130.10	13.66	-43.6	-46.5	17.5	0.00e+00	0	38	0	133169152	57	5432
2026-01-17 09:11:01.25	129.84	14.00	-43.8	-46.4	17.7	0.00e+00	0	38	0	140509184	58	5063
2026-01-17 09:11:03.95	129.63	14.26	-43.8	-46.4	17.7	0.00e+00	0	38	0	145752064	58	5071
2026-01-17 09:11:07.21	129.38	14.57	-43.8	-46.4	17.7	0.00e+00	0	39	0	150994944	58	5067
2026-01-17 09:11:09.92	129.16	14.84	-43.7	-46.4	17.7	0.00e+00	0	39	0	156237824	58	5064
2026-01-17 09:11:13.14	128.90	15.16	-43.7	-46.3	17.8	0.00e+00	0	39	0	162529280	58	5017
2026-01-17 09:11:15.98	128.67	15.44	-43.7	-46.3	17.8	0.00e+00	0	38	0	167772160	58	5006
2026-01-17 09:11:19.12	128.40	15.76	-43.8	-46.4	17.7	0.00e+00	0	39	0	174063616	58	5065
2026-01-17 09:11:21.96	128.16	16.05	-43.6	-46.2	17.9	0.00e+00	0	38	0	179306496	58	4948
2026-01-17 09:11:25.02	127.89	16.37	-43.9	-46.5	17.6	0.00e+00	0	39	0	184549376	58	5146
2026-01-17 09:11:28.01	127.62	16.68	-44.0	-46.6	17.6	0.00e+00	0	38	0	190840832	58	5179
2026-01-17 09:11:30.99	127.34	17.00	-44.0	-46.6	17.6	0.00e+00	0	39	0	196083712	58	5171
2026-01-17 09:11:33.98	127.06	17.32	-43.8	-46.3	17.9	0.00e+00	0	39	0	201326592	58	4988
2026-01-17 09:11:36.97	126.78	17.64	-44.0	-46.5	17.6	0.00e+00	0	39	0	207618048	58	5157
2026-01-17 09:11:39.95	126.48	17.96	-44.1	-46.7	17.4	0.00e+00	0	39	0	212860928	58	5259
2026-01-17 09:11:42.94	126.18	18.29	-43.7	-46.1	18.0	0.00e+00	0	39	0	218103808	58	4924
2026-01-17 09:11:45.92	125.88	18.63	-44.0	-46.6	17.6	0.00e+00	0	39	0	224395264	58	5166
2026-01-17 09:11:48.97	125.56	18.97	-44.1	-46.7	17.5	0.00e+00	0	39	0	229638144	58	5255
2026-01-17 09:11:51.86	125.25	19.30	-43.9	-46.4	17.7	0.00e+00	0	39	0	234881024	58	5098
2026-01-17 09:11:54.99	124.90	19.66	-44.1	-46.9	17.3	0.00e+00	0	39	0	241172480	59	5075
2026-01-17 09:11:57.83	124.58	19.99	-44.0	-46.7	17.5	0.00e+00	0	39	0	246415360	59	4950
2026-01-17 09:12:00.95	124.22	20.36	-43.9	-46.6	17.6	0.00e+00	0	39	0	252706816	59	4874
2026-01-17 09:12:03.88	123.88	20.71	-44.1	-46.7	17.5	0.00e+00	0	39	0	257949696	59	4962
2026-01-17 09:12:07.01	123.50	21.09	-43.9	-46.5	17.7	0.00e+00	0	39	0	263192576	59	4823
2026-01-17 09:12:09.85	123.15	21.43	-44.0	-46.6	17.6	0.00e+00	0	39	0	268435456	59	4914
2026-01-17 09:12:12.98	122.75	21.82	-44.1	-46.8	17.4	0.00e+00	0	39	0	274726912	59	4996
2026-01-17 09:12:15.82	122.38	22.17	-44.1	-46.7	17.5	0.00e+00	0	39	0	279969792	59	4963
2026-01-17 09:12:18.95	121.97	22.57	-44.1	-46.7	17.5	0.00e+00	0	39	0	286261248	59	4938
2026-01-17 09:12:21.79	121.58	22.93	-43.9	-46.5	17.7	0.00e+00	0	39	0	291504128	59	4838
2026-01-17 09:12:24.92	121.14	23.33	-44.2	-46.8	17.4	0.00e+00	0	39	0	296747008	59	5022
2026-01-17 09:12:27.76	120.74	23.70	-44.0	-46.6	17.6	0.00e+00	0	39	0	301989888	59	4910
2026-01-17 09:12:30.92	120.27	24.12	-44.2	-46.9	17.4	0.00e+00	0	39	0	308281344	59	5054
2026-01-17 09:12:33.83	119.83	24.50	-44.0	-46.6	17.7	0.00e+00	0	39	0	313524224	59	4886
2026-01-17 09:12:37.08	119.33	24.94	-44.0	-46.6	17.6	0.00e+00	0	39	0	319815680	59	4894
2026-01-17 09:12:39.95	118.87	25.33	-44.2	-46.9	17.4	0.00e+00	0	39	0	325058560	59	5072
2026-01-17 09:12:43.11	118.36	25.76	-44.3	-47.0	17.3	0.00e+00	0	39	0	331350016	59	5105
2026-01-17 09:12:46.00	117.87	26.16	-44.3	-47.0	17.3	0.00e+00	0	39	0	336592896	59	5112
2026-01-17 09:12:49.09	117.34	26.59	-44.3	-46.9	17.4	0.00e+00	0	39	0	342884352	59	5059
2026-01-17 09:12:52.25	116.78	27.04	-44.4	-47.0	17.3	0.00e+00	0	39	0	348127232	59	5138
2026-01-17 09:12:55.10	116.26	27.44	-44.6	-47.3	17.0	0.00e+00	0	39	0	353370112	59	5319
2026-01-17 09:12:58.26	115.67	27.89	-44.8	-47.6	16.7	0.00e+00	0	39	0	359661568	60	5199
2026-01-17 09:13:01.39	115.07	28.35	-45.0	-48.0	16.4	0.00e+00	0	39	0	365953024	60	5440
2026-01-17 09:13:04.23	114.51	28.76	-45.2	-48.2	16.2	0.00e+00	0	39	0	371195904	60	5573
2026-01-17 09:13:07.35	113.88	29.22	-45.8	-49.2	15.2	0.00e+00	0	39	0	376438784	62	5571
2026-01-17 09:13:10.21	113.28	29.64	-46.2	-49.8	14.6	0.00e+00	0	39	0	381681664	63	5627
2026-01-17 09:13:13.75	112.52	30.17	-46.7	-50.8	13.5	4.50e-06	0	39	0	389021696	64	5962
2026-01-17 09:13:16.45	111.92	30.57	-46.5	-50.5	13.9	3.00e-06	0	39	0	393216000	64	5753
2026-01-17 09:13:19.72	111.18	31.07	-46.6	-50.5	13.9	5.30e-06	0	39	0	399507456	64	5728
2026-01-17 09:13:22.43	110.54	31.48	-46.5	-50.3	14.1	1.50e-06	0	39	0	404750336	64	5606
2026-01-17 09:13:25.71	109.75	31.98	-46.4	-50.1	14.2	7.00e-07	0	39	0	411041792	64	5527
2026-01-17 09:13:28.42	109.08	32.39	-46.4	-50.2	14.1	1.50e-06	0	39	0	416284672	64	5563
2026-01-17 09:13:31.96	108.17	32.93	-46.6	-50.4	13.9	4.50e-06	0	39	0	422576128	64	5712
2026-01-17 09:13:34.66	107.46	33.35	-46.2	-49.8	14.5	3.00e-06	0	39	0	427819008	64	5302
2026-01-17 09:13:37.93	106.58	33.85	-46.0	-49.4	15.0	0.00e+00	0	39	0	434110464	63	5370
2026-01-17 09:13:40.63	105.83	34.27	-45.5	-48.6	15.9	0.00e+00	0	39	0	439353344	62	5179
2026-01-17 09:13:44.12	104.83	34.80	-45.2	-48.2	16.2	0.00e+00	0	39	0	445644800	62	4966
2026-01-17 09:13:47.18	103.92	35.27	-44.9	-47.7	16.7	0.00e+00	0	39	0	450887680	61	4982
2026-01-17 09:13:50.34	102.96	35.76	-44.6	-47.3	17.0	0.00e+00	0	39	0	457179136	61	4755
2026-01-17 09:13:53.33	102.02	36.21	-44.8	-47.7	16.7	0.00e+00	0	39	0	462422016	61	4960
2026-01-17 09:13:56.32	101.06	36.66	-44.9	-47.8	16.6	0.00e+00	0	39	0	468713472	61	5004
2026-01-17 09:13:59.30	100.07	37.11	-45.1	-48.1	16.4	0.00e+00	0	39	0	473956352	61	5169
2026-01-17 09:14:02.29	99.06	37.56	-45.3	-48.4	16.0	0.00e+00	0	39	0	479199232	61	5355
2026-01-17 09:14:05.57	97.91	38.04	-45.0	-47.9	16.5	0.00e+00	0	39	0	485490688	61	5071
2026-01-17 09:14:08.28	96.93	38.44	-45.2	-48.3	16.2	0.00e+00	0	39	0	490733568	61	5296
2026-01-17 09:14:11.54	95.73	38.90	-45.5	-48.6	15.8	0.00e+00	0	39	0	497025024	62	5212
2026-01-17 09:14:14.26	94.69	39.29	-45.2	-48.3	16.2	0.00e+00	0	39	0	502267904	62	4989
2026-01-17 09:14:17.52	93.42	39.74	-44.8	-47.7	16.8	0.00e+00	0	39	0	508559360	61	4929
2026-01-17 09:14:20.32	92.31	40.11	-44.4	-47.1	17.3	0.00e+00	0	39	0	513802240	60	4903
2026-01-17 09:14:23.72	90.91	40.56	-44.0	-46.5	17.8	0.00e+00	0	39	0	520093696	59	4870
2026-01-17 09:14:26.49	89.75	40.92	-43.6	-46.1	18.2	0.00e+00	0	39	0	525336576	59	4630
2026-01-17 09:14:29.85	88.30	41.33	-43.7	-46.2	18.1	0.00e+00	0	39	0	531628032	59	4705
2026-01-17 09:14:32.60	87.09	41.66	-43.6	-46.1	18.2	0.00e+00	0	39	0	536870912	58	4917
2026-01-17 09:14:35.87	85.62	42.03	-44.4	-47.1	17.2	0.00e+00	0	39	0	543162368	59	5197
2026-01-17 09:14:38.79	84.28	42.35	-44.5	-47.3	17.1	0.00e+00	0	39	0	548405248	59	5312
2026-01-17 09:14:42.77	82.41	42.76	-44.1	-46.7	17.7	0.00e+00	0	39	0	555745280	59	4955
2026-01-17 09:14:45.61	81.04	43.03	-44.3	-47.0	17.4	0.00e+00	0	39	0	560988160	59	5146
2026-01-17 09:14:49.58	79.10	43.39	-44.2	-46.7	17.6	0.00e+00	0	39	0	568328192	59	4982
2026-01-17 09:14:52.64	77.57	43.64	-43.5	-45.9	18.4	0.00e+00	0	39	0	573571072	59	4531
2026-01-17 09:14:56.60	75.56	43.93	-43.9	-46.4	18.0	0.00e+00	0	39	0	581959680	59	4770
2026-01-17 09:14:59.82	73.90	44.13	-44.2	-46.9	17.6	0.00e+00	0	39	0	587202560	59	5046
2026-01-17 09:15:02.67	72.42	44.30	-44.4	-47.0	17.4	0.00e+00	0	39	0	592445440	59	5128
2026-01-17 09:15:05.79	70.77	44.45	-44.5	-47.1	17.2	0.00e+00	0	39	0	598736896	59	5209
2026-01-17 09:15:08.65	69.25	44.57	-44.8	-47.6	16.8	0.00e+00	0	39	0	603979776	60	5210
2026-01-17 09:15:11.91	67.51	44.67	-44.8	-47.6	16.9	0.00e+00	0	39	0	610271232	60	5191
2026-01-17 09:15:14.85	65.93	44.74	-44.9	-47.7	16.8	0.00e+00	0	39	0	615514112	60	5231
2026-01-17 09:15:18.32	64.06	44.80	-45.2	-48.1	16.4	0.00e+00	0	39	0	621805568	60	5486
2026-01-17 09:15:21.02	62.60	44.81	-45.4	-48.4	16.1	0.00e+00	0	39	0	627048448	61	5396
2026-01-17 09:15:24.29	60.83	44.80	-45.6	-48.7	15.8	0.00e+00	0	39	0	633339904	62	5252
2026-01-17 09:15:27.07	59.33	44.77	-45.9	-49.1	15.4	0.00e+00	0	39	0	638582784	62	5490
2026-01-17 09:15:30.54	57.46	44.71	-46.0	-49.3	15.2	0.00e+00	0	39	0	644874240	63	5326
2026-01-17 09:15:33.26	56.00	44.63	-46.1	-49.5	15.0	0.00e+00	0	39	0	650117120	63	5451
2026-01-17 09:15:36.59	54.22	44.51	-46.1	-49.5	15.1	7.00e-07	0	39	0	656408576	63	5422
2026-01-17 09:15:39.31	52.79	44.39	-46.5	-50.0	14.5	7.00e-07	0	39	0	661651456	63	5779
2026-01-17 09:15:42.59	51.07	44.21	-46.1	-49.5	14.9	0.00e+00	0	39	0	667942912	64	5149
2026-01-17 09:15:45.62	49.50	44.03	-45.9	-49.1	15.5	0.00e+00	0	39	0	673185792	63	5179
2026-01-17 09:15:48.89	47.83	43.81	-45.3	-48.3	16.2	0.00e+00	0	39	0	679477248	62	4986
2026-01-17 09:15:51.73	46.40	43.59	-44.6	-47.4	17.1	0.00e+00	0	39	0	684720128	61	4791
2026-01-17 09:15:54.86	44.84	43.33	-44.1	-46.7	17.7	0.00e+00	0	39	0	691011584	60	4659
2026-01-17 09:15:57.73	43.44	43.08	-44.1	-46.7	17.7	0.00e+00	0	39	0	696254464	59	4949
2026-01-17 09:16:00.86	41.94	42.78	-43.5	-45.9	18.4	0.00e+00	0	39	0	702545920	59	4532
2026-01-17 09:16:03.70	40.60	42.49	-42.9	-45.1	19.2	0.00e+00	0	39	0	707788800	57	4646
2026-01-17 09:16:06.83	39.15	42.16	-42.6	-44.8	19.5	0.00e+00	0	39	0	713031680	57	4477
2026-01-17 09:16:09.67	37.87	41.84	-41.6	-43.7	20.3	0.00e+00	0	39	0	718274560	55	4433
2026-01-17 09:16:12.90	36.43	41.46	-41.9	-44.0	20.1	0.00e+00	0	39	0	724566016	55	4583
2026-01-17 09:16:15.78	35.19	41.11	-41.9	-44.1	20.0	0.00e+00	0	39	0	729808896	55	4611
2026-01-17 09:16:19.03	33.81	40.70	-41.8	-43.9	20.2	0.00e+00	0	39	0	736100352	55	4542
2026-01-17 09:16:21.97	32.60	40.32	-41.8	-44.0	20.1	0.00e+00	0	39	0	741343232	55	4568
2026-01-17 09:16:25.10	31.34	39.90	-41.8	-43.9	20.1	0.00e+00	0	39	0	747634688	55	4514
2026-01-17 09:16:27.94	30.22	39.52	-42.0	-44.2	19.9	0.00e+00	0	39	0	752877568	55	4694
2026-01-17 09:16:31.00	29.05	39.09	-42.4	-44.6	19.6	0.00e+00	0	39	0	758120448	55	4877
2026-01-17 09:16:34.13	27.88	38.65	-42.2	-44.3	19.7	0.00e+00	0	39	0	764411904	55	4752
2026-01-17 09:16:36.97	26.85	38.24	-42.8	-45.1	19.2	0.00e+00	0	39	0	769654784	56	4894
2026-01-17 09:16:40.12	25.74	37.78	-43.3	-45.7	18.7	0.00e+00	0	39	0	775946240	57	4969
2026-01-17 09:16:42.98	24.76	37.36	-43.3	-45.8	18.6	0.00e+00	0	39	0	781189120	57	5005
2026-01-17 09:16:46.11	23.71	36.89	-43.1	-45.5	18.8	0.00e+00	0	39	0	786432000	57	4861
2026-01-17 09:16:48.95	22.79	36.46	-43.8	-46.3	18.1	0.00e+00	0	39	0	791674880	58	5023
2026-01-17 09:16:52.07	21.80	35.99	-44.2	-46.9	17.5	0.00e+00	0	39	0	797966336	59	5075
2026-01-17 09:16:55.31	20.80	35.50	-44.5	-47.3	17.1	0.00e+00	0	39	0	804257792	59	5321
2026-01-17 09:16:58.15	19.96	35.07	-45.2	-48.2	16.2	0.00e+00	0	39	0	809500672	60	5584
2026-01-17 09:17:01.29	19.05	34.59	-45.6	-48.8	15.7	0.00e+00	0	39	0	815792128	61	5646
2026-01-17 09:17:04.13	18.24	34.15	-45.9	-49.3	15.3	0.00e+00	0	39	0	821035008	62	5596
2026-01-17 09:17:07.38	17.35	33.65	-46.2	-49.7	14.8	0.00e+00	0	39	0	826277888	63	5582
2026-01-17 09:17:10.22	16.60	33.22	-46.7	-50.5	14.0	2.20e-06	0	39	0	832569344	63	6079
2026-01-17 09:17:13.35	15.79	32.74	-46.6	-50.3	14.1	1.50e-06	0	39	0	837812224	64	5643
2026-01-17 09:17:16.20	15.07	32.31	-46.0	-49.5	14.9	7.00e-07	0	39	0	843055104	64	5157
2026-01-17 09:17:19.32	14.31	31.83	-46.1	-49.7	14.7	0.00e+00	0	39	0	849346560	64	5241
2026-01-17 09:17:22.16	13.64	31.40	-46.1	-49.7	14.8	0.00e+00	0	39	0	854589440	63	5529
2026-01-17 09:17:25.56	12.85	30.89	-45.7	-49.2	15.3	0.00e+00	0	39	0	860880896	63	5234
2026-01-17 09:17:28.26	12.25	30.49	-45.6	-48.8	15.7	0.00e+00	0	39	0	866123776	62	5300
2026-01-17 09:17:31.71	11.50	29.97	-45.3	-48.3	16.2	0.00e+00	0	39	0	872415232	62	5026
2026-01-17 09:17:34.42	10.92	29.57	-45.6	-48.8	15.7	0.00e+00	0	39	0	877658112	62	5294
2026-01-17 09:17:37.69	10.25	29.09	-45.4	-48.7	15.7	0.00e+00	0	39	0	883949568	62	5277
2026-01-17 09:17:40.39	9.71	28.70	-45.4	-48.7	15.8	0.00e+00	0	39	0	889192448	62	5243
2026-01-17 09:17:43.84	9.04	28.20	-45.5	-48.7	15.8	0.00e+00	0	39	0	895483904	62	5250
2026-01-17 09:17:46.70	8.50	27.79	-45.4	-48.6	15.8	0.00e+00	0	39	0	900726784	62	5212
2026-01-17 09:17:50.09	7.87	27.31	-45.2	-48.3	16.2	0.00e+00	0	39	0	907018240	62	5014
2026-01-17 09:17:52.79	7.39	26.93	-45.5	-48.7	15.8	0.00e+00	0	39	0	912261120	62	5223
2026-01-17 09:17:56.04	6.83	26.47	-45.1	-48.1	16.3	0.00e+00	0	39	0	918552576	62	4918
2026-01-17 09:17:58.89	6.34	26.08	-44.9	-47.8	16.6	0.00e+00	0	39	0	923795456	61	5026
2026-01-17 09:18:02.02	5.83	25.65	-44.7	-47.6	16.8	0.00e+00	0	39	0	929038336	61	4917
2026-01-17 09:18:04.86	5.37	25.27	-44.7	-47.6	16.8	0.00e+00	0	39	0	934281216	61	4890
2026-01-17 09:18:07.99	4.88	24.84	-44.8	-47.8	16.6	0.00e+00	0	39	0	940572672	61	5021
2026-01-17 09:18:10.83	4.45	24.47	-44.8	-47.7	16.7	0.00e+00	0	39	0	945815552	61	4965
2026-01-17 09:18:13.95	3.98	24.06	-44.6	-47.5	16.9	0.00e+00	0	39	0	952107008	61	4868
2026-01-17 09:18:16.84	3.57	23.68	-44.5	-47.3	17.1	0.00e+00	0	39	0	957349888	60	5038
2026-01-17 09:18:20.09	3.11	23.26	-44.4	-47.2	17.2	0.00e+00	0	39	0	963641344	60	4937
2026-01-17 09:18:22.89	2.72	22.90	-44.3	-47.1	17.3	0.00e+00	0	39	0	968884224	60	4871
2026-01-17 09:18:26.01	2.30	22.51	-44.3	-47.2	17.2	0.00e+00	0	39	0	974127104	60	4947
2026-01-17 09:18:28.85	1.93	22.16	-44.3	-47.2	17.1	0.00e+00	0	39	0	979369984	60	4982
2026-01-17 09:18:31.98	1.53	21.77	-44.3	-47.0	17.3	0.00e+00	0	39	0	985661440	60	4868
2026-01-17 09:18:34.84	1.17	21.42	-44.3	-47.1	17.3	0.00e+00	0	39	0	990904320	60	4880
2026-01-17 09:18:38.05	0.78	21.03	-44.3	-47.2	17.1	0.00e+00	0	39	0	997195776	60	4961
2026-01-17 09:18:40.90	0.44	20.69	-44.4	-47.4	17.0	0.00e+00	0	39	0	1002438656	60	5043
2026-01-17 09:18:44.02	0.08	20.32	-44.6	-47.5	16.8	0.00e+00	0	39	0	1007681536	60	5154
2026-01-17 09:18:46.87	359.76	19.99	-44.4	-47.4	16.9	0.00e+00	0	39	0	1012924416	60	5076
2026-01-17 09:18:50.00	359.41	19.63	-44.5	-47.6	16.8	0.00e+00	0	39	0	1019215872	60	5166
2026-01-17 09:18:52.84	359.10	19.30	-44.5	-47.4	16.9	0.00e+00	0	39	0	1024458752	60	5060
2026-01-17 09:18:56.06	358.76	18.94	-44.6	-47.5	16.7	0.00e+00	0	39	0	1030750208	60	5118
2026-01-17 09:18:58.91	358.47	18.62	-44.4	-47.4	16.8	0.00e+00	0	39	0	1035993088	60	5100
2026-01-17 09:19:02.03	358.16	18.27	-44.3	-47.4	16.9	0.00e+00	0	39	0	1041235968	60	5082
2026-01-17 09:19:04.87	357.87	17.96	-44.6	-47.5	16.8	0.00e+00	0	39	0	1047527424	60	5148
2026-01-17 09:19:08.00	357.57	17.62	-44.7	-47.8	16.4	0.00e+00	0	39	0	1052770304	60	5294
2026-01-17 09:19:10.84	357.30	17.32	-44.8	-48.1	16.0	0.00e+00	0	39	0	1058013184	60	5519
2026-01-17 09:19:13.97	357.02	16.99	-44.8	-48.3	15.9	0.00e+00	0	39	0	1064304640	60	5622
2026-01-17 09:19:16.85	356.76	16.68	-45.0	-48.3	16.0	0.00e+00	0	39	0	1069547520	60	5622
2026-01-17 09:19:19.97	356.48	16.36	-45.0	-48.2	16.1	0.00e+00	0	39	0	1075838976	60	5546
2026-01-17 09:19:22.81	356.23	16.07	-45.0	-48.2	15.9	0.00e+00	0	39	0	1081081856	60	5568
2026-01-17 09:19:25.96	355.97	15.75	-44.6	-47.7	16.6	0.00e+00	0	39	0	1086324736	60	5260
2026-01-17 09:19:28.80	355.73	15.46	-44.6	-47.7	16.4	0.00e+00	0	39	0	1091567616	60	5232
2026-01-17 09:19:31.93	355.48	15.15	-44.6	-47.6	16.5	0.00e+00	0	39	0	1097859072	60	5175
2026-01-17 09:19:34.77	355.25	14.87	-44.5	-47.5	16.5	0.00e+00	0	39	0	1103101952	60	5128
2026-01-17 09:19:37.90	355.01	14.57	-44.7	-48.0	16.1	0.00e+00	0	39	0	1109393408	60	5421
2026-01-17 09:19:40.74	354.79	14.29	-45.0	-48.2	15.7	0.00e+00	0	39	0	1114636288	60	5558
2026-01-17 09:19:43.91	354.55	13.99	-45.2	-48.5	15.7	0.00e+00	0	39	0	1119879168	61	5404
2026-01-17 09:19:46.82	354.34	13.71	-45.0	-48.4	15.8	0.00e+00	0	39	0	1126170624	61	5388
2026-01-17 09:19:50.11	354.10	13.41	-45.0	-48.4	15.9	0.00e+00	0	39	0	1131413504	61	5346
2026-01-17 09:19:53.00	353.90	13.14	-44.7	-48.5	15.8	0.00e+00	0	39	0	1137704960	61	5441
2026-01-17 09:19:56.27	353.67	12.84	-44.4	-48.6	15.6	0.00e+00	0	39	0	1142947840	60	5793
2026-01-17 09:19:58.98	353.49	12.59	-44.7	-48.8	15.4	0.00e+00	0	39	0	1148190720	60	5982
2026-01-17 09:20:02.27	353.27	12.30	-44.8	-48.9	15.3	0.00e+00	0	39	0	1154482176	60	6014
2026-01-17 09:20:05.09	353.09	12.05	-44.9	-48.9	15.4	0.00e+00	0	39	0	1159725056	60	6008
2026-01-17 09:20:08.35	352.88	11.76	-44.8	-48.7	15.5	0.00e+00	0	39	0	1166016512	60	5897
2026-01-17 09:20:11.36	352.69	11.50	-44.6	-48.7	15.5	0.00e+00	0	39	0	1171259392	60	5885
2026-01-17 09:20:14.35	352.51	11.24	-43.9	-48.6	15.6	0.00e+00	0	39	0	1177550848	59	6158
2026-01-17 09:20:17.33	352.33	10.98	-43.7	-48.5	15.6	0.00e+00	0	39	0	1182793728	59	6123
2026-01-17 09:20:20.32	352.15	10.73	-43.5	-48.6	15.5	0.00e+00	0	39	0	1188036608	58	6564
2026-01-17 09:20:23.35	351.98	10.48	-43.7	-48.8	15.3	0.00e+00	0	39	0	1194328064	58	6691
2026-01-17 09:20:26.68	351.79	10.20	-44.5	-49.0	15.2	0.00e+00	0	39	0	1200619520	59	6439
2026-01-17 09:20:29.40	351.63	9.97	-44.8	-49.2	15.0	0.00e+00	0	39	0	1205862400	60	6238
2026-01-17 09:20:32.68	351.45	9.71	-44.7	-49.4	14.9	0.00e+00	0	39	0	1212153856	60	6350
2026-01-17 09:20:35.49	351.30	9.48	-44.5	-49.3	14.9	0.00e+00	0	39	0	1217396736	60	6342
2026-01-17 09:20:38.75	351.13	9.22	-44.5	-49.4	14.8	0.00e+00	0	39	0	1222639616	60	6388
2026-01-17 09:20:41.74	350.97	8.98	-46.2	-52.9	11.6	0.00e+00	0	39	0	1228931072	62	8466
2026-01-17 09:20:44.73	350.82	8.74	-49.2	-65.7	3.8	1.49e+00	0	39	104	1228931072	70	23522
2026-01-17 09:20:47.71	350.67	8.51	-50.5	-65.9	3.8	1.49e+00	0	39	104	1228931072	71	22723
2026-01-17 09:20:50.69	350.53	8.28	-50.5	-66.0	3.8	1.49e+00	0	39	104	1228931072	71	22874
2026-01-17 09:20:53.67	350.38	8.05	-50.4	-66.0	3.8	1.49e+00	0	39	104	1228931072	72	21548
2026-01-17 09:20:56.65	350.24	7.82	-50.5	-66.0	3.8	1.49e+00	0	39	104	1228931072	72	21601
2026-01-17 09:20:59.63	350.10	7.60	-50.5	-66.0	3.8	1.49e+00	0	39	104	1228931072	72	21649
2026-01-17 09:21:02.61	349.96	7.37	-50.6	-66.0	3.8	1.49e+00	0	39	104	1228931072	72	21752
2026-01-17 09:21:05.59	349.83	7.15	-50.8	-66.0	3.8	1.49e+00	0	39	104	1228931072	72	21714
2026-01-17 09:21:08.57	349.69	6.93	-50.7	-66.0	3.8	1.49e+00	0	39	104	1228931072	72	21645
2026-01-17 09:21:11.55	349.56	6.71	-50.4	-66.0	3.8	1.49e+00	0	39	104	1228931072	72	21652
2026-01-17 09:21:14.53	349.43	6.50	-50.4	-66.0	3.8	1.49e+00	0	39	104	1228931072	72	21545
2026-01-17 09:21:17.51	349.31	6.28	-50.4	-66.0	3.8	1.49e+00	0	39	104	1228931072	72	21521
2026-01-17 09:21:20.49	349.18	6.07	-50.4	-66.0	3.8	1.49e+00	0	39	104	1228931072	72	21590
2026-01-17 09:21:23.47	349.06	5.85	-50.4	-66.0	3.8	1.49e+00	0	39	104	1228931072	72	21530
2026-01-17 09:21:26.46	348.94	5.64	-50.4	-66.0	3.8	1.49e+00	0	39	104	1228931072	72	21519
2026-01-17 09:21:29.43	348.82	5.44	-50.4	-65.9	3.8	1.49e+00	0	39	104	1228931072	72	21476
2026-01-17 09:21:32.41	348.70	5.23	-50.4	-66.0	3.8	1.49e+00	0	39	104	1228931072	72	21518
2026-01-17 09:21:35.39	348.59	5.02	-50.4	-65.9	3.8	1.49e+00	0	39	104	1228931072	72	21446

#Closed at: 2026-01-17 09:21:37
#Recorded file [1228 MB]: D:/Data/31040_260117_120909.dat