passes_logs/2026/01/17/T1/T1__20260117_043303_ZKF01_rec.log

#Pass ID: 20260117_043303_ZKF01
#Satellite: ZKF01
#Configuration: ZKF01
#almurnet v.1.7.20251203
#Start time: 2026-01-17 04:33:05

#Version: 2.0.20230620
#Station: T1
#Location: 37.570604 lon 55.790049 lat
#TLE: 1 61240U 24174C   25363.55210926  .00007200  00000-0  32855-3 0  9995
#TLE: 2 61240  97.4460   8.7269 0013178  79.4267 280.8452 15.20841105 69913

#Time	Az	El	Level	Level2	SNR	BER	BlckErr	Temp	State	Recorded	gain1	gain2
2026-01-17 04:33:05.28	9.51	5.12	-48.4	-50.9	3.7	0.00e+00	0	43	0	0	67	20390
2026-01-17 04:33:08.27	9.41	5.36	-48.4	-51.0	4.0	0.00e+00	0	44	104	0	67	20398
2026-01-17 04:33:11.26	9.31	5.61	-48.4	-50.9	4.0	0.00e+00	0	44	104	0	67	20363
2026-01-17 04:33:14.26	9.21	5.85	-48.4	-50.8	4.0	0.00e+00	0	44	104	0	67	20113
2026-01-17 04:33:17.26	9.11	6.10	-48.4	-50.9	4.0	0.00e+00	0	45	104	0	67	20337
2026-01-17 04:33:20.26	9.01	6.36	-48.4	-51.0	4.0	0.00e+00	0	45	104	0	67	20509
2026-01-17 04:33:23.26	8.90	6.61	-48.4	-51.0	4.0	0.00e+00	0	45	104	0	67	20577
2026-01-17 04:33:26.25	8.79	6.87	-48.4	-51.0	4.0	0.00e+00	0	45	104	0	67	20580
2026-01-17 04:33:29.24	8.67	7.14	-48.4	-51.0	3.9	0.00e+00	0	45	104	0	67	20586
2026-01-17 04:33:32.23	8.56	7.40	-48.4	-50.9	4.0	0.00e+00	0	46	104	0	67	20377
2026-01-17 04:33:35.23	8.44	7.68	-48.4	-51.0	3.9	0.00e+00	0	46	104	0	67	20464
2026-01-17 04:33:38.22	8.32	7.95	-48.4	-51.0	4.0	0.00e+00	0	46	104	0	67	20444
2026-01-17 04:33:41.23	8.19	8.23	-48.4	-51.0	4.0	0.00e+00	0	46	104	0	67	20491
2026-01-17 04:33:44.22	8.06	8.51	-48.4	-51.0	4.0	0.00e+00	0	46	104	0	67	20412
2026-01-17 04:33:47.21	7.93	8.80	-48.4	-50.9	4.0	0.00e+00	0	47	104	0	67	20251
2026-01-17 04:33:50.20	7.79	9.09	-48.4	-50.9	4.0	0.00e+00	0	47	104	0	67	20382
2026-01-17 04:33:53.19	7.66	9.38	-48.4	-50.9	4.0	0.00e+00	0	47	104	0	68	19074
2026-01-17 04:33:56.19	7.51	9.68	-48.3	-50.9	4.0	0.00e+00	0	47	104	0	68	19075
2026-01-17 04:33:59.18	7.37	9.99	-47.7	-50.3	4.0	0.00e+00	0	47	104	0	67	18937
2026-01-17 04:34:02.17	7.21	10.30	-49.6	-52.6	3.8	0.00e+00	0	47	104	0	69	22109
2026-01-17 04:34:05.17	7.06	10.61	-48.7	-51.4	3.9	0.00e+00	0	47	104	0	69	19252
2026-01-17 04:34:08.16	6.90	10.93	-49.0	-51.7	3.8	0.00e+00	0	47	104	0	69	19928
2026-01-17 04:34:11.15	6.73	11.25	-49.7	-52.7	3.7	0.00e+00	0	47	104	0	70	20911
2026-01-17 04:34:14.14	6.56	11.59	-49.5	-52.4	3.8	0.00e+00	0	47	104	0	70	20258
2026-01-17 04:34:17.14	6.39	11.92	-49.6	-52.5	3.7	0.00e+00	0	47	104	0	70	20424
2026-01-17 04:34:20.13	6.21	12.26	-50.2	-53.2	3.7	0.00e+00	0	48	104	0	71	21044
2026-01-17 04:34:23.13	6.02	12.61	-49.4	-52.3	3.8	0.00e+00	0	48	104	0	70	20127
2026-01-17 04:34:26.12	5.83	12.97	-49.6	-52.6	3.8	0.00e+00	0	47	104	0	70	20739
2026-01-17 04:34:29.10	5.64	13.33	-50.2	-53.1	3.7	0.00e+00	0	48	104	0	71	20730
2026-01-17 04:34:32.09	5.44	13.69	-50.1	-53.1	3.7	0.00e+00	0	48	104	0	71	20661
2026-01-17 04:34:35.09	5.23	14.07	-50.3	-53.3	3.7	0.00e+00	0	48	104	0	71	21140
2026-01-17 04:34:38.08	5.01	14.45	-50.0	-52.7	3.7	0.00e+00	0	48	104	0	71	19895
2026-01-17 04:34:41.08	4.79	14.84	-50.0	-52.8	3.7	0.00e+00	0	48	104	0	71	20054
2026-01-17 04:34:44.07	4.55	15.24	-50.0	-52.8	3.7	0.00e+00	0	48	104	0	72	18981
2026-01-17 04:34:47.07	4.32	15.65	-50.4	-53.3	3.7	0.00e+00	0	48	104	0	71	21181
2026-01-17 04:34:50.06	4.07	16.06	-51.1	-54.5	3.6	0.00e+00	0	48	104	0	72	22969
2026-01-17 04:34:53.05	3.81	16.49	-51.4	-54.7	3.7	0.00e+00	0	48	104	0	73	22252
2026-01-17 04:34:56.05	3.55	16.92	-50.4	-53.2	3.7	0.00e+00	0	48	104	0	72	19724
2026-01-17 04:34:59.04	3.27	17.36	-50.1	-52.8	3.7	0.00e+00	0	48	104	0	72	18962
2026-01-17 04:35:02.03	2.99	17.81	-50.3	-53.0	3.7	0.00e+00	0	48	104	0	71	20513
2026-01-17 04:35:05.02	2.70	18.27	-50.2	-53.0	3.7	0.00e+00	0	48	104	0	71	20548
2026-01-17 04:35:08.01	2.39	18.75	-50.7	-53.7	3.7	0.00e+00	0	48	104	0	73	19757
2026-01-17 04:35:11.01	2.07	19.23	-50.9	-54.0	3.7	0.00e+00	0	48	104	0	73	20619
2026-01-17 04:35:14.00	1.74	19.72	-51.5	-54.8	3.7	0.00e+00	0	48	104	0	73	22403
2026-01-17 04:35:17.00	1.40	20.23	-51.5	-54.8	3.7	0.00e+00	0	48	104	0	74	21304
2026-01-17 04:35:19.99	1.05	20.75	-50.8	-53.9	3.7	0.00e+00	0	48	104	0	73	20270
2026-01-17 04:35:22.98	0.68	21.28	-51.4	-54.6	3.7	0.00e+00	0	48	104	0	73	21934
2026-01-17 04:35:25.97	0.29	21.82	-51.7	-55.1	3.7	0.00e+00	0	48	104	0	74	21925
2026-01-17 04:35:28.97	359.89	22.38	-51.5	-54.7	3.7	0.00e+00	0	48	104	0	74	20901
2026-01-17 04:35:31.97	359.47	22.95	-51.9	-55.0	3.7	0.00e+00	0	48	104	0	74	21832
2026-01-17 04:35:34.96	359.03	23.54	-52.2	-55.6	3.6	0.00e+00	0	48	104	0	75	22014
2026-01-17 04:35:37.95	358.58	24.14	-52.0	-55.3	3.7	0.00e+00	0	48	104	0	75	21128
2026-01-17 04:35:40.94	358.10	24.76	-51.8	-55.1	3.7	0.00e+00	0	48	104	0	75	20815
2026-01-17 04:35:43.93	357.60	25.39	-52.0	-55.3	3.7	0.00e+00	0	48	104	0	75	21262
2026-01-17 04:35:46.92	357.08	26.04	-52.1	-55.3	3.7	0.00e+00	0	48	104	0	75	21210
2026-01-17 04:35:49.91	356.53	26.70	-52.0	-55.1	3.7	0.00e+00	0	48	104	0	75	20753
2026-01-17 04:35:52.91	355.96	27.39	-52.0	-55.4	3.7	0.00e+00	0	48	104	0	75	21438
2026-01-17 04:35:55.90	355.36	28.09	-52.2	-55.6	3.7	0.00e+00	0	48	104	0	75	22019
2026-01-17 04:35:58.89	354.72	28.81	-51.8	-54.9	3.7	0.00e+00	0	48	104	0	75	20356
2026-01-17 04:36:01.88	354.06	29.54	-51.9	-55.1	3.7	0.00e+00	0	48	104	0	75	20816
2026-01-17 04:36:04.88	353.36	30.30	-52.1	-55.4	3.7	0.00e+00	0	49	104	0	75	21450
2026-01-17 04:36:07.87	352.62	31.08	-51.7	-54.7	3.7	0.00e+00	0	48	104	0	75	19916
2026-01-17 04:36:10.86	351.85	31.87	-51.9	-55.0	3.7	0.00e+00	0	48	104	0	75	20619
2026-01-17 04:36:13.85	351.03	32.69	-51.8	-55.0	3.7	0.00e+00	0	49	104	0	74	21733
2026-01-17 04:36:16.85	350.16	33.53	-51.6	-54.7	3.7	0.00e+00	0	48	104	0	73	22190
2026-01-17 04:36:19.84	349.24	34.38	-51.5	-54.6	3.7	0.00e+00	0	49	104	0	74	20661
2026-01-17 04:36:22.83	348.27	35.26	-51.9	-55.0	3.7	0.00e+00	0	48	104	0	74	21703
2026-01-17 04:36:25.83	347.24	36.15	-51.9	-55.0	3.7	0.00e+00	0	49	104	0	75	20585
2026-01-17 04:36:28.83	346.15	37.07	-51.2	-54.2	3.7	0.00e+00	0	48	104	0	74	19837
2026-01-17 04:36:31.82	344.99	38.00	-52.2	-55.5	3.7	0.00e+00	0	48	104	0	75	21844
2026-01-17 04:36:34.82	343.75	38.95	-52.6	-56.0	3.7	0.00e+00	0	48	104	0	75	23058
2026-01-17 04:36:37.82	342.44	39.91	-52.1	-55.4	3.7	0.00e+00	0	49	104	0	75	21511
2026-01-17 04:36:40.81	341.04	40.89	-52.3	-55.6	3.7	0.00e+00	0	49	104	0	75	21954
2026-01-17 04:36:43.80	339.55	41.87	-52.3	-55.7	3.7	0.00e+00	0	48	104	0	75	22136
2026-01-17 04:36:46.80	337.96	42.87	-50.6	-53.5	3.7	0.00e+00	0	49	104	0	73	19311
2026-01-17 04:36:49.79	336.27	43.86	-51.9	-55.1	3.7	0.00e+00	0	48	104	0	74	22006
2026-01-17 04:36:52.77	334.47	44.86	-52.4	-55.7	3.7	0.00e+00	0	48	104	0	75	22198
2026-01-17 04:36:55.76	332.54	45.85	-52.2	-55.5	3.7	0.00e+00	0	49	104	0	75	21787
2026-01-17 04:36:58.75	330.49	46.83	-52.5	-55.9	3.7	0.00e+00	0	49	104	0	75	22644
2026-01-17 04:37:01.73	328.30	47.79	-51.9	-55.1	3.7	0.00e+00	0	49	104	0	75	20658
2026-01-17 04:37:04.73	325.96	48.74	-52.3	-55.5	3.7	0.00e+00	0	49	104	0	75	21746
2026-01-17 04:37:07.72	323.47	49.64	-52.2	-55.4	3.7	0.00e+00	0	49	104	0	75	21391
2026-01-17 04:37:10.72	320.82	50.52	-52.4	-55.6	3.7	0.00e+00	0	49	104	0	75	22036
2026-01-17 04:37:13.71	318.02	51.34	-51.8	-54.8	3.7	0.00e+00	0	49	104	0	75	20083
2026-01-17 04:37:16.70	315.07	52.09	-51.9	-55.1	3.7	0.00e+00	0	49	104	0	75	20645
2026-01-17 04:37:19.70	311.96	52.79	-52.2	-55.5	3.7	0.00e+00	0	49	104	0	75	21664
2026-01-17 04:37:22.69	308.71	53.40	-52.4	-55.6	3.7	0.00e+00	0	48	104	0	75	21977
2026-01-17 04:37:25.68	305.32	53.92	-52.0	-55.1	3.7	0.00e+00	0	49	104	0	75	20635
2026-01-17 04:37:28.68	301.81	54.34	-52.4	-55.6	3.7	0.00e+00	0	48	104	0	75	22065
2026-01-17 04:37:31.67	298.22	54.66	-52.3	-55.5	3.7	0.00e+00	0	48	104	0	75	21750
2026-01-17 04:37:34.66	294.56	54.87	-51.9	-54.9	3.7	0.00e+00	0	49	104	0	75	20290
2026-01-17 04:37:37.65	290.86	54.96	-52.4	-55.6	3.7	0.00e+00	0	49	104	0	75	21980
2026-01-17 04:37:40.65	287.14	54.94	-52.7	-56.1	3.7	0.00e+00	0	49	104	0	76	22051
2026-01-17 04:37:43.64	283.46	54.79	-52.3	-55.6	3.7	0.00e+00	0	48	104	0	76	20713
2026-01-17 04:37:46.64	279.81	54.54	-52.6	-55.9	3.6	0.00e+00	0	48	104	0	76	21421
2026-01-17 04:37:49.64	276.24	54.17	-52.8	-56.1	3.7	0.00e+00	0	48	104	0	76	22065
2026-01-17 04:37:52.63	272.79	53.70	-52.3	-55.6	3.7	0.00e+00	0	49	104	0	76	20791
2026-01-17 04:37:55.62	269.47	53.14	-52.7	-56.0	3.7	0.00e+00	0	49	104	0	76	21684
2026-01-17 04:37:58.61	266.28	52.49	-52.7	-56.2	3.7	0.00e+00	0	48	104	0	76	22140
2026-01-17 04:38:01.60	263.24	51.77	-52.7	-56.2	3.7	0.00e+00	0	49	104	0	76	22120
2026-01-17 04:38:04.59	260.35	50.98	-52.1	-55.1	3.7	0.00e+00	0	48	104	0	75	20849
2026-01-17 04:38:07.59	257.61	50.14	-52.4	-55.7	3.7	0.00e+00	0	49	104	0	75	22158
2026-01-17 04:38:10.59	255.03	49.25	-52.4	-55.6	3.7	0.00e+00	0	48	104	0	75	22051
2026-01-17 04:38:13.59	252.60	48.32	-52.7	-56.1	3.7	0.00e+00	0	49	104	0	76	21910
2026-01-17 04:38:16.59	250.32	47.36	-52.6	-56.0	3.7	0.00e+00	0	49	104	0	76	21661
2026-01-17 04:38:19.58	248.18	46.39	-52.4	-55.7	3.7	0.00e+00	0	48	104	0	76	21065
2026-01-17 04:38:22.58	246.18	45.40	-52.5	-55.9	3.7	0.00e+00	0	49	104	0	76	21458
2026-01-17 04:38:25.57	244.30	44.40	-52.6	-56.0	3.7	0.00e+00	0	48	104	0	76	21839
2026-01-17 04:38:28.56	242.55	43.40	-52.4	-55.7	3.7	0.00e+00	0	49	104	0	76	21097
2026-01-17 04:38:31.55	240.90	42.41	-52.6	-55.9	3.7	0.00e+00	0	48	104	0	76	21471
2026-01-17 04:38:34.54	239.36	41.41	-52.7	-56.2	3.7	0.00e+00	0	48	104	0	76	22148
2026-01-17 04:38:37.53	237.91	40.43	-52.7	-56.2	3.7	0.00e+00	0	48	104	0	76	22155
2026-01-17 04:38:40.52	236.56	39.46	-52.8	-56.2	3.7	0.00e+00	0	48	104	0	76	22315
2026-01-17 04:38:43.52	235.28	38.50	-52.5	-55.8	3.7	0.00e+00	0	49	104	0	76	21284
2026-01-17 04:38:46.51	234.08	37.56	-52.3	-55.6	3.7	0.00e+00	0	48	104	0	76	20852
2026-01-17 04:38:49.51	232.95	36.64	-52.7	-56.3	3.7	0.00e+00	0	49	104	0	76	22382
2026-01-17 04:38:52.49	231.89	35.73	-52.6	-56.0	3.7	0.00e+00	0	48	104	0	76	21659
2026-01-17 04:38:55.49	230.88	34.84	-52.3	-55.7	3.7	0.00e+00	0	49	104	0	76	20984
2026-01-17 04:38:58.48	229.93	33.98	-52.3	-55.7	3.7	0.00e+00	0	49	104	0	76	21062
2026-01-17 04:39:01.47	229.04	33.13	-52.2	-55.9	3.7	0.00e+00	0	48	104	0	76	21565
2026-01-17 04:39:04.46	228.19	32.30	-52.2	-55.7	3.7	0.00e+00	0	48	104	0	76	20875
2026-01-17 04:39:07.45	227.39	31.49	-52.5	-55.8	3.7	0.00e+00	0	49	104	0	76	21233
2026-01-17 04:39:10.44	226.63	30.71	-52.6	-56.0	3.7	0.00e+00	0	48	104	0	76	21708
2026-01-17 04:39:13.43	225.91	29.94	-52.6	-56.1	3.7	0.00e+00	0	49	104	0	76	22049
2026-01-17 04:39:16.42	225.22	29.19	-52.6	-56.1	3.7	0.00e+00	0	49	104	0	76	22037
2026-01-17 04:39:19.42	224.57	28.46	-52.6	-56.1	3.7	0.00e+00	0	48	104	0	76	21924
2026-01-17 04:39:22.41	223.95	27.74	-52.6	-56.0	3.7	0.00e+00	0	48	104	0	76	21713
2026-01-17 04:39:25.41	223.36	27.05	-52.2	-55.4	3.7	0.00e+00	0	48	104	0	76	20344
2026-01-17 04:39:28.40	222.80	26.37	-52.3	-55.6	3.7	0.00e+00	0	48	104	0	76	20753
2026-01-17 04:39:31.39	222.26	25.72	-52.5	-55.9	3.7	0.00e+00	0	49	104	0	76	21454
2026-01-17 04:39:34.38	221.75	25.07	-52.4	-56.0	3.7	0.00e+00	0	48	104	0	76	21671
2026-01-17 04:39:37.38	221.26	24.45	-52.3	-55.7	3.7	0.00e+00	0	48	104	0	76	21085
2026-01-17 04:39:40.37	220.79	23.84	-52.2	-55.6	3.7	0.00e+00	0	48	104	0	76	20665
2026-01-17 04:39:43.36	220.34	23.24	-52.2	-55.5	3.7	0.00e+00	0	49	104	0	76	20591
2026-01-17 04:39:46.35	219.91	22.66	-52.1	-55.2	3.7	0.00e+00	0	48	104	0	76	19860
2026-01-17 04:39:49.34	219.50	22.10	-52.2	-55.5	3.7	0.00e+00	0	49	104	0	76	20590
2026-01-17 04:39:52.34	219.10	21.54	-52.1	-55.4	3.7	0.00e+00	0	48	104	0	76	20238
2026-01-17 04:39:55.33	218.72	21.01	-51.9	-55.1	3.7	0.00e+00	0	48	104	0	75	20763
2026-01-17 04:39:58.32	218.35	20.48	-52.3	-55.7	3.7	0.00e+00	0	48	104	0	75	22202
2026-01-17 04:40:01.32	218.00	19.97	-52.0	-55.4	3.7	0.00e+00	0	48	104	0	75	21558
2026-01-17 04:40:04.31	217.66	19.46	-51.9	-55.2	3.7	0.00e+00	0	49	104	0	75	20933
2026-01-17 04:40:07.30	217.34	18.98	-51.8	-55.1	3.7	0.00e+00	0	48	104	0	75	20799
2026-01-17 04:40:10.30	217.03	18.50	-51.6	-54.7	3.7	0.00e+00	0	48	104	0	75	19799
2026-01-17 04:40:13.28	216.72	18.03	-51.7	-54.8	3.7	0.00e+00	0	48	104	0	75	20067
2026-01-17 04:40:16.27	216.43	17.57	-51.9	-55.1	3.7	0.00e+00	0	48	104	0	75	20832
2026-01-17 04:40:19.27	216.15	17.12	-51.9	-55.1	3.7	0.00e+00	0	48	104	0	75	20774
2026-01-17 04:40:22.25	215.88	16.69	-51.7	-54.9	3.7	0.00e+00	0	48	104	0	75	20173
2026-01-17 04:40:25.25	215.62	16.26	-51.5	-54.5	3.7	0.00e+00	0	49	104	0	75	19436
2026-01-17 04:40:28.25	215.36	15.84	-51.8	-55.0	3.7	0.00e+00	0	49	104	0	75	20527
2026-01-17 04:40:31.24	215.12	15.43	-51.8	-54.9	3.7	0.00e+00	0	48	104	0	75	20355
2026-01-17 04:40:34.24	214.88	15.02	-52.0	-55.2	3.7	0.00e+00	0	48	104	0	75	21039
2026-01-17 04:40:37.23	214.65	14.63	-51.9	-55.2	3.7	0.00e+00	0	48	104	0	75	20911
2026-01-17 04:40:40.23	214.43	14.24	-51.7	-55.0	3.7	0.00e+00	0	49	104	0	75	20538
2026-01-17 04:40:43.22	214.22	13.86	-51.9	-55.1	3.7	0.00e+00	0	48	104	0	75	20872
2026-01-17 04:40:46.22	214.01	13.49	-51.7	-55.0	3.7	0.00e+00	0	49	104	0	74	21824
2026-01-17 04:40:49.22	213.80	13.12	-51.8	-55.1	3.7	0.00e+00	0	48	104	0	74	21984
2026-01-17 04:40:52.21	213.61	12.76	-51.6	-55.0	3.7	0.00e+00	0	49	104	0	74	21689
2026-01-17 04:40:55.20	213.42	12.41	-51.6	-54.9	3.7	0.00e+00	0	49	104	0	74	21374
2026-01-17 04:40:58.19	213.23	12.06	-51.8	-55.3	3.7	0.00e+00	0	49	104	0	74	22378
2026-01-17 04:41:01.19	213.05	11.72	-51.6	-55.2	3.7	0.00e+00	0	49	104	0	74	22161
2026-01-17 04:41:04.18	212.88	11.39	-51.9	-55.4	3.7	0.00e+00	0	49	104	0	74	22833
2026-01-17 04:41:07.18	212.71	11.06	-51.7	-55.3	3.7	0.00e+00	0	48	104	0	74	22509
2026-01-17 04:41:10.17	212.54	10.74	-51.4	-55.3	3.7	0.00e+00	0	49	104	0	74	22455
2026-01-17 04:41:13.16	212.38	10.42	-51.6	-55.4	3.7	0.00e+00	0	48	104	0	74	22873
2026-01-17 04:41:16.16	212.23	10.11	-51.2	-55.0	3.7	0.00e+00	0	49	104	0	74	21650
2026-01-17 04:41:19.15	212.08	9.80	-51.3	-55.2	3.7	0.00e+00	0	48	104	0	74	22194
2026-01-17 04:41:22.15	211.93	9.50	-51.6	-54.8	3.7	0.00e+00	0	48	104	0	74	21318
2026-01-17 04:41:25.14	211.79	9.20	-51.5	-54.8	3.7	0.00e+00	0	48	104	0	74	21147
2026-01-17 04:41:28.13	211.65	8.91	-51.4	-55.5	3.7	0.00e+00	0	48	104	0	74	22920
2026-01-17 04:41:31.12	211.51	8.62	-52.1	-55.4	3.7	0.00e+00	0	48	104	0	75	21469
2026-01-17 04:41:34.12	211.38	8.33	-52.9	-56.4	3.7	0.00e+00	0	48	104	0	76	22792
2026-01-17 04:41:37.11	211.25	8.05	-52.7	-56.1	3.7	0.00e+00	0	48	104	0	76	21954
2026-01-17 04:41:40.10	211.12	7.78	-52.9	-56.2	3.7	0.00e+00	0	48	104	0	76	22207
2026-01-17 04:41:43.09	211.00	7.50	-52.9	-56.3	3.7	0.00e+00	0	48	104	0	76	22394
2026-01-17 04:41:46.08	210.88	7.24	-51.6	-54.4	3.7	0.00e+00	0	49	104	0	75	19248
2026-01-17 04:41:49.07	210.76	6.97	-51.8	-54.9	3.7	0.00e+00	0	48	104	0	75	20265
2026-01-17 04:41:52.07	210.65	6.71	-51.8	-54.8	3.7	0.00e+00	0	49	104	0	75	20126
2026-01-17 04:41:55.06	210.53	6.45	-51.8	-54.9	3.7	0.00e+00	0	48	104	0	75	20203
2026-01-17 04:41:58.06	210.43	6.19	-51.8	-54.9	3.7	0.00e+00	0	48	104	0	75	20172
2026-01-17 04:42:01.06	210.32	5.94	-51.8	-54.9	3.7	0.00e+00	0	48	104	0	75	20233
2026-01-17 04:42:04.05	210.21	5.69	-51.8	-54.9	3.7	0.00e+00	0	48	104	0	75	20199
2026-01-17 04:42:07.04	210.11	5.45	-51.8	-54.9	3.7	0.00e+00	0	48	104	0	75	20333
2026-01-17 04:42:10.04	210.01	5.20	-51.8	-54.9	3.7	0.00e+00	0	48	104	0	75	20164
2026-01-17 04:42:13.02	209.92	4.96	-51.8	-54.9	3.7	0.00e+00	0	48	104	0	75	20166

#Closed at: 2026-01-17 04:42:14
#Recorded file [0 MB]: D:/Data/31040_260117_073305.dat