passes_logs/2026/01/17/T1/T1__20260117_061840_KHAYYAM_rec.log

#Pass ID: 20260117_061840_KHAYYAM
#Satellite: KHAYYAM
#Configuration: KHAYYAM_480M
#almurnet v.1.7.20251203
#Start time: 2026-01-17 06:18:40

#Version: 2.0.20230620
#Station: T1
#Location: 37.570604 lon 55.790049 lat
#TLE: 1 53370U 22096A   26016.26944296  .00002688  00000+0  11195-3 0  9997
#TLE: 2 53370  97.3563 283.2565 0001591 106.1097 254.0316 15.24586395191431

#Time	Az	El	Level	Level2	SNR	BER	BlckErr	Temp	State	Recorded	gain1	gain2
2026-01-17 06:18:40.08	101.06	5.01	-52.6	-57.3	3.6	0.00e+00	0	44	0	0	77	23936
2026-01-17 06:18:42.07	100.77	5.13	-52.6	-57.3	3.7	0.00e+00	0	44	104	0	75	26728
2026-01-17 06:18:44.07	100.47	5.24	-52.6	-57.3	3.7	0.00e+00	0	45	104	0	75	26675
2026-01-17 06:18:46.07	100.16	5.36	-52.6	-57.3	3.7	0.00e+00	0	45	104	0	75	26702
2026-01-17 06:18:48.07	99.86	5.48	-52.6	-57.3	3.7	0.00e+00	0	45	104	0	75	26725
2026-01-17 06:18:50.06	99.55	5.60	-52.6	-57.3	3.7	0.00e+00	0	45	104	0	75	26710
2026-01-17 06:18:52.06	99.24	5.72	-52.6	-57.3	3.7	0.00e+00	0	45	104	0	75	26673
2026-01-17 06:18:54.05	98.92	5.83	-52.6	-57.3	3.7	0.00e+00	0	46	104	0	75	26787
2026-01-17 06:18:56.05	98.60	5.95	-52.6	-57.3	3.7	0.00e+00	0	46	104	0	75	26690
2026-01-17 06:18:58.05	98.28	6.07	-52.6	-57.3	3.7	0.00e+00	0	46	104	0	75	26634
2026-01-17 06:19:00.04	97.96	6.19	-52.6	-57.3	3.7	0.00e+00	0	46	104	0	75	26664
2026-01-17 06:19:02.03	97.63	6.31	-52.6	-57.3	3.7	0.00e+00	0	46	104	0	75	26693
2026-01-17 06:19:04.03	97.30	6.42	-52.6	-57.3	3.7	0.00e+00	0	46	104	0	75	26734
2026-01-17 06:19:06.02	96.96	6.54	-52.6	-57.3	3.7	0.00e+00	0	47	104	0	75	26721
2026-01-17 06:19:08.02	96.62	6.66	-52.6	-57.3	3.7	0.00e+00	0	47	104	0	75	26663
2026-01-17 06:19:10.02	96.28	6.78	-52.6	-57.3	3.7	0.00e+00	0	47	104	0	75	26685
2026-01-17 06:19:12.01	95.93	6.90	-52.6	-57.3	3.7	0.00e+00	0	47	104	0	75	26692
2026-01-17 06:19:14.00	95.58	7.01	-52.6	-57.3	3.7	0.00e+00	0	47	104	0	75	26708
2026-01-17 06:19:15.99	95.23	7.13	-52.6	-57.3	3.7	0.00e+00	0	47	104	0	75	26730
2026-01-17 06:19:17.99	94.87	7.25	-52.6	-57.3	3.7	0.00e+00	0	47	104	0	75	26727
2026-01-17 06:19:19.99	94.51	7.37	-52.6	-57.3	3.7	0.00e+00	0	47	104	0	75	26630
2026-01-17 06:19:21.99	94.15	7.49	-52.6	-57.3	3.7	0.00e+00	0	47	104	0	75	26667
2026-01-17 06:19:23.98	93.78	7.60	-52.6	-57.3	3.7	0.00e+00	0	47	104	0	75	26654
2026-01-17 06:19:25.97	93.41	7.72	-52.6	-57.3	3.7	0.00e+00	0	47	104	0	75	26707
2026-01-17 06:19:27.97	93.03	7.84	-52.6	-57.3	3.7	0.00e+00	0	48	104	0	75	26714
2026-01-17 06:19:29.96	92.65	7.95	-52.6	-57.3	3.7	0.00e+00	0	48	104	0	75	26705
2026-01-17 06:19:31.96	92.27	8.07	-52.6	-57.3	3.6	0.00e+00	0	48	104	0	75	26687
2026-01-17 06:19:33.96	91.88	8.19	-52.6	-57.3	3.7	0.00e+00	0	48	104	0	75	26628
2026-01-17 06:19:35.95	91.49	8.30	-52.6	-57.3	3.7	0.00e+00	0	48	104	0	75	26660
2026-01-17 06:19:37.95	91.09	8.42	-52.6	-57.3	3.7	0.00e+00	0	48	104	0	75	26758
2026-01-17 06:19:39.95	90.69	8.53	-52.6	-57.3	3.7	0.00e+00	0	48	104	0	75	26849
2026-01-17 06:19:41.94	90.29	8.65	-52.6	-57.3	3.7	0.00e+00	0	48	104	0	75	26695
2026-01-17 06:19:43.94	89.88	8.76	-52.6	-57.3	3.7	0.00e+00	0	48	104	0	75	26644
2026-01-17 06:19:45.94	89.47	8.87	-52.6	-57.3	3.7	0.00e+00	0	48	104	0	75	26676
2026-01-17 06:19:47.94	89.05	8.99	-52.6	-57.3	3.7	0.00e+00	0	48	104	0	75	26703
2026-01-17 06:19:49.94	88.63	9.10	-52.6	-57.2	3.7	0.00e+00	0	48	104	0	76	24868
2026-01-17 06:19:51.94	88.21	9.21	-52.7	-57.3	3.7	0.00e+00	0	48	104	0	76	25255
2026-01-17 06:19:53.94	87.78	9.32	-52.8	-57.3	3.7	0.00e+00	0	48	104	0	76	25150
2026-01-17 06:19:55.93	87.35	9.43	-52.4	-57.0	3.7	0.00e+00	0	48	104	0	76	24272
2026-01-17 06:19:57.92	86.92	9.54	-52.5	-57.2	3.7	0.00e+00	0	48	104	0	76	24860
2026-01-17 06:19:59.92	86.48	9.65	-52.4	-57.0	3.7	0.00e+00	0	48	104	0	76	24386
2026-01-17 06:20:01.92	86.03	9.76	-52.5	-57.2	3.7	0.00e+00	0	48	104	0	76	24948
2026-01-17 06:20:03.92	85.58	9.87	-52.6	-57.4	3.7	0.00e+00	0	49	104	0	76	25470
2026-01-17 06:20:05.91	85.13	9.98	-52.3	-57.2	3.7	0.00e+00	0	49	104	0	76	25004
2026-01-17 06:20:07.91	84.67	10.08	-52.6	-57.4	3.7	0.00e+00	0	49	104	0	76	25544
2026-01-17 06:20:09.91	84.21	10.19	-51.9	-56.8	3.7	0.00e+00	0	49	104	0	75	25320
2026-01-17 06:20:11.91	83.75	10.30	-51.8	-56.9	3.7	0.00e+00	0	49	104	0	75	25618
2026-01-17 06:20:13.90	83.28	10.40	-52.0	-56.5	3.7	0.00e+00	0	49	104	0	75	24425
2026-01-17 06:20:15.90	82.80	10.50	-52.2	-56.6	3.7	0.00e+00	0	49	104	0	75	24654
2026-01-17 06:20:17.90	82.33	10.60	-52.4	-56.4	3.7	0.00e+00	0	49	104	0	75	24233
2026-01-17 06:20:19.90	81.84	10.70	-52.3	-56.6	3.7	0.00e+00	0	49	104	0	75	24562
2026-01-17 06:20:21.89	81.36	10.80	-51.9	-56.3	3.7	0.00e+00	0	49	104	0	75	23717
2026-01-17 06:20:23.89	80.87	10.90	-51.9	-55.9	3.7	0.00e+00	0	49	104	0	75	22727
2026-01-17 06:20:25.89	80.38	11.00	-51.9	-55.4	3.7	0.00e+00	0	49	104	0	75	21599
2026-01-17 06:20:27.89	79.88	11.10	-52.0	-55.5	3.7	0.00e+00	0	49	104	0	75	21619
2026-01-17 06:20:29.89	79.38	11.19	-52.4	-56.6	3.7	0.00e+00	0	49	104	0	75	24679
2026-01-17 06:20:31.88	78.87	11.28	-52.4	-56.6	3.7	0.00e+00	0	49	104	0	75	24619
2026-01-17 06:20:33.88	78.36	11.38	-52.4	-56.4	3.7	0.00e+00	0	49	104	0	75	24233
2026-01-17 06:20:35.88	77.85	11.47	-53.0	-57.6	3.7	0.00e+00	0	49	104	0	76	26036
2026-01-17 06:20:37.88	77.33	11.56	-52.7	-57.1	3.6	0.00e+00	0	49	104	0	76	24790
2026-01-17 06:20:39.88	76.81	11.64	-52.4	-56.7	3.7	0.00e+00	0	49	104	0	76	23573
2026-01-17 06:20:41.88	76.28	11.73	-52.2	-56.5	3.7	0.00e+00	0	49	104	0	76	23122
2026-01-17 06:20:43.88	75.75	11.82	-52.7	-57.1	3.7	0.00e+00	0	49	104	0	76	24593
2026-01-17 06:20:45.87	75.22	11.90	-52.9	-57.0	3.7	0.00e+00	0	49	104	0	76	24487
2026-01-17 06:20:47.87	74.69	11.98	-52.7	-56.9	3.7	0.00e+00	0	49	104	0	76	24036
2026-01-17 06:20:49.88	74.14	12.06	-52.4	-56.6	3.7	0.00e+00	0	49	104	0	76	23233
2026-01-17 06:20:51.88	73.60	12.14	-53.1	-57.6	3.7	0.00e+00	0	49	104	0	76	26271
2026-01-17 06:20:53.87	73.05	12.21	-53.1	-57.7	3.7	0.00e+00	0	49	104	0	76	26447
2026-01-17 06:20:55.87	72.50	12.29	-53.3	-57.8	3.7	0.00e+00	0	49	104	0	77	25251
2026-01-17 06:20:57.87	71.95	12.36	-52.9	-57.2	3.7	0.00e+00	0	49	104	0	77	23443
2026-01-17 06:20:59.87	71.39	12.43	-52.3	-56.3	3.7	0.00e+00	0	49	104	0	76	22416
2026-01-17 06:21:01.86	70.83	12.50	-52.3	-56.3	3.7	0.00e+00	0	49	104	0	76	22371
2026-01-17 06:21:03.86	70.27	12.56	-52.3	-56.2	3.7	0.00e+00	0	50	104	0	76	22222
2026-01-17 06:21:05.86	69.70	12.63	-52.6	-56.6	3.7	0.00e+00	0	49	104	0	76	23403
2026-01-17 06:21:07.85	69.14	12.69	-52.8	-57.0	3.7	0.00e+00	0	49	104	0	76	24276
2026-01-17 06:21:09.85	68.57	12.75	-52.8	-56.9	3.7	0.00e+00	0	49	104	0	76	24028
2026-01-17 06:21:11.84	67.99	12.81	-52.7	-56.6	3.7	0.00e+00	0	49	104	0	76	23209
2026-01-17 06:21:13.84	67.42	12.86	-52.8	-57.1	3.7	0.00e+00	0	49	104	0	76	24613
2026-01-17 06:21:15.84	66.84	12.91	-52.7	-57.1	3.7	0.00e+00	0	49	104	0	76	24572
2026-01-17 06:21:17.83	66.26	12.96	-52.8	-57.3	3.7	0.00e+00	0	50	104	0	76	25293
2026-01-17 06:21:19.83	65.67	13.01	-53.0	-57.5	3.7	0.00e+00	0	50	104	0	76	25961
2026-01-17 06:21:21.83	65.08	13.06	-52.9	-57.5	3.7	0.00e+00	0	50	104	0	76	25683
2026-01-17 06:21:23.82	64.50	13.10	-52.6	-57.2	3.7	0.00e+00	0	50	104	0	76	25089
2026-01-17 06:21:25.82	63.91	13.14	-52.8	-57.5	3.7	0.00e+00	0	50	104	0	76	25780
2026-01-17 06:21:27.82	63.31	13.18	-53.1	-57.6	3.7	0.00e+00	0	49	104	0	77	24570
2026-01-17 06:21:29.82	62.72	13.22	-52.9	-57.6	3.7	0.00e+00	0	50	104	0	77	24793
2026-01-17 06:21:31.81	62.12	13.25	-52.5	-57.1	3.7	0.00e+00	0	50	104	0	77	23257
2026-01-17 06:21:33.80	61.53	13.28	-52.6	-57.0	3.7	0.00e+00	0	50	104	0	77	22999
2026-01-17 06:21:35.80	60.93	13.31	-52.6	-57.0	3.7	0.00e+00	0	50	104	0	77	22935
2026-01-17 06:21:37.79	60.33	13.34	-52.1	-56.4	3.7	0.00e+00	0	50	104	0	76	22852
2026-01-17 06:21:39.79	59.73	13.36	-52.5	-56.8	3.7	0.00e+00	0	49	104	0	76	23840
2026-01-17 06:21:41.79	59.12	13.38	-52.9	-57.2	3.7	0.00e+00	0	49	104	0	76	24953
2026-01-17 06:21:43.79	58.52	13.40	-52.7	-56.7	3.7	0.00e+00	0	50	104	0	77	22169
2026-01-17 06:21:45.78	57.92	13.41	-52.9	-57.3	3.7	0.00e+00	0	50	104	0	77	23733
2026-01-17 06:21:47.78	57.31	13.43	-53.2	-57.8	3.7	0.00e+00	0	50	104	0	77	25128
2026-01-17 06:21:49.78	56.71	13.44	-53.3	-57.7	3.7	0.00e+00	0	50	104	0	77	24998
2026-01-17 06:21:51.78	56.10	13.44	-53.0	-57.7	3.7	0.00e+00	0	49	104	0	77	25027
2026-01-17 06:21:53.77	55.50	13.45	-52.9	-57.4	3.7	0.00e+00	0	50	104	0	77	24146
2026-01-17 06:21:55.77	54.89	13.45	-52.8	-56.9	3.7	0.00e+00	0	50	104	0	77	22704
2026-01-17 06:21:57.76	54.28	13.45	-52.7	-56.9	3.7	0.00e+00	0	50	104	0	77	22718
2026-01-17 06:21:59.76	53.68	13.45	-52.8	-57.4	3.7	0.00e+00	0	50	104	0	77	24164
2026-01-17 06:22:01.75	53.07	13.44	-53.0	-57.3	3.7	0.00e+00	0	50	104	0	77	23916
2026-01-17 06:22:03.75	52.47	13.43	-53.0	-57.4	3.7	0.00e+00	0	50	104	0	77	24222
2026-01-17 06:22:05.74	51.87	13.42	-52.7	-56.6	3.7	0.00e+00	0	50	104	0	77	22005
2026-01-17 06:22:07.74	51.26	13.40	-52.3	-56.0	3.7	0.00e+00	0	50	104	0	76	21709
2026-01-17 06:22:09.73	50.66	13.39	-52.4	-56.1	3.7	0.00e+00	0	50	104	0	76	22084
2026-01-17 06:22:11.72	50.06	13.37	-52.4	-56.2	3.7	0.00e+00	0	50	104	0	76	22190
2026-01-17 06:22:13.72	49.46	13.35	-53.1	-57.6	3.7	0.00e+00	0	50	104	0	76	25992
2026-01-17 06:22:15.71	48.86	13.32	-53.0	-57.3	3.7	0.00e+00	0	50	104	0	76	25335
2026-01-17 06:22:17.70	48.26	13.29	-52.7	-56.7	3.7	0.00e+00	0	50	104	0	76	23588
2026-01-17 06:22:19.70	47.67	13.26	-52.5	-56.4	3.7	0.00e+00	0	50	104	0	76	22672
2026-01-17 06:22:21.70	47.07	13.23	-52.9	-57.1	3.7	0.00e+00	0	50	104	0	76	24806
2026-01-17 06:22:23.69	46.48	13.20	-52.8	-56.8	3.7	0.00e+00	0	50	104	0	76	23836
2026-01-17 06:22:25.69	45.88	13.16	-52.8	-56.8	3.7	0.00e+00	0	50	104	0	76	23908
2026-01-17 06:22:27.69	45.29	13.12	-52.6	-56.4	3.7	0.00e+00	0	50	104	0	76	22798
2026-01-17 06:22:29.68	44.71	13.08	-50.4	-53.0	3.7	0.00e+00	0	50	104	0	72	19397
2026-01-17 06:22:31.69	44.12	13.03	-51.2	-54.2	3.7	0.00e+00	0	50	104	0	74	19726
2026-01-17 06:22:33.68	43.54	12.98	-51.6	-54.7	3.7	0.00e+00	0	50	104	0	74	20947
2026-01-17 06:22:35.68	42.95	12.93	-51.8	-55.0	3.7	0.00e+00	0	50	104	0	74	21829
2026-01-17 06:22:37.68	42.38	12.88	-50.9	-53.7	3.7	0.00e+00	0	50	104	0	73	19801
2026-01-17 06:22:39.67	41.80	12.83	-51.3	-54.4	3.7	0.00e+00	0	50	104	0	73	21403
2026-01-17 06:22:41.66	41.23	12.77	-51.0	-54.1	3.7	0.00e+00	0	50	104	0	72	21933
2026-01-17 06:22:43.66	40.66	12.71	-51.7	-55.0	3.7	0.00e+00	0	50	104	0	74	21741
2026-01-17 06:22:45.66	40.09	12.65	-52.2	-55.6	3.7	0.00e+00	0	50	104	0	75	22046
2026-01-17 06:22:47.65	39.53	12.59	-50.9	-53.8	3.7	0.00e+00	0	50	104	0	72	21224
2026-01-17 06:22:49.65	38.96	12.52	-49.3	-51.5	3.7	0.00e+00	0	50	104	0	70	18356
2026-01-17 06:22:51.65	38.40	12.46	-45.1	-46.6	4.7	0.00e+00	0	50	104	0	62	16494
2026-01-17 06:22:53.64	37.85	12.39	-44.0	-45.4	5.1	0.00e+00	0	50	104	0	59	16971
2026-01-17 06:22:55.64	37.30	12.32	-48.2	-50.1	4.4	0.00e+00	0	50	104	0	66	19585
2026-01-17 06:22:57.64	36.75	12.24	-50.2	-52.7	3.8	0.00e+00	0	50	104	0	71	19806
2026-01-17 06:22:59.64	36.20	12.17	-51.3	-54.9	3.7	0.00e+00	0	50	104	0	74	21394
2026-01-17 06:23:01.64	35.66	12.09	-51.0	-54.6	3.7	0.00e+00	0	50	104	0	74	20733
2026-01-17 06:23:03.64	35.12	12.01	-50.9	-54.6	3.7	0.00e+00	0	50	104	0	73	22070
2026-01-17 06:23:05.64	34.58	11.93	-51.5	-55.0	3.7	0.00e+00	0	50	104	0	74	21674
2026-01-17 06:23:07.63	34.05	11.85	-49.1	-51.3	3.6	0.00e+00	0	50	104	0	70	17800
2026-01-17 06:23:09.63	33.53	11.77	-48.4	-50.4	3.6	0.00e+00	0	50	104	0	68	18092
2026-01-17 06:23:11.62	33.00	11.68	-51.1	-54.0	3.7	0.00e+00	0	50	104	0	72	21769
2026-01-17 06:23:13.63	32.48	11.59	-51.2	-54.7	3.7	0.00e+00	0	50	104	0	74	21056
2026-01-17 06:23:15.62	31.97	11.51	-50.9	-54.8	3.7	0.00e+00	0	50	104	0	73	22462
2026-01-17 06:23:17.62	31.45	11.42	-51.9	-56.1	3.7	0.00e+00	0	50	104	0	74	24784
2026-01-17 06:23:19.61	30.95	11.33	-52.8	-57.5	3.7	0.00e+00	0	50	104	0	76	25774
2026-01-17 06:23:21.60	30.44	11.23	-52.5	-56.7	3.7	0.00e+00	0	50	104	0	76	23582
2026-01-17 06:23:23.60	29.94	11.14	-52.4	-56.5	3.7	0.00e+00	0	50	104	0	76	23001
2026-01-17 06:23:25.60	29.44	11.04	-52.4	-57.0	3.7	0.00e+00	0	50	104	0	76	24487
2026-01-17 06:23:27.59	28.95	10.95	-51.9	-56.2	3.7	0.00e+00	0	50	104	0	75	23421
2026-01-17 06:23:29.59	28.47	10.85	-52.0	-56.8	3.7	0.00e+00	0	50	104	0	75	25315
2026-01-17 06:23:31.59	27.98	10.75	-52.0	-56.3	3.7	0.00e+00	0	50	104	0	75	23793
2026-01-17 06:23:33.59	27.50	10.65	-52.4	-56.8	3.7	0.00e+00	0	50	104	0	75	25135
2026-01-17 06:23:35.59	27.02	10.55	-52.4	-56.8	3.7	0.00e+00	0	50	104	0	75	25220
2026-01-17 06:23:37.59	26.55	10.45	-52.0	-56.1	3.7	0.00e+00	0	50	104	0	75	23406
2026-01-17 06:23:39.59	26.08	10.35	-51.2	-55.5	3.7	0.00e+00	0	50	104	0	74	22973
2026-01-17 06:23:41.59	25.62	10.24	-50.6	-55.1	3.7	0.00e+00	0	50	104	0	73	23411
2026-01-17 06:23:43.58	25.16	10.14	-50.7	-55.5	3.7	0.00e+00	0	50	104	0	72	25941
2026-01-17 06:23:45.59	24.70	10.03	-51.5	-55.8	3.7	0.00e+00	0	50	104	0	73	25278
2026-01-17 06:23:47.58	24.25	9.92	-51.5	-55.9	3.7	0.00e+00	0	50	104	0	73	25487
2026-01-17 06:23:49.58	23.80	9.82	-51.3	-56.6	3.7	0.00e+00	0	50	104	0	74	26011
2026-01-17 06:23:51.58	23.36	9.71	-51.3	-56.2	3.7	0.00e+00	0	50	104	0	74	24882
2026-01-17 06:23:53.58	22.92	9.60	-51.9	-56.2	3.7	0.00e+00	0	50	104	0	74	24903
2026-01-17 06:23:55.58	22.49	9.49	-50.6	-54.0	3.7	0.00e+00	0	50	104	0	71	23066
2026-01-17 06:23:57.58	22.05	9.38	-48.7	-52.2	3.7	0.00e+00	0	50	104	0	69	21105
2026-01-17 06:23:59.58	21.63	9.27	-48.9	-53.6	3.7	0.00e+00	0	50	104	0	69	24750
2026-01-17 06:24:01.58	21.20	9.16	-49.1	-54.5	3.7	0.00e+00	0	50	104	0	69	27246
2026-01-17 06:24:03.58	20.78	9.05	-48.8	-54.1	3.7	0.00e+00	0	50	104	0	69	26118
2026-01-17 06:24:05.58	20.37	8.93	-52.4	-56.9	3.7	0.00e+00	0	50	104	0	75	25539
2026-01-17 06:24:07.58	19.96	8.82	-50.8	-55.5	3.7	0.00e+00	0	50	104	0	73	24418
2026-01-17 06:24:09.58	19.55	8.71	-52.9	-56.5	3.7	0.00e+00	0	50	104	0	76	22939
2026-01-17 06:24:11.57	19.15	8.59	-53.2	-57.9	3.7	0.00e+00	0	50	104	0	77	25413
2026-01-17 06:24:13.57	18.75	8.48	-51.1	-54.0	3.9	0.00e+00	0	50	104	0	74	19291
2026-01-17 06:24:15.57	18.36	8.36	-53.4	-57.9	3.7	0.00e+00	0	50	104	0	77	25419
2026-01-17 06:24:17.57	17.97	8.25	-52.8	-56.6	3.7	0.00e+00	0	50	104	0	77	21991
2026-01-17 06:24:19.57	17.58	8.13	-53.8	-58.2	3.7	0.00e+00	0	50	104	0	78	24868
2026-01-17 06:24:21.56	17.20	8.02	-54.1	-58.6	3.7	0.00e+00	0	50	104	0	79	24728
2026-01-17 06:24:23.55	16.82	7.90	-53.7	-58.3	3.7	0.00e+00	0	50	104	0	79	23795
2026-01-17 06:24:25.55	16.45	7.79	-53.6	-57.9	3.7	0.00e+00	0	50	104	0	79	22840
2026-01-17 06:24:27.55	16.08	7.67	-53.2	-57.5	3.7	0.00e+00	0	50	104	0	78	22916
2026-01-17 06:24:29.54	15.71	7.55	-52.9	-57.4	3.7	0.00e+00	0	50	104	0	77	23967
2026-01-17 06:24:31.54	15.35	7.44	-52.9	-57.4	3.7	0.00e+00	0	50	104	0	77	24050
2026-01-17 06:24:33.53	14.99	7.32	-52.9	-57.3	3.7	0.00e+00	0	50	104	0	77	23957
2026-01-17 06:24:35.53	14.63	7.20	-52.9	-57.3	3.7	0.00e+00	0	50	104	0	77	23937
2026-01-17 06:24:37.53	14.28	7.09	-5
