passes_logs/2026/01/17/T1/T1__20260117_034105_AQUA_rec.log

#Pass ID: 20260117_034105_AQUA
#Satellite: AQUA
#Configuration: AQUA
#almurnet v.1.7.20251203
#Start time: 2026-01-17 03:41:07

#Version: 2.0.20230620
#Station: T1
#Location: 37.570604 lon 55.790049 lat
#TLE: 1 27424U 02022A   26016.26443506  .00000711  00000+0  15228-3 0  9999
#TLE: 2 27424  98.4083 342.7130 0002022  76.7284  27.4473 14.61823291261073

#Time	Az	El	Level	Level2	SNR	BER	BlckErr	Temp	State	Recorded	gain1	gain2
2026-01-17 03:41:07.93	355.07	5.11	-50.3	-71.6	3.8	7.43e-01	0	41	0	0	72	41170
2026-01-17 03:41:09.91	354.80	5.20	-50.3	-71.6	3.8	7.46e-01	0	41	104	0	71	43761
2026-01-17 03:41:11.90	354.53	5.30	-50.3	-71.6	3.8	7.46e-01	0	41	104	0	71	43782
2026-01-17 03:41:13.89	354.26	5.39	-50.3	-71.6	3.8	7.47e-01	0	41	104	0	71	43679
2026-01-17 03:41:15.88	353.99	5.48	-50.3	-71.6	3.8	7.47e-01	0	41	104	0	71	43752
2026-01-17 03:41:17.86	353.71	5.57	-50.3	-71.6	3.8	7.45e-01	0	41	104	0	71	43775
2026-01-17 03:41:19.85	353.44	5.66	-50.3	-71.6	3.8	7.44e-01	0	41	104	0	71	43738
2026-01-17 03:41:21.84	353.16	5.75	-50.3	-71.6	3.8	7.43e-01	0	41	104	0	71	43724
2026-01-17 03:41:23.82	352.88	5.84	-50.3	-71.6	3.8	7.47e-01	0	41	104	0	71	43734
2026-01-17 03:41:25.81	352.59	5.93	-50.3	-71.6	3.8	7.44e-01	0	42	104	0	71	43825
2026-01-17 03:41:27.80	352.31	6.02	-50.3	-71.6	3.8	7.45e-01	0	42	104	0	71	43696
2026-01-17 03:41:29.78	352.02	6.11	-50.3	-71.6	3.8	7.43e-01	0	42	104	0	71	43681
2026-01-17 03:41:31.77	351.73	6.20	-50.3	-71.6	3.8	7.48e-01	0	42	104	0	71	43682
2026-01-17 03:41:33.76	351.44	6.29	-50.3	-71.6	3.8	7.47e-01	0	42	104	0	71	43636
2026-01-17 03:41:35.75	351.15	6.38	-50.3	-71.6	3.8	7.48e-01	0	42	104	0	71	43627
2026-01-17 03:41:37.73	350.85	6.47	-50.3	-71.6	3.8	7.45e-01	0	42	104	0	71	43671
2026-01-17 03:41:39.72	350.56	6.56	-50.3	-71.6	3.8	7.44e-01	0	42	104	0	71	43590
2026-01-17 03:41:41.70	350.26	6.64	-50.3	-71.6	3.8	7.49e-01	0	42	104	0	71	43586
2026-01-17 03:41:43.69	349.96	6.73	-50.3	-71.6	3.8	7.43e-01	0	42	104	0	71	43591
2026-01-17 03:41:45.68	349.65	6.82	-50.3	-71.6	3.8	7.49e-01	0	42	104	0	71	43626
2026-01-17 03:41:47.67	349.35	6.91	-50.3	-71.6	3.8	7.44e-01	0	42	104	0	71	43675
2026-01-17 03:41:49.65	349.04	6.99	-50.3	-71.6	3.8	7.44e-01	0	42	104	0	71	43608
2026-01-17 03:41:51.64	348.73	7.08	-50.3	-71.6	3.8	7.44e-01	0	42	104	0	71	43601
2026-01-17 03:41:53.62	348.42	7.16	-50.3	-71.6	3.8	7.48e-01	0	42	104	0	71	43634
2026-01-17 03:41:55.61	348.11	7.25	-50.3	-71.6	3.8	7.47e-01	0	42	104	0	71	43613
2026-01-17 03:41:57.60	347.79	7.33	-50.3	-71.6	3.8	7.41e-01	0	42	104	0	71	43527
2026-01-17 03:41:59.58	347.48	7.42	-50.3	-71.6	3.8	7.46e-01	0	42	104	0	71	43578
2026-01-17 03:42:01.57	347.16	7.50	-50.3	-71.6	3.8	7.46e-01	0	42	104	0	71	43528
2026-01-17 03:42:03.56	346.83	7.58	-50.3	-71.6	3.8	7.48e-01	0	43	104	0	71	43541
2026-01-17 03:42:05.54	346.51	7.67	-50.3	-71.6	3.8	7.47e-01	0	43	104	0	71	43582
2026-01-17 03:42:07.53	346.19	7.75	-50.3	-71.5	3.8	7.46e-01	0	42	104	0	71	43385
2026-01-17 03:42:09.52	345.86	7.83	-50.3	-71.6	3.8	7.45e-01	0	43	104	0	71	43456
2026-01-17 03:42:11.50	345.53	7.91	-50.3	-71.5	3.8	7.45e-01	0	43	104	0	71	43255
2026-01-17 03:42:13.49	345.20	7.99	-50.3	-71.5	3.8	7.47e-01	0	43	104	0	71	43207
2026-01-17 03:42:15.48	344.86	8.07	-50.3	-71.5	3.8	7.45e-01	0	43	104	0	71	43372
2026-01-17 03:42:17.46	344.53	8.15	-50.3	-71.6	3.8	7.45e-01	0	43	104	0	71	43562
2026-01-17 03:42:19.45	344.19	8.23	-50.3	-71.5	3.8	7.45e-01	0	43	104	0	71	43266
2026-01-17 03:42:21.44	343.85	8.31	-50.3	-71.5	3.8	7.47e-01	0	43	104	0	71	43378
2026-01-17 03:42:23.42	343.51	8.39	-50.3	-71.6	3.8	7.46e-01	0	43	104	0	71	43493
2026-01-17 03:42:25.41	343.16	8.46	-50.2	-71.4	3.8	7.48e-01	0	43	104	0	71	42887
2026-01-17 03:42:27.40	342.82	8.54	-50.3	-71.6	3.8	7.48e-01	0	43	104	0	71	43558
2026-01-17 03:42:29.38	342.47	8.62	-50.3	-70.6	3.8	7.47e-01	0	43	104	0	71	38817
2026-01-17 03:42:31.37	342.12	8.69	-50.2	-68.1	3.8	7.44e-01	0	43	104	0	71	29183
2026-01-17 03:42:33.36	341.77	8.77	-50.1	-65.3	5.4	6.97e-01	0	43	0	0	71	21151
2026-01-17 03:42:35.34	341.42	8.84	-50.0	-63.6	6.7	6.68e-01	0	43	0	3145728	71	17348
2026-01-17 03:42:37.33	341.06	8.91	-49.5	-59.0	11.3	6.10e-01	0	43	0	6815744	71	10230
2026-01-17 03:42:39.32	340.70	8.98	-47.4	-52.4	17.9	6.03e-01	0	43	0	10485760	66	6396
2026-01-17 03:42:41.30	340.34	9.05	-48.4	-54.1	16.4	6.01e-01	0	43	0	14155776	67	7289
2026-01-17 03:42:43.29	339.98	9.12	-44.4	-47.4	22.9	6.04e-01	0	43	0	17825792	60	5051
2026-01-17 03:42:45.29	339.62	9.19	-46.0	-49.4	20.8	6.00e-01	0	43	0	21495808	63	5397
2026-01-17 03:42:47.28	339.25	9.26	-44.7	-47.7	22.6	6.03e-01	0	43	0	25165824	61	4933
2026-01-17 03:42:49.33	338.87	9.33	-44.4	-47.3	22.9	6.00e-01	0	43	0	29360128	60	5014
2026-01-17 03:42:51.25	338.51	9.40	-44.1	-47.0	23.2	6.02e-01	0	43	0	32505856	60	4853
2026-01-17 03:42:53.43	338.11	9.47	-44.0	-47.2	23.1	6.01e-01	0	43	0	36700160	59	5274
2026-01-17 03:42:55.46	337.73	9.54	-43.8	-47.0	23.3	6.03e-01	0	43	0	40370176	59	5155
2026-01-17 03:42:57.44	337.35	9.60	-44.1	-47.3	23.0	6.00e-01	0	43	0	44564480	59	5289
2026-01-17 03:42:59.43	336.97	9.67	-44.0	-47.1	23.1	6.04e-01	0	43	0	48234496	59	5215
2026-01-17 03:43:01.42	336.60	9.73	-43.8	-47.2	23.1	6.00e-01	0	43	0	51904512	59	5241
2026-01-17 03:43:03.41	336.21	9.79	-43.8	-47.2	23.1	6.01e-01	0	43	0	55574528	59	5255
2026-01-17 03:43:05.43	335.83	9.85	-44.3	-47.7	22.7	6.01e-01	0	43	0	59244544	59	5543
2026-01-17 03:43:07.48	335.43	9.91	-44.2	-47.3	23.0	6.03e-01	0	43	0	62914560	59	5311
2026-01-17 03:43:09.47	335.04	9.97	-44.1	-47.1	23.2	6.04e-01	0	43	0	67108864	59	5189
2026-01-17 03:43:11.59	334.63	10.03	-44.2	-47.1	23.2	6.03e-01	0	43	0	70778880	59	5199
2026-01-17 03:43:13.78	334.20	10.09	-44.2	-47.0	23.3	6.03e-01	0	43	0	74973184	59	5137
2026-01-17 03:43:15.78	333.81	10.15	-44.0	-46.9	23.4	6.01e-01	0	43	0	78643200	59	5074
2026-01-17 03:43:17.78	333.41	10.20	-44.2	-47.1	23.2	6.03e-01	0	43	0	82313216	59	5205
2026-01-17 03:43:19.78	333.02	10.26	-44.3	-47.2	23.2	6.03e-01	0	43	0	85983232	59	5225
2026-01-17 03:43:21.80	332.61	10.31	-44.4	-47.2	23.1	6.02e-01	0	43	0	90177536	59	5260
2026-01-17 03:43:23.79	332.22	10.36	-44.3	-47.1	23.3	6.02e-01	0	43	0	93847552	59	5174
2026-01-17 03:43:25.83	331.81	10.41	-44.2	-47.0	23.3	6.03e-01	0	43	0	97517568	59	5121
2026-01-17 03:43:27.82	331.41	10.46	-44.2	-46.9	23.4	6.02e-01	0	43	0	101187584	59	5088
2026-01-17 03:43:29.83	331.00	10.51	-44.2	-47.0	23.4	6.01e-01	0	43	0	104857600	59	5110
2026-01-17 03:43:31.82	330.60	10.55	-44.4	-47.1	23.2	6.03e-01	0	43	0	108527616	59	5186
2026-01-17 03:43:33.81	330.19	10.60	-44.5	-47.2	23.2	6.03e-01	0	43	0	112721920	59	5253
2026-01-17 03:43:35.80	329.78	10.64	-44.3	-47.0	23.4	6.02e-01	0	43	0	116391936	59	5134
2026-01-17 03:43:37.79	329.38	10.68	-44.1	-46.8	23.6	6.03e-01	0	43	0	120061952	59	4990
2026-01-17 03:43:39.78	328.97	10.73	-44.4	-47.1	23.3	6.01e-01	0	43	0	123731968	59	5209
2026-01-17 03:43:41.77	328.56	10.77	-44.3	-47.1	23.3	6.03e-01	0	43	0	127401984	59	5196
2026-01-17 03:43:43.87	328.12	10.81	-44.1	-47.0	23.3	6.02e-01	0	43	0	131596288	59	5136
2026-01-17 03:43:45.86	327.71	10.84	-43.9	-46.7	23.6	5.98e-01	0	43	0	135266304	59	4966
2026-01-17 03:43:47.80	327.31	10.88	-44.0	-46.7	23.5	5.99e-01	0	43	0	138936320	59	4966
2026-01-17 03:43:49.86	326.88	10.91	-44.2	-47.1	23.3	6.02e-01	0	43	0	142606336	59	5179
2026-01-17 03:43:51.85	326.46	10.95	-43.9	-47.0	23.3	6.01e-01	0	43	0	146276352	59	5156
2026-01-17 03:43:53.96	326.02	10.98	-43.6	-46.9	23.5	6.00e-01	0	43	0	150470656	59	5057
2026-01-17 03:43:56.01	325.59	11.01	-43.7	-47.1	23.3	6.03e-01	0	43	0	154140672	59	5163
2026-01-17 03:43:58.00	325.17	11.04	-44.0	-47.2	23.1	6.02e-01	0	43	0	157810688	59	5231
2026-01-17 03:43:59.99	324.75	11.07	-44.2	-47.3	23.1	6.03e-01	0	43	0	161480704	59	5291
2026-01-17 03:44:02.20	324.28	11.10	-44.0	-47.1	23.2	6.03e-01	0	43	0	165675008	59	5203
2026-01-17 03:44:04.22	323.85	11.12	-43.7	-46.9	23.4	6.04e-01	0	43	0	169345024	59	5061
2026-01-17 03:44:06.31	323.41	11.15	-43.8	-47.0	23.3	6.02e-01	0	43	0	173539328	59	5134
2026-01-17 03:44:08.34	322.98	11.17	-44.2	-47.0	23.3	6.02e-01	0	43	0	177209344	59	5157
2026-01-17 03:44:10.55	322.50	11.20	-44.4	-47.1	23.3	6.03e-01	0	43	0	181403648	59	5162
2026-01-17 03:44:12.54	322.08	11.21	-44.2	-47.0	23.3	6.01e-01	0	43	0	185073664	59	5147
2026-01-17 03:44:14.53	321.65	11.23	-43.9	-47.0	23.4	6.03e-01	0	43	0	188743680	59	5123
2026-01-17 03:44:16.52	321.23	11.25	-44.0	-47.0	23.4	6.03e-01	0	43	0	192413696	59	5138
2026-01-17 03:44:18.51	320.80	11.26	-44.0	-46.8	23.5	6.02e-01	0	43	0	196608000	59	5034
2026-01-17 03:44:20.50	320.37	11.28	-44.1	-47.1	23.3	6.02e-01	0	43	0	200278016	59	5171
2026-01-17 03:44:22.58	319.93	11.29	-44.1	-47.2	23.2	6.01e-01	0	43	0	203948032	59	5236
2026-01-17 03:44:24.72	319.47	11.30	-44.1	-47.1	23.3	6.04e-01	0	43	0	208142336	59	5189
2026-01-17 03:44:26.71	319.04	11.31	-44.1	-46.9	23.5	6.01e-01	0	43	0	211812352	59	5090
2026-01-17 03:44:28.98	318.55	11.32	-44.5	-47.2	23.2	6.03e-01	0	43	0	216006656	59	5243
2026-01-17 03:44:30.99	318.12	11.32	-44.3	-46.9	23.4	6.00e-01	0	43	0	219676672	59	5098
2026-01-17 03:44:33.06	317.67	11.33	-44.4	-47.1	23.3	6.00e-01	0	43	0	223870976	59	5192
2026-01-17 03:44:35.14	317.22	11.33	-44.4	-47.1	23.2	6.02e-01	0	43	0	227540992	60	4890
2026-01-17 03:44:37.15	316.79	11.33	-44.6	-47.3	23.0	6.02e-01	0	43	0	231211008	60	5007
2026-01-17 03:44:39.14	316.36	11.33	-44.6	-47.4	22.9	6.02e-01	0	43	0	234881024	60	5064
2026-01-17 03:44:41.12	315.93	11.33	-44.6	-47.4	22.9	6.03e-01	0	43	0	238551040	60	5065
2026-01-17 03:44:43.11	315.51	11.33	-44.8	-47.6	22.7	6.02e-01	0	43	0	242221056	60	5217
2026-01-17 03:44:45.10	315.08	11.32	-44.8	-47.5	22.8	6.02e-01	0	43	0	246415360	60	5141
2026-01-17 03:44:47.09	314.65	11.31	-44.5	-47.3	23.0	6.01e-01	0	43	0	250085376	60	5027
2026-01-17 03:44:49.18	314.20	11.31	-44.7	-47.5	22.8	6.01e-01	0	43	0	253755392	60	5135
2026-01-17 03:44:51.31	313.74	11.30	-44.2	-47.0	23.3	5.99e-01	0	43	0	257949696	60	4846
2026-01-17 03:44:53.32	313.31	11.29	-44.2	-46.9	23.3	6.03e-01	0	43	0	261619712	60	4784
2026-01-17 03:44:55.32	312.88	11.27	-44.8	-47.6	22.7	6.01e-01	0	43	0	265289728	60	5173
2026-01-17 03:44:57.50	312.41	11.26	-44.5	-47.3	22.9	6.01e-01	0	43	0	269484032	60	5011
2026-01-17 03:44:59.81	311.91	11.24	-44.6	-47.4	22.9	6.01e-01	0	43	0	273678336	60	5097
2026-01-17 03:45:02.03	311.44	11.22	-44.9	-47.9	22.4	6.02e-01	0	43	0	277872640	60	5382
2026-01-17 03:45:04.16	310.98	11.20	-44.8	-47.8	22.5	6.01e-01	0	43	0	282066944	60	5291
2026-01-17 03:45:06.16	310.56	11.18	-44.8	-47.7	22.7	6.00e-01	0	43	0	285736960	60	5240
2026-01-17 03:45:08.35	310.09	11.16	-44.5	-47.4	23.0	6.01e-01	0	43	0	289931264	60	5043
2026-01-17 03:45:10.53	309.63	11.13	-44.7	-47.5	22.8	6.03e-01	0	43	0	293601280	60	5115
2026-01-17 03:45:12.80	309.14	11.11	-45.3	-48.4	22.0	6.04e-01	0	43	0	298319872	61	5384
2026-01-17 03:45:14.90	308.70	11.08	-45.4	-48.6	21.7	6.02e-01	0	43	0	301989888	61	5515
2026-01-17 03:45:16.89	308.28	11.05	-44.9	-48.1	22.1	6.02e-01	0	43	0	305659904	61	5182
2026-01-17 03:45:18.88	307.86	11.02	-44.8	-47.8	22.5	6.02e-01	0	43	0	309329920	60	5303
2026-01-17 03:45:20.86	307.44	10.99	-45.0	-47.8	22.5	6.02e-01	0	43	0	312999936	60	5322
2026-01-17 03:45:22.85	307.02	10.96	-45.0	-47.8	22.5	6.02e-01	0	43	0	317194240	60	5339
2026-01-17 03:45:24.87	306.60	10.93	-44.9	-47.8	22.5	6.02e-01	0	43	0	320864256	60	5299
2026-01-17 03:45:26.94	306.17	10.89	-44.9	-47.9	22.5	6.02e-01	0	43	0	324534272	60	5361
2026-01-17 03:45:28.93	305.75	10.86	-44.8	-47.7	22.7	6.02e-01	0	43	0	328204288	61	4954
2026-01-17 03:45:30.94	305.33	10.82	-44.9	-47.7	22.6	6.03e-01	0	43	0	332398592	61	4974
2026-01-17 03:45:32.93	304.92	10.78	-44.9	-47.7	22.6	6.02e-01	0	43	0	336068608	61	4962
2026-01-17 03:45:34.92	304.51	10.74	-45.0	-47.8	22.5	6.01e-01	0	43	0	339738624	61	5026
2026-01-17 03:45:36.90	304.10	10.70	-45.0	-47.9	22.4	6.01e-01	0	43	0	343408640	61	5072
2026-01-17 03:45:38.90	303.69	10.66	-45.1	-48.0	22.3	6.02e-01	0	43	0	347078656	61	5153
2026-01-17 03:45:40.89	303.28	10.61	-45.0	-48.0	22.2	6.03e-01	0	43	0	350748672	61	5125
2026-01-17 03:45:42.88	302.87	10.57	-45.2	-48.3	22.0	6.04e-01	0	43	0	354418688	61	5326
2026-01-17 03:45:44.93	302.46	10.52	-44.7	-47.5	22.8	6.00e-01	0	43	0	358088704	61	4846
2026-01-17 03:45:46.93	302.05	10.48	-45.1	-48.0	22.1	6.05e-01	0	43	0	362283008	61	5147
2026-01-17 03:45:48.95	301.64	10.43	-45.6	-48.7	21.7	6.04e-01	0	43	0	365953024	61	5538
2026-01-17 03:45:51.02	301.22	10.38	-44.9	-47.7	22.5	6.03e-01	0	43	0	369623040	61	4978
2026-01-17 03:45:53.04	300.82	10.32	-46.0	-49.3	21.1	6.01e-01	0	43	0	373817344	62	5626
2026-01-17 03:45:55.14	300.40	10.27	-45.5	-48.5	21.8	6.02e-01	0	43	0	377487360	62	5139
2026-01-17 03:45:57.13	300.00	10.22	-46.1	-49.3	21.0	6.03e-01	0	43	0	381157376	63	5292
2026-01-17 03:45:59.12	299.61	10.16	-46.1	-49.4	21.1	6.04e-01	0	43	0	384827392	63	5347
2026-01-17 03:46:01.11	299.22	10.11	-45.5	-48.5	21.8	6.04e-01	0	43	0	388497408	63	4821
2026-01-17 03:46:03.10	298.82	10.05	-45.5	-48.6	21.7	6.00e-01	0	43	0	392691712	62	5182
2026-01-17 03:46:05.55	298.34	9.98	-45.3	-48.2	22.0	6.04e-01	0	43	0	396886016	62	4967
2026-01-17 03:46:07.55	297.95	9.92	-46.1	-49.5	20.9	6.02e-01	0	43	0	400556032	62	5729
2026-01-17 03:46:09.55	297.57	9.86	-45.1	-48.0	22.3	6.03e-01	0	43	0	404750336	61	5156
2026-01-17 03:46:11.56	297.18	9.80	-45.7	-49.1	21.3	5.99e-01	0	43	0	408420352	62	5466
2026-01-17 03:46:13.55	296.80	9.74	-45.3	-48.5	21.8	6.03e-01	0	43	0	412090368	62	5117
2026-01-17 03:46:15.54	296.41	9.68	-45.8	-49.0	21.3	6.02e-01	0	43	0	415760384	62	5431
2026-01-17 03:46:17.54	296.03	9.61	-45.4	-48.5	21.9	6.03e-01	0	43	0	419430400	62	5106
2026-01-17 03:46:19.53	295.66	9.55	-45.9	-49.3	21.0	6.02e-01	0	43	0	423100416	62	5644
2026-01-17 03:46:21.72	295.24	9.48	-45.4	-48.5	21.8	6.00e-01	0	43	0	427294720	62	5152
2026-01-17 03:46:23.77	294.86	9.41	-45.1	-48.0	22.3	6.01e-01	0	43	0	430964736	61	5149
2026-01-17 03:46:25.76	294.49	9.34	-45.5	-48.5	21.7	6.02e-01	0	43	0	435159040	61	5454
2026-01-17 03:46:27.75	294.12	9.27	-45.4	-48.3	22.0	6.01e-01	0	43	0	438829056	61	5302
2026-01-17 03:46:29.74	293.75	9.21	-45.4	-48.4	21.8	5.99e-01	0	43	0	442499072	62	5060
2026-01-17 03:46:31.74	293.38	9.14	-45.3	-48.2	22.1	6.01e-01	0	43	0	446169088	62	4967
2026-01-17 03:46:33.73	293.02	9.07	-45.5	-48.5	21.8	6.04e-01	0	43	0	449839104	62	5128
2026-01-17 03:46:35.78	292.65	8.99	-48.5	-53.3	18.2	6.02e-01	0	43	0	453509120	67	6708
2026-01-17 03:46:37.76	292.29	8.92	-51.8	-71.9	3.8	7.50e-01	0	43	104	454033408	74	37973
2026-01-17 03:46:39.75	291.93	8.85	-52.0	-72.1	3.8	7.47e-01	0	43	104	454033408	74	39112
2026-01-17 03:46:41.75	291.57	8.77	-52.1	-72.2	3.8	7.47e-01	0	43	104	454033408	75	37280
2026-01-17 03:46:43.74	291.22	8.70	-52.0	-72.3	3.8	7.45e-01	0	43	104	454033408	75	37612
2026-01-17 03:46:45.73	290.86	8.62	-52.3	-72.3	3.8	7.45e-01	0	43	104	454033408	75	37626
2026-01-17 03:46:47.72	290.51	8.55	-52.2	-72.3	3.8	7.46e-01	0	43	104	454033408	75	37726
2026-01-17 03:46:49.72	290.16	8.47	-52.1	-72.3	3.8	7.44e-01	0	43	104	454033408	75	37778
2026-01-17 03:46:51.70	289.82	8.39	-52.0	-72.3	3.8	7.44e-01	0	43	104	454033408	75	37755
2026-01-17 03:46:53.70	289.47	8.32	-51.8	-72.3	3.8	7.47e-01	0	43	104	454033408	75	37743
2026-01-17 03:46:55.69	289.13	8.24	-51.8	-72.3	3.8	7.43e-01	0	43	104	454033408	75	37644
2026-01-17 03:46:57.68	288.79	8.16	-51.3	-72.3	3.8	7.48e-01	0	43	104	454033408	74	39646
2026-01-17 03:46:59.68	288.45	8.08	-51.3	-72.2	3.8	7.44e-01	0	43	104	454033408	74	39564
2026-01-17 03:47:01.67	288.12	8.00	-51.3	-72.2	3.8	7.41e-01	0	43	104	454033408	74	39558
2026-01-17 03:47:03.66	287.78	7.92	-51.3	-72.2	3.8	7.45e-01	0	43	104	454033408	74	39579
2026-01-17 03:47:05.64	287.45	7.84	-51.3	-72.2	3.8	7.48e-01	0	44	104	454033408	74	39470
2026-01-17 03:47:07.63	287.12	7.75	-51.3	-72.2	3.8	7.46e-01	0	44	104	454033408	74	39564
2026-01-17 03:47:09.62	286.79	7.67	-51.3	-72.2	3.8	7.49e-01	0	43	104	454033408	74	39557
2026-01-17 03:47:11.62	286.47	7.59	-51.3	-72.2	3.8	7.49e-01	0	43	104	454033408	74	39495
2026-01-17 03:47:13.61	286.14	7.51	-51.3	-72.2	3.8	7.44e-01	0	43	104	454033408	74	39481
2026-01-17 03:47:15.60	285.82	7.42	-51.3	-72.2	3.8	7.46e-01	0	43	104	454033408	74	39510
2026-01-17 03:47:17.59	285.50	7.34	-51.3	-72.2	3.8	7.47e-01	0	43	104	454033408	74	39500
2026-01-17 03:47:19.59	285.18	7.25	-51.3	-72.2	3.8	7.46e-01	0	43	104	454033408	74	39330
2026-01-17 03:47:21.57	284.87	7.17	-51.3	-72.2	3.8	7.47e-01	0	43	104	454033408	74	39495
2026-01-17 03:47:23.56	284.55	7.08	-51.3	-72.2	3.8	7.46e-01	0	43	104	454033408	74	39372
2026-01-17 03:47:25.55	284.24	6.99	-51.3	-72.2	3.8	7.44e-01	0	43	104	454033408	74	39364
2026-01-17 03:47:27.54	283.93	6.91	-51.3	-72.2	3.8	7.47e-01	0	44	104	454033408	74	39330
2026-01-17 03:47:29.54	283.62	6.82	-51.3	-72.2	3.8	7.45e-01	0	43	104	454033408	74	39440
2026-01-17 03:47:31.53	283.32	6.73	-51.3	-72.2	3.8	7.45e-01	0	43	104	454033408	74	39381
2026-01-17 03:47:33.52	283.01	6.64	-51.3	-72.2	3.8	7.47e-01	0	43	104	454033408	74	39308
2026-01-17 03:47:35.50	282.71	6.56	-51.3	-72.2	3.8	7.47e-01	0	43	104	454033408	74	39388
2026-01-17 03:47:37.49	282.42	6.47	-51.3	-72.2	3.8	7.47e-01	0	43	104	454033408	74	39381
2026-01-17 03:47:39.48	282.12	6.38	-51.3	-72.2	3.8	7.46e-01	0	43	104	454033408	74	39331
2026-01-17 03:47:41.59	281.80	6.28	-51.3	-72.2	3.8	7.46e-01	0	43	104	454033408	74	39391
2026-01-17 03:47:43.59	281.51	6.19	-51.3	-72.2	3.8	7.46e-01	0	43	104	454033408	74	39366
2026-01-17 03:47:45.58	281.22	6.11	-51.3	-72.2	3.8	7.45e-01	0	43	104	454033408	74	39346
2026-01-17 03:47:47.58	280.93	6.01	-51.3	-72.2	3.8	7.46e-01	0	43	104	454033408	74	39249
2026-01-17 03:47:49.57	280.64	5.92	-51.3	-72.2	3.8	7.44e-01	0	43	104	454033408	74	39306
2026-01-17 03:47:51.56	280.35	5.83	-51.3	-72.2	3.8	7.44e-01	0	43	104	454033408	74	39309
2026-01-17 03:47:53.56	280.07	5.74	-51.3	-72.2	3.8	7.45e-01	0	43	104	454033408	74	39308
2026-01-17 03:47:55.55	279.79	5.65	-51.3	-72.2	3.8	7.46e-01	0	43	104	454033408	74	39357
2026-01-17 03:47:57.53	279.51	5.56	-51.3	-72.2	3.8	7.42e-01	0	43	104	454033408	74	39283
2026-01-17 03:47:59.52	279.23	5.47	-51.3	-72.2	3.8	7.45e-01	0	44	104	454033408	74	39264
2026-01-17 03:48:01.51	278.96	5.38	-51.3	-72.2	3.8	7.48e-01	0	44	104	454033408	74	39319
2026-01-17 03:48:03.50	278.68	5.28	-51.3	-72.2	3.8	7.47e-01	0	44	104	454033408	74	39252
2026-01-17 03:48:05.48	278.41	5.19	-51.3	-72.2	3.8	7.46e-01	0	43	104	454033408	74	39310
2026-01-17 03:48:07.48	278.14	5.10	-51.3	-72.2	3.8	7.46e-01	0	43	104	454033408	74	39264
2026-01-17 03:48:09.48	277.87	5.01	-51.3	-72.2	3.8	7.48e-01	0	43	104	454033408	74	39291

#Closed at: 2026-01-17 03:48:11
#Recorded file [454 MB]: D:/Data/31040_260117_064107.dat