passes_logs/2026/01/17/T1/T1__20260117_194810_FENGYUN_3G_rec.log

#Pass ID: 20260117_194810_FENGYUN 3G
#Satellite: FENGYUN 3G
#Configuration: FENGYUN 3G
#almurnet v.1.7.20251203
#Start time: 2026-01-17 19:48:11

#Version: 2.0.20230620
#Station: T1
#Location: 37.570604 lon 55.790049 lat
#TLE: 1 56232U 23055A   26016.59277087  .00022400  00000+0  35105-3 0  9997
#TLE: 2 56232  49.9940  47.7154 0004206  34.9452 325.1791 15.53567667156441

#Time	Az	El	Level	Level2	SNR	BER	BlckErr	Temp	State	Recorded	gain1	gain2
2026-01-17 19:48:11.37	193.82	5.05	-48.2	-67.8	3.8	8.38e-01	0	37	104	0	68	33358
2026-01-17 19:48:13.41	193.48	5.17	-48.2	-67.7	3.8	8.48e-01	0	37	104	0	68	33150
2026-01-17 19:48:15.39	193.14	5.28	-48.2	-67.7	3.8	8.47e-01	0	37	104	0	68	33066
2026-01-17 19:48:17.38	192.80	5.40	-48.2	-67.7	3.8	8.47e-01	0	37	104	0	68	33125
2026-01-17 19:48:19.37	192.45	5.51	-48.2	-67.7	3.8	8.47e-01	0	37	104	0	68	33213
2026-01-17 19:48:21.35	192.10	5.62	-48.2	-67.7	3.8	8.47e-01	0	37	104	0	68	33212
2026-01-17 19:48:23.34	191.75	5.74	-48.2	-67.7	3.8	8.47e-01	0	38	104	0	68	33294
2026-01-17 19:48:25.33	191.39	5.85	-48.2	-67.7	3.8	8.46e-01	0	38	104	0	68	33248
2026-01-17 19:48:27.31	191.03	5.96	-48.2	-67.7	3.8	8.49e-01	0	38	104	0	68	33273
2026-01-17 19:48:29.30	190.67	6.08	-48.2	-67.7	3.8	8.46e-01	0	38	104	0	68	33222
2026-01-17 19:48:31.29	190.30	6.19	-48.2	-67.7	3.8	8.46e-01	0	38	104	0	68	33175
2026-01-17 19:48:33.27	189.93	6.30	-48.2	-67.7	3.8	8.48e-01	0	38	104	0	68	33158
2026-01-17 19:48:35.26	189.55	6.41	-48.2	-67.7	3.8	8.47e-01	0	38	104	0	68	33159
2026-01-17 19:48:37.25	189.17	6.53	-48.2	-67.7	3.8	8.47e-01	0	38	104	0	68	33239
2026-01-17 19:48:39.23	188.79	6.64	-48.2	-67.7	3.8	8.48e-01	0	38	104	0	68	33250
2026-01-17 19:48:41.22	188.40	6.75	-48.2	-67.7	3.8	8.47e-01	0	38	104	0	68	33159
2026-01-17 19:48:43.20	188.01	6.86	-48.2	-67.7	3.8	8.47e-01	0	38	104	0	68	33183
2026-01-17 19:48:45.19	187.61	6.98	-48.2	-67.7	3.8	8.48e-01	0	38	104	0	68	33098
2026-01-17 19:48:47.18	187.21	7.09	-48.2	-67.7	3.8	8.47e-01	0	38	104	0	68	32969
2026-01-17 19:48:49.16	186.80	7.20	-48.2	-67.6	3.8	8.46e-01	0	38	104	0	68	32882
2026-01-17 19:48:51.15	186.39	7.31	-48.2	-67.6	3.8	8.46e-01	0	38	104	0	68	32753
2026-01-17 19:48:53.14	185.98	7.42	-48.2	-67.5	3.8	8.47e-01	0	38	104	0	68	32512
2026-01-17 19:48:55.12	185.56	7.53	-48.2	-67.5	3.8	8.47e-01	0	38	104	0	68	32205
2026-01-17 19:48:57.11	185.13	7.64	-48.2	-67.0	3.8	8.47e-01	0	38	104	0	68	30553
2026-01-17 19:48:59.09	184.71	7.75	-48.2	-66.7	3.8	8.48e-01	0	38	104	0	68	29604
2026-01-17 19:49:01.08	184.27	7.86	-48.2	-67.4	3.8	8.46e-01	0	38	104	0	68	31934
2026-01-17 19:49:03.07	183.84	7.97	-48.2	-67.6	3.8	8.47e-01	0	39	104	0	68	32865
2026-01-17 19:49:05.05	183.40	8.07	-48.1	-67.0	3.8	8.46e-01	0	39	104	0	68	30396
2026-01-17 19:49:07.04	182.95	8.18	-48.1	-66.3	3.8	8.46e-01	0	39	104	0	68	28123
2026-01-17 19:49:09.02	182.50	8.29	-48.2	-67.0	3.8	8.47e-01	0	39	104	0	68	30707
2026-01-17 19:49:11.01	182.05	8.40	-48.1	-66.2	3.8	8.47e-01	0	39	104	0	68	27814
2026-01-17 19:49:13.00	181.59	8.50	-48.0	-63.3	4.5	8.43e-01	0	39	0	0	68	19990
2026-01-17 19:49:14.98	181.12	8.61	-48.1	-64.3	4.2	8.25e-01	0	39	0	0	68	22474
2026-01-17 19:49:16.97	180.65	8.71	-48.2	-66.3	3.8	8.46e-01	0	39	104	0	68	28253
2026-01-17 19:49:18.96	180.18	8.81	-48.0	-61.6	5.4	8.32e-01	0	39	0	0	68	16458
2026-01-17 19:49:20.94	179.70	8.92	-47.7	-59.2	7.0	7.39e-01	0	39	0	0	67	13122
2026-01-17 19:49:22.93	179.22	9.02	-46.9	-54.7	11.7	2.60e-02	0	39	0	0	65	8794
2026-01-17 19:49:24.92	178.73	9.12	-47.8	-57.8	8.7	5.76e-03	0	39	0	0	66	11842
2026-01-17 19:49:26.91	178.24	9.22	-44.0	-47.7	18.9	2.50e-03	0	39	0	0	60	5220
2026-01-17 19:49:28.90	177.74	9.32	-44.5	-48.5	17.7	1.52e-01	0	39	0	0	61	5439
2026-01-17 19:49:30.89	177.24	9.42	-42.1	-44.9	21.6	3.70e-03	0	39	0	0	56	4796
2026-01-17 19:49:32.88	176.74	9.52	-42.1	-45.0	21.6	0.00e+00	0	39	0	0	55	5138
2026-01-17 19:49:34.87	176.23	9.61	-41.6	-44.4	22.1	0.00e+00	0	39	0	0	54	5052
2026-01-17 19:49:36.86	175.71	9.71	-41.2	-43.9	22.6	0.00e+00	0	39	0	0	54	4810
2026-01-17 19:49:38.91	175.18	9.80	-41.2	-44.0	22.5	0.00e+00	0	39	0	0	54	4862
2026-01-17 19:49:40.93	174.64	9.90	-40.9	-43.7	18.3	0.00e+00	0	39	0	0	53	4961
2026-01-17 19:49:42.86	174.13	9.99	-40.1	-42.7	23.7	0.00e+00	0	39	0	0	52	4687
2026-01-17 19:49:44.85	173.60	10.08	-40.0	-42.5	24.0	0.00e+00	0	39	0	0	51	4848
2026-01-17 19:49:46.84	173.06	10.16	-39.9	-42.5	24.0	0.00e+00	0	39	0	0	51	4815
2026-01-17 19:49:48.83	172.52	10.25	-39.9	-42.4	24.1	0.00e+00	0	39	0	0	51	4808
2026-01-17 19:49:50.82	171.97	10.34	-39.6	-42.1	24.3	0.00e+00	0	39	0	0	51	4623
2026-01-17 19:49:52.81	171.42	10.42	-39.6	-42.0	24.5	0.00e+00	0	39	0	0	50	4858
2026-01-17 19:49:54.80	170.87	10.50	-39.4	-41.8	24.6	0.00e+00	0	39	0	0	50	4732
2026-01-17 19:49:56.88	170.28	10.59	-39.0	-41.4	25.0	0.00e+00	0	39	0	0	50	4513
2026-01-17 19:49:58.87	169.72	10.67	-39.1	-41.5	24.9	0.00e+00	0	39	0	0	49	4847
2026-01-17 19:50:00.86	169.15	10.75	-39.5	-41.9	24.5	0.00e+00	0	39	0	0	49	5087
2026-01-17 19:50:02.85	168.58	10.82	-39.6	-41.9	24.5	0.00e+00	0	39	0	0	49	5077
2026-01-17 19:50:04.84	168.01	10.89	-39.8	-42.1	24.3	0.00e+00	0	39	0	0	50	4926
2026-01-17 19:50:06.83	167.43	10.97	-40.1	-42.4	19.5	0.00e+00	0	39	0	0	50	5074
2026-01-17 19:50:08.82	166.85	11.04	-40.1	-42.4	24.1	0.00e+00	0	39	0	0	50	5067
2026-01-17 19:50:10.81	166.26	11.11	-40.1	-42.5	24.1	1.41e-03	0	39	0	0	51	4817
2026-01-17 19:50:12.82	165.67	11.17	-40.1	-42.4	24.2	0.00e+00	0	39	0	0	51	4770
2026-01-17 19:50:14.81	165.07	11.24	-40.1	-42.3	24.2	6.63e-04	0	39	0	0	51	4753
2026-01-17 19:50:16.83	164.47	11.30	-40.2	-42.6	24.0	0.00e+00	0	39	0	0	51	4873
2026-01-17 19:50:18.81	163.87	11.36	-40.1	-42.4	24.0	0.00e+00	0	39	0	0	51	4810
2026-01-17 19:50:20.95	163.22	11.42	-40.1	-42.3	24.1	0.00e+00	0	40	0	0	51	4758
2026-01-17 19:50:22.94	162.62	11.48	-40.0	-42.3	24.2	0.00e+00	0	40	0	0	51	4711
2026-01-17 19:50:24.93	162.01	11.53	-39.8	-42.0	24.5	0.00e+00	0	40	0	0	51	4574
2026-01-17 19:50:26.92	161.40	11.58	-39.9	-42.1	24.3	0.00e+00	0	39	0	0	51	4630
2026-01-17 19:50:28.91	160.78	11.63	-39.9	-42.2	24.3	0.00e+00	0	39	0	0	51	4653
2026-01-17 19:50:30.93	160.16	11.67	-40.0	-42.2	24.3	0.00e+00	0	40	0	0	51	4686
2026-01-17 19:50:32.95	159.53	11.72	-40.1	-42.4	24.1	0.00e+00	0	40	0	0	51	4767
2026-01-17 19:50:34.94	158.90	11.76	-39.9	-42.2	24.4	1.12e-03	0	39	0	0	51	4653
2026-01-17 19:50:36.93	158.28	11.80	-39.8	-42.0	24.4	4.91e-03	0	39	0	0	51	4578
2026-01-17 19:50:38.92	157.65	11.83	-39.7	-41.9	24.6	0.00e+00	0	39	0	0	51	4533
2026-01-17 19:50:41.13	156.96	11.87	-39.4	-41.6	24.9	4.41e-03	0	39	0	0	50	4602
2026-01-17 19:50:43.13	156.32	11.90	-39.3	-41.4	24.9	3.96e-03	0	39	0	0	50	4538
2026-01-17 19:50:45.12	155.69	11.93	-38.7	-40.8	25.5	0.00e+00	0	40	0	0	49	4484
2026-01-17 19:50:47.11	155.06	11.95	-38.6	-40.8	21.3	0.00e+00	0	39	0	0	49	4459
2026-01-17 19:50:49.10	154.42	11.98	-38.7	-40.8	25.5	0.00e+00	0	39	0	0	49	4482
2026-01-17 19:50:51.09	153.79	11.99	-39.2	-41.4	25.0	0.00e+00	0	40	0	0	49	4800
2026-01-17 19:50:53.08	153.15	12.01	-39.5	-41.7	24.7	0.00e+00	0	39	0	0	49	4952
2026-01-17 19:50:55.01	152.53	12.03	-39.6	-41.8	24.6	0.00e+00	0	39	0	0	49	5032
2026-01-17 19:50:57.00	151.90	12.04	-39.6	-41.8	24.7	0.00e+00	0	39	0	0	49	5002
2026-01-17 19:50:58.99	151.26	12.05	-39.3	-41.5	24.9	0.00e+00	0	40	0	0	49	4838
2026-01-17 19:51:00.97	150.62	12.05	-39.3	-41.5	24.9	0.00e+00	0	40	0	0	49	4843
2026-01-17 19:51:02.96	149.98	12.06	-39.1	-41.2	25.1	0.00e+00	0	39	0	0	49	4699
2026-01-17 19:51:04.95	149.34	12.06	-38.9	-41.0	25.4	0.00e+00	0	39	0	0	49	4574
2026-01-17 19:51:06.97	148.69	12.05	-38.9	-41.0	25.3	0.00e+00	0	40	0	0	49	4591
2026-01-17 19:51:08.97	148.05	12.05	-39.4	-41.5	24.9	0.00e+00	0	40	0	0	49	4866
2026-01-17 19:51:10.95	147.42	12.04	-39.6	-41.8	24.7	0.00e+00	0	40	0	0	49	4990
2026-01-17 19:51:12.94	146.78	12.03	-39.1	-41.3	25.1	0.00e+00	0	40	0	0	49	4730
2026-01-17 19:51:14.93	146.14	12.02	-38.9	-41.1	25.2	0.00e+00	0	40	0	0	49	4618
2026-01-17 19:51:16.92	145.50	12.00	-38.8	-40.9	25.4	0.00e+00	0	39	0	0	49	4524
2026-01-17 19:51:18.91	144.87	11.99	-38.9	-41.0	25.3	0.00e+00	0	39	0	0	49	4571
2026-01-17 19:51:20.90	144.23	11.96	-39.2	-41.3	25.1	0.00e+00	0	39	0	0	49	4742
2026-01-17 19:51:22.95	143.58	11.94	-39.4	-41.6	24.9	0.00e+00	0	40	0	0	49	4873
2026-01-17 19:51:24.94	142.95	11.91	-39.2	-41.4	25.0	0.00e+00	0	40	0	0	49	4773
2026-01-17 19:51:26.93	142.32	11.88	-39.0	-41.1	25.2	0.00e+00	0	40	0	0	49	4638
2026-01-17 19:51:28.92	141.69	11.85	-38.9	-41.1	25.3	0.00e+00	0	40	0	0	49	4605
2026-01-17 19:51:30.91	141.07	11.82	-39.5	-41.7	24.7	0.00e+00	0	40	0	0	49	4953
2026-01-17 19:51:32.90	140.44	11.78	-39.9	-42.2	24.3	0.00e+00	0	40	0	0	50	4950
2026-01-17 19:51:34.89	139.82	11.74	-40.0	-42.2	24.2	0.00e+00	0	40	0	0	50	4957
2026-01-17 19:51:36.88	139.20	11.70	-39.8	-42.1	24.3	0.00e+00	0	40	0	0	50	4888
2026-01-17 19:51:39.08	138.52	11.65	-39.7	-42.0	24.5	0.00e+00	0	40	0	0	50	4816
2026-01-17 19:51:41.25	137.85	11.60	-40.0	-42.3	24.3	0.00e+00	0	40	0	0	50	4988
2026-01-17 19:51:43.24	137.24	11.55	-40.3	-42.6	23.8	0.00e+00	0	40	0	0	51	4921
2026-01-17 19:51:45.23	136.63	11.50	-40.4	-42.8	23.7	0.00e+00	0	40	0	0	51	4996
2026-01-17 19:51:47.22	136.02	11.44	-40.2	-42.5	24.0	0.00e+00	0	40	0	0	51	4839
2026-01-17 19:51:49.21	135.42	11.39	-39.8	-42.0	24.4	0.00e+00	0	40	0	0	51	4595
2026-01-17 19:51:51.21	134.82	11.33	-40.0	-42.3	24.1	0.00e+00	0	40	0	0	51	4709
2026-01-17 19:51:53.20	134.22	11.27	-40.3	-42.7	23.8	0.00e+00	0	40	0	0	51	4945
2026-01-17 19:51:55.19	133.63	11.21	-40.5	-42.8	23.6	0.00e+00	0	40	0	0	51	5018
2026-01-17 19:51:57.18	133.04	11.14	-40.2	-42.5	23.9	0.00e+00	0	40	0	0	51	4851
2026-01-17 19:51:59.46	132.37	11.06	-39.5	-41.7	24.6	0.00e+00	0	40	0	0	50	4685
2026-01-17 19:52:01.45	131.79	11.00	-39.4	-41.6	24.7	0.00e+00	0	40	0	0	50	4648
2026-01-17 19:52:03.45	131.20	10.92	-39.9	-42.2	24.2	0.00e+00	0	40	0	0	50	4950
2026-01-17 19:52:05.47	130.62	10.85	-40.4	-42.8	23.7	0.00e+00	0	40	0	0	51	4990
2026-01-17 19:52:07.46	130.05	10.77	-40.6	-43.0	23.5	0.00e+00	0	40	0	0	51	5105
2026-01-17 19:52:09.46	129.48	10.70	-40.1	-42.4	24.0	0.00e+00	0	40	0	0	51	4782
2026-01-17 19:52:11.53	128.90	10.62	-39.6	-41.9	24.5	0.00e+00	0	40	0	0	51	4503
2026-01-17 19:52:13.62	128.31	10.53	-39.6	-41.8	24.5	0.00e+00	0	40	0	0	51	4482
2026-01-17 19:52:15.64	127.75	10.45	-39.9	-42.1	24.2	0.00e+00	0	40	0	0	51	4651
2026-01-17 19:52:17.63	127.20	10.37	-40.6	-43.0	23.4	0.00e+00	0	40	0	0	51	5105
2026-01-17 19:52:19.58	126.67	10.28	-40.7	-43.1	23.2	0.00e+00	0	40	0	0	52	4922
2026-01-17 19:52:21.57	126.13	10.20	-40.8	-43.3	23.0	0.00e+00	0	40	0	0	52	4999
2026-01-17 19:52:23.56	125.59	10.11	-40.6	-43.0	23.3	0.00e+00	0	40	0	0	52	4819
2026-01-17 19:52:25.55	125.06	10.02	-40.3	-42.6	23.6	0.00e+00	0	40	0	0	52	4634
2026-01-17 19:52:27.59	124.52	9.93	-40.1	-42.5	23.8	0.00e+00	0	40	0	0	52	4551
2026-01-17 19:52:29.64	123.98	9.83	-40.3	-42.6	23.6	0.00e+00	0	40	0	0	52	4639
2026-01-17 19:52:31.63	123.46	9.74	-40.6	-43.1	23.2	0.00e+00	0	40	0	0	52	4872
2026-01-17 19:52:33.62	122.95	9.64	-40.7	-43.2	23.2	0.00e+00	0	40	0	0	52	4933
2026-01-17 19:52:35.80	122.39	9.54	-40.5	-42.9	23.2	0.00e+00	0	40	0	0	52	4810
2026-01-17 19:52:37.79	121.89	9.44	-40.0	-42.4	23.7	0.00e+00	0	40	0	0	51	4771
2026-01-17 19:52:39.78	121.39	9.35	-40.0	-42.3	23.8	0.00e+00	0	40	0	0	51	4735
2026-01-17 19:52:41.77	120.89	9.25	-40.4	-42.8	23.4	0.00e+00	0	40	0	0	51	5021
2026-01-17 19:52:43.75	120.40	9.15	-41.0	-43.6	22.6	0.00e+00	0	40	0	0	52	5178
2026-01-17 19:52:45.74	119.92	9.05	-41.0	-43.5	22.7	0.00e+00	0	40	0	0	52	5137
2026-01-17 19:52:47.67	119.45	8.95	-49.0	-67.5	3.8	0.00e+00	0	40	104	0	68	32479
2026-01-17 19:52:49.65	118.98	8.85	-49.2	-68.1	3.8	8.47e-01	0	40	104	0	69	32564
2026-01-17 19:52:51.64	118.50	8.74	-49.2	-68.1	3.8	8.47e-01	0	40	104	0	69	32621
2026-01-17 19:52:53.63	118.04	8.64	-49.3	-68.1	3.8	8.47e-01	0	40	104	0	69	32765
2026-01-17 19:52:55.62	117.57	8.54	-49.3	-68.1	3.8	8.47e-01	0	40	104	0	69	32860
2026-01-17 19:52:57.60	117.12	8.43	-49.0	-68.1	3.8	8.46e-01	0	40	104	0	69	32869
2026-01-17 19:52:59.59	116.66	8.33	-49.1	-68.2	3.8	8.48e-01	0	40	104	0	69	32941
2026-01-17 19:53:01.58	116.22	8.22	-49.1	-68.1	3.8	8.47e-01	0	40	104	0	69	32906
2026-01-17 19:53:03.56	115.77	8.11	-48.9	-68.1	3.8	8.47e-01	0	40	104	0	69	32916
2026-01-17 19:53:05.55	115.33	8.00	-48.9	-68.2	3.8	8.47e-01	0	40	104	0	69	32938
2026-01-17 19:53:07.54	114.90	7.90	-49.0	-68.2	3.8	8.46e-01	0	40	104	0	69	32960
2026-01-17 19:53:09.53	114.47	7.79	-49.0	-68.1	3.8	8.47e-01	0	40	104	0	69	32699
2026-01-17 19:53:11.51	114.04	7.68	-49.0	-68.1	3.8	8.47e-01	0	40	104	0	69	32651
2026-01-17 19:53:13.50	113.62	7.57	-49.0	-68.1	3.8	8.47e-01	0	40	104	0	69	32710
2026-01-17 19:53:15