passes_logs/2026/01/17/T1/T1__20260117_073203_NOAA_20_JPSS-1_rec.log

#Pass ID: 20260117_073203_NOAA 20 (JPSS-1)
#Satellite: NOAA 20 (JPSS-1)
#Configuration: NOAA 20
#almurnet v.1.7.20251203
#Start time: 2026-01-17 07:32:03

#Version: 2.0.20230620
#Station: T1
#Location: 37.570604 lon 55.790049 lat
#TLE: 1 43013U 17073A   26016.24631778  .00000038  00000+0  39093-4 0  9990
#TLE: 2 43013  98.7637 317.1726 0001455  37.6755 322.4523 14.19536243422915

#Time	Az	El	Level	Level2	SNR	BER	BlckErr	Temp	State	Recorded	gain1	gain2
2026-01-17 07:32:03.34	82.36	5.00	-49.9	-65.2	3.8	1.49e+00	0	41	0	0	71	20931
2026-01-17 07:32:05.32	82.14	5.09	-49.9	-65.2	3.8	1.49e+00	0	41	104	0	71	20811
2026-01-17 07:32:07.31	81.91	5.19	-49.9	-65.2	3.8	1.49e+00	0	41	104	0	71	20807
2026-01-17 07:32:09.30	81.68	5.28	-49.9	-65.2	3.8	1.49e+00	0	41	104	0	71	20800
2026-01-17 07:32:11.29	81.45	5.38	-49.9	-65.2	3.8	1.49e+00	0	41	104	0	71	20834
2026-01-17 07:32:13.27	81.22	5.47	-49.9	-65.2	3.8	1.49e+00	0	41	104	0	71	20801
2026-01-17 07:32:15.26	80.98	5.56	-49.9	-65.1	3.8	1.49e+00	0	41	104	0	71	20750
2026-01-17 07:32:17.24	80.75	5.66	-49.9	-65.2	3.8	1.49e+00	0	41	104	0	71	20778
2026-01-17 07:32:19.23	80.51	5.75	-49.9	-65.1	3.8	1.49e+00	0	41	104	0	71	20767
2026-01-17 07:32:21.22	80.27	5.85	-49.9	-65.1	3.8	1.49e+00	0	41	104	0	71	20745
2026-01-17 07:32:23.20	80.04	5.94	-49.8	-65.1	3.8	1.49e+00	0	41	104	0	71	20723
2026-01-17 07:32:25.19	79.79	6.03	-49.9	-65.1	3.8	1.49e+00	0	42	104	0	71	20725
2026-01-17 07:32:27.18	79.55	6.12	-49.9	-65.1	3.8	1.49e+00	0	41	104	0	71	20772
2026-01-17 07:32:29.16	79.31	6.22	-49.8	-65.2	3.8	1.49e+00	0	42	104	0	71	20785
2026-01-17 07:32:31.15	79.06	6.31	-49.9	-65.1	3.8	1.49e+00	0	42	104	0	71	20760
2026-01-17 07:32:33.14	78.81	6.40	-49.9	-65.1	3.8	1.49e+00	0	42	104	0	71	20684
2026-01-17 07:32:35.12	78.56	6.50	-49.8	-65.1	3.8	1.49e+00	0	42	104	0	71	20686
2026-01-17 07:32:37.11	78.31	6.59	-49.8	-65.1	3.8	1.49e+00	0	42	104	0	71	20707
2026-01-17 07:32:39.09	78.06	6.68	-49.8	-65.1	3.8	1.49e+00	0	42	104	0	71	20669
2026-01-17 07:32:41.08	77.81	6.77	-49.8	-65.1	3.8	1.49e+00	0	42	104	0	71	20558
2026-01-17 07:32:43.07	77.55	6.86	-49.8	-65.1	3.8	1.49e+00	0	42	104	0	71	20587
2026-01-17 07:32:45.05	77.29	6.95	-49.8	-65.0	3.8	1.49e+00	0	42	104	0	71	20415
2026-01-17 07:32:47.04	77.03	7.05	-49.8	-65.0	3.8	1.49e+00	0	42	104	0	71	20403
2026-01-17 07:32:49.03	76.77	7.14	-49.8	-65.0	3.8	1.49e+00	0	42	104	0	71	20524
2026-01-17 07:32:51.01	76.51	7.23	-49.8	-65.0	3.8	1.49e+00	0	42	104	0	71	20510
2026-01-17 07:32:53.00	76.25	7.32	-49.8	-65.1	3.8	1.49e+00	0	42	104	0	71	20603
2026-01-17 07:32:54.99	75.98	7.41	-49.8	-65.0	3.8	1.49e+00	0	42	104	0	71	20352
2026-01-17 07:32:56.97	75.71	7.50	-49.8	-64.9	3.8	1.49e+00	0	42	104	0	71	20175
2026-01-17 07:32:58.96	75.44	7.59	-49.8	-64.9	3.8	1.49e+00	0	42	104	0	71	20146
2026-01-17 07:33:00.95	75.17	7.68	-49.8	-65.0	3.8	1.49e+00	0	42	104	0	71	20432
2026-01-17 07:33:02.94	74.90	7.77	-49.8	-65.1	3.8	1.49e+00	0	43	104	0	71	20592
2026-01-17 07:33:04.92	74.63	7.86	-49.8	-65.0	3.8	1.49e+00	0	43	104	0	71	20471
2026-01-17 07:33:06.91	74.35	7.95	-49.8	-64.6	3.8	1.49e+00	0	43	104	0	71	19604
2026-01-17 07:33:08.90	74.07	8.03	-49.8	-64.4	3.8	1.49e+00	0	43	104	0	71	19004
2026-01-17 07:33:10.88	73.79	8.12	-49.8	-64.7	3.8	1.49e+00	0	43	104	0	71	19704
2026-01-17 07:33:12.87	73.51	8.21	-49.8	-65.0	3.8	1.49e+00	0	43	104	0	71	20497
2026-01-17 07:33:14.86	73.23	8.30	-49.8	-65.0	3.8	1.49e+00	0	43	104	0	71	20394
2026-01-17 07:33:16.84	72.95	8.38	-49.8	-63.8	3.8	1.49e+00	0	42	104	0	71	17867
2026-01-17 07:33:18.83	72.66	8.47	-49.7	-63.0	3.8	1.48e+00	0	43	104	0	71	16261
2026-01-17 07:33:20.82	72.37	8.56	-49.8	-64.8	3.8	1.49e+00	0	43	104	0	71	20046
2026-01-17 07:33:22.81	72.08	8.64	-49.1	-57.8	6.1	1.02e+00	0	43	0	1048576	70	9418
2026-01-17 07:33:24.79	71.79	8.73	-46.9	-51.4	12.3	1.14e-03	0	43	0	4194304	65	6056
2026-01-17 07:33:26.78	71.50	8.81	-45.5	-49.0	14.9	0.00e+00	0	43	0	8388608	63	5108
2026-01-17 07:33:28.77	71.20	8.90	-45.6	-49.1	14.8	0.00e+00	0	43	0	11534336	62	5507
2026-01-17 07:33:30.75	70.91	8.98	-47.1	-51.8	12.0	1.93e-04	0	43	0	15728640	64	6715
2026-01-17 07:33:32.74	70.61	9.06	-47.1	-51.8	12.0	3.83e-02	0	43	0	19922944	66	5926
2026-01-17 07:33:34.73	70.31	9.15	-49.3	-58.8	5.7	7.06e-02	0	43	0	23068672	69	11177
2026-01-17 07:33:36.73	70.00	9.23	-48.6	-56.1	7.9	3.80e-06	0	43	0	25165824	67	9219
2026-01-17 07:33:38.72	69.70	9.31	-44.8	-47.9	16.1	0.00e+00	0	43	0	28311552	61	5061
2026-01-17 07:33:40.71	69.39	9.39	-44.4	-47.3	16.6	0.00e+00	0	43	0	32505856	60	5029
2026-01-17 07:33:42.70	69.09	9.48	-44.2	-47.1	16.9	0.00e+00	0	43	0	35651584	60	4891
2026-01-17 07:33:44.69	68.78	9.56	-44.1	-46.9	17.1	0.00e+00	0	43	0	39845888	60	4765
2026-01-17 07:33:46.75	68.46	9.64	-44.0	-46.6	17.3	0.00e+00	0	43	0	44040192	59	4920
2026-01-17 07:33:48.75	68.14	9.72	-44.2	-47.0	17.0	0.00e+00	0	43	0	47185920	59	5111
2026-01-17 07:33:50.74	67.83	9.80	-44.0	-46.8	17.1	0.00e+00	0	43	0	51380224	59	5002
2026-01-17 07:33:52.73	67.51	9.88	-44.0	-46.8	17.2	0.00e+00	0	43	0	54525952	59	4996
2026-01-17 07:33:54.83	67.18	9.96	-44.3	-47.1	16.9	0.00e+00	0	43	0	58720256	59	5168
2026-01-17 07:33:56.82	66.86	10.04	-44.1	-46.9	17.1	0.00e+00	0	43	0	61865984	59	5049
2026-01-17 07:33:58.81	66.54	10.11	-44.3	-47.1	16.8	0.00e+00	0	43	0	66060288	59	5194
2026-01-17 07:34:00.80	66.21	10.19	-44.3	-47.1	16.9	0.00e+00	0	43	0	70254592	59	5171
2026-01-17 07:34:02.79	65.89	10.26	-44.2	-46.9	17.0	0.00e+00	0	43	0	73400320	59	5084
2026-01-17 07:34:04.78	65.56	10.34	-44.3	-47.1	16.9	0.00e+00	0	43	0	77594624	59	5211
2026-01-17 07:34:06.77	65.23	10.41	-44.4	-47.3	16.7	0.00e+00	0	43	0	80740352	59	5295
2026-01-17 07:34:08.73	64.91	10.49	-44.4	-47.2	16.7	0.00e+00	0	43	0	84934656	59	5278
2026-01-17 07:34:10.71	64.58	10.56	-44.6	-47.5	16.5	0.00e+00	0	43	0	88080384	59	5440
2026-01-17 07:34:12.71	64.24	10.63	-44.4	-47.2	16.8	0.00e+00	0	43	0	92274688	59	5276
2026-01-17 07:34:14.70	63.91	10.70	-44.3	-47.1	16.9	0.00e+00	0	43	0	95420416	59	5172
2026-01-17 07:34:16.69	63.57	10.77	-44.4	-47.2	16.8	0.00e+00	0	43	0	99614720	59	5223
2026-01-17 07:34:18.68	63.24	10.84	-44.3	-47.1	16.9	0.00e+00	0	43	0	103809024	59	5215
2026-01-17 07:34:20.66	62.90	10.91	-44.3	-47.1	16.9	0.00e+00	0	43	0	106954752	59	5207
2026-01-17 07:34:22.68	62.55	10.98	-44.4	-47.2	16.8	0.00e+00	0	43	0	111149056	59	5270
2026-01-17 07:34:24.74	62.20	11.05	-44.4	-47.2	16.8	0.00e+00	0	43	0	114294784	59	5258
2026-01-17 07:34:26.77	61.85	11.12	-44.3	-47.2	16.9	0.00e+00	0	43	0	118489088	59	5225
2026-01-17 07:34:28.84	61.49	11.19	-44.2	-47.0	16.9	0.00e+00	0	43	0	122683392	59	5150
2026-01-17 07:34:30.89	61.13	11.25	-44.3	-47.1	16.9	0.00e+00	0	43	0	125829120	59	5184
2026-01-17 07:34:32.88	60.78	11.32	-44.3	-47.1	16.9	0.00e+00	0	43	0	130023424	59	5210
2026-01-17 07:34:34.96	60.41	11.38	-44.2	-47.0	17.0	0.00e+00	0	43	0	134217728	59	5133
2026-01-17 07:34:37.43	59.97	11.46	-44.3	-47.0	17.0	0.00e+00	0	43	0	138412032	59	5150
2026-01-17 07:34:39.42	59.62	11.52	-44.3	-47.1	16.9	0.00e+00	0	43	0	142606336	59	5183
2026-01-17 07:34:41.46	59.26	11.58	-44.2	-47.0	17.1	0.00e+00	0	43	0	145752064	59	5104
2026-01-17 07:34:43.51	58.89	11.64	-44.2	-47.0	17.0	0.00e+00	0	43	0	149946368	59	5127
2026-01-17 07:34:45.56	58.52	11.70	-44.3	-47.0	17.0	0.00e+00	0	43	0	154140672	59	5151
2026-01-17 07:34:47.63	58.14	11.76	-44.2	-47.0	17.0	0.00e+00	0	43	0	157286400	59	5119
2026-01-17 07:34:49.66	57.78	11.82	-44.2	-46.9	17.2	0.00e+00	0	43	0	161480704	59	5066
2026-01-17 07:34:51.65	57.41	11.87	-44.3	-47.0	17.0	0.00e+00	0	43	0	165675008	59	5119
2026-01-17 07:34:53.64	57.05	11.93	-44.1	-46.8	17.2	0.00e+00	0	43	0	168820736	59	5006
2026-01-17 07:34:55.63	56.68	11.98	-43.9	-46.6	17.4	0.00e+00	0	43	0	173015040	59	4892
2026-01-17 07:34:57.63	56.31	12.03	-44.1	-46.9	17.2	0.00e+00	0	43	0	176160768	59	5060
2026-01-17 07:34:59.63	55.94	12.09	-44.1	-46.9	17.2	0.00e+00	0	43	0	180355072	59	5060
2026-01-17 07:35:01.62	55.57	12.14	-44.2	-47.0	17.1	0.00e+00	0	43	0	183500800	59	5107
2026-01-17 07:35:03.83	55.16	12.19	-44.5	-47.4	16.7	0.00e+00	0	43	0	187695104	59	5346
2026-01-17 07:35:05.85	54.79	12.24	-44.4	-47.2	16.9	0.00e+00	0	43	0	191889408	59	5250
2026-01-17 07:35:08.07	54.37	12.29	-44.5	-47.3	16.8	0.00e+00	0	43	0	196083712	59	5325
2026-01-17 07:35:10.07	53.99	12.34	-44.6	-47.5	16.6	0.00e+00	0	43	0	199229440	59	5434
2026-01-17 07:35:12.07	53.61	12.38	-44.6	-47.4	16.7	0.00e+00	0	43	0	203423744	59	5365
2026-01-17 07:35:14.06	53.24	12.42	-44.4	-47.2	16.9	0.00e+00	0	43	0	207618048	59	5271
2026-01-17 07:35:16.00	52.87	12.46	-44.5	-47.3	16.8	0.00e+00	0	43	0	210763776	59	5333
2026-01-17 07:35:17.99	52.49	12.51	-44.5	-47.3	16.7	0.00e+00	0	43	0	214958080	59	5339
2026-01-17 07:35:19.98	52.11	12.54	-44.5	-47.3	16.8	0.00e+00	0	43	0	218103808	59	5323
2026-01-17 07:35:21.97	51.73	12.58	-44.5	-47.3	16.8	0.00e+00	0	43	0	222298112	59	5318
2026-01-17 07:35:24.03	51.33	12.62	-44.4	-47.2	16.9	0.00e+00	0	43	0	225443840	59	5235
2026-01-17 07:35:26.08	50.94	12.66	-44.3	-47.0	17.0	0.00e+00	0	43	0	229638144	59	5146
2026-01-17 07:35:28.07	50.56	12.69	-44.3	-47.0	17.1	0.00e+00	0	43	0	233832448	59	5143
2026-01-17 07:35:30.07	50.17	12.73	-44.3	-47.0	17.1	0.00e+00	0	43	0	236978176	59	5118
2026-01-17 07:35:32.05	49.78	12.76	-44.1	-46.7	17.4	0.00e+00	0	43	0	241172480	59	4966
2026-01-17 07:35:34.04	49.40	12.79	-44.2	-46.9	17.2	0.00e+00	0	43	0	244318208	59	5057
2026-01-17 07:35:36.04	49.01	12.82	-44.0	-46.7	17.4	0.00e+00	0	43	0	248512512	59	4962
2026-01-17 07:35:38.03	48.62	12.85	-43.9	-46.5	17.5	0.00e+00	0	43	0	251658240	59	4869
2026-01-17 07:35:40.02	48.23	12.88	-43.9	-46.5	17.6	0.00e+00	0	43	0	255852544	59	4825
2026-01-17 07:35:42.01	47.84	12.90	-44.0	-46.7	17.4	0.00e+00	0	43	0	260046848	59	4953
2026-01-17 07:35:44.00	47.45	12.93	-44.0	-46.6	17.4	0.00e+00	0	43	0	263192576	59	4911
2026-01-17 07:35:45.99	47.06	12.95	-44.0	-46.6	17.5	0.00e+00	0	43	0	267386880	59	4925
2026-01-17 07:35:48.25	46.62	12.98	-44.1	-46.8	17.3	0.00e+00	0	43	0	271581184	59	4992
2026-01-17 07:35:50.42	46.19	13.00	-44.1	-46.8	17.3	0.00e+00	0	43	0	275775488	59	4988
2026-01-17 07:35:52.42	45.79	13.02	-43.9	-46.6	17.5	0.00e+00	0	43	0	278921216	59	4900
2026-01-17 07:35:54.47	45.39	13.04	-44.1	-46.7	17.3	0.00e+00	0	43	0	283115520	59	4982
2026-01-17 07:35:56.46	45.00	13.06	-43.9	-46.6	17.5	0.00e+00	0	43	0	286261248	59	4892
2026-01-17 07:35:58.52	44.59	13.07	-43.8	-46.4	17.6	0.00e+00	0	43	0	290455552	59	4802
2026-01-17 07:36:00.51	44.19	13.09	-43.7	-46.3	17.8	0.00e+00	0	43	0	294649856	59	4733
2026-01-17 07:36:02.50	43.80	13.10	-43.9	-46.5	17.5	0.00e+00	0	43	0	297795584	59	4838
2026-01-17 07:36:04.49	43.40	13.11	-43.9	-46.5	17.6	0.00e+00	0	43	0	301989888	59	4853
2026-01-17 07:36:06.50	43.00	13.12	-43.6	-46.2	17.9	0.00e+00	0	43	0	305135616	59	4655
2026-01-17 07:36:08.83	42.54	13.13	-43.7	-46.3	17.8	0.00e+00	0	43	0	310378496	59	4737
2026-01-17 07:36:11.09	42.09	13.14	-43.8	-46.4	17.7	0.00e+00	0	43	0	314572800	59	4780
2026-01-17 07:36:13.35	41.64	13.14	-43.8	-46.4	17.7	0.00e+00	0	43	0	318767104	59	4774
2026-01-17 07:36:15.63	41.19	13.15	-43.7	-46.3	17.7	0.00e+00	0	43	0	322961408	59	4753
2026-01-17 07:36:17.73	40.77	13.15	-43.8	-46.5	17.6	0.00e+00	0	43	0	326107136	59	4825
2026-01-17 07:36:19.72	40.37	13.15	-43.9	-46.5	17.6	0.00e+00	0	43	0	330301440	59	4830
2026-01-17 07:36:21.65	39.99	13.15	-43.7	-46.3	17.7	0.00e+00	0	43	0	333447168	59	4745
2026-01-17 07:36:23.63	39.59	13.15	-43.8	-46.5	17.6	0.00e+00	0	43	0	337641472	59	4850
2026-01-17 07:36:25.63	39.20	13.15	-43.9	-46.7	17.4	0.00e+00	0	43	0	341835776	59	4944
2026-01-17 07:36:27.61	38.80	13.14	-44.1	-46.9	17.2	0.00e+00	0	43	0	344981504	59	5061
2026-01-17 07:36:29.61	38.40	13.14	-44.1	-47.0	17.1	0.00e+00	0	43	0	349175808	59	5105
2026-01-17 07:36:31.67	37.99	13.13	-44.3	-47.2	16.9	0.00e+00	0	44	0	352321536	59	5232
2026-01-17 07:36:33.66	37.60	13.12	-44.3	-47.2	16.9	0.00e+00	0	43	0	356515840	59	5256
2026-01-17 07:36:35.80	37.17	13.11	-44.2	-47.2	16.9	0.00e+00	0	43	0	360710144	59	5237
2026-01-17 07:36:37.96	36.75	13.10	-44.2	-47.1	17.0	0.00e+00	0	43	0	364904448	59	5202
2026-01-17 07:36:40.06	36.33	13.09	-44.1	-47.0	17.1	0.00e+00	0	43	0	368050176	59	5118
2026-01-17 07:36:42.05	35.94	13.07	-44.3	-47.3	16.8	0.00e+00	0	43	0	372244480	59	5296
2026-01-17 07:36:44.24	35.50	13.06	-44.4	-47.5	16.6	0.00e+00	0	43	0	376438784	59	5416
2026-01-17 07:36:46.23	35.11	13.04	-44.4	-47.3	16.8	0.00e+00	0	43	0	379584512	59	5283
2026-01-17 07:36:48.24	34.71	13.02	-44.2	-47.0	17.1	0.00e+00	0	43	0	383778816	59	5103
2026-01-17 07:36:50.24	34.32	13.00	-44.2	-46.9	17.2	0.00e+00	0	43	0	387973120	59	5083
2026-01-17 07:36:52.23	33.93	12.98	-44.3	-47.1	17.0	0.00e+00	0	43	0	391118848	59	5176
2026-01-17 07:36:54.28	33.52	12.96	-44.4	-47.2	16.9	0.00e+00	0	43	0	395313152	59	5257
2026-01-17 07:36:56.34	33.12	12.93	-44.4	-47.2	16.9	0.00e+00	0	43	0	398458880	59	5277
2026-01-17 07:36:58.32	32.73	12.91	-44.3	-47.2	17.0	0.00e+00	0	43	0	402653184	59	5223
2026-01-17 07:37:00.33	32.34	12.88	-44.1	-46.9	17.2	0.00e+00	0	43	0	406847488	59	5078
2026-01-17 07:37:02.34	31.95	12.86	-43.9	-46.7	17.4	0.00e+00	0	43	0	409993216	59	4943
2026-01-17 07:37:04.33	31.56	12.83	-44.1	-46.8	17.3	0.00e+00	0	43	0	414187520	59	5019
2026-01-17 07:37:06.35	31.16	12.80	-44.1	-46.8	17.2	0.00e+00	0	43	0	417333248	59	5039
2026-01-17 07:37:08.36	30.77	12.77	-44.2	-46.9	17.2	0.00e+00	0	43	0	421527552	59	5068
2026-01-17 07:37:10.36	30.39	12.73	-44.3	-47.0	17.1	0.00e+00	0	43	0	425721856	59	5140
2026-01-17 07:37:12.36	30.00	12.70	-44.2	-46.9	17.2	0.00e+00	0	43	0	428867584	59	5078
2026-01-17 07:37:14.65	29.56	12.66	-44.3	-47.1	17.0	0.00e+00	0	44	0	433061888	59	5193
2026-01-17 07:37:16.79	29.15	12.62	-44.2	-47.1	17.0	0.00e+00	0	43	0	437256192	59	5173
2026-01-17 07:37:18.78	28.77	12.58	-44.3	-47.2	16.9	0.00e+00	0	43	0	441450496	59	5236
2026-01-17 07:37:20.77	28.39	12.55	-44.2	-47.1	17.0	0.00e+00	0	43	0	444596224	59	5199
2026-01-17 07:37:22.78	28.00	12.51	-44.2	-47.0	17.1	0.00e+00	0	43	0	448790528	59	5145
2026-01-17 07:37:24.78	27.62	12.46	-44.1	-46.9	17.2	0.00e+00	0	43	0	451936256	59	5091
2026-01-17 07:37:26.77	27.25	12.42	-44.2	-47.1	17.0	0.00e+00	0	43	0	456130560	59	5178
2026-01-17 07:37:28.78	26.87	12.38	-44.3	-47.1	17.0	0.00e+00	0	43	0	459276288	59	5193
2026-01-17 07:37:30.76	26.49	12.33	-44.3	-47.2	16.9	0.00e+00	0	43	0	463470592	59	5250
2026-01-17 07:37:32.77	26.12	12.29	-44.2	-47.1	17.0	0.00e+00	0	44	0	467664896	59	5175
2026-01-17 07:37:34.77	25.74	12.24	-44.0	-46.9	17.1	0.00e+00	0	43	0	470810624	59	5085
2026-01-17 07:37:36.76	25.37	12.19	-44.0	-47.0	17.1	0.00e+00	0	43	0	475004928	59	5102
2026-01-17 07:37:38.75	25.00	12.15	-43.9	-46.9	17.1	0.00e+00	0	43	0	478150656	59	5057
2026-01-17 07:37:40.76	24.63	12.10	-44.1	-47.0	17.0	0.00e+00	0	43	0	482344960	59	5146
2026-01-17 07:37:42.76	24.26	12.04	-44.1	-46.9	17.1	0.00e+00	0	43	0	486539264	59	5083
2026-01-17 07:37:44.75	23.89	11.99	-44.2	-47.0	17.1	0.00e+00	0	44	0	489684992	59	5130
2026-01-17 07:37:46.74	23.53	11.94	-44.1	-46.9	17.1	0.00e+00	0	43	0	493879296	59	5073
2026-01-17 07:37:48.74	23.16	11.89	-44.0	-46.8	17.3	0.00e+00	0	43	0	497025024	59	4986
2026-01-17 07:37:50.73	22.80	11.83	-44.0	-46.7	17.3	0.00e+00	0	43	0	501219328	59	4951
2026-01-17 07:37:52.72	22.44	11.78	-43.9	-46.6	17.4	0.00e+00	0	43	0	504365056	59	4895
2026-01-17 07:37:54.73	22.08	11.72	-43.9	-46.7	17.4	0.00e+00	0	44	0	508559360	59	4947
2026-01-17 07:37:56.78	21.71	11.66	-43.5	-46.4	17.6	0.00e+00	0	44	0	512753664	59	4778
2026-01-17 07:37:58.77	21.35	11.60	-43.4	-46.3	17.6	0.00e+00	0	43	0	515899392	58	4989
2026-01-17 07:38:00.78	21.00	11.54	-43.5	-46.4	17.5	0.00e+00	0	43	0	520093696	58	5048
2026-01-17 07:38:02.77	20.64	11.48	-43.6	-46.5	17.5	0.00e+00	0	43	0	523239424	58	5131
2026-01-17 07:38:04.77	20.29	11.42	-43.7	-46.7	17.3	0.00e+00	0	43	0	527433728	58	5264
2026-01-17 07:38:06.78	19.93	11.35	-43.7	-46.7	17.3	0.00e+00	0	43	0	530579456	58	5225
2026-01-17 07:38:08.77	19.59	11.29	-43.7	-46.6	17.1	0.00e+00	0	43	0	534773760	58	5195
2026-01-17 07:38:11.01	19.20	11.22	-43.6	-46.4	15.7	0.00e+00	0	43	0	538968064	58	5097
2026-01-17 07:38:13.00	18.85	11.15	-43.6	-46.4	15.3	0.00e+00	0	43	0	543162368	58	5065
2026-01-17 07:38:14.98	18.51	11.09	-43.7	-46.5	16.8	0.00e+00	0	44	0	546308096	58	5107
2026-01-17 07:38:16.97	18.17	11.02	-43.7	-46.3	17.5	0.00e+00	0	44	0	550502400	58	5018
2026-01-17 07:38:18.99	17.82	10.95	-43.7	-46.3	17.0	0.00e+00	0	43	0	553648128	58	5027
2026-01-17 07:38:20.90	17.49	10.89	-43.8	-46.5	17.0	0.00e+00	0	43	0	557842432	58	5105
2026-01-17 07:38:22.89	17.16	10.82	-43.9	-46.7	16.9	0.00e+00	0	43	0	560988160	58	5224
2026-01-17 07:38:24.88	16.82	10.75	-44.0	-46.9	16.7	0.00e+00	0	43	0	565182464	58	5381
2026-01-17 07:38:26.87	16.49	10.68	-44.0	-47.1	16.9	0.00e+00	0	44	0	568328192	58	5474
2026-01-17 07:38:28.86	16.15	10.61	-44.1	-47.2	16.8	0.00e+00	0	44	0	572522496	58	5583
2026-01-17 07:38:30.82	15.83	10.53	-44.0	-47.3	16.6	0.00e+00	0	43	0	575668224	58	5600
2026-01-17 07:38:32.81	15.50	10.46	-44.0	-47.3	16.7	0.00e+00	0	43	0	579862528	58	5627
2026-01-17 07:38:34.80	15.17	10.39	-44.2	-47.6	16.4	0.00e+00	0	43	0	584056832	59	5509
2026-01-17 07:38:36.79	14.85	10.31	-44.3	-47.7	16.3	0.00e+00	0	43	0	587202560	59	5565
2026-01-17 07:38:38.78	14.52	10.24	-44.4	-47.7	16.2	0.00e+00	0	43	0	591396864	59	5579
2026-01-17 07:38:40.77	14.20	10.16	-44.7	-48.0	16.0	0.00e+00	0	43	0	594542592	59	5738
2026-01-17 07:38:42.76	13.88	10.09	-44.8	-48.2	15.8	0.00e+00	0	43	0	598736896	60	5559
2026-01-17 07:38:44.86	13.54	10.01	-45.0	-48.4	15.7	0.00e+00	0	43	0	602931200	60	5670
2026-01-17 07:38:46.85	13.22	9.93	-45.1	-48.6	15.5	0.00e+00	0	44	0	606076928	60	5819
2026-01-17 07:38:48.84	12.91	9.85	-45.1	-48.7	15.4	0.00e+00	0	43	0	610271232	60	5860
2026-01-17 07:38:50.83	12.59	9.77	-45.1	-48.8	15.3	0.00e+00	0	44	0	613416960	60	5938
2026-01-17 07:38:52.82	12.28	9.69	-45.3	-49.0	15.1	0.00e+00	0	43	0	617611264	61	5726
2026-01-17 07:38:55.05	11.93	9.60	-45.2	-49.1	15.0	0.00e+00	0	43	0	621805568	61	5805
2026-01-17 07:38:57.03	11.63	9.52	-45.0	-49.0	15.1	0.00e+00	0	43	0	624951296	61	5736
2026-01-17 07:38:59.02	11.32	9.44	-45.0	-49.2	14.8	0.00e+00	0	44	0	629145600	61	5908
2026-01-17 07:39:01.02	11.01	9.36	-45.0	-49.7	14.4	0.00e+00	0	44	0	632291328	61	6208
2026-01-17 07:39:03.02	10.71	9.28	-44.9	-50.0	14.1	3.00e-06	0	43	0	636485632	61	6423
2026-01-17 07:39:05.04	10.40	9.20	-44.7	-49.9	14.1	1.50e-06	0	43	0	640679936	61	6381
2026-01-17 07:39:07.03	10.10	9.11	-44.6	-49.8	14.2	1.50e-06	0	44	0	643825664	61	6312
2026-01-17 07:39:09.04	9.80	9.03	-44.4	-49.8	14.3	7.00e-07	0	44	0	648019968	60	6659
2026-01-17 07:39:11.04	9.51	8.94	-49.4	-65.5	3.8	1.49e+00	0	44	104	650117120	69	24283
2026-01-17 07:39:13.03	9.21	8.86	-50.3	-65.7	3.8	1.49e+00	0	43	104	650117120	71	22078
2026-01-17 07:39:15.01	8.92	8.78	-50.1	-65.6	3.8	1.49e+00	0	44	104	650117120	71	21918
2026-01-17 07:39:17.00	8.63	8.69	-50.4	-65.9	3.8	1.49e+00	0	43	104	650117120	71	22585
2026-01-17 07:39:18.99	8.34	8.61	-50.4	-66.0	3.8	1.49e+00	0	43	104	650117120	71	22831
2026-01-17 07:39:20.97	8.05	8.52	-50.7	-66.0	3.8	1.49e+00	0	44	104	650117120	71	22938
2026-01-17 07:39:22.96	7.77	8.43	-50.7	-66.0	3.8	1.49e+00	0	43	104	650117120	72	21618
2026-01-17 07:39:24.96	7.48	8.35	-50.5	-66.0	3.8	1.49e+00	0	44	104	650117120	72	21699
2026-01-17 07:39:26.96	7.20	8.26	-50.6	-66.0	3.8	1.49e+00	0	43	104	650117120	72	21605
2026-01-17 07:39:28.95	6.92	8.17	-50.8	-66.0	3.8	1.49e+00	0	43	104	650117120	72	21605
2026-01-17 07:39:30.94	6.64	8.08	-50.8	-66.0	3.8	1.49e+00	0	43	104	650117120	72	21666
2026-01-17 07:39:32.94	6.36	8.00	-50.7	-66.0	3.8	1.49e+00	0	44	104	650117120	72	21682
2026-01-17 07:39:34.92	6.09	7.91	-50.6	-66.0	3.8	1.49e+00	0	44	104	650117120	72	21714
2026-01-17 07:39:36.91	5.81	7.82	-50.4	-66.0	3.8	1.49e+00	0	44	104	650117120	72	21532
2026-01-17 07:39:38.90	5.54	7.73	-50.4	-66.0	3.8	1.49e+00	0	44	104	650117120	72	21513
2026-01-17 07:39:40.88	5.27	7.64	-50.4	-65.9	3.8	1.49e+00	0	43	104	650117120	72	21465
2026-01-17 07:39:42.87	5.00	7.55	-50.4	-66.0	3.8	1.49e+00	0	44	104	650117120	72	21531
2026-01-17 07:39:44.87	4.74	7.46	-50.4	-66.0	3.8	1.49e+00	0	44	104	650117120	72	21554
2026-01-17 07:39:46.87	4.47	7.37	-50.4	-65.9	3.8	1.49e+00	0	44	104	650117120	72	21486
2026-01-17 07:39:48.86	4.21	7.28	-50.4	-65.9	3.8	1.49e+00	0	44	104	650117120	72	21479
2026-01-17 07:39:50.85	3.94	7.19	-50.4	-65.9	3.8	1.49e+00	0	43	104	650117120	72	21392
2026-01-17 07:39:52.84	3.68	7.10	-50.4	-66.0	3.8	1.49e+00	0	44	104	650117120	72	21534
2026-01-17 07:39:54.82	3.43	7.01	-50.4	-66.0	3.8	1.49e+00	0	44	104	650117120	72	21520
2026-01-17 07:39:56.81	3.17	6.92	-50.4	-65.9	3.8	1.49e+00	0	44	104	650117120	72	21466
2026-01-17 07:39:58.81	2.91	6.83	-50.4	-65.9	3.8	1.49e+00	0	44	104	650117120	72	21415
2026-01-17 07:40:00.79	2.66	6.73	-50.4	-65.9	3.8	1.49e+00	0	44	104	650117120	72	21375
2026-01-17 07:40:02.78	2.41	6.64	-50.4	-65.9	3.8	1.49e+00	0	44	104	650117120	72	21368
2026-01-17 07:40:04.77	2.16	6.55	-50.4	-65.9	3.8	1.49e+00	0	44	104	650117120	72	21456
2026-01-17 07:40:06.75	1.91	6.46	-50.3	-65.9	3.8	1.49e+00	0	44	104	650117120	72	21394
2026-01-17 07:40:08.75	1.66	6.37	-50.4	-65.9	3.8	1.49e+00	0	43	104	650117120	72	21440
2026-01-17 07:40:10.74	1.42	6.27	-50.3	-65.9	3.8	1.49e+00	0	44	104	650117120	72	21504
2026-01-17 07:40:12.73	1.17	6.18	-50.3	-65.9	3.8	1.49e+00	0	43	104	650117120	72	21469
2026-01-17 07:40:14.71	0.93	6.09	-50.3	-65.9	3.8	1.49e+00	0	44	104	650117120	72	21394
2026-01-17 07:40:16.70	0.69	5.99	-50.3	-65.9	3.8	1.49e+00	0	44	104	650117120	72	21342
2026-01-17 07:40:18.69	0.45	5.90	-50.4	-65.9	3.8	1.49e+00	0	44	104	650117120	72	21426
2026-01-17 07:40:20.68	0.22	5.81	-50.4	-65.9	3.8	1.49e+00	0	44	104	650117120	72	21464
2026-01-17 07:40:22.66	359.98	5.71	-50.3	-65.9	3.8	1.49e+00	0	44	104	650117120	72	21382
2026-01-17 07:40:24.67	359.74	5.62	-50.4	-65.9	3.8	1.49e+00	0	44	104	650117120	72	21435
2026-01-17 07:40:26.65	359.51	5.53	-50.3	-65.9	3.8	1.49e+00	0	44	104	650117120	72	21328
2026-01-17 07:40:28.64	359.28	5.43	-50.3	-65.9	3.8	1.49e+00	0	43	104	650117120	72	21405
2026-01-17 07:40:30.64	359.05	5.34	-50.3	-65.9	3.8	1.49e+00	0	44	104	650117120	72	21410
2026-01-17 07:40:32.63	358.82	5.24	-50.3	-65.9	3.8	1.49e+00	0	44	104	650117120	72	21400
2026-01-17 07:40:34.63	358.59	5.15	-50.3	-65.9	3.8	1.49e+00	0	44	104	650117120	72	21482
2026-01-17 07:40:36.63	358.37	5.06	-50.3	-65.9	3.8	1.49e+00	0	43	104	650117120	72	21394

#Closed at: 2026-01-17 07:40:38
#Recorded file [650 MB]: D:/Data/31040_260117_103203.dat