passes_logs/2026/01/17/T1/T1__20260117_084902_SUOMI_NPP_rec.log

#Pass ID: 20260117_084902_SUOMI NPP
#Satellite: SUOMI NPP
#Configuration: NPP
#almurnet v.1.7.20251203
#Start time: 2026-01-17 08:49:03

#Version: 2.0.20230620
#Station: T1
#Location: 37.570604 lon 55.790049 lat
#TLE: 1 37849U 11061A   26016.23176763  .00000061  00000+0  49926-4 0  9990
#TLE: 2 37849  98.7812 318.2698 0002434  61.5135 298.6286 14.19525545736883

#Time	Az	El	Level	Level2	SNR	BER	BlckErr	Temp	State	Recorded	gain1	gain2
2026-01-17 08:49:03.29	122.91	5.05	-49.4	-65.1	3.8	1.49e+00	0	37	0	0	70	21869
2026-01-17 08:49:06.27	122.73	5.25	-49.4	-65.1	3.8	1.49e+00	0	37	104	0	70	21799
2026-01-17 08:49:09.25	122.54	5.45	-49.4	-65.1	3.8	1.49e+00	0	38	104	0	70	21977
2026-01-17 08:49:12.23	122.36	5.65	-49.8	-65.0	3.8	1.49e+00	0	38	104	0	70	21732
2026-01-17 08:49:15.21	122.17	5.85	-49.8	-65.0	3.8	1.49e+00	0	38	104	0	70	21613
2026-01-17 08:49:18.19	121.97	6.05	-49.4	-65.1	3.8	1.49e+00	0	38	104	0	70	21820
2026-01-17 08:49:21.17	121.78	6.25	-49.4	-65.1	3.8	1.49e+00	0	38	104	0	70	21799
2026-01-17 08:49:24.15	121.58	6.46	-49.4	-65.0	3.8	1.49e+00	0	38	104	0	70	21594
2026-01-17 08:49:27.13	121.38	6.67	-49.7	-64.9	3.8	1.49e+00	0	38	104	0	70	21392
2026-01-17 08:49:30.11	121.17	6.87	-49.8	-64.9	3.8	1.49e+00	0	38	104	0	70	21482
2026-01-17 08:49:33.09	120.97	7.08	-49.4	-65.0	3.8	1.49e+00	0	38	104	0	70	21679
2026-01-17 08:49:36.07	120.76	7.29	-49.3	-64.6	3.8	1.49e+00	0	38	104	0	70	20656
2026-01-17 08:49:39.05	120.54	7.50	-49.3	-63.9	3.8	1.49e+00	0	38	104	0	70	19027
2026-01-17 08:49:42.03	120.33	7.72	-49.7	-63.6	3.8	1.49e+00	0	38	104	0	70	18366
2026-01-17 08:49:45.01	120.11	7.93	-48.9	-59.1	5.2	8.46e-01	0	39	0	1048576	69	11676
2026-01-17 08:49:47.99	119.88	8.14	-46.9	-51.4	12.2	9.18e-04	0	39	0	6291456	65	6034
2026-01-17 08:49:50.97	119.66	8.36	-45.0	-48.1	15.6	0.00e+00	0	39	0	12582912	61	5201
2026-01-17 08:49:53.95	119.43	8.58	-45.9	-49.6	14.1	1.50e-06	0	39	0	17825792	62	5848
2026-01-17 08:49:56.93	119.19	8.80	-47.3	-52.5	11.2	3.58e-04	0	39	0	23068672	65	6827
2026-01-17 08:49:59.91	118.95	9.02	-48.1	-55.6	7.9	3.82e-02	0	39	0	29360128	67	8711
2026-01-17 08:50:02.90	118.71	9.24	-49.3	-60.4	4.6	1.11e-01	0	39	0	34603008	69	13499
2026-01-17 08:50:05.88	118.47	9.47	-47.7	-53.3	10.2	3.74e-01	0	39	0	37748736	67	6678
2026-01-17 08:50:08.87	118.22	9.70	-47.6	-53.0	10.6	3.02e-03	0	39	0	42991616	67	6478
2026-01-17 08:50:11.85	117.96	9.92	-45.8	-49.4	14.4	2.20e-06	0	39	0	49283072	63	5373
2026-01-17 08:50:14.83	117.71	10.15	-45.8	-49.4	14.4	0.00e+00	0	39	0	54525952	63	5383
2026-01-17 08:50:17.90	117.44	10.39	-44.7	-47.8	16.1	0.00e+00	0	39	0	60817408	61	4987
2026-01-17 08:50:21.17	117.14	10.64	-44.8	-48.0	15.8	0.00e+00	0	39	0	66060288	60	5433
2026-01-17 08:50:23.90	116.90	10.86	-45.2	-48.4	15.5	0.00e+00	0	39	0	71303168	61	5352
2026-01-17 08:50:27.17	116.59	11.12	-44.8	-47.8	16.1	0.00e+00	0	39	0	77594624	61	4997
2026-01-17 08:50:29.89	116.34	11.33	-44.5	-47.3	16.6	0.00e+00	0	39	0	82837504	60	4994
2026-01-17 08:50:33.46	116.00	11.62	-45.0	-48.0	15.9	0.00e+00	0	39	0	89128960	61	5149
2026-01-17 08:50:36.24	115.73	11.84	-44.5	-47.3	16.6	0.00e+00	0	39	0	94371840	60	5037
2026-01-17 08:50:39.51	115.40	12.11	-44.7	-47.7	16.3	0.00e+00	0	39	0	100663296	60	5240
2026-01-17 08:50:42.35	115.12	12.34	-44.9	-47.9	16.0	0.00e+00	0	39	0	105906176	60	5385
2026-01-17 08:50:45.75	114.77	12.62	-44.2	-46.9	17.0	0.00e+00	0	39	0	112197632	60	4801
2026-01-17 08:50:48.47	114.49	12.85	-44.8	-47.7	16.2	0.00e+00	0	39	0	117440512	60	5271
2026-01-17 08:50:51.74	114.14	13.12	-44.8	-47.8	16.2	0.00e+00	0	39	0	123731968	60	5282
2026-01-17 08:50:54.45	113.85	13.35	-44.5	-47.4	16.6	0.00e+00	0	39	0	128974848	60	5067
2026-01-17 08:50:57.78	113.48	13.63	-45.1	-48.3	15.8	0.00e+00	0	39	0	135266304	61	5308
2026-01-17 08:51:00.61	113.17	13.87	-44.4	-47.3	16.7	0.00e+00	0	39	0	140509184	60	4985
2026-01-17 08:51:03.73	112.81	14.14	-44.2	-47.1	16.9	0.00e+00	0	39	0	145752064	60	4872
2026-01-17 08:51:06.57	112.48	14.39	-44.8	-47.9	16.2	0.00e+00	0	39	0	152043520	60	5378
2026-01-17 08:51:09.71	112.11	14.66	-43.9	-46.5	17.4	0.00e+00	0	39	0	157286400	59	4849
2026-01-17 08:51:12.55	111.77	14.91	-43.9	-46.5	17.4	0.00e+00	0	39	0	162529280	59	4840
2026-01-17 08:51:15.61	111.40	15.18	-44.4	-47.2	16.7	0.00e+00	0	40	0	168820736	59	5248
2026-01-17 08:51:19.02	110.97	15.48	-44.1	-46.7	17.2	0.00e+00	0	39	0	175112192	59	4981
2026-01-17 08:51:21.72	110.63	15.72	-44.5	-47.3	16.7	0.00e+00	0	39	0	180355072	59	5323
2026-01-17 08:51:25.00	110.21	16.02	-44.6	-47.6	16.5	0.00e+00	0	40	0	186646528	60	5176
2026-01-17 08:51:27.73	109.85	16.26	-44.4	-47.2	16.8	0.00e+00	0	39	0	190840832	60	4971
2026-01-17 08:51:31.05	109.40	16.56	-44.7	-47.6	16.5	0.00e+00	0	39	0	197132288	60	5198
2026-01-17 08:51:33.77	109.03	16.81	-44.9	-47.9	16.2	0.00e+00	0	39	0	202375168	60	5392
2026-01-17 08:51:37.21	108.55	17.13	-44.3	-47.1	16.9	0.00e+00	0	39	0	208666624	60	4915
2026-01-17 08:51:39.91	108.17	17.38	-44.3	-47.1	17.0	0.00e+00	0	39	0	213909504	60	4907
2026-01-17 08:51:43.18	107.70	17.68	-44.3	-47.1	17.0	0.00e+00	0	40	0	220200960	60	4881
2026-01-17 08:51:46.16	107.26	17.96	-44.2	-46.9	17.3	0.00e+00	0	39	0	225443840	59	5056
2026-01-17 08:51:49.54	106.75	18.28	-44.0	-46.5	17.5	0.00e+00	0	40	0	231735296	59	4868
2026-01-17 08:51:52.31	106.32	18.54	-43.6	-46.1	17.9	0.00e+00	0	40	0	236978176	59	4606
2026-01-17 08:51:55.72	105.79	18.87	-43.8	-46.4	17.6	0.00e+00	0	40	0	243269632	59	4766
2026-01-17 08:51:58.48	105.35	19.13	-44.2	-46.9	17.1	0.00e+00	0	40	0	248512512	59	5062
2026-01-17 08:52:01.76	104.82	19.44	-44.2	-46.9	17.1	0.00e+00	0	39	0	254803968	59	5061
2026-01-17 08:52:04.48	104.37	19.70	-44.1	-46.7	17.3	0.00e+00	0	39	0	260046848	59	4976
2026-01-17 08:52:07.74	103.82	20.02	-44.0	-46.6	17.5	0.00e+00	0	40	0	266338304	59	4877
2026-01-17 08:52:10.44	103.35	20.28	-43.6	-46.0	18.0	0.00e+00	0	40	0	271581184	59	4561
2026-01-17 08:52:13.71	102.78	20.60	-43.0	-45.3	18.7	0.00e+00	0	39	0	277872640	57	4706
2026-01-17 08:52:16.54	102.27	20.87	-43.7	-46.2	17.8	0.00e+00	0	39	0	283115520	58	4976
2026-01-17 08:52:19.67	101.70	21.18	-43.7	-46.1	17.9	0.00e+00	0	39	0	288358400	58	4910
2026-01-17 08:52:22.80	101.12	21.48	-44.5	-47.3	16.8	0.00e+00	0	39	0	294649856	59	5291
2026-01-17 08:52:25.64	100.58	21.76	-43.6	-46.0	18.0	0.00e+00	0	40	0	299892736	59	4578
2026-01-17 08:52:29.12	99.91	22.10	-44.2	-46.9	17.2	0.00e+00	0	40	0	306184192	59	5066
2026-01-17 08:52:31.88	99.37	22.37	-43.6	-46.1	17.9	0.00e+00	0	39	0	311427072	59	4623
2026-01-17 08:52:35.15	98.71	22.70	-44.3	-47.1	17.1	0.00e+00	0	40	0	317718528	59	5162
2026-01-17 08:52:38.04	98.12	22.98	-44.2	-46.9	17.1	0.00e+00	0	39	0	322961408	59	5077
2026-01-17 08:52:41.48	97.40	23.32	-44.2	-46.8	17.3	0.00e+00	0	39	0	329252864	59	5028
2026-01-17 08:52:44.17	96.83	23.58	-44.3	-47.0	17.2	0.00e+00	0	39	0	334495744	59	5143
2026-01-17 08:52:47.63	96.07	23.92	-44.6	-47.5	16.7	0.00e+00	0	39	0	340787200	60	5108
2026-01-17 08:52:50.33	95.48	24.18	-44.0	-46.7	17.5	0.00e+00	0	40	0	346030080	60	4662
2026-01-17 08:52:53.62	94.73	24.50	-43.7	-46.2	17.9	0.00e+00	0	40	0	352321536	59	4683
2026-01-17 08:52:56.32	94.11	24.76	-43.5	-45.9	18.1	0.00e+00	0	40	0	357564416	58	4795
2026-01-17 08:52:59.59	93.35	25.07	-42.5	-44.7	19.2	0.00e+00	0	40	0	363855872	57	4423
2026-01-17 08:53:02.43	92.67	25.35	-42.6	-44.8	19.1	0.00e+00	0	40	0	369098752	56	4747
2026-01-17 08:53:05.56	91.91	25.64	-43.0	-45.4	18.6	0.00e+00	0	39	0	374341632	56	5052
2026-01-17 08:53:08.43	91.20	25.91	-43.2	-45.6	18.4	0.00e+00	0	40	0	379584512	57	4900
2026-01-17 08:53:11.56	90.41	26.21	-44.2	-46.9	17.2	0.00e+00	0	40	0	385875968	59	5100
2026-01-17 08:53:14.41	89.68	26.47	-43.7	-46.3	17.8	0.00e+00	0	39	0	391118848	59	4739
2026-01-17 08:53:17.53	88.87	26.75	-44.0	-46.6	17.5	0.00e+00	0	39	0	397410304	59	4887
2026-01-17 08:53:20.38	88.11	27.01	-44.0	-46.6	17.5	0.00e+00	0	40	0	402653184	59	4881
2026-01-17 08:53:23.60	87.24	27.30	-43.5	-46.1	17.9	0.00e+00	0	40	0	408944640	59	4644
2026-01-17 08:53:26.44	86.46	27.55	-43.5	-46.2	17.7	0.00e+00	0	40	0	414187520	58	4928
2026-01-17 08:53:29.57	85.59	27.82	-43.8	-46.7	17.2	0.00e+00	0	40	0	419430400	58	5230
2026-01-17 08:53:32.56	84.74	28.07	-44.7	-47.9	16.1	0.00e+00	0	39	0	425721856	60	5401
2026-01-17 08:53:35.54	83.88	28.32	-45.1	-48.6	15.4	0.00e+00	0	40	0	430964736	61	5480
2026-01-17 08:53:38.52	83.01	28.57	-44.9	-48.2	15.9	0.00e+00	0	40	0	436207616	61	5263
2026-01-17 08:53:41.51	82.12	28.81	-44.3	-47.3	16.8	0.00e+00	0	40	0	442499072	60	5011
2026-01-17 08:53:44.49	81.22	29.04	-44.2	-47.1	16.9	0.00e+00	0	40	0	447741952	59	5204
2026-01-17 08:53:47.48	80.31	29.27	-44.2	-47.2	16.8	0.00e+00	0	39	0	452984832	59	5227
2026-01-17 08:53:50.47	79.38	29.49	-44.5	-47.7	16.4	0.00e+00	0	40	0	459276288	60	5260
2026-01-17 08:53:53.45	78.45	29.70	-44.5	-47.6	16.4	0.00e+00	0	39	0	464519168	60	5194
2026-01-17 08:53:56.44	77.50	29.90	-44.6	-47.6	16.5	0.00e+00	0	39	0	469762048	60	5202
2026-01-17 08:53:59.42	76.53	30.10	-44.1	-47.0	17.1	0.00e+00	0	40	0	476053504	60	4826
2026-01-17 08:54:02.47	75.54	30.30	-43.9	-46.6	17.5	0.00e+00	0	39	0	481296384	59	4902
2026-01-17 08:54:05.45	74.56	30.48	-44.4	-47.4	16.6	0.00e+00	0	40	0	486539264	59	5371
2026-01-17 08:54:08.44	73.56	30.65	-43.5	-46.2	17.7	0.00e+00	0	40	0	492830720	59	4668
2026-01-17 08:54:11.42	72.55	30.82	-43.8	-46.6	17.4	0.00e+00	0	39	0	498073600	58	5162
2026-01-17 08:54:14.41	71.53	30.97	-43.6	-46.2	17.8	0.00e+00	0	39	0	503316480	58	4955
2026-01-17 08:54:17.40	70.50	31.12	-44.5	-47.6	16.5	0.00e+00	0	39	0	509607936	59	5471
2026-01-17 08:54:20.48	69.44	31.26	-45.3	-48.9	15.2	7.00e-07	0	39	0	514850816	61	5710
2026-01-17 08:54:23.41	68.41	31.39	-44.5	-47.5	16.6	0.00e+00	0	39	0	521142272	60	5138
2026-01-17 08:54:26.70	67.25	31.51	-45.1	-48.4	15.8	0.00e+00	0	40	0	526385152	60	5696
2026-01-17 08:54:29.68	66.19	31.62	-44.3	-47.3	16.8	0.00e+00	0	39	0	532676608	60	5002
2026-01-17 08:54:33.00	65.01	31.72	-44.1	-46.8	17.3	0.00e+00	0	40	0	538968064	59	5011
2026-01-17 08:54:35.73	64.03	31.80	-45.2	-48.5	15.8	0.00e+00	0	40	0	544210944	60	5738
2026-01-17 08:54:39.03	62.84	31.87	-44.2	-47.0	17.1	0.00e+00	0	40	0	549453824	60	4838
2026-01-17 08:54:41.75	61.85	31.93	-44.6	-47.6	16.4	0.00e+00	0	40	0	554696704	59	5527
2026-01-17 08:54:45.02	60.66	31.98	-44.8	-48.0	16.1	0.00e+00	0	39	0	560988160	60	5451
2026-01-17 08:54:47.93	59.60	32.01	-45.3	-48.8	15.3	0.00e+00	0	39	0	566231040	61	5641
2026-01-17 08:54:51.21	58.40	32.04	-45.2	-48.5	15.6	0.00e+00	0	40	0	572522496	61	5446
2026-01-17 08:54:53.91	57.42	32.05	-44.6	-47.7	16.4	0.00e+00	0	40	0	577765376	61	4950
2026-01-17 08:54:57.20	56.21	32.05	-43.5	-46.1	17.9	0.00e+00	0	40	0	584056832	59	4612
2026-01-17 08:54:59.90	55.23	32.04	-44.1	-46.8	17.2	0.00e+00	0	39	0	589299712	58	5330
2026-01-17 08:55:03.12	54.05	32.01	-45.0	-48.2	15.9	0.00e+00	0	40	0	595591168	60	5552
2026-01-17 08:55:06.10	52.97	31.98	-44.8	-47.9	16.3	0.00e+00	0	39	0	600834048	61	5089
2026-01-17 08:55:09.09	51.88	31.93	-44.6	-47.7	16.4	0.00e+00	0	39	0	606076928	61	4970
2026-01-17 08:55:12.01	50.82	31.87	-44.7	-47.8	16.4	0.00e+00	0	39	0	611319808	61	5000
2026-01-17 08:55:15.15	49.69	31.80	-44.4	-47.4	16.6	0.00e+00	0	40	0	617611264	60	5083
2026-01-17 08:55:17.99	48.67	31.72	-45.0	-48.4	15.8	0.00e+00	0	40	0	622854144	60	5684
2026-01-17 08:55:21.11	47.56	31.63	-44.5	-47.6	16.5	0.00e+00	0	39	0	629145600	60	5182
2026-01-17 08:55:24.39	46.39	31.51	-44.0	-46.9	17.1	0.00e+00	0	40	0	635437056	59	5074
2026-01-17 08:55:27.11	45.44	31.41	-44.6	-47.7	16.3	0.00e+00	0	39	0	639631360	59	5577
2026-01-17 08:55:30.42	44.28	31.27	-44.7	-47.9	16.3	0.00e+00	0	39	0	645922816	59	5667
2026-01-17 08:55:33.16	43.33	31.15	-44.6	-47.7	16.3	0.00e+00	0	40	0	651165696	60	5266
2026-01-17 08:55:36.42	42.21	30.99	-43.8	-46.6	17.4	0.00e+00	0	39	0	657457152	59	4873
2026-01-17 08:55:39.14	41.28	30.85	-44.0	-46.9	17.2	0.00e+00	0	40	0	662700032	59	5046
2026-01-17 08:55:43.00	39.98	30.64	-44.2	-47.1	17.0	0.00e+00	0	39	0	670040064	59	5172
2026-01-17 08:55:45.84	39.04	30.47	-45.4	-48.9	15.2	0.00e+00	0	39	0	675282944	61	5703
2026-01-17 08:55:49.25	37.92	30.26	-45.2	-48.6	15.6	0.00e+00	0	40	0	681574400	61	5474
2026-01-17 08:55:52.15	36.97	30.08	-45.8	-49.6	14.6	7.00e-07	0	39	0	686817280	62	5840
2026-01-17 08:55:56.18	35.68	29.81	-45.1	-48.3	15.8	0.00e+00	0	39	0	694157312	61	5326
2026-01-17 08:55:59.36	34.68	29.58	-45.1	-48.5	15.8	0.00e+00	0	39	0	700448768	61	5404
2026-01-17 08:56:02.21	33.79	29.38	-45.0	-48.3	15.8	0.00e+00	0	39	0	705691648	61	5331
2026-01-17 08:56:05.33	32.84	29.14	-43.7	-46.4	17.5	0.00e+00	0	39	0	711983104	59	4779
2026-01-17 08:56:08.18	31.98	28.92	-42.9	-45.4	18.5	0.00e+00	0	39	0	717225984	57	4762
2026-01-17 08:56:11.45	31.00	28.67	-43.7	-46.4	17.5	0.00e+00	0	39	0	723517440	58	5088
2026-01-17 08:56:14.35	30.15	28.43	-45.1	-48.5	15.7	0.00e+00	0	39	0	728760320	60	5740
2026-01-17 08:56:17.61	29.21	28.16	-43.5	-46.2	17.8	0.00e+00	0	40	0	735051776	59	4675
2026-01-17 08:56:20.42	28.41	27.93	-44.8	-48.1	16.2	0.00e+00	0	39	0	740294656	60	5476
2026-01-17 08:56:23.55	27.54	27.66	-46.2	-50.2	14.4	0.00e+00	0	39	0	745537536	63	5880
2026-01-17 08:56:26.39	26.75	27.41	-45.4	-48.9	15.4	0.00e+00	0	39	0	750780416	62	5364
2026-01-17 08:56:29.52	25.91	27.14	-44.6	-47.6	16.6	0.00e+00	0	40	0	757071872	60	5165
2026-01-17 08:56:32.36	25.15	26.88	-44.4	-47.4	16.8	0.00e+00	0	39	0	762314752	60	5070
2026-01-17 08:56:35.48	24.34	26.60	-43.2	-45.7	18.3	0.00e+00	0	39	0	768606208	58	4659
2026-01-17 08:56:38.32	23.61	26.34	-43.4	-45.9	18.1	0.00e+00	0	39	0	773849088	58	4793
2026-01-17 08:56:41.45	22.82	26.05	-43.4	-46.1	17.9	0.00e+00	0	39	0	779091968	58	4872
2026-01-17 08:56:44.29	22.11	25.78	-43.6	-46.4	17.6	0.00e+00	0	40	0	784334848	58	5067
2026-01-17 08:56:47.42	21.35	25.49	-43.5	-46.2	17.8	0.00e+00	0	39	0	790626304	58	4959
2026-01-17 08:56:50.26	20.67	25.22	-43.7	-46.6	17.4	0.00e+00	0	39	0	795869184	58	5172
2026-01-17 08:56:53.50	19.91	24.91	-43.5	-46.2	17.8	0.00e+00	0	39	0	802160640	58	4972
2026-01-17 08:56:56.37	19.25	24.63	-42.6	-45.0	18.9	0.00e+00	0	39	0	807403520	57	4589
2026-01-17 08:56:59.67	18.50	24.31	-42.0	-44.3	19.6	0.00e+00	0	39	0	813694976	56	4446
2026-01-17 08:57:02.43	17.89	24.05	-42.5	-44.9	18.9	0.00e+00	0	39	0	818937856	55	5081
2026-01-17 08:57:05.71	17.17	23.73	-42.8	-45.4	18.6	0.00e+00	0	39	0	825229312	57	4761
2026-01-17 08:57:08.73	16.53	23.43	-42.4	-44.7	19.2	0.00e+00	0	39	0	830472192	56	4694
2026-01-17 08:57:11.98	15.85	23.12	-42.7	-45.1	18.9	0.00e+00	0	39	0	836763648	56	4906
2026-01-17 08:57:14.83	15.26	22.84	-42.6	-45.0	19.0	0.00e+00	0	39	0	842006528	56	4837
2026-01-17 08:57:18.08	14.61	22.52	-43.0	-45.5	18.5	0.00e+00	0	39	0	848297984	56	5135
2026-01-17 08:57:21.25	13.98	22.21	-42.5	-44.8	19.1	0.00e+00	0	39	0	854589440	56	4754
2026-01-17 08:57:24.38	13.38	21.91	-42.5	-44.8	19.1	0.00e+00	0	39	0	859832320	56	4727
2026-01-17 08:57:27.22	12.84	21.63	-42.9	-45.3	18.6	0.00e+00	0	39	0	865075200	56	5026
2026-01-17 08:57:30.40	12.25	21.32	-43.0	-45.5	18.5	0.00e+00	0	39	0	871366656	57	4832
2026-01-17 08:57:33.24	11.73	21.04	-42.9	-45.4	18.6	0.00e+00	0	39	0	876609536	57	4767
2026-01-17 08:57:36.37	11.17	20.74	-42.9	-45.5	18.5	0.00e+00	0	39	0	882900992	57	4841
2026-01-17 08:57:39.21	10.67	20.47	-43.1	-45.7	18.3	0.00e+00	0	39	0	888143872	57	4966
2026-01-17 08:57:42.33	10.13	20.17	-43.8	-46.6	17.4	0.00e+00	0	39	0	893386752	58	5216
2026-01-17 08:57:45.17	9.65	19.89	-44.1	-47.2	16.8	0.00e+00	0	39	0	898629632	59	5271
2026-01-17 08:57:48.30	9.13	19.59	-43.2	-46.0	18.0	0.00e+00	0	39	0	904921088	58	4832
2026-01-17 08:57:51.14	8.67	19.32	-43.2	-45.8	18.2	0.00e+00	0	39	0	910163968	58	4749
2026-01-17 08:57:54.42	8.15	19.01	-43.5	-46.3	17.7	0.00e+00	0	39	0	916455424	58	5017
2026-01-17 08:57:57.40	7.68	18.73	-43.2	-46.1	17.9	0.00e+00	0	39	0	921698304	58	4888
2026-01-17 08:58:00.82	7.16	18.41	-43.1	-45.7	18.3	0.00e+00	0	39	0	927989760	58	4667
2026-01-17 08:58:03.53	6.75	18.15	-43.0	-45.6	18.4	0.00e+00	0	39	0	933232640	57	4900
2026-01-17 08:58:06.80	6.27	17.85	-43.1	-45.8	18.2	0.00e+00	0	39	0	939524096	57	5000
2026-01-17 08:58:09.55	5.87	17.59	-43.2	-45.9	18.1	0.00e+00	0	39	0	944766976	57	5081
2026-01-17 08:58:12.83	5.40	17.29	-43.1	-45.7	18.2	0.00e+00	0	39	0	951058432	57	4980
2026-01-17 08:58:15.85	4.98	17.01	-42.9	-45.5	18.4	0.00e+00	0	39	0	956301312	57	4838
2026-01-17 08:58:19.12	4.54	16.71	-43.0	-45.7	18.3	0.00e+00	0	39	0	962592768	57	4927
2026-01-17 08:58:21.89	4.16	16.46	-44.2	-47.1	16.9	0.00e+00	0	39	0	967835648	59	5210
2026-01-17 08:58:25.07	3.75	16.17	-45.3	-48.9	15.3	0.00e+00	0	39	0	974127104	61	5692
2026-01-17 08:58:27.91	3.38	15.92	-44.4	-47.7	16.5	0.00e+00	0	39	0	979369984	60	5219
2026-01-17 08:58:31.04	2.98	15.64	-43.3	-45.9	18.0	0.00e+00	0	39	0	984612864	58	4809
2026-01-17 08:58:33.96	2.62	15.38	-43.3	-45.9	18.1	0.00e+00	0	39	0	990904320	58	4792
2026-01-17 08:58:37.14	2.23	15.10	-43.8	-46.9	17.2	0.00e+00	0	39	0	996147200	58	5344
2026-01-17 08:58:40.44	1.83	14.81	-44.5	-47.9	16.2	0.00e+00	0	39	0	1002438656	59	5663
2026-01-17 08:58:43.23	1.51	14.57	-44.8	-48.1	16.1	0.00e+00	0	39	0	1007681536	60	5476
2026-01-17 08:58:46.62	1.11	14.28	-44.6	-47.8	16.3	0.00e+00	0	39	0	1013972992	60	5304
2026-01-17 08:58:49.70	0.77	14.02	-44.5	-47.7	16.4	0.00e+00	0	39	0	1020264448	60	5225
2026-01-17 08:58:52.84	0.42	13.75	-44.4	-47.7	16.4	0.00e+00	0	39	0	1025507328	60	5236
2026-01-17 08:58:55.68	0.11	13.51	-44.7	-47.9	16.2	0.00e+00	0	39	0	1030750208	60	5355
2026-01-17 08:58:58.81	359.77	13.25	-44.8	-48.0	16.1	0.00e+00	0	39	0	1037041664	60	5456
2026-01-17 08:59:01.73	359.46	13.00	-44.7	-48.2	15.9	0.00e+00	0	39	0	1042284544	60	5542
2026-01-17 08:59:05.01	359.12	12.73	-44.5	-48.0	16.1	0.00e+00	0	39	0	1048576000	60	5414
2026-01-17 08:59:07.86	358.83	12.50	-44.1	-47.2	16.8	0.00e+00	0	40	0	1053818880	60	4975
2026-01-17 08:59:11.16	358.50	12.23	-44.1	-47.0	17.0	0.00e+00	0	39	0	1060110336	59	5103
2026-01-17 08:59:13.87	358.24	12.01	-44.2	-47.2	16.7	0.00e+00	0	40	0	1065353216	59	5267
2026-01-17 08:59:17.14	357.92	11.74	-44.5	-48.1	16.0	0.00e+00	0	39	0	1071644672	59	5791
2026-01-17 08:59:20.06	357.64	11.51	-45.0	-49.4	14.7	0.00e+00	0	39	0	1076887552	60	6351
2026-01-17 08:59:23.04	357.36	11.27	-45.7	-50.5	13.6	5.30e-06	0	39	0	1082130432	61	6848
2026-01-17 08:59:26.03	357.09	11.04	-45.9	-50.6	13.5	1.44e-05	0	39	0	1088421888	62	6541
2026-01-17 08:59:29.01	356.82	10.80	-45.5	-49.9	14.2	7.00e-07	0	39	0	1093664768	62	6034
2026-01-17 08:59:31.99	356.56	10.57	-45.0	-49.5	14.5	0.00e+00	0	40	0	1098907648	61	6120
2026-01-17 08:59:34.97	356.30	10.34	-44.5	-49.0	15.1	0.00e+00	0	40	0	1105199104	60	6091
2026-01-17 08:59:37.95	356.04	10.11	-44.0	-48.4	15.5	0.00e+00	0	39	0	1110441984	59	6044
2026-01-17 08:59:40.97	355.78	9.88	-43.6	-48.1	15.8	0.00e+00	0	39	0	1115684864	59	5796
2026-01-17 08:59:43.96	355.54	9.66	-42.7	-47.8	16.1	0.00e+00	0	39	0	1121976320	57	6287
2026-01-17 08:59:46.94	355.29	9.43	-42.3	-47.5	16.3	0.00e+00	0	40	0	1127219200	56	6456
2026-01-17 08:59:49.93	355.05	9.21	-42.6	-47.8	16.1	0.00e+00	0	40	0	1132462080	56	6683
2026-01-17 08:59:52.96	354.81	8.98	-45.9	-59.1	5.9	4.23e-04	0	39	0	1138753536	62	17443
2026-01-17 08:59:55.94	354.58	8.76	-49.8	-65.7	3.8	1.49e+00	0	39	104	1138753536	70	23391
2026-01-17 08:59:58.92	354.35	8.55	-50.4	-65.8	3.8	1.49e+00	0	39	104	1138753536	71	22484
2026-01-17 09:00:01.90	354.12	8.33	-50.4	-65.9	3.8	1.49e+00	0	40	104	1138753536	71	22693
2026-01-17 09:00:04.88	353.90	8.11	-50.5	-65.9	3.8	1.49e+00	0	40	104	1138753536	72	21455
2026-01-17 09:00:07.86	353.68	7.90	-50.7	-66.0	3.8	1.49e+00	0	39	104	1138753536	72	21561
2026-01-17 09:00:10.84	353.47	7.69	-50.4	-66.0	3.8	1.49e+00	0	39	104	1138753536	72	21511
2026-01-17 09:00:13.82	353.26	7.48	-50.7	-66.0	3.8	1.49e+00	0	39	104	1138753536	72	21578
2026-01-17 09:00:16.80	353.05	7.27	-50.7	-66.0	3.8	1.49e+00	0	40	104	1138753536	72	21580
2026-01-17 09:00:19.78	352.84	7.06	-50.6	-66.0	3.8	1.49e+00	0	40	104	1138753536	72	21580
2026-01-17 09:00:22.76	352.64	6.85	-50.4	-65.9	3.8	1.49e+00	0	39	104	1138753536	72	21506
2026-01-17 09:00:25.74	352.44	6.64	-50.4	-66.0	3.8	1.49e+00	0	40	104	1138753536	72	21513
2026-01-17 09:00:28.72	352.25	6.44	-50.4	-65.9	3.8	1.49e+00	0	40	104	1138753536	72	21506
2026-01-17 09:00:31.70	352.05	6.24	-50.4	-65.9	3.8	1.49e+00	0	39	104	1138753536	72	21451
2026-01-17 09:00:34.68	351.86	6.03	-50.4	-65.9	3.8	1.49e+00	0	40	104	1138753536	72	21456
2026-01-17 09:00:37.66	351.67	5.83	-50.4	-65.9	3.8	1.49e+00	0	39	104	1138753536	72	21416
2026-01-17 09:00:40.64	351.49	5.63	-50.4	-65.9	3.8	1.49e+00	0	40	104	1138753536	72	21423
2026-01-17 09:00:43.62	351.31	5.44	-50.4	-65.9	3.8	1.49e+00	0	39	104	1138753536	72	21418
2026-01-17 09:00:46.60	351.13	5.24	-50.4	-65.9	3.8	1.49e+00	0	40	104	1138753536	72	21452
2026-01-17 09:00:49.58	350.95	5.04	-50.3	-65.9	3.8	1.49e+00	0	39	104	1138753536	72	21432

#Closed at: 2026-01-17 09:00:51
#Recorded file [1138 MB]: D:/Data/31040_260117_114903.dat