passes_logs/2026/01/17/T1/T1__20260117_220928_NOAA_21_JPSS-2_rec.log

#Pass ID: 20260117_220928_NOAA 21 (JPSS-2)
#Satellite: NOAA 21 (JPSS-2)
#Configuration: NOAA 21
#almurnet v.1.7.20251203
#Start time: 2026-01-17 22:09:30

#Version: 2.0.20230620
#Station: T1
#Location: 37.570604 lon 55.790049 lat
#TLE: 1 54234U 22150A   26017.26823908  .00000042  00000+0  40962-4 0  9992
#TLE: 2 54234  98.7501 318.1405 0000613 274.2947  85.8159 14.19535194165131

#Time	Az	El	Level	Level2	SNR	BER	BlckErr	Temp	State	Recorded	gain1	gain2
2026-01-17 22:09:30.73	29.95	5.12	-47.6	-61.1	3.8	1.49e+00	0	39	0	0	66	17473
2026-01-17 22:09:33.71	30.22	5.29	-47.6	-61.1	3.8	1.49e+00	0	39	104	0	65	18417
2026-01-17 22:09:36.69	30.48	5.47	-47.6	-61.1	3.8	1.49e+00	0	39	104	0	65	18367
2026-01-17 22:09:39.67	30.76	5.64	-47.6	-61.0	3.8	1.49e+00	0	39	104	0	65	18277
2026-01-17 22:09:42.65	31.03	5.82	-47.6	-61.1	3.8	1.49e+00	0	39	104	0	65	18338
2026-01-17 22:09:45.63	31.31	5.99	-47.6	-61.0	3.8	1.49e+00	0	40	104	0	65	18276
2026-01-17 22:09:48.61	31.59	6.17	-47.6	-61.0	3.8	1.49e+00	0	40	104	0	65	18198
2026-01-17 22:09:51.59	31.87	6.34	-47.6	-61.0	3.8	1.49e+00	0	40	104	0	65	18155
2026-01-17 22:09:54.57	32.16	6.52	-47.6	-61.0	3.8	1.49e+00	0	40	104	0	65	18177
2026-01-17 22:09:57.55	32.45	6.70	-47.6	-61.0	3.8	1.49e+00	0	40	104	0	65	18195
2026-01-17 22:10:00.53	32.74	6.88	-47.6	-61.0	3.8	1.49e+00	0	40	104	0	65	18282
2026-01-17 22:10:03.51	33.04	7.06	-47.6	-60.9	3.8	1.49e+00	0	40	104	0	65	18090
2026-01-17 22:10:06.49	33.34	7.24	-47.6	-60.9	3.8	1.49e+00	0	40	104	0	65	18029
2026-01-17 22:10:09.48	33.64	7.42	-47.6	-61.0	3.8	1.49e+00	0	40	104	0	65	18100
2026-01-17 22:10:12.46	33.95	7.60	-47.5	-60.7	3.8	1.49e+00	0	41	104	0	65	17550
2026-01-17 22:10:15.44	34.26	7.78	-47.5	-60.7	3.8	1.49e+00	0	40	104	0	65	17610
2026-01-17 22:10:18.41	34.58	7.96	-47.6	-61.0	3.8	1.49e+00	0	40	104	0	65	18118
2026-01-17 22:10:21.39	34.90	8.15	-47.6	-61.1	3.8	1.49e+00	0	41	104	0	65	18318
2026-01-17 22:10:24.37	35.22	8.33	-47.6	-60.9	3.8	1.49e+00	0	40	104	0	65	17982
2026-01-17 22:10:27.35	35.55	8.51	-47.5	-60.3	3.8	1.49e+00	0	41	104	0	65	16846
2026-01-17 22:10:30.34	35.88	8.70	-47.4	-59.6	3.8	1.49e+00	0	41	104	0	65	15413
2026-01-17 22:10:33.32	36.21	8.88	-46.7	-54.3	5.7	1.03e+00	0	41	0	0	65	8435
2026-01-17 22:10:36.29	36.55	9.07	-44.6	-48.5	11.5	2.55e-03	0	41	0	0	61	5404
2026-01-17 22:10:39.47	36.92	9.27	-44.1	-47.6	12.5	6.10e-06	0	41	0	0	58	5819
2026-01-17 22:10:42.31	37.25	9.45	-40.5	-42.7	17.1	0.00e+00	0	41	0	0	53	4396
2026-01-17 22:10:45.44	37.62	9.64	-40.1	-42.2	17.6	0.00e+00	0	41	0	0	52	4394
2026-01-17 22:10:48.28	37.96	9.82	-40.0	-42.1	17.7	0.00e+00	0	41	0	0	51	4618
2026-01-17 22:10:51.45	38.34	10.02	-39.8	-41.8	18.0	0.00e+00	0	41	0	0	51	4493
2026-01-17 22:10:54.29	38.69	10.20	-39.7	-41.8	18.1	0.00e+00	0	41	0	0	51	4457
2026-01-17 22:10:57.42	39.08	10.40	-39.4	-41.4	18.4	0.00e+00	0	41	0	0	50	4497
2026-01-17 22:11:00.26	39.44	10.58	-39.5	-41.4	18.4	0.00e+00	0	41	0	0	50	4526
2026-01-17 22:11:03.38	39.83	10.78	-39.6	-41.5	18.4	0.00e+00	0	41	0	0	50	4553
2026-01-17 22:11:06.23	40.20	10.96	-39.6	-41.5	18.3	0.00e+00	0	41	0	0	50	4586
2026-01-17 22:11:09.35	40.61	11.16	-39.5	-41.4	18.4	0.00e+00	0	41	0	0	50	4521
2026-01-17 22:11:12.25	40.99	11.35	-39.4	-41.3	18.6	0.00e+00	0	41	0	0	50	4457
2026-01-17 22:11:15.72	41.46	11.57	-39.5	-41.4	18.5	0.00e+00	0	41	0	0	50	4499
2026-01-17 22:11:18.45	41.83	11.75	-39.7	-41.6	18.4	0.00e+00	0	41	0	0	50	4612
2026-01-17 22:11:21.73	42.28	11.96	-39.6	-41.5	18.5	0.00e+00	0	41	0	0	50	4586
2026-01-17 22:11:24.46	42.66	12.14	-39.6	-41.5	18.5	0.00e+00	0	41	0	0	50	4585
2026-01-17 22:11:27.71	43.12	12.35	-39.4	-41.3	18.7	0.00e+00	0	41	0	0	50	4457
2026-01-17 22:11:30.93	43.58	12.55	-39.3	-41.2	18.8	0.00e+00	0	41	0	0	50	4392
2026-01-17 22:11:33.83	44.00	12.74	-39.3	-41.2	18.8	0.00e+00	0	41	0	0	50	4406
2026-01-17 22:11:37.12	44.48	12.95	-39.4	-41.2	18.7	0.00e+00	0	41	0	0	50	4429
2026-01-17 22:11:39.91	44.89	13.13	-39.2	-41.0	18.9	0.00e+00	0	41	0	0	50	4328
2026-01-17 22:11:43.08	45.37	13.34	-39.2	-41.1	18.8	0.00e+00	0	41	0	0	50	4354
2026-01-17 22:11:45.92	45.80	13.52	-39.0	-40.8	19.1	0.00e+00	0	41	0	0	50	4242
2026-01-17 22:11:49.05	46.29	13.73	-39.1	-40.9	19.0	0.00e+00	0	41	0	0	50	4291
2026-01-17 22:11:52.30	46.80	13.94	-39.1	-40.9	19.0	0.00e+00	0	41	0	0	50	4273
2026-01-17 22:11:55.14	47.25	14.12	-39.0	-40.8	19.1	0.00e+00	0	41	0	0	50	4235
2026-01-17 22:11:58.30	47.75	14.32	-39.0	-40.8	19.1	0.00e+00	0	41	0	0	49	4466
2026-01-17 22:12:01.22	48.23	14.51	-39.1	-40.9	19.0	0.00e+00	0	41	0	0	49	4512
2026-01-17 22:12:04.47	48.77	14.72	-39.1	-40.9	19.0	0.00e+00	0	41	0	0	49	4502
2026-01-17 22:12:07.38	49.25	14.90	-39.0	-40.8	19.1	0.00e+00	0	41	0	0	49	4484
2026-01-17 22:12:10.62	49.80	15.11	-38.9	-40.7	19.3	0.00e+00	0	41	0	0	49	4420
2026-01-17 22:12:13.53	50.30	15.30	-39.2	-41.0	19.0	0.00e+00	0	41	0	0	49	4549
2026-01-17 22:12:16.66	50.84	15.50	-39.0	-40.8	19.2	0.00e+00	0	41	0	0	49	4462
2026-01-17 22:12:19.50	51.34	15.67	-39.0	-40.8	19.2	0.00e+00	0	41	0	0	49	4442
2026-01-17 22:12:22.63	51.90	15.87	-39.1	-40.9	19.0	0.00e+00	0	41	0	0	49	4537
2026-01-17 22:12:25.67	52.44	16.06	-39.3	-41.2	18.9	0.00e+00	0	41	0	0	49	4659
2026-01-17 22:12:28.80	53.01	16.26	-39.1	-40.9	19.2	0.00e+00	0	41	0	0	49	4496
2026-01-17 22:12:31.64	53.54	16.43	-38.9	-40.7	19.4	0.00e+00	0	41	0	0	49	4398
2026-01-17 22:12:34.77	54.12	16.63	-38.8	-40.5	19.5	0.00e+00	0	41	0	0	49	4324
2026-01-17 22:12:37.61	54.66	16.80	-38.9	-40.6	19.4	0.00e+00	0	41	0	0	49	4380
2026-01-17 22:12:40.98	55.30	17.00	-39.0	-40.8	19.2	0.00e+00	0	41	0	0	49	4443
2026-01-17 22:12:44.15	55.92	17.19	-39.1	-40.9	19.1	0.00e+00	0	41	0	0	49	4536
2026-01-17 22:12:47.48	56.57	17.39	-38.9	-40.6	19.4	0.00e+00	0	41	0	0	49	4378
2026-01-17 22:12:50.40	57.15	17.57	-38.8	-40.5	19.5	0.00e+00	0	41	0	0	49	4322
2026-01-17 22:12:54.36	57.95	17.80	-38.7	-40.4	19.5	0.00e+00	0	41	0	0	49	4290
2026-01-17 22:12:57.35	58.56	17.97	-38.8	-40.5	19.4	0.00e+00	0	41	0	0	49	4320
2026-01-17 22:13:00.55	59.22	18.15	-38.8	-40.6	19.4	0.00e+00	0	41	0	0	49	4359
2026-01-17 22:13:03.54	59.84	18.32	-38.7	-40.4	19.6	0.00e+00	0	41	0	0	49	4279
2026-01-17 22:13:06.52	60.47	18.49	-38.6	-40.3	19.6	0.00e+00	0	41	0	0	49	4224
2026-01-17 22:13:09.51	61.11	18.65	-38.7	-40.4	19.5	0.00e+00	0	41	0	0	49	4278
2026-01-17 22:13:12.49	61.75	18.81	-38.6	-40.3	19.7	0.00e+00	0	41	0	0	49	4240
2026-01-17 22:13:15.47	62.40	18.97	-38.4	-40.2	19.9	0.00e+00	0	41	0	0	48	4392
2026-01-17 22:13:18.46	63.05	19.13	-38.4	-40.2	19.8	0.00e+00	0	41	0	0	48	4400
2026-01-17 22:13:21.44	63.72	19.28	-38.6	-40.3	19.7	0.00e+00	0	41	0	0	48	4467
2026-01-17 22:13:24.46	64.39	19.43	-38.5	-40.2	19.8	0.00e+00	0	41	0	0	48	4440
2026-01-17 22:13:27.54	65.09	19.58	-38.3	-40.0	20.0	0.00e+00	0	41	0	0	48	4309
2026-01-17 22:13:30.42	65.75	19.72	-38.4	-40.1	19.9	0.00e+00	0	41	0	0	48	4367
2026-01-17 22:13:33.55	66.47	19.87	-38.1	-39.8	20.2	0.00e+00	0	41	0	0	48	4215
2026-01-17 22:13:36.39	67.13	20.00	-37.9	-39.6	20.2	0.00e+00	0	41	0	0	47	4374
2026-01-17 22:13:39.52	67.87	20.14	-38.2	-39.9	19.9	0.00e+00	0	41	0	0	47	4504
2026-01-17 22:13:42.36	68.54	20.27	-38.1	-39.8	20.1	0.00e+00	0	41	0	0	47	4444
2026-01-17 22:13:45.60	69.31	20.41	-37.7	-39.4	20.4	0.00e+00	0	41	0	0	47	4262
2026-01-17 22:13:48.44	70.00	20.52	-38.0	-39.7	20.1	0.00e+00	0	41	0	0	47	4396
2026-01-17 22:13:51.57	70.76	20.65	-38.2	-39.9	20.0	0.00e+00	0	41	0	0	47	4510
2026-01-17 22:13:54.41	71.45	20.76	-37.9	-39.5	20.3	0.00e+00	0	41	0	0	47	4326
2026-01-17 22:13:57.53	72.22	20.88	-38.0	-39.6	20.1	0.00e+00	0	41	0	0	47	4383
2026-01-17 22:14:00.37	72.93	20.98	-38.1	-39.8	20.0	0.00e+00	0	41	0	0	47	4460
2026-01-17 22:14:03.58	73.73	21.09	-38.1	-39.8	20.1	0.00e+00	0	41	0	0	47	4460
2026-01-17 22:14:06.42	74.44	21.18	-38.2	-39.9	19.9	0.00e+00	0	41	0	0	47	4509
2026-01-17 22:14:09.55	75.23	21.28	-38.2	-39.9	20.0	0.00e+00	0	41	0	0	47	4506
2026-01-17 22:14:12.39	75.96	21.36	-38.2	-40.0	20.0	0.00e+00	0	41	0	0	47	4546
2026-01-17 22:14:15.52	76.76	21.45	-38.3	-40.0	19.9	0.00e+00	0	41	0	0	47	4570
2026-01-17 22:14:18.37	77.49	21.53	-38.2	-39.9	19.7	0.00e+00	0	41	0	0	47	4540
2026-01-17 22:14:21.60	78.33	21.61	-38.0	-39.7	20.2	0.00e+00	0	41	0	0	47	4407
2026-01-17 22:14:24.44	79.06	21.67	-37.8	-39.4	20.4	0.00e+00	0	41	0	0	47	4290
2026-01-17 22:14:27.49	79.86	21.74	-37.9	-39.5	20.3	0.00e+00	0	41	0	0	47	4335
2026-01-17 22:14:30.48	80.64	21.80	-38.0	-39.7	20.2	0.00e+00	0	41	0	0	47	4411
2026-01-17 22:14:33.46	81.43	21.85	-37.9	-39.7	20.2	0.00e+00	0	41	0	0	47	4392
2026-01-17 22:14:36.45	82.21	21.90	-37.7	-39.4	20.4	0.00e+00	0	41	0	0	47	4260
2026-01-17 22:14:39.48	83.02	21.94	-37.8	-39.5	20.3	0.00e+00	0	41	0	0	47	4328
2026-01-17 22:14:42.47	83.81	21.98	-37.9	-39.6	20.3	0.00e+00	0	41	0	0	47	4378
2026-01-17 22:14:45.45	84.60	22.01	-37.9	-39.6	20.2	0.00e+00	0	41	0	0	47	4382
2026-01-17 22:14:48.44	85.40	22.04	-37.7	-39.4	20.4	0.00e+00	0	41	0	0	47	4280
2026-01-17 22:14:51.42	86.19	22.06	-37.8	-39.5	20.3	0.00e+00	0	41	0	0	47	4317
2026-01-17 22:14:54.46	87.01	22.08	-37.8	-39.5	20.4	0.00e+00	0	41	0	0	47	4316
2026-01-17 22:14:57.30	87.76	22.09	-37.9	-39.6	20.2	0.00e+00	0	41	0	0	47	4369
2026-01-17 22:15:00.43	88.60	22.09	-37.9	-39.6	20.2	0.00e+00	0	41	0	0	47	4383
2026-01-17 22:15:03.27	89.36	22.09	-37.8	-39.5	20.4	0.00e+00	0	41	0	0	47	4296
2026-01-17 22:15:06.43	90.21	22.08	-37.9	-39.6	20.2	0.00e+00	0	41	0	0	47	4375
2026-01-17 22:15:09.27	90.97	22.07	-37.9	-39.6	20.2	0.00e+00	0	41	0	0	47	4357
2026-01-17 22:15:12.62	91.86	22.05	-37.8	-39.4	20.3	0.00e+00	0	41	0	0	47	4285
2026-01-17 22:15:15.38	92.60	22.03	-37.8	-39.5	20.4	0.00e+00	0	41	0	0	47	4294
2026-01-17 22:15:18.65	93.47	21.99	-37.8	-39.5	20.3	0.00e+00	0	41	0	0	47	4298
2026-01-17 22:15:21.72	94.28	21.96	-37.7	-39.4	20.4	0.00e+00	0	41	0	0	47	4275
2026-01-17 22:15:24.79	95.10	21.91	-37.7	-39.4	20.4	0.00e+00	0	41	0	0	47	4268
2026-01-17 22:15:28.12	95.98	21.86	-37.8	-39.5	20.2	0.00e+00	0	41	0	0	47	4312
2026-01-17 22:15:30.87	96.70	21.81	-37.8	-39.5	20.3	0.00e+00	0	41	0	0	47	4302
2026-01-17 22:15:34.14	97.56	21.75	-38.0	-39.7	20.0	0.00e+00	0	41	0	0	47	4427
2026-01-17 22:15:36.84	98.27	21.69	-37.8	-39.4	20.4	0.00e+00	0	41	0	0	47	4282
2026-01-17 22:15:40.37	99.19	21.61	-37.9	-39.6	20.2	0.00e+00	0	41	0	0	47	4348
2026-01-17 22:15:43.07	99.89	21.54	-37.9	-39.6	20.2	0.00e+00	0	41	0	0	47	4365
2026-01-17 22:15:46.36	100.73	21.46	-37.8	-39.5	20.3	0.00e+00	0	41	0	0	47	4305
2026-01-17 22:15:49.37	101.51	21.37	-37.9	-39.6	20.1	0.00e+00	0	41	0	0	47	4370
2026-01-17 22:15:52.65	102.34	21.27	-37.6	-39.3	20.4	0.00e+00	0	41	0	0	47	4202
2026-01-17 22:15:55.49	103.07	21.18	-37.7	-39.3	20.4	0.00e+00	0	41	0	0	47	4221
2026-01-17 22:15:58.76	103.89	21.08	-37.9	-39.6	20.2	0.00e+00	0	41	0	0	47	4341
2026-01-17 22:16:01.93	104.68	20.97	-38.0	-39.7	20.1	0.00e+00	0	41	0	0	47	4399
2026-01-17 22:16:04.83	105.40	20.86	-37.9	-39.5	20.3	0.00e+00	0	41	0	0	47	4330
2026-01-17 22:16:08.12	106.22	20.74	-37.7	-39.4	20.3	0.00e+00	0	41	0	0	47	4267
2026-01-17 22:16:10.86	106.89	20.63	-38.0	-39.7	20.1	0.00e+00	0	41	0	0	47	4434
2026-01-17 22:16:14.15	107.69	20.50	-37.9	-39.6	20.1	0.00e+00	0	41	0	0	47	4389
2026-01-17 22:16:16.86	108.34	20.38	-37.9	-39.6	20.0	0.00e+00	0	41	0	0	47	4385
2026-01-17 22:16:20.15	109.13	20.24	-37.8	-39.5	20.3	0.00e+00	0	41	0	0	47	4300
2026-01-17 22:16:23.15	109.84	20.11	-37.9	-39.6	20.1	0.00e+00	0	41	0	0	47	4373
2026-01-17 22:16:26.83	110.71	19.94	-38.0	-39.7	20.0	0.00e+00	0	41	0	0	47	4430
2026-01-17 22:16:29.74	111.39	19.80	-38.1	-39.7	20.0	0.00e+00	0	41	0	0	47	4440
2026-01-17 22:16:33.21	112.19	19.64	-38.3	-40.0	19.8	0.00e+00	0	41	0	0	47	4564
2026-01-17 22:16:35.94	112.81	19.50	-38.2	-39.9	19.9	0.00e+00	0	41	0	0	47	4520
2026-01-17 22:16:39.21	113.55	19.34	-38.0	-39.7	20.0	0.00e+00	0	41	0	0	47	4408
2026-01-17 22:16:41.96	114.17	19.20	-38.0	-39.7	20.1	0.00e+00	0	41	0	0	47	4399
2026-01-17 22:16:45.26	114.90	19.02	-37.9	-39.5	20.3	0.00e+00	0	41	0	0	47	4328
2026-01-17 22:16:47.97	115.49	18.88	-38.3	-40.0	19.9	0.00e+00	0	41	0	0	47	4557
2026-01-17 22:16:51.24	116.21	18.70	-38.3	-40.1	19.8	0.00e+00	0	41	0	0	47	4608
2026-01-17 22:16:53.96	116.79	18.55	-38.3	-40.0	19.9	0.00e+00	0	41	0	0	47	4565
2026-01-17 22:16:57.23	117.49	18.37	-38.3	-40.0	19.8	0.00e+00	0	41	0	0	47	4560
2026-01-17 22:17:00.07	118.09	18.21	-38.3	-40.1	19.8	0.00e+00	0	41	0	0	47	4600
2026-01-17 22:17:03.26	118.75	18.03	-38.6	-40.3	19.5	0.00e+00	0	41	0	0	47	4757
2026-01-17 22:17:06.38	119.39	17.85	-38.6	-40.3	19.7	0.00e+00	0	41	0	0	48	4470
2026-01-17 22:17:09.22	119.97	17.68	-38.4	-40.1	19.8	0.00e+00	0	41	0	0	48	4383
2026-01-17 22:17:12.48	120.63	17.49	-38.4	-40.1	19.8	0.00e+00	0	41	0	0	48	4350
2026-01-17 22:17:15.32	121.19	17.32	-38.4	-40.1	19.8	0.00e+00	0	41	0	0	48	4375
2026-01-17 22:17:18.45	121.81	17.13	-38.6	-40.4	19.6	0.00e+00	0	41	0	0	48	4508
2026-01-17 22:17:21.30	122.36	16.96	-38.5	-40.3	19.7	0.00e+00	0	41	0	0	48	4448
2026-01-17 22:17:24.42	122.96	16.77	-38.6	-40.3	19.6	0.00e+00	0	41	0	0	48	4473
2026-01-17 22:17:27.26	123.50	16.59	-38.6	-40.4	19.5	0.00e+00	0	41	0	0	48	4494
2026-01-17 22:17:30.39	124.09	16.40	-38.8	-40.5	19.4	0.00e+00	0	41	0	0	48	4576
2026-01-17 22:17:33.33	124.63	16.21	-38.5	-40.3	19.7	0.00e+00	0	41	0	0	48	4445
2026-01-17 22:17:36.46	125.20	16.01	-38.6	-40.4	19.6	0.00e+00	0	41	0	0	48	4509
2026-01-17 22:17:39.36	125.73	15.83	-38.6	-40.4	19.6	0.00e+00	0	41	0	0	48	4506
2026-01-17 22:17:42.65	126.32	15.62	-38.6	-40.3	19.7	0.00e+00	0	41	0	0	48	4484
2026-01-17 22:17:45.37	126.79	15.45	-38.7	-40.5	19.6	0.00e+00	0	41	0	0	48	4550
2026-01-17 22:17:48.62	127.36	15.24	-38.6	-40.3	19.6	0.00e+00	0	41	0	0	48	4478
2026-01-17 22:17:51.73	127.90	15.04	-38.5	-40.2	19.8	0.00e+00	0	41	0	0	48	4406
2026-01-17 22:17:54.57	128.38	14.86	-38.6	-40.3	19.7	0.00e+00	0	41	0	0	48	4468
2026-01-17 22:17:57.69	128.90	14.66	-39.0	-40.7	19.2	0.00e+00	0	41	0	0	48	4702
2026-01-17 22:18:00.54	129.37	14.47	-38.9	-40.6	19.3	0.00e+00	0	41	0	0	48	4642
2026-01-17 22:18:03.66	129.88	14.27	-39.1	-40.9	19.1	0.00e+00	0	41	0	0	48	4776
2026-01-17 22:18:06.65	130.36	14.07	-39.1	-40.9	19.0	0.00e+00	0	41	0	0	48	4812
2026-01-17 22:18:09.96	130.89	13.86	-39.1	-40.9	19.0	0.00e+00	0	41	0	0	49	4535
2026-01-17 22:18:12.91	131.35	13.67	-39.5	-41.4	18.5	0.00e+00	0	41	0	0	49	4786
2026-01-17 22:18:16.32	131.88	13.44	-39.4	-41.3	18.7	0.00e+00	0	41	0	0	49	4723
2026-01-17 22:18:19.14	132.31	13.26	-39.2	-41.0	18.9	0.00e+00	0	41	0	0	49	4589
2026-01-17 22:18:22.44	132.81	13.04	-39.1	-40.8	19.1	0.00e+00	0	41	0	0	49	4491
2026-01-17 22:18:25.14	133.21	12.87	-39.2	-41.0	18.9	0.00e+00	0	41	0	0	49	4596
2026-01-17 22:18:28.44	133.70	12.65	-39.4	-41.3	18.7	0.00e+00	0	41	0	0	49	4717
2026-01-17 22:18:31.15	134.09	12.47	-39.6	-41.5	18.5	0.00e+00	0	41	0	0	49	4830
2026-01-17 22:18:34.91	134.63	12.23	-39.7	-41.6	18.4	0.00e+00	0	41	0	0	50	4622
2026-01-17 22:18:37.61	135.01	12.05	-39.8	-41.7	18.3	0.00e+00	0	41	0	0	50	4653
2026-01-17 22:18:41.00	135.48	11.83	-39.5	-41.4	18.5	0.00e+00	0	41	0	0	50	4523
2026-01-17 22:18:44.03	135.90	11.63	-39.7	-41.6	18.3	0.00e+00	0	41	0	0	50	4604
2026-01-17 22:18:47.02	136.31	11.44	-40.0	-41.9	18.0	0.00e+00	0	41	0	0	50	4804
2026-01-17 22:18:50.00	136.71	11.25	-40.1	-42.0	18.0	0.00e+00	0	41	0	0	50	4848
2026-01-17 22:18:52.98	137.10	11.05	-39.8	-41.7	18.2	0.00e+00	0	41	0	0	50	4689
2026-01-17 22:18:55.97	137.49	10.86	-39.9	-41.9	18.0	0.00e+00	0	41	0	0	50	4779
2026-01-17 22:18:58.95	137.87	10.67	-40.1	-42.0	17.9	0.00e+00	0	41	0	0	50	4853
2026-01-17 22:19:01.93	138.25	10.47	-39.9	-41.9	18.0	0.00e+00	0	41	0	0	50	4763
2026-01-17 22:19:04.91	138.63	10.28	-39.8	-41.7	18.0	0.00e+00	0	41	0	0	50	4704
2026-01-17 22:19:07.98	139.01	10.09	-39.9	-41.8	18.0	0.00e+00	0	41	0	0	50	4727
2026-01-17 22:19:10.96	139.37	9.89	-39.9	-41.9	17.9	0.00e+00	0	41	0	0	50	4783
2026-01-17 22:19:14.05	139.75	9.70	-40.0	-42.0	17.8	0.00e+00	0	41	0	0	50	4829
2026-01-17 22:19:17.03	140.10	9.51	-40.2	-42.2	17.6	0.00e+00	0	41	0	0	51	4672
2026-01-17 22:19:20.02	140.46	9.32	-40.3	-42.4	17.4	0.00e+00	0	41	0	0	51	4763
2026-01-17 22:19:23.00	140.80	9.13	-40.1	-42.1	17.7	0.00e+00	0	41	0	0	51	4623
2026-01-17 22:19:25.99	141.15	8.94	-48.1	-59.4	3.8	2.11e-03	0	41	104	0	66	14320
2026-01-17 22:19:28.97	141.49	8.75	-48.6	-61.7	3.8	1.49e+00	0	41	104	0	67	17539
2026-01-17 22:19:31.95	141.82	8.56	-48.8	-61.9	3.8	1.49e+00	0	41	104	0	68	17083
2026-01-17 22:19:34.92	142.15	8.38	-49.0	-62.0	3.8	1.49e+00	0	41	104	0	68	17212
2026-01-17 22:19:37.90	142.48	8.19	-49.1	-62.1	3.8	1.49e+00	0	41	104	0	68	17413
2026-01-17 22:19:40.89	142.80	8.01	-49.2	-62.2	3.8	1.49e+00	0	41	104	0	69	16537
2026-01-17 22:19:43.87	143.12	7.82	-49.1	-62.2	3.8	1.49e+00	0	41	104	0	69	16513
2026-01-17 22:19:46.85	143.43	7.64	-48.8	-62.1	3.8	1.49e+00	0	41	104	0	69	16382
2026-01-17 22:19:49.82	143.74	7.45	-48.8	-62.1	3.8	1.49e+00	0	41	104	0	69	16343
2026-01-17 22:19:52.80	144.05	7.27	-48.7	-62.1	3.8	1.49e+00	0	41	104	0	69	16384
2026-01-17 22:19:55.78	144.35	7.09	-48.7	-62.1	3.8	1.49e+00	0	41	104	0	69	16315
2026-01-17 22:19:58.77	144.65	6.91	-48.7	-62.1	3.8	1.49e+00	0	41	104	0	69	16342
2026-01-17 22:20:01.75	144.95	6.73	-48.7	-62.1	3.8	1.49e+00	0	41	104	0	69	16354
2026-01-17 22:20:04.73	145.24	6.54	-48.7	-62.0	3.8	1.49e+00	0	41	104	0	69	16293
2026-01-17 22:20:07.71	145.53	6.37	-48.7	-62.0	3.8	1.49e+00	0	41	104	0	69	16290
2026-01-17 22:20:10.69	145.81	6.19	-48.7	-62.0	3.8	1.49e+00	0	41	104	0	69	16295
2026-01-17 22:20:13.67	146.10	6.01	-48.7	-62.0	3.8	1.49e+00	0	41	104	0	69	16276
2026-01-17 22:20:16.65	146.38	5.83	-48.7	-62.0	3.8	1.49e+00	0	41	104	0	69	16252
2026-01-17 22:20:19.63	146.65	5.65	-48.7	-62.0	3.8	1.49e+00	0	41	104	0	69	16208
2026-01-17 22:20:22.61	146.92	5.48	-48.7	-62.0	3.8	1.49e+00	0	41	104	0	69	16206
2026-01-17 22:20:25.59	147.19	5.30	-48.7	-62.0	3.8	1.49e+00	0	41	104	0	69	16284
2026-01-17 22:20:28.57	147.46	5.12	-48.7	-62.0	3.8	1.49e+00	0	41	104	0	69	16227
2026-01-17 22:20:31.56	147.72	4.95	-48.6	-62.0	3.8	1.49e+00	0	41	104	0	69	16139

#Closed at: 2026-01-17 22:20:32
#Recorded file [0 MB]: D:/Data/31040_260118_010930.dat