passes_logs/2026/01/17/T1/T1__20260117_025938_ZKF01_rec.log

#Pass ID: 20260117_025938_ZKF01
#Satellite: ZKF01
#Configuration: ZKF01
#almurnet v.1.7.20251203
#Start time: 2026-01-17 02:59:37

#Version: 2.0.20230620
#Station: T1
#Location: 37.570604 lon 55.790049 lat
#TLE: 1 61240U 24174C   25363.55210926  .00007200  00000-0  32855-3 0  9995
#TLE: 2 61240  97.4460   8.7269 0013178  79.4267 280.8452 15.20841105 69913

#Time	Az	El	Level	Level2	SNR	BER	BlckErr	Temp	State	Recorded	gain1	gain2
2026-01-17 02:59:37.96	33.35	4.98	-47.9	-49.8	3.7	0.00e+00	0	45	0	0	67	17888
2026-01-17 02:59:39.94	33.60	5.11	-47.9	-49.8	3.8	0.00e+00	0	45	104	0	66	18974
2026-01-17 02:59:41.93	33.84	5.24	-47.9	-49.8	3.8	0.00e+00	0	45	104	0	66	18944
2026-01-17 02:59:43.92	34.09	5.37	-47.9	-49.8	3.8	0.00e+00	0	46	104	0	66	18927
2026-01-17 02:59:45.90	34.34	5.50	-47.9	-49.8	3.8	0.00e+00	0	46	104	0	66	18910
2026-01-17 02:59:47.89	34.60	5.63	-47.9	-49.8	3.8	0.00e+00	0	46	104	0	66	18910
2026-01-17 02:59:49.87	34.86	5.77	-47.9	-49.8	3.8	0.00e+00	0	46	104	0	66	18875
2026-01-17 02:59:51.86	35.12	5.90	-47.9	-49.8	3.8	0.00e+00	0	46	104	0	66	18944
2026-01-17 02:59:53.85	35.38	6.03	-47.8	-49.8	3.8	0.00e+00	0	46	104	0	66	18861
2026-01-17 02:59:55.83	35.65	6.17	-47.9	-49.8	3.8	0.00e+00	0	47	104	0	66	18869
2026-01-17 02:59:57.82	35.91	6.30	-47.8	-49.8	3.8	0.00e+00	0	47	104	0	66	18882
2026-01-17 02:59:59.81	36.19	6.43	-47.8	-49.8	3.8	0.00e+00	0	47	104	0	66	18845
2026-01-17 03:00:01.79	36.46	6.57	-47.8	-49.8	3.8	0.00e+00	0	47	104	0	66	18863
2026-01-17 03:00:03.78	36.74	6.71	-47.9	-49.8	3.8	0.00e+00	0	47	104	0	66	18906
2026-01-17 03:00:05.76	37.02	6.84	-47.8	-49.8	3.8	0.00e+00	0	47	104	0	66	18876
2026-01-17 03:00:07.75	37.31	6.98	-47.9	-49.8	3.8	0.00e+00	0	47	104	0	66	18934
2026-01-17 03:00:09.74	37.59	7.11	-47.8	-49.8	3.8	0.00e+00	0	47	104	0	66	18906
2026-01-17 03:00:11.72	37.88	7.25	-47.9	-49.8	3.8	0.00e+00	0	48	104	0	66	18915
2026-01-17 03:00:13.71	38.18	7.39	-47.8	-49.8	3.8	0.00e+00	0	48	104	0	66	18912
2026-01-17 03:00:15.70	38.48	7.53	-47.8	-49.8	3.8	0.00e+00	0	48	104	0	66	18894
2026-01-17 03:00:17.69	38.78	7.67	-47.9	-49.8	3.8	0.00e+00	0	48	104	0	66	18872
2026-01-17 03:00:19.67	39.08	7.81	-47.8	-49.8	3.8	0.00e+00	0	48	104	0	66	18904
2026-01-17 03:00:21.66	39.39	7.95	-47.9	-49.8	3.8	0.00e+00	0	48	104	0	66	18891
2026-01-17 03:00:23.65	39.70	8.09	-47.9	-49.8	3.8	0.00e+00	0	48	104	0	66	18879
2026-01-17 03:00:25.63	40.02	8.23	-47.8	-49.8	3.8	0.00e+00	0	48	104	0	66	18846
2026-01-17 03:00:27.62	40.34	8.37	-47.8	-49.8	3.8	0.00e+00	0	49	104	0	66	18833
2026-01-17 03:00:29.61	40.66	8.51	-47.8	-49.8	3.8	0.00e+00	0	48	104	0	66	18856
2026-01-17 03:00:31.60	40.99	8.65	-47.8	-49.8	3.8	0.00e+00	0	48	104	0	66	18856
2026-01-17 03:00:33.58	41.32	8.79	-47.9	-49.8	3.8	0.00e+00	0	49	104	0	66	18846
2026-01-17 03:00:35.57	41.65	8.93	-47.8	-49.8	3.8	0.00e+00	0	49	104	0	66	18893
2026-01-17 03:00:37.56	41.99	9.08	-47.9	-49.8	3.8	0.00e+00	0	49	104	0	66	18873
2026-01-17 03:00:39.55	42.34	9.22	-47.7	-49.5	3.9	0.00e+00	0	49	104	0	66	18269
2026-01-17 03:00:41.54	42.68	9.36	-47.2	-48.9	3.8	0.00e+00	0	49	104	0	66	17097
2026-01-17 03:00:43.53	43.04	9.51	-47.5	-49.3	3.8	0.00e+00	0	49	104	0	66	17783
2026-01-17 03:00:45.72	43.43	9.67	-48.5	-50.6	3.8	0.00e+00	0	49	104	0	67	19556
2026-01-17 03:00:47.90	43.82	9.82	-49.1	-51.2	3.8	0.00e+00	0	49	104	0	68	19886
2026-01-17 03:00:50.11	44.23	9.98	-46.4	-48.0	4.3	0.00e+00	0	49	104	0	64	17231
2026-01-17 03:00:52.16	44.61	10.13	-48.7	-50.7	3.9	0.00e+00	0	49	104	0	69	17598
2026-01-17 03:00:54.15	44.98	10.28	-49.9	-52.3	3.7	0.00e+00	0	49	104	0	70	19940
2026-01-17 03:00:56.15	45.36	10.43	-50.7	-53.4	3.7	0.00e+00	0	49	104	0	72	20385
2026-01-17 03:00:58.16	45.75	10.57	-50.5	-53.2	3.7	0.00e+00	0	49	104	0	72	19844
2026-01-17 03:01:00.16	46.14	10.72	-50.6	-53.4	3.7	0.00e+00	0	49	104	0	73	19137
2026-01-17 03:01:02.15	46.53	10.86	-51.6	-54.9	3.7	0.00e+00	0	49	104	0	73	22691
2026-01-17 03:01:04.18	46.94	11.01	-51.4	-54.4	3.7	0.00e+00	0	49	104	0	74	20315
2026-01-17 03:01:06.18	47.34	11.16	-51.6	-54.9	3.7	0.00e+00	0	49	104	0	74	21433
2026-01-17 03:01:08.17	47.75	11.31	-50.5	-53.2	3.7	0.00e+00	0	49	104	0	72	19822
2026-01-17 03:01:10.17	48.16	11.45	-50.9	-53.8	3.7	0.00e+00	0	50	104	0	73	19959
2026-01-17 03:01:12.16	48.58	11.60	-51.3	-54.4	3.7	0.00e+00	0	50	104	0	73	21443
2026-01-17 03:01:14.19	49.01	11.75	-50.3	-52.9	3.7	0.00e+00	0	50	104	0	72	19166
2026-01-17 03:01:16.18	49.43	11.89	-51.2	-54.2	3.7	0.00e+00	0	50	104	0	73	20941
2026-01-17 03:01:18.40	49.91	12.06	-50.9	-53.8	3.7	0.00e+00	0	50	104	0	72	21231
2026-01-17 03:01:20.39	50.35	12.20	-50.8	-53.5	3.7	0.00e+00	0	49	104	0	73	19456
2026-01-17 03:01:22.38	50.79	12.35	-50.8	-53.5	3.7	0.00e+00	0	50	104	0	73	19467
2026-01-17 03:01:24.37	51.24	12.49	-51.4	-54.4	3.7	0.00e+00	0	49	104	0	73	21605
2026-01-17 03:01:26.36	51.69	12.64	-51.4	-54.5	3.7	0.00e+00	0	50	104	0	73	21676
2026-01-17 03:01:28.35	52.15	12.78	-51.3	-54.4	3.7	0.00e+00	0	50	104	0	73	21513
2026-01-17 03:01:30.34	52.62	12.93	-51.5	-54.6	3.7	0.00e+00	0	50	104	0	73	22086
2026-01-17 03:01:32.58	53.14	13.09	-51.7	-54.9	3.7	0.00e+00	0	50	104	0	73	22787
2026-01-17 03:01:34.57	53.62	13.23	-51.7	-55.0	3.7	0.00e+00	0	50	104	0	74	21647
2026-01-17 03:01:36.58	54.10	13.38	-51.6	-54.8	3.7	0.00e+00	0	50	104	0	74	21339
2026-01-17 03:01:38.57	54.59	13.52	-51.8	-55.1	3.7	0.00e+00	0	50	104	0	74	21964
2026-01-17 03:01:40.56	55.08	13.66	-51.8	-55.1	3.7	0.00e+00	0	50	104	0	74	22003
2026-01-17 03:01:42.55	55.58	13.81	-51.9	-55.2	3.7	0.00e+00	0	50	104	0	74	22316
2026-01-17 03:01:44.55	56.08	13.95	-52.0	-55.4	3.7	0.00e+00	0	50	104	0	74	22728
2026-01-17 03:01:46.57	56.60	14.09	-52.1	-55.5	3.7	0.00e+00	0	50	104	0	74	22964
2026-01-17 03:01:48.58	57.12	14.23	-52.0	-55.4	3.7	0.00e+00	0	50	104	0	74	22636
2026-01-17 03:01:50.57	57.64	14.37	-51.8	-55.1	3.7	0.00e+00	0	50	104	0	74	22037
2026-01-17 03:01:52.57	58.16	14.51	-52.0	-55.5	3.7	0.00e+00	0	50	104	0	74	22999
2026-01-17 03:01:54.56	58.70	14.64	-51.5	-54.6	3.7	0.00e+00	0	50	104	0	74	20659
2026-01-17 03:01:56.69	59.27	14.79	-51.7	-54.8	3.7	0.00e+00	0	50	104	0	74	21206
2026-01-17 03:01:58.76	59.83	14.93	-51.4	-54.4	3.7	0.00e+00	0	50	104	0	74	20165
2026-01-17 03:02:00.75	60.38	15.06	-51.5	-54.6	3.7	0.00e+00	0	50	104	0	74	20832
2026-01-17 03:02:02.75	60.94	15.19	-52.1	-55.5	3.7	0.00e+00	0	50	104	0	74	22968
2026-01-17 03:02:04.77	61.51	15.32	-51.8	-55.1	3.7	0.00e+00	0	50	104	0	74	22080
2026-01-17 03:02:06.76	62.07	15.45	-51.7	-55.0	3.7	0.00e+00	0	50	104	0	74	21775
2026-01-17 03:02:08.76	62.65	15.58	-51.9	-55.2	3.7	0.00e+00	0	50	104	0	74	22306
2026-01-17 03:02:10.75	63.22	15.71	-52.1	-55.5	3.7	0.00e+00	0	50	104	0	74	23131
2026-01-17 03:02:12.75	63.81	15.83	-52.1	-55.6	3.7	0.00e+00	0	50	104	0	74	23293
2026-01-17 03:02:14.77	64.41	15.95	-51.8	-55.2	3.7	0.00e+00	0	50	104	0	74	22247
2026-01-17 03:02:16.78	65.01	16.08	-52.1	-55.8	3.7	0.00e+00	0	50	104	0	74	23822
2026-01-17 03:02:18.77	65.61	16.19	-52.1	-55.6	3.7	0.00e+00	0	50	104	0	74	23278
2026-01-17 03:02:20.78	66.22	16.31	-52.0	-55.4	3.7	0.00e+00	0	50	104	0	74	22770
2026-01-17 03:02:22.78	66.83	16.43	-52.0	-55.4	3.7	0.00e+00	0	50	104	0	74	22708
2026-01-17 03:02:24.79	67.45	16.54	-52.1	-55.5	3.7	0.00e+00	0	50	104	0	74	22897
2026-01-17 03:02:26.79	68.07	16.65	-52.1	-55.5	3.7	0.00e+00	0	50	104	0	74	22952
2026-01-17 03:02:28.78	68.70	16.76	-52.0	-55.2	3.7	0.00e+00	0	51	104	0	75	20987
2026-01-17 03:02:31.04	69.42	16.88	-52.0	-55.2	3.7	0.00e+00	0	50	104	0	75	21004
2026-01-17 03:02:33.25	70.13	17.00	-51.8	-54.9	3.7	0.00e+00	0	50	104	0	75	20302
2026-01-17 03:02:35.25	70.77	17.10	-52.1	-55.3	3.7	0.00e+00	0	50	104	0	75	21338
2026-01-17 03:02:37.24	71.42	17.19	-52.3	-55.8	3.7	0.00e+00	0	50	104	0	75	22416
2026-01-17 03:02:39.24	72.08	17.29	-52.3	-55.8	3.7	0.00e+00	0	51	104	0	75	22582
2026-01-17 03:02:41.23	72.73	17.38	-52.3	-55.8	3.7	0.00e+00	0	50	104	0	75	22405
2026-01-17 03:02:43.24	73.40	17.47	-52.1	-55.5	3.7	0.00e+00	0	51	104	0	75	21607
2026-01-17 03:02:45.26	74.08	17.56	-52.1	-55.5	3.7	0.00e+00	0	50	104	0	75	21618
2026-01-17 03:02:47.29	74.76	17.65	-52.2	-55.5	3.7	0.00e+00	0	51	104	0	75	21776
2026-01-17 03:02:49.28	75.43	17.73	-52.1	-55.5	3.7	0.00e+00	0	50	104	0	75	21776
2026-01-17 03:02:51.27	76.11	17.80	-52.0	-55.4	3.7	0.00e+00	0	50	104	0	75	21409
2026-01-17 03:02:53.26	76.80	17.88	-51.7	-54.9	3.7	0.00e+00	0	50	104	0	75	20354
2026-01-17 03:02:55.26	77.49	17.95	-52.3	-55.7	3.7	0.00e+00	0	50	104	0	75	22279
2026-01-17 03:02:57.25	78.18	18.01	-52.2	-55.7	3.7	0.00e+00	0	50	104	0	75	22347
2026-01-17 03:02:59.26	78.88	18.08	-52.2	-55.6	3.7	0.00e+00	0	50	104	0	75	22089
2026-01-17 03:03:01.26	79.58	18.14	-52.1	-55.6	3.7	0.00e+00	0	50	104	0	75	21863
2026-01-17 03:03:03.27	80.28	18.20	-51.9	-55.3	3.7	0.00e+00	0	50	104	0	75	21155
2026-01-17 03:03:05.26	80.99	18.25	-51.6	-54.9	3.7	0.00e+00	0	50	104	0	74	21550
2026-01-17 03:03:07.25	81.69	18.30	-52.0	-55.5	3.7	0.00e+00	0	51	104	0	74	22917
2026-01-17 03:03:09.25	82.40	18.35	-51.9	-55.3	3.7	0.00e+00	0	51	104	0	74	22619
2026-01-17 03:03:11.26	83.12	18.39	-51.2	-54.4	3.7	0.00e+00	0	51	104	0	74	20250
2026-01-17 03:03:13.26	83.84	18.43	-51.4	-54.5	3.7	0.00e+00	0	50	104	0	74	20545
2026-01-17 03:03:15.26	84.55	18.46	-51.2	-54.4	3.7	0.00e+00	0	50	104	0	74	20165
2026-01-17 03:03:17.25	85.27	18.49	-51.2	-54.2	3.7	0.00e+00	0	50	104	0	74	19799
2026-01-17 03:03:19.25	85.99	18.52	-51.5	-54.7	3.7	0.00e+00	0	51	104	0	74	20951
2026-01-17 03:03:21.24	86.71	18.54	-51.4	-54.5	3.7	0.00e+00	0	51	104	0	74	20449
2026-01-17 03:03:23.25	87.44	18.56	-50.9	-53.8	3.7	0.00e+00	0	51	104	0	73	20033
2026-01-17 03:03:25.24	88.16	18.58	-51.0	-54.0	3.7	0.00e+00	0	51	104	0	73	20447
2026-01-17 03:03:27.24	88.89	18.59	-51.7	-54.8	3.7	0.00e+00	0	51	104	0	74	21350
2026-01-17 03:03:29.23	89.61	18.59	-51.5	-54.6	3.7	0.00e+00	0	51	104	0	74	20698
2026-01-17 03:03:31.52	90.44	18.60	-52.0	-55.4	3.7	0.00e+00	0	50	104	0	74	22628
2026-01-17 03:03:33.51	91.16	18.59	-51.8	-55.0	3.7	0.00e+00	0	50	104	0	74	21639
2026-01-17 03:03:35.52	91.89	18.59	-51.8	-54.9	3.7	0.00e+00	0	51	104	0	74	21525
2026-01-17 03:03:37.52	92.62	18.58	-52.1	-55.3	3.7	0.00e+00	0	50	104	0	74	22534
2026-01-17 03:03:39.51	93.34	18.56	-52.2	-55.5	3.7	0.00e+00	0	50	104	0	75	21721
2026-01-17 03:03:41.50	94.06	18.55	-52.2	-55.6	3.7	0.00e+00	0	50	104	0	75	22024
2026-01-17 03:03:43.49	94.78	18.52	-52.3	-55.6	3.7	0.00e+00	0	50	104	0	75	22083
2026-01-17 03:03:45.49	95.50	18.50	-52.2	-55.4	3.7	0.00e+00	0	51	104	0	75	21504
2026-01-17 03:03:47.49	96.22	18.47	-52.3	-55.6	3.7	0.00e+00	0	51	104	0	75	22104
2026-01-17 03:03:49.47	96.93	18.43	-52.3	-55.7	3.7	0.00e+00	0	51	104	0	75	22217
2026-01-17 03:03:51.47	97.65	18.40	-52.3	-55.7	3.7	0.00e+00	0	50	104	0	75	22297
2026-01-17 03:03:53.46	98.36	18.36	-52.3	-55.7	3.7	0.00e+00	0	51	104	0	75	22219
2026-01-17 03:03:55.44	99.07	18.31	-52.3	-55.7	3.7	0.00e+00	0	51	104	0	75	22147
2026-01-17 03:03:57.43	99.77	18.26	-52.2	-55.7	3.7	0.00e+00	0	51	104	0	75	22287
2026-01-17 03:03:59.42	100.48	18.21	-52.3	-55.7	3.7	0.00e+00	0	51	104	0	75	22220
2026-01-17 03:04:01.41	101.18	18.15	-52.4	-55.8	3.7	0.00e+00	0	51	104	0	75	22504
2026-01-17 03:04:03.45	101.90	18.09	-52.3	-55.7	3.7	0.00e+00	0	51	104	0	75	22188
2026-01-17 03:04:05.50	102.61	18.03	-52.4	-55.8	3.7	0.00e+00	0	51	104	0	75	22601
2026-01-17 03:04:07.49	103.30	17.96	-52.4	-55.9	3.7	0.00e+00	0	50	104	0	75	22701
2026-01-17 03:04:09.48	103.99	17.89	-52.4	-55.9	3.7	0.00e+00	0	51	104	0	75	22653
2026-01-17 03:04:11.47	104.67	17.82	-52.3	-55.8	3.7	0.00e+00	0	51	104	0	75	22493
2026-01-17 03:04:13.45	105.35	17.74	-52.4	-55.9	3.7	0.00e+00	0	51	104	0	75	22762
2026-01-17 03:04:15.44	106.03	17.66	-52.4	-55.9	3.7	0.00e+00	0	51	104	0	75	22650
2026-01-17 03:04:17.43	106.70	17.58	-52.3	-55.7	3.7	0.00e+00	0	51	104	0	75	22325
2026-01-17 03:04:19.42	107.37	17.49	-52.1	-55.4	3.7	0.00e+00	0	51	104	0	75	21539
2026-01-17 03:04:21.48	108.05	17.40	-52.1	-55.4	3.7	0.00e+00	0	51	104	0	75	21399
2026-01-17 03:04:23.53	108.73	17.30	-52.3	-55.7	3.7	0.00e+00	0	51	104	0	75	22298
2026-01-17 03:04:25.52	109.39	17.21	-52.2	-55.7	3.7	0.00e+00	0	51	104	0	75	22169
2026-01-17 03:04:27.62	110.07	17.11	-52.2	-55.6	3.7	0.00e+00	0	51	104	0	75	21989
2026-01-17 03:04:29.69	110.74	17.00	-52.1	-55.4	3.7	0.00e+00	0	51	104	0	75	21601
2026-01-17 03:04:31.68	111.38	16.90	-52.0	-55.4	3.7	0.00e+00	0	51	104	0	75	21455
2026-01-17 03:04:33.67	112.01	16.79	-51.9	-55.3	3.7	0.00e+00	0	51	104	0	75	21152
2026-01-17 03:04:35.65	112.64	16.69	-52.0	-55.4	3.7	0.00e+00	0	51	104	0	75	21385
2026-01-17 03:04:37.90	113.35	16.56	-52.4	-55.9	3.7	0.00e+00	0	51	104	0	75	22644
2026-01-17 03:04:39.89	113.96	16.45	-52.4	-55.8	3.7	0.00e+00	0	50	104	0	75	22568
2026-01-17 03:04:42.16	114.66	16.32	-52.4	-55.9	3.6	0.00e+00	0	51	104	0	75	22673
2026-01-17 03:04:44.56	115.39	16.18	-52.4	-55.8	3.7	0.00e+00	0	51	104	0	75	22490
2026-01-17 03:04:46.55	115.99	16.06	-52.4	-55.8	3.7	0.00e+00	0	51	104	0	75	22563
2026-01-17 03:04:48.56	116.59	15.94	-52.4	-55.9	3.7	0.00e+00	0	51	104	0	75	22699
2026-01-17 03:04:50.58	117.19	15.81	-52.1	-55.6	3.7	0.00e+00	0	51	104	0	75	22008
2026-01-17 03:04:52.57	117.77	15.69	-52.0	-55.4	3.7	0.00e+00	0	51	104	0	75	21363
2026-01-17 03:04:54.56	118.35	15.56	-52.1	-55.5	3.7	0.00e+00	0	51	104	0	75	21653
2026-01-17 03:04:56.55	118.92	15.43	-52.3	-55.7	3.7	0.00e+00	0	51	104	0	75	22341
2026-01-17 03:04:58.56	119.49	15.30	-52.2	-55.7	3.7	0.00e+00	0	51	104	0	75	22343
2026-01-17 03:05:00.55	120.05	15.17	-52.2	-55.6	3.7	0.00e+00	0	51	104	0	75	22037
2026-01-17 03:05:02.55	120.61	15.04	-52.1	-55.5	3.7	0.00e+00	0	51	104	0	75	21799
2026-01-17 03:05:04.54	121.16	14.90	-52.2	-55.6	3.7	0.00e+00	0	51	104	0	75	21929
2026-01-17 03:05:06.72	121.75	14.76	-52.1	-55.5	3.7	0.00e+00	0	51	104	0	75	21825
2026-01-17 03:05:08.74	122.30	14.62	-52.1	-55.4	3.7	0.00e+00	0	51	104	0	75	21526
2026-01-17 03:05:10.73	122.83	14.48	-52.1	-55.4	3.7	0.00e+00	0	51	104	0	75	21547
2026-01-17 03:05:12.84	123.39	14.33	-52.2	-55.7	3.7	0.00e+00	0	51	104	0	75	22175
2026-01-17 03:05:14.83	123.91	14.20	-52.1	-55.6	3.7	0.00e+00	0	51	104	0	75	21902
2026-01-17 03:05:16.82	124.42	14.06	-52.0	-55.3	3.7	0.00e+00	0	51	104	0	75	21232
2026-01-17 03:05:18.82	124.93	13.91	-52.1	-55.4	3.7	0.00e+00	0	51	104	0	75	21483
2026-01-17 03:05:20.83	125.44	13.77	-52.1	-55.6	3.7	0.00e+00	0	51	104	0	75	21979
2026-01-17 03:05:22.83	125.94	13.63	-52.1	-55.6	3.7	0.00e+00	0	51	104	0	75	22020
2026-01-17 03:05:24.83	126.43	13.49	-52.1	-55.5	3.7	0.00e+00	0	51	104	0	75	21629
2026-01-17 03:05:26.82	126.92	13.34	-51.9	-55.2	3.7	0.00e+00	0	51	104	0	75	21114
2026-01-17 03:05:28.84	127.40	13.20	-51.6	-54.7	3.6	0.00e+00	0	51	104	0	75	19801
2026-01-17 03:05:30.83	127.88	13.05	-51.3	-54.3	3.7	0.00e+00	0	51	104	0	74	20088
2026-01-17 03:05:32.83	128.35	12.91	-51.5	-54.5	3.7	0.00e+00	0	51	104	0	74	20610
2026-01-17 03:05:34.82	128.81	12.76	-51.4	-54.5	3.7	0.00e+00	0	51	104	0	74	20512
2026-01-17 03:05:36.83	129.28	12.61	-51.6	-54.7	3.7	0.00e+00	0	51	104	0	74	21073
2026-01-17 03:05:38.83	129.73	12.47	-51.6	-54.7	3.7	0.00e+00	0	51	104	0	74	21095
2026-01-17 03:05:40.82	130.18	12.32	-51.6	-54.7	3.7	0.00e+00	0	51	104	0	74	20932
2026-01-17 03:05:42.81	130.62	12.18	-51.5	-54.7	3.7	0.00e+00	0	51	104	0	74	20988
2026-01-17 03:05:45.04	131.11	12.01	-51.5	-54.6	3.7	0.00e+00	0	51	104	0	74	20796
2026-01-17 03:05:47.03	131.55	11.87	-51.3	-54.4	3.7	0.00e+00	0	51	104	0	74	20290
2026-01-17 03:05:49.03	131.97	11.72	-51.4	-54.4	3.7	0.00e+00	0	51	104	0	74	20393
2026-01-17 03:05:51.05	132.40	11.57	-51.6	-54.7	3.7	0.00e+00	0	51	104	0	74	20923
2026-01-17 03:05:53.04	132.82	11.42	-51.7	-54.9	3.7	0.00e+00	0	51	104	0	74	21593
2026-01-17 03:05:55.03	133.23	11.27	-51.7	-54.9	3.7	0.00e+00	0	51	104	0	74	21561
2026-01-17 03:05:57.03	133.64	11.13	-51.9	-55.2	3.7	0.00e+00	0	51	104	0	74	22262
2026-01-17 03:05:59.02	134.04	10.98	-51.9	-55.1	3.7	0.00e+00	0	51	104	0	74	22095
2026-01-17 03:06:01.12	134.46	10.83	-51.6	-54.9	3.7	0.00e+00	0	51	104	0	74	21413
2026-01-17 03:06:03.18	134.87	10.67	-51.9	-55.2	3.7	0.00e+00	0	51	104	0	74	22272
2026-01-17 03:06:05.17	135.25	10.53	-51.7	-55.0	3.7	0.00e+00	0	51	104	0	74	21711
2026-01-17 03:06:07.17	135.64	10.38	-51.7	-55.0	3.7	0.00e+00	0	51	104	0	74	21693
2026-01-17 03:06:09.16	136.02	10.23	-52.0	-55.4	3.7	0.00e+00	0	51	104	0	74	22853
2026-01-17 03:06:11.16	136.39	10.09	-51.8	-55.1	3.7	0.00e+00	0	51	104	0	74	21982
2026-01-17 03:06:13.19	136.77	9.94	-51.9	-55.3	3.7	0.00e+00	0	51	104	0	74	22602
2026-01-17 03:06:15.15	137.13	9.80	-51.9	-55.3	3.7	0.00e+00	0	51	104	0	74	22479
2026-01-17 03:06:17.14	137.49	9.65	-52.0	-55.4	3.7	0.00e+00	0	51	104	0	74	22784
2026-01-17 03:06:19.13	137.85	9.51	-51.9	-55.3	3.7	0.00e+00	0	51	104	0	74	22601
2026-01-17 03:06:21.32	138.23	9.35	-51.8	-55.2	3.7	0.00e+00	0	51	104	0	74	22124
2026-01-17 03:06:23.31	138.58	9.20	-51.8	-55.1	3.7	0.00e+00	0	51	104	0	74	22080
2026-01-17 03:06:25.30	138.92	9.06	-51.7	-55.0	3.7	0.00e+00	0	51	104	0	74	21746
2026-01-17 03:06:27.29	139.26	8.91	-51.9	-55.2	3.7	0.00e+00	0	51	104	0	74	22129
2026-01-17 03:06:29.28	139.60	8.77	-52.0	-55.3	3.7	0.00e+00	0	51	104	0	74	22410
2026-01-17 03:06:31.26	139.93	8.63	-52.3	-55.7	3.7	0.00e+00	0	51	104	0	75	22133
2026-01-17 03:06:33.25	140.26	8.49	-52.6	-56.0	3.7	0.00e+00	0	51	104	0	75	22931
2026-01-17 03:06:35.24	140.58	8.34	-52.5	-55.9	3.7	0.00e+00	0	51	104	0	76	21463
2026-01-17 03:06:37.22	140.90	8.20	-52.2	-55.4	3.7	0.00e+00	0	51	104	0	76	20168
2026-01-17 03:06:39.21	141.22	8.06	-52.2	-55.4	3.7	0.00e+00	0	51
