passes_logs/2026/01/17/T1/T1__20260117_234922_NOAA_21_JPSS-2_rec.log

#Pass ID: 20260117_234922_NOAA 21 (JPSS-2)
#Satellite: NOAA 21 (JPSS-2)
#Configuration: NOAA 21
#almurnet v.1.7.20251203
#Start time: 2026-01-17 23:49:22

#Version: 2.0.20230620
#Station: T1
#Location: 37.570604 lon 55.790049 lat
#TLE: 1 54234U 22150A   26017.26823908  .00000042  00000+0  40962-4 0  9992
#TLE: 2 54234  98.7501 318.1405 0000613 274.2947  85.8159 14.19535194165131

#Time	Az	El	Level	Level2	SNR	BER	BlckErr	Temp	State	Recorded	gain1	gain2
2026-01-17 23:49:22.80	15.44	5.00	-49.1	-62.9	3.8	1.49e+00	0	40	0	0	69	17960
2026-01-17 23:49:25.77	15.43	5.21	-48.3	-62.6	3.8	1.49e+00	0	40	104	0	67	19512
2026-01-17 23:49:28.75	15.42	5.42	-48.2	-62.6	3.8	1.49e+00	0	40	104	0	67	19573
2026-01-17 23:49:31.73	15.41	5.64	-48.3	-62.6	3.8	1.49e+00	0	40	104	0	67	19590
2026-01-17 23:49:34.71	15.40	5.85	-48.2	-62.6	3.8	1.49e+00	0	40	104	0	67	19431
2026-01-17 23:49:37.69	15.38	6.07	-48.2	-62.5	3.8	1.49e+00	0	40	104	0	67	19292
2026-01-17 23:49:40.67	15.37	6.30	-48.2	-62.5	3.8	1.49e+00	0	40	104	0	67	19233
2026-01-17 23:49:43.65	15.36	6.52	-48.2	-62.3	3.8	1.49e+00	0	41	104	0	67	18900
2026-01-17 23:49:46.63	15.35	6.74	-48.2	-62.2	3.8	1.49e+00	0	41	104	0	67	18544
2026-01-17 23:49:49.61	15.33	6.97	-48.2	-62.0	3.8	1.49e+00	0	41	104	0	67	18142
2026-01-17 23:49:52.60	15.32	7.20	-48.2	-61.8	3.8	1.49e+00	0	41	104	0	67	17823
2026-01-17 23:49:55.58	15.31	7.43	-48.1	-61.2	3.8	1.49e+00	0	40	104	0	67	16602
2026-01-17 23:49:58.55	15.29	7.67	-48.0	-59.6	4.0	1.48e+00	0	41	104	0	67	13731
2026-01-17 23:50:01.54	15.28	7.90	-47.6	-56.7	5.2	6.88e-01	0	41	0	0	67	9885
2026-01-17 23:50:04.52	15.26	8.14	-47.0	-53.7	7.5	1.12e-01	0	41	0	0	66	7453
2026-01-17 23:50:07.50	15.25	8.38	-46.1	-51.1	10.2	6.79e-03	0	41	0	0	64	6201
2026-01-17 23:50:10.48	15.23	8.62	-45.2	-49.2	12.3	1.81e-04	0	41	0	0	62	5535
2026-01-17 23:50:13.46	15.21	8.87	-44.7	-48.3	13.2	3.66e-05	0	41	0	0	61	5282
2026-01-17 23:50:16.44	15.20	9.12	-45.0	-48.9	12.6	2.74e-05	0	41	0	0	61	5692
2026-01-17 23:50:19.42	15.18	9.37	-46.5	-52.2	9.0	4.61e-02	0	41	0	0	64	7027
2026-01-17 23:50:22.41	15.16	9.62	-41.8	-44.1	17.1	0.00e+00	0	41	0	0	55	4636
2026-01-17 23:50:25.39	15.14	9.87	-41.1	-43.3	17.9	0.00e+00	0	41	0	0	54	4451
2026-01-17 23:50:28.36	15.12	10.13	-41.0	-43.2	18.0	0.00e+00	0	41	0	0	53	4686
2026-01-17 23:50:31.35	15.10	10.39	-41.0	-43.2	18.0	0.00e+00	0	41	0	0	53	4674
2026-01-17 23:50:34.34	15.08	10.65	-40.8	-43.0	18.1	0.00e+00	0	41	0	0	53	4561
2026-01-17 23:50:37.32	15.06	10.92	-40.7	-42.9	18.3	0.00e+00	0	41	0	0	53	4496
2026-01-17 23:50:40.31	15.04	11.19	-40.8	-42.9	18.3	0.00e+00	0	41	0	0	53	4517
2026-01-17 23:50:43.38	15.01	11.47	-40.6	-42.7	18.5	0.00e+00	0	41	0	0	53	4417
2026-01-17 23:50:46.22	14.99	11.73	-40.5	-42.6	18.5	0.00e+00	0	41	0	0	53	4387
2026-01-17 23:50:49.34	14.97	12.02	-40.6	-42.7	18.5	0.00e+00	0	42	0	0	52	4669
2026-01-17 23:50:52.23	14.94	12.30	-40.4	-42.5	18.7	0.00e+00	0	42	0	0	52	4574
2026-01-17 23:50:55.42	14.92	12.60	-40.3	-42.4	18.6	0.00e+00	0	42	0	0	52	4537
2026-01-17 23:50:58.26	14.89	12.87	-40.1	-42.2	19.0	0.00e+00	0	42	0	0	52	4394
2026-01-17 23:51:01.39	14.86	13.18	-40.1	-42.1	19.0	0.00e+00	0	42	0	0	52	4379
2026-01-17 23:51:04.23	14.84	13.46	-40.2	-42.2	19.0	0.00e+00	0	42	0	0	52	4411
2026-01-17 23:51:07.36	14.81	13.77	-40.1	-42.0	19.2	0.00e+00	0	42	0	0	51	4593
2026-01-17 23:51:10.21	14.78	14.06	-40.2	-42.2	19.0	0.00e+00	0	42	0	0	51	4700
2026-01-17 23:51:13.33	14.75	14.38	-40.1	-42.1	19.2	0.00e+00	0	42	0	0	51	4627
2026-01-17 23:51:16.24	14.72	14.69	-40.2	-42.2	19.1	0.00e+00	0	42	0	0	51	4675
2026-01-17 23:51:19.52	14.68	15.03	-40.1	-42.0	19.3	0.00e+00	0	42	0	0	51	4580
2026-01-17 23:51:22.26	14.65	15.33	-40.1	-42.0	19.3	0.00e+00	0	42	0	0	51	4555
2026-01-17 23:51:25.53	14.62	15.68	-40.1	-42.0	19.3	0.00e+00	0	42	0	0	51	4567
2026-01-17 23:51:28.27	14.58	15.98	-40.1	-42.0	19.3	0.00e+00	0	42	0	0	51	4568
2026-01-17 23:51:31.56	14.54	16.35	-40.1	-41.9	19.3	0.00e+00	0	42	0	0	51	4540
2026-01-17 23:51:34.37	14.51	16.66	-40.0	-41.9	19.3	0.00e+00	0	42	0	0	51	4532
2026-01-17 23:51:37.93	14.46	17.07	-40.1	-41.9	19.3	0.00e+00	0	42	0	0	51	4537
2026-01-17 23:51:40.78	14.43	17.40	-40.2	-42.0	19.2	0.00e+00	0	42	0	0	51	4597
2026-01-17 23:51:43.90	14.38	17.77	-40.2	-42.1	19.2	0.00e+00	0	42	0	0	51	4608
2026-01-17 23:51:46.78	14.34	18.11	-40.3	-42.1	19.1	0.00e+00	0	42	0	0	51	4651
2026-01-17 23:51:49.91	14.30	18.49	-40.4	-42.2	19.1	0.00e+00	0	42	0	0	51	4687
2026-01-17 23:51:52.83	14.25	18.85	-40.3	-42.1	19.2	0.00e+00	0	42	0	0	51	4599
2026-01-17 23:51:56.10	14.20	19.26	-40.2	-42.0	19.2	0.00e+00	0	42	0	0	51	4573
2026-01-17 23:51:59.10	14.16	19.64	-40.3	-42.1	19.2	0.00e+00	0	42	0	0	51	4610
2026-01-17 23:52:02.26	14.10	20.05	-39.9	-41.6	19.6	0.00e+00	0	42	0	0	51	4356
2026-01-17 23:52:05.10	14.06	20.42	-40.0	-41.7	19.5	0.00e+00	0	42	0	0	51	4428
2026-01-17 23:52:08.78	13.99	20.91	-39.8	-41.5	19.7	0.00e+00	0	42	0	0	51	4326
2026-01-17 23:52:11.56	13.94	21.29	-39.7	-41.3	19.8	0.00e+00	0	42	0	0	51	4241
2026-01-17 23:52:14.83	13.88	21.74	-39.2	-40.9	20.3	0.00e+00	0	42	0	0	50	4268
2026-01-17 23:52:17.55	13.83	22.12	-39.1	-40.8	20.4	0.00e+00	0	42	0	0	50	4205
2026-01-17 23:52:20.83	13.76	22.59	-39.0	-40.6	20.5	0.00e+00	0	42	0	0	49	4384
2026-01-17 23:52:23.71	13.70	23.01	-38.8	-40.4	20.6	0.00e+00	0	42	0	0	49	4287
2026-01-17 23:52:26.83	13.64	23.47	-38.7	-40.3	20.7	0.00e+00	0	42	0	0	49	4210
2026-01-17 23:52:29.67	13.57	23.90	-38.6	-40.2	20.8	0.00e+00	0	42	0	0	49	4173
2026-01-17 23:52:32.79	13.50	24.37	-38.6	-40.2	20.8	0.00e+00	0	42	0	0	49	4174
2026-01-17 23:52:35.64	13.43	24.82	-38.8	-40.5	20.5	0.00e+00	0	42	0	0	49	4304
2026-01-17 23:52:39.14	13.35	25.37	-39.2	-40.8	20.3	0.00e+00	0	42	0	0	49	4490
2026-01-17 23:52:42.18	13.27	25.86	-39.4	-41.1	20.1	0.00e+00	0	42	0	0	49	4647
2026-01-17 23:52:45.83	13.17	26.46	-39.8	-41.5	19.8	0.00e+00	0	42	0	0	50	4594
2026-01-17 23:52:48.67	13.10	26.94	-40.0	-41.7	19.7	0.00e+00	0	42	0	0	50	4693
2026-01-17 23:52:52.65	12.98	27.62	-40.2	-41.9	19.5	0.00e+00	0	42	0	0	50	4805
2026-01-17 23:52:55.46	12.90	28.12	-40.2	-42.0	19.5	0.00e+00	0	42	0	0	51	4554
2026-01-17 23:52:58.73	12.80	28.70	-40.3	-42.1	19.4	0.00e+00	0	42	0	0	51	4613
2026-01-17 23:53:01.67	12.70	29.24	-40.1	-41.9	19.6	0.00e+00	0	42	0	0	51	4510
2026-01-17 23:53:04.95	12.59	29.85	-40.0	-41.7	19.7	0.00e+00	0	42	0	0	51	4409
2026-01-17 23:53:07.66	12.49	30.36	-39.9	-41.7	19.6	0.00e+00	0	42	0	0	51	4409
2026-01-17 23:53:11.01	12.37	31.01	-39.9	-41.6	19.7	0.00e+00	0	42	0	0	51	4387
2026-01-17 23:53:13.84	12.27	31.57	-40.0	-41.7	19.6	0.00e+00	0	42	0	0	51	4440
2026-01-17 23:53:17.24	12.13	32.26	-40.1	-41.9	19.4	0.00e+00	0	42	0	0	51	4533
2026-01-17 23:53:20.29	12.00	32.89	-40.3	-42.1	19.4	0.00e+00	0	42	0	0	51	4607
2026-01-17 23:53:23.16	11.88	33.49	-40.8	-42.7	18.8	0.00e+00	0	42	0	0	52	4691
2026-01-17 23:53:26.37	11.74	34.19	-41.1	-43.0	18.5	0.00e+00	0	42	0	0	52	4824
2026-01-17 23:53:29.22	11.60	34.81	-41.0	-42.9	18.6	0.00e+00	0	42	0	0	52	4783
2026-01-17 23:53:32.70	11.43	35.59	-41.4	-43.3	18.1	0.00e+00	0	42	0	0	53	4734
2026-01-17 23:53:35.68	11.28	36.28	-41.7	-43.7	17.7	0.00e+00	0	42	0	0	54	4689
2026-01-17 23:53:38.96	11.10	37.05	-42.0	-44.0	17.6	0.00e+00	0	42	0	0	54	4864
2026-01-17 23:53:41.68	10.94	37.70	-41.9	-44.0	17.7	0.00e+00	0	42	0	0	54	4836
2026-01-17 23:53:45.05	10.74	38.53	-41.8	-43.8	17.8	0.00e+00	0	42	0	0	54	4748
2026-01-17 23:53:48.17	10.55	39.31	-41.7	-43.6	17.9	0.00e+00	0	42	0	0	54	4629
2026-01-17 23:53:51.35	10.34	40.13	-41.7	-43.7	17.7	0.00e+00	0	42	0	0	54	4657
2026-01-17 23:53:54.54	10.11	40.97	-41.8	-43.8	17.6	0.00e+00	0	42	0	0	54	4745
2026-01-17 23:53:57.38	9.91	41.73	-42.1	-44.2	17.4	0.00e+00	0	42	0	0	54	4941
2026-01-17 23:54:00.51	9.66	42.59	-42.0	-44.1	17.5	0.00e+00	0	42	0	0	54	4882
2026-01-17 23:54:03.35	9.43	43.38	-41.7	-43.7	17.7	0.00e+00	0	42	0	0	54	4681
2026-01-17 23:54:06.59	9.15	44.31	-42.1	-44.1	17.2	0.00e+00	0	42	0	0	54	4910
2026-01-17 23:54:09.43	8.89	45.14	-43.0	-45.2	16.6	0.00e+00	0	42	0	0	56	4958
2026-01-17 23:54:12.56	8.59	46.08	-43.0	-45.2	16.7	0.00e+00	0	42	0	0	57	4660
2026-01-17 23:54:15.41	8.29	46.95	-42.6	-44.6	17.2	0.00e+00	0	42	0	0	57	4375
2026-01-17 23:54:18.53	7.95	47.92	-41.8	-43.8	17.8	0.00e+00	0	42	0	0	55	4475
2026-01-17 23:54:21.38	7.62	48.83	-41.7	-43.6	18.0	0.00e+00	0	42	0	0	55	4363
2026-01-17 23:54:24.51	7.23	49.85	-41.9	-43.9	17.8	0.00e+00	0	42	0	0	55	4515
2026-01-17 23:54:27.35	6.85	50.79	-42.1	-44.2	17.4	0.00e+00	0	42	0	0	55	4674
2026-01-17 23:54:30.48	6.41	51.85	-41.5	-43.4	18.1	0.00e+00	0	42	0	0	54	4531
2026-01-17 23:54:33.32	5.97	52.83	-41.3	-43.2	18.3	0.00e+00	0	42	0	0	54	4412
2026-01-17 23:54:36.45	5.46	53.93	-41.1	-43.0	18.3	0.00e+00	0	42	0	0	54	4318
2026-01-17 23:54:39.30	4.96	54.95	-40.7	-42.5	18.8	0.00e+00	0	42	0	0	53	4339
2026-01-17 23:54:42.43	4.36	56.10	-40.3	-42.1	19.1	0.00e+00	0	42	0	0	52	4341
2026-01-17 23:54:45.29	3.77	57.16	-40.0	-41.8	19.7	0.00e+00	0	42	0	0	52	4204
2026-01-17 23:54:48.56	3.03	58.39	-39.4	-41.1	20.4	0.00e+00	0	42	0	0	50	4349
2026-01-17 23:54:51.27	2.36	59.43	-39.6	-41.2	20.2	0.00e+00	0	42	0	0	50	4441
2026-01-17 23:54:54.54	1.48	60.71	-39.6	-41.3	20.1	0.00e+00	0	42	0	0	50	4467
2026-01-17 23:54:57.24	0.68	61.77	-39.1	-40.7	20.5	0.00e+00	0	42	0	0	50	4153
2026-01-17 23:55:00.63	359.57	63.13	-38.7	-40.3	20.9	0.00e+00	0	42	0	0	49	4225
2026-01-17 23:55:03.34	358.59	64.22	-38.8	-40.4	20.9	0.00e+00	0	42	0	0	49	4271
2026-01-17 23:55:06.73	357.22	65.60	-38.7	-40.3	21.0	0.00e+00	0	42	0	0	49	4235
2026-01-17 23:55:09.46	355.98	66.72	-38.2	-39.8	21.3	0.00e+00	0	42	0	0	48	4217
2026-01-17 23:55:12.73	354.31	68.07	-38.2	-39.8	21.3	0.00e+00	0	42	0	0	48	4220
2026-01-17 23:55:15.49	352.72	69.21	-38.7	-40.3	21.0	0.00e+00	0	42	0	0	48	4457
2026-01-17 23:55:19.08	350.34	70.68	-38.7	-40.3	20.7	0.00e+00	0	43	0	0	48	4452
2026-01-17 23:55:21.80	348.27	71.79	-37.8	-39.4	21.3	0.00e+00	0	42	0	0	47	4244
2026-01-17 23:55:25.09	345.37	73.11	-38.2	-39.8	20.9	0.00e+00	0	42	0	0	47	4442
2026-01-17 23:55:27.90	342.49	74.21	-38.4	-40.0	20.8	0.00e+00	0	42	0	0	47	4577
2026-01-17 23:55:31.02	338.78	75.40	-38.2	-39.8	21.2	0.00e+00	0	42	0	0	47	4450
2026-01-17 23:55:33.86	334.82	76.42	-38.4	-40.0	21.1	0.00e+00	0	42	0	0	47	4586
2026-01-17 23:55:37.02	329.65	77.48	-38.9	-40.5	20.9	0.00e+00	0	42	0	0	49	4303
2026-01-17 23:55:39.98	323.97	78.37	-39.0	-40.6	20.5	0.00e+00	0	42	0	0	49	4389
2026-01-17 23:55:43.11	316.98	79.18	-38.5	-40.1	21.0	0.00e+00	0	42	0	0	49	4115
2026-01-17 23:55:45.95	309.77	79.76	-38.7	-40.3	21.0	0.00e+00	0	42	0	0	48	4461
2026-01-17 23:55:49.12	300.85	80.19	-38.9	-40.6	20.4	0.00e+00	0	42	0	0	48	4602
2026-01-17 23:55:52.36	291.13	80.38	-39.1	-40.7	20.4	0.00e+00	0	42	0	0	48	4688
2026-01-17 23:55:55.20	282.52	80.31	-39.3	-40.9	20.5	0.00e+00	0	42	0	0	50	4279
2026-01-17 23:55:58.32	273.42	79.99	-39.5	-41.2	20.3	0.00e+00	0	42	0	0	49	4700
2026-01-17 23:56:01.17	265.77	79.50	-38.3	-39.8	21.4	0.00e+00	0	42	0	0	48	4242
2026-01-17 23:56:04.30	258.29	78.78	-38.6	-40.2	21.2	0.00e+00	0	42	0	0	48	4400
2026-01-17 23:56:07.14	252.39	77.98	-39.3	-41.0	20.5	0.00e+00	0	42	0	0	49	4565
2026-01-17 23:56:10.38	246.63	76.94	-38.8	-40.4	20.9	0.00e+00	0	42	0	0	49	4279
2026-01-17 23:56:13.29	242.23	75.93	-38.0	-39.6	20.9	0.00e+00	0	42	0	0	47	4383
2026-01-17 23:56:16.56	238.03	74.71	-38.6	-40.3	20.9	0.00e+00	0	42	0	0	47	4724
2026-01-17 23:56:19.26	235.07	73.67	-38.9	-40.5	20.6	0.00e+00	0	42	0	0	49	4323
2026-01-17 23:56:22.53	231.98	72.37	-38.6	-40.1	21.2	0.00e+00	0	42	0	0	48	4378
2026-01-17 23:56:25.26	229.75	71.26	-38.4	-39.9	21.2	0.00e+00	0	42	0	0	48	4287
2026-01-17 23:56:28.64	227.35	69.87	-37.6	-39.1	21.5	0.00e+00	0	42	0	0	46	4386
2026-01-17 23:56:31.70	225.47	68.61	-39.3	-41.0	20.0	0.00e+00	0	42	0	0	49	4552
2026-01-17 23:56:34.83	223.78	67.31	-39.0	-40.6	20.8	0.00e+00	0	42	0	0	49	4344
2026-01-17 23:56:37.67	222.41	66.14	-40.1	-41.8	19.8	0.00e+00	0	42	0	0	50	4736
2026-01-17 23:56:40.92	221.03	64.81	-39.0	-40.6	20.7	0.00e+00	0	42	0	0	50	4139
2026-01-17 23:56:43.71	219.96	63.67	-38.6	-40.2	21.2	0.00e+00	0	42	0	0	48	4400
2026-01-17 23:56:47.01	218.82	62.34	-40.2	-42.0	19.4	0.00e+00	0	42	0	0	51	4597
2026-01-17 23:56:49.98	217.90	61.16	-38.7	-40.2	21.1	0.00e+00	0	42	0	0	49	4193
2026-01-17 23:56:53.28	216.98	59.87	-40.3	-42.1	19.4	0.00e+00	0	42	0	0	51	4603
2026-01-17 23:56:55.98	216.29	58.82	-40.9	-42.8	17.6	0.00e+00	0	42	0	0	52	4741
2026-01-17 23:56:59.28	215.52	57.56	-39.2	-40.8	20.5	0.00e+00	0	42	0	0	50	4221
2026-01-17 23:57:01.99	214.93	56.54	-41.6	-43.6	18.1	0.00e+00	0	42	0	0	53	4891
2026-01-17 23:57:05.28	214.28	55.33	-40.9	-42.8	18.6	0.00e+00	0	42	0	0	53	4449
2026-01-17 23:57:08.00	213.78	54.34	-40.0	-41.7	19.8	0.00e+00	0	42	0	0	51	4396
2026-01-17 23:57:11.27	213.23	53.18	-41.5	-43.3	18.3	0.00e+00	0	42	0	0	53	4751
2026-01-17 23:57:13.97	212.80	52.24	-43.0	-45.2	16.6	0.00e+00	0	42	0	0	56	4958
2026-01-17 23:57:17.27	212.32	51.11	-40.8	-42.6	18.4	0.00e+00	0	43	0	0	53	4384
2026-01-17 23:57:20.02	211.94	50.18	-41.8	-43.8	17.8	0.00e+00	0	43	0	0	54	4715
2026-01-17 23:57:23.32	211.52	49.10	-41.9	-43.8	17.9	0.00e+00	0	42	0	0	54	4752
2026-01-17 23:57:26.19	211.18	48.18	-42.2	-44.2	17.5	0.00e+00	0	42	0	0	55	4695
2026-01-17 23:57:29.63	210.79	47.09	-42.2	-44.2	17.2	0.00e+00	0	42	0	0	55	4674
2026-01-17 23:57:32.35	210.51	46.25	-41.7	-43.6	18.0	0.00e+00	0	43	0	0	55	4349
2026-01-17 23:57:35.63	210.18	45.26	-41.8	-43.7	17.7	0.00e+00	0	42	0	0	54	4703
2026-01-17 23:57:38.72	209.90	44.35	-43.6	-45.9	15.8	0.00e+00	0	42	0	0	57	5095
2026-01-17 23:57:41.81	209.63	43.46	-44.0	-46.5	15.5	0.00e+00	0	42	0	0	58	5111
2026-01-17 23:57:44.82	209.38	42.61	-43.3	-45.6	16.2	0.00e+00	0	42	0	0	58	4651
2026-01-17 23:57:47.81	209.14	41.78	-41.7	-43.6	17.8	0.00e+00	0	42	0	0	55	4360
2026-01-17 23:57:50.79	208.92	40.98	-41.7	-43.6	18.0	0.00e+00	0	42	0	0	54	4607
2026-01-17 23:57:53.85	208.70	40.17	-43.3	-45.5	16.4	0.00e+00	0	42	0	0	57	4840
2026-01-17 23:57:56.73	208.51	39.42	-42.5	-44.6	17.2	0.00e+00	0	42	0	0	57	4387
2026-01-17 23:58:00.09	208.29	38.57	-42.4	-44.4	17.4	0.00e+00	0	43	0	0	56	4535
2026-01-17 23:58:02.81	208.13	37.89	-42.5	-44.6	17.2	0.00e+00	0	42	0	0	56	4635
2026-01-17 23:58:06.08	207.94	37.10	-42.4	-44.4	17.4	0.00e+00	0	42	0	0	56	4528
2026-01-17 23:58:09.00	207.78	36.41	-42.0	-44.0	17.8	0.00e+00	0	42	0	0	56	4324
2026-01-17 23:58:11.98	207.62	35.72	-41.7	-43.6	18.1	0.00e+00	0	42	0	0	55	4359
2026-01-17 23:58:14.96	207.47	35.04	-41.4	-43.3	18.3	0.00e+00	0	42	0	0	54	4482
2026-01-17 23:58:17.95	207.32	34.37	-41.9	-43.9	17.8	0.00e+00	0	42	0	0	54	4781
2026-01-17 23:58:20.93	207.18	33.72	-41.8	-43.7	17.9	0.00e+00	0	42	0	0	54	4701
2026-01-17 23:58:23.91	207.05	33.08	-41.2	-43.0	18.5	0.00e+00	0	43	0	0	54	4324
2026-01-17 23:58:26.89	206.92	32.46	-40.6	-42.4	18.9	0.00e+00	0	43	0	0	53	4273
2026-01-17 23:58:29.83	206.80	31.86	-40.2	-42.0	19.1	0.00e+00	0	42	0	0	52	4326
2026-01-17 23:58:32.96	206.68	31.23	-39.9	-41.6	19.7	0.00e+00	0	42	0	0	51	4366
2026-01-17 23:58:35.80	206.57	30.67	-39.8	-41.5	19.9	0.00e+00	0	42	0	0	51	4301
2026-01-17 23:58:38.93	206.46	30.06	-39.7	-41.4	20.0	0.00e+00	0	43	0	0	51	4254
2026-01-17 23:58:41.77	206.36	29.52	-39.7	-41.4	20.0	0.00e+00	0	42	0	0	51	4264
2026-01-17 23:58:45.00	206.25	28.92	-39.9	-41.6	19.8	0.00e+00	0	43	0	0	51	4349
2026-01-17 23:58:47.85	206.15	28.40	-39.7	-41.4	20.0	0.00e+00	0	42	0	0	51	4274
2026-01-17 23:58:50.97	206.06	27.85	-39.8	-41.5	19.8	0.00e+00	0	42	0	0	51	4311
2026-01-17 23:58:53.82	205.97	27.35	-39.8	-41.5	19.7	0.00e+00	0	42	0	0	51	4335
2026-01-17 23:58:57.02	205.88	26.80	-40.0	-41.7	19.5	0.00e+00	0	42	0	0	51	4440
2026-01-17 23:58:59.86	205.80	26.32	-40.0	-41.8	19.5	0.00e+00	0	42	0	0	51	4450
2026-01-17 23:59:02.99	205.71	25.80	-40.0	-41.7	19.6	0.00e+00	0	42	0	0	51	4423
2026-01-17 23:59:05.83	205.64	25.34	-39.8	-41.5	19.7	0.00e+00	0	42	0	0	51	4337
2026-01-17 23:59:08.96	205.56	24.84	-39.8	-41.5	19.7	0.00e+00	0	43	0	0	51	4330
2026-01-17 23:59:11.84	205.49	24.38	-39.8	-41.6	19.5	0.00e+00	0	42	0	0	51	4348
2026-01-17 23:59:14.96	205.41	23.90	-40.1	-41.9	19.2	0.00e+00	0	42	0	0	51	4506
2026-01-17 23:59:17.81	205.35	23.47	-39.8	-41.6	19.5	0.00e+00	0	42	0	0	51	4356
2026-01-17 23:59:20.93	205.28	23.01	-39.8	-41.6	19.6	0.00e+00	0	42	0	0	51	4356
2026-01-17 23:59:23.78	205.22	22.59	-39.7	-41.5	19.7	0.00e+00	0	42	0	0	51	4301
2026-01-17 23:59:26.90	205.15	22.14	-39.7	-41.5	19.8	0.00e+00	0	43	0	0	51	4293
2026-01-17 23:59:29.74	205.09	21.74	-39.6	-41.2	20.0	0.00e+00	0	43	0	0	51	4192
2026-01-17 23:59:33.28	205.02	21.25	-39.3	-41.0	20.2	0.00e+00	0	43	0	0	50	4307
2026-01-17 23:59:35.98	204.97	20.88	-39.3	-41.0	20.2	0.00e+00	0	43	0	0	50	4294
2026-01-17 23:59:39.25	204.91	20.44	-39.4	-41.0	20.1	0.00e+00	0	42	0	0	50	4331
2026-01-17 23:59:41.95	204.86	20.08	-39.5	-41.2	20.0	0.00e+00	0	43	0	0	50	4409
2026-01-17 23:59:45.23	204.81	19.65	-39.4	-41.1	20.1	0.00e+00	0	42	0	0	50	4367
2026-01-17 23:59:47.94	204.76	19.30	-39.5	-41.2	20.0	0.00e+00	0	42	0	0	50	4418
2026-01-17 23:59:51.27	204.71	18.88	-39.6	-41.4	19.8	0.00e+00	0	43	0	0	50	4505
2026-01-17 23:59:54.00	204.66	18.54	-39.8	-41.5	19.7	0.00e+00	0	42	0	0	50	4563
2026-01-17 23:59:57.29	204.61	18.14	-39.9	-41.6	19.6	0.00e+00	0	42	0	0	50	4649
2026-01-18 00:00:00.00	204.57	17.81	-39.9	-41.6	19.7	0.00e+00	0	42	0	0	50	4618
2026-01-18 00:00:03.31	204.52	17.41	-40.1	-41.9	19.3	0.00e+00	0	42	0	0	50	4784
2026-01-18 00:00:06.15	204.48	17.08	-40.3	-42.0	19.3	0.00e+00	0	42	0	0	51	4573
2026-01-18 00:00:09.47	204.44	16.70	-40.5	-42.2	19.0	0.00e+00	0	42	0	0	51	4704
2026-01-18 00:00:12.41	204.40	16.36	-40.5	-42.3	18.9	0.00e+00	0	43	0	0	51	4757
2026-01-18 00:00:15.69	204.35	15.99	-40.6	-42.5	18.7	0.00e+00	0	43	0	0	52	4562
2026-01-18 00:00:18.42	204.32	15.69	-40.7	-42.5	18.7	0.00e+00	0	42	0	0	52	4586
2026-01-18 00:00:21.73	204.28	15.33	-40.7	-42.6	18.6	0.00e+00	0	43	0	0	52	4623
2026-01-18 00:00:24.57	204.24	15.02	-40.7	-42.6	18.6	0.00e+00	0	42	0	0	52	4640
2026-01-18 00:00:27.70	204.21	14.69	-40.8	-42.7	18.5	0.00e+00	0	43	0	0	52	4678
2026-01-18 00:00:30.54	204.18	14.39	-40.8	-42.7	18.5	0.00e+00	0	42	0	0	52	4693
2026-01-18 00:00:33.67	204.14	14.06	-41.0	-42.9	18.3	0.00e+00	0	42	0	0	52	4785
2026-01-18 00:00:36.51	204.11	13.77	-40.9	-42.8	18.3	0.00e+00	0	42	0	0	52	4750
2026-01-18 00:00:39.63	204.08	13.46	-40.9	-42.8	18.4	0.00e+00	0	42	0	0	52	4720
2026-01-18 00:00:42.83	204.04	13.14	-40.8	-42.8	18.4	0.00e+00	0	43	0	0	52	4711
2026-01-18 00:00:45.84	204.01	12.84	-40.9	-42.8	18.3	0.00e+00	0	42	0	0	52	4736
2026-01-18 00:00:48.83	203.98	12.55	-40.8	-42.7	18.3	0.00e+00	0	42	0	0	52	4705
2026-01-18 00:00:51.81	203.96	12.26	-40.7	-42.6	18.5	0.00e+00	0	42	0	0	52	4633
2026-01-18 00:00:54.80	203.93	11.98	-40.9	-42.9	18.2	0.00e+00	0	43	0	0	52	4763
2026-01-18 00:00:57.78	203.90	11.70	-41.0	-42.9	18.2	0.00e+00	0	42	0	0	52	4812
2026-01-18 00:01:01.15	203.87	11.39	-41.0	-43.0	18.1	0.00e+00	0	43	0	0	52	4855
2026-01-18 00:01:03.88	203.85	11.13	-41.1	-43.0	18.0	0.00e+00	0	42	0	0	52	4866
2026-01-18 00:01:07.15	203.82	10.84	-41.0	-43.0	18.1	0.00e+00	0	42	0	0	52	4856
2026-01-18 00:01:09.86	203.80	10.59	-41.0	-43.0	18.1	0.00e+00	0	43	0	0	52	4845
2026-01-18 00:01:13.17	203.77	10.30	-41.2	-43.3	17.8	0.00e+00	0	42	0	0	53	4715
2026-01-18 00:01:16.22	203.75	10.03	-41.2	-43.3	17.8	0.00e+00	0	43	0	0	53	4708
2026-01-18 00:01:19.85	203.72	9.72	-41.3	-43.4	17.7	0.00e+00	0	42	0	0	53	4790
2026-01-18 00:01:22.70	203.70	9.47	-41.4	-43.5	17.6	0.00e+00	0	42	0	0	53	4843
2026-01-18 00:01:26.68	203.67	9.13	-41.4	-43.4	17.6	0.00e+00	0	43	0	0	53	4810
2026-01-18 00:01:29.58	203.65	8.89	-49.3	-62.4	3.8	1.49e+00	0	43	104	0	69	16936
2026-01-18 00:01:33.56	203.62	8.56	-50.2	-63.3	3.8	1.49e+00	0	42	104	0	71	16799
2026-01-18 00:01:36.46	203.60	8.32	-50.3	-63.4	3.8	1.49e+00	0	43	104	0	71	17075
2026-01-18 00:01:40.28	203.58	8.01	-50.5	-63.5	3.8	1.49e+00	0	43	104	0	71	17114
2026-01-18 00:01:43.11	203.56	7.78	-50.5	-63.5	3.8	1.49e+00	0	43	104	0	71	17199
2026-01-18 00:01:46.42	203.54	7.52	-50.4	-63.5	3.8	1.49e+00	0	43	104	0	71	17166
2026-01-18 00:01:49.39	203.52	7.29	-50.3	-63.5	3.8	1.49e+00	0	43	104	0	71	17142
2026-01-18 00:01:52.70	203.50	7.03	-50.1	-63.4	3.8	1.49e+00	0	43	104	0	71	16944
2026-01-18 00:01:55.40	203.49	6.82	-50.1	-63.4	3.8	1.49e+00	0	43	104	0	71	16951
2026-01-18 00:01:58.66	203.47	6.57	-50.1	-63.4	3.8	1.49e+00	0	43	104	0	71	16928
2026-01-18 00:02:01.36	203.46	6.37	-50.1	-63.4	3.8	1.49e+00	0	43	104	0	71	16896
2026-01-18 00:02:04.62	203.44	6.12	-50.1	-63.4	3.8	1.49e+00	0	43	104	0	71	16911
2026-01-18 00:02:07.33	203.42	5.92	-50.1	-63.4	3.8	1.49e+00	0	43	104	0	71	16944
2026-01-18 00:02:10.60	203.41	5.68	-50.0	-63.3	3.8	1.49e+00	0	43	104	0	71	16881
2026-01-18 00:02:13.29	203.39	5.48	-50.0	-63.3	3.8	1.49e+00	0	43	104	0	71	16874
2026-01-18 00:02:16.56	203.38	5.24	-50.0	-63.3	3.8	1.49e+00	0	43	104	0	71	16887
2026-01-18 00:02:19.25	203.36	5.05	-50.0	-63.3	3.8	1.49e+00	0	43	104	0	71	16839

#Closed at: 2026-01-18 00:02:21
#Recorded file [0 MB]: D:/Data/31040_260118_024922.dat