passes_logs/2026/01/17/T1/T1__20260117_145159_FENGYUN_3E_rec.log

#Pass ID: 20260117_145159_FENGYUN 3E
#Satellite: FENGYUN 3E
#Configuration: FENGYUN 3E
#almurnet v.1.7.20251203
#Start time: 2026-01-17 14:52:00

#Version: 2.0.20230620
#Station: T1
#Location: 37.570604 lon 55.790049 lat
#TLE: 1 49008U 21062A   26016.55599566  .00000255  00000+0  14071-3 0  9994
#TLE: 2 49008  98.7485  21.6664 0002094 134.5344 225.6004 14.19886148235063

#Time	Az	El	Level	Level2	SNR	BER	BlckErr	Temp	State	Recorded	gain1	gain2
2026-01-17 14:52:00.28	181.11	5.04	-48.5	-59.7	3.8	8.46e-01	0	41	0	0	67	13050
2026-01-17 14:52:04.24	181.26	5.31	-47.9	-59.2	3.8	8.46e-01	0	41	104	0	65	13812
2026-01-17 14:52:08.22	181.42	5.59	-47.9	-59.1	3.8	8.48e-01	0	42	104	0	65	13680
2026-01-17 14:52:12.19	181.57	5.88	-47.9	-59.4	3.8	8.48e-01	0	42	104	0	65	14113
2026-01-17 14:52:16.16	181.74	6.16	-47.9	-59.2	3.8	8.48e-01	0	42	104	0	65	13843
2026-01-17 14:52:20.13	181.90	6.45	-47.9	-59.4	3.8	8.46e-01	0	42	104	0	65	14138
2026-01-17 14:52:24.10	182.07	6.75	-47.7	-57.6	3.8	8.46e-01	0	42	104	0	65	11512
2026-01-17 14:52:28.07	182.24	7.04	-47.5	-56.2	4.1	8.40e-01	0	42	0	0	65	9757
2026-01-17 14:52:32.05	182.41	7.34	-47.7	-57.9	3.8	8.47e-01	0	42	104	0	65	11825
2026-01-17 14:52:36.02	182.59	7.65	-43.4	-46.0	12.2	3.10e-04	0	42	0	17825792	57	4791
2026-01-17 14:52:39.99	182.77	7.95	-38.6	-40.4	17.4	0.00e+00	0	42	0	46137344	48	4239
2026-01-17 14:52:43.96	182.95	8.26	-37.7	-39.2	18.5	0.00e+00	0	43	0	74448896	46	4104
2026-01-17 14:52:47.94	183.14	8.57	-39.7	-41.4	16.7	0.00e+00	0	43	0	103809024	48	4728
2026-01-17 14:52:51.91	183.33	8.89	-43.7	-46.4	11.8	4.60e-04	0	43	0	132120576	56	5332
2026-01-17 14:52:55.89	183.52	9.21	-46.6	-52.0	6.3	5.70e-02	0	43	0	161480704	62	7153
2026-01-17 14:52:59.87	183.72	9.54	-43.4	-45.9	12.3	4.53e-03	0	43	0	183500800	57	4752
2026-01-17 14:53:03.88	183.93	9.87	-40.7	-42.6	15.6	0.00e+00	0	43	0	212860928	51	4559
2026-01-17 14:53:07.83	184.14	10.20	-40.1	-41.9	16.3	0.00e+00	0	43	0	241172480	50	4458
2026-01-17 14:53:11.81	184.35	10.54	-37.5	-39.0	18.7	0.00e+00	0	43	0	269484032	45	4286
2026-01-17 14:53:15.79	184.57	10.88	-37.0	-38.4	19.2	0.00e+00	0	43	0	298844160	44	4223
2026-01-17 14:53:19.85	184.79	11.23	-36.3	-37.8	19.7	0.00e+00	0	43	0	328204288	43	4154
2026-01-17 14:53:23.92	185.03	11.59	-36.6	-38.1	19.4	0.00e+00	0	43	0	357564416	43	4299
2026-01-17 14:53:27.90	185.26	11.95	-36.2	-37.6	19.8	0.00e+00	0	43	0	385875968	43	4071
2026-01-17 14:53:31.88	185.50	12.31	-36.0	-37.4	20.0	0.00e+00	0	43	0	414187520	42	4225
2026-01-17 14:53:35.85	185.74	12.68	-36.0	-37.4	20.0	0.00e+00	0	43	0	443547648	42	4199
2026-01-17 14:53:39.85	185.99	13.05	-35.8	-37.2	20.2	0.00e+00	0	43	0	471859200	42	4120
2026-01-17 14:53:43.91	186.25	13.43	-35.6	-37.0	20.4	0.00e+00	0	43	0	501219328	41	4269
2026-01-17 14:53:47.94	186.52	13.82	-35.6	-36.9	20.4	0.00e+00	0	43	0	530579456	41	4226
2026-01-17 14:53:51.92	186.79	14.21	-35.5	-36.9	20.5	0.00e+00	0	43	0	558891008	41	4199
2026-01-17 14:53:55.90	187.07	14.60	-35.6	-37.0	20.4	0.00e+00	0	43	0	588251136	41	4264
2026-01-17 14:53:59.88	187.35	15.00	-35.4	-36.9	20.5	0.00e+00	0	43	0	616562688	41	4201
2026-01-17 14:54:03.86	187.64	15.41	-35.3	-36.7	20.7	0.00e+00	0	44	0	645922816	41	4120
2026-01-17 14:54:07.84	187.94	15.82	-35.2	-36.6	20.8	0.00e+00	0	43	0	674234368	40	4323
2026-01-17 14:54:11.82	188.24	16.24	-35.4	-36.9	20.6	0.00e+00	0	44	0	702545920	40	4451
2026-01-17 14:54:15.80	188.56	16.66	-35.2	-36.6	20.8	0.00e+00	0	44	0	731906048	40	4330
2026-01-17 14:54:19.87	188.89	17.10	-35.0	-36.4	21.0	0.00e+00	0	44	0	761266176	40	4210
2026-01-17 14:54:23.85	189.22	17.54	-34.8	-36.2	21.2	0.00e+00	0	44	0	789577728	40	4104
2026-01-17 14:54:27.83	189.56	17.98	-34.6	-35.9	21.6	0.00e+00	0	44	0	818937856	39	4199
2026-01-17 14:54:31.81	189.92	18.44	-34.3	-35.6	21.7	0.00e+00	0	44	0	847249408	39	4080
2026-01-17 14:54:35.79	190.28	18.90	-34.3	-35.5	21.8	0.00e+00	0	43	0	876609536	39	4043
2026-01-17 14:54:39.77	190.65	19.36	-34.2	-35.5	21.9	0.00e+00	0	44	0	904921088	39	4030
2026-01-17 14:54:43.75	191.04	19.84	-34.3	-35.6	21.8	0.00e+00	0	44	0	933232640	38	4303
2026-01-17 14:54:47.81	191.44	20.33	-34.4	-35.7	21.6	0.00e+00	0	44	0	962592768	38	4389
2026-01-17 14:54:51.79	191.85	20.82	-34.2	-35.5	21.8	0.00e+00	0	44	0	991952896	39	4039
2026-01-17 14:54:55.86	192.28	21.34	-34.2	-35.4	21.8	0.00e+00	0	44	0	1021313024	38	4233
2026-01-17 14:54:59.84	192.71	21.84	-33.8	-35.1	22.0	0.00e+00	0	44	0	1049624576	38	4086
2026-01-17 14:55:03.92	193.17	22.37	-33.6	-34.9	22.3	0.00e+00	0	44	0	1078984704	38	3965
2026-01-17 14:55:07.91	193.64	22.90	-33.7	-35.0	22.1	0.00e+00	0	44	0	1108344832	38	4036
2026-01-17 14:55:11.88	194.12	23.44	-33.8	-35.1	22.1	0.00e+00	0	44	0	1136656384	38	4067
2026-01-17 14:55:15.87	194.62	23.98	-33.9	-35.2	21.9	0.00e+00	0	44	0	1164967936	38	4140
2026-01-17 14:55:19.87	195.13	24.54	-33.8	-35.1	22.1	0.00e+00	0	44	0	1194328064	37	4309
2026-01-17 14:55:23.85	195.66	25.10	-33.6	-34.9	22.3	0.00e+00	0	44	0	1222639616	37	4214
2026-01-17 14:55:27.82	196.21	25.67	-33.6	-34.8	22.4	0.00e+00	0	44	0	1251999744	37	4191
2026-01-17 14:55:31.80	196.78	26.26	-33.6	-34.9	22.3	0.00e+00	0	44	0	1280311296	37	4200
2026-01-17 14:55:35.88	197.39	26.86	-33.5	-34.8	22.3	0.00e+00	0	44	0	1309671424	37	4158
2026-01-17 14:55:39.86	198.00	27.47	-33.4	-34.7	22.3	0.00e+00	0	44	0	1337982976	37	4131
2026-01-17 14:55:43.84	198.64	28.08	-33.2	-34.5	22.4	0.00e+00	0	44	0	1367343104	37	4028
2026-01-17 14:55:47.82	199.30	28.70	-33.1	-34.4	22.4	0.00e+00	0	44	0	1395654656	36	4226
2026-01-17 14:55:51.80	199.99	29.34	-33.2	-34.5	22.4	0.00e+00	0	44	0	1425014784	36	4246
2026-01-17 14:55:55.78	200.70	29.98	-33.1	-34.4	22.6	0.00e+00	0	44	0	1453326336	36	4200
2026-01-17 14:55:59.76	201.45	30.63	-33.3	-34.6	22.5	0.00e+00	0	44	0	1481637888	36	4299
2026-01-17 14:56:03.73	202.22	31.29	-33.4	-34.7	22.4	0.00e+00	0	44	0	1510998016	36	4358
2026-01-17 14:56:07.84	203.05	31.98	-33.4	-34.6	22.5	0.00e+00	0	44	0	1540358144	37	4093
2026-01-17 14:56:11.83	203.89	32.67	-33.4	-34.7	22.5	0.00e+00	0	44	0	1568669696	37	4106
2026-01-17 14:56:15.81	204.76	33.36	-33.1	-34.4	22.7	0.00e+00	0	44	0	1598029824	36	4199
2026-01-17 14:56:19.79	205.68	34.05	-33.1	-34.3	22.7	0.00e+00	0	44	0	1626341376	36	4179
2026-01-17 14:56:23.83	206.64	34.77	-33.2	-34.4	22.6	0.00e+00	0	44	0	1655701504	36	4240
2026-01-17 14:56:27.81	207.64	35.48	-33.4	-34.7	22.2	0.00e+00	0	44	0	1685061632	36	4343
2026-01-17 14:56:31.80	208.68	36.20	-33.4	-34.7	22.2	0.00e+00	0	44	0	1713373184	36	4362
2026-01-17 14:56:35.87	209.78	36.94	-33.5	-34.8	22.2	0.00e+00	0	44	0	1742733312	36	4417
2026-01-17 14:56:39.85	210.92	37.67	-33.2	-34.4	22.9	0.00e+00	0	44	0	1772093440	36	4197
2026-01-17 14:56:43.89	212.12	38.42	-33.2	-34.5	22.8	0.00e+00	0	44	0	1800404992	36	4249
2026-01-17 14:56:48.31	213.50	39.23	-33.4	-34.7	22.5	0.00e+00	0	44	0	1832910848	36	4385
2026-01-17 14:56:52.29	214.80	39.96	-33.7	-35.1	22.1	0.00e+00	0	44	0	1861222400	36	4566
2026-01-17 14:56:56.49	216.24	40.74	-33.7	-35.0	22.2	0.00e+00	0	44	0	1891631104	37	4259
2026-01-17 14:57:00.47	217.66	41.46	-33.5	-34.7	22.4	0.00e+00	0	44	0	1919942656	37	4131
2026-01-17 14:57:04.45	219.15	42.19	-34.0	-35.3	21.9	0.00e+00	0	44	0	1949302784	37	4435
2026-01-17 14:57:08.45	220.72	42.90	-33.9	-35.1	22.3	0.00e+00	0	44	0	1977614336	37	4340
2026-01-17 14:57:12.55	222.39	43.63	-33.6	-34.8	22.5	0.00e+00	0	44	0	2008023040	37	4190
2026-01-17 14:57:16.53	224.09	44.32	-33.8	-35.1	22.3	0.00e+00	0	44	0	2036334592	37	4296
2026-01-17 14:57:20.53	225.88	44.99	-33.9	-34.8	23.3	0.00e+00	0	44	0	2064646144	37	4149
2026-01-17 14:57:24.51	227.73	45.64	-34.3	-35.1	23.1	0.00e+00	0	44	0	2094006272	38	4080
2026-01-17 14:57:28.49	229.65	46.27	-34.0	-34.9	23.3	0.00e+00	0	44	0	2122317824	38	3973
2026-01-17 14:57:32.47	231.65	46.87	-34.8	-35.6	22.6	0.00e+00	0	44	0	2151677952	39	4089
2026-01-17 14:57:36.74	233.88	47.49	-34.6	-35.4	22.8	0.00e+00	0	44	0	2182086656	39	4003
2026-01-17 14:57:40.73	236.04	48.02	-34.7	-35.5	22.7	0.00e+00	0	44	0	2211446784	39	4049
2026-01-17 14:57:44.73	238.28	48.52	-34.6	-35.4	22.8	0.00e+00	0	44	0	2239758336	39	3993
2026-01-17 14:57:48.75	240.60	48.98	-35.0	-35.8	22.4	0.00e+00	0	44	0	2269118464	40	3954
2026-01-17 14:57:52.76	242.98	49.39	-35.1	-36.0	22.3	0.00e+00	0	44	0	2297430016	39	4256
2026-01-17 14:57:56.75	245.41	49.75	-35.1	-36.0	22.3	0.00e+00	0	44	0	2326790144	40	4013
2026-01-17 14:58:00.73	247.88	50.05	-34.8	-35.6	22.6	0.00e+00	0	44	0	2355101696	40	3846
2026-01-17 14:58:04.71	250.40	50.30	-35.0	-35.8	22.4	0.00e+00	0	44	0	2384461824	40	3958
2026-01-17 14:58:08.89	253.09	50.51	-35.1	-36.0	22.2	0.00e+00	0	44	0	2414870528	40	4015
2026-01-17 14:58:13.13	255.84	50.64	-34.5	-35.3	22.9	0.00e+00	0	44	0	2445279232	39	3920
2026-01-17 14:58:17.24	258.53	50.71	-34.7	-35.5	22.8	0.00e+00	0	44	0	2474639360	39	4021
2026-01-17 14:58:21.22	261.14	50.71	-34.9	-35.8	22.4	0.00e+00	0	44	0	2502950912	40	3934
2026-01-17 14:58:25.22	263.76	50.65	-35.0	-35.9	22.3	0.00e+00	0	44	0	2532311040	40	3965
2026-01-17 14:58:29.23	266.37	50.53	-34.8	-35.7	22.5	0.00e+00	0	44	0	2560622592	40	3878
2026-01-17 14:58:33.22	268.93	50.36	-34.8	-35.6	22.5	0.00e+00	0	44	0	2589982720	40	3858
2026-01-17 14:58:37.22	271.47	50.12	-34.8	-35.7	22.5	0.00e+00	0	44	0	2618294272	39	4118
2026-01-17 14:58:41.21	273.96	49.82	-35.0	-35.8	22.4	0.00e+00	0	44	0	2647654400	39	4191
2026-01-17 14:58:45.24	276.42	49.47	-34.8	-35.7	22.6	0.00e+00	0	44	0	2677014528	39	4100
2026-01-17 14:58:49.23	278.80	49.08	-34.8	-35.6	22.6	0.00e+00	0	44	0	2705326080	39	4088
2026-01-17 14:58:53.56	281.31	48.59	-35.1	-36.0	22.3	0.00e+00	0	44	0	2736783360	39	4268
2026-01-17 14:58:57.56	283.56	48.10	-34.7	-35.6	22.7	0.00e+00	0	44	0	2765094912	39	4057
2026-01-17 14:59:01.57	285.74	47.57	-34.6	-35.4	22.8	0.00e+00	0	44	0	2794455040	39	3992
2026-01-17 14:59:05.64	287.87	47.00	-34.7	-35.6	22.7	0.00e+00	0	44	0	2823815168	39	4054
2026-01-17 14:59:09.95	290.05	46.35	-34.1	-34.9	23.3	0.00e+00	0	44	0	2855272448	39	3758
2026-01-17 14:59:13.96	291.99	45.72	-34.4	-35.2	23.0	0.00e+00	0	44	0	2883584000	38	4144
2026-01-17 14:59:18.03	293.88	45.06	-34.4	-35.3	22.9	0.00e+00	0	44	0	2913992704	38	4162
2026-01-17 14:59:22.14	295.72	44.37	-34.3	-35.1	23.1	0.00e+00	0	44	0	2943352832	38	4074
2026-01-17 14:59:26.24	297.47	43.67	-34.4	-35.3	23.0	0.00e+00	0	44	0	2972712960	38	4151
2026-01-17 14:59:30.25	299.11	42.96	-34.2	-35.1	23.1	0.00e+00	0	44	0	3002073088	38	4052
2026-01-17 14:59:34.26	300.67	42.25	-34.0	-34.8	23.3	0.00e+00	0	44	0	3030384640	38	3935
2026-01-17 14:59:38.27	302.18	41.52	-33.7	-34.5	23.6	0.00e+00	0	44	0	3059744768	37	4012
2026-01-17 14:59:42.25	303.60	40.80	-34.3	-35.1	22.3	0.00e+00	0	44	0	3088056320	38	4073
2026-01-17 14:59:46.26	304.97	40.06	-33.9	-34.7	23.4	0.00e+00	0	44	0	3117416448	38	3893
2026-01-17 14:59:50.26	306.28	39.33	-34.0	-34.8	23.3	0.00e+00	0	44	0	3145728000	38	3941
2026-01-17 14:59:54.28	307.54	38.59	-34.3	-35.2	22.9	0.00e+00	0	44	0	3175088128	38	4115
2026-01-17 14:59:58.27	308.74	37.86	-33.7	-34.5	23.6	0.00e+00	0	44	0	3203399680	38	3788
2026-01-17 15:00:02.29	309.89	37.13	-33.6	-34.4	23.6	0.00e+00	0	44	0	3232759808	37	3975
2026-01-17 15:00:06.28	310.98	36.41	-33.7	-34.6	23.4	0.00e+00	0	44	0	3262119936	37	4062
2026-01-17 15:00:10.26	312.03	35.69	-34.0	-34.9	23.2	0.00e+00	0	44	0	3290431488	37	4202
2026-01-17 15:00:14.25	313.03	34.98	-33.9	-34.8	23.3	0.00e+00	0	44	0	3319791616	37	4147
2026-01-17 15:00:18.27	314.00	34.27	-33.3	-34.0	23.9	0.00e+00	0	44	0	3348103168	37	3821
2026-01-17 15:00:22.25	314.92	33.57	-33.2	-34.0	23.9	0.00e+00	0	44	0	3377463296	36	4047
2026-01-17 15:00:26.29	315.81	32.88	-33.8	-34.6	23.4	0.00e+00	0	44	0	3405774848	37	4092
2026-01-17 15:00:30.34	316.67	32.18	-33.9	-34.8	23.3	0.00e+00	0	44	0	3435134976	37	4160
2026-01-17 15:00:34.41	317.50	31.50	-34.1	-35.0	23.1	0.00e+00	0	44	0	3464495104	37	4251
2026-01-17 15:00:38.40	318.28	30.84	-33.8	-34.6	23.4	0.00e+00	0	44	0	3493855232	37	4092
2026-01-17 15:00:42.60	319.07	30.15	-33.6	-34.4	23.5	0.00e+00	0	44	0	3524263936	37	4001
2026-01-17 15:00:47.16	319.89	29.42	-33.9	-34.7	23.3	0.00e+00	0	44	0	3556769792	37	4121
2026-01-17 15:00:51.14	320.58	28.79	-34.0	-34.8	23.2	0.00e+00	0	44	0	3586129920	37	4189
2026-01-17 15:00:55.24	321.26	28.15	-34.1	-34.9	23.1	0.00e+00	0	44	0	3615490048	37	4229
2026-01-17 15:00:59.25	321.90	27.54	-34.1	-34.9	23.1	0.00e+00	0	44	0	3643801600	37	4231
2026-01-17 15:01:03.34	322.53	26.92	-33.9	-34.8	23.2	0.00e+00	0	44	0	3674210304	37	4148
2026-01-17 15:01:07.40	323.13	26.32	-34.0	-34.9	23.1	0.00e+00	0	44	0	3702521856	37	4210
2026-01-17 15:01:11.41	323.71	25.74	-34.3	-35.1	23.0	0.00e+00	0	44	0	3731881984	38	4079
2026-01-17 15:01:15.49	324.27	25.15	-34.4	-35.3	22.7	0.00e+00	0	44	0	3761242112	38	4154
2026-01-17 15:01:19.84	324.85	24.54	-34.3	-35.1	22.9	0.00e+00	0	44	0	3792699392	38	4094
2026-01-17 15:01:24.23	325.41	23.94	-34.1	-35.0	23.0	0.00e+00	0	44	0	3824156672	38	4026
2026-01-17 15:01:28.23	325.91	23.40	-34.1	-34.9	22.9	0.00e+00	0	44	0	3853516800	38	3990
2026-01-17 15:01:32.24	326.39	22.86	-34.1	-35.0	23.0	0.00e+00	0	44	0	3881828352	38	4029
2026-01-17 15:01:36.34	326.86	22.33	-34.2	-35.0	23.0	0.00e+00	0	44	0	3912237056	38	4043
2026-01-17 15:01:40.64	327.34	21.77	-34.4	-35.3	22.8	0.00e+00	0	44	0	3942645760	38	4152
2026-01-17 15:01:44.82	327.80	21.25	-34.6	-35.4	22.6	0.00e+00	0	44	0	3973054464	38	4236
2026-01-17 15:01:48.83	328.22	20.75	-34.7	-35.5	22.5	0.00e+00	0	44	0	4002414592	38	4288
2026-01-17 15:01:52.81	328.62	20.26	-34.7	-35.6	22.5	0.00e+00	0	44	0	4030726144	38	4304
2026-01-17 15:01:57.26	329.06	19.73	-34.7	-35.6	22.4	0.00e+00	0	44	0	4063232000	39	4079
2026-01-17 15:02:01.26	329.44	19.26	-34.8	-35.7	22.3	0.00e+00	0	44	0	4091543552	39	4119
2026-01-17 15:02:05.24	329.81	18.80	-34.8	-35.7	22.3	0.00e+00	0	44	0	4120903680	39	4104
2026-01-17 15:02:09.20	330.17	18.35	-34.9	-35.7	22.3	0.00e+00	0	44	0	4149215232	39	4136
2026-01-17 15:02:13.20	330.52	17.90	-35.0	-35.9	22.2	0.00e+00	0	44	0	4177526784	39	4200
2026-01-17 15:02:17.18	330.86	17.46	-35.1	-36.0	22.0	0.00e+00	0	44	0	4206886912	39	4255
2026-01-17 15:02:21.15	331.19	17.03	-35.3	-36.2	21.1	0.00e+00	0	44	0	4235198464	39	4350
2026-01-17 15:02:25.25	331.52	16.59	-35.2	-36.1	21.8	0.00e+00	0	44	0	4264558592	40	4095
2026-01-17 15:02:29.23	331.83	16.17	-35.2	-36.1	21.8	0.00e+00	0	44	0	4293918720	40	4074
2026-01-17 15:02:33.42	332.15	15.73	-35.5	-36.4	21.5	0.00e+00	0	44	0	4323278848	40	4219
2026-01-17 15:02:37.49	332.46	15.32	-35.6	-36.6	21.4	0.00e+00	0	44	0	4353687552	40	4296
2026-01-17 15:02:41.53	332.75	14.91	-35.7	-36.7	21.3	0.00e+00	0	44	0	4383047680	41	4118
2026-01-17 15:02:45.83	333.05	14.49	-35.7	-36.7	21.2	0.00e+00	0	44	0	4413456384	41	4114
2026-01-17 15:02:49.84	333.33	14.10	-36.0	-37.0	20.9	0.00e+00	0	44	0	4442816512	41	4254
2026-01-17 15:02:53.82	333.60	13.72	-35.9	-36.9	21.0	0.00e+00	0	44	0	4471128064	41	4207
2026-01-17 15:02:57.80	333.86	13.34	-36.0	-37.0	20.9	0.00e+00	0	44	0	4499439616	41	4244
2026-01-17 15:03:02.03	334.13	12.94	-36.2	-37.2	20.7	0.00e+00	0	44	0	4530896896	42	4127
2026-01-17 15:03:06.04	334.38	12.58	-36.4	-37.4	20.5	0.00e+00	0	44	0	4559208448	42	4231
2026-01-17 15:03:10.51	334.65	12.17	-36.7	-37.7	20.3	0.00e+00	0	44	0	4591714304	42	4345
2026-01-17 15:03:14.66	334.90	11.80	-36.8	-37.8	20.1	0.00e+00	0	44	0	4621074432	43	4162
2026-01-17 15:03:18.66	335.13	11.45	-36.8	-37.8	20.1	0.00e+00	0	44	0	4650434560	43	4157
2026-01-17 15:03:22.84	335.37	11.09	-37.0	-38.0	19.9	0.00e+00	0	44	0	4680843264	43	4280
2026-01-17 15:03:26.82	335.59	10.74	-37.0	-38.1	19.7	0.00e+00	0	44	0	4709154816	43	4333
2026-01-17 15:03:30.80	335.81	10.41	-37.0	-38.1	19.7	0.00e+00	0	44	0	4738514944	43	4340
2026-01-17 15:03:34.78	336.02	10.08	-37.5	-38.7	19.4	0.00e+00	0	44	0	4766826496	44	4350
2026-01-17 15:03:39.04	336.24	9.72	-37.4	-38.6	19.4	0.00e+00	0	44	0	4797235200	44	4314
2026-01-17 15:03:43.29	336.46	9.38	-37.5	-38.7	19.3	0.00e+00	0	44	0	4828692480	44	4365
2026-01-17 15:03:47.27	336.66	9.06	-37.5	-38.7	19.2	0.00e+00	0	44	0	4857004032	44	4370
2026-01-17 15:03:51.26	336.86	8.74	-48.2	-59.7	3.8	8.48e-01	0	44	104	4868538368	66	13841
2026-01-17 15:03:55.24	337.05	8.43	-48.1	-60.0	3.8	8.48e-01	0	44	104	4868538368	66	14326
2026-01-17 15:03:59.31	337.24	8.11	-49.4	-60.3	3.8	8.47e-01	0	44	104	4868538368	68	13203
2026-01-17 15:04:03.39	337.43	7.80	-49.6	-60.3	3.8	8.48e-01	0	44	104	4868538368	68	13138
2026-01-17 15:04:07.87	337.63	7.46	-49.6	-60.4	3.8	8.46e-01	0	44	104	4868538368	68	13268
2026-01-17 15:04:11.84	337.81	7.17	-49.5	-60.3	3.8	8.47e-01	0	44	104	4868538368	68	13144
2026-01-17 15:04:15.83	337.98	6.87	-49.1	-60.3	3.8	8.47e-01	0	44	104	4868538368	68	13116
2026-01-17 15:04:19.81	338.15	6.58	-49.1	-60.2	3.8	8.47e-01	0	44	104	4868538368	68	13053
2026-01-17 15:04:23.78	338.32	6.29	-49.1	-60.2	3.8	8.46e-01	0	44	104	4868538368	68	13016
2026-01-17 15:04:27.75	338.49	6.01	-49.1	-60.2	3.8	8.47e-01	0	44	104	4868538368	68	12981
2026-01-17 15:04:31.73	338.65	5.72	-49.1	-60.2	3.8	8.47e-01	0	44	104	4868538368	68	12996
2026-01-17 15:04:35.72	338.81	5.44	-49.1	-60.2	3.8	8.47e-01	0	44	104	4868538368	68	13010
2026-01-17 15:04:39.69	338.96	5.17	-49.1	-60.2	3.8	8.46e-01	0	44	104	4868538368	68	12989

#Closed at: 2026-01-17 15:04:43
#Recorded file [4868 MB]: D:/Data/31040_260117_175200.dat