passes_logs/2026/01/17/T1/T1__20260117_233830_FENGYUN_3D_rec.log

#Pass ID: 20260117_233830_FENGYUN 3D
#Satellite: FENGYUN 3D
#Configuration: FENGYUN 3D
#almurnet v.1.7.20251203
#Start time: 2026-01-17 23:38:30

#Version: 2.0.20230620
#Station: T1
#Location: 37.570604 lon 55.790049 lat
#TLE: 1 43010U 17072A   26017.25882587  .00000461  00000+0  23963-3 0  9992
#TLE: 2 43010  98.9934 349.1096 0002357 104.0487 256.0951 14.19697152423579

#Time	Az	El	Level	Level2	SNR	BER	BlckErr	Temp	State	Recorded	gain1	gain2
2026-01-17 23:38:30.06	40.14	4.98	-49.7	-61.8	3.8	8.48e-01	0	39	0	0	71	14206
2026-01-17 23:38:32.05	40.38	5.07	-49.7	-61.8	3.8	8.48e-01	0	39	104	0	71	14151
2026-01-17 23:38:34.03	40.62	5.15	-49.7	-61.8	3.8	8.47e-01	0	39	104	0	71	14135
2026-01-17 23:38:36.02	40.86	5.24	-49.7	-61.8	3.8	8.48e-01	0	39	104	0	71	14160
2026-01-17 23:38:38.00	41.11	5.32	-49.7	-61.9	3.8	8.48e-01	0	39	104	0	71	14233
2026-01-17 23:38:39.99	41.35	5.41	-49.7	-61.8	3.8	8.48e-01	0	39	104	0	71	14168
2026-01-17 23:38:41.98	41.60	5.49	-49.6	-61.8	3.8	8.48e-01	0	39	104	0	71	14187
2026-01-17 23:38:43.96	41.85	5.57	-49.6	-61.8	3.8	8.48e-01	0	39	104	0	71	14159
2026-01-17 23:38:45.95	42.10	5.66	-49.6	-61.8	3.8	8.47e-01	0	39	104	0	71	14137
2026-01-17 23:38:47.93	42.35	5.74	-49.6	-61.8	3.8	8.47e-01	0	40	104	0	71	14116
2026-01-17 23:38:49.92	42.60	5.82	-49.6	-61.8	3.8	8.46e-01	0	39	104	0	71	14088
2026-01-17 23:38:51.91	42.86	5.91	-49.6	-61.8	3.8	8.47e-01	0	40	104	0	71	14131
2026-01-17 23:38:53.89	43.11	5.99	-49.6	-61.8	3.8	8.47e-01	0	40	104	0	71	14065
2026-01-17 23:38:55.88	43.37	6.07	-49.6	-61.8	3.8	8.47e-01	0	40	104	0	71	14102
2026-01-17 23:38:57.87	43.63	6.15	-49.6	-61.8	3.8	8.46e-01	0	40	104	0	71	14072
2026-01-17 23:38:59.85	43.89	6.24	-49.6	-61.8	3.8	8.47e-01	0	40	104	0	71	14147
2026-01-17 23:39:01.84	44.15	6.32	-49.6	-61.8	3.8	8.46e-01	0	40	104	0	71	14095
2026-01-17 23:39:03.82	44.41	6.40	-49.6	-61.8	3.8	8.47e-01	0	40	104	0	71	14101
2026-01-17 23:39:05.81	44.67	6.48	-49.6	-61.8	3.8	8.48e-01	0	40	104	0	71	14092
2026-01-17 23:39:07.80	44.94	6.56	-49.6	-61.8	3.8	8.48e-01	0	40	104	0	71	14073
2026-01-17 23:39:09.79	45.21	6.65	-49.6	-61.8	3.8	8.47e-01	0	40	104	0	71	14089
2026-01-17 23:39:11.78	45.48	6.73	-49.6	-61.8	3.8	8.47e-01	0	40	104	0	71	14101
2026-01-17 23:39:13.76	45.75	6.81	-49.6	-61.7	3.8	8.47e-01	0	40	104	0	71	14015
2026-01-17 23:39:15.75	46.02	6.89	-49.6	-61.7	3.8	8.46e-01	0	40	104	0	71	14034
2026-01-17 23:39:17.73	46.29	6.97	-49.6	-61.8	3.8	8.46e-01	0	40	104	0	71	14083
2026-01-17 23:39:19.72	46.56	7.05	-49.6	-61.7	3.8	8.47e-01	0	40	104	0	71	14041
2026-01-17 23:39:21.71	46.84	7.13	-49.6	-61.8	3.8	8.46e-01	0	40	104	0	71	14103
2026-01-17 23:39:23.70	47.12	7.21	-49.6	-61.7	3.8	8.48e-01	0	40	104	0	71	14004
2026-01-17 23:39:25.68	47.39	7.28	-49.6	-61.7	3.8	8.47e-01	0	40	104	0	71	13988
2026-01-17 23:39:27.67	47.68	7.36	-49.6	-61.7	3.8	8.47e-01	0	40	104	0	71	13993
2026-01-17 23:39:29.66	47.96	7.44	-49.6	-61.7	3.8	8.48e-01	0	40	104	0	71	14007
2026-01-17 23:39:31.65	48.24	7.52	-49.6	-61.7	3.8	8.48e-01	0	40	104	0	71	14035
2026-01-17 23:39:33.64	48.53	7.60	-49.6	-61.8	3.8	8.45e-01	0	41	104	0	71	14095
2026-01-17 23:39:35.62	48.81	7.67	-49.6	-61.8	3.8	8.47e-01	0	41	104	0	71	14136
2026-01-17 23:39:37.61	49.10	7.75	-49.6	-61.8	3.8	8.46e-01	0	41	104	0	71	14052
2026-01-17 23:39:39.60	49.39	7.83	-49.6	-61.7	3.8	8.47e-01	0	41	104	0	71	13897
2026-01-17 23:39:41.58	49.68	7.90	-49.6	-61.6	3.8	8.47e-01	0	41	104	0	71	13772
2026-01-17 23:39:43.57	49.97	7.98	-49.6	-61.4	3.8	8.45e-01	0	41	104	0	71	13448
2026-01-17 23:39:45.56	50.26	8.05	-49.6	-61.3	3.8	8.47e-01	0	41	104	0	71	13398
2026-01-17 23:39:47.54	50.56	8.13	-49.6	-61.5	3.8	8.47e-01	0	41	104	0	71	13575
2026-01-17 23:39:49.53	50.85	8.20	-49.6	-61.5	3.8	8.47e-01	0	41	104	0	71	13686
2026-01-17 23:39:51.52	51.15	8.28	-49.6	-61.7	3.8	8.47e-01	0	41	104	0	71	13921
2026-01-17 23:39:53.50	51.45	8.35	-49.6	-61.8	3.8	8.47e-01	0	41	104	0	71	14064
2026-01-17 23:39:55.49	51.75	8.42	-49.6	-61.7	3.8	8.46e-01	0	41	104	0	71	13994
2026-01-17 23:39:57.48	52.05	8.49	-49.6	-61.8	3.8	8.47e-01	0	41	104	0	71	14091
2026-01-17 23:39:59.46	52.36	8.57	-49.6	-61.8	3.8	8.47e-01	0	41	104	0	71	14051
2026-01-17 23:40:01.45	52.66	8.64	-49.6	-61.7	3.8	8.48e-01	0	41	104	0	71	13980
2026-01-17 23:40:03.44	52.97	8.71	-49.6	-61.5	3.8	8.47e-01	0	41	104	0	71	13701
2026-01-17 23:40:05.43	53.28	8.78	-49.5	-60.8	3.8	8.48e-01	0	41	104	0	71	12563
2026-01-17 23:40:07.41	53.58	8.85	-49.4	-60.1	3.8	8.47e-01	0	41	104	0	70	12285
2026-01-17 23:40:09.40	53.90	8.92	-49.0	-57.3	4.5	8.34e-01	0	41	0	0	70	8963
2026-01-17 23:40:11.38	54.21	8.99	-46.7	-51.0	9.2	3.71e-02	0	41	0	7340032	65	5785
2026-01-17 23:40:13.50	54.54	9.06	-46.7	-51.1	9.3	3.12e-03	0	41	0	18874368	64	6164
2026-01-17 23:40:15.49	54.86	9.13	-46.5	-50.6	10.0	7.54e-04	0	41	0	28311552	63	6152
2026-01-17 23:40:17.48	55.17	9.20	-39.9	-41.9	18.3	0.00e+00	0	41	0	34603008	51	4533
2026-01-17 23:40:19.47	55.49	9.26	-39.6	-41.6	18.6	0.00e+00	0	41	0	46137344	51	4376
2026-01-17 23:40:21.46	55.81	9.33	-39.6	-41.6	18.6	0.00e+00	0	41	0	56623104	51	4382
2026-01-17 23:40:23.45	56.13	9.40	-39.5	-41.5	18.7	0.00e+00	0	41	0	68157440	51	4316
2026-01-17 23:40:25.44	56.46	9.46	-39.4	-41.4	18.8	0.00e+00	0	41	0	78643200	50	4516
2026-01-17 23:40:27.56	56.80	9.53	-39.4	-41.4	18.8	0.00e+00	0	41	0	91226112	50	4498
2026-01-17 23:40:29.75	57.16	9.60	-39.4	-41.3	18.9	0.00e+00	0	41	0	103809024	50	4487
2026-01-17 23:40:31.74	57.49	9.66	-39.4	-41.4	18.8	0.00e+00	0	41	0	114294784	50	4523
2026-01-17 23:40:33.74	57.82	9.73	-39.5	-41.4	18.7	0.00e+00	0	41	0	125829120	50	4545
2026-01-17 23:40:35.73	58.15	9.79	-39.5	-41.5	18.7	0.00e+00	0	41	0	137363456	50	4583
2026-01-17 23:40:37.73	58.48	9.85	-39.4	-41.3	18.9	0.00e+00	0	41	0	147849216	50	4487
2026-01-17 23:40:39.73	58.82	9.91	-39.3	-41.3	18.9	0.00e+00	0	41	0	159383552	50	4460
2026-01-17 23:40:41.74	59.15	9.97	-39.4	-41.4	18.8	0.00e+00	0	41	0	170917888	50	4531
2026-01-17 23:40:43.73	59.49	10.03	-39.5	-41.6	18.7	0.00e+00	0	41	0	182452224	50	4605
2026-01-17 23:40:45.72	59.82	10.09	-39.5	-41.5	18.7	0.00e+00	0	41	0	192937984	50	4585
2026-01-17 23:40:47.71	60.16	10.14	-39.3	-41.3	18.9	0.00e+00	0	41	0	204472320	50	4455
2026-01-17 23:40:49.70	60.50	10.20	-39.2	-41.2	19.0	0.00e+00	0	41	0	216006656	50	4420
2026-01-17 23:40:51.69	60.84	10.26	-39.3	-41.3	18.9	0.00e+00	0	41	0	226492416	50	4451
2026-01-17 23:40:53.68	61.18	10.31	-39.3	-41.3	18.9	0.00e+00	0	41	0	238026752	50	4486
2026-01-17 23:40:55.67	61.53	10.37	-39.4	-41.4	18.8	0.00e+00	0	41	0	249561088	50	4523
2026-01-17 23:40:57.66	61.87	10.42	-39.4	-41.4	18.8	0.00e+00	0	41	0	260046848	50	4504
2026-01-17 23:40:59.65	62.22	10.47	-39.2	-41.1	19.1	0.00e+00	0	41	0	271581184	50	4381
2026-01-17 23:41:01.64	62.56	10.52	-39.2	-41.2	19.1	0.00e+00	0	41	0	283115520	50	4399
2026-01-17 23:41:03.63	62.91	10.58	-39.1	-41.1	19.1	0.00e+00	0	41	0	293601280	50	4372
2026-01-17 23:41:05.62	63.26	10.63	-39.2	-41.1	19.1	0.00e+00	0	41	0	305135616	50	4378
2026-01-17 23:41:07.61	63.61	10.68	-38.8	-40.8	19.4	0.00e+00	0	41	0	316669952	49	4444
2026-01-17 23:41:09.60	63.96	10.72	-38.8	-40.7	19.5	0.00e+00	0	41	0	327155712	49	4433
2026-01-17 23:41:11.59	64.32	10.77	-38.8	-40.7	19.5	0.00e+00	0	41	0	338690048	49	4393
2026-01-17 23:41:13.58	64.67	10.82	-38.8	-40.7	19.5	0.00e+00	0	41	0	350224384	49	4424
2026-01-17 23:41:15.57	65.03	10.87	-38.9	-40.8	19.4	0.00e+00	0	41	0	360710144	49	4490
2026-01-17 23:41:17.59	65.39	10.91	-38.9	-40.8	19.4	0.00e+00	0	42	0	372244480	49	4477
2026-01-17 23:41:19.58	65.74	10.96	-38.6	-40.6	19.6	0.00e+00	0	41	0	383778816	49	4341
2026-01-17 23:41:21.70	66.13	11.00	-38.6	-40.5	19.7	0.00e+00	0	42	0	395313152	49	4303
2026-01-17 23:41:23.70	66.49	11.04	-38.6	-40.4	19.7	0.00e+00	0	42	0	406847488	49	4291
2026-01-17 23:41:25.70	66.85	11.09	-38.6	-40.5	19.6	0.00e+00	0	42	0	418381824	49	4325
2026-01-17 23:41:27.70	67.21	11.13	-38.9	-40.9	19.3	0.00e+00	0	42	0	428867584	49	4502
2026-01-17 23:41:29.65	67.57	11.17	-38.8	-40.7	19.4	0.00e+00	0	41	0	440401920	49	4435
2026-01-17 23:41:31.64	67.93	11.20	-38.7	-40.6	19.5	0.00e+00	0	41	0	451936256	49	4373
2026-01-17 23:41:33.63	68.29	11.24	-38.7	-40.6	19.6	0.00e+00	0	42	0	462422016	49	4351
2026-01-17 23:41:35.82	68.70	11.28	-38.8	-40.7	19.5	0.00e+00	0	42	0	475004928	49	4404
2026-01-17 23:41:37.81	69.06	11.32	-38.8	-40.8	19.4	0.00e+00	0	41	0	486539264	49	4449
2026-01-17 23:41:39.80	69.43	11.35	-38.8	-40.7	19.5	0.00e+00	0	42	0	497025024	49	4414
2026-01-17 23:41:41.79	69.80	11.39	-38.8	-40.7	19.5	0.00e+00	0	42	0	508559360	49	4426
2026-01-17 23:41:43.78	70.17	11.42	-38.9	-40.9	19.3	0.00e+00	0	41	0	520093696	49	4510
2026-01-17 23:41:45.77	70.53	11.45	-38.9	-40.8	19.4	0.00e+00	0	41	0	530579456	49	4486
2026-01-17 23:41:47.77	70.91	11.48	-39.1	-41.1	19.2	0.00e+00	0	41	0	542113792	49	4609
2026-01-17 23:41:49.79	71.28	11.51	-38.9	-40.8	19.4	0.00e+00	0	41	0	553648128	49	4469
2026-01-17 23:41:51.81	71.66	11.54	-38.8	-40.7	19.5	0.00e+00	0	42	0	565182464	49	4397
2026-01-17 23:41:53.74	72.02	11.57	-38.8	-40.7	19.5	0.00e+00	0	41	0	575668224	49	4423
2026-01-17 23:41:55.81	72.41	11.60	-38.8	-40.8	19.4	0.00e+00	0	41	0	587202560	49	4465
2026-01-17 23:41:58.33	72.88	11.63	-38.7	-40.6	19.5	0.00e+00	0	41	0	601882624	49	4384
2026-01-17 23:42:00.33	73.26	11.65	-38.5	-40.4	19.4	0.00e+00	0	42	0	613416960	48	4500
2026-01-17 23:42:02.32	73.63	11.67	-38.5	-40.4	19.7	0.00e+00	0	42	0	623902720	48	4535
2026-01-17 23:42:04.31	74.01	11.70	-38.5	-40.4	19.7	0.00e+00	0	41	0	635437056	48	4531
2026-01-17 23:42:06.41	74.41	11.72	-38.5	-40.4	19.7	0.00e+00	0	41	0	646971392	48	4541
2026-01-17 23:42:08.48	74.80	11.74	-38.7	-40.6	19.6	0.00e+00	0	41	0	658505728	48	4631
2026-01-17 23:42:10.47	75.18	11.76	-38.8	-40.7	19.5	0.00e+00	0	41	0	670040064	48	4676
2026-01-17 23:42:12.46	75.55	11.77	-38.7	-40.6	19.6	0.00e+00	0	42	0	680525824	48	4617
2026-01-17 23:42:14.45	75.93	11.79	-38.7	-40.6	19.6	0.00e+00	0	42	0	692060160	48	4632
2026-01-17 23:42:16.44	76.31	11.81	-38.4	-40.3	19.8	0.00e+00	0	42	0	703594496	48	4484
2026-01-17 23:42:18.43	76.69	11.82	-38.6	-40.5	19.6	0.00e+00	0	41	0	715128832	48	4585
2026-01-17 23:42:20.42	77.07	11.83	-38.5	-40.4	19.7	0.00e+00	0	41	0	725614592	48	4526
2026-01-17 23:42:22.41	77.45	11.84	-38.6	-40.5	19.7	0.00e+00	0	41	0	737148928	48	4577
2026-01-17 23:42:24.40	77.83	11.86	-38.6	-40.5	19.6	0.00e+00	0	42	0	748683264	48	4591
2026-01-17 23:42:26.39	78.21	11.86	-38.6	-40.6	19.6	0.00e+00	0	42	0	759169024	48	4605
2026-01-17 23:42:28.49	78.61	11.87	-38.4	-40.3	19.8	0.00e+00	0	41	0	771751936	48	4492
2026-01-17 23:42:30.55	79.01	11.88	-38.6	-40.5	19.7	0.00e+00	0	41	0	783286272	48	4559
2026-01-17 23:42:32.60	79.40	11.89	-38.5	-40.5	19.7	0.00e+00	0	41	0	794820608	48	4551
2026-01-17 23:42:34.59	79.78	11.89	-38.7	-40.6	19.6	0.00e+00	0	42	0	805306368	48	4623
2026-01-17 23:42:36.71	80.19	11.90	-38.7	-40.6	19.6	0.00e+00	0	42	0	817889280	48	4637
2026-01-17 23:42:38.70	80.57	11.90	-38.6	-40.6	19.6	0.00e+00	0	42	0	828375040	48	4609
2026-01-17 23:42:40.69	80.95	11.90	-38.4	-40.3	19.8	0.00e+00	0	42	0	839909376	48	4462
2026-01-17 23:42:42.74	81.34	11.90	-38.4	-40.3	19.8	0.00e+00	0	41	0	851443712	48	4481
2026-01-17 23:42:44.75	81.73	11.90	-38.4	-40.4	19.8	0.00e+00	0	42	0	862978048	48	4505
2026-01-17 23:42:46.74	82.11	11.90	-38.6	-40.5	19.6	0.00e+00	0	41	0	873463808	48	4589
2026-01-17 23:42:48.73	82.49	11.89	-38.7	-40.7	19.5	0.00e+00	0	41	0	884998144	48	4652
2026-01-17 23:42:50.75	82.88	11.89	-38.4	-40.3	19.8	0.00e+00	0	42	0	896532480	48	4486
2026-01-17 23:42:52.74	83.26	11.88	-38.6	-40.6	19.6	0.00e+00	0	42	0	908066816	48	4600
2026-01-17 23:42:54.73	83.64	11.88	-38.6	-40.6	19.6	0.00e+00	0	41	0	918552576	48	4606
2026-01-17 23:42:56.71	84.02	11.87	-38.8	-40.8	19.4	0.00e+00	0	41	0	930086912	48	4745
2026-01-17 23:42:58.73	84.40	11.86	-38.7	-40.7	19.5	0.00e+00	0	42	0	941621248	48	4678
2026-01-17 23:43:00.77	84.79	11.85	-38.7	-40.6	19.6	0.00e+00	0	42	0	953155584	48	4631
2026-01-17 23:43:02.78	85.18	11.84	-38.6	-40.5	19.7	0.00e+00	0	41	0	964689920	48	4573
2026-01-17 23:43:04.77	85.56	11.83	-38.6	-40.6	19.6	0.00e+00	0	41	0	975175680	48	4619
2026-01-17 23:43:06.98	85.98	11.81	-38.7	-40.7	19.5	0.00e+00	0	42	0	987758592	48	4664
2026-01-17 23:43:08.97	86.36	11.80	-38.6	-40.5	19.6	0.00e+00	0	41	0	999292928	48	4596
2026-01-17 23:43:10.96	86.74	11.78	-38.6	-40.5	19.7	0.00e+00	0	42	0	1009778688	48	4559
2026-01-17 23:43:12.95	87.12	11.76	-38.6	-40.5	19.6	0.00e+00	0	42	0	1021313024	48	4593
2026-01-17 23:43:14.94	87.50	11.75	-38.6	-40.6	19.6	0.00e+00	0	42	0	1032847360	48	4602
2026-01-17 23:43:16.94	87.87	11.73	-38.7	-40.6	19.6	0.00e+00	0	42	0	1043333120	48	4636
2026-01-17 23:43:19.12	88.29	11.71	-38.8	-40.7	19.5	0.00e+00	0	42	0	1055916032	48	4688
2026-01-17 23:43:21.11	88.66	11.68	-38.7	-40.6	19.6	0.00e+00	0	42	0	1067450368	48	4643
2026-01-17 23:43:23.22	89.06	11.66	-38.5	-40.5	19.7	0.00e+00	0	42	0	1078984704	48	4546
2026-01-17 23:43:25.28	89.45	11.64	-38.5	-40.4	19.7	0.00e+00	0	41	0	1090519040	48	4503
2026-01-17 23:43:27.25	89.82	11.61	-38.5	-40.4	19.7	0.00e+00	0	42	0	1102053376	48	4528
2026-01-17 23:43:29.24	90.20	11.58	-38.6	-40.5	19.7	0.00e+00	0	42	0	1112539136	48	4571
2026-01-17 23:43:31.23	90.57	11.56	-38.8	-40.7	19.4	0.00e+00	0	42	0	1124073472	48	4685
2026-01-17 23:43:33.22	90.94	11.53	-38.6	-40.5	19.6	0.00e+00	0	42	0	1135607808	48	4581
2026-01-17 23:43:35.26	91.33	11.50	-38.9	-40.9	19.3	0.00e+00	0	42	0	1147142144	48	4780
2026-01-17 23:43:37.28	91.70	11.47	-38.7	-40.7	19.4	0.00e+00	0	42	0	1158676480	48	4667
2026-01-17 23:43:39.24	92.07	11.44	-38.9	-40.9	19.3	0.00e+00	0	42	0	1169162240	48	4765
2026-01-17 23:43:41.23	92.44	11.41	-38.9	-40.9	19.2	0.00e+00	0	42	0	1180696576	48	4773
2026-01-17 23:43:43.31	92.82	11.37	-39.1	-41.0	19.1	0.00e+00	0	42	0	1192230912	48	4869
2026-01-17 23:43:45.31	93.19	11.34	-38.9	-40.9	19.3	0.00e+00	0	42	0	1203765248	48	4767
2026-01-17 23:43:47.32	93.57	11.30	-38.8	-40.8	19.4	0.00e+00	0	42	0	1215299584	48	4731
2026-01-17 23:43:49.32	93.93	11.27	-38.8	-40.8	19.4	0.00e+00	0	42	0	1225785344	48	4727
2026-01-17 23:43:51.51	94.34	11.22	-38.9	-40.9	19.3	0.00e+00	0	42	0	1238368256	48	4792
2026-01-17 23:43:53.50	94.70	11.19	-38.8	-40.8	19.4	0.00e+00	0	42	0	1249902592	48	4707
2026-01-17 23:43:55.49	95.06	11.15	-38.9	-40.9	19.3	0.00e+00	0	42	0	1260388352	48	4764
2026-01-17 23:43:57.48	95.43	11.11	-39.0	-40.9	19.3	0.00e+00	0	42	0	1271922688	48	4788
2026-01-17 23:43:59.47	95.79	11.07	-39.0	-41.0	19.2	0.00e+00	0	42	0	1283457024	48	4835
2026-01-17 23:44:01.44	96.15	11.02	-38.9	-40.9	19.2	0.00e+00	0	42	0	1293942784	48	4790
2026-01-17 23:44:03.43	96.51	10.98	-38.9	-40.9	19.2	0.00e+00	0	42	0	1305477120	48	4781
2026-01-17 23:44:05.42	96.87	10.94	-38.9	-40.8	19.3	0.00e+00	0	42	0	1317011456	48	4742
2026-01-17 23:44:07.40	97.22	10.89	-39.1	-41.1	19.0	0.00e+00	0	42	0	1327497216	48	4918
2026-01-17 23:44:09.39	97.58	10.85	-39.2	-41.2	19.0	0.00e+00	0	42	0	1339031552	49	4670
2026-01-17 23:44:11.38	97.93	10.80	-39.2	-41.2	18.9	0.00e+00	0	42	0	1350565888	49	4674
2026-01-17 23:44:13.37	98.29	10.75	-39.1	-41.1	19.1	0.00e+00	0	42	0	1361051648	49	4603
2026-01-17 23:44:15.36	98.64	10.70	-39.1	-41.0	19.1	0.00e+00	0	42	0	1372585984	49	4594
2026-01-17 23:44:17.35	99.00	10.65	-39.2	-41.2	18.9	0.00e+00	0	42	0	1383071744	49	4688
2026-01-17 23:44:19.42	99.36	10.60	-39.2	-41.2	18.9	0.00e+00	0	42	0	1395654656	49	4684
2026-01-17 23:44:21.42	99.71	10.55	-39.2	-41.1	19.0	0.00e+00	0	42	0	1406140416	49	4646
2026-01-17 23:44:23.41	100.06	10.50	-39.1	-41.1	19.0	0.00e+00	0	42	0	1417674752	49	4629
2026-01-17 23:44:25.39	100.41	10.45	-39.1	-41.0	19.1	0.00e+00	0	42	0	1429209088	49	4575
2026-01-17 23:44:27.38	100.75	10.39	-39.1	-41.0	19.1	0.00e+00	0	42	0	1439694848	49	4576
2026-01-17 23:44:29.37	101.10	10.34	-39.3	-41.3	18.9	0.00e+00	0	42	0	1451229184	49	4713
2026-01-17 23:44:31.36	101.44	10.28	-39.2	-41.2	18.9	0.00e+00	0	42	0	1462763520	49	4693
2026-01-17 23:44:33.35	101.79	10.23	-39.2	-41.2	19.0	0.00e+00	0	42	0	1473249280	49	4657
2026-01-17 23:44:35.33	102.13	10.17	-39.3	-41.3	18.8	0.00e+00	0	42	0	1484783616	49	4725
2026-01-17 23:44:37.36	102.47	10.11	-39.5	-41.5	18.6	0.00e+00	0	42	0	1496317952	49	4857
2026-01-17 23:44:39.36	102.81	10.05	-39.4	-41.5	18.7	0.00e+00	0	42	0	1506803712	49	4817
2026-01-17 23:44:41.36	103.15	9.99	-39.5	-41.5	18.6	0.00e+00	0	42	0	1518338048	49	4857
2026-01-17 23:44:43.37	103.49	9.93	-39.4	-41.4	18.7	0.00e+00	0	42	0	1529872384	49	4807
2026-01-17 23:44:45.36	103.83	9.87	-39.5	-41.4	18.6	0.00e+00	0	42	0	1541406720	49	4814
2026-01-17 23:44:47.36	104.16	9.81	-39.5	-41.5	18.6	0.00e+00	0	42	0	1552941056	50	4569
2026-01-17 23:44:49.37	104.50	9.75	-39.6	-41.6	18.5	0.00e+00	0	42	0	1563426816	50	4631
2026-01-17 23:44:51.60	104.87	9.68	-39.8	-41.9	18.3	0.00e+00	0	42	0	1576009728	50	4761
2026-01-17 23:44:53.94	105.26	9.60	-39.6	-41.6	18.5	0.00e+00	0	42	0	1589641216	50	4615
2026-01-17 23:44:55.96	105.59	9.54	-39.6	-41.6	18.5	0.00e+00	0	42	0	1601175552	50	4630
2026-01-17 23:44:57.96	105.92	9.47	-39.6	-41.6	18.5	0.00e+00	0	42	0	1612709888	50	4606
2026-01-17 23:44:59.97	106.24	9.41	-39.8	-41.8	18.3	0.00e+00	0	42	0	1623195648	50	4732
2026-01-17 23:45:01.97	106.57	9.34	-39.8	-41.9	18.2	0.00e+00	0	42	0	1634729984	50	4763
2026-01-17 23:45:04.00	106.90	9.27	-39.8	-41.9	18.2	0.00e+00	0	42	0	1646264320	50	4767
2026-01-17 23:45:06.01	107.22	9.21	-39.7	-41.7	18.3	0.00e+00	0	42	0	1657798656	50	4701
2026-01-17 23:45:08.02	107.54	9.14	-39.8	-41.8	18.2	0.00e+00	0	42	0	1668284416	50	4752
2026-01-17 23:45:10.14	107.88	9.06	-39.6	-41.6	18.4	0.00e+00	0	42	0	1680867328	50	4632
2026-01-17 23:45:12.22	108.21	8.99	-49.6	-61.2	3.8	8.33e-01	0	42	104	1690304512	69	14832
2026-01-17 23:45:14.20	108.52	8.92	-50.3	-62.3	3.8	8.47e-01	0	42	104	1690304512	71	14987
2026-01-17 23:45:16.21	108.84	8.85	-50.2	-62.4	3.8	8.46e-01	0	42	104	1690304512	71	15114
2026-01-17 23:45:18.21	109.15	8.78	-50.2	-62.4	3.8	8.48e-01	0	42	104	1690304512	71	15152
2026-01-17 23:45:20.23	109.47	8.71	-50.0	-62.5	3.8	8.47e-01	0	42	104	1690304512	71	15264
2026-01-17 23:45:22.34	109.80	8.63	-50.0	-62.5	3.8	8.47e-01	0	42	104	1690304512	71	15363
2026-01-17 23:45:24.55	110.14	8.55	-50.1	-62.5	3.8	8.47e-01	0	42	104	1690304512	71	15317
2026-01-17 23:45:26.74	110.47	8.47	-50.1	-62.5	3.8	8.47e-01	0	42	104	1690304512	71	15274
2026-01-17 23:45:28.80	110.79	8.40	-50.0	-62.5	3.8	8.48e-01	0	42	104	1690304512	71	15367
2026-01-17 23:45:30.85	111.10	8.32	-50.0	-62.5	3.8	8.48e-01	0	42	104	1690304512	71	15377
2026-01-17 23:45:32.84	111.40	8.25	-50.1	-62.5	3.8	8.47e-01	0	42	104	1690304512	71	15312
2026-01-17 23:45:34.83	111.70	8.17	-50.0	-62.4	3.8	8.47e-01	0	42	104	1690304512	71	15193
2026-01-17 23:45:36.83	112.00	8.10	-50.0	-62.4	3.8	8.47e-01	0	42	104	1690304512	71	15190
2026-01-17 23:45:38.81	112.29	8.02	-50.0	-62.5	3.8	8.46e-01	0	42	104	1690304512	71	15243
2026-01-17 23:45:40.80	112.59	7.94	-50.0	-62.4	3.8	8.47e-01	0	42	104	1690304512	71	15151
2026-01-17 23:45:42.79	112.88	7.87	-50.0	-62.4	3.8	8.46e-01	0	42	104	1690304512	71	15172
2026-01-17 23:45:44.78	113.17	7.79	-50.0	-62.4	3.8	8.48e-01	0	42	104	1690304512	71	15202
2026-01-17 23:45:46.76	113.46	7.71	-50.0	-62.4	3.8	8.47e-01	0	42	104	1690304512	71	15143
2026-01-17 23:45:48.75	113.75	7.64	-50.0	-62.4	3.8	8.48e-01	0	42	104	1690304512	71	15179
2026-01-17 23:45:50.74	114.04	7.56	-50.0	-62.4	3.8	8.47e-01	0	42	104	1690304512	71	15124
2026-01-17 23:45:52.74	114.33	7.48	-50.0	-62.4	3.8	8.48e-01	0	42	104	1690304512	71	15161
2026-01-17 23:45:54.74	114.61	7.40	-50.0	-62.4	3.8	8.47e-01	0	42	104	1690304512	71	15104
2026-01-17 23:45:56.73	114.90	7.32	-50.0	-62.4	3.8	8.46e-01	0	42	104	1690304512	71	15124
2026-01-17 23:45:58.71	115.18	7.24	-50.0	-62.4	3.8	8.47e-01	0	42	104	1690304512	71	15136
2026-01-17 23:46:00.70	115.46	7.16	-50.0	-62.4	3.8	8.47e-01	0	42	104	1690304512	71	15166
2026-01-17 23:46:02.70	115.74	7.08	-50.0	-62.4	3.8	8.47e-01	0	42	104	1690304512	71	15126
2026-01-17 23:46:04.70	116.01	7.00	-50.0	-62.4	3.8	8.46e-01	0	42	104	1690304512	71	15113
2026-01-17 23:46:06.70	116.29	6.92	-50.0	-62.4	3.8	8.47e-01	0	42	104	1690304512	71	15171
2026-01-17 23:46:08.70	116.57	6.84	-50.0	-62.4	3.8	8.46e-01	0	42	104	1690304512	71	15114
2026-01-17 23:46:10.69	116.84	6.76	-50.0	-62.4	3.8	8.47e-01	0	42	104	1690304512	71	15085
2026-01-17 23:46:12.69	117.11	6.67	-50.0	-62.4	3.8	8.46e-01	0	42	104	1690304512	71	15063
2026-01-17 23:46:14.68	117.38	6.59	-50.0	-62.4	3.8	8.49e-01	0	42	104	1690304512	71	15079
2026-01-17 23:46:16.67	117.65	6.51	-50.0	-62.4	3.8	8.47e-01	0	42	104	1690304512	71	15118
2026-01-17 23:46:18.67	117.92	6.43	-50.0	-62.4	3.8	8.47e-01	0	42	104	1690304512	71	15133
2026-01-17 23:46:20.65	118.18	6.34	-49.9	-62.4	3.8	8.46e-01	0	42	104	1690304512	71	15081
2026-01-17 23:46:22.64	118.44	6.26	-50.0	-62.4	3.8	8.47e-01	0	42	104	1690304512	71	15095
2026-01-17 23:46:24.63	118.71	6.18	-50.0	-62.4	3.8	8.48e-01	0	42	104	1690304512	71	15091
2026-01-17 23:46:26.62	118.97	6.09	-49.9	-62.3	3.8	8.47e-01	0	42	104	1690304512	71	15051
2026-01-17 23:46:28.60	119.23	6.01	-50.0	-62.4	3.8	8.48e-01	0	42	104	1690304512	71	15126
2026-01-17 23:46:30.59	119.48	5.93	-50.0	-62.4	3.8	8.47e-01	0	42	104	1690304512	71	15143
2026-01-17 23:46:32.59	119.74	5.84	-50.0	-62.3	3.8	8.46e-01	0	42	104	1690304512	71	15029
2026-01-17 23:46:34.58	120.00	5.76	-50.0	-62.4	3.8	8.48e-01	0	42	104	1690304512	71	15060
2026-01-17 23:46:36.57	120.25	5.67	-50.0	-62.4	3.8	8.48e-01	0	42	104	1690304512	71	15064
2026-01-17 23:46:38.55	120.50	5.59	-50.0	-62.4	3.8	8.45e-01	0	42	104	1690304512	71	15129
2026-01-17 23:46:40.54	120.75	5.50	-50.0	-62.4	3.8	8.45e-01	0	42	104	1690304512	71	15109
2026-01-17 23:46:42.53	121.00	5.42	-50.0	-62.3	3.8	8.46e-01	0	42	104	1690304512	71	15009
2026-01-17 23:46:44.53	121.25	5.33	-49.9	-62.3	3.8	8.47e-01	0	42	104	1690304512	71	15036
2026-01-17 23:46:46.51	121.50	5.25	-50.0	-62.4	3.8	8.46e-01	0	42	104	1690304512	71	15114
2026-01-17 23:46:48.50	121.74	5.16	-49.9	-62.4	3.8	8.47e-01	0	42	104	1690304512	71	15103
2026-01-17 23:46:50.49	121.99	5.08	-49.9	-62.4	3.8	8.47e-01	0	42	104	1690304512	71	15098
2026-01-17 23:46:52.47	122.23	4.99	-49.9	-62.4	3.8	8.47e-01	0	42	104	1690304512	71	15061

#Closed at: 2026-01-17 23:46:53
#Recorded file [1690 MB]: D:/Data/31040_260118_023830.dat