passes_logs/2026/01/17/T1/T1__20260117_204431_KHAYYAM_rec.log

#Pass ID: 20260117_204431_KHAYYAM
#Satellite: KHAYYAM
#Configuration: KHAYYAM_480M
#almurnet v.1.7.20251203
#Start time: 2026-01-17 20:44:31

#Version: 2.0.20230620
#Station: T1
#Location: 37.570604 lon 55.790049 lat
#TLE: 1 53370U 22096A   26016.46634404  .00002748  00000+0  11437-3 0  9992
#TLE: 2 53370  97.3563 283.4498 0001613 105.7711 254.3705 15.24587751191466

#Time	Az	El	Level	Level2	SNR	BER	BlckErr	Temp	State	Recorded	gain1	gain2
2026-01-17 20:44:31.43	22.45	4.97	-49.9	-54.4	3.4	0.00e+00	0	45	0	0	71	24175
2026-01-17 20:44:33.41	22.57	5.12	-49.9	-54.4	3.7	0.00e+00	0	45	104	0	70	25610
2026-01-17 20:44:35.39	22.69	5.27	-49.9	-54.4	3.7	0.00e+00	0	45	104	0	70	25572
2026-01-17 20:44:37.38	22.82	5.43	-49.9	-54.4	3.7	0.00e+00	0	45	104	0	70	25567
2026-01-17 20:44:39.37	22.95	5.59	-49.9	-54.4	3.7	0.00e+00	0	46	104	0	70	25536
2026-01-17 20:44:41.35	23.08	5.75	-49.9	-54.4	3.7	0.00e+00	0	46	104	0	70	25536
2026-01-17 20:44:43.34	23.21	5.91	-49.9	-54.4	3.7	0.00e+00	0	46	104	0	70	25528
2026-01-17 20:44:45.32	23.35	6.07	-49.9	-54.4	3.7	0.00e+00	0	46	104	0	70	25521
2026-01-17 20:44:47.31	23.48	6.23	-49.9	-54.4	3.7	0.00e+00	0	46	104	0	70	25546
2026-01-17 20:44:49.30	23.62	6.39	-49.9	-54.4	3.7	0.00e+00	0	46	104	0	70	25549
2026-01-17 20:44:51.28	23.76	6.56	-49.9	-54.4	3.7	0.00e+00	0	47	104	0	70	25569
2026-01-17 20:44:53.27	23.90	6.72	-49.9	-54.4	3.7	0.00e+00	0	47	104	0	70	25445
2026-01-17 20:44:55.26	24.04	6.89	-49.9	-54.4	3.7	0.00e+00	0	47	104	0	70	25574
2026-01-17 20:44:57.24	24.19	7.06	-49.9	-54.4	3.7	0.00e+00	0	47	104	0	70	25584
2026-01-17 20:44:59.23	24.33	7.23	-49.9	-54.4	3.7	0.00e+00	0	47	104	0	70	25487
2026-01-17 20:45:01.22	24.48	7.40	-49.9	-54.4	3.7	0.00e+00	0	47	104	0	70	25471
2026-01-17 20:45:03.20	24.63	7.57	-49.9	-54.4	3.7	0.00e+00	0	47	104	0	70	25527
2026-01-17 20:45:05.19	24.79	7.75	-49.9	-54.4	3.7	0.00e+00	0	47	104	0	70	25458
2026-01-17 20:45:07.17	24.94	7.92	-49.9	-54.4	3.7	0.00e+00	0	48	104	0	70	25486
2026-01-17 20:45:09.16	25.10	8.10	-49.9	-54.4	3.7	0.00e+00	0	48	104	0	70	25496
2026-01-17 20:45:11.15	25.26	8.28	-49.9	-54.4	3.7	0.00e+00	0	48	104	0	70	25528
2026-01-17 20:45:13.13	25.42	8.46	-49.9	-54.4	3.7	0.00e+00	0	48	104	0	70	25509
2026-01-17 20:45:15.12	25.59	8.64	-49.9	-54.4	3.7	0.00e+00	0	48	104	0	70	25492
2026-01-17 20:45:17.10	25.75	8.82	-49.9	-54.4	3.7	0.00e+00	0	48	104	0	70	25415
2026-01-17 20:45:19.09	25.92	9.01	-49.9	-54.4	3.7	0.00e+00	0	48	104	0	70	25575
2026-01-17 20:45:21.08	26.10	9.20	-51.2	-55.6	3.7	0.00e+00	0	48	104	0	73	24771
2026-01-17 20:45:23.15	26.28	9.39	-50.3	-54.5	3.7	0.00e+00	0	48	104	0	71	24427
2026-01-17 20:45:25.17	26.46	9.59	-49.9	-53.8	3.7	0.00e+00	0	49	104	0	71	22494
2026-01-17 20:45:27.16	26.64	9.78	-50.0	-53.5	3.7	0.00e+00	0	48	104	0	71	21823
2026-01-17 20:45:29.33	26.84	9.99	-50.7	-54.8	3.7	0.00e+00	0	48	104	0	72	23892
2026-01-17 20:45:31.35	27.03	10.19	-51.5	-55.9	3.7	0.00e+00	0	49	104	0	73	25604
2026-01-17 20:45:33.34	27.22	10.39	-51.0	-55.5	3.7	0.00e+00	0	49	104	0	73	24270
2026-01-17 20:45:35.33	27.41	10.59	-51.2	-55.4	3.7	0.00e+00	0	49	104	0	73	24142
2026-01-17 20:45:37.32	27.61	10.79	-51.1	-55.4	3.7	0.00e+00	0	49	104	0	73	24039
2026-01-17 20:45:39.31	27.81	11.00	-51.2	-55.4	3.7	0.00e+00	0	49	104	0	73	24087
2026-01-17 20:45:41.30	28.01	11.20	-50.6	-55.3	3.7	0.00e+00	0	49	104	0	73	23889
2026-01-17 20:45:43.29	28.22	11.41	-50.0	-53.9	3.7	0.00e+00	0	49	104	0	71	22753
2026-01-17 20:45:45.28	28.43	11.62	-49.8	-53.5	3.7	0.00e+00	0	49	104	0	71	21634
2026-01-17 20:45:47.54	28.67	11.87	-50.2	-54.1	3.7	0.00e+00	0	49	104	0	71	23308
2026-01-17 20:45:49.75	28.91	12.10	-50.8	-55.1	3.7	0.00e+00	0	49	104	0	72	24674
2026-01-17 20:45:51.74	29.14	12.32	-51.0	-55.5	3.7	0.00e+00	0	49	104	0	74	22966
2026-01-17 20:45:53.73	29.36	12.54	-51.3	-56.0	3.7	0.00e+00	0	49	104	0	73	25904
2026-01-17 20:45:55.73	29.59	12.77	-51.6	-56.0	3.7	0.00e+00	0	49	104	0	73	25897
2026-01-17 20:45:57.73	29.83	12.99	-51.3	-55.2	3.7	0.00e+00	0	49	104	0	73	23531
2026-01-17 20:45:59.75	30.07	13.22	-50.2	-53.6	3.7	0.00e+00	0	49	104	0	72	20708
2026-01-17 20:46:01.76	30.31	13.46	-51.1	-55.1	3.7	0.00e+00	0	49	104	0	74	22013
2026-01-17 20:46:03.75	30.56	13.69	-50.5	-54.0	3.7	0.00e+00	0	49	104	0	73	20504
2026-01-17 20:46:05.76	30.82	13.93	-50.1	-53.8	3.7	0.00e+00	0	50	104	0	72	21128
2026-01-17 20:46:07.74	31.07	14.16	-50.1	-53.8	3.7	0.00e+00	0	50	104	0	72	21199
2026-01-17 20:46:09.76	31.34	14.41	-50.3	-54.4	3.7	0.00e+00	0	49	104	0	72	22684
2026-01-17 20:46:11.77	31.60	14.65	-51.1	-55.6	3.7	0.00e+00	0	49	104	0	72	26177
2026-01-17 20:46:13.76	31.88	14.90	-50.5	-54.3	3.7	0.00e+00	0	50	104	0	72	22388
2026-01-17 20:46:15.79	32.16	15.15	-50.4	-53.8	3.8	0.00e+00	0	49	104	0	72	21216
2026-01-17 20:46:17.81	32.44	15.41	-51.0	-54.6	3.7	0.00e+00	0	49	104	0	72	23188
2026-01-17 20:46:19.86	32.74	15.67	-51.1	-54.7	3.7	0.00e+00	0	50	104	0	72	23489
2026-01-17 20:46:22.25	33.10	15.98	-50.4	-53.9	3.7	0.00e+00	0	50	104	0	72	21410
2026-01-17 20:46:24.69	33.47	16.30	-49.8	-53.1	3.8	0.00e+00	0	50	104	0	71	20702
2026-01-17 20:46:26.97	33.82	16.60	-50.4	-53.9	3.7	0.00e+00	0	50	104	0	71	22666
2026-01-17 20:46:29.24	34.18	16.91	-49.9	-53.2	3.7	0.00e+00	0	50	104	0	70	22310
2026-01-17 20:46:31.51	34.55	17.22	-49.1	-51.7	3.9	0.00e+00	0	50	104	0	70	18624
2026-01-17 20:46:33.79	34.93	17.54	-49.4	-51.9	3.8	0.00e+00	0	50	104	0	70	19249
2026-01-17 20:46:35.97	35.30	17.84	-51.4	-55.2	3.7	0.00e+00	0	50	104	0	73	23505
2026-01-17 20:46:38.05	35.66	18.14	-51.0	-54.4	3.7	0.00e+00	0	50	104	0	74	20169
2026-01-17 20:46:40.24	36.06	18.46	-50.5	-53.5	3.8	0.00e+00	0	50	104	0	73	19382
2026-01-17 20:46:42.23	36.42	18.75	-50.1	-52.8	3.9	0.00e+00	0	50	104	0	72	19007
2026-01-17 20:46:44.23	36.79	19.04	-50.1	-52.8	3.9	0.00e+00	0	50	104	0	71	20098
2026-01-17 20:46:46.22	37.17	19.34	-48.7	-50.9	3.8	0.00e+00	0	50	104	0	69	18177
2026-01-17 20:46:48.23	37.56	19.64	-49.2	-51.5	3.8	0.00e+00	0	50	104	0	69	19474
2026-01-17 20:46:50.26	37.97	19.95	-50.4	-53.3	3.7	0.00e+00	0	50	104	0	71	21146
2026-01-17 20:46:52.26	38.38	20.26	-50.1	-52.8	3.9	0.00e+00	0	50	104	0	71	20163
2026-01-17 20:46:54.27	38.80	20.58	-50.4	-53.2	3.8	0.00e+00	0	50	104	0	71	21071
2026-01-17 20:46:56.28	39.23	20.89	-50.7	-53.7	3.8	0.00e+00	0	50	104	0	72	21093
2026-01-17 20:46:58.27	39.66	21.21	-50.7	-53.6	3.8	0.00e+00	0	50	104	0	72	20857
2026-01-17 20:47:00.26	40.11	21.54	-50.7	-53.6	3.7	0.00e+00	0	50	104	0	72	20843
2026-01-17 20:47:02.25	40.56	21.86	-51.5	-55.0	3.7	0.00e+00	0	50	104	0	73	23016
2026-01-17 20:47:04.25	41.03	22.19	-51.8	-55.7	3.7	0.00e+00	0	50	104	0	75	22151
2026-01-17 20:47:06.25	41.52	22.53	-51.8	-55.6	3.7	0.00e+00	0	50	104	0	75	21995
2026-01-17 20:47:08.24	42.01	22.87	-51.8	-55.9	3.7	0.00e+00	0	50	104	0	75	22727
2026-01-17 20:47:10.49	42.57	23.25	-52.1	-56.6	3.7	0.00e+00	0	50	104	0	75	24607
2026-01-17 20:47:12.48	43.09	23.60	-52.3	-56.7	3.7	0.00e+00	0	50	104	0	75	25077
2026-01-17 20:47:14.75	43.69	23.99	-52.4	-56.9	3.7	0.00e+00	0	50	104	0	75	25415
2026-01-17 20:47:16.74	44.24	24.35	-52.4	-56.8	3.7	0.00e+00	0	50	104	0	75	25216
2026-01-17 20:47:18.76	44.81	24.71	-52.6	-57.0	3.7	0.00e+00	0	50	104	0	75	25887
2026-01-17 20:47:20.75	45.38	25.07	-51.7	-55.4	3.7	0.00e+00	0	50	104	0	75	21517
2026-01-17 20:47:22.78	45.98	25.44	-51.7	-55.3	3.7	0.00e+00	0	50	104	0	75	21302
2026-01-17 20:47:24.77	46.58	25.80	-51.8	-55.7	3.7	0.00e+00	0	50	104	0	75	22295
2026-01-17 20:47:26.76	47.20	26.17	-51.8	-55.6	3.7	0.00e+00	0	50	104	0	75	21938
2026-01-17 20:47:28.75	47.83	26.54	-52.5	-56.8	3.7	0.00e+00	0	50	104	0	75	25211
2026-01-17 20:47:31.04	48.58	26.98	-52.3	-56.6	3.7	0.00e+00	0	50	104	0	75	24577
2026-01-17 20:47:33.24	49.32	27.39	-52.0	-56.4	3.7	0.00e+00	0	50	104	0	75	23984
2026-01-17 20:47:35.23	50.01	27.77	-52.1	-56.3	3.7	0.00e+00	0	50	104	0	75	23718
2026-01-17 20:47:37.23	50.72	28.16	-52.1	-56.2	3.7	0.00e+00	0	50	104	0	75	23574
2026-01-17 20:47:39.25	51.46	28.55	-51.8	-56.0	3.7	0.00e+00	0	50	104	0	75	22960
2026-01-17 20:47:41.24	52.20	28.94	-51.8	-56.2	3.7	0.00e+00	0	50	104	0	75	23502
2026-01-17 20:47:43.26	52.98	29.33	-52.1	-56.5	3.7	0.00e+00	0	50	104	0	75	24508
2026-01-17 20:47:45.27	53.77	29.72	-52.5	-57.2	3.7	0.00e+00	0	50	104	0	75	26330
2026-01-17 20:47:47.55	54.70	30.17	-52.5	-56.7	3.7	0.00e+00	0	50	104	0	75	24925
2026-01-17 20:47:49.57	55.54	30.57	-52.7	-57.1	3.7	0.00e+00	0	50	104	0	76	24676
2026-01-17 20:47:51.62	56.42	30.97	-52.3	-57.0	3.7	0.00e+00	0	50	104	0	76	24252
2026-01-17 20:47:53.61	57.30	31.36	-52.5	-57.0	3.7	0.00e+00	0	50	104	0	76	24386
2026-01-17 20:47:55.60	58.20	31.75	-52.7	-57.1	3.7	0.00e+00	0	50	104	0	76	24556
2026-01-17 20:47:57.59	59.12	32.14	-52.3	-57.0	3.7	0.00e+00	0	50	104	0	76	24260
2026-01-17 20:47:59.58	60.07	32.52	-52.3	-56.9	3.7	0.00e+00	0	50	104	0	76	24003
2026-01-17 20:48:01.57	61.04	32.91	-52.8	-57.3	3.7	0.00e+00	0	50	104	0	76	25250
2026-01-17 20:48:03.56	62.03	33.29	-52.7	-57.1	3.7	0.00e+00	0	50	104	0	76	24577
2026-01-17 20:48:05.54	63.05	33.67	-52.8	-57.1	3.7	0.00e+00	0	50	104	0	76	24706
2026-01-17 20:48:07.53	64.10	34.04	-52.6	-57.0	3.7	0.00e+00	0	50	104	0	76	24355
2026-01-17 20:48:09.52	65.17	34.41	-52.9	-57.5	3.7	0.00e+00	0	50	104	0	76	25742
2026-01-17 20:48:11.51	66.26	34.77	-52.9	-57.4	3.7	0.00e+00	0	50	104	0	76	25626
2026-01-17 20:48:13.50	67.39	35.13	-52.8	-57.1	3.7	0.00e+00	0	50	104	0	76	24749
2026-01-17 20:48:15.49	68.54	35.48	-52.8	-57.2	3.7	0.00e+00	0	50	104	0	76	24940
2026-01-17 20:48:17.48	69.71	35.82	-52.6	-56.8	3.7	0.00e+00	0	50	104	0	76	23933
2026-01-17 20:48:19.47	70.91	36.15	-52.6	-56.9	3.7	0.00e+00	0	50	104	0	76	24201
2026-01-17 20:48:21.46	72.14	36.47	-52.4	-56.7	3.7	0.00e+00	0	51	104	0	76	23503
2026-01-17 20:48:23.46	73.40	36.79	-52.4	-56.7	3.7	0.00e+00	0	50	104	0	76	23637
2026-01-17 20:48:25.47	74.69	37.09	-52.4	-56.7	3.7	0.00e+00	0	51	104	0	76	23495
2026-01-17 20:48:27.69	76.15	37.41	-52.5	-56.9	3.7	0.00e+00	0	50	104	0	76	24166
2026-01-17 20:48:29.71	77.50	37.69	-52.6	-57.0	3.7	0.00e+00	0	50	104	0	76	24405
2026-01-17 20:48:31.71	78.86	37.95	-52.6	-57.2	3.7	0.00e+00	0	50	104	0	76	24908
2026-01-17 20:48:33.70	80.23	38.19	-52.3	-56.9	3.7	0.00e+00	0	51	104	0	76	24184
2026-01-17 20:48:35.70	81.64	38.42	-52.1	-56.9	3.7	0.00e+00	0	51	104	0	76	24128
2026-01-17 20:48:37.73	83.08	38.64	-51.5	-56.2	3.7	0.00e+00	0	50	104	0	75	23599
2026-01-17 20:48:39.80	84.58	38.84	-52.0	-56.7	3.7	0.00e+00	0	50	104	0	75	24945
2026-01-17 20:48:41.86	86.08	39.02	-51.5	-56.4	3.7	0.00e+00	0	51	104	0	75	24010
2026-01-17 20:48:43.85	87.55	39.17	-51.9	-56.9	3.7	0.00e+00	0	50	104	0	75	25500
2026-01-17 20:48:45.84	89.04	39.31	-52.3	-57.0	3.7	0.00e+00	0	51	104	0	75	25796
2026-01-17 20:48:47.83	90.53	39.42	-52.5	-57.1	3.7	0.00e+00	0	50	104	0	75	26254
2026-01-17 20:48:49.81	92.03	39.52	-52.1	-56.9	3.7	0.00e+00	0	50	104	0	75	25635
2026-01-17 20:48:51.88	93.61	39.59	-52.6	-57.1	3.7	0.00e+00	0	50	104	0	75	26270
2026-01-17 20:48:53.87	95.13	39.65	-52.6	-57.1	3.7	0.00e+00	0	51	104	0	75	26148
2026-01-17 20:48:55.92	96.70	39.68	-52.5	-57.1	3.7	0.00e+00	0	50	104	0	76	24739
2026-01-17 20:48:57.98	98.28	39.68	-52.5	-57.2	3.7	0.00e+00	0	51	104	0	76	24830
2026-01-17 20:48:59.97	99.81	39.67	-52.5	-57.1	3.7	0.00e+00	0	51	104	0	76	24755
2026-01-17 20:49:01.97	101.34	39.63	-52.8	-57.4	3.7	0.00e+00	0	50	104	0	76	25477
2026-01-17 20:49:04.18	103.03	39.57	-52.1	-56.7	3.7	0.00e+00	0	51	104	0	76	23590
2026-01-17 20:49:06.50	104.79	39.47	-52.5	-56.9	3.7	0.00e+00	0	50	104	0	76	23968
2026-01-17 20:49:08.65	106.42	39.36	-52.6	-57.0	3.7	0.00e+00	0	51	104	0	76	24353
2026-01-17 20:49:10.65	107.91	39.23	-52.5	-56.8	3.7	0.00e+00	0	50	104	0	76	23889
2026-01-17 20:49:12.64	109.39	39.08	-52.7	-57.0	3.7	0.00e+00	0	51	104	0	76	24255
2026-01-17 20:49:14.63	110.86	38.91	-52.6	-57.1	3.7	0.00e+00	0	50	104	0	76	24624
2026-01-17 20:49:16.62	112.30	38.73	-52.7	-57.3	3.7	0.00e+00	0	51	104	0	76	25122
2026-01-17 20:49:18.61	113.73	38.52	-52.6	-57.1	3.7	0.00e+00	0	50	104	0	76	24640
2026-01-17 20:49:20.67	115.19	38.30	-52.4	-57.0	3.7	0.00e+00	0	51	104	0	76	24505
2026-01-17 20:49:22.59	116.53	38.07	-52.6	-57.2	3.7	0.00e+00	0	50	104	0	76	24884
2026-01-17 20:49:24.58	117.90	37.81	-52.4	-56.9	3.7	0.00e+00	0	50	104	0	76	24220
2026-01-17 20:49:26.57	119.24	37.55	-52.5	-57.0	3.7	0.00e+00	0	51	104	0	76	24435
2026-01-17 20:49:28.55	120.56	37.27	-52.6	-56.7	3.7	0.00e+00	0	51	104	0	76	23681
2026-01-17 20:49:30.54	121.86	36.97	-52.5	-56.8	3.7	0.00e+00	0	51	104	0	76	23867
2026-01-17 20:49:32.53	123.13	36.67	-52.0	-56.5	3.7	0.00e+00	0	50	104	0	76	22921
2026-01-17 20:49:34.52	124.38	36.35	-52.0	-56.5	3.7	0.00e+00	0	51	104	0	75	24246
2026-01-17 20:49:36.50	125.59	36.02	-52.5	-56.8	3.7	0.00e+00	0	51	104	0	75	25220
2026-01-17 20:49:38.49	126.79	35.69	-52.5	-57.0	3.7	0.00e+00	0	51	104	0	75	25757
2026-01-17 20:49:40.46	127.95	35.34	-52.6	-56.8	3.7	0.00e+00	0	50	104	0	75	25235
2026-01-17 20:49:42.48	129.11	34.98	-52.7	-57.1	3.7	0.00e+00	0	51	104	0	76	24682
2026-01-17 20:49:44.50	130.25	34.62	-52.2	-56.7	3.7	0.00e+00	0	51	104	0	76	23587
2026-01-17 20:49:46.73	131.47	34.21	-52.0	-56.3	3.7	0.00e+00	0	50	104	0	75	23963
2026-01-17 20:49:48.82	132.58	33.82	-52.3	-56.6	3.7	0.00e+00	0	51	104	0	75	24733
2026-01-17 20:49:50.84	133.63	33.43	-51.3	-55.9	3.7	0.00e+00	0	51	104	0	74	24116
2026-01-17 20:49:52.92	134.69	33.03	-52.5	-56.6	3.7	0.00e+00	0	51	104	0	75	24657
2026-01-17 20:49:54.99	135.71	32.63	-52.3	-56.3	3.7	0.00e+00	0	51	104	0	75	23772
2026-01-17 20:49:57.06	136.71	32.23	-52.4	-56.7	3.7	0.00e+00	0	50	104	0	75	25093
2026-01-17 20:49:59.40	137.81	31.77	-52.0	-56.3	3.7	0.00e+00	0	51	104	0	75	23786
2026-01-17 20:50:01.58	138.80	31.34	-52.1	-56.0	3.7	0.00e+00	0	51	104	0	75	22921
2026-01-17 20:50:03.56	139.67	30.95	-52.2	-56.5	3.7	0.00e+00	0	51	104	0	75	24311
2026-01-17 20:50:05.56	140.54	30.55	-52.1	-56.0	3.7	0.00e+00	0	51	104	0	75	23024
2026-01-17 20:50:07.54	141.37	30.16	-52.2	-56.1	3.7	0.00e+00	0	51	104	0	75	23346
2026-01-17 20:50:09.53	142.18	29.77	-52.2	-56.7	3.7	0.00e+00	0	51	104	0	75	24839
2026-01-17 20:50:11.52	142.98	29.37	-51.9	-56.2	3.7	0.00e+00	0	50	104	0	75	23420
2026-01-17 20:50:13.51	143.75	28.98	-51.7	-56.1	3.7	0.00e+00	0	50	104	0	75	23166
2026-01-17 20:50:15.50	144.50	28.59	-52.2	-56.5	3.7	0.00e+00	0	50	104	0	75	24518
2026-01-17 20:50:17.49	145.24	28.21	-52.1	-56.9	3.7	0.00e+00	0	51	104	0	75	25481
2026-01-17 20:50:19.76	146.05	27.77	-52.0	-56.8	3.7	0.00e+00	0	51	104	0	75	25291
2026-01-17 20:50:21.80	146.76	27.37	-52.3	-57.0	3.7	0.00e+00	0	51	104	0	75	25833
2026-01-17 20:50:23.81	147.44	26.99	-52.1	-56.9	3.7	0.00e+00	0	51	104	0	75	25658
2026-01-17 20:50:25.81	148.11	26.61	-51.6	-56.6	3.7	0.00e+00	0	50	104	0	75	24565
2026-01-17 20:50:27.83	148.76	26.23	-51.3	-56.1	3.7	0.00e+00	0	51	104	0	74	24660
2026-01-17 20:50:29.82	149.38	25.85	-51.2	-56.2	3.7	0.00e+00	0	51	104	0	74	24816
2026-01-17 20:50:31.81	149.99	25.48	-51.0	-56.1	3.7	0.00e+00	0	51	104	0	73	26252
2026-01-17 20:50:33.80	150.58	25.12	-51.5	-56.1	3.7	0.00e+00	0	51	104	0	73	25988
2026-01-17 20:50:35.79	151.16	24.75	-51.9	-56.4	3.7	0.00e+00	0	51	104	0	74	25455
2026-01-17 20:50:37.78	151.73	24.39	-51.9	-56.5	3.7	0.00e+00	0	51	104	0	74	25730
2026-01-17 20:50:39.77	152.28	24.04	-52.1	-56.7	3.7	0.00e+00	0	51	104	0	74	26566
2026-01-17 20:50:41.75	152.81	23.69	-51.9	-56.3	3.7	0.00e+00	0	51	104	0	74	25315
2026-01-17 20:50:43.74	153.34	23.34	-52.3	-57.1	3.7	0.00e+00	0	51	104	0	75	26204
2026-01-17 20:50:45.73	153.85	22.99	-51.7	-56.2	3.7	0.00e+00	0	51	104	0	75	23435
2026-01-17 20:50:47.72	154.35	22.65	-51.8	-56.5	3.7	0.00e+00	0	51	104	0	75	24324
2026-01-17 20:50:49.73	154.84	22.31	-51.8	-56.4	3.7	0.00e+00	0	51	104	0	75	24081
2026-01-17 20:50:51.72	155.32	21.98	-52.3	-56.8	3.7	0.00e+00	0	51	104	0	75	25367
2026-01-17 20:50:53.71	155.78	21.64	-52.5	-57.0	3.7	0.00e+00	0	51	104	0	75	25824
2026-01-17 20:50:55.69	156.23	21.32	-52.1	-56.6	3.7	0.00e+00	0	51	104	0	75	24606
2026-01-17 20:50:57.63	156.66	21.00	-52.0	-56.6	3.7	0.00e+00	0	51	104	0	75	24681
2026-01-17 20:50:59.63	157.10	20.68	-51.8	-56.5	3.7	0.00e+00	0	51	104	0	75	24455
2026-01-17 20:51:01.62	157.52	20.37	-51.9	-56.6	3.7	0.00e+00	0	51	104	0	75	24696
2026-01-17 20:51:03.60	157.93	20.06	-52.0	-56.7	3.7	0.00e+00	0	51	104	0	75	24822
2026-01-17 20:51:05.59	158.34	19.75	-51.9	-56.6	3.7	0.00e+00	0	51	104	0	75	24562
2026-01-17 20:51:07.60	158.74	19.44	-51.7	-56.5	3.7	0.00e+00	0	51	104	0	75	24302
2026-01-17 20:51:09.55	159.12	19.14	-51.9	-56.5	3.7	0.00e+00	0	51	104	0	75	24480
2026-01-17 20:51:11.57	159.50	18.84	-51.9	-56.6	3.7	0.00e+00	0	51	104	0	75	24786
2026-01-17 20:51:13.58	159.87	18.54	-51.6	-56.5	3.7	0.00e+00	0	51	104	0	75	24388
2026-01-17 20:51:15.58	160.24	18.25	-51.9	-56.6	3.7	0.00e+00	0	51	104	0	75	24701
2026-01-17 20:51:17.59	160.59	17.96	-52.1	-56.7	3.7	0.00e+00	0	51	104	0	75	24871
2026-01-17 20:51:19.72	160.97	17.65	-51.7	-55.9	3.7	0.00e+00	0	51	104	0	75	22672
2026-01-17 20:51:21.71	161.30	17.37	-51.5	-55.7	3.7	0.00e+00	0	51	104	0	75	22300
2026-01-17 20:51:23.70	161.63	17.10	-51.4	-56.0	3.7	0.00e+00	0	51	104	0	74	24279
2026-01-17 20:51:25.69	161.96	16.82	-51.3	-56.1	3.7	0.00e+00	0	51	104	0	74	24641
2026-01-17 20:51:28.02	162.33	16.50	-51.2	-56.0	3.7	0.00e+00	0	51	104	0	74	24384
2026-01-17 20:51:30.05	162.65	16.23	-51.3	-56.1	3.7	0.00e+00	0	51	104	0	74	24709
2026-01-17 20:51:32.04	162.95	15.97	-51.4	-56.2	3.7	0.00e+00	0	51	104	0	74	24859
2026-01-17 20:51:34.03	163.25	15.71	-51.5	-56.1	3.7	0.00e+00	0	51	104	0	74	24701
2026-01-17 20:51:36.02	163.54	15.45	-51.9	-56.5	3.7	0.00e+00	0	51	104	0	74	25766
2026-01-17 20:51:38.01	163.83	15.19	-51.7	-56.3	3.7	0.00e+00	0	51	104	0	74	25236
2026-01-17 20:51:39.99	164.11	14.94	-51.6	-56.4	3.7	0.00e+00	0	51	104	0	74	25412
2026-01-17 20:51:41.95	164.38	14.70	-51.2	-56.0	3.7	0.00e+00	0	51	104	0	74	24511
2026-01-17 20:51:43.94	164.65	14.45	-51.1	-55.9	3.7	0.00e+00	0	51	104	0	74	24056
2026-01-17 20:51:46.03	164.93	14.19	-51.1	-55.9	3.7	0.00e+00	0	51	104	0	73	25466
2026-01-17 20:51:48.02	165.19	13.95	-47.8	-55.1	3.9	0.00e+00	0	51	104	0	67	33014
2026-01-17 20:51:50.01	165.44	13.71	-48.1	-54.8	3.9	0.00e+00	0	51	104	0	67	31914
2026-01-17 20:51:52.01	165.69	13.48	-50.9	-55.6	3.7	0.00e+00	0	51	104	0	72	25991
2026-01-17 20:51:54.02	165.94	13.24	-51.2	-55.9	3.7	0.00e+00	0	51	104	0	73	25415
2026-01-17 20:51:56.02	166.18	13.01	-50.7	-55.4	3.7	0.00e+00	0	51	104	0	73	24210
2026-01-17 20:51:58.02	166.42	12.78	-51.0	-55.5	3.6	0.00e+00	0	51	104	0	73	24249
2026-01-17 20:52:00.09	166.66	12.55	-51.0	-55.3	3.7	0.00e+00	0	51	104	0	73	23780
2026-01-17 20:52:02.43	166.93	12.28	-50.9	-55.4	3.7	0.00e+00	0	51	104	0	73	24097
2026-01-17 20:52:04.48	167.16	12.06	-49.9	-54.6	3.7	0.00e+00	0	51	104	0	71	24669
2026-01-17 20:52:06.46	167.38	11.84	-49.1	-54.0	3.7	0.00e+00	0	51	104	0	69	25783
2026-01-17 20:52:08.45	167.59	11.62	-47.5	-52.8	3.7	0.00e+00	0	51	104	0	67	25144
2026-01-17 20:52:10.44	167.81	11.41	-47.6	-52.7	3.7	0.00e+00	0	51	104	0	66	26557
2026-01-17 20:52:12.43	168.01	11.20	-47.9	-53.0	3.7	0.00e+00	0	51	104	0	66	27312
2026-01-17 20:52:14.42	168.22	10.99	-48.0	-53.2	3.7	0.00e+00	0	51	104	0	67	26393
2026-01-17 20:52:16.43	168.42	10.78	-47.4	-52.7	3.6	0.00e+00	0	51	104	0	66	26379
2026-01-17 20:52:18.45	168.62	10.57	-47.4	-52.5	3.7	0.00e+00	0	51	104	0	66	25969
2026-01-17 20:52:20.43	168.82	10.37	-47.3	-52.4	3.7	0.00e+00	0	51	104	0	66	25429
2026-01-17 20:52:22.44	169.01	10.17	-47.4	-52.5	3.7	0.00e+00	0	51	104	0	66	25778
2026-01-17 20:52:24.53	169.21	9.96	-47.6	-52.7	3.7	0.00e+00	0	51	104	0	66	26480
2026-01-17 20:52:26.52	169.39	9.76	-46.2	-51.5	3.7	0.00e+00	0	51	104	0	64	25897
2026-01-17 20:52:28.51	169.58	9.57	-45.1	-50.4	3.7	0.00e+00	0	51	104	0	62	25505
2026-01-17 20:52:30.50	169.75	9.37	-44.6	-49.9	3.7	0.00e+00	0	51	104	0	61	25424
2026-01-17 20:52:32.49	169.93	9.18	-45.0	-50.2	3.7	0.00e+00	0	51	104	0	60	28078
2026-01-17 20:52:34.52	170.11	8.99	-46.6	-51.9	3.7	0.00e+00	0	51	104	0	63	28484
2026-01-17 20:52:36.51	170.28	8.80	-51.4	-55.9	3.7	0.00e+00	0	51	104	0	73	25547
2026-01-17 20:52:38.49	170.45	8.61	-51.8	-56.4	3.7	0.00e+00	0	51	104	0	74	25513
2026-01-17 20:52:40.48	170.61	8.43	-52.2	-56.7	3.7	0.00e+00	0	51	104	0	75	25055
2026-01-17 20:52:42.47	170.78	8.25	-50.8	-56.5	3.8	0.00e+00	0	51	104	0	72	28945
2026-01-17 20:52:44.46	170.94	8.06	-52.2	-56.5	3.7	0.00e+00	0	51	104	0	74	25897
2026-01-17 20:52:46.44	171.10	7.89	-52.5	-56.8	3.7	0.00e+00	0	51	104	0	76	23732
2026-01-17 20:52:48.43	171.25	7.71	-52.8	-57.2	3.7	0.00e+00	0	51	104	0	76	25022
2026-01-17 20:52:50.42	171.41	7.53	-52.3	-56.9	3.7	0.00e+00	0	51	104	0	76	24029
2026-01-17 20:52:52.40	171.56	7.36	-52.8	-57.2	3.7	0.00e+00	0	51	104	0	76	25052
2026-01-17 20:52:54.39	171.71	7.18	-51.8	-56.7	3.7	0.00e+00	0	51	104	0	75	24976
2026-01-17 20:52:56.38	171.85	7.01	-52.6	-57.0	3.7	0.00e+00	0	51	104	0	76	24358
2026-01-17 20:52:58.37	172.00	6.84	-52.1	-56.5	3.7	0.00e+00	0	51	104	0	75	24264
2026-01-17 20:53:00.35	172.14	6.67	-52.0	-55.9	3.7	0.00e+00	0	51	104	0	75	22734
2026-01-17 20:53:02.34	172.28	6.50	-52.2	-57.0	3.7	0.00e+00	0	51	104	0	75	25819
2026-01-17 20:53:04.32	172.42	6.34	-51.6	-56.0	3.7	0.00e+00	0	51	104	0	74	24522
2026-01-17 20:53:06.39	172.57	6.17	-51.6	-56.0	3.7	0.00e+00	0	51	104	0	74	24503
2026-01-17 20:53:08.41	172.70	6.00	-51.6	-56.0	3.7	0.00e+00	0	51	104	0	74	24335
2026-01-17 20:53:10.41	172.84	5.84	-51.6	-56.0	3.7	0.00e+00	0	51	104	0	74	24437
2026-01-17 20:53:12.59	172.98	5.66	-51.6	-56.0	3.7	0.00e+00	0	51	104	0	74	24463
2026-01-17 20:53:14.62	173.12	5.50	-51.6	-56.0	3.7	0.00e+00	0	51	104	0	74	24483
2026-01-17 20:53:16.62	173.24	5.34	-51.6	-56.0	3.7	0.00e+00	0	51	104	0	74	24454
2026-01-17 20:53:18.61	173.37	5.18	-51.6	-56.0	3.7	0.00e+00	0	51	104	0	74	24396
2026-01-17 20:53:20.60	173.50	5.02	-51.2	-55.8	3.7	0.00e+00	0	51	104	0	74	23877

#Closed at: 2026-01-17 20:53:22
#Recorded file [0 MB]: D:/Data/31040_260117_234431.dat