passes_logs/2026/01/17/T1/T1__20260117_131211_FENGYUN_3E_rec.log

#Pass ID: 20260117_131211_FENGYUN 3E
#Satellite: FENGYUN 3E
#Configuration: FENGYUN 3E
#almurnet v.1.7.20251203
#Start time: 2026-01-17 13:12:12

#Version: 2.0.20230620
#Station: T1
#Location: 37.570604 lon 55.790049 lat
#TLE: 1 49008U 21062A   26016.55599566  .00000255  00000+0  14071-3 0  9994
#TLE: 2 49008  98.7485  21.6664 0002094 134.5344 225.6004 14.19886148235063

#Time	Az	El	Level	Level2	SNR	BER	BlckErr	Temp	State	Recorded	gain1	gain2
2026-01-17 13:12:12.02	128.66	5.03	-50.3	-60.9	3.8	8.47e-01	0	39	0	0	71	11924
2026-01-17 13:12:15.00	128.50	5.24	-50.2	-60.9	3.8	8.48e-01	0	39	104	0	71	11898
2026-01-17 13:12:17.98	128.35	5.44	-50.2	-60.9	3.8	8.48e-01	0	40	104	0	71	11859
2026-01-17 13:12:20.95	128.19	5.64	-50.1	-60.8	3.8	8.48e-01	0	40	104	0	71	11804
2026-01-17 13:12:23.93	128.03	5.85	-50.2	-61.0	3.8	8.47e-01	0	40	104	0	71	11965
2026-01-17 13:12:26.92	127.86	6.06	-50.2	-61.0	3.8	8.47e-01	0	40	104	0	71	12072
2026-01-17 13:12:29.89	127.69	6.27	-50.1	-61.0	3.8	8.46e-01	0	40	104	0	71	11997
2026-01-17 13:12:32.87	127.52	6.48	-50.2	-60.8	3.8	8.47e-01	0	40	104	0	71	11767
2026-01-17 13:12:35.85	127.35	6.69	-50.2	-60.7	3.8	8.47e-01	0	40	104	0	70	12249
2026-01-17 13:12:38.83	127.18	6.90	-50.1	-60.9	3.8	8.46e-01	0	40	104	0	70	12580
2026-01-17 13:12:41.81	127.00	7.12	-50.2	-60.8	3.8	8.47e-01	0	41	104	0	70	12435
2026-01-17 13:12:44.79	126.82	7.33	-50.0	-59.2	3.8	8.47e-01	0	41	104	0	70	10406
2026-01-17 13:12:47.77	126.64	7.55	-49.6	-57.6	4.2	8.40e-01	0	41	0	0	70	8656
2026-01-17 13:12:50.75	126.45	7.77	-47.9	-52.2	7.4	1.57e-01	0	41	0	6291456	66	5833
2026-01-17 13:12:53.73	126.26	7.99	-44.2	-46.4	13.3	9.61e-05	0	41	0	28311552	59	4462
2026-01-17 13:12:56.71	126.07	8.21	-41.1	-42.7	16.7	0.00e+00	0	41	0	49283072	52	4380
2026-01-17 13:12:59.69	125.87	8.44	-39.8	-41.4	17.8	0.00e+00	0	41	0	71303168	50	4208
2026-01-17 13:13:02.67	125.68	8.67	-40.7	-42.4	17.0	0.00e+00	0	41	0	92274688	50	4711
2026-01-17 13:13:05.65	125.47	8.89	-43.2	-45.1	14.4	0.00e+00	0	41	0	114294784	55	4870
2026-01-17 13:13:08.63	125.27	9.12	-43.2	-45.2	14.5	1.45e-04	0	41	0	135266304	57	4345
2026-01-17 13:13:11.62	125.06	9.36	-42.7	-44.6	15.1	9.61e-04	0	41	0	156237824	56	4309
2026-01-17 13:13:14.60	124.85	9.59	-41.8	-43.6	16.0	1.25e-05	0	41	0	174063616	54	4321
2026-01-17 13:13:17.58	124.63	9.82	-40.6	-42.2	17.4	0.00e+00	0	41	0	196083712	51	4369
2026-01-17 13:13:20.57	124.42	10.06	-40.5	-42.1	17.5	1.10e-06	0	41	0	217055232	51	4319
2026-01-17 13:13:23.55	124.19	10.30	-40.0	-41.5	18.1	4.50e-06	0	41	0	239075328	50	4258
2026-01-17 13:13:26.53	123.97	10.54	-39.5	-41.0	18.5	0.00e+00	0	41	0	260046848	49	4278
2026-01-17 13:13:29.55	123.73	10.79	-39.0	-40.5	19.0	0.00e+00	0	41	0	282066944	48	4264
2026-01-17 13:13:32.53	123.50	11.03	-39.0	-40.5	19.0	0.00e+00	0	41	0	303038464	48	4249
2026-01-17 13:13:35.52	123.26	11.28	-38.7	-40.1	19.3	0.00e+00	0	41	0	325058560	48	4078
2026-01-17 13:13:38.50	123.02	11.53	-38.5	-39.9	19.1	0.00e+00	0	42	0	346030080	47	4242
2026-01-17 13:13:41.49	122.77	11.78	-38.5	-40.0	19.1	0.00e+00	0	42	0	368050176	47	4281
2026-01-17 13:13:44.47	122.52	12.03	-38.5	-40.0	19.1	0.00e+00	0	42	0	390070272	47	4280
2026-01-17 13:13:47.52	122.26	12.29	-38.5	-40.0	19.2	0.00e+00	0	42	0	411041792	46	4502
2026-01-17 13:13:50.38	122.01	12.54	-38.4	-39.9	19.2	0.00e+00	0	42	0	432013312	46	4465
2026-01-17 13:13:53.50	121.73	12.81	-38.4	-39.9	19.3	0.00e+00	0	42	0	455081984	46	4483
2026-01-17 13:13:56.35	121.47	13.06	-38.2	-39.7	19.4	0.00e+00	0	42	0	475004928	46	4373
2026-01-17 13:13:59.50	121.18	13.34	-37.9	-39.4	19.7	0.00e+00	0	42	0	498073600	46	4215
2026-01-17 13:14:02.35	120.92	13.59	-37.8	-39.3	19.8	0.00e+00	0	42	0	519045120	46	4147
2026-01-17 13:14:05.47	120.62	13.88	-38.0	-39.4	19.7	0.00e+00	0	42	0	541065216	46	4238
2026-01-17 13:14:08.31	120.34	14.13	-38.0	-39.4	19.8	0.00e+00	0	42	0	562036736	46	4202
2026-01-17 13:14:11.44	120.03	14.42	-37.9	-39.4	19.7	0.00e+00	0	42	0	584056832	46	4204
2026-01-17 13:14:14.29	119.74	14.68	-37.9	-39.3	19.8	0.00e+00	0	42	0	605028352	46	4177
2026-01-17 13:14:17.41	119.42	14.97	-37.8	-39.3	19.9	0.00e+00	0	42	0	627048448	46	4160
2026-01-17 13:14:20.35	119.11	15.25	-37.8	-39.2	19.9	0.00e+00	0	42	0	649068544	46	4123
2026-01-17 13:14:23.56	118.77	15.55	-37.5	-38.9	20.1	0.00e+00	0	42	0	672137216	45	4212
2026-01-17 13:14:26.40	118.46	15.82	-37.5	-38.9	20.1	0.00e+00	0	42	0	692060160	45	4237
2026-01-17 13:14:29.53	118.11	16.12	-37.4	-38.8	20.2	0.00e+00	0	42	0	715128832	45	4182
2026-01-17 13:14:32.37	117.78	16.40	-37.3	-38.8	20.2	0.00e+00	0	42	0	735051776	45	4152
2026-01-17 13:14:35.50	117.42	16.71	-37.2	-38.6	20.4	0.00e+00	0	42	0	758120448	45	4079
2026-01-17 13:14:38.34	117.09	16.99	-37.1	-38.5	20.5	0.00e+00	0	42	0	778043392	44	4279
2026-01-17 13:14:41.57	116.70	17.31	-37.0	-38.5	20.5	0.00e+00	0	42	0	802160640	44	4251
2026-01-17 13:14:44.47	116.34	17.60	-37.0	-38.4	20.6	0.00e+00	0	42	0	822083584	44	4213
2026-01-17 13:14:47.74	115.93	17.93	-37.1	-38.5	20.5	0.00e+00	0	42	0	846200832	44	4251
2026-01-17 13:14:50.53	115.57	18.21	-37.0	-38.4	20.6	0.00e+00	0	42	0	866123776	44	4221
2026-01-17 13:14:53.60	115.17	18.53	-36.8	-38.2	20.8	0.00e+00	0	42	0	888143872	44	4117
2026-01-17 13:14:57.06	114.70	18.89	-36.4	-37.7	21.0	0.00e+00	0	42	0	913309696	43	4138
2026-01-17 13:14:59.79	114.33	19.17	-36.5	-37.8	21.0	0.00e+00	0	42	0	933232640	43	4168
2026-01-17 13:15:03.03	113.87	19.51	-36.1	-37.4	21.4	0.00e+00	0	42	0	957349888	43	3969
2026-01-17 13:15:05.87	113.47	19.81	-36.1	-37.4	21.3	0.00e+00	0	42	0	977272832	42	4232
2026-01-17 13:15:09.00	113.01	20.15	-36.2	-37.5	21.2	0.00e+00	0	42	0	999292928	42	4265
2026-01-17 13:15:11.86	112.59	20.46	-36.9	-37.8	21.6	0.00e+00	0	42	0	1020264448	43	4176
2026-01-17 13:15:14.99	112.11	20.80	-36.9	-37.8	21.6	0.00e+00	0	42	0	1043333120	43	4186
2026-01-17 13:15:17.83	111.67	21.11	-36.9	-37.8	21.7	0.00e+00	0	42	0	1063256064	43	4162
2026-01-17 13:15:20.96	111.17	21.45	-36.9	-37.8	21.7	0.00e+00	0	42	0	1086324736	43	4152
2026-01-17 13:15:23.81	110.71	21.77	-36.6	-37.5	21.9	0.00e+00	0	42	0	1106247680	43	4014
2026-01-17 13:15:27.00	110.18	22.12	-36.6	-37.5	21.9	0.00e+00	0	42	0	1129316352	43	4037
2026-01-17 13:15:29.90	109.69	22.45	-36.7	-37.6	21.9	0.00e+00	0	42	0	1150287872	43	4053
2026-01-17 13:15:33.09	109.13	22.81	-36.5	-37.3	22.1	0.00e+00	0	42	0	1173356544	43	3940
2026-01-17 13:15:35.99	108.62	23.13	-36.5	-37.4	22.0	0.00e+00	0	42	0	1194328064	43	3962
2026-01-17 13:15:38.97	108.08	23.47	-36.5	-37.3	22.1	0.00e+00	0	42	0	1216348160	43	3950
2026-01-17 13:15:41.96	107.52	23.82	-36.4	-37.3	22.1	0.00e+00	0	42	0	1237319680	43	3936
2026-01-17 13:15:44.95	106.96	24.16	-36.2	-37.1	22.3	0.00e+00	0	42	0	1259339776	43	3851
2026-01-17 13:15:47.93	106.38	24.50	-36.0	-36.9	22.5	0.00e+00	0	42	0	1281359872	42	3959
2026-01-17 13:15:51.00	105.77	24.86	-35.8	-36.7	22.7	0.00e+00	0	42	0	1303379968	42	3881
2026-01-17 13:15:53.84	105.20	25.19	-35.8	-36.6	22.7	0.00e+00	0	42	0	1323302912	42	3849
2026-01-17 13:15:56.97	104.55	25.55	-35.7	-36.6	22.8	0.00e+00	0	42	0	1346371584	42	3827
2026-01-17 13:15:59.81	103.95	25.89	-35.7	-36.5	22.8	0.00e+00	0	42	0	1366294528	42	3805
2026-01-17 13:16:02.93	103.27	26.25	-35.8	-36.6	22.7	0.00e+00	0	42	0	1389363200	42	3840
2026-01-17 13:16:05.78	102.64	26.59	-36.0	-36.8	22.6	0.00e+00	0	42	0	1410334720	42	3930
2026-01-17 13:16:09.05	101.90	26.97	-36.1	-37.0	22.4	0.00e+00	0	42	0	1433403392	42	4009
2026-01-17 13:16:11.78	101.27	27.29	-36.3	-37.2	22.3	0.00e+00	0	42	0	1453326336	42	4101
2026-01-17 13:16:15.06	100.50	27.67	-36.4	-37.2	22.2	0.00e+00	0	42	0	1476395008	42	4134
2026-01-17 13:16:18.03	99.78	28.02	-36.2	-37.1	22.3	0.00e+00	0	42	0	1498415104	42	4060
2026-01-17 13:16:21.01	99.04	28.37	-36.2	-37.0	22.4	0.00e+00	0	42	0	1519386624	42	4036
2026-01-17 13:16:24.00	98.28	28.72	-36.2	-37.0	22.4	0.00e+00	0	42	0	1541406720	42	4037
2026-01-17 13:16:26.99	97.51	29.06	-36.1	-37.0	22.5	0.00e+00	0	42	0	1562378240	42	4017
2026-01-17 13:16:29.97	96.72	29.41	-36.1	-36.9	22.5	0.00e+00	0	42	0	1584398336	42	3999
2026-01-17 13:16:32.95	95.92	29.75	-35.6	-36.4	22.9	0.00e+00	0	42	0	1605369856	42	3780
2026-01-17 13:16:35.94	95.09	30.09	-35.7	-36.5	22.8	0.00e+00	0	42	0	1627389952	42	3813
2026-01-17 13:16:38.92	94.26	30.43	-35.4	-36.3	23.0	0.00e+00	0	42	0	1648361472	41	3924
2026-01-17 13:16:41.90	93.40	30.76	-35.2	-36.0	23.3	0.00e+00	0	42	0	1670381568	41	3798
2026-01-17 13:16:44.96	92.50	31.10	-35.3	-36.2	23.1	0.00e+00	0	42	0	1692401664	41	3872
2026-01-17 13:16:47.81	91.65	31.41	-35.7	-36.6	22.8	0.00e+00	0	42	0	1713373184	41	4053
2026-01-17 13:16:50.94	90.69	31.75	-35.8	-36.6	22.7	0.00e+00	0	42	0	1735393280	41	4095
2026-01-17 13:16:53.78	89.81	32.05	-35.7	-36.6	22.8	0.00e+00	0	42	0	1756364800	41	4060
2026-01-17 13:16:56.91	88.81	32.37	-35.4	-36.2	23.1	0.00e+00	0	42	0	1778384896	41	3913
2026-01-17 13:16:59.75	87.89	32.67	-35.4	-36.3	23.0	0.00e+00	0	42	0	1799356416	41	3917
2026-01-17 13:17:02.89	86.86	32.98	-35.1	-35.9	23.3	0.00e+00	0	42	0	1822425088	40	3989
2026-01-17 13:17:05.80	85.88	33.26	-35.4	-36.2	23.0	0.00e+00	0	42	0	1843396608	40	4139
2026-01-17 13:17:09.05	84.77	33.57	-35.6	-36.4	22.9	0.00e+00	0	42	0	1866465280	40	4216
2026-01-17 13:17:11.97	83.75	33.84	-35.6	-36.4	22.9	0.00e+00	0	42	0	1887436800	40	4236
2026-01-17 13:17:15.09	82.64	34.12	-35.5	-36.4	22.9	0.00e+00	0	42	0	1910505472	40	4205
2026-01-17 13:17:18.03	81.58	34.38	-35.3	-36.1	23.2	0.00e+00	0	42	0	1931476992	40	4068
2026-01-17 13:17:21.02	80.49	34.63	-35.3	-36.1	23.2	0.00e+00	0	42	0	1952448512	40	4084
2026-01-17 13:17:24.00	79.38	34.87	-35.7	-36.5	22.8	0.00e+00	0	42	0	1974468608	40	4276
2026-01-17 13:17:26.98	78.26	35.09	-35.5	-36.3	23.0	0.00e+00	0	42	0	1996488704	40	4180
2026-01-17 13:17:29.97	77.12	35.31	-35.6	-36.4	22.9	0.00e+00	0	42	0	2017460224	40	4215
2026-01-17 13:17:32.98	75.95	35.52	-35.6	-36.5	22.9	0.00e+00	0	42	0	2039480320	40	4252
2026-01-17 13:17:35.97	74.78	35.71	-35.5	-36.4	23.0	0.00e+00	0	42	0	2060451840	41	3960
2026-01-17 13:17:38.95	73.60	35.89	-35.2	-36.0	23.3	0.00e+00	0	42	0	2082471936	41	3810
2026-01-17 13:17:41.94	72.40	36.06	-35.4	-36.2	23.1	0.00e+00	0	42	0	2103443456	41	3886
2026-01-17 13:17:44.94	71.19	36.21	-35.4	-36.2	23.1	0.00e+00	0	42	0	2125463552	41	3908
2026-01-17 13:17:47.94	69.96	36.35	-35.4	-36.3	23.1	0.00e+00	0	43	0	2147483648	41	3916
2026-01-17 13:17:50.92	68.74	36.48	-35.3	-36.1	23.2	0.00e+00	0	43	0	2168455168	41	3828
2026-01-17 13:17:53.90	67.50	36.59	-35.4	-36.2	23.1	0.00e+00	0	42	0	2190475264	41	3886
2026-01-17 13:17:56.88	66.26	36.68	-35.4	-36.2	23.1	0.00e+00	0	42	0	2211446784	41	3878
2026-01-17 13:17:59.87	65.01	36.77	-35.3	-36.1	23.2	0.00e+00	0	42	0	2233466880	41	3825
2026-01-17 13:18:02.87	63.74	36.83	-35.5	-36.3	23.0	0.00e+00	0	42	0	2255486976	41	3925
2026-01-17 13:18:05.97	62.43	36.88	-35.7	-36.5	22.9	0.00e+00	0	42	0	2277507072	41	4019
2026-01-17 13:18:08.84	61.22	36.91	-35.2	-36.0	23.3	0.00e+00	0	42	0	2298478592	41	3796
2026-01-17 13:18:11.97	59.89	36.93	-35.2	-36.0	23.2	0.00e+00	0	42	0	2320498688	40	4035
2026-01-17 13:18:14.81	58.68	36.93	-35.4	-36.2	23.1	0.00e+00	0	42	0	2341470208	40	4133
2026-01-17 13:18:17.93	57.36	36.92	-35.5	-36.3	23.0	0.00e+00	0	42	0	2363490304	40	4164
2026-01-17 13:18:20.80	56.14	36.89	-35.5	-36.3	23.0	0.00e+00	0	42	0	2384461824	40	4172
2026-01-17 13:18:24.09	54.75	36.83	-35.5	-36.3	23.0	0.00e+00	0	42	0	2408579072	40	4154
2026-01-17 13:18:26.82	53.60	36.78	-35.3	-36.1	23.2	0.00e+00	0	42	0	2428502016	40	4071
2026-01-17 13:18:30.10	52.23	36.69	-35.6	-36.4	22.9	0.00e+00	0	42	0	2451570688	40	4239
2026-01-17 13:18:32.97	51.03	36.60	-35.6	-36.4	23.0	0.00e+00	0	42	0	2472542208	40	4210
2026-01-17 13:18:36.10	49.74	36.48	-35.5	-36.3	23.0	0.00e+00	0	42	0	2494562304	40	4189
2026-01-17 13:18:38.94	48.57	36.37	-35.7	-36.5	22.8	0.00e+00	0	42	0	2515533824	41	4050
2026-01-17 13:18:42.07	47.29	36.22	-35.5	-36.3	23.0	0.00e+00	0	42	0	2538602496	41	3939
2026-01-17 13:18:44.91	46.14	36.08	-35.1	-35.9	23.4	0.00e+00	0	42	0	2558525440	40	3961
2026-01-17 13:18:48.02	44.90	35.90	-35.3	-36.1	23.2	0.00e+00	0	43	0	2580545536	40	4057
2026-01-17 13:18:51.01	43.71	35.72	-35.2	-36.0	23.3	0.00e+00	0	42	0	2602565632	40	4020
2026-01-17 13:18:53.99	42.55	35.53	-35.2	-36.0	23.3	0.00e+00	0	42	0	2623537152	40	4041
2026-01-17 13:18:56.97	41.40	35.33	-35.2	-36.0	23.2	0.00e+00	0	42	0	2645557248	40	4043
2026-01-17 13:18:59.96	40.25	35.11	-35.4	-36.2	23.1	0.00e+00	0	42	0	2667577344	40	4127
2026-01-17 13:19:02.94	39.13	34.89	-35.4	-36.2	23.1	0.00e+00	0	42	0	2688548864	40	4113
2026-01-17 13:19:05.92	38.03	34.65	-35.2	-36.0	23.2	0.00e+00	0	43	0	2710568960	40	4029
2026-01-17 13:19:08.91	36.93	34.40	-35.5	-36.4	22.9	0.00e+00	0	43	0	2731540480	40	4196
2026-01-17 13:19:11.89	35.86	34.15	-35.5	-36.3	23.0	0.00e+00	0	43	0	2753560576	40	4174
2026-01-17 13:19:14.94	34.78	33.87	-35.0	-35.8	23.4	0.00e+00	0	43	0	2775580672	40	3939
2026-01-17 13:19:17.92	33.74	33.60	-35.2	-36.0	23.2	0.00e+00	0	42	0	2796552192	40	4027
2026-01-17 13:19:20.91	32.72	33.32	-35.4	-36.2	22.9	0.00e+00	0	43	0	2818572288	40	4118
2026-01-17 13:19:23.90	31.72	33.03	-34.9	-35.7	23.5	0.00e+00	0	42	0	2839543808	40	3879
2026-01-17 13:19:26.88	30.73	32.73	-35.0	-35.8	23.5	0.00e+00	0	42	0	2861563904	40	3925
2026-01-17 13:19:29.92	29.75	32.42	-35.3	-36.1	23.2	0.00e+00	0	43	0	2883584000	40	4065
2026-01-17 13:19:32.94	28.79	32.11	-35.7	-36.5	22.9	0.00e+00	0	42	0	2905604096	40	4263
2026-01-17 13:19:35.92	27.86	31.79	-35.4	-36.3	23.0	0.00e+00	0	42	0	2926575616	40	4156
2026-01-17 13:19:38.90	26.95	31.47	-35.4	-36.3	23.0	0.00e+00	0	42	0	2948595712	40	4152
2026-01-17 13:19:41.88	26.06	31.15	-35.4	-36.2	23.0	0.00e+00	0	42	0	2969567232	40	4130
2026-01-17 13:19:44.92	25.17	30.81	-35.4	-36.2	23.1	0.00e+00	0	43	0	2991587328	40	4137
2026-01-17 13:19:47.82	24.34	30.49	-35.8	-36.7	22.7	0.00e+00	0	42	0	3012558848	41	4108
2026-01-17 13:19:50.95	23.46	30.14	-35.6	-36.5	22.9	0.00e+00	0	42	0	3035627520	41	4013
2026-01-17 13:19:53.79	22.67	29.82	-35.5	-36.3	22.9	0.00e+00	0	42	0	3055550464	41	3955
2026-01-17 13:19:56.98	21.81	29.45	-35.7	-36.5	22.8	0.00e+00	0	42	0	3078619136	41	4038
2026-01-17 13:19:59.83	21.06	29.13	-35.8	-36.7	22.7	0.00e+00	0	42	0	3099590656	41	4099
2026-01-17 13:20:03.03	20.24	28.76	-36.0	-36.8	22.5	0.00e+00	0	43	0	3122659328	41	4173
2026-01-17 13:20:05.87	19.52	28.43	-36.0	-36.8	22.5	0.00e+00	0	43	0	3142582272	41	4184
2026-01-17 13:20:09.00	18.75	28.06	-35.9	-36.7	22.6	0.00e+00	0	43	0	3165650944	41	4139
2026-01-17 13:20:11.84	18.06	27.73	-35.7	-36.5	22.8	0.00e+00	0	42	0	3185573888	41	4031
2026-01-17 13:20:15.10	17.29	27.35	-35.7	-36.5	22.9	0.00e+00	0	43	0	3209691136	41	4019
2026-01-17 13:20:18.27	16.56	26.98	-35.6	-36.4	22.9	0.00e+00	0	43	0	3232759808	41	3984
2026-01-17 13:20:21.39	15.86	26.62	-35.8	-36.6	22.7	0.00e+00	0	42	0	3254779904	41	4091
2026-01-17 13:20:24.24	15.23	26.28	-35.9	-36.7	22.6	0.00e+00	0	43	0	3275751424	41	4139
2026-01-17 13:20:27.36	14.56	25.92	-36.1	-36.9	22.4	0.00e+00	0	42	0	3297771520	41	4227
2026-01-17 13:20:30.21	13.96	25.59	-36.0	-36.9	22.5	0.00e+00	0	43	0	3318743040	41	4199
2026-01-17 13:20:33.50	13.28	25.21	-35.9	-36.7	22.7	0.00e+00	0	43	0	3341811712	41	4117
2026-01-17 13:20:36.20	12.74	24.89	-35.8	-36.6	22.7	0.00e+00	0	43	0	3361734656	41	4094
2026-01-17 13:20:39.48	12.09	24.52	-36.0	-36.9	22.5	0.00e+00	0	43	0	3385851904	41	4200
2026-01-17 13:20:42.18	11.57	24.21	-36.2	-37.0	22.3	0.00e+00	0	43	0	3404726272	41	4290
2026-01-17 13:20:45.45	10.96	23.83	-36.2	-37.0	22.3	0.00e+00	0	43	0	3428843520	42	4037
2026-01-17 13:20:48.17	10.45	23.52	-36.2	-37.0	22.3	0.00e+00	0	43	0	3448766464	42	4041
2026-01-17 13:20:51.62	9.83	23.13	-36.3	-37.1	22.3	0.00e+00	0	42	0	3472883712	42	4085
2026-01-17 13:20:54.45	9.34	22.81	-36.5	-37.3	22.1	0.00e+00	0	42	0	3493855232	42	4183
2026-01-17 13:20:57.72	8.77	22.44	-36.3	-37.1	22.3	0.00e+00	0	42	0	3516923904	42	4092
2026-01-17 13:21:00.47	8.31	22.14	-36.2	-37.0	22.3	0.00e+00	0	43	0	3536846848	42	4049
2026-01-17 13:21:03.75	7.77	21.77	-36.1	-37.0	22.4	0.00e+00	0	43	0	3560964096	42	4023
2026-01-17 13:21:06.64	7.31	21.46	-36.2	-37.1	22.3	0.00e+00	0	43	0	3581935616	42	4076
2026-01-17 13:21:10.05	6.77	21.08	-36.6	-37.5	22.0	0.00e+00	0	42	0	3606052864	42	4263
2026-01-17 13:21:13.18	6.29	20.74	-36.6	-37.5	21.9	0.00e+00	0	42	0	3629121536	42	4273
2026-01-17 13:21:16.08	5.85	20.43	-36.3	-37.2	22.2	0.00e+00	0	42	0	3650093056	42	4119
2026-01-17 13:21:19.26	5.38	20.09	-36.4	-37.3	22.1	0.00e+00	0	43	0	3673161728	42	4161
2026-01-17 13:21:22.18	4.96	19.78	-36.7	-37.6	21.8	0.00e+00	0	43	0	3694133248	42	4314
2026-01-17 13:21:25.47	4.50	19.43	-37.1	-38.0	21.4	0.00e+00	0	43	0	3717201920	43	4254
2026-01-17 13:21:28.19	4.12	19.15	-37.1	-38.0	21.5	0.00e+00	0	43	0	3737124864	43	4262
2026-01-17 13:21:31.46	3.68	18.81	-37.2	-38.1	21.4	0.00e+00	0	42	0	3761242112	43	4310
2026-01-17 13:21:34.18	3.32	18.53	-37.2	-38.1	21.4	0.00e+00	0	43	0	3780116480	43	4314
2026-01-17 13:21:37.46	2.90	18.19	-37.5	-38.5	21.2	0.00e+00	0	43	0	3804233728	44	4246
2026-01-17 13:21:40.42	2.52	17.89	-37.5	-38.4	21.2	0.00e+00	0	43	0	3825205248	44	4226
2026-01-17 13:21:43.68	2.12	17.57	-37.5	-38.4	21.3	0.00e+00	0	43	0	3849322496	44	4212
2026-01-17 13:21:46.41	1.79	17.29	-37.5	-38.4	21.1	0.00e+00	0	42	0	3869245440	44	4242
2026-01-17 13:21:49.70	1.39	16.97	-37.6	-38.5	21.1	0.00e+00	0	42	0	3892314112	44	4281
2026-01-17 13:21:52.42	1.08	16.70	-37.8	-38.7	21.0	0.00e+00	0	43	0	3912237056	44	4366
2026-01-17 13:21:55.95	0.67	16.36	-37.9	-38.9	20.8	0.00e+00	0	43	0	3937402880	45	4214
2026-01-17 13:21:58.68	0.37	16.10	-38.0	-39.0	20.7	0.00e+00	0	43	0	3957325824	45	4243
2026-01-17 13:22:01.95	0.01	15.78	-38.2	-39.2	20.5	0.00e+00	0	43	0	3980394496	45	4351
2026-01-17 13:22:04.68	359.71	15.52	-38.2	-39.2	20.5	0.00e+00	0	43	0	4000317440	46	4113
2026-01-17 13:22:08.05	359.36	15.21	-38.4	-39.3	20.3	0.00e+00	0	43	0	4024434688	46	4192
2026-01-17 13:22:10.76	359.08	14.96	-38.2	-39.2	20.4	0.00e+00	0	43	0	4044357632	46	4138
2026-01-17 13:22:14.21	358.73	14.64	-38.3	-39.3	20.4	0.00e+00	0	43	0	4069523456	46	4156
2026-01-17 13:22:16.92	358.46	14.39	-38.5	-39.5	20.2	0.00e+00	0	43	0	4089446400	46	4249
2026-01-17 13:22:20.21	358.14	14.09	-38.7	-39.7	20.0	0.00e+00	0	43	0	4112515072	47	4140
2026-01-17 13:22:22.98	357.87	13.84	-39.1	-40.2	19.6	0.00e+00	0	43	0	4132438016	47	4348
2026-01-17 13:22:26.25	357.57	13.55	-39.1	-40.2	19.5	0.00e+00	0	43	0	4156555264	47	4369
2026-01-17 13:22:29.06	357.31	13.30	-39.1	-40.2	19.6	0.00e+00	0	43	0	4176478208	47	4342
2026-01-17 13:22:32.18	357.02	13.03	-38.8	-39.8	19.8	0.00e+00	0	43	0	4199546880	47	4191
2026-01-17 13:22:35.03	356.77	12.78	-38.7	-39.7	19.9	0.00e+00	0	43	0	4219469824	47	4130
2026-01-17 13:22:38.15	356.50	12.51	-38.5	-39.6	20.1	0.00e+00	0	43	0	4242538496	47	4061
2026-01-17 13:22:41.01	356.25	12.26	-38.4	-39.5	20.1	0.00e+00	0	43	0	4262461440	47	4040
2026-01-17 13:22:44.14	355.99	12.00	-38.7	-39.8	19.8	0.00e+00	0	43	0	4285530112	47	4182
2026-01-17 13:22:46.99	355.76	11.76	-38.7	-39.9	19.8	0.00e+00	0	43	0	4305453056	47	4199
2026-01-17 13:22:50.11	355.50	11.50	-39.1	-40.2	19.4	0.00e+00	0	43	0	4328521728	47	4387
2026-01-17 13:22:52.96	355.28	11.26	-39.3	-40.5	19.2	0.00e+00	0	43	0	4348444672	47	4501
2026-01-17 13:22:56.08	355.03	11.00	-39.3	-40.5	19.4	0.00e+00	0	43	0	4371513344	48	4272
2026-01-17 13:22:58.92	354.81	10.77	-39.2	-40.6	19.3	0.00e+00	0	43	0	4392484864	48	4327
2026-01-17 13:23:02.04	354.58	10.52	-39.1	-40.7	19.3	0.00e+00	0	43	0	4414504960	48	4351
2026-01-17 13:23:04.89	354.36	10.29	-39.4	-40.9	19.0	0.00e+00	0	43	0	4435476480	48	4458
2026-01-17 13:23:08.11	354.13	10.03	-39.4	-40.9	19.0	0.00e+00	0	43	0	4458545152	48	4481
2026-01-17 13:23:10.98	353.92	9.81	-39.4	-41.0	18.8	0.00e+00	0	43	0	4479516672	48	4543
2026-01-17 13:23:14.10	353.70	9.56	-39.2	-41.0	18.9	0.00e+00	0	43	0	4501536768	48	4495
2026-01-17 13:23:16.95	353.51	9.34	-39.4	-41.0	18.8	0.00e+00	0	43	0	4522508288	48	4536
2026-01-17 13:23:20.08	353.29	9.10	-39.5	-41.0	18.9	0.00e+00	0	43	0	4544528384	48	4524
2026-01-17 13:23:22.92	353.10	8.88	-48.2	-61.2	3.8	8.47e-01	0	43	104	4558159872	67	15412
2026-01-17 13:23:26.04	352.90	8.64	-50.6	-61.8	3.8	8.47e-01	0	43	104	4558159872	71	13128
2026-01-17 13:23:28.87	352.71	8.43	-50.9	-61.8	3.8	8.46e-01	0	43	104	4558159872	71	13230
2026-01-17 13:23:32.00	352.51	8.20	-51.0	-61.9	3.8	8.46e-01	0	43	104	4558159872	71	13266
2026-01-17 13:23:34.83	352.33	7.99	-51.1	-61.9	3.8	8.47e-01	0	43	104	4558159872	71	13285
2026-01-17 13:23:37.96	352.14	7.75	-51.2	-62.0	3.8	8.46e-01	0	43	104	4558159872	71	13515
2026-01-17 13:23:40.80	351.97	7.55	-51.0	-62.0	3.8	8.47e-01	0	43	104	4558159872	71	13435
2026-01-17 13:23:43.92	351.78	7.32	-51.3	-61.9	3.8	8.46e-01	0	43	104	4558159872	72	12599
2026-01-17 13:23:46.76	351.61	7.11	-51.3	-62.0	3.8	8.47e-01	0	43	104	4558159872	72	12691
2026-01-17 13:23:49.88	351.43	6.89	-51.2	-61.9	3.8	8.47e-01	0	43	104	4558159872	72	12663
2026-01-17 13:23:52.72	351.27	6.69	-50.9	-61.9	3.8	8.47e-01	0	43	104	4558159872	72	12560
2026-01-17 13:23:55.84	351.09	6.47	-50.8	-61.9	3.8	8.47e-01	0	43	104	4558159872	72	12542
2026-01-17 13:23:58.68	350.94	6.27	-50.8	-61.9	3.8	8.49e-01	0	43	104	4558159872	72	12558
2026-01-17 13:24:01.80	350.77	6.05	-50.8	-61.9	3.8	8.47e-01	0	43	104	4558159872	72	12530
2026-01-17 13:24:04.64	350.61	5.85	-50.8	-61.8	3.8	8.46e-01	0	43	104	4558159872	72	12519
2026-01-17 13:24:07.77	350.45	5.64	-50.9	-61.9	3.8	8.45e-01	0	43	104	4558159872	71	13318
2026-01-17 13:24:10.60	350.30	5.45	-50.9	-61.9	3.8	8.46e-01	0	43	104	4558159872	71	13279
2026-01-17 13:24:13.73	350.14	5.23	-50.9	-61.9	3.8	8.47e-01	0	43	104	4558159872	71	13287
2026-01-17 13:24:16.56	350.00	5.04	-50.9	-61.9	3.8	8.47e-01	0	43	104	4558159872	71	13291

#Closed at: 2026-01-17 13:24:18
#Recorded file [4558 MB]: D:/Data/31040_260117_161212.dat