passes_logs/2026/01/17/T1/T1__20260117_121201_SUOMI_NPP_rec.log

#Pass ID: 20260117_121201_SUOMI NPP
#Satellite: SUOMI NPP
#Configuration: NPP
#almurnet v.1.7.20251203
#Start time: 2026-01-17 12:12:01

#Version: 2.0.20230620
#Station: T1
#Location: 37.570604 lon 55.790049 lat
#TLE: 1 37849U 11061A   26016.23176763  .00000061  00000+0  49926-4 0  9990
#TLE: 2 37849  98.7812 318.2698 0002434  61.5135 298.6286 14.19525545736883

#Time	Az	El	Level	Level2	SNR	BER	BlckErr	Temp	State	Recorded	gain1	gain2
2026-01-17 12:12:01.81	236.80	5.04	-50.7	-66.1	3.8	1.49e+00	0	36	0	0	73	20546
2026-01-17 12:12:04.79	237.16	5.17	-50.7	-66.0	3.8	1.49e+00	0	37	104	0	73	20446
2026-01-17 12:12:07.77	237.52	5.30	-50.7	-66.0	3.8	1.49e+00	0	37	104	0	73	20515
2026-01-17 12:12:10.75	237.89	5.43	-50.7	-66.0	3.8	1.49e+00	0	37	104	0	73	20531
2026-01-17 12:12:13.73	238.26	5.56	-50.6	-66.1	3.8	1.49e+00	0	37	104	0	73	20545
2026-01-17 12:12:16.71	238.63	5.69	-50.7	-66.1	3.8	1.49e+00	0	37	104	0	73	20570
2026-01-17 12:12:19.69	239.01	5.82	-50.6	-66.1	3.8	1.49e+00	0	37	104	0	73	20558
2026-01-17 12:12:22.67	239.39	5.95	-50.6	-66.0	3.8	1.49e+00	0	37	104	0	73	20487
2026-01-17 12:12:25.65	239.77	6.08	-50.6	-66.0	3.8	1.49e+00	0	37	104	0	73	20456
2026-01-17 12:12:28.63	240.15	6.21	-50.6	-66.0	3.8	1.49e+00	0	37	104	0	73	20322
2026-01-17 12:12:31.61	240.54	6.34	-50.6	-66.0	3.8	1.49e+00	0	37	104	0	73	20338
2026-01-17 12:12:34.59	240.93	6.46	-50.6	-66.0	3.8	1.49e+00	0	38	104	0	73	20406
2026-01-17 12:12:37.58	241.33	6.59	-50.6	-66.0	3.8	1.49e+00	0	38	104	0	73	20323
2026-01-17 12:12:40.56	241.73	6.72	-50.6	-66.0	3.8	1.49e+00	0	38	104	0	73	20363
2026-01-17 12:12:43.54	242.13	6.84	-50.6	-65.9	3.8	1.49e+00	0	38	104	0	73	20247
2026-01-17 12:12:46.51	242.54	6.97	-50.5	-65.9	3.8	1.49e+00	0	38	104	0	73	20144
2026-01-17 12:12:49.49	242.94	7.09	-50.5	-65.8	3.8	1.49e+00	0	38	104	0	73	20069
2026-01-17 12:12:52.47	243.36	7.22	-50.5	-65.8	3.8	1.49e+00	0	38	104	0	73	20063
2026-01-17 12:12:55.45	243.77	7.34	-50.5	-65.9	3.8	1.49e+00	0	38	104	0	73	20119
2026-01-17 12:12:58.44	244.19	7.46	-50.5	-65.9	3.8	1.49e+00	0	38	104	0	73	20119
2026-01-17 12:13:01.42	244.61	7.59	-50.5	-65.8	3.8	1.49e+00	0	38	104	0	73	20002
2026-01-17 12:13:04.40	245.04	7.71	-50.5	-65.9	3.8	1.49e+00	0	38	104	0	73	20211
2026-01-17 12:13:07.38	245.47	7.83	-50.5	-65.9	3.8	1.49e+00	0	38	104	0	73	20154
2026-01-17 12:13:10.36	245.90	7.95	-50.5	-65.9	3.8	1.49e+00	0	38	104	0	73	20224
2026-01-17 12:13:13.34	246.34	8.07	-50.5	-65.9	3.8	1.49e+00	0	38	104	0	73	20078
2026-01-17 12:13:16.32	246.78	8.19	-50.5	-65.8	3.8	1.49e+00	0	38	104	0	72	21221
2026-01-17 12:13:19.30	247.22	8.30	-50.5	-65.9	3.8	1.49e+00	0	39	104	0	72	21336
2026-01-17 12:13:22.28	247.67	8.42	-50.4	-65.5	3.8	1.49e+00	0	39	104	0	72	20353
2026-01-17 12:13:25.26	248.12	8.53	-50.3	-63.9	3.8	1.49e+00	0	39	104	0	72	17017
2026-01-17 12:13:28.23	248.57	8.65	-50.2	-62.6	3.9	1.49e+00	0	39	104	0	72	14563
2026-01-17 12:13:31.21	249.03	8.76	-47.6	-52.3	12.2	1.64e-03	0	39	0	4194304	67	5948
2026-01-17 12:13:34.19	249.49	8.87	-46.4	-50.1	14.3	0.00e+00	0	39	0	10485760	64	5490
2026-01-17 12:13:37.17	249.95	8.98	-48.3	-53.7	10.7	1.10e-03	0	39	0	15728640	67	6980
2026-01-17 12:13:40.15	250.42	9.09	-50.3	-63.3	3.8	4.57e-02	0	39	104	18874368	71	16860
2026-01-17 12:13:43.18	250.89	9.21	-50.1	-60.5	4.9	5.03e-02	0	39	0	23068672	70	12890
2026-01-17 12:13:46.15	251.37	9.31	-46.6	-50.4	14.1	9.90e-06	0	39	0	28311552	65	5352
2026-01-17 12:13:49.28	251.87	9.42	-46.2	-49.6	14.9	0.00e+00	0	39	0	34603008	63	5478
2026-01-17 12:13:52.12	252.33	9.52	-45.9	-49.3	15.2	0.00e+00	0	39	0	39845888	63	5302
2026-01-17 12:13:55.24	252.83	9.63	-46.1	-49.6	15.0	0.00e+00	0	39	0	46137344	63	5468
2026-01-17 12:13:58.08	253.30	9.73	-46.1	-49.6	14.9	0.00e+00	0	39	0	51380224	63	5498
2026-01-17 12:14:01.33	253.83	9.84	-46.1	-49.6	14.9	0.00e+00	0	39	0	57671680	63	5483
2026-01-17 12:14:04.12	254.29	9.93	-46.1	-49.7	14.9	0.00e+00	0	39	0	62914560	63	5537
2026-01-17 12:14:07.68	254.89	10.05	-45.8	-49.3	15.1	0.00e+00	0	39	0	69206016	63	5328
2026-01-17 12:14:10.45	255.35	10.14	-45.8	-49.1	15.4	0.00e+00	0	39	0	74448896	63	5201
2026-01-17 12:14:13.73	255.91	10.24	-45.7	-49.0	15.6	0.00e+00	0	39	0	80740352	63	5105
2026-01-17 12:14:16.46	256.37	10.33	-45.7	-48.9	15.6	0.00e+00	0	39	0	85983232	63	5070
2026-01-17 12:14:19.75	256.94	10.43	-45.7	-48.9	15.6	0.00e+00	0	39	0	91226112	63	5072
2026-01-17 12:14:22.50	257.41	10.51	-45.7	-49.0	15.5	0.00e+00	0	39	0	96468992	63	5133
2026-01-17 12:14:25.76	257.97	10.61	-45.5	-48.6	15.8	0.00e+00	0	39	0	102760448	63	4906
2026-01-17 12:14:28.70	258.49	10.69	-45.3	-48.3	16.2	0.00e+00	0	39	0	108003328	62	5021
2026-01-17 12:14:31.99	259.06	10.78	-45.4	-48.6	15.9	0.00e+00	0	39	0	114294784	62	5168
2026-01-17 12:14:34.71	259.54	10.86	-45.4	-48.6	15.9	0.00e+00	0	39	0	119537664	62	5201
2026-01-17 12:14:38.02	260.13	10.95	-45.8	-49.1	15.4	0.00e+00	0	39	0	125829120	62	5491
2026-01-17 12:14:40.72	260.61	11.02	-45.6	-48.8	15.7	0.00e+00	0	39	0	131072000	62	5309
2026-01-17 12:14:44.01	261.20	11.10	-45.5	-48.6	15.8	0.00e+00	0	39	0	137363456	62	5218
2026-01-17 12:14:46.74	261.69	11.17	-45.4	-48.4	16.0	0.00e+00	0	39	0	142606336	62	5096
2026-01-17 12:14:50.02	262.28	11.25	-45.2	-48.1	16.3	0.00e+00	0	39	0	148897792	62	4896
2026-01-17 12:14:52.73	262.78	11.32	-45.1	-48.2	16.3	0.00e+00	0	39	0	153092096	62	4928
2026-01-17 12:14:56.02	263.38	11.39	-45.5	-48.8	15.6	0.00e+00	0	39	0	159383552	62	5333
2026-01-17 12:14:58.86	263.90	11.45	-45.9	-49.3	15.3	0.00e+00	0	39	0	164626432	62	5598
2026-01-17 12:15:02.26	264.52	11.53	-45.4	-48.4	16.0	0.00e+00	0	39	0	170917888	62	5084
2026-01-17 12:15:04.99	265.03	11.58	-45.1	-48.0	16.5	0.00e+00	0	39	0	176160768	62	4817
2026-01-17 12:15:08.26	265.64	11.65	-48.3	-53.8	10.8	4.83e-04	0	39	0	182452224	67	7115
2026-01-17 12:15:10.98	266.14	11.70	-46.8	-50.7	13.6	1.23e-04	0	39	0	187695104	65	5575
2026-01-17 12:15:14.24	266.75	11.76	-46.0	-49.3	15.1	0.00e+00	0	39	0	193986560	63	5291
2026-01-17 12:15:16.96	267.26	11.81	-46.1	-49.5	15.0	0.00e+00	0	39	0	199229440	63	5405
2026-01-17 12:15:20.25	267.88	11.86	-45.7	-49.1	15.3	1.50e-06	0	39	0	205520896	63	5177
2026-01-17 12:15:22.99	268.40	11.90	-45.1	-48.1	16.3	0.00e+00	0	39	0	210763776	61	5184
2026-01-17 12:15:26.25	269.02	11.95	-46.3	-49.9	14.6	0.00e+00	0	39	0	216006656	63	5708
2026-01-17 12:15:28.97	269.54	11.99	-46.3	-49.9	14.6	2.20e-06	0	39	0	221249536	63	5679
2026-01-17 12:15:32.24	270.16	12.04	-45.4	-48.4	16.1	0.00e+00	0	39	0	227540992	62	5045
2026-01-17 12:15:35.08	270.70	12.07	-45.7	-48.9	15.5	0.00e+00	0	39	0	232783872	62	5342
2026-01-17 12:15:38.21	271.30	12.11	-46.2	-49.6	14.8	0.00e+00	0	39	0	239075328	63	5497
2026-01-17 12:15:41.05	271.85	12.14	-45.9	-49.1	15.3	0.00e+00	0	39	0	244318208	63	5209
2026-01-17 12:15:44.18	272.45	12.17	-46.4	-50.0	14.5	0.00e+00	0	39	0	249561088	63	5729
2026-01-17 12:15:47.12	273.01	12.20	-46.7	-50.6	13.8	5.30e-06	0	39	0	255852544	64	5803
2026-01-17 12:15:50.11	273.59	12.22	-46.0	-49.4	14.8	8.16e-05	0	39	0	261095424	63	5400
2026-01-17 12:15:53.09	274.17	12.25	-45.5	-48.6	15.8	1.50e-06	0	39	0	266338304	62	5184
2026-01-17 12:15:56.08	274.75	12.27	-45.7	-49.0	15.3	8.08e-05	0	39	0	272629760	62	5450
2026-01-17 12:15:59.12	275.34	12.28	-45.4	-48.6	15.7	0.00e+00	0	39	0	277872640	62	5212
2026-01-17 12:16:02.04	275.90	12.30	-44.8	-47.7	16.6	0.00e+00	0	39	0	283115520	61	4951
2026-01-17 12:16:05.02	276.48	12.31	-44.8	-47.7	16.6	0.00e+00	0	39	0	289406976	61	4941
2026-01-17 12:16:08.01	277.06	12.32	-44.6	-47.5	16.7	7.00e-07	0	39	0	294649856	61	4836
2026-01-17 12:16:10.99	277.64	12.32	-44.5	-47.3	17.0	0.00e+00	0	39	0	299892736	60	5038
2026-01-17 12:16:13.98	278.22	12.33	-44.9	-47.7	16.6	0.00e+00	0	39	0	306184192	60	5279
2026-01-17 12:16:16.96	278.80	12.33	-44.7	-47.5	16.9	0.00e+00	0	39	0	311427072	60	5144
2026-01-17 12:16:19.95	279.38	12.33	-44.4	-47.2	17.1	0.00e+00	0	39	0	316669952	60	4950
2026-01-17 12:16:22.93	279.96	12.32	-44.6	-47.5	16.8	0.00e+00	0	39	0	322961408	60	5125
2026-01-17 12:16:25.91	280.54	12.32	-44.6	-47.4	16.9	0.00e+00	0	39	0	328204288	60	5076
2026-01-17 12:16:28.90	281.12	12.31	-44.4	-47.1	17.2	0.00e+00	0	39	0	333447168	60	4909
2026-01-17 12:16:31.88	281.70	12.30	-44.7	-47.5	16.9	0.00e+00	0	39	0	339738624	60	5114
2026-01-17 12:16:34.87	282.28	12.28	-44.6	-47.3	17.0	0.00e+00	0	39	0	344981504	60	5021
2026-01-17 12:16:37.86	282.86	12.26	-44.5	-47.2	17.1	0.00e+00	0	39	0	350224384	60	4973
2026-01-17 12:16:40.83	283.43	12.24	-44.9	-47.7	16.6	0.00e+00	0	39	0	356515840	60	5274
2026-01-17 12:16:44.11	284.06	12.22	-44.7	-47.6	16.7	0.00e+00	0	39	0	362807296	60	5171
2026-01-17 12:16:47.29	284.67	12.19	-44.0	-46.7	17.6	0.00e+00	0	39	0	368050176	60	4654
2026-01-17 12:16:50.16	285.23	12.16	-44.1	-46.7	17.5	0.00e+00	0	39	0	373293056	59	4954
2026-01-17 12:16:53.29	285.83	12.13	-44.3	-47.0	17.2	0.00e+00	0	39	0	379584512	59	5124
2026-01-17 12:16:56.23	286.39	12.10	-43.9	-46.5	17.7	0.00e+00	0	39	0	384827392	59	4832
2026-01-17 12:16:59.70	287.05	12.06	-44.0	-46.6	17.6	0.00e+00	0	39	0	391118848	59	4911
2026-01-17 12:17:02.42	287.57	12.02	-44.4	-47.1	17.1	0.00e+00	0	39	0	396361728	59	5209
2026-01-17 12:17:05.70	288.19	11.98	-44.3	-47.0	17.1	0.00e+00	0	39	0	402653184	59	5148
2026-01-17 12:17:08.70	288.76	11.93	-43.9	-46.5	17.7	0.00e+00	0	39	0	408944640	59	4840
2026-01-17 12:17:12.01	289.39	11.88	-44.1	-46.7	17.4	0.00e+00	0	39	0	414187520	59	4962
2026-01-17 12:17:14.71	289.90	11.84	-44.3	-46.9	17.3	0.00e+00	0	39	0	419430400	59	5077
2026-01-17 12:17:17.99	290.51	11.78	-44.1	-46.7	17.5	0.00e+00	0	39	0	425721856	59	4947
2026-01-17 12:17:20.74	291.03	11.74	-44.0	-46.6	17.6	0.00e+00	0	39	0	430964736	59	4880
2026-01-17 12:17:24.04	291.64	11.67	-44.2	-46.9	17.3	0.00e+00	0	39	0	437256192	59	5051
2026-01-17 12:17:26.74	292.14	11.62	-44.4	-47.1	17.1	0.00e+00	0	39	0	442499072	59	5186
2026-01-17 12:17:30.02	292.75	11.56	-44.4	-47.0	17.1	0.00e+00	0	39	0	448790528	59	5149
2026-01-17 12:17:32.74	293.25	11.50	-44.6	-47.3	16.8	0.00e+00	0	39	0	454033408	59	5335
2026-01-17 12:17:36.01	293.85	11.43	-44.8	-47.6	16.6	0.00e+00	0	39	0	459276288	60	5201
2026-01-17 12:17:38.74	294.34	11.37	-44.5	-47.2	17.0	0.00e+00	0	39	0	464519168	60	4980
2026-01-17 12:17:42.02	294.94	11.29	-44.1	-46.8	17.4	0.00e+00	0	39	0	470810624	60	4726
2026-01-17 12:17:44.86	295.45	11.23	-43.9	-46.5	17.6	0.00e+00	0	39	0	476053504	59	4851
2026-01-17 12:17:48.21	296.06	11.14	-44.1	-46.7	17.4	0.00e+00	0	39	0	482344960	59	4939
2026-01-17 12:17:50.97	296.55	11.07	-43.7	-46.3	17.8	0.00e+00	0	39	0	487587840	59	4709
2026-01-17 12:17:54.25	297.13	10.99	-43.9	-46.5	17.6	0.00e+00	0	39	0	493879296	59	4821
2026-01-17 12:17:56.97	297.61	10.92	-44.3	-47.0	17.1	0.00e+00	0	39	0	499122176	59	5143
2026-01-17 12:18:00.25	298.19	10.83	-44.5	-47.2	16.9	0.00e+00	0	39	0	505413632	59	5234
2026-01-17 12:18:02.96	298.67	10.75	-44.2	-46.9	17.2	0.00e+00	0	39	0	510656512	59	5053
2026-01-17 12:18:06.22	299.23	10.66	-44.3	-47.0	17.2	0.00e+00	0	39	0	515899392	59	5104
2026-01-17 12:18:09.06	299.73	10.58	-44.4	-47.1	17.0	0.00e+00	0	39	0	522190848	59	5186
2026-01-17 12:18:12.21	300.27	10.49	-44.2	-46.9	17.2	0.00e+00	0	39	0	527433728	59	5062
2026-01-17 12:18:15.06	300.76	10.40	-44.2	-46.8	17.2	0.00e+00	0	39	0	532676608	59	5021
2026-01-17 12:18:18.37	301.32	10.30	-44.2	-46.8	17.2	0.00e+00	0	39	0	538968064	59	5008
2026-01-17 12:18:21.08	301.78	10.22	-44.4	-47.1	17.0	0.00e+00	0	39	0	544210944	59	5186
2026-01-17 12:18:24.70	302.38	10.10	-44.5	-47.3	16.8	0.00e+00	0	39	0	551550976	59	5286
2026-01-17 12:18:27.45	302.84	10.01	-44.5	-47.4	16.7	0.00e+00	0	39	0	555745280	59	5353
2026-01-17 12:18:30.80	303.40	9.90	-45.0	-48.0	16.2	0.00e+00	0	39	0	562036736	60	5456
2026-01-17 12:18:33.53	303.85	9.81	-45.6	-48.8	15.4	0.00e+00	0	39	0	567279616	62	5294
2026-01-17 12:18:36.80	304.38	9.70	-45.7	-49.0	15.2	0.00e+00	0	39	0	573571072	62	5460
2026-01-17 12:18:39.58	304.83	9.61	-45.7	-49.0	15.3	0.00e+00	0	39	0	578813952	62	5428
2026-01-17 12:18:43.11	305.40	9.49	-45.7	-48.9	15.3	0.00e+00	0	39	0	585105408	62	5400
2026-01-17 12:18:45.94	305.85	9.39	-45.6	-49.1	15.2	0.00e+00	0	39	0	590348288	62	5465
2026-01-17 12:18:49.20	306.37	9.27	-45.6	-49.1	15.2	0.00e+00	0	39	0	596639744	62	5470
2026-01-17 12:18:51.95	306.80	9.17	-46.1	-49.6	14.7	0.00e+00	0	39	0	601882624	62	5821
2026-01-17 12:18:55.23	307.32	9.05	-46.3	-49.9	14.3	7.00e-07	0	39	0	608174080	63	5714
2026-01-17 12:18:58.10	307.76	8.95	-50.4	-65.9	3.8	1.49e+00	0	39	104	611319808	71	22676
2026-01-17 12:19:01.43	308.28	8.82	-50.8	-66.2	3.8	1.49e+00	0	39	104	611319808	72	22053
2026-01-17 12:19:04.33	308.72	8.72	-50.9	-66.3	3.8	1.49e+00	0	39	104	611319808	72	22272
2026-01-17 12:19:07.83	309.25	8.58	-50.9	-66.3	3.8	1.49e+00	0	39	104	611319808	72	22428
2026-01-17 12:19:10.52	309.66	8.48	-51.1	-66.3	3.8	1.49e+00	0	39	104	611319808	72	22463
2026-01-17 12:19:13.79	310.14	8.35	-51.0	-66.3	3.8	1.49e+00	0	39	104	611319808	72	22393
2026-01-17 12:19:16.50	310.55	8.25	-50.8	-66.3	3.8	1.49e+00	0	39	104	611319808	72	22315
2026-01-17 12:19:19.76	311.03	8.12	-50.7	-66.3	3.8	1.49e+00	0	39	104	611319808	72	22316
2026-01-17 12:19:22.46	311.42	8.02	-50.6	-66.3	3.8	1.49e+00	0	39	104	611319808	72	22281
2026-01-17 12:19:25.72	311.89	7.89	-50.6	-66.2	3.8	1.49e+00	0	39	104	611319808	72	22214
2026-01-17 12:19:28.45	312.28	7.78	-50.7	-66.2	3.8	1.49e+00	0	39	104	611319808	72	22081
2026-01-17 12:19:31.71	312.75	7.65	-50.6	-66.2	3.8	1.49e+00	0	39	104	611319808	72	22171
2026-01-17 12:19:34.43	313.13	7.54	-50.6	-66.2	3.8	1.49e+00	0	39	104	611319808	72	22158
2026-01-17 12:19:37.70	313.59	7.40	-50.6	-66.2	3.8	1.49e+00	0	39	104	611319808	72	22129
2026-01-17 12:19:40.40	313.97	7.29	-50.6	-66.2	3.8	1.49e+00	0	39	104	611319808	72	22123
2026-01-17 12:19:43.68	314.42	7.16	-50.6	-66.2	3.8	1.49e+00	0	39	104	611319808	72	22118
2026-01-17 12:19:46.39	314.79	7.04	-50.6	-66.2	3.8	1.49e+00	0	39	104	611319808	72	22105
2026-01-17 12:19:49.67	315.24	6.91	-50.6	-66.2	3.8	1.49e+00	0	39	104	611319808	72	22170
2026-01-17 12:19:52.38	315.60	6.80	-50.6	-66.2	3.8	1.49e+00	0	39	104	611319808	72	22072
2026-01-17 12:19:55.65	316.04	6.66	-50.6	-66.2	3.8	1.49e+00	0	39	104	611319808	72	22069
2026-01-17 12:19:58.37	316.40	6.54	-50.6	-66.2	3.8	1.49e+00	0	39	104	611319808	72	22133
2026-01-17 12:20:01.64	316.83	6.41	-50.6	-66.2	3.8	1.49e+00	0	39	104	611319808	72	22074
2026-01-17 12:20:04.36	317.18	6.29	-50.6	-66.2	3.8	1.49e+00	0	39	104	611319808	72	22056
2026-01-17 12:20:07.63	317.60	6.15	-50.6	-66.1	3.8	1.49e+00	0	39	104	611319808	72	21992
2026-01-17 12:20:10.34	317.95	6.03	-50.6	-66.2	3.8	1.49e+00	0	39	104	611319808	72	22106
2026-01-17 12:20:13.61	318.36	5.89	-50.6	-66.2	3.8	1.49e+00	0	39	104	611319808	72	22073
2026-01-17 12:20:16.30	318.70	5.78	-50.6	-66.2	3.8	1.49e+00	0	39	104	611319808	72	22055
2026-01-17 12:20:19.57	319.11	5.64	-50.6	-66.2	3.8	1.49e+00	0	39	104	611319808	72	22147
2026-01-17 12:20:22.26	319.44	5.52	-50.6	-66.2	3.8	1.49e+00	0	39	104	611319808	72	22158
2026-01-17 12:20:25.53	319.84	5.38	-50.6	-66.2	3.8	1.49e+00	0	39	104	611319808	72	22138
2026-01-17 12:20:28.24	320.17	5.26	-50.6	-66.2	3.8	1.49e+00	0	39	104	611319808	72	22019
2026-01-17 12:20:31.50	320.57	5.12	-50.6	-66.1	3.8	1.49e+00	0	39	104	611319808	72	21994
2026-01-17 12:20:34.21	320.89	5.00	-50.6	-66.2	3.8	1.49e+00	0	39	104	611319808	72	22039

#Closed at: 2026-01-17 12:20:35
#Recorded file [611 MB]: D:/Data/31040_260117_151201.dat