passes_logs/2026/01/30/R2M6_AANII_01/R2M6_AANII_01__20260130_055314_FENGYUN_3E_rec.log

#Pass ID: 20260130_055314_FENGYUN 3E
#Satellite: FENGYUN 3E
#Configuration: FENGYUN 3E
#almurnet v.1.7.20240730
#Start time: 2026-01-30 05:53:15

#Version: 2.2.20231116
#Station: R2M6_AANII_01
#Location: 30.233357 lon 59.946436 lat
#TLE: 1 49008U 21062A   26029.52207456 -.00000035  00000+0  41692-5 0  9997
#TLE: 2 49008  98.7499  34.4814 0002557 110.8023 249.3427 14.19887743236900

#Time	Az	El	Level	Level2	SNR	BER	BlckErr	Temp	State	Recorded	gain1	gain2
2026-01-30 05:53:15.39	12.52	7.04	-30.7	-33.7	4.9	8.01e-01	0	41	0	0	22	5046
2026-01-30 05:53:18.39	12.34	7.26	-30.3	-33.3	8.1	6.17e-02	0	42	0	7340032	20	5093
2026-01-30 05:53:21.41	12.15	7.48	-30.2	-32.8	8.5	4.19e-02	0	42	0	28311552	20	4885
2026-01-30 05:53:24.42	11.96	7.69	-29.9	-32.1	9.0	2.93e-02	0	42	0	50331648	20	4626
2026-01-30 05:53:27.43	11.76	7.91	-28.2	-29.3	11.8	5.10e-04	0	42	0	72351744	17	4049
2026-01-30 05:53:30.45	11.56	8.14	-27.0	-27.9	13.4	1.14e-05	0	42	0	94371840	14	3997
2026-01-30 05:53:33.46	11.36	8.36	-27.4	-28.8	12.9	5.37e-05	0	42	0	115343360	14	4225
2026-01-30 05:53:36.47	11.16	8.58	-27.2	-28.4	13.2	3.28e-04	0	42	0	137363456	14	4114
2026-01-30 05:53:39.48	10.95	8.81	-27.5	-29.2	12.7	2.85e-04	0	42	0	159383552	14	4341
2026-01-30 05:53:42.49	10.74	9.04	-26.9	-27.6	13.7	2.28e-04	0	42	0	181403648	14	3917
2026-01-30 05:53:45.51	10.52	9.27	-26.9	-28.2	13.6	8.00e-06	0	42	0	202375168	13	4177
2026-01-30 05:53:48.51	10.30	9.50	-26.7	-27.7	13.9	2.06e-04	0	42	0	224395264	13	4055
2026-01-30 05:53:51.52	10.08	9.73	-26.7	-27.8	13.9	2.28e-04	0	42	0	246415360	13	4064
2026-01-30 05:53:54.54	9.85	9.97	-26.7	-27.8	13.9	2.39e-04	0	42	0	268435456	13	4066
2026-01-30 05:53:57.56	9.62	10.21	-26.5	-27.4	14.2	2.20e-06	0	43	0	289406976	13	3950
2026-01-30 05:54:00.57	9.39	10.44	-26.5	-27.8	14.2	1.10e-06	0	43	0	311427072	12	4170
2026-01-30 05:54:03.58	9.15	10.68	-26.3	-27.2	14.6	0.00e+00	0	43	0	333447168	12	4011
2026-01-30 05:54:06.58	8.91	10.93	-26.1	-26.9	14.8	2.30e-04	0	43	0	354418688	12	3932
2026-01-30 05:54:09.58	8.66	11.17	-26.3	-27.2	14.6	1.43e-04	0	43	0	376438784	12	4018
2026-01-30 05:54:12.59	8.41	11.42	-26.2	-27.0	14.7	0.00e+00	0	43	0	398458880	12	3963
2026-01-30 05:54:15.61	8.16	11.66	-26.3	-27.3	14.6	1.10e-06	0	43	0	420478976	12	4039
2026-01-30 05:54:18.62	7.90	11.91	-26.1	-26.9	14.8	0.00e+00	0	43	0	441450496	12	3931
2026-01-30 05:54:21.63	7.63	12.17	-26.3	-27.3	14.6	0.00e+00	0	43	0	463470592	12	4044
2026-01-30 05:54:24.64	7.36	12.42	-26.1	-26.8	14.9	0.00e+00	0	43	0	485490688	12	3908
2026-01-30 05:54:27.64	7.09	12.67	-26.0	-26.7	15.0	0.00e+00	0	43	0	506462208	12	3888
2026-01-30 05:54:30.64	6.81	12.93	-26.0	-26.6	15.0	0.00e+00	0	43	0	528482304	12	3872
2026-01-30 05:54:33.65	6.53	13.19	-26.0	-26.6	15.1	0.00e+00	0	43	0	550502400	12	3857
2026-01-30 05:54:36.65	6.24	13.45	-25.9	-26.4	15.2	0.00e+00	0	43	0	571473920	12	3821
2026-01-30 05:54:39.66	5.94	13.72	-25.7	-25.9	15.5	0.00e+00	0	43	0	593494016	12	3690
2026-01-30 05:54:42.67	5.64	13.98	-25.8	-26.7	15.4	0.00e+00	0	43	0	615514112	11	3975
2026-01-30 05:54:45.69	5.34	14.25	-25.8	-26.6	15.5	0.00e+00	0	43	0	637534208	11	3960
2026-01-30 05:54:48.69	5.02	14.52	-25.8	-26.2	15.4	0.00e+00	0	43	0	658505728	12	3759
2026-01-30 05:54:51.72	4.70	14.80	-25.7	-25.9	15.5	0.00e+00	0	43	0	680525824	12	3700
2026-01-30 05:54:54.73	4.38	15.07	-25.8	-26.1	15.5	0.00e+00	0	43	0	702545920	12	3737
2026-01-30 05:54:57.74	4.05	15.35	-25.4	-25.8	16.0	0.00e+00	0	43	0	724566016	11	3759
2026-01-30 05:55:00.75	3.71	15.63	-25.4	-25.7	16.0	0.00e+00	0	43	0	745537536	11	3747
2026-01-30 05:55:03.77	3.37	15.91	-25.2	-25.4	16.2	0.00e+00	0	44	0	767557632	11	3658
2026-01-30 05:55:06.78	3.02	16.19	-25.2	-25.4	16.2	0.00e+00	0	43	0	789577728	11	3666
2026-01-30 05:55:09.79	2.66	16.48	-25.3	-25.6	16.1	1.10e-06	0	44	0	811597824	11	3726
2026-01-30 05:55:12.79	2.30	16.76	-25.2	-25.4	16.3	0.00e+00	0	43	0	832569344	11	3668
2026-01-30 05:55:15.81	1.93	17.06	-25.3	-25.5	16.2	0.00e+00	0	43	0	854589440	11	3685
2026-01-30 05:55:18.81	1.55	17.35	-24.9	-25.1	16.7	0.00e+00	0	44	0	876609536	10	3702
2026-01-30 05:55:21.83	1.16	17.64	-24.9	-25.3	16.6	0.00e+00	0	43	0	897581056	10	3748
2026-01-30 05:55:24.84	0.77	17.94	-24.8	-25.0	16.8	2.97e-05	0	43	0	919601152	10	3682
2026-01-30 05:55:27.85	0.36	18.24	-24.7	-24.7	16.9	0.00e+00	0	43	0	941621248	10	3623
2026-01-30 05:55:30.86	359.95	18.54	-24.8	-24.9	16.9	0.00e+00	0	43	0	963641344	10	3659
2026-01-30 05:55:33.87	359.53	18.84	-24.9	-25.1	16.8	1.54e-04	0	44	0	984612864	10	3705
2026-01-30 05:55:36.88	359.11	19.15	-24.8	-25.4	16.9	8.58e-05	0	44	0	1006632960	9	3875
2026-01-30 05:55:39.88	358.67	19.45	-24.7	-25.3	16.9	2.14e-04	0	43	0	1028653056	9	3861
2026-01-30 05:55:42.90	358.22	19.76	-24.8	-25.4	16.9	0.00e+00	0	44	0	1050673152	9	3880
2026-01-30 05:55:45.91	357.77	20.07	-24.8	-25.5	16.8	0.00e+00	0	44	0	1071644672	9	3894
2026-01-30 05:55:48.91	357.31	20.39	-24.2	-24.7	17.5	0.00e+00	0	44	0	1093664768	8	3813
2026-01-30 05:55:51.92	356.83	20.70	-24.1	-24.4	17.7	0.00e+00	0	44	0	1114636288	8	3750
2026-01-30 05:55:54.93	356.35	21.02	-24.0	-24.7	17.7	0.00e+00	0	44	0	1136656384	7	3925
2026-01-30 05:55:57.93	355.85	21.34	-24.4	-25.1	17.3	0.00e+00	0	44	0	1158676480	8	3901
2026-01-30 05:56:00.94	355.35	21.66	-24.6	-25.1	17.1	0.00e+00	0	44	0	1180696576	9	3806
2026-01-30 05:56:03.95	354.83	21.98	-24.4	-24.7	17.3	0.00e+00	0	44	0	1201668096	9	3705
2026-01-30 05:56:06.96	354.30	22.30	-24.4	-25.2	17.3	0.00e+00	0	44	0	1223688192	8	3933
2026-01-30 05:56:09.96	353.77	22.63	-24.8	-25.5	16.9	0.00e+00	0	44	0	1245708288	9	3890
2026-01-30 05:56:12.97	353.22	22.95	-24.8	-25.5	16.9	0.00e+00	0	44	0	1266679808	9	3907
2026-01-30 05:56:15.97	352.66	23.28	-24.2	-24.1	17.6	0.00e+00	0	44	0	1288699904	9	3586
2026-01-30 05:56:18.99	352.08	23.61	-23.9	-23.6	17.9	0.00e+00	0	44	0	1310720000	9	3464
2026-01-30 05:56:22.00	351.49	23.94	-23.9	-24.0	18.0	0.00e+00	0	44	0	1332740096	8	3656
2026-01-30 05:56:25.02	350.89	24.27	-23.8	-23.9	18.0	0.00e+00	0	44	0	1353711616	8	3621
2026-01-30 05:56:28.03	350.28	24.60	-23.8	-24.0	18.0	0.00e+00	0	44	0	1375731712	8	3648
2026-01-30 05:56:31.05	349.65	24.93	-23.9	-24.0	18.0	0.00e+00	0	44	0	1397751808	8	3665
2026-01-30 05:56:34.05	349.02	25.26	-23.6	-23.5	18.2	0.00e+00	0	44	0	1419771904	8	3543
2026-01-30 05:56:37.07	348.36	25.60	-23.5	-23.2	18.4	0.00e+00	0	44	0	1440743424	8	3488
2026-01-30 05:56:40.09	347.69	25.93	-23.8	-23.7	18.1	0.00e+00	0	44	0	1462763520	8	3594
2026-01-30 05:56:43.09	347.01	26.26	-23.3	-23.4	18.5	0.00e+00	0	44	0	1484783616	7	3612
2026-01-30 05:56:46.11	346.32	26.59	-23.4	-23.4	18.5	0.00e+00	0	44	0	1506803712	7	3632
2026-01-30 05:56:49.11	345.61	26.92	-23.5	-24.2	18.3	0.00e+00	0	44	0	1527775232	6	3915
2026-01-30 05:56:52.12	344.88	27.25	-23.6	-23.9	18.3	0.00e+00	0	44	0	1549795328	7	3740
2026-01-30 05:56:55.13	344.14	27.58	-23.9	-24.5	17.9	0.00e+00	0	44	0	1571815424	7	3883
2026-01-30 05:56:58.15	343.38	27.91	-23.8	-24.4	18.0	0.00e+00	0	44	0	1593835520	7	3837
2026-01-30 05:57:01.16	342.61	28.24	-23.6	-24.0	18.2	0.00e+00	0	44	0	1614807040	7	3757
2026-01-30 05:57:04.17	341.82	28.56	-23.5	-23.7	18.4	0.00e+00	0	44	0	1636827136	7	3681
2026-01-30 05:57:07.18	341.01	28.88	-23.7	-24.1	18.2	0.00e+00	0	44	0	1658847232	7	3772
2026-01-30 05:57:10.18	340.20	29.20	-23.7	-24.2	18.1	0.00e+00	0	44	0	1679818752	7	3806
2026-01-30 05:57:13.19	339.36	29.51	-23.6	-23.9	18.3	0.00e+00	0	44	0	1701838848	7	3727
2026-01-30 05:57:16.20	338.50	29.82	-23.5	-23.7	18.4	0.00e+00	0	44	0	1723858944	7	3680
2026-01-30 05:57:19.21	337.63	30.13	-23.6	-23.9	18.3	0.00e+00	0	44	0	1744830464	7	3730
2026-01-30 05:57:22.21	336.75	30.43	-23.2	-23.6	18.7	0.00e+00	0	44	0	1766850560	6	3765
2026-01-30 05:57:25.23	335.84	30.73	-22.8	-22.8	19.1	0.00e+00	0	44	0	1788870656	6	3581
2026-01-30 05:57:28.24	334.92	31.02	-23.2	-23.5	18.7	0.00e+00	0	44	0	1809842176	6	3757
2026-01-30 05:57:31.24	333.98	31.31	-23.5	-24.1	18.4	0.00e+00	0	44	0	1831862272	6	3893
2026-01-30 05:57:34.25	333.03	31.59	-23.4	-24.1	18.5	0.00e+00	0	44	0	1853882368	6	3881
2026-01-30 05:57:37.26	332.06	31.86	-23.4	-24.0	18.5	0.00e+00	0	44	0	1875902464	6	3852
2026-01-30 05:57:40.26	331.07	32.13	-22.9	-23.0	19.0	0.00e+00	0	44	0	1896873984	6	3638
2026-01-30 05:57:43.27	330.07	32.39	-22.8	-23.4	19.1	0.00e+00	0	44	0	1918894080	5	3819
2026-01-30 05:57:46.29	329.04	32.64	-23.0	-23.2	18.9	0.00e+00	0	44	0	1940914176	6	3668
2026-01-30 05:57:49.30	328.00	32.89	-23.1	-23.3	18.9	0.00e+00	0	44	0	1962934272	6	3696
2026-01-30 05:57:52.31	326.95	33.12	-22.9	-23.0	19.0	0.00e+00	0	44	0	1983905792	6	3636
2026-01-30 05:57:55.33	325.88	33.35	-22.9	-23.5	19.0	0.00e+00	0	44	0	2005925888	5	3842
2026-01-30 05:57:58.34	324.80	33.56	-22.9	-23.5	19.0	0.00e+00	0	44	0	2027945984	5	3862
2026-01-30 05:58:01.35	323.70	33.77	-22.8	-22.7	19.1	0.00e+00	0	44	0	2049966080	6	3578
2026-01-30 05:58:04.37	322.59	33.96	-22.7	-23.1	19.2	0.00e+00	0	44	0	2070937600	5	3768
2026-01-30 05:58:07.38	321.46	34.15	-22.9	-23.5	19.0	0.00e+00	0	44	0	2092957696	5	3841
2026-01-30 05:58:10.37	320.34	34.32	-23.0	-23.6	19.0	0.00e+00	0	44	0	2114977792	5	3881
2026-01-30 05:58:13.38	319.19	34.48	-23.0	-23.6	18.9	0.00e+00	0	44	0	2135949312	5	3873
2026-01-30 05:58:16.38	318.03	34.62	-22.7	-23.1	19.2	0.00e+00	0	44	0	2157969408	5	3770
2026-01-30 05:58:19.39	316.86	34.76	-22.7	-23.1	19.2	0.00e+00	0	44	0	2179989504	5	3770
2026-01-30 05:58:22.40	315.69	34.88	-22.8	-23.3	19.1	0.00e+00	0	44	0	2202009600	5	3795
2026-01-30 05:58:25.41	314.50	34.99	-22.6	-22.9	19.3	0.00e+00	0	44	0	2222981120	5	3707
2026-01-30 05:58:28.41	313.31	35.08	-22.6	-22.9	18.9	0.00e+00	0	44	0	2245001216	5	3723
2026-01-30 05:58:31.41	312.11	35.16	-22.7	-23.0	19.3	0.00e+00	0	44	0	2267021312	5	3741
2026-01-30 05:58:34.42	310.91	35.23	-22.8	-23.3	19.1	0.00e+00	0	44	0	2287992832	5	3809
2026-01-30 05:58:37.43	309.70	35.28	-22.9	-23.4	19.1	1.52e-04	0	44	0	2310012928	5	3831
2026-01-30 05:58:40.44	308.48	35.32	-22.7	-23.1	19.2	2.91e-04	0	44	0	2332033024	5	3757
2026-01-30 05:58:43.44	307.27	35.34	-22.8	-23.4	19.1	0.00e+00	0	44	0	2353004544	5	3817
2026-01-30 05:58:46.46	306.05	35.35	-22.7	-23.1	19.2	0.00e+00	0	44	0	2375024640	5	3754
2026-01-30 05:58:49.46	304.83	35.34	-22.9	-23.4	19.1	3.07e-04	0	44	0	2397044736	5	3836
2026-01-30 05:58:52.47	303.62	35.32	-22.7	-23.1	19.2	2.17e-05	0	44	0	2418016256	5	3770
2026-01-30 05:58:55.50	302.40	35.28	-22.9	-23.5	19.0	0.00e+00	0	44	0	2440036352	5	3865
2026-01-30 05:58:58.50	301.19	35.23	-22.6	-22.9	19.3	0.00e+00	0	44	0	2462056448	5	3724
2026-01-30 05:59:01.52	299.98	35.16	-22.8	-23.2	19.1	0.00e+00	0	44	0	2484076544	5	3780
2026-01-30 05:59:04.53	298.77	35.08	-23.0	-23.7	18.9	0.00e+00	0	44	0	2505048064	5	3900
2026-01-30 05:59:07.54	297.58	34.99	-23.3	-23.7	18.7	3.41e-04	0	44	0	2527068160	6	3791
2026-01-30 05:59:10.54	296.40	34.88	-22.9	-22.9	19.1	0.00e+00	0	44	0	2549088256	6	3611
2026-01-30 05:59:13.56	295.21	34.76	-22.8	-22.8	19.1	0.00e+00	0	44	0	2571108352	6	3590
2026-01-30 05:59:16.57	294.04	34.63	-22.5	-22.2	19.4	0.00e+00	0	44	0	2592079872	6	3461
2026-01-30 05:59:19.58	292.88	34.48	-22.8	-22.8	19.1	0.00e+00	0	44	0	2614099968	6	3588
2026-01-30 05:59:22.58	291.73	34.32	-23.1	-23.4	18.8	0.00e+00	0	44	0	2636120064	6	3733
2026-01-30 05:59:25.60	290.59	34.15	-23.2	-23.7	18.7	0.00e+00	0	44	0	2658140160	6	3783
2026-01-30 05:59:28.60	289.47	33.97	-22.9	-23.1	18.9	0.00e+00	0	44	0	2679111680	6	3650
2026-01-30 05:59:31.61	288.36	33.77	-23.2	-23.6	18.7	0.00e+00	0	44	0	2701131776	6	3762
2026-01-30 05:59:34.63	287.26	33.56	-22.9	-23.6	18.9	0.00e+00	0	44	0	2723151872	5	3865
2026-01-30 05:59:37.63	286.17	33.35	-22.8	-23.3	19.1	0.00e+00	0	44	0	2744123392	5	3798
2026-01-30 05:59:40.63	285.11	33.12	-22.5	-22.6	19.3	0.00e+00	0	44	0	2766143488	5	3646
2026-01-30 05:59:43.65	284.05	32.89	-22.6	-22.8	19.3	0.00e+00	0	44	0	2788163584	5	3694
2026-01-30 05:59:46.66	283.01	32.64	-23.0	-23.6	18.9	0.00e+00	0	44	0	2810183680	5	3883
2026-01-30 05:59:49.67	281.98	32.39	-22.8	-23.3	19.0	0.00e+00	0	44	0	2831155200	5	3820
2026-01-30 05:59:52.69	280.97	32.13	-22.5	-22.6	19.3	0.00e+00	0	44	0	2853175296	5	3655
2026-01-30 05:59:55.69	279.99	31.86	-22.3	-22.3	19.5	0.00e+00	0	44	0	2875195392	5	3578
2026-01-30 05:59:58.70	279.01	31.59	-22.6	-22.8	19.2	0.00e+00	0	44	0	2897215488	5	3691
2026-01-30 06:00:01.71	278.05	31.31	-22.8	-23.2	19.0	0.00e+00	0	44	0	2918187008	5	3779
2026-01-30 06:00:04.72	277.11	31.02	-22.9	-23.4	18.9	0.00e+00	0	44	0	2940207104	5	3835
2026-01-30 06:00:07.72	276.19	30.72	-23.4	-23.9	18.4	0.00e+00	0	44	0	2961178624	6	3847
2026-01-30 06:00:10.72	275.28	30.43	-22.7	-22.7	19.0	0.00e+00	0	44	0	2983198720	6	3560
2026-01-30 06:00:13.73	274.39	30.12	-23.0	-23.2	18.8	0.00e+00	0	44	0	3005218816	6	3678
2026-01-30 06:00:16.74	273.52	29.81	-23.1	-23.4	18.7	0.00e+00	0	44	0	3027238912	6	3721
2026-01-30 06:00:19.75	272.66	29.50	-23.2	-23.7	18.5	0.00e+00	0	44	0	3048210432	6	3791
2026-01-30 06:00:22.76	271.82	29.19	-23.1	-23.4	18.6	0.00e+00	0	44	0	3070230528	6	3730
2026-01-30 06:00:25.78	270.99	28.87	-23.2	-23.6	18.6	0.00e+00	0	44	0	3092250624	6	3760
2026-01-30 06:00:28.78	270.19	28.55	-23.3	-23.7	18.5	0.00e+00	0	44	0	3113222144	6	3797
2026-01-30 06:00:31.80	269.39	28.22	-23.5	-24.2	18.2	0.00e+00	0	44	0	3135242240	6	3918
2026-01-30 06:00:34.81	268.62	27.89	-23.0	-23.3	18.7	0.00e+00	0	44	0	3157262336	6	3696
2026-01-30 06:00:37.83	267.85	27.56	-22.8	-22.9	18.9	0.00e+00	0	44	0	3179282432	6	3604
2026-01-30 06:00:40.84	267.11	27.24	-23.2	-23.5	18.5	0.00e+00	0	44	0	3201302528	6	3756
2026-01-30 06:00:43.86	266.38	26.90	-23.1	-23.4	18.6	0.00e+00	0	44	0	3222274048	6	3730
2026-01-30 06:00:46.86	265.67	26.57	-23.1	-23.5	18.6	0.00e+00	0	44	0	3244294144	6	3749
2026-01-30 06:00:49.88	264.97	26.24	-23.2	-23.6	18.5	2.79e-04	0	44	0	3266314240	6	3760
2026-01-30 06:00:52.88	264.28	25.91	-23.2	-23.7	18.4	8.01e-04	0	44	0	3287285760	6	3802
2026-01-30 06:00:55.89	263.61	25.57	-23.2	-23.6	18.4	0.00e+00	0	44	0	3309305856	6	3774
2026-01-30 06:00:58.90	262.96	25.24	-23.1	-23.5	18.5	0.00e+00	0	44	0	3331325952	6	3748
2026-01-30 06:01:01.91	262.32	24.91	-23.2	-23.5	18.5	0.00e+00	0	44	0	3353346048	6	3754
2026-01-30 06:01:04.92	261.69	24.57	-23.2	-23.6	18.4	0.00e+00	0	44	0	3374317568	6	3766
2026-01-30 06:01:07.94	261.07	24.24	-23.5	-24.3	18.1	0.00e+00	0	44	0	3396337664	6	3927
2026-01-30 06:01:10.94	260.47	23.91	-23.4	-23.9	18.2	0.00e+00	0	44	0	3418357760	6	3853
2026-01-30 06:01:13.95	259.88	23.58	-23.0	-23.8	18.6	0.00e+00	0	44	0	3440377856	5	3919
2026-01-30 06:01:16.95	259.30	23.25	-23.5	-23.6	18.1	0.00e+00	0	44	0	3461349376	7	3678
2026-01-30 06:01:19.97	258.74	22.92	-23.4	-24.1	18.1	0.00e+00	0	44	0	3483369472	6	3879
2026-01-30 06:01:22.98	258.18	22.59	-23.4	-24.1	18.1	0.00e+00	0	44	0	3505389568	6	3881
2026-01-30 06:01:26.00	257.64	22.26	-23.6	-24.0	17.9	0.00e+00	0	44	0	3527409664	7	3760
2026-01-30 06:01:29.01	257.11	21.94	-23.9	-24.6	17.6	0.00e+00	0	44	0	3548381184	7	3899
2026-01-30 06:01:32.01	256.59	21.62	-23.7	-24.2	17.8	0.00e+00	0	44	0	3570401280	7	3806
2026-01-30 06:01:35.02	256.09	21.29	-23.6	-24.0	17.9	0.00e+00	0	44	0	3591372800	7	3758
2026-01-30 06:01:38.04	255.59	20.97	-23.5	-24.3	17.9	0.00e+00	0	44	0	3613392896	6	3942
2026-01-30 06:01:41.05	255.10	20.65	-23.7	-24.2	17.7	0.00e+00	0	44	0	3635412992	7	3818
2026-01-30 06:01:44.06	254.62	20.34	-23.7	-24.1	17.8	0.00e+00	0	44	0	3657433088	7	3793
2026-01-30 06:01:47.07	254.15	20.02	-23.5	-23.8	17.9	0.00e+00	0	44	0	3678404608	7	3707
2026-01-30 06:01:50.08	253.70	19.71	-23.7	-24.1	17.7	0.00e+00	0	44	0	3700424704	7	3794
2026-01-30 06:01:53.10	253.25	19.40	-24.0	-24.8	17.4	0.00e+00	0	44	0	3722444800	7	3955
2026-01-30 06:01:56.12	252.81	19.09	-24.2	-24.8	17.1	0.00e+00	0	44	0	3744464896	8	3853
2026-01-30 06:01:59.13	252.38	18.78	-24.4	-25.1	17.0	0.00e+00	0	44	0	3765436416	8	3910
2026-01-30 06:02:02.14	251.95	18.48	-24.0	-24.9	17.3	0.00e+00	0	44	0	3787456512	7	3971
2026-01-30 06:02:05.16	251.54	18.18	-24.5	-25.3	16.8	0.00e+00	0	44	0	3809476608	8	3959
2026-01-30 06:02:08.16	251.14	17.88	-24.3	-25.0	17.0	0.00e+00	0	44	0	3831496704	8	3880
2026-01-30 06:02:11.18	250.74	17.58	-24.6	-25.1	16.6	0.00e+00	0	44	0	3852468224	9	3815
2026-01-30 06:02:14.20	250.35	17.28	-24.9	-25.7	16.3	1.10e-06	0	44	0	3874488320	9	3962
2026-01-30 06:02:17.21	249.97	16.99	-25.0	-26.0	16.1	1.10e-06	0	44	0	3896508416	9	4039
2026-01-30 06:02:20.22	249.59	16.70	-24.7	-25.4	16.4	0.00e+00	0	44	0	3918528512	9	3884
2026-01-30 06:02:23.23	249.23	16.41	-24.5	-24.9	16.7	0.00e+00	0	44	0	3939500032	9	3762
2026-01-30 06:02:26.25	248.87	16.12	-24.5	-24.9	16.7	0.00e+00	0	44	0	3961520128	9	3761
2026-01-30 06:02:29.25	248.51	15.84	-24.6	-25.2	16.5	1.10e-06	0	44	0	3983540224	9	3836
2026-01-30 06:02:32.27	248.17	15.55	-24.9	-25.7	16.2	0.00e+00	0	44	0	4005560320	9	3963
2026-01-30 06:02:35.28	247.83	15.27	-25.1	-26.1	16.0	0.00e+00	0	44	0	4026531840	9	4049
2026-01-30 06:02:38.29	247.49	15.00	-25.0	-26.0	16.0	0.00e+00	0	44	0	4048551936	9	4043
2026-01-30 06:02:41.29	247.17	14.72	-25.2	-26.0	15.8	0.00e+00	0	44	0	4070572032	10	3927
2026-01-30 06:02:44.30	246.85	14.45	-25.5	-26.5	15.5	0.00e+00	0	44	0	4092592128	10	4043
2026-01-30 06:02:47.32	246.53	14.18	-25.4	-26.3	15.5	0.00e+00	0	44	0	4113563648	10	4014
2026-01-30 06:02:50.33	246.22	13.91	-25.3	-26.1	15.6	0.00e+00	0	44	0	4135583744	10	3963
2026-01-30 06:02:53.34	245.92	13.64	-25.2	-26.0	15.7	0.00e+00	0	44	0	4157603840	10	3922
2026-01-30 06:02:56.37	245.62	13.37	-25.2	-26.0	15.7	0.00e+00	0	44	0	4178575360	10	3926
2026-01-30 06:02:59.37	245.33	13.11	-25.3	-26.0	15.6	0.00e+00	0	44	0	4200595456	10	3940
2026-01-30 06:03:02.38	245.04	12.85	-25.4	-26.3	15.5	0.00e+00	0	44	0	4222615552	10	3993
2026-01-30 06:03:05.38	244.76	12.59	-25.6	-26.2	15.2	0.00e+00	0	44	0	4243587072	11	3882
2026-01-30 06:03:08.40	244.49	12.33	-25.6	-26.2	15.2	0.00e+00	0	44	0	4265607168	11	3883
2026-01-30 06:03:11.40	244.21	12.08	-25.7	-26.5	15.1	0.00e+00	0	44	0	4287627264	11	3945
2026-01-30 06:03:14.41	243.95	11.83	-25.8	-26.7	15.0	0.00e+00	0	44	0	4309647360	11	3994
2026-01-30 06:03:17.41	243.69	11.58	-25.9	-27.1	14.7	0.00e+00	0	44	0	4330618880	11	4094
2026-01-30 06:03:20.42	243.43	11.33	-26.3	-27.5	14.1	4.50e-06	0	44	0	4352638976	12	4100
2026-01-30 06:03:23.44	243.17	11.08	-26.0	-26.7	14.5	0.00e+00	0	44	0	4374659072	12	3900
2026-01-30 06:03:26.45	242.92	10.84	-26.0	-26.7	14.5	1.10e-06	0	44	0	4396679168	12	3900
2026-01-30 06:03:29.45	242.68	10.59	-25.8	-26.7	14.8	1.10e-06	0	44	0	4417650688	11	3995
2026-01-30 06:03:32.45	242.44	10.35	-25.5	-26.1	15.2	1.10e-06	0	44	0	4439670784	11	3853
2026-01-30 06:03:35.47	242.20	10.11	-25.5	-26.1	15.1	1.09e-04	0	44	0	4461690880	11	3849
2026-01-30 06:03:38.49	241.97	9.88	-25.6	-26.4	14.9	1.21e-04	0	44	0	4483710976	11	3930
2026-01-30 06:03:41.51	241.74	9.64	-25.9	-27.0	14.6	1.04e-04	0	44	0	4504682496	11	4090
2026-01-30 06:03:44.51	241.52	9.41	-26.1	-27.0	14.2	2.20e-06	0	44	0	4526702592	12	3978
2026-01-30 06:03:47.52	241.29	9.17	-26.4	-27.7	13.8	1.26e-04	0	44	0	4548722688	12	4175
2026-01-30 06:03:50.54	241.08	8.94	-26.7	-27.9	13.4	9.04e-05	0	44	0	4570742784	13	4127
2026-01-30 06:03:53.56	240.86	8.71	-26.9	-28.4	13.1	6.75e-05	0	44	0	4591714304	13	4252
2026-01-30 06:03:56.56	240.65	8.49	-26.9	-28.4	13.1	2.17e-05	0	44	0	4613734400	13	4248
2026-01-30 06:03:59.58	240.44	8.26	-26.9	-28.4	13.0	2.74e-05	0	44	0	4635754496	13	4254
2026-01-30 06:04:02.59	240.24	8.04	-26.9	-28.3	13.0	3.20e-05	0	44	0	4656726016	13	4223
2026-01-30 06:04:05.60	240.04	7.82	-26.8	-28.2	13.1	2.17e-05	0	44	0	4678746112	13	4200
2026-01-30 06:04:08.62	239.84	7.60	-26.8	-28.0	13.2	2.40e-05	0	44	0	4700766208	13	4151
2026-01-30 06:04:11.64	239.64	7.38	-26.7	-27.9	13.2	2.05e-05	0	44	0	4722786304	13	4131
2026-01-30 06:04:14.64	239.45	7.16	-26.7	-27.9	13.2	1.48e-05	0	44	0	4744806400	13	4118

#Closed at: 2026-01-30 06:04:16
#Recorded file [4750 MB]: D:/data/31010_260130_085317.dat