passes_logs/2026/01/30/R2M6_AANII_01/R2M6_AANII_01__20260130_122320_FENGYUN_3D_rec.log

#Pass ID: 20260130_122320_FENGYUN 3D
#Satellite: FENGYUN 3D
#Configuration: FENGYUN 3D
#almurnet v.1.7.20240730
#Start time: 2026-01-30 12:23:21

#Version: 2.2.20231116
#Station: R2M6_AANII_01
#Location: 30.233357 lon 59.946436 lat
#TLE: 1 43010U 17072A   26029.52179110  .00000394  00000+0  20818-3 0  9997
#TLE: 2 43010  98.9957   1.5649 0002507  83.7772 276.3689 14.19703315425310

#Time	Az	El	Level	Level2	SNR	BER	BlckErr	Temp	State	Recorded	gain1	gain2
2026-01-30 12:23:21.07	159.89	7.06	-29.8	-32.9	5.2	7.95e-01	0	41	0	0	21	5100
2026-01-30 12:23:24.09	159.90	7.30	-29.4	-31.8	10.0	8.02e-03	0	41	0	5242880	20	4792
2026-01-30 12:23:27.13	159.92	7.54	-29.3	-32.3	10.1	5.16e-03	0	41	0	23068672	19	5036
2026-01-30 12:23:30.16	159.93	7.78	-29.8	-33.1	9.2	1.81e-02	0	42	0	39845888	20	5281
2026-01-30 12:23:33.19	159.95	8.02	-28.5	-30.6	11.5	8.64e-04	0	41	0	56623104	18	4607
2026-01-30 12:23:36.22	159.96	8.27	-27.1	-28.8	13.4	8.00e-06	0	42	0	73400320	15	4376
2026-01-30 12:23:39.25	159.98	8.51	-26.6	-28.1	14.1	3.40e-06	0	42	0	90177536	14	4303
2026-01-30 12:23:42.29	160.00	8.77	-26.6	-28.2	14.0	1.10e-06	0	41	0	108003328	14	4325
2026-01-30 12:23:45.32	160.01	9.02	-26.8	-28.6	13.9	1.10e-06	0	42	0	124780544	14	4403
2026-01-30 12:23:48.35	160.03	9.28	-26.9	-28.6	13.9	4.50e-06	0	42	0	141557760	14	4414
2026-01-30 12:23:51.38	160.05	9.53	-27.2	-29.3	13.5	3.40e-06	0	42	0	159383552	14	4629
2026-01-30 12:23:54.42	160.06	9.80	-27.2	-29.4	13.5	5.70e-06	0	42	0	176160768	14	4657
2026-01-30 12:23:57.45	160.08	10.06	-27.3	-29.6	13.4	5.70e-06	0	42	0	192937984	14	4705
2026-01-30 12:24:00.48	160.10	10.33	-27.3	-29.7	13.3	5.70e-06	0	42	0	209715200	14	4751
2026-01-30 12:24:03.52	160.11	10.60	-27.5	-29.6	13.1	2.74e-05	0	42	0	227540992	15	4596
2026-01-30 12:24:06.54	160.13	10.87	-26.5	-27.9	14.4	1.10e-06	0	42	0	244318208	14	4199
2026-01-30 12:24:09.58	160.15	11.15	-26.3	-27.8	14.7	0.00e+00	0	42	0	261095424	13	4297
2026-01-30 12:24:12.61	160.17	11.43	-26.3	-27.8	14.8	0.00e+00	0	42	0	277872640	13	4260
2026-01-30 12:24:15.64	160.19	11.71	-26.3	-27.8	14.8	0.00e+00	0	42	0	295698432	13	4270
2026-01-30 12:24:18.67	160.20	11.99	-26.0	-27.0	15.3	0.00e+00	0	42	0	312475648	13	4056
2026-01-30 12:24:21.70	160.22	12.28	-25.8	-26.7	15.5	0.00e+00	0	42	0	329252864	13	3963
2026-01-30 12:24:24.73	160.24	12.57	-25.7	-27.0	15.6	0.00e+00	0	42	0	346030080	12	4150
2026-01-30 12:24:27.76	160.26	12.87	-25.8	-27.0	15.6	0.00e+00	0	42	0	363855872	12	4154
2026-01-30 12:24:30.79	160.28	13.17	-25.6	-26.6	15.9	0.00e+00	0	42	0	380633088	12	4054
2026-01-30 12:24:33.83	160.30	13.47	-25.4	-26.3	16.0	0.00e+00	0	43	0	397410304	12	3969
2026-01-30 12:24:36.86	160.32	13.78	-25.4	-26.2	16.1	0.00e+00	0	43	0	414187520	12	3949
2026-01-30 12:24:39.89	160.34	14.09	-25.4	-26.2	16.1	0.00e+00	0	43	0	432013312	12	3944
2026-01-30 12:24:42.92	160.36	14.41	-25.4	-26.7	16.2	0.00e+00	0	43	0	448790528	11	4175
2026-01-30 12:24:45.96	160.38	14.73	-25.2	-26.3	16.4	0.00e+00	0	43	0	465567744	11	4084
2026-01-30 12:24:48.99	160.40	15.05	-25.1	-26.1	16.6	0.00e+00	0	43	0	483393536	11	4032
2026-01-30 12:24:52.02	160.42	15.38	-25.0	-25.8	16.7	0.00e+00	0	43	0	500170752	11	3956
2026-01-30 12:24:55.05	160.44	15.71	-25.0	-25.8	16.8	0.00e+00	0	43	0	516947968	11	3947
2026-01-30 12:24:58.09	160.46	16.05	-25.1	-26.0	16.7	0.00e+00	0	43	0	533725184	11	4009
2026-01-30 12:25:01.12	160.48	16.39	-25.2	-26.3	16.6	0.00e+00	0	43	0	551550976	11	4067
2026-01-30 12:25:04.15	160.50	16.74	-24.8	-25.4	17.0	4.50e-06	0	43	0	568328192	11	3859
2026-01-30 12:25:07.18	160.52	17.09	-24.8	-25.8	17.1	1.25e-05	0	43	0	585105408	10	4048
2026-01-30 12:25:10.21	160.54	17.45	-24.5	-25.3	17.4	0.00e+00	0	43	0	601882624	10	3921
2026-01-30 12:25:13.25	160.57	17.81	-24.4	-25.1	17.5	0.00e+00	0	43	0	619708416	10	3882
2026-01-30 12:25:16.28	160.59	18.18	-24.4	-24.9	17.6	1.10e-06	0	43	0	636485632	10	3846
2026-01-30 12:25:19.31	160.61	18.55	-24.5	-25.2	17.5	0.00e+00	0	43	0	653262848	10	3904
2026-01-30 12:25:22.35	160.63	18.93	-24.4	-25.0	17.5	0.00e+00	0	43	0	670040064	10	3855
2026-01-30 12:25:25.38	160.66	19.32	-24.2	-25.1	17.8	0.00e+00	0	43	0	687865856	9	3979
2026-01-30 12:25:28.41	160.68	19.71	-24.3	-25.2	17.8	0.00e+00	0	43	0	704643072	9	4007
2026-01-30 12:25:31.45	160.71	20.11	-24.0	-24.6	18.0	0.00e+00	0	43	0	721420288	9	3865
2026-01-30 12:25:34.48	160.73	20.51	-23.8	-24.3	18.2	0.00e+00	0	43	0	739246080	9	3786
2026-01-30 12:25:37.51	160.76	20.92	-23.7	-24.6	18.3	0.00e+00	0	43	0	756023296	8	3959
2026-01-30 12:25:40.54	160.78	21.34	-23.7	-24.5	18.4	0.00e+00	0	43	0	772800512	8	3956
2026-01-30 12:25:43.58	160.81	21.76	-23.8	-24.7	18.3	0.00e+00	0	43	0	789577728	8	3996
2026-01-30 12:25:46.61	160.83	22.19	-24.1	-25.4	18.0	0.00e+00	0	43	0	807403520	8	4175
2026-01-30 12:25:49.65	160.86	22.64	-24.1	-25.4	18.0	0.00e+00	0	43	0	824180736	8	4171
2026-01-30 12:25:52.68	160.89	23.08	-24.1	-25.3	18.0	0.00e+00	0	43	0	840957952	8	4143
2026-01-30 12:25:55.71	160.92	23.54	-23.8	-24.7	18.4	0.00e+00	0	43	0	857735168	8	3988
2026-01-30 12:25:58.74	160.95	24.00	-23.6	-24.3	18.6	0.00e+00	0	43	0	875560960	8	3902
2026-01-30 12:26:01.78	160.97	24.47	-23.3	-24.1	18.9	0.00e+00	0	43	0	892338176	7	3963
2026-01-30 12:26:04.81	161.00	24.95	-23.2	-24.0	19.0	0.00e+00	0	43	0	909115392	7	3928
2026-01-30 12:26:07.84	161.03	25.44	-23.3	-24.2	18.9	0.00e+00	0	43	0	926941184	7	3992
2026-01-30 12:26:10.88	161.07	25.94	-23.3	-24.1	19.0	0.00e+00	0	43	0	943718400	7	3953
2026-01-30 12:26:13.91	161.10	26.45	-23.5	-24.7	18.7	0.00e+00	0	43	0	960495616	7	4100
2026-01-30 12:26:16.94	161.13	26.96	-23.6	-24.7	18.7	0.00e+00	0	43	0	977272832	7	4103
2026-01-30 12:26:19.98	161.16	27.49	-23.9	-25.5	18.3	0.00e+00	0	43	0	995098624	7	4300
2026-01-30 12:26:23.01	161.20	28.03	-23.2	-23.9	19.1	0.00e+00	0	43	0	1011875840	7	3913
2026-01-30 12:26:26.03	161.23	28.57	-23.1	-23.8	19.2	0.00e+00	0	43	0	1028653056	7	3886
2026-01-30 12:26:29.06	161.27	29.13	-23.1	-23.7	19.2	0.00e+00	0	43	0	1045430272	7	3874
2026-01-30 12:26:32.10	161.30	29.70	-23.3	-24.2	19.0	0.00e+00	0	43	0	1063256064	7	3989
2026-01-30 12:26:35.13	161.34	30.29	-23.4	-24.3	19.0	0.00e+00	0	43	0	1080033280	7	3997
2026-01-30 12:26:38.16	161.38	30.88	-23.3	-24.0	19.1	0.00e+00	0	43	0	1096810496	7	3935
2026-01-30 12:26:41.19	161.42	31.49	-23.6	-24.8	18.7	0.00e+00	0	43	0	1113587712	7	4129
2026-01-30 12:26:44.22	161.46	32.10	-22.9	-23.3	19.4	0.00e+00	0	43	0	1131413504	7	3782
2026-01-30 12:26:47.25	161.50	32.74	-22.9	-23.3	19.4	0.00e+00	0	43	0	1148190720	7	3778
2026-01-30 12:26:50.29	161.54	33.38	-23.0	-23.5	19.4	0.00e+00	0	43	0	1164967936	7	3813
2026-01-30 12:26:53.32	161.59	34.04	-22.6	-23.1	19.8	0.00e+00	0	43	0	1182793728	6	3837
2026-01-30 12:26:56.35	161.63	34.72	-22.8	-23.6	19.6	0.00e+00	0	43	0	1199570944	6	3943
2026-01-30 12:26:59.38	161.68	35.41	-22.8	-23.7	19.6	0.00e+00	0	43	0	1216348160	6	3959
2026-01-30 12:27:02.42	161.73	36.11	-22.8	-23.5	19.7	0.00e+00	0	43	0	1233125376	6	3921
2026-01-30 12:27:05.45	161.78	36.83	-22.6	-23.2	19.8	0.00e+00	0	43	0	1250951168	6	3847
2026-01-30 12:27:08.48	161.83	37.57	-22.7	-23.3	19.8	0.00e+00	0	43	0	1267728384	6	3867
2026-01-30 12:27:11.51	161.89	38.32	-22.5	-23.0	19.9	0.00e+00	0	43	0	1284505600	6	3809
2026-01-30 12:27:14.54	161.94	39.09	-22.7	-23.3	19.8	0.00e+00	0	43	0	1301282816	6	3877
2026-01-30 12:27:17.58	162.00	39.88	-22.7	-23.4	19.8	0.00e+00	0	43	0	1319108608	6	3904
2026-01-30 12:27:20.61	162.06	40.69	-22.9	-23.8	19.6	0.00e+00	0	43	0	1335885824	6	3992
2026-01-30 12:27:23.64	162.13	41.51	-23.3	-24.6	19.2	0.00e+00	0	43	0	1352663040	6	4184
2026-01-30 12:27:26.68	162.20	42.36	-23.3	-24.7	19.1	0.00e+00	0	43	0	1370488832	6	4229
2026-01-30 12:27:29.71	162.27	43.22	-23.4	-24.8	19.1	0.00e+00	0	43	0	1387266048	6	4228
2026-01-30 12:27:32.74	162.34	44.10	-23.3	-24.6	19.2	1.10e-06	0	43	0	1404043264	6	4192
2026-01-30 12:27:35.78	162.42	45.01	-23.9	-25.4	18.6	0.00e+00	0	43	0	1420820480	7	4270
2026-01-30 12:27:38.81	162.50	45.93	-23.6	-24.2	19.0	0.00e+00	0	43	0	1437597696	8	3852
2026-01-30 12:27:41.84	162.58	46.87	-23.7	-24.4	18.9	0.00e+00	0	43	0	1455423488	8	3915
2026-01-30 12:27:44.87	162.67	47.84	-23.2	-23.9	19.4	0.00e+00	0	43	0	1472200704	7	3898
2026-01-30 12:27:47.90	162.77	48.83	-22.8	-23.1	19.8	0.00e+00	0	43	0	1488977920	7	3722
2026-01-30 12:27:50.94	162.87	49.84	-23.7	-25.1	18.8	0.00e+00	0	43	0	1506803712	7	4188
2026-01-30 12:27:53.97	162.97	50.88	-24.4	-25.8	18.2	0.00e+00	0	43	0	1523580928	8	4263
2026-01-30 12:27:57.00	163.09	51.94	-24.4	-26.0	18.1	0.00e+00	0	43	0	1540358144	8	4308
2026-01-30 12:28:00.04	163.21	53.02	-23.4	-23.9	19.2	0.00e+00	0	43	0	1557135360	8	3782
2026-01-30 12:28:03.07	163.34	54.13	-24.5	-26.1	18.0	0.00e+00	0	43	0	1574961152	8	4354
2026-01-30 12:28:06.10	163.48	55.26	-24.1	-24.7	18.6	0.00e+00	0	43	0	1591738368	9	3872
2026-01-30 12:28:09.13	163.63	56.41	-24.3	-25.3	18.3	0.00e+00	0	43	0	1608515584	9	4027
2026-01-30 12:28:12.17	163.79	57.59	-24.1	-24.8	18.5	0.00e+00	0	43	0	1626341376	9	3890
2026-01-30 12:28:15.20	163.97	58.79	-24.2	-25.0	18.4	0.00e+00	0	43	0	1643118592	9	3957
2026-01-30 12:28:18.23	164.16	60.02	-23.1	-23.7	19.7	0.00e+00	0	44	0	1659895808	7	3847
2026-01-30 12:28:21.26	164.37	61.27	-23.6	-24.7	19.2	0.00e+00	0	43	0	1676673024	7	4095
2026-01-30 12:28:24.29	164.61	62.55	-23.1	-23.7	19.6	0.00e+00	0	43	0	1694498816	7	3865
2026-01-30 12:28:27.33	164.86	63.85	-22.8	-23.6	19.8	0.00e+00	0	43	0	1711276032	6	3950
2026-01-30 12:28:30.36	165.15	65.17	-22.3	-22.6	20.3	0.00e+00	0	44	0	1728053248	6	3711
2026-01-30 12:28:33.39	165.47	66.51	-22.3	-23.0	20.4	0.00e+00	0	43	0	1744830464	5	3898
2026-01-30 12:28:36.43	165.84	67.88	-22.4	-23.1	20.4	0.00e+00	0	44	0	1762656256	5	3930
2026-01-30 12:28:39.46	166.25	69.27	-22.4	-23.3	20.3	0.00e+00	0	43	0	1779433472	5	3970
2026-01-30 12:28:42.49	166.73	70.67	-21.9	-22.7	20.8	0.00e+00	0	43	0	1796210688	4	3940
2026-01-30 12:28:45.53	167.29	72.10	-21.5	-21.9	21.2	0.00e+00	0	43	0	1814036480	4	3763
2026-01-30 12:28:48.56	167.95	73.54	-21.6	-22.2	21.0	0.00e+00	0	43	0	1830813696	4	3824
2026-01-30 12:28:51.59	168.74	75.00	-21.6	-22.1	21.1	0.00e+00	0	44	0	1847590912	4	3815
2026-01-30 12:28:54.62	169.71	76.47	-21.3	-22.1	21.4	0.00e+00	0	43	0	1864368128	3	3908
2026-01-30 12:28:57.66	170.92	77.95	-20.9	-21.1	21.9	0.00e+00	0	43	0	1881145344	3	3692
2026-01-30 12:29:00.69	172.47	79.44	-21.4	-22.0	21.7	0.00e+00	0	44	0	1898971136	3	3888
2026-01-30 12:29:03.72	174.54	80.93	-21.2	-21.7	21.9	0.00e+00	0	44	0	1915748352	3	3805
2026-01-30 12:29:06.76	177.45	82.41	-20.6	-20.9	22.5	0.00e+00	0	43	0	1932525568	2	3748
2026-01-30 12:29:09.79	181.74	83.88	-20.4	-21.0	22.7	0.00e+00	0	43	0	1950351360	1	3856
2026-01-30 12:29:12.82	188.69	85.29	-22.8	-23.9	20.4	0.00e+00	0	43	0	1967128576	5	4111
2026-01-30 12:29:15.85	201.22	86.58	-23.0	-23.8	20.3	0.00e+00	0	44	0	1983905792	6	3971
2026-01-30 12:29:18.89	225.90	87.54	-22.9	-23.6	20.4	0.00e+00	0	43	0	2000683008	6	3927
2026-01-30 12:29:21.92	264.13	87.70	-22.9	-23.7	20.4	0.00e+00	0	43	0	2018508800	6	3933
2026-01-30 12:29:24.95	293.78	86.93	-22.5	-23.0	20.6	0.00e+00	0	43	0	2035286016	6	3775
2026-01-30 12:29:27.98	309.14	85.71	-22.1	-22.5	21.0	0.00e+00	0	44	0	2052063232	5	3780
2026-01-30 12:29:31.02	317.38	84.31	-21.8	-22.5	21.2	0.00e+00	0	44	0	2069889024	4	3888
2026-01-30 12:29:34.05	322.31	82.86	-22.3	-23.4	20.6	0.00e+00	0	44	0	2086666240	4	4109
2026-01-30 12:29:37.08	325.55	81.39	-21.7	-22.3	21.1	0.00e+00	0	44	0	2103443456	4	3858
2026-01-30 12:29:40.12	327.84	79.90	-21.7	-22.2	21.2	0.00e+00	0	43	0	2120220672	4	3806
2026-01-30 12:29:43.15	329.53	78.41	-21.6	-22.0	21.3	0.00e+00	0	44	0	2138046464	4	3785
2026-01-30 12:29:46.18	330.83	76.93	-21.1	-21.6	21.8	0.00e+00	0	44	0	2154823680	3	3783
2026-01-30 12:29:49.21	331.86	75.46	-21.3	-21.9	21.7	0.00e+00	0	43	0	2171600896	3	3851
2026-01-30 12:29:52.25	332.70	74.00	-21.5	-22.3	21.4	0.00e+00	0	43	0	2188378112	3	3958
2026-01-30 12:29:55.28	333.39	72.55	-21.7	-22.8	21.2	0.00e+00	0	44	0	2206203904	3	4073
2026-01-30 12:29:58.31	333.98	71.13	-21.5	-22.3	21.4	0.00e+00	0	43	0	2222981120	3	3954
2026-01-30 12:30:01.35	334.48	69.71	-21.9	-23.1	21.0	0.00e+00	0	43	0	2239758336	3	4131
2026-01-30 12:30:04.38	334.92	68.32	-22.9	-24.1	20.0	0.00e+00	0	43	0	2257584128	5	4173
2026-01-30 12:30:07.41	335.30	66.96	-23.2	-24.3	19.7	0.00e+00	0	43	0	2274361344	6	4093
2026-01-30 12:30:10.45	335.63	65.61	-23.1	-23.7	19.7	0.00e+00	0	43	0	2291138560	7	3837
2026-01-30 12:30:13.48	335.93	64.28	-22.7	-23.2	20.2	0.00e+00	0	43	0	2307915776	6	3842
2026-01-30 12:30:16.51	336.20	62.98	-23.3	-24.6	19.5	0.00e+00	0	44	0	2324692992	6	4161
2026-01-30 12:30:19.54	336.44	61.70	-22.7	-23.2	20.1	0.00e+00	0	43	0	2342518784	6	3832
2026-01-30 12:30:22.58	336.65	60.44	-22.6	-23.1	20.2	0.00e+00	0	44	0	2359296000	6	3822
2026-01-30 12:30:25.61	336.85	59.21	-23.1	-24.2	19.6	0.00e+00	0	44	0	2376073216	6	4066
2026-01-30 12:30:28.64	337.04	58.01	-23.4	-24.7	19.4	0.00e+00	0	44	0	2393899008	6	4186
2026-01-30 12:30:31.67	337.20	56.82	-23.4	-24.3	19.3	0.00e+00	0	43	0	2410676224	7	3982
2026-01-30 12:30:34.71	337.36	55.66	-24.5	-26.0	18.2	0.00e+00	0	43	0	2427453440	8	4301
2026-01-30 12:30:37.74	337.50	54.53	-24.4	-25.4	18.2	0.00e+00	0	43	0	2444230656	9	4034
2026-01-30 12:30:40.77	337.64	53.42	-24.4	-25.3	18.3	0.00e+00	0	43	0	2462056448	9	4009
2026-01-30 12:30:43.80	337.76	52.33	-24.6	-25.9	18.0	0.00e+00	0	44	0	2478833664	9	4148
2026-01-30 12:30:46.84	337.88	51.27	-23.4	-23.8	19.3	0.00e+00	0	44	0	2495610880	8	3769
2026-01-30 12:30:49.87	337.99	50.23	-23.0	-23.5	19.6	0.00e+00	0	43	0	2513436672	7	3798
2026-01-30 12:30:52.90	338.09	49.21	-22.7	-23.3	20.0	0.00e+00	0	44	0	2530213888	6	3863
2026-01-30 12:30:55.94	338.19	48.22	-22.8	-23.5	19.9	0.00e+00	0	43	0	2546991104	6	3911
2026-01-30 12:30:58.97	338.28	47.25	-22.9	-23.7	19.8	0.00e+00	0	44	0	2563768320	6	3955
2026-01-30 12:31:02.00	338.37	46.30	-22.5	-22.9	20.2	0.00e+00	0	44	0	2581594112	6	3758
2026-01-30 12:31:05.03	338.45	45.37	-22.9	-23.7	19.8	0.00e+00	0	43	0	2598371328	6	3944
2026-01-30 12:31:08.06	338.53	44.47	-22.6	-23.2	20.0	0.00e+00	0	44	0	2615148544	6	3830
2026-01-30 12:31:11.09	338.60	43.58	-22.6	-23.2	20.0	0.00e+00	0	43	0	2631925760	6	3828
2026-01-30 12:31:14.12	338.67	42.71	-22.9	-23.8	19.7	0.00e+00	0	44	0	2649751552	6	3968
2026-01-30 12:31:17.15	338.74	41.87	-22.6	-23.2	20.0	0.00e+00	0	43	0	2666528768	6	3837
2026-01-30 12:31:20.18	338.81	41.04	-22.4	-22.7	20.2	0.00e+00	0	43	0	2683305984	6	3733
2026-01-30 12:31:23.22	338.87	40.23	-22.5	-22.9	20.1	0.00e+00	0	43	0	2701131776	6	3778
2026-01-30 12:31:26.25	338.93	39.44	-22.5	-22.9	20.1	0.00e+00	0	44	0	2717908992	6	3759
2026-01-30 12:31:29.28	338.99	38.67	-22.4	-22.7	20.2	0.00e+00	0	43	0	2734686208	6	3729
2026-01-30 12:31:32.31	339.05	37.91	-22.2	-22.8	20.3	0.00e+00	0	44	0	2751463424	5	3858
2026-01-30 12:31:35.35	339.10	37.17	-22.3	-22.9	20.3	0.00e+00	0	43	0	2768240640	5	3884
2026-01-30 12:31:38.38	339.15	36.45	-22.4	-23.1	20.2	0.00e+00	0	44	0	2786066432	5	3927
2026-01-30 12:31:41.41	339.21	35.74	-22.5	-23.5	20.0	0.00e+00	0	43	0	2802843648	5	4012
2026-01-30 12:31:44.44	339.25	35.05	-22.8	-24.1	19.7	0.00e+00	0	43	0	2819620864	5	4160
2026-01-30 12:31:47.48	339.30	34.37	-23.3	-24.5	19.3	0.00e+00	0	43	0	2837446656	6	4139
2026-01-30 12:31:50.51	339.35	33.71	-23.4	-24.7	19.1	0.00e+00	0	44	0	2854223872	6	4211
2026-01-30 12:31:53.54	339.39	33.06	-22.8	-23.5	19.8	0.00e+00	0	44	0	2871001088	6	3898
2026-01-30 12:31:56.57	339.44	32.43	-22.6	-23.2	19.9	0.00e+00	0	43	0	2887778304	6	3833
2026-01-30 12:31:59.61	339.48	31.81	-22.6	-23.2	19.9	0.00e+00	0	43	0	2905604096	6	3840
2026-01-30 12:32:02.64	339.52	31.20	-22.7	-23.4	19.8	0.00e+00	0	44	0	2922381312	6	3879
2026-01-30 12:32:05.67	339.56	30.60	-22.8	-23.6	19.6	0.00e+00	0	43	0	2939158528	6	3931
2026-01-30 12:32:08.71	339.60	30.02	-22.9	-23.8	19.5	0.00e+00	0	44	0	2955935744	6	3979
2026-01-30 12:32:11.74	339.64	29.44	-23.1	-24.2	19.4	0.00e+00	0	43	0	2973761536	6	4069
2026-01-30 12:32:14.77	339.67	28.88	-23.1	-24.2	19.3	0.00e+00	0	43	0	2990538752	6	4076
2026-01-30 12:32:17.81	339.71	28.33	-23.1	-24.1	19.3	0.00e+00	0	43	0	3007315968	6	4054
2026-01-30 12:32:20.84	339.75	27.79	-22.6	-23.0	19.9	0.00e+00	0	43	0	3025141760	6	3800
2026-01-30 12:32:23.87	339.78	27.26	-22.6	-23.2	19.8	0.00e+00	0	43	0	3041918976	6	3826
2026-01-30 12:32:26.90	339.81	26.75	-22.7	-23.3	19.7	0.00e+00	0	43	0	3058696192	6	3857
2026-01-30 12:32:29.94	339.85	26.24	-22.9	-23.8	19.5	0.00e+00	0	44	0	3075473408	6	3988
2026-01-30 12:32:32.97	339.88	25.74	-23.1	-24.2	19.2	0.00e+00	0	44	0	3093299200	6	4093
2026-01-30 12:32:36.00	339.91	25.25	-23.2	-24.4	19.1	0.00e+00	0	44	0	3110076416	6	4137
2026-01-30 12:32:39.03	339.94	24.77	-23.2	-24.4	19.1	0.00e+00	0	44	0	3126853632	6	4144
2026-01-30 12:32:42.06	339.98	24.29	-23.2	-24.5	19.1	0.00e+00	0	43	0	3143630848	6	4147
2026-01-30 12:32:45.10	340.01	23.83	-23.4	-24.3	18.9	0.00e+00	0	43	0	3161456640	7	4004
2026-01-30 12:32:48.13	340.04	23.37	-23.0	-23.5	19.3	0.00e+00	0	44	0	3178233856	7	3811
2026-01-30 12:32:51.17	340.06	22.92	-23.0	-23.5	19.3	0.00e+00	0	43	0	3195011072	7	3793
2026-01-30 12:32:54.20	340.09	22.48	-23.2	-23.8	19.2	0.00e+00	0	44	0	3211788288	7	3865
2026-01-30 12:32:57.23	340.12	22.05	-23.4	-24.4	18.8	0.00e+00	0	44	0	3229614080	7	4003
2026-01-30 12:33:00.26	340.15	21.63	-23.6	-24.6	18.7	0.00e+00	0	44	0	3246391296	7	4069
2026-01-30 12:33:03.30	340.18	21.21	-23.8	-25.1	18.4	0.00e+00	0	43	0	3263168512	7	4185
2026-01-30 12:33:06.33	340.20	20.80	-23.6	-24.2	18.7	0.00e+00	0	43	0	3280994304	8	3861
2026-01-30 12:33:09.36	340.23	20.39	-23.9	-24.9	18.3	0.00e+00	0	43	0	3297771520	8	4025
2026-01-30 12:33:12.40	340.26	19.99	-24.0	-25.1	18.2	0.00e+00	0	43	0	3314548736	8	4083
2026-01-30 12:33:15.43	340.28	19.60	-24.2	-25.4	18.0	0.00e+00	0	43	0	3331325952	8	4161
2026-01-30 12:33:18.46	340.31	19.21	-24.2	-25.4	18.0	0.00e+00	0	43	0	3348103168	8	4149
2026-01-30 12:33:21.49	340.33	18.83	-24.3	-25.7	17.8	0.00e+00	0	43	0	3365928960	8	4233
2026-01-30 12:33:24.53	340.36	18.46	-24.9	-26.5	17.2	0.00e+00	0	43	0	3382706176	9	4314
2026-01-30 12:33:27.56	340.38	18.09	-24.9	-26.0	17.1	0.00e+00	0	43	0	3399483392	10	4097
2026-01-30 12:33:30.59	340.41	17.73	-24.6	-25.5	17.4	0.00e+00	0	43	0	3417309184	10	3956
2026-01-30 12:33:33.63	340.43	17.37	-24.8	-25.8	17.2	0.00e+00	0	43	0	3434086400	10	4029
2026-01-30 12:33:36.66	340.46	17.02	-24.9	-26.0	17.1	0.00e+00	0	43	0	3450863616	10	4086
2026-01-30 12:33:39.69	340.48	16.67	-25.1	-26.4	16.8	0.00e+00	0	43	0	3467640832	10	4202
2026-01-30 12:33:42.72	340.50	16.33	-24.9	-26.1	17.0	0.00e+00	0	44	0	3485466624	10	4108
2026-01-30 12:33:45.75	340.53	15.99	-25.0	-26.3	16.9	0.00e+00	0	44	0	3502243840	10	4166
2026-01-30 12:33:48.79	340.55	15.65	-25.0	-26.3	16.9	0.00e+00	0	43	0	3519021056	10	4152
2026-01-30 12:33:51.82	340.57	15.33	-25.2	-26.6	16.7	0.00e+00	0	43	0	3536846848	10	4229
2026-01-30 12:33:54.85	340.60	15.00	-25.2	-26.7	16.7	0.00e+00	0	44	0	3553624064	10	4268
2026-01-30 12:33:57.88	340.62	14.68	-25.5	-26.8	16.3	0.00e+00	0	43	0	3570401280	11	4179
2026-01-30 12:34:00.92	340.64	14.36	-25.1	-25.9	16.8	0.00e+00	0	43	0	3587178496	11	3959
2026-01-30 12:34:03.95	340.66	14.05	-25.2	-26.1	16.6	0.00e+00	0	44	0	3605004288	11	4011
2026-01-30 12:34:06.98	340.68	13.74	-25.2	-26.3	16.5	0.00e+00	0	44	0	3621781504	11	4043
2026-01-30 12:34:10.02	340.70	13.44	-25.2	-26.2	16.5	0.00e+00	0	44	0	3638558720	11	4034
2026-01-30 12:34:13.05	340.73	13.14	-25.4	-26.5	16.4	0.00e+00	0	44	0	3655335936	11	4103
2026-01-30 12:34:16.08	340.75	12.84	-25.3	-26.5	16.4	0.00e+00	0	43	0	3673161728	11	4095
2026-01-30 12:34:19.11	340.77	12.55	-25.4	-26.5	16.4	0.00e+00	0	44	0	3689938944	11	4114
2026-01-30 12:34:22.15	340.79	12.26	-25.5	-26.9	16.1	0.00e+00	0	44	0	3706716160	11	4224
2026-01-30 12:34:25.18	340.81	11.97	-25.7	-27.2	16.0	1.10e-06	0	44	0	3724541952	11	4285
2026-01-30 12:34:28.21	340.83	11.69	-25.6	-27.1	16.0	2.20e-06	0	44	0	3741319168	11	4281
2026-01-30 12:34:31.24	340.85	11.41	-26.0	-27.4	15.5	0.00e+00	0	44	0	3758096384	12	4244
2026-01-30 12:34:34.28	340.87	11.14	-25.9	-27.1	15.6	0.00e+00	0	43	0	3774873600	12	4173
2026-01-30 12:34:37.31	340.89	10.86	-25.9	-27.2	15.6	1.10e-06	0	44	0	3791650816	12	4187
2026-01-30 12:34:40.34	340.91	10.59	-25.8	-27.0	15.6	0.00e+00	0	44	0	3809476608	12	4153
2026-01-30 12:34:43.37	340.93	10.32	-26.0	-27.4	15.4	0.00e+00	0	44	0	3826253824	12	4242
2026-01-30 12:34:46.41	340.95	10.06	-26.0	-27.4	15.3	0.00e+00	0	44	0	3843031040	12	4262
2026-01-30 12:34:49.44	340.97	9.80	-26.0	-27.5	15.3	0.00e+00	0	44	0	3860856832	12	4284
2026-01-30 12:34:52.47	340.99	9.54	-26.0	-27.6	15.2	0.00e+00	0	44	0	3877634048	12	4304
2026-01-30 12:34:55.50	341.01	9.28	-26.1	-27.8	15.1	0.00e+00	0	43	0	3894411264	12	4350
2026-01-30 12:34:58.54	341.03	9.03	-26.3	-28.2	14.8	0.00e+00	0	44	0	3911188480	12	4468
2026-01-30 12:35:01.57	341.05	8.78	-26.4	-28.5	14.7	0.00e+00	0	43	0	3929014272	12	4552
2026-01-30 12:35:04.60	341.07	8.53	-26.5	-28.2	14.5	0.00e+00	0	44	0	3945791488	13	4363
2026-01-30 12:35:07.64	341.09	8.28	-26.7	-28.0	14.3	0.00e+00	0	44	0	3962568704	14	4213
2026-01-30 12:35:10.67	341.10	8.04	-26.8	-28.3	14.2	1.10e-06	0	43	0	3980394496	14	4279
2026-01-30 12:35:13.70	341.12	7.80	-26.6	-27.8	14.4	0.00e+00	0	44	0	3997171712	14	4147
2026-01-30 12:35:16.73	341.14	7.56	-26.8	-28.4	14.1	2.20e-06	0	44	0	4013948928	14	4306
2026-01-30 12:35:19.76	341.16	7.32	-26.7	-28.1	14.2	1.10e-06	0	44	0	4030726144	14	4226
2026-01-30 12:35:22.80	341.18	7.09	-32.8	-44.2	3.8	8.46e-01	0	44	104	4045406208	25	13376

#Closed at: 2026-01-30 12:35:24
#Recorded file [4045 MB]: D:/data/31010_260130_152322.dat