passes_logs/2026/01/30/R2M6_AANII_01/R2M6_AANII_01__20260130_094651_SUOMI_NPP_rec.log

#Pass ID: 20260130_094651_SUOMI NPP
#Satellite: SUOMI NPP
#Configuration: NPP
#almurnet v.1.7.20240730
#Start time: 2026-01-30 09:46:52

#Version: 2.2.20231116
#Station: R2M6_AANII_01
#Location: 30.233357 lon 59.946436 lat
#TLE: 1 37849U 11061A   26029.48304708  .00000140  00000+0  87283-4 0  9999
#TLE: 2 37849  98.7824 331.4079 0002024  38.4342 321.6978 14.19531488738761

#Time	Az	El	Level	Level2	SNR	BER	BlckErr	Temp	State	Recorded	gain1	gain2
2026-01-30 09:46:52.35	141.01	7.08	-31.1	-35.9	4.9	1.32e+00	0	41	0	0	23	6269
2026-01-30 09:46:55.36	140.93	7.31	-31.0	-35.4	7.7	7.61e-02	0	41	0	1048576	23	5999
2026-01-30 09:46:58.36	140.84	7.55	-30.6	-34.6	8.7	3.42e-02	0	41	0	7340032	22	5698
2026-01-30 09:47:01.35	140.75	7.78	-30.6	-34.3	9.0	2.06e-02	0	41	0	12582912	22	5526
2026-01-30 09:47:04.37	140.65	8.02	-30.6	-34.4	9.0	2.42e-02	0	41	0	17825792	22	5572
2026-01-30 09:47:07.38	140.56	8.26	-30.5	-33.5	9.8	1.26e-02	0	41	0	24117248	22	5105
2026-01-30 09:47:10.39	140.46	8.50	-30.1	-32.6	10.9	2.03e-03	0	41	0	29360128	21	4794
2026-01-30 09:47:13.40	140.37	8.74	-30.3	-33.1	10.7	3.04e-03	0	42	0	35651584	21	4958
2026-01-30 09:47:16.41	140.27	8.99	-30.3	-33.0	10.8	2.44e-03	0	42	0	40894464	21	4914
2026-01-30 09:47:19.43	140.16	9.24	-30.2	-32.6	11.1	2.38e-03	0	42	0	46137344	21	4738
2026-01-30 09:47:22.44	140.06	9.49	-29.7	-31.3	12.4	1.72e-04	0	42	0	52428800	20	4353
2026-01-30 09:47:25.45	139.96	9.75	-29.7	-31.4	12.4	1.28e-04	0	42	0	57671680	20	4393
2026-01-30 09:47:28.46	139.85	10.00	-29.6	-31.2	12.6	8.69e-05	0	42	0	63963136	20	4320
2026-01-30 09:47:31.46	139.74	10.26	-30.1	-32.6	11.7	3.22e-04	0	42	0	69206016	20	4790
2026-01-30 09:47:34.48	139.63	10.52	-30.2	-32.8	11.6	4.81e-04	0	42	0	74448896	20	4841
2026-01-30 09:47:37.50	139.51	10.79	-29.8	-31.5	12.6	1.38e-04	0	42	0	80740352	20	4352
2026-01-30 09:47:40.50	139.40	11.06	-29.5	-30.6	13.2	3.58e-05	0	42	0	85983232	20	4082
2026-01-30 09:47:43.50	139.28	11.32	-29.3	-30.4	13.7	6.10e-06	0	42	0	91226112	19	4106
2026-01-30 09:47:46.51	139.16	11.60	-29.4	-30.9	13.4	1.29e-05	0	42	0	97517568	19	4255
2026-01-30 09:47:49.53	139.04	11.87	-30.1	-32.2	12.1	2.01e-04	0	42	0	102760448	20	4619
2026-01-30 09:47:52.55	138.91	12.15	-29.9	-31.7	12.5	1.27e-04	0	42	0	109051904	20	4422
2026-01-30 09:47:55.56	138.78	12.44	-29.1	-30.0	14.1	7.60e-06	0	42	0	114294784	19	3969
2026-01-30 09:47:58.56	138.65	12.72	-28.9	-29.3	14.5	0.00e+00	0	43	0	119537664	19	3767
2026-01-30 09:48:01.58	138.52	13.01	-28.9	-29.9	14.5	0.00e+00	0	42	0	125829120	18	4042
2026-01-30 09:48:04.60	138.38	13.30	-29.7	-31.5	13.2	1.44e-05	0	43	0	131072000	19	4426
2026-01-30 09:48:07.62	138.24	13.60	-29.8	-31.4	12.8	7.62e-05	0	43	0	137363456	20	4306
2026-01-30 09:48:10.62	138.10	13.89	-29.3	-30.1	13.7	1.37e-05	0	43	0	142606336	20	3909
2026-01-30 09:48:13.62	137.96	14.19	-28.9	-29.8	14.6	0.00e+00	0	43	0	147849216	18	3995
2026-01-30 09:48:16.63	137.81	14.50	-28.9	-29.9	14.5	0.00e+00	0	43	0	154140672	18	4066
2026-01-30 09:48:19.64	137.66	14.81	-29.4	-31.2	13.7	3.00e-06	0	43	0	159383552	18	4472
2026-01-30 09:48:22.64	137.50	15.12	-29.4	-30.9	13.6	6.80e-06	0	43	0	164626432	19	4268
2026-01-30 09:48:25.66	137.34	15.44	-29.2	-30.1	14.3	3.00e-06	0	43	0	170917888	19	3975
2026-01-30 09:48:28.67	137.18	15.76	-29.1	-29.8	14.5	0.00e+00	0	43	0	176160768	19	3894
2026-01-30 09:48:31.67	137.02	16.08	-29.6	-30.9	13.8	3.00e-06	0	43	0	182452224	19	4207
2026-01-30 09:48:34.68	136.85	16.41	-29.8	-31.6	13.4	1.98e-05	0	43	0	187695104	19	4423
2026-01-30 09:48:37.69	136.67	16.74	-29.4	-30.7	14.0	4.50e-06	0	43	0	192937984	19	4158
2026-01-30 09:48:40.70	136.50	17.08	-28.9	-29.2	14.9	0.00e+00	0	43	0	199229440	19	3746
2026-01-30 09:48:43.71	136.32	17.42	-29.1	-29.7	14.7	0.00e+00	0	43	0	204472320	19	3838
2026-01-30 09:48:46.72	136.13	17.77	-29.9	-31.4	13.3	5.30e-06	0	43	0	209715200	20	4247
2026-01-30 09:48:49.72	135.94	18.12	-29.6	-30.5	14.0	9.90e-06	0	43	0	216006656	20	3982
2026-01-30 09:48:52.73	135.74	18.47	-29.2	-30.0	14.6	0.00e+00	0	43	0	221249536	19	3942
2026-01-30 09:48:55.74	135.54	18.84	-29.5	-30.7	14.2	7.00e-07	0	43	0	227540992	19	4115
2026-01-30 09:48:58.75	135.34	19.20	-29.8	-31.0	13.7	9.90e-06	0	43	0	232783872	20	4110
2026-01-30 09:49:01.75	135.13	19.57	-29.5	-30.1	14.3	0.00e+00	0	43	0	238026752	20	3857
2026-01-30 09:49:04.76	134.91	19.94	-29.4	-29.8	14.5	0.00e+00	0	43	0	244318208	20	3768
2026-01-30 09:49:07.77	134.69	20.33	-29.9	-31.1	13.7	5.30e-06	0	43	0	249561088	20	4130
2026-01-30 09:49:10.78	134.47	20.71	-30.1	-31.7	13.3	1.06e-05	0	43	0	254803968	20	4316
2026-01-30 09:49:13.80	134.23	21.10	-29.7	-30.4	14.2	1.50e-06	0	43	0	261095424	20	3938
2026-01-30 09:49:16.81	133.99	21.50	-29.8	-30.7	14.0	2.20e-06	0	43	0	266338304	20	4017
2026-01-30 09:49:19.81	133.75	21.90	-30.1	-31.7	13.4	7.60e-06	0	43	0	272629760	20	4318
2026-01-30 09:49:22.83	133.49	22.31	-29.9	-31.0	13.9	6.80e-06	0	43	0	277872640	20	4099
2026-01-30 09:49:25.83	133.24	22.73	-29.8	-30.9	14.0	7.00e-07	0	43	0	283115520	20	4041
2026-01-30 09:49:28.84	132.97	23.15	-30.1	-31.6	13.6	8.30e-06	0	43	0	289406976	20	4266
2026-01-30 09:49:31.85	132.69	23.58	-30.3	-32.1	13.3	2.36e-05	0	43	0	294649856	20	4444
2026-01-30 09:49:34.87	132.41	24.01	-30.0	-30.9	13.7	1.06e-05	0	43	0	300941312	21	3981
2026-01-30 09:49:37.86	132.12	24.45	-30.3	-31.6	13.2	2.82e-05	0	43	0	306184192	21	4186
2026-01-30 09:49:40.86	131.83	24.89	-30.5	-32.1	13.0	3.05e-05	0	43	0	311427072	21	4338
2026-01-30 09:49:43.87	131.52	25.35	-30.4	-31.9	13.2	1.37e-05	0	43	0	317718528	21	4246
2026-01-30 09:49:46.88	131.20	25.81	-30.1	-30.9	13.8	1.37e-05	0	43	0	322961408	21	3977
2026-01-30 09:49:49.90	130.87	26.28	-30.1	-30.9	13.8	8.30e-06	0	43	0	329252864	21	3965
2026-01-30 09:49:52.91	130.54	26.75	-30.6	-32.3	12.9	3.81e-05	0	43	0	334495744	21	4385
2026-01-30 09:49:55.91	130.19	27.23	-31.1	-33.1	12.1	1.60e-04	0	43	0	339738624	22	4564
2026-01-30 09:49:58.93	129.83	27.72	-31.2	-33.4	11.9	2.46e-04	0	43	0	346030080	22	4661
2026-01-30 09:50:01.94	129.46	28.22	-30.9	-32.5	12.5	1.22e-04	0	43	0	351272960	22	4333
2026-01-30 09:50:04.95	129.08	28.72	-31.2	-33.5	11.8	3.20e-04	0	43	0	356515840	22	4708
2026-01-30 09:50:07.96	128.69	29.24	-30.7	-31.9	13.0	3.66e-05	0	43	0	362807296	22	4165
2026-01-30 09:50:10.97	128.28	29.76	-30.3	-30.9	13.6	1.98e-05	0	43	0	368050176	22	3861
2026-01-30 09:50:13.98	127.86	30.29	-30.4	-31.7	13.5	2.44e-05	0	43	0	374341632	21	4180
2026-01-30 09:50:16.98	127.43	30.82	-30.3	-31.3	13.7	4.50e-06	0	44	0	379584512	21	4059
2026-01-30 09:50:19.98	126.98	31.36	-30.9	-33.0	12.6	6.79e-05	0	43	0	384827392	21	4587
2026-01-30 09:50:22.98	126.51	31.91	-31.0	-32.9	12.4	1.37e-04	0	43	0	391118848	22	4466
2026-01-30 09:50:26.01	126.03	32.48	-31.5	-33.8	11.4	1.02e-03	0	43	0	396361728	23	4704
2026-01-30 09:50:29.02	125.53	33.04	-31.4	-33.3	11.7	7.72e-04	0	43	0	401604608	23	4523
2026-01-30 09:50:32.03	125.01	33.62	-31.1	-32.6	12.3	1.40e-04	0	43	0	407896064	23	4275
2026-01-30 09:50:35.04	124.47	34.21	-31.5	-33.7	11.5	6.98e-04	0	43	0	413138944	23	4658
2026-01-30 09:50:38.05	123.92	34.80	-31.4	-34.1	7.9	2.12e-01	0	43	0	419430400	23	4937
2026-01-30 09:50:41.07	123.34	35.40	-31.9	-35.8	7.0	2.29e-01	0	43	0	424673280	23	5630
2026-01-30 09:50:44.08	122.74	36.01	-32.4	-37.0	8.5	3.78e-02	0	43	0	429916160	24	6124
2026-01-30 09:50:47.09	122.11	36.63	-31.9	-35.2	9.9	1.32e-02	0	43	0	436207616	24	5233
2026-01-30 09:50:50.09	121.47	37.25	-30.8	-32.1	12.5	1.92e-04	0	43	0	441450496	23	4172
2026-01-30 09:50:53.09	120.80	37.88	-30.3	-31.7	13.6	4.04e-05	0	44	0	446693376	21	4214
2026-01-30 09:50:56.10	120.10	38.52	-30.3	-31.7	13.5	9.10e-06	0	43	0	452984832	21	4229
2026-01-30 09:50:59.11	119.37	39.17	-31.4	-34.5	11.2	1.06e-03	0	43	0	458227712	22	5106
2026-01-30 09:51:02.11	118.61	39.82	-31.9	-35.0	10.1	4.79e-03	0	43	0	464519168	24	5161
2026-01-30 09:51:05.12	117.82	40.48	-32.3	-36.8	8.7	1.19e-02	0	43	0	469762048	24	6017
2026-01-30 09:51:08.13	117.00	41.15	-32.8	-38.2	7.2	1.26e-01	0	43	0	475004928	25	6727
2026-01-30 09:51:11.13	116.14	41.81	-32.4	-36.7	8.3	5.07e-02	0	43	0	481296384	25	5886
2026-01-30 09:51:14.14	115.25	42.49	-32.0	-35.0	9.6	1.21e-02	0	43	0	486539264	25	5084
2026-01-30 09:51:17.14	114.32	43.17	-30.9	-32.4	12.4	2.68e-04	0	43	0	491782144	23	4254
2026-01-30 09:51:20.14	113.34	43.85	-31.1	-33.3	12.1	1.82e-04	0	44	0	498073600	22	4640
2026-01-30 09:51:23.15	112.33	44.53	-31.4	-34.1	11.7	2.49e-04	0	43	0	503316480	22	4909
2026-01-30 09:51:26.15	111.27	45.22	-31.8	-34.9	10.9	3.16e-03	0	44	0	509607936	23	5124
2026-01-30 09:51:29.17	110.15	45.91	-31.3	-33.3	12.0	5.26e-04	0	43	0	514850816	23	4531
2026-01-30 09:51:32.18	108.99	46.59	-31.0	-32.8	12.6	7.85e-05	0	44	0	520093696	22	4441
2026-01-30 09:51:35.20	107.78	47.28	-31.2	-33.8	11.9	4.29e-04	0	43	0	526385152	22	4837
2026-01-30 09:51:38.21	106.51	47.96	-31.1	-32.7	12.3	4.33e-04	0	43	0	531628032	23	4342
2026-01-30 09:51:41.22	105.19	48.63	-30.7	-32.7	13.0	2.51e-05	0	43	0	537919488	21	4539
2026-01-30 09:51:44.24	103.80	49.30	-30.9	-32.8	12.6	1.56e-04	0	43	0	543162368	22	4485
2026-01-30 09:51:47.24	102.36	49.95	-31.2	-33.8	11.8	3.15e-04	0	43	0	548405248	22	4857
2026-01-30 09:51:50.26	100.85	50.60	-29.8	-30.2	14.6	2.20e-06	0	43	0	554696704	21	3776
2026-01-30 09:51:53.26	99.29	51.24	-29.2	-29.8	15.6	0.00e+00	0	43	0	559939584	19	3816
2026-01-30 09:51:56.27	97.65	51.85	-29.0	-29.2	15.9	0.00e+00	0	43	0	565182464	19	3675
2026-01-30 09:51:59.28	95.94	52.45	-30.4	-32.5	13.4	3.00e-06	0	43	0	571473920	20	4565
2026-01-30 09:52:02.29	94.16	53.03	-30.4	-31.9	13.5	2.20e-06	0	43	0	576716800	21	4266
2026-01-30 09:52:05.30	92.31	53.59	-30.0	-30.9	14.0	0.00e+00	0	43	0	583008256	21	3969
2026-01-30 09:52:08.32	90.38	54.13	-29.9	-31.1	14.3	7.00e-07	0	43	0	588251136	20	4145
2026-01-30 09:52:11.32	88.40	54.63	-29.6	-30.2	14.8	7.00e-07	0	43	0	593494016	20	3878
2026-01-30 09:52:14.33	86.34	55.10	-30.4	-32.5	13.4	3.80e-06	0	43	0	599785472	20	4606
2026-01-30 09:52:17.34	84.21	55.54	-29.9	-30.5	14.4	7.00e-07	0	43	0	605028352	21	3878
2026-01-30 09:52:20.35	82.02	55.94	-28.8	-29.3	16.1	0.00e+00	0	44	0	611319808	18	3810
2026-01-30 09:52:23.36	79.77	56.30	-29.6	-31.0	14.7	1.50e-06	0	44	0	616562688	19	4210
2026-01-30 09:52:26.36	77.47	56.61	-29.1	-29.5	15.6	0.00e+00	0	43	0	621805568	19	3790
2026-01-30 09:52:29.38	75.10	56.89	-29.6	-31.0	14.8	7.00e-07	0	44	0	628097024	19	4197
2026-01-30 09:52:32.39	72.70	57.12	-30.0	-31.5	14.0	3.00e-06	0	43	0	633339904	20	4247
2026-01-30 09:52:35.40	70.26	57.30	-28.3	-28.5	17.0	0.00e+00	0	43	0	638582784	17	3671
2026-01-30 09:52:38.42	67.79	57.43	-29.8	-31.2	14.8	0.00e+00	0	43	0	644874240	19	4220
2026-01-30 09:52:41.42	65.31	57.51	-27.9	-28.2	17.3	0.00e+00	0	43	0	650117120	16	3724
2026-01-30 09:52:44.44	62.81	57.53	-28.6	-29.2	16.5	0.00e+00	0	43	0	656408576	17	3857
2026-01-30 09:52:47.44	60.32	57.51	-28.5	-28.5	16.6	0.00e+00	0	43	0	661651456	18	3589
2026-01-30 09:52:50.45	57.84	57.43	-27.6	-27.4	17.8	0.00e+00	0	44	0	666894336	16	3530
2026-01-30 09:52:53.46	55.37	57.31	-27.1	-26.7	18.2	0.00e+00	0	44	0	673185792	15	3468
2026-01-30 09:52:56.47	52.94	57.13	-27.5	-27.8	17.6	0.00e+00	0	43	0	678428672	15	3710
2026-01-30 09:52:59.49	50.53	56.91	-27.9	-27.7	17.2	0.00e+00	0	43	0	683671552	17	3502
2026-01-30 09:53:02.50	48.17	56.63	-28.1	-28.6	17.1	0.00e+00	0	44	0	689963008	16	3819
2026-01-30 09:53:05.50	45.87	56.32	-28.1	-28.6	17.1	0.00e+00	0	43	0	695205888	16	3799
2026-01-30 09:53:08.51	43.61	55.96	-29.5	-30.5	15.2	0.00e+00	0	43	0	701497344	19	4024
2026-01-30 09:53:11.52	41.42	55.57	-29.8	-31.0	15.0	0.00e+00	0	43	0	706740224	19	4134
2026-01-30 09:53:14.53	39.29	55.13	-30.6	-32.3	13.4	4.57e-05	0	43	0	711983104	21	4390
2026-01-30 09:53:17.53	37.24	54.67	-29.9	-30.4	14.6	7.00e-07	0	43	0	718274560	21	3804
2026-01-30 09:53:20.54	35.24	54.17	-30.0	-30.6	14.5	0.00e+00	0	43	0	723517440	21	3843
2026-01-30 09:53:23.55	33.32	53.64	-30.4	-31.7	13.9	3.00e-06	0	43	0	729808896	21	4161
2026-01-30 09:53:26.56	31.47	53.08	-31.4	-33.5	12.0	3.71e-04	0	43	0	735051776	23	4568
2026-01-30 09:53:29.57	29.69	52.51	-31.4	-33.4	12.1	2.87e-04	0	44	0	740294656	23	4530
2026-01-30 09:53:32.57	27.99	51.91	-31.7	-33.7	11.5	9.63e-04	0	43	0	746586112	24	4553
2026-01-30 09:53:35.58	26.35	51.30	-31.3	-33.3	12.5	1.89e-04	0	43	0	751828992	23	4511
2026-01-30 09:53:38.58	24.78	50.67	-31.4	-33.6	11.8	1.83e-03	0	44	0	757071872	23	4612
2026-01-30 09:53:41.57	23.28	50.03	-31.0	-33.0	12.5	6.48e-05	0	43	0	763363328	22	4499
2026-01-30 09:53:44.59	21.83	49.37	-31.2	-33.3	12.3	5.87e-05	0	44	0	768606208	22	4592
2026-01-30 09:53:47.61	20.44	48.70	-31.2	-33.4	12.3	6.25e-05	0	43	0	774897664	22	4634
2026-01-30 09:53:50.62	19.12	48.03	-31.7	-34.3	11.3	3.29e-04	0	44	0	780140544	23	4871
2026-01-30 09:53:53.62	17.85	47.36	-31.7	-34.3	11.4	8.69e-04	0	43	0	785383424	23	4844
2026-01-30 09:53:56.62	16.64	46.68	-33.4	-39.8	6.1	1.51e-01	0	43	0	791674880	26	7490
2026-01-30 09:53:59.63	15.48	46.00	-31.4	-33.1	11.6	1.42e-03	0	43	0	796917760	24	4344
2026-01-30 09:54:02.64	14.37	45.31	-31.7	-33.9	11.1	1.62e-03	0	43	0	802160640	24	4646
2026-01-30 09:54:05.65	13.31	44.63	-30.2	-31.2	14.0	5.30e-06	0	44	0	808452096	21	4024
2026-01-30 09:54:08.66	12.29	43.95	-30.8	-32.7	13.0	2.44e-05	0	44	0	813694976	21	4474
2026-01-30 09:54:11.66	11.31	43.27	-31.2	-33.4	12.1	3.61e-04	0	44	0	819986432	22	4629
2026-01-30 09:54:14.65	10.39	42.60	-31.8	-34.6	10.9	2.56e-03	0	43	0	825229312	23	5001
2026-01-30 09:54:17.66	9.49	41.93	-31.7	-34.6	11.0	2.39e-03	0	44	0	830472192	23	4975
2026-01-30 09:54:20.67	8.63	41.26	-31.8	-34.3	10.9	2.55e-03	0	43	0	836763648	24	4781
2026-01-30 09:54:23.68	7.81	40.59	-31.8	-34.4	10.8	2.49e-03	0	43	0	842006528	24	4839
2026-01-30 09:54:26.69	7.01	39.94	-32.3	-36.2	9.4	1.55e-02	0	44	0	847249408	24	5600
2026-01-30 09:54:29.70	6.25	39.28	-32.3	-35.6	9.4	1.54e-02	0	43	0	853540864	25	5275
2026-01-30 09:54:32.69	5.53	38.64	-31.6	-33.8	11.1	1.70e-03	0	43	0	858783744	24	4614
2026-01-30 09:54:35.71	4.83	38.00	-31.3	-33.3	11.8	8.13e-04	0	43	0	865075200	23	4523
2026-01-30 09:54:38.71	4.16	37.38	-32.3	-36.3	9.2	7.80e-03	0	43	0	870318080	24	5685
2026-01-30 09:54:41.72	3.51	36.75	-30.9	-32.0	12.7	3.00e-04	0	44	0	875560960	23	4103
2026-01-30 09:54:44.73	2.88	36.14	-31.3	-34.0	11.6	2.01e-04	0	43	0	881852416	22	4886
2026-01-30 09:54:47.74	2.28	35.53	-31.4	-33.7	11.4	1.20e-03	0	44	0	887095296	23	4699
2026-01-30 09:54:50.75	1.71	34.93	-31.4	-33.7	11.5	6.48e-04	0	44	0	892338176	23	4689
2026-01-30 09:54:53.75	1.15	34.34	-30.6	-31.9	12.9	3.43e-05	0	44	0	898629632	22	4176
2026-01-30 09:54:56.75	0.62	33.76	-31.3	-34.0	11.5	4.16e-04	0	44	0	903872512	22	4912
2026-01-30 09:54:59.76	0.10	33.18	-31.3	-33.3	11.7	9.57e-04	0	43	0	910163968	23	4539
2026-01-30 09:55:02.76	359.60	32.62	-31.8	-34.9	10.6	2.42e-03	0	44	0	915406848	23	5165
2026-01-30 09:55:05.78	359.12	32.06	-32.0	-35.0	9.6	2.14e-02	0	44	0	920649728	25	5041
2026-01-30 09:55:08.79	358.65	31.51	-30.7	-32.2	12.7	6.71e-05	0	44	0	926941184	22	4273
2026-01-30 09:55:11.80	358.20	30.96	-31.2	-33.6	11.7	5.52e-04	0	44	0	932184064	22	4747
2026-01-30 09:55:14.81	357.77	30.43	-30.2	-31.2	13.6	1.06e-05	0	44	0	937426944	21	4062
2026-01-30 09:55:17.81	357.35	29.91	-31.3	-33.9	11.5	6.09e-04	0	44	0	943718400	22	4862
2026-01-30 09:55:20.83	356.94	29.38	-31.3	-33.6	11.3	1.47e-03	0	43	0	948961280	23	4654
2026-01-30 09:55:23.85	356.55	28.87	-30.6	-32.0	12.9	9.84e-05	0	43	0	955252736	22	4197
2026-01-30 09:55:26.87	356.16	28.37	-31.0	-33.0	12.1	2.13e-04	0	44	0	960495616	22	4527
2026-01-30 09:55:29.87	355.80	27.87	-30.7	-32.2	12.6	1.26e-04	0	44	0	965738496	22	4264
2026-01-30 09:55:32.87	355.44	27.39	-30.7	-32.0	12.7	3.89e-05	0	44	0	972029952	22	4212
2026-01-30 09:55:35.88	355.09	26.91	-31.7	-34.6	10.7	1.36e-03	0	44	0	977272832	23	5029
2026-01-30 09:55:38.88	354.76	26.43	-31.9	-35.3	10.1	7.41e-03	0	44	0	982515712	23	5336
2026-01-30 09:55:41.89	354.43	25.97	-31.4	-33.8	11.1	1.34e-03	0	43	0	988807168	23	4737
2026-01-30 09:55:44.89	354.12	25.51	-31.3	-33.3	11.6	5.64e-04	0	43	0	994050048	23	4537
2026-01-30 09:55:47.89	353.81	25.06	-30.8	-32.3	12.5	1.17e-04	0	44	0	1000341504	22	4316
2026-01-30 09:55:50.91	353.52	24.61	-30.7	-32.2	12.7	5.64e-05	0	43	0	1005584384	22	4272
2026-01-30 09:55:53.91	353.23	24.17	-31.1	-33.3	11.9	2.37e-04	0	44	0	1010827264	22	4656
2026-01-30 09:55:56.92	352.95	23.74	-31.0	-33.2	11.9	4.32e-04	0	44	0	1017118720	22	4603
2026-01-30 09:55:59.93	352.67	23.31	-30.5	-31.6	13.0	4.04e-05	0	44	0	1022361600	22	4082
2026-01-30 09:56:02.93	352.41	22.89	-30.2	-31.2	13.6	1.22e-05	0	44	0	1027604480	21	4050
2026-01-30 09:56:05.94	352.15	22.48	-30.8	-33.0	12.4	8.01e-05	0	44	0	1033895936	21	4656
2026-01-30 09:56:08.94	351.90	22.07	-31.9	-35.7	9.7	8.12e-03	0	43	0	1039138816	23	5587
2026-01-30 09:56:11.95	351.65	21.67	-32.0	-35.4	9.5	1.42e-02	0	44	0	1045430272	24	5337
2026-01-30 09:56:14.97	351.42	21.27	-31.2	-33.4	11.4	1.86e-03	0	44	0	1050673152	23	4599
2026-01-30 09:56:17.97	351.19	20.88	-30.9	-32.7	12.2	2.10e-04	0	44	0	1055916032	22	4456
2026-01-30 09:56:20.98	350.96	20.50	-30.6	-31.9	12.7	9.30e-05	0	44	0	1062207488	22	4184
2026-01-30 09:56:23.99	350.74	20.12	-30.5	-31.8	12.7	6.40e-05	0	44	0	1067450368	22	4173
2026-01-30 09:56:27.00	350.53	19.74	-30.0	-30.9	13.6	8.30e-06	0	43	0	1073741824	21	3990
2026-01-30 09:56:30.01	350.32	19.37	-29.5	-30.1	14.4	1.50e-06	0	43	0	1078984704	20	3833
2026-01-30 09:56:33.03	350.11	19.01	-29.4	-30.3	14.7	7.00e-07	0	44	0	1084227584	19	3972
2026-01-30 09:56:36.05	349.91	18.65	-29.6	-30.8	14.4	7.00e-07	0	44	0	1090519040	19	4122
2026-01-30 09:56:39.07	349.72	18.29	-29.8	-31.3	14.0	4.50e-06	0	43	0	1095761920	19	4288
2026-01-30 09:56:42.08	349.53	17.94	-30.2	-31.8	13.3	7.60e-06	0	43	0	1101004800	20	4355
2026-01-30 09:56:45.09	349.35	17.60	-30.7	-32.7	12.4	6.79e-05	0	44	0	1107296256	21	4570
2026-01-30 09:56:48.12	349.16	17.25	-30.8	-33.0	12.1	2.25e-04	0	44	0	1112539136	21	4682
2026-01-30 09:56:51.12	348.99	16.92	-31.2	-34.0	11.1	1.51e-03	0	44	0	1118830592	22	4933
2026-01-30 09:56:54.12	348.82	16.59	-31.6	-34.8	10.1	4.17e-03	0	44	0	1124073472	23	5169
2026-01-30 09:56:57.13	348.65	16.26	-31.4	-34.0	10.6	4.86e-03	0	44	0	1129316352	23	4880
2026-01-30 09:57:00.13	348.49	15.94	-31.0	-32.7	11.5	6.08e-04	0	44	0	1135607808	23	4409
2026-01-30 09:57:03.15	348.33	15.61	-30.7	-32.3	12.2	2.23e-04	0	44	0	1140850688	22	4348
2026-01-30 09:57:06.15	348.17	15.30	-30.1	-31.4	13.2	2.13e-05	0	44	0	1147142144	21	4149
2026-01-30 09:57:09.16	348.02	14.99	-30.0	-30.8	13.4	1.52e-05	0	44	0	1152385024	21	3980
2026-01-30 09:57:12.17	347.87	14.68	-30.1	-31.3	13.1	2.51e-05	0	44	0	1157627904	21	4133
2026-01-30 09:57:15.16	347.72	14.38	-30.3	-31.9	12.7	8.92e-05	0	44	0	1163919360	21	4328
2026-01-30 09:57:18.17	347.58	14.07	-30.6	-32.9	12.0	2.49e-04	0	44	0	1169162240	21	4660
2026-01-30 09:57:21.19	347.44	13.78	-31.0	-33.9	11.3	8.41e-04	0	44	0	1174405120	21	5034
2026-01-30 09:57:24.19	347.30	13.48	-31.0	-33.3	11.3	1.12e-03	0	44	0	1180696576	22	4733
2026-01-30 09:57:27.20	347.17	13.19	-31.1	-33.9	10.9	1.64e-03	0	44	0	1185939456	22	4956
2026-01-30 09:57:30.20	347.04	12.90	-31.0	-33.6	11.2	1.47e-03	0	44	0	1192230912	22	4821
2026-01-30 09:57:33.22	346.91	12.62	-31.0	-33.5	11.1	1.72e-03	0	44	0	1197473792	22	4795
2026-01-30 09:57:36.23	346.78	12.34	-30.6	-32.2	12.0	7.66e-04	0	44	0	1202716672	22	4345
2026-01-30 09:57:39.24	346.66	12.06	-30.5	-32.0	12.2	1.94e-04	0	43	0	1209008128	22	4263
2026-01-30 09:57:42.25	346.54	11.78	-30.4	-31.6	12.4	1.10e-04	0	44	0	1214251008	22	4164
2026-01-30 09:57:45.25	346.42	11.51	-30.4	-32.2	12.3	1.69e-04	0	44	0	1219493888	21	4449
2026-01-30 09:57:48.25	346.31	11.24	-30.5	-32.4	12.1	2.31e-04	0	44	0	1225785344	21	4513
2026-01-30 09:57:51.25	346.19	10.98	-30.6	-32.9	11.8	4.36e-04	0	43	0	1231028224	21	4679
2026-01-30 09:57:54.26	346.08	10.71	-30.7	-33.3	11.5	7.80e-04	0	44	0	1237319680	21	4822
2026-01-30 09:57:57.28	345.97	10.45	-30.7	-33.3	11.4	7.93e-04	0	44	0	1242562560	21	4858
2026-01-30 09:58:00.28	345.87	10.19	-30.8	-33.4	11.3	1.22e-03	0	44	0	1247805440	21	4867
2026-01-30 09:58:03.30	345.76	9.94	-30.9	-33.8	11.1	1.49e-03	0	44	0	1254096896	21	5023
2026-01-30 09:58:06.31	345.66	9.68	-30.9	-33.8	11.0	1.87e-03	0	44	0	1259339776	21	5049
2026-01-30 09:58:09.31	345.56	9.43	-30.9	-33.8	11.0	2.11e-03	0	44	0	1264582656	21	5034
2026-01-30 09:58:12.34	345.46	9.18	-31.0	-33.7	10.7	3.16e-03	0	44	0	1270874112	22	4924
2026-01-30 09:58:15.35	345.36	8.94	-31.1	-34.0	10.4	5.45e-03	0	44	0	1276116992	22	5048
2026-01-30 09:58:18.37	345.27	8.69	-30.9	-33.6	10.7	2.70e-03	0	44	0	1282408448	22	4888
2026-01-30 09:58:21.38	345.17	8.45	-31.0	-33.9	10.4	3.68e-03	0	44	0	1287651328	22	4992
2026-01-30 09:58:24.39	345.08	8.21	-31.0	-33.9	10.4	4.12e-03	0	44	0	1292894208	22	5028
2026-01-30 09:58:27.41	344.99	7.97	-31.2	-34.5	9.8	1.09e-02	0	44	0	1299185664	22	5287
2026-01-30 09:58:30.43	344.90	7.74	-31.2	-34.5	9.9	1.05e-02	0	44	0	1304428544	22	5269
2026-01-30 09:58:33.44	344.81	7.50	-31.2	-34.5	9.8	8.46e-03	0	43	0	1310720000	22	5304
2026-01-30 09:58:36.45	344.73	7.27	-31.3	-34.9	9.5	1.03e-02	0	44	0	1315962880	22	5454
2026-01-30 09:58:39.46	344.65	7.04	-32.4	-39.0	5.8	1.22e-02	0	44	0	1321205760	24	7695

#Closed at: 2026-01-30 09:58:42
#Recorded file [1322 MB]: D:/data/31010_260130_124654.dat