passes_logs/2026/01/30/R2M6_AANII_01/R2M6_AANII_01__20260130_041246_FENGYUN_3E_rec.log

#Pass ID: 20260130_041246_FENGYUN 3E
#Satellite: FENGYUN 3E
#Configuration: FENGYUN 3E
#almurnet v.1.7.20240730
#Start time: 2026-01-30 04:21:37

#Version: 2.2.20231116
#Station: R2M6_AANII_01
#Location: 30.233357 lon 59.946436 lat
#TLE: 1 49008U 21062A   26028.95833242 -.00000015  00000+0  13843-4 0  9995
#TLE: 2 49008  98.7500  33.9242 0002547 112.2873 247.8573 14.19887818236829

#Time	Az	El	Level	Level2	SNR	BER	BlckErr	Temp	State	Recorded	gain1	gain2
2026-01-30 04:21:37.31	178.71	28.29	-33.9	-44.9	3.8	8.46e-01	0	43	0	0	28	12740
2026-01-30 04:21:38.31	178.81	28.12	-34.4	-43.8	3.8	8.46e-01	0	43	104	0	29	10528
2026-01-30 04:21:39.31	178.90	27.95	-34.5	-43.8	3.8	8.46e-01	0	44	104	0	29	10592
2026-01-30 04:21:40.32	178.99	27.77	-34.5	-43.9	3.8	8.47e-01	0	43	104	0	29	10618
2026-01-30 04:21:41.32	179.09	27.60	-34.5	-43.9	3.8	8.46e-01	0	44	104	0	29	10604
2026-01-30 04:21:42.32	179.18	27.43	-34.5	-43.8	3.8	8.47e-01	0	44	104	0	29	10570
2026-01-30 04:21:43.33	179.27	27.27	-34.5	-43.8	3.8	8.46e-01	0	43	104	0	29	10592
2026-01-30 04:21:44.33	179.36	27.10	-34.4	-43.8	3.8	8.46e-01	0	44	104	0	29	10529
2026-01-30 04:21:45.33	179.45	26.93	-34.4	-43.7	3.8	8.45e-01	0	44	104	0	29	10527
2026-01-30 04:21:46.34	179.54	26.77	-34.4	-43.6	3.8	8.46e-01	0	44	104	0	29	10463
2026-01-30 04:21:47.34	179.62	26.60	-34.4	-43.6	3.8	8.46e-01	0	43	104	0	29	10483
2026-01-30 04:21:48.35	179.71	26.44	-34.3	-43.6	3.8	8.45e-01	0	44	104	0	29	10431
2026-01-30 04:21:49.36	179.79	26.27	-34.3	-43.6	3.8	8.46e-01	0	44	104	0	29	10406
2026-01-30 04:21:50.36	179.88	26.11	-34.3	-43.5	3.8	8.46e-01	0	44	104	0	29	10410
2026-01-30 04:21:51.35	179.96	25.95	-34.3	-43.5	3.8	8.47e-01	0	44	104	0	29	10393
2026-01-30 04:21:52.35	180.04	25.80	-34.4	-43.6	3.8	8.46e-01	0	43	104	0	29	10482
2026-01-30 04:21:53.35	180.13	25.64	-34.4	-43.7	3.8	8.46e-01	0	44	104	0	29	10511
2026-01-30 04:21:54.35	180.21	25.48	-34.4	-43.7	3.8	8.45e-01	0	44	104	0	29	10560
2026-01-30 04:21:55.35	180.29	25.32	-34.4	-43.7	3.8	8.46e-01	0	44	104	0	29	10504
2026-01-30 04:21:56.35	180.37	25.17	-34.3	-43.5	3.8	8.46e-01	0	44	104	0	29	10424
2026-01-30 04:21:57.35	180.45	25.01	-34.3	-43.4	3.8	8.45e-01	0	44	104	0	29	10345
2026-01-30 04:21:58.35	180.52	24.86	-34.1	-43.2	3.8	8.45e-01	0	44	104	0	29	10198
2026-01-30 04:21:59.35	180.60	24.70	-34.0	-43.0	3.8	8.46e-01	0	44	104	0	29	10136
2026-01-30 04:22:00.36	180.68	24.55	-33.8	-43.1	3.8	8.45e-01	0	44	104	0	28	10475
2026-01-30 04:22:01.36	180.76	24.40	-33.7	-43.0	3.8	8.46e-01	0	44	104	0	28	10429
2026-01-30 04:22:02.36	180.83	24.25	-33.8	-43.0	3.8	8.46e-01	0	44	104	0	28	10363
2026-01-30 04:22:03.36	180.91	24.10	-33.7	-42.8	3.8	8.46e-01	0	44	104	0	28	10189
2026-01-30 04:22:04.36	180.98	23.95	-33.7	-42.7	3.8	8.46e-01	0	43	104	0	28	10091
2026-01-30 04:22:05.36	181.05	23.80	-33.7	-42.6	3.8	8.46e-01	0	44	104	0	28	10024
2026-01-30 04:22:06.37	181.13	23.65	-32.6	-38.3	4.3	8.10e-01	0	43	104	0	24	6959
2026-01-30 04:22:07.37	181.20	23.51	-33.2	-42.5	3.8	8.42e-01	0	44	104	0	26	10512
2026-01-30 04:22:08.37	181.27	23.36	-33.0	-41.4	3.8	8.45e-01	0	43	104	0	26	9459
2026-01-30 04:22:09.37	181.34	23.21	-33.1	-41.9	3.8	8.46e-01	0	44	104	0	26	9883
2026-01-30 04:22:10.37	181.41	23.07	-33.1	-42.1	3.8	8.47e-01	0	43	104	0	26	10168
2026-01-30 04:22:11.37	181.48	22.93	-33.2	-42.4	3.8	8.47e-01	0	43	104	0	26	10456
2026-01-30 04:22:12.37	181.55	22.78	-33.2	-42.6	3.8	8.46e-01	0	43	104	0	26	10674
2026-01-30 04:22:13.37	181.62	22.64	-33.2	-42.7	3.8	8.46e-01	0	44	104	0	26	10777
2026-01-30 04:22:14.37	181.69	22.50	-33.2	-42.8	3.8	8.45e-01	0	44	104	0	26	10873
2026-01-30 04:22:15.37	181.75	22.36	-33.2	-42.9	3.8	8.47e-01	0	43	104	0	26	10954
2026-01-30 04:22:16.38	181.82	22.22	-33.2	-42.7	3.8	8.46e-01	0	44	104	0	26	10852
2026-01-30 04:22:17.38	181.89	22.08	-33.2	-42.6	3.8	8.47e-01	0	44	104	0	26	10656
2026-01-30 04:22:18.38	181.95	21.94	-33.1	-42.2	3.8	8.46e-01	0	43	104	0	26	10232
2026-01-30 04:22:19.39	182.02	21.80	-33.0	-41.4	3.8	8.45e-01	0	44	104	0	26	9433
2026-01-30 04:22:20.40	182.08	21.66	-32.9	-40.9	3.8	8.45e-01	0	43	104	0	25	9110
2026-01-30 04:22:21.40	182.15	21.53	-32.6	-39.4	4.2	8.40e-01	0	44	0	0	25	7877
2026-01-30 04:22:22.40	182.21	21.39	-32.4	-38.0	4.6	8.24e-01	0	43	0	0	25	6908
2026-01-30 04:22:23.40	182.27	21.26	-32.1	-36.7	5.2	7.66e-01	0	43	0	0	25	6084
2026-01-30 04:22:24.40	182.33	21.12	-31.7	-35.5	6.0	4.38e-01	0	43	0	2097152	24	5572
2026-01-30 04:22:25.40	182.40	20.99	-31.1	-34.0	7.2	1.90e-01	0	43	0	9437184	23	5024
2026-01-30 04:22:26.40	182.46	20.86	-30.3	-32.7	8.7	4.66e-02	0	43	0	16777216	21	4722
2026-01-30 04:22:27.40	182.52	20.72	-29.4	-30.7	10.4	8.71e-03	0	43	0	24117248	20	4160
2026-01-30 04:22:28.40	182.58	20.59	-28.5	-29.3	12.0	6.37e-04	0	43	0	31457280	18	3960
2026-01-30 04:22:29.40	182.64	20.46	-27.5	-28.0	13.4	3.31e-05	0	43	0	38797312	16	3812
2026-01-30 04:22:30.40	182.70	20.33	-26.5	-26.7	14.5	4.50e-06	0	43	0	46137344	14	3710
2026-01-30 04:22:31.40	182.76	20.20	-25.8	-26.2	15.3	0.00e+00	0	44	0	52428800	12	3776
2026-01-30 04:22:32.41	182.81	20.07	-25.4	-25.5	15.7	0.00e+00	0	44	0	60817408	12	3609
2026-01-30 04:22:33.42	182.87	19.94	-25.8	-26.7	15.3	0.00e+00	0	43	0	68157440	11	3999
2026-01-30 04:22:34.42	182.93	19.81	-25.8	-26.8	15.3	0.00e+00	0	44	0	74448896	11	4025
2026-01-30 04:22:35.43	182.99	19.69	-25.5	-26.1	15.7	0.00e+00	0	43	0	81788928	11	3859
2026-01-30 04:22:36.42	183.04	19.56	-25.3	-25.7	15.8	0.00e+00	0	44	0	89128960	11	3758
2026-01-30 04:22:37.43	183.10	19.43	-25.3	-25.6	15.9	0.00e+00	0	43	0	96468992	11	3732
2026-01-30 04:22:38.43	183.16	19.31	-25.4	-26.2	15.8	0.00e+00	0	43	0	103809024	10	3977
2026-01-30 04:22:39.43	183.21	19.18	-25.2	-26.0	16.0	0.00e+00	0	43	0	111149056	10	3913
2026-01-30 04:22:40.43	183.27	19.06	-24.8	-24.9	16.5	0.00e+00	0	43	0	118489088	10	3674
2026-01-30 04:22:41.44	183.32	18.94	-24.4	-24.3	16.9	0.00e+00	0	43	0	125829120	10	3527
2026-01-30 04:22:42.44	183.38	18.81	-24.1	-24.1	17.2	0.00e+00	0	43	0	132120576	9	3581
2026-01-30 04:22:43.44	183.43	18.69	-23.9	-24.2	16.8	0.00e+00	0	43	0	139460608	8	3705
2026-01-30 04:22:44.44	183.48	18.57	-24.0	-24.3	17.4	0.00e+00	0	43	0	146800640	8	3720
2026-01-30 04:22:45.45	183.54	18.45	-24.1	-24.5	17.3	0.00e+00	0	43	0	154140672	8	3775
2026-01-30 04:22:46.44	183.59	18.33	-24.2	-24.7	17.2	0.00e+00	0	43	0	161480704	8	3815
2026-01-30 04:22:47.45	183.64	18.21	-24.2	-24.7	17.1	9.15e-05	0	43	0	168820736	8	3823
2026-01-30 04:22:48.45	183.69	18.09	-24.3	-24.9	17.1	0.00e+00	0	43	0	176160768	8	3862
2026-01-30 04:22:49.46	183.74	17.97	-24.2	-24.8	17.0	0.00e+00	0	43	0	183500800	8	3855
2026-01-30 04:22:50.47	183.80	17.85	-24.3	-25.0	17.0	0.00e+00	0	43	0	190840832	8	3886
2026-01-30 04:22:51.47	183.85	17.73	-24.3	-24.9	17.0	0.00e+00	0	43	0	198180864	8	3866
2026-01-30 04:22:52.47	183.90	17.61	-24.3	-24.9	17.0	1.30e-04	0	43	0	205520896	8	3861
2026-01-30 04:22:53.48	183.95	17.50	-24.3	-24.9	17.0	0.00e+00	0	43	0	212860928	8	3877
2026-01-30 04:22:54.48	184.00	17.38	-24.4	-25.1	16.9	0.00e+00	0	43	0	219152384	8	3918
2026-01-30 04:22:55.49	184.05	17.26	-24.4	-25.2	16.9	1.20e-04	0	44	0	226492416	8	3934
2026-01-30 04:22:56.48	184.09	17.15	-24.4	-25.2	16.8	0.00e+00	0	43	0	233832448	8	3953
2026-01-30 04:22:57.49	184.14	17.03	-24.5	-25.3	16.7	0.00e+00	0	43	0	241172480	8	3980
2026-01-30 04:22:58.50	184.19	16.92	-24.5	-25.5	16.7	0.00e+00	0	43	0	248512512	8	4007
2026-01-30 04:22:59.50	184.24	16.81	-24.6	-25.1	16.6	1.46e-04	0	43	0	255852544	9	3818
2026-01-30 04:23:00.51	184.29	16.69	-24.9	-25.7	16.3	0.00e+00	0	43	0	263192576	9	3954
2026-01-30 04:23:01.51	184.33	16.58	-24.9	-25.8	16.3	1.52e-04	0	43	0	270532608	9	3973
2026-01-30 04:23:02.51	184.38	16.47	-24.7	-25.3	16.5	1.59e-04	0	43	0	277872640	9	3861
2026-01-30 04:23:03.52	184.43	16.36	-24.7	-25.2	16.5	0.00e+00	0	43	0	285212672	9	3844
2026-01-30 04:23:04.51	184.47	16.25	-24.7	-25.3	16.5	1.91e-04	0	43	0	292552704	9	3858
2026-01-30 04:23:05.52	184.52	16.13	-24.8	-25.5	16.4	1.60e-04	0	43	0	298844160	9	3896
2026-01-30 04:23:06.52	184.56	16.02	-24.8	-25.5	16.4	0.00e+00	0	43	0	306184192	9	3916
2026-01-30 04:23:07.53	184.61	15.91	-24.7	-25.3	16.4	1.38e-04	0	43	0	313524224	9	3860
2026-01-30 04:23:08.53	184.66	15.81	-24.7	-25.2	16.5	0.00e+00	0	43	0	320864256	9	3844
2026-01-30 04:23:09.53	184.70	15.70	-24.7	-25.3	16.5	0.00e+00	0	43	0	328204288	9	3857
2026-01-30 04:23:10.54	184.74	15.59	-24.7	-25.3	16.4	1.20e-04	0	43	0	335544320	9	3864
2026-01-30 04:23:11.54	184.79	15.48	-24.7	-25.3	16.4	0.00e+00	0	43	0	342884352	9	3859
2026-01-30 04:23:12.55	184.83	15.37	-24.7	-25.4	16.4	0.00e+00	0	43	0	350224384	9	3885
2026-01-30 04:23:13.55	184.88	15.27	-24.8	-25.5	16.3	0.00e+00	0	43	0	357564416	9	3918
2026-01-30 04:23:14.56	184.92	15.16	-24.8	-25.5	16.3	1.37e-04	0	43	0	363855872	9	3896
2026-01-30 04:23:15.57	184.96	15.05	-24.9	-25.6	16.2	0.00e+00	0	43	0	372244480	9	3945
2026-01-30 04:23:16.56	185.00	14.95	-24.9	-25.7	16.2	0.00e+00	0	43	0	379584512	9	3948
2026-01-30 04:23:17.57	185.05	14.84	-24.9	-25.7	16.2	1.57e-04	0	43	0	385875968	9	3958
2026-01-30 04:23:18.57	185.09	14.74	-24.9	-25.7	16.2	0.00e+00	0	43	0	393216000	9	3956
2026-01-30 04:23:19.57	185.13	14.63	-24.8	-25.5	16.3	0.00e+00	0	43	0	400556032	9	3923
2026-01-30 04:23:20.56	185.17	14.53	-24.8	-25.5	16.3	0.00e+00	0	43	0	407896064	9	3916
2026-01-30 04:23:21.57	185.21	14.43	-24.8	-25.6	16.2	0.00e+00	0	43	0	415236096	9	3937
2026-01-30 04:23:22.57	185.25	14.32	-24.9	-25.7	16.2	1.06e-04	0	43	0	422576128	9	3954
2026-01-30 04:23:23.58	185.30	14.22	-24.9	-25.7	16.2	0.00e+00	0	43	0	429916160	9	3957
2026-01-30 04:23:24.58	185.34	14.12	-24.9	-25.9	16.1	0.00e+00	0	43	0	437256192	9	3999
2026-01-30 04:23:25.59	185.38	14.02	-24.9	-25.9	16.1	0.00e+00	0	43	0	444596224	9	4000
2026-01-30 04:23:26.58	185.42	13.92	-24.9	-25.8	16.1	0.00e+00	0	43	0	450887680	9	3982
2026-01-30 04:23:27.57	185.46	13.82	-24.9	-25.8	16.1	0.00e+00	0	43	0	458227712	9	3984
2026-01-30 04:23:28.56	185.49	13.72	-25.1	-26.1	15.9	0.00e+00	0	43	0	465567744	9	4058
2026-01-30 04:23:29.57	185.53	13.62	-25.3	-26.1	15.7	0.00e+00	0	43	0	472907776	10	3945
2026-01-30 04:23:30.57	185.57	13.52	-25.3	-26.1	15.7	0.00e+00	0	43	0	480247808	10	3951
2026-01-30 04:23:31.57	185.61	13.42	-25.3	-26.1	15.7	1.10e-06	0	43	0	487587840	10	3944
2026-01-30 04:23:32.56	185.65	13.32	-25.3	-26.1	15.6	0.00e+00	0	43	0	493879296	10	3954
2026-01-30 04:23:33.56	185.69	13.22	-25.2	-26.0	15.7	0.00e+00	0	43	0	501219328	10	3920
2026-01-30 04:23:34.54	185.73	13.13	-25.3	-26.0	15.7	0.00e+00	0	43	0	508559360	10	3943
2026-01-30 04:23:35.54	185.76	13.03	-25.2	-26.0	15.7	0.00e+00	0	43	0	515899392	10	3924
2026-01-30 04:23:36.54	185.80	12.93	-25.3	-26.1	15.6	0.00e+00	0	43	0	523239424	10	3957
2026-01-30 04:23:37.54	185.84	12.84	-25.4	-26.3	15.5	0.00e+00	0	44	0	530579456	10	4004
2026-01-30 04:23:38.54	185.87	12.74	-25.3	-26.2	15.6	0.00e+00	0	44	0	537919488	10	3968
2026-01-30 04:23:39.54	185.91	12.64	-25.3	-26.1	15.6	0.00e+00	0	44	0	545259520	10	3953
2026-01-30 04:23:40.54	185.95	12.55	-25.3	-26.2	15.6	0.00e+00	0	43	0	551550976	10	3978
2026-01-30 04:23:41.53	185.98	12.45	-25.3	-26.2	15.6	0.00e+00	0	44	0	558891008	10	3966
2026-01-30 04:23:42.52	186.02	12.36	-25.3	-26.2	15.5	0.00e+00	0	44	0	566231040	10	3986
2026-01-30 04:23:43.51	186.06	12.27	-25.4	-26.3	15.5	0.00e+00	0	44	0	573571072	10	4010
2026-01-30 04:23:44.50	186.09	12.17	-25.5	-26.5	15.3	0.00e+00	0	44	0	580911104	10	4066
2026-01-30 04:23:45.49	186.13	12.08	-25.5	-26.7	15.2	0.00e+00	0	44	0	588251136	10	4101
2026-01-30 04:23:46.47	186.16	11.99	-25.6	-26.7	15.2	0.00e+00	0	44	0	594542592	10	4107
2026-01-30 04:23:47.47	186.20	11.90	-25.6	-26.3	15.2	0.00e+00	0	44	0	601882624	11	3905
2026-01-30 04:23:48.47	186.23	11.80	-25.8	-26.8	14.9	0.00e+00	0	44	0	609222656	11	4029
2026-01-30 04:23:49.47	186.27	11.71	-25.9	-26.9	14.8	0.00e+00	0	44	0	616562688	11	4058
2026-01-30 04:23:50.46	186.30	11.62	-25.8	-26.7	14.9	0.00e+00	0	44	0	623902720	11	4004
2026-01-30 04:23:51.46	186.34	11.53	-25.7	-26.5	15.0	0.00e+00	0	44	0	630194176	11	3951
2026-01-30 04:23:52.46	186.37	11.44	-25.7	-26.5	15.0	0.00e+00	0	44	0	637534208	11	3959
2026-01-30 04:23:53.46	186.40	11.34	-25.7	-26.6	15.0	0.00e+00	0	44	0	645922816	11	3985
2026-01-30 04:23:54.46	186.44	11.25	-25.7	-26.5	15.0	1.10e-06	0	44	0	652214272	11	3947
2026-01-30 04:23:55.47	186.47	11.16	-25.7	-26.5	15.0	0.00e+00	0	44	0	659554304	11	3958
2026-01-30 04:23:56.47	186.50	11.07	-25.7	-26.5	15.0	0.00e+00	0	44	0	666894336	11	3949
2026-01-30 04:23:57.47	186.54	10.98	-25.7	-26.5	15.0	0.00e+00	0	44	0	674234368	11	3961
2026-01-30 04:23:58.48	186.57	10.89	-25.8	-26.7	14.9	0.00e+00	0	44	0	681574400	11	4009
2026-01-30 04:23:59.49	186.60	10.80	-25.8	-26.7	14.9	0.00e+00	0	44	0	688914432	11	4008
2026-01-30 04:24:00.48	186.64	10.71	-25.8	-26.7	14.9	0.00e+00	0	44	0	696254464	11	4005
2026-01-30 04:24:01.48	186.67	10.63	-25.9	-26.9	14.8	0.00e+00	0	44	0	703594496	11	4065
2026-01-30 04:24:02.49	186.70	10.54	-25.9	-27.0	14.7	0.00e+00	0	44	0	710934528	11	4073
2026-01-30 04:24:03.48	186.73	10.45	-25.8	-26.8	14.8	0.00e+00	0	44	0	717225984	11	4036
2026-01-30 04:24:04.49	186.77	10.36	-25.9	-27.0	14.7	0.00e+00	0	44	0	724566016	11	4068
2026-01-30 04:24:05.49	186.80	10.27	-25.9	-27.1	14.7	0.00e+00	0	44	0	731906048	11	4094
2026-01-30 04:24:06.50	186.83	10.19	-26.1	-27.3	14.5	0.00e+00	0	44	0	739246080	11	4161
2026-01-30 04:24:07.50	186.86	10.10	-26.0	-26.8	14.5	3.40e-06	0	44	0	746586112	12	3918
2026-01-30 04:24:08.51	186.89	10.01	-26.0	-26.7	14.5	0.00e+00	0	44	0	753926144	12	3902
2026-01-30 04:24:09.51	186.92	9.93	-26.1	-26.8	14.4	0.00e+00	0	44	0	761266176	12	3941
2026-01-30 04:24:10.51	186.96	9.84	-26.1	-26.9	14.4	1.10e-06	0	44	0	768606208	12	3958
2026-01-30 04:24:11.51	186.99	9.76	-26.1	-26.9	14.4	0.00e+00	0	44	0	775946240	12	3965
2026-01-30 04:24:12.52	187.02	9.67	-26.0	-26.8	14.5	2.51e-05	0	44	0	783286272	12	3917
2026-01-30 04:24:13.53	187.05	9.58	-26.0	-26.8	14.4	0.00e+00	0	44	0	790626304	12	3929
2026-01-30 04:24:14.53	187.08	9.50	-26.2	-27.1	14.2	0.00e+00	0	44	0	796917760	12	4009
2026-01-30 04:24:15.53	187.11	9.42	-26.2	-27.2	14.2	1.60e-05	0	44	0	804257792	12	4033
2026-01-30 04:24:16.53	187.14	9.33	-26.0	-26.8	14.4	1.10e-06	0	44	0	811597824	12	3937
2026-01-30 04:24:17.54	187.17	9.25	-26.1	-27.4	14.4	0.00e+00	0	44	0	818937856	11	4189
2026-01-30 04:24:18.53	187.20	9.16	-26.2	-27.1	14.2	1.71e-05	0	44	0	826277888	12	4010
2026-01-30 04:24:19.54	187.23	9.08	-26.3	-27.5	14.0	3.40e-06	0	44	0	833617920	12	4103
2026-01-30 04:24:20.55	187.26	9.00	-26.4	-27.6	13.9	6.80e-06	0	44	0	840957952	12	4126
2026-01-30 04:24:21.54	187.29	8.91	-26.4	-27.7	13.8	1.83e-05	0	44	0	848297984	12	4157
2026-01-30 04:24:22.55	187.32	8.83	-26.5	-27.8	13.8	3.40e-06	0	44	0	855638016	12	4183
2026-01-30 04:24:23.55	187.35	8.75	-26.5	-27.8	13.8	5.70e-06	0	44	0	861929472	12	4188
2026-01-30 04:24:24.55	187.37	8.67	-26.5	-27.9	13.7	5.70e-06	0	44	0	869269504	12	4211
2026-01-30 04:24:25.56	187.40	8.58	-26.5	-27.5	13.7	1.02e-05	0	44	0	876609536	13	3998
2026-01-30 04:24:26.56	187.43	8.50	-26.4	-27.1	13.8	1.02e-05	0	44	0	883949568	13	3909
2026-01-30 04:24:27.56	187.46	8.42	-26.3	-26.8	14.0	1.02e-05	0	44	0	891289600	13	3844
2026-01-30 04:24:28.57	187.49	8.34	-26.3	-26.8	14.0	4.50e-06	0	44	0	898629632	13	3843
2026-01-30 04:24:29.58	187.52	8.26	-26.3	-27.4	14.0	4.50e-06	0	44	0	905969664	12	4083
2026-01-30 04:24:30.58	187.55	8.18	-26.3	-27.5	13.9	1.83e-05	0	44	0	913309696	12	4105
2026-01-30 04:24:31.59	187.57	8.10	-26.3	-27.5	13.8	9.10e-06	0	44	0	920649728	12	4126
2026-01-30 04:24:32.59	187.60	8.02	-26.3	-27.4	13.9	8.00e-06	0	44	0	927989760	12	4087
2026-01-30 04:24:33.59	187.63	7.94	-26.2	-27.2	14.0	1.60e-05	0	44	0	935329792	12	4042
2026-01-30 04:24:34.59	187.66	7.86	-26.2	-27.1	14.1	0.00e+00	0	44	0	942669824	12	4024
2026-01-30 04:24:35.59	187.68	7.78	-26.2	-27.2	14.0	1.10e-06	0	44	0	948961280	12	4030
2026-01-30 04:24:36.59	187.71	7.70	-26.2	-27.3	13.9	2.40e-05	0	44	0	956301312	12	4073
2026-01-30 04:24:37.59	187.74	7.62	-26.3	-27.5	13.8	4.50e-06	0	44	0	963641344	12	4116
2026-01-30 04:24:38.59	187.76	7.54	-26.3	-27.3	13.9	3.40e-06	0	44	0	970981376	12	4073
2026-01-30 04:24:39.59	187.79	7.47	-26.3	-27.5	13.4	3.40e-06	0	44	0	978321408	12	4121
2026-01-30 04:24:40.59	187.82	7.39	-26.2	-27.3	13.8	4.50e-06	0	44	0	985661440	12	4069
2026-01-30 04:24:41.59	187.84	7.31	-26.2	-27.3	13.9	2.20e-06	0	44	0	993001472	12	4063
2026-01-30 04:24:42.59	187.87	7.23	-26.3	-27.5	13.8	9.10e-06	0	44	0	1000341504	12	4112
2026-01-30 04:24:43.59	187.90	7.16	-26.3	-27.5	13.8	4.50e-06	0	44	0	1006632960	12	4123
2026-01-30 04:24:44.60	187.92	7.08	-32.6	-41.1	3.8	4.54e-01	0	44	104	1012924416	25	9550
2026-01-30 04:24:45.60	187.95	7.00	-33.2	-42.8	3.8	8.47e-01	0	44	104	1012924416	26	10862
2026-01-30 04:24:46.61	187.98	6.92	-33.5	-43.4	3.8	8.46e-01	0	44	104	1012924416	26	11292

#Closed at: 2026-01-30 04:24:47
#Recorded file [1012 MB]: D:/data/31010_260130_072221.dat