passes_logs/2026/01/30/R2M6_AANII_01/R2M6_AANII_01__20260130_140520_FENGYUN_3D_rec.log

#Pass ID: 20260130_140520_FENGYUN 3D
#Satellite: FENGYUN 3D
#Configuration: FENGYUN 3D
#almurnet v.1.7.20240730
#Start time: 2026-01-30 14:05:20

#Version: 2.2.20231116
#Station: R2M6_AANII_01
#Location: 30.233357 lon 59.946436 lat
#TLE: 1 43010U 17072A   26030.15608130 -.00000008  00000+0  17846-4 0  9998
#TLE: 2 43010  98.9957   2.2091 0002519  83.4285 276.7177 14.19702268425400

#Time	Az	El	Level	Level2	SNR	BER	BlckErr	Temp	State	Recorded	gain1	gain2
2026-01-30 14:05:20.08	215.94	6.98	-27.2	-28.9	5.8	7.54e-01	0	39	0	0	15	4385
2026-01-30 14:05:23.10	216.24	7.17	-29.0	-31.8	10.3	8.13e-03	0	39	0	5242880	18	4999
2026-01-30 14:05:26.14	216.55	7.36	-28.4	-30.4	11.3	1.84e-03	0	39	0	23068672	18	4515
2026-01-30 14:05:29.17	216.86	7.54	-27.4	-28.7	13.0	6.17e-05	0	39	0	39845888	16	4211
2026-01-30 14:05:32.20	217.18	7.73	-27.0	-28.4	13.4	3.20e-05	0	39	0	56623104	15	4218
2026-01-30 14:05:35.23	217.50	7.92	-27.0	-28.3	13.4	3.66e-05	0	39	0	73400320	15	4215
2026-01-30 14:05:38.27	217.82	8.11	-26.3	-27.4	14.3	3.40e-06	0	39	0	90177536	14	4051
2026-01-30 14:05:41.30	218.15	8.30	-26.2	-27.6	14.5	0.00e+00	0	40	0	108003328	13	4213
2026-01-30 14:05:44.34	218.48	8.49	-26.0	-27.0	14.8	1.10e-06	0	40	0	124780544	13	4054
2026-01-30 14:05:47.37	218.82	8.68	-25.9	-26.9	14.9	0.00e+00	0	40	0	141557760	13	4040
2026-01-30 14:05:50.40	219.16	8.88	-26.0	-27.0	14.8	0.00e+00	0	40	0	159383552	13	4058
2026-01-30 14:05:53.43	219.50	9.07	-26.0	-27.0	14.9	0.00e+00	0	40	0	176160768	13	4070
2026-01-30 14:05:56.47	219.85	9.26	-25.8	-26.7	15.0	0.00e+00	0	40	0	192937984	13	3983
2026-01-30 14:05:59.50	220.21	9.46	-25.7	-26.8	15.3	0.00e+00	0	40	0	209715200	12	4110
2026-01-30 14:06:02.53	220.57	9.65	-25.9	-27.3	15.0	0.00e+00	0	40	0	227540992	12	4238
2026-01-30 14:06:05.57	220.93	9.85	-26.0	-27.5	14.9	0.00e+00	0	40	0	244318208	12	4282
2026-01-30 14:06:08.60	221.30	10.04	-26.1	-27.8	14.8	0.00e+00	0	40	0	261095424	12	4367
2026-01-30 14:06:11.63	221.67	10.24	-25.4	-26.3	15.6	0.00e+00	0	40	0	278921216	12	3980
2026-01-30 14:06:14.66	222.05	10.43	-25.4	-26.1	15.8	0.00e+00	0	40	0	295698432	12	3934
2026-01-30 14:06:17.70	222.43	10.63	-25.3	-26.5	15.9	0.00e+00	0	40	0	312475648	11	4119
2026-01-30 14:06:20.73	222.82	10.83	-25.4	-26.7	15.8	0.00e+00	0	40	0	329252864	11	4184
2026-01-30 14:06:23.76	223.21	11.03	-25.5	-26.9	15.7	0.00e+00	0	40	0	346030080	11	4224
2026-01-30 14:06:26.79	223.61	11.22	-25.5	-26.9	15.7	0.00e+00	0	40	0	363855872	11	4240
2026-01-30 14:06:29.82	224.01	11.42	-25.5	-26.8	15.8	0.00e+00	0	40	0	380633088	11	4211
2026-01-30 14:06:32.86	224.42	11.62	-25.5	-27.0	15.7	0.00e+00	0	40	0	397410304	11	4258
2026-01-30 14:06:35.89	224.83	11.82	-25.3	-26.6	15.9	0.00e+00	0	40	0	415236096	11	4154
2026-01-30 14:06:38.92	225.25	12.02	-25.3	-26.4	16.1	0.00e+00	0	40	0	432013312	11	4088
2026-01-30 14:06:41.95	225.67	12.22	-25.3	-26.6	16.0	0.00e+00	0	40	0	448790528	11	4140
2026-01-30 14:06:44.99	226.10	12.42	-25.4	-26.6	16.0	0.00e+00	0	40	0	465567744	11	4152
2026-01-30 14:06:48.02	226.54	12.62	-25.4	-26.6	16.0	0.00e+00	0	40	0	483393536	11	4159
2026-01-30 14:06:51.05	226.98	12.82	-25.0	-25.8	16.5	0.00e+00	0	41	0	500170752	11	3936
2026-01-30 14:06:54.09	227.43	13.02	-24.8	-25.4	16.7	0.00e+00	0	40	0	516947968	11	3843
2026-01-30 14:06:57.12	227.88	13.22	-25.0	-25.7	16.5	0.00e+00	0	41	0	533725184	11	3930
2026-01-30 14:07:00.15	228.34	13.42	-24.8	-25.7	16.8	0.00e+00	0	41	0	551550976	10	4032
2026-01-30 14:07:03.18	228.81	13.62	-24.9	-26.1	16.6	0.00e+00	0	41	0	568328192	10	4121
2026-01-30 14:07:06.22	229.28	13.83	-24.9	-26.1	16.6	0.00e+00	0	41	0	585105408	10	4136
2026-01-30 14:07:09.25	229.76	14.03	-25.1	-26.5	16.3	0.00e+00	0	41	0	602931200	10	4242
2026-01-30 14:07:12.28	230.24	14.23	-24.8	-25.8	16.8	0.00e+00	0	41	0	619708416	10	4059
2026-01-30 14:07:15.31	230.73	14.43	-24.7	-25.7	16.8	0.00e+00	0	41	0	636485632	10	4021
2026-01-30 14:07:18.35	231.23	14.63	-24.7	-25.6	16.9	0.00e+00	0	41	0	653262848	10	4004
2026-01-30 14:07:21.38	231.73	14.82	-24.6	-25.4	17.1	0.00e+00	0	41	0	671088640	10	3947
2026-01-30 14:07:24.42	232.24	15.02	-24.4	-24.9	17.3	0.00e+00	0	41	0	687865856	10	3829
2026-01-30 14:07:27.45	232.76	15.22	-24.3	-24.8	17.4	0.00e+00	0	41	0	704643072	10	3794
2026-01-30 14:07:30.48	233.28	15.42	-24.4	-25.0	17.3	0.00e+00	0	41	0	722468864	10	3851
2026-01-30 14:07:33.51	233.81	15.62	-24.4	-25.0	17.2	1.10e-06	0	41	0	739246080	10	3855
2026-01-30 14:07:36.54	234.35	15.81	-24.3	-25.2	17.4	1.10e-06	0	41	0	756023296	9	4006
2026-01-30 14:07:39.58	234.89	16.01	-24.1	-24.9	17.6	0.00e+00	0	41	0	772800512	9	3939
2026-01-30 14:07:42.61	235.44	16.20	-24.1	-24.8	17.7	1.10e-06	0	41	0	789577728	9	3906
2026-01-30 14:07:45.64	236.00	16.40	-24.2	-25.1	17.5	1.10e-06	0	41	0	807403520	9	3988
2026-01-30 14:07:48.68	236.57	16.59	-24.2	-25.1	17.5	0.00e+00	0	41	0	824180736	9	3981
2026-01-30 14:07:51.71	237.14	16.78	-24.1	-24.9	17.7	0.00e+00	0	41	0	840957952	9	3919
2026-01-30 14:07:54.74	237.72	16.97	-24.2	-25.0	17.6	0.00e+00	0	41	0	858783744	9	3954
2026-01-30 14:07:57.77	238.30	17.16	-23.9	-24.4	17.9	1.10e-06	0	41	0	875560960	9	3816
2026-01-30 14:08:00.80	238.89	17.35	-23.9	-24.5	17.9	0.00e+00	0	41	0	892338176	9	3830
2026-01-30 14:08:03.84	239.50	17.53	-24.0	-24.6	17.8	0.00e+00	0	41	0	909115392	9	3861
2026-01-30 14:08:06.87	240.10	17.72	-24.0	-24.6	17.9	0.00e+00	0	41	0	926941184	9	3856
2026-01-30 14:08:09.90	240.72	17.90	-24.1	-24.8	17.8	0.00e+00	0	41	0	943718400	9	3895
2026-01-30 14:08:12.94	241.34	18.08	-23.8	-24.2	18.1	0.00e+00	0	41	0	960495616	9	3759
2026-01-30 14:08:15.97	241.97	18.26	-23.6	-24.3	18.3	0.00e+00	0	41	0	977272832	8	3900
2026-01-30 14:08:19.00	242.60	18.43	-23.7	-24.4	18.2	0.00e+00	0	41	0	995098624	8	3920
2026-01-30 14:08:22.03	243.25	18.61	-23.7	-24.4	18.3	0.00e+00	0	41	0	1011875840	8	3903
2026-01-30 14:08:25.06	243.90	18.78	-23.5	-24.0	18.4	0.00e+00	0	41	0	1028653056	8	3821
2026-01-30 14:08:28.10	244.56	18.95	-23.6	-24.2	18.4	0.00e+00	0	41	0	1046478848	8	3865
2026-01-30 14:08:31.13	245.22	19.12	-23.7	-24.4	18.3	0.00e+00	0	41	0	1063256064	8	3927
2026-01-30 14:08:34.16	245.89	19.28	-23.6	-24.1	18.4	0.00e+00	0	41	0	1080033280	8	3855
2026-01-30 14:08:37.19	246.57	19.44	-23.6	-24.2	18.4	0.00e+00	0	41	0	1096810496	8	3861
2026-01-30 14:08:40.23	247.26	19.60	-23.5	-24.0	18.5	0.00e+00	0	41	0	1114636288	8	3821
2026-01-30 14:08:43.26	247.95	19.75	-23.7	-24.5	18.3	0.00e+00	0	41	0	1131413504	8	3925
2026-01-30 14:08:46.29	248.65	19.91	-23.5	-24.0	18.5	0.00e+00	0	41	0	1148190720	8	3826
2026-01-30 14:08:49.33	249.36	20.05	-23.4	-23.8	18.6	0.00e+00	0	41	0	1166016512	8	3776
2026-01-30 14:08:52.36	250.07	20.20	-23.3	-24.2	18.7	0.00e+00	0	41	0	1182793728	7	3963
2026-01-30 14:08:55.39	250.79	20.34	-23.3	-24.1	18.7	0.00e+00	0	41	0	1199570944	7	3955
2026-01-30 14:08:58.43	251.51	20.48	-23.2	-23.9	18.8	0.00e+00	0	41	0	1216348160	7	3904
2026-01-30 14:09:01.46	252.25	20.61	-23.0	-23.5	19.0	0.00e+00	0	41	0	1233125376	7	3809
2026-01-30 14:09:04.49	252.98	20.74	-23.5	-24.4	18.6	0.00e+00	0	41	0	1250951168	7	4032
2026-01-30 14:09:07.53	253.73	20.87	-23.2	-24.0	18.8	0.00e+00	0	41	0	1267728384	7	3927
2026-01-30 14:09:10.56	254.48	20.99	-23.3	-24.0	18.8	0.00e+00	0	41	0	1284505600	7	3924
2026-01-30 14:09:13.59	255.23	21.11	-23.3	-24.1	18.8	0.00e+00	0	41	0	1302331392	7	3941
2026-01-30 14:09:16.62	255.99	21.22	-23.2	-23.9	18.9	0.00e+00	0	41	0	1319108608	7	3897
2026-01-30 14:09:19.66	256.76	21.33	-23.1	-23.8	18.9	0.00e+00	0	41	0	1335885824	7	3873
2026-01-30 14:09:22.69	257.53	21.43	-22.9	-23.2	19.2	0.00e+00	0	41	0	1352663040	7	3734
2026-01-30 14:09:25.72	258.31	21.53	-22.9	-23.3	19.2	0.00e+00	0	41	0	1370488832	7	3759
2026-01-30 14:09:28.76	259.09	21.63	-23.0	-23.4	19.1	0.00e+00	0	41	0	1387266048	7	3793
2026-01-30 14:09:31.79	259.88	21.71	-23.0	-23.4	19.1	0.00e+00	0	41	0	1404043264	7	3794
2026-01-30 14:09:34.82	260.66	21.80	-23.0	-23.5	19.0	0.00e+00	0	41	0	1420820480	7	3820
2026-01-30 14:09:37.86	261.46	21.88	-23.2	-23.8	18.9	0.00e+00	0	41	0	1438646272	7	3881
2026-01-30 14:09:40.89	262.26	21.95	-23.0	-23.6	19.1	0.00e+00	0	41	0	1455423488	7	3823
2026-01-30 14:09:43.92	263.06	22.02	-23.1	-23.8	18.9	0.00e+00	0	41	0	1472200704	7	3864
2026-01-30 14:09:46.95	263.86	22.08	-23.0	-23.4	19.1	0.00e+00	0	41	0	1490026496	7	3789
2026-01-30 14:09:49.98	264.67	22.13	-23.2	-23.9	18.9	0.00e+00	0	41	0	1506803712	7	3896
2026-01-30 14:09:53.02	265.48	22.19	-23.2	-23.9	18.9	0.00e+00	0	41	0	1523580928	7	3902
2026-01-30 14:09:56.05	266.29	22.23	-22.9	-23.1	19.3	0.00e+00	0	41	0	1540358144	7	3724
2026-01-30 14:09:59.08	267.10	22.27	-22.9	-23.8	19.2	2.20e-06	0	41	0	1558183936	6	3987
2026-01-30 14:10:02.11	267.92	22.30	-22.9	-23.8	19.2	0.00e+00	0	41	0	1574961152	6	3991
2026-01-30 14:10:05.14	268.74	22.33	-22.7	-23.4	19.4	0.00e+00	0	41	0	1591738368	6	3899
2026-01-30 14:10:08.18	269.56	22.35	-22.9	-23.9	19.2	0.00e+00	0	41	0	1609564160	6	3997
2026-01-30 14:10:11.21	270.38	22.37	-23.1	-24.1	19.0	0.00e+00	0	41	0	1626341376	6	4071
2026-01-30 14:10:14.24	271.19	22.38	-23.2	-24.4	18.9	0.00e+00	0	41	0	1643118592	6	4124
2026-01-30 14:10:17.27	272.01	22.38	-23.2	-24.4	18.9	1.10e-06	0	41	0	1659895808	6	4125
2026-01-30 14:10:20.30	272.83	22.38	-23.0	-24.0	19.1	4.50e-06	0	41	0	1676673024	6	4027
2026-01-30 14:10:23.34	273.66	22.37	-23.0	-24.0	19.1	0.00e+00	0	41	0	1694498816	6	4019
2026-01-30 14:10:26.37	274.48	22.36	-22.9	-23.8	19.2	0.00e+00	0	41	0	1711276032	6	3983
2026-01-30 14:10:29.40	275.29	22.34	-23.0	-24.0	19.1	0.00e+00	0	41	0	1728053248	6	4027
2026-01-30 14:10:32.44	276.11	22.31	-23.0	-24.0	19.1	0.00e+00	0	41	0	1745879040	6	4041
2026-01-30 14:10:35.47	276.93	22.28	-23.0	-23.9	19.1	0.00e+00	0	41	0	1762656256	6	4012
2026-01-30 14:10:38.50	277.74	22.25	-23.2	-24.4	18.9	0.00e+00	0	41	0	1779433472	6	4131
2026-01-30 14:10:41.54	278.56	22.20	-22.8	-23.6	19.3	0.00e+00	0	41	0	1796210688	6	3938
2026-01-30 14:10:44.57	279.37	22.15	-22.9	-23.8	19.2	0.00e+00	0	41	0	1814036480	6	3980
2026-01-30 14:10:47.60	280.17	22.10	-23.0	-24.0	19.1	0.00e+00	0	41	0	1830813696	6	4026
2026-01-30 14:10:50.63	280.97	22.04	-23.1	-24.1	19.1	0.00e+00	0	41	0	1847590912	6	4065
2026-01-30 14:10:53.66	281.78	21.97	-23.2	-24.4	18.9	0.00e+00	0	41	0	1864368128	6	4125
2026-01-30 14:10:56.70	282.57	21.90	-23.1	-24.1	19.0	0.00e+00	0	41	0	1882193920	6	4060
2026-01-30 14:10:59.73	283.37	21.83	-23.1	-24.1	19.1	0.00e+00	0	41	0	1898971136	6	4055
2026-01-30 14:11:02.76	284.16	21.75	-23.1	-24.1	19.1	0.00e+00	0	41	0	1915748352	6	4061
2026-01-30 14:11:05.80	284.94	21.66	-23.3	-24.5	18.9	0.00e+00	0	41	0	1933574144	6	4169
2026-01-30 14:11:08.83	285.72	21.57	-23.4	-24.7	18.8	0.00e+00	0	41	0	1950351360	6	4220
2026-01-30 14:11:11.86	286.50	21.47	-23.2	-24.3	19.0	0.00e+00	0	41	0	1967128576	6	4105
2026-01-30 14:11:14.90	287.27	21.37	-23.4	-24.8	18.7	0.00e+00	0	41	0	1983905792	6	4233
2026-01-30 14:11:17.93	288.04	21.26	-23.8	-25.2	18.2	0.00e+00	0	41	0	2001731584	7	4211
2026-01-30 14:11:20.96	288.80	21.15	-23.7	-24.3	18.4	0.00e+00	0	41	0	2018508800	8	3896
2026-01-30 14:11:23.99	289.55	21.04	-23.4	-24.3	18.7	0.00e+00	0	41	0	2035286016	7	3998
2026-01-30 14:11:27.03	290.30	20.92	-23.3	-24.2	18.8	0.00e+00	0	41	0	2053111808	7	3974
2026-01-30 14:11:30.06	291.05	20.80	-23.3	-24.0	18.8	0.00e+00	0	41	0	2069889024	7	3924
2026-01-30 14:11:33.09	291.78	20.67	-23.8	-25.1	18.3	0.00e+00	0	41	0	2086666240	7	4196
2026-01-30 14:11:36.12	292.52	20.54	-23.9	-25.4	18.1	0.00e+00	0	41	0	2103443456	7	4261
2026-01-30 14:11:39.16	293.24	20.40	-24.1	-25.2	18.0	0.00e+00	0	41	0	2120220672	8	4106
2026-01-30 14:11:42.19	293.96	20.26	-23.9	-24.9	18.1	0.00e+00	0	41	0	2138046464	8	4036
2026-01-30 14:11:45.22	294.67	20.12	-24.2	-25.5	17.8	0.00e+00	0	41	0	2154823680	8	4172
2026-01-30 14:11:48.25	295.38	19.97	-23.8	-24.7	18.3	0.00e+00	0	41	0	2171600896	8	3976
2026-01-30 14:11:51.28	296.08	19.82	-23.9	-24.9	18.1	0.00e+00	0	41	0	2189426688	8	4037
2026-01-30 14:11:54.32	296.77	19.67	-23.9	-25.0	18.1	0.00e+00	0	41	0	2206203904	8	4047
2026-01-30 14:11:57.35	297.46	19.51	-24.1	-25.3	17.9	0.00e+00	0	41	0	2222981120	8	4144
2026-01-30 14:12:00.38	298.14	19.35	-24.1	-25.3	17.9	0.00e+00	0	41	0	2239758336	8	4125
2026-01-30 14:12:03.41	298.81	19.19	-24.1	-25.3	17.9	0.00e+00	0	41	0	2257584128	8	4123
2026-01-30 14:12:06.44	299.47	19.03	-24.0	-25.1	18.0	0.00e+00	0	41	0	2274361344	8	4098
2026-01-30 14:12:09.48	300.13	18.86	-24.1	-25.4	17.9	0.00e+00	0	41	0	2291138560	8	4150
2026-01-30 14:12:12.51	300.78	18.69	-24.1	-25.3	17.8	0.00e+00	0	41	0	2307915776	8	4145
2026-01-30 14:12:15.54	301.42	18.52	-23.8	-24.7	18.2	0.00e+00	0	41	0	2325741568	8	3992
2026-01-30 14:12:18.57	302.06	18.34	-24.3	-25.6	17.7	0.00e+00	0	41	0	2342518784	8	4224
2026-01-30 14:12:21.61	302.69	18.17	-24.5	-26.1	17.4	0.00e+00	0	41	0	2359296000	8	4347
2026-01-30 14:12:24.64	303.31	17.99	-24.7	-26.1	17.1	0.00e+00	0	41	0	2377121792	9	4235
2026-01-30 14:12:27.67	303.93	17.81	-24.3	-25.1	17.7	0.00e+00	0	41	0	2393899008	9	3982
2026-01-30 14:12:30.71	304.54	17.63	-24.3	-25.3	17.6	0.00e+00	0	41	0	2410676224	9	4025
2026-01-30 14:12:33.74	305.14	17.44	-24.2	-25.0	17.8	0.00e+00	0	41	0	2427453440	9	3938
2026-01-30 14:12:36.77	305.73	17.26	-24.1	-24.9	17.8	0.00e+00	0	41	0	2444230656	9	3925
2026-01-30 14:12:39.80	306.31	17.07	-24.5	-25.6	17.4	0.00e+00	0	41	0	2462056448	9	4090
2026-01-30 14:12:42.83	306.89	16.88	-24.6	-25.9	17.2	0.00e+00	0	41	0	2478833664	9	4182
2026-01-30 14:12:45.87	307.47	16.69	-24.8	-26.3	17.0	0.00e+00	0	41	0	2495610880	9	4267
2026-01-30 14:12:48.90	308.03	16.50	-25.1	-26.5	16.7	0.00e+00	0	41	0	2513436672	10	4209
2026-01-30 14:12:51.94	308.59	16.31	-25.2	-26.6	16.6	0.00e+00	0	41	0	2530213888	10	4255
2026-01-30 14:12:54.97	309.14	16.12	-24.7	-26.1	17.1	0.00e+00	0	41	0	2546991104	9	4229
2026-01-30 14:12:58.00	309.69	15.93	-24.9	-26.4	16.9	0.00e+00	0	41	0	2563768320	9	4322
2026-01-30 14:13:01.03	310.22	15.73	-24.8	-26.2	17.0	0.00e+00	0	41	0	2581594112	9	4264
2026-01-30 14:13:04.06	310.75	15.54	-24.6	-25.9	17.2	0.00e+00	0	41	0	2598371328	9	4186
2026-01-30 14:13:07.10	311.28	15.34	-24.7	-26.0	17.2	0.00e+00	0	41	0	2615148544	9	4201
2026-01-30 14:13:10.13	311.80	15.15	-24.8	-26.3	17.0	0.00e+00	0	41	0	2632974336	9	4291
2026-01-30 14:13:13.16	312.31	14.95	-24.9	-26.6	16.8	0.00e+00	0	41	0	2649751552	9	4359
2026-01-30 14:13:16.19	312.81	14.75	-25.1	-26.4	16.7	0.00e+00	0	41	0	2666528768	10	4198
2026-01-30 14:13:19.23	313.31	14.55	-25.1	-26.4	16.6	0.00e+00	0	41	0	2683305984	10	4205
2026-01-30 14:13:22.26	313.80	14.36	-25.2	-26.8	16.4	0.00e+00	0	41	0	2701131776	10	4303
2026-01-30 14:13:25.29	314.28	14.16	-25.4	-27.2	16.2	0.00e+00	0	41	0	2717908992	10	4408
2026-01-30 14:13:28.33	314.76	13.96	-25.4	-27.1	16.3	0.00e+00	0	41	0	2734686208	10	4373
2026-01-30 14:13:31.36	315.24	13.76	-25.3	-26.9	16.3	0.00e+00	0	41	0	2751463424	10	4320
2026-01-30 14:13:34.39	315.70	13.56	-25.3	-27.0	16.3	0.00e+00	0	41	0	2769289216	10	4345
2026-01-30 14:13:37.42	316.16	13.36	-25.5	-26.8	16.1	0.00e+00	0	41	0	2786066432	11	4181
2026-01-30 14:13:40.45	316.62	13.16	-25.5	-27.0	16.0	0.00e+00	0	41	0	2802843648	11	4237
2026-01-30 14:13:43.48	317.07	12.97	-25.5	-26.9	16.0	0.00e+00	0	41	0	2820669440	11	4208
2026-01-30 14:13:46.52	317.51	12.77	-25.4	-26.6	16.2	0.00e+00	0	41	0	2837446656	11	4138
2026-01-30 14:13:49.55	317.95	12.57	-25.3	-26.5	16.2	1.10e-06	0	41	0	2854223872	11	4108
2026-01-30 14:13:52.58	318.38	12.37	-25.5	-26.8	16.0	0.00e+00	0	41	0	2871001088	11	4200
2026-01-30 14:13:55.62	318.80	12.17	-25.7	-27.3	15.8	0.00e+00	0	41	0	2887778304	11	4322
2026-01-30 14:13:58.65	319.22	11.97	-25.8	-27.4	15.7	0.00e+00	0	41	0	2905604096	11	4370
2026-01-30 14:14:01.68	319.64	11.78	-25.7	-27.3	15.7	0.00e+00	0	41	0	2922381312	11	4321
2026-01-30 14:14:04.72	320.05	11.58	-25.6	-27.1	15.8	0.00e+00	0	41	0	2939158528	11	4274
2026-01-30 14:14:07.75	320.45	11.38	-25.6	-27.1	15.9	0.00e+00	0	41	0	2956984320	11	4259
2026-01-30 14:14:10.78	320.85	11.19	-25.8	-27.6	15.5	0.00e+00	0	41	0	2973761536	11	4401
2026-01-30 14:14:13.81	321.24	10.99	-26.0	-27.4	15.3	0.00e+00	0	41	0	2990538752	12	4253
2026-01-30 14:14:16.84	321.63	10.79	-26.1	-27.7	15.1	1.10e-06	0	41	0	3007315968	12	4333
2026-01-30 14:14:19.88	322.02	10.60	-26.2	-27.9	15.0	0.00e+00	0	41	0	3025141760	12	4384
2026-01-30 14:14:22.91	322.40	10.40	-26.1	-27.6	15.1	0.00e+00	0	41	0	3041918976	12	4317
2026-01-30 14:14:25.94	322.77	10.21	-26.1	-27.7	15.1	0.00e+00	0	41	0	3058696192	12	4329
2026-01-30 14:14:28.98	323.14	10.01	-26.2	-28.1	14.8	1.10e-06	0	41	0	3076521984	12	4452
2026-01-30 14:14:32.01	323.51	9.82	-26.2	-28.0	14.9	0.00e+00	0	41	0	3093299200	12	4412
2026-01-30 14:14:35.04	323.86	9.63	-26.2	-27.9	14.9	0.00e+00	0	41	0	3110076416	12	4400
2026-01-30 14:14:38.08	324.22	9.44	-26.2	-27.9	14.9	0.00e+00	0	41	0	3126853632	12	4397
2026-01-30 14:14:41.11	324.57	9.24	-26.2	-28.0	14.8	0.00e+00	0	41	0	3143630848	12	4431
2026-01-30 14:14:44.14	324.92	9.05	-26.1	-27.7	14.9	0.00e+00	0	41	0	3161456640	12	4342
2026-01-30 14:14:47.17	325.26	8.86	-26.6	-28.3	14.3	2.20e-06	0	41	0	3178233856	13	4376
2026-01-30 14:14:50.20	325.60	8.67	-26.6	-28.3	14.3	1.10e-06	0	41	0	3195011072	13	4398
2026-01-30 14:14:53.24	325.93	8.48	-26.6	-28.3	14.2	5.70e-06	0	41	0	3212836864	13	4397
2026-01-30 14:14:56.27	326.26	8.29	-26.6	-28.4	14.2	1.10e-06	0	41	0	3229614080	13	4440
2026-01-30 14:14:59.30	326.59	8.11	-26.5	-28.2	14.3	0.00e+00	0	41	0	3246391296	13	4369
2026-01-30 14:15:02.33	326.91	7.92	-26.5	-28.1	14.3	0.00e+00	0	41	0	3263168512	13	4344
2026-01-30 14:15:05.37	327.23	7.73	-26.3	-27.8	14.5	2.20e-06	0	41	0	3280994304	13	4252
2026-01-30 14:15:08.40	327.54	7.55	-26.6	-28.3	14.2	2.20e-06	0	41	0	3297771520	13	4401
2026-01-30 14:15:11.43	327.85	7.36	-26.7	-28.6	13.9	9.10e-06	0	41	0	3314548736	13	4480
2026-01-30 14:15:14.46	328.16	7.18	-26.8	-28.8	13.8	9.10e-06	0	41	0	3331325952	13	4562
2026-01-30 14:15:17.50	328.46	6.99	-33.0	-44.5	3.8	8.46e-01	0	41	104	3342860288	25	13577

#Closed at: 2026-01-30 14:15:17
#Recorded file [3342 MB]: D:/data/31010_260130_170521.dat