passes_logs/2026/01/30/R2M6_AANII_01/R2M6_AANII_01__20260130_080851_SUOMI_NPP_rec.log

#Pass ID: 20260130_080851_SUOMI NPP
#Satellite: SUOMI NPP
#Configuration: NPP
#almurnet v.1.7.20240730
#Start time: 2026-01-30 08:08:50

#Version: 2.2.20231116
#Station: R2M6_AANII_01
#Location: 30.233357 lon 59.946436 lat
#TLE: 1 37849U 11061A   26029.48304708  .00000140  00000+0  87283-4 0  9999
#TLE: 2 37849  98.7824 331.4079 0002024  38.4342 321.6978 14.19531488738761

#Time	Az	El	Level	Level2	SNR	BER	BlckErr	Temp	State	Recorded	gain1	gain2
2026-01-30 08:08:50.59	90.30	6.97	-32.6	-41.1	3.9	1.48e+00	0	40	0	0	26	9625
2026-01-30 08:08:53.59	89.99	7.14	-32.2	-38.8	4.3	1.39e+00	0	41	104	0	25	7626
2026-01-30 08:08:56.61	89.67	7.32	-32.2	-38.3	5.7	4.47e-01	0	41	0	3145728	25	7274
2026-01-30 08:08:59.62	89.34	7.50	-32.3	-39.0	5.4	4.43e-01	0	41	0	9437184	25	7749
2026-01-30 08:09:02.62	89.02	7.68	-32.0	-36.6	6.9	2.46e-01	0	41	0	14680064	25	6122
2026-01-30 08:09:05.64	88.68	7.86	-31.3	-34.2	9.3	2.64e-02	0	41	0	20971520	24	5000
2026-01-30 08:09:08.64	88.35	8.04	-31.5	-35.2	9.0	2.69e-02	0	41	0	26214400	23	5506
2026-01-30 08:09:11.65	88.00	8.22	-31.5	-35.1	9.1	1.98e-02	0	41	0	31457280	23	5444
2026-01-30 08:09:14.66	87.66	8.40	-31.5	-35.2	9.0	2.03e-02	0	41	0	37748736	23	5532
2026-01-30 08:09:17.66	87.31	8.58	-31.7	-36.2	8.3	5.97e-02	0	41	0	42991616	23	5995
2026-01-30 08:09:20.67	86.96	8.76	-31.6	-35.6	8.7	4.15e-02	0	42	0	48234496	23	5709
2026-01-30 08:09:23.69	86.60	8.94	-31.1	-33.6	10.3	5.16e-03	0	42	0	54525952	23	4815
2026-01-30 08:09:26.69	86.23	9.12	-31.4	-34.9	9.4	1.37e-02	0	42	0	59768832	23	5332
2026-01-30 08:09:29.70	85.87	9.31	-31.2	-34.0	10.2	7.32e-03	0	42	0	66060288	23	4928
2026-01-30 08:09:32.71	85.49	9.49	-31.2	-33.7	10.4	4.28e-03	0	42	0	71303168	23	4812
2026-01-30 08:09:35.71	85.12	9.67	-31.2	-33.7	10.4	3.80e-03	0	42	0	76546048	23	4824
2026-01-30 08:09:38.73	84.73	9.85	-30.9	-32.9	11.0	2.01e-03	0	42	0	82837504	23	4524
2026-01-30 08:09:41.73	84.35	10.03	-30.9	-32.9	11.1	1.53e-03	0	42	0	88080384	23	4499
2026-01-30 08:09:44.75	83.95	10.22	-30.9	-32.7	11.3	1.26e-03	0	42	0	93323264	23	4424
2026-01-30 08:09:47.76	83.56	10.40	-31.1	-33.3	10.8	2.20e-03	0	42	0	99614720	23	4641
2026-01-30 08:09:50.77	83.15	10.58	-31.0	-33.3	10.8	1.96e-03	0	42	0	104857600	23	4640
2026-01-30 08:09:53.78	82.75	10.76	-31.0	-33.0	11.1	1.73e-03	0	42	0	111149056	23	4529
2026-01-30 08:09:56.78	82.33	10.94	-30.9	-32.9	11.0	1.71e-03	0	42	0	116391936	23	4544
2026-01-30 08:09:59.79	81.92	11.13	-30.7	-32.9	11.4	1.12e-03	0	42	0	121634816	22	4628
2026-01-30 08:10:02.80	81.49	11.31	-30.7	-33.0	11.4	1.29e-03	0	42	0	127926272	22	4647
2026-01-30 08:10:05.80	81.07	11.49	-30.8	-33.1	11.3	1.01e-03	0	42	0	133169152	22	4707
2026-01-30 08:10:08.80	80.63	11.67	-30.8	-33.0	11.3	1.03e-03	0	42	0	138412032	22	4669
2026-01-30 08:10:11.81	80.19	11.85	-31.0	-33.7	10.9	2.11e-03	0	42	0	144703488	22	4919
2026-01-30 08:10:14.82	79.75	12.03	-31.1	-34.2	10.6	4.83e-03	0	43	0	149946368	22	5109
2026-01-30 08:10:17.83	79.30	12.21	-31.0	-33.8	10.8	2.31e-03	0	42	0	156237824	22	4965
2026-01-30 08:10:20.83	78.84	12.39	-31.3	-34.7	10.1	7.42e-03	0	43	0	161480704	22	5324
2026-01-30 08:10:23.84	78.38	12.57	-31.1	-34.2	10.6	4.45e-03	0	42	0	166723584	22	5109
2026-01-30 08:10:26.86	77.91	12.75	-31.0	-33.9	10.8	2.56e-03	0	42	0	173015040	22	4988
2026-01-30 08:10:29.88	77.44	12.93	-31.0	-33.8	11.0	2.05e-03	0	42	0	178257920	22	4931
2026-01-30 08:10:32.89	76.96	13.11	-31.1	-33.8	10.9	1.86e-03	0	43	0	184549376	22	4963
2026-01-30 08:10:35.90	76.48	13.28	-31.0	-33.9	10.9	2.28e-03	0	43	0	189792256	22	4973
2026-01-30 08:10:38.91	75.98	13.46	-31.0	-33.6	11.1	1.74e-03	0	43	0	195035136	22	4871
2026-01-30 08:10:41.92	75.49	13.64	-30.8	-33.0	11.5	1.09e-03	0	43	0	201326592	22	4643
2026-01-30 08:10:44.93	74.99	13.81	-30.7	-32.8	11.6	5.91e-04	0	43	0	206569472	22	4566
2026-01-30 08:10:47.95	74.47	13.98	-30.5	-32.1	12.2	2.53e-04	0	43	0	211812352	22	4322
2026-01-30 08:10:50.96	73.96	14.16	-30.3	-32.0	12.5	1.17e-04	0	42	0	218103808	21	4402
2026-01-30 08:10:53.98	73.44	14.33	-30.3	-32.0	12.6	8.39e-05	0	43	0	223346688	21	4375
2026-01-30 08:10:56.98	72.91	14.50	-30.1	-31.4	13.0	4.11e-05	0	43	0	229638144	21	4199
2026-01-30 08:10:59.99	72.38	14.67	-30.1	-31.5	12.9	3.43e-05	0	43	0	234881024	21	4219
2026-01-30 08:11:03.00	71.84	14.83	-29.8	-30.6	13.5	9.90e-06	0	43	0	240123904	21	3947
2026-01-30 08:11:06.01	71.30	15.00	-30.1	-31.4	13.0	2.82e-05	0	43	0	246415360	21	4183
2026-01-30 08:11:09.02	70.74	15.16	-30.3	-32.0	12.6	7.24e-05	0	43	0	251658240	21	4389
2026-01-30 08:11:12.03	70.19	15.33	-30.3	-32.1	12.5	9.15e-05	0	43	0	256901120	21	4438
2026-01-30 08:11:15.03	69.62	15.49	-30.2	-31.6	12.9	8.92e-05	0	43	0	263192576	21	4268
2026-01-30 08:11:18.04	69.06	15.65	-30.2	-31.6	13.0	2.89e-05	0	43	0	268435456	21	4227
2026-01-30 08:11:21.05	68.48	15.80	-30.0	-31.0	13.4	2.59e-05	0	43	0	274726912	21	4067
2026-01-30 08:11:24.06	67.90	15.96	-30.2	-31.7	13.0	3.35e-05	0	43	0	279969792	21	4253
2026-01-30 08:11:27.06	67.31	16.11	-29.9	-30.7	13.6	1.37e-05	0	43	0	285212672	21	3973
2026-01-30 08:11:30.07	66.72	16.26	-30.0	-31.5	13.4	1.22e-05	0	43	0	291504128	20	4276
2026-01-30 08:11:33.08	66.12	16.41	-29.8	-30.9	13.8	3.80e-06	0	43	0	296747008	20	4091
2026-01-30 08:11:36.10	65.51	16.56	-29.6	-30.5	14.2	4.50e-06	0	43	0	303038464	20	3977
2026-01-30 08:11:39.11	64.90	16.71	-29.5	-30.2	14.3	7.00e-07	0	43	0	308281344	20	3900
2026-01-30 08:11:42.12	64.28	16.85	-29.5	-30.2	14.4	0.00e+00	0	43	0	313524224	20	3885
2026-01-30 08:11:45.14	63.65	16.99	-29.4	-29.7	14.6	7.00e-07	0	43	0	319815680	20	3762
2026-01-30 08:11:48.15	63.02	17.12	-29.7	-30.5	14.1	7.00e-07	0	43	0	325058560	20	3978
2026-01-30 08:11:51.17	62.39	17.26	-29.8	-31.0	13.9	2.20e-06	0	43	0	330301440	20	4120
2026-01-30 08:11:54.18	61.75	17.39	-30.0	-31.5	13.5	8.30e-06	0	43	0	336592896	20	4268
2026-01-30 08:11:57.19	61.10	17.52	-30.0	-31.3	13.7	6.80e-06	0	43	0	341835776	20	4213
2026-01-30 08:12:00.19	60.45	17.64	-29.6	-30.4	14.2	2.20e-06	0	43	0	348127232	20	3947
2026-01-30 08:12:03.20	59.79	17.76	-29.4	-29.7	14.7	7.00e-07	0	43	0	353370112	20	3757
2026-01-30 08:12:06.21	59.13	17.88	-29.2	-29.9	15.0	0.00e+00	0	43	0	358612992	19	3874
2026-01-30 08:12:09.22	58.46	17.99	-29.0	-29.3	15.4	0.00e+00	0	43	0	364904448	19	3722
2026-01-30 08:12:12.23	57.79	18.11	-29.2	-29.6	15.1	0.00e+00	0	43	0	370147328	19	3806
2026-01-30 08:12:15.24	57.11	18.21	-29.4	-30.2	14.8	7.00e-07	0	43	0	376438784	19	3952
2026-01-30 08:12:18.25	56.43	18.32	-29.5	-30.4	14.7	7.00e-07	0	43	0	381681664	19	4015
2026-01-30 08:12:21.26	55.74	18.42	-29.7	-31.1	14.2	7.00e-07	0	43	0	386924544	19	4218
2026-01-30 08:12:24.27	55.05	18.51	-29.6	-30.9	14.3	1.50e-06	0	43	0	393216000	19	4176
2026-01-30 08:12:27.29	54.35	18.61	-30.0	-31.4	13.7	3.80e-06	0	43	0	398458880	20	4217
2026-01-30 08:12:30.30	53.66	18.69	-30.3	-32.3	13.1	2.67e-05	0	43	0	403701760	20	4521
2026-01-30 08:12:33.30	52.95	18.78	-30.2	-32.0	13.3	2.13e-05	0	43	0	409993216	20	4422
2026-01-30 08:12:36.31	52.25	18.86	-30.1	-31.8	13.5	1.22e-05	0	43	0	415236096	20	4336
2026-01-30 08:12:39.32	51.54	18.93	-30.3	-32.1	13.3	1.52e-05	0	43	0	421527552	20	4452
2026-01-30 08:12:42.34	50.82	19.00	-30.2	-32.0	13.3	2.59e-05	0	43	0	426770432	20	4422
2026-01-30 08:12:45.35	50.10	19.07	-30.1	-31.8	13.4	1.52e-05	0	43	0	432013312	20	4360
2026-01-30 08:12:48.35	49.38	19.13	-30.3	-32.3	13.1	2.44e-05	0	43	0	438304768	20	4522
2026-01-30 08:12:51.35	48.66	19.19	-30.9	-33.6	11.8	3.40e-04	0	43	0	443547648	21	4889
2026-01-30 08:12:54.36	47.94	19.24	-30.7	-32.5	12.3	2.21e-04	0	43	0	448790528	22	4436
2026-01-30 08:12:57.38	47.21	19.29	-30.3	-31.4	13.0	3.89e-05	0	43	0	455081984	22	4068
2026-01-30 08:13:00.39	46.47	19.33	-30.5	-32.5	12.6	4.11e-05	0	43	0	460324864	21	4495
2026-01-30 08:13:03.41	45.74	19.37	-30.5	-32.4	12.6	1.36e-04	0	43	0	466616320	21	4482
2026-01-30 08:13:06.42	45.01	19.40	-30.2	-31.4	13.3	1.14e-05	0	43	0	471859200	21	4168
2026-01-30 08:13:09.42	44.27	19.43	-30.0	-31.0	13.6	9.90e-06	0	43	0	477102080	21	4038
2026-01-30 08:13:12.43	43.54	19.46	-30.1	-31.2	13.4	9.90e-06	0	43	0	483393536	21	4109
2026-01-30 08:13:15.44	42.80	19.48	-30.3	-31.8	13.1	2.67e-05	0	43	0	488636416	21	4285
2026-01-30 08:13:18.45	42.06	19.49	-30.0	-31.0	13.5	1.14e-05	0	43	0	494927872	21	4054
2026-01-30 08:13:21.45	41.32	19.50	-30.2	-31.6	13.2	1.37e-05	0	43	0	500170752	21	4220
2026-01-30 08:13:24.46	40.58	19.50	-30.4	-32.0	12.9	6.40e-05	0	43	0	505413632	21	4330
2026-01-30 08:13:27.47	39.84	19.50	-30.6	-32.8	12.3	1.09e-04	0	43	0	511705088	21	4588
2026-01-30 08:13:30.49	39.10	19.49	-30.7	-32.9	12.2	3.73e-04	0	43	0	516947968	21	4650
2026-01-30 08:13:33.50	38.36	19.48	-30.5	-32.3	12.7	8.08e-05	0	43	0	522190848	21	4437
2026-01-30 08:13:36.51	37.63	19.47	-30.1	-31.1	13.5	4.04e-05	0	43	0	528482304	21	4036
2026-01-30 08:13:39.52	36.89	19.45	-29.4	-29.9	14.6	2.20e-06	0	43	0	533725184	20	3793
2026-01-30 08:13:42.53	36.15	19.42	-29.6	-30.2	14.4	0.00e+00	0	43	0	540016640	20	3884
2026-01-30 08:13:45.54	35.42	19.39	-29.3	-29.9	14.9	7.00e-07	0	43	0	545259520	19	3883
2026-01-30 08:13:48.56	34.68	19.35	-29.3	-30.1	14.8	0.00e+00	0	43	0	550502400	19	3933
2026-01-30 08:13:51.57	33.95	19.31	-29.4	-30.3	14.7	0.00e+00	0	43	0	556793856	19	4002
2026-01-30 08:13:54.58	33.22	19.27	-29.2	-29.8	15.0	0.00e+00	0	43	0	562036736	19	3857
2026-01-30 08:13:57.59	32.50	19.22	-29.0	-29.1	15.4	0.00e+00	0	43	0	567279616	19	3678
2026-01-30 08:14:00.60	31.77	19.16	-29.2	-29.7	15.1	0.00e+00	0	43	0	573571072	19	3811
2026-01-30 08:14:03.61	31.05	19.10	-29.3	-29.9	15.0	0.00e+00	0	43	0	578813952	19	3882
2026-01-30 08:14:06.62	30.33	19.04	-29.3	-30.0	14.9	1.50e-06	0	43	0	585105408	19	3896
2026-01-30 08:14:09.62	29.62	18.97	-29.4	-30.2	14.8	7.00e-07	0	43	0	590348288	19	3956
2026-01-30 08:14:12.63	28.91	18.90	-29.6	-30.9	14.4	2.20e-06	0	43	0	595591168	19	4147
2026-01-30 08:14:15.63	28.20	18.82	-30.3	-32.3	13.1	1.22e-05	0	43	0	601882624	20	4510
2026-01-30 08:14:18.63	27.50	18.74	-30.5	-32.2	12.8	8.77e-05	0	43	0	607125504	21	4375
2026-01-30 08:14:21.64	26.80	18.66	-30.3	-31.7	13.1	3.28e-05	0	43	0	613416960	21	4234
2026-01-30 08:14:24.65	26.10	18.57	-30.5	-32.3	12.7	5.56e-05	0	43	0	618659840	21	4411
2026-01-30 08:14:27.66	25.41	18.47	-30.5	-32.3	12.7	9.00e-05	0	43	0	623902720	21	4408
2026-01-30 08:14:30.66	24.73	18.38	-30.7	-32.9	12.2	1.43e-04	0	43	0	630194176	21	4636
2026-01-30 08:14:33.68	24.04	18.27	-30.8	-33.2	12.1	3.41e-04	0	43	0	635437056	21	4730
2026-01-30 08:14:36.68	23.36	18.17	-30.0	-30.9	13.6	1.14e-05	0	43	0	640679936	21	3991
2026-01-30 08:14:39.69	22.69	18.06	-30.0	-30.8	13.6	9.90e-06	0	43	0	646971392	21	3975
2026-01-30 08:14:42.70	22.02	17.95	-30.2	-31.4	13.2	2.74e-05	0	43	0	652214272	21	4135
2026-01-30 08:14:45.70	21.36	17.83	-30.1	-31.3	13.3	2.13e-05	0	43	0	658505728	21	4104
2026-01-30 08:14:48.70	20.70	17.71	-29.8	-30.9	13.9	2.20e-06	0	43	0	663748608	20	4079
2026-01-30 08:14:51.71	20.05	17.59	-29.4	-29.8	14.5	0.00e+00	0	43	0	668991488	20	3788
2026-01-30 08:14:54.72	19.40	17.47	-29.3	-30.0	14.8	0.00e+00	0	43	0	675282944	19	3915
2026-01-30 08:14:57.73	18.76	17.34	-29.6	-30.7	14.3	2.20e-06	0	43	0	680525824	19	4113
2026-01-30 08:15:00.74	18.13	17.21	-30.6	-32.8	12.2	1.26e-04	0	43	0	685768704	21	4602
2026-01-30 08:15:03.75	17.49	17.07	-30.5	-32.4	12.5	1.46e-04	0	43	0	692060160	21	4478
2026-01-30 08:15:06.76	16.87	16.93	-30.6	-32.8	12.2	2.27e-04	0	43	0	697303040	21	4607
2026-01-30 08:15:09.77	16.25	16.79	-31.0	-33.8	11.5	6.35e-04	0	43	0	703594496	21	4992
2026-01-30 08:15:12.78	15.64	16.65	-31.0	-33.4	11.4	8.57e-04	0	43	0	708837376	22	4738
2026-01-30 08:15:15.78	15.03	16.51	-30.3	-31.3	12.9	1.05e-04	0	43	0	714080256	22	4035
2026-01-30 08:15:18.79	14.43	16.36	-29.8	-30.4	13.8	1.22e-05	0	43	0	720371712	21	3858
2026-01-30 08:15:21.79	13.84	16.21	-29.8	-30.9	13.7	3.00e-06	0	43	0	725614592	20	4103
2026-01-30 08:15:24.79	13.25	16.06	-30.2	-31.9	13.1	1.22e-05	0	43	0	730857472	20	4423
2026-01-30 08:15:27.80	12.67	15.90	-30.4	-32.2	12.5	1.25e-04	0	43	0	737148928	21	4435
2026-01-30 08:15:30.81	12.09	15.75	-30.4	-32.1	12.5	1.14e-04	0	43	0	742391808	21	4392
2026-01-30 08:15:33.82	11.52	15.59	-30.1	-31.3	13.1	3.05e-05	0	43	0	748683264	21	4136
2026-01-30 08:15:36.84	10.95	15.43	-30.3	-31.8	12.8	4.65e-05	0	43	0	753926144	21	4288
2026-01-30 08:15:39.85	10.39	15.27	-30.9	-33.8	11.3	7.01e-04	0	43	0	759169024	21	5016
2026-01-30 08:15:42.85	9.84	15.11	-31.2	-34.2	10.7	2.35e-03	0	43	0	765460480	22	5058
2026-01-30 08:15:45.86	9.30	14.94	-30.8	-32.9	11.7	9.22e-04	0	43	0	770703360	22	4568
2026-01-30 08:15:48.87	8.76	14.78	-31.0	-33.5	11.4	5.77e-04	0	43	0	776994816	22	4776
2026-01-30 08:15:51.88	8.22	14.61	-30.7	-32.7	11.8	6.38e-04	0	43	0	782237696	22	4497
2026-01-30 08:15:54.89	7.69	14.44	-30.5	-32.1	12.2	2.57e-04	0	43	0	787480576	22	4317
2026-01-30 08:15:57.91	7.17	14.27	-31.0	-33.5	11.2	7.96e-04	0	43	0	793772032	22	4784
2026-01-30 08:16:00.92	6.65	14.10	-31.1	-33.9	10.8	2.22e-03	0	44	0	799014912	22	4974
2026-01-30 08:16:03.93	6.14	13.93	-30.8	-32.7	11.7	6.90e-04	0	43	0	805306368	22	4516
2026-01-30 08:16:06.95	5.64	13.75	-30.7	-32.4	12.0	4.85e-04	0	43	0	810549248	22	4417
2026-01-30 08:16:09.95	5.14	13.58	-31.0	-33.4	11.2	6.71e-04	0	44	0	815792128	22	4774
2026-01-30 08:16:12.95	4.65	13.40	-30.6	-32.2	12.1	3.49e-04	0	43	0	822083584	22	4325
2026-01-30 08:16:15.97	4.17	13.23	-30.6	-32.4	12.0	3.16e-04	0	43	0	827326464	22	4399
2026-01-30 08:16:18.98	3.69	13.05	-30.5	-31.9	12.2	2.16e-04	0	43	0	832569344	22	4260
2026-01-30 08:16:21.98	3.21	12.87	-30.4	-31.7	12.4	1.46e-04	0	43	0	838860800	22	4165
2026-01-30 08:16:25.00	2.74	12.70	-30.2	-31.7	12.7	7.17e-05	0	43	0	844103680	21	4272
2026-01-30 08:16:28.00	2.28	12.52	-29.7	-30.9	13.6	3.80e-06	0	43	0	850395136	20	4092
2026-01-30 08:16:31.02	1.82	12.34	-29.3	-30.2	14.4	7.00e-07	0	43	0	855638016	19	3979
2026-01-30 08:16:34.02	1.37	12.16	-29.3	-30.2	14.4	0.00e+00	0	43	0	860880896	19	3972
2026-01-30 08:16:37.03	0.93	11.98	-29.8	-31.6	13.5	3.00e-06	0	43	0	867172352	19	4399
2026-01-30 08:16:40.04	0.49	11.80	-30.0	-31.6	13.0	3.05e-05	0	43	0	872415232	20	4325
2026-01-30 08:16:43.04	0.06	11.62	-30.0	-31.5	13.1	3.43e-05	0	43	0	877658112	20	4305
2026-01-30 08:16:46.05	359.63	11.44	-29.7	-30.8	13.5	2.59e-05	0	43	0	883949568	20	4089
2026-01-30 08:16:49.07	359.20	11.26	-29.4	-30.1	14.0	5.30e-06	0	43	0	889192448	20	3872
2026-01-30 08:16:52.07	358.78	11.08	-29.5	-30.4	13.7	7.60e-06	0	43	0	895483904	20	3968
2026-01-30 08:16:55.07	358.37	10.89	-29.9	-31.4	13.1	1.60e-05	0	43	0	900726784	20	4277
2026-01-30 08:16:58.08	357.96	10.71	-30.3	-32.5	12.4	1.30e-04	0	43	0	905969664	20	4633
2026-01-30 08:17:01.09	357.56	10.53	-30.3	-32.4	12.4	2.48e-04	0	43	0	912261120	20	4605
2026-01-30 08:17:04.10	357.16	10.35	-30.7	-33.1	11.5	4.20e-04	0	43	0	917504000	21	4768
2026-01-30 08:17:07.12	356.77	10.17	-30.0	-31.0	12.9	8.77e-05	0	43	0	922746880	21	4074
2026-01-30 08:17:10.13	356.38	9.99	-29.6	-30.5	13.6	6.80e-06	0	43	0	929038336	20	3994
2026-01-30 08:17:13.13	356.00	9.81	-29.5	-30.3	13.7	5.30e-06	0	43	0	934281216	20	3952
2026-01-30 08:17:16.12	355.63	9.63	-30.0	-31.5	12.9	3.89e-05	0	43	0	940572672	20	4313
2026-01-30 08:17:19.13	355.25	9.44	-30.6	-32.8	11.7	5.04e-04	0	43	0	945815552	21	4649
2026-01-30 08:17:22.14	354.88	9.26	-30.5	-32.5	11.9	4.90e-04	0	43	0	951058432	21	4565
2026-01-30 08:17:25.15	354.52	9.08	-30.3	-32.2	12.1	1.81e-04	0	43	0	957349888	21	4440
2026-01-30 08:17:28.16	354.16	8.90	-30.0	-31.3	12.6	1.41e-04	0	43	0	962592768	21	4165
2026-01-30 08:17:31.18	353.81	8.72	-30.1	-31.4	12.5	7.78e-05	0	43	0	967835648	21	4215
2026-01-30 08:17:34.18	353.46	8.54	-30.3	-32.0	12.1	2.10e-04	0	43	0	974127104	21	4391
2026-01-30 08:17:37.19	353.11	8.36	-30.4	-32.5	11.7	4.81e-04	0	43	0	979369984	21	4579
2026-01-30 08:17:40.19	352.77	8.18	-30.6	-33.2	11.2	1.21e-03	0	43	0	985661440	21	4830
2026-01-30 08:17:43.20	352.43	8.00	-30.8	-33.6	10.9	2.00e-03	0	43	0	990904320	21	5007
2026-01-30 08:17:46.21	352.10	7.82	-30.7	-33.4	11.1	1.38e-03	0	43	0	996147200	21	4919
2026-01-30 08:17:49.22	351.77	7.64	-30.5	-32.9	11.4	1.18e-03	0	43	0	1002438656	21	4708
2026-01-30 08:17:52.23	351.45	7.47	-30.6	-33.1	11.2	1.16e-03	0	43	0	1007681536	21	4819
2026-01-30 08:17:55.24	351.13	7.29	-30.7	-33.4	10.9	1.37e-03	0	43	0	1013972992	21	4933
2026-01-30 08:17:58.24	350.81	7.11	-31.0	-34.1	10.1	6.52e-03	0	43	0	1019215872	22	5127

#Closed at: 2026-01-30 08:18:01
#Recorded file [1021 MB]: D:/data/31010_260130_110854.dat