passes_logs/2026/01/30/R2M6_AANII_01/R2M6_AANII_01__20260130_015457_NOAA_20_JPSS-1_rec.log

#Pass ID: 20260130_015457_NOAA 20 (JPSS-1)
#Satellite: NOAA 20 (JPSS-1)
#Configuration: NOAA 20
#almurnet v.1.7.20240730
#Start time: 2026-01-30 01:54:58

#Version: 2.2.20231116
#Station: R2M6_AANII_01
#Location: 30.233357 lon 59.946436 lat
#TLE: 1 43013U 17073A   26028.86313978  .00000144  00000+0  89200-4 0  9993
#TLE: 2 43013  98.7648 329.6571 0000891  20.0014 340.1197 14.19541559424709

#Time	Az	El	Level	Level2	SNR	BER	BlckErr	Temp	State	Recorded	gain1	gain2
2026-01-30 01:54:58.99	11.45	7.10	-32.7	-41.3	4.4	1.41e+00	0	41	0	0	25	9739
2026-01-30 01:55:01.99	11.22	7.31	-32.5	-40.2	6.1	3.21e-01	0	41	0	1048576	25	8654
2026-01-30 01:55:05.00	10.99	7.51	-32.4	-39.6	6.9	2.41e-01	0	41	0	7340032	24	8242
2026-01-30 01:55:08.01	10.76	7.72	-31.8	-37.3	9.1	3.47e-02	0	41	0	12582912	23	6765
2026-01-30 01:55:11.00	10.52	7.93	-31.3	-36.0	10.5	5.58e-03	0	41	0	17825792	22	6181
2026-01-30 01:55:14.00	10.28	8.14	-31.4	-36.4	10.2	5.88e-03	0	42	0	24117248	22	6403
2026-01-30 01:55:17.02	10.03	8.35	-31.7	-36.7	9.7	9.76e-03	0	42	0	29360128	23	6424
2026-01-30 01:55:20.02	9.78	8.56	-31.5	-36.1	10.2	7.60e-03	0	41	0	35651584	23	6108
2026-01-30 01:55:23.02	9.53	8.78	-31.6	-36.4	10.0	6.52e-03	0	42	0	40894464	23	6251
2026-01-30 01:55:26.03	9.27	8.99	-31.7	-36.6	9.7	1.20e-02	0	42	0	46137344	23	6401
2026-01-30 01:55:29.04	9.01	9.21	-31.5	-36.1	10.2	6.04e-03	0	42	0	52428800	23	6115
2026-01-30 01:55:32.05	8.74	9.43	-31.7	-36.7	9.7	7.06e-03	0	42	0	57671680	23	6407
2026-01-30 01:55:35.06	8.47	9.65	-31.4	-36.3	10.4	2.82e-03	0	42	0	62914560	22	6332
2026-01-30 01:55:38.06	8.20	9.87	-31.0	-34.9	11.6	7.52e-04	0	42	0	69206016	22	5635
2026-01-30 01:55:41.07	7.92	10.09	-30.9	-35.2	11.7	5.68e-04	0	42	0	74448896	21	5858
2026-01-30 01:55:44.08	7.64	10.32	-31.0	-34.9	11.5	7.24e-04	0	42	0	80740352	22	5628
2026-01-30 01:55:47.09	7.35	10.54	-31.0	-34.7	11.7	5.63e-04	0	42	0	85983232	22	5550
2026-01-30 01:55:50.10	7.06	10.77	-31.0	-34.8	11.7	7.41e-04	0	42	0	91226112	22	5573
2026-01-30 01:55:53.11	6.76	11.00	-31.0	-34.7	11.8	5.35e-04	0	42	0	97517568	22	5499
2026-01-30 01:55:56.10	6.46	11.22	-30.9	-34.9	11.9	3.74e-04	0	42	0	102760448	21	5731
2026-01-30 01:55:59.11	6.15	11.45	-31.0	-34.6	11.9	4.70e-04	0	42	0	108003328	22	5480
2026-01-30 01:56:02.13	5.84	11.69	-30.9	-35.0	12.0	3.92e-04	0	43	0	114294784	21	5766
2026-01-30 01:56:05.13	5.53	11.92	-31.2	-35.5	11.3	9.84e-04	0	43	0	119537664	22	5879
2026-01-30 01:56:08.14	5.20	12.15	-30.9	-34.5	12.0	3.41e-04	0	42	0	125829120	22	5411
2026-01-30 01:56:11.15	4.88	12.39	-30.9	-34.4	12.1	5.16e-04	0	43	0	131072000	22	5396
2026-01-30 01:56:14.16	4.54	12.63	-31.0	-34.6	12.0	4.61e-04	0	43	0	136314880	22	5463
2026-01-30 01:56:17.16	4.20	12.86	-30.9	-34.3	12.2	2.57e-04	0	43	0	142606336	22	5338
2026-01-30 01:56:20.18	3.86	13.10	-31.0	-34.8	11.9	2.91e-04	0	42	0	147849216	22	5527
2026-01-30 01:56:23.19	3.51	13.34	-31.0	-34.5	12.1	3.49e-04	0	43	0	153092096	22	5432
2026-01-30 01:56:26.20	3.15	13.59	-31.0	-34.7	11.9	3.20e-04	0	43	0	159383552	22	5510
2026-01-30 01:56:29.21	2.79	13.83	-31.2	-35.1	11.7	5.24e-04	0	43	0	164626432	22	5686
2026-01-30 01:56:32.21	2.42	14.07	-31.1	-34.9	11.8	4.13e-04	0	43	0	170917888	22	5578
2026-01-30 01:56:35.22	2.05	14.32	-31.2	-35.1	11.7	6.09e-04	0	43	0	176160768	22	5661
2026-01-30 01:56:38.23	1.67	14.57	-31.1	-34.8	11.9	4.57e-04	0	43	0	181403648	22	5541
2026-01-30 01:56:41.24	1.28	14.82	-31.1	-34.8	12.0	4.24e-04	0	43	0	187695104	22	5522
2026-01-30 01:56:44.25	0.89	15.07	-30.9	-34.2	12.4	1.36e-04	0	43	0	192937984	22	5273
2026-01-30 01:56:47.26	0.48	15.32	-30.9	-34.2	12.4	1.50e-04	0	43	0	199229440	22	5273
2026-01-30 01:56:50.27	0.08	15.57	-31.0	-34.5	12.2	2.70e-04	0	43	0	204472320	22	5390
2026-01-30 01:56:53.28	359.66	15.82	-30.9	-34.2	12.4	3.21e-04	0	43	0	209715200	22	5290
2026-01-30 01:56:56.29	359.24	16.08	-30.8	-34.4	12.6	3.28e-04	0	43	0	216006656	21	5468
2026-01-30 01:56:59.29	358.81	16.33	-30.8	-34.5	12.6	6.86e-05	0	43	0	221249536	21	5485
2026-01-30 01:57:02.31	358.37	16.59	-30.5	-33.7	13.2	2.28e-05	0	43	0	226492416	21	5175
2026-01-30 01:57:05.33	357.92	16.85	-30.4	-33.9	13.4	9.90e-06	0	43	0	232783872	20	5345
2026-01-30 01:57:08.35	357.47	17.11	-30.5	-33.5	13.3	1.75e-05	0	43	0	238026752	21	5102
2026-01-30 01:57:11.35	357.01	17.36	-30.4	-33.9	13.4	1.44e-05	0	43	0	244318208	20	5371
2026-01-30 01:57:14.36	356.54	17.62	-30.6	-33.7	13.1	2.89e-05	0	43	0	249561088	21	5179
2026-01-30 01:57:17.37	356.06	17.88	-30.4	-33.7	13.4	1.14e-05	0	43	0	254803968	20	5280
2026-01-30 01:57:20.37	355.58	18.14	-30.6	-33.9	13.0	4.88e-05	0	43	0	261095424	21	5265
2026-01-30 01:57:23.38	355.08	18.41	-30.6	-33.9	13.0	3.58e-05	0	43	0	266338304	21	5260
2026-01-30 01:57:26.38	354.58	18.67	-30.5	-34.0	13.4	9.90e-06	0	43	0	272629760	20	5394
2026-01-30 01:57:29.39	354.07	18.93	-30.5	-33.4	13.4	2.44e-05	0	43	0	277872640	21	5060
2026-01-30 01:57:32.40	353.55	19.19	-30.5	-33.5	13.4	8.30e-06	0	43	0	283115520	21	5083
2026-01-30 01:57:35.40	353.02	19.45	-30.6	-33.9	13.1	3.05e-05	0	43	0	289406976	21	5230
2026-01-30 01:57:38.41	352.48	19.72	-30.7	-34.0	13.1	2.89e-05	0	43	0	294649856	21	5262
2026-01-30 01:57:41.42	351.93	19.98	-30.8	-34.3	12.8	6.63e-05	0	43	0	299892736	21	5415
2026-01-30 01:57:44.42	351.37	20.24	-30.8	-34.4	12.8	4.73e-05	0	43	0	306184192	21	5431
2026-01-30 01:57:47.43	350.80	20.51	-30.9	-34.7	12.6	9.46e-05	0	43	0	311427072	21	5553
2026-01-30 01:57:50.45	350.22	20.77	-30.9	-34.7	12.6	8.16e-05	0	43	0	317718528	21	5544
2026-01-30 01:57:53.46	349.63	21.03	-31.0	-34.5	12.5	1.06e-04	0	43	0	322961408	22	5356
2026-01-30 01:57:56.48	349.03	21.30	-30.9	-34.2	12.6	1.29e-04	0	43	0	328204288	22	5256
2026-01-30 01:57:59.50	348.41	21.56	-30.8	-33.8	13.0	3.96e-05	0	43	0	334495744	22	5069
2026-01-30 01:58:02.51	347.79	21.82	-30.7	-33.5	13.1	4.27e-05	0	43	0	339738624	22	4983
2026-01-30 01:58:05.51	347.17	22.08	-30.5	-33.0	13.5	8.30e-06	0	43	0	346030080	22	4803
2026-01-30 01:58:08.51	346.53	22.33	-30.5	-33.1	13.4	1.29e-05	0	43	0	351272960	22	4833
2026-01-30 01:58:11.52	345.87	22.59	-30.3	-32.5	13.7	2.21e-05	0	43	0	356515840	22	4639
2026-01-30 01:58:14.53	345.21	22.84	-30.2	-32.6	14.0	3.80e-06	0	43	0	362807296	21	4766
2026-01-30 01:58:17.54	344.53	23.10	-30.2	-32.7	13.9	6.10e-06	0	43	0	368050176	21	4810
2026-01-30 01:58:20.55	343.85	23.35	-30.1	-32.5	14.1	4.50e-06	0	43	0	373293056	21	4711
2026-01-30 01:58:23.55	343.15	23.60	-30.1	-32.5	14.1	4.50e-06	0	43	0	379584512	21	4728
2026-01-30 01:58:26.57	342.44	23.85	-29.9	-31.9	14.5	0.00e+00	0	43	0	384827392	21	4541
2026-01-30 01:58:29.56	341.73	24.09	-29.8	-32.1	14.7	0.00e+00	0	43	0	391118848	20	4679
2026-01-30 01:58:32.57	340.99	24.33	-29.9	-32.5	14.5	0.00e+00	0	43	0	396361728	20	4815
2026-01-30 01:58:35.56	340.26	24.57	-29.9	-32.4	14.5	0.00e+00	0	43	0	401604608	20	4789
2026-01-30 01:58:38.58	339.50	24.81	-30.0	-32.6	14.4	0.00e+00	0	43	0	407896064	20	4853
2026-01-30 01:58:41.59	338.73	25.04	-30.2	-33.1	14.1	2.20e-06	0	43	0	413138944	20	5048
2026-01-30 01:58:44.60	337.96	25.27	-30.2	-33.1	14.1	1.50e-06	0	43	0	418381824	20	5020
2026-01-30 01:58:47.62	337.17	25.49	-30.0	-32.7	14.3	0.00e+00	0	44	0	424673280	20	4909
2026-01-30 01:58:50.63	336.37	25.71	-30.3	-33.5	13.8	2.20e-06	0	43	0	429916160	20	5173
2026-01-30 01:58:53.63	335.56	25.93	-30.3	-33.1	13.8	4.50e-06	0	43	0	436207616	21	4918
2026-01-30 01:58:56.64	334.74	26.14	-30.3	-33.4	13.9	2.20e-06	0	43	0	441450496	20	5142
2026-01-30 01:58:59.64	333.91	26.35	-30.3	-33.5	13.8	6.10e-06	0	43	0	446693376	20	5171
2026-01-30 01:59:02.65	333.06	26.55	-30.1	-32.9	14.3	1.50e-06	0	43	0	452984832	20	4949
2026-01-30 01:59:05.66	332.21	26.74	-30.0	-32.7	14.4	0.00e+00	0	43	0	458227712	20	4878
2026-01-30 01:59:08.66	331.34	26.93	-30.0	-32.7	14.4	0.00e+00	0	43	0	463470592	20	4887
2026-01-30 01:59:11.66	330.47	27.12	-29.5	-32.3	14.1	1.50e-06	0	44	0	469762048	20	4986
2026-01-30 01:59:14.68	329.58	27.30	-30.3	-33.3	14.0	6.10e-06	0	43	0	475004928	20	5098
2026-01-30 01:59:17.69	328.69	27.47	-30.2	-33.3	14.0	6.10e-06	0	43	0	481296384	20	5095
2026-01-30 01:59:20.70	327.78	27.63	-29.9	-32.5	14.5	0.00e+00	0	43	0	486539264	20	4810
2026-01-30 01:59:23.71	326.87	27.79	-30.3	-33.3	14.0	3.53e-04	0	43	0	491782144	20	5106
2026-01-30 01:59:26.72	325.94	27.94	-30.2	-33.0	14.2	7.00e-07	0	43	0	498073600	20	4997
2026-01-30 01:59:29.73	325.01	28.08	-30.6	-33.6	13.5	5.30e-06	0	43	0	503316480	21	5119
2026-01-30 01:59:32.74	324.07	28.22	-30.8	-34.2	13.1	1.67e-05	0	43	0	509607936	21	5354
2026-01-30 01:59:35.76	323.12	28.34	-30.9	-34.1	12.9	6.94e-05	0	43	0	514850816	22	5178
2026-01-30 01:59:38.77	322.17	28.46	-30.7	-33.4	13.3	1.59e-04	0	44	0	520093696	22	4920
2026-01-30 01:59:41.78	321.20	28.57	-30.5	-33.5	13.5	1.72e-04	0	43	0	526385152	21	5081
2026-01-30 01:59:44.79	320.23	28.67	-30.6	-33.6	13.5	3.70e-04	0	43	0	531628032	21	5091
2026-01-30 01:59:47.81	319.26	28.77	-30.8	-34.4	13.0	3.68e-04	0	43	0	536870912	21	5406
2026-01-30 01:59:50.81	318.28	28.85	-30.8	-34.3	13.1	4.08e-04	0	44	0	543162368	21	5385
2026-01-30 01:59:53.82	317.29	28.92	-31.1	-34.6	12.5	4.01e-04	0	43	0	548405248	22	5401
2026-01-30 01:59:56.84	316.30	28.99	-31.2	-35.0	12.3	4.34e-04	0	43	0	554696704	22	5527
2026-01-30 01:59:59.85	315.31	29.04	-31.3	-35.3	12.1	4.65e-04	0	43	0	559939584	22	5652
2026-01-30 02:00:02.86	314.31	29.09	-31.7	-36.1	11.1	1.11e-03	0	44	0	565182464	23	5911
2026-01-30 02:00:05.86	313.32	29.12	-31.3	-34.6	12.2	2.98e-04	0	44	0	571473920	23	5263
2026-01-30 02:00:08.87	312.31	29.15	-31.1	-34.1	12.5	2.37e-04	0	44	0	576716800	23	5088
2026-01-30 02:00:11.89	311.31	29.17	-31.3	-35.2	12.1	2.14e-04	0	44	0	581959680	22	5637
2026-01-30 02:00:14.90	310.30	29.17	-31.4	-35.5	11.9	4.00e-04	0	43	0	588251136	22	5763
2026-01-30 02:00:17.90	309.30	29.17	-31.9	-36.5	10.9	1.77e-03	0	43	0	593494016	23	6142
2026-01-30 02:00:20.90	308.30	29.16	-31.4	-35.0	12.0	4.10e-04	0	43	0	599785472	23	5424
2026-01-30 02:00:23.91	307.30	29.14	-31.1	-34.1	12.5	1.27e-04	0	43	0	605028352	23	5077
2026-01-30 02:00:26.93	306.30	29.10	-31.1	-34.5	12.6	3.39e-04	0	43	0	610271232	22	5325
2026-01-30 02:00:29.93	305.30	29.06	-30.8	-34.1	13.1	2.59e-05	0	43	0	616562688	21	5303
2026-01-30 02:00:32.93	304.31	29.01	-30.7	-34.0	13.3	2.59e-05	0	44	0	621805568	21	5254
2026-01-30 02:00:35.93	303.32	28.95	-30.7	-33.9	13.3	2.13e-05	0	43	0	627048448	21	5231
2026-01-30 02:00:38.93	302.34	28.88	-30.4	-33.2	13.7	6.10e-06	0	43	0	633339904	21	4973
2026-01-30 02:00:41.94	301.36	28.80	-30.5	-33.3	13.7	9.10e-06	0	43	0	638582784	21	5012
2026-01-30 02:00:44.94	300.38	28.71	-30.3	-32.8	14.0	6.10e-06	0	43	0	644874240	21	4830
2026-01-30 02:00:47.95	299.41	28.61	-30.0	-32.1	14.4	7.00e-07	0	43	0	650117120	21	4592
2026-01-30 02:00:50.96	298.44	28.51	-30.1	-32.4	14.2	1.50e-06	0	43	0	655360000	21	4679
2026-01-30 02:00:53.97	297.48	28.39	-30.4	-33.1	13.8	2.20e-06	0	43	0	661651456	21	4931
2026-01-30 02:00:56.97	296.53	28.27	-30.1	-32.5	14.0	3.00e-06	0	44	0	666894336	21	4710
2026-01-30 02:00:59.98	295.59	28.14	-30.2	-33.1	14.0	4.50e-06	0	43	0	672137216	20	5040
2026-01-30 02:01:02.99	294.65	28.00	-30.4	-33.2	13.7	6.10e-06	0	44	0	678428672	21	4974
2026-01-30 02:01:06.00	293.72	27.85	-30.6	-33.7	13.4	9.99e-04	0	43	0	683671552	21	5140
2026-01-30 02:01:09.01	292.80	27.70	-30.4	-33.8	13.6	3.75e-04	0	43	0	689963008	20	5310
2026-01-30 02:01:12.02	291.89	27.53	-30.4	-33.1	13.7	1.44e-05	0	43	0	695205888	21	4940
2026-01-30 02:01:15.04	290.99	27.36	-30.4	-33.3	13.6	8.30e-06	0	44	0	700448768	21	4989
2026-01-30 02:01:18.06	290.09	27.19	-30.9	-34.6	12.7	4.57e-05	0	44	0	706740224	21	5512
2026-01-30 02:01:21.07	289.21	27.01	-30.9	-34.1	12.7	1.85e-04	0	44	0	711983104	22	5219
2026-01-30 02:01:24.08	288.34	26.82	-30.7	-33.4	13.2	1.90e-05	0	43	0	718274560	22	4946
2026-01-30 02:01:27.08	287.48	26.62	-30.9	-34.0	12.8	3.96e-05	0	44	0	723517440	22	5169
2026-01-30 02:01:30.09	286.63	26.42	-31.1	-34.7	12.3	2.80e-04	0	43	0	728760320	22	5457
2026-01-30 02:01:33.12	285.78	26.22	-31.0	-34.5	12.5	1.50e-04	0	44	0	735051776	22	5364
2026-01-30 02:01:36.12	284.96	26.01	-31.0	-34.5	12.4	1.61e-04	0	43	0	740294656	22	5366
2026-01-30 02:01:39.13	284.14	25.79	-30.9	-34.2	12.6	9.76e-05	0	43	0	745537536	22	5242
2026-01-30 02:01:42.14	283.33	25.57	-31.0	-34.4	12.5	3.97e-04	0	44	0	751828992	22	5345
2026-01-30 02:01:45.14	282.54	25.35	-30.8	-33.9	12.8	2.30e-04	0	43	0	757071872	22	5131
2026-01-30 02:01:48.15	281.76	25.12	-30.4	-33.1	13.6	8.77e-05	0	43	0	763363328	21	4962
2026-01-30 02:01:51.16	280.98	24.89	-30.5	-33.5	13.3	7.47e-05	0	43	0	768606208	21	5094
2026-01-30 02:01:54.17	280.22	24.66	-30.6	-33.7	13.2	2.05e-05	0	44	0	773849088	21	5166
2026-01-30 02:01:57.17	279.47	24.42	-30.6	-33.8	13.1	2.67e-05	0	43	0	780140544	21	5215
2026-01-30 02:02:00.18	278.74	24.18	-30.6	-33.8	13.2	3.43e-05	0	44	0	785383424	21	5202
2026-01-30 02:02:03.20	278.01	23.93	-30.4	-33.4	13.4	1.22e-05	0	43	0	791674880	21	5051
2026-01-30 02:02:06.20	277.29	23.68	-30.0	-32.2	14.1	3.00e-06	0	44	0	796917760	21	4636
2026-01-30 02:02:09.20	276.59	23.44	-29.8	-32.1	14.5	1.62e-04	0	43	0	802160640	20	4719
2026-01-30 02:02:12.21	275.90	23.18	-29.7	-32.5	14.6	1.41e-04	0	43	0	808452096	19	4957
2026-01-30 02:02:15.22	275.22	22.93	-29.8	-32.7	14.5	0.00e+00	0	43	0	813694976	19	5008
2026-01-30 02:02:18.24	274.54	22.67	-29.8	-32.8	14.4	7.00e-07	0	44	0	818937856	19	5053
2026-01-30 02:02:21.23	273.89	22.42	-29.5	-31.8	15.0	7.00e-07	0	43	0	825229312	19	4728
2026-01-30 02:02:24.25	273.24	22.16	-29.3	-31.5	15.2	0.00e+00	0	44	0	830472192	19	4633
2026-01-30 02:02:27.26	272.60	21.90	-29.0	-31.1	15.7	0.00e+00	0	43	0	836763648	18	4607
2026-01-30 02:02:30.26	271.97	21.64	-29.0	-31.7	15.7	1.50e-06	0	43	0	842006528	17	4904
2026-01-30 02:02:33.27	271.36	21.38	-28.9	-31.0	15.7	0.00e+00	0	44	0	847249408	18	4581
2026-01-30 02:02:36.29	270.75	21.11	-28.6	-30.2	16.2	0.00e+00	0	44	0	853540864	18	4335
2026-01-30 02:02:39.31	270.15	20.85	-28.4	-30.4	16.4	0.00e+00	0	44	0	858783744	17	4482
2026-01-30 02:02:42.33	269.56	20.59	-28.4	-30.8	16.4	0.00e+00	0	44	0	864026624	16	4749
2026-01-30 02:02:45.33	268.99	20.32	-28.6	-30.7	16.2	1.50e-06	0	43	0	870318080	17	4589
2026-01-30 02:02:48.35	268.42	20.06	-28.4	-30.3	16.4	3.00e-06	0	44	0	875560960	17	4477
2026-01-30 02:02:51.35	267.87	19.79	-28.5	-30.6	16.2	3.00e-06	0	43	0	881852416	17	4560
2026-01-30 02:02:54.37	267.32	19.53	-28.6	-30.9	16.1	0.00e+00	0	43	0	887095296	17	4652
2026-01-30 02:02:57.38	266.78	19.26	-28.6	-30.8	16.1	0.00e+00	0	43	0	892338176	17	4617
2026-01-30 02:03:00.38	266.25	19.00	-28.6	-30.7	16.1	2.20e-06	0	44	0	898629632	17	4611
2026-01-30 02:03:03.38	265.74	18.74	-28.8	-31.2	15.9	7.00e-07	0	43	0	903872512	17	4746
2026-01-30 02:03:06.38	265.23	18.48	-29.1	-31.6	15.3	3.00e-06	0	44	0	909115392	18	4770
2026-01-30 02:03:09.40	264.73	18.21	-29.0	-31.3	15.5	3.80e-06	0	43	0	915406848	18	4663
2026-01-30 02:03:12.41	264.23	17.95	-29.2	-31.8	15.1	0.00e+00	0	44	0	920649728	18	4860
2026-01-30 02:03:15.42	263.75	17.69	-29.6	-32.4	14.4	0.00e+00	0	43	0	926941184	19	4949
2026-01-30 02:03:18.43	263.28	17.43	-29.7	-32.5	14.4	7.00e-07	0	43	0	932184064	19	4985
2026-01-30 02:03:21.42	262.81	17.17	-29.7	-32.6	14.3	1.50e-06	0	44	0	937426944	19	5031
2026-01-30 02:03:24.43	262.35	16.91	-29.7	-32.6	14.3	1.50e-06	0	43	0	943718400	19	5024
2026-01-30 02:03:27.44	261.90	16.65	-29.8	-32.7	14.2	1.50e-06	0	44	0	948961280	19	5067
2026-01-30 02:03:30.45	261.46	16.39	-29.7	-32.5	14.3	4.50e-06	0	43	0	955252736	19	4976
2026-01-30 02:03:33.46	261.02	16.14	-29.6	-32.4	14.3	1.50e-06	0	44	0	960495616	19	4951
2026-01-30 02:03:36.47	260.59	15.88	-29.9	-33.1	13.9	4.50e-06	0	43	0	965738496	19	5226
2026-01-30 02:03:39.48	260.17	15.63	-29.8	-32.8	14.1	0.00e+00	0	43	0	972029952	19	5112
2026-01-30 02:03:42.49	259.76	15.37	-29.9	-32.6	13.8	3.00e-06	0	43	0	977272832	20	4926
2026-01-30 02:03:45.50	259.35	15.12	-29.9	-32.8	13.7	5.30e-06	0	43	0	982515712	20	4996
2026-01-30 02:03:48.51	258.95	14.87	-29.9	-32.7	13.7	7.60e-06	0	43	0	988807168	20	4972
2026-01-30 02:03:51.52	258.56	14.62	-29.9	-32.8	13.6	9.10e-06	0	43	0	994050048	20	5023
2026-01-30 02:03:54.53	258.17	14.37	-30.2	-33.5	13.2	2.51e-05	0	44	0	1000341504	20	5257
2026-01-30 02:03:57.55	257.79	14.12	-30.0	-33.0	13.5	1.60e-05	0	44	0	1005584384	20	5067
2026-01-30 02:04:00.55	257.42	13.88	-30.1	-33.2	13.3	1.60e-05	0	44	0	1010827264	20	5173
2026-01-30 02:04:03.56	257.05	13.63	-30.2	-33.5	13.1	2.51e-05	0	43	0	1017118720	20	5268
2026-01-30 02:04:06.57	256.69	13.39	-30.3	-33.8	12.9	6.79e-05	0	44	0	1022361600	20	5393
2026-01-30 02:04:09.59	256.34	13.15	-30.3	-34.0	12.7	5.64e-05	0	43	0	1027604480	20	5480
2026-01-30 02:04:12.59	255.99	12.91	-30.4	-34.0	12.7	8.39e-05	0	43	0	1033895936	20	5504
2026-01-30 02:04:15.60	255.64	12.67	-30.7	-34.5	12.0	2.59e-04	0	44	0	1039138816	21	5585
2026-01-30 02:04:18.60	255.31	12.43	-30.7	-34.7	11.8	5.58e-04	0	43	0	1045430272	21	5703
2026-01-30 02:04:21.61	254.98	12.19	-30.6	-34.4	12.0	2.62e-04	0	43	0	1050673152	21	5551
2026-01-30 02:04:24.62	254.65	11.96	-30.7	-34.8	11.7	4.29e-04	0	44	0	1055916032	21	5719
2026-01-30 02:04:27.62	254.33	11.72	-30.7	-34.5	11.9	3.76e-04	0	43	0	1062207488	21	5610
2026-01-30 02:04:30.63	254.01	11.49	-30.6	-34.4	11.9	4.25e-04	0	43	0	1067450368	21	5559
2026-01-30 02:04:33.64	253.70	11.26	-30.6	-34.4	11.9	3.41e-04	0	43	0	1072693248	21	5570
2026-01-30 02:04:36.66	253.39	11.03	-30.7	-34.6	11.8	4.36e-04	0	43	0	1078984704	21	5664
2026-01-30 02:04:39.67	253.09	10.80	-30.8	-34.9	11.5	1.54e-03	0	44	0	1084227584	21	5775
2026-01-30 02:04:42.67	252.80	10.57	-30.7	-34.7	11.7	1.09e-03	0	44	0	1090519040	21	5707
2026-01-30 02:04:45.67	252.50	10.34	-30.6	-34.5	11.8	5.61e-04	0	44	0	1095761920	21	5616
2026-01-30 02:04:48.67	252.22	10.12	-30.6	-34.3	11.9	4.07e-04	0	43	0	1101004800	21	5555
2026-01-30 02:04:51.67	251.94	9.90	-30.7	-34.7	11.6	9.09e-04	0	44	0	1107296256	21	5726
2026-01-30 02:04:54.68	251.66	9.68	-30.7	-34.8	11.5	6.76e-04	0	43	0	1112539136	21	5764
2026-01-30 02:04:57.69	251.38	9.45	-30.8	-35.2	11.2	1.45e-03	0	43	0	1118830592	21	5978
2026-01-30 02:05:00.70	251.11	9.24	-30.9	-35.4	11.0	1.87e-03	0	44	0	1124073472	21	6070
2026-01-30 02:05:03.71	250.85	9.02	-31.0	-35.7	10.8	2.38e-03	0	44	0	1129316352	21	6203
2026-01-30 02:05:06.72	250.58	8.80	-30.9	-35.4	10.9	2.18e-03	0	43	0	1135607808	21	6072
2026-01-30 02:05:09.73	250.33	8.58	-30.9	-35.7	10.7	3.15e-03	0	44	0	1140850688	21	6216
2026-01-30 02:05:12.75	250.07	8.37	-30.9	-35.7	10.7	3.03e-03	0	44	0	1146093568	21	6205
2026-01-30 02:05:15.77	249.82	8.16	-30.9	-35.2	10.7	4.19e-03	0	43	0	1152385024	22	5886
2026-01-30 02:05:18.77	249.57	7.94	-30.9	-35.6	10.6	3.77e-03	0	44	0	1157627904	21	6200
2026-01-30 02:05:21.78	249.33	7.73	-30.8	-35.5	10.7	3.35e-03	0	43	0	1163919360	21	6166
2026-01-30 02:05:24.79	249.09	7.52	-30.9	-35.8	10.5	3.64e-03	0	44	0	1169162240	21	6301
2026-01-30 02:05:27.80	248.86	7.32	-30.8	-35.6	10.6	3.56e-03	0	43	0	1174405120	21	6192
2026-01-30 02:05:30.81	248.62	7.11	-30.9	-35.8	10.4	4.75e-03	0	43	0	1180696576	21	6297

#Closed at: 2026-01-30 02:05:33
#Recorded file [1181 MB]: D:/data/31010_260130_045500.dat