passes_logs/2026/01/30/R2M6_AANII_01/R2M6_AANII_01__20260130_082835_NOAA_20_JPSS-1_rec.log

#Pass ID: 20260130_082835_NOAA 20 (JPSS-1)
#Satellite: NOAA 20 (JPSS-1)
#Configuration: NOAA 20
#almurnet v.1.7.20240730
#Start time: 2026-01-30 08:28:36

#Version: 2.2.20231116
#Station: R2M6_AANII_01
#Location: 30.233357 lon 59.946436 lat
#TLE: 1 43013U 17073A   26029.42702672  .00000137  00000+0  85918-4 0  9993
#TLE: 2 43013  98.7646 330.2153 0000804  19.9045 340.2162 14.19525092424781

#Time	Az	El	Level	Level2	SNR	BER	BlckErr	Temp	State	Recorded	gain1	gain2
2026-01-30 08:28:36.54	102.93	7.05	-32.3	-40.9	4.2	1.43e+00	0	41	0	0	26	9625
2026-01-30 08:28:39.55	102.66	7.24	-32.2	-39.8	5.8	3.72e-01	0	41	0	1048576	25	8709
2026-01-30 08:28:42.57	102.39	7.44	-32.3	-40.6	5.3	4.71e-01	0	41	0	7340032	25	9356
2026-01-30 08:28:45.57	102.12	7.64	-31.9	-38.3	6.8	2.23e-01	0	41	0	12582912	25	7496
2026-01-30 08:28:48.57	101.84	7.84	-31.4	-36.1	8.9	3.66e-02	0	41	0	17825792	24	6210
2026-01-30 08:28:51.59	101.55	8.04	-31.3	-36.2	9.3	2.00e-02	0	41	0	24117248	23	6364
2026-01-30 08:28:54.59	101.27	8.24	-31.2	-36.1	9.3	1.92e-02	0	41	0	29360128	23	6301
2026-01-30 08:28:57.61	100.97	8.44	-31.2	-36.3	9.1	1.97e-02	0	41	0	35651584	23	6422
2026-01-30 08:29:00.62	100.68	8.64	-30.8	-34.5	10.6	4.89e-03	0	41	0	40894464	23	5497
2026-01-30 08:29:03.63	100.38	8.84	-31.1	-36.1	9.7	1.09e-02	0	41	0	46137344	22	6416
2026-01-30 08:29:06.63	100.07	9.05	-31.2	-36.5	9.4	1.64e-02	0	42	0	52428800	22	6623
2026-01-30 08:29:09.64	99.77	9.25	-31.1	-36.2	9.7	1.11e-02	0	42	0	57671680	22	6417
2026-01-30 08:29:12.66	99.45	9.46	-31.3	-36.8	9.3	1.37e-02	0	42	0	63963136	22	6750
2026-01-30 08:29:15.66	99.13	9.67	-31.0	-35.6	10.3	6.48e-03	0	42	0	69206016	22	6087
2026-01-30 08:29:18.66	98.81	9.87	-31.1	-36.0	10.0	7.76e-03	0	42	0	74448896	22	6326
2026-01-30 08:29:21.68	98.48	10.08	-31.1	-35.9	10.1	6.73e-03	0	42	0	80740352	22	6273
2026-01-30 08:29:24.69	98.15	10.29	-31.2	-36.3	9.8	9.30e-03	0	42	0	85983232	22	6456
2026-01-30 08:29:27.69	97.82	10.50	-31.2	-36.2	9.9	8.37e-03	0	42	0	91226112	22	6409
2026-01-30 08:29:30.68	97.48	10.71	-31.1	-35.8	10.3	5.08e-03	0	42	0	97517568	22	6175
2026-01-30 08:29:33.68	97.13	10.92	-31.2	-36.1	10.1	6.72e-03	0	42	0	102760448	22	6303
2026-01-30 08:29:36.70	96.78	11.13	-31.1	-35.7	10.5	4.46e-03	0	42	0	109051904	22	6087
2026-01-30 08:29:39.71	96.42	11.35	-30.8	-34.7	11.3	1.53e-03	0	42	0	114294784	22	5613
2026-01-30 08:29:42.72	96.06	11.56	-30.8	-34.5	11.5	9.70e-04	0	42	0	119537664	22	5544
2026-01-30 08:29:45.72	95.69	11.78	-30.7	-34.3	11.7	5.97e-04	0	42	0	125829120	22	5440
2026-01-30 08:29:48.73	95.32	11.99	-30.8	-34.4	11.6	7.20e-04	0	42	0	131072000	22	5463
2026-01-30 08:29:51.73	94.94	12.21	-30.8	-34.5	11.6	6.33e-04	0	42	0	136314880	22	5498
2026-01-30 08:29:54.75	94.55	12.43	-31.1	-35.4	10.9	1.73e-03	0	42	0	142606336	22	5891
2026-01-30 08:29:57.76	94.16	12.64	-30.7	-34.2	11.8	4.27e-04	0	42	0	147849216	22	5367
2026-01-30 08:30:00.76	93.77	12.86	-30.8	-34.3	11.8	4.59e-04	0	42	0	154140672	22	5399
2026-01-30 08:30:03.77	93.37	13.08	-30.7	-34.0	12.1	2.39e-04	0	42	0	159383552	22	5245
2026-01-30 08:30:06.77	92.96	13.30	-30.6	-33.7	12.4	1.80e-04	0	42	0	164626432	22	5138
2026-01-30 08:30:09.79	92.54	13.52	-30.5	-33.4	12.6	8.62e-05	0	43	0	170917888	22	5042
2026-01-30 08:30:12.80	92.12	13.74	-30.6	-33.6	12.4	1.92e-04	0	43	0	176160768	22	5126
2026-01-30 08:30:15.81	91.69	13.96	-30.6	-33.6	12.5	1.10e-04	0	43	0	181403648	22	5110
2026-01-30 08:30:18.81	91.26	14.18	-30.6	-33.6	12.5	1.01e-04	0	43	0	187695104	22	5102
2026-01-30 08:30:21.80	90.82	14.40	-30.7	-34.0	12.3	1.33e-04	0	43	0	192937984	22	5247
2026-01-30 08:30:24.81	90.37	14.62	-30.8	-34.1	12.3	2.10e-04	0	43	0	199229440	22	5273
2026-01-30 08:30:27.83	89.92	14.84	-30.8	-34.2	12.2	1.94e-04	0	43	0	204472320	22	5332
2026-01-30 08:30:30.82	89.46	15.06	-30.8	-34.2	12.2	2.33e-04	0	43	0	209715200	22	5327
2026-01-30 08:30:33.83	88.99	15.29	-31.0	-34.6	12.0	3.49e-04	0	43	0	216006656	22	5455
2026-01-30 08:30:36.84	88.52	15.51	-31.0	-34.8	11.9	4.20e-04	0	43	0	221249536	22	5555
2026-01-30 08:30:39.86	88.03	15.73	-31.0	-34.7	12.0	3.94e-04	0	43	0	226492416	22	5515
2026-01-30 08:30:42.86	87.55	15.95	-31.0	-34.7	12.0	3.46e-04	0	43	0	232783872	22	5519
2026-01-30 08:30:45.88	87.05	16.18	-31.0	-34.6	12.0	3.17e-04	0	43	0	238026752	22	5480
2026-01-30 08:30:48.89	86.54	16.40	-31.0	-34.7	12.0	2.96e-04	0	43	0	244318208	22	5510
2026-01-30 08:30:51.90	86.03	16.62	-31.2	-35.3	11.6	6.79e-04	0	43	0	249561088	22	5757
2026-01-30 08:30:54.91	85.51	16.84	-31.3	-35.5	11.5	8.78e-04	0	43	0	254803968	22	5854
2026-01-30 08:30:57.92	84.98	17.06	-31.3	-35.5	11.5	1.03e-03	0	43	0	261095424	22	5860
2026-01-30 08:31:00.94	84.44	17.28	-31.4	-35.3	11.3	1.89e-03	0	43	0	266338304	23	5654
2026-01-30 08:31:03.96	83.90	17.50	-31.1	-34.3	11.9	3.92e-04	0	43	0	272629760	23	5250
2026-01-30 08:31:06.97	83.35	17.72	-30.9	-33.9	12.3	2.39e-04	0	43	0	277872640	23	5080
2026-01-30 08:31:09.98	82.79	17.94	-30.9	-33.9	12.3	1.88e-04	0	43	0	283115520	23	5077
2026-01-30 08:31:12.99	82.22	18.16	-30.8	-34.0	12.6	9.61e-05	0	43	0	289406976	22	5189
2026-01-30 08:31:16.01	81.64	18.37	-30.7	-33.8	12.7	9.91e-05	0	43	0	294649856	22	5128
2026-01-30 08:31:19.02	81.06	18.59	-30.6	-33.3	13.1	3.89e-05	0	43	0	300941312	22	4938
2026-01-30 08:31:22.03	80.47	18.80	-30.3	-32.5	13.6	2.05e-05	0	43	0	306184192	22	4661
2026-01-30 08:31:25.04	79.86	19.01	-30.3	-33.1	13.6	3.80e-06	0	43	0	311427072	21	4952
2026-01-30 08:31:28.05	79.25	19.22	-29.9	-31.9	14.3	1.50e-06	0	43	0	317718528	21	4552
2026-01-30 08:31:31.04	78.64	19.43	-29.9	-32.0	14.3	2.20e-06	0	43	0	322961408	21	4585
2026-01-30 08:31:34.06	78.01	19.64	-30.0	-32.6	14.2	0.00e+00	0	43	0	328204288	20	4896
2026-01-30 08:31:37.06	77.38	19.84	-29.6	-31.6	14.8	0.00e+00	0	43	0	334495744	20	4565
2026-01-30 08:31:40.06	76.74	20.05	-29.6	-31.7	14.8	0.00e+00	0	43	0	339738624	20	4580
2026-01-30 08:31:43.07	76.09	20.25	-29.4	-31.2	15.1	0.00e+00	0	43	0	346030080	20	4420
2026-01-30 08:31:46.07	75.43	20.45	-29.4	-31.3	15.1	0.00e+00	0	43	0	351272960	20	4441
2026-01-30 08:31:49.08	74.76	20.64	-29.5	-31.5	14.9	0.00e+00	0	43	0	356515840	20	4526
2026-01-30 08:31:52.10	74.08	20.84	-29.4	-31.2	15.1	0.00e+00	0	43	0	362807296	20	4431
2026-01-30 08:31:55.11	73.39	21.03	-29.5	-31.4	15.1	0.00e+00	0	43	0	368050176	20	4474
2026-01-30 08:31:58.11	72.70	21.21	-29.7	-32.0	14.7	0.00e+00	0	43	0	373293056	20	4673
2026-01-30 08:32:01.13	71.99	21.40	-29.6	-31.6	14.9	0.00e+00	0	43	0	379584512	20	4559
2026-01-30 08:32:04.15	71.28	21.58	-29.6	-31.7	14.9	0.00e+00	0	43	0	384827392	20	4579
2026-01-30 08:32:07.16	70.56	21.76	-29.6	-31.6	14.9	0.00e+00	0	43	0	391118848	20	4539
2026-01-30 08:32:10.17	69.83	21.93	-29.3	-31.0	15.3	0.00e+00	0	43	0	396361728	20	4356
2026-01-30 08:32:13.18	69.09	22.10	-29.4	-31.5	15.3	0.00e+00	0	43	0	401604608	19	4608
2026-01-30 08:32:16.20	68.35	22.27	-29.3	-31.5	15.4	7.00e-07	0	43	0	407896064	19	4603
2026-01-30 08:32:19.21	67.59	22.43	-29.5	-31.8	15.2	0.00e+00	0	43	0	413138944	19	4693
2026-01-30 08:32:22.21	66.84	22.58	-29.2	-31.0	15.7	0.00e+00	0	43	0	419430400	19	4466
2026-01-30 08:32:25.22	66.07	22.74	-29.3	-31.4	15.5	0.00e+00	0	43	0	424673280	19	4564
2026-01-30 08:32:28.23	65.29	22.89	-29.2	-31.0	15.7	0.00e+00	0	43	0	429916160	19	4452
2026-01-30 08:32:31.24	64.51	23.03	-29.2	-31.0	15.7	0.00e+00	0	43	0	436207616	19	4460
2026-01-30 08:32:34.26	63.72	23.17	-29.4	-31.5	15.4	0.00e+00	0	43	0	441450496	19	4603
2026-01-30 08:32:37.27	62.92	23.30	-29.2	-31.2	15.6	0.00e+00	0	43	0	446693376	19	4500
2026-01-30 08:32:40.28	62.12	23.43	-29.3	-31.4	15.5	0.00e+00	0	43	0	452984832	19	4556
2026-01-30 08:32:43.30	61.31	23.55	-29.6	-32.1	15.1	0.00e+00	0	43	0	458227712	19	4783
2026-01-30 08:32:46.31	60.49	23.67	-30.0	-32.7	14.4	0.00e+00	0	43	0	464519168	20	4891
2026-01-30 08:32:49.32	59.67	23.78	-30.3	-33.4	13.8	3.00e-06	0	43	0	469762048	20	5160
2026-01-30 08:32:52.33	58.84	23.88	-30.2	-33.0	14.1	0.00e+00	0	43	0	475004928	20	5013
2026-01-30 08:32:55.34	58.01	23.98	-30.5	-33.9	13.6	7.60e-06	0	43	0	481296384	20	5327
2026-01-30 08:32:58.35	57.17	24.07	-30.5	-33.4	13.6	8.30e-06	0	43	0	486539264	21	5040
2026-01-30 08:33:01.35	56.33	24.16	-30.6	-33.7	13.4	1.52e-05	0	43	0	492830720	21	5144
2026-01-30 08:33:04.36	55.48	24.24	-30.8	-34.3	13.0	3.43e-05	0	43	0	498073600	21	5380
2026-01-30 08:33:07.37	54.63	24.31	-30.7	-33.5	13.2	1.98e-05	0	43	0	503316480	22	4980
2026-01-30 08:33:10.38	53.78	24.38	-30.9	-33.9	13.0	4.42e-05	0	43	0	509607936	22	5114
2026-01-30 08:33:13.39	52.92	24.44	-30.7	-33.6	13.2	4.27e-05	0	43	0	514850816	22	5001
2026-01-30 08:33:16.40	52.06	24.49	-30.6	-33.2	13.5	1.14e-05	0	43	0	520093696	22	4859
2026-01-30 08:33:19.41	51.19	24.53	-30.7	-33.4	13.3	1.29e-05	0	43	0	526385152	22	4930
2026-01-30 08:33:22.42	50.33	24.57	-30.8	-33.6	13.2	1.83e-05	0	43	0	531628032	22	4994
2026-01-30 08:33:25.44	49.46	24.60	-30.9	-33.9	13.0	3.73e-05	0	43	0	537919488	22	5107
2026-01-30 08:33:28.45	48.59	24.63	-30.6	-33.2	13.5	1.29e-05	0	43	0	543162368	22	4860
2026-01-30 08:33:31.46	47.72	24.64	-30.9	-33.9	13.0	5.11e-05	0	43	0	548405248	22	5115
2026-01-30 08:33:34.46	46.85	24.65	-30.1	-32.4	14.3	1.50e-06	0	43	0	554696704	21	4671
2026-01-30 08:33:37.46	45.98	24.66	-30.2	-32.5	14.2	3.80e-06	0	43	0	559939584	21	4726
2026-01-30 08:33:40.45	45.11	24.65	-30.2	-32.7	14.1	2.20e-06	0	43	0	565182464	21	4780
2026-01-30 08:33:43.47	44.24	24.64	-29.9	-31.8	14.6	0.00e+00	0	43	0	571473920	21	4502
2026-01-30 08:33:46.47	43.37	24.62	-29.4	-31.2	15.3	0.00e+00	0	43	0	576716800	20	4408
2026-01-30 08:33:49.48	42.50	24.59	-29.3	-30.9	15.5	0.00e+00	0	43	0	583008256	20	4312
2026-01-30 08:33:52.49	41.64	24.56	-29.2	-31.1	15.8	0.00e+00	0	43	0	588251136	19	4460
2026-01-30 08:33:55.49	40.78	24.52	-29.2	-31.2	15.7	0.00e+00	0	43	0	593494016	19	4495
2026-01-30 08:33:58.50	39.91	24.47	-29.4	-31.5	15.5	0.00e+00	0	43	0	599785472	19	4594
2026-01-30 08:34:01.50	39.06	24.42	-29.2	-31.2	15.7	0.00e+00	0	43	0	605028352	19	4502
2026-01-30 08:34:04.51	38.20	24.36	-29.3	-31.3	15.6	7.00e-07	0	43	0	610271232	19	4525
2026-01-30 08:34:07.51	37.35	24.29	-29.3	-31.2	15.6	0.00e+00	0	43	0	616562688	19	4514
2026-01-30 08:34:10.53	36.50	24.22	-29.3	-31.4	15.5	0.00e+00	0	43	0	621805568	19	4573
2026-01-30 08:34:13.53	35.66	24.14	-29.1	-30.7	15.9	0.00e+00	0	43	0	628097024	19	4364
2026-01-30 08:34:16.54	34.82	24.05	-29.3	-31.3	15.6	0.00e+00	0	43	0	633339904	19	4539
2026-01-30 08:34:19.56	33.98	23.95	-29.4	-31.7	15.4	0.00e+00	0	43	0	638582784	19	4649
2026-01-30 08:34:22.56	33.15	23.85	-29.6	-32.1	15.1	0.00e+00	0	43	0	644874240	19	4806
2026-01-30 08:34:25.57	32.33	23.75	-29.8	-32.6	14.8	0.00e+00	0	43	0	650117120	19	4953
2026-01-30 08:34:28.58	31.51	23.64	-30.0	-33.0	14.6	0.00e+00	0	43	0	655360000	19	5085
2026-01-30 08:34:31.58	30.70	23.52	-30.2	-33.2	14.0	0.00e+00	0	43	0	661651456	20	5075
2026-01-30 08:34:34.60	29.89	23.39	-30.7	-34.1	13.2	1.22e-05	0	43	0	666894336	21	5290
2026-01-30 08:34:37.62	29.09	23.27	-30.4	-33.2	13.7	6.10e-06	0	43	0	673185792	21	4967
2026-01-30 08:34:40.62	28.30	23.13	-30.4	-33.2	13.7	6.80e-06	0	43	0	678428672	21	4967
2026-01-30 08:34:43.63	27.51	22.99	-30.7	-33.9	13.3	3.28e-05	0	43	0	683671552	21	5221
2026-01-30 08:34:46.63	26.74	22.85	-30.6	-33.7	13.4	2.28e-05	0	43	0	689963008	21	5136
2026-01-30 08:34:49.64	25.96	22.70	-30.2	-32.7	14.0	3.80e-06	0	43	0	695205888	21	4809
2026-01-30 08:34:52.65	25.20	22.55	-30.3	-33.0	13.8	5.30e-06	0	43	0	701497344	21	4906
2026-01-30 08:34:55.66	24.44	22.39	-30.6	-33.7	13.3	1.29e-05	0	43	0	706740224	21	5155
2026-01-30 08:34:58.66	23.70	22.23	-30.7	-33.9	13.2	3.35e-05	0	43	0	711983104	21	5242
2026-01-30 08:35:01.67	22.96	22.06	-30.8	-34.4	12.9	3.50e-05	0	43	0	718274560	21	5428
2026-01-30 08:35:04.68	22.23	21.89	-30.8	-34.3	12.9	6.02e-05	0	43	0	723517440	21	5392
2026-01-30 08:35:07.69	21.50	21.71	-30.6	-33.7	13.3	1.60e-05	0	43	0	728760320	21	5156
2026-01-30 08:35:10.71	20.79	21.54	-30.5	-33.5	13.4	1.14e-05	0	43	0	735051776	21	5083
2026-01-30 08:35:13.73	20.08	21.35	-30.6	-33.8	13.2	3.05e-05	0	43	0	740294656	21	5213
2026-01-30 08:35:16.74	19.38	21.17	-30.2	-32.8	13.8	4.50e-06	0	43	0	746586112	21	4840
2026-01-30 08:35:19.75	18.69	20.98	-30.4	-33.2	13.6	6.80e-06	0	43	0	751828992	21	4987
2026-01-30 08:35:22.74	18.01	20.79	-30.0	-32.1	14.3	1.50e-06	0	43	0	757071872	21	4604
2026-01-30 08:35:25.75	17.34	20.60	-29.8	-31.7	14.5	1.50e-06	0	43	0	763363328	21	4472
2026-01-30 08:35:28.78	16.67	20.40	-29.8	-31.8	14.5	7.00e-07	0	43	0	768606208	21	4489
2026-01-30 08:35:31.78	16.01	20.20	-30.0	-32.2	14.2	1.50e-06	0	43	0	773849088	21	4619
2026-01-30 08:35:34.79	15.37	20.00	-29.9	-32.0	14.3	0.00e+00	0	43	0	780140544	21	4568
2026-01-30 08:35:37.80	14.73	19.80	-29.9	-31.9	14.3	0.00e+00	0	43	0	785383424	21	4551
2026-01-30 08:35:40.81	14.10	19.60	-29.9	-32.0	14.3	1.50e-06	0	43	0	791674880	21	4560
2026-01-30 08:35:43.82	13.48	19.39	-29.9	-31.9	14.3	7.00e-07	0	43	0	796917760	21	4553
2026-01-30 08:35:46.83	12.86	19.18	-30.0	-32.3	14.1	0.00e+00	0	43	0	802160640	21	4666
2026-01-30 08:35:49.84	12.26	18.97	-29.9	-31.8	14.3	0.00e+00	0	43	0	808452096	21	4525
2026-01-30 08:35:52.84	11.67	18.76	-29.7	-31.9	14.6	0.00e+00	0	43	0	813694976	20	4645
2026-01-30 08:35:55.86	11.08	18.55	-29.5	-31.4	14.9	0.00e+00	0	43	0	819986432	20	4496
2026-01-30 08:35:58.86	10.50	18.33	-29.6	-31.6	14.7	0.00e+00	0	43	0	825229312	20	4558
2026-01-30 08:36:01.88	9.93	18.12	-29.3	-31.3	15.3	0.00e+00	0	43	0	830472192	19	4550
2026-01-30 08:36:04.88	9.36	17.90	-29.1	-30.9	15.5	0.00e+00	0	43	0	836763648	19	4439
2026-01-30 08:36:07.89	8.81	17.68	-29.3	-31.3	15.3	0.00e+00	0	43	0	842006528	19	4571
2026-01-30 08:36:10.90	8.26	17.47	-29.3	-31.4	15.2	0.00e+00	0	43	0	847249408	19	4606
2026-01-30 08:36:13.90	7.73	17.25	-29.4	-31.6	15.1	0.00e+00	0	43	0	853540864	19	4662
2026-01-30 08:36:16.91	7.20	17.03	-29.3	-31.5	15.1	0.00e+00	0	43	0	858783744	19	4618
2026-01-30 08:36:19.93	6.67	16.81	-29.5	-31.9	14.8	0.00e+00	0	43	0	865075200	19	4770
2026-01-30 08:36:22.93	6.16	16.59	-29.5	-32.0	14.8	0.00e+00	0	44	0	870318080	19	4777
2026-01-30 08:36:25.94	5.65	16.37	-29.4	-31.6	15.0	0.00e+00	0	43	0	875560960	19	4665
2026-01-30 08:36:28.95	5.15	16.15	-29.4	-31.7	15.0	0.00e+00	0	43	0	881852416	19	4685
2026-01-30 08:36:31.96	4.66	15.92	-29.3	-31.6	15.0	0.00e+00	0	43	0	887095296	19	4651
2026-01-30 08:36:34.97	4.17	15.70	-29.4	-31.8	14.8	7.00e-07	0	43	0	892338176	19	4750
2026-01-30 08:36:37.97	3.70	15.48	-29.6	-32.2	14.6	0.00e+00	0	43	0	898629632	19	4853
2026-01-30 08:36:40.98	3.23	15.26	-29.9	-33.0	14.2	0.00e+00	0	43	0	903872512	19	5141
2026-01-30 08:36:43.99	2.76	15.04	-30.1	-33.2	13.5	7.60e-06	0	43	0	910163968	20	5139
2026-01-30 08:36:46.99	2.31	14.82	-30.0	-32.8	13.8	6.80e-06	0	43	0	915406848	20	4996
2026-01-30 08:36:50.00	1.86	14.60	-30.0	-32.9	13.8	6.10e-06	0	43	0	920649728	20	5003
2026-01-30 08:36:53.02	1.41	14.38	-29.9	-32.6	13.9	6.80e-06	0	43	0	926941184	20	4920
2026-01-30 08:36:56.03	0.98	14.16	-29.9	-32.7	13.8	3.00e-06	0	43	0	932184064	20	4969
2026-01-30 08:36:59.03	0.55	13.94	-30.1	-33.1	13.5	9.10e-06	0	43	0	937426944	20	5116
2026-01-30 08:37:02.04	0.12	13.72	-30.0	-32.9	13.6	8.30e-06	0	43	0	943718400	20	5027
2026-01-30 08:37:05.04	359.71	13.50	-30.1	-33.3	13.3	1.37e-05	0	43	0	948961280	20	5190
2026-01-30 08:37:08.06	359.30	13.28	-30.5	-34.3	12.7	6.25e-05	0	43	0	955252736	20	5585
2026-01-30 08:37:11.07	358.89	13.06	-30.4	-33.4	12.9	7.93e-05	0	43	0	960495616	21	5132
2026-01-30 08:37:14.07	358.50	12.84	-30.2	-33.1	13.1	3.43e-05	0	43	0	965738496	21	5016
2026-01-30 08:37:17.08	358.10	12.63	-30.2	-33.1	13.1	2.74e-05	0	43	0	972029952	21	4990
2026-01-30 08:37:20.08	357.72	12.41	-30.4	-33.5	12.8	5.64e-05	0	44	0	977272832	21	5170
2026-01-30 08:37:23.08	357.34	12.19	-30.4	-33.6	12.7	7.78e-05	0	44	0	982515712	21	5208
2026-01-30 08:37:26.10	356.96	11.98	-30.3	-33.4	12.9	4.34e-05	0	43	0	988807168	21	5117
2026-01-30 08:37:29.10	356.59	11.76	-30.4	-33.6	12.7	7.55e-05	0	43	0	994050048	21	5193
2026-01-30 08:37:32.11	356.23	11.55	-30.4	-33.6	12.7	7.78e-05	0	43	0	1000341504	21	5210
2026-01-30 08:37:35.12	355.87	11.34	-30.6	-34.2	12.3	1.52e-04	0	43	0	1005584384	21	5442
2026-01-30 08:37:38.13	355.52	11.13	-30.6	-34.4	12.1	2.46e-04	0	44	0	1010827264	21	5526
2026-01-30 08:37:41.15	355.17	10.91	-30.7	-34.6	11.9	3.13e-04	0	43	0	1017118720	21	5631
2026-01-30 08:37:44.15	354.83	10.70	-30.8	-35.0	11.6	5.37e-04	0	44	0	1022361600	21	5791
2026-01-30 08:37:47.16	354.49	10.49	-31.0	-35.4	11.3	8.80e-04	0	43	0	1028653056	21	6006
2026-01-30 08:37:50.16	354.16	10.28	-31.2	-35.7	10.8	2.43e-03	0	44	0	1033895936	22	6026
2026-01-30 08:37:53.17	353.83	10.08	-31.1	-35.4	11.0	1.93e-03	0	43	0	1039138816	22	5875
2026-01-30 08:37:56.19	353.51	9.87	-31.0	-35.2	11.1	1.91e-03	0	43	0	1045430272	22	5793
2026-01-30 08:37:59.21	353.19	9.66	-30.8	-34.6	11.5	7.60e-04	0	43	0	1050673152	22	5527
2026-01-30 08:38:02.22	352.87	9.45	-30.9	-34.9	11.2	1.17e-03	0	43	0	1055916032	22	5675
2026-01-30 08:38:05.22	352.56	9.25	-30.8	-34.5	11.5	9.19e-04	0	43	0	1062207488	22	5501
2026-01-30 08:38:08.22	352.26	9.05	-30.8	-34.6	11.4	9.92e-04	0	43	0	1067450368	22	5562
2026-01-30 08:38:11.22	351.96	8.84	-30.9	-34.9	11.2	1.23e-03	0	43	0	1073741824	22	5699
2026-01-30 08:38:14.23	351.66	8.64	-31.0	-35.1	10.9	2.28e-03	0	43	0	1078984704	22	5807
2026-01-30 08:38:17.25	351.37	8.44	-31.1	-35.7	10.5	3.27e-03	0	43	0	1084227584	22	6079
2026-01-30 08:38:20.25	351.09	8.24	-31.3	-36.2	10.1	7.66e-03	0	43	0	1090519040	22	6335
2026-01-30 08:38:23.25	350.80	8.04	-31.1	-35.6	10.5	3.91e-03	0	43	0	1095761920	22	6035
2026-01-30 08:38:26.26	350.52	7.84	-31.1	-35.8	10.4	4.61e-03	0	43	0	1101004800	22	6136
2026-01-30 08:38:29.28	350.25	7.64	-31.2	-36.1	10.1	8.17e-03	0	43	0	1107296256	22	6327
2026-01-30 08:38:32.29	349.97	7.44	-31.2	-36.1	10.1	6.90e-03	0	44	0	1112539136	22	6297
2026-01-30 08:38:35.28	349.71	7.25	-31.3	-36.4	9.8	8.74e-03	0	43	0	1118830592	22	6479
2026-01-30 08:38:38.30	349.44	7.05	-31.7	-37.5	8.7	1.09e-02	0	43	0	1124073472	23	7032

#Closed at: 2026-01-30 08:38:41
#Recorded file [1124 MB]: D:/data/31010_260130_112838.dat