passes_logs/2026/01/30/R2M6_AANII_01/R2M6_AANII_01__20260130_154627_FENGYUN_3E_rec.log

#Pass ID: 20260130_154627_FENGYUN 3E
#Satellite: FENGYUN 3E
#Configuration: FENGYUN 3E
#almurnet v.1.7.20240730
#Start time: 2026-01-30 15:46:26

#Version: 2.2.20231116
#Station: R2M6_AANII_01
#Location: 30.233357 lon 59.946436 lat
#TLE: 1 49008U 21062A   26030.15628484 -.00000231  00000+0 -88238-4 0  9991
#TLE: 2 49008  98.7496  35.1082 0002567 110.3408 249.8045 14.19886954236998

#Time	Az	El	Level	Level2	SNR	BER	BlckErr	Temp	State	Recorded	gain1	gain2
2026-01-30 15:46:26.86	197.66	6.97	-27.0	-28.6	5.7	7.50e-01	0	40	0	0	13	4354
2026-01-30 15:46:29.88	197.87	7.18	-29.1	-31.1	9.6	1.65e-02	0	40	0	7340032	18	4576
2026-01-30 15:46:32.91	198.09	7.40	-28.5	-29.6	10.6	4.99e-03	0	40	0	29360128	18	4091
2026-01-30 15:46:35.95	198.31	7.61	-27.0	-27.6	12.6	9.95e-05	0	40	0	51380224	15	3853
2026-01-30 15:46:38.98	198.54	7.83	-26.3	-26.9	13.6	1.14e-05	0	40	0	73400320	13	3877
2026-01-30 15:46:42.01	198.76	8.05	-25.9	-26.1	14.1	1.14e-05	0	40	0	95420416	13	3689
2026-01-30 15:46:45.04	198.99	8.27	-26.0	-26.3	14.0	5.70e-06	0	40	0	116391936	13	3731
2026-01-30 15:46:48.07	199.23	8.49	-26.2	-26.7	13.8	1.25e-05	0	40	0	138412032	13	3831
2026-01-30 15:46:51.11	199.46	8.71	-26.2	-26.8	13.8	5.70e-06	0	41	0	160432128	13	3843
2026-01-30 15:46:54.14	199.70	8.94	-26.0	-26.9	14.0	5.70e-06	0	40	0	182452224	12	3954
2026-01-30 15:46:57.17	199.95	9.16	-25.3	-25.8	15.0	6.80e-06	0	41	0	204472320	11	3788
2026-01-30 15:47:00.20	200.20	9.39	-25.7	-26.7	14.6	0.00e+00	0	41	0	226492416	11	4008
2026-01-30 15:47:03.24	200.45	9.62	-25.9	-27.0	14.3	0.00e+00	0	41	0	248512512	11	4104
2026-01-30 15:47:06.27	200.70	9.85	-25.7	-26.7	14.6	0.00e+00	0	41	0	270532608	11	4009
2026-01-30 15:47:09.30	200.96	10.08	-25.7	-26.1	14.6	1.10e-06	0	41	0	291504128	12	3768
2026-01-30 15:47:12.33	201.23	10.32	-25.7	-26.1	14.6	0.00e+00	0	41	0	313524224	12	3773
2026-01-30 15:47:15.37	201.49	10.56	-25.6	-25.8	14.8	0.00e+00	0	41	0	335544320	12	3690
2026-01-30 15:47:18.40	201.76	10.79	-25.8	-26.8	14.6	0.00e+00	0	41	0	357564416	11	4039
2026-01-30 15:47:21.43	202.04	11.03	-25.7	-26.5	14.8	0.00e+00	0	41	0	379584512	11	3958
2026-01-30 15:47:24.46	202.32	11.28	-25.7	-26.5	14.8	0.00e+00	0	41	0	401604608	11	3955
2026-01-30 15:47:27.50	202.61	11.52	-25.7	-26.5	14.8	0.00e+00	0	41	0	423624704	11	3968
2026-01-30 15:47:30.53	202.89	11.77	-25.5	-26.2	15.0	1.10e-06	0	41	0	445644800	11	3892
2026-01-30 15:47:33.56	203.19	12.01	-25.5	-26.2	15.0	0.00e+00	0	41	0	467664896	11	3888
2026-01-30 15:47:36.60	203.49	12.26	-25.4	-25.9	15.2	0.00e+00	0	41	0	488636416	11	3807
2026-01-30 15:47:39.63	203.79	12.51	-25.3	-25.6	15.4	0.00e+00	0	41	0	510656512	11	3727
2026-01-30 15:47:42.66	204.10	12.77	-25.2	-25.5	15.5	0.00e+00	0	42	0	532676608	11	3717
2026-01-30 15:47:45.69	204.41	13.02	-25.3	-25.6	15.4	0.00e+00	0	41	0	554696704	11	3735
2026-01-30 15:47:48.72	204.73	13.28	-25.2	-25.5	15.5	0.00e+00	0	41	0	576716800	11	3708
2026-01-30 15:47:51.76	205.06	13.54	-25.3	-25.7	15.4	0.00e+00	0	42	0	598736896	11	3758
2026-01-30 15:47:54.79	205.39	13.80	-25.0	-25.1	15.7	0.00e+00	0	41	0	620756992	11	3620
2026-01-30 15:47:57.82	205.72	14.06	-25.0	-25.0	15.8	0.00e+00	0	42	0	642777088	11	3604
2026-01-30 15:48:00.85	206.06	14.32	-24.9	-25.4	15.9	0.00e+00	0	42	0	663748608	10	3790
2026-01-30 15:48:03.89	206.41	14.59	-25.0	-25.5	15.9	0.00e+00	0	42	0	685768704	10	3817
2026-01-30 15:48:06.92	206.77	14.86	-25.1	-25.8	15.7	0.00e+00	0	42	0	707788800	10	3889
2026-01-30 15:48:09.95	207.13	15.13	-25.1	-25.6	15.8	0.00e+00	0	42	0	729808896	10	3839
2026-01-30 15:48:12.99	207.49	15.40	-24.8	-25.1	16.1	0.00e+00	0	42	0	751828992	10	3725
2026-01-30 15:48:16.02	207.87	15.68	-24.7	-24.8	16.2	0.00e+00	0	42	0	773849088	10	3659
2026-01-30 15:48:19.06	208.25	15.95	-24.5	-24.4	16.5	0.00e+00	0	42	0	794820608	10	3559
2026-01-30 15:48:22.09	208.63	16.23	-24.4	-24.7	16.6	0.00e+00	0	42	0	817889280	9	3725
2026-01-30 15:48:25.12	209.02	16.51	-24.3	-24.6	16.7	0.00e+00	0	42	0	838860800	9	3707
2026-01-30 15:48:28.15	209.43	16.79	-24.1	-24.2	16.9	0.00e+00	0	42	0	860880896	9	3609
2026-01-30 15:48:31.18	209.83	17.08	-24.1	-24.1	16.9	0.00e+00	0	42	0	882900992	9	3595
2026-01-30 15:48:34.21	210.25	17.36	-24.2	-24.3	16.9	0.00e+00	0	42	0	904921088	9	3631
2026-01-30 15:48:37.25	210.67	17.65	-24.3	-24.4	16.8	0.00e+00	0	42	0	926941184	9	3664
2026-01-30 15:48:40.28	211.10	17.94	-24.3	-24.4	16.8	0.00e+00	0	42	0	948961280	9	3665
2026-01-30 15:48:43.31	211.54	18.23	-24.1	-24.1	17.0	0.00e+00	0	42	0	970981376	9	3589
2026-01-30 15:48:46.35	211.99	18.53	-24.1	-24.0	17.0	0.00e+00	0	42	0	991952896	9	3572
2026-01-30 15:48:49.38	212.45	18.82	-23.8	-24.0	17.3	0.00e+00	0	42	0	1013972992	8	3658
2026-01-30 15:48:52.41	212.91	19.12	-23.8	-23.8	17.4	0.00e+00	0	42	0	1035993088	8	3633
2026-01-30 15:48:55.45	213.38	19.42	-23.6	-23.5	17.6	0.00e+00	0	42	0	1058013184	8	3557
2026-01-30 15:48:58.48	213.87	19.72	-23.7	-23.7	17.5	0.00e+00	0	42	0	1080033280	8	3593
2026-01-30 15:49:01.51	214.36	20.02	-24.0	-24.3	17.2	0.00e+00	0	42	0	1102053376	8	3740
2026-01-30 15:49:04.54	214.86	20.33	-24.0	-24.5	17.1	0.00e+00	0	42	0	1124073472	8	3772
2026-01-30 15:49:07.57	215.37	20.63	-23.7	-23.7	17.6	0.00e+00	0	42	0	1146093568	8	3603
2026-01-30 15:49:10.60	215.89	20.94	-23.6	-23.5	17.7	0.00e+00	0	42	0	1167065088	8	3559
2026-01-30 15:49:13.64	216.42	21.25	-23.5	-23.3	17.7	0.00e+00	0	42	0	1189085184	8	3517
2026-01-30 15:49:16.67	216.97	21.56	-23.5	-23.3	17.8	0.00e+00	0	42	0	1211105280	8	3524
2026-01-30 15:49:19.70	217.52	21.87	-23.4	-23.6	17.9	0.00e+00	0	42	0	1233125376	7	3669
2026-01-30 15:49:22.74	218.08	22.18	-23.3	-23.5	17.9	0.00e+00	0	42	0	1255145472	7	3646
2026-01-30 15:49:25.77	218.66	22.49	-23.2	-23.2	18.1	0.00e+00	0	42	0	1277165568	7	3585
2026-01-30 15:49:28.80	219.24	22.81	-23.2	-23.1	18.2	1.10e-06	0	42	0	1299185664	7	3574
2026-01-30 15:49:31.83	219.84	23.12	-23.1	-23.0	18.2	0.00e+00	0	42	0	1321205760	7	3555
2026-01-30 15:49:34.87	220.45	23.44	-23.3	-23.3	18.1	0.00e+00	0	42	0	1343225856	7	3615
2026-01-30 15:49:37.90	221.07	23.75	-23.1	-23.0	18.2	0.00e+00	0	42	0	1364197376	7	3543
2026-01-30 15:49:40.93	221.71	24.07	-23.2	-23.1	18.2	0.00e+00	0	42	0	1386217472	7	3564
2026-01-30 15:49:43.97	222.36	24.38	-23.2	-23.1	18.2	0.00e+00	0	42	0	1408237568	7	3571
2026-01-30 15:49:47.00	223.01	24.70	-23.2	-23.2	18.1	0.00e+00	0	42	0	1430257664	7	3600
2026-01-30 15:49:50.03	223.69	25.02	-23.3	-23.3	18.1	0.00e+00	0	42	0	1452277760	7	3611
2026-01-30 15:49:53.06	224.37	25.33	-23.0	-22.8	18.4	0.00e+00	0	42	0	1474297856	7	3502
2026-01-30 15:49:56.09	225.07	25.65	-22.9	-23.0	18.6	0.00e+00	0	42	0	1496317952	6	3639
2026-01-30 15:49:59.12	225.78	25.96	-22.7	-22.7	18.7	0.00e+00	0	42	0	1518338048	6	3573
2026-01-30 15:50:02.16	226.51	26.27	-22.8	-22.7	18.6	0.00e+00	0	42	0	1540358144	6	3591
2026-01-30 15:50:05.19	227.25	26.59	-22.9	-23.0	18.5	0.00e+00	0	42	0	1561329664	6	3653
2026-01-30 15:50:08.23	228.01	26.90	-22.8	-22.8	18.7	0.00e+00	0	42	0	1583349760	6	3605
2026-01-30 15:50:11.26	228.78	27.21	-22.9	-22.9	18.6	0.00e+00	0	42	0	1605369856	6	3630
2026-01-30 15:50:14.29	229.56	27.51	-22.8	-22.9	18.7	0.00e+00	0	42	0	1627389952	6	3619
2026-01-30 15:50:17.32	230.36	27.82	-22.6	-22.4	18.9	0.00e+00	0	42	0	1649410048	6	3523
2026-01-30 15:50:20.35	231.18	28.12	-22.5	-22.2	19.0	0.00e+00	0	42	0	1671430144	6	3476
2026-01-30 15:50:23.39	232.01	28.42	-22.6	-22.4	18.9	0.00e+00	0	42	0	1693450240	6	3514
2026-01-30 15:50:26.42	232.85	28.71	-22.7	-22.5	18.9	0.00e+00	0	42	0	1715470336	6	3543
2026-01-30 15:50:29.45	233.71	29.00	-22.9	-22.9	18.6	0.00e+00	0	42	0	1736441856	6	3627
2026-01-30 15:50:32.48	234.59	29.29	-23.0	-23.3	18.5	0.00e+00	0	42	0	1758461952	6	3704
2026-01-30 15:50:35.51	235.48	29.57	-22.9	-23.0	18.6	0.00e+00	0	42	0	1780482048	6	3644
2026-01-30 15:50:38.55	236.38	29.85	-23.0	-23.2	18.5	0.00e+00	0	42	0	1802502144	6	3697
2026-01-30 15:50:41.58	237.30	30.12	-22.8	-22.9	18.7	0.00e+00	0	42	0	1824522240	6	3613
2026-01-30 15:50:44.61	238.24	30.39	-22.5	-22.1	19.1	0.00e+00	0	42	0	1846542336	6	3454
2026-01-30 15:50:47.65	239.19	30.65	-22.6	-22.4	18.9	0.00e+00	0	42	0	1868562432	6	3518
2026-01-30 15:50:50.68	240.16	30.91	-22.7	-22.5	18.9	0.00e+00	0	42	0	1890582528	6	3532
2026-01-30 15:50:53.71	241.14	31.16	-22.8	-22.8	18.8	0.00e+00	0	42	0	1912602624	6	3588
2026-01-30 15:50:56.74	242.14	31.40	-23.0	-23.3	18.5	0.00e+00	0	42	0	1933574144	6	3720
2026-01-30 15:50:59.78	243.15	31.63	-23.0	-23.1	18.6	0.00e+00	0	42	0	1955594240	6	3670
2026-01-30 15:51:02.81	244.17	31.86	-22.8	-22.8	18.8	0.00e+00	0	42	0	1977614336	6	3600
2026-01-30 15:51:05.84	245.21	32.08	-22.7	-22.6	18.9	0.00e+00	0	42	0	1999634432	6	3548
2026-01-30 15:51:08.87	246.26	32.29	-22.6	-22.4	19.0	0.00e+00	0	42	0	2021654528	6	3507
2026-01-30 15:51:11.90	247.33	32.49	-22.6	-22.4	19.0	0.00e+00	0	42	0	2042626048	6	3519
2026-01-30 15:51:14.93	248.40	32.67	-22.3	-22.2	19.3	0.00e+00	0	42	0	2064646144	5	3562
2026-01-30 15:51:17.97	249.50	32.85	-22.2	-21.9	19.4	0.00e+00	0	42	0	2086666240	5	3510
2026-01-30 15:51:21.00	250.60	33.02	-22.4	-22.5	19.2	0.00e+00	0	42	0	2108686336	5	3641
2026-01-30 15:51:24.03	251.71	33.18	-22.7	-23.1	18.8	0.00e+00	0	43	0	2130706432	5	3772
2026-01-30 15:51:27.07	252.83	33.33	-22.9	-23.1	18.7	0.00e+00	0	42	0	2152726528	6	3655
2026-01-30 15:51:30.10	253.97	33.47	-23.0	-23.2	18.6	0.00e+00	0	42	0	2174746624	6	3683
2026-01-30 15:51:33.13	255.11	33.59	-22.6	-22.4	19.0	0.00e+00	0	42	0	2196766720	6	3516
2026-01-30 15:51:36.16	256.25	33.70	-22.8	-22.9	18.8	0.00e+00	0	42	0	2218786816	6	3609
2026-01-30 15:51:39.19	257.41	33.80	-22.8	-22.9	18.7	0.00e+00	0	42	0	2239758336	6	3618
2026-01-30 15:51:42.23	258.58	33.89	-23.2	-23.6	18.4	0.00e+00	0	42	0	2261778432	6	3772
2026-01-30 15:51:45.26	259.74	33.96	-22.9	-23.0	18.7	0.00e+00	0	42	0	2283798528	6	3645
2026-01-30 15:51:48.29	260.92	34.03	-23.1	-23.5	18.5	0.00e+00	0	43	0	2305818624	6	3747
2026-01-30 15:51:51.32	262.09	34.07	-22.7	-22.6	18.9	0.00e+00	0	43	0	2327838720	6	3563
2026-01-30 15:51:54.36	263.28	34.11	-23.0	-23.2	18.6	0.00e+00	0	43	0	2349858816	6	3683
2026-01-30 15:51:57.39	264.46	34.13	-23.0	-23.2	18.6	0.00e+00	0	42	0	2371878912	6	3673
2026-01-30 15:52:00.43	265.64	34.14	-23.1	-23.3	18.5	0.00e+00	0	43	0	2393899008	6	3718
2026-01-30 15:52:03.46	266.83	34.14	-22.7	-22.6	18.9	4.50e-06	0	42	0	2415919104	6	3565
2026-01-30 15:52:06.49	268.01	34.12	-22.6	-22.5	19.0	1.10e-06	0	43	0	2436890624	6	3523
2026-01-30 15:52:09.52	269.19	34.09	-22.8	-22.7	18.9	0.00e+00	0	42	0	2458910720	6	3575
2026-01-30 15:52:12.55	270.36	34.04	-22.7	-22.6	18.9	0.00e+00	0	42	0	2480930816	6	3561
2026-01-30 15:52:15.59	271.54	33.98	-22.8	-22.8	18.8	0.00e+00	0	42	0	2502950912	6	3589
2026-01-30 15:52:18.62	272.71	33.91	-22.8	-22.8	18.8	0.00e+00	0	42	0	2524971008	6	3608
2026-01-30 15:52:21.65	273.87	33.83	-22.9	-23.0	18.7	0.00e+00	0	42	0	2546991104	6	3629
2026-01-30 15:52:24.69	275.03	33.73	-22.6	-22.4	19.0	0.00e+00	0	42	0	2569011200	6	3506
2026-01-30 15:52:27.72	276.18	33.63	-23.0	-23.2	18.6	0.00e+00	0	42	0	2591031296	6	3688
2026-01-30 15:52:30.75	277.32	33.50	-23.4	-24.1	18.2	0.00e+00	0	42	0	2612002816	6	3889
2026-01-30 15:52:33.79	278.46	33.37	-23.0	-23.2	18.6	0.00e+00	0	43	0	2634022912	6	3684
2026-01-30 15:52:36.82	279.58	33.23	-22.9	-22.9	18.7	0.00e+00	0	43	0	2656043008	6	3624
2026-01-30 15:52:39.85	280.69	33.07	-23.0	-23.1	18.7	0.00e+00	0	42	0	2678063104	6	3666
2026-01-30 15:52:42.88	281.79	32.91	-22.7	-22.5	19.0	0.00e+00	0	42	0	2700083200	6	3528
2026-01-30 15:52:45.92	282.89	32.73	-22.6	-22.4	19.0	0.00e+00	0	43	0	2722103296	6	3518
2026-01-30 15:52:48.95	283.97	32.55	-22.7	-22.6	18.9	0.00e+00	0	43	0	2744123392	6	3543
2026-01-30 15:52:51.98	285.03	32.35	-22.8	-22.9	18.8	0.00e+00	0	42	0	2766143488	6	3605
2026-01-30 15:52:55.01	286.09	32.14	-22.8	-22.9	18.8	0.00e+00	0	42	0	2788163584	6	3608
2026-01-30 15:52:58.05	287.13	31.93	-22.7	-22.6	18.9	0.00e+00	0	42	0	2809135104	6	3545
2026-01-30 15:53:01.08	288.15	31.71	-22.9	-23.0	18.8	0.00e+00	0	43	0	2831155200	6	3637
2026-01-30 15:53:04.11	289.17	31.48	-22.6	-22.4	19.0	0.00e+00	0	42	0	2853175296	6	3506
2026-01-30 15:53:07.15	290.17	31.24	-22.8	-22.7	18.8	0.00e+00	0	42	0	2875195392	6	3580
2026-01-30 15:53:10.18	291.15	30.99	-23.1	-23.5	18.4	0.00e+00	0	42	0	2897215488	6	3761
2026-01-30 15:53:13.21	292.12	30.74	-23.1	-23.5	18.5	0.00e+00	0	42	0	2919235584	6	3744
2026-01-30 15:53:16.25	293.07	30.48	-22.9	-23.0	18.7	0.00e+00	0	43	0	2941255680	6	3632
2026-01-30 15:53:19.28	294.01	30.22	-22.9	-23.0	18.7	0.00e+00	0	42	0	2963275776	6	3648
2026-01-30 15:53:22.31	294.93	29.95	-22.7	-22.6	18.9	0.00e+00	0	42	0	2985295872	6	3548
2026-01-30 15:53:25.35	295.84	29.67	-22.5	-22.2	19.1	0.00e+00	0	43	0	3006267392	6	3461
2026-01-30 15:53:28.38	296.73	29.39	-22.7	-22.6	18.9	0.00e+00	0	43	0	3028287488	6	3546
2026-01-30 15:53:31.41	297.61	29.11	-22.8	-22.8	18.7	0.00e+00	0	42	0	3050307584	6	3596
2026-01-30 15:53:34.44	298.47	28.82	-22.9	-23.1	18.6	0.00e+00	0	43	0	3072327680	6	3657
2026-01-30 15:53:37.48	299.32	28.53	-23.2	-23.6	18.4	0.00e+00	0	42	0	3094347776	6	3763
2026-01-30 15:53:40.51	300.15	28.23	-22.9	-22.9	18.7	0.00e+00	0	43	0	3116367872	6	3617
2026-01-30 15:53:43.54	300.97	27.93	-22.7	-22.6	18.8	0.00e+00	0	43	0	3137339392	6	3560
2026-01-30 15:53:46.58	301.77	27.63	-22.8	-22.8	18.7	0.00e+00	0	43	0	3159359488	6	3603
2026-01-30 15:53:49.61	302.56	27.32	-23.1	-23.4	18.4	0.00e+00	0	42	0	3181379584	6	3740
2026-01-30 15:53:52.64	303.33	27.02	-23.0	-23.2	18.5	0.00e+00	0	43	0	3203399680	6	3685
2026-01-30 15:53:55.67	304.08	26.71	-22.7	-22.6	18.8	0.00e+00	0	43	0	3225419776	6	3555
2026-01-30 15:53:58.71	304.83	26.40	-22.8	-22.8	18.7	0.00e+00	0	43	0	3247439872	6	3589
2026-01-30 15:54:01.74	305.56	26.09	-23.0	-23.2	18.5	0.00e+00	0	43	0	3269459968	6	3675
2026-01-30 15:54:04.77	306.27	25.78	-23.2	-23.6	18.3	0.00e+00	0	43	0	3291480064	6	3782
2026-01-30 15:54:07.80	306.97	25.47	-23.4	-24.1	18.0	0.00e+00	0	42	0	3312451584	6	3888
2026-01-30 15:54:10.84	307.66	25.15	-23.2	-23.7	18.2	0.00e+00	0	42	0	3334471680	6	3787
2026-01-30 15:54:13.87	308.34	24.84	-23.4	-24.0	18.1	0.00e+00	0	42	0	3356491776	6	3857
2026-01-30 15:54:16.90	309.00	24.52	-23.5	-24.2	17.9	0.00e+00	0	42	0	3378511872	6	3919
2026-01-30 15:54:19.93	309.65	24.21	-23.8	-24.3	17.6	0.00e+00	0	42	0	3400531968	7	3838
2026-01-30 15:54:22.96	310.28	23.90	-23.7	-23.6	17.8	0.00e+00	0	43	0	3422552064	8	3571
2026-01-30 15:54:26.00	310.91	23.58	-23.7	-23.6	17.7	0.00e+00	0	43	0	3444572160	8	3582
2026-01-30 15:54:29.03	311.52	23.27	-23.3	-23.3	18.1	0.00e+00	0	43	0	3466592256	7	3616
2026-01-30 15:54:32.06	312.12	22.96	-23.4	-23.5	18.0	0.00e+00	0	43	0	3488612352	7	3642
2026-01-30 15:54:35.10	312.71	22.64	-23.6	-24.0	17.7	0.00e+00	0	42	0	3509583872	7	3756
2026-01-30 15:54:38.13	313.29	22.33	-23.7	-24.3	17.6	0.00e+00	0	42	0	3531603968	7	3822
2026-01-30 15:54:41.16	313.85	22.02	-23.8	-24.4	17.5	0.00e+00	0	42	0	3553624064	7	3847
2026-01-30 15:54:44.20	314.41	21.71	-23.6	-23.9	17.8	0.00e+00	0	42	0	3575644160	7	3737
2026-01-30 15:54:47.23	314.95	21.41	-23.4	-23.6	17.9	0.00e+00	0	43	0	3597664256	7	3680
2026-01-30 15:54:50.26	315.48	21.10	-23.5	-23.8	17.8	0.00e+00	0	43	0	3619684352	7	3729
2026-01-30 15:54:53.30	316.01	20.79	-23.8	-24.3	17.5	0.00e+00	0	43	0	3641704448	7	3836
2026-01-30 15:54:56.33	316.52	20.49	-23.9	-24.6	17.4	0.00e+00	0	43	0	3663724544	7	3911
2026-01-30 15:54:59.36	317.03	20.19	-24.3	-25.0	16.9	0.00e+00	0	42	0	3685744640	8	3894
2026-01-30 15:55:02.39	317.52	19.89	-23.9	-24.2	17.3	0.00e+00	0	43	0	3706716160	8	3709
2026-01-30 15:55:05.43	318.01	19.59	-23.8	-23.9	17.4	0.00e+00	0	43	0	3728736256	8	3644
2026-01-30 15:55:08.46	318.48	19.29	-23.8	-23.9	17.4	0.00e+00	0	43	0	3750756352	8	3646
2026-01-30 15:55:11.49	318.95	19.00	-24.1	-24.6	17.1	0.00e+00	0	43	0	3772776448	8	3789
2026-01-30 15:55:14.52	319.41	18.70	-24.3	-24.9	16.9	0.00e+00	0	43	0	3794796544	8	3871
2026-01-30 15:55:17.56	319.86	18.41	-24.4	-25.2	16.7	0.00e+00	0	43	0	3816816640	8	3944
2026-01-30 15:55:20.59	320.30	18.12	-24.5	-24.8	16.7	0.00e+00	0	43	0	3838836736	9	3739
2026-01-30 15:55:23.62	320.73	17.83	-24.6	-25.1	16.5	1.10e-06	0	43	0	3860856832	9	3820
2026-01-30 15:55:26.65	321.16	17.54	-24.6	-25.2	16.5	0.00e+00	0	43	0	3881828352	9	3842
2026-01-30 15:55:29.69	321.57	17.26	-24.6	-25.2	16.5	0.00e+00	0	43	0	3903848448	9	3832
2026-01-30 15:55:32.72	321.98	16.98	-24.5	-25.0	16.6	0.00e+00	0	43	0	3925868544	9	3780
2026-01-30 15:55:35.75	322.39	16.70	-24.5	-24.8	16.6	0.00e+00	0	43	0	3947888640	9	3746
2026-01-30 15:55:38.79	322.78	16.42	-24.5	-24.9	16.6	0.00e+00	0	43	0	3969908736	9	3772
2026-01-30 15:55:41.82	323.17	16.14	-24.7	-25.3	16.4	0.00e+00	0	43	0	3991928832	9	3856
2026-01-30 15:55:44.85	323.55	15.86	-24.9	-25.7	16.1	0.00e+00	0	43	0	4012900352	9	3972
2026-01-30 15:55:47.88	323.93	15.59	-24.9	-25.7	16.1	0.00e+00	0	43	0	4034920448	9	3970
2026-01-30 15:55:50.92	324.30	15.32	-24.9	-25.7	16.1	0.00e+00	0	43	0	4056940544	9	3974
2026-01-30 15:55:53.95	324.66	15.05	-25.0	-25.4	16.0	0.00e+00	0	43	0	4078960640	10	3788
2026-01-30 15:55:56.99	325.02	14.78	-25.0	-25.4	16.0	0.00e+00	0	43	0	4100980736	10	3794
2026-01-30 15:56:00.02	325.37	14.52	-25.0	-25.6	15.9	0.00e+00	0	43	0	4123000832	10	3836
2026-01-30 15:56:03.05	325.71	14.25	-25.3	-26.1	15.6	0.00e+00	0	43	0	4145020928	10	3948
2026-01-30 15:56:06.09	326.05	13.99	-25.5	-26.5	15.3	0.00e+00	0	43	0	4167041024	10	4056
2026-01-30 15:56:09.12	326.38	13.73	-25.6	-26.7	15.2	1.10e-06	0	43	0	4189061120	10	4108
2026-01-30 15:56:12.15	326.71	13.48	-25.7	-26.5	15.1	0.00e+00	0	43	0	4210032640	11	3941
2026-01-30 15:56:15.18	327.03	13.22	-25.6	-26.2	15.2	0.00e+00	0	43	0	4232052736	11	3884
2026-01-30 15:56:18.22	327.35	12.97	-25.5	-26.1	15.2	0.00e+00	0	43	0	4254072832	11	3859
2026-01-30 15:56:21.25	327.66	12.71	-25.5	-26.1	15.2	0.00e+00	0	43	0	4276092928	11	3850
2026-01-30 15:56:24.28	327.97	12.46	-25.5	-26.1	15.2	0.00e+00	0	43	0	4298113024	11	3843
2026-01-30 15:56:27.32	328.27	12.22	-25.6	-26.2	15.2	0.00e+00	0	43	0	4320133120	11	3879
2026-01-30 15:56:30.35	328.56	11.97	-25.7	-26.5	15.0	0.00e+00	0	43	0	4342153216	11	3954
2026-01-30 15:56:33.38	328.86	11.73	-25.8	-26.7	14.9	0.00e+00	0	43	0	4364173312	11	3996
2026-01-30 15:56:36.42	329.14	11.48	-25.9	-27.0	14.6	0.00e+00	0	43	0	4386193408	11	4086
2026-01-30 15:56:39.45	329.43	11.24	-25.9	-27.0	14.6	0.00e+00	0	43	0	4407164928	11	4080
2026-01-30 15:56:42.48	329.71	11.00	-26.0	-27.2	14.5	0.00e+00	0	43	0	4429185024	11	4138
2026-01-30 15:56:45.51	329.98	10.77	-26.1	-27.4	14.4	1.10e-06	0	43	0	4451205120	11	4191
2026-01-30 15:56:48.55	330.25	10.53	-26.2	-27.2	14.2	2.20e-06	0	43	0	4473225216	12	4033
2026-01-30 15:56:51.58	330.52	10.30	-26.1	-27.1	14.2	0.00e+00	0	43	0	4495245312	12	3997
2026-01-30 15:56:54.62	330.78	10.06	-26.1	-27.0	14.2	2.20e-06	0	43	0	4517265408	12	3986
2026-01-30 15:56:57.65	331.04	9.83	-26.0	-26.7	14.3	0.00e+00	0	43	0	4539285504	12	3917
2026-01-30 15:57:00.68	331.29	9.60	-26.2	-27.3	14.0	1.10e-06	0	43	0	4561305600	12	4055
2026-01-30 15:57:03.71	331.54	9.38	-26.3	-27.4	13.9	6.80e-06	0	43	0	4583325696	12	4093
2026-01-30 15:57:06.74	331.79	9.15	-26.3	-27.5	13.9	2.20e-06	0	43	0	4604297216	12	4109
2026-01-30 15:57:09.77	332.03	8.93	-26.3	-27.5	13.8	5.70e-06	0	43	0	4626317312	12	4120
2026-01-30 15:57:12.81	332.27	8.71	-26.4	-27.5	13.8	9.10e-06	0	43	0	4648337408	12	4132
2026-01-30 15:57:15.84	332.51	8.49	-26.3	-27.5	13.8	5.70e-06	0	43	0	4670357504	12	4101
2026-01-30 15:57:18.87	332.74	8.27	-26.4	-27.7	13.7	6.80e-06	0	43	0	4692377600	12	4171
2026-01-30 15:57:21.91	332.97	8.05	-26.4	-27.6	13.7	4.50e-06	0	43	0	4714397696	12	4151
2026-01-30 15:57:24.94	333.20	7.83	-26.4	-27.7	13.6	4.50e-06	0	43	0	4736417792	12	4184
2026-01-30 15:57:27.97	333.42	7.62	-26.4	-27.6	13.7	2.20e-06	0	43	0	4758437888	12	4140
2026-01-30 15:57:31.00	333.64	7.41	-26.5	-27.8	13.5	1.37e-05	0	43	0	4779409408	12	4211
2026-01-30 15:57:34.04	333.86	7.19	-26.5	-27.8	13.5	1.25e-05	0	43	0	4801429504	12	4209
2026-01-30 15:57:37.07	334.08	6.98	-33.3	-42.9	3.8	8.47e-01	0	43	104	4811915264	26	10919

#Closed at: 2026-01-30 15:57:39
#Recorded file [4811 MB]: D:/data/31010_260130_184628.dat