passes_logs/2026/01/30/R2M6_AANII_01/R2M6_AANII_01__20260130_100712_NOAA_20_JPSS-1_rec.log

#Pass ID: 20260130_100712_NOAA 20 (JPSS-1)
#Satellite: NOAA 20 (JPSS-1)
#Configuration: NOAA 20
#almurnet v.1.7.20240730
#Start time: 2026-01-30 10:07:14

#Version: 2.2.20231116
#Station: R2M6_AANII_01
#Location: 30.233357 lon 59.946436 lat
#TLE: 1 43013U 17073A   26029.42702672  .00000137  00000+0  85918-4 0  9993
#TLE: 2 43013  98.7646 330.2153 0000804  19.9045 340.2162 14.19525092424781

#Time	Az	El	Level	Level2	SNR	BER	BlckErr	Temp	State	Recorded	gain1	gain2
2026-01-30 10:07:14.08	153.80	7.10	-30.9	-38.4	4.8	1.33e+00	0	41	0	0	22	8509
2026-01-30 10:07:17.09	153.78	7.34	-31.3	-38.0	7.2	1.67e-01	0	41	0	1048576	23	7775
2026-01-30 10:07:20.10	153.76	7.58	-30.6	-36.2	8.8	3.38e-02	0	41	0	7340032	22	6842
2026-01-30 10:07:23.11	153.74	7.82	-30.5	-35.9	9.0	2.15e-02	0	41	0	12582912	22	6702
2026-01-30 10:07:26.11	153.72	8.06	-30.5	-36.1	8.9	3.31e-02	0	41	0	17825792	22	6809
2026-01-30 10:07:29.13	153.70	8.30	-30.5	-34.9	10.1	7.14e-03	0	41	0	24117248	22	5977
2026-01-30 10:07:32.13	153.67	8.55	-30.4	-34.5	10.5	4.44e-03	0	41	0	29360128	22	5766
2026-01-30 10:07:35.14	153.65	8.80	-30.4	-34.5	10.4	4.23e-03	0	42	0	35651584	22	5814
2026-01-30 10:07:38.16	153.63	9.05	-30.1	-34.5	10.7	3.40e-03	0	42	0	40894464	21	5976
2026-01-30 10:07:41.17	153.60	9.30	-29.9	-34.6	10.4	4.67e-03	0	42	0	46137344	21	6209
2026-01-30 10:07:44.18	153.58	9.56	-30.0	-34.5	10.6	3.47e-03	0	42	0	52428800	21	6040
2026-01-30 10:07:47.19	153.55	9.82	-30.1	-34.7	10.5	3.80e-03	0	42	0	57671680	21	6131
2026-01-30 10:07:50.19	153.53	10.08	-30.3	-34.8	10.6	3.28e-03	0	42	0	63963136	21	6080
2026-01-30 10:07:53.21	153.50	10.35	-30.2	-34.6	10.8	2.73e-03	0	42	0	69206016	21	5976
2026-01-30 10:07:56.23	153.47	10.61	-30.3	-34.4	11.1	1.73e-03	0	42	0	74448896	21	5779
2026-01-30 10:07:59.23	153.45	10.88	-30.4	-34.7	11.0	1.62e-03	0	42	0	80740352	21	5888
2026-01-30 10:08:02.24	153.42	11.16	-30.3	-34.3	11.3	1.24e-03	0	42	0	85983232	21	5690
2026-01-30 10:08:05.23	153.39	11.43	-30.3	-34.2	11.4	9.09e-04	0	42	0	91226112	21	5643
2026-01-30 10:08:08.25	153.36	11.71	-30.3	-34.4	11.3	1.32e-03	0	42	0	97517568	21	5720
2026-01-30 10:08:11.27	153.33	12.00	-30.2	-34.0	11.6	6.02e-04	0	42	0	102760448	21	5544
2026-01-30 10:08:14.28	153.30	12.28	-30.1	-33.8	11.8	4.96e-04	0	42	0	109051904	21	5478
2026-01-30 10:08:17.28	153.26	12.57	-30.1	-33.9	11.7	6.52e-04	0	42	0	114294784	21	5536
2026-01-30 10:08:20.28	153.23	12.87	-30.3	-34.5	11.3	1.15e-03	0	42	0	119537664	21	5800
2026-01-30 10:08:23.30	153.20	13.16	-30.4	-34.9	11.0	2.18e-03	0	43	0	125829120	21	6014
2026-01-30 10:08:26.31	153.16	13.46	-30.4	-34.6	11.3	1.08e-03	0	42	0	131072000	21	5783
2026-01-30 10:08:29.31	153.13	13.77	-30.5	-34.7	11.3	1.47e-03	0	42	0	136314880	21	5835
2026-01-30 10:08:32.32	153.09	14.08	-30.1	-33.4	12.3	2.42e-04	0	43	0	142606336	21	5250
2026-01-30 10:08:35.33	153.05	14.39	-30.0	-33.1	12.5	1.17e-04	0	43	0	147849216	21	5120
2026-01-30 10:08:38.34	153.01	14.70	-30.0	-33.1	12.5	1.04e-04	0	43	0	154140672	21	5116
2026-01-30 10:08:41.34	152.97	15.02	-30.0	-33.0	12.6	1.18e-04	0	43	0	159383552	21	5084
2026-01-30 10:08:44.35	152.93	15.35	-30.1	-33.1	12.6	9.61e-05	0	43	0	164626432	21	5119
2026-01-30 10:08:47.35	152.89	15.68	-30.0	-32.8	12.9	5.79e-05	0	43	0	170917888	21	4968
2026-01-30 10:08:50.37	152.85	16.01	-30.0	-32.8	12.9	4.95e-05	0	43	0	176160768	21	4952
2026-01-30 10:08:53.38	152.80	16.35	-29.8	-32.3	13.3	2.36e-05	0	43	0	181403648	21	4788
2026-01-30 10:08:56.38	152.76	16.69	-29.8	-32.3	13.3	1.83e-05	0	43	0	187695104	21	4798
2026-01-30 10:08:59.39	152.71	17.04	-29.8	-32.6	13.5	5.30e-06	0	42	0	192937984	20	4972
2026-01-30 10:09:02.41	152.66	17.39	-29.6	-32.0	13.9	4.50e-06	0	43	0	199229440	20	4784
2026-01-30 10:09:05.41	152.62	17.75	-29.6	-32.1	13.8	5.30e-06	0	43	0	204472320	20	4805
2026-01-30 10:09:08.43	152.56	18.11	-29.6	-32.0	14.0	6.80e-06	0	43	0	209715200	20	4744
2026-01-30 10:09:11.42	152.51	18.48	-29.5	-31.8	14.2	2.20e-06	0	43	0	216006656	20	4671
2026-01-30 10:09:14.43	152.46	18.85	-29.4	-31.4	14.4	0.00e+00	0	43	0	221249536	20	4552
2026-01-30 10:09:17.45	152.40	19.23	-29.4	-31.3	14.6	0.00e+00	0	43	0	227540992	20	4486
2026-01-30 10:09:20.46	152.35	19.62	-29.4	-31.3	14.6	0.00e+00	0	43	0	232783872	20	4502
2026-01-30 10:09:23.46	152.29	20.01	-29.5	-31.6	14.5	7.00e-07	0	43	0	238026752	20	4585
2026-01-30 10:09:26.48	152.23	20.41	-29.4	-31.4	14.6	7.00e-07	0	43	0	244318208	20	4530
2026-01-30 10:09:29.50	152.17	20.81	-29.3	-31.5	14.9	0.00e+00	0	43	0	249561088	19	4658
2026-01-30 10:09:32.50	152.10	21.22	-29.3	-31.5	14.9	0.00e+00	0	43	0	255852544	19	4649
2026-01-30 10:09:35.51	152.04	21.64	-29.3	-31.5	14.9	0.00e+00	0	43	0	261095424	19	4652
2026-01-30 10:09:38.52	151.97	22.06	-29.3	-31.6	14.9	0.00e+00	0	43	0	266338304	19	4677
2026-01-30 10:09:41.52	151.90	22.49	-29.1	-31.0	15.3	0.00e+00	0	43	0	272629760	19	4486
2026-01-30 10:09:44.52	151.83	22.93	-29.0	-30.7	15.5	0.00e+00	0	43	0	277872640	19	4394
2026-01-30 10:09:47.53	151.75	23.38	-29.0	-30.8	15.5	0.00e+00	0	43	0	283115520	19	4416
2026-01-30 10:09:50.54	151.68	23.83	-29.1	-30.9	15.4	7.00e-07	0	43	0	289406976	19	4448
2026-01-30 10:09:53.55	151.60	24.29	-29.1	-31.0	15.4	0.00e+00	0	43	0	294649856	19	4474
2026-01-30 10:09:56.56	151.51	24.77	-29.1	-30.8	15.5	0.00e+00	0	43	0	300941312	19	4424
2026-01-30 10:09:59.56	151.43	25.24	-29.3	-31.3	15.3	0.00e+00	0	43	0	306184192	19	4561
2026-01-30 10:10:02.57	151.34	25.73	-29.5	-32.0	14.9	0.00e+00	0	43	0	311427072	19	4779
2026-01-30 10:10:05.58	151.25	26.23	-29.7	-32.5	14.6	0.00e+00	0	43	0	317718528	19	4978
2026-01-30 10:10:08.58	151.16	26.73	-29.9	-33.0	14.3	0.00e+00	0	43	0	322961408	19	5132
2026-01-30 10:10:11.59	151.06	27.25	-30.1	-33.0	14.0	2.20e-06	0	43	0	328204288	20	5014
2026-01-30 10:10:14.59	150.96	27.77	-30.4	-33.8	13.4	1.37e-05	0	43	0	334495744	20	5327
2026-01-30 10:10:17.59	150.85	28.30	-30.7	-34.1	13.0	2.89e-05	0	43	0	339738624	21	5313
2026-01-30 10:10:20.60	150.74	28.85	-30.9	-34.7	12.6	1.07e-04	0	43	0	346030080	21	5563
2026-01-30 10:10:23.61	150.63	29.40	-31.1	-34.7	12.2	1.95e-04	0	43	0	351272960	22	5478
2026-01-30 10:10:26.63	150.51	29.97	-31.2	-35.0	12.0	3.01e-04	0	43	0	356515840	22	5587
2026-01-30 10:10:29.64	150.39	30.55	-31.4	-35.8	11.5	7.64e-04	0	43	0	362807296	22	5926
2026-01-30 10:10:32.65	150.26	31.14	-31.5	-35.3	11.5	8.19e-04	0	43	0	368050176	23	5618
2026-01-30 10:10:35.66	150.13	31.74	-31.7	-35.9	11.1	1.56e-03	0	43	0	373293056	23	5878
2026-01-30 10:10:38.66	150.00	32.36	-31.6	-35.8	11.2	1.53e-03	0	43	0	379584512	23	5829
2026-01-30 10:10:41.68	149.85	32.99	-31.7	-35.9	11.2	1.28e-03	0	43	0	384827392	23	5857
2026-01-30 10:10:44.69	149.70	33.63	-31.8	-36.2	10.9	1.95e-03	0	43	0	391118848	23	6012
2026-01-30 10:10:47.69	149.55	34.28	-31.6	-35.7	11.3	9.83e-04	0	43	0	396361728	23	5778
2026-01-30 10:10:50.70	149.39	34.95	-31.3	-35.0	11.7	7.45e-04	0	43	0	401604608	23	5483
2026-01-30 10:10:53.70	149.22	35.62	-31.1	-34.3	12.3	1.75e-04	0	43	0	407896064	23	5185
2026-01-30 10:10:56.72	149.04	36.32	-30.7	-33.4	13.2	4.19e-05	0	43	0	413138944	22	4950
2026-01-30 10:10:59.73	148.86	37.03	-30.2	-32.5	14.1	7.00e-07	0	43	0	419430400	21	4733
2026-01-30 10:11:02.74	148.66	37.76	-29.9	-32.0	14.5	7.00e-07	0	43	0	424673280	21	4564
2026-01-30 10:11:05.74	148.46	38.50	-29.9	-31.8	14.6	0.00e+00	0	43	0	429916160	21	4513
2026-01-30 10:11:08.75	148.25	39.26	-30.2	-32.8	14.0	7.00e-07	0	43	0	436207616	21	4827
2026-01-30 10:11:11.76	148.02	40.03	-30.5	-33.3	13.7	6.10e-06	0	43	0	441450496	21	5012
2026-01-30 10:11:14.76	147.79	40.82	-31.0	-34.7	12.8	6.63e-05	0	43	0	446693376	21	5547
2026-01-30 10:11:17.77	147.54	41.63	-31.0	-34.4	12.6	6.48e-05	0	43	0	452984832	22	5324
2026-01-30 10:11:20.79	147.28	42.46	-31.1	-34.7	12.5	1.01e-04	0	43	0	458227712	22	5442
2026-01-30 10:11:23.80	147.00	43.30	-31.0	-34.5	12.6	7.55e-05	0	43	0	464519168	22	5355
2026-01-30 10:11:26.82	146.71	44.16	-31.3	-35.1	12.3	1.36e-04	0	43	0	469762048	22	5576
2026-01-30 10:11:29.82	146.40	45.04	-31.3	-35.3	12.1	3.11e-04	0	43	0	475004928	22	5668
2026-01-30 10:11:32.84	146.08	45.94	-31.6	-35.5	11.6	3.85e-04	0	43	0	481296384	23	5660
2026-01-30 10:11:35.85	145.73	46.86	-31.7	-35.9	11.3	1.01e-03	0	43	0	486539264	23	5847
2026-01-30 10:11:38.86	145.36	47.80	-31.9	-36.5	10.9	2.42e-03	0	43	0	491782144	23	6131
2026-01-30 10:11:41.88	144.97	48.76	-31.9	-36.2	10.7	4.86e-03	0	43	0	498073600	24	5876
2026-01-30 10:11:44.88	144.55	49.73	-31.0	-33.7	12.9	4.95e-05	0	43	0	503316480	23	4915
2026-01-30 10:11:47.90	144.11	50.73	-30.3	-32.4	14.1	5.30e-06	0	43	0	509607936	22	4560
2026-01-30 10:11:50.91	143.63	51.75	-29.8	-32.1	14.9	0.00e+00	0	43	0	514850816	20	4702
2026-01-30 10:11:53.93	143.11	52.79	-29.5	-31.7	15.5	0.00e+00	0	43	0	520093696	19	4670
2026-01-30 10:11:56.94	142.56	53.84	-29.4	-31.4	15.7	0.00e+00	0	43	0	526385152	19	4566
2026-01-30 10:11:59.95	141.97	54.92	-29.2	-31.0	15.9	0.00e+00	0	43	0	531628032	19	4433
2026-01-30 10:12:02.96	141.33	56.01	-30.0	-33.0	14.8	0.00e+00	0	43	0	537919488	19	5093
2026-01-30 10:12:05.98	140.63	57.13	-30.8	-34.3	13.3	7.60e-06	0	43	0	543162368	21	5354
2026-01-30 10:12:08.99	139.87	58.25	-31.7	-35.7	11.6	4.97e-04	0	43	0	548405248	23	5724
2026-01-30 10:12:12.00	139.05	59.40	-31.1	-34.1	12.7	9.07e-05	0	43	0	554696704	23	5062
2026-01-30 10:12:15.01	138.15	60.56	-30.5	-32.8	14.0	2.20e-06	0	43	0	559939584	22	4699
2026-01-30 10:12:18.01	137.17	61.73	-29.9	-31.8	14.8	7.00e-07	0	43	0	565182464	21	4484
2026-01-30 10:12:21.00	136.08	62.91	-30.2	-32.6	14.4	1.50e-06	0	43	0	571473920	21	4728
2026-01-30 10:12:24.01	134.88	64.11	-31.0	-34.2	13.0	5.30e-06	0	43	0	576716800	22	5182
2026-01-30 10:12:27.02	133.55	65.32	-30.2	-32.4	14.4	2.20e-06	0	43	0	583008256	21	4666
2026-01-30 10:12:30.02	132.06	66.52	-30.6	-33.7	13.7	6.10e-06	0	43	0	588251136	21	5108
2026-01-30 10:12:33.04	130.39	67.74	-30.5	-33.2	14.1	2.20e-06	0	43	0	593494016	21	4922
2026-01-30 10:12:36.05	128.51	68.95	-30.3	-32.7	14.4	0.00e+00	0	43	0	599785472	21	4756
2026-01-30 10:12:39.06	126.38	70.15	-29.9	-31.8	14.9	0.00e+00	0	43	0	605028352	21	4462
2026-01-30 10:12:42.07	123.95	71.34	-29.3	-30.8	15.8	0.00e+00	0	43	0	610271232	20	4252
2026-01-30 10:12:45.07	121.19	72.50	-30.3	-33.2	14.4	1.50e-06	0	43	0	616562688	20	5031
2026-01-30 10:12:48.08	118.01	73.63	-31.4	-35.4	12.3	3.28e-05	0	43	0	621805568	22	5693
2026-01-30 10:12:51.09	114.34	74.71	-31.5	-35.1	12.2	1.54e-04	0	43	0	628097024	23	5425
2026-01-30 10:12:54.10	110.10	75.74	-31.9	-35.7	11.4	2.46e-03	0	43	0	633339904	24	5576
2026-01-30 10:12:57.11	105.21	76.68	-31.1	-33.9	13.1	2.59e-05	0	44	0	638582784	23	4949
2026-01-30 10:13:00.11	99.62	77.52	-30.7	-33.2	13.9	6.10e-06	0	43	0	644874240	22	4788
2026-01-30 10:13:03.12	93.24	78.23	-31.6	-35.3	12.3	1.15e-04	0	43	0	650117120	23	5492
2026-01-30 10:13:06.14	86.10	78.78	-31.0	-33.5	13.4	1.29e-05	0	43	0	656408576	23	4804
2026-01-30 10:13:09.14	78.39	79.15	-31.1	-33.8	13.3	7.85e-05	0	43	0	661651456	23	4902
2026-01-30 10:13:12.16	70.24	79.31	-30.5	-32.8	14.2	4.50e-06	0	43	0	666894336	22	4641
2026-01-30 10:13:15.16	62.05	79.26	-29.7	-31.6	15.5	0.00e+00	0	43	0	673185792	20	4498
2026-01-30 10:13:18.17	54.09	78.99	-29.6	-31.4	15.7	0.00e+00	0	43	0	678428672	20	4421
2026-01-30 10:13:21.17	46.66	78.53	-30.7	-33.8	13.9	3.80e-06	0	43	0	683671552	21	5108
2026-01-30 10:13:24.19	39.88	77.90	-31.7	-35.6	12.1	1.25e-04	0	43	0	689963008	23	5605
2026-01-30 10:13:27.21	33.87	77.12	-32.8	-38.3	9.3	1.55e-02	0	43	0	695205888	25	6743
2026-01-30 10:13:30.23	28.61	76.22	-32.8	-37.8	9.3	1.74e-02	0	43	0	701497344	26	6376
2026-01-30 10:13:33.24	24.06	75.24	-32.7	-37.4	9.6	1.50e-02	0	43	0	706740224	26	6155
2026-01-30 10:13:36.24	20.14	74.18	-31.8	-35.2	11.9	3.81e-04	0	43	0	711983104	24	5368
2026-01-30 10:13:39.26	16.71	73.07	-31.0	-33.6	13.4	3.89e-05	0	43	0	718274560	23	4839
2026-01-30 10:13:42.27	13.75	71.93	-30.2	-32.4	14.8	0.00e+00	0	43	0	723517440	21	4652
2026-01-30 10:13:45.28	11.16	70.75	-30.1	-32.1	14.9	0.00e+00	0	43	0	729808896	21	4558
2026-01-30 10:13:48.28	8.90	69.56	-30.6	-33.5	14.0	2.20e-06	0	43	0	735051776	21	5025
2026-01-30 10:13:51.29	6.90	68.36	-31.9	-36.1	11.6	1.96e-04	0	43	0	740294656	23	5868
2026-01-30 10:13:54.30	5.13	67.15	-32.0	-35.7	11.1	3.01e-03	0	43	0	746586112	25	5480
2026-01-30 10:13:57.31	3.56	65.94	-31.7	-35.1	11.9	4.38e-04	0	43	0	751828992	24	5322
2026-01-30 10:14:00.32	2.15	64.74	-30.4	-32.5	14.3	2.20e-06	0	43	0	757071872	22	4582
2026-01-30 10:14:03.33	0.88	63.54	-29.8	-31.9	15.2	0.00e+00	0	43	0	763363328	20	4582
2026-01-30 10:14:06.34	359.74	62.35	-29.2	-31.0	16.1	0.00e+00	0	43	0	768606208	19	4432
2026-01-30 10:14:09.35	358.71	61.17	-30.0	-32.3	15.0	0.00e+00	0	43	0	774897664	20	4740
2026-01-30 10:14:12.36	357.76	60.00	-30.4	-33.5	14.3	2.20e-06	0	43	0	780140544	20	5124
2026-01-30 10:14:15.37	356.91	58.85	-32.0	-36.2	11.1	1.07e-03	0	43	0	785383424	24	5818
2026-01-30 10:14:18.38	356.12	57.72	-32.0	-35.9	11.2	1.53e-03	0	43	0	791674880	24	5687
2026-01-30 10:14:21.39	355.40	56.60	-31.3	-34.0	12.6	1.67e-04	0	43	0	796917760	24	4883
2026-01-30 10:14:24.39	354.73	55.51	-30.1	-32.3	14.6	0.00e+00	0	43	0	802160640	21	4620
2026-01-30 10:14:27.40	354.12	54.43	-29.6	-31.6	15.3	0.00e+00	0	43	0	808452096	20	4486
2026-01-30 10:14:30.41	353.54	53.37	-29.6	-31.5	15.3	0.00e+00	0	43	0	813694976	20	4470
2026-01-30 10:14:33.42	353.01	52.33	-29.7	-31.8	15.2	0.00e+00	0	43	0	819986432	20	4560
2026-01-30 10:14:36.42	352.52	51.31	-30.2	-32.9	14.5	0.00e+00	0	43	0	825229312	20	4943
2026-01-30 10:14:39.43	352.06	50.30	-31.6	-35.5	11.8	2.47e-04	0	43	0	830472192	23	5602
2026-01-30 10:14:42.43	351.63	49.32	-32.3	-37.3	10.0	4.98e-03	0	43	0	836763648	24	6389
2026-01-30 10:14:45.43	351.23	48.36	-32.4	-37.0	10.0	8.98e-03	0	44	0	842006528	25	6113
2026-01-30 10:14:48.43	350.85	47.42	-32.5	-37.5	9.6	1.47e-02	0	43	0	847249408	25	6392
2026-01-30 10:14:51.45	350.49	46.49	-31.5	-34.6	12.0	3.78e-04	0	44	0	853540864	24	5129
2026-01-30 10:14:54.46	350.16	45.59	-31.2	-34.2	12.6	9.91e-05	0	43	0	858783744	23	5079
2026-01-30 10:14:57.47	349.84	44.70	-31.8	-35.9	11.4	5.11e-04	0	43	0	865075200	23	5818
2026-01-30 10:15:00.47	349.55	43.84	-32.1	-36.7	10.5	3.53e-03	0	43	0	870318080	24	6094
2026-01-30 10:15:03.49	349.26	42.98	-31.9	-35.7	11.2	1.21e-03	0	43	0	875560960	24	5615
2026-01-30 10:15:06.51	348.99	42.15	-31.5	-34.8	11.9	4.98e-04	0	43	0	881852416	24	5210
2026-01-30 10:15:09.52	348.74	41.33	-31.6	-35.0	11.6	7.36e-04	0	44	0	887095296	24	5333
2026-01-30 10:15:12.52	348.50	40.54	-32.0	-36.3	10.8	2.94e-03	0	43	0	892338176	24	5878
2026-01-30 10:15:15.53	348.27	39.76	-31.9	-36.0	11.0	2.45e-03	0	43	0	898629632	24	5737
2026-01-30 10:15:18.54	348.05	39.00	-31.7	-35.4	11.4	1.48e-03	0	44	0	903872512	24	5497
2026-01-30 10:15:21.55	347.85	38.25	-31.5	-34.6	12.0	3.42e-04	0	43	0	910163968	24	5152
2026-01-30 10:15:24.56	347.65	37.52	-31.6	-35.1	11.6	5.87e-04	0	43	0	915406848	24	5353
2026-01-30 10:15:27.58	347.46	36.80	-31.3	-34.2	12.2	2.48e-04	0	43	0	920649728	24	5003
2026-01-30 10:15:30.58	347.28	36.10	-31.1	-34.1	12.6	9.53e-05	0	43	0	926941184	23	5054
2026-01-30 10:15:33.59	347.11	35.41	-30.8	-33.2	13.2	2.97e-05	0	43	0	932184064	23	4733
2026-01-30 10:15:36.61	346.94	34.74	-30.3	-32.6	13.2	2.74e-05	0	43	0	938475520	22	4721
2026-01-30 10:15:39.63	346.79	34.08	-30.8	-33.7	13.2	1.67e-05	0	43	0	943718400	22	5025
2026-01-30 10:15:42.64	346.64	33.43	-31.4	-35.3	12.1	1.52e-04	0	43	0	948961280	22	5666
2026-01-30 10:15:45.65	346.49	32.80	-32.0	-36.8	10.7	2.20e-03	0	43	0	955252736	23	6262
2026-01-30 10:15:48.66	346.35	32.18	-32.0	-36.3	10.7	3.24e-03	0	43	0	960495616	24	5910
2026-01-30 10:15:51.67	346.22	31.58	-31.8	-35.7	11.1	1.48e-03	0	43	0	965738496	24	5624
2026-01-30 10:15:54.68	346.09	30.98	-31.4	-34.6	11.9	4.97e-04	0	43	0	972029952	24	5169
2026-01-30 10:15:57.69	345.97	30.40	-31.4	-34.6	11.9	3.75e-04	0	43	0	977272832	24	5168
2026-01-30 10:16:00.70	345.85	29.83	-31.6	-35.1	11.5	7.10e-04	0	43	0	983564288	24	5390
2026-01-30 10:16:03.71	345.74	29.27	-31.8	-35.8	11.0	1.70e-03	0	43	0	988807168	24	5688
2026-01-30 10:16:06.72	345.63	28.72	-31.6	-35.3	11.4	8.54e-04	0	43	0	994050048	24	5453
2026-01-30 10:16:09.73	345.52	28.18	-31.3	-34.5	12.2	2.43e-04	0	43	0	1000341504	23	5256
2026-01-30 10:16:12.74	345.42	27.65	-31.0	-33.8	12.7	9.30e-05	0	43	0	1005584384	23	4980
2026-01-30 10:16:15.75	345.32	27.13	-30.9	-33.5	12.9	3.89e-05	0	43	0	1011875840	23	4871
2026-01-30 10:16:18.75	345.23	26.63	-30.8	-33.2	13.0	4.50e-05	0	43	0	1017118720	23	4769
2026-01-30 10:16:21.76	345.14	26.13	-30.6	-33.1	13.4	1.44e-05	0	43	0	1022361600	22	4836
2026-01-30 10:16:24.76	345.05	25.64	-30.4	-32.8	13.6	9.10e-06	0	43	0	1028653056	22	4720
2026-01-30 10:16:27.78	344.96	25.15	-30.5	-32.9	13.5	6.80e-06	0	43	0	1033895936	22	4768
2026-01-30 10:16:30.79	344.88	24.68	-30.6	-33.3	13.3	1.98e-05	0	43	0	1039138816	22	4907
2026-01-30 10:16:33.78	344.80	24.22	-30.5	-33.0	13.5	1.83e-05	0	43	0	1045430272	22	4791
2026-01-30 10:16:36.79	344.73	23.76	-30.6	-33.2	13.3	2.28e-05	0	43	0	1050673152	22	4863
2026-01-30 10:16:39.80	344.65	23.31	-30.6	-33.2	13.4	1.29e-05	0	43	0	1056964608	22	4858
2026-01-30 10:16:42.81	344.58	22.87	-30.5	-32.9	13.5	1.14e-05	0	43	0	1062207488	22	4777
2026-01-30 10:16:45.84	344.51	22.44	-30.4	-32.8	13.6	1.22e-05	0	43	0	1067450368	22	4724
2026-01-30 10:16:48.85	344.44	22.01	-30.4	-32.7	13.6	6.10e-06	0	43	0	1073741824	22	4715
2026-01-30 10:16:51.86	344.38	21.59	-30.2	-32.6	13.9	2.20e-06	0	43	0	1078984704	21	4777
2026-01-30 10:16:54.87	344.32	21.18	-30.2	-32.8	13.8	3.00e-06	0	43	0	1085276160	21	4839
2026-01-30 10:16:57.88	344.25	20.77	-30.3	-33.0	13.6	9.90e-06	0	43	0	1090519040	21	4932
2026-01-30 10:17:00.89	344.19	20.37	-30.4	-33.4	13.3	1.90e-05	0	43	0	1095761920	21	5067
2026-01-30 10:17:03.91	344.14	19.98	-30.6	-33.8	13.1	2.67e-05	0	43	0	1102053376	21	5210
2026-01-30 10:17:06.90	344.08	19.59	-30.8	-34.3	12.7	7.24e-05	0	43	0	1107296256	21	5431
2026-01-30 10:17:09.91	344.03	19.21	-30.9	-34.7	12.4	7.62e-05	0	43	0	1112539136	21	5577
2026-01-30 10:17:12.91	343.98	18.83	-30.7	-34.2	12.7	8.31e-05	0	43	0	1118830592	21	5388
2026-01-30 10:17:15.93	343.92	18.46	-30.7	-34.2	12.7	4.80e-05	0	43	0	1124073472	21	5374
2026-01-30 10:17:18.94	343.88	18.10	-30.9	-34.7	12.4	1.17e-04	0	43	0	1130364928	21	5575
2026-01-30 10:17:21.96	343.83	17.74	-31.0	-35.0	12.1	1.79e-04	0	43	0	1135607808	21	5721
2026-01-30 10:17:24.97	343.78	17.38	-30.9	-35.0	12.1	2.25e-04	0	43	0	1140850688	21	5714
2026-01-30 10:17:27.98	343.74	17.03	-31.0	-35.0	12.0	2.46e-04	0	43	0	1147142144	21	5752
2026-01-30 10:17:30.98	343.69	16.69	-31.1	-34.9	11.8	4.99e-04	0	43	0	1152385024	22	5580
2026-01-30 10:17:33.99	343.65	16.35	-31.1	-34.8	11.8	4.23e-04	0	43	0	1157627904	22	5563
2026-01-30 10:17:37.01	343.61	16.02	-31.1	-35.0	11.7	4.76e-04	0	43	0	1163919360	22	5633
2026-01-30 10:17:40.01	343.57	15.69	-31.2	-35.4	11.4	7.96e-04	0	43	0	1169162240	22	5818
2026-01-30 10:17:43.03	343.53	15.36	-31.2	-35.2	11.5	1.04e-03	0	43	0	1175453696	22	5722
2026-01-30 10:17:46.03	343.49	15.04	-31.1	-35.1	11.7	6.59e-04	0	43	0	1180696576	22	5665
2026-01-30 10:17:49.04	343.45	14.72	-31.0	-34.8	11.8	4.98e-04	0	43	0	1185939456	22	5558
2026-01-30 10:17:52.05	343.42	14.41	-31.0	-34.7	11.8	4.49e-04	0	43	0	1192230912	22	5512
2026-01-30 10:17:55.06	343.38	14.10	-31.1	-35.0	11.6	6.19e-04	0	43	0	1197473792	22	5639
2026-01-30 10:17:58.07	343.35	13.79	-31.1	-35.1	11.5	7.78e-04	0	43	0	1202716672	22	5703
2026-01-30 10:18:01.08	343.32	13.49	-31.1	-35.0	11.5	7.65e-04	0	43	0	1209008128	22	5664
2026-01-30 10:18:04.09	343.29	13.19	-31.1	-35.0	11.5	8.54e-04	0	43	0	1214251008	22	5672
2026-01-30 10:18:07.10	343.25	12.90	-31.0	-34.9	11.6	7.09e-04	0	43	0	1220542464	22	5617
2026-01-30 10:18:10.10	343.22	12.61	-31.1	-35.1	11.4	1.28e-03	0	43	0	1225785344	22	5734
2026-01-30 10:18:13.10	343.19	12.32	-31.1	-35.2	11.3	1.13e-03	0	43	0	1231028224	22	5777
2026-01-30 10:18:16.11	343.17	12.04	-31.2	-35.6	11.0	1.73e-03	0	43	0	1237319680	22	5945
2026-01-30 10:18:19.13	343.14	11.76	-31.2	-35.5	11.0	1.89e-03	0	43	0	1242562560	22	5939
2026-01-30 10:18:22.14	343.11	11.48	-31.2	-35.7	10.9	1.94e-03	0	43	0	1248854016	22	6007
2026-01-30 10:18:25.16	343.08	11.20	-31.3	-35.8	10.8	2.62e-03	0	43	0	1254096896	22	6069
2026-01-30 10:18:28.18	343.06	10.93	-31.3	-36.0	10.6	3.22e-03	0	43	0	1259339776	22	6159
2026-01-30 10:18:31.20	343.03	10.66	-31.4	-36.3	10.4	4.48e-03	0	43	0	1265631232	22	6321
2026-01-30 10:18:34.21	343.01	10.40	-31.4	-36.4	10.2	5.87e-03	0	43	0	1270874112	22	6387
2026-01-30 10:18:37.22	342.99	10.13	-31.7	-36.9	9.4	1.32e-02	0	43	0	1277165568	23	6547
2026-01-30 10:18:40.23	342.96	9.87	-31.5	-36.4	9.8	1.18e-02	0	43	0	1282408448	23	6299
2026-01-30 10:18:43.25	342.94	9.61	-31.5	-36.3	9.8	9.47e-03	0	43	0	1287651328	23	6254
2026-01-30 10:18:46.26	342.92	9.36	-31.4	-35.8	10.2	6.95e-03	0	43	0	1293942784	23	6006
2026-01-30 10:18:49.27	342.90	9.11	-31.3	-35.5	10.5	3.89e-03	0	43	0	1299185664	23	5834
2026-01-30 10:18:52.27	342.88	8.86	-31.2	-35.4	10.4	4.14e-03	0	43	0	1305477120	23	5836
2026-01-30 10:18:55.29	342.86	8.61	-31.3	-35.6	10.2	5.85e-03	0	43	0	1310720000	23	5946
2026-01-30 10:18:58.31	342.84	8.37	-31.1	-35.2	10.5	3.93e-03	0	43	0	1315962880	23	5730
2026-01-30 10:19:01.32	342.82	8.12	-31.1	-35.1	10.5	4.53e-03	0	43	0	1322254336	23	5708
2026-01-30 10:19:04.32	342.80	7.88	-31.0	-34.8	10.8	2.57e-03	0	43	0	1327497216	23	5538
2026-01-30 10:19:07.33	342.78	7.65	-31.0	-34.8	10.8	2.70e-03	0	44	0	1332740096	23	5550
2026-01-30 10:19:10.35	342.77	7.41	-31.0	-34.8	10.7	2.57e-03	0	43	0	1339031552	23	5557
2026-01-30 10:19:13.34	342.75	7.18	-31.0	-34.8	10.6	3.73e-03	0	43	0	1344274432	23	5604

#Closed at: 2026-01-30 10:19:15
#Recorded file [1347 MB]: D:/data/31010_260130_130715.dat