passes_logs/2026/01/30/R2M6_AANII_01/R2M6_AANII_01__20260130_112735_SUOMI_NPP_rec.log

#Pass ID: 20260130_112735_SUOMI NPP
#Satellite: SUOMI NPP
#Configuration: NPP
#almurnet v.1.7.20240730
#Start time: 2026-01-30 11:27:35

#Version: 2.2.20231116
#Station: R2M6_AANII_01
#Location: 30.233357 lon 59.946436 lat
#TLE: 1 37849U 11061A   26029.48304708  .00000140  00000+0  87283-4 0  9999
#TLE: 2 37849  98.7824 331.4079 0002024  38.4342 321.6978 14.19531488738761

#Time	Az	El	Level	Level2	SNR	BER	BlckErr	Temp	State	Recorded	gain1	gain2
2026-01-30 11:27:35.38	193.98	6.99	-31.2	-35.1	5.1	1.25e+00	0	41	0	0	23	5623
2026-01-30 11:27:38.39	194.17	7.21	-31.7	-36.5	6.9	1.59e-01	0	41	0	1048576	24	6309
2026-01-30 11:27:41.40	194.37	7.42	-31.3	-35.0	8.1	7.28e-02	0	41	0	7340032	24	5459
2026-01-30 11:27:44.40	194.57	7.64	-31.3	-35.2	8.3	3.55e-02	0	41	0	12582912	23	5634
2026-01-30 11:27:47.41	194.77	7.86	-31.2	-34.7	8.8	3.02e-02	0	41	0	17825792	23	5362
2026-01-30 11:27:50.41	194.98	8.08	-31.1	-34.5	8.9	2.17e-02	0	41	0	24117248	23	5286
2026-01-30 11:27:53.43	195.19	8.31	-30.6	-33.2	10.2	1.00e-02	0	41	0	29360128	22	4860
2026-01-30 11:27:56.44	195.40	8.53	-30.5	-32.9	10.5	4.46e-03	0	41	0	35651584	22	4723
2026-01-30 11:27:59.45	195.62	8.76	-30.6	-32.9	10.6	4.31e-03	0	41	0	40894464	22	4733
2026-01-30 11:28:02.47	195.84	8.99	-30.6	-33.0	10.4	5.59e-03	0	42	0	46137344	22	4751
2026-01-30 11:28:05.48	196.06	9.22	-30.3	-32.2	11.0	2.79e-03	0	42	0	52428800	22	4480
2026-01-30 11:28:08.49	196.28	9.45	-29.9	-31.6	11.3	1.12e-03	0	42	0	57671680	21	4378
2026-01-30 11:28:11.50	196.51	9.68	-29.6	-31.9	10.8	1.89e-03	0	42	0	63963136	20	4650
2026-01-30 11:28:14.50	196.74	9.92	-29.5	-31.4	11.2	1.52e-03	0	42	0	69206016	20	4466
2026-01-30 11:28:17.50	196.98	10.15	-29.4	-31.0	11.2	1.42e-03	0	42	0	74448896	20	4362
2026-01-30 11:28:20.50	197.22	10.39	-29.3	-31.3	11.5	1.04e-03	0	42	0	80740352	19	4534
2026-01-30 11:28:23.52	197.46	10.63	-29.2	-31.4	11.0	2.15e-03	0	42	0	85983232	19	4636
2026-01-30 11:28:26.52	197.71	10.88	-27.8	-30.8	8.7	1.89e-02	0	42	0	91226112	17	5115
2026-01-30 11:28:29.53	197.96	11.12	-25.2	-31.0	5.9	3.42e-01	0	42	0	97517568	11	6996
2026-01-30 11:28:32.54	198.22	11.37	-24.3	-30.7	5.0	6.40e-01	0	42	0	102760448	10	7520
2026-01-30 11:28:35.54	198.47	11.62	-23.9	-30.5	5.3	6.17e-01	0	42	0	109051904	8	7655
2026-01-30 11:28:38.55	198.74	11.87	-25.2	-31.3	6.0	4.42e-01	0	42	0	114294784	10	7264
2026-01-30 11:28:41.57	199.01	12.12	-27.2	-31.9	7.6	1.67e-01	0	42	0	119537664	14	6185
2026-01-30 11:28:44.59	199.28	12.38	-29.0	-32.9	9.2	1.69e-02	0	42	0	125829120	17	5638
2026-01-30 11:28:47.59	199.56	12.64	-29.2	-32.3	10.1	7.83e-03	0	42	0	131072000	18	5172
2026-01-30 11:28:50.61	199.84	12.90	-29.5	-32.4	10.4	4.09e-03	0	42	0	136314880	19	4999
2026-01-30 11:28:53.62	200.13	13.16	-29.5	-31.7	12.0	3.22e-04	0	42	0	142606336	19	4588
2026-01-30 11:28:56.62	200.42	13.42	-29.5	-31.4	12.4	1.36e-04	0	42	0	147849216	19	4461
2026-01-30 11:28:59.64	200.71	13.69	-29.4	-31.0	12.7	8.77e-05	0	43	0	154140672	19	4335
2026-01-30 11:29:02.64	201.02	13.96	-29.6	-31.6	12.4	1.26e-04	0	42	0	159383552	19	4516
2026-01-30 11:29:05.65	201.32	14.23	-29.6	-31.4	13.1	6.40e-05	0	42	0	164626432	19	4389
2026-01-30 11:29:08.65	201.63	14.50	-29.9	-32.0	12.7	6.02e-05	0	43	0	170917888	19	4605
2026-01-30 11:29:11.65	201.95	14.77	-29.8	-31.7	13.0	3.66e-05	0	43	0	176160768	19	4469
2026-01-30 11:29:14.67	202.28	15.05	-29.7	-31.5	13.1	3.58e-05	0	43	0	181403648	19	4407
2026-01-30 11:29:17.67	202.61	15.33	-29.7	-31.3	13.2	1.67e-05	0	42	0	187695104	19	4370
2026-01-30 11:29:20.68	202.94	15.61	-29.7	-31.4	13.2	3.96e-05	0	43	0	192937984	19	4370
2026-01-30 11:29:23.69	203.28	15.90	-29.8	-31.7	13.0	5.18e-05	0	42	0	199229440	19	4486
2026-01-30 11:29:26.71	203.63	16.19	-30.0	-31.6	12.8	3.20e-05	0	42	0	204472320	20	4352
2026-01-30 11:29:29.71	203.99	16.48	-30.1	-31.9	12.6	6.33e-05	0	43	0	209715200	20	4457
2026-01-30 11:29:32.72	204.35	16.77	-30.4	-32.9	12.0	1.52e-04	0	43	0	216006656	20	4773
2026-01-30 11:29:35.73	204.72	17.06	-30.6	-32.9	11.7	4.38e-04	0	43	0	221249536	21	4701
2026-01-30 11:29:38.73	205.09	17.36	-30.5	-32.6	11.9	3.79e-04	0	43	0	226492416	21	4595
2026-01-30 11:29:41.74	205.47	17.66	-30.8	-33.6	11.2	6.32e-04	0	43	0	232783872	21	4953
2026-01-30 11:29:44.75	205.86	17.96	-30.2	-31.8	12.5	1.75e-04	0	43	0	238026752	21	4295
2026-01-30 11:29:47.76	206.26	18.26	-29.9	-30.8	13.3	1.75e-05	0	43	0	244318208	21	3985
2026-01-30 11:29:50.77	206.67	18.57	-29.8	-31.1	13.4	9.10e-06	0	43	0	249561088	20	4172
2026-01-30 11:29:53.79	207.08	18.88	-29.7	-30.9	13.5	6.80e-06	0	43	0	254803968	20	4097
2026-01-30 11:29:56.80	207.50	19.19	-29.9	-31.3	13.3	1.98e-05	0	43	0	261095424	20	4247
2026-01-30 11:29:59.81	207.94	19.51	-30.1	-31.8	13.0	2.13e-05	0	43	0	266338304	20	4382
2026-01-30 11:30:02.82	208.37	19.82	-30.1	-31.8	13.0	3.12e-05	0	43	0	272629760	20	4394
2026-01-30 11:30:05.82	208.82	20.14	-30.1	-31.9	13.0	3.20e-05	0	43	0	277872640	20	4399
2026-01-30 11:30:08.83	209.28	20.46	-29.9	-31.1	13.4	1.60e-05	0	43	0	283115520	20	4179
2026-01-30 11:30:11.84	209.74	20.79	-29.7	-30.9	13.6	9.10e-06	0	43	0	289406976	20	4090
2026-01-30 11:30:14.83	210.22	21.11	-29.8	-30.9	13.5	1.14e-05	0	43	0	294649856	20	4106
2026-01-30 11:30:17.85	210.71	21.44	-30.2	-31.9	13.0	3.73e-05	0	43	0	299892736	20	4414
2026-01-30 11:30:20.87	211.20	21.77	-30.1	-31.8	13.1	2.44e-05	0	43	0	306184192	20	4361
2026-01-30 11:30:23.89	211.71	22.10	-30.2	-32.0	12.9	5.56e-05	0	43	0	311427072	20	4457
2026-01-30 11:30:26.90	212.23	22.44	-29.9	-31.3	13.4	7.55e-05	0	43	0	317718528	20	4227
2026-01-30 11:30:29.92	212.76	22.78	-29.6	-30.4	14.0	2.20e-06	0	43	0	322961408	20	3934
2026-01-30 11:30:32.93	213.30	23.11	-29.5	-30.2	14.2	1.50e-06	0	43	0	328204288	20	3882
2026-01-30 11:30:35.94	213.85	23.45	-29.7	-30.7	13.8	3.00e-06	0	43	0	334495744	20	4035
2026-01-30 11:30:38.95	214.41	23.80	-29.5	-30.1	14.3	7.00e-07	0	43	0	339738624	20	3846
2026-01-30 11:30:41.95	214.99	24.14	-29.6	-30.4	14.0	4.50e-06	0	43	0	346030080	20	3942
2026-01-30 11:30:44.97	215.58	24.49	-29.2	-29.9	14.8	7.00e-07	0	43	0	351272960	19	3874
2026-01-30 11:30:47.98	216.18	24.83	-29.6	-30.8	14.2	7.00e-07	0	43	0	356515840	19	4127
2026-01-30 11:30:50.99	216.79	25.18	-30.2	-32.0	13.1	1.44e-05	0	43	0	362807296	20	4418
2026-01-30 11:30:53.99	217.41	25.53	-29.7	-30.6	14.0	4.50e-06	0	43	0	368050176	20	4002
2026-01-30 11:30:57.01	218.06	25.88	-29.7	-30.6	14.0	0.00e+00	0	43	0	374341632	20	4004
2026-01-30 11:31:00.02	218.71	26.23	-29.9	-31.1	13.7	5.30e-06	0	43	0	379584512	20	4134
2026-01-30 11:31:03.03	219.38	26.58	-29.9	-31.1	13.7	1.06e-05	0	43	0	384827392	20	4148
2026-01-30 11:31:06.05	220.07	26.94	-30.2	-31.9	13.2	1.44e-05	0	43	0	391118848	20	4386
2026-01-30 11:31:09.06	220.76	27.29	-30.1	-31.8	13.2	3.12e-05	0	43	0	396361728	20	4375
2026-01-30 11:31:12.07	221.48	27.64	-29.8	-30.9	13.8	6.80e-06	0	43	0	401604608	20	4092
2026-01-30 11:31:15.08	222.21	27.99	-30.0	-31.5	13.4	7.60e-06	0	43	0	407896064	20	4278
2026-01-30 11:31:18.09	222.95	28.34	-29.4	-30.2	14.6	7.00e-07	0	43	0	413138944	19	3972
2026-01-30 11:31:21.10	223.71	28.69	-29.8	-31.2	14.0	7.00e-07	0	43	0	419430400	19	4264
2026-01-30 11:31:24.11	224.49	29.04	-29.9	-31.6	13.8	2.20e-06	0	43	0	424673280	19	4373
2026-01-30 11:31:27.12	225.28	29.39	-30.5	-32.2	12.7	4.95e-05	0	43	0	429916160	21	4394
2026-01-30 11:31:30.14	226.10	29.74	-30.4	-32.0	12.8	5.87e-05	0	43	0	436207616	21	4334
2026-01-30 11:31:33.14	226.92	30.08	-30.7	-32.7	12.4	1.34e-04	0	43	0	441450496	21	4541
2026-01-30 11:31:36.15	227.77	30.42	-30.4	-31.9	12.9	6.25e-05	0	43	0	447741952	21	4292
2026-01-30 11:31:39.15	228.63	30.76	-31.0	-33.1	11.8	7.17e-04	0	43	0	452984832	22	4611
2026-01-30 11:31:42.15	229.51	31.09	-31.5	-34.3	10.6	3.25e-03	0	43	0	458227712	23	4950
2026-01-30 11:31:45.17	230.41	31.43	-31.7	-34.9	10.2	8.22e-03	0	43	0	464519168	23	5204
2026-01-30 11:31:48.18	231.33	31.76	-31.7	-34.9	10.2	7.02e-03	0	43	0	469762048	23	5205
2026-01-30 11:31:51.19	232.26	32.08	-32.1	-35.9	9.0	1.92e-02	0	43	0	475004928	24	5588
2026-01-30 11:31:54.20	233.21	32.40	-31.6	-34.2	10.3	8.49e-03	0	43	0	481296384	24	4826
2026-01-30 11:31:57.20	234.18	32.71	-31.7	-34.2	10.4	6.69e-03	0	43	0	486539264	24	4836
2026-01-30 11:32:00.22	235.18	33.02	-32.1	-35.6	9.2	2.23e-02	0	43	0	492830720	24	5396
2026-01-30 11:32:03.22	236.18	33.32	-32.1	-35.7	9.2	2.01e-02	0	43	0	498073600	24	5458
2026-01-30 11:32:06.23	237.21	33.61	-31.6	-33.9	10.6	3.90e-03	0	43	0	503316480	24	4684
2026-01-30 11:32:09.25	238.26	33.90	-32.0	-35.2	9.6	7.54e-03	0	43	0	509607936	24	5228
2026-01-30 11:32:12.27	239.32	34.18	-32.0	-35.4	9.6	1.69e-02	0	43	0	514850816	24	5291
2026-01-30 11:32:15.27	240.40	34.45	-30.9	-32.1	12.4	2.72e-04	0	43	0	520093696	23	4164
2026-01-30 11:32:18.28	241.50	34.71	-31.6	-34.3	10.9	1.22e-03	0	43	0	526385152	23	4909
2026-01-30 11:32:21.30	242.62	34.96	-31.9	-35.0	9.9	1.11e-02	0	43	0	531628032	24	5113
2026-01-30 11:32:24.30	243.75	35.20	-31.1	-32.8	11.8	8.67e-04	0	43	0	537919488	23	4382
2026-01-30 11:32:27.32	244.90	35.43	-31.0	-32.5	12.1	3.46e-04	0	43	0	543162368	23	4276
2026-01-30 11:32:30.33	246.06	35.65	-31.1	-33.4	11.8	5.74e-04	0	43	0	548405248	22	4674
2026-01-30 11:32:33.33	247.24	35.85	-29.9	-30.4	14.0	2.20e-06	0	43	0	554696704	21	3822
2026-01-30 11:32:36.34	248.43	36.05	-30.4	-32.2	13.2	1.06e-05	0	43	0	559939584	20	4457
2026-01-30 11:32:39.35	249.63	36.23	-29.8	-30.6	14.3	3.80e-06	0	43	0	566231040	20	3953
2026-01-30 11:32:42.35	250.85	36.40	-29.9	-31.0	14.0	1.50e-06	0	43	0	571473920	20	4079
2026-01-30 11:32:45.36	252.08	36.55	-29.5	-30.1	14.6	3.00e-06	0	43	0	576716800	20	3816
2026-01-30 11:32:48.37	253.32	36.69	-30.0	-31.1	14.0	1.50e-06	0	43	0	583008256	20	4125
2026-01-30 11:32:51.39	254.58	36.82	-30.3	-31.9	13.5	1.14e-05	0	43	0	588251136	20	4341
2026-01-30 11:32:54.40	255.84	36.93	-30.0	-31.3	13.9	9.90e-06	0	43	0	593494016	20	4165
2026-01-30 11:32:57.42	257.11	37.03	-29.8	-30.6	14.3	1.50e-06	0	43	0	599785472	20	3955
2026-01-30 11:33:00.43	258.39	37.11	-30.5	-32.4	13.2	1.44e-05	0	43	0	605028352	20	4518
2026-01-30 11:33:03.44	259.67	37.18	-30.7	-32.6	12.7	5.34e-05	0	43	0	611319808	21	4489
2026-01-30 11:33:06.46	260.96	37.23	-30.7	-32.5	12.8	1.71e-04	0	43	0	616562688	21	4457
2026-01-30 11:33:09.47	262.25	37.26	-30.6	-32.4	12.8	5.03e-05	0	43	0	621805568	21	4400
2026-01-30 11:33:12.49	263.54	37.28	-31.0	-32.9	12.2	1.72e-04	0	43	0	628097024	22	4473
2026-01-30 11:33:15.49	264.83	37.28	-31.1	-33.2	12.0	5.58e-04	0	43	0	633339904	22	4594
2026-01-30 11:33:18.50	266.12	37.27	-30.7	-32.2	12.7	6.25e-05	0	43	0	639631360	22	4246
2026-01-30 11:33:21.51	267.41	37.24	-30.9	-32.7	12.4	8.23e-05	0	43	0	644874240	22	4409
2026-01-30 11:33:24.52	268.70	37.20	-31.9	-34.8	10.1	8.06e-03	0	43	0	650117120	24	5025
2026-01-30 11:33:27.54	269.98	37.13	-31.1	-32.8	11.9	3.81e-04	0	43	0	656408576	23	4362
2026-01-30 11:33:30.55	271.26	37.06	-30.7	-32.0	12.8	5.64e-05	0	43	0	661651456	22	4200
2026-01-30 11:33:33.56	272.53	36.97	-31.4	-34.1	11.4	6.81e-04	0	43	0	666894336	22	4914
2026-01-30 11:33:36.57	273.79	36.86	-31.1	-32.6	12.1	3.16e-04	0	43	0	673185792	23	4297
2026-01-30 11:33:39.58	275.04	36.74	-31.1	-32.7	11.9	4.80e-04	0	43	0	678428672	23	4326
2026-01-30 11:33:42.59	276.29	36.60	-31.0	-32.8	12.3	6.33e-05	0	43	0	684720128	22	4447
2026-01-30 11:33:45.60	277.52	36.45	-31.6	-34.2	10.9	2.35e-03	0	43	0	689963008	23	4878
2026-01-30 11:33:48.60	278.74	36.29	-32.1	-35.5	9.6	6.32e-03	0	43	0	695205888	24	5307
2026-01-30 11:33:51.62	279.95	36.11	-32.5	-36.8	8.2	4.79e-02	0	43	0	701497344	25	5848
2026-01-30 11:33:54.63	281.14	35.92	-32.8	-38.1	7.3	7.67e-02	0	43	0	706740224	25	6597
2026-01-30 11:33:57.65	282.33	35.71	-31.8	-34.0	10.4	6.01e-03	0	43	0	713031680	25	4608
2026-01-30 11:34:00.66	283.49	35.50	-32.9	-38.3	7.1	1.07e-01	0	43	0	718274560	25	6726
2026-01-30 11:34:03.68	284.64	35.27	-32.2	-35.2	9.4	2.74e-02	0	43	0	723517440	25	5083
2026-01-30 11:34:06.69	285.78	35.04	-31.8	-34.2	10.6	4.37e-03	0	43	0	729808896	24	4776
2026-01-30 11:34:09.70	286.90	34.79	-31.1	-32.6	12.0	1.98e-04	0	43	0	735051776	23	4303
2026-01-30 11:34:12.70	287.99	34.54	-32.4	-36.1	8.8	2.31e-02	0	43	0	740294656	25	5495
2026-01-30 11:34:15.71	289.07	34.27	-32.6	-37.0	8.1	7.56e-02	0	43	0	746586112	25	5946
2026-01-30 11:34:18.72	290.14	34.00	-32.6	-36.7	8.3	4.90e-02	0	43	0	751828992	25	5834
2026-01-30 11:34:21.72	291.18	33.71	-31.3	-32.7	11.7	1.49e-03	0	43	0	758120448	24	4230
2026-01-30 11:34:24.72	292.21	33.43	-30.8	-32.3	12.7	7.32e-05	0	43	0	763363328	22	4270
2026-01-30 11:34:27.73	293.22	33.13	-31.2	-33.5	11.8	3.32e-04	0	43	0	768606208	22	4677
2026-01-30 11:34:30.74	294.21	32.83	-31.3	-33.8	11.7	1.33e-04	0	43	0	774897664	22	4788
2026-01-30 11:34:33.76	295.19	32.52	-33.2	-39.2	5.9	2.23e-01	0	43	0	780140544	26	7253
2026-01-30 11:34:36.77	296.15	32.20	-30.2	-31.1	13.6	8.01e-05	0	43	0	785383424	21	4015
2026-01-30 11:34:39.78	297.09	31.88	-30.8	-32.8	12.7	2.82e-05	0	43	0	791674880	21	4526
2026-01-30 11:34:42.79	298.01	31.56	-29.9	-30.4	14.1	7.60e-06	0	43	0	796917760	21	3810
2026-01-30 11:34:45.80	298.91	31.23	-30.0	-31.2	14.0	2.20e-06	0	43	0	803209216	20	4138
2026-01-30 11:34:48.81	299.79	30.90	-30.1	-30.9	13.8	1.14e-05	0	43	0	808452096	21	3946
2026-01-30 11:34:51.82	300.66	30.56	-29.3	-29.8	15.1	0.00e+00	0	44	0	813694976	19	3830
2026-01-30 11:34:54.82	301.50	30.22	-30.8	-32.8	12.6	9.07e-05	0	44	0	819986432	21	4551
2026-01-30 11:34:57.83	302.33	29.88	-28.8	-29.1	15.9	0.00e+00	0	43	0	825229312	18	3731
2026-01-30 11:35:00.84	303.15	29.54	-30.6	-32.2	13.0	6.10e-06	0	43	0	831520768	21	4350
2026-01-30 11:35:03.84	303.94	29.19	-29.9	-30.6	14.0	1.75e-05	0	44	0	836763648	21	3863
2026-01-30 11:35:06.85	304.72	28.85	-30.5	-32.2	13.0	4.04e-05	0	43	0	842006528	21	4339
2026-01-30 11:35:09.85	305.48	28.50	-31.0	-33.1	12.0	6.62e-04	0	43	0	848297984	22	4562
2026-01-30 11:35:12.86	306.23	28.15	-30.0	-30.7	13.9	5.30e-06	0	43	0	853540864	21	3907
2026-01-30 11:35:15.87	306.96	27.80	-30.7	-32.5	12.7	6.94e-05	0	43	0	858783744	21	4450
2026-01-30 11:35:18.87	307.68	27.46	-29.0	-29.2	15.4	7.00e-07	0	43	0	865075200	19	3665
2026-01-30 11:35:21.88	308.38	27.11	-29.8	-31.1	14.3	0.00e+00	0	43	0	870318080	19	4190
2026-01-30 11:35:24.90	309.06	26.75	-30.8	-33.0	12.3	1.52e-04	0	43	0	876609536	21	4619
2026-01-30 11:35:27.91	309.74	26.41	-29.1	-29.3	15.4	7.00e-07	0	43	0	881852416	19	3706
2026-01-30 11:35:30.92	310.39	26.06	-30.0	-31.3	13.9	7.00e-07	0	43	0	887095296	20	4159
2026-01-30 11:35:33.93	311.04	25.71	-29.7	-30.6	14.2	2.20e-06	0	43	0	893386752	20	3959
2026-01-30 11:35:36.95	311.67	25.36	-29.9	-31.0	13.9	1.50e-06	0	43	0	898629632	20	4092
2026-01-30 11:35:39.96	312.28	25.02	-30.4	-32.3	13.1	2.13e-05	0	43	0	903872512	20	4497
2026-01-30 11:35:42.96	312.89	24.67	-30.8	-33.1	12.3	3.12e-04	0	43	0	910163968	21	4657
2026-01-30 11:35:45.97	313.48	24.33	-29.8	-30.2	14.1	7.00e-07	0	43	0	915406848	21	3775
2026-01-30 11:35:48.97	314.05	23.99	-29.8	-30.6	14.1	1.50e-06	0	43	0	921698304	20	3978
2026-01-30 11:35:51.97	314.62	23.65	-29.5	-29.9	14.6	0.00e+00	0	43	0	926941184	20	3790
2026-01-30 11:35:54.99	315.17	23.31	-28.8	-29.2	15.6	0.00e+00	0	43	0	932184064	18	3777
2026-01-30 11:35:58.00	315.71	22.97	-28.7	-28.9	15.8	0.00e+00	0	43	0	938475520	18	3705
2026-01-30 11:36:01.01	316.25	22.64	-29.3	-30.5	14.9	0.00e+00	0	43	0	943718400	18	4127
2026-01-30 11:36:04.01	316.76	22.31	-29.5	-30.4	14.6	0.00e+00	0	43	0	948961280	19	4012
2026-01-30 11:36:07.03	317.27	21.98	-29.3	-29.9	14.9	0.00e+00	0	43	0	955252736	19	3862
2026-01-30 11:36:10.04	317.77	21.65	-29.5	-30.4	14.6	0.00e+00	0	43	0	960495616	19	4009
2026-01-30 11:36:13.05	318.26	21.32	-29.2	-29.8	14.9	0.00e+00	0	43	0	966787072	19	3830
2026-01-30 11:36:16.06	318.74	21.00	-29.4	-30.2	14.7	0.00e+00	0	43	0	972029952	19	3944
2026-01-30 11:36:19.07	319.21	20.67	-29.4	-30.2	14.7	0.00e+00	0	43	0	977272832	19	3940
2026-01-30 11:36:22.07	319.67	20.36	-29.0	-29.3	15.2	0.00e+00	0	43	0	983564288	19	3725
2026-01-30 11:36:25.09	320.12	20.04	-29.2	-29.9	14.9	0.00e+00	0	43	0	988807168	19	3863
2026-01-30 11:36:28.10	320.56	19.72	-29.5	-30.6	14.4	0.00e+00	0	44	0	995098624	19	4056
2026-01-30 11:36:31.12	321.00	19.41	-29.3	-29.9	14.8	7.00e-07	0	43	0	1000341504	19	3883
2026-01-30 11:36:34.13	321.42	19.10	-29.0	-29.4	15.1	0.00e+00	0	43	0	1005584384	19	3733
2026-01-30 11:36:37.14	321.84	18.79	-29.1	-29.6	15.0	0.00e+00	0	43	0	1011875840	19	3792
2026-01-30 11:36:40.15	322.25	18.49	-29.8	-31.2	14.0	2.20e-06	0	43	0	1017118720	19	4252
2026-01-30 11:36:43.17	322.65	18.18	-30.4	-32.5	12.8	2.05e-05	0	43	0	1022361600	20	4572
2026-01-30 11:36:46.18	323.04	17.88	-30.8	-33.2	12.0	4.10e-04	0	43	0	1028653056	21	4722
2026-01-30 11:36:49.19	323.43	17.58	-30.9	-33.0	11.7	4.84e-04	0	43	0	1033895936	22	4566
2026-01-30 11:36:52.19	323.81	17.29	-30.8	-32.6	11.9	3.07e-04	0	43	0	1040187392	22	4446
2026-01-30 11:36:55.21	324.18	16.99	-30.1	-31.2	13.2	2.67e-05	0	43	0	1045430272	21	4070
2026-01-30 11:36:58.21	324.54	16.70	-30.2	-31.5	13.0	3.50e-05	0	44	0	1050673152	21	4172
2026-01-30 11:37:01.21	324.90	16.42	-30.4	-31.9	12.7	9.84e-05	0	43	0	1056964608	21	4310
2026-01-30 11:37:04.23	325.25	16.13	-30.5	-32.2	12.5	1.81e-04	0	43	0	1062207488	21	4417
2026-01-30 11:37:07.23	325.59	15.85	-30.3	-31.6	12.8	6.10e-05	0	43	0	1068498944	21	4225
2026-01-30 11:37:10.25	325.93	15.56	-30.0	-31.0	13.3	1.60e-05	0	43	0	1073741824	21	4015
2026-01-30 11:37:13.25	326.26	15.29	-30.0	-31.4	13.3	9.10e-06	0	43	0	1078984704	20	4244
2026-01-30 11:37:16.26	326.59	15.01	-30.2	-32.1	12.8	3.96e-05	0	43	0	1085276160	20	4447
2026-01-30 11:37:19.27	326.91	14.74	-30.1	-31.8	13.0	3.50e-05	0	43	0	1090519040	20	4356
2026-01-30 11:37:22.27	327.23	14.46	-30.3	-32.2	12.7	1.17e-04	0	44	0	1095761920	20	4512
2026-01-30 11:37:25.27	327.54	14.20	-29.8	-30.9	13.6	1.52e-05	0	43	0	1102053376	20	4090
2026-01-30 11:37:28.27	327.84	13.93	-29.6	-30.5	13.8	8.30e-06	0	43	0	1107296256	20	3965
2026-01-30 11:37:31.28	328.14	13.66	-29.6	-30.4	13.9	2.20e-06	0	43	0	1112539136	20	3962
2026-01-30 11:37:34.30	328.43	13.40	-30.0	-31.6	13.1	1.75e-05	0	43	0	1118830592	20	4315
2026-01-30 11:37:37.30	328.72	13.14	-30.1	-31.7	13.0	3.43e-05	0	43	0	1124073472	20	4337
2026-01-30 11:37:40.31	329.01	12.88	-30.3	-32.4	12.5	1.32e-04	0	43	0	1130364928	20	4590
2026-01-30 11:37:43.32	329.29	12.63	-30.4	-32.6	12.4	1.47e-04	0	43	0	1135607808	20	4639
2026-01-30 11:37:46.34	329.56	12.37	-30.2	-32.0	12.8	7.40e-05	0	44	0	1140850688	20	4456
2026-01-30 11:37:49.35	329.84	12.12	-30.2	-32.2	12.6	1.10e-04	0	43	0	1147142144	20	4513
2026-01-30 11:37:52.36	330.10	11.87	-30.2	-32.2	12.6	1.22e-04	0	43	0	1152385024	20	4509
2026-01-30 11:37:55.37	330.36	11.62	-30.4	-32.3	12.2	2.04e-04	0	43	0	1158676480	21	4462
2026-01-30 11:37:58.38	330.62	11.37	-30.7	-33.0	11.6	5.45e-04	0	43	0	1163919360	21	4723
2026-01-30 11:38:01.39	330.88	11.13	-30.6	-32.9	11.7	6.82e-04	0	43	0	1169162240	21	4701
2026-01-30 11:38:04.40	331.13	10.89	-30.6	-33.0	11.6	7.00e-04	0	44	0	1175453696	21	4727
2026-01-30 11:38:07.41	331.37	10.65	-30.5	-32.5	11.9	5.00e-04	0	43	0	1180696576	21	4545
2026-01-30 11:38:10.42	331.62	10.41	-30.5	-32.5	11.9	3.78e-04	0	43	0	1185939456	21	4539
2026-01-30 11:38:13.42	331.85	10.17	-30.0	-31.1	12.8	8.92e-05	0	43	0	1192230912	21	4097
2026-01-30 11:38:16.44	332.09	9.94	-29.9	-30.8	13.0	6.02e-05	0	43	0	1197473792	21	4006
2026-01-30 11:38:19.44	332.32	9.70	-30.1	-31.4	12.6	5.26e-05	0	43	0	1203765248	21	4173
2026-01-30 11:38:22.46	332.55	9.47	-30.0	-31.1	12.8	5.34e-05	0	43	0	1209008128	21	4083
2026-01-30 11:38:25.47	332.78	9.24	-30.0	-31.1	12.8	9.07e-05	0	43	0	1214251008	21	4094
2026-01-30 11:38:28.48	333.00	9.02	-30.1	-31.6	12.4	1.27e-04	0	43	0	1220542464	21	4266
2026-01-30 11:38:31.49	333.22	8.79	-30.3	-32.0	12.1	2.96e-04	0	43	0	1225785344	21	4393
2026-01-30 11:38:34.50	333.43	8.57	-30.3	-32.0	12.1	2.68e-04	0	43	0	1232076800	21	4373
2026-01-30 11:38:37.52	333.64	8.34	-30.4	-32.4	11.8	4.21e-04	0	43	0	1237319680	21	4523
2026-01-30 11:38:40.52	333.85	8.12	-30.5	-32.8	11.5	8.32e-04	0	43	0	1242562560	21	4665
2026-01-30 11:38:43.53	334.06	7.90	-30.3	-32.2	11.9	4.10e-04	0	43	0	1248854016	21	4468
2026-01-30 11:38:46.54	334.26	7.69	-30.4	-32.5	11.7	8.19e-04	0	44	0	1254096896	21	4560
2026-01-30 11:38:49.56	334.46	7.47	-30.4	-32.6	11.6	7.72e-04	0	43	0	1259339776	21	4595
2026-01-30 11:38:52.57	334.66	7.25	-30.6	-33.1	11.2	1.32e-03	0	43	0	1265631232	21	4785
2026-01-30 11:38:55.58	334.86	7.04	-33.2	-45.2	3.7	3.37e-03	0	44	104	1270874112	26	14401

#Closed at: 2026-01-30 11:38:58
#Recorded file [1270 MB]: D:/data/31010_260130_142737.dat