passes_logs/2026/01/30/R2M6_AANII_01/R2M6_AANII_01__20260130_003213_AQUA_rec.log

#Pass ID: 20260130_003213_AQUA
#Satellite: AQUA
#Configuration: AQUA
#almurnet v.1.7.20240730
#Start time: 2026-01-30 00:32:13

#Version: 2.2.20231116
#Station: R2M6_AANII_01
#Location: 30.233357 lon 59.946436 lat
#TLE: 1 27424U 02022A   26028.91948147  .00001781  00000+0  36607-3 0  9997
#TLE: 2 27424  98.4103 355.5827 0001815  62.4290   1.4641 14.61871847262923

#Time	Az	El	Level	Level2	SNR	BER	BlckErr	Temp	State	Recorded	gain1	gain2
2026-01-30 00:32:13.56	32.48	7.01	-31.3	-37.3	5.2	7.09e-01	0	41	0	0	23	7162
2026-01-30 00:32:16.57	32.81	7.21	-32.3	-39.8	12.1	6.09e-01	0	41	0	1572864	25	8487
2026-01-30 00:32:19.57	33.15	7.40	-32.0	-38.5	13.5	6.02e-01	0	41	0	7340032	24	7600
2026-01-30 00:32:22.59	33.49	7.60	-31.3	-36.5	15.5	6.00e-01	0	41	0	13107200	23	6522
2026-01-30 00:32:25.59	33.84	7.80	-30.9	-35.5	16.6	6.00e-01	0	41	0	18350080	22	6090
2026-01-30 00:32:28.60	34.19	8.00	-30.7	-34.6	17.2	6.01e-01	0	41	0	24117248	22	5693
2026-01-30 00:32:31.60	34.55	8.20	-30.5	-34.8	17.4	6.01e-01	0	42	0	29884416	21	5875
2026-01-30 00:32:34.60	34.91	8.40	-30.5	-34.3	17.4	6.03e-01	0	42	0	35651584	22	5577
2026-01-30 00:32:37.61	35.28	8.60	-30.5	-34.5	17.6	6.02e-01	0	42	0	41418752	21	5749
2026-01-30 00:32:40.63	35.66	8.81	-30.5	-34.5	17.6	6.00e-01	0	42	0	46661632	21	5752
2026-01-30 00:32:43.63	36.03	9.01	-30.3	-34.0	18.0	6.03e-01	0	42	0	52428800	21	5497
2026-01-30 00:32:46.65	36.42	9.22	-30.2	-33.8	18.0	5.99e-01	0	42	0	58195968	21	5465
2026-01-30 00:32:49.66	36.81	9.42	-30.0	-33.6	18.2	6.00e-01	0	42	0	63438848	21	5443
2026-01-30 00:32:52.68	37.21	9.63	-30.1	-33.6	18.3	6.03e-01	0	42	0	69206016	21	5368
2026-01-30 00:32:55.69	37.61	9.84	-29.9	-33.5	18.2	6.01e-01	0	42	0	74973184	21	5395
2026-01-30 00:32:58.70	38.02	10.04	-30.1	-33.6	18.3	6.02e-01	0	42	0	80740352	21	5388
2026-01-30 00:33:01.71	38.44	10.25	-30.2	-33.6	18.3	6.04e-01	0	42	0	86507520	21	5364
2026-01-30 00:33:04.72	38.86	10.46	-30.1	-33.5	18.5	6.01e-01	0	42	0	91750400	21	5290
2026-01-30 00:33:07.73	39.28	10.67	-30.1	-33.4	18.5	6.01e-01	0	42	0	97517568	21	5236
2026-01-30 00:33:10.74	39.72	10.89	-30.2	-33.5	18.5	5.99e-01	0	42	0	103284736	21	5282
2026-01-30 00:33:13.76	40.16	11.10	-30.0	-33.5	18.8	6.03e-01	0	42	0	109051904	20	5401
2026-01-30 00:33:16.77	40.61	11.31	-30.0	-33.6	18.8	6.01e-01	0	42	0	114819072	20	5434
2026-01-30 00:33:19.78	41.06	11.52	-29.9	-33.3	19.0	6.01e-01	0	42	0	120061952	20	5328
2026-01-30 00:33:22.78	41.52	11.74	-30.0	-33.4	19.0	6.02e-01	0	43	0	125829120	20	5348
2026-01-30 00:33:25.79	41.99	11.95	-30.1	-33.4	18.7	6.02e-01	0	43	0	131596288	21	5214
2026-01-30 00:33:28.79	42.46	12.16	-30.0	-33.0	19.1	6.01e-01	0	43	0	136839168	21	5055
2026-01-30 00:33:31.81	42.94	12.38	-30.0	-32.9	19.1	6.01e-01	0	43	0	142606336	21	5039
2026-01-30 00:33:34.82	43.43	12.60	-30.0	-32.9	19.1	6.01e-01	0	42	0	148373504	21	5040
2026-01-30 00:33:37.83	43.93	12.81	-29.9	-33.1	19.4	6.02e-01	0	43	0	154140672	20	5199
2026-01-30 00:33:40.83	44.43	13.03	-29.8	-33.0	19.4	6.01e-01	0	43	0	159907840	20	5168
2026-01-30 00:33:43.84	44.95	13.24	-29.9	-33.2	19.4	6.02e-01	0	43	0	165150720	20	5248
2026-01-30 00:33:46.85	45.47	13.46	-30.0	-32.8	19.2	6.02e-01	0	43	0	170917888	21	4991
2026-01-30 00:33:49.87	46.00	13.68	-29.9	-32.5	19.5	5.99e-01	0	43	0	176685056	21	4872
2026-01-30 00:33:52.87	46.53	13.89	-29.9	-32.5	19.5	5.99e-01	0	43	0	182452224	21	4851
2026-01-30 00:33:55.88	47.08	14.11	-29.8	-32.9	19.6	6.01e-01	0	43	0	187695104	20	5107
2026-01-30 00:33:58.88	47.63	14.33	-29.9	-33.0	19.5	6.01e-01	0	43	0	193462272	20	5173
2026-01-30 00:34:01.89	48.19	14.54	-29.7	-32.5	19.8	6.02e-01	0	43	0	199229440	20	4993
2026-01-30 00:34:04.90	48.76	14.76	-29.8	-32.9	19.6	6.01e-01	0	43	0	204996608	20	5100
2026-01-30 00:34:07.91	49.34	14.97	-29.8	-32.8	19.6	6.05e-01	0	43	0	210239488	20	5075
2026-01-30 00:34:10.91	49.93	15.19	-29.8	-32.7	19.7	6.02e-01	0	43	0	216006656	20	5058
2026-01-30 00:34:13.92	50.52	15.40	-29.7	-32.6	19.8	6.03e-01	0	43	0	221773824	20	5021
2026-01-30 00:34:16.93	51.13	15.61	-29.8	-32.8	19.7	6.03e-01	0	43	0	227540992	20	5056
2026-01-30 00:34:19.93	51.74	15.83	-29.7	-32.4	19.9	6.01e-01	0	43	0	232783872	20	4926
2026-01-30 00:34:22.95	52.37	16.04	-29.8	-32.7	19.7	6.01e-01	0	43	0	238551040	20	5037
2026-01-30 00:34:25.96	53.00	16.25	-29.9	-33.0	19.6	6.03e-01	0	43	0	244318208	20	5131
2026-01-30 00:34:28.97	53.64	16.46	-29.6	-32.3	20.0	6.02e-01	0	43	0	250085376	20	4911
2026-01-30 00:34:31.98	54.30	16.67	-29.7	-32.4	20.0	6.03e-01	0	43	0	255328256	20	4915
2026-01-30 00:34:34.99	54.96	16.87	-29.7	-32.4	19.9	6.01e-01	0	43	0	261095424	20	4923
2026-01-30 00:34:38.01	55.63	17.08	-30.0	-33.2	19.6	6.02e-01	0	43	0	266862592	20	5196
2026-01-30 00:34:41.02	56.31	17.28	-30.0	-32.8	19.5	6.01e-01	0	43	0	272629760	21	4947
2026-01-30 00:34:44.02	57.00	17.48	-29.8	-32.7	19.8	5.98e-01	0	43	0	278396928	20	5020
2026-01-30 00:34:47.03	57.70	17.68	-29.8	-32.7	19.8	6.01e-01	0	43	0	283639808	20	5031
2026-01-30 00:34:50.03	58.40	17.88	-29.7	-32.4	20.0	6.00e-01	0	43	0	289406976	20	4926
2026-01-30 00:34:53.05	59.13	18.07	-29.9	-32.8	19.8	6.01e-01	0	43	0	295174144	20	5075
2026-01-30 00:34:56.06	59.85	18.27	-29.8	-32.7	19.9	6.02e-01	0	43	0	300941312	20	5007
2026-01-30 00:34:59.07	60.59	18.46	-29.8	-32.6	19.9	6.01e-01	0	43	0	306184192	20	4986
2026-01-30 00:35:02.07	61.34	18.64	-29.7	-32.5	20.0	6.02e-01	0	43	0	311951360	20	4951
2026-01-30 00:35:05.07	62.09	18.83	-29.8	-32.8	19.8	6.02e-01	0	43	0	317718528	20	5055
2026-01-30 00:35:08.08	62.86	19.01	-29.7	-32.4	20.1	6.00e-01	0	43	0	323485696	20	4916
2026-01-30 00:35:11.10	63.64	19.18	-29.9	-32.9	19.8	6.03e-01	0	43	0	328728576	20	5081
2026-01-30 00:35:14.11	64.42	19.36	-30.0	-33.1	19.7	6.00e-01	0	43	0	334495744	20	5169
2026-01-30 00:35:17.13	65.22	19.53	-29.9	-32.9	19.9	6.03e-01	0	43	0	340262912	20	5079
2026-01-30 00:35:20.13	66.02	19.69	-29.8	-32.7	20.0	6.00e-01	0	43	0	346030080	20	5002
2026-01-30 00:35:23.14	66.83	19.85	-29.8	-32.6	20.0	6.00e-01	0	43	0	351272960	20	4981
2026-01-30 00:35:26.14	67.65	20.01	-29.8	-32.8	19.9	6.02e-01	0	43	0	357040128	20	5047
2026-01-30 00:35:29.16	68.48	20.16	-30.0	-33.3	19.5	6.01e-01	0	43	0	362807296	20	5235
2026-01-30 00:35:32.17	69.32	20.31	-30.2	-33.3	19.2	6.02e-01	0	43	0	368574464	21	5137
2026-01-30 00:35:35.19	70.17	20.45	-30.2	-33.3	19.2	6.02e-01	0	43	0	374341632	21	5126
2026-01-30 00:35:38.18	71.02	20.59	-30.3	-33.4	19.1	6.02e-01	0	43	0	379584512	21	5147
2026-01-30 00:35:41.18	71.88	20.72	-30.0	-32.5	19.8	6.02e-01	0	43	0	385351680	21	4847
2026-01-30 00:35:44.19	72.75	20.85	-30.0	-32.7	19.6	6.03e-01	0	43	0	391118848	21	4904
2026-01-30 00:35:47.21	73.63	20.97	-30.1	-33.0	19.4	6.01e-01	0	43	0	396361728	21	5006
2026-01-30 00:35:50.22	74.52	21.08	-30.2	-33.2	19.3	6.01e-01	0	43	0	402128896	21	5088
2026-01-30 00:35:53.23	75.41	21.19	-30.0	-32.7	19.6	6.00e-01	0	43	0	407896064	21	4903
2026-01-30 00:35:56.25	76.31	21.29	-30.1	-32.9	19.5	6.02e-01	0	43	0	413663232	21	4966
2026-01-30 00:35:59.26	77.21	21.39	-30.0	-32.7	19.7	6.03e-01	0	43	0	419430400	21	4890
2026-01-30 00:36:02.28	78.13	21.48	-30.0	-32.8	19.6	6.02e-01	0	43	0	424673280	21	4934
2026-01-30 00:36:05.30	79.04	21.56	-30.1	-33.0	19.4	6.03e-01	0	43	0	430440448	21	5018
2026-01-30 00:36:08.30	79.96	21.64	-30.0	-32.7	19.7	6.03e-01	0	43	0	436207616	21	4902
2026-01-30 00:36:11.31	80.89	21.71	-30.2	-33.1	19.4	6.00e-01	0	43	0	441974784	21	5050
2026-01-30 00:36:14.32	81.81	21.77	-30.1	-33.4	19.6	6.01e-01	0	43	0	447741952	20	5273
2026-01-30 00:36:17.32	82.74	21.82	-30.2	-33.2	19.4	6.00e-01	0	43	0	452984832	21	5068
2026-01-30 00:36:20.33	83.68	21.87	-30.2	-33.1	19.4	6.00e-01	0	43	0	458752000	21	5042
2026-01-30 00:36:23.34	84.62	21.91	-30.3	-33.5	19.2	6.01e-01	0	43	0	464519168	21	5198
2026-01-30 00:36:26.34	85.55	21.94	-30.0	-32.8	19.6	6.01e-01	0	43	0	469762048	21	4940
2026-01-30 00:36:29.36	86.50	21.97	-30.0	-32.7	19.6	6.01e-01	0	43	0	475529216	21	4911
2026-01-30 00:36:32.36	87.44	21.99	-30.1	-33.3	19.6	6.03e-01	0	44	0	481296384	20	5238
2026-01-30 00:36:35.37	88.39	22.00	-30.0	-32.7	19.7	6.03e-01	0	43	0	487063552	21	4907
2026-01-30 00:36:38.39	89.33	22.00	-30.0	-32.7	19.6	6.01e-01	0	43	0	492830720	21	4915
2026-01-30 00:36:41.39	90.28	21.99	-30.0	-32.7	19.7	6.02e-01	0	43	0	498073600	21	4908
2026-01-30 00:36:44.40	91.22	21.98	-30.0	-32.7	19.6	6.03e-01	0	43	0	503840768	21	4924
2026-01-30 00:36:47.42	92.17	21.96	-30.1	-33.0	19.4	6.00e-01	0	43	0	509607936	21	5023
2026-01-30 00:36:50.43	93.11	21.93	-29.9	-32.6	19.8	6.00e-01	0	43	0	515375104	21	4870
2026-01-30 00:36:53.45	94.05	21.90	-29.9	-32.5	19.7	6.04e-01	0	43	0	520617984	21	4840
2026-01-30 00:36:56.46	94.99	21.85	-29.9	-32.5	19.7	6.00e-01	0	43	0	526385152	21	4854
2026-01-30 00:36:59.47	95.93	21.80	-30.1	-32.9	19.5	6.03e-01	0	43	0	532152320	21	4970
2026-01-30 00:37:02.48	96.86	21.75	-30.0	-32.7	19.6	6.02e-01	0	43	0	537919488	21	4915
2026-01-30 00:37:05.49	97.79	21.68	-30.0	-32.7	19.6	6.01e-01	0	43	0	543162368	21	4911
2026-01-30 00:37:08.50	98.71	21.61	-30.0	-32.7	19.6	6.02e-01	0	43	0	548929536	21	4933
2026-01-30 00:37:11.52	99.63	21.53	-30.1	-32.9	19.5	6.02e-01	0	43	0	554696704	21	4981
2026-01-30 00:37:14.54	100.55	21.44	-30.2	-33.2	19.2	6.01e-01	0	43	0	560463872	21	5107
2026-01-30 00:37:17.54	101.46	21.35	-30.1	-33.0	19.3	6.02e-01	0	43	0	566231040	21	5045
2026-01-30 00:37:20.55	102.36	21.25	-29.9	-32.4	19.7	6.00e-01	0	43	0	571473920	21	4825
2026-01-30 00:37:23.57	103.26	21.15	-29.9	-32.4	19.7	6.02e-01	0	43	0	577241088	21	4820
2026-01-30 00:37:26.58	104.15	21.03	-29.9	-32.6	19.6	5.99e-01	0	43	0	583008256	21	4887
2026-01-30 00:37:29.59	105.04	20.92	-29.9	-32.6	19.6	6.02e-01	0	43	0	588775424	21	4870
2026-01-30 00:37:32.60	105.91	20.79	-29.8	-32.7	19.8	5.99e-01	0	43	0	594018304	20	5039
2026-01-30 00:37:35.61	106.78	20.66	-30.0	-33.2	19.5	6.03e-01	0	43	0	599785472	20	5197
2026-01-30 00:37:38.63	107.65	20.53	-29.9	-33.0	19.7	6.02e-01	0	43	0	605552640	20	5128
2026-01-30 00:37:41.64	108.50	20.39	-30.0	-33.2	19.5	6.04e-01	0	43	0	611319808	20	5233
2026-01-30 00:37:44.65	109.35	20.24	-30.3	-33.6	18.9	6.02e-01	0	43	0	616562688	21	5266
2026-01-30 00:37:47.66	110.19	20.09	-30.1	-33.5	19.3	6.03e-01	0	43	0	622329856	20	5325
2026-01-30 00:37:50.67	111.02	19.94	-30.1	-33.2	19.2	6.02e-01	0	43	0	628097024	21	5118
2026-01-30 00:37:53.68	111.84	19.78	-29.9	-33.0	19.5	6.00e-01	0	43	0	633864192	20	5194
2026-01-30 00:37:56.69	112.65	19.61	-29.9	-33.1	19.4	6.05e-01	0	43	0	639631360	20	5215
2026-01-30 00:37:59.70	113.45	19.45	-29.7	-32.7	19.6	5.99e-01	0	43	0	644874240	20	5079
2026-01-30 00:38:02.70	114.24	19.27	-29.8	-33.0	19.4	6.04e-01	0	43	0	650641408	20	5221
2026-01-30 00:38:05.71	115.03	19.10	-29.9	-33.0	19.5	6.01e-01	0	43	0	656408576	20	5190
2026-01-30 00:38:08.71	115.80	18.92	-29.8	-32.8	19.7	6.04e-01	0	43	0	662175744	20	5085
2026-01-30 00:38:11.71	116.56	18.74	-29.8	-32.9	19.6	6.01e-01	0	43	0	667418624	20	5158
2026-01-30 00:38:14.73	117.32	18.55	-29.7	-32.6	19.6	5.98e-01	0	43	0	673185792	20	5075
2026-01-30 00:38:17.75	118.07	18.36	-29.8	-33.0	19.5	6.02e-01	0	43	0	678952960	20	5172
2026-01-30 00:38:20.76	118.81	18.17	-29.6	-32.4	19.9	6.00e-01	0	43	0	684720128	20	4956
2026-01-30 00:38:23.77	119.54	17.97	-29.7	-32.7	19.6	6.01e-01	0	43	0	689963008	20	5087
2026-01-30 00:38:26.79	120.26	17.78	-29.7	-32.6	19.6	6.02e-01	0	43	0	695730176	20	5047
2026-01-30 00:38:29.80	120.96	17.58	-29.6	-32.5	19.7	6.02e-01	0	43	0	701497344	20	5015
2026-01-30 00:38:32.82	121.66	17.37	-29.8	-32.9	19.5	6.00e-01	0	43	0	707264512	20	5142
2026-01-30 00:38:35.82	122.35	17.17	-29.6	-32.3	19.8	6.01e-01	0	44	0	713031680	20	4918
2026-01-30 00:38:38.84	123.03	16.96	-29.5	-32.3	19.8	6.01e-01	0	44	0	718274560	20	4925
2026-01-30 00:38:41.84	123.70	16.76	-29.5	-32.2	19.9	6.01e-01	0	43	0	724041728	20	4914
2026-01-30 00:38:44.85	124.36	16.55	-29.6	-32.5	19.7	6.02e-01	0	43	0	729808896	20	5006
2026-01-30 00:38:47.85	125.01	16.34	-29.7	-32.5	19.6	6.01e-01	0	43	0	735051776	20	5013
2026-01-30 00:38:50.85	125.65	16.13	-29.5	-32.1	19.8	5.99e-01	0	43	0	740818944	20	4899
2026-01-30 00:38:53.85	126.28	15.92	-29.5	-32.2	19.7	6.00e-01	0	43	0	746586112	20	4940
2026-01-30 00:38:56.86	126.90	15.70	-29.6	-32.4	19.7	6.04e-01	0	43	0	752353280	20	4996
2026-01-30 00:38:59.86	127.51	15.49	-29.5	-32.4	19.6	6.00e-01	0	43	0	758120448	20	4997
2026-01-30 00:39:02.87	128.12	15.27	-29.3	-32.2	19.6	6.02e-01	0	43	0	763363328	20	5022
2026-01-30 00:39:05.88	128.71	15.06	-29.5	-32.7	19.2	6.03e-01	0	43	0	769130496	20	5170
2026-01-30 00:39:08.88	129.30	14.84	-29.7	-32.8	19.3	6.02e-01	0	44	0	774897664	20	5131
2026-01-30 00:39:11.90	129.88	14.62	-29.6	-32.5	19.5	6.02e-01	0	43	0	780140544	20	5031
2026-01-30 00:39:14.90	130.44	14.40	-29.6	-32.6	19.4	6.00e-01	0	43	0	785907712	20	5100
2026-01-30 00:39:17.91	131.00	14.19	-29.6	-32.7	19.3	6.01e-01	0	43	0	791674880	20	5118
2026-01-30 00:39:20.91	131.55	13.97	-29.8	-33.0	19.1	6.01e-01	0	43	0	797442048	20	5219
2026-01-30 00:39:23.92	132.10	13.75	-29.5	-32.8	19.0	6.01e-01	0	43	0	803209216	20	5252
2026-01-30 00:39:26.93	132.63	13.53	-29.6	-32.8	19.0	6.00e-01	0	43	0	808452096	20	5232
2026-01-30 00:39:29.94	133.16	13.31	-29.9	-33.3	18.9	6.00e-01	0	43	0	814219264	20	5330
2026-01-30 00:39:32.96	133.68	13.09	-29.7	-33.1	18.9	6.01e-01	0	43	0	819986432	20	5327
2026-01-30 00:39:35.97	134.19	12.88	-29.8	-33.6	18.5	6.00e-01	0	43	0	825753600	20	5546
2026-01-30 00:39:38.98	134.69	12.66	-29.8	-33.2	18.8	6.02e-01	0	43	0	830996480	20	5366
2026-01-30 00:39:42.00	135.19	12.44	-29.9	-33.6	18.5	6.01e-01	0	44	0	836763648	20	5501
2026-01-30 00:39:45.01	135.68	12.22	-29.7	-33.3	18.6	6.01e-01	0	43	0	842530816	20	5448
2026-01-30 00:39:48.03	136.16	12.01	-29.7	-33.2	18.7	5.98e-01	0	43	0	848297984	20	5413
2026-01-30 00:39:51.06	136.64	11.79	-29.4	-32.9	18.6	6.03e-01	0	43	0	853540864	20	5379
2026-01-30 00:39:54.07	137.10	11.57	-29.5	-33.6	18.5	6.00e-01	0	44	0	859308032	19	5749
2026-01-30 00:39:57.10	137.57	11.35	-29.8	-33.6	18.2	6.01e-01	0	43	0	865075200	20	5574
2026-01-30 00:40:00.11	138.02	11.14	-30.1	-34.1	17.9	5.99e-01	0	44	0	870842368	20	5756
2026-01-30 00:40:03.11	138.46	10.93	-30.0	-33.9	17.7	6.03e-01	0	43	0	876609536	21	5632
2026-01-30 00:40:06.11	138.90	10.71	-30.1	-34.0	17.6	6.02e-01	0	44	0	881852416	21	5621
2026-01-30 00:40:09.13	139.33	10.50	-30.3	-34.3	17.5	6.01e-01	0	43	0	887619584	21	5730
2026-01-30 00:40:12.14	139.76	10.29	-29.9	-33.3	18.0	6.02e-01	0	43	0	893386752	21	5348
2026-01-30 00:40:15.15	140.18	10.08	-29.7	-33.5	18.2	6.02e-01	0	43	0	899153920	20	5586
2026-01-30 00:40:18.15	140.59	9.87	-29.9	-33.8	17.9	6.03e-01	0	43	0	904396800	20	5693
2026-01-30 00:40:21.16	140.99	9.66	-30.0	-34.1	17.8	6.01e-01	0	44	0	910163968	20	5769
2026-01-30 00:40:24.18	141.40	9.45	-30.1	-34.0	17.6	6.03e-01	0	43	0	915931136	21	5592
2026-01-30 00:40:27.19	141.79	9.24	-30.3	-34.4	17.3	6.02e-01	0	43	0	921698304	21	5770
2026-01-30 00:40:30.20	142.18	9.03	-30.4	-34.8	16.9	5.99e-01	0	44	0	927465472	21	5981
2026-01-30 00:40:33.22	142.56	8.82	-30.2	-34.2	17.1	6.01e-01	0	44	0	932708352	21	5738
2026-01-30 00:40:36.22	142.94	8.62	-28.7	-33.1	16.8	5.99e-01	0	43	0	938475520	20	5983
2026-01-30 00:40:39.22	143.31	8.42	-30.2	-34.2	16.8	6.02e-01	0	43	0	944242688	21	5755
2026-01-30 00:40:42.22	143.67	8.21	-30.0	-34.5	16.0	6.04e-01	0	43	0	950009856	20	6051
2026-01-30 00:40:45.23	144.03	8.01	-30.0	-34.9	15.9	6.02e-01	0	43	0	955252736	20	6310
2026-01-30 00:40:48.24	144.39	7.81	-29.7	-34.2	16.9	6.00e-01	0	44	0	961019904	20	6034
2026-01-30 00:40:51.24	144.74	7.61	-30.3	-34.9	16.4	6.02e-01	0	44	0	966787072	21	6112
2026-01-30 00:40:54.24	145.08	7.41	-30.5	-35.5	16.0	6.01e-01	0	44	0	972554240	21	6403
2026-01-30 00:40:57.24	145.42	7.21	-30.4	-35.2	16.3	6.02e-01	0	43	0	977797120	21	6256
2026-01-30 00:41:00.25	145.76	7.01	-32.9	-52.2	3.9	7.42e-01	0	43	104	981991424	27	33087

#Closed at: 2026-01-30 00:41:02
#Recorded file [981 MB]: D:/data/31010_260130_033215.dat