passes_logs/2026/01/30/R2M6_AANII_01/R2M6_AANII_01__20260130_104425_FENGYUN_3D_rec.log

#Pass ID: 20260130_104425_FENGYUN 3D
#Satellite: FENGYUN 3D
#Configuration: FENGYUN 3D
#almurnet v.1.7.20240730
#Start time: 2026-01-30 10:44:26

#Version: 2.2.20231116
#Station: R2M6_AANII_01
#Location: 30.233357 lon 59.946436 lat
#TLE: 1 43010U 17072A   26029.52179110  .00000394  00000+0  20818-3 0  9997
#TLE: 2 43010  98.9957   1.5649 0002507  83.7772 276.3689 14.19703315425310

#Time	Az	El	Level	Level2	SNR	BER	BlckErr	Temp	State	Recorded	gain1	gain2
2026-01-30 10:44:26.18	109.03	7.05	-29.5	-32.2	5.3	7.83e-01	0	40	0	0	20	4921
2026-01-30 10:44:29.20	108.79	7.25	-29.4	-31.8	10.0	1.24e-02	0	40	0	5242880	20	4757
2026-01-30 10:44:32.23	108.55	7.46	-29.6	-32.3	9.8	1.25e-02	0	40	0	22020096	20	4945
2026-01-30 10:44:35.25	108.30	7.67	-28.8	-30.8	11.2	2.87e-03	0	40	0	39845888	19	4501
2026-01-30 10:44:38.26	108.05	7.88	-27.7	-29.5	13.0	1.02e-04	0	40	0	56623104	16	4414
2026-01-30 10:44:41.27	107.79	8.09	-26.8	-28.3	14.2	3.40e-06	0	40	0	73400320	14	4305
2026-01-30 10:44:44.28	107.53	8.30	-26.8	-28.4	14.1	2.20e-06	0	41	0	90177536	14	4324
2026-01-30 10:44:47.29	107.27	8.51	-26.8	-28.4	14.1	4.50e-06	0	41	0	106954752	14	4333
2026-01-30 10:44:50.30	107.00	8.72	-26.9	-28.6	14.0	2.20e-06	0	41	0	123731968	14	4379
2026-01-30 10:44:53.30	106.73	8.93	-26.7	-28.2	14.3	3.40e-06	0	41	0	140509184	14	4263
2026-01-30 10:44:56.31	106.46	9.15	-26.9	-28.5	14.2	8.00e-06	0	41	0	158334976	14	4345
2026-01-30 10:44:59.33	106.18	9.37	-26.9	-28.6	14.1	1.10e-06	0	41	0	175112192	14	4362
2026-01-30 10:45:02.34	105.90	9.58	-26.5	-27.7	14.6	1.10e-06	0	41	0	191889408	14	4140
2026-01-30 10:45:05.36	105.61	9.80	-26.6	-27.9	14.5	0.00e+00	0	41	0	208666624	14	4180
2026-01-30 10:45:08.37	105.32	10.02	-26.4	-27.3	14.9	0.00e+00	0	41	0	225443840	14	4026
2026-01-30 10:45:11.39	105.02	10.25	-26.4	-27.4	14.8	0.00e+00	0	41	0	243269632	14	4042
2026-01-30 10:45:14.40	104.72	10.47	-26.2	-27.6	15.0	0.00e+00	0	41	0	260046848	13	4200
2026-01-30 10:45:17.41	104.41	10.69	-26.3	-27.7	15.0	0.00e+00	0	41	0	276824064	13	4233
2026-01-30 10:45:20.43	104.10	10.92	-26.2	-27.5	15.1	0.00e+00	0	41	0	293601280	13	4187
2026-01-30 10:45:23.45	103.78	11.15	-26.2	-27.5	15.1	0.00e+00	0	41	0	310378496	13	4178
2026-01-30 10:45:26.45	103.46	11.37	-26.3	-27.8	14.9	0.00e+00	0	41	0	327155712	13	4262
2026-01-30 10:45:29.47	103.14	11.60	-26.2	-27.6	15.1	0.00e+00	0	42	0	343932928	13	4193
2026-01-30 10:45:32.47	102.81	11.83	-26.1	-27.3	15.3	0.00e+00	0	42	0	360710144	13	4124
2026-01-30 10:45:35.49	102.47	12.06	-26.0	-27.1	15.4	0.00e+00	0	41	0	378535936	13	4071
2026-01-30 10:45:38.50	102.13	12.30	-26.0	-27.1	15.4	0.00e+00	0	42	0	395313152	13	4068
2026-01-30 10:45:41.51	101.78	12.53	-26.1	-27.2	15.3	0.00e+00	0	42	0	412090368	13	4103
2026-01-30 10:45:44.51	101.43	12.77	-26.0	-27.0	15.4	0.00e+00	0	42	0	428867584	13	4052
2026-01-30 10:45:47.52	101.07	13.00	-25.9	-26.7	15.6	0.00e+00	0	42	0	445644800	13	3973
2026-01-30 10:45:50.53	100.70	13.24	-25.6	-26.6	16.0	1.10e-06	0	42	0	463470592	12	4050
2026-01-30 10:45:53.55	100.33	13.48	-25.5	-26.4	16.1	0.00e+00	0	42	0	480247808	12	4005
2026-01-30 10:45:56.57	99.95	13.72	-25.4	-26.2	16.2	0.00e+00	0	42	0	497025024	12	3949
2026-01-30 10:45:59.59	99.57	13.96	-25.5	-26.5	16.1	0.00e+00	0	42	0	513802240	12	4009
2026-01-30 10:46:02.60	99.18	14.20	-25.4	-26.2	16.3	0.00e+00	0	42	0	530579456	12	3940
2026-01-30 10:46:05.62	98.78	14.45	-25.3	-26.0	16.4	0.00e+00	0	42	0	547356672	12	3900
2026-01-30 10:46:08.62	98.38	14.69	-25.3	-26.5	16.5	0.00e+00	0	42	0	565182464	11	4116
2026-01-30 10:46:11.63	97.97	14.93	-25.3	-26.4	16.6	0.00e+00	0	42	0	581959680	11	4096
2026-01-30 10:46:14.64	97.55	15.18	-25.2	-26.1	16.7	0.00e+00	0	42	0	598736896	11	4024
2026-01-30 10:46:17.65	97.13	15.43	-25.2	-26.2	16.7	0.00e+00	0	42	0	615514112	11	4033
2026-01-30 10:46:20.66	96.70	15.67	-25.2	-26.3	16.7	0.00e+00	0	42	0	632291328	11	4059
2026-01-30 10:46:23.67	96.26	15.92	-25.3	-26.5	16.6	0.00e+00	0	42	0	649068544	11	4121
2026-01-30 10:46:26.69	95.81	16.17	-25.2	-26.1	16.8	0.00e+00	0	42	0	665845760	11	4023
2026-01-30 10:46:29.71	95.36	16.42	-25.1	-26.1	16.9	0.00e+00	0	42	0	683671552	11	4007
2026-01-30 10:46:32.71	94.90	16.67	-24.9	-25.5	17.2	0.00e+00	0	42	0	700448768	11	3862
2026-01-30 10:46:35.72	94.43	16.92	-24.8	-25.8	17.3	0.00e+00	0	42	0	717225984	10	4033
2026-01-30 10:46:38.73	93.95	17.18	-24.8	-25.9	17.3	0.00e+00	0	42	0	734003200	10	4066
2026-01-30 10:46:41.73	93.47	17.43	-24.9	-26.2	17.1	0.00e+00	0	42	0	750780416	10	4140
2026-01-30 10:46:44.76	92.97	17.68	-24.7	-25.7	17.4	0.00e+00	0	42	0	767557632	10	4020
2026-01-30 10:46:47.77	92.47	17.94	-24.8	-25.7	17.4	1.10e-06	0	42	0	784334848	10	4028
2026-01-30 10:46:50.78	91.96	18.19	-24.7	-25.6	17.5	0.00e+00	0	42	0	802160640	10	3990
2026-01-30 10:46:53.79	91.44	18.44	-24.8	-25.9	17.3	0.00e+00	0	42	0	818937856	10	4059
2026-01-30 10:46:56.80	90.91	18.70	-24.7	-25.5	17.5	0.00e+00	0	42	0	835715072	10	3981
2026-01-30 10:46:59.81	90.38	18.95	-24.7	-25.5	17.6	0.00e+00	0	42	0	852492288	10	3974
2026-01-30 10:47:02.79	89.84	19.20	-24.5	-25.1	17.8	0.00e+00	0	42	0	869269504	10	3875
2026-01-30 10:47:05.80	89.28	19.46	-24.5	-25.1	17.8	0.00e+00	0	42	0	886046720	10	3883
2026-01-30 10:47:08.81	88.72	19.71	-24.3	-25.2	18.0	0.00e+00	0	42	0	902823936	9	3992
2026-01-30 10:47:11.82	88.14	19.96	-24.5	-25.6	17.8	0.00e+00	0	42	0	919601152	9	4116
2026-01-30 10:47:14.82	87.56	20.22	-24.4	-25.5	17.9	0.00e+00	0	42	0	936378368	9	4066
2026-01-30 10:47:17.84	86.97	20.47	-24.2	-25.1	18.1	0.00e+00	0	42	0	954204160	9	3976
2026-01-30 10:47:20.84	86.36	20.72	-24.1	-24.8	18.2	0.00e+00	0	42	0	970981376	9	3908
2026-01-30 10:47:23.85	85.75	20.97	-23.9	-24.5	18.4	0.00e+00	0	42	0	987758592	9	3831
2026-01-30 10:47:26.85	85.13	21.22	-24.0	-24.7	18.3	0.00e+00	0	42	0	1004535808	9	3878
2026-01-30 10:47:29.86	84.50	21.47	-24.2	-25.0	18.2	0.00e+00	0	42	0	1021313024	9	3959
2026-01-30 10:47:32.87	83.85	21.71	-24.2	-25.1	18.1	0.00e+00	0	42	0	1038090240	9	3989
2026-01-30 10:47:35.89	83.20	21.96	-24.3	-25.3	18.0	0.00e+00	0	42	0	1055916032	9	4039
2026-01-30 10:47:38.90	82.53	22.20	-23.8	-24.1	18.7	0.00e+00	0	42	0	1072693248	9	3745
2026-01-30 10:47:41.91	81.86	22.44	-23.9	-24.8	18.6	0.00e+00	0	43	0	1089470464	8	4019
2026-01-30 10:47:44.92	81.17	22.68	-24.0	-25.1	18.4	0.00e+00	0	42	0	1106247680	8	4092
2026-01-30 10:47:47.93	80.47	22.92	-23.8	-24.7	18.7	0.00e+00	0	42	0	1123024896	8	3979
2026-01-30 10:47:50.95	79.76	23.15	-23.8	-24.8	18.6	0.00e+00	0	42	0	1139802112	8	4011
2026-01-30 10:47:53.96	79.05	23.39	-23.8	-24.7	18.6	0.00e+00	0	42	0	1157627904	8	3985
2026-01-30 10:47:56.97	78.32	23.62	-24.0	-25.2	18.4	0.00e+00	0	42	0	1174405120	8	4106
2026-01-30 10:47:59.98	77.58	23.84	-23.8	-24.6	18.7	0.00e+00	0	42	0	1191182336	8	3960
2026-01-30 10:48:02.98	76.83	24.06	-23.6	-24.2	18.9	0.00e+00	0	42	0	1207959552	8	3871
2026-01-30 10:48:06.00	76.07	24.28	-23.8	-24.7	18.7	0.00e+00	0	42	0	1224736768	8	3989
2026-01-30 10:48:09.01	75.30	24.50	-23.9	-24.8	18.7	0.00e+00	0	42	0	1241513984	8	4007
2026-01-30 10:48:12.03	74.51	24.71	-23.4	-23.8	19.2	0.00e+00	0	42	0	1259339776	8	3779
2026-01-30 10:48:15.04	73.72	24.92	-23.4	-23.9	19.1	0.00e+00	0	42	0	1276116992	8	3805
2026-01-30 10:48:18.06	72.91	25.12	-23.5	-24.0	19.1	0.00e+00	0	42	0	1292894208	8	3814
2026-01-30 10:48:21.06	72.10	25.32	-23.7	-24.6	18.8	0.00e+00	0	42	0	1309671424	8	3951
2026-01-30 10:48:24.07	71.28	25.51	-23.6	-24.2	19.0	0.00e+00	0	42	0	1326448640	8	3877
2026-01-30 10:48:27.08	70.45	25.70	-23.7	-24.4	18.9	0.00e+00	0	43	0	1343225856	8	3918
2026-01-30 10:48:30.09	69.60	25.88	-23.5	-24.0	19.1	0.00e+00	0	42	0	1360003072	8	3835
2026-01-30 10:48:33.10	68.75	26.06	-23.5	-24.1	19.1	0.00e+00	0	43	0	1377828864	8	3836
2026-01-30 10:48:36.10	67.89	26.23	-23.5	-24.4	19.3	0.00e+00	0	42	0	1394606080	7	4006
2026-01-30 10:48:39.11	67.02	26.39	-23.5	-24.4	19.3	0.00e+00	0	43	0	1411383296	7	4009
2026-01-30 10:48:42.11	66.14	26.55	-23.6	-24.7	19.2	0.00e+00	0	42	0	1428160512	7	4084
2026-01-30 10:48:45.12	65.25	26.70	-23.7	-24.9	19.1	0.00e+00	0	43	0	1444937728	7	4136
2026-01-30 10:48:48.13	64.36	26.85	-23.8	-25.1	19.0	0.00e+00	0	43	0	1461714944	7	4179
2026-01-30 10:48:51.14	63.45	26.98	-23.2	-23.7	19.7	0.00e+00	0	43	0	1478492160	7	3846
2026-01-30 10:48:54.15	62.54	27.11	-23.3	-24.1	19.5	0.00e+00	0	42	0	1495269376	7	3934
2026-01-30 10:48:57.16	61.62	27.24	-23.2	-23.7	19.7	0.00e+00	0	43	0	1513095168	7	3846
2026-01-30 10:49:00.18	60.69	27.35	-23.2	-23.8	19.7	0.00e+00	0	43	0	1529872384	7	3857
2026-01-30 10:49:03.19	59.75	27.46	-23.1	-23.7	19.7	0.00e+00	0	42	0	1546649600	7	3834
2026-01-30 10:49:06.20	58.81	27.56	-23.1	-23.6	19.8	0.00e+00	0	43	0	1563426816	7	3818
2026-01-30 10:49:09.22	57.87	27.65	-23.3	-24.0	19.6	0.00e+00	0	43	0	1580204032	7	3897
2026-01-30 10:49:12.22	56.92	27.73	-22.9	-23.2	19.9	0.00e+00	0	43	0	1596981248	7	3732
2026-01-30 10:49:15.23	55.96	27.80	-22.9	-23.1	20.0	0.00e+00	0	43	0	1614807040	7	3715
2026-01-30 10:49:18.24	55.01	27.87	-22.7	-23.2	20.2	0.00e+00	0	43	0	1631584256	6	3838
2026-01-30 10:49:21.24	54.05	27.93	-23.2	-24.3	19.7	0.00e+00	0	43	0	1648361472	6	4082
2026-01-30 10:49:24.24	53.08	27.97	-23.1	-24.2	19.8	0.00e+00	0	43	0	1665138688	6	4058
2026-01-30 10:49:27.26	52.11	28.01	-23.0	-24.0	19.8	0.00e+00	0	43	0	1681915904	6	4016
2026-01-30 10:49:30.28	51.14	28.04	-23.4	-24.7	19.5	0.00e+00	0	43	0	1698693120	6	4188
2026-01-30 10:49:33.29	50.17	28.06	-23.0	-24.0	19.9	0.00e+00	0	43	0	1715470336	6	4016
2026-01-30 10:49:36.30	49.19	28.07	-23.0	-23.9	19.9	0.00e+00	0	42	0	1733296128	6	3986
2026-01-30 10:49:39.31	48.22	28.07	-23.0	-24.0	19.9	0.00e+00	0	43	0	1750073344	6	4022
2026-01-30 10:49:42.32	47.25	28.07	-23.1	-24.2	19.8	0.00e+00	0	43	0	1766850560	6	4054
2026-01-30 10:49:45.33	46.28	28.05	-23.1	-24.2	19.8	0.00e+00	0	43	0	1783627776	6	4070
2026-01-30 10:49:48.34	45.31	28.02	-23.1	-24.1	19.8	0.00e+00	0	43	0	1800404992	6	4046
2026-01-30 10:49:51.35	44.34	27.99	-23.0	-24.0	19.9	0.00e+00	0	43	0	1817182208	6	4021
2026-01-30 10:49:54.38	43.37	27.95	-23.1	-24.2	19.8	0.00e+00	0	43	0	1835008000	6	4071
2026-01-30 10:49:57.37	42.41	27.89	-23.2	-24.2	19.7	0.00e+00	0	43	0	1850736640	6	4074
2026-01-30 10:50:00.38	41.45	27.83	-23.1	-24.1	19.8	0.00e+00	0	43	0	1868562432	6	4040
2026-01-30 10:50:03.39	40.49	27.76	-22.9	-23.8	20.0	0.00e+00	0	43	0	1885339648	6	3969
2026-01-30 10:50:06.41	39.54	27.68	-22.8	-23.4	20.1	0.00e+00	0	43	0	1902116864	6	3876
2026-01-30 10:50:09.43	38.59	27.59	-22.9	-23.8	20.0	0.00e+00	0	43	0	1918894080	6	3963
2026-01-30 10:50:12.44	37.65	27.50	-23.0	-24.0	19.9	0.00e+00	0	43	0	1935671296	6	4004
2026-01-30 10:50:15.44	36.72	27.40	-22.9	-23.7	20.0	0.00e+00	0	43	0	1953497088	6	3949
2026-01-30 10:50:18.44	35.79	27.28	-22.8	-23.5	20.1	0.00e+00	0	43	0	1970274304	6	3896
2026-01-30 10:50:21.45	34.87	27.16	-22.7	-23.4	20.2	0.00e+00	0	43	0	1987051520	6	3871
2026-01-30 10:50:24.46	33.96	27.04	-22.8	-23.6	20.0	0.00e+00	0	43	0	2003828736	6	3914
2026-01-30 10:50:27.47	33.05	26.90	-23.2	-24.4	19.6	0.00e+00	0	43	0	2020605952	6	4125
2026-01-30 10:50:30.47	32.16	26.76	-23.2	-24.3	19.7	0.00e+00	0	43	0	2037383168	6	4080
2026-01-30 10:50:33.49	31.26	26.61	-23.0	-23.9	19.9	0.00e+00	0	43	0	2054160384	6	3995
2026-01-30 10:50:36.51	30.38	26.46	-22.9	-23.8	19.9	0.00e+00	0	43	0	2071986176	6	3965
2026-01-30 10:50:39.53	29.50	26.30	-22.9	-23.7	20.0	0.00e+00	0	43	0	2088763392	6	3941
2026-01-30 10:50:42.54	28.64	26.13	-23.0	-23.9	19.9	0.00e+00	0	43	0	2105540608	6	3991
2026-01-30 10:50:45.55	27.78	25.95	-23.0	-23.9	19.9	0.00e+00	0	43	0	2122317824	6	3993
2026-01-30 10:50:48.54	26.94	25.77	-23.1	-24.2	19.7	0.00e+00	0	43	0	2139095040	6	4056
2026-01-30 10:50:51.55	26.11	25.59	-23.2	-24.3	19.7	0.00e+00	0	43	0	2155872256	6	4083
2026-01-30 10:50:54.56	25.28	25.40	-23.4	-24.8	19.4	0.00e+00	0	43	0	2172649472	6	4210
2026-01-30 10:50:57.57	24.47	25.20	-23.3	-24.0	19.5	0.00e+00	0	43	0	2189426688	7	3909
2026-01-30 10:51:00.57	23.67	25.00	-23.4	-24.1	19.5	0.00e+00	0	43	0	2207252480	7	3939
2026-01-30 10:51:03.58	22.87	24.80	-23.2	-23.9	19.6	0.00e+00	0	43	0	2224029696	7	3879
2026-01-30 10:51:06.58	22.09	24.59	-23.3	-24.1	19.5	0.00e+00	0	43	0	2240806912	7	3927
2026-01-30 10:51:09.60	21.32	24.38	-23.2	-23.9	19.6	0.00e+00	0	43	0	2257584128	7	3875
2026-01-30 10:51:12.61	20.55	24.16	-23.0	-23.5	19.8	0.00e+00	0	43	0	2274361344	7	3792
2026-01-30 10:51:15.63	19.80	23.94	-23.1	-23.5	19.7	1.10e-06	0	43	0	2292187136	7	3805
2026-01-30 10:51:18.62	19.06	23.72	-23.4	-24.3	19.3	0.00e+00	0	43	0	2307915776	7	3974
2026-01-30 10:51:21.64	18.33	23.49	-23.1	-23.6	19.7	0.00e+00	0	43	0	2325741568	7	3823
2026-01-30 10:51:24.65	17.61	23.26	-23.3	-24.1	19.4	0.00e+00	0	43	0	2342518784	7	3937
2026-01-30 10:51:27.67	16.90	23.03	-23.4	-24.3	19.3	0.00e+00	0	43	0	2359296000	7	3982
2026-01-30 10:51:30.69	16.20	22.79	-23.5	-24.4	19.2	0.00e+00	0	43	0	2376073216	7	4016
2026-01-30 10:51:33.69	15.51	22.55	-23.4	-24.2	19.4	0.00e+00	0	43	0	2392850432	7	3950
2026-01-30 10:51:36.70	14.84	22.31	-23.7	-25.0	18.9	0.00e+00	0	43	0	2409627648	7	4154
2026-01-30 10:51:39.72	14.17	22.07	-23.8	-25.0	18.9	0.00e+00	0	43	0	2427453440	7	4153
2026-01-30 10:51:42.72	13.51	21.83	-23.8	-25.1	18.9	0.00e+00	0	43	0	2444230656	7	4180
2026-01-30 10:51:45.73	12.87	21.58	-24.5	-25.6	18.1	0.00e+00	0	43	0	2461007872	9	4077
2026-01-30 10:51:48.73	12.24	21.34	-24.0	-24.5	18.6	0.00e+00	0	43	0	2477785088	9	3819
2026-01-30 10:51:51.75	11.61	21.09	-23.8	-24.2	18.8	0.00e+00	0	43	0	2494562304	9	3737
2026-01-30 10:51:54.75	11.00	20.84	-24.0	-24.6	18.6	0.00e+00	0	43	0	2511339520	9	3830
2026-01-30 10:51:57.75	10.39	20.59	-24.0	-24.4	18.7	0.00e+00	0	42	0	2528116736	9	3795
2026-01-30 10:52:00.76	9.80	20.34	-24.1	-24.8	18.5	0.00e+00	0	43	0	2544893952	9	3887
2026-01-30 10:52:03.78	9.21	20.09	-24.0	-24.5	18.6	0.00e+00	0	43	0	2562719744	9	3811
2026-01-30 10:52:06.79	8.64	19.84	-23.8	-24.6	18.8	0.00e+00	0	43	0	2579496960	8	3943
2026-01-30 10:52:09.81	8.07	19.58	-24.1	-25.2	18.5	0.00e+00	0	43	0	2596274176	8	4101
2026-01-30 10:52:12.81	7.51	19.33	-24.1	-25.3	18.4	0.00e+00	0	43	0	2613051392	8	4124
2026-01-30 10:52:15.82	6.97	19.08	-24.2	-25.5	18.3	0.00e+00	0	43	0	2629828608	8	4171
2026-01-30 10:52:18.83	6.43	18.82	-24.3	-25.7	18.2	0.00e+00	0	43	0	2647654400	8	4215
2026-01-30 10:52:21.84	5.90	18.57	-24.8	-26.2	17.7	0.00e+00	0	43	0	2664431616	9	4233
2026-01-30 10:52:24.84	5.38	18.32	-24.6	-25.8	17.8	0.00e+00	0	43	0	2681208832	9	4142
2026-01-30 10:52:27.86	4.87	18.07	-24.7	-26.1	17.7	0.00e+00	0	43	0	2697986048	9	4196
2026-01-30 10:52:30.86	4.37	17.81	-24.6	-25.8	17.9	0.00e+00	0	43	0	2714763264	9	4131
2026-01-30 10:52:33.87	3.87	17.56	-24.8	-26.2	17.6	0.00e+00	0	43	0	2731540480	9	4247
2026-01-30 10:52:36.88	3.39	17.31	-24.8	-26.2	17.6	0.00e+00	0	43	0	2748317696	9	4246
2026-01-30 10:52:39.89	2.91	17.06	-24.9	-26.5	17.4	0.00e+00	0	43	0	2765094912	9	4332
2026-01-30 10:52:42.90	2.44	16.81	-25.1	-26.3	17.3	0.00e+00	0	43	0	2782920704	10	4144
2026-01-30 10:52:45.91	1.98	16.56	-25.4	-27.0	16.8	0.00e+00	0	43	0	2799697920	10	4327
2026-01-30 10:52:48.92	1.53	16.31	-25.0	-26.3	17.2	0.00e+00	0	43	0	2816475136	10	4144
2026-01-30 10:52:51.93	1.08	16.06	-25.1	-26.4	17.1	0.00e+00	0	43	0	2833252352	10	4173
2026-01-30 10:52:54.93	0.64	15.81	-25.2	-26.6	17.0	0.00e+00	0	43	0	2850029568	10	4231
2026-01-30 10:52:57.94	0.21	15.57	-25.3	-26.8	16.9	0.00e+00	0	43	0	2866806784	10	4282
2026-01-30 10:53:00.95	359.79	15.32	-25.2	-26.7	16.9	0.00e+00	0	43	0	2883584000	10	4249
2026-01-30 10:53:03.96	359.37	15.07	-25.1	-26.3	17.1	0.00e+00	0	43	0	2900361216	10	4155
2026-01-30 10:53:06.98	358.96	14.83	-25.3	-26.8	16.9	0.00e+00	0	43	0	2918187008	10	4282
2026-01-30 10:53:09.99	358.56	14.59	-25.5	-27.2	16.6	0.00e+00	0	43	0	2934964224	10	4388
2026-01-30 10:53:13.00	358.16	14.34	-25.1	-26.4	17.0	0.00e+00	0	43	0	2951741440	10	4182
2026-01-30 10:53:16.01	357.77	14.10	-25.4	-27.0	16.7	0.00e+00	0	43	0	2968518656	10	4336
2026-01-30 10:53:19.01	357.39	13.86	-25.7	-27.3	16.2	0.00e+00	0	43	0	2985295872	11	4314
2026-01-30 10:53:22.01	357.01	13.62	-26.0	-27.4	15.8	0.00e+00	0	43	0	3002073088	12	4231
2026-01-30 10:53:25.03	356.64	13.38	-26.0	-27.4	15.9	0.00e+00	0	43	0	3019898880	12	4217
2026-01-30 10:53:28.04	356.27	13.15	-26.1	-27.6	15.7	0.00e+00	0	43	0	3036676096	12	4288
2026-01-30 10:53:31.05	355.92	12.91	-25.6	-26.6	16.3	0.00e+00	0	43	0	3053453312	12	4022
2026-01-30 10:53:34.05	355.56	12.68	-25.7	-26.7	16.2	0.00e+00	0	43	0	3070230528	12	4049
2026-01-30 10:53:37.06	355.22	12.44	-25.9	-27.1	15.9	0.00e+00	0	43	0	3087007744	12	4156
2026-01-30 10:53:40.06	354.88	12.21	-25.7	-26.8	16.1	0.00e+00	0	43	0	3103784960	12	4064
2026-01-30 10:53:43.07	354.54	11.98	-25.9	-27.1	15.9	0.00e+00	0	43	0	3120562176	12	4149
2026-01-30 10:53:46.09	354.21	11.75	-26.0	-27.4	15.8	0.00e+00	0	43	0	3138387968	12	4231
2026-01-30 10:53:49.10	353.88	11.52	-26.1	-27.6	15.7	0.00e+00	0	43	0	3155165184	12	4279
2026-01-30 10:53:52.11	353.56	11.30	-26.3	-28.0	15.4	0.00e+00	0	43	0	3171942400	12	4399
2026-01-30 10:53:55.12	353.25	11.07	-26.1	-27.6	15.6	0.00e+00	0	43	0	3188719616	12	4291
2026-01-30 10:53:58.12	352.94	10.84	-26.2	-27.9	15.4	0.00e+00	0	43	0	3205496832	12	4368
2026-01-30 10:54:01.13	352.63	10.62	-26.5	-28.5	15.1	0.00e+00	0	43	0	3222274048	12	4540
2026-01-30 10:54:04.13	352.33	10.40	-26.6	-28.3	14.9	0.00e+00	0	43	0	3239051264	13	4368
2026-01-30 10:54:07.15	352.04	10.18	-26.3	-27.7	15.2	0.00e+00	0	43	0	3256877056	13	4196
2026-01-30 10:54:10.16	351.75	9.96	-26.3	-27.5	15.3	0.00e+00	0	43	0	3273654272	13	4151
2026-01-30 10:54:13.16	351.46	9.74	-26.3	-27.6	15.2	0.00e+00	0	43	0	3290431488	13	4171
2026-01-30 10:54:16.19	351.18	9.52	-26.4	-27.9	15.1	0.00e+00	0	43	0	3307208704	13	4245
2026-01-30 10:54:19.21	350.90	9.30	-26.6	-28.3	14.8	1.10e-06	0	43	0	3323985920	13	4364
2026-01-30 10:54:22.22	350.62	9.09	-26.6	-28.3	14.7	0.00e+00	0	43	0	3340763136	13	4376
2026-01-30 10:54:25.22	350.35	8.87	-26.7	-28.5	14.6	2.20e-06	0	43	0	3357540352	13	4440
2026-01-30 10:54:28.23	350.09	8.66	-26.6	-28.2	14.8	0.00e+00	0	43	0	3375366144	13	4335
2026-01-30 10:54:31.25	349.83	8.45	-26.6	-28.4	14.7	0.00e+00	0	43	0	3392143360	13	4387
2026-01-30 10:54:34.26	349.57	8.24	-26.7	-28.5	14.6	1.10e-06	0	43	0	3408920576	13	4423
2026-01-30 10:54:37.27	349.31	8.03	-26.8	-28.8	14.4	1.10e-06	0	43	0	3425697792	13	4514
2026-01-30 10:54:40.28	349.07	7.82	-26.8	-28.7	14.4	0.00e+00	0	43	0	3442475008	13	4481
2026-01-30 10:54:43.30	348.82	7.61	-26.7	-28.6	14.4	1.10e-06	0	43	0	3459252224	13	4460
2026-01-30 10:54:46.31	348.58	7.41	-26.7	-28.6	14.4	1.10e-06	0	43	0	3477078016	13	4482
2026-01-30 10:54:49.32	348.34	7.20	-26.9	-28.9	14.2	0.00e+00	0	43	0	3493855232	13	4553
2026-01-30 10:54:52.33	348.10	7.00	-33.1	-43.6	3.8	8.41e-01	0	43	104	3506438144	26	12029

#Closed at: 2026-01-30 10:54:54
#Recorded file [3506 MB]: D:/data/31010_260130_134428.dat