passes_logs/2026/01/30/R2M6_AANII_01/R2M6_AANII_01__20260130_024511_NOAA_21_JPSS-2_rec.log

#Pass ID: 20260130_024511_NOAA 21 (JPSS-2)
#Satellite: NOAA 21 (JPSS-2)
#Configuration: NOAA 21
#almurnet v.1.7.20240730
#Start time: 2026-01-30 02:45:12

#Version: 2.2.20231116
#Station: R2M6_AANII_01
#Location: 30.233357 lon 59.946436 lat
#TLE: 1 54234U 22150A   26028.89828222  .00000145  00000+0  89569-4 0  9997
#TLE: 2 54234  98.7511 329.6308 0000927 198.8651 161.2491 14.19540676166783

#Time	Az	El	Level	Level2	SNR	BER	BlckErr	Temp	State	Recorded	gain1	gain2
2026-01-30 02:45:12.61	8.76	7.07	-31.8	-37.1	4.3	1.43e+00	0	42	0	0	25	6637
2026-01-30 02:45:15.60	8.43	7.24	-31.3	-35.5	8.1	6.14e-02	0	42	0	2097152	23	5803
2026-01-30 02:45:18.61	8.09	7.41	-31.2	-34.8	8.6	4.78e-02	0	42	0	11534336	23	5508
2026-01-30 02:45:21.62	7.75	7.59	-30.0	-32.5	10.9	2.59e-03	0	43	0	22020096	21	4792
2026-01-30 02:45:24.64	7.41	7.76	-29.4	-31.2	12.2	2.62e-04	0	43	0	30408704	20	4439
2026-01-30 02:45:27.65	7.06	7.93	-29.3	-31.4	12.5	1.10e-04	0	43	0	39845888	19	4593
2026-01-30 02:45:30.64	6.71	8.10	-29.2	-31.3	12.6	9.15e-05	0	43	0	49283072	19	4569
2026-01-30 02:45:33.66	6.36	8.27	-29.2	-31.2	12.6	8.85e-05	0	43	0	58720256	19	4537
2026-01-30 02:45:36.65	6.00	8.44	-29.1	-31.1	12.7	7.09e-05	0	43	0	68157440	19	4496
2026-01-30 02:45:39.66	5.63	8.61	-29.2	-31.3	12.6	1.19e-04	0	43	0	77594624	19	4571
2026-01-30 02:45:42.67	5.26	8.79	-29.0	-30.7	13.0	4.73e-05	0	43	0	87031808	19	4383
2026-01-30 02:45:45.66	4.89	8.96	-28.8	-30.6	13.4	1.44e-05	0	43	0	96468992	18	4455
2026-01-30 02:45:48.66	4.51	9.13	-28.6	-30.2	13.7	4.50e-06	0	43	0	105906176	18	4320
2026-01-30 02:45:51.68	4.13	9.30	-28.5	-30.0	13.8	3.80e-06	0	43	0	115343360	18	4268
2026-01-30 02:45:54.69	3.74	9.47	-28.5	-30.0	13.7	5.30e-06	0	43	0	124780544	18	4272
2026-01-30 02:45:57.71	3.35	9.64	-28.4	-29.7	14.0	8.30e-06	0	43	0	134217728	18	4178
2026-01-30 02:46:00.72	2.95	9.82	-28.4	-29.6	14.1	7.00e-07	0	43	0	143654912	18	4163
2026-01-30 02:46:03.73	2.55	9.99	-28.2	-29.9	14.2	7.00e-07	0	43	0	153092096	17	4336
2026-01-30 02:46:06.74	2.14	10.16	-28.3	-30.1	14.0	1.50e-06	0	43	0	162529280	17	4408
2026-01-30 02:46:09.76	1.73	10.33	-28.4	-30.2	14.0	5.30e-06	0	43	0	171966464	17	4430
2026-01-30 02:46:12.76	1.32	10.50	-28.4	-30.2	14.0	3.80e-06	0	43	0	181403648	17	4423
2026-01-30 02:46:15.78	0.89	10.67	-28.2	-29.7	14.3	0.00e+00	0	43	0	190840832	17	4286
2026-01-30 02:46:18.78	0.47	10.84	-28.1	-29.6	14.4	7.00e-07	0	43	0	200278016	17	4252
2026-01-30 02:46:21.79	0.03	11.01	-28.2	-29.6	14.3	1.50e-06	0	43	0	209715200	17	4265
2026-01-30 02:46:24.80	359.60	11.18	-28.1	-29.5	14.5	0.00e+00	0	43	0	219152384	17	4224
2026-01-30 02:46:27.80	359.16	11.35	-28.2	-29.8	14.3	0.00e+00	0	43	0	228589568	17	4305
2026-01-30 02:46:30.82	358.71	11.51	-28.5	-30.4	13.9	1.19e-04	0	43	0	238026752	17	4498
2026-01-30 02:46:33.82	358.26	11.68	-28.3	-29.9	14.2	7.00e-07	0	43	0	247463936	17	4349
2026-01-30 02:46:36.83	357.80	11.85	-28.3	-29.9	14.3	1.74e-04	0	43	0	256901120	17	4338
2026-01-30 02:46:39.84	357.34	12.01	-28.3	-30.0	14.3	2.20e-06	0	43	0	266338304	17	4352
2026-01-30 02:46:42.84	356.87	12.18	-28.4	-30.1	14.2	2.20e-04	0	44	0	275775488	17	4391
2026-01-30 02:46:45.86	356.39	12.34	-28.4	-30.2	14.1	3.10e-04	0	43	0	284164096	17	4425
2026-01-30 02:46:48.86	355.92	12.51	-28.4	-30.1	14.2	3.14e-04	0	44	0	293601280	17	4382
2026-01-30 02:46:51.88	355.43	12.67	-28.3	-30.6	14.2	4.13e-04	0	44	0	303038464	16	4646
2026-01-30 02:46:54.89	354.94	12.83	-28.2	-29.7	14.4	0.00e+00	0	43	0	312475648	17	4275
2026-01-30 02:46:57.89	354.45	12.99	-28.2	-30.2	14.4	2.97e-04	0	43	0	321912832	16	4546
2026-01-30 02:47:00.89	353.95	13.15	-28.2	-30.3	14.4	7.00e-07	0	44	0	331350016	16	4549
2026-01-30 02:47:03.90	353.44	13.31	-28.3	-30.5	14.3	1.50e-06	0	44	0	340787200	16	4628
2026-01-30 02:47:06.90	352.93	13.47	-28.3	-30.5	14.3	2.37e-04	0	44	0	350224384	16	4637
2026-01-30 02:47:09.91	352.41	13.62	-28.2	-30.3	14.5	0.00e+00	0	44	0	359661568	16	4549
2026-01-30 02:47:12.92	351.89	13.78	-28.3	-30.3	14.4	7.00e-07	0	44	0	369098752	16	4565
2026-01-30 02:47:15.92	351.36	13.93	-28.2	-30.2	14.5	7.00e-07	0	44	0	378535936	16	4543
2026-01-30 02:47:18.92	350.83	14.08	-28.1	-29.8	14.7	0.00e+00	0	44	0	387973120	16	4414
2026-01-30 02:47:21.93	350.29	14.23	-28.3	-30.4	14.4	1.50e-06	0	43	0	397410304	16	4585
2026-01-30 02:47:24.95	349.74	14.38	-28.3	-30.3	14.5	1.50e-06	0	44	0	406847488	16	4560
2026-01-30 02:47:27.95	349.19	14.53	-28.2	-30.3	14.5	0.00e+00	0	44	0	416284672	16	4546
2026-01-30 02:47:30.96	348.63	14.67	-28.3	-30.5	14.4	7.00e-07	0	44	0	425721856	16	4607
2026-01-30 02:47:33.96	348.07	14.81	-28.3	-30.5	14.4	0.00e+00	0	44	0	435159040	16	4606
2026-01-30 02:47:36.98	347.50	14.95	-28.3	-30.4	14.4	7.00e-07	0	44	0	444596224	16	4598
2026-01-30 02:47:39.98	346.93	15.09	-28.2	-30.3	14.5	0.00e+00	0	44	0	454033408	16	4540
2026-01-30 02:47:42.99	346.35	15.23	-28.4	-30.6	14.4	1.50e-06	0	44	0	463470592	16	4655
2026-01-30 02:47:46.01	345.77	15.36	-28.4	-30.6	14.4	7.00e-07	0	44	0	472907776	16	4656
2026-01-30 02:47:49.01	345.18	15.50	-28.3	-30.5	14.4	7.00e-07	0	44	0	482344960	16	4599
2026-01-30 02:47:52.01	344.59	15.63	-28.3	-30.3	14.6	7.00e-07	0	44	0	491782144	16	4549
2026-01-30 02:47:55.02	343.99	15.75	-28.2	-30.1	14.7	1.50e-06	0	44	0	501219328	16	4493
2026-01-30 02:47:58.04	343.38	15.88	-28.0	-29.7	14.9	0.00e+00	0	44	0	510656512	16	4389
2026-01-30 02:48:01.04	342.77	16.00	-28.1	-29.9	14.8	0.00e+00	0	44	0	520093696	16	4431
2026-01-30 02:48:04.05	342.16	16.12	-27.9	-29.5	15.0	0.00e+00	0	44	0	529530880	16	4319
2026-01-30 02:48:07.07	341.54	16.24	-27.6	-28.9	15.4	0.00e+00	0	44	0	538968064	16	4146
2026-01-30 02:48:10.07	340.91	16.35	-27.6	-28.8	15.4	1.05e-04	0	44	0	548405248	16	4125
2026-01-30 02:48:13.08	340.28	16.46	-27.6	-28.7	15.4	0.00e+00	0	43	0	556793856	16	4110
2026-01-30 02:48:16.08	339.65	16.57	-27.8	-29.2	15.2	0.00e+00	0	44	0	566231040	16	4227
2026-01-30 02:48:19.09	339.01	16.67	-27.8	-29.2	15.2	3.50e-05	0	44	0	575668224	16	4242
2026-01-30 02:48:22.09	338.37	16.77	-27.8	-29.3	15.2	7.00e-07	0	44	0	585105408	16	4263
2026-01-30 02:48:25.09	337.72	16.87	-27.8	-29.1	15.2	2.05e-04	0	44	0	594542592	16	4217
2026-01-30 02:48:28.09	337.07	16.97	-27.8	-29.3	15.1	0.00e+00	0	44	0	603979776	16	4264
2026-01-30 02:48:31.11	336.42	17.06	-27.7	-29.1	15.3	1.30e-04	0	44	0	613416960	16	4200
2026-01-30 02:48:34.12	335.76	17.14	-27.6	-29.3	15.2	4.94e-04	0	44	0	622854144	15	4389
2026-01-30 02:48:37.13	335.09	17.23	-27.5	-29.1	15.4	0.00e+00	0	44	0	632291328	15	4332
2026-01-30 02:48:40.14	334.43	17.31	-27.6	-29.3	15.3	1.60e-05	0	44	0	641728512	15	4392
2026-01-30 02:48:43.14	333.76	17.39	-27.7	-29.5	15.2	0.00e+00	0	44	0	651165696	15	4426
2026-01-30 02:48:46.15	333.08	17.46	-27.7	-29.5	15.1	0.00e+00	0	44	0	660602880	15	4438
2026-01-30 02:48:49.15	332.41	17.53	-27.8	-29.8	14.9	3.48e-04	0	44	0	670040064	15	4543
2026-01-30 02:48:52.15	331.73	17.59	-27.8	-29.1	15.3	0.00e+00	0	44	0	679477248	16	4211
2026-01-30 02:48:55.16	331.04	17.65	-27.4	-28.9	15.5	6.89e-04	0	44	0	688914432	15	4282
2026-01-30 02:48:58.16	330.36	17.71	-27.5	-29.5	15.4	7.00e-07	0	44	0	698351616	14	4559
2026-01-30 02:49:01.18	329.67	17.76	-27.5	-29.1	15.4	0.00e+00	0	44	0	707788800	15	4327
2026-01-30 02:49:04.19	328.98	17.81	-27.5	-29.0	15.5	7.00e-07	0	44	0	717225984	15	4289
2026-01-30 02:49:07.19	328.29	17.86	-27.6	-29.4	15.2	0.00e+00	0	44	0	726663168	15	4405
2026-01-30 02:49:10.20	327.59	17.90	-27.7	-29.5	15.1	0.00e+00	0	44	0	736100352	15	4439
2026-01-30 02:49:13.20	326.90	17.93	-27.8	-29.8	15.0	0.00e+00	0	44	0	745537536	15	4524
2026-01-30 02:49:16.22	326.19	17.96	-27.6	-29.3	15.3	0.00e+00	0	44	0	754974720	15	4376
2026-01-30 02:49:19.22	325.50	17.99	-27.6	-29.3	15.3	0.00e+00	0	44	0	764411904	15	4381
2026-01-30 02:49:22.24	324.79	18.01	-27.5	-29.0	15.4	0.00e+00	0	44	0	773849088	15	4289
2026-01-30 02:49:25.25	324.09	18.03	-27.6	-29.2	15.3	0.00e+00	0	44	0	782237696	15	4364
2026-01-30 02:49:28.24	323.39	18.04	-27.7	-29.5	15.2	0.00e+00	0	44	0	791674880	15	4425
2026-01-30 02:49:31.25	322.69	18.05	-27.7	-29.5	15.1	0.00e+00	0	44	0	801112064	15	4426
2026-01-30 02:49:34.26	321.98	18.06	-27.8	-29.8	15.0	0.00e+00	0	44	0	810549248	15	4526
2026-01-30 02:49:37.27	321.28	18.06	-27.8	-29.8	15.0	7.00e-07	0	44	0	819986432	15	4524
2026-01-30 02:49:40.28	320.57	18.06	-27.4	-28.9	15.5	0.00e+00	0	44	0	829423616	15	4260
2026-01-30 02:49:43.29	319.87	18.05	-27.4	-28.8	15.5	0.00e+00	0	44	0	838860800	15	4252
2026-01-30 02:49:46.29	319.17	18.03	-27.3	-28.7	15.6	7.00e-07	0	44	0	848297984	15	4203
2026-01-30 02:49:49.30	318.47	18.02	-27.3	-28.5	15.7	0.00e+00	0	44	0	857735168	15	4165
2026-01-30 02:49:52.31	317.76	17.99	-27.3	-28.7	15.6	0.00e+00	0	44	0	867172352	15	4200
2026-01-30 02:49:55.33	317.06	17.97	-27.4	-28.9	15.5	0.00e+00	0	44	0	876609536	15	4271
2026-01-30 02:49:58.33	316.36	17.94	-27.5	-29.1	15.4	0.00e+00	0	44	0	886046720	15	4333
2026-01-30 02:50:01.34	315.66	17.90	-27.4	-28.9	15.5	0.00e+00	0	44	0	895483904	15	4255
2026-01-30 02:50:04.36	314.97	17.86	-27.5	-29.1	15.4	0.00e+00	0	44	0	904921088	15	4313
2026-01-30 02:50:07.36	314.27	17.82	-27.4	-28.8	15.5	0.00e+00	0	44	0	914358272	15	4251
2026-01-30 02:50:10.36	313.58	17.77	-27.5	-29.5	15.4	0.00e+00	0	44	0	923795456	14	4551
2026-01-30 02:50:13.38	312.89	17.72	-27.6	-29.4	15.2	0.00e+00	0	44	0	933232640	15	4409
2026-01-30 02:50:16.38	312.20	17.66	-27.6	-29.4	15.2	0.00e+00	0	44	0	942669824	15	4415
2026-01-30 02:50:19.38	311.52	17.61	-27.8	-29.8	14.9	7.00e-07	0	44	0	952107008	15	4534
2026-01-30 02:50:22.39	310.84	17.54	-27.6	-29.2	15.2	0.00e+00	0	44	0	961544192	15	4367
2026-01-30 02:50:25.42	310.15	17.47	-27.5	-29.1	15.3	0.00e+00	0	44	0	970981376	15	4335
2026-01-30 02:50:28.43	309.48	17.40	-27.6	-29.4	15.1	0.00e+00	0	44	0	980418560	15	4417
2026-01-30 02:50:31.44	308.81	17.32	-27.6	-29.3	15.2	0.00e+00	0	44	0	989855744	15	4394
2026-01-30 02:50:34.45	308.14	17.24	-27.5	-29.2	15.3	0.00e+00	0	44	0	999292928	15	4345
2026-01-30 02:50:37.46	307.47	17.16	-27.7	-29.6	15.0	0.00e+00	0	44	0	1008730112	15	4463
2026-01-30 02:50:40.47	306.81	17.07	-27.4	-29.0	15.3	0.00e+00	0	44	0	1018167296	15	4304
2026-01-30 02:50:43.48	306.15	16.98	-27.4	-29.0	15.4	0.00e+00	0	44	0	1027604480	15	4287
2026-01-30 02:50:46.49	305.50	16.89	-27.7	-29.5	15.0	0.00e+00	0	44	0	1037041664	15	4450
2026-01-30 02:50:49.49	304.85	16.79	-27.5	-29.2	15.2	2.20e-06	0	44	0	1046478848	15	4357
2026-01-30 02:50:52.50	304.20	16.69	-27.5	-29.1	15.3	0.00e+00	0	44	0	1055916032	15	4322
2026-01-30 02:50:55.52	303.56	16.59	-27.5	-29.5	15.3	7.00e-07	0	44	0	1065353216	14	4568
2026-01-30 02:50:58.54	302.92	16.48	-27.6	-29.4	15.1	3.80e-06	0	44	0	1074790400	15	4427
2026-01-30 02:51:01.55	302.29	16.37	-27.7	-29.6	15.0	0.00e+00	0	44	0	1083179008	15	4466
2026-01-30 02:51:04.57	301.66	16.25	-27.6	-29.3	15.1	3.00e-06	0	44	0	1093664768	15	4379
2026-01-30 02:51:07.57	301.04	16.14	-27.5	-29.2	15.1	0.00e+00	0	44	0	1103101952	15	4362
2026-01-30 02:51:10.59	300.42	16.02	-27.6	-29.4	15.0	0.00e+00	0	44	0	1111490560	15	4429
2026-01-30 02:51:13.59	299.81	15.90	-27.6	-29.3	15.1	0.00e+00	0	44	0	1120927744	15	4383
2026-01-30 02:51:16.60	299.20	15.77	-27.5	-29.1	15.2	0.00e+00	0	44	0	1130364928	15	4321
2026-01-30 02:51:19.61	298.59	15.64	-27.4	-29.0	15.2	0.00e+00	0	44	0	1139802112	15	4298
2026-01-30 02:51:22.62	298.00	15.52	-27.5	-29.2	15.1	0.00e+00	0	44	0	1149239296	15	4361
2026-01-30 02:51:25.63	297.41	15.38	-27.7	-29.7	14.9	7.00e-07	0	44	0	1158676480	15	4495
2026-01-30 02:51:28.63	296.82	15.25	-27.6	-29.4	15.0	4.59e-04	0	44	0	1168113664	15	4415
2026-01-30 02:51:31.64	296.24	15.11	-27.5	-29.1	15.1	0.00e+00	0	44	0	1177550848	15	4348
2026-01-30 02:51:34.65	295.66	14.97	-27.6	-29.4	15.0	0.00e+00	0	44	0	1186988032	15	4422
2026-01-30 02:51:37.67	295.09	14.83	-28.2	-30.1	14.5	0.00e+00	0	44	0	1196425216	16	4502
2026-01-30 02:51:40.67	294.53	14.69	-27.9	-29.6	14.7	6.58e-04	0	44	0	1205862400	16	4365
2026-01-30 02:51:43.69	293.96	14.54	-27.7	-29.7	14.8	5.89e-04	0	44	0	1215299584	15	4511
2026-01-30 02:51:46.71	293.41	14.40	-27.8	-29.8	14.7	0.00e+00	0	44	0	1224736768	15	4542
2026-01-30 02:51:49.73	292.86	14.25	-27.6	-29.4	14.9	6.77e-04	0	44	0	1234173952	15	4423
2026-01-30 02:51:52.74	292.31	14.10	-27.7	-29.6	14.8	0.00e+00	0	44	0	1243611136	15	4487
2026-01-30 02:51:55.75	291.78	13.95	-27.7	-29.5	14.8	2.29e-03	0	44	0	1253048320	15	4461
2026-01-30 02:51:58.76	291.24	13.79	-27.8	-29.9	14.6	7.00e-07	0	44	0	1262485504	15	4576
2026-01-30 02:52:01.77	290.72	13.64	-28.2	-30.2	14.3	7.00e-07	0	44	0	1271922688	16	4548
2026-01-30 02:52:04.79	290.19	13.48	-28.2	-30.3	14.2	1.50e-06	0	44	0	1281359872	16	4574
2026-01-30 02:52:07.80	289.68	13.32	-28.2	-30.3	14.2	3.00e-06	0	44	0	1290797056	16	4562
2026-01-30 02:52:10.81	289.17	13.16	-28.1	-30.1	14.3	1.50e-06	0	44	0	1300234240	16	4520
2026-01-30 02:52:13.82	288.66	13.00	-28.1	-30.0	14.4	7.00e-07	0	44	0	1309671424	16	4477
2026-01-30 02:52:16.84	288.16	12.84	-28.1	-30.0	14.4	1.50e-06	0	44	0	1319108608	16	4492
2026-01-30 02:52:19.85	287.67	12.68	-28.0	-29.9	14.4	7.00e-07	0	44	0	1328545792	16	4454
2026-01-30 02:52:22.86	287.18	12.52	-28.2	-30.2	14.2	1.50e-06	0	44	0	1337982976	16	4554
2026-01-30 02:52:25.88	286.70	12.35	-28.4	-30.7	13.9	4.50e-06	0	44	0	1347420160	16	4707
2026-01-30 02:52:28.88	286.22	12.19	-28.1	-30.1	14.2	7.00e-07	0	44	0	1356857344	16	4527
2026-01-30 02:52:31.89	285.75	12.02	-28.2	-30.3	14.1	2.20e-06	0	44	0	1366294528	16	4582
2026-01-30 02:52:34.90	285.29	11.86	-28.3	-30.5	13.9	1.50e-06	0	44	0	1375731712	16	4654
2026-01-30 02:52:37.91	284.82	11.69	-28.7	-31.0	13.4	9.90e-06	0	44	0	1385168896	17	4695
2026-01-30 02:52:40.92	284.37	11.52	-28.7	-31.0	13.3	1.37e-05	0	44	0	1394606080	17	4687
2026-01-30 02:52:43.92	283.92	11.35	-28.8	-31.3	13.2	1.90e-05	0	44	0	1404043264	17	4800
2026-01-30 02:52:46.92	283.48	11.18	-28.6	-31.2	12.3	6.10e-06	0	44	0	1413480448	16	4871
2026-01-30 02:52:49.94	283.03	11.01	-28.6	-30.8	13.4	1.22e-05	0	44	0	1422917632	17	4648
2026-01-30 02:52:52.95	282.60	10.84	-28.6	-30.8	13.4	3.33e-03	0	44	0	1431306240	17	4621
2026-01-30 02:52:55.97	282.17	10.67	-28.7	-31.0	13.2	2.51e-05	0	44	0	1441792000	17	4702
2026-01-30 02:52:58.98	281.74	10.50	-28.5	-30.5	13.5	2.62e-03	0	44	0	1451229184	17	4551
2026-01-30 02:53:01.99	281.32	10.33	-28.3	-30.6	13.8	7.97e-04	0	44	0	1459617792	16	4693
2026-01-30 02:53:04.99	280.91	10.16	-28.4	-30.8	13.6	8.30e-06	0	44	0	1469054976	16	4762
2026-01-30 02:53:08.01	280.50	9.99	-28.6	-30.7	13.4	3.35e-03	0	44	0	1478492160	17	4616
2026-01-30 02:53:11.02	280.09	9.82	-28.5	-30.5	13.5	7.60e-06	0	44	0	1487929344	17	4552
2026-01-30 02:53:14.03	279.69	9.65	-28.4	-30.9	13.5	3.60e-03	0	44	0	1497366528	16	4797
2026-01-30 02:53:17.04	279.30	9.47	-28.3	-30.7	13.6	3.49e-03	0	44	0	1506803712	16	4723
2026-01-30 02:53:20.05	278.91	9.30	-28.6	-30.9	13.2	3.25e-03	0	44	0	1516240896	17	4669
2026-01-30 02:53:23.06	278.52	9.13	-28.5	-30.7	13.3	5.97e-04	0	44	0	1525678080	17	4605
2026-01-30 02:53:26.07	278.14	8.96	-28.5	-30.7	13.3	1.37e-05	0	44	0	1535115264	17	4600
2026-01-30 02:53:29.08	277.76	8.78	-28.7	-31.1	13.0	3.38e-03	0	44	0	1544552448	17	4755
2026-01-30 02:53:32.09	277.39	8.61	-28.7	-31.2	13.0	3.96e-05	0	44	0	1553989632	17	4782
2026-01-30 02:53:35.10	277.02	8.44	-28.9	-31.5	12.7	4.95e-05	0	44	0	1563426816	17	4899
2026-01-30 02:53:38.11	276.66	8.27	-28.8	-31.0	12.7	9.68e-05	0	44	0	1572864000	18	4602
2026-01-30 02:53:41.12	276.30	8.10	-28.8	-31.5	12.7	6.48e-05	0	44	0	1582301184	17	4890
2026-01-30 02:53:44.14	275.94	7.92	-28.7	-31.2	12.9	5.41e-05	0	44	0	1591738368	17	4777
2026-01-30 02:53:47.14	275.59	7.75	-28.6	-30.8	13.1	2.82e-05	0	44	0	1601175552	17	4656
2026-01-30 02:53:50.15	275.25	7.58	-28.6	-30.9	13.1	3.89e-05	0	44	0	1610612736	17	4673
2026-01-30 02:53:53.17	274.90	7.41	-28.9	-31.7	12.5	8.46e-05	0	44	0	1620049920	17	4975
2026-01-30 02:53:56.18	274.57	7.24	-29.0	-31.5	12.3	1.85e-04	0	44	0	1629487104	18	4782
2026-01-30 02:53:59.19	274.23	7.07	-29.4	-32.4	11.9	1.28e-04	0	44	0	1638924288	18	5102

#Closed at: 2026-01-30 02:54:01
#Recorded file [1639 MB]: D:/data/31010_260130_054514.dat