passes_logs/2026/01/30/R2M6_AANII_01/R2M6_AANII_01__20260130_114847_NOAA_20_JPSS-1_rec.log

#Pass ID: 20260130_114847_NOAA 20 (JPSS-1)
#Satellite: NOAA 20 (JPSS-1)
#Configuration: NOAA 20
#almurnet v.1.7.20240730
#Start time: 2026-01-30 11:55:47

#Version: 2.2.20231116
#Station: R2M6_AANII_01
#Location: 30.233357 lon 59.946436 lat
#TLE: 1 43013U 17073A   26029.42702672  .00000137  00000+0  85918-4 0  9993
#TLE: 2 43013  98.7646 330.2153 0000804  19.9045 340.2162 14.19525092424781

#Time	Az	El	Level	Level2	SNR	BER	BlckErr	Temp	State	Recorded	gain1	gain2
2026-01-30 11:55:47.01	299.44	22.48	-33.8	-53.2	3.8	7.47e-01	0	43	0	0	28	33288
2026-01-30 11:55:48.01	299.67	22.41	-34.2	-47.9	3.8	1.49e+00	0	43	104	0	29	17457
2026-01-30 11:55:49.01	299.91	22.34	-34.2	-47.9	3.8	1.49e+00	0	43	104	0	29	17554
2026-01-30 11:55:50.02	300.15	22.27	-34.1	-47.9	3.8	1.49e+00	0	43	104	0	29	17517
2026-01-30 11:55:51.02	300.38	22.20	-34.2	-48.0	3.8	1.49e+00	0	43	104	0	29	17655
2026-01-30 11:55:52.03	300.62	22.13	-34.2	-48.0	3.8	1.49e+00	0	43	104	0	29	17620
2026-01-30 11:55:53.04	300.85	22.06	-34.3	-48.1	3.8	1.49e+00	0	43	104	0	29	17634
2026-01-30 11:55:54.05	301.09	21.99	-34.3	-48.1	3.8	1.49e+00	0	43	104	0	29	17673
2026-01-30 11:55:55.05	301.32	21.92	-34.2	-48.0	3.8	1.49e+00	0	43	104	0	29	17639
2026-01-30 11:55:56.06	301.55	21.85	-34.2	-48.0	3.8	1.49e+00	0	43	104	0	29	17605
2026-01-30 11:55:57.07	301.78	21.78	-34.2	-48.0	3.8	1.49e+00	0	43	104	0	29	17559
2026-01-30 11:55:58.07	302.01	21.70	-34.2	-47.9	3.8	1.49e+00	0	43	104	0	29	17546
2026-01-30 11:55:59.07	302.23	21.63	-34.2	-48.0	3.8	1.49e+00	0	43	104	0	29	17589
2026-01-30 11:56:00.08	302.46	21.56	-34.2	-47.9	3.8	1.49e+00	0	43	104	0	29	17541
2026-01-30 11:56:01.08	302.68	21.49	-34.2	-47.9	3.8	1.49e+00	0	43	104	0	29	17513
2026-01-30 11:56:02.09	302.91	21.42	-34.2	-48.0	3.8	1.49e+00	0	43	104	0	29	17617
2026-01-30 11:56:03.09	303.13	21.34	-34.2	-48.0	3.8	1.49e+00	0	43	104	0	29	17657
2026-01-30 11:56:04.09	303.35	21.27	-34.2	-48.0	3.8	1.49e+00	0	43	104	0	29	17668
2026-01-30 11:56:05.09	303.57	21.20	-34.2	-48.0	3.8	1.49e+00	0	43	104	0	29	17605
2026-01-30 11:56:06.10	303.79	21.13	-34.2	-48.0	3.8	1.49e+00	0	43	104	0	29	17588
2026-01-30 11:56:07.10	304.01	21.05	-34.2	-47.9	3.8	1.49e+00	0	43	104	0	29	17558
2026-01-30 11:56:08.11	304.23	20.98	-34.1	-47.9	3.8	1.49e+00	0	43	104	0	29	17487
2026-01-30 11:56:09.12	304.45	20.90	-34.1	-47.8	3.8	1.49e+00	0	43	104	0	29	17454
2026-01-30 11:56:10.12	304.66	20.83	-34.1	-47.8	3.8	1.49e+00	0	43	104	0	29	17450
2026-01-30 11:56:11.13	304.88	20.76	-34.1	-47.7	3.8	1.49e+00	0	43	104	0	29	17333
2026-01-30 11:56:12.13	305.09	20.68	-34.1	-47.7	3.8	1.49e+00	0	43	104	0	29	17266
2026-01-30 11:56:13.13	305.30	20.61	-34.0	-47.6	3.8	1.49e+00	0	43	104	0	29	17214
2026-01-30 11:56:14.14	305.52	20.53	-34.0	-47.5	3.8	1.49e+00	0	43	104	0	29	16999
2026-01-30 11:56:15.14	305.73	20.46	-33.9	-47.3	3.8	1.49e+00	0	43	104	0	29	16758
2026-01-30 11:56:16.15	305.94	20.38	-33.8	-46.9	3.8	1.49e+00	0	43	104	0	29	16249
2026-01-30 11:56:17.15	306.15	20.31	-33.6	-46.5	3.8	1.49e+00	0	43	104	0	28	15796
2026-01-30 11:56:18.15	306.35	20.23	-33.6	-46.9	3.8	1.49e+00	0	43	104	0	28	16721
2026-01-30 11:56:19.15	306.56	20.16	-33.5	-47.0	3.8	1.49e+00	0	43	104	0	28	17016
2026-01-30 11:56:20.15	306.76	20.08	-33.5	-47.0	3.8	1.49e+00	0	43	104	0	28	17086
2026-01-30 11:56:21.16	306.97	20.01	-33.5	-47.0	3.8	1.49e+00	0	43	104	0	28	16931
2026-01-30 11:56:22.17	307.17	19.93	-33.5	-46.7	3.8	1.49e+00	0	43	104	0	28	16492
2026-01-30 11:56:23.17	307.38	19.86	-33.5	-46.4	3.8	1.49e+00	0	43	104	0	28	15916
2026-01-30 11:56:24.17	307.58	19.78	-33.5	-46.2	3.8	1.49e+00	0	43	104	0	28	15580
2026-01-30 11:56:25.18	307.78	19.70	-33.4	-45.9	3.8	1.49e+00	0	43	104	0	28	15138
2026-01-30 11:56:26.19	307.98	19.63	-33.4	-45.8	3.8	1.49e+00	0	43	104	0	28	14896
2026-01-30 11:56:27.19	308.18	19.55	-33.4	-45.5	3.8	1.49e+00	0	43	104	0	28	14502
2026-01-30 11:56:28.20	308.38	19.47	-33.4	-45.1	3.8	1.49e+00	0	43	104	0	28	13926
2026-01-30 11:56:29.20	308.57	19.40	-33.3	-44.5	3.8	1.49e+00	0	43	104	0	28	13003
2026-01-30 11:56:30.21	308.77	19.32	-33.3	-43.8	4.0	1.48e+00	0	43	104	0	28	12018
2026-01-30 11:56:31.21	308.97	19.24	-33.3	-43.9	3.9	1.43e+00	0	43	104	0	27	12210
2026-01-30 11:56:32.22	309.16	19.17	-33.3	-43.4	4.3	1.47e+00	0	43	104	0	27	11496
2026-01-30 11:56:33.23	309.36	19.09	-33.3	-43.6	4.0	1.34e+00	0	43	104	0	27	11813
2026-01-30 11:56:34.23	309.55	19.01	-33.3	-43.6	4.3	1.42e+00	0	43	104	0	27	11750
2026-01-30 11:56:35.23	309.74	18.94	-33.3	-43.7	3.9	1.42e+00	0	43	104	0	27	11948
2026-01-30 11:56:36.23	309.93	18.86	-33.3	-43.1	4.5	1.45e+00	0	43	104	0	27	11145
2026-01-30 11:56:37.23	310.12	18.78	-33.1	-41.6	4.3	1.41e+00	0	43	104	0	27	9567
2026-01-30 11:56:38.24	310.30	18.71	-32.8	-39.5	6.2	6.73e-01	0	43	104	0	27	7827
2026-01-30 11:56:39.24	310.49	18.63	-32.4	-38.1	5.0	9.22e-01	0	43	104	0	26	6919
2026-01-30 11:56:40.24	310.68	18.55	-32.0	-36.9	8.9	3.64e-02	0	44	104	0	25	6292
2026-01-30 11:56:41.25	310.86	18.47	-31.9	-36.2	9.5	1.60e-02	0	43	0	1048576	25	5959
2026-01-30 11:56:42.26	311.05	18.40	-31.9	-36.5	9.3	1.42e-02	0	43	0	3145728	25	6116
2026-01-30 11:56:43.27	311.24	18.32	-32.0	-37.0	8.8	2.78e-02	0	43	0	5242880	25	6366
2026-01-30 11:56:44.27	311.42	18.24	-32.1	-37.1	8.8	3.19e-02	0	43	0	6291456	25	6406
2026-01-30 11:56:45.28	311.60	18.16	-32.2	-37.4	8.5	3.75e-02	0	43	0	8388608	25	6614
2026-01-30 11:56:46.28	311.78	18.09	-32.2	-37.6	8.4	4.45e-02	0	43	0	10485760	25	6680
2026-01-30 11:56:47.28	311.96	18.01	-32.1	-37.4	8.6	4.68e-02	0	43	0	12582912	25	6601
2026-01-30 11:56:48.28	312.14	17.93	-31.9	-36.2	9.5	2.30e-02	0	43	0	13631488	25	5949
2026-01-30 11:56:49.29	312.32	17.85	-31.4	-35.2	10.6	7.45e-03	0	43	0	15728640	24	5565
2026-01-30 11:56:50.29	312.49	17.78	-31.0	-34.4	11.5	1.13e-03	0	44	0	17825792	23	5321
2026-01-30 11:56:51.29	312.67	17.70	-30.7	-34.0	12.2	3.29e-04	0	43	0	19922944	22	5239
2026-01-30 11:56:52.30	312.85	17.62	-30.6	-33.5	12.5	1.56e-04	0	43	0	22020096	22	5042
2026-01-30 11:56:53.30	313.02	17.54	-30.5	-33.4	12.6	1.11e-04	0	43	0	23068672	22	5000
2026-01-30 11:56:54.31	313.20	17.47	-30.5	-33.4	12.6	7.78e-05	0	43	0	25165824	22	5001
2026-01-30 11:56:55.31	313.37	17.39	-30.6	-33.5	12.5	9.46e-05	0	43	0	27262976	22	5065
2026-01-30 11:56:56.31	313.54	17.31	-30.7	-33.8	12.3	1.53e-04	0	43	0	29360128	22	5161
2026-01-30 11:56:57.31	313.71	17.23	-30.5	-33.3	12.7	1.17e-04	0	44	0	31457280	22	4965
2026-01-30 11:56:58.32	313.88	17.16	-30.3	-32.9	13.0	5.11e-05	0	43	0	32505856	22	4811
2026-01-30 11:56:59.32	314.05	17.08	-30.1	-32.6	13.4	3.50e-05	0	43	0	34603008	21	4821
2026-01-30 11:57:00.33	314.22	17.00	-29.8	-32.3	13.9	6.10e-06	0	43	0	36700160	20	4836
2026-01-30 11:57:01.34	314.39	16.92	-29.7	-32.2	14.0	2.20e-06	0	43	0	38797312	20	4777
2026-01-30 11:57:02.34	314.56	16.85	-29.8	-32.5	13.8	7.00e-07	0	43	0	40894464	20	4876
2026-01-30 11:57:03.34	314.72	16.77	-30.1	-33.1	13.4	5.30e-06	0	43	0	41943040	20	5112
2026-01-30 11:57:04.35	314.89	16.69	-30.3	-33.7	13.0	2.74e-05	0	44	0	44040192	20	5348
2026-01-30 11:57:05.35	315.05	16.61	-30.6	-34.3	12.3	1.09e-04	0	43	0	46137344	21	5472
2026-01-30 11:57:06.35	315.22	16.54	-30.9	-35.0	11.8	2.68e-04	0	43	0	48234496	21	5763
2026-01-30 11:57:07.36	315.38	16.46	-31.1	-35.1	11.4	9.88e-04	0	43	0	50331648	22	5717
2026-01-30 11:57:08.35	315.54	16.38	-31.0	-35.0	11.5	7.59e-04	0	43	0	51380224	22	5660
2026-01-30 11:57:09.35	315.70	16.31	-31.0	-34.9	11.5	8.98e-04	0	43	0	53477376	22	5617
2026-01-30 11:57:10.36	315.86	16.23	-30.9	-34.6	11.7	5.74e-04	0	43	0	55574528	22	5504
2026-01-30 11:57:11.37	316.02	16.15	-30.9	-34.7	11.6	5.44e-04	0	43	0	57671680	22	5538
2026-01-30 11:57:12.37	316.18	16.07	-30.9	-34.4	11.8	7.35e-04	0	43	0	59768832	22	5411
2026-01-30 11:57:13.37	316.34	16.00	-30.5	-33.2	12.7	2.37e-04	0	43	0	60817408	22	4944
2026-01-30 11:57:14.38	316.50	15.92	-30.5	-33.3	12.6	8.46e-05	0	43	0	62914560	22	4981
2026-01-30 11:57:15.38	316.65	15.84	-30.5	-33.3	12.6	8.31e-05	0	43	0	65011712	22	4990
2026-01-30 11:57:16.38	316.81	15.77	-30.6	-33.6	12.4	1.28e-04	0	43	0	67108864	22	5086
2026-01-30 11:57:17.38	316.96	15.69	-30.6	-33.5	12.5	1.12e-04	0	43	0	68157440	22	5056
2026-01-30 11:57:18.39	317.12	15.61	-30.5	-33.5	12.5	1.20e-04	0	43	0	70254592	22	5040
2026-01-30 11:57:19.39	317.27	15.53	-30.6	-33.5	12.4	1.35e-04	0	43	0	72351744	22	5068
2026-01-30 11:57:20.40	317.43	15.46	-30.5	-33.3	12.6	1.49e-04	0	43	0	74448896	22	4978
2026-01-30 11:57:21.40	317.58	15.38	-30.2	-33.0	13.1	5.18e-05	0	43	0	76546048	21	4980
2026-01-30 11:57:22.40	317.73	15.30	-30.1	-32.7	13.3	2.13e-05	0	43	0	77594624	21	4878
2026-01-30 11:57:23.40	317.88	15.23	-30.1	-32.9	13.2	2.67e-05	0	43	0	79691776	21	4929
2026-01-30 11:57:24.41	318.03	15.15	-30.2	-33.1	13.0	3.58e-05	0	44	0	81788928	21	5011
2026-01-30 11:57:25.41	318.18	15.07	-30.1	-32.8	13.2	2.13e-05	0	44	0	83886080	21	4918
2026-01-30 11:57:26.41	318.33	15.00	-30.2	-32.9	13.1	2.97e-05	0	43	0	85983232	21	4954
2026-01-30 11:57:27.40	318.47	14.92	-30.3	-33.2	12.9	3.43e-05	0	43	0	87031808	21	5068
2026-01-30 11:57:28.41	318.62	14.85	-30.4	-33.6	12.6	8.46e-05	0	43	0	89128960	21	5230
2026-01-30 11:57:29.40	318.76	14.77	-30.5	-34.0	12.4	8.62e-05	0	43	0	91226112	21	5375
2026-01-30 11:57:30.41	318.91	14.69	-30.5	-34.0	12.3	2.26e-04	0	43	0	93323264	21	5390
2026-01-30 11:57:31.41	319.05	14.62	-30.5	-33.9	12.5	1.22e-04	0	43	0	95420416	21	5323
2026-01-30 11:57:32.42	319.20	14.54	-30.3	-33.4	12.8	8.54e-05	0	43	0	96468992	21	5130
2026-01-30 11:57:33.42	319.34	14.47	-30.2	-33.1	13.0	4.19e-05	0	43	0	98566144	21	5009
2026-01-30 11:57:34.42	319.48	14.39	-30.2	-33.0	13.0	3.43e-05	0	43	0	100663296	21	4983
2026-01-30 11:57:35.43	319.63	14.31	-30.2	-33.0	13.1	4.34e-05	0	43	0	102760448	21	4966
2026-01-30 11:57:36.42	319.76	14.24	-30.1	-32.8	13.1	2.36e-05	0	43	0	104857600	21	4919
2026-01-30 11:57:37.43	319.91	14.16	-30.1	-32.9	13.1	2.21e-05	0	43	0	105906176	21	4930
2026-01-30 11:57:38.43	320.04	14.09	-30.2	-33.0	13.0	3.28e-05	0	43	0	108003328	21	4997
2026-01-30 11:57:39.43	320.18	14.01	-30.3	-33.3	12.8	4.04e-05	0	43	0	110100480	21	5085
2026-01-30 11:57:40.43	320.32	13.94	-30.3	-33.4	12.8	4.42e-05	0	43	0	112197632	21	5120
2026-01-30 11:57:41.43	320.46	13.86	-30.4	-33.5	12.7	7.70e-05	0	43	0	113246208	21	5187
2026-01-30 11:57:42.43	320.59	13.79	-30.3	-33.3	12.8	7.93e-05	0	43	0	115343360	21	5091
2026-01-30 11:57:43.43	320.73	13.71	-30.2	-33.2	12.8	5.79e-05	0	44	0	117440512	21	5078
2026-01-30 11:57:44.43	320.87	13.64	-30.3	-33.3	12.7	6.63e-05	0	43	0	119537664	21	5118
2026-01-30 11:57:45.44	321.00	13.56	-30.2	-33.2	12.8	7.70e-05	0	43	0	121634816	21	5071
2026-01-30 11:57:46.44	321.14	13.49	-30.1	-32.9	13.0	4.04e-05	0	44	0	122683392	21	4959
2026-01-30 11:57:47.43	321.27	13.41	-30.0	-32.7	13.2	2.36e-05	0	43	0	124780544	21	4887
2026-01-30 11:57:48.44	321.40	13.34	-30.0	-32.6	13.2	3.73e-05	0	43	0	126877696	21	4865
2026-01-30 11:57:49.45	321.53	13.26	-30.0	-32.5	13.2	2.74e-05	0	44	0	128974848	21	4830
2026-01-30 11:57:50.46	321.67	13.19	-30.0	-32.5	13.3	2.51e-05	0	43	0	131072000	21	4828
2026-01-30 11:57:51.45	321.80	13.12	-30.0	-32.7	13.1	1.75e-05	0	43	0	132120576	21	4887
2026-01-30 11:57:52.46	321.93	13.04	-30.1	-32.8	13.1	4.50e-05	0	43	0	134217728	21	4929
2026-01-30 11:57:53.46	322.06	12.97	-30.1	-32.9	13.0	3.43e-05	0	43	0	136314880	21	4972
2026-01-30 11:57:54.46	322.19	12.89	-30.2	-33.2	12.8	5.72e-05	0	43	0	138412032	21	5093
2026-01-30 11:57:55.46	322.31	12.82	-30.2	-33.1	12.9	4.80e-05	0	43	0	140509184	21	5035
2026-01-30 11:57:56.46	322.44	12.75	-30.2	-33.3	12.7	5.72e-05	0	43	0	141557760	21	5097
2026-01-30 11:57:57.46	322.57	12.67	-30.3	-33.4	12.6	8.01e-05	0	43	0	143654912	21	5158
2026-01-30 11:57:58.47	322.70	12.60	-30.2	-33.2	12.8	6.48e-05	0	44	0	145752064	21	5080
2026-01-30 11:57:59.47	322.82	12.53	-30.3	-33.4	12.7	6.86e-05	0	44	0	147849216	21	5140
2026-01-30 11:58:00.47	322.95	12.45	-30.3	-33.4	12.6	9.30e-05	0	43	0	149946368	21	5157
2026-01-30 11:58:01.47	323.07	12.38	-30.2	-33.3	12.7	6.71e-05	0	43	0	150994944	21	5101
2026-01-30 11:58:02.47	323.20	12.31	-30.3	-33.4	12.6	1.02e-04	0	44	0	153092096	21	5170
2026-01-30 11:58:03.47	323.32	12.23	-30.3	-33.5	12.5	9.38e-05	0	43	0	155189248	21	5198
2026-01-30 11:58:04.48	323.44	12.16	-30.5	-33.9	12.2	1.23e-04	0	43	0	157286400	21	5374
2026-01-30 11:58:05.48	323.57	12.09	-30.5	-34.2	12.0	2.97e-04	0	44	0	158334976	21	5482
2026-01-30 11:58:06.49	323.69	12.01	-30.5	-33.9	12.2	2.03e-04	0	43	0	160432128	21	5371
2026-01-30 11:58:07.50	323.81	11.94	-30.5	-33.9	12.2	1.89e-04	0	43	0	162529280	21	5364
2026-01-30 11:58:08.51	323.93	11.87	-30.4	-33.9	12.2	1.94e-04	0	43	0	164626432	21	5346
2026-01-30 11:58:09.50	324.05	11.80	-30.4	-33.9	12.2	1.99e-04	0	43	0	166723584	21	5348
2026-01-30 11:58:10.51	324.17	11.72	-30.5	-33.9	12.2	2.50e-04	0	43	0	168820736	21	5380
2026-01-30 11:58:11.51	324.29	11.65	-30.4	-33.7	12.3	2.01e-04	0	44	0	169869312	21	5278
2026-01-30 11:58:12.52	324.41	11.58	-30.5	-33.9	12.2	1.71e-04	0	43	0	171966464	21	5368
2026-01-30 11:58:13.52	324.53	11.51	-30.4	-33.7	12.4	1.93e-04	0	43	0	174063616	21	5262
2026-01-30 11:58:14.53	324.64	11.43	-30.3	-33.6	12.4	1.39e-04	0	43	0	176160768	21	5243
2026-01-30 11:58:15.52	324.76	11.36	-30.3	-33.6	12.5	1.39e-04	0	43	0	177209344	21	5224
2026-01-30 11:58:16.53	324.88	11.29	-30.3	-33.5	12.5	1.27e-04	0	43	0	179306496	21	5213
2026-01-30 11:58:17.53	324.99	11.22	-30.3	-33.5	12.4	1.16e-04	0	43	0	181403648	21	5224
2026-01-30 11:58:18.53	325.11	11.15	-30.3	-33.5	12.5	1.15e-04	0	43	0	183500800	21	5220
2026-01-30 11:58:19.54	325.22	11.08	-30.3	-33.6	12.4	1.50e-04	0	43	0	185597952	21	5250
2026-01-30 11:58:20.54	325.34	11.00	-30.4	-33.7	12.3	1.69e-04	0	43	0	186646528	21	5284
2026-01-30 11:58:21.54	325.45	10.93	-30.3	-33.6	12.4	1.60e-04	0	43	0	188743680	21	5248
2026-01-30 11:58:22.55	325.56	10.86	-30.4	-33.6	12.4	1.43e-04	0	43	0	190840832	21	5260
2026-01-30 11:58:23.55	325.68	10.79	-30.5	-34.0	12.1	1.85e-04	0	43	0	192937984	21	5400
2026-01-30 11:58:24.55	325.79	10.72	-30.5	-34.1	12.0	2.97e-04	0	43	0	195035136	21	5469
2026-01-30 11:58:25.56	325.90	10.65	-30.6	-34.3	11.9	3.49e-04	0	44	0	196083712	21	5550
2026-01-30 11:58:26.55	326.01	10.58	-30.6	-34.5	11.7	5.98e-04	0	44	0	198180864	21	5631
2026-01-30 11:58:27.55	326.12	10.51	-30.7	-34.6	11.6	5.99e-04	0	44	0	200278016	21	5665
2026-01-30 11:58:28.56	326.23	10.44	-30.7	-34.9	11.4	9.28e-04	0	43	0	202375168	21	5793
2026-01-30 11:58:29.56	326.34	10.37	-30.8	-35.0	11.4	9.15e-04	0	43	0	204472320	21	5855
2026-01-30 11:58:30.57	326.45	10.30	-30.8	-35.2	11.2	1.25e-03	0	43	0	205520896	21	5947
2026-01-30 11:58:31.57	326.56	10.23	-30.9	-35.3	11.1	1.48e-03	0	43	0	207618048	21	6013
2026-01-30 11:58:32.57	326.67	10.16	-31.0	-35.7	10.8	2.11e-03	0	43	0	209715200	21	6195
2026-01-30 11:58:33.58	326.77	10.09	-31.0	-35.3	10.8	2.38e-03	0	43	0	211812352	22	5884
2026-01-30 11:58:34.58	326.88	10.02	-31.1	-35.5	10.6	3.05e-03	0	43	0	213909504	22	5995
2026-01-30 11:58:35.58	326.99	9.95	-31.1	-35.7	10.4	4.90e-03	0	43	0	214958080	22	6111
2026-01-30 11:58:36.58	327.09	9.88	-31.2	-36.0	10.2	5.07e-03	0	44	0	217055232	22	6238
2026-01-30 11:58:37.59	327.20	9.81	-31.3	-36.1	10.1	6.80e-03	0	43	0	219152384	22	6305
2026-01-30 11:58:38.59	327.30	9.74	-31.3	-36.1	10.1	6.44e-03	0	43	0	221249536	22	6317
2026-01-30 11:58:39.59	327.41	9.67	-31.2	-36.1	10.1	7.06e-03	0	43	0	222298112	22	6300
2026-01-30 11:58:40.60	327.51	9.60	-31.2	-35.9	10.2	5.37e-03	0	43	0	224395264	22	6197
2026-01-30 11:58:41.60	327.62	9.53	-31.2	-35.9	10.2	4.86e-03	0	43	0	226492416	22	6212
2026-01-30 11:58:42.61	327.72	9.46	-31.1	-35.7	10.4	4.56e-03	0	43	0	228589568	22	6107
2026-01-30 11:58:43.61	327.82	9.39	-31.1	-35.6	10.5	4.85e-03	0	43	0	230686720	22	6056
2026-01-30 11:58:44.61	327.92	9.33	-31.1	-35.6	10.5	4.21e-03	0	43	0	231735296	22	6050
2026-01-30 11:58:45.61	328.03	9.26	-31.1	-35.5	10.5	3.91e-03	0	43	0	233832448	22	6018
2026-01-30 11:58:46.60	328.13	9.19	-31.0	-35.4	10.6	3.48e-03	0	43	0	235929600	22	5943
2026-01-30 11:58:47.61	328.23	9.12	-31.0	-35.4	10.6	3.34e-03	0	44	0	238026752	22	5967
2026-01-30 11:58:48.61	328.33	9.05	-31.1	-35.7	10.4	3.52e-03	0	43	0	240123904	22	6090
2026-01-30 11:58:49.61	328.43	8.99	-31.1	-35.8	10.3	4.82e-03	0	43	0	241172480	22	6126
2026-01-30 11:58:50.61	328.53	8.92	-31.1	-35.7	10.4	4.77e-03	0	43	0	243269632	22	6092
2026-01-30 11:58:51.62	328.63	8.85	-31.1	-35.5	10.5	4.61e-03	0	43	0	245366784	22	6011
2026-01-30 11:58:52.62	328.72	8.78	-31.1	-35.8	10.3	5.16e-03	0	43	0	247463936	22	6154
2026-01-30 11:58:53.62	328.82	8.72	-31.1	-35.9	10.2	5.54e-03	0	43	0	249561088	22	6195
2026-01-30 11:58:54.63	328.92	8.65	-31.1	-35.6	10.4	4.92e-03	0	43	0	250609664	22	6054
2026-01-30 11:58:55.63	329.02	8.58	-31.1	-35.6	10.4	5.25e-03	0	43	0	252706816	22	6078
2026-01-30 11:58:56.64	329.12	8.51	-31.3	-36.3	9.8	7.10e-03	0	43	0	254803968	22	6421
2026-01-30 11:58:57.64	329.21	8.45	-31.2	-36.0	10.0	9.40e-03	0	43	0	256901120	22	6266
2026-01-30 11:58:58.64	329.31	8.38	-31.1	-35.6	10.3	6.42e-03	0	43	0	258998272	22	6081
2026-01-30 11:58:59.65	329.40	8.31	-30.9	-35.1	10.7	3.72e-03	0	43	0	260046848	22	5854
2026-01-30 11:59:00.65	329.50	8.24	-30.9	-35.0	10.8	2.95e-03	0	43	0	262144000	22	5800
2026-01-30 11:59:01.65	329.59	8.18	-30.9	-35.1	10.7	2.95e-03	0	43	0	264241152	22	5826
2026-01-30 11:59:02.66	329.69	8.11	-30.9	-35.1	10.7	3.82e-03	0	43	0	266338304	22	5826
2026-01-30 11:59:03.66	329.78	8.04	-30.8	-34.9	10.9	2.33e-03	0	43	0	268435456	22	5718
2026-01-30 11:59:04.67	329.88	7.98	-30.9	-35.2	10.6	2.49e-03	0	43	0	269484032	22	5902
2026-01-30 11:59:05.67	329.97	7.91	-30.9	-35.2	10.6	3.75e-03	0	43	0	271581184	22	5909
2026-01-30 11:59:06.67	330.06	7.85	-31.0	-35.6	10.3	4.58e-03	0	43	0	273678336	22	6097
2026-01-30 11:59:07.68	330.16	7.78	-31.0	-35.5	10.3	7.00e-03	0	43	0	275775488	22	6029
2026-01-30 11:59:08.68	330.25	7.71	-31.1	-35.8	10.2	5.32e-03	0	43	0	277872640	22	6170
2026-01-30 11:59:09.69	330.34	7.65	-31.1	-35.8	10.1	7.25e-03	0	43	0	278921216	22	6177
2026-01-30 11:59:10.69	330.43	7.58	-31.0	-35.7	10.2	5.25e-03	0	43	0	281018368	22	6123
2026-01-30 11:59:11.69	330.52	7.52	-31.0	-35.6	10.3	5.36e-03	0	43	0	283115520	22	6096
2026-01-30 11:59:12.69	330.61	7.45	-31.0	-35.4	10.4	5.10e-03	0	43	0	285212672	22	6007
2026-01-30 11:59:13.70	330.70	7.39	-31.0	-35.3	10.4	4.42e-03	0	43	0	286261248	22	5969
2026-01-30 11:59:14.71	330.79	7.32	-30.8	-35.0	10.7	3.42e-03	0	43	0	288358400	22	5788
2026-01-30 11:59:15.71	330.88	7.25	-30.8	-34.8	10.8	3.01e-03	0	43	0	290455552	22	5705
2026-01-30 11:59:16.71	330.97	7.19	-30.8	-34.7	10.9	2.41e-03	0	43	0	292552704	22	5667
2026-01-30 11:59:17.71	331.06	7.13	-30.9	-35.1	10.6	2.74e-03	0	43	0	294649856	22	5833
2026-01-30 11:59:18.72	331.15	7.06	-33.2	-47.3	3.8	5.09e-02	0	43	104	295698432	26	18290
2026-01-30 11:59:19.71	331.23	7.00	-33.6	-47.7	3.8	1.49e+00	0	44	104	295698432	27	18341
2026-01-30 11:59:20.72	331.32	6.93	-33.8	-48.2	3.8	1.49e+00	0	43	104	295698432	27	18927

#Closed at: 2026-01-30 11:59:20
#Recorded file [295 MB]: D:/data/31010_260130_145640.dat