passes_logs/2026/01/30/R2M6_AANII_01/R2M6_AANII_01__20260130_132336_AQUA_rec.log

#Pass ID: 20260130_132336_AQUA
#Satellite: AQUA
#Configuration: AQUA
#almurnet v.1.7.20240730
#Start time: 2026-01-30 13:23:37

#Version: 2.2.20231116
#Station: R2M6_AANII_01
#Location: 30.233357 lon 59.946436 lat
#TLE: 1 27424U 02022A   26029.54575153  .00001738  00000+0  35736-3 0  9994
#TLE: 2 27424  98.4104 356.2197 0001804  61.7823  56.0643 14.61874165263019

#Time	Az	El	Level	Level2	SNR	BER	BlckErr	Temp	State	Recorded	gain1	gain2
2026-01-30 13:23:37.48	205.99	7.06	-30.7	-36.2	5.2	7.08e-01	0	41	0	0	22	6793
2026-01-30 13:23:40.52	206.29	7.28	-31.5	-37.5	13.5	6.10e-01	0	41	0	1572864	24	7178
2026-01-30 13:23:43.55	206.59	7.49	-30.8	-35.2	15.7	6.05e-01	0	41	0	7340032	23	5958
2026-01-30 13:23:46.58	206.89	7.71	-30.3	-34.1	16.8	6.05e-01	0	41	0	13107200	22	5551
2026-01-30 13:23:49.61	207.20	7.93	-30.5	-34.5	16.6	6.08e-01	0	41	0	18874368	22	5708
2026-01-30 13:23:52.64	207.51	8.15	-30.0	-32.9	17.7	6.07e-01	0	41	0	24641536	22	5050
2026-01-30 13:23:55.67	207.83	8.37	-30.0	-33.1	17.7	6.08e-01	0	41	0	29884416	22	5107
2026-01-30 13:23:58.70	208.15	8.59	-29.8	-33.0	18.1	6.05e-01	0	41	0	35651584	21	5192
2026-01-30 13:24:01.73	208.48	8.82	-29.9	-33.2	18.0	6.08e-01	0	41	0	41418752	21	5255
2026-01-30 13:24:04.76	208.81	9.04	-29.8	-32.8	18.2	6.07e-01	0	41	0	47185920	21	5107
2026-01-30 13:24:07.79	209.15	9.27	-29.9	-33.1	18.1	6.05e-01	0	41	0	52953088	21	5212
2026-01-30 13:24:10.82	209.50	9.50	-29.6	-32.4	18.6	6.07e-01	0	41	0	58720256	21	4950
2026-01-30 13:24:13.86	209.85	9.73	-29.7	-32.6	18.4	6.08e-01	0	41	0	64487424	21	5042
2026-01-30 13:24:16.89	210.20	9.96	-29.7	-32.7	18.4	6.05e-01	0	41	0	69730304	21	5048
2026-01-30 13:24:19.92	210.57	10.19	-29.7	-32.7	18.3	6.08e-01	0	42	0	75497472	21	5063
2026-01-30 13:24:22.95	210.93	10.43	-29.6	-32.3	18.6	6.08e-01	0	41	0	81264640	21	4926
2026-01-30 13:24:25.98	211.31	10.66	-29.6	-32.4	18.6	6.07e-01	0	42	0	87031808	21	4942
2026-01-30 13:24:29.01	211.69	10.90	-29.5	-32.2	18.8	6.07e-01	0	42	0	92798976	21	4867
2026-01-30 13:24:32.04	212.08	11.14	-29.6	-32.2	18.7	6.06e-01	0	42	0	98566144	21	4888
2026-01-30 13:24:35.08	212.47	11.38	-29.5	-32.0	18.9	6.06e-01	0	42	0	104333312	21	4804
2026-01-30 13:24:38.11	212.87	11.62	-29.5	-31.9	19.0	6.07e-01	0	42	0	109576192	21	4783
2026-01-30 13:24:41.14	213.28	11.87	-29.6	-32.4	18.7	6.06e-01	0	42	0	115343360	21	4945
2026-01-30 13:24:44.17	213.70	12.11	-29.5	-31.9	19.0	6.06e-01	0	42	0	121110528	21	4782
2026-01-30 13:24:47.20	214.12	12.36	-29.6	-32.4	18.7	6.08e-01	0	42	0	126877696	21	4930
2026-01-30 13:24:50.23	214.55	12.61	-29.3	-31.8	19.4	6.06e-01	0	42	0	132644864	20	4841
2026-01-30 13:24:53.26	214.98	12.86	-29.3	-31.8	19.4	6.07e-01	0	42	0	137887744	20	4832
2026-01-30 13:24:56.30	215.43	13.11	-29.3	-31.9	19.4	6.08e-01	0	42	0	143654912	20	4873
2026-01-30 13:24:59.32	215.88	13.36	-29.6	-32.6	19.0	6.05e-01	0	42	0	149422080	20	5113
2026-01-30 13:25:02.36	216.35	13.61	-29.6	-32.7	18.9	6.06e-01	0	42	0	155189248	20	5127
2026-01-30 13:25:05.39	216.81	13.87	-29.7	-32.9	18.8	6.06e-01	0	42	0	160956416	20	5217
2026-01-30 13:25:08.42	217.29	14.13	-29.2	-31.6	19.6	6.08e-01	0	42	0	166723584	20	4740
2026-01-30 13:25:11.45	217.78	14.38	-29.3	-31.9	19.4	6.07e-01	0	42	0	172490752	20	4862
2026-01-30 13:25:14.48	218.27	14.64	-29.3	-31.9	19.4	6.05e-01	0	42	0	177733632	20	4866
2026-01-30 13:25:17.51	218.78	14.90	-29.3	-31.9	19.5	6.06e-01	0	42	0	183500800	20	4855
2026-01-30 13:25:20.54	219.29	15.16	-29.1	-31.4	19.8	6.07e-01	0	42	0	189267968	20	4673
2026-01-30 13:25:23.57	219.82	15.42	-29.1	-31.4	19.8	6.08e-01	0	42	0	195035136	20	4684
2026-01-30 13:25:26.60	220.35	15.69	-29.1	-31.4	19.9	6.07e-01	0	42	0	200802304	20	4656
2026-01-30 13:25:29.63	220.89	15.95	-29.1	-31.2	20.0	6.06e-01	0	42	0	206569472	20	4596
2026-01-30 13:25:32.67	221.45	16.22	-29.1	-31.4	19.8	6.08e-01	0	42	0	211812352	20	4679
2026-01-30 13:25:35.70	222.01	16.48	-29.0	-31.1	20.1	6.07e-01	0	42	0	217579520	20	4571
2026-01-30 13:25:38.73	222.58	16.75	-29.1	-31.2	20.0	6.06e-01	0	42	0	223346688	20	4607
2026-01-30 13:25:41.76	223.17	17.01	-29.2	-31.4	19.9	6.07e-01	0	42	0	229113856	20	4672
2026-01-30 13:25:44.79	223.76	17.28	-29.1	-31.2	20.1	6.07e-01	0	42	0	234881024	20	4589
2026-01-30 13:25:47.82	224.37	17.55	-29.1	-31.2	20.1	6.06e-01	0	42	0	240648192	20	4592
2026-01-30 13:25:50.85	224.98	17.82	-29.1	-31.3	20.0	6.06e-01	0	43	0	245891072	20	4645
2026-01-30 13:25:53.89	225.61	18.08	-29.1	-31.2	20.1	6.06e-01	0	43	0	251658240	20	4580
2026-01-30 13:25:56.92	226.25	18.35	-29.1	-31.3	20.0	6.05e-01	0	43	0	257425408	20	4629
2026-01-30 13:25:59.95	226.90	18.62	-29.0	-31.1	20.1	6.06e-01	0	42	0	263192576	20	4560
2026-01-30 13:26:02.98	227.57	18.89	-29.1	-31.2	20.1	6.09e-01	0	42	0	268959744	20	4607
2026-01-30 13:26:06.01	228.24	19.15	-29.1	-31.1	20.1	6.07e-01	0	43	0	274726912	20	4582
2026-01-30 13:26:09.04	228.93	19.42	-29.1	-31.2	20.1	6.06e-01	0	43	0	280494080	20	4586
2026-01-30 13:26:12.07	229.63	19.68	-28.9	-30.9	20.3	6.06e-01	0	43	0	285736960	20	4492
2026-01-30 13:26:15.10	230.34	19.95	-29.1	-31.2	20.1	6.07e-01	0	43	0	291504128	20	4606
2026-01-30 13:26:18.13	231.07	20.21	-29.2	-31.6	19.9	6.06e-01	0	42	0	297271296	20	4724
2026-01-30 13:26:21.16	231.81	20.47	-29.2	-31.5	20.0	6.07e-01	0	43	0	303038464	20	4681
2026-01-30 13:26:24.19	232.56	20.73	-29.2	-31.4	20.0	6.09e-01	0	43	0	308805632	20	4649
2026-01-30 13:26:27.23	233.32	20.99	-29.1	-31.2	20.2	6.08e-01	0	43	0	314572800	20	4578
2026-01-30 13:26:30.26	234.10	21.24	-29.2	-31.5	20.0	6.04e-01	0	43	0	319815680	20	4672
2026-01-30 13:26:33.29	234.89	21.50	-29.1	-31.3	20.2	6.06e-01	0	43	0	325582848	20	4601
2026-01-30 13:26:36.32	235.70	21.75	-29.2	-31.4	20.1	6.08e-01	0	42	0	331350016	20	4623
2026-01-30 13:26:39.35	236.51	22.00	-29.1	-31.3	20.2	6.07e-01	0	43	0	337117184	20	4596
2026-01-30 13:26:42.38	237.34	22.24	-29.3	-31.7	19.9	6.08e-01	0	43	0	342884352	20	4741
2026-01-30 13:26:45.41	238.19	22.48	-29.2	-31.5	20.1	6.06e-01	0	43	0	348651520	20	4655
2026-01-30 13:26:48.44	239.05	22.72	-29.4	-31.9	19.8	6.06e-01	0	43	0	353894400	20	4799
2026-01-30 13:26:51.47	239.92	22.95	-29.4	-31.9	19.8	6.04e-01	0	43	0	359661568	20	4803
2026-01-30 13:26:54.50	240.80	23.18	-29.5	-32.0	19.8	6.07e-01	0	43	0	365428736	20	4840
2026-01-30 13:26:57.53	241.70	23.40	-29.2	-31.3	20.2	6.07e-01	0	42	0	371195904	20	4609
2026-01-30 13:27:00.57	242.61	23.62	-29.5	-32.0	19.8	6.05e-01	0	43	0	376963072	20	4846
2026-01-30 13:27:03.60	243.53	23.84	-29.4	-31.8	20.0	6.08e-01	0	43	0	382730240	20	4761
2026-01-30 13:27:06.63	244.47	24.05	-29.5	-32.0	19.9	6.08e-01	0	43	0	388497408	20	4829
2026-01-30 13:27:09.66	245.42	24.25	-29.5	-32.0	19.9	6.07e-01	0	43	0	393740288	20	4830
2026-01-30 13:27:12.69	246.38	24.44	-29.5	-32.0	19.9	6.07e-01	0	43	0	399507456	20	4817
2026-01-30 13:27:15.72	247.35	24.63	-29.7	-32.6	19.6	6.04e-01	0	42	0	405274624	20	5019
2026-01-30 13:27:18.75	248.34	24.81	-29.4	-31.9	20.0	6.04e-01	0	43	0	411041792	20	4798
2026-01-30 13:27:21.79	249.34	24.99	-29.5	-32.0	19.9	6.06e-01	0	43	0	416808960	20	4814
2026-01-30 13:27:24.82	250.35	25.16	-29.5	-32.1	19.9	6.06e-01	0	43	0	422051840	20	4840
2026-01-30 13:27:27.85	251.36	25.32	-29.7	-32.6	19.6	6.06e-01	0	43	0	427819008	20	5039
2026-01-30 13:27:30.88	252.39	25.47	-29.6	-32.2	19.8	6.08e-01	0	43	0	433586176	20	4895
2026-01-30 13:27:33.91	253.43	25.61	-29.6	-32.3	19.8	6.07e-01	0	42	0	439353344	20	4909
2026-01-30 13:27:36.94	254.48	25.74	-29.5	-32.0	19.9	6.07e-01	0	43	0	445120512	20	4823
2026-01-30 13:27:39.98	255.54	25.87	-29.7	-32.6	19.6	6.06e-01	0	43	0	450887680	20	5020
2026-01-30 13:27:43.01	256.60	25.98	-29.4	-31.9	20.0	6.07e-01	0	43	0	456654848	20	4777
2026-01-30 13:27:46.04	257.67	26.09	-29.4	-31.8	20.1	6.07e-01	0	43	0	461897728	20	4734
2026-01-30 13:27:49.07	258.75	26.18	-29.3	-31.6	20.1	6.07e-01	0	43	0	467664896	20	4704
2026-01-30 13:27:52.10	259.83	26.27	-29.5	-32.0	19.9	6.07e-01	0	43	0	473432064	20	4824
2026-01-30 13:27:55.13	260.92	26.34	-29.3	-31.6	20.1	6.05e-01	0	43	0	479199232	20	4698
2026-01-30 13:27:58.16	262.02	26.41	-29.6	-32.3	19.7	6.07e-01	0	43	0	484966400	20	4916
2026-01-30 13:28:01.20	263.12	26.46	-29.4	-31.8	20.0	6.08e-01	0	43	0	490733568	20	4750
2026-01-30 13:28:04.23	264.22	26.51	-29.4	-31.9	20.0	6.07e-01	0	43	0	496500736	20	4773
2026-01-30 13:28:07.26	265.33	26.54	-29.7	-32.5	19.6	6.07e-01	0	43	0	501743616	20	5001
2026-01-30 13:28:10.29	266.44	26.56	-29.7	-32.6	19.6	6.06e-01	0	43	0	507510784	20	5013
2026-01-30 13:28:13.32	267.54	26.57	-30.0	-33.3	19.1	6.06e-01	0	43	0	513277952	20	5288
2026-01-30 13:28:16.35	268.65	26.57	-29.6	-32.4	19.7	6.07e-01	0	43	0	519045120	20	4941
2026-01-30 13:28:19.38	269.76	26.56	-29.5	-32.1	19.8	6.04e-01	0	43	0	524812288	20	4864
2026-01-30 13:28:22.41	270.87	26.54	-29.4	-31.7	20.1	6.05e-01	0	43	0	530055168	20	4714
2026-01-30 13:28:25.44	271.97	26.51	-29.4	-31.9	20.0	6.05e-01	0	43	0	535822336	20	4770
2026-01-30 13:28:28.48	273.08	26.46	-29.5	-32.0	20.0	6.06e-01	0	43	0	541589504	20	4806
2026-01-30 13:28:31.51	274.17	26.41	-29.6	-32.4	19.7	6.09e-01	0	43	0	547356672	20	4963
2026-01-30 13:28:34.54	275.27	26.34	-29.5	-32.1	19.9	6.06e-01	0	43	0	553123840	20	4840
2026-01-30 13:28:37.57	276.35	26.27	-29.6	-32.4	19.7	6.07e-01	0	43	0	558891008	20	4962
2026-01-30 13:28:40.60	277.44	26.18	-29.6	-32.2	19.8	6.07e-01	0	43	0	564658176	20	4901
2026-01-30 13:28:43.63	278.51	26.09	-29.5	-32.0	20.0	6.06e-01	0	43	0	569901056	20	4806
2026-01-30 13:28:46.66	279.58	25.98	-29.6	-32.2	19.9	6.08e-01	0	43	0	575668224	20	4875
2026-01-30 13:28:49.69	280.64	25.87	-29.9	-42.2	3.8	7.44e-01	0	43	104	576716800	20	14973
2026-01-30 13:28:52.72	281.70	25.74	-30.4	-43.2	3.8	7.43e-01	0	43	104	576716800	21	15766
2026-01-30 13:28:55.76	282.75	25.61	-31.0	-44.2	3.8	7.44e-01	0	43	104	576716800	22	16568
2026-01-30 13:28:58.79	283.78	25.47	-32.0	-46.4	3.8	7.45e-01	0	43	104	576716800	24	18914
2026-01-30 13:29:01.82	284.81	25.32	-32.8	-48.0	3.8	7.47e-01	0	43	104	576716800	26	20661
2026-01-30 13:29:04.85	285.82	25.16	-33.2	-49.0	3.8	7.43e-01	0	43	104	576716800	27	22414
2026-01-30 13:29:07.88	286.82	24.99	-33.1	-48.9	3.8	7.43e-01	0	43	104	576716800	27	22203
2026-01-30 13:29:10.92	287.82	24.82	-33.1	-48.7	3.8	7.45e-01	0	43	104	576716800	27	21776
2026-01-30 13:29:13.95	288.80	24.63	-33.0	-48.7	3.8	7.42e-01	0	43	104	576716800	27	21828
2026-01-30 13:29:16.98	289.77	24.45	-32.5	-46.6	3.8	7.43e-01	0	43	104	576716800	27	18208
2026-01-30 13:29:20.01	290.73	24.25	-32.5	-46.5	3.8	7.42e-01	0	43	104	576716800	27	17963
2026-01-30 13:29:23.05	291.68	24.05	-32.3	-46.5	3.8	7.47e-01	0	43	104	576716800	26	18400
2026-01-30 13:29:26.08	292.61	23.84	-31.2	-43.8	3.8	7.43e-01	0	43	104	576716800	24	15484
2026-01-30 13:29:29.11	293.53	23.63	-30.2	-42.2	3.8	7.42e-01	0	43	104	576716800	22	14252
2026-01-30 13:29:32.15	294.44	23.41	-30.5	-42.9	3.8	7.42e-01	0	43	104	576716800	22	15041
2026-01-30 13:29:35.18	295.33	23.19	-30.0	-41.6	3.8	7.42e-01	0	43	104	576716800	22	13709
2026-01-30 13:29:38.21	296.21	22.96	-30.3	-43.0	3.8	7.42e-01	0	43	104	576716800	21	15455
2026-01-30 13:29:41.24	297.08	22.73	-31.4	-45.2	3.8	7.46e-01	0	43	104	576716800	23	17527
2026-01-30 13:29:44.28	297.93	22.49	-31.6	-45.4	3.8	7.48e-01	0	43	104	576716800	23	17789
2026-01-30 13:29:47.31	298.77	22.25	-32.2	-46.7	3.8	7.44e-01	0	43	104	576716800	25	19046
2026-01-30 13:29:50.34	299.60	22.01	-32.9	-48.7	3.8	7.45e-01	0	43	104	576716800	26	22266
2026-01-30 13:29:53.37	300.41	21.77	-33.1	-49.1	3.8	7.44e-01	0	43	104	576716800	27	22638
2026-01-30 13:29:56.41	301.22	21.52	-33.2	-49.3	3.8	7.43e-01	0	43	104	576716800	27	23137
2026-01-30 13:29:59.44	302.00	21.26	-33.1	-49.2	3.8	7.44e-01	0	43	104	576716800	27	22796
2026-01-30 13:30:02.47	302.78	21.01	-32.9	-48.3	3.8	7.45e-01	0	43	104	576716800	27	21073
2026-01-30 13:30:05.51	303.54	20.75	-32.3	-46.3	3.8	7.42e-01	0	43	104	576716800	26	18055
2026-01-30 13:30:08.54	304.29	20.50	-31.8	-45.4	3.8	7.44e-01	0	43	104	576716800	25	17114
2026-01-30 13:30:11.57	305.02	20.24	-32.1	-46.1	3.8	7.42e-01	0	43	104	576716800	25	18176
2026-01-30 13:30:14.60	305.74	19.98	-31.1	-43.8	3.8	7.46e-01	0	43	104	576716800	24	15455
2026-01-30 13:30:17.63	306.45	19.72	-30.1	-42.1	3.8	7.46e-01	0	43	104	576716800	22	14249
2026-01-30 13:30:20.67	307.15	19.45	-30.7	-43.4	3.8	7.43e-01	0	43	104	576716800	22	15668
2026-01-30 13:30:23.70	307.84	19.19	-30.1	-42.1	3.8	7.46e-01	0	43	104	576716800	22	14235
2026-01-30 13:30:26.73	308.51	18.92	-30.6	-43.3	3.8	7.46e-01	0	43	104	576716800	22	15626
2026-01-30 13:30:29.77	309.17	18.66	-31.8	-45.9	3.8	7.43e-01	0	43	104	576716800	24	18141
2026-01-30 13:30:32.80	309.82	18.39	-32.3	-46.9	3.8	7.44e-01	0	43	104	576716800	25	19432
2026-01-30 13:30:35.83	310.46	18.13	-32.4	-47.5	3.8	7.43e-01	0	43	104	576716800	25	20391
2026-01-30 13:30:38.86	311.08	17.86	-32.9	-48.8	3.8	7.44e-01	0	43	104	576716800	26	22508
2026-01-30 13:30:41.90	311.70	17.60	-33.0	-49.4	3.8	7.46e-01	0	43	104	576716800	26	23766
2026-01-30 13:30:44.93	312.30	17.33	-33.0	-49.4	3.8	7.43e-01	0	43	104	576716800	26	23765
2026-01-30 13:30:47.96	312.89	17.07	-33.0	-48.7	3.8	7.42e-01	0	43	104	576716800	27	22140
2026-01-30 13:30:51.00	313.47	16.80	-32.8	-48.0	3.8	7.48e-01	0	43	104	576716800	27	20848
2026-01-30 13:30:54.03	314.05	16.54	-32.1	-45.8	3.8	7.47e-01	0	43	104	576716800	26	17540
2026-01-30 13:30:57.06	314.61	16.28	-31.3	-44.2	3.8	7.44e-01	0	43	104	576716800	24	15965
2026-01-30 13:31:00.10	315.16	16.01	-31.2	-44.1	3.8	7.46e-01	0	43	104	576716800	24	15934
2026-01-30 13:31:03.13	315.70	15.75	-31.1	-43.9	3.8	7.41e-01	0	43	104	576716800	24	15732
2026-01-30 13:31:06.16	316.23	15.49	-30.1	-42.5	3.8	7.47e-01	0	43	104	576716800	22	14841
2026-01-30 13:31:09.20	316.75	15.23	-31.1	-44.5	3.8	7.43e-01	0	43	104	576716800	23	16844
2026-01-30 13:31:12.23	317.26	14.97	-31.2	-44.8	3.8	7.43e-01	0	43	104	576716800	23	17209
2026-01-30 13:31:15.26	317.77	14.71	-30.9	-43.8	3.8	7.45e-01	0	43	104	576716800	23	15897
2026-01-30 13:31:18.29	318.26	14.46	-32.1	-47.1	3.8	7.46e-01	0	43	104	576716800	24	20364
2026-01-30 13:31:21.32	318.74	14.20	-32.7	-48.6	3.8	7.47e-01	0	43	104	576716800	26	22558
2026-01-30 13:31:24.36	319.22	13.95	-32.7	-48.5	3.8	7.47e-01	0	43	104	576716800	26	22229
2026-01-30 13:31:27.39	319.69	13.69	-32.9	-49.2	3.8	7.47e-01	0	43	104	576716800	26	23663
2026-01-30 13:31:30.42	320.15	13.44	-32.9	-49.4	3.8	7.43e-01	0	43	104	576716800	26	23994
2026-01-30 13:31:33.45	320.60	13.19	-32.8	-49.1	3.8	7.48e-01	0	43	104	576716800	26	23472
2026-01-30 13:31:36.49	321.05	12.94	-32.9	-49.6	3.8	7.51e-01	0	43	104	576716800	26	24621
2026-01-30 13:31:39.52	321.48	12.70	-32.6	-48.3	3.8	7.47e-01	0	43	104	576716800	26	21792
2026-01-30 13:31:42.55	321.91	12.45	-32.0	-45.9	3.8	7.45e-01	0	43	104	576716800	26	17826
2026-01-30 13:31:45.59	322.34	12.21	-31.0	-43.6	3.8	7.45e-01	0	43	104	576716800	24	15356
2026-01-30 13:31:48.62	322.75	11.96	-30.7	-43.4	3.8	7.42e-01	0	43	104	576716800	23	15512
2026-01-30 13:31:51.65	323.16	11.72	-31.0	-44.4	3.8	7.44e-01	0	43	104	576716800	23	16659
2026-01-30 13:31:54.68	323.56	11.48	-30.7	-43.4	3.8	7.49e-01	0	43	104	576716800	23	15453
2026-01-30 13:31:57.71	323.95	11.24	-31.7	-46.1	3.8	7.43e-01	0	43	104	576716800	24	18863
2026-01-30 13:32:00.75	324.34	11.00	-32.4	-48.0	3.8	7.44e-01	0	43	104	576716800	25	21865
2026-01-30 13:32:03.78	324.72	10.77	-32.0	-46.7	3.8	7.46e-01	0	43	104	576716800	25	19423
2026-01-30 13:32:06.81	325.09	10.53	-32.4	-48.4	3.8	7.47e-01	0	43	104	576716800	25	22559
2026-01-30 13:32:09.84	325.46	10.30	-32.8	-49.6	3.8	7.46e-01	0	43	104	576716800	26	24891
2026-01-30 13:32:12.88	325.82	10.07	-32.8	-49.7	3.8	7.46e-01	0	43	104	576716800	26	25118
2026-01-30 13:32:15.91	326.18	9.84	-32.8	-49.5	3.8	7.46e-01	0	43	104	576716800	26	24553
2026-01-30 13:32:18.94	326.53	9.61	-32.8	-49.6	3.8	7.44e-01	0	43	104	576716800	26	24988
2026-01-30 13:32:21.98	326.88	9.38	-32.7	-49.2	3.8	7.45e-01	0	43	104	576716800	26	24036
2026-01-30 13:32:25.01	327.22	9.16	-32.5	-48.4	3.8	7.44e-01	0	43	104	576716800	26	22429
2026-01-30 13:32:28.04	327.55	8.94	-32.4	-48.0	3.8	7.46e-01	0	43	104	576716800	26	21638
2026-01-30 13:32:31.08	327.88	8.71	-32.1	-46.7	3.8	7.45e-01	0	43	104	576716800	26	19283
2026-01-30 13:32:34.11	328.20	8.49	-31.2	-44.7	3.8	7.45e-01	0	43	104	576716800	24	16965
2026-01-30 13:32:37.14	328.52	8.27	-30.7	-43.6	3.8	7.44e-01	0	43	104	576716800	23	15814
2026-01-30 13:32:40.18	328.83	8.05	-30.8	-43.7	3.8	7.46e-01	0	43	104	576716800	23	16040
2026-01-30 13:32:43.21	329.14	7.84	-31.4	-45.7	3.8	7.47e-01	0	43	104	576716800	23	18815
2026-01-30 13:32:46.24	329.45	7.62	-32.1	-48.0	3.8	7.44e-01	0	43	104	576716800	24	22545
2026-01-30 13:32:49.27	329.75	7.41	-32.6	-49.8	3.8	7.49e-01	0	43	104	576716800	25	26317
2026-01-30 13:32:52.30	330.04	7.20	-32.6	-49.5	3.8	7.45e-01	0	43	104	576716800	26	25274
2026-01-30 13:32:55.34	330.33	6.98	-33.4	-53.0	3.8	7.45e-01	0	43	104	576716800	27	34230

#Closed at: 2026-01-30 13:32:56
#Recorded file [576 MB]: D:/data/31010_260130_162339.dat