passes_logs/2026/01/30/R2M6_AANII_01/R2M6_AANII_01__20260130_020919_AQUA_rec.log

#Pass ID: 20260130_020919_AQUA
#Satellite: AQUA
#Configuration: AQUA
#almurnet v.1.7.20240730
#Start time: 2026-01-30 02:09:20

#Version: 2.2.20231116
#Station: R2M6_AANII_01
#Location: 30.233357 lon 59.946436 lat
#TLE: 1 27424U 02022A   26028.91948147  .00001781  00000+0  36607-3 0  9997
#TLE: 2 27424  98.4103 355.5827 0001815  62.4290   1.4641 14.61871847262923

#Time	Az	El	Level	Level2	SNR	BER	BlckErr	Temp	State	Recorded	gain1	gain2
2026-01-30 02:09:20.31	16.71	7.05	-32.0	-38.8	5.1	7.07e-01	0	41	0	0	24	7949
2026-01-30 02:09:23.31	16.70	7.29	-32.4	-39.5	12.4	6.08e-01	0	41	0	1572864	25	8157
2026-01-30 02:09:26.32	16.68	7.54	-31.7	-37.0	15.0	6.03e-01	0	41	0	7340032	24	6614
2026-01-30 02:09:29.33	16.67	7.79	-31.4	-36.1	16.0	6.02e-01	0	41	0	13107200	23	6245
2026-01-30 02:09:32.34	16.66	8.05	-31.4	-36.2	15.9	6.02e-01	0	41	0	18350080	23	6266
2026-01-30 02:09:35.37	16.64	8.31	-30.8	-34.7	17.4	6.04e-01	0	42	0	24117248	22	5667
2026-01-30 02:09:38.38	16.63	8.57	-30.5	-34.5	17.9	6.01e-01	0	42	0	29884416	21	5685
2026-01-30 02:09:41.39	16.62	8.83	-30.8	-34.9	17.3	6.02e-01	0	42	0	35651584	22	5727
2026-01-30 02:09:44.40	16.60	9.10	-30.5	-34.3	18.1	6.02e-01	0	42	0	41418752	21	5584
2026-01-30 02:09:47.41	16.58	9.37	-30.5	-34.3	17.8	6.04e-01	0	42	0	46661632	21	5588
2026-01-30 02:09:50.42	16.57	9.64	-30.8	-34.6	17.6	6.02e-01	0	42	0	52428800	22	5601
2026-01-30 02:09:53.43	16.55	9.92	-30.8	-34.6	17.6	6.03e-01	0	42	0	58195968	22	5606
2026-01-30 02:09:56.44	16.53	10.20	-30.5	-34.4	18.1	6.03e-01	0	42	0	63963136	21	5615
2026-01-30 02:09:59.45	16.51	10.48	-30.4	-34.1	18.3	6.03e-01	0	42	0	69206016	21	5490
2026-01-30 02:10:02.46	16.50	10.77	-30.5	-34.3	18.2	6.03e-01	0	42	0	74973184	21	5571
2026-01-30 02:10:05.46	16.48	11.06	-30.2	-33.4	18.8	6.03e-01	0	42	0	80740352	21	5219
2026-01-30 02:10:08.48	16.46	11.35	-30.1	-33.2	18.9	6.02e-01	0	42	0	86507520	21	5133
2026-01-30 02:10:11.49	16.43	11.65	-30.1	-33.6	19.0	6.03e-01	0	42	0	91750400	20	5386
2026-01-30 02:10:14.49	16.41	11.96	-30.3	-33.6	18.7	6.04e-01	0	43	0	97517568	21	5298
2026-01-30 02:10:17.50	16.39	12.26	-30.4	-33.9	18.5	6.05e-01	0	42	0	103284736	21	5414
2026-01-30 02:10:20.51	16.37	12.57	-30.4	-34.0	18.5	6.03e-01	0	43	0	109051904	21	5444
2026-01-30 02:10:23.50	16.34	12.89	-30.0	-33.3	19.3	6.02e-01	0	43	0	114294784	20	5267
2026-01-30 02:10:26.50	16.32	13.21	-30.3	-33.6	18.8	6.03e-01	0	43	0	120061952	21	5255
2026-01-30 02:10:29.50	16.29	13.53	-30.2	-33.4	18.9	6.02e-01	0	43	0	125829120	21	5192
2026-01-30 02:10:32.51	16.26	13.86	-29.9	-33.2	19.4	6.04e-01	0	42	0	131596288	20	5230
2026-01-30 02:10:35.52	16.24	14.20	-30.1	-33.1	19.1	6.02e-01	0	43	0	136839168	21	5077
2026-01-30 02:10:38.51	16.21	14.54	-30.1	-33.1	19.1	6.04e-01	0	43	0	142606336	21	5066
2026-01-30 02:10:41.52	16.18	14.88	-29.8	-32.8	19.6	6.03e-01	0	43	0	148373504	20	5075
2026-01-30 02:10:44.53	16.15	15.23	-30.0	-33.3	19.4	6.03e-01	0	43	0	154140672	20	5258
2026-01-30 02:10:47.54	16.11	15.59	-30.4	-33.7	18.8	6.06e-01	0	43	0	159383552	21	5293
2026-01-30 02:10:50.56	16.08	15.95	-30.5	-34.0	18.6	6.03e-01	0	43	0	165150720	21	5415
2026-01-30 02:10:53.56	16.05	16.32	-30.4	-33.7	18.8	6.04e-01	0	43	0	170917888	21	5268
2026-01-30 02:10:56.58	16.01	16.70	-30.5	-33.6	18.6	6.05e-01	0	43	0	176685056	22	5121
2026-01-30 02:10:59.59	15.97	17.08	-30.1	-32.9	19.3	6.05e-01	0	43	0	181927936	21	4971
2026-01-30 02:11:02.61	15.94	17.47	-30.2	-33.3	19.1	6.03e-01	0	43	0	187695104	21	5120
2026-01-30 02:11:05.62	15.90	17.87	-30.4	-33.7	18.8	6.04e-01	0	43	0	193462272	21	5274
2026-01-30 02:11:08.63	15.86	18.27	-30.3	-33.5	19.0	6.03e-01	0	43	0	199229440	21	5201
2026-01-30 02:11:11.64	15.81	18.68	-30.4	-33.7	18.9	6.01e-01	0	43	0	204996608	21	5269
2026-01-30 02:11:14.64	15.77	19.09	-30.0	-33.1	19.6	6.03e-01	0	43	0	210239488	20	5172
2026-01-30 02:11:17.65	15.72	19.52	-30.2	-33.3	19.2	6.00e-01	0	43	0	216006656	21	5129
2026-01-30 02:11:20.64	15.67	19.95	-30.3	-33.5	19.1	6.03e-01	0	43	0	221773824	21	5192
2026-01-30 02:11:23.65	15.63	20.39	-30.3	-33.4	19.2	6.04e-01	0	43	0	227016704	21	5142
2026-01-30 02:11:26.66	15.57	20.84	-30.1	-33.4	19.6	6.04e-01	0	43	0	232783872	20	5260
2026-01-30 02:11:29.66	15.52	21.30	-30.3	-33.5	19.2	6.01e-01	0	43	0	238551040	21	5171
2026-01-30 02:11:32.66	15.47	21.77	-30.1	-33.0	19.6	6.03e-01	0	43	0	244318208	21	4987
2026-01-30 02:11:35.67	15.41	22.25	-30.3	-33.4	19.3	6.02e-01	0	43	0	250085376	21	5158
2026-01-30 02:11:38.68	15.35	22.73	-30.2	-33.1	19.5	6.02e-01	0	43	0	255328256	21	5019
2026-01-30 02:11:41.68	15.29	23.23	-30.3	-33.3	19.4	6.00e-01	0	43	0	261095424	21	5095
2026-01-30 02:11:44.68	15.22	23.74	-29.9	-32.4	19.9	6.04e-01	0	43	0	266862592	21	4803
2026-01-30 02:11:47.69	15.15	24.26	-30.0	-33.0	19.8	6.03e-01	0	43	0	272629760	20	5120
2026-01-30 02:11:50.70	15.08	24.79	-30.4	-33.5	19.3	6.03e-01	0	43	0	277872640	21	5187
2026-01-30 02:11:53.71	15.01	25.34	-30.2	-33.0	19.6	6.04e-01	0	43	0	283639808	21	4990
2026-01-30 02:11:56.72	14.93	25.89	-29.9	-32.8	20.0	6.04e-01	0	43	0	289406976	20	5046
2026-01-30 02:11:59.73	14.85	26.46	-30.0	-33.1	19.9	6.00e-01	0	43	0	295174144	20	5126
2026-01-30 02:12:02.74	14.77	27.04	-29.9	-32.8	20.0	6.02e-01	0	43	0	300417024	20	5036
2026-01-30 02:12:05.75	14.68	27.64	-29.9	-32.7	20.1	6.03e-01	0	43	0	306184192	20	5000
2026-01-30 02:12:08.76	14.59	28.25	-29.9	-32.4	20.0	6.03e-01	0	43	0	311951360	21	4769
2026-01-30 02:12:11.77	14.50	28.87	-29.5	-31.7	20.7	6.04e-01	0	43	0	317718528	20	4654
2026-01-30 02:12:14.78	14.40	29.51	-29.6	-32.1	20.5	6.04e-01	0	43	0	322961408	20	4797
2026-01-30 02:12:17.79	14.29	30.17	-29.7	-32.2	20.5	6.02e-01	0	43	0	328728576	20	4817
2026-01-30 02:12:20.80	14.18	30.84	-29.8	-32.4	20.3	6.04e-01	0	43	0	334495744	20	4893
2026-01-30 02:12:23.82	14.07	31.53	-29.5	-31.9	20.7	6.03e-01	0	43	0	340262912	20	4720
2026-01-30 02:12:26.83	13.95	32.24	-29.9	-32.7	20.2	6.00e-01	0	43	0	346030080	20	5001
2026-01-30 02:12:29.84	13.82	32.96	-29.7	-32.3	20.4	6.01e-01	0	43	0	351272960	20	4858
2026-01-30 02:12:32.85	13.69	33.70	-29.8	-32.5	20.3	6.01e-01	0	43	0	357040128	20	4928
2026-01-30 02:12:35.85	13.55	34.47	-30.3	-33.2	19.6	6.05e-01	0	43	0	362807296	21	5058
2026-01-30 02:12:38.86	13.40	35.25	-30.3	-33.4	19.6	6.01e-01	0	43	0	368574464	21	5104
2026-01-30 02:12:41.87	13.24	36.05	-30.5	-33.7	19.3	6.02e-01	0	43	0	373817344	21	5218
2026-01-30 02:12:44.88	13.08	36.88	-31.0	-34.6	18.5	6.04e-01	0	43	0	379584512	22	5442
2026-01-30 02:12:47.89	12.91	37.73	-30.9	-34.4	18.6	6.04e-01	0	43	0	385351680	22	5384
2026-01-30 02:12:50.89	12.72	38.60	-31.1	-34.3	18.5	6.02e-01	0	43	0	391118848	23	5219
2026-01-30 02:12:53.90	12.53	39.49	-31.3	-35.0	17.9	6.03e-01	0	43	0	396361728	23	5499
2026-01-30 02:12:56.90	12.32	40.41	-31.1	-34.3	18.4	6.03e-01	0	43	0	402128896	23	5213
2026-01-30 02:12:59.92	12.10	41.36	-30.8	-34.0	19.0	6.03e-01	0	43	0	407896064	22	5199
2026-01-30 02:13:02.92	11.86	42.33	-30.6	-33.5	19.3	6.00e-01	0	43	0	413663232	22	5020
2026-01-30 02:13:05.92	11.61	43.32	-30.6	-34.0	19.3	6.03e-01	0	43	0	418906112	21	5313
2026-01-30 02:13:08.94	11.34	44.35	-30.4	-33.1	19.4	6.04e-01	0	43	0	424673280	22	4899
2026-01-30 02:13:11.95	11.06	45.40	-30.0	-32.6	19.8	6.01e-01	0	43	0	430440448	21	4827
2026-01-30 02:13:14.96	10.75	46.49	-30.0	-32.4	20.1	6.04e-01	0	43	0	436207616	21	4784
2026-01-30 02:13:17.97	10.42	47.60	-29.9	-32.6	20.3	6.02e-01	0	43	0	441450496	20	4964
2026-01-30 02:13:20.98	10.06	48.74	-30.0	-32.4	20.2	6.02e-01	0	43	0	447217664	21	4752
2026-01-30 02:13:23.99	9.67	49.92	-29.9	-32.2	20.2	6.02e-01	0	43	0	452984832	21	4711
2026-01-30 02:13:27.00	9.25	51.12	-29.7	-32.2	20.6	6.04e-01	0	43	0	458752000	20	4799
2026-01-30 02:13:30.01	8.79	52.36	-29.5	-31.7	20.8	6.03e-01	0	43	0	464519168	20	4667
2026-01-30 02:13:33.03	8.29	53.63	-29.5	-32.2	21.0	6.03e-01	0	43	0	469762048	19	4911
2026-01-30 02:13:36.04	7.74	54.93	-29.8	-32.5	20.5	6.02e-01	0	43	0	475529216	20	4902
2026-01-30 02:13:39.05	7.14	56.26	-29.7	-32.4	20.5	6.02e-01	0	43	0	481296384	20	4864
2026-01-30 02:13:42.07	6.47	57.63	-30.1	-32.7	20.0	6.01e-01	0	43	0	487063552	21	4859
2026-01-30 02:13:45.08	5.74	59.02	-30.3	-33.2	19.7	6.02e-01	0	43	0	492306432	21	5052
2026-01-30 02:13:48.09	4.91	60.44	-30.4	-33.1	19.4	6.03e-01	0	43	0	498073600	22	4904
2026-01-30 02:13:51.10	3.99	61.89	-30.8	-34.2	18.8	6.00e-01	0	43	0	503840768	22	5289
2026-01-30 02:13:54.11	2.95	63.36	-31.4	-35.3	17.8	6.02e-01	0	43	0	509607936	23	5623
2026-01-30 02:13:57.12	1.76	64.85	-31.8	-35.9	17.1	6.04e-01	0	43	0	514850816	24	5798
2026-01-30 02:14:00.12	0.41	66.37	-32.1	-36.8	16.5	6.02e-01	0	43	0	520617984	24	6215
2026-01-30 02:14:03.13	358.85	67.90	-32.5	-37.7	15.6	6.04e-01	0	43	0	526385152	25	6548
2026-01-30 02:14:06.13	357.03	69.44	-32.4	-36.6	16.0	6.03e-01	0	43	0	532152320	26	5881
2026-01-30 02:14:09.15	354.88	70.99	-32.4	-36.7	16.0	6.02e-01	0	43	0	537395200	26	5869
2026-01-30 02:14:12.16	352.33	72.53	-32.2	-35.8	16.6	6.04e-01	0	43	0	543162368	26	5487
2026-01-30 02:14:15.17	349.25	74.05	-32.0	-35.5	16.8	6.06e-01	0	43	0	548929536	26	5336
2026-01-30 02:14:18.17	345.52	75.53	-32.5	-36.8	15.9	6.04e-01	0	43	0	554696704	26	5939
2026-01-30 02:14:21.18	340.89	76.96	-32.0	-35.5	16.9	6.03e-01	0	43	0	559939584	26	5356
2026-01-30 02:14:24.18	335.15	78.30	-31.6	-34.7	17.7	6.04e-01	0	43	0	565706752	25	5146
2026-01-30 02:14:27.18	327.97	79.50	-31.3	-34.3	18.4	6.02e-01	0	43	0	571473920	24	5079
2026-01-30 02:14:30.18	319.07	80.50	-31.5	-34.7	18.1	6.04e-01	0	43	0	577241088	24	5225
2026-01-30 02:14:33.20	308.28	81.24	-31.6	-35.2	17.9	6.02e-01	0	43	0	583008256	24	5445
2026-01-30 02:14:36.23	295.96	81.62	-31.8	-35.3	17.3	6.04e-01	0	43	0	588251136	25	5370
2026-01-30 02:14:39.23	283.22	81.60	-31.4	-34.5	18.3	6.01e-01	0	43	0	594018304	24	5147
2026-01-30 02:14:42.24	271.09	81.18	-31.8	-35.8	17.4	6.03e-01	0	43	0	599785472	24	5695
2026-01-30 02:14:45.25	260.51	80.41	-30.8	-33.6	19.0	6.06e-01	0	43	0	605552640	23	4937
2026-01-30 02:14:48.25	251.78	79.38	-30.8	-33.6	19.0	6.03e-01	0	43	0	610795520	23	4931
2026-01-30 02:14:51.27	244.72	78.16	-31.5	-34.9	17.9	6.02e-01	0	43	0	616562688	24	5321
2026-01-30 02:14:54.29	239.07	76.80	-31.5	-34.9	17.9	6.03e-01	0	43	0	622329856	24	5349
2026-01-30 02:14:57.29	234.56	75.37	-32.1	-36.5	16.4	6.01e-01	0	43	0	628097024	25	5973
2026-01-30 02:15:00.31	230.88	73.87	-31.9	-35.6	17.0	6.04e-01	0	43	0	633339904	25	5528
2026-01-30 02:15:03.32	227.87	72.34	-32.0	-36.0	16.6	6.04e-01	0	43	0	639107072	25	5725
2026-01-30 02:15:06.33	225.37	70.80	-32.3	-37.0	16.0	6.03e-01	0	43	0	644874240	25	6193
2026-01-30 02:15:09.33	223.27	69.25	-32.8	-38.4	14.7	6.02e-01	0	43	0	650641408	26	6838
2026-01-30 02:15:12.35	221.47	67.70	-32.6	-37.5	15.1	6.04e-01	0	43	0	656408576	26	6373
2026-01-30 02:15:15.36	219.93	66.17	-31.7	-35.2	17.1	6.04e-01	0	43	0	661651456	25	5361
2026-01-30 02:15:18.36	218.60	64.66	-31.8	-35.4	17.0	6.03e-01	0	43	0	667418624	25	5449
2026-01-30 02:15:21.37	217.44	63.16	-31.7	-35.2	17.1	6.04e-01	0	43	0	673185792	25	5385
2026-01-30 02:15:24.37	216.41	61.69	-30.6	-33.0	19.2	6.03e-01	0	43	0	678428672	23	4757
2026-01-30 02:15:27.39	215.50	60.24	-30.9	-33.8	18.5	6.04e-01	0	43	0	684195840	23	5062
2026-01-30 02:15:30.40	214.68	58.82	-30.4	-33.3	19.3	6.05e-01	0	43	0	689963008	22	4972
2026-01-30 02:15:33.42	213.95	57.42	-29.9	-32.3	20.1	6.02e-01	0	43	0	695730176	21	4738
2026-01-30 02:15:36.42	213.30	56.06	-29.6	-32.0	20.6	6.03e-01	0	43	0	701497344	20	4768
2026-01-30 02:15:39.43	212.70	54.73	-29.0	-31.1	21.4	6.04e-01	0	43	0	706740224	19	4589
2026-01-30 02:15:42.43	212.16	53.44	-29.0	-31.0	21.4	6.03e-01	0	43	0	712507392	19	4574
2026-01-30 02:15:45.45	211.66	52.17	-29.0	-31.6	21.4	6.00e-01	0	43	0	718274560	18	4871
2026-01-30 02:15:48.45	211.21	50.93	-29.0	-31.6	21.4	6.03e-01	0	43	0	724041728	18	4871
2026-01-30 02:15:51.45	210.79	49.73	-29.9	-33.0	20.0	6.02e-01	0	43	0	729284608	20	5110
2026-01-30 02:15:54.45	210.41	48.56	-29.5	-31.8	20.6	6.05e-01	0	43	0	735051776	20	4714
2026-01-30 02:15:57.45	210.05	47.42	-29.9	-33.0	19.9	6.02e-01	0	43	0	740818944	20	5122
2026-01-30 02:16:00.46	209.72	46.31	-30.0	-33.1	19.8	6.03e-01	0	43	0	746586112	20	5166
2026-01-30 02:16:03.48	209.42	45.22	-29.6	-32.2	20.3	6.03e-01	0	43	0	751828992	20	4854
2026-01-30 02:16:06.49	209.13	44.17	-29.7	-32.5	20.2	6.01e-01	0	43	0	757596160	20	4935
2026-01-30 02:16:09.49	208.86	43.14	-30.2	-33.1	19.5	6.03e-01	0	43	0	763363328	21	5037
2026-01-30 02:16:12.50	208.61	42.14	-30.0	-32.7	19.8	6.02e-01	0	43	0	769130496	21	4918
2026-01-30 02:16:15.51	208.38	41.17	-30.2	-33.3	19.4	6.04e-01	0	43	0	774373376	21	5106
2026-01-30 02:16:18.51	208.16	40.23	-30.4	-33.6	19.2	6.04e-01	0	43	0	780140544	21	5235
2026-01-30 02:16:21.52	207.95	39.31	-30.8	-34.3	18.6	6.03e-01	0	43	0	785907712	22	5375
2026-01-30 02:16:24.54	207.75	38.41	-30.7	-34.0	18.6	6.03e-01	0	43	0	791674880	22	5284
2026-01-30 02:16:27.55	207.57	37.54	-30.7	-34.1	18.6	6.03e-01	0	43	0	797442048	22	5316
2026-01-30 02:16:30.56	207.40	36.69	-30.3	-33.1	19.2	6.01e-01	0	43	0	802684928	22	4926
2026-01-30 02:16:33.57	207.23	35.86	-30.2	-32.7	19.5	6.02e-01	0	43	0	808452096	22	4802
2026-01-30 02:16:36.59	207.07	35.06	-29.8	-32.1	20.1	6.02e-01	0	43	0	814219264	21	4714
2026-01-30 02:16:39.60	206.93	34.27	-29.5	-31.4	20.5	6.03e-01	0	43	0	819462144	21	4479
2026-01-30 02:16:42.60	206.79	33.51	-29.3	-31.5	20.6	6.03e-01	0	44	0	825229312	20	4634
2026-01-30 02:16:45.61	206.65	32.77	-29.3	-31.5	20.7	6.01e-01	0	43	0	830996480	20	4633
2026-01-30 02:16:48.63	206.53	32.04	-29.2	-31.1	20.9	6.01e-01	0	43	0	836763648	20	4513
2026-01-30 02:16:51.64	206.40	31.33	-29.2	-31.6	20.9	6.02e-01	0	43	0	842530816	19	4776
2026-01-30 02:16:54.63	206.29	30.65	-29.2	-31.7	20.9	6.03e-01	0	43	0	847773696	19	4806
2026-01-30 02:16:57.64	206.18	29.98	-29.0	-31.2	21.1	6.06e-01	0	44	0	853540864	19	4642
2026-01-30 02:17:00.66	206.07	29.32	-28.8	-31.3	21.3	6.02e-01	0	43	0	859308032	18	4783
2026-01-30 02:17:03.68	205.97	28.68	-28.9	-31.6	21.2	6.05e-01	0	43	0	865075200	18	4901
2026-01-30 02:17:06.69	205.88	28.05	-29.3	-31.9	20.7	6.06e-01	0	43	0	870318080	19	4893
2026-01-30 02:17:09.70	205.79	27.44	-29.5	-32.4	20.4	6.02e-01	0	43	0	876085248	19	5069
2026-01-30 02:17:12.71	205.70	26.85	-29.8	-32.7	19.9	6.01e-01	0	43	0	881852416	20	5049
2026-01-30 02:17:15.72	205.61	26.26	-29.7	-32.5	20.0	6.03e-01	0	43	0	887619584	20	4964
2026-01-30 02:17:18.72	205.53	25.70	-29.7	-32.6	19.8	6.02e-01	0	43	0	892862464	20	5017
2026-01-30 02:17:21.73	205.46	25.14	-29.8	-32.7	19.8	6.02e-01	0	43	0	898629632	20	5071
2026-01-30 02:17:24.74	205.38	24.60	-29.8	-32.8	19.7	6.02e-01	0	43	0	904396800	20	5095
2026-01-30 02:17:27.76	205.31	24.06	-29.8	-32.7	19.8	6.05e-01	0	43	0	910163968	20	5034
2026-01-30 02:17:30.77	205.24	23.54	-29.9	-33.0	19.6	6.03e-01	0	43	0	915931136	20	5153
2026-01-30 02:17:33.78	205.17	23.03	-29.9	-32.9	19.6	6.03e-01	0	43	0	921174016	20	5135
2026-01-30 02:17:36.81	205.11	22.53	-29.8	-32.8	19.7	6.03e-01	0	43	0	926941184	20	5066
2026-01-30 02:17:39.82	205.05	22.04	-29.8	-32.8	19.7	6.02e-01	0	43	0	932708352	20	5080
2026-01-30 02:17:42.83	204.99	21.57	-29.9	-33.0	19.6	6.06e-01	0	43	0	938475520	20	5146
2026-01-30 02:17:45.84	204.93	21.10	-30.0	-33.4	19.3	6.02e-01	0	44	0	943718400	20	5310
2026-01-30 02:17:48.85	204.88	20.64	-29.8	-32.9	19.5	6.03e-01	0	43	0	949485568	20	5136
2026-01-30 02:17:51.85	204.83	20.19	-29.8	-32.7	19.6	6.03e-01	0	44	0	955252736	20	5057
2026-01-30 02:17:54.86	204.78	19.75	-29.6	-32.4	19.8	6.03e-01	0	43	0	961019904	20	4944
2026-01-30 02:17:57.88	204.73	19.31	-29.8	-32.8	19.6	6.02e-01	0	44	0	966262784	20	5106
2026-01-30 02:18:00.89	204.68	18.89	-29.9	-33.1	19.3	6.02e-01	0	43	0	972029952	20	5202
2026-01-30 02:18:03.90	204.63	18.47	-30.1	-33.6	18.9	6.03e-01	0	43	0	977797120	20	5391
2026-01-30 02:18:06.91	204.59	18.06	-30.2	-33.4	18.8	6.03e-01	0	43	0	983564288	21	5221
2026-01-30 02:18:09.91	204.55	17.66	-29.8	-32.5	19.4	6.02e-01	0	43	0	989331456	21	4879
2026-01-30 02:18:12.93	204.50	17.26	-30.1	-33.1	19.0	6.03e-01	0	43	0	994574336	21	5092
2026-01-30 02:18:15.94	204.46	16.87	-29.7	-32.1	19.6	6.01e-01	0	43	0	1000341504	21	4745
2026-01-30 02:18:18.95	204.43	16.49	-29.6	-31.9	19.7	6.04e-01	0	44	0	1006108672	21	4707
2026-01-30 02:18:21.95	204.39	16.12	-29.6	-31.9	19.6	6.05e-01	0	43	0	1011875840	21	4708
2026-01-30 02:18:24.96	204.35	15.75	-29.7	-32.2	19.5	6.02e-01	0	43	0	1017118720	21	4796
2026-01-30 02:18:27.98	204.32	15.38	-29.7	-32.1	19.5	6.02e-01	0	43	0	1022885888	21	4775
2026-01-30 02:18:30.99	204.28	15.03	-29.7	-32.2	19.5	6.01e-01	0	43	0	1028653056	21	4784
2026-01-30 02:18:34.00	204.25	14.68	-29.7	-32.2	19.4	6.03e-01	0	43	0	1034420224	21	4809
2026-01-30 02:18:37.01	204.22	14.33	-29.7	-32.2	19.4	6.01e-01	0	43	0	1039663104	21	4794
2026-01-30 02:18:39.99	204.19	13.99	-29.7	-32.1	19.4	6.01e-01	0	43	0	1045430272	21	4775
2026-01-30 02:18:43.00	204.16	13.66	-29.9	-32.7	19.1	6.03e-01	0	43	0	1051197440	21	4974
2026-01-30 02:18:46.01	204.13	13.33	-30.1	-33.2	18.7	6.04e-01	0	44	0	1056964608	21	5171
2026-01-30 02:18:49.02	204.10	13.00	-30.1	-33.3	18.6	6.02e-01	0	43	0	1062207488	21	5221
2026-01-30 02:18:52.04	204.07	12.68	-30.0	-33.1	18.8	6.02e-01	0	43	0	1067974656	21	5126
2026-01-30 02:18:55.05	204.05	12.36	-30.1	-33.4	18.5	6.04e-01	0	44	0	1073741824	21	5265
2026-01-30 02:18:58.07	204.02	12.05	-30.0	-33.0	18.7	6.04e-01	0	43	0	1079508992	21	5092
2026-01-30 02:19:01.08	204.00	11.74	-30.0	-33.0	18.7	6.03e-01	0	43	0	1084751872	21	5105
2026-01-30 02:19:04.09	203.97	11.44	-29.9	-32.7	18.8	6.02e-01	0	43	0	1090519040	21	4999
2026-01-30 02:19:07.11	203.95	11.14	-30.0	-33.0	18.6	6.02e-01	0	44	0	1096286208	21	5114
2026-01-30 02:19:10.11	203.93	10.85	-30.0	-33.2	18.5	6.00e-01	0	43	0	1102053376	21	5165
2026-01-30 02:19:13.12	203.91	10.56	-30.2	-33.8	18.0	6.03e-01	0	43	0	1107820544	21	5418
2026-01-30 02:19:16.13	203.88	10.27	-29.9	-32.8	18.7	6.02e-01	0	43	0	1113063424	21	5022
2026-01-30 02:19:19.14	203.86	9.99	-30.0	-33.1	18.4	6.05e-01	0	43	0	1118830592	21	5156
2026-01-30 02:19:22.14	203.84	9.71	-30.2	-33.6	18.1	6.02e-01	0	43	0	1124597760	21	5348
2026-01-30 02:19:25.16	203.82	9.43	-29.9	-32.9	18.5	6.02e-01	0	43	0	1130364928	21	5098
2026-01-30 02:19:28.17	203.81	9.16	-29.9	-32.9	18.5	6.02e-01	0	43	0	1135607808	21	5078
2026-01-30 02:19:31.18	203.79	8.89	-29.9	-33.0	18.4	6.03e-01	0	43	0	1141374976	21	5146
2026-01-30 02:19:34.18	203.77	8.62	-30.1	-33.6	18.1	6.00e-01	0	43	0	1147142144	21	5370
2026-01-30 02:19:37.19	203.75	8.36	-30.2	-33.8	17.9	6.02e-01	0	44	0	1152909312	21	5453
2026-01-30 02:19:40.20	203.74	8.10	-30.3	-34.1	17.7	6.03e-01	0	43	0	1158152192	21	5599
2026-01-30 02:19:43.20	203.72	7.84	-30.3	-34.2	17.6	6.04e-01	0	43	0	1163919360	21	5608
2026-01-30 02:19:46.21	203.70	7.59	-30.4	-34.3	17.5	6.03e-01	0	43	0	1169686528	21	5694
2026-01-30 02:19:49.22	203.69	7.33	-30.4	-34.4	17.4	6.03e-01	0	43	0	1175453696	21	5731
2026-01-30 02:19:52.23	203.67	7.08	-30.1	-33.8	17.7	6.05e-01	0	43	0	1180696576	21	5460

#Closed at: 2026-01-30 02:19:54
#Recorded file [1181 MB]: D:/data/31010_260130_050922.dat