passes_logs/2026/01/30/R2M6_AANII_01/R2M6_AANII_01__20260130_023039_FENGYUN_3D_rec.log

#Pass ID: 20260130_023039_FENGYUN 3D
#Satellite: FENGYUN 3D
#Configuration: FENGYUN 3D
#almurnet v.1.7.20240730
#Start time: 2026-01-30 02:30:39

#Version: 2.2.20231116
#Station: R2M6_AANII_01
#Location: 30.233357 lon 59.946436 lat
#TLE: 1 43010U 17072A   26028.95797775  .00000451  00000+0  23492-3 0  9991
#TLE: 2 43010  98.9958   0.9922 0002505  85.7480 274.3981 14.19703224425237

#Time	Az	El	Level	Level2	SNR	BER	BlckErr	Temp	State	Recorded	gain1	gain2
2026-01-30 02:30:39.43	18.35	7.01	-29.5	-32.2	5.5	7.81e-01	0	41	0	0	19	4883
2026-01-30 02:30:42.44	18.35	7.25	-30.3	-33.8	9.6	1.27e-02	0	41	0	5242880	20	5383
2026-01-30 02:30:45.44	18.36	7.48	-29.5	-31.5	11.2	3.44e-03	0	41	0	22020096	20	4548
2026-01-30 02:30:48.46	18.36	7.72	-28.5	-30.0	12.9	9.26e-05	0	41	0	38797312	18	4276
2026-01-30 02:30:51.48	18.36	7.96	-28.5	-30.6	12.9	8.35e-05	0	41	0	55574528	17	4560
2026-01-30 02:30:54.48	18.37	8.20	-28.5	-30.4	12.9	1.10e-04	0	42	0	73400320	17	4519
2026-01-30 02:30:57.48	18.37	8.44	-27.5	-29.3	14.1	6.80e-06	0	42	0	90177536	15	4402
2026-01-30 02:31:00.49	18.37	8.69	-27.1	-28.7	14.7	1.10e-06	0	41	0	106954752	14	4354
2026-01-30 02:31:03.49	18.37	8.93	-27.1	-28.8	14.7	0.00e+00	0	42	0	123731968	14	4377
2026-01-30 02:31:06.51	18.38	9.19	-27.0	-29.0	14.8	0.00e+00	0	42	0	140509184	13	4559
2026-01-30 02:31:09.51	18.38	9.44	-27.0	-28.6	14.9	1.10e-06	0	42	0	157286400	14	4308
2026-01-30 02:31:12.52	18.38	9.70	-27.0	-28.7	14.8	1.10e-06	0	42	0	174063616	14	4337
2026-01-30 02:31:15.54	18.38	9.95	-27.0	-28.5	14.9	1.10e-06	0	42	0	191889408	14	4289
2026-01-30 02:31:18.55	18.38	10.22	-26.9	-28.8	15.0	1.10e-06	0	42	0	208666624	13	4479
2026-01-30 02:31:21.56	18.38	10.48	-26.9	-28.3	15.0	0.00e+00	0	42	0	225443840	14	4224
2026-01-30 02:31:24.57	18.38	10.75	-26.9	-28.8	15.0	2.17e-05	0	42	0	242221056	13	4499
2026-01-30 02:31:27.58	18.38	11.02	-26.5	-27.9	15.5	0.00e+00	0	42	0	258998272	13	4247
2026-01-30 02:31:30.59	18.38	11.29	-26.5	-28.0	15.5	0.00e+00	0	42	0	275775488	13	4250
2026-01-30 02:31:33.62	18.39	11.57	-26.6	-28.2	15.4	0.00e+00	0	42	0	293601280	13	4306
2026-01-30 02:31:36.63	18.39	11.85	-26.5	-27.9	15.6	0.00e+00	0	42	0	310378496	13	4237
2026-01-30 02:31:39.64	18.38	12.13	-26.5	-27.8	15.6	0.00e+00	0	43	0	327155712	13	4215
2026-01-30 02:31:42.65	18.38	12.42	-26.3	-28.1	15.8	0.00e+00	0	42	0	343932928	12	4388
2026-01-30 02:31:45.66	18.38	12.71	-26.4	-27.7	15.7	0.00e+00	0	42	0	360710144	13	4189
2026-01-30 02:31:48.67	18.38	13.00	-26.3	-27.9	15.9	0.00e+00	0	43	0	377487360	12	4343
2026-01-30 02:31:51.69	18.38	13.30	-26.2	-27.7	16.0	0.00e+00	0	43	0	395313152	12	4292
2026-01-30 02:31:54.71	18.38	13.60	-26.0	-27.2	16.3	0.00e+00	0	43	0	412090368	12	4156
2026-01-30 02:31:57.72	18.38	13.90	-25.9	-27.6	16.5	0.00e+00	0	43	0	428867584	11	4377
2026-01-30 02:32:00.73	18.38	14.21	-25.8	-27.3	16.6	0.00e+00	0	43	0	445644800	11	4295
2026-01-30 02:32:03.74	18.37	14.52	-25.7	-27.2	16.7	0.00e+00	0	43	0	462422016	11	4263
2026-01-30 02:32:06.76	18.37	14.84	-26.0	-27.7	16.5	0.00e+00	0	43	0	479199232	11	4402
2026-01-30 02:32:09.76	18.37	15.16	-26.2	-27.7	16.1	0.00e+00	0	43	0	495976448	12	4276
2026-01-30 02:32:12.77	18.36	15.48	-25.8	-26.8	16.6	0.00e+00	0	43	0	513802240	12	4053
2026-01-30 02:32:15.78	18.36	15.81	-26.0	-27.8	16.4	0.00e+00	0	43	0	530579456	11	4424
2026-01-30 02:32:18.79	18.36	16.15	-25.6	-27.0	16.9	0.00e+00	0	43	0	547356672	11	4200
2026-01-30 02:32:21.81	18.35	16.49	-25.3	-26.3	17.3	0.00e+00	0	43	0	564133888	11	4020
2026-01-30 02:32:24.82	18.35	16.83	-25.3	-26.7	17.3	0.00e+00	0	43	0	580911104	10	4245
2026-01-30 02:32:27.83	18.34	17.18	-25.4	-26.9	17.3	0.00e+00	0	43	0	597688320	10	4295
2026-01-30 02:32:30.83	18.33	17.53	-25.3	-26.7	17.4	0.00e+00	0	43	0	615514112	10	4235
2026-01-30 02:32:33.83	18.33	17.88	-25.2	-26.5	17.4	0.00e+00	0	43	0	631242752	10	4194
2026-01-30 02:32:36.84	18.32	18.25	-25.2	-26.5	17.4	0.00e+00	0	43	0	649068544	10	4207
2026-01-30 02:32:39.84	18.31	18.61	-25.1	-26.4	17.5	0.00e+00	0	43	0	665845760	10	4170
2026-01-30 02:32:42.85	18.31	18.99	-25.1	-26.4	16.3	0.00e+00	0	43	0	682622976	10	4166
2026-01-30 02:32:45.86	18.30	19.37	-24.9	-26.0	17.8	0.00e+00	0	43	0	699400192	10	4058
2026-01-30 02:32:48.87	18.29	19.75	-24.7	-26.0	18.0	0.00e+00	0	43	0	716177408	9	4171
2026-01-30 02:32:51.88	18.28	20.15	-24.8	-26.2	17.9	2.17e-04	0	43	0	734003200	9	4233
2026-01-30 02:32:54.90	18.27	20.55	-24.7	-25.9	18.1	2.53e-04	0	43	0	750780416	9	4148
2026-01-30 02:32:57.91	18.26	20.95	-24.7	-26.0	18.0	0.00e+00	0	43	0	767557632	9	4186
2026-01-30 02:33:00.92	18.25	21.36	-24.7	-25.9	18.1	0.00e+00	0	43	0	784334848	9	4152
2026-01-30 02:33:03.93	18.24	21.78	-24.6	-25.7	18.2	2.30e-04	0	43	0	801112064	9	4093
2026-01-30 02:33:06.94	18.23	22.21	-24.8	-26.2	18.0	2.41e-04	0	43	0	817889280	9	4240
2026-01-30 02:33:09.95	18.21	22.64	-24.6	-25.7	18.3	1.93e-04	0	43	0	834666496	9	4095
2026-01-30 02:33:12.96	18.20	23.08	-24.7	-26.0	18.1	1.81e-04	0	43	0	851443712	9	4169
2026-01-30 02:33:15.97	18.18	23.53	-24.1	-24.7	18.8	1.93e-04	0	43	0	869269504	9	3854
2026-01-30 02:33:18.97	18.17	23.98	-23.9	-24.8	19.0	1.66e-04	0	43	0	886046720	8	3983
2026-01-30 02:33:21.97	18.15	24.44	-23.8	-24.6	19.1	0.00e+00	0	43	0	902823936	8	3929
2026-01-30 02:33:24.97	18.14	24.91	-23.7	-24.3	19.3	1.58e-04	0	43	0	919601152	8	3876
2026-01-30 02:33:27.97	18.12	25.39	-23.8	-24.6	19.1	1.45e-04	0	43	0	936378368	8	3946
2026-01-30 02:33:30.98	18.10	25.88	-24.0	-25.0	18.9	0.00e+00	0	43	0	953155584	8	4035
2026-01-30 02:33:33.99	18.08	26.38	-23.8	-24.6	19.1	0.00e+00	0	43	0	969932800	8	3945
2026-01-30 02:33:36.99	18.06	26.88	-23.6	-24.6	19.4	0.00e+00	0	43	0	987758592	7	4057
2026-01-30 02:33:40.00	18.04	27.40	-23.6	-24.7	19.4	0.00e+00	0	43	0	1004535808	7	4077
2026-01-30 02:33:43.02	18.02	27.93	-23.6	-24.5	19.5	0.00e+00	0	43	0	1021313024	7	4033
2026-01-30 02:33:46.05	17.99	28.47	-23.7	-24.9	19.3	0.00e+00	0	44	0	1038090240	7	4123
2026-01-30 02:33:49.06	17.97	29.02	-23.8	-25.1	19.2	0.00e+00	0	43	0	1054867456	7	4171
2026-01-30 02:33:52.08	17.94	29.58	-24.1	-25.2	18.9	0.00e+00	0	43	0	1072693248	8	4098
2026-01-30 02:33:55.08	17.91	30.15	-23.7	-24.4	19.3	0.00e+00	0	43	0	1089470464	8	3882
2026-01-30 02:33:58.10	17.88	30.74	-23.6	-24.1	19.5	0.00e+00	0	43	0	1106247680	8	3823
2026-01-30 02:34:01.12	17.85	31.33	-23.4	-23.7	19.7	0.00e+00	0	43	0	1123024896	8	3732
2026-01-30 02:34:04.13	17.82	31.94	-23.5	-24.5	19.5	0.00e+00	0	43	0	1139802112	7	4024
2026-01-30 02:34:07.14	17.79	32.56	-23.6	-24.6	19.5	0.00e+00	0	43	0	1156579328	7	4046
2026-01-30 02:34:10.15	17.75	33.19	-23.5	-24.5	19.5	0.00e+00	0	43	0	1173356544	7	4035
2026-01-30 02:34:13.16	17.71	33.84	-23.6	-24.7	19.4	0.00e+00	0	43	0	1190133760	7	4075
2026-01-30 02:34:16.16	17.67	34.50	-23.4	-24.2	19.7	0.00e+00	0	44	0	1207959552	7	3947
2026-01-30 02:34:19.17	17.63	35.17	-23.7	-25.0	19.3	0.00e+00	0	43	0	1224736768	7	4138
2026-01-30 02:34:22.19	17.59	35.87	-23.6	-24.6	19.5	1.13e-04	0	43	0	1241513984	7	4052
2026-01-30 02:34:25.19	17.54	36.57	-23.5	-24.4	19.6	1.10e-04	0	43	0	1258291200	7	4010
2026-01-30 02:34:28.19	17.49	37.29	-23.6	-24.7	19.4	0.00e+00	0	43	0	1275068416	7	4077
2026-01-30 02:34:31.19	17.44	38.02	-23.5	-24.4	19.6	0.00e+00	0	43	0	1291845632	7	3999
2026-01-30 02:34:34.20	17.38	38.77	-23.6	-24.1	19.5	8.92e-05	0	44	0	1308622848	8	3819
2026-01-30 02:34:37.19	17.33	39.54	-23.4	-24.1	19.7	1.11e-04	0	43	0	1325400064	7	3941
2026-01-30 02:34:40.19	17.26	40.32	-23.2	-23.7	20.0	0.00e+00	0	44	0	1343225856	7	3842
2026-01-30 02:34:43.20	17.20	41.13	-23.3	-24.1	19.8	9.61e-05	0	43	0	1360003072	7	3921
2026-01-30 02:34:46.20	17.13	41.95	-23.5	-24.5	19.6	5.26e-05	0	43	0	1376780288	7	4024
2026-01-30 02:34:49.21	17.06	42.79	-23.5	-24.4	19.6	8.00e-06	0	43	0	1393557504	7	4002
2026-01-30 02:34:52.21	16.98	43.65	-23.7	-24.8	19.5	0.00e+00	0	44	0	1410334720	7	4089
2026-01-30 02:34:55.22	16.90	44.53	-23.5	-24.5	19.6	0.00e+00	0	43	0	1427111936	7	4026
2026-01-30 02:34:58.23	16.81	45.43	-23.4	-24.3	19.7	0.00e+00	0	43	0	1443889152	7	3972
2026-01-30 02:35:01.22	16.71	46.34	-23.7	-24.9	19.4	0.00e+00	0	43	0	1460666368	7	4118
2026-01-30 02:35:04.22	16.61	47.28	-23.7	-24.9	19.4	0.00e+00	0	43	0	1477443584	7	4134
2026-01-30 02:35:07.24	16.50	48.25	-23.7	-24.8	19.5	0.00e+00	0	43	0	1495269376	7	4094
2026-01-30 02:35:10.25	16.39	49.24	-24.1	-25.1	19.1	0.00e+00	0	43	0	1512046592	8	4072
2026-01-30 02:35:13.26	16.26	50.24	-23.9	-24.7	19.2	0.00e+00	0	43	0	1528823808	8	3968
2026-01-30 02:35:16.26	16.13	51.27	-23.6	-24.1	19.6	0.00e+00	0	43	0	1545601024	8	3818
2026-01-30 02:35:19.27	15.99	52.33	-24.3	-25.7	18.8	0.00e+00	0	43	0	1562378240	8	4216
2026-01-30 02:35:22.27	15.83	53.40	-24.5	-25.6	18.6	0.00e+00	0	43	0	1579155456	9	4065
2026-01-30 02:35:25.28	15.66	54.50	-24.4	-25.3	18.7	0.00e+00	0	44	0	1595932672	9	4001
2026-01-30 02:35:28.29	15.48	55.62	-24.4	-25.4	18.7	0.00e+00	0	43	0	1613758464	9	4015
2026-01-30 02:35:31.30	15.28	56.77	-24.6	-25.7	18.6	0.00e+00	0	43	0	1630535680	9	4085
2026-01-30 02:35:34.30	15.06	57.94	-24.0	-24.5	19.2	0.00e+00	0	43	0	1647312896	9	3802
2026-01-30 02:35:37.32	14.82	59.13	-23.8	-24.2	19.4	0.00e+00	0	44	0	1664090112	9	3729
2026-01-30 02:35:40.33	14.56	60.35	-23.4	-23.7	19.9	0.00e+00	0	44	0	1680867328	8	3729
2026-01-30 02:35:43.34	14.27	61.59	-23.1	-23.7	20.1	0.00e+00	0	43	0	1697644544	7	3828
2026-01-30 02:35:46.35	13.94	62.86	-22.9	-23.1	20.4	0.00e+00	0	43	0	1714421760	7	3710
2026-01-30 02:35:49.37	13.58	64.15	-22.5	-22.9	20.8	0.00e+00	0	43	0	1732247552	6	3748
2026-01-30 02:35:52.37	13.18	65.45	-23.2	-24.4	20.0	0.00e+00	0	43	0	1749024768	6	4119
2026-01-30 02:35:55.38	12.72	66.78	-22.9	-23.6	20.3	0.00e+00	0	43	0	1765801984	6	3929
2026-01-30 02:35:58.38	12.20	68.12	-23.0	-23.9	20.2	0.00e+00	0	43	0	1782579200	6	4002
2026-01-30 02:36:01.39	11.60	69.49	-23.3	-24.6	19.9	0.00e+00	0	43	0	1799356416	6	4168
2026-01-30 02:36:04.40	10.91	70.88	-22.9	-23.6	20.4	0.00e+00	0	43	0	1816133632	6	3921
2026-01-30 02:36:07.41	10.09	72.28	-22.4	-22.7	20.8	0.00e+00	0	44	0	1832910848	6	3712
2026-01-30 02:36:10.41	9.14	73.69	-21.8	-22.3	21.5	0.00e+00	0	44	0	1849688064	4	3840
2026-01-30 02:36:13.43	7.97	75.13	-21.5	-21.8	21.8	0.00e+00	0	43	0	1867513856	4	3714
2026-01-30 02:36:16.44	6.55	76.56	-21.3	-21.4	22.0	0.00e+00	0	43	0	1884291072	4	3648
2026-01-30 02:36:19.44	4.79	78.00	-21.3	-21.9	22.0	0.00e+00	0	44	0	1901068288	3	3844
2026-01-30 02:36:22.45	2.52	79.44	-21.1	-21.4	22.3	0.00e+00	0	44	0	1917845504	3	3749
2026-01-30 02:36:25.46	359.51	80.87	-21.4	-22.2	21.9	0.00e+00	0	44	0	1934622720	3	3918
2026-01-30 02:36:28.46	355.39	82.27	-21.0	-21.3	22.3	0.00e+00	0	44	0	1951399936	3	3715
2026-01-30 02:36:31.46	349.48	83.62	-21.2	-21.6	22.2	0.00e+00	0	44	0	1968177152	3	3794
2026-01-30 02:36:34.48	340.43	84.88	-22.5	-23.4	20.8	0.00e+00	0	44	0	1986002944	5	3979
2026-01-30 02:36:37.49	326.15	85.93	-22.5	-23.3	20.9	0.00e+00	0	44	0	2002780160	5	3966
2026-01-30 02:36:40.50	304.39	86.59	-22.3	-22.9	21.2	0.00e+00	0	43	0	2019557376	5	3872
2026-01-30 02:36:43.51	278.02	86.60	-22.7	-23.7	20.7	0.00e+00	0	44	0	2036334592	5	4060
2026-01-30 02:36:46.52	255.97	85.97	-22.6	-23.5	20.8	0.00e+00	0	43	0	2053111808	5	4011
2026-01-30 02:36:49.53	241.44	84.92	-22.3	-23.0	21.0	0.00e+00	0	44	0	2069889024	5	3876
2026-01-30 02:36:52.55	232.24	83.67	-22.1	-22.6	21.2	0.00e+00	0	44	0	2087714816	5	3795
2026-01-30 02:36:55.55	226.23	82.32	-22.3	-23.0	20.9	0.00e+00	0	44	0	2104492032	5	3886
2026-01-30 02:36:58.57	222.03	80.91	-21.8	-22.0	21.4	0.00e+00	0	43	0	2121269248	5	3666
2026-01-30 02:37:01.57	219.01	79.48	-21.2	-21.7	22.0	0.00e+00	0	44	0	2138046464	3	3809
2026-01-30 02:37:04.59	216.71	78.04	-20.8	-21.0	22.3	0.00e+00	0	43	0	2154823680	3	3646
2026-01-30 02:37:07.60	214.92	76.60	-21.1	-21.4	22.1	0.00e+00	0	43	0	2171600896	3	3747
2026-01-30 02:37:10.60	213.50	75.16	-21.3	-21.8	21.9	0.00e+00	0	44	0	2188378112	3	3845
2026-01-30 02:37:13.61	212.33	73.73	-21.6	-22.5	21.6	0.00e+00	0	43	0	2205155328	3	3983
2026-01-30 02:37:16.62	211.36	72.31	-21.6	-22.1	21.5	0.00e+00	0	44	0	2222981120	4	3785
2026-01-30 02:37:19.63	210.55	70.91	-22.2	-23.2	20.9	0.00e+00	0	43	0	2239758336	4	4035
2026-01-30 02:37:22.65	209.85	69.51	-22.7	-23.8	20.4	0.00e+00	0	43	0	2256535552	5	4082
2026-01-30 02:37:25.65	209.25	68.15	-22.6	-23.6	20.4	0.00e+00	0	44	0	2273312768	5	4036
2026-01-30 02:37:28.65	208.72	66.80	-22.7	-23.2	20.4	0.00e+00	0	43	0	2290089984	6	3833
2026-01-30 02:37:31.67	208.26	65.46	-22.3	-22.9	20.8	0.00e+00	0	43	0	2306867200	5	3872
2026-01-30 02:37:34.69	207.85	64.14	-22.5	-23.3	20.6	0.00e+00	0	44	0	2324692992	5	3965
2026-01-30 02:37:37.71	207.49	62.85	-22.2	-22.8	20.7	0.00e+00	0	43	0	2341470208	5	3845
2026-01-30 02:37:40.72	207.17	61.58	-22.9	-24.1	20.2	0.00e+00	0	43	0	2358247424	5	4163
2026-01-30 02:37:43.72	206.87	60.34	-22.8	-24.0	20.2	0.00e+00	0	43	0	2375024640	5	4133
2026-01-30 02:37:46.71	206.61	59.13	-22.9	-24.2	20.1	0.00e+00	0	43	0	2391801856	5	4180
2026-01-30 02:37:49.71	206.37	57.93	-23.2	-24.2	19.9	0.00e+00	0	43	0	2408579072	6	4064
2026-01-30 02:37:52.71	206.15	56.76	-24.1	-25.2	18.9	0.00e+00	0	44	0	2425356288	8	4089
2026-01-30 02:37:55.73	205.95	55.61	-23.8	-24.6	19.2	6.80e-06	0	43	0	2442133504	8	3928
2026-01-30 02:37:58.72	205.77	54.49	-24.5	-25.5	18.5	9.10e-06	0	44	0	2458910720	9	4065
2026-01-30 02:38:01.74	205.60	53.38	-24.1	-24.7	18.8	0.00e+00	0	43	0	2476736512	9	3859
2026-01-30 02:38:04.75	205.44	52.30	-24.0	-24.6	18.9	3.40e-06	0	44	0	2493513728	9	3847
2026-01-30 02:38:07.75	205.29	51.25	-23.5	-23.9	19.5	1.10e-06	0	44	0	2510290944	8	3778
2026-01-30 02:38:10.76	205.16	50.21	-23.2	-23.7	19.8	0.00e+00	0	43	0	2527068160	7	3850
2026-01-30 02:38:13.76	205.03	49.20	-23.1	-23.7	19.8	0.00e+00	0	43	0	2543845376	7	3842
2026-01-30 02:38:16.77	204.92	48.21	-23.1	-23.6	19.9	6.80e-06	0	44	0	2560622592	7	3808
2026-01-30 02:38:19.78	204.81	47.25	-23.2	-23.8	19.8	2.20e-06	0	44	0	2578448384	7	3866
2026-01-30 02:38:22.78	204.71	46.30	-23.1	-23.6	19.9	0.00e+00	0	44	0	2595225600	7	3820
2026-01-30 02:38:25.79	204.61	45.38	-23.0	-23.5	19.9	0.00e+00	0	44	0	2612002816	7	3786
2026-01-30 02:38:28.80	204.52	44.47	-23.0	-23.5	19.9	1.71e-05	0	43	0	2628780032	7	3792
2026-01-30 02:38:31.81	204.44	43.59	-22.9	-23.2	20.0	2.20e-06	0	43	0	2645557248	7	3715
2026-01-30 02:38:34.81	204.36	42.73	-23.0	-23.3	20.0	0.00e+00	0	43	0	2662334464	7	3752
2026-01-30 02:38:37.82	204.28	41.88	-22.9	-23.3	20.0	0.00e+00	0	44	0	2679111680	7	3751
2026-01-30 02:38:40.83	204.21	41.06	-22.8	-23.5	20.1	0.00e+00	0	43	0	2696937472	6	3901
2026-01-30 02:38:43.85	204.15	40.25	-22.6	-23.0	20.4	0.00e+00	0	44	0	2713714688	6	3799
2026-01-30 02:38:46.86	204.08	39.46	-22.5	-22.8	20.5	0.00e+00	0	43	0	2730491904	6	3744
2026-01-30 02:38:49.85	204.03	38.69	-22.7	-23.3	20.2	0.00e+00	0	44	0	2747269120	6	3859
2026-01-30 02:38:52.87	203.97	37.93	-22.5	-23.0	20.4	0.00e+00	0	44	0	2764046336	6	3778
2026-01-30 02:38:55.86	203.92	37.20	-22.2	-22.8	20.7	0.00e+00	0	44	0	2780823552	5	3841
2026-01-30 02:38:58.87	203.87	36.47	-22.4	-23.2	20.5	0.00e+00	0	43	0	2797600768	5	3936
2026-01-30 02:39:01.88	203.82	35.77	-22.8	-24.0	20.1	0.00e+00	0	43	0	2814377984	5	4142
2026-01-30 02:39:04.89	203.77	35.08	-23.0	-24.4	19.9	0.00e+00	0	44	0	2832203776	5	4226
2026-01-30 02:39:07.89	203.73	34.40	-22.5	-23.4	20.3	0.00e+00	0	43	0	2848980992	5	3985
2026-01-30 02:39:10.89	203.69	33.74	-22.6	-23.5	20.3	1.10e-06	0	44	0	2865758208	5	4003
2026-01-30 02:39:13.90	203.65	33.09	-22.8	-24.0	20.1	3.40e-06	0	43	0	2882535424	5	4131
2026-01-30 02:39:16.91	203.61	32.46	-23.0	-24.4	19.8	2.20e-06	0	44	0	2899312640	5	4233
2026-01-30 02:39:19.92	203.58	31.83	-23.1	-24.2	19.7	0.00e+00	0	43	0	2916089856	6	4073
2026-01-30 02:39:22.94	203.54	31.22	-23.1	-24.1	18.6	3.40e-06	0	43	0	2932867072	6	4032
2026-01-30 02:39:25.96	203.51	30.62	-23.0	-24.0	19.8	3.40e-06	0	44	0	2949644288	6	4016
2026-01-30 02:39:28.97	203.48	30.04	-23.2	-24.2	19.7	2.01e-04	0	44	0	2967470080	6	4077
2026-01-30 02:39:31.98	203.45	29.47	-23.3	-24.6	19.5	0.00e+00	0	44	0	2984247296	6	4159
2026-01-30 02:39:34.99	203.42	28.91	-23.4	-24.7	19.4	0.00e+00	0	43	0	3001024512	6	4207
2026-01-30 02:39:38.01	203.40	28.35	-23.3	-24.2	19.4	2.54e-04	0	43	0	3017801728	7	3961
2026-01-30 02:39:41.01	203.37	27.82	-23.1	-24.2	19.6	2.78e-04	0	43	0	3034578944	6	4089
2026-01-30 02:39:44.03	203.35	27.28	-23.0	-23.9	19.8	3.00e-04	0	44	0	3052404736	6	3999
2026-01-30 02:39:47.05	203.32	26.76	-22.9	-23.8	19.8	2.53e-04	0	44	0	3069181952	6	3968
2026-01-30 02:39:50.05	203.30	26.26	-23.1	-24.1	19.6	2.52e-04	0	44	0	3085959168	6	4053
2026-01-30 02:39:53.05	203.28	25.76	-23.2	-24.4	19.5	2.79e-04	0	44	0	3102736384	6	4120
2026-01-30 02:39:56.07	203.26	25.26	-23.3	-24.5	19.4	0.00e+00	0	43	0	3119513600	6	4164
2026-01-30 02:39:59.07	203.24	24.78	-23.5	-24.6	19.1	2.35e-04	0	44	0	3136290816	7	4056
2026-01-30 02:40:02.06	203.22	24.31	-23.5	-24.5	19.1	2.05e-04	0	43	0	3153068032	7	4046
2026-01-30 02:40:05.07	203.21	23.85	-23.5	-24.6	19.1	0.00e+00	0	44	0	3169845248	7	4059
2026-01-30 02:40:08.07	203.19	23.39	-23.5	-24.5	19.1	0.00e+00	0	43	0	3186622464	7	4025
2026-01-30 02:40:11.08	203.17	22.94	-23.6	-24.7	19.0	1.41e-04	0	44	0	3204448256	7	4074
2026-01-30 02:40:14.08	203.16	22.50	-23.5	-24.5	19.0	0.00e+00	0	44	0	3221225472	7	4040
2026-01-30 02:40:17.10	203.14	22.07	-23.6	-24.7	19.0	0.00e+00	0	44	0	3238002688	7	4080
2026-01-30 02:40:20.12	203.13	21.64	-23.8	-25.2	18.7	0.00e+00	0	43	0	3254779904	7	4206
2026-01-30 02:40:23.14	203.11	21.22	-23.9	-25.4	18.6	0.00e+00	0	44	0	3271557120	7	4247
2026-01-30 02:40:26.16	203.10	20.81	-24.3	-25.6	18.2	0.00e+00	0	44	0	3288334336	8	4202
2026-01-30 02:40:29.17	203.09	20.40	-24.4	-25.8	18.1	0.00e+00	0	44	0	3305111552	8	4257
2026-01-30 02:40:32.18	203.08	20.00	-24.4	-25.4	18.1	0.00e+00	0	44	0	3322937344	9	4034
2026-01-30 02:40:35.18	203.07	19.61	-24.4	-25.4	18.0	0.00e+00	0	44	0	3339714560	9	4036
2026-01-30 02:40:38.19	203.06	19.22	-24.6	-25.8	17.8	0.00e+00	0	44	0	3356491776	9	4145
2026-01-30 02:40:41.20	203.05	18.84	-24.8	-26.2	17.6	0.00e+00	0	44	0	3373268992	9	4243
2026-01-30 02:40:44.20	203.04	18.47	-24.8	-26.2	17.6	0.00e+00	0	44	0	3390046208	9	4241
2026-01-30 02:40:47.21	203.03	18.10	-24.6	-25.9	17.7	0.00e+00	0	44	0	3406823424	9	4151
2026-01-30 02:40:50.22	203.02	17.74	-24.7	-26.0	17.6	0.00e+00	0	44	0	3423600640	9	4201
2026-01-30 02:40:53.22	203.01	17.38	-24.8	-26.2	17.6	0.00e+00	0	44	0	3440377856	9	4231
2026-01-30 02:40:56.24	203.00	17.02	-24.8	-26.3	17.5	0.00e+00	0	44	0	3458203648	9	4268
2026-01-30 02:40:59.25	203.00	16.67	-25.0	-26.7	17.3	0.00e+00	0	44	0	3474980864	9	4375
2026-01-30 02:41:02.26	202.99	16.33	-25.4	-27.0	16.8	0.00e+00	0	44	0	3491758080	10	4329
2026-01-30 02:41:05.27	202.98	15.99	-25.4	-26.6	16.8	0.00e+00	0	44	0	3508535296	11	4116
2026-01-30 02:41:08.28	202.97	15.66	-25.5	-26.7	16.7	0.00e+00	0	44	0	3525312512	11	4150
2026-01-30 02:41:11.28	202.97	15.33	-25.4	-26.5	16.8	0.00e+00	0	44	0	3543138304	11	4100
2026-01-30 02:41:14.30	202.96	15.00	-25.4	-26.5	16.8	0.00e+00	0	44	0	3559915520	11	4090
2026-01-30 02:41:17.31	202.96	14.68	-25.5	-26.8	16.6	0.00e+00	0	44	0	3576692736	11	4162
2026-01-30 02:41:20.32	202.95	14.37	-25.5	-26.8	16.6	0.00e+00	0	44	0	3593469952	11	4170
2026-01-30 02:41:23.32	202.95	14.05	-25.6	-27.0	16.4	0.00e+00	0	44	0	3610247168	11	4227
2026-01-30 02:41:26.32	202.94	13.75	-25.7	-27.2	16.4	0.00e+00	0	44	0	3627024384	11	4267
2026-01-30 02:41:29.33	202.94	13.44	-25.8	-27.3	16.2	0.00e+00	0	44	0	3643801600	11	4323
2026-01-30 02:41:32.33	202.93	13.14	-25.8	-27.4	16.2	0.00e+00	0	44	0	3660578816	11	4326
2026-01-30 02:41:35.34	202.93	12.84	-25.8	-27.5	16.1	0.00e+00	0	44	0	3678404608	11	4357
2026-01-30 02:41:38.35	202.93	12.55	-25.9	-27.7	16.0	0.00e+00	0	44	0	3695181824	11	4411
2026-01-30 02:41:41.37	202.92	12.26	-26.2	-27.9	15.5	0.00e+00	0	44	0	3711959040	12	4373
2026-01-30 02:41:44.37	202.92	11.97	-26.2	-27.8	15.5	0.00e+00	0	44	0	3728736256	12	4345
2026-01-30 02:41:47.38	202.92	11.69	-26.3	-28.1	15.3	0.00e+00	0	43	0	3745513472	12	4430
2026-01-30 02:41:50.39	202.92	11.41	-26.1	-27.7	15.6	0.00e+00	0	44	0	3762290688	12	4305
2026-01-30 02:41:53.40	202.91	11.13	-26.1	-27.6	15.6	0.00e+00	0	43	0	3779067904	12	4275
2026-01-30 02:41:56.41	202.91	10.86	-26.1	-27.6	15.6	0.00e+00	0	43	0	3795845120	12	4292
2026-01-30 02:41:59.41	202.91	10.59	-26.1	-27.8	15.5	0.00e+00	0	44	0	3813670912	12	4331
2026-01-30 02:42:02.41	202.91	10.32	-26.5	-28.1	15.0	0.00e+00	0	44	0	3830448128	13	4301
2026-01-30 02:42:05.43	202.91	10.06	-26.5	-28.1	15.0	0.00e+00	0	44	0	3847225344	13	4313
2026-01-30 02:42:08.45	202.90	9.79	-26.8	-28.6	14.6	1.10e-06	0	44	0	3864002560	13	4468
2026-01-30 02:42:11.46	202.90	9.53	-26.5	-28.1	14.9	4.50e-06	0	44	0	3880779776	13	4330
2026-01-30 02:42:14.47	202.90	9.28	-26.6	-28.2	14.8	1.10e-06	0	44	0	3897556992	13	4341
2026-01-30 02:42:17.48	202.90	9.02	-26.9	-28.9	14.4	0.00e+00	0	44	0	3915382784	13	4547
2026-01-30 02:42:20.50	202.90	8.77	-27.1	-28.9	14.1	4.50e-06	0	44	0	3932160000	14	4443
2026-01-30 02:42:23.52	202.90	8.52	-27.0	-28.7	14.3	2.20e-06	0	44	0	3948937216	14	4374
2026-01-30 02:42:26.53	202.90	8.27	-27.2	-29.1	14.0	6.80e-06	0	44	0	3965714432	14	4506
2026-01-30 02:42:29.54	202.90	8.03	-27.3	-29.5	13.7	1.94e-05	0	44	0	3982491648	14	4627
2026-01-30 02:42:32.55	202.90	7.79	-27.1	-28.9	14.0	5.70e-06	0	44	0	3999268864	14	4452
2026-01-30 02:42:35.56	202.90	7.55	-27.0	-28.9	14.0	0.00e+00	0	44	0	4017094656	14	4436
2026-01-30 02:42:38.57	202.90	7.31	-27.3	-29.4	13.7	8.00e-06	0	44	0	4033871872	14	4588
2026-01-30 02:42:41.59	202.90	7.07	-32.9	-43.5	3.8	3.03e-02	0	44	104	4049600512	25	12195

#Closed at: 2026-01-30 02:42:44
#Recorded file [4049 MB]: D:/data/31010_260130_053041.dat