passes_logs/2026/01/30/R2M6_AANII_01/R2M6_AANII_01__20260130_105723_NOAA_21_JPSS-2_rec.log

#Pass ID: 20260130_105723_NOAA 21 (JPSS-2)
#Satellite: NOAA 21 (JPSS-2)
#Configuration: NOAA 21
#almurnet v.1.7.20240730
#Start time: 2026-01-30 10:57:22

#Version: 2.2.20231116
#Station: R2M6_AANII_01
#Location: 30.233357 lon 59.946436 lat
#TLE: 1 54234U 22150A   26029.46216196  .00000141  00000+0  87503-4 0  9994
#TLE: 2 54234  98.7512 330.1880 0000955 196.3413 163.7732 14.19540905166865

#Time	Az	El	Level	Level2	SNR	BER	BlckErr	Temp	State	Recorded	gain1	gain2
2026-01-30 10:57:22.97	180.10	6.96	-29.6	-33.5	4.9	1.35e+00	0	41	0	0	19	5636
2026-01-30 10:57:25.98	180.22	7.19	-30.7	-34.5	8.4	5.51e-02	0	41	0	3145728	22	5598
2026-01-30 10:57:28.99	180.35	7.42	-30.3	-33.2	9.4	1.91e-02	0	41	0	12582912	22	5031
2026-01-30 10:57:31.99	180.47	7.65	-29.3	-31.8	11.4	1.15e-03	0	41	0	22020096	19	4819
2026-01-30 10:57:35.00	180.60	7.88	-28.7	-30.7	12.5	1.33e-04	0	41	0	30408704	18	4554
2026-01-30 10:57:38.00	180.73	8.11	-28.7	-30.7	12.5	8.69e-05	0	42	0	39845888	18	4554
2026-01-30 10:57:41.00	180.86	8.35	-28.5	-30.3	12.8	5.64e-05	0	42	0	49283072	18	4437
2026-01-30 10:57:44.01	180.99	8.59	-28.5	-30.3	12.8	5.49e-05	0	42	0	58720256	18	4438
2026-01-30 10:57:47.01	181.12	8.83	-28.3	-29.8	13.2	2.44e-05	0	42	0	68157440	18	4275
2026-01-30 10:57:50.02	181.26	9.07	-28.2	-30.1	13.3	1.60e-05	0	42	0	77594624	17	4454
2026-01-30 10:57:53.03	181.40	9.32	-28.3	-30.3	13.2	1.60e-05	0	42	0	87031808	17	4524
2026-01-30 10:57:56.04	181.54	9.57	-28.2	-30.0	13.4	1.52e-05	0	42	0	96468992	17	4442
2026-01-30 10:57:59.05	181.68	9.82	-28.2	-29.9	13.5	7.60e-06	0	42	0	105906176	17	4385
2026-01-30 10:58:02.06	181.83	10.07	-28.1	-29.7	13.7	6.80e-06	0	42	0	115343360	17	4318
2026-01-30 10:58:05.08	181.98	10.32	-28.2	-30.0	13.4	9.10e-06	0	42	0	124780544	17	4434
2026-01-30 10:58:08.07	182.13	10.58	-27.9	-29.2	13.9	2.20e-06	0	42	0	134217728	17	4180
2026-01-30 10:58:11.09	182.28	10.84	-27.9	-29.2	13.9	2.20e-06	0	42	0	143654912	17	4177
2026-01-30 10:58:14.09	182.44	11.10	-27.8	-29.0	14.0	1.50e-06	0	42	0	153092096	17	4142
2026-01-30 10:58:17.09	182.59	11.37	-27.9	-29.7	14.0	4.50e-06	0	42	0	162529280	16	4432
2026-01-30 10:58:20.10	182.76	11.64	-27.6	-29.1	14.4	3.00e-06	0	42	0	171966464	16	4258
2026-01-30 10:58:23.11	182.92	11.91	-27.7	-29.2	14.3	0.00e+00	0	43	0	181403648	16	4298
2026-01-30 10:58:26.12	183.09	12.18	-27.5	-28.8	14.5	0.00e+00	0	43	0	190840832	16	4190
2026-01-30 10:58:29.13	183.26	12.46	-27.4	-28.5	14.7	1.50e-06	0	43	0	200278016	16	4084
2026-01-30 10:58:32.13	183.43	12.73	-27.4	-28.6	14.7	7.00e-07	0	42	0	209715200	16	4112
2026-01-30 10:58:35.14	183.60	13.02	-27.4	-28.5	14.7	0.00e+00	0	42	0	219152384	16	4087
2026-01-30 10:58:38.14	183.78	13.30	-27.3	-28.4	14.8	0.00e+00	0	43	0	228589568	16	4059
2026-01-30 10:58:41.15	183.96	13.59	-27.4	-28.5	14.9	0.00e+00	0	43	0	238026752	16	4075
2026-01-30 10:58:44.16	184.15	13.88	-27.4	-28.4	14.9	1.50e-06	0	43	0	247463936	16	4057
2026-01-30 10:58:47.17	184.34	14.18	-27.1	-28.3	15.1	0.00e+00	0	42	0	255852544	15	4155
2026-01-30 10:58:50.16	184.53	14.47	-27.1	-28.3	15.1	0.00e+00	0	43	0	265289728	15	4149
2026-01-30 10:58:53.16	184.73	14.78	-27.1	-28.4	15.1	0.00e+00	0	42	0	274726912	15	4164
2026-01-30 10:58:56.16	184.93	15.08	-27.0	-28.2	15.3	0.00e+00	0	42	0	284164096	15	4110
2026-01-30 10:58:59.17	185.13	15.39	-27.0	-28.1	15.3	0.00e+00	0	43	0	293601280	15	4095
2026-01-30 10:59:02.18	185.34	15.70	-27.0	-28.1	15.3	0.00e+00	0	43	0	303038464	15	4080
2026-01-30 10:59:05.19	185.55	16.02	-27.0	-28.2	15.3	0.00e+00	0	42	0	312475648	15	4103
2026-01-30 10:59:08.19	185.77	16.34	-26.9	-27.9	15.5	0.00e+00	0	43	0	321912832	15	4030
2026-01-30 10:59:11.19	185.99	16.66	-26.9	-28.0	15.4	0.00e+00	0	43	0	331350016	15	4060
2026-01-30 10:59:14.20	186.21	16.99	-26.9	-27.9	15.4	0.00e+00	0	43	0	340787200	15	4036
2026-01-30 10:59:17.21	186.45	17.32	-27.0	-28.1	15.2	0.00e+00	0	43	0	350224384	15	4092
2026-01-30 10:59:20.20	186.68	17.65	-27.0	-28.1	15.3	0.00e+00	0	43	0	359661568	15	4089
2026-01-30 10:59:23.21	186.92	17.99	-27.1	-28.3	15.2	0.00e+00	0	43	0	369098752	15	4148
2026-01-30 10:59:26.21	187.16	18.34	-27.1	-28.4	15.2	0.00e+00	0	43	0	378535936	15	4159
2026-01-30 10:59:29.22	187.42	18.69	-27.1	-28.4	15.2	0.00e+00	0	42	0	387973120	15	4181
2026-01-30 10:59:32.23	187.67	19.04	-27.2	-28.6	15.2	0.00e+00	0	43	0	397410304	15	4215
2026-01-30 10:59:35.24	187.94	19.40	-27.2	-28.6	15.1	0.00e+00	0	43	0	406847488	15	4226
2026-01-30 10:59:38.25	188.20	19.76	-27.2	-28.5	15.2	0.00e+00	0	43	0	416284672	15	4179
2026-01-30 10:59:41.26	188.48	20.13	-27.2	-28.5	15.2	0.00e+00	0	43	0	425721856	15	4202
2026-01-30 10:59:44.25	188.76	20.50	-27.1	-28.4	15.4	0.00e+00	0	43	0	435159040	15	4152
2026-01-30 10:59:47.26	189.05	20.88	-27.0	-28.1	15.5	0.00e+00	0	43	0	444596224	15	4082
2026-01-30 10:59:50.27	189.34	21.26	-26.9	-27.8	15.7	0.00e+00	0	43	0	454033408	15	4015
2026-01-30 10:59:53.28	189.64	21.65	-26.8	-28.2	15.7	0.00e+00	0	43	0	463470592	14	4234
2026-01-30 10:59:56.29	189.95	22.04	-26.3	-27.1	16.4	0.00e+00	0	43	0	472907776	14	3949
2026-01-30 10:59:59.30	190.27	22.44	-26.2	-27.3	16.5	3.80e-06	0	43	0	482344960	13	4096
2026-01-30 11:00:02.30	190.59	22.84	-26.2	-27.2	16.6	0.00e+00	0	43	0	490733568	13	4064
2026-01-30 11:00:05.30	190.92	23.25	-26.2	-27.3	16.6	1.50e-06	0	43	0	500170752	13	4088
2026-01-30 11:00:08.29	191.26	23.66	-26.1	-27.0	16.8	0.00e+00	0	43	0	509607936	13	3991
2026-01-30 11:00:11.29	191.61	24.08	-26.2	-27.3	16.6	0.00e+00	0	43	0	519045120	13	4075
2026-01-30 11:00:14.29	191.97	24.50	-26.2	-27.3	16.6	2.20e-06	0	43	0	528482304	13	4092
2026-01-30 11:00:17.30	192.34	24.93	-26.4	-27.6	16.5	0.00e+00	0	43	0	537919488	13	4159
2026-01-30 11:00:20.31	192.72	25.37	-26.2	-27.2	16.7	2.20e-06	0	43	0	547356672	13	4053
2026-01-30 11:00:23.31	193.11	25.81	-26.4	-27.7	16.5	9.10e-06	0	43	0	556793856	13	4164
2026-01-30 11:00:26.32	193.51	26.26	-26.6	-28.2	16.2	0.00e+00	0	43	0	566231040	13	4314
2026-01-30 11:00:29.34	193.92	26.72	-27.0	-28.9	15.8	0.00e+00	0	43	0	575668224	13	4519
2026-01-30 11:00:32.34	194.34	27.18	-27.1	-28.7	15.7	0.00e+00	0	43	0	585105408	14	4321
2026-01-30 11:00:35.35	194.78	27.64	-27.2	-28.9	15.6	0.00e+00	0	43	0	594542592	14	4395
2026-01-30 11:00:38.35	195.22	28.12	-27.1	-28.8	15.7	0.00e+00	0	43	0	603979776	14	4356
2026-01-30 11:00:41.36	195.69	28.60	-27.0	-28.5	15.8	0.00e+00	0	43	0	613416960	14	4276
2026-01-30 11:00:44.36	196.16	29.08	-27.1	-28.7	15.7	0.00e+00	0	43	0	622854144	14	4332
2026-01-30 11:00:47.36	196.65	29.58	-27.1	-28.7	15.7	0.00e+00	0	43	0	632291328	14	4339
2026-01-30 11:00:50.37	197.15	30.07	-27.0	-28.5	15.8	0.00e+00	0	43	0	641728512	14	4288
2026-01-30 11:00:53.39	197.67	30.58	-27.1	-28.7	15.8	0.00e+00	0	43	0	651165696	14	4328
2026-01-30 11:00:56.40	198.21	31.10	-27.1	-28.6	15.8	0.00e+00	0	43	0	660602880	14	4304
2026-01-30 11:00:59.41	198.76	31.61	-27.0	-28.4	15.9	0.00e+00	0	43	0	670040064	14	4258
2026-01-30 11:01:02.41	199.33	32.14	-27.1	-28.6	15.9	0.00e+00	0	43	0	679477248	14	4303
2026-01-30 11:01:05.40	199.91	32.67	-27.2	-28.9	15.7	0.00e+00	0	43	0	688914432	14	4389
2026-01-30 11:01:08.41	200.52	33.20	-27.6	-29.3	15.2	0.00e+00	0	43	0	697303040	15	4394
2026-01-30 11:01:11.41	201.14	33.75	-27.7	-29.6	15.1	0.00e+00	0	43	0	706740224	15	4465
2026-01-30 11:01:14.42	201.79	34.29	-28.2	-30.1	14.7	7.00e-07	0	43	0	716177408	16	4492
2026-01-30 11:01:17.44	202.47	34.85	-28.2	-30.2	14.6	0.00e+00	0	43	0	725614592	16	4515
2026-01-30 11:01:20.44	203.16	35.41	-28.3	-30.4	14.5	0.00e+00	0	43	0	735051776	16	4587
2026-01-30 11:01:23.44	203.87	35.97	-28.4	-30.7	14.3	1.50e-06	0	43	0	744488960	16	4693
2026-01-30 11:01:26.43	204.61	36.54	-29.0	-31.5	13.6	3.80e-06	0	43	0	753926144	17	4823
2026-01-30 11:01:29.46	205.38	37.12	-29.0	-31.1	13.5	6.80e-06	0	43	0	763363328	18	4592
2026-01-30 11:01:32.47	206.18	37.70	-29.0	-31.2	13.5	1.06e-05	0	43	0	772800512	18	4597
2026-01-30 11:01:35.48	207.00	38.28	-29.1	-31.3	13.4	1.90e-05	0	43	0	782237696	18	4643
2026-01-30 11:01:38.48	207.85	38.87	-29.0	-31.0	13.6	5.30e-06	0	43	0	791674880	18	4536
2026-01-30 11:01:41.49	208.73	39.46	-29.1	-31.3	13.5	9.90e-06	0	43	0	801112064	18	4623
2026-01-30 11:01:44.50	209.65	40.05	-29.0	-31.0	13.7	4.50e-06	0	43	0	810549248	18	4552
2026-01-30 11:01:47.52	210.60	40.65	-29.0	-31.0	13.6	6.80e-06	0	43	0	819986432	18	4558
2026-01-30 11:01:50.52	211.58	41.24	-28.9	-30.8	13.8	3.80e-06	0	43	0	829423616	18	4493
2026-01-30 11:01:53.53	212.60	41.84	-29.3	-31.7	13.3	2.74e-05	0	43	0	838860800	18	4773
2026-01-30 11:01:56.52	213.65	42.43	-29.1	-31.2	13.6	7.60e-06	0	43	0	848297984	18	4602
2026-01-30 11:01:59.53	214.75	43.02	-29.5	-31.9	13.0	3.35e-05	0	43	0	857735168	19	4699
2026-01-30 11:02:02.53	215.89	43.61	-29.5	-31.7	13.0	4.34e-05	0	43	0	867172352	19	4649
2026-01-30 11:02:05.53	217.06	44.19	-29.6	-32.0	12.9	3.89e-05	0	43	0	876609536	19	4721
2026-01-30 11:02:08.54	218.28	44.77	-29.3	-31.1	13.4	1.83e-05	0	43	0	886046720	19	4465
2026-01-30 11:02:11.54	219.55	45.35	-29.3	-31.2	13.3	1.52e-05	0	43	0	895483904	19	4488
2026-01-30 11:02:14.54	220.86	45.91	-29.8	-32.3	12.7	7.09e-05	0	43	0	904921088	19	4840
2026-01-30 11:02:17.55	222.22	46.47	-29.9	-32.2	12.4	1.67e-04	0	43	0	914358272	20	4689
2026-01-30 11:02:20.56	223.63	47.02	-29.5	-31.3	12.9	4.95e-05	0	43	0	922746880	20	4433
2026-01-30 11:02:23.56	225.08	47.55	-29.7	-31.6	12.7	8.62e-05	0	43	0	932184064	20	4518
2026-01-30 11:02:26.57	226.59	48.08	-29.3	-30.7	13.3	2.21e-05	0	43	0	941621248	20	4255
2026-01-30 11:02:29.57	228.14	48.58	-29.6	-31.4	12.9	4.04e-05	0	43	0	951058432	20	4438
2026-01-30 11:02:32.58	229.75	49.07	-29.9	-32.2	12.4	1.71e-04	0	43	0	960495616	20	4691
2026-01-30 11:02:35.60	231.41	49.54	-28.8	-30.4	14.2	2.20e-06	0	43	0	969932800	18	4351
2026-01-30 11:02:38.60	233.12	49.99	-28.6	-30.1	14.4	0.00e+00	0	43	0	979369984	18	4263
2026-01-30 11:02:41.62	234.88	50.42	-28.7	-30.2	14.3	7.00e-07	0	43	0	988807168	18	4287
2026-01-30 11:02:44.62	236.68	50.81	-29.1	-31.1	13.8	2.20e-06	0	43	0	998244352	18	4572
2026-01-30 11:02:47.64	238.54	51.19	-29.3	-31.8	13.4	1.60e-05	0	43	0	1007681536	18	4791
2026-01-30 11:02:50.65	240.44	51.53	-29.3	-31.6	13.5	8.30e-06	0	43	0	1017118720	18	4712
2026-01-30 11:02:53.67	242.39	51.85	-29.1	-31.2	13.7	7.60e-06	0	43	0	1026555904	18	4599
2026-01-30 11:02:56.67	244.36	52.13	-29.5	-31.7	13.1	2.97e-05	0	43	0	1035993088	19	4640
2026-01-30 11:02:59.69	246.38	52.38	-28.5	-29.7	14.7	7.00e-07	0	43	0	1045430272	18	4132
2026-01-30 11:03:02.70	248.42	52.59	-28.6	-29.9	14.5	7.00e-07	0	43	0	1054867456	18	4208
2026-01-30 11:03:05.71	250.49	52.77	-28.4	-30.1	14.5	3.00e-06	0	44	0	1064304640	17	4367
2026-01-30 11:03:08.72	252.59	52.90	-28.4	-30.1	14.6	7.00e-07	0	44	0	1073741824	17	4372
2026-01-30 11:03:11.73	254.70	53.00	-28.2	-29.7	14.9	0.00e+00	0	44	0	1083179008	17	4244
2026-01-30 11:03:14.74	256.82	53.06	-28.4	-30.1	14.7	0.00e+00	0	43	0	1092616192	17	4362
2026-01-30 11:03:17.75	258.95	53.08	-28.2	-29.6	15.0	0.00e+00	0	44	0	1102053376	17	4227
2026-01-30 11:03:20.75	261.07	53.07	-28.7	-30.6	14.4	0.00e+00	0	44	0	1111490560	17	4516
2026-01-30 11:03:23.75	263.18	53.01	-28.1	-29.3	15.3	0.00e+00	0	43	0	1120927744	17	4125
2026-01-30 11:03:26.77	265.30	52.91	-28.0	-29.0	15.3	0.00e+00	0	44	0	1130364928	17	4072
2026-01-30 11:03:29.77	267.39	52.77	-28.4	-30.0	14.9	0.00e+00	0	44	0	1139802112	17	4318
2026-01-30 11:03:32.79	269.47	52.60	-28.2	-29.6	15.1	0.00e+00	0	44	0	1149239296	17	4205
2026-01-30 11:03:35.80	271.51	52.39	-29.5	-31.7	13.3	2.36e-05	0	43	0	1158676480	19	4644
2026-01-30 11:03:38.81	273.52	52.14	-29.1	-30.7	13.8	3.80e-06	0	44	0	1168113664	19	4332
2026-01-30 11:03:41.82	275.50	51.86	-28.7	-30.2	14.4	1.50e-06	0	44	0	1177550848	18	4280
2026-01-30 11:03:44.83	277.44	51.55	-28.2	-29.4	15.2	0.00e+00	0	44	0	1186988032	17	4174
2026-01-30 11:03:47.84	279.34	51.21	-28.7	-30.7	14.4	2.20e-06	0	44	0	1196425216	17	4525
2026-01-30 11:03:50.84	281.18	50.84	-29.2	-31.5	13.7	3.80e-06	0	44	0	1205862400	18	4677
2026-01-30 11:03:53.86	283.00	50.44	-29.1	-31.3	13.8	4.50e-06	0	44	0	1215299584	18	4593
2026-01-30 11:03:56.86	284.75	50.02	-29.2	-31.5	13.7	5.30e-06	0	44	0	1223688192	18	4661
2026-01-30 11:03:59.88	286.46	49.57	-29.3	-31.2	13.6	9.90e-06	0	44	0	1234173952	19	4461
2026-01-30 11:04:02.89	288.12	49.10	-29.1	-30.5	14.0	9.10e-06	0	44	0	1243611136	19	4256
2026-01-30 11:04:05.90	289.73	48.62	-29.5	-31.5	13.5	1.29e-05	0	44	0	1251999744	19	4555
2026-01-30 11:04:08.92	291.29	48.11	-29.2	-31.0	13.7	8.30e-06	0	44	0	1261436928	19	4400
2026-01-30 11:04:11.93	292.80	47.59	-29.3	-31.2	13.7	8.30e-06	0	44	0	1270874112	19	4446
2026-01-30 11:04:14.94	294.26	47.06	-29.4	-31.4	13.4	1.14e-05	0	44	0	1280311296	19	4521
2026-01-30 11:04:17.94	295.66	46.52	-29.2	-30.9	13.8	5.30e-06	0	44	0	1289748480	19	4362
2026-01-30 11:04:20.95	297.02	45.96	-29.3	-31.2	13.6	6.80e-06	0	44	0	1299185664	19	4454
2026-01-30 11:04:23.95	298.33	45.40	-29.4	-31.4	13.5	1.14e-05	0	44	0	1308622848	19	4521
2026-01-30 11:04:26.96	299.60	44.82	-29.6	-31.8	13.2	1.44e-05	0	44	0	1318060032	19	4655
2026-01-30 11:04:29.97	300.82	44.25	-30.1	-32.6	12.4	7.17e-05	0	44	0	1327497216	20	4794
2026-01-30 11:04:32.99	302.00	43.66	-30.2	-33.0	12.0	3.85e-04	0	44	0	1336934400	20	4949
2026-01-30 11:04:36.00	303.14	43.07	-30.0	-32.5	12.4	1.06e-04	0	44	0	1346371584	20	4785
2026-01-30 11:04:39.01	304.24	42.48	-30.0	-32.4	12.5	1.14e-04	0	44	0	1355808768	20	4735
2026-01-30 11:04:42.02	305.29	41.89	-29.1	-30.6	13.9	7.60e-06	0	44	0	1365245952	19	4300
2026-01-30 11:04:45.03	306.31	41.30	-28.9	-30.3	14.1	3.00e-06	0	44	0	1374683136	19	4196
2026-01-30 11:04:48.05	307.30	40.71	-29.8	-32.5	12.8	3.12e-05	0	44	0	1384120320	19	4881
2026-01-30 11:04:51.06	308.25	40.11	-29.9	-32.3	12.4	1.36e-04	0	44	0	1393557504	20	4743
2026-01-30 11:04:54.07	309.16	39.53	-29.4	-30.9	13.3	1.75e-05	0	44	0	1402994688	20	4295
2026-01-30 11:04:57.08	310.05	38.94	-29.3	-30.8	13.3	2.51e-05	0	44	0	1412431872	20	4278
2026-01-30 11:05:00.08	310.90	38.36	-29.1	-30.6	13.9	3.80e-06	0	44	0	1421869056	19	4297
2026-01-30 11:05:03.08	311.72	37.78	-29.3	-31.3	13.4	1.67e-05	0	44	0	1431306240	19	4513
2026-01-30 11:05:06.10	312.51	37.20	-28.4	-29.4	14.8	0.00e+00	0	44	0	1440743424	18	4052
2026-01-30 11:05:09.11	313.28	36.63	-28.7	-30.2	14.4	0.00e+00	0	44	0	1450180608	18	4270
2026-01-30 11:05:12.12	314.02	36.06	-28.9	-30.6	14.0	2.20e-06	0	44	0	1459617792	18	4406
2026-01-30 11:05:15.13	314.74	35.49	-28.8	-30.5	14.1	7.00e-07	0	44	0	1469054976	18	4382
2026-01-30 11:05:18.14	315.43	34.94	-28.9	-30.7	13.9	3.00e-06	0	44	0	1478492160	18	4443
2026-01-30 11:05:21.15	316.10	34.38	-29.0	-31.0	13.8	3.80e-06	0	44	0	1487929344	18	4523
2026-01-30 11:05:24.17	316.75	33.84	-28.4	-29.5	14.7	7.00e-07	0	44	0	1497366528	18	4099
2026-01-30 11:05:27.18	317.38	33.29	-28.0	-29.1	15.2	0.00e+00	0	44	0	1506803712	17	4086
2026-01-30 11:05:30.20	317.99	32.76	-28.0	-29.1	15.2	0.00e+00	0	44	0	1516240896	17	4094
2026-01-30 11:05:33.20	318.58	32.23	-27.7	-28.8	15.6	0.00e+00	0	44	0	1525678080	16	4125
2026-01-30 11:05:36.20	319.14	31.71	-27.6	-28.6	15.7	0.00e+00	0	44	0	1535115264	16	4066
2026-01-30 11:05:39.21	319.70	31.19	-27.7	-29.0	15.4	0.00e+00	0	44	0	1543503872	16	4161
2026-01-30 11:05:42.21	320.23	30.69	-26.9	-27.7	16.2	0.00e+00	0	44	0	1552941056	15	3953
2026-01-30 11:05:45.22	320.75	30.18	-27.0	-27.8	16.2	0.00e+00	0	44	0	1563426816	15	3982
2026-01-30 11:05:48.22	321.25	29.69	-27.1	-28.1	16.1	0.00e+00	0	43	0	1571815424	15	4044
2026-01-30 11:05:51.23	321.74	29.19	-27.4	-28.7	15.7	0.00e+00	0	43	0	1581252608	15	4220
2026-01-30 11:05:54.24	322.22	28.71	-27.5	-29.0	15.5	7.00e-07	0	44	0	1590689792	15	4302
2026-01-30 11:05:57.26	322.68	28.23	-27.4	-28.9	15.6	0.00e+00	0	44	0	1600126976	15	4253
2026-01-30 11:06:00.27	323.13	27.76	-27.0	-27.9	16.1	0.00e+00	0	44	0	1609564160	15	4008
2026-01-30 11:06:03.27	323.56	27.29	-27.2	-28.5	15.8	0.00e+00	0	44	0	1619001344	15	4146
2026-01-30 11:06:06.28	323.99	26.83	-26.9	-27.8	16.1	0.00e+00	0	44	0	1628438528	15	3965
2026-01-30 11:06:09.29	324.40	26.38	-26.8	-27.9	16.3	0.00e+00	0	44	0	1637875712	14	4110
2026-01-30 11:06:12.31	324.80	25.93	-26.8	-27.9	16.4	0.00e+00	0	44	0	1647312896	14	4101
2026-01-30 11:06:15.32	325.19	25.49	-26.9	-28.2	16.2	0.00e+00	0	44	0	1656750080	14	4179
2026-01-30 11:06:18.33	325.57	25.06	-27.0	-28.5	16.0	0.00e+00	0	44	0	1666187264	14	4272
2026-01-30 11:06:21.34	325.94	24.63	-26.9	-28.3	16.1	0.00e+00	0	44	0	1675624448	14	4221
2026-01-30 11:06:24.35	326.30	24.20	-27.0	-28.4	16.1	0.00e+00	0	44	0	1685061632	14	4231
2026-01-30 11:06:27.36	326.65	23.79	-27.1	-28.7	15.8	0.00e+00	0	44	0	1694498816	14	4334
2026-01-30 11:06:30.37	327.00	23.37	-27.3	-29.2	15.6	0.00e+00	0	43	0	1703936000	14	4473
2026-01-30 11:06:33.37	327.33	22.97	-27.2	-29.0	15.7	7.00e-07	0	44	0	1713373184	14	4407
2026-01-30 11:06:36.38	327.66	22.57	-27.3	-29.1	15.6	0.00e+00	0	44	0	1722810368	14	4439
2026-01-30 11:06:39.39	327.97	22.17	-27.1	-28.6	15.9	0.00e+00	0	44	0	1732247552	14	4300
2026-01-30 11:06:42.39	328.28	21.78	-27.0	-28.5	15.9	0.00e+00	0	44	0	1741684736	14	4280
2026-01-30 11:06:45.41	328.59	21.39	-27.2	-28.9	15.7	0.00e+00	0	43	0	1751121920	14	4384
2026-01-30 11:06:48.42	328.88	21.01	-27.1	-28.8	15.8	0.00e+00	0	44	0	1760559104	14	4339
2026-01-30 11:06:51.43	329.17	20.64	-27.1	-28.7	15.7	0.00e+00	0	44	0	1769996288	14	4331
2026-01-30 11:06:54.45	329.46	20.27	-27.1	-28.8	15.7	0.00e+00	0	43	0	1779433472	14	4343
2026-01-30 11:06:57.47	329.73	19.90	-27.3	-29.2	15.5	0.00e+00	0	43	0	1788870656	14	4467
2026-01-30 11:07:00.48	330.00	19.54	-27.7	-29.6	15.0	7.00e-07	0	43	0	1798307840	15	4480
2026-01-30 11:07:03.50	330.27	19.18	-27.6	-29.5	15.0	0.00e+00	0	44	0	1807745024	15	4434
2026-01-30 11:07:06.51	330.53	18.83	-27.5	-29.2	15.1	0.00e+00	0	44	0	1817182208	15	4377
2026-01-30 11:07:09.52	330.78	18.48	-27.2	-28.5	15.5	0.00e+00	0	44	0	1826619392	15	4175
2026-01-30 11:07:12.53	331.03	18.14	-27.2	-28.5	15.5	0.00e+00	0	43	0	1836056576	15	4182
2026-01-30 11:07:15.55	331.27	17.80	-27.2	-28.4	15.5	0.00e+00	0	44	0	1845493760	15	4157
2026-01-30 11:07:18.56	331.51	17.47	-27.1	-28.3	15.6	0.00e+00	0	43	0	1854930944	15	4117
2026-01-30 11:07:21.58	331.74	17.13	-27.1	-28.2	15.6	0.00e+00	0	44	0	1864368128	15	4094
2026-01-30 11:07:24.58	331.96	16.81	-27.2	-28.3	15.5	0.00e+00	0	43	0	1873805312	15	4127
2026-01-30 11:07:27.60	332.19	16.48	-27.2	-28.4	15.5	0.00e+00	0	44	0	1883242496	15	4142
2026-01-30 11:07:30.59	332.41	16.17	-27.3	-28.7	15.3	0.00e+00	0	43	0	1891631104	15	4223
2026-01-30 11:07:33.60	332.62	15.85	-27.4	-28.9	15.2	0.00e+00	0	43	0	1901068288	15	4286
2026-01-30 11:07:36.62	332.83	15.54	-27.4	-29.0	15.1	7.00e-07	0	43	0	1910505472	15	4314
2026-01-30 11:07:39.63	333.04	15.23	-27.6	-29.4	14.9	0.00e+00	0	43	0	1919942656	15	4425
2026-01-30 11:07:42.66	333.24	14.93	-27.6	-29.4	14.9	0.00e+00	0	43	0	1929379840	15	4418
2026-01-30 11:07:45.65	333.44	14.63	-27.7	-29.6	14.7	7.00e-07	0	43	0	1938817024	15	4491
2026-01-30 11:07:48.67	333.63	14.33	-27.8	-29.8	14.6	7.00e-07	0	43	0	1948254208	15	4550
2026-01-30 11:07:51.68	333.82	14.04	-27.9	-30.2	14.4	0.00e+00	0	44	0	1957691392	15	4665
2026-01-30 11:07:54.68	334.01	13.75	-28.2	-30.2	14.2	0.00e+00	0	43	0	1967128576	16	4539
2026-01-30 11:07:57.69	334.19	13.46	-28.3	-30.6	14.0	7.00e-07	0	43	0	1976565760	16	4664
2026-01-30 11:08:00.69	334.38	13.18	-28.3	-30.5	14.0	0.00e+00	0	43	0	1986002944	16	4643
2026-01-30 11:08:03.69	334.55	12.90	-28.4	-30.7	13.9	1.50e-06	0	44	0	1995440128	16	4699
2026-01-30 11:08:06.70	334.73	12.62	-28.2	-30.3	14.1	2.20e-06	0	43	0	2004877312	16	4592
2026-01-30 11:08:09.71	334.90	12.34	-28.4	-30.7	13.9	1.50e-06	0	43	0	2014314496	16	4698
2026-01-30 11:08:12.72	335.07	12.07	-28.4	-30.7	13.8	3.80e-06	0	43	0	2023751680	16	4717
2026-01-30 11:08:15.73	335.23	11.80	-28.4	-30.7	13.8	7.60e-06	0	43	0	2033188864	16	4709
2026-01-30 11:08:18.74	335.40	11.53	-28.6	-30.7	13.5	1.29e-05	0	44	0	2042626048	17	4589
2026-01-30 11:08:21.74	335.56	11.27	-28.7	-31.1	13.2	1.75e-05	0	43	0	2052063232	17	4728
2026-01-30 11:08:24.75	335.72	11.01	-28.5	-30.7	13.5	1.37e-05	0	43	0	2061500416	17	4587
2026-01-30 11:08:27.76	335.87	10.75	-28.7	-31.1	13.2	1.06e-05	0	43	0	2070937600	17	4719
2026-01-30 11:08:30.77	336.02	10.49	-28.6	-30.8	13.4	1.60e-05	0	43	0	2080374784	17	4620
2026-01-30 11:08:33.79	336.17	10.24	-28.7	-31.1	13.2	3.12e-05	0	43	0	2089811968	17	4737
2026-01-30 11:08:36.80	336.32	9.99	-28.7	-31.0	13.2	2.51e-05	0	43	0	2099249152	17	4705
2026-01-30 11:08:39.81	336.47	9.74	-28.7	-31.2	13.1	2.82e-05	0	43	0	2108686336	17	4751
2026-01-30 11:08:42.83	336.61	9.49	-28.7	-31.1	13.1	2.82e-05	0	43	0	2118123520	17	4740
2026-01-30 11:08:45.85	336.76	9.25	-28.7	-31.0	13.1	2.82e-05	0	43	0	2127560704	17	4723
2026-01-30 11:08:48.87	336.90	9.00	-28.8	-31.2	13.0	4.04e-05	0	44	0	2136997888	17	4782
2026-01-30 11:08:51.87	337.03	8.76	-28.6	-30.9	13.2	1.90e-05	0	44	0	2146435072	17	4677
2026-01-30 11:08:54.88	337.17	8.53	-28.7	-31.0	13.1	3.66e-05	0	44	0	2155872256	17	4717
2026-01-30 11:08:57.89	337.30	8.29	-28.8	-31.4	12.8	5.34e-05	0	43	0	2165309440	17	4844
2026-01-30 11:09:00.89	337.43	8.06	-28.9	-31.5	12.7	7.70e-05	0	43	0	2174746624	17	4898
2026-01-30 11:09:03.91	337.56	7.83	-28.9	-31.6	12.6	8.54e-05	0	43	0	2184183808	17	4936
2026-01-30 11:09:06.92	337.69	7.60	-28.9	-31.2	12.5	1.27e-04	0	43	0	2192572416	18	4676
2026-01-30 11:09:09.93	337.82	7.37	-29.1	-31.7	12.2	1.52e-04	0	43	0	2203058176	18	4827
2026-01-30 11:09:12.94	337.94	7.14	-29.1	-31.7	12.2	2.34e-04	0	43	0	2212495360	18	4860

#Closed at: 2026-01-30 11:09:15
#Recorded file [2213 MB]: D:/data/31010_260130_135724.dat