passes_logs/2026/01/30/R2M6_AANII_01/R2M6_AANII_01__20260130_091724_NOAA_21_JPSS-2_rec.log

#Pass ID: 20260130_091724_NOAA 21 (JPSS-2)
#Satellite: NOAA 21 (JPSS-2)
#Configuration: NOAA 21
#almurnet v.1.7.20240730
#Start time: 2026-01-30 09:17:26

#Version: 2.2.20231116
#Station: R2M6_AANII_01
#Location: 30.233357 lon 59.946436 lat
#TLE: 1 54234U 22150A   26029.46216196  .00000141  00000+0  87503-4 0  9994
#TLE: 2 54234  98.7512 330.1880 0000955 196.3413 163.7732 14.19540905166865

#Time	Az	El	Level	Level2	SNR	BER	BlckErr	Temp	State	Recorded	gain1	gain2
2026-01-30 09:17:26.67	128.29	7.13	-30.7	-35.3	4.6	1.40e+00	0	41	0	0	22	6096
2026-01-30 09:17:29.68	128.14	7.35	-30.6	-34.3	8.8	3.96e-02	0	41	0	3145728	22	5508
2026-01-30 09:17:32.68	127.98	7.57	-30.2	-33.4	9.8	1.03e-02	0	41	0	12582912	21	5199
2026-01-30 09:17:35.69	127.83	7.80	-30.3	-33.8	9.6	1.51e-02	0	41	0	22020096	21	5349
2026-01-30 09:17:38.70	127.66	8.03	-29.3	-31.8	11.7	7.73e-04	0	41	0	30408704	19	4796
2026-01-30 09:17:41.71	127.50	8.26	-28.7	-30.6	12.8	6.63e-05	0	41	0	39845888	18	4503
2026-01-30 09:17:44.72	127.34	8.49	-28.7	-30.8	12.7	8.01e-05	0	41	0	49283072	18	4552
2026-01-30 09:17:47.73	127.17	8.73	-28.5	-30.3	13.0	2.82e-05	0	41	0	58720256	18	4411
2026-01-30 09:17:50.73	127.00	8.96	-28.5	-30.1	13.2	3.05e-05	0	42	0	68157440	18	4350
2026-01-30 09:17:53.74	126.82	9.20	-28.4	-30.0	13.3	2.13e-05	0	42	0	77594624	18	4325
2026-01-30 09:17:56.76	126.64	9.44	-28.4	-30.0	13.3	1.75e-05	0	41	0	87031808	18	4319
2026-01-30 09:17:59.77	126.46	9.69	-28.3	-30.2	13.5	1.14e-05	0	42	0	96468992	17	4463
2026-01-30 09:18:02.78	126.28	9.93	-28.2	-29.9	13.7	8.30e-06	0	42	0	105906176	17	4385
2026-01-30 09:18:05.78	126.09	10.18	-28.2	-30.0	13.7	1.14e-05	0	42	0	115343360	17	4405
2026-01-30 09:18:08.80	125.90	10.43	-28.2	-29.8	13.7	8.30e-06	0	42	0	124780544	17	4369
2026-01-30 09:18:11.82	125.71	10.68	-28.2	-30.0	13.7	3.80e-06	0	42	0	134217728	17	4404
2026-01-30 09:18:14.83	125.51	10.93	-28.0	-29.5	14.0	7.00e-07	0	42	0	143654912	17	4272
2026-01-30 09:18:17.84	125.31	11.19	-27.9	-29.6	14.2	3.80e-06	0	42	0	153092096	16	4395
2026-01-30 09:18:20.85	125.10	11.45	-27.9	-29.5	14.3	1.50e-06	0	42	0	162529280	16	4370
2026-01-30 09:18:23.87	124.89	11.71	-27.9	-29.6	14.3	7.00e-07	0	42	0	171966464	16	4380
2026-01-30 09:18:26.89	124.68	11.97	-27.7	-29.3	14.5	7.00e-07	0	42	0	181403648	16	4290
2026-01-30 09:18:29.90	124.46	12.24	-27.9	-29.6	14.3	7.00e-07	0	42	0	190840832	16	4388
2026-01-30 09:18:32.91	124.24	12.51	-27.6	-29.0	14.7	7.00e-07	0	42	0	200278016	16	4226
2026-01-30 09:18:35.92	124.02	12.78	-27.6	-28.9	14.8	0.00e+00	0	42	0	209715200	16	4185
2026-01-30 09:18:38.93	123.79	13.05	-27.5	-28.8	14.8	0.00e+00	0	42	0	219152384	16	4178
2026-01-30 09:18:41.96	123.55	13.33	-27.6	-28.9	14.8	0.00e+00	0	42	0	228589568	16	4183
2026-01-30 09:18:44.97	123.32	13.60	-27.3	-28.4	15.1	7.00e-07	0	42	0	238026752	16	4044
2026-01-30 09:18:47.98	123.07	13.89	-27.4	-28.4	15.1	0.00e+00	0	42	0	247463936	16	4050
2026-01-30 09:18:50.99	122.83	14.17	-27.4	-28.4	15.2	0.00e+00	0	43	0	256901120	16	4037
2026-01-30 09:18:54.00	122.57	14.46	-27.4	-28.5	15.1	7.00e-07	0	43	0	266338304	16	4077
2026-01-30 09:18:56.99	122.32	14.74	-27.4	-28.5	15.1	0.00e+00	0	43	0	275775488	16	4072
2026-01-30 09:19:00.00	122.05	15.04	-27.5	-28.6	15.1	0.00e+00	0	43	0	285212672	16	4096
2026-01-30 09:19:03.02	121.79	15.33	-27.6	-28.8	15.0	7.00e-07	0	42	0	294649856	16	4155
2026-01-30 09:19:06.04	121.51	15.63	-27.7	-29.2	14.8	0.00e+00	0	43	0	304087040	16	4267
2026-01-30 09:19:09.05	121.23	15.93	-27.7	-29.2	14.8	0.00e+00	0	43	0	313524224	16	4261
2026-01-30 09:19:12.07	120.94	16.24	-28.1	-30.1	14.3	0.00e+00	0	43	0	322961408	16	4510
2026-01-30 09:19:15.06	120.66	16.54	-27.6	-28.9	15.0	0.00e+00	0	43	0	332398592	16	4195
2026-01-30 09:19:18.07	120.36	16.85	-27.8	-29.4	14.8	0.00e+00	0	43	0	341835776	16	4316
2026-01-30 09:19:21.09	120.05	17.17	-28.0	-29.8	14.5	0.00e+00	0	43	0	351272960	16	4428
2026-01-30 09:19:24.11	119.74	17.48	-27.7	-29.2	14.9	0.00e+00	0	43	0	360710144	16	4248
2026-01-30 09:19:27.12	119.42	17.80	-27.8	-29.4	14.8	0.00e+00	0	43	0	370147328	16	4310
2026-01-30 09:19:30.13	119.10	18.13	-27.9	-29.6	14.7	0.00e+00	0	43	0	379584512	16	4377
2026-01-30 09:19:33.13	118.77	18.45	-27.6	-28.9	15.1	0.00e+00	0	43	0	389021696	16	4179
2026-01-30 09:19:36.14	118.43	18.78	-27.5	-28.7	15.3	0.00e+00	0	43	0	397410304	16	4117
2026-01-30 09:19:39.16	118.08	19.12	-27.6	-28.9	15.1	0.00e+00	0	43	0	406847488	16	4189
2026-01-30 09:19:42.17	117.73	19.45	-27.7	-29.0	15.1	7.00e-07	0	43	0	417333248	16	4220
2026-01-30 09:19:45.18	117.37	19.79	-27.5	-28.8	15.3	0.00e+00	0	43	0	425721856	16	4139
2026-01-30 09:19:48.18	117.00	20.13	-27.2	-28.4	15.5	0.00e+00	0	43	0	435159040	15	4169
2026-01-30 09:19:51.20	116.62	20.48	-27.0	-28.0	15.8	0.00e+00	0	43	0	444596224	15	4050
2026-01-30 09:19:54.21	116.23	20.83	-26.9	-27.7	15.9	0.00e+00	0	43	0	454033408	15	3981
2026-01-30 09:19:57.21	115.84	21.18	-27.0	-28.1	15.7	0.00e+00	0	43	0	463470592	15	4083
2026-01-30 09:20:00.21	115.43	21.54	-27.0	-28.1	15.8	0.00e+00	0	43	0	472907776	15	4064
2026-01-30 09:20:03.21	115.02	21.90	-26.9	-27.7	16.0	0.00e+00	0	43	0	482344960	15	3980
2026-01-30 09:20:06.22	114.59	22.26	-26.6	-27.7	16.4	0.00e+00	0	43	0	491782144	14	4054
2026-01-30 09:20:09.23	114.15	22.63	-26.6	-27.6	16.4	0.00e+00	0	43	0	501219328	14	4027
2026-01-30 09:20:12.25	113.71	23.00	-26.5	-27.4	16.5	0.00e+00	0	43	0	510656512	14	3995
2026-01-30 09:20:15.26	113.25	23.38	-26.5	-27.3	16.6	0.00e+00	0	43	0	520093696	14	3967
2026-01-30 09:20:18.27	112.78	23.76	-26.6	-27.6	16.5	0.00e+00	0	43	0	529530880	14	4025
2026-01-30 09:20:21.28	112.30	24.14	-26.5	-27.5	16.6	0.00e+00	0	43	0	538968064	14	4002
2026-01-30 09:20:24.29	111.80	24.52	-26.6	-27.6	16.5	0.00e+00	0	43	0	548405248	14	4033
2026-01-30 09:20:27.30	111.30	24.91	-26.8	-28.1	16.3	0.00e+00	0	43	0	557842432	14	4152
2026-01-30 09:20:30.31	110.78	25.30	-27.0	-28.5	16.1	0.00e+00	0	43	0	567279616	14	4265
2026-01-30 09:20:33.31	110.25	25.69	-27.1	-28.6	16.0	0.00e+00	0	43	0	576716800	14	4296
2026-01-30 09:20:36.31	109.71	26.09	-27.4	-29.3	15.7	7.00e-07	0	43	0	586153984	14	4501
2026-01-30 09:20:39.32	109.15	26.49	-27.4	-29.2	15.7	0.00e+00	0	43	0	595591168	14	4470
2026-01-30 09:20:42.35	108.57	26.90	-27.3	-29.2	15.7	7.00e-07	0	43	0	605028352	14	4452
2026-01-30 09:20:45.36	107.99	27.30	-27.5	-29.1	15.5	7.00e-07	0	43	0	614465536	15	4321
2026-01-30 09:20:48.37	107.38	27.71	-27.6	-29.2	15.5	0.00e+00	0	43	0	623902720	15	4345
2026-01-30 09:20:51.38	106.76	28.12	-27.4	-28.7	15.7	7.00e-07	0	43	0	633339904	15	4216
2026-01-30 09:20:54.39	106.13	28.53	-27.3	-28.6	15.8	0.00e+00	0	43	0	642777088	15	4171
2026-01-30 09:20:57.40	105.48	28.95	-27.5	-29.1	15.5	1.50e-06	0	43	0	652214272	15	4310
2026-01-30 09:21:00.42	104.80	29.37	-27.4	-28.7	15.8	0.00e+00	0	43	0	661651456	15	4218
2026-01-30 09:21:03.44	104.11	29.79	-27.4	-28.7	15.8	0.00e+00	0	43	0	671088640	15	4217
2026-01-30 09:21:06.43	103.41	30.20	-27.5	-29.1	15.6	0.00e+00	0	43	0	680525824	15	4318
2026-01-30 09:21:09.44	102.69	30.63	-27.5	-29.1	15.6	0.00e+00	0	43	0	689963008	15	4304
2026-01-30 09:21:12.46	101.94	31.05	-27.4	-28.8	15.8	0.00e+00	0	43	0	698351616	15	4232
2026-01-30 09:21:15.48	101.18	31.47	-27.2	-28.4	16.0	0.00e+00	0	43	0	708837376	15	4113
2026-01-30 09:21:18.49	100.39	31.90	-27.3	-28.6	15.9	0.00e+00	0	43	0	718274560	15	4165
2026-01-30 09:21:21.50	99.59	32.32	-27.6	-29.1	15.6	0.00e+00	0	43	0	726663168	15	4325
2026-01-30 09:21:24.52	98.76	32.74	-28.2	-30.0	15.0	0.00e+00	0	43	0	736100352	16	4446
2026-01-30 09:21:27.53	97.91	33.16	-28.4	-30.6	14.7	0.00e+00	0	43	0	745537536	16	4636
2026-01-30 09:21:30.55	97.04	33.58	-28.6	-30.5	14.5	0.00e+00	0	43	0	754974720	17	4494
2026-01-30 09:21:33.57	96.14	34.00	-28.7	-30.8	14.3	1.50e-06	0	43	0	764411904	17	4583
2026-01-30 09:21:36.56	95.23	34.41	-28.8	-30.8	14.3	7.00e-07	0	43	0	773849088	17	4578
2026-01-30 09:21:39.58	94.29	34.82	-28.9	-31.2	14.1	5.30e-06	0	43	0	783286272	17	4700
2026-01-30 09:21:42.59	93.33	35.23	-28.6	-30.6	14.5	2.20e-06	0	43	0	792723456	17	4503
2026-01-30 09:21:45.60	92.34	35.64	-28.7	-30.8	14.3	0.00e+00	0	43	0	802160640	17	4555
2026-01-30 09:21:48.61	91.33	36.03	-28.4	-29.9	14.8	0.00e+00	0	43	0	811597824	17	4312
2026-01-30 09:21:51.62	90.29	36.43	-28.5	-30.3	14.6	7.00e-07	0	43	0	821035008	17	4419
2026-01-30 09:21:54.63	89.23	36.81	-29.0	-31.0	14.0	3.00e-06	0	43	0	830472192	18	4505
2026-01-30 09:21:57.63	88.14	37.19	-28.7	-30.1	14.5	0.00e+00	0	43	0	839909376	18	4243
2026-01-30 09:22:00.63	87.03	37.56	-28.6	-29.9	14.6	0.00e+00	0	43	0	849346560	18	4195
2026-01-30 09:22:03.64	85.89	37.92	-28.4	-29.4	14.9	0.00e+00	0	43	0	858783744	18	4054
2026-01-30 09:22:06.65	84.73	38.28	-29.0	-30.8	14.1	7.00e-07	0	43	0	868220928	18	4451
2026-01-30 09:22:09.66	83.54	38.62	-28.8	-30.5	14.3	7.00e-07	0	43	0	877658112	18	4348
2026-01-30 09:22:12.68	82.32	38.95	-29.0	-30.9	14.1	5.30e-06	0	43	0	887095296	18	4493
2026-01-30 09:22:15.69	81.08	39.27	-29.3	-31.7	13.6	9.10e-06	0	43	0	896532480	18	4721
2026-01-30 09:22:18.69	79.82	39.58	-29.6	-31.8	13.2	7.60e-06	0	43	0	905969664	19	4663
2026-01-30 09:22:21.71	78.53	39.88	-30.0	-32.5	12.5	1.27e-04	0	43	0	915406848	20	4769
2026-01-30 09:22:24.73	77.22	40.16	-29.4	-30.9	13.5	9.10e-06	0	43	0	924844032	20	4266
2026-01-30 09:22:27.73	75.89	40.42	-29.3	-31.0	13.7	9.90e-06	0	43	0	934281216	19	4403
2026-01-30 09:22:30.73	74.54	40.67	-29.5	-31.5	13.5	1.14e-05	0	43	0	943718400	19	4544
2026-01-30 09:22:33.75	73.16	40.90	-29.8	-32.2	13.0	2.74e-05	0	43	0	953155584	19	4783
2026-01-30 09:22:36.76	71.77	41.11	-30.3	-33.1	12.1	2.69e-04	0	43	0	962592768	20	4987
2026-01-30 09:22:39.78	70.35	41.31	-30.1	-32.7	12.4	1.59e-04	0	43	0	972029952	20	4842
2026-01-30 09:22:42.79	68.93	41.49	-30.0	-32.3	12.6	1.14e-04	0	44	0	981467136	20	4699
2026-01-30 09:22:45.81	67.48	41.64	-30.0	-32.5	12.5	1.04e-04	0	43	0	990904320	20	4766
2026-01-30 09:22:48.81	66.03	41.78	-30.0	-32.3	12.6	1.07e-04	0	43	0	1000341504	20	4698
2026-01-30 09:22:51.83	64.56	41.90	-29.8	-31.8	12.9	5.03e-05	0	43	0	1009778688	20	4556
2026-01-30 09:22:54.85	63.08	41.99	-30.1	-32.6	12.4	1.13e-04	0	43	0	1019215872	20	4812
2026-01-30 09:22:57.86	61.60	42.07	-29.3	-30.7	13.6	1.44e-05	0	43	0	1028653056	20	4229
2026-01-30 09:23:00.87	60.11	42.12	-29.6	-31.4	13.2	1.67e-05	0	44	0	1038090240	20	4425
2026-01-30 09:23:03.88	58.61	42.15	-29.5	-31.0	13.4	2.28e-05	0	43	0	1047527424	20	4307
2026-01-30 09:23:06.88	57.13	42.16	-29.3	-31.2	13.7	4.50e-06	0	43	0	1056964608	19	4447
2026-01-30 09:23:09.90	55.63	42.14	-29.5	-31.6	13.4	1.29e-05	0	43	0	1066401792	19	4586
2026-01-30 09:23:12.91	54.13	42.11	-29.3	-31.0	13.8	8.30e-06	0	43	0	1074790400	19	4407
2026-01-30 09:23:15.93	52.64	42.05	-29.8	-32.3	13.0	2.74e-05	0	43	0	1085276160	19	4808
2026-01-30 09:23:18.94	51.16	41.97	-29.4	-31.3	13.6	1.06e-05	0	43	0	1093664768	19	4481
2026-01-30 09:23:21.95	49.69	41.87	-29.6	-31.7	13.4	1.44e-05	0	43	0	1103101952	19	4622
2026-01-30 09:23:24.96	48.23	41.75	-29.8	-32.4	12.9	4.11e-05	0	43	0	1112539136	19	4841
2026-01-30 09:23:27.97	46.78	41.61	-29.7	-32.2	13.1	3.43e-05	0	43	0	1121976320	19	4760
2026-01-30 09:23:30.98	45.34	41.44	-29.9	-32.6	12.8	4.57e-05	0	43	0	1131413504	19	4901
2026-01-30 09:23:33.99	43.92	41.26	-29.6	-31.4	13.2	4.04e-05	0	43	0	1140850688	20	4402
2026-01-30 09:23:36.99	42.52	41.06	-29.3	-31.0	13.8	3.00e-06	0	43	0	1150287872	19	4406
2026-01-30 09:23:40.01	41.13	40.85	-30.0	-32.7	12.8	5.95e-05	0	43	0	1159725056	19	4922
2026-01-30 09:23:43.02	39.76	40.61	-28.8	-30.3	14.5	0.00e+00	0	43	0	1169162240	18	4294
2026-01-30 09:23:46.02	38.42	40.36	-29.1	-31.0	14.1	7.00e-07	0	43	0	1178599424	18	4515
2026-01-30 09:23:49.02	37.10	40.09	-29.1	-30.7	13.9	4.50e-06	0	43	0	1188036608	19	4299
2026-01-30 09:23:52.03	35.80	39.81	-28.9	-30.6	14.3	7.00e-07	0	44	0	1197473792	18	4390
2026-01-30 09:23:55.04	34.52	39.51	-30.1	-32.6	12.3	1.72e-04	0	43	0	1206910976	20	4813
2026-01-30 09:23:58.05	33.26	39.21	-29.3	-31.1	13.7	3.80e-06	0	43	0	1216348160	19	4420
2026-01-30 09:24:01.08	32.02	38.88	-29.6	-31.9	13.2	2.21e-05	0	43	0	1225785344	19	4692
2026-01-30 09:24:04.09	30.82	38.55	-29.3	-31.0	13.7	6.10e-06	0	43	0	1235222528	19	4400
2026-01-30 09:24:07.10	29.64	38.20	-29.3	-31.0	13.6	2.20e-06	0	43	0	1244659712	19	4419
2026-01-30 09:24:10.11	28.48	37.85	-29.6	-32.0	13.0	4.04e-05	0	43	0	1254096896	19	4718
2026-01-30 09:24:13.12	27.35	37.48	-27.8	-29.0	15.6	0.00e+00	0	43	0	1263534080	16	4173
2026-01-30 09:24:16.12	26.25	37.11	-28.7	-30.7	14.3	7.00e-07	0	43	0	1272971264	17	4540
2026-01-30 09:24:19.14	25.17	36.73	-28.6	-29.9	14.5	0.00e+00	0	43	0	1282408448	18	4213
2026-01-30 09:24:22.16	24.11	36.34	-27.5	-28.4	15.9	0.00e+00	0	43	0	1291845632	16	3992
2026-01-30 09:24:25.17	23.08	35.95	-29.2	-31.4	13.6	4.50e-06	0	43	0	1301282816	18	4658
2026-01-30 09:24:28.17	22.08	35.55	-28.5	-29.8	14.4	7.00e-07	0	43	0	1310720000	18	4178
2026-01-30 09:24:31.17	21.11	35.15	-28.9	-31.1	14.0	4.50e-06	0	43	0	1320157184	17	4664
2026-01-30 09:24:34.19	20.15	34.74	-29.8	-32.5	12.6	6.71e-05	0	43	0	1329594368	19	4908
2026-01-30 09:24:37.19	19.22	34.33	-29.8	-32.4	12.7	9.30e-05	0	43	0	1339031552	19	4861
2026-01-30 09:24:40.20	18.31	33.92	-29.8	-32.5	12.6	9.68e-05	0	43	0	1348468736	19	4889
2026-01-30 09:24:43.21	17.43	33.51	-29.7	-32.2	12.8	6.02e-05	0	43	0	1357905920	19	4792
2026-01-30 09:24:46.22	16.57	33.09	-28.9	-30.2	14.0	4.50e-06	0	43	0	1367343104	19	4175
2026-01-30 09:24:49.24	15.73	32.67	-28.9	-30.8	13.9	4.50e-06	0	43	0	1376780288	18	4457
2026-01-30 09:24:52.25	14.91	32.25	-29.2	-30.9	13.6	1.37e-05	0	43	0	1386217472	19	4377
2026-01-30 09:24:55.26	14.11	31.83	-28.3	-29.8	14.8	7.00e-07	0	43	0	1394606080	17	4285
2026-01-30 09:24:58.26	13.34	31.41	-28.1	-29.4	14.9	0.00e+00	0	43	0	1404043264	17	4174
2026-01-30 09:25:01.28	12.58	30.98	-28.4	-30.2	14.4	0.00e+00	0	43	0	1414529024	17	4404
2026-01-30 09:25:04.29	11.84	30.56	-28.0	-29.1	15.0	0.00e+00	0	43	0	1422917632	17	4104
2026-01-30 09:25:07.29	11.13	30.15	-27.0	-27.9	16.0	0.00e+00	0	43	0	1432354816	15	4004
2026-01-30 09:25:10.32	10.42	29.73	-26.8	-27.9	16.3	0.00e+00	0	43	0	1441792000	14	4095
2026-01-30 09:25:13.34	9.74	29.31	-27.4	-29.4	15.5	0.00e+00	0	43	0	1451229184	14	4502
2026-01-30 09:25:16.35	9.08	28.89	-27.7	-29.5	15.1	0.00e+00	0	43	0	1460666368	15	4423
2026-01-30 09:25:19.36	8.43	28.48	-27.0	-27.9	16.0	0.00e+00	0	43	0	1470103552	15	4009
2026-01-30 09:25:22.37	7.80	28.07	-27.1	-28.2	15.9	0.00e+00	0	43	0	1479540736	15	4085
2026-01-30 09:25:25.39	7.19	27.66	-27.3	-28.6	15.6	0.00e+00	0	43	0	1488977920	15	4179
2026-01-30 09:25:28.41	6.59	27.25	-27.3	-28.6	15.6	0.00e+00	0	43	0	1498415104	15	4194
2026-01-30 09:25:31.43	6.01	26.85	-27.2	-28.3	15.7	0.00e+00	0	43	0	1507852288	15	4122
2026-01-30 09:25:34.44	5.44	26.45	-27.0	-27.9	15.9	0.00e+00	0	43	0	1517289472	15	4005
2026-01-30 09:25:37.45	4.89	26.05	-26.9	-27.6	16.1	0.00e+00	0	43	0	1526726656	15	3942
2026-01-30 09:25:40.46	4.35	25.65	-26.6	-27.5	16.4	0.00e+00	0	43	0	1536163840	14	4014
2026-01-30 09:25:43.47	3.82	25.26	-26.4	-27.1	16.6	0.00e+00	0	43	0	1545601024	14	3904
2026-01-30 09:25:46.49	3.31	24.87	-26.7	-27.7	16.3	0.00e+00	0	43	0	1555038208	14	4063
2026-01-30 09:25:49.49	2.81	24.49	-27.4	-29.3	15.4	0.00e+00	0	43	0	1564475392	14	4515
2026-01-30 09:25:52.49	2.32	24.11	-27.8	-29.9	14.8	0.00e+00	0	43	0	1573912576	15	4571
2026-01-30 09:25:55.49	1.85	23.73	-27.4	-29.0	15.3	0.00e+00	0	43	0	1583349760	15	4296
2026-01-30 09:25:58.51	1.38	23.35	-27.4	-28.9	15.3	0.00e+00	0	43	0	1592786944	15	4279
2026-01-30 09:26:01.51	0.93	22.98	-27.0	-27.9	15.8	0.00e+00	0	43	0	1602224128	15	4019
2026-01-30 09:26:04.53	0.49	22.61	-26.9	-27.8	15.9	0.00e+00	0	43	0	1611661312	15	3979
2026-01-30 09:26:07.54	0.06	22.25	-26.8	-28.0	16.1	0.00e+00	0	43	0	1621098496	14	4135
2026-01-30 09:26:10.55	359.64	21.88	-26.7	-27.9	16.1	0.00e+00	0	43	0	1630535680	14	4117
2026-01-30 09:26:13.57	359.22	21.52	-26.6	-27.7	16.3	0.00e+00	0	43	0	1639972864	14	4055
2026-01-30 09:26:16.58	358.82	21.17	-26.8	-27.9	16.2	0.00e+00	0	43	0	1649410048	14	4124
2026-01-30 09:26:19.59	358.43	20.82	-27.0	-28.4	15.9	0.00e+00	0	43	0	1658847232	14	4249
2026-01-30 09:26:22.60	358.05	20.47	-27.0	-28.5	15.8	0.00e+00	0	43	0	1668284416	14	4272
2026-01-30 09:26:25.61	357.67	20.13	-27.0	-28.6	15.7	0.00e+00	0	43	0	1677721600	14	4297
2026-01-30 09:26:28.61	357.31	19.79	-27.0	-28.6	15.7	0.00e+00	0	43	0	1687158784	14	4301
2026-01-30 09:26:31.63	356.95	19.45	-26.7	-27.9	16.1	7.00e-07	0	43	0	1696595968	14	4105
2026-01-30 09:26:34.64	356.60	19.11	-26.8	-28.0	16.0	0.00e+00	0	44	0	1706033152	14	4156
2026-01-30 09:26:37.65	356.26	18.78	-26.8	-28.1	16.0	0.00e+00	0	43	0	1715470336	14	4180
2026-01-30 09:26:40.65	355.92	18.45	-27.1	-28.7	15.6	0.00e+00	0	43	0	1724907520	14	4340
2026-01-30 09:26:43.66	355.60	18.13	-27.0	-28.4	15.8	0.00e+00	0	43	0	1734344704	14	4253
2026-01-30 09:26:46.67	355.28	17.81	-27.2	-29.0	15.5	0.00e+00	0	43	0	1742733312	14	4411
2026-01-30 09:26:49.69	354.96	17.49	-27.4	-29.4	15.2	0.00e+00	0	44	0	1753219072	14	4539
2026-01-30 09:26:52.69	354.66	17.18	-27.3	-29.2	15.3	0.00e+00	0	43	0	1762656256	14	4486
2026-01-30 09:26:55.70	354.36	16.86	-27.2	-29.0	15.4	0.00e+00	0	43	0	1771044864	14	4434
2026-01-30 09:26:58.71	354.06	16.56	-27.3	-29.2	15.3	0.00e+00	0	43	0	1780482048	14	4467
2026-01-30 09:27:01.72	353.77	16.25	-27.3	-29.2	15.3	7.00e-07	0	43	0	1789919232	14	4485
2026-01-30 09:27:04.74	353.49	15.95	-27.7	-29.5	14.8	0.00e+00	0	43	0	1799356416	15	4462
2026-01-30 09:27:07.75	353.22	15.65	-27.8	-29.8	14.6	0.00e+00	0	43	0	1808793600	15	4556
2026-01-30 09:27:10.77	352.95	15.35	-28.2	-30.3	14.2	7.00e-07	0	43	0	1818230784	16	4565
2026-01-30 09:27:13.78	352.68	15.06	-28.2	-30.3	14.2	0.00e+00	0	43	0	1827667968	16	4590
2026-01-30 09:27:16.79	352.42	14.77	-28.2	-30.2	14.2	1.50e-06	0	43	0	1837105152	16	4550
2026-01-30 09:27:19.80	352.17	14.48	-28.2	-30.3	14.2	1.50e-06	0	44	0	1846542336	16	4589
2026-01-30 09:27:22.81	351.92	14.19	-28.2	-30.3	14.1	5.30e-06	0	43	0	1855979520	16	4588
2026-01-30 09:27:25.82	351.67	13.91	-28.4	-30.8	13.8	6.10e-06	0	43	0	1865416704	16	4746
2026-01-30 09:27:28.83	351.44	13.63	-28.6	-30.8	13.5	9.10e-06	0	43	0	1874853888	17	4632
2026-01-30 09:27:31.83	351.20	13.36	-28.4	-30.3	13.8	4.50e-06	0	44	0	1884291072	17	4479
2026-01-30 09:27:34.84	350.97	13.08	-28.4	-30.4	13.7	9.90e-06	0	43	0	1893728256	17	4501
2026-01-30 09:27:37.86	350.75	12.81	-28.1	-29.6	14.2	1.50e-06	0	43	0	1903165440	17	4268
2026-01-30 09:27:40.88	350.52	12.54	-28.2	-29.7	14.1	3.00e-06	0	43	0	1912602624	17	4312
2026-01-30 09:27:43.88	350.31	12.27	-28.2	-29.7	14.0	3.00e-06	0	43	0	1922039808	17	4309
2026-01-30 09:27:46.88	350.09	12.01	-28.5	-30.5	13.6	2.20e-06	0	43	0	1931476992	17	4541
2026-01-30 09:27:49.89	349.89	11.75	-28.6	-30.8	13.3	1.67e-05	0	43	0	1940914176	17	4657
2026-01-30 09:27:52.90	349.68	11.49	-28.8	-31.2	13.1	1.98e-05	0	43	0	1950351360	17	4785
2026-01-30 09:27:55.91	349.48	11.23	-28.7	-31.1	13.1	3.35e-05	0	43	0	1959788544	17	4754
2026-01-30 09:27:58.93	349.28	10.98	-28.8	-31.4	12.9	3.50e-05	0	43	0	1969225728	17	4856
2026-01-30 09:28:01.94	349.09	10.73	-28.9	-31.5	12.9	4.19e-05	0	43	0	1978662912	17	4881
2026-01-30 09:28:04.94	348.90	10.48	-28.9	-31.6	12.8	6.63e-05	0	43	0	1988100096	17	4906
2026-01-30 09:28:07.96	348.71	10.23	-29.2	-31.9	12.2	1.97e-04	0	43	0	1997537280	18	4914
2026-01-30 09:28:10.97	348.53	9.98	-28.8	-30.9	12.9	6.10e-05	0	43	0	2006974464	18	4575
2026-01-30 09:28:13.99	348.34	9.74	-29.0	-31.3	12.6	6.94e-05	0	44	0	2016411648	18	4691
2026-01-30 09:28:16.99	348.17	9.50	-28.8	-30.9	12.8	5.87e-05	0	43	0	2025848832	18	4570
2026-01-30 09:28:20.02	347.99	9.26	-28.9	-31.0	12.7	8.46e-05	0	43	0	2035286016	18	4617
2026-01-30 09:28:23.02	347.82	9.02	-29.0	-31.3	12.6	1.17e-04	0	43	0	2044723200	18	4700
2026-01-30 09:28:26.03	347.65	8.78	-28.9	-31.0	12.7	7.17e-05	0	44	0	2054160384	18	4622
2026-01-30 09:28:29.06	347.49	8.55	-28.7	-30.7	12.9	4.50e-05	0	43	0	2063597568	18	4499
2026-01-30 09:28:32.06	347.32	8.32	-28.9	-31.0	12.6	7.47e-05	0	43	0	2073034752	18	4632
2026-01-30 09:28:35.07	347.16	8.09	-29.0	-31.3	12.4	1.30e-04	0	43	0	2082471936	18	4718
2026-01-30 09:28:38.08	347.01	7.86	-28.9	-31.3	12.4	1.34e-04	0	43	0	2091909120	18	4721
2026-01-30 09:28:41.08	346.85	7.63	-28.9	-31.1	12.5	1.07e-04	0	43	0	2101346304	18	4649
2026-01-30 09:28:44.10	346.70	7.41	-29.1	-31.6	12.1	2.30e-04	0	43	0	2109734912	18	4836
2026-01-30 09:28:47.10	346.55	7.19	-29.1	-31.6	12.1	2.74e-04	0	43	0	2119172096	18	4838
2026-01-30 09:28:50.11	346.40	6.97	-33.5	-45.2	3.8	1.49e+00	0	43	104	2124414976	27	13830

#Closed at: 2026-01-30 09:28:52
#Recorded file [2124 MB]: D:/data/31010_260130_121728.dat