passes_logs/2026/01/30/R2M6_AANII_01/R2M6_AANII_01__20260130_013420_SUOMI_NPP_rec.log

#Pass ID: 20260130_013420_SUOMI NPP
#Satellite: SUOMI NPP
#Configuration: NPP
#almurnet v.1.7.20240730
#Start time: 2026-01-30 01:34:22

#Version: 2.2.20231116
#Station: R2M6_AANII_01
#Location: 30.233357 lon 59.946436 lat
#TLE: 1 37849U 11061A   26028.91916408  .00000155  00000+0  94467-4 0  9990
#TLE: 2 37849  98.7824 330.8488 0002045  39.4457 320.6868 14.19531289738686

#Time	Az	El	Level	Level2	SNR	BER	BlckErr	Temp	State	Recorded	gain1	gain2
2026-01-30 01:34:22.10	13.05	7.08	-32.2	-37.7	4.8	1.33e+00	0	41	0	0	24	6768
2026-01-30 01:34:25.11	12.88	7.30	-32.3	-38.0	6.6	1.89e-01	0	41	0	1048576	24	6954
2026-01-30 01:34:28.12	12.71	7.52	-32.5	-38.8	6.2	2.16e-01	0	41	0	7340032	24	7435
2026-01-30 01:34:31.13	12.53	7.74	-31.9	-36.4	8.4	6.87e-02	0	41	0	12582912	23	6023
2026-01-30 01:34:34.15	12.35	7.97	-31.3	-34.2	10.1	1.01e-02	0	41	0	17825792	23	5010
2026-01-30 01:34:37.17	12.17	8.19	-31.5	-34.7	9.6	1.08e-02	0	42	0	24117248	23	5217
2026-01-30 01:34:40.18	11.99	8.42	-31.1	-33.9	10.7	4.01e-03	0	42	0	29360128	22	4966
2026-01-30 01:34:43.19	11.80	8.65	-31.0	-33.7	11.0	2.99e-03	0	42	0	35651584	22	4863
2026-01-30 01:34:46.20	11.61	8.88	-31.3	-34.3	10.5	3.59e-03	0	42	0	40894464	22	5129
2026-01-30 01:34:49.21	11.42	9.11	-30.9	-33.7	11.3	1.82e-03	0	42	0	46137344	21	4989
2026-01-30 01:34:52.22	11.23	9.35	-31.0	-33.5	11.1	1.81e-03	0	42	0	52428800	22	4784
2026-01-30 01:34:55.23	11.03	9.58	-31.0	-33.5	11.1	1.72e-03	0	42	0	57671680	22	4804
2026-01-30 01:34:58.25	10.82	9.82	-31.0	-33.4	11.2	1.27e-03	0	42	0	63963136	22	4743
2026-01-30 01:35:01.26	10.62	10.06	-31.2	-34.0	10.8	1.46e-03	0	42	0	69206016	22	5000
2026-01-30 01:35:04.27	10.41	10.30	-31.0	-33.3	11.3	1.58e-03	0	42	0	74448896	22	4728
2026-01-30 01:35:07.28	10.19	10.55	-31.1	-33.9	10.9	2.89e-03	0	42	0	80740352	22	4927
2026-01-30 01:35:10.30	9.97	10.80	-31.3	-34.2	10.7	3.78e-03	0	42	0	85983232	22	5076
2026-01-30 01:35:13.31	9.75	11.04	-31.3	-34.2	10.8	2.21e-03	0	42	0	92274688	22	5051
2026-01-30 01:35:16.32	9.53	11.29	-31.0	-33.4	11.4	1.56e-03	0	43	0	97517568	22	4727
2026-01-30 01:35:19.33	9.30	11.55	-30.9	-33.0	11.6	1.12e-03	0	42	0	102760448	22	4586
2026-01-30 01:35:22.33	9.07	11.80	-31.1	-33.6	11.3	1.07e-03	0	43	0	109051904	22	4807
2026-01-30 01:35:25.34	8.83	12.06	-31.0	-33.4	11.4	6.33e-04	0	43	0	114294784	22	4740
2026-01-30 01:35:28.36	8.58	12.31	-31.1	-33.5	11.4	1.09e-03	0	43	0	119537664	22	4755
2026-01-30 01:35:31.37	8.34	12.58	-30.8	-32.6	12.0	5.97e-04	0	43	0	125829120	22	4450
2026-01-30 01:35:34.38	8.09	12.84	-30.9	-33.4	11.8	7.77e-04	0	43	0	131072000	21	4815
2026-01-30 01:35:37.39	7.83	13.10	-29.7	-31.8	12.1	1.76e-04	0	43	0	137363456	21	4599
2026-01-30 01:35:40.41	7.57	13.37	-30.7	-32.8	12.3	1.96e-04	0	43	0	142606336	21	4589
2026-01-30 01:35:43.42	7.30	13.64	-30.7	-32.9	12.2	2.53e-04	0	43	0	147849216	21	4622
2026-01-30 01:35:46.42	7.03	13.91	-30.6	-32.6	12.4	2.57e-03	0	43	0	154140672	21	4543
2026-01-30 01:35:49.43	6.76	14.19	-30.7	-32.9	12.2	2.58e-03	0	43	0	159383552	21	4649
2026-01-30 01:35:52.43	6.47	14.47	-30.8	-33.1	12.1	1.52e-04	0	43	0	164626432	21	4704
2026-01-30 01:35:55.44	6.19	14.75	-30.6	-32.6	12.4	1.53e-04	0	43	0	170917888	21	4533
2026-01-30 01:35:58.46	5.89	15.03	-30.5	-32.6	12.9	6.02e-05	0	43	0	176160768	20	4608
2026-01-30 01:36:01.47	5.59	15.31	-30.3	-32.0	13.2	1.37e-05	0	43	0	182452224	20	4406
2026-01-30 01:36:04.48	5.29	15.60	-30.2	-32.0	13.2	2.52e-03	0	43	0	187695104	20	4389
2026-01-30 01:36:07.49	4.98	15.89	-30.3	-32.2	13.1	2.49e-03	0	43	0	192937984	20	4466
2026-01-30 01:36:10.50	4.66	16.18	-30.4	-31.9	12.9	2.27e-03	0	43	0	199229440	21	4287
2026-01-30 01:36:13.51	4.34	16.48	-30.7	-32.6	12.6	2.50e-03	0	43	0	204472320	21	4490
2026-01-30 01:36:16.53	4.01	16.78	-30.7	-32.8	12.5	2.51e-03	0	43	0	210763776	21	4550
2026-01-30 01:36:19.54	3.67	17.08	-30.4	-31.8	13.2	1.13e-04	0	43	0	216006656	21	4238
2026-01-30 01:36:22.55	3.32	17.38	-30.5	-32.0	13.0	2.62e-03	0	43	0	221249536	21	4311
2026-01-30 01:36:25.56	2.97	17.69	-30.6	-32.3	12.8	2.58e-03	0	43	0	227540992	21	4401
2026-01-30 01:36:28.57	2.61	17.99	-30.5	-32.2	13.0	2.31e-03	0	43	0	232783872	21	4360
2026-01-30 01:36:31.58	2.25	18.30	-30.5	-31.9	13.1	2.59e-03	0	43	0	238026752	21	4268
2026-01-30 01:36:34.61	1.87	18.62	-30.5	-32.1	13.1	2.44e-03	0	43	0	244318208	21	4323
2026-01-30 01:36:37.60	1.49	18.93	-30.5	-32.1	13.0	4.11e-05	0	43	0	249561088	21	4315
2026-01-30 01:36:40.61	1.10	19.25	-30.6	-32.3	13.0	3.12e-05	0	43	0	255852544	21	4379
2026-01-30 01:36:43.63	0.70	19.58	-30.6	-32.3	13.0	1.07e-04	0	43	0	261095424	21	4368
2026-01-30 01:36:46.64	0.29	19.90	-30.6	-32.4	12.9	2.31e-03	0	43	0	266338304	21	4419
2026-01-30 01:36:49.64	359.87	20.23	-30.5	-32.2	13.1	2.51e-03	0	43	0	272629760	21	4333
2026-01-30 01:36:52.65	359.45	20.56	-30.5	-32.2	13.1	2.59e-03	0	43	0	277872640	21	4336
2026-01-30 01:36:55.65	359.01	20.89	-30.6	-32.4	12.9	9.68e-05	0	43	0	283115520	21	4414
2026-01-30 01:36:58.65	358.57	21.22	-30.6	-32.3	13.0	1.97e-04	0	43	0	289406976	21	4377
2026-01-30 01:37:01.66	358.11	21.56	-30.5	-32.1	13.2	1.95e-04	0	43	0	294649856	21	4322
2026-01-30 01:37:04.67	357.65	21.90	-30.7	-32.5	12.9	6.71e-05	0	43	0	300941312	21	4466
2026-01-30 01:37:07.68	357.17	22.24	-31.0	-33.1	12.2	1.79e-04	0	43	0	306184192	22	4558
2026-01-30 01:37:10.67	356.69	22.58	-31.2	-33.4	12.0	3.68e-04	0	43	0	311427072	22	4658
2026-01-30 01:37:13.68	356.19	22.93	-31.0	-32.8	12.4	3.57e-04	0	43	0	317718528	22	4455
2026-01-30 01:37:16.69	355.68	23.28	-30.9	-33.1	12.5	2.53e-04	0	43	0	322961408	21	4661
2026-01-30 01:37:19.70	355.16	23.63	-30.7	-32.5	12.9	1.76e-04	0	43	0	329252864	21	4453
2026-01-30 01:37:22.72	354.62	23.99	-30.8	-32.7	12.0	2.97e-05	0	43	0	334495744	21	4513
2026-01-30 01:37:25.73	354.08	24.35	-30.5	-32.4	13.3	2.36e-05	0	43	0	339738624	20	4506
2026-01-30 01:37:28.74	353.52	24.70	-30.3	-31.8	13.7	1.06e-05	0	43	0	346030080	20	4322
2026-01-30 01:37:31.75	352.94	25.06	-30.5	-32.0	13.3	8.30e-06	0	43	0	351272960	21	4285
2026-01-30 01:37:34.76	352.36	25.42	-31.1	-33.2	12.2	1.31e-03	0	43	0	357564416	22	4555
2026-01-30 01:37:37.77	351.76	25.79	-31.5	-33.7	11.5	1.85e-03	0	43	0	362807296	23	4668
2026-01-30 01:37:40.78	351.15	26.15	-31.8	-34.8	10.7	1.97e-03	0	43	0	368050176	23	5078
2026-01-30 01:37:43.79	350.52	26.52	-31.9	-34.6	10.5	1.09e-02	0	43	0	374341632	24	4932
2026-01-30 01:37:46.81	349.87	26.89	-31.9	-35.2	10.4	2.16e-03	0	43	0	379584512	23	5272
2026-01-30 01:37:49.82	349.21	27.25	-31.8	-35.0	10.6	4.82e-03	0	43	0	384827392	23	5193
2026-01-30 01:37:52.84	348.54	27.62	-32.1	-35.6	9.8	8.91e-03	0	43	0	391118848	24	5363
2026-01-30 01:37:55.84	347.85	27.99	-31.9	-35.2	10.3	5.71e-03	0	43	0	396361728	23	5290
2026-01-30 01:37:58.86	347.14	28.36	-31.3	-33.2	11.9	5.12e-04	0	43	0	402653184	23	4490
2026-01-30 01:38:01.87	346.42	28.73	-31.2	-33.4	12.1	3.04e-04	0	43	0	407896064	22	4636
2026-01-30 01:38:04.87	345.68	29.10	-31.4	-33.9	11.7	5.56e-04	0	44	0	413138944	22	4822
2026-01-30 01:38:07.88	344.92	29.47	-31.3	-33.6	12.0	8.83e-04	0	44	0	419430400	22	4730
2026-01-30 01:38:10.88	344.15	29.83	-31.2	-33.5	12.1	1.71e-03	0	43	0	424673280	22	4658
2026-01-30 01:38:13.89	343.36	30.20	-31.9	-35.0	10.6	3.97e-03	0	43	0	429916160	23	5182
2026-01-30 01:38:16.90	342.55	30.56	-31.6	-34.1	11.3	2.43e-03	0	43	0	436207616	23	4798
2026-01-30 01:38:19.91	341.72	30.92	-31.3	-33.8	11.9	2.03e-03	0	44	0	441450496	22	4771
2026-01-30 01:38:22.92	340.87	31.28	-31.9	-35.0	10.6	3.90e-03	0	43	0	447741952	23	5157
2026-01-30 01:38:25.92	340.01	31.64	-31.1	-33.1	12.3	1.71e-04	0	43	0	452984832	22	4547
2026-01-30 01:38:28.92	339.12	31.99	-31.3	-33.6	11.9	3.98e-04	0	44	0	458227712	22	4721
2026-01-30 01:38:31.94	338.21	32.34	-31.9	-35.4	10.3	3.26e-03	0	43	0	464519168	23	5356
2026-01-30 01:38:34.94	337.29	32.68	-31.7	-34.6	10.8	4.60e-03	0	44	0	469762048	23	5036
2026-01-30 01:38:37.96	336.34	33.02	-31.8	-35.1	10.3	3.74e-03	0	43	0	476053504	23	5263
2026-01-30 01:38:40.97	335.37	33.36	-32.3	-36.7	8.8	1.73e-02	0	44	0	481296384	24	5916
2026-01-30 01:38:43.98	334.38	33.69	-32.3	-36.2	9.2	1.67e-02	0	43	0	486539264	24	5651
2026-01-30 01:38:46.99	333.38	34.01	-32.7	-37.7	7.7	5.76e-02	0	44	0	492830720	25	6367
2026-01-30 01:38:50.01	332.35	34.33	-33.1	-39.1	6.3	2.60e-01	0	44	0	498073600	26	7148
2026-01-30 01:38:53.00	331.31	34.63	-31.7	-34.3	10.6	7.32e-03	0	44	0	503316480	24	4839
2026-01-30 01:38:56.01	330.24	34.93	-32.0	-35.1	10.0	3.72e-03	0	44	0	509607936	24	5189
2026-01-30 01:38:59.03	329.15	35.23	-32.2	-36.1	9.2	1.82e-02	0	43	0	514850816	24	5627
2026-01-30 01:39:02.04	328.04	35.51	-32.0	-35.3	9.9	8.52e-03	0	43	0	521142272	24	5285
2026-01-30 01:39:05.06	326.91	35.78	-32.5	-37.1	8.4	2.53e-02	0	44	0	526385152	24	6165
2026-01-30 01:39:08.07	325.77	36.04	-31.7	-34.7	10.7	4.32e-03	0	44	0	531628032	23	5077
2026-01-30 01:39:11.08	324.61	36.29	-31.5	-34.1	11.1	9.90e-04	0	44	0	537919488	23	4834
2026-01-30 01:39:14.08	323.43	36.53	-30.9	-33.0	12.2	3.51e-04	0	44	0	543162368	22	4542
2026-01-30 01:39:17.08	322.24	36.75	-30.7	-32.3	12.7	4.88e-05	0	44	0	548405248	22	4302
2026-01-30 01:39:20.10	321.02	36.97	-30.4	-32.9	11.7	6.19e-04	0	44	0	554696704	22	4800
2026-01-30 01:39:23.11	319.79	37.17	-30.3	-32.1	13.6	3.80e-06	0	44	0	559939584	20	4432
2026-01-30 01:39:26.12	318.55	37.35	-30.6	-32.6	12.9	2.47e-04	0	44	0	566231040	21	4492
2026-01-30 01:39:29.13	317.29	37.52	-30.6	-32.5	12.9	5.26e-05	0	44	0	571473920	21	4455
2026-01-30 01:39:32.15	316.02	37.68	-30.7	-32.8	12.8	4.11e-05	0	44	0	576716800	21	4548
2026-01-30 01:39:35.16	314.73	37.82	-29.6	-30.5	15.0	7.00e-07	0	44	0	583008256	19	4017
2026-01-30 01:39:38.16	313.45	37.94	-29.4	-30.2	15.2	1.92e-04	0	44	0	588251136	19	3930
2026-01-30 01:39:41.16	312.15	38.05	-29.3	-30.4	15.4	2.39e-04	0	44	0	594542592	18	4065
2026-01-30 01:39:44.17	310.84	38.14	-30.4	-31.6	13.6	5.13e-04	0	44	0	599785472	21	4155
2026-01-30 01:39:47.17	309.53	38.21	-29.5	-30.3	15.0	6.03e-04	0	44	0	605028352	19	3957
2026-01-30 01:39:50.18	308.20	38.27	-29.8	-31.1	14.7	6.51e-04	0	43	0	611319808	19	4189
2026-01-30 01:39:53.20	306.87	38.31	-30.2	-31.6	14.0	3.00e-06	0	44	0	616562688	20	4227
2026-01-30 01:39:56.21	305.55	38.33	-30.0	-31.2	14.3	1.50e-06	0	44	0	621805568	20	4110
2026-01-30 01:39:59.22	304.22	38.34	-31.1	-33.0	12.4	1.69e-04	0	44	0	628097024	22	4507
2026-01-30 01:40:02.22	302.89	38.32	-31.0	-32.3	12.6	4.77e-04	0	44	0	633339904	23	4207
2026-01-30 01:40:05.24	301.56	38.29	-31.2	-33.5	12.1	1.41e-04	0	44	0	639631360	22	4674
2026-01-30 01:40:08.26	300.23	38.24	-31.1	-33.2	12.2	3.07e-04	0	44	0	644874240	22	4571
2026-01-30 01:40:11.27	298.91	38.18	-30.7	-32.6	12.9	4.80e-05	0	44	0	650117120	21	4478
2026-01-30 01:40:14.27	297.60	38.10	-30.9	-33.2	12.6	5.79e-05	0	44	0	656408576	21	4667
2026-01-30 01:40:17.27	296.30	38.00	-32.1	-35.6	9.8	7.40e-03	0	44	0	661651456	24	5364
2026-01-30 01:40:20.28	295.00	37.88	-31.6	-33.9	10.9	2.75e-03	0	44	0	666894336	24	4701
2026-01-30 01:40:23.29	293.71	37.75	-31.5	-34.0	11.1	7.93e-04	0	44	0	673185792	23	4835
2026-01-30 01:40:26.29	292.43	37.60	-32.1	-36.0	9.2	8.15e-03	0	44	0	678428672	24	5611
2026-01-30 01:40:29.29	291.17	37.44	-31.7	-34.8	10.6	4.20e-03	0	44	0	684720128	23	5155
2026-01-30 01:40:32.31	289.92	37.26	-31.2	-34.0	11.4	3.39e-04	0	44	0	689963008	22	4927
2026-01-30 01:40:35.31	288.68	37.07	-32.3	-36.7	8.6	2.16e-02	0	44	0	695205888	24	6035
2026-01-30 01:40:38.31	287.46	36.86	-32.7	-38.5	6.8	2.35e-01	0	44	0	701497344	25	6964
2026-01-30 01:40:41.33	286.25	36.64	-31.8	-34.7	10.2	7.16e-03	0	44	0	706740224	24	5026
2026-01-30 01:40:44.34	285.06	36.41	-31.4	-33.7	11.4	1.56e-03	0	44	0	711983104	23	4696
2026-01-30 01:40:47.35	283.89	36.17	-31.9	-34.3	10.9	3.95e-03	0	44	0	718274560	24	4768
2026-01-30 01:40:50.36	282.73	35.91	-30.9	-32.4	12.9	4.57e-05	0	44	0	723517440	22	4272
2026-01-30 01:40:53.37	281.60	35.64	-30.2	-31.6	14.0	1.50e-06	0	44	0	729808896	20	4217
2026-01-30 01:40:56.37	280.48	35.37	-30.8	-32.8	13.0	2.21e-05	0	44	0	735051776	21	4498
2026-01-30 01:40:59.39	279.38	35.08	-30.7	-32.0	13.1	6.02e-05	0	44	0	740294656	22	4145
2026-01-30 01:41:02.38	278.31	34.78	-31.0	-32.7	12.3	6.33e-05	0	44	0	746586112	22	4378
2026-01-30 01:41:05.39	277.25	34.48	-31.4	-33.9	11.7	4.29e-04	0	44	0	751828992	22	4804
2026-01-30 01:41:08.40	276.21	34.17	-31.2	-33.2	12.3	2.60e-03	0	44	0	757071872	22	4531
2026-01-30 01:41:11.40	275.19	33.85	-31.1	-32.9	12.4	1.94e-03	0	44	0	763363328	22	4446
2026-01-30 01:41:14.41	274.19	33.52	-30.8	-32.6	13.0	4.42e-05	0	44	0	768606208	21	4450
2026-01-30 01:41:17.41	273.21	33.19	-31.8	-34.6	11.0	1.49e-03	0	44	0	774897664	23	4955
2026-01-30 01:41:20.42	272.25	32.85	-31.0	-32.6	12.6	1.45e-04	0	44	0	780140544	22	4362
2026-01-30 01:41:23.43	271.31	32.51	-31.1	-33.0	12.3	7.85e-05	0	44	0	785383424	22	4490
2026-01-30 01:41:26.44	270.40	32.16	-31.2	-32.7	12.2	8.84e-04	0	44	0	791674880	23	4299
2026-01-30 01:41:29.44	269.50	31.81	-31.0	-32.9	12.5	5.87e-04	0	44	0	796917760	22	4438
2026-01-30 01:41:32.46	268.61	31.45	-31.7	-34.5	11.0	2.79e-03	0	44	0	803209216	23	4945
2026-01-30 01:41:35.47	267.75	31.09	-32.2	-35.5	9.7	1.02e-02	0	44	0	808452096	24	5288
2026-01-30 01:41:38.49	266.91	30.73	-32.2	-35.6	9.7	1.29e-02	0	44	0	813694976	24	5303
2026-01-30 01:41:41.49	266.09	30.36	-31.9	-35.1	10.4	3.46e-03	0	44	0	819986432	23	5211
2026-01-30 01:41:44.50	265.28	30.00	-31.8	-34.5	10.9	6.11e-03	0	44	0	825229312	23	4960
2026-01-30 01:41:47.51	264.50	29.63	-31.4	-33.4	11.7	3.53e-03	0	44	0	830472192	23	4543
2026-01-30 01:41:50.54	263.72	29.26	-30.3	-31.8	13.8	1.76e-03	0	44	0	836763648	20	4287
2026-01-30 01:41:53.55	262.97	28.89	-30.3	-32.0	13.6	2.56e-03	0	44	0	842006528	20	4360
2026-01-30 01:41:56.56	262.24	28.52	-31.1	-33.2	12.2	3.69e-03	0	44	0	848297984	22	4557
2026-01-30 01:41:59.56	261.52	28.15	-31.2	-33.5	11.9	4.36e-04	0	44	0	853540864	22	4676
2026-01-30 01:42:02.57	260.82	27.78	-30.6	-32.1	13.2	2.82e-05	0	44	0	858783744	21	4311
2026-01-30 01:42:05.59	260.14	27.41	-30.8	-32.8	12.7	8.01e-05	0	44	0	865075200	21	4547
2026-01-30 01:42:08.60	259.47	27.04	-30.1	-31.3	14.0	1.78e-03	0	44	0	870318080	20	4164
2026-01-30 01:42:11.59	258.82	26.67	-29.9	-31.2	14.4	2.32e-03	0	44	0	875560960	19	4220
2026-01-30 01:42:14.60	258.18	26.31	-30.1	-31.4	14.0	2.21e-03	0	44	0	881852416	20	4172
2026-01-30 01:42:17.60	257.56	25.94	-30.1	-31.5	13.9	3.80e-06	0	44	0	887095296	20	4204
2026-01-30 01:42:20.61	256.95	25.58	-30.2	-31.7	13.7	3.00e-06	0	44	0	893386752	20	4274
2026-01-30 01:42:23.61	256.36	25.21	-30.2	-31.8	13.6	6.80e-06	0	43	0	898629632	20	4313
2026-01-30 01:42:26.61	255.78	24.85	-30.0	-31.3	13.9	4.50e-06	0	44	0	903872512	20	4156
2026-01-30 01:42:29.63	255.21	24.49	-30.0	-31.2	14.0	3.00e-06	0	44	0	910163968	20	4136
2026-01-30 01:42:32.62	254.66	24.13	-30.1	-31.5	13.7	2.13e-03	0	43	0	915406848	20	4222
2026-01-30 01:42:35.62	254.11	23.78	-30.2	-31.7	13.6	4.50e-06	0	43	0	920649728	20	4292
2026-01-30 01:42:38.63	253.58	23.42	-30.2	-31.8	13.6	1.83e-05	0	43	0	926941184	20	4313
2026-01-30 01:42:41.64	253.07	23.07	-29.9	-30.9	14.1	3.80e-06	0	43	0	932184064	20	4056
2026-01-30 01:42:44.64	252.56	22.72	-30.3	-31.9	13.5	6.80e-06	0	43	0	938475520	20	4357
2026-01-30 01:42:47.64	252.07	22.38	-30.9	-33.3	12.2	2.24e-04	0	43	0	943718400	21	4728
2026-01-30 01:42:50.65	251.58	22.03	-31.3	-33.3	11.4	1.14e-03	0	43	0	948961280	23	4554
2026-01-30 01:42:53.65	251.11	21.69	-31.1	-32.9	11.8	1.14e-03	0	43	0	955252736	23	4414
2026-01-30 01:42:56.66	250.65	21.35	-30.3	-32.0	11.8	4.88e-05	0	43	0	960495616	20	4385
2026-01-30 01:42:59.66	250.20	21.01	-30.1	-31.6	12.9	2.21e-05	0	43	0	965738496	20	4253
2026-01-30 01:43:02.66	249.75	20.68	-30.5	-32.5	13.0	1.37e-05	0	43	0	972029952	20	4557
2026-01-30 01:43:05.67	249.32	20.35	-30.6	-32.4	12.7	9.68e-05	0	43	0	977272832	21	4436
2026-01-30 01:43:08.68	248.90	20.02	-29.9	-31.4	14.1	4.50e-06	0	43	0	983564288	19	4280
2026-01-30 01:43:11.70	248.48	19.69	-29.6	-30.7	14.5	0.00e+00	0	43	0	988807168	19	4085
2026-01-30 01:43:14.71	248.07	19.37	-30.3	-32.0	13.3	2.56e-03	0	43	0	994050048	20	4383
2026-01-30 01:43:17.72	247.67	19.04	-31.0	-33.2	11.8	2.45e-03	0	43	0	1000341504	22	4620
2026-01-30 01:43:20.71	247.29	18.73	-31.8	-35.3	9.9	6.28e-03	0	43	0	1005584384	23	5355
2026-01-30 01:43:23.72	246.91	18.41	-31.9	-35.2	9.5	1.67e-02	0	43	0	1010827264	24	5253
2026-01-30 01:43:26.74	246.53	18.10	-31.1	-33.0	11.5	3.01e-03	0	43	0	1017118720	23	4477
2026-01-30 01:43:29.75	246.17	17.79	-30.4	-31.5	12.9	6.71e-05	0	43	0	1022361600	22	4069
2026-01-30 01:43:32.77	245.81	17.48	-30.6	-32.4	12.5	4.30e-04	0	43	0	1028653056	21	4464
2026-01-30 01:43:35.78	245.46	17.17	-31.1	-33.4	11.5	1.96e-03	0	43	0	1033895936	22	4712
2026-01-30 01:43:38.79	245.11	16.87	-31.0	-33.4	11.5	2.72e-03	0	43	0	1039138816	22	4694
2026-01-30 01:43:41.80	244.78	16.57	-30.7	-32.7	12.3	2.53e-03	0	43	0	1045430272	21	4545
2026-01-30 01:43:44.80	244.45	16.27	-30.3	-32.1	13.0	1.65e-03	0	43	0	1050673152	20	4432
2026-01-30 01:43:47.81	244.13	15.98	-30.4	-32.4	12.8	3.51e-04	0	43	0	1056964608	20	4535
2026-01-30 01:43:50.82	243.81	15.69	-30.7	-32.8	12.1	2.86e-03	0	43	0	1062207488	21	4589
2026-01-30 01:43:53.83	243.50	15.40	-30.9	-33.6	11.6	3.36e-03	0	43	0	1067450368	21	4874
2026-01-30 01:43:56.83	243.20	15.11	-30.9	-33.4	11.8	3.84e-03	0	43	0	1073741824	21	4821
2026-01-30 01:43:59.83	242.90	14.83	-31.1	-33.5	11.3	5.03e-03	0	43	0	1078984704	22	4756
2026-01-30 01:44:02.81	242.61	14.55	-30.9	-33.6	11.6	3.64e-03	0	43	0	1084227584	21	4885
2026-01-30 01:44:05.82	242.32	14.27	-30.5	-32.5	12.3	7.38e-04	0	43	0	1090519040	21	4492
2026-01-30 01:44:08.83	242.04	13.99	-30.2	-32.1	12.8	6.48e-05	0	44	0	1095761920	20	4474
2026-01-30 01:44:11.83	241.76	13.72	-30.5	-32.7	12.4	1.84e-03	0	44	0	1101004800	20	4681
2026-01-30 01:44:14.84	241.49	13.45	-30.9	-33.4	11.5	8.83e-04	0	44	0	1107296256	21	4851
2026-01-30 01:44:17.85	241.23	13.18	-31.2	-34.0	10.7	2.67e-03	0	44	0	1112539136	22	4992
2026-01-30 01:44:20.86	240.96	12.91	-31.6	-34.9	9.7	9.40e-03	0	44	0	1118830592	23	5256
2026-01-30 01:44:23.87	240.71	12.64	-31.4	-34.3	10.1	8.85e-03	0	44	0	1124073472	23	5019
2026-01-30 01:44:26.88	240.46	12.38	-31.1	-33.6	10.9	1.97e-03	0	44	0	1129316352	22	4848
2026-01-30 01:44:29.89	240.21	12.12	-30.7	-33.2	11.6	5.80e-04	0	44	0	1135607808	21	4782
2026-01-30 01:44:32.90	239.97	11.86	-30.5	-32.5	12.1	2.83e-04	0	44	0	1140850688	21	4543
2026-01-30 01:44:35.93	239.73	11.60	-30.4	-32.8	12.2	2.43e-04	0	44	0	1147142144	20	4742
2026-01-30 01:44:38.93	239.49	11.35	-30.3	-32.5	12.4	2.32e-03	0	44	0	1152385024	20	4616
2026-01-30 01:44:41.96	239.26	11.10	-30.3	-32.5	12.4	1.17e-04	0	44	0	1157627904	20	4627
2026-01-30 01:44:44.97	239.04	10.85	-30.4	-32.6	12.3	1.47e-04	0	44	0	1163919360	20	4666
2026-01-30 01:44:47.99	238.81	10.60	-30.4	-32.7	12.2	1.94e-04	0	44	0	1169162240	20	4685
2026-01-30 01:44:51.00	238.59	10.35	-30.5	-32.5	11.8	3.09e-04	0	44	0	1175453696	21	4527
2026-01-30 01:44:54.01	238.38	10.11	-30.7	-33.2	11.4	8.56e-04	0	44	0	1180696576	21	4789
2026-01-30 01:44:57.01	238.17	9.87	-30.8	-33.7	11.1	1.46e-03	0	44	0	1185939456	21	4975
2026-01-30 01:45:00.02	237.96	9.63	-30.9	-33.9	10.8	2.16e-03	0	44	0	1192230912	21	5090
2026-01-30 01:45:03.04	237.76	9.39	-30.9	-34.0	10.7	2.65e-03	0	44	0	1197473792	21	5141
2026-01-30 01:45:06.04	237.56	9.16	-31.1	-34.0	10.4	4.11e-03	0	44	0	1202716672	22	5020
2026-01-30 01:45:09.06	237.36	8.92	-31.0	-33.9	10.4	4.60e-03	0	44	0	1209008128	22	5007
2026-01-30 01:45:12.06	237.17	8.69	-31.3	-34.8	9.7	9.44e-03	0	44	0	1214251008	22	5378
2026-01-30 01:45:15.07	236.98	8.46	-31.4	-34.9	9.1	1.77e-02	0	44	0	1220542464	23	5379
2026-01-30 01:45:18.08	236.79	8.23	-31.5	-35.3	8.9	3.39e-02	0	43	0	1225785344	23	5546
2026-01-30 01:45:21.09	236.60	8.00	-31.5	-35.1	8.9	3.37e-02	0	44	0	1231028224	23	5491
2026-01-30 01:45:24.11	236.42	7.78	-31.6	-35.8	8.3	4.91e-02	0	44	0	1237319680	23	5844
2026-01-30 01:45:27.11	236.24	7.56	-31.3	-34.9	9.4	1.83e-02	0	44	0	1242562560	22	5479
2026-01-30 01:45:30.13	236.07	7.33	-31.1	-34.3	10.0	9.01e-03	0	44	0	1247805440	22	5211
2026-01-30 01:45:33.13	235.90	7.11	-30.9	-33.6	10.3	8.52e-03	0	44	0	1254096896	22	4913

#Closed at: 2026-01-30 01:45:35
#Recorded file [1254 MB]: D:/data/31010_260130_043423.dat