passes_logs/2026/01/30/R2M6_AANII_01/R2M6_AANII_01__20260130_114511_AQUA_rec.log

#Pass ID: 20260130_114511_AQUA
#Satellite: AQUA
#Configuration: AQUA
#almurnet v.1.7.20240730
#Start time: 2026-01-30 11:45:11

#Version: 2.2.20231116
#Station: R2M6_AANII_01
#Location: 30.233357 lon 59.946436 lat
#TLE: 1 27424U 02022A   26029.54575153  .00001738  00000+0  35736-3 0  9994
#TLE: 2 27424  98.4104 356.2197 0001804  61.7823  56.0643 14.61874165263019

#Time	Az	El	Level	Level2	SNR	BER	BlckErr	Temp	State	Recorded	gain1	gain2
2026-01-30 11:45:11.75	149.34	7.04	-29.7	-38.5	5.0	7.15e-01	0	41	0	0	21	9936
2026-01-30 11:45:14.75	149.28	7.28	-30.3	-39.5	11.5	6.15e-01	0	41	0	1572864	21	10367
2026-01-30 11:45:17.77	149.22	7.53	-29.6	-37.3	13.1	6.09e-01	0	41	0	7340032	21	8724
2026-01-30 11:45:20.80	149.16	7.79	-29.2	-36.8	13.7	6.08e-01	0	41	0	13107200	20	8678
2026-01-30 11:45:23.81	149.10	8.04	-28.6	-34.9	15.7	6.06e-01	0	41	0	18874368	19	7384
2026-01-30 11:45:26.80	149.03	8.30	-28.1	-33.4	17.2	6.06e-01	0	41	0	24117248	18	6659
2026-01-30 11:45:29.81	148.97	8.56	-28.2	-33.0	17.8	6.07e-01	0	41	0	29884416	18	6238
2026-01-30 11:45:32.81	148.90	8.83	-28.3	-33.2	17.6	6.07e-01	0	41	0	35651584	18	6376
2026-01-30 11:45:35.82	148.83	9.09	-28.6	-33.2	18.0	6.08e-01	0	42	0	41418752	18	6159
2026-01-30 11:45:38.83	148.76	9.36	-28.8	-33.6	17.9	6.07e-01	0	42	0	46661632	18	6208
2026-01-30 11:45:41.83	148.69	9.64	-29.3	-33.5	18.0	6.06e-01	0	42	0	52428800	19	5833
2026-01-30 11:45:44.83	148.62	9.91	-29.6	-34.0	17.8	6.04e-01	0	42	0	58195968	19	5965
2026-01-30 11:45:47.84	148.54	10.19	-29.5	-33.5	18.2	6.08e-01	0	42	0	63438848	19	5707
2026-01-30 11:45:50.85	148.46	10.48	-29.5	-33.0	18.2	6.06e-01	0	42	0	69206016	20	5366
2026-01-30 11:45:53.87	148.38	10.77	-29.4	-32.6	18.4	6.08e-01	0	42	0	74973184	20	5248
2026-01-30 11:45:56.88	148.30	11.06	-29.3	-32.4	18.6	6.06e-01	0	42	0	80740352	20	5151
2026-01-30 11:45:59.89	148.22	11.36	-29.5	-33.0	18.2	6.05e-01	0	42	0	86507520	20	5379
2026-01-30 11:46:02.90	148.14	11.66	-29.5	-32.9	18.4	6.07e-01	0	42	0	91750400	20	5290
2026-01-30 11:46:05.91	148.05	11.96	-29.6	-33.0	18.3	6.07e-01	0	42	0	97517568	20	5336
2026-01-30 11:46:08.92	147.96	12.27	-29.4	-32.6	18.6	6.07e-01	0	42	0	103284736	20	5170
2026-01-30 11:46:11.93	147.87	12.58	-29.5	-32.8	18.5	6.05e-01	0	42	0	109051904	20	5253
2026-01-30 11:46:14.93	147.78	12.90	-29.3	-32.4	18.8	6.09e-01	0	42	0	114294784	20	5127
2026-01-30 11:46:17.94	147.68	13.22	-29.3	-32.3	18.8	6.06e-01	0	42	0	120061952	20	5088
2026-01-30 11:46:20.95	147.58	13.54	-29.5	-32.9	18.4	6.06e-01	0	42	0	125829120	20	5345
2026-01-30 11:46:23.95	147.48	13.87	-29.4	-32.2	19.0	6.04e-01	0	42	0	131596288	20	4981
2026-01-30 11:46:26.96	147.38	14.21	-29.4	-32.2	19.1	6.07e-01	0	42	0	136839168	20	4995
2026-01-30 11:46:29.97	147.27	14.55	-29.5	-32.5	18.9	6.06e-01	0	42	0	142606336	20	5097
2026-01-30 11:46:32.99	147.16	14.90	-29.3	-32.1	19.2	6.06e-01	0	43	0	148373504	20	4942
2026-01-30 11:46:36.01	147.05	15.25	-29.5	-32.4	19.0	6.05e-01	0	42	0	154140672	20	5063
2026-01-30 11:46:39.02	146.93	15.61	-29.1	-31.6	19.5	6.05e-01	0	42	0	159907840	20	4786
2026-01-30 11:46:42.02	146.82	15.97	-29.3	-32.0	19.2	6.08e-01	0	43	0	165150720	20	4932
2026-01-30 11:46:45.03	146.69	16.34	-29.3	-32.0	19.3	6.05e-01	0	42	0	170917888	20	4908
2026-01-30 11:46:48.05	146.57	16.71	-29.3	-32.1	19.3	6.07e-01	0	42	0	176685056	20	4928
2026-01-30 11:46:51.05	146.44	17.09	-29.5	-32.4	19.1	6.05e-01	0	42	0	182452224	20	5032
2026-01-30 11:46:54.07	146.31	17.48	-29.6	-32.8	18.9	6.07e-01	0	43	0	187695104	20	5161
2026-01-30 11:46:57.07	146.17	17.87	-29.5	-32.3	19.2	6.06e-01	0	43	0	193462272	20	4992
2026-01-30 11:47:00.09	146.03	18.28	-29.3	-32.0	19.4	6.06e-01	0	43	0	199229440	20	4898
2026-01-30 11:47:03.08	145.88	18.68	-29.3	-31.9	19.5	6.04e-01	0	43	0	204996608	20	4846
2026-01-30 11:47:06.09	145.73	19.10	-29.1	-31.4	19.9	6.07e-01	0	43	0	210239488	20	4686
2026-01-30 11:47:09.10	145.58	19.52	-29.3	-31.8	19.7	6.07e-01	0	43	0	216006656	20	4807
2026-01-30 11:47:12.10	145.42	19.95	-29.4	-32.0	19.6	6.05e-01	0	43	0	221773824	20	4858
2026-01-30 11:47:15.10	145.26	20.39	-29.4	-32.1	19.5	6.05e-01	0	43	0	227540992	20	4928
2026-01-30 11:47:18.11	145.09	20.84	-29.5	-32.3	19.4	6.08e-01	0	43	0	232783872	20	4977
2026-01-30 11:47:21.11	144.91	21.29	-29.6	-32.8	19.1	6.03e-01	0	43	0	238551040	20	5155
2026-01-30 11:47:24.12	144.73	21.76	-29.5	-32.3	19.4	6.06e-01	0	43	0	244318208	20	4986
2026-01-30 11:47:27.12	144.55	22.23	-29.5	-32.4	19.4	6.08e-01	0	43	0	250085376	20	5021
2026-01-30 11:47:30.13	144.35	22.71	-29.7	-32.9	19.1	6.06e-01	0	43	0	255328256	20	5200
2026-01-30 11:47:33.15	144.15	23.21	-29.9	-33.4	18.9	6.08e-01	0	43	0	261095424	20	5357
2026-01-30 11:47:36.16	143.94	23.71	-29.8	-33.0	19.2	6.08e-01	0	43	0	266862592	20	5211
2026-01-30 11:47:39.17	143.73	24.22	-30.1	-33.3	18.7	6.07e-01	0	43	0	272629760	21	5202
2026-01-30 11:47:42.18	143.51	24.75	-29.6	-32.0	19.5	6.04e-01	0	43	0	277872640	21	4735
2026-01-30 11:47:45.19	143.28	25.28	-29.5	-31.7	19.7	6.05e-01	0	43	0	283639808	21	4636
2026-01-30 11:47:48.20	143.04	25.83	-29.6	-31.9	19.6	6.07e-01	0	43	0	289406976	21	4708
2026-01-30 11:47:51.21	142.79	26.39	-29.5	-31.6	19.8	6.05e-01	0	43	0	295174144	21	4607
2026-01-30 11:47:54.22	142.53	26.96	-29.5	-31.8	19.7	6.08e-01	0	43	0	300941312	21	4648
2026-01-30 11:47:57.23	142.26	27.54	-29.3	-31.6	20.1	6.07e-01	0	43	0	306184192	20	4697
2026-01-30 11:48:00.24	141.98	28.14	-29.4	-31.7	20.1	6.08e-01	0	43	0	311951360	20	4731
2026-01-30 11:48:03.24	141.69	28.75	-29.5	-32.1	20.0	6.05e-01	0	43	0	317718528	20	4830
2026-01-30 11:48:06.25	141.39	29.37	-29.5	-32.1	20.0	6.07e-01	0	43	0	323485696	20	4836
2026-01-30 11:48:09.26	141.07	30.01	-29.3	-31.5	20.3	6.07e-01	0	43	0	328728576	20	4648
2026-01-30 11:48:12.26	140.74	30.66	-29.4	-31.8	20.2	6.06e-01	0	43	0	334495744	20	4751
2026-01-30 11:48:15.28	140.40	31.33	-29.1	-31.0	20.7	6.06e-01	0	43	0	340262912	20	4484
2026-01-30 11:48:18.29	140.04	32.01	-29.2	-31.3	20.5	6.09e-01	0	43	0	346030080	20	4578
2026-01-30 11:48:21.30	139.66	32.71	-29.3	-31.4	20.5	6.07e-01	0	43	0	351272960	20	4611
2026-01-30 11:48:24.30	139.27	33.42	-29.3	-31.4	20.4	6.07e-01	0	43	0	357040128	20	4633
2026-01-30 11:48:27.32	138.86	34.15	-29.7	-32.7	19.7	6.07e-01	0	43	0	362807296	20	5038
2026-01-30 11:48:30.33	138.43	34.90	-29.7	-32.4	19.9	6.07e-01	0	43	0	368574464	20	4949
2026-01-30 11:48:33.34	137.97	35.67	-30.2	-33.3	19.2	6.06e-01	0	43	0	373817344	21	5126
2026-01-30 11:48:36.34	137.50	36.45	-30.2	-33.2	19.1	6.06e-01	0	43	0	379584512	21	5133
2026-01-30 11:48:39.35	137.00	37.25	-30.7	-34.3	18.2	6.06e-01	0	43	0	385351680	22	5455
2026-01-30 11:48:42.36	136.47	38.07	-30.9	-34.7	18.0	6.08e-01	0	43	0	391118848	22	5599
2026-01-30 11:48:45.36	135.92	38.90	-30.9	-34.7	18.0	6.08e-01	0	43	0	396361728	22	5595
2026-01-30 11:48:48.37	135.33	39.76	-31.2	-35.2	17.3	6.05e-01	0	43	0	402128896	23	5709
2026-01-30 11:48:51.38	134.71	40.63	-30.5	-33.2	18.7	6.07e-01	0	43	0	407896064	23	4883
2026-01-30 11:48:54.39	134.05	41.53	-30.6	-33.5	18.4	6.05e-01	0	43	0	413663232	23	5028
2026-01-30 11:48:57.41	133.36	42.44	-30.8	-34.1	18.0	6.05e-01	0	43	0	419430400	23	5253
2026-01-30 11:49:00.42	132.62	43.37	-30.4	-33.5	18.8	6.06e-01	0	43	0	424673280	22	5140
2026-01-30 11:49:03.42	131.84	44.32	-30.4	-33.3	19.0	6.07e-01	0	43	0	430440448	22	5033
2026-01-30 11:49:06.42	131.01	45.29	-30.3	-32.9	19.3	6.07e-01	0	43	0	436207616	22	4845
2026-01-30 11:49:09.43	130.12	46.28	-30.2	-32.6	19.5	6.09e-01	0	43	0	441450496	22	4764
2026-01-30 11:49:12.44	129.18	47.28	-30.4	-33.2	19.2	6.05e-01	0	43	0	447217664	22	4961
2026-01-30 11:49:15.45	128.17	48.30	-30.4	-33.1	19.2	6.07e-01	0	43	0	452984832	22	4938
2026-01-30 11:49:18.46	127.08	49.34	-30.5	-33.5	19.0	6.05e-01	0	43	0	458752000	22	5084
2026-01-30 11:49:21.47	125.92	50.38	-30.1	-32.9	19.7	6.04e-01	0	43	0	464519168	21	4974
2026-01-30 11:49:24.47	124.68	51.44	-29.6	-31.7	20.4	6.07e-01	0	43	0	469762048	21	4564
2026-01-30 11:49:27.48	123.35	52.51	-29.7	-31.9	20.3	6.06e-01	0	43	0	475529216	21	4629
2026-01-30 11:49:30.50	121.90	53.59	-30.0	-32.7	19.8	6.06e-01	0	43	0	481296384	21	4883
2026-01-30 11:49:33.50	120.35	54.67	-29.4	-31.1	20.7	6.08e-01	0	43	0	487063552	21	4382
2026-01-30 11:49:36.50	118.68	55.75	-29.7	-31.8	20.3	6.07e-01	0	43	0	492306432	21	4614
2026-01-30 11:49:39.51	116.87	56.83	-30.2	-33.2	19.5	6.05e-01	0	43	0	498073600	21	5085
2026-01-30 11:49:42.52	114.91	57.90	-30.6	-33.7	18.9	6.03e-01	0	43	0	503840768	22	5135
2026-01-30 11:49:45.52	112.79	58.95	-30.7	-34.0	18.7	6.06e-01	0	43	0	509607936	22	5262
2026-01-30 11:49:48.53	110.49	59.98	-30.9	-34.6	18.4	6.07e-01	0	43	0	514850816	22	5513
2026-01-30 11:49:51.53	108.01	60.99	-30.7	-33.9	18.9	6.07e-01	0	43	0	520617984	22	5216
2026-01-30 11:49:54.52	105.33	61.95	-31.2	-34.8	18.0	6.05e-01	0	43	0	526385152	23	5441
2026-01-30 11:49:57.52	102.42	62.87	-31.0	-34.3	18.4	6.06e-01	0	43	0	531628032	23	5222
2026-01-30 11:50:00.54	99.27	63.75	-31.2	-34.7	18.0	6.08e-01	0	43	0	537395200	23	5402
2026-01-30 11:50:03.54	95.90	64.55	-31.6	-35.2	17.4	6.08e-01	0	43	0	543162368	24	5497
2026-01-30 11:50:06.56	92.27	65.28	-31.8	-36.0	17.0	6.08e-01	0	43	0	548929536	24	5832
2026-01-30 11:50:09.58	88.42	65.92	-32.1	-36.3	16.4	6.07e-01	0	43	0	554696704	25	5868
2026-01-30 11:50:12.58	84.37	66.46	-32.4	-37.4	15.7	6.08e-01	0	43	0	559939584	25	6411
2026-01-30 11:50:15.58	80.13	66.89	-32.0	-36.1	16.5	6.10e-01	0	43	0	565706752	25	5774
2026-01-30 11:50:18.59	75.73	67.20	-32.1	-36.4	16.4	6.07e-01	0	43	0	571473920	25	5878
2026-01-30 11:50:21.60	71.23	67.39	-32.4	-46.2	3.8	7.43e-01	0	43	104	574619648	25	17577
2026-01-30 11:50:24.61	66.67	67.45	-32.6	-46.8	3.8	7.44e-01	0	43	104	574619648	25	18552
2026-01-30 11:50:27.62	62.11	67.37	-33.0	-47.3	3.8	7.45e-01	0	43	104	574619648	26	18869
2026-01-30 11:50:30.63	57.62	67.17	-33.2	-48.1	3.8	7.43e-01	0	43	104	574619648	27	19876
2026-01-30 11:50:33.63	53.25	66.84	-33.3	-48.3	3.8	7.46e-01	0	43	104	574619648	27	20298
2026-01-30 11:50:36.64	49.03	66.39	-33.5	-49.4	3.8	7.46e-01	0	43	104	574619648	27	22376
2026-01-30 11:50:39.66	44.99	65.84	-33.9	-51.3	3.8	7.44e-01	0	43	104	574619648	28	26551
2026-01-30 11:50:42.66	41.19	65.19	-34.0	-51.4	3.8	7.46e-01	0	43	104	574619648	28	26842
2026-01-30 11:50:45.66	37.63	64.45	-34.2	-51.7	3.8	7.45e-01	0	43	104	574619648	29	27160
2026-01-30 11:50:48.66	34.29	63.64	-34.3	-51.9	3.8	7.44e-01	0	43	104	574619648	29	27464
2026-01-30 11:50:51.66	31.20	62.77	-34.0	-50.2	3.8	7.46e-01	0	43	104	574619648	29	23467
2026-01-30 11:50:54.68	28.31	61.83	-33.9	-50.5	3.8	7.46e-01	0	43	104	574619648	29	24124
2026-01-30 11:50:57.69	25.64	60.86	-33.8	-50.0	3.8	7.45e-01	0	43	104	574619648	29	23206
2026-01-30 11:51:00.70	23.18	59.85	-33.2	-47.6	3.8	7.44e-01	0	43	104	574619648	28	18941
2026-01-30 11:51:03.72	20.90	58.81	-32.7	-46.5	3.8	7.45e-01	0	43	104	574619648	27	17488
2026-01-30 11:51:06.73	18.81	57.76	-32.5	-45.7	3.8	7.47e-01	0	43	104	574619648	27	16445
2026-01-30 11:51:09.74	16.87	56.69	-30.8	-42.9	3.8	7.47e-01	0	43	104	574619648	23	14414
2026-01-30 11:51:12.75	15.08	55.61	-29.9	-41.9	3.8	7.46e-01	0	43	104	574619648	21	14313
2026-01-30 11:51:15.76	13.43	54.54	-29.5	-40.9	3.8	7.42e-01	0	43	104	574619648	21	13313
2026-01-30 11:51:18.78	11.89	53.45	-29.6	-41.2	3.8	7.45e-01	0	43	104	574619648	21	13736
2026-01-30 11:51:21.79	10.47	52.38	-29.7	-41.1	3.8	7.44e-01	0	43	104	574619648	21	13397
2026-01-30 11:51:24.80	9.15	51.32	-31.0	-44.2	3.8	7.45e-01	0	43	104	574619648	22	16447
2026-01-30 11:51:27.82	7.91	50.26	-32.1	-45.8	3.8	7.46e-01	0	43	104	574619648	24	17606
2026-01-30 11:51:30.83	6.77	49.22	-33.2	-48.2	3.8	7.41e-01	0	43	104	574619648	27	20322
2026-01-30 11:51:33.84	5.70	48.19	-33.6	-49.5	3.8	7.42e-01	0	43	104	574619648	28	22314
2026-01-30 11:51:36.85	4.70	47.17	-33.9	-51.3	3.8	7.44e-01	0	43	104	574619648	28	26514
2026-01-30 11:51:39.86	3.77	46.17	-33.8	-50.7	3.8	7.45e-01	0	43	104	574619648	28	24948
2026-01-30 11:51:42.87	2.89	45.19	-33.5	-49.2	3.8	7.44e-01	0	43	104	574619648	28	21790
2026-01-30 11:51:45.87	2.07	44.23	-33.5	-49.2	3.8	7.45e-01	0	43	104	574619648	28	21977
2026-01-30 11:51:48.88	1.30	43.29	-32.8	-46.8	3.8	7.41e-01	0	43	104	574619648	27	17987
2026-01-30 11:51:51.90	0.57	42.36	-32.4	-45.7	3.8	7.45e-01	0	43	104	574619648	27	16681
2026-01-30 11:51:54.92	359.88	41.45	-32.6	-46.1	3.8	7.47e-01	0	43	104	574619648	27	16958
2026-01-30 11:51:57.93	359.23	40.56	-32.1	-45.2	3.8	7.46e-01	0	43	104	574619648	26	16146
2026-01-30 11:52:00.94	358.62	39.69	-31.3	-43.7	3.8	7.43e-01	0	43	104	574619648	24	14958
2026-01-30 11:52:03.96	358.04	38.84	-31.1	-43.5	3.8	7.42e-01	0	43	104	574619648	24	14963
2026-01-30 11:52:06.98	357.49	38.01	-30.8	-42.9	3.8	7.45e-01	0	43	104	574619648	23	14518
2026-01-30 11:52:09.99	356.97	37.20	-31.2	-44.2	3.8	7.43e-01	0	43	104	574619648	23	16033
2026-01-30 11:52:13.01	356.47	36.40	-32.2	-46.2	3.8	7.43e-01	0	43	104	574619648	25	18045
2026-01-30 11:52:16.02	356.00	35.62	-32.9	-47.8	3.8	7.46e-01	0	43	104	574619648	26	20068
2026-01-30 11:52:19.03	355.55	34.86	-33.1	-48.4	3.8	7.44e-01	0	43	104	574619648	27	20792
2026-01-30 11:52:22.05	355.12	34.12	-33.5	-50.0	3.8	7.45e-01	0	43	104	574619648	27	23921
2026-01-30 11:52:25.05	354.72	33.40	-33.8	-50.9	3.8	7.45e-01	0	43	104	574619648	28	25863
2026-01-30 11:52:28.05	354.33	32.69	-33.8	-51.4	3.8	7.43e-01	0	43	104	574619648	28	27175
2026-01-30 11:52:31.07	353.96	32.00	-33.5	-49.6	3.8	7.42e-01	0	43	104	574619648	28	23097
2026-01-30 11:52:34.08	353.60	31.32	-33.1	-47.9	3.8	7.45e-01	0	43	104	574619648	28	19788
2026-01-30 11:52:37.09	353.26	30.66	-32.4	-45.9	3.8	7.38e-01	0	43	104	574619648	27	16955
2026-01-30 11:52:40.10	352.94	30.01	-31.2	-43.9	3.8	7.45e-01	0	43	104	574619648	24	15429
2026-01-30 11:52:43.11	352.62	29.38	-31.1	-43.6	3.8	7.45e-01	0	43	104	574619648	24	15126
2026-01-30 11:52:46.12	352.32	28.76	-31.7	-45.2	3.8	7.45e-01	0	43	104	574619648	24	17127
2026-01-30 11:52:49.13	352.04	28.15	-30.7	-42.6	3.8	7.44e-01	0	43	104	574619648	23	14282
2026-01-30 11:52:52.14	351.76	27.56	-31.1	-44.1	3.8	7.47e-01	0	43	104	574619648	23	16034
2026-01-30 11:52:55.16	351.50	26.98	-30.9	-43.6	3.8	7.44e-01	0	43	104	574619648	23	15531
2026-01-30 11:52:58.17	351.24	26.41	-30.7	-42.6	3.8	7.44e-01	0	44	104	574619648	23	14226
2026-01-30 11:53:01.19	350.99	25.86	-32.1	-46.0	3.8	7.45e-01	0	43	104	574619648	24	17838
2026-01-30 11:53:04.20	350.76	25.31	-33.0	-48.6	3.8	7.45e-01	0	43	104	574619648	26	21653
2026-01-30 11:53:07.21	350.53	24.78	-33.3	-49.1	3.8	7.44e-01	0	43	104	574619648	27	22142
2026-01-30 11:53:10.23	350.31	24.26	-33.5	-50.3	3.8	7.46e-01	0	43	104	574619648	27	24705
2026-01-30 11:53:13.24	350.10	23.75	-33.7	-51.1	3.8	7.46e-01	0	43	104	574619648	28	26837
2026-01-30 11:53:16.26	349.89	23.25	-33.6	-50.7	3.8	7.45e-01	0	43	104	574619648	28	25838
2026-01-30 11:53:19.26	349.70	22.76	-33.5	-50.0	3.8	7.46e-01	0	43	104	574619648	28	24141
2026-01-30 11:53:22.27	349.51	22.28	-33.2	-48.7	3.8	7.45e-01	0	43	104	574619648	28	21401
2026-01-30 11:53:25.29	349.32	21.81	-32.7	-47.3	3.8	7.45e-01	0	43	104	574619648	27	19188
2026-01-30 11:53:28.31	349.14	21.34	-31.6	-44.7	3.8	7.43e-01	0	43	104	574619648	25	16168
2026-01-30 11:53:31.31	348.97	20.89	-30.9	-43.3	3.8	7.43e-01	0	43	104	574619648	24	14937
2026-01-30 11:53:34.32	348.80	20.45	-31.2	-44.1	3.8	7.45e-01	0	43	104	574619648	24	15874
2026-01-30 11:53:37.33	348.64	20.01	-31.2	-44.2	3.8	7.46e-01	0	43	104	574619648	24	16057
2026-01-30 11:53:40.34	348.49	19.58	-31.7	-45.6	3.8	7.44e-01	0	43	104	574619648	24	17844
2026-01-30 11:53:43.35	348.33	19.16	-32.3	-47.1	3.8	7.44e-01	0	43	104	574619648	25	19688
2026-01-30 11:53:46.36	348.19	18.75	-31.8	-45.2	3.8	7.47e-01	0	43	104	574619648	25	16867
2026-01-30 11:53:49.37	348.04	18.34	-32.1	-46.2	3.8	7.46e-01	0	43	104	574619648	25	18281
2026-01-30 11:53:52.37	347.91	17.95	-32.9	-48.6	3.8	7.43e-01	0	43	104	574619648	26	22058
2026-01-30 11:53:55.38	347.77	17.56	-33.2	-49.4	3.8	7.45e-01	0	43	104	574619648	27	23298
2026-01-30 11:53:58.40	347.64	17.17	-33.3	-50.1	3.8	7.46e-01	0	43	104	574619648	27	25020
2026-01-30 11:54:01.41	347.52	16.79	-33.5	-51.1	3.8	7.46e-01	0	43	104	574619648	27	27542
2026-01-30 11:54:04.42	347.39	16.42	-33.3	-50.4	3.8	7.47e-01	0	43	104	574619648	27	25680
2026-01-30 11:54:07.44	347.27	16.05	-33.0	-48.9	3.8	7.43e-01	0	43	104	574619648	27	22464
2026-01-30 11:54:10.45	347.16	15.69	-32.8	-48.1	3.8	7.45e-01	0	43	104	574619648	27	20984
2026-01-30 11:54:13.47	347.04	15.33	-32.5	-46.9	3.8	7.49e-01	0	44	104	574619648	27	18860
2026-01-30 11:54:16.48	346.93	14.98	-31.5	-44.5	3.8	7.45e-01	0	43	104	574619648	25	16036
2026-01-30 11:54:19.49	346.83	14.64	-30.3	-42.7	3.8	7.46e-01	0	43	104	574619648	22	14943
2026-01-30 11:54:22.50	346.72	14.30	-30.3	-42.5	3.8	7.46e-01	0	43	104	574619648	22	14749
2026-01-30 11:54:25.52	346.62	13.97	-30.9	-44.2	3.8	7.45e-01	0	43	104	574619648	22	16767
2026-01-30 11:54:28.53	346.52	13.64	-31.7	-45.7	3.8	7.42e-01	0	43	104	574619648	24	18096
2026-01-30 11:54:31.54	346.43	13.31	-32.5	-48.3	3.8	7.47e-01	0	43	104	574619648	25	22182
2026-01-30 11:54:34.55	346.33	12.99	-32.7	-48.5	3.8	7.43e-01	0	43	104	574619648	26	22088
2026-01-30 11:54:37.56	346.24	12.68	-32.4	-47.4	3.8	7.46e-01	0	43	104	574619648	26	20163
2026-01-30 11:54:40.59	346.15	12.37	-32.8	-48.9	3.8	7.45e-01	0	43	104	574619648	26	23131
2026-01-30 11:54:43.60	346.07	12.06	-33.0	-50.0	3.8	7.45e-01	0	44	104	574619648	26	25493
2026-01-30 11:54:46.63	345.98	11.75	-33.0	-50.1	3.8	7.47e-01	0	43	104	574619648	26	25779
2026-01-30 11:54:49.66	345.90	11.45	-33.1	-50.6	3.8	7.46e-01	0	44	104	574619648	26	27133
2026-01-30 11:54:52.67	345.82	11.16	-33.1	-50.1	3.8	7.43e-01	0	43	104	574619648	27	25631
2026-01-30 11:54:55.68	345.74	10.87	-32.7	-48.5	3.8	7.48e-01	0	44	104	574619648	27	22091
2026-01-30 11:54:58.70	345.67	10.58	-32.4	-47.2	3.8	7.45e-01	0	43	104	574619648	27	19707
2026-01-30 11:55:01.72	345.59	10.30	-32.2	-46.9	3.8	7.46e-01	0	43	104	574619648	26	19506
2026-01-30 11:55:04.74	345.52	10.02	-31.6	-45.4	3.8	7.46e-01	0	43	104	574619648	25	17572
2026-01-30 11:55:07.74	345.45	9.74	-30.7	-43.6	3.8	7.43e-01	0	43	104	574619648	23	15973
2026-01-30 11:55:10.74	345.38	9.47	-31.2	-45.2	3.8	7.45e-01	0	43	104	574619648	23	17928
2026-01-30 11:55:13.76	345.31	9.20	-31.5	-45.8	3.8	7.45e-01	0	43	104	574619648	23	18799
2026-01-30 11:55:16.77	345.25	8.94	-32.0	-47.3	3.8	7.42e-01	0	43	104	574619648	24	20942
2026-01-30 11:55:19.79	345.18	8.67	-32.6	-48.8	3.8	7.46e-01	0	43	104	574619648	26	23228
2026-01-30 11:55:22.80	345.12	8.41	-32.8	-49.9	3.8	7.46e-01	0	44	104	574619648	26	25648
2026-01-30 11:55:25.82	345.06	8.15	-32.7	-49.5	3.8	7.45e-01	0	44	104	574619648	26	24691
2026-01-30 11:55:28.83	345.00	7.90	-32.7	-49.3	3.8	7.44e-01	0	43	104	574619648	26	24402
2026-01-30 11:55:31.84	344.94	7.65	-32.8	-50.0	3.8	7.46e-01	0	44	104	574619648	26	26256
2026-01-30 11:55:34.86	344.88	7.40	-32.7	-49.5	3.8	7.44e-01	0	43	104	574619648	26	24950
2026-01-30 11:55:37.88	344.82	7.15	-32.6	-49.4	3.8	7.43e-01	0	43	104	574619648	26	24770

#Closed at: 2026-01-30 11:55:40
#Recorded file [574 MB]: D:/data/31010_260130_144513.dat