passes_logs/2026/01/30/R2M6_AANII_01/R2M6_AANII_01__20260130_005042_FENGYUN_3D_rec.log

#Pass ID: 20260130_005042_FENGYUN 3D
#Satellite: FENGYUN 3D
#Configuration: FENGYUN 3D
#almurnet v.1.7.20240730
#Start time: 2026-01-30 00:50:44

#Version: 2.2.20231116
#Station: R2M6_AANII_01
#Location: 30.233357 lon 59.946436 lat
#TLE: 1 43010U 17072A   26028.95797775  .00000451  00000+0  23492-3 0  9991
#TLE: 2 43010  98.9958   0.9922 0002505  85.7480 274.3981 14.19703224425237

#Time	Az	El	Level	Level2	SNR	BER	BlckErr	Temp	State	Recorded	gain1	gain2
2026-01-30 00:50:44.19	30.73	7.12	-29.4	-32.4	5.5	7.67e-01	0	41	0	0	18	5108
2026-01-30 00:50:47.20	31.01	7.31	-30.0	-33.0	10.0	8.83e-03	0	41	0	5242880	20	5092
2026-01-30 00:50:50.21	31.31	7.50	-28.9	-31.1	12.0	7.60e-04	0	41	0	22020096	18	4626
2026-01-30 00:50:53.22	31.60	7.69	-28.1	-30.2	13.2	1.60e-05	0	41	0	38797312	16	4586
2026-01-30 00:50:56.24	31.90	7.88	-27.8	-29.3	13.7	1.27e-04	0	42	0	55574528	16	4318
2026-01-30 00:50:59.25	32.20	8.08	-27.2	-29.0	14.4	4.20e-04	0	42	0	73400320	14	4448
2026-01-30 00:51:02.27	32.51	8.27	-27.2	-29.2	14.2	1.10e-06	0	42	0	90177536	14	4512
2026-01-30 00:51:05.29	32.82	8.46	-27.2	-29.0	14.4	1.10e-06	0	42	0	106954752	14	4457
2026-01-30 00:51:08.30	33.14	8.66	-27.1	-28.8	14.6	0.00e+00	0	42	0	123731968	14	4380
2026-01-30 00:51:11.31	33.46	8.85	-26.8	-28.3	14.9	1.10e-06	0	42	0	140509184	14	4236
2026-01-30 00:51:14.32	33.78	9.05	-26.8	-28.6	14.9	0.00e+00	0	42	0	158334976	13	4432
2026-01-30 00:51:17.32	34.10	9.25	-27.0	-28.6	14.7	0.00e+00	0	42	0	175112192	14	4314
2026-01-30 00:51:20.33	34.43	9.44	-27.0	-28.6	14.7	0.00e+00	0	42	0	191889408	14	4329
2026-01-30 00:51:23.34	34.77	9.64	-26.8	-28.1	15.0	0.00e+00	0	42	0	208666624	14	4201
2026-01-30 00:51:26.34	35.11	9.84	-26.5	-27.5	15.4	0.00e+00	0	42	0	225443840	14	4028
2026-01-30 00:51:29.36	35.45	10.04	-26.4	-27.6	15.6	5.70e-06	0	42	0	242221056	13	4173
2026-01-30 00:51:32.37	35.80	10.24	-26.3	-28.0	15.7	0.00e+00	0	42	0	258998272	12	4384
2026-01-30 00:51:35.38	36.16	10.44	-26.6	-28.3	15.3	0.00e+00	0	42	0	275775488	13	4341
2026-01-30 00:51:38.40	36.52	10.64	-26.4	-27.7	15.6	0.00e+00	0	42	0	293601280	13	4177
2026-01-30 00:51:41.41	36.88	10.85	-26.4	-27.7	15.6	5.14e-05	0	43	0	310378496	13	4190
2026-01-30 00:51:44.43	37.25	11.05	-26.4	-27.8	15.5	3.08e-05	0	43	0	327155712	13	4203
2026-01-30 00:51:47.44	37.62	11.26	-26.6	-28.3	15.3	1.02e-05	0	43	0	343932928	13	4345
2026-01-30 00:51:50.44	38.00	11.46	-26.4	-27.8	15.6	1.10e-06	0	43	0	360710144	13	4228
2026-01-30 00:51:53.45	38.38	11.66	-26.3	-27.4	15.8	0.00e+00	0	43	0	378535936	13	4115
2026-01-30 00:51:56.45	38.77	11.87	-26.3	-27.6	15.8	0.00e+00	0	43	0	395313152	13	4149
2026-01-30 00:51:59.46	39.16	12.08	-26.4	-27.8	15.6	1.18e-04	0	43	0	412090368	13	4203
2026-01-30 00:52:02.46	39.56	12.28	-26.6	-28.3	15.4	5.72e-05	0	43	0	428867584	13	4340
2026-01-30 00:52:05.48	39.96	12.49	-26.1	-26.9	16.1	0.00e+00	0	43	0	445644800	13	3989
2026-01-30 00:52:08.50	40.37	12.70	-25.9	-26.5	16.4	0.00e+00	0	43	0	462422016	13	3886
2026-01-30 00:52:11.50	40.79	12.91	-25.8	-27.0	16.4	1.54e-04	0	43	0	479199232	12	4103
2026-01-30 00:52:14.51	41.21	13.12	-25.8	-26.9	16.5	0.00e+00	0	43	0	495976448	12	4082
2026-01-30 00:52:17.51	41.63	13.32	-25.9	-27.1	16.3	0.00e+00	0	43	0	513802240	12	4140
2026-01-30 00:52:20.51	42.07	13.53	-25.8	-26.8	16.5	0.00e+00	0	43	0	530579456	12	4058
2026-01-30 00:52:23.53	42.51	13.74	-25.9	-27.0	16.4	0.00e+00	0	43	0	547356672	12	4116
2026-01-30 00:52:26.54	42.95	13.95	-25.7	-26.7	16.6	0.00e+00	0	43	0	564133888	12	4030
2026-01-30 00:52:29.55	43.40	14.17	-25.8	-26.8	16.6	0.00e+00	0	43	0	580911104	12	4060
2026-01-30 00:52:32.56	43.86	14.38	-25.8	-27.5	16.6	0.00e+00	0	43	0	597688320	11	4342
2026-01-30 00:52:35.57	44.32	14.59	-25.9	-27.6	16.5	0.00e+00	0	43	0	614465536	11	4370
2026-01-30 00:52:38.57	44.79	14.80	-25.4	-26.1	17.0	0.00e+00	0	43	0	631242752	12	3886
2026-01-30 00:52:41.59	45.27	15.01	-25.4	-26.5	17.1	0.00e+00	0	43	0	649068544	11	4085
2026-01-30 00:52:44.61	45.75	15.22	-25.5	-26.6	17.1	0.00e+00	0	43	0	665845760	11	4109
2026-01-30 00:52:47.62	46.24	15.43	-25.4	-26.5	17.2	0.00e+00	0	43	0	682622976	11	4091
2026-01-30 00:52:50.62	46.74	15.64	-25.5	-26.7	17.1	0.00e+00	0	43	0	699400192	11	4122
2026-01-30 00:52:53.63	47.24	15.85	-25.5	-26.7	17.1	0.00e+00	0	43	0	716177408	11	4135
2026-01-30 00:52:56.66	47.76	16.07	-25.5	-26.6	17.1	0.00e+00	0	43	0	734003200	11	4112
2026-01-30 00:52:59.66	48.27	16.28	-25.2	-26.0	17.4	0.00e+00	0	43	0	750780416	11	3958
2026-01-30 00:53:02.67	48.80	16.49	-25.2	-26.0	17.5	0.00e+00	0	43	0	767557632	11	3954
2026-01-30 00:53:05.69	49.33	16.70	-25.3	-26.3	17.3	0.00e+00	0	43	0	784334848	11	4023
2026-01-30 00:53:08.70	49.87	16.90	-25.3	-26.3	17.3	0.00e+00	0	43	0	801112064	11	4042
2026-01-30 00:53:11.71	50.41	17.11	-25.5	-26.6	17.2	0.00e+00	0	43	0	817889280	11	4105
2026-01-30 00:53:14.72	50.97	17.32	-25.0	-25.6	17.7	0.00e+00	0	43	0	834666496	11	3864
2026-01-30 00:53:17.73	51.53	17.53	-25.1	-26.4	17.6	4.57e-04	0	43	0	851443712	10	4163
2026-01-30 00:53:20.73	52.10	17.73	-24.9	-25.8	17.9	0.00e+00	0	43	0	869269504	10	4017
2026-01-30 00:53:23.74	52.67	17.94	-24.9	-26.5	17.7	5.98e-04	0	43	0	886046720	9	4312
2026-01-30 00:53:26.76	53.26	18.14	-25.2	-26.5	17.5	2.66e-04	0	43	0	902823936	10	4194
2026-01-30 00:53:29.77	53.85	18.34	-25.0	-26.2	17.7	7.20e-05	0	43	0	919601152	10	4103
2026-01-30 00:53:32.79	54.45	18.55	-24.9	-25.8	17.9	1.76e-04	0	43	0	936378368	10	4017
2026-01-30 00:53:35.80	55.06	18.74	-24.8	-25.6	18.0	1.81e-04	0	43	0	954204160	10	3969
2026-01-30 00:53:38.81	55.67	18.94	-25.0	-26.1	17.7	8.12e-05	0	43	0	970981376	10	4083
2026-01-30 00:53:41.81	56.29	19.14	-24.7	-25.5	18.1	0.00e+00	0	43	0	987758592	10	3938
2026-01-30 00:53:44.82	56.93	19.33	-24.4	-24.8	18.5	2.63e-04	0	43	0	1004535808	10	3761
2026-01-30 00:53:47.84	57.57	19.53	-24.7	-26.0	18.1	2.48e-04	0	43	0	1021313024	9	4168
2026-01-30 00:53:50.84	58.21	19.72	-24.7	-26.0	18.1	2.87e-04	0	43	0	1038090240	9	4164
2026-01-30 00:53:53.85	58.87	19.91	-24.9	-26.4	17.9	0.00e+00	0	43	0	1054867456	9	4282
2026-01-30 00:53:56.86	59.53	20.09	-24.7	-25.5	18.1	8.23e-05	0	43	0	1072693248	10	3929
2026-01-30 00:53:59.87	60.20	20.28	-24.8	-25.7	18.0	2.40e-05	0	43	0	1089470464	10	3992
2026-01-30 00:54:02.88	60.88	20.46	-24.6	-25.3	18.3	0.00e+00	0	43	0	1106247680	10	3895
2026-01-30 00:54:05.88	61.56	20.64	-24.3	-24.7	18.5	0.00e+00	0	43	0	1123024896	10	3757
2026-01-30 00:54:08.89	62.25	20.81	-24.1	-24.7	18.9	0.00e+00	0	43	0	1139802112	9	3848
2026-01-30 00:54:11.91	62.96	20.99	-24.1	-24.8	18.8	0.00e+00	0	44	0	1156579328	9	3872
2026-01-30 00:54:14.91	63.67	21.16	-24.2	-25.0	18.7	0.00e+00	0	43	0	1173356544	9	3926
2026-01-30 00:54:17.91	64.38	21.32	-24.1	-25.2	18.8	0.00e+00	0	43	0	1190133760	8	4095
2026-01-30 00:54:20.91	65.10	21.48	-24.0	-25.1	18.9	0.00e+00	0	43	0	1207959552	8	4050
2026-01-30 00:54:23.92	65.83	21.64	-24.2	-25.3	18.8	0.00e+00	0	43	0	1224736768	8	4116
2026-01-30 00:54:26.93	66.57	21.80	-24.3	-25.6	18.6	0.00e+00	0	43	0	1241513984	8	4193
2026-01-30 00:54:29.95	67.32	21.95	-24.0	-25.0	18.9	0.00e+00	0	43	0	1258291200	8	4029
2026-01-30 00:54:32.96	68.08	22.10	-24.1	-25.2	18.8	0.00e+00	0	43	0	1275068416	8	4091
2026-01-30 00:54:35.98	68.84	22.24	-24.2	-25.4	18.7	0.00e+00	0	43	0	1291845632	8	4145
2026-01-30 00:54:38.99	69.61	22.38	-23.9	-24.8	19.0	0.00e+00	0	44	0	1308622848	8	3997
2026-01-30 00:54:42.00	70.38	22.52	-24.0	-25.0	18.9	0.00e+00	0	44	0	1326448640	8	4045
2026-01-30 00:54:45.00	71.16	22.65	-24.0	-25.0	19.0	0.00e+00	0	43	0	1343225856	8	4028
2026-01-30 00:54:48.00	71.95	22.77	-24.0	-25.1	18.7	0.00e+00	0	44	0	1360003072	8	4088
2026-01-30 00:54:51.00	72.74	22.89	-23.7	-24.5	19.0	0.00e+00	0	43	0	1376780288	8	3933
2026-01-30 00:54:54.01	73.54	23.01	-23.8	-24.7	18.9	0.00e+00	0	44	0	1393557504	8	3988
2026-01-30 00:54:57.02	74.34	23.12	-23.8	-24.7	18.9	0.00e+00	0	43	0	1410334720	8	3992
2026-01-30 00:55:00.03	75.15	23.23	-23.6	-24.2	19.2	0.00e+00	0	43	0	1427111936	8	3853
2026-01-30 00:55:03.04	75.97	23.33	-23.5	-24.0	19.3	0.00e+00	0	43	0	1443889152	8	3819
2026-01-30 00:55:06.05	76.79	23.42	-23.5	-24.0	19.3	0.00e+00	0	43	0	1461714944	8	3816
2026-01-30 00:55:09.06	77.61	23.51	-23.4	-23.9	19.4	0.00e+00	0	43	0	1478492160	8	3780
2026-01-30 00:55:12.08	78.45	23.59	-23.6	-24.3	19.1	0.00e+00	0	44	0	1495269376	8	3880
2026-01-30 00:55:15.09	79.28	23.67	-23.6	-24.2	19.2	0.00e+00	0	44	0	1512046592	8	3853
2026-01-30 00:55:18.10	80.12	23.74	-23.8	-24.7	18.9	0.00e+00	0	43	0	1528823808	8	3988
2026-01-30 00:55:21.11	80.96	23.80	-23.6	-24.3	19.1	0.00e+00	0	43	0	1545601024	8	3889
2026-01-30 00:55:24.11	81.81	23.86	-23.6	-24.3	19.1	0.00e+00	0	43	0	1563426816	8	3876
2026-01-30 00:55:27.11	82.65	23.91	-23.7	-24.5	19.0	0.00e+00	0	43	0	1580204032	8	3929
2026-01-30 00:55:30.13	83.50	23.96	-23.7	-24.5	19.0	0.00e+00	0	43	0	1596981248	8	3942
2026-01-30 00:55:33.12	84.35	24.00	-23.4	-23.9	19.3	0.00e+00	0	43	0	1613758464	8	3780
2026-01-30 00:55:36.12	85.20	24.03	-23.6	-24.3	19.1	0.00e+00	0	44	0	1630535680	8	3881
2026-01-30 00:55:39.12	86.06	24.05	-23.5	-24.1	19.2	0.00e+00	0	44	0	1647312896	8	3838
2026-01-30 00:55:42.13	86.92	24.07	-23.4	-23.8	19.3	0.00e+00	0	44	0	1664090112	8	3766
2026-01-30 00:55:45.14	87.78	24.09	-23.2	-24.0	19.4	0.00e+00	0	43	0	1680867328	7	3919
2026-01-30 00:55:48.14	88.63	24.09	-23.3	-24.1	19.4	0.00e+00	0	43	0	1698693120	7	3951
2026-01-30 00:55:51.14	89.49	24.09	-23.3	-24.1	19.4	0.00e+00	0	43	0	1715470336	7	3954
2026-01-30 00:55:54.14	90.35	24.09	-23.3	-24.0	19.4	0.00e+00	0	43	0	1731198976	7	3932
2026-01-30 00:55:57.15	91.21	24.07	-23.3	-24.1	19.4	0.00e+00	0	43	0	1749024768	7	3953
2026-01-30 00:56:00.16	92.06	24.05	-23.4	-24.4	19.2	0.00e+00	0	43	0	1765801984	7	4022
2026-01-30 00:56:03.17	92.92	24.03	-23.3	-24.2	19.3	0.00e+00	0	44	0	1782579200	7	3965
2026-01-30 00:56:06.18	93.78	23.99	-23.3	-24.0	19.4	0.00e+00	0	44	0	1799356416	7	3926
2026-01-30 00:56:09.19	94.63	23.95	-23.3	-24.1	19.3	0.00e+00	0	44	0	1816133632	7	3955
2026-01-30 00:56:12.21	95.49	23.91	-23.3	-24.0	19.4	0.00e+00	0	43	0	1833959424	7	3926
2026-01-30 00:56:15.21	96.33	23.85	-23.4	-24.4	19.2	0.00e+00	0	43	0	1850736640	7	4020
2026-01-30 00:56:18.22	97.18	23.80	-23.4	-24.2	19.3	0.00e+00	0	43	0	1867513856	7	3977
2026-01-30 00:56:21.23	98.02	23.73	-23.4	-24.3	19.2	0.00e+00	0	43	0	1884291072	7	4000
2026-01-30 00:56:24.23	98.86	23.66	-23.5	-24.5	19.1	0.00e+00	0	44	0	1901068288	7	4050
2026-01-30 00:56:27.25	99.70	23.58	-23.7	-25.0	18.9	0.00e+00	0	44	0	1917845504	7	4162
2026-01-30 00:56:30.26	100.53	23.50	-23.9	-25.0	18.7	0.00e+00	0	44	0	1934622720	8	4051
2026-01-30 00:56:33.27	101.35	23.41	-23.7	-24.5	18.9	1.10e-06	0	44	0	1952448512	8	3940
2026-01-30 00:56:36.28	102.18	23.32	-23.5	-24.0	19.1	1.10e-06	0	43	0	1969225728	8	3825
2026-01-30 00:56:39.29	102.99	23.22	-23.5	-24.0	19.1	0.00e+00	0	44	0	1986002944	8	3815
2026-01-30 00:56:42.29	103.80	23.11	-23.7	-24.5	18.8	0.00e+00	0	44	0	2002780160	8	3948
2026-01-30 00:56:45.30	104.61	23.00	-23.7	-24.5	18.8	0.00e+00	0	44	0	2019557376	8	3939
2026-01-30 00:56:48.31	105.41	22.88	-23.7	-24.5	18.8	0.00e+00	0	44	0	2036334592	8	3932
2026-01-30 00:56:51.31	106.20	22.76	-23.7	-24.4	18.9	0.00e+00	0	44	0	2053111808	8	3903
2026-01-30 00:56:54.32	106.99	22.63	-23.7	-24.4	18.9	0.00e+00	0	44	0	2069889024	8	3924
2026-01-30 00:56:57.34	107.78	22.50	-23.8	-24.7	18.7	0.00e+00	0	44	0	2087714816	8	4000
2026-01-30 00:57:00.35	108.55	22.37	-24.0	-25.1	18.5	0.00e+00	0	44	0	2104492032	8	4087
2026-01-30 00:57:03.37	109.33	22.23	-24.1	-25.3	18.4	0.00e+00	0	44	0	2121269248	8	4133
2026-01-30 00:57:06.38	110.09	22.08	-24.2	-25.5	18.3	0.00e+00	0	44	0	2138046464	8	4188
2026-01-30 00:57:09.39	110.84	21.93	-24.1	-25.3	18.4	0.00e+00	0	43	0	2154823680	8	4142
2026-01-30 00:57:12.39	111.59	21.78	-23.9	-25.0	18.6	2.24e-04	0	44	0	2172649472	8	4058
2026-01-30 00:57:15.41	112.33	21.62	-24.0	-25.1	18.4	7.43e-05	0	44	0	2189426688	8	4094
2026-01-30 00:57:18.42	113.07	21.46	-24.1	-25.3	18.3	5.14e-05	0	44	0	2206203904	8	4144
2026-01-30 00:57:21.42	113.79	21.30	-24.1	-25.4	18.3	0.00e+00	0	44	0	2222981120	8	4167
2026-01-30 00:57:24.43	114.51	21.13	-24.0	-25.0	18.5	2.47e-04	0	44	0	2239758336	8	4067
2026-01-30 00:57:27.45	115.22	20.96	-24.1	-25.3	18.3	5.03e-05	0	44	0	2256535552	8	4135
2026-01-30 00:57:30.46	115.93	20.78	-24.4	-26.0	17.9	0.00e+00	0	44	0	2273312768	8	4323
2026-01-30 00:57:33.45	116.62	20.61	-24.5	-25.8	17.8	0.00e+00	0	43	0	2290089984	9	4167
2026-01-30 00:57:36.47	117.31	20.42	-24.5	-25.6	17.9	0.00e+00	0	44	0	2307915776	9	4109
2026-01-30 00:57:39.48	117.99	20.24	-24.4	-25.5	17.9	5.70e-06	0	44	0	2324692992	9	4089
2026-01-30 00:57:42.49	118.66	20.06	-24.3	-25.4	18.0	0.00e+00	0	44	0	2341470208	9	4045
2026-01-30 00:57:45.49	119.32	19.87	-24.5	-25.6	17.9	1.80e-04	0	44	0	2358247424	9	4102
2026-01-30 00:57:48.50	119.98	19.68	-24.4	-25.6	17.9	7.55e-05	0	44	0	2375024640	9	4093
2026-01-30 00:57:51.51	120.63	19.49	-24.5	-25.6	17.9	0.00e+00	0	44	0	2391801856	9	4102
2026-01-30 00:57:54.52	121.27	19.29	-24.7	-26.1	17.6	0.00e+00	0	44	0	2408579072	9	4231
2026-01-30 00:57:57.54	121.90	19.09	-24.8	-26.3	17.5	4.50e-06	0	44	0	2425356288	9	4275
2026-01-30 00:58:00.55	122.53	18.90	-24.9	-26.5	17.4	0.00e+00	0	44	0	2443182080	9	4342
2026-01-30 00:58:03.56	123.14	18.70	-25.2	-26.6	17.0	0.00e+00	0	43	0	2459959296	10	4268
2026-01-30 00:58:06.56	123.75	18.49	-24.8	-25.8	17.5	0.00e+00	0	44	0	2476736512	10	4044
2026-01-30 00:58:09.57	124.35	18.29	-24.9	-26.0	17.3	0.00e+00	0	44	0	2493513728	10	4101
2026-01-30 00:58:12.57	124.94	18.09	-24.8	-25.9	17.4	0.00e+00	0	44	0	2510290944	10	4079
2026-01-30 00:58:15.58	125.53	17.88	-24.7	-25.6	17.5	0.00e+00	0	44	0	2527068160	10	4009
2026-01-30 00:58:18.59	126.10	17.68	-24.7	-25.7	17.5	0.00e+00	0	44	0	2543845376	10	4021
2026-01-30 00:58:21.59	126.67	17.47	-25.1	-26.6	17.0	0.00e+00	0	44	0	2561671168	10	4250
2026-01-30 00:58:24.60	127.23	17.26	-25.4	-27.2	16.7	0.00e+00	0	44	0	2578448384	10	4412
2026-01-30 00:58:27.61	127.79	17.05	-25.1	-26.5	17.0	0.00e+00	0	44	0	2595225600	10	4241
2026-01-30 00:58:30.63	128.34	16.84	-25.2	-26.8	16.8	0.00e+00	0	44	0	2612002816	10	4317
2026-01-30 00:58:33.65	128.88	16.63	-25.3	-27.0	16.7	0.00e+00	0	44	0	2628780032	10	4360
2026-01-30 00:58:36.66	129.41	16.42	-25.3	-26.8	16.8	0.00e+00	0	44	0	2645557248	10	4308
2026-01-30 00:58:39.65	129.94	16.21	-25.3	-27.0	16.7	0.00e+00	0	44	0	2663383040	10	4360
2026-01-30 00:58:42.67	130.46	16.00	-25.3	-27.0	16.7	0.00e+00	0	44	0	2680160256	10	4373
2026-01-30 00:58:45.67	130.96	15.78	-25.4	-27.2	16.6	0.00e+00	0	44	0	2696937472	10	4414
2026-01-30 00:58:48.68	131.47	15.57	-25.6	-27.1	16.4	0.00e+00	0	43	0	2713714688	11	4272
2026-01-30 00:58:51.70	131.97	15.36	-25.6	-27.2	16.2	0.00e+00	0	44	0	2730491904	11	4299
2026-01-30 00:58:54.71	132.46	15.14	-25.5	-26.9	16.4	0.00e+00	0	44	0	2747269120	11	4215
2026-01-30 00:58:57.73	132.94	14.93	-25.8	-27.4	16.1	0.00e+00	0	43	0	2764046336	11	4371
2026-01-30 00:59:00.72	133.42	14.72	-25.6	-27.2	16.2	0.00e+00	0	43	0	2780823552	11	4311
2026-01-30 00:59:03.73	133.89	14.51	-25.9	-27.8	15.8	3.29e-04	0	44	0	2798649344	11	4487
2026-01-30 00:59:06.75	134.35	14.29	-25.9	-27.9	15.6	0.00e+00	0	44	0	2815426560	11	4529
2026-01-30 00:59:09.75	134.81	14.08	-25.9	-27.9	15.7	0.00e+00	0	44	0	2832203776	11	4514
2026-01-30 00:59:12.77	135.26	13.87	-26.4	-28.3	15.1	3.50e-04	0	44	0	2848980992	12	4512
2026-01-30 00:59:15.77	135.71	13.66	-25.9	-27.4	15.6	2.06e-04	0	44	0	2865758208	12	4270
2026-01-30 00:59:18.78	136.15	13.44	-26.0	-27.5	15.5	0.00e+00	0	44	0	2882535424	12	4291
2026-01-30 00:59:21.80	136.58	13.23	-26.0	-27.6	15.5	2.77e-04	0	43	0	2900361216	12	4300
2026-01-30 00:59:24.81	137.01	13.02	-25.9	-27.3	15.6	2.68e-04	0	44	0	2917138432	12	4248
2026-01-30 00:59:27.82	137.43	12.81	-26.0	-27.5	15.5	1.35e-04	0	44	0	2933915648	12	4309
2026-01-30 00:59:30.83	137.84	12.60	-26.1	-27.7	15.4	1.82e-04	0	44	0	2950692864	12	4332
2026-01-30 00:59:33.85	138.25	12.39	-26.3	-28.2	15.2	2.67e-04	0	44	0	2967470080	12	4473
2026-01-30 00:59:36.85	138.66	12.18	-26.2	-28.0	15.3	1.18e-04	0	44	0	2984247296	12	4416
2026-01-30 00:59:39.86	139.06	11.97	-26.2	-28.1	15.2	0.00e+00	0	44	0	3002073088	12	4455
2026-01-30 00:59:42.86	139.45	11.76	-26.3	-28.1	15.1	6.98e-05	0	44	0	3018850304	12	4468
2026-01-30 00:59:45.87	139.84	11.56	-26.2	-27.9	15.3	5.42e-04	0	43	0	3035627520	12	4399
2026-01-30 00:59:48.88	140.22	11.35	-26.1	-27.9	15.2	0.00e+00	0	44	0	3052404736	12	4382
2026-01-30 00:59:51.89	140.60	11.14	-26.2	-28.1	15.1	0.00e+00	0	44	0	3069181952	12	4443
2026-01-30 00:59:54.89	140.97	10.94	-26.3	-28.2	15.0	1.10e-06	0	44	0	3085959168	12	4483
2026-01-30 00:59:57.91	141.34	10.73	-26.4	-28.6	14.7	0.00e+00	0	44	0	3102736384	12	4605
2026-01-30 01:00:00.92	141.70	10.53	-26.6	-28.5	14.4	1.10e-06	0	44	0	3119513600	13	4474
2026-01-30 01:00:03.92	142.05	10.33	-26.6	-28.3	14.5	0.00e+00	0	44	0	3137339392	13	4424
2026-01-30 01:00:06.93	142.41	10.12	-26.8	-28.8	14.1	1.10e-06	0	44	0	3154116608	13	4567
2026-01-30 01:00:09.95	142.76	9.92	-26.9	-29.2	13.9	1.10e-06	0	44	0	3170893824	13	4678
2026-01-30 01:00:12.96	143.10	9.72	-26.9	-28.7	13.9	4.50e-06	0	44	0	3187671040	14	4434
2026-01-30 01:00:15.97	143.44	9.52	-26.8	-29.1	13.9	1.10e-06	0	44	0	3204448256	13	4678
2026-01-30 01:00:18.99	143.77	9.32	-26.9	-29.3	13.7	4.50e-06	0	44	0	3221225472	13	4754
2026-01-30 01:00:22.00	144.10	9.12	-27.0	-29.5	13.5	6.80e-06	0	44	0	3239051264	13	4831
2026-01-30 01:00:25.01	144.43	8.92	-26.9	-29.4	13.6	2.20e-06	0	44	0	3255828480	13	4798
2026-01-30 01:00:28.03	144.75	8.72	-26.9	-29.0	13.5	4.50e-06	0	44	0	3272605696	14	4568
2026-01-30 01:00:31.05	145.07	8.52	-26.9	-29.3	13.6	1.10e-06	0	44	0	3289382912	13	4783
2026-01-30 01:00:34.07	145.39	8.33	-26.9	-29.5	13.4	9.10e-06	0	44	0	3306160128	13	4866
2026-01-30 01:00:37.08	145.69	8.13	-27.1	-29.4	13.2	2.05e-05	0	44	0	3322937344	14	4716
2026-01-30 01:00:40.09	146.00	7.94	-27.1	-29.5	13.2	4.11e-05	0	44	0	3340763136	14	4719
2026-01-30 01:00:43.10	146.30	7.74	-27.2	-29.7	13.1	1.48e-05	0	44	0	3357540352	14	4795
2026-01-30 01:00:46.11	146.60	7.55	-26.9	-29.2	13.3	1.37e-05	0	44	0	3374317568	14	4689
2026-01-30 01:00:49.12	146.89	7.36	-26.8	-29.9	13.0	1.28e-04	0	44	0	3391094784	13	5104
2026-01-30 01:00:52.13	147.18	7.17	-26.8	-29.7	13.0	9.15e-05	0	44	0	3407872000	13	5065
2026-01-30 01:00:55.13	147.47	6.98	-33.6	-44.8	3.8	8.46e-01	0	44	104	3415212032	27	13085

#Closed at: 2026-01-30 01:00:57
#Recorded file [3415 MB]: D:/data/31010_260130_035046.dat