passes_logs/2026/01/30/R2M6_AANII_01/R2M6_AANII_01__20260130_041111_FENGYUN_3D_rec.log

#Pass ID: 20260130_041111_FENGYUN 3D
#Satellite: FENGYUN 3D
#Configuration: FENGYUN 3D
#almurnet v.1.7.20240730
#Start time: 2026-01-30 04:11:11

#Version: 2.2.20231116
#Station: R2M6_AANII_01
#Location: 30.233357 lon 59.946436 lat
#TLE: 1 43010U 17072A   26028.95797775  .00000451  00000+0  23492-3 0  9991
#TLE: 2 43010  98.9958   0.9922 0002505  85.7480 274.3981 14.19703224425237

#Time	Az	El	Level	Level2	SNR	BER	BlckErr	Temp	State	Recorded	gain1	gain2
2026-01-30 04:11:11.08	11.67	6.95	-30.8	-34.0	5.1	7.98e-01	0	41	0	0	23	5182
2026-01-30 04:11:14.08	11.42	7.15	-30.1	-33.2	9.8	1.49e-02	0	41	0	5242880	20	5181
2026-01-30 04:11:17.10	11.17	7.35	-30.1	-33.3	9.7	1.52e-02	0	41	0	22020096	20	5209
2026-01-30 04:11:20.10	10.92	7.55	-30.1	-33.2	9.9	1.02e-02	0	41	0	38797312	20	5161
2026-01-30 04:11:23.10	10.66	7.75	-29.1	-31.1	11.7	1.12e-03	0	41	0	55574528	19	4547
2026-01-30 04:11:26.11	10.40	7.96	-28.1	-29.5	13.3	5.49e-05	0	41	0	73400320	17	4272
2026-01-30 04:11:29.13	10.14	8.16	-27.7	-29.3	13.7	3.40e-06	0	42	0	90177536	16	4302
2026-01-30 04:11:32.14	9.87	8.37	-27.7	-29.1	13.9	5.70e-06	0	41	0	106954752	16	4247
2026-01-30 04:11:35.16	9.59	8.58	-27.7	-29.1	13.9	4.50e-06	0	42	0	123731968	16	4245
2026-01-30 04:11:38.17	9.32	8.79	-27.5	-28.7	14.2	3.40e-06	0	42	0	140509184	16	4128
2026-01-30 04:11:41.19	9.04	9.00	-27.0	-28.6	14.6	0.00e+00	0	42	0	158334976	14	4319
2026-01-30 04:11:44.21	8.75	9.21	-27.0	-28.6	14.7	0.00e+00	0	42	0	175112192	14	4317
2026-01-30 04:11:47.23	8.46	9.42	-26.9	-28.4	14.8	0.00e+00	0	42	0	191889408	14	4277
2026-01-30 04:11:50.24	8.16	9.63	-26.9	-28.4	14.8	0.00e+00	0	42	0	208666624	14	4274
2026-01-30 04:11:53.24	7.87	9.85	-26.9	-28.5	14.8	1.10e-06	0	42	0	225443840	14	4293
2026-01-30 04:11:56.26	7.56	10.06	-27.0	-28.7	14.7	0.00e+00	0	42	0	242221056	14	4350
2026-01-30 04:11:59.27	7.25	10.28	-26.9	-28.5	14.8	0.00e+00	0	42	0	258998272	14	4288
2026-01-30 04:12:02.28	6.94	10.50	-27.0	-28.6	14.7	0.00e+00	0	42	0	275775488	14	4337
2026-01-30 04:12:05.29	6.62	10.71	-26.8	-28.1	15.0	1.10e-06	0	42	0	293601280	14	4187
2026-01-30 04:12:08.30	6.30	10.93	-26.4	-27.3	15.5	0.00e+00	0	42	0	310378496	14	3979
2026-01-30 04:12:11.31	5.97	11.15	-26.4	-27.3	15.5	0.00e+00	0	42	0	327155712	14	3993
2026-01-30 04:12:14.31	5.64	11.37	-26.6	-28.2	15.3	0.00e+00	0	42	0	343932928	13	4320
2026-01-30 04:12:17.32	5.30	11.60	-26.5	-28.0	15.4	0.00e+00	0	42	0	360710144	13	4282
2026-01-30 04:12:20.33	4.96	11.82	-26.5	-27.9	15.5	0.00e+00	0	43	0	377487360	13	4232
2026-01-30 04:12:23.33	4.61	12.04	-26.5	-28.0	15.5	0.00e+00	0	43	0	394264576	13	4260
2026-01-30 04:12:26.33	4.26	12.27	-26.5	-27.9	15.5	0.00e+00	0	43	0	411041792	13	4245
2026-01-30 04:12:29.34	3.90	12.49	-26.3	-27.6	15.7	0.00e+00	0	43	0	428867584	13	4166
2026-01-30 04:12:32.35	3.53	12.72	-26.3	-27.4	15.8	0.00e+00	0	43	0	445644800	13	4110
2026-01-30 04:12:35.35	3.16	12.95	-26.2	-27.3	15.9	0.00e+00	0	43	0	462422016	13	4072
2026-01-30 04:12:38.36	2.79	13.18	-26.3	-27.4	15.8	0.00e+00	0	43	0	479199232	13	4112
2026-01-30 04:12:41.37	2.40	13.41	-26.1	-27.1	16.0	0.00e+00	0	43	0	495976448	13	4018
2026-01-30 04:12:44.37	2.01	13.64	-26.1	-27.1	16.0	0.00e+00	0	43	0	512753664	13	4029
2026-01-30 04:12:47.38	1.62	13.87	-25.9	-26.7	16.3	0.00e+00	0	43	0	529530880	13	3917
2026-01-30 04:12:50.39	1.22	14.10	-25.7	-26.6	16.5	0.00e+00	0	43	0	547356672	12	4018
2026-01-30 04:12:53.41	0.81	14.34	-25.8	-26.8	16.3	0.00e+00	0	43	0	564133888	12	4067
2026-01-30 04:12:56.42	0.39	14.57	-25.7	-26.7	16.5	0.00e+00	0	43	0	580911104	12	4025
2026-01-30 04:12:59.41	359.97	14.80	-25.7	-26.6	16.6	9.72e-05	0	43	0	597688320	12	4012
2026-01-30 04:13:02.42	359.54	15.04	-25.6	-26.5	16.7	0.00e+00	0	43	0	614465536	12	3973
2026-01-30 04:13:05.42	359.11	15.28	-25.6	-26.5	16.7	0.00e+00	0	43	0	631242752	12	3973
2026-01-30 04:13:08.43	358.66	15.51	-25.5	-26.7	16.9	0.00e+00	0	43	0	648019968	11	4148
2026-01-30 04:13:11.45	358.21	15.75	-25.4	-26.6	17.0	2.41e-04	0	43	0	665845760	11	4110
2026-01-30 04:13:14.46	357.75	15.99	-25.5	-26.8	16.9	0.00e+00	0	43	0	682622976	11	4154
2026-01-30 04:13:17.47	357.29	16.23	-25.6	-26.9	16.8	2.54e-04	0	43	0	699400192	11	4200
2026-01-30 04:13:20.48	356.82	16.46	-25.5	-26.7	17.0	2.35e-04	0	43	0	716177408	11	4136
2026-01-30 04:13:23.50	356.33	16.70	-25.5	-27.1	17.0	3.20e-04	0	43	0	732954624	10	4359
2026-01-30 04:13:26.52	355.84	16.94	-25.2	-26.6	17.3	0.00e+00	0	43	0	749731840	10	4214
2026-01-30 04:13:29.53	355.35	17.18	-25.2	-26.5	17.4	3.08e-04	0	43	0	766509056	10	4185
2026-01-30 04:13:32.55	354.84	17.42	-25.1	-26.4	17.4	2.95e-04	0	43	0	784334848	10	4178
2026-01-30 04:13:35.56	354.33	17.66	-25.2	-26.5	17.4	0.00e+00	0	43	0	801112064	10	4195
2026-01-30 04:13:38.57	353.80	17.90	-25.1	-26.3	17.5	0.00e+00	0	43	0	817889280	10	4147
2026-01-30 04:13:41.57	353.28	18.14	-24.9	-26.0	17.6	2.39e-04	0	43	0	834666496	10	4059
2026-01-30 04:13:44.59	352.74	18.38	-24.9	-26.0	17.6	0.00e+00	0	43	0	851443712	10	4067
2026-01-30 04:13:47.59	352.19	18.62	-25.1	-26.4	17.4	0.00e+00	0	43	0	869269504	10	4176
2026-01-30 04:13:50.59	351.64	18.85	-25.1	-26.4	17.5	0.00e+00	0	43	0	886046720	10	4168
2026-01-30 04:13:53.59	351.07	19.09	-25.0	-26.2	17.6	0.00e+00	0	43	0	902823936	10	4105
2026-01-30 04:13:56.61	350.50	19.33	-24.8	-25.6	17.9	0.00e+00	0	43	0	919601152	10	3968
2026-01-30 04:13:59.61	349.92	19.56	-24.6	-25.2	18.1	0.00e+00	0	43	0	936378368	10	3879
2026-01-30 04:14:02.62	349.33	19.80	-24.7	-25.6	17.9	0.00e+00	0	43	0	953155584	10	3961
2026-01-30 04:14:05.62	348.73	20.03	-24.7	-25.6	17.9	0.00e+00	0	43	0	969932800	10	3971
2026-01-30 04:14:08.62	348.12	20.26	-24.7	-25.4	18.0	0.00e+00	0	43	0	986710016	10	3920
2026-01-30 04:14:11.63	347.50	20.49	-24.5	-25.1	18.2	0.00e+00	0	43	0	1003487232	10	3839
2026-01-30 04:14:14.65	346.87	20.72	-24.5	-25.0	18.2	0.00e+00	0	43	0	1021313024	10	3830
2026-01-30 04:14:17.66	346.23	20.95	-24.4	-24.8	18.4	0.00e+00	0	43	0	1038090240	10	3769
2026-01-30 04:14:20.66	345.58	21.18	-24.4	-25.0	18.3	0.00e+00	0	43	0	1054867456	10	3816
2026-01-30 04:14:23.68	344.92	21.40	-24.1	-24.8	18.6	0.00e+00	0	43	0	1071644672	9	3885
2026-01-30 04:14:26.70	344.25	21.62	-24.1	-24.8	18.5	0.00e+00	0	43	0	1088421888	9	3892
2026-01-30 04:14:29.70	343.57	21.84	-24.1	-24.7	18.6	0.00e+00	0	43	0	1105199104	9	3857
2026-01-30 04:14:32.72	342.88	22.06	-24.3	-25.2	18.3	0.00e+00	0	43	0	1123024896	9	3986
2026-01-30 04:14:35.73	342.19	22.28	-24.4	-25.4	18.3	0.00e+00	0	43	0	1139802112	9	4030
2026-01-30 04:14:38.73	341.48	22.49	-24.3	-25.3	18.3	0.00e+00	0	43	0	1156579328	9	3997
2026-01-30 04:14:41.75	340.76	22.70	-24.3	-25.2	18.4	0.00e+00	0	43	0	1173356544	9	3974
2026-01-30 04:14:44.75	340.04	22.90	-23.9	-24.4	18.8	0.00e+00	0	43	0	1190133760	9	3783
2026-01-30 04:14:47.76	339.30	23.10	-23.9	-24.3	18.9	5.14e-05	0	43	0	1206910976	9	3756
2026-01-30 04:14:50.77	338.55	23.30	-23.8	-24.7	18.9	1.14e-04	0	43	0	1223688192	8	3966
2026-01-30 04:14:53.79	337.80	23.50	-23.9	-24.8	18.8	0.00e+00	0	43	0	1241513984	8	4000
2026-01-30 04:14:56.79	337.03	23.69	-23.8	-25.2	18.9	4.65e-04	0	43	0	1258291200	7	4193
2026-01-30 04:14:59.80	336.26	23.87	-23.8	-25.2	18.9	6.27e-04	0	43	0	1275068416	7	4193
2026-01-30 04:15:02.82	335.47	24.06	-23.8	-25.2	18.9	4.73e-04	0	43	0	1291845632	7	4202
2026-01-30 04:15:05.83	334.68	24.24	-23.4	-24.3	19.3	5.31e-04	0	43	0	1308622848	7	3976
2026-01-30 04:15:08.84	333.88	24.41	-23.6	-24.7	19.1	5.49e-04	0	43	0	1325400064	7	4088
2026-01-30 04:15:11.85	333.07	24.58	-24.2	-25.4	18.6	6.46e-04	0	43	0	1343225856	8	4129
2026-01-30 04:15:14.86	332.25	24.74	-24.2	-25.3	18.6	0.00e+00	0	43	0	1360003072	8	4124
2026-01-30 04:15:17.86	331.42	24.89	-23.6	-24.6	19.1	6.28e-04	0	43	0	1376780288	7	4060
2026-01-30 04:15:20.88	330.58	25.05	-23.4	-24.3	19.3	3.66e-04	0	44	0	1393557504	7	3982
2026-01-30 04:15:23.88	329.74	25.19	-23.2	-23.9	19.5	0.00e+00	0	43	0	1410334720	7	3891
2026-01-30 04:15:26.89	328.89	25.33	-23.3	-24.5	19.5	0.00e+00	0	43	0	1427111936	6	4144
2026-01-30 04:15:29.90	328.03	25.46	-23.3	-24.0	19.5	5.37e-05	0	43	0	1443889152	7	3917
2026-01-30 04:15:32.91	327.16	25.59	-23.1	-23.6	19.7	0.00e+00	0	43	0	1460666368	7	3828
2026-01-30 04:15:35.91	326.29	25.71	-23.2	-23.8	19.6	0.00e+00	0	43	0	1478492160	7	3853
2026-01-30 04:15:38.94	325.40	25.82	-23.5	-24.5	19.2	0.00e+00	0	43	0	1495269376	7	4039
2026-01-30 04:15:41.94	324.52	25.93	-23.3	-24.1	19.5	0.00e+00	0	43	0	1512046592	7	3925
2026-01-30 04:15:44.94	323.63	26.03	-23.1	-24.2	19.6	0.00e+00	0	43	0	1528823808	6	4067
2026-01-30 04:15:47.96	322.73	26.12	-23.2	-24.2	19.6	0.00e+00	0	43	0	1545601024	6	4071
2026-01-30 04:15:50.97	321.83	26.20	-23.3	-24.5	19.5	0.00e+00	0	43	0	1562378240	6	4130
2026-01-30 04:15:53.98	320.92	26.28	-23.3	-24.6	19.5	0.00e+00	0	43	0	1580204032	6	4157
2026-01-30 04:15:57.00	320.01	26.35	-23.3	-24.5	19.5	0.00e+00	0	44	0	1596981248	6	4141
2026-01-30 04:16:00.00	319.09	26.41	-23.3	-24.5	19.5	0.00e+00	0	43	0	1613758464	6	4131
2026-01-30 04:16:03.01	318.18	26.46	-23.8	-25.1	19.0	0.00e+00	0	44	0	1630535680	7	4172
2026-01-30 04:16:06.02	317.25	26.50	-23.6	-24.7	19.2	0.00e+00	0	43	0	1647312896	7	4070
2026-01-30 04:16:09.04	316.33	26.54	-23.5	-24.4	19.3	0.00e+00	0	43	0	1664090112	7	4001
2026-01-30 04:16:12.04	315.40	26.57	-23.2	-23.7	19.6	0.00e+00	0	43	0	1680867328	7	3850
2026-01-30 04:16:15.05	314.48	26.59	-23.4	-24.2	19.4	0.00e+00	0	43	0	1698693120	7	3967
2026-01-30 04:16:18.04	313.56	26.60	-23.1	-24.0	19.7	0.00e+00	0	43	0	1715470336	6	4025
2026-01-30 04:16:21.05	312.63	26.60	-23.1	-24.2	19.7	0.00e+00	0	43	0	1732247552	6	4059
2026-01-30 04:16:24.03	311.71	26.60	-23.4	-24.8	19.4	0.00e+00	0	43	0	1749024768	6	4210
2026-01-30 04:16:27.06	310.77	26.59	-23.4	-24.7	19.4	0.00e+00	0	43	0	1765801984	6	4183
2026-01-30 04:16:30.07	309.84	26.57	-23.3	-24.5	19.5	0.00e+00	0	43	0	1782579200	6	4130
2026-01-30 04:16:33.07	308.92	26.54	-22.9	-23.8	19.8	0.00e+00	0	44	0	1799356416	6	3965
2026-01-30 04:16:36.08	308.00	26.50	-22.9	-23.7	19.9	0.00e+00	0	44	0	1816133632	6	3934
2026-01-30 04:16:39.09	307.08	26.45	-23.3	-24.6	19.4	0.00e+00	0	43	0	1833959424	6	4174
2026-01-30 04:16:42.10	306.16	26.40	-23.4	-24.7	19.4	0.00e+00	0	43	0	1850736640	6	4186
2026-01-30 04:16:45.11	305.24	26.34	-23.3	-24.0	19.5	0.00e+00	0	44	0	1867513856	7	3914
2026-01-30 04:16:48.11	304.33	26.27	-23.3	-24.5	19.5	0.00e+00	0	43	0	1884291072	6	4145
2026-01-30 04:16:51.12	303.43	26.19	-23.2	-24.3	19.5	0.00e+00	0	44	0	1901068288	6	4098
2026-01-30 04:16:54.12	302.53	26.11	-22.8	-23.4	20.0	0.00e+00	0	43	0	1917845504	6	3888
2026-01-30 04:16:57.13	301.63	26.01	-23.3	-24.5	19.4	0.00e+00	0	44	0	1934622720	6	4146
2026-01-30 04:17:00.14	300.73	25.91	-23.3	-24.5	19.5	0.00e+00	0	43	0	1952448512	6	4136
2026-01-30 04:17:03.15	299.85	25.81	-23.2	-24.3	19.5	0.00e+00	0	43	0	1969225728	6	4092
2026-01-30 04:17:06.16	298.97	25.69	-22.9	-23.7	19.8	0.00e+00	0	43	0	1986002944	6	3960
2026-01-30 04:17:09.18	298.09	25.57	-22.8	-23.5	20.0	0.00e+00	0	43	0	2002780160	6	3891
2026-01-30 04:17:12.20	297.22	25.44	-23.1	-24.2	19.6	0.00e+00	0	44	0	2019557376	6	4073
2026-01-30 04:17:15.20	296.36	25.31	-23.1	-24.1	19.6	0.00e+00	0	44	0	2036334592	6	4044
2026-01-30 04:17:18.22	295.51	25.17	-23.1	-24.2	19.6	1.10e-06	0	43	0	2053111808	6	4068
2026-01-30 04:17:21.23	294.66	25.02	-23.1	-24.2	19.5	0.00e+00	0	43	0	2070937600	6	4070
2026-01-30 04:17:24.25	293.82	24.87	-23.3	-24.6	19.3	0.00e+00	0	44	0	2087714816	6	4180
2026-01-30 04:17:27.26	292.99	24.71	-23.3	-24.6	19.3	0.00e+00	0	44	0	2104492032	6	4179
2026-01-30 04:17:30.27	292.17	24.55	-23.1	-24.1	19.6	0.00e+00	0	44	0	2121269248	6	4036
2026-01-30 04:17:33.29	291.36	24.38	-22.9	-23.7	19.8	0.00e+00	0	43	0	2138046464	6	3951
2026-01-30 04:17:36.31	290.55	24.20	-22.9	-23.7	19.7	0.00e+00	0	44	0	2154823680	6	3963
2026-01-30 04:17:39.31	289.76	24.03	-23.2	-24.3	19.4	0.00e+00	0	44	0	2172649472	6	4094
2026-01-30 04:17:42.33	288.97	23.84	-23.3	-24.6	19.3	0.00e+00	0	43	0	2189426688	6	4166
2026-01-30 04:17:45.34	288.20	23.66	-23.1	-24.1	19.5	0.00e+00	0	44	0	2206203904	6	4036
2026-01-30 04:17:48.35	287.43	23.46	-23.1	-24.2	19.5	0.00e+00	0	43	0	2222981120	6	4064
2026-01-30 04:17:51.36	286.68	23.27	-23.1	-24.1	19.5	0.00e+00	0	44	0	2239758336	6	4039
2026-01-30 04:17:54.37	285.93	23.07	-23.1	-24.1	19.5	0.00e+00	0	43	0	2256535552	6	4052
2026-01-30 04:17:57.38	285.19	22.86	-23.2	-24.4	19.4	0.00e+00	0	43	0	2273312768	6	4125
2026-01-30 04:18:00.38	284.47	22.66	-23.3	-24.6	19.2	0.00e+00	0	44	0	2290089984	6	4175
2026-01-30 04:18:03.39	283.75	22.45	-23.4	-24.2	19.2	0.00e+00	0	43	0	2307915776	7	3958
2026-01-30 04:18:06.40	283.04	22.23	-23.6	-24.8	18.9	3.55e-04	0	43	0	2324692992	7	4092
2026-01-30 04:18:09.42	282.34	22.02	-23.5	-24.5	19.1	0.00e+00	0	43	0	2341470208	7	4039
2026-01-30 04:18:12.44	281.65	21.80	-23.7	-24.8	18.9	0.00e+00	0	44	0	2358247424	7	4114
2026-01-30 04:18:15.44	280.97	21.58	-23.7	-24.9	18.8	5.81e-04	0	44	0	2375024640	7	4131
2026-01-30 04:18:18.44	280.31	21.36	-23.6	-24.6	19.0	4.26e-04	0	44	0	2392850432	7	4055
2026-01-30 04:18:21.45	279.65	21.13	-23.5	-24.4	19.1	0.00e+00	0	44	0	2409627648	7	3996
2026-01-30 04:18:24.46	279.00	20.90	-23.5	-24.5	19.0	0.00e+00	0	44	0	2426404864	7	4038
2026-01-30 04:18:27.48	278.35	20.67	-23.9	-25.3	18.6	0.00e+00	0	44	0	2443182080	7	4227
2026-01-30 04:18:30.49	277.72	20.44	-24.3	-25.7	18.2	0.00e+00	0	44	0	2459959296	8	4219
2026-01-30 04:18:33.49	277.10	20.21	-24.4	-25.5	18.0	0.00e+00	0	44	0	2476736512	9	4057
2026-01-30 04:18:36.50	276.49	19.98	-24.4	-25.3	18.0	0.00e+00	0	44	0	2493513728	9	4012
2026-01-30 04:18:39.52	275.89	19.74	-24.8	-26.2	17.6	0.00e+00	0	44	0	2510290944	9	4230
2026-01-30 04:18:42.53	275.30	19.51	-24.2	-25.0	18.2	0.00e+00	0	44	0	2528116736	9	3944
2026-01-30 04:18:45.54	274.71	19.27	-24.1	-24.7	18.3	0.00e+00	0	44	0	2544893952	9	3868
2026-01-30 04:18:48.55	274.14	19.03	-24.2	-24.9	18.2	1.25e-04	0	44	0	2561671168	9	3915
2026-01-30 04:18:51.56	273.57	18.80	-24.2	-25.0	18.2	0.00e+00	0	43	0	2578448384	9	3937
2026-01-30 04:18:54.58	273.01	18.56	-24.3	-25.1	18.1	0.00e+00	0	44	0	2595225600	9	3973
2026-01-30 04:18:57.59	272.46	18.32	-24.4	-25.4	17.9	0.00e+00	0	44	0	2613051392	9	4029
2026-01-30 04:19:00.61	271.92	18.08	-24.4	-25.4	17.9	0.00e+00	0	44	0	2629828608	9	4025
2026-01-30 04:19:03.62	271.39	17.84	-24.5	-25.5	17.8	0.00e+00	0	43	0	2646605824	9	4076
2026-01-30 04:19:06.62	270.87	17.60	-24.5	-25.6	17.8	0.00e+00	0	43	0	2663383040	9	4096
2026-01-30 04:19:09.62	270.36	17.36	-24.5	-26.1	17.8	0.00e+00	0	43	0	2680160256	8	4331
2026-01-30 04:19:12.63	269.85	17.12	-24.6	-25.9	17.6	0.00e+00	0	44	0	2696937472	9	4155
2026-01-30 04:19:15.64	269.35	16.88	-24.7	-26.1	17.5	0.00e+00	0	44	0	2713714688	9	4203
2026-01-30 04:19:18.65	268.86	16.64	-24.9	-25.9	17.3	0.00e+00	0	44	0	2730491904	10	4064
2026-01-30 04:19:21.65	268.38	16.40	-24.8	-26.2	17.4	0.00e+00	0	44	0	2748317696	9	4234
2026-01-30 04:19:24.65	267.91	16.16	-24.8	-26.3	17.3	0.00e+00	0	44	0	2765094912	9	4278
2026-01-30 04:19:27.65	267.45	15.92	-24.9	-26.4	17.3	0.00e+00	0	44	0	2781872128	9	4295
2026-01-30 04:19:30.66	266.99	15.69	-24.9	-26.5	17.3	0.00e+00	0	43	0	2798649344	9	4310
2026-01-30 04:19:33.66	266.54	15.45	-25.0	-26.2	17.1	0.00e+00	0	44	0	2815426560	10	4140
2026-01-30 04:19:36.67	266.09	15.21	-25.2	-26.5	17.0	0.00e+00	0	44	0	2832203776	10	4210
2026-01-30 04:19:39.68	265.65	14.97	-25.1	-26.4	17.0	0.00e+00	0	44	0	2848980992	10	4193
2026-01-30 04:19:42.69	265.22	14.74	-25.3	-26.8	16.7	0.00e+00	0	44	0	2865758208	10	4298
2026-01-30 04:19:45.69	264.80	14.50	-25.2	-26.7	16.8	4.20e-04	0	44	0	2883584000	10	4266
2026-01-30 04:19:48.71	264.38	14.27	-25.2	-26.7	16.8	0.00e+00	0	44	0	2900361216	10	4261
2026-01-30 04:19:51.71	263.97	14.03	-25.3	-26.8	16.8	0.00e+00	0	43	0	2917138432	10	4281
2026-01-30 04:19:54.72	263.57	13.80	-25.5	-27.2	16.5	0.00e+00	0	44	0	2933915648	10	4394
2026-01-30 04:19:57.73	263.17	13.57	-25.6	-26.9	16.4	6.72e-04	0	44	0	2950692864	11	4207
2026-01-30 04:20:00.74	262.78	13.34	-25.5	-26.8	16.4	0.00e+00	0	44	0	2967470080	11	4181
2026-01-30 04:20:03.75	262.39	13.11	-25.8	-27.4	16.0	0.00e+00	0	44	0	2984247296	11	4352
2026-01-30 04:20:06.76	262.02	12.88	-26.0	-27.5	15.6	7.01e-04	0	44	0	3002073088	12	4261
2026-01-30 04:20:09.77	261.64	12.65	-25.9	-27.6	15.9	7.15e-04	0	44	0	3018850304	11	4390
2026-01-30 04:20:12.77	261.28	12.42	-26.3	-28.0	15.3	9.27e-04	0	44	0	3035627520	12	4399
2026-01-30 04:20:15.77	260.92	12.19	-26.0	-27.4	15.7	1.07e-03	0	44	0	3052404736	12	4236
2026-01-30 04:20:18.78	260.56	11.97	-26.2	-27.8	15.4	1.00e-03	0	44	0	3069181952	12	4348
2026-01-30 04:20:21.79	260.21	11.74	-25.9	-27.7	15.8	8.23e-04	0	44	0	3085959168	11	4417
2026-01-30 04:20:24.80	259.86	11.52	-26.0	-27.5	15.6	0.00e+00	0	44	0	3102736384	12	4260
2026-01-30 04:20:27.81	259.52	11.30	-26.0	-27.4	15.6	0.00e+00	0	44	0	3119513600	12	4248
2026-01-30 04:20:30.82	259.19	11.08	-26.1	-27.6	15.5	1.02e-05	0	44	0	3137339392	12	4284
2026-01-30 04:20:33.84	258.86	10.85	-25.8	-27.0	15.8	0.00e+00	0	44	0	3154116608	12	4142
2026-01-30 04:20:36.85	258.54	10.63	-26.0	-27.4	15.5	0.00e+00	0	43	0	3170893824	12	4247
2026-01-30 04:20:39.86	258.22	10.42	-26.2	-27.9	15.3	2.30e-04	0	44	0	3187671040	12	4366
2026-01-30 04:20:42.86	257.90	10.20	-26.2	-27.9	15.2	1.10e-06	0	43	0	3204448256	12	4381
2026-01-30 04:20:45.87	257.59	9.98	-26.2	-27.9	15.2	0.00e+00	0	44	0	3221225472	12	4368
2026-01-30 04:20:48.89	257.29	9.77	-26.2	-28.0	15.1	0.00e+00	0	44	0	3239051264	12	4394
2026-01-30 04:20:51.89	256.99	9.55	-26.3	-28.2	15.0	0.00e+00	0	44	0	3255828480	12	4471
2026-01-30 04:20:54.91	256.69	9.34	-26.4	-27.9	14.9	0.00e+00	0	44	0	3272605696	13	4268
2026-01-30 04:20:57.92	256.40	9.13	-26.4	-27.9	14.8	0.00e+00	0	44	0	3289382912	13	4265
2026-01-30 04:21:00.92	256.11	8.92	-26.4	-27.9	14.8	0.00e+00	0	44	0	3306160128	13	4262
2026-01-30 04:21:03.93	255.83	8.71	-26.4	-28.5	14.7	2.20e-06	0	44	0	3322937344	12	4550
2026-01-30 04:21:06.94	255.55	8.50	-26.8	-28.8	14.2	0.00e+00	0	44	0	3339714560	13	4526
2026-01-30 04:21:09.95	255.27	8.29	-26.6	-28.5	14.4	2.20e-06	0	44	0	3357540352	13	4438
2026-01-30 04:21:12.96	255.00	8.08	-26.7	-28.5	14.4	1.10e-06	0	44	0	3374317568	13	4453
2026-01-30 04:21:15.97	254.74	7.88	-26.7	-28.7	14.2	6.80e-06	0	44	0	3391094784	13	4509
2026-01-30 04:21:18.98	254.47	7.67	-26.7	-28.5	14.3	1.10e-06	0	44	0	3407872000	13	4451
2026-01-30 04:21:21.98	254.22	7.47	-26.6	-28.4	14.3	1.10e-06	0	44	0	3424649216	13	4430
2026-01-30 04:21:25.00	253.96	7.27	-26.7	-28.5	14.3	2.20e-06	0	44	0	3441426432	13	4463
2026-01-30 04:21:28.02	253.71	7.06	-33.0	-44.1	3.8	8.46e-01	0	44	104	3455057920	25	13063

#Closed at: 2026-01-30 04:21:30
#Recorded file [3455 MB]: D:/data/31010_260130_071112.dat