passes_logs/2026/01/30/R2M6_AANII_01/R2M6_AANII_01__20260130_010430_NOAA_21_JPSS-2_rec.log

#Pass ID: 20260130_010430_NOAA 21 (JPSS-2)
#Satellite: NOAA 21 (JPSS-2)
#Configuration: NOAA 21
#almurnet v.1.7.20240730
#Start time: 2026-01-30 01:04:32

#Version: 2.2.20231116
#Station: R2M6_AANII_01
#Location: 30.233357 lon 59.946436 lat
#TLE: 1 54234U 22150A   26028.89828222  .00000145  00000+0  89569-4 0  9997
#TLE: 2 54234  98.7511 329.6308 0000927 198.8651 161.2491 14.19540676166783

#Time	Az	El	Level	Level2	SNR	BER	BlckErr	Temp	State	Recorded	gain1	gain2
2026-01-30 01:04:32.10	14.63	7.14	-31.1	-36.2	4.6	1.41e+00	0	42	0	0	22	6435
2026-01-30 01:04:35.11	14.52	7.37	-31.4	-36.4	7.8	7.47e-02	0	42	0	3145728	22	6357
2026-01-30 01:04:38.13	14.41	7.60	-30.7	-34.5	9.5	1.80e-02	0	42	0	12582912	21	5556
2026-01-30 01:04:41.14	14.30	7.83	-30.5	-34.3	10.1	6.34e-03	0	42	0	22020096	20	5574
2026-01-30 01:04:44.15	14.19	8.07	-30.5	-33.8	10.1	8.08e-03	0	42	0	31457280	21	5286
2026-01-30 01:04:47.15	14.07	8.30	-29.6	-32.4	11.8	5.60e-04	0	42	0	40894464	19	4941
2026-01-30 01:04:50.17	13.96	8.54	-29.0	-31.3	12.9	4.50e-05	0	42	0	49283072	18	4675
2026-01-30 01:04:53.18	13.84	8.78	-28.9	-31.5	13.1	2.51e-05	0	42	0	58720256	17	4854
2026-01-30 01:04:56.19	13.72	9.02	-28.8	-31.3	13.2	2.89e-05	0	42	0	68157440	17	4785
2026-01-30 01:04:59.20	13.59	9.27	-28.8	-31.3	13.2	2.74e-05	0	42	0	77594624	17	4776
2026-01-30 01:05:02.20	13.47	9.51	-29.3	-32.1	12.5	1.43e-04	0	42	0	87031808	18	4930
2026-01-30 01:05:05.19	13.34	9.76	-28.7	-30.9	13.5	1.06e-05	0	42	0	96468992	17	4653
2026-01-30 01:05:08.20	13.21	10.01	-28.5	-30.4	13.8	5.30e-06	0	43	0	105906176	17	4505
2026-01-30 01:05:11.21	13.08	10.26	-28.4	-30.8	13.9	1.50e-06	0	43	0	115343360	16	4727
2026-01-30 01:05:14.22	12.94	10.52	-28.3	-30.6	14.1	2.20e-06	0	43	0	124780544	16	4667
2026-01-30 01:05:17.23	12.80	10.78	-28.4	-30.6	14.0	1.50e-06	0	43	0	134217728	16	4668
2026-01-30 01:05:20.24	12.66	11.04	-28.2	-30.2	14.3	0.00e+00	0	43	0	143654912	16	4528
2026-01-30 01:05:23.24	12.52	11.30	-28.2	-30.2	14.3	1.50e-06	0	43	0	153092096	16	4543
2026-01-30 01:05:26.25	12.37	11.57	-28.2	-30.1	14.4	0.00e+00	0	43	0	162529280	16	4511
2026-01-30 01:05:29.27	12.22	11.84	-28.2	-30.2	14.0	1.50e-06	0	43	0	171966464	16	4545
2026-01-30 01:05:32.27	12.07	12.11	-27.9	-30.0	14.6	7.00e-07	0	43	0	181403648	15	4591
2026-01-30 01:05:35.29	11.92	12.39	-27.8	-29.7	14.8	8.02e-04	0	43	0	190840832	15	4517
2026-01-30 01:05:38.29	11.76	12.66	-27.6	-29.4	15.0	0.00e+00	0	43	0	200278016	15	4406
2026-01-30 01:05:41.31	11.60	12.94	-27.6	-29.4	15.0	6.16e-04	0	43	0	209715200	15	4409
2026-01-30 01:05:44.32	11.43	13.23	-27.8	-29.7	14.8	6.42e-04	0	43	0	219152384	15	4504
2026-01-30 01:05:47.33	11.26	13.51	-27.9	-30.0	14.7	0.00e+00	0	43	0	228589568	15	4588
2026-01-30 01:05:50.33	11.09	13.80	-27.9	-29.9	14.7	6.77e-04	0	43	0	238026752	15	4577
2026-01-30 01:05:53.34	10.91	14.10	-27.7	-29.5	15.0	3.96e-04	0	43	0	247463936	15	4447
2026-01-30 01:05:56.34	10.74	14.39	-27.7	-29.6	15.0	6.50e-04	0	43	0	256901120	15	4459
2026-01-30 01:05:59.36	10.55	14.69	-27.7	-29.6	15.0	6.29e-04	0	43	0	266338304	15	4485
2026-01-30 01:06:02.37	10.36	15.00	-27.8	-29.8	14.9	7.38e-04	0	43	0	275775488	15	4535
2026-01-30 01:06:05.38	10.17	15.30	-27.8	-29.9	14.9	7.39e-04	0	43	0	285212672	15	4548
2026-01-30 01:06:08.38	9.98	15.61	-27.9	-30.1	14.7	2.77e-04	0	43	0	294649856	15	4610
2026-01-30 01:06:11.39	9.78	15.93	-28.2	-30.1	14.6	5.34e-04	0	43	0	303038464	16	4493
2026-01-30 01:06:14.41	9.57	16.24	-28.1	-29.9	14.7	0.00e+00	0	43	0	313524224	16	4450
2026-01-30 01:06:17.41	9.36	16.57	-28.1	-29.9	14.8	1.41e-04	0	43	0	322961408	16	4441
2026-01-30 01:06:20.41	9.15	16.89	-28.1	-29.8	14.8	0.00e+00	0	43	0	331350016	16	4413
2026-01-30 01:06:23.42	8.93	17.22	-28.0	-29.6	14.9	0.00e+00	0	43	0	340787200	16	4358
2026-01-30 01:06:26.42	8.71	17.55	-28.0	-30.1	14.8	0.00e+00	0	43	0	350224384	15	4621
2026-01-30 01:06:29.43	8.48	17.89	-28.3	-30.5	14.5	0.00e+00	0	43	0	359661568	16	4593
2026-01-30 01:06:32.44	8.25	18.23	-28.1	-30.0	14.8	0.00e+00	0	43	0	369098752	16	4444
2026-01-30 01:06:35.45	8.01	18.57	-28.0	-29.6	15.0	0.00e+00	0	43	0	378535936	16	4341
2026-01-30 01:06:38.46	7.76	18.93	-27.7	-29.5	15.3	0.00e+00	0	43	0	387973120	15	4432
2026-01-30 01:06:41.46	7.51	19.28	-27.6	-29.4	15.3	0.00e+00	0	43	0	397410304	15	4396
2026-01-30 01:06:44.46	7.25	19.64	-27.4	-28.9	15.5	0.00e+00	0	43	0	406847488	15	4278
2026-01-30 01:06:47.47	6.99	20.00	-27.3	-29.1	15.7	0.00e+00	0	43	0	416284672	14	4432
2026-01-30 01:06:50.50	6.71	20.37	-27.3	-29.0	15.8	0.00e+00	0	43	0	425721856	14	4412
2026-01-30 01:06:53.50	6.43	20.74	-27.2	-28.8	15.9	0.00e+00	0	43	0	435159040	14	4339
2026-01-30 01:06:56.51	6.15	21.12	-26.9	-28.2	16.2	0.00e+00	0	43	0	444596224	14	4192
2026-01-30 01:06:59.52	5.86	21.50	-27.1	-28.7	16.0	0.00e+00	0	43	0	454033408	14	4313
2026-01-30 01:07:02.53	5.56	21.89	-26.7	-28.2	16.5	0.00e+00	0	43	0	463470592	13	4308
2026-01-30 01:07:05.54	5.25	22.28	-26.7	-28.3	16.5	0.00e+00	0	43	0	472907776	13	4324
2026-01-30 01:07:08.55	4.93	22.68	-26.4	-27.6	16.9	0.00e+00	0	43	0	482344960	13	4120
2026-01-30 01:07:11.55	4.61	23.08	-26.5	-27.7	16.8	0.00e+00	0	44	0	491782144	13	4157
2026-01-30 01:07:14.58	4.27	23.50	-26.5	-28.2	16.8	0.00e+00	0	44	0	501219328	12	4407
2026-01-30 01:07:17.59	3.93	23.91	-26.8	-28.4	16.5	0.00e+00	0	43	0	510656512	13	4358
2026-01-30 01:07:20.59	3.58	24.33	-26.8	-28.4	16.5	0.00e+00	0	43	0	520093696	13	4345
2026-01-30 01:07:23.60	3.21	24.75	-26.8	-28.4	16.5	0.00e+00	0	44	0	529530880	13	4352
2026-01-30 01:07:26.60	2.84	25.18	-27.3	-29.1	15.9	0.00e+00	0	43	0	538968064	14	4431
2026-01-30 01:07:29.62	2.46	25.62	-27.0	-28.4	16.3	3.75e-03	0	43	0	548405248	14	4227
2026-01-30 01:07:32.64	2.06	26.07	-27.2	-28.8	16.0	0.00e+00	0	44	0	557842432	14	4351
2026-01-30 01:07:35.66	1.65	26.52	-27.4	-29.3	15.8	3.86e-03	0	44	0	567279616	14	4477
2026-01-30 01:07:38.67	1.23	26.97	-27.7	-29.5	15.4	7.00e-07	0	44	0	576716800	15	4432
2026-01-30 01:07:41.70	0.80	27.43	-27.8	-29.7	15.3	3.44e-03	0	44	0	586153984	15	4496
2026-01-30 01:07:44.70	0.36	27.90	-27.8	-29.7	15.3	3.88e-03	0	44	0	595591168	15	4484
2026-01-30 01:07:47.71	359.90	28.37	-27.7	-29.5	15.4	3.76e-03	0	44	0	605028352	15	4429
2026-01-30 01:07:50.72	359.43	28.85	-27.8	-29.7	15.3	3.42e-03	0	44	0	614465536	15	4489
2026-01-30 01:07:53.73	358.94	29.33	-27.7	-29.5	15.4	3.88e-03	0	44	0	623902720	15	4416
2026-01-30 01:07:56.75	358.44	29.82	-27.5	-29.0	15.7	3.76e-03	0	44	0	632291328	15	4267
2026-01-30 01:07:59.76	357.92	30.32	-27.5	-29.4	15.8	0.00e+00	0	44	0	642777088	14	4512
2026-01-30 01:08:02.77	357.39	30.82	-27.8	-29.8	15.3	3.84e-03	0	44	0	651165696	15	4496
2026-01-30 01:08:05.78	356.84	31.33	-27.5	-29.1	15.7	0.00e+00	0	44	0	660602880	15	4309
2026-01-30 01:08:08.77	356.27	31.84	-27.3	-29.0	16.0	0.00e+00	0	44	0	670040064	14	4392
2026-01-30 01:08:11.78	355.68	32.36	-27.2	-28.8	16.1	0.00e+00	0	44	0	679477248	14	4334
2026-01-30 01:08:14.80	355.07	32.89	-27.4	-29.3	15.9	0.00e+00	0	44	0	688914432	14	4465
2026-01-30 01:08:17.80	354.45	33.42	-27.7	-29.6	15.4	0.00e+00	0	44	0	698351616	15	4448
2026-01-30 01:08:20.80	353.80	33.95	-28.1	-29.8	15.2	0.00e+00	0	44	0	707788800	16	4394
2026-01-30 01:08:23.81	353.13	34.49	-28.6	-30.4	14.6	0.00e+00	0	44	0	717225984	17	4453
2026-01-30 01:08:26.82	352.44	35.04	-28.9	-31.1	14.2	7.00e-07	0	44	0	726663168	17	4660
2026-01-30 01:08:29.83	351.72	35.59	-29.1	-31.3	13.8	6.80e-06	0	44	0	736100352	18	4595
2026-01-30 01:08:32.84	350.97	36.14	-28.6	-30.5	14.6	1.50e-06	0	44	0	745537536	17	4463
2026-01-30 01:08:35.86	350.20	36.70	-29.0	-31.0	14.0	1.50e-06	0	44	0	754974720	18	4501
2026-01-30 01:08:38.87	349.40	37.26	-29.0	-31.0	14.0	3.80e-06	0	44	0	764411904	18	4504
2026-01-30 01:08:41.89	348.58	37.83	-29.3	-31.5	13.7	9.90e-06	0	44	0	773849088	18	4678
2026-01-30 01:08:44.90	347.72	38.40	-29.3	-31.8	13.5	6.80e-06	0	44	0	783286272	18	4748
2026-01-30 01:08:47.90	346.84	38.96	-29.6	-31.9	13.1	1.83e-05	0	44	0	792723456	19	4671
2026-01-30 01:08:50.91	345.92	39.53	-29.9	-32.6	12.7	8.01e-05	0	44	0	802160640	19	4903
2026-01-30 01:08:53.92	344.97	40.11	-29.6	-31.9	13.1	3.35e-05	0	44	0	811597824	19	4677
2026-01-30 01:08:56.93	343.99	40.68	-29.7	-32.0	13.1	5.03e-05	0	44	0	821035008	19	4700
2026-01-30 01:08:59.95	342.96	41.25	-29.5	-31.6	13.3	2.51e-05	0	44	0	830472192	19	4595
2026-01-30 01:09:02.96	341.90	41.82	-29.6	-31.7	13.3	1.81e-04	0	44	0	839909376	19	4622
2026-01-30 01:09:05.98	340.80	42.38	-30.1	-32.6	12.3	4.13e-04	0	44	0	849346560	20	4823
2026-01-30 01:09:08.99	339.67	42.95	-29.8	-31.8	12.9	6.10e-05	0	44	0	858783744	20	4541
2026-01-30 01:09:12.00	338.49	43.50	-29.0	-31.3	13.1	2.36e-05	0	44	0	868220928	19	4713
2026-01-30 01:09:15.00	337.28	44.05	-30.1	-32.6	12.3	1.62e-04	0	44	0	877658112	20	4824
2026-01-30 01:09:18.01	336.02	44.60	-30.0	-32.3	12.5	8.85e-05	0	44	0	887095296	20	4720
2026-01-30 01:09:21.02	334.71	45.13	-30.0	-32.9	12.6	1.06e-03	0	44	0	896532480	19	5012
2026-01-30 01:09:24.02	333.37	45.66	-30.4	-33.3	11.8	2.99e-04	0	44	0	905969664	20	5073
2026-01-30 01:09:27.03	331.97	46.17	-29.9	-32.5	12.8	1.73e-03	0	44	0	915406848	19	4885
2026-01-30 01:09:30.04	330.53	46.67	-29.9	-32.6	12.8	2.14e-03	0	44	0	924844032	19	4903
2026-01-30 01:09:33.04	329.05	47.15	-29.9	-32.5	12.8	2.08e-04	0	44	0	933232640	19	4879
2026-01-30 01:09:36.06	327.51	47.62	-30.0	-32.3	12.5	3.45e-03	0	44	0	943718400	20	4715
2026-01-30 01:09:39.08	325.92	48.08	-29.8	-32.4	12.9	3.51e-03	0	44	0	952107008	19	4853
2026-01-30 01:09:42.08	324.30	48.51	-30.4	-33.3	11.9	3.02e-03	0	44	0	961544192	20	5040
2026-01-30 01:09:45.09	322.63	48.92	-29.3	-31.5	13.7	2.61e-03	0	44	0	970981376	18	4661
2026-01-30 01:09:48.10	320.91	49.30	-29.2	-31.4	13.7	2.27e-03	0	44	0	980418560	18	4636
2026-01-30 01:09:51.09	319.17	49.66	-29.1	-31.1	13.9	6.10e-06	0	44	0	989855744	18	4545
2026-01-30 01:09:54.11	317.36	50.00	-29.5	-31.7	13.3	2.23e-04	0	44	0	999292928	19	4613
2026-01-30 01:09:57.13	315.52	50.30	-29.9	-32.5	12.8	1.25e-03	0	44	0	1008730112	19	4897
2026-01-30 01:10:00.13	313.65	50.58	-29.5	-31.6	13.3	1.90e-05	0	44	0	1018167296	19	4591
2026-01-30 01:10:03.14	311.74	50.82	-29.3	-31.7	13.5	1.57e-03	0	44	0	1027604480	18	4748
2026-01-30 01:10:06.16	309.80	51.04	-29.2	-31.5	13.7	5.30e-06	0	44	0	1037041664	18	4658
2026-01-30 01:10:09.18	307.83	51.21	-29.2	-31.5	13.7	1.78e-03	0	44	0	1046478848	18	4661
2026-01-30 01:10:12.20	305.84	51.36	-29.8	-32.3	12.9	6.25e-05	0	44	0	1055916032	19	4815
2026-01-30 01:10:15.20	303.85	51.46	-28.9	-30.8	14.1	5.30e-06	0	44	0	1065353216	18	4456
2026-01-30 01:10:18.21	301.83	51.53	-29.1	-31.2	13.9	7.60e-06	0	44	0	1074790400	18	4570
2026-01-30 01:10:21.22	299.81	51.56	-29.1	-31.2	13.8	5.30e-06	0	44	0	1084227584	18	4576
2026-01-30 01:10:24.24	297.79	51.56	-29.2	-31.5	13.6	6.10e-06	0	44	0	1093664768	18	4675
2026-01-30 01:10:27.26	295.76	51.51	-29.1	-31.3	13.7	1.37e-05	0	44	0	1103101952	18	4605
2026-01-30 01:10:30.27	293.75	51.44	-28.6	-30.4	14.5	3.05e-05	0	44	0	1112539136	17	4465
2026-01-30 01:10:33.27	291.76	51.32	-28.9	-31.1	14.2	7.00e-07	0	44	0	1121976320	17	4661
2026-01-30 01:10:36.29	289.78	51.17	-29.1	-31.1	13.9	2.20e-06	0	44	0	1131413504	18	4556
2026-01-30 01:10:39.30	287.82	50.98	-29.0	-31.0	13.9	9.90e-06	0	44	0	1140850688	18	4502
2026-01-30 01:10:42.31	285.89	50.76	-29.0	-30.9	14.0	6.80e-06	0	44	0	1150287872	18	4491
2026-01-30 01:10:45.33	283.98	50.51	-28.9	-31.2	14.1	3.80e-06	0	44	0	1159725056	17	4688
2026-01-30 01:10:48.33	282.12	50.22	-28.8	-31.0	14.2	2.20e-06	0	44	0	1169162240	17	4631
2026-01-30 01:10:51.35	280.28	49.91	-28.6	-30.5	14.4	2.20e-06	0	44	0	1178599424	17	4489
2026-01-30 01:10:54.36	278.49	49.56	-28.7	-30.7	14.3	7.00e-07	0	44	0	1188036608	17	4545
2026-01-30 01:10:57.36	276.75	49.19	-28.5	-30.3	14.6	0.00e+00	0	44	0	1197473792	17	4433
2026-01-30 01:11:00.38	275.03	48.80	-29.7	-32.1	12.9	4.04e-05	0	44	0	1206910976	19	4767
2026-01-30 01:11:03.40	273.37	48.38	-28.8	-30.0	14.2	7.60e-06	0	44	0	1216348160	19	4122
2026-01-30 01:11:06.40	271.76	47.94	-29.2	-31.5	13.6	3.80e-06	0	44	0	1225785344	18	4680
2026-01-30 01:11:09.42	270.18	47.48	-30.8	-34.1	10.9	3.23e-03	0	44	0	1235222528	21	5290
2026-01-30 01:11:12.43	268.66	47.01	-27.8	-29.1	15.5	0.00e+00	0	44	0	1244659712	16	4175
2026-01-30 01:11:15.44	267.18	46.52	-29.5	-31.7	13.0	1.22e-05	0	44	0	1254096896	19	4620
2026-01-30 01:11:18.46	265.74	46.01	-29.4	-31.3	13.2	2.88e-04	0	44	0	1263534080	19	4504
2026-01-30 01:11:21.47	264.36	45.49	-29.1	-31.2	13.7	1.46e-04	0	44	0	1272971264	18	4585
2026-01-30 01:11:24.48	263.02	44.96	-30.6	-33.6	11.2	1.21e-03	0	44	0	1282408448	21	5075
2026-01-30 01:11:27.49	261.72	44.42	-29.0	-30.5	13.8	1.29e-05	0	44	0	1291845632	19	4271
2026-01-30 01:11:30.51	260.47	43.87	-29.7	-32.2	12.8	3.12e-05	0	44	0	1301282816	19	4797
2026-01-30 01:11:33.51	259.26	43.32	-31.1	-34.5	10.2	1.02e-02	0	44	0	1310720000	22	5326
2026-01-30 01:11:36.53	258.09	42.75	-28.9	-30.3	13.9	3.80e-06	0	44	0	1320157184	19	4211
2026-01-30 01:11:39.55	256.96	42.19	-29.9	-32.7	12.4	6.40e-05	0	44	0	1328545792	19	4954
2026-01-30 01:11:42.56	255.87	41.62	-30.2	-32.5	11.8	6.58e-04	0	44	0	1339031552	21	4683
2026-01-30 01:11:45.57	254.82	41.05	-29.1	-31.3	13.6	1.29e-05	0	44	0	1347420160	18	4599
2026-01-30 01:11:48.58	253.81	40.47	-29.9	-32.7	12.4	1.25e-04	0	44	0	1356857344	19	4959
2026-01-30 01:11:51.59	252.83	39.90	-30.8	-34.1	10.8	2.65e-03	0	44	0	1366294528	21	5281
2026-01-30 01:11:54.60	251.89	39.33	-30.0	-32.5	12.1	3.26e-04	0	44	0	1375731712	20	4815
2026-01-30 01:11:57.61	250.98	38.75	-29.7	-31.8	12.6	1.02e-04	0	44	0	1385168896	20	4562
2026-01-30 01:12:00.62	250.10	38.18	-30.1	-32.8	12.0	3.32e-04	0	44	0	1394606080	20	4904
2026-01-30 01:12:03.61	249.25	37.62	-30.0	-32.5	12.2	2.74e-04	0	44	0	1404043264	20	4802
2026-01-30 01:12:06.63	248.43	37.05	-29.5	-31.6	13.1	6.79e-05	0	44	0	1413480448	19	4624
2026-01-30 01:12:09.64	247.64	36.49	-28.4	-30.1	14.5	0.00e+00	0	44	0	1422917632	17	4369
2026-01-30 01:12:12.64	246.88	35.93	-28.6	-30.5	14.3	7.00e-07	0	44	0	1432354816	17	4482
2026-01-30 01:12:15.64	246.14	35.37	-27.6	-29.3	15.4	0.00e+00	0	44	0	1441792000	15	4376
2026-01-30 01:12:18.65	245.43	34.82	-27.6	-29.2	15.5	0.00e+00	0	44	0	1451229184	15	4340
2026-01-30 01:12:21.65	244.74	34.28	-27.8	-29.7	15.1	0.00e+00	0	44	0	1460666368	15	4488
2026-01-30 01:12:24.66	244.07	33.74	-27.9	-29.9	15.1	0.00e+00	0	44	0	1470103552	15	4544
2026-01-30 01:12:27.66	243.43	33.20	-28.3	-30.5	14.6	7.00e-07	0	44	0	1479540736	16	4597
2026-01-30 01:12:30.67	242.81	32.67	-27.7	-28.9	15.5	0.00e+00	0	44	0	1488977920	16	4145
2026-01-30 01:12:33.68	242.20	32.15	-27.7	-29.6	15.2	0.00e+00	0	44	0	1498415104	15	4452
2026-01-30 01:12:36.69	241.62	31.63	-27.8	-29.7	15.1	0.00e+00	0	44	0	1507852288	15	4503
2026-01-30 01:12:39.70	241.05	31.11	-27.3	-28.7	15.7	0.00e+00	0	44	0	1517289472	15	4195
2026-01-30 01:12:42.72	240.50	30.60	-27.0	-28.4	16.1	0.00e+00	0	44	0	1526726656	14	4230
2026-01-30 01:12:45.73	239.97	30.10	-27.9	-30.0	14.9	0.00e+00	0	44	0	1536163840	15	4587
2026-01-30 01:12:48.73	239.46	29.60	-27.8	-29.3	15.2	0.00e+00	0	44	0	1545601024	16	4254
2026-01-30 01:12:51.74	238.96	29.11	-27.6	-28.8	15.5	0.00e+00	0	44	0	1555038208	16	4118
2026-01-30 01:12:54.76	238.47	28.63	-27.2	-28.3	15.9	0.00e+00	0	44	0	1564475392	15	4100
2026-01-30 01:12:57.77	238.00	28.15	-27.0	-28.4	16.1	4.71e-04	0	44	0	1573912576	14	4229
2026-01-30 01:13:00.78	237.55	27.68	-26.9	-28.8	16.1	0.00e+00	0	44	0	1583349760	13	4454
2026-01-30 01:13:03.78	237.11	27.21	-26.9	-28.3	16.1	0.00e+00	0	44	0	1592786944	14	4210
2026-01-30 01:13:06.80	236.67	26.75	-26.7	-28.3	16.3	1.75e-03	0	44	0	1601175552	13	4321
2026-01-30 01:13:09.80	236.26	26.30	-26.9	-28.7	16.1	0.00e+00	0	44	0	1611661312	13	4448
2026-01-30 01:13:12.80	235.86	25.85	-27.2	-28.9	15.7	0.00e+00	0	44	0	1621098496	14	4397
2026-01-30 01:13:15.82	235.46	25.40	-27.2	-29.0	15.6	0.00e+00	0	44	0	1629487104	14	4427
2026-01-30 01:13:18.83	235.08	24.97	-27.5	-29.2	15.2	4.95e-04	0	44	0	1638924288	15	4361
2026-01-30 01:13:21.84	234.71	24.54	-27.5	-29.2	15.2	2.09e-03	0	44	0	1648361472	15	4379
2026-01-30 01:13:24.84	234.34	24.11	-27.7	-29.6	15.0	1.84e-03	0	44	0	1657798656	15	4474
2026-01-30 01:13:27.86	233.99	23.69	-27.4	-29.3	15.4	8.18e-04	0	44	0	1667235840	14	4516
2026-01-30 01:13:30.88	233.65	23.27	-27.4	-28.9	15.3	1.50e-06	0	44	0	1676673024	15	4288
2026-01-30 01:13:33.88	233.31	22.87	-27.4	-29.4	15.1	7.24e-04	0	44	0	1686110208	14	4530
2026-01-30 01:13:36.89	232.99	22.46	-27.8	-30.0	14.7	0.00e+00	0	44	0	1695547392	15	4592
2026-01-30 01:13:39.89	232.67	22.07	-27.1	-28.8	15.6	0.00e+00	0	44	0	1704984576	14	4367
2026-01-30 01:13:42.89	232.37	21.67	-27.1	-28.9	15.6	1.98e-04	0	44	0	1714421760	14	4394
2026-01-30 01:13:45.91	232.07	21.29	-27.0	-28.6	15.7	0.00e+00	0	44	0	1723858944	14	4304
2026-01-30 01:13:48.93	231.77	20.90	-26.8	-28.7	15.9	2.94e-04	0	44	0	1733296128	13	4448
2026-01-30 01:13:51.94	231.49	20.52	-26.7	-28.5	16.0	2.25e-04	0	44	0	1742733312	13	4392
2026-01-30 01:13:54.95	231.21	20.15	-26.5	-28.4	16.3	1.61e-04	0	44	0	1752170496	12	4479
2026-01-30 01:13:57.95	230.94	19.78	-26.7	-28.5	16.0	0.00e+00	0	44	0	1761607680	13	4391
2026-01-30 01:14:00.96	230.67	19.42	-27.0	-29.0	15.7	0.00e+00	0	44	0	1771044864	13	4557
2026-01-30 01:14:03.97	230.41	19.06	-27.1	-28.8	15.5	0.00e+00	0	44	0	1780482048	14	4377
2026-01-30 01:14:06.98	230.16	18.71	-27.3	-29.2	15.3	0.00e+00	0	44	0	1789919232	14	4475
2026-01-30 01:14:09.99	229.91	18.36	-27.5	-29.7	15.0	0.00e+00	0	44	0	1799356416	14	4626
2026-01-30 01:14:13.00	229.67	18.01	-27.6	-29.3	14.9	0.00e+00	0	44	0	1808793600	15	4415
2026-01-30 01:14:16.01	229.44	17.67	-27.4	-28.9	15.1	0.00e+00	0	44	0	1818230784	15	4286
2026-01-30 01:14:19.01	229.21	17.33	-27.2	-28.9	15.4	0.00e+00	0	44	0	1827667968	14	4409
2026-01-30 01:14:22.01	228.98	17.00	-27.2	-29.0	15.3	7.00e-07	0	44	0	1837105152	14	4438
2026-01-30 01:14:25.03	228.76	16.67	-27.5	-29.6	14.9	7.00e-07	0	44	0	1846542336	14	4620
2026-01-30 01:14:28.03	228.55	16.35	-27.2	-29.0	15.3	0.00e+00	0	44	0	1855979520	14	4442
2026-01-30 01:14:31.05	228.34	16.02	-27.4	-29.4	15.0	0.00e+00	0	44	0	1865416704	14	4559
2026-01-30 01:14:34.06	228.13	15.71	-27.2	-29.1	15.2	0.00e+00	0	44	0	1874853888	14	4454
2026-01-30 01:14:37.08	227.93	15.39	-27.2	-29.2	15.1	0.00e+00	0	44	0	1884291072	14	4517
2026-01-30 01:14:40.09	227.74	15.08	-27.6	-29.4	14.0	0.00e+00	0	44	0	1893728256	15	4433
2026-01-30 01:14:43.10	227.54	14.77	-27.6	-29.5	14.6	0.00e+00	0	44	0	1903165440	15	4461
2026-01-30 01:14:46.10	227.35	14.47	-27.6	-29.5	14.6	3.68e-03	0	44	0	1912602624	15	4477
2026-01-30 01:14:49.11	227.17	14.17	-27.7	-29.7	14.5	2.20e-06	0	44	0	1920991232	15	4540
2026-01-30 01:14:52.12	226.99	13.88	-27.8	-30.0	14.3	3.85e-03	0	44	0	1930428416	15	4622
2026-01-30 01:14:55.13	226.81	13.58	-27.9	-30.1	14.2	1.50e-06	0	44	0	1939865600	15	4659
2026-01-30 01:14:58.15	226.64	13.29	-28.1	-30.2	14.0	3.29e-03	0	44	0	1949302784	16	4577
2026-01-30 01:15:01.17	226.47	13.00	-27.8	-30.1	14.2	3.76e-03	0	44	0	1958739968	15	4654
2026-01-30 01:15:04.17	226.30	12.72	-27.8	-30.1	14.1	3.45e-03	0	44	0	1968177152	15	4666
2026-01-30 01:15:07.19	226.14	12.44	-27.8	-29.9	14.2	2.71e-03	0	44	0	1977614336	15	4606
2026-01-30 01:15:10.19	225.98	12.16	-27.7	-29.9	14.2	0.00e+00	0	44	0	1987051520	15	4591
2026-01-30 01:15:13.20	225.82	11.89	-27.6	-29.6	14.3	1.99e-03	0	44	0	1996488704	15	4521
2026-01-30 01:15:16.20	225.67	11.62	-27.7	-29.7	14.3	9.46e-05	0	44	0	2005925888	15	4533
2026-01-30 01:15:19.21	225.52	11.35	-28.2	-30.4	13.7	2.76e-03	0	44	0	2015363072	16	4649
2026-01-30 01:15:22.22	225.37	11.08	-28.1	-30.2	13.8	2.67e-05	0	44	0	2024800256	16	4571
2026-01-30 01:15:25.23	225.23	10.82	-28.2	-30.5	13.6	6.10e-06	0	44	0	2034237440	16	4676
2026-01-30 01:15:28.26	225.08	10.55	-28.0	-30.0	13.9	2.20e-06	0	44	0	2043674624	16	4529
2026-01-30 01:15:31.26	224.94	10.30	-27.9	-30.2	13.9	2.20e-06	0	44	0	2053111808	15	4705
2026-01-30 01:15:34.27	224.81	10.04	-28.3	-30.6	13.5	1.37e-05	0	44	0	2062548992	16	4725
2026-01-30 01:15:37.27	224.67	9.79	-28.3	-30.7	13.4	4.50e-06	0	44	0	2071986176	16	4752
2026-01-30 01:15:40.28	224.54	9.54	-28.7	-31.2	12.8	5.95e-05	0	44	0	2081423360	17	4802
2026-01-30 01:15:43.29	224.41	9.29	-28.7	-31.2	12.8	7.32e-05	0	44	0	2090860544	17	4809
2026-01-30 01:15:46.30	224.28	9.04	-28.9	-31.8	12.4	1.55e-04	0	44	0	2100297728	17	5001
2026-01-30 01:15:49.31	224.16	8.80	-28.6	-31.0	12.8	4.80e-05	0	44	0	2109734912	17	4749
2026-01-30 01:15:52.32	224.03	8.56	-28.8	-31.6	12.4	1.48e-04	0	44	0	2119172096	17	4944
2026-01-30 01:15:55.33	223.91	8.32	-28.7	-31.3	12.6	8.39e-05	0	44	0	2128609280	17	4861
2026-01-30 01:15:58.34	223.79	8.08	-28.8	-31.6	12.4	1.50e-04	0	44	0	2138046464	17	4954
2026-01-30 01:16:01.35	223.68	7.84	-28.9	-31.8	12.3	1.78e-04	0	44	0	2147483648	17	5007
2026-01-30 01:16:04.36	223.56	7.61	-29.0	-31.6	12.0	3.39e-04	0	44	0	2156920832	18	4855
2026-01-30 01:16:07.37	223.45	7.38	-29.1	-31.9	11.8	4.57e-04	0	44	0	2166358016	18	4956
2026-01-30 01:16:10.38	223.34	7.15	-29.1	-31.8	11.8	3.71e-04	0	44	0	2175795200	18	4924

#Closed at: 2026-01-30 01:16:12
#Recorded file [2178 MB]: D:/data/31010_260130_040433.dat