passes_logs/2026/01/30/R2M6_AANII_01/R2M6_AANII_01__20260130_073959_NOAA_21_JPSS-2_rec.log

#Pass ID: 20260130_073959_NOAA 21 (JPSS-2)
#Satellite: NOAA 21 (JPSS-2)
#Configuration: NOAA 21
#almurnet v.1.7.20240730
#Start time: 2026-01-30 07:40:00

#Version: 2.2.20231116
#Station: R2M6_AANII_01
#Location: 30.233357 lon 59.946436 lat
#TLE: 1 54234U 22150A   26029.46216196  .00000141  00000+0  87503-4 0  9994
#TLE: 2 54234  98.7512 330.1880 0000955 196.3413 163.7732 14.19540905166865

#Time	Az	El	Level	Level2	SNR	BER	BlckErr	Temp	State	Recorded	gain1	gain2
2026-01-30 07:40:00.77	77.27	7.07	-32.2	-40.0	4.0	1.47e+00	0	40	0	0	25	8856
2026-01-30 07:40:02.78	77.03	7.18	-31.7	-36.9	6.4	2.66e-01	0	40	0	0	24	6562
2026-01-30 07:40:04.79	76.79	7.28	-31.5	-36.3	6.7	1.92e-01	0	40	0	6291456	24	6251
2026-01-30 07:40:06.79	76.54	7.39	-31.5	-36.2	6.9	1.64e-01	0	40	0	12582912	24	6172
2026-01-30 07:40:08.80	76.29	7.49	-30.9	-34.6	8.4	5.81e-02	0	41	0	18874368	23	5498
2026-01-30 07:40:10.80	76.05	7.60	-30.1	-33.1	10.1	7.59e-03	0	41	0	24117248	21	5051
2026-01-30 07:40:12.80	75.80	7.70	-29.4	-31.5	11.6	9.90e-04	0	41	0	30408704	20	4596
2026-01-30 07:40:14.81	75.55	7.81	-29.0	-31.0	12.3	1.64e-04	0	41	0	36700160	19	4521
2026-01-30 07:40:16.81	75.29	7.91	-28.9	-30.6	12.6	7.40e-05	0	41	0	42991616	19	4389
2026-01-30 07:40:18.81	75.04	8.01	-29.0	-30.9	12.5	9.76e-05	0	41	0	49283072	19	4481
2026-01-30 07:40:20.82	74.78	8.12	-28.7	-30.5	13.0	4.80e-05	0	41	0	55574528	18	4474
2026-01-30 07:40:22.83	74.52	8.22	-28.6	-30.5	13.0	4.11e-05	0	41	0	61865984	18	4446
2026-01-30 07:40:24.84	74.26	8.32	-28.5	-30.1	13.3	1.52e-05	0	41	0	68157440	18	4344
2026-01-30 07:40:26.85	73.99	8.43	-28.6	-30.3	13.1	2.67e-05	0	41	0	74448896	18	4403
2026-01-30 07:40:28.86	73.73	8.53	-28.6	-30.4	13.1	3.28e-05	0	41	0	80740352	18	4438
2026-01-30 07:40:30.86	73.46	8.64	-28.7	-30.6	13.0	2.97e-05	0	41	0	87031808	18	4495
2026-01-30 07:40:32.87	73.19	8.74	-28.6	-30.4	13.1	2.36e-05	0	41	0	93323264	18	4423
2026-01-30 07:40:34.88	72.92	8.84	-28.5	-30.1	13.3	2.21e-05	0	41	0	99614720	18	4346
2026-01-30 07:40:36.88	72.65	8.94	-28.7	-30.6	13.1	2.74e-05	0	41	0	105906176	18	4472
2026-01-30 07:40:38.88	72.38	9.05	-28.7	-30.6	13.1	4.34e-05	0	41	0	112197632	18	4485
2026-01-30 07:40:40.89	72.10	9.15	-28.8	-30.8	13.0	3.58e-05	0	41	0	118489088	18	4556
2026-01-30 07:40:42.90	71.82	9.25	-28.9	-31.1	12.8	7.70e-05	0	41	0	124780544	18	4641
2026-01-30 07:40:44.90	71.54	9.35	-28.9	-31.1	12.8	7.01e-05	0	41	0	131072000	18	4634
2026-01-30 07:40:46.92	71.26	9.45	-28.8	-30.9	12.9	3.66e-05	0	41	0	137363456	18	4579
2026-01-30 07:40:48.93	70.97	9.56	-28.9	-31.0	12.8	5.79e-05	0	41	0	143654912	18	4625
2026-01-30 07:40:50.93	70.69	9.66	-28.9	-31.2	12.7	8.23e-05	0	41	0	149946368	18	4684
2026-01-30 07:40:52.93	70.40	9.76	-29.1	-31.6	12.5	1.01e-04	0	42	0	156237824	18	4795
2026-01-30 07:40:54.94	70.11	9.86	-29.3	-32.1	12.2	1.56e-04	0	41	0	162529280	18	4962
2026-01-30 07:40:56.95	69.81	9.96	-28.9	-31.0	12.9	5.72e-05	0	42	0	168820736	18	4616
2026-01-30 07:40:58.96	69.52	10.06	-28.7	-30.5	13.2	2.51e-05	0	42	0	175112192	18	4453
2026-01-30 07:41:00.97	69.22	10.16	-28.6	-30.3	13.4	1.83e-05	0	42	0	181403648	18	4393
2026-01-30 07:41:02.97	68.92	10.26	-28.6	-30.3	13.4	9.90e-06	0	42	0	187695104	18	4376
2026-01-30 07:41:04.98	68.62	10.36	-28.7	-30.4	13.3	1.29e-05	0	42	0	193986560	18	4422
2026-01-30 07:41:06.99	68.32	10.45	-28.6	-30.3	13.4	1.14e-05	0	42	0	200278016	18	4397
2026-01-30 07:41:09.00	68.01	10.55	-28.5	-30.1	13.5	6.80e-06	0	42	0	206569472	18	4322
2026-01-30 07:41:11.00	67.71	10.65	-28.5	-30.0	13.5	7.60e-06	0	42	0	212860928	18	4309
2026-01-30 07:41:13.01	67.40	10.75	-28.5	-30.0	13.6	5.30e-06	0	42	0	219152384	18	4286
2026-01-30 07:41:15.01	67.09	10.84	-28.5	-30.1	13.5	8.30e-06	0	42	0	225443840	18	4336
2026-01-30 07:41:17.02	66.77	10.94	-28.7	-30.5	13.3	1.22e-05	0	42	0	231735296	18	4443
2026-01-30 07:41:19.03	66.46	11.04	-28.6	-30.3	13.4	1.75e-05	0	42	0	238026752	18	4382
2026-01-30 07:41:21.04	66.14	11.13	-28.7	-30.5	13.4	1.67e-05	0	42	0	244318208	18	4420
2026-01-30 07:41:23.04	65.82	11.23	-28.6	-30.2	13.6	6.10e-06	0	42	0	250609664	18	4322
2026-01-30 07:41:25.05	65.50	11.32	-28.6	-30.4	13.5	8.30e-06	0	42	0	256901120	18	4388
2026-01-30 07:41:27.06	65.17	11.41	-28.5	-30.0	13.7	4.50e-06	0	42	0	263192576	18	4273
2026-01-30 07:41:29.07	64.85	11.51	-28.5	-30.0	13.7	3.80e-06	0	42	0	269484032	18	4274
2026-01-30 07:41:31.07	64.52	11.60	-28.5	-29.9	13.7	7.60e-06	0	42	0	275775488	18	4266
2026-01-30 07:41:33.08	64.19	11.69	-28.2	-29.9	14.0	0.00e+00	0	42	0	282066944	17	4355
2026-01-30 07:41:35.09	63.86	11.78	-28.3	-30.1	13.9	3.00e-06	0	42	0	288358400	17	4421
2026-01-30 07:41:37.10	63.52	11.88	-28.2	-29.8	14.1	2.20e-06	0	42	0	294649856	17	4333
2026-01-30 07:41:39.11	63.18	11.97	-28.3	-30.1	13.9	6.10e-06	0	42	0	300941312	17	4415
2026-01-30 07:41:41.11	62.85	12.05	-28.4	-30.2	13.8	2.20e-06	0	42	0	307232768	17	4446
2026-01-30 07:41:43.11	62.51	12.14	-28.5	-30.5	13.7	8.30e-06	0	42	0	313524224	17	4534
2026-01-30 07:41:45.11	62.16	12.23	-28.1	-29.6	14.2	2.20e-06	0	42	0	319815680	17	4263
2026-01-30 07:41:47.13	61.82	12.32	-28.0	-29.3	14.4	7.00e-07	0	42	0	326107136	17	4180
2026-01-30 07:41:49.13	61.47	12.41	-28.2	-29.8	14.1	7.00e-07	0	42	0	332398592	17	4319
2026-01-30 07:41:51.15	61.12	12.49	-28.3	-30.0	14.0	1.50e-06	0	42	0	338690048	17	4379
2026-01-30 07:41:53.16	60.77	12.58	-28.2	-29.8	14.2	1.50e-06	0	42	0	344981504	17	4323
2026-01-30 07:41:55.18	60.41	12.66	-28.4	-30.3	13.9	3.00e-06	0	42	0	351272960	17	4473
2026-01-30 07:41:57.18	60.06	12.75	-28.4	-30.4	13.8	6.80e-06	0	42	0	357564416	17	4496
2026-01-30 07:41:59.19	59.70	12.83	-28.4	-30.2	13.9	2.20e-06	0	42	0	363855872	17	4447
2026-01-30 07:42:01.19	59.34	12.91	-28.5	-30.5	13.8	5.30e-06	0	42	0	370147328	17	4533
2026-01-30 07:42:03.20	58.98	12.99	-28.3	-30.0	14.1	2.20e-06	0	42	0	375390208	17	4384
2026-01-30 07:42:05.19	58.62	13.07	-28.4	-30.2	14.0	2.20e-06	0	42	0	381681664	17	4440
2026-01-30 07:42:07.19	58.26	13.15	-28.1	-29.6	14.3	7.00e-07	0	42	0	387973120	17	4267
2026-01-30 07:42:09.17	57.90	13.23	-28.3	-30.0	14.1	2.20e-06	0	42	0	394264576	17	4367
2026-01-30 07:42:11.17	57.53	13.31	-28.2	-29.9	14.1	2.20e-06	0	42	0	400556032	17	4339
2026-01-30 07:42:13.17	57.16	13.39	-28.2	-29.9	14.2	7.00e-07	0	42	0	406847488	17	4340
2026-01-30 07:42:15.18	56.79	13.46	-28.3	-30.1	14.0	3.00e-06	0	42	0	413138944	17	4421
2026-01-30 07:42:17.19	56.41	13.54	-28.3	-29.9	14.1	7.00e-07	0	42	0	419430400	17	4352
2026-01-30 07:42:19.19	56.03	13.61	-28.3	-30.1	14.1	1.50e-06	0	42	0	425721856	17	4410
2026-01-30 07:42:21.20	55.66	13.68	-28.3	-30.0	14.1	1.50e-06	0	42	0	432013312	17	4374
2026-01-30 07:42:23.19	55.28	13.76	-28.3	-29.9	14.2	2.20e-06	0	42	0	438304768	17	4349
2026-01-30 07:42:25.19	54.90	13.83	-28.2	-29.8	14.2	3.00e-06	0	42	0	444596224	17	4324
2026-01-30 07:42:27.20	54.51	13.90	-28.2	-29.8	14.3	0.00e+00	0	42	0	450887680	17	4325
2026-01-30 07:42:29.21	54.13	13.97	-28.2	-29.7	14.3	7.00e-07	0	42	0	457179136	17	4277
2026-01-30 07:42:31.22	53.74	14.03	-28.0	-29.3	14.6	0.00e+00	0	42	0	463470592	17	4175
2026-01-30 07:42:33.23	53.35	14.10	-28.2	-29.8	14.2	0.00e+00	0	42	0	469762048	17	4329
2026-01-30 07:42:35.23	52.96	14.17	-27.9	-29.1	14.7	7.00e-07	0	42	0	476053504	17	4130
2026-01-30 07:42:37.23	52.57	14.23	-28.0	-29.4	14.5	0.00e+00	0	42	0	482344960	17	4192
2026-01-30 07:42:39.23	52.17	14.29	-28.0	-29.3	14.6	7.00e-07	0	42	0	488636416	17	4178
2026-01-30 07:42:41.24	51.77	14.35	-27.9	-29.2	14.7	0.00e+00	0	42	0	494927872	17	4140
2026-01-30 07:42:43.25	51.38	14.42	-28.0	-29.3	14.6	0.00e+00	0	42	0	501219328	17	4175
2026-01-30 07:42:45.25	50.98	14.47	-28.3	-29.9	14.2	0.00e+00	0	42	0	507510784	17	4357
2026-01-30 07:42:47.25	50.58	14.53	-28.4	-30.2	14.0	2.20e-06	0	42	0	513802240	17	4435
2026-01-30 07:42:49.25	50.18	14.59	-28.3	-30.0	14.2	7.00e-07	0	42	0	520093696	17	4377
2026-01-30 07:42:51.26	49.77	14.64	-28.4	-30.2	14.1	7.00e-07	0	42	0	526385152	17	4435
2026-01-30 07:42:53.27	49.37	14.70	-28.3	-29.9	14.3	0.00e+00	0	42	0	532676608	17	4352
2026-01-30 07:42:55.28	48.96	14.75	-27.9	-29.1	14.7	0.00e+00	0	42	0	538968064	17	4119
2026-01-30 07:42:57.28	48.55	14.80	-28.0	-29.3	14.6	7.00e-07	0	43	0	545259520	17	4172
2026-01-30 07:42:59.30	48.14	14.85	-28.0	-29.1	14.7	0.00e+00	0	42	0	551550976	17	4129
2026-01-30 07:43:01.29	47.73	14.90	-28.1	-29.6	14.4	7.00e-07	0	42	0	557842432	17	4257
2026-01-30 07:43:03.29	47.32	14.95	-27.9	-29.0	14.8	0.00e+00	0	42	0	564133888	17	4096
2026-01-30 07:43:05.30	46.90	15.00	-27.9	-29.1	14.7	0.00e+00	0	42	0	570425344	17	4113
2026-01-30 07:43:07.31	46.49	15.04	-28.0	-29.2	14.6	7.00e-07	0	42	0	576716800	17	4148
2026-01-30 07:43:09.30	46.07	15.08	-28.0	-29.3	14.6	0.00e+00	0	43	0	581959680	17	4175
2026-01-30 07:43:11.29	45.66	15.13	-27.9	-29.1	14.7	0.00e+00	0	42	0	588251136	17	4117
2026-01-30 07:43:13.30	45.24	15.17	-28.1	-29.5	14.5	7.00e-07	0	42	0	594542592	17	4229
2026-01-30 07:43:15.31	44.82	15.20	-28.0	-29.2	14.7	0.00e+00	0	43	0	600834048	17	4138
2026-01-30 07:43:17.32	44.40	15.24	-28.1	-29.4	14.6	7.00e-07	0	42	0	607125504	17	4201
2026-01-30 07:43:19.33	43.97	15.28	-28.0	-29.2	14.7	7.00e-07	0	42	0	613416960	17	4157
2026-01-30 07:43:21.34	43.55	15.31	-27.8	-28.9	14.9	0.00e+00	0	43	0	619708416	17	4052
2026-01-30 07:43:23.35	43.12	15.35	-27.8	-29.3	14.9	0.00e+00	0	42	0	625999872	16	4275
2026-01-30 07:43:25.34	42.70	15.38	-27.7	-29.1	15.0	0.00e+00	0	42	0	632291328	16	4211
2026-01-30 07:43:27.35	42.28	15.41	-27.6	-28.9	15.1	0.00e+00	0	43	0	638582784	16	4171
2026-01-30 07:43:29.36	41.85	15.43	-27.8	-29.4	14.9	0.00e+00	0	42	0	644874240	16	4298
2026-01-30 07:43:31.37	41.42	15.46	-27.9	-29.5	14.8	0.00e+00	0	43	0	651165696	16	4337
2026-01-30 07:43:33.38	40.99	15.49	-28.0	-29.9	14.6	0.00e+00	0	43	0	657457152	16	4437
2026-01-30 07:43:35.39	40.56	15.51	-28.1	-30.0	14.5	1.50e-06	0	42	0	663748608	16	4477
2026-01-30 07:43:37.39	40.13	15.53	-27.9	-29.5	14.8	0.00e+00	0	43	0	670040064	16	4341
2026-01-30 07:43:39.39	39.71	15.55	-27.9	-29.5	14.8	0.00e+00	0	43	0	676331520	16	4334
2026-01-30 07:43:41.39	39.28	15.57	-27.8	-29.4	14.9	0.00e+00	0	42	0	682622976	16	4300
2026-01-30 07:43:43.40	38.84	15.59	-27.9	-29.5	14.8	0.00e+00	0	43	0	688914432	16	4323
2026-01-30 07:43:45.41	38.41	15.60	-28.0	-29.7	14.7	0.00e+00	0	43	0	695205888	16	4385
2026-01-30 07:43:47.42	37.98	15.62	-28.0	-29.8	14.7	0.00e+00	0	42	0	701497344	16	4418
2026-01-30 07:43:49.43	37.55	15.63	-28.0	-29.8	14.6	0.00e+00	0	43	0	707788800	16	4422
2026-01-30 07:43:51.44	37.11	15.64	-28.1	-30.0	14.5	7.00e-07	0	42	0	714080256	16	4485
2026-01-30 07:43:53.44	36.68	15.65	-28.1	-30.0	14.6	7.00e-07	0	43	0	720371712	16	4468
2026-01-30 07:43:55.45	36.25	15.65	-28.1	-29.9	14.6	0.00e+00	0	43	0	726663168	16	4449
2026-01-30 07:43:57.45	35.81	15.66	-28.1	-29.9	14.6	7.00e-07	0	43	0	732954624	16	4453
2026-01-30 07:43:59.46	35.38	15.66	-28.1	-30.0	14.5	0.00e+00	0	43	0	739246080	16	4469
2026-01-30 07:44:01.46	34.95	15.67	-28.1	-30.1	14.5	0.00e+00	0	43	0	745537536	16	4495
2026-01-30 07:44:03.46	34.52	15.67	-28.2	-30.2	14.4	1.50e-06	0	42	0	751828992	16	4544
2026-01-30 07:44:05.48	34.08	15.66	-28.2	-30.3	14.4	1.50e-06	0	43	0	758120448	16	4567
2026-01-30 07:44:07.48	33.65	15.66	-28.0	-29.7	14.8	0.00e+00	0	43	0	764411904	16	4378
2026-01-30 07:44:09.48	33.22	15.66	-27.9	-29.5	14.8	0.00e+00	0	43	0	770703360	16	4341
2026-01-30 07:44:11.49	32.78	15.65	-27.9	-29.5	14.8	0.00e+00	0	43	0	776994816	16	4324
2026-01-30 07:44:13.49	32.35	15.64	-27.9	-29.6	14.8	0.00e+00	0	42	0	783286272	16	4357
2026-01-30 07:44:15.49	31.92	15.63	-27.9	-29.6	14.8	0.00e+00	0	43	0	789577728	16	4363
2026-01-30 07:44:17.50	31.48	15.62	-28.0	-29.7	14.7	0.00e+00	0	43	0	795869184	16	4378
2026-01-30 07:44:19.50	31.05	15.61	-28.2	-30.2	14.4	1.50e-06	0	43	0	802160640	16	4532
2026-01-30 07:44:21.52	30.62	15.60	-28.0	-29.7	14.7	0.00e+00	0	43	0	808452096	16	4389
2026-01-30 07:44:23.53	30.19	15.58	-27.9	-29.4	14.8	0.00e+00	0	43	0	814743552	16	4313
2026-01-30 07:44:25.54	29.76	15.56	-28.0	-29.6	14.7	0.00e+00	0	43	0	821035008	16	4371
2026-01-30 07:44:27.54	29.33	15.54	-27.7	-29.1	15.1	0.00e+00	0	43	0	827326464	16	4210
2026-01-30 07:44:29.54	28.90	15.52	-27.7	-29.1	15.0	0.00e+00	0	43	0	833617920	16	4233
2026-01-30 07:44:31.55	28.47	15.50	-27.8	-29.3	14.9	0.00e+00	0	43	0	839909376	16	4288
2026-01-30 07:44:33.55	28.04	15.48	-27.8	-29.3	14.9	0.00e+00	0	43	0	846200832	16	4274
2026-01-30 07:44:35.58	27.61	15.45	-27.9	-29.5	14.8	0.00e+00	0	42	0	852492288	16	4332
2026-01-30 07:44:37.59	27.18	15.42	-27.9	-29.5	14.8	0.00e+00	0	43	0	857735168	16	4339
2026-01-30 07:44:39.60	26.76	15.39	-27.8	-29.4	14.9	0.00e+00	0	43	0	865075200	16	4305
2026-01-30 07:44:41.61	26.33	15.36	-27.7	-29.0	15.1	0.00e+00	0	42	0	871366656	16	4198
2026-01-30 07:44:43.61	25.91	15.33	-27.7	-29.1	15.0	0.00e+00	0	43	0	877658112	16	4211
2026-01-30 07:44:45.61	25.48	15.30	-27.8	-29.3	15.0	0.00e+00	0	43	0	882900992	16	4271
2026-01-30 07:44:47.61	25.06	15.26	-27.9	-29.6	14.7	7.00e-07	0	43	0	889192448	16	4367
2026-01-30 07:44:49.61	24.64	15.23	-28.0	-29.8	14.6	0.00e+00	0	43	0	895483904	16	4404
2026-01-30 07:44:51.62	24.22	15.19	-27.8	-29.3	14.9	0.00e+00	0	43	0	901775360	16	4276
2026-01-30 07:44:53.64	23.80	15.15	-27.9	-29.5	14.8	7.00e-07	0	43	0	908066816	16	4323
2026-01-30 07:44:55.65	23.38	15.11	-27.8	-29.3	14.9	7.00e-07	0	43	0	914358272	16	4293
2026-01-30 07:44:57.66	22.97	15.07	-27.8	-29.4	14.8	0.00e+00	0	43	0	920649728	16	4297
2026-01-30 07:44:59.66	22.55	15.02	-27.7	-29.1	15.0	0.00e+00	0	43	0	926941184	16	4218
2026-01-30 07:45:01.66	22.14	14.98	-27.9	-29.5	14.8	0.00e+00	0	43	0	933232640	16	4340
2026-01-30 07:45:03.67	21.72	14.93	-28.0	-29.8	14.6	1.50e-06	0	43	0	939524096	16	4413
2026-01-30 07:45:05.68	21.31	14.88	-28.0	-29.9	14.6	0.00e+00	0	43	0	945815552	16	4441
2026-01-30 07:45:07.69	20.90	14.83	-27.9	-29.6	14.7	0.00e+00	0	43	0	952107008	16	4377
2026-01-30 07:45:09.69	20.49	14.78	-27.8	-29.4	14.8	0.00e+00	0	43	0	958398464	16	4306
2026-01-30 07:45:11.69	20.09	14.73	-27.8	-29.3	14.9	0.00e+00	0	43	0	964689920	16	4283
2026-01-30 07:45:13.71	19.68	14.68	-27.9	-29.6	14.7	1.50e-06	0	43	0	970981376	16	4369
2026-01-30 07:45:15.72	19.27	14.62	-28.0	-29.8	14.6	1.50e-06	0	43	0	977272832	16	4421
2026-01-30 07:45:17.72	18.87	14.56	-28.1	-30.1	14.4	7.00e-07	0	43	0	983564288	16	4517
2026-01-30 07:45:19.72	18.47	14.51	-28.0	-29.8	14.6	0.00e+00	0	43	0	989855744	16	4437
2026-01-30 07:45:21.73	18.07	14.45	-28.1	-30.0	14.5	0.00e+00	0	43	0	996147200	16	4473
2026-01-30 07:45:23.73	17.67	14.39	-28.0	-29.8	14.6	0.00e+00	0	43	0	1002438656	16	4408
2026-01-30 07:45:25.73	17.28	14.33	-28.0	-29.8	14.5	7.00e-07	0	43	0	1008730112	16	4439
2026-01-30 07:45:27.74	16.88	14.27	-27.8	-29.3	14.8	7.00e-07	0	43	0	1015021568	16	4290
2026-01-30 07:45:29.75	16.49	14.20	-27.9	-29.5	14.7	0.00e+00	0	43	0	1021313024	16	4332
2026-01-30 07:45:31.76	16.10	14.14	-27.9	-29.5	14.7	0.00e+00	0	43	0	1027604480	16	4342
2026-01-30 07:45:33.77	15.71	14.07	-28.0	-29.8	14.5	0.00e+00	0	43	0	1033895936	16	4423
2026-01-30 07:45:35.78	15.32	14.00	-28.1	-30.0	14.4	7.00e-07	0	43	0	1040187392	16	4482
2026-01-30 07:45:37.77	14.94	13.94	-28.2	-30.3	14.3	2.20e-06	0	43	0	1046478848	16	4561
2026-01-30 07:45:39.78	14.55	13.87	-28.3	-30.4	14.2	7.00e-07	0	43	0	1052770304	16	4612
2026-01-30 07:45:41.79	14.17	13.80	-28.1	-30.1	14.4	0.00e+00	0	43	0	1059061760	16	4503
2026-01-30 07:45:43.80	13.79	13.73	-28.0	-29.8	14.5	0.00e+00	0	43	0	1065353216	16	4435
2026-01-30 07:45:45.81	13.41	13.65	-28.0	-29.8	14.5	0.00e+00	0	43	0	1071644672	16	4436
2026-01-30 07:45:47.81	13.03	13.58	-28.0	-29.8	14.5	0.00e+00	0	43	0	1077936128	16	4434
2026-01-30 07:45:49.82	12.66	13.51	-28.0	-29.8	14.5	7.00e-07	0	43	0	1084227584	16	4419
2026-01-30 07:45:51.82	12.29	13.43	-28.1	-29.9	14.4	0.00e+00	0	43	0	1090519040	16	4464
2026-01-30 07:45:53.84	11.91	13.35	-27.9	-29.7	14.5	7.00e-07	0	43	0	1096810496	16	4388
2026-01-30 07:45:55.86	11.54	13.28	-27.9	-29.5	14.6	7.00e-07	0	43	0	1103101952	16	4342
2026-01-30 07:45:57.85	11.18	13.20	-28.2	-30.3	14.2	4.50e-06	0	43	0	1109393408	16	4583
2026-01-30 07:45:59.86	10.81	13.12	-28.3	-30.5	14.1	6.10e-06	0	43	0	1115684864	16	4637
2026-01-30 07:46:01.85	10.45	13.04	-28.1	-30.1	14.3	0.00e+00	0	43	0	1121976320	16	4517
2026-01-30 07:46:03.86	10.09	12.96	-28.1	-30.0	14.3	7.00e-07	0	43	0	1128267776	16	4485
2026-01-30 07:46:05.86	9.73	12.88	-28.2	-30.3	14.1	0.00e+00	0	43	0	1134559232	16	4578
2026-01-30 07:46:07.87	9.37	12.79	-27.9	-29.5	14.6	7.00e-07	0	43	0	1140850688	16	4347
2026-01-30 07:46:09.88	9.02	12.71	-27.9	-29.6	14.6	1.50e-06	0	43	0	1147142144	16	4374
2026-01-30 07:46:11.89	8.66	12.63	-28.1	-30.0	14.3	0.00e+00	0	43	0	1153433600	16	4491
2026-01-30 07:46:13.89	8.31	12.54	-28.3	-30.4	14.1	3.00e-06	0	43	0	1158676480	16	4617
2026-01-30 07:46:15.89	7.97	12.46	-28.2	-30.4	14.1	1.50e-06	0	43	0	1164967936	16	4599
2026-01-30 07:46:17.89	7.62	12.37	-28.3	-30.4	14.0	4.50e-06	0	43	0	1171259392	16	4622
2026-01-30 07:46:19.90	7.28	12.28	-28.2	-30.3	14.1	3.80e-06	0	43	0	1177550848	16	4576
2026-01-30 07:46:21.90	6.93	12.20	-28.2	-30.3	14.1	7.00e-07	0	43	0	1183842304	16	4570
2026-01-30 07:46:23.91	6.59	12.11	-28.3	-30.5	14.0	1.50e-06	0	43	0	1190133760	16	4650
2026-01-30 07:46:25.91	6.26	12.02	-28.4	-30.8	13.8	3.80e-06	0	43	0	1196425216	16	4742
2026-01-30 07:46:27.91	5.92	11.93	-28.5	-30.6	13.6	7.60e-06	0	43	0	1202716672	17	4567
2026-01-30 07:46:29.91	5.59	11.84	-28.6	-30.7	13.6	1.06e-05	0	43	0	1209008128	17	4599
2026-01-30 07:46:31.93	5.25	11.75	-28.5	-30.4	13.7	1.29e-05	0	43	0	1215299584	17	4518
2026-01-30 07:46:33.94	4.92	11.66	-28.4	-30.2	13.8	6.80e-06	0	43	0	1221591040	17	4453
2026-01-30 07:46:35.95	4.59	11.56	-28.3	-30.1	13.9	3.00e-06	0	43	0	1227882496	17	4418
2026-01-30 07:46:37.96	4.27	11.47	-28.6	-30.9	13.4	1.22e-05	0	43	0	1234173952	17	4647
2026-01-30 07:46:39.96	3.94	11.38	-28.5	-30.6	13.6	6.80e-06	0	43	0	1240465408	17	4560
2026-01-30 07:46:41.97	3.62	11.28	-28.5	-30.6	13.6	6.80e-06	0	43	0	1246756864	17	4562
2026-01-30 07:46:43.98	3.30	11.19	-28.6	-30.8	13.4	9.10e-06	0	43	0	1253048320	17	4627
2026-01-30 07:46:45.98	2.99	11.09	-28.8	-31.2	13.2	2.05e-05	0	43	0	1259339776	17	4759
2026-01-30 07:46:47.99	2.67	11.00	-28.9	-31.6	12.9	4.27e-05	0	43	0	1265631232	17	4885
2026-01-30 07:46:50.00	2.36	10.90	-28.8	-31.3	13.1	2.67e-05	0	43	0	1271922688	17	4790
2026-01-30 07:46:52.01	2.04	10.81	-28.9	-31.6	12.9	4.80e-05	0	43	0	1278214144	17	4900
2026-01-30 07:46:54.02	1.73	10.71	-28.8	-31.2	13.1	3.58e-05	0	43	0	1284505600	17	4772
2026-01-30 07:46:56.03	1.43	10.61	-28.7	-31.1	13.2	2.28e-05	0	43	0	1290797056	17	4736
2026-01-30 07:46:58.05	1.12	10.51	-28.7	-31.1	13.1	2.28e-05	0	43	0	1297088512	17	4726
2026-01-30 07:47:00.05	0.82	10.42	-28.5	-30.6	13.5	9.10e-06	0	43	0	1303379968	17	4578
2026-01-30 07:47:02.06	0.52	10.32	-28.4	-30.4	13.6	6.10e-06	0	43	0	1309671424	17	4506
2026-01-30 07:47:04.08	0.22	10.22	-28.5	-30.6	13.5	1.06e-05	0	43	0	1315962880	17	4569
2026-01-30 07:47:06.09	359.92	10.12	-28.5	-30.6	13.4	1.90e-05	0	43	0	1322254336	17	4593
2026-01-30 07:47:08.10	359.62	10.02	-28.8	-31.3	13.0	3.35e-05	0	43	0	1328545792	17	4798
2026-01-30 07:47:10.10	359.33	9.92	-28.8	-31.2	13.1	4.11e-05	0	43	0	1334837248	17	4767
2026-01-30 07:47:12.12	359.04	9.82	-29.0	-31.7	12.7	7.70e-05	0	43	0	1341128704	17	4951
2026-01-30 07:47:14.12	358.75	9.72	-28.9	-31.5	12.8	6.10e-05	0	43	0	1347420160	17	4868
2026-01-30 07:47:16.13	358.47	9.62	-28.9	-31.7	12.7	6.40e-05	0	43	0	1353711616	17	4931
2026-01-30 07:47:18.13	358.18	9.52	-28.9	-31.1	12.8	5.79e-05	0	43	0	1360003072	18	4634
2026-01-30 07:47:20.12	357.90	9.42	-28.8	-30.7	13.0	4.04e-05	0	43	0	1366294528	18	4505
2026-01-30 07:47:22.12	357.62	9.32	-28.8	-30.8	13.0	4.27e-05	0	43	0	1372585984	18	4525
2026-01-30 07:47:24.13	357.34	9.21	-28.8	-30.8	12.9	4.95e-05	0	43	0	1378877440	18	4543
2026-01-30 07:47:26.14	357.07	9.11	-28.7	-30.7	13.0	4.73e-05	0	43	0	1385168896	18	4501
2026-01-30 07:47:28.15	356.79	9.01	-28.6	-30.3	13.3	1.98e-05	0	43	0	1391460352	18	4383
2026-01-30 07:47:30.16	356.52	8.91	-28.5	-30.1	13.4	2.36e-05	0	43	0	1397751808	18	4315
2026-01-30 07:47:32.17	356.25	8.80	-28.5	-30.2	13.3	1.52e-05	0	43	0	1404043264	18	4342
2026-01-30 07:47:34.17	355.98	8.70	-28.7	-30.5	13.1	2.51e-05	0	43	0	1410334720	18	4447
2026-01-30 07:47:36.18	355.71	8.60	-28.7	-30.6	13.0	4.04e-05	0	43	0	1416626176	18	4489
2026-01-30 07:47:38.19	355.45	8.49	-28.8	-30.7	12.9	4.50e-05	0	43	0	1422917632	18	4519
2026-01-30 07:47:40.19	355.19	8.39	-28.8	-30.9	12.8	6.02e-05	0	43	0	1429209088	18	4586
2026-01-30 07:47:42.20	354.92	8.29	-28.8	-31.0	12.7	7.47e-05	0	43	0	1435500544	18	4602
2026-01-30 07:47:44.19	354.67	8.19	-28.8	-30.9	12.7	7.62e-05	0	43	0	1441792000	18	4585
2026-01-30 07:47:46.20	354.41	8.08	-28.9	-31.2	12.5	8.85e-05	0	43	0	1448083456	18	4686
2026-01-30 07:47:48.21	354.15	7.98	-28.9	-31.1	12.6	9.15e-05	0	43	0	1454374912	18	4639
2026-01-30 07:47:50.22	353.90	7.87	-29.0	-31.3	12.5	1.20e-04	0	43	0	1460666368	18	4707
2026-01-30 07:47:52.22	353.65	7.77	-28.9	-31.1	12.6	1.05e-04	0	43	0	1466957824	18	4638
2026-01-30 07:47:54.22	353.40	7.67	-28.9	-31.3	12.4	1.17e-04	0	43	0	1473249280	18	4707
2026-01-30 07:47:56.23	353.15	7.56	-29.0	-31.4	12.4	1.52e-04	0	43	0	1478492160	18	4742
2026-01-30 07:47:58.24	352.91	7.46	-29.0	-31.5	12.3	1.42e-04	0	43	0	1484783616	18	4768
2026-01-30 07:48:00.24	352.66	7.35	-29.0	-31.4	12.3	1.87e-04	0	43	0	1491075072	18	4756
2026-01-30 07:48:02.25	352.42	7.25	-28.9	-31.2	12.4	1.46e-04	0	43	0	1497366528	18	4699
2026-01-30 07:48:04.25	352.18	7.14	-29.0	-31.5	12.3	2.10e-04	0	43	0	1503657984	18	4773
2026-01-30 07:48:06.26	351.94	7.04	-29.8	-33.1	11.1	9.84e-05	0	43	0	1509949440	19	5254

#Closed at: 2026-01-30 07:48:07
#Recorded file [1510 MB]: D:/data/31010_260130_104002.dat