passes_logs/2026/01/30/R2M6_AANII_01/R2M6_AANII_01__20260130_001424_NOAA_20_JPSS-1_rec.log

#Pass ID: 20260130_001424_NOAA 20 (JPSS-1)
#Satellite: NOAA 20 (JPSS-1)
#Configuration: NOAA 20
#almurnet v.1.7.20240730
#Start time: 2026-01-30 00:14:24

#Version: 2.2.20231116
#Station: R2M6_AANII_01
#Location: 30.233357 lon 59.946436 lat
#TLE: 1 43013U 17073A   26028.86313978  .00000144  00000+0  89200-4 0  9993
#TLE: 2 43013  98.7648 329.6571 0000891  20.0014 340.1197 14.19541559424709

#Time	Az	El	Level	Level2	SNR	BER	BlckErr	Temp	State	Recorded	gain1	gain2
2026-01-30 00:14:24.94	18.71	7.06	-31.7	-38.5	4.9	1.32e+00	0	41	0	0	23	7892
2026-01-30 00:14:27.95	18.74	7.29	-31.7	-38.3	7.4	1.19e-01	0	41	0	1048576	23	7718
2026-01-30 00:14:30.95	18.77	7.53	-31.7	-38.3	7.4	1.13e-01	0	41	0	7340032	23	7734
2026-01-30 00:14:33.96	18.80	7.76	-31.8	-38.8	7.1	1.64e-01	0	41	0	12582912	23	8030
2026-01-30 00:14:36.97	18.83	8.00	-31.5	-37.5	8.1	5.58e-02	0	42	0	17825792	23	7138
2026-01-30 00:14:39.97	18.86	8.24	-31.1	-36.1	9.6	1.64e-02	0	42	0	24117248	22	6397
2026-01-30 00:14:42.98	18.89	8.49	-30.6	-34.8	11.0	3.72e-03	0	42	0	29360128	21	5867
2026-01-30 00:14:45.99	18.92	8.73	-30.6	-34.8	11.0	4.03e-03	0	41	0	35651584	21	5858
2026-01-30 00:14:49.00	18.95	8.98	-30.4	-34.8	11.4	3.72e-03	0	42	0	40894464	20	5945
2026-01-30 00:14:52.01	18.99	9.23	-30.5	-34.5	11.2	4.13e-03	0	42	0	46137344	21	5721
2026-01-30 00:14:55.03	19.02	9.48	-30.6	-34.7	11.1	4.10e-03	0	42	0	52428800	21	5808
2026-01-30 00:14:58.04	19.05	9.74	-30.6	-34.8	10.9	4.62e-03	0	42	0	57671680	21	5844
2026-01-30 00:15:01.05	19.08	10.00	-30.7	-35.2	10.8	6.27e-03	0	42	0	63963136	21	6031
2026-01-30 00:15:04.06	19.12	10.26	-30.6	-34.8	11.1	3.83e-03	0	42	0	69206016	21	5839
2026-01-30 00:15:07.07	19.15	10.52	-30.8	-35.4	10.8	4.92e-03	0	42	0	74448896	21	6092
2026-01-30 00:15:10.08	19.18	10.79	-30.9	-35.8	10.5	6.33e-03	0	42	0	80740352	21	6297
2026-01-30 00:15:13.09	19.22	11.06	-30.9	-35.6	10.7	6.02e-03	0	42	0	85983232	21	6185
2026-01-30 00:15:16.10	19.25	11.33	-30.9	-35.6	10.6	6.08e-03	0	42	0	91226112	21	6216
2026-01-30 00:15:19.10	19.29	11.61	-31.0	-36.0	10.4	4.45e-03	0	42	0	97517568	21	6411
2026-01-30 00:15:22.11	19.33	11.89	-30.8	-35.2	11.0	2.99e-03	0	42	0	102760448	21	6005
2026-01-30 00:15:25.12	19.36	12.17	-30.3	-34.1	12.2	2.93e-03	0	42	0	109051904	20	5589
2026-01-30 00:15:28.14	19.40	12.45	-30.1	-33.7	12.5	2.52e-03	0	42	0	114294784	20	5412
2026-01-30 00:15:31.15	19.44	12.74	-30.0	-33.3	12.7	2.66e-03	0	42	0	119537664	20	5278
2026-01-30 00:15:34.16	19.47	13.04	-29.9	-32.9	13.0	2.82e-03	0	42	0	125829120	20	5096
2026-01-30 00:15:37.16	19.51	13.33	-29.9	-33.4	13.1	3.22e-04	0	42	0	131072000	19	5400
2026-01-30 00:15:40.17	19.55	13.63	-30.0	-33.6	13.0	3.77e-04	0	42	0	136314880	19	5476
2026-01-30 00:15:43.17	19.59	13.93	-29.8	-33.2	13.3	3.04e-04	0	42	0	142606336	19	5310
2026-01-30 00:15:46.19	19.63	14.24	-29.8	-33.1	13.3	3.47e-04	0	43	0	147849216	19	5269
2026-01-30 00:15:49.20	19.67	14.55	-29.7	-32.9	13.5	1.14e-05	0	43	0	154140672	19	5192
2026-01-30 00:15:52.21	19.71	14.87	-29.8	-33.0	13.5	2.61e-03	0	43	0	159383552	19	5239
2026-01-30 00:15:55.22	19.75	15.19	-29.9	-33.3	13.3	3.00e-04	0	43	0	164626432	19	5353
2026-01-30 00:15:58.23	19.79	15.51	-29.8	-33.2	13.4	2.67e-04	0	43	0	170917888	19	5302
2026-01-30 00:16:01.24	19.84	15.84	-29.9	-33.2	13.3	2.68e-04	0	43	0	176160768	19	5319
2026-01-30 00:16:04.26	19.88	16.17	-29.8	-33.1	13.5	6.80e-06	0	43	0	182452224	19	5261
2026-01-30 00:16:07.26	19.92	16.51	-29.8	-33.1	13.4	1.75e-05	0	43	0	187695104	19	5273
2026-01-30 00:16:10.27	19.97	16.85	-29.7	-32.8	12.7	3.00e-06	0	43	0	192937984	19	5137
2026-01-30 00:16:13.28	20.01	17.20	-29.7	-32.8	13.4	8.30e-06	0	43	0	199229440	19	5147
2026-01-30 00:16:16.27	20.06	17.54	-29.8	-32.9	13.6	2.25e-03	0	43	0	204472320	19	5183
2026-01-30 00:16:19.29	20.11	17.90	-29.9	-33.3	13.4	3.46e-04	0	43	0	209715200	19	5311
2026-01-30 00:16:22.29	20.15	18.26	-29.8	-33.1	13.6	8.30e-06	0	43	0	216006656	19	5231
2026-01-30 00:16:25.30	20.20	18.63	-30.0	-33.5	13.3	1.29e-05	0	43	0	221249536	19	5383
2026-01-30 00:16:28.31	20.25	19.00	-30.0	-33.1	13.2	2.89e-05	0	43	0	227540992	20	5153
2026-01-30 00:16:31.32	20.30	19.38	-30.0	-33.0	13.2	2.28e-05	0	43	0	232783872	20	5121
2026-01-30 00:16:34.33	20.35	19.77	-30.0	-33.0	13.3	2.28e-03	0	43	0	238026752	20	5103
2026-01-30 00:16:37.33	20.41	20.16	-30.2	-33.6	12.9	2.22e-03	0	43	0	244318208	20	5331
2026-01-30 00:16:40.35	20.46	20.55	-30.3	-33.9	12.7	2.10e-03	0	43	0	249561088	20	5442
2026-01-30 00:16:43.36	20.52	20.96	-30.3	-33.9	12.7	2.40e-03	0	43	0	254803968	20	5455
2026-01-30 00:16:46.36	20.57	21.36	-30.2	-33.6	12.9	5.03e-05	0	43	0	261095424	20	5313
2026-01-30 00:16:49.37	20.63	21.78	-30.3	-33.8	12.8	2.19e-03	0	43	0	266338304	20	5421
2026-01-30 00:16:52.37	20.69	22.20	-30.1	-33.3	13.2	2.33e-03	0	43	0	272629760	20	5205
2026-01-30 00:16:55.39	20.75	22.63	-30.1	-33.2	13.2	2.22e-03	0	43	0	277872640	20	5186
2026-01-30 00:16:58.40	20.81	23.07	-30.2	-33.5	13.0	2.04e-03	0	43	0	283115520	20	5290
2026-01-30 00:17:01.41	20.87	23.52	-30.3	-33.9	12.8	2.36e-03	0	43	0	289406976	20	5432
2026-01-30 00:17:04.42	20.93	23.97	-30.4	-34.1	12.7	2.31e-03	0	43	0	294649856	20	5536
2026-01-30 00:17:07.42	21.00	24.43	-30.5	-34.0	12.4	1.34e-04	0	43	0	300941312	21	5366
2026-01-30 00:17:10.44	21.06	24.90	-30.6	-34.2	12.3	2.55e-03	0	43	0	306184192	21	5453
2026-01-30 00:17:13.45	21.13	25.38	-30.3	-33.8	12.9	2.32e-03	0	43	0	311427072	20	5386
2026-01-30 00:17:16.45	21.20	25.86	-30.4	-34.0	12.8	2.14e-03	0	43	0	317718528	20	5481
2026-01-30 00:17:19.46	21.27	26.36	-30.4	-34.1	12.8	2.40e-03	0	43	0	322961408	20	5502
2026-01-30 00:17:22.48	21.35	26.87	-30.4	-34.0	12.9	2.28e-03	0	43	0	328204288	20	5454
2026-01-30 00:17:25.49	21.42	27.38	-30.3	-33.8	12.9	9.00e-05	0	43	0	334495744	20	5401
2026-01-30 00:17:28.50	21.50	27.90	-30.4	-34.1	12.8	5.79e-05	0	43	0	339738624	20	5495
2026-01-30 00:17:31.51	21.58	28.44	-30.6	-34.2	12.4	1.77e-04	0	43	0	346030080	21	5441
2026-01-30 00:17:34.52	21.66	28.98	-30.8	-34.8	12.0	2.97e-04	0	43	0	351272960	21	5703
2026-01-30 00:17:37.53	21.75	29.54	-30.8	-34.9	12.0	2.34e-03	0	43	0	356515840	21	5722
2026-01-30 00:17:40.54	21.84	30.11	-30.9	-35.1	11.9	2.35e-03	0	43	0	362807296	21	5810
2026-01-30 00:17:43.55	21.93	30.68	-31.1	-35.2	11.5	8.68e-04	0	43	0	368050176	22	5737
2026-01-30 00:17:46.56	22.02	31.28	-31.3	-35.8	11.0	1.81e-03	0	43	0	374341632	22	6025
2026-01-30 00:17:49.57	22.12	31.88	-31.6	-36.3	10.3	3.99e-03	0	43	0	379584512	23	6179
2026-01-30 00:17:52.59	22.22	32.49	-31.8	-37.0	9.8	1.26e-02	0	43	0	384827392	23	6517
2026-01-30 00:17:55.59	22.32	33.12	-31.2	-35.4	11.3	1.65e-03	0	43	0	391118848	22	5847
2026-01-30 00:17:58.60	22.43	33.76	-30.8	-34.5	12.3	2.14e-04	0	43	0	396361728	21	5555
2026-01-30 00:18:01.62	22.54	34.42	-30.3	-33.3	13.1	3.73e-05	0	43	0	401604608	21	5061
2026-01-30 00:18:04.62	22.65	35.08	-30.0	-32.8	13.8	6.80e-06	0	43	0	407896064	20	4966
2026-01-30 00:18:07.62	22.77	35.76	-30.0	-32.8	13.8	6.80e-06	0	43	0	413138944	20	4982
2026-01-30 00:18:10.64	22.89	36.46	-29.9	-33.0	14.1	0.00e+00	0	43	0	419430400	19	5154
2026-01-30 00:18:13.64	23.02	37.17	-29.9	-33.1	14.1	7.00e-07	0	43	0	424673280	19	5172
2026-01-30 00:18:16.65	23.15	37.90	-29.6	-32.3	14.5	0.00e+00	0	43	0	429916160	19	4918
2026-01-30 00:18:19.65	23.29	38.64	-29.5	-32.1	14.7	0.00e+00	0	43	0	436207616	19	4819
2026-01-30 00:18:22.66	23.44	39.40	-29.8	-32.7	14.4	1.50e-06	0	43	0	441450496	19	5022
2026-01-30 00:18:25.67	23.59	40.18	-29.8	-32.8	14.2	7.00e-07	0	43	0	446693376	19	5089
2026-01-30 00:18:28.68	23.75	40.98	-30.0	-32.7	14.0	7.00e-07	0	43	0	452984832	20	4945
2026-01-30 00:18:31.69	23.91	41.79	-30.3	-33.6	13.4	1.22e-05	0	43	0	458227712	20	5257
2026-01-30 00:18:34.71	24.09	42.62	-30.7	-34.2	12.7	4.57e-05	0	43	0	464519168	21	5372
2026-01-30 00:18:37.71	24.27	43.47	-30.4	-33.5	13.1	3.73e-05	0	43	0	469762048	21	5130
2026-01-30 00:18:40.73	24.46	44.34	-30.4	-33.3	13.3	6.80e-06	0	43	0	475004928	21	5036
2026-01-30 00:18:43.73	24.66	45.23	-30.6	-34.0	12.9	7.09e-05	0	43	0	481296384	21	5307
2026-01-30 00:18:46.74	24.88	46.14	-31.2	-35.1	11.8	3.93e-04	0	43	0	486539264	22	5660
2026-01-30 00:18:49.75	25.10	47.07	-31.2	-35.1	11.8	5.03e-04	0	43	0	492830720	22	5660
2026-01-30 00:18:52.75	25.34	48.01	-31.7	-36.1	10.7	3.11e-03	0	43	0	498073600	23	6014
2026-01-30 00:18:55.76	25.59	48.98	-31.7	-36.1	10.8	2.59e-03	0	43	0	503316480	23	5992
2026-01-30 00:18:58.76	25.86	49.97	-30.7	-33.6	12.9	9.00e-05	0	43	0	509607936	22	5021
2026-01-30 00:19:01.76	26.15	50.98	-30.1	-33.0	13.9	8.30e-06	0	43	0	514850816	20	5026
2026-01-30 00:19:04.77	26.45	52.01	-29.5	-31.9	15.0	0.00e+00	0	43	0	520093696	19	4740
2026-01-30 00:19:07.78	26.78	53.07	-28.8	-30.3	16.0	0.00e+00	0	43	0	526385152	19	4248
2026-01-30 00:19:10.79	27.13	54.15	-28.2	-29.7	16.9	0.00e+00	0	43	0	531628032	17	4277
2026-01-30 00:19:13.80	27.51	55.25	-28.3	-29.9	16.8	0.00e+00	0	43	0	537919488	17	4343
2026-01-30 00:19:16.81	27.92	56.37	-28.0	-29.7	17.2	0.00e+00	0	43	0	543162368	16	4380
2026-01-30 00:19:19.82	28.36	57.51	-29.1	-31.4	15.7	0.00e+00	0	43	0	548405248	18	4692
2026-01-30 00:19:22.83	28.84	58.68	-29.2	-31.2	15.5	0.00e+00	0	43	0	554696704	19	4524
2026-01-30 00:19:25.85	29.36	59.87	-28.8	-30.3	16.1	0.00e+00	0	43	0	559939584	19	4236
2026-01-30 00:19:28.87	29.94	61.08	-28.6	-30.6	16.5	0.00e+00	0	43	0	565182464	17	4548
2026-01-30 00:19:31.88	30.57	62.31	-28.2	-29.8	17.0	0.00e+00	0	43	0	571473920	17	4307
2026-01-30 00:19:34.88	31.27	63.55	-28.6	-30.7	16.4	0.00e+00	0	43	0	576716800	17	4573
2026-01-30 00:19:37.89	32.04	64.82	-29.7	-32.3	14.9	0.00e+00	0	43	0	583008256	19	4859
2026-01-30 00:19:40.89	32.91	66.10	-29.9	-33.5	12.7	4.27e-05	0	43	0	588251136	21	5470
2026-01-30 00:19:43.90	33.88	67.40	-30.3	-33.3	13.2	2.20e-06	0	43	0	593494016	20	5128
2026-01-30 00:19:46.92	34.99	68.71	-30.2	-33.2	14.1	3.00e-06	0	43	0	599785472	20	5056
2026-01-30 00:19:49.92	36.25	70.03	-30.2	-33.2	14.0	7.16e-04	0	43	0	605028352	20	5096
2026-01-30 00:19:52.93	37.70	71.36	-30.0	-32.7	14.4	7.00e-07	0	43	0	610271232	20	4895
2026-01-30 00:19:55.94	39.39	72.70	-30.9	-34.6	12.9	2.13e-05	0	44	0	616562688	21	5488
2026-01-30 00:19:58.95	41.37	74.03	-31.2	-34.4	12.3	4.07e-04	0	43	0	621805568	23	5186
2026-01-30 00:20:01.96	43.73	75.36	-31.5	-35.3	11.7	2.38e-04	0	43	0	628097024	23	5593
2026-01-30 00:20:04.97	46.58	76.67	-31.6	-35.7	11.4	1.12e-03	0	43	0	633339904	23	5741
2026-01-30 00:20:07.98	50.06	77.95	-32.1	-36.9	10.2	5.25e-03	0	43	0	638582784	24	6213
2026-01-30 00:20:11.00	54.38	79.20	-31.5	-35.1	11.9	2.00e-03	0	43	0	644874240	23	5497
2026-01-30 00:20:14.02	59.83	80.38	-31.3	-35.1	12.3	1.60e-03	0	43	0	650117120	22	5587
2026-01-30 00:20:17.02	66.68	81.45	-30.8	-34.2	13.3	4.03e-04	0	43	0	656408576	21	5312
2026-01-30 00:20:20.02	75.36	82.36	-29.6	-31.5	15.3	0.00e+00	0	43	0	661651456	20	4485
2026-01-30 00:20:23.02	86.11	83.07	-29.3	-31.8	15.8	1.31e-03	0	43	0	666894336	18	4780
2026-01-30 00:20:26.03	98.81	83.49	-29.9	-32.8	15.0	1.09e-04	0	44	0	673185792	19	4992
2026-01-30 00:20:29.05	112.53	83.56	-30.1	-32.6	14.8	3.42e-04	0	43	0	678428672	20	4830
2026-01-30 00:20:32.06	125.75	83.26	-31.0	-34.2	13.1	5.77e-04	0	44	0	683671552	22	5176
2026-01-30 00:20:35.07	137.31	82.66	-32.5	-37.3	9.8	7.60e-03	0	43	0	689963008	25	6239
2026-01-30 00:20:38.08	146.78	81.80	-32.3	-36.7	10.3	5.11e-03	0	44	0	695205888	25	5959
2026-01-30 00:20:41.09	154.29	80.78	-31.6	-34.8	12.2	2.17e-04	0	44	0	701497344	24	5201
2026-01-30 00:20:44.10	160.21	79.64	-30.6	-33.6	13.8	6.80e-06	0	43	0	706740224	21	5065
2026-01-30 00:20:47.11	164.90	78.42	-30.7	-33.7	13.8	1.13e-03	0	43	0	711983104	21	5113
2026-01-30 00:20:50.11	168.65	77.15	-32.4	-37.5	10.1	8.74e-04	0	43	0	718274560	24	6478
2026-01-30 00:20:53.13	171.72	75.84	-33.5	-41.0	6.1	2.87e-01	0	43	0	723517440	27	8587
2026-01-30 00:20:56.13	174.24	74.52	-32.9	-38.4	8.5	4.22e-02	0	43	0	728760320	26	6832
2026-01-30 00:20:59.13	176.35	73.19	-33.3	-40.7	6.7	2.38e-01	0	43	0	735051776	26	8420
2026-01-30 00:21:02.15	178.15	71.85	-31.8	-35.6	11.4	6.10e-04	0	44	0	740294656	24	5586
2026-01-30 00:21:05.16	179.68	70.51	-31.7	-35.3	11.5	8.41e-04	0	44	0	746586112	24	5423
2026-01-30 00:21:08.16	181.01	69.19	-32.5	-38.0	9.7	6.72e-03	0	44	0	751828992	24	6772
2026-01-30 00:21:11.17	182.17	67.87	-32.5	-37.3	9.7	9.58e-03	0	43	0	757071872	25	6304
2026-01-30 00:21:14.18	183.19	66.56	-32.8	-38.0	8.7	9.76e-02	0	43	0	763363328	26	6583
2026-01-30 00:21:17.18	184.09	65.27	-32.0	-36.2	10.9	9.12e-04	0	43	0	768606208	24	5860
2026-01-30 00:21:20.20	184.90	64.00	-31.2	-34.1	12.6	1.97e-03	0	44	0	774897664	23	5079
2026-01-30 00:21:23.20	185.62	62.74	-29.6	-31.7	15.2	0.00e+00	0	44	0	780140544	20	4539
2026-01-30 00:21:26.22	186.28	61.50	-29.7	-32.4	15.1	0.00e+00	0	43	0	785383424	19	4878
2026-01-30 00:21:29.22	186.87	60.28	-29.9	-32.8	14.8	0.00e+00	0	43	0	791674880	19	5010
2026-01-30 00:21:32.23	187.41	59.09	-30.5	-33.5	13.6	9.90e-06	0	43	0	796917760	21	5063
2026-01-30 00:21:35.25	187.91	57.91	-31.6	-35.7	11.4	1.36e-03	0	43	0	802160640	23	5775
2026-01-30 00:21:38.26	188.37	56.75	-31.3	-35.4	12.0	5.78e-04	0	43	0	808452096	22	5720
2026-01-30 00:21:41.27	188.79	55.62	-30.6	-33.6	13.6	4.50e-06	0	44	0	813694976	21	5095
2026-01-30 00:21:44.27	189.17	54.51	-29.4	-31.2	15.3	0.00e+00	0	43	0	819986432	20	4396
2026-01-30 00:21:47.28	189.53	53.42	-30.0	-32.6	14.5	0.00e+00	0	44	0	825229312	20	4852
2026-01-30 00:21:50.29	189.87	52.35	-29.7	-32.2	15.1	0.00e+00	0	43	0	830472192	19	4822
2026-01-30 00:21:53.30	190.18	51.30	-31.7	-36.1	11.1	8.71e-04	0	44	0	836763648	23	5960
2026-01-30 00:21:56.31	190.47	50.28	-32.6	-38.2	8.7	3.95e-02	0	43	0	842006528	25	6908
2026-01-30 00:21:59.32	190.75	49.28	-32.0	-36.6	10.3	1.10e-02	0	43	0	847249408	24	6110
2026-01-30 00:22:02.33	191.01	48.30	-33.4	-42.0	5.7	2.79e-01	0	43	0	853540864	26	9722
2026-01-30 00:22:05.33	191.25	47.34	-31.8	-35.8	10.7	4.10e-02	0	43	0	858783744	24	5744
2026-01-30 00:22:08.35	191.48	46.40	-30.6	-33.7	13.3	1.22e-05	0	43	0	865075200	21	5170
2026-01-30 00:22:11.36	191.70	45.48	-31.3	-35.4	11.9	7.39e-04	0	43	0	870318080	22	5735
2026-01-30 00:22:14.37	191.90	44.58	-31.1	-34.9	12.2	1.07e-03	0	43	0	875560960	22	5531
2026-01-30 00:22:17.37	192.10	43.70	-29.5	-32.0	15.1	7.41e-04	0	43	0	881852416	19	4774
2026-01-30 00:22:20.37	192.28	42.85	-29.3	-31.8	15.5	1.05e-03	0	43	0	887095296	18	4823
2026-01-30 00:22:23.38	192.46	42.01	-30.5	-33.6	13.3	1.38e-03	0	43	0	892338176	21	5165
2026-01-30 00:22:26.39	192.63	41.18	-31.1	-34.7	12.3	1.95e-03	0	43	0	898629632	22	5477
2026-01-30 00:22:29.41	192.79	40.38	-29.8	-32.2	14.6	7.00e-07	0	43	0	903872512	20	4732
2026-01-30 00:22:32.41	192.94	39.59	-29.9	-32.9	14.5	1.76e-03	0	43	0	910163968	19	5089
2026-01-30 00:22:35.43	193.09	38.82	-31.3	-35.3	11.9	1.95e-03	0	43	0	915406848	22	5707
2026-01-30 00:22:38.44	193.23	38.07	-32.6	-38.5	8.2	3.27e-02	0	43	0	920649728	25	7157
2026-01-30 00:22:41.45	193.36	37.33	-32.1	-37.0	9.9	2.33e-02	0	43	0	926941184	24	6350
2026-01-30 00:22:44.45	193.49	36.61	-31.2	-35.1	12.0	3.25e-04	0	44	0	932184064	22	5608
2026-01-30 00:22:47.46	193.61	35.91	-31.2	-35.0	12.0	3.79e-04	0	43	0	938475520	22	5590
2026-01-30 00:22:50.47	193.73	35.21	-31.2	-35.0	12.0	2.84e-04	0	43	0	943718400	22	5597
2026-01-30 00:22:53.47	193.85	34.54	-32.4	-38.6	8.5	2.91e-02	0	43	0	948961280	24	7329
2026-01-30 00:22:56.48	193.96	33.88	-33.2	-41.9	5.5	4.63e-01	0	43	0	955252736	26	9754
2026-01-30 00:22:59.50	194.06	33.23	-32.9	-39.9	6.8	2.53e-01	0	43	0	960495616	26	8022
2026-01-30 00:23:02.51	194.17	32.60	-32.4	-37.6	8.8	4.38e-02	0	43	0	965738496	25	6610
2026-01-30 00:23:05.52	194.26	31.97	-32.3	-37.9	9.1	1.99e-02	0	43	0	972029952	24	6825
2026-01-30 00:23:08.53	194.36	31.37	-32.1	-37.3	9.5	1.56e-02	0	43	0	977272832	24	6488
2026-01-30 00:23:11.54	194.45	30.77	-32.5	-38.5	8.5	2.56e-02	0	43	0	983564288	24	7250
2026-01-30 00:23:14.55	194.54	30.18	-32.6	-38.5	8.1	4.86e-02	0	43	0	988807168	25	7161
2026-01-30 00:23:17.56	194.63	29.61	-32.3	-38.0	8.9	3.73e-02	0	43	0	994050048	24	6933
2026-01-30 00:23:20.58	194.72	29.05	-32.3	-38.0	8.9	2.70e-02	0	43	0	1000341504	24	6957
2026-01-30 00:23:23.59	194.80	28.50	-31.9	-37.2	9.9	1.13e-02	0	44	0	1005584384	23	6580
2026-01-30 00:23:26.60	194.88	27.96	-31.0	-34.6	12.1	5.70e-04	0	43	0	1011875840	22	5466
2026-01-30 00:23:29.62	194.95	27.43	-30.4	-33.5	13.2	1.84e-04	0	43	0	1017118720	21	5115
2026-01-30 00:23:32.64	195.03	26.91	-30.0	-32.9	13.9	1.91e-04	0	43	0	1022361600	20	5009
2026-01-30 00:23:35.65	195.10	26.40	-30.0	-32.9	13.8	1.91e-04	0	43	0	1028653056	20	5022
2026-01-30 00:23:38.66	195.17	25.90	-30.1	-33.0	13.8	2.10e-04	0	43	0	1033895936	20	5052
2026-01-30 00:23:41.67	195.24	25.40	-30.3	-33.6	13.4	2.32e-04	0	43	0	1039138816	20	5262
2026-01-30 00:23:44.67	195.31	24.92	-30.3	-33.6	13.4	2.77e-04	0	43	0	1045430272	20	5266
2026-01-30 00:23:47.69	195.38	24.45	-30.1	-33.1	13.7	2.45e-04	0	43	0	1050673152	20	5084
2026-01-30 00:23:50.71	195.44	23.98	-29.8	-32.9	14.2	2.46e-04	0	43	0	1056964608	19	5122
2026-01-30 00:23:53.72	195.50	23.52	-29.5	-32.0	14.8	2.12e-04	0	43	0	1062207488	19	4785
2026-01-30 00:23:56.73	195.56	23.07	-29.3	-32.0	15.1	1.89e-04	0	44	0	1067450368	18	4900
2026-01-30 00:23:59.74	195.62	22.63	-29.0	-31.7	15.5	3.40e-04	0	43	0	1073741824	17	4917
2026-01-30 00:24:02.73	195.68	22.20	-29.0	-31.4	15.4	1.79e-04	0	43	0	1078984704	18	4708
2026-01-30 00:24:05.73	195.74	21.78	-29.2	-31.7	15.2	1.74e-04	0	43	0	1084227584	18	4801
2026-01-30 00:24:08.74	195.79	21.36	-29.3	-31.9	15.0	2.03e-04	0	43	0	1090519040	18	4902
2026-01-30 00:24:11.75	195.85	20.94	-29.4	-32.4	14.8	2.09e-04	0	44	0	1095761920	18	5046
2026-01-30 00:24:14.75	195.90	20.54	-29.5	-32.2	14.5	2.14e-04	0	43	0	1102053376	19	4889
2026-01-30 00:24:17.75	195.95	20.14	-29.9	-33.2	13.9	4.50e-06	0	43	0	1107296256	19	5247
2026-01-30 00:24:20.76	196.00	19.75	-30.0	-33.3	13.9	2.12e-04	0	43	0	1112539136	19	5268
2026-01-30 00:24:23.78	196.05	19.36	-30.0	-32.9	13.7	1.98e-04	0	43	0	1118830592	20	5018
2026-01-30 00:24:26.79	196.10	18.98	-30.0	-32.9	13.7	2.04e-04	0	43	0	1124073472	20	5016
2026-01-30 00:24:29.79	196.15	18.60	-29.8	-32.4	14.0	1.85e-04	0	43	0	1130364928	20	4861
2026-01-30 00:24:32.81	196.20	18.23	-29.9	-33.1	13.9	1.77e-04	0	43	0	1135607808	19	5194
2026-01-30 00:24:35.82	196.24	17.86	-29.9	-33.1	13.9	8.30e-06	0	43	0	1140850688	19	5189
2026-01-30 00:24:38.82	196.29	17.51	-30.0	-33.4	13.7	5.30e-06	0	44	0	1147142144	19	5306
2026-01-30 00:24:41.84	196.33	17.15	-30.0	-33.3	13.7	6.10e-06	0	44	0	1152385024	19	5291
2026-01-30 00:24:44.85	196.38	16.80	-29.9	-32.7	13.7	7.60e-06	0	44	0	1157627904	20	4980
2026-01-30 00:24:47.86	196.42	16.46	-29.9	-32.6	13.7	1.22e-05	0	44	0	1163919360	20	4951
2026-01-30 00:24:50.87	196.46	16.12	-30.0	-33.3	13.7	1.37e-05	0	44	0	1169162240	19	5298
2026-01-30 00:24:53.87	196.50	15.78	-30.1	-33.2	13.3	1.44e-05	0	43	0	1175453696	20	5174
2026-01-30 00:24:56.89	196.54	15.45	-29.9	-32.7	13.6	7.60e-06	0	43	0	1180696576	20	4986
2026-01-30 00:24:59.90	196.58	15.13	-30.1	-33.2	13.3	1.60e-05	0	44	0	1185939456	20	5157
2026-01-30 00:25:02.91	196.62	14.81	-30.1	-33.3	13.2	2.36e-05	0	43	0	1192230912	20	5219
2026-01-30 00:25:05.92	196.66	14.49	-30.1	-33.3	13.2	3.12e-05	0	43	0	1197473792	20	5191
2026-01-30 00:25:08.94	196.70	14.17	-30.0	-33.1	13.3	1.44e-05	0	43	0	1202716672	20	5146
2026-01-30 00:25:11.94	196.74	13.87	-30.2	-33.6	12.6	4.73e-05	0	43	0	1209008128	20	5343
2026-01-30 00:25:14.95	196.78	13.56	-30.2	-33.8	12.1	2.36e-03	0	44	0	1214251008	20	5419
2026-01-30 00:25:17.97	196.81	13.26	-30.3	-34.1	12.6	8.46e-05	0	43	0	1220542464	20	5532
2026-01-30 00:25:20.97	196.85	12.96	-30.5	-34.1	12.2	1.81e-04	0	44	0	1225785344	21	5454
2026-01-30 00:25:23.98	196.88	12.67	-30.5	-34.6	12.2	2.27e-04	0	44	0	1231028224	20	5762
2026-01-30 00:25:26.99	196.92	12.38	-30.7	-34.6	11.8	3.98e-04	0	43	0	1237319680	21	5671
2026-01-30 00:25:30.00	196.95	12.09	-30.6	-34.6	11.8	5.90e-04	0	44	0	1242562560	21	5656
2026-01-30 00:25:33.01	196.99	11.80	-30.6	-34.5	11.8	2.83e-03	0	43	0	1248854016	21	5629
2026-01-30 00:25:36.01	197.02	11.52	-30.8	-35.0	11.4	3.07e-03	0	43	0	1254096896	21	5850
2026-01-30 00:25:39.01	197.05	11.25	-30.7	-34.7	11.6	2.66e-03	0	44	0	1259339776	21	5720
2026-01-30 00:25:42.02	197.08	10.97	-30.6	-34.4	11.8	5.10e-04	0	44	0	1265631232	21	5602
2026-01-30 00:25:45.03	197.12	10.70	-30.7	-34.7	11.6	7.64e-04	0	44	0	1270874112	21	5720
2026-01-30 00:25:48.04	197.15	10.43	-30.7	-34.9	11.5	1.23e-03	0	44	0	1277165568	21	5793
2026-01-30 00:25:51.06	197.18	10.17	-30.7	-34.7	11.5	2.99e-03	0	44	0	1282408448	21	5734
2026-01-30 00:25:54.06	197.21	9.90	-30.6	-34.5	11.6	2.91e-03	0	44	0	1287651328	21	5662
2026-01-30 00:25:57.08	197.24	9.64	-30.5	-34.4	11.8	2.50e-03	0	44	0	1293942784	21	5587
2026-01-30 00:26:00.09	197.27	9.39	-30.6	-34.6	11.6	2.90e-03	0	44	0	1299185664	21	5674
2026-01-30 00:26:03.09	197.30	9.13	-30.5	-34.7	11.8	2.47e-03	0	43	0	1304428544	20	5872
2026-01-30 00:26:06.11	197.33	8.88	-30.5	-34.7	11.8	4.26e-04	0	44	0	1310720000	20	5829
2026-01-30 00:26:09.12	197.36	8.63	-30.5	-34.2	11.7	2.54e-03	0	44	0	1315962880	21	5550
2026-01-30 00:26:12.13	197.39	8.38	-30.4	-34.5	11.9	2.48e-03	0	44	0	1322254336	20	5794
2026-01-30 00:26:15.13	197.41	8.14	-30.6	-34.6	11.4	3.22e-03	0	44	0	1327497216	21	5733
2026-01-30 00:26:18.13	197.44	7.90	-30.5	-34.4	11.5	3.00e-03	0	43	0	1332740096	21	5623
2026-01-30 00:26:21.14	197.47	7.66	-30.5	-34.8	11.6	2.86e-03	0	43	0	1339031552	20	5917
2026-01-30 00:26:24.15	197.50	7.42	-30.6	-34.8	11.1	1.26e-03	0	44	0	1344274432	21	5843
2026-01-30 00:26:27.16	197.52	7.18	-30.6	-34.7	11.2	1.59e-03	0	43	0	1349517312	21	5809

#Closed at: 2026-01-30 00:26:29
#Recorded file [1352 MB]: D:/data/31010_260130_031426.dat