passes_logs/2026/01/30/R2M6_AANII_01/R2M6_AANII_01__20260130_034711_AQUA_rec.log

#Pass ID: 20260130_034711_AQUA
#Satellite: AQUA
#Configuration: AQUA
#almurnet v.1.7.20240730
#Start time: 2026-01-30 03:47:12

#Version: 2.2.20231116
#Station: R2M6_AANII_01
#Location: 30.233357 lon 59.946436 lat
#TLE: 1 27424U 02022A   26028.91948147  .00001781  00000+0  36607-3 0  9997
#TLE: 2 27424  98.4103 355.5827 0001815  62.4290   1.4641 14.61871847262923

#Time	Az	El	Level	Level2	SNR	BER	BlckErr	Temp	State	Recorded	gain1	gain2
2026-01-30 03:47:12.87	5.94	7.06	-32.5	-47.8	3.8	7.45e-01	0	41	0	0	26	20823
2026-01-30 03:47:15.88	5.62	7.26	-32.3	-47.4	3.8	7.45e-01	0	41	104	0	25	20456
2026-01-30 03:47:18.90	5.29	7.46	-32.2	-47.0	3.8	7.45e-01	0	41	104	0	25	19641
2026-01-30 03:47:21.92	4.96	7.67	-31.5	-44.6	3.8	7.44e-01	0	41	104	0	25	16199
2026-01-30 03:47:24.94	4.62	7.87	-31.5	-45.4	3.8	7.44e-01	0	41	104	0	23	17879
2026-01-30 03:47:27.94	4.28	8.08	-31.0	-43.8	3.8	7.43e-01	0	41	104	0	23	15841
2026-01-30 03:47:30.95	3.93	8.28	-30.9	-43.8	3.8	7.49e-01	0	41	104	0	23	15881
2026-01-30 03:47:33.96	3.58	8.49	-31.5	-45.6	3.8	7.44e-01	0	41	104	0	23	18190
2026-01-30 03:47:36.97	3.22	8.70	-32.3	-47.0	3.8	7.45e-01	0	41	104	0	25	19615
2026-01-30 03:47:39.98	2.86	8.90	-32.5	-47.8	3.8	7.44e-01	0	42	104	0	25	20962
2026-01-30 03:47:42.97	2.49	9.11	-32.9	-48.9	3.8	7.46e-01	0	42	104	0	26	22822
2026-01-30 03:47:45.99	2.11	9.32	-33.4	-50.7	3.8	7.44e-01	0	42	104	0	27	26542
2026-01-30 03:47:49.01	1.73	9.53	-33.6	-52.0	3.8	7.44e-01	0	42	104	0	27	30016
2026-01-30 03:47:52.02	1.34	9.75	-33.5	-51.1	3.8	7.45e-01	0	42	104	0	27	27532
2026-01-30 03:47:55.03	0.95	9.96	-33.3	-50.3	3.8	7.46e-01	0	42	104	0	27	25306
2026-01-30 03:47:58.04	0.55	10.17	-33.0	-48.5	3.8	7.45e-01	0	42	104	0	27	21521
2026-01-30 03:48:01.05	0.14	10.39	-32.1	-45.7	3.8	7.44e-01	0	42	104	0	26	17178
2026-01-30 03:48:04.06	359.72	10.60	-32.1	-46.2	3.8	7.42e-01	0	42	104	0	25	18204
2026-01-30 03:48:07.08	359.30	10.82	-32.5	-47.4	3.8	7.45e-01	0	42	104	0	25	20170
2026-01-30 03:48:10.10	358.87	11.03	-31.7	-45.2	3.8	7.46e-01	0	42	104	0	24	17187
2026-01-30 03:48:13.10	358.44	11.25	-31.1	-44.1	3.8	7.47e-01	0	42	104	0	23	16065
2026-01-30 03:48:16.12	358.00	11.47	-30.7	-42.9	3.8	7.43e-01	0	42	104	0	23	14750
2026-01-30 03:48:19.13	357.55	11.69	-30.5	-42.9	3.8	7.42e-01	0	42	104	0	22	15047
2026-01-30 03:48:22.14	357.09	11.90	-30.8	-43.8	3.8	7.43e-01	0	42	104	0	22	16014
2026-01-30 03:48:25.16	356.62	12.12	-31.7	-45.5	3.8	7.44e-01	0	42	104	0	24	17463
2026-01-30 03:48:28.17	356.15	12.34	-32.3	-46.7	3.8	7.43e-01	0	42	104	0	25	18913
2026-01-30 03:48:31.19	355.67	12.56	-32.7	-47.7	3.8	7.47e-01	0	42	104	0	26	20236
2026-01-30 03:48:34.20	355.18	12.78	-32.7	-47.7	3.8	7.46e-01	0	43	104	0	26	20174
2026-01-30 03:48:37.22	354.68	13.00	-33.4	-50.0	3.8	7.45e-01	0	42	104	0	27	24475
2026-01-30 03:48:40.24	354.18	13.22	-33.4	-50.2	3.8	7.46e-01	0	43	104	0	28	24652
2026-01-30 03:48:43.25	353.67	13.44	-33.4	-49.9	3.8	7.46e-01	0	43	104	0	27	24198
2026-01-30 03:48:46.27	353.14	13.66	-33.2	-49.1	3.8	7.44e-01	0	43	104	0	27	22366
2026-01-30 03:48:49.29	352.61	13.88	-32.6	-47.2	3.8	7.45e-01	0	43	104	0	26	19306
2026-01-30 03:48:52.30	352.07	14.10	-32.1	-46.0	3.8	7.49e-01	0	43	104	0	25	17775
2026-01-30 03:48:55.31	351.53	14.32	-32.5	-47.1	3.8	7.41e-01	0	43	104	0	25	19506
2026-01-30 03:48:58.32	350.97	14.54	-31.9	-45.8	3.8	7.45e-01	0	43	104	0	24	17916
2026-01-30 03:49:01.33	350.41	14.76	-30.9	-43.6	3.8	7.48e-01	0	43	104	0	22	15660
2026-01-30 03:49:04.33	349.84	14.98	-30.4	-43.1	3.8	7.45e-01	0	43	104	0	21	15547
2026-01-30 03:49:07.33	349.25	15.20	-30.2	-42.6	3.8	7.43e-01	0	43	104	0	21	15035
2026-01-30 03:49:10.33	348.66	15.41	-30.5	-43.4	3.8	7.41e-01	0	43	104	0	21	15857
2026-01-30 03:49:13.35	348.06	15.63	-31.2	-44.4	3.8	7.44e-01	0	43	104	0	23	16360
2026-01-30 03:49:16.36	347.45	15.85	-32.2	-46.3	3.8	7.46e-01	0	43	104	0	25	18158
2026-01-30 03:49:19.38	346.83	16.06	-32.6	-47.2	3.8	7.47e-01	0	43	104	0	26	19218
2026-01-30 03:49:22.38	346.20	16.27	-32.1	-45.7	3.9	7.42e-01	0	43	104	0	25	17318
2026-01-30 03:49:25.39	345.56	16.48	-32.7	-38.7	13.6	6.03e-01	0	43	104	0	26	7185
2026-01-30 03:49:28.40	344.91	16.69	-32.2	-36.6	15.3	6.03e-01	0	43	0	4194304	26	6010
2026-01-30 03:49:31.42	344.25	16.90	-30.9	-33.6	18.0	6.03e-01	0	43	0	9437184	24	4906
2026-01-30 03:49:34.43	343.58	17.11	-30.3	-33.4	19.1	6.03e-01	0	43	0	15204352	21	5173
2026-01-30 03:49:37.44	342.90	17.31	-30.4	-33.2	18.9	6.02e-01	0	43	0	20971520	22	4991
2026-01-30 03:49:40.44	342.21	17.52	-30.4	-33.3	18.9	6.04e-01	0	43	0	26738688	22	4995
2026-01-30 03:49:43.44	341.52	17.72	-30.2	-32.6	19.3	6.03e-01	0	43	0	32505856	22	4767
2026-01-30 03:49:46.46	340.80	17.91	-30.2	-32.6	19.3	6.05e-01	0	43	0	37748736	22	4781
2026-01-30 03:49:49.47	340.09	18.11	-30.1	-32.4	19.5	6.04e-01	0	43	0	43515904	22	4678
2026-01-30 03:49:52.48	339.36	18.30	-30.1	-32.5	19.4	6.02e-01	0	43	0	49283072	22	4744
2026-01-30 03:49:55.49	338.62	18.49	-30.2	-32.7	19.3	6.04e-01	0	43	0	55050240	22	4787
2026-01-30 03:49:58.50	337.87	18.68	-30.1	-33.0	19.4	6.02e-01	0	43	0	60293120	21	5025
2026-01-30 03:50:01.51	337.11	18.86	-30.3	-33.6	19.0	6.04e-01	0	43	0	66060288	21	5220
2026-01-30 03:50:04.53	336.34	19.04	-30.4	-33.7	18.9	6.02e-01	0	43	0	71827456	21	5285
2026-01-30 03:50:07.54	335.56	19.21	-30.5	-33.4	18.8	6.05e-01	0	43	0	77594624	22	5030
2026-01-30 03:50:10.55	334.77	19.38	-30.2	-33.1	19.3	6.03e-01	0	43	0	82837504	21	5056
2026-01-30 03:50:13.56	333.98	19.55	-30.2	-33.3	19.2	6.02e-01	0	43	0	88604672	21	5118
2026-01-30 03:50:16.56	333.17	19.71	-30.2	-33.2	19.3	6.04e-01	0	43	0	94371840	21	5078
2026-01-30 03:50:19.58	332.36	19.87	-30.3	-33.6	19.0	6.04e-01	0	43	0	100139008	21	5221
2026-01-30 03:50:22.59	331.53	20.02	-30.2	-33.2	19.2	6.02e-01	0	43	0	105906176	21	5088
2026-01-30 03:50:25.60	330.70	20.17	-30.2	-33.3	19.2	6.02e-01	0	43	0	111149056	21	5109
2026-01-30 03:50:28.61	329.86	20.31	-30.3	-33.5	19.1	6.02e-01	0	43	0	116916224	21	5189
2026-01-30 03:50:31.63	329.01	20.45	-30.2	-33.2	19.3	6.03e-01	0	43	0	122683392	21	5074
2026-01-30 03:50:34.63	328.15	20.58	-30.2	-33.3	19.2	6.04e-01	0	43	0	128450560	21	5123
2026-01-30 03:50:37.64	327.29	20.71	-30.1	-33.0	19.3	6.02e-01	0	43	0	133693440	21	5020
2026-01-30 03:50:40.64	326.42	20.83	-30.4	-33.7	18.8	6.03e-01	0	43	0	139460608	21	5287
2026-01-30 03:50:43.66	325.54	20.94	-30.4	-33.7	18.9	6.02e-01	0	43	0	145227776	21	5287
2026-01-30 03:50:46.67	324.65	21.05	-30.5	-33.9	18.8	6.05e-01	0	43	0	150994944	21	5352
2026-01-30 03:50:49.66	323.76	21.15	-30.2	-33.2	19.3	6.02e-01	0	43	0	156237824	21	5068
2026-01-30 03:50:52.67	322.87	21.24	-30.2	-33.3	19.2	6.06e-01	0	43	0	162004992	21	5123
2026-01-30 03:50:55.67	321.97	21.33	-30.2	-33.2	19.3	6.04e-01	0	43	0	167772160	21	5074
2026-01-30 03:50:58.67	321.06	21.41	-30.3	-33.5	19.1	6.03e-01	0	43	0	173015040	21	5175
2026-01-30 03:51:01.67	320.15	21.48	-30.3	-33.5	19.1	6.02e-01	0	43	0	178782208	21	5192
2026-01-30 03:51:04.68	319.23	21.55	-30.2	-33.3	19.2	6.04e-01	0	43	0	184549376	21	5119
2026-01-30 03:51:07.69	318.31	21.61	-30.2	-33.1	19.3	6.04e-01	0	43	0	190316544	21	5051
2026-01-30 03:51:10.70	317.38	21.66	-30.2	-33.2	19.3	6.04e-01	0	43	0	196083712	21	5081
2026-01-30 03:51:13.71	316.45	21.70	-30.3	-33.3	19.2	6.01e-01	0	43	0	201326592	21	5129
2026-01-30 03:51:16.72	315.52	21.74	-30.3	-33.5	19.2	6.03e-01	0	43	0	207093760	21	5180
2026-01-30 03:51:19.73	314.59	21.77	-30.3	-33.5	19.1	6.02e-01	0	43	0	212860928	21	5200
2026-01-30 03:51:22.75	313.65	21.79	-30.4	-33.6	19.0	6.02e-01	0	43	0	218628096	21	5236
2026-01-30 03:51:25.76	312.71	21.80	-30.5	-34.1	18.8	6.02e-01	0	43	0	223870976	21	5418
2026-01-30 03:51:28.78	311.77	21.80	-30.2	-33.3	19.2	6.06e-01	0	43	0	229638144	21	5109
2026-01-30 03:51:31.79	310.83	21.80	-30.4	-33.6	19.1	6.04e-01	0	43	0	235405312	21	5230
2026-01-30 03:51:34.79	309.90	21.79	-30.3	-33.4	19.2	6.01e-01	0	43	0	241172480	21	5162
2026-01-30 03:51:37.79	308.97	21.77	-30.3	-33.4	19.2	6.05e-01	0	43	0	246415360	21	5155
2026-01-30 03:51:40.80	308.03	21.74	-30.1	-32.9	19.5	6.03e-01	0	43	0	252182528	21	4981
2026-01-30 03:51:43.81	307.10	21.71	-30.0	-32.6	19.6	6.04e-01	0	43	0	257949696	21	4871
2026-01-30 03:51:46.82	306.17	21.67	-30.0	-32.6	19.7	6.03e-01	0	43	0	263716864	21	4875
2026-01-30 03:51:49.83	305.24	21.62	-30.1	-33.1	19.4	6.05e-01	0	43	0	269484032	21	5028
2026-01-30 03:51:52.84	304.32	21.56	-30.3	-33.4	19.2	6.00e-01	0	43	0	274726912	21	5142
2026-01-30 03:51:55.85	303.40	21.50	-30.1	-32.9	19.5	6.04e-01	0	43	0	280494080	21	4962
2026-01-30 03:51:58.85	302.48	21.43	-30.3	-33.4	19.1	6.03e-01	0	43	0	286261248	21	5142
2026-01-30 03:52:01.86	301.57	21.35	-30.6	-33.8	18.6	6.01e-01	0	43	0	292028416	22	5178
2026-01-30 03:52:04.87	300.66	21.26	-30.3	-32.9	19.2	6.00e-01	0	43	0	297271296	22	4876
2026-01-30 03:52:07.88	299.76	21.17	-29.9	-32.5	19.6	6.02e-01	0	43	0	303038464	21	4836
2026-01-30 03:52:10.90	298.87	21.07	-30.0	-32.6	19.6	6.05e-01	0	43	0	308805632	21	4875
2026-01-30 03:52:13.91	297.98	20.96	-30.6	-33.8	18.3	6.03e-01	0	43	0	314572800	22	5220
2026-01-30 03:52:16.92	297.09	20.85	-30.4	-33.7	18.9	6.05e-01	0	43	0	320339968	21	5271
2026-01-30 03:52:19.93	296.22	20.73	-29.9	-31.8	19.6	6.02e-01	0	43	0	325582848	22	4506
2026-01-30 03:52:22.94	295.35	20.61	-30.6	-33.8	18.4	6.01e-01	0	43	0	331350016	22	5203
2026-01-30 03:52:25.94	294.49	20.48	-30.0	-32.7	19.5	6.04e-01	0	43	0	337117184	21	4905
2026-01-30 03:52:28.95	293.64	20.34	-30.1	-33.1	19.2	6.04e-01	0	43	0	342360064	21	5043
2026-01-30 03:52:31.96	292.79	20.20	-30.0	-33.3	19.4	6.05e-01	0	43	0	348127232	20	5243
2026-01-30 03:52:34.97	291.96	20.05	-30.3	-33.6	18.9	6.04e-01	0	43	0	353894400	21	5268
2026-01-30 03:52:37.98	291.13	19.90	-29.8	-32.7	19.7	6.04e-01	0	43	0	359661568	20	5039
2026-01-30 03:52:40.99	290.31	19.74	-29.8	-32.8	19.6	6.03e-01	0	43	0	365428736	20	5080
2026-01-30 03:52:44.00	289.50	19.58	-30.2	-33.2	19.1	6.02e-01	0	43	0	370671616	21	5119
2026-01-30 03:52:47.01	288.70	19.41	-29.6	-31.7	20.0	6.03e-01	0	43	0	376438784	21	4580
2026-01-30 03:52:50.02	287.91	19.24	-30.1	-33.1	19.2	6.04e-01	0	43	0	382205952	21	5059
2026-01-30 03:52:53.04	287.12	19.07	-29.8	-32.2	19.6	6.03e-01	0	43	0	387973120	21	4754
2026-01-30 03:52:56.06	286.35	18.89	-30.0	-33.2	19.3	6.06e-01	0	43	0	393216000	20	5247
2026-01-30 03:52:59.07	285.59	18.71	-30.0	-32.9	19.1	6.02e-01	0	43	0	398983168	21	5008
2026-01-30 03:53:02.07	284.83	18.52	-29.4	-31.7	20.2	6.02e-01	0	43	0	404750336	20	4689
2026-01-30 03:53:05.07	284.09	18.33	-29.9	-33.1	19.3	6.02e-01	0	43	0	410517504	20	5204
2026-01-30 03:53:08.08	283.36	18.14	-30.2	-33.3	18.9	6.02e-01	0	43	0	415760384	21	5143
2026-01-30 03:53:11.09	282.64	17.95	-29.6	-32.2	19.9	6.03e-01	0	43	0	421527552	20	4879
2026-01-30 03:53:14.09	281.92	17.75	-29.5	-32.0	20.0	6.00e-01	0	43	0	427294720	20	4794
2026-01-30 03:53:17.10	281.22	17.55	-29.4	-31.3	20.1	6.03e-01	0	43	0	433061888	21	4469
2026-01-30 03:53:20.10	280.53	17.35	-29.9	-32.4	19.4	6.03e-01	0	43	0	438304768	21	4850
2026-01-30 03:53:23.11	279.85	17.14	-30.0	-32.9	19.1	6.03e-01	0	43	0	444071936	21	5015
2026-01-30 03:53:26.12	279.17	16.94	-29.7	-32.0	19.7	6.01e-01	0	43	0	449839104	21	4685
2026-01-30 03:53:29.12	278.51	16.73	-29.7	-32.7	19.5	6.03e-01	0	43	0	455606272	20	5051
2026-01-30 03:53:32.12	277.86	16.52	-30.0	-33.3	19.1	6.04e-01	0	43	0	460849152	20	5289
2026-01-30 03:53:35.13	277.21	16.31	-29.7	-32.5	19.7	6.02e-01	0	43	0	466616320	20	4968
2026-01-30 03:53:38.14	276.58	16.09	-29.6	-32.4	19.6	6.04e-01	0	43	0	472383488	20	4969
2026-01-30 03:53:41.14	275.95	15.88	-29.7	-32.7	19.4	6.04e-01	0	43	0	478150656	20	5065
2026-01-30 03:53:44.15	275.34	15.66	-29.7	-32.5	19.6	6.04e-01	0	44	0	483393536	20	4985
2026-01-30 03:53:47.16	274.73	15.45	-29.7	-32.6	19.5	6.03e-01	0	43	0	489160704	20	5027
2026-01-30 03:53:50.17	274.13	15.23	-29.8	-32.9	19.3	6.05e-01	0	43	0	494927872	20	5142
2026-01-30 03:53:53.18	273.55	15.01	-29.8	-32.9	19.3	6.01e-01	0	43	0	500695040	20	5138
2026-01-30 03:53:56.19	272.97	14.79	-29.6	-32.3	19.7	6.02e-01	0	43	0	505937920	20	4906
2026-01-30 03:53:59.19	272.40	14.57	-29.9	-33.1	19.2	6.03e-01	0	43	0	511705088	20	5205
2026-01-30 03:54:02.20	271.84	14.35	-29.8	-32.9	18.0	6.05e-01	0	43	0	517472256	20	5146
2026-01-30 03:54:05.21	271.29	14.13	-29.8	-32.9	17.5	6.03e-01	0	43	0	523239424	20	5137
2026-01-30 03:54:08.22	270.74	13.91	-29.8	-32.8	19.3	6.04e-01	0	43	0	529006592	20	5109
2026-01-30 03:54:11.23	270.21	13.69	-29.9	-33.2	19.0	6.05e-01	0	43	0	534249472	20	5277
2026-01-30 03:54:14.24	269.68	13.47	-29.8	-32.8	19.3	6.04e-01	0	43	0	540016640	20	5112
2026-01-30 03:54:17.26	269.17	13.25	-30.0	-33.4	18.9	6.02e-01	0	43	0	545783808	20	5345
2026-01-30 03:54:20.26	268.66	13.03	-29.8	-32.9	19.1	6.04e-01	0	43	0	551026688	20	5144
2026-01-30 03:54:23.27	268.16	12.81	-29.9	-33.2	19.0	6.03e-01	0	43	0	556793856	20	5257
2026-01-30 03:54:26.28	267.67	12.59	-29.9	-33.2	18.9	6.04e-01	0	43	0	562561024	20	5277
2026-01-30 03:54:29.29	267.18	12.37	-29.7	-32.8	19.1	6.02e-01	0	43	0	568328192	20	5140
2026-01-30 03:54:32.30	266.70	12.15	-29.8	-33.1	19.0	6.02e-01	0	43	0	574095360	20	5237
2026-01-30 03:54:35.32	266.23	11.92	-29.9	-33.3	18.8	6.04e-01	0	43	0	579338240	20	5304
2026-01-30 03:54:38.33	265.77	11.71	-29.9	-33.4	18.8	6.04e-01	0	43	0	585105408	20	5342
2026-01-30 03:54:41.34	265.32	11.49	-29.9	-33.4	18.7	6.02e-01	0	43	0	590872576	20	5376
2026-01-30 03:54:44.35	264.87	11.27	-30.0	-33.7	18.5	6.02e-01	0	43	0	596639744	20	5485
2026-01-30 03:54:47.36	264.43	11.05	-30.1	-33.5	18.3	6.03e-01	0	43	0	601882624	21	5298
2026-01-30 03:54:50.38	264.00	10.83	-30.2	-33.6	18.2	6.01e-01	0	43	0	607649792	21	5349
2026-01-30 03:54:53.38	263.57	10.62	-30.3	-34.0	17.9	6.02e-01	0	43	0	613416960	21	5499
2026-01-30 03:54:56.38	263.16	10.40	-29.9	-33.2	18.7	5.99e-01	0	43	0	619184128	20	5322
2026-01-30 03:54:59.39	262.74	10.19	-29.9	-33.4	18.6	6.03e-01	0	43	0	624427008	20	5371
2026-01-30 03:55:02.41	262.34	9.97	-29.9	-33.5	18.5	6.00e-01	0	43	0	630194176	20	5437
2026-01-30 03:55:05.43	261.94	9.76	-30.2	-33.7	18.1	6.02e-01	0	43	0	635961344	21	5411
2026-01-30 03:55:08.44	261.54	9.55	-30.2	-33.8	17.9	6.03e-01	0	43	0	641728512	21	5432
2026-01-30 03:55:11.46	261.16	9.33	-30.0	-33.3	18.3	6.02e-01	0	43	0	647495680	21	5267
2026-01-30 03:55:14.46	260.78	9.12	-30.1	-33.6	18.1	6.02e-01	0	43	0	652738560	21	5362
2026-01-30 03:55:17.47	260.40	8.91	-30.3	-34.2	17.7	6.02e-01	0	43	0	658505728	21	5631
2026-01-30 03:55:20.48	260.03	8.70	-30.1	-33.7	17.9	6.04e-01	0	43	0	664272896	21	5412
2026-01-30 03:55:23.49	259.67	8.50	-30.1	-33.6	17.9	6.03e-01	0	43	0	670040064	21	5406
2026-01-30 03:55:26.51	259.31	8.29	-30.1	-33.7	17.8	6.05e-01	0	43	0	675282944	21	5437
2026-01-30 03:55:29.52	258.96	8.08	-30.1	-33.7	17.8	6.05e-01	0	43	0	681050112	21	5426
2026-01-30 03:55:32.53	258.62	7.88	-30.2	-33.9	17.7	6.02e-01	0	43	0	686817280	21	5530
2026-01-30 03:55:35.53	258.28	7.67	-30.3	-34.2	17.5	6.03e-01	0	43	0	692584448	21	5623
2026-01-30 03:55:38.54	257.94	7.47	-30.1	-33.8	17.7	6.04e-01	0	43	0	697827328	21	5479
2026-01-30 03:55:41.56	257.61	7.26	-30.2	-33.9	17.6	6.03e-01	0	43	0	703594496	21	5516
2026-01-30 03:55:44.57	257.29	7.06	-33.3	-51.3	3.5	7.37e-01	0	43	104	708837376	27	28578

#Closed at: 2026-01-30 03:55:47
#Recorded file [708 MB]: D:/data/31010_260130_064926.dat