passes_logs/2026/01/01/R3.0SM8_Murmansk_STILSPACE/R3.0SM8_Murmansk_STILSPACE__20260101_131344_FENGYUN_3D_rec.log

#Pass ID: 20260101_131344_FENGYUN 3D
#Satellite: FENGYUN 3D
#Configuration: FENGYUN 3D
#almurnet v.1.7.20240730
#Start time: 2026-01-01 13:13:45

#Version: 2.2.20231116
#Station: R3.0SM8_Murmansk_STILSPACE
#Location: 33.092731 lon 68.902999 lat
#TLE: 1 43010U 17072A   25365.97861918  .00000231  00000+0  13096-3 0  9992
#TLE: 2 43010  98.9911 332.5795 0001872 134.7521 225.3807 14.19690547421260

#Time	Az	El	Level	Level2	SNR	BER	BlckErr	Temp	State	Recorded	gain1	gain2
2026-01-01 13:13:45.52	194.43	3.06	-52.2	-63.1	3.8	8.47e-01	0	47	0	0	67	12503
2026-01-01 13:13:49.47	194.65	3.30	-51.8	-62.3	3.8	8.46e-01	0	47	104	0	66	12067
2026-01-01 13:13:53.43	194.87	3.55	-51.5	-62.2	3.8	8.45e-01	0	47	104	0	65	12644
2026-01-01 13:13:57.37	195.09	3.80	-51.4	-62.1	3.8	8.46e-01	0	48	104	0	65	12441
2026-01-01 13:14:01.32	195.32	4.05	-51.4	-62.1	3.8	8.47e-01	0	48	104	0	65	12517
2026-01-01 13:14:05.26	195.55	4.30	-51.5	-62.3	3.8	8.46e-01	0	48	104	0	65	12692
2026-01-01 13:14:09.23	195.79	4.56	-50.9	-58.4	4.3	8.42e-01	0	48	0	0	64	8564
2026-01-01 13:14:13.19	196.03	4.81	-49.2	-52.8	8.3	7.85e-02	0	49	0	12582912	61	5363
2026-01-01 13:14:17.14	196.27	5.07	-47.2	-49.2	12.0	7.70e-04	0	49	0	35651584	57	4482
2026-01-01 13:14:21.11	196.52	5.33	-46.6	-48.4	12.9	1.27e-04	0	49	0	57671680	56	4326
2026-01-01 13:14:25.07	196.77	5.59	-45.2	-46.5	14.7	1.10e-06	0	49	0	79691776	53	4143
2026-01-01 13:14:29.01	197.03	5.86	-44.6	-45.8	15.4	0.00e+00	0	49	0	101711872	52	4040
2026-01-01 13:14:32.96	197.29	6.13	-44.7	-46.0	15.3	0.00e+00	0	50	0	123731968	52	4107
2026-01-01 13:14:36.92	197.55	6.40	-44.5	-45.7	15.7	0.00e+00	0	50	0	145752064	52	3970
2026-01-01 13:14:40.88	197.82	6.67	-44.5	-45.6	15.7	0.00e+00	0	50	0	168820736	52	3958
2026-01-01 13:14:44.84	198.10	6.94	-44.4	-45.6	15.8	0.00e+00	0	51	0	190840832	52	3945
2026-01-01 13:14:48.80	198.38	7.22	-44.5	-45.7	15.8	0.00e+00	0	51	0	212860928	51	4205
2026-01-01 13:14:52.77	198.66	7.50	-44.2	-45.3	16.2	0.00e+00	0	51	0	235929600	51	4024
2026-01-01 13:14:56.71	198.95	7.78	-44.3	-45.4	16.1	0.00e+00	0	51	0	257949696	51	4084
2026-01-01 13:15:00.66	199.25	8.06	-44.1	-45.2	16.3	0.00e+00	0	51	0	279969792	51	3996
2026-01-01 13:15:04.63	199.55	8.35	-43.9	-45.0	16.6	0.00e+00	0	51	0	301989888	51	3882
2026-01-01 13:15:08.58	199.85	8.64	-44.0	-45.1	16.5	0.00e+00	0	51	0	325058560	50	4158
2026-01-01 13:15:12.54	200.17	8.93	-43.6	-44.6	17.1	0.00e+00	0	52	0	347078656	50	3923
2026-01-01 13:15:16.50	200.49	9.23	-43.8	-44.8	16.9	0.00e+00	0	52	0	369098752	50	4023
2026-01-01 13:15:20.46	200.81	9.53	-43.6	-44.6	17.1	0.00e+00	0	52	0	391118848	50	3917
2026-01-01 13:15:24.43	201.14	9.83	-43.5	-44.4	17.3	0.00e+00	0	52	0	414187520	50	3847
2026-01-01 13:15:28.37	201.48	10.13	-43.6	-44.5	17.2	0.00e+00	0	52	0	435159040	49	4137
2026-01-01 13:15:32.31	201.82	10.44	-43.7	-44.7	17.1	0.00e+00	0	52	0	458227712	49	4204
2026-01-01 13:15:36.26	202.17	10.74	-43.3	-44.2	17.5	0.00e+00	0	52	0	480247808	49	3997
2026-01-01 13:15:40.21	202.53	11.06	-43.5	-44.4	17.4	0.00e+00	0	52	0	502267904	49	4069
2026-01-01 13:15:44.17	202.90	11.37	-42.9	-43.8	18.1	0.00e+00	0	53	0	525336576	49	3784
2026-01-01 13:15:48.12	203.27	11.69	-43.4	-44.3	17.6	0.00e+00	0	53	0	546308096	49	4023
2026-01-01 13:15:52.06	203.65	12.01	-43.3	-44.2	17.7	0.00e+00	0	53	0	569376768	49	3982
2026-01-01 13:15:56.02	204.04	12.33	-43.3	-44.1	17.8	0.00e+00	0	53	0	591396864	49	3939
2026-01-01 13:15:59.97	204.44	12.66	-42.8	-43.5	18.3	0.00e+00	0	53	0	613416960	48	3909
2026-01-01 13:16:03.92	204.84	12.99	-42.6	-43.3	18.5	0.00e+00	0	53	0	635437056	48	3815
2026-01-01 13:16:07.89	205.26	13.33	-42.7	-43.5	18.4	0.00e+00	0	53	0	658505728	48	3891
2026-01-01 13:16:11.84	205.68	13.66	-42.1	-42.9	18.9	0.00e+00	0	53	0	680525824	47	3837
2026-01-01 13:16:15.81	206.12	14.01	-42.0	-42.8	19.0	0.00e+00	0	53	0	702545920	47	3785
2026-01-01 13:16:19.78	206.56	14.35	-42.2	-42.9	18.9	0.00e+00	0	53	0	724566016	47	3840
2026-01-01 13:16:23.73	207.01	14.70	-42.5	-43.3	18.5	0.00e+00	0	54	0	747634688	47	4006
2026-01-01 13:16:27.69	207.48	15.05	-42.2	-43.0	18.8	0.00e+00	0	54	0	769654784	47	3881
2026-01-01 13:16:31.63	207.95	15.40	-42.2	-42.9	18.9	0.00e+00	0	54	0	791674880	47	3852
2026-01-01 13:16:35.58	208.43	15.76	-41.9	-42.6	19.2	0.00e+00	0	54	0	813694976	47	3713
2026-01-01 13:16:39.54	208.93	16.12	-41.9	-42.6	19.2	0.00e+00	0	54	0	835715072	46	3932
2026-01-01 13:16:43.49	209.44	16.49	-42.1	-42.8	19.0	0.00e+00	0	54	0	858783744	46	4032
2026-01-01 13:16:47.44	209.96	16.85	-42.2	-43.0	18.8	0.00e+00	0	54	0	880803840	46	4124
2026-01-01 13:16:51.39	210.49	17.22	-41.9	-42.6	19.2	0.00e+00	0	54	0	902823936	46	3930
2026-01-01 13:16:55.35	211.04	17.60	-41.7	-42.4	19.5	0.00e+00	0	54	0	924844032	46	3831
2026-01-01 13:16:59.31	211.60	17.98	-42.2	-42.9	19.0	0.00e+00	0	55	0	946864128	46	4069
2026-01-01 13:17:03.27	212.17	18.36	-41.6	-42.4	19.5	0.00e+00	0	54	0	969932800	46	3825
2026-01-01 13:17:07.22	212.76	18.74	-41.3	-41.9	19.9	0.00e+00	0	55	0	991952896	45	3850
2026-01-01 13:17:11.17	213.36	19.13	-41.5	-42.2	19.6	0.00e+00	0	54	0	1013972992	45	3991
2026-01-01 13:17:15.13	213.97	19.52	-41.6	-42.3	19.6	0.00e+00	0	55	0	1035993088	45	4009
2026-01-01 13:17:19.10	214.61	19.91	-41.6	-42.3	19.6	0.00e+00	0	55	0	1059061760	45	4014
2026-01-01 13:17:23.06	215.26	20.31	-41.6	-42.2	19.6	0.00e+00	0	55	0	1081081856	45	4001
2026-01-01 13:17:27.02	215.92	20.71	-41.0	-41.6	20.2	0.00e+00	0	55	0	1103101952	45	3723
2026-01-01 13:17:30.96	216.60	21.10	-41.0	-41.6	20.2	0.00e+00	0	55	0	1125122048	45	3737
2026-01-01 13:17:34.92	217.30	21.51	-41.3	-42.0	19.9	0.00e+00	0	55	0	1148190720	45	3883
2026-01-01 13:17:38.90	218.02	21.92	-41.6	-42.2	19.6	0.00e+00	0	55	0	1170210816	45	3999
2026-01-01 13:17:42.85	218.75	22.32	-41.0	-41.6	20.3	0.00e+00	0	55	0	1192230912	45	3731
2026-01-01 13:17:46.81	219.51	22.73	-40.7	-41.4	20.5	0.00e+00	0	55	0	1214251008	44	3834
2026-01-01 13:17:50.76	220.28	23.14	-41.0	-41.7	20.2	0.00e+00	0	55	0	1236271104	44	3964
2026-01-01 13:17:54.71	221.07	23.55	-41.1	-41.7	20.2	0.00e+00	0	55	0	1259339776	44	3987
2026-01-01 13:17:58.67	221.89	23.96	-40.7	-41.3	20.6	0.00e+00	0	55	0	1281359872	44	3791
2026-01-01 13:18:02.63	222.72	24.38	-40.0	-40.5	21.3	0.00e+00	0	55	0	1303379968	43	3684
2026-01-01 13:18:06.58	223.58	24.79	-40.4	-41.0	20.8	0.00e+00	0	55	0	1325400064	43	3882
2026-01-01 13:18:10.53	224.46	25.20	-40.6	-41.2	20.6	0.00e+00	0	55	0	1348468736	43	3985
2026-01-01 13:18:14.49	225.36	25.61	-40.7	-41.3	20.5	0.00e+00	0	56	0	1370488832	43	4034
2026-01-01 13:18:18.47	226.29	26.03	-40.1	-40.7	21.1	0.00e+00	0	56	0	1392508928	43	3767
2026-01-01 13:18:22.44	227.24	26.44	-39.7	-40.2	21.6	0.00e+00	0	56	0	1414529024	42	3770
2026-01-01 13:18:26.40	228.21	26.84	-39.8	-40.4	21.4	0.00e+00	0	56	0	1437597696	42	3838
2026-01-01 13:18:30.34	229.21	27.25	-39.5	-40.0	21.7	0.00e+00	0	56	0	1459617792	42	3682
2026-01-01 13:18:34.30	230.23	27.65	-39.6	-40.1	21.6	0.00e+00	0	56	0	1481637888	42	3734
2026-01-01 13:18:38.26	231.28	28.04	-39.4	-39.9	21.8	0.00e+00	0	56	0	1503657984	42	3640
2026-01-01 13:18:42.23	232.35	28.44	-39.8	-40.4	21.4	0.00e+00	0	56	0	1526726656	42	3829
2026-01-01 13:18:46.18	233.45	28.82	-39.4	-40.0	21.8	0.00e+00	0	56	0	1548746752	41	3873
2026-01-01 13:18:50.13	234.57	29.20	-39.5	-40.0	21.8	0.00e+00	0	56	0	1570766848	41	3892
2026-01-01 13:18:54.08	235.72	29.57	-39.4	-39.9	21.8	0.00e+00	0	56	0	1592786944	41	3850
2026-01-01 13:18:58.02	236.89	29.94	-39.7	-40.3	21.5	0.00e+00	0	56	0	1614807040	41	4013
2026-01-01 13:19:01.98	238.10	30.29	-39.7	-40.2	21.6	0.00e+00	0	56	0	1637875712	41	3994
2026-01-01 13:19:05.92	239.32	30.64	-40.4	-41.0	20.8	0.00e+00	0	56	0	1659895808	42	4127
2026-01-01 13:19:09.88	240.58	30.98	-39.8	-40.4	21.5	0.00e+00	0	56	0	1681915904	42	3836
2026-01-01 13:19:13.83	241.85	31.30	-40.4	-41.0	20.8	0.00e+00	0	56	0	1703936000	42	4122
2026-01-01 13:19:17.79	243.16	31.61	-39.5	-40.1	21.7	0.00e+00	0	56	0	1725956096	42	3700
2026-01-01 13:19:21.75	244.49	31.91	-39.7	-40.2	21.6	0.00e+00	0	56	0	1749024768	42	3778
2026-01-01 13:19:25.70	245.84	32.20	-38.9	-39.4	22.3	0.00e+00	0	56	0	1771044864	40	3849
2026-01-01 13:19:29.65	247.21	32.47	-39.5	-40.1	21.7	0.00e+00	0	56	0	1793064960	40	4151
2026-01-01 13:19:33.60	248.61	32.72	-39.5	-40.0	21.8	0.00e+00	0	56	0	1815085056	41	3894
2026-01-01 13:19:37.56	250.03	32.96	-39.5	-40.1	21.8	0.00e+00	0	56	0	1837105152	41	3914
2026-01-01 13:19:41.52	251.47	33.18	-39.7	-40.2	21.6	0.00e+00	0	56	0	1860173824	41	4004
2026-01-01 13:19:45.47	252.92	33.38	-39.9	-40.4	21.4	0.00e+00	0	56	0	1882193920	41	4087
2026-01-01 13:19:49.42	254.39	33.57	-40.3	-40.9	21.0	0.00e+00	0	56	0	1904214016	42	4054
2026-01-01 13:19:53.36	255.87	33.73	-40.4	-40.9	20.9	0.00e+00	0	56	0	1926234112	43	3862
2026-01-01 13:19:57.33	257.38	33.87	-39.7	-40.2	21.6	0.00e+00	0	56	0	1949302784	42	3760
2026-01-01 13:20:01.29	258.90	33.99	-39.9	-40.4	21.4	0.00e+00	0	56	0	1971322880	42	3859
2026-01-01 13:20:05.24	260.42	34.09	-39.1	-39.7	22.1	0.00e+00	0	56	0	1993342976	41	3739
2026-01-01 13:20:09.20	261.95	34.17	-39.2	-39.7	22.1	0.00e+00	0	56	0	2015363072	41	3766
2026-01-01 13:20:13.14	263.48	34.23	-39.0	-39.6	22.2	0.00e+00	0	56	0	2037383168	41	3697
2026-01-01 13:20:17.10	265.03	34.26	-39.3	-39.8	22.0	0.00e+00	0	57	0	2059403264	41	3800
2026-01-01 13:20:21.06	266.57	34.27	-39.5	-40.0	21.8	0.00e+00	0	57	0	2082471936	41	3906
2026-01-01 13:20:25.01	268.12	34.25	-39.6	-40.2	21.7	0.00e+00	0	56	0	2104492032	41	3976
2026-01-01 13:20:28.96	269.65	34.22	-39.5	-40.0	21.8	0.00e+00	0	56	0	2126512128	41	3904
2026-01-01 13:20:32.92	271.19	34.16	-39.4	-40.0	21.8	0.00e+00	0	56	0	2148532224	41	3879
2026-01-01 13:20:36.88	272.73	34.08	-40.0	-40.5	21.3	0.00e+00	0	57	0	2171600896	41	4144
2026-01-01 13:20:40.84	274.25	33.98	-39.9	-40.5	21.4	0.00e+00	0	57	0	2193620992	42	3872
2026-01-01 13:20:44.79	275.76	33.86	-40.0	-40.5	21.3	0.00e+00	0	56	0	2215641088	42	3913
2026-01-01 13:20:48.74	277.25	33.71	-40.1	-40.7	21.2	0.00e+00	0	57	0	2237661184	42	3970
2026-01-01 13:20:52.70	278.74	33.55	-39.3	-39.8	22.0	0.00e+00	0	57	0	2259681280	41	3801
2026-01-01 13:20:56.64	280.20	33.36	-39.6	-40.2	21.7	0.00e+00	0	57	0	2282749952	41	3960
2026-01-01 13:21:00.60	281.66	33.16	-39.7	-40.2	21.6	0.00e+00	0	57	0	2304770048	41	4001
2026-01-01 13:21:04.56	283.09	32.94	-39.7	-40.2	21.6	0.00e+00	0	57	0	2326790144	41	3994
2026-01-01 13:21:08.52	284.51	32.70	-40.1	-40.7	21.1	0.00e+00	0	57	0	2348810240	42	3976
2026-01-01 13:21:12.47	285.90	32.44	-40.5	-41.1	20.8	0.00e+00	0	56	0	2371878912	42	4148
2026-01-01 13:21:16.43	287.27	32.17	-40.1	-40.7	21.1	0.00e+00	0	57	0	2393899008	43	3770
2026-01-01 13:21:20.38	288.61	31.88	-40.3	-40.8	21.0	0.00e+00	0	56	0	2415919104	43	3815
2026-01-01 13:21:24.34	289.94	31.58	-39.8	-40.4	21.4	0.00e+00	0	56	0	2437939200	42	3853
2026-01-01 13:21:28.30	291.24	31.27	-40.5	-41.0	20.8	0.00e+00	0	57	0	2459959296	42	4141
2026-01-01 13:21:32.27	292.52	30.94	-40.0	-40.6	21.2	0.00e+00	0	57	0	2483027968	43	3721
2026-01-01 13:21:36.23	293.76	30.60	-40.3	-40.8	21.0	0.00e+00	0	57	0	2505048064	43	3822
2026-01-01 13:21:40.18	294.99	30.26	-39.5	-40.0	21.8	0.00e+00	0	57	0	2527068160	42	3682
2026-01-01 13:21:44.12	296.18	29.90	-39.8	-40.4	21.4	0.00e+00	0	57	0	2549088256	42	3843
2026-01-01 13:21:48.08	297.35	29.54	-40.1	-40.7	21.1	0.00e+00	0	57	0	2572156928	42	3977
2026-01-01 13:21:52.04	298.49	29.16	-40.2	-40.8	21.0	0.00e+00	0	57	0	2594177024	42	4029
2026-01-01 13:21:55.99	299.61	28.79	-40.1	-40.7	21.2	0.00e+00	0	57	0	2616197120	42	3967
2026-01-01 13:21:59.95	300.70	28.40	-40.0	-40.6	21.2	0.00e+00	0	57	0	2638217216	42	3945
2026-01-01 13:22:03.90	301.77	28.01	-39.8	-40.3	21.4	0.00e+00	0	57	0	2660237312	42	3814
2026-01-01 13:22:07.86	302.81	27.62	-40.4	-41.0	20.9	0.00e+00	0	57	0	2683305984	42	4104
2026-01-01 13:22:11.83	303.83	27.21	-40.7	-41.3	20.5	0.00e+00	0	57	0	2705326080	43	4042
2026-01-01 13:22:15.79	304.82	26.81	-40.4	-41.0	20.9	0.00e+00	0	57	0	2727346176	43	3874
2026-01-01 13:22:19.75	305.79	26.41	-40.1	-40.6	21.2	0.00e+00	0	57	0	2749366272	43	3730
2026-01-01 13:22:23.69	306.73	26.00	-40.3	-40.9	21.0	0.00e+00	0	57	0	2772434944	43	3825
2026-01-01 13:22:27.64	307.65	25.59	-40.0	-40.6	21.2	0.00e+00	0	57	0	2794455040	43	3714
2026-01-01 13:22:31.58	308.54	25.19	-40.5	-41.1	20.7	0.00e+00	0	57	0	2816475136	43	3956
2026-01-01 13:22:35.53	309.41	24.78	-40.3	-40.9	20.9	0.00e+00	0	57	0	2838495232	43	3833
2026-01-01 13:22:39.49	310.27	24.36	-40.4	-41.0	20.8	0.00e+00	0	57	0	2860515328	43	3897
2026-01-01 13:22:43.45	311.10	23.95	-40.4	-41.0	20.8	0.00e+00	0	57	0	2883584000	43	3884
2026-01-01 13:22:47.40	311.91	23.54	-40.3	-40.9	20.9	0.00e+00	0	57	0	2905604096	43	3854
2026-01-01 13:22:51.37	312.70	23.13	-40.4	-41.0	20.8	0.00e+00	0	57	0	2927624192	43	3890
2026-01-01 13:22:55.33	313.47	22.73	-40.6	-41.2	20.6	0.00e+00	0	57	0	2949644288	43	3984
2026-01-01 13:22:59.29	314.22	22.32	-41.0	-41.7	20.1	0.00e+00	0	57	0	2972712960	43	4213
2026-01-01 13:23:03.24	314.95	21.92	-41.1	-41.8	20.1	0.00e+00	0	57	0	2994733056	44	4023
2026-01-01 13:23:07.21	315.67	21.51	-41.3	-42.0	19.9	0.00e+00	0	57	0	3016753152	44	4125
2026-01-01 13:23:11.17	316.36	21.11	-41.2	-41.9	20.1	0.00e+00	0	57	0	3038773248	44	4067
2026-01-01 13:23:15.13	317.04	20.71	-41.1	-41.8	20.1	0.00e+00	0	57	0	3061841920	44	4010
2026-01-01 13:23:19.09	317.70	20.32	-41.3	-41.9	20.0	0.00e+00	0	57	0	3083862016	44	4087
2026-01-01 13:23:23.05	318.35	19.92	-41.5	-42.1	19.8	0.00e+00	0	57	0	3105882112	45	3956
2026-01-01 13:23:27.01	318.98	19.53	-41.7	-42.4	19.6	0.00e+00	0	57	0	3127902208	45	4063
2026-01-01 13:23:30.94	319.59	19.15	-42.1	-42.9	19.1	0.00e+00	0	57	0	3149922304	46	4056
2026-01-01 13:23:34.90	320.19	18.76	-42.2	-43.0	19.0	0.00e+00	0	57	0	3172990976	46	4103
2026-01-01 13:23:38.85	320.77	18.38	-41.6	-42.3	19.6	0.00e+00	0	57	0	3195011072	46	3797
2026-01-01 13:23:42.81	321.34	18.00	-42.0	-42.8	19.1	0.00e+00	0	57	0	3217031168	46	4017
2026-01-01 13:23:46.76	321.90	17.63	-42.3	-43.1	18.8	0.00e+00	0	57	0	3239051264	46	4174
2026-01-01 13:23:50.72	322.45	17.25	-42.3	-43.1	18.8	0.00e+00	0	57	0	3261071360	46	4165
2026-01-01 13:23:54.67	322.98	16.89	-42.4	-43.2	18.7	0.00e+00	0	57	0	3284140032	46	4196
2026-01-01 13:23:58.62	323.49	16.52	-42.7	-43.5	18.4	0.00e+00	0	57	0	3306160128	47	4117
2026-01-01 13:24:02.57	324.00	16.16	-43.2	-44.1	18.0	1.10e-06	0	57	0	3328180224	48	4152
2026-01-01 13:24:06.52	324.50	15.80	-42.7	-43.4	18.6	0.00e+00	0	57	0	3350200320	48	3861
2026-01-01 13:24:10.47	324.98	15.45	-42.5	-43.2	18.8	0.00e+00	0	57	0	3373268992	48	3768
2026-01-01 13:24:14.43	325.45	15.10	-42.9	-43.6	18.4	0.00e+00	0	57	0	3395289088	48	3943
2026-01-01 13:24:18.38	325.92	14.75	-42.8	-43.6	18.4	0.00e+00	0	57	0	3417309184	48	3918
2026-01-01 13:24:22.34	326.37	14.40	-42.9	-43.7	18.3	0.00e+00	0	57	0	3439329280	48	3969
2026-01-01 13:24:26.29	326.81	14.06	-43.1	-43.9	18.0	0.00e+00	0	57	0	3461349376	48	4095
2026-01-01 13:24:30.23	327.24	13.72	-43.5	-44.4	17.5	0.00e+00	0	57	0	3483369472	49	4086
2026-01-01 13:24:34.19	327.67	13.39	-43.3	-44.2	17.8	0.00e+00	0	57	0	3506438144	49	3974
2026-01-01 13:24:38.13	328.08	13.06	-43.2	-44.1	17.8	0.00e+00	0	57	0	3528458240	49	3942
2026-01-01 13:24:42.08	328.49	12.73	-43.3	-44.1	17.8	0.00e+00	0	57	0	3550478336	49	3958
2026-01-01 13:24:46.03	328.88	12.40	-43.3	-44.1	17.8	0.00e+00	0	57	0	3572498432	49	3942
2026-01-01 13:24:49.98	329.27	12.08	-43.3	-44.2	17.7	0.00e+00	0	57	0	3594518528	49	3990
2026-01-01 13:24:53.94	329.65	11.76	-43.8	-44.7	17.2	0.00e+00	0	57	0	3617587200	49	4218
2026-01-01 13:24:57.89	330.03	11.44	-43.9	-44.9	16.9	0.00e+00	0	57	0	3639607296	49	4317
2026-01-01 13:25:01.85	330.39	11.13	-44.0	-45.0	16.9	0.00e+00	0	57	0	3661627392	50	4120
2026-01-01 13:25:05.80	330.75	10.82	-44.4	-45.4	16.5	0.00e+00	0	57	0	3683647488	50	4304
2026-01-01 13:25:09.76	331.10	10.51	-44.1	-45.1	16.7	0.00e+00	0	57	0	3705667584	50	4188
2026-01-01 13:25:13.72	331.45	10.21	-44.0	-45.0	16.8	0.00e+00	0	57	0	3728736256	50	4122
2026-01-01 13:25:17.67	331.79	9.91	-44.4	-45.4	16.4	0.00e+00	0	57	0	3750756352	50	4321
2026-01-01 13:25:21.63	332.12	9.61	-44.4	-45.4	16.4	0.00e+00	0	57	0	3772776448	51	4072
2026-01-01 13:25:25.60	332.45	9.31	-44.2	-45.2	16.5	0.00e+00	0	57	0	3794796544	51	4001
2026-01-01 13:25:29.55	332.77	9.02	-44.2	-45.2	16.5	0.00e+00	0	57	0	3817865216	51	3996
2026-01-01 13:25:33.48	333.08	8.73	-44.3	-45.3	16.4	0.00e+00	0	57	0	3839885312	51	4029
2026-01-01 13:25:37.44	333.39	8.44	-44.2	-45.2	16.5	0.00e+00	0	57	0	3861905408	51	3978
2026-01-01 13:25:41.39	333.69	8.16	-44.3	-45.3	16.3	0.00e+00	0	58	0	3883925504	51	4029
2026-01-01 13:25:45.34	333.98	7.87	-44.5	-45.5	16.1	0.00e+00	0	57	0	3905945600	51	4140
2026-01-01 13:25:49.30	334.27	7.59	-44.3	-45.4	16.2	0.00e+00	0	57	0	3929014272	51	4055
2026-01-01 13:25:53.25	334.56	7.32	-44.5	-45.6	16.0	0.00e+00	0	57	0	3951034368	51	4156
2026-01-01 13:25:57.22	334.84	7.04	-44.4	-45.5	16.0	0.00e+00	0	57	0	3973054464	51	4112
2026-01-01 13:26:01.17	335.12	6.77	-44.7	-45.8	15.6	0.00e+00	0	58	0	3995074560	51	4285
2026-01-01 13:26:05.13	335.39	6.50	-44.7	-45.9	15.5	0.00e+00	0	57	0	4018143232	51	4306
2026-01-01 13:26:09.09	335.66	6.23	-44.7	-45.8	15.6	0.00e+00	0	58	0	4040163328	51	4267
2026-01-01 13:26:13.06	335.92	5.96	-45.0	-46.3	15.1	0.00e+00	0	57	0	4062183424	51	4496
2026-01-01 13:26:17.02	336.18	5.70	-45.1	-46.4	14.8	0.00e+00	0	57	0	4084203520	52	4315
2026-01-01 13:26:20.97	336.43	5.44	-45.3	-46.6	14.5	0.00e+00	0	57	0	4107272192	52	4441
2026-01-01 13:26:24.93	336.68	5.18	-45.7	-47.2	13.9	3.40e-06	0	57	0	4129292288	53	4488
2026-01-01 13:26:28.90	336.93	4.92	-51.0	-61.8	3.8	8.47e-01	0	57	104	4141875200	65	12046
2026-01-01 13:26:32.84	337.17	4.67	-52.1	-62.9	3.8	8.47e-01	0	58	104	4141875200	66	12954
2026-01-01 13:26:36.80	337.41	4.41	-52.3	-63.3	3.8	8.46e-01	0	58	104	4141875200	66	13438
2026-01-01 13:26:40.76	337.64	4.16	-52.5	-63.3	3.8	8.47e-01	0	57	104	4141875200	67	12802
2026-01-01 13:26:44.73	337.87	3.91	-52.7	-63.4	3.8	8.45e-01	0	58	104	4141875200	67	12946
2026-01-01 13:26:48.67	338.10	3.66	-52.5	-63.5	3.8	8.46e-01	0	58	104	4141875200	67	13010
2026-01-01 13:26:52.63	338.32	3.42	-52.6	-63.5	3.8	8.46e-01	0	58	104	4141875200	67	13054
2026-01-01 13:26:56.58	338.54	3.18	-52.7	-63.5	3.8	8.46e-01	0	58	104	4141875200	67	13014

#Closed at: 2026-01-01 13:26:59
#Recorded file [4141 MB]: D:/Data/31026_260101_162627.dat