passes_logs/2026/01/01/R3.0SM8_Murmansk_STILSPACE/R3.0SM8_Murmansk_STILSPACE__20260101_044935_AQUA_rec.log

#Pass ID: 20260101_044935_AQUA
#Satellite: AQUA
#Configuration: AQUA
#almurnet v.1.7.20240730
#Start time: 2026-01-01 04:49:36

#Version: 2.2.20231116
#Station: R3.0SM8_Murmansk_STILSPACE
#Location: 33.092731 lon 68.902999 lat
#TLE: 1 27424U 02022A   25364.96158943  .00001951  00000+0  40088-3 0  9998
#TLE: 2 27424  98.4061 326.1389 0001917  95.3187 305.7939 14.61780362258696

#Time	Az	El	Level	Level2	SNR	BER	BlckErr	Temp	State	Recorded	gain1	gain2
2026-01-01 04:49:36.14	34.65	3.05	-54.3	-74.2	3.8	7.42e-01	0	50	0	0	71	36288
2026-01-01 04:49:39.08	34.45	3.23	-53.8	-73.6	3.8	7.45e-01	0	50	104	0	70	35847
2026-01-01 04:49:42.04	34.24	3.42	-53.4	-73.2	3.8	7.46e-01	0	50	104	0	70	34218
2026-01-01 04:49:44.99	34.03	3.60	-53.4	-73.1	3.8	7.46e-01	0	51	104	0	70	34071
2026-01-01 04:49:47.94	33.82	3.79	-53.4	-73.2	3.8	7.45e-01	0	51	104	0	70	34408
2026-01-01 04:49:50.89	33.61	3.98	-53.4	-73.2	3.8	7.43e-01	0	51	104	0	70	34358
2026-01-01 04:49:53.84	33.39	4.17	-53.4	-73.2	3.8	7.48e-01	0	51	104	0	70	34383
2026-01-01 04:49:56.79	33.18	4.36	-53.4	-72.9	3.8	7.44e-01	0	51	104	0	70	33115
2026-01-01 04:49:59.74	32.95	4.55	-53.2	-71.8	3.8	7.44e-01	0	51	104	0	70	29332
2026-01-01 04:50:02.69	32.73	4.74	-52.8	-69.6	3.8	7.44e-01	0	52	104	0	69	23931
2026-01-01 04:50:05.64	32.50	4.94	-52.1	-67.2	3.8	7.47e-01	0	52	104	0	67	20430
2026-01-01 04:50:08.60	32.26	5.13	-52.0	-66.8	3.8	7.43e-01	0	52	104	0	67	19398
2026-01-01 04:50:11.54	32.03	5.33	-52.4	-67.8	3.8	7.44e-01	0	52	104	0	67	22004
2026-01-01 04:50:14.50	31.78	5.53	-52.8	-69.6	3.8	7.42e-01	0	53	104	0	67	26989
2026-01-01 04:50:17.45	31.54	5.73	-53.2	-70.9	3.8	7.45e-01	0	53	104	0	68	29425
2026-01-01 04:50:20.40	31.29	5.93	-53.3	-71.4	3.8	7.43e-01	0	53	104	0	68	31288
2026-01-01 04:50:23.35	31.04	6.13	-53.3	-71.2	3.8	7.45e-01	0	53	104	0	68	30528
2026-01-01 04:50:26.29	30.78	6.33	-53.2	-70.6	3.8	7.47e-01	0	53	104	0	68	28676
2026-01-01 04:50:29.24	30.52	6.54	-52.8	-69.1	3.8	7.45e-01	0	53	104	0	68	23994
2026-01-01 04:50:32.19	30.26	6.74	-52.0	-66.5	3.8	7.46e-01	0	53	104	0	67	18758
2026-01-01 04:50:35.14	29.99	6.95	-51.3	-64.8	3.8	7.42e-01	0	54	104	0	66	16437
2026-01-01 04:50:38.09	29.72	7.15	-51.2	-64.6	3.8	7.43e-01	0	54	104	0	65	16918
2026-01-01 04:50:41.04	29.44	7.36	-50.5	-63.3	3.8	7.45e-01	0	54	104	0	64	15560
2026-01-01 04:50:44.00	29.16	7.57	-49.9	-62.1	3.8	7.45e-01	0	54	104	0	63	14365
2026-01-01 04:50:46.94	28.87	7.79	-50.5	-63.2	3.8	7.41e-01	0	54	104	0	63	16244
2026-01-01 04:50:49.89	28.58	8.00	-50.2	-62.6	3.8	7.43e-01	0	54	104	0	63	15143
2026-01-01 04:50:52.84	28.28	8.21	-50.4	-63.0	3.8	7.43e-01	0	54	104	0	63	15820
2026-01-01 04:50:55.78	27.98	8.43	-51.5	-65.0	3.8	7.46e-01	0	55	104	0	65	17830
2026-01-01 04:50:58.74	27.68	8.65	-52.5	-67.6	3.8	7.49e-01	0	55	104	0	67	21322
2026-01-01 04:51:01.69	27.37	8.86	-52.8	-68.4	3.8	7.45e-01	0	55	104	0	67	23378
2026-01-01 04:51:04.63	27.05	9.08	-53.2	-69.9	3.8	7.40e-01	0	55	104	0	68	26181
2026-01-01 04:51:07.57	26.73	9.30	-53.5	-71.1	3.8	7.44e-01	0	55	104	0	69	28661
2026-01-01 04:51:10.52	26.40	9.52	-53.3	-70.3	3.8	7.47e-01	0	55	104	0	69	25884
2026-01-01 04:51:13.46	26.07	9.75	-53.2	-69.8	3.8	7.47e-01	0	55	104	0	69	24475
2026-01-01 04:51:16.41	25.73	9.97	-52.9	-68.7	3.8	7.42e-01	0	56	104	0	69	21693
2026-01-01 04:51:19.36	25.39	10.20	-52.5	-67.3	3.8	7.43e-01	0	56	104	0	68	19577
2026-01-01 04:51:22.31	25.03	10.43	-51.3	-64.5	3.8	7.44e-01	0	56	104	0	66	15813
2026-01-01 04:51:25.26	24.68	10.65	-50.2	-62.6	3.8	7.44e-01	0	56	104	0	64	14291
2026-01-01 04:51:28.20	24.32	10.88	-50.1	-62.4	3.8	7.44e-01	0	56	104	0	63	14806
2026-01-01 04:51:31.15	23.95	11.12	-50.0	-62.2	3.8	7.47e-01	0	56	104	0	63	14427
2026-01-01 04:51:34.09	23.57	11.35	-49.7	-61.8	3.8	7.44e-01	0	56	104	0	62	14541
2026-01-01 04:51:37.04	23.19	11.58	-50.6	-63.1	3.8	7.45e-01	0	56	104	0	63	16038
2026-01-01 04:51:39.99	22.80	11.82	-50.4	-62.8	3.8	7.44e-01	0	56	104	0	63	15563
2026-01-01 04:51:42.93	22.40	12.05	-50.4	-62.7	3.8	7.43e-01	0	56	104	0	63	15365
2026-01-01 04:51:45.88	22.00	12.29	-51.7	-65.2	3.8	7.45e-01	0	57	104	0	65	18176
2026-01-01 04:51:48.83	21.59	12.53	-52.9	-68.4	3.8	7.45e-01	0	57	104	0	67	23427
2026-01-01 04:51:51.78	21.17	12.77	-53.1	-68.8	3.8	7.48e-01	0	57	104	0	68	23099
2026-01-01 04:51:54.73	20.74	13.01	-53.3	-69.6	3.8	7.48e-01	0	57	104	0	68	25510
2026-01-01 04:51:57.68	20.31	13.26	-53.5	-70.4	3.8	7.46e-01	0	57	104	0	69	26443
2026-01-01 04:52:00.61	19.87	13.50	-53.1	-68.8	3.8	7.47e-01	0	57	104	0	69	21768
2026-01-01 04:52:03.56	19.42	13.74	-53.0	-68.6	3.8	7.46e-01	0	57	104	0	68	22636
2026-01-01 04:52:06.50	18.97	13.99	-52.7	-67.6	3.8	7.47e-01	0	57	104	0	68	20285
2026-01-01 04:52:09.45	18.50	14.23	-51.9	-65.5	3.9	7.44e-01	0	57	104	0	67	16829
2026-01-01 04:52:12.39	18.03	14.48	-50.5	-63.1	3.8	7.45e-01	0	57	104	0	64	15079
2026-01-01 04:52:15.35	17.54	14.73	-49.6	-61.6	3.8	7.43e-01	0	57	104	0	62	14230
2026-01-01 04:52:18.30	17.05	14.98	-48.9	-60.6	3.8	7.45e-01	0	58	104	0	61	13481
2026-01-01 04:52:21.24	16.55	15.23	-48.9	-60.6	3.8	7.45e-01	0	57	104	0	61	13436
2026-01-01 04:52:24.19	16.04	15.48	-49.3	-61.0	3.8	7.40e-01	0	58	104	0	61	14165
2026-01-01 04:52:27.14	15.52	15.73	-50.5	-62.9	3.8	7.45e-01	0	58	104	0	63	15689
2026-01-01 04:52:30.07	14.99	15.98	-51.1	-64.0	3.8	7.47e-01	0	58	104	0	64	16843
2026-01-01 04:52:33.01	14.46	16.23	-50.8	-63.5	3.8	7.45e-01	0	58	104	0	64	15904
2026-01-01 04:52:35.97	13.91	16.49	-51.9	-65.5	3.8	7.44e-01	0	58	104	0	65	18874
2026-01-01 04:52:38.91	13.35	16.74	-53.1	-68.7	3.8	7.46e-01	0	58	104	0	68	22950
2026-01-01 04:52:41.85	12.78	16.99	-53.4	-69.7	3.8	7.46e-01	0	58	104	0	69	24406
2026-01-01 04:52:44.79	12.20	17.24	-53.4	-69.9	3.8	7.47e-01	0	58	104	0	69	24955
2026-01-01 04:52:47.73	11.62	17.50	-53.2	-69.2	3.8	7.46e-01	0	58	104	0	69	22848
2026-01-01 04:52:50.69	11.01	17.75	-52.3	-66.4	3.8	7.42e-01	0	58	104	0	68	17503
2026-01-01 04:52:53.64	10.40	18.00	-51.4	-64.5	3.8	7.41e-01	0	59	104	0	66	15857
2026-01-01 04:52:56.58	9.78	18.25	-52.1	-65.9	3.8	7.45e-01	0	58	104	0	66	18731
2026-01-01 04:52:59.53	9.15	18.51	-51.2	-64.2	3.8	7.42e-01	0	58	104	0	66	15281
2026-01-01 04:53:02.47	8.50	18.76	-50.3	-62.7	3.8	7.43e-01	0	59	104	0	64	14506
2026-01-01 04:53:05.42	7.85	19.01	-50.0	-62.1	3.8	7.42e-01	0	58	104	0	63	14323
2026-01-01 04:53:08.37	7.18	19.26	-49.4	-61.3	3.8	7.44e-01	0	58	104	0	62	13729
2026-01-01 04:53:11.31	6.50	19.50	-48.8	-60.6	3.8	7.45e-01	0	59	104	0	61	13456
2026-01-01 04:53:14.27	5.81	19.75	-49.9	-62.8	3.8	7.45e-01	0	59	104	0	61	17388
2026-01-01 04:53:17.22	5.10	19.99	-50.8	-66.2	3.8	7.45e-01	0	59	104	0	63	22979
2026-01-01 04:53:20.16	4.39	20.24	-51.1	-69.6	3.8	7.45e-01	0	59	104	0	64	31939
2026-01-01 04:53:23.10	3.66	20.48	-51.7	-71.3	3.8	7.43e-01	0	59	104	0	65	36715
2026-01-01 04:53:26.05	2.92	20.71	-52.3	-71.2	3.8	7.45e-01	0	59	104	0	66	34280
2026-01-01 04:53:29.00	2.17	20.95	-53.1	-71.7	3.8	7.43e-01	0	59	104	0	68	32479
2026-01-01 04:53:31.96	1.40	21.18	-52.8	-67.6	3.8	7.44e-01	0	59	104	0	68	20172
2026-01-01 04:53:34.91	0.62	21.42	-52.7	-67.2	3.8	7.45e-01	0	59	104	0	68	19293
2026-01-01 04:53:37.86	359.83	21.64	-52.2	-66.1	3.8	7.44e-01	0	59	104	0	68	16930
2026-01-01 04:53:40.81	359.03	21.87	-50.7	-63.2	3.8	7.45e-01	0	59	104	0	65	14468
2026-01-01 04:53:43.76	358.22	22.09	-49.9	-61.9	3.8	7.44e-01	0	59	104	0	63	13907
2026-01-01 04:53:46.72	357.39	22.30	-50.9	-63.6	3.8	7.45e-01	0	59	104	0	64	16014
2026-01-01 04:53:49.67	356.55	22.51	-50.8	-63.4	3.8	7.43e-01	0	59	104	0	65	14764
2026-01-01 04:53:52.62	355.70	22.72	-50.4	-62.8	3.8	7.47e-01	0	59	104	0	64	14559
2026-01-01 04:53:55.57	354.84	22.92	-50.7	-63.2	3.8	7.44e-01	0	59	104	0	64	15357
2026-01-01 04:53:58.52	353.96	23.12	-49.7	-61.6	3.8	7.45e-01	0	59	104	0	63	13416
2026-01-01 04:54:01.47	353.08	23.31	-49.6	-61.3	3.8	7.43e-01	0	59	104	0	62	13814
2026-01-01 04:54:04.42	352.18	23.50	-50.6	-62.9	3.8	7.46e-01	0	59	104	0	63	15757
2026-01-01 04:54:07.37	351.27	23.68	-52.2	-66.0	3.8	7.45e-01	0	60	104	0	66	18851
2026-01-01 04:54:10.32	350.35	23.85	-52.5	-66.9	3.8	7.43e-01	0	60	104	0	67	19731
2026-01-01 04:54:13.25	349.43	24.02	-53.0	-67.9	3.8	7.47e-01	0	60	104	0	68	20909
2026-01-01 04:54:16.21	348.49	24.18	-53.5	-69.5	3.8	7.43e-01	0	60	104	0	69	23760
2026-01-01 04:54:19.16	347.54	24.33	-52.8	-67.3	3.8	7.45e-01	0	60	104	0	69	18339
2026-01-01 04:54:22.11	346.58	24.48	-52.1	-65.7	3.8	7.44e-01	0	60	104	0	67	17179
2026-01-01 04:54:25.05	345.61	24.61	-51.8	-65.2	3.8	7.47e-01	0	60	104	0	67	16196
2026-01-01 04:54:28.01	344.63	24.74	-50.8	-63.2	3.8	7.42e-01	0	60	104	0	65	14406
2026-01-01 04:54:30.96	343.65	24.86	-49.6	-61.4	3.8	7.44e-01	0	60	104	0	62	14043
2026-01-01 04:54:33.90	342.66	24.98	-49.0	-60.6	3.8	7.44e-01	0	60	104	0	61	13567
2026-01-01 04:54:36.84	341.66	25.08	-49.8	-61.6	3.9	7.43e-01	0	60	104	0	61	15139
2026-01-01 04:54:39.79	340.65	25.18	-50.6	-62.9	3.8	7.44e-01	0	60	104	0	63	15635
2026-01-01 04:54:42.74	339.64	25.26	-50.6	-62.9	3.8	7.43e-01	0	60	104	0	63	15749
2026-01-01 04:54:45.70	338.62	25.34	-50.7	-63.1	3.8	7.42e-01	0	60	104	0	64	15174
2026-01-01 04:54:48.65	337.59	25.41	-49.8	-61.7	3.8	7.45e-01	0	60	104	0	63	13680
2026-01-01 04:54:51.59	336.57	25.47	-49.4	-61.1	3.8	7.43e-01	0	60	104	0	62	13534
2026-01-01 04:54:54.54	335.54	25.52	-50.2	-62.3	3.8	7.47e-01	0	60	104	0	62	15526
2026-01-01 04:54:57.47	334.51	25.56	-51.7	-64.9	3.8	7.47e-01	0	60	104	0	65	17502
2026-01-01 04:55:00.41	333.47	25.59	-52.1	-65.6	3.8	7.44e-01	0	60	104	0	66	18076
2026-01-01 04:55:03.37	332.43	25.60	-52.7	-67.1	3.8	7.45e-01	0	60	104	0	67	20121
2026-01-01 04:55:06.33	331.39	25.61	-53.4	-69.2	3.8	7.43e-01	0	60	104	0	69	23033
2026-01-01 04:55:09.27	330.35	25.61	-52.4	-66.3	3.8	7.41e-01	0	60	104	0	68	17364
2026-01-01 04:55:12.23	329.31	25.60	-51.3	-64.2	3.8	7.43e-01	0	60	104	0	66	15292
2026-01-01 04:55:15.18	328.27	25.58	-50.9	-63.5	3.8	7.47e-01	0	60	104	0	65	14985
2026-01-01 04:55:18.12	327.23	25.55	-50.3	-62.5	3.8	7.45e-01	0	60	104	0	64	14156
2026-01-01 04:55:21.08	326.20	25.51	-49.5	-61.2	3.8	7.45e-01	0	60	104	0	62	13712
2026-01-01 04:55:24.03	325.16	25.46	-49.0	-60.5	3.8	7.45e-01	0	60	104	0	61	13399
2026-01-01 04:55:26.98	324.14	25.40	-49.1	-60.5	3.8	7.45e-01	0	60	104	0	61	13398
2026-01-01 04:55:29.94	323.11	25.33	-49.9	-62.0	3.8	7.43e-01	0	60	104	0	62	14911
2026-01-01 04:55:32.89	322.09	25.25	-50.0	-61.9	3.8	7.47e-01	0	61	104	0	62	14771
2026-01-01 04:55:35.84	321.08	25.16	-50.7	-62.5	3.8	7.42e-01	0	60	104	0	63	15021
2026-01-01 04:55:38.79	320.07	25.07	-49.9	-62.1	3.8	7.47e-01	0	61	104	0	63	14295
2026-01-01 04:55:41.73	319.07	24.96	-49.8	-62.4	3.8	7.46e-01	0	61	104	0	62	15596
2026-01-01 04:55:44.68	318.08	24.85	-50.6	-63.7	3.9	7.41e-01	0	61	104	0	63	17183
2026-01-01 04:55:47.62	317.10	24.72	-51.8	-55.7	17.4	6.01e-01	0	61	0	1572864	66	5780
2026-01-01 04:55:50.53	316.13	24.59	-51.7	-55.8	17.3	6.01e-01	0	61	0	7340032	65	6152
2026-01-01 04:55:53.43	315.18	24.46	-51.6	-55.3	17.8	6.00e-01	0	61	0	12582912	66	5471
2026-01-01 04:55:56.36	314.23	24.31	-51.9	-56.2	16.8	6.00e-01	0	61	0	18350080	66	6065
2026-01-01 04:55:59.26	313.30	24.16	-50.5	-53.3	19.7	5.99e-01	0	61	0	23592960	64	4922
2026-01-01 04:56:02.18	312.36	24.00	-50.4	-53.1	20.1	6.00e-01	0	60	0	28835840	63	5096
2026-01-01 04:56:05.09	311.45	23.84	-50.2	-52.7	20.5	6.01e-01	0	61	0	34603008	63	4860
2026-01-01 04:56:07.99	310.54	23.66	-49.3	-51.4	21.8	6.00e-01	0	60	0	39845888	62	4405
2026-01-01 04:56:10.89	309.65	23.49	-49.2	-51.2	21.9	6.00e-01	0	61	0	45088768	61	4592
2026-01-01 04:56:13.80	308.76	23.30	-49.2	-51.4	21.7	6.01e-01	0	61	0	50855936	60	4954
2026-01-01 04:56:16.70	307.89	23.11	-49.5	-51.7	21.5	6.02e-01	0	61	0	56098816	61	4852
2026-01-01 04:56:19.60	307.03	22.92	-49.3	-51.5	21.7	6.03e-01	0	61	0	61865984	61	4707
2026-01-01 04:56:22.51	306.18	22.72	-49.1	-51.1	21.9	6.01e-01	0	61	0	67108864	60	4810
2026-01-01 04:56:25.41	305.34	22.52	-48.4	-50.2	22.9	5.98e-01	0	61	0	72351744	60	4303
2026-01-01 04:56:28.32	304.51	22.31	-49.5	-51.8	21.2	6.02e-01	0	61	0	78118912	62	4599
2026-01-01 04:56:31.23	303.70	22.10	-49.8	-52.2	21.0	6.02e-01	0	61	0	83361792	61	5137
2026-01-01 04:56:34.15	302.89	21.88	-49.4	-51.6	21.5	6.02e-01	0	61	0	89128960	62	4540
2026-01-01 04:56:37.04	302.10	21.66	-49.2	-51.3	21.6	6.02e-01	0	61	0	94371840	62	4367
2026-01-01 04:56:39.96	301.32	21.43	-49.6	-52.0	21.1	6.00e-01	0	61	0	99614720	62	4714
2026-01-01 04:56:42.87	300.55	21.21	-49.6	-51.9	21.2	6.03e-01	0	61	0	105381888	62	4681
2026-01-01 04:56:45.77	299.79	20.98	-49.2	-51.3	21.8	6.01e-01	0	61	0	110624768	62	4368
2026-01-01 04:56:48.68	299.05	20.74	-49.2	-51.3	21.9	6.02e-01	0	61	0	116391936	61	4633
2026-01-01 04:56:51.59	298.31	20.51	-49.1	-51.1	21.9	6.00e-01	0	61	0	121634816	61	4538
2026-01-01 04:56:54.50	297.59	20.27	-49.8	-52.4	20.8	6.00e-01	0	61	0	126877696	61	5231
2026-01-01 04:56:57.41	296.88	20.03	-49.1	-51.2	21.8	5.99e-01	0	61	0	132644864	61	4547
2026-01-01 04:57:00.31	296.18	19.79	-49.0	-51.1	22.0	6.00e-01	0	61	0	137887744	61	4517
2026-01-01 04:57:03.22	295.50	19.55	-49.1	-51.2	22.0	6.00e-01	0	61	0	143654912	61	4554
2026-01-01 04:57:06.13	294.82	19.30	-48.6	-50.4	22.5	6.02e-01	0	61	0	148897792	60	4416
2026-01-01 04:57:09.04	294.16	19.06	-48.6	-50.4	22.5	6.01e-01	0	61	0	154664960	60	4441
2026-01-01 04:57:11.96	293.50	18.81	-48.7	-50.6	22.3	6.01e-01	0	61	0	159907840	60	4509
2026-01-01 04:57:14.86	292.86	18.56	-48.9	-51.0	21.8	6.02e-01	0	61	0	165150720	60	4733
2026-01-01 04:57:17.77	292.23	18.31	-49.3	-51.6	21.0	6.02e-01	0	61	0	170917888	60	5094
2026-01-01 04:57:20.69	291.61	18.06	-50.2	-53.3	19.1	6.02e-01	0	61	0	176160768	62	5517
2026-01-01 04:57:23.60	291.00	17.81	-50.8	-54.8	17.4	6.02e-01	0	61	0	181927936	63	6153
2026-01-01 04:57:26.50	290.41	17.56	-50.7	-55.2	16.5	6.00e-01	0	61	0	187170816	64	6077
2026-01-01 04:57:29.42	289.82	17.31	-51.3	-57.3	14.0	6.00e-01	0	61	0	192413696	64	7794
2026-01-01 04:57:32.33	289.24	17.06	-51.5	-58.8	12.4	6.04e-01	0	61	0	198180864	65	8719
2026-01-01 04:57:35.25	288.67	16.81	-51.6	-59.7	11.3	6.10e-01	0	61	0	203423744	65	9629
2026-01-01 04:57:38.15	288.12	16.56	-51.8	-61.4	9.4	6.27e-01	0	61	0	209190912	65	11806
2026-01-01 04:57:41.05	287.57	16.31	-51.9	-63.8	7.0	6.64e-01	91	61	0	214433792	66	14592
2026-01-01 04:57:43.96	287.04	16.06	-51.9	-63.7	7.0	6.64e-01	91	61	0	219676672	66	14490
2026-01-01 04:57:46.88	286.51	15.81	-52.0	-65.0	5.9	6.89e-01	93	61	0	224919552	66	16776
2026-01-01 04:57:49.78	285.99	15.57	-52.0	-63.9	6.8	6.64e-01	91	61	0	230162432	66	14784
2026-01-01 04:57:52.69	285.48	15.32	-51.7	-60.1	10.9	6.14e-01	0	61	0	235929600	66	9536
2026-01-01 04:57:55.60	284.98	15.07	-50.8	-55.7	15.7	6.00e-01	0	61	0	241172480	65	6084
2026-01-01 04:57:58.52	284.49	14.82	-50.7	-55.2	16.5	6.02e-01	0	62	0	246415360	64	6085
2026-01-01 04:58:01.42	284.01	14.58	-50.1	-53.4	18.6	5.99e-01	0	62	0	252182528	63	5270
2026-01-01 04:58:04.33	283.54	14.33	-49.7	-52.5	19.9	6.01e-01	0	61	0	257425408	63	4736
2026-01-01 04:58:07.24	283.07	14.09	-49.6	-52.2	20.3	5.99e-01	0	61	0	263192576	62	4849
2026-01-01 04:58:10.15	282.62	13.84	-49.3	-51.6	21.1	6.00e-01	0	62	0	268435456	62	4523
2026-01-01 04:58:13.05	282.17	13.60	-49.0	-51.1	21.7	6.01e-01	0	61	0	273678336	61	4527
2026-01-01 04:58:15.97	281.73	13.36	-49.0	-51.2	21.6	6.01e-01	0	61	0	279445504	61	4560
2026-01-01 04:58:18.87	281.29	13.12	-48.9	-51.0	21.8	6.02e-01	0	61	0	284688384	61	4463
2026-01-01 04:58:21.77	280.87	12.88	-49.0	-51.1	21.7	6.02e-01	0	61	0	290455552	61	4511
2026-01-01 04:58:24.67	280.45	12.64	-48.9	-51.1	21.7	6.00e-01	0	61	0	295698432	61	4496
2026-01-01 04:58:27.58	280.04	12.41	-48.8	-50.9	21.8	6.00e-01	0	61	0	300941312	61	4393
2026-01-01 04:58:30.48	279.64	12.17	-49.0	-51.1	21.6	6.01e-01	0	61	0	306708480	61	4537
2026-01-01 04:58:33.38	279.24	11.94	-49.2	-51.5	21.2	6.00e-01	0	61	0	311951360	61	4723
2026-01-01 04:58:36.28	278.86	11.70	-49.0	-51.3	21.5	5.99e-01	0	61	0	317194240	61	4607
2026-01-01 04:58:39.19	278.47	11.47	-48.9	-51.1	21.6	6.02e-01	0	61	0	322961408	61	4522
2026-01-01 04:58:42.10	278.10	11.24	-49.0	-51.2	21.5	6.00e-01	0	62	0	328204288	61	4584
2026-01-01 04:58:45.01	277.73	11.01	-49.3	-51.7	20.9	6.00e-01	0	61	0	333971456	61	4816
2026-01-01 04:58:47.91	277.36	10.78	-49.1	-51.4	21.0	6.02e-01	0	61	0	339214336	61	4686
2026-01-01 04:58:50.82	277.01	10.56	-49.1	-51.5	20.9	6.02e-01	0	61	0	344457216	61	4709
2026-01-01 04:58:53.73	276.65	10.33	-49.2	-51.7	20.5	6.02e-01	0	61	0	350224384	61	4866
2026-01-01 04:58:56.63	276.31	10.11	-49.4	-52.1	20.0	6.01e-01	0	62	0	355467264	61	5080
2026-01-01 04:58:59.53	275.97	9.88	-49.1	-51.8	20.1	5.99e-01	0	61	0	361234432	61	4903
2026-01-01 04:59:02.44	275.64	9.66	-49.2	-52.0	19.8	6.01e-01	0	62	0	366477312	61	5034
2026-01-01 04:59:05.35	275.31	9.44	-49.2	-52.1	19.6	5.99e-01	0	61	0	371720192	61	5070
2026-01-01 04:59:08.25	274.99	9.22	-49.6	-52.8	18.8	6.01e-01	0	61	0	377487360	61	5497
2026-01-01 04:59:11.17	274.67	9.00	-49.8	-53.4	18.0	6.00e-01	0	62	0	382730240	61	5897
2026-01-01 04:59:14.07	274.36	8.79	-49.7	-53.7	17.4	5.99e-01	0	61	0	388497408	61	6092
2026-01-01 04:59:16.97	274.05	8.57	-49.8	-54.0	16.9	6.00e-01	0	62	0	393740288	62	5992
2026-01-01 04:59:19.88	273.75	8.36	-49.9	-54.4	16.3	6.01e-01	0	62	0	398983168	62	6235
2026-01-01 04:59:22.80	273.45	8.15	-50.0	-55.2	15.4	6.01e-01	0	62	0	404750336	62	6831
2026-01-01 04:59:25.71	273.15	7.93	-50.1	-55.6	14.7	6.00e-01	0	62	0	409993216	62	7195
2026-01-01 04:59:28.60	272.87	7.73	-50.3	-56.6	13.6	6.04e-01	0	62	0	415760384	62	8054
2026-01-01 04:59:31.51	272.59	7.52	-50.3	-57.2	12.8	6.04e-01	0	62	0	421003264	62	8601
2026-01-01 04:59:34.42	272.31	7.31	-50.3	-57.9	11.7	6.08e-01	0	62	0	426246144	62	9378
2026-01-01 04:59:37.32	272.03	7.10	-50.2	-58.3	11.1	6.08e-01	0	62	0	432013312	62	9827
2026-01-01 04:59:40.22	271.76	6.90	-50.2	-58.6	10.7	6.15e-01	0	62	0	437256192	62	10153
2026-01-01 04:59:43.14	271.50	6.69	-50.2	-59.0	10.3	6.16e-01	0	62	0	442499072	62	10586
2026-01-01 04:59:46.04	271.24	6.49	-50.3	-58.4	11.1	6.12e-01	0	62	0	448266240	62	9934
2026-01-01 04:59:48.95	270.98	6.29	-50.4	-58.8	10.8	6.13e-01	0	62	0	453509120	62	10401
2026-01-01 04:59:51.86	270.72	6.09	-50.3	-58.4	11.2	6.13e-01	0	62	0	459276288	62	9916
2026-01-01 04:59:54.77	270.47	5.89	-50.5	-58.8	10.9	6.13e-01	0	62	0	464519168	63	9783
2026-01-01 04:59:57.67	270.23	5.69	-50.5	-58.4	11.4	6.10e-01	0	62	0	470286336	63	9302
2026-01-01 05:00:00.58	269.99	5.50	-50.5	-58.3	11.5	6.09e-01	0	62	0	475004928	63	9191
2026-01-01 05:00:03.49	269.75	5.30	-50.5	-58.1	11.9	6.08e-01	0	62	0	480772096	63	9005
2026-01-01 05:00:06.39	269.51	5.11	-50.4	-56.8	13.4	6.02e-01	0	62	0	486539264	63	7722
2026-01-01 05:00:09.32	269.28	4.91	-51.7	-71.3	3.8	7.47e-01	0	62	104	489684992	65	36910
2026-01-01 05:00:12.26	269.05	4.72	-54.2	-74.1	3.8	7.41e-01	0	62	104	489684992	70	38000
2026-01-01 05:00:15.21	268.82	4.53	-54.3	-74.2	3.8	7.45e-01	0	62	104	489684992	70	38446
2026-01-01 05:00:18.15	268.60	4.34	-54.5	-74.4	3.8	7.43e-01	0	62	104	489684992	71	36960
2026-01-01 05:00:21.09	268.38	4.14	-54.5	-74.4	3.8	7.47e-01	0	62	104	489684992	71	37322
2026-01-01 05:00:24.04	268.16	3.95	-54.6	-74.5	3.8	7.47e-01	0	62	104	489684992	71	37647
2026-01-01 05:00:26.99	267.94	3.77	-54.6	-74.5	3.8	7.41e-01	0	62	104	489684992	71	37769
2026-01-01 05:00:29.93	267.73	3.58	-54.7	-74.6	3.8	7.46e-01	0	62	104	489684992	71	37920
2026-01-01 05:00:32.88	267.52	3.39	-54.7	-74.6	3.8	7.41e-01	0	62	104	489684992	71	38052
2026-01-01 05:00:35.82	267.32	3.21	-54.7	-74.6	3.8	7.48e-01	0	62	104	489684992	71	37974
2026-01-01 05:00:38.75	267.12	3.02	-54.6	-74.5	3.8	7.48e-01	0	62	104	489684992	71	37794

#Closed at: 2026-01-01 05:00:40
#Recorded file [489 MB]: D:/Data/31026_260101_080008.dat