passes_logs/2026/01/01/R3.0SM8_Murmansk_STILSPACE/R3.0SM8_Murmansk_STILSPACE__20260101_132002_FENGYUN_3E_rec.log

#Pass ID: 20260101_132002_FENGYUN 3E
#Satellite: FENGYUN 3E
#Configuration: FENGYUN 3E
#almurnet v.1.7.20240730
#Start time: 2026-01-01 13:27:07

#Version: 2.2.20231116
#Station: R3.0SM8_Murmansk_STILSPACE
#Location: 33.092731 lon 68.902999 lat
#TLE: 1 49008U 21062A   25365.98258168  .00000149  00000+0  90987-4 0  9990
#TLE: 2 49008  98.7481   6.2763 0001360 169.3782 190.7423 14.19883270232859

#Time	Az	El	Level	Level2	SNR	BER	BlckErr	Temp	State	Recorded	gain1	gain2
2026-01-01 13:27:07.21	43.51	69.84	-52.7	-63.4	3.8	8.47e-01	0	57	0	0	67	12945
2026-01-01 13:27:09.19	40.82	69.61	-52.7	-63.0	3.8	8.46e-01	0	58	104	0	68	11431
2026-01-01 13:27:11.17	38.21	69.33	-52.8	-63.0	3.8	8.45e-01	0	57	104	0	68	11500
2026-01-01 13:27:13.15	35.67	69.02	-52.7	-63.0	3.8	8.47e-01	0	58	104	0	68	11447
2026-01-01 13:27:15.14	33.21	68.67	-52.7	-62.8	3.8	8.45e-01	0	58	104	0	68	11258
2026-01-01 13:27:17.12	30.85	68.29	-52.7	-62.8	3.8	8.47e-01	0	57	104	0	67	11858
2026-01-01 13:27:19.09	28.59	67.88	-52.6	-62.8	3.8	8.46e-01	0	58	104	0	67	11944
2026-01-01 13:27:21.08	26.41	67.43	-52.5	-62.8	3.8	8.47e-01	0	58	104	0	67	11904
2026-01-01 13:27:23.06	24.33	66.96	-52.7	-62.8	3.8	8.47e-01	0	58	104	0	67	11927
2026-01-01 13:27:25.04	22.34	66.47	-52.6	-62.8	3.8	8.46e-01	0	58	104	0	67	11887
2026-01-01 13:27:27.02	20.45	65.96	-52.5	-62.8	3.8	8.46e-01	0	58	104	0	67	11918
2026-01-01 13:27:28.99	18.65	65.43	-52.6	-62.8	3.8	8.47e-01	0	58	104	0	67	11872
2026-01-01 13:27:30.96	16.94	64.88	-52.5	-62.8	3.8	8.46e-01	0	58	104	0	67	11924
2026-01-01 13:27:32.94	15.30	64.31	-52.5	-62.8	3.8	8.46e-01	0	58	104	0	67	11914
2026-01-01 13:27:34.91	13.75	63.74	-52.7	-62.8	3.8	8.47e-01	0	58	104	0	67	11890
2026-01-01 13:27:36.89	12.27	63.15	-52.6	-62.8	3.8	8.46e-01	0	58	104	0	67	11945
2026-01-01 13:27:38.87	10.86	62.55	-52.7	-62.8	3.8	8.45e-01	0	58	104	0	67	11889
2026-01-01 13:27:40.85	9.52	61.94	-52.4	-62.6	3.8	8.46e-01	0	58	104	0	67	11645
2026-01-01 13:27:42.83	8.25	61.32	-52.6	-62.7	3.8	8.46e-01	0	58	104	0	67	11776
2026-01-01 13:27:44.81	7.04	60.70	-52.6	-62.7	3.8	8.46e-01	0	58	104	0	67	11686
2026-01-01 13:27:46.78	5.89	60.07	-52.6	-62.8	3.8	8.46e-01	0	58	104	0	67	11885
2026-01-01 13:27:48.76	4.79	59.44	-52.6	-62.3	3.8	8.46e-01	0	58	104	0	67	11175
2026-01-01 13:27:50.74	3.75	58.80	-52.6	-62.4	3.8	8.46e-01	0	58	104	0	67	11411
2026-01-01 13:27:52.73	2.75	58.17	-52.6	-62.3	3.8	8.46e-01	0	58	104	0	67	11175
2026-01-01 13:27:54.71	1.80	57.53	-52.3	-61.0	3.8	8.45e-01	0	58	104	0	67	9625
2026-01-01 13:27:56.68	0.90	56.89	-52.6	-62.4	3.8	8.47e-01	0	58	104	0	67	11392
2026-01-01 13:27:58.66	0.04	56.26	-52.4	-61.7	3.8	8.46e-01	0	58	104	0	67	10436
2026-01-01 13:28:00.64	359.21	55.62	-48.6	-50.7	10.9	1.07e-02	0	58	0	4194304	60	4436
2026-01-01 13:28:02.62	358.42	54.99	-47.5	-49.1	12.8	1.48e-05	0	58	0	18874368	56	4600
2026-01-01 13:28:04.61	357.67	54.36	-46.8	-48.1	13.8	1.48e-05	0	58	0	33554432	56	4137
2026-01-01 13:28:06.59	356.95	53.73	-44.7	-45.6	16.2	0.00e+00	0	58	0	47185920	52	3888
2026-01-01 13:28:08.57	356.26	53.10	-43.1	-43.8	18.1	0.00e+00	0	58	0	61865984	49	3746
2026-01-01 13:28:10.55	355.60	52.48	-42.7	-43.4	18.4	0.00e+00	0	58	0	76546048	48	3800
2026-01-01 13:28:12.53	354.97	51.86	-41.6	-42.1	19.3	0.00e+00	0	58	0	90177536	46	3690
2026-01-01 13:28:14.51	354.36	51.25	-40.8	-41.3	20.2	0.00e+00	0	58	0	104857600	44	3768
2026-01-01 13:28:16.48	353.78	50.65	-41.6	-42.1	19.5	0.00e+00	0	58	0	118489088	44	4138
2026-01-01 13:28:18.46	353.22	50.04	-41.6	-42.1	19.4	0.00e+00	0	58	0	133169152	45	3908
2026-01-01 13:28:20.44	352.68	49.44	-41.2	-41.7	19.9	0.00e+00	0	58	0	147849216	45	3712
2026-01-01 13:28:22.43	352.16	48.85	-41.4	-41.9	19.7	0.00e+00	0	58	0	161480704	45	3815
2026-01-01 13:28:24.41	351.67	48.26	-41.4	-41.9	19.7	0.00e+00	0	58	0	176160768	45	3807
2026-01-01 13:28:26.38	351.19	47.68	-41.3	-41.8	19.6	0.00e+00	0	58	0	190840832	45	3777
2026-01-01 13:28:28.35	350.73	47.11	-41.7	-42.3	18.1	0.00e+00	0	58	0	204472320	45	3987
2026-01-01 13:28:30.32	350.29	46.54	-41.8	-42.4	19.2	0.00e+00	0	58	0	219152384	45	4007
2026-01-01 13:28:32.30	349.86	45.98	-41.8	-42.4	19.2	0.00e+00	0	58	0	232783872	45	4010
2026-01-01 13:28:34.28	349.45	45.42	-41.9	-42.5	19.1	0.00e+00	0	58	0	247463936	45	4059
2026-01-01 13:28:36.24	349.06	44.87	-41.4	-41.9	19.6	0.00e+00	0	58	0	261095424	45	3799
2026-01-01 13:28:38.22	348.67	44.33	-40.7	-41.2	20.3	0.00e+00	0	58	0	275775488	44	3697
2026-01-01 13:28:40.19	348.31	43.79	-40.3	-40.8	20.6	0.00e+00	0	58	0	290455552	43	3738
2026-01-01 13:28:42.16	347.95	43.26	-40.3	-40.8	20.6	0.00e+00	0	58	0	304087040	43	3760
2026-01-01 13:28:44.15	347.60	42.73	-40.0	-40.5	20.9	0.00e+00	0	58	0	318767104	42	3837
2026-01-01 13:28:46.13	347.26	42.20	-39.9	-40.4	21.0	0.00e+00	0	58	0	333447168	42	3795
2026-01-01 13:28:48.11	346.94	41.69	-40.3	-40.8	20.5	0.00e+00	0	58	0	347078656	42	3986
2026-01-01 13:28:50.09	346.63	41.18	-40.4	-40.8	20.6	0.00e+00	0	58	0	361758720	42	3999
2026-01-01 13:28:52.06	346.32	40.68	-40.2	-40.7	20.6	0.00e+00	0	58	0	376438784	42	3932
2026-01-01 13:28:54.04	346.03	40.18	-40.4	-40.9	20.5	0.00e+00	0	58	0	390070272	42	4028
2026-01-01 13:28:56.01	345.74	39.69	-40.5	-41.0	20.4	0.00e+00	0	58	0	404750336	43	3852
2026-01-01 13:28:57.99	345.47	39.21	-40.2	-40.7	20.7	0.00e+00	0	58	0	418381824	43	3705
2026-01-01 13:28:59.98	345.20	38.73	-40.1	-40.6	20.8	0.00e+00	0	58	0	433061888	43	3658
2026-01-01 13:29:01.95	344.94	38.25	-40.4	-40.9	20.5	0.00e+00	0	58	0	446693376	43	3802
2026-01-01 13:29:03.92	344.69	37.79	-40.0	-40.5	20.9	0.00e+00	0	58	0	461373440	43	3615
2026-01-01 13:29:05.90	344.44	37.33	-40.6	-41.1	20.3	0.00e+00	0	58	0	476053504	42	4136
2026-01-01 13:29:07.88	344.20	36.87	-40.7	-41.2	20.2	0.00e+00	0	58	0	489684992	43	3935
2026-01-01 13:29:09.85	343.97	36.42	-40.6	-41.1	20.2	0.00e+00	0	58	0	504365056	43	3873
2026-01-01 13:29:11.84	343.74	35.98	-40.6	-41.1	20.3	0.00e+00	0	58	0	519045120	43	3881
2026-01-01 13:29:13.81	343.53	35.54	-41.0	-41.5	19.9	0.00e+00	0	58	0	532676608	43	4092
2026-01-01 13:29:15.78	343.31	35.11	-40.5	-41.0	20.3	0.00e+00	0	58	0	547356672	43	3853
2026-01-01 13:29:17.74	343.11	34.69	-40.1	-40.6	20.7	0.00e+00	0	58	0	560988160	43	3685
2026-01-01 13:29:19.72	342.91	34.26	-40.0	-40.5	20.8	0.00e+00	0	58	0	575668224	42	3856
2026-01-01 13:29:21.69	342.71	33.85	-40.1	-40.6	20.8	0.00e+00	0	58	0	589299712	42	3880
2026-01-01 13:29:23.67	342.52	33.44	-39.5	-40.0	21.2	0.00e+00	0	58	0	603979776	41	3837
2026-01-01 13:29:25.66	342.33	33.03	-39.6	-40.0	21.3	0.00e+00	0	58	0	618659840	41	3865
2026-01-01 13:29:27.65	342.15	32.62	-39.8	-40.2	21.1	0.00e+00	0	58	0	632291328	41	3957
2026-01-01 13:29:29.63	341.97	32.23	-39.9	-40.4	21.0	0.00e+00	0	58	0	646971392	41	4016
2026-01-01 13:29:31.61	341.80	31.83	-39.7	-40.2	21.1	0.00e+00	0	58	0	661651456	41	3928
2026-01-01 13:29:33.60	341.63	31.44	-39.7	-40.2	21.0	0.00e+00	0	58	0	675282944	41	3919
2026-01-01 13:29:35.58	341.46	31.06	-39.5	-40.0	21.3	0.00e+00	0	58	0	689963008	41	3825
2026-01-01 13:29:37.56	341.30	30.68	-39.6	-40.1	21.2	0.00e+00	0	58	0	704643072	41	3888
2026-01-01 13:29:39.54	341.15	30.31	-39.8	-40.2	21.1	0.00e+00	0	58	0	718274560	41	3941
2026-01-01 13:29:41.53	340.99	29.94	-39.9	-40.4	20.9	0.00e+00	0	58	0	732954624	41	4024
2026-01-01 13:29:43.51	340.84	29.58	-40.1	-40.6	20.7	0.00e+00	0	58	0	747634688	41	4122
2026-01-01 13:29:45.49	340.70	29.22	-40.3	-40.8	20.6	0.00e+00	0	58	0	761266176	42	3968
2026-01-01 13:29:47.47	340.55	28.86	-40.2	-40.7	20.6	0.00e+00	0	58	0	775946240	42	3943
2026-01-01 13:29:49.45	340.41	28.51	-40.3	-40.8	20.4	0.00e+00	0	58	0	789577728	42	3988
2026-01-01 13:29:51.41	340.28	28.17	-40.2	-40.6	20.7	0.00e+00	0	58	0	804257792	42	3907
2026-01-01 13:29:53.39	340.15	27.82	-40.1	-40.6	20.7	0.00e+00	0	58	0	818937856	42	3886
2026-01-01 13:29:55.37	340.02	27.48	-43.3	-44.1	17.7	0.00e+00	0	58	0	832569344	49	3872
2026-01-01 13:29:57.34	339.89	27.15	-43.4	-44.1	17.5	0.00e+00	0	58	0	847249408	49	3906
2026-01-01 13:29:59.33	339.77	26.82	-43.2	-43.9	17.8	0.00e+00	0	58	0	861929472	49	3823
2026-01-01 13:30:01.30	339.64	26.49	-43.4	-44.1	17.6	0.00e+00	0	58	0	875560960	49	3894
2026-01-01 13:30:03.28	339.53	26.17	-44.1	-44.9	16.8	0.00e+00	0	58	0	890241024	49	4257
2026-01-01 13:30:05.26	339.41	25.85	-45.1	-46.1	15.6	0.00e+00	0	58	0	903872512	51	4383
2026-01-01 13:30:07.24	339.29	25.53	-46.4	-47.7	13.8	0.00e+00	0	58	0	918552576	55	4166
2026-01-01 13:30:09.21	339.18	25.22	-46.8	-48.3	13.3	2.63e-05	0	58	0	933232640	55	4453
2026-01-01 13:30:11.20	339.07	24.91	-47.2	-48.7	12.8	5.26e-05	0	58	0	946864128	55	4685
2026-01-01 13:30:13.18	338.97	24.61	-45.6	-46.7	14.9	3.40e-06	0	58	0	961544192	54	3946
2026-01-01 13:30:15.17	338.86	24.30	-44.6	-45.5	16.1	0.00e+00	0	58	0	976224256	52	3843
2026-01-01 13:30:17.15	338.76	24.00	-44.1	-44.9	16.7	0.00e+00	0	58	0	989855744	51	3802
2026-01-01 13:30:19.12	338.66	23.71	-44.2	-45.0	16.7	0.00e+00	0	58	0	1004535808	51	3836
2026-01-01 13:30:21.08	338.56	23.42	-43.6	-44.3	17.3	0.00e+00	0	58	0	1018167296	50	3772
2026-01-01 13:30:23.06	338.46	23.13	-42.8	-43.5	18.2	0.00e+00	0	58	0	1032847360	48	3834
2026-01-01 13:30:25.04	338.37	22.84	-42.0	-42.6	18.8	0.00e+00	0	58	0	1046478848	46	3878
2026-01-01 13:30:27.01	338.28	22.56	-41.1	-41.7	19.6	0.00e+00	0	58	0	1061158912	45	3706
2026-01-01 13:30:28.99	338.19	22.28	-40.2	-40.7	20.4	0.00e+00	0	58	0	1075838976	43	3706
2026-01-01 13:30:30.97	338.10	22.01	-39.9	-40.3	20.6	0.00e+00	0	58	0	1089470464	42	3773
2026-01-01 13:30:32.95	338.01	21.73	-40.4	-40.9	20.0	0.00e+00	0	58	0	1104150528	42	4029
2026-01-01 13:30:34.94	337.92	21.46	-40.8	-41.3	19.5	0.00e+00	0	58	0	1118830592	43	3984
2026-01-01 13:30:36.91	337.84	21.19	-41.5	-42.1	18.7	0.00e+00	0	58	0	1132462080	44	4124
2026-01-01 13:30:38.88	337.76	20.93	-42.5	-43.3	17.6	0.00e+00	0	58	0	1147142144	46	4194
2026-01-01 13:30:40.87	337.67	20.66	-42.9	-43.7	17.0	0.00e+00	0	58	0	1161822208	47	4179
2026-01-01 13:30:42.85	337.59	20.40	-43.2	-44.0	16.7	0.00e+00	0	58	0	1175453696	47	4317
2026-01-01 13:30:44.83	337.52	20.15	-43.3	-44.1	16.9	0.00e+00	0	58	0	1190133760	48	4102
2026-01-01 13:30:46.82	337.44	19.89	-43.3	-44.2	16.8	0.00e+00	0	58	0	1204813824	48	4164
2026-01-01 13:30:48.81	337.36	19.64	-42.7	-43.5	17.5	0.00e+00	0	58	0	1218445312	48	3836
2026-01-01 13:30:50.79	337.29	19.39	-42.0	-42.7	18.2	0.00e+00	0	58	0	1233125376	47	3701
2026-01-01 13:30:52.76	337.22	19.14	-41.5	-42.1	18.8	0.00e+00	0	58	0	1246756864	46	3689
2026-01-01 13:30:54.75	337.14	18.89	-40.9	-41.5	19.6	0.00e+00	0	58	0	1261436928	44	3827
2026-01-01 13:30:56.72	337.07	18.65	-40.9	-41.4	19.6	0.00e+00	0	58	0	1276116992	44	3812
2026-01-01 13:30:58.70	337.01	18.41	-41.2	-41.7	19.5	0.00e+00	0	58	0	1289748480	44	3954
2026-01-01 13:31:00.68	336.94	18.17	-41.7	-42.3	18.9	0.00e+00	0	58	0	1304428544	44	4208
2026-01-01 13:31:02.66	336.87	17.94	-41.4	-41.9	19.2	0.00e+00	0	58	0	1319108608	45	3820
2026-01-01 13:31:04.64	336.81	17.70	-41.4	-42.0	19.2	0.00e+00	0	58	0	1332740096	45	3847
2026-01-01 13:31:06.62	336.74	17.47	-41.5	-42.1	19.1	0.00e+00	0	58	0	1347420160	45	3900
2026-01-01 13:31:08.61	336.68	17.24	-41.7	-42.3	18.9	0.00e+00	0	58	0	1361051648	45	3994
2026-01-01 13:31:10.59	336.62	17.01	-41.6	-42.2	18.9	0.00e+00	0	58	0	1375731712	45	3939
2026-01-01 13:31:12.58	336.55	16.79	-42.0	-42.6	18.6	0.00e+00	0	58	0	1390411776	45	4136
2026-01-01 13:31:14.56	336.49	16.56	-42.2	-42.8	18.4	0.00e+00	0	58	0	1404043264	46	3998
2026-01-01 13:31:16.54	336.43	16.34	-42.3	-42.9	18.3	0.00e+00	0	58	0	1418723328	46	4037
2026-01-01 13:31:18.52	336.38	16.12	-42.1	-42.7	18.5	0.00e+00	0	58	0	1433403392	46	3941
2026-01-01 13:31:20.51	336.32	15.90	-42.3	-43.0	18.3	0.00e+00	0	58	0	1448083456	46	4071
2026-01-01 13:31:22.49	336.26	15.69	-42.2	-42.8	18.4	0.00e+00	0	58	0	1461714944	46	3986
2026-01-01 13:31:24.47	336.21	15.47	-42.3	-43.0	18.2	0.00e+00	0	58	0	1476395008	46	4063
2026-01-01 13:31:26.45	336.15	15.26	-42.3	-43.0	18.2	0.00e+00	0	58	0	1490026496	46	4077
2026-01-01 13:31:28.43	336.10	15.05	-42.2	-42.9	18.3	0.00e+00	0	58	0	1504706560	46	4036
2026-01-01 13:31:30.40	336.05	14.85	-42.1	-42.8	18.4	0.00e+00	0	58	0	1518338048	46	3959
2026-01-01 13:31:32.38	335.99	14.64	-42.4	-43.1	18.1	0.00e+00	0	58	0	1533018112	46	4134
2026-01-01 13:31:34.36	335.94	14.43	-42.4	-43.1	18.1	0.00e+00	0	58	0	1547698176	46	4109
2026-01-01 13:31:36.33	335.89	14.23	-42.5	-43.2	18.0	0.00e+00	0	58	0	1561329664	46	4157
2026-01-01 13:31:38.31	335.84	14.03	-42.5	-43.2	18.0	0.00e+00	0	58	0	1576009728	46	4152
2026-01-01 13:31:40.29	335.80	13.83	-42.4	-43.1	18.0	0.00e+00	0	58	0	1589641216	47	3888
2026-01-01 13:31:42.28	335.75	13.63	-42.3	-43.0	18.2	0.00e+00	0	58	0	1604321280	47	3834
2026-01-01 13:31:44.26	335.70	13.43	-42.7	-43.4	17.7	0.00e+00	0	58	0	1619001344	47	4034
2026-01-01 13:31:46.24	335.65	13.24	-42.7	-43.5	17.7	0.00e+00	0	58	0	1632632832	47	4056
2026-01-01 13:31:48.22	335.61	13.05	-42.7	-43.4	17.7	0.00e+00	0	58	0	1647312896	47	4032
2026-01-01 13:31:50.20	335.56	12.85	-42.7	-43.5	17.6	0.00e+00	0	58	0	1661992960	47	4057
2026-01-01 13:31:52.17	335.52	12.66	-43.0	-43.8	17.3	0.00e+00	0	58	0	1675624448	47	4208
2026-01-01 13:31:54.14	335.48	12.48	-42.6	-43.3	17.8	0.00e+00	0	58	0	1690304512	47	3974
2026-01-01 13:31:56.12	335.43	12.29	-42.7	-43.4	17.6	0.00e+00	0	58	0	1704984576	47	4018
2026-01-01 13:31:58.09	335.39	12.10	-43.0	-43.8	17.3	0.00e+00	0	58	0	1718616064	47	4218
2026-01-01 13:32:00.08	335.35	11.92	-43.1	-43.9	17.1	0.00e+00	0	58	0	1733296128	47	4273
2026-01-01 13:32:02.05	335.31	11.73	-43.0	-43.8	17.2	0.00e+00	0	58	0	1746927616	47	4220
2026-01-01 13:32:04.03	335.27	11.55	-42.9	-43.6	17.4	0.00e+00	0	58	0	1761607680	47	4121
2026-01-01 13:32:06.01	335.23	11.37	-42.8	-43.6	17.4	0.00e+00	0	58	0	1776287744	47	4112
2026-01-01 13:32:07.99	335.19	11.19	-43.1	-43.8	17.1	0.00e+00	0	58	0	1789919232	47	4235
2026-01-01 13:32:09.97	335.15	11.01	-43.1	-43.9	17.2	0.00e+00	0	58	0	1804599296	47	4246
2026-01-01 13:32:11.94	335.11	10.84	-43.0	-43.8	17.2	0.00e+00	0	58	0	1818230784	47	4232
2026-01-01 13:32:13.92	335.07	10.66	-43.4	-44.2	17.1	0.00e+00	0	58	0	1832910848	48	4146
2026-01-01 13:32:15.91	335.04	10.49	-43.4	-44.2	17.0	0.00e+00	0	58	0	1847590912	48	4154
2026-01-01 13:32:17.89	335.00	10.31	-43.5	-44.4	16.8	0.00e+00	0	58	0	1861222400	48	4249
2026-01-01 13:32:19.86	334.96	10.14	-43.9	-44.8	16.4	0.00e+00	0	58	0	1875902464	49	4208
2026-01-01 13:32:21.84	334.93	9.97	-43.7	-44.5	16.7	0.00e+00	0	58	0	1890582528	49	4081
2026-01-01 13:32:23.83	334.89	9.80	-43.8	-44.7	16.5	0.00e+00	0	58	0	1904214016	49	4152
2026-01-01 13:32:25.82	334.86	9.63	-44.0	-44.9	16.2	0.00e+00	0	58	0	1918894080	49	4281
2026-01-01 13:32:27.80	334.82	9.46	-43.9	-44.8	16.3	0.00e+00	0	58	0	1932525568	49	4216
2026-01-01 13:32:29.77	334.79	9.30	-43.9	-44.8	16.4	0.00e+00	0	58	0	1947205632	49	4202
2026-01-01 13:32:31.75	334.76	9.13	-44.1	-45.0	16.1	0.00e+00	0	58	0	1961885696	49	4308
2026-01-01 13:32:33.72	334.73	8.97	-44.5	-45.5	15.6	0.00e+00	0	58	0	1975517184	50	4310
2026-01-01 13:32:35.70	334.69	8.80	-44.1	-45.0	16.1	0.00e+00	0	58	0	1990197248	50	4088
2026-01-01 13:32:37.69	334.66	8.64	-43.9	-44.7	16.3	0.00e+00	0	58	0	2004877312	50	3954
2026-01-01 13:32:39.68	334.63	8.48	-44.0	-44.9	16.1	0.00e+00	0	58	0	2018508800	50	4031
2026-01-01 13:32:41.66	334.60	8.32	-44.1	-44.9	16.1	0.00e+00	0	58	0	2033188864	50	4051
2026-01-01 13:32:43.65	334.57	8.16	-44.2	-45.1	15.9	0.00e+00	0	58	0	2047868928	50	4142
2026-01-01 13:32:45.63	334.54	8.00	-44.0	-44.9	16.1	0.00e+00	0	58	0	2061500416	50	4040
2026-01-01 13:32:47.60	334.51	7.85	-44.2	-45.1	15.8	0.00e+00	0	58	0	2076180480	50	4145
2026-01-01 13:32:49.59	334.48	7.69	-44.5	-45.4	15.5	0.00e+00	0	58	0	2090860544	50	4275
2026-01-01 13:32:51.57	334.45	7.53	-44.4	-45.3	15.6	0.00e+00	0	58	0	2104492032	51	3993
2026-01-01 13:32:53.56	334.42	7.38	-44.3	-45.2	15.7	0.00e+00	0	58	0	2119172096	51	3943
2026-01-01 13:32:55.53	334.40	7.23	-44.5	-45.5	15.5	0.00e+00	0	58	0	2133852160	51	4064
2026-01-01 13:32:57.51	334.37	7.07	-44.4	-45.3	15.6	0.00e+00	0	58	0	2147483648	51	3980
2026-01-01 13:32:59.49	334.34	6.92	-44.4	-45.4	15.6	0.00e+00	0	58	0	2162163712	51	4011
2026-01-01 13:33:01.47	334.31	6.77	-44.2	-45.2	15.7	0.00e+00	0	58	0	2175795200	51	3930
2026-01-01 13:33:03.44	334.29	6.62	-44.3	-45.2	15.7	0.00e+00	0	58	0	2190475264	51	3958
2026-01-01 13:33:05.42	334.26	6.47	-44.4	-45.4	15.5	0.00e+00	0	58	0	2205155328	51	4020
2026-01-01 13:33:07.39	334.24	6.33	-44.4	-45.4	15.5	0.00e+00	0	58	0	2218786816	51	4028
2026-01-01 13:33:09.37	334.21	6.18	-44.6	-45.7	15.2	0.00e+00	0	58	0	2233466880	51	4153
2026-01-01 13:33:11.35	334.18	6.03	-44.7	-45.8	15.1	0.00e+00	0	58	0	2247098368	51	4204
2026-01-01 13:33:13.33	334.16	5.89	-45.0	-46.2	14.7	0.00e+00	0	58	0	2261778432	51	4395
2026-01-01 13:33:15.31	334.14	5.74	-45.1	-46.2	14.5	0.00e+00	0	58	0	2275409920	51	4434
2026-01-01 13:33:17.29	334.11	5.60	-44.7	-45.8	15.0	0.00e+00	0	58	0	2290089984	51	4210
2026-01-01 13:33:19.28	334.09	5.45	-44.7	-45.7	15.0	0.00e+00	0	58	0	2304770048	51	4178
2026-01-01 13:33:21.26	334.06	5.31	-45.1	-46.3	14.3	0.00e+00	0	58	0	2319450112	52	4218
2026-01-01 13:33:23.24	334.04	5.17	-44.7	-45.9	14.8	0.00e+00	0	58	0	2333081600	52	4010
2026-01-01 13:33:25.23	334.02	5.03	-51.2	-59.7	3.9	4.36e-01	0	58	0	2346713088	63	10456
2026-01-01 13:33:27.21	334.00	4.89	-47.9	-58.0	3.8	8.46e-01	0	58	104	2346713088	58	11536
2026-01-01 13:33:29.19	333.97	4.75	-52.3	-62.5	3.8	8.46e-01	0	58	104	2346713088	66	12194
2026-01-01 13:33:31.17	333.95	4.61	-52.5	-62.6	3.8	8.45e-01	0	58	104	2346713088	66	12326
2026-01-01 13:33:33.14	333.93	4.47	-52.6	-62.7	3.8	8.45e-01	0	58	104	2346713088	66	12518
2026-01-01 13:33:35.12	333.91	4.33	-52.6	-62.8	3.8	8.45e-01	0	58	104	2346713088	66	12560
2026-01-01 13:33:37.09	333.89	4.20	-52.7	-62.8	3.8	8.46e-01	0	58	104	2346713088	66	12641
2026-01-01 13:33:39.07	333.87	4.06	-52.6	-62.9	3.8	8.46e-01	0	58	104	2346713088	67	11964
2026-01-01 13:33:41.05	333.85	3.93	-52.6	-62.8	3.8	8.46e-01	0	58	104	2346713088	67	11893
2026-01-01 13:33:43.02	333.83	3.79	-52.7	-62.9	3.8	8.46e-01	0	58	104	2346713088	67	11980
2026-01-01 13:33:45.01	333.81	3.66	-52.5	-62.9	3.8	8.46e-01	0	58	104	2346713088	67	12035
2026-01-01 13:33:47.00	333.79	3.52	-52.7	-62.9	3.8	8.46e-01	0	58	104	2346713088	67	12060
2026-01-01 13:33:48.98	333.77	3.39	-52.7	-62.9	3.8	8.46e-01	0	58	104	2346713088	67	12046
2026-01-01 13:33:50.97	333.75	3.26	-52.7	-62.9	3.8	8.47e-01	0	58	104	2346713088	67	12059
2026-01-01 13:33:52.94	333.73	3.13	-52.7	-62.9	3.8	8.47e-01	0	58	104	2346713088	67	12032
2026-01-01 13:33:54.92	333.71	2.99	-52.7	-62.9	3.8	8.47e-01	0	58	104	2346713088	67	12001
2026-01-01 13:33:56.90	333.69	2.86	-52.7	-62.9	3.8	8.45e-01	0	58	104	2346713088	67	11993

#Closed at: 2026-01-01 13:33:57
#Recorded file [2346 MB]: D:/Data/31026_260101_163325.dat