passes_logs/2026/01/01/R3.0SM8_Murmansk_STILSPACE/R3.0SM8_Murmansk_STILSPACE__20260101_121342_SUOMI_NPP_rec.log

#Pass ID: 20260101_121342_SUOMI NPP
#Satellite: SUOMI NPP
#Configuration: NPP
#almurnet v.1.7.20240730
#Start time: 2026-01-01 12:13:43

#Version: 2.2.20231116
#Station: R3.0SM8_Murmansk_STILSPACE
#Location: 33.092731 lon 68.902999 lat
#TLE: 1 37849U 11061A   25364.87906317  .00000195  00000+0  11345-3 0  9992
#TLE: 2 37849  98.7794 302.0592 0002571  89.2401 270.9069 14.19520347734561

#Time	Az	El	Level	Level2	SNR	BER	BlckErr	Temp	State	Recorded	gain1	gain2
2026-01-01 12:13:43.97	220.34	3.10	-52.5	-66.3	3.8	1.49e+00	0	45	0	0	66	18966
2026-01-01 12:13:46.95	220.59	3.26	-52.1	-66.0	3.8	1.49e+00	0	46	104	0	67	17370
2026-01-01 12:13:49.91	220.84	3.43	-51.4	-65.2	3.8	1.49e+00	0	46	104	0	65	17705
2026-01-01 12:13:52.89	221.09	3.59	-50.9	-64.6	3.8	1.49e+00	0	46	104	0	64	17571
2026-01-01 12:13:55.85	221.35	3.75	-50.9	-64.6	3.8	1.49e+00	0	47	104	0	64	17604
2026-01-01 12:13:58.81	221.60	3.92	-50.8	-64.6	3.8	1.49e+00	0	47	104	0	64	17676
2026-01-01 12:14:01.78	221.86	4.08	-50.8	-64.5	3.8	1.49e+00	0	47	104	0	64	17426
2026-01-01 12:14:04.74	222.12	4.24	-50.8	-64.1	3.8	1.49e+00	0	47	104	0	64	16510
2026-01-01 12:14:07.69	222.39	4.41	-50.8	-63.0	3.8	1.49e+00	0	47	104	0	64	14570
2026-01-01 12:14:10.66	222.66	4.57	-50.7	-61.8	4.0	1.45e+00	0	47	0	0	64	12755
2026-01-01 12:14:13.63	222.93	4.74	-50.7	-62.1	3.8	1.47e+00	0	48	104	0	64	13249
2026-01-01 12:14:16.60	223.20	4.91	-50.7	-63.3	3.8	1.49e+00	0	48	104	0	64	15095
2026-01-01 12:14:19.56	223.48	5.08	-50.6	-61.5	4.1	1.47e+00	0	48	104	0	64	12243
2026-01-01 12:14:22.53	223.76	5.24	-50.7	-61.0	4.3	1.39e+00	0	48	0	0	63	12273
2026-01-01 12:14:25.51	224.04	5.41	-50.3	-58.2	5.7	4.86e-01	0	49	0	5242880	63	8883
2026-01-01 12:14:28.48	224.33	5.58	-49.9	-56.3	7.2	1.61e-01	0	49	0	10485760	62	7609
2026-01-01 12:14:31.44	224.62	5.75	-49.7	-55.5	7.9	6.99e-02	0	49	0	15728640	62	6956
2026-01-01 12:14:34.41	224.91	5.92	-49.8	-55.7	7.7	8.13e-02	0	49	0	22020096	62	7086
2026-01-01 12:14:37.37	225.21	6.09	-49.7	-55.5	8.0	5.80e-02	0	49	0	27262976	62	6932
2026-01-01 12:14:40.34	225.51	6.26	-49.8	-55.8	7.8	7.25e-02	0	49	0	32505856	62	7152
2026-01-01 12:14:43.30	225.81	6.43	-49.9	-56.1	7.5	1.03e-01	0	49	0	37748736	62	7441
2026-01-01 12:14:46.27	226.12	6.61	-49.9	-56.0	7.6	8.52e-02	0	50	0	44040192	62	7304
2026-01-01 12:14:49.23	226.43	6.78	-49.9	-56.0	7.5	9.19e-02	0	50	0	49283072	62	7356
2026-01-01 12:14:52.20	226.74	6.95	-49.8	-56.1	7.5	1.10e-01	0	50	0	54525952	62	7392
2026-01-01 12:14:55.17	227.06	7.12	-49.8	-55.9	7.6	9.85e-02	0	50	0	60817408	62	7257
2026-01-01 12:14:58.14	227.38	7.30	-49.6	-55.1	8.4	4.64e-02	0	50	0	66060288	62	6639
2026-01-01 12:15:01.09	227.70	7.47	-49.6	-54.9	8.7	3.19e-02	0	50	0	71303168	62	6466
2026-01-01 12:15:04.05	228.03	7.65	-49.6	-54.7	8.9	2.83e-02	0	51	0	76546048	62	6288
2026-01-01 12:15:07.02	228.36	7.82	-49.5	-54.6	9.1	2.13e-02	0	51	0	82837504	62	6217
2026-01-01 12:15:09.99	228.70	8.00	-49.3	-54.0	9.7	1.55e-02	0	51	0	88080384	61	6153
2026-01-01 12:15:12.97	229.04	8.17	-49.2	-53.8	9.9	8.47e-03	0	51	0	93323264	61	6015
2026-01-01 12:15:15.95	229.39	8.35	-49.3	-53.8	9.9	7.31e-03	0	51	0	99614720	61	6032
2026-01-01 12:15:18.92	229.73	8.53	-49.2	-53.4	10.3	5.19e-03	0	51	0	104857600	61	5755
2026-01-01 12:15:21.89	230.09	8.70	-48.9	-52.9	10.9	2.09e-03	0	51	0	110100480	60	5723
2026-01-01 12:15:24.86	230.44	8.88	-49.0	-53.0	10.9	2.99e-03	0	51	0	116391936	60	5792
2026-01-01 12:15:27.83	230.80	9.06	-48.8	-52.6	11.3	1.39e-03	0	51	0	121634816	60	5552
2026-01-01 12:15:30.79	231.17	9.24	-48.8	-52.4	11.5	1.25e-03	0	52	0	126877696	60	5439
2026-01-01 12:15:33.75	231.53	9.41	-48.6	-52.2	11.8	6.55e-04	0	52	0	133169152	60	5304
2026-01-01 12:15:36.72	231.91	9.59	-48.7	-52.2	11.9	6.07e-04	0	52	0	138412032	60	5299
2026-01-01 12:15:39.69	232.28	9.77	-48.8	-52.3	11.8	3.79e-04	0	52	0	143654912	60	5344
2026-01-01 12:15:42.65	232.66	9.95	-49.0	-52.5	11.6	4.40e-04	0	52	0	148897792	60	5508
2026-01-01 12:15:45.62	233.05	10.13	-48.7	-52.1	12.1	3.00e-04	0	52	0	155189248	60	5224
2026-01-01 12:15:48.60	233.44	10.31	-48.8	-52.1	12.1	2.09e-04	0	52	0	160432128	60	5252
2026-01-01 12:15:51.58	233.84	10.49	-48.7	-51.9	12.5	1.52e-04	0	52	0	165675008	60	5131
2026-01-01 12:15:54.54	234.24	10.67	-48.4	-51.1	13.2	2.28e-05	0	53	0	171966464	59	4959
2026-01-01 12:15:57.51	234.65	10.85	-48.2	-50.8	13.6	8.30e-06	0	53	0	177209344	59	4776
2026-01-01 12:16:00.48	235.06	11.03	-48.1	-50.6	13.8	7.60e-06	0	53	0	182452224	59	4694
2026-01-01 12:16:03.45	235.47	11.21	-48.2	-50.9	13.6	5.30e-06	0	53	0	188743680	59	4851
2026-01-01 12:16:06.42	235.89	11.38	-48.1	-50.7	13.8	3.80e-06	0	53	0	193986560	59	4753
2026-01-01 12:16:09.39	236.32	11.56	-48.1	-50.7	13.8	3.80e-06	0	53	0	199229440	59	4759
2026-01-01 12:16:12.35	236.75	11.74	-48.0	-50.5	14.1	1.50e-06	0	53	0	205520896	59	4647
2026-01-01 12:16:15.33	237.18	11.92	-48.1	-50.6	14.0	3.80e-06	0	53	0	210763776	59	4698
2026-01-01 12:16:18.31	237.62	12.10	-48.2	-50.6	14.1	3.00e-06	0	53	0	216006656	59	4699
2026-01-01 12:16:21.27	238.07	12.28	-48.0	-50.3	14.4	7.00e-07	0	53	0	222298112	59	4523
2026-01-01 12:16:24.24	238.52	12.46	-47.8	-50.1	14.7	7.00e-07	0	53	0	227540992	58	4668
2026-01-01 12:16:27.20	238.97	12.64	-47.6	-49.6	15.2	0.00e+00	0	53	0	232783872	58	4433
2026-01-01 12:16:30.17	239.43	12.82	-47.7	-49.8	15.1	0.00e+00	0	54	0	238026752	58	4512
2026-01-01 12:16:33.14	239.90	12.99	-47.4	-49.4	15.4	0.00e+00	0	53	0	244318208	57	4582
2026-01-01 12:16:36.11	240.37	13.17	-47.5	-49.6	15.3	0.00e+00	0	53	0	249561088	57	4652
2026-01-01 12:16:39.08	240.85	13.35	-47.7	-49.8	15.0	7.00e-07	0	54	0	254803968	57	4783
2026-01-01 12:16:42.06	241.34	13.52	-47.9	-50.1	14.8	0.00e+00	0	54	0	261095424	57	4930
2026-01-01 12:16:45.02	241.82	13.70	-47.3	-49.3	15.6	0.00e+00	0	54	0	266338304	57	4519
2026-01-01 12:16:48.00	242.32	13.87	-47.8	-49.9	15.0	0.00e+00	0	54	0	271581184	57	4860
2026-01-01 12:16:50.98	242.82	14.05	-48.0	-50.3	14.7	7.00e-07	0	54	0	277872640	57	5062
2026-01-01 12:16:53.95	243.33	14.22	-47.8	-49.8	15.1	7.00e-07	0	54	0	283115520	57	4791
2026-01-01 12:16:56.93	243.84	14.40	-47.5	-49.4	15.6	0.00e+00	0	54	0	288358400	57	4556
2026-01-01 12:16:59.89	244.36	14.57	-47.6	-49.6	15.3	0.00e+00	0	54	0	294649856	57	4698
2026-01-01 12:17:02.86	244.88	14.74	-47.7	-49.8	15.2	0.00e+00	0	54	0	299892736	57	4772
2026-01-01 12:17:05.83	245.41	14.91	-47.4	-49.4	15.6	0.00e+00	0	54	0	305135616	57	4549
2026-01-01 12:17:08.79	245.94	15.07	-47.3	-49.1	15.9	0.00e+00	0	54	0	311427072	57	4412
2026-01-01 12:17:11.77	246.48	15.24	-47.1	-48.9	16.1	0.00e+00	0	54	0	316669952	57	4319
2026-01-01 12:17:14.73	247.03	15.41	-47.0	-48.8	16.2	0.00e+00	0	54	0	321912832	57	4252
2026-01-01 12:17:17.70	247.58	15.57	-47.1	-49.0	16.0	0.00e+00	0	54	0	327155712	57	4348
2026-01-01 12:17:20.66	248.14	15.74	-47.3	-49.2	15.8	0.00e+00	0	55	0	333447168	57	4452
2026-01-01 12:17:23.63	248.70	15.90	-47.1	-48.9	16.1	0.00e+00	0	55	0	338690048	57	4303
2026-01-01 12:17:26.61	249.27	16.06	-46.9	-48.7	16.4	0.00e+00	0	55	0	343932928	56	4443
2026-01-01 12:17:29.57	249.85	16.22	-47.3	-49.2	15.8	0.00e+00	0	55	0	350224384	56	4707
2026-01-01 12:17:32.55	250.43	16.37	-47.5	-49.5	15.5	0.00e+00	0	55	0	355467264	56	4883
2026-01-01 12:17:35.52	251.02	16.53	-47.6	-49.5	15.5	0.00e+00	0	55	0	360710144	57	4629
2026-01-01 12:17:38.48	251.61	16.68	-47.6	-49.5	15.5	0.00e+00	0	55	0	367001600	57	4610
2026-01-01 12:17:41.45	252.21	16.83	-47.9	-50.0	15.0	7.00e-07	0	55	0	372244480	57	4924
2026-01-01 12:17:44.42	252.82	16.98	-48.1	-50.4	14.6	0.00e+00	0	55	0	377487360	58	4825
2026-01-01 12:17:47.38	253.43	17.13	-48.0	-50.1	14.9	0.00e+00	0	55	0	383778816	58	4694
2026-01-01 12:17:50.35	254.04	17.27	-48.3	-50.6	14.5	0.00e+00	0	55	0	389021696	58	4942
2026-01-01 12:17:53.33	254.67	17.42	-48.6	-51.2	13.8	1.50e-06	0	55	0	394264576	59	5021
2026-01-01 12:17:56.30	255.30	17.56	-48.8	-51.6	13.5	6.80e-06	0	55	0	399507456	59	5234
2026-01-01 12:17:59.27	255.93	17.69	-48.8	-51.7	13.4	2.36e-05	0	55	0	405798912	59	5291
2026-01-01 12:18:02.24	256.57	17.83	-48.7	-51.4	13.7	3.00e-06	0	55	0	411041792	59	5128
2026-01-01 12:18:05.21	257.21	17.96	-48.8	-51.6	13.5	7.60e-06	0	55	0	416284672	59	5234
2026-01-01 12:18:08.16	257.86	18.09	-48.5	-51.0	14.0	1.50e-06	0	55	0	422576128	59	4885
2026-01-01 12:18:11.13	258.52	18.21	-48.5	-51.0	14.0	0.00e+00	0	55	0	427819008	59	4890
2026-01-01 12:18:14.11	259.18	18.34	-48.5	-51.1	14.0	9.10e-06	0	55	0	433061888	59	4967
2026-01-01 12:18:17.09	259.85	18.46	-47.9	-50.2	14.9	0.00e+00	0	55	0	439353344	59	4447
2026-01-01 12:18:20.05	260.52	18.58	-47.7	-50.0	15.0	0.00e+00	0	55	0	444596224	58	4636
2026-01-01 12:18:23.02	261.19	18.69	-47.3	-49.8	15.1	0.00e+00	0	55	0	449839104	57	4791
2026-01-01 12:18:25.98	261.87	18.80	-46.9	-49.2	15.8	0.00e+00	0	55	0	456130560	56	4717
2026-01-01 12:18:28.94	262.55	18.91	-47.2	-49.2	15.9	0.00e+00	0	55	0	461373440	56	4744
2026-01-01 12:18:31.89	263.24	19.01	-47.4	-49.4	15.6	0.00e+00	0	56	0	466616320	57	4592
2026-01-01 12:18:34.86	263.93	19.11	-47.4	-49.3	15.8	0.00e+00	0	56	0	471859200	57	4510
2026-01-01 12:18:37.84	264.64	19.20	-47.3	-49.0	16.0	0.00e+00	0	56	0	478150656	57	4387
2026-01-01 12:18:40.81	265.34	19.30	-47.0	-48.8	16.3	0.00e+00	0	56	0	483393536	57	4254
2026-01-01 12:18:43.76	266.04	19.38	-46.7	-48.3	16.7	0.00e+00	0	56	0	488636416	56	4285
2026-01-01 12:18:46.73	266.75	19.47	-47.1	-48.9	16.1	0.00e+00	0	56	0	494927872	56	4572
2026-01-01 12:18:49.69	267.47	19.55	-47.2	-49.0	16.1	0.00e+00	0	56	0	500170752	56	4630
2026-01-01 12:18:52.66	268.18	19.62	-47.7	-49.7	15.4	0.00e+00	0	56	0	505413632	57	4758
2026-01-01 12:18:55.62	268.90	19.69	-47.3	-49.2	15.9	0.00e+00	0	56	0	511705088	57	4444
2026-01-01 12:18:58.59	269.63	19.76	-47.3	-49.2	15.9	0.00e+00	0	56	0	516947968	57	4468
2026-01-01 12:19:01.55	270.35	19.82	-46.9	-48.6	16.4	0.00e+00	0	56	0	522190848	56	4402
2026-01-01 12:19:04.51	271.08	19.88	-46.7	-48.4	16.6	0.00e+00	0	56	0	527433728	56	4305
2026-01-01 12:19:07.47	271.81	19.94	-47.3	-49.2	15.9	0.00e+00	0	56	0	533725184	56	4750
2026-01-01 12:19:10.44	272.55	19.99	-47.3	-49.2	15.9	0.00e+00	0	56	0	538968064	56	4724
2026-01-01 12:19:13.40	273.28	20.03	-48.1	-50.3	14.8	0.00e+00	0	56	0	544210944	58	4807
2026-01-01 12:19:16.37	274.02	20.07	-48.1	-50.2	14.8	0.00e+00	0	56	0	550502400	58	4741
2026-01-01 12:19:19.33	274.76	20.11	-47.5	-49.5	15.6	0.00e+00	0	56	0	555745280	58	4361
2026-01-01 12:19:22.30	275.50	20.14	-47.7	-49.8	15.3	0.00e+00	0	56	0	560988160	58	4529
2026-01-01 12:19:25.26	276.25	20.16	-47.0	-48.8	16.3	0.00e+00	0	56	0	567279616	57	4254
2026-01-01 12:19:28.22	276.99	20.19	-47.4	-49.3	15.8	0.00e+00	0	56	0	572522496	57	4504
2026-01-01 12:19:31.19	277.73	20.20	-48.2	-50.4	14.7	0.00e+00	0	56	0	577765376	58	4852
2026-01-01 12:19:34.16	278.48	20.22	-47.8	-49.9	15.2	0.00e+00	0	56	0	583008256	58	4571
2026-01-01 12:19:37.13	279.23	20.22	-47.9	-50.1	15.0	0.00e+00	0	56	0	589299712	58	4685
2026-01-01 12:19:40.10	279.98	20.23	-47.6	-49.6	15.6	0.00e+00	0	56	0	594542592	58	4392
2026-01-01 12:19:43.06	280.72	20.22	-47.9	-50.0	15.1	0.00e+00	0	56	0	599785472	58	4601
2026-01-01 12:19:46.02	281.47	20.22	-48.1	-50.3	14.8	0.00e+00	0	56	0	606076928	58	4763
2026-01-01 12:19:48.97	282.21	20.20	-48.3	-50.8	14.3	0.00e+00	0	56	0	611319808	58	5046
2026-01-01 12:19:51.94	282.95	20.19	-49.0	-52.1	12.8	3.58e-05	0	56	0	616562688	59	5543
2026-01-01 12:19:54.91	283.70	20.17	-48.9	-52.3	12.4	1.68e-04	0	56	0	622854144	60	5341
2026-01-01 12:19:57.88	284.44	20.14	-49.5	-53.5	10.9	1.33e-03	0	56	0	628097024	60	6190
2026-01-01 12:20:00.85	285.19	20.11	-49.8	-54.6	9.6	1.05e-02	0	56	0	633339904	61	6625
2026-01-01 12:20:03.80	285.92	20.07	-50.1	-55.4	8.6	3.63e-02	0	56	0	638582784	61	7233
2026-01-01 12:20:06.77	286.66	20.03	-50.3	-56.3	7.7	7.76e-02	0	56	0	644874240	62	7592
2026-01-01 12:20:09.72	287.39	19.99	-50.5	-57.2	6.9	1.59e-01	0	56	0	650117120	62	8415
2026-01-01 12:20:12.68	288.12	19.94	-50.2	-56.0	7.9	8.79e-02	0	57	0	655360000	63	6945
2026-01-01 12:20:15.66	288.86	19.89	-49.7	-55.0	8.8	3.60e-02	0	56	0	661651456	62	6551
2026-01-01 12:20:18.64	289.59	19.83	-49.7	-55.1	8.6	3.60e-02	0	56	0	666894336	61	6974
2026-01-01 12:20:21.59	290.31	19.77	-49.7	-55.0	8.8	3.62e-02	0	56	0	672137216	61	6934
2026-01-01 12:20:24.58	291.04	19.70	-49.4	-53.6	10.5	9.41e-03	0	56	0	678428672	61	5872
2026-01-01 12:20:27.54	291.76	19.63	-48.6	-51.7	12.9	5.72e-05	0	57	0	683671552	60	5006
2026-01-01 12:20:30.52	292.48	19.55	-48.5	-51.1	13.8	6.80e-06	0	56	0	688914432	60	4657
2026-01-01 12:20:33.48	293.19	19.47	-48.1	-50.3	14.7	0.00e+00	0	56	0	695205888	59	4541
2026-01-01 12:20:36.45	293.90	19.39	-48.7	-51.3	13.8	3.00e-06	0	57	0	700448768	59	5084
2026-01-01 12:20:39.41	294.60	19.30	-49.2	-52.3	12.7	6.48e-05	0	56	0	705691648	60	5347
2026-01-01 12:20:42.37	295.30	19.21	-48.1	-50.4	14.8	7.00e-07	0	57	0	710934528	59	4549
2026-01-01 12:20:45.34	296.00	19.12	-47.4	-49.3	15.8	0.00e+00	0	57	0	717225984	57	4526
2026-01-01 12:20:48.32	296.70	19.02	-47.7	-49.8	15.3	0.00e+00	0	57	0	722468864	57	4794
2026-01-01 12:20:51.28	297.38	18.91	-47.0	-48.8	16.3	0.00e+00	0	57	0	727711744	57	4269
2026-01-01 12:20:54.25	298.07	18.81	-46.8	-48.5	16.5	0.00e+00	0	57	0	734003200	56	4362
2026-01-01 12:20:57.21	298.75	18.70	-47.1	-48.9	16.1	0.00e+00	0	57	0	739246080	56	4590
2026-01-01 12:21:00.18	299.42	18.59	-47.0	-48.8	16.3	0.00e+00	0	56	0	744488960	56	4536
2026-01-01 12:21:03.14	300.09	18.47	-47.2	-49.1	15.9	0.00e+00	0	57	0	750780416	56	4662
2026-01-01 12:21:06.12	300.75	18.35	-47.3	-49.1	15.9	0.00e+00	0	57	0	756023296	56	4703
2026-01-01 12:21:09.09	301.41	18.23	-47.4	-49.2	15.8	0.00e+00	0	57	0	761266176	57	4478
2026-01-01 12:21:12.06	302.07	18.10	-47.2	-49.0	16.0	0.00e+00	0	57	0	766509056	57	4373
2026-01-01 12:21:15.03	302.72	17.97	-47.8	-49.9	15.2	0.00e+00	0	57	0	772800512	57	4836
2026-01-01 12:21:17.99	303.36	17.84	-47.7	-49.7	15.3	0.00e+00	0	57	0	778043392	57	4748
2026-01-01 12:21:20.97	304.00	17.71	-47.6	-49.6	15.5	0.00e+00	0	57	0	783286272	57	4693
2026-01-01 12:21:23.93	304.63	17.57	-47.9	-50.0	15.1	0.00e+00	0	57	0	789577728	57	4891
2026-01-01 12:21:26.91	305.26	17.43	-47.5	-49.5	15.6	0.00e+00	0	57	0	794820608	57	4630
2026-01-01 12:21:29.85	305.87	17.29	-48.1	-50.4	14.7	0.00e+00	0	57	0	800063488	58	4823
2026-01-01 12:21:32.81	306.49	17.15	-47.9	-50.2	14.9	0.00e+00	0	57	0	806354944	58	4733
2026-01-01 12:21:35.76	307.09	17.00	-48.0	-50.2	14.8	1.50e-06	0	57	0	811597824	58	4738
2026-01-01 12:21:38.74	307.70	16.86	-47.9	-50.1	15.0	0.00e+00	0	57	0	816840704	58	4657
2026-01-01 12:21:41.70	308.29	16.71	-47.4	-49.3	15.7	0.00e+00	0	57	0	822083584	57	4523
2026-01-01 12:21:44.67	308.89	16.55	-47.6	-49.6	15.4	0.00e+00	0	57	0	828375040	57	4704
2026-01-01 12:21:47.64	309.47	16.40	-48.2	-50.6	14.5	0.00e+00	0	57	0	833617920	58	4931
2026-01-01 12:21:50.62	310.05	16.24	-48.4	-51.3	13.8	7.60e-06	0	57	0	838860800	59	5056
2026-01-01 12:21:53.58	310.63	16.09	-48.7	-51.5	13.6	6.10e-06	0	57	0	845152256	59	5190
2026-01-01 12:21:56.56	311.20	15.93	-48.6	-51.3	13.7	9.10e-06	0	57	0	850395136	59	5056
2026-01-01 12:21:59.53	311.76	15.77	-48.0	-50.3	14.8	0.00e+00	0	57	0	855638016	59	4497
2026-01-01 12:22:02.50	312.32	15.60	-47.7	-49.8	15.1	0.00e+00	0	57	0	861929472	58	4531
2026-01-01 12:22:05.49	312.87	15.44	-48.5	-51.0	14.0	1.50e-06	0	57	0	867172352	58	5203
2026-01-01 12:22:08.46	313.42	15.27	-49.0	-51.9	13.1	2.89e-05	0	57	0	872415232	59	5464
2026-01-01 12:22:11.43	313.96	15.11	-48.8	-51.5	13.5	6.10e-06	0	57	0	878706688	59	5187
2026-01-01 12:22:14.40	314.49	14.94	-48.5	-51.1	13.9	3.00e-06	0	57	0	883949568	59	4931
2026-01-01 12:22:17.37	315.02	14.77	-48.2	-50.6	14.5	0.00e+00	0	57	0	889192448	59	4652
2026-01-01 12:22:20.34	315.54	14.60	-47.8	-49.9	15.1	0.00e+00	0	57	0	895483904	58	4595
2026-01-01 12:22:23.31	316.06	14.43	-47.8	-49.9	15.0	0.00e+00	0	57	0	900726784	58	4597
2026-01-01 12:22:26.27	316.56	14.26	-48.4	-50.8	14.2	7.00e-07	0	57	0	905969664	58	5076
2026-01-01 12:22:29.24	317.07	14.09	-48.6	-51.2	13.8	2.20e-06	0	57	0	912261120	59	5002
2026-01-01 12:22:32.20	317.57	13.92	-47.7	-49.9	15.1	0.00e+00	0	57	0	917504000	58	4552
2026-01-01 12:22:35.16	318.06	13.74	-47.6	-49.6	15.4	0.00e+00	0	57	0	922746880	58	4430
2026-01-01 12:22:38.13	318.55	13.57	-47.8	-49.9	15.0	0.00e+00	0	57	0	927989760	58	4595
2026-01-01 12:22:41.10	319.03	13.39	-47.8	-49.9	15.0	0.00e+00	0	57	0	934281216	58	4595
2026-01-01 12:22:44.06	319.50	13.22	-47.8	-50.0	15.0	0.00e+00	0	57	0	939524096	58	4606
2026-01-01 12:22:47.04	319.98	13.04	-48.0	-50.2	14.7	0.00e+00	0	57	0	944766976	58	4751
2026-01-01 12:22:50.02	320.44	12.87	-47.9	-50.2	14.8	0.00e+00	0	57	0	951058432	58	4721
2026-01-01 12:22:53.00	320.91	12.69	-47.3	-49.3	15.6	0.00e+00	0	57	0	956301312	57	4504
2026-01-01 12:22:55.97	321.36	12.51	-47.0	-48.8	16.0	0.00e+00	0	57	0	961544192	57	4285
2026-01-01 12:22:58.94	321.81	12.33	-47.4	-49.4	15.5	0.00e+00	0	57	0	967835648	57	4570
2026-01-01 12:23:01.90	322.25	12.16	-47.7	-49.8	15.2	0.00e+00	0	57	0	973078528	57	4787
2026-01-01 12:23:04.87	322.69	11.98	-47.6	-49.7	15.2	0.00e+00	0	57	0	978321408	57	4742
2026-01-01 12:23:07.83	323.13	11.80	-47.3	-49.2	15.6	0.00e+00	0	57	0	984612864	57	4480
2026-01-01 12:23:10.80	323.56	11.62	-47.7	-49.8	15.1	0.00e+00	0	57	0	989855744	57	4799
2026-01-01 12:23:13.76	323.98	11.45	-47.7	-49.9	14.9	0.00e+00	0	57	0	995098624	57	4862
2026-01-01 12:23:16.71	324.40	11.27	-47.6	-49.7	15.2	7.00e-07	0	57	0	1000341504	57	4713
2026-01-01 12:23:19.68	324.81	11.09	-47.4	-49.3	15.5	0.00e+00	0	57	0	1006632960	57	4535
2026-01-01 12:23:22.65	325.22	10.91	-47.7	-49.9	15.0	7.00e-07	0	57	0	1011875840	57	4820
2026-01-01 12:23:25.62	325.63	10.74	-48.3	-50.7	14.1	2.20e-06	0	57	0	1017118720	58	5041
2026-01-01 12:23:28.58	326.02	10.56	-48.5	-51.3	13.6	5.30e-06	0	57	0	1023410176	59	5081
2026-01-01 12:23:31.54	326.42	10.38	-48.1	-50.4	14.4	7.00e-07	0	57	0	1028653056	59	4596
2026-01-01 12:23:34.50	326.81	10.20	-48.2	-50.6	14.2	7.00e-07	0	57	0	1033895936	59	4676
2026-01-01 12:23:37.47	327.19	10.03	-48.4	-51.0	13.8	5.30e-06	0	57	0	1040187392	59	4876
2026-01-01 12:23:40.43	327.58	9.85	-48.4	-51.1	13.6	1.29e-05	0	57	0	1045430272	59	4960
2026-01-01 12:23:43.40	327.95	9.67	-48.4	-51.0	13.7	9.10e-06	0	57	0	1050673152	59	4926
2026-01-01 12:23:46.38	328.33	9.49	-48.1	-50.5	14.3	2.20e-06	0	57	0	1055916032	59	4624
2026-01-01 12:23:49.36	328.70	9.32	-48.3	-50.8	14.0	7.00e-07	0	57	0	1062207488	59	4794
2026-01-01 12:23:52.32	329.06	9.14	-48.4	-51.1	13.6	7.60e-06	0	57	0	1067450368	59	4970
2026-01-01 12:23:55.28	329.42	8.96	-48.5	-51.2	13.6	9.90e-06	0	57	0	1072693248	59	4998
2026-01-01 12:23:58.25	329.78	8.79	-48.1	-50.6	14.1	1.50e-06	0	57	0	1078984704	59	4654
2026-01-01 12:24:01.21	330.13	8.61	-48.3	-50.8	13.8	3.80e-06	0	57	0	1084227584	59	4804
2026-01-01 12:24:04.18	330.48	8.44	-48.3	-50.8	13.8	1.50e-06	0	57	0	1089470464	59	4789
2026-01-01 12:24:07.15	330.82	8.26	-48.6	-51.4	13.3	2.44e-05	0	57	0	1095761920	59	5139
2026-01-01 12:24:10.12	331.16	8.09	-48.8	-51.8	12.9	6.63e-05	0	57	0	1101004800	59	5349
2026-01-01 12:24:13.09	331.50	7.91	-48.1	-50.6	14.0	3.00e-06	0	57	0	1106247680	59	4703
2026-01-01 12:24:16.06	331.83	7.74	-47.9	-50.3	14.4	7.00e-07	0	57	0	1111490560	58	4763
2026-01-01 12:24:19.02	332.16	7.57	-47.9	-50.2	14.3	7.00e-07	0	57	0	1117782016	57	5041
2026-01-01 12:24:21.98	332.48	7.39	-48.2	-50.8	13.7	5.30e-06	0	57	0	1123024896	58	5081
2026-01-01 12:24:24.96	332.80	7.22	-48.5	-51.4	13.1	2.21e-05	0	57	0	1128267776	58	5448
2026-01-01 12:24:27.92	333.12	7.05	-48.6	-51.6	12.9	4.73e-05	0	57	0	1134559232	59	5262
2026-01-01 12:24:30.88	333.43	6.88	-48.6	-51.7	12.8	6.86e-05	0	57	0	1139802112	59	5300
2026-01-01 12:24:33.84	333.74	6.71	-48.9	-52.2	12.2	1.95e-04	0	57	0	1145044992	59	5606
2026-01-01 12:24:36.81	334.05	6.54	-49.2	-52.9	11.4	6.87e-04	0	57	0	1151336448	60	5779
2026-01-01 12:24:39.77	334.35	6.37	-49.4	-53.4	10.9	2.43e-03	0	57	0	1156579328	60	6125
2026-01-01 12:24:42.74	334.65	6.20	-49.4	-53.5	10.9	2.33e-03	0	57	0	1161822208	61	5821
2026-01-01 12:24:45.71	334.95	6.03	-49.4	-53.5	10.7	1.99e-03	0	57	0	1168113664	60	6199
2026-01-01 12:24:48.67	335.25	5.86	-49.5	-53.8	10.4	5.17e-03	0	57	0	1173356544	60	6356
2026-01-01 12:24:51.63	335.53	5.69	-49.5	-53.8	10.4	4.76e-03	0	57	0	1178599424	60	6420
2026-01-01 12:24:54.57	335.82	5.52	-49.4	-53.5	10.7	3.99e-03	0	57	0	1183842304	60	6172
2026-01-01 12:24:57.55	336.11	5.36	-49.4	-53.6	10.5	5.51e-03	0	57	0	1190133760	61	5920
2026-01-01 12:25:00.52	336.39	5.19	-49.0	-52.7	11.4	1.23e-03	0	57	0	1195376640	60	5654
2026-01-01 12:25:03.50	336.67	5.02	-51.4	-64.9	3.8	9.25e-01	0	57	104	1200619520	64	18208
2026-01-01 12:25:06.45	336.94	4.86	-52.1	-66.1	3.8	1.49e+00	0	57	104	1200619520	66	18528
2026-01-01 12:25:09.41	337.21	4.69	-51.7	-65.7	3.8	1.49e+00	0	57	104	1200619520	66	17750
2026-01-01 12:25:12.39	337.48	4.53	-52.3	-66.3	3.8	1.49e+00	0	57	104	1200619520	66	19136
2026-01-01 12:25:15.37	337.75	4.36	-52.4	-66.4	3.8	1.49e+00	0	57	104	1200619520	66	19321
2026-01-01 12:25:18.34	338.01	4.20	-52.6	-66.5	3.8	1.49e+00	0	57	104	1200619520	67	18384
2026-01-01 12:25:21.30	338.27	4.04	-52.5	-66.5	3.8	1.49e+00	0	58	104	1200619520	67	18472
2026-01-01 12:25:24.27	338.53	3.87	-52.5	-66.5	3.8	1.49e+00	0	58	104	1200619520	67	18495
2026-01-01 12:25:27.24	338.79	3.71	-52.6	-66.6	3.8	1.49e+00	0	58	104	1200619520	67	18552
2026-01-01 12:25:30.19	339.04	3.55	-52.5	-66.6	3.8	1.49e+00	0	58	104	1200619520	67	18621
2026-01-01 12:25:33.16	339.29	3.39	-52.5	-66.6	3.8	1.49e+00	0	58	104	1200619520	67	18574
2026-01-01 12:25:36.15	339.54	3.23	-52.6	-66.5	3.8	1.49e+00	0	57	104	1200619520	67	18449
2026-01-01 12:25:39.12	339.79	3.07	-52.6	-66.5	3.8	1.49e+00	0	58	104	1200619520	67	18483
2026-01-01 12:25:42.07	340.03	2.91	-52.5	-66.5	3.8	1.49e+00	0	58	104	1200619520	67	18508

#Closed at: 2026-01-01 12:25:43
#Recorded file [1200 MB]: D:/Data/31026_260101_152503.dat