passes_logs/2026/01/01/R3.0SM8_Murmansk_STILSPACE/R3.0SM8_Murmansk_STILSPACE__20260101_143355_AQUA_rec.log

#Pass ID: 20260101_143355_AQUA
#Satellite: AQUA
#Configuration: AQUA
#almurnet v.1.7.20240730
#Start time: 2026-01-01 14:33:57

#Version: 2.2.20231116
#Station: R3.0SM8_Murmansk_STILSPACE
#Location: 33.092731 lon 68.902999 lat
#TLE: 1 27424U 02022A   25365.92641128  .00002078  00000+0  42628-3 0  9990
#TLE: 2 27424  98.4058 327.1196 0001962  94.7781 340.6230 14.61783896258835

#Time	Az	El	Level	Level2	SNR	BER	BlckErr	Temp	State	Recorded	gain1	gain2
2026-01-01 14:33:57.26	246.35	3.08	-54.3	-74.3	3.8	7.45e-01	0	46	0	0	70	38925
2026-01-01 14:34:00.21	246.71	3.22	-54.3	-74.2	3.8	7.46e-01	0	46	104	0	70	38637
2026-01-01 14:34:03.18	247.08	3.35	-54.3	-74.2	3.8	7.49e-01	0	46	104	0	70	38504
2026-01-01 14:34:06.14	247.45	3.48	-54.2	-74.1	3.8	7.46e-01	0	47	104	0	70	37970
2026-01-01 14:34:09.11	247.83	3.61	-54.0	-73.9	3.8	7.42e-01	0	47	104	0	70	37305
2026-01-01 14:34:12.08	248.21	3.74	-53.6	-73.5	3.8	7.46e-01	0	47	104	0	70	35383
2026-01-01 14:34:15.04	248.59	3.87	-53.1	-72.9	3.8	7.46e-01	0	47	104	0	69	35066
2026-01-01 14:34:18.01	248.98	4.00	-53.1	-72.8	3.8	7.43e-01	0	48	104	0	69	34486
2026-01-01 14:34:20.94	249.36	4.13	-53.2	-72.8	3.8	7.49e-01	0	48	104	0	69	34485
2026-01-01 14:34:23.89	249.75	4.26	-53.1	-72.7	3.8	7.46e-01	0	48	104	0	69	34135
2026-01-01 14:34:26.86	250.15	4.39	-53.1	-72.2	3.8	7.47e-01	0	48	104	0	69	32212
2026-01-01 14:34:29.82	250.55	4.52	-53.1	-72.3	3.8	7.46e-01	0	48	104	0	69	32800
2026-01-01 14:34:32.77	250.95	4.65	-53.2	-73.0	3.8	7.44e-01	0	48	104	0	68	37560
2026-01-01 14:34:35.72	251.36	4.77	-53.0	-67.1	5.2	7.05e-01	0	48	0	0	68	18987
2026-01-01 14:34:38.68	251.77	4.90	-52.1	-59.3	12.4	6.11e-01	0	49	0	4718592	67	8220
2026-01-01 14:34:41.64	252.18	5.03	-50.8	-55.1	16.8	6.06e-01	0	49	0	10485760	65	5707
2026-01-01 14:34:44.61	252.60	5.16	-50.7	-54.9	17.0	6.05e-01	0	49	0	15728640	65	5590
2026-01-01 14:34:47.57	253.02	5.28	-50.2	-53.6	18.4	6.06e-01	0	49	0	21495808	63	5383
2026-01-01 14:34:50.52	253.45	5.41	-49.7	-52.8	19.2	6.06e-01	0	49	0	26738688	63	4883
2026-01-01 14:34:53.47	253.88	5.53	-49.7	-52.8	19.2	6.06e-01	0	49	0	32505856	62	5204
2026-01-01 14:34:56.44	254.31	5.66	-49.7	-52.8	19.3	6.05e-01	0	50	0	37748736	62	5165
2026-01-01 14:34:59.41	254.75	5.78	-49.7	-52.7	19.4	6.06e-01	0	50	0	43515904	62	5144
2026-01-01 14:35:02.37	255.19	5.90	-49.7	-52.7	19.4	6.05e-01	0	50	0	49283072	62	5148
2026-01-01 14:35:05.33	255.64	6.02	-49.9	-53.0	19.2	6.06e-01	0	50	0	54525952	62	5296
2026-01-01 14:35:08.29	256.09	6.15	-50.0	-53.2	18.9	6.06e-01	0	50	0	60293120	62	5440
2026-01-01 14:35:11.24	256.54	6.27	-50.0	-53.2	19.0	6.07e-01	0	50	0	65536000	62	5412
2026-01-01 14:35:14.21	257.00	6.39	-50.1	-53.3	18.9	6.08e-01	0	50	0	71303168	62	5479
2026-01-01 14:35:17.18	257.46	6.51	-49.8	-52.9	19.2	6.04e-01	0	51	0	77070336	62	5251
2026-01-01 14:35:20.14	257.93	6.62	-49.8	-52.7	19.4	6.06e-01	0	51	0	82313216	62	5150
2026-01-01 14:35:23.11	258.40	6.74	-49.8	-52.7	19.4	6.07e-01	0	51	0	88080384	62	5149
2026-01-01 14:35:26.06	258.87	6.86	-49.7	-52.7	19.5	6.06e-01	0	51	0	93323264	62	5126
2026-01-01 14:35:29.03	259.35	6.97	-49.5	-52.3	19.9	6.05e-01	0	51	0	99090432	62	4888
2026-01-01 14:35:32.00	259.83	7.09	-49.7	-52.6	19.7	6.09e-01	0	51	0	104857600	62	5064
2026-01-01 14:35:34.97	260.32	7.20	-49.3	-52.1	19.4	6.07e-01	0	51	0	110100480	62	4773
2026-01-01 14:35:37.94	260.81	7.31	-48.8	-52.2	16.5	6.06e-01	0	51	0	115867648	61	5115
2026-01-01 14:35:40.91	261.31	7.43	-48.1	-52.8	12.8	6.09e-01	0	51	0	121110528	59	6166
2026-01-01 14:35:43.88	261.81	7.54	-49.8	-52.7	19.5	6.06e-01	0	52	0	126877696	61	5460
2026-01-01 14:35:46.85	262.31	7.64	-49.7	-52.6	19.6	6.05e-01	0	52	0	132644864	61	5372
2026-01-01 14:35:49.82	262.82	7.75	-49.8	-52.6	19.6	6.06e-01	0	52	0	137887744	61	5400
2026-01-01 14:35:52.80	263.33	7.86	-49.4	-52.1	20.2	6.07e-01	0	52	0	143654912	61	5064
2026-01-01 14:35:55.77	263.84	7.96	-49.5	-52.2	20.1	6.06e-01	0	52	0	149422080	61	5130
2026-01-01 14:35:58.74	264.36	8.07	-49.4	-52.1	20.2	6.05e-01	0	52	0	154664960	61	5080
2026-01-01 14:36:01.71	264.88	8.17	-49.4	-52.1	20.2	6.06e-01	0	52	0	160432128	61	5079
2026-01-01 14:36:04.68	265.41	8.27	-49.3	-51.9	20.5	6.06e-01	0	52	0	166199296	61	4932
2026-01-01 14:36:07.66	265.94	8.37	-49.5	-52.2	20.1	6.06e-01	0	52	0	171442176	61	5141
2026-01-01 14:36:10.64	266.48	8.47	-49.3	-51.9	20.4	6.06e-01	0	52	0	177209344	61	4952
2026-01-01 14:36:13.62	267.01	8.56	-49.6	-52.4	19.9	6.06e-01	0	52	0	182976512	61	5230
2026-01-01 14:36:16.58	267.55	8.66	-49.5	-52.4	19.7	6.06e-01	0	52	0	188219392	61	5237
2026-01-01 14:36:19.55	268.10	8.75	-49.8	-53.0	18.9	6.09e-01	0	53	0	193986560	61	5625
2026-01-01 14:36:22.53	268.65	8.84	-49.9	-53.4	18.3	6.08e-01	0	53	0	199229440	62	5560
2026-01-01 14:36:25.50	269.20	8.93	-49.9	-53.5	18.0	6.07e-01	0	53	0	204996608	62	5649
2026-01-01 14:36:28.46	269.75	9.02	-50.1	-54.0	17.5	6.08e-01	0	53	0	210239488	62	5945
2026-01-01 14:36:31.41	270.31	9.10	-49.8	-53.8	17.4	6.07e-01	0	53	0	216006656	62	5817
2026-01-01 14:36:34.38	270.87	9.18	-49.6	-53.6	17.4	6.06e-01	0	53	0	221773824	62	5693
2026-01-01 14:36:37.35	271.44	9.27	-49.6	-53.5	17.5	6.06e-01	0	53	0	227016704	62	5603
2026-01-01 14:36:40.32	272.00	9.34	-49.4	-53.1	17.8	6.05e-01	0	53	0	232783872	62	5393
2026-01-01 14:36:43.29	272.58	9.42	-49.6	-53.3	17.8	6.06e-01	0	53	0	238551040	62	5515
2026-01-01 14:36:46.25	273.15	9.50	-49.2	-52.7	18.4	6.06e-01	0	53	0	243793920	62	5107
2026-01-01 14:36:49.21	273.72	9.57	-49.5	-52.9	18.3	6.05e-01	0	53	0	249561088	62	5272
2026-01-01 14:36:52.19	274.31	9.64	-49.2	-52.4	19.0	6.06e-01	0	53	0	254803968	62	4959
2026-01-01 14:36:55.17	274.89	9.71	-49.4	-52.6	19.0	6.07e-01	0	53	0	260571136	62	5043
2026-01-01 14:36:58.13	275.48	9.77	-49.2	-52.1	19.6	6.06e-01	0	53	0	266338304	61	5048
2026-01-01 14:37:01.09	276.07	9.84	-49.0	-51.9	19.7	6.05e-01	0	53	0	271581184	61	4950
2026-01-01 14:37:04.05	276.65	9.90	-48.9	-51.6	20.1	6.07e-01	0	53	0	277348352	61	4787
2026-01-01 14:37:07.02	277.25	9.96	-49.0	-51.7	20.0	6.06e-01	0	53	0	283115520	61	4862
2026-01-01 14:37:09.99	277.85	10.02	-49.2	-52.1	19.7	6.02e-01	0	54	0	288358400	61	5074
2026-01-01 14:37:12.97	278.45	10.07	-49.3	-52.0	20.1	6.02e-01	0	54	0	294125568	61	5008
2026-01-01 14:37:15.94	279.05	10.12	-49.5	-52.3	19.9	5.99e-01	0	54	0	299368448	61	5166
2026-01-01 14:37:18.90	279.65	10.17	-49.4	-52.1	20.0	5.99e-01	0	54	0	305135616	61	5088
2026-01-01 14:37:21.87	280.26	10.22	-49.5	-52.2	20.0	6.02e-01	0	54	0	310902784	61	5136
2026-01-01 14:37:24.84	280.86	10.26	-49.3	-52.0	20.1	6.02e-01	0	54	0	316145664	61	5023
2026-01-01 14:37:27.79	281.47	10.30	-49.7	-52.6	19.6	6.04e-01	0	54	0	321912832	61	5354
2026-01-01 14:37:30.75	282.08	10.34	-49.5	-52.4	19.9	6.03e-01	0	54	0	327155712	61	5220
2026-01-01 14:37:33.73	282.69	10.38	-49.5	-52.2	20.1	6.02e-01	0	54	0	332922880	61	5143
2026-01-01 14:37:36.70	283.31	10.41	-49.1	-51.6	20.6	6.04e-01	0	54	0	338690048	61	4806
2026-01-01 14:37:39.67	283.92	10.44	-49.3	-52.0	20.1	6.02e-01	0	54	0	343932928	61	5001
2026-01-01 14:37:42.64	284.54	10.47	-49.5	-52.6	19.3	6.01e-01	0	54	0	349700096	61	5351
2026-01-01 14:37:45.62	285.16	10.50	-49.7	-53.0	18.7	5.99e-01	0	54	0	355467264	61	5637
2026-01-01 14:37:48.58	285.78	10.52	-50.0	-54.0	17.5	5.99e-01	0	54	0	360710144	62	5941
2026-01-01 14:37:51.55	286.40	10.54	-50.3	-55.0	16.2	6.02e-01	0	54	0	366477312	62	6679
2026-01-01 14:37:54.53	287.02	10.55	-50.5	-55.7	15.4	6.00e-01	0	54	0	371720192	63	6816
2026-01-01 14:37:57.50	287.64	10.57	-50.6	-56.1	14.9	6.02e-01	0	54	0	377487360	63	7191
2026-01-01 14:38:00.48	288.27	10.58	-50.7	-56.2	14.8	6.04e-01	0	54	0	383254528	63	7234
2026-01-01 14:38:03.45	288.89	10.59	-50.8	-56.3	14.8	6.03e-01	0	55	0	388497408	63	7368
2026-01-01 14:38:06.42	289.51	10.59	-50.5	-55.5	15.7	6.03e-01	0	55	0	394264576	63	6701
2026-01-01 14:38:09.38	290.13	10.60	-50.4	-55.0	16.4	5.99e-01	0	55	0	400031744	63	6301
2026-01-01 14:38:12.35	290.75	10.60	-50.2	-54.0	17.7	5.98e-01	0	55	0	405274624	63	5596
2026-01-01 14:38:15.32	291.38	10.59	-49.8	-53.1	18.8	6.02e-01	0	55	0	411041792	63	5061
2026-01-01 14:38:18.29	292.00	10.59	-49.8	-53.0	18.9	6.04e-01	0	55	0	416284672	63	5022
2026-01-01 14:38:21.26	292.62	10.58	-49.5	-52.5	19.4	6.01e-01	0	55	0	422051840	62	5021
2026-01-01 14:38:24.23	293.24	10.57	-49.6	-52.7	19.3	6.01e-01	0	55	0	427819008	62	5105
2026-01-01 14:38:27.19	293.86	10.55	-49.8	-52.9	19.1	6.01e-01	0	55	0	433061888	62	5221
2026-01-01 14:38:30.15	294.48	10.54	-49.6	-52.6	19.4	6.03e-01	0	55	0	438829056	62	5094
2026-01-01 14:38:33.13	295.10	10.52	-49.6	-52.5	19.5	6.01e-01	0	55	0	444071936	62	5033
2026-01-01 14:38:36.11	295.72	10.49	-49.8	-53.1	18.9	5.99e-01	0	55	0	449839104	62	5345
2026-01-01 14:38:39.08	296.34	10.47	-49.9	-53.3	18.6	5.97e-01	0	55	0	455606272	62	5479
2026-01-01 14:38:42.04	296.96	10.44	-50.1	-53.7	18.1	6.01e-01	0	55	0	460849152	62	5786
2026-01-01 14:38:45.01	297.57	10.41	-50.0	-53.6	18.0	6.00e-01	0	55	0	466616320	62	5692
2026-01-01 14:38:47.97	298.18	10.38	-49.9	-53.5	18.1	5.99e-01	0	55	0	472383488	62	5613
2026-01-01 14:38:50.94	298.79	10.34	-49.5	-52.9	18.7	6.01e-01	0	55	0	477626368	62	5227
2026-01-01 14:38:53.91	299.40	10.30	-49.3	-52.5	18.9	6.00e-01	0	55	0	483393536	62	5026
2026-01-01 14:38:56.87	300.01	10.26	-49.3	-52.4	19.1	6.01e-01	0	55	0	488636416	62	4971
2026-01-01 14:38:59.85	300.62	10.22	-49.1	-51.9	19.7	6.03e-01	0	55	0	494403584	61	4983
2026-01-01 14:39:02.82	301.22	10.17	-49.0	-51.7	20.0	6.02e-01	0	55	0	500170752	61	4855
2026-01-01 14:39:05.79	301.83	10.12	-44.1	-52.2	18.0	6.04e-01	0	55	0	505413632	50	9629
2026-01-01 14:39:08.75	302.42	10.07	-42.8	-52.1	18.0	6.03e-01	0	55	0	511180800	50	9556
2026-01-01 14:39:11.72	303.02	10.01	-44.1	-51.9	18.1	6.02e-01	0	55	0	516423680	49	9905
2026-01-01 14:39:14.68	303.62	9.96	-41.8	-51.6	18.1	6.01e-01	0	55	0	522190848	47	10747
2026-01-01 14:39:17.64	304.21	9.90	-49.2	-51.7	20.6	6.01e-01	0	55	0	527433728	60	5151
2026-01-01 14:39:20.61	304.80	9.84	-48.9	-51.1	21.2	6.01e-01	0	55	0	533200896	60	4811
2026-01-01 14:39:23.58	305.38	9.77	-49.0	-51.3	21.2	6.00e-01	0	55	0	538443776	60	4879
2026-01-01 14:39:26.54	305.97	9.71	-49.0	-51.3	21.2	6.00e-01	0	55	0	544210944	60	4876
2026-01-01 14:39:29.50	306.55	9.64	-48.8	-51.1	21.3	6.01e-01	0	55	0	549978112	60	4779
2026-01-01 14:39:32.45	307.12	9.57	-48.9	-51.2	21.3	6.03e-01	0	56	0	555220992	60	4822
2026-01-01 14:39:35.44	307.70	9.50	-49.0	-51.4	21.3	6.02e-01	0	55	0	560988160	60	4952
2026-01-01 14:39:38.42	308.28	9.42	-49.1	-51.5	21.1	6.00e-01	0	56	0	566755328	60	5002
2026-01-01 14:39:41.40	308.85	9.35	-49.4	-51.9	20.6	6.03e-01	0	56	0	571998208	61	4943
2026-01-01 14:39:44.36	309.41	9.27	-49.3	-51.8	20.8	6.00e-01	0	55	0	577765376	61	4875
2026-01-01 14:39:47.34	309.98	9.19	-49.5	-52.1	20.5	6.03e-01	0	56	0	583008256	61	5056
2026-01-01 14:39:50.30	310.54	9.10	-49.4	-51.9	20.8	6.01e-01	0	56	0	588775424	61	4931
2026-01-01 14:39:53.27	311.09	9.02	-49.4	-51.9	20.6	5.99e-01	0	56	0	594542592	61	4943
2026-01-01 14:39:56.24	311.65	8.93	-49.4	-51.9	20.6	6.03e-01	0	56	0	599785472	61	4969
2026-01-01 14:39:59.22	312.20	8.84	-49.3	-51.8	20.8	6.03e-01	0	56	0	605552640	61	4878
2026-01-01 14:40:02.20	312.75	8.75	-49.0	-51.4	21.0	6.01e-01	0	56	0	611319808	61	4670
2026-01-01 14:40:05.15	313.29	8.66	-49.3	-51.8	20.6	6.00e-01	0	56	0	616562688	61	4889
2026-01-01 14:40:08.11	313.82	8.57	-49.2	-51.6	20.6	6.01e-01	0	56	0	622329856	61	4814
2026-01-01 14:40:11.08	314.36	8.47	-49.4	-51.9	20.5	6.00e-01	0	56	0	627572736	61	4983
2026-01-01 14:40:14.06	314.89	8.37	-49.4	-52.0	20.2	5.99e-01	0	55	0	633339904	61	5011
2026-01-01 14:40:17.03	315.42	8.28	-49.6	-52.4	20.0	6.00e-01	0	56	0	639107072	61	5248
2026-01-01 14:40:20.00	315.94	8.18	-49.3	-51.8	20.5	6.02e-01	0	56	0	644349952	61	4900
2026-01-01 14:40:22.98	316.47	8.07	-49.5	-52.2	19.8	6.00e-01	0	56	0	650117120	61	5152
2026-01-01 14:40:25.95	316.98	7.97	-49.6	-52.5	19.7	6.01e-01	0	56	0	655360000	61	5284
2026-01-01 14:40:28.91	317.49	7.87	-49.9	-52.8	19.6	6.03e-01	0	56	0	661127168	62	5169
2026-01-01 14:40:31.88	318.00	7.76	-49.7	-52.6	19.6	6.00e-01	0	56	0	666894336	62	5075
2026-01-01 14:40:34.85	318.51	7.65	-49.6	-52.3	20.1	6.01e-01	0	56	0	672137216	62	4908
2026-01-01 14:40:37.83	319.01	7.55	-49.8	-52.6	19.8	6.04e-01	0	56	0	677904384	62	5098
2026-01-01 14:40:40.80	319.51	7.44	-49.8	-52.7	19.7	6.01e-01	0	56	0	683671552	62	5116
2026-01-01 14:40:43.77	320.00	7.33	-49.4	-52.0	20.3	6.01e-01	0	56	0	688914432	62	4727
2026-01-01 14:40:46.75	320.49	7.21	-49.4	-52.1	20.2	6.00e-01	0	56	0	694681600	62	4786
2026-01-01 14:40:49.73	320.98	7.10	-49.4	-52.1	20.2	6.01e-01	0	56	0	700448768	62	4768
2026-01-01 14:40:52.71	321.46	6.99	-49.3	-51.9	20.4	6.02e-01	0	56	0	705691648	62	4652
2026-01-01 14:40:55.68	321.94	6.87	-49.5	-52.2	20.2	6.00e-01	0	56	0	711458816	62	4823
2026-01-01 14:40:58.65	322.41	6.76	-49.4	-52.0	20.3	6.01e-01	0	56	0	716701696	62	4723
2026-01-01 14:41:01.63	322.88	6.64	-49.3	-52.0	20.3	5.99e-01	0	56	0	722468864	62	4712
2026-01-01 14:41:04.60	323.34	6.52	-49.4	-52.0	20.3	6.03e-01	0	56	0	728236032	62	4736
2026-01-01 14:41:07.55	323.80	6.40	-49.5	-52.3	19.9	5.98e-01	0	56	0	733478912	62	4890
2026-01-01 14:41:10.52	324.26	6.28	-49.5	-52.3	19.9	5.99e-01	0	56	0	739246080	62	4926
2026-01-01 14:41:13.49	324.71	6.16	-49.7	-52.6	19.6	6.03e-01	0	56	0	745013248	62	5044
2026-01-01 14:41:16.45	325.16	6.04	-49.8	-52.7	19.4	6.03e-01	0	56	0	750256128	62	5150
2026-01-01 14:41:19.42	325.61	5.92	-49.5	-52.3	19.9	6.02e-01	0	56	0	756023296	62	4901
2026-01-01 14:41:22.40	326.05	5.80	-49.7	-52.7	19.5	6.01e-01	0	56	0	761266176	62	5119
2026-01-01 14:41:25.36	326.49	5.68	-49.7	-52.7	19.4	6.00e-01	0	56	0	767033344	62	5113
2026-01-01 14:41:28.32	326.92	5.55	-49.8	-52.9	19.3	6.00e-01	0	56	0	772800512	62	5243
2026-01-01 14:41:31.28	327.35	5.43	-49.9	-53.1	19.0	6.01e-01	0	56	0	778043392	62	5370
2026-01-01 14:41:34.26	327.77	5.30	-49.9	-53.0	19.1	6.01e-01	0	56	0	783810560	62	5312
2026-01-01 14:41:37.23	328.20	5.18	-49.6	-52.6	19.4	6.01e-01	0	56	0	789053440	62	5049
2026-01-01 14:41:40.20	328.61	5.05	-49.5	-52.4	19.6	5.99e-01	0	56	0	794820608	62	4973
2026-01-01 14:41:43.17	329.03	4.93	-49.5	-69.3	3.8	7.42e-01	0	56	104	796917760	62	34772
2026-01-01 14:41:46.12	329.44	4.80	-53.4	-73.2	3.8	7.45e-01	0	56	104	796917760	69	36484
2026-01-01 14:41:49.09	329.84	4.67	-54.2	-74.1	3.8	7.44e-01	0	56	104	796917760	70	37997
2026-01-01 14:41:52.06	330.25	4.54	-54.3	-74.2	3.8	7.46e-01	0	56	104	796917760	70	38560
2026-01-01 14:41:55.03	330.65	4.42	-54.4	-74.3	3.8	7.44e-01	0	56	104	796917760	70	39012
2026-01-01 14:41:58.00	331.04	4.29	-54.4	-74.4	3.8	7.43e-01	0	56	104	796917760	71	36963
2026-01-01 14:42:00.95	331.43	4.16	-54.5	-74.4	3.8	7.46e-01	0	56	104	796917760	71	37161
2026-01-01 14:42:03.92	331.82	4.03	-54.5	-74.4	3.8	7.45e-01	0	56	104	796917760	71	37350
2026-01-01 14:42:06.89	332.21	3.90	-54.5	-74.4	3.8	7.47e-01	0	56	104	796917760	71	37356
2026-01-01 14:42:09.85	332.59	3.77	-54.5	-74.4	3.8	7.44e-01	0	56	104	796917760	71	37250
2026-01-01 14:42:12.82	332.96	3.64	-54.5	-74.4	3.8	7.47e-01	0	56	104	796917760	71	37266
2026-01-01 14:42:15.80	333.34	3.51	-54.5	-74.4	3.8	7.47e-01	0	56	104	796917760	71	37224
2026-01-01 14:42:18.77	333.71	3.38	-54.5	-74.4	3.8	7.44e-01	0	56	104	796917760	71	37204
2026-01-01 14:42:21.73	334.08	3.25	-54.5	-74.4	3.8	7.45e-01	0	56	104	796917760	71	37245
2026-01-01 14:42:24.70	334.44	3.12	-54.5	-74.4	3.8	7.47e-01	0	56	104	796917760	71	37250
2026-01-01 14:42:27.67	334.80	2.99	-54.5	-74.4	3.8	7.48e-01	0	56	104	796917760	71	37207

#Closed at: 2026-01-01 14:42:28
#Recorded file [796 MB]: D:/Data/31026_260101_174141.dat