passes_logs/2026/01/01/R3.0SM8_Murmansk_STILSPACE/R3.0SM8_Murmansk_STILSPACE__20260101_050303_FENGYUN_3E_rec.log

#Pass ID: 20260101_050303_FENGYUN 3E
#Satellite: FENGYUN 3E
#Configuration: FENGYUN 3E
#almurnet v.1.7.20240730
#Start time: 2026-01-01 05:08:53

#Version: 2.2.20231116
#Station: R3.0SM8_Murmansk_STILSPACE
#Location: 33.092731 lon 68.902999 lat
#TLE: 1 49008U 21062A   25365.55977344  .00000403  00000+0  21051-3 0  9995
#TLE: 2 49008  98.7483   5.8586 0001311 170.0615 190.0588 14.19883886232790

#Time	Az	El	Level	Level2	SNR	BER	BlckErr	Temp	State	Recorded	gain1	gain2
2026-01-01 05:08:53.66	20.30	57.06	-53.0	-63.7	3.8	8.47e-01	0	62	0	0	67	13313
2026-01-01 05:08:56.61	20.00	58.21	-53.0	-63.1	3.8	8.46e-01	0	62	104	0	68	11661
2026-01-01 05:08:59.57	19.68	59.38	-53.0	-63.2	3.8	8.45e-01	0	63	104	0	68	11692
2026-01-01 05:09:02.53	19.32	60.57	-53.0	-63.1	3.8	8.46e-01	0	62	104	0	68	11604
2026-01-01 05:09:05.49	18.92	61.79	-53.0	-63.1	3.8	8.47e-01	0	62	104	0	68	11571
2026-01-01 05:09:08.43	18.49	63.02	-52.9	-63.1	3.8	8.46e-01	0	63	104	0	68	11683
2026-01-01 05:09:11.38	18.00	64.27	-53.0	-63.2	3.8	8.46e-01	0	62	104	0	68	11724
2026-01-01 05:09:14.33	17.45	65.54	-53.0	-63.1	3.8	8.46e-01	0	63	104	0	68	11598
2026-01-01 05:09:17.28	16.84	66.83	-53.0	-63.1	3.8	8.47e-01	0	63	104	0	68	11644
2026-01-01 05:09:20.23	16.15	68.14	-53.0	-63.1	3.8	8.46e-01	0	62	104	0	68	11582
2026-01-01 05:09:23.19	15.35	69.47	-53.0	-63.1	3.8	8.47e-01	0	63	104	0	68	11657
2026-01-01 05:09:26.14	14.44	70.81	-53.0	-63.1	3.8	8.46e-01	0	62	104	0	68	11575
2026-01-01 05:09:29.10	13.37	72.16	-53.0	-63.0	3.8	8.45e-01	0	63	104	0	68	11497
2026-01-01 05:09:32.05	12.12	73.53	-53.0	-63.1	3.8	8.46e-01	0	63	104	0	68	11599
2026-01-01 05:09:35.00	10.63	74.89	-53.0	-62.9	3.8	8.46e-01	0	62	104	0	68	11385
2026-01-01 05:09:37.96	8.82	76.27	-52.9	-62.4	3.8	8.46e-01	0	63	104	0	68	10685
2026-01-01 05:09:40.93	6.58	77.65	-52.8	-61.6	3.8	8.46e-01	0	63	104	0	68	9765
2026-01-01 05:09:43.87	3.79	79.00	-52.8	-61.7	3.8	8.45e-01	0	63	104	0	68	9942
2026-01-01 05:09:46.82	0.19	80.33	-48.5	-50.3	11.6	5.44e-02	0	63	0	3145728	60	4221
2026-01-01 05:09:49.72	355.54	81.60	-42.5	-43.2	18.8	0.00e+00	0	63	0	24117248	46	4148
2026-01-01 05:09:52.62	349.24	82.81	-40.6	-41.1	20.8	0.00e+00	0	63	0	45088768	44	3653
2026-01-01 05:09:55.54	340.47	83.90	-40.1	-40.6	21.1	0.00e+00	0	63	0	66060288	42	3874
2026-01-01 05:09:58.43	328.42	84.79	-40.2	-40.7	21.0	0.00e+00	0	63	0	87031808	43	3708
2026-01-01 05:10:01.33	312.36	85.37	-39.3	-39.7	21.8	0.00e+00	0	63	0	108003328	41	3732
2026-01-01 05:10:04.24	293.56	85.51	-39.4	-39.8	21.8	0.00e+00	0	63	0	128974848	41	3766
2026-01-01 05:10:07.15	275.58	85.17	-39.5	-39.9	21.6	0.00e+00	0	63	0	149946368	41	3802
2026-01-01 05:10:10.06	261.18	84.43	-40.0	-40.4	21.2	0.00e+00	0	63	0	170917888	41	4038
2026-01-01 05:10:12.97	250.64	83.44	-40.4	-40.9	20.8	0.00e+00	0	63	0	191889408	42	4010
2026-01-01 05:10:15.89	243.06	82.29	-40.4	-40.8	20.8	0.00e+00	0	62	0	212860928	43	3772
2026-01-01 05:10:18.78	237.58	81.05	-41.0	-41.5	20.2	0.00e+00	0	63	0	233832448	44	3863
2026-01-01 05:10:21.69	233.45	79.75	-40.0	-40.4	21.2	0.00e+00	0	63	0	254803968	42	3821
2026-01-01 05:10:24.59	230.28	78.43	-39.9	-40.3	21.3	0.00e+00	0	63	0	275775488	41	3991
2026-01-01 05:10:27.51	227.77	77.08	-39.0	-39.4	22.2	0.00e+00	0	63	0	296747008	41	3588
2026-01-01 05:10:30.41	225.76	75.73	-39.9	-40.4	21.3	0.00e+00	0	63	0	317718528	41	4030
2026-01-01 05:10:33.32	224.11	74.38	-40.3	-40.8	20.8	0.00e+00	0	63	0	338690048	42	3962
2026-01-01 05:10:36.22	222.73	73.03	-40.6	-41.1	20.5	0.00e+00	0	63	0	359661568	43	3877
2026-01-01 05:10:39.13	221.57	71.69	-40.9	-41.4	20.3	0.00e+00	0	63	0	380633088	44	3820
2026-01-01 05:10:42.03	220.57	70.36	-39.8	-40.3	21.3	0.00e+00	0	63	0	401604608	42	3749
2026-01-01 05:10:44.94	219.71	69.04	-40.0	-40.5	21.1	0.00e+00	0	63	0	422576128	42	3844
2026-01-01 05:10:47.88	218.95	67.73	-39.8	-40.2	21.3	0.00e+00	0	63	0	443547648	42	3734
2026-01-01 05:10:50.79	218.29	66.44	-39.6	-40.1	21.5	0.00e+00	0	63	0	464519168	41	3871
2026-01-01 05:10:53.69	217.71	65.17	-40.5	-40.9	20.7	0.00e+00	0	63	0	485490688	42	4041
2026-01-01 05:10:56.59	217.19	63.93	-40.3	-40.8	20.9	0.00e+00	0	63	0	506462208	42	3964
2026-01-01 05:10:59.50	216.72	62.69	-40.8	-41.3	20.4	0.00e+00	0	63	0	527433728	43	3977
2026-01-01 05:11:02.40	216.30	61.48	-41.4	-42.0	19.8	0.00e+00	0	63	0	548405248	44	4056
2026-01-01 05:11:05.31	215.92	60.29	-41.8	-42.4	19.4	0.00e+00	0	63	0	569376768	45	4016
2026-01-01 05:11:08.21	215.57	59.12	-42.0	-42.6	19.2	0.00e+00	0	63	0	591396864	46	3890
2026-01-01 05:11:11.12	215.26	57.97	-42.0	-42.5	19.3	0.00e+00	0	63	0	612368384	46	3865
2026-01-01 05:11:14.03	214.97	56.84	-42.6	-43.2	18.6	0.00e+00	0	63	0	633339904	46	4163
2026-01-01 05:11:16.93	214.70	55.74	-42.0	-42.6	19.2	0.00e+00	0	63	0	653262848	46	3897
2026-01-01 05:11:19.84	214.46	54.65	-41.4	-41.9	19.9	0.00e+00	0	63	0	674234368	45	3812
2026-01-01 05:11:22.74	214.23	53.59	-41.8	-42.4	19.4	0.00e+00	0	63	0	695205888	45	4032
2026-01-01 05:11:25.66	214.02	52.55	-42.0	-42.6	19.2	0.00e+00	0	63	0	716177408	46	3876
2026-01-01 05:11:28.57	213.82	51.52	-41.3	-41.8	20.0	0.00e+00	0	63	0	738197504	45	3748
2026-01-01 05:11:31.47	213.64	50.53	-41.7	-42.3	19.5	0.00e+00	0	63	0	759169024	45	3994
2026-01-01 05:11:34.38	213.47	49.55	-41.8	-42.4	19.4	0.00e+00	0	63	0	780140544	45	4037
2026-01-01 05:11:37.28	213.31	48.59	-41.4	-41.9	19.9	0.00e+00	0	63	0	801112064	45	3813
2026-01-01 05:11:40.19	213.16	47.65	-41.9	-42.5	19.3	0.00e+00	0	63	0	822083584	45	4053
2026-01-01 05:11:43.09	213.03	46.73	-41.4	-41.9	19.8	0.00e+00	0	63	0	843055104	45	3801
2026-01-01 05:11:46.01	212.89	45.83	-41.4	-41.9	19.9	0.00e+00	0	63	0	862978048	45	3785
2026-01-01 05:11:48.91	212.77	44.95	-41.6	-42.2	19.5	0.00e+00	0	63	0	883949568	45	3931
2026-01-01 05:11:51.81	212.66	44.09	-41.1	-41.6	20.2	0.00e+00	0	63	0	904921088	45	3659
2026-01-01 05:11:54.71	212.55	43.25	-40.5	-41.0	20.7	0.00e+00	0	63	0	926941184	44	3615
2026-01-01 05:11:57.62	212.44	42.43	-40.3	-40.7	20.9	0.00e+00	0	63	0	947912704	43	3733
2026-01-01 05:12:00.53	212.35	41.62	-40.6	-41.1	20.5	0.00e+00	0	63	0	968884224	43	3889
2026-01-01 05:12:03.44	212.25	40.83	-40.3	-40.8	20.8	0.00e+00	0	63	0	989855744	43	3753
2026-01-01 05:12:06.36	212.16	40.05	-40.5	-41.0	20.5	0.00e+00	0	63	0	1010827264	43	3859
2026-01-01 05:12:09.26	212.08	39.30	-41.0	-41.5	20.1	0.00e+00	0	63	0	1031798784	43	4097
2026-01-01 05:12:12.17	212.00	38.56	-40.9	-41.4	20.3	0.00e+00	0	63	0	1052770304	44	3792
2026-01-01 05:12:15.08	211.93	37.83	-40.7	-41.2	20.5	0.00e+00	0	63	0	1073741824	44	3701
2026-01-01 05:12:17.98	211.86	37.13	-40.0	-40.5	21.1	0.00e+00	0	63	0	1094713344	43	3629
2026-01-01 05:12:20.90	211.79	36.43	-40.4	-40.9	20.0	0.00e+00	0	63	0	1115684864	42	4010
2026-01-01 05:12:23.80	211.72	35.75	-40.2	-40.6	21.0	0.00e+00	0	63	0	1136656384	42	3904
2026-01-01 05:12:26.70	211.66	35.09	-40.2	-40.7	20.9	0.00e+00	0	63	0	1157627904	42	3921
2026-01-01 05:12:29.62	211.60	34.43	-40.0	-40.4	21.1	0.00e+00	0	63	0	1178599424	42	3808
2026-01-01 05:12:32.53	211.55	33.79	-39.6	-40.0	21.5	0.00e+00	0	63	0	1199570944	42	3628
2026-01-01 05:12:35.43	211.49	33.17	-39.5	-39.9	21.6	0.00e+00	0	63	0	1220542464	41	3810
2026-01-01 05:12:38.34	211.44	32.56	-39.9	-40.3	21.2	0.00e+00	0	63	0	1241513984	41	4001
2026-01-01 05:12:41.25	211.39	31.96	-40.0	-40.5	21.1	0.00e+00	0	63	0	1262485504	41	4067
2026-01-01 05:12:44.16	211.35	31.37	-40.3	-40.8	20.8	0.00e+00	0	63	0	1283457024	42	3975
2026-01-01 05:12:47.07	211.30	30.79	-40.6	-41.1	20.5	0.00e+00	0	63	0	1304428544	42	4128
2026-01-01 05:12:49.98	211.26	30.22	-40.7	-41.2	20.4	0.00e+00	0	63	0	1325400064	42	4153
2026-01-01 05:12:52.89	211.22	29.67	-40.3	-40.8	20.8	0.00e+00	0	63	0	1346371584	42	3984
2026-01-01 05:12:55.79	211.18	29.12	-40.3	-40.8	20.8	0.00e+00	0	63	0	1367343104	42	3966
2026-01-01 05:12:58.69	211.14	28.59	-40.2	-40.7	20.9	0.00e+00	0	63	0	1388314624	42	3925
2026-01-01 05:13:01.60	211.11	28.06	-40.3	-40.8	20.8	0.00e+00	0	63	0	1409286144	42	3982
2026-01-01 05:13:04.51	211.07	27.55	-40.3	-40.8	20.7	0.00e+00	0	63	0	1430257664	42	3974
2026-01-01 05:13:07.41	211.04	27.05	-40.8	-41.3	20.3	0.00e+00	0	63	0	1451229184	43	3990
2026-01-01 05:13:10.32	211.01	26.55	-40.4	-40.9	20.6	0.00e+00	0	63	0	1472200704	43	3803
2026-01-01 05:13:13.23	210.97	26.06	-40.4	-40.9	20.5	0.00e+00	0	63	0	1493172224	43	3789
2026-01-01 05:13:16.14	210.95	25.58	-40.6	-41.0	20.5	0.00e+00	0	63	0	1514143744	43	3864
2026-01-01 05:13:19.05	210.92	25.11	-40.4	-40.9	20.6	0.00e+00	0	63	0	1535115264	43	3790
2026-01-01 05:13:21.96	210.89	24.65	-40.3	-40.8	20.7	0.00e+00	0	63	0	1556086784	43	3767
2026-01-01 05:13:24.87	210.86	24.20	-40.3	-40.7	20.8	0.00e+00	0	63	0	1577058304	43	3733
2026-01-01 05:13:27.78	210.84	23.75	-40.4	-40.9	20.7	0.00e+00	0	63	0	1598029824	43	3793
2026-01-01 05:13:30.69	210.82	23.31	-40.7	-41.2	20.2	0.00e+00	0	63	0	1619001344	43	3953
2026-01-01 05:13:33.59	210.79	22.88	-40.9	-41.4	20.1	0.00e+00	0	63	0	1639972864	43	4047
2026-01-01 05:13:36.50	210.77	22.46	-40.8	-41.3	20.2	0.00e+00	0	63	0	1660944384	43	3997
2026-01-01 05:13:39.40	210.75	22.04	-41.0	-41.5	20.0	0.00e+00	0	63	0	1681915904	43	4071
2026-01-01 05:13:42.30	210.73	21.63	-40.7	-41.2	20.3	0.00e+00	0	63	0	1702887424	44	3729
2026-01-01 05:13:45.21	210.71	21.23	-41.1	-41.6	20.0	0.00e+00	0	63	0	1723858944	44	3886
2026-01-01 05:13:48.12	210.69	20.83	-41.0	-41.5	20.2	0.00e+00	0	63	0	1744830464	44	3832
2026-01-01 05:13:51.03	210.67	20.44	-41.1	-41.6	20.0	0.00e+00	0	63	0	1765801984	44	3901
2026-01-01 05:13:53.94	210.65	20.05	-41.1	-41.7	19.9	0.00e+00	0	63	0	1786773504	44	3919
2026-01-01 05:13:56.84	210.64	19.67	-41.1	-41.6	19.8	0.00e+00	0	63	0	1807745024	44	3891
2026-01-01 05:13:59.74	210.62	19.30	-41.1	-41.6	20.0	0.00e+00	0	63	0	1828716544	44	3898
2026-01-01 05:14:02.65	210.61	18.93	-41.3	-41.8	19.8	0.00e+00	0	63	0	1849688064	44	3974
2026-01-01 05:14:05.55	210.59	18.57	-41.4	-41.9	19.7	0.00e+00	0	63	0	1870659584	44	4027
2026-01-01 05:14:08.46	210.58	18.21	-41.1	-41.6	20.0	0.00e+00	0	63	0	1891631104	44	3882
2026-01-01 05:14:11.36	210.56	17.86	-41.4	-41.9	19.6	0.00e+00	0	63	0	1912602624	44	4036
2026-01-01 05:14:14.26	210.55	17.51	-41.4	-42.0	19.6	0.00e+00	0	63	0	1933574144	44	4066
2026-01-01 05:14:17.17	210.54	17.17	-41.7	-42.3	19.3	0.00e+00	0	63	0	1954545664	45	3964
2026-01-01 05:14:20.08	210.52	16.83	-41.8	-42.4	19.2	0.00e+00	0	63	0	1975517184	45	4014
2026-01-01 05:14:22.98	210.51	16.50	-41.9	-42.4	19.1	0.00e+00	0	63	0	1996488704	45	4047
2026-01-01 05:14:25.89	210.50	16.17	-41.8	-42.4	19.2	0.00e+00	0	63	0	2017460224	46	3782
2026-01-01 05:14:28.79	210.49	15.85	-41.8	-42.3	19.2	0.00e+00	0	63	0	2038431744	46	3780
2026-01-01 05:14:31.69	210.48	15.53	-41.9	-42.4	19.1	0.00e+00	0	63	0	2059403264	46	3808
2026-01-01 05:14:34.60	210.47	15.21	-42.1	-42.7	18.9	0.00e+00	0	63	0	2080374784	46	3926
2026-01-01 05:14:37.51	210.46	14.90	-42.3	-42.9	18.7	0.00e+00	0	63	0	2101346304	46	4014
2026-01-01 05:14:40.42	210.45	14.59	-42.3	-42.9	18.5	0.00e+00	0	63	0	2122317824	46	4051
2026-01-01 05:14:43.31	210.44	14.29	-42.6	-43.2	18.3	0.00e+00	0	63	0	2143289344	46	4182
2026-01-01 05:14:46.21	210.44	13.99	-42.9	-43.5	18.0	0.00e+00	0	63	0	2164260864	47	4090
2026-01-01 05:14:49.13	210.43	13.69	-43.2	-43.9	17.6	0.00e+00	0	63	0	2185232384	47	4265
2026-01-01 05:14:52.05	210.42	13.40	-43.5	-44.3	17.5	0.00e+00	0	63	0	2206203904	48	4196
2026-01-01 05:14:54.95	210.41	13.11	-43.6	-44.4	17.4	0.00e+00	0	63	0	2227175424	48	4246
2026-01-01 05:14:57.86	210.41	12.82	-43.8	-44.6	17.1	0.00e+00	0	63	0	2248146944	49	4134
2026-01-01 05:15:00.77	210.40	12.54	-43.2	-43.9	17.8	0.00e+00	0	63	0	2269118464	49	3809
2026-01-01 05:15:03.68	210.39	12.26	-43.4	-44.2	17.5	0.00e+00	0	63	0	2290089984	49	3921
2026-01-01 05:15:06.60	210.39	11.98	-43.1	-43.8	17.8	0.00e+00	0	63	0	2311061504	49	3773
2026-01-01 05:15:09.51	210.38	11.71	-43.3	-44.0	17.6	0.00e+00	0	63	0	2332033024	49	3851
2026-01-01 05:15:12.41	210.38	11.44	-43.7	-44.5	17.2	0.00e+00	0	63	0	2353004544	49	4060
2026-01-01 05:15:15.32	210.37	11.17	-44.0	-44.8	16.8	0.00e+00	0	63	0	2375024640	49	4238
2026-01-01 05:15:18.21	210.37	10.91	-44.3	-45.2	16.5	0.00e+00	0	63	0	2395996160	50	4155
2026-01-01 05:15:21.12	210.36	10.64	-44.0	-44.9	16.7	0.00e+00	0	63	0	2416967680	50	4007
2026-01-01 05:15:24.02	210.36	10.39	-44.7	-45.6	16.0	0.00e+00	0	63	0	2437939200	50	4361
2026-01-01 05:15:26.92	210.35	10.13	-44.4	-45.3	16.3	0.00e+00	0	63	0	2458910720	51	3977
2026-01-01 05:15:29.82	210.35	9.88	-43.9	-44.7	16.9	0.00e+00	0	63	0	2478833664	50	3916
2026-01-01 05:15:32.73	210.35	9.63	-44.1	-44.9	16.6	0.00e+00	0	63	0	2499805184	50	4042
2026-01-01 05:15:35.63	210.34	9.38	-44.4	-45.3	16.3	0.00e+00	0	63	0	2520776704	50	4210
2026-01-01 05:15:38.53	210.34	9.13	-43.7	-44.4	17.1	0.00e+00	0	63	0	2541748224	50	3823
2026-01-01 05:15:41.44	210.34	8.89	-43.8	-44.6	16.9	0.00e+00	0	63	0	2562719744	50	3875
2026-01-01 05:15:44.33	210.33	8.65	-44.0	-44.8	16.7	0.00e+00	0	63	0	2583691264	50	3982
2026-01-01 05:15:47.24	210.33	8.41	-43.8	-44.6	16.8	0.00e+00	0	63	0	2604662784	50	3902
2026-01-01 05:15:50.14	210.33	8.17	-44.1	-44.9	16.5	0.00e+00	0	63	0	2625634304	50	4050
2026-01-01 05:15:53.05	210.33	7.94	-44.0	-44.8	16.6	0.00e+00	0	63	0	2646605824	50	4001
2026-01-01 05:15:55.97	210.32	7.70	-43.9	-44.7	16.7	0.00e+00	0	63	0	2667577344	50	3936
2026-01-01 05:15:58.88	210.32	7.47	-44.0	-44.8	16.5	0.00e+00	0	63	0	2688548864	50	4004
2026-01-01 05:16:01.79	210.32	7.25	-44.2	-45.1	16.3	0.00e+00	0	63	0	2709520384	50	4125
2026-01-01 05:16:04.70	210.32	7.02	-44.4	-45.2	16.1	0.00e+00	0	63	0	2730491904	50	4190
2026-01-01 05:16:07.60	210.32	6.80	-44.3	-45.2	16.1	0.00e+00	0	63	0	2751463424	50	4171
2026-01-01 05:16:10.51	210.32	6.57	-44.5	-45.4	15.9	0.00e+00	0	63	0	2772434944	50	4281
2026-01-01 05:16:13.41	210.32	6.35	-44.8	-45.8	15.5	0.00e+00	0	63	0	2793406464	51	4214
2026-01-01 05:16:16.31	210.32	6.13	-45.0	-46.0	15.2	0.00e+00	0	63	0	2814377984	51	4332
2026-01-01 05:16:19.21	210.32	5.92	-44.9	-45.9	15.3	0.00e+00	0	63	0	2836398080	52	4022
2026-01-01 05:16:22.12	210.31	5.70	-45.0	-46.0	15.1	0.00e+00	0	63	0	2857369600	52	4083
2026-01-01 05:16:25.03	210.31	5.49	-44.9	-46.0	15.1	0.00e+00	0	63	0	2877292544	52	4054
2026-01-01 05:16:27.94	210.31	5.28	-44.8	-45.8	15.3	0.00e+00	0	63	0	2898264064	52	3981
2026-01-01 05:16:30.83	210.31	5.07	-45.6	-46.9	14.3	0.00e+00	0	63	0	2919235584	52	4496
2026-01-01 05:16:33.78	210.31	4.86	-52.1	-62.3	3.8	8.47e-01	0	63	104	2922381312	65	12584
2026-01-01 05:16:36.74	210.31	4.65	-52.7	-62.8	3.8	8.47e-01	0	63	104	2922381312	66	12588
2026-01-01 05:16:39.70	210.32	4.44	-52.8	-62.9	3.8	8.46e-01	0	63	104	2922381312	67	12093
2026-01-01 05:16:42.65	210.32	4.23	-52.8	-62.9	3.8	8.46e-01	0	63	104	2922381312	67	12085
2026-01-01 05:16:45.60	210.32	4.03	-52.9	-63.0	3.8	8.45e-01	0	63	104	2922381312	67	12194
2026-01-01 05:16:48.56	210.32	3.82	-52.9	-63.0	3.8	8.46e-01	0	63	104	2922381312	67	12206
2026-01-01 05:16:51.51	210.32	3.62	-53.0	-63.1	3.8	8.46e-01	0	63	104	2922381312	67	12309
2026-01-01 05:16:54.47	210.32	3.42	-53.0	-63.1	3.8	8.46e-01	0	63	104	2922381312	67	12373
2026-01-01 05:16:57.43	210.32	3.22	-53.0	-63.1	3.8	8.47e-01	0	63	104	2922381312	67	12321
2026-01-01 05:17:00.39	210.32	3.02	-53.0	-63.1	3.8	8.47e-01	0	63	104	2922381312	67	12324

#Closed at: 2026-01-01 05:17:01
#Recorded file [2922 MB]: D:/Data/31026_260101_081631.dat