passes_logs/2026/01/01/R3.0SM8_Murmansk_STILSPACE/R3.0SM8_Murmansk_STILSPACE__20260101_123523_NOAA_20_JPSS-1_rec.log

#Pass ID: 20260101_123523_NOAA 20 (JPSS-1)
#Satellite: NOAA 20 (JPSS-1)
#Configuration: NOAA 20
#almurnet v.1.7.20240730
#Start time: 2026-01-01 12:35:25

#Version: 2.2.20231116
#Station: R3.0SM8_Murmansk_STILSPACE
#Location: 33.092731 lon 68.902999 lat
#TLE: 1 43013U 17073A   25365.45761817  .00000173  00000+0  10307-3 0  9993
#TLE: 2 43013  98.7620 301.5517 0001951  60.3814 299.7557 14.19531661420675

#Time	Az	El	Level	Level2	SNR	BER	BlckErr	Temp	State	Recorded	gain1	gain2
2026-01-01 12:35:25.95	232.81	3.11	-52.4	-66.3	3.8	1.49e+00	0	46	0	0	66	19056
2026-01-01 12:35:28.91	233.09	3.26	-52.1	-66.2	3.8	1.49e+00	0	46	104	0	67	17717
2026-01-01 12:35:31.85	233.38	3.40	-51.9	-66.0	3.8	1.49e+00	0	47	104	0	67	17378
2026-01-01 12:35:34.81	233.67	3.55	-51.5	-65.4	3.8	1.49e+00	0	47	104	0	66	17177
2026-01-01 12:35:37.78	233.96	3.70	-50.9	-64.7	3.8	1.49e+00	0	47	104	0	64	17770
2026-01-01 12:35:40.72	234.25	3.85	-50.9	-64.5	3.8	1.49e+00	0	47	104	0	64	17303
2026-01-01 12:35:43.68	234.54	4.00	-50.8	-64.4	3.8	1.49e+00	0	48	104	0	64	17111
2026-01-01 12:35:46.66	234.85	4.15	-50.9	-64.6	3.8	1.49e+00	0	48	104	0	64	17530
2026-01-01 12:35:49.63	235.15	4.30	-50.9	-64.7	3.8	1.49e+00	0	48	104	0	64	17798
2026-01-01 12:35:52.60	235.46	4.45	-50.8	-64.1	3.8	1.49e+00	0	48	104	0	64	16655
2026-01-01 12:35:55.55	235.76	4.59	-50.9	-62.6	3.8	1.49e+00	0	48	104	0	64	13886
2026-01-01 12:35:58.53	236.08	4.74	-50.4	-60.1	4.6	1.08e+00	0	48	0	1048576	64	10468
2026-01-01 12:36:01.50	236.39	4.89	-50.3	-57.5	6.2	3.34e-01	0	49	0	6291456	63	8263
2026-01-01 12:36:04.47	236.71	5.05	-49.7	-55.3	8.3	5.78e-02	0	49	0	12582912	62	6772
2026-01-01 12:36:07.44	237.03	5.20	-49.7	-54.9	8.7	4.39e-02	0	49	0	17825792	62	6493
2026-01-01 12:36:10.41	237.35	5.35	-49.3	-53.9	9.8	1.26e-02	0	49	0	23068672	61	6098
2026-01-01 12:36:13.38	237.68	5.50	-48.8	-52.8	11.0	2.56e-03	0	49	0	29360128	60	5716
2026-01-01 12:36:16.35	238.01	5.65	-48.8	-52.6	11.3	1.36e-03	0	50	0	34603008	60	5534
2026-01-01 12:36:19.32	238.35	5.80	-48.6	-52.2	11.8	5.97e-04	0	50	0	39845888	60	5300
2026-01-01 12:36:22.30	238.69	5.95	-48.6	-52.0	12.0	3.49e-04	0	50	0	46137344	60	5212
2026-01-01 12:36:25.27	239.03	6.10	-48.6	-52.0	12.1	3.26e-04	0	50	0	51380224	60	5177
2026-01-01 12:36:28.23	239.37	6.25	-48.7	-52.1	12.0	2.76e-04	0	50	0	56623104	60	5262
2026-01-01 12:36:31.17	239.72	6.40	-48.5	-51.8	12.3	1.74e-04	0	50	0	61865984	60	5086
2026-01-01 12:36:34.13	240.07	6.55	-48.4	-51.6	12.6	9.68e-05	0	50	0	68157440	60	4970
2026-01-01 12:36:37.10	240.42	6.70	-48.5	-51.8	12.5	8.54e-05	0	51	0	73400320	60	5049
2026-01-01 12:36:40.07	240.78	6.85	-48.5	-51.5	12.8	6.86e-05	0	50	0	78643200	60	4886
2026-01-01 12:36:43.02	241.14	7.00	-48.5	-51.4	12.9	5.11e-05	0	51	0	84934656	59	5156
2026-01-01 12:36:45.99	241.50	7.15	-48.5	-51.4	12.9	6.40e-05	0	51	0	90177536	59	5149
2026-01-01 12:36:48.96	241.87	7.30	-48.3	-51.1	13.4	2.21e-05	0	51	0	95420416	59	4928
2026-01-01 12:36:51.91	242.24	7.45	-48.4	-51.2	13.2	1.67e-05	0	51	0	100663296	59	5022
2026-01-01 12:36:54.89	242.62	7.60	-48.1	-50.7	13.8	5.30e-06	0	51	0	106954752	59	4743
2026-01-01 12:36:57.87	243.00	7.75	-48.3	-51.1	13.5	1.22e-05	0	51	0	112197632	59	4931
2026-01-01 12:37:00.85	243.39	7.91	-48.3	-50.9	13.6	6.80e-06	0	51	0	117440512	59	4857
2026-01-01 12:37:03.81	243.78	8.05	-48.5	-51.2	13.4	9.10e-06	0	52	0	123731968	59	5030
2026-01-01 12:37:06.79	244.17	8.20	-48.3	-51.0	13.6	1.06e-05	0	52	0	128974848	59	4919
2026-01-01 12:37:09.76	244.56	8.35	-48.3	-51.0	13.6	7.60e-06	0	52	0	134217728	59	4906
2026-01-01 12:37:12.72	244.96	8.50	-48.4	-51.1	13.5	5.30e-06	0	52	0	140509184	59	4964
2026-01-01 12:37:15.68	245.36	8.65	-48.2	-50.8	13.9	3.80e-06	0	52	0	145752064	59	4787
2026-01-01 12:37:18.65	245.77	8.80	-48.0	-50.3	14.3	0.00e+00	0	52	0	150994944	58	4813
2026-01-01 12:37:21.63	246.18	8.95	-48.1	-50.5	14.2	3.00e-06	0	52	0	157286400	58	4904
2026-01-01 12:37:24.60	246.60	9.10	-48.0	-50.3	14.4	0.00e+00	0	52	0	162529280	58	4807
2026-01-01 12:37:27.56	247.02	9.24	-48.0	-50.5	14.2	0.00e+00	0	52	0	167772160	58	4887
2026-01-01 12:37:30.52	247.44	9.39	-47.9	-50.1	14.6	7.00e-07	0	52	0	174063616	58	4702
2026-01-01 12:37:33.49	247.87	9.53	-47.7	-49.9	14.9	7.00e-07	0	53	0	179306496	58	4579
2026-01-01 12:37:36.46	248.30	9.68	-47.6	-49.8	15.0	7.00e-07	0	53	0	184549376	58	4512
2026-01-01 12:37:39.42	248.74	9.82	-47.4	-49.5	15.3	0.00e+00	0	53	0	189792256	57	4615
2026-01-01 12:37:42.39	249.18	9.97	-47.4	-49.5	15.3	0.00e+00	0	53	0	196083712	57	4608
2026-01-01 12:37:45.36	249.62	10.11	-47.2	-49.3	15.5	0.00e+00	0	53	0	201326592	57	4495
2026-01-01 12:37:48.32	250.07	10.26	-47.4	-49.4	15.4	0.00e+00	0	53	0	206569472	57	4554
2026-01-01 12:37:51.28	250.52	10.40	-47.5	-49.6	15.2	0.00e+00	0	53	0	212860928	57	4686
2026-01-01 12:37:54.25	250.98	10.54	-47.6	-49.8	15.0	0.00e+00	0	53	0	218103808	57	4765
2026-01-01 12:37:57.22	251.44	10.68	-47.2	-49.1	15.7	0.00e+00	0	53	0	223346688	57	4419
2026-01-01 12:38:00.19	251.90	10.82	-47.1	-49.1	15.8	0.00e+00	0	53	0	229638144	57	4406
2026-01-01 12:38:03.17	252.37	10.96	-47.2	-49.2	15.6	0.00e+00	0	53	0	234881024	57	4465
2026-01-01 12:38:06.14	252.85	11.10	-47.2	-49.1	15.7	0.00e+00	0	53	0	240123904	57	4436
2026-01-01 12:38:09.09	253.32	11.23	-47.4	-49.3	15.5	0.00e+00	0	53	0	245366784	57	4539
2026-01-01 12:38:12.06	253.81	11.37	-47.1	-49.0	15.9	0.00e+00	0	54	0	251658240	57	4365
2026-01-01 12:38:15.02	254.29	11.50	-47.2	-49.1	15.7	0.00e+00	0	53	0	256901120	57	4427
2026-01-01 12:38:17.99	254.78	11.64	-47.3	-49.2	15.7	0.00e+00	0	54	0	262144000	57	4475
2026-01-01 12:38:20.95	255.28	11.77	-47.4	-49.4	15.4	0.00e+00	0	54	0	268435456	57	4591
2026-01-01 12:38:23.93	255.78	11.90	-47.6	-49.7	15.3	0.00e+00	0	54	0	273678336	57	4710
2026-01-01 12:38:26.90	256.28	12.03	-47.7	-49.9	15.0	0.00e+00	0	54	0	278921216	57	4840
2026-01-01 12:38:29.86	256.79	12.16	-47.9	-50.1	14.9	0.00e+00	0	54	0	285212672	57	4934
2026-01-01 12:38:32.83	257.30	12.29	-47.7	-49.9	15.0	0.00e+00	0	54	0	290455552	57	4825
2026-01-01 12:38:35.80	257.82	12.42	-47.9	-50.2	14.7	7.00e-07	0	54	0	295698432	57	5003
2026-01-01 12:38:38.77	258.34	12.54	-48.2	-50.6	14.3	0.00e+00	0	54	0	301989888	58	4966
2026-01-01 12:38:41.75	258.87	12.66	-48.4	-51.0	13.9	2.20e-06	0	54	0	307232768	58	5187
2026-01-01 12:38:44.72	259.40	12.79	-48.7	-51.4	13.5	3.80e-06	0	54	0	312475648	59	5147
2026-01-01 12:38:47.68	259.93	12.91	-48.4	-51.0	13.9	6.10e-06	0	54	0	317718528	59	4902
2026-01-01 12:38:50.65	260.47	13.02	-48.5	-51.2	13.7	7.60e-06	0	54	0	324009984	59	4994
2026-01-01 12:38:53.63	261.02	13.14	-48.3	-50.9	14.0	7.00e-07	0	54	0	329252864	59	4841
2026-01-01 12:38:56.61	261.56	13.26	-48.5	-51.1	13.8	4.50e-06	0	54	0	334495744	59	4958
2026-01-01 12:38:59.58	262.12	13.37	-48.7	-51.3	13.6	8.30e-06	0	55	0	340787200	59	5086
2026-01-01 12:39:02.56	262.67	13.48	-48.4	-51.0	14.0	4.50e-06	0	55	0	346030080	59	4889
2026-01-01 12:39:05.52	263.23	13.59	-48.6	-51.2	13.7	3.00e-06	0	55	0	351272960	59	5013
2026-01-01 12:39:08.49	263.79	13.70	-48.6	-51.2	13.7	6.10e-06	0	55	0	357564416	59	5026
2026-01-01 12:39:11.47	264.36	13.80	-48.8	-51.6	13.3	1.52e-05	0	55	0	362807296	59	5239
2026-01-01 12:39:14.44	264.93	13.91	-48.8	-51.7	13.2	2.21e-05	0	55	0	368050176	59	5299
2026-01-01 12:39:17.40	265.50	14.01	-48.8	-51.5	13.5	9.90e-06	0	55	0	374341632	59	5166
2026-01-01 12:39:20.37	266.08	14.10	-48.5	-51.1	13.9	3.00e-06	0	55	0	379584512	59	4934
2026-01-01 12:39:23.33	266.66	14.20	-48.6	-51.4	13.6	7.60e-06	0	55	0	384827392	59	5134
2026-01-01 12:39:26.30	267.25	14.29	-48.4	-51.0	13.9	5.30e-06	0	55	0	391118848	59	4916
2026-01-01 12:39:29.27	267.84	14.38	-48.3	-50.7	14.2	4.50e-06	0	55	0	396361728	59	4755
2026-01-01 12:39:32.24	268.43	14.47	-47.9	-50.1	14.8	0.00e+00	0	55	0	401604608	58	4704
2026-01-01 12:39:35.20	269.02	14.56	-47.5	-49.5	15.5	7.00e-07	0	55	0	406847488	58	4364
2026-01-01 12:39:38.18	269.62	14.64	-47.3	-49.2	15.8	0.00e+00	0	55	0	413138944	57	4451
2026-01-01 12:39:41.15	270.23	14.72	-47.4	-49.4	15.5	0.00e+00	0	55	0	418381824	57	4598
2026-01-01 12:39:44.12	270.83	14.80	-47.6	-49.6	15.4	0.00e+00	0	55	0	423624704	57	4691
2026-01-01 12:39:47.08	271.44	14.88	-47.6	-49.6	15.4	0.00e+00	0	55	0	429916160	57	4670
2026-01-01 12:39:50.05	272.05	14.95	-47.7	-49.7	15.3	0.00e+00	0	55	0	435159040	57	4748
2026-01-01 12:39:53.02	272.66	15.02	-47.5	-49.6	15.4	0.00e+00	0	55	0	440401920	57	4681
2026-01-01 12:39:55.99	273.28	15.09	-47.7	-49.8	15.2	0.00e+00	0	55	0	446693376	57	4805
2026-01-01 12:39:58.94	273.89	15.15	-47.8	-50.0	15.0	0.00e+00	0	55	0	451936256	57	4906
2026-01-01 12:40:01.91	274.52	15.21	-47.9	-50.2	14.8	0.00e+00	0	55	0	457179136	57	5022
2026-01-01 12:40:04.88	275.14	15.27	-48.0	-50.3	14.7	0.00e+00	0	55	0	463470592	57	5064
2026-01-01 12:40:07.84	275.77	15.33	-47.9	-50.1	14.9	0.00e+00	0	55	0	468713472	58	4686
2026-01-01 12:40:10.80	276.39	15.38	-48.0	-50.3	14.8	0.00e+00	0	55	0	473956352	58	4762
2026-01-01 12:40:13.77	277.02	15.43	-48.0	-50.2	14.7	0.00e+00	0	55	0	479199232	58	4759
2026-01-01 12:40:16.74	277.66	15.47	-48.1	-50.4	14.5	0.00e+00	0	56	0	485490688	58	4869
2026-01-01 12:40:19.71	278.29	15.52	-47.9	-50.1	14.9	0.00e+00	0	56	0	490733568	58	4697
2026-01-01 12:40:22.67	278.92	15.56	-48.0	-50.2	14.8	0.00e+00	0	56	0	495976448	58	4738
2026-01-01 12:40:25.64	279.56	15.59	-48.0	-50.3	14.7	7.00e-07	0	56	0	502267904	58	4808
2026-01-01 12:40:28.61	280.20	15.63	-47.7	-49.8	15.2	0.00e+00	0	56	0	507510784	58	4517
2026-01-01 12:40:31.56	280.84	15.65	-47.8	-50.0	15.0	0.00e+00	0	56	0	512753664	58	4634
2026-01-01 12:40:34.52	281.48	15.68	-48.0	-50.3	14.7	0.00e+00	0	56	0	519045120	58	4792
2026-01-01 12:40:37.50	282.12	15.70	-48.4	-51.0	13.8	3.80e-06	0	56	0	524288000	58	5204
2026-01-01 12:40:40.47	282.76	15.72	-48.7	-51.7	12.9	3.58e-05	0	56	0	529530880	59	5334
2026-01-01 12:40:43.45	283.41	15.74	-49.1	-52.5	11.9	2.04e-04	0	56	0	535822336	59	5852
2026-01-01 12:40:46.42	284.06	15.75	-49.3	-53.5	10.5	4.05e-03	0	56	0	541065216	60	6199
2026-01-01 12:40:49.39	284.70	15.76	-49.6	-54.7	9.0	2.03e-02	0	56	0	546308096	60	7049
2026-01-01 12:40:52.36	285.35	15.77	-49.8	-56.5	6.9	1.58e-01	0	56	0	551550976	61	8252
2026-01-01 12:40:55.34	285.99	15.77	-50.0	-58.5	5.3	4.57e-01	0	56	0	557842432	62	9751
2026-01-01 12:40:58.32	286.64	15.77	-50.1	-60.2	4.3	1.15e+00	35	56	0	563085312	62	11948
2026-01-01 12:41:01.29	287.29	15.77	-50.1	-60.9	4.2	1.41e+00	0	56	0	564133888	62	12819
2026-01-01 12:41:04.27	287.93	15.76	-50.1	-59.5	4.6	1.02e+00	0	56	0	566231040	62	11008
2026-01-01 12:41:07.24	288.58	15.75	-49.9	-58.3	5.2	5.89e-01	0	56	0	571473920	62	9588
2026-01-01 12:41:10.20	289.22	15.73	-49.9	-57.8	5.8	4.78e-01	0	56	0	577765376	62	8970
2026-01-01 12:41:13.17	289.86	15.71	-49.9	-57.1	6.3	2.94e-01	0	56	0	583008256	62	8353
2026-01-01 12:41:16.14	290.51	15.69	-49.7	-56.0	7.4	1.48e-01	0	56	0	588251136	61	7751
2026-01-01 12:41:19.11	291.15	15.67	-49.2	-53.7	10.2	9.24e-03	0	56	0	594542592	61	5950
2026-01-01 12:41:22.07	291.79	15.64	-48.8	-52.2	12.3	2.77e-04	0	56	0	599785472	60	5301
2026-01-01 12:41:25.03	292.42	15.61	-49.1	-52.5	12.3	1.37e-04	0	56	0	605028352	60	5477
2026-01-01 12:41:28.00	293.06	15.58	-48.9	-52.0	12.8	1.24e-04	0	56	0	611319808	60	5199
2026-01-01 12:41:30.95	293.69	15.54	-48.3	-50.8	14.1	2.20e-06	0	56	0	616562688	59	4778
2026-01-01 12:41:33.92	294.33	15.50	-48.1	-50.4	14.6	7.00e-07	0	56	0	621805568	59	4580
2026-01-01 12:41:36.88	294.96	15.45	-47.8	-49.9	15.1	7.00e-07	0	56	0	627048448	58	4588
2026-01-01 12:41:39.86	295.59	15.41	-47.3	-49.3	15.7	0.00e+00	0	56	0	633339904	57	4495
2026-01-01 12:41:42.82	296.22	15.36	-47.4	-49.4	15.5	0.00e+00	0	56	0	638582784	57	4585
2026-01-01 12:41:45.79	296.85	15.30	-47.7	-49.8	15.2	0.00e+00	0	56	0	643825664	57	4779
2026-01-01 12:41:48.76	297.47	15.25	-47.9	-50.2	14.7	0.00e+00	0	56	0	650117120	57	5032
2026-01-01 12:41:51.73	298.09	15.19	-47.7	-49.8	15.1	0.00e+00	0	56	0	655360000	57	4796
2026-01-01 12:41:54.69	298.71	15.12	-47.4	-49.5	15.5	0.00e+00	0	56	0	660602880	57	4601
2026-01-01 12:41:57.65	299.32	15.06	-47.0	-48.8	16.2	0.00e+00	0	56	0	666894336	57	4263
2026-01-01 12:42:00.60	299.93	14.99	-46.9	-48.7	16.3	0.00e+00	0	56	0	672137216	57	4204
2026-01-01 12:42:03.57	300.55	14.92	-47.1	-48.9	16.1	0.00e+00	0	56	0	677380096	57	4316
2026-01-01 12:42:06.54	301.15	14.85	-46.9	-48.7	16.3	0.00e+00	0	56	0	682622976	56	4467
2026-01-01 12:42:09.51	301.76	14.77	-47.3	-49.2	15.8	0.00e+00	0	56	0	688914432	56	4750
2026-01-01 12:42:12.48	302.36	14.69	-47.0	-48.8	16.2	0.00e+00	0	56	0	694157312	56	4540
2026-01-01 12:42:15.46	302.96	14.61	-46.9	-48.6	16.4	0.00e+00	0	56	0	699400192	56	4420
2026-01-01 12:42:18.43	303.56	14.52	-46.6	-48.2	16.8	0.00e+00	0	56	0	705691648	56	4222
2026-01-01 12:42:21.40	304.15	14.44	-46.2	-47.8	17.1	0.00e+00	0	56	0	710934528	55	4258
2026-01-01 12:42:24.38	304.74	14.35	-46.3	-47.9	17.0	0.00e+00	0	56	0	716177408	55	4310
2026-01-01 12:42:27.34	305.33	14.26	-46.5	-48.1	16.8	0.00e+00	0	56	0	722468864	55	4425
2026-01-01 12:42:30.31	305.91	14.16	-46.7	-48.4	16.5	0.00e+00	0	56	0	727711744	55	4559
2026-01-01 12:42:33.28	306.49	14.06	-46.9	-48.8	16.0	0.00e+00	0	56	0	732954624	55	4801
2026-01-01 12:42:36.24	307.06	13.97	-46.8	-48.6	16.2	0.00e+00	0	57	0	739246080	55	4685
2026-01-01 12:42:39.22	307.63	13.86	-46.7	-48.4	16.5	0.00e+00	0	56	0	744488960	55	4577
2026-01-01 12:42:42.19	308.20	13.76	-46.8	-48.5	16.3	0.00e+00	0	57	0	749731840	55	4641
2026-01-01 12:42:45.16	308.76	13.66	-46.9	-48.7	16.1	0.00e+00	0	56	0	756023296	55	4735
2026-01-01 12:42:48.14	309.32	13.55	-47.3	-49.2	15.8	0.00e+00	0	56	0	761266176	56	4732
2026-01-01 12:42:51.11	309.88	13.44	-47.5	-49.6	15.4	0.00e+00	0	56	0	766509056	57	4660
2026-01-01 12:42:54.06	310.43	13.33	-47.8	-49.9	15.0	0.00e+00	0	56	0	771751936	57	4848
2026-01-01 12:42:57.04	310.98	13.21	-47.7	-49.9	15.0	0.00e+00	0	57	0	778043392	57	4858
2026-01-01 12:43:00.00	311.52	13.10	-47.6	-49.7	15.2	0.00e+00	0	56	0	783286272	57	4748
2026-01-01 12:43:02.97	312.06	12.98	-47.5	-49.5	15.4	0.00e+00	0	56	0	788529152	57	4640
2026-01-01 12:43:05.94	312.59	12.86	-47.7	-49.9	15.0	0.00e+00	0	57	0	794820608	57	4853
2026-01-01 12:43:08.91	313.12	12.74	-48.4	-50.9	14.1	0.00e+00	0	57	0	800063488	58	5118
2026-01-01 12:43:11.88	313.65	12.62	-48.7	-51.4	13.5	8.30e-06	0	57	0	805306368	59	5139
2026-01-01 12:43:14.85	314.17	12.50	-48.9	-51.8	13.1	1.67e-05	0	57	0	811597824	59	5397
2026-01-01 12:43:17.81	314.69	12.38	-49.0	-52.2	12.7	6.63e-05	0	57	0	816840704	60	5293
2026-01-01 12:43:20.79	315.20	12.25	-48.8	-52.2	12.7	1.23e-04	0	57	0	822083584	60	5284
2026-01-01 12:43:23.75	315.71	12.12	-48.6	-51.4	13.5	9.10e-06	0	57	0	828375040	59	5104
2026-01-01 12:43:26.72	316.21	11.99	-48.3	-50.8	14.1	0.00e+00	0	57	0	833617920	58	5047
2026-01-01 12:43:29.68	316.71	11.86	-48.4	-51.0	13.9	3.00e-06	0	57	0	838860800	58	5176
2026-01-01 12:43:32.64	317.21	11.73	-48.6	-51.4	13.5	1.44e-05	0	57	0	844103680	59	5117
2026-01-01 12:43:35.60	317.70	11.60	-48.9	-51.9	12.9	4.04e-05	0	57	0	850395136	59	5432
2026-01-01 12:43:38.57	318.19	11.47	-49.1	-52.2	12.6	9.84e-05	0	57	0	855638016	59	5614
2026-01-01 12:43:41.54	318.67	11.33	-48.8	-51.7	13.1	3.35e-05	0	57	0	860880896	59	5298
2026-01-01 12:43:44.51	319.15	11.20	-48.7	-51.5	13.3	1.14e-05	0	57	0	867172352	59	5188
2026-01-01 12:43:47.48	319.62	11.06	-48.8	-51.7	13.1	3.28e-05	0	57	0	872415232	59	5305
2026-01-01 12:43:50.46	320.10	10.92	-48.8	-51.8	13.0	5.56e-05	0	57	0	877658112	59	5355
2026-01-01 12:43:53.43	320.56	10.78	-48.8	-51.7	13.2	2.36e-05	0	57	0	883949568	59	5302
2026-01-01 12:43:56.39	321.02	10.65	-48.3	-50.8	14.0	6.80e-06	0	57	0	889192448	58	5074
2026-01-01 12:43:59.36	321.48	10.51	-48.1	-50.7	14.1	2.20e-06	0	57	0	894435328	58	4989
2026-01-01 12:44:02.34	321.94	10.36	-48.4	-51.0	13.7	6.80e-06	0	57	0	900726784	58	5201
2026-01-01 12:44:05.30	322.38	10.22	-48.7	-51.5	13.3	1.29e-05	0	57	0	905969664	59	5182
2026-01-01 12:44:08.27	322.83	10.08	-48.8	-51.7	13.1	2.36e-05	0	57	0	911212544	59	5305
2026-01-01 12:44:11.24	323.27	9.94	-48.6	-51.4	13.3	1.90e-05	0	57	0	916455424	59	5153
2026-01-01 12:44:14.22	323.71	9.79	-48.0	-50.5	14.3	1.50e-06	0	57	0	922746880	59	4616
2026-01-01 12:44:17.19	324.14	9.65	-47.5	-49.7	15.1	0.00e+00	0	57	0	927989760	58	4472
2026-01-01 12:44:20.16	324.57	9.50	-47.7	-49.9	14.8	0.00e+00	0	57	0	933232640	57	4847
2026-01-01 12:44:23.13	324.99	9.36	-47.9	-50.3	14.4	0.00e+00	0	57	0	939524096	57	5051
2026-01-01 12:44:26.11	325.42	9.21	-48.2	-50.6	14.0	1.50e-06	0	57	0	944766976	58	4980
2026-01-01 12:44:29.07	325.83	9.07	-47.9	-50.2	14.5	7.00e-07	0	57	0	950009856	58	4733
2026-01-01 12:44:32.03	326.24	8.92	-48.0	-50.4	14.3	7.00e-07	0	57	0	956301312	58	4859
2026-01-01 12:44:35.00	326.65	8.77	-48.1	-50.6	14.2	7.00e-07	0	57	0	961544192	58	4927
2026-01-01 12:44:37.99	327.06	8.63	-48.3	-50.9	13.8	6.10e-06	0	57	0	966787072	58	5144
2026-01-01 12:44:40.94	327.46	8.48	-48.5	-51.2	13.4	9.10e-06	0	57	0	973078528	58	5314
2026-01-01 12:44:43.91	327.85	8.33	-48.1	-50.6	14.1	7.00e-07	0	57	0	978321408	58	4952
2026-01-01 12:44:46.89	328.25	8.18	-48.3	-51.0	13.7	2.20e-06	0	57	0	983564288	58	5202
2026-01-01 12:44:49.85	328.63	8.04	-48.4	-51.2	13.5	1.52e-05	0	57	0	989855744	58	5283
2026-01-01 12:44:52.81	329.02	7.89	-48.3	-51.0	13.6	6.80e-06	0	57	0	995098624	59	4919
2026-01-01 12:44:55.79	329.40	7.74	-48.3	-51.1	13.6	1.22e-05	0	57	0	1000341504	59	4932
2026-01-01 12:44:58.74	329.78	7.59	-48.2	-50.8	13.8	5.30e-06	0	57	0	1005584384	59	4767
2026-01-01 12:45:01.70	330.15	7.44	-48.2	-50.7	13.9	3.00e-06	0	57	0	1011875840	59	4719
2026-01-01 12:45:04.68	330.52	7.29	-48.3	-51.0	13.5	1.98e-05	0	57	0	1017118720	59	4913
2026-01-01 12:45:07.65	330.89	7.14	-48.4	-51.2	13.3	1.44e-05	0	57	0	1022361600	59	5009
2026-01-01 12:45:10.63	331.25	6.99	-48.1	-50.8	13.8	3.80e-06	0	57	0	1028653056	58	5061
2026-01-01 12:45:13.60	331.61	6.84	-48.1	-50.7	13.8	3.80e-06	0	57	0	1033895936	57	5296
2026-01-01 12:45:16.57	331.97	6.69	-48.3	-51.2	13.3	1.29e-05	0	57	0	1039138816	58	5304
2026-01-01 12:45:19.53	332.32	6.54	-48.5	-51.4	13.0	3.05e-05	0	57	0	1045430272	58	5432
2026-01-01 12:45:22.50	332.67	6.39	-48.6	-51.8	12.6	1.36e-04	0	57	0	1050673152	59	5379
2026-01-01 12:45:25.47	333.01	6.24	-48.9	-52.1	12.3	1.92e-04	0	57	0	1055916032	59	5545
2026-01-01 12:45:28.44	333.36	6.09	-48.8	-52.2	12.2	2.23e-04	0	57	0	1061158912	59	5641
2026-01-01 12:45:31.41	333.70	5.94	-48.8	-52.2	12.1	2.49e-04	0	57	0	1067450368	59	5596
2026-01-01 12:45:34.38	334.03	5.80	-48.9	-52.5	11.8	6.26e-04	0	57	0	1072693248	60	5486
2026-01-01 12:45:37.35	334.36	5.65	-48.8	-52.2	12.0	5.06e-04	0	57	0	1077936128	60	5335
2026-01-01 12:45:40.32	334.69	5.50	-48.9	-52.3	11.9	3.91e-04	0	57	0	1084227584	60	5391
2026-01-01 12:45:43.28	335.02	5.35	-48.6	-51.9	12.3	1.86e-04	0	57	0	1089470464	60	5119
2026-01-01 12:45:46.25	335.34	5.20	-48.7	-52.1	12.1	3.54e-04	0	57	0	1094713344	60	5222
2026-01-01 12:45:49.21	335.66	5.05	-48.8	-52.3	11.8	5.15e-04	0	57	0	1101004800	60	5373
2026-01-01 12:45:52.18	335.98	4.90	-51.9	-65.7	3.8	1.49e+00	0	57	104	1102053376	65	18817
2026-01-01 12:45:55.15	336.29	4.75	-52.0	-66.0	3.8	1.49e+00	0	57	104	1102053376	66	18387
2026-01-01 12:45:58.10	336.60	4.60	-52.4	-66.2	3.8	1.49e+00	0	57	104	1102053376	66	18834
2026-01-01 12:46:01.09	336.91	4.46	-52.4	-66.2	3.8	1.49e+00	0	57	104	1102053376	66	18943
2026-01-01 12:46:04.06	337.21	4.31	-52.4	-66.3	3.8	1.49e+00	0	57	104	1102053376	66	19160
2026-01-01 12:46:07.03	337.51	4.16	-52.6	-66.4	3.8	1.49e+00	0	57	104	1102053376	67	18188
2026-01-01 12:46:10.01	337.81	4.01	-52.4	-66.4	3.8	1.49e+00	0	57	104	1102053376	67	18203
2026-01-01 12:46:12.98	338.11	3.86	-52.5	-66.4	3.8	1.49e+00	0	57	104	1102053376	67	18290
2026-01-01 12:46:15.96	338.40	3.72	-52.6	-66.5	3.8	1.49e+00	0	57	104	1102053376	67	18307
2026-01-01 12:46:18.92	338.69	3.57	-52.6	-66.4	3.8	1.49e+00	0	57	104	1102053376	67	18234
2026-01-01 12:46:21.89	338.98	3.42	-52.4	-66.4	3.8	1.49e+00	0	57	104	1102053376	67	18219
2026-01-01 12:46:24.85	339.27	3.28	-52.4	-66.4	3.8	1.49e+00	0	57	104	1102053376	67	18231
2026-01-01 12:46:27.82	339.55	3.13	-52.3	-66.4	3.8	1.49e+00	0	57	104	1102053376	67	18254
2026-01-01 12:46:30.78	339.83	2.98	-52.3	-66.4	3.8	1.49e+00	0	57	104	1102053376	67	18255

#Closed at: 2026-01-01 12:46:30
#Recorded file [1102 MB]: D:/Data/31026_260101_154550.dat