passes_logs/2026/01/01/R3.0SM8_Murmansk_STILSPACE/R3.0SM8_Murmansk_STILSPACE__20260101_082138_NOAA_21_JPSS-2_rec.log

#Pass ID: 20260101_082138_NOAA 21 (JPSS-2)
#Satellite: NOAA 21 (JPSS-2)
#Configuration: NOAA-21
#almurnet v.1.7.20240730
#Start time: 2026-01-01 08:26:39

#Version: 2.2.20231116
#Station: R3.0SM8_Murmansk_STILSPACE
#Location: 33.092731 lon 68.902999 lat
#TLE: 1 54234U 22150A   25365.42224288  .00000199  00000+0  11529-3 0  9990
#TLE: 2 54234  98.7483 301.4995 0001320 356.2106   3.9060 14.19530300162743

#Time	Az	El	Level	Level2	SNR	BER	BlckErr	Temp	State	Recorded	gain1	gain2
2026-01-01 08:26:39.54	96.76	36.20	-52.7	-63.5	3.8	8.46e-01	0	62	0	0	67	13109
2026-01-01 08:26:42.48	95.96	36.73	-52.9	-64.4	3.8	1.49e+00	0	62	104	0	68	13667
2026-01-01 08:26:45.43	95.14	37.27	-53.0	-64.4	3.8	1.49e+00	0	62	104	0	68	13656
2026-01-01 08:26:48.37	94.29	37.80	-53.0	-64.4	3.8	1.49e+00	0	63	104	0	68	13617
2026-01-01 08:26:51.32	93.41	38.34	-52.9	-64.4	3.8	1.49e+00	0	62	104	0	68	13634
2026-01-01 08:26:54.27	92.50	38.87	-52.9	-64.3	3.8	1.49e+00	0	62	104	0	68	13544
2026-01-01 08:26:57.22	91.56	39.41	-52.9	-64.3	3.8	1.49e+00	0	62	104	0	68	13560
2026-01-01 08:27:00.17	90.59	39.94	-52.9	-64.3	3.8	1.49e+00	0	63	104	0	68	13495
2026-01-01 08:27:03.11	89.59	40.47	-52.9	-64.3	3.8	1.49e+00	0	62	104	0	68	13472
2026-01-01 08:27:06.06	88.56	41.01	-52.9	-64.3	3.8	1.49e+00	0	62	104	0	68	13500
2026-01-01 08:27:09.00	87.49	41.53	-52.8	-64.3	3.8	1.49e+00	0	62	104	0	68	13506
2026-01-01 08:27:11.95	86.38	42.06	-52.9	-64.3	3.8	1.49e+00	0	62	104	0	68	13530
2026-01-01 08:27:14.90	85.24	42.57	-52.9	-64.3	3.8	1.49e+00	0	62	104	0	68	13530
2026-01-01 08:27:17.85	84.05	43.09	-52.7	-64.3	3.8	1.49e+00	0	62	104	0	68	13483
2026-01-01 08:27:20.80	82.83	43.59	-52.9	-64.2	3.8	1.49e+00	0	62	104	0	68	13265
2026-01-01 08:27:23.76	81.57	44.09	-52.9	-63.9	3.8	1.49e+00	0	62	104	0	68	12916
2026-01-01 08:27:26.71	80.27	44.57	-52.7	-64.2	3.8	1.49e+00	0	63	104	0	68	13310
2026-01-01 08:27:29.66	78.93	45.05	-52.9	-64.2	3.8	1.49e+00	0	63	104	0	68	13310
2026-01-01 08:27:32.61	77.55	45.51	-52.2	-59.5	4.6	1.45e+00	2	62	104	0	67	8190
2026-01-01 08:27:35.51	76.16	45.95	-51.1	-55.5	7.4	1.09e-01	0	63	0	8388608	65	5843
2026-01-01 08:27:38.40	74.73	46.38	-51.1	-55.8	7.1	1.32e-01	0	62	0	16777216	65	6017
2026-01-01 08:27:41.30	73.26	46.79	-51.2	-55.9	7.0	1.83e-01	0	62	0	26214400	65	6088
2026-01-01 08:27:44.20	71.75	47.18	-50.0	-53.1	9.9	1.53e-02	0	62	0	35651584	63	4960
2026-01-01 08:27:47.10	70.20	47.56	-48.3	-50.2	13.0	6.02e-05	0	62	0	44040192	59	4462
2026-01-01 08:27:50.00	68.61	47.91	-47.3	-48.8	14.3	2.20e-06	0	62	0	53477376	57	4288
2026-01-01 08:27:52.91	66.98	48.24	-46.6	-47.8	15.3	0.00e+00	0	63	0	62914560	56	4043
2026-01-01 08:27:55.81	65.33	48.55	-47.0	-48.5	14.6	0.00e+00	0	62	0	71303168	56	4375
2026-01-01 08:27:58.70	63.65	48.83	-47.5	-49.1	14.1	3.80e-06	0	62	0	80740352	56	4691
2026-01-01 08:28:01.59	61.94	49.09	-47.7	-49.3	13.8	5.30e-06	0	62	0	89128960	57	4537
2026-01-01 08:28:04.49	60.19	49.32	-47.9	-49.6	13.5	1.06e-05	0	62	0	98566144	57	4674
2026-01-01 08:28:07.38	58.43	49.53	-46.5	-47.7	15.4	0.00e+00	0	63	0	108003328	56	3996
2026-01-01 08:28:10.28	56.64	49.70	-46.7	-48.1	15.0	0.00e+00	0	62	0	116391936	55	4400
2026-01-01 08:28:13.18	54.82	49.85	-46.6	-47.9	15.2	0.00e+00	0	62	0	125829120	55	4293
2026-01-01 08:28:16.07	53.00	49.96	-46.2	-47.4	15.7	0.00e+00	0	62	0	135266304	55	4063
2026-01-01 08:28:18.96	51.17	50.05	-46.3	-47.6	15.4	0.00e+00	0	62	0	143654912	55	4190
2026-01-01 08:28:21.86	49.33	50.10	-46.3	-47.5	15.5	0.00e+00	0	62	0	153092096	55	4136
2026-01-01 08:28:24.75	47.48	50.12	-46.3	-47.6	15.4	0.00e+00	0	62	0	161480704	55	4176
2026-01-01 08:28:27.66	45.62	50.11	-46.4	-47.6	15.4	0.00e+00	0	62	0	170917888	55	4190
2026-01-01 08:28:30.55	43.78	50.07	-46.3	-47.5	15.5	0.00e+00	0	62	0	180355072	55	4124
2026-01-01 08:28:33.44	41.95	49.99	-46.7	-48.1	14.9	0.00e+00	0	62	0	188743680	55	4434
2026-01-01 08:28:36.33	40.12	49.89	-47.0	-48.5	14.6	7.00e-07	0	62	0	198180864	56	4363
2026-01-01 08:28:39.23	38.31	49.75	-46.9	-48.3	14.8	7.00e-07	0	63	0	207618048	56	4290
2026-01-01 08:28:42.13	36.51	49.59	-46.5	-47.8	15.3	0.00e+00	0	62	0	216006656	56	4037
2026-01-01 08:28:45.02	34.74	49.39	-46.7	-48.0	15.1	0.00e+00	0	63	0	225443840	56	4128
2026-01-01 08:28:47.93	32.98	49.17	-47.5	-49.0	14.1	0.00e+00	0	62	0	233832448	56	4635
2026-01-01 08:28:50.83	31.26	48.92	-46.6	-47.9	15.2	0.00e+00	0	62	0	243269632	56	4080
2026-01-01 08:28:53.72	29.57	48.64	-46.5	-47.8	15.3	0.00e+00	0	63	0	252706816	56	4038
2026-01-01 08:28:56.62	27.91	48.34	-46.6	-47.9	15.2	0.00e+00	0	63	0	261095424	56	4086
2026-01-01 08:28:59.52	26.28	48.02	-45.6	-46.6	16.4	0.00e+00	0	62	0	270532608	54	3956
2026-01-01 08:29:02.43	24.68	47.67	-46.8	-48.2	14.7	7.00e-07	0	63	0	279969792	55	4452
2026-01-01 08:29:05.32	23.12	47.30	-45.8	-46.9	16.0	0.00e+00	0	62	0	288358400	54	4082
2026-01-01 08:29:08.21	21.61	46.92	-47.3	-48.9	14.2	0.00e+00	0	62	0	297795584	56	4570
2026-01-01 08:29:11.10	20.13	46.52	-46.7	-48.0	15.1	0.00e+00	0	62	0	307232768	56	4109
2026-01-01 08:29:13.99	18.69	46.10	-46.0	-47.2	15.8	0.00e+00	0	62	0	315621376	53	4451
2026-01-01 08:29:16.89	17.29	45.66	-49.0	-51.4	11.7	5.27e-04	0	62	0	325058560	59	5103
2026-01-01 08:29:19.80	15.91	45.21	-45.4	-46.4	16.4	0.00e+00	0	62	0	333447168	54	3864
2026-01-01 08:29:22.71	14.58	44.75	-46.5	-47.8	15.2	0.00e+00	0	62	0	342884352	54	4521
2026-01-01 08:29:25.61	13.29	44.27	-47.4	-49.0	14.0	1.14e-05	0	62	0	352321536	58	4107
2026-01-01 08:29:28.50	12.05	43.79	-45.9	-47.1	15.8	0.00e+00	0	62	0	360710144	54	4156
2026-01-01 08:29:31.40	10.84	43.30	-48.8	-51.0	12.1	1.04e-04	0	62	0	370147328	59	4880
2026-01-01 08:29:34.29	9.67	42.80	-47.1	-48.5	14.5	2.20e-06	0	62	0	379584512	57	4130
2026-01-01 08:29:37.19	8.53	42.30	-46.0	-47.1	15.8	0.00e+00	0	62	0	387973120	54	4172
2026-01-01 08:29:40.08	7.43	41.79	-48.5	-50.6	12.4	1.55e-04	0	62	0	397410304	58	4977
2026-01-01 08:29:42.97	6.37	41.27	-46.6	-47.9	15.0	7.00e-07	0	62	0	405798912	56	4060
2026-01-01 08:29:45.87	5.33	40.75	-46.2	-47.4	15.5	0.00e+00	0	62	0	415236096	54	4317
2026-01-01 08:29:48.76	4.33	40.23	-47.6	-49.3	13.7	4.50e-06	0	62	0	424673280	57	4495
2026-01-01 08:29:51.66	3.36	39.71	-46.8	-48.1	14.8	0.00e+00	0	62	0	433061888	56	4188
2026-01-01 08:29:54.57	2.42	39.18	-45.4	-46.5	16.4	0.00e+00	0	62	0	442499072	54	3884
2026-01-01 08:29:57.46	1.52	38.66	-46.6	-48.0	14.9	0.00e+00	0	62	0	451936256	55	4369
2026-01-01 08:30:00.35	0.64	38.14	-46.4	-47.7	15.3	0.00e+00	0	62	0	460324864	55	4208
2026-01-01 08:30:03.26	359.79	37.61	-46.2	-47.5	15.5	0.00e+00	0	62	0	469762048	55	4115
2026-01-01 08:30:06.15	358.97	37.09	-45.7	-46.8	16.1	0.00e+00	0	62	0	479199232	54	4036
2026-01-01 08:30:09.04	358.17	36.57	-46.0	-47.2	15.7	0.00e+00	0	62	0	487587840	54	4238
2026-01-01 08:30:11.94	357.40	36.05	-44.8	-45.7	17.1	0.00e+00	0	62	0	497025024	52	4004
2026-01-01 08:30:14.84	356.65	35.53	-45.0	-46.0	16.9	0.00e+00	0	62	0	505413632	52	4101
2026-01-01 08:30:17.74	355.93	35.02	-45.8	-46.9	16.0	0.00e+00	0	62	0	514850816	53	4321
2026-01-01 08:30:20.63	355.23	34.51	-45.8	-47.0	16.0	0.00e+00	0	62	0	524288000	53	4341
2026-01-01 08:30:23.53	354.55	34.00	-45.7	-46.8	16.1	0.00e+00	0	62	0	532676608	54	4045
2026-01-01 08:30:26.43	353.89	33.50	-45.5	-46.7	16.1	0.00e+00	0	62	0	542113792	54	3972
2026-01-01 08:30:29.32	353.26	33.00	-45.3	-46.3	16.6	0.00e+00	0	62	0	551550976	53	4028
2026-01-01 08:30:32.21	352.64	32.51	-45.3	-46.4	16.5	0.00e+00	0	62	0	559939584	53	4077
2026-01-01 08:30:35.11	352.04	32.01	-45.4	-46.4	16.4	0.00e+00	0	62	0	569376768	53	4085
2026-01-01 08:30:38.00	351.46	31.53	-45.4	-46.5	16.3	0.00e+00	0	62	0	578813952	53	4140
2026-01-01 08:30:40.89	350.90	31.05	-45.3	-46.4	16.5	0.00e+00	0	62	0	587202560	53	4062
2026-01-01 08:30:43.79	350.35	30.57	-45.1	-46.1	16.8	0.00e+00	0	62	0	596639744	53	3945
2026-01-01 08:30:46.68	349.82	30.10	-44.6	-45.5	17.3	0.00e+00	0	62	0	605028352	52	3894
2026-01-01 08:30:49.58	349.31	29.63	-44.7	-45.6	17.2	0.00e+00	0	62	0	614465536	52	3950
2026-01-01 08:30:52.47	348.81	29.17	-45.0	-46.0	16.8	0.00e+00	0	62	0	623902720	52	4144
2026-01-01 08:30:55.37	348.32	28.72	-44.8	-45.8	17.0	0.00e+00	0	62	0	632291328	52	4023
2026-01-01 08:30:58.27	347.85	28.26	-44.7	-45.7	17.1	0.00e+00	0	62	0	641728512	52	3986
2026-01-01 08:31:01.16	347.39	27.82	-45.1	-46.1	16.7	0.00e+00	0	62	0	651165696	52	4166
2026-01-01 08:31:04.06	346.94	27.38	-44.8	-45.8	17.1	0.00e+00	0	62	0	659554304	52	4008
2026-01-01 08:31:06.96	346.51	26.94	-44.5	-45.4	17.3	0.00e+00	0	62	0	668991488	52	3867
2026-01-01 08:31:09.85	346.09	26.51	-44.5	-45.4	17.4	0.00e+00	0	62	0	677380096	52	3829
2026-01-01 08:31:12.74	345.68	26.09	-43.9	-44.7	18.1	0.00e+00	0	62	0	686817280	51	3771
2026-01-01 08:31:15.63	345.28	25.67	-44.2	-45.1	17.8	0.00e+00	0	62	0	696254464	51	3915
2026-01-01 08:31:18.52	344.89	25.25	-44.1	-44.9	17.9	0.00e+00	0	62	0	704643072	51	3842
2026-01-01 08:31:21.42	344.51	24.84	-44.4	-45.3	17.6	0.00e+00	0	62	0	714080256	51	4007
2026-01-01 08:31:24.31	344.15	24.44	-44.4	-45.3	17.5	0.00e+00	0	62	0	723517440	51	4038
2026-01-01 08:31:27.20	343.79	24.04	-44.6	-45.5	17.3	0.00e+00	0	62	0	731906048	51	4128
2026-01-01 08:31:30.10	343.44	23.64	-44.7	-45.7	17.1	0.00e+00	0	62	0	741343232	52	3978
2026-01-01 08:31:32.99	343.10	23.25	-44.6	-45.5	17.3	0.00e+00	0	62	0	749731840	51	4145
2026-01-01 08:31:35.89	342.77	22.86	-44.5	-45.4	17.3	0.00e+00	0	62	0	759169024	51	4096
2026-01-01 08:31:38.78	342.44	22.48	-44.2	-45.1	17.7	0.00e+00	0	62	0	768606208	51	3933
2026-01-01 08:31:41.68	342.13	22.10	-44.1	-44.9	17.8	0.00e+00	0	62	0	776994816	51	3855
2026-01-01 08:31:44.58	341.82	21.73	-44.3	-45.1	17.6	0.00e+00	0	62	0	786432000	51	3953
2026-01-01 08:31:47.47	341.52	21.36	-44.4	-45.4	17.4	0.00e+00	0	62	0	795869184	51	4057
2026-01-01 08:31:50.36	341.23	21.00	-44.4	-45.4	17.4	0.00e+00	0	62	0	804257792	51	4056
2026-01-01 08:31:53.25	340.94	20.64	-44.4	-45.3	17.3	0.00e+00	0	62	0	813694976	51	4035
2026-01-01 08:31:56.15	340.66	20.29	-45.0	-46.1	16.2	0.00e+00	0	62	0	822083584	52	4177
2026-01-01 08:31:59.04	340.39	19.94	-46.0	-47.5	14.7	0.00e+00	0	62	0	831520768	53	4608
2026-01-01 08:32:01.93	340.12	19.59	-46.3	-47.8	14.2	0.00e+00	0	62	0	840957952	54	4508
2026-01-01 08:32:04.82	339.86	19.25	-46.4	-48.0	14.0	1.50e-06	0	62	0	849346560	54	4629
2026-01-01 08:32:07.72	339.61	18.91	-45.9	-47.2	14.8	0.00e+00	0	62	0	858783744	54	4238
2026-01-01 08:32:10.62	339.36	18.57	-45.5	-46.7	15.5	0.00e+00	0	62	0	868220928	54	3987
2026-01-01 08:32:13.51	339.12	18.25	-45.1	-46.3	15.9	0.00e+00	0	62	0	876609536	53	4009
2026-01-01 08:32:16.42	338.88	17.92	-45.7	-46.9	15.3	0.00e+00	0	62	0	886046720	53	4336
2026-01-01 08:32:19.32	338.65	17.59	-46.0	-47.4	15.0	0.00e+00	0	62	0	894435328	54	4298
2026-01-01 08:32:22.22	338.42	17.27	-45.5	-46.7	15.8	0.00e+00	0	62	0	903872512	54	3965
2026-01-01 08:32:25.11	338.20	16.96	-45.3	-46.5	16.0	0.00e+00	0	62	0	913309696	53	4114
2026-01-01 08:32:28.01	337.98	16.65	-45.4	-46.6	16.0	0.00e+00	0	62	0	921698304	53	4157
2026-01-01 08:32:30.91	337.77	16.34	-45.0	-46.1	16.4	0.00e+00	0	62	0	931135488	53	3931
2026-01-01 08:32:33.81	337.56	16.03	-45.0	-46.1	16.4	0.00e+00	0	62	0	940572672	53	3938
2026-01-01 08:32:36.71	337.35	15.73	-45.2	-46.3	16.2	0.00e+00	0	62	0	948961280	53	4045
2026-01-01 08:32:39.61	337.15	15.43	-45.3	-46.4	16.1	0.00e+00	0	62	0	958398464	53	4076
2026-01-01 08:32:42.50	336.96	15.14	-45.2	-46.3	16.2	0.00e+00	0	62	0	967835648	53	4033
2026-01-01 08:32:45.39	336.77	14.85	-45.0	-46.1	16.4	0.00e+00	0	62	0	976224256	53	3938
2026-01-01 08:32:48.29	336.58	14.56	-44.9	-45.9	16.5	0.00e+00	0	62	0	985661440	53	3867
2026-01-01 08:32:51.19	336.40	14.27	-45.0	-46.1	16.4	0.00e+00	0	62	0	994050048	52	4176
2026-01-01 08:32:54.09	336.22	13.99	-44.9	-46.0	16.5	0.00e+00	0	62	0	1003487232	52	4122
2026-01-01 08:32:56.99	336.04	13.71	-44.9	-46.0	16.5	0.00e+00	0	62	0	1012924416	52	4118
2026-01-01 08:32:59.88	335.87	13.43	-44.8	-45.8	16.6	0.00e+00	0	62	0	1021313024	52	4049
2026-01-01 08:33:02.77	335.70	13.16	-44.9	-45.9	16.6	0.00e+00	0	62	0	1030750208	52	4085
2026-01-01 08:33:05.67	335.53	12.89	-45.0	-46.1	16.4	0.00e+00	0	62	0	1040187392	52	4175
2026-01-01 08:33:08.56	335.37	12.62	-45.2	-46.3	16.2	0.00e+00	0	62	0	1048576000	52	4258
2026-01-01 08:33:11.46	335.21	12.35	-45.0	-46.1	16.3	0.00e+00	0	62	0	1058013184	52	4183
2026-01-01 08:33:14.35	335.05	12.09	-45.4	-46.6	15.9	0.00e+00	0	62	0	1067450368	52	4411
2026-01-01 08:33:17.24	334.90	11.83	-45.5	-46.7	15.8	0.00e+00	0	62	0	1075838976	52	4442
2026-01-01 08:33:20.13	334.75	11.57	-45.2	-46.3	16.1	0.00e+00	0	62	0	1085276160	53	4042
2026-01-01 08:33:23.03	334.60	11.32	-45.3	-46.5	16.0	0.00e+00	0	62	0	1093664768	53	4108
2026-01-01 08:33:25.93	334.46	11.06	-45.3	-46.5	15.9	0.00e+00	0	63	0	1103101952	53	4111
2026-01-01 08:33:28.83	334.31	10.81	-45.3	-46.4	16.0	0.00e+00	0	62	0	1112539136	53	4091
2026-01-01 08:33:31.72	334.17	10.56	-45.3	-46.4	16.0	0.00e+00	0	62	0	1120927744	53	4085
2026-01-01 08:33:34.62	334.03	10.32	-45.4	-46.6	15.9	0.00e+00	0	62	0	1130364928	53	4149
2026-01-01 08:33:37.51	333.90	10.07	-45.5	-46.8	15.6	0.00e+00	0	62	0	1138753536	53	4243
2026-01-01 08:33:40.42	333.77	9.83	-45.6	-46.8	15.5	0.00e+00	0	62	0	1148190720	53	4278
2026-01-01 08:33:43.32	333.64	9.59	-45.7	-46.9	15.4	0.00e+00	0	62	0	1157627904	53	4330
2026-01-01 08:33:46.22	333.51	9.35	-45.7	-47.0	15.4	0.00e+00	0	62	0	1166016512	53	4359
2026-01-01 08:33:49.10	333.38	9.12	-45.8	-47.1	15.3	0.00e+00	0	62	0	1175453696	53	4417
2026-01-01 08:33:52.00	333.26	8.89	-46.1	-47.5	14.9	0.00e+00	0	62	0	1184890880	54	4367
2026-01-01 08:33:54.89	333.14	8.66	-46.4	-47.9	14.5	7.00e-07	0	62	0	1193279488	54	4558
2026-01-01 08:33:57.79	333.02	8.43	-46.4	-47.9	14.4	2.20e-06	0	62	0	1202716672	54	4566
2026-01-01 08:34:00.69	332.90	8.20	-46.4	-47.8	14.5	3.00e-06	0	62	0	1212153856	54	4537
2026-01-01 08:34:03.60	332.78	7.97	-46.2	-47.6	14.7	0.00e+00	0	62	0	1220542464	54	4439
2026-01-01 08:34:06.48	332.67	7.75	-46.3	-47.8	14.5	7.00e-07	0	62	0	1229979648	54	4505
2026-01-01 08:34:09.44	332.56	7.52	-46.5	-48.0	14.3	0.00e+00	0	62	0	1239416832	55	4362
2026-01-01 08:34:12.40	332.45	7.30	-46.5	-48.1	14.2	1.50e-06	0	62	0	1248854016	55	4407
2026-01-01 08:34:15.31	332.34	7.08	-46.7	-48.4	13.8	3.80e-06	0	62	0	1257242624	55	4553
2026-01-01 08:34:18.21	332.23	6.86	-46.6	-48.2	14.0	2.20e-06	0	62	0	1266679808	55	4469
2026-01-01 08:34:21.12	332.13	6.65	-46.8	-48.5	13.6	3.00e-06	0	62	0	1275068416	55	4648
2026-01-01 08:34:24.02	332.02	6.43	-46.8	-48.5	13.7	2.20e-06	0	62	0	1284505600	55	4613
2026-01-01 08:34:26.92	331.92	6.22	-47.0	-48.8	13.3	9.10e-06	0	62	0	1293942784	55	4776
2026-01-01 08:34:29.81	331.82	6.01	-47.2	-49.0	13.2	2.51e-05	0	62	0	1302331392	56	4619
2026-01-01 08:34:32.70	331.73	5.81	-47.1	-48.9	13.3	2.21e-05	0	62	0	1311768576	56	4590
2026-01-01 08:34:35.61	331.63	5.60	-47.2	-49.0	13.1	1.98e-05	0	62	0	1321205760	56	4638
2026-01-01 08:34:38.51	331.54	5.39	-47.4	-49.4	12.8	6.56e-05	0	62	0	1329594368	56	4820
2026-01-01 08:34:41.41	331.44	5.19	-47.5	-49.4	12.6	8.31e-05	0	62	0	1339031552	56	4869
2026-01-01 08:34:44.31	331.35	4.99	-51.5	-61.2	3.8	7.15e-02	0	62	104	1347420160	64	11832
2026-01-01 08:34:47.26	331.26	4.78	-52.1	-63.7	3.8	1.49e+00	0	63	104	1347420160	66	14192
2026-01-01 08:34:50.20	331.17	4.58	-52.4	-63.8	3.8	1.49e+00	0	62	104	1347420160	66	14322
2026-01-01 08:34:53.16	331.08	4.38	-52.7	-64.1	3.8	1.49e+00	0	63	104	1347420160	67	14009
2026-01-01 08:34:56.11	330.99	4.18	-52.8	-64.2	3.8	1.49e+00	0	63	104	1347420160	67	14132
2026-01-01 08:34:59.06	330.90	3.98	-52.8	-64.3	3.8	1.49e+00	0	63	104	1347420160	67	14237
2026-01-01 08:35:02.00	330.82	3.78	-52.6	-64.3	3.8	1.49e+00	0	63	104	1347420160	67	14301
2026-01-01 08:35:04.95	330.74	3.59	-52.7	-64.3	3.8	1.49e+00	0	62	104	1347420160	67	14337
2026-01-01 08:35:07.90	330.65	3.39	-52.9	-64.3	3.8	1.49e+00	0	63	104	1347420160	67	14363
2026-01-01 08:35:10.85	330.57	3.20	-52.9	-64.3	3.8	1.49e+00	0	62	104	1347420160	67	14372
2026-01-01 08:35:13.80	330.49	3.01	-52.7	-64.3	3.8	1.49e+00	0	62	104	1347420160	67	14268

#Closed at: 2026-01-01 08:35:14
#Recorded file [1347 MB]: D:/Data/31026_260101_113444.dat