passes_logs/2026/01/01/R3.0SM8_Murmansk_STILSPACE/R3.0SM8_Murmansk_STILSPACE__20260101_105229_NOAA_20_JPSS-1_rec.log

#Pass ID: 20260101_105229_NOAA 20 (JPSS-1)
#Satellite: NOAA 20 (JPSS-1)
#Configuration: NOAA 20
#almurnet v.1.7.20240730
#Start time: 2026-01-01 10:52:30

#Version: 2.2.20231116
#Station: R3.0SM8_Murmansk_STILSPACE
#Location: 33.092731 lon 68.902999 lat
#TLE: 1 43013U 17073A   25365.45761817  .00000173  00000+0  10307-3 0  9993
#TLE: 2 43013  98.7620 301.5517 0001951  60.3814 299.7557 14.19531661420675

#Time	Az	El	Level	Level2	SNR	BER	BlckErr	Temp	State	Recorded	gain1	gain2
2026-01-01 10:52:30.92	185.72	3.11	-52.6	-66.4	3.8	1.49e+00	0	47	0	0	67	18125
2026-01-01 10:52:34.86	185.90	3.37	-52.1	-65.9	3.8	1.49e+00	0	47	104	0	67	17092
2026-01-01 10:52:38.82	186.07	3.62	-51.5	-65.4	3.8	1.49e+00	0	47	104	0	66	17256
2026-01-01 10:52:42.77	186.25	3.88	-51.5	-65.4	3.8	1.49e+00	0	48	104	0	66	17261
2026-01-01 10:52:46.72	186.44	4.14	-51.7	-65.5	3.8	1.49e+00	0	48	104	0	66	17384
2026-01-01 10:52:50.68	186.62	4.40	-51.5	-64.8	3.8	1.49e+00	0	48	104	0	66	15962
2026-01-01 10:52:54.63	186.81	4.66	-51.3	-60.9	4.6	1.18e+00	0	48	0	0	65	10830
2026-01-01 10:52:58.59	187.00	4.93	-50.6	-57.1	7.2	1.73e-01	0	49	0	8388608	64	7398
2026-01-01 10:53:02.55	187.20	5.20	-50.6	-56.5	7.8	9.86e-02	0	49	0	15728640	63	7326
2026-01-01 10:53:06.51	187.40	5.47	-49.8	-54.2	10.2	6.87e-03	0	49	0	23068672	62	5949
2026-01-01 10:53:10.46	187.60	5.74	-49.1	-52.6	11.9	5.42e-04	0	49	0	30408704	61	5224
2026-01-01 10:53:14.42	187.81	6.02	-48.9	-52.2	12.3	2.22e-04	0	50	0	37748736	60	5317
2026-01-01 10:53:18.38	188.02	6.30	-48.9	-52.3	12.3	2.01e-04	0	50	0	45088768	60	5358
2026-01-01 10:53:22.34	188.23	6.58	-48.9	-52.1	12.6	1.31e-04	0	50	0	52428800	60	5220
2026-01-01 10:53:26.29	188.45	6.87	-48.8	-51.9	12.7	9.68e-05	0	50	0	59768832	60	5129
2026-01-01 10:53:30.24	188.67	7.15	-49.0	-52.2	12.4	1.50e-04	0	50	0	67108864	60	5331
2026-01-01 10:53:34.20	188.89	7.45	-49.0	-52.2	12.6	9.61e-05	0	50	0	74448896	60	5284
2026-01-01 10:53:38.15	189.12	7.74	-48.8	-51.7	13.1	3.28e-05	0	51	0	81788928	60	5002
2026-01-01 10:53:42.11	189.36	8.04	-48.5	-51.2	13.5	1.14e-05	0	51	0	89128960	60	4752
2026-01-01 10:53:46.07	189.60	8.34	-48.9	-51.8	13.0	1.98e-05	0	51	0	96468992	60	5090
2026-01-01 10:53:50.02	189.84	8.64	-48.8	-51.6	13.2	1.75e-05	0	51	0	103809024	60	4974
2026-01-01 10:53:53.98	190.09	8.94	-48.5	-51.1	13.7	6.10e-06	0	51	0	112197632	60	4701
2026-01-01 10:53:57.93	190.34	9.25	-48.3	-50.7	14.1	3.00e-06	0	51	0	119537664	59	4747
2026-01-01 10:54:01.90	190.60	9.57	-48.3	-50.6	14.3	0.00e+00	0	52	0	126877696	59	4681
2026-01-01 10:54:05.86	190.87	9.89	-48.3	-50.8	14.1	3.00e-06	0	52	0	134217728	59	4789
2026-01-01 10:54:09.81	191.13	10.21	-48.3	-50.7	14.3	7.00e-07	0	52	0	141557760	59	4743
2026-01-01 10:54:13.78	191.41	10.53	-48.1	-50.3	14.6	0.00e+00	0	52	0	148897792	59	4530
2026-01-01 10:54:17.75	191.69	10.86	-48.1	-50.5	14.5	0.00e+00	0	52	0	156237824	58	4881
2026-01-01 10:54:21.69	191.98	11.19	-48.3	-50.7	14.3	1.50e-06	0	52	0	163577856	58	5010
2026-01-01 10:54:25.65	192.27	11.52	-48.0	-50.2	14.8	0.00e+00	0	52	0	170917888	58	4729
2026-01-01 10:54:29.61	192.57	11.86	-48.1	-50.4	14.6	0.00e+00	0	52	0	178257920	58	4862
2026-01-01 10:54:33.55	192.87	12.21	-47.8	-50.0	15.1	0.00e+00	0	52	0	185597952	58	4618
2026-01-01 10:54:37.51	193.19	12.55	-47.9	-50.1	14.9	0.00e+00	0	53	0	192937984	58	4699
2026-01-01 10:54:41.46	193.51	12.91	-47.9	-50.1	15.0	0.00e+00	0	53	0	200278016	58	4684
2026-01-01 10:54:45.40	193.83	13.26	-47.6	-49.7	15.4	0.00e+00	0	53	0	208666624	58	4442
2026-01-01 10:54:49.37	194.17	13.62	-47.4	-49.4	15.7	0.00e+00	0	53	0	216006656	57	4566
2026-01-01 10:54:53.31	194.51	13.99	-47.5	-49.4	15.7	0.00e+00	0	53	0	223346688	57	4564
2026-01-01 10:54:57.27	194.86	14.36	-47.2	-49.1	16.0	0.00e+00	0	53	0	230686720	57	4402
2026-01-01 10:55:01.20	195.22	14.73	-47.4	-49.3	15.8	0.00e+00	0	53	0	238026752	57	4514
2026-01-01 10:55:05.17	195.59	15.11	-47.4	-49.2	16.0	0.00e+00	0	53	0	245366784	57	4451
2026-01-01 10:55:09.13	195.97	15.50	-47.4	-49.2	15.9	0.00e+00	0	53	0	252706816	57	4478
2026-01-01 10:55:13.08	196.35	15.88	-47.3	-49.1	16.0	0.00e+00	0	53	0	260046848	57	4423
2026-01-01 10:55:17.02	196.75	16.28	-47.5	-49.4	15.8	0.00e+00	0	53	0	267386880	57	4550
2026-01-01 10:55:20.99	197.16	16.68	-47.6	-49.6	15.6	0.00e+00	0	54	0	274726912	57	4667
2026-01-01 10:55:24.95	197.57	17.08	-47.6	-49.6	15.6	0.00e+00	0	54	0	282066944	57	4697
2026-01-01 10:55:28.90	198.00	17.49	-47.8	-49.8	15.4	0.00e+00	0	54	0	289406976	57	4794
2026-01-01 10:55:32.83	198.44	17.91	-47.8	-49.8	15.4	0.00e+00	0	54	0	296747008	57	4784
2026-01-01 10:55:36.78	198.89	18.33	-47.6	-49.5	15.7	0.00e+00	0	54	0	304087040	57	4646
2026-01-01 10:55:40.74	199.35	18.75	-47.5	-49.4	15.8	0.00e+00	0	54	0	311427072	57	4577
2026-01-01 10:55:44.69	199.83	19.19	-47.4	-49.2	16.0	0.00e+00	0	54	0	319815680	57	4472
2026-01-01 10:55:48.66	200.32	19.63	-47.4	-49.2	16.0	0.00e+00	0	54	0	327155712	57	4471
2026-01-01 10:55:52.61	200.82	20.07	-47.4	-49.2	16.0	0.00e+00	0	54	0	334495744	57	4471
2026-01-01 10:55:56.57	201.34	20.52	-47.6	-49.6	15.7	0.00e+00	0	54	0	341835776	57	4664
2026-01-01 10:56:00.51	201.87	20.97	-47.7	-49.7	15.5	0.00e+00	0	54	0	349175808	57	4749
2026-01-01 10:56:04.45	202.42	21.43	-47.9	-50.0	15.3	0.00e+00	0	55	0	356515840	57	4871
2026-01-01 10:56:08.41	202.98	21.90	-48.2	-50.4	14.9	7.00e-07	0	54	0	363855872	58	4846
2026-01-01 10:56:12.35	203.56	22.37	-48.4	-50.7	14.6	7.00e-07	0	54	0	371195904	58	5000
2026-01-01 10:56:16.30	204.16	22.85	-48.2	-50.3	15.1	0.00e+00	0	55	0	378535936	58	4765
2026-01-01 10:56:20.26	204.78	23.34	-48.0	-50.1	15.3	7.00e-07	0	54	0	385875968	58	4658
2026-01-01 10:56:24.20	205.41	23.82	-48.1	-50.1	15.2	0.00e+00	0	55	0	393216000	58	4688
2026-01-01 10:56:28.16	206.07	24.32	-48.5	-50.7	14.6	7.00e-07	0	55	0	400556032	58	5031
2026-01-01 10:56:32.11	206.74	24.82	-48.4	-50.6	14.7	1.50e-06	0	55	0	407896064	58	4955
2026-01-01 10:56:36.05	207.43	25.33	-48.5	-50.8	14.6	0.00e+00	0	55	0	415236096	58	5073
2026-01-01 10:56:40.02	208.16	25.84	-48.5	-50.8	14.5	7.00e-07	0	55	0	422576128	58	5089
2026-01-01 10:56:43.98	208.90	26.36	-48.3	-50.4	14.9	0.00e+00	0	55	0	430964736	58	4854
2026-01-01 10:56:47.93	209.66	26.88	-47.9	-49.9	15.5	0.00e+00	0	55	0	438304768	58	4573
2026-01-01 10:56:51.89	210.46	27.41	-48.1	-50.1	15.2	0.00e+00	0	55	0	445644800	58	4699
2026-01-01 10:56:55.85	211.28	27.94	-48.4	-50.6	14.8	0.00e+00	0	55	0	452984832	58	4970
2026-01-01 10:56:59.81	212.12	28.48	-48.3	-50.5	14.9	0.00e+00	0	55	0	460324864	58	4874
2026-01-01 10:57:03.77	212.99	29.02	-48.6	-51.0	14.3	1.50e-06	0	55	0	467664896	59	4923
2026-01-01 10:57:07.72	213.89	29.56	-48.8	-51.3	14.1	3.00e-06	0	55	0	475004928	59	5072
2026-01-01 10:57:11.67	214.82	30.11	-48.8	-51.3	14.1	7.60e-06	0	55	0	482344960	59	5066
2026-01-01 10:57:15.62	215.79	30.65	-49.0	-51.5	13.9	3.00e-06	0	55	0	489684992	59	5212
2026-01-01 10:57:19.56	216.78	31.20	-49.2	-52.1	13.2	2.97e-05	0	55	0	497025024	60	5273
2026-01-01 10:57:23.51	217.81	31.75	-49.4	-52.4	13.0	4.95e-05	0	55	0	504365056	60	5410
2026-01-01 10:57:27.46	218.87	32.30	-49.7	-52.8	12.6	7.01e-05	0	55	0	511705088	61	5342
2026-01-01 10:57:31.42	219.97	32.84	-49.9	-53.2	12.1	3.62e-04	0	55	0	519045120	61	5656
2026-01-01 10:57:35.37	221.10	33.39	-50.1	-53.6	11.7	7.18e-04	0	55	0	526385152	62	5579
2026-01-01 10:57:39.33	222.28	33.93	-50.2	-53.8	11.6	6.99e-04	0	55	0	534773760	62	5671
2026-01-01 10:57:43.29	223.49	34.47	-49.4	-52.3	13.1	1.22e-04	0	55	0	542113792	62	4783
2026-01-01 10:57:47.26	224.75	35.01	-48.6	-50.9	14.5	0.00e+00	0	55	0	549453824	60	4571
2026-01-01 10:57:51.20	226.04	35.54	-49.2	-51.9	13.6	3.80e-06	0	55	0	556793856	60	5108
2026-01-01 10:57:55.16	227.38	36.06	-49.5	-52.5	12.9	8.01e-05	0	55	0	564133888	61	5173
2026-01-01 10:57:59.12	228.76	36.57	-49.2	-52.0	13.4	1.29e-05	0	55	0	571473920	61	4891
2026-01-01 10:58:03.08	230.18	37.07	-50.1	-53.5	11.9	3.02e-04	0	55	0	578813952	61	5819
2026-01-01 10:58:07.03	231.64	37.55	-48.8	-51.3	14.1	7.00e-07	0	55	0	586153984	60	4770
2026-01-01 10:58:10.99	233.15	38.03	-49.1	-51.8	13.6	7.60e-06	0	56	0	593494016	60	5084
2026-01-01 10:58:14.92	234.69	38.48	-49.2	-52.2	13.2	2.44e-05	0	56	0	600834048	60	5295
2026-01-01 10:58:18.89	236.28	38.92	-48.9	-51.5	13.9	0.00e+00	0	56	0	608174080	60	4909
2026-01-01 10:58:22.85	237.92	39.34	-50.2	-53.9	11.4	6.76e-04	0	55	0	615514112	62	5755
2026-01-01 10:58:26.80	239.59	39.74	-50.1	-53.9	11.5	6.58e-04	0	55	0	622854144	62	5772
2026-01-01 10:58:30.75	241.30	40.11	-50.2	-53.8	11.6	8.25e-04	0	56	0	630194176	62	5670
2026-01-01 10:58:34.71	243.05	40.46	-50.0	-53.7	11.7	5.35e-04	0	56	0	638582784	62	5617
2026-01-01 10:58:38.67	244.84	40.79	-49.0	-51.6	13.7	1.75e-05	0	56	0	645922816	61	4705
2026-01-01 10:58:42.63	246.67	41.08	-48.7	-51.3	14.1	2.20e-06	0	56	0	653262848	60	4763
2026-01-01 10:58:46.60	248.53	41.35	-49.0	-51.7	13.7	3.00e-06	0	56	0	660602880	60	4991
2026-01-01 10:58:50.56	250.41	41.58	-49.3	-52.2	13.1	2.05e-05	0	56	0	667942912	60	5335
2026-01-01 10:58:54.53	252.32	41.78	-49.5	-52.7	12.7	9.15e-05	0	56	0	675282944	61	5339
2026-01-01 10:58:58.48	254.25	41.94	-49.3	-52.3	13.1	1.98e-05	0	56	0	682622976	61	5052
2026-01-01 10:59:02.44	256.20	42.07	-49.4	-52.2	13.2	4.04e-05	0	56	0	689963008	61	5001
2026-01-01 10:59:06.41	258.16	42.17	-49.1	-51.8	13.6	7.60e-06	0	56	0	697303040	61	4805
2026-01-01 10:59:10.36	260.12	42.22	-49.1	-51.7	13.7	1.83e-05	0	56	0	704643072	61	4723
2026-01-01 10:59:14.31	262.09	42.24	-49.3	-52.1	13.3	1.14e-05	0	56	0	711983104	60	5226
2026-01-01 10:59:18.27	264.07	42.23	-49.3	-52.2	13.2	7.60e-06	0	56	0	719323136	60	5318
2026-01-01 10:59:22.23	266.04	42.17	-48.0	-50.0	15.4	0.00e+00	0	56	0	727711744	59	4373
2026-01-01 10:59:26.18	267.99	42.08	-47.8	-49.7	15.8	0.00e+00	0	56	0	735051776	57	4723
2026-01-01 10:59:30.14	269.94	41.95	-47.8	-49.6	15.8	0.00e+00	0	56	0	742391808	57	4689
2026-01-01 10:59:34.10	271.87	41.79	-48.5	-50.9	14.6	7.00e-07	0	56	0	749731840	59	4821
2026-01-01 10:59:38.06	273.78	41.60	-48.8	-51.4	14.1	0.00e+00	0	56	0	757071872	59	5131
2026-01-01 10:59:42.03	275.66	41.36	-49.2	-52.1	13.3	3.00e-06	0	56	0	764411904	60	5262
2026-01-01 10:59:45.99	277.52	41.10	-49.2	-52.1	13.3	9.53e-05	0	56	0	771751936	61	4951
2026-01-01 10:59:49.94	279.34	40.81	-50.1	-53.9	11.4	4.42e-04	0	56	0	779091968	62	5762
2026-01-01 10:59:53.90	281.13	40.49	-49.3	-52.0	13.4	1.50e-06	0	56	0	786432000	61	4908
2026-01-01 10:59:57.85	282.88	40.14	-48.5	-51.0	14.5	1.50e-06	0	56	0	793772032	60	4599
2026-01-01 11:00:01.81	284.59	39.77	-48.8	-51.3	14.1	3.28e-05	0	56	0	801112064	60	4787
2026-01-01 11:00:05.77	286.27	39.38	-47.7	-49.6	15.8	0.00e+00	0	56	0	808452096	57	4700
2026-01-01 11:00:09.72	287.90	38.96	-47.6	-49.4	16.1	0.00e+00	0	56	0	815792128	57	4554
2026-01-01 11:00:13.68	289.49	38.52	-48.0	-50.1	15.4	0.00e+00	0	56	0	824180736	58	4665
2026-01-01 11:00:17.63	291.04	38.07	-48.4	-50.5	15.0	0.00e+00	0	56	0	831520768	58	4903
2026-01-01 11:00:21.59	292.54	37.60	-47.7	-49.5	16.0	0.00e+00	0	56	0	838860800	58	4353
2026-01-01 11:00:25.55	294.01	37.12	-48.1	-50.1	15.3	0.00e+00	0	56	0	846200832	58	4686
2026-01-01 11:00:29.50	295.42	36.62	-48.1	-50.2	15.3	0.00e+00	0	56	0	853540864	58	4708
2026-01-01 11:00:33.46	296.80	36.11	-47.2	-48.8	16.5	0.00e+00	0	56	0	860880896	57	4285
2026-01-01 11:00:37.42	298.14	35.59	-47.6	-49.5	16.0	0.00e+00	0	56	0	868220928	57	4602
2026-01-01 11:00:41.37	299.43	35.07	-48.3	-50.6	14.8	0.00e+00	0	56	0	875560960	58	4944
2026-01-01 11:00:45.33	300.69	34.54	-47.6	-49.5	15.9	0.00e+00	0	56	0	882900992	58	4346
2026-01-01 11:00:49.29	301.90	34.00	-48.5	-50.7	14.7	0.00e+00	0	56	0	890241024	58	5020
2026-01-01 11:00:53.25	303.08	33.46	-48.4	-50.8	14.7	1.50e-06	0	56	0	897581056	58	5053
2026-01-01 11:00:57.19	304.21	32.92	-49.1	-51.9	13.5	4.04e-05	0	56	0	904921088	61	4831
2026-01-01 11:01:01.15	305.31	32.37	-49.6	-53.0	12.3	5.79e-05	0	56	0	912261120	61	5504
2026-01-01 11:01:05.10	306.37	31.83	-49.5	-52.4	12.9	1.29e-04	0	56	0	919601152	62	4865
2026-01-01 11:01:09.05	307.40	31.28	-49.4	-52.2	13.1	8.30e-06	0	56	0	927989760	60	5335
2026-01-01 11:01:13.01	308.40	30.73	-49.4	-52.3	13.0	1.50e-04	0	56	0	935329792	61	5081
2026-01-01 11:01:16.97	309.36	30.19	-50.2	-54.0	11.3	1.31e-04	0	56	0	942669824	62	5843
2026-01-01 11:01:20.93	310.29	29.65	-49.3	-52.2	13.1	1.01e-04	0	56	0	950009856	61	4995
2026-01-01 11:01:24.89	311.20	29.11	-47.6	-49.4	15.9	0.00e+00	0	56	0	957349888	58	4334
2026-01-01 11:01:28.84	312.07	28.57	-48.4	-50.6	14.8	0.00e+00	0	56	0	964689920	59	4664
2026-01-01 11:01:32.79	312.91	28.04	-46.7	-48.2	17.1	0.00e+00	0	56	0	972029952	56	4236
2026-01-01 11:01:36.76	313.73	27.51	-48.5	-50.8	14.6	7.00e-07	0	56	0	979369984	58	5042
2026-01-01 11:01:40.72	314.53	26.98	-46.6	-48.1	17.2	0.00e+00	0	56	0	986710016	56	4169
2026-01-01 11:01:44.68	315.29	26.46	-46.3	-47.7	17.5	0.00e+00	0	56	0	994050048	55	4200
2026-01-01 11:01:48.65	316.04	25.94	-46.9	-48.6	16.8	0.00e+00	0	56	0	1001390080	56	4403
2026-01-01 11:01:52.62	316.76	25.43	-45.7	-47.0	18.2	0.00e+00	0	57	0	1008730112	54	4101
2026-01-01 11:01:56.59	317.46	24.92	-46.5	-48.1	17.1	0.00e+00	0	56	0	1017118720	54	4665
2026-01-01 11:02:00.55	318.14	24.42	-46.4	-47.8	17.4	0.00e+00	0	56	0	1024458752	55	4284
2026-01-01 11:02:04.52	318.80	23.93	-46.1	-47.4	17.7	0.00e+00	0	56	0	1031798784	55	4095
2026-01-01 11:02:08.49	319.43	23.44	-46.5	-48.0	17.2	0.00e+00	0	56	0	1039138816	55	4378
2026-01-01 11:02:12.45	320.05	22.95	-46.6	-48.1	17.1	0.00e+00	0	56	0	1046478848	55	4417
2026-01-01 11:02:16.40	320.65	22.48	-46.8	-48.3	16.9	0.00e+00	0	56	0	1053818880	55	4534
2026-01-01 11:02:20.36	321.23	22.01	-46.7	-48.3	16.9	0.00e+00	0	57	0	1061158912	55	4509
2026-01-01 11:02:24.33	321.80	21.54	-46.7	-48.3	16.9	0.00e+00	0	56	0	1068498944	55	4513
2026-01-01 11:02:28.31	322.35	21.08	-47.6	-49.4	15.9	0.00e+00	0	56	0	1075838976	56	4868
2026-01-01 11:02:32.26	322.88	20.62	-48.2	-50.5	14.8	0.00e+00	0	56	0	1083179008	58	4901
2026-01-01 11:02:36.23	323.40	20.18	-47.7	-49.6	15.7	0.00e+00	0	57	0	1090519040	58	4429
2026-01-01 11:02:40.21	323.91	19.73	-47.7	-49.7	15.6	0.00e+00	0	56	0	1098907648	58	4459
2026-01-01 11:02:44.15	324.40	19.30	-47.7	-49.6	15.6	0.00e+00	0	57	0	1106247680	58	4428
2026-01-01 11:02:48.09	324.87	18.87	-47.7	-49.6	15.6	0.00e+00	0	56	0	1113587712	58	4415
2026-01-01 11:02:52.04	325.34	18.44	-47.5	-49.3	15.9	0.00e+00	0	57	0	1120927744	58	4273
2026-01-01 11:02:56.01	325.79	18.02	-47.2	-48.9	16.4	0.00e+00	0	56	0	1128267776	57	4298
2026-01-01 11:02:59.96	326.23	17.61	-47.6	-49.4	15.8	0.00e+00	0	56	0	1135607808	57	4577
2026-01-01 11:03:03.90	326.66	17.20	-47.9	-49.8	15.4	0.00e+00	0	56	0	1142947840	57	4809
2026-01-01 11:03:07.86	327.08	16.80	-47.8	-49.8	15.4	0.00e+00	0	57	0	1150287872	57	4766
2026-01-01 11:03:11.81	327.49	16.40	-47.7	-49.7	15.5	0.00e+00	0	57	0	1157627904	57	4729
2026-01-01 11:03:15.77	327.88	16.01	-47.6	-49.6	15.6	0.00e+00	0	57	0	1164967936	57	4654
2026-01-01 11:03:19.74	328.27	15.62	-47.9	-50.0	15.2	0.00e+00	0	57	0	1172307968	57	4907
2026-01-01 11:03:23.70	328.65	15.24	-48.4	-50.7	14.5	0.00e+00	0	57	0	1179648000	58	5035
2026-01-01 11:03:27.66	329.02	14.86	-48.1	-50.2	14.9	0.00e+00	0	57	0	1186988032	58	4746
2026-01-01 11:03:31.62	329.38	14.49	-47.9	-50.1	15.1	0.00e+00	0	57	0	1194328064	58	4668
2026-01-01 11:03:35.59	329.74	14.12	-47.8	-49.9	15.2	0.00e+00	0	57	0	1202716672	58	4583
2026-01-01 11:03:39.54	330.08	13.75	-47.9	-50.0	15.1	0.00e+00	0	57	0	1210056704	58	4644
2026-01-01 11:03:43.51	330.42	13.39	-47.8	-49.9	15.1	0.00e+00	0	57	0	1217396736	58	4594
2026-01-01 11:03:47.49	330.75	13.04	-47.9	-50.2	14.9	0.00e+00	0	57	0	1224736768	58	4722
2026-01-01 11:03:51.45	331.07	12.68	-48.2	-50.4	14.7	0.00e+00	0	57	0	1232076800	58	4831
2026-01-01 11:03:55.40	331.39	12.34	-48.4	-50.8	14.2	7.00e-07	0	57	0	1239416832	58	5077
2026-01-01 11:03:59.37	331.69	12.00	-48.5	-50.9	14.1	1.50e-06	0	57	0	1246756864	58	5120
2026-01-01 11:04:03.33	332.00	11.66	-48.3	-50.7	14.3	0.00e+00	0	57	0	1254096896	58	5009
2026-01-01 11:04:07.29	332.29	11.32	-48.2	-50.5	14.5	7.00e-07	0	57	0	1261436928	58	4909
2026-01-01 11:04:11.24	332.58	10.99	-48.3	-50.8	14.1	2.20e-06	0	57	0	1268776960	58	5099
2026-01-01 11:04:15.19	332.86	10.67	-48.5	-51.1	13.8	5.30e-06	0	57	0	1276116992	58	5235
2026-01-01 11:04:19.13	333.14	10.35	-48.7	-51.5	13.3	1.98e-05	0	56	0	1283457024	59	5207
2026-01-01 11:04:23.10	333.41	10.03	-48.7	-51.7	13.1	1.75e-05	0	57	0	1291845632	59	5308
2026-01-01 11:04:27.04	333.67	9.71	-48.9	-51.8	13.0	5.18e-05	0	57	0	1299185664	59	5398
2026-01-01 11:04:30.98	333.93	9.40	-49.0	-52.0	12.8	6.33e-05	0	57	0	1306525696	59	5494
2026-01-01 11:04:34.94	334.19	9.09	-48.6	-51.5	13.2	1.90e-05	0	56	0	1313865728	60	4902
2026-01-01 11:04:38.89	334.44	8.79	-48.6	-51.6	13.1	2.28e-05	0	57	0	1321205760	60	4953
2026-01-01 11:04:42.84	334.68	8.49	-48.7	-51.5	13.2	2.36e-05	0	57	0	1328545792	60	4888
2026-01-01 11:04:46.80	334.92	8.19	-48.8	-51.8	12.8	6.48e-05	0	56	0	1335885824	60	5069
2026-01-01 11:04:50.76	335.16	7.89	-48.7	-51.8	12.8	5.49e-05	0	57	0	1343225856	60	5052
2026-01-01 11:04:54.72	335.39	7.60	-49.0	-52.1	12.4	1.44e-04	0	57	0	1350565888	60	5279
2026-01-01 11:04:58.66	335.62	7.31	-49.2	-52.7	11.8	5.79e-04	0	57	0	1357905920	60	5640
2026-01-01 11:05:02.62	335.85	7.03	-49.5	-53.4	11.1	1.53e-03	0	57	0	1365245952	60	6101
2026-01-01 11:05:06.57	336.06	6.74	-49.7	-54.0	10.4	4.58e-03	0	56	0	1372585984	61	6139
2026-01-01 11:05:10.52	336.28	6.46	-49.7	-53.9	10.4	5.84e-03	0	57	0	1379926016	61	6104
2026-01-01 11:05:14.49	336.49	6.18	-49.8	-54.2	10.0	8.13e-03	0	57	0	1387266048	61	6338
2026-01-01 11:05:18.44	336.70	5.91	-49.6	-53.9	10.4	6.23e-03	0	57	0	1394606080	61	6065
2026-01-01 11:05:22.39	336.91	5.64	-49.6	-53.9	10.3	4.59e-03	0	57	0	1402994688	61	6083
2026-01-01 11:05:26.35	337.11	5.36	-49.6	-53.8	10.3	5.46e-03	0	57	0	1410334720	61	6013
2026-01-01 11:05:30.30	337.31	5.10	-49.3	-53.2	10.9	2.74e-03	0	57	0	1417674752	61	5616
2026-01-01 11:05:34.26	337.50	4.83	-48.5	-62.2	3.8	1.49e+00	0	57	104	1418723328	59	17810
2026-01-01 11:05:38.22	337.70	4.57	-52.5	-66.3	3.8	1.49e+00	0	57	104	1418723328	66	19023
2026-01-01 11:05:42.19	337.88	4.31	-52.5	-66.5	3.8	1.49e+00	0	57	104	1418723328	67	18308
2026-01-01 11:05:46.15	338.07	4.05	-52.5	-66.5	3.8	1.49e+00	0	57	104	1418723328	67	18473
2026-01-01 11:05:50.11	338.25	3.79	-52.8	-66.6	3.8	1.49e+00	0	57	104	1418723328	67	18533
2026-01-01 11:05:54.06	338.43	3.54	-52.6	-66.6	3.8	1.49e+00	0	57	104	1418723328	67	18600
2026-01-01 11:05:58.02	338.61	3.29	-52.7	-66.6	3.8	1.49e+00	0	57	104	1418723328	67	18636
2026-01-01 11:06:01.98	338.79	3.04	-52.7	-66.6	3.8	1.49e+00	0	57	104	1418723328	67	18578

#Closed at: 2026-01-01 11:06:03
#Recorded file [1418 MB]: D:/Data/31026_260101_140531.dat