passes_logs/2026/01/01/R3.0SM8_Murmansk_STILSPACE/R3.0SM8_Murmansk_STILSPACE__20260101_013442_AQUA_rec.log

#Pass ID: 20260101_013442_AQUA
#Satellite: AQUA
#Configuration: AQUA
#almurnet v.1.7.20240730
#Start time: 2026-01-01 01:34:43

#Version: 2.2.20231116
#Station: R3.0SM8_Murmansk_STILSPACE
#Location: 33.092731 lon 68.902999 lat
#TLE: 1 27424U 02022A   25364.96158943  .00001951  00000+0  40088-3 0  9998
#TLE: 2 27424  98.4061 326.1389 0001917  95.3187 305.7939 14.61780362258696

#Time	Az	El	Level	Level2	SNR	BER	BlckErr	Temp	State	Recorded	gain1	gain2
2026-01-01 01:34:43.65	22.50	3.07	-54.5	-74.4	3.8	7.41e-01	0	49	0	0	71	37060
2026-01-01 01:34:46.61	22.59	3.27	-53.9	-73.8	3.8	7.44e-01	0	50	104	0	71	34550
2026-01-01 01:34:49.57	22.68	3.47	-51.8	-67.6	3.8	7.44e-01	0	50	104	0	67	21466
2026-01-01 01:34:52.51	22.77	3.68	-51.7	-67.3	3.8	7.43e-01	0	50	104	0	66	21758
2026-01-01 01:34:55.46	22.87	3.88	-51.7	-67.4	3.8	7.45e-01	0	51	104	0	66	22182
2026-01-01 01:34:58.41	22.96	4.09	-51.7	-67.3	3.8	7.45e-01	0	51	104	0	66	21959
2026-01-01 01:35:01.37	23.05	4.30	-51.0	-65.2	3.8	7.46e-01	0	51	104	0	65	18246
2026-01-01 01:35:04.32	23.15	4.51	-50.6	-64.4	3.8	7.44e-01	0	51	104	0	64	17559
2026-01-01 01:35:07.27	23.25	4.72	-50.9	-65.1	3.8	7.47e-01	0	51	104	0	64	19081
2026-01-01 01:35:10.22	23.35	4.94	-51.3	-66.3	3.8	7.45e-01	0	51	104	0	64	21997
2026-01-01 01:35:13.16	23.45	5.15	-51.0	-65.6	3.8	7.44e-01	0	52	104	0	64	20173
2026-01-01 01:35:16.13	23.55	5.37	-50.3	-63.4	3.8	7.44e-01	0	52	104	0	64	15701
2026-01-01 01:35:19.09	23.65	5.59	-50.2	-62.9	3.8	7.46e-01	0	52	104	0	63	15756
2026-01-01 01:35:22.04	23.76	5.81	-51.0	-64.6	3.8	7.42e-01	0	52	104	0	64	17971
2026-01-01 01:35:24.98	23.86	6.04	-51.6	-65.7	3.8	7.42e-01	0	53	104	0	65	19299
2026-01-01 01:35:27.94	23.97	6.26	-51.8	-66.4	3.8	7.43e-01	0	53	104	0	65	20867
2026-01-01 01:35:30.89	24.08	6.49	-52.3	-67.8	3.8	7.45e-01	0	53	104	0	66	23072
2026-01-01 01:35:33.84	24.19	6.72	-51.6	-65.8	3.8	7.44e-01	0	53	104	0	66	18419
2026-01-01 01:35:36.79	24.30	6.95	-51.3	-65.0	3.8	7.48e-01	0	53	104	0	66	16882
2026-01-01 01:35:39.74	24.42	7.19	-51.8	-66.9	3.8	7.43e-01	0	53	104	0	66	20815
2026-01-01 01:35:42.69	24.53	7.43	-52.2	-69.4	3.8	7.45e-01	0	54	104	0	66	27720
2026-01-01 01:35:45.64	24.65	7.67	-51.9	-69.1	3.8	7.49e-01	0	54	104	0	66	26868
2026-01-01 01:35:48.60	24.77	7.91	-51.9	-68.5	3.8	7.45e-01	0	54	104	0	66	25079
2026-01-01 01:35:51.55	24.89	8.15	-51.7	-66.6	3.8	7.43e-01	0	54	104	0	66	20282
2026-01-01 01:35:54.50	25.02	8.40	-51.0	-64.6	3.8	7.44e-01	0	54	104	0	65	16890
2026-01-01 01:35:57.45	25.14	8.65	-50.9	-64.1	3.8	7.46e-01	0	54	104	0	65	16078
2026-01-01 01:36:00.40	25.27	8.90	-50.9	-64.0	3.8	7.43e-01	0	54	104	0	65	15878
2026-01-01 01:36:03.36	25.40	9.16	-50.2	-62.8	3.8	7.42e-01	0	54	104	0	64	14603
2026-01-01 01:36:06.30	25.54	9.42	-49.7	-61.7	3.8	7.43e-01	0	54	104	0	62	14453
2026-01-01 01:36:09.26	25.67	9.68	-49.4	-61.3	3.8	7.40e-01	0	55	104	0	62	13747
2026-01-01 01:36:12.21	25.81	9.94	-49.8	-61.8	3.8	7.44e-01	0	55	104	0	62	14559
2026-01-01 01:36:15.16	25.95	10.21	-50.8	-63.4	3.8	7.45e-01	0	55	104	0	63	16647
2026-01-01 01:36:18.10	26.09	10.48	-50.9	-63.8	3.8	7.45e-01	0	55	104	0	64	16427
2026-01-01 01:36:21.05	26.23	10.76	-51.7	-65.3	3.9	7.45e-01	0	55	104	0	65	18423
2026-01-01 01:36:24.01	26.38	11.03	-52.4	-67.0	3.8	7.45e-01	0	55	104	0	66	21153
2026-01-01 01:36:26.96	26.53	11.31	-51.3	-64.7	3.8	7.42e-01	0	55	104	0	66	16193
2026-01-01 01:36:29.91	26.69	11.60	-52.2	-66.8	3.8	7.45e-01	0	55	104	0	66	20600
2026-01-01 01:36:32.86	26.84	11.89	-52.8	-69.1	3.8	7.45e-01	0	55	104	0	67	25481
2026-01-01 01:36:35.81	27.00	12.18	-52.5	-67.9	3.8	7.46e-01	0	56	104	0	67	22107
2026-01-01 01:36:38.76	27.16	12.47	-52.3	-67.3	3.8	7.44e-01	0	56	104	0	67	20767
2026-01-01 01:36:41.71	27.33	12.77	-51.7	-65.3	3.8	7.45e-01	0	56	104	0	67	16389
2026-01-01 01:36:44.66	27.50	13.07	-50.4	-62.8	3.8	7.42e-01	0	56	104	0	64	14618
2026-01-01 01:36:47.61	27.67	13.38	-49.9	-62.0	3.8	7.47e-01	0	56	104	0	63	14060
2026-01-01 01:36:50.56	27.85	13.69	-50.4	-62.7	3.8	7.42e-01	0	56	104	0	63	15346
2026-01-01 01:36:53.52	28.03	14.01	-49.8	-61.8	3.8	7.40e-01	0	56	104	0	63	13801
2026-01-01 01:36:56.46	28.21	14.32	-49.0	-60.6	3.8	7.46e-01	0	56	104	0	61	13429
2026-01-01 01:36:59.41	28.40	14.65	-49.0	-60.6	3.8	7.43e-01	0	56	104	0	61	13415
2026-01-01 01:37:02.38	28.59	14.98	-48.9	-60.5	3.8	7.45e-01	0	57	104	0	61	13303
2026-01-01 01:37:05.34	28.79	15.31	-49.2	-61.0	3.8	7.44e-01	0	57	104	0	61	14048
2026-01-01 01:37:08.28	28.99	15.65	-50.0	-62.1	3.8	7.45e-01	0	57	104	0	62	15071
2026-01-01 01:37:11.22	29.19	15.99	-51.0	-63.6	3.8	7.45e-01	0	57	104	0	64	16103
2026-01-01 01:37:14.18	29.40	16.34	-51.9	-65.5	3.9	7.43e-01	0	57	104	0	66	17774
2026-01-01 01:37:17.13	29.62	16.69	-52.3	-66.2	3.8	7.44e-01	0	57	104	0	67	18250
2026-01-01 01:37:20.08	29.84	17.05	-52.7	-67.3	3.8	7.46e-01	0	57	104	0	67	20713
2026-01-01 01:37:23.04	30.06	17.42	-53.3	-69.0	3.8	7.45e-01	0	57	104	0	68	23584
2026-01-01 01:37:25.99	30.29	17.79	-52.5	-66.6	3.8	7.42e-01	0	57	104	0	68	17970
2026-01-01 01:37:28.94	30.53	18.16	-51.9	-65.4	3.8	7.47e-01	0	57	104	0	67	16643
2026-01-01 01:37:31.90	30.77	18.55	-51.4	-64.5	3.8	7.47e-01	0	58	104	0	66	15794
2026-01-01 01:37:34.84	31.02	18.93	-50.1	-62.2	3.8	7.42e-01	0	57	104	0	63	14396
2026-01-01 01:37:37.81	31.28	19.33	-49.2	-60.8	3.8	7.47e-01	0	58	104	0	62	13091
2026-01-01 01:37:40.76	31.54	19.73	-49.7	-61.5	3.8	7.47e-01	0	58	104	0	61	15021
2026-01-01 01:37:43.71	31.81	20.14	-49.7	-61.5	3.8	7.45e-01	0	58	104	0	62	14149
2026-01-01 01:37:46.67	32.09	20.56	-49.1	-60.6	3.8	7.42e-01	0	58	104	0	61	13486
2026-01-01 01:37:49.62	32.37	20.98	-49.5	-61.2	3.8	7.41e-01	0	58	104	0	61	14415
2026-01-01 01:37:52.57	32.66	21.41	-49.3	-60.9	3.8	7.47e-01	0	58	104	0	61	14033
2026-01-01 01:37:55.53	32.96	21.84	-49.2	-60.8	3.8	7.42e-01	0	58	104	0	61	13735
2026-01-01 01:37:58.49	33.27	22.29	-49.7	-61.4	3.8	7.46e-01	0	58	104	0	61	14842
2026-01-01 01:38:01.44	33.59	22.74	-50.9	-63.3	3.8	7.44e-01	0	58	104	0	64	15578
2026-01-01 01:38:04.39	33.92	23.20	-52.0	-65.3	3.8	7.43e-01	0	58	104	0	66	17452
2026-01-01 01:38:07.35	34.26	23.67	-52.4	-66.1	3.8	7.44e-01	0	58	104	0	66	19094
2026-01-01 01:38:10.31	34.61	24.15	-53.2	-68.3	3.8	7.45e-01	0	58	104	0	68	21966
2026-01-01 01:38:13.25	34.96	24.63	-53.4	-68.8	3.8	7.46e-01	0	58	104	0	69	21852
2026-01-01 01:38:16.20	35.33	25.12	-52.6	-66.5	3.8	7.47e-01	0	58	104	0	68	17828
2026-01-01 01:38:19.16	35.72	25.63	-51.5	-64.5	3.8	7.42e-01	0	58	104	0	66	15803
2026-01-01 01:38:22.12	36.11	26.14	-51.1	-63.7	3.8	7.44e-01	0	58	104	0	65	15232
2026-01-01 01:38:25.07	36.52	26.66	-49.7	-61.5	3.8	7.44e-01	0	59	104	0	63	13274
2026-01-01 01:38:28.01	36.94	27.19	-49.0	-60.4	3.8	7.44e-01	0	58	104	0	61	13215
2026-01-01 01:38:30.97	37.38	27.73	-48.9	-60.3	3.8	7.46e-01	0	58	104	0	61	13025
2026-01-01 01:38:33.92	37.83	28.28	-50.1	-62.0	3.8	7.45e-01	0	59	104	0	62	14956
2026-01-01 01:38:36.88	38.30	28.84	-49.7	-61.5	3.8	7.46e-01	0	59	104	0	62	14138
2026-01-01 01:38:39.83	38.78	29.41	-50.3	-62.3	3.8	7.47e-01	0	59	104	0	62	15518
2026-01-01 01:38:42.78	39.28	29.99	-50.6	-62.8	3.8	7.45e-01	0	59	104	0	64	14626
2026-01-01 01:38:45.73	39.80	30.59	-49.9	-61.7	3.8	7.46e-01	0	59	104	0	63	13696
2026-01-01 01:38:48.68	40.34	31.19	-49.9	-61.7	3.8	7.44e-01	0	59	104	0	63	13692
2026-01-01 01:38:51.63	40.90	31.80	-50.8	-63.1	3.8	7.43e-01	0	59	104	0	63	16037
2026-01-01 01:38:54.59	41.49	32.43	-52.1	-65.4	3.8	7.47e-01	0	59	104	0	66	17617
2026-01-01 01:38:57.54	42.09	33.06	-52.5	-66.4	3.8	7.44e-01	0	59	104	0	67	18528
2026-01-01 01:39:00.49	42.72	33.71	-53.2	-67.9	3.8	7.45e-01	0	59	104	0	68	20847
2026-01-01 01:39:03.45	43.38	34.37	-53.5	-69.0	3.8	7.41e-01	0	59	104	0	69	22295
2026-01-01 01:39:06.42	44.07	35.04	-53.1	-67.6	3.8	7.48e-01	0	59	104	0	69	19057
2026-01-01 01:39:09.36	44.78	35.72	-52.3	-65.8	3.8	7.44e-01	0	59	104	0	68	16427
2026-01-01 01:39:12.32	45.53	36.41	-51.8	-64.7	3.8	7.45e-01	0	59	104	0	67	15370
2026-01-01 01:39:15.28	46.31	37.11	-51.2	-63.7	3.8	7.40e-01	0	59	104	0	66	14456
2026-01-01 01:39:18.23	47.12	37.82	-50.4	-62.5	3.8	7.44e-01	0	59	104	0	64	14160
2026-01-01 01:39:21.17	47.96	38.54	-50.1	-61.9	3.9	7.44e-01	0	59	104	0	63	14020
2026-01-01 01:39:24.11	48.84	39.27	-50.7	-62.9	3.8	7.43e-01	0	59	104	0	63	15748
2026-01-01 01:39:27.06	49.77	40.00	-51.0	-63.3	3.8	7.45e-01	0	59	104	0	64	15452
2026-01-01 01:39:30.01	50.74	40.75	-50.8	-63.2	3.8	7.45e-01	0	59	104	0	64	15233
2026-01-01 01:39:32.96	51.76	41.50	-50.9	-63.2	3.8	7.46e-01	0	59	104	0	64	15250
2026-01-01 01:39:35.91	52.82	42.26	-50.3	-62.3	3.8	7.42e-01	0	59	104	0	64	13850
2026-01-01 01:39:38.87	53.95	43.03	-49.1	-60.5	3.8	7.42e-01	0	60	104	0	61	13388
2026-01-01 01:39:41.81	55.11	43.80	-50.1	-61.9	3.8	7.45e-01	0	59	104	0	62	14798
2026-01-01 01:39:44.76	56.35	44.57	-51.3	-63.8	3.8	7.44e-01	0	60	104	0	64	16437
2026-01-01 01:39:47.71	57.64	45.35	-51.2	-63.7	3.8	7.44e-01	0	60	104	0	65	15398
2026-01-01 01:39:50.67	59.00	46.12	-51.4	-64.0	3.8	7.44e-01	0	60	104	0	65	15852
2026-01-01 01:39:53.62	60.43	46.89	-52.3	-65.8	3.8	7.44e-01	0	60	104	0	67	17319
2026-01-01 01:39:56.57	61.93	47.66	-50.6	-62.8	3.8	7.47e-01	0	60	104	0	64	14701
2026-01-01 01:39:59.52	63.50	48.41	-50.5	-62.6	3.8	7.47e-01	0	60	104	0	63	15146
2026-01-01 01:40:02.47	65.15	49.16	-50.7	-62.8	3.8	7.46e-01	0	60	104	0	64	14644
2026-01-01 01:40:05.43	66.89	49.90	-49.8	-61.6	3.8	7.42e-01	0	60	104	0	63	13504
2026-01-01 01:40:08.38	68.72	50.62	-49.3	-60.9	3.8	7.46e-01	0	60	104	0	62	13249
2026-01-01 01:40:11.29	70.60	51.31	-49.4	-51.5	22.0	6.04e-01	0	60	0	2621440	61	4720
2026-01-01 01:40:14.18	72.55	51.97	-48.6	-50.3	23.1	6.03e-01	0	60	0	8388608	60	4370
2026-01-01 01:40:17.07	74.60	52.61	-48.5	-50.3	23.2	6.02e-01	0	60	0	13631488	60	4350
2026-01-01 01:40:19.96	76.73	53.21	-48.5	-50.3	23.2	6.03e-01	0	60	0	18874368	60	4351
2026-01-01 01:40:22.86	78.96	53.79	-48.9	-50.8	22.7	6.01e-01	0	60	0	24641536	61	4353
2026-01-01 01:40:25.75	81.27	54.32	-48.5	-50.2	23.3	6.04e-01	0	60	0	29884416	60	4299
2026-01-01 01:40:28.63	83.65	54.81	-48.8	-50.7	22.8	6.02e-01	0	60	0	35127296	60	4546
2026-01-01 01:40:31.52	86.13	55.26	-49.4	-51.4	22.1	6.02e-01	0	60	0	40894464	61	4660
2026-01-01 01:40:34.41	88.67	55.65	-49.8	-52.0	21.4	6.04e-01	0	60	0	46137344	62	4754
2026-01-01 01:40:37.30	91.29	56.00	-49.2	-51.1	22.3	6.05e-01	0	60	0	51904512	61	4542
2026-01-01 01:40:40.19	93.97	56.29	-49.5	-51.5	22.0	6.03e-01	0	60	0	57147392	61	4748
2026-01-01 01:40:43.08	96.70	56.51	-50.1	-52.4	21.2	6.03e-01	0	60	0	62390272	62	4983
2026-01-01 01:40:45.96	99.45	56.68	-49.9	-52.1	21.4	6.01e-01	0	60	0	67633152	62	4792
2026-01-01 01:40:48.85	102.25	56.78	-49.9	-52.1	21.3	6.04e-01	0	60	0	73400320	63	4542
2026-01-01 01:40:51.74	105.06	56.82	-49.7	-51.9	21.7	6.03e-01	0	60	0	78643200	62	4674
2026-01-01 01:40:54.63	107.87	56.79	-50.1	-52.4	21.2	6.04e-01	0	61	0	83886080	62	4948
2026-01-01 01:40:57.52	110.66	56.70	-49.7	-51.8	21.7	6.03e-01	0	60	0	89653248	62	4631
2026-01-01 01:41:00.42	113.45	56.55	-49.9	-52.1	21.4	6.04e-01	0	60	0	94896128	62	4795
2026-01-01 01:41:03.32	116.19	56.33	-49.1	-51.1	22.4	6.01e-01	0	60	0	100663296	61	4503
2026-01-01 01:41:06.21	118.88	56.05	-49.5	-51.6	21.9	6.03e-01	0	61	0	105906176	61	4806
2026-01-01 01:41:09.10	121.51	55.71	-49.2	-51.1	22.4	6.03e-01	0	60	0	111149056	61	4523
2026-01-01 01:41:11.99	124.07	55.33	-49.0	-50.8	22.7	6.03e-01	0	60	0	116391936	61	4372
2026-01-01 01:41:14.90	126.58	54.88	-49.5	-51.6	21.9	6.02e-01	0	60	0	122159104	61	4792
2026-01-01 01:41:17.79	128.99	54.40	-49.0	-50.8	22.6	6.04e-01	0	61	0	127401984	61	4380
2026-01-01 01:41:20.68	131.31	53.87	-48.5	-50.2	23.2	6.03e-01	0	60	0	133169152	60	4334
2026-01-01 01:41:23.57	133.55	53.30	-48.6	-50.3	23.2	6.05e-01	0	61	0	138412032	60	4366
2026-01-01 01:41:26.46	135.70	52.70	-49.1	-51.0	22.5	6.05e-01	0	61	0	143654912	60	4718
2026-01-01 01:41:29.35	137.76	52.06	-48.7	-50.5	22.9	6.03e-01	0	61	0	149422080	60	4464
2026-01-01 01:41:32.24	139.73	51.40	-49.1	-51.0	22.4	6.04e-01	0	61	0	154664960	60	4750
2026-01-01 01:41:35.14	141.62	50.72	-49.4	-51.4	22.1	6.03e-01	0	60	0	159907840	60	4957
2026-01-01 01:41:38.04	143.43	50.01	-49.5	-51.6	22.0	6.03e-01	0	61	0	165675008	61	4765
2026-01-01 01:41:40.93	145.15	49.29	-49.5	-51.6	21.9	6.03e-01	0	60	0	170917888	61	4811
2026-01-01 01:41:43.81	146.78	48.56	-49.8	-52.0	21.5	6.05e-01	0	61	0	176160768	61	5017
2026-01-01 01:41:46.70	148.34	47.82	-50.1	-52.5	21.1	6.03e-01	0	61	0	181927936	62	4987
2026-01-01 01:41:49.59	149.83	47.07	-50.1	-52.4	21.1	5.99e-01	0	61	0	187170816	63	4685
2026-01-01 01:41:52.48	151.25	46.31	-49.8	-51.9	21.6	6.03e-01	0	61	0	192413696	63	4429
2026-01-01 01:41:55.37	152.60	45.55	-50.1	-52.5	21.0	6.02e-01	0	61	0	198180864	62	5034
2026-01-01 01:41:58.25	153.88	44.80	-49.3	-51.3	22.1	6.03e-01	0	61	0	203423744	62	4381
2026-01-01 01:42:01.15	155.12	44.03	-49.1	-51.1	22.4	6.05e-01	0	61	0	208666624	61	4503
2026-01-01 01:42:04.03	156.28	43.28	-49.6	-51.7	21.8	6.02e-01	0	61	0	214433792	61	4840
2026-01-01 01:42:06.92	157.40	42.52	-48.9	-50.8	22.7	6.04e-01	0	61	0	219676672	61	4344
2026-01-01 01:42:09.81	158.47	41.77	-49.2	-51.2	22.3	6.03e-01	0	61	0	224919552	61	4583
2026-01-01 01:42:12.70	159.48	41.03	-49.5	-51.5	22.0	6.02e-01	0	61	0	230686720	61	4750
2026-01-01 01:42:15.59	160.45	40.29	-49.8	-52.0	21.5	6.02e-01	0	61	0	235929600	62	4710
2026-01-01 01:42:18.50	161.39	39.56	-49.7	-51.8	21.7	6.02e-01	0	61	0	241172480	62	4636
2026-01-01 01:42:21.39	162.28	38.84	-49.9	-52.2	21.3	6.02e-01	0	61	0	246939648	62	4840
2026-01-01 01:42:24.28	163.13	38.12	-50.2	-52.6	20.9	6.03e-01	0	61	0	252182528	62	5066
2026-01-01 01:42:27.16	163.94	37.42	-49.4	-51.5	22.0	6.04e-01	0	61	0	257425408	62	4465
2026-01-01 01:42:30.06	164.72	36.73	-49.1	-51.0	21.7	6.04e-01	0	61	0	263192576	61	4460
2026-01-01 01:42:32.94	165.46	36.05	-48.6	-50.4	23.0	6.04e-01	0	61	0	268435456	60	4418
2026-01-01 01:42:35.83	166.18	35.37	-48.4	-50.1	23.2	6.02e-01	0	61	0	273678336	60	4255
2026-01-01 01:42:38.72	166.86	34.71	-48.3	-50.0	23.4	6.03e-01	0	61	0	279445504	60	4222
2026-01-01 01:42:41.61	167.52	34.06	-48.4	-50.1	23.6	6.03e-01	0	61	0	284688384	59	4496
2026-01-01 01:42:44.49	168.16	33.42	-48.6	-50.3	23.4	6.04e-01	0	61	0	289931264	59	4608
2026-01-01 01:42:47.39	168.77	32.78	-48.2	-49.8	23.8	6.02e-01	0	61	0	295698432	59	4380
2026-01-01 01:42:50.29	169.36	32.16	-48.2	-49.8	23.8	6.03e-01	0	61	0	300941312	59	4364
2026-01-01 01:42:53.17	169.92	31.55	-48.8	-50.6	23.1	6.04e-01	0	61	0	306184192	59	4761
2026-01-01 01:42:56.05	170.46	30.95	-48.6	-50.4	23.0	6.02e-01	0	61	0	311951360	60	4397
2026-01-01 01:42:58.93	170.98	30.36	-48.5	-50.2	23.5	6.02e-01	0	61	0	317194240	59	4579
2026-01-01 01:43:01.83	171.49	29.78	-48.5	-50.2	23.5	6.04e-01	0	61	0	322437120	59	4563
2026-01-01 01:43:04.73	171.98	29.21	-48.7	-50.5	23.3	6.03e-01	0	61	0	328204288	59	4707
2026-01-01 01:43:07.63	172.45	28.65	-48.2	-49.9	23.4	6.05e-01	0	61	0	333447168	60	4157
2026-01-01 01:43:10.53	172.91	28.10	-48.5	-50.1	23.5	6.02e-01	0	61	0	338690048	59	4541
2026-01-01 01:43:13.42	173.35	27.56	-48.5	-50.2	23.5	6.01e-01	0	61	0	344457216	59	4552
2026-01-01 01:43:16.30	173.77	27.03	-48.5	-50.1	23.5	6.02e-01	0	61	0	349700096	59	4532
2026-01-01 01:43:19.19	174.18	26.51	-48.6	-50.4	23.0	6.04e-01	0	61	0	354942976	60	4400
2026-01-01 01:43:22.08	174.58	26.00	-48.4	-50.1	23.5	6.04e-01	0	61	0	360710144	59	4525
2026-01-01 01:43:24.97	174.96	25.50	-48.6	-50.4	23.3	6.04e-01	0	61	0	365953024	59	4671
2026-01-01 01:43:27.85	175.33	25.01	-48.6	-50.3	23.4	6.02e-01	0	61	0	371195904	59	4637
2026-01-01 01:43:30.75	175.70	24.52	-48.8	-50.6	23.1	6.02e-01	0	61	0	376963072	59	4789
2026-01-01 01:43:33.64	176.05	24.04	-48.7	-50.5	22.8	6.03e-01	0	61	0	382205952	60	4469
2026-01-01 01:43:36.53	176.39	23.58	-48.4	-50.1	23.2	6.03e-01	0	61	0	387448832	60	4284
2026-01-01 01:43:39.41	176.72	23.12	-48.7	-50.5	22.7	6.05e-01	0	61	0	393216000	60	4487
2026-01-01 01:43:42.30	177.04	22.67	-48.5	-50.2	23.4	6.03e-01	0	61	0	398458880	59	4563
2026-01-01 01:43:45.19	177.35	22.22	-48.6	-50.3	23.3	6.05e-01	0	61	0	403701760	59	4612
2026-01-01 01:43:48.09	177.65	21.78	-48.8	-50.5	23.0	6.03e-01	0	61	0	409468928	59	4751
2026-01-01 01:43:50.97	177.95	21.36	-48.7	-50.6	22.6	6.04e-01	0	61	0	414711808	60	4513
2026-01-01 01:43:53.86	178.23	20.93	-48.6	-50.4	22.8	6.03e-01	0	61	0	419954688	60	4426
2026-01-01 01:43:56.75	178.51	20.52	-48.8	-50.6	22.6	6.03e-01	0	61	0	425721856	60	4533
2026-01-01 01:43:59.64	178.78	20.11	-48.6	-50.4	22.8	6.02e-01	0	61	0	430964736	60	4428
2026-01-01 01:44:02.53	179.05	19.71	-48.7	-50.6	22.7	6.05e-01	0	61	0	436207616	60	4515
2026-01-01 01:44:05.42	179.31	19.31	-48.5	-50.3	22.9	6.04e-01	0	61	0	441974784	60	4385
2026-01-01 01:44:08.31	179.56	18.92	-48.4	-50.1	23.1	6.04e-01	0	61	0	447217664	60	4278
2026-01-01 01:44:11.20	179.80	18.54	-48.4	-50.2	23.0	6.03e-01	0	61	0	452460544	60	4318
2026-01-01 01:44:14.09	180.04	18.16	-48.3	-50.0	23.2	6.01e-01	0	61	0	458227712	60	4215
2026-01-01 01:44:16.98	180.27	17.79	-48.4	-50.1	23.1	6.05e-01	0	61	0	463470592	60	4266
2026-01-01 01:44:19.88	180.50	17.43	-48.6	-50.3	23.2	6.02e-01	0	61	0	468713472	59	4631
2026-01-01 01:44:22.76	180.72	17.07	-48.5	-50.2	23.3	6.01e-01	0	61	0	474480640	59	4576
2026-01-01 01:44:25.65	180.94	16.71	-48.7	-50.5	23.0	6.01e-01	0	61	0	479723520	59	4706
2026-01-01 01:44:28.54	181.15	16.36	-48.4	-50.2	22.9	6.04e-01	0	61	0	484966400	60	4313
2026-01-01 01:44:31.43	181.35	16.02	-48.6	-50.5	22.7	6.03e-01	0	61	0	490733568	60	4469
2026-01-01 01:44:34.32	181.56	15.68	-48.9	-50.9	22.3	6.03e-01	0	61	0	495976448	60	4662
2026-01-01 01:44:37.21	181.75	15.34	-49.1	-51.2	22.0	6.03e-01	0	61	0	501219328	60	4822
2026-01-01 01:44:40.10	181.95	15.01	-48.9	-50.8	22.3	6.03e-01	0	61	0	506986496	60	4622
2026-01-01 01:44:43.00	182.14	14.69	-48.6	-50.5	22.6	6.03e-01	0	61	0	512229376	60	4453
2026-01-01 01:44:45.90	182.32	14.37	-48.6	-50.5	22.6	6.03e-01	0	61	0	517472256	60	4474
2026-01-01 01:44:48.79	182.50	14.05	-48.2	-49.9	23.1	6.04e-01	0	61	0	523239424	60	4181
2026-01-01 01:44:51.68	182.68	13.74	-48.5	-50.3	23.1	6.06e-01	0	61	0	528482304	59	4615
2026-01-01 01:44:54.57	182.85	13.43	-48.7	-50.5	22.9	6.03e-01	0	61	0	534249472	59	4715
2026-01-01 01:44:57.46	183.02	13.13	-48.7	-50.6	22.9	6.04e-01	0	61	0	539492352	59	4760
2026-01-01 01:45:00.34	183.19	12.83	-48.9	-51.0	22.1	6.03e-01	0	61	0	544735232	60	4711
2026-01-01 01:45:03.24	183.35	12.53	-48.4	-50.2	22.8	6.02e-01	0	61	0	549978112	60	4302
2026-01-01 01:45:06.12	183.51	12.24	-48.7	-50.6	22.4	6.05e-01	0	62	0	555745280	60	4533
2026-01-01 01:45:09.01	183.67	11.95	-48.6	-50.6	22.4	6.03e-01	0	61	0	560988160	60	4497
2026-01-01 01:45:11.91	183.82	11.67	-48.7	-50.6	22.3	6.04e-01	0	61	0	566755328	60	4540
2026-01-01 01:45:14.80	183.97	11.39	-48.4	-50.2	22.8	6.03e-01	0	62	0	571998208	60	4309
2026-01-01 01:45:17.69	184.12	11.11	-48.4	-50.3	22.6	6.05e-01	0	61	0	577241088	60	4369
2026-01-01 01:45:20.57	184.27	10.83	-48.5	-50.4	22.5	6.02e-01	0	61	0	582483968	60	4408
2026-01-01 01:45:23.46	184.41	10.56	-48.5	-50.4	22.5	6.04e-01	0	61	0	588251136	60	4432
2026-01-01 01:45:26.35	184.55	10.29	-48.8	-50.9	22.0	6.06e-01	0	61	0	593494016	60	4652
2026-01-01 01:45:29.24	184.69	10.03	-48.8	-50.8	22.1	6.03e-01	0	61	0	598736896	60	4637
2026-01-01 01:45:32.13	184.82	9.77	-49.1	-51.2	21.6	6.02e-01	0	61	0	604504064	60	4847
2026-01-01 01:45:35.01	184.95	9.51	-48.6	-50.6	22.2	6.03e-01	0	61	0	609746944	60	4514
2026-01-01 01:45:37.90	185.08	9.25	-48.7	-50.7	22.0	6.03e-01	0	62	0	614989824	60	4596
2026-01-01 01:45:40.79	185.21	9.00	-49.0	-51.1	21.7	6.01e-01	0	61	0	620756992	60	4801
2026-01-01 01:45:43.68	185.34	8.75	-49.2	-51.4	21.4	6.04e-01	0	61	0	625999872	60	4964
2026-01-01 01:45:46.57	185.46	8.50	-49.4	-51.7	21.0	6.04e-01	0	62	0	631242752	61	4863
2026-01-01 01:45:49.46	185.58	8.25	-49.5	-51.8	20.9	6.03e-01	0	62	0	637009920	61	4924
2026-01-01 01:45:52.38	185.70	8.01	-49.5	-51.9	20.8	6.05e-01	0	62	0	642252800	61	4961
2026-01-01 01:45:55.28	185.82	7.77	-49.1	-51.3	21.4	6.03e-01	0	61	0	648019968	61	4605
2026-01-01 01:45:58.17	185.94	7.53	-49.0	-51.2	21.5	6.02e-01	0	61	0	653262848	61	4577
2026-01-01 01:46:01.06	186.05	7.29	-49.2	-51.5	21.1	6.02e-01	0	61	0	658505728	61	4751
2026-01-01 01:46:03.95	186.16	7.06	-49.1	-51.3	21.3	6.03e-01	0	62	0	664272896	61	4640
2026-01-01 01:46:06.84	186.27	6.83	-49.2	-51.6	21.0	6.03e-01	0	62	0	669515776	61	4776
2026-01-01 01:46:09.73	186.38	6.60	-49.3	-51.7	20.8	6.03e-01	0	62	0	674758656	61	4865
2026-01-01 01:46:12.61	186.49	6.37	-49.5	-52.0	20.5	6.04e-01	0	62	0	680525824	61	5040
2026-01-01 01:46:15.53	186.60	6.15	-49.5	-52.1	20.4	6.03e-01	0	62	0	685768704	61	5068
2026-01-01 01:46:18.42	186.70	5.93	-49.5	-52.0	20.4	6.05e-01	0	61	0	691011584	61	5039
2026-01-01 01:46:21.31	186.80	5.70	-49.5	-52.1	20.3	6.01e-01	0	61	0	696778752	61	5059
2026-01-01 01:46:24.20	186.90	5.49	-49.4	-52.0	20.5	6.05e-01	0	61	0	702021632	61	4993
2026-01-01 01:46:27.08	187.00	5.27	-49.7	-52.5	19.9	6.01e-01	0	61	0	707264512	61	5287
2026-01-01 01:46:29.97	187.10	5.06	-50.9	-54.7	18.3	6.06e-01	0	61	0	713031680	63	6067
2026-01-01 01:46:32.90	187.20	4.84	-54.2	-74.1	3.8	7.48e-01	0	62	104	713555968	70	37918
2026-01-01 01:46:35.85	187.29	4.63	-54.5	-74.4	3.8	7.44e-01	0	62	104	713555968	71	37173
2026-01-01 01:46:38.80	187.39	4.41	-54.7	-74.5	3.8	7.44e-01	0	62	104	713555968	71	37684
2026-01-01 01:46:41.75	187.49	4.20	-54.7	-74.6	3.8	7.41e-01	0	62	104	713555968	71	38021
2026-01-01 01:46:44.70	187.58	3.99	-54.8	-74.6	3.8	7.48e-01	0	61	104	713555968	71	38208
2026-01-01 01:46:47.66	187.67	3.78	-54.8	-74.7	3.8	7.46e-01	0	62	104	713555968	71	38469
2026-01-01 01:46:50.61	187.76	3.58	-54.8	-74.7	3.8	7.44e-01	0	62	104	713555968	71	38543
2026-01-01 01:46:53.56	187.85	3.37	-54.8	-74.8	3.8	7.47e-01	0	62	104	713555968	71	38709
2026-01-01 01:46:56.50	187.94	3.17	-54.8	-74.7	3.8	7.46e-01	0	62	104	713555968	71	38561
2026-01-01 01:46:59.46	188.03	2.97	-54.8	-74.7	3.8	7.46e-01	0	62	104	713555968	71	38465

#Closed at: 2026-01-01 01:47:01
#Recorded file [713 MB]: D:/Data/31026_260101_044630.dat