passes_logs/2026/01/01/R3.0SM8_Murmansk_STILSPACE/R3.0SM8_Murmansk_STILSPACE__20260101_005435_NOAA_20_JPSS-1_rec.log

#Pass ID: 20260101_005435_NOAA 20 (JPSS-1)
#Satellite: NOAA 20 (JPSS-1)
#Configuration: NOAA 20
#almurnet v.1.7.20240730
#Start time: 2026-01-01 00:54:37

#Version: 2.2.20231116
#Station: R3.0SM8_Murmansk_STILSPACE
#Location: 33.092731 lon 68.902999 lat
#TLE: 1 43013U 17073A   25365.45761817  .00000173  00000+0  10307-3 0  9993
#TLE: 2 43013  98.7620 301.5517 0001951  60.3814 299.7557 14.19531661420675

#Time	Az	El	Level	Level2	SNR	BER	BlckErr	Temp	State	Recorded	gain1	gain2
2026-01-01 00:54:37.69	25.35	3.14	-52.5	-66.3	3.8	1.49e+00	0	51	0	0	66	19070
2026-01-01 00:54:41.63	25.34	3.40	-52.1	-66.0	3.8	1.49e+00	0	52	104	0	67	17316
2026-01-01 00:54:45.57	25.33	3.67	-51.7	-64.5	3.8	1.49e+00	0	52	104	0	66	15439
2026-01-01 00:54:49.50	25.32	3.93	-51.6	-63.6	3.8	1.49e+00	0	52	104	0	66	13952
2026-01-01 00:54:53.40	25.31	4.20	-51.6	-62.2	4.1	1.43e+00	0	53	0	0	66	11880
2026-01-01 00:54:57.25	25.30	4.47	-51.3	-60.2	4.9	8.37e-01	0	53	0	4194304	65	10001
2026-01-01 00:55:01.10	25.28	4.74	-50.8	-57.6	6.7	2.16e-01	0	53	0	10485760	64	7854
2026-01-01 00:55:04.96	25.27	5.01	-50.4	-56.0	8.3	5.50e-02	0	53	0	17825792	63	6939
2026-01-01 00:55:08.83	25.26	5.29	-50.4	-55.6	8.8	3.38e-02	0	53	0	25165824	63	6582
2026-01-01 00:55:12.68	25.24	5.57	-49.9	-54.4	10.0	7.74e-03	0	54	0	32505856	62	6099
2026-01-01 00:55:16.54	25.23	5.85	-49.8	-54.0	10.4	6.66e-03	0	54	0	39845888	62	5845
2026-01-01 00:55:20.40	25.21	6.14	-49.5	-53.2	11.3	1.48e-03	0	54	0	47185920	62	5313
2026-01-01 00:55:24.26	25.19	6.42	-49.6	-53.5	11.1	1.52e-03	0	54	0	54525952	62	5479
2026-01-01 00:55:28.11	25.18	6.71	-49.5	-53.1	11.5	8.25e-04	0	54	0	61865984	62	5246
2026-01-01 00:55:31.96	25.16	7.01	-49.6	-53.3	11.4	1.03e-03	0	54	0	69206016	62	5380
2026-01-01 00:55:35.82	25.14	7.31	-49.3	-52.9	11.7	5.52e-04	0	55	0	75497472	62	5149
2026-01-01 00:55:39.67	25.12	7.61	-49.4	-52.8	11.9	4.22e-04	0	55	0	82837504	61	5401
2026-01-01 00:55:43.52	25.10	7.91	-49.6	-53.2	11.6	6.37e-04	0	55	0	90177536	61	5612
2026-01-01 00:55:47.38	25.08	8.22	-49.6	-53.5	11.3	9.46e-04	0	55	0	97517568	61	5825
2026-01-01 00:55:51.24	25.06	8.53	-49.9	-53.8	11.0	1.43e-03	0	56	0	104857600	61	6031
2026-01-01 00:55:55.10	25.04	8.85	-49.9	-53.8	11.0	2.03e-03	0	56	0	112197632	61	6016
2026-01-01 00:55:58.95	25.01	9.17	-50.0	-53.9	11.0	1.52e-03	0	56	0	119537664	61	6088
2026-01-01 00:56:02.80	24.99	9.50	-49.5	-52.9	12.0	4.16e-04	0	56	0	126877696	61	5418
2026-01-01 00:56:06.65	24.96	9.82	-49.6	-53.0	11.9	6.09e-04	0	56	0	134217728	61	5496
2026-01-01 00:56:10.50	24.94	10.16	-49.1	-52.1	12.9	4.73e-05	0	56	0	141557760	61	4951
2026-01-01 00:56:14.35	24.91	10.49	-49.2	-52.2	12.8	5.34e-05	0	56	0	147849216	61	4989
2026-01-01 00:56:18.21	24.88	10.84	-49.0	-51.9	13.1	2.67e-05	0	57	0	155189248	61	4862
2026-01-01 00:56:22.06	24.85	11.18	-49.3	-52.3	12.7	1.02e-04	0	57	0	162529280	61	5093
2026-01-01 00:56:25.92	24.82	11.54	-49.2	-52.2	12.8	7.24e-05	0	57	0	169869312	61	5029
2026-01-01 00:56:29.77	24.79	11.89	-49.0	-51.8	13.3	2.89e-05	0	57	0	177209344	61	4809
2026-01-01 00:56:33.63	24.76	12.26	-49.2	-52.1	12.9	3.20e-05	0	57	0	184549376	61	4983
2026-01-01 00:56:37.48	24.72	12.63	-49.0	-51.8	13.3	2.13e-05	0	57	0	191889408	61	4795
2026-01-01 00:56:41.34	24.69	13.00	-48.9	-51.6	13.5	1.06e-05	0	57	0	199229440	60	4971
2026-01-01 00:56:45.19	24.65	13.38	-48.6	-51.1	14.0	2.20e-06	0	57	0	206569472	60	4681
2026-01-01 00:56:49.04	24.62	13.77	-48.6	-51.0	14.1	0.00e+00	0	58	0	212860928	60	4635
2026-01-01 00:56:52.90	24.58	14.16	-48.5	-50.9	14.2	1.50e-06	0	58	0	220200960	60	4593
2026-01-01 00:56:56.75	24.54	14.56	-48.5	-50.9	14.3	7.00e-07	0	58	0	227540992	60	4573
2026-01-01 00:57:00.60	24.49	14.96	-48.5	-50.8	14.4	7.00e-07	0	58	0	234881024	59	4791
2026-01-01 00:57:04.46	24.45	15.37	-48.7	-51.2	14.1	7.00e-07	0	58	0	242221056	59	5003
2026-01-01 00:57:08.31	24.40	15.79	-48.6	-51.0	14.3	7.00e-07	0	58	0	249561088	59	4881
2026-01-01 00:57:12.15	24.36	16.22	-48.6	-51.0	14.3	2.20e-06	0	58	0	256901120	59	4903
2026-01-01 00:57:16.01	24.31	16.65	-49.0	-51.6	13.6	1.22e-05	0	58	0	264241152	60	4980
2026-01-01 00:57:19.87	24.26	17.09	-48.6	-51.1	14.2	7.00e-07	0	58	0	271581184	60	4679
2026-01-01 00:57:23.72	24.20	17.54	-48.1	-50.2	15.1	0.00e+00	0	59	0	277872640	59	4490
2026-01-01 00:57:27.57	24.15	18.00	-47.8	-49.7	15.7	0.00e+00	0	58	0	285212672	58	4442
2026-01-01 00:57:31.43	24.09	18.47	-47.7	-49.6	15.8	0.00e+00	0	59	0	292552704	58	4398
2026-01-01 00:57:35.28	24.03	18.94	-47.8	-49.7	15.7	0.00e+00	0	59	0	299892736	58	4443
2026-01-01 00:57:39.13	23.97	19.43	-48.2	-50.3	15.1	0.00e+00	0	59	0	307232768	58	4765
2026-01-01 00:57:42.99	23.90	19.92	-47.6	-49.5	15.9	0.00e+00	0	59	0	314572800	58	4352
2026-01-01 00:57:46.84	23.84	20.42	-47.5	-49.4	15.9	0.00e+00	0	59	0	321912832	58	4315
2026-01-01 00:57:50.70	23.77	20.94	-47.3	-49.0	16.3	0.00e+00	0	59	0	329252864	57	4367
2026-01-01 00:57:54.55	23.69	21.47	-47.5	-49.3	16.1	0.00e+00	0	59	0	336592896	57	4496
2026-01-01 00:57:58.41	23.62	22.00	-47.6	-49.5	15.9	0.00e+00	0	59	0	342884352	57	4626
2026-01-01 00:58:02.26	23.54	22.55	-47.4	-49.2	16.2	0.00e+00	0	59	0	350224384	57	4445
2026-01-01 00:58:06.11	23.45	23.11	-47.7	-49.6	15.8	0.00e+00	0	59	0	357564416	57	4662
2026-01-01 00:58:09.96	23.37	23.68	-47.4	-49.1	16.3	0.00e+00	0	59	0	364904448	57	4397
2026-01-01 00:58:13.82	23.28	24.27	-47.4	-49.3	16.2	0.00e+00	0	59	0	372244480	57	4495
2026-01-01 00:58:17.67	23.18	24.87	-47.5	-49.4	16.0	0.00e+00	0	60	0	379584512	57	4569
2026-01-01 00:58:21.52	23.08	25.48	-47.8	-49.6	15.8	0.00e+00	0	59	0	386924544	57	4684
2026-01-01 00:58:25.37	22.98	26.10	-47.7	-49.5	15.9	0.00e+00	0	60	0	394264576	57	4616
2026-01-01 00:58:29.23	22.87	26.75	-47.7	-49.5	16.0	0.00e+00	0	60	0	401604608	57	4620
2026-01-01 00:58:33.09	22.76	27.40	-48.0	-50.1	15.4	0.00e+00	0	60	0	407896064	57	4962
2026-01-01 00:58:36.94	22.64	28.08	-48.1	-50.1	15.4	0.00e+00	0	60	0	415236096	58	4668
2026-01-01 00:58:40.79	22.51	28.77	-48.4	-50.6	14.8	0.00e+00	0	60	0	422576128	58	4946
2026-01-01 00:58:44.64	22.38	29.47	-48.8	-51.1	14.3	7.00e-07	0	60	0	429916160	59	4969
2026-01-01 00:58:48.50	22.24	30.20	-49.0	-51.7	13.6	9.90e-06	0	60	0	437256192	60	5002
2026-01-01 00:58:52.35	22.10	30.94	-49.5	-52.7	12.4	1.16e-04	0	60	0	444596224	60	5607
2026-01-01 00:58:56.20	21.95	31.70	-49.7	-53.6	11.1	8.80e-04	0	60	0	451936256	61	5886
2026-01-01 00:59:00.06	21.79	32.49	-49.9	-54.7	9.7	9.10e-03	0	60	0	459276288	61	6676
2026-01-01 00:59:03.90	21.62	33.29	-50.1	-54.5	9.9	9.65e-03	0	60	0	466616320	62	6196
2026-01-01 00:59:07.75	21.44	34.11	-49.6	-53.1	11.6	9.48e-04	0	60	0	472907776	62	5252
2026-01-01 00:59:11.61	21.25	34.96	-48.9	-51.6	13.8	1.06e-05	0	60	0	480247808	61	4659
2026-01-01 00:59:15.47	21.05	35.83	-48.7	-51.0	14.6	0.00e+00	0	60	0	487587840	60	4602
2026-01-01 00:59:19.32	20.84	36.73	-48.4	-50.5	15.1	0.00e+00	0	60	0	494927872	59	4599
2026-01-01 00:59:23.19	20.61	37.65	-48.4	-50.5	15.0	0.00e+00	0	60	0	502267904	59	4651
2026-01-01 00:59:27.05	20.37	38.59	-47.2	-48.9	16.7	0.00e+00	0	60	0	509607936	57	4307
2026-01-01 00:59:30.90	20.12	39.56	-47.4	-49.0	16.6	0.00e+00	0	60	0	516947968	57	4377
2026-01-01 00:59:34.75	19.85	40.56	-47.9	-49.8	15.7	0.00e+00	0	60	0	524288000	57	4797
2026-01-01 00:59:38.59	19.56	41.58	-48.2	-50.1	15.5	0.00e+00	0	60	0	531628032	58	4685
2026-01-01 00:59:42.44	19.25	42.64	-48.3	-50.4	15.2	0.00e+00	0	60	0	538968064	58	4846
2026-01-01 00:59:46.30	18.92	43.72	-48.6	-50.8	14.8	0.00e+00	0	61	0	545259520	59	4808
2026-01-01 00:59:50.15	18.56	44.84	-48.9	-51.2	14.3	0.00e+00	0	61	0	552599552	59	5040
2026-01-01 00:59:53.99	18.18	45.98	-49.9	-53.0	12.6	7.93e-05	0	61	0	559939584	61	5486
2026-01-01 00:59:57.84	17.76	47.15	-50.4	-54.0	11.6	3.64e-04	0	61	0	567279616	62	5798
2026-01-01 01:00:01.68	17.31	48.35	-50.1	-53.4	12.1	6.12e-04	0	60	0	574619648	62	5436
2026-01-01 01:00:05.54	16.82	49.60	-49.4	-52.2	13.3	2.51e-05	0	61	0	581959680	61	5035
2026-01-01 01:00:09.39	16.29	50.87	-48.7	-50.9	14.6	3.80e-06	0	61	0	589299712	60	4593
2026-01-01 01:00:13.24	15.72	52.17	-48.3	-50.3	15.3	0.00e+00	0	61	0	596639744	59	4539
2026-01-01 01:00:17.08	15.08	53.51	-48.4	-50.4	15.2	0.00e+00	0	61	0	602931200	59	4566
2026-01-01 01:00:20.94	14.38	54.88	-47.8	-49.6	16.1	0.00e+00	0	61	0	610271232	58	4408
2026-01-01 01:00:24.80	13.61	56.28	-48.9	-51.2	14.5	0.00e+00	0	61	0	617611264	59	5021
2026-01-01 01:00:28.64	12.76	57.71	-49.3	-52.0	13.6	1.52e-05	0	61	0	624951296	61	4893
2026-01-01 01:00:32.49	11.81	59.17	-49.7	-52.7	12.9	6.17e-05	0	61	0	632291328	61	5286
2026-01-01 01:00:36.34	10.74	60.66	-48.2	-50.3	15.3	7.00e-07	0	61	0	639631360	59	4518
2026-01-01 01:00:40.19	9.53	62.17	-47.7	-49.5	16.2	0.00e+00	0	61	0	646971392	58	4355
2026-01-01 01:00:44.03	8.17	63.70	-46.1	-47.4	18.1	0.00e+00	0	61	0	654311424	55	4065
2026-01-01 01:00:47.88	6.60	65.26	-47.8	-49.6	16.1	0.00e+00	0	61	0	660602880	57	4700
2026-01-01 01:00:51.74	4.80	66.83	-48.1	-50.0	15.7	0.00e+00	0	61	0	667942912	58	4629
2026-01-01 01:00:55.58	2.71	68.39	-47.8	-49.5	16.2	0.00e+00	0	61	0	675282944	58	4379
2026-01-01 01:00:59.44	0.26	69.96	-47.3	-49.0	16.6	0.00e+00	0	61	0	682622976	57	4382
2026-01-01 01:01:03.29	357.36	71.51	-47.1	-48.6	17.0	0.00e+00	0	61	0	689963008	57	4191
2026-01-01 01:01:07.14	353.90	73.03	-48.0	-49.8	15.9	0.00e+00	0	61	0	697303040	57	4804
2026-01-01 01:01:10.99	349.73	74.50	-50.2	-53.5	12.2	2.82e-04	0	61	0	704643072	62	5515
2026-01-01 01:01:14.84	344.68	75.88	-49.3	-51.8	13.8	9.90e-06	0	61	0	711983104	61	4811
2026-01-01 01:01:18.70	338.51	77.16	-49.3	-52.0	13.7	9.90e-06	0	61	0	719323136	61	4890
2026-01-01 01:01:22.55	331.07	78.26	-48.0	-49.8	15.9	0.00e+00	0	61	0	726663168	59	4273
2026-01-01 01:01:26.40	322.23	79.14	-48.2	-50.2	15.5	0.00e+00	0	61	0	732954624	58	4720
2026-01-01 01:01:30.25	312.08	79.72	-48.6	-50.8	14.8	0.00e+00	0	61	0	740294656	59	4792
2026-01-01 01:01:34.10	301.08	79.96	-47.8	-49.8	15.9	0.00e+00	0	61	0	747634688	58	4495
2026-01-01 01:01:37.95	289.97	79.82	-47.6	-49.3	16.4	0.00e+00	0	61	0	754974720	58	4274
2026-01-01 01:01:41.80	279.54	79.32	-47.4	-49.0	16.7	0.00e+00	0	61	0	762314752	56	4640
2026-01-01 01:01:45.65	270.32	78.52	-48.9	-51.2	14.5	0.00e+00	0	61	0	769654784	59	4998
2026-01-01 01:01:49.50	262.51	77.47	-50.7	-55.0	10.5	2.16e-03	0	62	0	776994816	63	6161
2026-01-01 01:01:53.35	256.04	76.23	-51.2	-56.0	9.5	1.40e-02	0	61	0	784334848	64	6515
2026-01-01 01:01:57.21	250.70	74.87	-50.5	-54.3	11.2	1.46e-03	0	61	0	790626304	63	5687
2026-01-01 01:02:01.07	246.30	73.42	-48.7	-51.0	14.6	0.00e+00	0	62	0	797966336	60	4602
2026-01-01 01:02:04.91	242.68	71.91	-47.6	-49.4	16.2	0.00e+00	0	62	0	805306368	58	4337
2026-01-01 01:02:08.75	239.65	70.37	-48.9	-51.2	14.5	7.00e-07	0	61	0	812646400	59	4998
2026-01-01 01:02:12.60	237.09	68.80	-48.9	-51.2	14.5	7.00e-07	0	62	0	819986432	60	4724
2026-01-01 01:02:16.46	234.90	67.23	-50.4	-54.2	11.3	1.37e-03	0	61	0	827326464	62	5950
2026-01-01 01:02:20.31	233.03	65.66	-49.4	-52.1	13.5	5.56e-05	0	62	0	834666496	61	4954
2026-01-01 01:02:24.17	231.40	64.10	-48.4	-50.4	15.2	0.00e+00	0	62	0	842006528	59	4588
2026-01-01 01:02:28.01	229.99	62.56	-47.2	-48.8	16.8	0.00e+00	0	62	0	849346560	57	4259
2026-01-01 01:02:31.87	228.74	61.03	-48.4	-50.5	15.2	0.00e+00	0	62	0	855638016	58	4915
2026-01-01 01:02:35.72	227.64	59.53	-49.6	-52.5	13.1	2.67e-05	0	62	0	862978048	61	5178
2026-01-01 01:02:39.57	226.66	58.06	-50.7	-54.7	10.9	8.19e-04	0	62	0	870318080	63	5932
2026-01-01 01:02:43.43	225.77	56.62	-50.1	-53.5	12.0	4.70e-04	0	62	0	877658112	63	5211
2026-01-01 01:02:47.28	224.98	55.21	-50.0	-53.5	12.1	4.36e-04	0	61	0	884998144	63	5175
2026-01-01 01:02:51.15	224.26	53.82	-48.6	-50.9	14.8	0.00e+00	0	62	0	892338176	60	4561
2026-01-01 01:02:55.00	223.61	52.47	-48.5	-50.9	14.7	7.00e-07	0	62	0	899678208	60	4551
2026-01-01 01:02:58.85	223.02	51.15	-49.1	-51.5	14.2	7.00e-07	0	61	0	907018240	59	5210
2026-01-01 01:03:02.70	222.48	49.87	-50.4	-54.0	11.6	1.81e-04	0	62	0	914358272	62	5841
2026-01-01 01:03:06.55	221.98	48.62	-50.2	-53.5	12.1	3.64e-04	0	62	0	920649728	63	5177
2026-01-01 01:03:10.41	221.52	47.40	-49.7	-52.8	12.8	3.12e-05	0	62	0	927989760	62	5092
2026-01-01 01:03:14.27	221.09	46.21	-49.8	-52.8	12.8	8.77e-05	0	62	0	935329792	62	5071
2026-01-01 01:03:18.12	220.70	45.06	-49.4	-52.0	13.5	8.30e-06	0	62	0	942669824	61	4904
2026-01-01 01:03:21.96	220.34	43.94	-49.8	-52.9	12.7	7.17e-05	0	62	0	950009856	61	5434
2026-01-01 01:03:25.81	220.00	42.85	-50.1	-53.6	11.9	2.99e-04	0	62	0	957349888	62	5572
2026-01-01 01:03:29.66	219.68	41.78	-50.2	-53.8	11.6	3.79e-04	0	62	0	964689920	62	5722
2026-01-01 01:03:33.51	219.39	40.75	-50.2	-53.6	12.0	3.26e-04	0	62	0	972029952	62	5576
2026-01-01 01:03:37.36	219.11	39.74	-50.6	-54.6	10.9	2.51e-03	0	62	0	979369984	63	5871
2026-01-01 01:03:41.21	218.85	38.76	-50.5	-54.3	11.3	1.48e-03	0	62	0	985661440	63	5659
2026-01-01 01:03:45.06	218.61	37.81	-49.7	-52.6	13.0	4.65e-05	0	62	0	993001472	62	4948
2026-01-01 01:03:48.91	218.38	36.89	-49.6	-52.5	13.1	1.29e-05	0	62	0	1000341504	61	5184
2026-01-01 01:03:52.76	218.16	35.98	-49.3	-52.0	13.6	1.14e-05	0	62	0	1007681536	61	4878
2026-01-01 01:03:56.62	217.96	35.10	-49.1	-51.7	13.8	4.50e-06	0	62	0	1015021568	61	4745
2026-01-01 01:04:00.47	217.77	34.25	-49.1	-51.7	13.9	7.00e-07	0	62	0	1022361600	61	4721
2026-01-01 01:04:04.32	217.58	33.42	-49.2	-52.0	13.5	6.80e-06	0	62	0	1029701632	61	4922
2026-01-01 01:04:08.25	217.41	32.59	-49.3	-52.1	13.4	1.44e-05	0	62	0	1037041664	61	4976
2026-01-01 01:04:12.20	217.24	31.78	-50.0	-53.5	12.0	2.82e-04	0	62	0	1044381696	62	5491
2026-01-01 01:04:16.07	217.09	31.01	-50.1	-53.6	11.9	3.81e-04	0	62	0	1051721728	62	5565
2026-01-01 01:04:19.93	216.94	30.26	-50.2	-53.9	11.6	6.15e-04	0	62	0	1059061760	62	5730
2026-01-01 01:04:23.78	216.80	29.53	-50.0	-53.5	12.0	4.87e-04	0	62	0	1066401792	62	5502
2026-01-01 01:04:27.63	216.66	28.82	-49.1	-51.7	13.8	7.60e-06	0	62	0	1072693248	61	4725
2026-01-01 01:04:31.49	216.54	28.13	-49.0	-51.6	14.0	5.30e-06	0	62	0	1080033280	61	4671
2026-01-01 01:04:35.34	216.42	27.45	-48.8	-51.3	14.2	0.00e+00	0	62	0	1087373312	60	4784
2026-01-01 01:04:39.19	216.30	26.79	-49.1	-51.7	13.7	3.80e-06	0	62	0	1094713344	60	5036
2026-01-01 01:04:43.04	216.19	26.14	-48.8	-51.4	14.1	2.20e-06	0	62	0	1102053376	60	4833
2026-01-01 01:04:46.90	216.08	25.51	-48.6	-50.9	14.6	0.00e+00	0	62	0	1109393408	60	4590
2026-01-01 01:04:50.74	215.98	24.90	-48.3	-50.4	15.2	7.00e-07	0	62	0	1116733440	59	4547
2026-01-01 01:04:54.59	215.89	24.29	-48.1	-50.1	15.4	0.00e+00	0	62	0	1124073472	59	4435
2026-01-01 01:04:58.44	215.79	23.71	-48.2	-50.3	15.2	0.00e+00	0	62	0	1131413504	59	4510
2026-01-01 01:05:02.29	215.70	23.13	-48.5	-50.7	14.8	0.00e+00	0	62	0	1137704960	59	4720
2026-01-01 01:05:06.15	215.62	22.57	-48.5	-50.7	14.9	7.00e-07	0	62	0	1145044992	59	4707
2026-01-01 01:05:10.00	215.54	22.01	-48.3	-50.5	15.0	7.00e-07	0	62	0	1152385024	59	4626
2026-01-01 01:05:13.85	215.46	21.48	-48.2	-50.2	15.2	0.00e+00	0	62	0	1159725056	59	4492
2026-01-01 01:05:17.70	215.38	20.95	-48.2	-50.3	15.2	0.00e+00	0	62	0	1167065088	59	4506
2026-01-01 01:05:21.56	215.31	20.43	-48.5	-50.8	14.7	0.00e+00	0	62	0	1174405120	59	4761
2026-01-01 01:05:25.41	215.24	19.92	-48.9	-51.4	14.0	7.00e-07	0	62	0	1181745152	59	5121
2026-01-01 01:05:29.28	215.17	19.42	-49.1	-51.9	13.5	7.60e-06	0	62	0	1189085184	60	5111
2026-01-01 01:05:33.13	215.11	18.93	-49.4	-52.4	13.0	3.73e-05	0	62	0	1196425216	60	5406
2026-01-01 01:05:36.98	215.05	18.46	-49.1	-51.8	13.6	8.30e-06	0	62	0	1202716672	60	5058
2026-01-01 01:05:40.83	214.99	17.99	-48.8	-51.3	14.1	7.00e-07	0	62	0	1210056704	60	4788
2026-01-01 01:05:44.69	214.93	17.53	-48.9	-51.5	13.9	3.00e-06	0	62	0	1217396736	60	4889
2026-01-01 01:05:48.54	214.87	17.08	-49.2	-51.9	13.4	9.90e-06	0	62	0	1224736768	60	5152
2026-01-01 01:05:52.39	214.82	16.63	-49.2	-51.9	13.4	1.29e-05	0	62	0	1232076800	60	5125
2026-01-01 01:05:56.24	214.77	16.20	-49.3	-52.2	13.1	2.59e-05	0	62	0	1239416832	60	5315
2026-01-01 01:06:00.10	214.72	15.77	-49.4	-52.5	12.8	5.95e-05	0	62	0	1246756864	61	5191
2026-01-01 01:06:03.96	214.67	15.35	-49.7	-52.9	12.3	1.07e-04	0	62	0	1254096896	61	5436
2026-01-01 01:06:07.81	214.63	14.93	-49.7	-52.9	12.4	1.39e-04	0	62	0	1261436928	61	5430
2026-01-01 01:06:11.65	214.58	14.53	-49.8	-53.1	12.1	3.31e-04	0	62	0	1267728384	61	5557
2026-01-01 01:06:15.51	214.54	14.13	-49.5	-52.6	12.6	1.01e-04	0	62	0	1275068416	61	5259
2026-01-01 01:06:19.36	214.50	13.73	-49.5	-52.6	12.6	1.10e-04	0	62	0	1282408448	61	5239
2026-01-01 01:06:23.21	214.46	13.35	-49.3	-52.1	13.1	2.59e-05	0	62	0	1289748480	61	4974
2026-01-01 01:06:27.06	214.42	12.96	-49.3	-52.2	13.0	3.05e-05	0	62	0	1297088512	61	4996
2026-01-01 01:06:30.91	214.38	12.59	-49.4	-52.4	12.8	6.40e-05	0	62	0	1304428544	61	5126
2026-01-01 01:06:34.76	214.34	12.22	-49.6	-52.8	12.3	1.42e-04	0	62	0	1311768576	61	5386
2026-01-01 01:06:38.61	214.31	11.86	-49.4	-52.5	12.6	8.08e-05	0	62	0	1319108608	61	5211
2026-01-01 01:06:42.46	214.28	11.50	-49.5	-52.8	12.3	1.96e-04	0	62	0	1326448640	61	5372
2026-01-01 01:06:46.30	214.24	11.14	-49.1	-51.9	13.2	2.05e-05	0	62	0	1332740096	61	4857
2026-01-01 01:06:50.16	214.21	10.79	-49.3	-52.3	12.8	4.80e-05	0	62	0	1340080128	61	5068
2026-01-01 01:06:54.01	214.18	10.45	-49.2	-52.4	12.7	8.39e-05	0	62	0	1347420160	61	5131
2026-01-01 01:06:57.86	214.15	10.11	-49.4	-52.7	12.4	1.75e-04	0	62	0	1354760192	61	5281
2026-01-01 01:07:01.71	214.12	9.78	-49.5	-53.0	12.0	4.41e-04	0	62	0	1362100224	61	5494
2026-01-01 01:07:05.55	214.10	9.45	-49.8	-53.6	11.3	8.10e-04	0	62	0	1369440256	61	5884
2026-01-01 01:07:09.41	214.07	9.12	-50.0	-54.0	10.8	2.48e-03	0	62	0	1376780288	61	6184
2026-01-01 01:07:13.26	214.04	8.80	-50.1	-54.3	10.6	2.82e-03	0	62	0	1384120320	62	6027
2026-01-01 01:07:17.12	214.02	8.48	-50.0	-53.9	11.0	1.93e-03	0	62	0	1391460352	62	5724
2026-01-01 01:07:20.97	213.99	8.17	-49.9	-53.7	11.2	1.75e-03	0	62	0	1397751808	62	5618
2026-01-01 01:07:24.83	213.97	7.86	-49.9	-53.8	11.1	1.23e-03	0	62	0	1405091840	62	5668
2026-01-01 01:07:28.69	213.95	7.55	-49.9	-53.8	10.9	1.54e-03	0	62	0	1412431872	62	5699
2026-01-01 01:07:32.54	213.92	7.25	-49.7	-53.5	11.3	1.35e-03	0	62	0	1419771904	62	5469
2026-01-01 01:07:36.40	213.90	6.95	-49.8	-53.6	11.1	1.50e-03	0	62	0	1427111936	62	5548
2026-01-01 01:07:40.25	213.88	6.65	-49.8	-53.8	10.9	2.05e-03	0	62	0	1434451968	62	5667
2026-01-01 01:07:44.09	213.86	6.36	-49.9	-53.9	10.8	2.56e-03	0	62	0	1441792000	62	5737
2026-01-01 01:07:47.94	213.84	6.07	-50.1	-54.4	10.2	5.42e-03	0	62	0	1449132032	62	6094
2026-01-01 01:07:51.80	213.83	5.79	-49.9	-54.3	10.3	4.13e-03	0	62	0	1456472064	62	6039
2026-01-01 01:07:55.64	213.81	5.51	-50.0	-54.5	9.9	1.16e-02	0	62	0	1462763520	62	6191
2026-01-01 01:07:59.50	213.79	5.23	-49.7	-53.8	10.7	3.36e-03	0	62	0	1470103552	62	5685
2026-01-01 01:08:03.37	213.77	4.95	-51.4	-65.3	3.8	1.49e+00	0	62	104	1475346432	65	18061
2026-01-01 01:08:07.31	213.76	4.67	-52.5	-66.4	3.8	1.49e+00	0	62	104	1475346432	67	18183
2026-01-01 01:08:11.24	213.74	4.39	-52.7	-66.5	3.8	1.49e+00	0	62	104	1475346432	67	18509
2026-01-01 01:08:15.18	213.72	4.12	-52.8	-66.6	3.8	1.49e+00	0	62	104	1475346432	67	18685
2026-01-01 01:08:19.11	213.71	3.85	-52.9	-66.7	3.8	1.49e+00	0	62	104	1475346432	67	18750
2026-01-01 01:08:23.03	213.69	3.58	-52.9	-66.7	3.8	1.49e+00	0	62	104	1475346432	67	18847
2026-01-01 01:08:26.97	213.68	3.31	-52.9	-66.7	3.8	1.49e+00	0	62	104	1475346432	67	18945
2026-01-01 01:08:30.89	213.67	3.05	-52.7	-66.7	3.8	1.49e+00	0	62	104	1475346432	67	18860

#Closed at: 2026-01-01 01:08:34
#Recorded file [1475 MB]: D:/Data/31026_260101_040802.dat