passes_logs/2026/01/01/R3.0SM8_Murmansk_STILSPACE/R3.0SM8_Murmansk_STILSPACE__20260101_225516_NOAA_20_JPSS-1_rec.log

#Pass ID: 20260101_225516_NOAA 20 (JPSS-1)
#Satellite: NOAA 20 (JPSS-1)
#Configuration: NOAA 20
#almurnet v.1.7.20240730
#Start time: 2026-01-01 22:55:18

#Version: 2.2.20231116
#Station: R3.0SM8_Murmansk_STILSPACE
#Location: 33.092731 lon 68.902999 lat
#TLE: 1 43013U 17073A   26001.30344297  .00000183  00000+0  10758-3 0  9995
#TLE: 2 43013  98.7621 302.3885 0001938  59.1624 300.9742 14.19532032420790

#Time	Az	El	Level	Level2	SNR	BER	BlckErr	Temp	State	Recorded	gain1	gain2
2026-01-01 22:55:18.12	20.67	3.10	-52.2	-66.1	3.8	1.49e+00	0	47	0	0	66	18657
2026-01-01 22:55:22.07	20.90	3.34	-51.5	-65.4	3.8	1.49e+00	0	48	104	0	66	17190
2026-01-01 22:55:26.02	21.13	3.59	-50.1	-63.0	3.8	1.49e+00	0	48	104	0	62	16473
2026-01-01 22:55:29.96	21.36	3.83	-50.1	-63.8	3.8	1.49e+00	0	48	104	0	62	17968
2026-01-01 22:55:33.92	21.60	4.08	-50.2	-63.7	3.8	1.49e+00	0	48	104	0	62	17827
2026-01-01 22:55:37.88	21.84	4.33	-50.2	-63.5	3.8	1.49e+00	0	49	104	0	62	17441
2026-01-01 22:55:41.84	22.09	4.58	-50.0	-60.7	4.1	1.41e+00	0	49	0	0	62	12608
2026-01-01 22:55:45.80	22.34	4.83	-49.5	-57.2	5.8	4.62e-01	0	49	0	4194304	62	8416
2026-01-01 22:55:49.75	22.59	5.08	-49.4	-56.7	6.2	3.26e-01	0	50	0	11534336	61	8438
2026-01-01 22:55:53.72	22.85	5.34	-49.5	-55.7	7.4	1.33e-01	0	50	0	18874368	61	7540
2026-01-01 22:55:57.67	23.11	5.60	-49.6	-55.2	8.1	8.23e-02	0	50	0	26214400	61	7096
2026-01-01 22:56:01.64	23.38	5.86	-49.0	-53.1	10.6	4.37e-03	0	50	0	33554432	61	5535
2026-01-01 22:56:05.60	23.65	6.12	-48.7	-52.2	11.8	5.15e-04	0	50	0	40894464	60	5309
2026-01-01 22:56:09.55	23.92	6.39	-48.8	-52.2	12.0	3.20e-04	0	51	0	48234496	60	5319
2026-01-01 22:56:13.50	24.20	6.65	-48.7	-51.9	12.4	1.62e-04	0	51	0	55574528	60	5103
2026-01-01 22:56:17.45	24.49	6.92	-48.5	-51.4	12.9	3.96e-05	0	51	0	62914560	60	4862
2026-01-01 22:56:21.41	24.78	7.19	-48.7	-51.8	12.5	1.64e-04	0	51	0	70254592	60	5075
2026-01-01 22:56:25.36	25.07	7.47	-48.1	-50.7	13.7	7.60e-06	0	51	0	77594624	59	4741
2026-01-01 22:56:29.32	25.37	7.74	-48.1	-50.7	13.8	3.80e-06	0	51	0	85983232	59	4710
2026-01-01 22:56:33.28	25.68	8.02	-47.9	-50.3	14.3	7.00e-07	0	51	0	93323264	58	4777
2026-01-01 22:56:37.25	25.99	8.30	-47.9	-50.3	14.2	7.00e-07	0	52	0	100663296	58	4782
2026-01-01 22:56:41.23	26.31	8.59	-47.7	-50.0	14.6	7.00e-07	0	52	0	108003328	58	4599
2026-01-01 22:56:45.19	26.63	8.87	-47.8	-50.2	14.3	0.00e+00	0	52	0	115343360	58	4757
2026-01-01 22:56:49.16	26.96	9.16	-47.8	-50.1	14.5	2.20e-06	0	52	0	122683392	58	4693
2026-01-01 22:56:53.12	27.30	9.45	-47.8	-50.1	14.5	2.20e-06	0	52	0	130023424	58	4693
2026-01-01 22:56:57.09	27.64	9.75	-47.7	-49.8	14.8	0.00e+00	0	52	0	137363456	58	4540
2026-01-01 22:57:01.05	27.99	10.05	-47.4	-49.5	15.2	0.00e+00	0	53	0	144703488	57	4608
2026-01-01 22:57:05.01	28.35	10.35	-47.5	-49.7	15.0	0.00e+00	0	53	0	152043520	57	4711
2026-01-01 22:57:08.97	28.71	10.65	-47.3	-49.3	15.4	0.00e+00	0	53	0	159383552	57	4503
2026-01-01 22:57:12.92	29.08	10.95	-47.6	-49.8	15.0	0.00e+00	0	53	0	166723584	57	4760
2026-01-01 22:57:16.87	29.45	11.26	-47.2	-49.2	15.5	0.00e+00	0	53	0	174063616	57	4472
2026-01-01 22:57:20.82	29.83	11.57	-47.1	-49.0	15.8	0.00e+00	0	53	0	182452224	57	4365
2026-01-01 22:57:24.78	30.23	11.88	-47.1	-49.1	15.7	0.00e+00	0	53	0	189792256	57	4405
2026-01-01 22:57:28.74	30.63	12.20	-46.9	-48.7	16.1	0.00e+00	0	54	0	197132288	56	4473
2026-01-01 22:57:32.69	31.03	12.52	-47.0	-49.0	15.9	0.00e+00	0	54	0	204472320	56	4599
2026-01-01 22:57:36.64	31.45	12.84	-47.2	-49.1	15.7	0.00e+00	0	54	0	211812352	56	4698
2026-01-01 22:57:40.59	31.88	13.16	-47.3	-49.3	15.6	0.00e+00	0	54	0	219152384	56	4765
2026-01-01 22:57:44.54	32.31	13.49	-47.2	-49.1	15.7	0.00e+00	0	54	0	226492416	56	4694
2026-01-01 22:57:48.50	32.75	13.82	-47.2	-49.1	15.8	0.00e+00	0	54	0	233832448	56	4696
2026-01-01 22:57:52.47	33.21	14.15	-47.3	-49.1	15.8	0.00e+00	0	54	0	241172480	56	4705
2026-01-01 22:57:56.43	33.67	14.49	-47.3	-49.3	15.6	0.00e+00	0	54	0	248512512	56	4769
2026-01-01 22:58:00.39	34.15	14.83	-47.3	-49.2	15.7	0.00e+00	0	54	0	255852544	56	4739
2026-01-01 22:58:04.34	34.63	15.17	-47.4	-49.3	15.6	0.00e+00	0	54	0	263192576	56	4778
2026-01-01 22:58:08.30	35.12	15.52	-47.3	-49.3	15.6	0.00e+00	0	54	0	270532608	56	4809
2026-01-01 22:58:12.27	35.63	15.87	-47.7	-49.8	15.1	0.00e+00	0	54	0	278921216	57	4767
2026-01-01 22:58:16.23	36.15	16.22	-47.6	-49.6	15.4	0.00e+00	0	54	0	286261248	57	4679
2026-01-01 22:58:20.19	36.68	16.58	-47.6	-49.7	15.2	0.00e+00	0	55	0	293601280	57	4754
2026-01-01 22:58:24.14	37.22	16.93	-47.8	-50.0	14.9	0.00e+00	0	54	0	300941312	57	4923
2026-01-01 22:58:28.09	37.78	17.29	-47.2	-49.0	15.9	0.00e+00	0	55	0	308281344	57	4390
2026-01-01 22:58:32.04	38.34	17.66	-47.1	-48.9	16.1	0.00e+00	0	55	0	315621376	57	4292
2026-01-01 22:58:36.00	38.92	18.02	-47.3	-49.2	15.8	0.00e+00	0	55	0	322961408	57	4491
2026-01-01 22:58:39.96	39.52	18.39	-47.2	-49.1	15.9	0.00e+00	0	55	0	330301440	57	4426
2026-01-01 22:58:43.92	40.13	18.76	-47.3	-49.2	15.8	0.00e+00	0	55	0	337641472	57	4487
2026-01-01 22:58:47.87	40.75	19.14	-47.1	-49.0	16.1	0.00e+00	0	55	0	344981504	57	4350
2026-01-01 22:58:51.82	41.39	19.51	-47.4	-49.3	15.8	0.00e+00	0	55	0	352321536	57	4502
2026-01-01 22:58:55.78	42.04	19.89	-47.1	-48.8	16.3	0.00e+00	0	55	0	359661568	57	4261
2026-01-01 22:58:59.72	42.71	20.27	-46.8	-48.5	16.5	0.00e+00	0	55	0	368050176	56	4378
2026-01-01 22:59:03.67	43.39	20.65	-47.1	-48.9	16.2	0.00e+00	0	55	0	375390208	56	4587
2026-01-01 22:59:07.63	44.10	21.03	-46.8	-48.5	16.6	0.00e+00	0	55	0	382730240	56	4345
2026-01-01 22:59:11.58	44.81	21.42	-46.7	-48.3	16.7	0.00e+00	0	55	0	390070272	56	4272
2026-01-01 22:59:15.54	45.55	21.81	-46.1	-47.6	17.4	0.00e+00	0	55	0	397410304	55	4156
2026-01-01 22:59:19.49	46.31	22.19	-46.2	-47.7	17.3	0.00e+00	0	55	0	404750336	55	4196
2026-01-01 22:59:23.44	47.08	22.58	-45.9	-47.2	17.7	0.00e+00	0	55	0	412090368	54	4240
2026-01-01 22:59:27.40	47.87	22.97	-46.1	-47.5	17.5	0.00e+00	0	55	0	419430400	54	4383
2026-01-01 22:59:31.34	48.68	23.36	-46.2	-47.7	17.3	0.00e+00	0	56	0	426770432	54	4447
2026-01-01 22:59:35.30	49.52	23.75	-46.3	-47.7	17.2	0.00e+00	0	56	0	434110464	54	4488
2026-01-01 22:59:39.25	50.37	24.14	-46.3	-47.8	17.2	0.00e+00	0	56	0	441450496	54	4507
2026-01-01 22:59:43.22	51.25	24.53	-46.1	-47.6	17.4	0.00e+00	0	56	0	448790528	54	4401
2026-01-01 22:59:47.17	52.14	24.92	-46.3	-47.8	17.2	0.00e+00	0	56	0	456130560	54	4513
2026-01-01 22:59:51.12	53.06	25.30	-46.3	-47.8	17.2	0.00e+00	0	56	0	463470592	54	4499
2026-01-01 22:59:55.08	54.00	25.69	-46.6	-48.2	16.9	0.00e+00	0	56	0	470810624	55	4445
2026-01-01 22:59:59.03	54.96	26.07	-47.0	-48.7	16.3	0.00e+00	0	56	0	479199232	55	4723
2026-01-01 23:00:02.98	55.94	26.44	-47.4	-49.2	15.9	0.00e+00	0	56	0	486539264	56	4745
2026-01-01 23:00:06.92	56.94	26.82	-47.5	-49.5	15.7	0.00e+00	0	56	0	493879296	56	4876
2026-01-01 23:00:10.88	57.98	27.19	-47.8	-49.8	15.3	0.00e+00	0	56	0	501219328	57	4775
2026-01-01 23:00:14.83	59.03	27.55	-48.0	-50.1	15.1	0.00e+00	0	56	0	508559360	57	4934
2026-01-01 23:00:18.79	60.11	27.91	-48.7	-51.4	13.7	3.80e-06	0	56	0	515899392	59	5144
2026-01-01 23:00:22.74	61.21	28.26	-48.9	-51.6	13.5	9.90e-06	0	56	0	523239424	59	5273
2026-01-01 23:00:26.72	62.34	28.61	-48.9	-51.7	13.4	1.29e-05	0	56	0	530579456	60	4996
2026-01-01 23:00:30.67	63.49	28.95	-48.8	-51.5	13.7	8.30e-06	0	56	0	537919488	60	4883
2026-01-01 23:00:34.62	64.66	29.28	-49.1	-52.1	13.1	3.12e-05	0	56	0	545259520	60	5224
2026-01-01 23:00:38.58	65.86	29.60	-49.1	-52.1	13.0	2.21e-05	0	56	0	552599552	60	5264
2026-01-01 23:00:42.54	67.08	29.91	-49.5	-52.8	12.3	1.53e-04	0	56	0	559939584	60	5699
2026-01-01 23:00:46.50	68.33	30.21	-49.4	-52.5	12.6	2.72e-04	0	56	0	567279616	61	5176
2026-01-01 23:00:50.45	69.59	30.50	-48.1	-50.2	15.0	0.00e+00	0	56	0	574619648	59	4487
2026-01-01 23:00:54.42	70.89	30.77	-49.7	-53.1	12.0	1.26e-04	0	56	0	583008256	61	5560
2026-01-01 23:00:58.37	72.19	31.03	-49.8	-53.2	11.9	4.30e-04	0	56	0	590348288	61	5638
2026-01-01 23:01:02.33	73.53	31.28	-49.6	-53.0	12.2	2.00e-04	0	56	0	597688320	61	5467
2026-01-01 23:01:06.28	74.87	31.51	-49.7	-53.0	12.0	4.44e-04	0	56	0	605028352	61	5528
2026-01-01 23:01:10.23	76.24	31.73	-48.9	-51.6	13.6	5.30e-06	0	56	0	612368384	60	4928
2026-01-01 23:01:14.18	77.62	31.93	-49.0	-51.8	13.3	2.59e-05	0	56	0	619708416	60	5097
2026-01-01 23:01:18.14	79.03	32.11	-49.0	-51.8	13.4	1.60e-05	0	57	0	627048448	60	5073
2026-01-01 23:01:22.09	80.44	32.28	-48.5	-51.1	14.1	1.50e-06	0	57	0	634388480	60	4668
2026-01-01 23:01:26.06	81.88	32.43	-48.7	-51.3	13.9	6.80e-06	0	57	0	641728512	60	4804
2026-01-01 23:01:30.03	83.33	32.56	-48.7	-51.3	13.9	1.50e-06	0	56	0	649068544	60	4778
2026-01-01 23:01:33.96	84.77	32.66	-49.1	-52.1	13.0	3.28e-05	0	56	0	656408576	60	5271
2026-01-01 23:01:37.91	86.23	32.75	-49.1	-52.1	13.0	3.96e-05	0	57	0	663748608	60	5253
2026-01-01 23:01:41.88	87.71	32.82	-48.7	-51.2	14.0	2.20e-06	0	57	0	671088640	60	4719
2026-01-01 23:01:45.83	89.18	32.87	-48.7	-51.3	13.9	4.50e-06	0	57	0	679477248	60	4792
2026-01-01 23:01:49.79	90.66	32.90	-48.4	-50.7	14.5	7.00e-07	0	57	0	686817280	59	4738
2026-01-01 23:01:53.75	92.14	32.91	-49.2	-52.2	12.8	5.87e-05	0	57	0	694157312	60	5322
2026-01-01 23:01:57.71	93.62	32.89	-49.0	-51.9	13.3	1.60e-05	0	56	0	701497344	60	5141
2026-01-01 23:02:01.66	95.10	32.86	-48.4	-50.9	14.2	1.50e-06	0	57	0	708837376	60	4579
2026-01-01 23:02:05.62	96.57	32.80	-49.5	-52.8	12.3	9.15e-05	0	57	0	716177408	60	5694
2026-01-01 23:02:09.58	98.04	32.73	-49.9	-53.7	11.4	5.87e-04	0	56	0	723517440	61	5948
2026-01-01 23:02:13.54	99.50	32.63	-49.7	-53.1	12.0	3.42e-04	0	57	0	730857472	61	5552
2026-01-01 23:02:17.50	100.96	32.52	-49.6	-53.0	12.1	2.52e-04	0	57	0	738197504	61	5498
2026-01-01 23:02:21.46	102.40	32.38	-50.1	-53.9	11.2	1.40e-03	0	57	0	745537536	62	5730
2026-01-01 23:02:25.42	103.83	32.23	-50.1	-54.1	11.0	1.18e-03	0	57	0	752877568	62	5868
2026-01-01 23:02:29.37	105.24	32.06	-49.4	-52.6	12.6	1.05e-04	0	57	0	760217600	62	4928
2026-01-01 23:02:33.33	106.64	31.87	-49.1	-51.9	13.3	1.37e-05	0	57	0	767557632	61	4828
2026-01-01 23:02:37.29	108.03	31.66	-49.1	-52.0	13.2	2.97e-05	0	57	0	775946240	61	4883
2026-01-01 23:02:41.23	109.39	31.44	-49.3	-52.5	12.5	1.62e-04	0	57	0	783286272	61	5203
2026-01-01 23:02:45.19	110.73	31.20	-49.3	-52.3	12.9	4.11e-05	0	57	0	790626304	61	5045
2026-01-01 23:02:49.16	112.06	30.95	-49.0	-51.7	13.5	1.83e-05	0	57	0	797966336	60	5031
2026-01-01 23:02:53.11	113.37	30.68	-49.3	-52.3	12.8	5.87e-05	0	57	0	805306368	60	5370
2026-01-01 23:02:57.06	114.65	30.40	-48.7	-51.3	13.8	4.50e-06	0	57	0	812646400	60	4782
2026-01-01 23:03:01.03	115.92	30.11	-48.6	-51.0	14.1	3.80e-06	0	57	0	819986432	60	4637
2026-01-01 23:03:05.00	117.16	29.80	-48.9	-51.5	13.6	2.20e-06	0	57	0	827326464	60	4922
2026-01-01 23:03:08.97	118.38	29.48	-49.5	-52.7	12.4	1.33e-04	0	57	0	834666496	60	5645
2026-01-01 23:03:12.93	119.57	29.16	-49.4	-52.5	12.7	1.07e-04	0	57	0	842006528	60	5518
2026-01-01 23:03:16.88	120.74	28.83	-48.5	-50.9	14.2	3.80e-06	0	57	0	849346560	60	4571
2026-01-01 23:03:20.86	121.89	28.48	-49.3	-52.3	12.8	6.10e-05	0	57	0	856686592	60	5372
2026-01-01 23:03:24.82	123.01	28.13	-49.3	-52.4	12.7	4.57e-05	0	57	0	865075200	60	5420
2026-01-01 23:03:28.77	124.11	27.78	-49.0	-51.8	13.3	3.96e-05	0	57	0	872415232	61	4783
2026-01-01 23:03:32.73	125.18	27.41	-47.8	-49.7	15.4	0.00e+00	0	57	0	879755264	58	4486
2026-01-01 23:03:36.68	126.23	27.04	-47.9	-49.9	15.2	0.00e+00	0	57	0	887095296	58	4587
2026-01-01 23:03:40.63	127.26	26.67	-48.6	-51.1	14.1	0.00e+00	0	57	0	894435328	59	4949
2026-01-01 23:03:44.59	128.26	26.29	-49.4	-52.5	12.6	2.13e-04	0	57	0	901775360	61	5201
2026-01-01 23:03:48.54	129.24	25.91	-49.2	-52.1	13.1	3.66e-05	0	57	0	909115392	61	4942
2026-01-01 23:03:52.51	130.20	25.53	-48.0	-50.1	15.0	0.00e+00	0	57	0	916455424	58	4683
2026-01-01 23:03:56.46	131.13	25.14	-48.2	-50.5	14.6	0.00e+00	0	57	0	923795456	58	4886
2026-01-01 23:04:00.42	132.04	24.75	-47.2	-48.9	16.2	0.00e+00	0	57	0	931135488	57	4339
2026-01-01 23:04:04.37	132.93	24.37	-47.6	-49.6	15.4	0.00e+00	0	57	0	938475520	57	4705
2026-01-01 23:04:08.31	133.80	23.98	-47.2	-49.0	16.1	0.00e+00	0	57	0	945815552	57	4370
2026-01-01 23:04:12.27	134.65	23.58	-47.5	-49.4	15.7	0.00e+00	0	57	0	953155584	57	4561
2026-01-01 23:04:16.20	135.47	23.19	-47.2	-48.9	16.2	0.00e+00	0	57	0	960495616	57	4328
2026-01-01 23:04:20.14	136.27	22.80	-47.0	-48.7	16.5	0.00e+00	0	57	0	967835648	56	4454
2026-01-01 23:04:24.09	137.06	22.41	-47.2	-49.1	16.1	0.00e+00	0	57	0	975175680	56	4653
2026-01-01 23:04:28.05	137.83	22.02	-46.7	-48.3	16.7	0.00e+00	0	57	0	983564288	56	4291
2026-01-01 23:04:31.99	138.58	21.63	-46.7	-48.3	16.8	0.00e+00	0	57	0	990904320	56	4274
2026-01-01 23:04:35.94	139.31	21.25	-46.0	-47.4	17.5	0.00e+00	0	57	0	998244352	55	4078
2026-01-01 23:04:39.90	140.03	20.86	-46.0	-47.4	17.6	0.00e+00	0	57	0	1005584384	54	4292
2026-01-01 23:04:43.87	140.73	20.47	-45.9	-47.3	17.6	0.00e+00	0	57	0	1012924416	54	4269
2026-01-01 23:04:47.82	141.41	20.09	-45.8	-47.2	17.7	0.00e+00	0	57	0	1020264448	54	4195
2026-01-01 23:04:51.76	142.07	19.71	-45.9	-47.3	17.7	0.00e+00	0	57	0	1027604480	54	4262
2026-01-01 23:04:55.71	142.72	19.33	-46.7	-48.4	16.6	0.00e+00	0	57	0	1034944512	55	4553
2026-01-01 23:04:59.67	143.35	18.95	-46.7	-48.3	16.6	0.00e+00	0	57	0	1042284544	55	4525
2026-01-01 23:05:03.64	143.97	18.57	-46.5	-48.1	16.8	0.00e+00	0	57	0	1049624576	55	4429
2026-01-01 23:05:07.59	144.58	18.20	-46.6	-48.3	16.6	0.00e+00	0	57	0	1056964608	55	4521
2026-01-01 23:05:11.55	145.17	17.83	-46.7	-48.3	16.6	0.00e+00	0	57	0	1064304640	55	4536
2026-01-01 23:05:15.51	145.75	17.46	-46.9	-48.7	16.2	0.00e+00	0	57	0	1071644672	55	4751
2026-01-01 23:05:19.47	146.31	17.10	-47.3	-49.1	15.8	0.00e+00	0	57	0	1080033280	56	4705
2026-01-01 23:05:23.44	146.86	16.74	-47.7	-49.8	15.1	0.00e+00	0	57	0	1087373312	57	4791
2026-01-01 23:05:27.39	147.40	16.38	-48.3	-50.7	14.2	0.00e+00	0	57	0	1094713344	58	5035
2026-01-01 23:05:31.34	147.92	16.02	-47.8	-49.8	15.1	0.00e+00	0	57	0	1102053376	58	4534
2026-01-01 23:05:35.30	148.44	15.67	-47.4	-49.4	15.5	0.00e+00	0	57	0	1109393408	57	4569
2026-01-01 23:05:39.26	148.94	15.32	-48.1	-50.4	14.5	7.00e-07	0	57	0	1116733440	58	4853
2026-01-01 23:05:43.21	149.43	14.98	-48.4	-50.9	14.1	6.80e-06	0	57	0	1124073472	58	5106
2026-01-01 23:05:47.16	149.91	14.63	-48.2	-50.5	14.4	1.50e-06	0	57	0	1131413504	58	4916
2026-01-01 23:05:51.12	150.38	14.29	-47.6	-49.6	15.3	0.00e+00	0	57	0	1138753536	58	4403
2026-01-01 23:05:55.09	150.84	13.95	-47.8	-50.0	14.9	0.00e+00	0	57	0	1146093568	58	4616
2026-01-01 23:05:59.04	151.29	13.62	-48.1	-50.5	14.4	7.00e-07	0	57	0	1153433600	58	4873
2026-01-01 23:06:03.00	151.73	13.29	-47.5	-49.6	15.3	0.00e+00	0	57	0	1160773632	58	4405
2026-01-01 23:06:06.95	152.16	12.96	-47.4	-49.4	15.4	0.00e+00	0	57	0	1168113664	57	4576
2026-01-01 23:06:10.90	152.58	12.63	-47.2	-49.1	15.7	0.00e+00	0	57	0	1175453696	57	4416
2026-01-01 23:06:14.86	152.99	12.31	-47.6	-49.6	15.2	0.00e+00	0	57	0	1183842304	57	4696
2026-01-01 23:06:18.80	153.40	11.99	-47.6	-49.8	15.0	0.00e+00	0	57	0	1191182336	57	4768
2026-01-01 23:06:22.76	153.79	11.68	-47.4	-49.4	15.3	0.00e+00	0	57	0	1198522368	57	4593
2026-01-01 23:06:26.72	154.18	11.36	-47.2	-49.2	15.6	0.00e+00	0	57	0	1205862400	57	4444
2026-01-01 23:06:30.67	154.56	11.05	-47.2	-49.2	15.6	0.00e+00	0	57	0	1213202432	57	4466
2026-01-01 23:06:34.62	154.93	10.74	-47.4	-49.5	15.2	0.00e+00	0	57	0	1220542464	57	4643
2026-01-01 23:06:38.58	155.30	10.44	-47.6	-49.7	15.0	0.00e+00	0	57	0	1227882496	57	4726
2026-01-01 23:06:42.54	155.66	10.14	-47.6	-49.7	15.0	0.00e+00	0	57	0	1235222528	57	4719
2026-01-01 23:06:46.48	156.01	9.84	-47.7	-49.9	14.7	7.00e-07	0	57	0	1242562560	57	4859
2026-01-01 23:06:50.45	156.35	9.54	-47.8	-50.0	14.6	0.00e+00	0	57	0	1249902592	57	4910
2026-01-01 23:06:54.41	156.69	9.25	-48.1	-50.5	14.1	3.00e-06	0	57	0	1257242624	58	4895
2026-01-01 23:06:58.37	157.02	8.95	-48.2	-50.9	13.7	3.80e-06	0	57	0	1264582656	58	5136
2026-01-01 23:07:02.32	157.35	8.66	-48.5	-51.3	13.2	1.75e-05	0	57	0	1271922688	58	5376
2026-01-01 23:07:06.28	157.67	8.38	-48.7	-51.7	12.8	6.17e-05	0	57	0	1280311296	59	5298
2026-01-01 23:07:10.25	157.98	8.09	-48.3	-51.0	13.5	1.22e-05	0	57	0	1287651328	59	4887
2026-01-01 23:07:14.22	158.29	7.81	-48.2	-50.8	13.7	6.10e-06	0	57	0	1294991360	59	4774
2026-01-01 23:07:18.18	158.59	7.53	-48.3	-51.0	13.4	1.75e-05	0	57	0	1302331392	59	4896
2026-01-01 23:07:22.15	158.89	7.25	-48.3	-51.2	13.0	4.19e-05	0	57	0	1309671424	59	5037
2026-01-01 23:07:26.11	159.18	6.98	-48.6	-52.0	11.9	2.85e-04	0	57	0	1317011456	59	5482
2026-01-01 23:07:30.06	159.47	6.71	-48.6	-52.2	11.4	6.13e-04	0	57	0	1324351488	59	5643
2026-01-01 23:07:34.02	159.75	6.44	-48.9	-53.1	10.2	5.85e-03	0	57	0	1331691520	59	6262
2026-01-01 23:07:37.96	160.02	6.17	-48.6	-53.0	10.0	1.15e-02	0	57	0	1339031552	59	6163
2026-01-01 23:07:41.92	160.30	5.91	-48.3	-52.0	11.3	9.22e-04	0	57	0	1346371584	59	5499
2026-01-01 23:07:45.88	160.56	5.64	-48.6	-52.4	10.9	1.63e-03	0	57	0	1353711616	59	5785
2026-01-01 23:07:49.84	160.83	5.38	-48.8	-53.3	9.9	5.76e-03	0	57	0	1361051648	59	6355
2026-01-01 23:07:53.79	161.08	5.12	-48.4	-52.0	11.4	1.29e-03	0	57	0	1368391680	59	5519
2026-01-01 23:07:57.75	161.34	4.87	-51.9	-65.8	3.8	1.49e+00	0	57	104	1371537408	65	18988
2026-01-01 23:08:01.72	161.59	4.61	-52.3	-66.1	3.8	1.49e+00	0	57	104	1371537408	66	18635
2026-01-01 23:08:05.67	161.83	4.36	-52.2	-66.2	3.8	1.49e+00	0	57	104	1371537408	66	18915
2026-01-01 23:08:09.62	162.08	4.11	-52.4	-66.3	3.8	1.49e+00	0	57	104	1371537408	66	19035
2026-01-01 23:08:13.58	162.31	3.86	-52.4	-66.3	3.8	1.49e+00	0	57	104	1371537408	66	19133
2026-01-01 23:08:17.53	162.55	3.61	-52.5	-66.3	3.8	1.49e+00	0	57	104	1371537408	66	19098
2026-01-01 23:08:21.49	162.78	3.37	-52.5	-66.3	3.8	1.49e+00	0	57	104	1371537408	66	19112
2026-01-01 23:08:25.46	163.01	3.12	-52.4	-66.3	3.8	1.49e+00	0	57	104	1371537408	66	19010

#Closed at: 2026-01-01 23:08:29
#Recorded file [1371 MB]: D:/Data/31026_260102_020755.dat