passes_logs/2026/01/01/R3.0SM8_Murmansk_STILSPACE/R3.0SM8_Murmansk_STILSPACE__20260101_085058_SUOMI_NPP_rec.log

#Pass ID: 20260101_085058_SUOMI NPP
#Satellite: SUOMI NPP
#Configuration: NPP
#almurnet v.1.7.20240730
#Start time: 2026-01-01 08:50:58

#Version: 2.2.20231116
#Station: R3.0SM8_Murmansk_STILSPACE
#Location: 33.092731 lon 68.902999 lat
#TLE: 1 37849U 11061A   25364.87906317  .00000195  00000+0  11345-3 0  9992
#TLE: 2 37849  98.7794 302.0592 0002571  89.2401 270.9069 14.19520347734561

#Time	Az	El	Level	Level2	SNR	BER	BlckErr	Temp	State	Recorded	gain1	gain2
2026-01-01 08:50:58.15	133.81	3.01	-52.5	-66.4	3.8	1.49e+00	0	48	0	0	66	19194
2026-01-01 08:51:02.10	133.74	3.27	-52.5	-66.3	3.8	1.49e+00	0	48	104	0	67	18087
2026-01-01 08:51:06.06	133.67	3.53	-52.4	-66.3	3.8	1.49e+00	0	48	104	0	66	19155
2026-01-01 08:51:10.00	133.59	3.80	-52.5	-66.4	3.8	1.49e+00	0	49	104	0	66	19213
2026-01-01 08:51:13.96	133.52	4.07	-52.5	-66.4	3.8	1.49e+00	0	49	104	0	66	19224
2026-01-01 08:51:17.89	133.44	4.34	-52.5	-66.4	3.8	1.49e+00	0	49	104	0	66	19168
2026-01-01 08:51:21.86	133.37	4.62	-52.4	-66.3	3.8	1.49e+00	0	49	104	0	66	19072
2026-01-01 08:51:25.80	133.29	4.89	-52.4	-66.3	3.8	1.49e+00	0	50	104	0	66	19036
2026-01-01 08:51:29.77	133.21	5.18	-52.4	-66.2	3.8	1.49e+00	0	50	104	0	66	18933
2026-01-01 08:51:33.70	133.12	5.46	-52.4	-66.3	3.8	1.49e+00	0	50	104	0	66	19067
2026-01-01 08:51:37.67	133.04	5.75	-52.4	-66.3	3.8	1.49e+00	0	50	104	0	66	19109
2026-01-01 08:51:41.63	132.95	6.04	-52.5	-66.4	3.8	1.49e+00	0	51	104	0	66	19211
2026-01-01 08:51:45.58	132.86	6.33	-52.6	-66.4	3.8	1.49e+00	0	51	104	0	67	18183
2026-01-01 08:51:49.56	132.77	6.63	-52.4	-66.3	3.8	1.49e+00	0	51	104	0	67	18080
2026-01-01 08:51:53.51	132.68	6.93	-52.4	-66.4	3.8	1.49e+00	0	51	104	0	67	18185
2026-01-01 08:51:57.48	132.58	7.23	-52.5	-66.4	3.8	1.49e+00	0	51	104	0	67	18113
2026-01-01 08:52:01.43	132.49	7.54	-52.5	-66.3	3.8	1.49e+00	0	51	104	0	67	18090
2026-01-01 08:52:05.39	132.39	7.85	-52.6	-66.4	3.8	1.49e+00	0	51	104	0	67	18149
2026-01-01 08:52:09.34	132.29	8.16	-52.5	-66.4	3.8	1.49e+00	0	52	104	0	67	18098
2026-01-01 08:52:13.30	132.18	8.48	-52.5	-66.4	3.8	1.49e+00	0	52	104	0	67	18141
2026-01-01 08:52:17.24	132.07	8.80	-52.6	-66.4	3.8	1.49e+00	0	52	104	0	67	18101
2026-01-01 08:52:21.21	131.96	9.13	-52.5	-66.4	3.8	1.49e+00	0	52	104	0	67	18178
2026-01-01 08:52:25.15	131.85	9.46	-52.5	-66.4	3.8	1.49e+00	0	52	104	0	67	18128
2026-01-01 08:52:29.08	131.74	9.79	-52.6	-66.4	3.8	1.49e+00	0	52	104	0	67	18197
2026-01-01 08:52:33.02	131.62	10.13	-52.5	-66.4	3.8	1.49e+00	0	52	104	0	67	18134
2026-01-01 08:52:36.98	131.50	10.48	-52.5	-66.4	3.8	1.49e+00	0	53	104	0	67	18147
2026-01-01 08:52:40.93	131.37	10.82	-52.6	-66.4	3.8	1.49e+00	0	53	104	0	67	18143
2026-01-01 08:52:44.87	131.24	11.18	-52.5	-66.4	3.8	1.49e+00	0	53	104	0	67	18147
2026-01-01 08:52:48.82	131.11	11.53	-52.3	-66.4	3.8	1.49e+00	0	53	104	0	67	18156
2026-01-01 08:52:52.77	130.98	11.90	-52.5	-66.4	3.8	1.49e+00	0	53	104	0	67	18162
2026-01-01 08:52:56.71	130.84	12.27	-52.5	-66.4	3.8	1.49e+00	0	53	104	0	67	18113
2026-01-01 08:53:00.67	130.69	12.64	-52.5	-66.4	3.8	1.49e+00	0	53	104	0	67	18136
2026-01-01 08:53:04.62	130.55	13.02	-52.3	-66.4	3.8	1.49e+00	0	53	104	0	67	18149
2026-01-01 08:53:08.57	130.40	13.40	-52.3	-66.4	3.8	1.49e+00	0	53	104	0	67	18143
2026-01-01 08:53:12.53	130.24	13.80	-52.5	-66.4	3.8	1.49e+00	0	53	104	0	67	18160
2026-01-01 08:53:16.48	130.08	14.19	-52.6	-66.4	3.8	1.49e+00	0	54	104	0	67	18136
2026-01-01 08:53:20.44	129.92	14.60	-52.5	-66.4	3.8	1.49e+00	0	54	104	0	67	18152
2026-01-01 08:53:24.40	129.75	15.01	-52.6	-66.4	3.8	1.49e+00	0	54	104	0	67	18165
2026-01-01 08:53:28.35	129.57	15.43	-52.6	-66.4	3.8	1.49e+00	0	54	104	0	66	19273
2026-01-01 08:53:32.28	129.39	15.85	-52.6	-66.4	3.8	1.49e+00	0	54	104	0	66	19222
2026-01-01 08:53:36.25	129.20	16.28	-52.5	-66.4	3.8	1.49e+00	0	54	104	0	66	19236
2026-01-01 08:53:40.19	129.01	16.72	-52.5	-66.4	3.8	1.49e+00	0	54	104	0	66	19231
2026-01-01 08:53:44.14	128.82	17.17	-52.5	-66.4	3.8	1.49e+00	0	54	104	0	66	19262
2026-01-01 08:53:48.10	128.61	17.62	-52.6	-66.4	3.8	1.49e+00	0	54	104	0	66	19249
2026-01-01 08:53:52.05	128.40	18.09	-52.4	-66.4	3.8	1.49e+00	0	54	104	0	66	19241
2026-01-01 08:53:55.99	128.18	18.56	-52.5	-66.4	3.8	1.49e+00	0	54	104	0	66	19257
2026-01-01 08:53:59.94	127.96	19.03	-52.6	-66.4	3.8	1.49e+00	0	55	104	0	66	19230
2026-01-01 08:54:03.89	127.73	19.52	-52.5	-66.4	3.8	1.49e+00	0	54	104	0	67	18147
2026-01-01 08:54:07.84	127.49	20.02	-52.5	-66.4	3.8	1.49e+00	0	55	104	0	67	18165
2026-01-01 08:54:11.80	127.24	20.53	-52.5	-66.4	3.8	1.49e+00	0	55	104	0	67	18097
2026-01-01 08:54:15.76	126.98	21.05	-52.5	-66.4	3.8	1.49e+00	0	55	104	0	67	18168
2026-01-01 08:54:19.74	126.71	21.58	-52.6	-66.4	3.8	1.49e+00	0	55	104	0	67	18169
2026-01-01 08:54:23.70	126.43	22.12	-52.5	-66.4	3.8	1.49e+00	0	55	104	0	67	18134
2026-01-01 08:54:27.66	126.14	22.67	-52.5	-66.4	3.8	1.49e+00	0	55	104	0	66	19225
2026-01-01 08:54:31.61	125.84	23.23	-52.6	-66.4	3.8	1.49e+00	0	55	104	0	66	19239
2026-01-01 08:54:35.55	125.54	23.80	-52.5	-66.4	3.8	1.49e+00	0	55	104	0	67	18131
2026-01-01 08:54:39.51	125.21	24.38	-52.5	-66.4	3.8	1.49e+00	0	55	104	0	67	18144
2026-01-01 08:54:43.49	124.88	24.98	-52.5	-66.4	3.8	1.49e+00	0	55	104	0	67	18098
2026-01-01 08:54:47.43	124.53	25.59	-52.4	-66.4	3.8	1.49e+00	0	55	104	0	67	18145
2026-01-01 08:54:51.39	124.16	26.21	-52.6	-66.4	3.8	1.49e+00	0	55	104	0	67	18118
2026-01-01 08:54:55.35	123.79	26.85	-52.6	-66.4	3.8	1.49e+00	0	55	104	0	67	18162
2026-01-01 08:54:59.29	123.39	27.49	-52.5	-66.4	3.8	1.49e+00	0	55	104	0	67	18141
2026-01-01 08:55:03.20	122.99	28.15	-52.5	-66.4	3.8	1.49e+00	0	55	104	0	67	18195
2026-01-01 08:55:07.16	122.56	28.82	-52.4	-66.4	3.8	1.49e+00	0	56	104	0	67	18193
2026-01-01 08:55:11.10	122.11	29.51	-52.5	-66.4	3.8	1.49e+00	0	55	104	0	67	18200
2026-01-01 08:55:15.06	121.64	30.22	-52.4	-66.4	3.8	1.49e+00	0	55	104	0	67	18167
2026-01-01 08:55:19.02	121.15	30.94	-52.5	-66.4	3.8	1.49e+00	0	56	104	0	67	18187
2026-01-01 08:55:22.99	120.64	31.68	-52.6	-66.4	3.8	1.49e+00	0	56	104	0	67	18206
2026-01-01 08:55:26.95	120.10	32.44	-52.5	-66.4	3.8	1.49e+00	0	56	104	0	67	18224
2026-01-01 08:55:30.89	119.54	33.21	-52.4	-66.4	3.8	1.49e+00	0	56	104	0	67	18204
2026-01-01 08:55:34.84	118.94	33.99	-52.5	-66.4	3.8	1.49e+00	0	56	104	0	67	18214
2026-01-01 08:55:38.80	118.32	34.80	-52.5	-66.4	3.8	1.49e+00	0	56	104	0	67	18144
2026-01-01 08:55:42.75	117.67	35.62	-52.5	-66.4	3.8	1.49e+00	0	56	104	0	67	18175
2026-01-01 08:55:46.73	116.97	36.46	-52.5	-66.4	3.8	1.49e+00	0	56	104	0	67	18157
2026-01-01 08:55:50.68	116.25	37.31	-52.5	-66.4	3.8	1.49e+00	0	56	104	0	67	18128
2026-01-01 08:55:54.64	115.48	38.18	-52.6	-66.4	3.8	1.49e+00	0	56	104	0	67	18140
2026-01-01 08:55:58.61	114.66	39.07	-52.6	-66.4	3.8	1.49e+00	0	56	104	0	67	18199
2026-01-01 08:56:02.56	113.81	39.98	-52.6	-66.4	3.8	1.49e+00	0	56	104	0	67	18161
2026-01-01 08:56:06.52	112.90	40.90	-52.5	-66.4	3.8	1.49e+00	0	56	104	0	67	18176
2026-01-01 08:56:10.48	111.94	41.83	-52.5	-66.4	3.8	1.49e+00	0	56	104	0	67	18147
2026-01-01 08:56:14.45	110.91	42.78	-52.6	-66.4	3.8	1.49e+00	0	56	104	0	67	18205
2026-01-01 08:56:18.41	109.83	43.75	-52.6	-66.4	3.8	1.49e+00	0	56	104	0	67	18188
2026-01-01 08:56:22.36	108.68	44.72	-52.5	-66.4	3.8	1.49e+00	0	56	104	0	67	18165
2026-01-01 08:56:26.31	107.45	45.70	-52.4	-66.4	3.8	1.49e+00	0	56	104	0	67	18151
2026-01-01 08:56:30.27	106.14	46.70	-52.6	-66.4	3.8	1.49e+00	0	56	104	0	67	18177
2026-01-01 08:56:34.22	104.75	47.69	-52.6	-66.4	3.8	1.49e+00	0	56	104	0	67	18242
2026-01-01 08:56:38.17	103.27	48.69	-52.6	-66.4	3.8	1.49e+00	0	56	104	0	67	18178
2026-01-01 08:56:42.13	101.68	49.70	-52.5	-66.4	3.8	1.49e+00	0	56	104	0	67	18141
2026-01-01 08:56:46.09	99.99	50.70	-52.6	-66.4	3.8	1.49e+00	0	56	104	0	67	18164
2026-01-01 08:56:50.06	98.17	51.70	-52.5	-66.4	3.8	1.49e+00	0	56	104	0	67	18198
2026-01-01 08:56:54.01	96.23	52.68	-52.4	-66.4	3.8	1.49e+00	0	56	104	0	67	18211
2026-01-01 08:56:57.95	94.17	53.64	-52.3	-66.4	3.8	1.49e+00	0	56	104	0	67	18169
2026-01-01 08:57:01.89	91.97	54.57	-52.5	-66.4	3.8	1.49e+00	0	56	104	0	67	18210
2026-01-01 08:57:05.84	89.61	55.48	-52.4	-66.4	3.8	1.49e+00	0	56	104	0	67	18250
2026-01-01 08:57:09.78	87.11	56.35	-52.4	-66.4	3.8	1.49e+00	0	56	104	0	67	18191
2026-01-01 08:57:13.73	84.44	57.18	-52.3	-66.4	3.8	1.49e+00	0	56	104	0	67	18211
2026-01-01 08:57:17.69	81.60	57.96	-52.6	-66.4	3.8	1.49e+00	0	56	104	0	67	18242
2026-01-01 08:57:21.64	78.61	58.68	-52.4	-66.4	3.8	1.49e+00	0	56	104	0	67	18192
2026-01-01 08:57:25.60	75.44	59.33	-52.5	-66.4	3.8	1.49e+00	0	56	104	0	67	18162
2026-01-01 08:57:29.54	72.15	59.90	-52.4	-66.4	3.8	1.49e+00	0	56	104	0	67	18165
2026-01-01 08:57:33.50	68.70	60.39	-52.4	-66.4	3.8	1.49e+00	0	56	104	0	67	18191
2026-01-01 08:57:37.46	65.12	60.78	-52.6	-66.4	3.8	1.49e+00	0	56	104	0	67	18195
2026-01-01 08:57:41.41	61.46	61.07	-52.5	-66.4	3.8	1.49e+00	0	56	104	0	67	18176
2026-01-01 08:57:45.35	57.73	61.26	-52.6	-66.4	3.8	1.49e+00	0	56	104	0	67	18182
2026-01-01 08:57:49.30	53.96	61.34	-52.5	-66.4	3.8	1.49e+00	0	56	104	0	67	18236
2026-01-01 08:57:53.26	50.17	61.31	-52.4	-66.4	3.8	1.49e+00	0	56	104	0	67	18212
2026-01-01 08:57:57.21	46.41	61.18	-52.4	-66.4	3.8	1.49e+00	0	56	104	0	67	18162
2026-01-01 08:58:01.16	42.71	60.93	-52.5	-66.4	3.8	1.49e+00	0	56	104	0	67	18153
2026-01-01 08:58:05.12	39.09	60.59	-52.2	-66.4	3.8	1.49e+00	0	56	104	0	67	18167
2026-01-01 08:58:09.07	35.59	60.15	-52.6	-66.4	3.8	1.49e+00	0	56	104	0	67	18168
2026-01-01 08:58:13.03	32.21	59.62	-52.4	-66.4	3.8	1.49e+00	0	56	104	0	67	18191
2026-01-01 08:58:16.99	28.98	59.00	-52.3	-66.4	3.8	1.49e+00	0	56	104	0	67	18194
2026-01-01 08:58:20.95	25.90	58.32	-52.6	-66.4	3.8	1.49e+00	0	56	104	0	67	18210
2026-01-01 08:58:24.90	22.99	57.57	-52.5	-66.4	3.8	1.49e+00	0	56	104	0	67	18234
2026-01-01 08:58:28.87	20.24	56.76	-52.6	-66.4	3.8	1.49e+00	0	56	104	0	67	18204
2026-01-01 08:58:32.82	17.65	55.90	-52.4	-66.4	3.8	1.49e+00	0	56	104	0	67	18195
2026-01-01 08:58:36.77	15.23	55.01	-52.6	-66.4	3.8	1.49e+00	0	56	104	0	67	18119
2026-01-01 08:58:40.74	12.95	54.08	-52.5	-66.4	3.8	1.49e+00	0	57	104	0	67	18154
2026-01-01 08:58:44.70	10.81	53.13	-52.6	-66.4	3.8	1.49e+00	0	56	104	0	67	18202
2026-01-01 08:58:48.66	8.82	52.16	-52.6	-66.4	3.8	1.49e+00	0	56	104	0	67	18207
2026-01-01 08:58:52.63	6.95	51.17	-52.5	-66.4	3.8	1.49e+00	0	56	104	0	67	18161
2026-01-01 08:58:56.59	5.20	50.17	-52.4	-66.4	3.8	1.49e+00	0	57	104	0	67	18165
2026-01-01 08:59:00.54	3.57	49.17	-52.6	-66.4	3.8	1.49e+00	0	56	104	0	67	18193
2026-01-01 08:59:04.48	2.05	48.18	-52.4	-66.4	3.8	1.49e+00	0	56	104	0	67	18253
2026-01-01 08:59:08.45	0.61	47.17	-52.3	-66.4	3.8	1.49e+00	0	57	104	0	67	18203
2026-01-01 08:59:12.41	359.27	46.18	-52.5	-66.4	3.8	1.49e+00	0	57	104	0	67	18149
2026-01-01 08:59:16.36	358.01	45.19	-52.5	-66.4	3.8	1.49e+00	0	56	104	0	67	18183
2026-01-01 08:59:20.32	356.82	44.22	-52.6	-66.4	3.8	1.49e+00	0	57	104	0	67	18221
2026-01-01 08:59:24.27	355.71	43.25	-52.4	-66.4	3.8	1.49e+00	0	57	104	0	67	18156
2026-01-01 08:59:28.24	354.66	42.30	-52.5	-66.4	3.8	1.49e+00	0	56	104	0	67	18156
2026-01-01 08:59:32.17	353.68	41.36	-52.5	-66.4	3.8	1.49e+00	0	57	104	0	67	18220
2026-01-01 08:59:36.11	352.75	40.44	-52.6	-66.4	3.8	1.49e+00	0	57	104	0	67	18219
2026-01-01 08:59:40.06	351.88	39.54	-52.6	-66.4	3.8	1.49e+00	0	57	104	0	67	18175
2026-01-01 08:59:44.03	351.04	38.64	-52.5	-66.4	3.8	1.49e+00	0	57	104	0	67	18196
2026-01-01 08:59:48.00	350.25	37.76	-52.5	-66.4	3.8	1.49e+00	0	57	104	0	67	18194
2026-01-01 08:59:51.97	349.51	36.90	-52.6	-66.4	3.8	1.49e+00	0	57	104	0	67	18231
2026-01-01 08:59:55.94	348.80	36.05	-52.5	-66.4	3.8	1.49e+00	0	57	104	0	67	18201
2026-01-01 08:59:59.88	348.13	35.23	-52.6	-66.4	3.8	1.49e+00	0	57	104	0	67	18144
2026-01-01 09:00:03.84	347.50	34.42	-52.4	-66.4	3.8	1.49e+00	0	56	104	0	67	18174
2026-01-01 09:00:07.81	346.89	33.62	-52.5	-66.4	3.8	1.49e+00	0	57	104	0	67	18147
2026-01-01 09:00:11.77	346.31	32.85	-52.6	-66.4	3.8	1.49e+00	0	57	104	0	67	18196
2026-01-01 09:00:15.72	345.76	32.09	-52.5	-66.4	3.8	1.49e+00	0	57	104	0	67	18209
2026-01-01 09:00:19.68	345.24	31.35	-52.4	-66.4	3.8	1.49e+00	0	57	104	0	67	18148
2026-01-01 09:00:23.63	344.74	30.62	-52.5	-66.4	3.8	1.49e+00	0	57	104	0	67	18176
2026-01-01 09:00:27.58	344.27	29.91	-52.4	-66.4	3.8	1.49e+00	0	57	104	0	67	18194
2026-01-01 09:00:31.52	343.81	29.21	-52.5	-66.4	3.8	1.49e+00	0	57	104	0	67	18206
2026-01-01 09:00:35.49	343.37	28.53	-52.5	-66.4	3.8	1.49e+00	0	57	104	0	67	18219
2026-01-01 09:00:39.45	342.96	27.86	-52.6	-66.4	3.8	1.49e+00	0	57	104	0	67	18219
2026-01-01 09:00:43.41	342.56	27.21	-52.5	-66.4	3.8	1.49e+00	0	57	104	0	67	18199
2026-01-01 09:00:47.36	342.17	26.57	-52.6	-66.4	3.8	1.49e+00	0	57	104	0	67	18221
2026-01-01 09:00:51.31	341.80	25.94	-52.5	-66.4	3.8	1.49e+00	0	57	104	0	67	18157
2026-01-01 09:00:55.27	341.45	25.33	-52.6	-66.4	3.8	1.49e+00	0	57	104	0	67	18195
2026-01-01 09:00:59.23	341.11	24.73	-52.5	-66.4	3.8	1.49e+00	0	57	104	0	67	18171
2026-01-01 09:01:03.18	340.78	24.14	-52.6	-66.4	3.8	1.49e+00	0	57	104	0	67	18182
2026-01-01 09:01:07.14	340.47	23.56	-52.5	-66.4	3.8	1.49e+00	0	57	104	0	67	18187
2026-01-01 09:01:11.09	340.17	23.00	-52.6	-66.4	3.8	1.49e+00	0	57	104	0	67	18170
2026-01-01 09:01:15.03	339.88	22.45	-52.6	-66.4	3.8	1.49e+00	0	57	104	0	67	18214
2026-01-01 09:01:18.97	339.60	21.91	-52.6	-66.4	3.8	1.49e+00	0	57	104	0	67	18209
2026-01-01 09:01:22.91	339.33	21.38	-52.6	-66.4	3.8	1.49e+00	0	57	104	0	67	18219
2026-01-01 09:01:26.86	339.07	20.86	-52.5	-66.4	3.8	1.49e+00	0	57	104	0	67	18203
2026-01-01 09:01:30.80	338.82	20.35	-52.6	-66.4	3.8	1.49e+00	0	57	104	0	67	18176
2026-01-01 09:01:34.76	338.57	19.85	-52.6	-66.4	3.8	1.49e+00	0	57	104	0	67	18212
2026-01-01 09:01:38.71	338.34	19.36	-52.5	-66.4	3.8	1.49e+00	0	57	104	0	67	18206
2026-01-01 09:01:42.67	338.11	18.87	-52.5	-66.4	3.8	1.49e+00	0	57	104	0	67	18199
2026-01-01 09:01:46.61	337.89	18.40	-52.4	-66.4	3.8	1.49e+00	0	57	104	0	67	18172
2026-01-01 09:01:50.57	337.68	17.93	-52.6	-66.4	3.8	1.49e+00	0	57	104	0	67	18204
2026-01-01 09:01:54.53	337.48	17.47	-52.5	-66.4	3.8	1.49e+00	0	57	104	0	67	18219
2026-01-01 09:01:58.49	337.28	17.02	-52.4	-66.4	3.8	1.49e+00	0	57	104	0	67	18222
2026-01-01 09:02:02.45	337.08	16.58	-52.5	-66.4	3.8	1.49e+00	0	57	104	0	67	18211
2026-01-01 09:02:06.41	336.90	16.15	-52.6	-66.4	3.8	1.49e+00	0	57	104	0	67	18218
2026-01-01 09:02:10.38	336.71	15.72	-52.6	-66.4	3.8	1.49e+00	0	57	104	0	67	18178
2026-01-01 09:02:14.34	336.54	15.30	-52.3	-66.4	3.8	1.49e+00	0	57	104	0	67	18157
2026-01-01 09:02:18.28	336.37	14.89	-52.5	-66.4	3.8	1.49e+00	0	57	104	0	67	18193
2026-01-01 09:02:22.23	336.20	14.48	-52.4	-66.4	3.8	1.49e+00	0	57	104	0	67	18175
2026-01-01 09:02:26.19	336.04	14.08	-52.4	-66.4	3.8	1.49e+00	0	57	104	0	67	18226
2026-01-01 09:02:30.15	335.89	13.68	-52.4	-66.4	3.8	1.49e+00	0	57	104	0	67	18194
2026-01-01 09:02:34.10	335.74	13.30	-52.3	-66.4	3.8	1.49e+00	0	57	104	0	67	18157
2026-01-01 09:02:38.06	335.59	12.91	-52.6	-66.4	3.8	1.49e+00	0	57	104	0	67	18218
2026-01-01 09:02:42.01	335.45	12.54	-52.5	-66.4	3.8	1.49e+00	0	57	104	0	67	18201
2026-01-01 09:02:45.98	335.31	12.17	-52.4	-66.4	3.8	1.49e+00	0	57	104	0	67	18164
2026-01-01 09:02:49.93	335.17	11.80	-52.4	-66.4	3.8	1.49e+00	0	57	104	0	67	18150
2026-01-01 09:02:53.89	335.04	11.44	-52.6	-66.4	3.8	1.49e+00	0	57	104	0	67	18249
2026-01-01 09:02:57.84	334.91	11.09	-52.4	-66.4	3.8	1.49e+00	0	57	104	0	67	18194
2026-01-01 09:03:01.80	334.79	10.74	-52.5	-66.4	3.8	1.49e+00	0	57	104	0	67	18169
2026-01-01 09:03:05.76	334.67	10.39	-52.6	-66.4	3.8	1.49e+00	0	57	104	0	67	18167
2026-01-01 09:03:09.71	334.55	10.05	-52.5	-66.4	3.8	1.49e+00	0	57	104	0	67	18216
2026-01-01 09:03:13.66	334.43	9.71	-52.6	-66.4	3.8	1.49e+00	0	57	104	0	67	18210
2026-01-01 09:03:17.63	334.32	9.38	-52.6	-66.4	3.8	1.49e+00	0	57	104	0	67	18158
2026-01-01 09:03:21.58	334.21	9.05	-52.6	-66.4	3.8	1.49e+00	0	57	104	0	67	18210
2026-01-01 09:03:25.55	334.11	8.73	-52.4	-66.4	3.8	1.49e+00	0	57	104	0	67	18199
2026-01-01 09:03:29.50	334.00	8.41	-52.5	-66.4	3.8	1.49e+00	0	57	104	0	67	18229
2026-01-01 09:03:33.43	333.90	8.10	-52.6	-66.4	3.8	1.49e+00	0	57	104	0	67	18166
2026-01-01 09:03:37.39	333.80	7.78	-52.5	-66.4	3.8	1.49e+00	0	57	104	0	67	18220
2026-01-01 09:03:41.36	333.71	7.47	-52.6	-66.4	3.8	1.49e+00	0	57	104	0	67	18191
2026-01-01 09:03:45.31	333.61	7.17	-52.6	-66.4	3.8	1.49e+00	0	57	104	0	67	18194
2026-01-01 09:03:49.27	333.52	6.87	-52.6	-66.4	3.8	1.49e+00	0	57	104	0	67	18179
2026-01-01 09:03:53.21	333.43	6.57	-52.6	-66.4	3.8	1.49e+00	0	57	104	0	67	18202
2026-01-01 09:03:57.18	333.35	6.28	-52.5	-66.4	3.8	1.49e+00	0	57	104	0	67	18184
2026-01-01 09:04:01.14	333.26	5.98	-52.6	-66.4	3.8	1.49e+00	0	57	104	0	67	18203
2026-01-01 09:04:05.09	333.18	5.70	-52.6	-66.4	3.8	1.49e+00	0	57	104	0	67	18219
2026-01-01 09:04:09.04	333.10	5.41	-52.6	-66.4	3.8	1.49e+00	0	57	104	0	67	18203
2026-01-01 09:04:12.99	333.02	5.13	-52.6	-66.4	3.8	1.49e+00	0	57	104	0	67	18213
2026-01-01 09:04:16.95	332.94	4.85	-52.4	-66.4	3.8	1.49e+00	0	57	104	0	66	19333
2026-01-01 09:04:20.90	332.87	4.58	-52.5	-66.4	3.8	1.49e+00	0	57	104	0	67	18180
2026-01-01 09:04:24.84	332.79	4.30	-52.6	-66.4	3.8	1.49e+00	0	57	104	0	67	18216
2026-01-01 09:04:28.79	332.72	4.03	-52.5	-66.4	3.8	1.49e+00	0	57	104	0	66	19336
2026-01-01 09:04:32.73	332.65	3.77	-52.5	-66.4	3.8	1.49e+00	0	57	104	0	67	18211
2026-01-01 09:04:36.69	332.58	3.50	-52.6	-66.4	3.8	1.49e+00	0	57	104	0	67	18226
2026-01-01 09:04:40.66	332.51	3.24	-52.6	-66.4	3.8	1.49e+00	0	57	104	0	67	18188
2026-01-01 09:04:44.63	332.45	2.97	-52.6	-66.4	3.8	1.49e+00	0	57	104	0	67	18213

#Closed at: 2026-01-01 09:04:45
#Recorded file [0 MB]: D:/Data/31026_260101_115058.dat