passes_logs/2026/01/01/R3.0SM8_Murmansk_STILSPACE/R3.0SM8_Murmansk_STILSPACE__20260101_091139_NOAA_20_JPSS-1_rec.log

#Pass ID: 20260101_091139_NOAA 20 (JPSS-1)
#Satellite: NOAA 20 (JPSS-1)
#Configuration: NOAA 20
#almurnet v.1.7.20240730
#Start time: 2026-01-01 09:11:40

#Version: 2.2.20231116
#Station: R3.0SM8_Murmansk_STILSPACE
#Location: 33.092731 lon 68.902999 lat
#TLE: 1 43013U 17073A   25365.45761817  .00000173  00000+0  10307-3 0  9993
#TLE: 2 43013  98.7620 301.5517 0001951  60.3814 299.7557 14.19531661420675

#Time	Az	El	Level	Level2	SNR	BER	BlckErr	Temp	State	Recorded	gain1	gain2
2026-01-01 09:11:40.84	143.71	3.09	-52.2	-66.2	3.8	1.49e+00	0	47	0	0	66	18822
2026-01-01 09:11:44.79	143.69	3.36	-51.8	-65.8	3.8	1.49e+00	0	48	104	0	66	17984
2026-01-01 09:11:48.74	143.66	3.63	-51.4	-65.2	3.8	1.49e+00	0	48	104	0	65	17752
2026-01-01 09:11:52.70	143.63	3.90	-51.5	-64.5	3.8	1.49e+00	0	49	104	0	65	16441
2026-01-01 09:11:56.66	143.60	4.17	-51.5	-63.3	3.8	1.49e+00	0	49	104	0	65	14248
2026-01-01 09:12:00.61	143.57	4.44	-51.3	-62.2	4.1	1.43e+00	0	49	0	0	65	12649
2026-01-01 09:12:04.55	143.55	4.72	-51.1	-60.3	4.8	8.60e-01	0	49	0	3145728	65	10145
2026-01-01 09:12:08.51	143.52	5.00	-50.8	-57.9	6.4	2.66e-01	0	49	0	10485760	64	8087
2026-01-01 09:12:12.48	143.48	5.29	-51.0	-59.0	5.6	4.93e-01	0	49	0	17825792	64	9191
2026-01-01 09:12:16.42	143.45	5.58	-50.4	-56.2	8.1	7.59e-02	0	50	0	25165824	63	7048
2026-01-01 09:12:20.38	143.42	5.87	-50.1	-55.1	9.1	2.19e-02	0	50	0	32505856	63	6246
2026-01-01 09:12:24.33	143.38	6.16	-50.0	-54.7	9.6	2.15e-02	0	50	0	39845888	63	5983
2026-01-01 09:12:28.28	143.35	6.46	-49.2	-52.9	11.6	8.17e-04	0	50	0	47185920	61	5407
2026-01-01 09:12:32.22	143.31	6.76	-48.9	-52.3	12.2	1.79e-04	0	50	0	54525952	60	5383
2026-01-01 09:12:36.18	143.28	7.06	-48.7	-51.8	12.7	7.93e-05	0	51	0	61865984	60	5069
2026-01-01 09:12:40.13	143.24	7.37	-49.0	-52.4	12.1	1.60e-04	0	51	0	69206016	60	5452
2026-01-01 09:12:44.09	143.20	7.68	-49.0	-52.1	12.4	3.55e-04	0	51	0	76546048	60	5270
2026-01-01 09:12:48.05	143.16	8.00	-49.0	-52.2	12.4	1.65e-04	0	51	0	83886080	60	5285
2026-01-01 09:12:52.01	143.12	8.32	-49.3	-53.0	11.6	4.91e-04	0	51	0	92274688	60	5838
2026-01-01 09:12:55.96	143.08	8.64	-49.1	-52.4	12.3	3.51e-04	0	51	0	99614720	60	5410
2026-01-01 09:12:59.92	143.03	8.97	-48.6	-51.4	13.3	1.44e-05	0	52	0	106954752	60	4815
2026-01-01 09:13:03.89	142.99	9.30	-48.4	-51.0	13.7	8.30e-06	0	52	0	114294784	59	4907
2026-01-01 09:13:07.84	142.94	9.64	-48.6	-51.2	13.5	7.60e-06	0	52	0	121634816	59	5039
2026-01-01 09:13:11.80	142.89	9.98	-48.4	-51.2	13.6	7.60e-06	0	52	0	128974848	59	4987
2026-01-01 09:13:15.74	142.84	10.33	-48.7	-51.4	13.5	3.05e-05	0	52	0	136314880	59	5117
2026-01-01 09:13:19.70	142.79	10.68	-48.1	-50.5	14.3	0.00e+00	0	52	0	143654912	59	4624
2026-01-01 09:13:23.67	142.74	11.04	-48.3	-50.9	14.0	3.00e-06	0	52	0	150994944	59	4824
2026-01-01 09:13:27.61	142.69	11.40	-47.9	-50.2	14.7	0.00e+00	0	53	0	158334976	58	4732
2026-01-01 09:13:31.55	142.63	11.76	-47.9	-50.2	14.8	0.00e+00	0	53	0	165675008	58	4711
2026-01-01 09:13:35.50	142.57	12.13	-48.0	-50.2	14.8	0.00e+00	0	53	0	173015040	58	4737
2026-01-01 09:13:39.45	142.51	12.51	-48.2	-50.5	14.4	0.00e+00	0	53	0	180355072	58	4915
2026-01-01 09:13:43.41	142.45	12.90	-48.0	-50.3	14.7	7.00e-07	0	53	0	187695104	58	4782
2026-01-01 09:13:47.36	142.39	13.29	-48.1	-50.4	14.6	0.00e+00	0	53	0	196083712	58	4843
2026-01-01 09:13:51.33	142.32	13.68	-47.5	-49.5	15.5	0.00e+00	0	53	0	203423744	58	4345
2026-01-01 09:13:55.28	142.26	14.09	-47.7	-49.8	15.2	0.00e+00	0	53	0	210763776	58	4504
2026-01-01 09:13:59.24	142.19	14.50	-47.6	-49.6	15.4	0.00e+00	0	54	0	218103808	58	4437
2026-01-01 09:14:03.19	142.11	14.91	-47.3	-49.2	15.9	0.00e+00	0	54	0	225443840	57	4461
2026-01-01 09:14:07.15	142.04	15.34	-47.3	-49.3	15.7	0.00e+00	0	54	0	232783872	57	4512
2026-01-01 09:14:11.10	141.96	15.77	-47.2	-49.1	15.9	0.00e+00	0	54	0	240123904	57	4422
2026-01-01 09:14:15.08	141.88	16.21	-47.2	-49.0	16.1	0.00e+00	0	54	0	247463936	57	4359
2026-01-01 09:14:19.03	141.80	16.65	-46.9	-48.5	16.6	0.00e+00	0	54	0	254803968	56	4369
2026-01-01 09:14:22.99	141.71	17.11	-46.8	-48.4	16.6	0.00e+00	0	54	0	262144000	56	4330
2026-01-01 09:14:26.94	141.63	17.57	-46.9	-48.6	16.5	0.00e+00	0	54	0	269484032	56	4419
2026-01-01 09:14:30.90	141.53	18.05	-47.0	-48.7	16.4	0.00e+00	0	54	0	276824064	56	4455
2026-01-01 09:14:34.86	141.44	18.53	-46.6	-48.2	16.9	0.00e+00	0	54	0	284164096	56	4220
2026-01-01 09:14:38.81	141.34	19.02	-46.5	-48.0	17.1	0.00e+00	0	54	0	292552704	56	4145
2026-01-01 09:14:42.77	141.24	19.52	-46.1	-47.5	17.5	0.00e+00	0	54	0	299892736	55	4130
2026-01-01 09:14:46.75	141.13	20.04	-46.3	-47.7	17.3	0.00e+00	0	54	0	307232768	55	4232
2026-01-01 09:14:50.70	141.02	20.56	-45.9	-47.3	17.7	0.00e+00	0	55	0	314572800	55	4025
2026-01-01 09:14:54.66	140.91	21.09	-46.0	-47.4	17.6	0.00e+00	0	55	0	321912832	55	4084
2026-01-01 09:14:58.62	140.79	21.64	-46.3	-47.7	17.3	0.00e+00	0	55	0	329252864	55	4222
2026-01-01 09:15:02.59	140.66	22.19	-46.3	-47.7	17.3	0.00e+00	0	55	0	336592896	55	4230
2026-01-01 09:15:06.55	140.53	22.76	-46.3	-47.7	17.3	0.00e+00	0	55	0	343932928	55	4218
2026-01-01 09:15:10.50	140.40	23.34	-46.3	-47.8	17.3	0.00e+00	0	55	0	351272960	55	4271
2026-01-01 09:15:14.46	140.26	23.94	-46.3	-47.8	17.3	0.00e+00	0	55	0	358612992	55	4257
2026-01-01 09:15:18.43	140.11	24.55	-46.4	-47.9	17.2	0.00e+00	0	55	0	365953024	55	4321
2026-01-01 09:15:22.38	139.96	25.17	-46.9	-48.6	16.6	0.00e+00	0	55	0	373293056	55	4655
2026-01-01 09:15:26.34	139.80	25.81	-47.3	-49.0	16.2	0.00e+00	0	55	0	381681664	56	4640
2026-01-01 09:15:30.28	139.64	26.46	-47.1	-48.9	16.4	0.00e+00	0	55	0	389021696	56	4574
2026-01-01 09:15:34.23	139.46	27.12	-47.2	-48.9	16.3	0.00e+00	0	55	0	396361728	56	4595
2026-01-01 09:15:38.17	139.28	27.80	-47.9	-49.9	15.4	0.00e+00	0	55	0	403701760	57	4827
2026-01-01 09:15:42.12	139.09	28.51	-48.3	-50.6	14.7	1.50e-06	0	55	0	411041792	58	4932
2026-01-01 09:15:46.06	138.89	29.22	-48.9	-51.4	13.9	7.60e-06	0	55	0	418381824	59	5126
2026-01-01 09:15:50.02	138.68	29.96	-49.1	-51.9	13.4	1.22e-05	0	55	0	425721856	60	5123
2026-01-01 09:15:53.99	138.46	30.72	-49.2	-52.2	13.1	2.44e-05	0	56	0	433061888	60	5298
2026-01-01 09:15:57.94	138.23	31.49	-49.6	-52.7	12.5	1.07e-04	0	56	0	440401920	61	5308
2026-01-01 09:16:01.90	137.99	32.29	-49.8	-53.1	12.1	2.40e-04	0	56	0	447741952	61	5577
2026-01-01 09:16:05.84	137.73	33.10	-49.8	-53.2	12.0	1.71e-04	0	56	0	455081984	61	5640
2026-01-01 09:16:09.81	137.46	33.95	-49.3	-52.1	13.2	3.43e-05	0	56	0	462422016	61	4953
2026-01-01 09:16:13.75	137.18	34.80	-49.1	-51.9	13.4	1.06e-05	0	56	0	469762048	61	4846
2026-01-01 09:16:17.72	136.87	35.69	-48.7	-51.3	14.0	3.00e-06	0	56	0	477102080	60	4781
2026-01-01 09:16:21.67	136.55	36.60	-48.6	-51.0	14.4	7.00e-07	0	56	0	484442112	59	4890
2026-01-01 09:16:25.62	136.21	37.53	-48.5	-50.7	14.7	7.00e-07	0	56	0	491782144	59	4721
2026-01-01 09:16:29.57	135.85	38.49	-48.2	-50.4	15.0	0.00e+00	0	56	0	500170752	59	4555
2026-01-01 09:16:33.51	135.47	39.47	-48.9	-51.3	14.0	4.50e-06	0	56	0	507510784	59	5096
2026-01-01 09:16:37.45	135.07	40.48	-48.6	-51.0	14.4	7.00e-07	0	56	0	514850816	59	4901
2026-01-01 09:16:41.41	134.63	41.52	-48.9	-51.3	14.0	3.00e-06	0	56	0	522190848	59	5097
2026-01-01 09:16:45.36	134.16	42.59	-48.9	-51.6	13.8	4.50e-06	0	56	0	529530880	59	5232
2026-01-01 09:16:49.32	133.66	43.69	-48.6	-51.2	14.2	7.00e-07	0	56	0	536870912	60	4707
2026-01-01 09:16:53.26	133.13	44.81	-48.7	-51.3	14.0	1.50e-06	0	56	0	544210944	60	4801
2026-01-01 09:16:57.21	132.55	45.97	-48.7	-51.1	14.2	2.20e-06	0	56	0	551550976	60	4692
2026-01-01 09:17:01.17	131.93	47.16	-49.0	-51.8	13.6	8.30e-06	0	56	0	558891008	60	5051
2026-01-01 09:17:05.13	131.25	48.37	-49.0	-51.7	13.7	6.80e-06	0	56	0	566231040	60	5012
2026-01-01 09:17:09.10	130.52	49.63	-48.7	-51.0	14.4	7.00e-07	0	56	0	573571072	60	4641
2026-01-01 09:17:13.06	129.72	50.90	-48.0	-50.0	15.4	0.00e+00	0	56	0	580911104	59	4389
2026-01-01 09:17:17.03	128.85	52.22	-47.4	-49.1	16.3	0.00e+00	0	56	0	588251136	58	4193
2026-01-01 09:17:20.97	127.91	53.54	-47.5	-49.3	16.1	0.00e+00	0	56	0	595591168	57	4520
2026-01-01 09:17:24.91	126.87	54.90	-47.9	-49.8	15.6	0.00e+00	0	56	0	603979776	57	4802
2026-01-01 09:17:28.85	125.72	56.28	-48.4	-50.5	14.8	0.00e+00	0	56	0	611319808	59	4649
2026-01-01 09:17:32.81	124.45	57.69	-49.2	-52.1	13.3	1.50e-06	0	56	0	618659840	60	5223
2026-01-01 09:17:36.77	123.03	59.12	-49.0	-51.6	13.7	3.80e-06	0	56	0	625999872	60	4969
2026-01-01 09:17:40.72	121.45	60.56	-47.5	-49.4	16.0	0.00e+00	0	56	0	633339904	58	4324
2026-01-01 09:17:44.67	119.68	62.01	-47.6	-49.4	16.0	0.00e+00	0	56	0	640679936	57	4591
2026-01-01 09:17:48.63	117.68	63.47	-47.7	-49.6	15.8	0.00e+00	0	56	0	648019968	57	4661
2026-01-01 09:17:52.59	115.41	64.93	-48.9	-51.6	13.9	7.00e-07	0	56	0	655360000	59	5233
2026-01-01 09:17:56.53	112.84	66.36	-50.1	-53.9	11.4	4.96e-04	0	56	0	662700032	62	5750
2026-01-01 09:18:00.49	109.89	67.78	-50.2	-53.7	11.7	6.26e-04	0	56	0	670040064	62	5634
2026-01-01 09:18:04.45	106.51	69.16	-50.0	-53.7	11.7	6.81e-04	0	56	0	677380096	62	5602
2026-01-01 09:18:08.41	102.61	70.48	-47.9	-49.9	15.6	0.00e+00	0	57	0	684720128	58	4547
2026-01-01 09:18:12.36	98.14	71.71	-47.1	-48.7	16.7	0.00e+00	0	57	0	692060160	57	4211
2026-01-01 09:18:16.31	93.02	72.84	-47.2	-48.9	16.5	0.00e+00	0	57	0	699400192	57	4319
2026-01-01 09:18:20.27	87.17	73.83	-48.6	-51.0	14.5	0.00e+00	0	57	0	707788800	59	4895
2026-01-01 09:18:24.21	80.63	74.64	-49.4	-52.4	12.9	1.29e-05	0	56	0	715128832	60	5444
2026-01-01 09:18:28.17	73.40	75.24	-50.3	-54.3	11.1	2.03e-03	0	57	0	722468864	63	5700
2026-01-01 09:18:32.12	65.69	75.60	-50.1	-53.7	11.7	4.49e-04	0	56	0	729808896	63	5334
2026-01-01 09:18:36.08	57.70	75.69	-50.3	-54.3	11.1	9.93e-04	0	57	0	737148928	62	6020
2026-01-01 09:18:40.03	49.78	75.52	-49.9	-53.5	12.0	3.00e-04	0	57	0	744488960	62	5480
2026-01-01 09:18:43.98	42.19	75.09	-50.5	-54.7	10.6	2.21e-03	0	57	0	751828992	63	5933
2026-01-01 09:18:47.94	35.14	74.42	-49.5	-52.5	13.0	7.78e-05	0	57	0	759169024	62	4876
2026-01-01 09:18:51.90	28.79	73.55	-48.7	-51.1	14.3	1.50e-06	0	57	0	766509056	60	4681
2026-01-01 09:18:55.85	23.17	72.52	-48.2	-50.3	15.2	1.50e-06	0	57	0	773849088	59	4507
2026-01-01 09:18:59.81	18.24	71.36	-47.9	-49.8	15.6	0.00e+00	0	57	0	781189120	58	4536
2026-01-01 09:19:03.77	13.95	70.09	-49.4	-52.5	13.0	1.83e-05	0	57	0	788529152	60	5471
2026-01-01 09:19:07.74	10.21	68.75	-49.8	-53.1	12.3	4.81e-04	0	57	0	795869184	62	5259
2026-01-01 09:19:11.70	6.97	67.36	-49.0	-51.7	13.8	1.06e-05	0	57	0	804257792	61	4748
2026-01-01 09:19:15.66	4.14	65.94	-48.1	-50.2	15.3	7.00e-07	0	57	0	811597824	59	4451
2026-01-01 09:19:19.61	1.67	64.50	-46.6	-48.1	17.4	0.00e+00	0	57	0	818937856	56	4150
2026-01-01 09:19:23.58	359.48	63.04	-45.5	-46.8	18.5	0.00e+00	0	57	0	826277888	53	4247
2026-01-01 09:19:27.54	357.56	61.58	-46.7	-48.3	17.1	0.00e+00	0	57	0	833617920	55	4515
2026-01-01 09:19:31.49	355.85	60.14	-48.8	-51.3	14.2	1.50e-06	0	57	0	840957952	59	5070
2026-01-01 09:19:35.43	354.33	58.71	-50.4	-54.5	10.8	3.30e-03	0	57	0	848297984	63	5798
2026-01-01 09:19:39.39	352.96	57.28	-50.1	-53.9	11.5	4.89e-04	0	57	0	855638016	62	5787
2026-01-01 09:19:43.36	351.72	55.88	-48.5	-50.8	14.7	0.00e+00	0	57	0	862978048	60	4503
2026-01-01 09:19:47.33	350.60	54.50	-47.6	-49.5	16.0	0.00e+00	0	57	0	870318080	58	4367
2026-01-01 09:19:51.29	349.59	53.15	-47.2	-48.9	16.5	0.00e+00	0	57	0	877658112	57	4327
2026-01-01 09:19:55.25	348.67	51.83	-47.1	-48.7	16.7	0.00e+00	0	57	0	884998144	56	4457
2026-01-01 09:19:59.20	347.82	50.54	-48.2	-50.3	15.1	0.00e+00	0	57	0	892338176	58	4809
2026-01-01 09:20:03.17	347.05	49.27	-49.0	-51.8	13.6	1.50e-06	0	57	0	900726784	60	5050
2026-01-01 09:20:07.12	346.34	48.04	-49.1	-52.0	13.4	8.30e-06	0	57	0	908066816	60	5216
2026-01-01 09:20:11.08	345.68	46.83	-49.0	-51.9	13.5	1.50e-06	0	57	0	915406848	60	5102
2026-01-01 09:20:15.03	345.08	45.66	-49.4	-52.4	13.0	4.27e-05	0	57	0	922746880	60	5415
2026-01-01 09:20:18.99	344.51	44.51	-49.0	-51.7	13.7	8.30e-06	0	57	0	930086912	60	4988
2026-01-01 09:20:22.93	343.99	43.40	-49.3	-52.3	13.1	1.22e-05	0	57	0	937426944	60	5352
2026-01-01 09:20:26.90	343.50	42.31	-49.5	-52.7	12.7	6.33e-05	0	57	0	944766976	60	5601
2026-01-01 09:20:30.85	343.05	41.26	-49.4	-52.5	12.8	8.31e-05	0	57	0	952107008	61	5200
2026-01-01 09:20:34.80	342.62	40.23	-49.6	-52.8	12.6	9.68e-05	0	57	0	959447040	61	5384
2026-01-01 09:20:38.76	342.22	39.23	-49.4	-52.4	13.0	6.71e-05	0	57	0	966787072	61	5112
2026-01-01 09:20:42.72	341.85	38.25	-49.0	-51.5	13.8	8.30e-06	0	57	0	974127104	61	4649
2026-01-01 09:20:46.66	341.50	37.31	-48.8	-51.4	14.0	3.00e-06	0	57	0	981467136	60	4819
2026-01-01 09:20:50.62	341.16	36.38	-48.6	-50.9	14.4	7.00e-07	0	57	0	988807168	59	4858
2026-01-01 09:20:54.58	340.85	35.48	-49.0	-51.8	13.4	6.80e-06	0	57	0	996147200	60	5090
2026-01-01 09:20:58.54	340.55	34.61	-49.0	-51.7	13.6	6.10e-06	0	57	0	1004535808	60	5024
2026-01-01 09:21:02.50	340.27	33.75	-48.6	-51.1	14.2	7.00e-07	0	57	0	1011875840	60	4675
2026-01-01 09:21:06.46	340.01	32.92	-48.7	-51.2	14.0	2.20e-06	0	57	0	1019215872	60	4739
2026-01-01 09:21:10.42	339.76	32.11	-48.9	-51.5	13.8	3.00e-06	0	57	0	1026555904	60	4884
2026-01-01 09:21:14.36	339.52	31.33	-49.1	-52.1	13.2	2.21e-05	0	57	0	1033895936	60	5221
2026-01-01 09:21:18.33	339.29	30.56	-49.4	-52.5	12.7	8.39e-05	0	57	0	1041235968	60	5502
2026-01-01 09:21:22.28	339.08	29.81	-49.4	-52.6	12.6	6.33e-05	0	57	0	1048576000	60	5532
2026-01-01 09:21:26.23	338.88	29.08	-49.4	-52.4	12.8	6.33e-05	0	57	0	1055916032	60	5434
2026-01-01 09:21:30.17	338.68	28.38	-48.7	-51.3	13.9	5.30e-06	0	57	0	1063256064	60	4791
2026-01-01 09:21:34.11	338.50	27.68	-48.5	-51.0	14.3	0.00e+00	0	57	0	1070596096	60	4607
2026-01-01 09:21:38.07	338.32	27.01	-48.6	-51.2	14.0	5.30e-06	0	57	0	1077936128	60	4738
2026-01-01 09:21:42.04	338.15	26.34	-48.3	-50.6	14.7	7.00e-07	0	57	0	1085276160	59	4662
2026-01-01 09:21:45.98	337.99	25.70	-48.2	-50.4	14.8	0.00e+00	0	57	0	1092616192	59	4588
2026-01-01 09:21:49.94	337.83	25.07	-48.1	-50.3	14.9	0.00e+00	0	57	0	1099956224	58	4802
2026-01-01 09:21:53.92	337.68	24.45	-48.0	-50.2	15.0	0.00e+00	0	57	0	1108344832	58	4747
2026-01-01 09:21:57.88	337.54	23.85	-48.2	-50.4	14.8	7.00e-07	0	57	0	1115684864	58	4837
2026-01-01 09:22:01.83	337.40	23.26	-48.4	-50.7	14.5	2.20e-06	0	57	0	1123024896	58	5021
2026-01-01 09:22:05.79	337.27	22.68	-48.1	-50.4	14.7	7.00e-07	0	57	0	1130364928	58	4854
2026-01-01 09:22:09.74	337.14	22.12	-48.3	-50.9	14.1	3.80e-06	0	57	0	1137704960	58	5103
2026-01-01 09:22:13.69	337.02	21.57	-48.9	-52.1	12.6	9.38e-05	0	57	0	1145044992	59	5583
2026-01-01 09:22:17.65	336.91	21.03	-49.4	-53.2	11.2	1.47e-03	0	57	0	1152385024	60	5987
2026-01-01 09:22:21.60	336.80	20.50	-49.7	-53.8	10.4	3.50e-03	0	57	0	1159725056	61	6048
2026-01-01 09:22:25.57	336.69	19.98	-49.2	-52.9	11.6	1.29e-03	0	57	0	1167065088	61	5417
2026-01-01 09:22:29.52	336.59	19.48	-48.8	-51.9	12.8	1.55e-04	0	57	0	1174405120	60	5102
2026-01-01 09:22:33.47	336.49	18.98	-48.2	-50.5	14.4	1.50e-06	0	57	0	1181745152	59	4622
2026-01-01 09:22:37.43	336.39	18.49	-48.5	-51.0	14.0	1.50e-06	0	57	0	1189085184	59	4903
2026-01-01 09:22:41.41	336.30	18.01	-48.7	-51.2	13.9	3.00e-06	0	57	0	1196425216	59	4995
2026-01-01 09:22:45.37	336.21	17.54	-48.8	-51.4	13.6	4.50e-06	0	57	0	1204813824	59	5159
2026-01-01 09:22:49.32	336.12	17.08	-48.8	-51.7	13.4	1.14e-05	0	57	0	1212153856	59	5286
2026-01-01 09:22:53.30	336.04	16.63	-49.0	-51.9	13.2	2.28e-05	0	57	0	1219493888	59	5411
2026-01-01 09:22:57.27	335.96	16.18	-49.3	-52.4	12.6	7.32e-05	0	57	0	1226833920	60	5430
2026-01-01 09:23:01.24	335.88	15.75	-49.1	-52.1	12.9	5.26e-05	0	57	0	1234173952	60	5228
2026-01-01 09:23:05.21	335.81	15.32	-49.3	-52.4	12.6	8.46e-05	0	57	0	1241513984	60	5423
2026-01-01 09:23:09.18	335.74	14.90	-49.0	-52.1	12.8	5.26e-05	0	57	0	1248854016	60	5269
2026-01-01 09:23:13.13	335.67	14.48	-49.2	-52.4	12.5	9.91e-05	0	57	0	1256194048	60	5461
2026-01-01 09:23:17.08	335.60	14.08	-49.0	-51.9	13.0	3.12e-05	0	57	0	1263534080	59	5456
2026-01-01 09:23:21.05	335.54	13.68	-49.0	-52.1	12.8	5.64e-05	0	57	0	1270874112	60	5240
2026-01-01 09:23:25.01	335.47	13.28	-49.1	-52.1	12.7	7.78e-05	0	57	0	1278214144	60	5277
2026-01-01 09:23:28.96	335.41	12.90	-49.0	-52.0	12.9	4.50e-05	0	57	0	1285554176	59	5488
2026-01-01 09:23:32.93	335.35	12.51	-48.9	-51.9	12.9	4.04e-05	0	57	0	1293942784	59	5417
2026-01-01 09:23:36.90	335.30	12.14	-49.0	-52.0	12.8	4.73e-05	0	57	0	1301282816	59	5521
2026-01-01 09:23:40.85	335.24	11.77	-49.2	-52.4	12.4	1.70e-04	0	57	0	1308622848	60	5403
2026-01-01 09:23:44.80	335.19	11.40	-49.0	-52.1	12.7	6.79e-05	0	57	0	1315962880	60	5229
2026-01-01 09:23:48.75	335.14	11.04	-49.1	-52.4	12.3	1.52e-04	0	57	0	1323302912	60	5429
2026-01-01 09:23:52.71	335.09	10.69	-49.3	-52.8	11.9	3.50e-04	0	57	0	1330642944	60	5699
2026-01-01 09:23:56.67	335.04	10.34	-49.4	-52.9	11.7	4.57e-04	0	57	0	1337982976	60	5772
2026-01-01 09:24:00.64	334.99	10.00	-49.6	-53.3	11.3	1.50e-03	0	57	0	1345323008	61	5721
2026-01-01 09:24:04.59	334.95	9.66	-49.1	-52.5	12.1	2.37e-04	0	57	0	1352663040	61	5206
2026-01-01 09:24:08.54	334.91	9.32	-49.0	-52.3	12.3	1.81e-04	0	57	0	1360003072	61	5087
2026-01-01 09:24:12.49	334.86	8.99	-49.1	-52.4	12.2	2.04e-04	0	57	0	1367343104	60	5444
2026-01-01 09:24:16.44	334.82	8.67	-49.1	-52.4	12.1	2.30e-04	0	57	0	1374683136	60	5461
2026-01-01 09:24:20.41	334.78	8.34	-49.2	-52.8	11.8	5.27e-04	0	57	0	1382023168	60	5693
2026-01-01 09:24:24.37	334.74	8.03	-49.4	-53.0	11.5	7.53e-04	0	57	0	1390411776	60	5825
2026-01-01 09:24:28.33	334.71	7.71	-49.7	-53.7	10.7	2.20e-03	0	57	0	1397751808	61	5958
2026-01-01 09:24:32.28	334.67	7.40	-49.4	-53.0	11.4	8.99e-04	0	57	0	1405091840	61	5496
2026-01-01 09:24:36.25	334.64	7.09	-49.2	-52.7	11.7	8.05e-04	0	57	0	1412431872	61	5334
2026-01-01 09:24:40.22	334.60	6.79	-49.0	-52.3	12.1	2.42e-04	0	57	0	1419771904	60	5394
2026-01-01 09:24:44.18	334.57	6.49	-49.2	-52.6	11.8	3.87e-04	0	57	0	1427111936	60	5582
2026-01-01 09:24:48.13	334.54	6.20	-49.1	-52.8	11.6	6.32e-04	0	57	0	1434451968	60	5675
2026-01-01 09:24:52.10	334.51	5.90	-49.1	-52.7	11.6	5.84e-04	0	57	0	1441792000	60	5626
2026-01-01 09:24:56.06	334.48	5.61	-49.0	-52.5	11.8	4.61e-04	0	57	0	1449132032	60	5470
2026-01-01 09:25:00.02	334.45	5.33	-49.2	-53.1	11.2	1.07e-03	0	57	0	1456472064	60	5879
2026-01-01 09:25:03.98	334.42	5.04	-49.4	-53.5	11.0	2.37e-03	0	57	0	1463812096	60	6138
2026-01-01 09:25:07.93	334.39	4.76	-52.3	-66.0	3.8	1.49e+00	0	57	104	1464860672	66	18514
2026-01-01 09:25:11.89	334.36	4.49	-52.4	-66.2	3.8	1.49e+00	0	57	104	1464860672	66	18940
2026-01-01 09:25:15.85	334.34	4.21	-52.3	-66.4	3.8	1.49e+00	0	57	104	1464860672	66	19240
2026-01-01 09:25:19.80	334.31	3.94	-52.6	-66.5	3.8	1.49e+00	0	57	104	1464860672	67	18346
2026-01-01 09:25:23.76	334.29	3.67	-52.7	-66.5	3.8	1.49e+00	0	57	104	1464860672	67	18405
2026-01-01 09:25:27.71	334.27	3.40	-52.7	-66.5	3.8	1.49e+00	0	57	104	1464860672	67	18483
2026-01-01 09:25:31.63	334.24	3.14	-52.7	-66.6	3.8	1.49e+00	0	57	104	1464860672	67	18522

#Closed at: 2026-01-01 09:25:34
#Recorded file [1464 MB]: D:/Data/31026_260101_122504.dat