passes_logs/2026/01/01/R3.0SM8_Murmansk_STILSPACE/R3.0SM8_Murmansk_STILSPACE__20260101_053305_SUOMI_NPP_rec.log

#Pass ID: 20260101_053305_SUOMI NPP
#Satellite: SUOMI NPP
#Configuration: NPP
#almurnet v.1.7.20240730
#Start time: 2026-01-01 05:33:05

#Version: 2.2.20231116
#Station: R3.0SM8_Murmansk_STILSPACE
#Location: 33.092731 lon 68.902999 lat
#TLE: 1 37849U 11061A   25364.87906317  .00000195  00000+0  11345-3 0  9992
#TLE: 2 37849  98.7794 302.0592 0002571  89.2401 270.9069 14.19520347734561

#Time	Az	El	Level	Level2	SNR	BER	BlckErr	Temp	State	Recorded	gain1	gain2
2026-01-01 05:33:05.22	65.93	3.01	-52.7	-66.5	3.8	1.49e+00	0	50	0	0	67	18338
2026-01-01 05:33:08.17	65.73	3.18	-52.6	-66.4	3.8	1.49e+00	0	50	104	0	68	17175
2026-01-01 05:33:11.13	65.53	3.35	-52.1	-65.9	3.8	1.49e+00	0	51	104	0	67	17253
2026-01-01 05:33:14.08	65.32	3.52	-51.7	-65.5	3.8	1.49e+00	0	51	104	0	66	17463
2026-01-01 05:33:17.03	65.11	3.70	-51.8	-65.5	3.8	1.49e+00	0	51	104	0	66	17421
2026-01-01 05:33:19.98	64.90	3.87	-51.8	-65.6	3.8	1.49e+00	0	51	104	0	66	17491
2026-01-01 05:33:22.93	64.69	4.05	-51.8	-65.5	3.8	1.49e+00	0	51	104	0	66	17472
2026-01-01 05:33:25.87	64.47	4.23	-51.8	-65.4	3.8	1.49e+00	0	51	104	0	66	17123
2026-01-01 05:33:28.82	64.25	4.40	-51.7	-64.5	3.8	1.49e+00	0	52	104	0	66	15572
2026-01-01 05:33:31.77	64.03	4.58	-51.5	-62.5	3.9	1.47e+00	0	52	104	0	66	12282
2026-01-01 05:33:34.68	63.80	4.76	-51.2	-59.6	5.2	6.41e-01	0	52	0	4194304	65	9323
2026-01-01 05:33:37.58	63.58	4.93	-50.8	-57.6	6.7	2.08e-01	0	52	0	9437184	64	7859
2026-01-01 05:33:40.48	63.35	5.11	-50.7	-57.1	7.2	1.22e-01	0	53	0	14680064	64	7372
2026-01-01 05:33:43.38	63.12	5.29	-50.5	-56.4	7.8	8.96e-02	0	53	0	19922944	64	6815
2026-01-01 05:33:46.27	62.89	5.47	-50.5	-56.1	8.1	7.23e-02	0	53	0	25165824	64	6604
2026-01-01 05:33:49.18	62.65	5.65	-49.9	-54.3	10.1	1.24e-02	0	53	0	30408704	62	6057
2026-01-01 05:33:52.08	62.41	5.83	-49.3	-53.0	11.4	1.07e-03	0	53	0	36700160	61	5514
2026-01-01 05:33:54.98	62.17	6.01	-49.3	-52.9	11.5	5.41e-04	0	53	0	41943040	61	5439
2026-01-01 05:33:57.88	61.92	6.19	-49.2	-52.9	11.6	6.55e-04	0	54	0	47185920	61	5433
2026-01-01 05:34:00.79	61.67	6.37	-49.3	-52.9	11.6	6.19e-04	0	54	0	52428800	61	5452
2026-01-01 05:34:03.70	61.42	6.55	-49.2	-52.8	11.7	1.03e-03	0	54	0	57671680	61	5386
2026-01-01 05:34:06.61	61.16	6.74	-49.2	-52.7	11.8	4.71e-04	0	54	0	63963136	61	5310
2026-01-01 05:34:09.58	60.90	6.93	-49.4	-53.2	11.3	7.74e-04	0	54	0	69206016	61	5632
2026-01-01 05:34:12.55	60.63	7.12	-49.4	-53.1	11.4	8.00e-04	0	54	0	74448896	61	5559
2026-01-01 05:34:15.50	60.36	7.31	-49.4	-53.2	11.3	9.47e-04	0	54	0	80740352	61	5634
2026-01-01 05:34:18.42	60.09	7.50	-49.2	-52.7	11.9	2.58e-04	0	54	0	85983232	61	5291
2026-01-01 05:34:21.33	59.81	7.68	-49.2	-52.7	12.0	2.86e-04	0	55	0	91226112	61	5307
2026-01-01 05:34:24.24	59.53	7.87	-49.0	-52.4	12.3	2.59e-04	0	55	0	96468992	61	5106
2026-01-01 05:34:27.15	59.25	8.06	-48.8	-52.0	12.8	7.17e-05	0	55	0	101711872	60	5164
2026-01-01 05:34:30.06	58.97	8.25	-49.0	-52.2	12.5	1.15e-04	0	55	0	108003328	60	5293
2026-01-01 05:34:32.97	58.68	8.45	-48.9	-52.1	12.6	2.17e-04	0	55	0	113246208	60	5240
2026-01-01 05:34:35.89	58.38	8.64	-48.8	-51.8	13.0	5.72e-05	0	55	0	118489088	60	5057
2026-01-01 05:34:38.79	58.09	8.83	-48.9	-52.0	12.8	5.34e-05	0	55	0	123731968	60	5181
2026-01-01 05:34:41.70	57.79	9.02	-49.1	-52.3	12.5	1.07e-04	0	56	0	128974848	60	5399
2026-01-01 05:34:44.60	57.48	9.22	-48.8	-51.8	13.1	2.67e-05	0	55	0	135266304	60	5051
2026-01-01 05:34:47.51	57.17	9.41	-48.8	-51.7	13.1	3.12e-05	0	56	0	140509184	60	5007
2026-01-01 05:34:50.41	56.86	9.61	-48.9	-52.0	12.9	5.18e-05	0	56	0	145752064	60	5181
2026-01-01 05:34:53.32	56.54	9.80	-49.0	-52.1	12.7	9.15e-05	0	56	0	150994944	60	5266
2026-01-01 05:34:56.22	56.22	10.00	-48.9	-51.9	13.0	4.27e-05	0	56	0	156237824	60	5105
2026-01-01 05:34:59.13	55.89	10.20	-49.0	-52.1	12.8	6.33e-05	0	56	0	162529280	60	5244
2026-01-01 05:35:02.03	55.56	10.40	-48.9	-52.0	12.9	4.50e-05	0	56	0	167772160	60	5162
2026-01-01 05:35:04.94	55.22	10.59	-48.8	-51.8	13.1	3.89e-05	0	56	0	173015040	60	5047
2026-01-01 05:35:07.84	54.88	10.79	-48.7	-51.5	13.4	1.44e-05	0	56	0	178257920	60	4873
2026-01-01 05:35:10.75	54.54	10.99	-48.6	-51.3	13.6	1.22e-05	0	56	0	183500800	60	4811
2026-01-01 05:35:13.65	54.19	11.19	-48.4	-51.0	13.9	9.10e-06	0	57	0	188743680	60	4648
2026-01-01 05:35:16.56	53.83	11.40	-48.5	-51.1	13.9	2.20e-06	0	57	0	195035136	59	4940
2026-01-01 05:35:19.46	53.47	11.60	-48.3	-50.7	14.2	1.50e-06	0	57	0	200278016	59	4725
2026-01-01 05:35:22.37	53.10	11.80	-48.6	-51.2	13.8	0.00e+00	0	57	0	205520896	59	4986
2026-01-01 05:35:25.28	52.73	12.00	-48.4	-50.9	14.1	3.00e-06	0	57	0	210763776	59	4866
2026-01-01 05:35:28.17	52.36	12.20	-48.4	-50.9	14.1	2.20e-06	0	57	0	216006656	59	4818
2026-01-01 05:35:31.08	51.98	12.41	-48.0	-50.4	14.6	0.00e+00	0	57	0	222298112	59	4589
2026-01-01 05:35:33.99	51.59	12.61	-48.4	-50.9	14.1	1.50e-06	0	57	0	227540992	59	4857
2026-01-01 05:35:36.90	51.20	12.82	-47.9	-50.1	14.9	0.00e+00	0	57	0	232783872	58	4694
2026-01-01 05:35:39.81	50.80	13.02	-48.2	-50.6	14.5	1.50e-06	0	57	0	238026752	58	4932
2026-01-01 05:35:42.72	50.39	13.23	-48.1	-50.5	14.6	2.20e-06	0	57	0	243269632	58	4894
2026-01-01 05:35:45.62	49.98	13.43	-48.3	-50.8	14.3	7.00e-07	0	57	0	249561088	58	5048
2026-01-01 05:35:48.54	49.57	13.64	-48.5	-51.1	13.9	7.00e-07	0	58	0	254803968	58	5248
2026-01-01 05:35:51.45	49.15	13.84	-48.4	-51.0	14.0	1.50e-06	0	58	0	260046848	58	5192
2026-01-01 05:35:54.36	48.72	14.05	-48.7	-51.4	13.6	6.80e-06	0	58	0	265289728	59	5151
2026-01-01 05:35:57.26	48.28	14.26	-48.6	-51.4	13.6	1.06e-05	0	58	0	270532608	59	5143
2026-01-01 05:36:00.16	47.85	14.46	-48.6	-51.4	13.7	3.00e-06	0	58	0	276824064	59	5121
2026-01-01 05:36:03.08	47.40	14.67	-48.6	-51.2	13.9	3.00e-06	0	58	0	282066944	59	5000
2026-01-01 05:36:05.99	46.94	14.88	-48.5	-51.1	14.0	0.00e+00	0	58	0	287309824	59	4957
2026-01-01 05:36:08.90	46.49	15.08	-48.7	-51.4	13.6	1.06e-05	0	58	0	292552704	59	5158
2026-01-01 05:36:11.81	46.02	15.29	-49.0	-52.0	13.1	9.10e-06	0	58	0	297795584	60	5176
2026-01-01 05:36:14.71	45.55	15.49	-48.9	-51.9	13.2	2.36e-05	0	58	0	304087040	60	5107
2026-01-01 05:36:17.62	45.07	15.70	-49.1	-52.1	13.0	1.67e-05	0	58	0	309329920	60	5249
2026-01-01 05:36:20.53	44.58	15.90	-49.0	-51.9	13.2	3.66e-05	0	58	0	314572800	60	5151
2026-01-01 05:36:23.45	44.09	16.11	-49.0	-51.9	13.2	2.05e-05	0	59	0	319815680	60	5144
2026-01-01 05:36:26.35	43.59	16.31	-48.4	-51.0	14.1	6.80e-06	0	59	0	325058560	60	4609
2026-01-01 05:36:29.25	43.09	16.52	-48.5	-51.0	14.1	1.50e-06	0	59	0	331350016	59	4904
2026-01-01 05:36:32.16	42.57	16.72	-48.2	-50.5	14.6	0.00e+00	0	59	0	336592896	59	4628
2026-01-01 05:36:35.07	42.05	16.92	-48.3	-50.6	14.5	0.00e+00	0	59	0	341835776	59	4695
2026-01-01 05:36:37.98	41.53	17.12	-48.8	-51.5	13.6	5.30e-06	0	59	0	347078656	59	5206
2026-01-01 05:36:40.89	40.99	17.33	-48.4	-50.9	14.2	5.30e-06	0	59	0	353370112	59	4837
2026-01-01 05:36:43.80	40.45	17.53	-48.3	-50.6	14.5	0.00e+00	0	59	0	358612992	59	4696
2026-01-01 05:36:46.70	39.90	17.72	-47.9	-50.0	15.1	0.00e+00	0	59	0	363855872	59	4370
2026-01-01 05:36:49.61	39.34	17.92	-47.8	-50.0	15.2	0.00e+00	0	59	0	369098752	58	4603
2026-01-01 05:36:52.52	38.78	18.12	-47.9	-50.1	15.1	0.00e+00	0	59	0	374341632	58	4675
2026-01-01 05:36:55.44	38.21	18.31	-47.9	-50.1	15.0	0.00e+00	0	59	0	380633088	58	4694
2026-01-01 05:36:58.35	37.63	18.51	-47.6	-49.7	15.5	0.00e+00	0	59	0	385875968	58	4474
2026-01-01 05:37:01.26	37.04	18.70	-47.1	-49.0	16.2	0.00e+00	0	59	0	391118848	57	4352
2026-01-01 05:37:04.18	36.45	18.89	-47.3	-49.3	15.9	0.00e+00	0	59	0	396361728	57	4500
2026-01-01 05:37:07.10	35.84	19.08	-47.2	-49.1	16.0	0.00e+00	0	59	0	401604608	57	4431
2026-01-01 05:37:10.01	35.23	19.27	-46.9	-48.7	16.5	0.00e+00	0	59	0	407896064	56	4443
2026-01-01 05:37:12.92	34.62	19.45	-46.9	-48.6	16.5	0.00e+00	0	59	0	413138944	56	4429
2026-01-01 05:37:15.83	33.99	19.63	-47.0	-48.8	16.3	0.00e+00	0	59	0	418381824	56	4522
2026-01-01 05:37:18.74	33.36	19.81	-47.2	-49.0	16.1	0.00e+00	0	59	0	423624704	56	4646
2026-01-01 05:37:21.64	32.72	19.99	-46.9	-48.7	16.4	0.00e+00	0	59	0	428867584	56	4470
2026-01-01 05:37:24.55	32.08	20.16	-46.7	-48.4	16.7	0.00e+00	0	59	0	435159040	56	4334
2026-01-01 05:37:27.46	31.42	20.34	-46.2	-47.6	17.3	0.00e+00	0	60	0	440401920	55	4193
2026-01-01 05:37:30.36	30.76	20.50	-46.6	-48.3	16.8	0.00e+00	0	60	0	445644800	55	4494
2026-01-01 05:37:33.27	30.10	20.67	-46.6	-48.3	16.8	0.00e+00	0	60	0	450887680	55	4494
2026-01-01 05:37:36.19	29.42	20.83	-47.0	-48.7	16.4	0.00e+00	0	60	0	456130560	55	4732
2026-01-01 05:37:39.11	28.73	21.00	-47.2	-49.1	16.1	0.00e+00	0	60	0	462422016	56	4657
2026-01-01 05:37:42.03	28.04	21.15	-47.3	-49.2	16.0	0.00e+00	0	60	0	467664896	56	4725
2026-01-01 05:37:44.94	27.34	21.31	-47.3	-49.0	16.2	0.00e+00	0	60	0	472907776	56	4642
2026-01-01 05:37:47.85	26.64	21.46	-46.6	-48.2	17.0	0.00e+00	0	60	0	478150656	56	4210
2026-01-01 05:37:50.75	25.93	21.60	-46.3	-47.8	17.3	0.00e+00	0	60	0	483393536	55	4280
2026-01-01 05:37:53.65	25.21	21.74	-46.3	-47.7	17.3	0.00e+00	0	60	0	489684992	55	4237
2026-01-01 05:37:56.57	24.49	21.88	-46.6	-48.1	17.0	0.00e+00	0	60	0	494927872	55	4433
2026-01-01 05:37:59.48	23.76	22.01	-46.6	-48.2	16.9	0.00e+00	0	60	0	500170752	55	4464
2026-01-01 05:38:02.38	23.02	22.14	-46.8	-48.4	16.7	0.00e+00	0	60	0	505413632	55	4572
2026-01-01 05:38:05.28	22.28	22.27	-46.6	-48.2	16.9	0.00e+00	0	60	0	510656512	55	4445
2026-01-01 05:38:08.18	21.53	22.39	-46.5	-48.0	17.1	0.00e+00	0	60	0	516947968	55	4368
2026-01-01 05:38:11.09	20.78	22.50	-46.2	-47.7	17.5	0.00e+00	0	60	0	522190848	55	4201
2026-01-01 05:38:14.01	20.02	22.61	-47.1	-48.8	16.4	0.00e+00	0	60	0	527433728	55	4788
2026-01-01 05:38:16.91	19.25	22.72	-47.5	-49.4	15.9	0.00e+00	0	60	0	532676608	57	4557
2026-01-01 05:38:19.82	18.48	22.82	-48.5	-51.0	14.3	0.00e+00	0	60	0	537919488	58	5166
2026-01-01 05:38:22.72	17.71	22.91	-48.5	-50.9	14.4	2.20e-06	0	60	0	544210944	59	4816
2026-01-01 05:38:25.63	16.93	23.00	-48.0	-50.1	15.1	0.00e+00	0	60	0	549453824	59	4423
2026-01-01 05:38:28.55	16.14	23.09	-47.8	-49.9	15.4	0.00e+00	0	60	0	554696704	58	4564
2026-01-01 05:38:31.45	15.36	23.16	-47.8	-49.8	15.4	0.00e+00	0	60	0	559939584	58	4516
2026-01-01 05:38:34.34	14.57	23.24	-48.1	-50.2	15.0	7.00e-07	0	60	0	565182464	58	4756
2026-01-01 05:38:37.25	13.77	23.30	-48.0	-50.2	15.0	0.00e+00	0	60	0	571473920	58	4738
2026-01-01 05:38:40.15	12.98	23.37	-48.2	-50.5	14.6	7.00e-07	0	60	0	576716800	58	4872
2026-01-01 05:38:43.06	12.17	23.42	-48.0	-50.3	14.9	0.00e+00	0	60	0	581959680	58	4765
2026-01-01 05:38:45.98	11.36	23.47	-48.0	-50.3	14.6	0.00e+00	0	61	0	587202560	58	4813
2026-01-01 05:38:48.90	10.55	23.51	-47.7	-50.0	14.7	0.00e+00	0	61	0	592445440	58	4603
2026-01-01 05:38:51.80	9.75	23.55	-48.2	-51.1	13.3	8.30e-06	0	60	0	598736896	58	5241
2026-01-01 05:38:54.71	8.94	23.58	-49.3	-53.7	10.2	2.33e-03	0	60	0	603979776	60	6340
2026-01-01 05:38:57.63	8.12	23.61	-49.7	-54.8	9.0	2.16e-02	0	60	0	609222656	61	6782
2026-01-01 05:39:00.54	7.31	23.63	-49.7	-54.7	9.2	2.07e-02	0	61	0	614465536	61	6710
2026-01-01 05:39:03.45	6.49	23.64	-49.0	-52.7	11.3	2.28e-03	0	61	0	619708416	61	5281
2026-01-01 05:39:06.36	5.68	23.65	-48.7	-51.9	12.6	9.46e-05	0	61	0	625999872	60	5136
2026-01-01 05:39:09.27	4.86	23.65	-49.5	-53.9	10.3	2.50e-03	0	61	0	631242752	60	6446
2026-01-01 05:39:12.19	4.04	23.64	-50.0	-55.5	8.3	6.57e-02	0	61	0	636485632	61	7327
2026-01-01 05:39:15.09	3.23	23.63	-49.2	-52.8	11.7	1.20e-03	0	61	0	641728512	61	5370
2026-01-01 05:39:17.99	2.42	23.61	-49.1	-52.0	13.1	2.36e-05	0	60	0	646971392	60	5196
2026-01-01 05:39:20.89	1.61	23.58	-48.1	-50.4	14.8	7.00e-07	0	61	0	653262848	59	4551
2026-01-01 05:39:23.80	0.80	23.55	-47.9	-49.9	15.4	0.00e+00	0	61	0	658505728	58	4564
2026-01-01 05:39:26.71	359.99	23.51	-48.7	-51.2	14.1	2.20e-06	0	61	0	663748608	59	5029
2026-01-01 05:39:29.61	359.18	23.47	-47.7	-49.6	15.7	0.00e+00	0	61	0	668991488	58	4405
2026-01-01 05:39:32.51	358.38	23.42	-46.9	-48.6	16.6	0.00e+00	0	61	0	674234368	57	4170
2026-01-01 05:39:35.42	357.58	23.37	-46.6	-48.2	17.0	0.00e+00	0	61	0	680525824	56	4196
2026-01-01 05:39:38.32	356.78	23.30	-46.6	-48.1	17.1	0.00e+00	0	61	0	685768704	56	4177
2026-01-01 05:39:41.22	355.99	23.24	-46.3	-47.8	17.1	0.00e+00	0	61	0	691011584	55	4253
2026-01-01 05:39:44.15	355.19	23.16	-46.5	-48.0	17.1	0.00e+00	0	61	0	696254464	55	4353
2026-01-01 05:39:47.06	354.40	23.09	-46.7	-48.4	16.7	0.00e+00	0	61	0	701497344	55	4549
2026-01-01 05:39:49.97	353.62	23.00	-46.6	-48.1	16.9	0.00e+00	0	61	0	707788800	55	4437
2026-01-01 05:39:52.87	352.84	22.91	-46.3	-47.8	17.3	0.00e+00	0	61	0	713031680	55	4281
2026-01-01 05:39:55.78	352.06	22.82	-46.9	-48.6	16.5	0.00e+00	0	61	0	718274560	55	4654
2026-01-01 05:39:58.69	351.29	22.72	-47.3	-49.1	16.1	0.00e+00	0	61	0	723517440	56	4653
2026-01-01 05:40:01.60	350.53	22.61	-47.2	-48.9	16.3	0.00e+00	0	61	0	728760320	56	4578
2026-01-01 05:40:04.51	349.77	22.50	-47.3	-49.1	16.0	0.00e+00	0	61	0	735051776	56	4674
2026-01-01 05:40:07.42	349.01	22.38	-47.8	-49.8	15.4	0.00e+00	0	61	0	740294656	57	4767
2026-01-01 05:40:10.33	348.26	22.26	-48.0	-50.2	15.0	0.00e+00	0	61	0	745537536	57	5020
2026-01-01 05:40:13.25	347.52	22.14	-48.3	-50.6	14.6	0.00e+00	0	61	0	750780416	58	4963
2026-01-01 05:40:16.15	346.78	22.01	-48.4	-50.8	14.4	1.50e-06	0	61	0	756023296	59	4806
2026-01-01 05:40:19.06	346.05	21.88	-47.8	-49.8	15.3	0.00e+00	0	61	0	762314752	58	4544
2026-01-01 05:40:21.97	345.33	21.74	-47.8	-49.8	15.3	0.00e+00	0	61	0	767557632	58	4535
2026-01-01 05:40:24.88	344.61	21.60	-47.4	-49.4	15.8	0.00e+00	0	61	0	772800512	58	4304
2026-01-01 05:40:27.79	343.90	21.45	-47.2	-49.0	16.0	0.00e+00	0	61	0	778043392	57	4388
2026-01-01 05:40:30.70	343.20	21.30	-47.3	-49.2	15.9	0.00e+00	0	61	0	783286272	57	4457
2026-01-01 05:40:33.61	342.50	21.15	-47.4	-49.3	15.7	0.00e+00	0	61	0	789577728	57	4536
2026-01-01 05:40:36.52	341.81	20.99	-48.0	-50.4	14.7	0.00e+00	0	61	0	794820608	58	4824
2026-01-01 05:40:39.43	341.13	20.83	-47.9	-50.2	14.8	0.00e+00	0	61	0	800063488	58	4716
2026-01-01 05:40:42.34	340.45	20.67	-48.6	-51.3	13.6	7.00e-07	0	61	0	805306368	58	5373
2026-01-01 05:40:45.26	339.78	20.50	-49.7	-53.7	11.0	3.75e-04	0	61	0	810549248	61	5957
2026-01-01 05:40:48.16	339.12	20.33	-50.2	-55.3	9.1	2.35e-02	0	61	0	816840704	62	6743
2026-01-01 05:40:51.07	338.47	20.16	-50.0	-54.8	9.6	1.21e-02	0	61	0	822083584	62	6369
2026-01-01 05:40:53.97	337.82	19.99	-48.7	-51.9	12.7	2.48e-04	0	61	0	827326464	60	5111
2026-01-01 05:40:56.88	337.19	19.81	-48.2	-50.9	13.8	6.80e-06	0	61	0	832569344	59	4822
2026-01-01 05:40:59.80	336.55	19.63	-47.3	-49.4	15.3	0.00e+00	0	61	0	837812224	57	4561
2026-01-01 05:41:02.71	335.93	19.45	-46.6	-48.3	16.4	0.00e+00	0	61	0	844103680	56	4274
2026-01-01 05:41:05.60	335.32	19.26	-46.3	-47.9	16.8	0.00e+00	0	61	0	849346560	55	4336
2026-01-01 05:41:08.51	334.71	19.08	-46.8	-48.6	16.2	0.00e+00	0	61	0	854589440	55	4662
2026-01-01 05:41:11.42	334.11	18.89	-47.7	-49.9	15.2	0.00e+00	0	61	0	859832320	57	4840
2026-01-01 05:41:14.33	333.51	18.70	-49.0	-51.8	13.3	1.22e-05	0	61	0	865075200	59	5373
2026-01-01 05:41:17.24	332.93	18.51	-48.7	-51.5	13.7	5.30e-06	0	61	0	871366656	59	5187
2026-01-01 05:41:20.14	332.35	18.31	-48.2	-50.6	14.6	0.00e+00	0	62	0	876609536	59	4653
2026-01-01 05:41:23.05	331.78	18.12	-47.8	-49.9	15.2	0.00e+00	0	62	0	881852416	58	4580
2026-01-01 05:41:25.95	331.22	17.92	-47.3	-49.2	15.9	0.00e+00	0	62	0	887095296	57	4487
2026-01-01 05:41:28.86	330.66	17.73	-47.4	-49.3	15.9	0.00e+00	0	62	0	892338176	57	4496
2026-01-01 05:41:31.77	330.11	17.53	-47.9	-50.1	15.1	0.00e+00	0	61	0	898629632	57	4961
2026-01-01 05:41:34.69	329.57	17.33	-47.9	-50.0	15.1	0.00e+00	0	62	0	903872512	58	4651
2026-01-01 05:41:37.58	329.04	17.13	-48.1	-50.3	14.9	0.00e+00	0	61	0	909115392	58	4796
2026-01-01 05:41:40.49	328.51	16.93	-48.0	-50.2	15.0	0.00e+00	0	61	0	914358272	58	4757
2026-01-01 05:41:43.40	327.99	16.72	-47.7	-49.7	15.4	0.00e+00	0	61	0	919601152	58	4493
2026-01-01 05:41:46.31	327.48	16.52	-47.7	-49.7	15.5	0.00e+00	0	62	0	925892608	58	4470
2026-01-01 05:41:49.22	326.97	16.32	-47.9	-50.0	15.2	0.00e+00	0	62	0	931135488	58	4612
2026-01-01 05:41:52.13	326.47	16.11	-47.3	-49.1	16.1	0.00e+00	0	62	0	936378368	57	4419
2026-01-01 05:41:55.04	325.98	15.91	-47.5	-49.4	15.8	0.00e+00	0	62	0	941621248	57	4557
2026-01-01 05:41:57.95	325.49	15.70	-47.2	-48.9	16.2	0.00e+00	0	62	0	946864128	57	4340
2026-01-01 05:42:00.86	325.01	15.50	-46.4	-47.9	17.2	0.00e+00	0	62	0	953155584	56	4082
2026-01-01 05:42:03.76	324.54	15.29	-46.5	-48.0	17.0	0.00e+00	0	62	0	958398464	55	4372
2026-01-01 05:42:06.66	324.08	15.09	-46.9	-48.6	16.4	0.00e+00	0	62	0	963641344	55	4702
2026-01-01 05:42:09.57	323.62	14.88	-47.0	-48.7	16.3	0.00e+00	0	62	0	968884224	55	4758
2026-01-01 05:42:12.50	323.17	14.67	-47.3	-49.2	16.0	0.00e+00	0	62	0	974127104	56	4706
2026-01-01 05:42:15.42	322.72	14.46	-46.8	-48.4	16.7	0.00e+00	0	62	0	980418560	56	4340
2026-01-01 05:42:18.33	322.28	14.26	-46.8	-48.4	16.7	0.00e+00	0	62	0	985661440	56	4314
2026-01-01 05:42:21.23	321.85	14.05	-47.2	-49.0	16.1	0.00e+00	0	61	0	990904320	56	4605
2026-01-01 05:42:24.14	321.42	13.85	-47.6	-49.6	15.5	0.00e+00	0	62	0	996147200	57	4677
2026-01-01 05:42:27.05	321.00	13.64	-47.8	-50.0	15.2	0.00e+00	0	62	0	1001390080	57	4881
2026-01-01 05:42:29.97	320.58	13.43	-48.1	-50.3	14.8	0.00e+00	0	62	0	1007681536	58	4784
2026-01-01 05:42:32.88	320.17	13.23	-47.4	-49.3	15.8	0.00e+00	0	62	0	1012924416	58	4245
2026-01-01 05:42:35.78	319.77	13.02	-47.0	-48.7	16.4	0.00e+00	0	62	0	1018167296	57	4201
2026-01-01 05:42:38.68	319.37	12.82	-47.3	-49.1	15.9	0.00e+00	0	62	0	1023410176	56	4704
2026-01-01 05:42:41.59	318.98	12.62	-47.5	-49.4	15.7	0.00e+00	0	62	0	1028653056	56	4831
2026-01-01 05:42:44.50	318.59	12.41	-48.2	-50.5	14.6	0.00e+00	0	62	0	1034944512	58	4911
2026-01-01 05:42:47.41	318.21	12.21	-48.2	-50.5	14.6	0.00e+00	0	62	0	1040187392	58	4915
2026-01-01 05:42:50.32	317.83	12.00	-48.1	-50.4	14.7	0.00e+00	0	62	0	1045430272	58	4822
2026-01-01 05:42:53.24	317.46	11.80	-48.0	-50.1	14.9	7.00e-07	0	62	0	1050673152	58	4685
2026-01-01 05:42:56.15	317.09	11.60	-47.7	-49.7	15.3	0.00e+00	0	62	0	1056964608	58	4477
2026-01-01 05:42:59.05	316.73	11.40	-47.9	-50.1	14.9	0.00e+00	0	62	0	1062207488	58	4686
2026-01-01 05:43:01.96	316.38	11.20	-48.0	-50.1	14.9	0.00e+00	0	62	0	1067450368	58	4686
2026-01-01 05:43:04.87	316.03	10.99	-48.3	-50.6	14.4	7.00e-07	0	62	0	1072693248	58	4937
2026-01-01 05:43:07.78	315.68	10.79	-48.4	-50.8	14.3	7.00e-07	0	62	0	1077936128	58	5046
2026-01-01 05:43:10.70	315.34	10.59	-48.4	-50.9	14.1	1.50e-06	0	62	0	1084227584	58	5120
2026-01-01 05:43:13.60	315.00	10.40	-48.4	-50.9	14.1	2.20e-06	0	62	0	1089470464	58	5110
2026-01-01 05:43:16.49	314.67	10.20	-48.5	-51.0	14.0	1.50e-06	0	62	0	1094713344	58	5175
2026-01-01 05:43:19.40	314.35	10.00	-48.7	-51.4	13.6	6.80e-06	0	62	0	1099956224	59	5151
2026-01-01 05:43:22.32	314.02	9.80	-49.0	-51.9	13.1	1.75e-05	0	62	0	1105199104	59	5421
2026-01-01 05:43:25.23	313.71	9.61	-48.8	-51.5	13.5	6.80e-06	0	62	0	1111490560	59	5175
2026-01-01 05:43:28.14	313.39	9.41	-48.2	-50.6	14.3	0.00e+00	0	62	0	1116733440	59	4669
2026-01-01 05:43:31.04	313.08	9.22	-47.9	-50.1	14.8	0.00e+00	0	62	0	1121976320	58	4675
2026-01-01 05:43:33.95	312.78	9.02	-47.9	-50.1	14.8	0.00e+00	0	62	0	1127219200	58	4683
2026-01-01 05:43:36.85	312.48	8.83	-48.2	-50.5	14.4	2.20e-06	0	62	0	1132462080	58	4900
2026-01-01 05:43:39.76	312.18	8.64	-48.3	-50.8	14.1	7.00e-07	0	62	0	1137704960	58	5059
2026-01-01 05:43:42.68	311.89	8.45	-48.5	-51.1	13.8	3.80e-06	0	62	0	1143996416	59	4950
2026-01-01 05:43:45.59	311.60	8.25	-48.3	-50.8	14.0	3.00e-06	0	62	0	1149239296	59	4807
2026-01-01 05:43:48.49	311.31	8.06	-48.2	-50.5	14.3	3.80e-06	0	62	0	1154482176	59	4644
2026-01-01 05:43:51.40	311.03	7.87	-48.1	-50.5	14.3	7.00e-07	0	62	0	1159725056	59	4612
2026-01-01 05:43:54.32	310.75	7.68	-48.3	-50.7	14.1	3.00e-06	0	62	0	1164967936	59	4733
2026-01-01 05:43:57.23	310.48	7.50	-48.4	-51.0	13.7	4.50e-06	0	62	0	1171259392	59	4921
2026-01-01 05:44:00.14	310.21	7.31	-48.7	-51.4	13.3	1.22e-05	0	62	0	1176502272	59	5151
2026-01-01 05:44:03.04	309.94	7.12	-48.8	-52.1	12.6	4.65e-05	0	62	0	1181745152	59	5544
2026-01-01 05:44:05.94	309.68	6.94	-49.2	-52.6	12.0	2.73e-04	0	62	0	1186988032	60	5583
2026-01-01 05:44:08.85	309.42	6.75	-49.3	-52.8	11.8	4.34e-04	0	62	0	1192230912	60	5690
2026-01-01 05:44:11.77	309.17	6.57	-49.4	-53.1	11.5	6.15e-04	0	62	0	1198522368	60	5889
2026-01-01 05:44:14.68	308.91	6.38	-49.5	-53.3	11.2	1.06e-03	0	62	0	1203765248	60	6027
2026-01-01 05:44:17.59	308.66	6.20	-49.3	-53.1	11.3	1.02e-03	0	62	0	1209008128	61	5548
2026-01-01 05:44:20.49	308.42	6.02	-49.3	-53.1	11.2	1.46e-03	0	62	0	1214251008	61	5562
2026-01-01 05:44:23.40	308.17	5.84	-49.3	-53.1	11.2	1.45e-03	0	62	0	1220542464	61	5549
2026-01-01 05:44:26.30	307.93	5.66	-49.5	-53.7	10.6	2.42e-03	0	62	0	1225785344	61	5943
2026-01-01 05:44:29.21	307.70	5.48	-49.8	-54.3	9.8	9.75e-03	0	62	0	1231028224	61	6411
2026-01-01 05:44:32.12	307.46	5.30	-49.9	-54.7	9.3	1.53e-02	0	62	0	1236271104	61	6692
2026-01-01 05:44:35.02	307.23	5.12	-49.8	-54.5	9.6	1.58e-02	0	62	0	1241513984	61	6496
2026-01-01 05:44:37.96	307.00	4.94	-52.2	-66.0	3.8	1.49e+00	0	62	104	1243611136	66	18425
2026-01-01 05:44:40.90	306.77	4.76	-51.5	-65.3	3.8	1.49e+00	0	62	104	1243611136	64	19067
2026-01-01 05:44:43.85	306.55	4.58	-52.7	-66.5	3.8	1.49e+00	0	62	104	1243611136	67	18323
2026-01-01 05:44:46.79	306.33	4.41	-52.7	-66.6	3.8	1.49e+00	0	62	104	1243611136	67	18596
2026-01-01 05:44:49.73	306.11	4.23	-52.8	-66.6	3.8	1.49e+00	0	62	104	1243611136	67	18717
2026-01-01 05:44:52.68	305.89	4.05	-52.9	-66.7	3.8	1.49e+00	0	62	104	1243611136	67	18786
2026-01-01 05:44:55.63	305.68	3.88	-52.9	-66.7	3.8	1.49e+00	0	62	104	1243611136	67	18844
2026-01-01 05:44:58.58	305.47	3.70	-52.9	-66.7	3.8	1.49e+00	0	62	104	1243611136	67	18848
2026-01-01 05:45:01.52	305.26	3.53	-52.7	-66.8	3.8	1.49e+00	0	62	104	1243611136	67	18971
2026-01-01 05:45:04.47	305.05	3.36	-52.9	-66.7	3.8	1.49e+00	0	62	104	1243611136	67	18868
2026-01-01 05:45:07.42	304.85	3.18	-52.9	-66.7	3.8	1.49e+00	0	62	104	1243611136	67	18871
2026-01-01 05:45:10.37	304.65	3.01	-52.9	-66.7	3.8	1.49e+00	0	62	104	1243611136	67	18894

#Closed at: 2026-01-01 05:45:13
#Recorded file [1243 MB]: D:/Data/31026_260101_084436.dat