passes_logs/2026/01/01/R3.0SM8_Murmansk_STILSPACE/R3.0SM8_Murmansk_STILSPACE__20260101_113234_FENGYUN_3D_rec.log

#Pass ID: 20260101_113234_FENGYUN 3D
#Satellite: FENGYUN 3D
#Configuration: FENGYUN 3D
#almurnet v.1.7.20240730
#Start time: 2026-01-01 11:32:36

#Version: 2.2.20231116
#Station: R3.0SM8_Murmansk_STILSPACE
#Location: 33.092731 lon 68.902999 lat
#TLE: 1 43010U 17072A   25365.48527867  .00000101  00000+0  69745-4 0  9999
#TLE: 2 43010  98.9911 332.0787 0001837 134.4748 225.6578 14.19689788421190

#Time	Az	El	Level	Level2	SNR	BER	BlckErr	Temp	State	Recorded	gain1	gain2
2026-01-01 11:32:36.42	151.71	3.16	-52.6	-63.3	3.8	8.46e-01	0	48	0	0	67	12781
2026-01-01 11:32:40.36	151.73	3.42	-51.9	-62.6	3.8	8.46e-01	0	49	104	0	66	12430
2026-01-01 11:32:44.34	151.74	3.69	-49.3	-59.4	3.8	8.47e-01	0	49	104	0	61	11541
2026-01-01 11:32:48.31	151.76	3.96	-48.8	-56.2	4.3	8.36e-01	0	49	0	0	60	8447
2026-01-01 11:32:52.25	151.77	4.24	-47.9	-52.7	6.3	3.31e-01	0	49	0	6291456	59	5931
2026-01-01 11:32:56.20	151.79	4.51	-47.1	-50.6	8.3	6.30e-02	0	50	0	28311552	57	5220
2026-01-01 11:33:00.17	151.80	4.79	-46.2	-49.0	9.8	1.43e-02	0	50	0	50331648	55	4916
2026-01-01 11:33:04.11	151.82	5.07	-45.5	-47.8	11.0	2.07e-03	0	50	0	72351744	54	4530
2026-01-01 11:33:08.06	151.83	5.36	-46.0	-48.3	11.1	3.25e-03	0	50	0	95420416	54	4807
2026-01-01 11:33:12.02	151.85	5.65	-47.2	-50.0	9.9	7.72e-03	0	51	0	117440512	56	5165
2026-01-01 11:33:15.97	151.86	5.94	-46.7	-48.9	11.4	1.29e-03	0	51	0	139460608	56	4548
2026-01-01 11:33:19.95	151.88	6.24	-47.8	-50.5	10.0	1.28e-02	0	51	0	161480704	57	5182
2026-01-01 11:33:23.91	151.89	6.54	-46.6	-48.5	12.7	1.60e-04	0	51	0	184549376	56	4353
2026-01-01 11:33:27.87	151.91	6.84	-46.4	-48.0	13.3	3.43e-05	0	51	0	206569472	54	4629
2026-01-01 11:33:31.82	151.92	7.14	-45.3	-46.6	14.8	0.00e+00	0	52	0	228589568	53	4165
2026-01-01 11:33:35.76	151.94	7.45	-44.2	-45.3	16.3	0.00e+00	0	52	0	250609664	51	4026
2026-01-01 11:33:39.71	151.95	7.77	-44.2	-45.3	16.3	0.00e+00	0	52	0	272629760	51	4026
2026-01-01 11:33:43.67	151.97	8.08	-44.0	-45.0	16.7	0.00e+00	0	52	0	295698432	50	4138
2026-01-01 11:33:47.64	151.98	8.41	-43.8	-44.8	16.9	0.00e+00	0	52	0	317718528	50	4042
2026-01-01 11:33:51.60	152.00	8.73	-43.9	-44.9	16.9	0.00e+00	0	52	0	339738624	50	4066
2026-01-01 11:33:55.56	152.01	9.06	-43.8	-44.8	17.0	0.00e+00	0	53	0	361758720	50	4025
2026-01-01 11:33:59.50	152.03	9.39	-43.8	-44.8	17.0	0.00e+00	0	52	0	384827392	50	4006
2026-01-01 11:34:03.46	152.04	9.73	-43.8	-44.8	17.0	0.00e+00	0	53	0	406847488	50	4038
2026-01-01 11:34:07.43	152.06	10.08	-43.9	-44.9	17.0	0.00e+00	0	53	0	428867584	50	4059
2026-01-01 11:34:11.38	152.07	10.43	-44.1	-45.0	16.8	0.00e+00	0	53	0	451936256	50	4145
2026-01-01 11:34:15.33	152.09	10.78	-43.6	-44.5	17.3	0.00e+00	0	53	0	473956352	50	3910
2026-01-01 11:34:19.31	152.10	11.14	-43.9	-44.9	17.0	0.00e+00	0	53	0	495976448	50	4067
2026-01-01 11:34:23.26	152.12	11.50	-43.5	-44.4	17.5	0.00e+00	0	53	0	517996544	50	3853
2026-01-01 11:34:27.21	152.13	11.87	-43.7	-44.6	17.3	0.00e+00	0	53	0	540016640	50	3939
2026-01-01 11:34:31.14	152.15	12.24	-43.3	-44.1	17.8	0.00e+00	0	53	0	562036736	49	3952
2026-01-01 11:34:35.09	152.17	12.62	-43.3	-44.2	17.8	0.00e+00	0	54	0	585105408	49	3960
2026-01-01 11:34:39.06	152.18	13.01	-43.0	-43.9	18.1	0.00e+00	0	54	0	607125504	49	3829
2026-01-01 11:34:43.00	152.20	13.40	-43.1	-44.0	18.0	0.00e+00	0	54	0	629145600	49	3884
2026-01-01 11:34:46.95	152.21	13.80	-42.7	-43.5	18.4	0.00e+00	0	54	0	651165696	48	3909
2026-01-01 11:34:50.90	152.23	14.21	-42.9	-43.8	18.2	0.00e+00	0	54	0	673185792	48	4021
2026-01-01 11:34:54.86	152.25	14.62	-43.1	-44.0	18.0	0.00e+00	0	54	0	696254464	48	4122
2026-01-01 11:34:58.82	152.26	15.04	-43.3	-44.2	17.8	0.00e+00	0	54	0	718274560	48	4197
2026-01-01 11:35:02.78	152.28	15.47	-42.7	-43.5	18.5	0.00e+00	0	54	0	740294656	48	3886
2026-01-01 11:35:06.74	152.29	15.91	-42.2	-42.9	18.9	0.00e+00	0	54	0	762314752	47	3866
2026-01-01 11:35:10.69	152.31	16.35	-42.3	-43.1	18.7	0.00e+00	0	54	0	785383424	47	3947
2026-01-01 11:35:14.65	152.33	16.80	-42.2	-43.0	18.8	0.00e+00	0	54	0	807403520	47	3886
2026-01-01 11:35:18.61	152.34	17.26	-41.8	-42.5	19.3	0.00e+00	0	55	0	829423616	46	3892
2026-01-01 11:35:22.57	152.36	17.73	-41.9	-42.7	19.2	0.00e+00	0	55	0	851443712	46	3966
2026-01-01 11:35:26.52	152.38	18.21	-41.8	-42.6	19.3	0.00e+00	0	55	0	874512384	46	3919
2026-01-01 11:35:30.47	152.39	18.70	-41.8	-42.5	19.4	0.00e+00	0	55	0	896532480	46	3891
2026-01-01 11:35:34.44	152.41	19.20	-41.2	-41.8	20.0	0.00e+00	0	55	0	918552576	45	3823
2026-01-01 11:35:38.40	152.43	19.70	-41.3	-42.0	19.9	0.00e+00	0	55	0	940572672	45	3877
2026-01-01 11:35:42.37	152.44	20.22	-41.3	-42.0	19.8	0.00e+00	0	55	0	962592768	45	3893
2026-01-01 11:35:46.30	152.46	20.75	-41.4	-42.1	19.8	0.00e+00	0	55	0	985661440	45	3929
2026-01-01 11:35:50.27	152.48	21.29	-41.3	-42.0	19.9	0.00e+00	0	55	0	1007681536	45	3874
2026-01-01 11:35:54.22	152.49	21.84	-41.3	-42.0	19.8	0.00e+00	0	55	0	1029701632	45	3899
2026-01-01 11:35:58.19	152.51	22.41	-41.0	-41.7	20.1	0.00e+00	0	55	0	1051721728	45	3768
2026-01-01 11:36:02.14	152.53	22.99	-41.0	-41.7	20.2	0.00e+00	0	55	0	1074790400	45	3740
2026-01-01 11:36:06.10	152.54	23.58	-41.0	-41.6	20.2	0.00e+00	0	55	0	1096810496	45	3737
2026-01-01 11:36:10.06	152.56	24.18	-40.8	-41.5	20.4	0.00e+00	0	55	0	1118830592	44	3886
2026-01-01 11:36:14.01	152.58	24.80	-40.5	-41.2	20.7	0.00e+00	0	56	0	1140850688	44	3755
2026-01-01 11:36:17.98	152.60	25.44	-40.4	-41.0	20.8	0.00e+00	0	56	0	1163919360	43	3888
2026-01-01 11:36:21.94	152.62	26.09	-40.4	-41.0	20.7	0.00e+00	0	56	0	1185939456	43	3913
2026-01-01 11:36:25.90	152.63	26.75	-40.6	-41.2	20.6	0.00e+00	0	56	0	1207959552	43	3986
2026-01-01 11:36:29.85	152.65	27.43	-40.4	-41.0	20.8	0.00e+00	0	56	0	1229979648	43	3883
2026-01-01 11:36:33.81	152.67	28.13	-40.3	-40.9	20.8	0.00e+00	0	56	0	1251999744	43	3850
2026-01-01 11:36:37.76	152.69	28.85	-40.2	-40.8	21.0	0.00e+00	0	56	0	1275068416	43	3804
2026-01-01 11:36:41.71	152.71	29.58	-40.4	-41.0	20.8	0.00e+00	0	56	0	1297088512	43	3885
2026-01-01 11:36:45.66	152.73	30.34	-40.0	-40.6	21.2	0.00e+00	0	56	0	1319108608	43	3699
2026-01-01 11:36:49.63	152.75	31.12	-40.0	-40.6	21.2	0.00e+00	0	56	0	1341128704	43	3706
2026-01-01 11:36:53.58	152.77	31.91	-39.5	-40.1	21.6	0.00e+00	0	56	0	1364197376	42	3721
2026-01-01 11:36:57.53	152.79	32.73	-39.7	-40.3	21.4	0.00e+00	0	56	0	1386217472	42	3813
2026-01-01 11:37:01.48	152.81	33.57	-39.7	-40.4	21.4	0.00e+00	0	56	0	1408237568	42	3828
2026-01-01 11:37:05.44	152.83	34.44	-39.7	-40.3	21.5	0.00e+00	0	56	0	1430257664	42	3787
2026-01-01 11:37:09.39	152.85	35.33	-39.9	-40.5	21.3	0.00e+00	0	56	0	1452277760	42	3876
2026-01-01 11:37:13.33	152.87	36.24	-39.6	-40.2	21.6	0.00e+00	0	56	0	1475346432	42	3754
2026-01-01 11:37:17.28	152.89	37.19	-39.1	-39.6	22.1	0.00e+00	0	56	0	1497366528	41	3725
2026-01-01 11:37:21.23	152.91	38.16	-39.5	-40.0	22.0	0.00e+00	0	56	0	1519386624	41	3898
2026-01-01 11:37:25.20	152.93	39.16	-39.9	-40.4	21.5	0.00e+00	0	56	0	1541406720	41	4093
2026-01-01 11:37:29.16	152.96	40.19	-40.3	-40.9	21.1	0.00e+00	0	56	0	1563426816	42	4075
2026-01-01 11:37:33.11	152.98	41.25	-40.1	-40.7	21.3	0.00e+00	0	56	0	1586495488	42	3994
2026-01-01 11:37:37.07	153.00	42.34	-40.1	-40.7	21.4	0.00e+00	0	56	0	1608515584	42	3965
2026-01-01 11:37:41.01	153.03	43.46	-40.4	-41.0	21.0	0.00e+00	0	56	0	1630535680	42	4125
2026-01-01 11:37:44.97	153.05	44.62	-40.7	-41.3	20.8	0.00e+00	0	56	0	1652555776	43	4019
2026-01-01 11:37:48.93	153.08	45.82	-40.3	-40.8	21.2	0.00e+00	0	57	0	1675624448	43	3811
2026-01-01 11:37:52.88	153.10	47.05	-40.3	-40.9	21.2	0.00e+00	0	57	0	1697644544	43	3849
2026-01-01 11:37:56.84	153.13	48.32	-40.1	-40.7	21.4	0.00e+00	0	57	0	1719664640	43	3759
2026-01-01 11:38:00.78	153.16	49.62	-40.5	-41.1	21.0	0.00e+00	0	56	0	1741684736	43	3934
2026-01-01 11:38:04.73	153.19	50.96	-40.7	-41.3	20.8	0.00e+00	0	56	0	1763704832	43	4041
2026-01-01 11:38:08.71	153.22	52.35	-42.1	-42.8	19.5	0.00e+00	0	56	0	1786773504	46	4035
2026-01-01 11:38:12.66	153.26	53.78	-41.8	-42.4	19.8	0.00e+00	0	57	0	1808793600	46	3862
2026-01-01 11:38:16.62	153.29	55.24	-41.4	-42.0	20.3	0.00e+00	0	56	0	1830813696	46	3673
2026-01-01 11:38:20.58	153.33	56.75	-40.8	-41.4	20.8	0.00e+00	0	57	0	1852833792	44	3835
2026-01-01 11:38:24.54	153.37	58.30	-40.5	-41.1	21.0	0.00e+00	0	57	0	1875902464	43	3951
2026-01-01 11:38:28.49	153.41	59.89	-40.5	-41.1	21.0	0.00e+00	0	57	0	1897922560	43	3922
2026-01-01 11:38:32.43	153.46	61.52	-40.7	-41.3	21.0	0.00e+00	0	57	0	1919942656	44	3798
2026-01-01 11:38:36.36	153.51	63.18	-40.4	-41.0	21.2	0.00e+00	0	57	0	1941962752	44	3669
2026-01-01 11:38:40.31	153.57	64.89	-40.3	-40.8	21.2	0.00e+00	0	57	0	1963982848	42	4047
2026-01-01 11:38:44.28	153.63	66.65	-39.2	-39.7	22.3	0.00e+00	0	57	0	1986002944	41	3759
2026-01-01 11:38:48.24	153.70	68.44	-38.6	-39.0	22.9	0.00e+00	0	57	0	2009071616	40	3693
2026-01-01 11:38:52.20	153.79	70.26	-38.5	-39.0	23.0	0.00e+00	0	57	0	2031091712	40	3684
2026-01-01 11:38:56.16	153.89	72.13	-38.6	-39.0	22.9	0.00e+00	0	57	0	2053111808	40	3694
2026-01-01 11:39:00.12	154.01	74.02	-38.8	-39.3	22.8	0.00e+00	0	57	0	2075131904	39	4025
2026-01-01 11:39:04.07	154.16	75.94	-39.3	-39.8	22.3	0.00e+00	0	57	0	2097152000	40	4017
2026-01-01 11:39:08.02	154.36	77.89	-38.0	-38.5	23.5	0.00e+00	0	57	0	2120220672	39	3665
2026-01-01 11:39:11.98	154.62	79.86	-37.5	-38.0	24.0	0.00e+00	0	57	0	2142240768	38	3658
2026-01-01 11:39:15.94	155.02	81.86	-37.0	-37.4	24.5	0.00e+00	0	57	0	2164260864	37	3626
2026-01-01 11:39:19.89	155.66	83.87	-38.0	-38.5	23.5	0.00e+00	0	57	0	2186280960	37	4099
2026-01-01 11:39:23.86	156.93	85.89	-40.3	-40.8	21.3	0.00e+00	0	57	0	2209349632	42	4036
2026-01-01 11:39:27.82	160.64	87.92	-40.5	-41.1	21.0	0.00e+00	0	57	0	2231369728	43	3927
2026-01-01 11:39:31.75	234.10	89.73	-42.2	-42.8	19.5	0.00e+00	0	57	0	2253389824	46	4044
2026-01-01 11:39:35.70	325.44	87.99	-52.8	-63.1	3.8	8.47e-01	0	57	104	2262827008	67	12469
2026-01-01 11:39:39.65	329.36	85.97	-52.6	-62.7	3.8	8.47e-01	0	57	104	2262827008	67	11879
2026-01-01 11:39:43.61	330.67	83.95	-52.6	-63.4	3.8	8.46e-01	0	57	104	2262827008	67	12886
2026-01-01 11:39:47.57	331.33	81.94	-52.8	-63.5	3.8	8.46e-01	0	57	104	2262827008	67	13016
2026-01-01 11:39:51.54	331.73	79.94	-52.9	-63.5	3.8	8.46e-01	0	57	104	2262827008	67	13099
2026-01-01 11:39:55.51	332.00	77.96	-52.7	-63.5	3.8	8.46e-01	0	57	104	2262827008	67	13011
2026-01-01 11:39:59.44	332.20	76.03	-52.8	-63.5	3.8	8.46e-01	0	57	104	2262827008	67	13099
2026-01-01 11:40:03.39	332.35	74.11	-52.7	-63.6	3.8	8.45e-01	0	57	104	2262827008	67	13131
2026-01-01 11:40:07.36	332.47	72.21	-52.8	-63.6	3.8	8.45e-01	0	57	104	2262827008	67	13191
2026-01-01 11:40:11.33	332.57	70.34	-52.9	-63.6	3.8	8.46e-01	0	57	104	2262827008	67	13157
2026-01-01 11:40:15.29	332.66	68.52	-52.9	-63.6	3.8	8.46e-01	0	57	104	2262827008	67	13163
2026-01-01 11:40:19.25	332.73	66.73	-52.7	-63.6	3.8	8.46e-01	0	57	104	2262827008	67	13142
2026-01-01 11:40:23.22	332.80	64.97	-52.8	-63.6	3.8	8.47e-01	0	58	104	2262827008	67	13150
2026-01-01 11:40:27.18	332.85	63.26	-52.9	-63.6	3.8	8.45e-01	0	58	104	2262827008	67	13113
2026-01-01 11:40:31.13	332.90	61.59	-52.9	-63.6	3.8	8.45e-01	0	58	104	2262827008	67	13151
2026-01-01 11:40:35.08	332.95	59.96	-52.7	-63.5	3.8	8.45e-01	0	57	104	2262827008	67	13090
2026-01-01 11:40:39.03	333.00	58.38	-52.6	-63.6	3.8	8.46e-01	0	57	104	2262827008	67	13163
2026-01-01 11:40:43.01	333.04	56.82	-52.8	-63.5	3.8	8.47e-01	0	57	104	2262827008	67	13107
2026-01-01 11:40:46.97	333.07	55.31	-52.6	-63.6	3.8	8.46e-01	0	58	104	2262827008	67	13123
2026-01-01 11:40:50.93	333.11	53.85	-52.7	-63.5	3.8	8.45e-01	0	57	104	2262827008	67	13094
2026-01-01 11:40:54.88	333.14	52.43	-52.8	-63.6	3.8	8.46e-01	0	58	104	2262827008	67	13117
2026-01-01 11:40:58.85	333.18	51.04	-52.9	-63.6	3.8	8.47e-01	0	58	104	2262827008	67	13121
2026-01-01 11:41:02.80	333.21	49.70	-52.8	-63.5	3.8	8.46e-01	0	58	104	2262827008	67	13097
2026-01-01 11:41:06.77	333.24	48.39	-52.6	-63.5	3.8	8.46e-01	0	58	104	2262827008	67	13091
2026-01-01 11:41:10.72	333.27	47.13	-52.8	-63.5	3.8	8.46e-01	0	58	104	2262827008	67	13096
2026-01-01 11:41:14.67	333.29	45.90	-52.8	-63.5	3.8	8.46e-01	0	58	104	2262827008	67	13097
2026-01-01 11:41:18.63	333.32	44.71	-52.8	-63.5	3.8	8.47e-01	0	58	104	2262827008	67	13053
2026-01-01 11:41:22.59	333.35	43.55	-52.8	-63.6	3.8	8.45e-01	0	58	104	2262827008	67	13136
2026-01-01 11:41:26.56	333.37	42.42	-52.7	-63.5	3.8	8.45e-01	0	58	104	2262827008	67	13041
2026-01-01 11:41:30.51	333.40	41.33	-52.8	-63.5	3.8	8.45e-01	0	58	104	2262827008	67	13068
2026-01-01 11:41:34.49	333.42	40.27	-52.8	-63.5	3.8	8.46e-01	0	58	104	2262827008	67	13051
2026-01-01 11:41:38.45	333.44	39.24	-52.7	-63.5	3.8	8.46e-01	0	58	104	2262827008	67	13024
2026-01-01 11:41:42.42	333.47	38.24	-52.8	-63.5	3.8	8.46e-01	0	58	104	2262827008	67	13069
2026-01-01 11:41:46.37	333.49	37.27	-52.8	-63.5	3.8	8.46e-01	0	58	104	2262827008	67	13045
2026-01-01 11:41:50.34	333.51	36.32	-52.8	-63.5	3.8	8.46e-01	0	58	104	2262827008	67	13041
2026-01-01 11:41:54.29	333.53	35.41	-52.7	-63.5	3.8	8.46e-01	0	58	104	2262827008	67	13005
2026-01-01 11:41:58.24	333.56	34.52	-52.7	-63.5	3.8	8.47e-01	0	58	104	2262827008	67	13002
2026-01-01 11:42:02.19	333.58	33.66	-52.7	-63.5	3.8	8.46e-01	0	58	104	2262827008	67	13015
2026-01-01 11:42:06.13	333.60	32.82	-52.7	-63.5	3.8	8.47e-01	0	58	104	2262827008	67	12988
2026-01-01 11:42:10.10	333.62	32.00	-52.7	-63.5	3.8	8.46e-01	0	58	104	2262827008	67	12968
2026-01-01 11:42:14.06	333.64	31.20	-52.5	-63.5	3.8	8.47e-01	0	58	104	2262827008	67	12977
2026-01-01 11:42:18.02	333.66	30.43	-52.7	-63.5	3.8	8.45e-01	0	58	104	2262827008	67	12972
2026-01-01 11:42:21.98	333.68	29.67	-52.7	-63.4	3.8	8.47e-01	0	58	104	2262827008	67	12941
2026-01-01 11:42:25.94	333.70	28.94	-52.7	-63.4	3.8	8.46e-01	0	58	104	2262827008	67	12941
2026-01-01 11:42:29.90	333.72	28.22	-52.7	-63.4	3.8	8.46e-01	0	58	104	2262827008	67	12903
2026-01-01 11:42:33.84	333.74	27.53	-52.7	-63.4	3.8	8.46e-01	0	58	104	2262827008	67	12892
2026-01-01 11:42:37.80	333.76	26.85	-52.6	-63.4	3.8	8.46e-01	0	58	104	2262827008	67	12868
2026-01-01 11:42:41.75	333.78	26.18	-52.7	-63.4	3.8	8.45e-01	0	58	104	2262827008	67	12921
2026-01-01 11:42:45.71	333.80	25.53	-52.4	-63.4	3.8	8.46e-01	0	58	104	2262827008	67	12876
2026-01-01 11:42:49.68	333.82	24.90	-52.6	-63.4	3.8	8.47e-01	0	58	104	2262827008	67	12849
2026-01-01 11:42:53.64	333.84	24.28	-52.6	-63.4	3.8	8.47e-01	0	58	104	2262827008	67	12849
2026-01-01 11:42:57.60	333.86	23.68	-52.6	-63.3	3.8	8.47e-01	0	58	104	2262827008	67	12798
2026-01-01 11:43:01.56	333.88	23.09	-52.4	-63.3	3.8	8.47e-01	0	58	104	2262827008	67	12776
2026-01-01 11:43:05.53	333.89	22.51	-52.4	-63.3	3.8	8.46e-01	0	58	104	2262827008	67	12743
2026-01-01 11:43:09.49	333.91	21.95	-52.6	-63.3	3.8	8.46e-01	0	58	104	2262827008	67	12805
2026-01-01 11:43:13.46	333.93	21.39	-52.4	-63.3	3.8	8.47e-01	0	58	104	2262827008	67	12773
2026-01-01 11:43:17.43	333.95	20.85	-52.3	-63.3	3.8	8.47e-01	0	58	104	2262827008	67	12775
2026-01-01 11:43:21.40	333.97	20.32	-52.6	-63.3	3.8	8.46e-01	0	58	104	2262827008	67	12770
2026-01-01 11:43:25.36	333.99	19.80	-52.3	-63.3	3.8	8.45e-01	0	58	104	2262827008	67	12744
2026-01-01 11:43:29.30	334.01	19.30	-52.4	-63.3	3.8	8.46e-01	0	58	104	2262827008	67	12712
2026-01-01 11:43:33.24	334.02	18.80	-52.5	-63.3	3.8	8.45e-01	0	58	104	2262827008	67	12726
2026-01-01 11:43:37.20	334.04	18.32	-52.4	-63.2	3.8	8.45e-01	0	58	104	2262827008	67	12663
2026-01-01 11:43:41.16	334.06	17.84	-52.5	-63.2	3.8	8.47e-01	0	58	104	2262827008	67	12650
2026-01-01 11:43:45.12	334.08	17.37	-52.3	-63.2	3.8	8.46e-01	0	58	104	2262827008	67	12598
2026-01-01 11:43:49.08	334.10	16.91	-52.5	-63.2	3.8	8.46e-01	0	58	104	2262827008	67	12628
2026-01-01 11:43:53.04	334.12	16.46	-52.3	-63.2	3.8	8.46e-01	0	58	104	2262827008	67	12595
2026-01-01 11:43:57.00	334.13	16.02	-52.3	-63.2	3.8	8.46e-01	0	58	104	2262827008	67	12610
2026-01-01 11:44:00.97	334.15	15.58	-52.3	-63.2	3.8	8.46e-01	0	58	104	2262827008	67	12582
2026-01-01 11:44:04.93	334.17	15.15	-52.4	-63.2	3.8	8.45e-01	0	58	104	2262827008	67	12538
2026-01-01 11:44:08.89	334.19	14.73	-52.4	-63.2	3.8	8.46e-01	0	58	104	2262827008	67	12564
2026-01-01 11:44:12.85	334.21	14.32	-52.4	-63.2	3.8	8.46e-01	0	58	104	2262827008	67	12550
2026-01-01 11:44:16.81	334.22	13.92	-52.4	-63.2	3.8	8.46e-01	0	58	104	2262827008	67	12531
2026-01-01 11:44:20.77	334.24	13.52	-52.2	-63.1	3.8	8.46e-01	0	58	104	2262827008	67	12420
2026-01-01 11:44:24.75	334.26	13.12	-52.2	-63.1	3.8	8.46e-01	0	58	104	2262827008	67	12402
2026-01-01 11:44:28.70	334.28	12.74	-52.3	-63.1	3.8	8.46e-01	0	58	104	2262827008	67	12397
2026-01-01 11:44:32.66	334.30	12.36	-52.3	-63.0	3.8	8.45e-01	0	58	104	2262827008	67	12355
2026-01-01 11:44:36.62	334.31	11.98	-52.2	-63.0	3.8	8.46e-01	0	58	104	2262827008	67	12292
2026-01-01 11:44:40.59	334.33	11.61	-52.2	-63.0	3.8	8.47e-01	0	58	104	2262827008	67	12296
2026-01-01 11:44:44.55	334.35	11.25	-52.3	-63.0	3.8	8.46e-01	0	58	104	2262827008	67	12273
2026-01-01 11:44:48.51	334.37	10.89	-52.0	-63.0	3.8	8.45e-01	0	58	104	2262827008	66	13010
2026-01-01 11:44:52.46	334.39	10.54	-52.2	-63.0	3.8	8.47e-01	0	58	104	2262827008	66	12987
2026-01-01 11:44:56.42	334.40	10.19	-52.2	-63.0	3.8	8.46e-01	0	58	104	2262827008	66	12985
2026-01-01 11:45:00.37	334.42	9.85	-52.1	-62.9	3.8	8.46e-01	0	58	104	2262827008	66	12931
2026-01-01 11:45:04.33	334.44	9.51	-52.2	-62.9	3.8	8.45e-01	0	58	104	2262827008	66	12915
2026-01-01 11:45:08.28	334.46	9.18	-52.0	-62.9	3.8	8.45e-01	0	58	104	2262827008	66	12872
2026-01-01 11:45:12.23	334.47	8.85	-52.1	-62.8	3.8	8.46e-01	0	58	104	2262827008	66	12790
2026-01-01 11:45:16.21	334.49	8.52	-51.9	-62.8	3.8	8.45e-01	0	58	104	2262827008	66	12708
2026-01-01 11:45:20.15	334.51	8.20	-52.0	-62.8	3.8	8.47e-01	0	58	104	2262827008	66	12673
2026-01-01 11:45:24.10	334.53	7.88	-51.9	-62.7	3.8	8.47e-01	0	58	104	2262827008	65	13271
2026-01-01 11:45:28.07	334.55	7.57	-51.8	-62.6	3.8	8.46e-01	0	58	104	2262827008	65	13247
2026-01-01 11:45:32.01	334.56	7.26	-51.8	-62.6	3.8	8.45e-01	0	58	104	2262827008	65	13207
2026-01-01 11:45:35.96	334.58	6.96	-51.9	-62.6	3.8	8.46e-01	0	58	104	2262827008	65	13206
2026-01-01 11:45:39.91	334.60	6.66	-51.8	-62.6	3.8	8.46e-01	0	58	104	2262827008	65	13199
2026-01-01 11:45:43.87	334.62	6.36	-51.8	-62.5	3.8	8.47e-01	0	59	104	2262827008	65	13074
2026-01-01 11:45:47.83	334.63	6.06	-51.8	-62.6	3.8	8.45e-01	0	58	104	2262827008	65	13132
2026-01-01 11:45:51.77	334.65	5.77	-51.7	-62.5	3.8	8.45e-01	0	59	104	2262827008	65	13056
2026-01-01 11:45:55.74	334.67	5.48	-51.7	-62.5	3.8	8.46e-01	0	59	104	2262827008	65	12964
2026-01-01 11:45:59.70	334.69	5.20	-51.6	-62.3	3.8	8.46e-01	0	59	104	2262827008	65	12779
2026-01-01 11:46:03.66	334.70	4.92	-52.0	-62.7	3.8	8.46e-01	0	58	104	2262827008	65	13341
2026-01-01 11:46:07.62	334.72	4.64	-52.3	-63.2	3.8	8.45e-01	0	59	104	2262827008	66	13380
2026-01-01 11:46:11.57	334.74	4.36	-52.7	-63.4	3.8	8.46e-01	0	59	104	2262827008	67	12906
2026-01-01 11:46:15.52	334.76	4.09	-52.7	-63.5	3.8	8.46e-01	0	59	104	2262827008	67	13052
2026-01-01 11:46:19.48	334.78	3.82	-52.8	-63.5	3.8	8.47e-01	0	58	104	2262827008	67	13031
2026-01-01 11:46:23.45	334.79	3.55	-52.7	-63.5	3.8	8.46e-01	0	59	104	2262827008	67	13078
2026-01-01 11:46:27.42	334.81	3.28	-52.8	-63.5	3.8	8.45e-01	0	58	104	2262827008	67	13095
2026-01-01 11:46:31.38	334.83	3.02	-52.8	-63.5	3.8	8.47e-01	0	58	104	2262827008	67	13093

#Closed at: 2026-01-01 11:46:32
#Recorded file [2262 MB]: D:/Data/31026_260101_143934.dat