passes_logs/2026/01/01/R3.0SM8_Murmansk_STILSPACE/R3.0SM8_Murmansk_STILSPACE__20260101_103122_SUOMI_NPP_rec.log

#Pass ID: 20260101_103122_SUOMI NPP
#Satellite: SUOMI NPP
#Configuration: NPP
#almurnet v.1.7.20240730
#Start time: 2026-01-01 10:31:21

#Version: 2.2.20231116
#Station: R3.0SM8_Murmansk_STILSPACE
#Location: 33.092731 lon 68.902999 lat
#TLE: 1 37849U 11061A   25364.87906317  .00000195  00000+0  11345-3 0  9992
#TLE: 2 37849  98.7794 302.0592 0002571  89.2401 270.9069 14.19520347734561

#Time	Az	El	Level	Level2	SNR	BER	BlckErr	Temp	State	Recorded	gain1	gain2
2026-01-01 10:31:21.93	174.78	2.97	-52.3	-66.3	3.8	1.49e+00	0	46	0	0	66	19052
2026-01-01 10:31:25.88	174.90	3.22	-52.2	-66.1	3.8	1.49e+00	0	46	104	0	67	17615
2026-01-01 10:31:29.84	175.03	3.48	-51.7	-65.5	3.8	1.49e+00	0	47	104	0	66	17473
2026-01-01 10:31:33.78	175.15	3.75	-51.5	-65.3	3.8	1.49e+00	0	47	104	0	65	17947
2026-01-01 10:31:37.73	175.28	4.01	-51.6	-65.1	3.8	1.49e+00	0	47	104	0	65	17637
2026-01-01 10:31:41.68	175.41	4.28	-51.4	-64.8	3.8	1.49e+00	0	48	104	0	65	16909
2026-01-01 10:31:45.65	175.54	4.55	-51.4	-62.5	3.9	1.47e+00	0	48	104	0	65	13063
2026-01-01 10:31:49.62	175.68	4.82	-50.9	-58.4	6.0	4.17e-01	0	48	0	4194304	64	8599
2026-01-01 10:31:53.58	175.81	5.10	-50.2	-55.6	8.6	4.51e-02	0	48	0	12582912	63	6581
2026-01-01 10:31:57.53	175.95	5.38	-50.0	-54.7	9.5	2.20e-02	0	48	0	19922944	63	5980
2026-01-01 10:32:01.50	176.09	5.66	-49.1	-52.8	11.5	9.89e-04	0	49	0	27262976	61	5364
2026-01-01 10:32:05.47	176.24	5.95	-48.9	-52.1	12.2	2.58e-04	0	49	0	34603008	60	5272
2026-01-01 10:32:09.42	176.38	6.23	-48.8	-52.0	12.4	1.91e-04	0	49	0	41943040	60	5210
2026-01-01 10:32:13.37	176.53	6.52	-48.9	-52.3	12.1	3.69e-04	0	49	0	49283072	60	5348
2026-01-01 10:32:17.32	176.68	6.82	-48.6	-51.7	12.8	6.86e-05	0	50	0	56623104	60	4995
2026-01-01 10:32:21.27	176.83	7.11	-48.4	-51.2	13.3	2.82e-05	0	50	0	63963136	59	5036
2026-01-01 10:32:25.23	176.99	7.41	-48.5	-51.2	13.4	1.29e-05	0	50	0	71303168	59	5001
2026-01-01 10:32:29.19	177.15	7.72	-48.3	-51.0	13.7	9.10e-06	0	50	0	78643200	59	4877
2026-01-01 10:32:33.15	177.31	8.02	-48.1	-50.5	14.1	3.00e-06	0	50	0	85983232	59	4642
2026-01-01 10:32:37.11	177.48	8.34	-48.2	-50.7	14.0	5.30e-06	0	51	0	93323264	59	4726
2026-01-01 10:32:41.06	177.65	8.65	-48.1	-50.4	14.3	0.00e+00	0	51	0	100663296	59	4591
2026-01-01 10:32:45.03	177.82	8.97	-47.8	-50.1	14.6	0.00e+00	0	51	0	109051904	58	4674
2026-01-01 10:32:48.98	178.00	9.29	-47.8	-50.0	14.7	0.00e+00	0	51	0	116391936	58	4639
2026-01-01 10:32:52.92	178.18	9.62	-47.8	-50.0	14.8	1.50e-06	0	51	0	123731968	58	4617
2026-01-01 10:32:56.87	178.36	9.94	-47.9	-50.1	14.7	0.00e+00	0	51	0	131072000	58	4676
2026-01-01 10:33:00.81	178.55	10.28	-47.9	-50.0	14.8	0.00e+00	0	52	0	138412032	58	4641
2026-01-01 10:33:04.77	178.74	10.62	-47.8	-50.0	14.8	0.00e+00	0	52	0	145752064	58	4606
2026-01-01 10:33:08.72	178.94	10.96	-47.8	-50.0	14.8	0.00e+00	0	52	0	153092096	58	4634
2026-01-01 10:33:12.67	179.14	11.31	-47.2	-49.2	15.6	0.00e+00	0	52	0	160432128	57	4474
2026-01-01 10:33:16.63	179.34	11.66	-47.3	-49.3	15.6	0.00e+00	0	52	0	167772160	57	4500
2026-01-01 10:33:20.57	179.55	12.02	-47.4	-49.5	15.4	0.00e+00	0	52	0	175112192	57	4622
2026-01-01 10:33:24.52	179.76	12.38	-47.5	-49.5	15.4	0.00e+00	0	52	0	182452224	57	4621
2026-01-01 10:33:28.47	179.98	12.75	-47.5	-49.6	15.3	0.00e+00	0	52	0	189792256	57	4678
2026-01-01 10:33:32.42	180.21	13.12	-47.3	-49.3	15.6	0.00e+00	0	53	0	197132288	57	4511
2026-01-01 10:33:36.39	180.44	13.50	-47.4	-49.4	15.5	0.00e+00	0	53	0	204472320	57	4550
2026-01-01 10:33:40.35	180.67	13.88	-47.2	-49.1	15.8	0.00e+00	0	53	0	212860928	57	4409
2026-01-01 10:33:44.29	180.91	14.27	-47.3	-49.2	15.7	0.00e+00	0	53	0	220200960	57	4466
2026-01-01 10:33:48.26	181.16	14.67	-47.3	-49.2	15.7	0.00e+00	0	53	0	227540992	57	4477
2026-01-01 10:33:52.23	181.41	15.07	-47.4	-49.3	15.7	0.00e+00	0	53	0	234881024	57	4520
2026-01-01 10:33:56.17	181.67	15.48	-47.5	-49.6	15.4	0.00e+00	0	53	0	242221056	57	4671
2026-01-01 10:34:00.13	181.94	15.89	-47.1	-49.0	16.0	0.00e+00	0	53	0	249561088	57	4361
2026-01-01 10:34:04.10	182.21	16.31	-46.8	-48.5	16.5	0.00e+00	0	53	0	256901120	56	4363
2026-01-01 10:34:08.04	182.49	16.74	-47.1	-48.8	16.2	0.00e+00	0	53	0	264241152	56	4531
2026-01-01 10:34:11.99	182.78	17.17	-47.1	-48.8	16.2	0.00e+00	0	53	0	271581184	56	4516
2026-01-01 10:34:15.93	183.08	17.61	-47.3	-49.2	15.8	0.00e+00	0	54	0	278921216	56	4731
2026-01-01 10:34:19.87	183.38	18.06	-47.2	-48.9	16.1	0.00e+00	0	53	0	286261248	56	4582
2026-01-01 10:34:23.83	183.70	18.52	-46.5	-48.0	17.0	0.00e+00	0	54	0	293601280	56	4112
2026-01-01 10:34:27.78	184.02	18.98	-46.4	-47.9	17.0	0.00e+00	0	54	0	300941312	55	4332
2026-01-01 10:34:31.72	184.35	19.45	-45.8	-47.1	17.8	0.00e+00	0	54	0	308281344	54	4166
2026-01-01 10:34:35.67	184.69	19.93	-45.9	-47.2	17.7	0.00e+00	0	54	0	315621376	54	4231
2026-01-01 10:34:39.63	185.05	20.42	-46.0	-47.5	17.5	0.00e+00	0	54	0	324009984	54	4347
2026-01-01 10:34:43.59	185.41	20.92	-46.4	-48.0	17.0	0.00e+00	0	54	0	331350016	54	4602
2026-01-01 10:34:47.54	185.79	21.43	-46.3	-47.9	17.1	0.00e+00	0	54	0	338690048	54	4555
2026-01-01 10:34:51.51	186.18	21.94	-46.3	-47.9	17.1	0.00e+00	0	54	0	346030080	54	4569
2026-01-01 10:34:55.46	186.57	22.47	-46.1	-47.6	17.4	0.00e+00	0	54	0	353370112	54	4409
2026-01-01 10:34:59.41	186.99	23.00	-46.0	-47.4	17.5	0.00e+00	0	54	0	360710144	54	4336
2026-01-01 10:35:03.37	187.42	23.55	-45.7	-47.1	17.9	0.00e+00	0	54	0	368050176	54	4160
2026-01-01 10:35:07.32	187.86	24.10	-45.8	-47.1	17.8	0.00e+00	0	54	0	375390208	54	4178
2026-01-01 10:35:11.28	188.32	24.67	-45.1	-46.3	18.6	0.00e+00	0	54	0	382730240	53	4032
2026-01-01 10:35:15.25	188.79	25.25	-45.0	-46.1	18.7	0.00e+00	0	54	0	390070272	53	3952
2026-01-01 10:35:19.21	189.28	25.83	-45.4	-46.7	18.3	0.00e+00	0	54	0	397410304	53	4222
2026-01-01 10:35:23.17	189.79	26.43	-45.3	-46.6	18.4	0.00e+00	0	54	0	404750336	53	4163
2026-01-01 10:35:27.13	190.32	27.04	-45.9	-47.3	17.7	0.00e+00	0	55	0	412090368	53	4518
2026-01-01 10:35:31.08	190.87	27.66	-46.5	-48.1	17.0	0.00e+00	0	55	0	420478976	54	4663
2026-01-01 10:35:35.04	191.44	28.29	-47.0	-48.7	16.3	0.00e+00	0	55	0	427819008	55	4757
2026-01-01 10:35:39.01	192.03	28.93	-47.0	-48.7	16.4	0.00e+00	0	54	0	435159040	55	4751
2026-01-01 10:35:42.97	192.65	29.59	-47.7	-49.7	15.5	0.00e+00	0	55	0	442499072	57	4726
2026-01-01 10:35:46.92	193.29	30.25	-48.5	-50.8	14.4	0.00e+00	0	55	0	449839104	58	5099
2026-01-01 10:35:50.89	193.95	30.93	-48.9	-51.7	13.6	2.44e-05	0	55	0	457179136	60	4988
2026-01-01 10:35:54.84	194.65	31.62	-48.7	-51.5	13.8	2.28e-05	0	55	0	464519168	60	4878
2026-01-01 10:35:58.80	195.37	32.33	-48.5	-50.8	14.4	0.00e+00	0	55	0	471859200	59	4804
2026-01-01 10:36:02.76	196.13	33.04	-48.5	-50.8	14.5	7.00e-07	0	55	0	479199232	59	4800
2026-01-01 10:36:06.72	196.92	33.76	-47.8	-49.7	15.5	0.00e+00	0	55	0	486539264	58	4484
2026-01-01 10:36:10.66	197.74	34.50	-48.2	-50.4	14.9	0.00e+00	0	55	0	493879296	58	4816
2026-01-01 10:36:14.62	198.60	35.25	-48.5	-50.8	14.4	1.50e-06	0	55	0	501219328	59	4788
2026-01-01 10:36:18.58	199.50	36.00	-48.8	-51.2	14.2	7.00e-07	0	55	0	508559360	59	4988
2026-01-01 10:36:22.54	200.45	36.77	-49.1	-51.7	13.6	5.30e-06	0	55	0	516947968	59	5302
2026-01-01 10:36:26.49	201.44	37.55	-49.8	-53.1	12.1	1.36e-04	0	55	0	524288000	61	5589
2026-01-01 10:36:30.43	202.47	38.33	-48.4	-50.6	14.7	1.50e-06	0	55	0	531628032	59	4660
2026-01-01 10:36:34.38	203.55	39.12	-47.4	-49.2	16.1	0.00e+00	0	55	0	538968064	57	4473
2026-01-01 10:36:38.34	204.69	39.92	-47.1	-48.7	16.6	0.00e+00	0	55	0	546308096	56	4493
2026-01-01 10:36:42.30	205.89	40.73	-47.7	-49.7	15.6	0.00e+00	0	56	0	553648128	57	4758
2026-01-01 10:36:46.26	207.15	41.54	-47.1	-48.7	16.6	0.00e+00	0	55	0	560988160	56	4444
2026-01-01 10:36:50.21	208.47	42.34	-48.2	-50.2	15.0	0.00e+00	0	55	0	568328192	58	4747
2026-01-01 10:36:54.16	209.85	43.15	-48.5	-50.9	14.5	0.00e+00	0	55	0	575668224	59	4817
2026-01-01 10:36:58.11	211.31	43.96	-48.7	-51.1	14.2	2.20e-06	0	55	0	583008256	59	4950
2026-01-01 10:37:02.05	212.83	44.76	-48.6	-51.0	14.2	2.20e-06	0	55	0	590348288	59	4921
2026-01-01 10:37:06.00	214.44	45.56	-49.4	-52.4	12.9	1.19e-04	0	56	0	597688320	61	5128
2026-01-01 10:37:09.95	216.13	46.35	-49.2	-52.0	13.3	2.67e-05	0	55	0	605028352	60	5200
2026-01-01 10:37:13.90	217.90	47.12	-49.3	-52.2	13.1	7.93e-05	0	55	0	612368384	61	5012
2026-01-01 10:37:17.86	219.77	47.88	-48.7	-51.1	14.3	7.00e-07	0	56	0	619708416	59	4953
2026-01-01 10:37:21.82	221.73	48.62	-48.2	-50.3	15.2	0.00e+00	0	56	0	628097024	58	4763
2026-01-01 10:37:25.78	223.78	49.33	-48.5	-50.8	14.5	7.00e-07	0	56	0	635437056	59	4809
2026-01-01 10:37:29.73	225.92	50.01	-48.4	-50.8	14.6	0.00e+00	0	56	0	642777088	59	4783
2026-01-01 10:37:33.67	228.15	50.66	-47.7	-49.6	15.8	0.00e+00	0	55	0	650117120	58	4394
2026-01-01 10:37:37.64	230.49	51.27	-47.3	-49.1	16.2	0.00e+00	0	56	0	657457152	57	4430
2026-01-01 10:37:41.59	232.91	51.84	-47.3	-49.0	16.3	0.00e+00	0	56	0	664797184	57	4345
2026-01-01 10:37:45.55	235.43	52.36	-46.2	-47.6	17.6	0.00e+00	0	56	0	672137216	55	4156
2026-01-01 10:37:49.51	238.03	52.82	-47.9	-49.8	15.4	0.00e+00	0	56	0	679477248	57	4811
2026-01-01 10:37:53.46	240.70	53.23	-46.5	-47.9	17.3	0.00e+00	0	56	0	686817280	56	4080
2026-01-01 10:37:57.42	243.45	53.58	-48.1	-50.2	15.2	7.00e-07	0	56	0	694157312	58	4721
2026-01-01 10:38:01.38	246.26	53.86	-47.2	-48.9	16.4	0.00e+00	0	56	0	701497344	57	4313
2026-01-01 10:38:05.32	249.11	54.08	-48.1	-50.2	15.2	0.00e+00	0	56	0	708837376	58	4714
2026-01-01 10:38:09.28	252.00	54.22	-48.1	-50.2	15.2	0.00e+00	0	56	0	716177408	58	4734
2026-01-01 10:38:13.23	254.91	54.29	-49.1	-51.8	13.5	3.00e-06	0	56	0	723517440	60	5092
2026-01-01 10:38:17.21	257.84	54.29	-47.8	-49.8	15.5	0.00e+00	0	56	0	731906048	58	4542
2026-01-01 10:38:21.16	260.75	54.21	-47.1	-48.7	16.5	0.00e+00	0	56	0	739246080	57	4239
2026-01-01 10:38:25.11	263.63	54.07	-47.9	-49.8	15.5	0.00e+00	0	56	0	746586112	57	4805
2026-01-01 10:38:29.07	266.48	53.85	-46.5	-47.9	17.3	0.00e+00	0	56	0	753926144	56	4079
2026-01-01 10:38:33.02	269.28	53.56	-47.2	-48.9	16.4	0.00e+00	0	56	0	761266176	56	4578
2026-01-01 10:38:36.98	272.02	53.21	-47.7	-49.7	15.6	0.00e+00	0	56	0	768606208	57	4730
2026-01-01 10:38:40.92	274.68	52.80	-47.5	-49.3	16.0	0.00e+00	0	56	0	775946240	58	4291
2026-01-01 10:38:44.87	277.27	52.34	-48.4	-50.7	14.7	0.00e+00	0	56	0	783286272	58	4994
2026-01-01 10:38:48.84	279.79	51.81	-46.9	-48.5	16.8	0.00e+00	0	56	0	790626304	56	4356
2026-01-01 10:38:52.79	282.20	51.24	-47.4	-49.1	16.2	0.00e+00	0	56	0	797966336	57	4396
2026-01-01 10:38:56.74	284.53	50.63	-46.2	-47.6	17.6	0.00e+00	0	56	0	805306368	55	4170
2026-01-01 10:39:00.68	286.75	49.99	-46.6	-48.1	17.1	0.00e+00	0	56	0	812646400	54	4702
2026-01-01 10:39:04.63	288.88	49.31	-46.2	-47.5	17.6	0.00e+00	0	56	0	819986432	55	4132
2026-01-01 10:39:08.57	290.91	48.60	-48.4	-50.7	14.6	7.00e-07	0	56	0	827326464	58	5032
2026-01-01 10:39:12.54	292.87	47.86	-48.9	-51.4	13.9	2.20e-06	0	56	0	835715072	59	5126
2026-01-01 10:39:16.50	294.73	47.10	-49.0	-51.8	13.6	1.90e-05	0	56	0	843055104	61	4779
2026-01-01 10:39:20.45	296.50	46.33	-48.7	-51.2	14.1	3.80e-06	0	56	0	850395136	60	4713
2026-01-01 10:39:24.42	298.19	45.54	-50.2	-54.3	10.9	8.55e-04	0	56	0	857735168	62	6034
2026-01-01 10:39:28.38	299.79	44.75	-50.4	-54.4	10.9	8.21e-04	0	56	0	865075200	63	5744
2026-01-01 10:39:32.34	301.32	43.94	-51.1	-56.3	8.9	2.84e-02	0	56	0	872415232	64	6764
2026-01-01 10:39:36.30	302.77	43.14	-52.2	-62.6	4.2	9.89e-01	0	56	0	879755264	66	12412
2026-01-01 10:39:40.26	304.15	42.33	-50.6	-55.2	9.9	8.22e-03	0	56	0	886046720	64	5936
2026-01-01 10:39:44.23	305.47	41.52	-50.5	-55.1	10.0	3.84e-02	0	56	0	893386752	64	5864
2026-01-01 10:39:48.19	306.73	40.71	-50.2	-54.0	11.2	1.09e-03	0	56	0	900726784	62	5838
2026-01-01 10:39:52.16	307.92	39.91	-49.6	-52.8	12.4	2.15e-03	0	56	0	908066816	62	5063
2026-01-01 10:39:56.12	309.06	39.11	-49.9	-53.5	11.7	9.90e-06	0	56	0	915406848	61	5846
2026-01-01 10:40:00.07	310.14	38.32	-48.5	-50.9	14.4	1.14e-05	0	56	0	923795456	60	4553
2026-01-01 10:40:04.03	311.17	37.54	-48.4	-50.8	14.5	0.00e+00	0	56	0	931135488	58	5070
2026-01-01 10:40:07.99	312.15	36.77	-48.2	-50.4	14.9	2.20e-06	0	56	0	938475520	59	4562
2026-01-01 10:40:11.95	313.09	36.00	-46.8	-48.4	16.8	0.00e+00	0	56	0	945815552	55	4550
2026-01-01 10:40:15.91	313.99	35.25	-48.5	-50.9	14.4	1.50e-06	0	56	0	953155584	59	4852
2026-01-01 10:40:19.87	314.85	34.50	-47.7	-49.7	15.6	0.00e+00	0	56	0	960495616	58	4464
2026-01-01 10:40:23.82	315.67	33.77	-49.4	-52.3	13.0	3.35e-05	0	56	0	967835648	60	5380
2026-01-01 10:40:27.77	316.46	33.05	-48.8	-51.4	13.8	1.06e-05	0	56	0	975175680	60	4862
2026-01-01 10:40:31.73	317.21	32.34	-48.0	-50.1	15.2	7.00e-07	0	56	0	982515712	58	4660
2026-01-01 10:40:35.68	317.93	31.65	-49.8	-53.0	12.1	1.11e-04	0	56	0	989855744	61	5526
2026-01-01 10:40:39.63	318.62	30.96	-49.0	-52.0	13.3	3.81e-05	0	56	0	997195776	60	5199
2026-01-01 10:40:43.60	319.29	30.28	-48.2	-50.4	14.9	0.00e+00	0	56	0	1004535808	59	4567
2026-01-01 10:40:47.56	319.93	29.62	-48.9	-51.6	13.7	7.00e-07	0	56	0	1011875840	59	5238
2026-01-01 10:40:51.51	320.54	28.97	-49.1	-52.1	13.2	9.84e-05	0	56	0	1020264448	60	5246
2026-01-01 10:40:55.47	321.13	28.33	-48.4	-50.8	14.5	7.00e-07	0	56	0	1027604480	59	4764
2026-01-01 10:40:59.43	321.70	27.70	-47.1	-48.8	16.4	0.00e+00	0	57	0	1034944512	57	4279
2026-01-01 10:41:03.38	322.25	27.09	-48.3	-50.6	14.6	0.00e+00	0	56	0	1042284544	58	4964
2026-01-01 10:41:07.33	322.77	26.48	-49.1	-52.2	13.0	2.82e-05	0	56	0	1049624576	60	5295
2026-01-01 10:41:11.28	323.28	25.89	-48.9	-51.7	13.5	1.83e-05	0	56	0	1056964608	60	5002
2026-01-01 10:41:15.24	323.77	25.31	-48.2	-50.3	14.9	0.00e+00	0	56	0	1064304640	59	4512
2026-01-01 10:41:19.19	324.25	24.73	-48.6	-51.0	14.1	3.00e-06	0	56	0	1071644672	59	4921
2026-01-01 10:41:23.14	324.70	24.17	-49.1	-51.8	13.4	3.80e-06	0	56	0	1078984704	60	5091
2026-01-01 10:41:27.09	325.14	23.62	-48.6	-51.2	14.0	1.50e-06	0	56	0	1086324736	60	4751
2026-01-01 10:41:31.03	325.57	23.08	-48.6	-51.0	14.2	7.00e-07	0	56	0	1093664768	59	4884
2026-01-01 10:41:34.99	325.98	22.55	-47.4	-49.2	15.9	0.00e+00	0	57	0	1101004800	57	4460
2026-01-01 10:41:38.94	326.39	22.03	-47.3	-49.0	16.1	0.00e+00	0	56	0	1108344832	57	4373
2026-01-01 10:41:42.89	326.77	21.51	-47.5	-49.4	15.7	0.00e+00	0	56	0	1115684864	57	4583
2026-01-01 10:41:46.85	327.15	21.01	-47.9	-50.1	15.0	0.00e+00	0	56	0	1123024896	57	4954
2026-01-01 10:41:50.80	327.51	20.51	-48.1	-50.4	14.7	7.00e-07	0	56	0	1131413504	58	4834
2026-01-01 10:41:54.76	327.87	20.02	-47.5	-49.3	15.8	0.00e+00	0	56	0	1138753536	58	4282
2026-01-01 10:41:58.72	328.21	19.55	-47.1	-48.8	16.3	0.00e+00	0	56	0	1146093568	57	4261
2026-01-01 10:42:02.68	328.55	19.07	-47.1	-48.9	16.3	0.00e+00	0	57	0	1153433600	56	4548
2026-01-01 10:42:06.64	328.87	18.61	-47.7	-49.8	15.3	0.00e+00	0	57	0	1160773632	57	4762
2026-01-01 10:42:10.61	329.19	18.15	-47.5	-49.4	15.7	0.00e+00	0	56	0	1168113664	57	4562
2026-01-01 10:42:14.57	329.49	17.71	-47.2	-49.1	16.0	0.00e+00	0	56	0	1175453696	57	4416
2026-01-01 10:42:18.52	329.79	17.27	-46.8	-48.4	16.6	0.00e+00	0	56	0	1182793728	56	4309
2026-01-01 10:42:22.49	330.08	16.83	-46.2	-47.6	17.2	0.00e+00	0	56	0	1190133760	55	4192
2026-01-01 10:42:26.46	330.36	16.41	-46.0	-47.4	17.5	0.00e+00	0	57	0	1197473792	54	4294
2026-01-01 10:42:30.40	330.64	15.99	-46.3	-47.8	17.1	0.00e+00	0	56	0	1204813824	54	4500
2026-01-01 10:42:34.34	330.90	15.58	-47.0	-48.8	16.1	0.00e+00	0	56	0	1212153856	55	4789
2026-01-01 10:42:38.29	331.17	15.17	-47.9	-50.0	15.0	0.00e+00	0	56	0	1219493888	57	4898
2026-01-01 10:42:42.26	331.42	14.77	-48.4	-51.0	14.0	1.50e-06	0	57	0	1227882496	58	5185
2026-01-01 10:42:46.22	331.67	14.38	-48.8	-51.5	13.5	7.60e-06	0	57	0	1235222528	59	5210
2026-01-01 10:42:50.18	331.91	13.99	-48.6	-51.2	13.8	3.00e-06	0	57	0	1242562560	59	4999
2026-01-01 10:42:54.12	332.15	13.61	-48.2	-50.6	14.3	0.00e+00	0	57	0	1249902592	59	4693
2026-01-01 10:42:58.08	332.38	13.23	-47.9	-50.0	15.0	0.00e+00	0	57	0	1257242624	58	4602
2026-01-01 10:43:02.04	332.61	12.86	-47.5	-49.4	15.5	0.00e+00	0	56	0	1264582656	58	4324
2026-01-01 10:43:06.00	332.83	12.49	-46.8	-48.5	16.4	0.00e+00	0	56	0	1271922688	56	4341
2026-01-01 10:43:09.96	333.04	12.13	-46.7	-48.3	16.5	0.00e+00	0	57	0	1279262720	56	4288
2026-01-01 10:43:13.91	333.25	11.77	-46.8	-48.6	16.2	0.00e+00	0	57	0	1286602752	56	4417
2026-01-01 10:43:17.86	333.46	11.42	-47.2	-49.2	15.6	0.00e+00	0	57	0	1293942784	56	4713
2026-01-01 10:43:21.83	333.66	11.08	-47.2	-49.2	15.5	0.00e+00	0	57	0	1301282816	56	4748
2026-01-01 10:43:25.79	333.86	10.73	-47.6	-49.8	14.9	0.00e+00	0	57	0	1308622848	57	4804
2026-01-01 10:43:29.74	334.05	10.40	-47.6	-49.9	14.9	0.00e+00	0	57	0	1315962880	57	4820
2026-01-01 10:43:33.70	334.24	10.06	-47.9	-50.2	14.5	0.00e+00	0	56	0	1324351488	57	5017
2026-01-01 10:43:37.66	334.43	9.73	-47.8	-50.1	14.5	7.00e-07	0	57	0	1331691520	57	4977
2026-01-01 10:43:41.60	334.61	9.41	-48.0	-50.5	14.2	1.50e-06	0	57	0	1339031552	57	5180
2026-01-01 10:43:45.56	334.79	9.09	-48.0	-50.5	14.1	1.50e-06	0	57	0	1346371584	58	4912
2026-01-01 10:43:49.51	334.97	8.77	-48.1	-50.7	13.9	2.20e-06	0	57	0	1353711616	58	5018
2026-01-01 10:43:53.47	335.14	8.46	-48.2	-50.9	13.7	3.00e-06	0	57	0	1361051648	58	5110
2026-01-01 10:43:57.43	335.31	8.15	-48.4	-51.1	13.4	1.29e-05	0	57	0	1368391680	58	5275
2026-01-01 10:44:01.39	335.47	7.84	-48.3	-51.0	13.5	9.90e-06	0	57	0	1375731712	58	5201
2026-01-01 10:44:05.34	335.63	7.54	-48.5	-51.3	13.2	2.28e-05	0	56	0	1383071744	58	5371
2026-01-01 10:44:09.29	335.79	7.24	-48.5	-51.4	13.0	4.73e-05	0	57	0	1390411776	59	5137
2026-01-01 10:44:13.26	335.95	6.95	-48.6	-51.7	12.7	8.39e-05	0	57	0	1397751808	59	5307
2026-01-01 10:44:17.22	336.10	6.65	-48.9	-52.0	12.4	2.28e-04	0	56	0	1405091840	59	5507
2026-01-01 10:44:21.18	336.26	6.36	-48.8	-52.1	12.2	2.18e-04	0	57	0	1412431872	59	5563
2026-01-01 10:44:25.13	336.40	6.08	-48.9	-52.4	11.9	5.00e-04	0	57	0	1419771904	60	5425
2026-01-01 10:44:29.09	336.55	5.79	-49.1	-52.9	11.2	9.07e-04	0	57	0	1428160512	60	5764
2026-01-01 10:44:33.03	336.69	5.51	-49.2	-53.0	11.1	2.27e-03	0	57	0	1435500544	60	5852
2026-01-01 10:44:36.98	336.83	5.24	-49.5	-53.7	10.3	3.53e-03	0	57	0	1442840576	60	6333
2026-01-01 10:44:40.93	336.97	4.96	-51.6	-65.3	3.8	1.44e+00	0	56	104	1448083456	65	18063
2026-01-01 10:44:44.90	337.11	4.69	-51.2	-65.2	3.8	1.49e+00	0	56	104	1448083456	64	18769
2026-01-01 10:44:48.86	337.25	4.42	-52.3	-66.3	3.8	1.49e+00	0	57	104	1448083456	66	19113
2026-01-01 10:44:52.83	337.38	4.15	-52.4	-66.4	3.8	1.49e+00	0	57	104	1448083456	67	18217
2026-01-01 10:44:56.78	337.51	3.89	-52.5	-66.5	3.8	1.49e+00	0	57	104	1448083456	67	18355
2026-01-01 10:45:00.72	337.64	3.63	-52.6	-66.6	3.8	1.49e+00	0	57	104	1448083456	67	18538
2026-01-01 10:45:04.68	337.76	3.37	-52.5	-66.6	3.8	1.49e+00	0	57	104	1448083456	67	18544
2026-01-01 10:45:08.63	337.89	3.11	-52.5	-66.5	3.8	1.49e+00	0	57	104	1448083456	67	18468

#Closed at: 2026-01-01 10:45:12
#Recorded file [1448 MB]: D:/Data/31026_260101_134440.dat