passes_logs/2026/01/01/R3.0SM8_Murmansk_STILSPACE/R3.0SM8_Murmansk_STILSPACE__20260101_125324_AQUA_rec.log

#Pass ID: 20260101_125324_AQUA
#Satellite: AQUA
#Configuration: AQUA
#almurnet v.1.7.20240730
#Start time: 2026-01-01 12:53:25

#Version: 2.2.20231116
#Station: R3.0SM8_Murmansk_STILSPACE
#Location: 33.092731 lon 68.902999 lat
#TLE: 1 27424U 02022A   25365.92641128  .00002078  00000+0  42628-3 0  9990
#TLE: 2 27424  98.4058 327.1196 0001962  94.7781 340.6230 14.61783896258835

#Time	Az	El	Level	Level2	SNR	BER	BlckErr	Temp	State	Recorded	gain1	gain2
2026-01-01 12:53:25.12	195.88	3.02	-54.2	-74.2	3.8	7.42e-01	0	47	0	0	70	38287
2026-01-01 12:53:28.07	196.06	3.21	-54.0	-73.9	3.8	7.45e-01	0	47	104	0	70	37184
2026-01-01 12:53:31.03	196.25	3.40	-53.6	-73.4	3.8	7.45e-01	0	48	104	0	70	35170
2026-01-01 12:53:34.00	196.44	3.59	-53.2	-72.7	3.8	7.44e-01	0	48	104	0	69	34296
2026-01-01 12:53:36.99	196.64	3.79	-53.2	-72.1	3.8	7.46e-01	0	48	104	0	69	31937
2026-01-01 12:53:39.93	196.83	3.98	-53.2	-71.8	3.8	7.43e-01	0	48	104	0	69	30835
2026-01-01 12:53:42.90	197.03	4.18	-53.2	-72.5	3.8	7.44e-01	0	48	104	0	69	33410
2026-01-01 12:53:45.88	197.24	4.38	-53.2	-72.4	3.8	7.42e-01	0	48	104	0	69	32958
2026-01-01 12:53:48.85	197.44	4.58	-52.9	-64.6	7.1	6.62e-01	91	49	0	1048576	69	13462
2026-01-01 12:53:51.82	197.65	4.78	-52.1	-59.2	12.7	6.11e-01	0	49	0	6815744	67	8121
2026-01-01 12:53:54.78	197.86	4.98	-51.0	-55.6	16.3	6.06e-01	0	49	0	12058624	65	6011
2026-01-01 12:53:57.75	198.08	5.18	-51.0	-55.5	16.5	6.07e-01	0	49	0	17825792	65	5965
2026-01-01 12:54:00.72	198.29	5.39	-50.3	-53.9	18.1	6.07e-01	0	49	0	23068672	64	5221
2026-01-01 12:54:03.67	198.51	5.59	-49.7	-52.6	19.4	6.08e-01	0	49	0	28835840	62	5092
2026-01-01 12:54:06.64	198.74	5.80	-49.4	-52.1	20.0	6.08e-01	0	50	0	34603008	62	4810
2026-01-01 12:54:09.61	198.96	6.01	-49.3	-52.0	20.1	6.08e-01	0	50	0	39845888	62	4722
2026-01-01 12:54:12.56	199.19	6.22	-49.3	-52.1	20.1	6.05e-01	0	50	0	45613056	62	4762
2026-01-01 12:54:15.52	199.43	6.43	-49.3	-51.9	20.2	6.06e-01	0	50	0	50855936	62	4692
2026-01-01 12:54:18.50	199.67	6.64	-49.2	-51.8	20.4	6.08e-01	0	50	0	56623104	62	4614
2026-01-01 12:54:21.46	199.91	6.86	-49.2	-51.7	20.5	6.06e-01	0	50	0	62390272	61	4847
2026-01-01 12:54:24.44	200.15	7.08	-49.1	-51.6	20.7	6.07e-01	0	51	0	67633152	61	4786
2026-01-01 12:54:27.39	200.40	7.29	-49.1	-51.6	20.7	6.08e-01	0	51	0	73400320	61	4766
2026-01-01 12:54:30.34	200.65	7.51	-49.0	-51.5	20.8	6.06e-01	0	51	0	78643200	61	4726
2026-01-01 12:54:33.31	200.91	7.73	-49.0	-51.4	20.9	6.08e-01	0	51	0	84410368	61	4679
2026-01-01 12:54:36.27	201.17	7.96	-48.9	-51.3	21.1	6.05e-01	0	51	0	89653248	61	4618
2026-01-01 12:54:39.22	201.43	8.18	-48.9	-51.2	21.1	6.08e-01	0	51	0	95420416	61	4583
2026-01-01 12:54:42.20	201.70	8.41	-49.0	-51.4	21.0	6.05e-01	0	51	0	101187584	61	4657
2026-01-01 12:54:45.18	201.98	8.64	-48.9	-51.3	21.1	6.08e-01	0	51	0	106430464	61	4618
2026-01-01 12:54:48.14	202.25	8.87	-49.1	-51.4	21.0	6.06e-01	0	52	0	112197632	61	4700
2026-01-01 12:54:51.10	202.54	9.10	-48.7	-50.9	21.5	6.06e-01	0	51	0	117964800	61	4425
2026-01-01 12:54:54.05	202.82	9.34	-48.8	-51.1	21.4	6.07e-01	0	51	0	123207680	61	4514
2026-01-01 12:54:57.01	203.11	9.57	-48.8	-51.0	21.5	6.07e-01	0	52	0	128974848	61	4452
2026-01-01 12:54:59.96	203.41	9.81	-48.7	-50.9	21.6	6.07e-01	0	52	0	134217728	61	4408
2026-01-01 12:55:02.92	203.71	10.05	-48.8	-51.1	21.4	6.05e-01	0	52	0	139984896	61	4504
2026-01-01 12:55:05.88	204.02	10.29	-48.6	-50.7	21.8	6.06e-01	0	52	0	145227776	60	4594
2026-01-01 12:55:08.84	204.33	10.54	-48.8	-51.0	21.6	6.05e-01	0	52	0	150994944	60	4733
2026-01-01 12:55:11.80	204.65	10.78	-48.7	-50.8	21.7	6.07e-01	0	52	0	156762112	60	4631
2026-01-01 12:55:14.78	204.97	11.03	-48.5	-50.5	22.0	6.06e-01	0	52	0	162004992	60	4475
2026-01-01 12:55:17.76	205.30	11.28	-48.3	-50.3	22.3	6.08e-01	0	52	0	167772160	60	4349
2026-01-01 12:55:20.73	205.64	11.53	-48.3	-50.3	22.2	6.07e-01	0	52	0	173539328	60	4379
2026-01-01 12:55:23.69	205.98	11.79	-48.4	-50.5	22.1	6.05e-01	0	53	0	178782208	60	4445
2026-01-01 12:55:26.66	206.33	12.05	-48.4	-50.4	22.2	6.04e-01	0	53	0	184549376	60	4404
2026-01-01 12:55:29.62	206.68	12.30	-48.4	-50.4	22.2	6.07e-01	0	53	0	189792256	60	4407
2026-01-01 12:55:32.58	207.04	12.56	-48.6	-50.5	22.4	6.09e-01	0	53	0	195559424	59	4739
2026-01-01 12:55:35.55	207.41	12.83	-48.6	-50.6	22.4	6.06e-01	0	53	0	201326592	59	4792
2026-01-01 12:55:38.51	207.78	13.09	-48.6	-50.5	22.5	6.05e-01	0	53	0	206569472	59	4744
2026-01-01 12:55:41.48	208.17	13.36	-48.8	-50.8	22.2	6.07e-01	0	53	0	212336640	59	4894
2026-01-01 12:55:44.46	208.56	13.63	-48.9	-51.1	21.5	6.08e-01	0	53	0	217579520	60	4810
2026-01-01 12:55:47.43	208.95	13.90	-48.4	-50.4	22.3	6.08e-01	0	53	0	223346688	60	4407
2026-01-01 12:55:50.40	209.36	14.18	-48.4	-50.3	22.3	6.08e-01	0	53	0	229113856	60	4387
2026-01-01 12:55:53.37	209.77	14.45	-48.6	-50.6	22.1	6.05e-01	0	53	0	234356736	60	4513
2026-01-01 12:55:56.32	210.19	14.73	-48.3	-50.2	22.8	6.06e-01	0	53	0	240123904	59	4558
2026-01-01 12:55:59.28	210.61	15.01	-48.5	-50.5	22.5	6.07e-01	0	53	0	245366784	59	4720
2026-01-01 12:56:02.25	211.05	15.29	-48.5	-50.5	22.6	6.07e-01	0	53	0	251133952	59	4708
2026-01-01 12:56:05.22	211.49	15.58	-48.7	-50.6	22.4	6.08e-01	0	54	0	256901120	59	4809
2026-01-01 12:56:08.19	211.95	15.87	-48.6	-50.6	22.5	6.07e-01	0	54	0	262144000	59	4767
2026-01-01 12:56:11.17	212.41	16.16	-48.3	-50.3	22.5	6.07e-01	0	54	0	267911168	60	4349
2026-01-01 12:56:14.14	212.89	16.45	-48.5	-50.4	22.7	6.08e-01	0	54	0	273678336	59	4693
2026-01-01 12:56:17.12	213.37	16.74	-48.7	-50.7	22.4	6.05e-01	0	54	0	278921216	59	4860
2026-01-01 12:56:20.10	213.86	17.04	-48.5	-50.4	22.7	6.05e-01	0	54	0	284688384	59	4674
2026-01-01 12:56:23.07	214.36	17.34	-48.9	-50.9	22.2	6.09e-01	0	54	0	290455552	59	4947
2026-01-01 12:56:26.05	214.88	17.64	-48.7	-50.8	22.0	6.07e-01	0	54	0	295698432	60	4628
2026-01-01 12:56:29.01	215.40	17.94	-48.9	-51.0	21.8	6.07e-01	0	54	0	301465600	60	4712
2026-01-01 12:56:31.97	215.93	18.24	-48.9	-51.0	21.8	6.06e-01	0	54	0	306708480	60	4728
2026-01-01 12:56:34.93	216.48	18.55	-49.2	-51.5	21.4	6.07e-01	0	54	0	312475648	60	4998
2026-01-01 12:56:37.90	217.03	18.86	-48.5	-50.5	22.3	6.08e-01	0	54	0	318242816	60	4448
2026-01-01 12:56:40.86	217.60	19.16	-48.2	-50.0	22.7	6.07e-01	0	54	0	323485696	60	4239
2026-01-01 12:56:43.83	218.18	19.47	-48.7	-50.6	22.6	6.06e-01	0	54	0	329252864	59	4780
2026-01-01 12:56:46.81	218.77	19.79	-48.3	-50.1	23.1	6.09e-01	0	54	0	334495744	59	4494
2026-01-01 12:56:49.79	219.38	20.10	-48.4	-50.2	22.9	6.06e-01	0	54	0	340262912	59	4588
2026-01-01 12:56:52.75	219.99	20.41	-48.6	-50.4	22.8	6.06e-01	0	54	0	346030080	59	4688
2026-01-01 12:56:55.73	220.63	20.73	-48.9	-50.8	22.4	6.07e-01	0	55	0	351272960	59	4923
2026-01-01 12:56:58.70	221.27	21.05	-48.3	-50.2	22.7	6.06e-01	0	54	0	357040128	60	4313
2026-01-01 12:57:01.64	221.92	21.36	-48.6	-50.5	22.4	6.06e-01	0	55	0	362283008	60	4486
2026-01-01 12:57:04.61	222.59	21.68	-48.7	-50.6	22.2	6.08e-01	0	55	0	368050176	60	4543
2026-01-01 12:57:07.55	223.27	21.99	-48.5	-50.4	22.8	6.06e-01	0	55	0	373817344	59	4671
2026-01-01 12:57:10.52	223.97	22.31	-48.6	-50.4	22.8	6.07e-01	0	55	0	379060224	59	4697
2026-01-01 12:57:13.49	224.69	22.63	-48.7	-50.6	22.6	6.09e-01	0	55	0	384827392	59	4796
2026-01-01 12:57:16.45	225.42	22.95	-48.6	-50.4	22.8	6.08e-01	0	55	0	390070272	59	4687
2026-01-01 12:57:19.41	226.16	23.27	-48.7	-50.6	22.7	6.10e-01	0	55	0	395837440	59	4773
2026-01-01 12:57:22.37	226.92	23.58	-48.6	-50.5	22.4	6.07e-01	0	55	0	401604608	60	4488
2026-01-01 12:57:25.34	227.69	23.90	-49.2	-51.4	21.5	6.06e-01	0	55	0	406847488	60	4978
2026-01-01 12:57:28.31	228.49	24.22	-49.2	-51.5	21.5	6.06e-01	0	55	0	412614656	60	4990
2026-01-01 12:57:31.25	229.29	24.53	-49.5	-51.9	21.1	6.06e-01	0	55	0	417857536	61	4929
2026-01-01 12:57:34.22	230.12	24.84	-48.5	-50.4	22.4	6.05e-01	0	55	0	423624704	60	4439
2026-01-01 12:57:37.19	230.96	25.15	-48.5	-50.5	22.5	6.08e-01	0	55	0	429391872	60	4451
2026-01-01 12:57:40.16	231.82	25.46	-48.3	-50.2	22.7	6.03e-01	0	55	0	434634752	60	4294
2026-01-01 12:57:43.13	232.70	25.76	-48.3	-50.2	22.8	6.06e-01	0	55	0	440401920	60	4305
2026-01-01 12:57:46.09	233.59	26.06	-48.5	-50.4	22.6	6.07e-01	0	55	0	445644800	60	4398
2026-01-01 12:57:49.06	234.50	26.36	-48.6	-50.6	22.3	6.07e-01	0	55	0	451411968	60	4523
2026-01-01 12:57:52.02	235.42	26.65	-48.6	-50.5	22.5	6.09e-01	0	55	0	457179136	60	4458
2026-01-01 12:57:54.98	236.37	26.94	-49.0	-51.2	21.8	6.07e-01	0	55	0	462422016	60	4831
2026-01-01 12:57:57.94	237.33	27.23	-48.4	-50.3	22.7	6.09e-01	0	55	0	468189184	60	4369
2026-01-01 12:58:00.91	238.31	27.51	-48.5	-50.4	22.6	6.05e-01	0	55	0	473432064	60	4412
2026-01-01 12:58:03.88	239.31	27.78	-48.3	-50.1	22.8	6.03e-01	0	55	0	479199232	60	4278
2026-01-01 12:58:06.85	240.33	28.05	-48.4	-50.3	22.6	6.08e-01	0	55	0	484966400	60	4366
2026-01-01 12:58:09.82	241.36	28.31	-48.4	-50.3	22.7	6.08e-01	0	55	0	490209280	60	4341
2026-01-01 12:58:12.78	242.41	28.56	-48.4	-50.3	22.6	6.05e-01	0	55	0	495976448	60	4377
2026-01-01 12:58:15.75	243.47	28.81	-48.5	-50.4	22.5	6.09e-01	0	55	0	501219328	60	4428
2026-01-01 12:58:18.71	244.55	29.04	-48.6	-50.5	22.5	6.07e-01	0	55	0	506986496	60	4453
2026-01-01 12:58:21.67	245.65	29.27	-48.4	-50.2	23.1	6.06e-01	0	56	0	512753664	59	4586
2026-01-01 12:58:24.65	246.77	29.49	-48.6	-50.4	22.9	6.08e-01	0	55	0	517996544	59	4700
2026-01-01 12:58:27.61	247.90	29.70	-48.7	-50.7	22.2	6.05e-01	0	56	0	523763712	60	4593
2026-01-01 12:58:30.57	249.04	29.90	-48.5	-50.2	23.1	6.06e-01	0	55	0	529530880	59	4598
2026-01-01 12:58:33.53	250.19	30.09	-48.4	-50.2	23.1	6.08e-01	0	55	0	534773760	59	4567
2026-01-01 12:58:36.49	251.36	30.27	-48.7	-50.6	22.6	6.04e-01	0	55	0	540540928	59	4800
2026-01-01 12:58:39.46	252.54	30.43	-48.5	-50.3	22.9	6.04e-01	0	56	0	545783808	59	4630
2026-01-01 12:58:42.42	253.74	30.59	-48.5	-50.4	22.9	6.05e-01	0	56	0	551550976	59	4654
2026-01-01 12:58:45.38	254.94	30.73	-48.3	-50.0	23.2	6.02e-01	0	56	0	556793856	59	4486
2026-01-01 12:58:48.34	256.16	30.86	-48.2	-50.0	23.3	6.02e-01	0	56	0	562561024	59	4447
2026-01-01 12:58:51.30	257.38	30.97	-48.5	-50.3	23.0	5.99e-01	0	56	0	568328192	59	4608
2026-01-01 12:58:54.27	258.61	31.07	-48.6	-50.5	22.9	6.03e-01	0	56	0	573571072	59	4709
2026-01-01 12:58:57.25	259.86	31.16	-48.6	-50.4	22.9	5.99e-01	0	56	0	579338240	59	4686
2026-01-01 12:59:00.21	261.11	31.23	-48.6	-50.5	22.8	6.05e-01	0	56	0	584581120	59	4721
2026-01-01 12:59:03.18	262.36	31.29	-48.3	-50.1	22.8	6.03e-01	0	56	0	590348288	60	4289
2026-01-01 12:59:06.16	263.62	31.34	-48.6	-50.5	22.5	6.05e-01	0	56	0	596115456	60	4483
2026-01-01 12:59:09.13	264.89	31.37	-48.4	-50.2	22.7	6.04e-01	0	56	0	601358336	60	4318
2026-01-01 12:59:12.10	266.15	31.39	-48.3	-50.2	22.8	6.04e-01	0	56	0	607125504	60	4304
2026-01-01 12:59:15.07	267.41	31.39	-48.0	-49.7	23.6	6.04e-01	0	56	0	612892672	59	4292
2026-01-01 12:59:18.05	268.68	31.37	-48.1	-49.8	23.5	6.03e-01	0	56	0	618135552	59	4349
2026-01-01 12:59:21.01	269.94	31.34	-48.2	-49.9	23.4	6.03e-01	0	56	0	623902720	59	4427
2026-01-01 12:59:23.97	271.19	31.30	-48.3	-50.0	23.3	6.04e-01	0	56	0	629669888	59	4472
2026-01-01 12:59:26.94	272.45	31.24	-48.2	-49.9	23.4	6.04e-01	0	56	0	634912768	59	4422
2026-01-01 12:59:29.90	273.69	31.17	-47.9	-49.6	23.7	6.04e-01	0	56	0	640679936	59	4262
2026-01-01 12:59:32.86	274.93	31.09	-48.0	-49.6	23.7	6.02e-01	0	56	0	645922816	59	4278
2026-01-01 12:59:35.83	276.17	30.99	-48.4	-50.2	23.2	6.04e-01	0	56	0	651689984	59	4548
2026-01-01 12:59:38.79	277.39	30.87	-47.9	-49.6	23.7	6.05e-01	0	56	0	656932864	59	4263
2026-01-01 12:59:41.75	278.60	30.75	-47.9	-49.5	23.8	6.05e-01	0	56	0	662700032	59	4196
2026-01-01 12:59:44.72	279.81	30.61	-47.7	-49.3	24.0	6.04e-01	0	56	0	668467200	58	4365
2026-01-01 12:59:47.70	281.01	30.46	-47.8	-49.4	23.8	6.06e-01	0	56	0	673710080	58	4419
2026-01-01 12:59:50.67	282.20	30.29	-47.9	-49.6	23.7	6.03e-01	0	56	0	679477248	58	4496
2026-01-01 12:59:53.65	283.37	30.12	-48.1	-49.8	23.5	6.01e-01	0	56	0	685244416	58	4622
2026-01-01 12:59:56.63	284.54	29.93	-48.2	-50.0	23.3	6.06e-01	0	56	0	690487296	58	4721
2026-01-01 12:59:59.59	285.68	29.73	-48.2	-49.9	23.4	6.04e-01	0	56	0	696254464	59	4409
2026-01-01 13:00:02.55	286.80	29.53	-48.2	-50.0	23.3	6.00e-01	0	56	0	701497344	59	4460
2026-01-01 13:00:05.52	287.92	29.31	-48.4	-50.2	23.1	6.03e-01	0	56	0	707264512	59	4561
2026-01-01 13:00:08.48	289.01	29.08	-47.9	-49.6	23.7	6.06e-01	0	56	0	713031680	59	4257
2026-01-01 13:00:11.45	290.10	28.85	-47.7	-49.2	24.0	5.99e-01	0	56	0	718274560	58	4335
2026-01-01 13:00:14.42	291.16	28.60	-47.7	-49.2	24.0	6.05e-01	0	56	0	724041728	58	4334
2026-01-01 13:00:17.38	292.21	28.35	-47.8	-49.4	23.7	6.02e-01	0	56	0	729284608	58	4416
2026-01-01 13:00:20.35	293.24	28.09	-47.9	-49.6	23.7	6.01e-01	0	56	0	735051776	58	4506
2026-01-01 13:00:23.32	294.26	27.83	-47.7	-49.3	24.0	6.04e-01	0	56	0	740818944	58	4351
2026-01-01 13:00:26.29	295.26	27.56	-47.8	-49.4	23.8	6.01e-01	0	56	0	746061824	58	4440
2026-01-01 13:00:29.26	296.24	27.28	-48.0	-49.7	23.5	6.04e-01	0	56	0	751828992	58	4565
2026-01-01 13:00:32.21	297.20	27.00	-48.0	-49.7	23.5	6.03e-01	0	56	0	757071872	58	4588
2026-01-01 13:00:35.18	298.14	26.71	-48.0	-49.7	23.5	6.06e-01	0	56	0	762839040	58	4547
2026-01-01 13:00:38.16	299.07	26.42	-48.1	-49.9	23.4	6.04e-01	0	56	0	768606208	58	4663
2026-01-01 13:00:41.13	299.99	26.12	-48.0	-49.7	23.5	6.07e-01	0	56	0	773849088	58	4574
2026-01-01 13:00:44.12	300.89	25.82	-47.9	-49.5	23.7	6.05e-01	0	56	0	779616256	58	4476
2026-01-01 13:00:47.08	301.76	25.52	-48.2	-49.9	23.3	6.03e-01	0	56	0	785383424	58	4674
2026-01-01 13:00:50.05	302.62	25.21	-48.5	-50.3	22.9	6.07e-01	0	56	0	790626304	59	4636
2026-01-01 13:00:53.01	303.46	24.90	-48.4	-50.2	23.0	6.05e-01	0	56	0	796393472	59	4572
2026-01-01 13:00:55.97	304.28	24.59	-48.5	-50.3	23.0	6.04e-01	0	56	0	802160640	59	4617
2026-01-01 13:00:58.94	305.09	24.28	-48.8	-50.7	22.6	6.03e-01	0	56	0	807403520	59	4834
2026-01-01 13:01:01.91	305.88	23.97	-48.9	-50.8	22.4	6.03e-01	0	56	0	813170688	59	4920
2026-01-01 13:01:04.88	306.66	23.65	-48.7	-50.7	22.6	6.03e-01	0	56	0	818413568	59	4833
2026-01-01 13:01:07.85	307.42	23.34	-48.5	-50.4	22.9	6.04e-01	0	56	0	824180736	59	4673
2026-01-01 13:01:10.82	308.17	23.02	-48.4	-50.2	22.7	6.05e-01	0	56	0	829947904	60	4339
2026-01-01 13:01:13.78	308.89	22.71	-48.4	-50.2	23.0	6.03e-01	0	56	0	835190784	59	4574
2026-01-01 13:01:16.75	309.61	22.39	-48.4	-50.3	22.6	6.05e-01	0	56	0	840957952	60	4348
2026-01-01 13:01:19.72	310.31	22.07	-48.5	-50.4	22.8	6.03e-01	0	56	0	846200832	59	4670
2026-01-01 13:01:22.69	310.99	21.75	-48.6	-50.5	22.8	6.02e-01	0	56	0	851968000	59	4710
2026-01-01 13:01:25.65	311.66	21.44	-48.9	-50.9	22.0	6.06e-01	0	56	0	857735168	60	4697
2026-01-01 13:01:28.62	312.32	21.12	-48.4	-50.3	22.6	6.03e-01	0	56	0	862978048	60	4342
2026-01-01 13:01:31.57	312.96	20.81	-48.4	-50.2	23.0	6.02e-01	0	56	0	868745216	59	4597
2026-01-01 13:01:34.54	313.59	20.50	-48.1	-49.8	23.3	6.01e-01	0	56	0	873988096	59	4383
2026-01-01 13:01:37.51	314.21	20.18	-48.3	-50.1	23.1	6.06e-01	0	56	0	879755264	59	4509
2026-01-01 13:01:40.48	314.81	19.87	-47.9	-49.6	23.5	6.04e-01	0	56	0	885522432	59	4249
2026-01-01 13:01:43.45	315.41	19.56	-47.8	-49.4	23.7	6.05e-01	0	56	0	890765312	59	4169
2026-01-01 13:01:46.42	315.99	19.25	-47.8	-49.4	23.7	6.04e-01	0	57	0	896532480	59	4166
2026-01-01 13:01:49.38	316.55	18.95	-47.8	-49.5	23.6	6.05e-01	0	56	0	902299648	59	4212
2026-01-01 13:01:52.36	317.11	18.64	-47.9	-49.6	23.5	6.02e-01	0	56	0	907542528	59	4254
2026-01-01 13:01:55.33	317.65	18.34	-48.0	-49.6	23.4	6.05e-01	0	56	0	913309696	59	4285
2026-01-01 13:01:58.30	318.19	18.04	-47.9	-49.6	22.1	6.04e-01	0	56	0	918552576	59	4263
2026-01-01 13:02:01.27	318.71	17.74	-47.8	-49.5	23.5	6.04e-01	0	56	0	924319744	59	4231
2026-01-01 13:02:04.23	319.22	17.44	-47.9	-49.5	23.5	6.05e-01	0	56	0	930086912	59	4228
2026-01-01 13:02:07.17	319.72	17.14	-47.9	-49.6	23.4	6.02e-01	0	56	0	935329792	59	4288
2026-01-01 13:02:10.13	320.21	16.85	-48.1	-49.8	23.2	6.03e-01	0	57	0	941096960	59	4390
2026-01-01 13:02:13.11	320.69	16.56	-48.1	-49.9	23.2	6.02e-01	0	56	0	946339840	59	4422
2026-01-01 13:02:16.08	321.17	16.27	-48.3	-50.2	22.9	6.03e-01	0	56	0	952107008	59	4561
2026-01-01 13:02:19.05	321.63	15.98	-48.5	-50.4	22.6	6.04e-01	0	56	0	957874176	59	4675
2026-01-01 13:02:22.01	322.08	15.69	-48.1	-49.8	23.2	6.04e-01	0	56	0	963117056	59	4368
2026-01-01 13:02:24.98	322.53	15.41	-48.3	-50.1	22.9	6.05e-01	0	56	0	968884224	59	4520
2026-01-01 13:02:27.94	322.97	15.13	-47.8	-49.4	23.6	6.03e-01	0	57	0	974127104	59	4176
2026-01-01 13:02:30.90	323.39	14.85	-47.9	-49.6	23.4	6.03e-01	0	57	0	979894272	59	4265
2026-01-01 13:02:33.87	323.81	14.57	-48.1	-49.9	23.1	6.05e-01	0	56	0	985661440	59	4407
2026-01-01 13:02:36.83	324.23	14.30	-47.9	-49.6	23.3	6.03e-01	0	57	0	990904320	59	4273
2026-01-01 13:02:39.78	324.63	14.03	-47.9	-49.6	23.3	6.05e-01	0	56	0	996671488	59	4269
2026-01-01 13:02:42.74	325.02	13.76	-47.9	-49.6	23.4	6.01e-01	0	56	0	1001914368	59	4246
2026-01-01 13:02:45.72	325.42	13.49	-48.0	-49.7	23.2	6.06e-01	0	56	0	1007681536	59	4335
2026-01-01 13:02:48.69	325.80	13.22	-48.3	-50.2	22.8	6.06e-01	0	56	0	1013448704	59	4560
2026-01-01 13:02:51.66	326.17	12.96	-48.2	-50.0	22.9	6.04e-01	0	56	0	1018691584	59	4481
2026-01-01 13:02:54.63	326.54	12.69	-48.3	-50.2	22.7	6.02e-01	0	56	0	1024458752	59	4589
2026-01-01 13:02:57.61	326.91	12.43	-48.2	-50.1	22.8	6.04e-01	0	57	0	1029701632	59	4498
2026-01-01 13:03:00.58	327.26	12.18	-48.3	-50.1	22.8	6.05e-01	0	56	0	1035468800	59	4528
2026-01-01 13:03:03.56	327.61	11.92	-48.1	-49.9	23.0	6.03e-01	0	56	0	1041235968	59	4417
2026-01-01 13:03:06.53	327.96	11.67	-48.2	-50.1	22.7	6.04e-01	0	56	0	1046478848	59	4534
2026-01-01 13:03:09.50	328.29	11.41	-48.2	-50.1	22.7	6.03e-01	0	57	0	1052246016	59	4506
2026-01-01 13:03:12.47	328.62	11.16	-48.3	-50.3	22.5	6.03e-01	0	56	0	1058013184	59	4608
2026-01-01 13:03:15.44	328.95	10.92	-48.4	-50.4	22.5	6.04e-01	0	57	0	1063256064	59	4656
2026-01-01 13:03:18.40	329.27	10.67	-48.4	-50.3	22.4	6.02e-01	0	56	0	1069023232	59	4647
2026-01-01 13:03:21.37	329.58	10.43	-48.5	-50.6	22.3	6.02e-01	0	56	0	1074790400	59	4774
2026-01-01 13:03:24.34	329.89	10.19	-48.7	-50.8	22.0	6.05e-01	0	56	0	1080033280	59	4881
2026-01-01 13:03:27.29	330.19	9.95	-48.7	-50.7	22.1	6.04e-01	0	56	0	1085800448	59	4863
2026-01-01 13:03:30.25	330.49	9.71	-48.7	-50.9	21.9	6.03e-01	0	56	0	1091043328	59	4928
2026-01-01 13:03:33.21	330.78	9.48	-48.7	-50.8	21.9	6.03e-01	0	56	0	1096810496	59	4905
2026-01-01 13:03:36.19	331.07	9.24	-48.4	-50.4	21.9	6.05e-01	0	56	0	1102053376	60	4433
2026-01-01 13:03:39.16	331.36	9.01	-48.4	-50.6	21.7	6.03e-01	0	56	0	1107820544	60	4506
2026-01-01 13:03:42.12	331.64	8.78	-48.5	-50.7	21.6	6.04e-01	0	56	0	1113587712	60	4582
2026-01-01 13:03:45.09	331.91	8.55	-48.4	-50.6	21.7	6.02e-01	0	56	0	1118830592	60	4511
2026-01-01 13:03:48.06	332.18	8.33	-48.6	-50.7	21.5	6.01e-01	0	57	0	1124597760	60	4597
2026-01-01 13:03:51.04	332.45	8.10	-48.9	-51.2	21.1	6.03e-01	0	56	0	1130364928	60	4850
2026-01-01 13:03:54.01	332.71	7.88	-48.6	-50.8	21.4	6.03e-01	0	56	0	1135607808	60	4625
2026-01-01 13:03:56.98	332.97	7.66	-48.7	-51.0	21.2	6.03e-01	0	56	0	1141374976	60	4713
2026-01-01 13:03:59.94	333.23	7.44	-48.9	-51.3	20.9	6.04e-01	0	57	0	1146617856	60	4875
2026-01-01 13:04:02.91	333.48	7.22	-49.0	-51.5	20.7	6.04e-01	0	56	0	1152385024	60	4999
2026-01-01 13:04:05.87	333.72	7.00	-49.1	-51.7	20.4	6.04e-01	0	57	0	1158152192	60	5118
2026-01-01 13:04:08.84	333.97	6.79	-48.9	-51.4	20.6	6.06e-01	0	56	0	1163395072	60	4977
2026-01-01 13:04:11.80	334.20	6.58	-49.1	-51.8	20.3	6.02e-01	0	57	0	1169162240	60	5181
2026-01-01 13:04:14.76	334.44	6.37	-49.1	-51.8	20.2	6.01e-01	0	57	0	1174405120	60	5180
2026-01-01 13:04:17.73	334.67	6.16	-49.1	-51.7	20.2	6.02e-01	0	57	0	1180172288	60	5147
2026-01-01 13:04:20.68	334.90	5.95	-49.1	-51.7	20.2	6.03e-01	0	57	0	1185939456	61	4837
2026-01-01 13:04:23.65	335.13	5.74	-49.0	-51.6	20.2	6.05e-01	0	57	0	1191182336	61	4795
2026-01-01 13:04:26.62	335.35	5.54	-49.2	-52.0	19.8	6.01e-01	0	56	0	1196949504	61	5026
2026-01-01 13:04:29.60	335.57	5.33	-49.1	-51.8	20.0	6.05e-01	0	56	0	1202192384	61	4885
2026-01-01 13:04:32.55	335.78	5.13	-49.1	-52.0	19.8	6.08e-01	0	56	0	1207959552	61	4996
2026-01-01 13:04:35.52	336.00	4.93	-53.4	-72.6	3.8	7.48e-01	0	57	104	1211105280	69	33884
2026-01-01 13:04:38.48	336.21	4.73	-53.9	-73.7	3.8	7.45e-01	0	56	104	1211105280	70	36461
2026-01-01 13:04:41.44	336.41	4.53	-54.1	-74.0	3.8	7.46e-01	0	57	104	1211105280	70	37460
2026-01-01 13:04:44.41	336.62	4.34	-54.2	-74.1	3.8	7.42e-01	0	57	104	1211105280	70	38140
2026-01-01 13:04:47.37	336.82	4.14	-54.3	-74.2	3.8	7.45e-01	0	57	104	1211105280	70	38457
2026-01-01 13:04:50.33	337.02	3.95	-54.3	-74.3	3.8	7.48e-01	0	57	104	1211105280	70	38877
2026-01-01 13:04:53.31	337.21	3.75	-54.4	-74.3	3.8	7.47e-01	0	57	104	1211105280	70	38859
2026-01-01 13:04:56.29	337.41	3.56	-54.4	-74.3	3.8	7.45e-01	0	57	104	1211105280	71	36908
2026-01-01 13:04:59.27	337.60	3.37	-54.4	-74.4	3.8	7.45e-01	0	57	104	1211105280	71	37047
2026-01-01 13:05:02.24	337.79	3.18	-54.4	-74.3	3.8	7.48e-01	0	57	104	1211105280	71	36931
2026-01-01 13:05:05.21	337.98	2.99	-54.4	-74.3	3.8	7.47e-01	0	57	104	1211105280	71	36731

#Closed at: 2026-01-01 13:05:06
#Recorded file [1211 MB]: D:/Data/31026_260101_160434.dat