passes_logs/2026/01/01/R3.0SM8_Murmansk_STILSPACE/R3.0SM8_Murmansk_STILSPACE__20260101_063516_FENGYUN_3D_rec.log

#Pass ID: 20260101_063516_FENGYUN 3D
#Satellite: FENGYUN 3D
#Configuration: FENGYUN 3D
#almurnet v.1.7.20240730
#Start time: 2026-01-01 06:36:41

#Version: 2.2.20231116
#Station: R3.0SM8_Murmansk_STILSPACE
#Location: 33.092731 lon 68.902999 lat
#TLE: 1 43010U 17072A   25365.48527867  .00000101  00000+0  69745-4 0  9999
#TLE: 2 43010  98.9911 332.0787 0001837 134.4748 225.6578 14.19689788421190

#Time	Az	El	Level	Level2	SNR	BER	BlckErr	Temp	State	Recorded	gain1	gain2
2026-01-01 06:36:41.79	46.32	8.37	-54.6	-74.5	3.8	7.44e-01	0	61	0	0	71	37683
2026-01-01 06:36:44.72	46.03	8.57	-53.0	-63.7	3.8	8.46e-01	0	62	104	0	69	11950
2026-01-01 06:36:47.67	45.74	8.76	-53.0	-63.8	3.8	8.46e-01	0	62	104	0	69	11957
2026-01-01 06:36:50.63	45.45	8.96	-53.0	-63.7	3.8	8.47e-01	0	62	104	0	69	11921
2026-01-01 06:36:53.57	45.15	9.16	-53.0	-63.7	3.8	8.46e-01	0	62	104	0	68	12653
2026-01-01 06:36:56.53	44.84	9.36	-53.0	-63.7	3.8	8.46e-01	0	62	104	0	68	12548
2026-01-01 06:36:59.48	44.54	9.57	-52.9	-63.6	3.8	8.46e-01	0	62	104	0	68	12503
2026-01-01 06:37:02.44	44.22	9.77	-52.9	-63.6	3.8	8.47e-01	0	62	104	0	68	12446
2026-01-01 06:37:05.38	43.91	9.97	-52.8	-63.5	3.8	8.46e-01	0	62	104	0	68	12341
2026-01-01 06:37:08.33	43.59	10.17	-52.7	-63.4	3.8	8.46e-01	0	62	104	0	68	12105
2026-01-01 06:37:11.29	43.26	10.38	-52.4	-62.5	3.8	8.44e-01	0	62	104	0	67	11610
2026-01-01 06:37:14.24	42.93	10.59	-52.2	-62.8	3.8	8.47e-01	0	62	104	0	67	12007
2026-01-01 06:37:17.19	42.59	10.79	-52.2	-62.8	3.8	8.46e-01	0	62	104	0	67	12094
2026-01-01 06:37:20.14	42.25	11.00	-52.2	-62.6	3.8	8.47e-01	0	62	104	0	67	11774
2026-01-01 06:37:23.10	41.91	11.21	-52.3	-62.8	3.8	8.46e-01	0	62	104	0	67	11999
2026-01-01 06:37:26.04	41.56	11.42	-52.4	-62.9	3.8	8.45e-01	0	62	104	0	67	12139
2026-01-01 06:37:29.00	41.20	11.63	-51.9	-59.3	4.3	8.42e-01	0	62	104	0	67	8033
2026-01-01 06:37:31.90	40.85	11.83	-50.0	-53.4	8.5	7.76e-02	0	62	0	8388608	63	5140
2026-01-01 06:37:34.81	40.49	12.04	-47.6	-49.5	12.6	2.21e-04	0	62	0	25165824	58	4344
2026-01-01 06:37:37.72	40.12	12.25	-47.2	-48.9	13.3	2.51e-05	0	62	0	40894464	57	4303
2026-01-01 06:37:40.63	39.75	12.46	-46.9	-48.5	13.7	8.00e-06	0	62	0	57671680	57	4119
2026-01-01 06:37:43.55	39.37	12.67	-47.3	-49.0	13.2	7.09e-05	0	62	0	74448896	57	4347
2026-01-01 06:37:46.47	38.99	12.88	-45.7	-47.0	15.0	0.00e+00	0	62	0	90177536	54	4142
2026-01-01 06:37:49.38	38.60	13.09	-44.5	-45.4	16.6	0.00e+00	0	62	0	106954752	52	3864
2026-01-01 06:37:52.29	38.21	13.30	-43.6	-44.5	17.7	0.00e+00	0	62	0	122683392	50	3877
2026-01-01 06:37:55.20	37.81	13.51	-43.2	-44.0	18.2	0.00e+00	0	62	0	139460608	49	3877
2026-01-01 06:37:58.11	37.40	13.72	-43.2	-44.0	18.1	0.00e+00	0	62	0	156237824	49	3879
2026-01-01 06:38:01.03	36.99	13.93	-43.3	-44.1	18.1	0.00e+00	0	62	0	171966464	49	3930
2026-01-01 06:38:03.95	36.57	14.15	-43.0	-43.8	18.3	0.00e+00	0	62	0	188743680	49	3803
2026-01-01 06:38:06.86	36.15	14.36	-43.1	-43.9	18.3	0.00e+00	0	62	0	205520896	49	3841
2026-01-01 06:38:09.77	35.72	14.57	-42.9	-43.7	18.5	0.00e+00	0	62	0	221249536	49	3752
2026-01-01 06:38:12.68	35.28	14.79	-43.1	-43.9	18.3	0.00e+00	0	62	0	238026752	49	3864
2026-01-01 06:38:15.60	34.83	15.00	-43.0	-43.9	17.7	2.07e-04	0	62	0	253755392	49	3834
2026-01-01 06:38:18.50	34.39	15.21	-43.2	-44.0	18.0	0.00e+00	0	62	0	270532608	49	3892
2026-01-01 06:38:21.41	33.93	15.43	-42.7	-43.4	18.5	0.00e+00	0	62	0	287309824	48	3855
2026-01-01 06:38:24.32	33.47	15.64	-42.6	-43.4	18.4	2.20e-06	0	62	0	303038464	48	3834
2026-01-01 06:38:27.23	33.00	15.86	-42.6	-43.4	18.6	0.00e+00	0	62	0	319815680	48	3835
2026-01-01 06:38:30.14	32.52	16.07	-42.6	-43.3	18.5	2.20e-06	0	62	0	336592896	48	3815
2026-01-01 06:38:33.05	32.04	16.28	-42.6	-43.3	18.7	0.00e+00	0	62	0	352321536	48	3805
2026-01-01 06:38:35.96	31.55	16.49	-42.5	-43.2	19.0	0.00e+00	0	62	0	369098752	48	3771
2026-01-01 06:38:38.88	31.05	16.71	-42.5	-43.3	18.9	0.00e+00	0	62	0	384827392	48	3783
2026-01-01 06:38:41.79	30.55	16.92	-42.6	-43.4	18.6	0.00e+00	0	62	0	401604608	48	3834
2026-01-01 06:38:44.70	30.03	17.13	-42.6	-43.3	18.6	0.00e+00	0	62	0	418381824	48	3822
2026-01-01 06:38:47.62	29.51	17.34	-42.6	-43.3	18.8	0.00e+00	0	62	0	434110464	48	3824
2026-01-01 06:38:50.52	28.99	17.55	-42.2	-42.9	18.7	0.00e+00	0	62	0	450887680	47	3854
2026-01-01 06:38:53.43	28.45	17.76	-42.4	-43.1	19.0	0.00e+00	0	62	0	466616320	47	3923
2026-01-01 06:38:56.35	27.91	17.97	-42.5	-43.3	18.8	0.00e+00	0	62	0	483393536	47	4009
2026-01-01 06:38:59.26	27.36	18.18	-42.3	-43.0	19.0	0.00e+00	0	62	0	500170752	47	3905
2026-01-01 06:39:02.18	26.80	18.39	-42.3	-43.1	19.0	0.00e+00	0	62	0	515899392	47	3922
2026-01-01 06:39:05.10	26.24	18.60	-41.8	-42.4	19.6	0.00e+00	0	62	0	532676608	46	3861
2026-01-01 06:39:08.02	25.66	18.80	-41.5	-42.1	19.9	0.00e+00	0	62	0	549453824	46	3718
2026-01-01 06:39:10.93	25.08	19.00	-41.5	-42.1	19.9	0.00e+00	0	62	0	565182464	46	3709
2026-01-01 06:39:13.84	24.49	19.21	-41.3	-41.9	20.1	0.00e+00	0	62	0	581959680	45	3867
2026-01-01 06:39:16.76	23.90	19.41	-41.4	-42.0	20.0	0.00e+00	0	62	0	597688320	45	3895
2026-01-01 06:39:19.67	23.29	19.60	-41.4	-42.1	20.0	0.00e+00	0	62	0	614465536	45	3918
2026-01-01 06:39:22.58	22.68	19.80	-41.5	-42.2	19.9	0.00e+00	0	62	0	631242752	45	3959
2026-01-01 06:39:25.51	22.06	20.00	-41.6	-42.2	19.8	0.00e+00	0	62	0	646971392	45	3984
2026-01-01 06:39:28.42	21.43	20.19	-41.6	-42.3	19.8	0.00e+00	0	62	0	663748608	45	4010
2026-01-01 06:39:31.33	20.79	20.38	-41.8	-42.5	19.6	0.00e+00	0	62	0	680525824	45	4115
2026-01-01 06:39:34.24	20.15	20.57	-41.5	-42.1	19.9	0.00e+00	0	62	0	696254464	45	3953
2026-01-01 06:39:37.15	19.50	20.75	-41.2	-41.8	20.2	0.00e+00	0	62	0	713031680	45	3807
2026-01-01 06:39:40.06	18.84	20.94	-41.3	-42.0	20.1	0.00e+00	0	62	0	728760320	45	3878
2026-01-01 06:39:42.97	18.17	21.12	-41.5	-42.1	19.9	0.00e+00	0	62	0	745537536	45	3952
2026-01-01 06:39:45.89	17.49	21.29	-41.4	-42.0	20.0	0.00e+00	0	62	0	762314752	45	3888
2026-01-01 06:39:48.80	16.81	21.47	-41.7	-42.4	19.7	0.00e+00	0	62	0	778043392	45	4071
2026-01-01 06:39:51.71	16.11	21.64	-41.3	-42.0	20.1	0.00e+00	0	62	0	794820608	45	3878
2026-01-01 06:39:54.63	15.41	21.81	-41.4	-42.0	20.1	0.00e+00	0	62	0	811597824	45	3906
2026-01-01 06:39:57.53	14.71	21.97	-41.1	-41.7	20.3	0.00e+00	0	62	0	827326464	45	3776
2026-01-01 06:40:00.44	14.00	22.13	-41.3	-41.9	20.1	0.00e+00	0	62	0	844103680	45	3855
2026-01-01 06:40:03.34	13.28	22.29	-41.3	-41.9	20.1	0.00e+00	0	62	0	859832320	45	3846
2026-01-01 06:40:06.26	12.55	22.44	-41.3	-41.9	20.1	0.00e+00	0	62	0	876609536	45	3861
2026-01-01 06:40:09.16	11.81	22.59	-40.9	-41.5	20.5	0.00e+00	0	62	0	893386752	45	3684
2026-01-01 06:40:12.08	11.07	22.73	-40.8	-41.4	20.6	0.00e+00	0	62	0	909115392	44	3837
2026-01-01 06:40:14.99	10.32	22.87	-40.7	-41.3	20.5	0.00e+00	0	62	0	925892608	44	3822
2026-01-01 06:40:17.91	9.56	23.01	-40.7	-41.3	20.2	0.00e+00	0	62	0	942669824	44	3815
2026-01-01 06:40:20.82	8.80	23.14	-41.7	-42.4	18.9	0.00e+00	0	62	0	958398464	45	4086
2026-01-01 06:40:23.72	8.03	23.26	-42.8	-43.7	17.4	0.00e+00	0	62	0	975175680	47	4227
2026-01-01 06:40:26.63	7.25	23.38	-44.6	-45.8	15.2	0.00e+00	0	62	0	990904320	50	4517
2026-01-01 06:40:29.54	6.47	23.50	-44.0	-45.1	15.9	0.00e+00	0	62	0	1007681536	51	3935
2026-01-01 06:40:32.45	5.68	23.61	-42.8	-43.7	17.7	0.00e+00	0	62	0	1024458752	48	3968
2026-01-01 06:40:35.36	4.89	23.71	-43.6	-44.6	16.7	0.00e+00	0	62	0	1040187392	49	4169
2026-01-01 06:40:38.28	4.09	23.81	-46.0	-47.6	13.2	1.83e-05	0	62	0	1056964608	53	4691
2026-01-01 06:40:41.20	3.29	23.90	-43.3	-44.2	17.2	0.00e+00	0	62	0	1073741824	49	4001
2026-01-01 06:40:44.11	2.48	23.99	-41.3	-41.9	19.8	0.00e+00	0	62	0	1089470464	45	3861
2026-01-01 06:40:47.03	1.66	24.07	-41.0	-41.6	20.4	0.00e+00	0	62	0	1106247680	45	3703
2026-01-01 06:40:49.95	0.85	24.15	-40.5	-41.0	20.9	0.00e+00	0	62	0	1121976320	44	3694
2026-01-01 06:40:52.87	0.02	24.22	-40.5	-41.1	20.9	0.00e+00	0	62	0	1138753536	44	3712
2026-01-01 06:40:55.78	359.20	24.28	-40.9	-41.5	20.5	0.00e+00	0	62	0	1155530752	44	3908
2026-01-01 06:40:58.70	358.37	24.33	-40.7	-41.3	20.7	0.00e+00	0	62	0	1171259392	44	3801
2026-01-01 06:41:01.61	357.54	24.38	-40.7	-41.3	20.7	0.00e+00	0	62	0	1188036608	44	3804
2026-01-01 06:41:04.51	356.71	24.43	-40.4	-41.0	21.0	0.00e+00	0	62	0	1204813824	44	3679
2026-01-01 06:41:07.42	355.88	24.46	-40.2	-40.8	21.1	0.00e+00	0	62	0	1220542464	43	3792
2026-01-01 06:41:10.34	355.04	24.49	-40.1	-40.6	21.3	0.00e+00	0	62	0	1237319680	43	3731
2026-01-01 06:41:13.26	354.20	24.52	-40.1	-40.6	21.2	0.00e+00	0	62	0	1253048320	43	3737
2026-01-01 06:41:16.18	353.36	24.54	-40.3	-40.8	21.1	0.00e+00	0	62	0	1269825536	43	3817
2026-01-01 06:41:19.09	352.52	24.55	-40.4	-41.0	21.0	0.00e+00	0	62	0	1286602752	43	3871
2026-01-01 06:41:22.00	351.68	24.55	-40.6	-41.2	20.7	0.00e+00	0	62	0	1302331392	43	3997
2026-01-01 06:41:24.90	350.85	24.55	-40.7	-41.3	20.6	0.00e+00	0	62	0	1319108608	43	4024
2026-01-01 06:41:27.81	350.01	24.54	-40.5	-41.1	20.9	0.00e+00	0	62	0	1335885824	43	3922
2026-01-01 06:41:30.72	349.17	24.52	-40.4	-41.0	20.9	0.00e+00	0	62	0	1351614464	43	3880
2026-01-01 06:41:33.62	348.34	24.50	-40.7	-41.3	20.6	0.00e+00	0	62	0	1368391680	43	4026
2026-01-01 06:41:36.53	347.50	24.47	-41.0	-41.6	20.4	0.00e+00	0	62	0	1384120320	43	4148
2026-01-01 06:41:39.44	346.67	24.43	-40.9	-41.5	20.6	0.00e+00	0	62	0	1400897536	44	3882
2026-01-01 06:41:42.35	345.83	24.39	-41.2	-41.8	20.2	0.00e+00	0	62	0	1417674752	44	4030
2026-01-01 06:41:45.27	345.00	24.34	-40.7	-41.3	20.7	0.00e+00	0	62	0	1433403392	44	3810
2026-01-01 06:41:48.18	344.17	24.28	-40.8	-41.4	20.6	0.00e+00	0	62	0	1450180608	44	3854
2026-01-01 06:41:51.09	343.35	24.22	-40.5	-41.1	20.9	0.00e+00	0	62	0	1465909248	44	3724
2026-01-01 06:41:53.98	342.54	24.15	-39.9	-40.5	21.4	0.00e+00	0	62	0	1482686464	42	3877
2026-01-01 06:41:56.89	341.72	24.08	-40.2	-40.8	21.1	0.00e+00	0	62	0	1499463680	42	4009
2026-01-01 06:41:59.81	340.90	24.00	-40.1	-40.6	21.2	0.00e+00	0	62	0	1515192320	42	3946
2026-01-01 06:42:02.72	340.10	23.91	-40.4	-41.0	20.9	0.00e+00	0	62	0	1531969536	42	4111
2026-01-01 06:42:05.63	339.29	23.82	-40.8	-41.4	20.5	0.00e+00	0	62	0	1547698176	43	4070
2026-01-01 06:42:08.54	338.49	23.72	-40.2	-40.7	21.1	0.00e+00	0	62	0	1564475392	43	3778
2026-01-01 06:42:11.45	337.70	23.62	-40.4	-40.9	21.0	0.00e+00	0	62	0	1581252608	43	3857
2026-01-01 06:42:14.36	336.91	23.51	-40.0	-40.5	21.4	0.00e+00	0	62	0	1596981248	43	3668
2026-01-01 06:42:17.27	336.13	23.39	-40.2	-40.7	21.2	0.00e+00	0	62	0	1613758464	43	3764
2026-01-01 06:42:20.19	335.35	23.27	-40.2	-40.7	21.1	0.00e+00	0	62	0	1629487104	43	3771
2026-01-01 06:42:23.10	334.58	23.15	-40.7	-41.3	20.4	0.00e+00	0	62	0	1646264320	43	4021
2026-01-01 06:42:26.01	333.82	23.02	-40.5	-41.1	20.8	0.00e+00	0	62	0	1663041536	43	3932
2026-01-01 06:42:28.91	333.06	22.89	-40.6	-41.1	20.8	0.00e+00	0	62	0	1678770176	43	3952
2026-01-01 06:42:31.83	332.31	22.75	-40.6	-41.2	20.8	0.00e+00	0	62	0	1695547392	43	3968
2026-01-01 06:42:34.75	331.56	22.60	-41.3	-42.0	20.1	0.00e+00	0	62	0	1712324608	44	4111
2026-01-01 06:42:37.66	330.83	22.45	-41.5	-42.2	19.9	0.00e+00	0	62	0	1728053248	45	3975
2026-01-01 06:42:40.57	330.10	22.30	-41.5	-42.1	20.0	0.00e+00	0	62	0	1744830464	45	3955
2026-01-01 06:42:43.49	329.37	22.15	-41.5	-42.2	19.9	0.00e+00	0	62	0	1761607680	45	3971
2026-01-01 06:42:46.40	328.65	21.99	-41.0	-41.6	20.5	0.00e+00	0	62	0	1777336320	45	3724
2026-01-01 06:42:49.31	327.95	21.82	-40.6	-41.2	20.9	0.00e+00	0	62	0	1794113536	44	3758
2026-01-01 06:42:52.22	327.25	21.66	-40.6	-41.1	20.9	0.00e+00	0	62	0	1809842176	44	3732
2026-01-01 06:42:55.13	326.55	21.48	-40.6	-41.2	20.8	0.00e+00	0	62	0	1826619392	44	3779
2026-01-01 06:42:58.03	325.87	21.31	-40.8	-41.5	20.6	0.00e+00	0	62	0	1842348032	44	3872
2026-01-01 06:43:00.94	325.19	21.13	-41.1	-41.7	20.3	0.00e+00	0	62	0	1859125248	44	3994
2026-01-01 06:43:03.85	324.53	20.95	-41.6	-42.2	19.9	0.00e+00	0	62	0	1875902464	44	4231
2026-01-01 06:43:06.76	323.86	20.77	-41.5	-42.2	19.9	0.00e+00	0	62	0	1891631104	45	3965
2026-01-01 06:43:09.68	323.21	20.59	-41.7	-42.3	19.8	0.00e+00	0	62	0	1908408320	45	4042
2026-01-01 06:43:12.59	322.56	20.40	-41.3	-41.9	20.2	0.00e+00	0	62	0	1925185536	45	3852
2026-01-01 06:43:15.50	321.93	20.21	-41.6	-42.2	19.9	0.00e+00	0	62	0	1940914176	45	3996
2026-01-01 06:43:18.41	321.30	20.02	-41.7	-42.4	19.7	0.00e+00	0	62	0	1957691392	45	4074
2026-01-01 06:43:21.31	320.68	19.82	-42.1	-42.8	19.3	0.00e+00	0	62	0	1973420032	46	4032
2026-01-01 06:43:24.24	320.06	19.62	-41.8	-42.5	19.6	0.00e+00	0	62	0	1990197248	46	3891
2026-01-01 06:43:27.15	319.45	19.43	-41.9	-42.6	19.5	0.00e+00	0	62	0	2006974464	46	3930
2026-01-01 06:43:30.05	318.86	19.23	-42.4	-43.1	19.0	0.00e+00	0	62	0	2022703104	47	3939
2026-01-01 06:43:32.96	318.27	19.02	-42.0	-42.7	19.4	0.00e+00	0	62	0	2039480320	47	3755
2026-01-01 06:43:35.87	317.69	18.82	-42.5	-43.3	18.9	0.00e+00	0	62	0	2055208960	47	4014
2026-01-01 06:43:38.78	317.11	18.62	-41.6	-42.3	19.8	0.00e+00	0	62	0	2071986176	46	3795
2026-01-01 06:43:41.70	316.54	18.41	-41.5	-42.1	19.9	0.00e+00	0	62	0	2088763392	45	3939
2026-01-01 06:43:44.61	315.99	18.20	-41.7	-42.4	19.7	0.00e+00	0	62	0	2104492032	45	4074
2026-01-01 06:43:47.52	315.43	17.99	-41.5	-42.1	19.9	0.00e+00	0	62	0	2121269248	45	3945
2026-01-01 06:43:50.42	314.89	17.79	-41.7	-42.4	19.7	0.00e+00	0	62	0	2136997888	45	4054
2026-01-01 06:43:53.35	314.35	17.58	-41.8	-42.4	19.6	0.00e+00	0	62	0	2153775104	45	4093
2026-01-01 06:43:56.26	313.83	17.36	-41.9	-42.6	19.4	0.00e+00	0	62	0	2170552320	45	4182
2026-01-01 06:43:59.17	313.30	17.15	-41.9	-42.6	19.5	0.00e+00	0	62	0	2186280960	45	4159
2026-01-01 06:44:02.08	312.79	16.94	-41.8	-42.5	19.6	0.00e+00	0	62	0	2203058176	46	3872
2026-01-01 06:44:04.99	312.29	16.73	-42.3	-43.0	19.1	0.00e+00	0	62	0	2219835392	46	4110
2026-01-01 06:44:07.90	311.79	16.52	-42.2	-43.0	19.1	0.00e+00	0	62	0	2235564032	46	4100
2026-01-01 06:44:10.83	311.29	16.30	-42.6	-43.3	18.7	0.00e+00	0	62	0	2252341248	47	4043
2026-01-01 06:44:13.75	310.81	16.09	-42.4	-43.1	18.9	0.00e+00	0	62	0	2269118464	47	3942
2026-01-01 06:44:16.66	310.33	15.87	-42.5	-43.2	18.8	0.00e+00	0	62	0	2284847104	47	3995
2026-01-01 06:44:19.57	309.86	15.66	-42.3	-43.1	19.0	0.00e+00	0	62	0	2301624320	47	3918
2026-01-01 06:44:22.48	309.39	15.45	-42.4	-43.1	19.0	0.00e+00	0	62	0	2317352960	47	3924
2026-01-01 06:44:25.39	308.94	15.23	-42.2	-42.9	19.1	0.00e+00	0	62	0	2334130176	47	3864
2026-01-01 06:44:28.31	308.48	15.02	-42.7	-43.4	18.6	0.00e+00	0	62	0	2350907392	47	4090
2026-01-01 06:44:31.23	308.04	14.80	-42.6	-43.4	18.6	0.00e+00	0	63	0	2366636032	47	4070
2026-01-01 06:44:34.15	307.60	14.59	-42.7	-43.5	18.6	0.00e+00	0	62	0	2383413248	47	4108
2026-01-01 06:44:37.06	307.17	14.38	-43.2	-44.0	18.2	0.00e+00	0	63	0	2400190464	48	4116
2026-01-01 06:44:39.96	306.74	14.16	-43.1	-43.8	18.3	0.00e+00	0	63	0	2415919104	48	4042
2026-01-01 06:44:42.87	306.33	13.95	-43.3	-44.1	18.1	0.00e+00	0	62	0	2432696320	48	4164
2026-01-01 06:44:45.78	305.91	13.74	-42.9	-43.7	18.5	0.00e+00	0	62	0	2448424960	48	3965
2026-01-01 06:44:48.69	305.51	13.53	-43.0	-43.8	18.4	0.00e+00	0	62	0	2465202176	48	4029
2026-01-01 06:44:51.60	305.11	13.31	-43.0	-43.8	18.4	0.00e+00	0	62	0	2481979392	48	4016
2026-01-01 06:44:54.52	304.71	13.10	-42.9	-43.7	18.5	0.00e+00	0	63	0	2497708032	48	3981
2026-01-01 06:44:57.42	304.32	12.89	-43.1	-43.9	18.3	0.00e+00	0	62	0	2514485248	48	4063
2026-01-01 06:45:00.33	303.94	12.68	-43.2	-43.9	18.2	0.00e+00	0	63	0	2530213888	48	4098
2026-01-01 06:45:03.23	303.56	12.47	-43.3	-44.1	18.0	0.00e+00	0	63	0	2546991104	48	4191
2026-01-01 06:45:06.14	303.19	12.26	-43.3	-44.1	18.0	0.00e+00	0	62	0	2563768320	48	4161
2026-01-01 06:45:09.05	302.82	12.06	-43.6	-44.4	17.7	0.00e+00	0	62	0	2579496960	48	4318
2026-01-01 06:45:11.97	302.46	11.85	-43.8	-44.7	17.4	0.00e+00	0	62	0	2596274176	49	4206
2026-01-01 06:45:14.88	302.10	11.64	-43.8	-44.7	17.3	0.00e+00	0	62	0	2612002816	49	4222
2026-01-01 06:45:17.79	301.75	11.43	-43.9	-44.8	17.1	0.00e+00	0	62	0	2628780032	49	4257
2026-01-01 06:45:20.71	301.40	11.23	-44.2	-45.1	16.7	0.00e+00	0	63	0	2645557248	50	4180
2026-01-01 06:45:23.62	301.06	11.02	-44.5	-45.6	16.1	0.00e+00	0	63	0	2661285888	50	4413
2026-01-01 06:45:26.54	300.72	10.82	-44.7	-45.8	15.8	0.00e+00	0	62	0	2678063104	51	4282
2026-01-01 06:45:29.44	300.39	10.61	-45.2	-46.4	15.0	1.10e-06	0	62	0	2694840320	52	4327
2026-01-01 06:45:32.35	300.06	10.41	-45.5	-46.8	14.4	0.00e+00	0	63	0	2710568960	52	4539
2026-01-01 06:45:35.26	299.74	10.21	-45.1	-46.3	14.8	1.10e-06	0	63	0	2727346176	52	4285
2026-01-01 06:45:38.17	299.42	10.01	-45.2	-46.5	14.5	1.10e-06	0	62	0	2743074816	52	4360
2026-01-01 06:45:41.08	299.11	9.80	-45.7	-47.3	13.5	6.80e-06	0	63	0	2759852032	53	4505
2026-01-01 06:45:43.99	298.80	9.60	-46.0	-47.8	12.8	4.57e-05	0	62	0	2776629248	53	4762
2026-01-01 06:45:46.90	298.49	9.41	-46.5	-48.5	11.9	4.74e-04	0	63	0	2792357888	54	4911
2026-01-01 06:45:49.81	298.19	9.21	-46.5	-48.5	11.8	8.26e-04	0	63	0	2809135104	55	4645
2026-01-01 06:45:52.73	297.90	9.01	-46.8	-49.0	11.2	1.42e-03	0	62	0	2825912320	55	4887
2026-01-01 06:45:55.65	297.60	8.81	-47.0	-49.4	10.7	3.03e-03	0	63	0	2841640960	55	5121
2026-01-01 06:45:58.56	297.31	8.62	-47.2	-49.8	10.3	5.85e-03	0	63	0	2858418176	56	5085
2026-01-01 06:46:01.47	297.03	8.42	-47.1	-49.7	10.4	5.68e-03	0	63	0	2874146816	56	4988
2026-01-01 06:46:04.38	296.75	8.23	-47.3	-49.9	10.1	8.29e-03	0	63	0	2890924032	56	5147
2026-01-01 06:46:07.29	296.47	8.03	-47.4	-50.2	9.7	1.40e-02	0	63	0	2907701248	56	5323
2026-01-01 06:46:10.20	296.20	7.84	-47.5	-50.5	9.5	1.79e-02	0	63	0	2923429888	56	5465
2026-01-01 06:46:13.12	295.93	7.65	-47.2	-49.9	10.1	9.66e-03	0	62	0	2940207104	57	4836
2026-01-01 06:46:16.04	295.66	7.46	-46.9	-49.3	10.7	4.65e-03	0	63	0	2956984320	57	4541
2026-01-01 06:46:18.95	295.40	7.27	-46.8	-49.1	11.1	2.14e-03	0	63	0	2972712960	56	4666
2026-01-01 06:46:21.87	295.14	7.08	-46.7	-49.0	11.0	2.30e-03	0	63	0	2989490176	56	4614
2026-01-01 06:46:24.79	294.89	6.89	-46.6	-48.9	11.1	2.10e-03	0	63	0	3006267392	56	4566
2026-01-01 06:46:27.70	294.63	6.70	-46.5	-48.7	11.2	1.89e-03	0	63	0	3021996032	56	4471
2026-01-01 06:46:30.61	294.39	6.51	-46.7	-49.1	10.7	2.74e-03	0	63	0	3038773248	56	4697
2026-01-01 06:46:33.53	294.14	6.33	-46.9	-49.5	10.3	5.85e-03	0	63	0	3054501888	56	4907
2026-01-01 06:46:36.45	293.90	6.14	-47.1	-49.8	10.0	9.48e-03	0	63	0	3071279104	56	5074
2026-01-01 06:46:39.36	293.66	5.96	-47.4	-50.4	9.2	2.53e-02	0	63	0	3088056320	56	5454
2026-01-01 06:46:42.26	293.42	5.77	-47.5	-50.9	8.5	4.39e-02	0	63	0	3103784960	56	5779
2026-01-01 06:46:45.17	293.19	5.59	-47.9	-51.9	7.4	1.18e-01	0	63	0	3120562176	57	6065
2026-01-01 06:46:48.08	292.96	5.41	-48.3	-52.8	6.5	2.17e-01	0	63	0	3136290816	58	6374
2026-01-01 06:46:50.99	292.74	5.23	-48.3	-53.2	6.1	3.40e-01	0	63	0	3153068032	58	6669
2026-01-01 06:46:53.90	292.51	5.05	-49.0	-55.7	4.6	3.59e-01	0	63	0	3168796672	59	8421
2026-01-01 06:46:56.85	292.29	4.87	-52.4	-63.1	3.8	8.46e-01	0	63	104	3168796672	66	13150
2026-01-01 06:46:59.80	292.07	4.68	-52.5	-63.2	3.8	8.47e-01	0	63	104	3168796672	66	13307
2026-01-01 06:47:02.75	291.85	4.50	-52.7	-63.4	3.8	8.46e-01	0	63	104	3168796672	67	12919
2026-01-01 06:47:05.70	291.63	4.32	-52.6	-63.5	3.8	8.47e-01	0	63	104	3168796672	67	13055
2026-01-01 06:47:08.66	291.42	4.15	-52.9	-63.6	3.8	8.46e-01	0	63	104	3168796672	67	13223
2026-01-01 06:47:11.61	291.21	3.97	-52.9	-63.6	3.8	8.46e-01	0	63	104	3168796672	67	13195
2026-01-01 06:47:14.55	291.00	3.79	-52.8	-63.7	3.8	8.45e-01	0	63	104	3168796672	67	13282
2026-01-01 06:47:17.51	290.80	3.61	-53.0	-63.7	3.8	8.46e-01	0	63	104	3168796672	67	13312
2026-01-01 06:47:20.46	290.60	3.44	-53.0	-63.7	3.8	8.45e-01	0	63	104	3168796672	67	13341
2026-01-01 06:47:23.42	290.40	3.26	-53.0	-63.7	3.8	8.45e-01	0	63	104	3168796672	67	13324
2026-01-01 06:47:26.37	290.20	3.09	-53.0	-63.7	3.8	8.45e-01	0	63	104	3168796672	67	13310

#Closed at: 2026-01-01 06:47:29
#Recorded file [3168 MB]: D:/Data/31026_260101_094654.dat