passes_logs/2026/01/01/R3.0SM8_Murmansk_STILSPACE/R3.0SM8_Murmansk_STILSPACE__20260101_234520_NOAA_21_JPSS-2_rec.log

#Pass ID: 20260101_234520_NOAA 21 (JPSS-2)
#Satellite: NOAA 21 (JPSS-2)
#Configuration: NOAA-21
#almurnet v.1.7.20240730
#Start time: 2026-01-01 23:46:39

#Version: 2.2.20231116
#Station: R3.0SM8_Murmansk_STILSPACE
#Location: 33.092731 lon 68.902999 lat
#TLE: 1 54234U 22150A   26001.26806856  .00000185  00000+0  10843-3 0  9990
#TLE: 2 54234  98.7484 302.3349 0001277 353.3887   6.7272 14.19530660162860

#Time	Az	El	Level	Level2	SNR	BER	BlckErr	Temp	State	Recorded	gain1	gain2
2026-01-01 23:46:39.39	24.83	8.59	-52.6	-63.3	3.8	8.48e-01	0	56	0	0	66	13421
2026-01-01 23:46:43.35	25.00	8.91	-52.6	-64.0	3.8	1.49e+00	0	57	104	0	67	13865
2026-01-01 23:46:47.30	25.18	9.22	-52.6	-64.1	3.8	1.49e+00	0	57	104	0	67	13922
2026-01-01 23:46:51.26	25.36	9.55	-52.5	-64.0	3.8	1.49e+00	0	57	104	0	66	14707
2026-01-01 23:46:55.23	25.54	9.87	-52.5	-64.0	3.8	1.49e+00	0	57	104	0	66	14548
2026-01-01 23:46:59.18	25.73	10.20	-52.4	-63.9	3.8	1.49e+00	0	57	104	0	66	14448
2026-01-01 23:47:03.13	25.92	10.54	-52.4	-63.8	3.8	1.49e+00	0	57	104	0	66	14331
2026-01-01 23:47:07.09	26.11	10.88	-52.0	-63.4	3.8	1.49e+00	0	57	104	0	66	13575
2026-01-01 23:47:11.04	26.31	11.22	-51.8	-61.7	3.8	1.49e+00	0	57	104	0	66	11158
2026-01-01 23:47:15.01	26.52	11.57	-51.1	-57.2	5.5	5.40e-01	0	58	0	2097152	65	7069
2026-01-01 23:47:18.97	26.73	11.92	-49.9	-53.6	8.6	4.43e-02	0	57	0	14680064	63	5277
2026-01-01 23:47:22.95	26.94	12.28	-47.9	-50.0	12.5	1.91e-04	0	57	0	27262976	59	4362
2026-01-01 23:47:26.91	27.16	12.65	-46.7	-48.3	14.2	7.00e-07	0	57	0	39845888	56	4260
2026-01-01 23:47:30.86	27.38	13.01	-46.7	-48.3	14.1	1.50e-06	0	57	0	52428800	56	4289
2026-01-01 23:47:34.81	27.61	13.39	-47.1	-48.8	13.7	6.10e-06	0	58	0	63963136	56	4505
2026-01-01 23:47:38.77	27.84	13.77	-46.6	-48.1	14.4	0.00e+00	0	58	0	76546048	56	4172
2026-01-01 23:47:42.73	28.08	14.15	-46.9	-48.4	14.1	2.20e-06	0	57	0	89128960	56	4332
2026-01-01 23:47:46.70	28.33	14.54	-45.2	-46.3	16.1	0.00e+00	0	57	0	101711872	53	4042
2026-01-01 23:47:50.65	28.58	14.94	-45.1	-46.3	16.1	0.00e+00	0	57	0	114294784	53	4023
2026-01-01 23:47:54.61	28.83	15.34	-44.6	-45.6	16.8	0.00e+00	0	57	0	125829120	52	3929
2026-01-01 23:47:58.58	29.10	15.75	-44.7	-45.8	16.7	0.00e+00	0	57	0	138412032	52	4014
2026-01-01 23:48:02.55	29.37	16.17	-44.7	-45.7	16.8	0.00e+00	0	58	0	150994944	52	3978
2026-01-01 23:48:06.50	29.65	16.59	-44.6	-45.6	16.9	0.00e+00	0	57	0	163577856	52	3927
2026-01-01 23:48:10.46	29.93	17.02	-44.6	-45.7	16.8	0.00e+00	0	57	0	176160768	52	3960
2026-01-01 23:48:14.42	30.22	17.45	-44.8	-45.9	16.6	0.00e+00	0	57	0	187695104	52	4058
2026-01-01 23:48:18.36	30.52	17.89	-44.5	-45.5	17.0	0.00e+00	0	57	0	200278016	52	3885
2026-01-01 23:48:22.32	30.83	18.34	-44.4	-45.3	17.3	0.00e+00	0	58	0	212860928	51	4027
2026-01-01 23:48:26.25	31.15	18.80	-44.5	-45.5	17.1	0.00e+00	0	58	0	225443840	51	4119
2026-01-01 23:48:30.20	31.48	19.26	-44.2	-45.1	17.5	0.00e+00	0	57	0	236978176	51	3929
2026-01-01 23:48:34.16	31.81	19.73	-44.2	-45.2	17.4	0.00e+00	0	57	0	249561088	51	3968
2026-01-01 23:48:38.10	32.16	20.21	-44.2	-45.1	17.5	0.00e+00	0	57	0	262144000	51	3954
2026-01-01 23:48:42.06	32.51	20.70	-44.1	-45.0	17.6	0.00e+00	0	57	0	274726912	51	3896
2026-01-01 23:48:46.01	32.88	21.20	-43.9	-44.8	17.9	0.00e+00	0	57	0	287309824	51	3783
2026-01-01 23:48:49.97	33.26	21.71	-44.2	-45.1	17.6	0.00e+00	0	58	0	298844160	50	4166
2026-01-01 23:48:53.93	33.66	22.23	-44.2	-45.2	17.5	0.00e+00	0	57	0	311427072	50	4198
2026-01-01 23:48:57.87	34.06	22.75	-44.0	-44.8	17.9	0.00e+00	0	57	0	324009984	50	4045
2026-01-01 23:49:01.84	34.48	23.29	-43.4	-44.2	18.4	0.00e+00	0	57	0	336592896	50	3775
2026-01-01 23:49:05.80	34.91	23.83	-43.1	-43.9	18.8	0.00e+00	0	58	0	349175808	49	3836
2026-01-01 23:49:09.76	35.36	24.39	-43.2	-43.9	18.7	0.00e+00	0	57	0	360710144	49	3863
2026-01-01 23:49:13.72	35.82	24.95	-43.6	-44.4	18.3	0.00e+00	0	57	0	373293056	49	4064
2026-01-01 23:49:17.65	36.30	25.53	-43.3	-44.1	18.5	0.00e+00	0	57	0	385875968	49	3945
2026-01-01 23:49:21.62	36.79	26.11	-43.4	-44.2	18.5	0.00e+00	0	57	0	398458880	49	3965
2026-01-01 23:49:25.57	37.31	26.71	-43.8	-44.6	18.1	0.00e+00	0	57	0	409993216	49	4185
2026-01-01 23:49:29.52	37.84	27.32	-44.1	-45.0	17.7	0.00e+00	0	57	0	422576128	50	4143
2026-01-01 23:49:33.47	38.39	27.94	-44.4	-45.3	17.4	0.00e+00	0	57	0	435159040	50	4273
2026-01-01 23:49:37.44	38.97	28.57	-44.5	-45.4	17.4	0.00e+00	0	58	0	447741952	50	4303
2026-01-01 23:49:41.41	39.57	29.21	-44.9	-45.9	16.9	0.00e+00	0	58	0	460324864	51	4320
2026-01-01 23:49:45.35	40.19	29.87	-44.5	-45.5	17.3	0.00e+00	0	57	0	471859200	51	4115
2026-01-01 23:49:49.30	40.83	30.53	-44.6	-45.6	17.2	0.00e+00	0	57	0	484442112	51	4154
2026-01-01 23:49:53.26	41.51	31.21	-44.7	-45.7	17.1	0.00e+00	0	57	0	497025024	51	4217
2026-01-01 23:49:57.21	42.21	31.90	-44.3	-45.3	17.5	0.00e+00	0	57	0	509607936	51	4009
2026-01-01 23:50:01.16	42.94	32.60	-44.5	-45.4	17.4	0.00e+00	0	57	0	521142272	51	4084
2026-01-01 23:50:05.11	43.70	33.31	-44.6	-45.6	17.2	0.00e+00	0	57	0	533725184	51	4170
2026-01-01 23:50:09.08	44.49	34.03	-45.1	-46.1	16.6	0.00e+00	0	57	0	546308096	52	4172
2026-01-01 23:50:13.05	45.33	34.77	-45.5	-46.7	16.0	0.00e+00	0	58	0	558891008	53	4226
2026-01-01 23:50:16.99	46.20	35.51	-45.5	-46.7	16.1	0.00e+00	0	57	0	571473920	53	4208
2026-01-01 23:50:20.95	47.11	36.27	-46.0	-47.3	15.5	0.00e+00	0	58	0	583008256	53	4526
2026-01-01 23:50:24.89	48.05	37.03	-45.9	-47.2	15.7	0.00e+00	0	57	0	595591168	54	4213
2026-01-01 23:50:28.84	49.05	37.80	-45.9	-47.1	15.8	0.00e+00	0	57	0	608174080	54	4148
2026-01-01 23:50:32.79	50.09	38.58	-45.9	-47.1	15.7	7.00e-07	0	57	0	620756992	53	4438
2026-01-01 23:50:36.75	51.19	39.37	-45.8	-47.0	15.8	0.00e+00	0	57	0	633339904	54	4100
2026-01-01 23:50:40.71	52.34	40.17	-46.4	-47.8	15.0	0.00e+00	0	58	0	644874240	54	4494
2026-01-01 23:50:44.67	53.55	40.97	-46.6	-47.9	14.9	0.00e+00	0	57	0	657457152	55	4338
2026-01-01 23:50:48.63	54.81	41.78	-46.3	-47.6	15.2	0.00e+00	0	58	0	670040064	55	4184
2026-01-01 23:50:52.59	56.15	42.59	-47.0	-48.5	14.3	7.00e-07	0	57	0	682622976	55	4635
2026-01-01 23:50:56.55	57.55	43.39	-47.2	-48.8	14.3	1.50e-06	0	58	0	695205888	56	4510
2026-01-01 23:51:00.49	59.01	44.19	-47.3	-48.9	14.0	2.20e-06	0	57	0	706740224	56	4562
2026-01-01 23:51:04.44	60.55	44.99	-46.6	-48.0	14.9	7.00e-07	0	57	0	719323136	56	4116
2026-01-01 23:51:08.38	62.17	45.78	-46.8	-48.2	14.8	0.00e+00	0	57	0	731906048	56	4213
2026-01-01 23:51:12.35	63.88	46.56	-46.8	-48.3	14.7	0.00e+00	0	58	0	744488960	56	4268
2026-01-01 23:51:16.30	65.67	47.33	-46.6	-47.9	15.0	0.00e+00	0	57	0	756023296	56	4098
2026-01-01 23:51:20.25	67.54	48.08	-46.2	-47.5	15.3	0.00e+00	0	58	0	768606208	55	4121
2026-01-01 23:51:24.20	69.51	48.80	-46.2	-47.6	15.4	0.00e+00	0	58	0	781189120	55	4154
2026-01-01 23:51:28.14	71.56	49.50	-45.9	-47.2	15.6	0.00e+00	0	57	0	793772032	55	3971
2026-01-01 23:51:32.09	73.71	50.17	-45.5	-46.6	16.3	0.00e+00	0	57	0	805306368	54	3933
2026-01-01 23:51:36.04	75.96	50.81	-45.0	-46.0	16.7	0.00e+00	0	58	0	817889280	52	4139
2026-01-01 23:51:39.98	78.29	51.41	-45.8	-46.9	15.8	0.00e+00	0	58	0	830472192	53	4338
2026-01-01 23:51:43.94	80.73	51.96	-45.7	-46.8	15.9	0.00e+00	0	57	0	843055104	53	4291
2026-01-01 23:51:47.90	83.26	52.47	-45.5	-46.6	16.2	0.00e+00	0	58	0	855638016	53	4190
2026-01-01 23:51:51.85	85.86	52.92	-46.5	-47.9	14.9	0.00e+00	0	57	0	867172352	54	4569
2026-01-01 23:51:55.81	88.54	53.32	-46.0	-47.3	15.5	0.00e+00	0	57	0	879755264	54	4283
2026-01-01 23:51:59.76	91.29	53.65	-45.7	-46.8	16.0	0.00e+00	0	58	0	892338176	53	4278
2026-01-01 23:52:03.71	94.09	53.92	-45.3	-46.4	16.4	0.00e+00	0	58	0	904921088	53	4090
2026-01-01 23:52:07.66	96.94	54.12	-45.1	-46.1	16.7	0.00e+00	0	58	0	916455424	53	3937
2026-01-01 23:52:11.62	99.83	54.25	-45.0	-46.1	16.7	0.00e+00	0	58	0	929038336	53	3928
2026-01-01 23:52:15.58	102.74	54.31	-45.6	-46.8	16.0	0.00e+00	0	58	0	941621248	53	4277
2026-01-01 23:52:19.54	105.66	54.30	-45.3	-46.4	16.3	0.00e+00	0	58	0	954204160	52	4327
2026-01-01 23:52:23.49	108.55	54.21	-44.8	-45.8	17.0	0.00e+00	0	57	0	966787072	52	4037
2026-01-01 23:52:27.44	111.43	54.05	-44.9	-46.0	16.8	0.00e+00	0	58	0	978321408	52	4101
2026-01-01 23:52:31.37	114.24	53.82	-45.0	-46.0	16.8	0.00e+00	0	58	0	990904320	52	4102
2026-01-01 23:52:35.33	117.04	53.53	-45.7	-46.9	16.0	0.00e+00	0	58	0	1003487232	53	4320
2026-01-01 23:52:39.27	119.75	53.17	-45.5	-46.6	16.3	0.00e+00	0	58	0	1016070144	53	4154
2026-01-01 23:52:43.23	122.41	52.75	-44.5	-45.4	17.5	0.00e+00	0	58	0	1027604480	51	4069
2026-01-01 23:52:47.19	124.99	52.27	-45.3	-46.3	16.4	0.00e+00	0	58	0	1040187392	52	4291
2026-01-01 23:52:51.14	127.48	51.74	-46.5	-47.9	14.9	0.00e+00	0	58	0	1052770304	54	4570
2026-01-01 23:52:55.09	129.87	51.17	-45.6	-46.7	16.1	0.00e+00	0	58	0	1065353216	54	3965
2026-01-01 23:52:59.04	132.18	50.55	-45.9	-47.2	15.7	0.00e+00	0	57	0	1077936128	54	4209
2026-01-01 23:53:02.99	134.39	49.90	-45.3	-46.3	16.4	0.00e+00	0	58	0	1089470464	53	4037
2026-01-01 23:53:06.95	136.51	49.21	-46.0	-47.3	15.6	0.00e+00	0	58	0	1102053376	54	4246
2026-01-01 23:53:10.92	138.55	48.49	-46.2	-47.4	15.5	0.00e+00	0	57	0	1114636288	54	4322
2026-01-01 23:53:14.87	140.48	47.76	-47.0	-48.6	14.3	7.00e-07	0	57	0	1127219200	56	4402
2026-01-01 23:53:18.83	142.32	47.00	-47.1	-48.6	14.4	0.00e+00	0	58	0	1139802112	56	4400
2026-01-01 23:53:22.78	144.08	46.22	-46.9	-48.4	14.6	7.00e-07	0	58	0	1151336448	56	4335
2026-01-01 23:53:26.75	145.76	45.43	-46.7	-48.2	14.6	7.00e-07	0	58	0	1163919360	56	4200
2026-01-01 23:53:30.69	147.34	44.64	-46.6	-48.0	14.8	0.00e+00	0	58	0	1176502272	56	4140
2026-01-01 23:53:34.64	148.85	43.83	-46.5	-47.9	14.8	0.00e+00	0	58	0	1189085184	55	4297
2026-01-01 23:53:38.60	150.30	43.03	-46.3	-47.6	15.1	0.00e+00	0	57	0	1201668096	55	4170
2026-01-01 23:53:42.55	151.67	42.22	-46.5	-47.9	14.9	0.00e+00	0	58	0	1213202432	54	4589
2026-01-01 23:53:46.50	152.97	41.41	-46.6	-48.1	14.7	0.00e+00	0	58	0	1225785344	55	4423
2026-01-01 23:53:50.46	154.21	40.60	-46.7	-48.1	14.7	0.00e+00	0	58	0	1238368256	55	4415
2026-01-01 23:53:54.41	155.40	39.80	-46.4	-47.8	15.0	0.00e+00	0	58	0	1250951168	55	4267
2026-01-01 23:53:58.36	156.52	39.01	-46.9	-48.4	14.4	7.00e-07	0	58	0	1262485504	55	4575
2026-01-01 23:54:02.32	157.60	38.22	-45.5	-46.6	16.2	0.00e+00	0	58	0	1275068416	54	3937
2026-01-01 23:54:06.28	158.62	37.43	-45.6	-46.8	16.0	0.00e+00	0	58	0	1287651328	54	4013
2026-01-01 23:54:10.23	159.60	36.66	-45.1	-46.1	16.7	0.00e+00	0	58	0	1300234240	53	3921
2026-01-01 23:54:14.18	160.54	35.90	-45.0	-46.0	16.7	0.00e+00	0	57	0	1311768576	53	3901
2026-01-01 23:54:18.14	161.43	35.14	-45.0	-46.1	16.7	0.00e+00	0	58	0	1324351488	53	3924
2026-01-01 23:54:22.10	162.28	34.40	-44.8	-45.9	16.9	0.00e+00	0	57	0	1336934400	52	4058
2026-01-01 23:54:26.05	163.10	33.67	-45.2	-46.3	16.4	0.00e+00	0	58	0	1349517312	52	4273
2026-01-01 23:54:30.00	163.88	32.95	-45.2	-46.3	16.4	0.00e+00	0	58	0	1362100224	52	4269
2026-01-01 23:54:33.95	164.63	32.24	-45.3	-46.3	16.4	0.00e+00	0	58	0	1373634560	52	4289
2026-01-01 23:54:37.90	165.35	31.54	-44.6	-45.7	17.1	0.00e+00	0	58	0	1386217472	52	3959
2026-01-01 23:54:41.85	166.03	30.85	-44.3	-45.2	17.6	0.00e+00	0	58	0	1398800384	51	3961
2026-01-01 23:54:45.80	166.69	30.18	-44.8	-45.8	16.9	0.00e+00	0	58	0	1411383296	52	4023
2026-01-01 23:54:49.75	167.33	29.52	-45.1	-46.2	16.5	0.00e+00	0	58	0	1423966208	52	4239
2026-01-01 23:54:53.70	167.94	28.87	-44.7	-45.7	17.0	0.00e+00	0	57	0	1435500544	52	3980
2026-01-01 23:54:57.66	168.53	28.23	-44.3	-45.2	17.6	0.00e+00	0	58	0	1448083456	51	3972
2026-01-01 23:55:01.61	169.09	27.60	-44.1	-44.9	17.8	0.00e+00	0	58	0	1460666368	51	3845
2026-01-01 23:55:05.58	169.64	26.98	-44.4	-45.3	17.4	0.00e+00	0	58	0	1473249280	51	4049
2026-01-01 23:55:09.54	170.16	26.37	-44.5	-45.4	17.3	0.00e+00	0	58	0	1484783616	51	4086
2026-01-01 23:55:13.50	170.67	25.78	-43.9	-44.8	17.9	0.00e+00	0	57	0	1497366528	51	3796
2026-01-01 23:55:17.44	171.15	25.20	-43.9	-44.7	18.1	0.00e+00	0	58	0	1509949440	50	3971
2026-01-01 23:55:21.42	171.63	24.62	-44.3	-45.2	17.5	0.00e+00	0	58	0	1522532352	50	4234
2026-01-01 23:55:25.36	172.08	24.06	-44.1	-44.9	17.8	0.00e+00	0	58	0	1535115264	50	4090
2026-01-01 23:55:29.32	172.52	23.50	-43.9	-44.8	17.9	0.00e+00	0	57	0	1546649600	50	4029
2026-01-01 23:55:33.28	172.95	22.96	-43.9	-44.7	18.0	0.00e+00	0	58	0	1559232512	50	3982
2026-01-01 23:55:37.23	173.36	22.43	-44.2	-45.1	17.6	0.00e+00	0	58	0	1571815424	50	4161
2026-01-01 23:55:41.18	173.76	21.91	-44.3	-45.2	17.5	0.00e+00	0	58	0	1584398336	50	4194
2026-01-01 23:55:45.14	174.14	21.39	-44.2	-45.1	17.6	0.00e+00	0	58	0	1596981248	50	4157
2026-01-01 23:55:49.10	174.52	20.89	-44.2	-45.1	17.6	0.00e+00	0	58	0	1608515584	50	4177
2026-01-01 23:55:53.05	174.88	20.39	-44.3	-45.2	17.5	0.00e+00	0	57	0	1621098496	50	4206
2026-01-01 23:55:57.00	175.23	19.90	-44.4	-45.4	17.3	0.00e+00	0	57	0	1633681408	50	4299
2026-01-01 23:56:00.96	175.57	19.42	-44.6	-45.5	17.2	0.00e+00	0	58	0	1646264320	51	4126
2026-01-01 23:56:04.92	175.90	18.95	-44.6	-45.6	17.1	0.00e+00	0	58	0	1658847232	51	4167
2026-01-01 23:56:08.87	176.22	18.49	-44.7	-45.7	17.0	0.00e+00	0	57	0	1670381568	51	4203
2026-01-01 23:56:12.82	176.54	18.03	-44.3	-45.2	17.4	0.00e+00	0	58	0	1682964480	51	3989
2026-01-01 23:56:16.77	176.84	17.59	-44.5	-45.5	17.1	0.00e+00	0	58	0	1695547392	51	4143
2026-01-01 23:56:20.73	177.13	17.14	-44.1	-45.0	17.6	0.00e+00	0	58	0	1708130304	51	3889
2026-01-01 23:56:24.68	177.42	16.71	-44.6	-45.6	17.0	0.00e+00	0	58	0	1719664640	51	4168
2026-01-01 23:56:28.63	177.70	16.29	-44.7	-45.7	16.9	0.00e+00	0	58	0	1732247552	51	4215
2026-01-01 23:56:32.56	177.97	15.87	-44.8	-45.8	16.9	0.00e+00	0	58	0	1744830464	51	4250
2026-01-01 23:56:36.52	178.24	15.46	-44.9	-45.9	16.7	0.00e+00	0	58	0	1757413376	51	4329
2026-01-01 23:56:40.48	178.50	15.05	-44.7	-45.7	16.8	0.00e+00	0	58	0	1768947712	52	3977
2026-01-01 23:56:44.43	178.75	14.65	-44.8	-45.9	16.6	0.00e+00	0	58	0	1781530624	52	4080
2026-01-01 23:56:48.40	179.00	14.25	-45.1	-46.2	16.3	0.00e+00	0	57	0	1794113536	52	4201
2026-01-01 23:56:52.36	179.24	13.86	-45.4	-46.6	15.9	0.00e+00	0	57	0	1806696448	52	4401
2026-01-01 23:56:56.33	179.47	13.48	-45.1	-46.2	16.3	0.00e+00	0	57	0	1819279360	52	4205
2026-01-01 23:57:00.29	179.70	13.10	-45.2	-46.4	16.1	0.00e+00	0	58	0	1830813696	52	4314
2026-01-01 23:57:04.22	179.92	12.73	-45.0	-46.1	16.4	0.00e+00	0	58	0	1843396608	52	4160
2026-01-01 23:57:08.18	180.14	12.36	-45.5	-46.7	15.8	0.00e+00	0	57	0	1855979520	52	4461
2026-01-01 23:57:12.13	180.35	12.00	-45.5	-46.7	15.8	0.00e+00	0	58	0	1868562432	52	4458
2026-01-01 23:57:16.09	180.56	11.64	-45.8	-47.1	15.2	0.00e+00	0	57	0	1881145344	53	4439
2026-01-01 23:57:20.05	180.77	11.29	-45.5	-46.8	15.6	0.00e+00	0	57	0	1892679680	53	4253
2026-01-01 23:57:24.00	180.97	10.95	-45.9	-47.2	15.1	7.00e-07	0	57	0	1905262592	53	4485
2026-01-01 23:57:27.97	181.16	10.60	-45.4	-46.7	15.6	0.00e+00	0	58	0	1917845504	53	4217
2026-01-01 23:57:31.91	181.35	10.26	-45.4	-46.7	15.7	0.00e+00	0	58	0	1930428416	53	4199
2026-01-01 23:57:35.86	181.54	9.93	-45.5	-46.7	15.6	0.00e+00	0	57	0	1943011328	53	4226
2026-01-01 23:57:39.82	181.72	9.60	-45.5	-46.8	15.5	0.00e+00	0	58	0	1954545664	53	4261
2026-01-01 23:57:43.79	181.90	9.27	-45.7	-47.0	15.2	0.00e+00	0	57	0	1967128576	53	4379
2026-01-01 23:57:47.75	182.08	8.95	-46.0	-47.5	14.8	0.00e+00	0	57	0	1979711488	54	4352
2026-01-01 23:57:51.71	182.25	8.63	-46.2	-47.6	14.6	0.00e+00	0	57	0	1992294400	54	4438
2026-01-01 23:57:55.66	182.42	8.32	-45.7	-47.1	15.0	7.00e-07	0	58	0	2004877312	54	4187
2026-01-01 23:57:59.61	182.59	8.01	-45.7	-47.0	15.2	0.00e+00	0	57	0	2016411648	54	4118
2026-01-01 23:58:03.58	182.75	7.70	-46.0	-47.5	14.7	7.00e-07	0	57	0	2028994560	54	4352
2026-01-01 23:58:07.53	182.91	7.40	-46.3	-47.8	14.2	1.50e-06	0	57	0	2041577472	54	4531
2026-01-01 23:58:11.50	183.07	7.10	-46.3	-47.9	14.1	0.00e+00	0	58	0	2054160384	55	4320
2026-01-01 23:58:15.46	183.22	6.80	-46.2	-47.7	14.3	0.00e+00	0	57	0	2066743296	55	4231
2026-01-01 23:58:19.43	183.37	6.51	-46.3	-47.9	14.0	0.00e+00	0	57	0	2078277632	55	4333
2026-01-01 23:58:23.39	183.52	6.22	-46.6	-48.3	13.7	6.10e-06	0	58	0	2090860544	55	4501
2026-01-01 23:58:27.36	183.67	5.93	-46.7	-48.5	13.4	1.37e-05	0	57	0	2103443456	55	4628
2026-01-01 23:58:31.32	183.81	5.65	-47.0	-48.9	13.0	3.73e-05	0	57	0	2116026368	55	4815
2026-01-01 23:58:35.28	183.95	5.36	-47.1	-49.0	12.8	5.56e-05	0	57	0	2128609280	55	4894
2026-01-01 23:58:39.23	184.09	5.09	-47.2	-49.2	12.6	9.91e-05	0	58	0	2140143616	56	4739
2026-01-01 23:58:43.19	184.22	4.81	-52.1	-63.6	3.8	1.49e+00	0	58	104	2143289344	65	14714
2026-01-01 23:58:47.16	184.36	4.54	-52.4	-63.9	3.8	1.49e+00	0	58	104	2143289344	66	14432
2026-01-01 23:58:51.11	184.49	4.27	-52.4	-64.0	3.8	1.49e+00	0	58	104	2143289344	66	14569
2026-01-01 23:58:55.08	184.62	4.00	-52.6	-64.1	3.9	1.49e+00	0	58	104	2143289344	67	13908
2026-01-01 23:58:59.04	184.75	3.73	-52.6	-64.1	3.8	1.49e+00	0	58	104	2143289344	67	13930
2026-01-01 23:59:03.00	184.87	3.47	-52.5	-64.1	3.8	1.49e+00	0	58	104	2143289344	67	13906
2026-01-01 23:59:06.97	184.99	3.21	-52.6	-64.1	3.8	1.49e+00	0	58	104	2143289344	67	13938
2026-01-01 23:59:10.91	185.12	2.95	-52.6	-64.0	3.8	1.49e+00	0	58	104	2143289344	67	13873

#Closed at: 2026-01-01 23:59:12
#Recorded file [2143 MB]: D:/Data/31026_260102_025840.dat