passes_logs/2026/01/01/R3.0SM8_Murmansk_STILSPACE/R3.0SM8_Murmansk_STILSPACE__20260101_055331_NOAA_20_JPSS-1_rec.log

#Pass ID: 20260101_055331_NOAA 20 (JPSS-1)
#Satellite: NOAA 20 (JPSS-1)
#Configuration: NOAA 20
#almurnet v.1.7.20240730
#Start time: 2026-01-01 05:53:31

#Version: 2.2.20231116
#Station: R3.0SM8_Murmansk_STILSPACE
#Location: 33.092731 lon 68.902999 lat
#TLE: 1 43013U 17073A   25365.45761817  .00000173  00000+0  10307-3 0  9993
#TLE: 2 43013  98.7620 301.5517 0001951  60.3814 299.7557 14.19531661420675

#Time	Az	El	Level	Level2	SNR	BER	BlckErr	Temp	State	Recorded	gain1	gain2
2026-01-01 05:53:31.24	72.84	3.00	-52.6	-66.4	3.8	1.49e+00	0	51	0	0	67	18230
2026-01-01 05:53:34.18	72.64	3.18	-52.5	-66.3	3.8	1.49e+00	0	51	104	0	68	17037
2026-01-01 05:53:37.12	72.44	3.35	-52.0	-65.8	3.8	1.49e+00	0	51	104	0	67	17046
2026-01-01 05:53:40.06	72.24	3.52	-51.8	-65.5	3.8	1.49e+00	0	52	104	0	66	17471
2026-01-01 05:53:43.02	72.04	3.70	-51.7	-65.5	3.8	1.49e+00	0	52	104	0	66	17425
2026-01-01 05:53:45.95	71.83	3.88	-51.8	-65.5	3.8	1.49e+00	0	52	104	0	66	17425
2026-01-01 05:53:48.90	71.62	4.05	-51.7	-65.5	3.8	1.49e+00	0	52	104	0	66	17414
2026-01-01 05:53:51.84	71.41	4.23	-51.7	-65.3	3.8	1.49e+00	0	52	104	0	66	17073
2026-01-01 05:53:54.78	71.20	4.41	-51.7	-64.4	3.8	1.49e+00	0	53	104	0	66	15290
2026-01-01 05:53:57.72	70.98	4.59	-51.5	-62.4	3.9	1.46e+00	0	53	104	0	66	12127
2026-01-01 05:54:00.64	70.76	4.77	-51.3	-59.9	5.0	7.93e-01	0	53	0	3145728	65	9714
2026-01-01 05:54:03.55	70.54	4.94	-51.0	-58.4	6.0	3.46e-01	0	53	0	8388608	65	8146
2026-01-01 05:54:06.46	70.32	5.12	-50.9	-58.0	6.4	2.47e-01	0	53	0	13631488	64	8192
2026-01-01 05:54:09.37	70.10	5.30	-50.9	-57.8	6.6	2.20e-01	0	53	0	18874368	64	8042
2026-01-01 05:54:12.28	69.87	5.49	-51.1	-58.6	5.9	2.99e-01	0	53	0	25165824	64	8855
2026-01-01 05:54:15.18	69.64	5.67	-50.5	-56.0	8.2	7.64e-02	0	54	0	30408704	64	6553
2026-01-01 05:54:18.09	69.40	5.85	-50.0	-54.6	9.8	1.38e-02	0	54	0	35651584	63	5882
2026-01-01 05:54:21.00	69.17	6.03	-49.7	-53.9	10.6	4.75e-03	0	54	0	40894464	62	5725
2026-01-01 05:54:23.90	68.93	6.22	-49.4	-53.2	11.3	1.52e-03	0	54	0	46137344	62	5294
2026-01-01 05:54:26.80	68.68	6.40	-49.5	-53.2	11.3	1.52e-03	0	54	0	52428800	61	5655
2026-01-01 05:54:29.71	68.44	6.59	-49.3	-52.8	11.8	5.38e-04	0	54	0	57671680	61	5365
2026-01-01 05:54:32.61	68.19	6.77	-49.4	-52.9	11.7	8.38e-04	0	55	0	62914560	61	5440
2026-01-01 05:54:35.52	67.93	6.96	-49.2	-52.5	12.1	2.82e-04	0	55	0	68157440	61	5187
2026-01-01 05:54:38.43	67.68	7.15	-49.2	-52.8	11.9	3.50e-04	0	55	0	73400320	61	5343
2026-01-01 05:54:41.33	67.42	7.34	-49.1	-52.7	12.0	3.53e-04	0	55	0	79691776	61	5282
2026-01-01 05:54:44.24	67.15	7.53	-49.4	-52.8	11.8	5.43e-04	0	55	0	84934656	61	5398
2026-01-01 05:54:47.15	66.88	7.72	-49.3	-52.8	11.9	4.99e-04	0	55	0	90177536	61	5341
2026-01-01 05:54:50.05	66.61	7.91	-49.2	-52.4	12.3	1.75e-04	0	56	0	95420416	61	5130
2026-01-01 05:54:52.96	66.34	8.10	-49.4	-52.8	11.9	3.83e-04	0	55	0	100663296	61	5350
2026-01-01 05:54:55.86	66.06	8.30	-49.4	-52.7	12.0	3.02e-04	0	56	0	106954752	61	5336
2026-01-01 05:54:58.77	65.78	8.49	-49.6	-53.2	11.5	5.59e-04	0	56	0	112197632	61	5619
2026-01-01 05:55:01.68	65.49	8.69	-49.2	-52.3	12.4	1.81e-04	0	56	0	117440512	61	5079
2026-01-01 05:55:04.59	65.20	8.88	-49.0	-52.0	12.8	5.49e-05	0	56	0	122683392	60	5180
2026-01-01 05:55:07.49	64.91	9.08	-49.0	-52.1	12.7	8.92e-05	0	56	0	127926272	60	5231
2026-01-01 05:55:10.39	64.61	9.27	-48.8	-51.7	13.2	2.36e-05	0	56	0	134217728	60	4997
2026-01-01 05:55:13.30	64.31	9.47	-48.9	-51.8	13.1	3.58e-05	0	56	0	139460608	60	5062
2026-01-01 05:55:16.21	64.00	9.67	-48.9	-51.8	13.0	4.04e-05	0	57	0	144703488	60	5099
2026-01-01 05:55:19.12	63.69	9.87	-48.8	-51.6	13.3	1.22e-05	0	57	0	149946368	60	4939
2026-01-01 05:55:22.02	63.37	10.07	-48.9	-51.7	13.2	2.59e-05	0	57	0	155189248	60	5014
2026-01-01 05:55:24.93	63.05	10.27	-48.9	-51.7	13.1	1.98e-05	0	57	0	161480704	60	5032
2026-01-01 05:55:27.83	62.73	10.47	-49.1	-52.1	12.8	6.25e-05	0	57	0	166723584	60	5251
2026-01-01 05:55:30.74	62.40	10.68	-49.1	-52.1	12.8	5.34e-05	0	57	0	171966464	60	5252
2026-01-01 05:55:33.66	62.06	10.88	-49.2	-52.2	12.7	6.86e-05	0	57	0	177209344	60	5319
2026-01-01 05:55:36.57	61.72	11.09	-48.9	-51.7	13.3	1.22e-05	0	57	0	182452224	60	4989
2026-01-01 05:55:39.48	61.38	11.29	-48.8	-51.4	13.5	9.10e-06	0	57	0	188743680	60	4869
2026-01-01 05:55:42.39	61.03	11.50	-48.8	-51.5	13.4	1.52e-05	0	57	0	193986560	60	4925
2026-01-01 05:55:45.30	60.68	11.70	-48.7	-51.4	13.7	6.10e-06	0	57	0	199229440	60	4831
2026-01-01 05:55:48.21	60.32	11.91	-49.0	-51.8	13.2	2.05e-05	0	58	0	204472320	60	5061
2026-01-01 05:55:51.13	59.95	12.12	-48.6	-51.1	13.9	1.50e-06	0	58	0	209715200	60	4677
2026-01-01 05:55:54.04	59.58	12.33	-48.6	-51.2	13.8	1.50e-06	0	58	0	216006656	60	4727
2026-01-01 05:55:56.95	59.21	12.54	-48.4	-50.8	14.3	0.00e+00	0	58	0	221249536	59	4778
2026-01-01 05:55:59.86	58.83	12.75	-48.6	-51.0	14.0	3.00e-06	0	58	0	226492416	59	4906
2026-01-01 05:56:02.77	58.44	12.95	-48.7	-51.2	13.9	3.80e-06	0	58	0	231735296	59	5013
2026-01-01 05:56:05.69	58.05	13.17	-48.5	-50.9	14.2	7.00e-07	0	58	0	236978176	59	4847
2026-01-01 05:56:08.60	57.65	13.38	-48.4	-50.8	14.3	0.00e+00	0	58	0	243269632	59	4781
2026-01-01 05:56:11.52	57.24	13.59	-48.3	-50.6	14.4	0.00e+00	0	58	0	248512512	59	4702
2026-01-01 05:56:14.43	56.84	13.80	-48.2	-50.4	14.6	7.00e-07	0	58	0	253755392	59	4585
2026-01-01 05:56:17.33	56.42	14.01	-48.0	-50.1	15.0	0.00e+00	0	58	0	258998272	59	4438
2026-01-01 05:56:20.24	56.00	14.22	-48.0	-50.0	15.1	0.00e+00	0	58	0	264241152	59	4389
2026-01-01 05:56:23.14	55.57	14.44	-48.0	-50.1	15.0	0.00e+00	0	59	0	270532608	59	4433
2026-01-01 05:56:26.04	55.14	14.65	-48.2	-50.3	14.8	0.00e+00	0	58	0	275775488	59	4543
2026-01-01 05:56:28.95	54.70	14.86	-48.3	-50.6	14.6	0.00e+00	0	59	0	281018368	59	4671
2026-01-01 05:56:31.86	54.25	15.07	-48.4	-50.8	14.4	1.50e-06	0	59	0	286261248	59	4765
2026-01-01 05:56:34.76	53.80	15.29	-48.5	-50.9	14.3	7.00e-07	0	59	0	291504128	59	4830
2026-01-01 05:56:37.67	53.34	15.50	-48.7	-51.2	13.9	7.00e-07	0	59	0	297795584	59	5015
2026-01-01 05:56:40.57	52.88	15.71	-48.7	-51.3	13.9	2.20e-06	0	59	0	303038464	59	5057
2026-01-01 05:56:43.49	52.40	15.93	-48.8	-51.3	13.8	2.20e-06	0	59	0	308281344	59	5084
2026-01-01 05:56:46.39	51.92	16.14	-49.0	-51.6	13.6	9.90e-06	0	59	0	313524224	59	5247
2026-01-01 05:56:49.30	51.44	16.35	-48.5	-50.8	14.4	7.00e-07	0	59	0	318767104	59	4797
2026-01-01 05:56:52.20	50.94	16.56	-48.5	-50.9	14.3	7.00e-07	0	59	0	325058560	59	4860
2026-01-01 05:56:55.11	50.44	16.77	-48.6	-51.0	14.2	0.00e+00	0	59	0	330301440	59	4879
2026-01-01 05:56:58.01	49.94	16.98	-48.6	-50.9	14.2	3.80e-06	0	59	0	335544320	59	4868
2026-01-01 05:57:00.92	49.42	17.19	-48.6	-51.0	14.2	7.00e-07	0	59	0	340787200	59	4886
2026-01-01 05:57:03.82	48.90	17.40	-48.4	-50.7	14.5	0.00e+00	0	59	0	346030080	59	4739
2026-01-01 05:57:06.73	48.37	17.61	-48.5	-50.8	14.4	0.00e+00	0	59	0	352321536	59	4784
2026-01-01 05:57:09.63	47.83	17.82	-48.5	-50.8	14.3	7.00e-07	0	59	0	357564416	59	4801
2026-01-01 05:57:12.54	47.29	18.03	-48.4	-50.6	14.6	7.00e-07	0	59	0	362807296	59	4701
2026-01-01 05:57:15.45	46.73	18.24	-48.2	-50.4	14.9	0.00e+00	0	59	0	368050176	59	4557
2026-01-01 05:57:18.36	46.17	18.44	-48.2	-50.4	14.9	0.00e+00	0	59	0	373293056	59	4565
2026-01-01 05:57:21.26	45.61	18.65	-47.8	-49.8	15.4	0.00e+00	0	59	0	379584512	58	4523
2026-01-01 05:57:24.18	45.03	18.85	-47.5	-49.4	15.9	0.00e+00	0	59	0	384827392	58	4295
2026-01-01 05:57:27.09	44.44	19.05	-47.3	-49.0	16.3	0.00e+00	0	60	0	390070272	57	4351
2026-01-01 05:57:30.00	43.85	19.25	-46.9	-48.5	16.7	0.00e+00	0	60	0	395313152	56	4359
2026-01-01 05:57:32.92	43.25	19.45	-47.0	-48.6	16.6	0.00e+00	0	60	0	400556032	56	4419
2026-01-01 05:57:35.82	42.64	19.65	-46.9	-48.5	16.8	0.00e+00	0	59	0	406847488	56	4349
2026-01-01 05:57:38.73	42.03	19.84	-46.9	-48.6	16.7	0.00e+00	0	60	0	412090368	56	4400
2026-01-01 05:57:41.63	41.41	20.03	-46.7	-48.2	17.0	0.00e+00	0	60	0	417333248	56	4242
2026-01-01 05:57:44.54	40.77	20.22	-46.7	-48.3	17.0	0.00e+00	0	60	0	422576128	56	4260
2026-01-01 05:57:47.45	40.13	20.41	-46.8	-48.4	16.9	0.00e+00	0	60	0	427819008	56	4316
2026-01-01 05:57:50.36	39.49	20.60	-46.6	-48.2	17.0	0.00e+00	0	60	0	434110464	56	4227
2026-01-01 05:57:53.27	38.83	20.78	-46.5	-48.0	17.2	0.00e+00	0	60	0	439353344	56	4135
2026-01-01 05:57:56.17	38.17	20.96	-46.7	-48.3	17.0	0.00e+00	0	60	0	444596224	56	4247
2026-01-01 05:57:59.08	37.50	21.14	-47.1	-48.7	16.6	0.00e+00	0	60	0	449839104	56	4472
2026-01-01 05:58:01.99	36.82	21.31	-47.0	-48.6	16.7	0.00e+00	0	60	0	455081984	56	4398
2026-01-01 05:58:04.90	36.14	21.49	-47.0	-48.7	16.6	0.00e+00	0	60	0	461373440	56	4446
2026-01-01 05:58:07.80	35.44	21.65	-46.6	-48.1	17.1	0.00e+00	0	60	0	466616320	56	4193
2026-01-01 05:58:10.71	34.74	21.82	-46.8	-48.4	16.9	0.00e+00	0	60	0	471859200	56	4320
2026-01-01 05:58:13.62	34.03	21.98	-46.2	-47.6	17.6	0.00e+00	0	60	0	477102080	55	4175
2026-01-01 05:58:16.53	33.32	22.14	-46.2	-47.6	17.5	0.00e+00	0	60	0	482344960	55	4191
2026-01-01 05:58:19.44	32.59	22.29	-46.2	-47.6	17.6	0.00e+00	0	60	0	488636416	55	4178
2026-01-01 05:58:22.35	31.86	22.44	-46.5	-48.0	17.2	0.00e+00	0	60	0	493879296	55	4343
2026-01-01 05:58:25.25	31.13	22.59	-46.3	-47.7	17.4	0.00e+00	0	60	0	499122176	55	4232
2026-01-01 05:58:28.16	30.38	22.73	-46.1	-47.5	17.7	0.00e+00	0	60	0	504365056	55	4122
2026-01-01 05:58:31.06	29.63	22.86	-46.4	-47.8	17.4	0.00e+00	0	60	0	509607936	55	4285
2026-01-01 05:58:33.97	28.87	23.00	-46.0	-47.4	17.8	0.00e+00	0	60	0	515899392	55	4057
2026-01-01 05:58:36.88	28.11	23.12	-46.1	-47.5	17.7	0.00e+00	0	60	0	521142272	55	4123
2026-01-01 05:58:39.79	27.34	23.24	-46.4	-47.9	17.3	0.00e+00	0	60	0	526385152	55	4321
2026-01-01 05:58:42.70	26.56	23.36	-46.2	-47.6	17.6	0.00e+00	0	60	0	531628032	55	4172
2026-01-01 05:58:45.61	25.78	23.47	-46.4	-47.8	17.4	0.00e+00	0	60	0	536870912	55	4287
2026-01-01 05:58:48.52	24.99	23.58	-46.6	-48.1	17.1	0.00e+00	0	60	0	543162368	55	4440
2026-01-01 05:58:51.42	24.20	23.68	-47.4	-49.2	16.1	0.00e+00	0	61	0	548405248	56	4716
2026-01-01 05:58:54.33	23.40	23.78	-47.5	-49.3	16.0	0.00e+00	0	61	0	553648128	57	4522
2026-01-01 05:58:57.25	22.60	23.87	-47.6	-49.5	15.8	0.00e+00	0	61	0	558891008	57	4615
2026-01-01 05:59:00.16	21.79	23.95	-47.7	-49.6	15.7	0.00e+00	0	60	0	564133888	57	4691
2026-01-01 05:59:03.06	20.98	24.03	-47.6	-49.5	15.9	0.00e+00	0	61	0	570425344	57	4606
2026-01-01 05:59:05.97	20.17	24.10	-47.8	-49.8	15.5	0.00e+00	0	60	0	575668224	57	4784
2026-01-01 05:59:08.88	19.35	24.17	-48.0	-50.0	15.4	0.00e+00	0	61	0	580911104	57	4887
2026-01-01 05:59:11.78	18.53	24.22	-48.3	-50.5	14.9	0.00e+00	0	60	0	586153984	58	4884
2026-01-01 05:59:14.69	17.70	24.28	-48.2	-50.3	15.0	0.00e+00	0	61	0	591396864	58	4809
2026-01-01 05:59:17.61	16.87	24.32	-47.9	-49.8	15.5	0.00e+00	0	61	0	597688320	58	4522
2026-01-01 05:59:20.51	16.05	24.36	-47.8	-49.7	15.7	0.00e+00	0	60	0	602931200	58	4442
2026-01-01 05:59:23.42	15.21	24.40	-47.9	-49.9	15.4	0.00e+00	0	61	0	608174080	58	4573
2026-01-01 05:59:26.32	14.38	24.43	-48.1	-50.2	15.1	0.00e+00	0	61	0	613416960	58	4723
2026-01-01 05:59:29.23	13.55	24.45	-47.6	-49.6	15.6	0.00e+00	0	61	0	618659840	58	4414
2026-01-01 05:59:32.15	12.71	24.46	-47.4	-49.4	15.7	0.00e+00	0	61	0	624951296	58	4301
2026-01-01 05:59:35.06	11.87	24.47	-47.6	-49.7	15.2	0.00e+00	0	61	0	630194176	58	4473
2026-01-01 05:59:37.98	11.03	24.47	-48.0	-50.5	14.0	0.00e+00	0	61	0	635437056	58	4888
2026-01-01 05:59:40.88	10.20	24.46	-49.0	-52.9	10.9	4.05e-04	0	61	0	640679936	59	6084
2026-01-01 05:59:43.79	9.36	24.45	-49.5	-54.8	8.7	1.81e-02	0	61	0	645922816	60	7151
2026-01-01 05:59:46.70	8.53	24.43	-49.1	-53.5	10.3	8.16e-03	0	61	0	652214272	61	5828
2026-01-01 05:59:49.61	7.69	24.41	-49.3	-53.2	10.9	2.33e-03	0	61	0	657457152	61	5615
2026-01-01 05:59:52.51	6.87	24.37	-48.5	-51.3	13.3	5.11e-05	0	61	0	662700032	60	4795
2026-01-01 05:59:55.42	6.03	24.33	-48.2	-50.5	14.5	2.20e-06	0	61	0	667942912	59	4641
2026-01-01 05:59:58.33	5.21	24.29	-48.0	-50.1	15.0	0.00e+00	0	61	0	673185792	58	4693
2026-01-01 06:00:01.24	4.38	24.24	-49.2	-52.6	11.8	1.41e-04	0	61	0	679477248	60	5589
2026-01-01 06:00:04.15	3.56	24.18	-49.1	-53.4	10.2	1.15e-02	0	61	0	684720128	61	5767
2026-01-01 06:00:07.05	2.74	24.11	-47.1	-49.0	15.6	0.00e+00	0	61	0	689963008	57	4349
2026-01-01 06:00:09.96	1.93	24.04	-46.3	-47.7	17.4	0.00e+00	0	61	0	695205888	55	4224
2026-01-01 06:00:12.87	1.11	23.97	-46.4	-47.9	17.2	0.00e+00	0	61	0	700448768	55	4329
2026-01-01 06:00:15.78	0.31	23.89	-46.1	-47.5	17.6	0.00e+00	0	61	0	706740224	55	4128
2026-01-01 06:00:18.69	359.50	23.80	-46.3	-47.7	17.4	0.00e+00	0	61	0	711983104	55	4234
2026-01-01 06:00:21.59	358.71	23.70	-46.5	-48.0	17.2	0.00e+00	0	61	0	717225984	55	4346
2026-01-01 06:00:24.49	357.92	23.60	-46.7	-48.2	17.0	0.00e+00	0	61	0	722468864	55	4472
2026-01-01 06:00:27.40	357.13	23.50	-47.2	-48.9	16.4	0.00e+00	0	61	0	727711744	56	4553
2026-01-01 06:00:30.31	356.34	23.39	-47.2	-49.0	16.3	0.00e+00	0	61	0	734003200	56	4599
2026-01-01 06:00:33.23	355.56	23.27	-47.1	-48.8	16.5	0.00e+00	0	61	0	739246080	56	4529
2026-01-01 06:00:36.13	354.80	23.15	-47.4	-49.2	16.0	0.00e+00	0	61	0	744488960	56	4721
2026-01-01 06:00:39.04	354.03	23.03	-47.5	-49.3	16.0	0.00e+00	0	61	0	749731840	57	4530
2026-01-01 06:00:41.95	353.27	22.89	-47.7	-49.7	15.6	0.00e+00	0	61	0	754974720	57	4737
2026-01-01 06:00:44.86	352.52	22.76	-47.5	-49.4	15.8	0.00e+00	0	61	0	761266176	57	4579
2026-01-01 06:00:47.76	351.78	22.62	-47.6	-49.5	15.7	0.00e+00	0	61	0	766509056	57	4608
2026-01-01 06:00:50.66	351.04	22.48	-47.8	-49.8	15.4	0.00e+00	0	61	0	771751936	57	4788
2026-01-01 06:00:53.57	350.31	22.33	-47.9	-49.9	15.3	0.00e+00	0	61	0	776994816	57	4840
2026-01-01 06:00:56.48	349.58	22.17	-48.1	-50.2	15.1	0.00e+00	0	61	0	782237696	58	4740
2026-01-01 06:00:59.38	348.87	22.02	-47.7	-49.6	15.6	0.00e+00	0	61	0	788529152	58	4405
2026-01-01 06:01:02.30	348.15	21.86	-48.1	-50.2	15.0	0.00e+00	0	61	0	793772032	58	4748
2026-01-01 06:01:05.21	347.45	21.69	-47.7	-49.6	15.6	0.00e+00	0	61	0	799014912	58	4438
2026-01-01 06:01:08.11	346.76	21.53	-47.5	-49.4	15.7	0.00e+00	0	61	0	804257792	58	4295
2026-01-01 06:01:11.01	346.07	21.36	-47.7	-49.7	15.5	0.00e+00	0	62	0	809500672	58	4455
2026-01-01 06:01:13.92	345.39	21.18	-47.6	-49.5	15.7	0.00e+00	0	61	0	815792128	58	4348
2026-01-01 06:01:16.83	344.72	21.00	-47.3	-49.1	16.0	0.00e+00	0	61	0	821035008	57	4431
2026-01-01 06:01:19.74	344.06	20.83	-47.3	-49.1	16.0	0.00e+00	0	61	0	826277888	57	4440
2026-01-01 06:01:22.65	343.40	20.64	-47.3	-49.1	16.0	0.00e+00	0	61	0	831520768	57	4392
2026-01-01 06:01:25.55	342.75	20.46	-47.2	-49.0	16.1	0.00e+00	0	61	0	836763648	57	4382
2026-01-01 06:01:28.46	342.11	20.27	-47.7	-49.8	15.3	0.00e+00	0	61	0	843055104	57	4769
2026-01-01 06:01:31.37	341.48	20.08	-48.2	-50.5	14.3	7.00e-07	0	62	0	848297984	58	4912
2026-01-01 06:01:34.27	340.86	19.89	-48.8	-51.7	12.8	3.66e-05	0	61	0	853540864	59	5309
2026-01-01 06:01:37.18	340.24	19.69	-48.8	-51.8	12.7	8.01e-05	0	62	0	858783744	59	5346
2026-01-01 06:01:40.08	339.64	19.50	-48.9	-51.9	12.5	5.11e-05	0	62	0	864026624	59	5462
2026-01-01 06:01:42.98	339.04	19.30	-49.1	-52.3	12.2	2.31e-04	0	61	0	870318080	59	5693
2026-01-01 06:01:45.89	338.44	19.10	-48.0	-50.4	14.2	2.20e-06	0	61	0	875560960	59	4586
2026-01-01 06:01:48.80	337.86	18.90	-47.7	-49.9	14.9	7.00e-07	0	62	0	880803840	58	4550
2026-01-01 06:01:51.71	337.28	18.70	-47.5	-49.6	15.2	0.00e+00	0	61	0	886046720	58	4406
2026-01-01 06:01:54.61	336.71	18.50	-48.5	-51.0	13.9	3.00e-06	0	62	0	891289600	58	5185
2026-01-01 06:01:57.52	336.15	18.29	-48.1	-50.2	14.8	1.50e-06	0	62	0	897581056	58	4736
2026-01-01 06:02:00.42	335.60	18.08	-47.9	-49.9	15.3	0.00e+00	0	62	0	902823936	58	4576
2026-01-01 06:02:03.33	335.05	17.88	-47.9	-50.0	15.3	0.00e+00	0	61	0	908066816	58	4601
2026-01-01 06:02:06.24	334.51	17.67	-47.1	-48.9	16.3	0.00e+00	0	61	0	913309696	57	4313
2026-01-01 06:02:09.14	333.98	17.46	-46.8	-48.4	16.8	0.00e+00	0	61	0	918552576	56	4331
2026-01-01 06:02:12.04	333.46	17.25	-47.1	-48.8	16.4	0.00e+00	0	62	0	924844032	56	4505
2026-01-01 06:02:14.95	332.94	17.04	-46.8	-48.4	16.9	0.00e+00	0	62	0	930086912	56	4307
2026-01-01 06:02:17.86	332.43	16.83	-46.8	-48.3	16.9	0.00e+00	0	61	0	935329792	56	4272
2026-01-01 06:02:20.77	331.93	16.62	-46.6	-48.2	17.0	0.00e+00	0	62	0	940572672	56	4199
2026-01-01 06:02:23.67	331.44	16.41	-46.8	-48.3	16.9	0.00e+00	0	62	0	945815552	56	4273
2026-01-01 06:02:26.59	330.95	16.19	-46.8	-48.4	16.8	0.00e+00	0	62	0	952107008	56	4330
2026-01-01 06:02:29.50	330.47	15.98	-46.8	-48.4	16.8	0.00e+00	0	62	0	957349888	56	4327
2026-01-01 06:02:32.40	329.99	15.77	-46.7	-48.3	16.9	0.00e+00	0	62	0	962592768	56	4259
2026-01-01 06:02:35.30	329.53	15.56	-46.6	-48.1	17.1	0.00e+00	0	62	0	967835648	56	4154
2026-01-01 06:02:38.22	329.06	15.34	-46.6	-48.1	17.1	0.00e+00	0	62	0	973078528	56	4193
2026-01-01 06:02:41.12	328.61	15.13	-46.7	-48.2	17.0	0.00e+00	0	62	0	979369984	56	4223
2026-01-01 06:02:44.03	328.16	14.92	-46.9	-48.5	16.7	0.00e+00	0	62	0	984612864	56	4373
2026-01-01 06:02:46.93	327.72	14.71	-47.0	-48.7	16.5	0.00e+00	0	62	0	989855744	56	4459
2026-01-01 06:02:49.84	327.29	14.50	-47.3	-49.1	16.1	0.00e+00	0	62	0	995098624	56	4663
2026-01-01 06:02:52.74	326.86	14.28	-47.3	-49.2	16.0	0.00e+00	0	62	0	1000341504	56	4739
2026-01-01 06:02:55.65	326.44	14.07	-47.6	-49.4	15.7	0.00e+00	0	62	0	1006632960	57	4593
2026-01-01 06:02:58.55	326.03	13.86	-47.6	-49.6	15.6	0.00e+00	0	62	0	1011875840	57	4656
2026-01-01 06:03:01.46	325.62	13.65	-47.5	-49.3	15.8	0.00e+00	0	62	0	1017118720	57	4540
2026-01-01 06:03:04.37	325.21	13.44	-47.5	-49.3	15.8	0.00e+00	0	62	0	1022361600	57	4538
2026-01-01 06:03:07.28	324.81	13.23	-47.5	-49.4	15.7	0.00e+00	0	62	0	1027604480	57	4590
2026-01-01 06:03:10.19	324.42	13.02	-47.9	-49.9	15.2	0.00e+00	0	62	0	1032847360	57	4855
2026-01-01 06:03:13.10	324.03	12.81	-47.8	-49.8	15.4	0.00e+00	0	62	0	1039138816	57	4765
2026-01-01 06:03:16.00	323.65	12.60	-47.9	-49.9	15.2	0.00e+00	0	62	0	1044381696	57	4865
2026-01-01 06:03:18.91	323.28	12.39	-47.8	-49.8	15.3	0.00e+00	0	62	0	1049624576	57	4769
2026-01-01 06:03:21.81	322.91	12.18	-47.8	-49.8	15.3	0.00e+00	0	62	0	1054867456	57	4784
2026-01-01 06:03:24.71	322.54	11.98	-47.8	-49.8	15.3	0.00e+00	0	62	0	1060110336	57	4763
2026-01-01 06:03:27.62	322.18	11.77	-48.0	-50.1	15.0	0.00e+00	0	62	0	1066401792	57	4965
2026-01-01 06:03:30.53	321.83	11.56	-48.2	-50.4	14.6	0.00e+00	0	62	0	1071644672	58	4869
2026-01-01 06:03:33.44	321.48	11.36	-48.2	-50.5	14.6	0.00e+00	0	62	0	1076887552	58	4892
2026-01-01 06:03:36.34	321.14	11.15	-48.2	-50.5	14.5	0.00e+00	0	62	0	1082130432	58	4901
2026-01-01 06:03:39.25	320.80	10.95	-48.3	-50.6	14.5	7.00e-07	0	62	0	1088421888	58	4944
2026-01-01 06:03:42.16	320.46	10.74	-48.3	-50.6	14.5	0.00e+00	0	62	0	1093664768	58	4954
2026-01-01 06:03:45.06	320.13	10.54	-48.2	-50.5	14.5	0.00e+00	0	62	0	1098907648	58	4895
2026-01-01 06:03:47.97	319.81	10.34	-48.4	-50.7	14.3	7.00e-07	0	62	0	1104150528	58	5040
2026-01-01 06:03:50.88	319.49	10.14	-48.6	-51.1	13.8	3.00e-06	0	62	0	1109393408	59	4981
2026-01-01 06:03:53.81	319.17	9.94	-48.6	-51.1	13.9	3.00e-06	0	62	0	1115684864	59	4955
2026-01-01 06:03:56.72	318.85	9.74	-48.7	-51.2	13.7	7.60e-06	0	62	0	1120927744	59	5040
2026-01-01 06:03:59.62	318.55	9.54	-48.7	-51.4	13.6	1.06e-05	0	62	0	1126170624	59	5103
2026-01-01 06:04:02.53	318.24	9.34	-48.8	-51.6	13.4	8.30e-06	0	62	0	1131413504	59	5233
2026-01-01 06:04:05.44	317.95	9.14	-49.0	-51.9	13.0	3.96e-05	0	62	0	1136656384	59	5435
2026-01-01 06:04:08.38	317.65	8.94	-49.2	-52.3	12.6	1.06e-04	0	62	0	1142947840	60	5367
2026-01-01 06:04:11.32	317.35	8.75	-49.2	-52.3	12.6	1.06e-04	0	62	0	1148190720	60	5351
2026-01-01 06:04:14.22	317.07	8.55	-49.1	-52.4	12.5	1.38e-04	0	62	0	1153433600	60	5423
2026-01-01 06:04:17.13	316.78	8.36	-49.1	-52.1	12.7	6.48e-05	0	62	0	1158676480	60	5274
2026-01-01 06:04:20.04	316.51	8.16	-49.3	-52.4	12.4	1.40e-04	0	62	0	1163919360	60	5450
2026-01-01 06:04:22.95	316.23	7.97	-49.1	-52.3	12.5	7.93e-05	0	62	0	1170210816	60	5367
2026-01-01 06:04:25.86	315.96	7.78	-49.1	-52.4	12.4	1.33e-04	0	62	0	1175453696	60	5424
2026-01-01 06:04:28.76	315.69	7.59	-49.1	-52.3	12.5	9.76e-05	0	62	0	1180696576	60	5359
2026-01-01 06:04:31.68	315.43	7.40	-49.2	-52.5	12.3	1.70e-04	0	62	0	1185939456	60	5471
2026-01-01 06:04:34.58	315.17	7.21	-49.6	-53.2	11.5	7.21e-04	0	62	0	1191182336	60	5974
2026-01-01 06:04:37.49	314.91	7.02	-49.6	-53.4	11.3	1.38e-03	0	62	0	1197473792	61	5754
2026-01-01 06:04:40.39	314.66	6.83	-49.8	-53.8	10.9	2.21e-03	0	62	0	1202716672	61	6025
2026-01-01 06:04:43.29	314.41	6.65	-49.9	-53.9	10.8	3.44e-03	0	62	0	1207959552	62	5740
2026-01-01 06:04:46.20	314.16	6.46	-49.7	-53.4	11.2	1.21e-03	0	62	0	1213202432	62	5456
2026-01-01 06:04:49.11	313.92	6.28	-49.6	-53.4	11.2	1.15e-03	0	62	0	1218445312	62	5436
2026-01-01 06:04:52.01	313.68	6.09	-49.6	-53.4	11.2	1.18e-03	0	62	0	1224736768	62	5448
2026-01-01 06:04:54.92	313.44	5.91	-49.5	-53.3	11.3	1.15e-03	0	62	0	1229979648	62	5355
2026-01-01 06:04:57.83	313.20	5.73	-49.4	-53.0	11.5	9.00e-04	0	62	0	1235222528	61	5488
2026-01-01 06:05:00.73	312.97	5.55	-49.4	-53.0	11.5	7.70e-04	0	62	0	1240465408	61	5466
2026-01-01 06:05:03.64	312.75	5.36	-49.3	-52.8	11.7	6.68e-04	0	62	0	1245708288	61	5385
2026-01-01 06:05:06.56	312.52	5.18	-49.3	-52.9	11.5	1.17e-03	0	62	0	1251999744	61	5454
2026-01-01 06:05:09.48	312.30	5.00	-51.8	-65.5	3.8	1.31e+00	0	62	104	1256194048	65	18374
2026-01-01 06:05:12.43	312.07	4.82	-48.4	-62.1	3.8	1.49e+00	0	62	104	1256194048	59	17611
2026-01-01 06:05:15.37	311.85	4.64	-52.4	-66.2	3.8	1.49e+00	0	62	104	1256194048	66	18883
2026-01-01 06:05:18.31	311.64	4.46	-52.6	-66.4	3.8	1.49e+00	0	62	104	1256194048	67	18237
2026-01-01 06:05:21.26	311.42	4.28	-52.7	-66.6	3.8	1.49e+00	0	62	104	1256194048	67	18520
2026-01-01 06:05:24.21	311.21	4.11	-52.8	-66.6	3.8	1.49e+00	0	62	104	1256194048	67	18601
2026-01-01 06:05:27.15	311.00	3.93	-52.8	-66.6	3.8	1.49e+00	0	62	104	1256194048	67	18640
2026-01-01 06:05:30.09	310.80	3.75	-52.8	-66.6	3.8	1.49e+00	0	62	104	1256194048	67	18716
2026-01-01 06:05:33.04	310.59	3.58	-52.9	-66.6	3.8	1.49e+00	0	62	104	1256194048	67	18729
2026-01-01 06:05:35.97	310.39	3.40	-52.8	-66.7	3.8	1.49e+00	0	62	104	1256194048	67	18737
2026-01-01 06:05:38.92	310.20	3.23	-52.8	-66.6	3.8	1.49e+00	0	62	104	1256194048	67	18701
2026-01-01 06:05:41.86	310.00	3.06	-52.8	-66.6	3.8	1.49e+00	0	62	104	1256194048	67	18641
2026-01-01 06:05:44.81	309.81	2.89	-52.8	-66.6	3.8	1.49e+00	0	62	104	1256194048	67	18666

#Closed at: 2026-01-01 06:05:45
#Recorded file [1256 MB]: D:/Data/31026_260101_090509.dat