passes_logs/2026/01/01/R3.0SM8_Murmansk_STILSPACE/R3.0SM8_Murmansk_STILSPACE__20260101_021404_SUOMI_NPP_rec.log

#Pass ID: 20260101_021404_SUOMI NPP
#Satellite: SUOMI NPP
#Configuration: NPP
#almurnet v.1.7.20240730
#Start time: 2026-01-01 02:14:04

#Version: 2.2.20231116
#Station: R3.0SM8_Murmansk_STILSPACE
#Location: 33.092731 lon 68.902999 lat
#TLE: 1 37849U 11061A   25364.87906317  .00000195  00000+0  11345-3 0  9992
#TLE: 2 37849  98.7794 302.0592 0002571  89.2401 270.9069 14.19520347734561

#Time	Az	El	Level	Level2	SNR	BER	BlckErr	Temp	State	Recorded	gain1	gain2
2026-01-01 02:14:04.48	31.24	3.02	-52.6	-66.4	3.8	1.49e+00	0	50	0	0	67	18297
2026-01-01 02:14:08.41	31.11	3.28	-52.5	-66.3	3.8	1.49e+00	0	50	104	0	68	17002
2026-01-01 02:14:12.34	30.97	3.53	-51.7	-65.4	3.8	1.49e+00	0	50	104	0	66	17084
2026-01-01 02:14:16.28	30.83	3.79	-51.7	-64.6	3.8	1.49e+00	0	51	104	0	66	15732
2026-01-01 02:14:20.21	30.69	4.05	-51.6	-63.3	3.8	1.48e+00	0	51	104	0	66	13420
2026-01-01 02:14:24.13	30.55	4.31	-51.4	-61.1	4.5	1.22e+00	0	51	0	1048576	65	11032
2026-01-01 02:14:28.02	30.40	4.57	-50.8	-57.6	6.8	2.47e-01	0	51	0	8388608	64	7809
2026-01-01 02:14:31.91	30.25	4.84	-50.1	-54.8	9.5	2.55e-02	0	52	0	15728640	63	6053
2026-01-01 02:14:35.80	30.10	5.11	-49.5	-53.4	10.9	2.25e-03	0	52	0	23068672	62	5446
2026-01-01 02:14:39.69	29.94	5.38	-49.7	-53.8	10.6	4.16e-03	0	52	0	30408704	62	5721
2026-01-01 02:14:43.58	29.78	5.65	-49.5	-53.3	11.2	1.61e-03	0	52	0	37748736	62	5361
2026-01-01 02:14:47.48	29.62	5.92	-48.8	-52.0	12.5	2.35e-04	0	53	0	45088768	60	5198
2026-01-01 02:14:51.36	29.45	6.20	-48.4	-51.1	13.5	2.21e-05	0	53	0	52428800	59	4927
2026-01-01 02:14:55.27	29.28	6.48	-48.3	-50.9	13.7	6.80e-06	0	53	0	59768832	59	4869
2026-01-01 02:14:59.16	29.11	6.76	-48.1	-50.6	14.0	3.00e-06	0	53	0	67108864	59	4698
2026-01-01 02:15:03.06	28.93	7.05	-48.3	-50.9	13.8	8.30e-06	0	54	0	74448896	59	4844
2026-01-01 02:15:06.95	28.75	7.34	-48.2	-51.0	13.7	9.90e-06	0	54	0	81788928	59	4895
2026-01-01 02:15:10.86	28.57	7.63	-48.1	-50.6	14.2	3.00e-06	0	54	0	89128960	59	4661
2026-01-01 02:15:14.76	28.38	7.93	-48.3	-50.9	13.8	3.80e-06	0	54	0	96468992	59	4864
2026-01-01 02:15:18.66	28.19	8.23	-48.5	-51.1	13.7	8.30e-06	0	54	0	103809024	59	4945
2026-01-01 02:15:22.56	27.99	8.53	-48.5	-51.1	13.7	5.30e-06	0	55	0	111149056	59	4983
2026-01-01 02:15:26.46	27.79	8.84	-48.2	-50.8	14.1	4.50e-06	0	55	0	118489088	59	4762
2026-01-01 02:15:30.35	27.58	9.14	-48.2	-50.6	14.2	7.00e-07	0	55	0	125829120	59	4689
2026-01-01 02:15:34.24	27.37	9.46	-48.0	-50.3	14.6	0.00e+00	0	55	0	133169152	58	4769
2026-01-01 02:15:38.13	27.15	9.77	-47.9	-50.1	14.7	0.00e+00	0	55	0	140509184	58	4685
2026-01-01 02:15:42.03	26.93	10.09	-47.7	-49.9	14.9	0.00e+00	0	55	0	147849216	58	4595
2026-01-01 02:15:45.92	26.71	10.41	-48.0	-50.2	14.6	7.00e-07	0	56	0	155189248	58	4757
2026-01-01 02:15:49.82	26.47	10.74	-47.8	-50.0	14.9	0.00e+00	0	56	0	162529280	58	4637
2026-01-01 02:15:53.72	26.24	11.07	-47.7	-49.7	15.2	0.00e+00	0	56	0	169869312	58	4491
2026-01-01 02:15:57.62	25.99	11.40	-47.6	-49.7	15.2	0.00e+00	0	56	0	176160768	57	4724
2026-01-01 02:16:01.52	25.74	11.74	-47.7	-49.8	15.0	0.00e+00	0	56	0	183500800	57	4812
2026-01-01 02:16:05.43	25.49	12.09	-47.7	-49.8	15.1	0.00e+00	0	56	0	191889408	57	4805
2026-01-01 02:16:09.34	25.22	12.44	-48.3	-50.7	14.3	0.00e+00	0	57	0	199229440	58	4999
2026-01-01 02:16:13.22	24.96	12.78	-48.2	-50.6	14.5	0.00e+00	0	56	0	205520896	58	4930
2026-01-01 02:16:17.11	24.68	13.14	-48.0	-50.3	14.7	0.00e+00	0	57	0	212860928	58	4789
2026-01-01 02:16:21.00	24.40	13.50	-48.3	-50.7	14.4	7.00e-07	0	57	0	220200960	58	4988
2026-01-01 02:16:24.90	24.11	13.87	-47.7	-49.9	15.2	0.00e+00	0	57	0	227540992	58	4564
2026-01-01 02:16:28.79	23.81	14.23	-48.0	-50.2	14.9	0.00e+00	0	57	0	234881024	58	4757
2026-01-01 02:16:32.69	23.51	14.61	-47.3	-49.4	15.7	0.00e+00	0	57	0	242221056	57	4549
2026-01-01 02:16:36.58	23.19	14.99	-47.3	-49.3	15.8	0.00e+00	0	57	0	249561088	57	4498
2026-01-01 02:16:40.48	22.87	15.37	-47.5	-49.5	15.6	0.00e+00	0	57	0	256901120	57	4628
2026-01-01 02:16:44.37	22.54	15.76	-47.8	-49.9	15.3	0.00e+00	0	58	0	264241152	57	4820
2026-01-01 02:16:48.27	22.20	16.16	-47.6	-49.6	15.4	0.00e+00	0	58	0	271581184	57	4698
2026-01-01 02:16:52.17	21.85	16.56	-47.5	-49.5	15.6	0.00e+00	0	58	0	278921216	57	4628
2026-01-01 02:16:56.06	21.49	16.96	-47.7	-49.8	15.3	0.00e+00	0	58	0	286261248	57	4785
2026-01-01 02:16:59.95	21.12	17.37	-47.8	-49.9	15.2	0.00e+00	0	58	0	293601280	57	4854
2026-01-01 02:17:03.85	20.74	17.79	-47.7	-49.7	15.4	0.00e+00	0	58	0	300941312	57	4735
2026-01-01 02:17:07.75	20.35	18.22	-47.8	-49.9	15.2	7.00e-07	0	58	0	308281344	57	4821
2026-01-01 02:17:11.63	19.95	18.64	-47.8	-49.9	15.3	0.00e+00	0	58	0	315621376	58	4583
2026-01-01 02:17:15.53	19.53	19.08	-47.8	-49.8	15.4	0.00e+00	0	58	0	322961408	58	4535
2026-01-01 02:17:19.42	19.11	19.52	-48.0	-50.1	15.1	0.00e+00	0	58	0	330301440	58	4659
2026-01-01 02:17:23.32	18.67	19.97	-48.2	-50.4	14.8	0.00e+00	0	58	0	337641472	58	4821
2026-01-01 02:17:27.20	18.21	20.42	-48.0	-50.1	15.1	0.00e+00	0	58	0	344981504	58	4676
2026-01-01 02:17:31.11	17.74	20.88	-48.1	-50.2	15.0	7.00e-07	0	58	0	352321536	58	4759
2026-01-01 02:17:35.01	17.26	21.35	-48.0	-50.1	15.1	0.00e+00	0	59	0	359661568	58	4683
2026-01-01 02:17:38.91	16.76	21.82	-47.9	-49.9	15.3	0.00e+00	0	59	0	367001600	58	4594
2026-01-01 02:17:42.81	16.25	22.30	-48.3	-50.6	14.7	0.00e+00	0	59	0	374341632	58	4963
2026-01-01 02:17:46.71	15.72	22.78	-48.4	-50.7	14.5	7.00e-07	0	59	0	381681664	59	4712
2026-01-01 02:17:50.61	15.17	23.28	-48.5	-50.9	14.4	7.00e-07	0	59	0	389021696	59	4831
2026-01-01 02:17:54.51	14.60	23.78	-48.9	-51.6	13.6	1.50e-06	0	59	0	396361728	59	5277
2026-01-01 02:17:58.40	14.02	24.28	-49.1	-52.1	13.1	8.23e-05	0	59	0	403701760	60	5254
2026-01-01 02:18:02.30	13.41	24.79	-48.4	-50.8	14.2	0.00e+00	0	59	0	409993216	59	4812
2026-01-01 02:18:06.20	12.78	25.31	-47.8	-50.2	14.6	0.00e+00	0	59	0	417333248	57	4995
2026-01-01 02:18:10.09	12.14	25.83	-49.0	-52.6	11.6	3.70e-04	0	59	0	424673280	59	5879
2026-01-01 02:18:13.99	11.47	26.36	-49.9	-55.3	8.4	4.38e-02	0	59	0	432013312	61	7203
2026-01-01 02:18:17.88	10.78	26.90	-49.0	-52.8	11.2	2.68e-03	0	59	0	439353344	61	5345
2026-01-01 02:18:21.79	10.06	27.44	-48.3	-51.0	13.6	1.37e-05	0	59	0	446693376	59	4919
2026-01-01 02:18:25.69	9.32	27.99	-48.7	-51.3	13.7	3.80e-06	0	60	0	454033408	59	5068
2026-01-01 02:18:29.58	8.55	28.55	-48.6	-51.3	13.8	3.05e-05	0	59	0	461373440	60	4786
2026-01-01 02:18:33.48	7.75	29.10	-48.6	-51.2	14.0	3.00e-06	0	60	0	468713472	59	5037
2026-01-01 02:18:37.38	6.93	29.67	-48.6	-51.2	14.1	3.00e-06	0	60	0	476053504	60	4709
2026-01-01 02:18:41.29	6.07	30.24	-48.9	-51.7	13.7	3.80e-06	0	60	0	483393536	60	4998
2026-01-01 02:18:45.17	5.19	30.81	-49.7	-53.2	12.0	5.03e-05	0	60	0	490733568	61	5624
2026-01-01 02:18:49.08	4.27	31.38	-49.4	-52.5	12.9	3.50e-05	0	60	0	498073600	61	5160
2026-01-01 02:18:52.96	3.32	31.96	-49.9	-53.5	11.9	1.40e-04	0	60	0	505413632	61	5803
2026-01-01 02:18:56.85	2.33	32.54	-49.4	-52.6	12.7	3.81e-05	0	60	0	512753664	61	5257
2026-01-01 02:19:00.74	1.31	33.11	-49.9	-53.4	11.8	2.35e-04	0	60	0	520093696	61	5749
2026-01-01 02:19:04.65	0.25	33.70	-50.3	-54.4	11.0	2.05e-03	0	60	0	527433728	62	6080
2026-01-01 02:19:08.54	359.15	34.28	-49.6	-52.8	12.6	1.52e-04	0	60	0	534773760	62	5045
2026-01-01 02:19:12.43	358.01	34.85	-49.1	-51.7	13.6	1.67e-05	0	60	0	542113792	61	4741
2026-01-01 02:19:16.32	356.83	35.43	-48.6	-50.9	14.4	2.20e-06	0	60	0	549453824	59	4869
2026-01-01 02:19:20.21	355.61	36.00	-49.5	-52.7	12.6	2.33e-04	0	60	0	556793856	61	5316
2026-01-01 02:19:24.11	354.34	36.56	-49.1	-52.2	13.1	2.97e-05	0	60	0	564133888	60	5283
2026-01-01 02:19:28.00	353.03	37.12	-49.0	-51.7	13.6	1.14e-05	0	60	0	571473920	60	5027
2026-01-01 02:19:31.90	351.67	37.67	-49.9	-53.5	11.8	4.13e-04	0	60	0	578813952	61	5797
2026-01-01 02:19:35.79	350.27	38.21	-50.0	-54.0	11.3	2.45e-03	0	60	0	586153984	62	5803
2026-01-01 02:19:39.69	348.81	38.74	-48.7	-51.3	14.1	4.50e-06	0	60	0	593494016	60	4776
2026-01-01 02:19:43.58	347.32	39.25	-48.6	-51.2	14.1	3.00e-06	0	60	0	600834048	60	4715
2026-01-01 02:19:47.47	345.77	39.75	-48.1	-50.2	15.1	7.00e-07	0	60	0	608174080	59	4473
2026-01-01 02:19:51.36	344.18	40.23	-49.1	-52.2	13.2	1.60e-05	0	61	0	614465536	60	5295
2026-01-01 02:19:55.27	342.53	40.69	-47.6	-49.5	15.8	0.00e+00	0	60	0	621805568	58	4367
2026-01-01 02:19:59.16	340.84	41.13	-47.8	-49.9	15.4	0.00e+00	0	61	0	629145600	58	4569
2026-01-01 02:20:03.06	339.11	41.55	-48.2	-50.6	14.8	0.00e+00	0	60	0	636485632	58	4959
2026-01-01 02:20:06.96	337.32	41.94	-47.8	-50.0	15.3	7.00e-07	0	60	0	643825664	58	4625
2026-01-01 02:20:10.85	335.51	42.30	-47.3	-49.2	16.2	0.00e+00	0	61	0	651165696	57	4451
2026-01-01 02:20:14.73	333.65	42.63	-46.6	-48.2	17.0	0.00e+00	0	61	0	658505728	55	4467
2026-01-01 02:20:18.62	331.76	42.92	-49.0	-51.9	13.6	6.80e-06	0	61	0	665845760	59	5407
2026-01-01 02:20:22.53	329.82	43.19	-48.5	-50.9	14.5	0.00e+00	0	61	0	673185792	59	4847
2026-01-01 02:20:26.42	327.86	43.42	-48.2	-50.4	15.0	0.00e+00	0	61	0	680525824	59	4551
2026-01-01 02:20:30.31	325.87	43.61	-48.8	-51.5	13.9	5.30e-06	0	61	0	687865856	59	5186
2026-01-01 02:20:34.19	323.87	43.76	-48.5	-50.9	14.5	7.00e-07	0	61	0	695205888	60	4590
2026-01-01 02:20:38.08	321.85	43.88	-50.1	-53.8	11.5	9.07e-04	0	61	0	702545920	62	5703
2026-01-01 02:20:41.98	319.80	43.95	-49.9	-53.6	11.6	6.18e-04	0	61	0	709885952	62	5547
2026-01-01 02:20:45.88	317.76	43.98	-49.9	-53.5	11.9	6.69e-04	0	61	0	717225984	62	5492
2026-01-01 02:20:49.76	315.72	43.98	-49.5	-52.8	12.5	8.08e-05	0	61	0	724566016	61	5377
2026-01-01 02:20:53.66	313.67	43.93	-49.0	-51.8	13.7	2.20e-06	0	61	0	731906048	59	5396
2026-01-01 02:20:57.56	311.63	43.84	-49.0	-52.0	13.3	1.14e-05	0	61	0	739246080	60	5179
2026-01-01 02:21:01.46	309.61	43.71	-49.8	-53.7	11.6	4.59e-04	0	61	0	746586112	62	5603
2026-01-01 02:21:05.36	307.60	43.54	-49.5	-53.0	12.3	1.40e-04	0	61	0	753926144	61	5525
2026-01-01 02:21:09.26	305.62	43.33	-50.4	-55.0	10.2	6.96e-03	0	61	0	761266176	62	6537
2026-01-01 02:21:13.15	303.67	43.09	-50.1	-54.2	11.1	1.22e-03	0	61	0	768606208	63	5618
2026-01-01 02:21:17.05	301.75	42.81	-49.7	-53.5	11.7	1.93e-03	0	61	0	775946240	62	5475
2026-01-01 02:21:20.94	299.86	42.50	-48.4	-50.8	14.6	0.00e+00	0	61	0	783286272	59	4789
2026-01-01 02:21:24.84	298.01	42.16	-48.1	-50.3	15.2	0.00e+00	0	61	0	790626304	59	4512
2026-01-01 02:21:28.74	296.20	41.79	-47.8	-49.9	15.4	0.00e+00	0	61	0	797966336	57	4860
2026-01-01 02:21:32.65	294.43	41.38	-47.0	-48.8	16.5	0.00e+00	0	61	0	805306368	57	4247
2026-01-01 02:21:36.55	292.71	40.96	-48.0	-50.2	15.1	7.00e-07	0	61	0	812646400	58	4743
2026-01-01 02:21:40.44	291.04	40.51	-46.7	-48.2	17.1	0.00e+00	0	61	0	819986432	56	4228
2026-01-01 02:21:44.34	289.41	40.04	-47.5	-49.4	16.0	0.00e+00	0	61	0	827326464	56	4835
2026-01-01 02:21:48.22	287.84	39.55	-47.0	-48.8	16.5	0.00e+00	0	61	0	833617920	56	4526
2026-01-01 02:21:52.11	286.31	39.05	-48.1	-50.3	15.1	0.00e+00	0	61	0	840957952	58	4813
2026-01-01 02:21:56.01	284.83	38.53	-48.1	-50.2	15.3	0.00e+00	0	61	0	848297984	58	4726
2026-01-01 02:21:59.90	283.39	37.99	-47.5	-49.3	16.1	0.00e+00	0	61	0	855638016	57	4537
2026-01-01 02:22:03.80	282.00	37.45	-48.0	-50.0	15.4	0.00e+00	0	61	0	862978048	59	4372
2026-01-01 02:22:07.70	280.66	36.89	-48.3	-50.5	15.0	0.00e+00	0	61	0	870318080	59	4615
2026-01-01 02:22:11.59	279.36	36.33	-48.4	-50.7	14.8	7.00e-07	0	61	0	877658112	58	4995
2026-01-01 02:22:15.49	278.11	35.76	-47.9	-49.9	15.6	7.00e-07	0	61	0	884998144	57	4829
2026-01-01 02:22:19.37	276.90	35.19	-47.5	-49.3	16.1	0.00e+00	0	61	0	892338176	57	4495
2026-01-01 02:22:23.27	275.74	34.61	-47.4	-49.2	16.2	0.00e+00	0	61	0	899678208	57	4452
2026-01-01 02:22:27.16	274.61	34.03	-49.0	-51.6	13.7	1.83e-05	0	61	0	907018240	60	4968
2026-01-01 02:22:31.05	273.53	33.45	-49.3	-52.1	13.3	5.30e-06	0	62	0	914358272	60	5259
2026-01-01 02:22:34.94	272.48	32.87	-50.9	-56.1	9.2	8.91e-03	0	61	0	921698304	63	6976
2026-01-01 02:22:38.85	271.47	32.29	-49.5	-52.5	12.8	2.07e-04	0	61	0	929038336	62	4912
2026-01-01 02:22:42.75	270.49	31.71	-49.8	-53.3	12.1	1.74e-04	0	61	0	936378368	61	5688
2026-01-01 02:22:46.64	269.55	31.13	-48.9	-51.5	13.8	1.29e-05	0	61	0	943718400	61	4645
2026-01-01 02:22:50.53	268.64	30.56	-49.2	-52.1	13.3	1.52e-05	0	62	0	951058432	60	5259
2026-01-01 02:22:54.42	267.77	29.99	-49.6	-52.8	12.5	1.85e-04	0	62	0	958398464	61	5379
2026-01-01 02:22:58.32	266.92	29.42	-49.0	-51.8	13.6	0.00e+00	0	61	0	965738496	60	5051
2026-01-01 02:23:02.21	266.11	28.86	-48.7	-51.1	14.3	3.00e-06	0	62	0	973078528	60	4690
2026-01-01 02:23:06.11	265.32	28.30	-48.4	-50.7	14.7	0.00e+00	0	62	0	980418560	59	4733
2026-01-01 02:23:10.01	264.56	27.75	-48.8	-51.4	14.0	3.00e-06	0	61	0	987758592	59	5104
2026-01-01 02:23:13.90	263.83	27.20	-48.8	-51.3	14.0	1.50e-06	0	62	0	995098624	59	5100
2026-01-01 02:23:17.79	263.12	26.66	-48.4	-50.6	14.8	7.00e-07	0	62	0	1002438656	59	4683
2026-01-01 02:23:21.69	262.44	26.12	-47.8	-49.8	15.6	0.00e+00	0	62	0	1009778688	58	4516
2026-01-01 02:23:25.59	261.77	25.59	-47.6	-49.4	15.9	0.00e+00	0	62	0	1017118720	58	4333
2026-01-01 02:23:29.48	261.13	25.07	-48.4	-50.6	14.8	0.00e+00	0	62	0	1024458752	58	4960
2026-01-01 02:23:33.38	260.51	24.55	-47.9	-49.9	15.5	0.00e+00	0	62	0	1030750208	58	4557
2026-01-01 02:23:37.28	259.92	24.04	-47.3	-49.0	16.3	0.00e+00	0	62	0	1038090240	57	4390
2026-01-01 02:23:41.18	259.34	23.54	-48.6	-51.0	14.3	7.00e-07	0	61	0	1045430272	59	4914
2026-01-01 02:23:45.07	258.78	23.04	-48.8	-51.5	13.9	8.30e-06	0	62	0	1052770304	60	4885
2026-01-01 02:23:48.96	258.23	22.55	-48.9	-51.6	13.7	0.00e+00	0	62	0	1060110336	60	4952
2026-01-01 02:23:52.85	257.71	22.07	-48.8	-51.3	14.0	3.80e-06	0	62	0	1067450368	60	4787
2026-01-01 02:23:56.74	257.20	21.59	-48.8	-51.2	14.2	0.00e+00	0	62	0	1074790400	60	4708
2026-01-01 02:24:00.63	256.71	21.12	-48.5	-50.8	14.6	1.50e-06	0	62	0	1082130432	60	4514
2026-01-01 02:24:04.53	256.23	20.66	-48.0	-50.0	15.4	0.00e+00	0	62	0	1089470464	58	4606
2026-01-01 02:24:08.44	255.76	20.20	-48.0	-50.0	15.3	0.00e+00	0	62	0	1096810496	58	4632
2026-01-01 02:24:12.32	255.31	19.75	-48.5	-50.7	14.6	0.00e+00	0	62	0	1104150528	59	4724
2026-01-01 02:24:16.22	254.87	19.30	-48.6	-50.8	14.5	7.00e-07	0	62	0	1111490560	59	4795
2026-01-01 02:24:20.11	254.45	18.86	-48.4	-50.6	14.7	7.00e-07	0	62	0	1118830592	59	4686
2026-01-01 02:24:24.01	254.04	18.43	-49.0	-51.6	13.7	6.10e-06	0	62	0	1126170624	59	5249
2026-01-01 02:24:27.90	253.64	18.00	-48.9	-51.4	13.9	1.50e-06	0	62	0	1133510656	59	5141
2026-01-01 02:24:31.79	253.25	17.58	-49.2	-52.0	13.3	6.80e-06	0	62	0	1140850688	60	5179
2026-01-01 02:24:35.69	252.87	17.16	-49.3	-52.1	13.1	1.75e-05	0	62	0	1148190720	60	5264
2026-01-01 02:24:39.59	252.50	16.75	-49.2	-52.0	13.2	1.44e-05	0	62	0	1155530752	60	5207
2026-01-01 02:24:43.47	252.15	16.35	-48.9	-51.4	13.9	6.80e-06	0	62	0	1162870784	60	4829
2026-01-01 02:24:47.36	251.80	15.95	-48.2	-50.4	14.9	0.00e+00	0	62	0	1170210816	59	4558
2026-01-01 02:24:51.25	251.46	15.56	-48.2	-50.4	14.8	0.00e+00	0	62	0	1177550848	59	4551
2026-01-01 02:24:55.15	251.13	15.17	-48.6	-50.9	14.3	0.00e+00	0	62	0	1184890880	59	4835
2026-01-01 02:24:59.05	250.81	14.78	-48.4	-50.6	14.7	0.00e+00	0	62	0	1192230912	59	4659
2026-01-01 02:25:02.96	250.50	14.40	-48.9	-51.4	13.9	3.00e-06	0	62	0	1199570944	59	5121
2026-01-01 02:25:06.86	250.19	14.03	-48.8	-51.3	14.0	7.00e-07	0	62	0	1206910976	59	5045
2026-01-01 02:25:10.76	249.90	13.66	-49.2	-52.0	13.2	2.74e-05	0	62	0	1214251008	60	5173
2026-01-01 02:25:14.65	249.61	13.30	-49.5	-52.6	12.6	9.30e-05	0	62	0	1221591040	60	5534
2026-01-01 02:25:18.54	249.33	12.94	-49.4	-52.4	12.8	1.27e-04	0	62	0	1228931072	60	5422
2026-01-01 02:25:22.44	249.05	12.58	-49.4	-52.4	12.7	1.14e-04	0	62	0	1236271104	60	5462
2026-01-01 02:25:26.33	248.79	12.24	-49.2	-52.2	13.0	4.65e-05	0	62	0	1242562560	60	5283
2026-01-01 02:25:30.22	248.52	11.89	-49.2	-52.0	13.0	3.50e-05	0	62	0	1249902592	60	5217
2026-01-01 02:25:34.13	248.27	11.55	-49.0	-51.8	13.3	2.59e-05	0	62	0	1257242624	60	5078
2026-01-01 02:25:38.02	248.02	11.21	-49.0	-51.9	13.2	1.22e-05	0	62	0	1264582656	60	5109
2026-01-01 02:25:41.91	247.78	10.88	-49.0	-51.7	13.4	1.22e-05	0	62	0	1271922688	60	5000
2026-01-01 02:25:45.81	247.54	10.55	-48.9	-51.5	13.5	7.60e-06	0	62	0	1279262720	60	4901
2026-01-01 02:25:49.72	247.31	10.22	-48.8	-51.5	13.5	8.30e-06	0	62	0	1286602752	60	4908
2026-01-01 02:25:53.62	247.08	9.90	-49.0	-51.8	13.3	2.28e-05	0	62	0	1293942784	60	5063
2026-01-01 02:25:57.52	246.86	9.58	-48.9	-51.7	13.3	2.28e-05	0	62	0	1301282816	60	5001
2026-01-01 02:26:01.42	246.64	9.26	-49.1	-52.0	13.0	2.74e-05	0	62	0	1308622848	60	5166
2026-01-01 02:26:05.32	246.43	8.95	-49.3	-52.4	12.5	6.48e-05	0	62	0	1315962880	60	5441
2026-01-01 02:26:09.23	246.23	8.64	-49.2	-52.2	12.8	6.10e-05	0	62	0	1323302912	60	5281
2026-01-01 02:26:13.12	246.02	8.34	-49.4	-52.8	12.1	1.87e-04	0	62	0	1330642944	60	5663
2026-01-01 02:26:17.01	245.83	8.04	-49.7	-53.3	11.5	6.23e-04	0	62	0	1337982976	61	5702
2026-01-01 02:26:20.91	245.63	7.74	-49.9	-53.8	11.1	1.53e-03	0	62	0	1345323008	61	6008
2026-01-01 02:26:24.80	245.44	7.45	-50.1	-54.3	10.5	4.03e-03	0	62	0	1352663040	62	6010
2026-01-01 02:26:28.70	245.26	7.16	-50.1	-54.3	10.3	6.22e-03	0	62	0	1360003072	62	6053
2026-01-01 02:26:32.59	245.08	6.87	-50.0	-54.0	10.7	3.12e-03	0	62	0	1367343104	62	5843
2026-01-01 02:26:36.49	244.90	6.58	-49.7	-53.6	11.1	1.60e-03	0	62	0	1374683136	62	5529
2026-01-01 02:26:40.39	244.73	6.30	-49.7	-53.7	11.0	2.11e-03	0	62	0	1382023168	62	5593
2026-01-01 02:26:44.29	244.56	6.02	-49.4	-53.1	11.5	7.07e-04	0	62	0	1389363200	61	5559
2026-01-01 02:26:48.18	244.39	5.74	-49.3	-53.2	11.0	1.47e-03	0	62	0	1396703232	61	5627
2026-01-01 02:26:52.07	244.23	5.47	-48.8	-52.4	11.6	9.48e-04	0	62	0	1404043264	60	5444
2026-01-01 02:26:55.96	244.07	5.20	-49.6	-54.7	9.0	1.13e-02	0	62	0	1411383296	61	6700
2026-01-01 02:26:59.88	243.91	4.93	-52.2	-66.1	3.8	1.49e+00	0	62	104	1414529024	66	18522
2026-01-01 02:27:03.81	243.75	4.66	-52.6	-66.4	3.8	1.49e+00	0	62	104	1414529024	67	18248
2026-01-01 02:27:07.74	243.60	4.39	-52.7	-66.5	3.8	1.49e+00	0	62	104	1414529024	67	18441
2026-01-01 02:27:11.68	243.45	4.12	-52.5	-66.6	3.8	1.49e+00	0	62	104	1414529024	67	18634
2026-01-01 02:27:15.60	243.30	3.86	-52.8	-66.7	3.8	1.49e+00	0	62	104	1414529024	67	18761
2026-01-01 02:27:19.55	243.16	3.60	-52.9	-66.7	3.8	1.49e+00	0	62	104	1414529024	67	18846
2026-01-01 02:27:23.48	243.02	3.34	-52.9	-66.7	3.8	1.49e+00	0	62	104	1414529024	67	18825
2026-01-01 02:27:27.41	242.88	3.09	-52.9	-66.7	3.8	1.49e+00	0	62	104	1414529024	67	18791

#Closed at: 2026-01-01 02:27:30
#Recorded file [1414 MB]: D:/Data/31026_260101_052658.dat