passes_logs/2026/01/01/R3.0SM8_Murmansk_STILSPACE/R3.0SM8_Murmansk_STILSPACE__20260101_003344_SUOMI_NPP_rec.log

#Pass ID: 20260101_003344_SUOMI NPP
#Satellite: SUOMI NPP
#Configuration: NPP
#almurnet v.1.7.20240730
#Start time: 2026-01-01 00:33:46

#Version: 2.2.20231116
#Station: R3.0SM8_Murmansk_STILSPACE
#Location: 33.092731 lon 68.902999 lat
#TLE: 1 37849U 11061A   25364.87906317  .00000195  00000+0  11345-3 0  9992
#TLE: 2 37849  98.7794 302.0592 0002571  89.2401 270.9069 14.19520347734561

#Time	Az	El	Level	Level2	SNR	BER	BlckErr	Temp	State	Recorded	gain1	gain2
2026-01-01 00:33:46.75	24.00	3.12	-52.5	-66.4	3.8	1.49e+00	0	50	0	0	67	18300
2026-01-01 00:33:50.68	24.04	3.38	-52.1	-65.9	3.8	1.49e+00	0	50	104	0	67	17198
2026-01-01 00:33:54.57	24.07	3.65	-50.1	-55.5	8.6	3.72e-02	0	51	0	4194304	63	6505
2026-01-01 00:33:58.42	24.11	3.91	-49.6	-54.3	9.7	1.36e-02	0	51	0	10485760	62	6040
2026-01-01 00:34:02.27	24.15	4.17	-49.5	-53.8	10.2	5.73e-03	0	51	0	17825792	61	6060
2026-01-01 00:34:06.11	24.19	4.44	-49.4	-53.8	10.2	5.22e-03	0	52	0	25165824	61	6056
2026-01-01 00:34:09.97	24.22	4.71	-49.7	-54.4	9.7	9.15e-03	0	52	0	32505856	61	6443
2026-01-01 00:34:13.82	24.26	4.98	-50.1	-55.3	8.7	2.82e-02	0	52	0	39845888	61	7190
2026-01-01 00:34:17.68	24.30	5.25	-50.2	-55.7	8.4	3.25e-02	0	52	0	47185920	62	7077
2026-01-01 00:34:21.54	24.34	5.53	-49.8	-54.3	10.0	5.94e-03	0	53	0	54525952	62	6015
2026-01-01 00:34:25.39	24.38	5.81	-49.8	-54.6	9.7	9.41e-03	0	53	0	61865984	62	6226
2026-01-01 00:34:29.24	24.42	6.10	-49.7	-54.1	10.2	4.40e-03	0	53	0	68157440	62	5900
2026-01-01 00:34:33.09	24.47	6.38	-49.4	-53.6	10.8	4.52e-03	0	53	0	75497472	62	5574
2026-01-01 00:34:36.95	24.51	6.67	-48.9	-52.4	12.2	2.52e-04	0	53	0	82837504	61	5111
2026-01-01 00:34:40.81	24.55	6.97	-48.8	-52.0	12.6	1.31e-04	0	54	0	90177536	60	5191
2026-01-01 00:34:44.68	24.59	7.26	-48.8	-51.9	12.7	6.63e-05	0	54	0	97517568	60	5119
2026-01-01 00:34:48.54	24.64	7.56	-48.7	-51.7	12.9	7.85e-05	0	54	0	104857600	60	5030
2026-01-01 00:34:52.39	24.68	7.87	-48.6	-51.5	13.2	2.67e-05	0	54	0	112197632	60	4924
2026-01-01 00:34:56.25	24.72	8.18	-48.7	-51.6	13.1	2.13e-05	0	54	0	119537664	60	4951
2026-01-01 00:35:00.11	24.77	8.49	-48.5	-51.3	13.4	1.75e-05	0	55	0	126877696	60	4792
2026-01-01 00:35:03.97	24.81	8.80	-48.5	-51.3	13.5	8.30e-06	0	55	0	134217728	59	5049
2026-01-01 00:35:07.83	24.86	9.12	-48.5	-51.2	13.6	9.90e-06	0	55	0	140509184	59	4986
2026-01-01 00:35:11.70	24.91	9.45	-48.5	-51.2	13.7	8.30e-06	0	55	0	147849216	59	4989
2026-01-01 00:35:15.55	24.95	9.78	-48.5	-51.1	13.7	6.80e-06	0	55	0	155189248	59	4972
2026-01-01 00:35:19.41	25.00	10.11	-48.5	-51.2	13.7	3.00e-06	0	55	0	162529280	59	4998
2026-01-01 00:35:23.26	25.05	10.44	-47.9	-50.2	14.7	0.00e+00	0	56	0	169869312	59	4474
2026-01-01 00:35:27.11	25.10	10.79	-47.9	-50.1	14.8	0.00e+00	0	56	0	177209344	58	4698
2026-01-01 00:35:30.97	25.15	11.13	-47.8	-50.0	14.9	0.00e+00	0	56	0	184549376	58	4625
2026-01-01 00:35:34.82	25.20	11.48	-47.9	-50.2	14.8	0.00e+00	0	56	0	191889408	58	4726
2026-01-01 00:35:38.68	25.25	11.84	-47.6	-49.7	15.3	0.00e+00	0	56	0	199229440	58	4461
2026-01-01 00:35:42.54	25.31	12.20	-47.6	-49.6	15.4	0.00e+00	0	56	0	206569472	58	4428
2026-01-01 00:35:46.40	25.36	12.57	-47.4	-49.3	15.7	0.00e+00	0	56	0	213909504	57	4536
2026-01-01 00:35:50.25	25.41	12.94	-47.3	-49.3	15.7	0.00e+00	0	57	0	220200960	57	4501
2026-01-01 00:35:54.12	25.47	13.32	-47.3	-49.2	15.8	0.00e+00	0	57	0	227540992	57	4488
2026-01-01 00:35:57.97	25.53	13.71	-47.3	-49.1	15.9	0.00e+00	0	57	0	234881024	57	4432
2026-01-01 00:36:01.83	25.59	14.10	-47.0	-48.8	16.2	0.00e+00	0	57	0	242221056	57	4285
2026-01-01 00:36:05.68	25.64	14.49	-47.1	-48.9	16.2	0.00e+00	0	57	0	249561088	57	4294
2026-01-01 00:36:09.53	25.70	14.90	-47.0	-48.7	16.3	0.00e+00	0	57	0	256901120	56	4479
2026-01-01 00:36:13.40	25.77	15.31	-47.0	-48.7	16.3	0.00e+00	0	57	0	264241152	56	4487
2026-01-01 00:36:17.25	25.83	15.72	-46.9	-48.6	16.4	0.00e+00	0	57	0	271581184	56	4439
2026-01-01 00:36:21.11	25.89	16.15	-46.8	-48.5	16.6	0.00e+00	0	58	0	278921216	56	4359
2026-01-01 00:36:24.97	25.96	16.58	-46.8	-48.5	16.6	0.00e+00	0	58	0	285212672	56	4351
2026-01-01 00:36:28.82	26.02	17.02	-46.7	-48.4	16.8	0.00e+00	0	58	0	292552704	56	4296
2026-01-01 00:36:32.68	26.09	17.47	-47.1	-48.9	16.3	0.00e+00	0	58	0	299892736	56	4557
2026-01-01 00:36:36.54	26.16	17.93	-47.3	-49.2	15.9	0.00e+00	0	58	0	307232768	56	4740
2026-01-01 00:36:40.39	26.23	18.39	-47.4	-49.4	15.8	0.00e+00	0	58	0	314572800	56	4851
2026-01-01 00:36:44.24	26.30	18.87	-47.4	-49.4	15.8	0.00e+00	0	58	0	321912832	56	4835
2026-01-01 00:36:48.10	26.38	19.35	-47.5	-49.5	15.7	0.00e+00	0	58	0	329252864	56	4923
2026-01-01 00:36:51.97	26.46	19.84	-47.6	-49.8	15.4	0.00e+00	0	58	0	336592896	57	4802
2026-01-01 00:36:55.82	26.53	20.35	-47.9	-50.2	15.0	0.00e+00	0	58	0	343932928	57	5002
2026-01-01 00:36:59.69	26.62	20.86	-48.2	-50.7	14.6	0.00e+00	0	58	0	350224384	58	4993
2026-01-01 00:37:03.54	26.70	21.38	-48.3	-50.6	14.5	0.00e+00	0	59	0	357564416	58	4981
2026-01-01 00:37:07.39	26.78	21.92	-48.2	-50.5	14.8	7.00e-07	0	59	0	364904448	58	4874
2026-01-01 00:37:11.25	26.87	22.47	-48.2	-50.6	14.7	0.00e+00	0	59	0	372244480	58	4930
2026-01-01 00:37:15.11	26.96	23.02	-48.5	-51.0	14.3	1.50e-06	0	59	0	379584512	59	4879
2026-01-01 00:37:18.97	27.05	23.60	-48.4	-50.8	14.5	0.00e+00	0	59	0	386924544	59	4792
2026-01-01 00:37:22.82	27.15	24.18	-48.6	-51.0	14.3	2.20e-06	0	59	0	394264576	59	4925
2026-01-01 00:37:26.67	27.25	24.77	-48.2	-50.4	14.9	7.00e-07	0	59	0	401604608	59	4563
2026-01-01 00:37:30.53	27.35	25.39	-48.2	-50.4	14.9	0.00e+00	0	59	0	408944640	59	4598
2026-01-01 00:37:34.37	27.45	26.01	-48.0	-50.1	15.2	0.00e+00	0	59	0	416284672	58	4692
2026-01-01 00:37:38.23	27.56	26.65	-47.7	-49.8	15.6	0.00e+00	0	59	0	422576128	58	4500
2026-01-01 00:37:42.08	27.68	27.30	-48.2	-50.4	15.0	0.00e+00	0	59	0	429916160	58	4820
2026-01-01 00:37:45.96	27.79	27.98	-48.1	-50.3	15.0	0.00e+00	0	59	0	437256192	58	4773
2026-01-01 00:37:49.82	27.92	28.67	-47.6	-49.7	15.7	0.00e+00	0	59	0	444596224	58	4453
2026-01-01 00:37:53.68	28.04	29.37	-48.2	-50.5	14.9	0.00e+00	0	59	0	451936256	58	4888
2026-01-01 00:37:57.55	28.17	30.10	-48.8	-51.4	14.0	7.00e-07	0	60	0	459276288	59	5125
2026-01-01 00:38:01.42	28.31	30.85	-48.7	-51.2	14.2	1.50e-06	0	60	0	466616320	59	5031
2026-01-01 00:38:05.28	28.45	31.61	-49.3	-52.4	12.9	1.83e-05	0	60	0	473956352	60	5436
2026-01-01 00:38:09.15	28.60	32.39	-49.9	-54.0	11.3	5.71e-04	0	60	0	481296384	61	6145
2026-01-01 00:38:13.01	28.76	33.20	-50.0	-54.1	11.2	1.35e-03	0	60	0	488636416	62	5872
2026-01-01 00:38:16.87	28.92	34.02	-49.5	-53.2	12.1	2.65e-04	0	60	0	495976448	61	5623
2026-01-01 00:38:20.74	29.09	34.87	-49.0	-51.9	13.5	1.98e-05	0	60	0	502267904	61	4842
2026-01-01 00:38:24.59	29.27	35.74	-47.8	-49.8	15.6	0.00e+00	0	60	0	509607936	58	4513
2026-01-01 00:38:28.45	29.45	36.64	-47.2	-49.0	16.3	0.00e+00	0	60	0	516947968	57	4343
2026-01-01 00:38:32.31	29.65	37.56	-47.3	-49.2	16.1	0.00e+00	0	60	0	524288000	57	4463
2026-01-01 00:38:36.16	29.86	38.50	-47.4	-49.4	15.9	0.00e+00	0	60	0	531628032	57	4592
2026-01-01 00:38:40.01	30.07	39.47	-46.7	-48.4	17.0	0.00e+00	0	60	0	538968064	56	4295
2026-01-01 00:38:43.87	30.31	40.47	-46.8	-48.5	16.9	0.00e+00	0	60	0	546308096	56	4358
2026-01-01 00:38:47.72	30.55	41.50	-47.3	-49.3	16.0	0.00e+00	0	60	0	553648128	56	4781
2026-01-01 00:38:51.59	30.81	42.56	-47.3	-49.2	16.1	0.00e+00	0	60	0	560988160	57	4473
2026-01-01 00:38:55.45	31.09	43.65	-47.2	-49.0	16.4	0.00e+00	0	60	0	567279616	57	4361
2026-01-01 00:38:59.30	31.39	44.77	-48.0	-50.0	15.4	0.00e+00	0	60	0	574619648	58	4637
2026-01-01 00:39:03.17	31.71	45.93	-49.7	-53.3	12.3	1.38e-04	0	60	0	581959680	61	5662
2026-01-01 00:39:07.03	32.05	47.11	-50.1	-54.2	11.3	9.41e-04	0	61	0	589299712	62	5944
2026-01-01 00:39:10.88	32.41	48.33	-50.1	-54.2	11.2	3.00e-03	0	60	0	596639744	62	5949
2026-01-01 00:39:14.73	32.81	49.57	-48.0	-50.1	15.3	0.00e+00	0	60	0	603979776	58	4695
2026-01-01 00:39:18.58	33.23	50.86	-47.0	-48.8	16.6	0.00e+00	0	61	0	611319808	57	4247
2026-01-01 00:39:22.44	33.70	52.18	-46.2	-47.7	17.5	0.00e+00	0	61	0	618659840	55	4209
2026-01-01 00:39:26.30	34.21	53.54	-45.5	-46.9	18.3	0.00e+00	0	60	0	625999872	54	4066
2026-01-01 00:39:30.16	34.77	54.93	-45.1	-46.4	18.8	0.00e+00	0	61	0	633339904	53	4076
2026-01-01 00:39:34.01	35.38	56.35	-44.7	-45.8	19.3	0.00e+00	0	61	0	639631360	52	4044
2026-01-01 00:39:37.86	36.06	57.81	-45.4	-46.7	18.5	0.00e+00	0	60	0	646971392	53	4240
2026-01-01 00:39:41.74	36.82	59.31	-46.0	-47.5	17.7	0.00e+00	0	61	0	654311424	53	4639
2026-01-01 00:39:45.59	37.66	60.83	-45.6	-46.9	18.2	0.00e+00	0	61	0	661651456	54	4081
2026-01-01 00:39:49.45	38.62	62.39	-45.4	-46.7	18.5	0.00e+00	0	61	0	668991488	52	4489
2026-01-01 00:39:53.31	39.71	63.98	-46.4	-48.0	17.4	0.00e+00	0	61	0	676331520	54	4613
2026-01-01 00:39:57.16	40.95	65.58	-45.9	-47.2	18.1	0.00e+00	0	61	0	683671552	54	4208
2026-01-01 00:40:01.02	42.39	67.22	-47.4	-49.2	16.3	0.00e+00	0	61	0	691011584	56	4725
2026-01-01 00:40:04.88	44.07	68.87	-48.7	-51.1	14.6	7.00e-07	0	61	0	698351616	59	4954
2026-01-01 00:40:08.74	46.06	70.53	-49.3	-52.3	13.4	1.06e-05	0	61	0	705691648	60	5387
2026-01-01 00:40:12.59	48.44	72.19	-48.7	-51.3	14.2	1.50e-06	0	61	0	711983104	60	4785
2026-01-01 00:40:16.45	51.35	73.84	-48.8	-51.5	14.2	7.00e-07	0	61	0	719323136	59	5164
2026-01-01 00:40:20.31	54.94	75.47	-49.1	-52.0	13.6	3.00e-06	0	61	0	726663168	60	5171
2026-01-01 00:40:24.17	59.45	77.05	-50.5	-54.7	10.7	6.54e-03	0	61	0	734003200	63	5927
2026-01-01 00:40:28.03	65.21	78.54	-50.2	-54.0	11.6	1.56e-03	0	61	0	741343232	63	5487
2026-01-01 00:40:31.89	72.65	79.91	-49.8	-53.0	12.4	3.30e-04	0	61	0	748683264	62	5204
2026-01-01 00:40:35.75	82.23	81.06	-48.7	-51.1	14.3	7.00e-07	0	61	0	756023296	59	4975
2026-01-01 00:40:39.60	94.21	81.90	-48.5	-50.8	14.8	0.00e+00	0	61	0	763363328	59	4800
2026-01-01 00:40:43.46	108.27	82.33	-48.1	-50.1	15.3	0.00e+00	0	61	0	770703360	59	4439
2026-01-01 00:40:47.33	123.05	82.26	-46.9	-48.5	16.9	0.00e+00	0	61	0	778043392	55	4633
2026-01-01 00:40:51.18	136.64	81.72	-49.4	-52.2	13.4	1.44e-05	0	61	0	784334848	61	5012
2026-01-01 00:40:55.05	148.06	80.78	-49.8	-53.2	12.5	2.02e-04	0	61	0	791674880	61	5641
2026-01-01 00:40:58.91	157.05	79.57	-49.5	-52.4	13.1	5.14e-04	0	61	0	799014912	62	4845
2026-01-01 00:41:02.75	163.98	78.17	-49.5	-52.4	13.2	6.56e-05	0	61	0	806354944	61	5143
2026-01-01 00:41:06.61	169.38	76.65	-50.2	-53.9	11.6	7.96e-04	0	61	0	813694976	62	5732
2026-01-01 00:41:10.48	173.65	75.05	-48.8	-51.2	14.5	3.80e-06	0	61	0	821035008	60	4720
2026-01-01 00:41:14.34	177.04	73.41	-49.4	-52.2	13.3	3.58e-05	0	61	0	828375040	61	5014
2026-01-01 00:41:18.20	179.80	71.75	-51.0	-55.7	9.8	2.00e-03	0	61	0	835715072	63	6721
2026-01-01 00:41:22.05	182.07	70.09	-49.4	-52.1	13.4	4.50e-06	0	61	0	843055104	61	4950
2026-01-01 00:41:25.90	183.97	68.43	-49.3	-52.2	13.3	6.10e-03	0	61	0	850395136	61	4993
2026-01-01 00:41:29.76	185.58	66.78	-47.0	-48.7	16.8	0.00e+00	0	61	0	856686592	57	4206
2026-01-01 00:41:33.62	186.97	65.15	-46.7	-48.2	17.1	0.00e+00	0	61	0	864026624	55	4488
2026-01-01 00:41:37.48	188.17	63.54	-48.0	-50.1	15.5	0.00e+00	0	61	0	871366656	57	4933
2026-01-01 00:41:41.34	189.22	61.96	-49.5	-52.4	13.2	1.06e-05	0	62	0	878706688	60	5439
2026-01-01 00:41:45.19	190.14	60.41	-49.1	-52.1	13.4	6.10e-06	0	61	0	886046720	59	5543
2026-01-01 00:41:49.05	190.97	58.89	-48.1	-50.5	15.0	0.00e+00	0	61	0	893386752	59	4623
2026-01-01 00:41:52.89	191.70	57.41	-47.3	-49.1	16.4	0.00e+00	0	61	0	900726784	57	4403
2026-01-01 00:41:56.75	192.36	55.95	-48.4	-50.6	15.0	0.00e+00	0	61	0	908066816	59	4679
2026-01-01 00:42:00.60	192.96	54.53	-49.3	-52.1	13.4	3.96e-05	0	61	0	915406848	61	4968
2026-01-01 00:42:04.47	193.50	53.15	-51.5	-57.9	7.5	1.62e-01	0	62	0	922746880	65	7658
2026-01-01 00:42:08.34	194.00	51.79	-50.1	-54.0	11.5	5.11e-04	0	62	0	929038336	62	5801
2026-01-01 00:42:12.20	194.46	50.48	-50.5	-55.0	10.4	5.45e-03	0	62	0	936378368	63	6167
2026-01-01 00:42:16.06	194.88	49.19	-49.1	-52.0	13.6	1.75e-05	0	62	0	943718400	61	4885
2026-01-01 00:42:19.92	195.26	47.95	-51.1	-57.2	8.2	2.68e-02	0	62	0	951058432	64	7491
2026-01-01 00:42:23.78	195.62	46.74	-48.8	-51.5	13.9	1.06e-05	0	62	0	958398464	60	4918
2026-01-01 00:42:27.64	195.96	45.56	-47.8	-49.9	15.5	0.00e+00	0	62	0	965738496	57	4816
2026-01-01 00:42:31.50	196.27	44.41	-48.8	-51.5	13.8	1.52e-05	0	62	0	973078528	60	4919
2026-01-01 00:42:35.35	196.56	43.30	-47.1	-48.8	16.6	0.00e+00	0	62	0	980418560	57	4254
2026-01-01 00:42:39.21	196.83	42.21	-48.6	-51.3	14.2	1.50e-06	0	62	0	987758592	59	5050
2026-01-01 00:42:43.06	197.08	41.16	-49.3	-52.5	12.9	3.43e-05	0	62	0	995098624	61	5174
2026-01-01 00:42:46.93	197.33	40.14	-47.1	-48.8	16.5	0.00e+00	0	61	0	1001390080	57	4274
2026-01-01 00:42:50.78	197.55	39.14	-47.8	-49.9	15.4	0.00e+00	0	62	0	1008730112	57	4851
2026-01-01 00:42:54.64	197.77	38.17	-51.1	-58.1	7.3	1.62e-02	0	62	0	1016070144	63	8807
2026-01-01 00:42:58.48	197.97	37.24	-51.2	-58.6	6.5	5.69e-01	0	62	0	1023410176	64	8832
2026-01-01 00:43:02.35	198.16	36.32	-49.0	-52.1	13.4	9.07e-05	0	62	0	1030750208	61	4932
2026-01-01 00:43:06.20	198.35	35.43	-49.7	-53.3	12.1	3.35e-05	0	62	0	1038090240	61	5659
2026-01-01 00:43:10.06	198.52	34.56	-51.3	-58.1	7.1	1.09e-01	0	62	0	1045430272	64	8347
2026-01-01 00:43:13.92	198.69	33.72	-51.6	-60.0	5.4	4.62e-01	0	62	0	1052770304	65	9803
2026-01-01 00:43:17.78	198.85	32.89	-50.9	-56.6	8.5	4.33e-02	0	62	0	1060110336	64	7000
2026-01-01 00:43:21.65	199.00	32.09	-49.7	-53.3	12.1	4.42e-04	0	62	0	1067450368	62	5341
2026-01-01 00:43:25.51	199.15	31.31	-50.2	-53.9	11.5	1.23e-03	0	62	0	1073741824	62	5729
2026-01-01 00:43:29.37	199.29	30.55	-51.0	-56.0	9.3	1.02e-02	0	62	0	1081081856	63	6880
2026-01-01 00:43:33.22	199.42	29.82	-51.4	-57.5	7.8	9.02e-02	0	62	0	1088421888	64	7730
2026-01-01 00:43:37.09	199.55	29.09	-49.9	-53.5	11.9	7.25e-04	0	62	0	1095761920	63	5167
2026-01-01 00:43:40.94	199.67	28.39	-48.6	-51.0	14.4	1.50e-06	0	62	0	1103101952	59	4905
2026-01-01 00:43:44.80	199.79	27.70	-47.8	-49.8	15.5	0.00e+00	0	62	0	1110441984	58	4527
2026-01-01 00:43:48.66	199.91	27.03	-47.3	-49.1	16.2	0.00e+00	0	62	0	1117782016	57	4430
2026-01-01 00:43:52.54	200.02	26.38	-46.9	-48.6	16.7	0.00e+00	0	62	0	1125122048	57	4171
2026-01-01 00:43:56.40	200.12	25.74	-46.7	-48.3	17.0	0.00e+00	0	62	0	1132462080	56	4274
2026-01-01 00:44:00.26	200.23	25.12	-46.9	-48.6	16.7	0.00e+00	0	62	0	1139802112	56	4423
2026-01-01 00:44:04.12	200.33	24.51	-47.0	-48.7	16.6	0.00e+00	0	62	0	1146093568	56	4478
2026-01-01 00:44:07.99	200.42	23.91	-46.8	-48.5	16.8	0.00e+00	0	62	0	1153433600	56	4358
2026-01-01 00:44:11.85	200.52	23.33	-46.2	-47.7	17.5	0.00e+00	0	62	0	1160773632	55	4234
2026-01-01 00:44:15.71	200.61	22.76	-46.0	-47.4	17.7	0.00e+00	0	62	0	1168113664	54	4333
2026-01-01 00:44:19.59	200.70	22.20	-45.9	-47.3	17.9	0.00e+00	0	62	0	1175453696	54	4252
2026-01-01 00:44:23.44	200.78	21.66	-46.3	-47.8	17.4	0.00e+00	0	62	0	1182793728	54	4530
2026-01-01 00:44:27.30	200.86	21.12	-46.6	-48.2	17.0	0.00e+00	0	62	0	1190133760	55	4476
2026-01-01 00:44:31.15	200.94	20.60	-47.0	-48.8	16.4	0.00e+00	0	62	0	1197473792	55	4762
2026-01-01 00:44:35.01	201.02	20.09	-47.3	-49.1	16.1	0.00e+00	0	62	0	1204813824	56	4704
2026-01-01 00:44:38.86	201.10	19.59	-47.2	-49.0	16.3	0.00e+00	0	62	0	1212153856	57	4367
2026-01-01 00:44:42.72	201.17	19.10	-46.9	-48.5	16.7	0.00e+00	0	62	0	1218445312	56	4389
2026-01-01 00:44:46.58	201.25	18.61	-46.7	-48.4	16.8	0.00e+00	0	62	0	1225785344	56	4330
2026-01-01 00:44:50.43	201.32	18.14	-47.0	-48.8	16.4	0.00e+00	0	62	0	1233125376	56	4503
2026-01-01 00:44:54.29	201.39	17.68	-47.3	-49.0	16.3	0.00e+00	0	62	0	1240465408	56	4626
2026-01-01 00:44:58.14	201.45	17.22	-47.7	-49.6	15.7	0.00e+00	0	62	0	1247805440	57	4677
2026-01-01 00:45:02.00	201.52	16.78	-47.8	-49.8	15.5	0.00e+00	0	62	0	1255145472	57	4784
2026-01-01 00:45:05.86	201.58	16.34	-47.7	-49.6	15.6	0.00e+00	0	62	0	1262485504	57	4689
2026-01-01 00:45:09.72	201.65	15.91	-47.9	-49.8	15.4	0.00e+00	0	62	0	1269825536	57	4809
2026-01-01 00:45:13.59	201.71	15.48	-47.8	-49.8	15.5	0.00e+00	0	62	0	1277165568	57	4764
2026-01-01 00:45:17.44	201.77	15.07	-48.0	-50.0	15.3	0.00e+00	0	62	0	1284505600	57	4876
2026-01-01 00:45:21.30	201.83	14.66	-47.9	-49.9	15.4	7.00e-07	0	62	0	1291845632	57	4821
2026-01-01 00:45:25.16	201.88	14.25	-48.2	-50.4	14.8	0.00e+00	0	62	0	1298137088	58	4823
2026-01-01 00:45:29.02	201.94	13.86	-48.3	-50.5	14.7	7.00e-07	0	62	0	1305477120	58	4899
2026-01-01 00:45:32.87	201.99	13.47	-48.1	-50.3	14.9	0.00e+00	0	62	0	1312817152	58	4787
2026-01-01 00:45:36.72	202.05	13.08	-48.2	-50.4	14.8	0.00e+00	0	62	0	1320157184	58	4833
2026-01-01 00:45:40.58	202.10	12.71	-48.1	-50.3	14.9	0.00e+00	0	62	0	1327497216	58	4760
2026-01-01 00:45:44.43	202.15	12.34	-48.0	-50.2	14.9	0.00e+00	0	62	0	1334837248	58	4749
2026-01-01 00:45:48.30	202.21	11.97	-48.1	-50.3	14.9	7.00e-07	0	62	0	1342177280	58	4782
2026-01-01 00:45:52.17	202.26	11.61	-48.3	-50.6	14.5	0.00e+00	0	62	0	1349517312	58	4963
2026-01-01 00:45:56.02	202.31	11.25	-48.4	-50.7	14.4	0.00e+00	0	62	0	1356857344	58	5011
2026-01-01 00:45:59.88	202.35	10.90	-48.2	-50.5	14.6	0.00e+00	0	62	0	1363148800	58	4913
2026-01-01 00:46:03.73	202.40	10.55	-48.2	-50.6	14.5	7.00e-07	0	62	0	1370488832	58	4932
2026-01-01 00:46:07.59	202.45	10.21	-48.2	-50.5	14.5	0.00e+00	0	62	0	1377828864	58	4919
2026-01-01 00:46:11.45	202.50	9.88	-48.4	-50.9	14.2	0.00e+00	0	62	0	1385168896	58	5115
2026-01-01 00:46:15.30	202.54	9.55	-48.1	-50.5	14.5	1.50e-06	0	62	0	1392508928	58	4888
2026-01-01 00:46:19.15	202.59	9.22	-48.2	-50.6	14.4	2.20e-06	0	62	0	1399848960	58	4976
2026-01-01 00:46:23.01	202.63	8.90	-48.3	-50.7	14.3	0.00e+00	0	62	0	1407188992	59	4707
2026-01-01 00:46:26.87	202.67	8.58	-48.7	-51.3	13.6	2.20e-06	0	62	0	1414529024	59	5064
2026-01-01 00:46:30.72	202.72	8.26	-48.3	-50.7	14.2	2.20e-06	0	62	0	1421869056	59	4754
2026-01-01 00:46:34.58	202.76	7.95	-48.3	-50.7	14.2	1.50e-06	0	62	0	1428160512	59	4740
2026-01-01 00:46:38.42	202.80	7.65	-48.4	-50.9	14.0	1.50e-06	0	62	0	1435500544	59	4834
2026-01-01 00:46:42.28	202.84	7.34	-48.3	-50.8	14.0	6.10e-06	0	62	0	1442840576	59	4803
2026-01-01 00:46:46.13	202.88	7.04	-48.7	-51.4	13.4	8.30e-06	0	62	0	1450180608	59	5127
2026-01-01 00:46:49.99	202.92	6.74	-48.6	-51.3	13.4	1.44e-05	0	62	0	1457520640	59	5093
2026-01-01 00:46:53.85	202.96	6.45	-48.8	-51.6	13.1	3.81e-05	0	62	0	1464860672	59	5237
2026-01-01 00:46:57.72	203.00	6.16	-48.7	-51.5	13.2	2.59e-05	0	62	0	1472200704	59	5188
2026-01-01 00:47:01.58	203.04	5.87	-48.7	-51.6	13.1	4.04e-05	0	62	0	1479540736	59	5223
2026-01-01 00:47:05.44	203.07	5.59	-49.0	-52.2	12.5	6.40e-05	0	62	0	1486880768	59	5594
2026-01-01 00:47:09.30	203.11	5.31	-48.7	-51.8	12.8	7.01e-05	0	62	0	1494220800	60	5061
2026-01-01 00:47:13.16	203.15	5.03	-51.3	-59.7	5.8	1.01e-04	0	62	0	1501560832	64	9959
2026-01-01 00:47:17.08	203.19	4.75	-52.5	-66.3	3.8	1.49e+00	0	62	104	1501560832	66	19116
2026-01-01 00:47:21.01	203.22	4.47	-52.7	-66.5	3.8	1.49e+00	0	62	104	1501560832	67	18437
2026-01-01 00:47:24.95	203.26	4.20	-52.6	-66.6	3.8	1.49e+00	0	62	104	1501560832	67	18684
2026-01-01 00:47:28.88	203.29	3.93	-52.6	-66.7	3.8	1.49e+00	0	62	104	1501560832	67	18791
2026-01-01 00:47:32.81	203.33	3.66	-52.9	-66.7	3.8	1.49e+00	0	62	104	1501560832	67	18810
2026-01-01 00:47:36.73	203.36	3.39	-52.9	-66.7	3.8	1.49e+00	0	62	104	1501560832	67	18847
2026-01-01 00:47:40.67	203.40	3.13	-52.9	-66.7	3.8	1.49e+00	0	62	104	1501560832	67	18801

#Closed at: 2026-01-01 00:47:43
#Recorded file [1501 MB]: D:/Data/31026_260101_034713.dat