passes_logs/2026/01/01/R3.0SM8_Murmansk_STILSPACE/R3.0SM8_Murmansk_STILSPACE__20260101_111505_AQUA_rec.log

#Pass ID: 20260101_111505_AQUA
#Satellite: AQUA
#Configuration: AQUA
#almurnet v.1.7.20240730
#Start time: 2026-01-01 11:15:07

#Version: 2.2.20231116
#Station: R3.0SM8_Murmansk_STILSPACE
#Location: 33.092731 lon 68.902999 lat
#TLE: 1 27424U 02022A   25364.96158943  .00001951  00000+0  40088-3 0  9998
#TLE: 2 27424  98.4061 326.1389 0001917  95.3187 305.7939 14.61780362258696

#Time	Az	El	Level	Level2	SNR	BER	BlckErr	Temp	State	Recorded	gain1	gain2
2026-01-01 11:15:07.41	152.23	3.12	-54.6	-74.5	3.8	7.48e-01	0	47	0	0	71	37601
2026-01-01 11:15:10.38	152.23	3.32	-54.5	-74.5	3.8	7.46e-01	0	47	104	0	71	37380
2026-01-01 11:15:13.34	152.24	3.53	-54.5	-74.4	3.8	7.42e-01	0	47	104	0	71	37245
2026-01-01 11:15:16.31	152.24	3.74	-54.4	-74.4	3.8	7.49e-01	0	47	104	0	71	37131
2026-01-01 11:15:19.28	152.25	3.96	-54.3	-74.3	3.8	7.46e-01	0	47	104	0	71	36758
2026-01-01 11:15:22.27	152.25	4.17	-54.2	-74.1	3.8	7.48e-01	0	48	104	0	71	36097
2026-01-01 11:15:25.22	152.26	4.39	-53.9	-73.8	3.8	7.45e-01	0	48	104	0	71	34759
2026-01-01 11:15:28.20	152.26	4.61	-52.4	-63.4	7.8	6.50e-01	91	48	0	1048576	68	12515
2026-01-01 11:15:31.14	152.27	4.83	-51.9	-60.1	11.2	6.17e-01	0	48	0	6815744	67	9020
2026-01-01 11:15:34.11	152.27	5.05	-51.0	-56.5	14.9	6.07e-01	0	48	0	12582912	65	6705
2026-01-01 11:15:37.08	152.28	5.27	-50.7	-55.1	16.6	6.08e-01	0	49	0	17825792	65	5682
2026-01-01 11:15:40.03	152.28	5.50	-50.0	-53.6	18.2	6.05e-01	0	49	0	23592960	63	5348
2026-01-01 11:15:43.00	152.28	5.73	-50.3	-54.0	17.8	6.05e-01	0	49	0	28835840	63	5652
2026-01-01 11:15:45.94	152.29	5.96	-49.8	-52.8	19.2	6.08e-01	0	49	0	34603008	63	4925
2026-01-01 11:15:48.92	152.29	6.19	-49.1	-51.6	20.5	6.07e-01	0	49	0	40370176	61	4800
2026-01-01 11:15:51.89	152.30	6.43	-49.3	-51.9	20.3	6.07e-01	0	49	0	45613056	61	4976
2026-01-01 11:15:54.86	152.30	6.67	-49.0	-51.4	20.8	6.07e-01	0	50	0	51380224	61	4677
2026-01-01 11:15:57.82	152.30	6.91	-49.0	-51.3	21.0	6.07e-01	0	49	0	57147392	61	4648
2026-01-01 11:16:00.79	152.31	7.15	-49.1	-51.6	20.8	6.07e-01	0	50	0	62390272	61	4792
2026-01-01 11:16:03.75	152.31	7.39	-48.8	-51.1	21.3	6.07e-01	0	50	0	68157440	61	4517
2026-01-01 11:16:06.71	152.31	7.64	-48.8	-51.0	21.4	6.06e-01	0	50	0	73400320	61	4468
2026-01-01 11:16:09.68	152.32	7.89	-48.9	-51.2	21.2	6.06e-01	0	50	0	79167488	61	4594
2026-01-01 11:16:12.63	152.32	8.15	-48.7	-50.9	21.6	6.07e-01	0	51	0	84410368	61	4398
2026-01-01 11:16:15.60	152.32	8.40	-48.7	-50.9	21.6	6.07e-01	0	51	0	90177536	60	4690
2026-01-01 11:16:18.56	152.33	8.66	-48.9	-51.1	21.4	6.05e-01	0	51	0	95944704	60	4808
2026-01-01 11:16:21.54	152.33	8.93	-48.9	-51.2	21.4	6.07e-01	0	51	0	101187584	60	4840
2026-01-01 11:16:24.53	152.33	9.19	-48.7	-50.9	21.7	6.04e-01	0	51	0	106954752	60	4675
2026-01-01 11:16:27.50	152.33	9.46	-49.1	-51.3	21.3	6.07e-01	0	51	0	112721920	60	4925
2026-01-01 11:16:30.45	152.34	9.74	-48.9	-51.1	21.6	6.07e-01	0	51	0	117964800	60	4766
2026-01-01 11:16:33.42	152.34	10.01	-48.9	-51.0	21.6	6.05e-01	0	51	0	123731968	60	4755
2026-01-01 11:16:36.39	152.34	10.29	-49.0	-51.2	21.5	6.07e-01	0	52	0	128974848	60	4830
2026-01-01 11:16:39.36	152.34	10.57	-48.5	-50.5	22.2	6.06e-01	0	52	0	134742016	60	4473
2026-01-01 11:16:42.33	152.34	10.86	-48.6	-50.7	22.0	6.06e-01	0	52	0	140509184	60	4560
2026-01-01 11:16:45.30	152.34	11.15	-48.4	-50.4	22.3	6.05e-01	0	52	0	145752064	60	4396
2026-01-01 11:16:48.27	152.35	11.45	-48.3	-50.2	22.5	6.07e-01	0	52	0	151519232	60	4302
2026-01-01 11:16:51.24	152.35	11.75	-48.3	-50.2	22.5	6.05e-01	0	52	0	156762112	60	4329
2026-01-01 11:16:54.21	152.35	12.05	-48.5	-50.4	22.7	6.06e-01	0	52	0	162529280	59	4690
2026-01-01 11:16:57.18	152.35	12.36	-48.5	-50.3	22.7	6.06e-01	0	52	0	168296448	59	4646
2026-01-01 11:17:00.15	152.35	12.67	-48.4	-50.3	22.8	6.06e-01	0	52	0	173539328	59	4612
2026-01-01 11:17:03.12	152.35	12.98	-48.5	-50.4	22.8	6.08e-01	0	52	0	179306496	59	4659
2026-01-01 11:17:06.08	152.35	13.30	-48.4	-50.2	23.0	6.08e-01	0	52	0	185073664	59	4566
2026-01-01 11:17:09.05	152.35	13.63	-48.6	-50.5	22.7	6.06e-01	0	53	0	190316544	59	4739
2026-01-01 11:17:12.02	152.35	13.96	-48.9	-50.8	22.4	6.08e-01	0	52	0	196083712	59	4909
2026-01-01 11:17:15.00	152.35	14.29	-48.7	-50.7	22.2	6.06e-01	0	53	0	201326592	60	4592
2026-01-01 11:17:17.98	152.34	14.63	-48.6	-50.5	22.4	6.07e-01	0	53	0	207093760	60	4469
2026-01-01 11:17:20.93	152.34	14.98	-48.3	-50.2	22.7	6.07e-01	0	53	0	212860928	60	4304
2026-01-01 11:17:23.90	152.34	15.33	-48.5	-50.4	22.7	6.08e-01	0	53	0	218103808	59	4667
2026-01-01 11:17:26.86	152.34	15.68	-48.7	-50.6	22.7	6.05e-01	0	53	0	223870976	59	4766
2026-01-01 11:17:29.81	152.34	16.05	-48.2	-49.9	23.3	6.07e-01	0	53	0	229638144	59	4417
2026-01-01 11:17:32.78	152.33	16.41	-48.2	-49.9	23.3	6.07e-01	0	53	0	234881024	59	4433
2026-01-01 11:17:35.75	152.33	16.79	-48.0	-49.7	23.5	6.05e-01	0	53	0	240648192	59	4318
2026-01-01 11:17:38.72	152.33	17.17	-48.3	-50.0	23.3	6.07e-01	0	53	0	245891072	59	4456
2026-01-01 11:17:41.70	152.32	17.56	-48.6	-50.4	22.9	6.08e-01	0	53	0	251658240	59	4684
2026-01-01 11:17:44.66	152.32	17.95	-48.8	-50.7	22.6	6.07e-01	0	54	0	256901120	59	4846
2026-01-01 11:17:47.63	152.31	18.36	-48.7	-50.7	22.3	6.07e-01	0	53	0	262668288	60	4579
2026-01-01 11:17:50.59	152.31	18.76	-48.6	-50.6	22.4	6.06e-01	0	54	0	268435456	60	4506
2026-01-01 11:17:53.57	152.30	19.18	-48.6	-50.5	22.6	6.05e-01	0	54	0	273678336	60	4446
2026-01-01 11:17:56.55	152.30	19.61	-48.8	-50.7	22.3	6.05e-01	0	54	0	279445504	60	4582
2026-01-01 11:17:59.51	152.29	20.04	-48.4	-50.2	22.8	6.07e-01	0	54	0	285212672	60	4302
2026-01-01 11:18:02.49	152.28	20.48	-48.4	-50.2	22.8	6.05e-01	0	54	0	290455552	60	4299
2026-01-01 11:18:05.46	152.28	20.93	-48.4	-50.2	22.8	6.07e-01	0	54	0	296222720	60	4322
2026-01-01 11:18:08.42	152.27	21.39	-48.7	-50.6	22.4	6.06e-01	0	54	0	301989888	60	4524
2026-01-01 11:18:11.38	152.26	21.86	-48.5	-50.3	22.7	6.04e-01	0	54	0	307232768	60	4390
2026-01-01 11:18:14.35	152.25	22.33	-48.6	-50.4	22.6	6.09e-01	0	54	0	312999936	60	4441
2026-01-01 11:18:17.32	152.24	22.82	-48.9	-50.9	22.2	6.06e-01	0	54	0	318242816	60	4682
2026-01-01 11:18:20.29	152.23	23.32	-48.5	-50.3	22.9	6.05e-01	0	54	0	324009984	59	4641
2026-01-01 11:18:23.26	152.22	23.83	-48.6	-50.4	23.0	6.06e-01	0	54	0	329777152	59	4666
2026-01-01 11:18:26.21	152.20	24.34	-48.6	-50.5	23.0	6.07e-01	0	54	0	335020032	59	4706
2026-01-01 11:18:29.17	152.19	24.87	-48.7	-50.6	22.9	6.07e-01	0	54	0	340787200	59	4782
2026-01-01 11:18:32.13	152.18	25.41	-48.4	-50.2	23.3	6.05e-01	0	54	0	346030080	59	4548
2026-01-01 11:18:35.10	152.16	25.97	-48.9	-50.8	22.7	6.05e-01	0	54	0	351797248	59	4895
2026-01-01 11:18:38.08	152.15	26.54	-48.9	-50.9	22.3	6.05e-01	0	54	0	357564416	60	4675
2026-01-01 11:18:41.06	152.13	27.12	-48.5	-50.3	22.9	6.04e-01	0	54	0	362807296	60	4354
2026-01-01 11:18:44.01	152.11	27.71	-48.8	-50.7	22.5	6.06e-01	0	54	0	368574464	60	4553
2026-01-01 11:18:46.98	152.09	28.32	-47.9	-49.5	23.9	6.05e-01	0	54	0	373817344	59	4224
2026-01-01 11:18:49.95	152.07	28.94	-47.9	-49.5	24.0	6.07e-01	0	54	0	379584512	59	4217
2026-01-01 11:18:52.92	152.05	29.58	-48.1	-49.7	23.8	6.05e-01	0	55	0	385351680	59	4325
2026-01-01 11:18:55.89	152.03	30.24	-48.1	-49.7	23.7	6.04e-01	0	55	0	390594560	59	4322
2026-01-01 11:18:58.86	152.00	30.91	-48.2	-49.8	23.6	6.03e-01	0	55	0	396361728	59	4382
2026-01-01 11:19:01.84	151.98	31.60	-48.4	-50.0	23.5	6.07e-01	0	55	0	402128896	59	4490
2026-01-01 11:19:04.82	151.95	32.30	-48.1	-49.7	23.8	6.05e-01	0	55	0	407371776	59	4319
2026-01-01 11:19:07.79	151.92	33.03	-48.1	-49.7	23.8	6.06e-01	0	55	0	413138944	59	4296
2026-01-01 11:19:10.76	151.89	33.77	-48.5	-50.2	23.3	6.07e-01	0	55	0	418906112	59	4575
2026-01-01 11:19:13.73	151.85	34.53	-48.7	-50.5	23.0	6.06e-01	0	55	0	424148992	59	4723
2026-01-01 11:19:16.69	151.82	35.31	-48.9	-50.9	22.4	6.06e-01	0	55	0	429916160	60	4673
2026-01-01 11:19:19.67	151.78	36.12	-49.2	-51.2	22.0	6.08e-01	0	55	0	435159040	60	4858
2026-01-01 11:19:22.64	151.74	36.94	-49.4	-51.5	21.8	6.05e-01	0	55	0	440926208	61	4730
2026-01-01 11:19:25.62	151.69	37.79	-49.9	-52.3	21.1	6.08e-01	0	55	0	446693376	61	5165
2026-01-01 11:19:28.58	151.65	38.66	-49.6	-51.9	21.4	6.06e-01	0	55	0	451936256	62	4667
2026-01-01 11:19:31.55	151.60	39.55	-49.7	-51.9	21.4	6.06e-01	0	55	0	457703424	62	4700
2026-01-01 11:19:34.53	151.55	40.47	-49.2	-51.2	22.1	6.06e-01	0	55	0	463470592	62	4327
2026-01-01 11:19:37.50	151.49	41.42	-49.2	-51.2	22.1	6.07e-01	0	55	0	468713472	61	4595
2026-01-01 11:19:40.46	151.43	42.39	-49.0	-51.0	22.3	6.06e-01	0	55	0	474480640	61	4481
2026-01-01 11:19:43.43	151.36	43.39	-49.0	-51.0	22.3	6.07e-01	0	55	0	479723520	61	4464
2026-01-01 11:19:46.40	151.29	44.41	-48.4	-50.2	23.1	6.05e-01	0	55	0	485490688	60	4324
2026-01-01 11:19:49.37	151.21	45.47	-48.8	-50.7	22.6	6.07e-01	0	55	0	491257856	60	4585
2026-01-01 11:19:52.34	151.13	46.55	-48.5	-50.2	23.4	6.04e-01	0	55	0	496500736	59	4562
2026-01-01 11:19:55.31	151.04	47.67	-48.7	-50.5	23.1	6.06e-01	0	56	0	502267904	59	4710
2026-01-01 11:19:58.29	150.94	48.82	-48.4	-50.1	23.5	6.07e-01	0	56	0	507510784	59	4532
2026-01-01 11:20:01.25	150.84	50.00	-48.3	-49.9	23.7	6.00e-01	0	55	0	513277952	59	4406
2026-01-01 11:20:04.22	150.72	51.21	-48.3	-50.0	23.5	6.03e-01	0	56	0	519045120	59	4468
2026-01-01 11:20:07.19	150.59	52.45	-47.6	-49.1	24.4	6.02e-01	0	56	0	524288000	58	4270
2026-01-01 11:20:10.16	150.45	53.73	-47.4	-48.9	24.7	6.04e-01	0	56	0	530055168	58	4147
2026-01-01 11:20:13.14	150.30	55.05	-47.9	-49.4	24.2	6.02e-01	0	56	0	535822336	58	4429
2026-01-01 11:20:16.11	150.13	56.39	-48.4	-50.1	23.6	6.04e-01	0	56	0	541065216	59	4506
2026-01-01 11:20:19.08	149.94	57.77	-48.7	-50.5	23.2	6.02e-01	0	56	0	546832384	59	4710
2026-01-01 11:20:22.04	149.73	59.18	-48.7	-50.6	22.7	6.02e-01	0	56	0	552075264	60	4514
2026-01-01 11:20:25.02	149.49	60.64	-49.3	-51.4	21.9	6.04e-01	0	56	0	557842432	60	4958
2026-01-01 11:20:27.98	149.23	62.12	-49.6	-51.8	21.6	6.03e-01	0	56	0	563609600	61	4913
2026-01-01 11:20:30.96	148.92	63.64	-50.1	-52.6	20.9	6.04e-01	0	56	0	568852480	62	5050
2026-01-01 11:20:33.92	148.58	65.18	-50.7	-53.5	20.0	6.02e-01	0	56	0	574619648	63	5337
2026-01-01 11:20:36.90	148.17	66.77	-51.0	-54.1	19.3	6.03e-01	0	56	0	580386816	64	5386
2026-01-01 11:20:39.88	147.70	68.39	-51.3	-54.7	18.8	6.02e-01	0	56	0	585629696	64	5726
2026-01-01 11:20:42.85	147.15	70.03	-51.4	-54.8	18.6	6.04e-01	0	56	0	591396864	65	5493
2026-01-01 11:20:45.81	146.48	71.69	-50.9	-53.9	19.5	6.03e-01	0	56	0	597164032	65	4937
2026-01-01 11:20:48.79	145.67	73.39	-50.6	-53.4	20.0	6.04e-01	0	56	0	602406912	64	4962
2026-01-01 11:20:51.75	144.66	75.10	-50.3	-52.9	20.4	6.03e-01	0	56	0	608174080	64	4691
2026-01-01 11:20:54.73	143.37	76.84	-50.5	-53.2	20.3	6.01e-01	0	56	0	613416960	63	5113
2026-01-01 11:20:57.70	141.67	78.58	-49.6	-51.8	21.5	6.03e-01	0	56	0	619184128	62	4644
2026-01-01 11:21:00.67	139.33	80.33	-48.8	-50.6	22.7	6.04e-01	0	56	0	624951296	61	4265
2026-01-01 11:21:03.65	135.93	82.08	-48.5	-50.3	23.0	6.03e-01	0	56	0	630194176	60	4374
2026-01-01 11:21:06.62	130.61	83.79	-48.9	-50.8	22.5	6.03e-01	0	56	0	635961344	60	4619
2026-01-01 11:21:09.59	121.37	85.41	-49.3	-51.3	22.0	6.04e-01	0	56	0	641204224	60	4922
2026-01-01 11:21:12.57	103.05	86.81	-50.4	-53.0	20.4	6.04e-01	0	56	0	646971392	62	5318
2026-01-01 11:21:15.53	67.91	87.51	-50.8	-53.7	19.7	6.02e-01	0	56	0	652738560	64	5106
2026-01-01 11:21:18.50	30.04	86.99	-50.6	-53.4	20.0	6.03e-01	0	56	0	657981440	64	4942
2026-01-01 11:21:21.48	9.27	85.67	-50.3	-52.9	20.3	6.02e-01	0	56	0	663748608	64	4675
2026-01-01 11:21:24.45	358.98	84.08	-50.0	-52.4	20.9	6.03e-01	0	56	0	669515776	63	4692
2026-01-01 11:21:27.41	353.20	82.38	-49.3	-51.4	22.0	6.03e-01	0	56	0	674758656	62	4413
2026-01-01 11:21:30.38	349.55	80.65	-49.0	-51.0	22.3	6.03e-01	0	56	0	680525824	61	4462
2026-01-01 11:21:33.35	347.07	78.90	-50.1	-52.6	20.8	6.03e-01	0	56	0	685768704	62	5057
2026-01-01 11:21:36.32	345.27	77.16	-50.8	-53.7	19.7	6.03e-01	0	56	0	691535872	63	5452
2026-01-01 11:21:39.29	343.92	75.42	-51.0	-54.1	19.3	6.02e-01	0	56	0	697303040	64	5377
2026-01-01 11:21:42.26	342.87	73.71	-51.0	-54.1	19.3	6.03e-01	0	56	0	702545920	64	5365
2026-01-01 11:21:45.22	342.03	72.02	-50.8	-53.7	19.7	6.03e-01	0	56	0	708313088	64	5127
2026-01-01 11:21:48.19	341.34	70.35	-51.6	-55.2	18.2	6.03e-01	0	56	0	713555968	65	5779
2026-01-01 11:21:51.16	340.76	68.70	-51.6	-55.2	18.2	6.02e-01	0	56	0	719323136	65	5741
2026-01-01 11:21:54.13	340.28	67.09	-51.0	-54.0	19.3	6.03e-01	0	56	0	725090304	65	5012
2026-01-01 11:21:57.10	339.86	65.50	-50.6	-53.4	19.9	6.03e-01	0	56	0	730333184	64	4966
2026-01-01 11:22:00.07	339.51	63.95	-50.3	-52.9	20.5	6.06e-01	0	56	0	736100352	63	4977
2026-01-01 11:22:03.04	339.20	62.43	-49.9	-52.3	21.1	6.03e-01	0	56	0	741867520	62	4883
2026-01-01 11:22:06.01	338.92	60.94	-49.7	-51.9	21.4	6.03e-01	0	56	0	747110400	62	4668
2026-01-01 11:22:08.98	338.68	59.49	-49.7	-52.0	21.4	6.03e-01	0	56	0	752877568	61	4986
2026-01-01 11:22:11.94	338.47	58.08	-48.5	-50.3	23.0	6.03e-01	0	56	0	758120448	60	4384
2026-01-01 11:22:14.90	338.28	56.70	-48.3	-50.0	23.2	6.02e-01	0	56	0	763887616	60	4220
2026-01-01 11:22:17.87	338.10	55.35	-48.6	-50.5	22.9	6.05e-01	0	56	0	769654784	60	4461
2026-01-01 11:22:20.83	337.95	54.03	-47.8	-49.3	24.3	6.03e-01	0	56	0	774897664	59	4114
2026-01-01 11:22:23.79	337.81	52.76	-47.9	-49.4	24.1	6.02e-01	0	56	0	780664832	59	4165
2026-01-01 11:22:26.77	337.68	51.50	-48.0	-49.5	24.1	6.03e-01	0	57	0	786432000	58	4488
2026-01-01 11:22:29.74	337.56	50.29	-48.3	-49.9	23.7	6.03e-01	0	57	0	791674880	58	4665
2026-01-01 11:22:32.70	337.45	49.11	-48.5	-50.3	22.9	6.04e-01	0	56	0	797442048	60	4389
2026-01-01 11:22:35.67	337.35	47.96	-48.5	-50.3	23.3	6.02e-01	0	57	0	802684928	59	4608
2026-01-01 11:22:38.65	337.26	46.84	-48.5	-50.2	23.3	6.00e-01	0	57	0	808452096	59	4593
2026-01-01 11:22:41.63	337.18	45.74	-48.4	-50.1	23.5	6.02e-01	0	57	0	814219264	59	4508
2026-01-01 11:22:44.60	337.10	44.69	-48.6	-50.4	23.2	6.03e-01	0	57	0	819462144	59	4662
2026-01-01 11:22:47.57	337.03	43.66	-48.7	-50.4	23.1	6.03e-01	0	56	0	825229312	59	4704
2026-01-01 11:22:50.54	336.96	42.65	-48.6	-50.4	22.8	6.04e-01	0	56	0	830472192	60	4413
2026-01-01 11:22:53.49	336.90	41.69	-49.0	-50.9	22.3	6.04e-01	0	56	0	836239360	60	4694
2026-01-01 11:22:56.46	336.84	40.74	-49.2	-51.3	22.0	6.05e-01	0	57	0	842006528	60	4890
2026-01-01 11:22:59.43	336.79	39.82	-49.3	-51.4	21.8	6.04e-01	0	57	0	847249408	60	4954
2026-01-01 11:23:02.39	336.74	38.92	-49.2	-51.2	22.0	6.01e-01	0	56	0	853016576	61	4577
2026-01-01 11:23:05.37	336.69	38.05	-49.0	-51.0	22.2	6.01e-01	0	57	0	858783744	61	4490
2026-01-01 11:23:08.34	336.65	37.20	-49.2	-51.3	21.9	6.03e-01	0	56	0	864026624	61	4649
2026-01-01 11:23:11.31	336.61	36.37	-49.0	-51.0	22.2	6.03e-01	0	56	0	869793792	61	4470
2026-01-01 11:23:14.27	336.57	35.57	-49.0	-51.0	22.2	6.00e-01	0	56	0	875036672	61	4476
2026-01-01 11:23:17.23	336.54	34.78	-48.4	-50.3	22.9	6.03e-01	0	57	0	880803840	60	4341
2026-01-01 11:23:20.19	336.50	34.02	-48.4	-50.1	23.4	6.05e-01	0	57	0	886571008	59	4517
2026-01-01 11:23:23.17	336.47	33.27	-48.0	-49.6	23.8	6.04e-01	0	57	0	891813888	59	4286
2026-01-01 11:23:26.13	336.44	32.55	-47.6	-49.0	24.3	6.02e-01	0	57	0	897581056	58	4239
2026-01-01 11:23:29.10	336.42	31.84	-47.7	-49.2	24.2	6.02e-01	0	57	0	902823936	58	4337
2026-01-01 11:23:32.07	336.39	31.15	-47.7	-49.2	24.2	6.02e-01	0	57	0	908591104	58	4326
2026-01-01 11:23:35.03	336.37	30.48	-48.1	-49.7	23.7	6.03e-01	0	57	0	914358272	58	4570
2026-01-01 11:23:38.00	336.34	29.83	-48.1	-49.7	23.7	6.03e-01	0	57	0	919601152	58	4588
2026-01-01 11:23:40.96	336.32	29.19	-47.9	-49.5	23.8	6.03e-01	0	57	0	925368320	58	4469
2026-01-01 11:23:43.93	336.30	28.56	-48.0	-49.6	23.7	6.05e-01	0	57	0	930611200	58	4501
2026-01-01 11:23:46.90	336.28	27.95	-47.5	-48.9	24.4	6.02e-01	0	57	0	936378368	58	4178
2026-01-01 11:23:49.87	336.27	27.36	-47.8	-49.3	24.1	6.01e-01	0	57	0	942145536	58	4373
2026-01-01 11:23:52.84	336.25	26.78	-48.2	-49.9	23.5	6.03e-01	0	57	0	947388416	58	4669
2026-01-01 11:23:55.82	336.24	26.20	-48.3	-50.1	23.4	6.03e-01	0	57	0	953155584	59	4500
2026-01-01 11:23:58.78	336.22	25.65	-48.3	-50.1	23.3	6.04e-01	0	57	0	958922752	59	4500
2026-01-01 11:24:01.74	336.21	25.11	-48.6	-50.5	22.9	6.06e-01	0	57	0	964165632	59	4721
2026-01-01 11:24:04.70	336.20	24.58	-48.4	-50.3	22.7	6.05e-01	0	57	0	969932800	60	4368
2026-01-01 11:24:07.66	336.18	24.06	-48.4	-50.3	22.7	6.05e-01	0	57	0	975175680	60	4363
2026-01-01 11:24:10.63	336.17	23.55	-48.4	-50.3	22.6	6.04e-01	0	57	0	980942848	60	4344
2026-01-01 11:24:13.60	336.16	23.05	-48.5	-50.3	22.9	6.02e-01	0	57	0	986185728	59	4642
2026-01-01 11:24:16.58	336.15	22.56	-48.5	-50.4	22.7	6.05e-01	0	57	0	991952896	59	4682
2026-01-01 11:24:19.55	336.15	22.08	-48.9	-50.9	22.0	6.02e-01	0	57	0	997720064	59	4972
2026-01-01 11:24:22.52	336.14	21.61	-49.4	-52.0	20.4	6.01e-01	0	57	0	1002962944	61	5021
2026-01-01 11:24:25.49	336.13	21.15	-49.7	-52.6	19.7	6.04e-01	0	57	0	1008730112	61	5385
2026-01-01 11:24:28.46	336.12	20.70	-49.6	-52.4	19.9	6.03e-01	0	57	0	1014497280	61	5259
2026-01-01 11:24:31.41	336.12	20.26	-49.3	-51.9	20.5	6.03e-01	0	57	0	1019740160	61	4942
2026-01-01 11:24:34.39	336.11	19.82	-48.4	-50.5	21.9	6.02e-01	0	57	0	1025507328	60	4483
2026-01-01 11:24:37.36	336.11	19.40	-48.3	-50.2	22.5	6.03e-01	0	57	0	1031274496	59	4590
2026-01-01 11:24:40.32	336.10	18.98	-48.2	-50.0	22.9	6.04e-01	0	57	0	1036517376	59	4481
2026-01-01 11:24:43.29	336.10	18.57	-48.7	-50.7	22.4	6.01e-01	0	57	0	1042284544	59	4830
2026-01-01 11:24:46.24	336.09	18.17	-48.3	-50.1	22.6	6.03e-01	0	57	0	1047527424	60	4278
2026-01-01 11:24:49.20	336.09	17.78	-48.5	-50.4	22.8	6.02e-01	0	57	0	1053294592	59	4673
2026-01-01 11:24:52.17	336.09	17.39	-48.5	-50.4	22.7	6.03e-01	0	57	0	1059061760	59	4699
2026-01-01 11:24:55.13	336.09	17.01	-48.4	-50.2	22.9	6.04e-01	0	57	0	1064304640	59	4598
2026-01-01 11:24:58.10	336.08	16.63	-48.5	-50.4	22.7	6.03e-01	0	57	0	1070071808	59	4694
2026-01-01 11:25:01.08	336.08	16.26	-48.9	-50.9	22.3	6.03e-01	0	57	0	1075314688	59	4932
2026-01-01 11:25:04.03	336.08	15.90	-48.6	-50.6	22.6	6.03e-01	0	57	0	1081081856	59	4760
2026-01-01 11:25:07.00	336.08	15.54	-48.5	-50.3	22.8	6.05e-01	0	57	0	1086324736	59	4634
2026-01-01 11:25:09.95	336.08	15.19	-48.3	-50.1	23.0	6.03e-01	0	57	0	1092091904	59	4524
2026-01-01 11:25:12.92	336.08	14.84	-48.4	-50.2	22.8	6.05e-01	0	57	0	1097859072	59	4591
2026-01-01 11:25:15.90	336.08	14.50	-48.4	-50.2	22.8	6.02e-01	0	57	0	1103101952	59	4585
2026-01-01 11:25:18.86	336.08	14.17	-48.2	-50.0	23.0	6.04e-01	0	57	0	1108869120	59	4465
2026-01-01 11:25:21.82	336.08	13.84	-48.3	-50.1	22.9	6.05e-01	0	57	0	1114636288	59	4537
2026-01-01 11:25:24.79	336.08	13.51	-48.3	-50.2	22.8	6.02e-01	0	57	0	1119879168	59	4571
2026-01-01 11:25:27.77	336.08	13.19	-48.6	-50.5	22.4	6.02e-01	0	57	0	1125646336	59	4751
2026-01-01 11:25:30.72	336.08	12.88	-48.7	-50.8	22.2	6.03e-01	0	57	0	1130889216	59	4881
2026-01-01 11:25:33.69	336.09	12.56	-48.4	-50.4	22.1	6.04e-01	0	57	0	1136656384	60	4414
2026-01-01 11:25:36.65	336.09	12.26	-48.5	-50.5	22.4	6.04e-01	0	57	0	1141899264	59	4736
2026-01-01 11:25:39.63	336.09	11.95	-48.4	-50.4	22.5	6.03e-01	0	57	0	1147666432	59	4675
2026-01-01 11:25:42.60	336.09	11.65	-48.6	-50.5	22.3	6.02e-01	0	57	0	1153433600	59	4748
2026-01-01 11:25:45.58	336.09	11.36	-48.6	-50.6	22.2	6.03e-01	0	57	0	1158676480	59	4767
2026-01-01 11:25:48.54	336.10	11.07	-48.5	-50.5	22.3	6.02e-01	0	57	0	1164443648	59	4711
2026-01-01 11:25:51.49	336.10	10.78	-48.7	-50.7	22.1	6.04e-01	0	57	0	1170210816	59	4845
2026-01-01 11:25:54.46	336.10	10.50	-48.7	-50.8	22.0	6.04e-01	0	57	0	1175453696	59	4906
2026-01-01 11:25:57.42	336.11	10.22	-48.7	-50.8	21.9	6.04e-01	0	57	0	1181220864	59	4884
2026-01-01 11:26:00.39	336.11	9.94	-48.5	-50.6	21.8	6.06e-01	0	57	0	1186463744	60	4515
2026-01-01 11:26:03.37	336.11	9.67	-48.4	-50.5	21.9	6.03e-01	0	57	0	1192230912	60	4475
2026-01-01 11:26:06.34	336.12	9.40	-48.5	-50.8	21.5	6.05e-01	0	57	0	1197998080	60	4624
2026-01-01 11:26:09.31	336.12	9.13	-48.7	-50.9	21.4	6.03e-01	0	57	0	1203240960	60	4701
2026-01-01 11:26:12.27	336.13	8.87	-48.8	-51.1	21.2	6.03e-01	0	57	0	1209008128	60	4807
2026-01-01 11:26:15.23	336.13	8.61	-48.9	-51.3	21.0	6.03e-01	0	57	0	1214775296	60	4906
2026-01-01 11:26:18.21	336.14	8.35	-48.6	-50.7	21.6	6.05e-01	0	57	0	1220018176	60	4580
2026-01-01 11:26:21.18	336.14	8.10	-48.6	-50.7	21.5	6.03e-01	0	57	0	1225785344	60	4591
2026-01-01 11:26:24.15	336.15	7.84	-48.6	-50.8	21.4	6.03e-01	0	57	0	1231028224	60	4648
2026-01-01 11:26:27.12	336.15	7.59	-48.7	-50.9	21.2	6.04e-01	0	57	0	1236795392	60	4700
2026-01-01 11:26:30.08	336.16	7.35	-49.0	-51.5	20.8	6.03e-01	0	57	0	1242562560	60	5002
2026-01-01 11:26:33.04	336.16	7.11	-48.9	-51.4	20.8	6.02e-01	0	57	0	1247805440	60	4948
2026-01-01 11:26:36.01	336.17	6.87	-49.1	-51.7	20.3	6.02e-01	0	57	0	1253572608	60	5125
2026-01-01 11:26:38.99	336.17	6.63	-49.2	-51.9	20.2	6.03e-01	0	57	0	1258815488	60	5255
2026-01-01 11:26:41.96	336.18	6.39	-49.3	-52.0	20.1	6.02e-01	0	57	0	1264582656	61	4987
2026-01-01 11:26:44.92	336.18	6.16	-49.5	-52.5	19.6	6.04e-01	0	57	0	1270349824	61	5290
2026-01-01 11:26:47.89	336.19	5.92	-49.4	-52.3	19.7	6.03e-01	0	57	0	1275592704	61	5210
2026-01-01 11:26:50.86	336.20	5.70	-49.5	-52.4	19.6	6.04e-01	0	57	0	1281359872	61	5261
2026-01-01 11:26:53.83	336.20	5.47	-49.5	-52.5	19.5	6.02e-01	0	57	0	1287127040	61	5311
2026-01-01 11:26:56.80	336.21	5.24	-49.6	-52.6	19.3	6.02e-01	0	57	0	1292369920	61	5370
2026-01-01 11:26:59.77	336.22	5.02	-49.8	-53.2	18.8	6.02e-01	0	57	0	1298137088	61	5725
2026-01-01 11:27:02.74	336.22	4.80	-49.7	-69.3	3.8	7.45e-01	0	57	104	1301282816	63	32922
2026-01-01 11:27:05.72	336.23	4.58	-53.3	-73.1	3.8	7.47e-01	0	57	104	1301282816	68	38196
2026-01-01 11:27:08.68	336.24	4.36	-54.3	-74.2	3.8	7.46e-01	0	57	104	1301282816	70	38515
2026-01-01 11:27:11.66	336.24	4.15	-54.4	-74.3	3.8	7.45e-01	0	57	104	1301282816	71	36794
2026-01-01 11:27:14.62	336.25	3.94	-54.5	-74.4	3.8	7.45e-01	0	57	104	1301282816	71	37106
2026-01-01 11:27:17.58	336.26	3.73	-54.6	-74.5	3.8	7.44e-01	0	57	104	1301282816	71	37489
2026-01-01 11:27:20.55	336.26	3.52	-54.6	-74.5	3.8	7.44e-01	0	57	104	1301282816	71	37595
2026-01-01 11:27:23.51	336.27	3.31	-54.6	-74.5	3.8	7.46e-01	0	57	104	1301282816	71	37671
2026-01-01 11:27:26.48	336.28	3.10	-54.6	-74.5	3.8	7.46e-01	0	57	104	1301282816	71	37695
2026-01-01 11:27:29.44	336.29	2.90	-54.6	-74.5	3.8	7.46e-01	0	57	104	1301282816	71	37669

#Closed at: 2026-01-01 11:27:30
#Recorded file [1301 MB]: D:/Data/31026_260101_142701.dat