passes_logs/2026/01/01/R3.0SM8_Murmansk_STILSPACE/R3.0SM8_Murmansk_STILSPACE__20260101_000410_NOAA_21_JPSS-2_rec.log

#Pass ID: 20260101_000410_NOAA 21 (JPSS-2)
#Satellite: NOAA 21 (JPSS-2)
#Configuration: NOAA-21
#almurnet v.1.7.20240730
#Start time: 2026-01-01 00:07:52

#Version: 2.2.20231116
#Station: R3.0SM8_Murmansk_STILSPACE
#Location: 33.092731 lon 68.902999 lat
#TLE: 1 54234U 22150A   25365.42224288  .00000199  00000+0  11529-3 0  9990
#TLE: 2 54234  98.7483 301.4995 0001320 356.2106   3.9060 14.19530300162743

#Time	Az	El	Level	Level2	SNR	BER	BlckErr	Temp	State	Recorded	gain1	gain2
2026-01-01 00:07:52.31	31.35	24.18	-54.8	-74.6	3.8	7.45e-01	0	62	0	0	71	38227
2026-01-01 00:07:55.26	31.58	24.62	-53.2	-64.6	3.8	1.49e+00	0	62	104	0	69	13220
2026-01-01 00:07:58.24	31.81	25.07	-53.1	-64.6	3.8	1.49e+00	0	62	104	0	69	13212
2026-01-01 00:08:01.22	32.05	25.53	-53.2	-64.6	3.8	1.49e+00	0	62	104	0	69	13210
2026-01-01 00:08:04.20	32.29	25.99	-53.1	-64.6	3.8	1.49e+00	0	62	104	0	68	13951
2026-01-01 00:08:07.19	32.55	26.47	-52.9	-64.6	3.8	1.49e+00	0	62	104	0	68	13969
2026-01-01 00:08:10.18	32.81	26.95	-53.0	-64.5	3.8	1.49e+00	0	62	104	0	68	13858
2026-01-01 00:08:13.17	33.07	27.45	-53.0	-64.4	3.8	1.49e+00	0	62	104	0	68	13676
2026-01-01 00:08:16.14	33.35	27.94	-53.0	-64.5	3.8	1.49e+00	0	62	104	0	68	13743
2026-01-01 00:08:19.11	33.63	28.45	-52.9	-64.4	3.8	1.49e+00	0	62	104	0	68	13720
2026-01-01 00:08:22.11	33.92	28.97	-53.0	-64.4	3.8	1.49e+00	0	62	104	0	68	13660
2026-01-01 00:08:25.06	34.22	29.49	-53.0	-64.1	3.8	1.49e+00	0	62	104	0	68	13149
2026-01-01 00:08:28.02	34.53	30.02	-53.0	-64.2	3.8	1.49e+00	0	62	104	0	68	13268
2026-01-01 00:08:30.98	34.85	30.56	-53.0	-64.4	3.8	1.49e+00	0	62	104	0	68	13600
2026-01-01 00:08:33.93	35.18	31.11	-52.9	-63.2	3.8	1.49e+00	0	62	104	0	68	11831
2026-01-01 00:08:36.86	35.51	31.66	-52.0	-58.2	5.4	6.87e-01	0	62	0	0	67	7045
2026-01-01 00:08:39.76	35.86	32.21	-48.2	-49.9	13.4	3.20e-05	0	62	0	9437184	59	4335
2026-01-01 00:08:42.66	36.21	32.78	-45.9	-47.0	16.2	0.00e+00	0	62	0	17825792	55	3881
2026-01-01 00:08:45.57	36.58	33.36	-45.4	-46.4	16.8	0.00e+00	0	62	0	27262976	53	4064
2026-01-01 00:08:48.47	36.96	33.94	-45.5	-46.5	16.6	0.00e+00	0	62	0	36700160	53	4145
2026-01-01 00:08:51.38	37.36	34.54	-45.6	-46.6	16.6	0.00e+00	0	62	0	45088768	53	4167
2026-01-01 00:08:54.29	37.77	35.15	-46.2	-47.4	15.8	0.00e+00	0	62	0	54525952	54	4323
2026-01-01 00:08:57.20	38.20	35.77	-46.6	-47.9	15.3	0.00e+00	0	62	0	63963136	55	4308
2026-01-01 00:09:00.11	38.64	36.39	-46.6	-47.8	15.4	0.00e+00	0	62	0	72351744	55	4280
2026-01-01 00:09:03.02	39.10	37.03	-46.9	-48.2	15.0	0.00e+00	0	62	0	81788928	55	4481
2026-01-01 00:09:05.93	39.57	37.68	-47.1	-48.5	14.8	0.00e+00	0	62	0	91226112	56	4379
2026-01-01 00:09:08.84	40.07	38.34	-47.3	-48.9	14.5	1.50e-06	0	62	0	99614720	56	4554
2026-01-01 00:09:11.75	40.59	39.01	-47.8	-49.4	13.9	3.80e-06	0	62	0	109051904	57	4567
2026-01-01 00:09:14.65	41.12	39.69	-47.1	-48.5	14.9	7.00e-07	0	62	0	118489088	57	4109
2026-01-01 00:09:17.54	41.68	40.38	-46.9	-48.3	15.1	7.00e-07	0	62	0	126877696	56	4255
2026-01-01 00:09:20.44	42.26	41.08	-46.8	-48.1	15.2	0.00e+00	0	62	0	136314880	56	4174
2026-01-01 00:09:23.34	42.87	41.79	-46.9	-48.2	15.2	0.00e+00	0	62	0	145752064	56	4206
2026-01-01 00:09:26.26	43.50	42.52	-47.0	-48.3	15.1	0.00e+00	0	62	0	154140672	56	4261
2026-01-01 00:09:29.16	44.17	43.25	-47.2	-48.6	14.8	0.00e+00	0	62	0	163577856	56	4420
2026-01-01 00:09:32.06	44.86	43.99	-47.5	-49.1	14.3	0.00e+00	0	62	0	173015040	57	4393
2026-01-01 00:09:34.95	45.58	44.74	-47.6	-49.1	14.2	2.20e-06	0	62	0	181403648	57	4412
2026-01-01 00:09:37.85	46.34	45.50	-47.5	-49.0	14.4	0.00e+00	0	62	0	190840832	57	4384
2026-01-01 00:09:40.76	47.14	46.27	-48.2	-50.0	13.4	1.75e-05	0	62	0	200278016	58	4645
2026-01-01 00:09:43.67	47.98	47.06	-47.6	-49.1	14.2	7.00e-07	0	62	0	208666624	58	4189
2026-01-01 00:09:46.58	48.87	47.84	-47.0	-48.4	15.0	7.00e-07	0	62	0	218103808	57	4067
2026-01-01 00:09:49.48	49.79	48.64	-46.7	-48.0	15.4	0.00e+00	0	62	0	227540992	56	4126
2026-01-01 00:09:52.39	50.77	49.44	-47.3	-48.8	14.6	0.00e+00	0	62	0	235929600	56	4540
2026-01-01 00:09:55.29	51.80	50.24	-47.0	-48.4	14.9	0.00e+00	0	62	0	245366784	56	4326
2026-01-01 00:09:58.21	52.88	51.06	-47.0	-48.4	15.0	0.00e+00	0	62	0	254803968	56	4300
2026-01-01 00:10:01.11	54.03	51.87	-46.6	-47.8	15.6	0.00e+00	0	62	0	263192576	56	4047
2026-01-01 00:10:04.01	55.23	52.69	-46.1	-47.3	15.9	0.00e+00	0	62	0	272629760	55	4022
2026-01-01 00:10:06.91	56.50	53.50	-45.7	-46.7	16.5	0.00e+00	0	62	0	281018368	54	3995
2026-01-01 00:10:09.82	57.85	54.31	-45.3	-46.3	16.9	0.00e+00	0	62	0	290455552	53	4028
2026-01-01 00:10:12.73	59.28	55.13	-45.2	-46.1	17.1	0.00e+00	0	62	0	299892736	53	3948
2026-01-01 00:10:15.64	60.79	55.93	-44.5	-45.3	17.9	0.00e+00	0	62	0	309329920	51	4036
2026-01-01 00:10:18.57	62.40	56.73	-44.5	-45.4	17.9	0.00e+00	0	62	0	317718528	51	4073
2026-01-01 00:10:21.47	64.09	57.52	-44.3	-45.1	18.1	0.00e+00	0	62	0	327155712	51	3956
2026-01-01 00:10:24.37	65.88	58.29	-43.7	-44.5	18.8	0.00e+00	0	62	0	336592896	50	3869
2026-01-01 00:10:27.27	67.77	59.04	-44.1	-44.9	18.4	0.00e+00	0	62	0	344981504	50	4074
2026-01-01 00:10:30.18	69.78	59.77	-43.7	-44.5	18.8	0.00e+00	0	62	0	354418688	50	3897
2026-01-01 00:10:33.08	71.89	60.48	-43.2	-43.9	19.3	0.00e+00	0	62	0	363855872	49	3859
2026-01-01 00:10:35.99	74.13	61.16	-43.5	-44.3	18.9	0.00e+00	0	62	0	372244480	49	4012
2026-01-01 00:10:38.90	76.49	61.81	-43.0	-43.7	19.5	0.00e+00	0	62	0	381681664	49	3747
2026-01-01 00:10:41.80	78.97	62.42	-43.3	-44.0	19.1	0.00e+00	0	62	0	390070272	49	3872
2026-01-01 00:10:44.70	81.57	62.98	-43.6	-44.3	18.9	0.00e+00	0	62	0	399507456	49	4047
2026-01-01 00:10:47.61	84.30	63.50	-43.9	-44.6	18.6	0.00e+00	0	62	0	408944640	49	4178
2026-01-01 00:10:50.51	87.13	63.97	-43.7	-44.5	18.7	0.00e+00	0	62	0	417333248	50	3889
2026-01-01 00:10:53.42	90.09	64.39	-43.7	-44.5	18.8	0.00e+00	0	62	0	426770432	50	3879
2026-01-01 00:10:56.32	93.13	64.74	-43.6	-44.4	18.8	0.00e+00	0	62	0	436207616	50	3830
2026-01-01 00:10:59.23	96.28	65.03	-43.2	-43.9	19.3	0.00e+00	0	62	0	444596224	49	3826
2026-01-01 00:11:02.13	99.48	65.25	-43.9	-44.7	18.5	0.00e+00	0	62	0	454033408	49	4212
2026-01-01 00:11:05.03	102.74	65.40	-43.1	-43.8	19.4	0.00e+00	0	62	0	463470592	48	4041
2026-01-01 00:11:07.94	106.04	65.48	-43.5	-44.2	19.0	0.00e+00	0	62	0	471859200	48	4223
2026-01-01 00:11:10.84	109.35	65.48	-43.6	-44.3	18.9	0.00e+00	0	62	0	481296384	49	4032
2026-01-01 00:11:13.75	112.65	65.42	-44.4	-45.2	18.0	0.00e+00	0	62	0	490733568	50	4240
2026-01-01 00:11:16.65	115.92	65.28	-43.2	-43.8	19.4	0.00e+00	0	62	0	499122176	49	3812
2026-01-01 00:11:19.57	119.16	65.07	-44.1	-44.9	18.4	0.00e+00	0	62	0	508559360	50	4095
2026-01-01 00:11:22.48	122.31	64.79	-43.1	-43.8	19.3	0.00e+00	0	62	0	517996544	49	3820
2026-01-01 00:11:25.38	125.37	64.44	-44.0	-44.7	18.4	0.00e+00	0	62	0	526385152	49	4241
2026-01-01 00:11:28.29	128.35	64.04	-43.5	-44.2	19.0	0.00e+00	0	62	0	535822336	49	3997
2026-01-01 00:11:31.19	131.20	63.58	-43.8	-44.5	18.7	0.00e+00	0	62	0	545259520	49	4129
2026-01-01 00:11:34.08	133.93	63.07	-43.0	-43.6	19.4	0.00e+00	0	62	0	553648128	49	3726
2026-01-01 00:11:37.00	136.57	62.50	-44.0	-44.9	18.3	0.00e+00	0	62	0	563085312	49	4292
2026-01-01 00:11:39.90	139.07	61.90	-44.2	-45.0	18.2	0.00e+00	0	62	0	572522496	51	3907
2026-01-01 00:11:42.80	141.44	61.26	-44.0	-44.7	18.5	0.00e+00	0	62	0	580911104	49	4228
2026-01-01 00:11:45.69	143.69	60.59	-45.9	-47.0	16.2	0.00e+00	0	62	0	590348288	53	4382
2026-01-01 00:11:48.59	145.83	59.88	-46.0	-47.1	16.1	0.00e+00	0	62	0	599785472	53	4435
2026-01-01 00:11:51.50	147.85	59.15	-47.3	-48.8	14.6	0.00e+00	0	62	0	608174080	56	4495
2026-01-01 00:11:54.41	149.77	58.40	-45.4	-46.4	16.8	0.00e+00	0	62	0	617611264	54	3838
2026-01-01 00:11:57.31	151.58	57.63	-45.0	-45.9	17.3	0.00e+00	0	62	0	625999872	52	4076
2026-01-01 00:12:00.22	153.29	56.84	-46.2	-47.5	15.9	0.00e+00	0	62	0	635437056	54	4342
2026-01-01 00:12:03.12	154.90	56.05	-43.9	-44.7	18.6	0.00e+00	0	62	0	644874240	50	3959
2026-01-01 00:12:06.02	156.42	55.25	-45.9	-47.0	15.8	0.00e+00	0	62	0	654311424	53	4370
2026-01-01 00:12:08.93	157.86	54.43	-45.9	-47.0	16.0	0.00e+00	0	62	0	662700032	54	4139
2026-01-01 00:12:11.84	159.23	53.62	-44.7	-45.6	17.6	0.00e+00	0	62	0	672137216	52	3931
2026-01-01 00:12:14.75	160.52	52.80	-45.7	-46.8	16.4	0.00e+00	0	62	0	680525824	53	4252
2026-01-01 00:12:17.64	161.73	51.98	-45.7	-46.9	15.9	0.00e+00	0	62	0	689963008	53	4298
2026-01-01 00:12:20.55	162.89	51.17	-46.0	-47.1	16.1	0.00e+00	0	62	0	699400192	54	4185
2026-01-01 00:12:23.46	163.98	50.35	-46.9	-48.3	14.9	0.00e+00	0	62	0	707788800	55	4543
2026-01-01 00:12:26.38	165.02	49.54	-47.7	-49.4	14.1	1.50e-06	0	62	0	717225984	57	4571
2026-01-01 00:12:29.28	166.01	48.73	-46.0	-47.2	16.1	0.00e+00	0	62	0	726663168	55	3967
2026-01-01 00:12:32.18	166.94	47.94	-46.6	-47.9	15.4	0.00e+00	0	62	0	735051776	54	4553
2026-01-01 00:12:35.08	167.83	47.15	-47.9	-49.5	13.8	3.80e-06	0	62	0	744488960	57	4639
2026-01-01 00:12:37.98	168.67	46.37	-47.6	-49.1	14.2	3.00e-06	0	62	0	753926144	57	4414
2026-01-01 00:12:40.89	169.48	45.59	-47.4	-49.0	14.4	1.50e-06	0	62	0	762314752	57	4371
2026-01-01 00:12:43.80	170.25	44.82	-47.9	-49.6	13.7	4.50e-06	0	62	0	771751936	57	4705
2026-01-01 00:12:46.70	170.98	44.07	-48.4	-50.2	13.1	4.80e-05	0	62	0	781189120	58	4757
2026-01-01 00:12:49.60	171.68	43.32	-48.0	-49.6	13.7	7.60e-06	0	62	0	789577728	58	4435
2026-01-01 00:12:52.51	172.35	42.58	-47.7	-49.3	14.0	2.20e-06	0	62	0	799014912	58	4287
2026-01-01 00:12:55.43	172.99	41.85	-47.2	-48.7	14.7	2.20e-06	0	62	0	808452096	57	4229
2026-01-01 00:12:58.33	173.61	41.14	-46.7	-48.0	15.4	0.00e+00	0	62	0	816840704	56	4129
2026-01-01 00:13:01.24	174.19	40.43	-46.4	-47.6	15.8	0.00e+00	0	62	0	826277888	56	3934
2026-01-01 00:13:04.14	174.75	39.74	-46.7	-48.0	15.2	0.00e+00	0	62	0	835715072	55	4360
2026-01-01 00:13:07.04	175.29	39.05	-47.0	-48.3	15.1	0.00e+00	0	62	0	844103680	56	4269
2026-01-01 00:13:09.95	175.81	38.38	-46.6	-47.9	15.5	0.00e+00	0	62	0	853540864	56	4061
2026-01-01 00:13:12.86	176.31	37.72	-46.6	-47.8	15.4	0.00e+00	0	62	0	862978048	56	4047
2026-01-01 00:13:15.77	176.79	37.06	-46.1	-47.3	15.9	0.00e+00	0	62	0	871366656	55	4028
2026-01-01 00:13:18.66	177.25	36.42	-45.4	-46.4	16.8	0.00e+00	0	62	0	880803840	53	4060
2026-01-01 00:13:21.57	177.69	35.79	-45.2	-46.2	17.0	0.00e+00	0	62	0	890241024	53	3991
2026-01-01 00:13:24.48	178.12	35.17	-45.2	-46.2	17.0	0.00e+00	0	62	0	898629632	53	3962
2026-01-01 00:13:27.39	178.53	34.56	-45.3	-46.3	16.8	0.00e+00	0	62	0	908066816	53	4051
2026-01-01 00:13:30.30	178.93	33.96	-46.3	-47.6	15.6	0.00e+00	0	62	0	917504000	54	4400
2026-01-01 00:13:33.20	179.31	33.37	-46.6	-47.9	15.3	0.00e+00	0	62	0	925892608	55	4326
2026-01-01 00:13:36.10	179.68	32.79	-46.6	-48.0	15.2	0.00e+00	0	62	0	935329792	55	4353
2026-01-01 00:13:39.01	180.04	32.22	-44.5	-45.4	17.7	0.00e+00	0	62	0	944766976	52	3861
2026-01-01 00:13:41.91	180.39	31.66	-44.5	-45.4	17.8	0.00e+00	0	62	0	953155584	51	4070
2026-01-01 00:13:44.83	180.72	31.11	-44.5	-45.3	17.8	0.00e+00	0	62	0	962592768	51	4051
2026-01-01 00:13:47.73	181.05	30.57	-44.6	-45.5	17.7	0.00e+00	0	62	0	972029952	51	4101
2026-01-01 00:13:50.63	181.36	30.03	-44.9	-45.9	17.2	0.00e+00	0	62	0	980418560	52	4059
2026-01-01 00:13:53.53	181.66	29.51	-45.3	-46.4	16.7	0.00e+00	0	62	0	989855744	52	4316
2026-01-01 00:13:56.43	181.96	29.00	-45.7	-46.8	16.3	0.00e+00	0	62	0	999292928	53	4286
2026-01-01 00:13:59.34	182.24	28.49	-45.8	-47.0	16.2	0.00e+00	0	62	0	1007681536	53	4341
2026-01-01 00:14:02.24	182.52	27.99	-45.5	-46.6	16.5	0.00e+00	0	62	0	1017118720	53	4158
2026-01-01 00:14:05.14	182.79	27.50	-45.9	-47.0	16.2	0.00e+00	0	62	0	1025507328	53	4356
2026-01-01 00:14:08.04	183.05	27.02	-44.8	-45.7	17.4	0.00e+00	0	62	0	1034944512	52	3975
2026-01-01 00:14:10.94	183.31	26.55	-44.5	-45.4	17.7	0.00e+00	0	62	0	1044381696	52	3831
2026-01-01 00:14:13.85	183.55	26.08	-44.4	-45.2	18.0	0.00e+00	0	62	0	1052770304	51	3974
2026-01-01 00:14:16.76	183.80	25.62	-43.5	-44.3	18.8	0.00e+00	0	62	0	1062207488	50	3792
2026-01-01 00:14:19.67	184.03	25.17	-43.6	-44.4	18.7	0.00e+00	0	62	0	1071644672	50	3841
2026-01-01 00:14:22.57	184.26	24.72	-44.0	-44.8	18.3	0.00e+00	0	62	0	1080033280	50	4034
2026-01-01 00:14:25.48	184.48	24.28	-44.2	-45.0	18.1	0.00e+00	0	62	0	1089470464	50	4136
2026-01-01 00:14:28.38	184.70	23.85	-44.4	-45.3	17.8	0.00e+00	0	62	0	1098907648	50	4277
2026-01-01 00:14:31.29	184.91	23.43	-44.7	-45.6	17.5	0.00e+00	0	62	0	1107296256	51	4169
2026-01-01 00:14:34.19	185.11	23.01	-44.8	-45.8	17.4	0.00e+00	0	62	0	1116733440	51	4249
2026-01-01 00:14:37.10	185.31	22.60	-44.3	-45.2	17.9	0.00e+00	0	62	0	1126170624	51	3986
2026-01-01 00:14:40.00	185.51	22.19	-44.5	-45.4	17.7	0.00e+00	0	62	0	1134559232	51	4070
2026-01-01 00:14:42.91	185.70	21.79	-44.7	-45.6	17.6	0.00e+00	0	62	0	1143996416	51	4167
2026-01-01 00:14:45.80	185.89	21.40	-44.6	-45.5	17.6	0.00e+00	0	62	0	1153433600	51	4139
2026-01-01 00:14:48.70	186.07	21.02	-44.5	-45.4	17.7	0.00e+00	0	62	0	1161822208	51	4082
2026-01-01 00:14:51.60	186.24	20.63	-44.4	-45.3	17.8	0.00e+00	0	62	0	1171259392	51	4042
2026-01-01 00:14:54.51	186.42	20.26	-44.5	-45.4	17.7	0.00e+00	0	62	0	1180696576	51	4065
2026-01-01 00:14:57.41	186.59	19.89	-44.8	-45.7	17.4	0.00e+00	0	62	0	1189085184	51	4227
2026-01-01 00:15:00.32	186.75	19.52	-44.6	-45.5	17.6	0.00e+00	0	62	0	1198522368	51	4130
2026-01-01 00:15:03.22	186.92	19.16	-44.6	-45.6	17.5	0.00e+00	0	62	0	1207959552	51	4151
2026-01-01 00:15:06.14	187.08	18.80	-44.7	-45.6	17.5	0.00e+00	0	62	0	1216348160	51	4156
2026-01-01 00:15:09.04	187.23	18.45	-44.8	-45.8	17.3	0.00e+00	0	62	0	1225785344	51	4253
2026-01-01 00:15:11.95	187.38	18.10	-45.1	-46.0	17.0	0.00e+00	0	62	0	1235222528	51	4388
2026-01-01 00:15:14.84	187.53	17.76	-44.8	-45.8	17.2	0.00e+00	0	62	0	1243611136	52	4019
2026-01-01 00:15:17.75	187.68	17.43	-44.8	-45.8	17.1	0.00e+00	0	62	0	1253048320	52	4034
2026-01-01 00:15:20.66	187.82	17.09	-44.6	-45.6	17.4	0.00e+00	0	62	0	1261436928	52	3932
2026-01-01 00:15:23.56	187.96	16.77	-44.9	-45.8	17.1	0.00e+00	0	62	0	1270874112	52	4035
2026-01-01 00:15:26.47	188.10	16.44	-45.0	-46.0	17.0	0.00e+00	0	62	0	1280311296	52	4123
2026-01-01 00:15:29.37	188.24	16.12	-44.8	-45.8	17.2	0.00e+00	0	62	0	1289748480	52	4029
2026-01-01 00:15:32.27	188.37	15.81	-44.9	-45.9	17.0	0.00e+00	0	62	0	1298137088	52	4080
2026-01-01 00:15:35.18	188.50	15.49	-45.2	-46.2	16.7	0.00e+00	0	62	0	1307574272	52	4234
2026-01-01 00:15:38.10	188.63	15.18	-45.1	-46.1	16.8	0.00e+00	0	62	0	1315962880	52	4164
2026-01-01 00:15:41.01	188.75	14.88	-45.0	-46.0	16.9	0.00e+00	0	62	0	1325400064	52	4108
2026-01-01 00:15:43.91	188.87	14.58	-45.2	-46.2	16.7	0.00e+00	0	62	0	1334837248	52	4219
2026-01-01 00:15:46.81	188.99	14.28	-45.2	-46.2	16.7	0.00e+00	0	62	0	1343225856	52	4217
2026-01-01 00:15:49.71	189.11	13.99	-45.4	-46.5	16.4	0.00e+00	0	62	0	1352663040	52	4371
2026-01-01 00:15:52.63	189.23	13.70	-45.6	-46.7	16.2	0.00e+00	0	62	0	1362100224	53	4204
2026-01-01 00:15:55.55	189.34	13.41	-45.8	-47.0	15.9	0.00e+00	0	62	0	1370488832	53	4364
2026-01-01 00:15:58.45	189.46	13.12	-46.1	-47.4	15.5	0.00e+00	0	62	0	1379926016	53	4549
2026-01-01 00:16:01.37	189.57	12.84	-45.8	-47.0	15.9	0.00e+00	0	62	0	1389363200	54	4116
2026-01-01 00:16:04.28	189.67	12.56	-45.9	-47.2	15.7	0.00e+00	0	62	0	1398800384	54	4208
2026-01-01 00:16:07.18	189.78	12.29	-45.8	-47.0	15.8	0.00e+00	0	62	0	1407188992	54	4133
2026-01-01 00:16:10.08	189.89	12.02	-45.8	-47.0	15.9	0.00e+00	0	62	0	1416626176	54	4117
2026-01-01 00:16:12.97	189.99	11.75	-45.8	-46.9	15.9	0.00e+00	0	62	0	1425014784	54	4096
2026-01-01 00:16:15.88	190.09	11.49	-46.0	-47.3	15.6	0.00e+00	0	62	0	1434451968	54	4257
2026-01-01 00:16:18.78	190.19	11.22	-46.1	-47.3	15.5	0.00e+00	0	62	0	1443889152	54	4286
2026-01-01 00:16:21.69	190.29	10.96	-46.0	-47.3	15.6	0.00e+00	0	62	0	1452277760	54	4243
2026-01-01 00:16:24.61	190.39	10.70	-46.2	-47.5	15.3	0.00e+00	0	62	0	1461714944	54	4375
2026-01-01 00:16:27.51	190.48	10.45	-46.6	-47.9	14.8	0.00e+00	0	62	0	1471152128	55	4338
2026-01-01 00:16:30.41	190.57	10.20	-46.0	-47.3	15.5	0.00e+00	0	62	0	1479540736	55	4029
2026-01-01 00:16:33.32	190.67	9.95	-46.1	-47.3	15.4	7.00e-07	0	62	0	1488977920	55	4047
2026-01-01 00:16:36.24	190.76	9.70	-46.1	-47.4	15.4	0.00e+00	0	62	0	1498415104	55	4070
2026-01-01 00:16:39.15	190.85	9.45	-46.1	-47.4	15.3	0.00e+00	0	62	0	1506803712	55	4056
2026-01-01 00:16:42.05	190.94	9.21	-46.5	-47.9	14.7	1.50e-06	0	62	0	1516240896	55	4335
2026-01-01 00:16:44.95	191.02	8.97	-46.2	-47.5	15.2	0.00e+00	0	62	0	1525678080	55	4105
2026-01-01 00:16:47.86	191.11	8.73	-46.2	-47.6	15.1	0.00e+00	0	62	0	1534066688	55	4176
2026-01-01 00:16:50.77	191.19	8.50	-46.3	-47.7	15.0	7.00e-07	0	62	0	1543503872	55	4199
2026-01-01 00:16:53.69	191.28	8.26	-46.4	-47.8	14.9	7.00e-07	0	62	0	1552941056	55	4266
2026-01-01 00:16:56.59	191.36	8.03	-46.5	-47.9	14.7	0.00e+00	0	62	0	1561329664	55	4316
2026-01-01 00:16:59.49	191.44	7.80	-46.6	-48.1	14.5	0.00e+00	0	62	0	1570766848	55	4429
2026-01-01 00:17:02.40	191.52	7.57	-46.5	-48.0	14.6	0.00e+00	0	62	0	1580204032	55	4389
2026-01-01 00:17:05.31	191.60	7.35	-46.7	-48.2	14.4	0.00e+00	0	62	0	1588592640	55	4479
2026-01-01 00:17:08.23	191.68	7.12	-46.7	-48.3	14.3	0.00e+00	0	62	0	1598029824	55	4507
2026-01-01 00:17:11.13	191.76	6.90	-46.8	-48.4	14.1	3.00e-06	0	62	0	1607467008	55	4580
2026-01-01 00:17:14.02	191.83	6.68	-47.3	-49.0	13.6	6.80e-06	0	62	0	1615855616	56	4646
2026-01-01 00:17:16.92	191.91	6.46	-47.1	-48.9	13.7	7.60e-06	0	62	0	1625292800	56	4555
2026-01-01 00:17:19.83	191.98	6.25	-47.1	-48.8	13.7	9.10e-06	0	62	0	1634729984	56	4520
2026-01-01 00:17:22.74	192.05	6.03	-47.4	-49.2	13.4	1.06e-05	0	62	0	1643118592	56	4716
2026-01-01 00:17:25.64	192.12	5.82	-47.4	-49.2	13.2	1.83e-05	0	62	0	1652555776	56	4749
2026-01-01 00:17:28.53	192.20	5.61	-47.3	-49.1	13.3	1.44e-05	0	62	0	1661992960	56	4671
2026-01-01 00:17:31.43	192.27	5.40	-47.4	-49.2	13.2	2.13e-05	0	62	0	1670381568	56	4737
2026-01-01 00:17:34.34	192.34	5.19	-47.5	-49.4	12.9	4.80e-05	0	62	0	1679818752	56	4859
2026-01-01 00:17:37.26	192.40	4.98	-51.8	-62.1	3.8	2.09e-02	0	62	104	1688207360	65	12472
2026-01-01 00:17:40.21	192.47	4.78	-52.6	-64.1	3.8	1.49e+00	0	62	104	1688207360	66	14769
2026-01-01 00:17:43.16	192.54	4.57	-52.8	-64.3	3.8	1.49e+00	0	62	104	1688207360	67	14270
2026-01-01 00:17:46.10	192.61	4.37	-53.0	-64.4	3.8	1.49e+00	0	62	104	1688207360	67	14423
2026-01-01 00:17:49.05	192.67	4.16	-52.8	-64.4	3.8	1.49e+00	0	62	104	1688207360	67	14537
2026-01-01 00:17:52.00	192.74	3.96	-52.9	-64.5	3.8	1.49e+00	0	62	104	1688207360	67	14576
2026-01-01 00:17:54.95	192.81	3.76	-53.0	-64.5	3.8	1.49e+00	0	62	104	1688207360	67	14610
2026-01-01 00:17:57.91	192.87	3.56	-53.1	-64.7	3.8	1.49e+00	0	62	104	1688207360	68	14058
2026-01-01 00:18:00.86	192.93	3.36	-53.2	-64.7	3.8	1.49e+00	0	62	104	1688207360	68	14051
2026-01-01 00:18:03.81	193.00	3.17	-52.9	-64.6	3.8	1.49e+00	0	62	104	1688207360	68	13996

#Closed at: 2026-01-01 00:18:06
#Recorded file [1688 MB]: D:/Data/31026_260101_031737.dat