passes_logs/2026/01/01/R3.0SM8_Murmansk_STILSPACE/R3.0SM8_Murmansk_STILSPACE__20260101_164322_FENGYUN_3E_rec.log

#Pass ID: 20260101_164322_FENGYUN 3E
#Satellite: FENGYUN 3E
#Configuration: FENGYUN 3E
#almurnet v.1.7.20240730
#Start time: 2026-01-01 16:43:24

#Version: 2.2.20231116
#Station: R3.0SM8_Murmansk_STILSPACE
#Location: 33.092731 lon 68.902999 lat
#TLE: 1 49008U 21062A   25365.98258168  .00000149  00000+0  90987-4 0  9990
#TLE: 2 49008  98.7481   6.2763 0001360 169.3782 190.7423 14.19883270232859

#Time	Az	El	Level	Level2	SNR	BER	BlckErr	Temp	State	Recorded	gain1	gain2
2026-01-01 16:43:24.73	228.46	3.11	-52.3	-62.6	3.8	8.46e-01	0	47	0	0	66	12372
2026-01-01 16:43:27.68	228.73	3.26	-52.2	-62.5	3.8	8.46e-01	0	47	104	0	67	11511
2026-01-01 16:43:30.63	229.00	3.41	-51.9	-62.3	3.8	8.46e-01	0	47	104	0	66	11850
2026-01-01 16:43:33.60	229.28	3.57	-51.1	-61.2	3.8	8.46e-01	0	48	104	0	65	11151
2026-01-01 16:43:36.56	229.55	3.72	-50.5	-60.5	3.8	8.45e-01	0	48	104	0	64	10818
2026-01-01 16:43:39.53	229.83	3.87	-50.6	-60.7	3.8	8.47e-01	0	48	104	0	64	11093
2026-01-01 16:43:42.50	230.12	4.03	-50.6	-60.5	3.8	8.45e-01	0	48	104	0	64	10783
2026-01-01 16:43:45.47	230.41	4.18	-50.6	-59.4	3.8	8.46e-01	0	48	104	0	64	9563
2026-01-01 16:43:48.44	230.70	4.34	-50.2	-57.5	4.2	8.38e-01	0	49	0	0	63	8129
2026-01-01 16:43:51.40	230.99	4.49	-49.9	-55.7	4.9	7.92e-01	0	49	0	0	62	6988
2026-01-01 16:43:54.36	231.28	4.65	-49.4	-54.6	5.5	6.89e-01	0	49	0	0	61	6509
2026-01-01 16:43:57.34	231.58	4.81	-49.4	-54.1	5.9	3.75e-01	0	49	0	13631488	61	6145
2026-01-01 16:44:00.29	231.88	4.96	-49.0	-53.3	6.6	2.40e-01	0	49	0	34603008	61	5601
2026-01-01 16:44:03.27	232.19	5.12	-48.7	-52.1	7.7	9.29e-02	0	50	0	55574528	59	5515
2026-01-01 16:44:06.23	232.50	5.28	-48.1	-51.0	8.8	3.75e-02	0	50	0	77594624	59	4848
2026-01-01 16:44:09.21	232.81	5.43	-47.3	-49.6	10.2	8.80e-03	0	50	0	98566144	57	4641
2026-01-01 16:44:12.18	233.13	5.59	-46.7	-48.6	11.3	1.45e-03	0	50	0	120586240	56	4388
2026-01-01 16:44:15.15	233.44	5.75	-46.4	-48.3	11.6	7.62e-04	0	50	0	141557760	55	4458
2026-01-01 16:44:18.10	233.76	5.91	-45.9	-47.6	12.3	1.46e-04	0	50	0	163577856	54	4384
2026-01-01 16:44:21.07	234.09	6.06	-45.8	-47.4	12.6	1.09e-04	0	51	0	184549376	54	4263
2026-01-01 16:44:24.05	234.42	6.22	-46.1	-47.7	12.4	2.22e-04	0	51	0	206569472	54	4422
2026-01-01 16:44:27.02	234.75	6.38	-45.9	-47.5	12.7	1.03e-04	0	51	0	227540992	54	4311
2026-01-01 16:44:29.98	235.08	6.54	-46.3	-48.0	12.2	2.01e-04	0	51	0	248512512	54	4556
2026-01-01 16:44:32.93	235.42	6.70	-45.4	-46.8	13.4	1.94e-05	0	51	0	270532608	53	4217
2026-01-01 16:44:35.91	235.76	6.86	-45.3	-46.7	13.6	1.83e-05	0	51	0	291504128	53	4162
2026-01-01 16:44:38.88	236.11	7.02	-45.3	-46.6	13.7	9.10e-06	0	51	0	313524224	53	4134
2026-01-01 16:44:41.84	236.46	7.17	-44.8	-46.0	14.4	2.20e-06	0	52	0	334495744	52	4063
2026-01-01 16:44:44.81	236.81	7.33	-44.8	-45.9	14.6	1.10e-06	0	51	0	355467264	52	4038
2026-01-01 16:44:47.78	237.17	7.49	-44.6	-45.6	15.0	0.00e+00	0	52	0	377487360	51	4128
2026-01-01 16:44:50.75	237.53	7.65	-44.4	-45.4	15.2	0.00e+00	0	52	0	398458880	51	4046
2026-01-01 16:44:53.73	237.89	7.81	-44.4	-45.4	15.3	0.00e+00	0	52	0	420478976	51	4044
2026-01-01 16:44:56.71	238.26	7.97	-44.5	-45.6	15.2	0.00e+00	0	52	0	441450496	51	4109
2026-01-01 16:44:59.67	238.63	8.13	-44.5	-45.5	15.4	0.00e+00	0	52	0	463470592	51	4075
2026-01-01 16:45:02.65	239.01	8.29	-44.4	-45.4	15.5	0.00e+00	0	52	0	484442112	51	4036
2026-01-01 16:45:05.61	239.39	8.45	-44.7	-45.7	15.3	0.00e+00	0	52	0	506462208	51	4178
2026-01-01 16:45:08.58	239.77	8.61	-44.7	-45.8	15.3	0.00e+00	0	52	0	527433728	51	4199
2026-01-01 16:45:11.55	240.16	8.77	-44.7	-45.7	15.3	0.00e+00	0	52	0	549453824	51	4184
2026-01-01 16:45:14.52	240.55	8.93	-44.6	-45.6	15.4	0.00e+00	0	53	0	570425344	51	4139
2026-01-01 16:45:17.49	240.95	9.09	-44.1	-45.1	16.0	0.00e+00	0	53	0	591396864	51	3871
2026-01-01 16:45:20.46	241.35	9.25	-44.0	-44.9	16.2	0.00e+00	0	53	0	613416960	50	4026
2026-01-01 16:45:23.42	241.75	9.41	-43.6	-44.4	16.7	0.00e+00	0	53	0	634388480	50	3799
2026-01-01 16:45:26.40	242.16	9.56	-43.5	-44.3	16.8	0.00e+00	0	53	0	656408576	49	4001
2026-01-01 16:45:29.36	242.58	9.72	-43.4	-44.2	16.9	0.00e+00	0	53	0	677380096	49	3950
2026-01-01 16:45:32.32	242.99	9.88	-43.6	-44.4	16.8	0.00e+00	0	53	0	699400192	49	4024
2026-01-01 16:45:35.29	243.41	10.04	-43.5	-44.3	16.8	0.00e+00	0	53	0	720371712	49	4004
2026-01-01 16:45:38.25	243.84	10.19	-43.5	-44.3	16.9	0.00e+00	0	53	0	741343232	49	3985
2026-01-01 16:45:41.21	244.27	10.35	-43.2	-44.0	17.3	0.00e+00	0	53	0	763363328	49	3827
2026-01-01 16:45:44.18	244.70	10.51	-43.4	-44.2	17.0	0.00e+00	0	53	0	784334848	49	3944
2026-01-01 16:45:47.14	245.14	10.66	-43.4	-44.2	17.0	0.00e+00	0	54	0	806354944	49	3928
2026-01-01 16:45:50.11	245.59	10.82	-43.2	-43.9	17.3	0.00e+00	0	54	0	827326464	49	3815
2026-01-01 16:45:53.07	246.03	10.97	-43.0	-43.7	17.5	0.00e+00	0	54	0	848297984	48	3944
2026-01-01 16:45:56.04	246.49	11.12	-43.2	-44.0	17.3	0.00e+00	0	54	0	870318080	48	4075
2026-01-01 16:45:59.01	246.94	11.28	-43.2	-44.0	17.3	0.00e+00	0	54	0	891289600	48	4080
2026-01-01 16:46:01.98	247.41	11.43	-42.9	-43.6	17.7	0.00e+00	0	54	0	913309696	48	3898
2026-01-01 16:46:04.96	247.88	11.58	-42.7	-43.4	17.9	0.00e+00	0	54	0	934281216	48	3800
2026-01-01 16:46:07.92	248.35	11.74	-42.8	-43.6	17.8	0.00e+00	0	54	0	955252736	48	3869
2026-01-01 16:46:10.88	248.82	11.89	-42.9	-43.6	17.7	0.00e+00	0	54	0	977272832	48	3903
2026-01-01 16:46:13.85	249.30	12.03	-42.7	-43.4	17.9	0.00e+00	0	54	0	998244352	48	3815
2026-01-01 16:46:16.81	249.79	12.18	-42.9	-43.6	17.7	0.00e+00	0	54	0	1020264448	48	3912
2026-01-01 16:46:19.80	250.28	12.33	-42.8	-43.5	17.8	0.00e+00	0	54	0	1041235968	48	3868
2026-01-01 16:46:22.77	250.78	12.48	-43.2	-43.9	17.4	0.00e+00	0	55	0	1063256064	48	4038
2026-01-01 16:46:25.74	251.28	12.62	-42.7	-43.4	18.0	0.00e+00	0	55	0	1084227584	48	3793
2026-01-01 16:46:28.71	251.78	12.77	-42.3	-43.0	18.2	0.00e+00	0	55	0	1106247680	47	3838
2026-01-01 16:46:31.67	252.29	12.91	-42.3	-43.0	18.2	0.00e+00	0	55	0	1127219200	47	3836
2026-01-01 16:46:34.64	252.81	13.05	-42.5	-43.2	18.0	0.00e+00	0	55	0	1149239296	47	3934
2026-01-01 16:46:37.59	253.32	13.19	-42.7	-43.5	17.7	0.00e+00	0	55	0	1170210816	47	4064
2026-01-01 16:46:40.56	253.85	13.33	-42.3	-43.0	18.2	0.00e+00	0	55	0	1191182336	47	3833
2026-01-01 16:46:43.53	254.37	13.47	-42.2	-42.8	18.3	0.00e+00	0	55	0	1213202432	47	3775
2026-01-01 16:46:46.49	254.91	13.61	-42.2	-42.8	18.3	0.00e+00	0	55	0	1234173952	47	3780
2026-01-01 16:46:49.44	255.44	13.74	-42.0	-42.6	18.6	0.00e+00	0	55	0	1255145472	46	3903
2026-01-01 16:46:52.42	255.99	13.88	-42.2	-42.9	18.3	0.00e+00	0	55	0	1277165568	46	4031
2026-01-01 16:46:55.39	256.54	14.01	-42.1	-42.8	18.4	0.00e+00	0	55	0	1298137088	46	3975
2026-01-01 16:46:58.38	257.09	14.14	-42.2	-42.9	18.4	0.00e+00	0	55	0	1320157184	46	4005
2026-01-01 16:47:01.34	257.65	14.27	-42.2	-42.8	18.4	0.00e+00	0	55	0	1341128704	46	3995
2026-01-01 16:47:04.29	258.21	14.39	-42.1	-42.7	18.5	0.00e+00	0	55	0	1363148800	46	3938
2026-01-01 16:47:07.26	258.77	14.52	-41.9	-42.5	18.7	0.00e+00	0	55	0	1384120320	46	3861
2026-01-01 16:47:10.23	259.34	14.64	-42.0	-42.7	18.5	0.00e+00	0	56	0	1406140416	46	3923
2026-01-01 16:47:13.20	259.92	14.76	-41.9	-42.5	18.7	0.00e+00	0	55	0	1427111936	46	3846
2026-01-01 16:47:16.16	260.50	14.88	-42.2	-42.9	18.3	0.00e+00	0	56	0	1448083456	46	4030
2026-01-01 16:47:19.13	261.08	15.00	-42.1	-42.7	18.5	0.00e+00	0	55	0	1470103552	46	3953
2026-01-01 16:47:22.09	261.67	15.11	-41.8	-42.5	18.8	0.00e+00	0	55	0	1491075072	46	3827
2026-01-01 16:47:25.06	262.26	15.22	-42.0	-42.6	18.6	0.00e+00	0	56	0	1513095168	46	3908
2026-01-01 16:47:28.03	262.86	15.33	-41.8	-42.5	18.8	0.00e+00	0	56	0	1534066688	46	3828
2026-01-01 16:47:30.99	263.46	15.44	-42.0	-42.7	18.6	0.00e+00	0	56	0	1556086784	46	3915
2026-01-01 16:47:33.96	264.07	15.54	-41.8	-42.4	18.8	0.00e+00	0	56	0	1577058304	46	3822
2026-01-01 16:47:36.93	264.68	15.65	-42.0	-42.7	18.6	0.00e+00	0	56	0	1599078400	46	3916
2026-01-01 16:47:39.90	265.29	15.75	-41.7	-42.3	19.0	0.00e+00	0	56	0	1620049920	46	3754
2026-01-01 16:47:42.87	265.91	15.84	-41.8	-42.4	18.8	0.00e+00	0	56	0	1641021440	46	3806
2026-01-01 16:47:45.84	266.53	15.94	-41.7	-42.3	19.0	0.00e+00	0	56	0	1663041536	46	3763
2026-01-01 16:47:48.80	267.15	16.03	-42.0	-42.6	18.7	0.00e+00	0	56	0	1684013056	46	3891
2026-01-01 16:47:51.77	267.78	16.11	-41.6	-42.2	19.0	0.00e+00	0	56	0	1704984576	46	3729
2026-01-01 16:47:54.74	268.41	16.20	-41.7	-42.3	19.0	0.00e+00	0	56	0	1727004672	46	3744
2026-01-01 16:47:57.71	269.05	16.28	-41.7	-42.3	18.9	0.00e+00	0	56	0	1747976192	46	3765
2026-01-01 16:48:00.68	269.69	16.36	-41.4	-42.0	19.3	0.00e+00	0	56	0	1769996288	45	3834
2026-01-01 16:48:03.65	270.33	16.44	-41.5	-42.1	19.1	0.00e+00	0	56	0	1790967808	45	3902
2026-01-01 16:48:06.63	270.98	16.51	-41.6	-42.2	19.1	0.00e+00	0	56	0	1812987904	45	3937
2026-01-01 16:48:09.60	271.63	16.58	-41.7	-42.3	18.9	0.00e+00	0	56	0	1833959424	45	3996
2026-01-01 16:48:12.56	272.28	16.64	-41.5	-42.0	19.2	0.00e+00	0	56	0	1855979520	45	3867
2026-01-01 16:48:15.53	272.93	16.71	-41.8	-42.4	18.8	0.00e+00	0	56	0	1876951040	45	4043
2026-01-01 16:48:18.51	273.59	16.77	-42.0	-42.6	18.7	0.00e+00	0	56	0	1898971136	45	4115
2026-01-01 16:48:21.49	274.25	16.82	-41.5	-42.1	19.2	0.00e+00	0	56	0	1919942656	45	3869
2026-01-01 16:48:24.47	274.92	16.88	-41.4	-41.9	19.3	0.00e+00	0	56	0	1941962752	45	3813
2026-01-01 16:48:27.42	275.57	16.92	-41.3	-41.9	19.4	0.00e+00	0	56	0	1962934272	45	3794
2026-01-01 16:48:30.38	276.24	16.97	-41.4	-42.0	19.2	0.00e+00	0	56	0	1983905792	45	3851
2026-01-01 16:48:33.34	276.90	17.01	-41.4	-42.0	19.2	0.00e+00	0	56	0	2005925888	45	3854
2026-01-01 16:48:36.31	277.57	17.05	-41.7	-42.3	19.0	0.00e+00	0	56	0	2026897408	45	3974
2026-01-01 16:48:39.28	278.24	17.08	-41.8	-42.4	18.9	0.00e+00	0	57	0	2048917504	45	4016
2026-01-01 16:48:42.25	278.91	17.11	-41.5	-42.1	19.2	0.00e+00	0	57	0	2069889024	45	3875
2026-01-01 16:48:45.21	279.59	17.14	-41.4	-42.0	19.3	0.00e+00	0	56	0	2090860544	45	3837
2026-01-01 16:48:48.17	280.26	17.16	-41.6	-42.2	19.1	0.00e+00	0	57	0	2112880640	45	3932
2026-01-01 16:48:51.14	280.93	17.18	-41.5	-42.1	19.1	0.00e+00	0	56	0	2133852160	45	3905
2026-01-01 16:48:54.11	281.61	17.20	-42.1	-42.7	18.5	0.00e+00	0	56	0	2155872256	45	4185
2026-01-01 16:48:57.08	282.28	17.21	-42.3	-43.0	18.2	0.00e+00	0	57	0	2176843776	46	4061
2026-01-01 16:49:00.04	282.96	17.22	-42.9	-43.7	17.3	0.00e+00	0	57	0	2198863872	47	4168
2026-01-01 16:49:03.01	283.64	17.22	-44.0	-44.9	16.1	0.00e+00	0	57	0	2219835392	49	4273
2026-01-01 16:49:05.97	284.31	17.22	-45.1	-46.4	14.2	2.20e-06	0	57	0	2240806912	52	4259
2026-01-01 16:49:08.94	284.99	17.22	-46.0	-47.6	12.6	1.04e-04	0	56	0	2262827008	53	4618
2026-01-01 16:49:11.90	285.66	17.21	-47.5	-49.9	10.1	6.11e-03	0	57	0	2283798528	56	5049
2026-01-01 16:49:14.87	286.34	17.20	-48.8	-52.4	7.4	9.93e-02	0	57	0	2304770048	59	5692
2026-01-01 16:49:17.84	287.01	17.19	-49.3	-54.2	5.8	4.33e-01	0	57	0	2326790144	60	6610
2026-01-01 16:49:20.80	287.69	17.17	-49.3	-54.3	5.6	6.82e-01	0	57	0	2334130176	60	6718
2026-01-01 16:49:23.77	288.36	17.15	-48.6	-52.4	7.3	1.49e-01	0	57	0	2355101696	60	5359
2026-01-01 16:49:26.73	289.03	17.12	-48.3	-51.5	8.3	6.73e-02	0	57	0	2377121792	59	5129
2026-01-01 16:49:29.69	289.70	17.09	-47.3	-49.6	10.4	6.52e-03	0	57	0	2398093312	57	4613
2026-01-01 16:49:32.64	290.37	17.06	-46.2	-47.8	12.3	2.52e-04	0	57	0	2419064832	55	4235
2026-01-01 16:49:35.60	291.03	17.02	-45.1	-46.4	14.2	3.40e-06	0	57	0	2441084928	53	4014
2026-01-01 16:49:38.56	291.70	16.98	-44.2	-45.1	15.8	0.00e+00	0	57	0	2462056448	51	3894
2026-01-01 16:49:41.54	292.37	16.94	-43.4	-44.2	16.9	0.00e+00	0	57	0	2484076544	49	3947
2026-01-01 16:49:44.51	293.03	16.89	-42.0	-42.6	18.6	0.00e+00	0	57	0	2505048064	46	3884
2026-01-01 16:49:47.48	293.69	16.84	-41.7	-42.3	18.9	0.00e+00	0	57	0	2527068160	46	3772
2026-01-01 16:49:50.44	294.35	16.78	-41.7	-42.3	18.9	0.00e+00	0	57	0	2548039680	46	3769
2026-01-01 16:49:53.38	295.00	16.72	-41.7	-42.4	18.9	0.00e+00	0	57	0	2569011200	46	3783
2026-01-01 16:49:56.35	295.65	16.66	-41.7	-42.3	18.9	0.00e+00	0	57	0	2589982720	46	3773
2026-01-01 16:49:59.30	296.30	16.60	-41.8	-42.4	18.9	0.00e+00	0	57	0	2612002816	46	3809
2026-01-01 16:50:02.27	296.94	16.53	-42.2	-42.8	18.5	0.00e+00	0	57	0	2632974336	46	3989
2026-01-01 16:50:05.23	297.59	16.46	-41.9	-42.6	18.7	0.00e+00	0	57	0	2654994432	46	3872
2026-01-01 16:50:08.21	298.23	16.38	-42.2	-42.8	18.5	0.00e+00	0	57	0	2675965952	46	4004
2026-01-01 16:50:11.19	298.87	16.31	-42.0	-42.7	18.6	0.00e+00	0	57	0	2697986048	46	3916
2026-01-01 16:50:14.15	299.51	16.23	-41.7	-42.3	18.9	0.00e+00	0	57	0	2718957568	46	3771
2026-01-01 16:50:17.13	300.14	16.14	-41.8	-42.4	18.9	0.00e+00	0	57	0	2740977664	46	3803
2026-01-01 16:50:20.10	300.77	16.05	-42.1	-42.7	18.6	0.00e+00	0	57	0	2761949184	46	3937
2026-01-01 16:50:23.07	301.39	15.96	-42.4	-43.1	18.2	0.00e+00	0	57	0	2782920704	46	4127
2026-01-01 16:50:26.04	302.02	15.87	-42.3	-43.0	18.3	0.00e+00	0	57	0	2804940800	46	4075
2026-01-01 16:50:29.00	302.63	15.78	-42.6	-43.2	18.0	0.00e+00	0	57	0	2825912320	46	4187
2026-01-01 16:50:31.96	303.24	15.68	-41.9	-42.5	18.8	0.00e+00	0	57	0	2847932416	46	3834
2026-01-01 16:50:34.93	303.85	15.58	-41.9	-42.5	18.8	0.00e+00	0	57	0	2868903936	46	3830
2026-01-01 16:50:37.89	304.46	15.47	-42.1	-42.7	18.6	0.00e+00	0	57	0	2889875456	46	3925
2026-01-01 16:50:40.86	305.06	15.37	-42.3	-43.0	18.3	0.00e+00	0	57	0	2911895552	46	4069
2026-01-01 16:50:43.81	305.65	15.26	-42.4	-43.1	18.2	0.00e+00	0	57	0	2932867072	46	4104
2026-01-01 16:50:46.77	306.24	15.15	-42.3	-43.0	18.3	0.00e+00	0	57	0	2953838592	46	4064
2026-01-01 16:50:49.73	306.83	15.04	-42.2	-42.9	18.4	0.00e+00	0	57	0	2975858688	46	4017
2026-01-01 16:50:52.70	307.41	14.92	-42.2	-42.9	18.3	0.00e+00	0	57	0	2996830208	46	4033
2026-01-01 16:50:55.66	307.99	14.81	-42.4	-43.1	18.2	0.00e+00	0	57	0	3018850304	46	4105
2026-01-01 16:50:58.62	308.56	14.69	-42.6	-43.3	18.0	0.00e+00	0	57	0	3039821824	47	3982
2026-01-01 16:51:01.60	309.14	14.57	-42.7	-43.5	17.8	0.00e+00	0	57	0	3061841920	47	4054
2026-01-01 16:51:04.57	309.70	14.44	-42.6	-43.3	18.0	0.00e+00	0	57	0	3082813440	47	3983
2026-01-01 16:51:07.54	310.27	14.32	-42.5	-43.1	18.1	0.00e+00	0	57	0	3104833536	47	3906
2026-01-01 16:51:10.50	310.82	14.19	-42.4	-43.1	18.1	0.00e+00	0	57	0	3125805056	47	3903
2026-01-01 16:51:13.47	311.37	14.06	-42.2	-42.8	18.4	0.00e+00	0	57	0	3147825152	47	3774
2026-01-01 16:51:16.44	311.92	13.93	-42.2	-42.8	18.4	0.00e+00	0	57	0	3168796672	47	3774
2026-01-01 16:51:19.40	312.46	13.80	-42.2	-42.9	18.3	0.00e+00	0	57	0	3189768192	47	3805
2026-01-01 16:51:22.37	313.00	13.66	-42.4	-43.1	18.2	0.00e+00	0	57	0	3210739712	47	3871
2026-01-01 16:51:25.33	313.53	13.53	-42.4	-43.1	18.1	0.00e+00	0	57	0	3232759808	47	3887
2026-01-01 16:51:28.28	314.06	13.39	-42.7	-43.4	17.9	0.00e+00	0	57	0	3253731328	47	4005
2026-01-01 16:51:31.24	314.58	13.25	-42.6	-43.3	17.9	0.00e+00	0	57	0	3275751424	47	3971
2026-01-01 16:51:34.23	315.10	13.11	-42.6	-43.3	17.9	0.00e+00	0	57	0	3296722944	47	3996
2026-01-01 16:51:37.20	315.62	12.97	-42.6	-43.3	17.9	0.00e+00	0	57	0	3318743040	47	3993
2026-01-01 16:51:40.18	316.13	12.83	-42.9	-43.6	17.6	0.00e+00	0	57	0	3339714560	47	4128
2026-01-01 16:51:43.14	316.63	12.69	-42.9	-43.7	17.5	0.00e+00	0	57	0	3361734656	47	4157
2026-01-01 16:51:46.12	317.13	12.54	-43.0	-43.7	17.5	0.00e+00	0	57	0	3382706176	47	4183
2026-01-01 16:51:49.08	317.63	12.40	-42.9	-43.7	17.5	0.00e+00	0	57	0	3404726272	47	4154
2026-01-01 16:51:52.04	318.12	12.25	-43.0	-43.8	17.4	0.00e+00	0	58	0	3425697792	47	4205
2026-01-01 16:51:55.01	318.60	12.10	-43.1	-43.9	17.5	0.00e+00	0	58	0	3446669312	48	4020
2026-01-01 16:51:57.97	319.08	11.96	-43.4	-44.2	17.2	0.00e+00	0	57	0	3468689408	48	4150
2026-01-01 16:52:00.94	319.56	11.81	-43.6	-44.5	16.9	0.00e+00	0	57	0	3489660928	48	4295
2026-01-01 16:52:03.91	320.03	11.66	-43.1	-43.8	17.5	0.00e+00	0	57	0	3511681024	48	3984
2026-01-01 16:52:06.88	320.50	11.51	-43.0	-43.7	17.6	0.00e+00	0	57	0	3532652544	48	3927
2026-01-01 16:52:09.85	320.96	11.35	-43.2	-43.9	17.3	0.00e+00	0	58	0	3553624064	48	4049
2026-01-01 16:52:12.83	321.42	11.20	-43.5	-44.3	17.0	0.00e+00	0	57	0	3575644160	48	4204
2026-01-01 16:52:15.80	321.87	11.05	-43.7	-44.5	16.8	0.00e+00	0	57	0	3596615680	49	4086
2026-01-01 16:52:18.78	322.33	10.89	-43.9	-44.7	16.5	0.00e+00	0	57	0	3618635776	49	4187
2026-01-01 16:52:21.75	322.77	10.74	-43.7	-44.5	16.8	0.00e+00	0	58	0	3639607296	49	4088
2026-01-01 16:52:24.72	323.21	10.59	-44.0	-44.9	16.4	0.00e+00	0	57	0	3661627392	49	4243
2026-01-01 16:52:27.69	323.64	10.43	-43.8	-44.6	16.6	0.00e+00	0	57	0	3682598912	49	4136
2026-01-01 16:52:30.65	324.07	10.28	-44.0	-44.9	16.3	0.00e+00	0	58	0	3704619008	49	4273
2026-01-01 16:52:33.60	324.50	10.12	-43.7	-44.5	16.7	0.00e+00	0	58	0	3725590528	49	4074
2026-01-01 16:52:36.55	324.92	9.97	-44.0	-44.9	16.3	0.00e+00	0	57	0	3746562048	49	4265
2026-01-01 16:52:39.52	325.34	9.81	-44.3	-45.2	16.0	0.00e+00	0	57	0	3768582144	50	4166
2026-01-01 16:52:42.47	325.75	9.65	-44.5	-45.4	15.8	0.00e+00	0	57	0	3789553664	50	4290
2026-01-01 16:52:45.44	326.16	9.50	-44.7	-45.8	15.5	0.00e+00	0	57	0	3811573760	51	4203
2026-01-01 16:52:48.41	326.56	9.34	-43.9	-44.8	16.4	0.00e+00	0	57	0	3832545280	50	3984
2026-01-01 16:52:51.38	326.96	9.18	-43.7	-44.6	16.6	0.00e+00	0	58	0	3854565376	50	3885
2026-01-01 16:52:54.35	327.36	9.02	-43.4	-44.2	16.9	0.00e+00	0	57	0	3875536896	49	3952
2026-01-01 16:52:57.33	327.75	8.86	-43.8	-44.7	16.5	0.00e+00	0	57	0	3896508416	49	4147
2026-01-01 16:53:00.29	328.14	8.71	-44.0	-44.9	16.3	0.00e+00	0	57	0	3918528512	49	4252
2026-01-01 16:53:03.27	328.53	8.55	-44.1	-45.0	16.1	0.00e+00	0	58	0	3939500032	49	4318
2026-01-01 16:53:06.26	328.91	8.39	-44.5	-45.5	15.6	0.00e+00	0	57	0	3961520128	50	4303
2026-01-01 16:53:09.22	329.28	8.23	-44.2	-45.1	16.0	0.00e+00	0	57	0	3982491648	50	4135
2026-01-01 16:53:12.19	329.66	8.07	-44.4	-45.4	15.6	0.00e+00	0	57	0	4004511744	50	4271
2026-01-01 16:53:15.15	330.02	7.91	-44.4	-45.4	15.7	0.00e+00	0	58	0	4025483264	50	4272
2026-01-01 16:53:18.12	330.39	7.76	-44.2	-45.2	15.9	0.00e+00	0	58	0	4046454784	50	4167
2026-01-01 16:53:21.10	330.75	7.60	-44.3	-45.3	15.7	0.00e+00	0	58	0	4068474880	50	4199
2026-01-01 16:53:24.06	331.11	7.44	-44.2	-45.2	15.9	0.00e+00	0	57	0	4089446400	50	4165
2026-01-01 16:53:27.04	331.46	7.28	-44.4	-45.4	15.6	0.00e+00	0	58	0	4111466496	50	4285
2026-01-01 16:53:29.98	331.81	7.12	-44.4	-45.4	15.6	0.00e+00	0	57	0	4132438016	50	4265
2026-01-01 16:53:32.94	332.16	6.97	-44.6	-45.6	15.4	0.00e+00	0	57	0	4154458112	50	4364
2026-01-01 16:53:35.92	332.50	6.81	-44.5	-45.6	15.4	0.00e+00	0	58	0	4175429632	50	4360
2026-01-01 16:53:38.90	332.84	6.65	-44.5	-45.6	15.4	0.00e+00	0	57	0	4197449728	51	4099
2026-01-01 16:53:41.88	333.18	6.49	-44.7	-45.7	15.1	0.00e+00	0	58	0	4218421248	51	4191
2026-01-01 16:53:44.85	333.51	6.34	-44.8	-45.9	15.0	0.00e+00	0	58	0	4239392768	51	4253
2026-01-01 16:53:47.82	333.84	6.18	-44.7	-45.8	15.1	0.00e+00	0	58	0	4261412864	51	4227
2026-01-01 16:53:50.78	334.16	6.02	-45.1	-46.3	14.5	0.00e+00	0	58	0	4282384384	51	4487
2026-01-01 16:53:53.73	334.48	5.87	-45.2	-46.5	14.2	1.10e-06	0	58	0	4304404480	52	4293
2026-01-01 16:53:56.71	334.80	5.71	-45.7	-47.1	13.6	1.25e-05	0	58	0	4325376000	53	4384
2026-01-01 16:53:59.68	335.12	5.55	-45.8	-47.3	13.4	1.37e-05	0	58	0	4347396096	53	4452
2026-01-01 16:54:02.65	335.43	5.40	-45.9	-47.4	13.2	1.37e-05	0	58	0	4368367616	53	4534
2026-01-01 16:54:05.61	335.74	5.24	-45.4	-46.7	13.8	9.10e-06	0	58	0	4389339136	53	4184
2026-01-01 16:54:08.57	336.05	5.09	-45.0	-46.3	14.2	1.10e-06	0	58	0	4411359232	53	3975
2026-01-01 16:54:11.54	336.35	4.93	-51.6	-61.6	3.8	8.46e-01	0	58	104	4422893568	64	12365
2026-01-01 16:54:14.51	336.65	4.78	-52.0	-62.4	3.8	8.46e-01	0	58	104	4422893568	65	12747
2026-01-01 16:54:17.49	336.95	4.62	-52.4	-62.5	3.8	8.47e-01	0	58	104	4422893568	66	12156
2026-01-01 16:54:20.46	337.24	4.47	-52.5	-62.7	3.8	8.45e-01	0	58	104	4422893568	66	12452
2026-01-01 16:54:23.42	337.53	4.31	-52.3	-62.7	3.8	8.47e-01	0	58	104	4422893568	66	12424
2026-01-01 16:54:26.39	337.82	4.16	-52.5	-62.7	3.8	8.47e-01	0	57	104	4422893568	66	12511
2026-01-01 16:54:29.35	338.11	4.01	-52.5	-62.8	3.8	8.46e-01	0	58	104	4422893568	66	12598
2026-01-01 16:54:32.31	338.39	3.85	-52.5	-62.9	3.8	8.47e-01	0	58	104	4422893568	67	11989
2026-01-01 16:54:35.29	338.67	3.70	-52.6	-62.9	3.8	8.46e-01	0	58	104	4422893568	67	11966
2026-01-01 16:54:38.25	338.95	3.55	-52.7	-62.9	3.8	8.47e-01	0	58	104	4422893568	67	11961
2026-01-01 16:54:41.22	339.22	3.39	-52.4	-62.8	3.8	8.46e-01	0	58	104	4422893568	67	11932
2026-01-01 16:54:44.19	339.49	3.24	-52.6	-62.8	3.8	8.46e-01	0	58	104	4422893568	67	11938
2026-01-01 16:54:47.15	339.76	3.09	-52.6	-62.8	3.8	8.47e-01	0	58	104	4422893568	67	11879
2026-01-01 16:54:50.11	340.03	2.94	-52.6	-62.9	3.8	8.46e-01	0	58	104	4422893568	67	11959

#Closed at: 2026-01-01 16:54:50
#Recorded file [4422 MB]: D:/Data/31026_260101_195410.dat