passes_logs/2026/01/01/R3.0SM8_Murmansk_STILSPACE/R3.0SM8_Murmansk_STILSPACE__20260101_073216_NOAA_20_JPSS-1_rec.log

#Pass ID: 20260101_073216_NOAA 20 (JPSS-1)
#Satellite: NOAA 20 (JPSS-1)
#Configuration: NOAA 20
#almurnet v.1.7.20240730
#Start time: 2026-01-01 07:32:17

#Version: 2.2.20231116
#Station: R3.0SM8_Murmansk_STILSPACE
#Location: 33.092731 lon 68.902999 lat
#TLE: 1 43013U 17073A   25365.45761817  .00000173  00000+0  10307-3 0  9993
#TLE: 2 43013  98.7620 301.5517 0001951  60.3814 299.7557 14.19531661420675

#Time	Az	El	Level	Level2	SNR	BER	BlckErr	Temp	State	Recorded	gain1	gain2
2026-01-01 07:32:17.65	105.46	3.09	-52.5	-66.3	3.8	1.49e+00	0	51	0	0	67	17983
2026-01-01 07:32:21.58	105.28	3.34	-52.2	-65.9	3.8	1.49e+00	0	51	104	0	67	17269
2026-01-01 07:32:25.53	105.10	3.60	-51.8	-65.5	3.8	1.49e+00	0	52	104	0	66	17364
2026-01-01 07:32:29.47	104.91	3.85	-51.8	-65.5	3.8	1.49e+00	0	52	104	0	66	17287
2026-01-01 07:32:33.42	104.72	4.11	-51.7	-65.1	3.8	1.49e+00	0	52	104	0	66	16518
2026-01-01 07:32:37.35	104.52	4.36	-51.7	-63.9	3.8	1.49e+00	0	53	104	0	66	14382
2026-01-01 07:32:41.26	104.32	4.62	-51.5	-61.6	4.3	1.36e+00	0	53	0	0	66	11157
2026-01-01 07:32:45.11	104.13	4.88	-51.1	-59.2	5.5	5.74e-01	0	53	0	6291456	65	8886
2026-01-01 07:32:48.95	103.93	5.14	-51.1	-58.5	6.0	3.13e-01	0	53	0	13631488	65	8235
2026-01-01 07:32:52.91	103.71	5.40	-50.7	-56.9	7.4	1.28e-01	0	53	0	20971520	64	7237
2026-01-01 07:32:56.78	103.50	5.67	-50.9	-57.6	6.8	2.24e-01	0	54	0	28311552	64	7865
2026-01-01 07:33:00.64	103.29	5.94	-50.2	-54.8	9.6	1.67e-02	0	54	0	35651584	63	6057
2026-01-01 07:33:04.49	103.07	6.20	-49.3	-52.9	11.6	7.76e-04	0	54	0	42991616	61	5427
2026-01-01 07:33:08.36	102.85	6.47	-48.8	-51.9	12.7	7.85e-05	0	54	0	50331648	60	5121
2026-01-01 07:33:12.23	102.62	6.75	-49.0	-52.3	12.3	2.70e-04	0	55	0	56623104	60	5365
2026-01-01 07:33:16.10	102.39	7.02	-49.0	-52.1	12.6	1.04e-04	0	55	0	63963136	60	5237
2026-01-01 07:33:19.97	102.15	7.30	-49.0	-52.1	12.6	1.18e-04	0	55	0	71303168	60	5233
2026-01-01 07:33:23.82	101.91	7.58	-49.1	-52.3	12.4	9.68e-05	0	55	0	78643200	60	5368
2026-01-01 07:33:27.69	101.66	7.87	-48.6	-51.4	13.3	1.52e-05	0	55	0	85983232	60	4830
2026-01-01 07:33:31.55	101.41	8.15	-48.7	-51.4	13.3	1.06e-05	0	55	0	93323264	60	4870
2026-01-01 07:33:35.41	101.15	8.44	-48.6	-51.4	13.4	1.06e-05	0	56	0	100663296	60	4823
2026-01-01 07:33:39.28	100.89	8.73	-48.6	-51.3	13.5	1.06e-05	0	56	0	108003328	60	4760
2026-01-01 07:33:43.14	100.62	9.03	-48.6	-51.3	13.5	8.30e-06	0	56	0	115343360	60	4789
2026-01-01 07:33:47.00	100.35	9.32	-48.5	-51.0	13.8	1.50e-06	0	56	0	122683392	60	4645
2026-01-01 07:33:50.86	100.07	9.62	-48.7	-51.3	13.5	1.14e-05	0	56	0	130023424	60	4808
2026-01-01 07:33:54.72	99.78	9.93	-48.5	-51.1	13.8	7.60e-06	0	56	0	136314880	60	4702
2026-01-01 07:33:58.58	99.49	10.23	-48.6	-51.2	13.7	9.10e-06	0	56	0	143654912	60	4727
2026-01-01 07:34:02.44	99.20	10.54	-48.4	-50.9	14.0	2.20e-06	0	56	0	150994944	59	4822
2026-01-01 07:34:06.30	98.89	10.85	-48.4	-50.9	14.1	2.20e-06	0	57	0	158334976	59	4827
2026-01-01 07:34:10.23	98.57	11.18	-48.3	-50.6	14.3	7.00e-07	0	57	0	165675008	59	4689
2026-01-01 07:34:14.11	98.25	11.50	-48.1	-50.5	14.5	7.00e-07	0	57	0	173015040	59	4615
2026-01-01 07:34:17.97	97.93	11.82	-48.3	-50.6	14.4	7.00e-07	0	57	0	180355072	59	4693
2026-01-01 07:34:21.85	97.59	12.14	-48.3	-50.6	14.4	7.00e-07	0	57	0	187695104	59	4678
2026-01-01 07:34:25.71	97.25	12.47	-48.7	-51.3	13.7	3.00e-06	0	57	0	195035136	59	5065
2026-01-01 07:34:29.57	96.90	12.81	-48.2	-50.4	14.6	0.00e+00	0	57	0	202375168	59	4585
2026-01-01 07:34:33.44	96.54	13.14	-47.9	-50.0	15.0	0.00e+00	0	57	0	209715200	59	4380
2026-01-01 07:34:37.30	96.18	13.48	-48.1	-50.4	14.7	1.50e-06	0	58	0	217055232	58	4818
2026-01-01 07:34:41.15	95.80	13.82	-47.8	-49.9	15.2	0.00e+00	0	58	0	223346688	58	4577
2026-01-01 07:34:45.01	95.42	14.17	-47.9	-49.9	15.2	0.00e+00	0	58	0	230686720	58	4594
2026-01-01 07:34:48.87	95.02	14.52	-47.8	-49.8	15.3	0.00e+00	0	58	0	238026752	58	4494
2026-01-01 07:34:52.75	94.62	14.87	-47.8	-49.8	15.3	0.00e+00	0	58	0	245366784	58	4542
2026-01-01 07:34:56.61	94.21	15.23	-47.8	-49.8	15.4	0.00e+00	0	58	0	252706816	58	4502
2026-01-01 07:35:00.47	93.78	15.59	-47.7	-49.6	15.5	0.00e+00	0	58	0	260046848	58	4413
2026-01-01 07:35:04.33	93.35	15.95	-47.9	-49.9	15.2	0.00e+00	0	58	0	267386880	58	4569
2026-01-01 07:35:08.20	92.90	16.32	-47.8	-49.8	15.4	0.00e+00	0	58	0	274726912	58	4499
2026-01-01 07:35:12.07	92.45	16.70	-47.9	-49.9	15.2	0.00e+00	0	59	0	282066944	58	4580
2026-01-01 07:35:15.92	91.98	17.07	-48.3	-50.5	14.7	7.00e-07	0	59	0	289406976	58	4881
2026-01-01 07:35:19.78	91.50	17.45	-48.4	-50.7	14.4	0.00e+00	0	59	0	296747008	58	5036
2026-01-01 07:35:23.65	91.00	17.84	-48.4	-50.7	14.4	7.00e-07	0	59	0	303038464	59	4756
2026-01-01 07:35:27.51	90.50	18.22	-48.4	-50.6	14.6	0.00e+00	0	59	0	310378496	59	4695
2026-01-01 07:35:31.37	89.98	18.61	-48.4	-50.6	14.6	0.00e+00	0	59	0	317718528	59	4696
2026-01-01 07:35:35.22	89.45	19.01	-48.3	-50.6	14.6	0.00e+00	0	59	0	325058560	59	4676
2026-01-01 07:35:39.08	88.90	19.40	-48.2	-50.3	14.9	0.00e+00	0	59	0	332398592	59	4519
2026-01-01 07:35:42.95	88.34	19.81	-48.4	-50.7	14.5	0.00e+00	0	59	0	339738624	59	4756
2026-01-01 07:35:46.80	87.76	20.21	-47.8	-49.8	15.4	0.00e+00	0	59	0	347078656	58	4531
2026-01-01 07:35:50.66	87.17	20.62	-47.8	-49.9	15.4	0.00e+00	0	59	0	354418688	58	4549
2026-01-01 07:35:54.52	86.56	21.03	-47.9	-49.9	15.4	0.00e+00	0	59	0	361758720	58	4563
2026-01-01 07:35:58.39	85.93	21.45	-48.0	-50.0	15.2	0.00e+00	0	59	0	369098752	58	4641
2026-01-01 07:36:02.24	85.29	21.86	-47.7	-49.6	15.7	0.00e+00	0	59	0	375390208	58	4410
2026-01-01 07:36:06.10	84.63	22.29	-47.7	-49.6	15.7	0.00e+00	0	59	0	382730240	58	4398
2026-01-01 07:36:09.95	83.95	22.71	-47.7	-49.6	15.7	0.00e+00	0	59	0	390070272	58	4421
2026-01-01 07:36:13.81	83.25	23.13	-47.9	-49.9	15.3	0.00e+00	0	60	0	397410304	58	4590
2026-01-01 07:36:17.69	82.53	23.57	-48.1	-50.3	15.0	0.00e+00	0	59	0	404750336	58	4778
2026-01-01 07:36:21.55	81.79	24.00	-48.5	-50.8	14.6	7.00e-07	0	60	0	412090368	58	5045
2026-01-01 07:36:25.41	81.03	24.43	-48.6	-50.9	14.4	7.00e-07	0	60	0	419430400	59	4843
2026-01-01 07:36:29.27	80.25	24.86	-48.7	-51.1	14.2	7.00e-07	0	60	0	426770432	59	4947
2026-01-01 07:36:33.13	79.44	25.30	-48.6	-51.0	14.3	7.00e-07	0	60	0	434110464	59	4884
2026-01-01 07:36:36.99	78.62	25.73	-48.6	-50.9	14.4	3.80e-06	0	60	0	441450496	59	4853
2026-01-01 07:36:40.85	77.77	26.17	-48.6	-50.9	14.4	0.00e+00	0	60	0	447741952	59	4856
2026-01-01 07:36:44.70	76.90	26.60	-48.7	-51.0	14.3	0.00e+00	0	60	0	455081984	59	4907
2026-01-01 07:36:48.57	76.00	27.04	-48.5	-50.8	14.6	0.00e+00	0	60	0	462422016	59	4769
2026-01-01 07:36:52.44	75.07	27.48	-48.6	-50.9	14.4	7.00e-07	0	60	0	469762048	59	4831
2026-01-01 07:36:56.31	74.12	27.91	-48.6	-50.8	14.5	1.50e-06	0	60	0	477102080	59	4814
2026-01-01 07:37:00.16	73.15	28.34	-48.2	-50.5	14.9	0.00e+00	0	60	0	484442112	59	4609
2026-01-01 07:37:04.02	72.15	28.77	-48.6	-51.0	14.4	7.00e-07	0	60	0	491782144	59	4872
2026-01-01 07:37:07.91	71.11	29.19	-48.8	-51.2	14.1	0.00e+00	0	60	0	499122176	59	5025
2026-01-01 07:37:11.79	70.05	29.61	-49.1	-51.7	13.6	1.50e-06	0	60	0	506462208	59	5307
2026-01-01 07:37:15.64	68.97	30.03	-49.7	-53.0	12.3	1.72e-04	0	60	0	513802240	61	5479
2026-01-01 07:37:19.49	67.86	30.43	-50.2	-53.9	11.4	6.95e-04	0	60	0	521142272	62	5739
2026-01-01 07:37:23.36	66.71	30.84	-50.2	-53.9	11.3	1.17e-03	0	61	0	528482304	62	5751
2026-01-01 07:37:27.22	65.55	31.23	-50.3	-54.1	11.1	1.66e-03	0	61	0	534773760	62	5906
2026-01-01 07:37:31.07	64.35	31.61	-50.9	-55.7	9.5	8.38e-03	0	60	0	542113792	63	6675
2026-01-01 07:37:34.93	63.13	31.99	-50.8	-55.2	10.0	8.70e-03	0	60	0	549453824	63	6319
2026-01-01 07:37:38.79	61.87	32.35	-50.3	-54.0	11.1	2.13e-03	0	60	0	556793856	63	5508
2026-01-01 07:37:42.66	60.58	32.71	-50.0	-53.5	11.9	5.33e-04	0	61	0	564133888	63	5195
2026-01-01 07:37:46.52	59.27	33.05	-49.9	-53.1	12.3	2.25e-04	0	61	0	571473920	62	5266
2026-01-01 07:37:50.37	57.94	33.37	-49.7	-52.8	12.5	1.98e-04	0	61	0	578813952	62	5097
2026-01-01 07:37:54.23	56.58	33.68	-49.3	-52.1	13.3	2.36e-05	0	61	0	586153984	61	4957
2026-01-01 07:37:58.10	55.18	33.98	-48.9	-51.4	14.0	1.50e-06	0	61	0	593494016	60	4817
2026-01-01 07:38:01.96	53.77	34.26	-48.7	-51.1	14.3	0.00e+00	0	61	0	600834048	60	4674
2026-01-01 07:38:05.81	52.33	34.52	-48.5	-50.7	14.7	0.00e+00	0	61	0	607125504	59	4709
2026-01-01 07:38:09.68	50.87	34.76	-48.0	-50.0	15.4	0.00e+00	0	61	0	614465536	59	4352
2026-01-01 07:38:13.55	49.38	34.98	-47.9	-49.8	15.5	0.00e+00	0	61	0	621805568	58	4540
2026-01-01 07:38:17.43	47.87	35.19	-47.2	-48.8	16.6	0.00e+00	0	61	0	629145600	57	4287
2026-01-01 07:38:21.28	46.36	35.36	-47.3	-48.9	16.5	0.00e+00	0	61	0	636485632	57	4329
2026-01-01 07:38:25.14	44.82	35.52	-47.6	-49.4	15.9	0.00e+00	0	61	0	643825664	57	4597
2026-01-01 07:38:29.00	43.27	35.66	-46.9	-48.4	17.0	0.00e+00	0	61	0	651165696	56	4315
2026-01-01 07:38:32.86	41.71	35.77	-47.1	-48.8	16.6	0.00e+00	0	61	0	658505728	56	4514
2026-01-01 07:38:36.72	40.14	35.85	-47.6	-49.4	16.0	0.00e+00	0	61	0	665845760	56	4827
2026-01-01 07:38:40.58	38.56	35.92	-47.7	-49.5	15.9	0.00e+00	0	61	0	673185792	57	4628
2026-01-01 07:38:44.43	36.99	35.95	-48.0	-50.0	15.4	0.00e+00	0	61	0	679477248	57	4905
2026-01-01 07:38:48.30	35.40	35.97	-48.2	-50.3	15.1	0.00e+00	0	61	0	686817280	58	4803
2026-01-01 07:38:52.15	33.82	35.95	-48.3	-50.4	15.0	7.00e-07	0	61	0	694157312	58	4855
2026-01-01 07:38:56.02	32.23	35.92	-48.9	-51.4	13.9	2.20e-06	0	61	0	701497344	59	5148
2026-01-01 07:38:59.88	30.66	35.85	-48.5	-50.8	14.7	0.00e+00	0	61	0	708837376	59	4781
2026-01-01 07:39:03.74	29.09	35.77	-49.0	-51.5	13.9	7.00e-07	0	61	0	716177408	59	5190
2026-01-01 07:39:07.62	27.52	35.65	-48.9	-51.4	13.9	9.10e-06	0	61	0	723517440	60	4858
2026-01-01 07:39:11.48	25.97	35.52	-48.8	-51.5	13.5	8.30e-06	0	61	0	730857472	60	4889
2026-01-01 07:39:15.33	24.44	35.36	-49.7	-53.8	10.5	3.88e-03	0	61	0	738197504	61	6031
2026-01-01 07:39:19.19	22.92	35.18	-49.7	-53.9	10.5	5.97e-03	0	61	0	745537536	61	6080
2026-01-01 07:39:23.04	21.43	34.98	-49.3	-52.3	12.9	6.02e-05	0	61	0	751828992	61	5056
2026-01-01 07:39:26.93	19.94	34.76	-49.2	-52.0	13.3	2.59e-05	0	61	0	759169024	61	4883
2026-01-01 07:39:30.79	18.48	34.52	-48.9	-51.4	13.9	2.20e-06	0	61	0	766509056	60	4836
2026-01-01 07:39:34.65	17.04	34.26	-48.4	-50.7	14.7	0.00e+00	0	61	0	773849088	60	4444
2026-01-01 07:39:38.51	15.63	33.98	-48.2	-50.2	15.1	0.00e+00	0	61	0	781189120	59	4483
2026-01-01 07:39:42.38	14.24	33.68	-48.5	-50.8	14.5	0.00e+00	0	61	0	788529152	59	4804
2026-01-01 07:39:46.24	12.87	33.37	-49.0	-51.6	13.8	1.06e-05	0	61	0	795869184	59	5237
2026-01-01 07:39:50.10	11.54	33.04	-49.2	-52.0	13.3	1.52e-05	0	62	0	803209216	60	5218
2026-01-01 07:39:53.96	10.23	32.70	-49.4	-52.3	13.0	5.95e-05	0	61	0	810549248	60	5372
2026-01-01 07:39:57.82	8.95	32.35	-49.5	-52.5	12.8	5.49e-05	0	62	0	817889280	60	5482
2026-01-01 07:40:01.69	7.70	31.99	-49.7	-52.9	12.3	1.40e-04	0	62	0	825229312	61	5463
2026-01-01 07:40:05.57	6.47	31.61	-50.1	-53.7	11.5	6.93e-04	0	62	0	832569344	62	5632
2026-01-01 07:40:09.42	5.27	31.23	-49.6	-52.7	12.6	9.23e-05	0	62	0	838860800	62	5023
2026-01-01 07:40:13.28	4.11	30.83	-49.8	-53.1	12.3	1.94e-04	0	62	0	846200832	62	5220
2026-01-01 07:40:17.14	2.97	30.43	-49.1	-51.8	13.5	1.83e-05	0	62	0	853540864	61	4767
2026-01-01 07:40:21.01	1.86	30.03	-49.2	-51.9	13.4	1.29e-05	0	62	0	860880896	61	4854
2026-01-01 07:40:24.88	0.77	29.61	-49.1	-51.8	13.5	8.30e-06	0	62	0	868220928	61	4793
2026-01-01 07:40:28.74	359.72	29.19	-49.2	-51.9	13.4	1.52e-05	0	61	0	875560960	61	4849
2026-01-01 07:40:32.60	358.70	28.77	-48.4	-50.7	14.6	7.00e-07	0	62	0	882900992	60	4480
2026-01-01 07:40:36.47	357.69	28.34	-48.0	-50.0	15.3	0.00e+00	0	62	0	890241024	59	4360
2026-01-01 07:40:40.34	356.72	27.91	-47.8	-49.6	15.7	0.00e+00	0	62	0	897581056	58	4440
2026-01-01 07:40:44.19	355.78	27.48	-47.4	-49.1	16.2	0.00e+00	0	62	0	904921088	57	4426
2026-01-01 07:40:48.05	354.86	27.05	-47.2	-48.9	16.4	0.00e+00	0	62	0	911212544	57	4337
2026-01-01 07:40:51.90	353.96	26.62	-47.3	-49.0	16.4	0.00e+00	0	62	0	918552576	57	4353
2026-01-01 07:40:55.78	353.09	26.18	-46.8	-48.3	17.0	0.00e+00	0	62	0	925892608	56	4286
2026-01-01 07:40:59.64	352.24	25.75	-46.9	-48.5	16.8	0.00e+00	0	62	0	933232640	56	4362
2026-01-01 07:41:03.49	351.42	25.31	-46.9	-48.5	16.7	0.00e+00	0	62	0	940572672	56	4389
2026-01-01 07:41:07.36	350.62	24.88	-46.9	-48.5	16.8	0.00e+00	0	62	0	947912704	56	4360
2026-01-01 07:41:11.23	349.84	24.44	-47.2	-48.9	16.3	0.00e+00	0	62	0	955252736	56	4582
2026-01-01 07:41:15.10	349.08	24.01	-47.1	-48.8	16.4	0.00e+00	0	62	0	962592768	56	4518
2026-01-01 07:41:18.96	348.34	23.58	-47.5	-49.3	15.9	0.00e+00	0	62	0	969932800	56	4807
2026-01-01 07:41:22.82	347.63	23.15	-47.2	-49.0	16.2	0.00e+00	0	62	0	977272832	56	4613
2026-01-01 07:41:26.68	346.93	22.73	-47.4	-49.2	16.0	0.00e+00	0	62	0	984612864	56	4754
2026-01-01 07:41:30.56	346.25	22.30	-47.2	-48.9	16.3	0.00e+00	0	62	0	991952896	56	4588
2026-01-01 07:41:34.42	345.59	21.88	-47.4	-49.3	15.9	0.00e+00	0	62	0	998244352	56	4762
2026-01-01 07:41:38.28	344.95	21.47	-47.4	-49.3	15.9	0.00e+00	0	62	0	1005584384	56	4777
2026-01-01 07:41:42.14	344.32	21.05	-47.7	-49.7	15.4	0.00e+00	0	62	0	1012924416	57	4711
2026-01-01 07:41:46.01	343.71	20.64	-47.9	-50.0	15.0	0.00e+00	0	62	0	1020264448	57	4917
2026-01-01 07:41:49.88	343.12	20.23	-48.0	-50.2	14.9	7.00e-07	0	62	0	1027604480	58	4736
2026-01-01 07:41:53.74	342.55	19.83	-48.7	-51.3	13.5	7.60e-06	0	62	0	1034944512	59	5100
2026-01-01 07:41:57.59	341.99	19.43	-49.4	-53.0	11.5	3.24e-04	0	62	0	1042284544	60	5839
2026-01-01 07:42:01.45	341.44	19.03	-50.2	-55.8	8.2	4.70e-02	0	62	0	1049624576	62	7124
2026-01-01 07:42:05.32	340.91	18.64	-50.0	-55.3	8.7	3.82e-02	0	62	0	1056964608	62	6740
2026-01-01 07:42:09.18	340.39	18.25	-49.1	-52.5	12.0	5.93e-04	0	62	0	1064304640	61	5206
2026-01-01 07:42:13.04	339.89	17.86	-48.7	-51.5	13.3	3.89e-05	0	62	0	1070596096	60	4874
2026-01-01 07:42:16.90	339.40	17.48	-49.1	-52.2	12.8	3.50e-05	0	62	0	1077936128	60	5310
2026-01-01 07:42:20.76	338.92	17.10	-48.5	-51.0	13.9	6.10e-06	0	62	0	1085276160	60	4646
2026-01-01 07:42:24.63	338.46	16.73	-48.4	-50.8	14.1	2.20e-06	0	62	0	1092616192	60	4525
2026-01-01 07:42:28.49	338.00	16.36	-48.0	-50.1	14.9	0.00e+00	0	62	0	1099956224	59	4419
2026-01-01 07:42:32.36	337.56	15.99	-48.2	-50.5	14.5	0.00e+00	0	62	0	1107296256	59	4627
2026-01-01 07:42:36.22	337.12	15.62	-48.3	-50.7	14.3	7.00e-07	0	62	0	1114636288	59	4722
2026-01-01 07:42:40.10	336.70	15.26	-48.3	-50.7	14.3	0.00e+00	0	62	0	1121976320	59	4757
2026-01-01 07:42:43.96	336.29	14.91	-48.5	-51.0	14.0	3.00e-06	0	62	0	1129316352	59	4923
2026-01-01 07:42:47.81	335.89	14.56	-48.3	-50.5	14.5	0.00e+00	0	62	0	1136656384	59	4650
2026-01-01 07:42:51.70	335.50	14.20	-48.3	-50.7	14.4	1.50e-06	0	62	0	1143996416	59	4711
2026-01-01 07:42:55.56	335.11	13.86	-48.5	-50.8	14.2	2.20e-06	0	62	0	1151336448	59	4812
2026-01-01 07:42:59.43	334.74	13.52	-48.8	-51.4	13.6	4.50e-06	0	62	0	1157627904	59	5134
2026-01-01 07:43:03.28	334.38	13.18	-48.9	-51.6	13.4	1.37e-05	0	62	0	1164967936	59	5262
2026-01-01 07:43:07.15	334.02	12.84	-48.9	-51.7	13.4	1.52e-05	0	62	0	1172307968	59	5281
2026-01-01 07:43:11.01	333.67	12.51	-48.7	-51.3	13.6	7.60e-06	0	62	0	1179648000	59	5098
2026-01-01 07:43:14.88	333.33	12.18	-48.8	-51.5	13.5	8.30e-06	0	62	0	1186988032	59	5193
2026-01-01 07:43:18.74	333.00	11.86	-48.9	-51.6	13.3	1.22e-05	0	62	0	1194328064	59	5279
2026-01-01 07:43:22.61	332.68	11.54	-48.9	-51.7	13.2	1.67e-05	0	62	0	1201668096	59	5318
2026-01-01 07:43:26.47	332.36	11.22	-48.8	-51.7	13.3	1.60e-05	0	62	0	1209008128	60	4990
2026-01-01 07:43:30.34	332.05	10.91	-49.1	-52.1	12.8	4.88e-05	0	62	0	1216348160	60	5230
2026-01-01 07:43:34.21	331.75	10.59	-49.2	-52.2	12.6	9.15e-05	0	62	0	1223688192	60	5323
2026-01-01 07:43:38.05	331.45	10.29	-49.4	-52.8	12.1	2.09e-04	0	62	0	1231028224	60	5658
2026-01-01 07:43:41.92	331.16	9.98	-49.2	-52.2	12.6	9.68e-05	0	62	0	1237319680	60	5338
2026-01-01 07:43:45.78	330.88	9.68	-49.1	-52.2	12.6	8.01e-05	0	62	0	1244659712	60	5324
2026-01-01 07:43:49.65	330.60	9.38	-49.2	-52.5	12.3	1.50e-04	0	62	0	1251999744	60	5485
2026-01-01 07:43:53.51	330.33	9.08	-49.4	-52.7	12.1	2.49e-04	0	62	0	1259339776	60	5635
2026-01-01 07:43:57.38	330.06	8.79	-49.6	-53.1	11.7	6.91e-04	0	62	0	1266679808	61	5544
2026-01-01 07:44:01.23	329.80	8.50	-49.6	-53.2	11.5	8.44e-04	0	62	0	1274019840	61	5647
2026-01-01 07:44:05.11	329.55	8.21	-49.6	-53.2	11.5	7.15e-04	0	62	0	1281359872	61	5608
2026-01-01 07:44:08.96	329.30	7.92	-49.5	-53.1	11.6	5.86e-04	0	62	0	1288699904	61	5538
2026-01-01 07:44:12.81	329.06	7.64	-49.7	-53.4	11.3	9.80e-04	0	62	0	1296039936	61	5751
2026-01-01 07:44:16.67	328.82	7.36	-49.9	-53.9	10.7	2.50e-03	0	62	0	1303379968	61	6081
2026-01-01 07:44:20.53	328.58	7.08	-49.9	-54.0	10.6	2.91e-03	0	62	0	1309671424	61	6133
2026-01-01 07:44:24.40	328.35	6.81	-49.9	-54.0	10.5	5.10e-03	0	62	0	1317011456	61	6166
2026-01-01 07:44:28.27	328.12	6.53	-49.9	-54.1	10.4	4.76e-03	0	62	0	1324351488	61	6240
2026-01-01 07:44:32.13	327.90	6.26	-49.8	-53.8	10.7	3.08e-03	0	62	0	1331691520	61	6022
2026-01-01 07:44:36.00	327.69	6.00	-49.8	-54.0	10.5	3.97e-03	0	62	0	1339031552	61	6138
2026-01-01 07:44:39.85	327.47	5.73	-49.9	-54.3	10.1	5.11e-03	0	62	0	1346371584	61	6420
2026-01-01 07:44:43.71	327.27	5.47	-49.9	-54.3	10.1	4.86e-03	0	62	0	1353711616	61	6348
2026-01-01 07:44:47.57	327.06	5.21	-49.7	-54.2	10.1	6.71e-03	0	62	0	1361051648	61	6327
2026-01-01 07:44:51.45	326.86	4.95	-51.6	-65.5	3.8	1.49e+00	0	62	104	1365245952	65	18504
2026-01-01 07:44:55.39	326.66	4.68	-51.3	-65.3	3.8	1.49e+00	0	62	104	1365245952	64	19034
2026-01-01 07:44:59.34	326.46	4.42	-52.4	-66.4	3.8	1.49e+00	0	62	104	1365245952	66	19292
2026-01-01 07:45:03.29	326.27	4.17	-52.5	-66.5	3.8	1.49e+00	0	62	104	1365245952	67	18409
2026-01-01 07:45:07.24	326.08	3.91	-52.6	-66.6	3.8	1.49e+00	0	62	104	1365245952	67	18570
2026-01-01 07:45:11.16	325.89	3.66	-52.6	-66.6	3.8	1.49e+00	0	62	104	1365245952	67	18663
2026-01-01 07:45:15.11	325.71	3.41	-52.8	-66.6	3.8	1.49e+00	0	62	104	1365245952	67	18712
2026-01-01 07:45:19.06	325.53	3.16	-52.8	-66.6	3.8	1.49e+00	0	62	104	1365245952	67	18654

#Closed at: 2026-01-01 07:45:22
#Recorded file [1365 MB]: D:/Data/31026_260101_104450.dat