passes_logs/2026/01/01/R3.0SM8_Murmansk_STILSPACE/R3.0SM8_Murmansk_STILSPACE__20260101_211452_NOAA_20_JPSS-1_rec.log

#Pass ID: 20260101_211452_NOAA 20 (JPSS-1)
#Satellite: NOAA 20 (JPSS-1)
#Configuration: NOAA 20
#almurnet v.1.7.20240730
#Start time: 2026-01-01 21:14:54

#Version: 2.2.20231116
#Station: R3.0SM8_Murmansk_STILSPACE
#Location: 33.092731 lon 68.902999 lat
#TLE: 1 43013U 17073A   26001.30344297  .00000183  00000+0  10758-3 0  9995
#TLE: 2 43013  98.7621 302.3885 0001938  59.1624 300.9742 14.19532032420790

#Time	Az	El	Level	Level2	SNR	BER	BlckErr	Temp	State	Recorded	gain1	gain2
2026-01-01 21:14:54.45	20.93	3.07	-52.3	-66.2	3.8	1.49e+00	0	46	0	0	66	18825
2026-01-01 21:14:57.40	21.25	3.19	-52.2	-66.1	3.8	1.49e+00	0	46	104	0	67	17611
2026-01-01 21:15:00.37	21.57	3.32	-52.2	-66.1	3.8	1.49e+00	0	46	104	0	66	18520
2026-01-01 21:15:03.34	21.89	3.45	-52.1	-66.0	3.8	1.49e+00	0	47	104	0	66	18434
2026-01-01 21:15:06.31	22.21	3.58	-52.1	-65.9	3.8	1.49e+00	0	47	104	0	66	18210
2026-01-01 21:15:09.28	22.54	3.71	-51.9	-65.7	3.8	1.49e+00	0	47	104	0	66	17727
2026-01-01 21:15:12.25	22.87	3.84	-51.2	-65.2	3.8	1.49e+00	0	47	104	0	65	17787
2026-01-01 21:15:15.23	23.20	3.97	-51.4	-65.1	3.8	1.49e+00	0	48	104	0	65	17493
2026-01-01 21:15:18.19	23.53	4.10	-51.4	-64.9	3.8	1.49e+00	0	48	104	0	65	17246
2026-01-01 21:15:21.16	23.87	4.23	-51.1	-65.1	3.8	1.49e+00	0	47	104	0	65	17500
2026-01-01 21:15:24.13	24.21	4.36	-51.3	-65.1	3.8	1.49e+00	0	48	104	0	65	17665
2026-01-01 21:15:27.10	24.56	4.49	-51.2	-64.9	3.8	1.49e+00	0	48	104	0	65	17275
2026-01-01 21:15:30.05	24.90	4.62	-51.4	-65.0	3.8	1.49e+00	0	48	104	0	65	17468
2026-01-01 21:15:33.01	25.25	4.74	-51.2	-63.7	3.8	1.49e+00	0	49	104	0	65	14910
2026-01-01 21:15:35.98	25.60	4.87	-50.6	-58.6	5.6	5.28e-01	0	49	0	2097152	64	8772
2026-01-01 21:15:38.96	25.96	5.00	-49.9	-55.0	9.0	4.66e-02	0	49	0	7340032	62	6521
2026-01-01 21:15:41.93	26.31	5.13	-49.9	-55.0	9.0	3.39e-02	0	49	0	13631488	62	6542
2026-01-01 21:15:44.90	26.68	5.25	-49.8	-54.8	9.2	1.46e-02	0	49	0	18874368	62	6409
2026-01-01 21:15:47.87	27.04	5.38	-49.6	-54.2	9.9	1.14e-02	0	49	0	24117248	62	5940
2026-01-01 21:15:50.84	27.41	5.51	-49.1	-52.8	11.3	1.30e-03	0	49	0	30408704	61	5361
2026-01-01 21:15:53.81	27.78	5.63	-48.7	-52.1	12.0	3.21e-04	0	49	0	35651584	60	5253
2026-01-01 21:15:56.78	28.15	5.76	-48.4	-51.6	12.6	1.36e-04	0	50	0	40894464	59	5232
2026-01-01 21:15:59.75	28.53	5.89	-48.4	-51.5	12.7	4.57e-05	0	50	0	46137344	59	5175
2026-01-01 21:16:02.73	28.91	6.01	-48.6	-51.8	12.5	1.24e-04	0	50	0	52428800	59	5378
2026-01-01 21:16:05.70	29.29	6.14	-48.2	-51.1	13.2	2.05e-05	0	50	0	57671680	59	4949
2026-01-01 21:16:08.67	29.68	6.26	-48.1	-50.8	13.4	2.05e-05	0	50	0	62914560	59	4794
2026-01-01 21:16:11.65	30.07	6.38	-48.1	-50.9	13.4	1.29e-05	0	50	0	69206016	59	4832
2026-01-01 21:16:14.61	30.46	6.51	-48.3	-51.2	13.1	1.83e-05	0	51	0	74448896	59	5031
2026-01-01 21:16:17.57	30.85	6.63	-48.3	-51.2	13.1	2.67e-05	0	51	0	79691776	59	5022
2026-01-01 21:16:20.54	31.25	6.75	-48.4	-51.3	13.0	2.74e-05	0	51	0	85983232	59	5052
2026-01-01 21:16:23.50	31.65	6.87	-48.3	-51.0	13.4	1.22e-05	0	51	0	91226112	59	4884
2026-01-01 21:16:26.48	32.06	6.99	-48.4	-51.4	12.9	6.17e-05	0	51	0	96468992	59	5138
2026-01-01 21:16:29.44	32.46	7.11	-48.6	-51.7	12.6	8.69e-05	0	51	0	102760448	59	5314
2026-01-01 21:16:32.38	32.87	7.23	-48.7	-51.9	12.5	1.33e-04	0	51	0	108003328	59	5423
2026-01-01 21:16:35.34	33.28	7.35	-48.5	-51.4	13.0	5.18e-05	0	51	0	113246208	59	5145
2026-01-01 21:16:38.31	33.70	7.47	-48.6	-51.5	12.9	6.02e-05	0	51	0	118489088	59	5168
2026-01-01 21:16:41.29	34.12	7.58	-48.4	-51.2	13.2	3.05e-05	0	52	0	124780544	59	5021
2026-01-01 21:16:44.26	34.55	7.70	-48.4	-51.1	13.3	2.89e-05	0	52	0	130023424	59	4964
2026-01-01 21:16:47.23	34.97	7.82	-48.3	-51.1	13.4	1.60e-05	0	52	0	135266304	59	4936
2026-01-01 21:16:50.18	35.40	7.93	-48.4	-51.3	13.1	2.89e-05	0	52	0	141557760	59	5063
2026-01-01 21:16:53.16	35.84	8.05	-48.5	-51.4	13.1	3.66e-05	0	52	0	146800640	59	5129
2026-01-01 21:16:56.13	36.28	8.16	-48.8	-52.0	12.5	9.07e-05	0	52	0	152043520	59	5465
2026-01-01 21:16:59.08	36.71	8.27	-48.5	-51.3	13.1	2.97e-05	0	52	0	158334976	59	5099
2026-01-01 21:17:02.06	37.16	8.38	-48.7	-51.7	12.8	5.03e-05	0	52	0	163577856	59	5332
2026-01-01 21:17:05.02	37.61	8.49	-48.3	-51.0	13.6	9.90e-06	0	52	0	168820736	59	4872
2026-01-01 21:17:07.99	38.06	8.60	-48.2	-51.0	13.5	9.90e-06	0	52	0	174063616	59	4926
2026-01-01 21:17:10.94	38.51	8.71	-48.5	-51.4	13.1	2.51e-05	0	52	0	180355072	59	5122
2026-01-01 21:17:13.90	38.96	8.82	-48.6	-51.4	13.1	1.75e-05	0	52	0	185597952	59	5155
2026-01-01 21:17:16.85	39.42	8.92	-48.6	-51.5	13.0	3.20e-05	0	53	0	190840832	59	5210
2026-01-01 21:17:19.84	39.89	9.03	-48.7	-51.6	12.9	5.49e-05	0	53	0	197132288	59	5250
2026-01-01 21:17:22.81	40.35	9.13	-48.7	-51.6	13.0	9.91e-05	0	53	0	202375168	59	5261
2026-01-01 21:17:25.77	40.82	9.23	-48.4	-51.0	13.6	9.90e-06	0	53	0	207618048	59	4899
2026-01-01 21:17:28.75	41.30	9.34	-48.3	-50.9	13.6	1.06e-05	0	53	0	213909504	59	4863
2026-01-01 21:17:31.70	41.77	9.44	-48.4	-51.0	13.5	4.50e-06	0	53	0	219152384	59	4923
2026-01-01 21:17:34.67	42.25	9.53	-48.6	-51.5	13.1	2.05e-05	0	53	0	224395264	59	5215
2026-01-01 21:17:37.64	42.73	9.63	-48.7	-51.8	12.9	3.89e-05	0	53	0	229638144	59	5344
2026-01-01 21:17:40.61	43.22	9.73	-48.6	-51.5	13.1	5.95e-05	0	53	0	235929600	59	5194
2026-01-01 21:17:43.57	43.70	9.82	-48.4	-51.2	13.4	1.52e-05	0	53	0	241172480	59	5026
2026-01-01 21:17:46.53	44.19	9.91	-48.7	-51.6	13.0	2.97e-05	0	54	0	246415360	59	5248
2026-01-01 21:17:49.50	44.69	10.01	-48.8	-51.9	12.7	8.62e-05	0	53	0	252706816	59	5423
2026-01-01 21:17:52.47	45.19	10.10	-48.5	-51.2	13.4	1.37e-05	0	53	0	257949696	59	5016
2026-01-01 21:17:55.44	45.69	10.18	-48.5	-51.2	13.4	1.67e-05	0	54	0	263192576	59	5034
2026-01-01 21:17:58.39	46.19	10.27	-48.6	-51.5	13.2	2.36e-05	0	54	0	269484032	59	5168
2026-01-01 21:18:01.36	46.70	10.36	-48.8	-51.7	12.9	5.26e-05	0	54	0	274726912	59	5337
2026-01-01 21:18:04.32	47.20	10.44	-48.9	-51.9	12.8	7.47e-05	0	54	0	279969792	59	5437
2026-01-01 21:18:07.29	47.72	10.52	-48.4	-51.1	13.6	9.10e-06	0	54	0	286261248	59	4935
2026-01-01 21:18:10.27	48.23	10.60	-48.1	-50.6	14.1	2.20e-06	0	54	0	291504128	59	4656
2026-01-01 21:18:13.23	48.75	10.68	-48.2	-50.8	13.9	1.50e-06	0	54	0	296747008	59	4773
2026-01-01 21:18:16.18	49.27	10.76	-48.4	-51.0	13.6	5.30e-06	0	54	0	301989888	59	4908
2026-01-01 21:18:19.16	49.79	10.83	-48.5	-51.1	13.6	9.10e-06	0	54	0	308281344	59	4959
2026-01-01 21:18:22.13	50.32	10.90	-48.2	-50.9	13.8	6.80e-06	0	54	0	313524224	59	4817
2026-01-01 21:18:25.09	50.84	10.98	-48.7	-51.6	13.1	2.59e-05	0	54	0	318767104	59	5220
2026-01-01 21:18:28.06	51.37	11.04	-48.0	-50.4	14.3	2.20e-06	0	54	0	325058560	59	4576
2026-01-01 21:18:31.00	51.90	11.11	-48.0	-50.5	14.3	1.50e-06	0	54	0	330301440	58	4878
2026-01-01 21:18:33.97	52.44	11.18	-48.1	-50.6	14.1	7.00e-07	0	54	0	335544320	58	4967
2026-01-01 21:18:36.93	52.97	11.24	-48.3	-50.9	13.8	5.30e-06	0	54	0	341835776	58	5135
2026-01-01 21:18:39.90	53.51	11.30	-48.4	-51.0	13.7	1.06e-05	0	54	0	347078656	58	5209
2026-01-01 21:18:42.87	54.06	11.36	-48.3	-50.9	13.8	3.00e-06	0	54	0	352321536	58	5159
2026-01-01 21:18:45.84	54.60	11.41	-48.6	-51.3	13.4	2.13e-05	0	54	0	357564416	59	5054
2026-01-01 21:18:48.81	55.15	11.47	-48.9	-51.8	12.9	3.58e-05	0	54	0	363855872	59	5384
2026-01-01 21:18:51.79	55.70	11.52	-49.0	-52.0	12.6	8.01e-05	0	54	0	369098752	59	5506
2026-01-01 21:18:54.76	56.25	11.57	-49.1	-52.3	12.4	1.23e-04	0	54	0	374341632	60	5392
2026-01-01 21:18:57.74	56.80	11.62	-48.7	-51.7	13.0	4.19e-05	0	55	0	380633088	60	5040
2026-01-01 21:19:00.71	57.35	11.67	-49.1	-52.3	12.4	9.99e-05	0	55	0	385875968	60	5376
2026-01-01 21:19:03.65	57.90	11.71	-49.1	-52.4	12.3	2.61e-04	0	55	0	391118848	60	5450
2026-01-01 21:19:06.60	58.46	11.75	-48.7	-51.6	13.1	3.81e-05	0	55	0	397410304	60	4967
2026-01-01 21:19:09.56	59.01	11.79	-48.5	-51.2	13.5	2.21e-05	0	55	0	402653184	60	4753
2026-01-01 21:19:12.52	59.57	11.82	-48.3	-51.0	13.7	3.80e-06	0	55	0	407896064	59	4898
2026-01-01 21:19:15.48	60.13	11.86	-48.4	-51.0	13.6	5.30e-06	0	55	0	413138944	59	4926
2026-01-01 21:19:18.45	60.69	11.89	-48.6	-51.3	13.4	1.44e-05	0	55	0	419430400	59	5092
2026-01-01 21:19:21.41	61.25	11.92	-48.7	-51.5	13.2	2.13e-05	0	55	0	424673280	59	5182
2026-01-01 21:19:24.38	61.82	11.94	-48.4	-51.1	13.6	6.80e-06	0	55	0	429916160	59	4947
2026-01-01 21:19:27.35	62.38	11.97	-48.3	-50.8	13.9	3.00e-06	0	55	0	436207616	59	4795
2026-01-01 21:19:30.31	62.95	11.99	-48.6	-51.5	13.3	2.82e-05	0	55	0	441450496	59	5169
2026-01-01 21:19:33.28	63.51	12.01	-48.9	-51.9	12.9	7.70e-05	0	55	0	446693376	59	5455
2026-01-01 21:19:36.25	64.08	12.02	-48.5	-51.1	13.7	1.22e-05	0	55	0	452984832	59	4964
2026-01-01 21:19:39.22	64.65	12.04	-48.3	-50.9	13.9	3.00e-06	0	55	0	458227712	59	4837
2026-01-01 21:19:42.20	65.22	12.05	-47.9	-50.3	14.4	3.00e-06	0	55	0	463470592	59	4501
2026-01-01 21:19:45.16	65.79	12.06	-47.9	-50.2	14.7	0.00e+00	0	55	0	469762048	58	4710
2026-01-01 21:19:48.13	66.36	12.07	-47.9	-50.2	14.5	0.00e+00	0	55	0	475004928	58	4730
2026-01-01 21:19:51.10	66.93	12.07	-47.4	-49.5	15.3	0.00e+00	0	55	0	480247808	58	4360
2026-01-01 21:19:54.07	67.50	12.07	-47.6	-49.8	15.0	0.00e+00	0	55	0	485490688	58	4512
2026-01-01 21:19:57.03	68.07	12.07	-47.6	-49.8	15.0	0.00e+00	0	55	0	491782144	58	4510
2026-01-01 21:20:00.00	68.64	12.07	-47.3	-49.3	15.4	0.00e+00	0	55	0	497025024	57	4519
2026-01-01 21:20:02.96	69.20	12.06	-47.1	-49.0	15.7	0.00e+00	0	55	0	502267904	57	4362
2026-01-01 21:20:05.92	69.77	12.05	-47.4	-49.5	15.2	0.00e+00	0	55	0	508559360	57	4624
2026-01-01 21:20:08.88	70.34	12.04	-47.4	-49.5	15.3	0.00e+00	0	56	0	513802240	57	4616
2026-01-01 21:20:11.85	70.91	12.03	-47.6	-49.7	15.0	7.00e-07	0	55	0	519045120	57	4743
2026-01-01 21:20:14.82	71.47	12.01	-47.6	-49.7	15.1	0.00e+00	0	55	0	525336576	57	4718
2026-01-01 21:20:17.78	72.04	11.99	-47.7	-49.9	14.9	0.00e+00	0	55	0	530579456	57	4833
2026-01-01 21:20:20.76	72.61	11.97	-47.5	-49.6	15.1	0.00e+00	0	56	0	535822336	57	4678
2026-01-01 21:20:23.73	73.17	11.95	-47.3	-49.3	15.5	0.00e+00	0	55	0	542113792	57	4519
2026-01-01 21:20:26.69	73.74	11.92	-47.3	-49.3	15.4	0.00e+00	0	56	0	547356672	57	4521
2026-01-01 21:20:29.65	74.30	11.89	-47.3	-49.4	15.4	7.00e-07	0	55	0	552599552	57	4562
2026-01-01 21:20:32.61	74.86	11.86	-47.4	-49.4	15.3	0.00e+00	0	55	0	557842432	57	4593
2026-01-01 21:20:35.58	75.42	11.83	-47.7	-49.8	15.0	0.00e+00	0	55	0	564133888	57	4809
2026-01-01 21:20:38.55	75.98	11.79	-47.8	-50.0	14.7	0.00e+00	0	56	0	569376768	57	4912
2026-01-01 21:20:41.52	76.54	11.75	-48.1	-50.5	14.3	0.00e+00	0	56	0	574619648	57	5168
2026-01-01 21:20:44.48	77.10	11.71	-47.9	-50.1	14.7	0.00e+00	0	56	0	580911104	58	4684
2026-01-01 21:20:47.46	77.66	11.67	-47.6	-49.7	15.0	0.00e+00	0	56	0	586153984	58	4478
2026-01-01 21:20:50.41	78.21	11.62	-47.4	-49.4	15.4	0.00e+00	0	56	0	591396864	57	4554
2026-01-01 21:20:53.37	78.76	11.58	-47.1	-49.0	15.8	0.00e+00	0	56	0	597688320	57	4356
2026-01-01 21:20:56.35	79.31	11.53	-47.2	-49.2	15.5	0.00e+00	0	56	0	602931200	57	4459
2026-01-01 21:20:59.31	79.86	11.47	-47.2	-49.1	15.6	0.00e+00	0	56	0	608174080	57	4416
2026-01-01 21:21:02.28	80.41	11.42	-47.3	-49.3	15.5	0.00e+00	0	56	0	613416960	57	4498
2026-01-01 21:21:05.24	80.95	11.36	-47.3	-49.3	15.4	0.00e+00	0	56	0	619708416	57	4536
2026-01-01 21:21:08.20	81.49	11.30	-47.6	-49.7	15.0	0.00e+00	0	56	0	624951296	57	4746
2026-01-01 21:21:11.16	82.03	11.24	-47.3	-49.3	15.4	0.00e+00	0	56	0	630194176	57	4533
2026-01-01 21:21:14.12	82.57	11.18	-47.4	-49.5	15.3	0.00e+00	0	56	0	636485632	57	4649
2026-01-01 21:21:17.10	83.11	11.12	-47.5	-49.7	15.1	0.00e+00	0	56	0	641728512	57	4742
2026-01-01 21:21:20.06	83.64	11.05	-47.4	-49.5	15.2	0.00e+00	0	56	0	646971392	57	4615
2026-01-01 21:21:23.02	84.17	10.98	-47.4	-49.4	15.3	0.00e+00	0	56	0	653262848	57	4579
2026-01-01 21:21:25.99	84.70	10.91	-47.6	-49.8	15.0	0.00e+00	0	56	0	658505728	57	4765
2026-01-01 21:21:28.95	85.22	10.84	-47.3	-49.3	15.5	0.00e+00	0	56	0	663748608	57	4544
2026-01-01 21:21:31.90	85.75	10.76	-47.2	-49.1	15.6	0.00e+00	0	56	0	668991488	57	4406
2026-01-01 21:21:34.87	86.27	10.69	-47.2	-49.2	15.6	0.00e+00	0	56	0	675282944	57	4448
2026-01-01 21:21:37.84	86.79	10.61	-47.4	-49.4	15.3	0.00e+00	0	56	0	680525824	57	4583
2026-01-01 21:21:40.81	87.30	10.53	-47.6	-49.7	15.0	0.00e+00	0	56	0	685768704	57	4753
2026-01-01 21:21:43.78	87.82	10.44	-47.7	-49.9	14.8	0.00e+00	0	56	0	692060160	57	4859
2026-01-01 21:21:46.75	88.33	10.36	-48.1	-50.4	14.3	1.50e-06	0	56	0	697303040	58	4867
2026-01-01 21:21:49.72	88.84	10.28	-48.1	-50.5	14.3	7.00e-07	0	56	0	702545920	58	4899
2026-01-01 21:21:52.68	89.34	10.19	-48.4	-51.0	13.7	6.80e-06	0	56	0	708837376	58	5193
2026-01-01 21:21:55.65	89.84	10.10	-48.6	-51.5	13.2	2.51e-05	0	56	0	714080256	59	5182
2026-01-01 21:21:58.63	90.35	10.01	-48.9	-52.0	12.7	5.26e-05	0	56	0	719323136	59	5499
2026-01-01 21:22:01.59	90.84	9.92	-49.0	-52.1	12.5	9.46e-05	0	56	0	724566016	59	5589
2026-01-01 21:22:04.55	91.33	9.82	-48.6	-51.5	13.3	1.67e-05	0	56	0	730857472	59	5175
2026-01-01 21:22:07.52	91.82	9.73	-48.7	-51.5	13.2	2.05e-05	0	56	0	736100352	59	5194
2026-01-01 21:22:10.48	92.31	9.63	-48.8	-51.7	12.9	4.65e-05	0	56	0	741343232	59	5339
2026-01-01 21:22:13.44	92.79	9.53	-48.9	-52.0	12.7	6.63e-05	0	56	0	747634688	59	5494
2026-01-01 21:22:16.41	93.27	9.44	-49.1	-52.6	12.0	1.84e-04	0	56	0	752877568	60	5569
2026-01-01 21:22:19.39	93.75	9.33	-49.4	-53.3	11.3	1.11e-03	0	56	0	758120448	60	5998
2026-01-01 21:22:22.36	94.23	9.23	-49.7	-53.6	10.9	2.29e-03	0	56	0	764411904	61	5922
2026-01-01 21:22:25.32	94.70	9.13	-49.8	-53.9	10.6	3.90e-03	0	56	0	769654784	61	6109
2026-01-01 21:22:28.28	95.16	9.03	-49.6	-53.4	11.1	1.55e-03	0	56	0	774897664	61	5744
2026-01-01 21:22:31.25	95.63	8.92	-49.5	-53.3	11.3	1.37e-03	0	56	0	781189120	61	5659
2026-01-01 21:22:34.22	96.09	8.81	-49.3	-52.9	11.7	6.35e-04	0	56	0	786432000	61	5413
2026-01-01 21:22:37.19	96.55	8.71	-49.2	-52.7	11.8	4.37e-04	0	56	0	791674880	61	5329
2026-01-01 21:22:40.15	97.00	8.60	-49.4	-53.3	11.2	1.08e-03	0	56	0	797966336	61	5701
2026-01-01 21:22:43.11	97.46	8.49	-49.5	-53.3	11.2	1.37e-03	0	56	0	803209216	61	5690
2026-01-01 21:22:46.07	97.90	8.38	-48.8	-52.1	12.5	1.46e-04	0	56	0	808452096	60	5229
2026-01-01 21:22:49.05	98.35	8.26	-48.8	-51.8	12.7	6.63e-05	0	56	0	813694976	60	5100
2026-01-01 21:22:52.03	98.79	8.15	-49.1	-52.6	12.0	2.44e-04	0	56	0	819986432	60	5540
2026-01-01 21:22:54.99	99.23	8.04	-49.1	-52.6	12.0	3.65e-04	0	56	0	825229312	60	5529
2026-01-01 21:22:57.96	99.67	7.92	-49.2	-52.6	12.0	4.03e-04	0	57	0	830472192	60	5552
2026-01-01 21:23:00.94	100.10	7.81	-48.6	-51.6	13.0	7.55e-05	0	57	0	836763648	60	4946
2026-01-01 21:23:03.89	100.53	7.69	-48.5	-51.2	13.4	1.44e-05	0	56	0	842006528	59	5016
2026-01-01 21:23:06.87	100.95	7.57	-48.6	-51.6	13.0	3.89e-05	0	56	0	847249408	59	5241
2026-01-01 21:23:09.84	101.38	7.45	-48.6	-51.7	12.9	4.88e-05	0	56	0	853540864	59	5293
2026-01-01 21:23:12.80	101.80	7.34	-48.8	-52.0	12.5	9.46e-05	0	57	0	858783744	59	5490
2026-01-01 21:23:15.77	102.21	7.22	-48.8	-52.0	12.5	1.27e-04	0	56	0	864026624	59	5492
2026-01-01 21:23:18.72	102.62	7.10	-48.9	-52.0	12.4	1.40e-04	0	56	0	869269504	59	5528
2026-01-01 21:23:21.69	103.03	6.98	-48.8	-51.8	12.7	6.17e-05	0	56	0	875560960	59	5344
2026-01-01 21:23:24.66	103.44	6.85	-48.6	-51.6	12.9	4.88e-05	0	56	0	880803840	59	5274
2026-01-01 21:23:27.63	103.84	6.73	-48.3	-51.0	13.5	1.06e-05	0	56	0	886046720	59	4885
2026-01-01 21:23:30.59	104.24	6.61	-48.4	-51.1	13.4	1.29e-05	0	57	0	892338176	59	4964
2026-01-01 21:23:33.56	104.63	6.49	-48.3	-51.0	13.4	1.14e-05	0	56	0	897581056	59	4901
2026-01-01 21:23:36.53	105.03	6.36	-48.5	-51.5	13.0	3.73e-05	0	57	0	902823936	59	5163
2026-01-01 21:23:39.52	105.42	6.24	-48.3	-51.1	13.3	2.51e-05	0	56	0	909115392	59	4975
2026-01-01 21:23:42.49	105.81	6.11	-48.6	-51.6	12.8	6.25e-05	0	56	0	914358272	59	5256
2026-01-01 21:23:45.46	106.19	5.99	-48.6	-51.6	12.8	6.79e-05	0	57	0	919601152	59	5259
2026-01-01 21:23:48.45	106.57	5.86	-48.4	-51.2	13.1	3.20e-05	0	56	0	925892608	59	5029
2026-01-01 21:23:51.41	106.95	5.73	-48.0	-50.7	13.6	5.30e-06	0	56	0	931135488	59	4729
2026-01-01 21:23:54.38	107.32	5.61	-48.2	-50.9	13.5	2.20e-06	0	56	0	936378368	59	4821
2026-01-01 21:23:57.35	107.70	5.48	-48.5	-51.3	13.0	2.97e-05	0	57	0	942669824	59	5100
2026-01-01 21:24:00.32	108.06	5.35	-48.6	-51.7	12.6	5.87e-05	0	57	0	947912704	59	5311
2026-01-01 21:24:03.29	108.43	5.22	-48.5	-51.4	12.8	7.40e-05	0	57	0	953155584	59	5147
2026-01-01 21:24:06.24	108.79	5.10	-48.4	-51.4	12.9	7.09e-05	0	57	0	958398464	59	5117
2026-01-01 21:24:09.20	109.15	4.97	-51.8	-65.7	3.8	1.49e+00	0	57	104	960495616	65	18856
2026-01-01 21:24:12.15	109.50	4.84	-52.2	-66.0	3.8	1.49e+00	0	56	104	960495616	66	18410
2026-01-01 21:24:15.12	109.85	4.71	-52.2	-66.1	3.8	1.49e+00	0	57	104	960495616	66	18658
2026-01-01 21:24:18.08	110.20	4.58	-52.3	-66.2	3.8	1.49e+00	0	57	104	960495616	66	18864
2026-01-01 21:24:21.05	110.55	4.45	-52.3	-66.2	3.8	1.49e+00	0	57	104	960495616	66	18913
2026-01-01 21:24:24.01	110.89	4.33	-52.3	-66.3	3.8	1.49e+00	0	57	104	960495616	66	19119
2026-01-01 21:24:26.99	111.23	4.19	-52.4	-66.3	3.8	1.49e+00	0	57	104	960495616	66	19133
2026-01-01 21:24:29.95	111.57	4.07	-52.5	-66.4	3.8	1.49e+00	0	57	104	960495616	66	19203
2026-01-01 21:24:32.92	111.91	3.93	-52.4	-66.4	3.8	1.49e+00	0	57	104	960495616	66	19218
2026-01-01 21:24:35.89	112.24	3.80	-52.4	-66.4	3.8	1.49e+00	0	57	104	960495616	66	19186
2026-01-01 21:24:38.86	112.57	3.67	-52.3	-66.4	3.8	1.49e+00	0	57	104	960495616	66	19190
2026-01-01 21:24:41.84	112.90	3.54	-52.5	-66.3	3.8	1.49e+00	0	57	104	960495616	66	19135
2026-01-01 21:24:44.81	113.22	3.41	-52.5	-66.3	3.8	1.49e+00	0	57	104	960495616	66	19159
2026-01-01 21:24:47.78	113.54	3.28	-52.3	-66.4	3.8	1.49e+00	0	57	104	960495616	66	19168
2026-01-01 21:24:50.76	113.86	3.15	-52.5	-66.3	3.8	1.49e+00	0	57	104	960495616	66	19164
2026-01-01 21:24:53.72	114.18	3.02	-52.4	-66.3	3.8	1.49e+00	0	57	104	960495616	66	19110

#Closed at: 2026-01-01 21:24:56
#Recorded file [960 MB]: D:/Data/31026_260102_002407.dat