passes_logs/2026/01/01/R3.0SM8_Murmansk_STILSPACE/R3.0SM8_Murmansk_STILSPACE__20260101_132741_NOAA_21_JPSS-2_rec.log

#Pass ID: 20260101_132741_NOAA 21 (JPSS-2)
#Satellite: NOAA 21 (JPSS-2)
#Configuration: NOAA-21
#almurnet v.1.7.20240730
#Start time: 2026-01-01 13:34:04

#Version: 2.2.20231116
#Station: R3.0SM8_Murmansk_STILSPACE
#Location: 33.092731 lon 68.902999 lat
#TLE: 1 54234U 22150A   25365.91564118  .00000174  00000+0  10330-3 0  9995
#TLE: 2 54234  98.7484 301.9868 0001297 354.4876   5.6285 14.19530431162816

#Time	Az	El	Level	Level2	SNR	BER	BlckErr	Temp	State	Recorded	gain1	gain2
2026-01-01 13:34:04.40	319.26	7.50	-52.6	-62.9	3.8	8.47e-01	0	57	0	0	67	11980
2026-01-01 13:34:05.38	319.41	7.47	-52.7	-64.4	3.8	1.49e+00	0	58	104	0	68	13607
2026-01-01 13:34:06.37	319.57	7.45	-52.9	-64.4	3.8	1.49e+00	0	58	104	0	68	13594
2026-01-01 13:34:07.36	319.72	7.43	-52.9	-64.4	3.8	1.49e+00	0	58	104	0	68	13624
2026-01-01 13:34:08.35	319.87	7.40	-52.6	-64.4	3.8	1.49e+00	0	58	104	0	68	13618
2026-01-01 13:34:09.33	320.02	7.38	-52.8	-64.4	3.8	1.49e+00	0	58	104	0	68	13607
2026-01-01 13:34:10.32	320.18	7.35	-52.7	-64.4	3.8	1.49e+00	0	58	104	0	68	13627
2026-01-01 13:34:11.31	320.33	7.33	-52.8	-64.4	3.8	1.49e+00	0	58	104	0	68	13604
2026-01-01 13:34:12.28	320.48	7.30	-52.8	-64.4	3.8	1.49e+00	0	58	104	0	68	13612
2026-01-01 13:34:13.27	320.63	7.28	-52.8	-64.4	3.8	1.49e+00	0	58	104	0	68	13621
2026-01-01 13:34:14.26	320.78	7.25	-52.8	-64.4	3.8	1.49e+00	0	58	104	0	68	13590
2026-01-01 13:34:15.25	320.93	7.22	-52.8	-64.4	3.8	1.49e+00	0	58	104	0	68	13583
2026-01-01 13:34:16.23	321.08	7.20	-52.8	-64.3	3.8	1.49e+00	0	58	104	0	68	13565
2026-01-01 13:34:17.22	321.24	7.17	-52.8	-64.3	3.8	1.49e+00	0	58	104	0	68	13546
2026-01-01 13:34:18.21	321.39	7.15	-52.6	-64.3	3.8	1.49e+00	0	58	104	0	68	13477
2026-01-01 13:34:19.20	321.54	7.12	-52.6	-64.3	3.8	1.49e+00	0	58	104	0	68	13479
2026-01-01 13:34:20.19	321.69	7.09	-52.6	-64.3	3.8	1.49e+00	0	58	104	0	68	13475
2026-01-01 13:34:21.19	321.84	7.07	-52.5	-64.3	3.8	1.49e+00	0	58	104	0	68	13465
2026-01-01 13:34:22.18	321.99	7.04	-52.8	-64.2	3.8	1.49e+00	0	58	104	0	68	13387
2026-01-01 13:34:23.17	322.14	7.01	-52.7	-64.2	3.8	1.49e+00	0	58	104	0	68	13403
2026-01-01 13:34:24.16	322.29	6.99	-52.6	-64.1	3.8	1.49e+00	0	58	104	0	67	14028
2026-01-01 13:34:25.15	322.43	6.96	-52.6	-64.1	3.8	1.49e+00	0	58	104	0	67	13932
2026-01-01 13:34:26.13	322.58	6.93	-52.5	-64.0	3.8	1.49e+00	0	58	104	0	67	13884
2026-01-01 13:34:27.13	322.73	6.90	-52.4	-64.0	3.8	1.49e+00	0	58	104	0	67	13827
2026-01-01 13:34:28.12	322.88	6.88	-52.4	-64.0	3.8	1.49e+00	0	58	104	0	67	13779
2026-01-01 13:34:29.11	323.03	6.85	-52.4	-63.8	3.8	1.49e+00	0	58	104	0	67	13530
2026-01-01 13:34:30.09	323.17	6.82	-52.3	-63.8	3.8	1.49e+00	0	58	104	0	67	13484
2026-01-01 13:34:31.08	323.32	6.79	-52.3	-63.8	3.8	1.49e+00	0	58	104	0	67	13492
2026-01-01 13:34:32.07	323.47	6.77	-52.2	-63.7	3.8	1.49e+00	0	58	104	0	67	13353
2026-01-01 13:34:33.05	323.61	6.74	-52.0	-63.5	3.8	1.49e+00	0	58	104	0	67	13028
2026-01-01 13:34:34.04	323.76	6.71	-51.9	-63.3	3.8	1.49e+00	0	58	104	0	66	13484
2026-01-01 13:34:35.02	323.90	6.68	-51.8	-63.3	3.8	1.49e+00	0	58	104	0	66	13481
2026-01-01 13:34:36.02	324.05	6.65	-51.7	-63.3	3.8	1.49e+00	0	58	104	0	66	13495
2026-01-01 13:34:37.00	324.20	6.62	-51.8	-63.3	3.8	1.49e+00	0	58	104	0	66	13417
2026-01-01 13:34:37.98	324.34	6.60	-51.6	-63.3	3.8	1.49e+00	0	58	104	0	66	13438
2026-01-01 13:34:38.97	324.48	6.57	-51.8	-63.3	3.8	1.49e+00	0	58	104	0	66	13476
2026-01-01 13:34:39.96	324.63	6.54	-51.6	-63.3	3.8	1.49e+00	0	58	104	0	66	13489
2026-01-01 13:34:40.95	324.77	6.51	-51.8	-63.3	3.8	1.49e+00	0	58	104	0	66	13470
2026-01-01 13:34:41.94	324.92	6.48	-51.8	-63.2	3.8	1.49e+00	0	58	104	0	66	13390
2026-01-01 13:34:42.92	325.06	6.45	-51.6	-63.1	3.8	1.49e+00	0	58	104	0	66	13143
2026-01-01 13:34:43.92	325.21	6.42	-51.6	-62.9	3.8	1.49e+00	0	58	104	0	66	12871
2026-01-01 13:34:44.91	325.35	6.39	-51.7	-62.7	3.8	1.49e+00	0	58	104	0	66	12600
2026-01-01 13:34:45.90	325.49	6.36	-51.7	-62.7	3.8	1.49e+00	0	58	104	0	66	12624
2026-01-01 13:34:46.89	325.63	6.33	-51.8	-62.8	3.8	1.49e+00	0	58	104	0	66	12737
2026-01-01 13:34:47.87	325.78	6.30	-51.8	-63.1	3.8	1.49e+00	0	58	104	0	66	13158
2026-01-01 13:34:48.85	325.92	6.27	-51.7	-63.3	3.8	1.49e+00	0	58	104	0	66	13511
2026-01-01 13:34:49.85	326.06	6.24	-51.6	-63.0	3.8	1.49e+00	0	58	104	0	66	13048
2026-01-01 13:34:50.83	326.20	6.21	-51.5	-61.7	3.8	1.49e+00	0	58	104	0	66	11214
2026-01-01 13:34:51.81	326.34	6.18	-51.2	-59.1	4.4	1.45e+00	0	58	104	0	65	8783
2026-01-01 13:34:52.80	326.48	6.15	-50.6	-56.6	5.7	6.47e-01	0	58	0	1048576	64	7039
2026-01-01 13:34:53.79	326.62	6.12	-50.1	-54.9	7.2	1.98e-01	0	58	0	4194304	63	6069
2026-01-01 13:34:54.77	326.76	6.09	-49.5	-53.2	9.0	3.92e-02	0	58	0	7340032	62	5282
2026-01-01 13:34:55.77	326.90	6.06	-48.6	-51.6	10.5	5.54e-03	0	58	0	10485760	60	4953
2026-01-01 13:34:56.76	327.04	6.03	-48.2	-50.6	11.7	7.84e-04	0	58	0	13631488	59	4652
2026-01-01 13:34:57.76	327.18	6.00	-47.6	-49.7	12.5	2.04e-04	0	58	0	16777216	58	4457
2026-01-01 13:34:58.74	327.32	5.97	-47.5	-49.5	12.8	5.49e-05	0	58	0	19922944	58	4345
2026-01-01 13:34:59.73	327.46	5.93	-47.6	-49.6	12.6	8.85e-05	0	58	0	23068672	58	4440
2026-01-01 13:35:00.72	327.60	5.90	-47.4	-49.4	12.8	5.34e-05	0	58	0	25165824	57	4574
2026-01-01 13:35:01.71	327.74	5.87	-47.2	-49.0	13.2	2.44e-05	0	58	0	28311552	57	4383
2026-01-01 13:35:02.70	327.88	5.84	-47.2	-49.0	13.2	1.44e-05	0	58	0	31457280	57	4361
2026-01-01 13:35:03.69	328.01	5.81	-47.1	-49.0	13.2	1.29e-05	0	58	0	34603008	57	4349
2026-01-01 13:35:04.67	328.15	5.78	-47.4	-49.3	12.9	3.58e-05	0	58	0	37748736	57	4498
2026-01-01 13:35:05.66	328.29	5.75	-47.4	-49.3	12.9	5.49e-05	0	58	0	40894464	57	4528
2026-01-01 13:35:06.65	328.42	5.71	-47.0	-48.8	13.4	2.67e-05	0	58	0	44040192	57	4283
2026-01-01 13:35:07.64	328.56	5.68	-46.9	-48.6	13.6	6.10e-06	0	58	0	47185920	56	4419
2026-01-01 13:35:08.62	328.70	5.65	-46.7	-48.4	13.7	7.60e-06	0	58	0	50331648	56	4314
2026-01-01 13:35:09.61	328.83	5.62	-46.8	-48.6	13.6	9.10e-06	0	58	0	53477376	56	4403
2026-01-01 13:35:10.60	328.97	5.59	-47.0	-48.8	13.5	9.90e-06	0	58	0	56623104	56	4506
2026-01-01 13:35:11.59	329.10	5.55	-46.8	-48.5	13.6	1.29e-05	0	58	0	59768832	56	4380
2026-01-01 13:35:12.58	329.24	5.52	-46.7	-48.4	13.7	6.80e-06	0	58	0	62914560	56	4323
2026-01-01 13:35:13.57	329.37	5.49	-46.9	-48.7	13.5	1.44e-05	0	58	0	66060288	56	4445
2026-01-01 13:35:14.56	329.51	5.46	-46.9	-48.8	13.3	1.75e-05	0	58	0	69206016	56	4495
2026-01-01 13:35:15.54	329.64	5.42	-47.1	-49.0	13.2	1.37e-05	0	58	0	72351744	56	4607
2026-01-01 13:35:16.53	329.78	5.39	-47.3	-49.3	12.9	4.27e-05	0	58	0	75497472	56	4795
2026-01-01 13:35:17.52	329.91	5.36	-47.3	-49.4	12.7	7.32e-05	0	58	0	78643200	56	4819
2026-01-01 13:35:18.50	330.04	5.32	-47.3	-49.2	12.8	7.17e-05	0	58	0	81788928	56	4741
2026-01-01 13:35:19.49	330.18	5.29	-47.4	-49.4	12.6	6.40e-05	0	58	0	83886080	56	4840
2026-01-01 13:35:20.48	330.31	5.26	-47.5	-49.5	12.6	1.07e-04	0	58	0	87031808	56	4907
2026-01-01 13:35:21.47	330.44	5.22	-47.4	-49.5	12.5	1.42e-04	0	58	0	90177536	56	4925
2026-01-01 13:35:22.46	330.57	5.19	-47.3	-49.4	12.6	8.54e-05	0	58	0	93323264	56	4826
2026-01-01 13:35:23.45	330.71	5.16	-47.4	-49.5	12.6	9.00e-05	0	58	0	96468992	56	4872
2026-01-01 13:35:24.43	330.84	5.13	-47.5	-49.7	12.3	1.20e-04	0	58	0	99614720	56	4994
2026-01-01 13:35:25.42	330.97	5.09	-47.8	-50.0	12.1	2.51e-04	0	58	0	102760448	57	4883
2026-01-01 13:35:26.41	331.10	5.06	-47.8	-50.1	12.0	3.57e-04	0	58	0	105906176	57	4944
2026-01-01 13:35:27.40	331.23	5.02	-47.5	-49.7	12.3	3.01e-04	0	58	0	109051904	57	4706
2026-01-01 13:35:28.39	331.36	4.99	-51.5	-62.5	3.8	2.20e-01	0	58	104	111149056	64	13752
2026-01-01 13:35:29.37	331.49	4.96	-51.8	-63.2	3.8	1.49e+00	0	58	104	111149056	65	14200
2026-01-01 13:35:30.36	331.62	4.92	-51.9	-63.4	3.8	1.49e+00	0	58	104	111149056	65	14512
2026-01-01 13:35:31.34	331.75	4.89	-52.2	-63.6	3.8	1.49e+00	0	58	104	111149056	66	13988
2026-01-01 13:35:32.33	331.88	4.86	-52.2	-63.6	3.8	1.49e+00	0	58	104	111149056	66	13919
2026-01-01 13:35:33.32	332.01	4.82	-51.7	-63.3	3.8	1.49e+00	0	58	104	111149056	66	13459
2026-01-01 13:35:34.31	332.14	4.79	-52.3	-63.6	3.8	1.49e+00	0	58	104	111149056	66	13894
2026-01-01 13:35:35.29	332.26	4.75	-52.3	-63.9	3.8	1.49e+00	0	58	104	111149056	66	14456
2026-01-01 13:35:36.27	332.39	4.72	-52.5	-64.0	3.8	1.49e+00	0	58	104	111149056	66	14694
2026-01-01 13:35:37.27	332.52	4.68	-52.6	-64.1	3.8	1.49e+00	0	58	104	111149056	67	13914
2026-01-01 13:35:38.26	332.65	4.65	-52.6	-64.1	3.8	1.49e+00	0	58	104	111149056	67	13927
2026-01-01 13:35:39.25	332.78	4.61	-52.5	-64.1	3.8	1.49e+00	0	58	104	111149056	67	14012
2026-01-01 13:35:40.24	332.90	4.58	-52.5	-64.2	3.8	1.49e+00	0	58	104	111149056	67	14050
2026-01-01 13:35:41.23	333.03	4.55	-52.6	-64.2	3.8	1.49e+00	0	58	104	111149056	67	14070
2026-01-01 13:35:42.22	333.16	4.51	-52.5	-64.2	3.8	1.49e+00	0	58	104	111149056	67	14076
2026-01-01 13:35:43.22	333.28	4.48	-52.8	-64.2	3.8	1.49e+00	0	58	104	111149056	67	14183
2026-01-01 13:35:44.21	333.41	4.44	-52.7	-64.2	3.8	1.49e+00	0	58	104	111149056	67	14181
2026-01-01 13:35:45.19	333.53	4.41	-52.6	-64.2	3.8	1.49e+00	0	58	104	111149056	67	14171
2026-01-01 13:35:46.19	333.66	4.37	-52.8	-64.3	3.8	1.49e+00	0	58	104	111149056	67	14215
2026-01-01 13:35:47.18	333.79	4.33	-52.5	-64.3	3.8	1.49e+00	0	58	104	111149056	67	14218
2026-01-01 13:35:48.16	333.91	4.30	-52.7	-64.3	3.8	1.49e+00	0	58	104	111149056	67	14256
2026-01-01 13:35:49.14	334.03	4.27	-52.8	-64.3	3.8	1.49e+00	0	58	104	111149056	67	14261
2026-01-01 13:35:50.13	334.16	4.23	-52.6	-64.3	3.8	1.49e+00	0	58	104	111149056	67	14283
2026-01-01 13:35:51.11	334.28	4.19	-52.7	-64.3	3.8	1.49e+00	0	58	104	111149056	67	14260
2026-01-01 13:35:52.11	334.41	4.16	-52.6	-64.3	3.8	1.49e+00	0	58	104	111149056	67	14255
2026-01-01 13:35:53.10	334.53	4.12	-52.7	-64.3	3.8	1.49e+00	0	58	104	111149056	67	14262
2026-01-01 13:35:54.09	334.65	4.09	-52.7	-64.3	3.8	1.49e+00	0	58	104	111149056	67	14298
2026-01-01 13:35:55.08	334.78	4.05	-52.8	-64.3	3.8	1.49e+00	0	58	104	111149056	67	14359
2026-01-01 13:35:56.07	334.90	4.02	-52.8	-64.3	3.8	1.49e+00	0	58	104	111149056	67	14279
2026-01-01 13:35:57.06	335.02	3.98	-52.7	-64.3	3.8	1.49e+00	0	58	104	111149056	67	14210
2026-01-01 13:35:58.05	335.14	3.94	-52.8	-64.3	3.8	1.49e+00	0	58	104	111149056	67	14221
2026-01-01 13:35:59.04	335.26	3.91	-52.7	-64.3	3.8	1.49e+00	0	58	104	111149056	67	14226
2026-01-01 13:36:00.03	335.39	3.87	-52.4	-64.3	3.8	1.49e+00	0	58	104	111149056	67	14255
2026-01-01 13:36:01.03	335.51	3.84	-52.7	-64.3	3.8	1.49e+00	0	58	104	111149056	67	14218
2026-01-01 13:36:02.02	335.63	3.80	-52.7	-64.2	3.8	1.49e+00	0	58	104	111149056	67	14189
2026-01-01 13:36:03.01	335.75	3.76	-52.6	-64.3	3.8	1.49e+00	0	58	104	111149056	67	14228
2026-01-01 13:36:04.00	335.87	3.73	-52.8	-64.2	3.8	1.49e+00	0	58	104	111149056	67	14177
2026-01-01 13:36:04.98	335.99	3.69	-52.6	-64.2	3.8	1.49e+00	0	58	104	111149056	67	14162
2026-01-01 13:36:05.98	336.11	3.66	-52.7	-64.3	3.8	1.49e+00	0	58	104	111149056	67	14226
2026-01-01 13:36:06.96	336.23	3.62	-52.7	-64.2	3.8	1.49e+00	0	58	104	111149056	67	14202
2026-01-01 13:36:07.95	336.35	3.58	-52.8	-64.2	3.8	1.49e+00	0	58	104	111149056	67	14188
2026-01-01 13:36:08.93	336.47	3.55	-52.7	-64.2	3.8	1.49e+00	0	58	104	111149056	67	14205
2026-01-01 13:36:09.92	336.58	3.51	-52.8	-64.3	3.8	1.49e+00	0	58	104	111149056	67	14272
2026-01-01 13:36:10.91	336.70	3.47	-52.6	-64.3	3.8	1.49e+00	0	58	104	111149056	67	14254
2026-01-01 13:36:11.89	336.82	3.44	-52.8	-64.3	3.8	1.49e+00	0	58	104	111149056	67	14214
2026-01-01 13:36:12.88	336.94	3.40	-52.8	-64.3	3.8	1.49e+00	0	58	104	111149056	67	14231
2026-01-01 13:36:13.87	337.05	3.37	-52.7	-64.3	3.8	1.49e+00	0	58	104	111149056	67	14236
2026-01-01 13:36:14.85	337.17	3.33	-52.8	-64.2	3.8	1.49e+00	0	58	104	111149056	67	14203
2026-01-01 13:36:15.84	337.29	3.29	-52.6	-64.3	3.8	1.49e+00	0	58	104	111149056	67	14212
2026-01-01 13:36:16.83	337.40	3.26	-52.8	-64.2	3.8	1.49e+00	0	58	104	111149056	67	14182
2026-01-01 13:36:17.81	337.52	3.22	-52.8	-64.2	3.8	1.49e+00	0	58	104	111149056	67	14199
2026-01-01 13:36:18.80	337.64	3.18	-52.7	-64.3	3.8	1.49e+00	0	58	104	111149056	67	14217
2026-01-01 13:36:19.78	337.75	3.15	-52.7	-64.2	3.8	1.49e+00	0	58	104	111149056	67	14195
2026-01-01 13:36:20.77	337.87	3.11	-52.8	-64.2	3.8	1.49e+00	0	58	104	111149056	67	14200
2026-01-01 13:36:21.76	337.98	3.07	-52.6	-64.3	3.8	1.49e+00	0	58	104	111149056	67	14230
2026-01-01 13:36:22.75	338.10	3.03	-52.8	-64.2	3.8	1.49e+00	0	58	104	111149056	67	14179
2026-01-01 13:36:23.75	338.21	3.00	-52.8	-64.2	3.8	1.49e+00	0	58	104	111149056	67	14200
2026-01-01 13:36:24.74	338.33	2.96	-52.8	-64.3	3.8	1.49e+00	0	58	104	111149056	67	14231
2026-01-01 13:36:25.72	338.44	2.92	-52.8	-64.3	3.8	1.49e+00	0	58	104	111149056	67	14224

#Closed at: 2026-01-01 13:36:26
#Recorded file [111 MB]: D:/Data/31026_260101_163528.dat