passes_logs/2026/01/01/R3.0SM8_Murmansk_STILSPACE/R3.0SM8_Murmansk_STILSPACE__20260101_045543_FENGYUN_3D_rec.log

#Pass ID: 20260101_045543_FENGYUN 3D
#Satellite: FENGYUN 3D
#Configuration: FENGYUN 3D
#almurnet v.1.7.20240730
#Start time: 2026-01-01 05:00:47

#Version: 2.2.20231116
#Station: R3.0SM8_Murmansk_STILSPACE
#Location: 33.092731 lon 68.902999 lat
#TLE: 1 43010U 17072A   25365.48527867  .00000101  00000+0  69745-4 0  9999
#TLE: 2 43010  98.9911 332.0787 0001837 134.4748 225.6578 14.19689788421190

#Time	Az	El	Level	Level2	SNR	BER	BlckErr	Temp	State	Recorded	gain1	gain2
2026-01-01 05:00:47.96	358.08	29.57	-54.6	-74.5	3.8	7.44e-01	0	61	0	0	71	37772
2026-01-01 05:00:49.93	357.50	29.76	-53.0	-63.7	3.8	8.47e-01	0	62	104	0	69	11948
2026-01-01 05:00:51.89	356.93	29.94	-53.0	-63.7	3.8	8.46e-01	0	62	104	0	69	11903
2026-01-01 05:00:53.84	356.34	30.12	-53.0	-63.7	3.8	8.46e-01	0	62	104	0	69	11929
2026-01-01 05:00:55.81	355.75	30.31	-53.0	-63.7	3.8	8.45e-01	0	62	104	0	69	11950
2026-01-01 05:00:57.77	355.15	30.48	-53.1	-63.7	3.8	8.45e-01	0	62	104	0	69	11934
2026-01-01 05:00:59.73	354.55	30.66	-53.0	-63.8	3.8	8.46e-01	0	62	104	0	69	11979
2026-01-01 05:01:01.69	353.94	30.83	-53.0	-63.7	3.8	8.46e-01	0	62	104	0	69	11907
2026-01-01 05:01:03.65	353.32	31.00	-53.0	-63.7	3.8	8.47e-01	0	62	104	0	69	11856
2026-01-01 05:01:05.62	352.69	31.17	-53.0	-63.7	3.8	8.48e-01	0	62	104	0	69	11830
2026-01-01 05:01:07.58	352.06	31.34	-52.8	-63.6	3.8	8.46e-01	0	62	104	0	68	12486
2026-01-01 05:01:09.55	351.42	31.50	-52.9	-63.6	3.8	8.46e-01	0	62	104	0	68	12409
2026-01-01 05:01:11.51	350.78	31.66	-52.6	-63.5	3.8	8.46e-01	0	62	104	0	68	12309
2026-01-01 05:01:13.47	350.13	31.82	-52.8	-63.5	3.8	8.46e-01	0	62	104	0	68	12296
2026-01-01 05:01:15.42	349.47	31.97	-52.8	-63.4	3.8	8.45e-01	0	62	104	0	68	12209
2026-01-01 05:01:17.38	348.81	32.12	-52.9	-63.4	3.8	8.47e-01	0	62	104	0	68	12209
2026-01-01 05:01:19.35	348.14	32.26	-52.8	-63.1	3.8	8.44e-01	0	62	104	0	68	11750
2026-01-01 05:01:21.31	347.46	32.40	-52.7	-62.9	3.8	8.46e-01	0	62	104	0	68	11491
2026-01-01 05:01:23.27	346.78	32.54	-52.6	-63.0	3.8	8.45e-01	0	62	104	0	68	11592
2026-01-01 05:01:25.24	346.09	32.67	-52.5	-61.9	3.8	8.46e-01	0	62	104	0	68	10226
2026-01-01 05:01:27.19	345.40	32.80	-52.5	-62.4	3.8	8.45e-01	0	62	104	0	68	10873
2026-01-01 05:01:29.15	344.71	32.93	-52.6	-63.0	3.8	8.47e-01	0	62	104	0	68	11664
2026-01-01 05:01:31.12	344.00	33.05	-52.5	-61.9	3.8	8.45e-01	0	62	104	0	68	10180
2026-01-01 05:01:33.08	343.29	33.16	-52.4	-62.1	3.8	8.45e-01	0	62	104	0	67	11066
2026-01-01 05:01:35.05	342.58	33.28	-52.3	-60.0	4.2	8.43e-01	0	62	0	0	67	8670
2026-01-01 05:01:36.96	341.88	33.38	-52.3	-59.7	4.2	8.35e-01	0	62	0	0	67	8455
2026-01-01 05:01:38.88	341.17	33.48	-48.9	-51.2	11.1	1.37e-02	0	62	0	4194304	61	4448
2026-01-01 05:01:40.80	340.46	33.58	-41.8	-42.4	19.8	0.00e+00	0	62	0	15728640	46	3860
2026-01-01 05:01:42.72	339.74	33.67	-40.2	-40.8	21.3	0.00e+00	0	62	0	26214400	43	3810
2026-01-01 05:01:44.64	339.02	33.75	-40.1	-40.6	21.4	0.00e+00	0	62	0	36700160	43	3716
2026-01-01 05:01:46.56	338.30	33.83	-40.3	-40.9	21.2	0.00e+00	0	62	0	48234496	43	3831
2026-01-01 05:01:48.49	337.57	33.91	-40.7	-41.3	20.8	0.00e+00	0	62	0	58720256	43	4023
2026-01-01 05:01:50.41	336.84	33.98	-40.2	-40.8	21.3	0.00e+00	0	62	0	69206016	43	3790
2026-01-01 05:01:52.33	336.10	34.04	-39.7	-40.3	21.8	0.00e+00	0	62	0	80740352	42	3785
2026-01-01 05:01:54.25	335.37	34.10	-39.4	-39.9	22.1	0.00e+00	0	62	0	91226112	42	3632
2026-01-01 05:01:56.17	334.63	34.16	-39.5	-40.1	21.9	0.00e+00	0	62	0	101711872	41	3924
2026-01-01 05:01:58.09	333.89	34.21	-39.8	-40.3	21.7	0.00e+00	0	62	0	112197632	41	4030
2026-01-01 05:02:00.01	333.14	34.25	-39.6	-40.1	21.9	0.00e+00	0	62	0	123731968	41	3928
2026-01-01 05:02:01.94	332.39	34.29	-39.4	-39.9	22.1	0.00e+00	0	62	0	134217728	41	3831
2026-01-01 05:02:03.86	331.64	34.32	-39.4	-39.9	22.0	0.00e+00	0	62	0	144703488	41	3854
2026-01-01 05:02:05.78	330.90	34.35	-39.3	-39.8	22.2	0.00e+00	0	62	0	156237824	41	3805
2026-01-01 05:02:07.70	330.15	34.37	-39.5	-40.0	22.0	0.00e+00	0	62	0	166723584	41	3909
2026-01-01 05:02:09.62	329.40	34.39	-39.8	-40.3	21.7	0.00e+00	0	62	0	177209344	41	4033
2026-01-01 05:02:11.55	328.64	34.40	-39.7	-40.2	21.8	0.00e+00	0	62	0	188743680	41	3975
2026-01-01 05:02:13.47	327.89	34.41	-39.7	-40.2	21.8	0.00e+00	0	62	0	199229440	41	3997
2026-01-01 05:02:15.39	327.14	34.41	-39.7	-40.3	21.8	0.00e+00	0	62	0	209715200	41	4013
2026-01-01 05:02:17.32	326.38	34.40	-39.8	-40.3	21.7	0.00e+00	0	62	0	221249536	41	4034
2026-01-01 05:02:19.24	325.63	34.39	-39.7	-40.2	21.8	0.00e+00	0	62	0	231735296	41	3963
2026-01-01 05:02:21.16	324.88	34.37	-40.1	-40.7	21.4	0.00e+00	0	62	0	242221056	41	4194
2026-01-01 05:02:23.09	324.12	34.35	-39.5	-40.0	22.0	0.00e+00	0	62	0	253755392	42	3659
2026-01-01 05:02:25.01	323.38	34.32	-39.6	-40.1	21.9	0.00e+00	0	62	0	264241152	41	3953
2026-01-01 05:02:26.93	322.63	34.29	-39.7	-40.3	21.7	0.00e+00	0	62	0	274726912	41	4024
2026-01-01 05:02:28.85	321.88	34.25	-39.4	-39.9	22.1	0.00e+00	0	62	0	285212672	41	3857
2026-01-01 05:02:30.78	321.14	34.20	-39.5	-40.0	22.0	0.00e+00	0	62	0	296747008	41	3902
2026-01-01 05:02:32.70	320.39	34.15	-39.4	-39.9	22.1	0.00e+00	0	62	0	307232768	41	3863
2026-01-01 05:02:34.63	319.65	34.09	-39.2	-39.7	22.3	0.00e+00	0	62	0	317718528	41	3754
2026-01-01 05:02:36.55	318.91	34.03	-39.1	-39.6	22.4	0.00e+00	0	62	0	329252864	41	3720
2026-01-01 05:02:38.48	318.18	33.97	-39.0	-39.5	22.4	0.00e+00	0	62	0	339738624	41	3693
2026-01-01 05:02:40.40	317.45	33.89	-39.2	-39.7	22.3	0.00e+00	0	62	0	350224384	41	3761
2026-01-01 05:02:42.32	316.72	33.82	-39.7	-40.2	21.8	0.00e+00	0	62	0	361758720	41	3984
2026-01-01 05:02:44.24	316.00	33.74	-40.0	-40.5	21.5	0.00e+00	0	62	0	372244480	41	4144
2026-01-01 05:02:46.16	315.28	33.65	-40.0	-40.5	21.5	0.00e+00	0	62	0	382730240	42	3900
2026-01-01 05:02:48.08	314.56	33.56	-40.1	-40.7	21.4	0.00e+00	0	62	0	394264576	42	3981
2026-01-01 05:02:50.00	313.85	33.46	-40.1	-40.7	21.4	0.00e+00	0	62	0	404750336	42	3962
2026-01-01 05:02:51.93	313.14	33.36	-40.2	-40.7	21.3	0.00e+00	0	62	0	415236096	43	3780
2026-01-01 05:02:53.85	312.43	33.25	-39.6	-40.1	21.9	0.00e+00	0	62	0	425721856	42	3712
2026-01-01 05:02:55.77	311.74	33.14	-39.3	-39.8	22.3	0.00e+00	0	62	0	437256192	41	3797
2026-01-01 05:02:57.69	311.04	33.03	-39.4	-39.9	22.1	0.00e+00	0	62	0	447741952	41	3833
2026-01-01 05:02:59.61	310.35	32.91	-39.3	-39.8	22.2	0.00e+00	0	62	0	459276288	41	3817
2026-01-01 05:03:01.54	309.67	32.79	-39.4	-39.9	22.1	0.00e+00	0	62	0	469762048	41	3842
2026-01-01 05:03:03.46	308.99	32.66	-39.5	-40.0	22.0	0.00e+00	0	62	0	480247808	41	3886
2026-01-01 05:03:05.40	308.31	32.53	-39.8	-40.4	21.7	0.00e+00	0	62	0	490733568	41	4065
2026-01-01 05:03:07.32	307.64	32.39	-39.6	-40.2	21.8	0.00e+00	0	62	0	502267904	41	3962
2026-01-01 05:03:09.25	306.98	32.25	-39.6	-40.1	21.9	0.00e+00	0	62	0	512753664	41	3949
2026-01-01 05:03:11.17	306.32	32.11	-39.5	-40.1	21.9	0.00e+00	0	62	0	524288000	41	3927
2026-01-01 05:03:13.09	305.67	31.97	-39.8	-40.3	21.7	0.00e+00	0	62	0	534773760	41	4032
2026-01-01 05:03:15.01	305.03	31.82	-39.5	-40.0	22.0	0.00e+00	0	62	0	545259520	41	3894
2026-01-01 05:03:16.93	304.39	31.66	-39.7	-40.2	21.8	0.00e+00	0	62	0	555745280	41	3980
2026-01-01 05:03:18.86	303.75	31.51	-39.8	-40.3	21.7	0.00e+00	0	62	0	567279616	41	4022
2026-01-01 05:03:20.78	303.13	31.35	-39.5	-40.0	22.0	0.00e+00	0	62	0	577765376	41	3878
2026-01-01 05:03:22.70	302.51	31.19	-39.9	-40.4	21.6	0.00e+00	0	62	0	588251136	41	4074
2026-01-01 05:03:24.63	301.89	31.02	-39.8	-40.4	21.6	0.00e+00	0	62	0	599785472	41	4074
2026-01-01 05:03:26.56	301.28	30.85	-39.5	-40.0	22.0	0.00e+00	0	62	0	610271232	41	3906
2026-01-01 05:03:28.48	300.68	30.68	-39.5	-40.0	22.0	0.00e+00	0	62	0	620756992	41	3889
2026-01-01 05:03:30.41	300.08	30.51	-39.7	-40.2	21.8	0.00e+00	0	62	0	632291328	41	3997
2026-01-01 05:03:32.33	299.50	30.33	-39.9	-40.4	21.5	0.00e+00	0	62	0	642777088	41	4090
2026-01-01 05:03:34.25	298.91	30.16	-39.7	-40.2	21.8	0.00e+00	0	62	0	653262848	41	3999
2026-01-01 05:03:36.18	298.34	29.98	-40.0	-40.6	21.5	0.00e+00	0	62	0	664797184	41	4147
2026-01-01 05:03:38.10	297.77	29.80	-40.2	-40.7	21.3	0.00e+00	0	62	0	675282944	42	3989
2026-01-01 05:03:40.03	297.20	29.61	-40.2	-40.8	21.3	0.00e+00	0	62	0	685768704	42	4012
2026-01-01 05:03:41.95	296.65	29.43	-40.0	-40.6	21.5	0.00e+00	0	62	0	696254464	42	3927
2026-01-01 05:03:43.87	296.10	29.24	-40.3	-40.9	21.1	0.00e+00	0	62	0	707788800	42	4080
2026-01-01 05:03:45.80	295.55	29.05	-39.9	-40.4	21.7	0.00e+00	0	62	0	718274560	42	3843
2026-01-01 05:03:47.72	295.02	28.86	-39.7	-40.2	21.8	0.00e+00	0	62	0	729808896	42	3760
2026-01-01 05:03:49.64	294.49	28.67	-39.7	-40.2	21.8	0.00e+00	0	62	0	740294656	42	3780
2026-01-01 05:03:51.57	293.96	28.47	-39.6	-40.1	21.9	0.00e+00	0	62	0	750780416	42	3719
2026-01-01 05:03:53.49	293.44	28.28	-39.7	-40.2	21.8	0.00e+00	0	62	0	761266176	42	3770
2026-01-01 05:03:55.41	292.93	28.08	-39.9	-40.5	21.5	0.00e+00	0	62	0	772800512	42	3878
2026-01-01 05:03:57.34	292.42	27.88	-40.1	-40.7	21.3	0.00e+00	0	62	0	783286272	42	3979
2026-01-01 05:03:59.26	291.92	27.69	-40.3	-40.8	21.2	0.00e+00	0	62	0	794820608	42	4035
2026-01-01 05:04:01.19	291.43	27.49	-40.1	-40.7	21.3	0.00e+00	0	62	0	805306368	42	3970
2026-01-01 05:04:03.11	290.94	27.29	-40.1	-40.7	21.4	0.00e+00	0	62	0	815792128	42	3959
2026-01-01 05:04:05.03	290.46	27.09	-40.0	-40.6	21.4	0.00e+00	0	62	0	826277888	42	3932
2026-01-01 05:04:06.96	289.99	26.88	-40.1	-40.6	21.4	0.00e+00	0	62	0	837812224	42	3948
2026-01-01 05:04:08.88	289.52	26.68	-40.3	-40.9	21.2	0.00e+00	0	62	0	848297984	42	4072
2026-01-01 05:04:10.80	289.06	26.48	-40.7	-41.3	20.7	0.00e+00	0	62	0	858783744	43	4041
2026-01-01 05:04:12.73	288.60	26.28	-40.5	-41.0	21.0	0.00e+00	0	62	0	870318080	43	3905
2026-01-01 05:04:14.65	288.15	26.07	-40.5	-41.1	20.9	0.00e+00	0	62	0	880803840	43	3919
2026-01-01 05:04:16.58	287.70	25.87	-40.6	-41.1	20.8	0.00e+00	0	62	0	891289600	43	3950
2026-01-01 05:04:18.50	287.26	25.66	-40.6	-41.1	20.8	0.00e+00	0	62	0	902823936	43	3952
2026-01-01 05:04:20.42	286.83	25.46	-40.6	-41.2	20.8	0.00e+00	0	62	0	913309696	43	3995
2026-01-01 05:04:22.34	286.40	25.25	-40.9	-41.5	20.5	0.00e+00	0	62	0	923795456	43	4108
2026-01-01 05:04:24.27	285.98	25.05	-41.3	-41.9	20.2	0.00e+00	0	62	0	935329792	44	4089
2026-01-01 05:04:26.19	285.56	24.84	-41.3	-41.9	20.1	0.00e+00	0	62	0	945815552	44	4083
2026-01-01 05:04:28.11	285.15	24.64	-41.9	-42.5	19.6	0.00e+00	0	62	0	956301312	45	4130
2026-01-01 05:04:30.03	284.75	24.43	-41.5	-42.2	19.9	0.00e+00	0	62	0	967835648	45	3969
2026-01-01 05:04:31.96	284.35	24.23	-41.7	-42.4	19.7	0.00e+00	0	62	0	978321408	45	4075
2026-01-01 05:04:33.88	283.95	24.02	-41.8	-42.5	19.5	0.00e+00	0	62	0	988807168	45	4118
2026-01-01 05:04:35.80	283.56	23.82	-41.6	-42.3	19.7	0.00e+00	0	62	0	999292928	45	4010
2026-01-01 05:04:37.73	283.17	23.61	-41.1	-41.7	20.4	0.00e+00	0	62	0	1010827264	45	3748
2026-01-01 05:04:39.65	282.80	23.41	-40.9	-41.5	20.6	0.00e+00	0	62	0	1021313024	44	3878
2026-01-01 05:04:41.58	282.42	23.20	-41.0	-41.6	20.5	0.00e+00	0	62	0	1031798784	44	3951
2026-01-01 05:04:43.50	282.05	23.00	-41.1	-41.7	20.4	0.00e+00	0	62	0	1043333120	44	3999
2026-01-01 05:04:45.42	281.68	22.79	-41.1	-41.8	20.4	0.00e+00	0	62	0	1053818880	44	4008
2026-01-01 05:04:47.35	281.32	22.59	-41.2	-41.8	20.3	0.00e+00	0	62	0	1064304640	44	4043
2026-01-01 05:04:49.27	280.97	22.39	-41.3	-41.9	20.2	0.00e+00	0	62	0	1075838976	44	4063
2026-01-01 05:04:51.19	280.62	22.18	-41.3	-41.9	20.2	0.00e+00	0	62	0	1086324736	44	4097
2026-01-01 05:04:53.11	280.27	21.98	-41.0	-41.6	20.5	0.00e+00	0	62	0	1096810496	44	3935
2026-01-01 05:04:55.04	279.93	21.78	-41.0	-41.6	20.5	0.00e+00	0	62	0	1108344832	44	3945
2026-01-01 05:04:56.96	279.59	21.58	-41.0	-41.6	20.5	0.00e+00	0	62	0	1118830592	44	3918
2026-01-01 05:04:58.90	279.26	21.38	-40.6	-41.2	20.9	0.00e+00	0	62	0	1129316352	44	3760
2026-01-01 05:05:00.82	278.93	21.18	-40.6	-41.1	21.0	0.00e+00	0	62	0	1140850688	44	3734
2026-01-01 05:05:02.74	278.60	20.98	-40.8	-41.3	20.8	0.00e+00	0	62	0	1151336448	44	3823
2026-01-01 05:05:04.66	278.28	20.78	-40.9	-41.5	20.6	0.00e+00	0	62	0	1161822208	44	3889
2026-01-01 05:05:06.58	277.97	20.58	-41.3	-41.9	20.2	0.00e+00	0	62	0	1173356544	44	4054
2026-01-01 05:05:08.50	277.66	20.38	-41.5	-42.1	20.0	0.00e+00	0	62	0	1183842304	45	3957
2026-01-01 05:05:10.42	277.35	20.19	-41.8	-42.4	19.7	0.00e+00	0	62	0	1194328064	45	4097
2026-01-01 05:05:12.34	277.05	19.99	-41.8	-42.5	19.6	0.00e+00	0	62	0	1204813824	45	4129
2026-01-01 05:05:14.27	276.74	19.80	-41.8	-42.4	19.7	0.00e+00	0	62	0	1216348160	45	4094
2026-01-01 05:05:16.19	276.45	19.60	-41.4	-42.0	20.1	0.00e+00	0	62	0	1226833920	45	3886
2026-01-01 05:05:18.11	276.16	19.41	-41.1	-41.7	20.4	0.00e+00	0	62	0	1237319680	45	3741
2026-01-01 05:05:20.03	275.87	19.21	-41.4	-42.0	20.1	0.00e+00	0	62	0	1248854016	45	3899
2026-01-01 05:05:21.95	275.58	19.02	-41.5	-42.1	20.0	0.00e+00	0	62	0	1259339776	45	3945
2026-01-01 05:05:23.87	275.30	18.83	-41.7	-42.3	19.8	0.00e+00	0	62	0	1269825536	45	4051
2026-01-01 05:05:25.80	275.03	18.64	-41.5	-42.2	19.9	0.00e+00	0	62	0	1281359872	45	3968
2026-01-01 05:05:27.72	274.75	18.45	-41.7	-42.4	19.7	0.00e+00	0	62	0	1291845632	45	4066
2026-01-01 05:05:29.64	274.48	18.26	-41.7	-42.4	19.7	0.00e+00	0	62	0	1302331392	45	4073
2026-01-01 05:05:31.56	274.21	18.07	-42.2	-42.9	19.2	0.00e+00	0	62	0	1313865728	46	4097
2026-01-01 05:05:33.49	273.95	17.88	-42.5	-43.2	18.9	0.00e+00	0	62	0	1324351488	46	4222
2026-01-01 05:05:35.41	273.69	17.69	-42.3	-43.1	19.0	0.00e+00	0	62	0	1334837248	47	3915
2026-01-01 05:05:37.33	273.43	17.51	-42.4	-43.1	19.0	0.00e+00	0	62	0	1346371584	47	3955
2026-01-01 05:05:39.25	273.18	17.32	-42.8	-43.5	18.6	0.00e+00	0	62	0	1356857344	47	4125
2026-01-01 05:05:41.17	272.93	17.14	-42.8	-43.6	18.5	0.00e+00	0	62	0	1367343104	47	4153
2026-01-01 05:05:43.09	272.68	16.95	-42.3	-43.1	19.1	0.00e+00	0	62	0	1377828864	47	3920
2026-01-01 05:05:45.02	272.43	16.77	-42.5	-43.3	18.9	0.00e+00	0	62	0	1389363200	47	4006
2026-01-01 05:05:46.94	272.19	16.59	-42.4	-43.2	19.0	0.00e+00	0	62	0	1399848960	47	3965
2026-01-01 05:05:48.86	271.95	16.41	-42.5	-43.2	18.9	0.00e+00	0	62	0	1410334720	47	3981
2026-01-01 05:05:50.78	271.72	16.23	-42.4	-43.1	19.0	0.00e+00	0	62	0	1421869056	47	3931
2026-01-01 05:05:52.71	271.49	16.05	-42.6	-43.3	18.8	0.00e+00	0	62	0	1432354816	47	4040
2026-01-01 05:05:54.63	271.26	15.87	-42.9	-43.7	18.4	0.00e+00	0	62	0	1442840576	47	4198
2026-01-01 05:05:56.56	271.03	15.69	-43.0	-43.7	18.3	0.00e+00	0	62	0	1454374912	47	4242
2026-01-01 05:05:58.48	270.80	15.51	-42.8	-43.5	18.6	0.00e+00	0	62	0	1464860672	47	4133
2026-01-01 05:06:00.40	270.58	15.34	-43.4	-44.1	18.1	0.00e+00	0	62	0	1475346432	48	4191
2026-01-01 05:06:02.33	270.36	15.16	-42.9	-43.6	18.6	0.00e+00	0	62	0	1486880768	48	3953
2026-01-01 05:06:04.25	270.15	14.98	-43.0	-43.7	18.5	0.00e+00	0	62	0	1497366528	48	3985
2026-01-01 05:06:06.17	269.93	14.81	-42.9	-43.6	18.6	0.00e+00	0	62	0	1507852288	48	3949
2026-01-01 05:06:08.09	269.72	14.64	-43.4	-44.2	18.1	0.00e+00	0	62	0	1518338048	48	4210
2026-01-01 05:06:10.03	269.51	14.46	-43.5	-44.3	17.9	0.00e+00	0	62	0	1529872384	48	4287
2026-01-01 05:06:11.95	269.30	14.29	-43.0	-43.8	18.4	0.00e+00	0	62	0	1540358144	48	4024
2026-01-01 05:06:13.87	269.10	14.12	-43.3	-44.1	18.2	0.00e+00	0	62	0	1551892480	48	4155
2026-01-01 05:06:15.79	268.90	13.95	-43.3	-44.1	18.1	0.00e+00	0	62	0	1562378240	48	4176
2026-01-01 05:06:17.71	268.70	13.78	-43.2	-44.0	18.2	0.00e+00	0	62	0	1572864000	48	4126
2026-01-01 05:06:19.64	268.50	13.62	-43.7	-44.5	17.7	0.00e+00	0	62	0	1583349760	49	4137
2026-01-01 05:06:21.56	268.31	13.45	-43.5	-44.3	17.9	0.00e+00	0	62	0	1594884096	49	4019
2026-01-01 05:06:23.48	268.12	13.28	-43.4	-44.2	18.0	0.00e+00	0	62	0	1605369856	49	3980
2026-01-01 05:06:25.41	267.92	13.12	-43.5	-44.3	17.9	0.00e+00	0	62	0	1615855616	49	4041
2026-01-01 05:06:27.33	267.74	12.95	-44.2	-45.1	17.1	0.00e+00	0	62	0	1627389952	50	4166
2026-01-01 05:06:29.25	267.55	12.79	-44.0	-44.9	17.3	0.00e+00	0	62	0	1637875712	50	4086
2026-01-01 05:06:31.18	267.37	12.62	-43.7	-44.6	17.6	0.00e+00	0	62	0	1648361472	50	3929
2026-01-01 05:06:33.11	267.18	12.46	-43.6	-44.5	17.7	0.00e+00	0	62	0	1659895808	50	3871
2026-01-01 05:06:35.03	267.00	12.30	-43.9	-44.7	17.5	0.00e+00	0	62	0	1670381568	50	3995
2026-01-01 05:06:36.95	266.83	12.14	-43.9	-44.8	17.4	0.00e+00	0	62	0	1680867328	50	4037
2026-01-01 05:06:38.88	266.65	11.98	-44.4	-45.3	16.9	0.00e+00	0	62	0	1692401664	50	4282
2026-01-01 05:06:40.80	266.48	11.82	-44.0	-44.9	17.3	0.00e+00	0	62	0	1702887424	50	4058
2026-01-01 05:06:42.72	266.31	11.66	-44.2	-45.2	17.0	0.00e+00	0	62	0	1713373184	50	4202
2026-01-01 05:06:44.65	266.14	11.50	-44.2	-45.2	17.0	0.00e+00	0	62	0	1724907520	50	4198
2026-01-01 05:06:46.57	265.97	11.34	-44.0	-44.9	17.3	0.00e+00	0	62	0	1735393280	50	4052
2026-01-01 05:06:48.50	265.80	11.19	-43.8	-44.7	17.5	0.00e+00	0	62	0	1745879040	50	3959
2026-01-01 05:06:50.42	265.64	11.03	-43.8	-44.7	17.4	0.00e+00	0	62	0	1757413376	50	3983
2026-01-01 05:06:52.35	265.47	10.88	-43.8	-44.6	17.5	0.00e+00	0	62	0	1767899136	50	3957
2026-01-01 05:06:54.27	265.31	10.72	-43.8	-44.7	17.5	0.00e+00	0	62	0	1778384896	50	3961
2026-01-01 05:06:56.19	265.15	10.57	-43.8	-44.7	17.4	0.00e+00	0	62	0	1789919232	50	3967
2026-01-01 05:06:58.11	265.00	10.42	-43.9	-44.8	17.3	0.00e+00	0	62	0	1800404992	50	4024
2026-01-01 05:07:00.02	264.84	10.27	-43.9	-44.9	17.2	0.00e+00	0	62	0	1810890752	50	4061
2026-01-01 05:07:01.94	264.69	10.11	-44.0	-44.9	17.1	0.00e+00	0	62	0	1821376512	50	4086
2026-01-01 05:07:03.86	264.54	9.96	-44.2	-45.1	16.9	0.00e+00	0	62	0	1832910848	50	4187
2026-01-01 05:07:05.78	264.39	9.81	-44.3	-45.3	16.7	0.00e+00	0	62	0	1843396608	50	4264
2026-01-01 05:07:07.71	264.24	9.66	-44.5	-45.5	16.6	0.00e+00	0	62	0	1853882368	50	4363
2026-01-01 05:07:09.63	264.09	9.52	-44.5	-45.6	16.5	0.00e+00	0	62	0	1865416704	51	4152
2026-01-01 05:07:11.55	263.94	9.37	-44.7	-45.8	16.3	0.00e+00	0	62	0	1875902464	51	4244
2026-01-01 05:07:13.48	263.80	9.22	-44.7	-45.8	16.2	0.00e+00	0	62	0	1886388224	51	4285
2026-01-01 05:07:15.39	263.66	9.08	-44.8	-45.9	16.1	0.00e+00	0	62	0	1897922560	51	4316
2026-01-01 05:07:17.32	263.51	8.93	-44.8	-45.9	16.1	0.00e+00	0	62	0	1908408320	51	4318
2026-01-01 05:07:19.24	263.37	8.79	-44.5	-45.5	16.5	0.00e+00	0	62	0	1918894080	51	4126
2026-01-01 05:07:21.16	263.24	8.64	-44.6	-45.6	16.3	0.00e+00	0	62	0	1930428416	51	4173
2026-01-01 05:07:23.08	263.10	8.50	-44.9	-46.0	15.9	0.00e+00	0	62	0	1940914176	51	4385
2026-01-01 05:07:25.01	262.96	8.35	-44.7	-45.7	16.2	0.00e+00	0	62	0	1951399936	51	4242
2026-01-01 05:07:26.93	262.83	8.21	-44.9	-46.0	15.8	0.00e+00	0	62	0	1961885696	52	4117
2026-01-01 05:07:28.86	262.70	8.07	-45.2	-46.3	15.5	0.00e+00	0	63	0	1973420032	52	4265
2026-01-01 05:07:30.77	262.56	7.93	-45.2	-46.3	15.5	0.00e+00	0	62	0	1983905792	52	4289
2026-01-01 05:07:32.70	262.43	7.79	-45.2	-46.3	15.5	0.00e+00	0	62	0	1995440128	52	4283
2026-01-01 05:07:34.62	262.30	7.65	-45.2	-46.3	15.4	0.00e+00	0	63	0	2005925888	52	4283
2026-01-01 05:07:36.54	262.18	7.51	-44.8	-45.9	15.9	0.00e+00	0	63	0	2016411648	52	4063
2026-01-01 05:07:38.46	262.05	7.37	-44.7	-45.8	16.0	0.00e+00	0	62	0	2026897408	52	4022
2026-01-01 05:07:40.39	261.93	7.23	-45.0	-46.2	15.6	0.00e+00	0	62	0	2038431744	52	4200
2026-01-01 05:07:42.31	261.80	7.10	-45.0	-46.1	15.6	0.00e+00	0	62	0	2048917504	52	4190
2026-01-01 05:07:44.23	261.68	6.96	-45.0	-46.2	15.6	0.00e+00	0	63	0	2059403264	52	4208
2026-01-01 05:07:46.15	261.56	6.82	-44.9	-46.0	15.7	0.00e+00	0	62	0	2070937600	52	4128
2026-01-01 05:07:48.08	261.44	6.69	-44.9	-46.0	15.7	0.00e+00	0	62	0	2081423360	52	4128
2026-01-01 05:07:50.00	261.32	6.55	-44.8	-45.9	15.9	0.00e+00	0	62	0	2091909120	52	4055
2026-01-01 05:07:51.92	261.20	6.42	-44.8	-45.9	15.8	0.00e+00	0	62	0	2103443456	52	4083
2026-01-01 05:07:53.85	261.08	6.28	-45.0	-46.1	15.5	0.00e+00	0	62	0	2113929216	52	4184
2026-01-01 05:07:55.77	260.97	6.15	-45.3	-46.5	15.1	0.00e+00	0	62	0	2124414976	52	4366
2026-01-01 05:07:57.69	260.85	6.02	-45.1	-46.3	15.3	0.00e+00	0	62	0	2134900736	52	4259
2026-01-01 05:07:59.61	260.74	5.89	-45.3	-46.6	15.0	0.00e+00	0	62	0	2146435072	52	4404
2026-01-01 05:08:01.53	260.63	5.76	-45.1	-46.3	15.3	0.00e+00	0	62	0	2156920832	52	4283
2026-01-01 05:08:03.47	260.51	5.62	-45.5	-46.8	14.8	1.10e-06	0	63	0	2168455168	52	4520
2026-01-01 05:08:05.39	260.40	5.49	-45.4	-46.7	14.8	2.20e-06	0	63	0	2178940928	52	4480
2026-01-01 05:08:07.31	260.29	5.36	-45.4	-46.7	14.9	0.00e+00	0	63	0	2189426688	52	4447
2026-01-01 05:08:09.23	260.19	5.23	-45.8	-47.1	14.4	1.10e-06	0	62	0	2199912448	53	4426
2026-01-01 05:08:11.16	260.08	5.10	-45.7	-47.1	14.4	2.20e-06	0	62	0	2211446784	53	4404
2026-01-01 05:08:13.10	259.97	4.98	-51.8	-62.4	3.8	8.47e-01	0	62	104	2216689664	65	12909
2026-01-01 05:08:15.06	259.86	4.84	-50.9	-61.6	3.8	8.45e-01	0	62	104	2216689664	64	12433
2026-01-01 05:08:17.02	259.76	4.72	-52.7	-63.4	3.8	8.47e-01	0	63	104	2216689664	67	12818
2026-01-01 05:08:18.98	259.65	4.59	-52.8	-63.4	3.8	8.46e-01	0	62	104	2216689664	67	12958
2026-01-01 05:08:20.95	259.55	4.46	-52.8	-63.5	3.8	8.46e-01	0	62	104	2216689664	67	13011
2026-01-01 05:08:22.91	259.44	4.33	-52.8	-63.5	3.8	8.46e-01	0	62	104	2216689664	67	13094
2026-01-01 05:08:24.87	259.34	4.20	-52.9	-63.6	3.8	8.46e-01	0	62	104	2216689664	67	13169
2026-01-01 05:08:26.83	259.24	4.07	-52.9	-63.6	3.8	8.45e-01	0	62	104	2216689664	67	13247
2026-01-01 05:08:28.79	259.14	3.95	-53.0	-63.6	3.8	8.46e-01	0	62	104	2216689664	67	13242
2026-01-01 05:08:30.75	259.04	3.82	-53.0	-63.7	3.8	8.47e-01	0	62	104	2216689664	67	13290
2026-01-01 05:08:32.71	258.94	3.70	-53.0	-63.7	3.8	8.47e-01	0	62	104	2216689664	67	13350
2026-01-01 05:08:34.67	258.84	3.57	-53.0	-63.7	3.8	8.46e-01	0	62	104	2216689664	67	13331
2026-01-01 05:08:36.63	258.75	3.45	-53.0	-63.7	3.8	8.46e-01	0	62	104	2216689664	67	13302
2026-01-01 05:08:38.59	258.65	3.32	-53.0	-63.7	3.8	8.47e-01	0	62	104	2216689664	67	13362
2026-01-01 05:08:40.56	258.55	3.20	-53.0	-63.7	3.8	8.47e-01	0	62	104	2216689664	67	13342
2026-01-01 05:08:42.51	258.46	3.07	-53.0	-63.7	3.8	8.46e-01	0	62	104	2216689664	67	13318
2026-01-01 05:08:44.48	258.37	2.95	-53.0	-63.7	3.8	8.46e-01	0	63	104	2216689664	67	13309
2026-01-01 05:08:46.44	258.27	2.83	-53.0	-63.7	3.8	8.46e-01	0	63	104	2216689664	67	13329

#Closed at: 2026-01-01 05:08:46
#Recorded file [2216 MB]: D:/Data/31026_260101_080812.dat