passes_logs/2026/01/01/R3.0SM8_Murmansk_STILSPACE/R3.0SM8_Murmansk_STILSPACE__20260101_023449_NOAA_20_JPSS-1_rec.log

#Pass ID: 20260101_023449_NOAA 20 (JPSS-1)
#Satellite: NOAA 20 (JPSS-1)
#Configuration: NOAA 20
#almurnet v.1.7.20240730
#Start time: 2026-01-01 02:34:51

#Version: 2.2.20231116
#Station: R3.0SM8_Murmansk_STILSPACE
#Location: 33.092731 lon 68.902999 lat
#TLE: 1 43013U 17073A   25365.45761817  .00000173  00000+0  10307-3 0  9993
#TLE: 2 43013  98.7620 301.5517 0001951  60.3814 299.7557 14.19531661420675

#Time	Az	El	Level	Level2	SNR	BER	BlckErr	Temp	State	Recorded	gain1	gain2
2026-01-01 02:34:51.62	33.74	3.13	-52.6	-66.4	3.8	1.49e+00	0	51	0	0	67	18215
2026-01-01 02:34:55.55	33.57	3.38	-52.2	-66.0	3.8	1.49e+00	0	52	104	0	67	17385
2026-01-01 02:34:59.50	33.40	3.64	-51.8	-65.4	3.8	1.49e+00	0	52	104	0	66	17194
2026-01-01 02:35:03.44	33.22	3.89	-51.7	-65.0	3.8	1.49e+00	0	52	104	0	66	16377
2026-01-01 02:35:07.38	33.04	4.15	-51.7	-63.8	3.8	1.49e+00	0	52	104	0	66	14310
2026-01-01 02:35:11.29	32.86	4.41	-51.4	-61.2	4.5	1.23e+00	41	53	0	0	66	10576
2026-01-01 02:35:15.16	32.67	4.66	-50.9	-57.9	6.4	2.86e-01	0	53	0	7340032	65	7668
2026-01-01 02:35:19.02	32.49	4.92	-50.4	-55.8	8.4	5.66e-02	0	53	0	14680064	64	6394
2026-01-01 02:35:22.87	32.30	5.18	-50.3	-55.3	9.1	1.71e-02	0	53	0	22020096	63	6358
2026-01-01 02:35:26.74	32.10	5.44	-50.3	-55.3	9.1	1.82e-02	0	54	0	29360128	63	6387
2026-01-01 02:35:30.62	31.90	5.71	-49.6	-53.3	11.2	1.73e-03	0	54	0	36700160	62	5380
2026-01-01 02:35:34.48	31.70	5.98	-49.5	-53.2	11.3	8.92e-04	0	54	0	44040192	61	5651
2026-01-01 02:35:38.34	31.49	6.25	-49.2	-52.6	11.9	4.21e-04	0	54	0	51380224	61	5278
2026-01-01 02:35:42.22	31.28	6.52	-49.2	-52.4	12.2	2.53e-04	0	54	0	58720256	61	5157
2026-01-01 02:35:46.10	31.06	6.80	-49.0	-52.1	12.6	8.54e-05	0	55	0	66060288	60	5225
2026-01-01 02:35:49.98	30.84	7.07	-48.8	-51.8	12.9	5.72e-05	0	55	0	73400320	60	5047
2026-01-01 02:35:53.86	30.62	7.36	-48.6	-51.5	13.2	2.74e-05	0	55	0	80740352	60	4918
2026-01-01 02:35:57.73	30.39	7.64	-48.7	-51.5	13.3	1.52e-05	0	55	0	88080384	60	4882
2026-01-01 02:36:01.61	30.15	7.92	-48.8	-51.7	13.1	4.27e-05	0	56	0	94371840	60	5020
2026-01-01 02:36:05.48	29.92	8.21	-48.8	-51.7	13.2	2.67e-05	0	56	0	101711872	60	4988
2026-01-01 02:36:09.33	29.67	8.50	-48.7	-51.5	13.4	2.28e-05	0	56	0	109051904	60	4872
2026-01-01 02:36:13.20	29.42	8.80	-48.7	-51.4	13.5	6.80e-06	0	56	0	116391936	60	4837
2026-01-01 02:36:17.06	29.17	9.09	-48.8	-51.5	13.4	1.52e-05	0	56	0	123731968	60	4917
2026-01-01 02:36:20.94	28.91	9.39	-49.0	-51.8	13.1	1.67e-05	0	56	0	131072000	60	5073
2026-01-01 02:36:24.80	28.64	9.70	-48.4	-50.9	14.1	3.80e-06	0	56	0	138412032	60	4572
2026-01-01 02:36:28.66	28.37	10.00	-48.2	-50.6	14.4	7.00e-07	0	56	0	145752064	59	4672
2026-01-01 02:36:32.55	28.09	10.31	-48.4	-50.8	14.2	1.50e-06	0	57	0	153092096	59	4776
2026-01-01 02:36:36.43	27.81	10.63	-48.6	-51.0	14.0	3.00e-06	0	57	0	160432128	59	4924
2026-01-01 02:36:40.31	27.52	10.94	-48.5	-50.9	14.1	1.50e-06	0	57	0	167772160	59	4851
2026-01-01 02:36:44.18	27.22	11.26	-49.0	-51.7	13.3	1.29e-05	0	57	0	175112192	59	5327
2026-01-01 02:36:48.04	26.91	11.58	-48.2	-50.5	14.6	0.00e+00	0	57	0	181403648	59	4628
2026-01-01 02:36:51.92	26.60	11.91	-48.4	-50.7	14.4	0.00e+00	0	57	0	188743680	59	4759
2026-01-01 02:36:55.79	26.28	12.24	-48.4	-50.6	14.5	7.00e-07	0	57	0	196083712	59	4697
2026-01-01 02:36:59.65	25.96	12.57	-48.5	-50.8	14.3	1.50e-06	0	57	0	203423744	59	4794
2026-01-01 02:37:03.55	25.62	12.91	-48.4	-50.6	14.4	0.00e+00	0	58	0	210763776	59	4697
2026-01-01 02:37:07.42	25.28	13.25	-48.2	-50.4	14.7	0.00e+00	0	58	0	218103808	59	4581
2026-01-01 02:37:11.28	24.93	13.59	-48.3	-50.6	14.6	0.00e+00	0	58	0	225443840	59	4678
2026-01-01 02:37:15.15	24.57	13.94	-48.3	-50.5	14.7	0.00e+00	0	58	0	232783872	59	4612
2026-01-01 02:37:19.02	24.20	14.29	-48.3	-50.5	14.6	1.50e-06	0	58	0	240123904	59	4648
2026-01-01 02:37:22.89	23.82	14.65	-48.0	-50.1	15.1	7.00e-07	0	58	0	247463936	59	4405
2026-01-01 02:37:26.78	23.44	15.01	-48.2	-50.3	14.9	7.00e-07	0	58	0	254803968	59	4509
2026-01-01 02:37:30.65	23.04	15.37	-48.0	-50.1	15.1	0.00e+00	0	58	0	262144000	58	4670
2026-01-01 02:37:34.51	22.63	15.74	-48.1	-50.3	15.0	0.00e+00	0	58	0	269484032	58	4762
2026-01-01 02:37:38.39	22.21	16.11	-48.1	-50.2	15.1	0.00e+00	0	58	0	276824064	58	4721
2026-01-01 02:37:42.25	21.79	16.49	-47.8	-49.7	15.5	0.00e+00	0	59	0	283115520	58	4473
2026-01-01 02:37:46.11	21.35	16.86	-48.0	-50.0	15.3	0.00e+00	0	59	0	290455552	58	4616
2026-01-01 02:37:49.97	20.90	17.25	-48.0	-50.1	15.2	0.00e+00	0	59	0	297795584	58	4670
2026-01-01 02:37:53.85	20.43	17.64	-48.0	-50.1	15.2	0.00e+00	0	59	0	305135616	58	4657
2026-01-01 02:37:57.72	19.96	18.03	-48.1	-50.2	15.1	0.00e+00	0	59	0	312475648	58	4724
2026-01-01 02:38:01.58	19.47	18.42	-47.8	-49.7	15.6	0.00e+00	0	59	0	319815680	58	4468
2026-01-01 02:38:05.44	18.97	18.82	-47.8	-49.7	15.7	0.00e+00	0	59	0	327155712	58	4449
2026-01-01 02:38:09.31	18.46	19.23	-47.8	-49.8	15.6	0.00e+00	0	59	0	334495744	58	4496
2026-01-01 02:38:13.19	17.92	19.64	-47.9	-49.9	15.5	0.00e+00	0	59	0	341835776	58	4551
2026-01-01 02:38:17.05	17.38	20.05	-48.3	-50.5	14.9	0.00e+00	0	59	0	349175808	58	4894
2026-01-01 02:38:20.92	16.82	20.46	-48.6	-50.9	14.5	2.20e-06	0	59	0	356515840	58	5112
2026-01-01 02:38:24.79	16.25	20.89	-48.5	-50.8	14.5	7.00e-07	0	60	0	362807296	59	4773
2026-01-01 02:38:28.66	15.65	21.31	-48.5	-50.7	14.7	7.00e-07	0	59	0	370147328	59	4727
2026-01-01 02:38:32.54	15.04	21.74	-48.4	-50.6	14.8	7.00e-07	0	60	0	377487360	59	4664
2026-01-01 02:38:36.41	14.42	22.17	-48.3	-50.4	14.9	0.00e+00	0	60	0	384827392	59	4588
2026-01-01 02:38:40.29	13.77	22.61	-48.1	-50.2	15.2	0.00e+00	0	60	0	392167424	59	4485
2026-01-01 02:38:44.16	13.11	23.05	-48.0	-50.0	15.3	0.00e+00	0	60	0	399507456	59	4373
2026-01-01 02:38:48.03	12.42	23.49	-47.8	-49.8	15.5	0.00e+00	0	60	0	406847488	58	4503
2026-01-01 02:38:51.89	11.72	23.93	-48.0	-50.1	15.1	0.00e+00	0	60	0	414187520	58	4655
2026-01-01 02:38:55.75	11.00	24.38	-48.6	-51.5	13.1	9.10e-06	0	60	0	421527552	59	5168
2026-01-01 02:38:59.64	10.25	24.83	-49.7	-55.0	8.7	3.15e-02	0	60	0	428867584	61	6896
2026-01-01 02:39:03.54	9.48	25.29	-49.9	-56.1	7.3	1.22e-01	0	60	0	436207616	61	7881
2026-01-01 02:39:07.39	8.70	25.74	-49.8	-54.2	9.9	1.38e-02	0	60	0	443547648	61	6317
2026-01-01 02:39:11.25	7.89	26.20	-49.8	-53.4	11.6	7.05e-04	0	60	0	450887680	61	5732
2026-01-01 02:39:15.13	7.05	26.66	-50.0	-53.7	11.4	1.17e-03	0	60	0	458227712	62	5628
2026-01-01 02:39:19.00	6.18	27.11	-50.3	-54.2	10.9	2.28e-03	0	60	0	464519168	62	5934
2026-01-01 02:39:22.86	5.30	27.57	-49.4	-52.5	12.7	1.84e-04	0	60	0	471859200	62	4885
2026-01-01 02:39:26.73	4.39	28.03	-49.0	-51.7	13.6	1.06e-05	0	60	0	479199232	61	4733
2026-01-01 02:39:30.60	3.45	28.49	-49.2	-52.0	13.4	1.06e-05	0	60	0	486539264	61	4903
2026-01-01 02:39:34.48	2.48	28.94	-49.2	-51.9	13.5	1.22e-05	0	60	0	493879296	61	4852
2026-01-01 02:39:38.35	1.48	29.40	-49.2	-51.8	13.6	8.30e-06	0	60	0	501219328	61	4786
2026-01-01 02:39:42.21	0.46	29.85	-49.1	-51.7	13.7	6.80e-06	0	60	0	508559360	61	4755
2026-01-01 02:39:46.08	359.41	30.30	-49.3	-52.1	13.3	1.52e-05	0	60	0	515899392	61	4951
2026-01-01 02:39:49.95	358.32	30.74	-48.8	-51.2	14.2	7.00e-07	0	61	0	523239424	60	4735
2026-01-01 02:39:53.82	357.21	31.18	-49.3	-52.1	13.3	6.80e-06	0	60	0	530579456	60	5244
2026-01-01 02:39:57.68	356.07	31.61	-50.1	-53.5	11.9	2.83e-04	0	61	0	537919488	61	5819
2026-01-01 02:40:01.55	354.89	32.03	-50.4	-54.2	11.2	1.13e-03	0	61	0	544210944	62	5932
2026-01-01 02:40:05.42	353.69	32.45	-50.5	-54.3	11.1	1.81e-03	0	61	0	551550976	63	5706
2026-01-01 02:40:09.29	352.45	32.86	-50.6	-54.7	10.7	2.60e-03	0	60	0	558891008	63	5926
2026-01-01 02:40:13.16	351.18	33.25	-51.1	-56.0	9.3	1.63e-02	0	61	0	566231040	64	6500
2026-01-01 02:40:17.02	349.88	33.64	-51.2	-56.5	8.8	2.61e-02	0	61	0	573571072	64	6891
2026-01-01 02:40:20.89	348.55	34.01	-50.9	-55.6	9.6	1.62e-02	0	61	0	580911104	64	6236
2026-01-01 02:40:24.77	347.19	34.37	-50.5	-54.4	10.9	2.93e-03	0	61	0	588251136	64	5404
2026-01-01 02:40:28.64	345.79	34.72	-50.6	-54.6	10.7	3.23e-03	0	61	0	595591168	64	5580
2026-01-01 02:40:32.51	344.37	35.05	-50.0	-53.7	11.7	5.67e-04	0	61	0	602931200	63	5286
2026-01-01 02:40:36.38	342.92	35.36	-49.5	-52.4	13.1	4.11e-05	0	61	0	610271232	62	4853
2026-01-01 02:40:40.26	341.44	35.65	-49.2	-51.8	13.7	5.30e-06	0	61	0	617611264	61	4805
2026-01-01 02:40:44.14	339.94	35.93	-48.5	-50.7	14.8	0.00e+00	0	61	0	624951296	60	4453
2026-01-01 02:40:48.00	338.41	36.18	-48.3	-50.3	15.2	0.00e+00	0	61	0	632291328	59	4502
2026-01-01 02:40:51.88	336.86	36.41	-47.7	-49.5	16.1	0.00e+00	0	61	0	639631360	58	4342
2026-01-01 02:40:55.76	335.28	36.62	-47.7	-49.5	16.1	0.00e+00	0	61	0	645922816	58	4358
2026-01-01 02:40:59.62	333.69	36.80	-47.4	-49.1	16.5	0.00e+00	0	61	0	653262848	57	4424
2026-01-01 02:41:03.48	332.09	36.96	-47.4	-49.1	16.5	0.00e+00	0	61	0	660602880	57	4436
2026-01-01 02:41:07.35	330.47	37.10	-47.0	-48.6	16.9	0.00e+00	0	61	0	667942912	57	4187
2026-01-01 02:41:11.24	328.82	37.20	-46.8	-48.3	17.3	0.00e+00	0	61	0	675282944	56	4252
2026-01-01 02:41:15.12	327.17	37.29	-47.2	-48.8	16.7	0.00e+00	0	61	0	682622976	56	4531
2026-01-01 02:41:18.97	325.53	37.34	-47.7	-49.5	16.1	0.00e+00	0	61	0	689963008	57	4617
2026-01-01 02:41:22.84	323.87	37.37	-48.1	-50.0	15.6	0.00e+00	0	61	0	697303040	57	4912
2026-01-01 02:41:26.72	322.21	37.37	-48.5	-50.7	14.9	0.00e+00	0	61	0	704643072	58	5012
2026-01-01 02:41:30.59	320.56	37.34	-48.6	-50.7	14.8	0.00e+00	0	61	0	711983104	59	4739
2026-01-01 02:41:34.45	318.91	37.29	-48.3	-50.4	15.1	0.00e+00	0	61	0	719323136	59	4570
2026-01-01 02:41:38.32	317.26	37.20	-48.3	-50.5	15.1	0.00e+00	0	61	0	725614592	59	4608
2026-01-01 02:41:42.20	315.62	37.10	-49.0	-51.5	14.0	0.00e+00	0	61	0	732954624	60	4924
2026-01-01 02:41:46.07	314.00	36.96	-49.5	-52.3	13.2	8.30e-06	0	61	0	740294656	60	5393
2026-01-01 02:41:49.95	312.38	36.80	-50.0	-53.3	12.2	1.89e-04	0	61	0	747634688	61	5687
2026-01-01 02:41:53.81	310.80	36.62	-50.0	-53.2	12.3	2.18e-04	0	61	0	754974720	62	5319
2026-01-01 02:41:57.69	309.22	36.41	-49.6	-52.5	13.0	3.73e-05	0	61	0	762314752	62	4926
2026-01-01 02:42:01.57	307.66	36.18	-49.3	-51.9	13.7	5.30e-06	0	61	0	769654784	61	4838
2026-01-01 02:42:05.43	306.14	35.93	-49.0	-51.5	13.9	3.80e-06	0	61	0	776994816	61	4645
2026-01-01 02:42:09.29	304.64	35.65	-48.5	-50.6	15.0	7.00e-07	0	62	0	784334848	60	4441
2026-01-01 02:42:13.16	303.16	35.36	-48.6	-50.8	14.8	0.00e+00	0	61	0	791674880	59	4767
2026-01-01 02:42:17.03	301.71	35.05	-48.1	-50.0	15.5	0.00e+00	0	62	0	799014912	59	4375
2026-01-01 02:42:20.90	300.28	34.72	-48.1	-50.1	15.5	0.00e+00	0	62	0	806354944	59	4393
2026-01-01 02:42:24.79	298.88	34.37	-48.5	-50.6	15.0	7.00e-07	0	62	0	813694976	59	4697
2026-01-01 02:42:28.65	297.52	34.01	-48.4	-50.5	15.1	0.00e+00	0	62	0	821035008	59	4615
2026-01-01 02:42:32.53	296.19	33.64	-49.3	-52.0	13.5	1.52e-05	0	62	0	828375040	60	5214
2026-01-01 02:42:36.40	294.88	33.25	-49.1	-51.6	13.9	4.50e-06	0	61	0	834666496	60	4978
2026-01-01 02:42:40.27	293.61	32.86	-48.9	-51.3	14.3	0.00e+00	0	62	0	842006528	60	4765
2026-01-01 02:42:44.14	292.37	32.45	-49.4	-52.1	13.3	1.75e-05	0	62	0	849346560	60	5274
2026-01-01 02:42:48.02	291.16	32.03	-49.3	-52.0	13.6	6.80e-06	0	62	0	856686592	61	4879
2026-01-01 02:42:51.88	289.99	31.60	-49.5	-52.4	13.1	2.28e-05	0	62	0	864026624	61	5118
2026-01-01 02:42:55.75	288.84	31.17	-49.1	-51.7	13.9	6.10e-06	0	62	0	871366656	61	4710
2026-01-01 02:42:59.61	287.73	30.73	-49.3	-52.1	13.5	1.06e-05	0	62	0	878706688	61	4941
2026-01-01 02:43:03.49	286.64	30.29	-49.4	-52.2	13.3	1.29e-05	0	62	0	886046720	61	4994
2026-01-01 02:43:07.35	285.59	29.84	-49.3	-51.9	13.6	1.22e-05	0	62	0	893386752	61	4852
2026-01-01 02:43:11.22	284.56	29.39	-49.1	-51.8	13.7	3.80e-06	0	62	0	900726784	61	4762
2026-01-01 02:43:15.07	283.57	28.94	-49.0	-51.5	14.0	2.20e-06	0	62	0	907018240	61	4613
2026-01-01 02:43:18.94	282.60	28.48	-48.6	-50.9	14.6	0.00e+00	0	62	0	914358272	60	4578
2026-01-01 02:43:22.83	281.65	28.02	-47.9	-49.7	15.8	0.00e+00	0	62	0	921698304	58	4485
2026-01-01 02:43:26.69	280.74	27.56	-47.5	-49.3	16.3	0.00e+00	0	62	0	929038336	58	4254
2026-01-01 02:43:30.55	279.85	27.10	-47.6	-49.4	16.2	0.00e+00	0	62	0	936378368	58	4312
2026-01-01 02:43:34.42	278.99	26.64	-47.2	-48.8	16.7	0.00e+00	0	62	0	943718400	57	4276
2026-01-01 02:43:38.29	278.15	26.19	-47.1	-48.7	16.8	0.00e+00	0	62	0	951058432	57	4214
2026-01-01 02:43:42.17	277.33	25.73	-46.8	-48.3	17.2	0.00e+00	0	62	0	958398464	56	4275
2026-01-01 02:43:46.02	276.54	25.27	-47.1	-48.6	16.8	0.00e+00	0	62	0	965738496	56	4440
2026-01-01 02:43:49.88	275.78	24.82	-47.3	-48.9	16.6	0.00e+00	0	62	0	973078528	56	4592
2026-01-01 02:43:53.75	275.03	24.37	-47.4	-49.2	16.3	0.00e+00	0	62	0	980418560	56	4719
2026-01-01 02:43:57.61	274.31	23.92	-47.6	-49.4	16.1	0.00e+00	0	62	0	987758592	57	4578
2026-01-01 02:44:01.48	273.60	23.48	-47.4	-49.1	16.4	0.00e+00	0	62	0	995098624	57	4414
2026-01-01 02:44:05.34	272.92	23.03	-47.6	-49.4	16.0	0.00e+00	0	62	0	1001390080	57	4598
2026-01-01 02:44:09.21	272.25	22.59	-47.4	-49.1	16.4	0.00e+00	0	62	0	1008730112	57	4413
2026-01-01 02:44:13.09	271.61	22.16	-47.5	-49.2	16.3	0.00e+00	0	62	0	1016070144	57	4469
2026-01-01 02:44:16.96	270.98	21.72	-47.8	-49.7	15.7	0.00e+00	0	62	0	1023410176	57	4737
2026-01-01 02:44:20.83	270.37	21.29	-48.0	-49.9	15.5	0.00e+00	0	62	0	1030750208	58	4577
2026-01-01 02:44:24.70	269.77	20.87	-48.1	-50.1	15.4	0.00e+00	0	62	0	1038090240	58	4678
2026-01-01 02:44:28.57	269.20	20.45	-48.4	-50.5	14.9	0.00e+00	0	62	0	1045430272	58	4895
2026-01-01 02:44:32.44	268.63	20.03	-48.4	-50.5	14.9	7.00e-07	0	62	0	1052770304	59	4646
2026-01-01 02:44:36.30	268.09	19.62	-47.9	-49.9	15.6	0.00e+00	0	62	0	1060110336	59	4297
2026-01-01 02:44:40.17	267.56	19.21	-48.2	-50.3	15.1	0.00e+00	0	62	0	1067450368	59	4504
2026-01-01 02:44:44.05	267.04	18.80	-48.3	-50.5	14.9	0.00e+00	0	62	0	1074790400	59	4609
2026-01-01 02:44:47.93	266.53	18.40	-48.5	-50.7	14.8	0.00e+00	0	62	0	1082130432	59	4710
2026-01-01 02:44:51.80	266.04	18.00	-48.6	-50.9	14.5	2.20e-06	0	62	0	1088421888	59	4831
2026-01-01 02:44:55.67	265.56	17.61	-48.4	-50.6	14.7	7.00e-07	0	62	0	1095761920	59	4696
2026-01-01 02:44:59.54	265.10	17.22	-48.2	-50.4	15.0	0.00e+00	0	62	0	1103101952	59	4551
2026-01-01 02:45:03.41	264.65	16.83	-48.2	-50.3	15.1	0.00e+00	0	62	0	1110441984	59	4525
2026-01-01 02:45:07.28	264.21	16.45	-48.5	-50.8	14.6	0.00e+00	0	62	0	1117782016	59	4762
2026-01-01 02:45:11.15	263.78	16.08	-48.7	-51.1	14.3	1.50e-06	0	62	0	1125122048	59	4929
2026-01-01 02:45:15.03	263.36	15.70	-48.4	-50.6	14.7	0.00e+00	0	62	0	1132462080	59	4676
2026-01-01 02:45:18.92	262.94	15.33	-48.8	-51.2	14.1	7.00e-07	0	62	0	1139802112	59	4995
2026-01-01 02:45:22.78	262.55	14.97	-48.7	-51.1	14.2	4.50e-06	0	62	0	1147142144	59	4969
2026-01-01 02:45:26.65	262.16	14.61	-48.4	-50.6	14.7	0.00e+00	0	62	0	1154482176	59	4679
2026-01-01 02:45:30.53	261.78	14.25	-48.3	-50.4	14.9	0.00e+00	0	62	0	1161822208	59	4580
2026-01-01 02:45:34.40	261.41	13.90	-48.3	-50.5	14.8	7.00e-07	0	62	0	1169162240	59	4634
2026-01-01 02:45:38.27	261.05	13.55	-48.8	-51.3	14.0	2.20e-06	0	62	0	1176502272	59	5047
2026-01-01 02:45:42.14	260.69	13.21	-48.9	-51.4	13.8	5.30e-06	0	62	0	1183842304	59	5149
2026-01-01 02:45:46.01	260.35	12.87	-49.1	-51.8	13.4	9.90e-06	0	62	0	1190133760	60	5067
2026-01-01 02:45:49.90	260.01	12.53	-49.0	-51.8	13.4	1.22e-05	0	62	0	1197473792	60	5045
2026-01-01 02:45:53.77	259.69	12.20	-49.2	-52.2	13.0	1.83e-05	0	62	0	1204813824	60	5280
2026-01-01 02:45:57.63	259.37	11.87	-49.0	-51.8	13.4	1.22e-05	0	62	0	1212153856	60	5069
2026-01-01 02:46:01.50	259.05	11.54	-48.9	-51.5	13.7	6.80e-06	0	62	0	1219493888	60	4897
2026-01-01 02:46:05.38	258.75	11.22	-48.9	-51.6	13.6	7.60e-06	0	62	0	1226833920	60	4942
2026-01-01 02:46:09.25	258.45	10.90	-49.1	-52.0	13.1	2.36e-05	0	62	0	1234173952	60	5194
2026-01-01 02:46:13.12	258.15	10.58	-49.3	-52.3	12.8	6.71e-05	0	62	0	1241513984	60	5365
2026-01-01 02:46:16.99	257.87	10.27	-49.3	-52.2	12.8	6.48e-05	0	62	0	1248854016	60	5326
2026-01-01 02:46:20.86	257.59	9.96	-49.3	-52.3	12.8	7.24e-05	0	62	0	1256194048	60	5365
2026-01-01 02:46:24.73	257.31	9.65	-49.4	-52.5	12.5	9.30e-05	0	62	0	1263534080	60	5513
2026-01-01 02:46:28.59	257.05	9.35	-49.5	-52.6	12.4	1.23e-04	0	62	0	1270874112	60	5587
2026-01-01 02:46:32.46	256.78	9.05	-49.5	-52.8	12.2	1.85e-04	0	62	0	1277165568	61	5392
2026-01-01 02:46:36.33	256.53	8.75	-49.7	-53.1	11.8	4.87e-04	0	62	0	1284505600	61	5592
2026-01-01 02:46:40.21	256.28	8.46	-49.6	-53.0	11.8	4.39e-04	0	62	0	1291845632	61	5528
2026-01-01 02:46:44.08	256.03	8.16	-49.7	-53.3	11.6	7.19e-04	0	62	0	1299185664	61	5660
2026-01-01 02:46:47.95	255.79	7.88	-49.9	-53.6	11.2	1.34e-03	0	62	0	1306525696	61	5911
2026-01-01 02:46:51.82	255.55	7.59	-49.8	-53.6	11.2	1.43e-03	0	62	0	1313865728	61	5890
2026-01-01 02:46:55.70	255.32	7.31	-49.9	-53.9	10.9	2.93e-03	0	62	0	1321205760	61	6062
2026-01-01 02:46:59.56	255.10	7.03	-49.8	-53.7	11.1	1.93e-03	0	62	0	1328545792	61	5959
2026-01-01 02:47:03.43	254.87	6.75	-49.6	-53.1	11.7	6.71e-04	0	62	0	1335885824	61	5554
2026-01-01 02:47:07.30	254.66	6.47	-49.7	-53.4	11.3	9.02e-04	0	62	0	1343225856	61	5740
2026-01-01 02:47:11.17	254.44	6.20	-49.8	-53.7	11.0	1.88e-03	0	62	0	1350565888	61	5939
2026-01-01 02:47:15.06	254.23	5.93	-49.9	-54.0	10.6	3.13e-03	0	62	0	1357905920	61	6201
2026-01-01 02:47:18.92	254.03	5.66	-50.2	-54.8	9.7	7.48e-03	0	62	0	1365245952	62	6414
2026-01-01 02:47:22.79	253.83	5.39	-50.3	-55.0	9.5	1.74e-02	0	62	0	1372585984	62	6558
2026-01-01 02:47:26.66	253.63	5.13	-50.1	-54.7	9.9	9.56e-03	0	62	0	1378877440	62	6287
2026-01-01 02:47:30.58	253.43	4.87	-52.1	-65.9	3.8	1.49e+00	0	62	104	1382023168	65	19211
2026-01-01 02:47:34.53	253.24	4.60	-52.7	-66.5	3.8	1.49e+00	0	62	104	1382023168	67	18354
2026-01-01 02:47:38.47	253.05	4.34	-52.7	-66.6	3.8	1.49e+00	0	62	104	1382023168	67	18578
2026-01-01 02:47:42.41	252.87	4.08	-52.8	-66.7	3.8	1.49e+00	0	62	104	1382023168	67	18756
2026-01-01 02:47:46.35	252.68	3.82	-52.9	-66.7	3.8	1.49e+00	0	62	104	1382023168	67	18846
2026-01-01 02:47:50.30	252.50	3.57	-52.9	-66.8	3.8	1.49e+00	0	62	104	1382023168	67	18962
2026-01-01 02:47:54.23	252.33	3.32	-52.9	-66.7	3.8	1.49e+00	0	62	104	1382023168	67	18943
2026-01-01 02:47:58.17	252.16	3.07	-52.9	-66.7	3.8	1.49e+00	0	62	104	1382023168	67	18893

#Closed at: 2026-01-01 02:47:59
#Recorded file [1382 MB]: D:/Data/31026_260101_054728.dat