passes_logs/2026/01/01/R3.0SM8_Murmansk_STILSPACE/R3.0SM8_Murmansk_STILSPACE__20260101_081409_FENGYUN_3D_rec.log

#Pass ID: 20260101_081409_FENGYUN 3D
#Satellite: FENGYUN 3D
#Configuration: FENGYUN 3D
#almurnet v.1.7.20240730
#Start time: 2026-01-01 08:14:09

#Version: 2.2.20231116
#Station: R3.0SM8_Murmansk_STILSPACE
#Location: 33.092731 lon 68.902999 lat
#TLE: 1 43010U 17072A   25365.48527867  .00000101  00000+0  69745-4 0  9999
#TLE: 2 43010  98.9911 332.0787 0001837 134.4748 225.6578 14.19689788421190

#Time	Az	El	Level	Level2	SNR	BER	BlckErr	Temp	State	Recorded	gain1	gain2
2026-01-01 08:14:09.60	78.96	3.00	-52.7	-63.4	3.8	8.46e-01	0	59	0	0	67	12846
2026-01-01 08:14:13.55	78.71	3.23	-52.4	-63.1	3.8	8.46e-01	0	59	104	0	67	12498
2026-01-01 08:14:17.48	78.46	3.47	-51.9	-62.5	3.8	8.46e-01	0	59	104	0	66	12270
2026-01-01 08:14:21.41	78.20	3.71	-51.9	-62.5	3.8	8.45e-01	0	60	104	0	66	12285
2026-01-01 08:14:25.34	77.94	3.95	-51.9	-62.6	3.8	8.46e-01	0	60	104	0	66	12413
2026-01-01 08:14:29.27	77.68	4.19	-51.9	-62.3	3.8	8.45e-01	0	60	104	0	66	12016
2026-01-01 08:14:33.19	77.41	4.43	-51.6	-60.5	3.8	8.45e-01	0	60	104	0	66	9741
2026-01-01 08:14:37.08	77.14	4.67	-50.8	-56.5	5.3	7.64e-01	0	60	0	0	64	6956
2026-01-01 08:14:40.95	76.86	4.91	-49.7	-53.4	7.9	1.05e-01	0	60	0	18874368	62	5460
2026-01-01 08:14:44.81	76.58	5.15	-49.3	-52.5	8.9	2.93e-02	0	60	0	40894464	61	5161
2026-01-01 08:14:48.68	76.30	5.40	-48.9	-51.8	9.6	1.37e-02	0	60	0	61865984	60	5067
2026-01-01 08:14:52.56	76.01	5.65	-48.2	-50.6	10.9	4.82e-03	0	60	0	83886080	59	4685
2026-01-01 08:14:56.44	75.71	5.89	-46.6	-48.2	13.4	2.86e-05	0	60	0	105906176	56	4214
2026-01-01 08:15:00.33	75.41	6.15	-45.7	-47.1	14.4	1.10e-06	0	60	0	127926272	54	4174
2026-01-01 08:15:04.20	75.11	6.40	-46.3	-47.9	13.7	8.00e-06	0	61	0	149946368	54	4552
2026-01-01 08:15:08.09	74.79	6.65	-45.8	-47.2	14.3	0.00e+00	0	61	0	171966464	54	4237
2026-01-01 08:15:11.96	74.48	6.91	-45.9	-47.3	14.3	3.40e-06	0	61	0	192937984	54	4251
2026-01-01 08:15:15.83	74.15	7.16	-45.1	-46.3	15.2	0.00e+00	0	61	0	214958080	53	4039
2026-01-01 08:15:19.70	73.82	7.42	-45.2	-46.4	15.2	0.00e+00	0	61	0	236978176	53	4080
2026-01-01 08:15:23.56	73.49	7.68	-45.4	-46.7	14.9	1.10e-06	0	61	0	258998272	53	4235
2026-01-01 08:15:27.44	73.15	7.94	-45.3	-46.6	15.1	0.00e+00	0	61	0	279969792	53	4159
2026-01-01 08:15:31.31	72.80	8.20	-44.8	-46.0	15.7	0.00e+00	0	61	0	301989888	52	4107
2026-01-01 08:15:35.18	72.45	8.47	-45.1	-46.2	15.5	0.00e+00	0	61	0	324009984	52	4231
2026-01-01 08:15:39.06	72.09	8.73	-44.4	-45.4	16.4	0.00e+00	0	61	0	346030080	51	4073
2026-01-01 08:15:42.93	71.72	9.00	-44.3	-45.2	16.6	0.00e+00	0	61	0	368050176	51	3994
2026-01-01 08:15:46.82	71.34	9.27	-44.3	-45.3	16.6	0.00e+00	0	61	0	389021696	51	4013
2026-01-01 08:15:50.69	70.96	9.55	-44.2	-45.2	16.7	0.00e+00	0	61	0	411041792	51	3989
2026-01-01 08:15:54.56	70.57	9.82	-44.3	-45.3	16.7	0.00e+00	0	61	0	433061888	51	4007
2026-01-01 08:15:58.43	70.17	10.09	-44.0	-44.9	17.0	0.00e+00	0	61	0	455081984	51	3851
2026-01-01 08:16:02.31	69.77	10.37	-44.4	-45.4	16.5	0.00e+00	0	61	0	477102080	51	4078
2026-01-01 08:16:06.20	69.35	10.65	-44.4	-45.5	16.5	0.00e+00	0	61	0	498073600	51	4104
2026-01-01 08:16:10.07	68.93	10.93	-44.5	-45.5	16.5	0.00e+00	0	61	0	520093696	51	4117
2026-01-01 08:16:13.94	68.50	11.21	-44.1	-45.0	17.0	0.00e+00	0	61	0	542113792	51	3902
2026-01-01 08:16:17.83	68.06	11.50	-44.0	-44.9	17.1	0.00e+00	0	61	0	564133888	51	3840
2026-01-01 08:16:21.69	67.62	11.78	-44.1	-45.0	17.0	0.00e+00	0	61	0	585105408	50	4126
2026-01-01 08:16:25.57	67.16	12.07	-44.2	-45.2	16.9	0.00e+00	0	61	0	607125504	50	4201
2026-01-01 08:16:29.44	66.70	12.36	-43.9	-44.8	17.3	0.00e+00	0	61	0	629145600	50	4007
2026-01-01 08:16:33.32	66.22	12.65	-43.8	-44.7	17.3	0.00e+00	0	61	0	651165696	50	3987
2026-01-01 08:16:37.21	65.73	12.94	-43.6	-44.5	17.6	0.00e+00	0	62	0	673185792	50	3879
2026-01-01 08:16:41.09	65.24	13.23	-43.3	-44.1	17.9	0.00e+00	0	61	0	694157312	49	3943
2026-01-01 08:16:44.98	64.73	13.53	-43.3	-44.1	17.9	0.00e+00	0	61	0	716177408	49	3957
2026-01-01 08:16:48.86	64.22	13.82	-43.0	-43.8	18.2	0.00e+00	0	62	0	738197504	49	3824
2026-01-01 08:16:52.73	63.69	14.12	-43.1	-43.9	18.2	0.00e+00	0	62	0	760217600	49	3827
2026-01-01 08:16:56.61	63.15	14.42	-43.0	-43.8	18.3	0.00e+00	0	62	0	782237696	48	4007
2026-01-01 08:17:00.49	62.61	14.72	-42.8	-43.5	18.5	0.00e+00	0	62	0	804257792	48	3911
2026-01-01 08:17:04.36	62.05	15.01	-42.9	-43.7	18.4	0.00e+00	0	62	0	825229312	48	3969
2026-01-01 08:17:08.23	61.48	15.31	-42.8	-43.6	18.5	0.00e+00	0	62	0	847249408	48	3933
2026-01-01 08:17:12.11	60.89	15.62	-42.5	-43.2	18.9	0.00e+00	0	62	0	869269504	48	3756
2026-01-01 08:17:15.99	60.30	15.92	-42.7	-43.4	18.7	0.00e+00	0	62	0	891289600	48	3848
2026-01-01 08:17:19.87	59.69	16.22	-42.8	-43.6	18.5	0.00e+00	0	62	0	913309696	48	3941
2026-01-01 08:17:23.75	59.07	16.52	-42.8	-43.6	18.5	0.00e+00	0	62	0	934281216	48	3915
2026-01-01 08:17:27.61	58.44	16.83	-42.1	-42.8	19.1	0.00e+00	0	62	0	956301312	47	3819
2026-01-01 08:17:31.49	57.79	17.13	-42.6	-43.3	18.7	0.00e+00	0	62	0	978321408	47	4034
2026-01-01 08:17:35.36	57.14	17.43	-42.1	-42.8	19.1	0.00e+00	0	62	0	1000341504	47	3820
2026-01-01 08:17:39.24	56.46	17.73	-42.2	-42.9	19.0	0.00e+00	0	62	0	1021313024	47	3859
2026-01-01 08:17:43.11	55.78	18.04	-41.9	-42.6	19.4	0.00e+00	0	62	0	1043333120	46	3931
2026-01-01 08:17:46.97	55.08	18.34	-42.2	-42.9	19.1	0.00e+00	0	62	0	1065353216	46	4052
2026-01-01 08:17:50.84	54.37	18.64	-41.7	-42.3	19.6	0.00e+00	0	62	0	1087373312	46	3819
2026-01-01 08:17:54.73	53.64	18.94	-41.7	-42.4	19.6	0.00e+00	0	62	0	1109393408	46	3851
2026-01-01 08:17:58.60	52.89	19.24	-41.9	-42.6	19.4	0.00e+00	0	62	0	1130364928	46	3923
2026-01-01 08:18:02.47	52.14	19.53	-41.8	-42.5	19.5	0.00e+00	0	62	0	1152385024	46	3894
2026-01-01 08:18:06.34	51.37	19.83	-41.4	-42.0	19.9	0.00e+00	0	62	0	1174405120	46	3694
2026-01-01 08:18:10.22	50.58	20.12	-41.5	-42.2	19.8	0.00e+00	0	62	0	1196425216	45	3967
2026-01-01 08:18:14.11	49.77	20.41	-41.7	-42.4	19.6	0.00e+00	0	62	0	1218445312	45	4064
2026-01-01 08:18:17.98	48.95	20.70	-42.1	-42.8	19.2	0.00e+00	0	62	0	1239416832	46	4041
2026-01-01 08:18:21.85	48.12	20.98	-41.1	-41.7	20.2	0.00e+00	0	62	0	1261436928	45	3778
2026-01-01 08:18:25.73	47.27	21.26	-41.3	-42.0	20.0	0.00e+00	0	62	0	1283457024	45	3872
2026-01-01 08:18:29.61	46.40	21.54	-41.6	-42.2	19.8	0.00e+00	0	62	0	1305477120	45	3988
2026-01-01 08:18:33.48	45.52	21.81	-41.5	-42.1	19.8	0.00e+00	0	62	0	1326448640	45	3958
2026-01-01 08:18:37.35	44.63	22.08	-41.6	-42.2	19.8	0.00e+00	0	62	0	1348468736	45	3987
2026-01-01 08:18:41.22	43.71	22.34	-41.4	-42.0	20.0	0.00e+00	0	62	0	1370488832	45	3886
2026-01-01 08:18:45.11	42.78	22.60	-40.9	-41.4	20.5	0.00e+00	0	62	0	1392508928	44	3867
2026-01-01 08:18:48.98	41.84	22.85	-41.0	-41.6	20.4	0.00e+00	0	62	0	1414529024	44	3932
2026-01-01 08:18:52.86	40.88	23.10	-40.8	-41.4	20.6	0.00e+00	0	62	0	1436549120	44	3827
2026-01-01 08:18:56.74	39.91	23.34	-41.0	-41.6	20.4	0.00e+00	0	62	0	1457520640	44	3924
2026-01-01 08:19:00.62	38.91	23.58	-40.6	-41.2	20.8	0.00e+00	0	62	0	1479540736	44	3744
2026-01-01 08:19:04.49	37.91	23.80	-40.7	-41.3	20.7	0.00e+00	0	62	0	1501560832	44	3782
2026-01-01 08:19:08.39	36.89	24.02	-40.6	-41.2	20.8	0.00e+00	0	62	0	1523580928	44	3757
2026-01-01 08:19:12.30	35.85	24.23	-40.5	-41.0	20.9	0.00e+00	0	62	0	1545601024	44	3688
2026-01-01 08:19:16.18	34.80	24.43	-39.3	-40.8	20.1	0.00e+00	0	62	0	1567621120	41	4267
2026-01-01 08:19:20.06	33.74	24.62	-40.3	-40.9	20.9	0.00e+00	0	62	0	1588592640	42	4091
2026-01-01 08:19:23.92	32.67	24.81	-40.3	-40.8	21.0	0.00e+00	0	62	0	1610612736	42	4042
2026-01-01 08:19:27.79	31.59	24.98	-40.1	-40.7	21.2	0.00e+00	0	62	0	1632632832	42	3976
2026-01-01 08:19:31.68	30.49	25.14	-40.5	-41.1	20.8	0.00e+00	0	62	0	1654652928	42	4186
2026-01-01 08:19:35.55	29.38	25.29	-40.4	-40.9	20.9	0.00e+00	0	62	0	1675624448	42	4089
2026-01-01 08:19:39.42	28.26	25.43	-40.4	-41.0	20.9	0.00e+00	0	62	0	1697644544	43	3888
2026-01-01 08:19:43.28	27.14	25.56	-40.5	-41.1	20.8	0.00e+00	0	62	0	1719664640	43	3947
2026-01-01 08:19:47.16	26.00	25.68	-40.3	-40.8	21.0	0.00e+00	0	62	0	1741684736	43	3818
2026-01-01 08:19:51.04	24.86	25.78	-40.3	-40.9	21.0	0.00e+00	0	62	0	1762656256	43	3828
2026-01-01 08:19:54.91	23.71	25.88	-40.8	-41.4	20.5	0.00e+00	0	62	0	1784676352	43	4073
2026-01-01 08:19:58.78	22.55	25.96	-41.0	-41.6	20.3	0.00e+00	0	62	0	1806696448	43	4167
2026-01-01 08:20:02.66	21.39	26.02	-40.7	-41.3	20.6	0.00e+00	0	62	0	1828716544	43	4051
2026-01-01 08:20:06.54	20.22	26.08	-40.0	-40.6	21.3	0.00e+00	0	62	0	1850736640	43	3698
2026-01-01 08:20:10.43	19.04	26.12	-39.7	-40.3	21.6	0.00e+00	0	62	0	1872756736	42	3784
2026-01-01 08:20:14.29	17.88	26.15	-40.0	-40.5	21.3	0.00e+00	0	62	0	1893728256	42	3902
2026-01-01 08:20:18.17	16.70	26.16	-40.4	-41.0	20.8	0.00e+00	0	62	0	1915748352	42	4137
2026-01-01 08:20:22.06	15.52	26.17	-40.6	-41.2	20.5	0.00e+00	0	62	0	1937768448	43	4003
2026-01-01 08:20:25.93	14.34	26.16	-39.8	-40.3	21.0	0.00e+00	0	62	0	1959788544	42	3817
2026-01-01 08:20:29.81	13.17	26.13	-41.5	-42.2	19.1	0.00e+00	0	62	0	1981808640	44	4222
2026-01-01 08:20:33.69	12.00	26.09	-43.3	-44.3	16.8	0.00e+00	0	62	0	2002780160	48	4251
2026-01-01 08:20:37.56	10.83	26.04	-45.4	-47.0	13.6	3.40e-06	0	62	0	2024800256	52	4617
2026-01-01 08:20:41.44	9.66	25.98	-46.2	-48.0	12.6	2.28e-04	0	62	0	2046820352	54	4603
2026-01-01 08:20:45.31	8.50	25.90	-43.6	-44.5	17.3	0.00e+00	0	62	0	2068840448	50	3880
2026-01-01 08:20:49.17	7.36	25.81	-42.2	-42.9	19.0	0.00e+00	0	62	0	2089811968	47	3846
2026-01-01 08:20:53.05	6.21	25.71	-42.0	-42.7	19.2	0.00e+00	0	62	0	2111832064	47	3746
2026-01-01 08:20:56.93	5.07	25.60	-43.5	-44.4	17.5	0.00e+00	0	62	0	2133852160	48	4314
2026-01-01 08:21:00.80	3.94	25.47	-48.4	-51.3	9.5	3.89e-03	0	62	0	2155872256	58	5357
2026-01-01 08:21:04.68	2.82	25.34	-42.4	-43.2	18.8	0.00e+00	0	62	0	2177892352	48	3749
2026-01-01 08:21:08.56	1.71	25.19	-41.2	-41.8	20.1	0.00e+00	0	62	0	2198863872	45	3810
2026-01-01 08:21:12.45	0.60	25.03	-40.7	-41.3	20.6	0.00e+00	0	62	0	2220883968	44	3802
2026-01-01 08:21:16.33	359.52	24.86	-41.2	-41.8	20.1	0.00e+00	0	62	0	2242904064	44	4047
2026-01-01 08:21:20.23	358.43	24.68	-40.8	-41.4	20.6	0.00e+00	0	62	0	2264924160	44	3833
2026-01-01 08:21:24.12	357.37	24.49	-40.6	-41.2	20.7	0.00e+00	0	62	0	2286944256	44	3761
2026-01-01 08:21:28.00	356.31	24.29	-41.3	-41.9	20.1	0.00e+00	0	62	0	2308964352	44	4079
2026-01-01 08:21:31.87	355.28	24.09	-40.1	-40.7	21.1	0.00e+00	0	62	0	2329935872	43	3738
2026-01-01 08:21:35.75	354.26	23.87	-40.2	-40.8	21.0	0.00e+00	0	62	0	2351955968	43	3809
2026-01-01 08:21:39.64	353.24	23.65	-40.2	-40.8	21.0	0.00e+00	0	62	0	2373976064	43	3796
2026-01-01 08:21:43.51	352.25	23.42	-40.2	-40.7	21.1	0.00e+00	0	62	0	2395996160	43	3772
2026-01-01 08:21:47.37	351.28	23.18	-40.4	-41.0	20.8	0.00e+00	0	62	0	2418016256	43	3901
2026-01-01 08:21:51.25	350.31	22.93	-40.4	-41.0	20.8	0.00e+00	0	62	0	2438987776	43	3888
2026-01-01 08:21:55.13	349.36	22.68	-40.6	-41.2	20.6	0.00e+00	0	62	0	2461007872	43	3986
2026-01-01 08:21:59.01	348.43	22.43	-40.4	-41.0	20.8	0.00e+00	0	62	0	2483027968	43	3869
2026-01-01 08:22:02.88	347.52	22.17	-40.5	-41.0	20.7	0.00e+00	0	62	0	2505048064	43	3900
2026-01-01 08:22:06.76	346.61	21.90	-40.9	-41.5	20.3	0.00e+00	0	62	0	2527068160	43	4121
2026-01-01 08:22:10.63	345.73	21.63	-41.0	-41.7	20.1	0.00e+00	0	62	0	2548039680	43	4198
2026-01-01 08:22:14.51	344.86	21.35	-40.9	-41.5	20.3	0.00e+00	0	62	0	2570059776	43	4118
2026-01-01 08:22:18.37	344.01	21.07	-41.5	-42.2	19.7	0.00e+00	0	62	0	2592079872	44	4227
2026-01-01 08:22:22.25	343.17	20.79	-41.9	-42.6	19.2	0.00e+00	0	62	0	2614099968	45	4190
2026-01-01 08:22:26.12	342.35	20.50	-41.6	-42.2	19.6	0.00e+00	0	62	0	2635071488	46	3772
2026-01-01 08:22:30.02	341.53	20.21	-42.1	-42.8	18.9	0.00e+00	0	62	0	2657091584	46	4042
2026-01-01 08:22:33.90	340.74	19.92	-43.7	-44.7	16.9	0.00e+00	0	62	0	2679111680	49	4207
2026-01-01 08:22:37.77	339.96	19.63	-44.1	-45.2	16.3	0.00e+00	0	62	0	2701131776	50	4195
2026-01-01 08:22:41.66	339.20	19.33	-44.7	-45.8	15.6	0.00e+00	0	62	0	2723151872	51	4290
2026-01-01 08:22:45.54	338.45	19.03	-42.6	-43.4	18.1	0.00e+00	0	62	0	2745171968	48	3844
2026-01-01 08:22:49.41	337.72	18.73	-40.9	-41.5	20.0	0.00e+00	0	62	0	2766143488	44	3889
2026-01-01 08:22:53.29	337.00	18.43	-41.3	-42.0	19.7	0.00e+00	0	62	0	2788163584	44	4108
2026-01-01 08:22:57.17	336.30	18.13	-41.6	-42.3	19.5	0.00e+00	0	62	0	2810183680	45	4042
2026-01-01 08:23:01.05	335.61	17.83	-41.9	-42.6	19.3	0.00e+00	0	62	0	2832203776	45	4170
2026-01-01 08:23:04.92	334.93	17.53	-41.6	-42.3	19.6	0.00e+00	0	62	0	2854223872	45	4012
2026-01-01 08:23:08.79	334.27	17.23	-41.9	-42.6	19.2	0.00e+00	0	63	0	2875195392	45	4179
2026-01-01 08:23:12.68	333.62	16.92	-41.9	-42.6	19.3	0.00e+00	0	62	0	2897215488	45	4170
2026-01-01 08:23:16.56	332.98	16.62	-41.9	-42.6	19.2	0.00e+00	0	62	0	2919235584	45	4170
2026-01-01 08:23:20.43	332.36	16.32	-42.0	-42.7	19.2	0.00e+00	0	62	0	2941255680	45	4216
2026-01-01 08:23:24.30	331.75	16.01	-42.1	-42.8	19.1	0.00e+00	0	62	0	2962227200	46	4021
2026-01-01 08:23:28.17	331.15	15.71	-42.1	-42.8	19.1	0.00e+00	0	62	0	2984247296	46	4018
2026-01-01 08:23:32.05	330.57	15.41	-42.4	-43.2	18.8	0.00e+00	0	62	0	3006267392	46	4194
2026-01-01 08:23:35.91	330.00	15.11	-42.7	-43.4	18.5	0.00e+00	0	62	0	3028287488	47	4088
2026-01-01 08:23:39.78	329.44	14.81	-42.2	-42.9	19.0	0.00e+00	0	62	0	3050307584	47	3850
2026-01-01 08:23:43.65	328.89	14.51	-42.3	-43.0	18.9	0.00e+00	0	62	0	3071279104	47	3899
2026-01-01 08:23:47.53	328.35	14.22	-42.4	-43.1	18.7	0.00e+00	0	62	0	3093299200	47	3941
2026-01-01 08:23:51.40	327.82	13.92	-42.6	-43.4	18.5	0.00e+00	0	62	0	3115319296	47	4073
2026-01-01 08:23:55.28	327.30	13.62	-42.7	-43.5	18.4	0.00e+00	0	62	0	3137339392	47	4103
2026-01-01 08:23:59.15	326.79	13.33	-43.3	-44.2	17.9	0.00e+00	0	62	0	3158310912	48	4212
2026-01-01 08:24:03.03	326.30	13.04	-43.4	-44.3	17.7	0.00e+00	0	62	0	3180331008	48	4264
2026-01-01 08:24:06.93	325.81	12.74	-43.4	-44.2	17.8	0.00e+00	0	62	0	3202351104	49	3970
2026-01-01 08:24:10.80	325.33	12.45	-43.2	-44.0	18.0	0.00e+00	0	62	0	3224371200	49	3888
2026-01-01 08:24:14.68	324.86	12.17	-43.3	-44.2	17.9	0.00e+00	0	62	0	3246391296	49	3975
2026-01-01 08:24:18.55	324.40	11.88	-43.5	-44.3	17.7	0.00e+00	0	62	0	3267362816	49	4030
2026-01-01 08:24:22.43	323.95	11.59	-43.7	-44.5	17.4	0.00e+00	0	63	0	3289382912	49	4138
2026-01-01 08:24:26.29	323.52	11.31	-43.8	-44.7	17.2	0.00e+00	0	62	0	3311403008	49	4237
2026-01-01 08:24:30.16	323.08	11.03	-44.2	-45.1	16.9	0.00e+00	0	63	0	3333423104	50	4182
2026-01-01 08:24:34.03	322.66	10.75	-44.3	-45.3	16.7	0.00e+00	0	62	0	3355443200	50	4257
2026-01-01 08:24:37.91	322.25	10.47	-44.8	-45.8	16.2	0.00e+00	0	62	0	3376414720	51	4283
2026-01-01 08:24:41.78	321.84	10.19	-44.5	-45.6	16.3	0.00e+00	0	62	0	3398434816	51	4171
2026-01-01 08:24:45.64	321.44	9.92	-44.7	-45.8	16.1	0.00e+00	0	62	0	3420454912	51	4246
2026-01-01 08:24:49.51	321.05	9.64	-44.2	-45.1	16.8	0.00e+00	0	62	0	3442475008	51	3940
2026-01-01 08:24:53.39	320.67	9.37	-44.1	-45.0	16.8	0.00e+00	0	62	0	3463446528	51	3910
2026-01-01 08:24:57.28	320.29	9.10	-44.3	-45.3	16.5	0.00e+00	0	62	0	3485466624	51	4039
2026-01-01 08:25:01.15	319.92	8.83	-44.2	-45.2	16.6	0.00e+00	0	62	0	3507486720	51	3999
2026-01-01 08:25:05.02	319.56	8.56	-44.1	-45.1	16.8	0.00e+00	0	62	0	3529506816	50	4146
2026-01-01 08:25:08.90	319.20	8.30	-44.3	-45.3	16.5	0.00e+00	0	62	0	3551526912	50	4266
2026-01-01 08:25:12.78	318.85	8.03	-44.6	-45.6	16.2	0.00e+00	0	62	0	3572498432	51	4177
2026-01-01 08:25:16.64	318.51	7.77	-44.8	-46.0	15.8	0.00e+00	0	62	0	3594518528	51	4353
2026-01-01 08:25:20.52	318.17	7.51	-44.9	-46.0	15.8	0.00e+00	0	62	0	3616538624	51	4377
2026-01-01 08:25:24.39	317.84	7.25	-44.9	-46.0	15.7	0.00e+00	0	62	0	3638558720	51	4361
2026-01-01 08:25:28.27	317.52	7.00	-45.0	-46.2	15.3	0.00e+00	0	62	0	3660578816	52	4209
2026-01-01 08:25:32.14	317.20	6.74	-45.2	-46.5	15.1	0.00e+00	0	62	0	3681550336	53	4105
2026-01-01 08:25:36.02	316.89	6.49	-45.7	-47.0	14.6	0.00e+00	0	62	0	3703570432	53	4352
2026-01-01 08:25:39.89	316.58	6.24	-45.8	-47.3	14.3	0.00e+00	0	62	0	3725590528	53	4494
2026-01-01 08:25:43.76	316.28	5.99	-45.1	-46.3	15.2	0.00e+00	0	62	0	3747610624	53	4022
2026-01-01 08:25:47.63	315.99	5.74	-44.8	-45.9	15.5	0.00e+00	0	62	0	3768582144	52	4092
2026-01-01 08:25:51.51	315.69	5.49	-44.9	-46.0	15.5	0.00e+00	0	62	0	3790602240	51	4386
2026-01-01 08:25:55.39	315.41	5.25	-44.9	-46.1	15.3	0.00e+00	0	62	0	3812622336	52	4190
2026-01-01 08:25:59.27	315.13	5.00	-51.8	-62.5	3.8	1.33e-02	0	62	104	3833593856	65	13025
2026-01-01 08:26:03.21	314.85	4.75	-49.0	-59.8	3.8	8.46e-01	0	62	104	3833593856	60	12735
2026-01-01 08:26:07.15	314.57	4.51	-52.6	-63.3	3.8	8.46e-01	0	62	104	3833593856	67	12719
2026-01-01 08:26:11.08	314.30	4.27	-52.7	-63.4	3.8	8.46e-01	0	62	104	3833593856	67	12951
2026-01-01 08:26:15.02	314.03	4.03	-52.8	-63.5	3.8	8.47e-01	0	63	104	3833593856	67	13070
2026-01-01 08:26:18.96	313.77	3.79	-52.9	-63.5	3.8	8.46e-01	0	63	104	3833593856	67	13070
2026-01-01 08:26:22.90	313.52	3.55	-52.8	-63.6	3.8	8.48e-01	0	63	104	3833593856	67	13121
2026-01-01 08:26:26.83	313.26	3.31	-52.9	-63.6	3.8	8.45e-01	0	62	104	3833593856	67	13127
2026-01-01 08:26:30.76	313.02	3.08	-52.9	-63.6	3.8	8.46e-01	0	63	104	3833593856	67	13165

#Closed at: 2026-01-01 08:26:32
#Recorded file [3833 MB]: D:/Data/31026_260101_112559.dat