passes_logs/2026/01/01/R3.0SM8_Murmansk_STILSPACE/R3.0SM8_Murmansk_STILSPACE__20260101_150041_FENGYUN_3E_rec.log

#Pass ID: 20260101_150041_FENGYUN 3E
#Satellite: FENGYUN 3E
#Configuration: FENGYUN 3E
#almurnet v.1.7.20240730
#Start time: 2026-01-01 15:07:29

#Version: 2.2.20231116
#Station: R3.0SM8_Murmansk_STILSPACE
#Location: 33.092731 lon 68.902999 lat
#TLE: 1 49008U 21062A   25365.98258168  .00000149  00000+0  90987-4 0  9990
#TLE: 2 49008  98.7481   6.2763 0001360 169.3782 190.7423 14.19883270232859

#Time	Az	El	Level	Level2	SNR	BER	BlckErr	Temp	State	Recorded	gain1	gain2
2026-01-01 15:07:29.87	259.88	46.08	-52.7	-63.5	3.8	8.46e-01	0	56	0	0	67	13090
2026-01-01 15:07:31.85	260.99	46.07	-52.8	-63.0	3.8	8.47e-01	0	57	104	0	68	11534
2026-01-01 15:07:33.83	262.10	46.06	-52.9	-63.0	3.8	8.46e-01	0	57	104	0	68	11496
2026-01-01 15:07:35.81	263.21	46.03	-52.8	-63.0	3.8	8.45e-01	0	57	104	0	68	11517
2026-01-01 15:07:37.79	264.32	46.00	-52.8	-63.0	3.8	8.45e-01	0	57	104	0	68	11539
2026-01-01 15:07:39.76	265.42	45.95	-52.5	-63.0	3.8	8.46e-01	0	57	104	0	68	11463
2026-01-01 15:07:41.74	266.52	45.89	-52.8	-62.9	3.8	8.47e-01	0	57	104	0	68	11361
2026-01-01 15:07:43.71	267.61	45.82	-52.6	-62.9	3.8	8.45e-01	0	57	104	0	68	11398
2026-01-01 15:07:45.68	268.70	45.73	-52.8	-63.0	3.8	8.46e-01	0	57	104	0	68	11452
2026-01-01 15:07:47.65	269.78	45.64	-52.6	-62.9	3.8	8.45e-01	0	58	104	0	68	11412
2026-01-01 15:07:49.62	270.85	45.54	-52.7	-62.8	3.8	8.46e-01	0	57	104	0	67	11861
2026-01-01 15:07:51.60	271.92	45.42	-52.6	-62.8	3.8	8.46e-01	0	57	104	0	67	11882
2026-01-01 15:07:53.58	272.98	45.30	-52.6	-62.8	3.8	8.47e-01	0	57	104	0	67	11831
2026-01-01 15:07:55.55	274.03	45.16	-52.4	-62.8	3.8	8.45e-01	0	57	104	0	67	11950
2026-01-01 15:07:57.52	275.07	45.02	-52.6	-62.8	3.8	8.47e-01	0	57	104	0	67	11916
2026-01-01 15:07:59.49	276.10	44.87	-52.6	-62.7	3.8	8.47e-01	0	57	104	0	67	11703
2026-01-01 15:08:01.47	277.13	44.70	-52.6	-62.8	3.8	8.46e-01	0	57	104	0	67	11866
2026-01-01 15:08:03.45	278.14	44.53	-52.6	-62.7	3.8	8.47e-01	0	57	104	0	67	11809
2026-01-01 15:08:05.43	279.14	44.35	-52.6	-62.8	3.8	8.46e-01	0	57	104	0	67	11869
2026-01-01 15:08:07.41	280.14	44.16	-52.6	-62.5	3.8	8.46e-01	0	58	104	0	67	11524
2026-01-01 15:08:09.38	281.11	43.96	-52.5	-62.3	3.8	8.46e-01	0	58	104	0	67	11286
2026-01-01 15:08:11.36	282.08	43.75	-52.2	-60.4	4.0	8.45e-01	0	58	104	0	67	9059
2026-01-01 15:08:13.34	283.03	43.54	-52.5	-62.5	3.8	8.45e-01	0	57	104	0	67	11526
2026-01-01 15:08:15.32	283.98	43.32	-52.3	-61.6	3.8	8.45e-01	0	57	104	0	67	10338
2026-01-01 15:08:17.31	284.91	43.09	-52.6	-62.4	3.8	8.46e-01	0	57	104	0	67	11375
2026-01-01 15:08:19.28	285.82	42.86	-52.0	-59.0	4.3	8.31e-01	0	58	0	0	66	8121
2026-01-01 15:08:21.26	286.73	42.62	-51.2	-56.1	5.7	7.78e-01	0	58	0	0	65	6190
2026-01-01 15:08:23.23	287.61	42.37	-43.9	-44.7	17.2	0.00e+00	0	58	0	13631488	51	3720
2026-01-01 15:08:25.22	288.49	42.12	-41.7	-42.2	19.4	0.00e+00	0	57	0	28311552	45	3937
2026-01-01 15:08:27.19	289.35	41.86	-41.6	-42.1	19.5	0.00e+00	0	58	0	41943040	45	3894
2026-01-01 15:08:29.16	290.19	41.60	-40.8	-41.3	20.3	0.00e+00	0	58	0	56623104	44	3757
2026-01-01 15:08:31.13	291.02	41.33	-40.7	-41.2	20.4	0.00e+00	0	58	0	71303168	44	3722
2026-01-01 15:08:33.11	291.84	41.06	-40.2	-40.6	20.8	0.00e+00	0	58	0	84934656	43	3691
2026-01-01 15:08:35.09	292.65	40.78	-40.0	-40.5	20.9	0.00e+00	0	58	0	99614720	42	3852
2026-01-01 15:08:37.07	293.45	40.50	-40.3	-40.8	20.6	0.00e+00	0	58	0	114294784	42	3977
2026-01-01 15:08:39.05	294.23	40.21	-40.4	-40.9	20.5	0.00e+00	0	58	0	127926272	42	4007
2026-01-01 15:08:41.03	294.99	39.93	-40.2	-40.7	20.7	0.00e+00	0	58	0	142606336	42	3943
2026-01-01 15:08:43.01	295.75	39.63	-40.3	-40.8	20.6	0.00e+00	0	58	0	156237824	42	3982
2026-01-01 15:08:44.98	296.48	39.34	-40.2	-40.7	20.8	0.00e+00	0	58	0	170917888	42	3932
2026-01-01 15:08:46.96	297.21	39.05	-40.1	-40.6	20.9	0.00e+00	0	58	0	184549376	42	3899
2026-01-01 15:08:48.93	297.92	38.75	-39.8	-40.3	21.2	0.00e+00	0	58	0	199229440	42	3750
2026-01-01 15:08:50.91	298.62	38.45	-40.0	-40.5	20.9	0.00e+00	0	57	0	213909504	42	3857
2026-01-01 15:08:52.88	299.31	38.15	-40.1	-40.6	20.8	0.00e+00	0	58	0	227540992	42	3895
2026-01-01 15:08:54.86	299.98	37.84	-39.9	-40.4	21.0	0.00e+00	0	58	0	242221056	42	3800
2026-01-01 15:08:56.83	300.64	37.54	-40.2	-40.7	20.8	0.00e+00	0	58	0	255852544	42	3918
2026-01-01 15:08:58.81	301.29	37.23	-40.1	-40.6	20.8	0.00e+00	0	58	0	270532608	42	3902
2026-01-01 15:09:00.79	301.93	36.92	-40.3	-40.8	20.6	0.00e+00	0	58	0	285212672	42	3989
2026-01-01 15:09:02.78	302.56	36.61	-40.4	-40.9	20.5	0.00e+00	0	58	0	298844160	42	4035
2026-01-01 15:09:04.75	303.18	36.30	-40.0	-40.5	21.0	0.00e+00	0	58	0	313524224	42	3828
2026-01-01 15:09:06.74	303.78	35.99	-39.9	-40.3	21.1	0.00e+00	0	58	0	328204288	42	3770
2026-01-01 15:09:08.72	304.38	35.68	-39.6	-40.1	21.4	0.00e+00	0	58	0	341835776	42	3658
2026-01-01 15:09:10.70	304.96	35.37	-39.5	-40.0	21.3	0.00e+00	0	58	0	356515840	41	3830
2026-01-01 15:09:12.67	305.53	35.06	-39.6	-40.1	21.3	0.00e+00	0	58	0	371195904	41	3871
2026-01-01 15:09:14.64	306.09	34.75	-39.7	-40.1	21.1	0.00e+00	0	58	0	384827392	41	3890
2026-01-01 15:09:16.61	306.63	34.44	-39.7	-40.1	21.2	0.00e+00	0	58	0	398458880	41	3900
2026-01-01 15:09:18.60	307.18	34.12	-40.1	-40.6	20.8	0.00e+00	0	58	0	413138944	41	4118
2026-01-01 15:09:20.58	307.71	33.81	-40.2	-40.7	20.7	0.00e+00	0	58	0	427819008	42	3921
2026-01-01 15:09:22.56	308.23	33.50	-40.1	-40.6	20.9	0.00e+00	0	58	0	441450496	42	3875
2026-01-01 15:09:24.55	308.74	33.19	-39.8	-40.3	21.2	0.00e+00	0	58	0	456130560	42	3745
2026-01-01 15:09:26.53	309.24	32.88	-40.1	-40.5	20.7	0.00e+00	0	58	0	470810624	42	3861
2026-01-01 15:09:28.50	309.73	32.58	-39.7	-40.1	21.2	0.00e+00	0	58	0	484442112	42	3692
2026-01-01 15:09:30.47	310.21	32.27	-39.6	-40.1	21.3	0.00e+00	0	58	0	499122176	42	3660
2026-01-01 15:09:32.43	310.68	31.97	-39.6	-40.0	20.8	0.00e+00	0	58	0	513802240	42	3634
2026-01-01 15:09:34.42	311.15	31.66	-39.9	-40.4	21.0	0.00e+00	0	58	0	527433728	42	3800
2026-01-01 15:09:36.40	311.61	31.36	-40.0	-40.4	20.9	0.00e+00	0	58	0	542113792	42	3822
2026-01-01 15:09:38.38	312.05	31.06	-40.1	-40.6	20.8	0.00e+00	0	58	0	556793856	42	3887
2026-01-01 15:09:40.36	312.50	30.76	-40.2	-40.7	20.7	0.00e+00	0	58	0	570425344	42	3950
2026-01-01 15:09:42.33	312.93	30.46	-40.2	-40.7	20.6	0.00e+00	0	58	0	585105408	42	3929
2026-01-01 15:09:44.31	313.35	30.16	-40.2	-40.7	20.7	0.00e+00	0	58	0	598736896	42	3931
2026-01-01 15:09:46.31	313.77	29.86	-40.2	-40.6	20.8	0.00e+00	0	58	0	613416960	42	3908
2026-01-01 15:09:48.28	314.18	29.57	-39.9	-40.3	21.1	0.00e+00	0	58	0	628097024	42	3776
2026-01-01 15:09:50.26	314.58	29.27	-40.1	-40.5	20.9	0.00e+00	0	58	0	641728512	42	3860
2026-01-01 15:09:52.25	314.98	28.98	-40.1	-40.6	20.8	0.00e+00	0	58	0	656408576	42	3886
2026-01-01 15:09:54.23	315.37	28.69	-40.2	-40.7	20.7	0.00e+00	0	58	0	671088640	42	3928
2026-01-01 15:09:56.20	315.75	28.40	-40.4	-40.9	20.5	0.00e+00	0	58	0	684720128	42	4021
2026-01-01 15:09:58.18	316.12	28.12	-40.9	-41.4	20.0	0.00e+00	0	58	0	699400192	43	4011
2026-01-01 15:10:00.16	316.49	27.83	-40.6	-41.1	20.3	0.00e+00	0	58	0	714080256	43	3896
2026-01-01 15:10:02.13	316.85	27.55	-40.5	-41.0	20.4	0.00e+00	0	58	0	727711744	43	3859
2026-01-01 15:10:04.11	317.21	27.27	-40.4	-40.9	20.5	0.00e+00	0	58	0	742391808	43	3811
2026-01-01 15:10:06.08	317.56	26.99	-40.3	-40.8	20.6	0.00e+00	0	58	0	756023296	43	3751
2026-01-01 15:10:08.06	317.90	26.71	-39.9	-40.4	21.0	0.00e+00	0	58	0	770703360	42	3783
2026-01-01 15:10:10.04	318.24	26.43	-40.3	-40.8	20.6	0.00e+00	0	58	0	785383424	42	3972
2026-01-01 15:10:12.02	318.57	26.16	-40.4	-40.8	20.5	0.00e+00	0	58	0	799014912	42	4003
2026-01-01 15:10:13.99	318.90	25.89	-40.7	-41.2	20.2	0.00e+00	0	58	0	813694976	42	4174
2026-01-01 15:10:15.97	319.22	25.62	-40.6	-41.1	20.2	0.00e+00	0	58	0	827326464	42	4135
2026-01-01 15:10:17.93	319.54	25.35	-40.7	-41.2	20.2	0.00e+00	0	58	0	842006528	43	3920
2026-01-01 15:10:19.91	319.85	25.08	-40.3	-40.8	20.6	0.00e+00	0	58	0	856686592	43	3765
2026-01-01 15:10:21.89	320.15	24.82	-40.3	-40.8	20.6	0.00e+00	0	58	0	870318080	43	3749
2026-01-01 15:10:23.87	320.46	24.55	-40.6	-41.1	20.3	0.00e+00	0	58	0	884998144	43	3881
2026-01-01 15:10:25.84	320.75	24.29	-40.2	-40.7	20.7	0.00e+00	0	58	0	899678208	43	3712
2026-01-01 15:10:27.82	321.04	24.03	-40.2	-40.7	20.7	0.00e+00	0	58	0	913309696	43	3710
2026-01-01 15:10:29.80	321.33	23.77	-40.4	-40.9	20.4	0.00e+00	0	58	0	927989760	43	3816
2026-01-01 15:10:31.77	321.61	23.52	-40.6	-41.1	20.3	0.00e+00	0	58	0	941621248	43	3887
2026-01-01 15:10:33.75	321.89	23.26	-40.7	-41.2	20.1	0.00e+00	0	58	0	956301312	43	3939
2026-01-01 15:10:35.73	322.16	23.01	-40.6	-41.1	20.1	0.00e+00	0	58	0	969932800	43	3904
2026-01-01 15:10:37.70	322.43	22.76	-40.6	-41.1	20.2	0.00e+00	0	58	0	984612864	43	3905
2026-01-01 15:10:39.68	322.70	22.51	-40.7	-41.2	20.2	0.00e+00	0	58	0	999292928	43	3927
2026-01-01 15:10:41.65	322.96	22.27	-40.5	-41.0	20.3	0.00e+00	0	58	0	1012924416	43	3858
2026-01-01 15:10:43.63	323.22	22.02	-40.4	-40.9	20.4	0.00e+00	0	58	0	1027604480	43	3795
2026-01-01 15:10:45.60	323.47	21.78	-40.4	-40.9	20.4	0.00e+00	0	58	0	1041235968	43	3783
2026-01-01 15:10:47.57	323.72	21.54	-40.3	-40.8	20.5	0.00e+00	0	58	0	1055916032	43	3764
2026-01-01 15:10:49.55	323.96	21.30	-40.4	-40.9	20.4	0.00e+00	0	58	0	1070596096	43	3813
2026-01-01 15:10:51.53	324.21	21.06	-40.6	-41.1	20.3	0.00e+00	0	58	0	1084227584	43	3885
2026-01-01 15:10:53.49	324.44	20.83	-40.6	-41.1	20.2	0.00e+00	0	58	0	1098907648	43	3913
2026-01-01 15:10:55.47	324.68	20.59	-40.7	-41.2	20.0	0.00e+00	0	58	0	1112539136	43	3952
2026-01-01 15:10:57.44	324.91	20.36	-41.0	-41.5	19.8	0.00e+00	0	58	0	1127219200	43	4092
2026-01-01 15:10:59.44	325.14	20.13	-41.0	-41.5	19.8	0.00e+00	0	58	0	1141899264	43	4095
2026-01-01 15:11:01.41	325.37	19.90	-40.9	-41.5	19.8	0.00e+00	0	58	0	1155530752	43	4052
2026-01-01 15:11:03.40	325.59	19.67	-41.1	-41.6	19.7	0.00e+00	0	58	0	1170210816	43	4139
2026-01-01 15:11:05.37	325.81	19.45	-41.4	-41.9	19.5	0.00e+00	0	58	0	1183842304	44	4041
2026-01-01 15:11:07.36	326.03	19.22	-41.2	-41.7	19.6	0.00e+00	0	58	0	1198522368	44	3932
2026-01-01 15:11:09.34	326.24	19.00	-41.2	-41.7	19.6	0.00e+00	0	58	0	1213202432	44	3943
2026-01-01 15:11:11.33	326.45	18.77	-41.1	-41.6	19.8	0.00e+00	0	58	0	1226833920	44	3909
2026-01-01 15:11:13.31	326.66	18.55	-41.1	-41.6	19.8	0.00e+00	0	58	0	1241513984	44	3890
2026-01-01 15:11:15.28	326.86	18.34	-41.2	-41.7	19.7	0.00e+00	0	58	0	1256194048	44	3934
2026-01-01 15:11:17.26	327.06	18.12	-41.3	-41.8	19.6	0.00e+00	0	58	0	1269825536	44	3979
2026-01-01 15:11:19.22	327.26	17.91	-41.2	-41.7	19.7	0.00e+00	0	58	0	1284505600	44	3932
2026-01-01 15:11:21.20	327.46	17.70	-41.3	-41.8	19.6	0.00e+00	0	58	0	1299185664	44	3989
2026-01-01 15:11:23.18	327.65	17.48	-41.4	-41.9	19.5	0.00e+00	0	58	0	1312817152	44	4024
2026-01-01 15:11:25.15	327.84	17.27	-41.7	-42.2	19.2	0.00e+00	0	58	0	1327497216	45	3948
2026-01-01 15:11:27.12	328.03	17.07	-41.8	-42.4	19.0	0.00e+00	0	58	0	1341128704	45	4016
2026-01-01 15:11:29.10	328.22	16.86	-41.9	-42.5	18.9	0.00e+00	0	58	0	1355808768	45	4081
2026-01-01 15:11:31.08	328.40	16.65	-41.7	-42.3	19.0	0.00e+00	0	58	0	1369440256	45	3985
2026-01-01 15:11:33.06	328.58	16.45	-41.8	-42.5	18.9	0.00e+00	0	58	0	1384120320	45	4057
2026-01-01 15:11:35.03	328.76	16.25	-41.8	-42.5	18.9	0.00e+00	0	58	0	1398800384	45	4052
2026-01-01 15:11:37.01	328.94	16.05	-41.9	-42.5	18.9	0.00e+00	0	58	0	1412431872	45	4073
2026-01-01 15:11:38.99	329.11	15.85	-42.0	-42.6	18.8	0.00e+00	0	58	0	1427111936	45	4128
2026-01-01 15:11:40.96	329.29	15.65	-42.0	-42.6	18.7	0.00e+00	0	58	0	1441792000	45	4130
2026-01-01 15:11:42.95	329.46	15.45	-42.1	-42.7	18.6	0.00e+00	0	58	0	1455423488	45	4193
2026-01-01 15:11:44.92	329.62	15.26	-42.2	-42.8	18.5	0.00e+00	0	58	0	1470103552	45	4210
2026-01-01 15:11:46.90	329.79	15.06	-42.1	-42.7	18.6	0.00e+00	0	58	0	1483735040	46	3955
2026-01-01 15:11:48.88	329.95	14.87	-42.3	-42.9	18.4	0.00e+00	0	58	0	1498415104	46	4044
2026-01-01 15:11:50.86	330.12	14.68	-42.3	-43.0	18.4	0.00e+00	0	58	0	1513095168	46	4071
2026-01-01 15:11:52.84	330.28	14.49	-42.4	-43.0	18.3	0.00e+00	0	58	0	1526726656	46	4098
2026-01-01 15:11:54.83	330.44	14.30	-42.3	-43.0	18.4	0.00e+00	0	58	0	1541406720	46	4052
2026-01-01 15:11:56.80	330.59	14.11	-42.5	-43.2	18.1	0.00e+00	0	58	0	1556086784	46	4177
2026-01-01 15:11:58.78	330.75	13.92	-42.3	-42.9	18.4	0.00e+00	0	58	0	1569718272	46	4050
2026-01-01 15:12:00.75	330.90	13.74	-42.5	-43.2	18.1	0.00e+00	0	58	0	1584398336	46	4147
2026-01-01 15:12:02.72	331.05	13.55	-42.6	-43.3	18.0	0.00e+00	0	58	0	1598029824	46	4211
2026-01-01 15:12:04.69	331.20	13.37	-42.8	-43.5	17.8	0.00e+00	0	58	0	1612709888	47	4058
2026-01-01 15:12:06.67	331.35	13.19	-43.2	-43.9	17.4	0.00e+00	0	58	0	1626341376	47	4271
2026-01-01 15:12:08.66	331.49	13.01	-43.2	-43.9	17.6	0.00e+00	0	58	0	1641021440	48	4040
2026-01-01 15:12:10.63	331.64	12.83	-43.3	-44.0	17.5	0.00e+00	0	58	0	1655701504	48	4085
2026-01-01 15:12:12.61	331.78	12.65	-43.5	-44.3	17.2	0.00e+00	0	58	0	1669332992	48	4201
2026-01-01 15:12:14.59	331.92	12.48	-43.4	-44.1	17.4	0.00e+00	0	58	0	1684013056	48	4120
2026-01-01 15:12:16.57	332.06	12.30	-43.3	-44.0	17.5	0.00e+00	0	58	0	1698693120	48	4077
2026-01-01 15:12:18.55	332.20	12.12	-43.0	-43.7	17.7	0.00e+00	0	58	0	1712324608	48	3947
2026-01-01 15:12:20.53	332.33	11.95	-43.1	-43.8	17.6	0.00e+00	0	59	0	1727004672	48	4000
2026-01-01 15:12:22.52	332.47	11.78	-43.1	-43.9	17.6	0.00e+00	0	58	0	1741684736	48	4005
2026-01-01 15:12:24.51	332.60	11.60	-43.1	-43.8	17.6	0.00e+00	0	58	0	1755316224	48	4001
2026-01-01 15:12:26.48	332.74	11.44	-43.1	-43.9	17.5	0.00e+00	0	58	0	1769996288	48	4018
2026-01-01 15:12:28.45	332.87	11.27	-43.2	-43.9	17.5	0.00e+00	0	58	0	1783627776	48	4032
2026-01-01 15:12:30.40	332.99	11.10	-43.3	-44.0	17.4	0.00e+00	0	58	0	1798307840	48	4076
2026-01-01 15:12:32.38	333.12	10.93	-43.3	-44.1	17.3	0.00e+00	0	58	0	1811939328	48	4106
2026-01-01 15:12:34.38	333.25	10.77	-43.7	-44.5	16.8	0.00e+00	0	58	0	1826619392	49	4077
2026-01-01 15:12:36.36	333.38	10.60	-43.7	-44.6	16.8	0.00e+00	0	58	0	1841299456	49	4110
2026-01-01 15:12:38.34	333.50	10.44	-44.0	-44.9	16.4	0.00e+00	0	58	0	1855979520	49	4257
2026-01-01 15:12:40.32	333.62	10.27	-44.1	-45.0	16.3	0.00e+00	0	58	0	1869611008	49	4324
2026-01-01 15:12:42.30	333.74	10.11	-44.2	-45.1	16.2	0.00e+00	0	58	0	1884291072	50	4123
2026-01-01 15:12:44.28	333.86	9.95	-43.9	-44.7	16.6	0.00e+00	0	58	0	1897922560	50	3937
2026-01-01 15:12:46.26	333.98	9.79	-43.7	-44.6	16.7	0.00e+00	0	58	0	1912602624	50	3876
2026-01-01 15:12:48.23	334.10	9.63	-43.7	-44.5	16.7	0.00e+00	0	58	0	1926234112	50	3839
2026-01-01 15:12:50.21	334.22	9.47	-43.9	-44.7	16.5	0.00e+00	0	58	0	1940914176	50	3937
2026-01-01 15:12:52.19	334.33	9.31	-43.9	-44.8	16.4	0.00e+00	0	58	0	1955594240	50	3969
2026-01-01 15:12:54.17	334.45	9.16	-44.1	-45.0	16.3	0.00e+00	0	58	0	1969225728	50	4054
2026-01-01 15:12:56.15	334.56	9.00	-44.1	-45.0	16.2	0.00e+00	0	58	0	1983905792	50	4082
2026-01-01 15:12:58.13	334.67	8.85	-44.3	-45.2	16.0	0.00e+00	0	58	0	1998585856	50	4182
2026-01-01 15:13:00.11	334.78	8.69	-44.0	-44.9	16.3	0.00e+00	0	58	0	2012217344	50	4029
2026-01-01 15:13:02.09	334.89	8.54	-44.1	-45.1	16.1	0.00e+00	0	58	0	2026897408	50	4112
2026-01-01 15:13:04.07	335.00	8.39	-44.4	-45.3	15.7	0.00e+00	0	58	0	2041577472	50	4237
2026-01-01 15:13:06.04	335.11	8.24	-44.1	-45.1	16.0	0.00e+00	0	58	0	2055208960	50	4109
2026-01-01 15:13:08.01	335.22	8.09	-44.2	-45.2	15.9	0.00e+00	0	58	0	2069889024	50	4168
2026-01-01 15:13:09.99	335.32	7.94	-44.4	-45.4	15.7	0.00e+00	0	59	0	2084569088	50	4271
2026-01-01 15:13:11.96	335.43	7.79	-44.5	-45.4	15.6	0.00e+00	0	58	0	2098200576	50	4284
2026-01-01 15:13:13.94	335.53	7.64	-44.3	-45.3	15.8	0.00e+00	0	58	0	2112880640	50	4195
2026-01-01 15:13:15.92	335.63	7.49	-44.3	-45.2	15.8	0.00e+00	0	58	0	2126512128	50	4192
2026-01-01 15:13:17.89	335.73	7.35	-44.3	-45.2	15.8	0.00e+00	0	58	0	2141192192	50	4183
2026-01-01 15:13:19.86	335.84	7.20	-44.6	-45.6	15.4	0.00e+00	0	58	0	2154823680	50	4356
2026-01-01 15:13:21.85	335.94	7.05	-44.4	-45.4	15.6	0.00e+00	0	58	0	2169503744	50	4245
2026-01-01 15:13:23.81	336.03	6.91	-44.4	-45.4	15.5	0.00e+00	0	58	0	2184183808	50	4289
2026-01-01 15:13:25.80	336.13	6.77	-44.5	-45.5	15.3	0.00e+00	0	58	0	2197815296	50	4330
2026-01-01 15:13:27.78	336.23	6.62	-44.6	-45.6	15.3	0.00e+00	0	58	0	2212495360	50	4371
2026-01-01 15:13:29.75	336.33	6.48	-44.5	-45.6	15.3	0.00e+00	0	58	0	2226126848	50	4355
2026-01-01 15:13:31.73	336.42	6.34	-44.7	-45.8	15.1	0.00e+00	0	58	0	2240806912	51	4200
2026-01-01 15:13:33.71	336.52	6.20	-44.6	-45.6	15.2	0.00e+00	0	58	0	2255486976	51	4117
2026-01-01 15:13:35.68	336.61	6.06	-44.7	-45.7	15.1	0.00e+00	0	58	0	2269118464	51	4175
2026-01-01 15:13:37.67	336.71	5.92	-44.5	-45.5	15.2	0.00e+00	0	58	0	2283798528	51	4096
2026-01-01 15:13:39.65	336.80	5.78	-44.7	-45.8	14.9	0.00e+00	0	58	0	2298478592	51	4230
2026-01-01 15:13:41.62	336.89	5.64	-44.8	-45.9	14.9	0.00e+00	0	58	0	2312110080	51	4261
2026-01-01 15:13:43.60	336.98	5.51	-44.9	-46.0	14.7	1.10e-06	0	58	0	2326790144	51	4321
2026-01-01 15:13:45.58	337.07	5.37	-45.1	-46.3	14.5	1.10e-06	0	58	0	2340421632	51	4455
2026-01-01 15:13:47.56	337.16	5.23	-44.7	-45.9	14.8	0.00e+00	0	58	0	2355101696	51	4258
2026-01-01 15:13:49.54	337.25	5.10	-44.9	-46.0	14.7	0.00e+00	0	58	0	2369781760	51	4319
2026-01-01 15:13:51.52	337.34	4.96	-51.5	-60.8	3.8	8.46e-01	0	58	104	2373976064	65	10644
2026-01-01 15:13:53.50	337.43	4.83	-48.8	-59.0	3.8	8.46e-01	0	58	104	2373976064	59	12185
2026-01-01 15:13:55.48	337.51	4.70	-52.1	-62.3	3.8	8.46e-01	0	58	104	2373976064	65	12573
2026-01-01 15:13:57.45	337.60	4.56	-52.5	-62.7	3.8	8.47e-01	0	58	104	2373976064	66	12442
2026-01-01 15:13:59.42	337.68	4.43	-52.5	-62.8	3.8	8.46e-01	0	58	104	2373976064	66	12610
2026-01-01 15:14:01.41	337.77	4.30	-52.6	-62.8	3.8	8.45e-01	0	58	104	2373976064	66	12662
2026-01-01 15:14:03.38	337.85	4.17	-52.5	-62.9	3.8	8.46e-01	0	58	104	2373976064	67	11975
2026-01-01 15:14:05.37	337.94	4.04	-52.7	-62.9	3.8	8.46e-01	0	58	104	2373976064	67	12040
2026-01-01 15:14:07.35	338.02	3.91	-52.6	-63.0	3.8	8.47e-01	0	59	104	2373976064	67	12120
2026-01-01 15:14:09.33	338.10	3.78	-52.7	-63.0	3.8	8.46e-01	0	58	104	2373976064	67	12123
2026-01-01 15:14:11.30	338.18	3.65	-52.7	-62.9	3.8	8.46e-01	0	58	104	2373976064	67	12085
2026-01-01 15:14:13.29	338.26	3.52	-52.9	-63.0	3.8	8.45e-01	0	58	104	2373976064	67	12156
2026-01-01 15:14:15.26	338.34	3.40	-52.8	-63.0	3.8	8.45e-01	0	59	104	2373976064	67	12215
2026-01-01 15:14:17.24	338.42	3.27	-52.7	-63.0	3.8	8.46e-01	0	58	104	2373976064	67	12104
2026-01-01 15:14:19.22	338.50	3.14	-52.8	-63.0	3.8	8.47e-01	0	58	104	2373976064	67	12147
2026-01-01 15:14:21.21	338.58	3.02	-52.8	-63.0	3.8	8.46e-01	0	58	104	2373976064	67	12107

#Closed at: 2026-01-01 15:14:23
#Recorded file [2373 MB]: D:/Data/31026_260101_181350.dat