passes_logs/2026/01/01/R3.0SM8_Murmansk_STILSPACE/R3.0SM8_Murmansk_STILSPACE__20260101_233547_FENGYUN_3D_rec.log

#Pass ID: 20260101_233547_FENGYUN 3D
#Satellite: FENGYUN 3D
#Configuration: FENGYUN 3D
#almurnet v.1.7.20240730
#Start time: 2026-01-01 23:35:48

#Version: 2.2.20231116
#Station: R3.0SM8_Murmansk_STILSPACE
#Location: 33.092731 lon 68.902999 lat
#TLE: 1 43010U 17072A   26001.33100487  .00000602  00000+0  30664-3 0  9999
#TLE: 2 43010  98.9910 332.9374 0001848 133.1047 227.0283 14.19692078421319

#Time	Az	El	Level	Level2	SNR	BER	BlckErr	Temp	State	Recorded	gain1	gain2
2026-01-01 23:35:48.14	21.13	3.03	-52.3	-63.1	3.8	8.46e-01	0	46	0	0	66	13161
2026-01-01 23:35:51.10	21.42	3.17	-52.0	-63.0	3.8	8.46e-01	0	47	104	0	67	12263
2026-01-01 23:35:54.06	21.72	3.31	-52.1	-62.9	3.8	8.46e-01	0	47	104	0	66	12921
2026-01-01 23:35:57.05	22.02	3.45	-52.0	-62.9	3.8	8.46e-01	0	47	104	0	66	12827
2026-01-01 23:36:00.02	22.32	3.59	-51.8	-62.6	3.8	8.46e-01	0	47	104	0	66	12452
2026-01-01 23:36:02.98	22.62	3.73	-51.3	-62.0	3.8	8.45e-01	0	47	104	0	65	12368
2026-01-01 23:36:05.95	22.93	3.87	-51.2	-62.0	3.8	8.47e-01	0	48	104	0	64	13005
2026-01-01 23:36:08.92	23.24	4.02	-51.3	-61.9	3.8	8.46e-01	0	48	104	0	64	12848
2026-01-01 23:36:11.90	23.55	4.16	-51.3	-62.1	3.8	8.46e-01	0	48	104	0	64	13173
2026-01-01 23:36:14.85	23.87	4.30	-51.2	-61.9	3.8	8.46e-01	0	48	104	0	64	12878
2026-01-01 23:36:17.82	24.18	4.44	-51.2	-61.8	3.8	8.45e-01	0	48	104	0	64	12714
2026-01-01 23:36:20.79	24.51	4.58	-51.3	-61.8	3.8	8.47e-01	0	49	104	0	64	12803
2026-01-01 23:36:23.76	24.83	4.72	-50.8	-58.1	4.3	8.39e-01	0	49	0	0	64	8344
2026-01-01 23:36:26.73	25.16	4.87	-49.0	-52.5	8.3	1.08e-01	0	49	0	8388608	61	5207
2026-01-01 23:36:29.68	25.49	5.01	-47.4	-49.6	11.4	2.19e-03	0	49	0	25165824	58	4423
2026-01-01 23:36:32.64	25.82	5.15	-47.4	-49.6	11.4	1.83e-03	0	49	0	40894464	57	4689
2026-01-01 23:36:35.61	26.16	5.29	-46.9	-48.8	12.3	3.31e-04	0	50	0	58720256	57	4287
2026-01-01 23:36:38.57	26.49	5.43	-46.5	-48.3	12.8	1.52e-04	0	50	0	74448896	56	4263
2026-01-01 23:36:41.54	26.84	5.57	-45.1	-46.5	14.5	2.20e-06	0	50	0	91226112	53	4136
2026-01-01 23:36:44.51	27.18	5.71	-44.4	-45.6	15.5	0.00e+00	0	50	0	108003328	52	3934
2026-01-01 23:36:47.48	27.53	5.86	-44.8	-46.0	15.1	0.00e+00	0	50	0	124780544	51	4372
2026-01-01 23:36:50.45	27.88	6.00	-44.8	-46.1	15.0	0.00e+00	0	50	0	141557760	52	4159
2026-01-01 23:36:53.41	28.24	6.14	-44.5	-45.7	15.4	0.00e+00	0	50	0	158334976	52	3988
2026-01-01 23:36:56.37	28.60	6.28	-44.7	-45.9	15.2	0.00e+00	0	50	0	175112192	52	4090
2026-01-01 23:36:59.35	28.96	6.42	-44.7	-46.0	15.1	0.00e+00	0	51	0	191889408	52	4131
2026-01-01 23:37:02.32	29.33	6.56	-44.4	-45.5	15.7	0.00e+00	0	51	0	208666624	51	4132
2026-01-01 23:37:05.28	29.70	6.70	-44.6	-45.8	15.5	0.00e+00	0	51	0	225443840	51	4272
2026-01-01 23:37:08.24	30.07	6.84	-44.0	-45.1	16.2	0.00e+00	0	51	0	242221056	51	3927
2026-01-01 23:37:11.22	30.44	6.98	-43.9	-45.0	16.3	0.00e+00	0	51	0	257949696	50	4111
2026-01-01 23:37:14.19	30.82	7.12	-44.1	-45.2	16.1	0.00e+00	0	51	0	275775488	50	4216
2026-01-01 23:37:17.16	31.21	7.26	-44.0	-45.1	16.3	0.00e+00	0	51	0	291504128	50	4164
2026-01-01 23:37:20.13	31.59	7.40	-44.1	-45.2	16.2	0.00e+00	0	52	0	308281344	50	4197
2026-01-01 23:37:23.08	31.98	7.54	-44.2	-45.3	16.1	0.00e+00	0	52	0	325058560	50	4244
2026-01-01 23:37:26.05	32.38	7.68	-44.1	-45.1	16.3	0.00e+00	0	52	0	341835776	50	4181
2026-01-01 23:37:29.02	32.77	7.81	-44.2	-45.2	16.2	0.00e+00	0	52	0	358612992	50	4232
2026-01-01 23:37:31.97	33.17	7.95	-44.1	-45.1	16.3	0.00e+00	0	52	0	375390208	50	4185
2026-01-01 23:37:34.94	33.58	8.09	-44.0	-45.1	16.3	0.00e+00	0	52	0	392167424	50	4168
2026-01-01 23:37:37.89	33.98	8.23	-44.4	-45.5	16.0	1.10e-06	0	52	0	408944640	50	4341
2026-01-01 23:37:40.86	34.39	8.36	-44.4	-45.5	16.0	0.00e+00	0	52	0	425721856	50	4370
2026-01-01 23:37:43.82	34.81	8.50	-44.5	-45.6	15.9	0.00e+00	0	52	0	441450496	51	4167
2026-01-01 23:37:46.78	35.23	8.63	-44.0	-45.0	16.5	0.00e+00	0	52	0	458227712	51	3886
2026-01-01 23:37:49.74	35.65	8.77	-44.1	-45.1	16.4	0.00e+00	0	53	0	475004928	51	3922
2026-01-01 23:37:52.71	36.08	8.90	-43.5	-44.5	17.0	0.00e+00	0	53	0	491782144	50	3876
2026-01-01 23:37:55.66	36.50	9.03	-43.7	-44.6	16.9	0.00e+00	0	53	0	508559360	50	3956
2026-01-01 23:37:58.64	36.94	9.17	-43.8	-44.7	16.8	0.00e+00	0	53	0	525336576	50	4003
2026-01-01 23:38:01.60	37.38	9.30	-43.9	-44.8	16.7	0.00e+00	0	53	0	542113792	50	4039
2026-01-01 23:38:04.56	37.82	9.43	-43.5	-44.4	17.1	0.00e+00	0	53	0	558891008	50	3848
2026-01-01 23:38:07.53	38.26	9.56	-43.6	-44.6	16.9	0.00e+00	0	53	0	575668224	49	4159
2026-01-01 23:38:10.51	38.72	9.69	-43.4	-44.3	17.2	0.00e+00	0	53	0	592445440	49	4041
2026-01-01 23:38:13.48	39.17	9.82	-43.6	-44.6	17.0	0.00e+00	0	53	0	608174080	49	4159
2026-01-01 23:38:16.45	39.63	9.95	-43.3	-44.1	17.4	0.00e+00	0	53	0	625999872	49	3950
2026-01-01 23:38:19.42	40.09	10.07	-43.2	-44.1	17.5	0.00e+00	0	53	0	641728512	49	3944
2026-01-01 23:38:22.38	40.55	10.20	-43.2	-44.1	17.5	0.00e+00	0	53	0	658505728	49	3947
2026-01-01 23:38:25.34	41.02	10.32	-43.2	-44.2	17.4	0.00e+00	0	53	0	675282944	49	3967
2026-01-01 23:38:28.29	41.49	10.45	-43.1	-43.9	17.7	0.00e+00	0	53	0	692060160	49	3852
2026-01-01 23:38:31.23	41.96	10.57	-42.9	-43.8	17.8	0.00e+00	0	54	0	708837376	49	3789
2026-01-01 23:38:34.21	42.45	10.69	-43.1	-44.0	17.6	0.00e+00	0	54	0	725614592	49	3874
2026-01-01 23:38:37.17	42.93	10.81	-43.3	-44.2	17.5	0.00e+00	0	53	0	742391808	49	3968
2026-01-01 23:38:40.14	43.42	10.93	-43.4	-44.4	17.3	0.00e+00	0	54	0	758120448	49	4053
2026-01-01 23:38:43.11	43.91	11.05	-43.6	-44.5	17.1	0.00e+00	0	54	0	774897664	49	4121
2026-01-01 23:38:46.08	44.41	11.16	-43.8	-44.8	16.9	0.00e+00	0	54	0	791674880	49	4252
2026-01-01 23:38:49.05	44.91	11.28	-43.1	-44.0	17.7	0.00e+00	0	54	0	808452096	49	3875
2026-01-01 23:38:52.02	45.41	11.39	-42.8	-43.7	18.0	0.00e+00	0	54	0	825229312	48	3961
2026-01-01 23:38:54.98	45.92	11.51	-43.0	-43.8	17.9	0.00e+00	0	54	0	842006528	48	4029
2026-01-01 23:38:57.93	46.43	11.62	-42.9	-43.8	17.9	0.00e+00	0	54	0	858783744	48	4017
2026-01-01 23:39:00.89	46.94	11.73	-43.0	-43.8	17.8	0.00e+00	0	54	0	875560960	48	4030
2026-01-01 23:39:03.87	47.46	11.83	-42.7	-43.5	18.1	0.00e+00	0	54	0	892338176	48	3906
2026-01-01 23:39:06.84	47.99	11.94	-42.7	-43.5	18.2	0.00e+00	0	54	0	909115392	48	3880
2026-01-01 23:39:09.80	48.51	12.05	-42.7	-43.4	18.2	0.00e+00	0	54	0	925892608	48	3868
2026-01-01 23:39:12.77	49.04	12.15	-42.8	-43.6	18.1	0.00e+00	0	54	0	942669824	48	3930
2026-01-01 23:39:15.75	49.58	12.25	-42.8	-43.6	18.0	0.00e+00	0	54	0	959447040	48	3952
2026-01-01 23:39:18.71	50.11	12.35	-42.5	-43.3	18.4	0.00e+00	0	54	0	975175680	48	3796
2026-01-01 23:39:21.69	50.66	12.45	-42.3	-43.0	18.5	0.00e+00	0	54	0	991952896	47	3913
2026-01-01 23:39:24.64	51.20	12.54	-42.5	-43.2	18.3	0.00e+00	0	55	0	1008730112	47	4004
2026-01-01 23:39:27.61	51.74	12.63	-42.9	-43.7	17.8	0.00e+00	0	54	0	1025507328	47	4217
2026-01-01 23:39:30.56	52.29	12.73	-42.8	-43.7	17.8	0.00e+00	0	55	0	1042284544	47	4208
2026-01-01 23:39:33.53	52.85	12.82	-43.1	-43.9	17.6	0.00e+00	0	55	0	1059061760	47	4326
2026-01-01 23:39:36.50	53.40	12.90	-43.3	-44.1	17.6	0.00e+00	0	55	0	1075838976	48	4185
2026-01-01 23:39:39.48	53.97	12.99	-42.6	-43.4	18.3	0.00e+00	0	55	0	1092616192	48	3829
2026-01-01 23:39:42.45	54.53	13.07	-42.7	-43.5	18.2	0.00e+00	0	55	0	1109393408	48	3893
2026-01-01 23:39:45.39	55.09	13.15	-42.5	-43.2	18.5	0.00e+00	0	55	0	1126170624	48	3766
2026-01-01 23:39:48.36	55.66	13.23	-42.4	-43.2	18.4	0.00e+00	0	55	0	1142947840	47	3968
2026-01-01 23:39:51.33	56.24	13.31	-42.6	-43.4	18.2	0.00e+00	0	55	0	1158676480	47	4080
2026-01-01 23:39:54.29	56.81	13.38	-42.8	-43.7	17.9	0.00e+00	0	55	0	1175453696	47	4209
2026-01-01 23:39:57.25	57.39	13.45	-42.5	-43.3	18.3	0.00e+00	0	55	0	1192230912	47	4041
2026-01-01 23:40:00.23	57.97	13.52	-42.4	-43.3	18.3	0.00e+00	0	55	0	1209008128	47	4010
2026-01-01 23:40:03.19	58.55	13.59	-42.1	-42.8	18.6	0.00e+00	0	55	0	1225785344	47	3821
2026-01-01 23:40:06.16	59.14	13.65	-42.1	-42.9	18.7	0.00e+00	0	55	0	1242562560	47	3838
2026-01-01 23:40:09.13	59.73	13.71	-42.5	-43.3	18.3	0.00e+00	0	55	0	1259339776	47	4026
2026-01-01 23:40:12.09	60.32	13.77	-42.7	-43.5	18.1	0.00e+00	0	55	0	1276116992	47	4116
2026-01-01 23:40:15.06	60.91	13.83	-42.6	-43.4	18.2	0.00e+00	0	55	0	1292894208	47	4069
2026-01-01 23:40:18.04	61.51	13.88	-42.3	-43.1	18.4	0.00e+00	0	55	0	1309671424	47	3935
2026-01-01 23:40:21.01	62.11	13.93	-42.2	-43.0	18.5	0.00e+00	0	55	0	1326448640	47	3898
2026-01-01 23:40:23.98	62.71	13.98	-42.5	-43.3	18.3	0.00e+00	0	55	0	1342177280	47	4041
2026-01-01 23:40:26.94	63.31	14.02	-42.6	-43.4	18.2	0.00e+00	0	56	0	1360003072	47	4080
2026-01-01 23:40:29.89	63.91	14.06	-42.8	-43.6	17.9	0.00e+00	0	56	0	1375731712	47	4187
2026-01-01 23:40:32.86	64.51	14.10	-42.7	-43.5	18.2	0.00e+00	0	55	0	1392508928	48	3877
2026-01-01 23:40:35.84	65.12	14.14	-42.0	-42.8	18.8	0.00e+00	0	55	0	1409286144	47	3792
2026-01-01 23:40:38.82	65.73	14.17	-42.1	-42.8	18.7	0.00e+00	0	56	0	1426063360	47	3817
2026-01-01 23:40:41.78	66.34	14.21	-42.1	-42.9	18.8	0.00e+00	0	55	0	1442840576	47	3835
2026-01-01 23:40:44.73	66.94	14.23	-42.5	-43.3	18.3	0.00e+00	0	56	0	1459617792	47	4030
2026-01-01 23:40:47.71	67.56	14.26	-42.7	-43.5	18.1	0.00e+00	0	56	0	1476395008	47	4123
2026-01-01 23:40:50.69	68.17	14.28	-42.8	-43.7	18.0	0.00e+00	0	56	0	1493172224	47	4210
2026-01-01 23:40:53.66	68.79	14.30	-42.6	-43.4	18.2	0.00e+00	0	56	0	1509949440	47	4085
2026-01-01 23:40:56.63	69.40	14.31	-42.6	-43.4	18.2	0.00e+00	0	56	0	1526726656	47	4069
2026-01-01 23:40:59.60	70.02	14.33	-42.0	-42.8	18.8	0.00e+00	0	56	0	1543503872	47	3786
2026-01-01 23:41:02.57	70.63	14.34	-42.2	-42.9	18.7	0.00e+00	0	56	0	1560281088	46	4083
2026-01-01 23:41:05.55	71.25	14.34	-42.4	-43.1	18.5	0.00e+00	0	56	0	1577058304	46	4190
2026-01-01 23:41:08.52	71.86	14.35	-42.5	-43.3	18.2	0.00e+00	0	56	0	1592786944	47	4040
2026-01-01 23:41:11.50	72.48	14.35	-42.4	-43.2	18.3	0.00e+00	0	56	0	1610612736	47	4002
2026-01-01 23:41:14.47	73.10	14.34	-42.6	-43.4	18.2	0.00e+00	0	56	0	1626341376	47	4095
2026-01-01 23:41:17.44	73.71	14.34	-42.9	-43.7	18.1	0.00e+00	0	56	0	1643118592	48	3978
2026-01-01 23:41:20.41	74.33	14.33	-42.6	-43.4	18.4	0.00e+00	0	56	0	1659895808	48	3843
2026-01-01 23:41:23.37	74.94	14.32	-42.8	-43.6	18.2	0.00e+00	0	56	0	1676673024	48	3920
2026-01-01 23:41:26.35	75.56	14.30	-42.0	-42.8	18.8	0.00e+00	0	56	0	1693450240	47	3796
2026-01-01 23:41:29.31	76.17	14.29	-42.3	-43.1	18.5	0.00e+00	0	56	0	1710227456	47	3925
2026-01-01 23:41:32.26	76.78	14.27	-42.3	-43.0	18.5	0.00e+00	0	56	0	1727004672	47	3905
2026-01-01 23:41:35.22	77.39	14.24	-42.6	-43.4	18.2	0.00e+00	0	56	0	1743781888	47	4060
2026-01-01 23:41:38.19	78.00	14.22	-42.3	-43.1	18.6	0.00e+00	0	56	0	1760559104	47	3914
2026-01-01 23:41:41.15	78.61	14.19	-42.3	-43.1	18.5	0.00e+00	0	56	0	1777336320	47	3953
2026-01-01 23:41:44.12	79.22	14.15	-42.4	-43.2	18.4	0.00e+00	0	56	0	1793064960	47	3974
2026-01-01 23:41:47.07	79.82	14.12	-42.4	-43.2	18.4	0.00e+00	0	56	0	1809842176	47	3977
2026-01-01 23:41:50.04	80.43	14.08	-42.5	-43.3	18.3	0.00e+00	0	56	0	1826619392	47	4043
2026-01-01 23:41:53.02	81.04	14.04	-42.4	-43.1	18.4	0.00e+00	0	56	0	1843396608	47	3943
2026-01-01 23:41:55.99	81.64	13.99	-42.3	-43.1	18.4	0.00e+00	0	56	0	1860173824	47	3934
2026-01-01 23:41:58.96	82.24	13.95	-42.6	-43.4	18.2	0.00e+00	0	56	0	1876951040	47	4071
2026-01-01 23:42:01.93	82.84	13.90	-42.4	-43.1	18.4	0.00e+00	0	56	0	1893728256	47	3951
2026-01-01 23:42:04.88	83.44	13.84	-42.4	-43.2	18.5	0.00e+00	0	56	0	1910505472	47	3964
2026-01-01 23:42:07.86	84.03	13.79	-42.6	-43.4	18.1	0.00e+00	0	56	0	1927282688	47	4082
2026-01-01 23:42:10.82	84.63	13.73	-42.8	-43.7	17.9	0.00e+00	0	57	0	1944059904	47	4211
2026-01-01 23:42:13.77	85.21	13.67	-43.0	-43.8	18.0	0.00e+00	0	56	0	1959788544	48	4036
2026-01-01 23:42:16.73	85.80	13.61	-42.7	-43.6	18.0	0.00e+00	0	57	0	1976565760	48	3941
2026-01-01 23:42:19.69	86.38	13.54	-43.2	-44.1	17.7	0.00e+00	0	57	0	1993342976	48	4173
2026-01-01 23:42:22.66	86.97	13.47	-42.5	-43.3	18.3	0.00e+00	0	57	0	2010120192	48	3809
2026-01-01 23:42:25.62	87.55	13.40	-42.3	-43.1	18.2	0.00e+00	0	56	0	2026897408	47	3955
2026-01-01 23:42:28.58	88.12	13.33	-42.5	-43.4	18.0	0.00e+00	0	57	0	2043674624	47	4058
2026-01-01 23:42:31.52	88.69	13.26	-42.2	-43.0	18.5	0.00e+00	0	57	0	2060451840	47	3897
2026-01-01 23:42:34.49	89.27	13.18	-42.4	-43.3	18.1	0.00e+00	0	57	0	2077229056	47	4020
2026-01-01 23:42:37.46	89.84	13.10	-42.6	-43.5	18.0	0.00e+00	0	57	0	2094006272	47	4113
2026-01-01 23:42:40.42	90.40	13.02	-42.6	-43.5	18.0	0.00e+00	0	56	0	2109734912	47	4110
2026-01-01 23:42:43.40	90.97	12.93	-42.5	-43.4	18.1	0.00e+00	0	57	0	2127560704	47	4075
2026-01-01 23:42:46.37	91.53	12.84	-42.7	-43.6	17.8	0.00e+00	0	57	0	2143289344	47	4192
2026-01-01 23:42:49.34	92.09	12.75	-42.7	-43.6	17.9	0.00e+00	0	57	0	2160066560	47	4166
2026-01-01 23:42:52.31	92.64	12.66	-42.9	-43.8	17.7	0.00e+00	0	57	0	2176843776	47	4285
2026-01-01 23:42:55.27	93.19	12.57	-42.6	-43.5	17.9	0.00e+00	0	57	0	2193620992	47	4136
2026-01-01 23:42:58.24	93.74	12.47	-42.7	-43.6	17.8	0.00e+00	0	57	0	2210398208	47	4153
2026-01-01 23:43:01.20	94.28	12.38	-43.3	-44.2	17.4	0.00e+00	0	57	0	2227175424	48	4231
2026-01-01 23:43:04.17	94.82	12.28	-43.3	-44.2	17.4	0.00e+00	0	57	0	2243952640	49	3999
2026-01-01 23:43:07.13	95.35	12.18	-43.3	-44.3	17.4	0.00e+00	0	57	0	2260729856	49	4008
2026-01-01 23:43:10.11	95.89	12.07	-43.3	-44.3	17.4	0.00e+00	0	57	0	2277507072	49	4015
2026-01-01 23:43:13.07	96.42	11.97	-43.2	-44.1	17.6	0.00e+00	0	57	0	2294284288	49	3929
2026-01-01 23:43:16.05	96.95	11.86	-42.9	-43.8	17.8	0.00e+00	0	57	0	2311061504	49	3811
2026-01-01 23:43:19.02	97.47	11.75	-42.9	-43.7	17.9	0.00e+00	0	57	0	2327838720	48	4002
2026-01-01 23:43:22.00	97.99	11.64	-42.9	-43.8	17.8	0.00e+00	0	57	0	2344615936	48	4022
2026-01-01 23:43:24.95	98.50	11.53	-43.0	-43.9	17.6	0.00e+00	0	57	0	2360344576	48	4098
2026-01-01 23:43:27.92	99.01	11.42	-43.4	-44.3	17.3	0.00e+00	0	57	0	2377121792	48	4273
2026-01-01 23:43:30.87	99.52	11.31	-43.0	-43.9	17.7	0.00e+00	0	57	0	2393899008	48	4080
2026-01-01 23:43:33.84	100.02	11.19	-43.3	-44.2	17.3	0.00e+00	0	57	0	2410676224	48	4235
2026-01-01 23:43:36.82	100.52	11.07	-43.2	-44.1	17.5	0.00e+00	0	57	0	2427453440	48	4178
2026-01-01 23:43:39.78	101.01	10.96	-43.4	-44.4	17.2	0.00e+00	0	57	0	2444230656	48	4307
2026-01-01 23:43:42.74	101.51	10.84	-43.7	-44.7	16.9	0.00e+00	0	57	0	2461007872	49	4236
2026-01-01 23:43:45.70	101.99	10.72	-43.7	-44.7	17.0	0.00e+00	0	57	0	2477785088	49	4201
2026-01-01 23:43:48.68	102.48	10.59	-43.5	-44.5	17.1	0.00e+00	0	57	0	2494562304	49	4129
2026-01-01 23:43:51.65	102.96	10.47	-43.6	-44.6	17.0	0.00e+00	0	57	0	2511339520	49	4173
2026-01-01 23:43:54.63	103.44	10.35	-43.7	-44.7	16.9	0.00e+00	0	57	0	2527068160	49	4206
2026-01-01 23:43:57.59	103.91	10.22	-43.6	-44.6	17.0	0.00e+00	0	57	0	2544893952	49	4155
2026-01-01 23:44:00.56	104.38	10.09	-43.6	-44.6	17.0	0.00e+00	0	57	0	2560622592	49	4177
2026-01-01 23:44:03.53	104.84	9.97	-43.7	-44.7	16.9	0.00e+00	0	57	0	2577399808	49	4213
2026-01-01 23:44:06.50	105.30	9.84	-43.8	-44.9	16.7	0.00e+00	0	57	0	2594177024	49	4299
2026-01-01 23:44:09.47	105.76	9.71	-43.8	-44.9	16.7	0.00e+00	0	57	0	2610954240	49	4305
2026-01-01 23:44:12.44	106.21	9.58	-43.8	-44.8	16.8	0.00e+00	0	57	0	2627731456	49	4259
2026-01-01 23:44:15.40	106.66	9.45	-43.9	-44.9	16.6	0.00e+00	0	57	0	2644508672	49	4325
2026-01-01 23:44:18.37	107.10	9.31	-44.1	-45.2	16.4	0.00e+00	0	57	0	2661285888	50	4219
2026-01-01 23:44:21.34	107.55	9.18	-43.9	-45.0	16.6	0.00e+00	0	57	0	2678063104	50	4111
2026-01-01 23:44:24.32	107.99	9.05	-44.0	-45.0	16.5	0.00e+00	0	57	0	2694840320	50	4118
2026-01-01 23:44:27.28	108.42	8.91	-43.8	-44.8	16.7	0.00e+00	0	57	0	2711617536	50	4043
2026-01-01 23:44:30.23	108.84	8.78	-43.8	-44.9	16.7	0.00e+00	0	57	0	2727346176	50	4059
2026-01-01 23:44:33.18	109.27	8.64	-44.1	-45.1	16.4	0.00e+00	0	57	0	2744123392	50	4184
2026-01-01 23:44:36.13	109.69	8.51	-44.3	-45.3	16.2	0.00e+00	0	57	0	2760900608	50	4285
2026-01-01 23:44:39.10	110.11	8.37	-44.0	-45.0	16.4	0.00e+00	0	57	0	2777677824	50	4140
2026-01-01 23:44:42.05	110.52	8.24	-44.3	-45.4	16.1	0.00e+00	0	57	0	2794455040	50	4322
2026-01-01 23:44:45.02	110.93	8.10	-44.1	-45.2	16.3	0.00e+00	0	57	0	2811232256	50	4210
2026-01-01 23:44:47.99	111.34	7.96	-44.2	-45.3	16.2	0.00e+00	0	57	0	2828009472	50	4270
2026-01-01 23:44:50.97	111.74	7.82	-44.3	-45.4	16.0	0.00e+00	0	57	0	2844786688	50	4336
2026-01-01 23:44:53.95	112.14	7.68	-44.3	-45.4	16.0	0.00e+00	0	57	0	2861563904	50	4333
2026-01-01 23:44:56.92	112.54	7.54	-44.2	-45.3	16.2	0.00e+00	0	57	0	2878341120	50	4252
2026-01-01 23:44:59.89	112.93	7.40	-44.4	-45.5	15.9	0.00e+00	0	57	0	2895118336	50	4390
2026-01-01 23:45:02.86	113.32	7.26	-44.4	-45.6	15.9	0.00e+00	0	57	0	2911895552	51	4168
2026-01-01 23:45:05.84	113.71	7.12	-44.6	-45.8	15.6	0.00e+00	0	57	0	2928672768	51	4270
2026-01-01 23:45:08.82	114.09	6.98	-44.3	-45.4	16.0	0.00e+00	0	57	0	2945449984	51	4083
2026-01-01 23:45:11.79	114.47	6.84	-44.6	-45.8	15.6	0.00e+00	0	57	0	2962227200	51	4275
2026-01-01 23:45:14.77	114.84	6.69	-44.6	-45.8	15.6	1.10e-06	0	57	0	2977955840	51	4275
2026-01-01 23:45:17.74	115.22	6.55	-44.7	-45.9	15.5	0.00e+00	0	57	0	2995781632	51	4323
2026-01-01 23:45:20.70	115.58	6.41	-44.6	-45.9	15.5	0.00e+00	0	57	0	3011510272	51	4299
2026-01-01 23:45:23.67	115.95	6.27	-44.9	-46.2	15.2	0.00e+00	0	57	0	3028287488	51	4463
2026-01-01 23:45:26.62	116.31	6.13	-45.0	-46.3	14.9	0.00e+00	0	57	0	3045064704	52	4269
2026-01-01 23:45:29.59	116.66	5.99	-44.9	-46.2	15.0	1.10e-06	0	57	0	3061841920	52	4237
2026-01-01 23:45:32.54	117.02	5.84	-45.0	-46.4	14.8	3.40e-06	0	57	0	3078619136	52	4310
2026-01-01 23:45:35.51	117.37	5.70	-45.0	-46.3	14.9	0.00e+00	0	57	0	3095396352	52	4250
2026-01-01 23:45:38.49	117.72	5.56	-45.0	-46.4	14.8	1.10e-06	0	57	0	3112173568	52	4293
2026-01-01 23:45:41.46	118.06	5.41	-45.1	-46.5	14.7	0.00e+00	0	57	0	3128950784	52	4355
2026-01-01 23:45:44.43	118.40	5.27	-45.0	-46.4	14.7	0.00e+00	0	57	0	3145728000	52	4311
2026-01-01 23:45:47.40	118.74	5.13	-44.9	-46.3	14.8	1.10e-06	0	57	0	3162505216	52	4279
2026-01-01 23:45:50.37	119.07	4.99	-51.3	-61.1	3.8	4.87e-02	0	57	104	3177185280	64	11806
2026-01-01 23:45:53.34	119.41	4.84	-52.0	-62.8	3.8	8.46e-01	0	57	104	3177185280	65	13423
2026-01-01 23:45:56.31	119.74	4.70	-52.2	-63.0	3.8	8.46e-01	0	57	104	3177185280	66	13049
2026-01-01 23:45:59.27	120.06	4.56	-52.0	-63.0	3.8	8.46e-01	0	57	104	3177185280	66	13020
2026-01-01 23:46:02.25	120.38	4.41	-52.4	-63.2	3.8	8.47e-01	0	57	104	3177185280	66	13276
2026-01-01 23:46:05.20	120.70	4.27	-52.4	-63.2	3.8	8.46e-01	0	57	104	3177185280	66	13330
2026-01-01 23:46:08.17	121.02	4.13	-52.5	-63.2	3.8	8.46e-01	0	57	104	3177185280	66	13404
2026-01-01 23:46:11.14	121.33	3.99	-52.6	-63.3	3.8	8.46e-01	0	57	104	3177185280	66	13509
2026-01-01 23:46:14.09	121.64	3.84	-52.6	-63.3	3.8	8.47e-01	0	57	104	3177185280	66	13506
2026-01-01 23:46:17.05	121.95	3.70	-52.5	-63.3	3.8	8.47e-01	0	57	104	3177185280	67	12717
2026-01-01 23:46:20.02	122.25	3.56	-52.5	-63.3	3.8	8.45e-01	0	57	104	3177185280	66	13432
2026-01-01 23:46:23.00	122.56	3.42	-52.6	-63.3	3.8	8.45e-01	0	57	104	3177185280	66	13440
2026-01-01 23:46:25.97	122.86	3.27	-52.5	-63.3	3.8	8.46e-01	0	57	104	3177185280	66	13422
2026-01-01 23:46:28.94	123.15	3.13	-52.6	-63.3	3.8	8.46e-01	0	57	104	3177185280	66	13441
2026-01-01 23:46:31.91	123.45	2.99	-52.5	-63.3	3.8	8.47e-01	0	57	104	3177185280	66	13513

#Closed at: 2026-01-01 23:46:32
#Recorded file [3177 MB]: D:/Data/31026_260102_024550.dat