passes_logs/2026/01/01/R3.0SM8_Murmansk_STILSPACE/R3.0SM8_Murmansk_STILSPACE__20260101_220450_NOAA_21_JPSS-2_rec.log

#Pass ID: 20260101_220450_NOAA 21 (JPSS-2)
#Satellite: NOAA 21 (JPSS-2)
#Configuration: NOAA-21
#almurnet v.1.7.20240730
#Start time: 2026-01-01 22:04:50

#Version: 2.2.20231116
#Station: R3.0SM8_Murmansk_STILSPACE
#Location: 33.092731 lon 68.902999 lat
#TLE: 1 54234U 22150A   26001.26806856  .00000185  00000+0  10843-3 0  9990
#TLE: 2 54234  98.7484 302.3349 0001277 353.3887   6.7272 14.19530660162860

#Time	Az	El	Level	Level2	SNR	BER	BlckErr	Temp	State	Recorded	gain1	gain2
2026-01-01 22:04:50.35	19.96	2.99	-52.3	-63.9	3.8	1.49e+00	0	45	0	0	67	13651
2026-01-01 22:04:53.32	20.20	3.15	-52.3	-63.8	3.8	1.49e+00	0	46	104	0	66	14219
2026-01-01 22:04:56.28	20.45	3.31	-52.0	-63.6	3.8	1.49e+00	0	46	104	0	66	13905
2026-01-01 22:04:59.24	20.70	3.47	-51.5	-62.9	3.8	1.49e+00	0	46	104	0	66	12900
2026-01-01 22:05:02.20	20.95	3.63	-51.3	-62.7	3.8	1.49e+00	0	47	104	0	65	13300
2026-01-01 22:05:05.17	21.20	3.80	-51.3	-62.7	3.8	1.49e+00	0	47	104	0	64	14054
2026-01-01 22:05:08.14	21.46	3.96	-51.3	-62.7	3.8	1.49e+00	0	47	104	0	64	14128
2026-01-01 22:05:11.11	21.72	4.12	-51.3	-62.7	3.8	1.49e+00	0	47	104	0	64	14140
2026-01-01 22:05:14.08	21.98	4.28	-51.2	-62.6	3.8	1.49e+00	0	47	104	0	64	13966
2026-01-01 22:05:17.03	22.24	4.45	-51.3	-62.6	3.8	1.49e+00	0	48	104	0	64	13953
2026-01-01 22:05:20.00	22.51	4.61	-51.0	-62.3	3.8	1.49e+00	0	48	104	0	64	13541
2026-01-01 22:05:22.96	22.78	4.78	-50.8	-58.7	4.3	1.47e+00	0	48	104	0	64	8927
2026-01-01 22:05:25.92	23.05	4.94	-49.7	-54.2	7.4	1.62e-01	0	48	0	6291456	62	5977
2026-01-01 22:05:28.88	23.33	5.11	-49.4	-53.3	8.4	4.36e-02	0	49	0	15728640	61	5679
2026-01-01 22:05:31.84	23.61	5.27	-48.8	-51.9	9.8	1.14e-02	0	49	0	24117248	60	5146
2026-01-01 22:05:34.81	23.89	5.44	-48.4	-51.1	10.8	3.16e-03	0	49	0	33554432	59	4940
2026-01-01 22:05:37.77	24.18	5.61	-48.0	-50.5	11.4	1.06e-03	0	49	0	42991616	59	4637
2026-01-01 22:05:40.73	24.46	5.78	-47.3	-49.4	12.6	1.17e-04	0	49	0	52428800	57	4549
2026-01-01 22:05:43.71	24.76	5.94	-46.9	-48.8	13.2	2.36e-05	0	49	0	61865984	56	4513
2026-01-01 22:05:46.67	25.05	6.11	-47.0	-48.9	13.1	2.36e-05	0	49	0	71303168	56	4568
2026-01-01 22:05:49.64	25.35	6.28	-46.7	-48.4	13.6	9.10e-06	0	49	0	79691776	56	4338
2026-01-01 22:05:52.61	25.65	6.45	-46.8	-48.6	13.4	1.52e-05	0	50	0	89128960	56	4431
2026-01-01 22:05:55.58	25.95	6.62	-46.7	-48.5	13.7	4.50e-06	0	50	0	98566144	56	4342
2026-01-01 22:05:58.55	26.26	6.79	-46.5	-48.1	13.9	3.00e-06	0	50	0	108003328	56	4188
2026-01-01 22:06:01.53	26.58	6.97	-46.7	-48.4	13.7	6.80e-06	0	50	0	117440512	56	4331
2026-01-01 22:06:04.49	26.89	7.14	-47.0	-48.8	13.4	1.44e-05	0	50	0	126877696	56	4517
2026-01-01 22:06:07.44	27.21	7.31	-46.9	-48.7	13.5	9.90e-06	0	50	0	135266304	56	4464
2026-01-01 22:06:10.42	27.53	7.48	-46.9	-48.7	13.5	1.29e-05	0	51	0	144703488	56	4459
2026-01-01 22:06:13.39	27.86	7.66	-46.8	-48.5	13.7	1.29e-05	0	51	0	154140672	56	4368
2026-01-01 22:06:16.37	28.19	7.83	-46.4	-48.1	14.2	1.50e-06	0	51	0	163577856	56	4146
2026-01-01 22:06:19.34	28.52	8.00	-46.6	-48.2	14.1	2.20e-06	0	51	0	173015040	56	4204
2026-01-01 22:06:22.31	28.86	8.18	-46.1	-47.6	14.5	1.50e-06	0	51	0	182452224	55	4160
2026-01-01 22:06:25.27	29.20	8.35	-46.3	-47.9	14.3	1.50e-06	0	51	0	191889408	55	4301
2026-01-01 22:06:28.24	29.55	8.53	-46.2	-47.7	14.4	1.50e-06	0	51	0	200278016	55	4237
2026-01-01 22:06:31.19	29.89	8.70	-46.4	-47.9	14.3	2.20e-06	0	51	0	209715200	55	4325
2026-01-01 22:06:34.16	30.25	8.88	-45.6	-46.9	15.3	0.00e+00	0	51	0	219152384	54	4069
2026-01-01 22:06:37.12	30.60	9.05	-45.4	-46.6	15.6	0.00e+00	0	52	0	228589568	53	4165
2026-01-01 22:06:40.08	30.96	9.23	-45.4	-46.6	15.6	0.00e+00	0	51	0	238026752	53	4152
2026-01-01 22:06:43.05	31.33	9.41	-45.5	-46.8	15.4	0.00e+00	0	52	0	247463936	53	4249
2026-01-01 22:06:46.01	31.70	9.58	-45.6	-46.9	15.3	0.00e+00	0	52	0	255852544	53	4336
2026-01-01 22:06:48.97	32.07	9.76	-46.0	-47.5	14.8	0.00e+00	0	52	0	265289728	53	4609
2026-01-01 22:06:51.93	32.45	9.94	-45.9	-47.3	14.9	0.00e+00	0	52	0	274726912	53	4524
2026-01-01 22:06:54.90	32.83	10.11	-45.5	-46.7	15.6	0.00e+00	0	52	0	284164096	53	4222
2026-01-01 22:06:57.86	33.22	10.29	-45.6	-46.9	15.4	0.00e+00	0	52	0	293601280	53	4306
2026-01-01 22:07:00.83	33.61	10.47	-45.9	-47.3	15.1	0.00e+00	0	52	0	303038464	53	4503
2026-01-01 22:07:03.79	34.00	10.65	-46.0	-47.4	14.9	0.00e+00	0	52	0	311427072	53	4584
2026-01-01 22:07:06.75	34.40	10.82	-45.7	-47.0	15.3	0.00e+00	0	52	0	320864256	53	4371
2026-01-01 22:07:09.71	34.81	11.00	-45.8	-47.2	15.2	0.00e+00	0	53	0	330301440	53	4449
2026-01-01 22:07:12.69	35.22	11.18	-45.3	-46.5	15.8	0.00e+00	0	53	0	339738624	53	4143
2026-01-01 22:07:15.65	35.64	11.36	-45.4	-46.6	15.7	0.00e+00	0	53	0	349175808	53	4178
2026-01-01 22:07:18.61	36.06	11.54	-45.4	-46.7	15.7	0.00e+00	0	53	0	358612992	53	4205
2026-01-01 22:07:21.58	36.48	11.71	-45.9	-47.3	15.0	0.00e+00	0	53	0	367001600	53	4536
2026-01-01 22:07:24.55	36.91	11.89	-46.0	-47.4	15.0	0.00e+00	0	53	0	376438784	53	4554
2026-01-01 22:07:27.51	37.35	12.07	-45.6	-46.9	15.5	0.00e+00	0	53	0	385875968	53	4296
2026-01-01 22:07:30.47	37.79	12.25	-45.6	-46.9	15.5	0.00e+00	0	53	0	395313152	53	4305
2026-01-01 22:07:33.45	38.23	12.43	-45.2	-46.3	16.0	0.00e+00	0	53	0	404750336	53	4046
2026-01-01 22:07:36.42	38.68	12.60	-45.3	-46.5	15.9	0.00e+00	0	53	0	414187520	53	4103
2026-01-01 22:07:39.38	39.14	12.78	-45.2	-46.4	16.0	0.00e+00	0	53	0	422576128	53	4078
2026-01-01 22:07:42.35	39.60	12.96	-45.5	-46.7	15.7	0.00e+00	0	53	0	432013312	53	4218
2026-01-01 22:07:45.33	40.07	13.13	-45.5	-46.7	15.7	0.00e+00	0	54	0	441450496	53	4223
2026-01-01 22:07:48.30	40.54	13.31	-45.5	-46.7	15.7	0.00e+00	0	53	0	450887680	53	4239
2026-01-01 22:07:51.27	41.02	13.48	-45.7	-46.9	15.5	0.00e+00	0	53	0	460324864	53	4328
2026-01-01 22:07:54.23	41.50	13.66	-45.3	-46.5	15.9	0.00e+00	0	54	0	469762048	53	4128
2026-01-01 22:07:57.19	41.99	13.83	-45.2	-46.3	16.1	0.00e+00	0	54	0	478150656	53	4035
2026-01-01 22:08:00.15	42.48	14.00	-44.8	-45.8	16.6	0.00e+00	0	54	0	487587840	52	4041
2026-01-01 22:08:03.10	42.98	14.18	-44.9	-46.0	16.4	0.00e+00	0	54	0	497025024	52	4134
2026-01-01 22:08:06.07	43.49	14.35	-45.0	-46.1	16.3	0.00e+00	0	54	0	506462208	52	4183
2026-01-01 22:08:09.05	44.00	14.52	-45.2	-46.4	16.1	0.00e+00	0	54	0	515899392	52	4305
2026-01-01 22:08:12.02	44.52	14.69	-45.5	-46.7	15.8	0.00e+00	0	54	0	525336576	52	4470
2026-01-01 22:08:14.99	45.04	14.86	-45.0	-46.1	16.4	0.00e+00	0	54	0	534773760	52	4156
2026-01-01 22:08:17.95	45.57	15.03	-45.1	-46.2	16.3	0.00e+00	0	54	0	543162368	52	4221
2026-01-01 22:08:20.92	46.10	15.19	-44.8	-45.9	16.6	0.00e+00	0	54	0	552599552	52	4077
2026-01-01 22:08:23.88	46.64	15.36	-45.2	-46.3	16.2	0.00e+00	0	54	0	562036736	52	4266
2026-01-01 22:08:26.84	47.18	15.52	-45.3	-46.5	16.0	0.00e+00	0	54	0	571473920	52	4344
2026-01-01 22:08:29.80	47.73	15.68	-45.4	-46.6	15.9	0.00e+00	0	54	0	580911104	52	4430
2026-01-01 22:08:32.76	48.29	15.85	-45.1	-46.2	16.3	0.00e+00	0	54	0	590348288	53	3999
2026-01-01 22:08:35.72	48.85	16.01	-44.8	-45.8	16.6	0.00e+00	0	54	0	598736896	52	4046
2026-01-01 22:08:38.70	49.42	16.16	-44.7	-45.7	16.7	0.00e+00	0	54	0	608174080	52	3992
2026-01-01 22:08:41.67	50.00	16.32	-44.6	-45.6	16.8	0.00e+00	0	55	0	617611264	52	3945
2026-01-01 22:08:44.64	50.58	16.48	-44.8	-45.8	16.7	0.00e+00	0	54	0	627048448	52	4029
2026-01-01 22:08:47.61	51.17	16.63	-44.8	-45.9	16.6	0.00e+00	0	54	0	636485632	52	4075
2026-01-01 22:08:50.57	51.76	16.78	-45.2	-46.3	16.3	0.00e+00	0	55	0	645922816	52	4255
2026-01-01 22:08:53.54	52.36	16.93	-44.7	-45.8	16.7	0.00e+00	0	55	0	654311424	52	4016
2026-01-01 22:08:56.52	52.97	17.08	-44.6	-45.7	16.8	0.00e+00	0	55	0	663748608	52	3980
2026-01-01 22:08:59.48	53.57	17.22	-44.6	-45.6	16.9	0.00e+00	0	54	0	673185792	52	3941
2026-01-01 22:09:02.46	54.19	17.37	-44.7	-45.7	16.9	0.00e+00	0	55	0	682622976	51	4241
2026-01-01 22:09:05.44	54.82	17.51	-44.8	-45.9	16.7	0.00e+00	0	55	0	692060160	51	4315
2026-01-01 22:09:08.40	55.44	17.65	-44.7	-45.8	16.8	0.00e+00	0	55	0	701497344	51	4243
2026-01-01 22:09:11.38	56.08	17.78	-44.9	-45.9	16.7	0.00e+00	0	55	0	710934528	51	4327
2026-01-01 22:09:14.35	56.72	17.92	-44.4	-45.3	17.3	0.00e+00	0	55	0	719323136	51	4037
2026-01-01 22:09:17.31	57.36	18.05	-44.6	-45.6	17.0	0.00e+00	0	55	0	728760320	51	4156
2026-01-01 22:09:20.27	58.01	18.17	-44.8	-45.9	16.8	0.00e+00	0	55	0	738197504	51	4296
2026-01-01 22:09:23.24	58.66	18.30	-44.0	-44.9	17.7	0.00e+00	0	55	0	747634688	51	3827
2026-01-01 22:09:26.19	59.32	18.42	-43.9	-44.7	17.8	0.00e+00	0	55	0	757071872	50	3993
2026-01-01 22:09:29.15	59.98	18.54	-44.2	-45.2	17.4	0.00e+00	0	55	0	766509056	50	4204
2026-01-01 22:09:32.12	60.65	18.65	-44.0	-44.9	17.7	0.00e+00	0	55	0	774897664	50	4064
2026-01-01 22:09:35.08	61.32	18.76	-43.9	-44.8	17.8	0.00e+00	0	55	0	784334848	50	4012
2026-01-01 22:09:38.04	62.00	18.87	-43.7	-44.5	18.0	0.00e+00	0	55	0	793772032	50	3912
2026-01-01 22:09:41.01	62.68	18.98	-43.9	-44.8	17.8	0.00e+00	0	55	0	803209216	50	4009
2026-01-01 22:09:43.98	63.37	19.08	-43.8	-44.7	18.0	0.00e+00	0	55	0	812646400	50	3960
2026-01-01 22:09:46.95	64.07	19.18	-43.8	-44.7	17.9	0.00e+00	0	55	0	822083584	50	3970
2026-01-01 22:09:49.91	64.76	19.27	-43.9	-44.7	17.9	0.00e+00	0	55	0	831520768	50	4004
2026-01-01 22:09:52.87	65.46	19.36	-43.9	-44.8	17.8	0.00e+00	0	55	0	839909376	50	4027
2026-01-01 22:09:55.86	66.17	19.45	-44.1	-45.0	17.7	0.00e+00	0	55	0	849346560	50	4100
2026-01-01 22:09:58.82	66.88	19.53	-43.9	-44.8	17.8	0.00e+00	0	55	0	858783744	50	4035
2026-01-01 22:10:01.79	67.60	19.61	-43.8	-44.7	18.0	0.00e+00	0	55	0	868220928	50	3969
2026-01-01 22:10:04.75	68.31	19.68	-43.8	-44.6	17.9	0.00e+00	0	56	0	877658112	50	3947
2026-01-01 22:10:07.72	69.03	19.75	-43.9	-44.8	17.9	0.00e+00	0	55	0	887095296	50	4007
2026-01-01 22:10:10.68	69.75	19.82	-44.0	-44.9	17.7	0.00e+00	0	56	0	895483904	50	4093
2026-01-01 22:10:13.66	70.48	19.88	-44.4	-45.3	17.3	0.00e+00	0	56	0	904921088	50	4286
2026-01-01 22:10:16.62	71.21	19.94	-44.5	-45.5	17.2	0.00e+00	0	56	0	914358272	51	4102
2026-01-01 22:10:19.60	71.94	19.99	-44.6	-45.6	17.1	0.00e+00	0	55	0	923795456	51	4154
2026-01-01 22:10:22.55	72.67	20.04	-44.4	-45.4	17.3	0.00e+00	0	56	0	933232640	51	4066
2026-01-01 22:10:25.51	73.41	20.08	-44.2	-45.1	17.5	0.00e+00	0	56	0	942669824	51	3937
2026-01-01 22:10:28.48	74.14	20.12	-44.0	-44.9	17.7	0.00e+00	0	56	0	951058432	50	4057
2026-01-01 22:10:31.43	74.88	20.16	-44.0	-44.9	17.7	0.00e+00	0	56	0	960495616	50	4089
2026-01-01 22:10:34.39	75.62	20.19	-44.4	-45.3	17.4	0.00e+00	0	56	0	969932800	50	4264
2026-01-01 22:10:37.36	76.36	20.21	-43.9	-44.8	17.8	0.00e+00	0	56	0	979369984	50	4037
2026-01-01 22:10:40.32	77.10	20.23	-44.0	-44.9	17.7	0.00e+00	0	56	0	988807168	50	4089
2026-01-01 22:10:43.30	77.85	20.25	-44.0	-44.9	17.8	0.00e+00	0	56	0	998244352	50	4072
2026-01-01 22:10:46.28	78.60	20.26	-44.3	-45.3	17.4	0.00e+00	0	56	0	1006632960	50	4247
2026-01-01 22:10:49.25	79.35	20.26	-44.4	-45.3	17.4	0.00e+00	0	56	0	1016070144	50	4266
2026-01-01 22:10:52.22	80.09	20.26	-44.6	-45.6	17.0	0.00e+00	0	56	0	1025507328	51	4160
2026-01-01 22:10:55.19	80.84	20.26	-44.2	-45.2	17.5	0.00e+00	0	56	0	1034944512	51	3960
2026-01-01 22:10:58.16	81.59	20.25	-44.3	-45.2	17.5	0.00e+00	0	56	0	1044381696	51	3987
2026-01-01 22:11:01.12	82.33	20.24	-44.5	-45.4	17.2	0.00e+00	0	56	0	1053818880	51	4093
2026-01-01 22:11:04.08	83.07	20.22	-44.2	-45.1	17.5	0.00e+00	0	56	0	1063256064	51	3942
2026-01-01 22:11:07.06	83.82	20.20	-43.9	-44.7	17.9	0.00e+00	0	56	0	1071644672	51	3774
2026-01-01 22:11:10.03	84.56	20.17	-44.0	-44.9	17.7	0.00e+00	0	56	0	1081081856	50	4062
2026-01-01 22:11:12.99	85.30	20.14	-44.4	-45.3	17.3	0.00e+00	0	56	0	1090519040	50	4259
2026-01-01 22:11:15.97	86.04	20.10	-44.7	-45.6	17.0	0.00e+00	0	56	0	1099956224	51	4192
2026-01-01 22:11:18.94	86.78	20.06	-44.2	-45.1	17.5	0.00e+00	0	56	0	1109393408	51	3955
2026-01-01 22:11:21.91	87.52	20.01	-44.2	-45.1	17.6	0.00e+00	0	56	0	1118830592	51	3923
2026-01-01 22:11:24.87	88.25	19.96	-44.1	-45.0	17.7	0.00e+00	0	56	0	1127219200	51	3881
2026-01-01 22:11:27.83	88.98	19.91	-44.0	-44.8	17.8	0.00e+00	0	56	0	1136656384	51	3819
2026-01-01 22:11:30.78	89.70	19.85	-43.8	-44.6	18.0	0.00e+00	0	56	0	1146093568	50	3940
2026-01-01 22:11:33.74	90.43	19.78	-43.7	-44.5	18.1	0.00e+00	0	56	0	1155530752	50	3885
2026-01-01 22:11:36.71	91.15	19.72	-43.8	-44.6	18.0	0.00e+00	0	56	0	1164967936	50	3934
2026-01-01 22:11:39.69	91.87	19.64	-43.7	-44.6	18.1	0.00e+00	0	56	0	1174405120	50	3921
2026-01-01 22:11:42.66	92.59	19.57	-43.9	-44.7	17.9	0.00e+00	0	56	0	1183842304	50	3986
2026-01-01 22:11:45.63	93.30	19.49	-44.1	-45.0	17.6	0.00e+00	0	56	0	1192230912	50	4126
2026-01-01 22:11:48.61	94.01	19.40	-44.3	-45.2	17.4	0.00e+00	0	56	0	1201668096	50	4215
2026-01-01 22:11:51.57	94.72	19.31	-43.8	-44.6	18.0	0.00e+00	0	56	0	1211105280	50	3947
2026-01-01 22:11:54.54	95.42	19.22	-43.8	-44.6	18.0	0.00e+00	0	56	0	1220542464	50	3958
2026-01-01 22:11:57.50	96.11	19.12	-43.8	-44.7	17.9	0.00e+00	0	56	0	1229979648	50	3982
2026-01-01 22:12:00.48	96.81	19.02	-44.0	-44.9	17.7	0.00e+00	0	56	0	1239416832	50	4084
2026-01-01 22:12:03.44	97.49	18.92	-43.7	-44.6	18.0	0.00e+00	0	56	0	1248854016	50	3926
2026-01-01 22:12:06.41	98.18	18.81	-44.0	-44.9	17.8	0.00e+00	0	56	0	1257242624	50	4060
2026-01-01 22:12:09.38	98.86	18.70	-44.0	-44.9	17.8	0.00e+00	0	56	0	1266679808	50	4080
2026-01-01 22:12:12.35	99.53	18.59	-43.8	-44.6	17.9	0.00e+00	0	56	0	1276116992	50	3958
2026-01-01 22:12:15.31	100.20	18.47	-43.9	-44.8	17.9	0.00e+00	0	56	0	1285554176	50	4028
2026-01-01 22:12:18.28	100.86	18.35	-43.9	-44.8	17.9	0.00e+00	0	56	0	1294991360	50	4011
2026-01-01 22:12:21.27	101.53	18.22	-43.9	-44.8	17.8	0.00e+00	0	56	0	1304428544	50	4024
2026-01-01 22:12:24.24	102.18	18.10	-44.2	-45.1	17.4	0.00e+00	0	56	0	1313865728	50	4192
2026-01-01 22:12:27.22	102.83	17.97	-44.1	-45.0	17.6	0.00e+00	0	56	0	1322254336	50	4110
2026-01-01 22:12:30.17	103.47	17.83	-44.3	-45.2	17.4	0.00e+00	0	56	0	1331691520	50	4232
2026-01-01 22:12:33.15	104.11	17.70	-44.2	-45.1	17.5	0.00e+00	0	57	0	1341128704	50	4181
2026-01-01 22:12:36.12	104.74	17.56	-44.4	-45.4	17.3	0.00e+00	0	56	0	1350565888	50	4296
2026-01-01 22:12:39.08	105.36	17.42	-44.3	-45.2	17.4	0.00e+00	0	56	0	1360003072	50	4227
2026-01-01 22:12:42.05	105.98	17.28	-44.2	-45.1	17.4	0.00e+00	0	56	0	1369440256	50	4177
2026-01-01 22:12:45.02	106.60	17.13	-44.0	-44.9	17.7	0.00e+00	0	56	0	1377828864	50	4091
2026-01-01 22:12:47.99	107.21	16.98	-44.2	-45.2	17.4	0.00e+00	0	57	0	1387266048	50	4200
2026-01-01 22:12:50.96	107.81	16.84	-44.8	-45.8	16.9	0.00e+00	0	57	0	1396703232	51	4272
2026-01-01 22:12:53.93	108.41	16.68	-44.9	-46.0	16.6	0.00e+00	0	56	0	1406140416	52	4118
2026-01-01 22:12:56.90	109.00	16.53	-44.6	-45.6	16.9	0.00e+00	0	56	0	1415577600	52	3952
2026-01-01 22:12:59.87	109.59	16.37	-44.7	-45.7	16.8	0.00e+00	0	56	0	1425014784	52	4003
2026-01-01 22:13:02.85	110.17	16.22	-44.4	-45.4	17.2	0.00e+00	0	57	0	1434451968	51	4054
2026-01-01 22:13:05.82	110.74	16.06	-44.7	-45.7	16.9	0.00e+00	0	57	0	1442840576	51	4236
2026-01-01 22:13:08.78	111.31	15.90	-44.9	-46.0	16.7	0.00e+00	0	56	0	1452277760	51	4367
2026-01-01 22:13:11.74	111.87	15.74	-44.6	-45.6	17.1	0.00e+00	0	56	0	1461714944	51	4153
2026-01-01 22:13:14.72	112.43	15.57	-44.7	-45.7	16.9	0.00e+00	0	56	0	1471152128	51	4222
2026-01-01 22:13:17.68	112.98	15.41	-44.4	-45.4	17.3	0.00e+00	0	57	0	1480589312	51	4055
2026-01-01 22:13:20.65	113.52	15.24	-44.8	-45.9	16.8	0.00e+00	0	56	0	1490026496	51	4303
2026-01-01 22:13:23.62	114.06	15.07	-44.8	-45.9	16.7	0.00e+00	0	57	0	1498415104	51	4302
2026-01-01 22:13:26.59	114.59	14.90	-45.0	-46.1	16.4	0.00e+00	0	57	0	1507852288	51	4423
2026-01-01 22:13:29.55	115.12	14.74	-45.1	-46.2	16.3	0.00e+00	0	57	0	1517289472	52	4199
2026-01-01 22:13:32.52	115.64	14.56	-44.7	-45.7	16.9	0.00e+00	0	57	0	1526726656	52	3967
2026-01-01 22:13:35.49	116.15	14.39	-44.8	-45.9	16.6	0.00e+00	0	56	0	1536163840	52	4059
2026-01-01 22:13:38.45	116.66	14.22	-44.5	-45.5	17.0	0.00e+00	0	57	0	1545601024	52	3903
2026-01-01 22:13:41.42	117.17	14.05	-44.6	-45.7	16.8	0.00e+00	0	57	0	1553989632	52	3960
2026-01-01 22:13:44.39	117.67	13.87	-44.9	-45.9	16.6	0.00e+00	0	56	0	1563426816	52	4095
2026-01-01 22:13:47.36	118.16	13.70	-44.5	-45.5	16.9	0.00e+00	0	56	0	1572864000	52	3905
2026-01-01 22:13:50.32	118.64	13.52	-44.7	-45.7	16.7	0.00e+00	0	57	0	1582301184	52	4004
2026-01-01 22:13:53.29	119.13	13.35	-44.4	-45.3	17.2	0.00e+00	0	57	0	1591738368	51	4044
2026-01-01 22:13:56.28	119.61	13.17	-44.5	-45.4	17.1	0.00e+00	0	57	0	1601175552	51	4093
2026-01-01 22:13:59.24	120.07	12.99	-44.5	-45.5	17.0	0.00e+00	0	57	0	1610612736	51	4116
2026-01-01 22:14:02.21	120.54	12.81	-44.6	-45.6	16.9	0.00e+00	0	57	0	1619001344	51	4191
2026-01-01 22:14:05.18	121.00	12.64	-44.7	-45.7	16.8	0.00e+00	0	57	0	1628438528	51	4230
2026-01-01 22:14:08.13	121.45	12.46	-44.8	-45.8	16.7	0.00e+00	0	56	0	1637875712	51	4268
2026-01-01 22:14:11.10	121.90	12.28	-45.0	-46.1	16.5	0.00e+00	0	57	0	1647312896	51	4395
2026-01-01 22:14:14.08	122.35	12.10	-45.0	-46.1	16.4	0.00e+00	0	57	0	1656750080	52	4152
2026-01-01 22:14:17.05	122.78	11.92	-45.0	-46.1	16.3	0.00e+00	0	57	0	1666187264	52	4187
2026-01-01 22:14:20.01	123.22	11.74	-45.2	-46.4	16.1	0.00e+00	0	57	0	1674575872	52	4299
2026-01-01 22:14:22.97	123.64	11.56	-45.4	-46.6	15.9	0.00e+00	0	57	0	1684013056	52	4400
2026-01-01 22:14:25.92	124.06	11.39	-45.2	-46.3	16.1	0.00e+00	0	57	0	1693450240	52	4282
2026-01-01 22:14:28.88	124.48	11.21	-45.0	-46.2	16.2	0.00e+00	0	57	0	1702887424	52	4204
2026-01-01 22:14:31.84	124.89	11.03	-45.0	-46.1	16.2	0.00e+00	0	57	0	1712324608	52	4176
2026-01-01 22:14:34.80	125.30	10.85	-45.1	-46.2	16.1	0.00e+00	0	57	0	1721761792	52	4239
2026-01-01 22:14:37.78	125.71	10.67	-45.4	-46.6	15.8	0.00e+00	0	57	0	1730150400	52	4394
2026-01-01 22:14:40.74	126.11	10.49	-45.6	-46.9	15.4	0.00e+00	0	57	0	1739587584	53	4326
2026-01-01 22:14:43.72	126.50	10.31	-45.7	-47.0	15.4	0.00e+00	0	57	0	1749024768	53	4345
2026-01-01 22:14:46.69	126.89	10.13	-45.9	-47.2	15.2	0.00e+00	0	57	0	1758461952	53	4460
2026-01-01 22:14:49.65	127.28	9.95	-45.5	-46.8	15.5	0.00e+00	0	57	0	1767899136	53	4291
2026-01-01 22:14:52.63	127.66	9.77	-45.7	-46.9	15.4	0.00e+00	0	57	0	1777336320	53	4337
2026-01-01 22:14:55.59	128.03	9.59	-45.5	-46.8	15.6	0.00e+00	0	57	0	1786773504	53	4256
2026-01-01 22:14:58.56	128.41	9.42	-45.6	-46.9	15.4	0.00e+00	0	57	0	1795162112	53	4319
2026-01-01 22:15:01.52	128.77	9.24	-45.7	-47.1	15.3	0.00e+00	0	57	0	1804599296	53	4397
2026-01-01 22:15:04.49	129.14	9.06	-46.0	-47.3	15.0	0.00e+00	0	57	0	1814036480	53	4545
2026-01-01 22:15:07.45	129.50	8.88	-45.9	-47.2	15.1	0.00e+00	0	57	0	1823473664	53	4473
2026-01-01 22:15:10.43	129.85	8.71	-46.1	-47.5	14.8	0.00e+00	0	57	0	1832910848	53	4610
2026-01-01 22:15:13.38	130.20	8.53	-45.9	-47.2	15.1	0.00e+00	0	57	0	1841299456	54	4225
2026-01-01 22:15:16.34	130.55	8.35	-46.1	-47.5	14.8	0.00e+00	0	57	0	1850736640	54	4376
2026-01-01 22:15:19.31	130.89	8.18	-46.0	-47.4	14.9	0.00e+00	0	57	0	1860173824	54	4299
2026-01-01 22:15:22.28	131.23	8.00	-46.2	-47.6	14.7	0.00e+00	0	57	0	1869611008	54	4416
2026-01-01 22:15:25.23	131.56	7.83	-46.3	-47.8	14.5	1.50e-06	0	57	0	1879048192	54	4494
2026-01-01 22:15:28.20	131.89	7.65	-46.1	-47.5	14.8	0.00e+00	0	57	0	1888485376	54	4355
2026-01-01 22:15:31.16	132.22	7.48	-46.4	-47.9	14.3	0.00e+00	0	57	0	1897922560	54	4582
2026-01-01 22:15:34.14	132.55	7.30	-46.2	-47.6	14.6	0.00e+00	0	57	0	1906311168	54	4432
2026-01-01 22:15:37.12	132.87	7.13	-46.1	-47.6	14.6	7.00e-07	0	57	0	1915748352	54	4434
2026-01-01 22:15:40.08	133.18	6.96	-46.0	-47.4	14.8	0.00e+00	0	57	0	1925185536	54	4310
2026-01-01 22:15:43.04	133.49	6.78	-46.1	-47.5	14.7	0.00e+00	0	57	0	1934622720	54	4363
2026-01-01 22:15:46.01	133.80	6.61	-46.2	-47.7	14.4	7.00e-07	0	57	0	1944059904	54	4480
2026-01-01 22:15:48.97	134.11	6.44	-46.1	-47.6	14.5	0.00e+00	0	57	0	1953497088	54	4412
2026-01-01 22:15:51.93	134.41	6.27	-46.0	-47.5	14.6	7.00e-07	0	57	0	1961885696	54	4350
2026-01-01 22:15:54.90	134.71	6.10	-46.2	-47.7	14.4	1.50e-06	0	57	0	1971322880	54	4464
2026-01-01 22:15:57.86	135.00	5.93	-46.2	-47.7	14.3	1.50e-06	0	57	0	1980760064	54	4477
2026-01-01 22:16:00.83	135.30	5.76	-46.3	-47.9	14.2	1.50e-06	0	57	0	1990197248	54	4561
2026-01-01 22:16:03.80	135.59	5.59	-46.3	-47.9	14.1	3.80e-06	0	57	0	1999634432	54	4565
2026-01-01 22:16:06.76	135.87	5.42	-46.6	-48.3	13.7	4.50e-06	0	57	0	2009071616	55	4517
2026-01-01 22:16:09.73	136.16	5.25	-46.7	-48.4	13.5	3.80e-06	0	57	0	2017460224	55	4580
2026-01-01 22:16:12.69	136.43	5.08	-46.8	-48.6	13.3	9.90e-06	0	57	0	2026897408	55	4689
2026-01-01 22:16:15.65	136.71	4.92	-51.9	-63.4	3.8	1.49e+00	0	57	104	2032140288	65	14505
2026-01-01 22:16:18.61	136.98	4.75	-52.3	-63.8	3.8	1.49e+00	0	57	104	2032140288	66	14228
2026-01-01 22:16:21.57	137.25	4.58	-52.4	-63.9	3.8	1.49e+00	0	57	104	2032140288	66	14510
2026-01-01 22:16:24.54	137.52	4.42	-51.3	-62.8	3.8	1.49e+00	0	57	104	2032140288	65	13529
2026-01-01 22:16:27.51	137.79	4.25	-52.3	-64.0	3.8	1.49e+00	0	57	104	2032140288	66	14667
2026-01-01 22:16:30.47	138.05	4.09	-52.5	-64.1	3.8	1.49e+00	0	57	104	2032140288	67	13920
2026-01-01 22:16:33.43	138.31	3.92	-52.4	-64.1	3.8	1.49e+00	0	57	104	2032140288	67	13960
2026-01-01 22:16:36.41	138.57	3.76	-52.7	-64.1	3.8	1.49e+00	0	57	104	2032140288	67	14021
2026-01-01 22:16:39.37	138.82	3.60	-52.7	-64.1	3.8	1.49e+00	0	57	104	2032140288	67	14039
2026-01-01 22:16:42.35	139.07	3.43	-52.6	-64.1	3.8	1.49e+00	0	57	104	2032140288	67	14036
2026-01-01 22:16:45.32	139.32	3.27	-52.5	-64.1	3.8	1.49e+00	0	57	104	2032140288	67	13963
2026-01-01 22:16:48.29	139.57	3.11	-52.6	-64.1	3.8	1.49e+00	0	57	104	2032140288	67	13998
2026-01-01 22:16:51.26	139.81	2.95	-52.6	-64.1	3.8	1.49e+00	0	57	104	2032140288	67	14014

#Closed at: 2026-01-01 22:16:52
#Recorded file [2032 MB]: D:/Data/31026_260102_011614.dat