passes_logs/2026/01/01/R3.0SM8_Murmansk_STILSPACE/R3.0SM8_Murmansk_STILSPACE__20260101_223425_SUOMI_NPP_rec.log

#Pass ID: 20260101_223425_SUOMI NPP
#Satellite: SUOMI NPP
#Configuration: NPP
#almurnet v.1.7.20240730
#Start time: 2026-01-01 22:34:27

#Version: 2.2.20231116
#Station: R3.0SM8_Murmansk_STILSPACE
#Location: 33.092731 lon 68.902999 lat
#TLE: 1 37849U 11061A   26001.07732418  .00000182  00000+0  10735-3 0  9990
#TLE: 2 37849  98.7795 303.2470 0002580  87.2016 272.9455 14.19520779734739

#Time	Az	El	Level	Level2	SNR	BER	BlckErr	Temp	State	Recorded	gain1	gain2
2026-01-01 22:34:27.52	20.39	3.12	-52.2	-66.0	3.8	1.49e+00	0	46	0	0	66	18438
2026-01-01 22:34:31.47	20.67	3.35	-51.7	-65.3	3.8	1.49e+00	0	46	104	0	66	17075
2026-01-01 22:34:35.42	20.95	3.58	-51.2	-65.0	3.8	1.49e+00	0	47	104	0	65	17358
2026-01-01 22:34:39.38	21.24	3.81	-51.2	-65.0	3.8	1.49e+00	0	47	104	0	65	17389
2026-01-01 22:34:43.34	21.53	4.04	-51.2	-64.8	3.8	1.49e+00	0	47	104	0	65	17070
2026-01-01 22:34:47.29	21.83	4.28	-51.2	-64.9	3.8	1.49e+00	0	47	104	0	65	17189
2026-01-01 22:34:51.26	22.13	4.51	-51.2	-64.9	3.8	1.49e+00	0	48	104	0	65	17128
2026-01-01 22:34:55.21	22.44	4.75	-51.0	-63.2	3.8	1.49e+00	0	48	104	0	65	14129
2026-01-01 22:34:59.18	22.75	4.99	-50.5	-58.1	5.9	5.09e-01	0	48	0	3145728	64	8330
2026-01-01 22:35:03.13	23.06	5.23	-50.0	-55.3	8.5	5.70e-02	0	49	0	10485760	63	6406
2026-01-01 22:35:07.09	23.38	5.47	-49.1	-53.0	11.0	2.80e-03	0	49	0	17825792	61	5507
2026-01-01 22:35:11.04	23.71	5.72	-48.5	-51.6	12.5	2.56e-04	0	49	0	25165824	60	4973
2026-01-01 22:35:15.00	24.04	5.96	-48.3	-51.2	13.1	2.36e-05	0	49	0	32505856	59	4995
2026-01-01 22:35:18.96	24.37	6.21	-48.6	-51.7	12.5	6.17e-05	0	50	0	39845888	59	5320
2026-01-01 22:35:22.91	24.71	6.46	-48.5	-51.4	12.9	5.56e-05	0	49	0	47185920	59	5145
2026-01-01 22:35:26.87	25.06	6.71	-48.4	-51.4	12.9	9.15e-05	0	50	0	54525952	59	5110
2026-01-01 22:35:30.81	25.41	6.96	-48.0	-50.5	13.9	1.50e-06	0	50	0	61865984	59	4610
2026-01-01 22:35:34.77	25.77	7.21	-47.9	-50.3	14.0	6.10e-06	0	50	0	69206016	58	4804
2026-01-01 22:35:38.72	26.13	7.46	-48.0	-50.6	13.8	6.10e-06	0	50	0	76546048	58	4929
2026-01-01 22:35:42.67	26.50	7.72	-48.3	-51.0	13.4	6.80e-06	0	50	0	83886080	58	5173
2026-01-01 22:35:46.63	26.88	7.98	-48.2	-50.9	13.6	6.10e-06	0	51	0	91226112	58	5123
2026-01-01 22:35:50.59	27.26	8.24	-48.2	-50.9	13.6	4.50e-06	0	51	0	98566144	58	5117
2026-01-01 22:35:54.55	27.65	8.50	-48.1	-50.6	13.8	5.30e-06	0	51	0	106954752	58	4974
2026-01-01 22:35:58.51	28.05	8.76	-48.1	-50.6	13.9	2.20e-06	0	51	0	114294784	58	4970
2026-01-01 22:36:02.47	28.45	9.02	-47.8	-50.0	14.5	1.50e-06	0	51	0	121634816	58	4646
2026-01-01 22:36:06.43	28.86	9.29	-47.5	-49.6	15.0	0.00e+00	0	51	0	128974848	58	4424
2026-01-01 22:36:10.39	29.28	9.56	-47.6	-49.8	14.7	0.00e+00	0	51	0	136314880	57	4797
2026-01-01 22:36:14.34	29.70	9.83	-48.0	-50.4	14.1	3.00e-06	0	52	0	143654912	58	4866
2026-01-01 22:36:18.30	30.13	10.10	-48.0	-50.5	14.1	2.20e-06	0	52	0	150994944	58	4890
2026-01-01 22:36:22.24	30.57	10.37	-48.3	-50.8	13.8	2.20e-06	0	52	0	158334976	58	5098
2026-01-01 22:36:26.21	31.02	10.64	-48.5	-51.2	13.4	1.60e-05	0	52	0	165675008	59	5035
2026-01-01 22:36:30.16	31.47	10.92	-48.8	-51.7	13.0	4.19e-05	0	52	0	173015040	59	5281
2026-01-01 22:36:34.12	31.94	11.19	-48.5	-51.1	13.6	1.60e-05	0	52	0	180355072	59	4981
2026-01-01 22:36:38.07	32.41	11.47	-47.9	-50.1	14.6	7.00e-07	0	52	0	187695104	58	4677
2026-01-01 22:36:42.03	32.89	11.75	-47.4	-49.5	15.2	0.00e+00	0	53	0	195035136	57	4608
2026-01-01 22:36:45.99	33.38	12.03	-47.1	-49.0	15.7	0.00e+00	0	53	0	203423744	57	4353
2026-01-01 22:36:49.93	33.88	12.32	-47.1	-49.0	15.7	0.00e+00	0	53	0	210763776	57	4364
2026-01-01 22:36:53.89	34.38	12.60	-47.0	-48.9	15.9	0.00e+00	0	53	0	218103808	57	4298
2026-01-01 22:36:57.86	34.90	12.89	-47.2	-49.1	15.6	0.00e+00	0	53	0	225443840	57	4439
2026-01-01 22:37:01.82	35.43	13.17	-47.2	-49.2	15.6	0.00e+00	0	53	0	232783872	57	4446
2026-01-01 22:37:05.79	35.97	13.46	-47.5	-49.5	15.2	7.00e-07	0	53	0	240123904	57	4646
2026-01-01 22:37:09.76	36.52	13.75	-47.7	-49.9	14.9	0.00e+00	0	53	0	247463936	57	4820
2026-01-01 22:37:13.71	37.08	14.04	-48.2	-50.6	14.3	0.00e+00	0	54	0	254803968	58	4953
2026-01-01 22:37:17.67	37.65	14.33	-48.1	-50.4	14.4	7.00e-07	0	53	0	262144000	58	4845
2026-01-01 22:37:21.62	38.22	14.62	-47.3	-49.2	15.6	0.00e+00	0	54	0	269484032	57	4472
2026-01-01 22:37:25.60	38.82	14.92	-46.7	-48.4	16.4	0.00e+00	0	54	0	276824064	56	4308
2026-01-01 22:37:29.53	39.42	15.21	-46.8	-48.5	16.3	0.00e+00	0	54	0	284164096	56	4355
2026-01-01 22:37:33.49	40.03	15.51	-46.6	-48.4	16.4	0.00e+00	0	54	0	291504128	56	4316
2026-01-01 22:37:37.44	40.66	15.80	-47.0	-48.8	16.0	0.00e+00	0	54	0	299892736	56	4542
2026-01-01 22:37:41.39	41.29	16.09	-47.1	-49.0	15.9	0.00e+00	0	54	0	307232768	56	4628
2026-01-01 22:37:45.35	41.94	16.39	-47.4	-49.4	15.5	0.00e+00	0	54	0	314572800	57	4561
2026-01-01 22:37:49.30	42.60	16.68	-46.7	-48.4	16.4	0.00e+00	0	54	0	321912832	56	4321
2026-01-01 22:37:53.26	43.28	16.98	-46.9	-48.6	16.2	0.00e+00	0	54	0	329252864	56	4430
2026-01-01 22:37:57.22	43.97	17.27	-46.9	-48.6	16.3	0.00e+00	0	54	0	336592896	56	4404
2026-01-01 22:38:01.19	44.67	17.57	-46.7	-48.4	16.5	0.00e+00	0	54	0	343932928	56	4308
2026-01-01 22:38:05.15	45.39	17.86	-46.6	-48.3	16.6	0.00e+00	0	55	0	351272960	56	4257
2026-01-01 22:38:09.11	46.12	18.16	-46.4	-48.0	16.8	0.00e+00	0	54	0	358612992	55	4351
2026-01-01 22:38:13.06	46.86	18.45	-46.2	-47.7	17.1	0.00e+00	0	55	0	365953024	55	4219
2026-01-01 22:38:17.02	47.61	18.74	-46.0	-47.4	17.3	0.00e+00	0	55	0	373293056	54	4337
2026-01-01 22:38:20.97	48.38	19.03	-45.8	-47.3	17.5	0.00e+00	0	55	0	380633088	54	4245
2026-01-01 22:38:24.92	49.17	19.32	-46.1	-47.6	17.1	0.00e+00	0	55	0	387973120	54	4428
2026-01-01 22:38:28.86	49.96	19.60	-46.4	-47.9	16.8	0.00e+00	0	55	0	396361728	54	4591
2026-01-01 22:38:32.81	50.77	19.89	-46.4	-47.9	16.9	0.00e+00	0	55	0	403701760	55	4328
2026-01-01 22:38:36.77	51.60	20.17	-45.6	-47.0	17.7	0.00e+00	0	55	0	411041792	54	4106
2026-01-01 22:38:40.72	52.44	20.45	-46.4	-48.0	16.7	0.00e+00	0	55	0	418381824	54	4631
2026-01-01 22:38:44.68	53.30	20.72	-46.4	-48.0	16.8	0.00e+00	0	55	0	425721856	55	4374
2026-01-01 22:38:48.62	54.17	20.99	-46.5	-48.1	16.7	0.00e+00	0	55	0	433061888	55	4413
2026-01-01 22:38:52.56	55.06	21.26	-46.5	-48.0	16.7	0.00e+00	0	55	0	440401920	55	4388
2026-01-01 22:38:56.52	55.96	21.52	-47.3	-49.2	15.7	0.00e+00	0	55	0	447741952	56	4730
2026-01-01 22:39:00.47	56.88	21.78	-47.6	-49.6	15.4	0.00e+00	0	55	0	455081984	57	4652
2026-01-01 22:39:04.43	57.81	22.04	-47.2	-49.0	16.0	0.00e+00	0	55	0	462422016	57	4347
2026-01-01 22:39:08.40	58.77	22.29	-46.8	-48.5	16.4	0.00e+00	0	55	0	469762048	56	4363
2026-01-01 22:39:12.37	59.73	22.53	-47.1	-49.0	15.9	0.00e+00	0	55	0	477102080	56	4624
2026-01-01 22:39:16.32	60.71	22.77	-46.8	-48.4	16.5	0.00e+00	0	56	0	484442112	56	4323
2026-01-01 22:39:20.28	61.70	23.00	-46.5	-48.1	16.7	0.00e+00	0	56	0	491782144	55	4436
2026-01-01 22:39:24.25	62.71	23.22	-47.4	-49.4	15.6	0.00e+00	0	56	0	500170752	56	4829
2026-01-01 22:39:28.20	63.73	23.44	-47.4	-49.3	15.6	0.00e+00	0	56	0	507510784	57	4525
2026-01-01 22:39:32.16	64.77	23.65	-47.8	-49.9	15.1	0.00e+00	0	56	0	514850816	57	4827
2026-01-01 22:39:36.13	65.82	23.85	-49.1	-52.0	13.0	2.89e-05	0	56	0	522190848	60	5197
2026-01-01 22:39:40.08	66.88	24.05	-49.4	-52.5	12.5	9.07e-05	0	56	0	529530880	60	5506
2026-01-01 22:39:44.05	67.96	24.23	-48.9	-51.7	13.2	3.20e-05	0	56	0	536870912	60	5028
2026-01-01 22:39:48.01	69.05	24.41	-49.4	-52.6	12.4	7.70e-05	0	56	0	544210944	60	5569
2026-01-01 22:39:51.97	70.15	24.57	-50.0	-53.9	11.1	2.33e-03	0	56	0	551550976	62	5749
2026-01-01 22:39:55.90	71.25	24.73	-50.4	-54.7	10.2	4.76e-03	0	56	0	558891008	62	6346
2026-01-01 22:39:59.86	72.37	24.87	-50.0	-53.8	11.1	1.93e-03	0	56	0	566231040	62	5689
2026-01-01 22:40:03.82	73.50	25.01	-50.1	-54.0	10.9	3.29e-03	0	56	0	573571072	62	5850
2026-01-01 22:40:07.76	74.63	25.13	-49.9	-53.6	11.2	2.66e-03	0	56	0	580911104	62	5569
2026-01-01 22:40:11.71	75.78	25.24	-49.1	-52.2	12.8	5.34e-05	0	56	0	588251136	61	4991
2026-01-01 22:40:15.67	76.93	25.35	-48.4	-50.9	14.1	1.50e-06	0	56	0	596639744	59	4838
2026-01-01 22:40:19.63	78.10	25.43	-49.4	-52.6	12.3	1.28e-04	0	56	0	603979776	60	5592
2026-01-01 22:40:23.59	79.27	25.51	-48.3	-50.7	14.3	3.00e-06	0	56	0	611319808	59	4710
2026-01-01 22:40:27.55	80.44	25.58	-48.9	-51.6	13.5	8.30e-06	0	56	0	618659840	59	5219
2026-01-01 22:40:31.49	81.61	25.63	-48.1	-50.4	14.7	0.00e+00	0	56	0	625999872	59	4555
2026-01-01 22:40:35.45	82.80	25.67	-47.8	-49.9	15.2	0.00e+00	0	56	0	633339904	58	4591
2026-01-01 22:40:39.41	83.98	25.70	-48.3	-50.7	14.3	0.00e+00	0	56	0	640679936	58	4994
2026-01-01 22:40:43.36	85.16	25.71	-49.0	-51.7	13.3	1.52e-05	0	56	0	648019968	59	5323
2026-01-01 22:40:47.32	86.35	25.71	-49.5	-52.9	12.1	2.97e-04	0	56	0	655360000	61	5432
2026-01-01 22:40:51.28	87.54	25.70	-48.7	-51.4	13.5	7.60e-06	0	56	0	662700032	60	4861
2026-01-01 22:40:55.25	88.73	25.68	-49.1	-52.2	12.8	6.33e-05	0	56	0	670040064	60	5285
2026-01-01 22:40:59.22	89.91	25.64	-48.0	-50.1	14.9	0.00e+00	0	56	0	677380096	59	4423
2026-01-01 22:41:03.18	91.09	25.59	-47.6	-49.6	15.4	0.00e+00	0	56	0	684720128	58	4424
2026-01-01 22:41:07.14	92.27	25.53	-48.2	-50.4	14.6	0.00e+00	0	56	0	693108736	58	4862
2026-01-01 22:41:11.10	93.44	25.46	-47.7	-49.7	15.3	0.00e+00	0	56	0	700448768	57	4720
2026-01-01 22:41:15.05	94.61	25.37	-46.6	-48.2	16.7	0.00e+00	0	57	0	707788800	56	4241
2026-01-01 22:41:19.01	95.77	25.28	-46.8	-48.5	16.5	0.00e+00	0	57	0	715128832	56	4361
2026-01-01 22:41:22.97	96.92	25.17	-47.1	-48.9	16.1	0.00e+00	0	56	0	722468864	56	4586
2026-01-01 22:41:26.92	98.06	25.05	-46.9	-48.6	16.4	0.00e+00	0	56	0	729808896	56	4400
2026-01-01 22:41:30.86	99.19	24.91	-46.3	-47.9	16.9	0.00e+00	0	56	0	737148928	55	4305
2026-01-01 22:41:34.81	100.31	24.77	-45.7	-47.1	17.7	0.00e+00	0	56	0	744488960	54	4170
2026-01-01 22:41:38.77	101.43	24.62	-45.6	-46.9	17.8	0.00e+00	0	57	0	751828992	54	4078
2026-01-01 22:41:42.73	102.53	24.46	-45.4	-46.7	18.1	0.00e+00	0	56	0	759169024	53	4220
2026-01-01 22:41:46.69	103.63	24.28	-45.4	-46.7	18.1	0.00e+00	0	57	0	766509056	53	4217
2026-01-01 22:41:50.64	104.70	24.10	-45.1	-46.4	18.3	0.00e+00	0	57	0	773849088	53	4065
2026-01-01 22:41:54.60	105.77	23.91	-44.8	-46.0	18.7	0.00e+00	0	56	0	781189120	52	4109
2026-01-01 22:41:58.57	106.83	23.71	-45.3	-46.7	18.1	0.00e+00	0	57	0	789577728	52	4445
2026-01-01 22:42:02.53	107.87	23.50	-44.9	-46.0	18.6	0.00e+00	0	57	0	796917760	52	4142
2026-01-01 22:42:06.47	108.90	23.29	-45.2	-46.5	18.3	0.00e+00	0	57	0	804257792	52	4347
2026-01-01 22:42:10.42	109.91	23.06	-45.6	-47.0	17.8	0.00e+00	0	57	0	811597824	53	4352
2026-01-01 22:42:14.37	110.91	22.83	-46.3	-47.9	16.9	0.00e+00	0	57	0	818937856	54	4588
2026-01-01 22:42:18.34	111.90	22.59	-46.4	-47.9	16.9	0.00e+00	0	57	0	826277888	55	4326
2026-01-01 22:42:22.29	112.87	22.35	-46.6	-48.2	16.7	0.00e+00	0	57	0	833617920	55	4463
2026-01-01 22:42:26.24	113.82	22.10	-46.6	-48.3	16.6	0.00e+00	0	57	0	840957952	55	4515
2026-01-01 22:42:30.19	114.76	21.85	-46.6	-48.3	16.6	0.00e+00	0	57	0	848297984	55	4525
2026-01-01 22:42:34.14	115.69	21.59	-46.8	-48.5	16.6	0.00e+00	0	57	0	855638016	56	4342
2026-01-01 22:42:38.10	116.60	21.33	-46.1	-47.7	17.2	0.00e+00	0	57	0	862978048	55	4194
2026-01-01 22:42:42.06	117.49	21.06	-47.1	-49.0	16.0	0.00e+00	0	57	0	870318080	56	4612
2026-01-01 22:42:46.03	118.38	20.79	-47.1	-48.8	16.0	0.00e+00	0	57	0	877658112	57	4291
2026-01-01 22:42:49.99	119.24	20.51	-47.3	-49.1	15.8	0.00e+00	0	57	0	884998144	57	4415
2026-01-01 22:42:53.96	120.10	20.23	-46.4	-48.0	16.9	0.00e+00	0	57	0	892338176	56	4135
2026-01-01 22:42:57.91	120.93	19.95	-47.6	-49.6	15.3	0.00e+00	0	57	0	900726784	57	4697
2026-01-01 22:43:01.85	121.75	19.66	-45.5	-46.8	17.9	0.00e+00	0	57	0	908066816	54	4039
2026-01-01 22:43:05.80	122.55	19.38	-46.4	-47.9	17.0	0.00e+00	0	57	0	915406848	54	4571
2026-01-01 22:43:09.75	123.34	19.09	-47.1	-48.9	16.0	0.00e+00	0	57	0	922746880	56	4559
2026-01-01 22:43:13.70	124.12	18.80	-46.8	-48.5	16.4	0.00e+00	0	57	0	930086912	56	4361
2026-01-01 22:43:17.65	124.88	18.51	-46.7	-48.3	16.6	0.00e+00	0	57	0	937426944	56	4270
2026-01-01 22:43:21.61	125.63	18.21	-46.8	-48.4	16.5	0.00e+00	0	57	0	944766976	56	4330
2026-01-01 22:43:25.58	126.36	17.92	-47.3	-49.2	15.8	0.00e+00	0	57	0	952107008	56	4731
2026-01-01 22:43:29.52	127.08	17.62	-46.0	-47.4	17.4	0.00e+00	0	57	0	959447040	54	4317
2026-01-01 22:43:33.47	127.79	17.33	-46.8	-48.5	16.3	0.00e+00	0	57	0	966787072	55	4636
2026-01-01 22:43:37.43	128.48	17.03	-47.3	-49.1	15.8	0.00e+00	0	57	0	974127104	56	4704
2026-01-01 22:43:41.40	129.17	16.73	-46.1	-47.5	17.2	0.00e+00	0	57	0	981467136	55	4140
2026-01-01 22:43:45.35	129.83	16.44	-46.3	-47.8	16.9	0.00e+00	0	57	0	988807168	55	4288
2026-01-01 22:43:49.29	130.48	16.14	-45.9	-47.3	17.3	0.00e+00	0	57	0	996147200	54	4286
2026-01-01 22:43:53.25	131.13	15.84	-47.1	-48.9	15.9	0.00e+00	0	57	0	1004535808	55	4836
2026-01-01 22:43:57.21	131.76	15.54	-47.7	-49.8	15.1	0.00e+00	0	57	0	1011875840	57	4769
2026-01-01 22:44:01.15	132.37	15.25	-47.1	-48.9	15.9	0.00e+00	0	57	0	1019215872	57	4303
2026-01-01 22:44:05.11	132.98	14.95	-46.3	-47.9	16.9	0.00e+00	0	57	0	1026555904	55	4305
2026-01-01 22:44:09.09	133.58	14.66	-45.9	-47.4	17.3	0.00e+00	0	57	0	1033895936	54	4300
2026-01-01 22:44:13.05	134.16	14.36	-46.1	-47.7	17.0	0.00e+00	0	57	0	1041235968	54	4455
2026-01-01 22:44:17.02	134.74	14.07	-47.0	-48.8	15.9	0.00e+00	0	57	0	1048576000	55	4799
2026-01-01 22:44:20.98	135.30	13.78	-47.7	-49.9	15.0	0.00e+00	0	57	0	1055916032	57	4837
2026-01-01 22:44:24.91	135.85	13.49	-47.7	-49.9	14.9	0.00e+00	0	57	0	1063256064	57	4819
2026-01-01 22:44:28.87	136.39	13.20	-47.2	-49.2	15.5	0.00e+00	0	57	0	1070596096	57	4473
2026-01-01 22:44:32.83	136.92	12.91	-47.2	-49.1	15.7	0.00e+00	0	57	0	1077936128	57	4398
2026-01-01 22:44:36.78	137.44	12.62	-47.2	-49.1	15.7	0.00e+00	0	57	0	1085276160	57	4418
2026-01-01 22:44:40.75	137.96	12.33	-47.0	-48.9	15.9	0.00e+00	0	57	0	1092616192	57	4297
2026-01-01 22:44:44.71	138.46	12.05	-47.6	-49.6	15.2	0.00e+00	0	57	0	1101004800	57	4684
2026-01-01 22:44:48.66	138.95	11.76	-48.1	-50.5	14.3	1.50e-06	0	57	0	1108344832	58	4880
2026-01-01 22:44:52.62	139.43	11.48	-48.6	-51.2	13.5	6.10e-06	0	57	0	1115684864	59	5031
2026-01-01 22:44:56.57	139.91	11.20	-48.1	-50.6	14.2	1.50e-06	0	57	0	1123024896	59	4671
2026-01-01 22:45:00.53	140.37	10.92	-47.8	-50.0	14.7	0.00e+00	0	57	0	1130364928	58	4648
2026-01-01 22:45:04.49	140.83	10.64	-47.4	-49.4	15.3	0.00e+00	0	57	0	1137704960	57	4594
2026-01-01 22:45:08.46	141.28	10.37	-47.5	-49.6	15.1	0.00e+00	0	57	0	1145044992	57	4684
2026-01-01 22:45:12.43	141.73	10.09	-47.2	-49.1	15.5	0.00e+00	0	57	0	1152385024	57	4441
2026-01-01 22:45:16.39	142.16	9.82	-47.6	-49.7	15.0	0.00e+00	0	57	0	1159725056	57	4723
2026-01-01 22:45:20.35	142.59	9.55	-47.9	-50.1	14.5	0.00e+00	0	57	0	1167065088	57	4979
2026-01-01 22:45:24.28	143.00	9.28	-48.4	-51.1	13.6	3.80e-06	0	57	0	1174405120	58	5221
2026-01-01 22:45:28.25	143.41	9.01	-48.1	-50.5	14.2	3.00e-06	0	57	0	1181745152	58	4871
2026-01-01 22:45:32.19	143.82	8.75	-47.8	-50.1	14.5	0.00e+00	0	57	0	1189085184	58	4670
2026-01-01 22:45:36.14	144.21	8.48	-48.0	-50.4	14.2	3.80e-06	0	57	0	1197473792	58	4843
2026-01-01 22:45:40.12	144.61	8.22	-48.5	-51.3	13.3	9.90e-06	0	57	0	1204813824	58	5354
2026-01-01 22:45:44.07	144.99	7.96	-48.8	-51.9	12.6	1.84e-04	0	57	0	1212153856	59	5458
2026-01-01 22:45:48.04	145.37	7.69	-48.9	-52.2	12.2	1.57e-04	0	57	0	1219493888	60	5332
2026-01-01 22:45:52.02	145.74	7.44	-48.4	-51.2	13.3	4.04e-05	0	57	0	1226833920	59	4994
2026-01-01 22:45:55.97	146.10	7.18	-48.1	-50.8	13.7	8.30e-06	0	57	0	1234173952	59	4770
2026-01-01 22:45:59.92	146.46	6.92	-47.7	-50.0	14.4	0.00e+00	0	57	0	1241513984	58	4626
2026-01-01 22:46:03.88	146.81	6.67	-47.8	-50.2	14.2	7.00e-07	0	58	0	1248854016	58	4725
2026-01-01 22:46:07.85	147.16	6.42	-47.9	-50.4	13.9	3.00e-06	0	57	0	1256194048	58	4827
2026-01-01 22:46:11.80	147.50	6.17	-48.1	-50.8	13.6	3.00e-06	0	57	0	1263534080	58	5044
2026-01-01 22:46:15.76	147.84	5.92	-47.8	-50.4	13.8	3.80e-06	0	57	0	1270874112	58	4854
2026-01-01 22:46:19.71	148.17	5.67	-48.1	-50.8	13.4	1.06e-05	0	58	0	1278214144	58	5062
2026-01-01 22:46:23.69	148.50	5.43	-48.1	-50.8	13.3	1.29e-05	0	57	0	1286602752	58	5099
2026-01-01 22:46:27.63	148.81	5.18	-48.2	-51.1	13.1	2.67e-05	0	57	0	1293942784	58	5231
2026-01-01 22:46:31.57	149.13	4.94	-51.5	-65.6	3.8	1.49e+00	0	57	104	1298137088	65	18684
2026-01-01 22:46:35.53	149.44	4.70	-52.2	-66.1	3.8	1.49e+00	0	58	104	1298137088	66	18518
2026-01-01 22:46:39.50	149.74	4.46	-52.3	-66.2	3.8	1.49e+00	0	57	104	1298137088	66	18827
2026-01-01 22:46:43.47	150.04	4.22	-52.4	-66.2	3.8	1.49e+00	0	57	104	1298137088	66	18944
2026-01-01 22:46:47.42	150.34	3.99	-52.5	-66.3	3.8	1.49e+00	0	57	104	1298137088	66	19036
2026-01-01 22:46:51.39	150.63	3.75	-52.5	-66.4	3.8	1.49e+00	0	58	104	1298137088	66	19234
2026-01-01 22:46:55.34	150.92	3.52	-52.2	-66.4	3.8	1.49e+00	0	57	104	1298137088	66	19202
2026-01-01 22:46:59.30	151.20	3.29	-52.5	-66.4	3.8	1.49e+00	0	57	104	1298137088	66	19191
2026-01-01 22:47:03.26	151.48	3.06	-52.4	-66.3	3.8	1.49e+00	0	58	104	1298137088	66	19133

#Closed at: 2026-01-01 22:47:05
#Recorded file [1298 MB]: D:/Data/31026_260102_014630.dat