passes_logs/2026/01/01/R3.0SM8_Murmansk_STILSPACE/R3.0SM8_Murmansk_STILSPACE__20260101_071149_SUOMI_NPP_rec.log

#Pass ID: 20260101_071149_SUOMI NPP
#Satellite: SUOMI NPP
#Configuration: NPP
#almurnet v.1.7.20240730
#Start time: 2026-01-01 07:11:51

#Version: 2.2.20231116
#Station: R3.0SM8_Murmansk_STILSPACE
#Location: 33.092731 lon 68.902999 lat
#TLE: 1 37849U 11061A   25364.87906317  .00000195  00000+0  11345-3 0  9992
#TLE: 2 37849  98.7794 302.0592 0002571  89.2401 270.9069 14.19520347734561

#Time	Az	El	Level	Level2	SNR	BER	BlckErr	Temp	State	Recorded	gain1	gain2
2026-01-01 07:11:51.29	96.63	3.12	-52.4	-66.3	3.8	1.49e+00	0	50	0	0	67	17937
2026-01-01 07:11:55.23	96.42	3.36	-52.0	-65.8	3.8	1.49e+00	0	50	104	0	67	16918
2026-01-01 07:11:59.15	96.21	3.61	-51.8	-65.5	3.8	1.49e+00	0	51	104	0	66	17351
2026-01-01 07:12:03.08	95.99	3.86	-51.8	-65.4	3.8	1.49e+00	0	51	104	0	66	17281
2026-01-01 07:12:07.01	95.77	4.11	-51.6	-65.1	3.8	1.49e+00	0	51	104	0	66	16652
2026-01-01 07:12:10.93	95.54	4.36	-51.7	-64.1	3.8	1.49e+00	0	52	104	0	66	14828
2026-01-01 07:12:14.83	95.32	4.61	-51.5	-62.0	4.2	1.42e+00	0	52	0	0	65	12300
2026-01-01 07:12:18.69	95.09	4.86	-51.2	-59.8	5.1	6.75e-01	0	52	0	5242880	65	9512
2026-01-01 07:12:22.54	94.86	5.11	-51.0	-59.2	5.5	4.63e-01	0	52	0	12582912	65	8881
2026-01-01 07:12:26.40	94.62	5.37	-50.8	-58.6	5.9	3.47e-01	0	53	0	19922944	64	8763
2026-01-01 07:12:30.25	94.38	5.62	-51.0	-59.1	5.6	4.59e-01	0	53	0	27262976	64	9313
2026-01-01 07:12:34.11	94.13	5.88	-50.4	-55.5	8.9	3.62e-02	0	53	0	34603008	63	6520
2026-01-01 07:12:37.98	93.88	6.14	-49.5	-53.5	11.0	2.49e-03	0	53	0	41943040	62	5481
2026-01-01 07:12:41.84	93.62	6.41	-49.0	-52.4	12.0	3.36e-04	0	53	0	49283072	61	5158
2026-01-01 07:12:45.69	93.36	6.67	-48.9	-52.0	12.5	1.55e-04	0	54	0	56623104	60	5182
2026-01-01 07:12:49.54	93.10	6.94	-48.8	-51.9	12.7	1.33e-04	0	54	0	63963136	60	5110
2026-01-01 07:12:53.40	92.83	7.21	-49.0	-52.2	12.3	2.75e-04	0	54	0	71303168	60	5323
2026-01-01 07:12:57.26	92.55	7.48	-48.8	-51.7	12.9	6.56e-05	0	54	0	77594624	60	5029
2026-01-01 07:13:01.11	92.27	7.75	-49.0	-52.2	12.3	8.23e-05	0	55	0	84934656	60	5328
2026-01-01 07:13:04.96	91.98	8.03	-48.9	-52.1	12.5	1.16e-04	0	55	0	92274688	60	5271
2026-01-01 07:13:08.83	91.69	8.31	-49.2	-52.7	12.1	1.46e-04	0	55	0	99614720	60	5596
2026-01-01 07:13:12.68	91.39	8.59	-48.6	-51.7	13.0	3.05e-05	0	55	0	106954752	60	5000
2026-01-01 07:13:16.54	91.09	8.87	-48.7	-51.7	13.0	4.80e-05	0	55	0	114294784	60	5015
2026-01-01 07:13:20.39	90.77	9.16	-48.7	-51.7	13.0	9.00e-05	0	55	0	121634816	60	5033
2026-01-01 07:13:24.24	90.46	9.44	-48.6	-51.4	13.3	2.74e-05	0	56	0	128974848	60	4846
2026-01-01 07:13:28.11	90.13	9.73	-48.9	-51.8	12.9	6.25e-05	0	56	0	136314880	60	5097
2026-01-01 07:13:31.96	89.80	10.03	-49.1	-52.3	12.5	7.24e-05	0	56	0	143654912	60	5346
2026-01-01 07:13:35.82	89.46	10.32	-48.4	-51.2	13.5	1.37e-05	0	56	0	149946368	60	4746
2026-01-01 07:13:39.67	89.12	10.62	-48.4	-51.0	13.8	4.50e-06	0	56	0	157286400	59	4920
2026-01-01 07:13:43.52	88.77	10.92	-48.4	-51.1	13.8	3.00e-06	0	56	0	164626432	59	4929
2026-01-01 07:13:47.37	88.41	11.22	-48.0	-50.3	14.5	7.00e-07	0	56	0	171966464	59	4542
2026-01-01 07:13:51.23	88.04	11.53	-48.2	-50.8	14.2	0.00e+00	0	56	0	179306496	59	4767
2026-01-01 07:13:55.09	87.67	11.84	-48.2	-50.6	14.3	0.00e+00	0	57	0	186646528	59	4687
2026-01-01 07:13:58.94	87.28	12.15	-47.8	-49.9	15.0	0.00e+00	0	57	0	193986560	58	4589
2026-01-01 07:14:02.80	86.89	12.46	-48.0	-50.3	14.7	7.00e-07	0	57	0	201326592	58	4765
2026-01-01 07:14:06.65	86.49	12.78	-48.0	-50.2	14.8	7.00e-07	0	57	0	208666624	58	4734
2026-01-01 07:14:10.50	86.08	13.10	-48.0	-50.5	14.5	7.00e-07	0	57	0	214958080	58	4872
2026-01-01 07:14:14.36	85.66	13.42	-48.1	-50.4	14.5	0.00e+00	0	57	0	222298112	58	4843
2026-01-01 07:14:18.20	85.23	13.74	-48.0	-50.3	14.5	0.00e+00	0	57	0	229638144	58	4812
2026-01-01 07:14:22.05	84.80	14.07	-48.4	-51.0	14.0	2.20e-06	0	58	0	236978176	58	5178
2026-01-01 07:14:25.91	84.35	14.40	-48.2	-50.6	14.4	3.00e-06	0	58	0	244318208	58	4950
2026-01-01 07:14:29.77	83.89	14.73	-48.3	-50.7	14.3	0.00e+00	0	58	0	251658240	58	5010
2026-01-01 07:14:33.63	83.42	15.07	-47.9	-50.0	15.0	0.00e+00	0	58	0	258998272	58	4639
2026-01-01 07:14:37.48	82.94	15.40	-47.8	-49.8	15.1	0.00e+00	0	58	0	266338304	58	4537
2026-01-01 07:14:41.33	82.45	15.74	-48.1	-50.4	14.6	7.00e-07	0	58	0	273678336	58	4865
2026-01-01 07:14:45.20	81.94	16.09	-48.1	-50.4	14.7	0.00e+00	0	58	0	281018368	58	4863
2026-01-01 07:14:49.06	81.43	16.43	-49.0	-51.9	13.1	1.22e-05	0	58	0	287309824	59	5455
2026-01-01 07:14:52.91	80.90	16.78	-48.5	-51.1	13.9	1.29e-05	0	58	0	294649856	59	4939
2026-01-01 07:14:56.76	80.36	17.13	-48.7	-51.3	13.7	1.50e-06	0	58	0	301989888	59	5099
2026-01-01 07:15:00.62	79.81	17.48	-48.3	-50.9	14.1	2.20e-06	0	58	0	309329920	59	4858
2026-01-01 07:15:04.47	79.24	17.84	-48.5	-51.1	14.0	1.50e-06	0	59	0	316669952	59	4945
2026-01-01 07:15:08.33	78.66	18.19	-47.9	-50.1	14.9	0.00e+00	0	59	0	324009984	59	4434
2026-01-01 07:15:12.18	78.07	18.55	-47.9	-50.1	14.9	0.00e+00	0	59	0	331350016	58	4685
2026-01-01 07:15:16.03	77.46	18.91	-47.3	-49.1	15.9	0.00e+00	0	59	0	338690048	57	4431
2026-01-01 07:15:19.88	76.83	19.28	-48.0	-50.2	14.9	0.00e+00	0	59	0	344981504	57	5007
2026-01-01 07:15:23.72	76.20	19.64	-48.1	-50.3	14.8	0.00e+00	0	59	0	352321536	58	4800
2026-01-01 07:15:27.58	75.54	20.00	-48.1	-50.4	14.7	0.00e+00	0	59	0	359661568	58	4818
2026-01-01 07:15:31.43	74.87	20.37	-47.7	-49.8	15.3	0.00e+00	0	59	0	367001600	58	4496
2026-01-01 07:15:35.29	74.19	20.74	-47.2	-49.0	16.0	0.00e+00	0	60	0	374341632	57	4383
2026-01-01 07:15:39.14	73.48	21.11	-47.5	-49.4	15.7	0.00e+00	0	59	0	381681664	57	4572
2026-01-01 07:15:42.99	72.76	21.48	-47.7	-49.7	15.3	0.00e+00	0	59	0	389021696	57	4754
2026-01-01 07:15:46.85	72.02	21.85	-47.9	-50.0	15.2	0.00e+00	0	59	0	396361728	57	4877
2026-01-01 07:15:50.70	71.27	22.22	-48.0	-50.2	14.9	0.00e+00	0	59	0	403701760	57	5015
2026-01-01 07:15:54.55	70.49	22.59	-47.8	-49.8	15.3	0.00e+00	0	60	0	411041792	58	4519
2026-01-01 07:15:58.40	69.70	22.96	-48.4	-50.7	14.5	7.00e-07	0	60	0	417333248	59	4747
2026-01-01 07:16:02.25	68.89	23.33	-47.8	-49.9	15.2	0.00e+00	0	60	0	424673280	58	4592
2026-01-01 07:16:06.10	68.06	23.69	-47.9	-50.1	15.1	0.00e+00	0	60	0	432013312	58	4671
2026-01-01 07:16:09.95	67.21	24.06	-48.2	-50.4	14.7	1.50e-06	0	60	0	439353344	58	4868
2026-01-01 07:16:13.80	66.33	24.42	-47.6	-49.5	15.7	0.00e+00	0	60	0	446693376	58	4345
2026-01-01 07:16:17.66	65.44	24.78	-47.1	-48.8	16.3	0.00e+00	0	60	0	454033408	57	4278
2026-01-01 07:16:21.52	64.52	25.14	-46.6	-48.2	16.9	0.00e+00	0	60	0	461373440	56	4215
2026-01-01 07:16:25.38	63.59	25.50	-46.7	-48.3	16.8	0.00e+00	0	60	0	468713472	56	4290
2026-01-01 07:16:29.24	62.63	25.85	-47.1	-48.9	16.2	0.00e+00	0	60	0	475004928	56	4586
2026-01-01 07:16:33.10	61.65	26.20	-47.5	-49.4	15.7	0.00e+00	0	60	0	482344960	56	4863
2026-01-01 07:16:36.95	60.65	26.54	-47.4	-49.2	15.9	0.00e+00	0	60	0	489684992	56	4750
2026-01-01 07:16:40.81	59.63	26.88	-47.4	-49.3	15.9	0.00e+00	0	60	0	497025024	56	4775
2026-01-01 07:16:44.66	58.59	27.21	-47.8	-49.8	15.3	0.00e+00	0	60	0	504365056	57	4801
2026-01-01 07:16:48.53	57.52	27.53	-47.3	-49.2	15.9	0.00e+00	0	60	0	511705088	57	4464
2026-01-01 07:16:52.37	56.43	27.85	-47.9	-50.0	15.2	0.00e+00	0	60	0	519045120	57	4903
2026-01-01 07:16:56.23	55.32	28.16	-48.3	-50.6	14.6	1.50e-06	0	61	0	526385152	58	4970
2026-01-01 07:17:00.08	54.19	28.45	-48.3	-50.6	14.6	0.00e+00	0	61	0	533725184	59	4666
2026-01-01 07:17:03.93	53.05	28.74	-48.0	-50.1	15.1	0.00e+00	0	60	0	541065216	59	4439
2026-01-01 07:17:07.78	51.88	29.02	-48.0	-50.2	15.0	7.00e-07	0	61	0	547356672	58	4742
2026-01-01 07:17:11.64	50.68	29.29	-48.4	-50.8	14.5	0.00e+00	0	61	0	554696704	58	5049
2026-01-01 07:17:15.49	49.47	29.54	-48.2	-50.5	14.7	0.00e+00	0	61	0	562036736	58	4880
2026-01-01 07:17:19.34	48.24	29.79	-48.4	-50.8	14.4	1.50e-06	0	61	0	569376768	58	5076
2026-01-01 07:17:23.21	46.99	30.02	-48.4	-50.8	14.4	0.00e+00	0	61	0	576716800	58	5072
2026-01-01 07:17:27.06	45.73	30.24	-48.4	-50.9	14.3	3.00e-06	0	61	0	584056832	59	4868
2026-01-01 07:17:30.91	44.44	30.44	-47.9	-50.0	15.2	0.00e+00	0	61	0	591396864	59	4341
2026-01-01 07:17:34.76	43.15	30.63	-48.0	-50.1	15.2	7.00e-07	0	61	0	598736896	58	4671
2026-01-01 07:17:38.62	41.83	30.80	-48.8	-51.4	13.8	0.00e+00	0	61	0	606076928	59	5130
2026-01-01 07:17:42.48	40.51	30.95	-49.2	-52.3	12.9	5.41e-05	0	61	0	612368384	60	5377
2026-01-01 07:17:46.33	39.17	31.09	-48.8	-51.6	13.7	5.30e-06	0	61	0	619708416	60	4976
2026-01-01 07:17:50.19	37.82	31.21	-49.2	-52.2	12.9	5.18e-05	0	61	0	627048448	60	5337
2026-01-01 07:17:54.06	36.45	31.32	-49.0	-51.9	13.2	2.82e-05	0	61	0	634388480	60	5146
2026-01-01 07:17:57.91	35.09	31.40	-49.7	-53.1	12.0	4.40e-04	0	61	0	641728512	61	5588
2026-01-01 07:18:01.77	33.71	31.47	-49.7	-53.1	12.1	1.57e-04	0	61	0	649068544	61	5532
2026-01-01 07:18:05.62	32.34	31.52	-49.7	-53.4	11.9	3.78e-04	0	61	0	656408576	61	5730
2026-01-01 07:18:09.47	30.96	31.55	-49.5	-52.7	12.3	2.84e-04	0	61	0	663748608	61	5337
2026-01-01 07:18:13.33	29.57	31.56	-49.9	-53.7	11.5	1.45e-03	0	61	0	671088640	62	5606
2026-01-01 07:18:17.19	28.19	31.55	-49.4	-52.6	12.6	1.07e-04	0	61	0	678428672	61	5237
2026-01-01 07:18:21.04	26.81	31.53	-48.9	-51.5	13.6	6.10e-06	0	61	0	684720128	60	4925
2026-01-01 07:18:24.90	25.43	31.48	-49.7	-53.7	11.1	4.16e-04	0	61	0	692060160	61	5937
2026-01-01 07:18:28.75	24.06	31.42	-47.9	-50.4	14.3	3.00e-06	0	61	0	699400192	58	4836
2026-01-01 07:18:32.61	22.69	31.34	-48.7	-51.8	12.9	4.80e-05	0	61	0	706740224	59	5341
2026-01-01 07:18:36.46	21.33	31.24	-48.5	-51.4	13.1	3.35e-05	0	61	0	714080256	59	5129
2026-01-01 07:18:40.31	19.98	31.12	-49.4	-53.8	10.4	5.21e-03	0	61	0	721420288	61	6013
2026-01-01 07:18:44.16	18.64	30.98	-49.8	-54.3	9.9	7.97e-03	0	61	0	728760320	61	6384
2026-01-01 07:18:48.01	17.31	30.83	-49.5	-53.8	10.5	3.64e-03	0	61	0	736100352	61	6022
2026-01-01 07:18:51.87	16.00	30.66	-49.9	-54.3	10.2	3.88e-03	0	61	0	743440384	61	6381
2026-01-01 07:18:55.72	14.70	30.48	-49.9	-53.8	11.1	2.42e-03	0	61	0	749731840	61	6053
2026-01-01 07:18:59.57	13.42	30.28	-49.5	-52.7	12.3	1.88e-04	0	61	0	757071872	62	5023
2026-01-01 07:19:03.42	12.15	30.07	-49.3	-52.4	12.8	6.79e-05	0	61	0	764411904	61	5103
2026-01-01 07:19:07.28	10.90	29.84	-49.5	-52.8	12.3	6.86e-05	0	61	0	771751936	61	5391
2026-01-01 07:19:11.26	9.62	29.59	-49.6	-53.1	12.0	3.14e-04	0	62	0	779091968	61	5566
2026-01-01 07:19:15.12	8.41	29.34	-49.8	-53.5	11.6	1.95e-03	0	62	0	786432000	62	5522
2026-01-01 07:19:18.97	7.22	29.07	-49.9	-53.6	11.5	8.38e-04	0	62	0	793772032	62	5551
2026-01-01 07:19:22.82	6.05	28.79	-50.4	-54.8	10.3	4.68e-03	0	62	0	801112064	62	6394
2026-01-01 07:19:26.67	4.89	28.51	-49.5	-52.8	12.4	1.51e-04	0	62	0	808452096	61	5354
2026-01-01 07:19:30.52	3.76	28.21	-48.7	-51.2	14.0	3.00e-06	0	62	0	815792128	60	4748
2026-01-01 07:19:34.36	2.66	27.91	-48.3	-50.5	14.7	1.50e-06	0	62	0	823132160	59	4625
2026-01-01 07:19:38.22	1.57	27.59	-49.0	-52.0	13.4	4.88e-05	0	62	0	829423616	60	5197
2026-01-01 07:19:42.07	0.50	27.27	-48.1	-50.4	14.8	0.00e+00	0	62	0	836763648	59	4567
2026-01-01 07:19:45.92	359.46	26.94	-49.7	-53.3	11.8	5.77e-04	0	62	0	844103680	61	5698
2026-01-01 07:19:49.78	358.43	26.61	-48.6	-51.3	13.9	3.00e-06	0	62	0	851443712	60	4783
2026-01-01 07:19:53.63	357.43	26.27	-48.6	-51.1	14.1	1.50e-06	0	62	0	858783744	59	4945
2026-01-01 07:19:57.48	356.45	25.92	-46.7	-48.3	16.8	0.00e+00	0	62	0	866123776	56	4261
2026-01-01 07:20:01.34	355.49	25.57	-47.0	-48.7	16.5	0.00e+00	0	62	0	873463808	56	4446
2026-01-01 07:20:05.20	354.55	25.22	-46.5	-48.1	17.0	0.00e+00	0	62	0	880803840	56	4161
2026-01-01 07:20:09.06	353.63	24.86	-47.2	-49.2	15.9	0.00e+00	0	62	0	888143872	56	4724
2026-01-01 07:20:12.91	352.74	24.50	-46.9	-48.6	16.3	0.00e+00	0	62	0	894435328	56	4434
2026-01-01 07:20:16.75	351.87	24.14	-46.8	-48.5	16.6	0.00e+00	0	62	0	901775360	56	4371
2026-01-01 07:20:20.60	351.01	23.77	-46.1	-47.5	17.5	0.00e+00	0	62	0	909115392	55	4110
2026-01-01 07:20:24.46	350.18	23.41	-45.4	-46.7	18.2	0.00e+00	0	62	0	916455424	54	3979
2026-01-01 07:20:28.32	349.36	23.04	-46.6	-48.3	16.7	0.00e+00	0	62	0	923795456	55	4496
2026-01-01 07:20:32.18	348.57	22.67	-46.6	-48.1	16.9	0.00e+00	0	62	0	931135488	56	4190
2026-01-01 07:20:36.04	347.79	22.30	-46.5	-48.1	16.8	0.00e+00	0	62	0	938475520	55	4439
2026-01-01 07:20:39.89	347.03	21.93	-46.5	-48.2	16.7	0.00e+00	0	62	0	945815552	55	4465
2026-01-01 07:20:43.74	346.29	21.56	-46.6	-48.2	16.6	0.00e+00	0	62	0	953155584	55	4489
2026-01-01 07:20:47.59	345.57	21.19	-46.5	-48.1	16.8	0.00e+00	0	62	0	960495616	55	4438
2026-01-01 07:20:51.46	344.86	20.82	-46.8	-48.5	16.4	0.00e+00	0	62	0	966787072	55	4634
2026-01-01 07:20:55.31	344.18	20.45	-47.6	-49.6	15.4	0.00e+00	0	62	0	974127104	57	4688
2026-01-01 07:20:59.18	343.50	20.09	-46.9	-48.7	16.2	0.00e+00	0	62	0	981467136	56	4448
2026-01-01 07:21:03.04	342.85	19.72	-46.9	-48.7	15.9	0.00e+00	0	62	0	988807168	56	4493
2026-01-01 07:21:06.89	342.21	19.36	-48.8	-52.0	12.4	3.05e-05	0	62	0	996147200	59	5471
2026-01-01 07:21:10.75	341.58	18.99	-50.2	-55.9	8.0	4.83e-02	0	62	0	1003487232	62	7283
2026-01-01 07:21:14.61	340.97	18.63	-49.6	-54.9	8.8	3.65e-02	0	62	0	1010827264	62	6455
2026-01-01 07:21:18.47	340.38	18.27	-48.9	-52.6	11.4	1.53e-03	0	62	0	1018167296	60	5530
2026-01-01 07:21:22.34	339.79	17.92	-48.2	-50.9	13.6	1.06e-05	0	62	0	1025507328	59	4835
2026-01-01 07:21:26.19	339.23	17.56	-47.4	-49.5	15.2	0.00e+00	0	62	0	1032847360	57	4629
2026-01-01 07:21:30.05	338.67	17.21	-46.9	-48.7	16.1	0.00e+00	0	62	0	1039138816	57	4240
2026-01-01 07:21:33.91	338.13	16.86	-47.3	-49.2	15.6	7.00e-07	0	62	0	1046478848	57	4491
2026-01-01 07:21:37.76	337.60	16.51	-47.7	-49.8	15.1	0.00e+00	0	62	0	1053818880	57	4804
2026-01-01 07:21:41.62	337.09	16.17	-47.5	-49.5	15.4	0.00e+00	0	62	0	1061158912	57	4645
2026-01-01 07:21:45.47	336.58	15.82	-47.4	-49.3	15.6	0.00e+00	0	62	0	1068498944	57	4535
2026-01-01 07:21:49.33	336.09	15.48	-47.9	-50.2	14.8	0.00e+00	0	62	0	1075838976	57	4992
2026-01-01 07:21:53.17	335.61	15.15	-48.8	-51.7	13.2	1.83e-05	0	62	0	1083179008	59	5333
2026-01-01 07:21:57.03	335.14	14.81	-48.1	-50.5	14.4	6.80e-06	0	62	0	1090519040	59	4649
2026-01-01 07:22:00.88	334.68	14.48	-47.1	-48.9	16.0	0.00e+00	0	62	0	1097859072	57	4330
2026-01-01 07:22:04.73	334.24	14.15	-47.4	-49.3	15.6	0.00e+00	0	62	0	1104150528	56	4798
2026-01-01 07:22:08.59	333.80	13.82	-48.3	-50.7	14.3	0.00e+00	0	62	0	1111490560	58	5017
2026-01-01 07:22:12.44	333.37	13.50	-48.9	-51.8	13.1	2.59e-05	0	62	0	1118830592	59	5371
2026-01-01 07:22:16.30	332.95	13.18	-48.8	-51.5	13.4	5.30e-06	0	62	0	1126170624	59	5208
2026-01-01 07:22:20.15	332.54	12.86	-48.7	-51.5	13.4	1.44e-05	0	62	0	1133510656	59	5201
2026-01-01 07:22:24.01	332.14	12.54	-49.1	-52.1	12.8	3.35e-05	0	62	0	1140850688	60	5261
2026-01-01 07:22:27.87	331.75	12.23	-49.0	-52.1	12.8	4.27e-05	0	62	0	1148190720	60	5236
2026-01-01 07:22:31.72	331.36	11.92	-48.9	-51.8	13.0	9.30e-05	0	62	0	1155530752	60	5083
2026-01-01 07:22:35.57	330.99	11.61	-48.4	-51.1	13.7	4.50e-06	0	62	0	1162870784	60	4667
2026-01-01 07:22:39.42	330.62	11.31	-48.0	-50.3	14.6	1.50e-06	0	62	0	1169162240	59	4508
2026-01-01 07:22:43.27	330.26	11.00	-47.7	-49.8	15.0	0.00e+00	0	62	0	1176502272	58	4541
2026-01-01 07:22:47.14	329.91	10.70	-48.1	-50.5	14.4	7.00e-07	0	62	0	1183842304	58	4876
2026-01-01 07:22:51.00	329.57	10.40	-48.6	-51.3	13.6	5.30e-06	0	62	0	1191182336	59	5054
2026-01-01 07:22:54.85	329.23	10.11	-49.1	-52.4	12.4	9.68e-05	0	62	0	1198522368	60	5414
2026-01-01 07:22:58.70	328.90	9.82	-49.3	-52.7	12.0	5.16e-04	0	62	0	1205862400	60	5654
2026-01-01 07:23:02.55	328.58	9.53	-49.4	-52.9	11.8	4.84e-04	0	62	0	1213202432	61	5427
2026-01-01 07:23:06.40	328.26	9.24	-49.3	-52.7	12.1	3.17e-04	0	62	0	1220542464	61	5312
2026-01-01 07:23:10.26	327.95	8.95	-49.0	-52.1	12.6	8.62e-05	0	62	0	1227882496	60	5255
2026-01-01 07:23:14.10	327.65	8.67	-48.7	-51.6	13.0	4.04e-05	0	62	0	1234173952	60	4965
2026-01-01 07:23:17.96	327.35	8.39	-48.4	-51.2	13.5	1.14e-05	0	62	0	1241513984	60	4742
2026-01-01 07:23:21.81	327.06	8.11	-48.5	-51.2	13.5	1.67e-05	0	62	0	1248854016	59	5039
2026-01-01 07:23:25.66	326.77	7.84	-48.8	-51.7	12.9	3.66e-05	0	62	0	1256194048	59	5335
2026-01-01 07:23:29.52	326.49	7.56	-49.0	-52.3	12.3	1.75e-04	0	62	0	1263534080	60	5370
2026-01-01 07:23:33.37	326.21	7.29	-49.4	-53.1	11.6	6.13e-04	0	62	0	1270874112	60	5864
2026-01-01 07:23:37.23	325.94	7.02	-49.6	-53.5	11.1	1.50e-03	0	62	0	1278214144	61	5812
2026-01-01 07:23:41.09	325.68	6.76	-49.6	-53.6	10.9	2.92e-03	0	62	0	1285554176	61	5914
2026-01-01 07:23:44.93	325.42	6.49	-49.7	-53.9	10.6	2.18e-03	0	62	0	1292894208	61	6080
2026-01-01 07:23:48.79	325.16	6.23	-49.7	-53.9	10.6	3.25e-03	0	62	0	1299185664	61	6115
2026-01-01 07:23:52.64	324.92	5.97	-49.6	-53.7	10.8	2.88e-03	0	62	0	1306525696	61	5949
2026-01-01 07:23:56.49	324.67	5.71	-49.8	-54.2	10.2	4.96e-03	0	62	0	1313865728	61	6314
2026-01-01 07:24:00.36	324.43	5.45	-50.1	-55.0	9.3	1.23e-02	0	62	0	1321205760	62	6561
2026-01-01 07:24:04.21	324.19	5.20	-49.8	-54.4	9.9	7.76e-03	0	62	0	1328545792	62	6090
2026-01-01 07:24:08.09	323.96	4.95	-51.7	-65.6	3.8	1.49e+00	0	62	104	1333788672	65	18648
2026-01-01 07:24:12.02	323.73	4.69	-51.7	-65.7	3.8	1.49e+00	0	62	104	1333788672	65	18764
2026-01-01 07:24:15.95	323.50	4.44	-52.4	-66.4	3.8	1.49e+00	0	62	104	1333788672	66	19290
2026-01-01 07:24:19.88	323.28	4.18	-52.7	-66.5	3.8	1.49e+00	0	62	104	1333788672	67	18427
2026-01-01 07:24:23.80	323.06	3.94	-52.7	-66.6	3.8	1.49e+00	0	62	104	1333788672	67	18560
2026-01-01 07:24:27.72	322.84	3.69	-52.8	-66.6	3.8	1.49e+00	0	62	104	1333788672	67	18697
2026-01-01 07:24:31.64	322.63	3.44	-52.8	-66.6	3.8	1.49e+00	0	62	104	1333788672	67	18695
2026-01-01 07:24:35.57	322.42	3.20	-52.6	-66.6	3.8	1.49e+00	0	62	104	1333788672	67	18633
2026-01-01 07:24:39.49	322.22	2.96	-52.6	-66.6	3.8	1.49e+00	0	62	104	1333788672	67	18637

#Closed at: 2026-01-01 07:24:41
#Recorded file [1333 MB]: D:/Data/31026_260101_102407.dat