passes_logs/2026/01/01/R3.0SM8_Murmansk_STILSPACE/R3.0SM8_Murmansk_STILSPACE__20260101_095257_FENGYUN_3D_rec.log

#Pass ID: 20260101_095257_FENGYUN 3D
#Satellite: FENGYUN 3D
#Configuration: FENGYUN 3D
#almurnet v.1.7.20240730
#Start time: 2026-01-01 09:52:58

#Version: 2.2.20231116
#Station: R3.0SM8_Murmansk_STILSPACE
#Location: 33.092731 lon 68.902999 lat
#TLE: 1 43010U 17072A   25365.48527867  .00000101  00000+0  69745-4 0  9999
#TLE: 2 43010  98.9911 332.0787 0001837 134.4748 225.6578 14.19689788421190

#Time	Az	El	Level	Level2	SNR	BER	BlckErr	Temp	State	Recorded	gain1	gain2
2026-01-01 09:52:58.72	112.79	3.07	-52.4	-63.3	3.8	8.46e-01	0	51	0	0	67	12757
2026-01-01 09:53:02.68	112.64	3.33	-52.1	-62.9	3.8	8.46e-01	0	51	104	0	67	12220
2026-01-01 09:53:06.64	112.49	3.59	-51.6	-62.1	3.8	8.47e-01	0	51	104	0	66	11768
2026-01-01 09:53:10.59	112.33	3.84	-51.7	-61.7	3.8	8.46e-01	0	52	104	0	66	11264
2026-01-01 09:53:14.55	112.17	4.11	-51.4	-60.4	3.8	8.46e-01	0	52	104	0	65	10226
2026-01-01 09:53:18.52	112.00	4.37	-51.2	-58.1	4.4	8.28e-01	0	52	0	0	65	7884
2026-01-01 09:53:22.46	111.84	4.64	-50.6	-55.8	5.8	6.12e-01	0	52	0	2097152	64	6374
2026-01-01 09:53:26.42	111.67	4.91	-49.6	-53.5	7.8	9.83e-02	0	52	0	24117248	62	5484
2026-01-01 09:53:30.38	111.49	5.18	-49.6	-53.3	8.0	8.07e-02	0	53	0	46137344	61	5705
2026-01-01 09:53:34.33	111.31	5.45	-48.5	-51.3	10.0	1.16e-02	0	53	0	68157440	60	4796
2026-01-01 09:53:38.29	111.13	5.73	-48.7	-51.3	10.1	1.03e-02	0	53	0	91226112	59	5090
2026-01-01 09:53:42.26	110.95	6.01	-46.6	-48.4	13.1	9.84e-05	0	53	0	113246208	56	4304
2026-01-01 09:53:46.21	110.76	6.29	-45.3	-46.7	14.8	0.00e+00	0	53	0	135266304	53	4200
2026-01-01 09:53:50.16	110.57	6.57	-44.8	-46.0	15.4	0.00e+00	0	53	0	157286400	52	4135
2026-01-01 09:53:54.10	110.37	6.86	-44.8	-46.1	15.4	0.00e+00	0	53	0	179306496	52	4156
2026-01-01 09:53:58.07	110.17	7.15	-44.8	-46.0	15.5	0.00e+00	0	53	0	201326592	52	4117
2026-01-01 09:54:02.01	109.96	7.44	-44.8	-46.0	15.5	0.00e+00	0	53	0	224395264	52	4134
2026-01-01 09:54:05.97	109.75	7.74	-44.5	-45.6	16.0	0.00e+00	0	54	0	246415360	52	3942
2026-01-01 09:54:09.92	109.54	8.04	-44.9	-46.1	15.5	0.00e+00	0	54	0	268435456	52	4157
2026-01-01 09:54:13.87	109.32	8.34	-44.4	-45.5	16.2	0.00e+00	0	54	0	291504128	51	4123
2026-01-01 09:54:17.84	109.10	8.65	-44.4	-45.5	16.2	0.00e+00	0	54	0	313524224	51	4119
2026-01-01 09:54:21.80	108.87	8.96	-44.3	-45.4	16.3	0.00e+00	0	54	0	335544320	51	4073
2026-01-01 09:54:25.76	108.63	9.27	-44.4	-45.5	16.3	0.00e+00	0	54	0	357564416	51	4117
2026-01-01 09:54:29.72	108.39	9.59	-44.2	-45.3	16.5	0.00e+00	0	54	0	379584512	51	4008
2026-01-01 09:54:33.68	108.15	9.91	-44.0	-45.0	16.8	0.00e+00	0	54	0	402653184	51	3888
2026-01-01 09:54:37.64	107.90	10.23	-43.9	-44.9	16.9	0.00e+00	0	55	0	424673280	51	3865
2026-01-01 09:54:41.61	107.64	10.56	-43.9	-44.8	17.0	0.00e+00	0	54	0	446693376	50	4048
2026-01-01 09:54:45.56	107.38	10.89	-43.9	-44.9	17.0	0.00e+00	0	55	0	468713472	50	4069
2026-01-01 09:54:49.51	107.11	11.22	-43.6	-44.5	17.3	0.00e+00	0	55	0	490733568	50	3910
2026-01-01 09:54:53.47	106.83	11.56	-43.5	-44.4	17.5	0.00e+00	0	55	0	513802240	50	3849
2026-01-01 09:54:57.44	106.55	11.90	-43.5	-44.5	17.4	0.00e+00	0	55	0	535822336	50	3878
2026-01-01 09:55:01.38	106.26	12.25	-43.4	-44.3	17.6	0.00e+00	0	55	0	557842432	49	4027
2026-01-01 09:55:05.32	105.96	12.60	-43.5	-44.4	17.5	0.00e+00	0	55	0	579862528	49	4098
2026-01-01 09:55:09.29	105.66	12.95	-43.2	-44.1	17.8	0.00e+00	0	55	0	602931200	49	3953
2026-01-01 09:55:13.22	105.35	13.31	-43.1	-43.9	18.0	0.00e+00	0	55	0	624951296	49	3857
2026-01-01 09:55:17.19	105.03	13.68	-43.3	-44.2	17.7	0.00e+00	0	55	0	646971392	49	3989
2026-01-01 09:55:21.15	104.70	14.05	-43.0	-43.9	18.1	0.00e+00	0	55	0	668991488	49	3835
2026-01-01 09:55:25.10	104.36	14.42	-43.3	-44.2	17.7	0.00e+00	0	56	0	691011584	49	3995
2026-01-01 09:55:29.06	104.02	14.80	-42.9	-43.7	18.2	0.00e+00	0	55	0	714080256	48	3988
2026-01-01 09:55:33.02	103.66	15.18	-42.9	-43.8	18.2	0.00e+00	0	55	0	736100352	48	4019
2026-01-01 09:55:36.97	103.30	15.57	-42.9	-43.8	18.2	0.00e+00	0	55	0	758120448	48	4021
2026-01-01 09:55:40.93	102.92	15.96	-42.7	-43.5	18.4	0.00e+00	0	56	0	781189120	48	3909
2026-01-01 09:55:44.88	102.54	16.36	-42.5	-43.3	18.6	0.00e+00	0	56	0	803209216	48	3814
2026-01-01 09:55:48.84	102.14	16.76	-42.6	-43.4	18.4	0.00e+00	0	56	0	825229312	47	4083
2026-01-01 09:55:52.80	101.73	17.17	-42.2	-42.9	19.0	0.00e+00	0	56	0	847249408	47	3853
2026-01-01 09:55:56.75	101.32	17.58	-41.8	-42.5	19.5	0.00e+00	0	56	0	869269504	46	3879
2026-01-01 09:56:00.71	100.89	18.00	-41.9	-42.6	19.3	0.00e+00	0	56	0	891289600	46	3936
2026-01-01 09:56:04.68	100.44	18.43	-42.0	-42.7	19.2	0.00e+00	0	56	0	914358272	46	3988
2026-01-01 09:56:08.63	99.99	18.86	-42.3	-43.0	19.0	0.00e+00	0	56	0	936378368	46	4120
2026-01-01 09:56:12.58	99.52	19.29	-41.8	-42.5	19.4	0.00e+00	0	56	0	958398464	46	3904
2026-01-01 09:56:16.55	99.03	19.73	-41.6	-42.2	19.7	0.00e+00	0	56	0	980418560	46	3770
2026-01-01 09:56:20.51	98.54	20.18	-41.1	-41.7	20.2	0.00e+00	0	56	0	1003487232	45	3769
2026-01-01 09:56:24.46	98.02	20.63	-41.3	-42.0	20.0	0.00e+00	0	56	0	1025507328	45	3884
2026-01-01 09:56:28.41	97.50	21.09	-41.4	-42.0	19.9	0.00e+00	0	56	0	1047527424	45	3892
2026-01-01 09:56:32.35	96.95	21.55	-41.1	-41.8	20.2	0.00e+00	0	56	0	1069547520	45	3781
2026-01-01 09:56:36.32	96.39	22.02	-41.3	-41.9	20.0	0.00e+00	0	56	0	1091567616	45	3860
2026-01-01 09:56:40.26	95.81	22.50	-40.7	-41.3	20.7	0.00e+00	0	56	0	1114636288	44	3788
2026-01-01 09:56:44.20	95.22	22.97	-40.6	-41.2	20.8	0.00e+00	0	56	0	1136656384	44	3743
2026-01-01 09:56:48.17	94.60	23.46	-40.7	-41.3	20.7	0.00e+00	0	56	0	1158676480	44	3793
2026-01-01 09:56:52.12	93.96	23.95	-40.7	-41.3	20.7	0.00e+00	0	56	0	1180696576	44	3793
2026-01-01 09:56:56.08	93.30	24.45	-40.7	-41.3	20.6	0.00e+00	0	57	0	1203765248	44	3808
2026-01-01 09:57:00.03	92.63	24.95	-40.2	-40.7	21.1	0.00e+00	0	56	0	1225785344	43	3772
2026-01-01 09:57:03.97	91.93	25.46	-40.2	-40.8	21.0	0.00e+00	0	56	0	1247805440	43	3802
2026-01-01 09:57:07.92	91.20	25.97	-40.6	-41.3	20.6	0.00e+00	0	56	0	1269825536	43	4008
2026-01-01 09:57:11.89	90.45	26.49	-40.5	-41.1	20.8	0.00e+00	0	57	0	1291845632	43	3928
2026-01-01 09:57:15.85	89.68	27.01	-40.7	-41.3	20.6	0.00e+00	0	56	0	1314914304	43	4030
2026-01-01 09:57:19.80	88.88	27.53	-40.7	-41.3	20.5	0.00e+00	0	57	0	1336934400	43	4049
2026-01-01 09:57:23.77	88.05	28.06	-40.5	-41.1	20.8	0.00e+00	0	56	0	1358954496	43	3928
2026-01-01 09:57:27.73	87.19	28.60	-40.6	-41.2	20.7	0.00e+00	0	57	0	1380974592	43	3963
2026-01-01 09:57:31.67	86.31	29.13	-40.6	-41.2	20.6	0.00e+00	0	57	0	1404043264	43	4002
2026-01-01 09:57:35.65	85.39	29.67	-40.2	-40.8	21.0	0.00e+00	0	57	0	1426063360	43	3815
2026-01-01 09:57:39.62	84.44	30.21	-40.2	-40.7	21.2	0.00e+00	0	57	0	1448083456	43	3769
2026-01-01 09:57:43.56	83.46	30.75	-39.9	-40.4	21.4	0.00e+00	0	57	0	1470103552	42	3847
2026-01-01 09:57:47.53	82.45	31.29	-40.0	-40.6	21.3	0.00e+00	0	56	0	1493172224	42	3923
2026-01-01 09:57:51.48	81.40	31.83	-40.0	-40.6	21.3	0.00e+00	0	56	0	1515192320	42	3914
2026-01-01 09:57:55.42	80.32	32.36	-40.2	-40.8	21.1	0.00e+00	0	57	0	1537212416	42	4024
2026-01-01 09:57:59.38	79.20	32.90	-39.9	-40.4	21.5	0.00e+00	0	57	0	1559232512	42	3851
2026-01-01 09:58:03.34	78.05	33.43	-39.7	-40.2	21.6	0.00e+00	0	57	0	1581252608	42	3765
2026-01-01 09:58:07.31	76.85	33.96	-39.8	-40.3	21.6	0.00e+00	0	57	0	1604321280	42	3801
2026-01-01 09:58:11.26	75.61	34.48	-39.7	-40.2	21.6	0.00e+00	0	57	0	1626341376	42	3778
2026-01-01 09:58:15.21	74.34	34.99	-40.2	-40.7	21.2	0.00e+00	0	57	0	1648361472	42	3992
2026-01-01 09:58:19.16	73.03	35.50	-40.1	-40.6	21.3	0.00e+00	0	57	0	1670381568	42	3946
2026-01-01 09:58:23.13	71.66	35.99	-39.8	-40.4	21.5	0.00e+00	0	57	0	1693450240	42	3838
2026-01-01 09:58:27.09	70.26	36.48	-39.3	-39.9	22.0	0.00e+00	0	57	0	1715470336	41	3825
2026-01-01 09:58:31.03	68.83	36.95	-39.9	-40.4	21.5	0.00e+00	0	57	0	1737490432	41	4094
2026-01-01 09:58:34.99	67.34	37.40	-39.5	-40.1	21.8	0.00e+00	0	57	0	1759510528	41	3918
2026-01-01 09:58:38.94	65.82	37.84	-39.8	-40.3	21.5	0.00e+00	0	57	0	1781530624	41	4050
2026-01-01 09:58:42.90	64.26	38.26	-39.8	-40.3	21.5	0.00e+00	0	57	0	1804599296	41	4045
2026-01-01 09:58:46.85	62.65	38.66	-39.9	-40.5	21.4	0.00e+00	0	57	0	1826619392	41	4122
2026-01-01 09:58:50.82	61.00	39.04	-40.3	-40.8	21.1	0.00e+00	0	57	0	1848639488	42	4044
2026-01-01 09:58:54.79	59.32	39.40	-40.3	-40.9	21.1	0.00e+00	0	57	0	1870659584	42	4058
2026-01-01 09:58:58.75	57.60	39.73	-39.8	-40.3	21.6	0.00e+00	0	57	0	1893728256	42	3807
2026-01-01 09:59:02.71	55.84	40.04	-40.0	-40.5	21.4	0.00e+00	0	57	0	1915748352	42	3913
2026-01-01 09:59:06.66	54.06	40.31	-39.5	-40.0	21.8	0.00e+00	0	57	0	1937768448	42	3692
2026-01-01 09:59:10.62	52.25	40.55	-39.4	-39.9	21.9	0.00e+00	0	57	0	1959788544	41	3851
2026-01-01 09:59:14.58	50.41	40.77	-39.5	-40.0	21.9	0.00e+00	0	57	0	1982857216	41	3889
2026-01-01 09:59:18.52	48.56	40.95	-39.6	-40.2	21.7	0.00e+00	0	57	0	2004877312	41	3977
2026-01-01 09:59:22.48	46.67	41.09	-40.1	-40.7	21.2	0.00e+00	0	57	0	2026897408	42	3990
2026-01-01 09:59:26.45	44.77	41.20	-39.8	-40.3	21.6	0.00e+00	0	57	0	2048917504	42	3821
2026-01-01 09:59:30.40	42.87	41.28	-39.9	-40.4	21.5	0.00e+00	0	57	0	2070937600	42	3853
2026-01-01 09:59:34.34	40.97	41.32	-40.0	-40.6	21.3	0.00e+00	0	57	0	2094006272	42	3928
2026-01-01 09:59:38.31	39.05	41.32	-39.7	-40.2	21.6	0.00e+00	0	57	0	2116026368	42	3772
2026-01-01 09:59:42.24	37.15	41.29	-40.0	-40.6	21.3	0.00e+00	0	57	0	2138046464	42	3935
2026-01-01 09:59:46.21	35.23	41.22	-40.3	-40.9	21.0	0.00e+00	0	57	0	2160066560	42	4082
2026-01-01 09:59:50.15	33.34	41.12	-39.4	-39.9	21.9	0.00e+00	0	57	0	2182086656	42	3650
2026-01-01 09:59:54.10	31.47	40.98	-39.9	-40.4	21.4	0.00e+00	0	57	0	2205155328	42	3865
2026-01-01 09:59:58.04	29.61	40.80	-39.1	-39.7	22.1	0.00e+00	0	57	0	2227175424	41	3740
2026-01-01 10:00:02.00	27.77	40.60	-39.6	-40.1	21.7	0.00e+00	0	57	0	2249195520	41	3957
2026-01-01 10:00:05.96	25.95	40.36	-39.2	-39.7	22.1	0.00e+00	0	57	0	2271215616	41	3746
2026-01-01 10:00:09.91	24.16	40.09	-39.2	-39.7	22.1	0.00e+00	0	57	0	2293235712	41	3752
2026-01-01 10:00:13.85	22.41	39.80	-39.3	-39.8	22.0	0.00e+00	0	57	0	2315255808	41	3813
2026-01-01 10:00:17.82	20.68	39.47	-39.2	-39.7	22.1	0.00e+00	0	57	0	2338324480	41	3778
2026-01-01 10:00:21.79	18.99	39.12	-39.5	-40.0	21.8	0.00e+00	0	57	0	2360344576	41	3897
2026-01-01 10:00:25.74	17.34	38.75	-39.5	-40.0	21.8	0.00e+00	0	57	0	2382364672	41	3885
2026-01-01 10:00:29.70	15.73	38.35	-39.8	-40.3	21.5	0.00e+00	0	57	0	2404384768	41	4045
2026-01-01 10:00:33.64	14.16	37.93	-39.6	-40.1	21.7	0.00e+00	0	57	0	2427453440	41	3954
2026-01-01 10:00:37.59	12.64	37.50	-39.5	-40.1	21.8	0.00e+00	0	57	0	2449473536	41	3914
2026-01-01 10:00:41.54	11.15	37.05	-39.8	-40.3	21.5	0.00e+00	0	57	0	2471493632	41	4029
2026-01-01 10:00:45.50	9.70	36.58	-39.6	-40.1	21.7	0.00e+00	0	57	0	2493513728	41	3935
2026-01-01 10:00:49.45	8.30	36.10	-39.7	-40.3	21.5	0.00e+00	0	57	0	2515533824	41	4022
2026-01-01 10:00:53.40	6.94	35.61	-39.9	-40.5	21.4	0.00e+00	0	57	0	2538602496	41	4128
2026-01-01 10:00:57.36	5.61	35.11	-40.1	-40.6	21.2	0.00e+00	0	57	0	2560622592	42	3948
2026-01-01 10:01:01.32	4.33	34.60	-39.2	-39.7	22.0	0.00e+00	0	57	0	2582642688	41	3775
2026-01-01 10:01:05.28	3.09	34.08	-39.5	-40.0	21.8	0.00e+00	0	57	0	2604662784	41	3884
2026-01-01 10:01:09.25	1.88	33.55	-39.9	-40.4	21.4	0.00e+00	0	57	0	2627731456	41	4090
2026-01-01 10:01:13.21	0.72	33.02	-39.9	-40.5	21.3	0.00e+00	0	57	0	2649751552	41	4115
2026-01-01 10:01:17.15	359.60	32.49	-39.2	-39.8	22.0	0.00e+00	0	57	0	2671771648	41	3784
2026-01-01 10:01:21.10	358.51	31.95	-39.4	-39.9	21.8	0.00e+00	0	57	0	2693791744	41	3862
2026-01-01 10:01:25.06	357.46	31.42	-39.6	-40.2	21.6	0.00e+00	0	57	0	2715811840	41	3972
2026-01-01 10:01:29.02	356.44	30.88	-39.7	-40.2	21.6	0.00e+00	0	57	0	2738880512	41	3984
2026-01-01 10:01:32.96	355.46	30.34	-40.1	-40.7	21.1	0.00e+00	0	57	0	2760900608	42	3985
2026-01-01 10:01:36.90	354.51	29.80	-40.3	-40.9	20.9	0.00e+00	0	57	0	2782920704	42	4074
2026-01-01 10:01:40.85	353.59	29.27	-39.9	-40.4	21.4	0.00e+00	0	57	0	2804940800	42	3863
2026-01-01 10:01:44.82	352.70	28.73	-40.4	-41.0	20.8	0.00e+00	0	57	0	2826960896	42	4133
2026-01-01 10:01:48.78	351.84	28.20	-40.3	-40.9	20.9	0.00e+00	0	57	0	2850029568	43	3856
2026-01-01 10:01:52.74	351.00	27.67	-40.3	-40.9	20.9	0.00e+00	0	57	0	2872049664	43	3854
2026-01-01 10:01:56.70	350.20	27.15	-40.2	-40.8	21.0	0.00e+00	0	57	0	2894069760	42	4014
2026-01-01 10:02:00.67	349.42	26.62	-40.4	-41.0	20.8	0.00e+00	0	57	0	2917138432	42	4108
2026-01-01 10:02:04.63	348.66	26.11	-40.3	-40.9	20.9	0.00e+00	0	57	0	2939158528	43	3838
2026-01-01 10:02:08.59	347.94	25.59	-40.4	-41.0	20.8	0.00e+00	0	57	0	2961178624	43	3882
2026-01-01 10:02:12.55	347.23	25.09	-40.4	-40.9	20.8	0.00e+00	0	57	0	2983198720	43	3864
2026-01-01 10:02:16.51	346.55	24.58	-40.3	-40.9	20.9	0.00e+00	0	57	0	3005218816	43	3851
2026-01-01 10:02:20.46	345.89	24.09	-40.0	-40.5	21.2	0.00e+00	0	57	0	3028287488	43	3686
2026-01-01 10:02:24.42	345.25	23.60	-40.2	-40.8	20.9	0.00e+00	0	57	0	3050307584	43	3792
2026-01-01 10:02:28.38	344.63	23.11	-40.3	-40.9	20.8	0.00e+00	0	57	0	3072327680	43	3831
2026-01-01 10:02:32.33	344.03	22.63	-40.6	-41.2	20.5	0.00e+00	0	57	0	3094347776	43	3992
2026-01-01 10:02:36.28	343.45	22.15	-40.4	-41.0	20.7	0.00e+00	0	57	0	3117416448	43	3894
2026-01-01 10:02:40.23	342.89	21.68	-40.5	-41.1	20.6	0.00e+00	0	57	0	3139436544	43	3933
2026-01-01 10:02:44.20	342.34	21.22	-40.9	-41.5	20.2	0.00e+00	0	57	0	3161456640	43	4123
2026-01-01 10:02:48.17	341.81	20.76	-41.2	-41.9	19.8	0.00e+00	0	57	0	3183476736	44	4058
2026-01-01 10:02:52.14	341.29	20.31	-41.5	-42.2	19.4	0.00e+00	0	57	0	3206545408	44	4204
2026-01-01 10:02:56.10	340.79	19.86	-43.6	-44.5	17.1	0.00e+00	0	57	0	3228565504	48	4372
2026-01-01 10:03:00.06	340.31	19.42	-44.5	-45.6	15.8	0.00e+00	0	57	0	3250585600	50	4411
2026-01-01 10:03:04.02	339.84	18.98	-44.0	-45.1	16.3	0.00e+00	0	57	0	3272605696	51	3939
2026-01-01 10:03:07.97	339.38	18.55	-43.3	-44.1	17.3	0.00e+00	0	58	0	3295674368	49	3957
2026-01-01 10:03:11.93	338.94	18.13	-41.8	-42.5	19.0	0.00e+00	0	57	0	3317694464	46	3871
2026-01-01 10:03:15.89	338.50	17.71	-42.0	-42.7	18.9	0.00e+00	0	58	0	3339714560	46	3990
2026-01-01 10:03:19.86	338.08	17.29	-41.8	-42.5	19.1	0.00e+00	0	57	0	3361734656	46	3899
2026-01-01 10:03:23.82	337.68	16.88	-41.9	-42.7	19.1	0.00e+00	0	57	0	3384803328	46	3967
2026-01-01 10:03:27.77	337.28	16.48	-42.1	-42.9	18.8	0.00e+00	0	57	0	3406823424	46	4060
2026-01-01 10:03:31.72	336.90	16.08	-42.1	-42.8	18.9	0.00e+00	0	57	0	3428843520	46	4038
2026-01-01 10:03:35.68	336.52	15.69	-42.0	-42.7	19.0	0.00e+00	0	57	0	3450863616	46	3996
2026-01-01 10:03:39.63	336.16	15.30	-42.2	-43.0	18.8	0.00e+00	0	57	0	3472883712	46	4100
2026-01-01 10:03:43.59	335.80	14.92	-42.3	-43.0	18.7	0.00e+00	0	57	0	3495952384	46	4139
2026-01-01 10:03:47.55	335.45	14.54	-42.7	-43.4	18.3	0.00e+00	0	57	0	3517972480	47	4097
2026-01-01 10:03:51.53	335.12	14.16	-42.8	-43.6	18.1	0.00e+00	0	57	0	3539992576	47	4187
2026-01-01 10:03:55.47	334.79	13.80	-42.6	-43.4	18.3	0.00e+00	0	57	0	3562012672	47	4083
2026-01-01 10:03:59.42	334.47	13.43	-42.7	-43.5	18.1	0.00e+00	0	58	0	3584032768	47	4143
2026-01-01 10:04:03.36	334.16	13.07	-42.9	-43.7	18.0	0.00e+00	0	57	0	3607101440	47	4237
2026-01-01 10:04:07.29	333.86	12.72	-43.4	-44.3	17.6	0.00e+00	0	57	0	3629121536	48	4278
2026-01-01 10:04:11.26	333.56	12.37	-43.5	-44.3	17.5	0.00e+00	0	57	0	3651141632	49	4040
2026-01-01 10:04:15.22	333.27	12.02	-43.5	-44.4	17.4	0.00e+00	0	57	0	3673161728	49	4090
2026-01-01 10:04:19.17	332.99	11.68	-44.0	-44.9	16.9	0.00e+00	0	58	0	3696230400	49	4330
2026-01-01 10:04:23.12	332.71	11.34	-43.3	-44.2	17.7	0.00e+00	0	57	0	3718250496	49	3960
2026-01-01 10:04:27.09	332.44	11.01	-43.4	-44.2	17.6	0.00e+00	0	57	0	3740270592	49	3992
2026-01-01 10:04:31.03	332.18	10.68	-43.6	-44.5	17.3	0.00e+00	0	57	0	3762290688	49	4113
2026-01-01 10:04:34.98	331.93	10.35	-43.9	-44.9	16.9	0.00e+00	0	57	0	3784310784	49	4295
2026-01-01 10:04:38.93	331.68	10.03	-44.1	-45.2	16.6	0.00e+00	0	57	0	3807379456	50	4203
2026-01-01 10:04:42.88	331.43	9.71	-43.7	-44.7	17.1	0.00e+00	0	57	0	3829399552	50	3959
2026-01-01 10:04:46.84	331.19	9.39	-43.7	-44.6	17.0	0.00e+00	0	57	0	3851419648	50	3957
2026-01-01 10:04:50.79	330.96	9.08	-43.7	-44.7	17.0	0.00e+00	0	57	0	3873439744	50	3972
2026-01-01 10:04:54.75	330.73	8.77	-43.8	-44.7	17.0	0.00e+00	0	57	0	3895459840	50	4000
2026-01-01 10:04:58.70	330.51	8.46	-44.0	-44.9	16.7	0.00e+00	0	57	0	3918528512	50	4085
2026-01-01 10:05:02.67	330.29	8.16	-44.2	-45.2	16.5	0.00e+00	0	58	0	3940548608	50	4196
2026-01-01 10:05:06.62	330.08	7.86	-44.3	-45.4	16.3	0.00e+00	0	57	0	3962568704	51	4066
2026-01-01 10:05:10.58	329.87	7.56	-44.4	-45.4	16.2	0.00e+00	0	57	0	3984588800	51	4085
2026-01-01 10:05:14.53	329.66	7.27	-44.6	-45.7	15.9	0.00e+00	0	57	0	4007657472	51	4211
2026-01-01 10:05:18.49	329.46	6.98	-44.9	-46.2	15.3	0.00e+00	0	57	0	4029677568	52	4202
2026-01-01 10:05:22.44	329.27	6.69	-44.9	-46.2	15.3	0.00e+00	0	57	0	4051697664	52	4195
2026-01-01 10:05:26.39	329.08	6.41	-44.8	-46.1	15.3	0.00e+00	0	57	0	4073717760	52	4154
2026-01-01 10:05:30.35	328.89	6.13	-44.8	-46.0	15.4	0.00e+00	0	57	0	4095737856	52	4118
2026-01-01 10:05:34.30	328.71	5.85	-44.8	-46.0	15.3	0.00e+00	0	57	0	4117757952	52	4124
2026-01-01 10:05:38.28	328.53	5.57	-44.6	-45.8	15.5	0.00e+00	0	57	0	4140826624	52	4022
2026-01-01 10:05:42.25	328.35	5.29	-44.6	-45.8	15.5	0.00e+00	0	58	0	4162846720	52	4050
2026-01-01 10:05:46.21	328.18	5.02	-51.1	-59.9	4.1	3.67e-02	0	58	0	4184866816	64	10196
2026-01-01 10:05:50.18	328.01	4.75	-49.0	-59.8	3.8	8.46e-01	0	57	104	4184866816	59	13450
2026-01-01 10:05:54.15	327.84	4.48	-52.3	-63.2	3.8	8.45e-01	0	57	104	4184866816	66	13355
2026-01-01 10:05:58.10	327.68	4.22	-52.4	-63.3	3.8	8.46e-01	0	57	104	4184866816	66	13548
2026-01-01 10:06:02.06	327.52	3.96	-52.4	-63.4	3.8	8.47e-01	0	57	104	4184866816	67	12901
2026-01-01 10:06:06.02	327.36	3.70	-52.6	-63.5	3.8	8.47e-01	0	58	104	4184866816	67	12973
2026-01-01 10:06:09.97	327.21	3.44	-52.7	-63.5	3.8	8.46e-01	0	58	104	4184866816	67	12988
2026-01-01 10:06:13.92	327.06	3.19	-52.7	-63.4	3.8	8.47e-01	0	58	104	4184866816	67	12914
2026-01-01 10:06:17.89	326.91	2.93	-52.6	-63.5	3.8	8.45e-01	0	57	104	4184866816	67	12977

#Closed at: 2026-01-01 10:06:18
#Recorded file [4184 MB]: D:/Data/31026_260101_130546.dat