passes_logs/2026/01/01/R3.0SM8_Murmansk_STILSPACE/R3.0SM8_Murmansk_STILSPACE__20260101_100139_NOAA_21_JPSS-2_rec.log

#Pass ID: 20260101_100139_NOAA 21 (JPSS-2)
#Satellite: NOAA 21 (JPSS-2)
#Configuration: NOAA-21
#almurnet v.1.7.20240730
#Start time: 2026-01-01 10:06:26

#Version: 2.2.20231116
#Station: R3.0SM8_Murmansk_STILSPACE
#Location: 33.092731 lon 68.902999 lat
#TLE: 1 54234U 22150A   25365.42224288  .00000199  00000+0  11529-3 0  9990
#TLE: 2 54234  98.7483 301.4995 0001320 356.2106   3.9060 14.19530300162743

#Time	Az	El	Level	Level2	SNR	BER	BlckErr	Temp	State	Recorded	gain1	gain2
2026-01-01 10:06:26.15	177.15	36.81	-52.5	-63.4	3.8	8.47e-01	0	57	0	0	67	12923
2026-01-01 10:06:29.11	177.54	37.49	-52.7	-64.3	3.8	1.49e+00	0	57	104	0	68	13507
2026-01-01 10:06:32.06	177.95	38.18	-52.9	-64.3	3.8	1.49e+00	0	57	104	0	68	13556
2026-01-01 10:06:35.02	178.37	38.89	-52.6	-64.3	3.8	1.49e+00	0	57	104	0	68	13461
2026-01-01 10:06:37.99	178.82	39.61	-52.8	-64.3	3.8	1.49e+00	0	57	104	0	68	13506
2026-01-01 10:06:40.97	179.28	40.34	-52.9	-64.3	3.8	1.49e+00	0	57	104	0	68	13480
2026-01-01 10:06:43.93	179.76	41.09	-52.5	-64.3	3.8	1.49e+00	0	57	104	0	68	13488
2026-01-01 10:06:46.90	180.27	41.85	-52.7	-64.3	3.8	1.49e+00	0	57	104	0	68	13493
2026-01-01 10:06:49.87	180.80	42.63	-52.8	-64.3	3.8	1.49e+00	0	57	104	0	68	13469
2026-01-01 10:06:52.84	181.36	43.41	-52.8	-64.3	3.8	1.49e+00	0	58	104	0	68	13458
2026-01-01 10:06:55.80	181.94	44.21	-52.6	-64.3	3.8	1.49e+00	0	57	104	0	68	13462
2026-01-01 10:06:58.77	182.56	45.03	-52.6	-64.3	3.8	1.49e+00	0	57	104	0	68	13416
2026-01-01 10:07:01.73	183.20	45.85	-52.8	-64.3	3.8	1.49e+00	0	57	104	0	68	13502
2026-01-01 10:07:04.70	183.88	46.69	-52.8	-64.2	3.8	1.49e+00	0	57	104	0	68	13329
2026-01-01 10:07:07.66	184.60	47.54	-52.7	-64.2	3.8	1.49e+00	0	57	104	0	68	13346
2026-01-01 10:07:10.64	185.36	48.41	-52.7	-64.0	3.8	1.49e+00	0	57	104	0	68	13058
2026-01-01 10:07:13.60	186.16	49.29	-52.5	-63.8	3.8	1.49e+00	0	57	104	0	67	13538
2026-01-01 10:07:16.58	187.01	50.18	-52.6	-63.9	3.8	1.49e+00	0	57	104	0	67	13648
2026-01-01 10:07:19.56	187.91	51.08	-51.1	-55.6	7.2	2.76e-01	0	57	0	1048576	65	5903
2026-01-01 10:07:22.54	188.86	52.00	-50.3	-53.6	9.3	2.45e-02	0	57	0	9437184	63	5266
2026-01-01 10:07:25.50	189.87	52.91	-48.3	-50.3	12.7	1.33e-04	0	57	0	18874368	59	4503
2026-01-01 10:07:28.47	190.95	53.84	-46.7	-48.1	15.0	0.00e+00	0	57	0	28311552	56	4178
2026-01-01 10:07:31.41	192.09	54.76	-45.9	-47.0	16.0	0.00e+00	0	57	0	37748736	54	4142
2026-01-01 10:07:34.38	193.31	55.70	-44.9	-45.9	17.2	0.00e+00	0	57	0	47185920	52	4056
2026-01-01 10:07:37.35	194.62	56.64	-44.5	-45.4	17.6	0.00e+00	0	57	0	56623104	52	3830
2026-01-01 10:07:40.33	196.03	57.58	-44.6	-45.5	17.4	0.00e+00	0	57	0	65011712	52	3900
2026-01-01 10:07:43.30	197.53	58.52	-44.4	-45.3	17.8	0.00e+00	0	57	0	74448896	51	4009
2026-01-01 10:07:46.26	199.13	59.45	-43.8	-44.5	18.4	0.00e+00	0	57	0	83886080	50	3901
2026-01-01 10:07:49.24	200.86	60.38	-43.8	-44.5	18.3	0.00e+00	0	58	0	93323264	50	3898
2026-01-01 10:07:52.20	202.71	61.29	-44.3	-45.1	17.9	0.00e+00	0	57	0	102760448	50	4175
2026-01-01 10:07:55.17	204.71	62.19	-44.2	-45.0	18.0	0.00e+00	0	57	0	112197632	50	4118
2026-01-01 10:07:58.14	206.85	63.07	-44.4	-45.3	17.7	0.00e+00	0	57	0	120586240	50	4273
2026-01-01 10:08:01.10	209.15	63.93	-43.9	-44.7	18.3	0.00e+00	0	57	0	130023424	50	3970
2026-01-01 10:08:04.07	211.62	64.75	-43.3	-44.1	18.8	0.00e+00	0	57	0	139460608	49	3914
2026-01-01 10:08:07.03	214.27	65.54	-43.0	-43.7	19.1	0.00e+00	0	57	0	148897792	48	3989
2026-01-01 10:08:10.01	217.13	66.29	-43.5	-44.3	18.6	0.00e+00	0	57	0	158334976	48	4279
2026-01-01 10:08:12.97	220.16	66.98	-43.6	-44.4	18.6	0.00e+00	0	58	0	167772160	49	4053
2026-01-01 10:08:15.95	223.41	67.62	-43.1	-43.8	19.1	0.00e+00	0	57	0	177209344	49	3807
2026-01-01 10:08:18.93	226.87	68.20	-42.6	-43.3	19.6	0.00e+00	0	57	0	185597952	48	3789
2026-01-01 10:08:21.89	230.48	68.70	-42.9	-43.6	19.3	0.00e+00	0	57	0	195035136	48	3936
2026-01-01 10:08:24.85	234.26	69.11	-42.6	-43.3	19.4	0.00e+00	0	57	0	204472320	47	4016
2026-01-01 10:08:27.82	238.21	69.45	-42.6	-43.3	19.5	0.00e+00	0	57	0	213909504	47	4016
2026-01-01 10:08:30.77	242.25	69.69	-42.9	-43.7	19.1	0.00e+00	0	58	0	223346688	47	4203
2026-01-01 10:08:33.72	246.38	69.84	-43.7	-44.5	18.5	0.00e+00	0	57	0	231735296	49	4108
2026-01-01 10:08:36.68	250.55	69.88	-43.1	-43.8	19.0	0.00e+00	0	57	0	241172480	49	3808
2026-01-01 10:08:39.64	254.73	69.83	-43.5	-44.3	18.6	0.00e+00	0	58	0	250609664	49	4051
2026-01-01 10:08:42.62	258.89	69.68	-43.3	-44.1	18.9	0.00e+00	0	57	0	260046848	49	3917
2026-01-01 10:08:45.59	262.96	69.43	-42.9	-43.6	19.4	0.00e+00	0	57	0	269484032	48	3914
2026-01-01 10:08:48.58	266.92	69.09	-43.1	-43.9	19.1	0.00e+00	0	58	0	278921216	48	4060
2026-01-01 10:08:51.55	270.71	68.67	-43.6	-44.4	18.6	0.00e+00	0	58	0	288358400	49	4083
2026-01-01 10:08:54.51	274.31	68.16	-42.6	-43.2	19.6	0.00e+00	0	57	0	296747008	48	3777
2026-01-01 10:08:57.48	277.73	67.59	-43.0	-43.8	19.1	0.00e+00	0	57	0	306184192	48	4005
2026-01-01 10:09:00.45	280.96	66.95	-42.8	-43.5	19.5	0.00e+00	0	57	0	315621376	48	3871
2026-01-01 10:09:03.42	283.99	66.25	-43.7	-44.5	18.5	0.00e+00	0	57	0	325058560	49	4113
2026-01-01 10:09:06.39	286.82	65.50	-43.4	-44.1	18.8	0.00e+00	0	57	0	334495744	49	3949
2026-01-01 10:09:09.37	289.48	64.71	-43.8	-44.5	18.4	0.00e+00	0	58	0	343932928	49	4144
2026-01-01 10:09:12.34	291.94	63.88	-43.8	-44.6	18.3	0.00e+00	0	57	0	353370112	49	4178
2026-01-01 10:09:15.29	294.22	63.03	-44.8	-45.7	17.3	0.00e+00	0	57	0	361758720	51	4220
2026-01-01 10:09:18.27	296.36	62.15	-44.2	-45.0	17.9	0.00e+00	0	57	0	371195904	51	3885
2026-01-01 10:09:21.22	298.33	61.26	-44.6	-45.5	17.5	0.00e+00	0	57	0	380633088	51	4137
2026-01-01 10:09:24.19	300.17	60.35	-44.8	-45.8	17.1	0.00e+00	0	58	0	390070272	52	4023
2026-01-01 10:09:27.17	301.90	59.42	-42.8	-43.5	19.4	0.00e+00	0	57	0	399507456	48	3870
2026-01-01 10:09:30.13	303.49	58.49	-45.0	-46.1	16.9	0.00e+00	0	57	0	408944640	52	4171
2026-01-01 10:09:33.09	304.98	57.56	-44.1	-45.0	17.6	0.00e+00	0	57	0	417333248	51	3885
2026-01-01 10:09:36.07	306.38	56.62	-44.0	-44.8	18.1	0.00e+00	0	58	0	426770432	51	3812
2026-01-01 10:09:39.03	307.68	55.68	-45.8	-47.1	15.9	0.00e+00	0	58	0	436207616	53	4395
2026-01-01 10:09:42.00	308.90	54.75	-45.3	-46.4	16.1	0.00e+00	0	57	0	445644800	53	4065
2026-01-01 10:09:44.98	310.05	53.82	-45.2	-46.2	16.6	0.00e+00	0	58	0	455081984	52	4239
2026-01-01 10:09:47.96	311.12	52.89	-47.2	-48.8	14.3	0.00e+00	0	58	0	464519168	56	4524
2026-01-01 10:09:50.94	312.13	51.97	-46.5	-47.8	15.1	0.00e+00	0	57	0	473956352	56	4024
2026-01-01 10:09:53.89	313.08	51.07	-45.6	-46.8	16.1	0.00e+00	0	57	0	483393536	53	4253
2026-01-01 10:09:56.87	313.97	50.17	-47.1	-48.7	14.3	7.00e-07	0	57	0	491782144	55	4723
2026-01-01 10:09:59.85	314.82	49.28	-48.5	-50.8	12.2	4.20e-04	0	58	0	501219328	59	4763
2026-01-01 10:10:02.82	315.62	48.41	-45.6	-46.7	15.9	0.00e+00	0	57	0	510656512	54	3984
2026-01-01 10:10:05.79	316.37	47.55	-46.0	-47.2	15.7	0.00e+00	0	58	0	520093696	54	4224
2026-01-01 10:10:08.75	317.09	46.70	-46.7	-48.2	14.8	0.00e+00	0	58	0	529530880	55	4456
2026-01-01 10:10:11.73	317.77	45.86	-47.4	-49.1	13.9	2.20e-06	0	57	0	538968064	56	4693
2026-01-01 10:10:14.69	318.41	45.04	-47.4	-49.1	14.0	2.20e-06	0	57	0	547356672	57	4419
2026-01-01 10:10:17.66	319.02	44.23	-47.6	-49.4	13.6	3.80e-06	0	58	0	556793856	57	4573
2026-01-01 10:10:20.63	319.60	43.43	-48.6	-50.8	12.3	2.07e-04	0	57	0	566231040	59	4760
2026-01-01 10:10:23.60	320.16	42.64	-47.5	-49.2	13.8	3.80e-06	0	58	0	575668224	58	4233
2026-01-01 10:10:26.58	320.69	41.87	-47.8	-49.6	13.5	4.50e-06	0	57	0	585105408	58	4398
2026-01-01 10:10:29.54	321.20	41.12	-46.2	-47.4	15.5	0.00e+00	0	57	0	594542592	55	4097
2026-01-01 10:10:32.50	321.68	40.37	-46.5	-47.9	15.1	0.00e+00	0	57	0	603979776	55	4309
2026-01-01 10:10:35.48	322.14	39.64	-46.5	-47.9	15.1	7.00e-07	0	58	0	612368384	55	4300
2026-01-01 10:10:38.45	322.58	38.92	-46.6	-48.0	14.8	0.00e+00	0	58	0	621805568	55	4345
2026-01-01 10:10:41.43	323.01	38.22	-46.5	-47.8	15.0	0.00e+00	0	57	0	631242752	55	4285
2026-01-01 10:10:44.40	323.42	37.52	-45.6	-46.7	16.2	0.00e+00	0	58	0	640679936	54	3986
2026-01-01 10:10:47.37	323.81	36.85	-45.5	-46.7	16.2	0.00e+00	0	58	0	650117120	53	4202
2026-01-01 10:10:50.34	324.18	36.18	-45.6	-46.7	16.2	0.00e+00	0	57	0	659554304	53	4224
2026-01-01 10:10:53.31	324.55	35.53	-45.6	-46.7	16.2	0.00e+00	0	57	0	668991488	53	4210
2026-01-01 10:10:56.29	324.90	34.88	-46.3	-47.6	15.4	0.00e+00	0	57	0	677380096	54	4394
2026-01-01 10:10:59.25	325.23	34.25	-47.0	-48.6	14.3	3.00e-06	0	57	0	686817280	55	4701
2026-01-01 10:11:02.22	325.55	33.63	-46.0	-47.3	15.6	0.00e+00	0	57	0	696254464	55	4024
2026-01-01 10:11:05.19	325.86	33.03	-45.9	-47.1	15.7	0.00e+00	0	58	0	705691648	54	4183
2026-01-01 10:11:08.15	326.16	32.43	-44.9	-45.9	16.9	0.00e+00	0	58	0	715128832	53	3851
2026-01-01 10:11:11.11	326.45	31.85	-44.9	-46.0	16.9	0.00e+00	0	57	0	724566016	53	3877
2026-01-01 10:11:14.09	326.73	31.27	-44.4	-45.3	17.6	0.00e+00	0	58	0	732954624	51	4033
2026-01-01 10:11:17.05	327.00	30.71	-44.5	-45.5	17.5	0.00e+00	0	58	0	742391808	51	4103
2026-01-01 10:11:20.03	327.27	30.16	-44.7	-45.7	17.2	0.00e+00	0	58	0	751828992	51	4203
2026-01-01 10:11:23.01	327.52	29.61	-45.2	-46.2	16.6	0.00e+00	0	58	0	761266176	52	4229
2026-01-01 10:11:26.00	327.77	29.07	-45.1	-46.1	16.7	0.00e+00	0	58	0	770703360	52	4192
2026-01-01 10:11:28.96	328.01	28.55	-45.1	-46.2	16.7	0.00e+00	0	58	0	780140544	52	4210
2026-01-01 10:11:31.92	328.24	28.04	-45.2	-46.3	16.6	0.00e+00	0	57	0	789577728	52	4248
2026-01-01 10:11:34.89	328.46	27.53	-45.0	-46.0	16.8	0.00e+00	0	58	0	797966336	52	4108
2026-01-01 10:11:37.85	328.68	27.03	-44.9	-45.9	16.9	0.00e+00	0	58	0	807403520	52	4059
2026-01-01 10:11:40.82	328.89	26.54	-44.3	-45.2	17.7	0.00e+00	0	58	0	816840704	51	3988
2026-01-01 10:11:43.79	329.10	26.06	-44.1	-44.9	18.0	0.00e+00	0	57	0	826277888	51	3851
2026-01-01 10:11:46.76	329.30	25.59	-44.2	-45.1	17.7	0.00e+00	0	58	0	835715072	51	3940
2026-01-01 10:11:49.74	329.50	25.13	-43.8	-44.6	18.3	0.00e+00	0	57	0	845152256	50	3921
2026-01-01 10:11:52.71	329.69	24.67	-43.8	-44.6	18.2	0.00e+00	0	57	0	854589440	50	3946
2026-01-01 10:11:55.68	329.87	24.22	-44.0	-44.8	18.0	0.00e+00	0	57	0	862978048	50	4033
2026-01-01 10:11:58.65	330.05	23.78	-44.2	-45.0	17.8	0.00e+00	0	58	0	872415232	50	4127
2026-01-01 10:12:01.61	330.22	23.34	-44.3	-45.2	17.6	0.00e+00	0	58	0	881852416	50	4216
2026-01-01 10:12:04.58	330.40	22.92	-44.9	-45.8	17.0	0.00e+00	0	58	0	891289600	51	4275
2026-01-01 10:12:07.53	330.56	22.50	-44.7	-45.7	17.1	0.00e+00	0	58	0	900726784	51	4209
2026-01-01 10:12:10.48	330.72	22.09	-45.0	-46.0	16.9	0.00e+00	0	57	0	909115392	51	4349
2026-01-01 10:12:13.46	330.88	21.68	-45.0	-46.0	16.7	0.00e+00	0	58	0	918552576	52	4145
2026-01-01 10:12:16.44	331.04	21.27	-44.4	-45.4	17.4	0.00e+00	0	58	0	927989760	51	4057
2026-01-01 10:12:19.41	331.19	20.88	-44.4	-45.3	17.5	0.00e+00	0	58	0	937426944	51	4015
2026-01-01 10:12:22.38	331.34	20.49	-44.3	-45.2	17.6	0.00e+00	0	58	0	946864128	51	3987
2026-01-01 10:12:25.34	331.48	20.11	-44.4	-45.4	17.4	0.00e+00	0	57	0	956301312	51	4059
2026-01-01 10:12:28.32	331.62	19.73	-44.5	-45.5	17.3	0.00e+00	0	57	0	965738496	51	4128
2026-01-01 10:12:31.28	331.76	19.36	-44.9	-45.8	17.0	0.00e+00	0	57	0	974127104	51	4290
2026-01-01 10:12:34.25	331.89	18.99	-44.6	-45.6	17.1	0.00e+00	0	58	0	983564288	52	3930
2026-01-01 10:12:37.21	332.03	18.63	-44.7	-45.7	17.0	0.00e+00	0	58	0	993001472	52	3966
2026-01-01 10:12:40.18	332.16	18.27	-44.6	-45.5	17.1	0.00e+00	0	58	0	1002438656	52	3911
2026-01-01 10:12:43.14	332.28	17.92	-44.7	-45.6	17.0	0.00e+00	0	57	0	1011875840	52	3952
2026-01-01 10:12:46.12	332.41	17.57	-45.1	-46.1	16.5	0.00e+00	0	58	0	1021313024	52	4178
2026-01-01 10:12:49.09	332.53	17.23	-44.9	-46.0	16.7	0.00e+00	0	58	0	1030750208	52	4105
2026-01-01 10:12:52.07	332.65	16.89	-45.2	-46.3	16.4	0.00e+00	0	58	0	1039138816	52	4247
2026-01-01 10:12:55.03	332.76	16.56	-45.1	-46.2	16.4	0.00e+00	0	57	0	1048576000	52	4206
2026-01-01 10:12:58.00	332.88	16.23	-45.4	-46.6	16.1	0.00e+00	0	58	0	1058013184	52	4404
2026-01-01 10:13:00.98	332.99	15.91	-44.8	-45.8	16.8	0.00e+00	0	58	0	1067450368	52	4028
2026-01-01 10:13:03.95	333.10	15.59	-44.9	-45.9	16.6	0.00e+00	0	58	0	1076887552	52	4097
2026-01-01 10:13:06.92	333.21	15.27	-45.1	-46.2	16.5	0.00e+00	0	58	0	1086324736	52	4194
2026-01-01 10:13:09.90	333.32	14.96	-44.9	-46.0	16.6	0.00e+00	0	57	0	1095761920	52	4119
2026-01-01 10:13:12.86	333.42	14.65	-45.1	-46.2	16.3	0.00e+00	0	57	0	1104150528	52	4238
2026-01-01 10:13:15.82	333.52	14.35	-44.7	-45.8	16.8	0.00e+00	0	58	0	1113587712	52	4010
2026-01-01 10:13:18.79	333.63	14.04	-44.9	-45.9	16.6	0.00e+00	0	58	0	1123024896	52	4089
2026-01-01 10:13:21.74	333.72	13.75	-44.8	-45.8	16.7	0.00e+00	0	57	0	1132462080	52	4036
2026-01-01 10:13:24.70	333.82	13.46	-45.0	-46.1	16.4	0.00e+00	0	58	0	1141899264	52	4166
2026-01-01 10:13:27.67	333.92	13.17	-45.2	-46.4	16.2	0.00e+00	0	57	0	1151336448	52	4303
2026-01-01 10:13:30.63	334.01	12.88	-45.1	-46.3	16.2	0.00e+00	0	57	0	1159725056	52	4271
2026-01-01 10:13:33.60	334.10	12.60	-45.3	-46.5	16.0	0.00e+00	0	57	0	1169162240	52	4347
2026-01-01 10:13:36.58	334.19	12.32	-45.4	-46.6	15.9	0.00e+00	0	58	0	1178599424	52	4413
2026-01-01 10:13:39.53	334.28	12.04	-45.5	-46.8	15.7	0.00e+00	0	57	0	1188036608	52	4504
2026-01-01 10:13:42.50	334.37	11.77	-45.7	-47.0	15.5	0.00e+00	0	57	0	1197473792	53	4350
2026-01-01 10:13:45.47	334.46	11.50	-45.9	-47.3	15.2	0.00e+00	0	57	0	1206910976	53	4503
2026-01-01 10:13:48.45	334.54	11.23	-45.8	-47.1	15.3	0.00e+00	0	58	0	1216348160	53	4421
2026-01-01 10:13:51.43	334.63	10.96	-46.1	-47.5	14.8	0.00e+00	0	58	0	1224736768	54	4377
2026-01-01 10:13:54.40	334.71	10.70	-46.5	-48.0	14.4	1.50e-06	0	58	0	1234173952	55	4370
2026-01-01 10:13:57.36	334.79	10.44	-45.7	-47.0	15.3	0.00e+00	0	58	0	1243611136	54	4128
2026-01-01 10:14:00.33	334.87	10.18	-45.6	-46.9	15.4	0.00e+00	0	57	0	1253048320	54	4078
2026-01-01 10:14:03.30	334.95	9.93	-45.9	-47.3	15.0	0.00e+00	0	57	0	1262485504	54	4266
2026-01-01 10:14:06.28	335.03	9.67	-45.8	-47.2	15.1	0.00e+00	0	58	0	1271922688	54	4212
2026-01-01 10:14:09.25	335.11	9.43	-46.0	-47.4	14.9	0.00e+00	0	58	0	1280311296	54	4327
2026-01-01 10:14:12.22	335.19	9.18	-46.1	-47.5	14.8	0.00e+00	0	58	0	1289748480	54	4368
2026-01-01 10:14:15.18	335.26	8.93	-46.3	-47.7	14.5	3.00e-06	0	58	0	1299185664	54	4485
2026-01-01 10:14:18.15	335.33	8.69	-46.2	-47.6	14.6	0.00e+00	0	58	0	1308622848	54	4441
2026-01-01 10:14:21.13	335.41	8.45	-46.2	-47.7	14.5	7.00e-07	0	58	0	1318060032	54	4457
2026-01-01 10:14:24.09	335.48	8.21	-46.0	-47.5	14.6	7.00e-07	0	58	0	1327497216	54	4386
2026-01-01 10:14:27.04	335.55	7.98	-46.0	-47.5	14.7	7.00e-07	0	58	0	1336934400	54	4372
2026-01-01 10:14:30.01	335.62	7.75	-46.2	-47.7	14.4	2.20e-06	0	57	0	1345323008	54	4473
2026-01-01 10:14:32.97	335.69	7.52	-46.1	-47.7	14.4	0.00e+00	0	58	0	1354760192	54	4443
2026-01-01 10:14:35.94	335.76	7.29	-46.3	-47.9	14.2	0.00e+00	0	58	0	1364197376	54	4550
2026-01-01 10:14:38.91	335.83	7.06	-46.5	-48.2	13.9	7.00e-07	0	58	0	1373634560	54	4708
2026-01-01 10:14:41.88	335.89	6.84	-46.7	-48.4	13.6	6.10e-06	0	58	0	1383071744	55	4578
2026-01-01 10:14:44.85	335.96	6.61	-46.9	-48.7	13.3	8.30e-06	0	58	0	1392508928	55	4723
2026-01-01 10:14:47.81	336.02	6.39	-47.0	-48.8	13.2	1.83e-05	0	58	0	1400897536	55	4768
2026-01-01 10:14:50.79	336.09	6.17	-46.9	-48.7	13.4	7.60e-06	0	58	0	1410334720	56	4459
2026-01-01 10:14:53.75	336.15	5.95	-46.9	-48.6	13.4	1.52e-05	0	57	0	1419771904	56	4437
2026-01-01 10:14:56.72	336.21	5.74	-47.0	-48.8	13.2	2.13e-05	0	58	0	1429209088	56	4526
2026-01-01 10:14:59.69	336.28	5.52	-47.2	-49.1	12.9	4.34e-05	0	58	0	1438646272	56	4663
2026-01-01 10:15:02.65	336.34	5.31	-47.3	-49.3	12.7	5.49e-05	0	58	0	1448083456	56	4792
2026-01-01 10:15:05.63	336.40	5.10	-47.4	-49.5	12.5	1.09e-04	0	58	0	1456472064	56	4882
2026-01-01 10:15:08.59	336.46	4.89	-52.0	-63.3	3.8	1.49e+00	0	58	104	1461714944	65	14273
2026-01-01 10:15:11.56	336.52	4.68	-52.4	-63.9	3.8	1.49e+00	0	58	104	1461714944	66	14382
2026-01-01 10:15:14.54	336.58	4.48	-52.4	-64.0	3.8	1.49e+00	0	58	104	1461714944	66	14552
2026-01-01 10:15:17.51	336.64	4.27	-52.6	-64.1	3.8	1.49e+00	0	58	104	1461714944	67	13927
2026-01-01 10:15:20.47	336.69	4.07	-52.7	-64.2	3.8	1.49e+00	0	58	104	1461714944	67	14051
2026-01-01 10:15:23.45	336.75	3.87	-52.8	-64.2	3.8	1.49e+00	0	58	104	1461714944	67	14177
2026-01-01 10:15:26.42	336.81	3.67	-52.8	-64.2	3.8	1.49e+00	0	58	104	1461714944	67	14191
2026-01-01 10:15:29.39	336.86	3.47	-52.8	-64.3	3.8	1.49e+00	0	58	104	1461714944	67	14238
2026-01-01 10:15:32.36	336.92	3.27	-52.9	-64.3	3.8	1.49e+00	0	58	104	1461714944	67	14278
2026-01-01 10:15:35.33	336.97	3.08	-52.8	-64.3	3.8	1.49e+00	0	58	104	1461714944	67	14241

#Closed at: 2026-01-01 10:15:37
#Recorded file [1461 MB]: D:/Data/31026_260101_131507.dat