passes_logs/2026/01/01/R3.0SM8_Murmansk_STILSPACE/R3.0SM8_Murmansk_STILSPACE__20260101_014211_FENGYUN_3E_rec.log

#Pass ID: 20260101_014211_FENGYUN 3E
#Satellite: FENGYUN 3E
#Configuration: FENGYUN 3E
#almurnet v.1.7.20240730
#Start time: 2026-01-01 01:47:08

#Version: 2.2.20231116
#Station: R3.0SM8_Murmansk_STILSPACE
#Location: 33.092731 lon 68.902999 lat
#TLE: 1 49008U 21062A   25365.55977344  .00000403  00000+0  21051-3 0  9995
#TLE: 2 49008  98.7483   5.8586 0001311 170.0615 190.0588 14.19883886232790

#Time	Az	El	Level	Level2	SNR	BER	BlckErr	Temp	State	Recorded	gain1	gain2
2026-01-01 01:47:08.30	66.33	13.47	-54.8	-74.7	3.8	7.47e-01	0	61	0	0	71	38452
2026-01-01 01:47:10.26	66.72	13.48	-53.0	-63.3	3.8	8.46e-01	0	62	104	0	68	11855
2026-01-01 01:47:12.23	67.12	13.49	-53.1	-63.3	3.8	8.47e-01	0	62	104	0	68	11919
2026-01-01 01:47:14.21	67.52	13.50	-52.9	-63.3	3.8	8.46e-01	0	62	104	0	68	11846
2026-01-01 01:47:16.17	67.91	13.51	-52.9	-63.3	3.8	8.46e-01	0	62	104	0	68	11837
2026-01-01 01:47:18.14	68.31	13.52	-53.1	-63.3	3.8	8.45e-01	0	62	104	0	68	11885
2026-01-01 01:47:20.10	68.70	13.52	-53.1	-63.3	3.8	8.48e-01	0	62	104	0	68	11827
2026-01-01 01:47:22.08	69.10	13.52	-53.1	-63.2	3.8	8.46e-01	0	62	104	0	68	11802
2026-01-01 01:47:24.06	69.50	13.53	-53.0	-63.2	3.8	8.45e-01	0	62	104	0	68	11705
2026-01-01 01:47:26.02	69.90	13.53	-53.0	-63.2	3.8	8.46e-01	0	62	104	0	68	11699
2026-01-01 01:47:27.99	70.30	13.53	-53.0	-63.1	3.8	8.46e-01	0	62	104	0	68	11678
2026-01-01 01:47:29.96	70.69	13.53	-52.9	-63.0	3.8	8.46e-01	0	62	104	0	68	11527
2026-01-01 01:47:31.93	71.09	13.53	-52.7	-62.9	3.8	8.47e-01	0	62	104	0	68	11378
2026-01-01 01:47:33.91	71.49	13.52	-52.7	-62.6	3.8	8.46e-01	0	62	104	0	68	10989
2026-01-01 01:47:35.88	71.89	13.52	-52.6	-62.3	3.8	8.46e-01	0	62	104	0	67	11281
2026-01-01 01:47:37.85	72.28	13.51	-52.6	-62.2	3.8	8.45e-01	0	62	104	0	67	11102
2026-01-01 01:47:39.82	72.68	13.50	-52.6	-62.2	3.8	8.47e-01	0	62	104	0	67	11125
2026-01-01 01:47:41.79	73.08	13.49	-52.6	-62.2	3.8	8.45e-01	0	62	104	0	67	11083
2026-01-01 01:47:43.76	73.47	13.48	-52.4	-62.0	3.8	8.46e-01	0	62	104	0	67	10839
2026-01-01 01:47:45.74	73.87	13.47	-52.5	-61.9	3.8	8.47e-01	0	62	104	0	67	10775
2026-01-01 01:47:47.72	74.27	13.46	-52.6	-62.3	3.8	8.46e-01	0	62	104	0	67	11258
2026-01-01 01:47:49.68	74.66	13.45	-52.4	-62.4	3.8	8.45e-01	0	62	104	0	67	11396
2026-01-01 01:47:51.65	75.06	13.43	-52.6	-62.1	3.8	8.47e-01	0	62	104	0	67	10959
2026-01-01 01:47:53.62	75.45	13.42	-52.4	-61.9	3.8	8.46e-01	0	62	104	0	67	10716
2026-01-01 01:47:55.60	75.85	13.40	-52.5	-62.3	3.8	8.46e-01	0	62	104	0	67	11213
2026-01-01 01:47:57.57	76.24	13.38	-52.2	-59.8	4.1	8.44e-01	0	62	104	0	67	8377
2026-01-01 01:47:59.49	76.63	13.36	-50.5	-54.2	7.2	1.67e-01	0	62	0	4194304	64	5257
2026-01-01 01:48:01.42	77.01	13.34	-48.3	-50.2	11.5	1.57e-03	0	62	0	17825792	59	4406
2026-01-01 01:48:03.34	77.40	13.32	-47.8	-49.4	12.3	1.19e-04	0	62	0	32505856	58	4266
2026-01-01 01:48:05.28	77.78	13.30	-47.7	-49.3	12.5	1.45e-04	0	62	0	46137344	58	4207
2026-01-01 01:48:07.21	78.16	13.27	-47.4	-48.9	12.8	5.60e-05	0	62	0	59768832	57	4290
2026-01-01 01:48:09.14	78.55	13.25	-47.5	-49.1	12.7	6.52e-05	0	62	0	73400320	57	4356
2026-01-01 01:48:11.07	78.93	13.22	-46.9	-48.2	13.6	6.80e-06	0	62	0	88080384	56	4177
2026-01-01 01:48:13.00	79.31	13.19	-46.8	-48.2	13.5	4.50e-06	0	62	0	101711872	55	4407
2026-01-01 01:48:14.92	79.69	13.16	-45.6	-46.7	15.1	0.00e+00	0	62	0	115343360	54	3917
2026-01-01 01:48:16.85	80.07	13.14	-44.7	-45.7	16.1	0.00e+00	0	62	0	130023424	51	4157
2026-01-01 01:48:18.78	80.45	13.10	-43.8	-44.6	17.2	0.00e+00	0	62	0	143654912	50	3879
2026-01-01 01:48:20.72	80.83	13.07	-43.2	-43.9	17.9	0.00e+00	0	62	0	157286400	49	3790
2026-01-01 01:48:22.65	81.21	13.04	-42.9	-43.6	18.1	0.00e+00	0	62	0	171966464	48	3891
2026-01-01 01:48:24.59	81.59	13.01	-43.0	-43.7	18.1	0.00e+00	0	62	0	185597952	48	3940
2026-01-01 01:48:26.52	81.96	12.97	-43.3	-44.0	17.7	0.00e+00	0	62	0	199229440	48	4089
2026-01-01 01:48:28.45	82.34	12.93	-43.3	-44.0	17.8	0.00e+00	0	62	0	213909504	48	4081
2026-01-01 01:48:30.38	82.71	12.90	-43.7	-44.4	17.3	0.00e+00	0	62	0	227540992	49	4048
2026-01-01 01:48:32.31	83.09	12.86	-43.1	-43.7	18.0	0.00e+00	0	62	0	241172480	49	3730
2026-01-01 01:48:34.24	83.46	12.82	-43.0	-43.6	18.1	0.00e+00	0	62	0	254803968	48	3900
2026-01-01 01:48:36.17	83.83	12.78	-42.9	-43.6	18.2	0.00e+00	0	62	0	269484032	48	3882
2026-01-01 01:48:38.11	84.20	12.74	-43.2	-43.8	17.9	0.00e+00	0	62	0	283115520	48	3996
2026-01-01 01:48:40.04	84.57	12.70	-43.2	-43.9	17.9	0.00e+00	0	62	0	296747008	48	4023
2026-01-01 01:48:41.97	84.94	12.65	-43.1	-43.8	18.0	0.00e+00	0	62	0	311427072	48	3961
2026-01-01 01:48:43.92	85.31	12.61	-43.3	-44.0	17.8	0.00e+00	0	62	0	325058560	48	4060
2026-01-01 01:48:45.85	85.68	12.56	-43.3	-44.0	17.8	0.00e+00	0	62	0	338690048	48	4062
2026-01-01 01:48:47.77	86.04	12.52	-43.6	-44.3	17.4	0.00e+00	0	62	0	353370112	48	4223
2026-01-01 01:48:49.70	86.41	12.47	-43.4	-44.2	17.6	0.00e+00	0	62	0	367001600	48	4151
2026-01-01 01:48:51.63	86.77	12.42	-43.2	-43.9	17.8	0.00e+00	0	62	0	380633088	48	4047
2026-01-01 01:48:53.56	87.13	12.37	-43.3	-44.0	17.7	0.00e+00	0	62	0	394264576	48	4076
2026-01-01 01:48:55.49	87.49	12.32	-43.6	-44.3	17.4	0.00e+00	0	62	0	408944640	48	4221
2026-01-01 01:48:57.42	87.85	12.27	-43.5	-44.2	17.5	0.00e+00	0	62	0	422576128	49	3936
2026-01-01 01:48:59.35	88.21	12.22	-43.7	-44.4	17.3	0.00e+00	0	62	0	436207616	49	4043
2026-01-01 01:49:01.28	88.57	12.17	-43.9	-44.7	17.1	0.00e+00	0	62	0	449839104	49	4170
2026-01-01 01:49:03.21	88.92	12.11	-44.0	-44.8	16.9	0.00e+00	0	62	0	464519168	49	4214
2026-01-01 01:49:05.14	89.28	12.06	-44.1	-45.0	16.8	0.00e+00	0	62	0	478150656	49	4298
2026-01-01 01:49:07.07	89.63	12.00	-44.2	-45.0	16.7	0.00e+00	0	62	0	491782144	50	4089
2026-01-01 01:49:09.06	89.99	11.94	-44.1	-44.9	16.8	0.00e+00	0	62	0	506462208	50	4013
2026-01-01 01:49:11.01	90.35	11.89	-43.8	-44.6	17.1	0.00e+00	0	62	0	521142272	50	3908
2026-01-01 01:49:12.94	90.70	11.83	-43.8	-44.6	17.1	0.00e+00	0	62	0	534773760	50	3893
2026-01-01 01:49:14.88	91.05	11.77	-43.7	-44.5	17.2	0.00e+00	0	62	0	548405248	50	3850
2026-01-01 01:49:16.81	91.39	11.71	-43.7	-44.5	17.3	0.00e+00	0	62	0	563085312	50	3836
2026-01-01 01:49:18.75	91.74	11.65	-43.8	-44.6	17.1	0.00e+00	0	62	0	576716800	50	3897
2026-01-01 01:49:20.69	92.09	11.59	-43.8	-44.6	17.1	0.00e+00	0	62	0	590348288	50	3888
2026-01-01 01:49:22.62	92.43	11.53	-43.9	-44.7	17.0	0.00e+00	0	62	0	603979776	50	3949
2026-01-01 01:49:24.54	92.77	11.46	-43.3	-44.4	17.1	0.00e+00	0	62	0	618659840	49	4043
2026-01-01 01:49:26.47	93.11	11.40	-43.1	-44.3	17.3	0.00e+00	0	62	0	632291328	49	3959
2026-01-01 01:49:28.41	93.45	11.34	-43.4	-44.6	17.0	0.00e+00	0	62	0	645922816	49	4108
2026-01-01 01:49:30.34	93.78	11.27	-43.2	-44.3	17.2	0.00e+00	0	62	0	659554304	49	3984
2026-01-01 01:49:32.26	94.12	11.21	-43.5	-44.7	16.8	0.00e+00	0	62	0	674234368	49	4189
2026-01-01 01:49:34.20	94.45	11.14	-43.6	-44.8	16.7	0.00e+00	0	62	0	687865856	49	4219
2026-01-01 01:49:36.13	94.79	11.07	-43.8	-45.1	16.4	0.00e+00	0	62	0	701497344	49	4357
2026-01-01 01:49:38.06	95.12	11.01	-43.4	-44.6	17.0	0.00e+00	0	62	0	716177408	49	4102
2026-01-01 01:49:39.99	95.45	10.94	-43.2	-44.3	17.2	0.00e+00	0	62	0	729808896	49	4001
2026-01-01 01:49:41.91	95.77	10.87	-43.2	-44.3	17.2	0.00e+00	0	62	0	743440384	49	3998
2026-01-01 01:49:43.84	96.10	10.80	-43.1	-44.3	17.2	0.00e+00	0	62	0	757071872	48	4216
2026-01-01 01:49:45.77	96.43	10.73	-43.5	-44.7	16.8	0.00e+00	0	62	0	771751936	48	4410
2026-01-01 01:49:47.70	96.75	10.66	-43.6	-44.9	16.6	0.00e+00	0	62	0	785383424	49	4248
2026-01-01 01:49:49.63	97.07	10.59	-43.6	-44.9	16.6	0.00e+00	0	62	0	799014912	49	4280
2026-01-01 01:49:51.56	97.39	10.52	-43.7	-44.9	16.5	0.00e+00	0	62	0	813694976	49	4282
2026-01-01 01:49:53.49	97.71	10.44	-43.8	-45.1	16.4	0.00e+00	0	62	0	827326464	49	4353
2026-01-01 01:49:55.42	98.03	10.37	-44.0	-45.3	16.2	0.00e+00	0	62	0	840957952	49	4464
2026-01-01 01:49:57.35	98.35	10.30	-43.7	-45.0	16.5	0.00e+00	0	62	0	854589440	49	4314
2026-01-01 01:49:59.28	98.66	10.22	-43.7	-44.9	16.5	0.00e+00	0	62	0	869269504	49	4284
2026-01-01 01:50:01.21	98.97	10.15	-44.0	-45.3	16.2	0.00e+00	0	62	0	882900992	49	4443
2026-01-01 01:50:03.14	99.28	10.07	-43.6	-44.9	16.6	0.00e+00	0	62	0	896532480	49	4270
2026-01-01 01:50:05.06	99.59	10.00	-43.7	-45.0	16.5	0.00e+00	0	62	0	911212544	49	4304
2026-01-01 01:50:07.00	99.90	9.92	-43.8	-45.1	16.4	0.00e+00	0	62	0	924844032	49	4348
2026-01-01 01:50:08.93	100.21	9.85	-43.8	-45.1	16.4	0.00e+00	0	62	0	938475520	49	4389
2026-01-01 01:50:10.87	100.52	9.77	-44.0	-45.3	16.2	0.00e+00	0	62	0	953155584	49	4473
2026-01-01 01:50:12.81	100.82	9.69	-44.2	-45.5	16.0	0.00e+00	0	62	0	966787072	50	4336
2026-01-01 01:50:14.73	101.12	9.61	-44.4	-45.8	15.8	0.00e+00	0	62	0	980418560	50	4461
2026-01-01 01:50:16.65	101.42	9.53	-44.6	-45.9	15.6	0.00e+00	0	62	0	995098624	50	4529
2026-01-01 01:50:18.58	101.72	9.46	-44.5	-45.9	15.6	0.00e+00	0	62	0	1008730112	50	4528
2026-01-01 01:50:20.52	102.02	9.38	-45.0	-46.4	15.1	0.00e+00	0	62	0	1022361600	51	4544
2026-01-01 01:50:22.45	102.32	9.30	-44.8	-46.2	15.3	0.00e+00	0	62	0	1035993088	51	4419
2026-01-01 01:50:24.38	102.61	9.22	-44.9	-46.4	15.0	0.00e+00	0	62	0	1050673152	52	4272
2026-01-01 01:50:26.32	102.91	9.14	-44.5	-45.9	15.6	0.00e+00	0	62	0	1064304640	51	4277
2026-01-01 01:50:28.26	103.20	9.05	-44.4	-45.8	15.7	0.00e+00	0	62	0	1077936128	51	4206
2026-01-01 01:50:30.20	103.49	8.97	-44.7	-46.1	15.4	0.00e+00	0	62	0	1092616192	51	4349
2026-01-01 01:50:32.14	103.78	8.89	-44.4	-45.8	15.7	0.00e+00	0	62	0	1106247680	51	4194
2026-01-01 01:50:34.06	104.06	8.81	-44.3	-45.6	15.8	0.00e+00	0	62	0	1119879168	51	4143
2026-01-01 01:50:36.00	104.35	8.73	-44.4	-45.7	15.8	0.00e+00	0	62	0	1133510656	51	4158
2026-01-01 01:50:37.94	104.64	8.64	-44.6	-45.9	15.6	0.00e+00	0	62	0	1148190720	51	4264
2026-01-01 01:50:39.87	104.92	8.56	-44.6	-45.9	15.5	0.00e+00	0	62	0	1161822208	51	4290
2026-01-01 01:50:41.81	105.20	8.48	-44.2	-45.6	15.9	0.00e+00	0	62	0	1176502272	51	4100
2026-01-01 01:50:43.75	105.48	8.39	-44.2	-45.6	15.9	0.00e+00	0	63	0	1190133760	51	4099
2026-01-01 01:50:45.68	105.76	8.31	-44.7	-46.1	15.4	0.00e+00	0	62	0	1203765248	51	4368
2026-01-01 01:50:47.61	106.03	8.22	-44.6	-46.0	15.4	0.00e+00	0	63	0	1218445312	51	4333
2026-01-01 01:50:49.54	106.31	8.14	-44.6	-46.0	15.4	0.00e+00	0	63	0	1232076800	51	4335
2026-01-01 01:50:51.48	106.58	8.05	-44.8	-46.2	15.2	0.00e+00	0	62	0	1245708288	51	4434
2026-01-01 01:50:53.42	106.85	7.97	-44.5	-45.9	15.5	0.00e+00	0	62	0	1260388352	51	4251
2026-01-01 01:50:55.35	107.12	7.88	-44.3	-45.6	15.7	0.00e+00	0	62	0	1274019840	51	4134
2026-01-01 01:50:57.28	107.39	7.80	-44.1	-45.4	16.0	0.00e+00	0	62	0	1287651328	51	4025
2026-01-01 01:50:59.21	107.66	7.71	-44.4	-45.7	15.7	0.00e+00	0	62	0	1301282816	51	4153
2026-01-01 01:51:01.13	107.92	7.63	-43.9	-45.2	16.2	0.00e+00	0	62	0	1315962880	50	4146
2026-01-01 01:51:03.06	108.19	7.54	-43.9	-45.2	16.2	0.00e+00	0	63	0	1329594368	50	4157
2026-01-01 01:51:04.99	108.45	7.46	-44.2	-45.5	15.9	0.00e+00	0	62	0	1343225856	50	4306
2026-01-01 01:51:06.93	108.71	7.37	-44.4	-45.7	15.7	0.00e+00	0	62	0	1356857344	50	4425
2026-01-01 01:51:08.86	108.97	7.28	-44.5	-45.8	15.5	0.00e+00	0	62	0	1371537408	50	4489
2026-01-01 01:51:10.80	109.23	7.19	-44.6	-46.0	15.3	0.00e+00	0	62	0	1385168896	50	4572
2026-01-01 01:51:12.74	109.49	7.11	-44.5	-45.9	15.4	0.00e+00	0	62	0	1398800384	50	4504
2026-01-01 01:51:14.67	109.74	7.02	-44.8	-46.3	15.1	0.00e+00	0	62	0	1413480448	51	4448
2026-01-01 01:51:16.60	110.00	6.93	-44.5	-45.9	15.4	0.00e+00	0	63	0	1427111936	51	4272
2026-01-01 01:51:18.53	110.25	6.84	-44.4	-45.7	15.6	0.00e+00	0	62	0	1440743424	51	4185
2026-01-01 01:51:20.46	110.50	6.76	-44.6	-46.0	15.3	0.00e+00	0	62	0	1455423488	51	4325
2026-01-01 01:51:22.39	110.75	6.67	-44.3	-45.6	15.7	0.00e+00	0	63	0	1469054976	51	4130
2026-01-01 01:51:24.32	110.99	6.58	-44.1	-45.4	15.9	0.00e+00	0	62	0	1482686464	51	4013
2026-01-01 01:51:26.26	111.24	6.49	-44.2	-45.4	15.8	0.00e+00	0	62	0	1497366528	51	4035
2026-01-01 01:51:28.19	111.49	6.40	-44.3	-45.5	15.7	0.00e+00	0	62	0	1510998016	51	4076
2026-01-01 01:51:30.13	111.73	6.31	-44.4	-45.6	15.6	0.00e+00	0	62	0	1524629504	51	4141
2026-01-01 01:51:32.06	111.97	6.22	-44.5	-45.8	15.4	0.00e+00	0	63	0	1539309568	51	4205
2026-01-01 01:51:33.99	112.21	6.14	-44.6	-46.0	15.2	0.00e+00	0	63	0	1552941056	51	4299
2026-01-01 01:51:35.92	112.45	6.05	-45.0	-46.5	14.7	0.00e+00	0	63	0	1566572544	51	4551
2026-01-01 01:51:37.84	112.69	5.96	-45.2	-46.6	14.5	0.00e+00	0	63	0	1580204032	52	4385
2026-01-01 01:51:39.77	112.93	5.87	-44.9	-46.3	14.8	1.10e-06	0	63	0	1594884096	52	4215
2026-01-01 01:51:41.70	113.16	5.78	-45.0	-46.4	14.7	0.00e+00	0	63	0	1608515584	52	4273
2026-01-01 01:51:43.64	113.39	5.69	-45.0	-46.5	14.6	0.00e+00	0	62	0	1622147072	52	4301
2026-01-01 01:51:45.58	113.63	5.60	-45.1	-46.7	14.4	0.00e+00	0	63	0	1636827136	52	4393
2026-01-01 01:51:47.51	113.86	5.51	-44.9	-46.4	14.6	0.00e+00	0	63	0	1650458624	52	4272
2026-01-01 01:51:49.44	114.09	5.42	-44.9	-46.3	14.7	0.00e+00	0	63	0	1664090112	52	4227
2026-01-01 01:51:51.37	114.32	5.33	-44.7	-46.1	14.9	0.00e+00	0	63	0	1677721600	52	4134
2026-01-01 01:51:53.30	114.54	5.24	-44.7	-46.0	15.0	1.10e-06	0	62	0	1692401664	52	4096
2026-01-01 01:51:55.23	114.77	5.15	-44.5	-45.9	15.1	0.00e+00	0	63	0	1706033152	51	4268
2026-01-01 01:51:57.16	114.99	5.06	-44.8	-46.2	14.8	0.00e+00	0	62	0	1719664640	51	4401
2026-01-01 01:51:59.10	115.22	4.97	-52.1	-62.2	3.8	8.47e-01	0	63	104	1727004672	65	12516
2026-01-01 01:52:01.08	115.44	4.88	-52.6	-62.7	3.8	8.46e-01	0	63	104	1727004672	66	12510
2026-01-01 01:52:03.05	115.67	4.79	-52.7	-62.9	3.8	8.46e-01	0	63	104	1727004672	67	11975
2026-01-01 01:52:05.02	115.89	4.70	-52.8	-63.0	3.8	8.46e-01	0	62	104	1727004672	67	12128
2026-01-01 01:52:06.99	116.11	4.60	-52.8	-63.0	3.8	8.45e-01	0	63	104	1727004672	67	12143
2026-01-01 01:52:08.96	116.33	4.51	-52.9	-63.1	3.8	8.46e-01	0	63	104	1727004672	67	12248
2026-01-01 01:52:10.93	116.55	4.42	-53.0	-63.1	3.8	8.46e-01	0	63	104	1727004672	67	12245
2026-01-01 01:52:12.90	116.77	4.33	-53.0	-63.1	3.8	8.46e-01	0	63	104	1727004672	67	12362
2026-01-01 01:52:14.86	116.99	4.24	-53.0	-63.2	3.8	8.46e-01	0	63	104	1727004672	67	12489
2026-01-01 01:52:16.84	117.20	4.14	-53.0	-63.2	3.8	8.46e-01	0	63	104	1727004672	67	12468
2026-01-01 01:52:18.80	117.42	4.05	-53.0	-63.2	3.8	8.46e-01	0	63	104	1727004672	67	12420
2026-01-01 01:52:20.77	117.63	3.96	-53.1	-63.2	3.8	8.46e-01	0	63	104	1727004672	67	12451
2026-01-01 01:52:22.74	117.84	3.87	-53.1	-63.2	3.8	8.46e-01	0	62	104	1727004672	67	12504
2026-01-01 01:52:24.72	118.05	3.78	-53.1	-63.2	3.8	8.45e-01	0	63	104	1727004672	67	12500
2026-01-01 01:52:26.68	118.26	3.69	-53.1	-63.2	3.8	8.45e-01	0	62	104	1727004672	67	12496
2026-01-01 01:52:28.65	118.47	3.59	-53.0	-63.2	3.8	8.46e-01	0	63	104	1727004672	67	12447
2026-01-01 01:52:30.62	118.67	3.50	-52.9	-63.2	3.8	8.46e-01	0	63	104	1727004672	67	12426
2026-01-01 01:52:32.59	118.88	3.41	-52.9	-63.2	3.8	8.46e-01	0	63	104	1727004672	67	12411
2026-01-01 01:52:34.56	119.08	3.32	-53.1	-63.2	3.8	8.47e-01	0	63	104	1727004672	67	12431
2026-01-01 01:52:36.53	119.29	3.23	-53.0	-63.2	3.8	8.45e-01	0	63	104	1727004672	67	12408
2026-01-01 01:52:38.50	119.49	3.13	-53.0	-63.2	3.8	8.46e-01	0	63	104	1727004672	67	12498
2026-01-01 01:52:40.47	119.69	3.04	-53.1	-63.2	3.8	8.47e-01	0	62	104	1727004672	67	12431
2026-01-01 01:52:42.44	119.89	2.95	-52.8	-63.2	3.8	8.46e-01	0	63	104	1727004672	67	12486

#Closed at: 2026-01-01 01:52:42
#Recorded file [1727 MB]: D:/Data/31026_260101_045158.dat