passes_logs/2026/01/01/R3.0SM8_Murmansk_STILSPACE/R3.0SM8_Murmansk_STILSPACE__20260101_145708_FENGYUN_3D_rec.log

#Pass ID: 20260101_145708_FENGYUN 3D
#Satellite: FENGYUN 3D
#Configuration: FENGYUN 3D
#almurnet v.1.7.20240730
#Start time: 2026-01-01 14:57:09

#Version: 2.2.20231116
#Station: R3.0SM8_Murmansk_STILSPACE
#Location: 33.092731 lon 68.902999 lat
#TLE: 1 43010U 17072A   25365.97861918  .00000231  00000+0  13096-3 0  9992
#TLE: 2 43010  98.9911 332.5795 0001872 134.7521 225.3807 14.19690547421260

#Time	Az	El	Level	Level2	SNR	BER	BlckErr	Temp	State	Recorded	gain1	gain2
2026-01-01 14:57:09.03	242.94	3.00	-52.6	-63.4	3.8	8.47e-01	0	45	0	0	67	12848
2026-01-01 14:57:11.99	243.25	3.14	-51.7	-63.0	3.9	8.44e-01	0	46	104	0	66	13059
2026-01-01 14:57:14.96	243.57	3.27	-52.1	-63.1	3.9	8.44e-01	0	46	104	0	66	13169
2026-01-01 14:57:17.94	243.88	3.41	-52.1	-63.1	3.8	8.45e-01	0	46	104	0	66	13165
2026-01-01 14:57:20.90	244.20	3.54	-52.2	-63.0	3.8	8.46e-01	0	47	104	0	66	12960
2026-01-01 14:57:23.86	244.52	3.67	-51.8	-62.8	3.8	8.46e-01	0	47	104	0	66	12805
2026-01-01 14:57:26.83	244.85	3.81	-51.3	-62.2	3.8	8.46e-01	0	47	104	0	65	12564
2026-01-01 14:57:29.80	245.17	3.94	-51.3	-62.1	3.8	8.45e-01	0	47	104	0	65	12485
2026-01-01 14:57:32.75	245.50	4.07	-51.3	-62.2	3.8	8.45e-01	0	47	104	0	65	12587
2026-01-01 14:57:35.71	245.83	4.21	-51.5	-62.1	3.8	8.46e-01	0	47	104	0	65	12391
2026-01-01 14:57:38.67	246.17	4.34	-51.3	-62.0	3.8	8.46e-01	0	48	104	0	65	12268
2026-01-01 14:57:41.64	246.51	4.47	-51.5	-62.2	3.8	8.46e-01	0	48	104	0	65	12604
2026-01-01 14:57:44.61	246.85	4.60	-51.3	-61.5	3.8	8.46e-01	0	48	104	0	65	11616
2026-01-01 14:57:47.57	247.19	4.74	-50.6	-57.3	4.7	8.24e-01	0	48	0	0	64	7570
2026-01-01 14:57:50.55	247.54	4.87	-48.7	-51.8	9.3	5.18e-02	0	48	0	11534336	60	5072
2026-01-01 14:57:53.50	247.89	5.00	-46.1	-47.8	13.4	1.03e-04	0	48	0	28311552	55	4250
2026-01-01 14:57:56.47	248.24	5.13	-45.9	-47.5	13.7	2.97e-05	0	49	0	45088768	54	4358
2026-01-01 14:57:59.44	248.60	5.27	-45.2	-46.5	14.7	2.20e-06	0	49	0	61865984	53	4137
2026-01-01 14:58:02.41	248.96	5.40	-45.3	-46.7	14.6	1.10e-06	0	49	0	78643200	53	4241
2026-01-01 14:58:05.35	249.32	5.53	-45.3	-46.6	14.7	0.00e+00	0	49	0	94371840	53	4174
2026-01-01 14:58:08.32	249.69	5.66	-45.5	-46.9	14.4	5.70e-06	0	49	0	111149056	53	4323
2026-01-01 14:58:11.30	250.06	5.79	-44.9	-46.1	15.1	2.20e-06	0	50	0	127926272	52	4184
2026-01-01 14:58:14.27	250.43	5.92	-44.9	-46.2	15.1	0.00e+00	0	50	0	144703488	52	4198
2026-01-01 14:58:17.23	250.80	6.05	-44.5	-45.7	15.7	0.00e+00	0	50	0	161480704	52	3959
2026-01-01 14:58:20.21	251.19	6.18	-44.6	-45.8	15.7	0.00e+00	0	50	0	178257920	51	4252
2026-01-01 14:58:23.17	251.57	6.31	-44.4	-45.5	16.0	0.00e+00	0	50	0	195035136	51	4118
2026-01-01 14:58:26.13	251.95	6.44	-44.6	-45.7	15.9	0.00e+00	0	50	0	211812352	51	4216
2026-01-01 14:58:29.10	252.34	6.57	-44.6	-45.8	15.8	0.00e+00	0	51	0	228589568	51	4245
2026-01-01 14:58:32.04	252.73	6.69	-44.5	-45.7	15.9	0.00e+00	0	50	0	245366784	51	4209
2026-01-01 14:58:34.99	253.12	6.82	-44.6	-45.8	15.8	0.00e+00	0	51	0	262144000	51	4259
2026-01-01 14:58:37.94	253.52	6.95	-44.8	-46.0	15.6	0.00e+00	0	51	0	277872640	51	4373
2026-01-01 14:58:40.90	253.92	7.07	-44.9	-46.0	15.6	0.00e+00	0	51	0	294649856	51	4390
2026-01-01 14:58:43.86	254.32	7.20	-44.6	-45.8	15.9	0.00e+00	0	51	0	311427072	51	4244
2026-01-01 14:58:46.82	254.73	7.32	-44.8	-45.9	15.7	0.00e+00	0	51	0	328204288	51	4320
2026-01-01 14:58:49.79	255.14	7.45	-44.3	-45.4	16.3	0.00e+00	0	51	0	344981504	51	4079
2026-01-01 14:58:52.75	255.55	7.57	-44.5	-45.6	16.1	0.00e+00	0	51	0	361758720	51	4169
2026-01-01 14:58:55.72	255.97	7.69	-44.6	-45.7	16.0	0.00e+00	0	52	0	378535936	51	4199
2026-01-01 14:58:58.69	256.40	7.82	-44.9	-46.0	15.7	0.00e+00	0	52	0	395313152	51	4355
2026-01-01 14:59:01.66	256.82	7.94	-44.9	-46.1	15.5	0.00e+00	0	52	0	411041792	52	4169
2026-01-01 14:59:04.63	257.25	8.06	-44.4	-45.5	16.1	0.00e+00	0	52	0	428867584	52	3887
2026-01-01 14:59:07.61	257.69	8.18	-44.7	-45.8	16.0	0.00e+00	0	52	0	444596224	51	4265
2026-01-01 14:59:10.57	258.12	8.30	-44.3	-45.3	16.4	0.00e+00	0	52	0	461373440	51	4017
2026-01-01 14:59:13.53	258.56	8.42	-44.3	-45.3	16.4	0.00e+00	0	52	0	478150656	51	4042
2026-01-01 14:59:16.51	259.00	8.53	-43.9	-44.9	16.9	0.00e+00	0	52	0	494927872	51	3836
2026-01-01 14:59:19.47	259.45	8.65	-44.0	-44.9	16.9	0.00e+00	0	52	0	511705088	50	4085
2026-01-01 14:59:22.44	259.90	8.77	-43.8	-44.8	17.0	0.00e+00	0	53	0	528482304	50	4008
2026-01-01 14:59:25.42	260.35	8.88	-43.9	-44.9	16.9	0.00e+00	0	53	0	545259520	50	4066
2026-01-01 14:59:28.38	260.81	8.99	-43.8	-44.8	17.0	0.00e+00	0	53	0	562036736	50	4018
2026-01-01 14:59:31.34	261.26	9.11	-43.7	-44.6	17.2	0.00e+00	0	53	0	578813952	50	3937
2026-01-01 14:59:34.32	261.73	9.22	-43.7	-44.7	17.1	0.00e+00	0	53	0	595591168	50	3973
2026-01-01 14:59:37.28	262.20	9.33	-43.6	-44.5	17.3	0.00e+00	0	53	0	612368384	50	3875
2026-01-01 14:59:40.26	262.67	9.44	-43.7	-44.7	17.1	0.00e+00	0	53	0	629145600	50	3972
2026-01-01 14:59:43.23	263.14	9.55	-43.7	-44.6	17.2	0.00e+00	0	53	0	645922816	50	3937
2026-01-01 14:59:46.20	263.62	9.65	-43.8	-44.7	17.1	0.00e+00	0	53	0	661651456	50	3997
2026-01-01 14:59:49.18	264.10	9.76	-43.8	-44.7	17.1	0.00e+00	0	53	0	678428672	50	3985
2026-01-01 14:59:52.15	264.58	9.86	-43.8	-44.7	17.1	0.00e+00	0	53	0	695205888	50	3980
2026-01-01 14:59:55.10	265.07	9.97	-44.1	-45.1	16.7	0.00e+00	0	53	0	711983104	50	4187
2026-01-01 14:59:58.07	265.56	10.07	-44.3	-45.4	16.5	0.00e+00	0	53	0	728760320	50	4298
2026-01-01 15:00:01.03	266.05	10.17	-44.4	-45.4	16.4	0.00e+00	0	53	0	745537536	50	4338
2026-01-01 15:00:04.00	266.55	10.27	-43.9	-44.8	17.0	0.00e+00	0	54	0	762314752	50	4016
2026-01-01 15:00:06.96	267.04	10.36	-44.2	-45.2	16.6	0.00e+00	0	53	0	779091968	50	4238
2026-01-01 15:00:09.93	267.55	10.46	-43.8	-44.7	17.0	0.00e+00	0	54	0	795869184	50	4001
2026-01-01 15:00:12.91	268.06	10.55	-44.0	-44.9	16.8	0.00e+00	0	54	0	812646400	50	4094
2026-01-01 15:00:15.87	268.56	10.64	-44.1	-45.1	16.6	0.00e+00	0	54	0	829423616	50	4156
2026-01-01 15:00:18.83	269.07	10.73	-44.1	-45.2	16.4	0.00e+00	0	54	0	846200832	50	4194
2026-01-01 15:00:21.80	269.59	10.82	-44.2	-45.2	16.3	0.00e+00	0	54	0	861929472	50	4231
2026-01-01 15:00:24.77	270.11	10.91	-44.4	-45.5	16.0	0.00e+00	0	54	0	878706688	50	4365
2026-01-01 15:00:27.73	270.63	11.00	-43.9	-45.0	16.4	0.00e+00	0	54	0	895483904	50	4103
2026-01-01 15:00:30.69	271.15	11.08	-43.5	-44.5	16.7	0.00e+00	0	54	0	912261120	50	3911
2026-01-01 15:00:33.65	271.68	11.16	-43.3	-44.2	17.1	0.00e+00	0	54	0	929038336	49	3991
2026-01-01 15:00:36.60	272.20	11.24	-43.6	-44.5	16.9	0.00e+00	0	54	0	945815552	49	4130
2026-01-01 15:00:39.57	272.73	11.32	-43.4	-44.4	17.0	0.00e+00	0	54	0	962592768	49	4055
2026-01-01 15:00:42.54	273.27	11.39	-43.4	-44.4	17.2	0.00e+00	0	54	0	979369984	49	4061
2026-01-01 15:00:45.51	273.81	11.47	-43.3	-44.2	17.4	0.00e+00	0	54	0	996147200	49	3997
2026-01-01 15:00:48.47	274.35	11.54	-43.5	-44.4	17.3	0.00e+00	0	54	0	1011875840	49	4082
2026-01-01 15:00:51.43	274.89	11.61	-43.6	-44.5	17.3	0.00e+00	0	54	0	1028653056	49	4136
2026-01-01 15:00:54.40	275.43	11.68	-43.7	-44.6	17.2	0.00e+00	0	54	0	1045430272	49	4183
2026-01-01 15:00:57.37	275.98	11.74	-43.4	-44.3	17.6	0.00e+00	0	54	0	1062207488	49	4005
2026-01-01 15:01:00.33	276.53	11.81	-43.0	-43.8	18.0	0.00e+00	0	54	0	1078984704	49	3793
2026-01-01 15:01:03.29	277.08	11.87	-42.9	-43.7	18.1	0.00e+00	0	55	0	1095761920	49	3764
2026-01-01 15:01:06.25	277.63	11.93	-43.0	-43.8	18.0	0.00e+00	0	55	0	1112539136	49	3819
2026-01-01 15:01:09.23	278.19	11.98	-42.9	-43.7	18.1	0.00e+00	0	55	0	1129316352	49	3763
2026-01-01 15:01:12.19	278.75	12.04	-43.2	-44.0	17.9	0.00e+00	0	55	0	1146093568	48	4135
2026-01-01 15:01:15.16	279.31	12.09	-43.4	-44.2	17.7	0.00e+00	0	55	0	1162870784	48	4214
2026-01-01 15:01:18.13	279.87	12.14	-43.8	-44.7	17.2	0.00e+00	0	55	0	1179648000	49	4213
2026-01-01 15:01:21.11	280.44	12.19	-43.7	-44.6	17.2	0.00e+00	0	55	0	1196425216	49	4181
2026-01-01 15:01:24.09	281.01	12.23	-43.9	-44.9	17.0	0.00e+00	0	55	0	1213202432	50	4052
2026-01-01 15:01:27.05	281.57	12.27	-44.3	-45.3	16.6	0.00e+00	0	55	0	1228931072	50	4251
2026-01-01 15:01:30.01	282.14	12.31	-44.1	-45.1	16.7	0.00e+00	0	55	0	1245708288	50	4157
2026-01-01 15:01:32.97	282.71	12.35	-44.2	-45.2	16.4	0.00e+00	0	55	0	1262485504	50	4227
2026-01-01 15:01:35.94	283.28	12.39	-44.4	-45.5	16.0	0.00e+00	0	55	0	1279262720	50	4368
2026-01-01 15:01:38.91	283.85	12.42	-44.7	-45.9	15.4	0.00e+00	0	55	0	1296039936	51	4331
2026-01-01 15:01:41.88	284.43	12.45	-44.9	-46.2	14.9	0.00e+00	0	55	0	1312817152	51	4489
2026-01-01 15:01:44.85	285.00	12.47	-45.7	-47.3	13.4	2.28e-05	0	55	0	1329594368	53	4539
2026-01-01 15:01:47.81	285.58	12.50	-46.4	-48.3	12.1	2.96e-04	0	55	0	1346371584	54	4809
2026-01-01 15:01:50.77	286.15	12.52	-46.9	-49.3	10.8	2.21e-03	0	55	0	1363148800	55	5083
2026-01-01 15:01:53.75	286.73	12.54	-47.3	-50.1	10.0	1.06e-02	0	55	0	1379926016	56	5264
2026-01-01 15:01:56.72	287.31	12.56	-47.7	-50.7	9.3	2.20e-02	0	55	0	1396703232	57	5330
2026-01-01 15:01:59.69	287.89	12.57	-47.6	-50.5	9.6	1.63e-02	0	55	0	1413480448	57	5186
2026-01-01 15:02:02.66	288.47	12.58	-47.3	-49.9	10.3	6.73e-03	0	55	0	1429209088	57	4844
2026-01-01 15:02:05.63	289.05	12.59	-47.2	-49.6	10.8	4.16e-03	0	56	0	1447034880	57	4676
2026-01-01 15:02:08.59	289.63	12.60	-46.7	-48.9	11.7	1.27e-03	0	56	0	1462763520	56	4559
2026-01-01 15:02:11.57	290.21	12.60	-46.2	-48.0	12.8	1.14e-04	0	55	0	1479540736	55	4376
2026-01-01 15:02:14.54	290.79	12.60	-45.8	-47.4	13.7	5.70e-06	0	56	0	1496317952	54	4309
2026-01-01 15:02:17.51	291.37	12.60	-44.8	-46.0	15.4	0.00e+00	0	56	0	1513095168	52	4116
2026-01-01 15:02:20.48	291.95	12.60	-44.2	-45.2	16.4	0.00e+00	0	56	0	1529872384	51	3975
2026-01-01 15:02:23.46	292.54	12.59	-43.9	-44.8	16.9	0.00e+00	0	56	0	1546649600	50	4035
2026-01-01 15:02:26.44	293.12	12.58	-43.5	-44.5	17.2	0.00e+00	0	56	0	1563426816	50	3880
2026-01-01 15:02:29.40	293.69	12.57	-43.9	-44.9	16.8	0.00e+00	0	56	0	1580204032	50	4072
2026-01-01 15:02:32.36	294.27	12.56	-43.9	-44.9	16.8	0.00e+00	0	56	0	1596981248	50	4093
2026-01-01 15:02:35.33	294.85	12.54	-44.2	-45.2	16.6	0.00e+00	0	56	0	1613758464	50	4199
2026-01-01 15:02:38.30	295.43	12.52	-44.3	-45.3	16.5	0.00e+00	0	56	0	1630535680	50	4272
2026-01-01 15:02:41.27	296.00	12.50	-43.6	-44.5	17.3	0.00e+00	0	56	0	1647312896	50	3898
2026-01-01 15:02:44.23	296.58	12.47	-43.6	-44.5	17.2	0.00e+00	0	56	0	1663041536	50	3899
2026-01-01 15:02:47.18	297.15	12.44	-43.8	-44.7	17.0	0.00e+00	0	56	0	1679818752	50	3998
2026-01-01 15:02:50.15	297.72	12.41	-43.7	-44.7	17.0	0.00e+00	0	56	0	1696595968	50	3977
2026-01-01 15:02:53.12	298.29	12.38	-43.4	-44.3	17.4	0.00e+00	0	56	0	1713373184	49	4024
2026-01-01 15:02:56.10	298.87	12.34	-43.5	-44.4	17.3	0.00e+00	0	56	0	1730150400	49	4064
2026-01-01 15:02:59.06	299.44	12.31	-43.6	-44.5	17.3	0.00e+00	0	56	0	1746927616	49	4139
2026-01-01 15:03:02.04	300.01	12.27	-43.7	-44.6	17.3	0.00e+00	0	56	0	1763704832	49	4156
2026-01-01 15:03:05.02	300.57	12.22	-43.4	-44.3	17.5	0.00e+00	0	56	0	1780482048	49	4026
2026-01-01 15:03:07.98	301.14	12.18	-43.7	-44.7	17.2	0.00e+00	0	56	0	1797259264	49	4203
2026-01-01 15:03:10.95	301.70	12.13	-43.8	-44.7	17.2	0.00e+00	0	56	0	1814036480	49	4222
2026-01-01 15:03:13.92	302.26	12.08	-43.2	-44.0	17.9	0.00e+00	0	56	0	1830813696	49	3901
2026-01-01 15:03:16.90	302.82	12.03	-43.2	-44.1	17.9	0.00e+00	0	56	0	1847590912	49	3916
2026-01-01 15:03:19.87	303.38	11.97	-43.3	-44.2	17.8	0.00e+00	0	56	0	1864368128	49	3971
2026-01-01 15:03:22.83	303.93	11.92	-43.4	-44.2	17.7	0.00e+00	0	56	0	1881145344	49	4003
2026-01-01 15:03:25.79	304.49	11.86	-43.6	-44.4	17.5	0.00e+00	0	56	0	1896873984	49	4086
2026-01-01 15:03:28.76	305.04	11.80	-43.7	-44.6	17.4	0.00e+00	0	56	0	1913651200	49	4178
2026-01-01 15:03:31.72	305.58	11.73	-44.0	-45.0	17.0	0.00e+00	0	56	0	1930428416	49	4347
2026-01-01 15:03:34.69	306.13	11.67	-44.1	-45.1	16.9	0.00e+00	0	56	0	1947205632	50	4178
2026-01-01 15:03:37.66	306.67	11.60	-43.9	-44.9	17.1	0.00e+00	0	56	0	1963982848	50	4075
2026-01-01 15:03:40.64	307.22	11.53	-44.2	-45.1	16.9	0.00e+00	0	56	0	1980760064	50	4178
2026-01-01 15:03:43.62	307.76	11.46	-43.8	-44.8	17.2	0.00e+00	0	56	0	1997537280	50	4006
2026-01-01 15:03:46.58	308.29	11.38	-43.9	-44.8	17.2	0.00e+00	0	56	0	2014314496	50	4036
2026-01-01 15:03:49.56	308.83	11.31	-44.0	-45.0	17.0	0.00e+00	0	56	0	2031091712	50	4133
2026-01-01 15:03:52.53	309.36	11.23	-43.7	-44.6	17.4	0.00e+00	0	56	0	2047868928	50	3939
2026-01-01 15:03:55.50	309.89	11.15	-43.9	-44.9	17.1	0.00e+00	0	56	0	2064646144	50	4070
2026-01-01 15:03:58.47	310.41	11.07	-44.3	-45.3	16.7	0.00e+00	0	56	0	2081423360	50	4257
2026-01-01 15:04:01.44	310.94	10.98	-44.4	-45.4	16.6	0.00e+00	0	56	0	2098200576	50	4333
2026-01-01 15:04:04.39	311.45	10.90	-44.0	-45.0	17.0	0.00e+00	0	56	0	2114977792	50	4099
2026-01-01 15:04:07.36	311.97	10.81	-43.9	-44.8	17.1	0.00e+00	0	56	0	2130706432	50	4042
2026-01-01 15:04:10.31	312.48	10.72	-43.9	-44.9	17.1	0.00e+00	0	56	0	2147483648	50	4052
2026-01-01 15:04:13.26	312.99	10.63	-43.7	-44.6	17.3	0.00e+00	0	56	0	2164260864	50	3955
2026-01-01 15:04:16.24	313.49	10.54	-43.8	-44.7	17.1	0.00e+00	0	56	0	2181038080	50	4001
2026-01-01 15:04:19.20	314.00	10.45	-44.2	-45.1	16.8	0.00e+00	0	56	0	2197815296	50	4190
2026-01-01 15:04:22.18	314.50	10.35	-44.4	-45.4	16.5	0.00e+00	0	57	0	2214592512	50	4313
2026-01-01 15:04:25.13	314.99	10.26	-44.3	-45.3	16.6	0.00e+00	0	56	0	2231369728	50	4278
2026-01-01 15:04:28.10	315.49	10.16	-44.7	-45.8	16.1	0.00e+00	0	57	0	2248146944	51	4270
2026-01-01 15:04:31.05	315.98	10.06	-44.1	-45.1	16.8	0.00e+00	0	56	0	2264924160	51	3943
2026-01-01 15:04:34.02	316.47	9.96	-44.5	-45.5	16.4	0.00e+00	0	56	0	2280652800	51	4121
2026-01-01 15:04:37.00	316.95	9.86	-44.4	-45.4	16.5	0.00e+00	0	57	0	2297430016	51	4082
2026-01-01 15:04:39.98	317.44	9.75	-44.6	-45.7	16.2	0.00e+00	0	56	0	2315255808	51	4227
2026-01-01 15:04:42.94	317.91	9.65	-45.1	-46.2	15.7	0.00e+00	0	57	0	2330984448	51	4477
2026-01-01 15:04:45.91	318.39	9.54	-44.8	-45.9	15.8	0.00e+00	0	56	0	2347761664	52	4088
2026-01-01 15:04:48.87	318.86	9.43	-44.3	-45.3	16.5	0.00e+00	0	57	0	2364538880	51	4051
2026-01-01 15:04:51.84	319.33	9.32	-44.3	-45.3	16.6	0.00e+00	0	57	0	2381316096	51	4033
2026-01-01 15:04:54.82	319.79	9.21	-44.3	-45.4	16.5	0.00e+00	0	56	0	2398093312	51	4063
2026-01-01 15:04:57.79	320.25	9.10	-44.7	-45.8	16.0	0.00e+00	0	56	0	2414870528	51	4280
2026-01-01 15:05:00.75	320.71	8.99	-44.6	-45.7	16.1	0.00e+00	0	56	0	2431647744	51	4215
2026-01-01 15:05:03.71	321.16	8.88	-44.5	-45.6	16.2	0.00e+00	0	57	0	2448424960	51	4175
2026-01-01 15:05:06.67	321.61	8.76	-44.3	-45.3	16.5	0.00e+00	0	56	0	2464153600	51	4022
2026-01-01 15:05:09.64	322.06	8.65	-44.2	-45.2	16.6	0.00e+00	0	57	0	2481979392	51	3975
2026-01-01 15:05:12.61	322.51	8.53	-44.4	-45.5	16.3	0.00e+00	0	56	0	2497708032	51	4119
2026-01-01 15:05:15.57	322.95	8.42	-44.7	-45.8	16.0	0.00e+00	0	57	0	2514485248	51	4286
2026-01-01 15:05:18.55	323.38	8.30	-44.8	-45.9	15.9	0.00e+00	0	57	0	2531262464	51	4300
2026-01-01 15:05:21.52	323.82	8.18	-44.8	-45.9	15.8	0.00e+00	0	57	0	2548039680	51	4332
2026-01-01 15:05:24.49	324.25	8.06	-45.0	-46.1	15.7	0.00e+00	0	57	0	2564816896	51	4429
2026-01-01 15:05:27.45	324.68	7.94	-45.1	-46.3	15.4	0.00e+00	0	56	0	2581594112	52	4255
2026-01-01 15:05:30.42	325.10	7.82	-45.1	-46.3	15.4	0.00e+00	0	56	0	2598371328	52	4244
2026-01-01 15:05:33.37	325.52	7.70	-45.2	-46.4	15.2	0.00e+00	0	56	0	2615148544	52	4325
2026-01-01 15:05:36.35	325.94	7.58	-45.1	-46.4	15.4	0.00e+00	0	57	0	2631925760	52	4294
2026-01-01 15:05:39.32	326.35	7.45	-44.7	-45.8	16.0	0.00e+00	0	57	0	2648702976	51	4255
2026-01-01 15:05:42.28	326.76	7.33	-44.6	-45.6	16.1	0.00e+00	0	57	0	2665480192	51	4193
2026-01-01 15:05:45.27	327.17	7.20	-44.7	-45.9	15.7	0.00e+00	0	57	0	2682257408	51	4300
2026-01-01 15:05:48.24	327.57	7.08	-44.8	-45.9	15.8	0.00e+00	0	57	0	2699034624	51	4308
2026-01-01 15:05:51.20	327.97	6.95	-44.9	-46.1	15.6	1.10e-06	0	57	0	2714763264	51	4403
2026-01-01 15:05:54.17	328.37	6.83	-44.9	-46.1	15.6	0.00e+00	0	56	0	2731540480	51	4413
2026-01-01 15:05:57.14	328.76	6.70	-44.9	-46.1	15.5	0.00e+00	0	57	0	2748317696	52	4156
2026-01-01 15:06:00.09	329.15	6.57	-44.8	-46.0	15.5	0.00e+00	0	57	0	2765094912	52	4134
2026-01-01 15:06:03.06	329.54	6.45	-45.3	-46.6	14.9	0.00e+00	0	57	0	2781872128	52	4414
2026-01-01 15:06:06.02	329.92	6.32	-45.7	-47.1	14.4	0.00e+00	0	57	0	2798649344	53	4396
2026-01-01 15:06:08.98	330.30	6.19	-46.0	-47.5	14.0	4.50e-06	0	57	0	2815426560	53	4608
2026-01-01 15:06:11.95	330.68	6.06	-46.2	-47.8	13.7	3.40e-06	0	57	0	2832203776	54	4498
2026-01-01 15:06:14.91	331.05	5.93	-46.0	-47.5	14.0	1.02e-05	0	57	0	2848980992	55	4124
2026-01-01 15:06:17.88	331.42	5.80	-45.5	-46.9	14.6	1.10e-06	0	57	0	2864709632	53	4315
2026-01-01 15:06:20.84	331.79	5.68	-45.8	-47.2	14.2	2.20e-06	0	57	0	2882535424	53	4462
2026-01-01 15:06:23.81	332.16	5.55	-45.3	-46.6	14.8	0.00e+00	0	57	0	2898264064	53	4163
2026-01-01 15:06:26.77	332.52	5.42	-45.4	-46.8	14.6	0.00e+00	0	57	0	2915041280	53	4253
2026-01-01 15:06:29.74	332.87	5.28	-45.3	-46.5	14.8	1.10e-06	0	57	0	2931818496	53	4141
2026-01-01 15:06:32.69	333.23	5.15	-45.4	-46.8	14.5	0.00e+00	0	57	0	2948595712	53	4273
2026-01-01 15:06:35.66	333.58	5.02	-45.5	-46.9	14.4	1.10e-06	0	57	0	2965372928	53	4321
2026-01-01 15:06:38.61	333.93	4.89	-52.0	-62.8	3.8	8.46e-01	0	57	104	2967470080	66	12709
2026-01-01 15:06:41.58	334.28	4.76	-51.8	-62.7	3.8	8.46e-01	0	57	104	2967470080	66	12521
2026-01-01 15:06:44.55	334.62	4.63	-52.6	-63.3	3.8	8.45e-01	0	57	104	2967470080	66	13501
2026-01-01 15:06:47.52	334.96	4.50	-52.3	-63.4	3.8	8.44e-01	0	57	104	2967470080	67	12883
2026-01-01 15:06:50.48	335.30	4.37	-52.6	-63.5	3.8	8.46e-01	0	57	104	2967470080	67	13012
2026-01-01 15:06:53.44	335.63	4.23	-52.6	-63.5	3.8	8.47e-01	0	57	104	2967470080	67	13038
2026-01-01 15:06:56.40	335.96	4.10	-52.8	-63.5	3.8	8.45e-01	0	57	104	2967470080	67	13087
2026-01-01 15:06:59.38	336.29	3.97	-52.8	-63.6	3.8	8.46e-01	0	57	104	2967470080	67	13162
2026-01-01 15:07:02.33	336.62	3.84	-52.8	-63.5	3.8	8.45e-01	0	57	104	2967470080	67	13098
2026-01-01 15:07:05.31	336.94	3.70	-52.7	-63.5	3.8	8.46e-01	0	57	104	2967470080	67	13097
2026-01-01 15:07:08.28	337.26	3.57	-52.6	-63.5	3.8	8.47e-01	0	57	104	2967470080	67	13075
2026-01-01 15:07:11.25	337.58	3.44	-52.7	-63.6	3.8	8.46e-01	0	57	104	2967470080	67	13117
2026-01-01 15:07:14.22	337.90	3.31	-52.8	-63.6	3.8	8.46e-01	0	57	104	2967470080	67	13119
2026-01-01 15:07:17.18	338.21	3.17	-52.7	-63.5	3.8	8.46e-01	0	57	104	2967470080	67	13095
2026-01-01 15:07:20.16	338.52	3.04	-52.6	-63.5	3.8	8.46e-01	0	57	104	2967470080	67	13087

#Closed at: 2026-01-01 15:07:22
#Recorded file [2967 MB]: D:/Data/31026_260101_180636.dat