passes_logs/2026/01/01/R3.0SM8_Murmansk_STILSPACE/R3.0SM8_Murmansk_STILSPACE__20260101_031536_FENGYUN_3D_rec.log

#Pass ID: 20260101_031536_FENGYUN 3D
#Satellite: FENGYUN 3D
#Configuration: FENGYUN 3D
#almurnet v.1.7.20240730
#Start time: 2026-01-01 03:24:32

#Version: 2.2.20231116
#Station: R3.0SM8_Murmansk_STILSPACE
#Location: 33.092731 lon 68.902999 lat
#TLE: 1 43010U 17072A   25365.48527867  .00000101  00000+0  69745-4 0  9999
#TLE: 2 43010  98.9911 332.0787 0001837 134.4748 225.6578 14.19689788421190

#Time	Az	El	Level	Level2	SNR	BER	BlckErr	Temp	State	Recorded	gain1	gain2
2026-01-01 03:24:32.09	233.23	39.34	-54.8	-74.7	3.8	7.48e-01	0	61	0	0	71	38473
2026-01-01 03:24:34.05	232.95	38.86	-53.2	-63.9	3.8	8.46e-01	0	62	104	0	69	12155
2026-01-01 03:24:36.01	232.68	38.39	-53.2	-63.9	3.8	8.46e-01	0	62	104	0	69	12149
2026-01-01 03:24:37.97	232.42	37.93	-53.2	-63.9	3.8	8.46e-01	0	62	104	0	69	12102
2026-01-01 03:24:39.94	232.16	37.47	-53.2	-63.9	3.8	8.45e-01	0	62	104	0	69	12098
2026-01-01 03:24:41.90	231.91	37.01	-53.2	-63.7	3.8	8.46e-01	0	62	104	0	69	11935
2026-01-01 03:24:43.86	231.67	36.56	-53.1	-63.7	3.8	8.47e-01	0	62	104	0	69	11922
2026-01-01 03:24:45.82	231.44	36.12	-53.1	-63.8	3.8	8.46e-01	0	62	104	0	69	12033
2026-01-01 03:24:47.78	231.21	35.68	-53.1	-63.8	3.8	8.46e-01	0	62	104	0	69	11972
2026-01-01 03:24:49.74	230.99	35.25	-52.9	-62.2	3.8	8.46e-01	0	62	104	0	69	10020
2026-01-01 03:24:51.70	230.77	34.82	-52.2	-58.6	4.8	8.43e-01	0	62	104	0	67	7405
2026-01-01 03:24:53.65	230.56	34.40	-52.9	-62.5	3.8	8.46e-01	0	62	104	0	67	11681
2026-01-01 03:24:55.61	230.36	33.99	-52.9	-63.4	3.8	8.47e-01	0	62	104	0	67	12901
2026-01-01 03:24:57.57	230.16	33.58	-52.9	-63.5	3.8	8.47e-01	0	62	104	0	67	13062
2026-01-01 03:24:59.53	229.96	33.17	-52.9	-63.4	3.8	8.46e-01	0	62	104	0	67	12890
2026-01-01 03:25:01.50	229.77	32.77	-52.9	-63.2	3.8	8.46e-01	0	62	104	0	67	12579
2026-01-01 03:25:03.46	229.59	32.37	-53.0	-63.7	3.8	8.45e-01	0	62	104	0	67	13274
2026-01-01 03:25:05.41	229.41	31.98	-52.8	-62.4	3.8	8.45e-01	0	62	104	0	67	11506
2026-01-01 03:25:07.38	229.23	31.59	-52.7	-61.2	3.8	8.44e-01	0	62	104	0	67	10043
2026-01-01 03:25:09.33	229.06	31.21	-52.9	-62.9	3.8	8.45e-01	0	62	104	0	67	12147
2026-01-01 03:25:11.28	228.90	30.84	-51.7	-56.9	5.8	8.02e-01	0	62	0	0	66	6460
2026-01-01 03:25:13.20	228.74	30.47	-49.9	-52.6	9.8	1.64e-02	0	62	0	10485760	63	4705
2026-01-01 03:25:15.13	228.58	30.11	-48.7	-50.7	11.9	1.07e-03	0	62	0	20971520	60	4455
2026-01-01 03:25:17.06	228.43	29.75	-45.3	-46.4	16.2	0.00e+00	0	62	0	32505856	53	4053
2026-01-01 03:25:18.98	228.28	29.40	-44.1	-45.0	17.7	0.00e+00	0	62	0	42991616	51	3874
2026-01-01 03:25:20.91	228.13	29.05	-42.8	-43.5	19.2	0.00e+00	0	62	0	53477376	48	3876
2026-01-01 03:25:22.84	227.99	28.70	-41.3	-41.9	20.4	0.00e+00	0	62	0	65011712	45	3842
2026-01-01 03:25:24.76	227.85	28.36	-41.8	-42.5	19.9	0.00e+00	0	62	0	75497472	45	4105
2026-01-01 03:25:26.69	227.71	28.02	-42.9	-43.6	18.8	0.00e+00	0	62	0	87031808	47	4170
2026-01-01 03:25:28.62	227.58	27.69	-42.6	-43.3	19.1	0.00e+00	0	62	0	97517568	47	4030
2026-01-01 03:25:30.54	227.45	27.36	-42.3	-43.0	19.4	0.00e+00	0	62	0	108003328	47	3894
2026-01-01 03:25:32.47	227.32	27.03	-41.8	-42.4	19.9	0.00e+00	0	62	0	118489088	46	3867
2026-01-01 03:25:34.40	227.19	26.71	-41.6	-42.3	20.1	0.00e+00	0	62	0	130023424	46	3795
2026-01-01 03:25:36.32	227.07	26.39	-41.5	-42.1	20.2	0.00e+00	0	62	0	140509184	46	3724
2026-01-01 03:25:38.25	226.95	26.08	-40.7	-41.3	21.0	0.00e+00	0	62	0	152043520	44	3790
2026-01-01 03:25:40.19	226.83	25.76	-40.4	-41.0	21.3	0.00e+00	0	62	0	162529280	44	3665
2026-01-01 03:25:42.12	226.71	25.45	-40.4	-40.9	21.2	0.00e+00	0	62	0	173015040	43	3853
2026-01-01 03:25:44.05	226.60	25.15	-40.4	-40.9	21.2	0.00e+00	0	62	0	184549376	43	3862
2026-01-01 03:25:45.97	226.49	24.85	-40.5	-41.0	21.1	0.00e+00	0	62	0	195035136	43	3898
2026-01-01 03:25:47.90	226.38	24.55	-40.7	-41.2	21.0	0.00e+00	0	62	0	205520896	43	3995
2026-01-01 03:25:49.82	226.27	24.25	-40.9	-41.5	20.7	0.00e+00	0	62	0	216006656	43	4106
2026-01-01 03:25:51.75	226.17	23.96	-41.4	-42.0	20.3	0.00e+00	0	62	0	227540992	44	4112
2026-01-01 03:25:53.67	226.07	23.67	-41.5	-42.1	20.2	0.00e+00	0	62	0	238026752	44	4174
2026-01-01 03:25:55.60	225.97	23.39	-41.3	-42.0	20.4	0.00e+00	0	62	0	249561088	45	3878
2026-01-01 03:25:57.53	225.87	23.11	-41.3	-41.9	20.4	0.00e+00	0	62	0	260046848	45	3842
2026-01-01 03:25:59.46	225.77	22.83	-41.2	-41.8	20.5	0.00e+00	0	62	0	270532608	45	3805
2026-01-01 03:26:01.39	225.68	22.55	-41.0	-41.6	20.7	0.00e+00	0	62	0	282066944	45	3722
2026-01-01 03:26:03.32	225.58	22.27	-41.0	-41.5	20.7	0.00e+00	0	62	0	292552704	45	3692
2026-01-01 03:26:05.24	225.49	22.00	-41.1	-41.7	20.6	0.00e+00	0	62	0	303038464	45	3760
2026-01-01 03:26:07.17	225.40	21.74	-41.1	-41.7	20.5	0.00e+00	0	62	0	314572800	45	3777
2026-01-01 03:26:09.10	225.31	21.47	-41.1	-41.7	20.6	0.00e+00	0	62	0	325058560	45	3760
2026-01-01 03:26:11.03	225.23	21.21	-41.2	-41.8	20.4	0.00e+00	0	62	0	335544320	45	3805
2026-01-01 03:26:12.96	225.14	20.95	-41.4	-42.0	20.3	0.00e+00	0	62	0	347078656	45	3878
2026-01-01 03:26:14.89	225.06	20.69	-41.7	-42.4	19.9	0.00e+00	0	62	0	357564416	45	4073
2026-01-01 03:26:16.82	224.98	20.43	-41.6	-42.2	20.0	0.00e+00	0	62	0	368050176	45	3999
2026-01-01 03:26:18.74	224.90	20.18	-41.7	-42.4	19.9	0.00e+00	0	62	0	379584512	45	4069
2026-01-01 03:26:20.67	224.82	19.93	-42.2	-42.9	19.4	0.00e+00	0	62	0	390070272	46	4087
2026-01-01 03:26:22.60	224.74	19.68	-42.3	-43.0	19.3	0.00e+00	0	62	0	400556032	46	4141
2026-01-01 03:26:24.52	224.66	19.44	-42.4	-43.1	19.2	0.00e+00	0	62	0	412090368	46	4147
2026-01-01 03:26:26.45	224.59	19.19	-42.2	-42.9	19.3	0.00e+00	0	62	0	422576128	46	4086
2026-01-01 03:26:28.38	224.52	18.95	-42.4	-43.1	19.1	0.00e+00	0	62	0	433061888	46	4189
2026-01-01 03:26:30.30	224.44	18.72	-42.4	-43.1	19.2	0.00e+00	0	62	0	444596224	47	3936
2026-01-01 03:26:32.23	224.37	18.48	-42.2	-42.9	19.3	0.00e+00	0	62	0	455081984	47	3857
2026-01-01 03:26:34.16	224.30	18.24	-42.6	-43.3	18.9	0.00e+00	0	62	0	465567744	47	4021
2026-01-01 03:26:36.08	224.23	18.01	-42.4	-43.2	19.1	0.00e+00	0	62	0	477102080	47	3959
2026-01-01 03:26:38.01	224.17	17.78	-43.3	-44.1	18.3	0.00e+00	0	62	0	487587840	48	4171
2026-01-01 03:26:39.94	224.10	17.56	-43.5	-44.2	18.2	0.00e+00	0	62	0	498073600	48	4242
2026-01-01 03:26:41.86	224.03	17.33	-43.2	-44.0	18.4	0.00e+00	0	62	0	509607936	48	4126
2026-01-01 03:26:43.79	223.97	17.11	-43.3	-44.0	18.3	0.00e+00	0	62	0	520093696	48	4141
2026-01-01 03:26:45.72	223.91	16.89	-43.2	-44.0	18.4	0.00e+00	0	62	0	530579456	48	4131
2026-01-01 03:26:47.65	223.84	16.67	-43.3	-44.1	18.2	0.00e+00	0	62	0	542113792	48	4178
2026-01-01 03:26:49.57	223.78	16.45	-43.4	-44.3	18.1	0.00e+00	0	62	0	552599552	48	4245
2026-01-01 03:26:51.50	223.72	16.23	-43.4	-44.2	18.1	0.00e+00	0	62	0	563085312	48	4214
2026-01-01 03:26:53.43	223.66	16.02	-43.4	-44.2	18.1	0.00e+00	0	62	0	574619648	48	4223
2026-01-01 03:26:55.35	223.60	15.81	-43.5	-44.3	18.0	0.00e+00	0	62	0	585105408	48	4276
2026-01-01 03:26:57.28	223.55	15.60	-43.7	-44.6	17.7	0.00e+00	0	62	0	595591168	49	4152
2026-01-01 03:26:59.21	223.49	15.39	-43.8	-44.7	17.5	0.00e+00	0	62	0	607125504	49	4210
2026-01-01 03:27:01.14	223.43	15.18	-43.7	-44.6	17.6	0.00e+00	0	62	0	617611264	49	4166
2026-01-01 03:27:03.06	223.38	14.98	-44.0	-44.9	17.3	0.00e+00	0	62	0	628097024	49	4319
2026-01-01 03:27:04.99	223.32	14.77	-44.0	-44.9	17.3	0.00e+00	0	62	0	639631360	49	4322
2026-01-01 03:27:06.92	223.27	14.57	-44.2	-45.1	17.1	0.00e+00	0	62	0	650117120	50	4180
2026-01-01 03:27:08.86	223.22	14.37	-44.2	-45.2	17.0	0.00e+00	0	62	0	661651456	50	4200
2026-01-01 03:27:10.79	223.16	14.17	-44.4	-45.4	16.8	0.00e+00	0	62	0	672137216	50	4304
2026-01-01 03:27:12.71	223.11	13.97	-44.6	-45.6	16.6	0.00e+00	0	62	0	682622976	51	4147
2026-01-01 03:27:14.64	223.06	13.78	-44.6	-45.6	16.5	0.00e+00	0	62	0	694157312	51	4191
2026-01-01 03:27:16.57	223.01	13.58	-44.7	-45.7	16.5	0.00e+00	0	62	0	704643072	51	4224
2026-01-01 03:27:18.50	222.96	13.39	-44.7	-45.7	16.4	0.00e+00	0	62	0	715128832	51	4242
2026-01-01 03:27:20.42	222.92	13.20	-44.9	-46.0	16.0	0.00e+00	0	62	0	725614592	52	4132
2026-01-01 03:27:22.34	222.87	13.01	-44.7	-45.7	16.3	0.00e+00	0	62	0	737148928	52	3990
2026-01-01 03:27:24.28	222.82	12.82	-44.7	-45.7	16.3	0.00e+00	0	62	0	747634688	52	3999
2026-01-01 03:27:26.21	222.78	12.64	-44.6	-45.7	16.3	0.00e+00	0	62	0	759169024	52	3960
2026-01-01 03:27:28.13	222.73	12.45	-44.6	-45.6	16.4	0.00e+00	0	62	0	769654784	52	3943
2026-01-01 03:27:30.06	222.69	12.27	-44.9	-45.9	16.0	0.00e+00	0	62	0	780140544	52	4088
2026-01-01 03:27:31.99	222.64	12.08	-45.0	-46.1	15.8	0.00e+00	0	62	0	791674880	52	4165
2026-01-01 03:27:33.92	222.60	11.90	-45.0	-46.1	15.8	0.00e+00	0	62	0	802160640	52	4156
2026-01-01 03:27:35.84	222.56	11.72	-45.1	-46.3	15.6	0.00e+00	0	62	0	812646400	52	4267
2026-01-01 03:27:37.78	222.51	11.54	-45.2	-46.3	15.5	0.00e+00	0	62	0	824180736	52	4289
2026-01-01 03:27:39.70	222.47	11.37	-45.0	-46.2	15.7	0.00e+00	0	62	0	834666496	52	4205
2026-01-01 03:27:41.63	222.43	11.19	-45.0	-46.1	15.7	0.00e+00	0	62	0	845152256	52	4184
2026-01-01 03:27:43.55	222.39	11.02	-45.1	-46.3	15.6	0.00e+00	0	62	0	856686592	52	4252
2026-01-01 03:27:45.48	222.35	10.84	-45.3	-46.4	15.4	0.00e+00	0	62	0	867172352	52	4338
2026-01-01 03:27:47.40	222.31	10.67	-45.4	-46.6	15.2	0.00e+00	0	62	0	877658112	52	4420
2026-01-01 03:27:49.33	222.27	10.50	-45.5	-46.8	15.0	0.00e+00	0	62	0	889192448	52	4506
2026-01-01 03:27:51.26	222.23	10.33	-45.8	-47.1	14.6	0.00e+00	0	62	0	899678208	53	4414
2026-01-01 03:27:53.19	222.19	10.16	-46.0	-47.3	14.4	1.10e-06	0	62	0	910163968	53	4516
2026-01-01 03:27:55.11	222.16	9.99	-46.2	-47.7	14.0	4.50e-06	0	62	0	921698304	54	4479
2026-01-01 03:27:57.04	222.12	9.83	-46.5	-48.1	13.6	1.37e-05	0	62	0	932184064	54	4655
2026-01-01 03:27:58.97	222.08	9.66	-46.3	-47.7	14.0	1.14e-05	0	62	0	942669824	54	4471
2026-01-01 03:28:00.90	222.05	9.50	-46.3	-47.9	13.8	1.14e-05	0	62	0	954204160	54	4559
2026-01-01 03:28:02.83	222.01	9.33	-46.7	-48.3	13.3	2.28e-05	0	62	0	964689920	55	4545
2026-01-01 03:28:04.75	221.98	9.17	-46.4	-47.9	13.7	9.10e-06	0	62	0	975175680	55	4323
2026-01-01 03:28:06.68	221.94	9.01	-46.0	-47.4	14.2	2.20e-06	0	62	0	986710016	55	4086
2026-01-01 03:28:08.61	221.91	8.85	-46.0	-47.4	14.2	1.10e-06	0	62	0	997195776	55	4093
2026-01-01 03:28:10.54	221.88	8.69	-46.2	-47.7	13.9	9.10e-06	0	62	0	1007681536	55	4223
2026-01-01 03:28:12.47	221.84	8.53	-46.3	-47.8	13.8	1.25e-05	0	62	0	1019215872	55	4283
2026-01-01 03:28:14.41	221.81	8.37	-46.3	-47.8	13.8	8.00e-06	0	62	0	1029701632	55	4271
2026-01-01 03:28:16.34	221.78	8.22	-46.5	-48.0	13.5	2.51e-05	0	62	0	1041235968	55	4375
2026-01-01 03:28:18.27	221.74	8.06	-46.2	-47.8	13.8	4.50e-06	0	62	0	1051721728	55	4243
2026-01-01 03:28:20.21	221.71	7.91	-46.3	-47.8	13.8	1.10e-06	0	62	0	1062207488	55	4275
2026-01-01 03:28:22.14	221.68	7.75	-46.3	-47.8	13.7	1.48e-05	0	62	0	1073741824	55	4290
2026-01-01 03:28:24.07	221.65	7.60	-46.7	-48.4	13.2	3.31e-05	0	62	0	1084227584	55	4566
2026-01-01 03:28:26.00	221.62	7.45	-46.9	-48.6	13.0	3.89e-05	0	62	0	1094713344	55	4659
2026-01-01 03:28:27.92	221.59	7.30	-46.5	-48.1	13.4	2.28e-05	0	62	0	1106247680	55	4404
2026-01-01 03:28:29.85	221.56	7.15	-46.5	-48.2	13.4	2.40e-05	0	63	0	1116733440	55	4444
2026-01-01 03:28:31.78	221.53	7.00	-46.8	-48.5	12.9	5.37e-05	0	62	0	1127219200	55	4605
2026-01-01 03:28:33.71	221.50	6.85	-46.8	-48.5	12.9	6.63e-05	0	62	0	1138753536	55	4611
2026-01-01 03:28:35.63	221.47	6.70	-46.9	-48.7	12.7	8.92e-05	0	62	0	1149239296	55	4707
2026-01-01 03:28:37.56	221.45	6.56	-47.0	-48.8	12.6	1.75e-04	0	63	0	1159725056	55	4778
2026-01-01 03:28:39.48	221.42	6.41	-47.2	-49.1	12.4	2.62e-04	0	62	0	1171259392	56	4676
2026-01-01 03:28:41.41	221.39	6.27	-47.2	-49.1	12.4	2.28e-04	0	62	0	1181745152	56	4667
2026-01-01 03:28:43.34	221.36	6.12	-47.4	-49.3	12.1	3.91e-04	0	62	0	1192230912	56	4801
2026-01-01 03:28:45.27	221.34	5.98	-47.0	-48.8	12.7	1.33e-04	0	63	0	1203765248	56	4496
2026-01-01 03:28:47.19	221.31	5.84	-47.1	-48.9	12.4	1.89e-04	0	62	0	1214251008	56	4591
2026-01-01 03:28:49.12	221.28	5.70	-47.1	-49.0	12.4	2.52e-04	0	62	0	1224736768	56	4630
2026-01-01 03:28:51.05	221.26	5.56	-47.1	-48.9	12.4	2.05e-04	0	63	0	1236271104	56	4588
2026-01-01 03:28:52.98	221.23	5.42	-47.2	-49.1	12.2	3.10e-04	0	63	0	1246756864	56	4662
2026-01-01 03:28:54.90	221.21	5.28	-47.2	-49.2	12.1	4.22e-04	0	63	0	1257242624	56	4747
2026-01-01 03:28:56.82	221.18	5.14	-47.4	-49.4	11.9	4.90e-04	0	62	0	1268776960	56	4833
2026-01-01 03:28:58.76	221.16	5.00	-51.2	-61.9	3.8	8.31e-01	0	63	104	1276116992	64	12868
2026-01-01 03:29:00.72	221.13	4.86	-52.6	-63.3	3.8	8.46e-01	0	62	104	1276116992	66	13526
2026-01-01 03:29:02.69	221.11	4.72	-52.5	-63.5	3.8	8.45e-01	0	62	104	1276116992	67	12960
2026-01-01 03:29:04.65	221.08	4.58	-52.3	-63.0	3.8	8.46e-01	0	62	104	1276116992	67	12262
2026-01-01 03:29:06.61	221.06	4.44	-52.7	-63.6	3.8	8.45e-01	0	63	104	1276116992	67	13215
2026-01-01 03:29:08.57	221.04	4.31	-52.9	-63.6	3.8	8.46e-01	0	63	104	1276116992	67	13238
2026-01-01 03:29:10.54	221.01	4.17	-52.6	-63.7	3.8	8.46e-01	0	62	104	1276116992	67	13311
2026-01-01 03:29:12.50	220.99	4.04	-53.0	-63.7	3.8	8.46e-01	0	63	104	1276116992	67	13393
2026-01-01 03:29:14.46	220.97	3.90	-52.8	-63.7	3.8	8.47e-01	0	63	104	1276116992	67	13413
2026-01-01 03:29:16.43	220.94	3.77	-53.1	-63.8	3.8	8.46e-01	0	62	104	1276116992	67	13439
2026-01-01 03:29:18.39	220.92	3.63	-52.9	-63.9	3.8	8.45e-01	0	63	104	1276116992	68	12864
2026-01-01 03:29:20.35	220.90	3.50	-53.2	-63.9	3.8	8.46e-01	0	63	104	1276116992	68	12914
2026-01-01 03:29:22.31	220.88	3.37	-52.8	-63.9	3.8	8.46e-01	0	62	104	1276116992	68	12912
2026-01-01 03:29:24.28	220.86	3.24	-53.2	-63.9	3.8	8.45e-01	0	63	104	1276116992	68	12929
2026-01-01 03:29:26.23	220.83	3.10	-53.0	-63.9	3.8	8.46e-01	0	63	104	1276116992	68	12887
2026-01-01 03:29:28.19	220.81	2.97	-53.2	-63.9	3.8	8.46e-01	0	62	104	1276116992	68	12875
2026-01-01 03:29:30.16	220.79	2.84	-53.0	-63.9	3.8	8.45e-01	0	63	104	1276116992	68	12846

#Closed at: 2026-01-01 03:29:30
#Recorded file [1276 MB]: D:/Data/31026_260101_062858.dat