passes_logs/2026/01/01/R3.0SM8_Murmansk_STILSPACE/R3.0SM8_Murmansk_STILSPACE__20260101_031217_AQUA_rec.log

#Pass ID: 20260101_031217_AQUA
#Satellite: AQUA
#Configuration: AQUA
#almurnet v.1.7.20240730
#Start time: 2026-01-01 03:12:19

#Version: 2.2.20231116
#Station: R3.0SM8_Murmansk_STILSPACE
#Location: 33.092731 lon 68.902999 lat
#TLE: 1 27424U 02022A   25364.96158943  .00001951  00000+0  40088-3 0  9998
#TLE: 2 27424  98.4061 326.1389 0001917  95.3187 305.7939 14.61780362258696

#Time	Az	El	Level	Level2	SNR	BER	BlckErr	Temp	State	Recorded	gain1	gain2
2026-01-01 03:12:19.83	26.12	3.16	-54.4	-74.3	3.8	7.43e-01	0	50	0	0	71	36785
2026-01-01 03:12:22.78	26.05	3.36	-53.9	-73.8	3.8	7.45e-01	0	50	104	0	70	36724
2026-01-01 03:12:25.73	25.96	3.56	-53.4	-73.1	3.8	7.45e-01	0	50	104	0	70	33713
2026-01-01 03:12:28.67	25.88	3.77	-53.4	-72.8	3.8	7.46e-01	0	50	104	0	70	32572
2026-01-01 03:12:31.62	25.80	3.97	-53.4	-72.3	3.8	7.48e-01	0	50	104	0	70	30884
2026-01-01 03:12:34.56	25.72	4.18	-53.2	-71.4	3.8	7.44e-01	0	51	104	0	70	27868
2026-01-01 03:12:37.51	25.63	4.39	-53.0	-70.2	3.8	7.47e-01	0	51	104	0	69	25715
2026-01-01 03:12:40.46	25.54	4.60	-52.5	-68.2	3.8	7.45e-01	0	51	104	0	68	21658
2026-01-01 03:12:43.40	25.45	4.82	-51.7	-66.0	3.8	7.43e-01	0	52	104	0	67	17758
2026-01-01 03:12:46.33	25.36	5.03	-51.0	-64.4	3.8	7.43e-01	0	52	104	0	65	16598
2026-01-01 03:12:49.29	25.27	5.25	-51.3	-65.0	3.8	7.43e-01	0	52	104	0	65	17688
2026-01-01 03:12:52.24	25.17	5.47	-52.0	-66.6	3.8	7.41e-01	0	52	104	0	66	20289
2026-01-01 03:12:55.18	25.08	5.69	-52.7	-68.5	3.8	7.50e-01	0	52	104	0	67	23654
2026-01-01 03:12:58.13	24.98	5.91	-53.0	-69.6	3.8	7.42e-01	0	53	104	0	68	25502
2026-01-01 03:13:01.08	24.88	6.14	-53.2	-70.2	3.8	7.46e-01	0	53	104	0	68	27218
2026-01-01 03:13:04.03	24.78	6.37	-52.8	-68.7	3.8	7.47e-01	0	53	104	0	68	22836
2026-01-01 03:13:06.97	24.67	6.60	-52.7	-68.4	3.8	7.44e-01	0	53	104	0	68	22032
2026-01-01 03:13:09.92	24.57	6.83	-51.9	-66.0	3.8	7.42e-01	0	53	104	0	67	17882
2026-01-01 03:13:12.87	24.46	7.06	-51.3	-64.8	3.8	7.43e-01	0	53	104	0	66	16317
2026-01-01 03:13:15.82	24.35	7.30	-50.9	-64.0	3.8	7.46e-01	0	53	104	0	65	15890
2026-01-01 03:13:18.77	24.24	7.54	-50.9	-63.9	3.8	7.46e-01	0	53	104	0	65	15591
2026-01-01 03:13:21.71	24.12	7.78	-50.0	-62.3	3.8	7.45e-01	0	54	104	0	63	14648
2026-01-01 03:13:24.65	24.01	8.02	-49.4	-61.3	3.8	7.45e-01	0	54	104	0	62	13880
2026-01-01 03:13:27.60	23.89	8.27	-49.5	-61.5	3.8	7.48e-01	0	54	104	0	62	14071
2026-01-01 03:13:30.53	23.77	8.52	-50.3	-62.6	3.8	7.46e-01	0	54	104	0	62	16101
2026-01-01 03:13:33.48	23.64	8.77	-50.3	-62.7	3.8	7.44e-01	0	54	104	0	62	16190
2026-01-01 03:13:36.42	23.52	9.02	-50.4	-62.8	3.8	7.43e-01	0	54	104	0	62	16352
2026-01-01 03:13:39.36	23.39	9.28	-51.2	-64.4	3.8	7.45e-01	0	54	104	0	64	17643
2026-01-01 03:13:42.31	23.26	9.54	-52.3	-66.7	3.8	7.44e-01	0	55	104	0	67	19384
2026-01-01 03:13:45.25	23.12	9.80	-52.3	-66.7	3.8	7.46e-01	0	55	104	0	67	19333
2026-01-01 03:13:48.20	22.98	10.07	-52.8	-68.1	3.8	7.47e-01	0	55	104	0	67	22777
2026-01-01 03:13:51.13	22.84	10.33	-52.6	-67.2	3.8	7.47e-01	0	55	104	0	68	19302
2026-01-01 03:13:54.07	22.70	10.60	-51.7	-65.2	3.8	7.46e-01	0	55	104	0	67	16186
2026-01-01 03:13:57.02	22.55	10.88	-51.8	-65.4	3.8	7.39e-01	0	56	104	0	66	17594
2026-01-01 03:13:59.97	22.40	11.16	-52.3	-66.6	3.8	7.48e-01	0	55	104	0	67	19070
2026-01-01 03:14:02.92	22.25	11.44	-51.1	-64.0	3.8	7.45e-01	0	56	104	0	65	15850
2026-01-01 03:14:05.87	22.09	11.72	-50.8	-63.5	3.8	7.46e-01	0	56	104	0	65	14993
2026-01-01 03:14:08.81	21.93	12.01	-50.5	-63.0	3.8	7.43e-01	0	56	104	0	64	14929
2026-01-01 03:14:11.76	21.77	12.30	-49.4	-61.2	3.8	7.47e-01	0	56	104	0	62	13600
2026-01-01 03:14:14.71	21.60	12.60	-48.6	-60.2	3.8	7.46e-01	0	56	104	0	60	13579
2026-01-01 03:14:17.66	21.43	12.90	-49.0	-60.6	3.8	7.48e-01	0	56	104	0	60	14347
2026-01-01 03:14:20.60	21.25	13.20	-50.1	-62.2	3.8	7.46e-01	0	56	104	0	62	15335
2026-01-01 03:14:23.56	21.07	13.51	-50.1	-62.3	3.8	7.43e-01	0	56	104	0	62	15461
2026-01-01 03:14:26.51	20.89	13.82	-50.2	-62.4	3.8	7.42e-01	0	56	104	0	62	15685
2026-01-01 03:14:29.45	20.70	14.14	-51.5	-64.6	3.8	7.44e-01	0	56	104	0	65	17050
2026-01-01 03:14:32.40	20.50	14.46	-51.6	-64.9	3.8	7.42e-01	0	57	104	0	66	16670
2026-01-01 03:14:35.34	20.30	14.78	-51.5	-64.7	3.8	7.43e-01	0	56	104	0	66	16204
2026-01-01 03:14:38.28	20.10	15.11	-52.2	-66.1	3.8	7.47e-01	0	57	104	0	66	19156
2026-01-01 03:14:41.22	19.89	15.44	-51.5	-64.6	3.8	7.46e-01	0	57	104	0	66	16053
2026-01-01 03:14:44.17	19.68	15.78	-50.5	-62.8	3.8	7.44e-01	0	57	104	0	64	14613
2026-01-01 03:14:47.12	19.46	16.12	-50.7	-63.1	3.8	7.44e-01	0	57	104	0	63	16014
2026-01-01 03:14:50.06	19.23	16.47	-52.3	-66.2	3.8	7.47e-01	0	57	104	0	66	19288
2026-01-01 03:14:53.00	19.00	16.82	-51.1	-63.8	3.8	7.44e-01	0	57	104	0	65	15511
2026-01-01 03:14:55.95	18.77	17.18	-51.1	-63.9	3.8	7.45e-01	0	57	104	0	65	15662
2026-01-01 03:14:58.90	18.52	17.54	-50.8	-63.3	3.8	7.43e-01	0	57	104	0	65	14635
2026-01-01 03:15:01.85	18.27	17.91	-49.6	-61.4	3.8	7.46e-01	0	57	104	0	62	13975
2026-01-01 03:15:04.79	18.02	18.29	-49.1	-60.7	3.8	7.40e-01	0	57	104	0	61	13663
2026-01-01 03:15:07.74	17.75	18.67	-50.0	-62.0	3.8	7.46e-01	0	58	104	0	62	14960
2026-01-01 03:15:10.69	17.48	19.05	-51.4	-64.3	3.8	7.43e-01	0	57	104	0	64	17388
2026-01-01 03:15:13.63	17.20	19.45	-51.2	-64.0	3.8	7.43e-01	0	57	104	0	65	15892
2026-01-01 03:15:16.59	16.91	19.85	-51.2	-64.0	3.8	7.44e-01	0	58	104	0	65	15810
2026-01-01 03:15:19.53	16.62	20.25	-52.3	-66.1	3.8	7.46e-01	0	58	104	0	66	19102
2026-01-01 03:15:22.48	16.31	20.66	-51.1	-63.8	3.8	7.47e-01	0	58	104	0	65	15458
2026-01-01 03:15:25.42	16.00	21.08	-50.5	-62.8	3.8	7.43e-01	0	58	104	0	64	14572
2026-01-01 03:15:28.35	15.68	21.50	-51.2	-63.9	3.8	7.43e-01	0	58	104	0	64	16694
2026-01-01 03:15:31.30	15.34	21.93	-51.2	-63.9	3.8	7.41e-01	0	58	104	0	65	15679
2026-01-01 03:15:34.25	15.00	22.37	-50.6	-63.0	3.8	7.45e-01	0	58	104	0	64	14906
2026-01-01 03:15:37.19	14.65	22.81	-50.3	-62.5	3.8	7.44e-01	0	58	104	0	64	14114
2026-01-01 03:15:40.14	14.28	23.27	-51.5	-64.5	3.8	7.45e-01	0	58	104	0	65	16727
2026-01-01 03:15:43.09	13.90	23.73	-51.9	-65.3	3.8	7.42e-01	0	58	104	0	67	16483
2026-01-01 03:15:46.04	13.52	24.20	-51.5	-64.6	3.8	7.43e-01	0	58	104	0	66	16028
2026-01-01 03:15:48.98	13.11	24.67	-51.2	-64.1	3.8	7.42e-01	0	58	104	0	66	15219
2026-01-01 03:15:51.93	12.70	25.16	-50.2	-62.6	3.8	7.45e-01	0	58	104	0	63	15197
2026-01-01 03:15:54.87	12.27	25.65	-49.3	-61.5	3.8	7.44e-01	0	58	104	0	62	14190
2026-01-01 03:15:57.83	11.83	26.15	-50.3	-63.3	3.8	7.44e-01	0	58	104	0	62	17443
2026-01-01 03:16:00.76	11.37	26.65	-52.2	-67.7	3.8	7.44e-01	0	58	104	0	66	22958
2026-01-01 03:16:03.71	10.90	27.17	-52.5	-67.3	3.8	7.45e-01	0	58	104	0	67	20635
2026-01-01 03:16:06.65	10.41	27.70	-52.0	-65.6	3.8	7.46e-01	0	58	104	0	67	16900
2026-01-01 03:16:09.59	9.90	28.23	-52.0	-65.5	3.8	7.47e-01	0	58	104	0	67	16786
2026-01-01 03:16:12.55	9.37	28.77	-51.7	-64.9	3.8	7.45e-01	0	59	104	0	67	15610
2026-01-01 03:16:15.50	8.82	29.32	-49.8	-61.7	3.8	7.44e-01	0	59	104	0	63	13595
2026-01-01 03:16:18.45	8.25	29.88	-49.8	-61.7	3.8	7.42e-01	0	59	104	0	62	14422
2026-01-01 03:16:21.40	7.67	30.45	-50.6	-62.8	3.8	7.45e-01	0	59	104	0	63	15407
2026-01-01 03:16:24.34	7.06	31.03	-50.0	-61.8	3.8	7.43e-01	0	59	104	0	63	13871
2026-01-01 03:16:27.30	6.42	31.62	-49.7	-61.5	3.8	7.43e-01	0	59	104	0	63	13318
2026-01-01 03:16:30.25	5.76	32.21	-50.5	-62.6	3.8	7.45e-01	0	59	104	0	63	15193
2026-01-01 03:16:33.18	5.08	32.81	-51.8	-64.9	3.8	7.45e-01	0	59	104	0	66	16607
2026-01-01 03:16:36.14	4.37	33.43	-51.2	-63.9	3.8	7.44e-01	0	59	104	0	65	15748
2026-01-01 03:16:39.09	3.63	34.05	-51.0	-63.6	3.8	7.43e-01	0	59	104	0	65	15111
2026-01-01 03:16:42.03	2.86	34.67	-51.3	-64.0	3.8	7.46e-01	0	59	104	0	65	15941
2026-01-01 03:16:44.98	2.06	35.31	-50.2	-62.2	3.8	7.42e-01	0	59	104	0	64	13726
2026-01-01 03:16:47.92	1.22	35.95	-49.9	-61.7	3.8	7.48e-01	0	59	104	0	63	13595
2026-01-01 03:16:50.87	0.35	36.60	-51.1	-63.7	3.8	7.44e-01	0	59	104	0	64	16174
2026-01-01 03:16:53.82	359.45	37.25	-52.7	-66.8	3.8	7.48e-01	0	59	104	0	67	19558
2026-01-01 03:16:56.76	358.50	37.91	-53.5	-68.8	3.8	7.43e-01	0	59	104	0	69	21877
2026-01-01 03:16:59.71	357.52	38.58	-53.6	-69.3	3.8	7.43e-01	0	59	104	0	69	23140
2026-01-01 03:17:02.66	356.49	39.25	-53.0	-67.6	3.8	7.42e-01	0	59	104	0	69	19007
2026-01-01 03:17:05.61	355.41	39.92	-51.3	-63.9	3.8	7.46e-01	0	59	104	0	66	14783
2026-01-01 03:17:08.55	354.30	40.59	-50.8	-63.2	3.8	7.41e-01	0	59	104	0	64	15324
2026-01-01 03:17:11.50	353.13	41.26	-50.7	-62.9	3.8	7.45e-01	0	60	104	0	64	14791
2026-01-01 03:17:14.45	351.91	41.94	-51.2	-63.9	3.8	7.41e-01	0	59	104	0	64	16577
2026-01-01 03:17:17.39	350.64	42.61	-50.4	-62.5	3.8	7.46e-01	0	60	104	0	64	14117
2026-01-01 03:17:20.33	349.31	43.27	-50.9	-63.3	3.8	7.41e-01	0	60	104	0	64	15532
2026-01-01 03:17:23.28	347.93	43.93	-51.4	-64.1	3.8	7.46e-01	0	59	104	0	64	16990
2026-01-01 03:17:26.24	346.48	44.59	-52.2	-65.7	3.8	7.46e-01	0	60	104	0	66	18184
2026-01-01 03:17:29.19	344.97	45.23	-51.2	-63.7	3.8	7.46e-01	0	60	104	0	65	15296
2026-01-01 03:17:32.14	343.40	45.87	-51.3	-63.8	3.8	7.44e-01	0	60	104	0	65	15573
2026-01-01 03:17:35.08	341.77	46.48	-51.5	-64.2	3.8	7.43e-01	0	60	104	0	65	16295
2026-01-01 03:17:38.01	340.08	47.08	-50.3	-52.9	20.5	6.01e-01	0	60	0	2097152	64	4653
2026-01-01 03:17:40.92	338.33	47.65	-50.1	-52.5	21.0	6.03e-01	0	60	0	7864320	63	4715
2026-01-01 03:17:43.82	336.53	48.20	-49.8	-52.0	21.5	6.03e-01	0	60	0	13107200	62	4740
2026-01-01 03:17:46.73	334.66	48.73	-49.6	-51.8	21.7	6.03e-01	0	60	0	18874368	62	4623
2026-01-01 03:17:49.63	332.72	49.23	-49.5	-51.6	21.9	6.03e-01	0	60	0	24117248	62	4536
2026-01-01 03:17:52.54	330.72	49.70	-49.1	-51.1	22.4	6.04e-01	0	60	0	29884416	61	4497
2026-01-01 03:17:55.46	328.65	50.13	-48.9	-50.8	22.6	6.03e-01	0	60	0	35127296	61	4364
2026-01-01 03:17:58.36	326.53	50.53	-49.2	-51.2	22.3	6.03e-01	0	60	0	40370176	61	4552
2026-01-01 03:18:01.27	324.36	50.89	-49.1	-51.0	22.4	6.03e-01	0	60	0	46137344	61	4478
2026-01-01 03:18:04.17	322.14	51.21	-49.0	-50.9	22.6	6.01e-01	0	60	0	51380224	60	4663
2026-01-01 03:18:07.07	319.87	51.48	-48.9	-50.8	22.6	6.04e-01	0	60	0	56623104	60	4645
2026-01-01 03:18:09.98	317.56	51.71	-49.3	-51.3	22.0	6.03e-01	0	60	0	62390272	61	4645
2026-01-01 03:18:12.88	315.22	51.89	-48.9	-50.8	22.7	6.00e-01	0	60	0	67633152	61	4356
2026-01-01 03:18:15.79	312.85	52.02	-49.1	-51.0	22.4	6.04e-01	0	60	0	73400320	61	4490
2026-01-01 03:18:18.70	310.46	52.10	-48.5	-50.2	23.1	6.02e-01	0	60	0	78643200	60	4324
2026-01-01 03:18:21.61	308.07	52.13	-48.5	-50.2	23.3	6.03e-01	0	60	0	83886080	60	4304
2026-01-01 03:18:24.50	305.69	52.11	-48.8	-50.6	22.8	6.03e-01	0	60	0	89653248	60	4519
2026-01-01 03:18:27.41	303.30	52.03	-48.4	-50.1	23.2	6.03e-01	0	60	0	94896128	60	4261
2026-01-01 03:18:30.31	300.93	51.91	-49.1	-51.0	22.4	6.03e-01	0	60	0	100663296	60	4751
2026-01-01 03:18:33.21	298.59	51.74	-48.7	-50.5	22.6	6.03e-01	0	60	0	105906176	60	4481
2026-01-01 03:18:36.11	296.28	51.51	-49.4	-50.9	23.0	6.03e-01	0	61	0	111149056	60	4682
2026-01-01 03:18:39.02	294.00	51.24	-48.7	-50.6	22.0	6.03e-01	0	60	0	116916224	61	4252
2026-01-01 03:18:41.93	291.77	50.93	-48.8	-50.6	22.9	6.01e-01	0	60	0	122159104	60	4522
2026-01-01 03:18:44.83	289.59	50.58	-49.8	-52.1	21.3	6.00e-01	0	60	0	127401984	61	5083
2026-01-01 03:18:47.74	287.46	50.18	-49.3	-51.5	22.0	6.03e-01	0	60	0	133169152	60	5007
2026-01-01 03:18:50.64	285.39	49.75	-49.6	-51.8	21.7	6.05e-01	0	60	0	138412032	61	4883
2026-01-01 03:18:53.55	283.38	49.29	-49.1	-51.0	22.4	6.03e-01	0	61	0	144179200	61	4463
2026-01-01 03:18:56.45	281.43	48.79	-48.3	-49.9	23.3	6.05e-01	0	60	0	149422080	60	4161
2026-01-01 03:18:59.36	279.55	48.27	-49.2	-51.2	22.2	6.02e-01	0	61	0	154664960	61	4579
2026-01-01 03:19:02.27	277.73	47.72	-49.1	-51.1	22.3	6.03e-01	0	61	0	160432128	61	4507
2026-01-01 03:19:05.19	275.97	47.14	-48.4	-50.1	23.3	6.04e-01	0	60	0	165675008	60	4279
2026-01-01 03:19:08.13	274.26	46.54	-48.8	-50.6	22.7	6.01e-01	0	60	0	171442176	60	4529
2026-01-01 03:19:11.07	272.62	45.93	-48.7	-50.5	22.8	6.06e-01	0	60	0	176685056	60	4451
2026-01-01 03:19:13.97	271.07	45.31	-48.2	-49.9	23.4	6.04e-01	0	60	0	182452224	60	4163
2026-01-01 03:19:16.87	269.57	44.67	-48.3	-49.9	23.4	6.03e-01	0	61	0	187695104	60	4186
2026-01-01 03:19:19.77	268.14	44.03	-48.7	-50.4	23.4	6.04e-01	0	60	0	192937984	59	4686
2026-01-01 03:19:22.67	266.76	43.38	-48.7	-50.5	23.2	6.02e-01	0	61	0	198705152	59	4730
2026-01-01 03:19:25.58	265.44	42.72	-48.5	-50.3	23.1	6.05e-01	0	61	0	203948032	60	4359
2026-01-01 03:19:28.48	264.18	42.06	-48.7	-50.5	22.8	6.05e-01	0	61	0	209190912	60	4464
2026-01-01 03:19:31.38	262.96	41.39	-49.2	-51.1	22.3	6.04e-01	0	61	0	214958080	60	4802
2026-01-01 03:19:34.28	261.80	40.73	-49.2	-51.2	22.3	6.03e-01	0	61	0	220200960	61	4565
2026-01-01 03:19:37.18	260.68	40.06	-49.7	-52.0	21.5	6.03e-01	0	61	0	225968128	61	5000
2026-01-01 03:19:40.09	259.61	39.40	-49.6	-51.7	21.7	6.04e-01	0	61	0	231211008	61	4838
2026-01-01 03:19:42.99	258.59	38.74	-50.3	-52.9	20.6	6.03e-01	0	61	0	236978176	62	5258
2026-01-01 03:19:45.89	257.60	38.08	-49.7	-51.9	21.6	6.03e-01	0	61	0	242221056	62	4663
2026-01-01 03:19:48.80	256.66	37.43	-50.0	-52.3	21.1	6.03e-01	0	61	0	247463936	62	4920
2026-01-01 03:19:51.71	255.75	36.78	-50.0	-52.3	21.1	6.00e-01	0	61	0	253231104	62	4909
2026-01-01 03:19:54.62	254.87	36.13	-50.3	-52.9	20.5	6.04e-01	0	61	0	258473984	63	4961
2026-01-01 03:19:57.52	254.04	35.50	-49.6	-51.7	21.7	6.03e-01	0	61	0	263716864	62	4578
2026-01-01 03:20:00.42	253.24	34.87	-49.3	-51.4	22.0	6.03e-01	0	61	0	269484032	62	4394
2026-01-01 03:20:03.33	252.46	34.24	-48.8	-50.6	22.8	6.03e-01	0	61	0	274726912	61	4247
2026-01-01 03:20:06.23	251.72	33.63	-49.5	-51.6	21.8	6.01e-01	0	61	0	280494080	61	4805
2026-01-01 03:20:09.14	251.01	33.02	-48.2	-49.9	23.5	6.01e-01	0	61	0	285736960	60	4152
2026-01-01 03:20:12.04	250.32	32.42	-48.4	-50.1	23.3	6.00e-01	0	61	0	290979840	60	4252
2026-01-01 03:20:14.95	249.66	31.83	-48.7	-50.4	23.2	6.02e-01	0	61	0	296747008	59	4705
2026-01-01 03:20:17.85	249.02	31.25	-48.3	-49.9	23.4	6.02e-01	0	61	0	301989888	60	4187
2026-01-01 03:20:20.75	248.41	30.67	-48.7	-50.5	23.2	6.03e-01	0	61	0	307757056	59	4734
2026-01-01 03:20:23.66	247.82	30.11	-48.2	-49.7	23.9	6.03e-01	0	61	0	312999936	59	4339
2026-01-01 03:20:26.56	247.25	29.55	-48.8	-50.6	23.0	6.02e-01	0	61	0	318242816	59	4772
2026-01-01 03:20:29.46	246.70	29.00	-48.6	-50.3	23.0	6.03e-01	0	61	0	324009984	60	4369
2026-01-01 03:20:32.37	246.17	28.46	-49.1	-51.1	22.2	6.02e-01	0	61	0	329252864	60	4797
2026-01-01 03:20:35.27	245.66	27.93	-48.6	-50.3	23.0	6.02e-01	0	61	0	334495744	60	4376
2026-01-01 03:20:38.18	245.16	27.40	-49.1	-51.1	22.3	6.03e-01	0	61	0	340262912	60	4765
2026-01-01 03:20:41.08	244.69	26.89	-48.5	-50.3	23.0	6.03e-01	0	61	0	345505792	60	4352
2026-01-01 03:20:43.98	244.22	26.38	-48.5	-50.3	23.0	6.04e-01	0	61	0	350748672	60	4366
2026-01-01 03:20:46.89	243.78	25.88	-49.1	-51.1	22.3	6.05e-01	0	61	0	356515840	60	4765
2026-01-01 03:20:49.79	243.34	25.39	-48.4	-50.1	23.1	6.03e-01	0	61	0	361758720	60	4291
2026-01-01 03:20:52.69	242.93	24.91	-48.3	-50.0	23.2	6.04e-01	0	61	0	367525888	60	4233
2026-01-01 03:20:55.59	242.52	24.44	-48.5	-50.3	23.0	6.01e-01	0	61	0	372768768	60	4366
2026-01-01 03:20:58.50	242.13	23.97	-48.7	-50.6	22.7	6.03e-01	0	61	0	378535936	60	4509
2026-01-01 03:21:01.40	241.75	23.51	-48.6	-50.5	22.8	6.04e-01	0	61	0	383778816	60	4450
2026-01-01 03:21:04.30	241.38	23.06	-48.4	-50.1	23.2	6.02e-01	0	61	0	389021696	60	4250
2026-01-01 03:21:07.21	241.02	22.61	-48.8	-50.6	22.6	6.04e-01	0	61	0	394788864	60	4531
2026-01-01 03:21:10.11	240.68	22.17	-49.0	-50.9	22.3	6.04e-01	0	61	0	400031744	60	4691
2026-01-01 03:21:13.02	240.34	21.74	-48.5	-50.3	22.9	6.03e-01	0	61	0	405274624	60	4344
2026-01-01 03:21:15.92	240.01	21.32	-48.3	-50.1	23.2	6.04e-01	0	61	0	411041792	60	4251
2026-01-01 03:21:18.83	239.69	20.90	-48.6	-50.3	22.9	6.04e-01	0	61	0	416284672	60	4389
2026-01-01 03:21:21.73	239.39	20.49	-48.7	-50.6	22.7	6.02e-01	0	61	0	421527552	60	4496
2026-01-01 03:21:24.63	239.09	20.08	-48.6	-50.4	22.8	6.03e-01	0	61	0	427294720	60	4401
2026-01-01 03:21:27.53	238.80	19.69	-48.6	-50.5	22.7	6.01e-01	0	61	0	432537600	60	4464
2026-01-01 03:21:30.43	238.51	19.29	-48.7	-50.5	22.7	6.00e-01	0	61	0	438304768	60	4474
2026-01-01 03:21:33.34	238.24	18.91	-48.5	-50.4	22.8	6.02e-01	0	61	0	443547648	60	4393
2026-01-01 03:21:36.25	237.97	18.53	-48.8	-50.6	22.6	6.02e-01	0	61	0	449314816	60	4545
2026-01-01 03:21:39.15	237.71	18.15	-48.5	-50.3	22.8	6.04e-01	0	61	0	454557696	60	4380
2026-01-01 03:21:42.05	237.46	17.78	-48.5	-50.4	22.8	6.06e-01	0	61	0	459800576	60	4396
2026-01-01 03:21:44.95	237.21	17.42	-48.6	-50.5	22.7	6.01e-01	0	61	0	465567744	60	4451
2026-01-01 03:21:47.86	236.97	17.06	-48.8	-50.8	22.3	6.03e-01	0	61	0	470810624	60	4622
2026-01-01 03:21:50.77	236.73	16.71	-48.9	-50.8	22.3	6.02e-01	0	61	0	476053504	60	4647
2026-01-01 03:21:53.67	236.50	16.36	-49.0	-51.0	22.1	6.02e-01	0	61	0	481820672	60	4721
2026-01-01 03:21:56.57	236.28	16.02	-48.9	-51.0	22.1	6.02e-01	0	61	0	487063552	60	4713
2026-01-01 03:21:59.48	236.06	15.68	-48.8	-50.7	22.3	6.03e-01	0	61	0	492306432	60	4583
2026-01-01 03:22:02.38	235.85	15.34	-48.8	-50.8	22.2	6.03e-01	0	62	0	498073600	60	4599
2026-01-01 03:22:05.28	235.65	15.02	-48.7	-50.6	22.3	6.02e-01	0	61	0	503316480	60	4544
2026-01-01 03:22:08.18	235.44	14.69	-48.9	-50.9	21.9	6.04e-01	0	61	0	509083648	60	4698
2026-01-01 03:22:11.10	235.25	14.37	-48.6	-50.5	22.3	6.03e-01	0	61	0	514326528	60	4472
2026-01-01 03:22:14.00	235.05	14.05	-48.6	-50.6	22.3	6.03e-01	0	61	0	520093696	60	4504
2026-01-01 03:22:16.90	234.87	13.74	-48.8	-50.8	22.0	6.03e-01	0	61	0	525336576	60	4634
2026-01-01 03:22:19.81	234.68	13.43	-48.9	-51.0	21.8	6.02e-01	0	61	0	530579456	60	4709
2026-01-01 03:22:22.72	234.50	13.13	-49.2	-51.4	21.4	6.04e-01	0	61	0	536346624	60	4949
2026-01-01 03:22:25.62	234.33	12.83	-49.3	-51.6	21.2	6.02e-01	0	61	0	541589504	60	5068
2026-01-01 03:22:28.52	234.16	12.54	-49.4	-51.8	20.9	6.04e-01	0	62	0	546832384	61	4922
2026-01-01 03:22:31.43	233.99	12.24	-49.5	-52.0	20.7	6.03e-01	0	61	0	552599552	61	5012
2026-01-01 03:22:34.33	233.83	11.95	-49.7	-52.3	20.4	6.02e-01	0	61	0	557842432	61	5188
2026-01-01 03:22:37.24	233.67	11.67	-50.1	-52.9	19.7	6.02e-01	0	61	0	563609600	62	5278
2026-01-01 03:22:40.14	233.51	11.39	-49.9	-52.6	20.0	6.04e-01	0	61	0	568852480	62	5068
2026-01-01 03:22:43.04	233.36	11.11	-49.9	-52.7	19.9	6.02e-01	0	61	0	574095360	62	5119
2026-01-01 03:22:45.95	233.21	10.83	-50.1	-53.0	19.5	6.02e-01	0	62	0	579862528	62	5314
2026-01-01 03:22:48.86	233.06	10.56	-49.8	-52.7	19.7	6.05e-01	0	62	0	585105408	62	5116
2026-01-01 03:22:51.77	232.91	10.29	-50.1	-53.2	19.2	6.04e-01	0	62	0	590872576	62	5407
2026-01-01 03:22:54.68	232.77	10.02	-50.2	-53.4	18.9	6.03e-01	0	61	0	596115456	62	5570
2026-01-01 03:22:57.60	232.64	9.76	-50.3	-53.6	18.7	6.01e-01	0	61	0	601358336	62	5671
2026-01-01 03:23:00.50	232.50	9.50	-50.0	-53.0	19.2	6.04e-01	0	61	0	607125504	62	5333
2026-01-01 03:23:03.41	232.37	9.24	-50.2	-53.5	18.7	6.01e-01	0	62	0	612368384	62	5631
2026-01-01 03:23:06.32	232.24	8.99	-50.2	-53.6	18.5	6.04e-01	0	62	0	618135552	62	5705
2026-01-01 03:23:09.22	232.11	8.74	-50.2	-53.5	18.6	6.02e-01	0	62	0	623378432	62	5619
2026-01-01 03:23:12.13	231.99	8.49	-50.6	-54.4	17.6	6.05e-01	0	62	0	628621312	63	5922
2026-01-01 03:23:15.04	231.86	8.24	-50.6	-54.4	17.6	6.03e-01	0	62	0	634388480	63	5905
2026-01-01 03:23:17.93	231.74	8.00	-50.6	-54.6	17.4	6.05e-01	0	61	0	639631360	63	5997
2026-01-01 03:23:20.83	231.63	7.76	-50.8	-55.2	16.7	6.04e-01	0	62	0	644874240	64	6095
2026-01-01 03:23:23.73	231.51	7.52	-50.5	-54.6	17.2	6.01e-01	0	62	0	650641408	64	5683
2026-01-01 03:23:26.63	231.40	7.28	-50.7	-55.0	16.8	6.02e-01	0	62	0	655884288	64	5967
2026-01-01 03:23:29.53	231.29	7.05	-50.8	-55.2	16.4	6.04e-01	0	62	0	661651456	64	6126
2026-01-01 03:23:32.44	231.18	6.82	-51.0	-55.7	16.0	6.04e-01	0	62	0	666894336	64	6464
2026-01-01 03:23:35.34	231.07	6.59	-51.0	-55.9	15.7	6.01e-01	0	62	0	672137216	64	6634
2026-01-01 03:23:38.24	230.97	6.36	-51.1	-56.4	15.1	6.04e-01	0	62	0	677904384	64	7039
2026-01-01 03:23:41.15	230.87	6.13	-51.3	-56.9	14.6	6.05e-01	0	62	0	683147264	64	7432
2026-01-01 03:23:44.06	230.76	5.91	-51.3	-57.1	14.4	6.03e-01	0	62	0	688914432	64	7551
2026-01-01 03:23:46.96	230.67	5.69	-51.3	-57.1	14.3	6.06e-01	0	62	0	694157312	64	7596
2026-01-01 03:23:49.86	230.57	5.47	-51.2	-56.9	14.6	6.05e-01	0	62	0	699400192	64	7378
2026-01-01 03:23:52.77	230.47	5.25	-51.2	-56.9	14.4	6.04e-01	0	62	0	705167360	64	7445
2026-01-01 03:23:55.68	230.38	5.04	-51.2	-57.1	14.3	6.06e-01	0	62	0	710410240	64	7563
2026-01-01 03:23:58.62	230.29	4.82	-54.2	-74.0	3.8	7.45e-01	0	62	104	711458816	70	37750
2026-01-01 03:24:01.57	230.19	4.60	-53.1	-72.5	3.8	7.45e-01	0	62	104	711458816	69	33624
2026-01-01 03:24:04.53	230.10	4.39	-54.6	-74.5	3.8	7.47e-01	0	62	104	711458816	71	37512
2026-01-01 03:24:07.47	230.01	4.18	-54.6	-74.5	3.8	7.44e-01	0	62	104	711458816	71	37751
2026-01-01 03:24:10.41	229.93	3.97	-54.7	-74.6	3.8	7.47e-01	0	62	104	711458816	71	38047
2026-01-01 03:24:13.36	229.84	3.76	-54.8	-74.7	3.8	7.45e-01	0	62	104	711458816	71	38340
2026-01-01 03:24:16.30	229.76	3.56	-54.8	-74.7	3.8	7.44e-01	0	62	104	711458816	71	38465
2026-01-01 03:24:19.24	229.67	3.35	-54.8	-74.7	3.8	7.46e-01	0	62	104	711458816	71	38569
2026-01-01 03:24:22.20	229.59	3.15	-54.8	-74.7	3.8	7.48e-01	0	62	104	711458816	71	38647

#Closed at: 2026-01-01 03:24:24
#Recorded file [711 MB]: D:/Data/31026_260101_062356.dat