passes_logs/2026/01/01/R3.0SM8_Murmansk_STILSPACE/R3.0SM8_Murmansk_STILSPACE__20260101_093818_AQUA_rec.log

#Pass ID: 20260101_093818_AQUA
#Satellite: AQUA
#Configuration: AQUA
#almurnet v.1.7.20240730
#Start time: 2026-01-01 09:38:20

#Version: 2.2.20231116
#Station: R3.0SM8_Murmansk_STILSPACE
#Location: 33.092731 lon 68.902999 lat
#TLE: 1 27424U 02022A   25364.96158943  .00001951  00000+0  40088-3 0  9998
#TLE: 2 27424  98.4061 326.1389 0001917  95.3187 305.7939 14.61780362258696

#Time	Az	El	Level	Level2	SNR	BER	BlckErr	Temp	State	Recorded	gain1	gain2
2026-01-01 09:38:20.61	112.30	3.14	-54.2	-74.2	3.8	7.48e-01	0	46	0	0	71	36207
2026-01-01 09:38:23.57	112.15	3.34	-53.7	-73.2	3.8	7.47e-01	0	46	104	0	70	34391
2026-01-01 09:38:26.54	112.00	3.54	-53.4	-72.5	3.8	7.41e-01	0	47	104	0	70	31795
2026-01-01 09:38:29.49	111.85	3.74	-53.4	-72.4	3.8	7.44e-01	0	47	104	0	70	31174
2026-01-01 09:38:32.46	111.69	3.94	-53.4	-71.9	3.8	7.42e-01	0	47	104	0	70	29568
2026-01-01 09:38:35.42	111.54	4.14	-53.4	-70.1	3.9	7.42e-01	0	47	104	0	70	24108
2026-01-01 09:38:38.37	111.38	4.34	-53.3	-66.8	5.6	6.94e-01	0	47	0	0	70	16406
2026-01-01 09:38:41.34	111.22	4.55	-53.1	-63.9	8.1	6.43e-01	72	47	0	4718592	69	12433
2026-01-01 09:38:44.31	111.05	4.76	-52.9	-61.9	10.1	6.26e-01	0	48	0	10485760	69	9934
2026-01-01 09:38:47.27	110.89	4.97	-52.5	-59.9	12.3	6.13e-01	0	48	0	16252928	68	8297
2026-01-01 09:38:50.25	110.72	5.18	-52.6	-60.0	12.2	6.12e-01	0	48	0	21495808	68	8404
2026-01-01 09:38:53.22	110.54	5.39	-52.3	-58.8	13.4	6.09e-01	0	48	0	27262976	68	7364
2026-01-01 09:38:56.18	110.37	5.60	-51.6	-56.6	15.6	6.08e-01	0	48	0	32505856	66	6387
2026-01-01 09:38:59.14	110.19	5.82	-50.5	-54.1	18.2	6.07e-01	0	49	0	38273024	64	5365
2026-01-01 09:39:02.12	110.01	6.04	-49.7	-52.6	19.7	6.05e-01	0	49	0	44040192	63	4792
2026-01-01 09:39:05.08	109.82	6.26	-49.4	-52.0	20.3	6.06e-01	0	49	0	49283072	62	4736
2026-01-01 09:39:08.04	109.63	6.48	-49.8	-52.7	19.7	6.07e-01	0	49	0	55050240	62	5118
2026-01-01 09:39:11.02	109.44	6.70	-49.3	-51.8	20.6	6.06e-01	0	49	0	60817408	62	4619
2026-01-01 09:39:13.99	109.25	6.92	-49.5	-52.1	20.3	6.07e-01	0	49	0	66060288	61	5094
2026-01-01 09:39:16.97	109.05	7.15	-49.0	-51.4	21.0	6.06e-01	0	50	0	71827456	61	4680
2026-01-01 09:39:19.93	108.85	7.38	-49.1	-51.5	20.9	6.07e-01	0	50	0	77070336	61	4756
2026-01-01 09:39:22.90	108.64	7.61	-49.1	-51.6	20.9	6.07e-01	0	50	0	82837504	61	4763
2026-01-01 09:39:25.86	108.43	7.84	-49.1	-51.5	21.0	6.06e-01	0	50	0	88604672	61	4753
2026-01-01 09:39:28.83	108.22	8.08	-49.2	-51.6	20.9	6.06e-01	0	50	0	93847552	61	4803
2026-01-01 09:39:31.78	108.00	8.31	-48.7	-50.9	21.6	6.04e-01	0	50	0	99614720	61	4434
2026-01-01 09:39:34.75	107.78	8.55	-48.8	-51.0	21.6	6.04e-01	0	50	0	104857600	61	4473
2026-01-01 09:39:37.71	107.56	8.79	-48.7	-50.8	21.7	6.08e-01	0	50	0	110624768	60	4648
2026-01-01 09:39:40.67	107.33	9.03	-48.7	-50.8	21.7	6.05e-01	0	50	0	116391936	60	4648
2026-01-01 09:39:43.64	107.10	9.28	-48.4	-50.5	22.1	6.05e-01	0	51	0	121634816	60	4456
2026-01-01 09:39:46.60	106.86	9.52	-48.6	-50.6	22.0	6.08e-01	0	51	0	127401984	60	4523
2026-01-01 09:39:49.59	106.61	9.78	-48.7	-50.8	21.9	6.06e-01	0	51	0	132644864	60	4606
2026-01-01 09:39:52.56	106.37	10.03	-48.5	-50.6	22.1	6.07e-01	0	51	0	138412032	60	4503
2026-01-01 09:39:55.53	106.11	10.28	-48.7	-50.8	21.9	6.07e-01	0	51	0	144179200	60	4632
2026-01-01 09:39:58.50	105.85	10.54	-48.4	-50.4	22.3	6.07e-01	0	51	0	149422080	60	4416
2026-01-01 09:40:01.47	105.59	10.80	-48.6	-50.6	22.1	6.06e-01	0	51	0	155189248	60	4513
2026-01-01 09:40:04.44	105.32	11.06	-48.7	-50.8	21.9	6.06e-01	0	51	0	160956416	60	4620
2026-01-01 09:40:07.41	105.05	11.33	-48.3	-50.2	22.5	6.06e-01	0	52	0	166199296	60	4309
2026-01-01 09:40:10.38	104.77	11.59	-48.3	-50.2	22.5	6.08e-01	0	52	0	171966464	60	4318
2026-01-01 09:40:13.35	104.49	11.86	-48.5	-50.4	22.7	6.06e-01	0	52	0	177209344	59	4675
2026-01-01 09:40:16.32	104.20	12.14	-48.7	-50.7	22.4	6.05e-01	0	52	0	182976512	59	4851
2026-01-01 09:40:19.28	103.90	12.41	-48.7	-50.8	22.0	6.06e-01	0	52	0	188743680	60	4611
2026-01-01 09:40:22.24	103.60	12.69	-48.4	-50.3	22.5	6.03e-01	0	52	0	193986560	60	4378
2026-01-01 09:40:25.21	103.29	12.97	-48.4	-50.3	22.5	6.03e-01	0	52	0	199753728	60	4370
2026-01-01 09:40:28.18	102.97	13.25	-48.5	-50.4	22.8	6.07e-01	0	52	0	204996608	59	4664
2026-01-01 09:40:31.14	102.65	13.54	-48.6	-50.5	22.6	6.05e-01	0	52	0	210763776	59	4751
2026-01-01 09:40:34.11	102.32	13.82	-48.7	-50.6	22.6	6.05e-01	0	53	0	216530944	59	4775
2026-01-01 09:40:37.07	101.99	14.11	-48.5	-50.4	22.8	6.08e-01	0	53	0	221773824	59	4665
2026-01-01 09:40:40.05	101.64	14.41	-48.3	-50.0	23.1	6.06e-01	0	53	0	227540992	59	4485
2026-01-01 09:40:43.02	101.29	14.71	-48.1	-49.9	23.3	6.07e-01	0	53	0	233308160	59	4392
2026-01-01 09:40:45.98	100.93	15.01	-48.3	-50.1	23.1	6.07e-01	0	53	0	238551040	59	4501
2026-01-01 09:40:48.96	100.56	15.31	-47.9	-49.6	23.5	6.06e-01	0	53	0	244318208	59	4274
2026-01-01 09:40:51.92	100.19	15.62	-48.0	-49.7	23.4	6.06e-01	0	53	0	249561088	59	4323
2026-01-01 09:40:54.90	99.81	15.93	-48.3	-50.0	23.2	6.04e-01	0	53	0	255328256	59	4491
2026-01-01 09:40:57.87	99.41	16.24	-48.3	-50.0	23.2	6.04e-01	0	53	0	261095424	59	4490
2026-01-01 09:41:00.84	99.01	16.56	-48.3	-50.1	23.1	6.05e-01	0	53	0	266338304	59	4534
2026-01-01 09:41:03.82	98.60	16.88	-48.7	-60.1	3.9	7.42e-01	0	53	104	268959744	59	14290
2026-01-01 09:41:06.80	98.18	17.20	-49.1	-60.9	3.9	7.47e-01	0	53	104	268959744	60	14759
2026-01-01 09:41:09.76	97.75	17.53	-50.3	-62.6	3.8	7.47e-01	0	53	104	268959744	62	16069
2026-01-01 09:41:12.73	97.30	17.86	-51.1	-63.8	3.9	7.41e-01	0	54	104	268959744	64	16455
2026-01-01 09:41:15.70	96.85	18.19	-52.2	-66.3	3.8	7.45e-01	0	53	104	268959744	66	19483
2026-01-01 09:41:18.67	96.39	18.52	-53.1	-68.5	3.8	7.47e-01	0	54	104	268959744	68	22498
2026-01-01 09:41:21.66	95.91	18.86	-53.5	-70.1	3.8	7.45e-01	0	54	104	268959744	69	25272
2026-01-01 09:41:24.63	95.43	19.20	-53.3	-69.1	3.8	7.42e-01	0	54	104	268959744	69	22638
2026-01-01 09:41:27.60	94.93	19.55	-53.2	-68.8	3.8	7.45e-01	0	54	104	268959744	69	21993
2026-01-01 09:41:30.56	94.43	19.90	-53.8	-71.3	3.8	7.43e-01	0	54	104	268959744	69	29022
2026-01-01 09:41:33.53	93.90	20.25	-54.0	-72.5	3.8	7.43e-01	0	54	104	268959744	70	31499
2026-01-01 09:41:36.48	93.37	20.60	-54.1	-72.7	3.8	7.49e-01	0	54	104	268959744	70	32414
2026-01-01 09:41:39.45	92.83	20.95	-54.2	-73.6	3.8	7.48e-01	0	54	104	268959744	70	36067
2026-01-01 09:41:42.42	92.26	21.31	-54.1	-73.1	3.8	7.47e-01	0	54	104	268959744	70	33727
2026-01-01 09:41:45.39	91.69	21.67	-53.5	-69.8	3.8	7.43e-01	0	54	104	268959744	70	23177
2026-01-01 09:41:48.34	91.10	22.03	-52.6	-66.9	3.8	7.47e-01	0	54	104	268959744	68	18521
2026-01-01 09:41:51.32	90.50	22.40	-52.5	-66.8	3.8	7.44e-01	0	55	104	268959744	68	18342
2026-01-01 09:41:54.28	89.88	22.77	-52.1	-65.7	3.8	7.41e-01	0	55	104	268959744	67	17182
2026-01-01 09:41:57.25	89.24	23.14	-50.6	-63.0	3.8	7.46e-01	0	55	104	268959744	64	14953
2026-01-01 09:42:00.23	88.59	23.51	-51.0	-63.7	3.8	7.45e-01	0	55	104	268959744	64	16128
2026-01-01 09:42:03.19	87.92	23.89	-52.0	-65.5	3.8	7.46e-01	0	55	104	268959744	66	17847
2026-01-01 09:42:06.16	87.24	24.26	-51.6	-64.9	3.8	7.46e-01	0	55	104	268959744	66	16506
2026-01-01 09:42:09.13	86.53	24.64	-52.7	-67.3	3.8	7.45e-01	0	55	104	268959744	67	20743
2026-01-01 09:42:12.11	85.81	25.02	-53.4	-69.5	3.8	7.49e-01	0	55	104	268959744	69	23758
2026-01-01 09:42:15.08	85.07	25.40	-53.3	-68.9	3.8	7.50e-01	0	55	104	268959744	69	22182
2026-01-01 09:42:18.06	84.31	25.79	-53.4	-69.0	3.8	7.46e-01	0	55	104	268959744	69	22469
2026-01-01 09:42:21.03	83.53	26.17	-53.9	-71.7	3.8	7.47e-01	0	55	104	268959744	70	28716
2026-01-01 09:42:24.01	82.73	26.55	-54.1	-72.4	3.8	7.44e-01	0	55	104	268959744	70	31220
2026-01-01 09:42:26.97	81.91	26.93	-54.2	-73.3	3.8	7.43e-01	0	55	104	268959744	70	34558
2026-01-01 09:42:29.93	81.08	27.31	-54.1	-72.9	3.8	7.46e-01	0	55	104	268959744	70	33232
2026-01-01 09:42:32.89	80.22	27.69	-53.9	-71.4	3.8	7.46e-01	0	55	104	268959744	70	27771
2026-01-01 09:42:35.86	79.34	28.06	-53.0	-67.9	3.8	7.46e-01	0	55	104	268959744	69	19657
2026-01-01 09:42:38.83	78.43	28.44	-52.3	-66.0	3.8	7.45e-01	0	55	104	268959744	68	16886
2026-01-01 09:42:41.80	77.51	28.81	-52.4	-66.2	3.8	7.45e-01	0	55	104	268959744	68	17278
2026-01-01 09:42:44.78	76.56	29.18	-51.7	-65.0	3.8	7.43e-01	0	55	104	268959744	67	15785
2026-01-01 09:42:47.75	75.59	29.55	-50.3	-62.5	3.8	7.48e-01	0	56	104	268959744	64	14111
2026-01-01 09:42:50.72	74.59	29.91	-51.2	-64.1	3.8	7.42e-01	0	56	104	268959744	64	16950
2026-01-01 09:42:53.69	73.57	30.27	-51.1	-63.8	3.8	7.43e-01	0	55	104	268959744	65	15497
2026-01-01 09:42:56.64	72.54	30.62	-50.5	-62.7	3.8	7.39e-01	0	56	104	268959744	63	15262
2026-01-01 09:42:59.61	71.48	30.97	-52.0	-65.4	3.9	7.47e-01	0	56	104	268959744	66	17592
2026-01-01 09:43:02.58	70.39	31.30	-53.0	-67.8	3.8	7.47e-01	0	56	104	268959744	68	20691
2026-01-01 09:43:05.55	69.28	31.64	-52.9	-67.6	3.8	7.45e-01	0	56	104	268959744	68	20235
2026-01-01 09:43:08.52	68.14	31.96	-53.4	-69.2	3.8	7.43e-01	0	56	104	268959744	69	22921
2026-01-01 09:43:11.48	66.99	32.27	-54.0	-71.6	3.8	7.47e-01	0	56	104	268959744	70	28557
2026-01-01 09:43:14.45	65.81	32.58	-54.1	-72.1	3.8	7.45e-01	0	56	104	268959744	70	30225
2026-01-01 09:43:17.43	64.60	32.87	-54.1	-72.2	3.8	7.47e-01	0	56	104	268959744	70	30575
2026-01-01 09:43:20.40	63.37	33.15	-53.9	-71.0	3.8	7.44e-01	0	56	104	268959744	70	26494
2026-01-01 09:43:23.37	62.12	33.42	-53.4	-69.0	3.8	7.44e-01	0	56	104	268959744	70	21209
2026-01-01 09:43:26.34	60.86	33.68	-52.3	-66.0	3.8	7.48e-01	0	56	104	268959744	68	16737
2026-01-01 09:43:29.32	59.56	33.93	-52.0	-65.6	3.8	7.45e-01	0	56	104	268959744	67	16954
2026-01-01 09:43:32.29	58.25	34.15	-52.6	-67.0	3.8	7.45e-01	0	56	104	268959744	67	19925
2026-01-01 09:43:35.26	56.93	34.37	-52.0	-65.4	3.8	7.43e-01	0	56	104	268959744	67	16602
2026-01-01 09:43:38.23	55.58	34.57	-50.9	-63.5	3.8	7.43e-01	0	56	104	268959744	65	15037
2026-01-01 09:43:41.20	54.22	34.75	-51.2	-64.1	3.8	7.47e-01	0	56	104	268959744	65	16016
2026-01-01 09:43:44.18	52.84	34.91	-50.2	-62.3	3.8	7.43e-01	0	56	104	268959744	63	14616
2026-01-01 09:43:47.16	51.45	35.06	-50.5	-62.6	3.8	7.45e-01	0	56	104	268959744	63	15092
2026-01-01 09:43:50.12	50.05	35.19	-51.9	-65.2	3.8	7.47e-01	0	56	104	268959744	65	18264
2026-01-01 09:43:53.09	48.64	35.30	-52.7	-67.2	3.8	7.44e-01	0	56	104	268959744	67	20468
2026-01-01 09:43:56.06	47.22	35.39	-53.1	-68.0	3.8	7.47e-01	0	56	104	268959744	68	21161
2026-01-01 09:43:59.03	45.79	35.46	-53.7	-70.3	3.8	7.47e-01	0	56	104	268959744	69	26017
2026-01-01 09:44:02.00	44.36	35.51	-54.1	-72.1	3.8	7.46e-01	0	57	104	268959744	70	30093
2026-01-01 09:44:04.97	42.93	35.54	-54.0	-71.5	3.8	7.48e-01	0	56	104	268959744	70	28260
2026-01-01 09:44:07.96	41.48	35.55	-53.7	-70.2	3.8	7.44e-01	0	56	104	268959744	70	24219
2026-01-01 09:44:10.93	40.04	35.54	-53.7	-70.4	3.8	7.48e-01	0	56	104	268959744	70	24718
2026-01-01 09:44:13.90	38.60	35.51	-53.1	-68.0	3.8	7.44e-01	0	56	104	268959744	69	19950
2026-01-01 09:44:16.86	37.18	35.46	-51.6	-64.7	3.8	7.44e-01	0	56	104	268959744	66	16274
2026-01-01 09:44:19.82	35.75	35.39	-52.0	-65.5	3.8	7.45e-01	0	56	104	268959744	66	17751
2026-01-01 09:44:22.80	34.33	35.30	-52.3	-66.2	3.8	7.46e-01	0	56	104	268959744	67	18106
2026-01-01 09:44:25.77	32.92	35.20	-51.1	-63.8	3.8	7.43e-01	0	56	104	268959744	65	15450
2026-01-01 09:44:28.73	31.52	35.07	-50.5	-62.7	3.8	7.44e-01	0	56	104	268959744	63	15260
2026-01-01 09:44:31.68	30.14	34.93	-49.7	-61.4	3.8	7.46e-01	0	56	104	268959744	63	13133
2026-01-01 09:44:34.63	28.78	34.76	-49.7	-61.6	3.8	7.42e-01	0	56	104	268959744	62	14335
2026-01-01 09:44:37.60	27.41	34.58	-50.4	-62.6	3.8	7.43e-01	0	57	104	268959744	62	15948
2026-01-01 09:44:40.54	26.08	34.39	-51.7	-65.1	3.8	7.47e-01	0	57	104	268959744	65	18045
2026-01-01 09:44:43.52	24.75	34.18	-53.0	-70.3	3.8	7.46e-01	0	56	104	268959744	68	27490
2026-01-01 09:44:46.49	23.44	33.95	-53.1	-71.7	3.8	7.46e-01	0	56	104	268959744	68	32191
2026-01-01 09:44:49.45	22.16	33.71	-53.2	-70.6	3.8	7.43e-01	0	57	104	268959744	68	28487
2026-01-01 09:44:52.43	20.89	33.45	-53.8	-71.4	3.8	7.45e-01	0	56	104	268959744	69	29518
2026-01-01 09:44:55.40	19.64	33.18	-53.6	-70.6	3.8	7.48e-01	0	57	104	268959744	69	27034
2026-01-01 09:44:58.38	18.41	32.90	-53.4	-69.4	3.8	7.45e-01	0	57	104	268959744	69	23518
2026-01-01 09:45:01.35	17.20	32.61	-53.3	-69.2	3.8	7.45e-01	0	57	104	268959744	69	22827
2026-01-01 09:45:04.33	16.02	32.31	-51.9	-65.4	3.8	7.44e-01	0	57	104	268959744	67	16660
2026-01-01 09:45:07.30	14.86	31.99	-50.4	-62.7	3.8	7.47e-01	0	57	104	268959744	64	14446
2026-01-01 09:45:10.28	13.72	31.67	-51.0	-63.7	3.9	7.46e-01	0	57	104	268959744	64	16205
2026-01-01 09:45:13.25	12.61	31.34	-50.2	-62.5	3.8	7.43e-01	0	57	104	268959744	64	14153
2026-01-01 09:45:16.21	11.52	31.01	-49.0	-60.6	3.8	7.44e-01	0	56	104	268959744	61	13485
2026-01-01 09:45:19.17	10.46	30.66	-48.7	-60.1	3.8	7.45e-01	0	57	104	268959744	60	13503
2026-01-01 09:45:22.14	9.42	30.31	-49.0	-60.5	3.8	7.45e-01	0	57	104	268959744	60	14117
2026-01-01 09:45:25.12	8.40	29.95	-50.4	-62.6	3.8	7.41e-01	0	57	104	268959744	62	15944
2026-01-01 09:45:28.09	7.41	29.59	-50.8	-63.0	3.8	7.41e-01	0	57	104	268959744	63	15921
2026-01-01 09:45:31.04	6.44	29.23	-51.7	-65.1	3.8	7.45e-01	0	57	104	268959744	65	18053
2026-01-01 09:45:34.01	5.49	28.86	-52.7	-67.2	3.8	7.45e-01	0	57	104	268959744	67	20320
2026-01-01 09:45:36.99	4.56	28.49	-51.7	-64.8	3.8	7.45e-01	0	57	104	268959744	66	16486
2026-01-01 09:45:39.96	3.66	28.12	-52.0	-65.4	3.8	7.43e-01	0	57	104	268959744	66	17581
2026-01-01 09:45:42.93	2.78	27.74	-53.1	-68.3	3.8	7.45e-01	0	57	104	268959744	68	21845
2026-01-01 09:45:45.89	1.92	27.36	-52.6	-67.1	3.8	7.43e-01	0	57	104	268959744	68	19057
2026-01-01 09:45:48.86	1.08	26.98	-52.5	-66.6	3.8	7.46e-01	0	57	104	268959744	68	17991
2026-01-01 09:45:51.83	0.26	26.60	-52.3	-66.3	3.8	7.47e-01	0	57	104	268959744	68	17357
2026-01-01 09:45:54.80	359.47	26.22	-50.6	-63.1	3.8	7.43e-01	0	57	104	268959744	64	15171
2026-01-01 09:45:57.76	358.69	25.84	-49.8	-61.8	3.8	7.46e-01	0	57	104	268959744	62	14662
2026-01-01 09:46:00.73	357.93	25.46	-49.5	-61.4	3.8	7.43e-01	0	57	104	268959744	62	14001
2026-01-01 09:46:03.69	357.19	25.09	-49.5	-61.4	3.8	7.44e-01	0	57	104	268959744	62	13935
2026-01-01 09:46:06.67	356.47	24.71	-49.2	-61.1	3.8	7.48e-01	0	57	104	268959744	61	14283
2026-01-01 09:46:09.62	355.77	24.33	-49.3	-61.1	3.8	7.45e-01	0	57	104	268959744	61	14215
2026-01-01 09:46:12.59	355.09	23.96	-50.6	-62.7	3.8	7.45e-01	0	57	104	268959744	63	15400
2026-01-01 09:46:15.56	354.42	23.58	-51.9	-65.3	3.8	7.46e-01	0	57	104	268959744	66	17387
2026-01-01 09:46:18.52	353.77	23.21	-52.1	-65.9	3.8	7.45e-01	0	57	104	268959744	66	18558
2026-01-01 09:46:21.50	353.13	22.84	-52.5	-67.1	3.8	7.44e-01	0	57	104	268959744	67	20201
2026-01-01 09:46:24.47	352.51	22.47	-51.6	-65.0	3.8	7.46e-01	0	57	104	268959744	66	16717
2026-01-01 09:46:27.43	351.91	22.11	-50.4	-62.4	3.8	7.44e-01	0	57	104	268959744	64	13919
2026-01-01 09:46:30.38	351.32	21.75	-51.2	-64.4	3.8	7.46e-01	0	57	104	268959744	64	17496
2026-01-01 09:46:33.36	350.74	21.38	-52.2	-66.0	3.8	7.47e-01	0	57	104	268959744	66	18890
2026-01-01 09:46:36.33	350.18	21.03	-51.5	-64.9	3.8	7.45e-01	0	57	104	268959744	66	16558
2026-01-01 09:46:39.30	349.64	20.67	-51.5	-64.7	3.8	7.46e-01	0	57	104	268959744	66	16167
2026-01-01 09:46:42.27	349.10	20.32	-50.7	-63.3	3.8	7.47e-01	0	57	104	268959744	65	14631
2026-01-01 09:46:45.25	348.58	19.97	-49.5	-61.4	3.8	7.47e-01	0	57	104	268959744	62	13919
2026-01-01 09:46:48.22	348.07	19.62	-48.6	-60.1	3.8	7.46e-01	0	57	104	268959744	60	13443
2026-01-01 09:46:51.18	347.58	19.28	-50.3	-62.7	3.8	7.44e-01	0	57	104	268959744	62	16221
2026-01-01 09:46:54.15	347.09	18.94	-51.2	-64.5	3.8	7.44e-01	0	57	104	268959744	64	17828
2026-01-01 09:46:57.12	346.62	18.60	-52.1	-67.5	3.8	7.44e-01	0	57	104	268959744	66	22414
2026-01-01 09:47:00.09	346.16	18.27	-51.3	-65.9	3.8	7.48e-01	0	57	104	268959744	66	18723
2026-01-01 09:47:03.07	345.70	17.93	-51.4	-57.7	5.1	7.04e-01	14	57	104	268959744	66	7266
2026-01-01 09:47:06.04	345.26	17.61	-52.4	-62.2	9.4	6.27e-01	0	57	0	4194304	67	11422
2026-01-01 09:47:09.01	344.83	17.28	-52.3	-64.0	7.1	6.61e-01	92	57	0	9961472	67	14132
2026-01-01 09:47:11.97	344.41	16.96	-51.7	-58.4	13.1	6.07e-01	0	57	0	15728640	67	7444
2026-01-01 09:47:14.92	344.01	16.64	-51.4	-56.9	14.9	6.04e-01	0	57	0	20971520	65	7016
2026-01-01 09:47:17.89	343.60	16.33	-50.0	-53.4	18.4	6.03e-01	0	57	0	26738688	63	5268
2026-01-01 09:47:20.86	343.21	16.02	-50.8	-55.3	16.6	6.01e-01	0	57	0	31981568	63	6531
2026-01-01 09:47:23.82	342.83	15.71	-50.4	-54.5	17.1	6.03e-01	0	57	0	37748736	63	5988
2026-01-01 09:47:26.79	342.45	15.40	-50.9	-56.3	15.1	6.05e-01	0	57	0	43515904	64	6917
2026-01-01 09:47:29.75	342.09	15.10	-51.3	-59.2	11.5	6.12e-01	0	57	0	48758784	64	9629
2026-01-01 09:47:32.71	341.73	14.80	-51.2	-61.6	8.6	6.38e-01	5	57	0	54525952	64	12708
2026-01-01 09:47:35.68	341.38	14.50	-51.2	-63.5	6.5	6.73e-01	91	57	0	59768832	64	15924
2026-01-01 09:47:38.64	341.04	14.21	-51.0	-65.6	4.9	7.12e-01	0	57	104	62390272	64	20132
2026-01-01 09:47:41.61	340.70	13.92	-51.0	-67.1	4.2	7.45e-01	0	57	104	62390272	64	24056
2026-01-01 09:47:44.58	340.37	13.63	-50.7	-68.0	3.9	7.45e-01	0	57	104	62390272	64	26716
2026-01-01 09:47:47.55	340.05	13.34	-50.3	-67.3	4.0	7.37e-01	0	57	104	62390272	64	24465
2026-01-01 09:47:50.52	339.73	13.06	-50.0	-68.4	3.8	7.45e-01	0	57	104	62390272	63	29555
2026-01-01 09:47:53.50	339.43	12.78	-49.8	-69.4	3.8	7.45e-01	0	57	104	62390272	63	33208
2026-01-01 09:47:56.47	339.12	12.50	-49.8	-69.2	3.8	7.42e-01	0	57	104	62390272	63	32468
2026-01-01 09:47:59.43	338.83	12.23	-50.1	-64.6	4.9	7.11e-01	0	57	104	62390272	63	18993
2026-01-01 09:48:02.40	338.54	11.95	-50.8	-59.1	10.9	6.13e-01	0	57	0	4194304	63	10086
2026-01-01 09:48:05.36	338.26	11.69	-50.7	-55.1	16.4	6.04e-01	0	57	0	9961472	64	6060
2026-01-01 09:48:08.34	337.98	11.42	-50.6	-54.3	17.8	6.02e-01	0	57	0	15204352	64	5522
2026-01-01 09:48:11.30	337.70	11.15	-50.5	-54.0	18.2	6.03e-01	0	57	0	20971520	63	5630
2026-01-01 09:48:14.28	337.44	10.89	-50.3	-53.6	18.8	6.01e-01	0	57	0	26214400	63	5377
2026-01-01 09:48:17.24	337.18	10.63	-50.5	-53.9	18.5	6.02e-01	0	57	0	31981568	63	5547
2026-01-01 09:48:20.20	336.92	10.38	-50.0	-53.0	19.4	6.02e-01	0	57	0	37748736	62	5284
2026-01-01 09:48:23.17	336.67	10.12	-49.2	-51.7	20.7	6.04e-01	0	57	0	42991616	61	4840
2026-01-01 09:48:26.15	336.42	9.87	-48.8	-51.1	21.2	6.04e-01	0	57	0	48758784	60	4778
2026-01-01 09:48:29.11	336.18	9.62	-49.1	-51.5	20.8	6.01e-01	0	57	0	54001664	60	5012
2026-01-01 09:48:32.06	335.94	9.38	-48.8	-51.1	21.1	6.02e-01	0	57	0	59768832	60	4806
2026-01-01 09:48:35.02	335.71	9.13	-49.0	-51.4	21.0	6.02e-01	0	57	0	65536000	60	4931
2026-01-01 09:48:37.99	335.48	8.89	-48.8	-51.1	21.3	6.03e-01	0	57	0	70778880	60	4762
2026-01-01 09:48:40.96	335.26	8.65	-48.8	-51.2	21.1	6.02e-01	0	57	0	76546048	60	4820
2026-01-01 09:48:43.94	335.04	8.41	-49.0	-51.3	21.0	6.02e-01	0	57	0	81788928	60	4909
2026-01-01 09:48:46.91	334.82	8.17	-48.9	-51.3	21.0	6.02e-01	0	57	0	87556096	60	4890
2026-01-01 09:48:49.88	334.61	7.94	-48.9	-51.2	21.0	6.02e-01	0	57	0	93323264	60	4841
2026-01-01 09:48:52.83	334.40	7.71	-49.0	-51.5	20.8	6.01e-01	0	57	0	98566144	60	4999
2026-01-01 09:48:55.81	334.20	7.48	-49.2	-51.7	20.7	6.03e-01	0	57	0	104333312	60	5101
2026-01-01 09:48:58.78	333.99	7.25	-49.1	-51.5	20.7	6.02e-01	0	57	0	110100480	60	5041
2026-01-01 09:49:01.75	333.80	7.02	-49.4	-52.0	20.2	6.00e-01	0	57	0	115343360	60	5323
2026-01-01 09:49:04.71	333.60	6.80	-49.3	-51.9	20.3	6.04e-01	0	57	0	121110528	60	5224
2026-01-01 09:49:07.69	333.41	6.57	-49.5	-52.2	20.0	6.05e-01	0	57	0	126353408	61	5153
2026-01-01 09:49:10.65	333.23	6.35	-49.6	-52.5	19.7	6.03e-01	0	57	0	132120576	61	5304
2026-01-01 09:49:13.63	333.04	6.13	-49.8	-52.8	19.4	6.03e-01	0	57	0	137887744	61	5472
2026-01-01 09:49:16.60	332.86	5.92	-49.4	-52.2	20.0	6.04e-01	0	57	0	143130624	61	5105
2026-01-01 09:49:19.58	332.68	5.70	-49.3	-52.1	20.1	6.01e-01	0	57	0	148897792	61	5054
2026-01-01 09:49:22.54	332.51	5.49	-49.4	-52.1	19.9	6.02e-01	0	57	0	154664960	61	5093
2026-01-01 09:49:25.51	332.34	5.27	-49.4	-52.2	19.7	6.02e-01	0	57	0	159907840	61	5159
2026-01-01 09:49:28.49	332.17	5.06	-49.6	-52.5	19.4	6.03e-01	0	57	0	165675008	61	5325
2026-01-01 09:49:31.45	332.00	4.85	-53.8	-73.4	3.8	7.44e-01	0	57	104	167247872	69	36991
2026-01-01 09:49:34.41	331.84	4.65	-53.6	-73.5	3.8	7.46e-01	0	57	104	167247872	70	35560
2026-01-01 09:49:37.38	331.68	4.44	-54.3	-74.2	3.8	7.50e-01	0	57	104	167247872	70	38369
2026-01-01 09:49:40.35	331.52	4.24	-54.4	-74.3	3.8	7.45e-01	0	57	104	167247872	70	38768
2026-01-01 09:49:43.33	331.36	4.03	-54.4	-74.4	3.8	7.44e-01	0	57	104	167247872	71	37122
2026-01-01 09:49:46.29	331.21	3.83	-54.5	-74.4	3.8	7.45e-01	0	58	104	167247872	71	37291
2026-01-01 09:49:49.27	331.06	3.63	-54.5	-74.4	3.8	7.46e-01	0	57	104	167247872	71	37373
2026-01-01 09:49:52.25	330.91	3.43	-54.6	-74.5	3.8	7.44e-01	0	57	104	167247872	71	37531
2026-01-01 09:49:55.22	330.77	3.24	-54.6	-74.5	3.8	7.45e-01	0	58	104	167247872	71	37582
2026-01-01 09:49:58.19	330.62	3.04	-54.5	-74.5	3.8	7.44e-01	0	58	104	167247872	71	37469

#Closed at: 2026-01-01 09:49:59
#Recorded file [167 MB]: D:/Data/31026_260101_124929.dat