passes_logs/2026/01/01/R3.0SM8_Murmansk_STILSPACE/R3.0SM8_Murmansk_STILSPACE__20260101_062617_AQUA_rec.log

#Pass ID: 20260101_062617_AQUA
#Satellite: AQUA
#Configuration: AQUA
#almurnet v.1.7.20240730
#Start time: 2026-01-01 06:26:18

#Version: 2.2.20231116
#Station: R3.0SM8_Murmansk_STILSPACE
#Location: 33.092731 lon 68.902999 lat
#TLE: 1 27424U 02022A   25364.96158943  .00001951  00000+0  40088-3 0  9998
#TLE: 2 27424  98.4061 326.1389 0001917  95.3187 305.7939 14.61780362258696

#Time	Az	El	Level	Level2	SNR	BER	BlckErr	Temp	State	Recorded	gain1	gain2
2026-01-01 06:26:18.04	50.93	3.01	-54.3	-74.2	3.8	7.50e-01	0	50	0	0	71	36424
2026-01-01 06:26:20.99	50.68	3.18	-54.0	-73.9	3.8	7.45e-01	0	50	104	0	70	37229
2026-01-01 06:26:23.94	50.42	3.35	-53.5	-73.3	3.8	7.47e-01	0	50	104	0	70	34713
2026-01-01 06:26:26.89	50.15	3.53	-53.3	-72.9	3.8	7.46e-01	0	50	104	0	70	33291
2026-01-01 06:26:29.85	49.89	3.70	-53.2	-72.6	3.8	7.47e-01	0	50	104	0	70	31851
2026-01-01 06:26:32.81	49.61	3.87	-53.2	-72.2	3.8	7.43e-01	0	51	104	0	70	30456
2026-01-01 06:26:35.76	49.34	4.05	-53.2	-72.5	3.8	7.45e-01	0	51	104	0	70	31570
2026-01-01 06:26:38.71	49.06	4.22	-53.2	-72.7	3.8	7.43e-01	0	51	104	0	70	32234
2026-01-01 06:26:41.66	48.78	4.40	-53.2	-71.0	3.9	7.45e-01	0	51	104	0	70	26678
2026-01-01 06:26:44.61	48.49	4.57	-53.0	-71.4	3.8	7.44e-01	0	51	104	0	69	29632
2026-01-01 06:26:47.56	48.20	4.75	-52.5	-68.7	3.8	7.44e-01	0	52	104	0	68	22916
2026-01-01 06:26:50.51	47.91	4.93	-51.7	-66.4	3.8	7.44e-01	0	52	104	0	67	18724
2026-01-01 06:26:53.47	47.61	5.10	-51.6	-66.0	3.8	7.47e-01	0	52	104	0	66	18894
2026-01-01 06:26:56.42	47.31	5.28	-51.9	-66.6	3.8	7.46e-01	0	52	104	0	66	20133
2026-01-01 06:26:59.37	47.00	5.46	-52.4	-68.3	3.8	7.46e-01	0	52	104	0	67	23172
2026-01-01 06:27:02.31	46.69	5.64	-52.8	-69.6	3.8	7.42e-01	0	53	104	0	67	26811
2026-01-01 06:27:05.26	46.38	5.82	-53.1	-70.7	3.8	7.45e-01	0	53	104	0	68	28925
2026-01-01 06:27:08.22	46.06	6.00	-53.0	-70.3	3.8	7.44e-01	0	53	104	0	68	27514
2026-01-01 06:27:11.18	45.73	6.19	-53.1	-70.7	3.8	7.47e-01	0	53	104	0	68	28857
2026-01-01 06:27:14.14	45.40	6.37	-52.6	-68.6	3.8	7.46e-01	0	53	104	0	68	22632
2026-01-01 06:27:17.09	45.07	6.55	-51.9	-66.4	3.8	7.42e-01	0	53	104	0	67	18681
2026-01-01 06:27:20.04	44.73	6.73	-52.0	-66.5	3.8	7.41e-01	0	54	104	0	67	18907
2026-01-01 06:27:22.99	44.39	6.92	-52.2	-67.2	3.8	7.43e-01	0	54	104	0	67	20350
2026-01-01 06:27:25.94	44.04	7.10	-51.8	-66.1	3.8	7.46e-01	0	54	104	0	67	17965
2026-01-01 06:27:28.90	43.69	7.29	-51.1	-64.6	3.8	7.44e-01	0	54	104	0	65	16943
2026-01-01 06:27:31.84	43.33	7.47	-50.4	-63.3	3.8	7.44e-01	0	54	104	0	64	15416
2026-01-01 06:27:34.80	42.97	7.66	-50.1	-62.6	3.8	7.44e-01	0	54	104	0	63	15169
2026-01-01 06:27:37.76	42.60	7.85	-49.8	-62.1	3.8	7.43e-01	0	54	104	0	63	14259
2026-01-01 06:27:40.72	42.23	8.03	-50.6	-63.4	3.8	7.46e-01	0	55	104	0	63	16692
2026-01-01 06:27:43.67	41.85	8.22	-51.1	-64.3	3.8	7.45e-01	0	55	104	0	64	17452
2026-01-01 06:27:46.63	41.46	8.41	-51.4	-65.0	3.8	7.45e-01	0	55	104	0	65	17872
2026-01-01 06:27:49.57	41.08	8.60	-52.0	-66.2	3.8	7.42e-01	0	55	104	0	66	19302
2026-01-01 06:27:52.53	40.68	8.79	-52.8	-68.8	3.8	7.45e-01	0	55	104	0	67	24453
2026-01-01 06:27:55.47	40.28	8.97	-53.3	-70.5	3.8	7.46e-01	0	55	104	0	68	28152
2026-01-01 06:27:58.42	39.87	9.16	-53.2	-70.1	3.8	7.44e-01	0	55	104	0	68	26881
2026-01-01 06:28:01.38	39.46	9.35	-53.2	-69.8	3.8	7.43e-01	0	55	104	0	68	26026
2026-01-01 06:28:04.33	39.04	9.54	-53.2	-69.7	3.8	7.44e-01	0	56	104	0	68	25817
2026-01-01 06:28:07.28	38.62	9.73	-52.4	-67.0	3.8	7.44e-01	0	56	104	0	68	18902
2026-01-01 06:28:10.23	38.19	9.92	-52.4	-67.0	3.8	7.43e-01	0	56	104	0	68	18734
2026-01-01 06:28:13.19	37.75	10.11	-52.6	-67.7	3.8	7.47e-01	0	56	104	0	68	20511
2026-01-01 06:28:16.14	37.31	10.30	-52.0	-66.1	3.8	7.45e-01	0	56	104	0	67	17978
2026-01-01 06:28:19.10	36.86	10.49	-51.0	-64.1	3.8	7.43e-01	0	56	104	0	65	16088
2026-01-01 06:28:22.05	36.40	10.68	-50.2	-62.7	3.8	7.45e-01	0	56	104	0	64	14398
2026-01-01 06:28:25.00	35.94	10.87	-49.7	-61.8	3.8	7.43e-01	0	57	104	0	63	13728
2026-01-01 06:28:27.95	35.47	11.06	-49.3	-61.2	3.8	7.43e-01	0	57	104	0	62	13623
2026-01-01 06:28:30.91	34.99	11.25	-49.3	-61.1	3.8	7.45e-01	0	57	104	0	61	14262
2026-01-01 06:28:33.86	34.51	11.44	-49.9	-62.1	3.8	7.44e-01	0	57	104	0	62	15120
2026-01-01 06:28:36.81	34.02	11.63	-50.4	-62.9	3.9	7.41e-01	0	57	104	0	63	15708
2026-01-01 06:28:39.76	33.52	11.82	-50.7	-63.5	3.8	7.44e-01	0	57	104	0	64	15772
2026-01-01 06:28:42.71	33.02	12.01	-51.4	-64.6	3.8	7.44e-01	0	57	104	0	65	17025
2026-01-01 06:28:45.66	32.51	12.20	-52.1	-66.3	3.8	7.46e-01	0	57	104	0	66	19451
2026-01-01 06:28:48.62	31.99	12.39	-51.8	-65.6	3.8	7.42e-01	0	57	104	0	66	17908
2026-01-01 06:28:51.57	31.46	12.57	-51.6	-65.0	3.8	7.45e-01	0	57	104	0	66	16779
2026-01-01 06:28:54.52	30.93	12.76	-52.7	-67.7	3.8	7.48e-01	0	57	104	0	67	21547
2026-01-01 06:28:57.48	30.39	12.94	-53.3	-69.8	3.8	7.45e-01	0	57	104	0	68	25897
2026-01-01 06:29:00.43	29.84	13.13	-53.3	-69.7	3.8	7.44e-01	0	57	104	0	68	25571
2026-01-01 06:29:03.38	29.29	13.31	-53.5	-70.8	3.8	7.46e-01	0	58	104	0	69	27512
2026-01-01 06:29:06.34	28.72	13.50	-53.2	-69.2	3.8	7.47e-01	0	58	104	0	69	22843
2026-01-01 06:29:09.30	28.15	13.68	-51.9	-65.6	3.8	7.45e-01	0	58	104	0	67	17005
2026-01-01 06:29:12.25	27.58	13.86	-50.9	-63.6	3.8	7.48e-01	0	58	104	0	65	15171
2026-01-01 06:29:15.21	26.99	14.04	-50.5	-63.0	3.8	7.43e-01	0	58	104	0	64	15035
2026-01-01 06:29:18.16	26.40	14.21	-50.0	-62.1	3.8	7.46e-01	0	58	104	0	63	14297
2026-01-01 06:29:21.12	25.79	14.39	-49.0	-60.7	3.8	7.44e-01	0	58	104	0	61	13681
2026-01-01 06:29:24.07	25.19	14.57	-49.0	-60.7	3.8	7.45e-01	0	58	104	0	61	13613
2026-01-01 06:29:27.02	24.57	14.74	-49.4	-61.3	3.9	7.43e-01	0	58	104	0	61	14554
2026-01-01 06:29:29.96	23.95	14.91	-50.1	-62.2	3.8	7.47e-01	0	58	104	0	62	15283
2026-01-01 06:29:32.92	23.32	15.08	-50.3	-62.6	3.8	7.45e-01	0	58	104	0	62	15982
2026-01-01 06:29:35.87	22.68	15.24	-51.4	-64.6	3.8	7.41e-01	0	58	104	0	64	18019
2026-01-01 06:29:38.82	22.03	15.41	-51.4	-64.5	3.8	7.42e-01	0	58	104	0	65	16849
2026-01-01 06:29:41.77	21.38	15.57	-51.2	-64.3	3.8	7.46e-01	0	59	104	0	65	16324
2026-01-01 06:29:44.73	20.71	15.73	-51.6	-64.9	3.8	7.43e-01	0	59	104	0	65	17631
2026-01-01 06:29:47.69	20.04	15.89	-52.9	-68.0	3.8	7.44e-01	0	59	104	0	67	22476
2026-01-01 06:29:50.64	19.36	16.04	-53.4	-70.0	3.8	7.43e-01	0	59	104	0	69	25066
2026-01-01 06:29:53.60	18.68	16.19	-53.7	-71.4	3.8	7.46e-01	0	59	104	0	69	29559
2026-01-01 06:29:56.55	17.98	16.34	-53.4	-69.9	3.8	7.41e-01	0	59	104	0	69	24906
2026-01-01 06:29:59.50	17.29	16.49	-52.6	-67.3	3.8	7.46e-01	0	59	104	0	68	19406
2026-01-01 06:30:02.45	16.58	16.63	-51.4	-64.5	3.8	7.43e-01	0	59	104	0	66	15832
2026-01-01 06:30:05.40	15.87	16.77	-50.7	-63.3	3.8	7.43e-01	0	59	104	0	65	14598
2026-01-01 06:30:08.35	15.15	16.90	-50.6	-63.0	3.8	7.44e-01	0	59	104	0	64	15044
2026-01-01 06:30:11.30	14.42	17.03	-49.8	-61.8	3.8	7.46e-01	0	59	104	0	63	13750
2026-01-01 06:30:14.25	13.68	17.16	-49.0	-60.7	3.8	7.45e-01	0	59	104	0	61	13593
2026-01-01 06:30:17.21	12.94	17.28	-49.0	-60.6	3.8	7.46e-01	0	59	104	0	61	13507
2026-01-01 06:30:20.16	12.19	17.40	-49.7	-61.6	3.8	7.43e-01	0	59	104	0	61	15222
2026-01-01 06:30:23.12	11.44	17.52	-49.3	-61.1	3.8	7.44e-01	0	59	104	0	61	14257
2026-01-01 06:30:26.07	10.68	17.63	-50.2	-62.3	3.8	7.46e-01	0	59	104	0	62	15565
2026-01-01 06:30:29.02	9.91	17.74	-50.8	-63.5	3.8	7.44e-01	0	59	104	0	64	15853
2026-01-01 06:30:31.97	9.14	17.84	-50.4	-62.8	3.8	7.44e-01	0	59	104	0	64	14543
2026-01-01 06:30:34.92	8.37	17.94	-50.8	-63.5	3.8	7.40e-01	0	60	104	0	64	15794
2026-01-01 06:30:37.87	7.58	18.03	-52.3	-66.4	3.8	7.46e-01	0	59	104	0	66	19673
2026-01-01 06:30:40.83	6.79	18.12	-52.9	-68.5	3.8	7.45e-01	0	59	104	0	68	22466
2026-01-01 06:30:43.78	6.00	18.20	-53.0	-69.8	3.8	7.45e-01	0	60	104	0	68	25887
2026-01-01 06:30:46.73	5.21	18.28	-52.8	-70.6	3.8	7.48e-01	0	60	104	0	68	28520
2026-01-01 06:30:49.68	4.41	18.35	-52.1	-70.9	3.8	7.48e-01	0	60	104	0	67	31327
2026-01-01 06:30:52.64	3.60	18.42	-51.3	-70.0	3.8	7.46e-01	0	60	104	0	66	29966
2026-01-01 06:30:55.60	2.79	18.48	-50.4	-67.4	3.8	7.45e-01	0	60	104	0	64	24716
2026-01-01 06:30:58.55	1.98	18.53	-50.5	-65.1	3.8	7.47e-01	0	60	104	0	64	18980
2026-01-01 06:31:01.50	1.17	18.58	-50.0	-62.3	3.8	7.45e-01	0	60	104	0	63	14671
2026-01-01 06:31:04.45	0.35	18.63	-49.1	-60.8	3.8	7.44e-01	0	60	104	0	61	13778
2026-01-01 06:31:07.40	359.53	18.67	-48.9	-60.6	3.8	7.45e-01	0	60	104	0	61	13447
2026-01-01 06:31:10.36	358.71	18.70	-49.1	-60.8	3.8	7.43e-01	0	60	104	0	61	13851
2026-01-01 06:31:13.31	357.88	18.73	-49.4	-61.2	3.8	7.48e-01	0	60	104	0	61	14515
2026-01-01 06:31:16.27	357.06	18.75	-49.6	-61.5	3.8	7.45e-01	0	60	104	0	61	14954
2026-01-01 06:31:19.23	356.23	18.76	-50.3	-62.6	3.8	7.43e-01	0	60	104	0	62	16055
2026-01-01 06:31:22.18	355.40	18.77	-49.8	-61.9	3.8	7.44e-01	0	60	104	0	62	14711
2026-01-01 06:31:25.13	354.58	18.78	-50.0	-62.0	3.8	7.46e-01	0	60	104	0	62	15015
2026-01-01 06:31:28.09	353.75	18.77	-50.7	-63.3	3.8	7.44e-01	0	60	104	0	63	16433
2026-01-01 06:31:31.05	352.92	18.77	-51.4	-64.5	3.8	7.44e-01	0	60	104	0	64	17821
2026-01-01 06:31:34.00	352.09	18.75	-52.1	-66.0	3.8	7.49e-01	0	60	104	0	66	18846
2026-01-01 06:31:36.96	351.26	18.73	-52.8	-68.1	3.8	7.46e-01	0	60	104	0	67	22583
2026-01-01 06:31:39.92	350.44	18.71	-52.6	-67.5	3.8	7.43e-01	0	60	104	0	67	21095
2026-01-01 06:31:42.87	349.62	18.67	-52.4	-66.9	3.8	7.47e-01	0	60	104	0	68	18703
2026-01-01 06:31:45.82	348.80	18.64	-51.7	-65.1	3.8	7.44e-01	0	60	104	0	66	16917
2026-01-01 06:31:48.76	347.98	18.59	-51.3	-64.5	3.8	7.42e-01	0	60	104	0	66	15769
2026-01-01 06:31:51.71	347.17	18.54	-52.0	-67.0	3.8	7.45e-01	0	60	104	0	66	21041
2026-01-01 06:31:54.67	346.35	18.49	-50.5	-63.6	3.8	7.48e-01	0	60	104	0	64	16034
2026-01-01 06:31:57.61	345.55	18.43	-49.0	-60.8	3.8	7.46e-01	0	60	104	0	61	13815
2026-01-01 06:32:00.57	344.74	18.36	-49.7	-61.9	3.8	7.44e-01	0	60	104	0	61	15656
2026-01-01 06:32:03.52	343.94	18.29	-50.6	-63.7	3.8	7.42e-01	0	60	104	0	63	17101
2026-01-01 06:32:06.47	343.14	18.22	-50.7	-64.0	3.8	7.45e-01	0	61	104	0	63	17685
2026-01-01 06:32:09.43	342.35	18.14	-51.1	-65.5	3.8	7.43e-01	0	61	104	0	64	19985
2026-01-01 06:32:12.38	341.56	18.05	-51.3	-66.1	3.8	7.47e-01	0	60	104	0	65	20270
2026-01-01 06:32:15.33	340.78	17.96	-50.4	-63.7	3.8	7.45e-01	0	61	104	0	64	16195
2026-01-01 06:32:18.28	340.00	17.86	-49.0	-60.8	3.8	7.45e-01	0	60	104	0	61	13784
2026-01-01 06:32:21.24	339.22	17.76	-50.5	-63.0	3.9	7.45e-01	0	60	104	0	63	15906
2026-01-01 06:32:24.20	338.45	17.65	-50.8	-63.9	3.8	7.44e-01	0	61	104	0	64	16507
2026-01-01 06:32:27.15	337.69	17.54	-51.5	-65.1	3.8	7.44e-01	0	61	104	0	65	17975
2026-01-01 06:32:30.11	336.94	17.43	-51.9	-66.2	3.8	7.44e-01	0	60	104	0	66	19361
2026-01-01 06:32:33.07	336.18	17.31	-53.0	-68.8	3.8	7.45e-01	0	61	104	0	68	23289
2026-01-01 06:32:36.02	335.44	17.19	-51.9	-65.0	3.8	7.44e-01	0	61	104	0	67	15902
2026-01-01 06:32:38.97	334.71	17.06	-50.9	-62.7	3.8	7.44e-01	0	61	104	0	65	13709
2026-01-01 06:32:41.93	333.98	16.93	-50.6	-63.0	3.8	7.44e-01	0	61	104	0	64	14912
2026-01-01 06:32:44.88	333.25	16.80	-49.8	-62.3	3.8	7.46e-01	0	61	104	0	63	14611
2026-01-01 06:32:47.84	332.54	16.66	-49.4	-61.4	3.8	7.41e-01	0	61	104	0	62	13895
2026-01-01 06:32:50.79	331.83	16.52	-48.9	-60.3	3.8	7.44e-01	0	61	104	0	61	13051
2026-01-01 06:32:53.75	331.12	16.37	-49.1	-61.2	3.8	7.42e-01	0	61	104	0	61	14441
2026-01-01 06:32:56.70	330.43	16.22	-49.0	-60.3	3.8	7.44e-01	0	61	104	0	61	13032
2026-01-01 06:32:59.66	329.74	16.07	-49.1	-61.0	3.8	7.44e-01	0	61	104	0	61	14183
2026-01-01 06:33:02.61	329.06	15.92	-48.9	-60.2	3.8	7.44e-01	0	61	104	0	61	12834
2026-01-01 06:33:05.56	328.39	15.76	-49.1	-60.8	3.8	7.43e-01	0	61	104	0	61	13821
2026-01-01 06:33:08.52	327.73	15.60	-49.7	-61.4	3.8	7.43e-01	0	61	104	0	61	14853
2026-01-01 06:33:11.47	327.07	15.44	-49.8	-62.0	3.9	7.43e-01	0	61	104	0	61	15800
2026-01-01 06:33:14.39	326.43	15.28	-50.1	-52.7	20.4	6.06e-01	0	61	0	3145728	62	5122
2026-01-01 06:33:17.30	325.79	15.12	-50.3	-53.1	19.9	6.04e-01	0	61	0	8388608	63	5046
2026-01-01 06:33:20.21	325.17	14.95	-50.0	-52.7	20.3	6.04e-01	0	61	0	13631488	63	4821
2026-01-01 06:33:23.12	324.55	14.78	-49.3	-51.5	21.4	6.04e-01	0	61	0	19398656	62	4449
2026-01-01 06:33:26.03	323.94	14.61	-50.3	-53.1	19.9	6.03e-01	0	61	0	24641536	62	5370
2026-01-01 06:33:28.94	323.34	14.44	-49.2	-51.3	21.6	6.02e-01	0	61	0	30408704	62	4379
2026-01-01 06:33:31.84	322.75	14.27	-49.6	-52.1	20.8	6.02e-01	0	61	0	35651584	61	5089
2026-01-01 06:33:34.75	322.16	14.09	-49.3	-51.5	21.3	6.04e-01	0	61	0	41418752	62	4451
2026-01-01 06:33:37.66	321.58	13.92	-49.5	-51.9	21.0	6.03e-01	0	61	0	46661632	61	4959
2026-01-01 06:33:40.56	321.01	13.74	-49.8	-52.4	20.5	6.05e-01	0	61	0	51904512	61	5231
2026-01-01 06:33:43.46	320.45	13.56	-49.4	-51.7	21.2	6.05e-01	0	61	0	57671680	61	4831
2026-01-01 06:33:46.37	319.89	13.38	-49.4	-51.7	21.2	6.05e-01	0	61	0	62914560	62	4551
2026-01-01 06:33:49.28	319.34	13.20	-49.0	-51.1	21.7	6.05e-01	0	61	0	68157440	61	4510
2026-01-01 06:33:52.19	318.80	13.02	-49.0	-51.2	21.6	6.01e-01	0	61	0	73924608	61	4554
2026-01-01 06:33:55.09	318.26	12.84	-48.8	-50.8	22.1	6.05e-01	0	61	0	79167488	61	4350
2026-01-01 06:33:58.00	317.73	12.66	-48.8	-50.8	22.0	6.02e-01	0	61	0	84934656	61	4345
2026-01-01 06:34:00.90	317.21	12.47	-49.1	-51.2	21.6	6.03e-01	0	61	0	90177536	61	4569
2026-01-01 06:34:03.80	316.70	12.29	-48.9	-51.0	21.7	6.03e-01	0	61	0	95420416	61	4493
2026-01-01 06:34:06.70	316.20	12.10	-48.9	-51.0	21.8	6.04e-01	0	61	0	101187584	61	4466
2026-01-01 06:34:09.67	315.69	11.91	-49.2	-51.5	21.4	6.05e-01	0	61	0	106430464	61	4713
2026-01-01 06:34:12.58	315.19	11.73	-49.2	-51.4	21.4	6.05e-01	0	61	0	112197632	61	4680
2026-01-01 06:34:15.48	314.71	11.54	-49.3	-51.6	21.1	6.03e-01	0	61	0	117440512	61	4807
2026-01-01 06:34:18.39	314.23	11.36	-49.7	-52.3	20.5	6.05e-01	0	61	0	122683392	61	5173
2026-01-01 06:34:21.30	313.75	11.17	-49.9	-52.6	20.2	6.06e-01	0	61	0	128450560	61	5372
2026-01-01 06:34:24.20	313.29	10.98	-49.8	-52.4	20.4	6.04e-01	0	61	0	133693440	62	4941
2026-01-01 06:34:27.11	312.83	10.79	-49.6	-52.1	20.6	6.03e-01	0	61	0	139460608	62	4771
2026-01-01 06:34:30.02	312.37	10.61	-49.7	-52.3	20.4	6.04e-01	0	61	0	144703488	62	4893
2026-01-01 06:34:32.91	311.93	10.42	-49.8	-52.4	20.3	6.03e-01	0	61	0	149946368	62	4958
2026-01-01 06:34:35.82	311.49	10.23	-49.0	-51.2	21.4	6.02e-01	0	61	0	155713536	61	4598
2026-01-01 06:34:38.73	311.05	10.05	-49.2	-51.5	21.1	6.04e-01	0	61	0	160956416	61	4751
2026-01-01 06:34:41.63	310.63	9.86	-50.1	-52.9	19.8	6.05e-01	0	61	0	166723584	62	5258
2026-01-01 06:34:44.56	310.20	9.67	-49.8	-52.4	20.3	6.05e-01	0	61	0	171966464	62	4937
2026-01-01 06:34:47.46	309.78	9.48	-49.5	-52.0	20.5	6.04e-01	0	61	0	177209344	62	4749
2026-01-01 06:34:50.37	309.37	9.30	-49.9	-52.7	20.0	6.01e-01	0	61	0	182976512	62	5102
2026-01-01 06:34:53.28	308.97	9.11	-49.3	-51.7	20.9	6.04e-01	0	61	0	188219392	62	4571
2026-01-01 06:34:56.20	308.57	8.92	-49.8	-52.6	20.0	6.05e-01	0	61	0	193986560	62	5056
2026-01-01 06:34:59.12	308.17	8.74	-49.1	-51.4	21.1	6.05e-01	0	61	0	199229440	61	4663
2026-01-01 06:35:02.03	307.78	8.55	-49.6	-52.3	20.2	6.03e-01	0	61	0	204996608	61	5170
2026-01-01 06:35:04.93	307.40	8.37	-49.6	-52.2	20.3	6.05e-01	0	61	0	210239488	61	5131
2026-01-01 06:35:07.83	307.02	8.18	-50.4	-53.7	18.8	6.02e-01	0	61	0	215482368	63	5451
2026-01-01 06:35:10.74	306.65	8.00	-49.8	-52.6	19.8	6.05e-01	0	61	0	221249536	63	4778
2026-01-01 06:35:13.67	306.28	7.81	-49.9	-52.7	19.7	6.04e-01	0	61	0	226492416	63	4868
2026-01-01 06:35:16.57	305.92	7.63	-49.9	-52.9	19.4	6.04e-01	0	61	0	232259584	63	4936
2026-01-01 06:35:19.48	305.56	7.44	-49.8	-52.8	19.5	6.05e-01	0	61	0	237502464	63	4872
2026-01-01 06:35:22.38	305.21	7.26	-50.1	-53.4	18.8	6.03e-01	0	62	0	242745344	63	5230
2026-01-01 06:35:25.29	304.87	7.08	-50.0	-53.2	18.8	6.01e-01	0	61	0	248512512	63	5140
2026-01-01 06:35:28.20	304.52	6.90	-50.1	-53.6	18.4	6.02e-01	0	61	0	253755392	63	5345
2026-01-01 06:35:31.11	304.19	6.72	-50.3	-54.0	17.9	6.03e-01	0	61	0	259522560	63	5640
2026-01-01 06:35:34.01	303.85	6.54	-50.3	-54.1	17.7	6.02e-01	0	61	0	264765440	63	5691
2026-01-01 06:35:36.92	303.53	6.36	-50.2	-54.0	17.8	6.04e-01	0	61	0	270008320	63	5608
2026-01-01 06:35:39.82	303.20	6.18	-50.3	-54.4	17.2	6.04e-01	0	61	0	275775488	63	5898
2026-01-01 06:35:42.72	302.88	6.00	-50.5	-54.9	16.5	6.02e-01	0	61	0	281018368	63	6228
2026-01-01 06:35:45.63	302.57	5.82	-50.5	-55.1	16.2	6.03e-01	0	62	0	286261248	63	6408
2026-01-01 06:35:48.53	302.26	5.64	-50.6	-55.5	15.8	6.02e-01	0	61	0	292028416	63	6710
2026-01-01 06:35:51.43	301.95	5.46	-50.5	-55.5	15.6	6.03e-01	0	62	0	297271296	63	6698
2026-01-01 06:35:54.32	301.65	5.29	-50.7	-56.3	14.6	6.05e-01	0	62	0	303038464	63	7319
2026-01-01 06:35:57.23	301.35	5.11	-50.9	-57.4	13.4	6.07e-01	0	62	0	308281344	63	8279
2026-01-01 06:36:00.15	301.06	4.94	-53.6	-73.3	3.8	7.46e-01	0	62	104	311951360	69	36627
2026-01-01 06:36:03.11	300.76	4.76	-52.9	-72.7	3.8	7.45e-01	0	62	104	311951360	69	34100
2026-01-01 06:36:06.06	300.47	4.58	-54.3	-74.2	3.8	7.47e-01	0	62	104	311951360	70	38420
2026-01-01 06:36:09.01	300.19	4.41	-54.4	-74.3	3.8	7.46e-01	0	62	104	311951360	71	36907
2026-01-01 06:36:11.96	299.90	4.23	-54.5	-74.4	3.8	7.45e-01	0	62	104	311951360	71	37274
2026-01-01 06:36:14.91	299.63	4.06	-54.6	-74.5	3.8	7.43e-01	0	62	104	311951360	71	37581
2026-01-01 06:36:17.86	299.35	3.88	-54.6	-74.5	3.8	7.42e-01	0	62	104	311951360	71	37723
2026-01-01 06:36:20.82	299.08	3.71	-54.7	-74.6	3.8	7.47e-01	0	62	104	311951360	71	37904
2026-01-01 06:36:23.77	298.81	3.54	-54.7	-74.6	3.8	7.45e-01	0	62	104	311951360	71	37947
2026-01-01 06:36:26.72	298.55	3.36	-54.7	-74.6	3.8	7.47e-01	0	62	104	311951360	71	37950
2026-01-01 06:36:29.67	298.29	3.19	-54.6	-74.5	3.8	7.45e-01	0	62	104	311951360	71	37779
2026-01-01 06:36:32.61	298.03	3.02	-54.6	-74.5	3.8	7.44e-01	0	62	104	311951360	71	37735

#Closed at: 2026-01-01 06:36:34
#Recorded file [311 MB]: D:/Data/31026_260101_093559.dat