passes_logs/2026/01/30/R3.2S-Naryan-Mar/R3.2S-Naryan-Mar__20260130_050740_NOAA_20_JPSS-1_rec.log

#Pass ID: 20260130_050740_NOAA 20 (JPSS-1)
#Satellite: NOAA 20 (JPSS-1)
#Configuration: NOAA 20
#almurnet v.1.7.20240730
#Start time: 2026-01-30 05:07:40

#Version: 2.2.20231116
#Station: R3.2S-Naryan-Mar
#Location: 53.008057 lon 67.646978 lat
#TLE: 1 43013U 17073A   26029.42702672  .00000137  00000+0  85918-4 0  9993
#TLE: 2 43013  98.7646 330.2153 0000804  19.9045 340.2162 14.19525092424781

#Time	Az	El	Level	Level2	SNR	BER	BlckErr	Temp	State	Recorded	gain1	gain2
2026-01-30 05:07:40.85	83.72	0.04	-58.9	-78.0	3.5	1.51e+00	0	43	0	0	60	311566
2026-01-30 05:07:44.87	83.49	0.26	-57.8	-77.2	3.6	1.51e+00	0	44	104	0	60	284914
2026-01-30 05:07:48.89	83.27	0.48	-59.1	-78.2	3.6	1.51e+00	0	45	104	0	60	318421
2026-01-30 05:07:52.92	83.03	0.70	-60.1	-78.5	3.6	1.51e+00	0	45	104	0	60	328449
2026-01-30 05:07:56.95	82.80	0.92	-60.0	-78.2	3.6	1.51e+00	0	45	104	0	60	317686
2026-01-30 05:08:00.99	82.56	1.14	-62.0	-78.6	3.6	1.51e+00	0	45	104	0	60	334857
2026-01-30 05:08:05.01	82.32	1.37	-61.1	-77.9	3.6	1.51e+00	0	45	104	0	60	307828
2026-01-30 05:08:09.04	82.07	1.59	-59.0	-77.2	3.6	1.51e+00	0	45	104	0	60	285169
2026-01-30 05:08:13.07	81.82	1.82	-59.4	-77.0	3.6	1.51e+00	0	45	104	0	60	277383
2026-01-30 05:08:17.09	81.57	2.05	-59.3	-77.0	3.6	1.51e+00	0	45	104	0	60	276376
2026-01-30 05:08:21.11	81.31	2.28	-59.3	-76.9	3.6	1.51e+00	0	45	104	0	60	274708
2026-01-30 05:08:25.13	81.05	2.51	-59.3	-77.0	3.6	1.51e+00	0	45	104	0	60	276359
2026-01-30 05:08:29.16	80.78	2.74	-59.3	-77.0	3.6	1.51e+00	0	45	104	0	60	277247
2026-01-30 05:08:33.19	80.51	2.97	-59.3	-77.0	3.6	1.51e+00	0	45	104	0	60	275871
2026-01-30 05:08:37.21	80.23	3.21	-59.3	-76.9	3.6	1.51e+00	0	45	104	0	60	273945
2026-01-30 05:08:41.24	79.95	3.44	-59.2	-76.8	3.6	1.51e+00	0	45	104	0	60	271546
2026-01-30 05:08:45.27	79.67	3.68	-59.1	-76.7	3.6	1.51e+00	0	45	104	0	60	268619
2026-01-30 05:08:49.30	79.38	3.92	-59.1	-76.7	3.6	1.51e+00	0	45	104	0	60	268075
2026-01-30 05:08:53.32	79.08	4.16	-59.0	-76.7	3.6	1.51e+00	0	45	104	0	60	266856
2026-01-30 05:08:57.34	78.78	4.40	-59.0	-76.7	3.6	1.51e+00	0	45	104	0	60	266554
2026-01-30 05:09:01.38	78.48	4.65	-58.9	-76.7	3.6	1.51e+00	0	45	104	0	60	268055
2026-01-30 05:09:05.41	78.16	4.89	-58.9	-76.7	3.6	1.51e+00	0	45	104	0	60	268212
2026-01-30 05:09:09.44	77.85	5.14	-59.1	-76.0	3.6	1.51e+00	0	46	104	0	60	246084
2026-01-30 05:09:13.47	77.53	5.38	-59.1	-74.7	3.6	1.51e+00	0	46	104	0	60	212917
2026-01-30 05:09:17.50	77.20	5.63	-58.5	-66.2	9.0	5.89e-02	0	46	0	4194304	60	79688
2026-01-30 05:09:21.52	76.86	5.88	-56.9	-61.1	14.5	3.00e-06	0	45	0	11534336	60	44659
2026-01-30 05:09:25.55	76.52	6.13	-56.7	-60.0	15.8	0.00e+00	0	45	0	18874368	60	39254
2026-01-30 05:09:29.57	76.18	6.39	-57.7	-62.0	14.0	1.72e-04	0	45	0	27262976	60	49403
2026-01-30 05:09:33.60	75.83	6.64	-55.5	-60.3	15.1	0.00e+00	0	45	0	34603008	60	40520
2026-01-30 05:09:37.61	75.47	6.90	-56.7	-60.0	16.0	0.00e+00	0	45	0	41943040	60	39372
2026-01-30 05:09:41.64	75.10	7.15	-55.7	-59.9	15.4	0.00e+00	0	46	0	49283072	60	38931
2026-01-30 05:09:45.67	74.73	7.41	-57.2	-60.1	16.0	7.00e-07	0	46	0	56623104	60	39604
2026-01-30 05:09:49.71	74.35	7.68	-56.6	-60.0	15.8	0.00e+00	0	45	0	65011712	60	39004
2026-01-30 05:09:53.74	73.97	7.94	-55.9	-59.7	16.3	0.00e+00	0	46	0	72351744	60	37722
2026-01-30 05:09:57.76	73.57	8.20	-56.1	-59.6	16.7	0.00e+00	0	45	0	79691776	60	37603
2026-01-30 05:10:01.79	73.17	8.46	-56.7	-60.2	15.9	0.00e+00	0	45	0	87031808	60	40187
2026-01-30 05:10:05.81	72.77	8.73	-56.9	-59.5	17.0	0.00e+00	0	46	0	94371840	60	37045
2026-01-30 05:10:09.85	72.35	9.00	-56.0	-59.3	17.1	0.00e+00	0	45	0	102760448	60	35969
2026-01-30 05:10:13.88	71.92	9.27	-57.0	-59.6	17.0	0.00e+00	0	46	0	110100480	60	37571
2026-01-30 05:10:17.90	71.49	9.54	-55.9	-59.8	16.2	0.00e+00	0	46	0	117440512	60	38084
2026-01-30 05:10:21.93	71.05	9.81	-56.8	-60.2	16.6	0.00e+00	0	45	0	124780544	60	39976
2026-01-30 05:10:25.95	70.60	10.08	-56.1	-59.9	16.4	0.00e+00	0	46	0	132120576	60	38873
2026-01-30 05:10:29.97	70.15	10.36	-57.1	-59.9	17.1	0.00e+00	0	45	0	140509184	60	38697
2026-01-30 05:10:34.00	69.68	10.63	-56.4	-59.6	17.3	0.00e+00	0	45	0	147849216	60	37382
2026-01-30 05:10:38.03	69.21	10.91	-55.3	-59.5	16.0	0.00e+00	0	46	0	155189248	60	36874
2026-01-30 05:10:42.07	68.72	11.19	-56.5	-59.3	17.6	0.00e+00	0	46	0	162529280	60	36033
2026-01-30 05:10:46.09	68.23	11.47	-56.5	-59.6	17.4	0.00e+00	0	46	0	169869312	60	37478
2026-01-30 05:10:50.10	67.73	11.74	-56.6	-60.8	15.8	0.00e+00	0	46	0	178257920	60	43058
2026-01-30 05:10:54.14	67.21	12.03	-57.0	-61.9	14.9	7.00e-07	0	46	0	185597952	60	48523
2026-01-30 05:10:58.16	66.69	12.31	-56.6	-59.7	17.3	0.00e+00	0	46	0	192937984	60	37934
2026-01-30 05:11:02.18	66.15	12.59	-55.7	-58.7	18.1	0.00e+00	0	46	0	200278016	60	33603
2026-01-30 05:11:06.21	65.61	12.87	-55.4	-58.5	18.3	0.00e+00	0	46	0	207618048	60	32946
2026-01-30 05:11:10.23	65.05	13.16	-55.1	-58.0	18.5	0.00e+00	0	46	0	216006656	60	31191
2026-01-30 05:11:14.26	64.49	13.44	-51.8	-58.0	14.7	0.00e+00	0	46	0	223346688	60	31301
2026-01-30 05:11:18.28	63.91	13.72	-56.2	-58.7	18.3	0.00e+00	0	46	0	230686720	60	33669
2026-01-30 05:11:22.30	63.32	14.01	-57.3	-59.5	17.8	0.00e+00	0	46	0	238026752	60	37068
2026-01-30 05:11:26.32	62.72	14.29	-56.0	-59.0	17.7	0.00e+00	0	46	0	245366784	60	34990
2026-01-30 05:11:30.35	62.11	14.58	-52.9	-59.1	15.3	0.00e+00	0	46	0	252706816	60	35295
2026-01-30 05:11:34.37	61.49	14.87	-54.9	-58.9	16.5	0.00e+00	0	46	0	261095424	60	34330
2026-01-30 05:11:38.39	60.85	15.15	-56.9	-59.3	18.1	0.00e+00	0	46	0	268435456	60	36127
2026-01-30 05:11:42.41	60.20	15.43	-56.2	-59.6	17.3	0.00e+00	0	46	0	275775488	60	37264
2026-01-30 05:11:46.44	59.54	15.72	-56.4	-59.0	18.2	0.00e+00	0	46	0	283115520	60	34868
2026-01-30 05:11:50.46	58.87	16.00	-52.5	-58.8	15.9	0.00e+00	0	46	0	290455552	60	34193
2026-01-30 05:11:54.49	58.18	16.29	-53.9	-58.9	16.0	0.00e+00	0	46	0	298844160	60	34398
2026-01-30 05:11:58.50	57.48	16.57	-55.3	-58.9	17.7	0.00e+00	0	46	0	306184192	60	34414
2026-01-30 05:12:02.54	56.76	16.85	-56.2	-58.8	18.2	0.00e+00	0	46	0	313524224	60	34305
2026-01-30 05:12:06.57	56.03	17.13	-56.7	-59.1	17.9	0.00e+00	0	46	0	320864256	60	35330
2026-01-30 05:12:10.60	55.29	17.41	-56.7	-59.0	17.8	0.00e+00	0	46	0	329252864	60	34914
2026-01-30 05:12:14.62	54.54	17.68	-55.3	-58.7	16.9	0.00e+00	0	46	0	336592896	60	33611
2026-01-30 05:12:18.65	53.77	17.95	-54.6	-57.6	18.8	0.00e+00	0	46	0	343932928	60	29889
2026-01-30 05:12:22.67	52.98	18.23	-54.9	-56.7	20.0	0.00e+00	0	46	0	351272960	60	26882
2026-01-30 05:12:26.70	52.19	18.49	-54.2	-56.3	19.5	0.00e+00	0	46	0	358612992	60	25734
2026-01-30 05:12:30.73	51.37	18.76	-54.1	-55.9	20.7	0.00e+00	0	46	0	365953024	60	24462
2026-01-30 05:12:34.75	50.55	19.02	-54.2	-55.6	20.7	0.00e+00	0	46	0	374341632	60	23742
2026-01-30 05:12:38.79	49.70	19.28	-53.7	-55.8	19.6	0.00e+00	0	46	0	381681664	60	24079
2026-01-30 05:12:42.82	48.85	19.53	-51.4	-55.1	18.7	0.00e+00	0	46	0	389021696	60	22387
2026-01-30 05:12:46.85	47.98	19.78	-49.8	-54.8	17.2	0.00e+00	0	46	0	396361728	60	21464
2026-01-30 05:12:50.87	47.10	20.03	-48.9	-54.8	16.2	0.00e+00	0	46	0	404750336	60	21484
2026-01-30 05:12:54.90	46.20	20.27	-48.7	-54.9	16.7	0.00e+00	0	46	0	412090368	60	21701
2026-01-30 05:12:58.93	45.28	20.50	-49.9	-55.0	17.4	0.00e+00	0	46	0	419430400	60	22048
2026-01-30 05:13:02.95	44.36	20.73	-49.4	-55.0	15.9	0.00e+00	0	46	0	426770432	60	22031
2026-01-30 05:13:06.98	43.42	20.96	-48.8	-55.0	15.9	0.00e+00	0	46	0	434110464	60	21917
2026-01-30 05:13:11.02	42.46	21.18	-48.5	-54.9	17.6	0.00e+00	0	46	0	442499072	60	21724
2026-01-30 05:13:15.05	41.49	21.39	-51.5	-54.7	21.7	0.00e+00	0	46	0	449839104	60	21172
2026-01-30 05:13:19.07	40.51	21.59	-53.1	-54.7	21.2	0.00e+00	0	46	0	457179136	60	21405
2026-01-30 05:13:23.09	39.52	21.78	-53.1	-54.6	21.5	0.00e+00	0	46	0	464519168	60	20961
2026-01-30 05:13:27.12	38.52	21.97	-52.3	-54.3	20.1	0.00e+00	0	46	0	471859200	60	20436
2026-01-30 05:13:31.14	37.50	22.15	-52.1	-54.8	21.5	0.00e+00	0	46	0	480247808	60	21409
2026-01-30 05:13:35.17	36.47	22.32	-53.2	-55.3	20.8	0.00e+00	0	46	0	487587840	60	22789
2026-01-30 05:13:39.19	35.43	22.48	-52.7	-55.4	18.1	0.00e+00	0	46	0	494927872	60	22969
2026-01-30 05:13:43.21	34.38	22.64	-51.9	-55.4	16.6	0.00e+00	0	46	0	502267904	60	23047
2026-01-30 05:13:47.24	33.32	22.78	-52.3	-56.9	19.0	0.00e+00	0	46	0	509607936	60	27394
2026-01-30 05:13:51.26	32.25	22.91	-51.3	-58.0	16.5	0.00e+00	0	46	0	516947968	60	31102
2026-01-30 05:13:55.28	31.17	23.03	-50.7	-58.4	13.3	7.00e-07	0	46	0	525336576	60	32644
2026-01-30 05:13:59.31	30.09	23.15	-56.4	-59.3	17.4	0.00e+00	0	46	0	532676608	60	36202
2026-01-30 05:14:03.33	28.99	23.25	-53.9	-59.8	15.1	0.00e+00	0	46	0	540016640	60	38347
2026-01-30 05:14:07.35	27.89	23.34	-52.1	-58.3	15.8	0.00e+00	0	46	0	547356672	60	32216
2026-01-30 05:14:11.36	26.79	23.42	-53.6	-57.5	18.6	0.00e+00	0	46	0	554696704	60	29424
2026-01-30 05:14:15.39	25.68	23.49	-52.7	-57.6	16.1	0.00e+00	0	46	0	563085312	60	29584
2026-01-30 05:14:19.41	24.56	23.54	-54.1	-57.6	17.0	0.00e+00	0	46	0	570425344	60	29887
2026-01-30 05:14:23.43	23.44	23.59	-52.3	-58.0	15.0	0.00e+00	0	46	0	577765376	60	30994
2026-01-30 05:14:27.45	22.32	23.62	-54.6	-58.6	14.8	0.00e+00	0	46	0	585105408	60	33343
2026-01-30 05:14:31.48	21.19	23.64	-53.8	-59.7	14.8	0.00e+00	0	46	0	593494016	60	37825
2026-01-30 05:14:35.51	20.06	23.65	-53.6	-60.7	14.9	7.00e-07	0	46	0	600834048	60	42322
2026-01-30 05:14:39.54	18.94	23.65	-54.7	-62.3	13.2	0.00e+00	0	46	0	608174080	60	50967
2026-01-30 05:14:43.57	17.81	23.63	-55.2	-61.1	14.6	0.00e+00	0	46	0	615514112	60	44288
2026-01-30 05:14:47.60	16.68	23.61	-57.2	-61.5	14.7	0.00e+00	0	46	0	622854144	60	46672
2026-01-30 05:14:51.64	15.56	23.57	-57.3	-61.4	15.5	0.00e+00	0	46	0	630194176	60	46123
2026-01-30 05:14:55.66	14.44	23.52	-54.9	-60.6	14.8	0.00e+00	0	46	0	638582784	60	41936
2026-01-30 05:14:59.69	13.32	23.45	-54.0	-56.0	20.0	0.00e+00	0	46	0	645922816	60	24647
2026-01-30 05:15:03.72	12.21	23.38	-52.6	-54.0	22.4	0.00e+00	0	46	0	653262848	60	19637
2026-01-30 05:15:07.75	11.11	23.29	-51.7	-53.8	22.2	0.00e+00	0	46	0	660602880	60	19189
2026-01-30 05:15:11.78	10.01	23.20	-52.1	-54.4	20.0	0.00e+00	0	46	0	668991488	60	20659
2026-01-30 05:15:15.81	8.92	23.09	-52.7	-55.2	20.8	0.00e+00	0	46	0	676331520	60	22561
2026-01-30 05:15:19.83	7.84	22.97	-52.2	-55.7	20.3	0.00e+00	0	46	0	683671552	60	23989
2026-01-30 05:15:23.86	6.76	22.84	-53.3	-56.5	19.5	0.00e+00	0	46	0	691011584	60	26103
2026-01-30 05:15:27.88	5.70	22.71	-53.1	-56.8	18.3	0.00e+00	0	46	0	698351616	60	27082
2026-01-30 05:15:31.91	4.64	22.56	-53.9	-56.7	18.8	0.00e+00	0	46	0	706740224	60	26785
2026-01-30 05:15:35.93	3.60	22.40	-53.5	-55.7	19.8	0.00e+00	0	46	0	714080256	60	23995
2026-01-30 05:15:39.96	2.57	22.24	-54.1	-56.1	19.3	0.00e+00	0	46	0	721420288	60	25023
2026-01-30 05:15:43.99	1.54	22.06	-54.4	-56.1	20.1	0.00e+00	0	46	0	728760320	60	25074
2026-01-30 05:15:48.01	0.53	21.88	-54.7	-56.3	20.1	0.00e+00	0	46	0	736100352	60	25573
2026-01-30 05:15:52.04	359.54	21.68	-54.7	-56.7	19.2	0.00e+00	0	46	0	743440384	60	26798
2026-01-30 05:15:56.06	358.55	21.49	-54.9	-57.2	18.5	0.00e+00	0	46	0	751828992	60	28308
2026-01-30 05:16:00.09	357.58	21.28	-54.4	-56.6	19.0	0.00e+00	0	46	0	759169024	60	26578
2026-01-30 05:16:04.11	356.62	21.07	-55.0	-57.4	17.9	0.00e+00	0	46	0	766509056	60	28944
2026-01-30 05:16:08.14	355.68	20.85	-54.0	-56.1	19.4	0.00e+00	0	46	0	773849088	60	24906
2026-01-30 05:16:12.17	354.74	20.62	-54.1	-56.2	19.7	0.00e+00	0	46	0	782237696	60	25347
2026-01-30 05:16:16.19	353.83	20.39	-54.5	-56.0	20.4	0.00e+00	0	46	0	789577728	60	24805
2026-01-30 05:16:20.22	352.92	20.15	-54.1	-55.9	20.5	0.00e+00	0	46	0	796917760	60	24445
2026-01-30 05:16:24.24	352.03	19.91	-54.2	-56.1	20.4	0.00e+00	0	46	0	804257792	60	24971
2026-01-30 05:16:28.27	351.16	19.66	-53.6	-56.1	19.6	0.00e+00	0	46	0	811597824	60	25031
2026-01-30 05:16:32.31	350.29	19.41	-53.2	-56.2	19.6	0.00e+00	0	46	0	819986432	60	25238
2026-01-30 05:16:36.34	349.45	19.15	-54.4	-56.4	20.2	0.00e+00	0	46	0	827326464	60	25893
2026-01-30 05:16:40.36	348.62	18.89	-54.5	-56.3	20.2	0.00e+00	0	46	0	834666496	60	25675
2026-01-30 05:16:44.38	347.80	18.63	-55.2	-57.0	19.3	0.00e+00	0	46	0	842006528	60	27717
2026-01-30 05:16:48.40	347.00	18.36	-55.8	-58.0	18.5	0.00e+00	0	46	0	849346560	60	31248
2026-01-30 05:16:52.43	346.21	18.09	-55.5	-58.0	18.4	0.00e+00	0	46	0	856686592	60	31043
2026-01-30 05:16:56.46	345.43	17.82	-56.4	-58.6	18.1	0.00e+00	0	46	0	865075200	60	33449
2026-01-30 05:17:00.49	344.67	17.55	-54.9	-56.6	19.9	0.00e+00	0	46	0	872415232	60	26641
2026-01-30 05:17:04.51	343.92	17.27	-54.6	-56.3	20.3	0.00e+00	0	46	0	879755264	60	25538
2026-01-30 05:17:08.54	343.19	16.99	-54.1	-55.6	20.7	0.00e+00	0	46	0	887095296	60	23626
2026-01-30 05:17:12.57	342.47	16.71	-53.8	-55.4	20.8	0.00e+00	0	46	0	895483904	60	23136
2026-01-30 05:17:16.59	341.77	16.43	-54.4	-55.9	20.2	0.00e+00	0	46	0	902823936	60	24492
2026-01-30 05:17:20.62	341.07	16.15	-54.2	-55.8	20.2	0.00e+00	0	46	0	910163968	60	24131
2026-01-30 05:17:24.64	340.39	15.87	-54.1	-55.7	19.9	0.00e+00	0	46	0	917504000	60	23930
2026-01-30 05:17:28.67	339.73	15.59	-54.2	-56.1	19.0	0.00e+00	0	46	0	924844032	60	25146
2026-01-30 05:17:32.70	339.07	15.30	-54.5	-56.7	18.1	0.00e+00	0	46	0	933232640	60	26868
2026-01-30 05:17:36.73	338.43	15.02	-54.5	-57.0	17.5	0.00e+00	0	46	0	940572672	60	27703
2026-01-30 05:17:40.75	337.80	14.73	-54.8	-57.5	17.0	0.00e+00	0	46	0	947912704	60	29463
2026-01-30 05:17:44.78	337.18	14.45	-55.3	-58.1	16.5	0.00e+00	0	46	0	955252736	60	31558
2026-01-30 05:17:48.80	336.58	14.16	-55.8	-58.9	15.6	0.00e+00	0	46	0	962592768	60	34532
2026-01-30 05:17:52.83	335.99	13.88	-56.1	-59.8	14.8	0.00e+00	0	46	0	969932800	60	38239
2026-01-30 05:17:56.87	335.40	13.59	-56.1	-60.6	13.6	6.80e-06	0	46	0	978321408	60	42214
2026-01-30 05:18:00.89	334.83	13.31	-56.1	-61.1	12.8	4.73e-05	0	46	0	985661440	60	44591
2026-01-30 05:18:04.90	334.28	13.02	-56.3	-61.8	11.9	3.17e-04	0	46	0	993001472	60	48097
2026-01-30 05:18:08.93	333.73	12.74	-57.1	-62.9	11.2	1.19e-03	0	46	0	1000341504	60	54680
2026-01-30 05:18:12.94	333.19	12.46	-56.7	-63.4	10.3	5.08e-03	0	46	0	1007681536	60	57946
2026-01-30 05:18:16.97	332.67	12.18	-55.4	-63.9	9.1	2.16e-02	0	46	0	1016070144	60	61609
2026-01-30 05:18:20.98	332.15	11.90	-54.6	-64.5	8.3	4.31e-02	0	46	0	1023410176	60	65997
2026-01-30 05:18:25.01	331.64	11.62	-54.7	-65.1	7.5	8.91e-02	0	46	0	1030750208	60	70673
2026-01-30 05:18:29.04	331.15	11.34	-54.8	-65.7	6.4	1.93e-01	0	46	0	1038090240	60	75729
2026-01-30 05:18:33.06	330.66	11.06	-54.8	-66.3	5.7	3.15e-01	0	46	0	1045430272	60	80730
2026-01-30 05:18:37.08	330.18	10.79	-55.6	-67.0	5.2	4.78e-01	0	46	0	1053818880	60	87991
2026-01-30 05:18:41.11	329.71	10.51	-56.6	-68.0	4.9	4.40e-01	0	46	0	1061158912	60	98489
2026-01-30 05:18:45.14	329.25	10.24	-57.6	-68.1	5.0	8.42e-01	0	46	0	1068498944	60	99366
2026-01-30 05:18:49.16	328.80	9.96	-58.1	-68.7	4.6	7.49e-01	0	46	0	1075838976	60	107194
2026-01-30 05:18:53.19	328.36	9.69	-57.8	-72.5	3.6	1.38e+00	0	46	104	1078984704	60	165500
2026-01-30 05:18:57.22	327.92	9.42	-58.4	-70.4	3.8	1.39e+00	0	46	0	2097152	60	129087
2026-01-30 05:19:01.23	327.50	9.15	-58.7	-72.5	3.8	1.49e+00	0	46	104	2097152	60	164708
2026-01-30 05:19:05.26	327.08	8.88	-58.7	-73.9	3.6	1.51e+00	0	46	104	2097152	60	194226
2026-01-30 05:19:09.29	326.67	8.62	-58.6	-73.4	3.6	1.51e+00	0	46	104	2097152	60	182296
2026-01-30 05:19:13.32	326.27	8.35	-58.5	-74.6	3.6	1.51e+00	0	46	104	2097152	60	209541
2026-01-30 05:19:17.35	325.87	8.09	-58.6	-74.0	3.6	1.51e+00	0	46	104	2097152	60	197069
2026-01-30 05:19:21.38	325.48	7.83	-58.4	-74.8	3.6	1.51e+00	0	46	104	2097152	60	214613
2026-01-30 05:19:25.40	325.10	7.57	-58.5	-74.5	3.6	1.51e+00	0	46	104	2097152	60	206988
2026-01-30 05:19:29.41	324.73	7.31	-58.3	-74.8	3.6	1.51e+00	0	46	104	2097152	60	216037
2026-01-30 05:19:33.44	324.36	7.05	-58.3	-74.9	3.6	1.51e+00	0	46	104	2097152	60	217038
2026-01-30 05:19:37.47	324.00	6.79	-58.1	-74.7	3.6	1.51e+00	0	46	104	2097152	60	213012
2026-01-30 05:19:41.50	323.65	6.54	-58.0	-74.7	3.6	1.51e+00	0	46	104	2097152	60	213488
2026-01-30 05:19:45.53	323.30	6.28	-58.1	-74.8	3.6	1.51e+00	0	46	104	2097152	60	216288
2026-01-30 05:19:49.56	322.96	6.03	-57.9	-74.8	3.6	1.51e+00	0	46	104	2097152	60	215668
2026-01-30 05:19:53.59	322.62	5.78	-52.7	-73.5	3.6	1.51e+00	0	46	104	2097152	60	184694
2026-01-30 05:19:57.62	322.29	5.53	-60.5	-78.2	3.6	1.51e+00	0	46	104	2097152	60	317106
2026-01-30 05:20:01.65	321.97	5.28	-61.5	-78.3	3.6	1.51e+00	0	46	104	2097152	60	321297
2026-01-30 05:20:05.69	321.65	5.04	-62.0	-78.5	3.6	1.51e+00	0	46	104	2097152	60	329533
2026-01-30 05:20:09.72	321.34	4.79	-62.5	-79.0	3.6	1.51e+00	0	46	104	2097152	60	349098
2026-01-30 05:20:13.75	321.03	4.55	-62.6	-79.4	3.6	1.51e+00	0	46	104	2097152	60	366709
2026-01-30 05:20:17.78	320.73	4.31	-62.4	-79.8	3.6	1.51e+00	0	46	104	2097152	60	384577
2026-01-30 05:20:21.81	320.43	4.07	-62.6	-79.9	3.6	1.51e+00	0	46	104	2097152	60	386353
2026-01-30 05:20:25.84	320.14	3.83	-59.2	-78.7	3.6	1.51e+00	0	46	104	2097152	60	336353
2026-01-30 05:20:29.87	319.86	3.59	-60.8	-79.4	3.6	1.51e+00	0	46	104	2097152	60	367206
2026-01-30 05:20:33.90	319.57	3.35	-60.5	-79.3	3.6	1.51e+00	0	46	104	2097152	60	360461
2026-01-30 05:20:37.93	319.30	3.12	-60.4	-79.0	3.6	1.51e+00	0	46	104	2097152	60	349538
2026-01-30 05:20:41.96	319.03	2.88	-60.4	-79.1	3.6	1.51e+00	0	46	104	2097152	60	352987
2026-01-30 05:20:45.98	318.76	2.65	-60.3	-79.0	3.6	1.51e+00	0	46	104	2097152	60	350916
2026-01-30 05:20:50.00	318.50	2.42	-60.3	-79.0	3.6	1.51e+00	0	46	104	2097152	60	349653
2026-01-30 05:20:54.02	318.24	2.19	-60.0	-79.0	3.6	1.51e+00	0	46	104	2097152	60	349139
2026-01-30 05:20:58.05	317.98	1.96	-60.3	-78.8	3.6	1.51e+00	0	46	104	2097152	60	342895
2026-01-30 05:21:02.07	317.73	1.73	-60.4	-79.2	3.6	1.51e+00	0	46	104	2097152	60	357313
2026-01-30 05:21:06.10	317.48	1.51	-60.3	-78.9	3.6	1.51e+00	0	46	104	2097152	60	345841
2026-01-30 05:21:10.13	317.24	1.28	-60.3	-79.1	3.6	1.51e+00	0	46	104	2097152	60	354338
2026-01-30 05:21:14.16	317.00	1.06	-60.2	-79.1	3.6	1.51e+00	0	46	104	2097152	60	351775
2026-01-30 05:21:18.19	316.77	0.84	-60.1	-79.1	3.6	1.51e+00	0	46	104	2097152	60	353113
2026-01-30 05:21:22.22	316.54	0.62	-60.1	-79.0	3.6	1.51e+00	0	46	104	2097152	60	350571
2026-01-30 05:21:26.24	316.31	0.40	-60.1	-79.1	3.6	1.51e+00	0	46	104	2097152	60	351626
2026-01-30 05:21:30.27	316.08	0.18	-60.2	-79.1	3.6	1.51e+00	0	46	104	2097152	60	353320
2026-01-30 05:21:34.29	315.86	-0.04	-60.2	-79.1	3.6	1.51e+00	0	46	104	2097152	60	352167

#Closed at: 2026-01-30 05:21:34
#Recorded file [2 MB]: D:/Data/35015_260130_081902.dat