passes_logs/2026/01/30/R3.2S-Naryan-Mar/R3.2S-Naryan-Mar__20260130_112926_SUOMI_NPP_rec.log

#Pass ID: 20260130_112926_SUOMI NPP
#Satellite: SUOMI NPP
#Configuration: NPP
#almurnet v.1.7.20240730
#Start time: 2026-01-30 11:29:28

#Version: 2.2.20231116
#Station: R3.2S-Naryan-Mar
#Location: 53.008057 lon 67.646978 lat
#TLE: 1 37849U 11061A   26029.48304708  .00000140  00000+0  87283-4 0  9999
#TLE: 2 37849  98.7824 331.4079 0002024  38.4342 321.6978 14.19531488738761

#Time	Az	El	Level	Level2	SNR	BER	BlckErr	Temp	State	Recorded	gain1	gain2
2026-01-30 11:29:28.74	232.52	0.08	-58.9	-74.4	3.5	1.51e+00	0	42	0	0	60	199492
2026-01-30 11:29:32.77	232.86	0.27	-59.7	-78.0	3.6	1.51e+00	0	43	104	0	60	309644
2026-01-30 11:29:36.79	233.21	0.45	-57.7	-77.5	3.6	1.51e+00	0	44	104	0	60	292741
2026-01-30 11:29:40.82	233.55	0.64	-58.7	-77.8	3.6	1.51e+00	0	44	104	0	60	303393
2026-01-30 11:29:44.85	233.91	0.82	-61.3	-78.2	3.6	1.51e+00	0	44	104	0	60	318134
2026-01-30 11:29:48.88	234.26	1.01	-61.3	-77.8	3.6	1.51e+00	0	44	104	0	60	302736
2026-01-30 11:29:52.90	234.62	1.19	-60.8	-77.2	3.6	1.51e+00	0	44	104	0	60	282749
2026-01-30 11:29:56.93	234.99	1.38	-59.9	-76.4	3.6	1.51e+00	0	44	104	0	60	258385
2026-01-30 11:30:00.95	235.35	1.56	-59.1	-75.7	3.6	1.51e+00	0	44	104	0	60	237514
2026-01-30 11:30:04.97	235.73	1.75	-59.0	-75.6	3.6	1.51e+00	0	44	104	0	60	235335
2026-01-30 11:30:09.00	236.10	1.94	-58.9	-75.5	3.6	1.51e+00	0	44	104	0	60	233206
2026-01-30 11:30:13.03	236.49	2.12	-58.9	-75.4	3.6	1.51e+00	0	44	104	0	60	231831
2026-01-30 11:30:17.05	236.87	2.31	-58.8	-75.5	3.6	1.51e+00	0	44	104	0	60	232606
2026-01-30 11:30:21.07	237.26	2.50	-58.8	-75.4	3.6	1.51e+00	0	44	104	0	60	231692
2026-01-30 11:30:25.08	237.66	2.69	-58.7	-75.4	3.6	1.51e+00	0	44	104	0	60	230463
2026-01-30 11:30:29.10	238.06	2.87	-58.7	-75.4	3.6	1.51e+00	0	44	104	0	60	231289
2026-01-30 11:30:33.12	238.47	3.06	-58.7	-75.3	3.6	1.51e+00	0	44	104	0	60	228519
2026-01-30 11:30:37.15	238.88	3.25	-58.7	-75.3	3.6	1.51e+00	0	44	104	0	60	229274
2026-01-30 11:30:41.17	239.29	3.44	-58.7	-75.3	3.6	1.51e+00	0	44	104	0	60	228625
2026-01-30 11:30:45.21	239.71	3.63	-58.6	-75.3	3.6	1.51e+00	0	44	104	0	60	229171
2026-01-30 11:30:49.22	240.14	3.81	-58.6	-75.3	3.6	1.51e+00	0	44	104	0	60	228962
2026-01-30 11:30:53.24	240.57	4.00	-58.6	-75.3	3.6	1.51e+00	0	44	104	0	60	227725
2026-01-30 11:30:57.27	241.01	4.19	-58.6	-75.3	3.6	1.51e+00	0	44	104	0	60	227037
2026-01-30 11:31:01.31	241.45	4.38	-58.6	-75.2	3.6	1.51e+00	0	45	104	0	60	225359
2026-01-30 11:31:05.33	241.90	4.57	-58.5	-75.1	3.6	1.51e+00	0	45	104	0	60	223929
2026-01-30 11:31:09.36	242.35	4.76	-58.5	-75.2	3.6	1.51e+00	0	45	104	0	60	226209
2026-01-30 11:31:13.39	242.81	4.94	-58.5	-75.2	3.6	1.51e+00	0	44	104	0	60	224306
2026-01-30 11:31:17.42	243.28	5.13	-58.5	-75.0	3.6	1.51e+00	0	45	104	0	60	220725
2026-01-30 11:31:21.45	243.75	5.32	-58.5	-75.1	3.6	1.51e+00	0	45	104	0	60	222515
2026-01-30 11:31:25.47	244.22	5.51	-58.4	-74.3	3.6	1.51e+00	0	44	104	0	60	203226
2026-01-30 11:31:29.50	244.71	5.69	-58.4	-73.3	3.7	1.51e+00	0	45	104	0	60	181747
2026-01-30 11:31:33.52	245.19	5.88	-57.5	-64.0	9.7	1.71e-03	0	45	0	3145728	60	61817
2026-01-30 11:31:37.55	245.69	6.07	-56.4	-60.7	13.6	2.92e-04	0	45	0	7340032	60	42322
2026-01-30 11:31:41.58	246.19	6.25	-57.0	-62.4	5.9	1.51e+00	0	45	104	13631488	60	51395
2026-01-30 11:31:45.61	246.70	6.44	-54.5	-57.0	17.3	0.00e+00	0	45	0	5242880	60	27617
2026-01-30 11:31:49.64	247.21	6.62	-54.3	-56.6	17.6	0.00e+00	0	45	0	12582912	60	26393
2026-01-30 11:31:53.67	247.73	6.81	-54.5	-56.9	17.3	0.00e+00	0	45	0	19922944	60	27572
2026-01-30 11:31:57.70	248.25	6.99	-53.8	-55.9	18.4	0.00e+00	0	45	0	27262976	60	24476
2026-01-30 11:32:01.72	248.79	7.17	-53.6	-55.7	18.5	0.00e+00	0	45	0	34603008	60	23829
2026-01-30 11:32:05.74	249.32	7.35	-53.7	-55.8	18.3	0.00e+00	0	45	0	41943040	60	24074
2026-01-30 11:32:09.76	249.87	7.54	-53.4	-55.3	18.8	0.00e+00	0	44	0	50331648	60	22934
2026-01-30 11:32:13.79	250.42	7.72	-52.9	-54.7	19.2	0.00e+00	0	45	0	57671680	60	21196
2026-01-30 11:32:17.83	250.98	7.90	-53.1	-55.0	18.9	0.00e+00	0	45	0	65011712	60	21922
2026-01-30 11:32:21.85	251.54	8.07	-53.5	-55.5	18.5	0.00e+00	0	45	0	72351744	60	23421
2026-01-30 11:32:25.88	252.11	8.25	-53.6	-55.6	18.4	0.00e+00	0	45	0	80740352	60	23543
2026-01-30 11:32:29.90	252.69	8.43	-53.3	-55.2	18.8	0.00e+00	0	45	0	88080384	60	22480
2026-01-30 11:32:33.93	253.27	8.60	-53.4	-55.4	18.6	0.00e+00	0	45	0	95420416	60	23000
2026-01-30 11:32:37.95	253.86	8.77	-53.5	-55.4	18.6	0.00e+00	0	45	0	102760448	60	23193
2026-01-30 11:32:41.97	254.46	8.94	-53.4	-55.4	18.6	0.00e+00	0	45	0	110100480	60	23086
2026-01-30 11:32:45.99	255.06	9.11	-53.2	-55.1	18.8	0.00e+00	0	45	0	118489088	60	22384
2026-01-30 11:32:50.02	255.67	9.28	-53.4	-55.4	18.6	0.00e+00	0	44	0	125829120	60	23054
2026-01-30 11:32:54.04	256.29	9.45	-53.0	-54.8	19.1	0.00e+00	0	45	0	133169152	60	21626
2026-01-30 11:32:58.07	256.92	9.61	-53.2	-55.1	18.8	0.00e+00	0	45	0	140509184	60	22222
2026-01-30 11:33:02.10	257.55	9.78	-53.3	-55.2	18.8	0.00e+00	0	45	0	147849216	60	22488
2026-01-30 11:33:06.13	258.19	9.94	-53.3	-55.1	18.9	0.00e+00	0	45	0	156237824	60	22385
2026-01-30 11:33:10.16	258.83	10.10	-53.5	-55.5	18.5	0.00e+00	0	45	0	163577856	60	23299
2026-01-30 11:33:14.19	259.49	10.25	-53.6	-55.6	18.4	0.00e+00	0	45	0	170917888	60	23568
2026-01-30 11:33:18.21	260.14	10.41	-53.4	-55.4	18.6	0.00e+00	0	45	0	178257920	60	23020
2026-01-30 11:33:22.24	260.81	10.56	-53.7	-55.8	18.3	0.00e+00	0	45	0	185597952	60	24024
2026-01-30 11:33:26.27	261.48	10.71	-53.9	-56.1	18.2	0.00e+00	0	45	0	193986560	60	24877
2026-01-30 11:33:30.29	262.16	10.86	-54.3	-56.5	17.7	0.00e+00	0	45	0	201326592	60	26255
2026-01-30 11:33:34.33	262.85	11.00	-54.3	-56.6	17.7	0.00e+00	0	45	0	208666624	60	26483
2026-01-30 11:33:38.35	263.54	11.14	-54.5	-56.8	17.5	0.00e+00	0	45	0	216006656	60	27125
2026-01-30 11:33:42.37	264.23	11.28	-54.5	-56.7	17.7	0.00e+00	0	45	0	223346688	60	26817
2026-01-30 11:33:46.40	264.94	11.41	-54.5	-56.7	17.8	0.00e+00	0	45	0	231735296	60	26811
2026-01-30 11:33:50.43	265.65	11.55	-54.6	-56.9	17.7	0.00e+00	0	44	0	239075328	60	27268
2026-01-30 11:33:54.45	266.36	11.67	-54.6	-56.8	18.0	0.00e+00	0	45	0	246415360	60	27044
2026-01-30 11:33:58.48	267.09	11.80	-54.2	-56.3	18.3	0.00e+00	0	45	0	253755392	60	25577
2026-01-30 11:34:02.51	267.82	11.92	-54.3	-56.3	18.2	0.00e+00	0	45	0	261095424	60	25718
2026-01-30 11:34:06.54	268.55	12.04	-54.6	-56.8	17.8	0.00e+00	0	45	0	269484032	60	27135
2026-01-30 11:34:10.57	269.29	12.16	-54.4	-56.5	18.1	0.00e+00	0	45	0	276824064	60	26231
2026-01-30 11:34:14.57	270.03	12.27	-54.3	-56.3	18.3	0.00e+00	0	45	0	284164096	60	25643
2026-01-30 11:34:18.59	270.78	12.37	-53.8	-55.7	18.9	0.00e+00	0	45	0	291504128	60	23912
2026-01-30 11:34:22.62	271.54	12.48	-53.6	-55.4	19.1	0.00e+00	0	45	0	298844160	60	23113
2026-01-30 11:34:26.64	272.30	12.57	-53.9	-55.9	18.6	0.00e+00	0	45	0	306184192	60	24413
2026-01-30 11:34:30.67	273.06	12.67	-53.6	-55.5	18.9	0.00e+00	0	45	0	314572800	60	23387
2026-01-30 11:34:34.69	273.83	12.76	-53.5	-55.4	19.2	0.00e+00	0	45	0	321912832	60	23042
2026-01-30 11:34:38.71	274.60	12.85	-53.8	-55.7	19.0	0.00e+00	0	45	0	329252864	60	23942
2026-01-30 11:34:42.73	275.38	12.93	-53.3	-55.1	19.5	0.00e+00	0	45	0	336592896	60	22295
2026-01-30 11:34:46.76	276.16	13.00	-54.3	-56.4	18.2	0.00e+00	0	45	0	343932928	60	25984
2026-01-30 11:34:50.78	276.95	13.08	-53.8	-55.8	18.8	0.00e+00	0	45	0	352321536	60	24191
2026-01-30 11:34:54.80	277.74	13.14	-54.9	-57.4	17.3	0.00e+00	0	45	0	359661568	60	29122
2026-01-30 11:34:58.82	278.53	13.21	-54.8	-57.2	17.5	0.00e+00	0	45	0	367001600	60	28536
2026-01-30 11:35:02.86	279.33	13.27	-54.3	-56.4	18.3	0.00e+00	0	45	0	374341632	60	26004
2026-01-30 11:35:06.87	280.12	13.32	-54.7	-57.0	17.7	0.00e+00	0	45	0	382730240	60	27860
2026-01-30 11:35:10.90	280.93	13.37	-54.3	-56.5	18.1	0.00e+00	0	45	0	390070272	60	26211
2026-01-30 11:35:14.93	281.73	13.41	-54.5	-56.9	17.6	0.00e+00	0	45	0	397410304	60	27346
2026-01-30 11:35:18.96	282.54	13.45	-53.6	-55.5	18.9	0.00e+00	0	45	0	404750336	60	23462
2026-01-30 11:35:22.98	283.35	13.48	-53.8	-56.0	18.5	0.00e+00	0	45	0	412090368	60	24784
2026-01-30 11:35:27.01	284.16	13.51	-53.7	-55.8	18.8	0.00e+00	0	45	0	419430400	60	24141
2026-01-30 11:35:31.04	284.97	13.53	-52.9	-54.7	19.9	0.00e+00	0	45	0	427819008	60	21207
2026-01-30 11:35:35.06	285.78	13.55	-53.3	-55.1	19.6	0.00e+00	0	45	0	435159040	60	22165
2026-01-30 11:35:39.09	286.59	13.56	-53.7	-55.5	19.4	0.00e+00	0	45	0	442499072	60	23403
2026-01-30 11:35:43.12	287.40	13.57	-53.7	-55.6	19.3	0.00e+00	0	45	0	449839104	60	23539
2026-01-30 11:35:47.14	288.22	13.57	-53.4	-55.1	19.7	0.00e+00	0	45	0	457179136	60	22363
2026-01-30 11:35:51.17	289.03	13.56	-53.8	-55.9	18.9	0.00e+00	0	45	0	465567744	60	24404
2026-01-30 11:35:55.19	289.84	13.55	-53.6	-55.7	19.1	0.00e+00	0	45	0	472907776	60	23801
2026-01-30 11:35:59.22	290.65	13.54	-53.7	-55.8	19.1	0.00e+00	0	45	0	480247808	60	24148
2026-01-30 11:36:03.24	291.46	13.52	-53.4	-55.2	19.7	0.00e+00	0	45	0	487587840	60	22654
2026-01-30 11:36:07.27	292.27	13.50	-53.8	-55.6	19.3	0.00e+00	0	45	0	495976448	60	23593
2026-01-30 11:36:11.29	293.08	13.47	-53.2	-54.9	19.8	0.00e+00	0	45	0	503316480	60	21687
2026-01-30 11:36:15.31	293.89	13.43	-52.5	-54.2	20.2	0.00e+00	0	45	0	510656512	60	20206
2026-01-30 11:36:19.33	294.69	13.39	-52.5	-54.4	20.1	0.00e+00	0	45	0	517996544	60	20597
2026-01-30 11:36:23.35	295.49	13.35	-52.7	-54.5	20.1	0.00e+00	0	45	0	525336576	60	20870
2026-01-30 11:36:27.38	296.29	13.30	-53.3	-55.0	19.9	0.00e+00	0	45	0	532676608	60	22139
2026-01-30 11:36:31.39	297.08	13.24	-53.2	-54.7	20.3	0.00e+00	0	45	0	541065216	60	21297
2026-01-30 11:36:35.41	297.88	13.18	-53.3	-54.9	20.0	0.00e+00	0	45	0	548405248	60	21733
2026-01-30 11:36:39.43	298.67	13.12	-53.3	-55.0	20.0	0.00e+00	0	45	0	555745280	60	22031
2026-01-30 11:36:43.45	299.45	13.05	-53.1	-54.8	20.2	0.00e+00	0	45	0	563085312	60	21457
2026-01-30 11:36:47.48	300.23	12.97	-53.2	-54.8	20.2	0.00e+00	0	45	0	570425344	60	21593
2026-01-30 11:36:51.50	301.01	12.89	-52.9	-54.4	20.5	0.00e+00	0	45	0	578813952	60	20529
2026-01-30 11:36:55.53	301.79	12.81	-52.7	-54.1	20.6	0.00e+00	0	45	0	586153984	60	19949
2026-01-30 11:36:59.55	302.56	12.72	-52.6	-54.1	20.7	0.00e+00	0	45	0	593494016	60	19776
2026-01-30 11:37:03.56	303.32	12.63	-52.6	-54.0	20.6	0.00e+00	0	45	0	600834048	60	19681
2026-01-30 11:37:07.59	304.08	12.54	-52.8	-54.4	20.2	0.00e+00	0	45	0	608174080	60	20480
2026-01-30 11:37:11.61	304.84	12.44	-52.8	-54.5	19.9	0.00e+00	0	45	0	615514112	60	20841
2026-01-30 11:37:15.64	305.59	12.33	-52.3	-53.8	20.6	0.00e+00	0	45	0	623902720	60	19229
2026-01-30 11:37:19.67	306.33	12.22	-52.7	-54.2	20.7	0.00e+00	0	45	0	631242752	60	20021
2026-01-30 11:37:23.70	307.08	12.11	-52.4	-53.8	20.8	0.00e+00	0	45	0	638582784	60	19283
2026-01-30 11:37:27.73	307.81	11.99	-52.2	-53.6	21.0	0.00e+00	0	45	0	645922816	60	18752
2026-01-30 11:37:31.76	308.54	11.88	-52.6	-54.1	20.6	0.00e+00	0	45	0	654311424	60	19751
2026-01-30 11:37:35.79	309.26	11.75	-52.8	-54.4	20.3	0.00e+00	0	45	0	661651456	60	20491
2026-01-30 11:37:39.81	309.98	11.63	-52.6	-54.2	20.2	0.00e+00	0	45	0	668991488	60	20181
2026-01-30 11:37:43.84	310.69	11.50	-52.8	-54.6	19.9	0.00e+00	0	45	0	676331520	60	21060
2026-01-30 11:37:47.87	311.40	11.36	-53.2	-55.1	19.1	0.00e+00	0	45	0	683671552	60	22373
2026-01-30 11:37:51.89	312.10	11.23	-53.7	-55.8	18.5	0.00e+00	0	45	0	692060160	60	24086
2026-01-30 11:37:55.91	312.79	11.09	-54.4	-56.8	17.4	0.00e+00	0	45	0	699400192	60	27145
2026-01-30 11:37:59.93	313.47	10.95	-54.6	-57.4	16.7	0.00e+00	0	45	0	706740224	60	28904
2026-01-30 11:38:03.96	314.15	10.80	-54.5	-57.3	16.7	0.00e+00	0	45	0	714080256	60	28873
2026-01-30 11:38:07.97	314.82	10.66	-54.8	-58.1	15.7	0.00e+00	0	45	0	721420288	60	31400
2026-01-30 11:38:11.99	315.49	10.51	-55.7	-59.8	13.9	2.20e-06	0	45	0	728760320	60	38380
2026-01-30 11:38:16.02	316.15	10.36	-55.6	-60.0	13.5	2.21e-05	0	45	0	737148928	60	39122
2026-01-30 11:38:20.05	316.80	10.20	-55.9	-60.8	12.4	9.07e-05	0	45	0	744488960	60	43045
2026-01-30 11:38:24.08	317.45	10.05	-55.9	-61.8	11.2	1.19e-03	0	45	0	751828992	60	47969
2026-01-30 11:38:28.10	318.09	9.89	-55.6	-61.8	11.0	1.80e-03	0	45	0	759169024	60	48298
2026-01-30 11:38:32.11	318.72	9.73	-55.6	-63.1	9.4	1.08e-02	0	45	0	766509056	60	55748
2026-01-30 11:38:36.14	319.34	9.57	-55.9	-63.8	8.5	4.14e-02	0	45	0	774897664	60	60880
2026-01-30 11:38:40.16	319.96	9.40	-56.4	-64.7	7.6	7.48e-02	0	45	0	782237696	60	67529
2026-01-30 11:38:44.18	320.57	9.24	-56.9	-65.4	6.9	1.53e-01	0	45	0	789577728	60	73033
2026-01-30 11:38:48.21	321.18	9.07	-57.5	-68.2	4.3	5.37e-01	0	45	0	796917760	60	101205
2026-01-30 11:38:52.23	321.78	8.90	-57.0	-67.2	4.9	5.67e-01	0	45	0	804257792	60	89627
2026-01-30 11:38:56.25	322.37	8.73	-57.0	-67.4	4.8	6.22e-01	0	45	0	812646400	60	91920
2026-01-30 11:39:00.27	322.95	8.56	-57.1	-68.4	4.2	1.12e+00	0	45	0	818937856	60	102650
2026-01-30 11:39:04.30	323.53	8.38	-57.2	-68.7	4.0	1.04e+00	0	45	0	826277888	60	106072
2026-01-30 11:39:08.33	324.11	8.21	-57.3	-71.2	3.8	1.48e+00	0	45	104	827326464	60	142855
2026-01-30 11:39:12.35	324.67	8.03	-57.4	-72.2	3.6	1.51e+00	0	45	104	827326464	60	160385
2026-01-30 11:39:16.39	325.23	7.86	-57.5	-72.6	3.6	1.51e+00	0	45	104	827326464	60	166788
2026-01-30 11:39:20.41	325.79	7.68	-57.6	-73.2	3.6	1.51e+00	0	45	104	827326464	60	178367
2026-01-30 11:39:24.44	326.33	7.50	-57.7	-73.8	3.6	1.51e+00	0	45	104	827326464	60	191674
2026-01-30 11:39:28.47	326.87	7.32	-57.6	-74.1	3.6	1.51e+00	0	45	104	827326464	60	198111
2026-01-30 11:39:32.48	327.40	7.14	-57.6	-74.0	3.6	1.51e+00	0	45	104	827326464	60	196624
2026-01-30 11:39:36.51	327.93	6.96	-57.5	-74.1	3.6	1.51e+00	0	45	104	827326464	60	198598
2026-01-30 11:39:40.54	328.45	6.78	-57.7	-74.2	3.6	1.51e+00	0	45	104	827326464	60	200325
2026-01-30 11:39:44.58	328.97	6.59	-57.5	-74.1	3.6	1.51e+00	0	45	104	827326464	60	198592
2026-01-30 11:39:48.61	329.48	6.41	-57.3	-74.1	3.6	1.51e+00	0	45	104	827326464	60	199341
2026-01-30 11:39:52.63	329.98	6.23	-57.3	-74.1	3.6	1.51e+00	0	45	104	827326464	60	199376
2026-01-30 11:39:56.64	330.47	6.04	-57.2	-74.1	3.6	1.51e+00	0	45	104	827326464	60	197820
2026-01-30 11:40:00.67	330.96	5.86	-56.9	-74.2	3.6	1.51e+00	0	45	104	827326464	60	201494
2026-01-30 11:40:04.70	331.45	5.67	-59.4	-76.9	3.6	1.51e+00	0	45	104	827326464	60	273340
2026-01-30 11:40:08.72	331.93	5.49	-60.0	-76.9	3.6	1.51e+00	0	45	104	827326464	60	274580
2026-01-30 11:40:12.76	332.40	5.30	-60.8	-77.1	3.6	1.51e+00	0	45	104	827326464	60	281449
2026-01-30 11:40:16.79	332.87	5.12	-60.7	-77.3	3.6	1.51e+00	0	45	104	827326464	60	285892
2026-01-30 11:40:20.82	333.33	4.93	-60.8	-77.7	3.6	1.51e+00	0	45	104	827326464	60	299442
2026-01-30 11:40:24.83	333.78	4.74	-60.8	-77.8	3.6	1.51e+00	0	45	104	827326464	60	305725
2026-01-30 11:40:28.86	334.24	4.56	-61.3	-78.2	3.6	1.51e+00	0	45	104	827326464	60	317249
2026-01-30 11:40:32.88	334.68	4.37	-58.1	-77.3	3.6	1.51e+00	0	45	104	827326464	60	285844
2026-01-30 11:40:36.91	335.12	4.18	-59.8	-78.1	3.6	1.51e+00	0	45	104	827326464	60	316457
2026-01-30 11:40:40.94	335.55	4.00	-59.9	-78.1	3.6	1.51e+00	0	45	104	827326464	60	314576
2026-01-30 11:40:44.96	335.98	3.81	-59.8	-78.1	3.6	1.51e+00	0	45	104	827326464	60	314864
2026-01-30 11:40:48.98	336.41	3.63	-59.9	-78.1	3.6	1.51e+00	0	45	104	827326464	60	316026
2026-01-30 11:40:53.00	336.82	3.44	-60.0	-78.2	3.6	1.51e+00	0	45	104	827326464	60	316836
2026-01-30 11:40:57.03	337.24	3.25	-59.9	-78.0	3.6	1.51e+00	0	45	104	827326464	60	312888
2026-01-30 11:41:01.06	337.65	3.07	-59.7	-77.9	3.6	1.51e+00	0	45	104	827326464	60	307843
2026-01-30 11:41:05.07	338.05	2.88	-59.8	-77.9	3.6	1.51e+00	0	45	104	827326464	60	307698
2026-01-30 11:41:09.11	338.45	2.69	-59.8	-78.1	3.6	1.51e+00	0	45	104	827326464	60	314137
2026-01-30 11:41:13.13	338.84	2.51	-59.7	-78.0	3.6	1.51e+00	0	45	104	827326464	60	309948
2026-01-30 11:41:17.16	339.23	2.32	-59.7	-77.9	3.6	1.51e+00	0	45	104	827326464	60	306077
2026-01-30 11:41:21.19	339.62	2.14	-59.6	-77.8	3.6	1.51e+00	0	45	104	827326464	60	305680
2026-01-30 11:41:25.20	340.00	1.95	-59.7	-77.8	3.6	1.51e+00	0	45	104	827326464	60	305186
2026-01-30 11:41:29.24	340.37	1.77	-59.7	-77.9	3.6	1.51e+00	0	45	104	827326464	60	307515
2026-01-30 11:41:33.26	340.75	1.58	-59.7	-77.8	3.6	1.51e+00	0	45	104	827326464	60	304754
2026-01-30 11:41:37.29	341.11	1.40	-59.6	-77.8	3.6	1.51e+00	0	45	104	827326464	60	305049
2026-01-30 11:41:41.32	341.48	1.21	-59.7	-77.7	3.6	1.51e+00	0	45	104	827326464	60	300571
2026-01-30 11:41:45.35	341.84	1.03	-59.7	-77.9	3.6	1.51e+00	0	45	104	827326464	60	306821
2026-01-30 11:41:49.38	342.19	0.85	-59.7	-77.7	3.6	1.51e+00	0	45	104	827326464	60	302138
2026-01-30 11:41:53.41	342.54	0.66	-59.8	-77.9	3.6	1.51e+00	0	45	104	827326464	60	307642
2026-01-30 11:41:57.44	342.89	0.48	-59.8	-77.9	3.6	1.51e+00	0	45	104	827326464	60	308596
2026-01-30 11:42:01.47	343.23	0.30	-59.8	-77.8	3.6	1.51e+00	0	45	104	827326464	60	305723
2026-01-30 11:42:05.50	343.57	0.12	-59.8	-77.7	3.6	1.51e+00	0	45	104	827326464	60	302040

#Closed at: 2026-01-30 11:42:09
#Recorded file [827 MB]: D:/Data/35015_260130_143909.dat