passes_logs/2026/01/30/R3.2S-Naryan-Mar/R3.2S-Naryan-Mar__20260130_012915_SUOMI_NPP_rec.log

#Pass ID: 20260130_012915_SUOMI NPP
#Satellite: SUOMI NPP
#Configuration: NPP
#almurnet v.1.7.20240730
#Start time: 2026-01-30 01:29:17

#Version: 2.2.20231116
#Station: R3.2S-Naryan-Mar
#Location: 53.008057 lon 67.646978 lat
#TLE: 1 37849U 11061A   26028.91916408  .00000155  00000+0  94467-4 0  9990
#TLE: 2 37849  98.7824 330.8488 0002045  39.4457 320.6868 14.19531289738686

#Time	Az	El	Level	Level2	SNR	BER	BlckErr	Temp	State	Recorded	gain1	gain2
2026-01-30 01:29:17.26	34.87	0.11	-61.5	-75.0	3.5	8.45e-01	0	43	0	0	60	219357
2026-01-30 01:29:21.28	34.70	0.34	-60.2	-78.1	3.6	1.51e+00	0	44	104	0	60	316298
2026-01-30 01:29:25.30	34.52	0.57	-60.1	-78.1	3.6	1.51e+00	0	44	104	0	60	316190
2026-01-30 01:29:29.34	34.35	0.80	-60.4	-78.0	3.6	1.51e+00	0	45	104	0	60	310102
2026-01-30 01:29:33.36	34.17	1.03	-57.9	-77.7	3.6	1.51e+00	0	45	104	0	60	300941
2026-01-30 01:29:37.38	33.99	1.27	-60.5	-77.9	3.6	1.51e+00	0	45	104	0	60	307954
2026-01-30 01:29:41.41	33.81	1.50	-56.8	-74.8	3.6	1.51e+00	0	45	104	0	60	215965
2026-01-30 01:29:45.43	33.62	1.74	-57.2	-76.8	3.6	1.51e+00	0	45	104	0	60	271333
2026-01-30 01:29:49.46	33.43	1.98	-51.9	-73.1	3.6	1.51e+00	0	45	104	0	60	177971
2026-01-30 01:29:53.49	33.24	2.22	-57.6	-76.2	3.6	1.51e+00	0	45	104	0	60	253379
2026-01-30 01:29:57.52	33.04	2.47	-58.3	-75.8	3.6	1.51e+00	0	45	104	0	60	241470
2026-01-30 01:30:01.55	32.84	2.71	-58.3	-75.7	3.6	1.51e+00	0	45	104	0	60	239372
2026-01-30 01:30:05.58	32.63	2.96	-58.2	-75.7	3.6	1.51e+00	0	45	104	0	60	239031
2026-01-30 01:30:09.62	32.42	3.21	-58.2	-75.6	3.6	1.51e+00	0	45	104	0	60	236790
2026-01-30 01:30:13.64	32.21	3.46	-58.2	-75.6	3.6	1.51e+00	0	45	104	0	60	236665
2026-01-30 01:30:17.65	32.00	3.71	-58.1	-75.6	3.6	1.51e+00	0	45	104	0	60	235996
2026-01-30 01:30:21.68	31.77	3.97	-58.1	-75.7	3.6	1.51e+00	0	45	104	0	60	237700
2026-01-30 01:30:25.72	31.55	4.22	-58.2	-75.5	3.6	1.51e+00	0	45	104	0	60	233096
2026-01-30 01:30:29.75	31.32	4.48	-58.2	-75.5	3.6	1.51e+00	0	45	104	0	60	234480
2026-01-30 01:30:33.77	31.09	4.74	-58.0	-75.6	3.6	1.51e+00	0	45	104	0	60	236654
2026-01-30 01:30:37.79	30.85	5.00	-58.1	-75.0	3.6	1.51e+00	0	45	104	0	60	219607
2026-01-30 01:30:41.82	30.61	5.27	-57.9	-71.6	4.1	1.50e+00	0	45	104	0	60	149708
2026-01-30 01:30:45.84	30.36	5.53	-57.0	-63.5	10.6	5.82e-03	0	45	0	6291456	60	58895
2026-01-30 01:30:49.85	30.11	5.80	-55.6	-59.6	14.7	0.00e+00	0	45	0	13631488	60	37531
2026-01-30 01:30:53.87	29.86	6.07	-55.2	-58.7	16.1	0.00e+00	0	45	0	20971520	60	33550
2026-01-30 01:30:57.90	29.59	6.35	-56.6	-61.0	13.1	0.00e+00	0	45	0	29360128	60	43941
2026-01-30 01:31:01.93	29.33	6.62	-54.5	-58.7	15.6	0.00e+00	0	45	0	36700160	60	33657
2026-01-30 01:31:05.96	29.05	6.90	-51.0	-58.3	13.5	3.00e-06	0	45	0	44040192	60	32238
2026-01-30 01:31:09.98	28.78	7.18	-51.4	-57.8	14.7	0.00e+00	0	45	0	51380224	60	30516
2026-01-30 01:31:14.02	28.49	7.46	-53.1	-57.7	16.4	0.00e+00	0	45	0	58720256	60	30234
2026-01-30 01:31:18.04	28.20	7.75	-53.8	-58.0	16.5	0.00e+00	0	45	0	67108864	60	31260
2026-01-30 01:31:22.07	27.91	8.04	-52.8	-57.7	16.4	0.00e+00	0	45	0	74448896	60	30054
2026-01-30 01:31:26.10	27.60	8.33	-53.0	-57.4	16.4	0.00e+00	0	45	0	81788928	60	29048
2026-01-30 01:31:30.13	27.30	8.62	-54.1	-57.3	17.2	0.00e+00	0	45	0	89128960	60	28564
2026-01-30 01:31:34.15	26.98	8.92	-53.3	-57.2	17.2	0.00e+00	0	45	0	96468992	60	28502
2026-01-30 01:31:38.18	26.66	9.21	-51.8	-57.0	15.5	0.00e+00	0	45	0	104857600	60	27652
2026-01-30 01:31:42.19	26.33	9.51	-50.6	-56.8	14.6	0.00e+00	0	46	0	112197632	60	27128
2026-01-30 01:31:46.21	26.00	9.82	-50.8	-56.9	15.7	0.00e+00	0	45	0	119537664	60	27400
2026-01-30 01:31:50.24	25.65	10.12	-49.2	-56.9	15.1	0.00e+00	0	45	0	126877696	60	27321
2026-01-30 01:31:54.26	25.30	10.43	-48.7	-56.9	14.8	0.00e+00	0	46	0	134217728	60	27570
2026-01-30 01:31:58.29	24.94	10.74	-50.9	-57.0	16.6	0.00e+00	0	45	0	142606336	60	27896
2026-01-30 01:32:02.31	24.58	11.06	-53.3	-57.0	18.2	0.00e+00	0	45	0	149946368	60	27634
2026-01-30 01:32:06.35	24.20	11.37	-51.2	-56.7	18.5	0.00e+00	0	45	0	157286400	60	26771
2026-01-30 01:32:10.38	23.82	11.69	-49.1	-56.7	16.2	0.00e+00	0	45	0	164626432	60	26779
2026-01-30 01:32:14.39	23.43	12.02	-49.0	-56.1	13.9	7.00e-07	0	45	0	171966464	60	24871
2026-01-30 01:32:18.42	23.03	12.34	-51.9	-56.0	15.1	0.00e+00	0	45	0	180355072	60	24626
2026-01-30 01:32:22.45	22.61	12.67	-49.0	-55.9	13.5	1.50e-06	0	46	0	187695104	60	24578
2026-01-30 01:32:26.47	22.19	13.00	-45.5	-55.7	13.4	6.80e-06	0	46	0	195035136	60	23965
2026-01-30 01:32:30.49	21.77	13.34	-51.5	-55.9	16.6	0.00e+00	0	46	0	202375168	60	24500
2026-01-30 01:32:34.51	21.33	13.67	-51.4	-55.8	19.1	0.00e+00	0	45	0	209715200	60	24186
2026-01-30 01:32:38.54	20.87	14.02	-53.5	-56.1	16.9	0.00e+00	0	46	0	218103808	60	25143
2026-01-30 01:32:42.56	20.41	14.36	-52.9	-56.1	19.4	0.00e+00	0	45	0	225443840	60	24995
2026-01-30 01:32:46.58	19.94	14.70	-50.7	-56.6	16.6	0.00e+00	0	46	0	232783872	60	26485
2026-01-30 01:32:50.61	19.46	15.05	-49.3	-56.2	15.4	0.00e+00	0	46	0	240123904	60	25256
2026-01-30 01:32:54.64	18.96	15.41	-50.6	-56.3	14.6	7.00e-07	0	46	0	247463936	60	25636
2026-01-30 01:32:58.67	18.45	15.76	-51.1	-56.3	16.3	0.00e+00	0	46	0	255852544	60	25635
2026-01-30 01:33:02.69	17.93	16.12	-50.3	-55.9	16.4	0.00e+00	0	45	0	263192576	60	24510
2026-01-30 01:33:06.72	17.40	16.48	-53.1	-55.5	19.9	0.00e+00	0	45	0	270532608	60	23360
2026-01-30 01:33:10.75	16.85	16.85	-53.9	-56.3	19.4	0.00e+00	0	45	0	277872640	60	25481
2026-01-30 01:33:14.78	16.29	17.21	-54.2	-56.6	18.7	0.00e+00	0	46	0	285212672	60	26480
2026-01-30 01:33:18.80	15.71	17.58	-54.4	-57.9	16.5	0.00e+00	0	46	0	293601280	60	30919
2026-01-30 01:33:22.82	15.12	17.95	-54.8	-57.2	18.6	0.00e+00	0	46	0	300941312	60	28278
2026-01-30 01:33:26.85	14.52	18.32	-53.3	-56.5	18.8	0.00e+00	0	46	0	308281344	60	26140
2026-01-30 01:33:30.88	13.90	18.70	-52.5	-56.1	18.6	0.00e+00	0	45	0	315621376	60	25105
2026-01-30 01:33:34.91	13.26	19.08	-53.5	-56.3	19.0	0.00e+00	0	45	0	322961408	60	25477
2026-01-30 01:33:38.91	12.61	19.46	-54.1	-56.4	19.5	0.00e+00	0	45	0	331350016	60	25893
2026-01-30 01:33:42.94	11.94	19.84	-54.0	-55.9	19.9	0.00e+00	0	46	0	338690048	60	24390
2026-01-30 01:33:46.96	11.26	20.22	-54.0	-56.3	18.9	0.00e+00	0	46	0	346030080	60	25602
2026-01-30 01:33:50.99	10.55	20.61	-52.5	-56.3	18.9	0.00e+00	0	46	0	353370112	60	25494
2026-01-30 01:33:55.01	9.83	20.99	-52.6	-56.5	18.3	0.00e+00	0	46	0	360710144	60	26292
2026-01-30 01:33:59.03	9.09	21.38	-54.4	-56.5	19.0	0.00e+00	0	46	0	368050176	60	26094
2026-01-30 01:34:03.05	8.33	21.76	-51.4	-55.6	17.5	0.00e+00	0	46	0	376438784	60	23717
2026-01-30 01:34:07.08	7.55	22.15	-51.7	-56.1	18.5	0.00e+00	0	46	0	383778816	60	25119
2026-01-30 01:34:11.10	6.75	22.54	-53.3	-56.2	19.7	0.00e+00	0	46	0	391118848	60	25398
2026-01-30 01:34:15.12	5.93	22.93	-51.0	-55.7	18.3	0.00e+00	0	46	0	398458880	60	23940
2026-01-30 01:34:19.14	5.09	23.31	-52.8	-56.2	18.2	0.00e+00	0	46	0	405798912	60	25215
2026-01-30 01:34:23.15	4.24	23.70	-53.1	-56.5	17.9	0.00e+00	0	46	0	414187520	60	26121
2026-01-30 01:34:27.18	3.35	24.08	-54.5	-56.4	19.5	0.00e+00	0	46	0	421527552	60	25868
2026-01-30 01:34:31.21	2.44	24.46	-53.8	-56.6	18.9	0.00e+00	0	46	0	428867584	60	26395
2026-01-30 01:34:35.24	1.52	24.84	-54.0	-56.8	17.8	0.00e+00	0	46	0	436207616	60	27218
2026-01-30 01:34:39.26	0.57	25.22	-53.2	-55.6	19.4	0.00e+00	0	46	0	443547648	60	23656
2026-01-30 01:34:43.28	359.59	25.59	-53.7	-55.5	19.8	0.00e+00	0	46	0	451936256	60	23465
2026-01-30 01:34:47.30	358.60	25.96	-53.2	-55.1	20.9	0.00e+00	0	46	0	459276288	60	22199
2026-01-30 01:34:51.33	357.57	26.32	-53.5	-56.1	19.7	0.00e+00	0	46	0	466616320	60	25035
2026-01-30 01:34:55.35	356.53	26.68	-54.4	-56.3	19.4	0.00e+00	0	46	0	473956352	60	25570
2026-01-30 01:34:59.38	355.46	27.04	-54.6	-56.7	19.4	0.00e+00	0	46	0	481296384	60	26746
2026-01-30 01:35:03.40	354.37	27.38	-54.5	-56.8	19.3	0.00e+00	0	46	0	489684992	60	27017
2026-01-30 01:35:07.43	353.25	27.72	-54.4	-56.2	20.0	0.00e+00	0	46	0	497025024	60	25293
2026-01-30 01:35:11.45	352.11	28.05	-54.2	-56.2	19.4	0.00e+00	0	45	0	504365056	60	25396
2026-01-30 01:35:15.47	350.95	28.37	-55.4	-57.5	18.6	0.00e+00	0	46	0	511705088	60	29380
2026-01-30 01:35:19.50	349.76	28.68	-56.6	-59.1	17.4	0.00e+00	0	46	0	519045120	60	35489
2026-01-30 01:35:23.53	348.55	28.98	-56.7	-59.2	17.3	0.00e+00	0	46	0	527433728	60	35918
2026-01-30 01:35:27.54	347.32	29.27	-55.4	-57.3	18.9	0.00e+00	0	46	0	534773760	60	28777
2026-01-30 01:35:31.57	346.07	29.54	-55.1	-57.1	19.4	0.00e+00	0	45	0	542113792	60	27989
2026-01-30 01:35:35.59	344.79	29.80	-55.0	-57.1	19.0	0.00e+00	0	46	0	549453824	60	28168
2026-01-30 01:35:39.63	343.49	30.05	-55.5	-57.6	18.8	0.00e+00	0	46	0	556793856	60	29623
2026-01-30 01:35:43.64	342.18	30.29	-55.3	-58.4	17.9	0.00e+00	0	46	0	565182464	60	32642
2026-01-30 01:35:47.67	340.84	30.51	-54.4	-56.8	19.4	0.00e+00	0	46	0	572522496	60	27194
2026-01-30 01:35:51.69	339.49	30.71	-54.9	-56.8	19.5	0.00e+00	0	46	0	579862528	60	27075
2026-01-30 01:35:55.71	338.12	30.89	-54.4	-56.0	20.3	0.00e+00	0	46	0	587202560	60	24701
2026-01-30 01:35:59.74	336.74	31.06	-54.3	-56.1	20.0	0.00e+00	0	46	0	594542592	60	24886
2026-01-30 01:36:03.77	335.34	31.21	-55.8	-58.4	17.7	0.00e+00	0	45	0	601882624	60	32660
2026-01-30 01:36:07.80	333.92	31.34	-54.8	-57.4	18.8	0.00e+00	0	46	0	610271232	60	29176
2026-01-30 01:36:11.83	332.50	31.45	-55.6	-57.8	18.3	0.00e+00	0	46	0	617611264	60	30569
2026-01-30 01:36:15.86	331.07	31.55	-54.4	-56.2	19.8	0.00e+00	0	46	0	624951296	60	25159
2026-01-30 01:36:19.87	329.63	31.62	-55.4	-57.8	18.3	0.00e+00	0	46	0	632291328	60	30429
2026-01-30 01:36:23.88	328.20	31.67	-55.2	-57.2	18.9	0.00e+00	0	46	0	640679936	60	28334
2026-01-30 01:36:27.90	326.75	31.70	-54.8	-57.0	18.9	0.00e+00	0	46	0	648019968	60	27702
2026-01-30 01:36:31.94	325.30	31.71	-55.6	-57.8	18.4	0.00e+00	0	46	0	655360000	60	30315
2026-01-30 01:36:35.97	323.85	31.70	-55.6	-57.7	18.4	0.00e+00	0	46	0	662700032	60	30218
2026-01-30 01:36:39.98	322.40	31.67	-55.2	-57.2	18.9	0.00e+00	0	46	0	670040064	60	28396
2026-01-30 01:36:44.00	320.96	31.62	-54.3	-56.2	19.9	0.00e+00	0	46	0	678428672	60	25351
2026-01-30 01:36:48.04	319.52	31.54	-55.3	-58.1	18.1	0.00e+00	0	46	0	685768704	60	31620
2026-01-30 01:36:52.06	318.09	31.45	-54.8	-56.6	19.4	0.00e+00	0	46	0	693108736	60	26576
2026-01-30 01:36:56.09	316.67	31.34	-55.4	-57.5	18.6	0.00e+00	0	46	0	700448768	60	29366
2026-01-30 01:37:00.10	315.26	31.21	-54.0	-56.6	19.4	0.00e+00	0	46	0	707788800	60	26378
2026-01-30 01:37:04.13	313.86	31.06	-54.2	-58.0	18.0	0.00e+00	0	45	0	715128832	60	31074
2026-01-30 01:37:08.16	312.47	30.89	-53.7	-55.8	19.9	0.00e+00	0	46	0	723517440	60	24251
2026-01-30 01:37:12.19	311.10	30.70	-54.0	-55.8	19.7	0.00e+00	0	46	0	730857472	60	24119
2026-01-30 01:37:16.20	309.75	30.50	-55.0	-57.8	17.7	0.00e+00	0	46	0	738197504	60	30526
2026-01-30 01:37:20.23	308.41	30.28	-53.5	-55.6	19.6	0.00e+00	0	45	0	745537536	60	23688
2026-01-30 01:37:24.25	307.10	30.05	-53.8	-55.9	19.3	0.00e+00	0	46	0	752877568	60	24541
2026-01-30 01:37:28.28	305.80	29.80	-54.6	-56.8	18.7	0.00e+00	0	46	0	761266176	60	27096
2026-01-30 01:37:32.31	304.52	29.53	-55.1	-57.2	18.4	0.00e+00	0	45	0	768606208	60	28473
2026-01-30 01:37:36.33	303.27	29.26	-55.8	-58.2	17.6	0.00e+00	0	45	0	775946240	60	31886
2026-01-30 01:37:40.37	302.03	28.97	-56.1	-58.8	16.9	0.00e+00	0	46	0	783286272	60	34107
2026-01-30 01:37:44.39	300.82	28.67	-55.6	-58.2	17.4	0.00e+00	0	45	0	791674880	60	31890
2026-01-30 01:37:48.42	299.63	28.36	-55.0	-57.3	18.4	0.00e+00	0	46	0	799014912	60	28608
2026-01-30 01:37:52.45	298.46	28.03	-53.2	-54.8	20.7	0.00e+00	0	46	0	806354944	60	21525
2026-01-30 01:37:56.48	297.32	27.70	-53.4	-55.1	20.7	0.00e+00	0	46	0	813694976	60	22356
2026-01-30 01:38:00.50	296.20	27.36	-53.8	-55.7	19.7	0.00e+00	0	46	0	821035008	60	23997
2026-01-30 01:38:04.51	295.12	27.02	-53.0	-54.6	20.6	0.00e+00	0	46	0	828375040	60	21112
2026-01-30 01:38:08.54	294.04	26.67	-55.4	-57.9	17.7	0.00e+00	0	46	0	836763648	60	30806
2026-01-30 01:38:12.57	293.00	26.31	-54.9	-57.3	18.3	0.00e+00	0	46	0	844103680	60	28710
2026-01-30 01:38:16.60	291.97	25.94	-53.5	-55.7	19.7	0.00e+00	0	45	0	851443712	60	23858
2026-01-30 01:38:20.62	290.98	25.57	-52.0	-54.2	20.7	0.00e+00	0	45	0	858783744	60	19987
2026-01-30 01:38:24.65	290.00	25.20	-51.6	-53.9	20.6	0.00e+00	0	45	0	866123776	60	19339
2026-01-30 01:38:28.67	289.05	24.82	-51.5	-53.7	20.7	0.00e+00	0	46	0	874512384	60	18961
2026-01-30 01:38:32.70	288.12	24.44	-52.3	-54.7	19.8	0.00e+00	0	46	0	881852416	60	21177
2026-01-30 01:38:36.73	287.21	24.06	-52.8	-55.1	19.7	0.00e+00	0	45	0	889192448	60	22243
2026-01-30 01:38:40.75	286.33	23.67	-52.9	-55.0	19.9	0.00e+00	0	46	0	896532480	60	22006
2026-01-30 01:38:44.78	285.46	23.29	-52.0	-53.8	21.1	0.00e+00	0	46	0	904921088	60	19186
2026-01-30 01:38:48.80	284.62	22.90	-50.8	-52.3	22.0	0.00e+00	0	46	0	912261120	60	16238
2026-01-30 01:38:52.83	283.80	22.51	-51.4	-53.3	20.9	0.00e+00	0	46	0	919601152	60	18164
2026-01-30 01:38:56.86	283.00	22.12	-51.3	-53.3	20.8	0.00e+00	0	46	0	926941184	60	18076
2026-01-30 01:39:00.90	282.22	21.73	-51.5	-53.7	20.3	0.00e+00	0	46	0	934281216	60	18886
2026-01-30 01:39:04.93	281.45	21.34	-51.5	-53.5	20.2	0.00e+00	0	46	0	941621248	60	18602
2026-01-30 01:39:08.95	280.71	20.96	-51.7	-53.8	20.4	0.00e+00	0	46	0	950009856	60	19102
2026-01-30 01:39:12.98	279.99	20.57	-51.1	-52.8	20.9	0.00e+00	0	46	0	957349888	60	17180
2026-01-30 01:39:17.01	279.28	20.19	-51.8	-53.7	20.3	0.00e+00	0	46	0	964689920	60	19003
2026-01-30 01:39:21.04	278.60	19.80	-52.4	-54.5	19.7	0.00e+00	0	46	0	972029952	60	20767
2026-01-30 01:39:25.07	277.93	19.42	-51.3	-53.0	21.0	0.00e+00	0	46	0	979369984	60	17505
2026-01-30 01:39:29.09	277.27	19.04	-51.4	-52.9	21.2	0.00e+00	0	46	0	987758592	60	17244
2026-01-30 01:39:33.11	276.64	18.66	-52.3	-54.1	20.3	0.00e+00	0	46	0	995098624	60	19767
2026-01-30 01:39:37.14	276.02	18.28	-53.2	-55.3	19.1	0.00e+00	0	46	0	1002438656	60	22899
2026-01-30 01:39:41.17	275.41	17.91	-52.7	-54.5	20.0	0.00e+00	0	46	0	1009778688	60	20777
2026-01-30 01:39:45.19	274.82	17.54	-52.4	-54.0	20.4	0.00e+00	0	46	0	1018167296	60	19739
2026-01-30 01:39:49.22	274.24	17.17	-53.3	-55.2	19.2	0.00e+00	0	45	0	1025507328	60	22589
2026-01-30 01:39:53.24	273.68	16.80	-53.0	-54.8	19.7	0.00e+00	0	46	0	1032847360	60	21500
2026-01-30 01:39:57.26	273.13	16.44	-52.7	-54.2	20.4	0.00e+00	0	46	0	1040187392	60	20175
2026-01-30 01:40:01.29	272.60	16.08	-52.1	-53.6	20.9	0.00e+00	0	46	0	1047527424	60	18681
2026-01-30 01:40:05.32	272.07	15.72	-52.5	-54.1	20.4	0.00e+00	0	46	0	1054867456	60	19771
2026-01-30 01:40:09.35	271.56	15.36	-52.8	-54.4	20.1	0.00e+00	0	46	0	1063256064	60	20506
2026-01-30 01:40:13.38	271.07	15.01	-52.4	-53.8	20.6	0.00e+00	0	46	0	1070596096	60	19280
2026-01-30 01:40:17.40	270.58	14.66	-52.7	-54.3	20.1	0.00e+00	0	46	0	1077936128	60	20236
2026-01-30 01:40:21.43	270.11	14.31	-54.1	-56.2	18.5	0.00e+00	0	46	0	1085276160	60	25251
2026-01-30 01:40:25.45	269.65	13.97	-53.8	-55.7	19.0	0.00e+00	0	46	0	1092616192	60	23979
2026-01-30 01:40:29.48	269.19	13.63	-52.3	-53.8	20.6	0.00e+00	0	46	0	1101004800	60	19187
2026-01-30 01:40:33.51	268.75	13.29	-52.1	-53.6	20.8	0.00e+00	0	46	0	1108344832	60	18722
2026-01-30 01:40:37.53	268.32	12.95	-53.4	-55.2	19.3	0.00e+00	0	46	0	1115684864	60	22568
2026-01-30 01:40:41.57	267.90	12.62	-54.4	-56.6	17.9	0.00e+00	0	46	0	1123024896	60	26457
2026-01-30 01:40:45.60	267.49	12.29	-54.5	-56.8	17.6	0.00e+00	0	46	0	1131413504	60	27112
2026-01-30 01:40:49.61	267.08	11.97	-54.5	-56.7	17.8	0.00e+00	0	46	0	1138753536	60	26947
2026-01-30 01:40:53.62	266.69	11.64	-54.4	-56.6	18.0	0.00e+00	0	46	0	1146093568	60	26338
2026-01-30 01:40:57.65	266.31	11.32	-54.2	-56.2	18.2	0.00e+00	0	46	0	1153433600	60	25353
2026-01-30 01:41:01.67	265.93	11.01	-54.2	-56.3	18.2	0.00e+00	0	46	0	1160773632	60	25455
2026-01-30 01:41:05.71	265.56	10.69	-54.5	-56.8	17.8	0.00e+00	0	46	0	1168113664	60	26972
2026-01-30 01:41:09.73	265.20	10.38	-54.3	-56.4	18.2	0.00e+00	0	46	0	1176502272	60	25758
2026-01-30 01:41:13.75	264.85	10.07	-53.6	-55.5	19.0	0.00e+00	0	46	0	1183842304	60	23348
2026-01-30 01:41:17.78	264.51	9.76	-53.4	-55.2	19.3	0.00e+00	0	46	0	1191182336	60	22570
2026-01-30 01:41:21.80	264.17	9.46	-53.7	-55.6	18.7	0.00e+00	0	46	0	1198522368	60	23635
2026-01-30 01:41:25.82	263.84	9.16	-54.3	-56.6	17.8	0.00e+00	0	46	0	1205862400	60	26426
2026-01-30 01:41:29.85	263.52	8.86	-55.0	-57.6	16.8	0.00e+00	0	46	0	1214251008	60	29632
2026-01-30 01:41:33.87	263.20	8.57	-55.2	-57.9	16.4	0.00e+00	0	46	0	1221591040	60	30897
2026-01-30 01:41:37.88	262.89	8.28	-55.2	-58.0	16.4	0.00e+00	0	46	0	1228931072	60	31131
2026-01-30 01:41:41.90	262.59	7.99	-55.1	-57.8	16.6	0.00e+00	0	46	0	1236271104	60	30257
2026-01-30 01:41:45.93	262.29	7.70	-54.9	-57.6	16.6	0.00e+00	0	46	0	1243611136	60	29636
2026-01-30 01:41:49.96	262.00	7.41	-54.7	-57.3	17.0	0.00e+00	0	46	0	1250951168	60	28571
2026-01-30 01:41:53.98	261.72	7.13	-54.6	-57.0	17.1	0.00e+00	0	46	0	1259339776	60	27769
2026-01-30 01:41:58.00	261.44	6.85	-54.5	-57.0	17.1	0.00e+00	0	46	0	1266679808	60	27753
2026-01-30 01:42:02.02	261.16	6.57	-54.8	-57.4	16.6	0.00e+00	0	46	0	1274019840	60	29212
2026-01-30 01:42:06.04	260.89	6.30	-55.2	-58.3	15.8	0.00e+00	0	46	0	1281359872	60	32033
2026-01-30 01:42:10.06	260.63	6.02	-55.3	-58.7	15.1	0.00e+00	0	46	0	1288699904	60	33642
2026-01-30 01:42:14.07	260.37	5.75	-59.5	-76.0	3.6	1.51e+00	0	46	104	1290797056	60	247656
2026-01-30 01:42:18.10	260.12	5.48	-58.6	-76.3	3.5	1.51e+00	0	46	104	1290797056	60	255752
2026-01-30 01:42:22.14	259.87	5.22	-58.5	-76.7	3.6	1.51e+00	0	46	104	1290797056	60	269142
2026-01-30 01:42:26.17	259.63	4.95	-57.7	-77.0	3.6	1.51e+00	0	46	104	1290797056	60	276265
2026-01-30 01:42:30.19	259.39	4.69	-57.2	-77.3	3.6	1.51e+00	0	46	104	1290797056	60	286769
2026-01-30 01:42:34.22	259.15	4.43	-58.5	-77.8	3.6	1.51e+00	0	46	104	1290797056	60	303969
2026-01-30 01:42:38.26	258.92	4.17	-57.6	-77.0	3.6	1.51e+00	0	46	104	1290797056	60	278740
2026-01-30 01:42:42.28	258.69	3.91	-59.2	-78.4	3.6	1.51e+00	0	46	104	1290797056	60	327439
2026-01-30 01:42:46.31	258.47	3.66	-59.3	-78.4	3.6	1.51e+00	0	46	104	1290797056	60	324314
2026-01-30 01:42:50.33	258.25	3.41	-59.3	-78.5	3.6	1.51e+00	0	46	104	1290797056	60	329654
2026-01-30 01:42:54.37	258.04	3.15	-59.3	-78.5	3.6	1.51e+00	0	46	104	1290797056	60	328341
2026-01-30 01:42:58.40	257.83	2.90	-59.3	-78.5	3.6	1.51e+00	0	46	104	1290797056	60	328800
2026-01-30 01:43:02.43	257.62	2.66	-59.3	-78.5	3.6	1.51e+00	0	46	104	1290797056	60	329369
2026-01-30 01:43:06.45	257.42	2.41	-59.2	-78.3	3.6	1.51e+00	0	46	104	1290797056	60	321030
2026-01-30 01:43:10.48	257.22	2.17	-59.4	-78.3	3.6	1.51e+00	0	46	104	1290797056	60	320748
2026-01-30 01:43:14.52	257.02	1.93	-59.3	-78.3	3.6	1.51e+00	0	46	104	1290797056	60	320414
2026-01-30 01:43:18.53	256.83	1.69	-59.3	-78.2	3.6	1.51e+00	0	46	104	1290797056	60	318999
2026-01-30 01:43:22.55	256.64	1.45	-59.2	-78.3	3.6	1.51e+00	0	46	104	1290797056	60	320798
2026-01-30 01:43:26.58	256.46	1.21	-59.4	-78.4	3.6	1.51e+00	0	46	104	1290797056	60	324163
2026-01-30 01:43:30.62	256.27	0.98	-59.3	-78.3	3.6	1.51e+00	0	46	104	1290797056	60	323112
2026-01-30 01:43:34.64	256.09	0.74	-59.2	-78.1	3.6	1.51e+00	0	46	104	1290797056	60	314126
2026-01-30 01:43:38.67	255.92	0.51	-59.2	-78.2	3.6	1.51e+00	0	46	104	1290797056	60	318807
2026-01-30 01:43:42.69	255.74	0.28	-59.2	-78.1	3.6	1.51e+00	0	46	104	1290797056	60	314461
2026-01-30 01:43:46.72	255.57	0.05	-59.2	-78.2	3.6	1.51e+00	0	46	104	1290797056	60	317473

#Closed at: 2026-01-30 01:43:49
#Recorded file [1290 MB]: D:/Data/35015_260130_044210.dat