passes_logs/2026/01/30/R3.2S-Naryan-Mar/R3.2S-Naryan-Mar__20260130_122418_FENGYUN_3E_rec.log

#Pass ID: 20260130_122418_FENGYUN 3E
#Satellite: FENGYUN 3E
#Configuration: FENGYUN 3E
#almurnet v.1.7.20240730
#Start time: 2026-01-30 12:24:19

#Version: 2.2.20231116
#Station: R3.2S-Naryan-Mar
#Location: 53.008057 lon 67.646978 lat
#TLE: 1 49008U 21062A   26029.52207456 -.00000035  00000+0  41692-5 0  9997
#TLE: 2 49008  98.7499  34.4814 0002557 110.8023 249.3427 14.19887743236900

#Time	Az	El	Level	Level2	SNR	BER	BlckErr	Temp	State	Recorded	gain1	gain2
2026-01-30 12:24:19.97	148.99	0.10	-56.6	-77.5	3.5	3.03e+01	0	43	0	0	60	284109
2026-01-30 12:24:23.99	148.98	0.35	-59.1	-73.7	3.6	8.45e-01	0	44	104	0	60	189930
2026-01-30 12:24:28.02	148.98	0.59	-60.0	-74.2	3.6	8.45e-01	0	44	104	0	60	200871
2026-01-30 12:24:32.05	148.97	0.84	-60.9	-73.9	3.6	8.46e-01	0	44	104	0	60	193870
2026-01-30 12:24:36.08	148.96	1.09	-61.0	-73.9	3.5	8.45e-01	0	44	104	0	60	194357
2026-01-30 12:24:40.11	148.96	1.34	-61.1	-74.0	3.6	8.46e-01	0	44	104	0	60	197344
2026-01-30 12:24:44.13	148.95	1.60	-60.8	-73.8	3.6	8.46e-01	0	44	104	0	60	190815
2026-01-30 12:24:48.16	148.94	1.85	-59.9	-72.9	3.6	8.45e-01	0	44	104	0	60	173887
2026-01-30 12:24:52.19	148.93	2.11	-59.0	-72.1	3.6	8.45e-01	0	44	104	0	60	157512
2026-01-30 12:24:56.22	148.93	2.37	-57.6	-70.6	3.6	8.43e-01	0	44	104	0	60	133212
2026-01-30 12:25:00.22	148.92	2.63	-57.0	-70.4	3.6	8.44e-01	0	44	104	0	60	129405
2026-01-30 12:25:04.24	148.91	2.90	-57.0	-70.3	3.6	8.46e-01	0	44	104	0	60	127605
2026-01-30 12:25:08.27	148.90	3.17	-56.9	-69.6	3.6	8.44e-01	0	44	104	0	60	118846
2026-01-30 12:25:12.30	148.89	3.44	-56.8	-69.1	3.6	8.44e-01	0	44	104	0	60	111336
2026-01-30 12:25:16.32	148.88	3.71	-56.8	-69.0	3.6	8.44e-01	0	45	104	0	60	110146
2026-01-30 12:25:20.35	148.87	3.99	-56.7	-68.2	3.6	8.44e-01	0	45	104	0	60	100556
2026-01-30 12:25:24.37	148.86	4.27	-56.7	-68.5	3.6	8.45e-01	0	45	104	0	60	104253
2026-01-30 12:25:28.39	148.85	4.55	-55.6	-61.1	7.1	2.19e-01	0	45	0	5242880	60	44584
2026-01-30 12:25:32.42	148.83	4.84	-51.8	-54.3	14.2	4.50e-06	0	45	0	33554432	60	20385
2026-01-30 12:25:36.45	148.82	5.12	-48.9	-50.8	16.6	0.00e+00	0	45	0	62914560	60	13516
2026-01-30 12:25:40.48	148.81	5.42	-47.9	-49.6	17.4	0.00e+00	0	45	0	92274688	60	11791
2026-01-30 12:25:44.51	148.79	5.71	-49.4	-51.3	16.3	0.00e+00	0	45	0	121634816	60	14377
2026-01-30 12:25:48.53	148.78	6.01	-52.9	-55.8	12.5	8.46e-05	0	45	0	149946368	60	24220
2026-01-30 12:25:52.56	148.77	6.31	-56.1	-63.7	8.4	8.41e-01	0	45	104	173015040	60	60151
2026-01-30 12:25:56.58	148.75	6.61	-49.9	-51.8	15.8	0.00e+00	0	45	0	25165824	60	15236
2026-01-30 12:26:00.60	148.73	6.92	-48.8	-50.5	16.8	0.00e+00	0	45	0	54525952	60	13077
2026-01-30 12:26:04.63	148.72	7.24	-48.3	-50.0	17.2	0.00e+00	0	45	0	83886080	60	12363
2026-01-30 12:26:08.65	148.70	7.55	-48.0	-49.6	17.4	0.00e+00	0	45	0	112197632	60	11838
2026-01-30 12:26:12.68	148.68	7.87	-47.3	-48.8	18.0	0.00e+00	0	45	0	141557760	60	10756
2026-01-30 12:26:16.71	148.66	8.20	-47.3	-48.9	18.0	0.00e+00	0	45	0	170917888	60	10864
2026-01-30 12:26:20.72	148.65	8.52	-47.3	-48.8	17.9	0.00e+00	0	45	0	199229440	60	10790
2026-01-30 12:26:24.75	148.63	8.86	-47.0	-48.5	18.2	0.00e+00	0	45	0	228589568	60	10414
2026-01-30 12:26:28.77	148.61	9.19	-47.0	-48.5	18.2	0.00e+00	0	45	0	256901120	60	10398
2026-01-30 12:26:32.79	148.58	9.54	-47.4	-48.3	21.3	0.00e+00	0	45	0	287309824	60	10203
2026-01-30 12:26:36.82	148.56	9.88	-47.3	-48.2	21.5	0.00e+00	0	45	0	315621376	60	10067
2026-01-30 12:26:40.85	148.54	10.24	-47.4	-48.2	21.5	0.00e+00	0	45	0	344981504	60	10093
2026-01-30 12:26:44.87	148.51	10.59	-47.3	-48.2	21.4	0.00e+00	0	45	0	373293056	60	10026
2026-01-30 12:26:48.89	148.49	10.95	-47.1	-47.9	21.7	0.00e+00	0	45	0	403701760	60	9740
2026-01-30 12:26:52.91	148.46	11.32	-47.0	-47.8	21.8	0.00e+00	0	45	0	432013312	60	9660
2026-01-30 12:26:56.91	148.44	11.69	-46.9	-47.7	22.0	0.00e+00	0	45	0	461373440	60	9497
2026-01-30 12:27:00.94	148.41	12.07	-46.9	-47.7	22.0	0.00e+00	0	45	0	489684992	60	9469
2026-01-30 12:27:04.96	148.38	12.46	-46.9	-47.7	22.2	0.00e+00	0	45	0	519045120	60	9469
2026-01-30 12:27:08.98	148.35	12.85	-47.2	-47.9	22.0	0.00e+00	0	45	0	547356672	60	9772
2026-01-30 12:27:13.01	148.32	13.24	-47.0	-47.8	22.2	0.00e+00	0	45	0	576716800	60	9616
2026-01-30 12:27:17.05	148.28	13.65	-47.0	-47.7	22.3	0.00e+00	0	45	0	606076928	60	9511
2026-01-30 12:27:21.08	148.25	14.06	-47.1	-47.8	22.2	0.00e+00	0	45	0	635437056	60	9659
2026-01-30 12:27:25.11	148.22	14.48	-46.6	-47.3	22.7	0.00e+00	0	45	0	664797184	60	9124
2026-01-30 12:27:29.12	148.18	14.90	-46.5	-47.2	22.7	0.00e+00	0	45	0	693108736	60	8976
2026-01-30 12:27:33.16	148.14	15.34	-46.3	-47.0	23.0	0.00e+00	0	45	0	722468864	60	8783
2026-01-30 12:27:37.18	148.10	15.78	-46.2	-46.9	23.1	0.00e+00	0	45	0	750780416	60	8686
2026-01-30 12:27:41.21	148.06	16.23	-46.0	-46.7	23.4	0.00e+00	0	45	0	781189120	60	8437
2026-01-30 12:27:45.25	148.02	16.69	-45.9	-46.6	23.5	0.00e+00	0	45	0	809500672	60	8362
2026-01-30 12:27:49.28	147.97	17.15	-45.6	-46.2	23.8	0.00e+00	0	45	0	838860800	60	8031
2026-01-30 12:27:53.31	147.92	17.63	-45.5	-46.2	23.9	0.00e+00	0	45	0	868220928	60	7958
2026-01-30 12:27:57.34	147.88	18.11	-45.4	-46.0	24.0	0.00e+00	0	45	0	896532480	60	7834
2026-01-30 12:28:01.36	147.83	18.61	-45.3	-45.9	24.1	0.00e+00	0	45	0	925892608	60	7735
2026-01-30 12:28:05.38	147.77	19.11	-45.3	-45.9	24.0	0.00e+00	0	45	0	954204160	60	7728
2026-01-30 12:28:09.42	147.72	19.62	-45.5	-46.2	23.7	0.00e+00	0	45	0	984612864	60	7968
2026-01-30 12:28:13.44	147.66	20.15	-45.3	-45.9	24.0	0.00e+00	0	45	0	1012924416	60	7738
2026-01-30 12:28:17.47	147.60	20.69	-45.4	-46.1	24.0	0.00e+00	0	45	0	1042284544	60	7897
2026-01-30 12:28:21.50	147.54	21.24	-45.5	-46.2	23.9	0.00e+00	0	45	0	1071644672	60	7955
2026-01-30 12:28:25.52	147.47	21.80	-45.8	-46.4	23.9	0.00e+00	0	45	0	1101004800	60	8216
2026-01-30 12:28:29.54	147.40	22.37	-45.6	-46.3	24.3	0.00e+00	0	45	0	1129316352	60	8078
2026-01-30 12:28:33.56	147.33	22.95	-45.8	-46.4	24.3	0.00e+00	0	45	0	1158676480	60	8188
2026-01-30 12:28:37.59	147.26	23.55	-45.5	-46.2	24.6	0.00e+00	0	45	0	1188036608	60	7969
2026-01-30 12:28:41.62	147.18	24.17	-45.4	-46.0	24.7	0.00e+00	0	45	0	1216348160	60	7802
2026-01-30 12:28:45.65	147.10	24.80	-45.3	-45.9	24.8	0.00e+00	0	45	0	1245708288	60	7758
2026-01-30 12:28:49.67	147.01	25.44	-45.5	-46.1	24.8	0.00e+00	0	45	0	1274019840	60	7905
2026-01-30 12:28:53.68	146.92	26.10	-45.5	-46.1	24.8	0.00e+00	0	45	0	1303379968	60	7920
2026-01-30 12:28:57.70	146.83	26.77	-46.0	-46.6	24.6	0.00e+00	0	45	0	1332740096	60	8360
2026-01-30 12:29:01.73	146.73	27.47	-45.7	-46.3	25.0	0.00e+00	0	45	0	1362100224	60	8071
2026-01-30 12:29:05.76	146.62	28.18	-45.3	-45.9	25.3	0.00e+00	0	45	0	1390411776	60	7747
2026-01-30 12:29:09.79	146.52	28.91	-45.3	-45.9	25.5	0.00e+00	0	45	0	1420820480	60	7704
2026-01-30 12:29:13.82	146.40	29.66	-45.2	-45.8	25.5	0.00e+00	0	45	0	1449132032	60	7666
2026-01-30 12:29:17.83	146.28	30.43	-45.4	-46.0	25.4	0.00e+00	0	45	0	1478492160	60	7804
2026-01-30 12:29:21.86	146.15	31.22	-45.8	-46.3	25.1	0.00e+00	0	45	0	1506803712	60	8137
2026-01-30 12:29:25.88	146.01	32.03	-46.2	-46.8	24.7	0.00e+00	0	45	0	1536163840	60	8590
2026-01-30 12:29:29.91	145.87	32.87	-45.8	-46.4	25.1	0.00e+00	0	45	0	1565523968	60	8185
2026-01-30 12:29:33.93	145.72	33.72	-45.6	-46.2	25.2	0.00e+00	0	45	0	1593835520	60	7978
2026-01-30 12:29:37.96	145.56	34.61	-45.5	-46.1	25.3	0.00e+00	0	45	0	1623195648	60	7920
2026-01-30 12:29:41.98	145.39	35.51	-45.6	-46.2	25.3	0.00e+00	0	45	0	1652555776	60	7975
2026-01-30 12:29:46.02	145.20	36.45	-45.8	-46.4	25.2	0.00e+00	0	45	0	1681915904	60	8181
2026-01-30 12:29:50.05	145.01	37.41	-45.6	-46.2	25.4	0.00e+00	0	45	0	1710227456	60	7955
2026-01-30 12:29:54.07	144.81	38.40	-45.3	-45.9	25.6	0.00e+00	0	45	0	1739587584	60	7696
2026-01-30 12:29:58.09	144.59	39.42	-45.8	-46.3	25.2	0.00e+00	0	45	0	1768947712	60	8134
2026-01-30 12:30:02.12	144.35	40.47	-46.1	-46.7	25.0	0.00e+00	0	45	0	1798307840	60	8466
2026-01-30 12:30:06.15	144.10	41.55	-45.9	-46.5	25.0	0.00e+00	0	45	0	1826619392	60	8307
2026-01-30 12:30:10.18	143.83	42.67	-46.2	-46.8	24.5	0.00e+00	0	45	0	1855979520	60	8609
2026-01-30 12:30:14.21	143.53	43.81	-46.5	-47.1	24.4	0.00e+00	0	45	0	1885339648	60	8915
2026-01-30 12:30:18.23	143.22	44.99	-46.9	-47.5	24.2	0.00e+00	0	45	0	1913651200	60	9298
2026-01-30 12:30:22.26	142.88	46.21	-46.7	-47.3	24.3	0.00e+00	0	45	0	1943011328	60	9057
2026-01-30 12:30:26.28	142.51	47.46	-46.7	-47.3	24.4	0.00e+00	0	45	0	1972371456	60	9125
2026-01-30 12:30:30.30	142.11	48.74	-47.1	-47.8	23.9	0.00e+00	0	45	0	2001731584	60	9567
2026-01-30 12:30:34.33	141.67	50.07	-47.1	-47.8	23.9	0.00e+00	0	45	0	2030043136	60	9568
2026-01-30 12:30:38.34	141.19	51.42	-47.2	-47.9	23.8	0.00e+00	0	45	0	2059403264	60	9675
2026-01-30 12:30:42.36	140.66	52.82	-47.7	-48.4	23.5	0.00e+00	0	45	0	2087714816	60	10251
2026-01-30 12:30:46.36	140.08	54.25	-47.6	-48.2	23.7	0.00e+00	0	45	0	2117074944	60	10113
2026-01-30 12:30:50.37	139.44	55.72	-47.6	-48.2	23.7	0.00e+00	0	45	0	2145386496	60	10072
2026-01-30 12:30:54.39	138.72	57.22	-48.0	-48.7	23.4	0.00e+00	0	45	0	2175795200	60	10627
2026-01-30 12:30:58.42	137.91	58.77	-47.8	-48.4	23.9	0.00e+00	0	45	0	2204106752	60	10343
2026-01-30 12:31:02.44	137.00	60.35	-47.4	-48.1	24.3	0.00e+00	0	45	0	2233466880	60	9990
2026-01-30 12:31:06.46	135.97	61.96	-47.0	-47.6	24.5	0.00e+00	0	45	0	2261778432	60	9440
2026-01-30 12:31:10.50	134.78	63.61	-46.5	-47.1	25.0	0.00e+00	0	46	0	2291138560	60	8907
2026-01-30 12:31:14.51	133.42	65.27	-46.0	-46.7	25.3	0.00e+00	0	45	0	2320498688	60	8442
2026-01-30 12:31:18.54	131.83	66.96	-46.2	-46.8	25.1	0.00e+00	0	45	0	2349858816	60	8582
2026-01-30 12:31:22.56	129.96	68.67	-46.1	-46.8	25.5	0.00e+00	0	46	0	2378170368	60	8570
2026-01-30 12:31:26.59	127.73	70.38	-46.5	-47.2	25.0	0.00e+00	0	46	0	2407530496	60	8992
2026-01-30 12:31:30.62	125.03	72.09	-46.4	-47.1	25.2	0.00e+00	0	45	0	2436890624	60	8850
2026-01-30 12:31:34.65	121.74	73.78	-45.6	-46.3	25.8	0.00e+00	0	45	0	2465202176	60	8051
2026-01-30 12:31:38.67	117.66	75.42	-45.6	-46.2	25.6	0.00e+00	0	45	0	2494562304	60	8016
2026-01-30 12:31:42.70	112.51	77.00	-44.7	-45.3	26.3	0.00e+00	0	45	0	2523922432	60	7201
2026-01-30 12:31:46.72	105.97	78.46	-44.6	-45.2	26.2	0.00e+00	0	45	0	2553282560	60	7126
2026-01-30 12:31:50.75	97.59	79.74	-44.6	-45.2	25.9	0.00e+00	0	45	0	2581594112	60	7154
2026-01-30 12:31:54.76	87.13	80.75	-44.4	-45.0	25.9	0.00e+00	0	46	0	2610954240	60	6950
2026-01-30 12:31:58.80	74.50	81.40	-44.5	-45.0	25.9	0.00e+00	0	45	0	2640314368	60	6995
2026-01-30 12:32:02.81	60.69	81.58	-44.8	-45.4	25.7	0.00e+00	0	45	0	2669674496	60	7326
2026-01-30 12:32:06.84	47.02	81.27	-44.5	-45.1	25.9	0.00e+00	0	46	0	2697986048	60	7041
2026-01-30 12:32:10.86	34.96	80.52	-44.3	-44.9	26.5	0.00e+00	0	45	0	2727346176	60	6880
2026-01-30 12:32:14.89	25.04	79.42	-44.7	-45.2	26.4	0.00e+00	0	45	0	2756706304	60	7163
2026-01-30 12:32:18.91	17.21	78.09	-44.4	-44.9	26.6	0.00e+00	0	46	0	2785017856	60	6913
2026-01-30 12:32:22.94	11.07	76.59	-45.2	-45.8	25.5	0.00e+00	0	45	0	2814377984	60	7650
2026-01-30 12:32:26.96	6.24	75.00	-45.8	-46.5	24.8	0.00e+00	0	45	0	2842689536	60	8251
2026-01-30 12:32:30.99	2.39	73.34	-45.8	-46.5	24.9	0.00e+00	0	46	0	2873098240	60	8249
2026-01-30 12:32:35.03	359.27	71.64	-46.1	-46.7	24.5	0.00e+00	0	45	0	2901409792	60	8440
2026-01-30 12:32:39.06	356.71	69.93	-46.1	-46.6	24.8	0.00e+00	0	46	0	2930769920	60	8417
2026-01-30 12:32:43.09	354.59	68.22	-45.9	-46.5	25.2	0.00e+00	0	45	0	2960130048	60	8255
2026-01-30 12:32:47.11	352.80	66.52	-46.1	-46.7	24.8	0.00e+00	0	45	0	2989490176	60	8516
2026-01-30 12:32:51.15	351.27	64.83	-46.2	-46.8	25.1	0.00e+00	0	45	0	3017801728	60	8551
2026-01-30 12:32:55.17	349.96	63.18	-47.0	-47.7	24.4	0.00e+00	0	45	0	3047161856	60	9472
2026-01-30 12:32:59.20	348.82	61.54	-47.1	-47.7	24.2	0.00e+00	0	45	0	3076521984	60	9529
2026-01-30 12:33:03.22	347.83	59.94	-47.4	-48.0	23.9	0.00e+00	0	45	0	3104833536	60	9871
2026-01-30 12:33:07.24	346.95	58.38	-47.7	-48.4	23.3	0.00e+00	0	45	0	3134193664	60	10261
2026-01-30 12:33:11.27	346.17	56.84	-47.6	-48.3	22.8	0.00e+00	0	45	0	3162505216	60	10161
2026-01-30 12:33:15.29	345.47	55.35	-47.6	-48.3	22.8	0.00e+00	0	45	0	3192913920	60	10148
2026-01-30 12:33:19.32	344.84	53.89	-47.1	-47.8	23.3	0.00e+00	0	45	0	3221225472	60	9629
2026-01-30 12:33:23.35	344.27	52.46	-47.3	-47.9	23.4	0.00e+00	0	45	0	3250585600	60	9763
2026-01-30 12:33:27.38	343.76	51.08	-47.2	-47.9	23.8	0.00e+00	0	45	0	3278897152	60	9710
2026-01-30 12:33:31.40	343.29	49.73	-47.2	-47.8	23.8	0.00e+00	0	45	0	3308257280	60	9627
2026-01-30 12:33:35.42	342.87	48.42	-47.3	-48.0	23.7	0.00e+00	0	45	0	3337617408	60	9835
2026-01-30 12:33:39.45	342.47	47.15	-46.5	-47.2	24.3	0.00e+00	0	45	0	3366977536	60	8955
2026-01-30 12:33:43.45	342.12	45.92	-46.2	-46.8	25.1	0.00e+00	0	45	0	3395289088	60	8584
2026-01-30 12:33:47.47	341.78	44.72	-45.7	-46.3	25.2	0.00e+00	0	45	0	3424649216	60	8094
2026-01-30 12:33:51.51	341.48	43.55	-45.8	-46.4	24.9	0.00e+00	0	46	0	3454009344	60	8189
2026-01-30 12:33:55.54	341.19	42.41	-45.6	-46.2	25.2	0.00e+00	0	45	0	3482320896	60	8029
2026-01-30 12:33:59.57	340.93	41.31	-45.9	-46.5	24.7	0.00e+00	0	45	0	3511681024	60	8325
2026-01-30 12:34:03.59	340.68	40.24	-46.2	-46.8	24.1	0.00e+00	0	46	0	3541041152	60	8605
2026-01-30 12:34:07.62	340.45	39.20	-46.4	-47.1	24.0	0.00e+00	0	45	0	3570401280	60	8828
2026-01-30 12:34:11.64	340.24	38.19	-46.4	-47.1	24.0	0.00e+00	0	45	0	3598712832	60	8826
2026-01-30 12:34:15.66	340.03	37.22	-46.3	-46.9	24.3	0.00e+00	0	45	0	3628072960	60	8664
2026-01-30 12:34:19.68	339.85	36.26	-45.6	-46.2	25.1	0.00e+00	0	45	0	3656384512	60	8014
2026-01-30 12:34:23.70	339.67	35.34	-45.5	-46.1	25.3	0.00e+00	0	45	0	3686793216	60	7929
2026-01-30 12:34:27.72	339.50	34.44	-45.5	-46.1	25.3	0.00e+00	0	45	0	3715104768	60	7949
2026-01-30 12:34:31.75	339.34	33.57	-45.4	-46.1	25.3	0.00e+00	0	45	0	3744464896	60	7903
2026-01-30 12:34:35.78	339.20	32.72	-45.6	-46.2	25.4	0.00e+00	0	45	0	3772776448	60	8005
2026-01-30 12:34:39.80	339.06	31.89	-45.7	-46.3	25.3	0.00e+00	0	45	0	3802136576	60	8127
2026-01-30 12:34:43.83	338.92	31.09	-46.1	-46.7	24.9	0.00e+00	0	45	0	3831496704	60	8443
2026-01-30 12:34:47.85	338.80	30.31	-46.0	-46.6	24.9	0.00e+00	0	45	0	3859808256	60	8419
2026-01-30 12:34:51.87	338.68	29.54	-46.2	-46.8	24.5	0.00e+00	0	45	0	3889168384	60	8541
2026-01-30 12:34:55.90	338.57	28.80	-46.1	-46.8	24.6	0.00e+00	0	45	0	3918528512	60	8535
2026-01-30 12:34:59.92	338.46	28.08	-45.9	-46.5	25.0	0.00e+00	0	45	0	3947888640	60	8266
2026-01-30 12:35:03.94	338.36	27.37	-46.1	-46.7	24.8	0.00e+00	0	45	0	3976200192	60	8478
2026-01-30 12:35:07.96	338.26	26.69	-46.2	-46.8	24.7	0.00e+00	0	45	0	4005560320	60	8585
2026-01-30 12:35:11.99	338.17	26.02	-46.3	-46.9	24.7	0.00e+00	0	45	0	4034920448	60	8660
2026-01-30 12:35:16.02	338.08	25.36	-46.3	-46.9	24.6	0.00e+00	0	46	0	4064280576	60	8711
2026-01-30 12:35:20.04	338.00	24.72	-46.2	-46.9	24.8	0.00e+00	0	45	0	4092592128	60	8626
2026-01-30 12:35:24.07	337.92	24.10	-46.2	-46.9	24.8	0.00e+00	0	45	0	4121952256	60	8637
2026-01-30 12:35:28.10	337.85	23.49	-46.2	-46.8	24.8	0.00e+00	0	45	0	4151312384	60	8574
2026-01-30 12:35:32.12	337.77	22.90	-46.2	-46.8	24.8	0.00e+00	0	46	0	4179623936	60	8606
2026-01-30 12:35:36.16	337.71	22.31	-46.2	-46.9	24.6	0.00e+00	0	46	0	4208984064	60	8704
2026-01-30 12:35:40.19	337.64	21.74	-46.4	-47.0	24.4	0.00e+00	0	46	0	4237295616	60	8799
2026-01-30 12:35:44.21	337.58	21.19	-46.7	-47.4	24.2	0.00e+00	0	46	0	4267704320	60	9148
2026-01-30 12:35:48.24	337.52	20.64	-46.5	-47.2	24.3	0.00e+00	0	45	0	4296015872	60	8957
2026-01-30 12:35:52.27	337.46	20.11	-46.5	-47.3	24.3	0.00e+00	0	46	0	4325376000	60	9057
2026-01-30 12:35:56.30	337.40	19.59	-46.7	-47.4	24.1	0.00e+00	0	45	0	4354736128	60	9182
2026-01-30 12:36:00.33	337.35	19.08	-46.8	-47.5	24.0	0.00e+00	0	45	0	4384096256	60	9296
2026-01-30 12:36:04.36	337.30	18.58	-46.8	-47.5	23.9	0.00e+00	0	45	0	4412407808	60	9264
2026-01-30 12:36:08.37	337.25	18.09	-47.1	-47.7	23.5	0.00e+00	0	46	0	4441767936	60	9557
2026-01-30 12:36:12.40	337.21	17.61	-47.1	-47.9	23.4	0.00e+00	0	46	0	4471128064	60	9756
2026-01-30 12:36:16.43	337.16	17.14	-47.4	-48.2	23.0	0.00e+00	0	45	0	4499439616	60	10115
2026-01-30 12:36:20.46	337.12	16.67	-47.8	-48.7	22.4	0.00e+00	0	45	0	4528799744	60	10702
2026-01-30 12:36:24.47	337.08	16.22	-48.4	-49.3	21.4	0.00e+00	0	45	0	4557111296	60	11471
2026-01-30 12:36:28.50	337.04	15.77	-48.9	-49.9	20.8	0.00e+00	0	45	0	4587520000	60	12284
2026-01-30 12:36:32.53	337.01	15.34	-49.6	-50.6	20.0	0.00e+00	0	45	0	4615831552	60	13293
2026-01-30 12:36:36.55	336.97	14.91	-50.3	-51.3	19.2	0.00e+00	0	45	0	4645191680	60	14464
2026-01-30 12:36:40.58	336.94	14.48	-50.9	-52.1	18.3	0.00e+00	0	45	0	4673503232	60	15765
2026-01-30 12:36:44.60	336.90	14.07	-51.5	-53.0	17.3	0.00e+00	0	46	0	4702863360	60	17404
2026-01-30 12:36:48.63	336.87	13.66	-52.1	-53.9	16.3	0.00e+00	0	45	0	4732223488	60	19303
2026-01-30 12:36:52.66	336.84	13.26	-52.6	-54.9	15.1	0.00e+00	0	45	0	4761583616	60	21842
2026-01-30 12:36:56.69	336.81	12.86	-53.4	-56.0	13.9	3.40e-06	0	46	0	4790943744	60	24739
2026-01-30 12:37:00.72	336.78	12.47	-54.2	-57.1	12.5	8.23e-05	0	46	0	4819255296	60	28150
2026-01-30 12:37:04.74	336.76	12.09	-54.8	-58.4	11.1	1.22e-03	0	45	0	4848615424	60	32739
2026-01-30 12:37:08.77	336.73	11.71	-55.1	-59.5	9.8	9.16e-03	0	46	0	4876926976	60	36841
2026-01-30 12:37:12.80	336.71	11.34	-55.8	-60.6	8.4	4.17e-02	0	46	0	4907335680	60	41824
2026-01-30 12:37:16.83	336.69	10.98	-56.4	-61.8	7.0	1.43e-01	0	46	0	4935647232	60	48274
2026-01-30 12:37:20.86	336.66	10.62	-56.2	-62.6	6.1	2.93e-01	0	46	0	4965007360	60	53110
2026-01-30 12:37:24.88	336.64	10.26	-53.4	-64.3	4.6	7.82e-01	0	46	0	4971298816	60	64560
2026-01-30 12:37:28.91	336.62	9.91	-52.8	-65.5	4.0	8.25e-01	0	46	0	4972347392	60	74113
2026-01-30 12:37:32.93	336.60	9.57	-53.8	-69.4	3.6	8.43e-01	0	46	104	4972347392	60	114988
2026-01-30 12:37:36.95	336.58	9.23	-53.0	-69.1	3.7	8.44e-01	0	46	104	4972347392	60	111968
2026-01-30 12:37:40.98	336.57	8.89	-54.9	-70.6	3.6	8.45e-01	0	46	104	4972347392	60	133219
2026-01-30 12:37:44.99	336.55	8.56	-54.7	-70.3	3.6	8.45e-01	0	46	104	4972347392	60	128834
2026-01-30 12:37:49.03	336.53	8.23	-54.7	-71.0	3.6	8.45e-01	0	46	104	4972347392	60	138286
2026-01-30 12:37:53.05	336.52	7.91	-55.0	-70.8	3.6	8.45e-01	0	46	104	4972347392	60	135705
2026-01-30 12:37:57.05	336.50	7.59	-55.0	-70.9	3.6	8.45e-01	0	46	104	4972347392	60	138094
2026-01-30 12:38:01.07	336.49	7.28	-54.8	-70.9	3.6	8.46e-01	0	46	104	4972347392	60	137435
2026-01-30 12:38:05.08	336.48	6.97	-54.3	-70.8	3.6	8.45e-01	0	46	104	4972347392	60	135959
2026-01-30 12:38:09.11	336.46	6.66	-54.3	-70.8	3.6	8.45e-01	0	46	104	4972347392	60	136178
2026-01-30 12:38:13.14	336.45	6.36	-54.6	-70.7	3.6	8.46e-01	0	45	104	4972347392	60	133869
2026-01-30 12:38:17.16	336.44	6.06	-55.1	-70.7	3.6	8.45e-01	0	46	104	4972347392	60	133767
2026-01-30 12:38:21.19	336.43	5.76	-58.3	-71.5	3.6	8.44e-01	0	46	104	4972347392	60	146562
2026-01-30 12:38:25.22	336.42	5.47	-59.3	-73.0	3.6	8.45e-01	0	46	104	4972347392	60	175448
2026-01-30 12:38:29.25	336.41	5.18	-59.6	-72.7	3.6	8.45e-01	0	46	104	4972347392	60	169815
2026-01-30 12:38:33.28	336.40	4.89	-59.5	-72.2	3.6	8.45e-01	0	46	104	4972347392	60	159286
2026-01-30 12:38:37.31	336.39	4.61	-60.6	-73.6	3.6	8.44e-01	0	46	104	4972347392	60	188108
2026-01-30 12:38:41.34	336.38	4.33	-60.6	-73.5	3.6	8.45e-01	0	46	104	4972347392	60	186372
2026-01-30 12:38:45.37	336.37	4.05	-60.5	-73.6	3.6	8.46e-01	0	46	104	4972347392	60	187608
2026-01-30 12:38:49.40	336.37	3.77	-60.3	-73.4	3.6	8.46e-01	0	46	104	4972347392	60	183161
2026-01-30 12:38:53.43	336.36	3.50	-60.9	-74.5	3.6	8.45e-01	0	46	104	4972347392	60	207042
2026-01-30 12:38:57.45	336.35	3.23	-59.1	-74.7	3.6	8.46e-01	0	46	104	4972347392	60	211649
2026-01-30 12:39:01.47	336.35	2.96	-59.6	-74.4	3.6	8.45e-01	0	46	104	4972347392	60	206358
2026-01-30 12:39:05.51	336.34	2.70	-59.9	-74.4	3.6	8.46e-01	0	46	104	4972347392	60	206419
2026-01-30 12:39:09.52	336.34	2.44	-60.0	-74.4	3.6	8.45e-01	0	46	104	4972347392	60	204704
2026-01-30 12:39:13.55	336.33	2.18	-60.0	-74.4	3.6	8.44e-01	0	46	104	4972347392	60	205769
2026-01-30 12:39:17.59	336.33	1.92	-59.9	-74.4	3.6	8.46e-01	0	46	104	4972347392	60	204781
2026-01-30 12:39:21.62	336.32	1.66	-59.9	-74.4	3.6	8.45e-01	0	46	104	4972347392	60	205392
2026-01-30 12:39:25.64	336.32	1.41	-59.9	-74.4	3.6	8.45e-01	0	46	104	4972347392	60	204669
2026-01-30 12:39:29.67	336.32	1.16	-59.8	-74.4	3.5	8.45e-01	0	46	104	4972347392	60	204585
2026-01-30 12:39:33.69	336.31	0.91	-59.9	-74.4	3.6	8.46e-01	0	46	104	4972347392	60	204469
2026-01-30 12:39:37.71	336.31	0.66	-59.9	-74.2	3.6	8.45e-01	0	46	104	4972347392	60	201763
2026-01-30 12:39:41.73	336.31	0.42	-59.8	-74.4	3.6	8.45e-01	0	46	104	4972347392	60	205455
2026-01-30 12:39:45.76	336.31	0.18	-59.8	-74.3	3.6	8.46e-01	0	46	104	4972347392	60	204017

#Closed at: 2026-01-30 12:39:49
#Recorded file [4972 MB]: D:/Data/35015_260130_153737.dat