passes_logs/2026/01/30/R3.2S-Naryan-Mar/R3.2S-Naryan-Mar__20260130_073553_NOAA_21_JPSS-2_rec.log

#Pass ID: 20260130_073553_NOAA 21 (JPSS-2)
#Satellite: NOAA 21 (JPSS-2)
#Configuration: NOAA-21
#almurnet v.1.7.20240730
#Start time: 2026-01-30 07:35:55

#Version: 2.2.20231116
#Station: R3.2S-Naryan-Mar
#Location: 53.008057 lon 67.646978 lat
#TLE: 1 54234U 22150A   26029.46216196  .00000141  00000+0  87503-4 0  9994
#TLE: 2 54234  98.7512 330.1880 0000955 196.3413 163.7732 14.19540905166865

#Time	Az	El	Level	Level2	SNR	BER	BlckErr	Temp	State	Recorded	gain1	gain2
2026-01-30 07:35:55.61	136.73	0.15	-62.5	-75.4	3.3	1.54e+00	0	44	0	0	60	223413
2026-01-30 07:35:59.64	136.67	0.39	-62.4	-76.7	3.5	1.52e+00	0	44	104	0	60	261126
2026-01-30 07:36:03.67	136.61	0.64	-62.6	-76.7	3.5	1.52e+00	0	44	104	0	60	261521
2026-01-30 07:36:07.70	136.55	0.88	-63.0	-77.0	3.5	1.52e+00	0	44	104	0	60	270313
2026-01-30 07:36:11.73	136.49	1.13	-62.7	-76.6	3.5	1.52e+00	0	44	104	0	60	257039
2026-01-30 07:36:15.76	136.43	1.38	-62.4	-76.3	3.5	1.52e+00	0	44	104	0	60	248639
2026-01-30 07:36:19.79	136.37	1.64	-61.9	-75.9	3.5	1.52e+00	0	44	104	0	60	237221
2026-01-30 07:36:23.82	136.31	1.89	-61.2	-75.1	3.5	1.52e+00	0	44	104	0	60	217541
2026-01-30 07:36:27.86	136.24	2.15	-60.2	-74.3	3.5	1.52e+00	0	44	104	0	60	198137
2026-01-30 07:36:31.89	136.17	2.41	-59.2	-73.4	3.5	1.52e+00	0	44	104	0	60	178407
2026-01-30 07:36:35.92	136.11	2.67	-59.2	-73.4	3.5	1.51e+00	0	45	104	0	60	177452
2026-01-30 07:36:39.95	136.04	2.93	-59.1	-73.2	3.5	1.52e+00	0	45	104	0	60	174075
2026-01-30 07:36:43.99	135.97	3.20	-59.1	-73.2	3.5	1.52e+00	0	45	104	0	60	174103
2026-01-30 07:36:48.02	135.89	3.47	-59.0	-73.2	3.5	1.52e+00	0	45	104	0	60	174891
2026-01-30 07:36:52.05	135.82	3.74	-59.0	-73.1	3.5	1.52e+00	0	45	104	0	60	172788
2026-01-30 07:36:56.08	135.74	4.02	-58.9	-72.6	3.5	1.51e+00	0	45	104	0	60	162371
2026-01-30 07:37:00.11	135.67	4.29	-58.8	-71.7	3.5	1.51e+00	0	45	104	0	60	146838
2026-01-30 07:37:04.15	135.59	4.57	-58.8	-70.9	3.8	1.50e+00	0	45	104	0	60	133124
2026-01-30 07:37:08.18	135.51	4.86	-57.8	-64.0	7.6	1.31e-01	0	45	0	3145728	60	60480
2026-01-30 07:37:12.21	135.42	5.14	-55.5	-58.6	13.8	2.59e-05	0	45	0	15728640	60	32427
2026-01-30 07:37:16.23	135.34	5.43	-53.5	-55.7	16.6	0.00e+00	0	45	0	28311552	60	23161
2026-01-30 07:37:20.26	135.25	5.72	-53.3	-55.5	16.8	0.00e+00	0	45	0	40894464	60	22618
2026-01-30 07:37:24.29	135.16	6.02	-55.1	-58.0	14.1	7.00e-07	0	45	0	53477376	60	30245
2026-01-30 07:37:28.33	135.07	6.32	-58.6	-70.6	3.6	1.29e+00	0	45	104	65011712	60	128327
2026-01-30 07:37:32.36	134.98	6.62	-52.7	-54.6	17.8	0.00e+00	0	45	0	9437184	60	20506
2026-01-30 07:37:36.39	134.89	6.92	-52.6	-54.4	18.1	0.00e+00	0	45	0	22020096	60	19901
2026-01-30 07:37:40.41	134.79	7.23	-52.4	-54.2	18.4	0.00e+00	0	45	0	34603008	60	19450
2026-01-30 07:37:44.44	134.69	7.55	-52.4	-54.2	18.5	0.00e+00	0	45	0	47185920	60	19466
2026-01-30 07:37:48.47	134.59	7.86	-52.2	-53.9	18.7	0.00e+00	0	45	0	59768832	60	18893
2026-01-30 07:37:52.50	134.48	8.18	-52.1	-53.8	18.8	0.00e+00	0	45	0	72351744	60	18643
2026-01-30 07:37:56.54	134.38	8.51	-51.9	-53.6	19.2	0.00e+00	0	45	0	85983232	60	18126
2026-01-30 07:38:00.57	134.27	8.84	-51.8	-53.4	19.3	0.00e+00	0	45	0	97517568	60	17732
2026-01-30 07:38:04.60	134.15	9.17	-51.7	-53.3	19.5	0.00e+00	0	45	0	110100480	60	17597
2026-01-30 07:38:08.63	134.04	9.51	-51.6	-53.1	19.7	0.00e+00	0	45	0	123731968	60	17156
2026-01-30 07:38:12.67	133.92	9.85	-51.5	-53.0	19.9	0.00e+00	0	45	0	136314880	60	16969
2026-01-30 07:38:16.68	133.80	10.19	-51.2	-52.7	20.2	0.00e+00	0	45	0	147849216	60	16331
2026-01-30 07:38:20.67	133.67	10.54	-51.1	-52.6	20.3	0.00e+00	0	45	0	160432128	60	16146
2026-01-30 07:38:24.67	133.55	10.89	-51.0	-52.4	20.4	0.00e+00	0	45	0	173015040	60	15917
2026-01-30 07:38:28.67	133.41	11.25	-51.1	-52.4	20.4	0.00e+00	0	45	0	185597952	60	15921
2026-01-30 07:38:32.68	133.28	11.62	-51.1	-52.5	20.5	0.00e+00	0	45	0	198180864	60	15965
2026-01-30 07:38:36.68	133.14	11.99	-50.8	-52.1	20.8	0.00e+00	0	45	0	210763776	60	15387
2026-01-30 07:38:40.70	133.00	12.36	-50.8	-52.2	20.8	0.00e+00	0	45	0	223346688	60	15473
2026-01-30 07:38:44.73	132.85	12.74	-50.8	-52.2	20.7	0.00e+00	0	45	0	235929600	60	15516
2026-01-30 07:38:48.75	132.70	13.13	-50.7	-52.0	20.9	0.00e+00	0	45	0	248512512	60	15169
2026-01-30 07:38:52.78	132.54	13.53	-50.8	-52.1	20.8	0.00e+00	0	45	0	261095424	60	15387
2026-01-30 07:38:56.82	132.38	13.93	-50.7	-52.0	20.9	0.00e+00	0	45	0	273678336	60	15210
2026-01-30 07:39:00.85	132.22	14.34	-50.8	-52.1	20.8	0.00e+00	0	45	0	286261248	60	15313
2026-01-30 07:39:04.88	132.05	14.75	-50.7	-52.0	20.9	0.00e+00	0	45	0	298844160	60	15178
2026-01-30 07:39:08.92	131.87	15.17	-50.7	-52.0	20.9	0.00e+00	0	45	0	311427072	60	15173
2026-01-30 07:39:12.95	131.69	15.60	-50.8	-52.1	21.0	0.00e+00	0	45	0	324009984	60	15362
2026-01-30 07:39:16.99	131.51	16.04	-50.7	-52.1	21.0	0.00e+00	0	45	0	336592896	60	15269
2026-01-30 07:39:21.02	131.31	16.48	-50.9	-52.2	20.9	0.00e+00	0	45	0	349175808	60	15528
2026-01-30 07:39:25.05	131.11	16.93	-51.2	-52.6	20.6	0.00e+00	0	45	0	361758720	60	16256
2026-01-30 07:39:29.08	130.91	17.39	-51.0	-52.4	20.7	0.00e+00	0	45	0	374341632	60	15810
2026-01-30 07:39:33.12	130.70	17.86	-51.0	-52.3	20.8	0.00e+00	0	45	0	386924544	60	15732
2026-01-30 07:39:37.14	130.48	18.33	-51.1	-52.4	20.8	0.00e+00	0	45	0	399507456	60	15938
2026-01-30 07:39:41.18	130.25	18.82	-50.9	-52.2	21.0	0.00e+00	0	45	0	412090368	60	15527
2026-01-30 07:39:45.21	130.02	19.31	-50.8	-52.1	21.1	0.00e+00	0	45	0	424673280	60	15296
2026-01-30 07:39:49.24	129.78	19.81	-50.7	-52.0	21.2	0.00e+00	0	45	0	437256192	60	15113
2026-01-30 07:39:53.27	129.53	20.32	-50.8	-52.1	21.2	0.00e+00	0	45	0	449839104	60	15255
2026-01-30 07:39:57.30	129.27	20.85	-50.5	-51.8	21.4	0.00e+00	0	45	0	462422016	60	14806
2026-01-30 07:40:01.33	129.00	21.38	-50.2	-51.4	21.7	0.00e+00	0	45	0	475004928	60	14179
2026-01-30 07:40:05.36	128.72	21.92	-49.9	-51.1	22.0	0.00e+00	0	45	0	487587840	60	13655
2026-01-30 07:40:09.40	128.43	22.48	-49.6	-50.8	22.2	0.00e+00	0	45	0	500170752	60	13208
2026-01-30 07:40:13.42	128.13	23.05	-49.6	-50.7	22.3	0.00e+00	0	45	0	512753664	60	13076
2026-01-30 07:40:17.45	127.81	23.62	-49.6	-50.8	22.2	0.00e+00	0	45	0	525336576	60	13176
2026-01-30 07:40:21.48	127.49	24.21	-49.8	-51.0	22.0	0.00e+00	0	45	0	537919488	60	13542
2026-01-30 07:40:25.51	127.15	24.82	-49.8	-51.0	22.1	0.00e+00	0	45	0	550502400	60	13543
2026-01-30 07:40:29.54	126.80	25.43	-50.1	-51.4	21.9	0.00e+00	0	45	0	564133888	60	14095
2026-01-30 07:40:33.57	126.43	26.06	-50.3	-51.6	21.7	0.00e+00	0	45	0	575668224	60	14382
2026-01-30 07:40:37.60	126.05	26.70	-50.7	-51.9	21.3	0.00e+00	0	46	0	588251136	60	15038
2026-01-30 07:40:41.63	125.65	27.36	-50.9	-52.2	21.1	0.00e+00	0	45	0	601882624	60	15566
2026-01-30 07:40:45.66	125.24	28.03	-51.0	-52.3	21.1	0.00e+00	0	45	0	614465536	60	15718
2026-01-30 07:40:49.68	124.81	28.72	-51.0	-52.3	21.2	0.00e+00	0	45	0	625999872	60	15645
2026-01-30 07:40:53.70	124.35	29.41	-50.8	-52.0	21.4	0.00e+00	0	45	0	638582784	60	15231
2026-01-30 07:40:57.73	123.88	30.13	-50.4	-51.6	21.9	0.00e+00	0	45	0	652214272	60	14414
2026-01-30 07:41:01.76	123.38	30.86	-50.2	-51.4	21.9	0.00e+00	0	45	0	663748608	60	14198
2026-01-30 07:41:05.79	122.86	31.61	-50.7	-52.0	21.5	0.00e+00	0	45	0	676331520	60	15083
2026-01-30 07:41:09.82	122.31	32.38	-50.8	-52.1	21.5	0.00e+00	0	45	0	688914432	60	15304
2026-01-30 07:41:13.85	121.74	33.16	-50.6	-51.9	21.7	0.00e+00	0	45	0	702545920	60	14920
2026-01-30 07:41:17.87	121.14	33.96	-51.0	-52.3	21.2	0.00e+00	0	45	0	714080256	60	15765
2026-01-30 07:41:21.90	120.51	34.77	-51.7	-53.1	20.7	0.00e+00	0	45	0	726663168	60	17214
2026-01-30 07:41:25.93	119.84	35.60	-52.6	-54.1	19.7	0.00e+00	0	45	0	740294656	60	19249
2026-01-30 07:41:29.97	119.14	36.46	-52.7	-54.2	19.7	0.00e+00	0	45	0	752877568	60	19592
2026-01-30 07:41:34.00	118.39	37.33	-52.7	-54.2	19.7	0.00e+00	0	45	0	764411904	60	19485
2026-01-30 07:41:38.03	117.61	38.21	-52.9	-54.4	19.5	0.00e+00	0	45	0	778043392	60	20040
2026-01-30 07:41:42.07	116.78	39.12	-52.7	-54.2	19.9	0.00e+00	0	45	0	790626304	60	19587
2026-01-30 07:41:46.10	115.91	40.04	-52.7	-54.2	20.0	0.00e+00	0	45	0	803209216	60	19491
2026-01-30 07:41:50.13	114.98	40.97	-52.5	-53.9	20.0	0.00e+00	0	45	0	814743552	60	18796
2026-01-30 07:41:54.16	113.99	41.92	-53.6	-55.2	18.9	0.00e+00	0	45	0	828375040	60	21983
2026-01-30 07:41:58.19	112.95	42.89	-54.0	-55.7	18.5	0.00e+00	0	45	0	840957952	60	23151
2026-01-30 07:42:02.22	111.83	43.87	-54.1	-55.8	18.5	0.00e+00	0	45	0	853540864	60	23366
2026-01-30 07:42:06.25	110.65	44.86	-54.0	-55.6	18.9	0.00e+00	0	45	0	866123776	60	22958
2026-01-30 07:42:10.27	109.39	45.85	-53.5	-55.0	19.5	0.00e+00	0	45	0	878706688	60	21394
2026-01-30 07:42:14.31	108.05	46.87	-53.4	-55.0	19.5	0.00e+00	0	45	0	891289600	60	21296
2026-01-30 07:42:18.34	106.61	47.88	-53.2	-54.8	19.6	0.00e+00	0	45	0	903872512	60	20830
2026-01-30 07:42:22.37	105.08	48.90	-53.1	-54.5	20.0	0.00e+00	0	45	0	916455424	60	20231
2026-01-30 07:42:26.40	103.44	49.92	-52.9	-54.3	20.1	0.00e+00	0	45	0	929038336	60	19767
2026-01-30 07:42:30.42	101.69	50.93	-52.9	-54.3	20.1	0.00e+00	0	45	0	941621248	60	19670
2026-01-30 07:42:34.46	99.82	51.94	-53.1	-54.6	20.0	0.00e+00	0	45	0	954204160	60	20338
2026-01-30 07:42:38.49	97.81	52.93	-52.8	-54.2	20.5	0.00e+00	0	45	0	966787072	60	19464
2026-01-30 07:42:42.52	95.67	53.90	-52.1	-53.5	20.9	0.00e+00	0	45	0	979369984	60	17951
2026-01-30 07:42:46.55	93.37	54.84	-51.9	-53.2	21.4	0.00e+00	0	45	0	991952896	60	17292
2026-01-30 07:42:50.59	90.92	55.76	-52.7	-54.1	20.4	0.00e+00	0	45	0	1004535808	60	19298
2026-01-30 07:42:54.62	88.31	56.63	-51.6	-52.9	21.7	0.00e+00	0	45	0	1017118720	60	16720
2026-01-30 07:42:58.65	85.53	57.46	-51.2	-52.5	21.8	0.00e+00	0	45	0	1029701632	60	15954
2026-01-30 07:43:02.68	82.58	58.22	-51.5	-52.8	21.9	0.00e+00	0	45	0	1042284544	60	16589
2026-01-30 07:43:06.71	79.47	58.92	-50.8	-52.0	22.6	0.00e+00	0	45	0	1054867456	60	15175
2026-01-30 07:43:10.74	76.20	59.55	-50.5	-51.7	22.9	0.00e+00	0	45	0	1067450368	60	14639
2026-01-30 07:43:14.77	72.77	60.09	-50.5	-51.7	22.5	0.00e+00	0	45	0	1080033280	60	14558
2026-01-30 07:43:18.80	69.22	60.54	-51.0	-52.2	22.3	0.00e+00	0	45	0	1092616192	60	15529
2026-01-30 07:43:22.83	65.54	60.89	-51.4	-52.6	22.2	0.00e+00	0	45	0	1105199104	60	16256
2026-01-30 07:43:26.86	61.78	61.14	-50.8	-52.0	22.4	0.00e+00	0	45	0	1117782016	60	15158
2026-01-30 07:43:30.90	57.95	61.27	-50.3	-51.5	22.7	0.00e+00	0	45	0	1130364928	60	14256
2026-01-30 07:43:34.93	54.11	61.29	-50.6	-51.7	22.8	0.00e+00	0	45	0	1142947840	60	14666
2026-01-30 07:43:38.96	50.28	61.21	-51.1	-52.2	22.5	0.00e+00	0	45	0	1155530752	60	15584
2026-01-30 07:43:42.98	46.50	61.01	-52.0	-53.2	21.6	0.00e+00	0	45	0	1168113664	60	17485
2026-01-30 07:43:47.00	42.80	60.70	-51.6	-52.9	21.8	0.00e+00	0	45	0	1180696576	60	16730
2026-01-30 07:43:51.03	39.20	60.29	-51.0	-52.2	22.3	0.00e+00	0	45	0	1193279488	60	15506
2026-01-30 07:43:55.05	35.73	59.79	-51.7	-52.9	21.8	0.00e+00	0	45	0	1205862400	60	16891
2026-01-30 07:43:59.06	32.41	59.20	-51.7	-53.0	21.4	0.00e+00	0	45	0	1218445312	60	16905
2026-01-30 07:44:03.08	29.24	58.53	-52.5	-53.9	20.9	0.00e+00	0	45	0	1231028224	60	18841
2026-01-30 07:44:07.11	26.22	57.79	-51.5	-52.7	22.1	0.00e+00	0	45	0	1243611136	60	16357
2026-01-30 07:44:11.15	23.37	56.99	-52.3	-53.7	20.6	0.00e+00	0	45	0	1256194048	60	18412
2026-01-30 07:44:15.17	20.70	56.14	-52.4	-53.7	21.1	0.00e+00	0	46	0	1268776960	60	18369
2026-01-30 07:44:19.19	18.19	55.25	-52.6	-53.9	20.9	0.00e+00	0	45	0	1281359872	60	18914
2026-01-30 07:44:23.22	15.84	54.32	-53.6	-55.1	19.9	0.00e+00	0	45	0	1293942784	60	21543
2026-01-30 07:44:27.25	13.63	53.36	-51.7	-53.0	21.7	0.00e+00	0	45	0	1306525696	60	16959
2026-01-30 07:44:31.27	11.58	52.38	-54.3	-55.9	19.3	0.00e+00	0	45	0	1319108608	60	23795
2026-01-30 07:44:35.31	9.65	51.38	-51.5	-52.8	21.7	0.00e+00	0	45	0	1331691520	60	16520
2026-01-30 07:44:39.34	7.85	50.37	-55.2	-57.0	18.0	0.00e+00	0	45	0	1344274432	60	26980
2026-01-30 07:44:43.37	6.16	49.36	-53.7	-55.3	19.2	0.00e+00	0	45	0	1356857344	60	22116
2026-01-30 07:44:47.40	4.59	48.34	-54.3	-56.0	19.1	0.00e+00	0	45	0	1369440256	60	23884
2026-01-30 07:44:51.43	3.11	47.33	-53.0	-54.5	19.9	0.00e+00	0	45	0	1382023168	60	20195
2026-01-30 07:44:55.47	1.73	46.31	-54.2	-55.8	19.2	0.00e+00	0	45	0	1394606080	60	23367
2026-01-30 07:44:59.50	0.44	45.31	-56.5	-58.8	15.9	0.00e+00	0	45	0	1407188992	60	33290
2026-01-30 07:45:03.52	359.23	44.32	-54.1	-55.6	19.4	0.00e+00	0	45	0	1419771904	60	22956
2026-01-30 07:45:07.55	358.09	43.34	-54.9	-56.6	18.5	0.00e+00	0	45	0	1432354816	60	25796
2026-01-30 07:45:11.59	357.02	42.37	-55.1	-56.9	18.1	0.00e+00	0	45	0	1444937728	60	26643
2026-01-30 07:45:15.62	356.01	41.41	-53.1	-54.5	20.0	0.00e+00	0	45	0	1457520640	60	20251
2026-01-30 07:45:19.63	355.06	40.48	-53.1	-54.5	20.2	0.00e+00	0	45	0	1470103552	60	20289
2026-01-30 07:45:23.66	354.16	39.56	-53.5	-55.0	19.7	0.00e+00	0	45	0	1482686464	60	21422
2026-01-30 07:45:27.69	353.32	38.65	-53.4	-54.9	19.7	0.00e+00	0	45	0	1495269376	60	21167
2026-01-30 07:45:31.72	352.52	37.76	-53.0	-54.4	20.1	0.00e+00	0	45	0	1507852288	60	20027
2026-01-30 07:45:35.76	351.76	36.88	-52.6	-53.9	20.9	0.00e+00	0	45	0	1520435200	60	18793
2026-01-30 07:45:39.79	351.04	36.03	-53.0	-54.4	20.0	0.00e+00	0	45	0	1533018112	60	20068
2026-01-30 07:45:43.82	350.36	35.19	-52.5	-53.8	20.6	0.00e+00	0	46	0	1545601024	60	18735
2026-01-30 07:45:47.85	349.71	34.37	-52.6	-53.9	20.9	0.00e+00	0	46	0	1558183936	60	18895
2026-01-30 07:45:51.88	349.10	33.56	-52.2	-53.5	21.1	0.00e+00	0	45	0	1570766848	60	18093
2026-01-30 07:45:55.90	348.52	32.78	-51.6	-52.8	21.5	0.00e+00	0	45	0	1583349760	60	16665
2026-01-30 07:45:59.93	347.96	32.01	-51.7	-53.0	21.3	0.00e+00	0	45	0	1595932672	60	16997
2026-01-30 07:46:03.96	347.43	31.25	-51.6	-52.9	21.6	0.00e+00	0	45	0	1608515584	60	16720
2026-01-30 07:46:07.99	346.93	30.52	-51.6	-52.8	21.7	0.00e+00	0	45	0	1621098496	60	16641
2026-01-30 07:46:12.02	346.44	29.80	-52.2	-53.5	20.9	0.00e+00	0	45	0	1633681408	60	18078
2026-01-30 07:46:16.05	345.98	29.09	-52.1	-53.5	20.8	0.00e+00	0	46	0	1646264320	60	17906
2026-01-30 07:46:20.09	345.54	28.40	-51.7	-53.0	21.2	0.00e+00	0	46	0	1658847232	60	17038
2026-01-30 07:46:24.12	345.12	27.72	-51.4	-52.6	21.8	0.00e+00	0	45	0	1671430144	60	16252
2026-01-30 07:46:28.15	344.72	27.06	-50.9	-52.1	22.2	0.00e+00	0	45	0	1684013056	60	15386
2026-01-30 07:46:32.18	344.33	26.41	-51.1	-52.3	22.1	0.00e+00	0	46	0	1696595968	60	15626
2026-01-30 07:46:36.21	343.96	25.78	-51.1	-52.3	22.0	0.00e+00	0	46	0	1709178880	60	15762
2026-01-30 07:46:40.24	343.60	25.16	-50.8	-52.0	22.2	0.00e+00	0	46	0	1721761792	60	15059
2026-01-30 07:46:44.27	343.26	24.55	-50.8	-52.0	22.1	0.00e+00	0	46	0	1734344704	60	15089
2026-01-30 07:46:48.30	342.93	23.96	-51.0	-52.2	21.7	0.00e+00	0	46	0	1746927616	60	15468
2026-01-30 07:46:52.32	342.62	23.38	-51.2	-52.5	21.4	0.00e+00	0	46	0	1759510528	60	16048
2026-01-30 07:46:56.35	342.31	22.81	-51.0	-52.3	21.5	0.00e+00	0	46	0	1772093440	60	15670
2026-01-30 07:47:00.38	342.02	22.25	-51.1	-52.4	21.4	0.00e+00	0	46	0	1784676352	60	15890
2026-01-30 07:47:04.40	341.74	21.70	-51.2	-52.4	21.5	0.00e+00	0	46	0	1797259264	60	15886
2026-01-30 07:47:08.42	341.47	21.17	-51.0	-52.2	21.6	0.00e+00	0	46	0	1809842176	60	15569
2026-01-30 07:47:12.45	341.20	20.64	-51.0	-52.3	21.6	0.00e+00	0	46	0	1822425088	60	15646
2026-01-30 07:47:16.47	340.95	20.13	-50.8	-52.0	21.6	0.00e+00	0	46	0	1835008000	60	15201
2026-01-30 07:47:20.49	340.71	19.62	-51.0	-52.3	21.5	0.00e+00	0	46	0	1847590912	60	15598
2026-01-30 07:47:24.51	340.47	19.13	-51.1	-52.4	21.3	0.00e+00	0	45	0	1860173824	60	15811
2026-01-30 07:47:28.54	340.25	18.64	-51.4	-52.7	21.0	0.00e+00	0	46	0	1872756736	60	16445
2026-01-30 07:47:32.58	340.03	18.16	-51.4	-52.7	21.0	0.00e+00	0	46	0	1885339648	60	16405
2026-01-30 07:47:36.61	339.81	17.69	-51.6	-52.9	20.7	0.00e+00	0	45	0	1897922560	60	16879
2026-01-30 07:47:40.64	339.61	17.23	-51.7	-53.1	20.5	0.00e+00	0	46	0	1910505472	60	17142
2026-01-30 07:47:44.68	339.41	16.78	-51.9	-53.4	20.2	0.00e+00	0	46	0	1923088384	60	17716
2026-01-30 07:47:48.71	339.21	16.33	-52.5	-54.0	19.4	0.00e+00	0	46	0	1935671296	60	19132
2026-01-30 07:47:52.74	339.03	15.89	-52.8	-54.4	18.7	0.00e+00	0	45	0	1948254208	60	20077
2026-01-30 07:47:56.77	338.85	15.46	-53.1	-54.9	18.1	0.00e+00	0	46	0	1960837120	60	21059
2026-01-30 07:48:00.80	338.67	15.04	-53.4	-55.3	17.4	0.00e+00	0	46	0	1973420032	60	22247
2026-01-30 07:48:04.82	338.50	14.62	-53.8	-55.9	16.9	0.00e+00	0	46	0	1986002944	60	23656
2026-01-30 07:48:08.84	338.33	14.22	-54.4	-56.6	16.1	0.00e+00	0	46	0	1998585856	60	25707
2026-01-30 07:48:12.86	338.17	13.81	-54.8	-57.2	15.4	0.00e+00	0	46	0	2011168768	60	27472
2026-01-30 07:48:16.89	338.02	13.42	-55.2	-58.0	14.4	7.00e-07	0	45	0	2023751680	60	30080
2026-01-30 07:48:20.90	337.87	13.03	-55.7	-58.9	13.2	1.75e-05	0	46	0	2036334592	60	33475
2026-01-30 07:48:24.93	337.72	12.64	-56.3	-60.0	11.9	3.23e-04	0	46	0	2048917504	60	38137
2026-01-30 07:48:28.93	337.58	12.27	-56.8	-61.1	10.7	2.49e-03	0	46	0	2061500416	60	42959
2026-01-30 07:48:32.95	337.44	11.90	-57.3	-62.3	9.3	1.67e-02	0	46	0	2074083328	60	49695
2026-01-30 07:48:36.97	337.31	11.53	-57.7	-63.3	8.0	5.42e-02	0	46	0	2086666240	60	55322
2026-01-30 07:48:40.98	337.18	11.17	-57.9	-64.4	6.7	1.57e-01	0	45	0	2099249152	60	63261
2026-01-30 07:48:45.01	337.05	10.81	-58.2	-68.2	4.6	1.45e+00	0	46	104	2110783488	60	97550
2026-01-30 07:48:49.03	336.93	10.46	-58.1	-67.6	4.9	6.62e-01	0	46	104	2110783488	60	91200
2026-01-30 07:48:53.04	336.81	10.11	-58.3	-70.7	3.5	1.49e+00	0	46	104	2110783488	60	130004
2026-01-30 07:48:57.06	336.69	9.77	-58.3	-70.3	3.8	1.50e+00	0	46	104	2110783488	60	124819
2026-01-30 07:49:01.08	336.57	9.43	-58.7	-72.2	3.5	1.51e+00	0	46	104	2110783488	60	155422
2026-01-30 07:49:05.11	336.46	9.10	-58.4	-71.7	3.5	1.52e+00	0	46	104	2110783488	60	147149
2026-01-30 07:49:09.13	336.35	8.77	-58.8	-72.7	3.5	1.52e+00	0	46	104	2110783488	60	163285
2026-01-30 07:49:13.16	336.25	8.44	-58.8	-72.6	3.5	1.52e+00	0	45	104	2110783488	60	162008
2026-01-30 07:49:17.17	336.14	8.12	-58.7	-72.7	3.5	1.51e+00	0	46	104	2110783488	60	164494
2026-01-30 07:49:21.19	336.04	7.81	-58.7	-72.8	3.5	1.51e+00	0	46	104	2110783488	60	165721
2026-01-30 07:49:25.20	335.95	7.49	-58.7	-72.8	3.5	1.52e+00	0	46	104	2110783488	60	165414
2026-01-30 07:49:29.22	335.85	7.18	-58.7	-72.7	3.5	1.52e+00	0	46	104	2110783488	60	163989
2026-01-30 07:49:33.24	335.76	6.88	-58.6	-72.6	3.5	1.52e+00	0	46	104	2110783488	60	161773
2026-01-30 07:49:37.25	335.67	6.58	-58.5	-72.5	3.5	1.52e+00	0	46	104	2110783488	60	160965
2026-01-30 07:49:41.25	335.58	6.28	-58.4	-72.5	3.5	1.52e+00	0	46	104	2110783488	60	159729
2026-01-30 07:49:45.27	335.49	5.98	-58.4	-72.3	3.5	1.52e+00	0	46	104	2110783488	60	157633
2026-01-30 07:49:49.29	335.41	5.69	-59.4	-73.3	3.5	1.51e+00	0	46	104	2110783488	60	175549
2026-01-30 07:49:53.30	335.33	5.40	-61.0	-74.9	3.5	1.52e+00	0	46	104	2110783488	60	212641
2026-01-30 07:49:57.31	335.25	5.12	-61.5	-75.4	3.5	1.52e+00	0	46	104	2110783488	60	224403
2026-01-30 07:50:01.32	335.17	4.83	-61.9	-75.9	3.5	1.52e+00	0	46	104	2110783488	60	237199
2026-01-30 07:50:05.34	335.09	4.55	-62.1	-76.1	3.5	1.52e+00	0	46	104	2110783488	60	242787
2026-01-30 07:50:09.36	335.02	4.28	-62.1	-76.1	3.5	1.52e+00	0	46	104	2110783488	60	241548
2026-01-30 07:50:13.37	334.94	4.00	-62.3	-76.3	3.5	1.52e+00	0	46	104	2110783488	60	247153
2026-01-30 07:50:17.38	334.87	3.73	-62.5	-76.5	3.5	1.52e+00	0	46	104	2110783488	60	255582
2026-01-30 07:50:21.40	334.80	3.46	-62.7	-76.9	3.5	1.52e+00	0	46	104	2110783488	60	265767
2026-01-30 07:50:25.41	334.73	3.20	-62.9	-77.2	3.5	1.52e+00	0	46	104	2110783488	60	276292
2026-01-30 07:50:29.43	334.67	2.93	-63.1	-77.3	3.5	1.52e+00	0	46	104	2110783488	60	277871
2026-01-30 07:50:33.46	334.60	2.67	-63.1	-77.4	3.5	1.52e+00	0	46	104	2110783488	60	280983
2026-01-30 07:50:37.49	334.54	2.41	-63.1	-77.3	3.5	1.52e+00	0	46	104	2110783488	60	278943
2026-01-30 07:50:41.52	334.47	2.15	-63.1	-77.3	3.5	1.52e+00	0	46	104	2110783488	60	278805
2026-01-30 07:50:45.55	334.41	1.89	-63.0	-77.2	3.5	1.52e+00	0	46	104	2110783488	60	276252
2026-01-30 07:50:49.57	334.35	1.64	-63.0	-77.2	3.5	1.52e+00	0	46	104	2110783488	60	274192
2026-01-30 07:50:53.59	334.29	1.39	-63.0	-77.2	3.5	1.52e+00	0	46	104	2110783488	60	277116
2026-01-30 07:50:57.62	334.24	1.14	-63.0	-77.3	3.5	1.52e+00	0	46	104	2110783488	60	277788
2026-01-30 07:51:01.65	334.18	0.89	-63.0	-77.2	3.5	1.52e+00	0	46	104	2110783488	60	274167
2026-01-30 07:51:05.68	334.13	0.65	-63.0	-77.1	3.5	1.52e+00	0	46	104	2110783488	60	273569
2026-01-30 07:51:09.71	334.07	0.41	-63.0	-77.1	3.5	1.51e+00	0	46	104	2110783488	60	273526
2026-01-30 07:51:13.74	334.02	0.17	-62.9	-77.1	3.5	1.52e+00	0	46	104	2110783488	60	273546
2026-01-30 07:51:17.77	333.97	-0.07	-62.9	-77.1	3.5	1.51e+00	0	46	104	2110783488	60	272784

#Closed at: 2026-01-30 07:51:18
#Recorded file [2110 MB]: D:/Data/35015_260130_104849.dat