passes_logs/2026/01/30/R3.2S-Naryan-Mar/R3.2S-Naryan-Mar__20260130_044734_SUOMI_NPP_rec.log

#Pass ID: 20260130_044734_SUOMI NPP
#Satellite: SUOMI NPP
#Configuration: NPP
#almurnet v.1.7.20240730
#Start time: 2026-01-30 04:47:34

#Version: 2.2.20231116
#Station: R3.2S-Naryan-Mar
#Location: 53.008057 lon 67.646978 lat
#TLE: 1 37849U 11061A   26029.48304708  .00000140  00000+0  87283-4 0  9999
#TLE: 2 37849  98.7824 331.4079 0002024  38.4342 321.6978 14.19531488738761

#Time	Az	El	Level	Level2	SNR	BER	BlckErr	Temp	State	Recorded	gain1	gain2
2026-01-30 04:47:34.49	76.17	0.02	-60.9	-73.5	3.5	8.46e-01	0	43	0	0	60	184696
2026-01-30 04:47:38.51	75.94	0.23	-52.5	-73.4	3.6	1.51e+00	0	44	104	0	60	183943
2026-01-30 04:47:42.55	75.70	0.45	-54.3	-75.5	3.6	1.51e+00	0	44	104	0	60	234450
2026-01-30 04:47:46.57	75.45	0.67	-60.2	-78.8	3.6	1.51e+00	0	44	104	0	60	339367
2026-01-30 04:47:50.59	75.21	0.88	-56.0	-76.6	3.6	1.51e+00	0	45	104	0	60	265022
2026-01-30 04:47:54.62	74.95	1.10	-57.3	-76.7	3.6	1.51e+00	0	45	104	0	60	267096
2026-01-30 04:47:58.65	74.70	1.32	-56.4	-78.0	3.6	1.51e+00	0	45	104	0	60	311809
2026-01-30 04:48:02.67	74.44	1.55	-58.6	-77.9	3.6	1.51e+00	0	45	104	0	60	306598
2026-01-30 04:48:06.70	74.18	1.77	-57.2	-76.9	3.6	1.51e+00	0	45	104	0	60	274374
2026-01-30 04:48:10.73	73.91	1.99	-57.3	-77.0	3.6	1.51e+00	0	45	104	0	60	277576
2026-01-30 04:48:14.75	73.64	2.22	-57.3	-76.8	3.6	1.51e+00	0	45	104	0	60	271742
2026-01-30 04:48:18.77	73.36	2.44	-57.2	-76.9	3.6	1.51e+00	0	45	104	0	60	275268
2026-01-30 04:48:22.80	73.08	2.67	-57.0	-77.0	3.6	1.51e+00	0	45	104	0	60	276963
2026-01-30 04:48:26.83	72.79	2.90	-56.9	-76.8	3.6	1.51e+00	0	45	104	0	60	271875
2026-01-30 04:48:30.85	72.50	3.13	-57.1	-77.0	3.6	1.51e+00	0	45	104	0	60	278452
2026-01-30 04:48:34.88	72.21	3.36	-57.1	-76.9	3.6	1.51e+00	0	45	104	0	60	272956
2026-01-30 04:48:38.90	71.91	3.59	-57.0	-76.9	3.6	1.51e+00	0	45	104	0	60	274986
2026-01-30 04:48:42.93	71.60	3.83	-57.0	-76.7	3.6	1.51e+00	0	45	104	0	60	269137
2026-01-30 04:48:46.95	71.29	4.06	-57.1	-76.8	3.6	1.51e+00	0	45	104	0	60	271563
2026-01-30 04:48:50.98	70.98	4.30	-57.0	-76.6	3.6	1.51e+00	0	45	104	0	60	265902
2026-01-30 04:48:55.01	70.65	4.53	-57.4	-76.9	3.6	1.51e+00	0	45	104	0	60	274329
2026-01-30 04:48:59.04	70.33	4.77	-57.6	-76.6	3.6	1.51e+00	0	45	104	0	60	265934
2026-01-30 04:49:03.07	70.00	5.01	-57.8	-76.7	3.5	1.51e+00	0	45	104	0	60	266889
2026-01-30 04:49:07.10	69.66	5.25	-57.4	-75.9	3.6	1.51e+00	0	45	104	0	60	245703
2026-01-30 04:49:11.13	69.31	5.50	-57.3	-74.1	3.7	1.51e+00	0	45	104	0	60	199009
2026-01-30 04:49:15.16	68.96	5.74	-56.8	-64.6	11.1	6.45e-03	0	45	0	5242880	60	66222
2026-01-30 04:49:19.19	68.61	5.99	-55.9	-61.1	14.8	0.00e+00	0	45	0	12582912	60	44481
2026-01-30 04:49:23.22	68.25	6.23	-58.9	-68.2	7.9	4.95e-05	0	45	0	20971520	60	100715
2026-01-30 04:49:27.24	67.88	6.48	-57.0	-60.6	16.1	0.00e+00	0	45	0	28311552	60	41916
2026-01-30 04:49:31.27	67.50	6.73	-57.3	-60.9	15.8	0.00e+00	0	46	0	35651584	60	43699
2026-01-30 04:49:35.30	67.12	6.98	-57.1	-59.7	17.2	0.00e+00	0	45	0	42991616	60	37672
2026-01-30 04:49:39.33	66.73	7.23	-54.1	-59.6	15.3	0.00e+00	0	45	0	50331648	60	37328
2026-01-30 04:49:43.35	66.34	7.48	-57.1	-60.0	17.0	0.00e+00	0	45	0	58720256	60	39260
2026-01-30 04:49:47.38	65.94	7.73	-55.3	-60.2	15.6	0.00e+00	0	45	0	66060288	60	40241
2026-01-30 04:49:51.40	65.53	7.99	-57.0	-60.5	16.3	0.00e+00	0	45	0	73400320	60	41287
2026-01-30 04:49:55.42	65.11	8.24	-57.4	-61.1	16.0	0.00e+00	0	45	0	80740352	60	44665
2026-01-30 04:49:59.45	64.69	8.50	-55.0	-60.6	15.5	1.14e-05	0	46	0	88080384	60	41827
2026-01-30 04:50:03.48	64.25	8.76	-57.2	-60.1	17.0	0.00e+00	0	45	0	95420416	60	39612
2026-01-30 04:50:07.51	63.81	9.01	-56.8	-59.6	17.3	0.00e+00	0	45	0	103809024	60	37264
2026-01-30 04:50:11.54	63.36	9.27	-53.2	-59.3	14.4	3.80e-06	0	46	0	111149056	60	36025
2026-01-30 04:50:15.55	62.91	9.53	-54.9	-59.2	16.2	0.00e+00	0	45	0	118489088	60	35789
2026-01-30 04:50:19.58	62.44	9.80	-56.9	-59.8	17.1	0.00e+00	0	45	0	125829120	60	38490
2026-01-30 04:50:23.61	61.97	10.06	-57.0	-59.6	16.9	0.00e+00	0	45	0	134217728	60	37580
2026-01-30 04:50:27.64	61.49	10.32	-52.1	-58.9	14.8	7.00e-07	0	45	0	141557760	60	34389
2026-01-30 04:50:31.67	60.99	10.59	-56.3	-58.6	18.2	0.00e+00	0	45	0	148897792	60	33229
2026-01-30 04:50:35.69	60.49	10.85	-56.1	-58.3	18.4	0.00e+00	0	46	0	156237824	60	32287
2026-01-30 04:50:39.71	59.98	11.12	-55.6	-58.3	18.3	0.00e+00	0	45	0	163577856	60	32389
2026-01-30 04:50:43.74	59.46	11.38	-56.0	-58.5	18.3	0.00e+00	0	46	0	171966464	60	32888
2026-01-30 04:50:47.77	58.93	11.65	-55.3	-58.6	17.0	0.00e+00	0	45	0	179306496	60	33298
2026-01-30 04:50:51.77	58.40	11.91	-54.8	-58.4	17.1	0.00e+00	0	45	0	186646528	60	32637
2026-01-30 04:50:55.79	57.85	12.18	-54.4	-58.3	16.9	0.00e+00	0	45	0	193986560	60	32372
2026-01-30 04:50:59.82	57.29	12.45	-51.5	-58.2	15.6	0.00e+00	0	45	0	201326592	60	31781
2026-01-30 04:51:03.84	56.72	12.72	-54.0	-58.0	17.5	0.00e+00	0	45	0	208666624	60	31228
2026-01-30 04:51:07.86	56.14	12.98	-55.0	-57.7	18.0	0.00e+00	0	45	0	217055232	60	30154
2026-01-30 04:51:11.89	55.55	13.25	-55.2	-57.8	17.9	0.00e+00	0	45	0	224395264	60	30500
2026-01-30 04:51:15.91	54.95	13.52	-55.4	-58.1	17.6	0.00e+00	0	45	0	231735296	60	31663
2026-01-30 04:51:19.93	54.33	13.78	-56.0	-58.4	17.6	0.00e+00	0	45	0	239075328	60	32448
2026-01-30 04:51:23.96	53.71	14.05	-55.6	-57.9	18.0	0.00e+00	0	45	0	246415360	60	30885
2026-01-30 04:51:27.98	53.07	14.32	-55.2	-57.8	17.9	0.00e+00	0	46	0	254803968	60	30442
2026-01-30 04:51:32.00	52.43	14.58	-55.5	-58.1	17.6	0.00e+00	0	46	0	262144000	60	31392
2026-01-30 04:51:36.03	51.77	14.85	-54.9	-57.7	17.7	0.00e+00	0	46	0	269484032	60	30006
2026-01-30 04:51:40.06	51.09	15.11	-54.6	-57.7	17.4	0.00e+00	0	45	0	276824064	60	29921
2026-01-30 04:51:44.09	50.41	15.37	-54.7	-57.9	17.3	0.00e+00	0	45	0	284164096	60	30603
2026-01-30 04:51:48.12	49.71	15.63	-53.9	-58.1	16.6	0.00e+00	0	45	0	292552704	60	31483
2026-01-30 04:51:52.15	49.00	15.89	-55.0	-58.3	16.8	0.00e+00	0	45	0	299892736	60	32072
2026-01-30 04:51:56.18	48.28	16.15	-54.4	-57.2	18.4	0.00e+00	0	46	0	307232768	60	28468
2026-01-30 04:52:00.20	47.55	16.41	-53.9	-56.9	18.3	0.00e+00	0	46	0	314572800	60	27450
2026-01-30 04:52:04.23	46.80	16.66	-54.2	-56.4	19.5	0.00e+00	0	46	0	321912832	60	25800
2026-01-30 04:52:08.27	46.04	16.91	-54.4	-56.4	19.6	0.00e+00	0	46	0	330301440	60	26014
2026-01-30 04:52:12.30	45.27	17.16	-54.5	-56.4	19.2	0.00e+00	0	46	0	337641472	60	25894
2026-01-30 04:52:16.33	44.48	17.41	-53.6	-55.4	19.8	0.00e+00	0	45	0	344981504	60	23142
2026-01-30 04:52:20.35	43.68	17.65	-52.8	-55.1	19.4	0.00e+00	0	46	0	352321536	60	22194
2026-01-30 04:52:24.38	42.87	17.88	-52.9	-55.0	19.3	0.00e+00	0	46	0	359661568	60	22070
2026-01-30 04:52:28.40	42.05	18.12	-52.6	-55.1	19.8	0.00e+00	0	46	0	368050176	60	22346
2026-01-30 04:52:32.43	41.21	18.35	-53.3	-55.4	19.4	0.00e+00	0	46	0	375390208	60	22976
2026-01-30 04:52:36.46	40.36	18.58	-52.6	-55.8	18.7	0.00e+00	0	46	0	382730240	60	24267
2026-01-30 04:52:40.50	39.50	18.80	-51.2	-55.3	19.7	0.00e+00	0	46	0	390070272	60	22884
2026-01-30 04:52:44.53	38.62	19.01	-53.3	-55.3	20.2	0.00e+00	0	46	0	398458880	60	22732
2026-01-30 04:52:48.54	37.74	19.23	-51.8	-54.4	19.5	0.00e+00	0	45	0	405798912	60	20652
2026-01-30 04:52:52.57	36.84	19.43	-51.2	-53.9	20.8	0.00e+00	0	46	0	413138944	60	19371
2026-01-30 04:52:56.60	35.92	19.63	-52.4	-54.2	21.1	0.00e+00	0	46	0	420478976	60	20129
2026-01-30 04:53:00.63	35.00	19.82	-51.7	-54.7	18.4	0.00e+00	0	46	0	427819008	60	21210
2026-01-30 04:53:04.66	34.06	20.01	-49.1	-54.7	19.6	0.00e+00	0	46	0	435159040	60	21200
2026-01-30 04:53:08.68	33.12	20.19	-50.5	-54.9	16.5	0.00e+00	0	46	0	443547648	60	21809
2026-01-30 04:53:12.71	32.16	20.37	-48.3	-54.2	16.7	0.00e+00	0	46	0	450887680	60	20149
2026-01-30 04:53:16.73	31.19	20.53	-52.3	-53.9	20.8	0.00e+00	0	46	0	458227712	60	19362
2026-01-30 04:53:20.75	30.22	20.69	-51.1	-54.1	18.3	0.00e+00	0	46	0	465567744	60	19877
2026-01-30 04:53:24.79	29.23	20.84	-48.7	-53.8	17.5	0.00e+00	0	46	0	472907776	60	19253
2026-01-30 04:53:28.81	28.23	20.98	-49.7	-54.7	16.6	0.00e+00	0	46	0	481296384	60	21303
2026-01-30 04:53:32.84	27.22	21.12	-52.7	-55.5	20.0	0.00e+00	0	46	0	488636416	60	23328
2026-01-30 04:53:36.86	26.21	21.24	-51.1	-55.7	19.3	0.00e+00	0	46	0	495976448	60	24016
2026-01-30 04:53:40.88	25.18	21.36	-53.0	-55.8	18.5	0.00e+00	0	46	0	503316480	60	24125
2026-01-30 04:53:44.90	24.16	21.46	-50.8	-55.6	19.8	0.00e+00	0	46	0	511705088	60	23644
2026-01-30 04:53:48.92	23.12	21.56	-52.8	-56.1	18.0	0.00e+00	0	46	0	519045120	60	25127
2026-01-30 04:53:52.94	22.08	21.64	-52.7	-56.2	17.9	0.00e+00	0	46	0	526385152	60	25328
2026-01-30 04:53:56.96	21.03	21.72	-49.7	-55.8	16.3	0.00e+00	0	46	0	533725184	60	24173
2026-01-30 04:54:00.98	19.98	21.79	-46.9	-55.7	13.1	9.90e-06	0	46	0	541065216	60	23881
2026-01-30 04:54:05.01	18.92	21.85	-53.1	-56.1	17.5	0.00e+00	0	46	0	548405248	60	25092
2026-01-30 04:54:09.03	17.86	21.89	-53.5	-56.8	18.0	0.00e+00	0	46	0	556793856	60	27050
2026-01-30 04:54:13.04	16.80	21.93	-54.8	-57.6	18.1	0.00e+00	0	46	0	564133888	60	29672
2026-01-30 04:54:17.07	15.73	21.95	-54.0	-56.1	18.9	0.00e+00	0	46	0	571473920	60	25121
2026-01-30 04:54:21.08	14.66	21.97	-51.7	-55.8	19.4	0.00e+00	0	46	0	578813952	60	24115
2026-01-30 04:54:25.10	13.60	21.97	-50.0	-55.4	18.2	0.00e+00	0	46	0	586153984	60	23169
2026-01-30 04:54:29.13	12.53	21.96	-51.3	-55.7	18.1	0.00e+00	0	46	0	594542592	60	23903
2026-01-30 04:54:33.16	11.46	21.95	-52.6	-55.6	19.2	0.00e+00	0	46	0	601882624	60	23701
2026-01-30 04:54:37.19	10.39	21.92	-53.2	-55.1	20.5	0.00e+00	0	46	0	609222656	60	22191
2026-01-30 04:54:41.22	9.33	21.88	-52.8	-55.0	19.9	0.00e+00	0	46	0	616562688	60	21942
2026-01-30 04:54:45.24	8.27	21.83	-51.2	-54.4	19.0	0.00e+00	0	46	0	623902720	60	20615
2026-01-30 04:54:49.27	7.21	21.77	-52.1	-55.3	20.2	0.00e+00	0	46	0	632291328	60	22901
2026-01-30 04:54:53.30	6.16	21.70	-53.3	-55.2	20.2	0.00e+00	0	46	0	639631360	60	22444
2026-01-30 04:54:57.33	5.11	21.62	-52.9	-54.3	21.2	0.00e+00	0	46	0	646971392	60	20422
2026-01-30 04:55:01.35	4.07	21.54	-53.3	-54.9	20.9	0.00e+00	0	46	0	654311424	60	21723
2026-01-30 04:55:05.38	3.03	21.44	-52.6	-54.3	21.4	0.00e+00	0	46	0	661651456	60	20286
2026-01-30 04:55:09.41	2.00	21.33	-52.1	-54.1	21.2	0.00e+00	0	46	0	670040064	60	19793
2026-01-30 04:55:13.44	0.98	21.21	-52.4	-54.2	21.3	0.00e+00	0	46	0	677380096	60	20044
2026-01-30 04:55:17.47	359.97	21.08	-53.0	-55.2	20.5	0.00e+00	0	46	0	684720128	60	22484
2026-01-30 04:55:21.49	358.96	20.95	-53.1	-55.0	20.3	0.00e+00	0	46	0	692060160	60	22073
2026-01-30 04:55:25.52	357.97	20.80	-53.8	-56.3	18.4	0.00e+00	0	46	0	699400192	60	25619
2026-01-30 04:55:29.54	356.98	20.65	-53.8	-56.5	18.7	0.00e+00	0	46	0	707788800	60	26055
2026-01-30 04:55:33.57	356.01	20.49	-53.9	-56.1	18.9	0.00e+00	0	46	0	715128832	60	25094
2026-01-30 04:55:37.59	355.04	20.32	-53.1	-55.4	19.3	0.00e+00	0	46	0	722468864	60	23014
2026-01-30 04:55:41.63	354.09	20.15	-54.0	-55.8	19.8	0.00e+00	0	46	0	729808896	60	24282
2026-01-30 04:55:45.65	353.15	19.97	-53.4	-55.2	20.0	0.00e+00	0	46	0	737148928	60	22616
2026-01-30 04:55:49.68	352.21	19.78	-53.6	-55.4	20.4	0.00e+00	0	46	0	745537536	60	22998
2026-01-30 04:55:53.71	351.29	19.58	-53.8	-56.1	19.2	0.00e+00	0	46	0	752877568	60	24994
2026-01-30 04:55:57.75	350.38	19.38	-53.7	-57.3	17.8	0.00e+00	0	46	0	760217600	60	28820
2026-01-30 04:56:01.77	349.49	19.18	-54.2	-57.2	18.6	7.00e-07	0	46	0	767557632	60	28266
2026-01-30 04:56:05.79	348.61	18.96	-55.0	-58.2	17.6	0.00e+00	0	46	0	774897664	60	31833
2026-01-30 04:56:09.81	347.74	18.75	-55.9	-58.3	17.6	0.00e+00	0	46	0	783286272	60	32179
2026-01-30 04:56:13.85	346.88	18.52	-54.5	-56.3	19.3	0.00e+00	0	46	0	790626304	60	25611
2026-01-30 04:56:17.88	346.03	18.30	-52.9	-54.6	20.5	0.00e+00	0	46	0	797966336	60	20974
2026-01-30 04:56:21.90	345.20	18.07	-53.0	-54.5	20.8	0.00e+00	0	46	0	805306368	60	20913
2026-01-30 04:56:25.92	344.38	17.83	-53.5	-55.2	20.2	0.00e+00	0	46	0	812646400	60	22637
2026-01-30 04:56:29.95	343.58	17.59	-53.1	-54.6	20.9	0.00e+00	0	46	0	821035008	60	20967
2026-01-30 04:56:33.98	342.78	17.35	-54.3	-56.5	18.9	0.00e+00	0	46	0	828375040	60	26282
2026-01-30 04:56:38.00	342.00	17.10	-54.9	-57.5	18.2	0.00e+00	0	46	0	835715072	60	29322
2026-01-30 04:56:42.03	341.23	16.86	-54.2	-56.3	19.3	0.00e+00	0	46	0	843055104	60	25524
2026-01-30 04:56:46.07	340.48	16.60	-54.2	-56.6	18.9	0.00e+00	0	46	0	850395136	60	26377
2026-01-30 04:56:50.10	339.73	16.35	-54.0	-56.1	19.2	0.00e+00	0	46	0	858783744	60	25041
2026-01-30 04:56:54.13	339.00	16.09	-54.6	-57.5	17.7	0.00e+00	0	46	0	866123776	60	29405
2026-01-30 04:56:58.15	338.29	15.84	-54.8	-57.5	17.5	0.00e+00	0	46	0	873463808	60	29495
2026-01-30 04:57:02.18	337.58	15.58	-55.1	-57.9	17.1	0.00e+00	0	46	0	880803840	60	30710
2026-01-30 04:57:06.21	336.89	15.32	-55.5	-58.6	16.3	0.00e+00	0	46	0	888143872	60	33167
2026-01-30 04:57:10.23	336.21	15.06	-55.6	-58.6	16.4	0.00e+00	0	46	0	896532480	60	33451
2026-01-30 04:57:14.26	335.54	14.79	-55.4	-58.3	16.5	0.00e+00	0	46	0	903872512	60	32296
2026-01-30 04:57:18.29	334.89	14.53	-55.5	-58.5	16.3	0.00e+00	0	46	0	911212544	60	33080
2026-01-30 04:57:22.32	334.24	14.26	-55.2	-58.1	16.7	0.00e+00	0	46	0	918552576	60	31606
2026-01-30 04:57:26.35	333.61	14.00	-54.8	-58.0	16.6	0.00e+00	0	46	0	925892608	60	30991
2026-01-30 04:57:30.37	332.99	13.73	-55.7	-59.1	15.4	0.00e+00	0	46	0	934281216	60	35270
2026-01-30 04:57:34.40	332.38	13.46	-55.5	-59.9	14.3	0.00e+00	0	46	0	941621248	60	38872
2026-01-30 04:57:38.42	331.78	13.20	-54.0	-60.1	13.1	1.37e-05	0	46	0	948961280	60	39788
2026-01-30 04:57:42.44	331.19	12.93	-52.4	-59.6	12.4	1.17e-04	0	46	0	956301312	60	37548
2026-01-30 04:57:46.47	330.62	12.66	-51.1	-60.3	10.9	1.09e-03	0	46	0	963641344	60	40490
2026-01-30 04:57:50.50	330.05	12.39	-50.9	-61.3	9.6	1.03e-02	0	46	0	972029952	60	45347
2026-01-30 04:57:54.53	329.49	12.13	-51.1	-61.8	9.2	1.77e-02	0	46	0	979369984	60	48232
2026-01-30 04:57:58.56	328.95	11.86	-52.1	-61.8	9.4	1.96e-02	0	46	0	986710016	60	48081
2026-01-30 04:58:02.57	328.41	11.59	-52.8	-61.6	10.3	5.57e-03	0	46	0	994050048	60	46908
2026-01-30 04:58:06.58	327.89	11.33	-54.3	-62.6	9.8	7.04e-03	0	46	0	1001390080	60	52696
2026-01-30 04:58:10.61	327.37	11.06	-56.3	-64.2	8.7	2.91e-02	0	46	0	1009778688	60	63810
2026-01-30 04:58:14.64	326.87	10.80	-57.0	-64.6	8.6	3.81e-02	0	46	0	1017118720	60	66764
2026-01-30 04:58:18.66	326.37	10.53	-57.1	-64.7	8.5	3.51e-02	0	46	0	1024458752	60	67581
2026-01-30 04:58:22.69	325.88	10.27	-56.9	-65.2	7.9	5.80e-02	0	46	0	1031798784	60	71569
2026-01-30 04:58:26.72	325.40	10.01	-56.6	-65.6	7.5	9.61e-02	0	46	0	1039138816	60	74238
2026-01-30 04:58:30.75	324.93	9.75	-56.5	-66.2	6.7	1.86e-01	0	46	0	1047527424	60	80038
2026-01-30 04:58:34.76	324.47	9.49	-56.6	-67.3	5.6	3.98e-01	0	46	0	1054867456	60	90566
2026-01-30 04:58:38.79	324.02	9.23	-56.6	-67.5	5.3	4.16e-01	0	46	0	1062207488	60	92592
2026-01-30 04:58:42.82	323.57	8.97	-58.0	-68.6	4.3	5.54e-01	0	46	0	1069547520	60	105961
2026-01-30 04:58:46.85	323.13	8.71	-57.3	-68.8	4.4	8.16e-01	0	46	0	1076887552	60	107486
2026-01-30 04:58:50.88	322.71	8.45	-57.2	-69.7	4.0	1.29e+00	0	46	0	1084227584	60	119541
2026-01-30 04:58:54.91	322.28	8.20	-57.4	-70.5	4.3	1.49e+00	0	46	104	1087373312	60	131744
2026-01-30 04:58:58.94	321.87	7.94	-57.2	-71.2	3.9	1.46e+00	0	46	104	1087373312	60	141581
2026-01-30 04:59:02.97	321.46	7.69	-57.3	-71.6	3.8	1.44e+00	0	46	104	1087373312	60	149498
2026-01-30 04:59:07.00	321.06	7.43	-57.8	-73.3	3.6	1.51e+00	0	46	104	1087373312	60	180729
2026-01-30 04:59:11.02	320.67	7.18	-57.6	-72.8	3.6	1.51e+00	0	46	104	1087373312	60	171549
2026-01-30 04:59:15.06	320.28	6.93	-58.0	-73.2	3.6	1.51e+00	0	46	104	1087373312	60	179999
2026-01-30 04:59:19.08	319.91	6.68	-58.1	-73.4	3.6	1.51e+00	0	46	104	1087373312	60	183010
2026-01-30 04:59:23.11	319.53	6.44	-57.7	-74.2	3.6	1.51e+00	0	46	104	1087373312	60	200607
2026-01-30 04:59:27.14	319.17	6.19	-57.7	-73.9	3.6	1.51e+00	0	46	104	1087373312	60	195081
2026-01-30 04:59:31.17	318.81	5.94	-57.9	-74.7	3.6	1.51e+00	0	46	104	1087373312	60	213468
2026-01-30 04:59:35.20	318.46	5.70	-59.3	-76.6	3.6	1.51e+00	0	46	104	1087373312	60	264588
2026-01-30 04:59:39.23	318.11	5.46	-60.6	-78.2	3.6	1.51e+00	0	46	104	1087373312	60	317685
2026-01-30 04:59:43.26	317.77	5.22	-59.0	-78.2	3.6	1.51e+00	0	46	104	1087373312	60	317973
2026-01-30 04:59:47.29	317.43	4.97	-59.7	-78.2	3.6	1.51e+00	0	46	104	1087373312	60	318207
2026-01-30 04:59:51.32	317.10	4.74	-61.8	-78.9	3.6	1.51e+00	0	46	104	1087373312	60	343470
2026-01-30 04:59:55.35	316.78	4.50	-59.1	-77.8	3.6	1.51e+00	0	46	104	1087373312	60	303412
2026-01-30 04:59:59.38	316.46	4.26	-60.5	-78.7	3.6	1.51e+00	0	46	104	1087373312	60	338163
2026-01-30 05:00:03.40	316.15	4.03	-59.6	-78.7	3.6	1.51e+00	0	46	104	1087373312	60	338168
2026-01-30 05:00:07.43	315.84	3.79	-58.3	-78.1	3.6	1.51e+00	0	46	104	1087373312	60	314733
2026-01-30 05:00:11.46	315.54	3.56	-59.2	-78.9	3.6	1.51e+00	0	46	104	1087373312	60	343810
2026-01-30 05:00:15.49	315.24	3.33	-59.0	-78.6	3.6	1.51e+00	0	46	104	1087373312	60	333337
2026-01-30 05:00:19.51	314.95	3.10	-59.1	-78.5	3.6	1.51e+00	0	46	104	1087373312	60	328480
2026-01-30 05:00:23.54	314.66	2.87	-59.0	-78.4	3.6	1.51e+00	0	46	104	1087373312	60	327761
2026-01-30 05:00:27.56	314.37	2.64	-58.8	-78.3	3.6	1.51e+00	0	46	104	1087373312	60	320799
2026-01-30 05:00:31.59	314.10	2.41	-58.9	-78.3	3.6	1.51e+00	0	46	104	1087373312	60	323491
2026-01-30 05:00:35.61	313.82	2.19	-58.4	-78.4	3.6	1.51e+00	0	46	104	1087373312	60	327507
2026-01-30 05:00:39.64	313.55	1.96	-58.8	-78.4	3.6	1.51e+00	0	46	104	1087373312	60	325598
2026-01-30 05:00:43.66	313.29	1.74	-58.9	-78.3	3.6	1.51e+00	0	46	104	1087373312	60	321266
2026-01-30 05:00:47.68	313.02	1.52	-58.9	-78.6	3.6	1.51e+00	0	46	104	1087373312	60	333815
2026-01-30 05:00:51.69	312.77	1.30	-58.6	-78.3	3.6	1.51e+00	0	46	104	1087373312	60	323462
2026-01-30 05:00:55.72	312.51	1.07	-58.7	-78.2	3.6	1.51e+00	0	46	104	1087373312	60	319644
2026-01-30 05:00:59.75	312.26	0.86	-58.5	-78.5	3.6	1.51e+00	0	46	104	1087373312	60	328009
2026-01-30 05:01:03.77	312.02	0.64	-58.5	-78.4	3.6	1.51e+00	0	46	104	1087373312	60	325893
2026-01-30 05:01:07.80	311.78	0.42	-58.6	-78.2	3.6	1.51e+00	0	46	104	1087373312	60	319154
2026-01-30 05:01:11.83	311.54	0.21	-58.3	-78.4	3.6	1.51e+00	0	46	104	1087373312	60	325565
2026-01-30 05:01:15.87	311.30	-0.01	-58.7	-78.2	3.6	1.51e+00	0	46	104	1087373312	60	317166

#Closed at: 2026-01-30 05:01:18
#Recorded file [1087 MB]: D:/Data/35015_260130_075929.dat