passes_logs/2026/01/30/R3.2S-Naryan-Mar/R3.2S-Naryan-Mar__20260130_004530_FENGYUN_3D_rec.log

#Pass ID: 20260130_004530_FENGYUN 3D
#Satellite: FENGYUN 3D
#Configuration: FENGYUN 3D
#almurnet v.1.7.20240730
#Start time: 2026-01-30 00:45:31

#Version: 2.2.20231116
#Station: R3.2S-Naryan-Mar
#Location: 53.008057 lon 67.646978 lat
#TLE: 1 43010U 17072A   26028.95797775  .00000451  00000+0  23492-3 0  9991
#TLE: 2 43010  98.9958   0.9922 0002505  85.7480 274.3981 14.19703224425237

#Time	Az	El	Level	Level2	SNR	BER	BlckErr	Temp	State	Recorded	gain1	gain2
2026-01-30 00:45:31.30	21.55	0.04	-57.9	-78.4	3.5	3.02e+01	0	43	0	0	60	316155
2026-01-30 00:45:35.33	21.63	0.28	-62.0	-75.5	3.6	8.46e-01	0	45	104	0	60	233176
2026-01-30 00:45:39.34	21.71	0.52	-62.0	-75.4	3.6	8.45e-01	0	45	104	0	60	230709
2026-01-30 00:45:43.37	21.79	0.76	-61.8	-75.3	3.6	8.44e-01	0	45	104	0	60	228448
2026-01-30 00:45:47.40	21.88	1.00	-60.6	-75.2	3.6	8.46e-01	0	45	104	0	60	224889
2026-01-30 00:45:51.42	21.96	1.25	-61.0	-74.9	3.6	8.45e-01	0	45	104	0	60	218308
2026-01-30 00:45:55.45	22.04	1.50	-60.5	-74.6	3.6	8.45e-01	0	45	104	0	60	209537
2026-01-30 00:45:59.48	22.13	1.75	-58.6	-74.1	3.6	8.45e-01	0	45	104	0	60	198401
2026-01-30 00:46:03.51	22.22	2.00	-60.2	-73.7	3.6	8.46e-01	0	45	104	0	60	189028
2026-01-30 00:46:07.53	22.31	2.26	-59.5	-73.1	3.6	8.44e-01	0	45	104	0	60	177465
2026-01-30 00:46:11.56	22.39	2.51	-59.3	-73.0	3.6	8.46e-01	0	45	104	0	60	175544
2026-01-30 00:46:15.59	22.49	2.77	-59.1	-72.9	3.5	8.46e-01	0	45	104	0	60	173049
2026-01-30 00:46:19.61	22.58	3.03	-59.1	-72.6	3.6	8.45e-01	0	45	104	0	60	167063
2026-01-30 00:46:23.64	22.67	3.30	-59.0	-72.4	3.6	8.45e-01	0	45	104	0	60	163419
2026-01-30 00:46:27.66	22.76	3.57	-59.0	-72.4	3.5	8.46e-01	0	45	104	0	60	163209
2026-01-30 00:46:31.69	22.86	3.84	-59.0	-72.2	3.6	8.46e-01	0	45	104	0	60	160102
2026-01-30 00:46:35.72	22.96	4.11	-59.0	-71.9	3.6	8.46e-01	0	45	104	0	60	155018
2026-01-30 00:46:39.74	23.06	4.38	-58.9	-70.9	3.6	8.44e-01	0	46	104	0	60	137409
2026-01-30 00:46:43.76	23.16	4.66	-58.8	-70.4	3.7	8.43e-01	0	45	104	0	60	129826
2026-01-30 00:46:47.80	23.26	4.94	-58.7	-69.7	4.0	8.44e-01	0	45	104	0	60	119501
2026-01-30 00:46:51.82	23.36	5.22	-56.7	-60.4	11.2	5.27e-03	0	46	0	13631488	60	40881
2026-01-30 00:46:55.85	23.47	5.51	-53.1	-54.8	17.1	0.00e+00	0	46	0	36700160	60	21422
2026-01-30 00:46:59.88	23.57	5.80	-51.1	-52.3	19.4	0.00e+00	0	45	0	58720256	60	16185
2026-01-30 00:47:03.91	23.68	6.09	-50.5	-52.1	19.3	0.00e+00	0	45	0	81788928	60	15734
2026-01-30 00:47:07.94	23.79	6.39	-54.1	-56.1	14.7	0.00e+00	0	45	0	104857600	60	24958
2026-01-30 00:47:11.97	23.91	6.69	-51.5	-53.0	19.0	0.00e+00	0	46	0	126877696	60	17421
2026-01-30 00:47:15.99	24.02	6.99	-50.1	-51.7	19.4	0.00e+00	0	45	0	149946368	60	15056
2026-01-30 00:47:20.01	24.14	7.30	-50.0	-51.6	19.7	0.00e+00	0	46	0	173015040	60	14966
2026-01-30 00:47:24.04	24.25	7.61	-49.1	-51.3	19.2	0.00e+00	0	46	0	195035136	60	14362
2026-01-30 00:47:28.06	24.38	7.92	-50.1	-51.2	20.8	0.00e+00	0	46	0	218103808	60	14276
2026-01-30 00:47:32.08	24.50	8.24	-49.5	-51.1	20.1	0.00e+00	0	46	0	240123904	60	14117
2026-01-30 00:47:36.11	24.62	8.56	-49.5	-51.1	20.4	0.00e+00	0	46	0	263192576	60	14063
2026-01-30 00:47:40.13	24.75	8.88	-49.3	-51.0	19.4	0.00e+00	0	46	0	286261248	60	13937
2026-01-30 00:47:44.15	24.88	9.21	-49.6	-50.8	21.1	0.00e+00	0	46	0	308281344	60	13533
2026-01-30 00:47:48.16	25.01	9.55	-49.5	-50.6	21.2	0.00e+00	0	46	0	331350016	60	13219
2026-01-30 00:47:52.18	25.15	9.88	-49.4	-50.4	21.1	0.00e+00	0	46	0	353370112	60	13036
2026-01-30 00:47:56.22	25.29	10.23	-48.6	-50.4	19.9	0.00e+00	0	46	0	376438784	60	12976
2026-01-30 00:48:00.23	25.43	10.57	-49.2	-50.5	21.6	0.00e+00	0	46	0	398458880	60	13087
2026-01-30 00:48:04.25	25.57	10.93	-49.6	-50.5	21.7	0.00e+00	0	46	0	421527552	60	13130
2026-01-30 00:48:08.27	25.72	11.28	-49.5	-50.5	21.7	0.00e+00	0	46	0	443547648	60	13113
2026-01-30 00:48:12.30	25.87	11.65	-49.6	-50.7	21.4	0.00e+00	0	46	0	466616320	60	13390
2026-01-30 00:48:16.33	26.02	12.01	-49.9	-50.9	21.5	0.00e+00	0	46	0	489684992	60	13707
2026-01-30 00:48:20.35	26.18	12.39	-50.1	-51.2	20.9	0.00e+00	0	46	0	511705088	60	14268
2026-01-30 00:48:24.37	26.34	12.77	-49.5	-50.6	21.5	0.00e+00	0	46	0	534773760	60	13253
2026-01-30 00:48:28.40	26.50	13.15	-49.6	-50.7	21.7	0.00e+00	0	46	0	556793856	60	13431
2026-01-30 00:48:32.43	26.67	13.54	-49.6	-50.6	21.8	0.00e+00	0	46	0	579862528	60	13286
2026-01-30 00:48:36.45	26.84	13.94	-49.6	-50.7	21.5	0.00e+00	0	46	0	602931200	60	13377
2026-01-30 00:48:40.47	27.02	14.34	-48.9	-50.0	22.4	0.00e+00	0	46	0	624951296	60	12355
2026-01-30 00:48:44.51	27.20	14.76	-49.5	-50.4	22.2	0.00e+00	0	46	0	648019968	60	12953
2026-01-30 00:48:48.53	27.38	15.17	-49.6	-50.7	21.9	0.00e+00	0	46	0	671088640	60	13411
2026-01-30 00:48:52.55	27.57	15.60	-49.8	-50.6	22.0	0.00e+00	0	46	0	693108736	60	13342
2026-01-30 00:48:56.57	27.77	16.03	-49.4	-50.6	21.2	0.00e+00	0	46	0	715128832	60	13259
2026-01-30 00:49:00.60	27.97	16.47	-49.9	-50.9	21.8	0.00e+00	0	46	0	738197504	60	13789
2026-01-30 00:49:04.63	28.17	16.91	-49.8	-51.2	21.3	0.00e+00	0	46	0	761266176	60	14306
2026-01-30 00:49:08.64	28.39	17.37	-50.3	-51.7	20.8	0.00e+00	0	46	0	783286272	60	15068
2026-01-30 00:49:12.67	28.60	17.83	-49.1	-50.2	22.1	0.00e+00	0	46	0	806354944	60	12730
2026-01-30 00:49:16.71	28.83	18.30	-48.4	-49.5	22.5	0.00e+00	0	46	0	828375040	60	11689
2026-01-30 00:49:20.73	29.06	18.78	-48.3	-49.5	21.5	0.00e+00	0	46	0	851443712	60	11667
2026-01-30 00:49:24.75	29.29	19.27	-47.3	-48.4	22.1	0.00e+00	0	46	0	874512384	60	10269
2026-01-30 00:49:28.77	29.54	19.77	-47.4	-48.3	23.0	0.00e+00	0	46	0	896532480	60	10226
2026-01-30 00:49:32.79	29.79	20.28	-48.0	-48.9	23.2	0.00e+00	0	46	0	919601152	60	10870
2026-01-30 00:49:36.82	30.05	20.80	-47.6	-48.6	22.9	0.00e+00	0	46	0	942669824	60	10500
2026-01-30 00:49:40.84	30.32	21.33	-47.5	-48.8	22.8	0.00e+00	0	46	0	964689920	60	10754
2026-01-30 00:49:44.86	30.59	21.87	-47.5	-48.9	22.2	0.00e+00	0	46	0	987758592	60	10862
2026-01-30 00:49:48.90	30.88	22.42	-47.4	-48.3	23.8	0.00e+00	0	46	0	1009778688	60	10177
2026-01-30 00:49:52.93	31.18	22.98	-46.5	-47.5	23.8	0.00e+00	0	46	0	1032847360	60	9324
2026-01-30 00:49:56.96	31.48	23.56	-46.6	-47.5	24.3	0.00e+00	0	46	0	1054867456	60	9256
2026-01-30 00:50:00.98	31.80	24.15	-46.8	-47.6	24.7	0.00e+00	0	46	0	1077936128	60	9348
2026-01-30 00:50:05.01	32.13	24.75	-47.0	-47.7	24.7	0.00e+00	0	46	0	1099956224	60	9530
2026-01-30 00:50:09.04	32.47	25.36	-46.9	-47.6	24.9	0.00e+00	0	46	0	1123024896	60	9410
2026-01-30 00:50:13.06	32.82	25.98	-46.2	-47.0	24.8	0.00e+00	0	46	0	1146093568	60	8795
2026-01-30 00:50:17.08	33.19	26.62	-46.0	-46.7	25.2	0.00e+00	0	46	0	1168113664	60	8473
2026-01-30 00:50:21.11	33.57	27.28	-46.3	-47.0	25.1	0.00e+00	0	46	0	1191182336	60	8722
2026-01-30 00:50:25.14	33.97	27.95	-46.3	-47.0	25.3	0.00e+00	0	46	0	1214251008	60	8767
2026-01-30 00:50:29.15	34.38	28.63	-46.2	-46.9	25.5	0.00e+00	0	46	0	1236271104	60	8650
2026-01-30 00:50:33.17	34.81	29.33	-46.2	-47.1	24.5	0.00e+00	0	46	0	1259339776	60	8918
2026-01-30 00:50:37.19	35.26	30.05	-45.6	-46.6	24.8	0.00e+00	0	46	0	1281359872	60	8344
2026-01-30 00:50:41.22	35.73	30.78	-46.2	-47.0	25.0	0.00e+00	0	46	0	1304428544	60	8741
2026-01-30 00:50:45.25	36.22	31.53	-46.2	-46.9	25.5	0.00e+00	0	46	0	1327497216	60	8631
2026-01-30 00:50:49.27	36.74	32.30	-46.2	-46.9	25.5	0.00e+00	0	46	0	1349517312	60	8657
2026-01-30 00:50:53.29	37.27	33.08	-46.3	-47.0	25.5	0.00e+00	0	46	0	1371537408	60	8760
2026-01-30 00:50:57.32	37.84	33.88	-46.3	-47.0	25.3	0.00e+00	0	46	0	1394606080	60	8782
2026-01-30 00:51:01.35	38.43	34.71	-45.8	-46.7	24.7	0.00e+00	0	46	0	1417674752	60	8466
2026-01-30 00:51:05.38	39.05	35.55	-45.9	-46.7	25.4	0.00e+00	0	46	0	1439694848	60	8487
2026-01-30 00:51:09.41	39.71	36.41	-45.9	-46.6	25.7	0.00e+00	0	46	0	1462763520	60	8333
2026-01-30 00:51:13.44	40.40	37.29	-45.7	-46.4	26.0	0.00e+00	0	46	0	1485832192	60	8186
2026-01-30 00:51:17.47	41.13	38.19	-45.9	-46.5	26.1	0.00e+00	0	46	0	1507852288	60	8277
2026-01-30 00:51:21.49	41.89	39.10	-45.9	-46.5	26.1	0.00e+00	0	46	0	1530920960	60	8322
2026-01-30 00:51:25.52	42.70	40.04	-46.0	-46.7	25.9	0.00e+00	0	46	0	1553989632	60	8428
2026-01-30 00:51:29.54	43.56	40.99	-45.8	-46.4	26.1	0.00e+00	0	46	0	1576009728	60	8213
2026-01-30 00:51:33.57	44.47	41.97	-46.5	-47.2	25.6	0.00e+00	0	46	0	1599078400	60	8945
2026-01-30 00:51:37.59	45.44	42.96	-46.6	-47.2	25.6	0.00e+00	0	46	0	1621098496	60	9008
2026-01-30 00:51:41.60	46.46	43.96	-46.3	-46.9	25.9	0.00e+00	0	46	0	1644167168	60	8712
2026-01-30 00:51:45.62	47.55	44.99	-46.8	-47.5	25.6	0.00e+00	0	46	0	1667235840	60	9267
2026-01-30 00:51:49.66	48.72	46.03	-46.4	-47.1	25.8	0.00e+00	0	46	0	1689255936	60	8874
2026-01-30 00:51:53.68	49.97	47.08	-46.8	-47.5	25.7	0.00e+00	0	46	0	1711276032	60	9326
2026-01-30 00:51:57.71	51.30	48.15	-47.6	-48.3	25.0	0.00e+00	0	46	0	1734344704	60	10203
2026-01-30 00:52:01.74	52.73	49.22	-47.2	-47.9	25.3	0.00e+00	0	46	0	1757413376	60	9748
2026-01-30 00:52:05.77	54.26	50.31	-48.4	-49.2	24.5	0.00e+00	0	46	0	1779433472	60	11255
2026-01-30 00:52:09.79	55.89	51.39	-48.9	-49.6	24.3	0.00e+00	0	46	0	1802502144	60	11826
2026-01-30 00:52:13.82	57.66	52.47	-48.6	-49.3	24.9	0.00e+00	0	46	0	1825570816	60	11389
2026-01-30 00:52:17.85	59.55	53.55	-48.7	-49.4	24.7	0.00e+00	0	46	0	1847590912	60	11540
2026-01-30 00:52:21.88	61.60	54.62	-49.0	-49.7	24.6	0.00e+00	0	46	0	1870659584	60	12024
2026-01-30 00:52:25.91	63.79	55.67	-48.7	-49.4	24.6	0.00e+00	0	46	0	1892679680	60	11559
2026-01-30 00:52:29.94	66.16	56.70	-48.7	-49.4	24.8	0.00e+00	0	46	0	1915748352	60	11574
2026-01-30 00:52:33.96	68.70	57.69	-48.4	-49.1	25.2	0.00e+00	0	46	0	1938817024	60	11137
2026-01-30 00:52:38.00	71.44	58.65	-48.0	-48.7	25.3	0.00e+00	0	46	0	1960837120	60	10722
2026-01-30 00:52:42.02	74.37	59.56	-47.6	-48.3	25.7	0.00e+00	0	46	0	1983905792	60	10168
2026-01-30 00:52:46.05	77.51	60.41	-47.7	-48.4	25.7	0.00e+00	0	46	0	2006974464	60	10284
2026-01-30 00:52:50.07	80.84	61.18	-48.5	-49.2	25.1	0.00e+00	0	46	0	2028994560	60	11314
2026-01-30 00:52:54.11	84.39	61.88	-47.8	-48.5	25.8	0.00e+00	0	46	0	2052063232	60	10383
2026-01-30 00:52:58.14	88.13	62.49	-47.8	-48.5	25.9	0.00e+00	0	46	0	2075131904	60	10400
2026-01-30 00:53:02.17	92.05	62.99	-48.5	-49.3	25.3	0.00e+00	0	46	0	2097152000	60	11374
2026-01-30 00:53:06.19	96.10	63.38	-47.6	-48.3	25.7	0.00e+00	0	46	0	2119172096	60	10213
2026-01-30 00:53:10.21	100.27	63.66	-47.5	-48.2	26.0	0.00e+00	0	46	0	2142240768	60	10111
2026-01-30 00:53:14.23	104.51	63.80	-47.6	-48.3	25.8	0.00e+00	0	46	0	2165309440	60	10148
2026-01-30 00:53:18.26	108.79	63.82	-47.6	-48.2	26.0	0.00e+00	0	46	0	2187329536	60	10083
2026-01-30 00:53:22.29	113.06	63.72	-48.3	-49.0	25.2	0.00e+00	0	46	0	2210398208	60	11053
2026-01-30 00:53:26.31	117.26	63.48	-48.7	-49.4	25.2	0.00e+00	0	46	0	2232418304	60	11612
2026-01-30 00:53:30.32	121.35	63.13	-49.6	-50.3	24.8	0.00e+00	0	46	0	2255486976	60	12766
2026-01-30 00:53:34.35	125.31	62.66	-49.5	-50.2	24.6	0.00e+00	0	46	0	2278555648	60	12748
2026-01-30 00:53:38.37	129.10	62.08	-50.1	-50.8	24.1	0.00e+00	0	46	0	2300575744	60	13592
2026-01-30 00:53:42.39	132.70	61.41	-48.5	-49.2	25.7	0.00e+00	0	46	0	2323644416	60	11296
2026-01-30 00:53:46.42	136.11	60.66	-48.4	-49.0	25.6	0.00e+00	0	46	0	2346713088	60	11059
2026-01-30 00:53:50.44	139.31	59.83	-48.5	-49.2	25.4	0.00e+00	0	46	0	2368733184	60	11274
2026-01-30 00:53:54.47	142.31	58.94	-48.7	-49.4	25.3	0.00e+00	0	46	0	2391801856	60	11501
2026-01-30 00:53:58.48	145.10	58.00	-48.9	-49.6	25.1	0.00e+00	0	46	0	2413821952	60	11842
2026-01-30 00:54:02.50	147.70	57.01	-49.2	-49.9	24.8	0.00e+00	0	46	0	2435842048	60	12315
2026-01-30 00:54:06.53	150.12	55.99	-49.3	-50.0	24.6	0.00e+00	0	46	0	2458910720	60	12326
2026-01-30 00:54:10.56	152.38	54.94	-48.9	-49.6	24.7	0.00e+00	0	46	0	2481979392	60	11892
2026-01-30 00:54:14.58	154.47	53.88	-48.3	-49.0	25.3	0.00e+00	0	46	0	2503999488	60	10996
2026-01-30 00:54:18.60	156.41	52.80	-48.3	-49.0	25.2	0.00e+00	0	46	0	2527068160	60	10983
2026-01-30 00:54:22.62	158.21	51.72	-47.7	-48.4	25.5	0.00e+00	0	46	0	2550136832	60	10287
2026-01-30 00:54:26.64	159.89	50.63	-48.0	-48.6	25.3	0.00e+00	0	46	0	2572156928	60	10582
2026-01-30 00:54:30.66	161.45	49.55	-47.8	-48.5	24.9	0.00e+00	0	46	0	2595225600	60	10457
2026-01-30 00:54:34.69	162.91	48.47	-47.9	-48.5	25.0	0.00e+00	0	46	0	2617245696	60	10426
2026-01-30 00:54:38.72	164.28	47.40	-48.4	-49.1	24.8	0.00e+00	0	46	0	2640314368	60	11123
2026-01-30 00:54:42.74	165.55	46.34	-48.2	-48.8	24.9	0.00e+00	0	46	0	2663383040	60	10813
2026-01-30 00:54:46.76	166.74	45.29	-47.3	-48.0	25.1	0.00e+00	0	46	0	2685403136	60	9803
2026-01-30 00:54:50.78	167.86	44.26	-47.0	-47.6	25.3	0.00e+00	0	46	0	2708471808	60	9368
2026-01-30 00:54:54.81	168.91	43.24	-46.7	-47.4	25.5	0.00e+00	0	46	0	2730491904	60	9168
2026-01-30 00:54:58.83	169.89	42.24	-46.6	-47.1	25.5	0.00e+00	0	46	0	2753560576	60	8923
2026-01-30 00:55:02.86	170.82	41.25	-46.4	-47.0	25.5	0.00e+00	0	46	0	2775580672	60	8755
2026-01-30 00:55:06.90	171.70	40.29	-46.6	-47.2	25.3	0.00e+00	0	46	0	2798649344	60	8990
2026-01-30 00:55:10.93	172.53	39.34	-46.6	-47.4	25.3	0.00e+00	0	46	0	2821718016	60	9167
2026-01-30 00:55:14.95	173.31	38.42	-46.6	-47.3	25.2	0.00e+00	0	46	0	2843738112	60	9049
2026-01-30 00:55:18.98	174.05	37.51	-46.0	-46.6	25.8	0.00e+00	0	46	0	2866806784	60	8383
2026-01-30 00:55:23.01	174.75	36.62	-45.9	-46.6	25.7	0.00e+00	0	46	0	2888826880	60	8423
2026-01-30 00:55:27.04	175.41	35.75	-46.1	-46.8	25.4	0.00e+00	0	46	0	2911895552	60	8573
2026-01-30 00:55:31.07	176.04	34.90	-45.9	-46.6	25.4	0.00e+00	0	46	0	2934964224	60	8387
2026-01-30 00:55:35.09	176.64	34.07	-46.0	-46.6	25.1	0.00e+00	0	46	0	2956984320	60	8368
2026-01-30 00:55:39.13	177.22	33.26	-46.3	-46.9	24.9	0.00e+00	0	46	0	2980052992	60	8686
2026-01-30 00:55:43.16	177.76	32.46	-46.1	-46.9	25.1	0.00e+00	0	46	0	3003121664	60	8682
2026-01-30 00:55:47.18	178.28	31.69	-46.2	-46.9	25.0	0.00e+00	0	46	0	3025141760	60	8650
2026-01-30 00:55:51.22	178.78	30.93	-46.5	-47.3	24.6	0.00e+00	0	46	0	3048210432	60	9056
2026-01-30 00:55:55.25	179.26	30.19	-46.5	-47.2	24.6	0.00e+00	0	46	0	3071279104	60	9005
2026-01-30 00:55:59.28	179.71	29.46	-46.5	-47.3	24.6	0.00e+00	0	46	0	3093299200	60	9061
2026-01-30 00:56:03.30	180.15	28.75	-46.1	-46.7	25.0	0.00e+00	0	46	0	3115319296	60	8455
2026-01-30 00:56:07.33	180.57	28.06	-46.4	-47.1	24.6	0.00e+00	0	46	0	3138387968	60	8849
2026-01-30 00:56:11.35	180.97	27.39	-46.6	-47.3	24.6	0.00e+00	0	46	0	3161456640	60	9095
2026-01-30 00:56:15.37	181.35	26.73	-47.3	-48.0	23.7	0.00e+00	0	46	0	3183476736	60	9823
2026-01-30 00:56:19.41	181.73	26.08	-47.3	-48.1	23.9	0.00e+00	0	46	0	3206545408	60	9938
2026-01-30 00:56:23.43	182.08	25.45	-47.9	-48.6	23.2	0.00e+00	0	46	0	3229614080	60	10602
2026-01-30 00:56:27.45	182.43	24.83	-46.3	-47.1	24.4	0.00e+00	0	46	0	3251634176	60	8831
2026-01-30 00:56:31.48	182.76	24.22	-46.2	-46.8	24.5	0.00e+00	0	46	0	3274702848	60	8592
2026-01-30 00:56:35.51	183.08	23.63	-46.3	-47.0	24.3	0.00e+00	0	46	0	3296722944	60	8773
2026-01-30 00:56:39.54	183.38	23.05	-46.0	-46.8	24.5	0.00e+00	0	46	0	3319791616	60	8610
2026-01-30 00:56:43.55	183.68	22.48	-46.1	-46.7	24.4	0.00e+00	0	46	0	3342860288	60	8508
2026-01-30 00:56:47.59	183.97	21.92	-46.1	-46.8	24.3	0.00e+00	0	46	0	3364880384	60	8556
2026-01-30 00:56:51.61	184.25	21.38	-46.3	-47.1	24.3	0.00e+00	0	46	0	3387949056	60	8834
2026-01-30 00:56:55.63	184.52	20.84	-46.4	-47.2	24.2	0.00e+00	0	46	0	3411017728	60	8958
2026-01-30 00:56:59.66	184.78	20.32	-46.7	-47.4	23.9	0.00e+00	0	46	0	3433037824	60	9215
2026-01-30 00:57:03.68	185.03	19.81	-47.1	-47.8	23.6	0.00e+00	0	46	0	3455057920	60	9669
2026-01-30 00:57:07.72	185.28	19.30	-46.7	-47.5	23.8	0.00e+00	0	46	0	3478126592	60	9270
2026-01-30 00:57:11.73	185.51	18.81	-46.7	-47.3	23.8	0.00e+00	0	46	0	3501195264	60	9120
2026-01-30 00:57:15.76	185.74	18.32	-46.8	-47.6	23.6	0.00e+00	0	46	0	3523215360	60	9430
2026-01-30 00:57:19.78	185.97	17.85	-46.9	-47.6	23.6	0.00e+00	0	46	0	3546284032	60	9356
2026-01-30 00:57:23.81	186.18	17.38	-46.9	-47.7	23.5	0.00e+00	0	46	0	3569352704	60	9504
2026-01-30 00:57:27.84	186.40	16.92	-47.2	-47.9	23.2	0.00e+00	0	46	0	3591372800	60	9681
2026-01-30 00:57:31.87	186.60	16.47	-47.7	-48.6	22.7	0.00e+00	0	46	0	3614441472	60	10489
2026-01-30 00:57:35.90	186.80	16.03	-48.2	-49.0	22.2	0.00e+00	0	46	0	3636461568	60	11075
2026-01-30 00:57:39.93	187.00	15.59	-48.6	-49.5	21.8	0.00e+00	0	46	0	3659530240	60	11733
2026-01-30 00:57:43.95	187.18	15.17	-49.4	-50.3	21.1	0.00e+00	0	46	0	3682598912	60	12880
2026-01-30 00:57:47.98	187.37	14.75	-50.1	-51.2	20.3	0.00e+00	0	46	0	3704619008	60	14171
2026-01-30 00:57:52.00	187.55	14.33	-50.7	-51.9	19.4	0.00e+00	0	46	0	3727687680	60	15360
2026-01-30 00:57:56.03	187.72	13.93	-51.5	-52.9	18.4	0.00e+00	0	46	0	3750756352	60	17227
2026-01-30 00:58:00.05	187.90	13.53	-52.5	-54.1	17.1	0.00e+00	0	46	0	3772776448	60	19807
2026-01-30 00:58:04.06	188.06	13.13	-53.9	-55.8	15.0	0.00e+00	0	46	0	3794796544	60	24276
2026-01-30 00:58:08.08	188.22	12.75	-53.9	-55.8	15.6	0.00e+00	0	46	0	3817865216	60	24259
2026-01-30 00:58:12.11	188.38	12.36	-54.1	-56.1	15.3	0.00e+00	0	46	0	3839885312	60	24972
2026-01-30 00:58:16.13	188.54	11.99	-55.3	-57.9	13.5	1.83e-05	0	46	0	3862953984	60	30749
2026-01-30 00:58:20.16	188.69	11.62	-55.9	-59.1	12.0	5.13e-04	0	46	0	3886022656	60	35372
2026-01-30 00:58:24.19	188.84	11.25	-56.2	-59.6	11.2	4.43e-03	0	46	0	3908042752	60	37233
2026-01-30 00:58:28.22	188.99	10.89	-53.0	-54.7	16.4	0.00e+00	0	46	0	3931111424	60	21296
2026-01-30 00:58:32.25	189.13	10.53	-50.4	-51.5	19.2	0.00e+00	0	46	0	3954180096	60	14757
2026-01-30 00:58:36.28	189.27	10.18	-50.2	-51.3	19.2	0.00e+00	0	46	0	3976200192	60	14453
2026-01-30 00:58:40.30	189.40	9.84	-50.8	-52.1	18.6	0.00e+00	0	46	0	3999268864	60	15818
2026-01-30 00:58:44.34	189.54	9.50	-49.3	-50.4	20.2	0.00e+00	0	46	0	4022337536	60	12956
2026-01-30 00:58:48.36	189.67	9.16	-48.3	-49.2	21.1	0.00e+00	0	46	0	4044357632	60	11307
2026-01-30 00:58:52.38	189.79	8.83	-48.4	-49.3	21.0	0.00e+00	0	46	0	4067426304	60	11413
2026-01-30 00:58:56.41	189.92	8.50	-48.5	-49.5	20.7	0.00e+00	0	46	0	4089446400	60	11662
2026-01-30 00:59:00.43	190.04	8.18	-48.5	-49.6	20.6	0.00e+00	0	46	0	4112515072	60	11827
2026-01-30 00:59:04.46	190.16	7.86	-48.8	-49.9	20.3	0.00e+00	0	46	0	4134535168	60	12279
2026-01-30 00:59:08.48	190.28	7.54	-48.8	-49.9	20.2	0.00e+00	0	46	0	4157603840	60	12259
2026-01-30 00:59:12.51	190.40	7.23	-48.9	-50.1	20.0	0.00e+00	0	46	0	4179623936	60	12462
2026-01-30 00:59:16.53	190.51	6.93	-49.0	-50.1	19.8	0.00e+00	0	46	0	4202692608	60	12506
2026-01-30 00:59:20.56	190.62	6.62	-48.9	-50.1	19.8	0.00e+00	0	46	0	4225761280	60	12522
2026-01-30 00:59:24.58	190.73	6.32	-49.3	-50.4	19.5	0.00e+00	0	46	0	4247781376	60	12979
2026-01-30 00:59:28.60	190.84	6.02	-49.3	-50.4	18.9	0.00e+00	0	46	0	4270850048	60	13032
2026-01-30 00:59:32.63	190.95	5.73	-58.5	-71.9	3.6	8.45e-01	0	46	104	4272947200	60	154454
2026-01-30 00:59:36.65	191.05	5.44	-59.9	-73.2	3.6	8.46e-01	0	46	104	4272947200	60	178161
2026-01-30 00:59:40.68	191.15	5.15	-60.8	-73.9	3.6	8.46e-01	0	46	104	4272947200	60	195043
2026-01-30 00:59:44.71	191.25	4.86	-61.6	-74.8	3.6	8.46e-01	0	46	104	4272947200	60	215477
2026-01-30 00:59:48.73	191.35	4.58	-62.4	-75.6	3.6	8.45e-01	0	46	104	4272947200	60	235076
2026-01-30 00:59:52.76	191.45	4.30	-62.5	-75.7	3.6	8.46e-01	0	46	104	4272947200	60	238903
2026-01-30 00:59:56.79	191.55	4.03	-62.6	-76.1	3.6	8.45e-01	0	46	104	4272947200	60	248793
2026-01-30 01:00:00.81	191.64	3.75	-61.3	-75.7	3.6	8.45e-01	0	46	104	4272947200	60	238991
2026-01-30 01:00:04.84	191.73	3.48	-62.0	-75.8	3.6	8.47e-01	0	46	104	4272947200	60	242697
2026-01-30 01:00:08.87	191.83	3.21	-61.8	-75.7	3.6	8.47e-01	0	46	104	4272947200	60	237763
2026-01-30 01:00:12.90	191.92	2.95	-61.7	-75.7	3.6	8.46e-01	0	46	104	4272947200	60	237544
2026-01-30 01:00:16.93	192.00	2.69	-61.7	-75.7	3.6	8.45e-01	0	46	104	4272947200	60	237604
2026-01-30 01:00:20.95	192.09	2.42	-61.7	-75.7	3.6	8.45e-01	0	46	104	4272947200	60	237710
2026-01-30 01:00:24.98	192.18	2.17	-61.6	-75.7	3.6	8.45e-01	0	46	104	4272947200	60	238206
2026-01-30 01:00:29.02	192.26	1.91	-61.6	-75.6	3.6	8.46e-01	0	46	104	4272947200	60	235415
2026-01-30 01:00:33.05	192.35	1.66	-61.6	-75.6	3.6	8.46e-01	0	46	104	4272947200	60	235535
2026-01-30 01:00:37.07	192.43	1.40	-61.6	-75.6	3.6	8.45e-01	0	46	104	4272947200	60	235289
2026-01-30 01:00:41.10	192.51	1.15	-61.6	-75.6	3.6	8.45e-01	0	46	104	4272947200	60	237226
2026-01-30 01:00:45.12	192.59	0.91	-61.5	-75.5	3.6	8.45e-01	0	46	104	4272947200	60	234714
2026-01-30 01:00:49.14	192.67	0.66	-61.5	-75.4	3.6	8.47e-01	0	46	104	4272947200	60	231976
2026-01-30 01:00:53.17	192.75	0.42	-61.5	-75.5	3.6	8.45e-01	0	46	104	4272947200	60	233486
2026-01-30 01:00:57.20	192.82	0.18	-61.5	-75.5	3.6	8.46e-01	0	46	104	4272947200	60	233188

#Closed at: 2026-01-30 01:01:00
#Recorded file [4272 MB]: D:/Data/35015_260130_040038.dat