passes_logs/2026/01/30/R3.2S-Naryan-Mar/R3.2S-Naryan-Mar__20260130_000938_NOAA_20_JPSS-1_rec.log

#Pass ID: 20260130_000938_NOAA 20 (JPSS-1)
#Satellite: NOAA 20 (JPSS-1)
#Configuration: NOAA 20
#almurnet v.1.7.20240730
#Start time: 2026-01-30 00:09:40

#Version: 2.2.20231116
#Station: R3.2S-Naryan-Mar
#Location: 53.008057 lon 67.646978 lat
#TLE: 1 43013U 17073A   26028.86313978  .00000144  00000+0  89200-4 0  9993
#TLE: 2 43013  98.7648 329.6571 0000891  20.0014 340.1197 14.19541559424709

#Time	Az	El	Level	Level2	SNR	BER	BlckErr	Temp	State	Recorded	gain1	gain2
2026-01-30 00:09:40.09	27.08	0.10	-61.2	-78.3	3.5	1.51e+00	0	43	0	0	60	323282
2026-01-30 00:09:44.11	27.01	0.34	-62.2	-78.6	3.6	1.51e+00	0	45	104	0	60	334763
2026-01-30 00:09:48.14	26.93	0.58	-62.1	-78.5	3.6	1.51e+00	0	45	104	0	60	329912
2026-01-30 00:09:52.17	26.86	0.83	-62.1	-78.4	3.6	1.51e+00	0	45	104	0	60	327726
2026-01-30 00:09:56.20	26.78	1.07	-61.8	-78.4	3.6	1.51e+00	0	45	104	0	60	324142
2026-01-30 00:10:00.23	26.70	1.32	-60.7	-77.7	3.6	1.51e+00	0	45	104	0	60	300865
2026-01-30 00:10:04.25	26.62	1.57	-56.6	-76.4	3.6	1.51e+00	0	45	104	0	60	260194
2026-01-30 00:10:08.28	26.54	1.82	-60.4	-77.2	3.6	1.51e+00	0	45	104	0	60	285470
2026-01-30 00:10:12.31	26.46	2.07	-60.3	-77.0	3.6	1.51e+00	0	45	104	0	60	276380
2026-01-30 00:10:16.33	26.38	2.33	-56.5	-75.9	3.6	1.51e+00	0	45	104	0	60	244633
2026-01-30 00:10:20.35	26.29	2.59	-56.7	-75.9	3.6	1.51e+00	0	45	104	0	60	244757
2026-01-30 00:10:24.38	26.20	2.85	-56.6	-75.7	3.6	1.51e+00	0	45	104	0	60	238464
2026-01-30 00:10:28.40	26.11	3.11	-56.5	-75.9	3.6	1.51e+00	0	45	104	0	60	243074
2026-01-30 00:10:32.42	26.02	3.37	-56.6	-75.6	3.6	1.51e+00	0	45	104	0	60	234865
2026-01-30 00:10:36.45	25.93	3.64	-56.5	-75.7	3.6	1.51e+00	0	45	104	0	60	239933
2026-01-30 00:10:40.48	25.83	3.91	-56.5	-75.5	3.6	1.51e+00	0	46	104	0	60	233252
2026-01-30 00:10:44.51	25.73	4.19	-56.5	-75.4	3.6	1.51e+00	0	46	104	0	60	230961
2026-01-30 00:10:48.53	25.63	4.46	-56.3	-75.7	3.6	1.51e+00	0	45	104	0	60	239400
2026-01-30 00:10:52.56	25.53	4.74	-56.6	-75.1	3.6	1.51e+00	0	45	104	0	60	222799
2026-01-30 00:10:56.59	25.43	5.02	-56.2	-72.4	3.9	1.49e+00	0	46	104	0	60	163825
2026-01-30 00:11:00.62	25.32	5.30	-55.7	-64.2	9.9	2.39e-02	0	46	0	6291456	60	63889
2026-01-30 00:11:04.64	25.21	5.59	-54.2	-59.0	15.7	0.00e+00	0	46	0	13631488	60	34753
2026-01-30 00:11:08.67	25.10	5.88	-53.0	-56.5	18.0	0.00e+00	0	46	0	20971520	60	26304
2026-01-30 00:11:12.69	24.98	6.17	-54.8	-57.1	17.6	0.00e+00	0	46	0	28311552	60	28016
2026-01-30 00:11:16.72	24.87	6.47	-55.2	-58.3	16.9	4.50e-06	0	46	0	35651584	60	32218
2026-01-30 00:11:20.75	24.75	6.77	-54.2	-56.1	18.8	0.00e+00	0	46	0	44040192	60	24923
2026-01-30 00:11:24.77	24.62	7.07	-54.1	-56.0	19.1	0.00e+00	0	46	0	51380224	60	24738
2026-01-30 00:11:28.80	24.50	7.38	-53.0	-55.9	18.9	0.00e+00	0	45	0	58720256	60	24444
2026-01-30 00:11:32.82	24.37	7.69	-52.6	-55.7	18.8	0.00e+00	0	46	0	66060288	60	23961
2026-01-30 00:11:36.84	24.24	8.00	-53.7	-55.7	19.3	0.00e+00	0	46	0	73400320	60	23804
2026-01-30 00:11:40.86	24.10	8.32	-53.3	-55.8	18.7	0.00e+00	0	46	0	81788928	60	24261
2026-01-30 00:11:44.89	23.96	8.64	-53.4	-55.9	19.0	0.00e+00	0	46	0	89128960	60	24455
2026-01-30 00:11:48.92	23.82	8.96	-54.2	-56.5	18.8	0.00e+00	0	46	0	96468992	60	26083
2026-01-30 00:11:52.95	23.67	9.29	-54.7	-57.4	17.9	0.00e+00	0	46	0	103809024	60	28894
2026-01-30 00:11:56.96	23.53	9.62	-55.1	-58.1	16.9	0.00e+00	0	46	0	111149056	60	31482
2026-01-30 00:12:00.99	23.37	9.96	-55.3	-59.0	16.2	0.00e+00	0	46	0	118489088	60	35098
2026-01-30 00:12:05.03	23.21	10.30	-54.0	-56.9	18.3	0.00e+00	0	46	0	126877696	60	27350
2026-01-30 00:12:09.04	23.05	10.65	-52.6	-55.1	20.1	0.00e+00	0	46	0	134217728	60	22384
2026-01-30 00:12:13.07	22.89	11.00	-52.9	-55.4	19.6	0.00e+00	0	46	0	141557760	60	23172
2026-01-30 00:12:17.09	22.72	11.36	-52.6	-55.4	19.0	0.00e+00	0	46	0	148897792	60	23200
2026-01-30 00:12:21.12	22.54	11.72	-53.0	-55.7	19.0	0.00e+00	0	46	0	157286400	60	23845
2026-01-30 00:12:25.14	22.36	12.08	-52.8	-55.0	19.3	0.00e+00	0	46	0	164626432	60	22095
2026-01-30 00:12:29.16	22.18	12.45	-52.1	-55.3	18.6	0.00e+00	0	46	0	171966464	60	22817
2026-01-30 00:12:33.17	21.99	12.83	-51.7	-55.5	18.4	0.00e+00	0	46	0	179306496	60	23453
2026-01-30 00:12:37.20	21.80	13.21	-53.1	-55.7	18.9	0.00e+00	0	46	0	186646528	60	23797
2026-01-30 00:12:41.22	21.60	13.60	-53.9	-56.1	19.6	0.00e+00	0	46	0	195035136	60	25089
2026-01-30 00:12:45.23	21.39	13.99	-54.0	-55.9	19.5	0.00e+00	0	46	0	202375168	60	24547
2026-01-30 00:12:49.27	21.18	14.39	-54.1	-55.9	19.8	0.00e+00	0	46	0	209715200	60	24412
2026-01-30 00:12:53.30	20.96	14.80	-53.8	-56.7	19.2	0.00e+00	0	46	0	217055232	60	26737
2026-01-30 00:12:57.33	20.73	15.21	-54.5	-57.2	18.6	0.00e+00	0	46	0	224395264	60	28414
2026-01-30 00:13:01.36	20.50	15.63	-52.8	-54.7	21.0	0.00e+00	0	46	0	231735296	60	21170
2026-01-30 00:13:05.38	20.26	16.06	-52.7	-54.6	20.7	0.00e+00	0	46	0	240123904	60	21119
2026-01-30 00:13:09.40	20.02	16.49	-53.3	-54.7	21.1	0.00e+00	0	46	0	247463936	60	21351
2026-01-30 00:13:13.43	19.76	16.93	-53.5	-55.2	20.7	0.00e+00	0	46	0	254803968	60	22437
2026-01-30 00:13:17.45	19.50	17.37	-53.4	-55.3	20.3	0.00e+00	0	46	0	262144000	60	22763
2026-01-30 00:13:21.47	19.23	17.83	-52.6	-54.9	20.7	0.00e+00	0	46	0	269484032	60	21822
2026-01-30 00:13:25.50	18.95	18.29	-52.1	-54.3	20.9	0.00e+00	0	46	0	277872640	60	20354
2026-01-30 00:13:29.52	18.66	18.76	-52.4	-54.3	20.7	0.00e+00	0	46	0	285212672	60	20392
2026-01-30 00:13:33.55	18.37	19.24	-52.8	-54.1	21.5	0.00e+00	0	46	0	292552704	60	19955
2026-01-30 00:13:37.56	18.06	19.73	-52.9	-54.5	20.9	0.00e+00	0	46	0	299892736	60	20718
2026-01-30 00:13:41.58	17.74	20.22	-53.0	-54.3	21.5	0.00e+00	0	46	0	307232768	60	20415
2026-01-30 00:13:45.60	17.41	20.73	-52.5	-54.2	21.5	0.00e+00	0	46	0	315621376	60	20169
2026-01-30 00:13:49.62	17.07	21.24	-52.7	-54.2	21.5	0.00e+00	0	46	0	322961408	60	20189
2026-01-30 00:13:53.64	16.72	21.77	-53.0	-54.4	21.4	0.00e+00	0	46	0	330301440	60	20444
2026-01-30 00:13:57.66	16.35	22.30	-53.0	-54.3	21.6	0.00e+00	0	46	0	337641472	60	20344
2026-01-30 00:14:01.66	15.98	22.84	-53.0	-54.5	21.3	0.00e+00	0	46	0	344981504	60	20735
2026-01-30 00:14:05.68	15.58	23.39	-53.5	-55.0	20.8	0.00e+00	0	46	0	352321536	60	21944
2026-01-30 00:14:09.70	15.18	23.96	-54.0	-55.8	20.2	0.00e+00	0	46	0	360710144	60	24066
2026-01-30 00:14:13.72	14.75	24.53	-54.7	-56.6	19.3	0.00e+00	0	46	0	368050176	60	26602
2026-01-30 00:14:17.75	14.31	25.12	-55.4	-57.5	18.4	0.00e+00	0	46	0	375390208	60	29540
2026-01-30 00:14:21.77	13.85	25.72	-56.0	-58.6	17.7	0.00e+00	0	46	0	382730240	60	33199
2026-01-30 00:14:25.78	13.38	26.32	-57.2	-60.3	15.6	0.00e+00	0	46	0	390070272	60	40705
2026-01-30 00:14:29.81	12.88	26.94	-57.7	-62.1	13.9	1.50e-06	0	46	0	398458880	60	49652
2026-01-30 00:14:33.84	12.37	27.58	-57.8	-64.3	11.3	7.46e-04	0	46	0	405798912	60	64149
2026-01-30 00:14:37.87	11.83	28.22	-58.7	-65.2	10.6	6.52e-03	0	46	0	413138944	60	71385
2026-01-30 00:14:41.88	11.27	28.88	-58.7	-63.4	12.8	8.80e-04	0	46	0	420478976	60	57932
2026-01-30 00:14:45.91	10.69	29.55	-55.9	-58.7	17.4	0.00e+00	0	46	0	428867584	60	33800
2026-01-30 00:14:49.94	10.07	30.23	-55.5	-57.6	18.5	0.00e+00	0	46	0	436207616	60	29598
2026-01-30 00:14:53.97	9.44	30.93	-55.4	-57.3	19.0	0.00e+00	0	46	0	443547648	60	28641
2026-01-30 00:14:58.00	8.77	31.64	-55.4	-57.6	18.4	0.00e+00	0	46	0	450887680	60	29836
2026-01-30 00:15:02.02	8.07	32.35	-55.3	-57.3	18.8	0.00e+00	0	46	0	458227712	60	28785
2026-01-30 00:15:06.05	7.34	33.09	-56.0	-58.1	18.1	0.00e+00	0	46	0	465567744	60	31541
2026-01-30 00:15:10.08	6.58	33.83	-56.2	-58.5	17.9	0.00e+00	0	46	0	473956352	60	32807
2026-01-30 00:15:14.10	5.78	34.59	-56.9	-59.4	16.8	0.00e+00	0	46	0	481296384	60	36730
2026-01-30 00:15:18.13	4.94	35.36	-56.7	-59.2	17.1	0.00e+00	0	46	0	488636416	60	35821
2026-01-30 00:15:22.15	4.06	36.14	-56.8	-59.3	17.1	0.00e+00	0	46	0	495976448	60	35948
2026-01-30 00:15:26.18	3.13	36.93	-56.4	-58.8	17.3	0.00e+00	0	46	0	503316480	60	34170
2026-01-30 00:15:30.20	2.16	37.73	-56.6	-59.2	17.1	0.00e+00	0	46	0	511705088	60	35618
2026-01-30 00:15:34.22	1.14	38.54	-56.8	-59.3	16.9	0.00e+00	0	46	0	519045120	60	36196
2026-01-30 00:15:38.25	0.06	39.36	-57.0	-59.5	16.9	0.00e+00	0	46	0	526385152	60	37153
2026-01-30 00:15:42.29	358.92	40.19	-56.8	-59.1	17.4	0.00e+00	0	46	0	533725184	60	35307
2026-01-30 00:15:46.32	357.73	41.03	-57.2	-59.9	16.7	0.00e+00	0	46	0	542113792	60	38517
2026-01-30 00:15:50.34	356.47	41.86	-56.3	-58.4	18.2	0.00e+00	0	46	0	549453824	60	32475
2026-01-30 00:15:54.36	355.15	42.70	-55.6	-57.5	19.0	0.00e+00	0	46	0	556793856	60	29423
2026-01-30 00:15:58.39	353.75	43.54	-55.8	-57.7	18.9	0.00e+00	0	46	0	564133888	60	30034
2026-01-30 00:16:02.42	352.28	44.38	-56.7	-59.0	17.5	0.00e+00	0	46	0	571473920	60	34943
2026-01-30 00:16:06.43	350.73	45.22	-57.3	-59.9	16.9	0.00e+00	0	46	0	578813952	60	38781
2026-01-30 00:16:10.46	349.09	46.04	-57.1	-59.5	17.3	0.00e+00	0	46	0	587202560	60	37033
2026-01-30 00:16:14.49	347.36	46.86	-57.1	-59.6	17.3	0.00e+00	0	46	0	594542592	60	37204
2026-01-30 00:16:18.52	345.54	47.66	-57.2	-59.6	17.1	0.00e+00	0	46	0	601882624	60	37486
2026-01-30 00:16:22.54	343.63	48.44	-56.7	-58.9	17.8	0.00e+00	0	46	0	609222656	60	34696
2026-01-30 00:16:26.56	341.62	49.20	-56.7	-58.9	18.0	0.00e+00	0	46	0	616562688	60	34513
2026-01-30 00:16:30.59	339.51	49.94	-55.0	-56.6	20.2	0.00e+00	0	46	0	624951296	60	26495
2026-01-30 00:16:34.63	337.28	50.64	-54.4	-55.7	21.1	0.00e+00	0	46	0	632291328	60	23950
2026-01-30 00:16:38.65	334.97	51.30	-54.5	-56.0	20.7	0.00e+00	0	46	0	639631360	60	24624
2026-01-30 00:16:42.68	332.54	51.92	-54.2	-55.5	21.3	0.00e+00	0	46	0	646971392	60	23465
2026-01-30 00:16:46.70	330.02	52.49	-54.6	-56.1	20.7	0.00e+00	0	46	0	654311424	60	24892
2026-01-30 00:16:50.72	327.41	53.01	-54.6	-56.0	20.7	0.00e+00	0	46	0	662700032	60	24825
2026-01-30 00:16:54.75	324.70	53.47	-53.7	-54.9	21.8	0.00e+00	0	46	0	670040064	60	21868
2026-01-30 00:16:58.78	321.91	53.87	-53.0	-54.2	22.4	0.00e+00	0	46	0	677380096	60	20180
2026-01-30 00:17:02.81	319.05	54.19	-52.6	-53.8	22.8	0.00e+00	0	46	0	684720128	60	19096
2026-01-30 00:17:06.84	316.12	54.45	-51.5	-52.5	23.7	0.00e+00	0	46	0	692060160	60	16616
2026-01-30 00:17:10.87	313.16	54.63	-51.3	-52.2	24.1	0.00e+00	0	46	0	700448768	60	16016
2026-01-30 00:17:14.89	310.17	54.73	-51.1	-52.2	24.0	0.00e+00	0	46	0	707788800	60	15898
2026-01-30 00:17:18.91	307.16	54.76	-51.6	-52.6	23.6	0.00e+00	0	46	0	715128832	60	16740
2026-01-30 00:17:22.94	304.16	54.70	-52.0	-53.1	23.3	0.00e+00	0	46	0	722468864	60	17749
2026-01-30 00:17:26.96	301.17	54.57	-52.0	-53.1	23.5	0.00e+00	0	46	0	729808896	60	17642
2026-01-30 00:17:30.99	298.22	54.36	-51.9	-53.0	23.4	0.00e+00	0	46	0	738197504	60	17510
2026-01-30 00:17:35.02	295.32	54.08	-51.1	-52.1	24.2	0.00e+00	0	46	0	745537536	60	15729
2026-01-30 00:17:39.05	292.48	53.72	-50.9	-51.9	24.3	0.00e+00	0	46	0	752877568	60	15394
2026-01-30 00:17:43.07	289.72	53.30	-51.3	-52.4	23.8	0.00e+00	0	46	0	760217600	60	16252
2026-01-30 00:17:47.09	287.05	52.82	-51.8	-52.9	23.3	0.00e+00	0	46	0	767557632	60	17331
2026-01-30 00:17:51.10	284.48	52.28	-53.2	-54.5	21.8	0.00e+00	0	46	0	775946240	60	20845
2026-01-30 00:17:55.12	281.99	51.69	-53.7	-55.1	21.3	0.00e+00	0	46	0	783286272	60	22363
2026-01-30 00:17:59.15	279.60	51.05	-54.2	-55.8	20.4	0.00e+00	0	46	0	790626304	60	24209
2026-01-30 00:18:03.18	277.32	50.38	-53.9	-55.5	20.6	0.00e+00	0	46	0	797966336	60	23334
2026-01-30 00:18:07.20	275.14	49.66	-54.7	-56.8	19.5	0.00e+00	0	46	0	805306368	60	27017
2026-01-30 00:18:11.23	273.06	48.92	-54.5	-56.4	19.7	0.00e+00	0	46	0	813694976	60	25910
2026-01-30 00:18:15.25	271.08	48.15	-55.7	-58.0	18.2	0.00e+00	0	46	0	821035008	60	31011
2026-01-30 00:18:19.28	269.20	47.35	-56.5	-59.4	16.8	0.00e+00	0	46	0	828375040	60	36375
2026-01-30 00:18:23.30	267.41	46.55	-57.4	-60.7	15.6	0.00e+00	0	46	0	835715072	60	42496
2026-01-30 00:18:27.33	265.72	45.72	-56.6	-59.4	16.7	0.00e+00	0	46	0	843055104	60	36362
2026-01-30 00:18:31.35	264.11	44.89	-56.2	-58.7	17.4	0.00e+00	0	46	0	851443712	60	33593
2026-01-30 00:18:35.38	262.59	44.05	-56.1	-58.6	17.4	0.00e+00	0	46	0	858783744	60	33163
2026-01-30 00:18:39.40	261.14	43.21	-55.3	-57.3	18.7	0.00e+00	0	46	0	866123776	60	28651
2026-01-30 00:18:43.42	259.77	42.37	-55.8	-58.0	17.8	0.00e+00	0	46	0	873463808	60	31286
2026-01-30 00:18:47.46	258.46	41.52	-56.1	-58.5	17.4	0.00e+00	0	46	0	880803840	60	32982
2026-01-30 00:18:51.48	257.23	40.69	-56.8	-59.6	16.4	0.00e+00	0	46	0	889192448	60	37593
2026-01-30 00:18:55.51	256.06	39.85	-57.2	-60.3	15.5	0.00e+00	0	46	0	896532480	60	40555
2026-01-30 00:18:59.55	254.94	39.02	-56.6	-59.2	16.6	0.00e+00	0	46	0	903872512	60	35859
2026-01-30 00:19:03.56	253.89	38.21	-56.2	-58.6	16.9	0.00e+00	0	46	0	911212544	60	33489
2026-01-30 00:19:07.59	252.88	37.40	-56.1	-58.4	17.5	0.00e+00	0	46	0	918552576	60	32633
2026-01-30 00:19:11.62	251.92	36.60	-56.0	-58.2	17.8	0.00e+00	0	46	0	926941184	60	31887
2026-01-30 00:19:15.64	251.01	35.81	-55.7	-57.8	18.0	0.00e+00	0	46	0	934281216	60	30485
2026-01-30 00:19:19.67	250.14	35.03	-56.0	-58.2	17.7	0.00e+00	0	46	0	941621248	60	31841
2026-01-30 00:19:23.70	249.32	34.26	-55.8	-57.9	18.0	0.00e+00	0	46	0	948961280	60	30897
2026-01-30 00:19:27.73	248.53	33.50	-56.5	-59.1	16.9	0.00e+00	0	46	0	956301312	60	35179
2026-01-30 00:19:31.76	247.77	32.76	-57.0	-59.9	16.1	0.00e+00	0	46	0	964689920	60	38655
2026-01-30 00:19:35.79	247.05	32.03	-55.3	-57.4	18.3	0.00e+00	0	46	0	972029952	60	29011
2026-01-30 00:19:39.82	246.37	31.31	-55.2	-57.2	18.5	0.00e+00	0	46	0	979369984	60	28482
2026-01-30 00:19:43.84	245.71	30.61	-55.7	-57.9	17.6	0.00e+00	0	46	0	986710016	60	30873
2026-01-30 00:19:47.86	245.08	29.92	-55.2	-57.2	18.4	0.00e+00	0	46	0	994050048	60	28532
2026-01-30 00:19:51.89	244.48	29.24	-55.2	-57.3	18.2	0.00e+00	0	46	0	1002438656	60	28591
2026-01-30 00:19:55.92	243.90	28.57	-55.4	-57.5	17.7	0.00e+00	0	46	0	1009778688	60	29358
2026-01-30 00:19:59.95	243.35	27.91	-54.5	-56.3	19.2	0.00e+00	0	46	0	1017118720	60	25470
2026-01-30 00:20:03.97	242.82	27.27	-54.5	-56.3	19.1	0.00e+00	0	46	0	1024458752	60	25731
2026-01-30 00:20:08.00	242.31	26.64	-55.2	-57.3	18.2	0.00e+00	0	46	0	1031798784	60	28556
2026-01-30 00:20:12.03	241.82	26.02	-55.2	-57.4	18.1	0.00e+00	0	46	0	1040187392	60	28880
2026-01-30 00:20:16.06	241.34	25.42	-54.3	-56.1	19.3	0.00e+00	0	46	0	1047527424	60	25017
2026-01-30 00:20:20.08	240.89	24.82	-54.5	-56.4	18.9	0.00e+00	0	46	0	1054867456	60	25827
2026-01-30 00:20:24.11	240.46	24.24	-54.7	-56.7	18.7	0.00e+00	0	46	0	1062207488	60	26750
2026-01-30 00:20:28.14	240.04	23.67	-53.8	-55.5	19.8	0.00e+00	0	46	0	1069547520	60	23302
2026-01-30 00:20:32.16	239.63	23.10	-53.5	-55.1	20.1	0.00e+00	0	46	0	1077936128	60	22223
2026-01-30 00:20:36.18	239.24	22.55	-53.8	-55.4	19.7	0.00e+00	0	46	0	1085276160	60	23193
2026-01-30 00:20:40.22	238.87	22.01	-53.8	-55.6	19.6	0.00e+00	0	46	0	1092616192	60	23494
2026-01-30 00:20:44.24	238.50	21.48	-53.8	-55.5	19.7	0.00e+00	0	46	0	1099956224	60	23461
2026-01-30 00:20:48.26	238.15	20.96	-53.5	-55.2	19.8	0.00e+00	0	46	0	1107296256	60	22576
2026-01-30 00:20:52.27	237.82	20.45	-53.8	-55.5	19.4	0.00e+00	0	46	0	1115684864	60	23452
2026-01-30 00:20:56.29	237.49	19.95	-54.0	-55.8	19.3	0.00e+00	0	46	0	1123024896	60	24180
2026-01-30 00:21:00.31	237.17	19.45	-53.7	-55.4	19.5	0.00e+00	0	46	0	1130364928	60	23126
2026-01-30 00:21:04.34	236.87	18.97	-53.2	-54.8	20.1	0.00e+00	0	46	0	1137704960	60	21446
2026-01-30 00:21:08.36	236.57	18.49	-53.0	-54.6	20.1	0.00e+00	0	46	0	1145044992	60	21055
2026-01-30 00:21:12.39	236.29	18.02	-53.2	-54.9	19.8	0.00e+00	0	46	0	1152385024	60	21663
2026-01-30 00:21:16.42	236.01	17.56	-53.6	-55.4	19.3	0.00e+00	0	46	0	1160773632	60	23003
2026-01-30 00:21:20.44	235.74	17.11	-53.9	-55.8	19.0	0.00e+00	0	46	0	1168113664	60	24064
2026-01-30 00:21:24.47	235.48	16.66	-54.1	-56.1	18.6	0.00e+00	0	46	0	1175453696	60	25149
2026-01-30 00:21:28.49	235.23	16.22	-55.0	-57.4	17.4	0.00e+00	0	46	0	1182793728	60	29101
2026-01-30 00:21:32.51	234.98	15.79	-55.3	-58.0	16.6	0.00e+00	0	46	0	1191182336	60	31188
2026-01-30 00:21:36.54	234.74	15.37	-56.0	-59.4	15.1	0.00e+00	0	46	0	1198522368	60	36632
2026-01-30 00:21:40.58	234.51	14.95	-55.9	-59.2	15.3	7.00e-07	0	46	0	1205862400	60	35666
2026-01-30 00:21:44.60	234.29	14.54	-56.2	-59.8	14.4	7.00e-07	0	46	0	1213202432	60	38439
2026-01-30 00:21:48.63	234.07	14.14	-56.5	-60.6	13.8	6.10e-06	0	46	0	1220542464	60	41769
2026-01-30 00:21:52.66	233.86	13.74	-56.3	-60.0	14.2	7.00e-07	0	46	0	1228931072	60	39012
2026-01-30 00:21:56.69	233.65	13.35	-54.0	-56.1	18.2	0.00e+00	0	46	0	1236271104	60	25127
2026-01-30 00:22:00.71	233.45	12.96	-53.7	-55.7	18.6	0.00e+00	0	46	0	1243611136	60	23969
2026-01-30 00:22:04.74	233.26	12.58	-53.9	-56.0	18.2	0.00e+00	0	46	0	1250951168	60	24861
2026-01-30 00:22:08.78	233.07	12.20	-54.4	-56.7	17.5	0.00e+00	0	46	0	1258291200	60	26840
2026-01-30 00:22:12.80	232.88	11.83	-54.2	-56.5	17.7	0.00e+00	0	46	0	1266679808	60	26172
2026-01-30 00:22:16.83	232.70	11.47	-54.1	-56.3	17.9	0.00e+00	0	46	0	1274019840	60	25460
2026-01-30 00:22:20.86	232.53	11.11	-54.5	-56.9	17.2	0.00e+00	0	46	0	1281359872	60	27271
2026-01-30 00:22:24.89	232.36	10.75	-54.4	-56.8	17.3	0.00e+00	0	46	0	1288699904	60	27193
2026-01-30 00:22:28.92	232.19	10.40	-54.4	-56.9	17.2	0.00e+00	0	46	0	1296039936	60	27333
2026-01-30 00:22:32.95	232.03	10.06	-54.3	-56.8	17.1	0.00e+00	0	46	0	1304428544	60	27129
2026-01-30 00:22:36.98	231.87	9.72	-54.8	-57.5	16.4	0.00e+00	0	46	0	1311768576	60	29492
2026-01-30 00:22:41.01	231.71	9.38	-55.2	-58.3	15.6	0.00e+00	0	46	0	1319108608	60	32306
2026-01-30 00:22:45.03	231.56	9.05	-53.6	-55.8	17.9	0.00e+00	0	46	0	1326448640	60	24147
2026-01-30 00:22:49.06	231.42	8.72	-53.8	-56.1	17.6	0.00e+00	0	46	0	1333788672	60	25114
2026-01-30 00:22:53.09	231.27	8.40	-54.0	-56.4	17.2	0.00e+00	0	46	0	1342177280	60	25859
2026-01-30 00:22:57.12	231.13	8.08	-54.0	-56.4	17.2	0.00e+00	0	46	0	1349517312	60	25943
2026-01-30 00:23:01.14	231.00	7.76	-54.2	-56.8	16.7	0.00e+00	0	46	0	1356857344	60	27142
2026-01-30 00:23:05.15	230.87	7.45	-54.4	-57.1	16.4	0.00e+00	0	46	0	1364197376	60	28051
2026-01-30 00:23:09.18	230.74	7.14	-54.6	-57.5	16.0	0.00e+00	0	46	0	1371537408	60	29529
2026-01-30 00:23:13.21	230.61	6.84	-54.6	-57.6	16.0	0.00e+00	0	46	0	1379926016	60	29576
2026-01-30 00:23:17.24	230.48	6.54	-54.7	-57.7	15.9	0.00e+00	0	46	0	1387266048	60	30033
2026-01-30 00:23:21.27	230.36	6.24	-54.8	-57.8	15.7	0.00e+00	0	46	0	1394606080	60	30426
2026-01-30 00:23:25.30	230.24	5.94	-58.1	-74.1	3.6	9.52e-01	0	46	104	1401946112	60	197827
2026-01-30 00:23:29.33	230.13	5.65	-59.5	-75.9	3.6	1.51e+00	0	46	104	1401946112	60	243811
2026-01-30 00:23:33.36	230.01	5.36	-60.5	-77.0	3.6	1.51e+00	0	46	104	1401946112	60	275927
2026-01-30 00:23:37.38	229.90	5.07	-61.3	-77.6	3.6	1.51e+00	0	46	104	1401946112	60	298178
2026-01-30 00:23:41.40	229.79	4.79	-62.1	-78.4	3.6	1.51e+00	0	46	104	1401946112	60	327193
2026-01-30 00:23:45.41	229.69	4.51	-62.1	-78.6	3.6	1.51e+00	0	46	104	1401946112	60	332298
2026-01-30 00:23:49.43	229.58	4.24	-60.6	-78.6	3.6	1.51e+00	0	46	104	1401946112	60	334427
2026-01-30 00:23:53.45	229.48	3.96	-61.7	-78.9	3.6	1.51e+00	0	46	104	1401946112	60	345496
2026-01-30 00:23:57.47	229.38	3.69	-61.7	-78.9	3.6	1.51e+00	0	46	104	1401946112	60	345218
2026-01-30 00:24:01.50	229.28	3.42	-61.7	-78.9	3.6	1.51e+00	0	46	104	1401946112	60	346273
2026-01-30 00:24:05.52	229.19	3.16	-61.7	-78.8	3.6	1.51e+00	0	46	104	1401946112	60	343051
2026-01-30 00:24:09.55	229.09	2.89	-61.7	-78.8	3.6	1.51e+00	0	46	104	1401946112	60	342612
2026-01-30 00:24:13.57	229.00	2.63	-61.5	-78.8	3.6	1.51e+00	0	46	104	1401946112	60	339367
2026-01-30 00:24:17.59	228.91	2.37	-61.5	-78.7	3.6	1.51e+00	0	46	104	1401946112	60	337776
2026-01-30 00:24:21.61	228.82	2.11	-61.5	-78.7	3.6	1.51e+00	0	46	104	1401946112	60	336689
2026-01-30 00:24:25.63	228.74	1.86	-61.4	-78.7	3.6	1.51e+00	0	46	104	1401946112	60	335804
2026-01-30 00:24:29.66	228.65	1.61	-61.5	-78.7	3.6	1.51e+00	0	46	104	1401946112	60	337822
2026-01-30 00:24:33.69	228.57	1.35	-61.4	-78.5	3.6	1.51e+00	0	46	104	1401946112	60	330714
2026-01-30 00:24:37.71	228.49	1.11	-61.4	-78.6	3.6	1.51e+00	0	46	104	1401946112	60	331827
2026-01-30 00:24:41.74	228.41	0.86	-61.5	-78.6	3.6	1.51e+00	0	46	104	1401946112	60	331964
2026-01-30 00:24:45.77	228.33	0.61	-61.5	-78.6	3.5	1.51e+00	0	46	104	1401946112	60	334167
2026-01-30 00:24:49.80	228.25	0.37	-61.5	-78.5	3.6	1.51e+00	0	46	104	1401946112	60	331352
2026-01-30 00:24:53.82	228.17	0.13	-61.4	-78.6	3.6	1.51e+00	0	46	104	1401946112	60	331767

#Closed at: 2026-01-30 00:24:57
#Recorded file [1401 MB]: D:/Data/35015_260130_032325.dat