passes_logs/2026/01/30/R3.2S-Naryan-Mar/R3.2S-Naryan-Mar__20260130_114516_AQUA_rec.log

#Pass ID: 20260130_114516_AQUA
#Satellite: AQUA
#Configuration: AQUA
#almurnet v.1.7.20240730
#Start time: 2026-01-30 11:45:19

#Version: 2.2.20231116
#Station: R3.2S-Naryan-Mar
#Location: 53.008057 lon 67.646978 lat
#TLE: 1 27424U 02022A   26029.54575153  .00001738  00000+0  35736-3 0  9994
#TLE: 2 27424  98.4104 356.2197 0001804  61.7823  56.0643 14.61874165263019

#Time	Az	El	Level	Level2	SNR	BER	BlckErr	Temp	State	Recorded	gain1	gain2
2026-01-30 11:45:19.78	196.79	0.17	-56.2	-76.6	3.3	3.03e+01	0	44	0	0	60	258463
2026-01-30 11:45:23.80	197.02	0.40	-58.7	-78.9	3.5	3.03e+01	0	44	104	0	60	334664
2026-01-30 11:45:27.83	197.25	0.63	-58.8	-78.4	3.5	3.03e+01	0	44	104	0	60	315036
2026-01-30 11:45:31.86	197.48	0.86	-58.5	-78.1	3.5	3.03e+01	0	44	104	0	60	306514
2026-01-30 11:45:35.88	197.72	1.10	-57.8	-77.6	3.5	3.03e+01	0	44	104	0	60	289232
2026-01-30 11:45:39.91	197.96	1.34	-56.8	-76.6	3.5	3.03e+01	0	44	104	0	60	255777
2026-01-30 11:45:43.94	198.21	1.58	-55.3	-75.6	3.5	3.03e+01	0	44	104	0	60	229556
2026-01-30 11:45:47.97	198.46	1.82	-55.5	-75.5	3.5	3.03e+01	0	45	104	0	60	225510
2026-01-30 11:45:51.99	198.71	2.07	-53.7	-74.3	3.5	3.03e+01	0	44	104	0	60	197728
2026-01-30 11:45:56.01	198.97	2.31	-53.6	-74.2	3.5	3.03e+01	0	44	104	0	60	194700
2026-01-30 11:46:00.03	199.23	2.56	-53.5	-74.1	3.5	3.03e+01	0	44	104	0	60	192213
2026-01-30 11:46:04.06	199.50	2.81	-53.6	-74.1	3.5	3.03e+01	0	44	104	0	60	192307
2026-01-30 11:46:08.09	199.77	3.06	-53.6	-74.0	3.5	3.03e+01	0	45	104	0	60	191569
2026-01-30 11:46:12.12	200.05	3.32	-53.5	-74.0	3.5	3.03e+01	0	44	104	0	60	190951
2026-01-30 11:46:16.14	200.33	3.57	-53.5	-74.0	3.5	3.03e+01	0	44	104	0	60	190582
2026-01-30 11:46:20.16	200.62	3.83	-53.5	-73.9	3.5	3.03e+01	0	45	104	0	60	188396
2026-01-30 11:46:24.17	200.91	4.09	-53.4	-73.7	3.5	3.03e+01	0	45	104	0	60	184456
2026-01-30 11:46:28.20	201.21	4.35	-53.4	-73.8	3.5	3.03e+01	0	45	104	0	60	185687
2026-01-30 11:46:32.23	201.51	4.62	-53.4	-73.3	3.5	3.03e+01	0	44	104	0	60	175054
2026-01-30 11:46:36.25	201.82	4.88	-53.3	-73.0	3.5	3.03e+01	0	45	104	0	60	170632
2026-01-30 11:46:40.28	202.14	5.15	-53.3	-69.7	4.5	3.03e+01	0	45	104	0	60	116598
2026-01-30 11:46:44.31	202.46	5.43	-52.9	-63.5	9.1	3.03e+01	0	45	0	1572864	60	57111
2026-01-30 11:46:48.33	202.79	5.70	-51.0	-55.8	17.7	3.03e+01	0	45	0	8912896	60	23418
2026-01-30 11:46:52.36	203.12	5.98	-50.5	-54.7	18.6	3.03e+01	0	45	0	16252928	60	20630
2026-01-30 11:46:56.38	203.46	6.26	-47.9	-50.4	22.8	3.03e+01	0	45	0	24117248	60	12641
2026-01-30 11:47:00.41	203.81	6.54	-48.1	-50.7	22.4	3.03e+01	0	45	0	31457280	60	13021
2026-01-30 11:47:04.43	204.17	6.83	-47.7	-50.1	23.0	3.03e+01	0	45	0	39321600	60	12148
2026-01-30 11:47:08.47	204.53	7.11	-47.7	-50.0	23.1	3.03e+01	0	45	0	46661632	60	12092
2026-01-30 11:47:12.50	204.90	7.40	-47.8	-50.0	23.3	3.03e+01	0	45	0	54525952	60	11994
2026-01-30 11:47:16.52	205.28	7.70	-47.8	-50.0	23.4	3.03e+01	0	45	0	61865984	60	12061
2026-01-30 11:47:20.55	205.66	7.99	-47.5	-49.6	23.7	3.03e+01	0	44	0	69206016	60	11473
2026-01-30 11:47:24.57	206.06	8.29	-47.5	-49.6	23.8	3.03e+01	0	44	0	76546048	60	11499
2026-01-30 11:47:28.59	206.46	8.59	-47.5	-49.6	23.9	3.03e+01	0	44	0	84410368	60	11526
2026-01-30 11:47:32.62	206.87	8.90	-47.6	-49.6	23.9	3.03e+01	0	45	0	91750400	60	11507
2026-01-30 11:47:36.64	207.29	9.21	-47.6	-49.6	24.1	3.03e+01	0	45	0	99614720	60	11465
2026-01-30 11:47:40.66	207.72	9.52	-47.6	-49.6	24.1	3.03e+01	0	45	0	106954752	60	11436
2026-01-30 11:47:44.68	208.16	9.83	-47.4	-49.4	24.3	3.03e+01	0	45	0	114294784	60	11224
2026-01-30 11:47:48.71	208.61	10.15	-47.3	-49.3	24.3	3.03e+01	0	45	0	122159104	60	11056
2026-01-30 11:47:52.74	209.07	10.47	-47.3	-49.4	24.2	3.03e+01	0	45	0	129499136	60	11215
2026-01-30 11:47:56.75	209.54	10.79	-47.3	-49.3	24.2	3.03e+01	0	45	0	137363456	60	11106
2026-01-30 11:48:00.78	210.02	11.12	-47.3	-49.3	24.3	3.03e+01	0	45	0	144703488	60	11038
2026-01-30 11:48:04.80	210.51	11.44	-47.3	-49.3	24.3	3.03e+01	0	44	0	152567808	60	11056
2026-01-30 11:48:08.83	211.02	11.78	-47.2	-49.1	24.5	3.03e+01	0	45	0	159907840	60	10894
2026-01-30 11:48:12.86	211.54	12.11	-47.3	-49.1	24.8	3.03e+01	0	45	0	167247872	60	10907
2026-01-30 11:48:16.88	212.06	12.45	-47.7	-49.5	24.8	3.03e+01	0	45	0	174587904	60	11360
2026-01-30 11:48:20.92	212.61	12.79	-47.5	-49.3	24.9	3.03e+01	0	45	0	182452224	60	11093
2026-01-30 11:48:24.95	213.16	13.14	-47.4	-49.3	24.9	3.03e+01	0	45	0	189792256	60	11065
2026-01-30 11:48:28.97	213.73	13.49	-47.4	-49.6	24.3	3.03e+01	0	45	0	197656576	60	11451
2026-01-30 11:48:33.00	214.31	13.84	-47.4	-49.5	24.3	3.03e+01	0	45	0	204996608	60	11350
2026-01-30 11:48:37.01	214.91	14.19	-47.5	-49.6	24.3	3.03e+01	0	45	0	212860928	60	11523
2026-01-30 11:48:41.03	215.52	14.55	-47.5	-49.7	24.2	3.03e+01	0	45	0	220200960	60	11606
2026-01-30 11:48:45.06	216.15	14.91	-47.7	-49.9	24.3	3.03e+01	0	45	0	227540992	60	11911
2026-01-30 11:48:49.10	216.79	15.28	-47.9	-49.7	25.3	3.03e+01	0	45	0	235405312	60	11673
2026-01-30 11:48:53.12	217.45	15.64	-48.1	-49.8	25.4	3.03e+01	0	45	0	242745344	60	11753
2026-01-30 11:48:57.15	218.13	16.01	-48.2	-50.0	25.0	3.03e+01	0	45	0	250609664	60	12048
2026-01-30 11:49:01.18	218.83	16.38	-48.0	-49.8	25.2	3.03e+01	0	45	0	257949696	60	11773
2026-01-30 11:49:05.21	219.54	16.76	-48.2	-49.9	25.5	3.03e+01	0	45	0	265814016	60	11916
2026-01-30 11:49:09.24	220.27	17.13	-48.0	-49.7	25.6	3.03e+01	0	45	0	273154048	60	11684
2026-01-30 11:49:13.28	221.02	17.51	-48.2	-50.0	25.4	3.03e+01	0	45	0	280494080	60	12059
2026-01-30 11:49:17.31	221.79	17.89	-48.3	-50.0	25.6	3.03e+01	0	45	0	288358400	60	12065
2026-01-30 11:49:21.34	222.59	18.27	-48.3	-50.1	25.4	3.03e+01	0	45	0	295698432	60	12167
2026-01-30 11:49:25.36	223.40	18.65	-48.5	-50.3	25.0	3.03e+01	0	45	0	303038464	60	12441
2026-01-30 11:49:29.38	224.23	19.04	-48.3	-50.0	25.4	3.03e+01	0	45	0	310902784	60	12052
2026-01-30 11:49:33.41	225.08	19.42	-48.3	-50.0	25.6	3.03e+01	0	45	0	318242816	60	11968
2026-01-30 11:49:37.43	225.96	19.81	-48.4	-50.1	25.3	3.03e+01	0	45	0	326107136	60	12169
2026-01-30 11:49:41.45	226.85	20.19	-48.1	-49.9	25.5	3.03e+01	0	45	0	333447168	60	11866
2026-01-30 11:49:45.48	227.78	20.58	-48.3	-50.0	25.5	3.03e+01	0	45	0	340787200	60	11997
2026-01-30 11:49:49.51	228.73	20.96	-48.2	-49.9	25.6	3.03e+01	0	45	0	348651520	60	11925
2026-01-30 11:49:53.53	229.70	21.34	-48.5	-50.2	25.4	3.03e+01	0	45	0	355991552	60	12307
2026-01-30 11:49:57.56	230.69	21.72	-48.3	-50.0	25.6	3.03e+01	0	45	0	363855872	60	12091
2026-01-30 11:50:01.59	231.71	22.10	-48.6	-50.4	25.3	3.03e+01	0	45	0	371195904	60	12553
2026-01-30 11:50:05.62	232.76	22.48	-48.4	-50.2	25.3	3.03e+01	0	45	0	379060224	60	12297
2026-01-30 11:50:09.64	233.83	22.85	-48.5	-50.3	25.3	3.03e+01	0	45	0	386400256	60	12383
2026-01-30 11:50:13.68	234.94	23.22	-48.5	-50.3	25.2	3.03e+01	0	45	0	393740288	60	12405
2026-01-30 11:50:17.70	236.06	23.58	-48.5	-50.3	25.2	3.03e+01	0	45	0	401604608	60	12460
2026-01-30 11:50:21.73	237.22	23.93	-49.1	-59.6	3.6	3.03e+01	0	45	104	406323200	60	36193
2026-01-30 11:50:25.75	238.39	24.28	-53.2	-65.3	3.5	3.03e+01	0	45	104	406323200	60	70286
2026-01-30 11:50:29.77	239.60	24.62	-50.2	-61.0	3.5	3.03e+01	0	45	104	406323200	60	42892
2026-01-30 11:50:33.79	240.83	24.96	-52.1	-63.5	3.8	3.03e+01	0	45	104	406323200	60	56846
2026-01-30 11:50:37.81	242.09	25.28	-49.8	-60.6	3.5	3.03e+01	0	45	104	406323200	60	40615
2026-01-30 11:50:41.84	243.37	25.60	-52.8	-65.1	3.5	3.03e+01	0	45	104	406323200	60	68261
2026-01-30 11:50:45.87	244.68	25.90	-50.8	-62.0	3.5	3.03e+01	0	45	104	406323200	60	47950
2026-01-30 11:50:49.88	246.02	26.19	-55.2	-70.8	3.5	3.03e+01	0	45	104	406323200	60	131914
2026-01-30 11:50:53.91	247.38	26.47	-49.9	-60.7	3.5	3.03e+01	0	45	104	406323200	60	41382
2026-01-30 11:50:57.94	248.77	26.73	-51.8	-63.3	3.5	3.03e+01	0	45	104	406323200	60	55625
2026-01-30 11:51:01.97	250.17	26.99	-49.6	-60.3	3.5	3.03e+01	0	45	104	406323200	60	39595
2026-01-30 11:51:06.01	251.61	27.22	-51.1	-62.4	3.5	3.03e+01	0	45	104	406323200	60	49961
2026-01-30 11:51:10.03	253.06	27.44	-49.5	-60.1	3.5	3.03e+01	0	45	104	406323200	60	38536
2026-01-30 11:51:14.06	254.53	27.64	-52.5	-64.5	3.5	3.03e+01	0	45	104	406323200	60	64097
2026-01-30 11:51:18.09	256.02	27.82	-50.9	-62.0	3.5	3.03e+01	0	45	104	406323200	60	47933
2026-01-30 11:51:22.12	257.53	27.98	-55.9	-72.6	3.5	3.03e+01	0	45	104	406323200	60	163184
2026-01-30 11:51:26.15	259.05	28.13	-49.2	-60.0	3.5	3.03e+01	0	45	104	406323200	60	38115
2026-01-30 11:51:30.17	260.58	28.25	-50.6	-61.8	3.5	3.03e+01	0	45	104	406323200	60	46850
2026-01-30 11:51:34.20	262.12	28.35	-49.6	-60.2	3.5	3.03e+01	0	45	104	406323200	60	38968
2026-01-30 11:51:38.22	263.67	28.43	-51.4	-62.9	3.5	3.03e+01	0	45	104	406323200	60	53135
2026-01-30 11:51:42.25	265.23	28.49	-51.4	-62.7	3.5	3.03e+01	0	45	104	406323200	60	51938
2026-01-30 11:51:46.27	266.79	28.53	-55.7	-71.5	3.5	3.03e+01	0	45	104	406323200	60	143655
2026-01-30 11:51:50.31	268.36	28.54	-49.5	-60.3	3.5	3.03e+01	0	45	104	406323200	60	39233
2026-01-30 11:51:54.34	269.93	28.54	-50.4	-61.6	3.5	3.03e+01	0	45	104	406323200	60	45565
2026-01-30 11:51:58.36	271.49	28.51	-49.6	-60.6	3.5	3.03e+01	0	45	104	406323200	60	40895
2026-01-30 11:52:02.38	273.04	28.46	-54.3	-68.7	3.5	3.03e+01	0	45	104	406323200	60	103880
2026-01-30 11:52:06.41	274.60	28.38	-48.4	-59.3	3.5	3.03e+01	0	45	104	406323200	60	35103
2026-01-30 11:52:10.43	276.14	28.29	-49.8	-60.6	3.5	3.03e+01	0	45	104	406323200	60	40924
2026-01-30 11:52:14.46	277.68	28.17	-49.7	-61.2	3.5	3.03e+01	0	45	104	406323200	60	43591
2026-01-30 11:52:18.49	279.20	28.04	-53.0	-65.2	3.5	3.03e+01	0	45	104	406323200	60	69188
2026-01-30 11:52:22.51	280.70	27.88	-49.2	-61.0	3.5	3.03e+01	0	45	104	406323200	60	42442
2026-01-30 11:52:26.53	282.19	27.70	-48.2	-60.1	3.5	3.03e+01	0	45	104	406323200	60	38491
2026-01-30 11:52:30.55	283.67	27.51	-48.1	-59.8	3.5	3.03e+01	0	45	104	406323200	60	37375
2026-01-30 11:52:34.58	285.12	27.30	-51.7	-63.1	3.5	3.03e+01	0	45	104	406323200	60	54500
2026-01-30 11:52:38.60	286.55	27.07	-50.6	-61.6	3.5	3.03e+01	0	45	104	406323200	60	45778
2026-01-30 11:52:42.63	287.97	26.83	-49.5	-60.0	3.5	3.03e+01	0	45	104	406323200	60	38215
2026-01-30 11:52:46.65	289.35	26.57	-48.9	-59.6	3.6	3.03e+01	0	45	104	406323200	60	36371
2026-01-30 11:52:50.68	290.72	26.30	-49.5	-60.3	3.5	3.03e+01	0	45	104	406323200	60	39307
2026-01-30 11:52:54.71	292.06	26.01	-50.3	-61.5	3.5	3.03e+01	0	45	104	406323200	60	45138
2026-01-30 11:52:58.73	293.38	25.71	-49.4	-60.2	3.5	3.03e+01	0	45	104	406323200	60	38790
2026-01-30 11:53:02.75	294.67	25.40	-49.0	-59.9	3.6	3.03e+01	0	45	104	406323200	60	37484
2026-01-30 11:53:06.78	295.93	25.08	-49.0	-60.0	3.5	3.03e+01	0	45	104	406323200	60	38190
2026-01-30 11:53:10.80	297.17	24.76	-49.8	-61.2	3.5	3.03e+01	0	45	104	406323200	60	43928
2026-01-30 11:53:14.83	298.38	24.42	-49.5	-60.7	3.5	3.03e+01	0	45	104	406323200	60	41129
2026-01-30 11:53:18.85	299.56	24.07	-49.0	-60.0	3.5	3.03e+01	0	45	104	406323200	60	38092
2026-01-30 11:53:22.88	300.72	23.72	-49.1	-60.1	3.5	3.03e+01	0	45	104	406323200	60	38647
2026-01-30 11:53:26.91	301.86	23.36	-50.6	-62.0	3.5	3.03e+01	0	45	104	406323200	60	47798
2026-01-30 11:53:30.93	302.96	23.00	-50.9	-62.2	3.5	3.03e+01	0	45	104	406323200	60	49141
2026-01-30 11:53:34.96	304.04	22.63	-50.2	-61.3	3.5	3.03e+01	0	45	104	406323200	60	44038
2026-01-30 11:53:38.97	305.09	22.26	-49.4	-60.1	3.5	3.03e+01	0	45	104	406323200	60	38264
2026-01-30 11:53:42.99	306.11	21.89	-51.7	-63.2	3.5	3.03e+01	0	45	104	406323200	60	54883
2026-01-30 11:53:47.02	307.11	21.51	-50.6	-61.7	3.5	3.03e+01	0	45	104	406323200	60	46457
2026-01-30 11:53:51.05	308.09	21.13	-48.4	-59.0	3.5	3.03e+01	0	45	104	406323200	60	33901
2026-01-30 11:53:55.06	309.04	20.75	-49.2	-60.1	3.5	3.03e+01	0	45	104	406323200	60	38686
2026-01-30 11:53:59.10	309.97	20.37	-50.0	-60.9	3.5	3.03e+01	0	45	104	406323200	60	42117
2026-01-30 11:54:03.12	310.87	19.99	-51.5	-63.1	3.5	3.03e+01	0	45	104	406323200	60	54246
2026-01-30 11:54:07.14	311.75	19.61	-48.5	-59.1	3.5	3.03e+01	0	45	104	406323200	60	34421
2026-01-30 11:54:11.17	312.61	19.22	-49.6	-60.5	3.5	3.03e+01	0	45	104	406323200	60	40144
2026-01-30 11:54:15.20	313.45	18.84	-49.6	-60.4	3.5	3.03e+01	0	45	104	406323200	60	40051
2026-01-30 11:54:19.22	314.27	18.46	-50.7	-62.0	3.5	3.03e+01	0	45	104	406323200	60	48006
2026-01-30 11:54:23.24	315.06	18.08	-49.2	-60.0	3.6	3.03e+01	0	45	104	406323200	60	37892
2026-01-30 11:54:27.26	315.84	17.71	-49.6	-60.4	3.5	3.03e+01	0	45	104	406323200	60	39758
2026-01-30 11:54:31.29	316.59	17.33	-49.8	-60.8	3.5	3.03e+01	0	45	104	406323200	60	41796
2026-01-30 11:54:35.32	317.33	16.96	-51.4	-63.0	3.5	3.03e+01	0	45	104	406323200	60	53458
2026-01-30 11:54:39.34	318.04	16.59	-51.0	-62.5	3.5	3.03e+01	0	45	104	406323200	60	50856
2026-01-30 11:54:43.36	318.74	16.22	-49.3	-60.1	3.5	3.03e+01	0	45	104	406323200	60	38484
2026-01-30 11:54:47.39	319.43	15.85	-48.7	-59.6	3.5	3.03e+01	0	45	104	406323200	60	36171
2026-01-30 11:54:51.41	320.09	15.48	-50.3	-61.6	3.5	3.03e+01	0	45	104	406323200	60	45772
2026-01-30 11:54:55.42	320.74	15.12	-48.9	-59.5	3.5	3.03e+01	0	45	104	406323200	60	36031
2026-01-30 11:54:59.45	321.37	14.76	-49.6	-61.2	3.5	3.03e+01	0	45	104	406323200	60	43442
2026-01-30 11:55:03.48	321.99	14.41	-50.4	-62.6	3.5	3.03e+01	0	45	104	406323200	60	51133
2026-01-30 11:55:07.51	322.59	14.05	-51.2	-63.3	3.5	3.03e+01	0	45	104	406323200	60	55737
2026-01-30 11:55:11.53	323.17	13.71	-51.3	-63.5	3.5	3.03e+01	0	45	104	406323200	60	56901
2026-01-30 11:55:15.56	323.75	13.36	-51.3	-63.6	3.5	3.03e+01	0	45	104	406323200	60	57660
2026-01-30 11:55:19.60	324.31	13.01	-50.6	-63.0	3.5	3.03e+01	0	45	104	406323200	60	53980
2026-01-30 11:55:23.62	324.85	12.67	-52.5	-65.9	3.5	3.03e+01	0	45	104	406323200	60	74895
2026-01-30 11:55:27.65	325.39	12.33	-52.4	-65.2	3.5	3.03e+01	0	45	104	406323200	60	68925
2026-01-30 11:55:31.67	325.91	12.00	-52.5	-65.6	3.5	3.03e+01	0	45	104	406323200	60	72871
2026-01-30 11:55:35.71	326.42	11.67	-52.5	-66.2	3.5	3.03e+01	0	45	104	406323200	60	77824
2026-01-30 11:55:39.73	326.91	11.34	-53.5	-68.2	3.5	3.03e+01	0	45	104	406323200	60	97262
2026-01-30 11:55:43.75	327.40	11.01	-53.6	-68.7	3.5	3.03e+01	0	45	104	406323200	60	103915
2026-01-30 11:55:47.78	327.87	10.69	-54.1	-69.6	3.5	3.03e+01	0	45	104	406323200	60	114246
2026-01-30 11:55:51.81	328.34	10.37	-54.2	-70.3	3.5	3.03e+01	0	45	104	406323200	60	124507
2026-01-30 11:55:55.84	328.79	10.06	-54.5	-71.9	3.5	3.03e+01	0	45	104	406323200	60	149220
2026-01-30 11:55:59.86	329.24	9.74	-54.8	-73.4	3.5	3.03e+01	0	45	104	406323200	60	178124
2026-01-30 11:56:03.89	329.67	9.43	-54.6	-72.8	3.5	3.03e+01	0	45	104	406323200	60	166155
2026-01-30 11:56:07.92	330.10	9.13	-54.9	-74.0	3.5	3.03e+01	0	45	104	406323200	60	190475
2026-01-30 11:56:11.94	330.51	8.82	-55.0	-74.2	3.5	3.03e+01	0	45	104	406323200	60	194225
2026-01-30 11:56:15.97	330.92	8.52	-55.1	-74.7	3.5	3.03e+01	0	45	104	406323200	60	206965
2026-01-30 11:56:19.99	331.32	8.22	-54.9	-74.8	3.5	3.03e+01	0	45	104	406323200	60	209904
2026-01-30 11:56:24.01	331.71	7.93	-54.8	-74.8	3.5	3.03e+01	0	45	104	406323200	60	209270
2026-01-30 11:56:28.03	332.09	7.64	-54.7	-74.8	3.5	3.03e+01	0	45	104	406323200	60	210009
2026-01-30 11:56:32.06	332.46	7.35	-54.8	-74.9	3.5	3.03e+01	0	45	104	406323200	60	210999
2026-01-30 11:56:36.09	332.83	7.06	-54.8	-74.7	3.5	3.03e+01	0	45	104	406323200	60	206777
2026-01-30 11:56:40.12	333.19	6.78	-54.6	-74.6	3.5	3.03e+01	0	45	104	406323200	60	204328
2026-01-30 11:56:44.15	333.54	6.49	-54.4	-74.4	3.5	3.03e+01	0	45	104	406323200	60	200456
2026-01-30 11:56:48.17	333.88	6.21	-54.1	-74.2	3.5	3.03e+01	0	45	104	406323200	60	194395
2026-01-30 11:56:52.20	334.22	5.94	-54.7	-74.6	3.5	3.03e+01	0	45	104	406323200	60	204907
2026-01-30 11:56:56.21	334.55	5.67	-56.0	-76.2	3.5	3.03e+01	0	45	104	406323200	60	245413
2026-01-30 11:57:00.23	334.88	5.39	-55.2	-75.5	3.6	3.03e+01	0	45	104	406323200	60	227615
2026-01-30 11:57:04.27	335.20	5.12	-56.3	-77.4	3.5	3.03e+01	0	45	104	406323200	60	281975
2026-01-30 11:57:08.30	335.51	4.86	-57.1	-77.5	3.5	3.03e+01	0	45	104	406323200	60	286920
2026-01-30 11:57:12.32	335.82	4.59	-57.3	-77.1	3.5	3.03e+01	0	45	104	406323200	60	273158
2026-01-30 11:57:16.35	336.12	4.33	-57.2	-77.3	3.5	3.03e+01	0	45	104	406323200	60	277987
2026-01-30 11:57:20.37	336.42	4.07	-57.2	-78.0	3.5	3.03e+01	0	45	104	406323200	60	300969
2026-01-30 11:57:24.40	336.71	3.81	-57.5	-78.3	3.5	3.03e+01	0	45	104	406323200	60	312321
2026-01-30 11:57:28.42	337.00	3.56	-58.0	-78.3	3.5	3.03e+01	0	45	104	406323200	60	311156
2026-01-30 11:57:32.45	337.28	3.30	-56.5	-78.2	3.5	3.03e+01	0	45	104	406323200	60	307812
2026-01-30 11:57:36.48	337.56	3.05	-56.4	-77.5	3.5	3.03e+01	0	45	104	406323200	60	285225
2026-01-30 11:57:40.51	337.83	2.80	-56.6	-77.8	3.5	3.03e+01	0	45	104	406323200	60	295132
2026-01-30 11:57:44.53	338.10	2.56	-56.6	-77.6	3.5	3.03e+01	0	45	104	406323200	60	289847
2026-01-30 11:57:48.56	338.36	2.31	-56.6	-77.8	3.5	3.03e+01	0	45	104	406323200	60	294432
2026-01-30 11:57:52.59	338.62	2.07	-56.6	-77.7	3.5	3.03e+01	0	45	104	406323200	60	292266
2026-01-30 11:57:56.61	338.87	1.83	-56.6	-77.7	3.5	3.03e+01	0	45	104	406323200	60	292237
2026-01-30 11:58:00.63	339.12	1.59	-56.6	-77.7	3.5	3.03e+01	0	45	104	406323200	60	293364
2026-01-30 11:58:04.64	339.36	1.35	-56.7	-77.6	3.5	3.03e+01	0	45	104	406323200	60	289474
2026-01-30 11:58:08.67	339.61	1.11	-56.7	-77.8	3.5	3.03e+01	0	45	104	406323200	60	293770
2026-01-30 11:58:12.69	339.84	0.88	-56.7	-77.8	3.5	3.03e+01	0	45	104	406323200	60	294069
2026-01-30 11:58:16.70	340.08	0.65	-56.6	-77.6	3.5	3.03e+01	0	45	104	406323200	60	288194
2026-01-30 11:58:20.72	340.31	0.42	-56.7	-77.6	3.5	3.03e+01	0	45	104	406323200	60	290097
2026-01-30 11:58:24.75	340.54	0.19	-56.6	-77.6	3.5	3.03e+01	0	45	104	406323200	60	289326
2026-01-30 11:58:28.77	340.76	-0.04	-56.6	-77.8	3.5	3.03e+01	0	45	104	406323200	60	293841

#Closed at: 2026-01-30 11:58:30
#Recorded file [406 MB]: D:/Data/35015_260130_145020.dat