passes_logs/2026/01/30/R3.2S-Naryan-Mar/R3.2S-Naryan-Mar__20260130_054805_FENGYUN_3E_rec.log

#Pass ID: 20260130_054805_FENGYUN 3E
#Satellite: FENGYUN 3E
#Configuration: FENGYUN 3E
#almurnet v.1.7.20240730
#Start time: 2026-01-30 05:48:08

#Version: 2.2.20231116
#Station: R3.2S-Naryan-Mar
#Location: 53.008057 lon 67.646978 lat
#TLE: 1 49008U 21062A   26029.52207456 -.00000035  00000+0  41692-5 0  9997
#TLE: 2 49008  98.7499  34.4814 0002557 110.8023 249.3427 14.19887743236900

#Time	Az	El	Level	Level2	SNR	BER	BlckErr	Temp	State	Recorded	gain1	gain2
2026-01-30 05:48:08.75	35.59	0.16	-59.9	-73.3	3.3	8.40e-01	0	44	0	0	60	181650
2026-01-30 05:48:12.78	35.41	0.39	-61.8	-75.6	3.6	8.46e-01	0	45	104	0	60	236938
2026-01-30 05:48:16.81	35.23	0.62	-60.8	-74.3	3.6	8.45e-01	0	45	104	0	60	203864
2026-01-30 05:48:20.83	35.04	0.85	-61.9	-75.4	3.6	8.45e-01	0	45	104	0	60	231137
2026-01-30 05:48:24.87	34.86	1.08	-57.7	-74.9	3.6	8.45e-01	0	45	104	0	60	218322
2026-01-30 05:48:28.90	34.67	1.32	-60.4	-74.1	3.5	8.46e-01	0	45	104	0	60	197649
2026-01-30 05:48:32.93	34.47	1.55	-60.1	-73.2	3.6	8.45e-01	0	45	104	0	60	178063
2026-01-30 05:48:36.96	34.28	1.79	-59.1	-72.4	3.6	8.45e-01	0	45	104	0	60	164026
2026-01-30 05:48:40.98	34.08	2.03	-55.6	-70.3	3.6	8.45e-01	0	45	104	0	60	128605
2026-01-30 05:48:45.01	33.87	2.27	-55.6	-70.2	3.6	8.45e-01	0	45	104	0	60	127058
2026-01-30 05:48:49.03	33.66	2.51	-55.5	-70.1	3.6	8.45e-01	0	45	104	0	60	125855
2026-01-30 05:48:53.06	33.45	2.75	-55.6	-70.2	3.6	8.45e-01	0	45	104	0	60	126753
2026-01-30 05:48:57.10	33.24	3.00	-55.5	-70.2	3.6	8.46e-01	0	45	104	0	60	126367
2026-01-30 05:49:01.12	33.02	3.24	-55.5	-70.0	3.6	8.45e-01	0	45	104	0	60	124304
2026-01-30 05:49:05.15	32.80	3.49	-55.6	-69.9	3.6	8.46e-01	0	45	104	0	60	122859
2026-01-30 05:49:09.17	32.57	3.74	-55.6	-70.0	3.6	8.44e-01	0	45	104	0	60	124409
2026-01-30 05:49:13.20	32.34	4.00	-55.5	-70.1	3.6	8.46e-01	0	45	104	0	60	124883
2026-01-30 05:49:17.23	32.10	4.25	-55.3	-69.9	3.6	8.45e-01	0	45	104	0	60	122740
2026-01-30 05:49:21.25	31.86	4.51	-55.3	-69.8	3.6	8.45e-01	0	45	104	0	60	120590
2026-01-30 05:49:25.28	31.62	4.77	-55.2	-69.7	3.6	8.45e-01	0	46	104	0	60	119857
2026-01-30 05:49:29.31	31.37	5.03	-55.1	-69.0	3.5	8.45e-01	0	46	104	0	60	110947
2026-01-30 05:49:33.34	31.11	5.29	-54.8	-63.5	4.9	7.92e-01	0	46	0	0	60	58497
2026-01-30 05:49:37.37	30.86	5.55	-52.8	-56.6	12.5	8.46e-05	0	46	0	26214400	60	26362
2026-01-30 05:49:41.39	30.59	5.82	-50.6	-52.9	16.2	0.00e+00	0	45	0	55574528	60	17247
2026-01-30 05:49:45.43	30.32	6.09	-51.1	-53.5	15.9	0.00e+00	0	46	0	83886080	60	18548
2026-01-30 05:49:49.44	30.05	6.36	-50.2	-53.1	16.3	0.00e+00	0	46	0	113246208	60	17728
2026-01-30 05:49:53.47	29.77	6.63	-50.3	-52.6	15.5	0.00e+00	0	46	0	142606336	60	16731
2026-01-30 05:49:57.50	29.48	6.91	-49.6	-52.0	16.3	0.00e+00	0	46	0	171966464	60	15575
2026-01-30 05:50:01.52	29.19	7.19	-48.8	-51.8	18.3	0.00e+00	0	46	0	200278016	60	15215
2026-01-30 05:50:05.55	28.89	7.47	-48.8	-51.5	19.4	0.00e+00	0	46	0	229638144	60	14728
2026-01-30 05:50:09.57	28.59	7.75	-49.5	-51.5	19.6	0.00e+00	0	46	0	258998272	60	14766
2026-01-30 05:50:13.61	28.28	8.03	-49.7	-51.5	19.3	0.00e+00	0	46	0	287309824	60	14720
2026-01-30 05:50:17.64	27.97	8.32	-48.9	-51.5	19.1	0.00e+00	0	46	0	316669952	60	14654
2026-01-30 05:50:21.67	27.64	8.61	-49.0	-51.7	18.9	0.00e+00	0	46	0	344981504	60	15046
2026-01-30 05:50:25.70	27.31	8.90	-50.4	-52.4	18.1	0.00e+00	0	46	0	375390208	60	16313
2026-01-30 05:50:29.72	26.98	9.20	-50.0	-51.8	17.5	0.00e+00	0	46	0	403701760	60	15238
2026-01-30 05:50:33.75	26.63	9.49	-49.2	-51.5	17.1	0.00e+00	0	46	0	433061888	60	14653
2026-01-30 05:50:37.77	26.28	9.79	-49.2	-50.9	18.2	0.00e+00	0	46	0	462422016	60	13777
2026-01-30 05:50:41.80	25.92	10.09	-49.7	-51.2	18.6	0.00e+00	0	46	0	491782144	60	14214
2026-01-30 05:50:45.83	25.56	10.40	-49.5	-50.9	19.3	0.00e+00	0	46	0	520093696	60	13766
2026-01-30 05:50:49.84	25.18	10.70	-49.8	-51.1	19.3	0.00e+00	0	46	0	549453824	60	14127
2026-01-30 05:50:53.87	24.80	11.01	-49.7	-51.5	18.7	0.00e+00	0	46	0	578813952	60	14699
2026-01-30 05:50:57.91	24.41	11.33	-50.4	-51.8	17.4	0.00e+00	0	46	0	607125504	60	15176
2026-01-30 05:51:01.93	24.01	11.64	-50.3	-52.6	15.6	0.00e+00	0	46	0	636485632	60	16695
2026-01-30 05:51:05.95	23.60	11.96	-49.5	-52.8	14.8	0.00e+00	0	46	0	664797184	60	17117
2026-01-30 05:51:09.98	23.18	12.28	-49.6	-51.7	16.7	0.00e+00	0	46	0	695205888	60	14994
2026-01-30 05:51:14.01	22.75	12.60	-48.2	-50.4	17.3	0.00e+00	0	46	0	723517440	60	13040
2026-01-30 05:51:18.04	22.32	12.93	-46.7	-50.7	17.0	0.00e+00	0	46	0	752877568	60	13492
2026-01-30 05:51:22.07	21.87	13.26	-48.3	-50.7	18.9	0.00e+00	0	46	0	782237696	60	13390
2026-01-30 05:51:26.10	21.41	13.59	-48.9	-50.1	20.6	0.00e+00	0	46	0	811597824	60	12576
2026-01-30 05:51:30.13	20.94	13.92	-48.8	-49.8	21.4	0.00e+00	0	46	0	839909376	60	12151
2026-01-30 05:51:34.16	20.46	14.26	-49.1	-50.0	21.9	0.00e+00	0	46	0	869269504	60	12445
2026-01-30 05:51:38.19	19.97	14.60	-48.9	-50.5	19.5	0.00e+00	0	46	0	898629632	60	13070
2026-01-30 05:51:42.21	19.47	14.94	-49.2	-51.0	18.9	0.00e+00	0	46	0	926941184	60	13930
2026-01-30 05:51:46.24	18.95	15.28	-47.6	-49.7	19.2	0.00e+00	0	46	0	956301312	60	11979
2026-01-30 05:51:50.26	18.42	15.63	-48.3	-49.7	18.8	0.00e+00	0	46	0	984612864	60	11957
2026-01-30 05:51:54.28	17.88	15.97	-47.6	-49.8	18.9	0.00e+00	0	46	0	1015021568	60	12078
2026-01-30 05:51:58.31	17.33	16.32	-49.3	-50.6	18.0	0.00e+00	0	46	0	1043333120	60	13334
2026-01-30 05:52:02.33	16.76	16.68	-49.1	-50.3	18.6	0.00e+00	0	46	0	1072693248	60	12796
2026-01-30 05:52:06.35	16.18	17.03	-48.7	-49.9	18.8	0.00e+00	0	46	0	1101004800	60	12248
2026-01-30 05:52:10.37	15.59	17.39	-49.0	-50.3	17.8	0.00e+00	0	46	0	1130364928	60	12826
2026-01-30 05:52:14.38	14.98	17.75	-49.8	-51.1	17.0	0.00e+00	0	46	0	1159725056	60	14080
2026-01-30 05:52:18.41	14.36	18.11	-50.5	-52.3	16.0	0.00e+00	0	46	0	1189085184	60	16174
2026-01-30 05:52:22.43	13.72	18.47	-50.6	-52.4	16.3	0.00e+00	0	46	0	1217396736	60	16264
2026-01-30 05:52:26.46	13.07	18.83	-50.4	-51.7	18.0	0.00e+00	0	46	0	1246756864	60	15092
2026-01-30 05:52:30.49	12.39	19.20	-51.6	-52.8	18.0	0.00e+00	0	46	0	1276116992	60	17180
2026-01-30 05:52:34.52	11.70	19.57	-54.0	-55.7	15.4	0.00e+00	0	46	0	1304428544	60	23937
2026-01-30 05:52:38.55	11.00	19.93	-54.7	-58.0	12.4	2.99e-04	0	46	0	1333788672	60	31132
2026-01-30 05:52:42.57	10.28	20.30	-54.7	-60.2	9.2	1.71e-02	0	46	0	1363148800	60	40018
2026-01-30 05:52:46.60	9.53	20.67	-55.4	-61.8	6.5	1.25e-01	0	46	0	1392508928	60	48120
2026-01-30 05:52:50.63	8.78	21.04	-58.2	-66.2	4.0	5.06e-01	0	46	0	1418723328	60	80122
2026-01-30 05:52:54.66	8.00	21.41	-48.5	-49.8	21.6	0.00e+00	0	46	0	1440743424	60	12096
2026-01-30 05:52:58.69	7.20	21.78	-49.4	-51.2	21.1	0.00e+00	0	46	0	1470103552	60	14193
2026-01-30 05:53:02.71	6.38	22.15	-51.6	-52.9	19.9	0.00e+00	0	46	0	1499463680	60	17250
2026-01-30 05:53:06.74	5.55	22.51	-53.5	-55.0	17.8	0.00e+00	0	46	0	1527775232	60	21928
2026-01-30 05:53:10.77	4.69	22.88	-55.4	-57.9	15.1	0.00e+00	0	46	0	1558183936	60	30848
2026-01-30 05:53:14.79	3.82	23.24	-56.6	-60.6	11.5	6.63e-04	0	46	0	1586495488	60	41758
2026-01-30 05:53:18.81	2.92	23.60	-57.2	-61.8	10.0	6.04e-03	0	46	0	1615855616	60	48021
2026-01-30 05:53:22.83	2.00	23.96	-58.1	-63.5	8.1	4.53e-02	0	46	0	1644167168	60	58711
2026-01-30 05:53:26.86	1.06	24.31	-58.1	-63.6	7.0	1.08e-01	0	46	0	1673527296	60	59635
2026-01-30 05:53:30.88	0.10	24.66	-59.3	-66.4	5.1	7.12e-01	0	46	0	1693450240	60	82135
2026-01-30 05:53:34.90	359.12	25.01	-49.9	-50.9	21.6	0.00e+00	0	46	0	1712324608	60	13748
2026-01-30 05:53:38.92	358.12	25.35	-48.2	-49.0	23.7	0.00e+00	0	46	0	1740636160	60	11080
2026-01-30 05:53:42.95	357.09	25.69	-48.4	-49.4	23.3	0.00e+00	0	46	0	1769996288	60	11623
2026-01-30 05:53:46.97	356.04	26.01	-47.2	-48.0	24.7	0.00e+00	0	46	0	1799356416	60	9867
2026-01-30 05:53:51.00	354.97	26.34	-47.1	-47.8	24.9	0.00e+00	0	46	0	1828716544	60	9589
2026-01-30 05:53:55.02	353.87	26.65	-47.3	-48.0	24.6	0.00e+00	0	46	0	1857028096	60	9840
2026-01-30 05:53:59.05	352.76	26.96	-47.3	-48.0	24.3	0.00e+00	0	46	0	1886388224	60	9879
2026-01-30 05:54:03.06	351.63	27.26	-47.1	-47.9	24.5	0.00e+00	0	46	0	1914699776	60	9762
2026-01-30 05:54:07.09	350.47	27.55	-47.5	-48.2	24.2	0.00e+00	0	46	0	1944059904	60	10108
2026-01-30 05:54:11.12	349.29	27.82	-48.5	-49.3	23.6	0.00e+00	0	46	0	1973420032	60	11370
2026-01-30 05:54:15.14	348.09	28.09	-47.9	-48.7	24.2	0.00e+00	0	46	0	2002780160	60	10622
2026-01-30 05:54:19.16	346.87	28.35	-47.0	-47.7	25.0	0.00e+00	0	46	0	2031091712	60	9503
2026-01-30 05:54:23.18	345.63	28.59	-46.8	-47.6	25.1	0.00e+00	0	46	0	2060451840	60	9407
2026-01-30 05:54:27.22	344.37	28.82	-47.2	-48.0	24.8	0.00e+00	0	46	0	2089811968	60	9790
2026-01-30 05:54:31.25	343.09	29.04	-47.8	-48.6	24.1	0.00e+00	0	46	0	2118123520	60	10531
2026-01-30 05:54:35.29	341.80	29.24	-48.8	-49.7	23.2	0.00e+00	0	46	0	2148532224	60	12017
2026-01-30 05:54:39.32	340.49	29.42	-48.8	-49.7	23.1	0.00e+00	0	46	0	2176843776	60	11976
2026-01-30 05:54:43.34	339.17	29.59	-49.9	-50.7	22.0	0.00e+00	0	46	0	2206203904	60	13495
2026-01-30 05:54:47.37	337.83	29.75	-50.5	-51.5	21.5	0.00e+00	0	46	0	2235564032	60	14652
2026-01-30 05:54:51.40	336.48	29.88	-47.5	-48.2	24.1	0.00e+00	0	46	0	2263875584	60	10110
2026-01-30 05:54:55.42	335.12	30.00	-47.9	-48.7	23.7	0.00e+00	0	46	0	2293235712	60	10616
2026-01-30 05:54:59.45	333.75	30.10	-48.7	-49.5	23.4	0.00e+00	0	46	0	2322595840	60	11665
2026-01-30 05:55:03.48	332.37	30.19	-47.9	-48.6	23.8	0.00e+00	0	46	0	2351955968	60	10571
2026-01-30 05:55:07.51	330.99	30.25	-46.5	-47.2	24.6	0.00e+00	0	46	0	2380267520	60	8952
2026-01-30 05:55:11.54	329.60	30.30	-47.2	-47.9	23.6	0.00e+00	0	46	0	2409627648	60	9757
2026-01-30 05:55:15.56	328.21	30.33	-46.5	-47.2	24.7	0.00e+00	0	46	0	2437939200	60	8969
2026-01-30 05:55:19.59	326.81	30.33	-46.3	-47.0	25.4	0.00e+00	0	46	0	2468347904	60	8751
2026-01-30 05:55:23.63	325.42	30.32	-46.6	-47.3	24.6	0.00e+00	0	46	0	2496659456	60	9088
2026-01-30 05:55:27.65	324.03	30.29	-47.1	-47.9	23.0	0.00e+00	0	46	0	2526019584	60	9697
2026-01-30 05:55:31.67	322.64	30.25	-47.9	-48.8	22.1	0.00e+00	0	46	0	2555379712	60	10767
2026-01-30 05:55:35.69	321.26	30.18	-48.0	-48.8	23.0	0.00e+00	0	46	0	2583691264	60	10773
2026-01-30 05:55:39.73	319.88	30.09	-49.0	-49.8	22.6	0.00e+00	0	46	0	2613051392	60	12074
2026-01-30 05:55:43.75	318.51	29.99	-48.9	-49.8	21.9	0.00e+00	0	46	0	2642411520	60	12157
2026-01-30 05:55:47.77	317.15	29.87	-50.2	-51.2	19.7	0.00e+00	0	46	0	2671771648	60	14302
2026-01-30 05:55:51.79	315.81	29.73	-51.8	-53.0	18.1	0.00e+00	0	46	0	2700083200	60	17516
2026-01-30 05:55:55.82	314.47	29.57	-49.5	-50.4	21.1	0.00e+00	0	46	0	2729443328	60	12981
2026-01-30 05:55:59.85	313.15	29.40	-47.3	-48.1	23.6	0.00e+00	0	46	0	2757754880	60	9934
2026-01-30 05:56:03.88	311.84	29.21	-45.9	-46.6	25.0	0.00e+00	0	46	0	2788163584	60	8419
2026-01-30 05:56:07.91	310.54	29.00	-46.5	-47.2	24.5	0.00e+00	0	46	0	2816475136	60	9019
2026-01-30 05:56:11.93	309.27	28.79	-46.3	-47.0	24.7	0.00e+00	0	46	0	2845835264	60	8813
2026-01-30 05:56:15.95	308.02	28.56	-45.8	-46.5	25.3	0.00e+00	0	46	0	2874146816	60	8277
2026-01-30 05:56:19.97	306.78	28.31	-46.1	-46.8	25.1	0.00e+00	0	46	0	2903506944	60	8550
2026-01-30 05:56:24.00	305.56	28.05	-46.1	-46.8	25.0	0.00e+00	0	46	0	2932867072	60	8600
2026-01-30 05:56:28.03	304.36	27.78	-46.1	-46.8	25.1	0.00e+00	0	46	0	2961178624	60	8554
2026-01-30 05:56:32.06	303.18	27.50	-46.6	-47.4	24.5	0.00e+00	0	46	0	2990538752	60	9148
2026-01-30 05:56:36.09	302.02	27.21	-46.9	-47.7	24.3	0.00e+00	0	46	0	3019898880	60	9469
2026-01-30 05:56:40.10	300.89	26.91	-46.1	-46.8	24.9	0.00e+00	0	46	0	3049259008	60	8604
2026-01-30 05:56:44.12	299.78	26.61	-46.4	-47.1	24.7	0.00e+00	0	46	0	3077570560	60	8877
2026-01-30 05:56:48.15	298.68	26.29	-46.5	-47.3	24.5	0.00e+00	0	46	0	3106930688	60	9049
2026-01-30 05:56:52.17	297.62	25.96	-46.9	-47.7	24.5	0.00e+00	0	46	0	3136290816	60	9459
2026-01-30 05:56:56.20	296.57	25.63	-47.1	-48.0	24.2	0.00e+00	0	46	0	3165650944	60	9791
2026-01-30 05:57:00.22	295.54	25.30	-47.9	-48.7	23.4	0.00e+00	0	46	0	3193962496	60	10674
2026-01-30 05:57:04.25	294.54	24.95	-48.8	-49.7	22.4	0.00e+00	0	46	0	3223322624	60	11934
2026-01-30 05:57:08.28	293.55	24.60	-49.4	-50.3	21.8	0.00e+00	0	46	0	3252682752	60	12866
2026-01-30 05:57:12.31	292.59	24.25	-49.6	-50.6	21.7	0.00e+00	0	46	0	3280994304	60	13207
2026-01-30 05:57:16.34	291.65	23.90	-51.6	-52.7	19.7	0.00e+00	0	46	0	3310354432	60	16978
2026-01-30 05:57:20.36	290.73	23.54	-53.8	-55.6	16.9	0.00e+00	0	46	0	3339714560	60	23660
2026-01-30 05:57:24.38	289.84	23.18	-55.6	-58.5	13.5	2.40e-05	0	46	0	3369074688	60	32951
2026-01-30 05:57:28.41	288.96	22.81	-56.3	-60.1	12.2	6.16e-04	0	46	0	3397386240	60	39495
2026-01-30 05:57:32.44	288.11	22.44	-57.1	-61.7	9.9	6.85e-03	0	46	0	3426746368	60	47828
2026-01-30 05:57:36.47	287.27	22.08	-57.3	-62.4	9.1	1.61e-02	0	46	0	3456106496	60	51931
2026-01-30 05:57:40.49	286.45	21.71	-57.6	-63.2	8.0	5.42e-02	0	46	0	3485466624	60	56433
2026-01-30 05:57:44.51	285.66	21.34	-57.7	-64.0	6.9	1.63e-01	0	46	0	3513778176	60	62433
2026-01-30 05:57:48.54	284.88	20.97	-57.8	-64.6	10.2	3.80e-01	0	46	0	3543138304	60	66312
2026-01-30 05:57:52.57	284.12	20.60	-47.9	-48.8	22.8	0.00e+00	0	46	0	3571449856	60	10756
2026-01-30 05:57:56.59	283.38	20.23	-48.8	-49.7	22.0	0.00e+00	0	46	0	3600809984	60	11981
2026-01-30 05:58:00.62	282.66	19.86	-49.9	-50.9	20.8	0.00e+00	0	46	0	3630170112	60	13680
2026-01-30 05:58:04.65	281.96	19.49	-49.9	-50.9	20.8	0.00e+00	0	46	0	3658481664	60	13795
2026-01-30 05:58:08.68	281.27	19.12	-50.3	-51.4	20.3	0.00e+00	0	46	0	3688890368	60	14563
2026-01-30 05:58:12.71	280.59	18.76	-51.9	-53.2	18.2	0.00e+00	0	46	0	3717201920	60	17884
2026-01-30 05:58:16.73	279.94	18.39	-54.1	-56.0	15.2	0.00e+00	0	46	0	3746562048	60	24834
2026-01-30 05:58:20.75	279.30	18.03	-56.2	-59.4	11.7	9.76e-04	0	46	0	3774873600	60	36593
2026-01-30 05:58:24.77	278.68	17.67	-57.1	-61.1	10.0	1.62e-02	0	46	0	3804233728	60	44464
2026-01-30 05:58:28.80	278.07	17.31	-58.0	-63.6	6.9	7.80e-02	0	46	0	3833593856	60	59173
2026-01-30 05:58:32.83	277.47	16.95	-58.6	-65.5	5.0	5.80e-01	0	46	0	3860856832	60	73494
2026-01-30 05:58:36.86	276.89	16.59	-50.5	-51.6	19.8	0.00e+00	0	46	0	3878682624	60	14925
2026-01-30 05:58:40.88	276.33	16.24	-48.6	-49.5	22.0	0.00e+00	0	46	0	3908042752	60	11715
2026-01-30 05:58:44.90	275.77	15.89	-49.3	-50.3	21.1	0.00e+00	0	46	0	3936354304	60	12827
2026-01-30 05:58:48.93	275.23	15.54	-50.7	-51.9	19.4	0.00e+00	0	46	0	3965714432	60	15351
2026-01-30 05:58:52.94	274.71	15.20	-52.1	-53.5	17.8	0.00e+00	0	46	0	3994025984	60	18599
2026-01-30 05:58:56.97	274.19	14.85	-53.1	-54.8	16.5	0.00e+00	0	46	0	4024434688	60	21463
2026-01-30 05:59:01.00	273.69	14.51	-52.4	-53.9	17.6	0.00e+00	0	46	0	4052746240	60	19366
2026-01-30 05:59:05.01	273.20	14.17	-53.1	-54.7	16.7	0.00e+00	0	46	0	4082106368	60	21257
2026-01-30 05:59:09.03	272.72	13.84	-54.2	-56.2	14.7	0.00e+00	0	46	0	4110417920	60	25222
2026-01-30 05:59:13.06	272.25	13.50	-55.9	-58.8	12.4	1.46e-04	0	46	0	4139778048	60	34186
2026-01-30 05:59:17.09	271.79	13.17	-57.6	-62.4	8.4	3.43e-02	0	46	0	4169138176	60	51620
2026-01-30 05:59:21.11	271.34	12.84	-57.8	-62.9	7.4	1.29e-01	0	46	0	4198498304	60	54716
2026-01-30 05:59:25.13	270.91	12.52	-58.2	-64.2	5.5	3.59e-01	0	46	0	4226809856	60	63505
2026-01-30 05:59:29.16	270.48	12.19	-57.3	-62.0	8.7	8.01e-05	0	46	0	4255121408	60	49344
2026-01-30 05:59:33.19	270.06	11.87	-49.7	-50.7	20.3	0.00e+00	0	46	0	4285530112	60	13448
2026-01-30 05:59:37.22	269.65	11.56	-50.3	-51.4	19.6	0.00e+00	0	46	0	4313841664	60	14550
2026-01-30 05:59:41.25	269.25	11.24	-51.3	-52.6	18.5	0.00e+00	0	46	0	4343201792	60	16689
2026-01-30 05:59:45.27	268.85	10.93	-50.4	-51.5	19.5	0.00e+00	0	46	0	4372561920	60	14760
2026-01-30 05:59:49.30	268.47	10.62	-51.3	-52.6	18.3	0.00e+00	0	46	0	4400873472	60	16624
2026-01-30 05:59:53.32	268.10	10.31	-52.5	-54.0	17.2	0.00e+00	0	46	0	4430233600	60	19524
2026-01-30 05:59:57.35	267.73	10.01	-51.3	-52.6	18.4	0.00e+00	0	46	0	4459593728	60	16750
2026-01-30 06:00:01.38	267.37	9.70	-49.8	-50.8	20.2	0.00e+00	0	46	0	4488953856	60	13613
2026-01-30 06:00:05.42	267.02	9.40	-50.0	-51.1	19.8	0.00e+00	0	46	0	4517265408	60	14075
2026-01-30 06:00:09.44	266.67	9.11	-51.0	-52.3	18.7	0.00e+00	0	46	0	4546625536	60	16061
2026-01-30 06:00:13.47	266.33	8.81	-51.9	-53.3	17.5	0.00e+00	0	46	0	4575985664	60	18158
2026-01-30 06:00:17.50	266.00	8.52	-52.9	-54.5	16.3	0.00e+00	0	46	0	4605345792	60	20904
2026-01-30 06:00:21.53	265.68	8.23	-53.9	-55.9	15.1	0.00e+00	0	46	0	4633657344	60	24517
2026-01-30 06:00:25.55	265.36	7.94	-54.5	-56.8	14.2	1.10e-06	0	46	0	4663017472	60	27038
2026-01-30 06:00:29.57	265.05	7.66	-55.3	-57.9	12.8	1.60e-05	0	46	0	4692377600	60	30918
2026-01-30 06:00:33.59	264.75	7.38	-55.9	-59.0	12.0	6.65e-04	0	46	0	4720689152	60	34868
2026-01-30 06:00:37.62	264.45	7.10	-57.0	-61.2	8.8	1.94e-02	0	46	0	4750049280	60	44782
2026-01-30 06:00:41.64	264.16	6.82	-57.8	-63.3	6.4	1.96e-01	0	46	0	4779409408	60	57230
2026-01-30 06:00:45.67	263.87	6.54	-58.4	-66.4	4.0	8.21e-01	0	46	0	4797235200	60	82131
2026-01-30 06:00:49.69	263.59	6.27	-51.5	-52.9	16.8	0.00e+00	0	46	0	4821352448	60	17351
2026-01-30 06:00:53.70	263.32	6.00	-52.0	-53.5	16.7	0.00e+00	0	46	0	4849664000	60	18511
2026-01-30 06:00:57.73	263.05	5.73	-59.7	-72.8	3.6	8.46e-01	0	46	104	4851761152	60	170587
2026-01-30 06:01:01.76	262.78	5.47	-59.3	-73.4	3.6	8.47e-01	0	46	104	4851761152	60	183736
2026-01-30 06:01:05.79	262.52	5.20	-60.5	-74.3	3.6	8.44e-01	0	46	104	4851761152	60	204291
2026-01-30 06:01:09.82	262.26	4.94	-59.9	-74.4	3.6	8.46e-01	0	46	104	4851761152	60	206464
2026-01-30 06:01:13.85	262.01	4.68	-61.8	-74.7	3.6	8.45e-01	0	46	104	4851761152	60	212604
2026-01-30 06:01:17.88	261.77	4.42	-62.1	-75.8	3.6	8.45e-01	0	47	104	4851761152	60	242682
2026-01-30 06:01:21.90	261.53	4.16	-60.9	-75.3	3.6	8.46e-01	0	47	104	4851761152	60	229111
2026-01-30 06:01:25.93	261.29	3.91	-61.5	-75.3	3.6	8.46e-01	0	46	104	4851761152	60	229105
2026-01-30 06:01:29.96	261.06	3.65	-61.4	-75.3	3.6	8.46e-01	0	46	104	4851761152	60	228297
2026-01-30 06:01:33.99	260.83	3.40	-61.4	-75.1	3.6	8.45e-01	0	46	104	4851761152	60	223673
2026-01-30 06:01:38.02	260.60	3.15	-61.4	-75.2	3.6	8.45e-01	0	46	104	4851761152	60	224982
2026-01-30 06:01:42.04	260.38	2.91	-61.4	-75.2	3.6	8.46e-01	0	46	104	4851761152	60	225766
2026-01-30 06:01:46.07	260.17	2.66	-61.3	-75.1	3.6	8.46e-01	0	47	104	4851761152	60	221996
2026-01-30 06:01:50.11	259.95	2.42	-61.4	-75.0	3.6	8.46e-01	0	47	104	4851761152	60	221291
2026-01-30 06:01:54.14	259.74	2.18	-61.4	-75.0	3.6	8.45e-01	0	47	104	4851761152	60	220219
2026-01-30 06:01:58.17	259.54	1.93	-61.3	-75.0	3.6	8.44e-01	0	47	104	4851761152	60	220546
2026-01-30 06:02:02.20	259.33	1.70	-61.3	-75.0	3.6	8.46e-01	0	47	104	4851761152	60	220138
2026-01-30 06:02:06.23	259.14	1.46	-61.3	-75.0	3.6	8.45e-01	0	46	104	4851761152	60	219911
2026-01-30 06:02:10.26	258.94	1.22	-61.3	-75.0	3.6	8.44e-01	0	47	104	4851761152	60	219388
2026-01-30 06:02:14.27	258.75	0.99	-61.3	-75.1	3.6	8.44e-01	0	46	104	4851761152	60	222277
2026-01-30 06:02:18.30	258.56	0.76	-61.2	-75.0	3.6	8.46e-01	0	46	104	4851761152	60	220258
2026-01-30 06:02:22.33	258.37	0.53	-61.2	-75.1	3.6	8.46e-01	0	47	104	4851761152	60	221897
2026-01-30 06:02:26.35	258.19	0.30	-61.2	-75.1	3.6	8.44e-01	0	46	104	4851761152	60	221969
2026-01-30 06:02:30.37	258.01	0.07	-61.3	-75.0	3.6	8.45e-01	0	47	104	4851761152	60	220658

#Closed at: 2026-01-30 06:02:32
#Recorded file [4851 MB]: D:/Data/35015_260130_090054.dat