passes_logs/2026/01/30/R3.2S-Naryan-Mar/R3.2S-Naryan-Mar__20260130_030846_SUOMI_NPP_rec.log

#Pass ID: 20260130_030846_SUOMI NPP
#Satellite: SUOMI NPP
#Configuration: NPP
#almurnet v.1.7.20240730
#Start time: 2026-01-30 03:08:47

#Version: 2.2.20231116
#Station: R3.2S-Naryan-Mar
#Location: 53.008057 lon 67.646978 lat
#TLE: 1 37849U 11061A   26028.91916408  .00000155  00000+0  94467-4 0  9990
#TLE: 2 37849  98.7824 330.8488 0002045  39.4457 320.6868 14.19531289738686

#Time	Az	El	Level	Level2	SNR	BER	BlckErr	Temp	State	Recorded	gain1	gain2
2026-01-30 03:08:47.21	51.14	0.06	-59.7	-74.9	3.5	8.45e-01	0	43	0	0	60	217755
2026-01-30 03:08:51.24	50.90	0.28	-62.2	-78.7	3.6	1.51e+00	0	44	104	0	60	337367
2026-01-30 03:08:55.27	50.65	0.49	-62.2	-78.8	3.6	1.51e+00	0	44	104	0	60	339786
2026-01-30 03:08:59.30	50.40	0.71	-62.4	-78.8	3.6	1.51e+00	0	44	104	0	60	340642
2026-01-30 03:09:03.33	50.15	0.93	-61.1	-78.5	3.6	1.51e+00	0	45	104	0	60	330393
2026-01-30 03:09:07.36	49.89	1.14	-59.6	-78.1	3.6	1.51e+00	0	45	104	0	60	314369
2026-01-30 03:09:11.39	49.63	1.36	-61.2	-77.5	3.6	1.51e+00	0	45	104	0	60	295270
2026-01-30 03:09:15.42	49.37	1.58	-60.0	-76.9	3.6	1.51e+00	0	45	104	0	60	274072
2026-01-30 03:09:19.44	49.10	1.81	-60.0	-76.5	3.6	1.51e+00	0	45	104	0	60	261005
2026-01-30 03:09:23.46	48.83	2.03	-60.1	-76.4	3.6	1.51e+00	0	45	104	0	60	258969
2026-01-30 03:09:27.49	48.55	2.25	-60.1	-76.4	3.6	1.51e+00	0	45	104	0	60	259258
2026-01-30 03:09:31.52	48.27	2.48	-60.1	-76.3	3.6	1.51e+00	0	45	104	0	60	256297
2026-01-30 03:09:35.54	47.98	2.70	-60.1	-76.3	3.6	1.51e+00	0	45	104	0	60	257270
2026-01-30 03:09:39.56	47.69	2.93	-60.0	-76.3	3.6	1.51e+00	0	45	104	0	60	256112
2026-01-30 03:09:43.58	47.40	3.16	-60.0	-76.3	3.6	1.51e+00	0	45	104	0	60	254877
2026-01-30 03:09:47.60	47.10	3.39	-60.0	-76.3	3.6	1.51e+00	0	45	104	0	60	254656
2026-01-30 03:09:51.62	46.79	3.62	-60.0	-76.2	3.6	1.51e+00	0	45	104	0	60	252339
2026-01-30 03:09:55.65	46.48	3.85	-59.9	-76.2	3.6	1.51e+00	0	45	104	0	60	253318
2026-01-30 03:09:59.67	46.16	4.08	-59.9	-76.2	3.6	1.51e+00	0	45	104	0	60	252806
2026-01-30 03:10:03.70	45.84	4.31	-59.9	-76.0	3.6	1.51e+00	0	45	104	0	60	248135
2026-01-30 03:10:07.73	45.52	4.55	-59.9	-76.1	3.6	1.51e+00	0	45	104	0	60	248835
2026-01-30 03:10:11.76	45.18	4.79	-59.9	-76.1	3.6	1.51e+00	0	45	104	0	60	251220
2026-01-30 03:10:15.78	44.85	5.02	-59.9	-76.0	3.6	1.51e+00	0	45	104	0	60	247982
2026-01-30 03:10:19.80	44.50	5.26	-59.8	-75.7	3.6	1.51e+00	0	45	104	0	60	238172
2026-01-30 03:10:23.83	44.15	5.50	-59.5	-68.8	5.3	7.07e-01	0	45	0	1048576	60	107920
2026-01-30 03:10:27.85	43.80	5.74	-57.5	-61.5	13.6	4.73e-05	0	45	0	8388608	60	46432
2026-01-30 03:10:31.88	43.44	5.98	-56.2	-59.1	15.9	0.00e+00	0	45	0	15728640	60	35487
2026-01-30 03:10:35.90	43.07	6.23	-57.3	-61.2	13.3	0.00e+00	0	45	0	24117248	60	45109
2026-01-30 03:10:39.92	42.69	6.47	-56.3	-59.3	15.8	0.00e+00	0	45	0	31457280	60	36074
2026-01-30 03:10:43.95	42.31	6.72	-55.5	-58.3	16.8	0.00e+00	0	45	0	38797312	60	32039
2026-01-30 03:10:47.97	41.93	6.96	-55.7	-58.5	16.8	0.00e+00	0	46	0	46137344	60	32993
2026-01-30 03:10:51.99	41.53	7.21	-56.0	-58.8	16.3	0.00e+00	0	46	0	53477376	60	34304
2026-01-30 03:10:56.01	41.13	7.46	-56.6	-59.8	15.3	0.00e+00	0	46	0	61865984	60	38260
2026-01-30 03:11:00.03	40.72	7.71	-57.0	-60.7	14.3	1.50e-06	0	46	0	69206016	60	42558
2026-01-30 03:11:04.06	40.31	7.96	-57.4	-61.8	13.4	1.98e-05	0	46	0	76546048	60	47973
2026-01-30 03:11:08.08	39.88	8.21	-57.6	-62.3	12.9	1.09e-04	0	46	0	83886080	60	50986
2026-01-30 03:11:12.10	39.45	8.46	-57.5	-62.7	12.3	2.95e-04	0	45	0	91226112	60	53494
2026-01-30 03:11:16.13	39.01	8.71	-56.6	-60.4	15.0	0.00e+00	0	45	0	99614720	60	41104
2026-01-30 03:11:20.15	38.57	8.97	-57.0	-60.1	15.4	0.00e+00	0	46	0	106954752	60	39599
2026-01-30 03:11:24.18	38.11	9.22	-56.6	-59.3	16.3	0.00e+00	0	45	0	114294784	60	36113
2026-01-30 03:11:28.20	37.65	9.48	-56.6	-59.4	16.2	0.00e+00	0	45	0	121634816	60	36671
2026-01-30 03:11:32.23	37.18	9.74	-56.0	-58.5	17.0	0.00e+00	0	45	0	128974848	60	33004
2026-01-30 03:11:36.26	36.70	10.00	-56.2	-59.0	16.6	0.00e+00	0	45	0	137363456	60	34786
2026-01-30 03:11:40.29	36.21	10.25	-55.6	-58.2	17.2	0.00e+00	0	46	0	144703488	60	31899
2026-01-30 03:11:44.31	35.71	10.51	-55.1	-57.9	17.3	0.00e+00	0	45	0	152043520	60	30767
2026-01-30 03:11:48.34	35.20	10.77	-55.7	-58.3	17.2	0.00e+00	0	45	0	159383552	60	32034
2026-01-30 03:11:52.37	34.69	11.03	-55.0	-57.2	18.3	0.00e+00	0	45	0	166723584	60	28253
2026-01-30 03:11:56.40	34.16	11.29	-55.0	-57.3	17.9	0.00e+00	0	45	0	175112192	60	28554
2026-01-30 03:12:00.43	33.62	11.55	-55.5	-57.9	17.4	0.00e+00	0	45	0	182452224	60	30788
2026-01-30 03:12:04.46	33.08	11.82	-56.1	-58.7	16.8	0.00e+00	0	46	0	189792256	60	33748
2026-01-30 03:12:08.48	32.52	12.08	-56.0	-58.6	16.7	0.00e+00	0	46	0	197132288	60	33481
2026-01-30 03:12:12.51	31.96	12.34	-55.5	-58.2	17.1	0.00e+00	0	45	0	204472320	60	31741
2026-01-30 03:12:16.53	31.38	12.60	-55.8	-58.8	16.4	0.00e+00	0	45	0	212860928	60	34191
2026-01-30 03:12:20.56	30.80	12.86	-56.8	-60.0	15.4	0.00e+00	0	46	0	220200960	60	39108
2026-01-30 03:12:24.57	30.20	13.12	-57.4	-61.0	14.3	0.00e+00	0	46	0	227540992	60	44008
2026-01-30 03:12:28.59	29.59	13.38	-57.5	-61.4	14.0	3.00e-06	0	46	0	234881024	60	46057
2026-01-30 03:12:32.62	28.97	13.64	-57.5	-62.3	12.9	4.73e-05	0	45	0	242221056	60	50967
2026-01-30 03:12:36.65	28.34	13.90	-55.2	-57.5	17.9	0.00e+00	0	46	0	250609664	60	29409
2026-01-30 03:12:40.67	27.70	14.16	-55.7	-58.5	17.0	0.00e+00	0	46	0	257949696	60	32933
2026-01-30 03:12:44.70	27.05	14.42	-55.7	-59.2	16.3	0.00e+00	0	46	0	265289728	60	35725
2026-01-30 03:12:48.72	26.39	14.67	-56.4	-59.7	15.7	0.00e+00	0	46	0	272629760	60	37665
2026-01-30 03:12:52.75	25.71	14.93	-56.1	-58.7	16.8	0.00e+00	0	46	0	279969792	60	33575
2026-01-30 03:12:56.78	25.02	15.18	-54.6	-59.8	14.6	0.00e+00	0	46	0	288358400	60	38085
2026-01-30 03:13:00.81	24.32	15.43	-53.4	-60.1	14.5	0.00e+00	0	46	0	295698432	60	39717
2026-01-30 03:13:04.82	23.61	15.68	-52.7	-58.7	14.2	6.80e-06	0	46	0	303038464	60	33669
2026-01-30 03:13:08.86	22.89	15.93	-52.9	-56.2	18.3	0.00e+00	0	46	0	310378496	60	25324
2026-01-30 03:13:12.89	22.15	16.18	-53.9	-55.5	19.8	0.00e+00	0	46	0	317718528	60	23402
2026-01-30 03:13:16.92	21.40	16.42	-53.8	-55.5	20.0	0.00e+00	0	46	0	325058560	60	23433
2026-01-30 03:13:20.94	20.64	16.66	-53.8	-55.4	20.1	0.00e+00	0	46	0	333447168	60	22988
2026-01-30 03:13:24.98	19.86	16.90	-53.8	-55.4	20.1	0.00e+00	0	46	0	340787200	60	23175
2026-01-30 03:13:29.01	19.08	17.14	-53.1	-55.0	20.3	0.00e+00	0	46	0	348127232	60	22158
2026-01-30 03:13:33.03	18.28	17.37	-53.3	-54.8	20.8	0.00e+00	0	46	0	355467264	60	21490
2026-01-30 03:13:37.05	17.47	17.60	-52.7	-54.3	20.9	0.00e+00	0	46	0	363855872	60	20229
2026-01-30 03:13:41.07	16.65	17.82	-53.1	-54.6	20.6	0.00e+00	0	46	0	371195904	60	21009
2026-01-30 03:13:45.08	15.82	18.04	-53.6	-55.3	20.4	0.00e+00	0	46	0	378535936	60	22685
2026-01-30 03:13:49.10	14.97	18.25	-53.3	-54.8	20.7	0.00e+00	0	46	0	385875968	60	21597
2026-01-30 03:13:53.13	14.11	18.46	-53.0	-54.5	20.8	0.00e+00	0	46	0	393216000	60	20808
2026-01-30 03:13:57.14	13.24	18.67	-53.1	-54.6	20.8	0.00e+00	0	45	0	401604608	60	21032
2026-01-30 03:14:01.17	12.36	18.87	-52.4	-53.7	21.8	0.00e+00	0	46	0	408944640	60	18994
2026-01-30 03:14:05.20	11.46	19.06	-52.4	-53.7	21.6	0.00e+00	0	46	0	416284672	60	18883
2026-01-30 03:14:09.23	10.56	19.25	-52.5	-54.0	21.3	0.00e+00	0	46	0	423624704	60	19744
2026-01-30 03:14:13.25	9.64	19.43	-53.0	-54.7	20.7	0.00e+00	0	46	0	430964736	60	21271
2026-01-30 03:14:17.27	8.71	19.61	-53.6	-55.2	20.2	0.00e+00	0	46	0	438304768	60	22624
2026-01-30 03:14:21.30	7.77	19.78	-52.9	-54.6	20.8	0.00e+00	0	46	0	446693376	60	21044
2026-01-30 03:14:25.32	6.83	19.94	-53.4	-54.8	20.9	0.00e+00	0	46	0	454033408	60	21531
2026-01-30 03:14:29.35	5.87	20.09	-52.5	-53.7	21.8	0.00e+00	0	46	0	461373440	60	19049
2026-01-30 03:14:33.38	4.90	20.24	-52.4	-53.8	21.7	0.00e+00	0	46	0	468713472	60	19144
2026-01-30 03:14:37.40	3.92	20.38	-53.4	-54.9	20.9	0.00e+00	0	46	0	476053504	60	21684
2026-01-30 03:14:41.42	2.93	20.51	-53.4	-54.9	20.8	0.00e+00	0	46	0	484442112	60	21664
2026-01-30 03:14:45.44	1.94	20.63	-54.1	-55.7	20.0	0.00e+00	0	46	0	491782144	60	23995
2026-01-30 03:14:49.46	0.94	20.74	-54.0	-55.7	20.2	0.00e+00	0	46	0	499122176	60	23796
2026-01-30 03:14:53.49	359.93	20.85	-53.9	-55.5	20.2	0.00e+00	0	46	0	506462208	60	23407
2026-01-30 03:14:57.52	358.91	20.94	-53.9	-55.5	20.2	0.00e+00	0	46	0	513802240	60	23451
2026-01-30 03:15:01.55	357.89	21.03	-54.9	-56.8	18.9	0.00e+00	0	46	0	522190848	60	27255
2026-01-30 03:15:05.57	356.86	21.11	-54.4	-56.1	19.6	0.00e+00	0	46	0	529530880	60	25111
2026-01-30 03:15:09.60	355.83	21.17	-54.4	-56.1	19.7	0.00e+00	0	46	0	536870912	60	25022
2026-01-30 03:15:13.63	354.79	21.23	-54.0	-55.6	20.2	0.00e+00	0	46	0	544210944	60	23538
2026-01-30 03:15:17.65	353.75	21.28	-54.1	-55.7	20.1	0.00e+00	0	45	0	551550976	60	23985
2026-01-30 03:15:21.67	352.71	21.32	-55.0	-56.9	18.9	0.00e+00	0	46	0	559939584	60	27488
2026-01-30 03:15:25.70	351.66	21.34	-54.6	-56.4	19.4	0.00e+00	0	46	0	567279616	60	25990
2026-01-30 03:15:29.72	350.62	21.36	-54.6	-56.4	19.3	0.00e+00	0	46	0	574619648	60	25941
2026-01-30 03:15:33.74	349.57	21.37	-53.7	-55.3	20.5	0.00e+00	0	46	0	581959680	60	22677
2026-01-30 03:15:37.77	348.52	21.36	-53.9	-55.5	20.1	0.00e+00	0	46	0	589299712	60	23310
2026-01-30 03:15:41.80	347.47	21.35	-54.2	-55.9	19.7	0.00e+00	0	46	0	597688320	60	24402
2026-01-30 03:15:45.82	346.43	21.33	-54.7	-56.6	19.3	0.00e+00	0	46	0	605028352	60	26402
2026-01-30 03:15:49.83	345.39	21.29	-54.0	-55.6	20.0	0.00e+00	0	46	0	612368384	60	23695
2026-01-30 03:15:53.86	344.35	21.25	-52.5	-53.8	21.6	0.00e+00	0	46	0	619708416	60	19204
2026-01-30 03:15:57.90	343.31	21.20	-52.6	-53.9	21.6	0.00e+00	0	46	0	627048448	60	19318
2026-01-30 03:16:01.92	342.27	21.13	-53.0	-54.3	21.3	0.00e+00	0	46	0	635437056	60	20320
2026-01-30 03:16:05.95	341.24	21.06	-52.7	-53.9	21.5	0.00e+00	0	46	0	642777088	60	19487
2026-01-30 03:16:09.97	340.22	20.98	-53.0	-54.3	21.4	0.00e+00	0	46	0	650117120	60	20358
2026-01-30 03:16:14.00	339.20	20.89	-52.7	-54.0	21.7	0.00e+00	0	46	0	657457152	60	19539
2026-01-30 03:16:18.02	338.19	20.79	-53.1	-54.5	21.3	0.00e+00	0	46	0	664797184	60	20682
2026-01-30 03:16:22.04	337.18	20.68	-53.1	-54.5	21.2	0.00e+00	0	45	0	673185792	60	20731
2026-01-30 03:16:26.05	336.19	20.56	-52.9	-54.2	21.5	0.00e+00	0	46	0	680525824	60	20190
2026-01-30 03:16:30.08	335.20	20.43	-54.2	-55.9	20.2	0.00e+00	0	46	0	687865856	60	24333
2026-01-30 03:16:34.10	334.22	20.30	-54.5	-56.2	19.7	0.00e+00	0	45	0	695205888	60	25393
2026-01-30 03:16:38.11	333.25	20.15	-54.9	-56.7	19.3	0.00e+00	0	46	0	702545920	60	26656
2026-01-30 03:16:42.12	332.29	20.00	-55.3	-57.2	18.8	0.00e+00	0	46	0	709885952	60	28382
2026-01-30 03:16:46.15	331.34	19.84	-55.6	-57.6	18.3	0.00e+00	0	46	0	718274560	60	29876
2026-01-30 03:16:50.18	330.39	19.68	-55.4	-57.4	18.6	0.00e+00	0	46	0	725614592	60	28962
2026-01-30 03:16:54.20	329.46	19.50	-54.7	-56.5	19.2	0.00e+00	0	46	0	732954624	60	26101
2026-01-30 03:16:58.21	328.54	19.33	-53.9	-55.4	20.2	0.00e+00	0	46	0	740294656	60	23163
2026-01-30 03:17:02.21	327.64	19.14	-53.2	-54.6	21.0	0.00e+00	0	46	0	747634688	60	20989
2026-01-30 03:17:06.25	326.73	18.95	-53.2	-54.6	20.7	0.00e+00	0	46	0	756023296	60	21108
2026-01-30 03:17:10.28	325.84	18.75	-54.1	-55.8	20.0	0.00e+00	0	46	0	763363328	60	24067
2026-01-30 03:17:14.31	324.97	18.55	-55.6	-57.7	18.2	0.00e+00	0	46	0	770703360	60	30160
2026-01-30 03:17:18.33	324.10	18.34	-55.3	-57.4	18.4	0.00e+00	0	46	0	778043392	60	29108
2026-01-30 03:17:22.37	323.25	18.13	-55.5	-57.7	18.1	0.00e+00	0	46	0	785383424	60	30143
2026-01-30 03:17:26.39	322.41	17.91	-54.8	-56.8	18.9	0.00e+00	0	46	0	793772032	60	27004
2026-01-30 03:17:30.42	321.58	17.69	-53.3	-54.8	20.4	0.00e+00	0	46	0	801112064	60	21531
2026-01-30 03:17:34.44	320.77	17.46	-52.8	-54.1	21.2	0.00e+00	0	46	0	808452096	60	19954
2026-01-30 03:17:38.47	319.96	17.23	-53.6	-55.2	20.2	0.00e+00	0	46	0	815792128	60	22506
2026-01-30 03:17:42.50	319.17	17.00	-53.8	-55.4	20.0	0.00e+00	0	46	0	823132160	60	23196
2026-01-30 03:17:46.53	318.39	16.76	-53.7	-55.3	20.1	0.00e+00	0	46	0	831520768	60	22923
2026-01-30 03:17:50.55	317.62	16.52	-55.4	-57.7	17.8	0.00e+00	0	46	0	838860800	60	30176
2026-01-30 03:17:54.58	316.87	16.28	-55.5	-57.9	17.5	0.00e+00	0	46	0	846200832	60	30688
2026-01-30 03:17:58.61	316.13	16.03	-54.7	-56.6	19.0	0.00e+00	0	46	0	853540864	60	26382
2026-01-30 03:18:02.62	315.40	15.79	-55.2	-57.3	18.2	0.00e+00	0	46	0	860880896	60	28776
2026-01-30 03:18:06.64	314.69	15.54	-56.1	-58.6	16.8	0.00e+00	0	46	0	869269504	60	33278
2026-01-30 03:18:10.67	313.98	15.29	-56.8	-60.0	15.5	0.00e+00	0	46	0	876609536	60	39121
2026-01-30 03:18:14.69	313.29	15.03	-57.4	-61.0	14.5	7.00e-07	0	46	0	883949568	60	44099
2026-01-30 03:18:18.73	312.60	14.78	-57.4	-61.0	14.5	0.00e+00	0	46	0	891289600	60	43778
2026-01-30 03:18:22.76	311.93	14.52	-58.2	-62.8	12.2	1.52e-04	0	46	0	898629632	60	54192
2026-01-30 03:18:26.79	311.28	14.26	-59.3	-66.6	8.3	5.02e-02	0	46	0	907018240	60	83699
2026-01-30 03:18:30.81	310.63	14.01	-59.7	-69.4	4.8	4.66e-01	0	46	0	914358272	60	115452
2026-01-30 03:18:34.84	309.99	13.75	-53.3	-54.9	20.0	2.82e-05	0	46	0	921698304	60	21687
2026-01-30 03:18:38.87	309.37	13.49	-53.3	-54.8	20.4	0.00e+00	0	46	0	929038336	60	21648
2026-01-30 03:18:42.90	308.76	13.23	-52.3	-53.6	21.3	0.00e+00	0	46	0	936378368	60	18715
2026-01-30 03:18:46.93	308.15	12.96	-52.7	-54.2	20.7	0.00e+00	0	46	0	944766976	60	20045
2026-01-30 03:18:50.95	307.56	12.70	-53.3	-54.9	20.0	0.00e+00	0	46	0	952107008	60	21826
2026-01-30 03:18:54.97	306.98	12.44	-53.5	-55.1	19.7	0.00e+00	0	46	0	959447040	60	22260
2026-01-30 03:18:59.00	306.41	12.18	-53.1	-54.6	20.3	0.00e+00	0	46	0	966787072	60	21002
2026-01-30 03:19:03.02	305.86	11.92	-53.7	-55.3	19.7	0.00e+00	0	46	0	974127104	60	22930
2026-01-30 03:19:07.04	305.31	11.66	-54.3	-56.1	18.9	0.00e+00	0	46	0	982515712	60	25087
2026-01-30 03:19:11.07	304.77	11.40	-55.2	-57.5	17.6	0.00e+00	0	46	0	989855744	60	29462
2026-01-30 03:19:15.11	304.23	11.14	-54.8	-57.0	18.0	0.00e+00	0	46	0	997195776	60	27744
2026-01-30 03:19:19.13	303.71	10.88	-53.6	-55.3	19.6	0.00e+00	0	46	0	1004535808	60	22806
2026-01-30 03:19:23.16	303.20	10.62	-53.4	-55.1	19.8	0.00e+00	0	46	0	1011875840	60	22187
2026-01-30 03:19:27.18	302.70	10.36	-54.2	-56.2	18.7	0.00e+00	0	46	0	1020264448	60	25159
2026-01-30 03:19:31.20	302.21	10.10	-55.0	-57.2	17.9	0.00e+00	0	46	0	1027604480	60	28542
2026-01-30 03:19:35.22	301.73	9.84	-54.7	-56.8	18.4	0.00e+00	0	46	0	1034944512	60	27195
2026-01-30 03:19:39.25	301.25	9.58	-54.6	-56.7	18.2	0.00e+00	0	46	0	1042284544	60	26646
2026-01-30 03:19:43.27	300.78	9.33	-54.5	-56.5	18.4	0.00e+00	0	46	0	1049624576	60	26208
2026-01-30 03:19:47.29	300.32	9.07	-54.4	-56.4	18.4	0.00e+00	0	46	0	1058013184	60	25925
2026-01-30 03:19:51.32	299.87	8.82	-54.7	-56.9	18.0	0.00e+00	0	46	0	1065353216	60	27560
2026-01-30 03:19:55.35	299.43	8.56	-54.8	-57.0	17.7	0.00e+00	0	46	0	1072693248	60	27721
2026-01-30 03:19:59.37	299.00	8.31	-54.8	-57.1	17.8	0.00e+00	0	46	0	1080033280	60	28002
2026-01-30 03:20:03.40	298.57	8.06	-55.2	-57.6	17.2	0.00e+00	0	46	0	1087373312	60	29650
2026-01-30 03:20:07.43	298.15	7.81	-55.7	-58.4	16.3	0.00e+00	0	46	0	1095761920	60	32615
2026-01-30 03:20:11.46	297.74	7.56	-56.1	-59.2	15.6	0.00e+00	0	46	0	1103101952	60	35749
2026-01-30 03:20:15.49	297.33	7.31	-55.8	-58.6	16.0	0.00e+00	0	46	0	1110441984	60	33537
2026-01-30 03:20:19.51	296.93	7.06	-55.8	-58.7	15.8	0.00e+00	0	46	0	1117782016	60	33821
2026-01-30 03:20:23.55	296.54	6.81	-56.4	-59.7	14.9	0.00e+00	0	46	0	1125122048	60	37842
2026-01-30 03:20:27.57	296.16	6.57	-55.5	-58.5	16.0	0.00e+00	0	46	0	1133510656	60	32864
2026-01-30 03:20:31.59	295.78	6.32	-55.5	-58.6	16.0	0.00e+00	0	46	0	1140850688	60	33219
2026-01-30 03:20:35.62	295.41	6.08	-55.3	-58.1	16.2	0.00e+00	0	46	0	1148190720	60	31610
2026-01-30 03:20:39.66	295.04	5.84	-60.4	-76.8	3.6	1.51e+00	0	46	104	1150287872	60	269913
2026-01-30 03:20:43.68	294.69	5.59	-61.0	-77.5	3.6	1.51e+00	0	46	104	1150287872	60	292397
2026-01-30 03:20:47.70	294.33	5.36	-61.8	-78.2	3.6	1.51e+00	0	46	104	1150287872	60	318379
2026-01-30 03:20:51.71	293.99	5.12	-62.3	-78.7	3.6	1.51e+00	0	46	104	1150287872	60	338213
2026-01-30 03:20:55.74	293.65	4.88	-62.5	-78.9	3.6	1.51e+00	0	46	104	1150287872	60	344782
2026-01-30 03:20:59.77	293.31	4.64	-62.5	-78.9	3.6	1.51e+00	0	46	104	1150287872	60	346524
2026-01-30 03:21:03.79	292.98	4.41	-62.4	-78.9	3.6	1.51e+00	0	46	104	1150287872	60	345634
2026-01-30 03:21:07.82	292.66	4.17	-62.9	-79.4	3.6	1.51e+00	0	46	104	1150287872	60	366132
2026-01-30 03:21:11.84	292.34	3.94	-62.5	-79.5	3.6	1.51e+00	0	46	104	1150287872	60	369512
2026-01-30 03:21:15.86	292.03	3.71	-62.9	-79.6	3.6	1.51e+00	0	46	104	1150287872	60	375413
2026-01-30 03:21:19.89	291.72	3.48	-62.8	-79.5	3.6	1.51e+00	0	46	104	1150287872	60	371445
2026-01-30 03:21:23.92	291.42	3.25	-62.7	-79.5	3.6	1.51e+00	0	46	104	1150287872	60	368497
2026-01-30 03:21:27.94	291.12	3.02	-62.7	-79.4	3.6	1.51e+00	0	46	104	1150287872	60	366032
2026-01-30 03:21:31.97	290.82	2.79	-62.7	-79.4	3.6	1.51e+00	0	46	104	1150287872	60	366937
2026-01-30 03:21:36.00	290.53	2.56	-62.7	-79.5	3.6	1.51e+00	0	46	104	1150287872	60	368313
2026-01-30 03:21:40.02	290.25	2.34	-62.8	-79.5	3.6	1.51e+00	0	46	104	1150287872	60	370866
2026-01-30 03:21:44.05	289.97	2.12	-62.8	-79.5	3.6	1.51e+00	0	46	104	1150287872	60	370197
2026-01-30 03:21:48.07	289.70	1.89	-62.8	-79.5	3.6	1.51e+00	0	46	104	1150287872	60	368827
2026-01-30 03:21:52.10	289.42	1.67	-62.7	-79.5	3.6	1.51e+00	0	46	104	1150287872	60	368165
2026-01-30 03:21:56.12	289.16	1.45	-62.7	-79.4	3.6	1.51e+00	0	46	104	1150287872	60	366303
2026-01-30 03:22:00.15	288.89	1.23	-62.6	-79.4	3.6	1.51e+00	0	46	104	1150287872	60	365584
2026-01-30 03:22:04.18	288.64	1.01	-62.6	-79.4	3.6	1.51e+00	0	46	104	1150287872	60	364388
2026-01-30 03:22:08.22	288.38	0.79	-62.6	-79.4	3.6	1.51e+00	0	46	104	1150287872	60	363974
2026-01-30 03:22:12.25	288.13	0.58	-62.5	-79.3	3.6	1.51e+00	0	46	104	1150287872	60	361669
2026-01-30 03:22:16.26	287.88	0.36	-62.5	-79.3	3.6	1.51e+00	0	46	104	1150287872	60	363001
2026-01-30 03:22:20.29	287.64	0.15	-62.5	-79.3	3.6	1.51e+00	0	46	104	1150287872	60	361540
2026-01-30 03:22:24.31	287.40	-0.07	-62.5	-79.3	3.6	1.51e+00	0	46	104	1150287872	60	359766

#Closed at: 2026-01-30 03:22:25
#Recorded file [1150 MB]: D:/Data/35015_260130_062036.dat