passes_logs/2026/01/30/R3.2S-Naryan-Mar/R3.2S-Naryan-Mar__20260130_140517_FENGYUN_3E_rec.log

#Pass ID: 20260130_140517_FENGYUN 3E
#Satellite: FENGYUN 3E
#Configuration: FENGYUN 3E
#almurnet v.1.7.20240730
#Start time: 2026-01-30 14:05:18

#Version: 2.2.20231116
#Station: R3.2S-Naryan-Mar
#Location: 53.008057 lon 67.646978 lat
#TLE: 1 49008U 21062A   26030.15628484 -.00000231  00000+0 -88238-4 0  9991
#TLE: 2 49008  98.7496  35.1082 0002567 110.3408 249.8045 14.19886954236998

#Time	Az	El	Level	Level2	SNR	BER	BlckErr	Temp	State	Recorded	gain1	gain2
2026-01-30 14:05:18.01	189.96	0.05	-59.9	-73.8	3.5	8.45e-01	0	43	0	0	60	191788
2026-01-30 14:05:22.03	190.13	0.28	-58.9	-73.7	3.6	8.45e-01	0	44	104	0	60	190283
2026-01-30 14:05:26.05	190.30	0.51	-60.9	-74.3	3.6	8.45e-01	0	44	104	0	60	202260
2026-01-30 14:05:30.07	190.48	0.74	-60.9	-73.9	3.6	8.45e-01	0	44	104	0	60	193958
2026-01-30 14:05:34.10	190.66	0.98	-60.7	-73.7	3.6	8.45e-01	0	44	104	0	60	190624
2026-01-30 14:05:38.12	190.85	1.21	-60.4	-73.6	3.6	8.45e-01	0	44	104	0	60	187728
2026-01-30 14:05:42.14	191.03	1.45	-59.6	-72.9	3.6	8.45e-01	0	45	104	0	60	173833
2026-01-30 14:05:46.17	191.22	1.69	-59.2	-72.6	3.6	8.45e-01	0	44	104	0	60	167299
2026-01-30 14:05:50.19	191.41	1.93	-58.5	-72.1	3.6	8.45e-01	0	45	104	0	60	157006
2026-01-30 14:05:54.22	191.61	2.17	-56.3	-70.4	3.6	8.46e-01	0	45	104	0	60	130231
2026-01-30 14:05:58.25	191.80	2.42	-55.9	-70.0	3.6	8.45e-01	0	45	104	0	60	124138
2026-01-30 14:06:02.28	192.01	2.66	-55.8	-70.0	3.6	8.46e-01	0	45	104	0	60	123757
2026-01-30 14:06:06.31	192.21	2.91	-55.7	-70.0	3.6	8.45e-01	0	45	104	0	60	123873
2026-01-30 14:06:10.33	192.42	3.16	-55.7	-69.9	3.6	8.46e-01	0	45	104	0	60	122021
2026-01-30 14:06:14.36	192.63	3.41	-55.7	-69.8	3.6	8.45e-01	0	45	104	0	60	121545
2026-01-30 14:06:18.39	192.84	3.67	-55.6	-69.6	3.6	8.45e-01	0	45	104	0	60	118778
2026-01-30 14:06:22.42	193.06	3.93	-55.5	-69.7	3.6	8.46e-01	0	45	104	0	60	119451
2026-01-30 14:06:26.45	193.28	4.18	-55.5	-69.6	3.6	8.46e-01	0	45	104	0	60	118111
2026-01-30 14:06:30.47	193.50	4.44	-55.5	-69.3	3.6	8.44e-01	0	45	104	0	60	114540
2026-01-30 14:06:34.50	193.73	4.71	-55.5	-69.3	3.6	8.46e-01	0	45	104	0	60	114415
2026-01-30 14:06:38.52	193.96	4.97	-55.3	-68.0	3.6	8.44e-01	0	45	104	0	60	98767
2026-01-30 14:06:42.56	194.20	5.24	-54.2	-60.1	7.5	1.04e-01	0	45	0	6291456	60	39554
2026-01-30 14:06:46.59	194.44	5.51	-51.2	-53.9	14.0	2.20e-06	0	45	0	35651584	60	19520
2026-01-30 14:06:50.62	194.69	5.78	-49.7	-51.8	15.7	0.00e+00	0	45	0	63963136	60	15315
2026-01-30 14:06:54.64	194.94	6.06	-48.8	-50.6	16.9	0.00e+00	0	45	0	93323264	60	13330
2026-01-30 14:06:58.66	195.19	6.34	-48.9	-50.9	17.0	3.90e-02	0	45	0	122683392	60	13795
2026-01-30 14:07:02.69	195.45	6.62	-46.9	-48.4	17.9	0.00e+00	0	45	0	150994944	60	10360
2026-01-30 14:07:06.72	195.71	6.90	-46.8	-48.4	17.8	0.00e+00	0	45	0	180355072	60	10296
2026-01-30 14:07:10.75	195.98	7.18	-46.8	-48.3	18.1	0.00e+00	0	45	0	209715200	60	10144
2026-01-30 14:07:14.77	196.25	7.47	-46.8	-48.3	18.0	0.00e+00	0	45	0	239075328	60	10188
2026-01-30 14:07:18.80	196.53	7.76	-46.9	-48.5	18.0	0.00e+00	0	45	0	267386880	60	10377
2026-01-30 14:07:22.84	196.81	8.06	-46.7	-48.2	18.2	0.00e+00	0	45	0	297795584	60	10089
2026-01-30 14:07:26.86	197.10	8.35	-46.6	-48.1	18.2	0.00e+00	0	45	0	326107136	60	9981
2026-01-30 14:07:30.88	197.39	8.65	-46.4	-47.9	18.4	0.00e+00	0	45	0	355467264	60	9728
2026-01-30 14:07:34.91	197.69	8.95	-46.4	-47.9	18.4	0.00e+00	0	45	0	383778816	60	9687
2026-01-30 14:07:38.93	198.00	9.26	-46.3	-47.7	18.6	0.00e+00	0	45	0	413138944	60	9524
2026-01-30 14:07:42.96	198.31	9.57	-46.3	-47.7	18.6	0.00e+00	0	45	0	442499072	60	9515
2026-01-30 14:07:46.99	198.63	9.88	-46.1	-47.5	18.8	0.00e+00	0	45	0	470810624	60	9303
2026-01-30 14:07:51.02	198.96	10.19	-46.0	-47.3	18.9	0.00e+00	0	45	0	500170752	60	9111
2026-01-30 14:07:55.03	199.29	10.51	-46.0	-47.3	19.0	0.00e+00	0	45	0	529530880	60	9124
2026-01-30 14:07:59.05	199.63	10.83	-46.0	-47.3	19.2	0.00e+00	0	45	0	558891008	60	9061
2026-01-30 14:08:03.07	199.97	11.15	-46.2	-47.5	19.1	0.00e+00	0	45	0	587202560	60	9301
2026-01-30 14:08:07.09	200.32	11.48	-46.9	-47.7	21.7	0.00e+00	0	45	0	616562688	60	9548
2026-01-30 14:08:11.12	200.68	11.81	-46.7	-47.5	21.9	0.00e+00	0	45	0	644874240	60	9309
2026-01-30 14:08:15.15	201.05	12.15	-46.7	-47.6	21.9	0.00e+00	0	45	0	675282944	60	9381
2026-01-30 14:08:19.17	201.43	12.49	-46.8	-47.7	21.9	0.00e+00	0	45	0	703594496	60	9479
2026-01-30 14:08:23.20	201.82	12.83	-46.8	-47.6	22.0	0.00e+00	0	45	0	732954624	60	9383
2026-01-30 14:08:27.21	202.21	13.17	-46.6	-47.4	22.3	0.00e+00	0	45	0	761266176	60	9171
2026-01-30 14:08:31.24	202.61	13.52	-46.4	-47.2	22.5	0.00e+00	0	45	0	790626304	60	8985
2026-01-30 14:08:35.26	203.02	13.88	-46.3	-47.1	22.6	0.00e+00	0	45	0	819986432	60	8878
2026-01-30 14:08:39.28	203.45	14.23	-46.4	-47.2	22.6	0.00e+00	0	45	0	848297984	60	8976
2026-01-30 14:08:43.32	203.88	14.60	-46.3	-47.0	22.7	0.00e+00	0	45	0	877658112	60	8812
2026-01-30 14:08:47.35	204.32	14.96	-46.3	-47.1	22.8	0.00e+00	0	45	0	907018240	60	8832
2026-01-30 14:08:51.37	204.77	15.33	-46.2	-46.9	22.9	0.00e+00	0	45	0	936378368	60	8713
2026-01-30 14:08:55.39	205.24	15.70	-46.1	-46.8	23.0	0.00e+00	0	45	0	964689920	60	8618
2026-01-30 14:08:59.42	205.71	16.08	-46.3	-47.0	23.1	0.00e+00	0	45	0	995098624	60	8768
2026-01-30 14:09:03.45	206.20	16.46	-46.3	-47.0	23.3	0.00e+00	0	45	0	1023410176	60	8760
2026-01-30 14:09:07.48	206.70	16.85	-46.3	-47.0	23.3	0.00e+00	0	46	0	1052770304	60	8757
2026-01-30 14:09:11.51	207.21	17.24	-46.0	-46.7	23.6	0.00e+00	0	45	0	1081081856	60	8507
2026-01-30 14:09:15.54	207.74	17.63	-46.2	-46.9	23.6	0.00e+00	0	45	0	1110441984	60	8660
2026-01-30 14:09:19.57	208.27	18.03	-46.4	-47.1	23.5	0.00e+00	0	46	0	1139802112	60	8832
2026-01-30 14:09:23.60	208.83	18.43	-46.2	-46.9	23.6	0.00e+00	0	46	0	1168113664	60	8676
2026-01-30 14:09:27.62	209.39	18.84	-46.1	-46.8	23.8	0.00e+00	0	45	0	1197473792	60	8544
2026-01-30 14:09:31.65	209.97	19.25	-46.2	-46.9	23.9	0.00e+00	0	45	0	1226833920	60	8639
2026-01-30 14:09:35.67	210.57	19.66	-46.3	-47.0	23.9	0.00e+00	0	45	0	1256194048	60	8749
2026-01-30 14:09:39.69	211.18	20.08	-46.0	-46.6	24.1	0.00e+00	0	45	0	1284505600	60	8417
2026-01-30 14:09:43.73	211.81	20.50	-46.0	-46.6	24.3	0.00e+00	0	45	0	1314914304	60	8394
2026-01-30 14:09:47.76	212.46	20.93	-46.1	-46.7	24.2	0.00e+00	0	45	0	1343225856	60	8508
2026-01-30 14:09:51.78	213.12	21.35	-45.9	-46.6	24.4	0.00e+00	0	45	0	1372585984	60	8335
2026-01-30 14:09:55.80	213.80	21.79	-45.9	-46.5	24.4	0.00e+00	0	45	0	1400897536	60	8297
2026-01-30 14:09:59.83	214.50	22.22	-45.9	-46.6	24.4	0.00e+00	0	45	0	1430257664	60	8341
2026-01-30 14:10:03.86	215.22	22.66	-46.1	-46.7	24.3	0.00e+00	0	45	0	1459617792	60	8513
2026-01-30 14:10:07.87	215.96	23.10	-45.8	-46.4	24.5	0.00e+00	0	46	0	1487929344	60	8228
2026-01-30 14:10:11.89	216.72	23.54	-45.6	-46.2	24.8	0.00e+00	0	45	0	1517289472	60	7992
2026-01-30 14:10:15.92	217.50	23.99	-45.5	-46.1	24.9	0.00e+00	0	45	0	1546649600	60	7917
2026-01-30 14:10:19.96	218.30	24.44	-45.3	-45.9	25.1	0.00e+00	0	45	0	1576009728	60	7735
2026-01-30 14:10:23.98	219.13	24.89	-45.3	-45.9	25.0	0.00e+00	0	45	0	1604321280	60	7744
2026-01-30 14:10:28.00	219.98	25.34	-45.6	-46.2	24.9	0.00e+00	0	45	0	1633681408	60	7971
2026-01-30 14:10:32.02	220.85	25.79	-45.5	-46.1	24.9	0.00e+00	0	45	0	1663041536	60	7943
2026-01-30 14:10:36.05	221.75	26.25	-45.5	-46.1	24.9	0.00e+00	0	45	0	1692401664	60	7915
2026-01-30 14:10:40.07	222.67	26.70	-45.4	-46.0	25.0	0.00e+00	0	45	0	1720713216	60	7797
2026-01-30 14:10:44.10	223.62	27.15	-45.2	-45.8	25.1	0.00e+00	0	45	0	1750073344	60	7654
2026-01-30 14:10:48.11	224.59	27.60	-45.2	-45.8	25.1	0.00e+00	0	45	0	1778384896	60	7649
2026-01-30 14:10:52.13	225.60	28.05	-45.0	-45.6	25.2	0.00e+00	0	45	0	1807745024	60	7503
2026-01-30 14:10:56.15	226.63	28.50	-45.0	-45.6	25.2	0.00e+00	0	45	0	1837105152	60	7431
2026-01-30 14:11:00.19	227.69	28.95	-45.0	-45.6	25.2	0.00e+00	0	45	0	1865416704	60	7450
2026-01-30 14:11:04.21	228.78	29.39	-45.1	-45.7	25.2	0.00e+00	0	45	0	1894776832	60	7544
2026-01-30 14:11:08.24	229.90	29.83	-45.0	-45.6	25.2	0.00e+00	0	45	0	1924136960	60	7476
2026-01-30 14:11:12.27	231.05	30.26	-44.8	-45.4	25.3	0.00e+00	0	45	0	1953497088	60	7312
2026-01-30 14:11:16.30	232.23	30.69	-44.8	-45.4	25.5	0.00e+00	0	45	0	1981808640	60	7271
2026-01-30 14:11:20.33	233.44	31.11	-44.7	-45.3	25.5	0.00e+00	0	46	0	2012217344	60	7174
2026-01-30 14:11:24.36	234.68	31.52	-44.9	-45.4	25.2	0.00e+00	0	46	0	2040528896	60	7335
2026-01-30 14:11:28.39	235.95	31.92	-44.8	-45.4	25.3	0.00e+00	0	45	0	2069889024	60	7257
2026-01-30 14:11:32.41	237.25	32.31	-44.7	-45.2	25.4	0.00e+00	0	45	0	2098200576	60	7161
2026-01-30 14:11:36.44	238.58	32.69	-45.0	-45.6	25.6	0.00e+00	0	45	0	2127560704	60	7460
2026-01-30 14:11:40.47	239.95	33.05	-44.9	-45.5	25.5	0.00e+00	0	45	0	2156920832	60	7401
2026-01-30 14:11:44.50	241.34	33.41	-44.9	-45.4	25.5	0.00e+00	0	45	0	2185232384	60	7320
2026-01-30 14:11:48.52	242.76	33.75	-45.1	-45.6	25.3	0.00e+00	0	45	0	2215641088	60	7489
2026-01-30 14:11:52.54	244.21	34.07	-45.1	-45.7	25.3	0.00e+00	0	45	0	2243952640	60	7515
2026-01-30 14:11:56.56	245.69	34.37	-45.1	-45.6	25.3	0.00e+00	0	45	0	2273312768	60	7487
2026-01-30 14:12:00.58	247.19	34.66	-45.1	-45.7	25.2	0.00e+00	0	46	0	2301624320	60	7567
2026-01-30 14:12:04.60	248.72	34.92	-44.8	-45.3	25.5	0.00e+00	0	45	0	2330984448	60	7221
2026-01-30 14:12:08.63	250.27	35.17	-44.7	-45.3	25.5	0.00e+00	0	45	0	2360344576	60	7210
2026-01-30 14:12:12.64	251.84	35.39	-44.8	-45.4	25.4	0.00e+00	0	45	0	2389704704	60	7292
2026-01-30 14:12:16.65	253.43	35.59	-44.9	-45.5	25.4	0.00e+00	0	45	0	2418016256	60	7369
2026-01-30 14:12:20.69	255.05	35.77	-44.4	-45.0	25.8	0.00e+00	0	45	0	2447376384	60	6931
2026-01-30 14:12:24.71	256.68	35.93	-44.6	-45.1	25.6	0.00e+00	0	45	0	2475687936	60	7078
2026-01-30 14:12:28.73	258.32	36.05	-44.7	-45.2	25.5	0.00e+00	0	45	0	2505048064	60	7141
2026-01-30 14:12:32.76	259.98	36.16	-44.8	-45.4	25.3	0.00e+00	0	45	0	2534408192	60	7291
2026-01-30 14:12:36.77	261.64	36.23	-44.6	-45.1	25.6	0.00e+00	0	46	0	2563768320	60	7087
2026-01-30 14:12:40.80	263.31	36.28	-44.7	-45.3	25.6	0.00e+00	0	45	0	2592079872	60	7202
2026-01-30 14:12:44.82	264.98	36.31	-44.8	-45.4	25.5	0.00e+00	0	45	0	2621440000	60	7314
2026-01-30 14:12:48.85	266.66	36.31	-44.9	-45.5	25.5	0.00e+00	0	45	0	2650800128	60	7405
2026-01-30 14:12:52.88	268.34	36.27	-44.8	-45.4	25.4	0.00e+00	0	45	0	2679111680	60	7274
2026-01-30 14:12:56.91	270.01	36.22	-44.8	-45.3	25.4	0.00e+00	0	45	0	2708471808	60	7240
2026-01-30 14:13:00.93	271.67	36.13	-45.1	-45.7	25.5	0.00e+00	0	45	0	2737831936	60	7540
2026-01-30 14:13:04.96	273.32	36.03	-44.8	-45.4	25.6	0.00e+00	0	45	0	2767192064	60	7290
2026-01-30 14:13:08.99	274.96	35.89	-45.1	-45.7	25.5	0.00e+00	0	45	0	2795503616	60	7527
2026-01-30 14:13:13.01	276.59	35.73	-45.1	-45.7	25.5	0.00e+00	0	45	0	2824863744	60	7587
2026-01-30 14:13:17.03	278.19	35.55	-44.7	-45.3	25.6	0.00e+00	0	45	0	2854223872	60	7225
2026-01-30 14:13:21.06	279.78	35.34	-45.0	-45.7	25.3	0.00e+00	0	45	0	2882535424	60	7545
2026-01-30 14:13:25.09	281.35	35.11	-45.0	-45.7	25.6	0.00e+00	0	45	0	2911895552	60	7513
2026-01-30 14:13:29.12	282.90	34.86	-45.3	-46.0	25.4	0.00e+00	0	45	0	2941255680	60	7808
2026-01-30 14:13:33.15	284.42	34.59	-45.6	-46.2	25.1	0.00e+00	0	45	0	2970615808	60	8012
2026-01-30 14:13:37.16	285.91	34.30	-45.6	-46.2	25.2	0.00e+00	0	45	0	2998927360	60	7980
2026-01-30 14:13:41.19	287.38	33.99	-45.4	-46.1	25.4	0.00e+00	0	45	0	3028287488	60	7876
2026-01-30 14:13:45.21	288.82	33.67	-45.5	-46.2	25.4	0.00e+00	0	45	0	3056599040	60	8004
2026-01-30 14:13:49.23	290.23	33.33	-45.4	-46.1	25.4	0.00e+00	0	45	0	3087007744	60	7914
2026-01-30 14:13:53.26	291.61	32.97	-45.7	-46.4	25.1	0.00e+00	0	45	0	3115319296	60	8186
2026-01-30 14:13:57.28	292.96	32.60	-45.6	-46.2	25.3	0.00e+00	0	45	0	3144679424	60	7979
2026-01-30 14:14:01.30	294.28	32.22	-45.5	-46.1	25.3	0.00e+00	0	45	0	3172990976	60	7932
2026-01-30 14:14:05.33	295.58	31.83	-45.6	-46.3	25.2	0.00e+00	0	45	0	3202351104	60	8056
2026-01-30 14:14:09.36	296.84	31.43	-45.5	-46.2	25.2	0.00e+00	0	45	0	3231711232	60	7956
2026-01-30 14:14:13.36	298.06	31.02	-45.3	-46.0	25.4	0.00e+00	0	45	0	3261071360	60	7812
2026-01-30 14:14:17.38	299.26	30.60	-45.4	-46.1	25.2	0.00e+00	0	45	0	3289382912	60	7915
2026-01-30 14:14:21.40	300.43	30.18	-45.4	-46.0	25.1	0.00e+00	0	46	0	3318743040	60	7825
2026-01-30 14:14:25.42	301.56	29.75	-45.6	-46.2	24.9	0.00e+00	0	46	0	3347054592	60	8021
2026-01-30 14:14:29.45	302.67	29.31	-45.6	-46.2	24.9	0.00e+00	0	45	0	3376414720	60	8021
2026-01-30 14:14:33.47	303.75	28.87	-45.3	-45.9	25.3	0.00e+00	0	45	0	3405774848	60	7691
2026-01-30 14:14:37.48	304.80	28.43	-45.5	-46.2	25.0	0.00e+00	0	45	0	3434086400	60	7980
2026-01-30 14:14:41.50	305.82	27.98	-45.7	-46.3	24.7	0.00e+00	0	45	0	3463446528	60	8136
2026-01-30 14:14:45.53	306.81	27.53	-45.4	-46.0	25.0	0.00e+00	0	46	0	3492806656	60	7860
2026-01-30 14:14:49.56	307.78	27.08	-45.3	-45.8	25.0	0.00e+00	0	45	0	3522166784	60	7682
2026-01-30 14:14:53.59	308.73	26.63	-45.6	-46.3	24.5	0.00e+00	0	45	0	3550478336	60	8052
2026-01-30 14:14:57.61	309.64	26.18	-45.6	-46.2	24.4	0.00e+00	0	45	0	3579838464	60	8040
2026-01-30 14:15:01.64	310.53	25.73	-45.6	-46.3	24.3	0.00e+00	0	46	0	3609198592	60	8068
2026-01-30 14:15:05.67	311.40	25.28	-45.5	-46.1	24.5	0.00e+00	0	45	0	3638558720	60	7923
2026-01-30 14:15:09.69	312.24	24.83	-45.7	-46.4	24.2	0.00e+00	0	46	0	3666870272	60	8152
2026-01-30 14:15:13.72	313.06	24.38	-45.8	-46.5	23.9	0.00e+00	0	45	0	3696230400	60	8307
2026-01-30 14:15:17.75	313.86	23.94	-45.8	-46.5	23.9	0.00e+00	0	45	0	3725590528	60	8305
2026-01-30 14:15:21.78	314.63	23.49	-46.0	-46.7	23.8	0.00e+00	0	46	0	3753902080	60	8459
2026-01-30 14:15:25.81	315.39	23.05	-46.1	-46.8	23.5	0.00e+00	0	45	0	3783262208	60	8559
2026-01-30 14:15:29.83	316.12	22.61	-46.1	-46.7	23.6	0.00e+00	0	46	0	3812622336	60	8476
2026-01-30 14:15:33.86	316.84	22.18	-45.9	-46.6	23.4	0.00e+00	0	46	0	3841982464	60	8366
2026-01-30 14:15:37.89	317.53	21.74	-46.1	-46.8	23.3	0.00e+00	0	46	0	3870294016	60	8565
2026-01-30 14:15:41.92	318.21	21.32	-46.6	-47.3	23.0	0.00e+00	0	46	0	3899654144	60	9126
2026-01-30 14:15:45.95	318.87	20.89	-47.0	-47.8	22.6	0.00e+00	0	46	0	3929014272	60	9563
2026-01-30 14:15:49.98	319.51	20.47	-46.7	-47.5	23.1	0.00e+00	0	46	0	3958374400	60	9244
2026-01-30 14:15:54.02	320.13	20.05	-46.6	-47.3	23.3	0.00e+00	0	46	0	3986685952	60	9059
2026-01-30 14:15:58.05	320.74	19.63	-46.6	-47.3	23.2	0.00e+00	0	46	0	4016046080	60	9051
2026-01-30 14:16:02.08	321.34	19.22	-47.0	-47.7	22.9	0.00e+00	0	46	0	4045406208	60	9519
2026-01-30 14:16:06.11	321.91	18.82	-47.1	-47.8	22.8	0.00e+00	0	46	0	4073717760	60	9565
2026-01-30 14:16:10.14	322.48	18.41	-47.1	-47.8	22.6	0.00e+00	0	46	0	4104126464	60	9647
2026-01-30 14:16:14.16	323.02	18.01	-47.2	-47.9	22.6	0.00e+00	0	46	0	4132438016	60	9734
2026-01-30 14:16:18.19	323.56	17.62	-47.1	-47.8	22.8	0.00e+00	0	45	0	4161798144	60	9654
2026-01-30 14:16:22.22	324.08	17.23	-47.0	-47.7	22.8	0.00e+00	0	45	0	4190109696	60	9490
2026-01-30 14:16:26.25	324.59	16.84	-46.9	-47.7	22.8	0.00e+00	0	46	0	4219469824	60	9530
2026-01-30 14:16:30.28	325.09	16.46	-47.2	-48.0	22.5	0.00e+00	0	46	0	4248829952	60	9819
2026-01-30 14:16:34.30	325.57	16.08	-47.7	-48.4	22.0	0.00e+00	0	46	0	4277141504	60	10359
2026-01-30 14:16:38.33	326.04	15.71	-48.0	-48.8	21.7	0.00e+00	0	45	0	4307550208	60	10736
2026-01-30 14:16:42.35	326.50	15.34	-48.2	-49.1	21.5	0.00e+00	0	45	0	4335861760	60	11150
2026-01-30 14:16:46.38	326.96	14.97	-48.5	-49.6	20.9	0.00e+00	0	46	0	4365221888	60	11781
2026-01-30 14:16:50.41	327.40	14.61	-48.6	-50.1	20.2	0.00e+00	0	46	0	4393533440	60	12590
2026-01-30 14:16:54.43	327.83	14.25	-49.2	-50.9	19.4	0.00e+00	0	46	0	4423942144	60	13775
2026-01-30 14:16:58.46	328.25	13.89	-50.2	-51.5	18.6	0.00e+00	0	46	0	4452253696	60	14785
2026-01-30 14:17:02.49	328.66	13.54	-50.5	-52.3	17.5	0.00e+00	0	46	0	4481613824	60	16196
2026-01-30 14:17:06.52	329.06	13.20	-50.0	-53.2	16.4	0.00e+00	0	46	0	4510973952	60	17906
2026-01-30 14:17:10.53	329.45	12.85	-49.8	-54.0	15.3	0.00e+00	0	46	0	4539285504	60	19747
2026-01-30 14:17:14.56	329.84	12.51	-50.1	-54.9	14.3	0.00e+00	0	46	0	4568645632	60	21847
2026-01-30 14:17:18.59	330.22	12.18	-51.0	-56.0	13.2	1.02e-05	0	46	0	4596957184	60	24784
2026-01-30 14:17:22.63	330.58	11.84	-52.4	-57.3	11.9	3.57e-04	0	46	0	4627365888	60	28603
2026-01-30 14:17:26.65	330.95	11.51	-52.4	-58.5	10.4	3.42e-03	0	46	0	4655677440	60	32923
2026-01-30 14:17:30.68	331.30	11.19	-51.7	-59.7	9.0	1.93e-02	0	46	0	4685037568	60	37846
2026-01-30 14:17:34.72	331.65	10.87	-51.8	-60.8	7.8	6.99e-02	0	46	0	4713349120	60	42726
2026-01-30 14:17:38.74	331.98	10.55	-52.4	-61.9	6.4	2.05e-01	0	46	0	4743757824	60	48855
2026-01-30 14:17:42.76	332.31	10.23	-54.6	-64.4	4.2	8.17e-01	0	46	0	4762632192	60	65144
2026-01-30 14:17:46.79	332.64	9.92	-54.4	-64.1	4.3	8.02e-01	0	46	0	4763680768	60	63134
2026-01-30 14:17:50.82	332.96	9.61	-54.1	-65.2	3.8	8.33e-01	0	46	0	4763680768	60	71288
2026-01-30 14:17:54.84	333.27	9.30	-53.6	-68.0	3.8	8.45e-01	0	46	104	4763680768	60	97897
2026-01-30 14:17:58.87	333.58	9.00	-54.0	-68.6	3.6	8.44e-01	0	46	104	4763680768	60	105147
2026-01-30 14:18:02.88	333.88	8.70	-53.1	-69.6	3.6	8.45e-01	0	46	104	4763680768	60	118674
2026-01-30 14:18:06.90	334.17	8.41	-53.9	-70.1	3.6	8.46e-01	0	46	104	4763680768	60	124697
2026-01-30 14:18:10.92	334.46	8.11	-55.0	-70.2	3.6	8.44e-01	0	46	104	4763680768	60	126840
2026-01-30 14:18:14.96	334.75	7.82	-56.0	-70.3	3.6	8.46e-01	0	46	104	4763680768	60	128547
2026-01-30 14:18:18.98	335.02	7.53	-56.8	-70.6	3.6	8.46e-01	0	46	104	4763680768	60	132290
2026-01-30 14:18:23.01	335.30	7.25	-56.1	-70.5	3.6	8.45e-01	0	46	104	4763680768	60	130737
2026-01-30 14:18:27.03	335.57	6.96	-54.0	-70.5	3.6	8.45e-01	0	46	104	4763680768	60	131128
2026-01-30 14:18:31.05	335.83	6.68	-52.5	-70.4	3.6	8.45e-01	0	46	104	4763680768	60	130172
2026-01-30 14:18:35.07	336.09	6.41	-52.2	-70.3	3.6	8.45e-01	0	46	104	4763680768	60	128554
2026-01-30 14:18:39.10	336.35	6.13	-53.1	-70.1	3.6	8.45e-01	0	46	104	4763680768	60	125836
2026-01-30 14:18:43.12	336.60	5.86	-51.0	-70.5	3.6	8.45e-01	0	46	104	4763680768	60	131522
2026-01-30 14:18:47.14	336.84	5.59	-56.6	-72.2	3.6	8.46e-01	0	46	104	4763680768	60	159911
2026-01-30 14:18:51.17	337.08	5.32	-59.4	-72.8	3.6	8.46e-01	0	46	104	4763680768	60	170897
2026-01-30 14:18:55.18	337.32	5.05	-59.3	-72.5	3.6	8.46e-01	0	46	104	4763680768	60	165502
2026-01-30 14:18:59.19	337.55	4.79	-59.1	-73.4	3.6	8.45e-01	0	46	104	4763680768	60	182625
2026-01-30 14:19:03.20	337.78	4.53	-60.3	-73.3	3.6	8.45e-01	0	46	104	4763680768	60	181887
2026-01-30 14:19:07.22	338.01	4.27	-59.4	-73.2	3.6	8.45e-01	0	46	104	4763680768	60	178941
2026-01-30 14:19:11.24	338.23	4.02	-58.3	-73.3	3.6	8.44e-01	0	46	104	4763680768	60	181630
2026-01-30 14:19:15.27	338.45	3.76	-59.8	-73.4	3.6	8.46e-01	0	46	104	4763680768	60	184284
2026-01-30 14:19:19.29	338.67	3.51	-59.8	-74.1	3.6	8.45e-01	0	46	104	4763680768	60	198898
2026-01-30 14:19:23.31	338.88	3.26	-57.9	-73.4	3.6	8.46e-01	0	46	104	4763680768	60	182758
2026-01-30 14:19:27.33	339.09	3.01	-58.0	-73.4	3.6	8.43e-01	0	46	104	4763680768	60	183287
2026-01-30 14:19:31.36	339.30	2.76	-58.6	-73.5	3.6	8.44e-01	0	46	104	4763680768	60	184864
2026-01-30 14:19:35.38	339.50	2.52	-58.5	-73.5	3.6	8.45e-01	0	46	104	4763680768	60	184445
2026-01-30 14:19:39.40	339.70	2.28	-58.6	-73.4	3.6	8.46e-01	0	46	104	4763680768	60	183790
2026-01-30 14:19:43.43	339.90	2.03	-58.5	-73.5	3.6	8.44e-01	0	46	104	4763680768	60	184917
2026-01-30 14:19:47.46	340.09	1.80	-58.5	-73.4	3.6	8.44e-01	0	46	104	4763680768	60	183191
2026-01-30 14:19:51.49	340.28	1.56	-58.5	-73.5	3.6	8.46e-01	0	46	104	4763680768	60	185189
2026-01-30 14:19:55.52	340.47	1.32	-58.6	-73.3	3.6	8.45e-01	0	46	104	4763680768	60	181869
2026-01-30 14:19:59.53	340.66	1.09	-58.5	-73.4	3.6	8.45e-01	0	46	104	4763680768	60	184314
2026-01-30 14:20:03.56	340.84	0.85	-58.4	-73.5	3.6	8.45e-01	0	46	104	4763680768	60	184602
2026-01-30 14:20:07.59	341.02	0.62	-58.5	-73.4	3.6	8.45e-01	0	46	104	4763680768	60	182522
2026-01-30 14:20:11.61	341.20	0.39	-58.6	-73.4	3.6	8.46e-01	0	46	104	4763680768	60	183691
2026-01-30 14:20:15.63	341.38	0.17	-58.5	-73.4	3.6	8.46e-01	0	46	104	4763680768	60	183899
2026-01-30 14:20:19.66	341.55	-0.06	-58.3	-73.4	3.6	8.45e-01	0	46	104	4763680768	60	183350

#Closed at: 2026-01-30 14:20:20
#Recorded file [4763 MB]: D:/Data/35015_260130_171757.dat