passes_logs/2026/01/30/R3.2S-Naryan-Mar/R3.2S-Naryan-Mar__20260130_080533_SUOMI_NPP_rec.log

#Pass ID: 20260130_080533_SUOMI NPP
#Satellite: SUOMI NPP
#Configuration: NPP
#almurnet v.1.7.20240730
#Start time: 2026-01-30 08:05:34

#Version: 2.2.20231116
#Station: R3.2S-Naryan-Mar
#Location: 53.008057 lon 67.646978 lat
#TLE: 1 37849U 11061A   26029.48304708  .00000140  00000+0  87283-4 0  9999
#TLE: 2 37849  98.7824 331.4079 0002024  38.4342 321.6978 14.19531488738761

#Time	Az	El	Level	Level2	SNR	BER	BlckErr	Temp	State	Recorded	gain1	gain2
2026-01-30 08:05:34.07	146.44	0.06	-62.9	-76.7	3.4	1.52e+00	0	43	0	0	60	260302
2026-01-30 08:05:38.09	146.42	0.30	-62.5	-79.2	3.6	1.51e+00	0	44	104	0	60	355803
2026-01-30 08:05:42.12	146.41	0.54	-62.1	-79.1	3.6	1.51e+00	0	44	104	0	60	352887
2026-01-30 08:05:46.14	146.39	0.79	-63.0	-79.4	3.6	1.51e+00	0	44	104	0	60	364936
2026-01-30 08:05:50.16	146.37	1.04	-63.0	-79.3	3.6	1.51e+00	0	44	104	0	60	359890
2026-01-30 08:05:54.20	146.36	1.29	-62.6	-78.8	3.6	1.51e+00	0	44	104	0	60	341486
2026-01-30 08:05:58.22	146.34	1.55	-62.2	-78.5	3.6	1.51e+00	0	44	104	0	60	329926
2026-01-30 08:06:02.25	146.32	1.80	-61.7	-78.0	3.6	1.51e+00	0	44	104	0	60	310897
2026-01-30 08:06:06.27	146.30	2.06	-61.3	-77.6	3.6	1.51e+00	0	44	104	0	60	296311
2026-01-30 08:06:10.30	146.28	2.32	-59.6	-76.5	3.6	1.51e+00	0	44	104	0	60	261296
2026-01-30 08:06:14.34	146.26	2.58	-59.3	-75.7	3.6	1.51e+00	0	44	104	0	60	238846
2026-01-30 08:06:18.36	146.24	2.85	-59.2	-75.6	3.6	1.51e+00	0	44	104	0	60	236832
2026-01-30 08:06:22.39	146.22	3.12	-59.2	-75.5	3.6	1.51e+00	0	44	104	0	60	233844
2026-01-30 08:06:26.40	146.19	3.38	-59.2	-75.3	3.6	1.51e+00	0	44	104	0	60	228868
2026-01-30 08:06:30.43	146.17	3.66	-59.1	-75.2	3.6	1.51e+00	0	45	104	0	60	224970
2026-01-30 08:06:34.45	146.15	3.93	-59.1	-74.6	3.6	1.51e+00	0	45	104	0	60	210597
2026-01-30 08:06:38.47	146.12	4.21	-59.1	-74.8	3.6	1.51e+00	0	45	104	0	60	215132
2026-01-30 08:06:42.50	146.10	4.49	-58.9	-71.9	4.1	1.43e+00	0	45	104	0	60	154773
2026-01-30 08:06:46.52	146.07	4.78	-57.9	-64.1	10.0	3.31e-02	0	45	0	6291456	60	62698
2026-01-30 08:06:50.54	146.04	5.06	-56.3	-59.9	14.4	1.50e-06	0	45	0	13631488	60	38832
2026-01-30 08:06:54.56	146.02	5.35	-55.3	-58.1	16.3	0.00e+00	0	45	0	20971520	60	31352
2026-01-30 08:06:58.59	145.99	5.65	-55.7	-58.8	15.6	0.00e+00	0	45	0	29360128	60	34016
2026-01-30 08:07:02.61	145.96	5.95	-57.3	-62.2	11.7	7.55e-05	0	45	0	36700160	60	50247
2026-01-30 08:07:06.63	145.93	6.25	-56.8	-61.0	10.5	7.00e-07	0	45	0	44040192	60	43723
2026-01-30 08:07:10.65	145.90	6.55	-56.0	-59.2	15.5	0.00e+00	0	45	0	3145728	60	35592
2026-01-30 08:07:14.68	145.87	6.86	-55.8	-58.7	15.8	0.00e+00	0	45	0	10485760	60	33882
2026-01-30 08:07:18.71	145.83	7.17	-54.7	-57.0	17.6	0.00e+00	0	45	0	17825792	60	27737
2026-01-30 08:07:22.73	145.80	7.48	-54.8	-57.1	17.6	0.00e+00	0	45	0	25165824	60	28091
2026-01-30 08:07:26.75	145.77	7.80	-54.7	-57.0	17.7	0.00e+00	0	45	0	32505856	60	27885
2026-01-30 08:07:30.78	145.73	8.13	-54.6	-56.9	17.8	0.00e+00	0	45	0	40894464	60	27538
2026-01-30 08:07:34.81	145.69	8.45	-54.3	-56.4	18.2	0.00e+00	0	45	0	48234496	60	25940
2026-01-30 08:07:38.84	145.65	8.79	-54.3	-56.4	18.3	0.00e+00	0	45	0	55574528	60	25976
2026-01-30 08:07:42.87	145.61	9.12	-54.1	-56.3	18.6	0.00e+00	0	45	0	62914560	60	25519
2026-01-30 08:07:46.90	145.57	9.46	-54.1	-56.1	18.8	0.00e+00	0	45	0	71303168	60	25148
2026-01-30 08:07:50.92	145.53	9.81	-54.1	-56.1	18.8	0.00e+00	0	45	0	78643200	60	24916
2026-01-30 08:07:54.95	145.49	10.16	-54.2	-56.0	18.9	0.00e+00	0	45	0	85983232	60	24857
2026-01-30 08:07:58.98	145.44	10.51	-53.9	-55.6	19.3	0.00e+00	0	45	0	93323264	60	23620
2026-01-30 08:08:02.99	145.40	10.87	-53.9	-55.7	19.4	0.00e+00	0	45	0	100663296	60	23764
2026-01-30 08:08:07.01	145.35	11.24	-53.8	-55.6	19.4	0.00e+00	0	45	0	108003328	60	23583
2026-01-30 08:08:11.03	145.30	11.61	-53.8	-55.6	19.4	0.00e+00	0	45	0	116391936	60	23571
2026-01-30 08:08:15.05	145.25	11.99	-53.7	-55.4	19.5	0.00e+00	0	45	0	123731968	60	23154
2026-01-30 08:08:19.08	145.20	12.37	-53.5	-55.2	19.8	0.00e+00	0	45	0	131072000	60	22429
2026-01-30 08:08:23.10	145.15	12.76	-53.6	-55.2	19.8	0.00e+00	0	45	0	138412032	60	22547
2026-01-30 08:08:27.13	145.09	13.15	-53.6	-55.3	19.8	0.00e+00	0	45	0	145752064	60	22716
2026-01-30 08:08:31.15	145.03	13.56	-53.7	-55.4	19.7	0.00e+00	0	45	0	154140672	60	23067
2026-01-30 08:08:35.17	144.97	13.96	-54.0	-55.8	19.5	0.00e+00	0	45	0	161480704	60	24037
2026-01-30 08:08:39.20	144.91	14.38	-53.8	-55.4	19.7	0.00e+00	0	45	0	168820736	60	23107
2026-01-30 08:08:43.23	144.85	14.80	-53.6	-55.2	20.0	0.00e+00	0	45	0	176160768	60	22634
2026-01-30 08:08:47.25	144.78	15.23	-53.4	-54.9	20.2	0.00e+00	0	45	0	183500800	60	21838
2026-01-30 08:08:51.27	144.71	15.67	-53.3	-54.8	20.4	0.00e+00	0	45	0	190840832	60	21501
2026-01-30 08:08:55.30	144.64	16.12	-53.2	-54.7	20.5	0.00e+00	0	45	0	199229440	60	21204
2026-01-30 08:08:59.33	144.57	16.57	-52.9	-54.3	20.7	0.00e+00	0	45	0	206569472	60	20357
2026-01-30 08:09:03.35	144.49	17.03	-52.7	-54.1	20.9	0.00e+00	0	45	0	213909504	60	19855
2026-01-30 08:09:07.38	144.41	17.50	-52.8	-54.1	20.9	0.00e+00	0	45	0	221249536	60	19968
2026-01-30 08:09:11.40	144.33	17.98	-52.9	-54.3	20.8	0.00e+00	0	45	0	229638144	60	20369
2026-01-30 08:09:15.42	144.25	18.47	-52.8	-54.2	20.8	0.00e+00	0	45	0	236978176	60	20136
2026-01-30 08:09:19.43	144.16	18.97	-52.7	-54.1	20.9	0.00e+00	0	45	0	244318208	60	19813
2026-01-30 08:09:23.45	144.07	19.48	-52.8	-54.2	20.9	0.00e+00	0	45	0	251658240	60	20143
2026-01-30 08:09:27.48	143.97	20.00	-52.9	-54.3	20.8	0.00e+00	0	45	0	258998272	60	20304
2026-01-30 08:09:31.50	143.87	20.53	-53.0	-54.4	20.8	0.00e+00	0	45	0	267386880	60	20645
2026-01-30 08:09:35.52	143.77	21.07	-53.0	-54.3	20.9	0.00e+00	0	45	0	274726912	60	20414
2026-01-30 08:09:39.53	143.66	21.63	-52.7	-54.0	21.2	0.00e+00	0	45	0	282066944	60	19673
2026-01-30 08:09:43.56	143.55	22.19	-52.7	-54.0	21.2	0.00e+00	0	45	0	289406976	60	19695
2026-01-30 08:09:47.59	143.43	22.77	-52.8	-54.1	21.3	0.00e+00	0	45	0	296747008	60	19791
2026-01-30 08:09:51.62	143.31	23.37	-52.5	-53.7	21.6	0.00e+00	0	45	0	304087040	60	18991
2026-01-30 08:09:55.64	143.19	23.97	-52.4	-53.6	21.8	0.00e+00	0	45	0	312475648	60	18833
2026-01-30 08:09:59.67	143.05	24.60	-52.7	-54.0	21.4	0.00e+00	0	45	0	319815680	60	19626
2026-01-30 08:10:03.70	142.92	25.23	-53.2	-54.6	20.9	0.00e+00	0	45	0	327155712	60	21091
2026-01-30 08:10:07.72	142.77	25.88	-53.1	-54.4	20.8	0.00e+00	0	45	0	334495744	60	20678
2026-01-30 08:10:11.75	142.62	26.55	-52.8	-54.0	21.4	0.00e+00	0	45	0	341835776	60	19738
2026-01-30 08:10:15.77	142.46	27.23	-53.3	-54.7	20.8	0.00e+00	0	45	0	350224384	60	21173
2026-01-30 08:10:19.78	142.30	27.93	-53.8	-55.2	20.4	0.00e+00	0	45	0	357564416	60	22665
2026-01-30 08:10:23.81	142.12	28.65	-53.7	-55.1	20.7	0.00e+00	0	45	0	364904448	60	22376
2026-01-30 08:10:27.83	141.94	29.39	-53.9	-55.4	20.3	0.00e+00	0	45	0	372244480	60	22988
2026-01-30 08:10:31.86	141.75	30.15	-54.8	-56.6	19.3	0.00e+00	0	45	0	379584512	60	26370
2026-01-30 08:10:35.88	141.55	30.92	-54.3	-55.9	19.9	0.00e+00	0	45	0	387973120	60	24573
2026-01-30 08:10:39.91	141.33	31.72	-54.5	-56.1	19.8	0.00e+00	0	45	0	395313152	60	24951
2026-01-30 08:10:43.92	141.11	32.54	-55.8	-57.8	18.2	0.00e+00	0	45	0	402653184	60	30528
2026-01-30 08:10:47.95	140.87	33.38	-55.7	-57.7	18.3	0.00e+00	0	45	0	409993216	60	30094
2026-01-30 08:10:51.96	140.62	34.24	-56.4	-58.8	17.2	0.00e+00	0	45	0	417333248	60	34057
2026-01-30 08:10:55.98	140.36	35.13	-55.5	-57.4	19.0	0.00e+00	0	45	0	425721856	60	29060
2026-01-30 08:10:59.99	140.08	36.04	-54.9	-56.7	19.3	0.00e+00	0	45	0	433061888	60	26834
2026-01-30 08:11:04.02	139.78	36.98	-55.5	-57.4	18.9	0.00e+00	0	45	0	440401920	60	29167
2026-01-30 08:11:08.04	139.47	37.95	-54.1	-55.6	20.3	0.00e+00	0	45	0	447741952	60	23573
2026-01-30 08:11:12.07	139.13	38.94	-54.9	-56.8	19.1	0.00e+00	0	45	0	455081984	60	27127
2026-01-30 08:11:16.10	138.77	39.96	-55.8	-58.0	18.1	0.00e+00	0	45	0	463470592	60	31133
2026-01-30 08:11:20.13	138.39	41.02	-56.1	-58.4	17.7	0.00e+00	0	45	0	470810624	60	32502
2026-01-30 08:11:24.16	137.97	42.10	-55.7	-57.8	18.5	0.00e+00	0	45	0	478150656	60	30244
2026-01-30 08:11:28.19	137.53	43.21	-55.5	-57.5	18.8	0.00e+00	0	45	0	485490688	60	29352
2026-01-30 08:11:32.22	137.06	44.35	-56.0	-58.2	18.0	0.00e+00	0	45	0	492830720	60	32011
2026-01-30 08:11:36.25	136.55	45.53	-54.4	-56.0	20.1	0.00e+00	0	45	0	501219328	60	24677
2026-01-30 08:11:40.28	136.00	46.74	-56.3	-58.5	17.9	0.00e+00	0	45	0	508559360	60	33141
2026-01-30 08:11:44.30	135.40	47.98	-55.8	-57.8	18.7	0.00e+00	0	45	0	515899392	60	30366
2026-01-30 08:11:48.33	134.75	49.25	-54.6	-56.1	20.1	0.00e+00	0	45	0	523239424	60	24872
2026-01-30 08:11:52.35	134.04	50.55	-53.1	-54.3	21.7	0.00e+00	0	45	0	530579456	60	20328
2026-01-30 08:11:56.38	133.27	51.89	-53.8	-55.2	21.0	0.00e+00	0	45	0	538968064	60	22502
2026-01-30 08:12:00.42	132.42	53.26	-56.1	-58.2	18.4	0.00e+00	0	45	0	546308096	60	32010
2026-01-30 08:12:04.44	131.49	54.66	-54.5	-56.1	20.2	0.00e+00	0	45	0	553648128	60	25088
2026-01-30 08:12:08.47	130.45	56.09	-53.5	-54.9	21.4	0.00e+00	0	45	0	560988160	60	21705
2026-01-30 08:12:12.50	129.30	57.55	-54.2	-55.8	20.5	0.00e+00	0	45	0	568328192	60	24127
2026-01-30 08:12:16.53	128.02	59.04	-55.1	-57.1	19.4	0.00e+00	0	45	0	576716800	60	28062
2026-01-30 08:12:20.56	126.59	60.54	-54.3	-56.2	19.9	0.00e+00	0	45	0	584056832	60	25200
2026-01-30 08:12:24.59	124.96	62.06	-53.1	-54.7	21.1	0.00e+00	0	45	0	591396864	60	21308
2026-01-30 08:12:28.62	123.13	63.60	-53.2	-54.7	21.2	0.00e+00	0	45	0	598736896	60	21217
2026-01-30 08:12:32.65	121.03	65.14	-53.3	-54.9	21.1	0.00e+00	0	45	0	606076928	60	21706
2026-01-30 08:12:36.68	118.62	66.67	-54.8	-57.0	19.4	0.00e+00	0	45	0	614465536	60	27733
2026-01-30 08:12:40.71	115.83	68.19	-54.6	-56.7	19.9	0.00e+00	0	45	0	621805568	60	26712
2026-01-30 08:12:44.73	112.60	69.67	-56.5	-59.9	16.6	0.00e+00	0	45	0	629145600	60	38783
2026-01-30 08:12:48.75	108.84	71.11	-55.0	-57.6	18.9	0.00e+00	0	45	0	636485632	60	29615
2026-01-30 08:12:52.77	104.42	72.48	-55.4	-59.1	16.9	0.00e+00	0	45	0	643825664	60	35420
2026-01-30 08:12:56.80	99.23	73.74	-52.7	-54.6	21.1	0.00e+00	0	45	0	652214272	60	21028
2026-01-30 08:13:00.82	93.19	74.87	-53.9	-56.0	20.0	0.00e+00	0	45	0	659554304	60	24793
2026-01-30 08:13:04.84	86.23	75.81	-52.9	-54.7	21.1	0.00e+00	0	45	0	666894336	60	21204
2026-01-30 08:13:08.86	78.37	76.53	-55.4	-57.8	18.6	0.00e+00	0	45	0	674234368	60	30566
2026-01-30 08:13:12.89	69.74	76.99	-55.1	-57.0	19.6	0.00e+00	0	45	0	681574400	60	27616
2026-01-30 08:13:16.91	60.73	77.13	-55.3	-57.2	19.1	0.00e+00	0	45	0	689963008	60	28516
2026-01-30 08:13:20.94	51.70	76.97	-55.9	-58.0	19.3	0.00e+00	0	45	0	697303040	60	31029
2026-01-30 08:13:24.95	43.16	76.50	-56.6	-59.0	18.1	0.00e+00	0	45	0	704643072	60	34948
2026-01-30 08:13:28.97	35.35	75.77	-54.4	-56.2	20.2	0.00e+00	0	45	0	711983104	60	25178
2026-01-30 08:13:32.99	28.44	74.81	-57.5	-60.9	16.1	0.00e+00	0	45	0	719323136	60	43491
2026-01-30 08:13:37.00	22.47	73.68	-57.5	-60.7	16.5	0.00e+00	0	45	0	727711744	60	42245
2026-01-30 08:13:41.00	17.36	72.42	-55.8	-58.1	18.7	0.00e+00	0	45	0	735051776	60	31628
2026-01-30 08:13:45.01	12.99	71.06	-56.2	-58.9	18.0	0.00e+00	0	45	0	742391808	60	34497
2026-01-30 08:13:49.01	9.27	69.63	-56.3	-58.7	18.5	0.00e+00	0	45	0	749731840	60	33656
2026-01-30 08:13:53.01	6.08	68.15	-56.0	-58.2	18.9	0.00e+00	0	45	0	757071872	60	32005
2026-01-30 08:13:57.02	3.32	66.64	-55.5	-57.4	19.9	0.00e+00	0	45	0	764411904	60	28922
2026-01-30 08:14:01.03	0.94	65.12	-52.3	-53.5	22.3	0.00e+00	0	45	0	771751936	60	18452
2026-01-30 08:14:05.03	358.86	63.59	-54.5	-56.1	20.6	0.00e+00	0	45	0	780140544	60	25018
2026-01-30 08:14:09.05	357.03	62.06	-55.6	-57.4	19.3	0.00e+00	0	45	0	787480576	60	29116
2026-01-30 08:14:13.06	355.42	60.55	-57.2	-60.2	17.2	0.00e+00	0	45	0	794820608	60	39946
2026-01-30 08:14:17.07	353.99	59.06	-53.0	-54.2	22.0	0.00e+00	0	45	0	802160640	60	20124
2026-01-30 08:14:21.08	352.72	57.59	-53.9	-55.4	20.6	0.00e+00	0	45	0	809500672	60	23181
2026-01-30 08:14:25.08	351.58	56.14	-54.3	-55.8	20.8	0.00e+00	0	45	0	817889280	60	24279
2026-01-30 08:14:29.11	350.55	54.72	-56.4	-58.7	18.0	0.00e+00	0	45	0	825229312	60	33823
2026-01-30 08:14:33.14	349.61	53.32	-55.0	-56.9	19.8	0.00e+00	0	45	0	832569344	60	27319
2026-01-30 08:14:37.17	348.76	51.95	-55.3	-57.5	19.2	0.00e+00	0	45	0	839909376	60	29313
2026-01-30 08:14:41.19	347.99	50.62	-54.4	-56.1	20.2	0.00e+00	0	45	0	847249408	60	25112
2026-01-30 08:14:45.22	347.29	49.32	-55.8	-57.9	18.6	0.00e+00	0	45	0	854589440	60	30802
2026-01-30 08:14:49.25	346.64	48.05	-57.4	-60.5	16.1	0.00e+00	0	45	0	862978048	60	41606
2026-01-30 08:14:53.26	346.04	46.82	-56.8	-59.4	17.2	0.00e+00	0	45	0	870318080	60	36515
2026-01-30 08:14:57.29	345.49	45.61	-54.3	-56.3	19.7	0.00e+00	0	45	0	877658112	60	25512
2026-01-30 08:15:01.31	344.98	44.44	-55.1	-57.5	18.6	0.00e+00	0	45	0	884998144	60	29253
2026-01-30 08:15:05.34	344.51	43.30	-55.4	-57.8	18.5	0.00e+00	0	45	0	892338176	60	30513
2026-01-30 08:15:09.36	344.07	42.19	-57.7	-62.1	13.8	7.00e-07	0	45	0	900726784	60	49806
2026-01-30 08:15:13.38	343.66	41.12	-55.4	-57.4	18.7	0.00e+00	0	45	0	908066816	60	29154
2026-01-30 08:15:17.41	343.28	40.07	-55.5	-57.9	18.1	0.00e+00	0	45	0	915406848	60	30775
2026-01-30 08:15:21.43	342.92	39.05	-55.5	-58.6	17.1	0.00e+00	0	45	0	922746880	60	33442
2026-01-30 08:15:25.45	342.58	38.06	-53.6	-55.5	20.0	0.00e+00	0	45	0	930086912	60	23426
2026-01-30 08:15:29.46	342.27	37.10	-55.7	-58.0	18.1	0.00e+00	0	45	0	938475520	60	31274
2026-01-30 08:15:33.49	341.97	36.16	-56.2	-58.9	17.5	0.00e+00	0	45	0	945815552	60	34590
2026-01-30 08:15:37.51	341.69	35.25	-57.0	-60.0	16.2	0.00e+00	0	45	0	953155584	60	39147
2026-01-30 08:15:41.53	341.43	34.36	-55.1	-57.4	18.2	0.00e+00	0	45	0	960495616	60	29135
2026-01-30 08:15:45.55	341.18	33.50	-55.1	-58.3	17.3	0.00e+00	0	45	0	967835648	60	32033
2026-01-30 08:15:49.56	340.94	32.66	-55.8	-58.8	16.8	0.00e+00	0	45	0	975175680	60	34168
2026-01-30 08:15:53.57	340.72	31.85	-56.5	-59.8	15.9	0.00e+00	0	45	0	983564288	60	38100
2026-01-30 08:15:57.60	340.51	31.05	-56.2	-59.3	16.7	0.00e+00	0	45	0	990904320	60	36241
2026-01-30 08:16:01.61	340.31	30.28	-55.8	-58.9	17.4	0.00e+00	0	45	0	998244352	60	34357
2026-01-30 08:16:05.63	340.12	29.53	-55.3	-58.2	17.7	0.00e+00	0	45	0	1005584384	60	31766
2026-01-30 08:16:09.65	339.94	28.79	-54.4	-56.6	19.2	0.00e+00	0	45	0	1012924416	60	26432
2026-01-30 08:16:13.67	339.76	28.07	-54.8	-56.9	19.1	0.00e+00	0	45	0	1021313024	60	27287
2026-01-30 08:16:17.69	339.60	27.37	-55.8	-58.4	17.6	0.00e+00	0	45	0	1028653056	60	32496
2026-01-30 08:16:21.70	339.44	26.69	-55.0	-57.0	18.9	0.00e+00	0	45	0	1035993088	60	27650
2026-01-30 08:16:25.71	339.29	26.03	-53.7	-55.2	20.5	0.00e+00	0	45	0	1043333120	60	22669
2026-01-30 08:16:29.74	339.15	25.38	-53.7	-55.2	20.6	0.00e+00	0	45	0	1050673152	60	22566
2026-01-30 08:16:33.76	339.01	24.75	-55.0	-56.9	19.1	0.00e+00	0	45	0	1058013184	60	27326
2026-01-30 08:16:37.78	338.88	24.13	-55.8	-58.2	17.8	0.00e+00	0	45	0	1066401792	60	31780
2026-01-30 08:16:41.80	338.76	23.52	-55.4	-57.8	18.3	0.00e+00	0	45	0	1073741824	60	30368
2026-01-30 08:16:45.82	338.64	22.93	-54.1	-56.5	19.1	0.00e+00	0	45	0	1081081856	60	26094
2026-01-30 08:16:49.83	338.52	22.35	-53.2	-55.5	20.0	0.00e+00	0	45	0	1088421888	60	23338
2026-01-30 08:16:53.85	338.41	21.79	-52.8	-54.6	20.9	0.00e+00	0	45	0	1095761920	60	20925
2026-01-30 08:16:57.87	338.31	21.23	-53.3	-54.8	21.0	0.00e+00	0	45	0	1104150528	60	21491
2026-01-30 08:17:01.90	338.21	20.69	-53.6	-55.4	20.2	0.00e+00	0	45	0	1111490560	60	23179
2026-01-30 08:17:05.92	338.11	20.16	-53.1	-55.6	19.7	0.00e+00	0	45	0	1118830592	60	23505
2026-01-30 08:17:09.93	338.02	19.64	-52.9	-55.2	20.2	0.00e+00	0	45	0	1126170624	60	22555
2026-01-30 08:17:13.95	337.93	19.13	-53.9	-55.7	20.1	0.00e+00	0	45	0	1133510656	60	23784
2026-01-30 08:17:17.97	337.84	18.64	-54.8	-56.8	19.1	0.00e+00	0	45	0	1141899264	60	27067
2026-01-30 08:17:21.99	337.76	18.15	-55.8	-58.7	16.6	0.00e+00	0	45	0	1149239296	60	33646
2026-01-30 08:17:26.01	337.68	17.67	-55.3	-60.1	14.3	7.00e-07	0	45	0	1156579328	60	39552
2026-01-30 08:17:30.02	337.60	17.20	-55.0	-60.9	13.5	1.90e-05	0	45	0	1163919360	60	43656
2026-01-30 08:17:34.05	337.52	16.74	-55.1	-60.7	13.6	9.90e-06	0	45	0	1171259392	60	42367
2026-01-30 08:17:38.06	337.45	16.28	-55.4	-60.1	14.5	0.00e+00	0	45	0	1178599424	60	39544
2026-01-30 08:17:42.08	337.38	15.84	-55.5	-60.1	14.7	0.00e+00	0	45	0	1186988032	60	39417
2026-01-30 08:17:46.12	337.32	15.40	-56.2	-60.6	14.1	3.00e-06	0	45	0	1194328064	60	41970
2026-01-30 08:17:50.13	337.25	14.97	-56.5	-60.6	13.8	2.20e-06	0	45	0	1201668096	60	41885
2026-01-30 08:17:54.13	337.19	14.55	-56.3	-60.8	13.1	3.58e-05	0	45	0	1209008128	60	42862
2026-01-30 08:17:58.16	337.13	14.14	-56.0	-60.9	12.8	4.95e-05	0	45	0	1216348160	60	43417
2026-01-30 08:18:02.18	337.08	13.73	-56.1	-61.5	12.0	1.88e-04	0	45	0	1224736768	60	46763
2026-01-30 08:18:06.19	337.02	13.33	-55.4	-62.0	11.3	6.32e-04	0	45	0	1232076800	60	49275
2026-01-30 08:18:10.21	336.97	12.94	-55.7	-62.8	10.5	4.04e-03	0	45	0	1239416832	60	53822
2026-01-30 08:18:14.24	336.91	12.55	-56.1	-63.6	9.5	1.06e-02	0	45	0	1246756864	60	59267
2026-01-30 08:18:18.27	336.86	12.16	-56.3	-64.6	8.2	4.75e-02	0	45	0	1254096896	60	66502
2026-01-30 08:18:22.29	336.82	11.79	-56.2	-65.5	7.1	1.31e-01	0	46	0	1262485504	60	74062
2026-01-30 08:18:26.31	336.77	11.42	-56.3	-66.5	6.1	2.82e-01	0	45	0	1269825536	60	82469
2026-01-30 08:18:30.33	336.72	11.05	-57.5	-68.0	4.9	5.97e-01	0	45	0	1277165568	60	98252
2026-01-30 08:18:34.34	336.68	10.69	-56.7	-68.4	4.3	9.15e-01	0	46	0	1284505600	60	103007
2026-01-30 08:18:38.36	336.64	10.34	-50.3	-71.0	3.6	1.51e+00	0	45	104	1289748480	60	138995
2026-01-30 08:18:42.38	336.60	9.99	-50.3	-70.4	3.6	1.50e+00	0	45	104	1289748480	60	129394
2026-01-30 08:18:46.40	336.56	9.64	-52.4	-72.7	3.6	1.51e+00	0	45	104	1289748480	60	169202
2026-01-30 08:18:50.41	336.52	9.31	-51.2	-72.3	3.6	1.51e+00	0	45	104	1289748480	60	160798
2026-01-30 08:18:54.43	336.48	8.97	-53.8	-73.4	3.6	1.51e+00	0	45	104	1289748480	60	182748
2026-01-30 08:18:58.45	336.45	8.64	-52.8	-73.3	3.6	1.51e+00	0	45	104	1289748480	60	181255
2026-01-30 08:19:02.47	336.41	8.31	-53.2	-72.2	3.6	1.51e+00	0	45	104	1289748480	60	158776
2026-01-30 08:19:06.49	336.38	7.99	-52.4	-72.6	3.6	1.51e+00	0	45	104	1289748480	60	167356
2026-01-30 08:19:10.51	336.35	7.67	-53.6	-72.3	3.6	1.51e+00	0	45	104	1289748480	60	161484
2026-01-30 08:19:14.53	336.32	7.36	-52.3	-71.8	3.6	1.51e+00	0	45	104	1289748480	60	151994
2026-01-30 08:19:18.54	336.29	7.05	-53.0	-72.2	3.6	1.51e+00	0	45	104	1289748480	60	160129
2026-01-30 08:19:22.56	336.26	6.74	-52.2	-71.8	3.6	1.51e+00	0	45	104	1289748480	60	151971
2026-01-30 08:19:26.58	336.23	6.44	-55.1	-73.4	3.6	1.51e+00	0	45	104	1289748480	60	182398
2026-01-30 08:19:30.60	336.20	6.14	-53.3	-72.8	3.6	1.51e+00	0	45	104	1289748480	60	171532
2026-01-30 08:19:34.61	336.18	5.84	-56.3	-74.6	3.6	1.51e+00	0	45	104	1289748480	60	210086
2026-01-30 08:19:38.64	336.15	5.55	-57.5	-75.9	3.6	1.51e+00	0	45	104	1289748480	60	245725
2026-01-30 08:19:42.67	336.13	5.26	-59.7	-77.3	3.6	1.51e+00	0	45	104	1289748480	60	286981
2026-01-30 08:19:46.70	336.10	4.97	-61.2	-77.8	3.6	1.51e+00	0	45	104	1289748480	60	302937
2026-01-30 08:19:50.72	336.08	4.68	-60.5	-77.8	3.6	1.51e+00	0	45	104	1289748480	60	305465
2026-01-30 08:19:54.75	336.06	4.40	-61.4	-78.0	3.6	1.51e+00	0	45	104	1289748480	60	310272
2026-01-30 08:19:58.78	336.04	4.12	-60.4	-77.9	3.6	1.51e+00	0	45	104	1289748480	60	307469
2026-01-30 08:20:02.81	336.02	3.85	-61.1	-78.1	3.6	1.51e+00	0	45	104	1289748480	60	314472
2026-01-30 08:20:06.83	336.00	3.58	-60.1	-77.9	3.6	1.51e+00	0	45	104	1289748480	60	308054
2026-01-30 08:20:10.86	335.98	3.31	-57.8	-77.7	3.6	1.51e+00	0	45	104	1289748480	60	301818
2026-01-30 08:20:14.88	335.96	3.04	-59.0	-78.3	3.6	1.51e+00	0	45	104	1289748480	60	323218
2026-01-30 08:20:18.91	335.94	2.77	-59.2	-78.1	3.6	1.51e+00	0	45	104	1289748480	60	313360
2026-01-30 08:20:22.93	335.92	2.51	-59.7	-78.3	3.6	1.51e+00	0	45	104	1289748480	60	323810
2026-01-30 08:20:26.95	335.91	2.25	-59.5	-78.3	3.6	1.51e+00	0	46	104	1289748480	60	322646
2026-01-30 08:20:30.97	335.89	1.99	-59.3	-78.1	3.6	1.51e+00	0	45	104	1289748480	60	315793
2026-01-30 08:20:34.98	335.88	1.74	-59.1	-78.2	3.6	1.51e+00	0	45	104	1289748480	60	317376
2026-01-30 08:20:39.01	335.86	1.49	-59.3	-77.9	3.6	1.51e+00	0	45	104	1289748480	60	309315
2026-01-30 08:20:43.03	335.85	1.24	-59.1	-78.2	3.6	1.51e+00	0	45	104	1289748480	60	318500
2026-01-30 08:20:47.04	335.83	0.99	-59.1	-78.1	3.6	1.51e+00	0	45	104	1289748480	60	315262
2026-01-30 08:20:51.05	335.82	0.74	-58.9	-78.1	3.6	1.51e+00	0	45	104	1289748480	60	315197
2026-01-30 08:20:55.07	335.81	0.50	-59.0	-77.9	3.6	1.51e+00	0	45	104	1289748480	60	306237
2026-01-30 08:20:59.09	335.80	0.25	-58.9	-78.1	3.6	1.51e+00	0	45	104	1289748480	60	315664
2026-01-30 08:21:03.11	335.78	0.01	-58.9	-77.8	3.6	1.51e+00	0	46	104	1289748480	60	304895

#Closed at: 2026-01-30 08:21:06
#Recorded file [1289 MB]: D:/Data/35015_260130_111837.dat