passes_logs/2026/01/30/R3.2S-Naryan-Mar/R3.2S-Naryan-Mar__20260130_104215_FENGYUN_3D_rec.log

#Pass ID: 20260130_104215_FENGYUN 3D
#Satellite: FENGYUN 3D
#Configuration: FENGYUN 3D
#almurnet v.1.7.20240730
#Start time: 2026-01-30 10:42:16

#Version: 2.2.20231116
#Station: R3.2S-Naryan-Mar
#Location: 53.008057 lon 67.646978 lat
#TLE: 1 43010U 17072A   26029.52179110  .00000394  00000+0  20818-3 0  9997
#TLE: 2 43010  98.9957   1.5649 0002507  83.7772 276.3689 14.19703315425310

#Time	Az	El	Level	Level2	SNR	BER	BlckErr	Temp	State	Recorded	gain1	gain2
2026-01-30 10:42:16.95	161.05	0.11	-57.3	-78.7	3.5	3.02e+01	0	42	0	0	60	325883
2026-01-30 10:42:20.96	161.10	0.35	-59.1	-74.8	3.6	8.44e-01	0	44	104	0	60	214951
2026-01-30 10:42:24.98	161.15	0.59	-61.3	-75.1	3.6	8.46e-01	0	44	104	0	60	223068
2026-01-30 10:42:29.00	161.20	0.84	-62.1	-75.5	3.6	8.45e-01	0	44	104	0	60	233888
2026-01-30 10:42:33.02	161.25	1.09	-61.8	-75.1	3.6	8.46e-01	0	44	104	0	60	223845
2026-01-30 10:42:37.05	161.30	1.34	-61.8	-75.2	3.6	8.45e-01	0	44	104	0	60	224994
2026-01-30 10:42:41.07	161.36	1.59	-61.2	-74.5	3.6	8.45e-01	0	44	104	0	60	208109
2026-01-30 10:42:45.09	161.41	1.84	-60.5	-73.9	3.6	8.45e-01	0	44	104	0	60	194584
2026-01-30 10:42:49.12	161.46	2.10	-59.8	-73.0	3.6	8.45e-01	0	44	104	0	60	175934
2026-01-30 10:42:53.14	161.52	2.36	-58.2	-71.7	3.6	8.46e-01	0	44	104	0	60	151444
2026-01-30 10:42:57.16	161.57	2.62	-57.3	-71.0	3.6	8.45e-01	0	44	104	0	60	138992
2026-01-30 10:43:01.19	161.63	2.89	-57.2	-70.8	3.6	8.45e-01	0	44	104	0	60	135905
2026-01-30 10:43:05.21	161.69	3.15	-57.2	-70.4	3.6	8.46e-01	0	44	104	0	60	129175
2026-01-30 10:43:09.24	161.75	3.42	-57.0	-69.8	3.6	8.46e-01	0	44	104	0	60	120833
2026-01-30 10:43:13.27	161.80	3.70	-57.0	-70.4	3.6	8.45e-01	0	44	104	0	60	129402
2026-01-30 10:43:17.30	161.86	3.97	-57.0	-70.2	3.6	8.45e-01	0	44	104	0	60	127137
2026-01-30 10:43:21.33	161.93	4.25	-56.9	-70.4	3.6	8.45e-01	0	44	104	0	60	129423
2026-01-30 10:43:25.35	161.99	4.53	-56.5	-64.5	4.5	8.19e-01	0	44	0	0	60	65466
2026-01-30 10:43:29.38	162.05	4.81	-53.8	-56.7	13.0	2.02e-04	0	45	0	19922944	60	26844
2026-01-30 10:43:33.41	162.11	5.10	-50.8	-52.4	17.4	0.00e+00	0	44	0	41943040	60	16307
2026-01-30 10:43:37.44	162.18	5.39	-49.5	-50.9	18.8	0.00e+00	0	44	0	65011712	60	13692
2026-01-30 10:43:41.48	162.24	5.69	-50.7	-52.3	17.3	0.00e+00	0	44	0	88080384	60	16217
2026-01-30 10:43:45.50	162.31	5.98	-53.8	-56.8	12.5	4.80e-05	0	45	0	110100480	60	27215
2026-01-30 10:43:49.53	162.38	6.28	-56.6	-68.6	3.9	8.44e-01	0	44	104	128974848	60	106041
2026-01-30 10:43:53.55	162.45	6.58	-48.9	-50.2	19.4	0.00e+00	0	45	0	18874368	60	12689
2026-01-30 10:43:57.58	162.52	6.89	-48.6	-49.8	19.9	0.00e+00	0	45	0	41943040	60	12067
2026-01-30 10:44:01.61	162.59	7.20	-48.5	-49.7	19.9	0.00e+00	0	45	0	63963136	60	11995
2026-01-30 10:44:05.63	162.66	7.52	-48.5	-49.7	20.0	0.00e+00	0	45	0	87031808	60	11957
2026-01-30 10:44:09.65	162.73	7.83	-48.4	-49.5	20.3	0.00e+00	0	44	0	109051904	60	11729
2026-01-30 10:44:13.66	162.81	8.16	-48.4	-49.5	20.3	0.00e+00	0	45	0	132120576	60	11744
2026-01-30 10:44:17.69	162.88	8.48	-48.4	-49.5	20.5	0.00e+00	0	45	0	155189248	60	11644
2026-01-30 10:44:21.71	162.96	8.81	-48.3	-49.3	20.7	0.00e+00	0	45	0	177209344	60	11473
2026-01-30 10:44:25.73	163.04	9.15	-48.2	-49.2	20.8	0.00e+00	0	45	0	200278016	60	11312
2026-01-30 10:44:29.75	163.12	9.49	-48.0	-49.0	21.0	0.00e+00	0	45	0	222298112	60	11092
2026-01-30 10:44:33.78	163.20	9.83	-48.1	-49.1	21.0	0.00e+00	0	45	0	245366784	60	11120
2026-01-30 10:44:37.81	163.29	10.18	-48.0	-49.0	21.2	0.00e+00	0	45	0	268435456	60	11035
2026-01-30 10:44:41.82	163.37	10.53	-48.0	-49.0	21.2	0.00e+00	0	45	0	290455552	60	10992
2026-01-30 10:44:45.86	163.46	10.89	-48.0	-49.0	21.4	0.00e+00	0	45	0	312475648	60	10997
2026-01-30 10:44:49.89	163.55	11.26	-48.0	-48.9	21.4	0.00e+00	0	45	0	335544320	60	10940
2026-01-30 10:44:53.91	163.64	11.63	-48.0	-49.0	21.4	0.00e+00	0	45	0	358612992	60	10998
2026-01-30 10:44:57.93	163.74	12.00	-48.0	-48.9	21.5	0.00e+00	0	45	0	380633088	60	10979
2026-01-30 10:45:01.96	163.83	12.38	-47.8	-48.7	21.7	0.00e+00	0	45	0	403701760	60	10728
2026-01-30 10:45:05.99	163.93	12.77	-47.6	-48.5	22.0	0.00e+00	0	45	0	426770432	60	10389
2026-01-30 10:45:10.02	164.03	13.17	-47.4	-48.3	22.2	0.00e+00	0	45	0	448790528	60	10156
2026-01-30 10:45:14.05	164.13	13.57	-47.3	-48.2	22.3	0.00e+00	0	45	0	471859200	60	10047
2026-01-30 10:45:18.09	164.24	13.98	-47.2	-48.1	22.3	0.00e+00	0	45	0	494927872	60	9963
2026-01-30 10:45:22.12	164.34	14.39	-46.9	-47.8	22.7	0.00e+00	0	45	0	516947968	60	9614
2026-01-30 10:45:26.14	164.45	14.81	-46.9	-47.7	22.7	0.00e+00	0	45	0	540016640	60	9525
2026-01-30 10:45:30.17	164.56	15.24	-46.6	-47.5	22.9	0.00e+00	0	45	0	563085312	60	9256
2026-01-30 10:45:34.19	164.68	15.67	-46.5	-47.3	23.2	0.00e+00	0	45	0	585105408	60	9056
2026-01-30 10:45:38.22	164.80	16.12	-46.4	-47.2	23.3	0.00e+00	0	45	0	608174080	60	8983
2026-01-30 10:45:42.25	164.92	16.57	-46.7	-47.5	23.0	0.00e+00	0	45	0	630194176	60	9251
2026-01-30 10:45:46.28	165.04	17.03	-46.3	-47.1	23.3	0.00e+00	0	45	0	653262848	60	8895
2026-01-30 10:45:50.31	165.17	17.50	-46.3	-47.1	23.5	0.00e+00	0	45	0	675282944	60	8861
2026-01-30 10:45:54.33	165.30	17.98	-46.2	-47.0	23.5	0.00e+00	0	45	0	698351616	60	8788
2026-01-30 10:45:58.37	165.44	18.47	-46.0	-46.8	23.8	0.00e+00	0	45	0	721420288	60	8590
2026-01-30 10:46:02.40	165.58	18.96	-46.2	-47.0	23.6	0.00e+00	0	45	0	743440384	60	8762
2026-01-30 10:46:06.42	165.72	19.47	-46.1	-46.8	23.8	0.00e+00	0	45	0	766509056	60	8607
2026-01-30 10:46:10.45	165.87	19.99	-45.9	-46.6	24.1	0.00e+00	0	45	0	788529152	60	8384
2026-01-30 10:46:14.48	166.02	20.52	-45.7	-46.4	24.3	0.00e+00	0	45	0	811597824	60	8179
2026-01-30 10:46:18.51	166.18	21.06	-45.7	-46.4	24.4	0.00e+00	0	45	0	834666496	60	8223
2026-01-30 10:46:22.53	166.35	21.61	-45.8	-46.6	24.3	0.00e+00	0	44	0	856686592	60	8337
2026-01-30 10:46:26.55	166.51	22.17	-45.9	-46.6	24.4	0.00e+00	0	45	0	879755264	60	8356
2026-01-30 10:46:30.58	166.69	22.75	-45.9	-46.7	24.4	0.00e+00	0	44	0	902823936	60	8472
2026-01-30 10:46:34.61	166.87	23.34	-45.7	-46.4	24.7	0.00e+00	0	45	0	924844032	60	8209
2026-01-30 10:46:38.63	167.05	23.94	-45.5	-46.2	24.9	0.00e+00	0	45	0	947912704	60	7984
2026-01-30 10:46:42.66	167.25	24.56	-45.5	-46.2	25.0	0.00e+00	0	45	0	969932800	60	7965
2026-01-30 10:46:46.69	167.45	25.19	-45.5	-46.2	25.0	0.00e+00	0	45	0	993001472	60	7972
2026-01-30 10:46:50.72	167.65	25.83	-45.6	-46.3	25.1	0.00e+00	0	45	0	1015021568	60	8069
2026-01-30 10:46:54.74	167.87	26.49	-45.9	-46.6	24.9	0.00e+00	0	45	0	1038090240	60	8377
2026-01-30 10:46:58.78	168.10	27.17	-46.1	-46.8	24.8	0.00e+00	0	45	0	1061158912	60	8577
2026-01-30 10:47:02.81	168.33	27.87	-46.0	-46.7	24.9	0.00e+00	0	45	0	1083179008	60	8500
2026-01-30 10:47:06.83	168.57	28.58	-45.9	-46.6	25.1	0.00e+00	0	45	0	1106247680	60	8343
2026-01-30 10:47:10.86	168.83	29.31	-45.9	-46.6	25.2	0.00e+00	0	45	0	1128267776	60	8376
2026-01-30 10:47:14.88	169.09	30.06	-46.2	-46.9	24.9	0.00e+00	0	45	0	1151336448	60	8671
2026-01-30 10:47:18.91	169.37	30.83	-46.5	-47.2	24.7	0.00e+00	0	45	0	1174405120	60	8964
2026-01-30 10:47:22.94	169.66	31.62	-45.7	-46.4	25.4	0.00e+00	0	45	0	1196425216	60	8163
2026-01-30 10:47:26.95	169.96	32.43	-46.0	-46.6	25.1	0.00e+00	0	45	0	1219493888	60	8411
2026-01-30 10:47:30.99	170.28	33.26	-46.1	-46.8	25.0	0.00e+00	0	45	0	1242562560	60	8582
2026-01-30 10:47:35.02	170.62	34.11	-45.6	-46.2	25.5	0.00e+00	0	45	0	1264582656	60	8045
2026-01-30 10:47:39.04	170.97	34.99	-45.0	-45.7	25.9	0.00e+00	0	45	0	1287651328	60	7534
2026-01-30 10:47:43.07	171.34	35.89	-45.7	-46.4	25.5	0.00e+00	0	45	0	1310720000	60	8158
2026-01-30 10:47:47.10	171.73	36.82	-45.6	-46.3	25.7	0.00e+00	0	45	0	1332740096	60	8086
2026-01-30 10:47:51.13	172.15	37.77	-45.6	-46.2	25.7	0.00e+00	0	45	0	1355808768	60	8021
2026-01-30 10:47:55.15	172.58	38.74	-45.8	-46.4	25.5	0.00e+00	0	45	0	1377828864	60	8213
2026-01-30 10:47:59.18	173.05	39.75	-45.8	-46.5	25.6	0.00e+00	0	45	0	1400897536	60	8284
2026-01-30 10:48:03.20	173.54	40.78	-46.2	-46.8	25.3	0.00e+00	0	45	0	1422917632	60	8619
2026-01-30 10:48:07.22	174.06	41.84	-46.0	-46.6	25.5	0.00e+00	0	45	0	1445986304	60	8393
2026-01-30 10:48:11.25	174.62	42.93	-46.1	-46.8	25.4	0.00e+00	0	45	0	1468006400	60	8615
2026-01-30 10:48:15.27	175.22	44.04	-46.4	-47.1	25.1	0.00e+00	0	45	0	1491075072	60	8843
2026-01-30 10:48:19.30	175.86	45.19	-46.5	-47.2	25.1	0.00e+00	0	45	0	1514143744	60	9005
2026-01-30 10:48:23.32	176.55	46.36	-46.1	-46.8	25.5	0.00e+00	0	45	0	1536163840	60	8594
2026-01-30 10:48:27.34	177.29	47.57	-46.9	-47.6	24.8	0.00e+00	0	45	0	1559232512	60	9386
2026-01-30 10:48:31.36	178.09	48.80	-46.3	-47.0	25.4	0.00e+00	0	45	0	1581252608	60	8750
2026-01-30 10:48:35.38	178.96	50.06	-46.9	-47.6	25.2	0.00e+00	0	45	0	1604321280	60	9426
2026-01-30 10:48:39.41	179.90	51.36	-47.5	-48.3	24.8	0.00e+00	0	45	0	1627389952	60	10142
2026-01-30 10:48:43.43	180.92	52.68	-47.3	-48.0	25.0	0.00e+00	0	45	0	1649410048	60	9858
2026-01-30 10:48:47.45	182.04	54.02	-47.8	-48.4	24.8	0.00e+00	0	45	0	1672478720	60	10353
2026-01-30 10:48:51.48	183.27	55.39	-48.2	-48.9	24.4	0.00e+00	0	45	0	1695547392	60	10959
2026-01-30 10:48:55.50	184.63	56.78	-47.2	-47.9	25.2	0.00e+00	0	45	0	1717567488	60	9740
2026-01-30 10:48:59.52	186.12	58.19	-47.2	-47.9	25.1	0.00e+00	0	45	0	1739587584	60	9747
2026-01-30 10:49:03.54	187.79	59.61	-46.8	-47.5	25.4	0.00e+00	0	45	0	1762656256	60	9304
2026-01-30 10:49:07.56	189.64	61.04	-46.7	-47.4	25.5	0.00e+00	0	45	0	1784676352	60	9207
2026-01-30 10:49:11.57	191.71	62.47	-45.8	-46.5	26.2	0.00e+00	0	45	0	1807745024	60	8271
2026-01-30 10:49:15.60	194.05	63.90	-46.0	-46.7	25.9	0.00e+00	0	45	0	1830813696	60	8438
2026-01-30 10:49:19.62	196.68	65.32	-45.7	-46.3	26.2	0.00e+00	0	45	0	1852833792	60	8102
2026-01-30 10:49:23.63	199.66	66.70	-45.4	-46.1	26.2	0.00e+00	0	45	0	1875902464	60	7923
2026-01-30 10:49:27.65	203.05	68.04	-45.3	-46.0	26.3	0.00e+00	0	45	0	1897922560	60	7844
2026-01-30 10:49:31.67	206.91	69.32	-45.0	-45.7	26.5	0.00e+00	0	45	0	1920991232	60	7548
2026-01-30 10:49:35.70	211.31	70.53	-44.8	-45.4	26.6	0.00e+00	0	45	0	1944059904	60	7330
2026-01-30 10:49:39.72	216.29	71.62	-44.5	-45.1	26.9	0.00e+00	0	45	0	1966080000	60	7061
2026-01-30 10:49:43.74	221.89	72.58	-44.4	-45.0	26.9	0.00e+00	0	45	0	1989148672	60	7003
2026-01-30 10:49:47.77	228.12	73.37	-44.8	-45.5	26.5	0.00e+00	0	45	0	2012217344	60	7371
2026-01-30 10:49:51.79	234.90	73.95	-44.5	-45.2	26.5	0.00e+00	0	45	0	2034237440	60	7145
2026-01-30 10:49:55.81	242.11	74.31	-44.4	-45.2	26.4	0.00e+00	0	45	0	2056257536	60	7148
2026-01-30 10:49:59.83	249.55	74.43	-44.4	-45.2	26.3	0.00e+00	0	45	0	2079326208	60	7092
2026-01-30 10:50:03.86	256.99	74.29	-44.0	-44.8	26.2	0.00e+00	0	45	0	2101346304	60	6841
2026-01-30 10:50:07.88	264.16	73.91	-44.2	-45.1	25.6	0.00e+00	0	45	0	2124414976	60	7026
2026-01-30 10:50:11.90	270.89	73.30	-44.4	-45.3	25.7	0.00e+00	0	45	0	2147483648	60	7214
2026-01-30 10:50:15.93	277.07	72.50	-44.1	-44.9	26.6	0.00e+00	0	45	0	2169503744	60	6858
2026-01-30 10:50:19.96	282.62	71.53	-44.9	-45.6	26.3	0.00e+00	0	45	0	2192572416	60	7451
2026-01-30 10:50:23.99	287.55	70.42	-44.7	-45.4	26.2	0.00e+00	0	45	0	2215641088	60	7324
2026-01-30 10:50:28.01	291.88	69.21	-44.7	-45.6	25.7	0.00e+00	0	45	0	2237661184	60	7500
2026-01-30 10:50:32.04	295.70	67.92	-44.9	-45.8	25.6	0.00e+00	0	45	0	2260729856	60	7617
2026-01-30 10:50:36.07	299.06	66.58	-45.5	-46.4	25.6	0.00e+00	0	45	0	2283798528	60	8152
2026-01-30 10:50:40.10	302.01	65.19	-45.5	-46.2	25.9	0.00e+00	0	45	0	2305818624	60	8001
2026-01-30 10:50:44.12	304.61	63.77	-45.6	-46.4	25.7	0.00e+00	0	45	0	2328887296	60	8154
2026-01-30 10:50:48.14	306.92	62.35	-45.5	-46.2	26.1	0.00e+00	0	45	0	2350907392	60	7984
2026-01-30 10:50:52.17	308.97	60.91	-45.7	-46.4	25.8	0.00e+00	0	45	0	2373976064	60	8196
2026-01-30 10:50:56.20	310.81	59.48	-46.4	-47.3	24.5	0.00e+00	0	45	0	2395996160	60	9073
2026-01-30 10:51:00.22	312.45	58.07	-46.3	-47.1	25.0	0.00e+00	0	45	0	2419064832	60	8897
2026-01-30 10:51:04.25	313.93	56.66	-46.5	-47.3	24.6	0.00e+00	0	45	0	2441084928	60	9051
2026-01-30 10:51:08.26	315.27	55.28	-46.5	-47.3	25.0	0.00e+00	0	45	0	2464153600	60	9034
2026-01-30 10:51:12.28	316.48	53.92	-46.9	-47.8	24.4	0.00e+00	0	45	0	2487222272	60	9587
2026-01-30 10:51:16.30	317.59	52.58	-47.0	-47.7	24.6	0.00e+00	0	45	0	2509242368	60	9470
2026-01-30 10:51:20.33	318.61	51.26	-46.8	-47.5	24.5	0.00e+00	0	45	0	2532311040	60	9334
2026-01-30 10:51:24.36	319.54	49.98	-45.8	-46.7	25.2	0.00e+00	0	45	0	2554331136	60	8449
2026-01-30 10:51:28.38	320.40	48.72	-45.6	-46.4	25.5	0.00e+00	0	45	0	2577399808	60	8185
2026-01-30 10:51:32.40	321.19	47.49	-45.9	-46.6	25.6	0.00e+00	0	45	0	2600468480	60	8387
2026-01-30 10:51:36.42	321.93	46.30	-45.5	-46.1	25.8	0.00e+00	0	45	0	2622488576	60	7897
2026-01-30 10:51:40.43	322.61	45.13	-45.8	-46.5	25.2	0.00e+00	0	45	0	2645557248	60	8267
2026-01-30 10:51:44.46	323.25	43.99	-45.8	-46.7	24.8	0.00e+00	0	45	0	2668625920	60	8433
2026-01-30 10:51:48.50	323.84	42.88	-45.7	-46.5	25.6	0.00e+00	0	45	0	2690646016	60	8239
2026-01-30 10:51:52.52	324.40	41.80	-45.1	-45.7	26.0	0.00e+00	0	45	0	2712666112	60	7543
2026-01-30 10:51:56.54	324.92	40.75	-44.9	-45.6	26.2	0.00e+00	0	45	0	2735734784	60	7502
2026-01-30 10:52:00.57	325.41	39.72	-44.9	-45.5	26.3	0.00e+00	0	45	0	2758803456	60	7364
2026-01-30 10:52:04.60	325.88	38.72	-45.2	-45.9	25.4	0.00e+00	0	45	0	2780823552	60	7701
2026-01-30 10:52:08.62	326.31	37.75	-45.3	-46.3	25.3	0.00e+00	0	45	0	2803892224	60	8053
2026-01-30 10:52:12.64	326.72	36.81	-45.2	-45.9	26.0	0.00e+00	0	45	0	2825912320	60	7723
2026-01-30 10:52:16.67	327.11	35.89	-45.4	-46.2	25.7	0.00e+00	0	45	0	2848980992	60	7968
2026-01-30 10:52:20.71	327.48	34.99	-45.4	-46.1	25.8	0.00e+00	0	45	0	2872049664	60	7946
2026-01-30 10:52:24.74	327.84	34.11	-45.4	-46.1	25.6	0.00e+00	0	45	0	2894069760	60	7898
2026-01-30 10:52:28.76	328.17	33.27	-45.5	-46.2	25.7	0.00e+00	0	45	0	2917138432	60	8010
2026-01-30 10:52:32.79	328.49	32.44	-45.6	-46.3	25.6	0.00e+00	0	45	0	2940207104	60	8050
2026-01-30 10:52:36.82	328.79	31.63	-45.8	-46.5	25.4	0.00e+00	0	45	0	2962227200	60	8301
2026-01-30 10:52:40.85	329.08	30.85	-45.7	-46.4	25.5	0.00e+00	0	45	0	2985295872	60	8152
2026-01-30 10:52:44.87	329.36	30.09	-45.4	-46.0	25.8	0.00e+00	0	45	0	3008364544	60	7830
2026-01-30 10:52:48.90	329.62	29.34	-45.3	-45.9	25.7	0.00e+00	0	45	0	3030384640	60	7716
2026-01-30 10:52:52.92	329.88	28.61	-45.3	-46.1	25.6	0.00e+00	0	45	0	3052404736	60	7915
2026-01-30 10:52:56.94	330.12	27.91	-45.3	-46.1	25.3	0.00e+00	0	45	0	3075473408	60	7872
2026-01-30 10:53:00.97	330.36	27.22	-45.5	-46.2	25.5	0.00e+00	0	45	0	3098542080	60	7967
2026-01-30 10:53:04.99	330.58	26.54	-45.7	-46.3	25.3	0.00e+00	0	45	0	3120562176	60	8134
2026-01-30 10:53:09.02	330.80	25.88	-46.3	-47.1	24.7	0.00e+00	0	45	0	3143630848	60	8892
2026-01-30 10:53:13.04	331.00	25.24	-46.3	-47.1	24.6	0.00e+00	0	45	0	3165650944	60	8854
2026-01-30 10:53:17.06	331.21	24.61	-46.2	-47.0	24.8	0.00e+00	0	45	0	3188719616	60	8821
2026-01-30 10:53:21.08	331.40	24.00	-46.2	-47.0	24.8	0.00e+00	0	45	0	3211788288	60	8804
2026-01-30 10:53:25.10	331.59	23.40	-46.2	-46.9	24.5	0.00e+00	0	45	0	3233808384	60	8624
2026-01-30 10:53:29.13	331.77	22.82	-46.1	-46.7	24.6	0.00e+00	0	45	0	3256877056	60	8507
2026-01-30 10:53:33.15	331.94	22.24	-46.1	-46.8	24.6	0.00e+00	0	45	0	3278897152	60	8577
2026-01-30 10:53:37.17	332.11	21.68	-46.1	-46.9	24.6	0.00e+00	0	45	0	3301965824	60	8639
2026-01-30 10:53:41.20	332.28	21.14	-46.3	-47.0	24.6	0.00e+00	0	45	0	3325034496	60	8765
2026-01-30 10:53:45.23	332.43	20.60	-46.5	-47.2	24.3	0.00e+00	0	45	0	3347054592	60	8941
2026-01-30 10:53:49.26	332.59	20.07	-46.8	-47.6	23.8	0.00e+00	0	45	0	3369074688	60	9439
2026-01-30 10:53:53.28	332.74	19.56	-47.0	-47.7	23.9	0.00e+00	0	45	0	3392143360	60	9465
2026-01-30 10:53:57.31	332.88	19.05	-46.9	-47.7	23.5	0.00e+00	0	45	0	3415212032	60	9510
2026-01-30 10:54:01.34	333.02	18.56	-47.1	-48.0	23.5	0.00e+00	0	45	0	3437232128	60	9847
2026-01-30 10:54:05.36	333.16	18.07	-47.4	-48.2	23.3	0.00e+00	0	45	0	3460300800	60	10068
2026-01-30 10:54:09.39	333.29	17.59	-47.7	-48.6	22.9	0.00e+00	0	45	0	3483369472	60	10559
2026-01-30 10:54:13.40	333.42	17.13	-48.0	-48.9	22.4	0.00e+00	0	45	0	3505389568	60	10957
2026-01-30 10:54:17.42	333.55	16.67	-48.2	-49.2	21.7	0.00e+00	0	45	0	3528458240	60	11353
2026-01-30 10:54:21.45	333.67	16.22	-48.5	-49.5	21.2	0.00e+00	0	45	0	3550478336	60	11710
2026-01-30 10:54:25.46	333.79	15.78	-49.0	-50.2	20.7	0.00e+00	0	45	0	3573547008	60	12661
2026-01-30 10:54:29.49	333.91	15.35	-49.7	-50.9	19.8	0.00e+00	0	45	0	3596615680	60	13665
2026-01-30 10:54:33.51	334.03	14.92	-50.0	-51.3	19.4	0.00e+00	0	45	0	3618635776	60	14396
2026-01-30 10:54:37.54	334.14	14.50	-50.5	-51.9	18.6	0.00e+00	0	45	0	3641704448	60	15407
2026-01-30 10:54:41.56	334.25	14.09	-51.2	-52.7	17.9	0.00e+00	0	45	0	3663724544	60	16814
2026-01-30 10:54:45.59	334.35	13.68	-51.9	-53.6	16.6	0.00e+00	0	45	0	3686793216	60	18711
2026-01-30 10:54:49.61	334.46	13.28	-52.2	-54.6	14.8	0.00e+00	0	45	0	3709861888	60	21123
2026-01-30 10:54:53.63	334.56	12.89	-52.6	-55.7	13.6	9.10e-06	0	45	0	3731881984	60	23819
2026-01-30 10:54:57.64	334.66	12.51	-53.2	-56.9	12.2	2.24e-04	0	45	0	3753902080	60	27351
2026-01-30 10:55:01.67	334.76	12.13	-52.8	-58.1	10.3	4.93e-03	0	45	0	3776970752	60	31308
2026-01-30 10:55:05.69	334.85	11.75	-52.4	-59.2	8.9	2.92e-02	0	45	0	3800039424	60	35828
2026-01-30 10:55:09.72	334.95	11.38	-52.3	-60.4	7.7	8.87e-02	0	45	0	3822059520	60	41063
2026-01-30 10:55:13.75	335.04	11.02	-52.9	-61.5	6.6	2.16e-01	0	45	0	3845128192	60	46689
2026-01-30 10:55:17.77	335.13	10.66	-50.7	-63.9	3.9	8.28e-01	0	45	0	3859808256	60	61407
2026-01-30 10:55:21.80	335.22	10.31	-50.3	-66.6	3.7	8.45e-01	0	45	104	3859808256	60	84237
2026-01-30 10:55:25.82	335.30	9.96	-50.6	-66.6	3.6	8.40e-01	0	45	104	3859808256	60	84191
2026-01-30 10:55:29.86	335.39	9.62	-50.0	-66.5	3.6	8.45e-01	0	45	104	3859808256	60	82478
2026-01-30 10:55:33.88	335.47	9.28	-50.9	-68.0	3.6	8.44e-01	0	45	104	3859808256	60	97953
2026-01-30 10:55:37.90	335.55	8.95	-50.9	-67.9	3.6	8.46e-01	0	45	104	3859808256	60	97501
2026-01-30 10:55:41.92	335.63	8.62	-53.8	-70.5	3.6	8.46e-01	0	45	104	3859808256	60	130864
2026-01-30 10:55:45.95	335.71	8.29	-52.6	-70.0	3.6	8.45e-01	0	45	104	3859808256	60	124387
2026-01-30 10:55:49.98	335.79	7.97	-56.4	-70.4	3.6	8.43e-01	0	45	104	3859808256	60	130448
2026-01-30 10:55:54.00	335.87	7.65	-53.0	-68.9	3.6	8.43e-01	0	45	104	3859808256	60	108958
2026-01-30 10:55:58.02	335.94	7.34	-52.5	-69.1	3.6	8.46e-01	0	45	104	3859808256	60	111935
2026-01-30 10:56:02.05	336.02	7.03	-52.5	-69.4	3.6	8.44e-01	0	45	104	3859808256	60	115223
2026-01-30 10:56:06.08	336.09	6.72	-52.9	-69.2	3.6	8.46e-01	0	45	104	3859808256	60	113605
2026-01-30 10:56:10.10	336.16	6.42	-51.4	-69.4	3.6	8.44e-01	0	45	104	3859808256	60	115589
2026-01-30 10:56:14.12	336.23	6.12	-54.6	-69.5	3.6	8.45e-01	0	45	104	3859808256	60	116598
2026-01-30 10:56:18.14	336.30	5.83	-55.7	-70.7	3.6	8.45e-01	0	45	104	3859808256	60	134047
2026-01-30 10:56:22.16	336.37	5.54	-58.4	-72.9	3.6	8.46e-01	0	45	104	3859808256	60	173745
2026-01-30 10:56:26.18	336.44	5.25	-59.5	-73.7	3.6	8.45e-01	0	45	104	3859808256	60	190559
2026-01-30 10:56:30.20	336.50	4.96	-60.2	-73.8	3.6	8.45e-01	0	45	104	3859808256	60	192892
2026-01-30 10:56:34.23	336.57	4.68	-60.3	-74.1	3.6	8.45e-01	0	45	104	3859808256	60	199355
2026-01-30 10:56:38.25	336.63	4.40	-60.9	-74.3	3.6	8.45e-01	0	45	104	3859808256	60	202961
2026-01-30 10:56:42.28	336.70	4.12	-60.4	-74.4	3.6	8.45e-01	0	45	104	3859808256	60	204675
2026-01-30 10:56:46.31	336.76	3.85	-61.4	-74.8	3.6	8.44e-01	0	45	104	3859808256	60	215095
2026-01-30 10:56:50.35	336.82	3.57	-59.9	-74.4	3.6	8.45e-01	0	45	104	3859808256	60	205353
2026-01-30 10:56:54.37	336.89	3.31	-57.9	-74.3	3.6	8.44e-01	0	45	104	3859808256	60	203018
2026-01-30 10:56:58.40	336.95	3.04	-58.3	-74.2	3.6	8.45e-01	0	45	104	3859808256	60	200371
2026-01-30 10:57:02.43	337.01	2.77	-58.6	-74.3	3.6	8.45e-01	0	45	104	3859808256	60	202230
2026-01-30 10:57:06.46	337.07	2.51	-59.3	-74.7	3.6	8.45e-01	0	45	104	3859808256	60	213220
2026-01-30 10:57:10.49	337.12	2.25	-59.3	-74.6	3.6	8.46e-01	0	45	104	3859808256	60	210239
2026-01-30 10:57:14.52	337.18	2.00	-59.3	-74.7	3.6	8.45e-01	0	45	104	3859808256	60	212075
2026-01-30 10:57:18.55	337.24	1.74	-59.2	-74.6	3.6	8.44e-01	0	45	104	3859808256	60	209687
2026-01-30 10:57:22.58	337.30	1.49	-59.2	-74.6	3.6	8.45e-01	0	45	104	3859808256	60	210597
2026-01-30 10:57:26.60	337.35	1.24	-59.3	-74.5	3.6	8.45e-01	0	45	104	3859808256	60	208731
2026-01-30 10:57:30.63	337.41	0.99	-59.3	-74.7	3.6	8.45e-01	0	45	104	3859808256	60	211739
2026-01-30 10:57:34.66	337.46	0.75	-59.3	-74.5	3.6	8.46e-01	0	45	104	3859808256	60	208356
2026-01-30 10:57:38.67	337.52	0.50	-59.3	-74.6	3.6	8.46e-01	0	45	104	3859808256	60	209917
2026-01-30 10:57:42.70	337.57	0.26	-59.3	-74.4	3.6	8.45e-01	0	45	104	3859808256	60	206240
2026-01-30 10:57:46.73	337.62	0.02	-59.3	-74.6	3.6	8.45e-01	0	45	104	3859808256	60	209383

#Closed at: 2026-01-30 10:57:48
#Recorded file [3859 MB]: D:/Data/35015_260130_135528.dat