passes_logs/2026/01/30/R3.2S-Naryan-Mar/R3.2S-Naryan-Mar__20260130_022551_FENGYUN_3D_rec.log

#Pass ID: 20260130_022551_FENGYUN 3D
#Satellite: FENGYUN 3D
#Configuration: FENGYUN 3D
#almurnet v.1.7.20240730
#Start time: 2026-01-30 02:25:52

#Version: 2.2.20231116
#Station: R3.2S-Naryan-Mar
#Location: 53.008057 lon 67.646978 lat
#TLE: 1 43010U 17072A   26028.95797775  .00000451  00000+0  23492-3 0  9991
#TLE: 2 43010  98.9958   0.9922 0002505  85.7480 274.3981 14.19703224425237

#Time	Az	El	Level	Level2	SNR	BER	BlckErr	Temp	State	Recorded	gain1	gain2
2026-01-30 02:25:52.36	28.55	0.03	-57.0	-79.1	3.5	3.02e+01	0	43	0	0	60	343683
2026-01-30 02:25:56.39	28.47	0.27	-59.8	-75.0	3.6	8.45e-01	0	44	104	0	60	221567
2026-01-30 02:26:00.43	28.38	0.51	-60.6	-75.9	3.6	8.45e-01	0	45	104	0	60	244572
2026-01-30 02:26:04.45	28.30	0.75	-59.3	-75.6	3.6	8.45e-01	0	45	104	0	60	237234
2026-01-30 02:26:08.47	28.21	0.99	-56.1	-74.1	3.6	8.43e-01	0	45	104	0	60	199453
2026-01-30 02:26:12.50	28.12	1.24	-58.4	-73.1	3.6	8.44e-01	0	45	104	0	60	177673
2026-01-30 02:26:16.53	28.03	1.49	-57.6	-73.5	3.6	8.45e-01	0	45	104	0	60	186039
2026-01-30 02:26:20.55	27.93	1.74	-51.8	-70.6	3.6	8.44e-01	0	45	104	0	60	133070
2026-01-30 02:26:24.57	27.84	1.99	-57.8	-73.3	3.6	8.44e-01	0	45	104	0	60	181618
2026-01-30 02:26:28.60	27.74	2.24	-46.0	-67.4	3.5	8.37e-01	0	45	104	0	60	91538
2026-01-30 02:26:32.62	27.64	2.50	-46.1	-67.5	3.6	8.36e-01	0	45	104	0	60	92447
2026-01-30 02:26:36.65	27.54	2.76	-45.9	-67.4	3.6	8.37e-01	0	45	104	0	60	91970
2026-01-30 02:26:40.67	27.43	3.02	-45.7	-65.8	3.6	8.36e-01	0	45	104	0	60	76606
2026-01-30 02:26:44.70	27.33	3.28	-46.2	-67.6	3.6	8.38e-01	0	45	104	0	60	94235
2026-01-30 02:26:48.73	27.22	3.55	-46.4	-67.8	3.6	8.38e-01	0	45	104	0	60	95642
2026-01-30 02:26:52.76	27.11	3.82	-46.2	-67.3	3.5	8.39e-01	0	45	104	0	60	90373
2026-01-30 02:26:56.79	27.00	4.09	-46.2	-66.2	3.6	8.38e-01	0	45	104	0	60	79762
2026-01-30 02:27:00.81	26.88	4.36	-46.3	-67.1	3.6	8.39e-01	0	45	104	0	60	88847
2026-01-30 02:27:04.85	26.76	4.64	-46.0	-67.0	3.6	8.39e-01	0	45	104	0	60	87641
2026-01-30 02:27:08.88	26.64	4.91	-45.9	-66.9	3.6	8.40e-01	0	46	104	0	60	86744
2026-01-30 02:27:12.90	26.52	5.20	-45.6	-62.5	4.0	8.41e-01	0	45	104	0	60	52434
2026-01-30 02:27:16.93	26.39	5.48	-45.5	-56.5	8.3	6.81e-02	0	46	0	3145728	60	26254
2026-01-30 02:27:20.96	26.26	5.77	-45.1	-53.4	11.4	1.09e-03	0	45	0	25165824	60	18342
2026-01-30 02:27:24.99	26.13	6.06	-44.9	-53.0	11.7	3.40e-04	0	46	0	48234496	60	17443
2026-01-30 02:27:29.02	26.00	6.35	-48.0	-53.5	16.3	1.14e-05	0	46	0	71303168	60	18623
2026-01-30 02:27:33.04	25.86	6.65	-48.6	-53.3	16.9	0.00e+00	0	46	0	93323264	60	18067
2026-01-30 02:27:37.08	25.72	6.95	-51.3	-52.6	19.1	0.00e+00	0	46	0	116391936	60	16803
2026-01-30 02:27:41.11	25.57	7.25	-51.2	-52.7	19.4	0.00e+00	0	46	0	139460608	60	16820
2026-01-30 02:27:45.14	25.42	7.56	-49.2	-52.0	18.5	0.00e+00	0	45	0	161480704	60	15602
2026-01-30 02:27:49.16	25.27	7.87	-48.3	-52.0	16.7	0.00e+00	0	46	0	184549376	60	15668
2026-01-30 02:27:53.20	25.12	8.18	-50.2	-52.1	19.1	0.00e+00	0	46	0	207618048	60	15795
2026-01-30 02:27:57.22	24.96	8.50	-49.0	-51.7	18.1	0.00e+00	0	46	0	229638144	60	15011
2026-01-30 02:28:01.24	24.80	8.82	-46.3	-51.5	14.3	0.00e+00	0	46	0	251658240	60	14807
2026-01-30 02:28:05.25	24.63	9.15	-47.5	-51.6	16.5	0.00e+00	0	46	0	274726912	60	14892
2026-01-30 02:28:09.28	24.46	9.47	-49.7	-51.6	18.8	0.00e+00	0	46	0	297795584	60	14856
2026-01-30 02:28:13.31	24.29	9.81	-49.4	-51.6	17.2	0.00e+00	0	46	0	319815680	60	14885
2026-01-30 02:28:17.34	24.11	10.15	-49.5	-51.6	18.4	0.00e+00	0	46	0	342884352	60	14972
2026-01-30 02:28:21.36	23.92	10.49	-48.8	-51.6	20.0	0.00e+00	0	46	0	364904448	60	14907
2026-01-30 02:28:25.39	23.73	10.83	-47.3	-51.6	18.8	0.00e+00	0	46	0	387973120	60	14927
2026-01-30 02:28:29.41	23.54	11.18	-46.5	-51.6	16.4	0.00e+00	0	46	0	411041792	60	14833
2026-01-30 02:28:33.45	23.34	11.54	-46.0	-51.3	14.7	1.10e-06	0	46	0	433061888	60	14332
2026-01-30 02:28:37.47	23.14	11.90	-47.1	-51.1	14.8	0.00e+00	0	46	0	456130560	60	14055
2026-01-30 02:28:41.50	22.93	12.27	-48.7	-50.9	17.3	0.00e+00	0	46	0	479199232	60	13802
2026-01-30 02:28:45.54	22.71	12.64	-47.0	-50.6	15.7	0.00e+00	0	46	0	501219328	60	13322
2026-01-30 02:28:49.56	22.49	13.02	-44.9	-50.5	15.1	0.00e+00	0	46	0	524288000	60	13190
2026-01-30 02:28:53.59	22.26	13.40	-46.9	-50.5	18.1	0.00e+00	0	46	0	547356672	60	13081
2026-01-30 02:28:57.60	22.03	13.78	-48.4	-50.3	22.2	0.00e+00	0	46	0	569376768	60	12851
2026-01-30 02:29:01.63	21.79	14.18	-47.2	-50.3	19.6	0.00e+00	0	46	0	591396864	60	12825
2026-01-30 02:29:05.66	21.54	14.57	-48.5	-50.3	21.1	0.00e+00	0	46	0	614465536	60	12887
2026-01-30 02:29:09.68	21.29	14.98	-47.3	-50.2	22.3	0.00e+00	0	46	0	637534208	60	12736
2026-01-30 02:29:13.70	21.03	15.39	-48.0	-50.1	22.5	0.00e+00	0	46	0	659554304	60	12488
2026-01-30 02:29:17.73	20.76	15.81	-46.9	-49.7	20.3	0.00e+00	0	46	0	682622976	60	11976
2026-01-30 02:29:21.74	20.48	16.23	-47.7	-49.5	21.0	0.00e+00	0	46	0	704643072	60	11715
2026-01-30 02:29:25.76	20.19	16.66	-48.1	-49.3	23.4	0.00e+00	0	46	0	727711744	60	11422
2026-01-30 02:29:29.78	19.90	17.10	-47.8	-49.2	22.1	0.00e+00	0	46	0	750780416	60	11308
2026-01-30 02:29:33.81	19.59	17.54	-46.4	-49.3	21.9	0.00e+00	0	46	0	772800512	60	11407
2026-01-30 02:29:37.84	19.28	17.99	-47.0	-49.3	21.0	0.00e+00	0	46	0	795869184	60	11398
2026-01-30 02:29:41.87	18.95	18.45	-44.9	-48.9	17.4	0.00e+00	0	46	0	817889280	60	10966
2026-01-30 02:29:45.89	18.62	18.92	-47.4	-48.7	20.9	0.00e+00	0	46	0	840957952	60	10669
2026-01-30 02:29:49.93	18.27	19.40	-46.5	-48.6	21.3	0.00e+00	0	46	0	864026624	60	10566
2026-01-30 02:29:53.96	17.92	19.88	-47.3	-48.5	21.8	0.00e+00	0	46	0	886046720	60	10419
2026-01-30 02:29:57.99	17.55	20.37	-46.6	-48.5	23.4	0.00e+00	0	46	0	909115392	60	10386
2026-01-30 02:30:02.02	17.16	20.87	-46.6	-48.4	23.0	0.00e+00	0	46	0	932184064	60	10299
2026-01-30 02:30:06.05	16.77	21.38	-47.3	-48.3	23.0	0.00e+00	0	46	0	954204160	60	10197
2026-01-30 02:30:10.08	16.36	21.90	-47.4	-48.3	23.3	0.00e+00	0	46	0	977272832	60	10182
2026-01-30 02:30:14.11	15.94	22.43	-47.2	-48.2	23.7	0.00e+00	0	46	0	999292928	60	10096
2026-01-30 02:30:18.14	15.50	22.96	-47.4	-48.2	24.3	0.00e+00	0	46	0	1022361600	60	10061
2026-01-30 02:30:22.16	15.04	23.51	-47.0	-48.2	24.0	0.00e+00	0	46	0	1044381696	60	10104
2026-01-30 02:30:26.17	14.57	24.06	-46.5	-47.5	23.6	0.00e+00	0	46	0	1067450368	60	9336
2026-01-30 02:30:30.20	14.08	24.62	-46.5	-47.4	24.3	0.00e+00	0	46	0	1090519040	60	9228
2026-01-30 02:30:34.23	13.58	25.20	-46.6	-47.6	24.1	0.00e+00	0	46	0	1112539136	60	9361
2026-01-30 02:30:38.25	13.05	25.78	-46.7	-47.6	23.2	0.00e+00	0	46	0	1135607808	60	9416
2026-01-30 02:30:42.28	12.50	26.38	-46.3	-47.6	24.0	0.00e+00	0	46	0	1158676480	60	9382
2026-01-30 02:30:46.30	11.93	26.98	-45.7	-47.5	22.0	0.00e+00	0	46	0	1180696576	60	9292
2026-01-30 02:30:50.32	11.34	27.60	-46.6	-47.8	23.6	0.00e+00	0	46	0	1203765248	60	9603
2026-01-30 02:30:54.35	10.73	28.22	-46.5	-47.6	24.0	0.00e+00	0	46	0	1225785344	60	9389
2026-01-30 02:30:58.38	10.09	28.86	-46.1	-47.5	22.1	0.00e+00	0	46	0	1248854016	60	9343
2026-01-30 02:31:02.40	9.42	29.50	-46.6	-47.5	24.6	0.00e+00	0	46	0	1271922688	60	9295
2026-01-30 02:31:06.42	8.72	30.16	-46.6	-47.5	24.0	0.00e+00	0	46	0	1293942784	60	9340
2026-01-30 02:31:10.45	8.00	30.83	-46.7	-47.6	23.2	0.00e+00	0	46	0	1315962880	60	9435
2026-01-30 02:31:14.47	7.24	31.50	-46.3	-47.2	24.7	0.00e+00	0	46	0	1339031552	60	8943
2026-01-30 02:31:18.50	6.45	32.19	-46.3	-47.0	25.7	0.00e+00	0	46	0	1362100224	60	8765
2026-01-30 02:31:22.52	5.63	32.89	-46.3	-47.1	25.1	0.00e+00	0	46	0	1384120320	60	8846
2026-01-30 02:31:26.52	4.77	33.59	-45.9	-47.1	24.5	0.00e+00	0	46	0	1407188992	60	8837
2026-01-30 02:31:30.55	3.87	34.30	-46.3	-47.1	24.8	0.00e+00	0	46	0	1429209088	60	8923
2026-01-30 02:31:34.58	2.93	35.03	-46.3	-47.0	25.6	0.00e+00	0	46	0	1452277760	60	8750
2026-01-30 02:31:38.61	1.94	35.76	-46.3	-47.1	25.4	0.00e+00	0	46	0	1475346432	60	8858
2026-01-30 02:31:42.64	0.91	36.50	-46.4	-47.1	25.4	0.00e+00	0	46	0	1497366528	60	8909
2026-01-30 02:31:46.66	359.83	37.24	-46.3	-47.0	25.7	0.00e+00	0	46	0	1520435200	60	8790
2026-01-30 02:31:50.69	358.70	37.99	-46.4	-47.1	25.4	0.00e+00	0	46	0	1543503872	60	8861
2026-01-30 02:31:54.72	357.51	38.74	-46.5	-47.2	25.8	0.00e+00	0	46	0	1565523968	60	8945
2026-01-30 02:31:58.75	356.27	39.49	-46.8	-47.5	25.5	0.00e+00	0	46	0	1588592640	60	9241
2026-01-30 02:32:02.78	354.96	40.24	-46.5	-47.2	25.8	0.00e+00	0	46	0	1611661312	60	8963
2026-01-30 02:32:06.81	353.60	40.99	-46.8	-47.6	25.0	0.00e+00	0	46	0	1633681408	60	9420
2026-01-30 02:32:10.84	352.17	41.74	-46.6	-47.4	25.6	0.00e+00	0	46	0	1655701504	60	9177
2026-01-30 02:32:14.87	350.67	42.48	-46.8	-47.5	25.4	0.00e+00	0	46	0	1678770176	60	9324
2026-01-30 02:32:18.90	349.10	43.22	-46.6	-47.3	25.5	0.00e+00	0	46	0	1701838848	60	9067
2026-01-30 02:32:22.93	347.45	43.94	-46.8	-47.5	25.3	0.00e+00	0	46	0	1723858944	60	9336
2026-01-30 02:32:26.95	345.74	44.64	-46.5	-47.3	25.0	0.00e+00	0	46	0	1746927616	60	9077
2026-01-30 02:32:30.98	343.94	45.33	-46.6	-47.4	24.9	0.00e+00	0	46	0	1769996288	60	9183
2026-01-30 02:32:35.01	342.07	46.00	-46.9	-47.6	25.5	0.00e+00	0	46	0	1792016384	60	9373
2026-01-30 02:32:39.03	340.11	46.64	-47.4	-48.1	25.2	0.00e+00	0	46	0	1815085056	60	9956
2026-01-30 02:32:43.07	338.07	47.25	-47.3	-48.1	25.2	0.00e+00	0	46	0	1837105152	60	9907
2026-01-30 02:32:47.09	335.96	47.83	-47.6	-48.4	25.0	0.00e+00	0	46	0	1860173824	60	10291
2026-01-30 02:32:51.11	333.77	48.38	-47.7	-48.4	24.9	0.00e+00	0	46	0	1883242496	60	10349
2026-01-30 02:32:55.14	331.50	48.88	-47.4	-48.2	24.6	0.00e+00	0	46	0	1905262592	60	10068
2026-01-30 02:32:59.17	329.16	49.34	-47.5	-48.3	25.0	0.00e+00	0	46	0	1928331264	60	10217
2026-01-30 02:33:03.19	326.75	49.75	-48.0	-48.8	24.4	0.00e+00	0	46	0	1951399936	60	10825
2026-01-30 02:33:07.21	324.28	50.10	-47.7	-48.4	24.7	0.00e+00	0	46	0	1973420032	60	10324
2026-01-30 02:33:11.24	321.75	50.40	-47.4	-48.2	24.8	0.00e+00	0	46	0	1995440128	60	10067
2026-01-30 02:33:15.27	319.18	50.65	-47.8	-48.8	23.6	0.00e+00	0	46	0	2018508800	60	10847
2026-01-30 02:33:19.30	316.57	50.83	-48.0	-49.0	23.9	0.00e+00	0	46	0	2041577472	60	11043
2026-01-30 02:33:23.33	313.93	50.95	-47.6	-48.3	24.8	0.00e+00	0	46	0	2063597568	60	10209
2026-01-30 02:33:27.35	311.28	51.00	-47.3	-48.3	24.2	0.00e+00	0	46	0	2086666240	60	10162
2026-01-30 02:33:31.38	308.62	50.99	-47.6	-48.6	23.7	0.00e+00	0	46	0	2109734912	60	10511
2026-01-30 02:33:35.42	305.96	50.92	-47.5	-48.7	24.3	0.00e+00	0	46	0	2131755008	60	10667
2026-01-30 02:33:39.43	303.35	50.78	-47.3	-48.2	24.7	0.00e+00	0	46	0	2154823680	60	10108
2026-01-30 02:33:43.45	300.75	50.58	-47.5	-48.3	24.9	0.00e+00	0	46	0	2176843776	60	10151
2026-01-30 02:33:47.47	298.19	50.31	-47.4	-48.5	23.8	0.00e+00	0	46	0	2199912448	60	10445
2026-01-30 02:33:51.49	295.69	50.00	-47.1	-48.1	23.8	0.00e+00	0	46	0	2222981120	60	9956
2026-01-30 02:33:55.50	293.24	49.62	-46.8	-48.0	23.4	0.00e+00	0	46	0	2245001216	60	9873
2026-01-30 02:33:59.52	290.85	49.20	-46.6	-48.1	23.0	0.00e+00	0	46	0	2268069888	60	9976
2026-01-30 02:34:03.54	288.53	48.73	-47.1	-48.3	23.8	0.00e+00	0	46	0	2290089984	60	10174
2026-01-30 02:34:07.56	286.29	48.21	-47.7	-48.5	24.5	0.00e+00	0	46	0	2312110080	60	10443
2026-01-30 02:34:11.59	284.11	47.65	-47.6	-48.4	24.2	0.00e+00	0	46	0	2335178752	60	10313
2026-01-30 02:34:15.61	282.02	47.06	-46.9	-47.8	23.7	0.00e+00	0	46	0	2358247424	60	9663
2026-01-30 02:34:19.64	280.01	46.44	-46.5	-47.6	23.4	0.00e+00	0	46	0	2380267520	60	9402
2026-01-30 02:34:23.66	278.08	45.79	-45.9	-47.0	23.7	0.00e+00	0	46	0	2403336192	60	8779
2026-01-30 02:34:27.68	276.23	45.11	-46.1	-47.3	23.8	0.00e+00	0	46	0	2426404864	60	9031
2026-01-30 02:34:31.71	274.46	44.42	-46.2	-47.2	24.4	0.00e+00	0	46	0	2448424960	60	8979
2026-01-30 02:34:35.74	272.76	43.70	-46.2	-47.2	25.0	0.00e+00	0	46	0	2471493632	60	8951
2026-01-30 02:34:39.77	271.13	42.98	-46.0	-46.8	25.5	0.00e+00	0	46	0	2493513728	60	8561
2026-01-30 02:34:43.80	269.58	42.24	-46.5	-47.3	25.0	0.00e+00	0	46	0	2516582400	60	9043
2026-01-30 02:34:47.82	268.11	41.50	-46.3	-47.1	25.3	0.00e+00	0	46	0	2539651072	60	8851
2026-01-30 02:34:51.86	266.69	40.74	-46.3	-47.1	24.9	0.00e+00	0	46	0	2561671168	60	8874
2026-01-30 02:34:55.89	265.34	39.99	-46.3	-47.0	25.3	0.00e+00	0	46	0	2584739840	60	8750
2026-01-30 02:34:59.90	264.06	39.24	-46.3	-47.0	25.5	0.00e+00	0	46	0	2607808512	60	8806
2026-01-30 02:35:03.93	262.83	38.48	-46.0	-46.7	25.8	0.00e+00	0	46	0	2629828608	60	8433
2026-01-30 02:35:07.95	261.66	37.73	-46.1	-46.8	25.7	0.00e+00	0	46	0	2652897280	60	8574
2026-01-30 02:35:11.99	260.54	36.98	-46.8	-47.4	25.0	0.00e+00	0	46	0	2674917376	60	9199
2026-01-30 02:35:16.01	259.48	36.24	-46.1	-46.8	25.6	0.00e+00	0	46	0	2697986048	60	8596
2026-01-30 02:35:20.04	258.46	35.50	-46.0	-46.7	25.7	0.00e+00	0	46	0	2720006144	60	8441
2026-01-30 02:35:24.06	257.48	34.77	-45.8	-46.6	25.8	0.00e+00	0	46	0	2743074816	60	8331
2026-01-30 02:35:28.10	256.55	34.05	-45.9	-46.5	25.7	0.00e+00	0	46	0	2766143488	60	8300
2026-01-30 02:35:32.13	255.66	33.34	-46.0	-46.6	25.5	0.00e+00	0	46	0	2788163584	60	8394
2026-01-30 02:35:36.15	254.81	32.63	-46.2	-46.8	25.3	0.00e+00	0	46	0	2811232256	60	8564
2026-01-30 02:35:40.18	253.99	31.93	-46.4	-47.1	25.1	0.00e+00	0	46	0	2834300928	60	8839
2026-01-30 02:35:44.21	253.21	31.25	-46.0	-46.6	25.5	0.00e+00	0	46	0	2856321024	60	8407
2026-01-30 02:35:48.22	252.46	30.57	-46.1	-46.9	25.4	0.00e+00	0	46	0	2879389696	60	8626
2026-01-30 02:35:52.24	251.74	29.91	-46.2	-46.9	25.3	0.00e+00	0	46	0	2901409792	60	8701
2026-01-30 02:35:56.26	251.06	29.26	-46.3	-47.1	25.2	0.00e+00	0	46	0	2924478464	60	8860
2026-01-30 02:36:00.29	250.39	28.61	-46.5	-47.3	25.0	0.00e+00	0	46	0	2947547136	60	9053
2026-01-30 02:36:04.31	249.76	27.98	-46.7	-47.4	24.9	0.00e+00	0	46	0	2969567232	60	9212
2026-01-30 02:36:08.33	249.15	27.35	-46.6	-47.2	24.9	0.00e+00	0	46	0	2992635904	60	8984
2026-01-30 02:36:12.35	248.57	26.74	-46.4	-47.0	24.9	0.00e+00	0	46	0	3014656000	60	8782
2026-01-30 02:36:16.37	248.00	26.14	-45.9	-46.6	25.2	0.00e+00	0	46	0	3036676096	60	8333
2026-01-30 02:36:20.39	247.46	25.55	-46.0	-46.6	25.1	0.00e+00	0	46	0	3059744768	60	8375
2026-01-30 02:36:24.42	246.94	24.96	-46.1	-46.8	25.0	0.00e+00	0	46	0	3082813440	60	8539
2026-01-30 02:36:28.44	246.43	24.39	-46.4	-47.2	24.8	0.00e+00	0	46	0	3104833536	60	8928
2026-01-30 02:36:32.46	245.95	23.83	-46.5	-47.2	24.4	0.00e+00	0	46	0	3127902208	60	8972
2026-01-30 02:36:36.50	245.48	23.27	-46.7	-47.5	24.3	0.00e+00	0	46	0	3150970880	60	9254
2026-01-30 02:36:40.52	245.03	22.73	-46.2	-46.9	24.7	0.00e+00	0	46	0	3172990976	60	8689
2026-01-30 02:36:44.54	244.59	22.20	-46.0	-46.7	24.8	0.00e+00	0	46	0	3196059648	60	8473
2026-01-30 02:36:48.58	244.17	21.67	-45.9	-46.5	24.8	0.00e+00	0	46	0	3219128320	60	8312
2026-01-30 02:36:52.60	243.77	21.16	-46.1	-46.7	24.6	0.00e+00	0	46	0	3241148416	60	8478
2026-01-30 02:36:56.63	243.37	20.65	-46.4	-47.1	24.3	0.00e+00	0	46	0	3264217088	60	8835
2026-01-30 02:37:00.67	242.99	20.15	-46.9	-47.7	23.7	0.00e+00	0	46	0	3286237184	60	9515
2026-01-30 02:37:04.70	242.63	19.66	-47.3	-48.0	23.4	0.00e+00	0	46	0	3309305856	60	9863
2026-01-30 02:37:08.72	242.27	19.18	-47.1	-47.8	23.5	0.00e+00	0	46	0	3332374528	60	9641
2026-01-30 02:37:12.75	241.93	18.70	-46.9	-47.6	23.7	0.00e+00	0	46	0	3354394624	60	9385
2026-01-30 02:37:16.78	241.59	18.24	-47.0	-47.8	23.6	0.00e+00	0	46	0	3377463296	60	9637
2026-01-30 02:37:20.80	241.27	17.78	-47.1	-47.9	23.5	0.00e+00	0	46	0	3399483392	60	9694
2026-01-30 02:37:24.82	240.96	17.33	-47.1	-47.8	23.5	0.00e+00	0	46	0	3422552064	60	9602
2026-01-30 02:37:28.84	240.65	16.89	-47.6	-48.4	22.9	0.00e+00	0	46	0	3444572160	60	10362
2026-01-30 02:37:32.86	240.36	16.45	-47.1	-48.0	23.3	0.00e+00	0	46	0	3467640832	60	9845
2026-01-30 02:37:36.89	240.07	16.02	-47.5	-48.2	23.1	0.00e+00	0	46	0	3490709504	60	10084
2026-01-30 02:37:40.92	239.80	15.60	-47.6	-48.4	22.8	0.00e+00	0	46	0	3512729600	60	10289
2026-01-30 02:37:44.95	239.53	15.18	-47.7	-48.7	22.6	0.00e+00	0	46	0	3535798272	60	10660
2026-01-30 02:37:48.97	239.27	14.77	-47.8	-48.6	22.4	0.00e+00	0	46	0	3557818368	60	10581
2026-01-30 02:37:53.01	239.01	14.37	-47.6	-48.6	22.6	0.00e+00	0	46	0	3580887040	60	10531
2026-01-30 02:37:57.04	238.76	13.97	-47.8	-48.7	22.4	0.00e+00	0	46	0	3603955712	60	10627
2026-01-30 02:38:01.06	238.52	13.58	-47.4	-48.2	22.7	0.00e+00	0	46	0	3625975808	60	10053
2026-01-30 02:38:05.07	238.29	13.19	-47.5	-48.3	22.4	0.00e+00	0	46	0	3649044480	60	10166
2026-01-30 02:38:09.09	238.06	12.81	-47.9	-48.9	21.9	0.00e+00	0	46	0	3672113152	60	10889
2026-01-30 02:38:13.13	237.84	12.44	-48.1	-49.0	21.7	0.00e+00	0	46	0	3694133248	60	10990
2026-01-30 02:38:17.15	237.62	12.07	-48.3	-49.2	21.4	0.00e+00	0	46	0	3716153344	60	11269
2026-01-30 02:38:21.18	237.41	11.70	-48.4	-49.4	21.3	0.00e+00	0	46	0	3739222016	60	11583
2026-01-30 02:38:25.21	237.21	11.34	-48.1	-49.2	21.3	0.00e+00	0	46	0	3762290688	60	11282
2026-01-30 02:38:29.23	237.01	10.99	-48.0	-49.0	21.4	0.00e+00	0	46	0	3784310784	60	11002
2026-01-30 02:38:33.25	236.82	10.64	-48.4	-49.3	21.0	0.00e+00	0	46	0	3807379456	60	11484
2026-01-30 02:38:37.28	236.63	10.29	-48.1	-49.0	21.4	0.00e+00	0	46	0	3830448128	60	11029
2026-01-30 02:38:41.31	236.44	9.95	-48.2	-49.1	21.2	0.00e+00	0	46	0	3852468224	60	11227
2026-01-30 02:38:45.33	236.26	9.62	-48.6	-49.6	20.9	0.00e+00	0	46	0	3875536896	60	11829
2026-01-30 02:38:49.35	236.09	9.28	-48.7	-49.7	20.7	0.00e+00	0	46	0	3897556992	60	12013
2026-01-30 02:38:53.37	235.91	8.96	-49.1	-50.2	20.2	0.00e+00	0	46	0	3920625664	60	12700
2026-01-30 02:38:57.39	235.75	8.63	-49.6	-50.8	19.5	0.00e+00	0	46	0	3943694336	60	13643
2026-01-30 02:39:01.43	235.58	8.31	-50.3	-51.7	18.2	0.00e+00	0	46	0	3965714432	60	15147
2026-01-30 02:39:05.45	235.42	7.99	-51.3	-52.9	17.0	0.00e+00	0	46	0	3988783104	60	17357
2026-01-30 02:39:09.48	235.27	7.68	-51.9	-53.6	16.7	0.00e+00	0	46	0	4011851776	60	18747
2026-01-30 02:39:13.51	235.11	7.37	-52.4	-54.5	15.5	0.00e+00	0	46	0	4033871872	60	20786
2026-01-30 02:39:17.54	234.96	7.06	-52.3	-54.3	15.0	0.00e+00	0	46	0	4055891968	60	20369
2026-01-30 02:39:21.57	234.82	6.76	-52.8	-54.9	15.6	0.00e+00	0	46	0	4078960640	60	21824
2026-01-30 02:39:25.59	234.68	6.46	-52.6	-54.7	15.5	0.00e+00	0	46	0	4102029312	60	21246
2026-01-30 02:39:29.62	234.54	6.17	-52.6	-54.8	14.9	2.20e-06	0	46	0	4124049408	60	21464
2026-01-30 02:39:33.64	234.40	5.87	-57.8	-71.3	3.6	8.45e-01	0	46	104	4138729472	60	143896
2026-01-30 02:39:37.67	234.27	5.58	-59.3	-73.0	3.6	8.45e-01	0	46	104	4138729472	60	174640
2026-01-30 02:39:41.70	234.14	5.30	-60.1	-73.8	3.6	8.45e-01	0	46	104	4138729472	60	191770
2026-01-30 02:39:45.73	234.01	5.01	-61.2	-74.4	3.6	8.45e-01	0	46	104	4138729472	60	206518
2026-01-30 02:39:49.75	233.88	4.73	-61.4	-74.8	3.6	8.45e-01	0	46	104	4138729472	60	215095
2026-01-30 02:39:53.77	233.76	4.45	-60.3	-74.9	3.6	8.45e-01	0	46	104	4138729472	60	217835
2026-01-30 02:39:57.79	233.64	4.18	-56.9	-73.5	3.6	8.44e-01	0	46	104	4138729472	60	184788
2026-01-30 02:40:01.82	233.52	3.91	-59.3	-75.1	3.6	8.45e-01	0	46	104	4138729472	60	222166
2026-01-30 02:40:05.84	233.41	3.64	-59.2	-75.1	3.6	8.44e-01	0	46	104	4138729472	60	223254
2026-01-30 02:40:09.86	233.30	3.37	-59.0	-75.0	3.6	8.45e-01	0	46	104	4138729472	60	221399
2026-01-30 02:40:13.89	233.19	3.10	-59.1	-75.2	3.6	8.46e-01	0	46	104	4138729472	60	226339
2026-01-30 02:40:17.91	233.08	2.84	-58.9	-75.1	3.6	8.46e-01	0	46	104	4138729472	60	221922
2026-01-30 02:40:21.94	232.97	2.58	-58.9	-74.8	3.6	8.44e-01	0	46	104	4138729472	60	215192
2026-01-30 02:40:25.96	232.87	2.32	-58.9	-75.1	3.6	8.45e-01	0	46	104	4138729472	60	222128
2026-01-30 02:40:29.98	232.76	2.07	-59.1	-75.1	3.6	8.44e-01	0	46	104	4138729472	60	222275
2026-01-30 02:40:34.01	232.66	1.81	-59.1	-75.1	3.6	8.44e-01	0	46	104	4138729472	60	223336
2026-01-30 02:40:38.04	232.57	1.56	-59.2	-74.9	3.6	8.45e-01	0	46	104	4138729472	60	218042
2026-01-30 02:40:42.06	232.47	1.31	-59.2	-75.0	3.6	8.45e-01	0	46	104	4138729472	60	219775
2026-01-30 02:40:46.09	232.38	1.07	-59.3	-74.9	3.6	8.45e-01	0	46	104	4138729472	60	217892
2026-01-30 02:40:50.10	232.28	0.82	-59.4	-75.1	3.6	8.46e-01	0	46	104	4138729472	60	223783
2026-01-30 02:40:54.12	232.19	0.58	-59.4	-74.9	3.6	8.45e-01	0	46	104	4138729472	60	217845
2026-01-30 02:40:58.15	232.10	0.34	-59.6	-75.0	3.6	8.44e-01	0	46	104	4138729472	60	219953
2026-01-30 02:41:02.18	232.01	0.10	-59.7	-75.2	3.6	8.46e-01	0	46	104	4138729472	60	225279
2026-01-30 02:41:06.20	231.93	-0.14	-59.8	-75.2	3.6	8.46e-01	0	46	104	4138729472	60	225011

#Closed at: 2026-01-30 02:41:06
#Recorded file [4138 MB]: D:/Data/35015_260130_053932.dat