passes_logs/2026/01/30/R3.2S-Naryan-Mar/R3.2S-Naryan-Mar__20260130_090225_FENGYUN_3D_rec.log

#Pass ID: 20260130_090225_FENGYUN 3D
#Satellite: FENGYUN 3D
#Configuration: FENGYUN 3D
#almurnet v.1.7.20240730
#Start time: 2026-01-30 09:02:25

#Version: 2.2.20231116
#Station: R3.2S-Naryan-Mar
#Location: 53.008057 lon 67.646978 lat
#TLE: 1 43010U 17072A   26029.52179110  .00000394  00000+0  20818-3 0  9997
#TLE: 2 43010  98.9957   1.5649 0002507  83.7772 276.3689 14.19703315425310

#Time	Az	El	Level	Level2	SNR	BER	BlckErr	Temp	State	Recorded	gain1	gain2
2026-01-30 09:02:25.59	122.39	0.03	-59.5	-77.8	3.5	1.51e+00	0	42	0	0	60	303179
2026-01-30 09:02:29.61	122.28	0.27	-56.2	-72.9	3.6	8.45e-01	0	44	104	0	60	173742
2026-01-30 09:02:33.64	122.17	0.51	-58.0	-74.0	3.6	8.45e-01	0	44	104	0	60	196449
2026-01-30 09:02:37.67	122.05	0.75	-60.8	-74.8	3.6	8.45e-01	0	44	104	0	60	215506
2026-01-30 09:02:41.70	121.94	1.00	-59.8	-74.5	3.6	8.45e-01	0	44	104	0	60	207106
2026-01-30 09:02:45.72	121.82	1.24	-59.7	-74.4	3.6	8.45e-01	0	44	104	0	60	204691
2026-01-30 09:02:49.74	121.70	1.49	-58.2	-74.4	3.6	8.45e-01	0	44	104	0	60	205309
2026-01-30 09:02:53.76	121.58	1.73	-58.7	-73.7	3.6	8.46e-01	0	44	104	0	60	189579
2026-01-30 09:02:57.79	121.46	1.99	-60.0	-73.5	3.6	8.45e-01	0	44	104	0	60	186385
2026-01-30 09:03:01.82	121.34	2.24	-57.9	-72.5	3.6	8.45e-01	0	44	104	0	60	164657
2026-01-30 09:03:05.84	121.21	2.49	-55.3	-72.2	3.6	8.45e-01	0	44	104	0	60	160221
2026-01-30 09:03:09.86	121.08	2.75	-55.0	-72.2	3.6	8.46e-01	0	44	104	0	60	160109
2026-01-30 09:03:13.89	120.94	3.01	-55.0	-72.0	3.6	8.45e-01	0	44	104	0	60	156413
2026-01-30 09:03:17.91	120.81	3.27	-55.1	-72.1	3.6	8.45e-01	0	45	104	0	60	157430
2026-01-30 09:03:21.95	120.67	3.54	-55.0	-72.2	3.6	8.45e-01	0	44	104	0	60	159390
2026-01-30 09:03:25.97	120.53	3.80	-55.0	-72.1	3.6	8.45e-01	0	45	104	0	60	157777
2026-01-30 09:03:29.99	120.39	4.07	-55.0	-71.7	3.6	8.45e-01	0	44	104	0	60	150080
2026-01-30 09:03:34.02	120.24	4.34	-55.1	-70.3	3.6	8.46e-01	0	45	104	0	60	128041
2026-01-30 09:03:38.03	120.09	4.61	-55.2	-69.8	3.6	8.42e-01	0	45	104	0	60	121661
2026-01-30 09:03:42.05	119.94	4.89	-54.9	-64.8	5.3	7.58e-01	0	45	0	0	60	67946
2026-01-30 09:03:46.07	119.78	5.17	-53.5	-58.4	12.6	3.78e-04	0	45	0	22020096	60	32630
2026-01-30 09:03:50.09	119.62	5.45	-51.5	-54.2	17.0	0.00e+00	0	45	0	44040192	60	20079
2026-01-30 09:03:54.10	119.46	5.73	-50.9	-53.3	17.8	0.00e+00	0	45	0	67108864	60	18127
2026-01-30 09:03:58.13	119.29	6.02	-52.3	-55.9	15.1	0.00e+00	0	45	0	89128960	60	24331
2026-01-30 09:04:02.16	119.13	6.31	-50.8	-52.3	18.8	0.00e+00	0	45	0	110100480	60	16127
2026-01-30 09:04:06.18	118.95	6.61	-50.9	-52.7	17.7	0.00e+00	0	45	0	133169152	60	16947
2026-01-30 09:04:10.21	118.77	6.90	-50.8	-52.1	19.0	0.00e+00	0	45	0	156237824	60	15825
2026-01-30 09:04:14.23	118.59	7.20	-50.9	-52.2	19.4	0.00e+00	0	45	0	178257920	60	15959
2026-01-30 09:04:18.24	118.41	7.51	-50.6	-51.8	19.6	0.00e+00	0	45	0	201326592	60	15312
2026-01-30 09:04:22.25	118.22	7.81	-50.4	-51.7	19.4	0.00e+00	0	45	0	223346688	60	15130
2026-01-30 09:04:26.27	118.03	8.12	-50.2	-51.7	19.1	0.00e+00	0	45	0	246415360	60	15117
2026-01-30 09:04:30.29	117.83	8.43	-50.3	-51.7	19.2	0.00e+00	0	45	0	268435456	60	15074
2026-01-30 09:04:34.32	117.63	8.75	-50.3	-51.7	19.2	0.00e+00	0	45	0	291504128	60	15019
2026-01-30 09:04:38.35	117.42	9.07	-50.1	-51.6	19.0	0.00e+00	0	45	0	314572800	60	14981
2026-01-30 09:04:42.37	117.21	9.40	-49.9	-51.5	19.5	0.00e+00	0	45	0	336592896	60	14666
2026-01-30 09:04:46.40	116.99	9.72	-49.8	-51.2	20.3	0.00e+00	0	45	0	359661568	60	14189
2026-01-30 09:04:50.43	116.77	10.06	-49.8	-51.0	20.8	0.00e+00	0	45	0	382730240	60	13842
2026-01-30 09:04:54.46	116.54	10.39	-49.8	-51.0	20.4	0.00e+00	0	45	0	404750336	60	13870
2026-01-30 09:04:58.49	116.31	10.73	-49.8	-50.9	20.4	0.00e+00	0	45	0	426770432	60	13767
2026-01-30 09:05:02.50	116.07	11.08	-49.6	-50.8	20.4	0.00e+00	0	45	0	449839104	60	13599
2026-01-30 09:05:06.54	115.82	11.43	-49.7	-50.9	20.6	0.00e+00	0	45	0	472907776	60	13736
2026-01-30 09:05:10.56	115.57	11.78	-50.0	-51.2	20.3	0.00e+00	0	45	0	494927872	60	14168
2026-01-30 09:05:14.60	115.31	12.14	-49.6	-50.7	20.7	0.00e+00	0	45	0	517996544	60	13393
2026-01-30 09:05:18.63	115.05	12.50	-49.4	-50.4	21.1	0.00e+00	0	45	0	541065216	60	12947
2026-01-30 09:05:22.66	114.77	12.87	-49.2	-50.2	21.5	0.00e+00	0	45	0	563085312	60	12741
2026-01-30 09:05:26.67	114.49	13.24	-48.9	-50.0	21.4	0.00e+00	0	45	0	586153984	60	12371
2026-01-30 09:05:30.70	114.21	13.62	-49.0	-50.0	21.1	0.00e+00	0	45	0	608174080	60	12435
2026-01-30 09:05:34.72	113.91	14.01	-49.2	-50.2	21.0	0.00e+00	0	45	0	631242752	60	12716
2026-01-30 09:05:38.75	113.61	14.39	-49.2	-50.2	21.5	0.00e+00	0	45	0	654311424	60	12713
2026-01-30 09:05:42.78	113.30	14.79	-48.9	-49.8	21.8	0.00e+00	0	45	0	676331520	60	12133
2026-01-30 09:05:46.80	112.98	15.19	-48.4	-49.4	22.1	0.00e+00	0	45	0	699400192	60	11581
2026-01-30 09:05:50.83	112.65	15.59	-48.3	-49.3	22.2	0.00e+00	0	45	0	722468864	60	11416
2026-01-30 09:05:54.86	112.31	16.00	-48.3	-49.3	22.1	0.00e+00	0	45	0	744488960	60	11481
2026-01-30 09:05:58.89	111.97	16.42	-48.2	-49.1	22.4	0.00e+00	0	45	0	766509056	60	11202
2026-01-30 09:06:02.91	111.61	16.84	-48.1	-49.1	22.3	0.00e+00	0	45	0	789577728	60	11177
2026-01-30 09:06:06.94	111.24	17.27	-47.8	-48.8	22.9	0.00e+00	0	45	0	812646400	60	10792
2026-01-30 09:06:10.98	110.86	17.71	-47.9	-48.8	22.4	0.00e+00	0	45	0	834666496	60	10812
2026-01-30 09:06:15.01	110.47	18.15	-47.8	-48.8	22.7	0.00e+00	0	45	0	857735168	60	10755
2026-01-30 09:06:19.04	110.06	18.60	-47.8	-48.8	23.0	0.00e+00	0	45	0	880803840	60	10757
2026-01-30 09:06:23.06	109.65	19.06	-47.6	-48.5	23.1	0.00e+00	0	45	0	902823936	60	10410
2026-01-30 09:06:27.08	109.22	19.52	-47.5	-48.3	23.5	0.00e+00	0	45	0	925892608	60	10157
2026-01-30 09:06:31.11	108.78	19.99	-47.3	-48.2	23.2	0.00e+00	0	45	0	948961280	60	10027
2026-01-30 09:06:35.13	108.32	20.46	-47.3	-48.2	23.0	0.00e+00	0	45	0	970981376	60	10119
2026-01-30 09:06:39.15	107.85	20.95	-47.2	-48.2	23.6	0.00e+00	0	45	0	994050048	60	10020
2026-01-30 09:06:43.18	107.36	21.44	-47.3	-48.1	23.5	0.00e+00	0	45	0	1016070144	60	9932
2026-01-30 09:06:47.20	106.86	21.93	-47.2	-48.1	22.9	0.00e+00	0	45	0	1039138816	60	9938
2026-01-30 09:06:51.22	106.34	22.44	-47.3	-48.1	23.6	0.00e+00	0	45	0	1062207488	60	9981
2026-01-30 09:06:55.25	105.80	22.95	-47.3	-48.1	23.5	0.00e+00	0	45	0	1084227584	60	9954
2026-01-30 09:06:59.27	105.25	23.47	-47.1	-47.9	23.9	0.00e+00	0	45	0	1107296256	60	9753
2026-01-30 09:07:03.30	104.67	24.00	-46.6	-47.4	24.2	0.00e+00	0	45	0	1129316352	60	9222
2026-01-30 09:07:07.32	104.08	24.53	-46.9	-47.8	23.7	0.00e+00	0	45	0	1152385024	60	9567
2026-01-30 09:07:11.35	103.46	25.08	-46.6	-47.5	23.5	0.00e+00	0	45	0	1174405120	60	9300
2026-01-30 09:07:15.37	102.82	25.63	-46.8	-47.5	23.8	0.00e+00	0	45	0	1197473792	60	9334
2026-01-30 09:07:19.40	102.16	26.19	-46.6	-47.4	23.9	0.00e+00	0	45	0	1220542464	60	9177
2026-01-30 09:07:23.43	101.47	26.75	-46.6	-47.4	24.2	0.00e+00	0	45	0	1242562560	60	9174
2026-01-30 09:07:27.44	100.76	27.32	-46.3	-47.1	24.5	0.00e+00	0	45	0	1265631232	60	8883
2026-01-30 09:07:31.47	100.02	27.90	-46.3	-47.0	24.5	0.00e+00	0	45	0	1287651328	60	8804
2026-01-30 09:07:35.50	99.26	28.49	-46.2	-46.9	24.7	0.00e+00	0	45	0	1310720000	60	8713
2026-01-30 09:07:39.52	98.46	29.08	-46.3	-47.0	24.5	0.00e+00	0	45	0	1333788672	60	8812
2026-01-30 09:07:43.54	97.64	29.67	-46.6	-47.3	24.3	0.00e+00	0	45	0	1355808768	60	9124
2026-01-30 09:07:47.55	96.79	30.28	-46.2	-46.9	24.8	0.00e+00	0	45	0	1378877440	60	8717
2026-01-30 09:07:51.57	95.90	30.88	-46.5	-47.3	24.2	0.00e+00	0	45	0	1400897536	60	9097
2026-01-30 09:07:55.59	94.98	31.50	-46.7	-47.5	24.8	0.00e+00	0	45	0	1423966208	60	9250
2026-01-30 09:07:59.61	94.02	32.11	-46.3	-47.0	25.3	0.00e+00	0	45	0	1447034880	60	8795
2026-01-30 09:08:03.63	93.02	32.73	-46.4	-47.1	25.2	0.00e+00	0	45	0	1469054976	60	8884
2026-01-30 09:08:07.65	91.98	33.36	-46.4	-47.1	25.3	0.00e+00	0	45	0	1491075072	60	8911
2026-01-30 09:08:11.66	90.91	33.98	-46.6	-47.3	25.3	0.00e+00	0	45	0	1514143744	60	9091
2026-01-30 09:08:15.69	89.79	34.61	-46.5	-47.2	25.5	0.00e+00	0	45	0	1536163840	60	8989
2026-01-30 09:08:19.72	88.62	35.23	-46.6	-47.3	25.2	0.00e+00	0	45	0	1559232512	60	9078
2026-01-30 09:08:23.74	87.41	35.86	-46.5	-47.2	25.3	0.00e+00	0	45	0	1582301184	60	8988
2026-01-30 09:08:27.77	86.16	36.48	-46.8	-47.6	25.2	0.00e+00	0	45	0	1604321280	60	9345
2026-01-30 09:08:31.80	84.85	37.09	-46.7	-47.4	25.2	0.00e+00	0	45	0	1627389952	60	9221
2026-01-30 09:08:35.83	83.49	37.70	-47.3	-48.1	24.8	0.00e+00	0	45	0	1650458624	60	9903
2026-01-30 09:08:39.86	82.08	38.30	-47.0	-47.7	25.1	0.00e+00	0	45	0	1672478720	60	9532
2026-01-30 09:08:43.89	80.61	38.90	-46.9	-47.6	25.2	0.00e+00	0	45	0	1695547392	60	9413
2026-01-30 09:08:47.92	79.10	39.48	-47.2	-48.0	24.8	0.00e+00	0	45	0	1718616064	60	9857
2026-01-30 09:08:51.94	77.53	40.04	-46.5	-47.2	25.8	0.00e+00	0	45	0	1740636160	60	8928
2026-01-30 09:08:55.97	75.90	40.59	-46.8	-47.5	25.4	0.00e+00	0	45	0	1763704832	60	9315
2026-01-30 09:08:59.99	74.22	41.12	-47.1	-47.8	25.3	0.00e+00	0	45	0	1785724928	60	9653
2026-01-30 09:09:04.02	72.49	41.62	-46.9	-47.6	25.6	0.00e+00	0	45	0	1808793600	60	9397
2026-01-30 09:09:08.05	70.69	42.11	-46.7	-47.4	25.5	0.00e+00	0	45	0	1830813696	60	9237
2026-01-30 09:09:12.08	68.85	42.56	-46.4	-47.1	25.9	0.00e+00	0	45	0	1853882368	60	8854
2026-01-30 09:09:16.11	66.95	42.99	-46.7	-47.4	25.6	0.00e+00	0	45	0	1876951040	60	9234
2026-01-30 09:09:20.13	65.01	43.39	-46.3	-47.0	26.0	0.00e+00	0	45	0	1898971136	60	8755
2026-01-30 09:09:24.15	63.02	43.75	-46.4	-47.2	25.6	0.00e+00	0	45	0	1922039808	60	8926
2026-01-30 09:09:28.17	60.99	44.07	-46.4	-47.1	25.6	0.00e+00	0	45	0	1944059904	60	8892
2026-01-30 09:09:32.20	58.92	44.36	-46.4	-47.0	25.7	0.00e+00	0	45	0	1967128576	60	8813
2026-01-30 09:09:36.23	56.81	44.60	-46.3	-46.9	25.7	0.00e+00	0	45	0	1990197248	60	8707
2026-01-30 09:09:40.25	54.67	44.81	-46.1	-46.8	25.7	0.00e+00	0	45	0	2012217344	60	8538
2026-01-30 09:09:44.27	52.51	44.96	-45.9	-46.6	25.8	0.00e+00	0	45	0	2035286016	60	8384
2026-01-30 09:09:48.31	50.33	45.08	-45.9	-46.5	25.8	0.00e+00	0	45	0	2058354688	60	8305
2026-01-30 09:09:52.33	48.14	45.14	-45.8	-46.4	26.0	0.00e+00	0	45	0	2080374784	60	8210
2026-01-30 09:09:56.36	45.94	45.16	-45.9	-46.6	26.0	0.00e+00	0	45	0	2103443456	60	8348
2026-01-30 09:10:00.38	43.74	45.14	-46.0	-46.7	25.9	0.00e+00	0	45	0	2125463552	60	8454
2026-01-30 09:10:04.41	41.55	45.06	-45.5	-46.1	26.4	0.00e+00	0	45	0	2148532224	60	7948
2026-01-30 09:10:08.43	39.37	44.94	-46.2	-46.9	25.8	0.00e+00	0	45	0	2170552320	60	8679
2026-01-30 09:10:12.45	37.22	44.78	-46.3	-47.0	25.8	0.00e+00	0	45	0	2193620992	60	8790
2026-01-30 09:10:16.47	35.09	44.57	-46.0	-46.6	25.9	0.00e+00	0	45	0	2215641088	60	8418
2026-01-30 09:10:20.50	32.99	44.32	-46.0	-46.7	26.0	0.00e+00	0	45	0	2238709760	60	8430
2026-01-30 09:10:24.52	30.92	44.03	-46.0	-46.7	26.0	0.00e+00	0	45	0	2261778432	60	8428
2026-01-30 09:10:28.55	28.90	43.70	-45.9	-46.5	26.0	0.00e+00	0	45	0	2283798528	60	8305
2026-01-30 09:10:32.58	26.91	43.33	-46.0	-46.7	25.7	0.00e+00	0	45	0	2306867200	60	8437
2026-01-30 09:10:36.61	24.98	42.93	-46.0	-46.6	25.9	0.00e+00	0	45	0	2329935872	60	8349
2026-01-30 09:10:40.64	23.09	42.50	-45.7	-46.5	25.9	0.00e+00	0	45	0	2351955968	60	8248
2026-01-30 09:10:44.66	21.26	42.04	-46.2	-46.9	25.7	0.00e+00	0	45	0	2375024640	60	8631
2026-01-30 09:10:48.68	19.48	41.55	-45.9	-46.6	25.9	0.00e+00	0	45	0	2397044736	60	8370
2026-01-30 09:10:52.69	17.77	41.05	-45.7	-46.4	25.8	0.00e+00	0	45	0	2420113408	60	8211
2026-01-30 09:10:56.72	16.09	40.51	-45.9	-46.6	25.6	0.00e+00	0	45	0	2443182080	60	8417
2026-01-30 09:11:00.74	14.48	39.97	-45.8	-46.5	25.9	0.00e+00	0	45	0	2465202176	60	8280
2026-01-30 09:11:04.77	12.92	39.40	-45.7	-46.4	25.9	0.00e+00	0	45	0	2487222272	60	8201
2026-01-30 09:11:08.79	11.42	38.82	-45.9	-46.6	25.7	0.00e+00	0	45	0	2510290944	60	8351
2026-01-30 09:11:12.83	9.96	38.23	-46.2	-46.9	25.6	0.00e+00	0	45	0	2533359616	60	8689
2026-01-30 09:11:16.85	8.56	37.63	-46.3	-47.0	25.2	0.00e+00	0	45	0	2555379712	60	8732
2026-01-30 09:11:20.86	7.22	37.02	-45.7	-46.4	25.7	0.00e+00	0	45	0	2578448384	60	8148
2026-01-30 09:11:24.88	5.93	36.41	-45.5	-46.1	26.0	0.00e+00	0	45	0	2600468480	60	7945
2026-01-30 09:11:28.91	4.68	35.79	-45.5	-46.1	26.0	0.00e+00	0	45	0	2623537152	60	7896
2026-01-30 09:11:32.93	3.48	35.17	-45.7	-46.4	26.0	0.00e+00	0	45	0	2646605824	60	8223
2026-01-30 09:11:36.95	2.32	34.54	-45.5	-46.1	26.1	0.00e+00	0	45	0	2668625920	60	7870
2026-01-30 09:11:40.98	1.21	33.92	-45.3	-45.9	26.3	0.00e+00	0	45	0	2691694592	60	7720
2026-01-30 09:11:45.01	0.14	33.30	-45.3	-46.1	26.1	0.00e+00	0	45	0	2714763264	60	7897
2026-01-30 09:11:49.04	359.11	32.67	-45.6	-46.2	25.8	0.00e+00	0	45	0	2736783360	60	8033
2026-01-30 09:11:53.07	358.12	32.05	-45.8	-46.5	25.7	0.00e+00	0	45	0	2759852032	60	8313
2026-01-30 09:11:57.09	357.17	31.44	-45.7	-46.5	25.6	0.00e+00	0	45	0	2781872128	60	8269
2026-01-30 09:12:01.12	356.25	30.83	-45.9	-46.5	25.5	0.00e+00	0	45	0	2804940800	60	8286
2026-01-30 09:12:05.15	355.36	30.22	-45.9	-46.6	25.5	0.00e+00	0	45	0	2826960896	60	8359
2026-01-30 09:12:09.19	354.51	29.62	-45.9	-46.7	25.3	0.00e+00	0	45	0	2850029568	60	8464
2026-01-30 09:12:13.22	353.69	29.02	-45.9	-46.7	25.0	0.00e+00	0	45	0	2873098240	60	8490
2026-01-30 09:12:17.24	352.91	28.43	-46.0	-46.8	25.3	0.00e+00	0	45	0	2895118336	60	8556
2026-01-30 09:12:21.26	352.15	27.85	-46.2	-47.0	25.0	0.00e+00	0	45	0	2918187008	60	8741
2026-01-30 09:12:25.28	351.42	27.27	-46.1	-47.0	24.9	0.00e+00	0	45	0	2940207104	60	8741
2026-01-30 09:12:29.30	350.71	26.71	-46.4	-47.0	25.1	0.00e+00	0	45	0	2963275776	60	8788
2026-01-30 09:12:33.34	350.03	26.14	-46.3	-47.1	25.2	0.00e+00	0	45	0	2986344448	60	8886
2026-01-30 09:12:37.36	349.38	25.59	-46.3	-46.9	25.1	0.00e+00	0	45	0	3008364544	60	8713
2026-01-30 09:12:41.38	348.74	25.04	-46.2	-47.0	25.1	0.00e+00	0	45	0	3031433216	60	8731
2026-01-30 09:12:45.41	348.13	24.50	-46.1	-46.7	25.1	0.00e+00	0	45	0	3054501888	60	8515
2026-01-30 09:12:49.44	347.54	23.97	-46.3	-47.0	25.0	0.00e+00	0	45	0	3076521984	60	8768
2026-01-30 09:12:53.46	346.97	23.44	-46.2	-46.9	25.2	0.00e+00	0	45	0	3099590656	60	8628
2026-01-30 09:12:57.49	346.42	22.93	-46.3	-47.1	25.1	0.00e+00	0	45	0	3121610752	60	8826
2026-01-30 09:13:01.50	345.89	22.42	-46.8	-47.6	24.7	0.00e+00	0	45	0	3143630848	60	9349
2026-01-30 09:13:05.53	345.37	21.91	-47.0	-47.8	24.6	0.00e+00	0	45	0	3166699520	60	9593
2026-01-30 09:13:09.56	344.88	21.42	-47.0	-47.8	24.5	0.00e+00	0	45	0	3189768192	60	9590
2026-01-30 09:13:13.58	344.39	20.93	-46.8	-47.5	24.4	0.00e+00	0	45	0	3211788288	60	9333
2026-01-30 09:13:17.61	343.93	20.45	-46.8	-47.7	24.3	0.00e+00	0	45	0	3234856960	60	9506
2026-01-30 09:13:21.63	343.47	19.98	-47.0	-47.8	24.4	0.00e+00	0	45	0	3257925632	60	9620
2026-01-30 09:13:25.64	343.04	19.51	-47.0	-47.6	24.4	0.00e+00	0	45	0	3279945728	60	9448
2026-01-30 09:13:29.67	342.61	19.05	-47.3	-48.0	24.1	0.00e+00	0	45	0	3303014400	60	9793
2026-01-30 09:13:33.68	342.20	18.60	-47.5	-48.2	23.8	0.00e+00	0	45	0	3325034496	60	10084
2026-01-30 09:13:37.70	341.80	18.15	-47.8	-48.5	23.6	0.00e+00	0	45	0	3348103168	60	10453
2026-01-30 09:13:41.71	341.42	17.72	-47.7	-48.4	23.7	0.00e+00	0	45	0	3371171840	60	10259
2026-01-30 09:13:45.73	341.04	17.28	-47.9	-48.8	23.3	0.00e+00	0	45	0	3393191936	60	10770
2026-01-30 09:13:49.75	340.68	16.86	-48.1	-48.9	23.0	0.00e+00	0	45	0	3416260608	60	10944
2026-01-30 09:13:53.78	340.32	16.43	-48.5	-49.4	22.6	0.00e+00	0	45	0	3438280704	60	11539
2026-01-30 09:13:57.82	339.98	16.02	-48.9	-49.9	22.0	0.00e+00	0	45	0	3461349376	60	12226
2026-01-30 09:14:01.84	339.64	15.61	-49.3	-50.2	21.0	0.00e+00	0	45	0	3484418048	60	12726
2026-01-30 09:14:05.86	339.32	15.21	-49.6	-50.8	20.1	0.00e+00	0	45	0	3506438144	60	13544
2026-01-30 09:14:09.88	339.00	14.81	-49.9	-51.4	19.2	0.00e+00	0	45	0	3528458240	60	14639
2026-01-30 09:14:13.91	338.69	14.42	-50.6	-52.2	18.5	0.00e+00	0	45	0	3551526912	60	16007
2026-01-30 09:14:17.94	338.39	14.03	-51.6	-53.0	17.7	0.00e+00	0	45	0	3574595584	60	17562
2026-01-30 09:14:21.95	338.10	13.65	-52.3	-54.1	16.5	0.00e+00	0	45	0	3596615680	60	19877
2026-01-30 09:14:25.97	337.82	13.27	-52.9	-55.0	15.4	0.00e+00	0	45	0	3619684352	60	22012
2026-01-30 09:14:29.99	337.54	12.90	-53.5	-55.9	14.4	0.00e+00	0	45	0	3641704448	60	24486
2026-01-30 09:14:34.02	337.27	12.53	-54.1	-56.8	13.3	2.63e-05	0	45	0	3664773120	60	27253
2026-01-30 09:14:38.04	337.01	12.17	-54.6	-57.9	12.0	3.18e-04	0	45	0	3687841792	60	30715
2026-01-30 09:14:42.05	336.76	11.82	-55.0	-59.0	10.8	2.93e-03	0	45	0	3709861888	60	34922
2026-01-30 09:14:46.07	336.51	11.47	-55.8	-60.1	9.7	1.30e-02	0	45	0	3732930560	60	39659
2026-01-30 09:14:50.09	336.27	11.12	-56.4	-61.3	8.4	4.80e-02	0	45	0	3754950656	60	45472
2026-01-30 09:14:54.10	336.03	10.78	-55.8	-62.4	6.6	2.12e-01	0	45	0	3778019328	60	51940
2026-01-30 09:14:58.12	335.80	10.44	-54.7	-63.5	5.1	6.63e-01	0	45	0	3798990848	60	58715
2026-01-30 09:15:02.13	335.58	10.10	-53.6	-66.1	3.8	8.38e-01	0	45	0	3798990848	60	79130
2026-01-30 09:15:06.15	335.36	9.77	-54.3	-68.2	3.6	8.42e-01	0	45	104	3798990848	60	100315
2026-01-30 09:15:10.17	335.14	9.45	-54.6	-69.8	3.6	8.44e-01	0	45	104	3798990848	60	121064
2026-01-30 09:15:14.20	334.93	9.12	-54.3	-68.7	3.6	8.44e-01	0	45	104	3798990848	60	107062
2026-01-30 09:15:18.23	334.73	8.80	-54.9	-69.5	3.6	8.45e-01	0	45	104	3798990848	60	117574
2026-01-30 09:15:22.25	334.53	8.49	-55.3	-70.4	3.6	8.45e-01	0	45	104	3798990848	60	129347
2026-01-30 09:15:26.28	334.34	8.17	-57.1	-71.2	3.6	8.45e-01	0	45	104	3798990848	60	141994
2026-01-30 09:15:30.30	334.15	7.86	-57.3	-71.3	3.6	8.46e-01	0	45	104	3798990848	60	143614
2026-01-30 09:15:34.32	333.96	7.56	-57.6	-71.4	3.6	8.44e-01	0	45	104	3798990848	60	144779
2026-01-30 09:15:38.36	333.78	7.26	-57.9	-71.5	3.6	8.45e-01	0	45	104	3798990848	60	146520
2026-01-30 09:15:42.38	333.60	6.96	-57.9	-71.2	3.6	8.46e-01	0	45	104	3798990848	60	143003
2026-01-30 09:15:46.41	333.42	6.66	-57.8	-71.2	3.6	8.45e-01	0	45	104	3798990848	60	141516
2026-01-30 09:15:50.43	333.25	6.37	-57.7	-71.0	3.6	8.45e-01	0	45	104	3798990848	60	138623
2026-01-30 09:15:54.46	333.09	6.08	-57.4	-70.9	3.6	8.44e-01	0	45	104	3798990848	60	137112
2026-01-30 09:15:58.49	332.92	5.79	-55.0	-70.2	3.6	8.45e-01	0	45	104	3798990848	60	127043
2026-01-30 09:16:02.51	332.76	5.51	-60.2	-73.5	3.6	8.45e-01	0	45	104	3798990848	60	186301
2026-01-30 09:16:06.54	332.61	5.23	-60.4	-73.7	3.6	8.44e-01	0	45	104	3798990848	60	189113
2026-01-30 09:16:10.56	332.46	4.95	-60.5	-74.1	3.6	8.44e-01	0	45	104	3798990848	60	199492
2026-01-30 09:16:14.59	332.31	4.67	-61.2	-74.4	3.5	8.46e-01	0	45	104	3798990848	60	206705
2026-01-30 09:16:18.62	332.16	4.40	-61.4	-74.7	3.6	8.45e-01	0	45	104	3798990848	60	212016
2026-01-30 09:16:22.64	332.02	4.13	-61.5	-74.9	3.6	8.46e-01	0	45	104	3798990848	60	217338
2026-01-30 09:16:26.66	331.87	3.86	-61.5	-75.0	3.6	8.45e-01	0	45	104	3798990848	60	219447
2026-01-30 09:16:30.70	331.74	3.59	-61.3	-75.2	3.6	8.45e-01	0	45	104	3798990848	60	224808
2026-01-30 09:16:34.73	331.60	3.33	-61.6	-75.2	3.6	8.45e-01	0	45	104	3798990848	60	225855
2026-01-30 09:16:38.76	331.47	3.07	-61.6	-75.3	3.6	8.46e-01	0	45	104	3798990848	60	227546
2026-01-30 09:16:42.79	331.34	2.81	-61.6	-75.2	3.6	8.45e-01	0	45	104	3798990848	60	225446
2026-01-30 09:16:46.83	331.21	2.55	-61.6	-75.3	3.6	8.44e-01	0	45	104	3798990848	60	227416
2026-01-30 09:16:50.85	331.09	2.30	-61.6	-75.2	3.6	8.45e-01	0	45	104	3798990848	60	226401
2026-01-30 09:16:54.88	330.96	2.05	-61.6	-75.2	3.6	8.45e-01	0	45	104	3798990848	60	225068
2026-01-30 09:16:58.91	330.84	1.80	-61.5	-75.1	3.6	8.45e-01	0	45	104	3798990848	60	223836
2026-01-30 09:17:02.94	330.73	1.55	-61.5	-75.1	3.6	8.46e-01	0	45	104	3798990848	60	223250
2026-01-30 09:17:06.96	330.61	1.30	-61.5	-75.1	3.6	8.45e-01	0	45	104	3798990848	60	223231
2026-01-30 09:17:10.98	330.50	1.06	-61.5	-75.2	3.6	8.45e-01	0	45	104	3798990848	60	224730
2026-01-30 09:17:15.01	330.39	0.82	-61.6	-75.2	3.6	8.44e-01	0	45	104	3798990848	60	224633
2026-01-30 09:17:19.04	330.28	0.58	-61.6	-75.2	3.6	8.46e-01	0	45	104	3798990848	60	224558
2026-01-30 09:17:23.07	330.17	0.34	-61.5	-75.1	3.6	8.46e-01	0	45	104	3798990848	60	223508
2026-01-30 09:17:27.09	330.06	0.10	-61.5	-75.1	3.6	8.45e-01	0	45	104	3798990848	60	222551

#Closed at: 2026-01-30 09:17:30
#Recorded file [3798 MB]: D:/Data/35015_260130_121521.dat