passes_logs/2026/01/30/R3.2S-Naryan-Mar/R3.2S-Naryan-Mar__20260130_105844_NOAA_21_JPSS-2_rec.log

#Pass ID: 20260130_105844_NOAA 21 (JPSS-2)
#Satellite: NOAA 21 (JPSS-2)
#Configuration: NOAA-21
#almurnet v.1.7.20240730
#Start time: 2026-01-30 10:58:47

#Version: 2.2.20231116
#Station: R3.2S-Naryan-Mar
#Location: 53.008057 lon 67.646978 lat
#TLE: 1 54234U 22150A   26029.46216196  .00000141  00000+0  87503-4 0  9994
#TLE: 2 54234  98.7512 330.1880 0000955 196.3413 163.7732 14.19540905166865

#Time	Az	El	Level	Level2	SNR	BER	BlckErr	Temp	State	Recorded	gain1	gain2
2026-01-30 10:58:47.28	220.59	0.11	-59.5	-73.8	3.3	1.54e+00	0	45	0	0	60	186205
2026-01-30 10:58:51.29	220.88	0.31	-61.5	-75.9	3.5	1.52e+00	0	45	104	0	60	238522
2026-01-30 10:58:55.32	221.18	0.51	-61.9	-75.9	3.5	1.52e+00	0	45	104	0	60	237742
2026-01-30 10:58:59.35	221.49	0.71	-61.4	-75.4	3.5	1.52e+00	0	45	104	0	60	223030
2026-01-30 10:59:03.38	221.80	0.92	-60.4	-74.6	3.5	1.52e+00	0	45	104	0	60	204098
2026-01-30 10:59:07.41	222.11	1.12	-60.0	-74.1	3.5	1.52e+00	0	45	104	0	60	192399
2026-01-30 10:59:11.44	222.42	1.32	-59.3	-73.3	3.5	1.52e+00	0	45	104	0	60	176559
2026-01-30 10:59:15.47	222.75	1.53	-58.2	-72.3	3.5	1.52e+00	0	45	104	0	60	157490
2026-01-30 10:59:19.50	223.07	1.73	-58.2	-72.4	3.5	1.52e+00	0	45	104	0	60	158669
2026-01-30 10:59:23.53	223.40	1.94	-58.1	-72.3	3.5	1.52e+00	0	45	104	0	60	157587
2026-01-30 10:59:27.55	223.73	2.15	-58.1	-72.2	3.5	1.52e+00	0	45	104	0	60	155625
2026-01-30 10:59:31.58	224.07	2.35	-58.1	-72.3	3.5	1.51e+00	0	45	104	0	60	156407
2026-01-30 10:59:35.61	224.41	2.56	-58.0	-72.1	3.5	1.51e+00	0	45	104	0	60	153909
2026-01-30 10:59:39.64	224.76	2.77	-58.0	-72.2	3.5	1.52e+00	0	45	104	0	60	154980
2026-01-30 10:59:43.67	225.11	2.98	-58.0	-72.2	3.5	1.52e+00	0	45	104	0	60	154116
2026-01-30 10:59:47.71	225.47	3.19	-58.0	-72.2	3.5	1.52e+00	0	45	104	0	60	154802
2026-01-30 10:59:51.73	225.83	3.40	-58.0	-72.1	3.5	1.52e+00	0	45	104	0	60	154066
2026-01-30 10:59:55.75	226.20	3.61	-57.9	-72.1	3.5	1.52e+00	0	45	104	0	60	153975
2026-01-30 10:59:59.78	226.57	3.83	-57.9	-72.1	3.5	1.52e+00	0	45	104	0	60	153646
2026-01-30 11:00:03.81	226.95	4.04	-57.9	-72.1	3.5	1.52e+00	0	45	104	0	60	153258
2026-01-30 11:00:07.84	227.33	4.25	-57.9	-72.1	3.5	1.51e+00	0	45	104	0	60	153993
2026-01-30 11:00:11.87	227.71	4.47	-57.9	-72.1	3.5	1.52e+00	0	45	104	0	60	153047
2026-01-30 11:00:15.89	228.11	4.68	-57.9	-72.0	3.5	1.52e+00	0	45	104	0	60	151257
2026-01-30 11:00:19.91	228.50	4.90	-57.8	-72.0	3.5	1.52e+00	0	45	104	0	60	151038
2026-01-30 11:00:23.93	228.91	5.11	-57.8	-71.9	3.5	1.51e+00	0	45	104	0	60	150463
2026-01-30 11:00:27.95	229.32	5.33	-57.8	-72.0	3.5	1.52e+00	0	45	104	0	60	151042
2026-01-30 11:00:31.97	229.73	5.55	-57.8	-71.3	3.5	1.52e+00	0	45	104	0	60	139972
2026-01-30 11:00:36.00	230.15	5.76	-56.4	-61.8	8.9	4.78e-02	0	45	0	3145728	60	46819
2026-01-30 11:00:40.03	230.58	5.98	-53.4	-56.1	15.2	0.00e+00	0	45	0	15728640	60	24148
2026-01-30 11:00:44.04	231.01	6.20	-51.9	-54.0	16.6	1.31e-04	0	45	104	26214400	60	18974
2026-01-30 11:00:48.06	231.45	6.42	-52.3	-54.3	17.1	0.00e+00	0	45	0	11534336	60	19734
2026-01-30 11:00:52.08	231.90	6.64	-52.3	-54.4	17.2	0.00e+00	0	45	0	24117248	60	19855
2026-01-30 11:00:56.10	232.35	6.86	-52.1	-54.1	17.4	0.00e+00	0	45	0	36700160	60	19306
2026-01-30 11:01:00.13	232.81	7.08	-52.2	-54.1	17.5	0.00e+00	0	45	0	49283072	60	19327
2026-01-30 11:01:04.16	233.28	7.30	-52.3	-54.3	17.5	0.00e+00	0	45	0	61865984	60	19646
2026-01-30 11:01:08.20	233.75	7.52	-52.2	-54.1	17.8	0.00e+00	0	45	0	74448896	60	19225
2026-01-30 11:01:12.23	234.23	7.75	-52.2	-54.1	17.8	0.00e+00	0	45	0	87031808	60	19216
2026-01-30 11:01:16.25	234.72	7.97	-52.2	-54.0	18.1	0.00e+00	0	45	0	99614720	60	19173
2026-01-30 11:01:20.28	235.21	8.19	-52.1	-53.8	18.4	0.00e+00	0	45	0	112197632	60	18729
2026-01-30 11:01:24.31	235.71	8.41	-51.9	-53.7	18.1	0.00e+00	0	45	0	124780544	60	18346
2026-01-30 11:01:28.34	236.22	8.63	-51.9	-53.7	18.3	0.00e+00	0	45	0	137363456	60	18505
2026-01-30 11:01:32.36	236.74	8.86	-51.3	-53.0	18.7	0.00e+00	0	45	0	149946368	60	17042
2026-01-30 11:01:36.39	237.26	9.08	-51.3	-52.9	19.0	0.00e+00	0	45	0	162529280	60	16863
2026-01-30 11:01:40.42	237.80	9.30	-51.4	-53.0	18.9	0.00e+00	0	45	0	175112192	60	17021
2026-01-30 11:01:44.44	238.33	9.52	-51.2	-52.9	18.9	0.00e+00	0	45	0	187695104	60	16888
2026-01-30 11:01:48.47	238.88	9.74	-51.1	-52.8	19.0	0.00e+00	0	45	0	200278016	60	16563
2026-01-30 11:01:52.49	239.44	9.96	-51.0	-52.6	19.3	0.00e+00	0	45	0	212860928	60	16267
2026-01-30 11:01:56.52	240.00	10.19	-51.0	-52.6	19.3	0.00e+00	0	45	0	225443840	60	16140
2026-01-30 11:02:00.54	240.57	10.41	-51.0	-52.6	19.4	0.00e+00	0	45	0	238026752	60	16286
2026-01-30 11:02:04.57	241.15	10.63	-50.9	-52.5	19.5	0.00e+00	0	45	0	250609664	60	15955
2026-01-30 11:02:08.59	241.74	10.85	-50.9	-52.5	19.5	0.00e+00	0	45	0	263192576	60	15969
2026-01-30 11:02:12.60	242.33	11.06	-50.9	-52.5	19.5	0.00e+00	0	45	0	275775488	60	16017
2026-01-30 11:02:16.63	242.94	11.28	-51.0	-52.6	19.4	0.00e+00	0	45	0	288358400	60	16171
2026-01-30 11:02:20.65	243.55	11.50	-50.6	-52.1	19.8	0.00e+00	0	45	0	300941312	60	15327
2026-01-30 11:02:24.68	244.18	11.71	-50.6	-52.0	19.9	0.00e+00	0	45	0	313524224	60	15198
2026-01-30 11:02:28.70	244.81	11.93	-50.4	-51.8	20.0	0.00e+00	0	45	0	326107136	60	14870
2026-01-30 11:02:32.73	245.45	12.14	-50.5	-52.0	19.9	0.00e+00	0	45	0	338690048	60	15166
2026-01-30 11:02:36.76	246.10	12.35	-50.5	-51.9	20.0	0.00e+00	0	45	0	351272960	60	14991
2026-01-30 11:02:40.79	246.76	12.56	-50.3	-51.8	20.3	0.00e+00	0	45	0	363855872	60	14773
2026-01-30 11:02:44.81	247.43	12.77	-50.2	-51.6	20.3	0.00e+00	0	45	0	376438784	60	14519
2026-01-30 11:02:48.83	248.10	12.98	-50.0	-51.4	20.5	0.00e+00	0	45	0	389021696	60	14193
2026-01-30 11:02:52.86	248.79	13.18	-50.0	-51.5	20.4	0.00e+00	0	45	0	401604608	60	14220
2026-01-30 11:02:56.87	249.48	13.38	-50.2	-51.6	20.4	0.00e+00	0	45	0	414187520	60	14398
2026-01-30 11:03:00.89	250.19	13.58	-50.2	-51.7	20.3	0.00e+00	0	45	0	426770432	60	14564
2026-01-30 11:03:04.92	250.90	13.78	-50.3	-51.7	20.3	0.00e+00	0	45	0	439353344	60	14666
2026-01-30 11:03:08.95	251.63	13.98	-50.3	-51.7	20.3	0.00e+00	0	45	0	451936256	60	14616
2026-01-30 11:03:12.98	252.36	14.17	-50.4	-51.8	20.1	0.00e+00	0	46	0	464519168	60	14832
2026-01-30 11:03:17.00	253.10	14.36	-50.6	-52.0	20.0	0.00e+00	0	45	0	477102080	60	15204
2026-01-30 11:03:21.02	253.85	14.55	-50.4	-51.8	20.3	0.00e+00	0	45	0	489684992	60	14865
2026-01-30 11:03:25.04	254.61	14.73	-50.0	-51.4	20.5	0.00e+00	0	45	0	502267904	60	14195
2026-01-30 11:03:29.06	255.38	14.91	-50.0	-51.4	20.4	0.00e+00	0	45	0	514850816	60	14117
2026-01-30 11:03:33.09	256.16	15.09	-50.2	-51.6	20.3	0.00e+00	0	45	0	527433728	60	14523
2026-01-30 11:03:37.11	256.94	15.26	-49.8	-51.2	20.7	0.00e+00	0	45	0	540016640	60	13801
2026-01-30 11:03:41.13	257.74	15.43	-49.8	-51.2	20.6	0.00e+00	0	45	0	552599552	60	13801
2026-01-30 11:03:45.14	258.54	15.60	-50.0	-51.4	20.4	0.00e+00	0	45	0	565182464	60	14106
2026-01-30 11:03:49.17	259.35	15.76	-50.0	-51.4	20.6	0.00e+00	0	45	0	577765376	60	14193
2026-01-30 11:03:53.19	260.17	15.91	-49.8	-51.2	20.7	0.00e+00	0	45	0	590348288	60	13777
2026-01-30 11:03:57.23	261.00	16.07	-49.8	-51.2	20.5	0.00e+00	0	45	0	602931200	60	13877
2026-01-30 11:04:01.25	261.84	16.21	-49.8	-51.2	20.7	0.00e+00	0	45	0	615514112	60	13813
2026-01-30 11:04:05.27	262.68	16.35	-49.4	-50.8	21.1	0.00e+00	0	45	0	628097024	60	13128
2026-01-30 11:04:09.30	263.54	16.49	-49.6	-51.0	20.8	0.00e+00	0	45	0	640679936	60	13526
2026-01-30 11:04:13.32	264.39	16.62	-49.7	-51.1	20.8	0.00e+00	0	45	0	653262848	60	13660
2026-01-30 11:04:17.34	265.26	16.75	-49.5	-50.9	21.1	0.00e+00	0	45	0	665845760	60	13312
2026-01-30 11:04:21.37	266.14	16.87	-49.3	-50.6	21.3	0.00e+00	0	45	0	678428672	60	12931
2026-01-30 11:04:25.39	267.01	16.99	-49.4	-50.7	21.2	0.00e+00	0	45	0	691011584	60	13082
2026-01-30 11:04:29.42	267.90	17.09	-49.4	-50.7	21.2	0.00e+00	0	45	0	703594496	60	13107
2026-01-30 11:04:33.44	268.79	17.20	-49.4	-50.7	21.3	0.00e+00	0	45	0	716177408	60	13008
2026-01-30 11:04:37.47	269.69	17.29	-49.6	-50.9	21.1	0.00e+00	0	45	0	728760320	60	13318
2026-01-30 11:04:41.50	270.60	17.38	-49.5	-50.8	21.4	0.00e+00	0	45	0	741343232	60	13218
2026-01-30 11:04:45.53	271.51	17.47	-49.4	-50.8	21.2	0.00e+00	0	45	0	753926144	60	13158
2026-01-30 11:04:49.56	272.42	17.54	-49.5	-50.9	21.3	0.00e+00	0	45	0	766509056	60	13306
2026-01-30 11:04:53.59	273.34	17.61	-49.6	-51.0	21.0	0.00e+00	0	45	0	779091968	60	13446
2026-01-30 11:04:57.61	274.26	17.68	-49.9	-51.3	20.7	0.00e+00	0	45	0	791674880	60	14005
2026-01-30 11:05:01.64	275.19	17.73	-49.7	-51.1	20.8	0.00e+00	0	45	0	804257792	60	13732
2026-01-30 11:05:05.67	276.12	17.78	-49.9	-51.3	20.6	0.00e+00	0	45	0	816840704	60	13976
2026-01-30 11:05:09.70	277.05	17.82	-49.7	-51.0	20.9	0.00e+00	0	45	0	829423616	60	13551
2026-01-30 11:05:13.72	277.98	17.86	-49.7	-51.1	20.9	0.00e+00	0	45	0	842006528	60	13664
2026-01-30 11:05:17.75	278.92	17.88	-49.7	-51.2	20.9	0.00e+00	0	45	0	854589440	60	13736
2026-01-30 11:05:21.79	279.86	17.90	-49.8	-51.3	20.9	0.00e+00	0	45	0	867172352	60	13932
2026-01-30 11:05:25.80	280.79	17.92	-49.7	-51.1	20.9	0.00e+00	0	45	0	879755264	60	13725
2026-01-30 11:05:29.83	281.73	17.92	-49.6	-51.0	21.0	0.00e+00	0	46	0	892338176	60	13476
2026-01-30 11:05:33.86	282.67	17.92	-49.4	-50.8	20.9	0.00e+00	0	45	0	904921088	60	13262
2026-01-30 11:05:37.90	283.61	17.91	-49.4	-50.9	20.7	0.00e+00	0	45	0	917504000	60	13361
2026-01-30 11:05:41.93	284.55	17.89	-49.5	-51.1	20.5	0.00e+00	0	45	0	930086912	60	13647
2026-01-30 11:05:45.95	285.48	17.87	-49.6	-51.1	20.6	0.00e+00	0	46	0	942669824	60	13615
2026-01-30 11:05:49.98	286.42	17.84	-49.6	-51.0	20.9	0.00e+00	0	45	0	955252736	60	13512
2026-01-30 11:05:54.01	287.35	17.80	-49.8	-51.2	20.8	0.00e+00	0	46	0	967835648	60	13869
2026-01-30 11:05:58.04	288.28	17.75	-49.6	-51.1	20.8	0.00e+00	0	45	0	980418560	60	13623
2026-01-30 11:06:02.06	289.21	17.70	-49.7	-51.2	20.4	0.00e+00	0	45	0	993001472	60	13880
2026-01-30 11:06:06.10	290.13	17.64	-49.6	-51.1	20.8	0.00e+00	0	45	0	1005584384	60	13690
2026-01-30 11:06:10.13	291.05	17.57	-50.1	-51.6	20.7	0.00e+00	0	45	0	1018167296	60	14398
2026-01-30 11:06:14.14	291.96	17.50	-50.0	-51.4	20.9	0.00e+00	0	45	0	1030750208	60	14156
2026-01-30 11:06:18.16	292.87	17.42	-49.7	-51.1	21.0	0.00e+00	0	45	0	1043333120	60	13687
2026-01-30 11:06:22.19	293.77	17.33	-49.6	-51.0	20.8	0.00e+00	0	45	0	1055916032	60	13544
2026-01-30 11:06:26.22	294.67	17.24	-49.7	-51.2	20.4	0.00e+00	0	45	0	1068498944	60	13819
2026-01-30 11:06:30.25	295.57	17.14	-49.7	-51.2	20.5	0.00e+00	0	45	0	1081081856	60	13811
2026-01-30 11:06:34.27	296.46	17.03	-49.8	-51.3	20.7	0.00e+00	0	45	0	1093664768	60	13922
2026-01-30 11:06:38.29	297.34	16.92	-49.9	-51.3	21.0	0.00e+00	0	45	0	1106247680	60	13904
2026-01-30 11:06:42.31	298.21	16.80	-49.9	-51.3	21.1	0.00e+00	0	45	0	1118830592	60	13960
2026-01-30 11:06:46.35	299.08	16.68	-49.9	-51.2	21.1	0.00e+00	0	45	0	1131413504	60	13780
2026-01-30 11:06:50.38	299.94	16.55	-49.8	-51.2	21.1	0.00e+00	0	45	0	1143996416	60	13804
2026-01-30 11:06:54.40	300.79	16.41	-49.7	-51.0	21.3	0.00e+00	0	45	0	1156579328	60	13545
2026-01-30 11:06:58.42	301.64	16.27	-49.9	-51.2	21.1	0.00e+00	0	45	0	1169162240	60	13880
2026-01-30 11:07:02.46	302.48	16.13	-49.9	-51.2	21.2	0.00e+00	0	46	0	1181745152	60	13891
2026-01-30 11:07:06.48	303.31	15.98	-49.9	-51.2	21.3	0.00e+00	0	46	0	1194328064	60	13884
2026-01-30 11:07:10.51	304.13	15.82	-49.7	-51.0	21.2	0.00e+00	0	46	0	1206910976	60	13566
2026-01-30 11:07:14.54	304.94	15.67	-49.7	-51.1	20.7	0.00e+00	0	45	0	1219493888	60	13628
2026-01-30 11:07:18.57	305.75	15.50	-49.6	-51.0	20.5	0.00e+00	0	46	0	1232076800	60	13539
2026-01-30 11:07:22.60	306.55	15.33	-49.5	-50.9	20.6	0.00e+00	0	46	0	1244659712	60	13385
2026-01-30 11:07:26.62	307.33	15.16	-49.8	-51.3	20.6	0.00e+00	0	45	0	1257242624	60	13917
2026-01-30 11:07:30.65	308.11	14.99	-50.1	-51.6	20.5	0.00e+00	0	46	0	1269825536	60	14516
2026-01-30 11:07:34.68	308.88	14.81	-50.2	-51.6	20.7	0.00e+00	0	46	0	1282408448	60	14525
2026-01-30 11:07:38.71	309.64	14.63	-50.3	-51.7	20.6	0.00e+00	0	45	0	1294991360	60	14599
2026-01-30 11:07:42.74	310.40	14.44	-50.5	-52.0	20.1	0.00e+00	0	45	0	1307574272	60	15124
2026-01-30 11:07:46.77	311.14	14.26	-50.4	-51.9	19.8	0.00e+00	0	45	0	1320157184	60	14973
2026-01-30 11:07:50.80	311.87	14.07	-50.5	-52.0	19.9	0.00e+00	0	46	0	1332740096	60	15115
2026-01-30 11:07:54.82	312.60	13.87	-50.5	-51.9	20.2	0.00e+00	0	45	0	1345323008	60	14993
2026-01-30 11:07:58.85	313.31	13.68	-50.6	-52.0	20.3	0.00e+00	0	46	0	1357905920	60	15167
2026-01-30 11:08:02.86	314.02	13.48	-50.6	-52.1	20.1	0.00e+00	0	46	0	1370488832	60	15335
2026-01-30 11:08:06.88	314.71	13.28	-50.3	-51.9	19.8	0.00e+00	0	46	0	1383071744	60	15058
2026-01-30 11:08:10.90	315.40	13.08	-50.6	-52.4	19.3	0.00e+00	0	46	0	1395654656	60	15789
2026-01-30 11:08:14.93	316.08	12.87	-50.9	-52.7	19.1	0.00e+00	0	45	0	1408237568	60	16395
2026-01-30 11:08:18.94	316.74	12.67	-51.4	-53.2	18.6	0.00e+00	0	46	0	1420820480	60	17361
2026-01-30 11:08:22.97	317.40	12.46	-51.7	-53.5	18.2	0.00e+00	0	45	0	1433403392	60	17997
2026-01-30 11:08:26.99	318.05	12.25	-51.8	-53.9	17.4	0.00e+00	0	46	0	1445986304	60	18861
2026-01-30 11:08:31.02	318.70	12.04	-51.8	-54.2	16.6	0.00e+00	0	45	0	1458569216	60	19533
2026-01-30 11:08:35.04	319.33	11.83	-52.3	-54.7	16.1	0.00e+00	0	46	0	1471152128	60	20777
2026-01-30 11:08:39.07	319.95	11.61	-53.0	-55.5	15.6	0.00e+00	0	46	0	1483735040	60	22682
2026-01-30 11:08:43.10	320.57	11.40	-53.5	-56.1	15.1	0.00e+00	0	46	0	1496317952	60	24333
2026-01-30 11:08:47.13	321.18	11.18	-53.7	-56.7	14.0	4.50e-06	0	46	0	1508900864	60	26041
2026-01-30 11:08:51.15	321.78	10.97	-53.8	-57.4	13.1	2.13e-05	0	46	0	1521483776	60	28238
2026-01-30 11:08:55.18	322.37	10.75	-53.9	-58.4	11.6	5.23e-04	0	46	0	1534066688	60	31514
2026-01-30 11:08:59.21	322.95	10.53	-54.2	-59.1	10.6	3.12e-03	0	46	0	1546649600	60	34465
2026-01-30 11:09:03.24	323.52	10.31	-54.7	-59.9	9.9	7.96e-03	0	46	0	1559232512	60	37550
2026-01-30 11:09:07.27	324.09	10.09	-55.1	-60.8	9.0	2.28e-02	0	46	0	1571815424	60	41647
2026-01-30 11:09:11.28	324.64	9.87	-55.0	-61.8	7.8	6.97e-02	0	46	0	1584398336	60	46840
2026-01-30 11:09:15.31	325.19	9.65	-55.4	-62.7	6.9	1.56e-01	0	46	0	1596981248	60	51836
2026-01-30 11:09:19.34	325.73	9.43	-56.9	-66.9	4.6	1.38e+00	0	46	104	1607467008	60	84502
2026-01-30 11:09:23.36	326.27	9.21	-56.7	-66.7	4.6	9.24e-01	0	46	104	1607467008	60	82181
2026-01-30 11:09:27.37	326.79	8.99	-56.7	-68.5	3.8	1.49e+00	0	46	104	1607467008	60	101432
2026-01-30 11:09:31.39	327.31	8.77	-56.8	-68.4	3.8	1.49e+00	0	46	104	1607467008	60	100424
2026-01-30 11:09:35.42	327.82	8.55	-57.1	-70.6	3.5	1.51e+00	0	46	104	1607467008	60	128663
2026-01-30 11:09:39.44	328.32	8.33	-55.8	-69.8	3.5	1.52e+00	0	46	104	1607467008	60	118191
2026-01-30 11:09:43.46	328.82	8.11	-57.3	-71.2	3.5	1.52e+00	0	46	104	1607467008	60	138510
2026-01-30 11:09:47.50	329.31	7.89	-57.3	-71.3	3.5	1.52e+00	0	46	104	1607467008	60	139894
2026-01-30 11:09:51.51	329.79	7.67	-57.3	-71.4	3.5	1.52e+00	0	46	104	1607467008	60	140779
2026-01-30 11:09:55.53	330.26	7.45	-56.8	-71.0	3.5	1.51e+00	0	46	104	1607467008	60	135634
2026-01-30 11:09:59.54	330.73	7.24	-56.5	-70.8	3.5	1.52e+00	0	46	104	1607467008	60	132057
2026-01-30 11:10:03.58	331.19	7.02	-56.0	-70.5	3.5	1.51e+00	0	46	104	1607467008	60	127775
2026-01-30 11:10:07.60	331.65	6.80	-56.7	-70.7	3.6	1.51e+00	0	46	104	1607467008	60	130995
2026-01-30 11:10:11.63	332.10	6.58	-56.0	-70.7	3.5	1.52e+00	0	46	104	1607467008	60	130549
2026-01-30 11:10:15.65	332.54	6.36	-55.9	-70.8	3.5	1.52e+00	0	46	104	1607467008	60	131590
2026-01-30 11:10:19.68	332.97	6.14	-57.0	-71.4	3.5	1.51e+00	0	46	104	1607467008	60	140886
2026-01-30 11:10:23.70	333.40	5.93	-53.9	-69.7	3.7	1.52e+00	0	46	104	1607467008	60	116201
2026-01-30 11:10:27.73	333.83	5.71	-58.6	-73.2	3.5	1.52e+00	0	46	104	1607467008	60	174688
2026-01-30 11:10:31.75	334.24	5.50	-59.2	-73.6	3.5	1.52e+00	0	46	104	1607467008	60	182362
2026-01-30 11:10:35.78	334.66	5.28	-58.3	-72.6	3.6	1.51e+00	0	46	104	1607467008	60	162387
2026-01-30 11:10:39.81	335.06	5.07	-58.6	-73.4	3.6	1.51e+00	0	46	104	1607467008	60	178266
2026-01-30 11:10:43.84	335.47	4.85	-60.5	-74.8	3.5	1.52e+00	0	46	104	1607467008	60	208398
2026-01-30 11:10:47.87	335.86	4.64	-58.8	-74.4	3.5	1.51e+00	0	46	104	1607467008	60	198597
2026-01-30 11:10:51.89	336.25	4.43	-59.9	-75.1	3.5	1.52e+00	0	46	104	1607467008	60	215212
2026-01-30 11:10:55.91	336.63	4.21	-57.2	-74.0	3.6	1.51e+00	0	46	104	1607467008	60	190800
2026-01-30 11:10:59.93	337.01	4.00	-58.7	-74.7	3.6	1.52e+00	0	46	104	1607467008	60	206159
2026-01-30 11:11:03.95	337.39	3.79	-58.7	-74.8	3.6	1.51e+00	0	46	104	1607467008	60	209970
2026-01-30 11:11:07.97	337.75	3.58	-58.7	-74.8	3.6	1.52e+00	0	46	104	1607467008	60	208252
2026-01-30 11:11:12.01	338.12	3.37	-58.7	-74.7	3.5	1.51e+00	0	46	104	1607467008	60	206769
2026-01-30 11:11:16.03	338.48	3.16	-58.6	-74.5	3.6	1.51e+00	0	46	104	1607467008	60	201204
2026-01-30 11:11:20.05	338.83	2.96	-58.7	-74.5	3.6	1.51e+00	0	46	104	1607467008	60	202970
2026-01-30 11:11:24.07	339.18	2.75	-58.5	-74.6	3.6	1.51e+00	0	46	104	1607467008	60	203240
2026-01-30 11:11:28.10	339.53	2.54	-58.6	-74.6	3.6	1.51e+00	0	46	104	1607467008	60	203739
2026-01-30 11:11:32.12	339.87	2.34	-58.6	-74.7	3.5	1.51e+00	0	46	104	1607467008	60	205738
2026-01-30 11:11:36.15	340.21	2.13	-58.6	-74.7	3.6	1.52e+00	0	46	104	1607467008	60	206137
2026-01-30 11:11:40.17	340.54	1.93	-58.7	-74.6	3.6	1.51e+00	0	46	104	1607467008	60	204263
2026-01-30 11:11:44.20	340.87	1.72	-58.6	-74.7	3.6	1.51e+00	0	46	104	1607467008	60	206199
2026-01-30 11:11:48.22	341.19	1.52	-58.8	-74.6	3.6	1.51e+00	0	45	104	1607467008	60	205071
2026-01-30 11:11:52.25	341.51	1.32	-58.8	-74.6	3.5	1.51e+00	0	46	104	1607467008	60	203834
2026-01-30 11:11:56.27	341.82	1.12	-58.8	-74.9	3.5	1.51e+00	0	46	104	1607467008	60	210619
2026-01-30 11:12:00.30	342.14	0.92	-58.6	-74.8	3.5	1.51e+00	0	46	104	1607467008	60	208122
2026-01-30 11:12:04.33	342.44	0.72	-58.7	-74.6	3.6	1.51e+00	0	46	104	1607467008	60	204987
2026-01-30 11:12:08.36	342.75	0.52	-58.7	-74.5	3.6	1.51e+00	0	46	104	1607467008	60	203090
2026-01-30 11:12:12.39	343.05	0.32	-58.8	-74.8	3.5	1.51e+00	0	46	104	1607467008	60	210202
2026-01-30 11:12:16.43	343.35	0.12	-58.8	-74.6	3.5	1.51e+00	0	46	104	1607467008	60	204503

#Closed at: 2026-01-30 11:12:19
#Recorded file [1607 MB]: D:/Data/35015_260130_140920.dat