passes_logs/2026/01/30/R3.2S-Naryan-Mar/R3.2S-Naryan-Mar__20260130_091619_NOAA_21_JPSS-2_rec.log

#Pass ID: 20260130_091619_NOAA 21 (JPSS-2)
#Satellite: NOAA 21 (JPSS-2)
#Configuration: NOAA-21
#almurnet v.1.7.20240730
#Start time: 2026-01-30 09:17:33

#Version: 2.2.20231116
#Station: R3.2S-Naryan-Mar
#Location: 53.008057 lon 67.646978 lat
#TLE: 1 54234U 22150A   26029.46216196  .00000141  00000+0  87503-4 0  9994
#TLE: 2 54234  98.7512 330.1880 0000955 196.3413 163.7732 14.19540905166865

#Time	Az	El	Level	Level2	SNR	BER	BlckErr	Temp	State	Recorded	gain1	gain2
2026-01-30 09:17:33.68	179.04	4.67	-61.5	-74.5	3.4	8.46e-01	0	45	0	0	60	207850
2026-01-30 09:17:37.69	179.19	4.95	-61.5	-75.9	3.5	1.51e+00	0	46	104	0	60	238097
2026-01-30 09:17:41.72	179.34	5.23	-62.0	-75.9	3.5	1.52e+00	0	45	104	0	60	238136
2026-01-30 09:17:45.74	179.50	5.51	-61.5	-75.4	3.4	1.52e+00	0	46	104	0	60	224545
2026-01-30 09:17:49.77	179.66	5.80	-61.7	-75.6	3.5	1.52e+00	0	46	104	0	60	230054
2026-01-30 09:17:53.80	179.83	6.08	-61.5	-75.4	3.5	1.52e+00	0	46	104	0	60	224638
2026-01-30 09:17:57.83	179.99	6.38	-61.0	-75.1	3.5	1.52e+00	0	46	104	0	60	215186
2026-01-30 09:18:01.85	180.16	6.67	-60.7	-74.7	3.5	1.52e+00	0	46	104	0	60	206826
2026-01-30 09:18:05.88	180.33	6.97	-60.3	-74.2	3.5	1.52e+00	0	46	104	0	60	195994
2026-01-30 09:18:09.91	180.51	7.27	-59.1	-72.8	3.5	1.52e+00	0	46	104	0	60	165957
2026-01-30 09:18:13.94	180.69	7.58	-58.9	-72.0	3.5	1.52e+00	0	45	104	0	60	152017
2026-01-30 09:18:17.96	180.87	7.88	-58.4	-67.5	5.2	7.02e-01	0	46	104	0	60	90082
2026-01-30 09:18:21.98	181.06	8.20	-55.4	-58.5	13.7	2.59e-05	0	46	0	11534336	60	31911
2026-01-30 09:18:26.01	181.25	8.51	-52.8	-54.8	17.1	0.00e+00	0	45	0	24117248	60	20951
2026-01-30 09:18:30.04	181.44	8.83	-53.6	-55.9	16.0	0.00e+00	0	46	0	36700160	60	23743
2026-01-30 09:18:34.07	181.64	9.16	-57.9	-65.1	5.0	9.85e-03	0	45	0	49283072	60	68546
2026-01-30 09:18:38.10	181.85	9.48	-50.7	-52.2	19.6	0.00e+00	0	46	0	9437184	60	15446
2026-01-30 09:18:42.14	182.05	9.82	-50.6	-52.1	19.6	0.00e+00	0	45	0	20971520	60	15372
2026-01-30 09:18:46.16	182.26	10.15	-50.4	-51.8	19.8	0.00e+00	0	46	0	33554432	60	14852
2026-01-30 09:18:50.19	182.48	10.49	-50.3	-51.8	20.0	0.00e+00	0	46	0	46137344	60	14729
2026-01-30 09:18:54.22	182.70	10.84	-50.4	-51.8	20.0	0.00e+00	0	46	0	59768832	60	14818
2026-01-30 09:18:58.25	182.93	11.18	-50.2	-51.6	20.3	0.00e+00	0	46	0	71303168	60	14425
2026-01-30 09:19:02.27	183.16	11.54	-50.2	-51.6	20.2	0.00e+00	0	45	0	83886080	60	14480
2026-01-30 09:19:06.29	183.39	11.89	-50.2	-51.6	20.3	0.00e+00	0	46	0	97517568	60	14530
2026-01-30 09:19:10.30	183.63	12.26	-50.2	-51.6	20.4	0.00e+00	0	46	0	109051904	60	14440
2026-01-30 09:19:14.33	183.88	12.62	-50.2	-51.6	20.4	0.00e+00	0	45	0	121634816	60	14465
2026-01-30 09:19:18.36	184.13	13.00	-50.0	-51.4	20.6	0.00e+00	0	46	0	134217728	60	14102
2026-01-30 09:19:22.39	184.39	13.38	-49.9	-51.2	20.8	0.00e+00	0	46	0	146800640	60	13858
2026-01-30 09:19:26.40	184.65	13.76	-50.0	-51.4	20.7	0.00e+00	0	46	0	159383552	60	14113
2026-01-30 09:19:30.42	184.92	14.15	-50.1	-51.4	20.8	0.00e+00	0	46	0	171966464	60	14150
2026-01-30 09:19:34.45	185.20	14.54	-50.3	-51.6	20.6	0.00e+00	0	46	0	184549376	60	14537
2026-01-30 09:19:38.48	185.49	14.95	-50.2	-51.6	20.7	0.00e+00	0	45	0	197132288	60	14396
2026-01-30 09:19:42.52	185.78	15.36	-50.3	-51.6	20.6	0.00e+00	0	45	0	209715200	60	14509
2026-01-30 09:19:46.55	186.08	15.77	-50.2	-51.6	20.7	0.00e+00	0	46	0	222298112	60	14436
2026-01-30 09:19:50.58	186.39	16.19	-50.4	-51.7	20.6	0.00e+00	0	45	0	234881024	60	14698
2026-01-30 09:19:54.61	186.71	16.62	-50.5	-51.8	20.6	0.00e+00	0	46	0	248512512	60	14877
2026-01-30 09:19:58.64	187.04	17.05	-50.5	-51.9	20.6	0.00e+00	0	46	0	260046848	60	14932
2026-01-30 09:20:02.67	187.37	17.49	-50.6	-52.0	20.5	0.00e+00	0	46	0	272629760	60	15084
2026-01-30 09:20:06.70	187.72	17.94	-50.5	-51.9	20.7	0.00e+00	0	45	0	286261248	60	14925
2026-01-30 09:20:10.73	188.07	18.40	-50.6	-52.0	20.7	0.00e+00	0	45	0	297795584	60	15110
2026-01-30 09:20:14.76	188.44	18.86	-50.6	-51.9	20.9	0.00e+00	0	46	0	310378496	60	14999
2026-01-30 09:20:18.79	188.81	19.33	-50.4	-51.7	21.0	0.00e+00	0	45	0	322961408	60	14654
2026-01-30 09:20:22.82	189.20	19.81	-50.3	-51.6	21.2	0.00e+00	0	45	0	336592896	60	14391
2026-01-30 09:20:26.84	189.60	20.29	-50.3	-51.6	21.3	0.00e+00	0	45	0	348127232	60	14387
2026-01-30 09:20:30.86	190.01	20.79	-50.3	-51.6	21.3	0.00e+00	0	45	0	360710144	60	14464
2026-01-30 09:20:34.88	190.43	21.29	-50.3	-51.5	21.5	0.00e+00	0	45	0	373293056	60	14362
2026-01-30 09:20:38.92	190.87	21.80	-50.2	-51.5	21.5	0.00e+00	0	45	0	386924544	60	14252
2026-01-30 09:20:42.95	191.32	22.32	-50.2	-51.5	21.7	0.00e+00	0	45	0	398458880	60	14283
2026-01-30 09:20:46.97	191.79	22.85	-50.2	-51.4	21.8	0.00e+00	0	45	0	411041792	60	14139
2026-01-30 09:20:50.99	192.27	23.39	-50.0	-51.3	21.9	0.00e+00	0	45	0	423624704	60	13911
2026-01-30 09:20:55.00	192.77	23.93	-49.8	-51.0	22.1	0.00e+00	0	45	0	437256192	60	13493
2026-01-30 09:20:59.03	193.28	24.49	-49.9	-51.1	22.2	0.00e+00	0	45	0	448790528	60	13660
2026-01-30 09:21:03.05	193.82	25.05	-50.0	-51.2	22.0	0.00e+00	0	45	0	461373440	60	13822
2026-01-30 09:21:07.08	194.37	25.63	-50.0	-51.2	22.0	0.00e+00	0	46	0	473956352	60	13801
2026-01-30 09:21:11.11	194.94	26.22	-50.1	-51.3	22.0	0.00e+00	0	46	0	487587840	60	14050
2026-01-30 09:21:15.14	195.54	26.81	-50.4	-51.6	21.5	0.00e+00	0	46	0	499122176	60	14534
2026-01-30 09:21:19.16	196.15	27.42	-50.5	-51.8	21.4	0.00e+00	0	45	0	511705088	60	14784
2026-01-30 09:21:23.18	196.79	28.04	-50.8	-52.1	21.2	0.00e+00	0	45	0	524288000	60	15303
2026-01-30 09:21:27.20	197.45	28.66	-51.0	-52.3	21.0	0.00e+00	0	46	0	536870912	60	15678
2026-01-30 09:21:31.22	198.14	29.30	-51.1	-52.5	20.9	0.00e+00	0	45	0	549453824	60	16006
2026-01-30 09:21:35.24	198.85	29.94	-51.3	-52.7	20.7	0.00e+00	0	45	0	562036736	60	16342
2026-01-30 09:21:39.27	199.60	30.60	-51.2	-52.5	20.9	0.00e+00	0	46	0	574619648	60	16066
2026-01-30 09:21:43.29	200.38	31.26	-51.0	-52.3	21.2	0.00e+00	0	46	0	587202560	60	15688
2026-01-30 09:21:47.32	201.18	31.94	-50.7	-52.0	21.5	0.00e+00	0	46	0	599785472	60	15120
2026-01-30 09:21:51.34	202.02	32.62	-50.9	-52.1	21.4	0.00e+00	0	45	0	612368384	60	15381
2026-01-30 09:21:55.37	202.90	33.32	-51.3	-52.6	21.0	0.00e+00	0	45	0	624951296	60	16263
2026-01-30 09:21:59.39	203.81	34.02	-51.5	-52.9	20.8	0.00e+00	0	45	0	637534208	60	16790
2026-01-30 09:22:03.42	204.77	34.73	-51.7	-53.1	20.5	0.00e+00	0	45	0	650117120	60	17235
2026-01-30 09:22:07.45	205.76	35.45	-51.8	-53.2	20.5	0.00e+00	0	46	0	662700032	60	17418
2026-01-30 09:22:11.47	206.80	36.17	-51.9	-53.3	20.2	0.00e+00	0	46	0	675282944	60	17688
2026-01-30 09:22:15.49	207.89	36.90	-51.8	-53.1	20.3	0.00e+00	0	46	0	687865856	60	17259
2026-01-30 09:22:19.52	209.02	37.63	-52.0	-53.5	19.9	0.00e+00	0	46	0	700448768	60	17998
2026-01-30 09:22:23.53	210.20	38.36	-52.1	-53.5	19.9	0.00e+00	0	46	0	713031680	60	18054
2026-01-30 09:22:27.56	211.44	39.10	-52.2	-53.7	19.7	0.00e+00	0	45	0	725614592	60	18474
2026-01-30 09:22:31.58	212.74	39.84	-52.3	-53.8	19.8	0.00e+00	0	45	0	738197504	60	18686
2026-01-30 09:22:35.60	214.09	40.58	-52.5	-54.0	19.4	0.00e+00	0	45	0	750780416	60	19147
2026-01-30 09:22:39.62	215.51	41.31	-52.7	-54.2	19.5	0.00e+00	0	46	0	763363328	60	19559
2026-01-30 09:22:43.66	217.00	42.05	-53.3	-55.0	18.6	0.00e+00	0	46	0	775946240	60	21459
2026-01-30 09:22:47.69	218.55	42.77	-53.7	-55.5	18.1	0.00e+00	0	45	0	788529152	60	22533
2026-01-30 09:22:51.71	220.16	43.48	-53.5	-55.3	18.3	0.00e+00	0	46	0	801112064	60	22127
2026-01-30 09:22:55.74	221.86	44.18	-53.2	-54.9	18.7	0.00e+00	0	46	0	813694976	60	21081
2026-01-30 09:22:59.77	223.63	44.86	-53.1	-54.8	18.6	0.00e+00	0	46	0	826277888	60	20999
2026-01-30 09:23:03.76	225.45	45.52	-52.8	-54.4	18.9	0.00e+00	0	45	0	838860800	60	20056
2026-01-30 09:23:07.78	227.36	46.16	-52.9	-54.5	18.9	0.00e+00	0	46	0	851443712	60	20243
2026-01-30 09:23:11.81	229.36	46.78	-52.6	-54.2	19.0	0.00e+00	0	46	0	864026624	60	19477
2026-01-30 09:23:15.85	231.44	47.36	-52.7	-54.2	19.1	0.00e+00	0	45	0	876609536	60	19592
2026-01-30 09:23:19.88	233.59	47.91	-52.6	-54.2	19.3	0.00e+00	0	45	0	889192448	60	19447
2026-01-30 09:23:23.90	235.80	48.43	-52.0	-53.5	19.4	0.00e+00	0	45	0	901775360	60	17963
2026-01-30 09:23:27.93	238.10	48.90	-51.7	-53.1	19.8	0.00e+00	0	45	0	914358272	60	17170
2026-01-30 09:23:31.96	240.46	49.33	-51.7	-53.1	20.1	0.00e+00	0	45	0	926941184	60	17214
2026-01-30 09:23:35.98	242.88	49.71	-52.3	-53.8	19.5	0.00e+00	0	45	0	939524096	60	18731
2026-01-30 09:23:40.01	245.36	50.03	-52.2	-53.8	19.3	0.00e+00	0	45	0	952107008	60	18603
2026-01-30 09:23:44.03	247.88	50.30	-52.1	-53.5	19.9	0.00e+00	0	45	0	964689920	60	18050
2026-01-30 09:23:48.04	250.44	50.52	-52.3	-53.8	19.8	0.00e+00	0	46	0	977272832	60	18534
2026-01-30 09:23:52.06	253.03	50.67	-51.7	-53.1	20.3	0.00e+00	0	46	0	989855744	60	17279
2026-01-30 09:23:56.08	255.64	50.77	-51.3	-52.7	20.6	0.00e+00	0	45	0	1002438656	60	16410
2026-01-30 09:24:00.10	258.27	50.80	-51.8	-53.3	19.8	0.00e+00	0	46	0	1015021568	60	17612
2026-01-30 09:24:04.12	260.89	50.77	-51.1	-52.4	20.6	0.00e+00	0	45	0	1027604480	60	15941
2026-01-30 09:24:08.14	263.51	50.68	-51.9	-53.5	19.4	0.00e+00	0	45	0	1040187392	60	17911
2026-01-30 09:24:12.16	266.10	50.52	-51.2	-52.6	20.4	0.00e+00	0	45	0	1052770304	60	16309
2026-01-30 09:24:16.19	268.67	50.31	-51.3	-52.7	20.3	0.00e+00	0	45	0	1065353216	60	16428
2026-01-30 09:24:20.21	271.19	50.04	-51.4	-53.0	19.9	0.00e+00	0	45	0	1077936128	60	16908
2026-01-30 09:24:24.23	273.67	49.72	-51.4	-52.9	19.8	0.00e+00	0	45	0	1090519040	60	16796
2026-01-30 09:24:28.25	276.08	49.34	-52.3	-54.0	18.8	0.00e+00	0	45	0	1103101952	60	19080
2026-01-30 09:24:32.28	278.44	48.92	-52.1	-53.7	19.2	0.00e+00	0	45	0	1115684864	60	18500
2026-01-30 09:24:36.30	280.73	48.45	-52.3	-53.9	19.0	0.00e+00	0	45	0	1128267776	60	18924
2026-01-30 09:24:40.32	282.95	47.94	-51.9	-53.4	19.6	0.00e+00	0	45	0	1140850688	60	17871
2026-01-30 09:24:44.35	285.10	47.39	-52.9	-54.7	18.6	0.00e+00	0	45	0	1153433600	60	20630
2026-01-30 09:24:48.38	287.17	46.81	-53.0	-54.8	18.5	0.00e+00	0	46	0	1166016512	60	20827
2026-01-30 09:24:52.41	289.16	46.19	-53.2	-55.0	18.3	0.00e+00	0	46	0	1178599424	60	21429
2026-01-30 09:24:56.42	291.07	45.56	-52.4	-54.2	19.0	0.00e+00	0	45	0	1191182336	60	19480
2026-01-30 09:25:00.45	292.91	44.90	-53.0	-54.9	18.5	0.00e+00	0	46	0	1203765248	60	21045
2026-01-30 09:25:04.48	294.68	44.22	-53.3	-55.1	18.4	0.00e+00	0	45	0	1216348160	60	21680
2026-01-30 09:25:08.51	296.37	43.52	-53.7	-55.7	17.6	0.00e+00	0	45	0	1228931072	60	23212
2026-01-30 09:25:12.53	297.99	42.81	-52.7	-54.3	19.2	0.00e+00	0	45	0	1241513984	60	19771
2026-01-30 09:25:16.55	299.54	42.09	-52.6	-54.2	19.1	0.00e+00	0	45	0	1254096896	60	19527
2026-01-30 09:25:20.58	301.02	41.37	-51.6	-53.1	19.8	0.00e+00	0	46	0	1266679808	60	17194
2026-01-30 09:25:24.61	302.44	40.63	-52.5	-54.2	19.0	0.00e+00	0	46	0	1279262720	60	19429
2026-01-30 09:25:28.64	303.80	39.90	-52.8	-54.4	18.9	0.00e+00	0	46	0	1291845632	60	20067
2026-01-30 09:25:32.67	305.09	39.16	-52.5	-54.0	19.2	0.00e+00	0	45	0	1304428544	60	19125
2026-01-30 09:25:36.69	306.33	38.43	-52.3	-53.9	19.6	0.00e+00	0	46	0	1317011456	60	18798
2026-01-30 09:25:40.71	307.52	37.69	-51.9	-53.4	19.9	0.00e+00	0	46	0	1329594368	60	17700
2026-01-30 09:25:44.74	308.65	36.96	-51.3	-52.8	20.3	0.00e+00	0	46	0	1342177280	60	16558
2026-01-30 09:25:48.77	309.74	36.24	-52.0	-53.5	19.7	0.00e+00	0	45	0	1354760192	60	18049
2026-01-30 09:25:52.80	310.78	35.51	-51.7	-53.2	20.0	0.00e+00	0	45	0	1367343104	60	17377
2026-01-30 09:25:56.82	311.77	34.80	-51.8	-53.3	19.9	0.00e+00	0	45	0	1379926016	60	17557
2026-01-30 09:26:00.84	312.72	34.09	-51.7	-53.1	20.2	0.00e+00	0	46	0	1392508928	60	17229
2026-01-30 09:26:04.87	313.64	33.40	-51.2	-52.6	20.3	0.00e+00	0	46	0	1405091840	60	16308
2026-01-30 09:26:08.88	314.51	32.71	-51.1	-52.6	20.1	0.00e+00	0	46	0	1417674752	60	16186
2026-01-30 09:26:12.90	315.35	32.03	-50.6	-52.0	20.6	0.00e+00	0	45	0	1430257664	60	15167
2026-01-30 09:26:16.93	316.16	31.35	-50.5	-51.8	20.9	0.00e+00	0	46	0	1442840576	60	14860
2026-01-30 09:26:20.95	316.94	30.69	-50.0	-51.3	21.3	0.00e+00	0	45	0	1455423488	60	13957
2026-01-30 09:26:24.97	317.68	30.04	-50.1	-51.4	21.3	0.00e+00	0	45	0	1468006400	60	14109
2026-01-30 09:26:28.99	318.40	29.40	-50.0	-51.3	21.4	0.00e+00	0	45	0	1480589312	60	14024
2026-01-30 09:26:33.01	319.09	28.76	-49.9	-51.1	21.9	0.00e+00	0	46	0	1493172224	60	13656
2026-01-30 09:26:37.03	319.75	28.14	-50.0	-51.3	21.6	0.00e+00	0	46	0	1505755136	60	13962
2026-01-30 09:26:41.05	320.39	27.53	-50.3	-51.6	21.4	0.00e+00	0	46	0	1518338048	60	14385
2026-01-30 09:26:45.08	321.01	26.92	-49.9	-51.1	21.6	0.00e+00	0	45	0	1530920960	60	13720
2026-01-30 09:26:49.11	321.60	26.33	-49.3	-50.5	22.0	0.00e+00	0	45	0	1543503872	60	12755
2026-01-30 09:26:53.13	322.18	25.74	-49.2	-50.4	22.0	0.00e+00	0	45	0	1556086784	60	12627
2026-01-30 09:26:57.14	322.73	25.17	-49.2	-50.5	21.9	0.00e+00	0	46	0	1568669696	60	12694
2026-01-30 09:27:01.18	323.26	24.61	-49.1	-50.4	21.9	0.00e+00	0	46	0	1581252608	60	12529
2026-01-30 09:27:05.19	323.78	24.05	-49.6	-50.9	21.5	0.00e+00	0	46	0	1593835520	60	13301
2026-01-30 09:27:09.22	324.28	23.51	-49.8	-51.1	21.5	0.00e+00	0	45	0	1606418432	60	13644
2026-01-30 09:27:13.25	324.76	22.97	-49.9	-51.2	21.3	0.00e+00	0	45	0	1619001344	60	13781
2026-01-30 09:27:17.27	325.23	22.44	-50.4	-51.8	20.7	0.00e+00	0	45	0	1631584256	60	14742
2026-01-30 09:27:21.30	325.68	21.93	-50.6	-52.0	20.7	0.00e+00	0	46	0	1644167168	60	15188
2026-01-30 09:27:25.33	326.12	21.42	-50.2	-51.6	20.9	0.00e+00	0	46	0	1656750080	60	14400
2026-01-30 09:27:29.36	326.55	20.91	-49.8	-51.1	21.2	0.00e+00	0	46	0	1669332992	60	13648
2026-01-30 09:27:33.38	326.96	20.42	-49.8	-51.1	21.2	0.00e+00	0	45	0	1681915904	60	13616
2026-01-30 09:27:37.41	327.36	19.94	-49.8	-51.1	21.4	0.00e+00	0	46	0	1694498816	60	13584
2026-01-30 09:27:41.43	327.75	19.46	-49.8	-51.1	21.5	0.00e+00	0	46	0	1707081728	60	13606
2026-01-30 09:27:45.46	328.13	18.99	-50.1	-51.4	21.2	0.00e+00	0	45	0	1719664640	60	14110
2026-01-30 09:27:49.49	328.49	18.53	-50.3	-51.6	21.0	0.00e+00	0	46	0	1732247552	60	14535
2026-01-30 09:27:53.50	328.85	18.08	-50.4	-51.7	20.6	0.00e+00	0	45	0	1744830464	60	14681
2026-01-30 09:27:57.52	329.19	17.63	-50.3	-51.8	20.4	0.00e+00	0	46	0	1757413376	60	14754
2026-01-30 09:28:01.54	329.53	17.20	-50.4	-51.8	20.5	0.00e+00	0	45	0	1769996288	60	14815
2026-01-30 09:28:05.55	329.86	16.77	-50.5	-51.9	20.4	0.00e+00	0	46	0	1782579200	60	14988
2026-01-30 09:28:09.57	330.18	16.34	-50.7	-52.2	19.9	0.00e+00	0	45	0	1794113536	60	15584
2026-01-30 09:28:13.60	330.49	15.92	-51.0	-52.6	19.8	0.00e+00	0	46	0	1807745024	60	16153
2026-01-30 09:28:17.62	330.79	15.51	-51.4	-53.0	19.2	0.00e+00	0	46	0	1820327936	60	17051
2026-01-30 09:28:21.63	331.08	15.10	-51.9	-53.7	18.1	0.00e+00	0	45	0	1831862272	60	18359
2026-01-30 09:28:25.66	331.37	14.70	-52.4	-54.5	17.1	0.00e+00	0	46	0	1844445184	60	20280
2026-01-30 09:28:29.69	331.65	14.31	-53.2	-55.4	16.4	0.00e+00	0	46	0	1857028096	60	22422
2026-01-30 09:28:33.71	331.93	13.92	-53.8	-56.3	15.4	0.00e+00	0	46	0	1870659584	60	24949
2026-01-30 09:28:37.73	332.19	13.54	-54.4	-57.3	14.3	1.50e-06	0	46	0	1882193920	60	27889
2026-01-30 09:28:41.76	332.46	13.16	-54.9	-58.2	13.2	1.44e-05	0	46	0	1894776832	60	30803
2026-01-30 09:28:45.79	332.71	12.79	-55.4	-59.1	12.2	1.88e-04	0	46	0	1907359744	60	34469
2026-01-30 09:28:49.82	332.96	12.42	-55.8	-60.1	11.0	1.51e-03	0	45	0	1920991232	60	38566
2026-01-30 09:28:53.83	333.20	12.06	-55.8	-61.1	9.4	1.24e-02	0	46	0	1932525568	60	43031
2026-01-30 09:28:57.86	333.44	11.70	-55.7	-62.2	7.8	7.77e-02	0	46	0	1945108480	60	49264
2026-01-30 09:29:01.90	333.68	11.35	-56.4	-63.4	6.8	1.57e-01	0	46	0	1958739968	60	56067
2026-01-30 09:29:05.91	333.90	11.00	-57.2	-67.6	4.4	1.27e+00	0	46	104	1967128576	60	91125
2026-01-30 09:29:09.94	334.13	10.66	-57.3	-67.0	4.8	7.90e-01	0	46	104	1048576	60	85407
2026-01-30 09:29:13.97	334.34	10.32	-57.6	-70.1	3.5	1.51e+00	0	46	104	1048576	60	122096
2026-01-30 09:29:18.00	334.56	9.98	-57.1	-68.8	4.0	1.46e+00	0	46	104	1048576	60	104847
2026-01-30 09:29:22.02	334.77	9.65	-57.6	-71.5	3.5	1.52e+00	0	46	104	1048576	60	142456
2026-01-30 09:29:26.03	334.97	9.33	-57.3	-70.7	3.5	1.51e+00	0	46	104	1048576	60	130596
2026-01-30 09:29:30.06	335.17	9.01	-58.1	-72.3	3.5	1.52e+00	0	46	104	1048576	60	156853
2026-01-30 09:29:34.08	335.37	8.69	-57.6	-71.7	3.5	1.52e+00	0	46	104	1048576	60	146526
2026-01-30 09:29:38.11	335.56	8.37	-58.4	-72.4	3.5	1.52e+00	0	46	104	1048576	60	157876
2026-01-30 09:29:42.12	335.75	8.06	-58.1	-72.2	3.6	1.52e+00	0	46	104	1048576	60	155317
2026-01-30 09:29:46.15	335.94	7.76	-57.7	-72.0	3.5	1.52e+00	0	46	104	1048576	60	151408
2026-01-30 09:29:50.18	336.12	7.45	-57.5	-71.9	3.5	1.52e+00	0	46	104	1048576	60	149516
2026-01-30 09:29:54.21	336.30	7.15	-57.5	-71.9	3.5	1.51e+00	0	46	104	1048576	60	149193
2026-01-30 09:29:58.24	336.48	6.85	-57.6	-71.8	3.5	1.52e+00	0	46	104	1048576	60	147926
2026-01-30 09:30:02.26	336.65	6.56	-57.6	-71.8	3.5	1.52e+00	0	46	104	1048576	60	147633
2026-01-30 09:30:06.30	336.82	6.27	-57.5	-71.7	3.5	1.52e+00	0	46	104	1048576	60	146138
2026-01-30 09:30:10.33	336.99	5.98	-57.4	-71.5	3.5	1.52e+00	0	46	104	1048576	60	143287
2026-01-30 09:30:14.36	337.15	5.69	-58.5	-72.6	3.5	1.52e+00	0	46	104	1048576	60	161667
2026-01-30 09:30:18.39	337.31	5.41	-60.3	-74.4	3.5	1.52e+00	0	46	104	1048576	60	199341
2026-01-30 09:30:22.42	337.47	5.13	-60.8	-74.8	3.5	1.52e+00	0	46	104	1048576	60	209554
2026-01-30 09:30:26.44	337.63	4.85	-60.8	-74.8	3.5	1.51e+00	0	46	104	1048576	60	208473
2026-01-30 09:30:30.46	337.78	4.58	-60.9	-74.9	3.5	1.52e+00	0	46	104	1048576	60	211701
2026-01-30 09:30:34.48	337.93	4.31	-60.9	-74.9	3.5	1.52e+00	0	46	104	1048576	60	211545
2026-01-30 09:30:38.52	338.08	4.04	-61.2	-75.2	3.5	1.52e+00	0	46	104	1048576	60	217980
2026-01-30 09:30:42.54	338.23	3.78	-61.4	-75.4	3.5	1.52e+00	0	46	104	1048576	60	223140
2026-01-30 09:30:46.56	338.37	3.51	-61.7	-75.8	3.5	1.52e+00	0	46	104	1048576	60	234625
2026-01-30 09:30:50.58	338.51	3.25	-61.6	-75.8	3.5	1.52e+00	0	46	104	1048576	60	233317
2026-01-30 09:30:54.59	338.65	2.99	-61.6	-75.7	3.5	1.51e+00	0	46	104	1048576	60	233181
2026-01-30 09:30:58.62	338.79	2.74	-61.7	-75.8	3.5	1.52e+00	0	46	104	1048576	60	234365
2026-01-30 09:31:02.65	338.92	2.48	-61.6	-75.7	3.5	1.51e+00	0	46	104	1048576	60	232563
2026-01-30 09:31:06.67	339.06	2.23	-61.6	-75.7	3.5	1.52e+00	0	46	104	1048576	60	231238
2026-01-30 09:31:10.70	339.19	1.98	-61.6	-75.7	3.5	1.52e+00	0	46	104	1048576	60	231512
2026-01-30 09:31:14.74	339.32	1.73	-61.6	-75.7	3.5	1.52e+00	0	46	104	1048576	60	231583
2026-01-30 09:31:18.77	339.45	1.48	-61.6	-75.8	3.5	1.52e+00	0	46	104	1048576	60	233898
2026-01-30 09:31:22.79	339.57	1.24	-61.6	-75.7	3.5	1.52e+00	0	46	104	1048576	60	233010
2026-01-30 09:31:26.82	339.70	1.00	-61.6	-75.7	3.6	1.52e+00	0	46	104	1048576	60	232284
2026-01-30 09:31:30.85	339.82	0.76	-61.6	-75.7	3.5	1.52e+00	0	46	104	1048576	60	231092
2026-01-30 09:31:34.88	339.94	0.52	-61.6	-75.7	3.5	1.52e+00	0	46	104	1048576	60	231227
2026-01-30 09:31:38.90	340.06	0.28	-61.6	-75.7	3.5	1.52e+00	0	46	104	1048576	60	231239
2026-01-30 09:31:42.92	340.18	0.05	-61.6	-75.7	3.5	1.52e+00	0	45	104	1048576	60	231623

#Closed at: 2026-01-30 09:31:45
#Recorded file [1 MB]: D:/Data/35015_260130_122909.dat