passes_logs/2026/01/30/R3.2S-Naryan-Mar/R3.2S-Naryan-Mar__20260130_082603_NOAA_20_JPSS-1_rec.log

#Pass ID: 20260130_082603_NOAA 20 (JPSS-1)
#Satellite: NOAA 20 (JPSS-1)
#Configuration: NOAA 20
#almurnet v.1.7.20240730
#Start time: 2026-01-30 08:26:04

#Version: 2.2.20231116
#Station: R3.2S-Naryan-Mar
#Location: 53.008057 lon 67.646978 lat
#TLE: 1 43013U 17073A   26029.42702672  .00000137  00000+0  85918-4 0  9993
#TLE: 2 43013  98.7646 330.2153 0000804  19.9045 340.2162 14.19525092424781

#Time	Az	El	Level	Level2	SNR	BER	BlckErr	Temp	State	Recorded	gain1	gain2
2026-01-30 08:26:04.76	156.30	0.05	-59.1	-77.8	3.5	1.51e+00	0	43	0	0	60	305236
2026-01-30 08:26:08.79	156.33	0.29	-56.2	-76.6	3.6	1.51e+00	0	44	104	0	60	266227
2026-01-30 08:26:12.81	156.35	0.54	-60.7	-78.1	3.6	1.51e+00	0	44	104	0	60	316524
2026-01-30 08:26:16.85	156.38	0.78	-61.7	-78.5	3.6	1.51e+00	0	44	104	0	60	328611
2026-01-30 08:26:20.88	156.41	1.03	-62.5	-78.9	3.6	1.51e+00	0	44	104	0	60	347047
2026-01-30 08:26:24.90	156.43	1.28	-62.3	-78.8	3.6	1.51e+00	0	44	104	0	60	340611
2026-01-30 08:26:28.92	156.46	1.54	-61.9	-78.4	3.6	1.51e+00	0	44	104	0	60	325179
2026-01-30 08:26:32.95	156.49	1.79	-61.4	-77.9	3.6	1.51e+00	0	44	104	0	60	308034
2026-01-30 08:26:36.97	156.52	2.05	-60.7	-77.2	3.6	1.51e+00	0	44	104	0	60	284225
2026-01-30 08:26:40.98	156.54	2.31	-59.0	-76.0	3.6	1.51e+00	0	44	104	0	60	247822
2026-01-30 08:26:45.01	156.57	2.57	-58.6	-75.4	3.6	1.51e+00	0	44	104	0	60	229697
2026-01-30 08:26:49.02	156.60	2.83	-58.4	-75.2	3.6	1.51e+00	0	45	104	0	60	224432
2026-01-30 08:26:53.04	156.63	3.10	-58.3	-74.9	3.6	1.51e+00	0	45	104	0	60	218550
2026-01-30 08:26:57.06	156.66	3.37	-58.3	-74.6	3.6	1.51e+00	0	45	104	0	60	211493
2026-01-30 08:27:01.09	156.69	3.64	-58.2	-74.7	3.6	1.51e+00	0	45	104	0	60	213133
2026-01-30 08:27:05.12	156.72	3.92	-58.2	-74.5	3.6	1.51e+00	0	45	104	0	60	207457
2026-01-30 08:27:09.14	156.75	4.20	-58.2	-74.5	3.6	1.51e+00	0	45	104	0	60	207858
2026-01-30 08:27:13.16	156.78	4.48	-58.1	-72.7	3.6	1.51e+00	0	45	104	0	60	168858
2026-01-30 08:27:17.19	156.81	4.76	-57.5	-65.0	8.2	1.15e-01	0	45	0	5242880	60	69346
2026-01-30 08:27:21.20	156.84	5.05	-56.2	-60.7	13.1	1.02e-04	0	45	0	12582912	60	42406
2026-01-30 08:27:25.23	156.87	5.34	-55.4	-58.9	15.0	0.00e+00	0	45	0	19922944	60	34565
2026-01-30 08:27:29.25	156.90	5.63	-55.7	-59.6	14.3	7.00e-07	0	45	0	27262976	60	37288
2026-01-30 08:27:33.27	156.93	5.93	-56.9	-63.0	10.4	2.16e-03	0	45	0	34603008	60	55362
2026-01-30 08:27:37.29	156.97	6.23	-56.8	-62.4	11.4	7.01e-03	0	45	0	42991616	60	51714
2026-01-30 08:27:41.32	157.00	6.53	-55.2	-58.5	15.4	0.00e+00	0	45	0	50331648	60	32826
2026-01-30 08:27:45.32	157.03	6.84	-55.1	-58.1	15.8	0.00e+00	0	45	0	57671680	60	31378
2026-01-30 08:27:49.33	157.07	7.15	-55.0	-58.0	16.0	0.00e+00	0	45	0	65011712	60	30945
2026-01-30 08:27:53.35	157.10	7.46	-54.9	-57.9	16.1	0.00e+00	0	45	0	72351744	60	30693
2026-01-30 08:27:57.37	157.14	7.78	-55.1	-58.1	16.1	0.00e+00	0	45	0	79691776	60	31419
2026-01-30 08:28:01.39	157.17	8.10	-54.8	-57.6	16.7	0.00e+00	0	45	0	88080384	60	29555
2026-01-30 08:28:05.39	157.21	8.43	-54.7	-57.4	16.9	0.00e+00	0	45	0	95420416	60	29069
2026-01-30 08:28:09.41	157.24	8.76	-54.7	-57.3	17.1	0.00e+00	0	45	0	102760448	60	28679
2026-01-30 08:28:13.43	157.28	9.09	-54.7	-57.3	17.2	0.00e+00	0	45	0	110100480	60	28563
2026-01-30 08:28:17.44	157.32	9.43	-54.5	-57.0	17.5	0.00e+00	0	45	0	117440512	60	27634
2026-01-30 08:28:21.46	157.35	9.78	-54.4	-56.9	17.6	0.00e+00	0	45	0	124780544	60	27323
2026-01-30 08:28:25.49	157.39	10.13	-54.3	-56.8	17.7	0.00e+00	0	45	0	133169152	60	26992
2026-01-30 08:28:29.51	157.43	10.48	-54.3	-56.7	17.7	0.00e+00	0	45	0	140509184	60	26926
2026-01-30 08:28:33.54	157.47	10.84	-54.2	-56.6	18.0	0.00e+00	0	45	0	147849216	60	26426
2026-01-30 08:28:37.56	157.51	11.21	-54.2	-56.4	18.2	0.00e+00	0	45	0	155189248	60	25965
2026-01-30 08:28:41.59	157.55	11.58	-54.0	-56.1	18.5	0.00e+00	0	45	0	162529280	60	25085
2026-01-30 08:28:45.62	157.59	11.96	-54.2	-56.2	18.5	0.00e+00	0	45	0	170917888	60	25398
2026-01-30 08:28:49.65	157.64	12.34	-54.1	-56.1	18.7	0.00e+00	0	45	0	178257920	60	25145
2026-01-30 08:28:53.67	157.68	12.73	-54.2	-56.2	18.7	0.00e+00	0	45	0	185597952	60	25300
2026-01-30 08:28:57.70	157.72	13.12	-54.1	-55.9	19.1	0.00e+00	0	45	0	192937984	60	24499
2026-01-30 08:29:01.74	157.77	13.53	-54.0	-55.9	19.2	0.00e+00	0	45	0	200278016	60	24383
2026-01-30 08:29:05.76	157.81	13.93	-53.8	-55.6	19.4	0.00e+00	0	45	0	208666624	60	23702
2026-01-30 08:29:09.78	157.86	14.35	-53.8	-55.6	19.4	0.00e+00	0	45	0	216006656	60	23602
2026-01-30 08:29:13.81	157.91	14.77	-53.6	-55.4	19.7	0.00e+00	0	45	0	223346688	60	23169
2026-01-30 08:29:17.84	157.96	15.20	-53.6	-55.4	19.7	0.00e+00	0	45	0	230686720	60	23064
2026-01-30 08:29:21.86	158.01	15.64	-53.6	-55.3	19.8	0.00e+00	0	45	0	238026752	60	22805
2026-01-30 08:29:25.89	158.06	16.09	-53.4	-55.1	19.9	0.00e+00	0	45	0	246415360	60	22279
2026-01-30 08:29:29.92	158.11	16.54	-53.3	-54.9	20.3	0.00e+00	0	45	0	253755392	60	21733
2026-01-30 08:29:33.95	158.16	17.00	-53.3	-54.9	20.2	0.00e+00	0	45	0	261095424	60	21813
2026-01-30 08:29:37.97	158.21	17.47	-53.2	-54.7	20.6	0.00e+00	0	45	0	268435456	60	21347
2026-01-30 08:29:42.00	158.27	17.95	-53.2	-54.7	20.6	0.00e+00	0	45	0	275775488	60	21209
2026-01-30 08:29:46.03	158.33	18.45	-53.1	-54.6	20.8	0.00e+00	0	45	0	284164096	60	20930
2026-01-30 08:29:50.06	158.38	18.95	-53.1	-54.6	20.8	0.00e+00	0	45	0	291504128	60	21158
2026-01-30 08:29:54.08	158.44	19.46	-53.1	-54.5	21.0	0.00e+00	0	45	0	298844160	60	20798
2026-01-30 08:29:58.10	158.50	19.98	-53.1	-54.5	21.0	0.00e+00	0	45	0	306184192	60	20805
2026-01-30 08:30:02.13	158.57	20.51	-53.0	-54.4	21.0	0.00e+00	0	45	0	313524224	60	20602
2026-01-30 08:30:06.15	158.63	21.05	-53.1	-54.5	21.0	0.00e+00	0	45	0	321912832	60	20755
2026-01-30 08:30:10.17	158.70	21.61	-53.1	-54.5	21.0	0.00e+00	0	45	0	329252864	60	20764
2026-01-30 08:30:14.20	158.76	22.18	-53.1	-54.5	21.2	0.00e+00	0	45	0	336592896	60	20738
2026-01-30 08:30:18.21	158.83	22.76	-53.4	-54.8	20.9	0.00e+00	0	45	0	343932928	60	21484
2026-01-30 08:30:22.23	158.91	23.35	-53.4	-54.9	20.9	0.00e+00	0	45	0	351272960	60	21735
2026-01-30 08:30:26.24	158.98	23.96	-53.4	-54.8	21.0	0.00e+00	0	45	0	359661568	60	21623
2026-01-30 08:30:30.27	159.06	24.58	-53.6	-55.1	20.7	0.00e+00	0	45	0	367001600	60	22295
2026-01-30 08:30:34.30	159.14	25.22	-53.7	-55.3	20.6	0.00e+00	0	45	0	374341632	60	22710
2026-01-30 08:30:38.32	159.22	25.87	-53.9	-55.5	20.2	0.00e+00	0	45	0	381681664	60	23442
2026-01-30 08:30:42.34	159.30	26.54	-54.2	-55.8	20.0	0.00e+00	0	45	0	389021696	60	24240
2026-01-30 08:30:46.35	159.39	27.22	-54.5	-56.2	19.6	0.00e+00	0	45	0	396361728	60	25293
2026-01-30 08:30:50.35	159.48	27.92	-55.0	-57.0	18.9	0.00e+00	0	45	0	404750336	60	27714
2026-01-30 08:30:54.37	159.57	28.65	-55.2	-57.2	18.7	0.00e+00	0	45	0	412090368	60	28527
2026-01-30 08:30:58.40	159.67	29.39	-55.7	-57.9	18.1	0.00e+00	0	45	0	419430400	60	30652
2026-01-30 08:31:02.42	159.77	30.15	-55.9	-58.3	17.7	0.00e+00	0	45	0	426770432	60	32140
2026-01-30 08:31:06.45	159.88	30.93	-56.3	-58.8	17.3	0.00e+00	0	45	0	434110464	60	33953
2026-01-30 08:31:10.47	159.99	31.74	-55.9	-58.1	17.9	0.00e+00	0	45	0	442499072	60	31560
2026-01-30 08:31:14.50	160.11	32.57	-55.7	-57.8	18.3	0.00e+00	0	45	0	449839104	60	30489
2026-01-30 08:31:18.53	160.23	33.42	-55.3	-57.3	18.9	0.00e+00	0	45	0	457179136	60	28670
2026-01-30 08:31:22.55	160.36	34.29	-54.7	-56.4	19.7	0.00e+00	0	45	0	464519168	60	25997
2026-01-30 08:31:26.58	160.49	35.19	-54.0	-55.5	20.6	0.00e+00	0	45	0	472907776	60	23311
2026-01-30 08:31:30.61	160.63	36.12	-53.6	-54.9	21.2	0.00e+00	0	45	0	480247808	60	21867
2026-01-30 08:31:34.63	160.78	37.07	-53.4	-54.7	21.4	0.00e+00	0	45	0	487587840	60	21388
2026-01-30 08:31:38.65	160.93	38.05	-53.1	-54.4	21.7	0.00e+00	0	45	0	494927872	60	20467
2026-01-30 08:31:42.67	161.10	39.05	-52.8	-54.0	21.9	0.00e+00	0	45	0	502267904	60	19723
2026-01-30 08:31:46.70	161.27	40.10	-53.0	-54.3	21.8	0.00e+00	0	45	0	509607936	60	20338
2026-01-30 08:31:50.72	161.46	41.17	-52.6	-53.8	22.1	0.00e+00	0	45	0	517996544	60	19215
2026-01-30 08:31:54.75	161.65	42.27	-53.5	-54.9	21.2	0.00e+00	0	45	0	525336576	60	21706
2026-01-30 08:31:58.78	161.86	43.41	-54.1	-55.6	20.6	0.00e+00	0	45	0	532676608	60	23696
2026-01-30 08:32:02.81	162.09	44.58	-54.4	-56.0	20.3	0.00e+00	0	45	0	540016640	60	24800
2026-01-30 08:32:06.84	162.33	45.79	-55.4	-57.3	19.0	0.00e+00	0	45	0	547356672	60	28702
2026-01-30 08:32:10.86	162.59	47.03	-55.8	-57.8	18.6	0.00e+00	0	45	0	555745280	60	30580
2026-01-30 08:32:14.88	162.86	48.31	-56.1	-58.3	18.1	0.00e+00	0	45	0	563085312	60	32120
2026-01-30 08:32:18.91	163.17	49.63	-56.5	-58.8	17.6	0.00e+00	0	45	0	570425344	60	34208
2026-01-30 08:32:22.93	163.49	50.99	-54.3	-55.8	20.6	0.00e+00	0	45	0	577765376	60	24277
2026-01-30 08:32:26.94	163.85	52.38	-53.1	-54.3	22.1	0.00e+00	0	45	0	585105408	60	20320
2026-01-30 08:32:30.94	164.24	53.80	-52.8	-54.0	22.4	0.00e+00	0	45	0	593494016	60	19664
2026-01-30 08:32:34.96	164.67	55.28	-53.0	-54.2	22.1	0.00e+00	0	45	0	600834048	60	20118
2026-01-30 08:32:38.98	165.15	56.79	-53.1	-54.3	22.0	0.00e+00	0	45	0	608174080	60	20407
2026-01-30 08:32:43.01	165.68	58.35	-54.7	-56.3	20.3	0.00e+00	0	45	0	615514112	60	25499
2026-01-30 08:32:47.04	166.28	59.95	-52.5	-53.7	22.7	0.00e+00	0	45	0	622854144	60	18933
2026-01-30 08:32:51.07	166.96	61.58	-51.9	-53.0	23.1	0.00e+00	0	45	0	630194176	60	17440
2026-01-30 08:32:55.10	167.73	63.26	-51.8	-52.9	23.2	0.00e+00	0	45	0	638582784	60	17250
2026-01-30 08:32:59.12	168.62	64.96	-53.6	-55.0	21.3	0.00e+00	0	45	0	645922816	60	22083
2026-01-30 08:33:03.14	169.64	66.70	-55.6	-57.7	18.5	0.00e+00	0	45	0	653262848	60	30080
2026-01-30 08:33:07.16	170.86	68.46	-54.0	-55.6	20.5	0.00e+00	0	45	0	660602880	60	23652
2026-01-30 08:33:11.19	172.30	70.26	-53.4	-54.9	21.2	0.00e+00	0	45	0	668991488	60	21702
2026-01-30 08:33:15.22	174.06	72.07	-53.8	-55.3	21.0	0.00e+00	0	45	0	676331520	60	22882
2026-01-30 08:33:19.24	176.24	73.89	-55.3	-57.5	18.7	0.00e+00	0	45	0	683671552	60	29465
2026-01-30 08:33:23.26	178.98	75.71	-54.7	-57.0	19.4	0.00e+00	0	45	0	691011584	60	27645
2026-01-30 08:33:27.29	182.57	77.52	-54.2	-56.8	19.0	0.00e+00	0	45	0	698351616	60	27006
2026-01-30 08:33:31.32	187.38	79.28	-53.3	-55.9	19.8	0.00e+00	0	45	0	706740224	60	24540
2026-01-30 08:33:35.34	194.05	80.96	-53.7	-57.4	17.9	0.00e+00	0	45	0	714080256	60	29162
2026-01-30 08:33:39.36	203.60	82.47	-52.7	-56.0	19.1	0.00e+00	0	45	0	721420288	60	24701
2026-01-30 08:33:43.38	217.38	83.69	-51.2	-53.4	21.2	0.00e+00	0	45	0	728760320	60	18236
2026-01-30 08:33:47.40	236.08	84.40	-52.4	-54.9	20.1	0.00e+00	0	45	0	736100352	60	21747
2026-01-30 08:33:51.42	257.28	84.40	-52.5	-54.6	21.1	0.00e+00	0	45	0	743440384	60	21118
2026-01-30 08:33:55.44	276.02	83.69	-55.0	-57.9	18.2	0.00e+00	0	45	0	751828992	60	30758
2026-01-30 08:33:59.47	289.87	82.48	-55.7	-60.1	15.9	0.00e+00	0	45	0	759169024	60	39734
2026-01-30 08:34:03.49	299.43	80.97	-53.3	-56.9	18.3	0.00e+00	0	45	0	766509056	60	27518
2026-01-30 08:34:07.51	306.11	79.30	-52.8	-55.8	19.3	0.00e+00	0	45	0	773849088	60	24112
2026-01-30 08:34:11.52	310.91	77.54	-55.2	-59.2	16.5	0.00e+00	0	45	0	781189120	60	35536
2026-01-30 08:34:15.54	314.50	75.74	-56.6	-62.1	13.6	3.28e-05	0	45	0	789577728	60	49688
2026-01-30 08:34:19.57	317.26	73.92	-56.2	-60.8	15.1	0.00e+00	0	45	0	796917760	60	42732
2026-01-30 08:34:23.58	319.43	72.11	-55.1	-57.0	19.3	0.00e+00	0	45	0	804257792	60	27894
2026-01-30 08:34:27.60	321.19	70.30	-53.7	-55.4	20.6	0.00e+00	0	45	0	811597824	60	23113
2026-01-30 08:34:31.62	322.64	68.51	-54.6	-56.7	19.4	0.00e+00	0	45	0	818937856	60	26700
2026-01-30 08:34:35.63	323.85	66.76	-55.5	-58.8	17.0	0.00e+00	0	45	0	826277888	60	34092
2026-01-30 08:34:39.66	324.89	65.02	-54.9	-57.5	18.7	0.00e+00	0	45	0	834666496	60	29386
2026-01-30 08:34:43.69	325.78	63.31	-52.7	-54.1	22.2	0.00e+00	0	45	0	842006528	60	19868
2026-01-30 08:34:47.71	326.55	61.65	-52.5	-53.9	22.2	0.00e+00	0	45	0	849346560	60	19305
2026-01-30 08:34:51.73	327.23	60.02	-54.8	-57.1	19.0	0.00e+00	0	45	0	856686592	60	28078
2026-01-30 08:34:55.76	327.83	58.43	-54.8	-57.2	18.9	0.00e+00	0	45	0	864026624	60	28408
2026-01-30 08:34:59.79	328.36	56.87	-55.0	-57.4	19.0	0.00e+00	0	45	0	872415232	60	28998
2026-01-30 08:35:03.82	328.84	55.36	-53.3	-54.9	21.3	0.00e+00	0	45	0	879755264	60	21713
2026-01-30 08:35:07.84	329.28	53.89	-52.7	-54.0	22.1	0.00e+00	0	45	0	887095296	60	19581
2026-01-30 08:35:11.87	329.67	52.45	-53.0	-54.2	22.0	0.00e+00	0	45	0	894435328	60	20193
2026-01-30 08:35:15.88	330.03	51.06	-56.5	-59.2	17.0	0.00e+00	0	45	0	902823936	60	35589
2026-01-30 08:35:19.91	330.36	49.71	-57.0	-60.2	16.0	0.00e+00	0	45	0	910163968	60	40064
2026-01-30 08:35:23.93	330.66	48.39	-58.2	-65.4	10.2	5.07e-04	0	45	0	917504000	60	72703
2026-01-30 08:35:27.94	330.94	47.12	-56.0	-58.8	17.4	0.00e+00	0	45	0	924844032	60	34204
2026-01-30 08:35:31.96	331.20	45.88	-55.7	-57.6	18.9	0.00e+00	0	45	0	932184064	60	29697
2026-01-30 08:35:35.99	331.44	44.68	-55.6	-57.6	18.7	0.00e+00	0	45	0	940572672	60	29797
2026-01-30 08:35:40.02	331.66	43.51	-53.4	-55.3	21.1	0.00e+00	0	45	0	947912704	60	22759
2026-01-30 08:35:44.05	331.88	42.37	-52.5	-53.9	21.8	0.00e+00	0	45	0	955252736	60	19384
2026-01-30 08:35:48.08	332.07	41.27	-55.2	-57.7	18.0	0.00e+00	0	45	0	962592768	60	30031
2026-01-30 08:35:52.10	332.26	40.20	-53.7	-55.3	21.0	0.00e+00	0	45	0	969932800	60	22937
2026-01-30 08:35:56.14	332.43	39.16	-54.3	-55.9	20.4	0.00e+00	0	45	0	977272832	60	24343
2026-01-30 08:36:00.16	332.60	38.16	-55.7	-59.8	15.9	0.00e+00	0	45	0	985661440	60	38311
2026-01-30 08:36:04.19	332.76	37.18	-55.0	-58.9	17.3	0.00e+00	0	45	0	993001472	60	34699
2026-01-30 08:36:08.22	332.91	36.22	-54.4	-56.7	19.7	0.00e+00	0	45	0	1000341504	60	26940
2026-01-30 08:36:12.26	333.05	35.30	-54.0	-56.1	18.9	0.00e+00	0	45	0	1007681536	60	24979
2026-01-30 08:36:16.28	333.18	34.40	-55.6	-59.6	15.8	0.00e+00	0	45	0	1016070144	60	37436
2026-01-30 08:36:20.30	333.31	33.53	-57.2	-62.0	13.0	1.86e-04	0	45	0	1023410176	60	49431
2026-01-30 08:36:24.32	333.43	32.69	-56.4	-58.8	17.6	0.00e+00	0	45	0	1030750208	60	34195
2026-01-30 08:36:28.35	333.55	31.86	-55.6	-58.0	18.2	0.00e+00	0	45	0	1038090240	60	31150
2026-01-30 08:36:32.38	333.66	31.06	-55.7	-58.4	18.0	0.00e+00	0	45	0	1045430272	60	32522
2026-01-30 08:36:36.41	333.77	30.28	-55.8	-58.0	18.2	0.00e+00	0	45	0	1053818880	60	31199
2026-01-30 08:36:40.43	333.87	29.52	-55.7	-57.8	18.0	0.00e+00	0	45	0	1061158912	60	30552
2026-01-30 08:36:44.45	333.97	28.78	-55.7	-57.7	18.5	0.00e+00	0	45	0	1068498944	60	30049
2026-01-30 08:36:48.48	334.07	28.05	-55.1	-56.9	19.2	0.00e+00	0	45	0	1075838976	60	27526
2026-01-30 08:36:52.50	334.16	27.35	-54.3	-56.0	20.0	0.00e+00	0	45	0	1083179008	60	24823
2026-01-30 08:36:56.52	334.25	26.67	-53.9	-55.5	20.5	0.00e+00	0	45	0	1090519040	60	23389
2026-01-30 08:37:00.55	334.34	26.00	-54.0	-55.5	20.5	0.00e+00	0	45	0	1098907648	60	23344
2026-01-30 08:37:04.58	334.42	25.35	-53.9	-55.4	20.8	0.00e+00	0	45	0	1106247680	60	23047
2026-01-30 08:37:08.61	334.50	24.71	-53.5	-55.1	20.9	0.00e+00	0	45	0	1113587712	60	22237
2026-01-30 08:37:12.63	334.58	24.09	-53.2	-54.8	21.1	0.00e+00	0	45	0	1120927744	60	21417
2026-01-30 08:37:16.66	334.66	23.48	-52.8	-54.2	21.2	0.00e+00	0	45	0	1128267776	60	20170
2026-01-30 08:37:20.69	334.73	22.89	-52.5	-53.9	21.6	0.00e+00	0	45	0	1136656384	60	19439
2026-01-30 08:37:24.71	334.80	22.31	-52.6	-53.9	21.6	0.00e+00	0	45	0	1143996416	60	19474
2026-01-30 08:37:28.73	334.87	21.74	-52.7	-54.0	21.7	0.00e+00	0	45	0	1151336448	60	19640
2026-01-30 08:37:32.77	334.94	21.19	-52.9	-54.2	21.5	0.00e+00	0	45	0	1158676480	60	20126
2026-01-30 08:37:36.80	335.00	20.64	-52.8	-54.2	21.2	0.00e+00	0	45	0	1167065088	60	20166
2026-01-30 08:37:40.82	335.07	20.11	-52.7	-54.3	20.8	0.00e+00	0	45	0	1174405120	60	20436
2026-01-30 08:37:44.86	335.13	19.59	-52.5	-54.2	21.1	0.00e+00	0	45	0	1181745152	60	20133
2026-01-30 08:37:48.89	335.19	19.08	-52.6	-54.5	21.1	0.00e+00	0	45	0	1189085184	60	20702
2026-01-30 08:37:52.91	335.25	18.58	-52.7	-54.8	20.9	0.00e+00	0	45	0	1196425216	60	21603
2026-01-30 08:37:56.93	335.31	18.09	-53.2	-55.2	20.2	0.00e+00	0	45	0	1203765248	60	22423
2026-01-30 08:38:00.96	335.37	17.61	-53.6	-55.3	19.7	0.00e+00	0	45	0	1212153856	60	22732
2026-01-30 08:38:04.98	335.42	17.15	-53.8	-55.6	19.2	0.00e+00	0	45	0	1219493888	60	23710
2026-01-30 08:38:09.01	335.48	16.68	-53.9	-55.8	19.0	0.00e+00	0	45	0	1226833920	60	24204
2026-01-30 08:38:13.03	335.53	16.23	-54.0	-56.3	18.4	0.00e+00	0	45	0	1234173952	60	25444
2026-01-30 08:38:17.05	335.59	15.79	-54.1	-56.7	17.8	0.00e+00	0	45	0	1241513984	60	26906
2026-01-30 08:38:21.08	335.64	15.35	-54.3	-57.1	17.7	0.00e+00	0	45	0	1249902592	60	27957
2026-01-30 08:38:25.10	335.69	14.92	-54.7	-57.6	17.0	0.00e+00	0	45	0	1257242624	60	29837
2026-01-30 08:38:29.12	335.74	14.50	-55.4	-58.4	16.0	0.00e+00	0	45	0	1264582656	60	32474
2026-01-30 08:38:33.15	335.79	14.09	-55.7	-59.1	15.0	0.00e+00	0	45	0	1271922688	60	35475
2026-01-30 08:38:37.17	335.83	13.68	-55.3	-60.1	13.5	7.60e-06	0	45	0	1279262720	60	39540
2026-01-30 08:38:41.20	335.88	13.28	-55.2	-61.0	12.1	1.82e-04	0	45	0	1287651328	60	44179
2026-01-30 08:38:45.23	335.93	12.88	-55.7	-62.0	11.2	1.16e-03	0	45	0	1294991360	60	49059
2026-01-30 08:38:49.26	335.97	12.49	-56.3	-63.1	10.0	6.14e-03	0	45	0	1302331392	60	55839
2026-01-30 08:38:53.27	336.02	12.11	-56.2	-64.1	8.6	3.46e-02	0	45	0	1309671424	60	63027
2026-01-30 08:38:57.30	336.06	11.74	-56.0	-65.1	7.3	1.04e-01	0	45	0	1317011456	60	70820
2026-01-30 08:39:01.33	336.11	11.37	-56.3	-66.2	6.4	2.09e-01	0	45	0	1325400064	60	79777
2026-01-30 08:39:05.36	336.15	11.00	-57.3	-67.8	5.1	4.21e-01	0	45	0	1331691520	60	96512
2026-01-30 08:39:09.38	336.19	10.64	-55.9	-68.2	4.4	8.26e-01	0	45	0	1340080128	60	100325
2026-01-30 08:39:13.40	336.23	10.29	-52.6	-70.2	3.6	1.45e+00	0	45	104	1343225856	60	127203
2026-01-30 08:39:17.43	336.27	9.94	-51.2	-70.5	3.6	1.50e+00	0	45	104	1343225856	60	131537
2026-01-30 08:39:21.45	336.31	9.60	-51.5	-71.4	3.6	1.51e+00	0	45	104	1343225856	60	145993
2026-01-30 08:39:25.47	336.35	9.26	-51.9	-72.6	3.6	1.51e+00	0	45	104	1343225856	60	166693
2026-01-30 08:39:29.50	336.39	8.92	-53.0	-73.4	3.6	1.51e+00	0	45	104	1343225856	60	183816
2026-01-30 08:39:33.54	336.43	8.59	-53.1	-72.9	3.6	1.51e+00	0	45	104	1343225856	60	172423
2026-01-30 08:39:37.56	336.47	8.26	-53.1	-72.3	3.6	1.51e+00	0	45	104	1343225856	60	161277
2026-01-30 08:39:41.59	336.51	7.94	-53.0	-73.0	3.6	1.51e+00	0	45	104	1343225856	60	174192
2026-01-30 08:39:45.61	336.55	7.62	-52.7	-72.1	3.6	1.51e+00	0	45	104	1343225856	60	157874
2026-01-30 08:39:49.64	336.58	7.31	-52.5	-72.7	3.6	1.51e+00	0	45	104	1343225856	60	168248
2026-01-30 08:39:53.66	336.62	7.00	-52.7	-72.6	3.6	1.51e+00	0	45	104	1343225856	60	166318
2026-01-30 08:39:57.69	336.66	6.69	-52.3	-72.1	3.6	1.51e+00	0	45	104	1343225856	60	157711
2026-01-30 08:40:01.71	336.69	6.39	-54.5	-73.2	3.6	1.51e+00	0	45	104	1343225856	60	179527
2026-01-30 08:40:05.74	336.73	6.09	-54.1	-72.9	3.6	1.51e+00	0	45	104	1343225856	60	173443
2026-01-30 08:40:09.78	336.76	5.79	-56.2	-74.3	3.6	1.51e+00	0	45	104	1343225856	60	202372
2026-01-30 08:40:13.80	336.80	5.50	-58.9	-76.7	3.6	1.51e+00	0	45	104	1343225856	60	269021
2026-01-30 08:40:17.82	336.83	5.21	-59.9	-77.5	3.6	1.51e+00	0	45	104	1343225856	60	294640
2026-01-30 08:40:21.85	336.87	4.92	-60.7	-77.7	3.6	1.51e+00	0	45	104	1343225856	60	300383
2026-01-30 08:40:25.87	336.90	4.64	-61.3	-77.8	3.6	1.51e+00	0	45	104	1343225856	60	304712
2026-01-30 08:40:29.90	336.94	4.36	-61.4	-77.9	3.6	1.51e+00	0	45	104	1343225856	60	306721
2026-01-30 08:40:33.92	336.97	4.08	-61.4	-77.9	3.6	1.51e+00	0	45	104	1343225856	60	308179
2026-01-30 08:40:37.94	337.00	3.81	-61.4	-78.3	3.5	1.51e+00	0	45	104	1343225856	60	321533
2026-01-30 08:40:41.97	337.03	3.54	-60.2	-77.8	3.6	1.51e+00	0	45	104	1343225856	60	305435
2026-01-30 08:40:46.00	337.07	3.27	-58.0	-77.4	3.5	1.51e+00	0	45	104	1343225856	60	290882
2026-01-30 08:40:50.02	337.10	3.00	-58.8	-77.7	3.6	1.51e+00	0	45	104	1343225856	60	299474
2026-01-30 08:40:54.04	337.13	2.74	-59.1	-77.9	3.6	1.51e+00	0	45	104	1343225856	60	307666
2026-01-30 08:40:58.07	337.16	2.47	-59.5	-77.9	3.6	1.51e+00	0	45	104	1343225856	60	308256
2026-01-30 08:41:02.08	337.20	2.22	-59.5	-78.0	3.6	1.51e+00	0	45	104	1343225856	60	310422
2026-01-30 08:41:06.10	337.23	1.96	-59.6	-78.0	3.6	1.51e+00	0	45	104	1343225856	60	309801
2026-01-30 08:41:10.13	337.26	1.70	-59.5	-77.9	3.6	1.51e+00	0	45	104	1343225856	60	308703
2026-01-30 08:41:14.17	337.29	1.45	-59.5	-77.9	3.6	1.51e+00	0	45	104	1343225856	60	306327
2026-01-30 08:41:18.18	337.32	1.20	-59.5	-77.9	3.6	1.51e+00	0	45	104	1343225856	60	307442
2026-01-30 08:41:22.21	337.35	0.95	-59.6	-77.8	3.6	1.51e+00	0	45	104	1343225856	60	303126
2026-01-30 08:41:26.23	337.38	0.71	-59.5	-77.9	3.6	1.51e+00	0	45	104	1343225856	60	307230
2026-01-30 08:41:30.26	337.41	0.46	-59.5	-78.1	3.6	1.51e+00	0	45	104	1343225856	60	314183
2026-01-30 08:41:34.28	337.44	0.22	-59.5	-77.9	3.6	1.51e+00	0	45	104	1343225856	60	308885
2026-01-30 08:41:38.31	337.47	-0.02	-59.5	-77.9	3.6	1.51e+00	0	45	104	1343225856	60	306789

#Closed at: 2026-01-30 08:41:39
#Recorded file [1343 MB]: D:/Data/35015_260130_113913.dat