passes_logs/2026/01/30/R3.2S-Naryan-Mar/R3.2S-Naryan-Mar__20260130_064623_NOAA_20_JPSS-1_rec.log

#Pass ID: 20260130_064623_NOAA 20 (JPSS-1)
#Satellite: NOAA 20 (JPSS-1)
#Configuration: NOAA 20
#almurnet v.1.7.20240730
#Start time: 2026-01-30 06:46:24

#Version: 2.2.20231116
#Station: R3.2S-Naryan-Mar
#Location: 53.008057 lon 67.646978 lat
#TLE: 1 43013U 17073A   26029.42702672  .00000137  00000+0  85918-4 0  9993
#TLE: 2 43013  98.7646 330.2153 0000804  19.9045 340.2162 14.19525092424781

#Time	Az	El	Level	Level2	SNR	BER	BlckErr	Temp	State	Recorded	gain1	gain2
2026-01-30 06:46:24.76	117.93	0.10	-62.7	-79.2	3.5	1.51e+00	0	43	0	0	60	356326
2026-01-30 06:46:28.79	117.80	0.33	-61.0	-79.1	3.6	1.51e+00	0	44	104	0	60	354671
2026-01-30 06:46:32.82	117.67	0.57	-61.7	-79.2	3.5	1.51e+00	0	44	104	0	60	356198
2026-01-30 06:46:36.85	117.54	0.81	-63.0	-79.4	3.6	1.51e+00	0	44	104	0	60	366407
2026-01-30 06:46:40.87	117.41	1.05	-62.5	-79.2	3.6	1.51e+00	0	44	104	0	60	357453
2026-01-30 06:46:44.90	117.27	1.29	-62.2	-79.1	3.6	1.51e+00	0	44	104	0	60	355114
2026-01-30 06:46:48.93	117.13	1.54	-61.3	-78.5	3.6	1.51e+00	0	45	104	0	60	330147
2026-01-30 06:46:52.96	116.99	1.78	-61.0	-78.3	3.6	1.51e+00	0	45	104	0	60	321479
2026-01-30 06:46:56.98	116.84	2.03	-60.9	-77.6	3.6	1.51e+00	0	45	104	0	60	298107
2026-01-30 06:47:01.01	116.70	2.28	-59.2	-76.3	3.6	1.51e+00	0	45	104	0	60	256096
2026-01-30 06:47:05.04	116.55	2.54	-58.4	-76.2	3.6	1.51e+00	0	45	104	0	60	253220
2026-01-30 06:47:09.07	116.39	2.79	-58.4	-76.2	3.6	1.51e+00	0	45	104	0	60	253362
2026-01-30 06:47:13.10	116.24	3.05	-58.4	-76.2	3.6	1.51e+00	0	45	104	0	60	252971
2026-01-30 06:47:17.13	116.08	3.31	-58.5	-76.1	3.6	1.51e+00	0	45	104	0	60	251089
2026-01-30 06:47:21.16	115.92	3.57	-58.5	-76.2	3.6	1.51e+00	0	45	104	0	60	251670
2026-01-30 06:47:25.18	115.75	3.83	-58.5	-76.2	3.6	1.51e+00	0	45	104	0	60	251947
2026-01-30 06:47:29.21	115.58	4.10	-58.4	-76.1	3.6	1.51e+00	0	45	104	0	60	251093
2026-01-30 06:47:33.24	115.41	4.37	-58.4	-75.8	3.6	1.51e+00	0	45	104	0	60	242269
2026-01-30 06:47:37.27	115.24	4.64	-58.4	-75.2	3.6	1.51e+00	0	45	104	0	60	225044
2026-01-30 06:47:41.30	115.06	4.91	-58.4	-74.5	3.6	1.51e+00	0	45	104	0	60	207518
2026-01-30 06:47:45.32	114.88	5.19	-57.9	-66.7	7.5	2.03e-01	0	45	0	4194304	60	84445
2026-01-30 06:47:49.34	114.69	5.46	-56.5	-61.2	13.7	2.44e-05	0	45	0	5242880	60	45159
2026-01-30 06:47:53.37	114.50	5.74	-55.7	-59.4	15.7	0.00e+00	0	45	0	13631488	60	36355
2026-01-30 06:47:57.40	114.31	6.03	-56.4	-60.9	14.0	1.50e-06	0	45	0	20971520	60	43447
2026-01-30 06:48:01.42	114.11	6.31	-54.6	-58.7	16.4	0.00e+00	0	45	0	28311552	60	33731
2026-01-30 06:48:05.43	113.91	6.60	-55.5	-60.4	14.2	3.80e-06	0	45	0	35651584	60	40995
2026-01-30 06:48:09.46	113.70	6.89	-55.4	-61.2	13.7	5.30e-06	0	45	0	42991616	60	44795
2026-01-30 06:48:13.50	113.49	7.19	-55.5	-61.3	13.7	3.80e-06	0	45	0	51380224	60	45378
2026-01-30 06:48:17.53	113.28	7.49	-56.2	-61.9	12.8	2.67e-05	0	45	0	58720256	60	48735
2026-01-30 06:48:21.55	113.06	7.79	-57.4	-62.9	12.1	3.49e-04	0	45	0	66060288	60	54901
2026-01-30 06:48:25.59	112.83	8.10	-58.4	-64.8	9.3	1.01e-02	0	45	0	73400320	60	67710
2026-01-30 06:48:29.62	112.60	8.40	-59.0	-67.1	7.0	1.54e-01	0	45	0	81788928	60	88287
2026-01-30 06:48:33.64	112.37	8.71	-59.2	-69.6	4.7	5.98e-01	0	45	0	89128960	60	118464
2026-01-30 06:48:37.67	112.13	9.03	-54.6	-57.4	17.4	0.00e+00	0	45	0	96468992	60	28905
2026-01-30 06:48:41.69	111.88	9.35	-54.4	-57.5	17.3	0.00e+00	0	45	0	103809024	60	29333
2026-01-30 06:48:45.71	111.63	9.67	-54.6	-57.7	17.6	0.00e+00	0	45	0	111149056	60	29994
2026-01-30 06:48:49.73	111.38	9.99	-54.9	-58.0	17.6	0.00e+00	0	45	0	118489088	60	31166
2026-01-30 06:48:53.76	111.11	10.32	-54.8	-58.2	17.2	0.00e+00	0	45	0	126877696	60	31890
2026-01-30 06:48:57.78	110.84	10.65	-55.0	-59.1	16.0	0.00e+00	0	45	0	134217728	60	35492
2026-01-30 06:49:01.82	110.57	10.99	-55.6	-60.0	15.0	0.00e+00	0	45	0	141557760	60	39054
2026-01-30 06:49:05.85	110.28	11.33	-53.9	-56.9	18.2	0.00e+00	0	45	0	148897792	60	27532
2026-01-30 06:49:09.87	109.99	11.68	-54.1	-56.7	18.3	0.00e+00	0	45	0	157286400	60	26905
2026-01-30 06:49:13.91	109.70	12.03	-54.6	-57.2	18.3	0.00e+00	0	45	0	164626432	60	28423
2026-01-30 06:49:17.93	109.39	12.38	-54.8	-57.3	18.7	0.00e+00	0	45	0	171966464	60	28595
2026-01-30 06:49:21.95	109.08	12.73	-55.0	-57.7	18.3	0.00e+00	0	45	0	179306496	60	30098
2026-01-30 06:49:25.97	108.76	13.10	-55.3	-58.0	18.1	0.00e+00	0	45	0	186646528	60	31051
2026-01-30 06:49:30.00	108.43	13.46	-56.1	-58.8	17.0	0.00e+00	0	45	0	195035136	60	34022
2026-01-30 06:49:34.04	108.09	13.83	-56.8	-59.8	16.3	0.00e+00	0	45	0	202375168	60	38271
2026-01-30 06:49:38.06	107.75	14.21	-57.4	-61.0	15.1	0.00e+00	0	45	0	209715200	60	43836
2026-01-30 06:49:42.08	107.39	14.59	-57.6	-61.5	14.4	7.00e-07	0	45	0	217055232	60	46597
2026-01-30 06:49:46.11	107.03	14.97	-58.1	-62.7	13.2	2.59e-05	0	45	0	224395264	60	53630
2026-01-30 06:49:50.15	106.65	15.36	-58.8	-64.9	10.4	1.72e-03	0	45	0	231735296	60	68865
2026-01-30 06:49:54.17	106.27	15.76	-59.0	-65.1	10.8	1.13e-02	0	45	0	240123904	60	70268
2026-01-30 06:49:58.20	105.87	16.16	-55.9	-58.2	17.9	0.00e+00	0	45	0	247463936	60	31904
2026-01-30 06:50:02.22	105.47	16.56	-54.2	-55.9	20.1	0.00e+00	0	45	0	254803968	60	24515
2026-01-30 06:50:06.25	105.05	16.97	-54.2	-56.1	19.7	0.00e+00	0	45	0	262144000	60	24990
2026-01-30 06:50:10.28	104.62	17.39	-53.9	-55.8	20.1	0.00e+00	0	45	0	270532608	60	24150
2026-01-30 06:50:14.31	104.17	17.81	-54.2	-56.0	20.0	0.00e+00	0	45	0	277872640	60	24776
2026-01-30 06:50:18.32	103.72	18.24	-54.3	-56.0	20.1	0.00e+00	0	45	0	285212672	60	24611
2026-01-30 06:50:22.34	103.25	18.67	-54.7	-56.4	19.7	0.00e+00	0	45	0	292552704	60	25935
2026-01-30 06:50:26.37	102.77	19.11	-54.7	-56.6	19.5	0.00e+00	0	45	0	299892736	60	26347
2026-01-30 06:50:30.39	102.27	19.55	-55.2	-57.1	19.1	0.00e+00	0	45	0	308281344	60	28128
2026-01-30 06:50:34.42	101.76	20.00	-54.8	-56.7	19.6	0.00e+00	0	45	0	315621376	60	26698
2026-01-30 06:50:38.44	101.23	20.45	-54.7	-56.9	18.9	0.00e+00	0	45	0	322961408	60	27521
2026-01-30 06:50:42.47	100.69	20.91	-54.9	-57.1	19.2	0.00e+00	0	45	0	330301440	60	28043
2026-01-30 06:50:46.50	100.13	21.38	-54.7	-56.4	19.9	0.00e+00	0	45	0	337641472	60	25805
2026-01-30 06:50:50.51	99.55	21.85	-54.7	-56.4	19.9	0.00e+00	0	45	0	344981504	60	25770
2026-01-30 06:50:54.53	98.96	22.32	-55.0	-56.9	19.5	0.00e+00	0	45	0	353370112	60	27330
2026-01-30 06:50:58.56	98.34	22.80	-54.9	-56.9	19.0	0.00e+00	0	45	0	360710144	60	27548
2026-01-30 06:51:02.59	97.71	23.29	-55.0	-56.9	19.4	0.00e+00	0	45	0	368050176	60	27515
2026-01-30 06:51:06.62	97.05	23.79	-55.0	-56.8	19.6	0.00e+00	0	45	0	375390208	60	27046
2026-01-30 06:51:10.65	96.37	24.28	-55.5	-57.4	19.1	0.00e+00	0	45	0	382730240	60	28953
2026-01-30 06:51:14.68	95.67	24.79	-55.0	-56.8	19.6	0.00e+00	0	45	0	391118848	60	27085
2026-01-30 06:51:18.70	94.95	25.29	-55.0	-57.0	19.3	0.00e+00	0	45	0	398458880	60	27660
2026-01-30 06:51:22.72	94.21	25.81	-55.2	-57.6	18.5	0.00e+00	0	45	0	405798912	60	29725
2026-01-30 06:51:26.76	93.43	26.32	-55.8	-58.3	18.0	0.00e+00	0	45	0	413138944	60	32089
2026-01-30 06:51:30.79	92.63	26.85	-56.2	-59.3	17.1	0.00e+00	0	45	0	421527552	60	36041
2026-01-30 06:51:34.81	91.81	27.37	-57.2	-60.2	16.1	0.00e+00	0	45	0	428867584	60	40155
2026-01-30 06:51:38.84	90.96	27.90	-58.2	-61.7	14.8	0.00e+00	0	45	0	436207616	60	47804
2026-01-30 06:51:42.86	90.08	28.43	-57.8	-61.2	15.3	1.50e-06	0	45	0	443547648	60	45184
2026-01-30 06:51:46.89	89.17	28.96	-56.9	-59.5	17.2	0.00e+00	0	45	0	450887680	60	36914
2026-01-30 06:51:50.91	88.23	29.49	-56.8	-59.5	17.2	0.00e+00	0	45	0	458227712	60	36820
2026-01-30 06:51:54.94	87.25	30.03	-56.7	-59.1	17.4	0.00e+00	0	45	0	466616320	60	35268
2026-01-30 06:51:58.96	86.25	30.56	-57.0	-59.7	17.0	0.00e+00	0	45	0	473956352	60	37738
2026-01-30 06:52:02.99	85.20	31.10	-57.7	-60.7	16.4	0.00e+00	0	45	0	481296384	60	42276
2026-01-30 06:52:07.02	84.13	31.63	-57.2	-59.8	17.1	0.00e+00	0	45	0	488636416	60	38321
2026-01-30 06:52:11.05	83.01	32.17	-57.0	-59.2	17.7	0.00e+00	0	45	0	495976448	60	35826
2026-01-30 06:52:15.08	81.86	32.70	-56.8	-59.1	17.9	0.00e+00	0	45	0	504365056	60	35203
2026-01-30 06:52:19.11	80.67	33.22	-56.7	-58.9	17.9	0.00e+00	0	45	0	511705088	60	34629
2026-01-30 06:52:23.14	79.44	33.74	-57.1	-59.6	17.5	0.00e+00	0	45	0	519045120	60	37283
2026-01-30 06:52:27.16	78.18	34.25	-57.2	-59.7	17.4	0.00e+00	0	45	0	526385152	60	37724
2026-01-30 06:52:31.18	76.88	34.75	-57.3	-59.8	17.2	0.00e+00	0	45	0	534773760	60	38316
2026-01-30 06:52:35.22	75.52	35.25	-58.3	-61.4	15.7	0.00e+00	0	45	0	542113792	60	45838
2026-01-30 06:52:39.24	74.14	35.73	-59.0	-62.6	14.6	0.00e+00	0	45	0	549453824	60	52844
2026-01-30 06:52:43.27	72.70	36.20	-58.3	-61.1	15.9	0.00e+00	0	45	0	556793856	60	44687
2026-01-30 06:52:47.29	71.24	36.65	-58.7	-62.0	15.3	0.00e+00	0	45	0	564133888	60	49120
2026-01-30 06:52:51.31	69.72	37.09	-59.4	-63.4	13.4	4.50e-06	0	45	0	571473920	60	58203
2026-01-30 06:52:55.34	68.17	37.51	-60.0	-64.8	12.4	1.07e-04	0	46	0	579862528	60	68008
2026-01-30 06:52:59.37	66.58	37.91	-60.2	-65.1	12.1	3.49e-04	0	45	0	587202560	60	70692
2026-01-30 06:53:03.39	64.95	38.29	-60.8	-66.4	10.6	3.69e-03	0	45	0	594542592	60	82285
2026-01-30 06:53:07.40	63.28	38.65	-60.4	-65.2	12.6	1.32e-03	0	45	0	601882624	60	71141
2026-01-30 06:53:11.42	61.58	38.98	-57.2	-59.3	18.4	0.00e+00	0	45	0	609222656	60	36119
2026-01-30 06:53:15.45	59.84	39.28	-56.7	-58.6	19.3	0.00e+00	0	45	0	617611264	60	33403
2026-01-30 06:53:19.47	58.08	39.56	-57.5	-59.7	17.7	0.00e+00	0	45	0	624951296	60	37798
2026-01-30 06:53:23.49	56.28	39.81	-58.1	-60.9	16.7	0.00e+00	0	45	0	632291328	60	43300
2026-01-30 06:53:27.52	54.45	40.03	-58.6	-61.5	16.3	0.00e+00	0	45	0	639631360	60	46819
2026-01-30 06:53:31.55	52.60	40.21	-59.5	-63.2	14.5	0.00e+00	0	45	0	646971392	60	56809
2026-01-30 06:53:35.57	50.74	40.36	-60.0	-64.1	13.9	1.44e-05	0	45	0	655360000	60	62802
2026-01-30 06:53:39.59	48.86	40.48	-57.6	-59.9	17.8	0.00e+00	0	46	0	662700032	60	38556
2026-01-30 06:53:43.61	46.97	40.56	-57.2	-59.6	18.0	0.00e+00	0	45	0	670040064	60	37243
2026-01-30 06:53:47.64	45.07	40.60	-58.9	-62.1	15.7	0.00e+00	0	45	0	677380096	60	49716
2026-01-30 06:53:51.65	43.17	40.61	-59.5	-63.2	14.0	1.50e-06	0	45	0	684720128	60	56949
2026-01-30 06:53:55.66	41.28	40.59	-60.5	-65.3	12.1	9.38e-05	0	45	0	692060160	60	71951
2026-01-30 06:53:59.69	39.38	40.53	-60.7	-66.0	11.2	9.20e-03	0	45	0	700448768	60	78069
2026-01-30 06:54:03.71	37.49	40.43	-59.4	-62.9	14.7	0.00e+00	0	45	0	707788800	60	54500
2026-01-30 06:54:07.73	35.62	40.30	-59.9	-64.7	12.5	7.55e-05	0	45	0	715128832	60	67424
2026-01-30 06:54:11.76	33.76	40.13	-59.7	-65.7	10.8	9.67e-04	0	45	0	722468864	60	75933
2026-01-30 06:54:15.78	31.93	39.94	-60.1	-65.7	11.1	1.49e-03	0	45	0	730857472	60	75651
2026-01-30 06:54:19.80	30.12	39.71	-59.6	-64.5	13.0	3.58e-05	0	45	0	738197504	60	65506
2026-01-30 06:54:23.81	28.34	39.45	-57.1	-59.4	17.9	0.00e+00	0	45	0	745537536	60	36749
2026-01-30 06:54:27.84	26.58	39.16	-54.8	-56.3	20.9	0.00e+00	0	45	0	752877568	60	25522
2026-01-30 06:54:31.87	24.86	38.84	-54.3	-55.6	21.6	0.00e+00	0	45	0	760217600	60	23534
2026-01-30 06:54:35.89	23.18	38.50	-54.2	-55.5	21.6	0.00e+00	0	45	0	768606208	60	23437
2026-01-30 06:54:39.92	21.52	38.13	-54.2	-55.5	21.6	0.00e+00	0	45	0	775946240	60	23365
2026-01-30 06:54:43.93	19.92	37.75	-54.5	-55.8	21.2	0.00e+00	0	45	0	783286272	60	24137
2026-01-30 06:54:47.96	18.34	37.34	-55.0	-56.7	20.4	0.00e+00	0	45	0	790626304	60	26709
2026-01-30 06:54:51.97	16.82	36.91	-55.0	-56.7	20.1	0.00e+00	0	45	0	797966336	60	26845
2026-01-30 06:54:56.00	15.32	36.46	-54.8	-56.4	20.8	0.00e+00	0	45	0	805306368	60	25950
2026-01-30 06:55:00.03	13.87	36.00	-54.9	-56.5	20.9	0.00e+00	0	45	0	813694976	60	26095
2026-01-30 06:55:04.05	12.46	35.53	-55.2	-56.7	20.6	0.00e+00	0	45	0	821035008	60	26788
2026-01-30 06:55:08.08	11.10	35.04	-55.3	-56.9	20.5	0.00e+00	0	45	0	828375040	60	27470
2026-01-30 06:55:12.11	9.77	34.55	-56.3	-58.1	19.1	0.00e+00	0	45	0	835715072	60	31408
2026-01-30 06:55:16.14	8.48	34.04	-56.6	-58.6	18.8	0.00e+00	0	45	0	843055104	60	33340
2026-01-30 06:55:20.16	7.23	33.53	-56.9	-59.1	18.2	0.00e+00	0	45	0	851443712	60	35481
2026-01-30 06:55:24.19	6.03	33.01	-57.0	-59.3	17.9	0.00e+00	0	45	0	858783744	60	36077
2026-01-30 06:55:28.21	4.86	32.49	-57.0	-59.3	18.0	0.00e+00	0	45	0	866123776	60	36172
2026-01-30 06:55:32.24	3.73	31.96	-57.2	-59.8	17.5	0.00e+00	0	45	0	873463808	60	38431
2026-01-30 06:55:36.26	2.63	31.43	-56.3	-59.3	17.6	0.00e+00	0	46	0	880803840	60	36000
2026-01-30 06:55:40.29	1.57	30.89	-56.7	-59.6	17.4	0.00e+00	0	45	0	889192448	60	37609
2026-01-30 06:55:44.31	0.55	30.36	-57.1	-59.7	17.5	0.00e+00	0	45	0	896532480	60	37639
2026-01-30 06:55:48.33	359.56	29.83	-57.1	-59.5	17.8	0.00e+00	0	45	0	903872512	60	36880
2026-01-30 06:55:52.34	358.61	29.30	-56.5	-58.5	18.8	0.00e+00	0	45	0	911212544	60	32804
2026-01-30 06:55:56.38	357.68	28.76	-56.3	-58.1	19.2	0.00e+00	0	45	0	918552576	60	31422
2026-01-30 06:56:00.41	356.78	28.23	-56.2	-58.0	19.2	0.00e+00	0	45	0	926941184	60	31291
2026-01-30 06:56:04.44	355.92	27.70	-55.8	-57.6	19.5	0.00e+00	0	46	0	934281216	60	29856
2026-01-30 06:56:08.46	355.08	27.18	-55.7	-57.4	19.6	0.00e+00	0	45	0	941621248	60	29156
2026-01-30 06:56:12.49	354.27	26.66	-55.9	-57.6	19.5	0.00e+00	0	45	0	948961280	60	29811
2026-01-30 06:56:16.52	353.49	26.14	-56.6	-58.6	18.6	0.00e+00	0	45	0	956301312	60	33198
2026-01-30 06:56:20.55	352.73	25.63	-57.2	-59.6	17.4	0.00e+00	0	45	0	964689920	60	37361
2026-01-30 06:56:24.56	352.00	25.12	-56.8	-59.0	18.0	0.00e+00	0	45	0	972029952	60	34856
2026-01-30 06:56:28.60	351.28	24.61	-55.4	-57.1	19.7	0.00e+00	0	45	0	979369984	60	28155
2026-01-30 06:56:32.63	350.60	24.11	-56.0	-57.9	19.2	0.00e+00	0	45	0	986710016	60	30646
2026-01-30 06:56:36.66	349.93	23.62	-56.6	-58.6	18.5	0.00e+00	0	45	0	994050048	60	33461
2026-01-30 06:56:40.69	349.29	23.13	-57.0	-59.3	17.7	0.00e+00	0	45	0	1002438656	60	36013
2026-01-30 06:56:44.73	348.66	22.65	-57.4	-60.0	16.9	0.00e+00	0	45	0	1009778688	60	39216
2026-01-30 06:56:48.75	348.06	22.17	-58.3	-61.6	15.3	0.00e+00	0	45	0	1017118720	60	46965
2026-01-30 06:56:52.77	347.47	21.70	-57.6	-60.3	16.4	0.00e+00	0	45	0	1024458752	60	40750
2026-01-30 06:56:56.79	346.90	21.23	-56.9	-59.9	16.7	0.00e+00	0	45	0	1031798784	60	38596
2026-01-30 06:57:00.83	346.35	20.77	-57.5	-60.8	15.8	0.00e+00	0	45	0	1040187392	60	43042
2026-01-30 06:57:04.86	345.81	20.31	-58.1	-61.7	15.1	0.00e+00	0	45	0	1047527424	60	47629
2026-01-30 06:57:08.89	345.30	19.86	-58.5	-62.3	14.2	0.00e+00	0	45	0	1054867456	60	51339
2026-01-30 06:57:12.91	344.79	19.41	-59.3	-64.0	12.4	1.23e-04	0	45	0	1062207488	60	61983
2026-01-30 06:57:16.94	344.30	18.97	-58.4	-61.9	14.7	7.00e-07	0	45	0	1069547520	60	48724
2026-01-30 06:57:20.97	343.83	18.54	-58.7	-62.5	14.0	7.00e-07	0	45	0	1077936128	60	52267
2026-01-30 06:57:24.99	343.37	18.11	-59.3	-64.0	12.7	3.20e-05	0	45	0	1085276160	60	62173
2026-01-30 06:57:29.00	342.92	17.69	-59.8	-66.0	10.0	4.70e-03	0	45	0	1092616192	60	78413
2026-01-30 06:57:33.00	342.49	17.28	-60.4	-68.0	7.8	6.31e-02	0	45	0	1099956224	60	98309
2026-01-30 06:57:37.01	342.07	16.87	-60.2	-68.8	6.4	2.65e-01	0	45	0	1107296256	60	107311
2026-01-30 06:57:41.02	341.66	16.46	-57.8	-61.5	14.5	3.00e-06	0	45	0	1114636288	60	46768
2026-01-30 06:57:45.03	341.26	16.06	-56.2	-58.7	17.1	0.00e+00	0	45	0	1123024896	60	33903
2026-01-30 06:57:49.04	340.88	15.66	-56.2	-58.9	16.9	0.00e+00	0	45	0	1130364928	60	34414
2026-01-30 06:57:53.06	340.50	15.27	-56.3	-59.2	16.4	0.00e+00	0	45	0	1137704960	60	35610
2026-01-30 06:57:57.07	340.13	14.89	-56.6	-59.8	15.6	0.00e+00	0	45	0	1145044992	60	38347
2026-01-30 06:58:01.08	339.77	14.51	-56.7	-60.3	14.8	0.00e+00	0	45	0	1152385024	60	40773
2026-01-30 06:58:05.09	339.43	14.13	-57.1	-61.1	14.1	7.00e-07	0	45	0	1160773632	60	44337
2026-01-30 06:58:09.10	339.09	13.76	-57.4	-61.7	13.1	1.67e-05	0	45	0	1168113664	60	47880
2026-01-30 06:58:13.11	338.76	13.39	-58.1	-63.6	11.0	2.20e-04	0	45	0	1175453696	60	58980
2026-01-30 06:58:17.13	338.43	13.03	-58.1	-64.5	9.6	1.78e-02	0	45	0	1182793728	60	65619
2026-01-30 06:58:21.15	338.12	12.67	-58.2	-64.8	9.2	1.94e-02	0	45	0	1190133760	60	68097
2026-01-30 06:58:25.16	337.81	12.32	-58.4	-65.8	7.8	5.93e-02	0	46	0	1197473792	60	76240
2026-01-30 06:58:29.16	337.52	11.97	-58.6	-66.7	6.9	1.54e-01	0	45	0	1205862400	60	84291
2026-01-30 06:58:33.17	337.22	11.63	-58.8	-68.8	4.8	3.06e-01	0	45	0	1213202432	60	108084
2026-01-30 06:58:37.20	336.94	11.28	-57.8	-69.1	4.4	8.24e-01	0	45	0	1220542464	60	112136
2026-01-30 06:58:41.23	336.66	10.95	-57.0	-70.0	3.9	1.31e+00	0	46	0	1227882496	60	123245
2026-01-30 06:58:45.26	336.39	10.61	-58.8	-70.0	4.1	1.14e+00	0	45	0	1048576	60	123324
2026-01-30 06:58:49.27	336.13	10.28	-58.4	-72.1	3.9	1.48e+00	0	46	104	2097152	60	157595
2026-01-30 06:58:53.29	335.87	9.96	-57.4	-73.0	3.6	1.50e+00	0	45	104	2097152	60	174801
2026-01-30 06:58:57.31	335.61	9.63	-57.9	-74.9	3.6	1.51e+00	0	46	104	2097152	60	217290
2026-01-30 06:59:01.34	335.37	9.31	-57.6	-74.6	3.5	1.51e+00	0	45	104	2097152	60	210874
2026-01-30 06:59:05.35	335.13	9.00	-57.8	-74.8	3.6	1.51e+00	0	46	104	2097152	60	215384
2026-01-30 06:59:09.37	334.89	8.69	-58.3	-75.3	3.6	1.51e+00	0	46	104	2097152	60	227055
2026-01-30 06:59:13.38	334.66	8.38	-59.1	-75.6	3.6	1.51e+00	0	46	104	2097152	60	235866
2026-01-30 06:59:17.41	334.44	8.07	-59.2	-75.6	3.6	1.51e+00	0	46	104	2097152	60	235284
2026-01-30 06:59:21.44	334.21	7.77	-59.2	-75.5	3.6	1.51e+00	0	46	104	2097152	60	234169
2026-01-30 06:59:25.44	334.00	7.47	-59.0	-75.4	3.6	1.51e+00	0	46	104	2097152	60	231828
2026-01-30 06:59:29.45	333.79	7.18	-58.9	-75.2	3.6	1.51e+00	0	46	104	2097152	60	226502
2026-01-30 06:59:33.45	333.59	6.89	-58.9	-75.2	3.6	1.51e+00	0	46	104	2097152	60	225607
2026-01-30 06:59:37.45	333.38	6.60	-58.6	-75.0	3.6	1.51e+00	0	46	104	2097152	60	220521
2026-01-30 06:59:41.46	333.19	6.31	-58.3	-74.8	3.6	1.51e+00	0	46	104	2097152	60	216355
2026-01-30 06:59:45.46	332.99	6.03	-58.3	-74.8	3.6	1.51e+00	0	46	104	2097152	60	215495
2026-01-30 06:59:49.46	332.81	5.75	-59.5	-75.9	3.6	1.51e+00	0	46	104	2097152	60	244134
2026-01-30 06:59:53.45	332.62	5.47	-61.2	-77.7	3.6	1.51e+00	0	46	104	2097152	60	299525
2026-01-30 06:59:57.45	332.44	5.19	-61.7	-78.1	3.6	1.51e+00	0	46	104	2097152	60	316082
2026-01-30 07:00:01.46	332.26	4.92	-62.1	-78.5	3.6	1.51e+00	0	46	104	2097152	60	331327
2026-01-30 07:00:05.48	332.09	4.65	-62.4	-78.7	3.6	1.51e+00	0	46	104	2097152	60	338597
2026-01-30 07:00:09.51	331.92	4.38	-62.3	-78.8	3.6	1.51e+00	0	46	104	2097152	60	340443
2026-01-30 07:00:13.53	331.75	4.11	-63.0	-79.5	3.6	1.51e+00	0	46	104	2097152	60	369216
2026-01-30 07:00:17.52	331.59	3.85	-63.5	-80.0	3.6	1.51e+00	0	46	104	2097152	60	389968
2026-01-30 07:00:21.55	331.43	3.59	-63.0	-80.1	3.6	1.51e+00	0	46	104	2097152	60	396014
2026-01-30 07:00:25.57	331.27	3.33	-63.4	-80.2	3.6	1.51e+00	0	46	104	2097152	60	401094
2026-01-30 07:00:29.60	331.11	3.07	-63.3	-80.1	3.6	1.51e+00	0	46	104	2097152	60	395381
2026-01-30 07:00:33.61	330.96	2.82	-63.2	-80.1	3.6	1.51e+00	0	46	104	2097152	60	397086
2026-01-30 07:00:37.59	330.81	2.56	-63.2	-80.0	3.6	1.51e+00	0	46	104	2097152	60	392813
2026-01-30 07:00:41.62	330.67	2.31	-63.1	-79.9	3.6	1.51e+00	0	46	104	2097152	60	388529
2026-01-30 07:00:45.65	330.52	2.06	-63.1	-79.9	3.6	1.51e+00	0	46	104	2097152	60	388180
2026-01-30 07:00:49.65	330.38	1.82	-63.0	-79.9	3.6	1.51e+00	0	46	104	2097152	60	385804
2026-01-30 07:00:53.67	330.24	1.57	-63.0	-79.8	3.6	1.51e+00	0	46	104	2097152	60	384706
2026-01-30 07:00:57.69	330.11	1.33	-62.9	-79.8	3.6	1.51e+00	0	46	104	2097152	60	384959
2026-01-30 07:01:01.72	329.98	1.09	-62.9	-79.8	3.6	1.51e+00	0	46	104	2097152	60	383663
2026-01-30 07:01:05.74	329.84	0.85	-62.9	-79.8	3.6	1.51e+00	0	46	104	2097152	60	382709
2026-01-30 07:01:09.77	329.72	0.61	-62.8	-79.8	3.6	1.51e+00	0	46	104	2097152	60	382683
2026-01-30 07:01:13.80	329.59	0.37	-62.8	-79.8	3.6	1.51e+00	0	46	104	2097152	60	382712
2026-01-30 07:01:17.82	329.47	0.14	-62.8	-79.7	3.6	1.51e+00	0	46	104	2097152	60	380463

#Closed at: 2026-01-30 07:01:20
#Recorded file [2 MB]: D:/Data/35015_260130_095853.dat