passes_logs/2026/01/30/R3.2S-Naryan-Mar/R3.2S-Naryan-Mar__20260130_100655_AQUA_rec.log

#Pass ID: 20260130_100655_AQUA
#Satellite: AQUA
#Configuration: AQUA
#almurnet v.1.7.20240730
#Start time: 2026-01-30 10:06:56

#Version: 2.2.20231116
#Station: R3.2S-Naryan-Mar
#Location: 53.008057 lon 67.646978 lat
#TLE: 1 27424U 02022A   26029.54575153  .00001738  00000+0  35736-3 0  9994
#TLE: 2 27424  98.4104 356.2197 0001804  61.7823  56.0643 14.61874165263019

#Time	Az	El	Level	Level2	SNR	BER	BlckErr	Temp	State	Recorded	gain1	gain2
2026-01-30 10:06:56.12	154.57	0.07	-61.7	-78.0	3.5	1.51e+00	0	43	0	0	60	311304
2026-01-30 10:07:00.14	154.58	0.32	-55.8	-77.8	3.5	3.02e+01	0	44	104	0	60	295459
2026-01-30 10:07:04.18	154.59	0.57	-56.8	-77.5	3.5	3.02e+01	0	44	104	0	60	286230
2026-01-30 10:07:08.21	154.61	0.83	-56.8	-77.5	3.5	3.02e+01	0	44	104	0	60	284990
2026-01-30 10:07:12.24	154.62	1.09	-56.9	-77.3	3.6	3.02e+01	0	44	104	0	60	279610
2026-01-30 10:07:16.26	154.64	1.35	-57.2	-77.4	3.5	3.02e+01	0	44	104	0	60	283395
2026-01-30 10:07:20.29	154.65	1.61	-57.4	-77.3	3.5	3.02e+01	0	44	104	0	60	279684
2026-01-30 10:07:24.32	154.66	1.87	-57.0	-77.2	3.5	3.02e+01	0	44	104	0	60	275553
2026-01-30 10:07:28.35	154.68	2.14	-56.5	-76.4	3.5	3.02e+01	0	44	104	0	60	251453
2026-01-30 10:07:32.38	154.69	2.41	-55.2	-75.3	3.5	3.02e+01	0	44	104	0	60	222064
2026-01-30 10:07:36.41	154.70	2.69	-54.6	-74.6	3.5	3.02e+01	0	44	104	0	60	203790
2026-01-30 10:07:40.44	154.72	2.97	-54.4	-74.4	3.5	3.02e+01	0	44	104	0	60	198613
2026-01-30 10:07:44.46	154.73	3.25	-54.3	-73.3	3.5	3.02e+01	0	45	104	0	60	174918
2026-01-30 10:07:48.49	154.75	3.53	-54.3	-73.0	3.5	3.02e+01	0	44	104	0	60	169390
2026-01-30 10:07:52.51	154.76	3.82	-54.3	-72.2	3.5	3.02e+01	0	45	104	0	60	154312
2026-01-30 10:07:56.53	154.77	4.10	-54.2	-70.5	4.4	3.02e+01	0	45	104	0	60	127083
2026-01-30 10:08:00.57	154.79	4.40	-54.2	-70.1	3.7	3.02e+01	0	45	104	0	60	121739
2026-01-30 10:08:04.59	154.80	4.70	-52.9	-59.4	14.6	3.02e+01	0	45	0	5767168	60	35472
2026-01-30 10:08:08.61	154.81	5.00	-50.2	-53.4	20.6	3.02e+01	0	44	0	13107200	60	17720
2026-01-30 10:08:12.63	154.83	5.30	-48.6	-51.0	22.8	3.02e+01	0	44	0	20971520	60	13499
2026-01-30 10:08:16.67	154.84	5.61	-49.3	-52.0	21.8	3.02e+01	0	44	0	28311552	60	15104
2026-01-30 10:08:20.70	154.86	5.92	-51.9	-56.7	17.2	3.02e+01	0	44	0	36175872	60	25927
2026-01-30 10:08:24.72	154.87	6.24	-53.2	-60.7	13.8	3.02e+01	0	45	0	43515904	60	41428
2026-01-30 10:08:28.75	154.88	6.56	-49.4	-52.0	22.1	3.02e+01	0	45	0	1048576	60	15123
2026-01-30 10:08:32.76	154.90	6.89	-48.5	-50.7	23.2	3.02e+01	0	45	0	8388608	60	13086
2026-01-30 10:08:36.78	154.91	7.22	-48.0	-50.2	23.9	3.02e+01	0	44	0	16252928	60	12255
2026-01-30 10:08:40.81	154.92	7.55	-48.1	-50.2	23.9	3.02e+01	0	45	0	23592960	60	12334
2026-01-30 10:08:44.83	154.94	7.89	-48.3	-50.4	23.8	3.02e+01	0	44	0	31457280	60	12545
2026-01-30 10:08:48.85	154.95	8.24	-48.0	-50.1	24.1	3.02e+01	0	45	0	38797312	60	12114
2026-01-30 10:08:52.87	154.97	8.59	-48.2	-50.3	23.9	3.02e+01	0	45	0	46137344	60	12411
2026-01-30 10:08:56.89	154.98	8.94	-48.1	-50.2	24.2	3.02e+01	0	45	0	54001664	60	12253
2026-01-30 10:09:00.90	154.99	9.30	-47.9	-49.9	24.4	3.02e+01	0	45	0	61341696	60	11860
2026-01-30 10:09:04.91	155.01	9.67	-47.8	-49.8	24.6	3.02e+01	0	44	0	68681728	60	11694
2026-01-30 10:09:08.94	155.02	10.05	-47.7	-49.6	24.7	3.02e+01	0	45	0	76546048	60	11520
2026-01-30 10:09:12.97	155.04	10.43	-47.8	-49.7	24.7	3.02e+01	0	45	0	83886080	60	11600
2026-01-30 10:09:16.98	155.05	10.81	-47.6	-49.5	24.9	3.02e+01	0	45	0	91226112	60	11341
2026-01-30 10:09:21.02	155.06	11.21	-47.6	-49.5	25.0	3.02e+01	0	45	0	99090432	60	11319
2026-01-30 10:09:25.04	155.08	11.61	-47.4	-49.2	25.2	3.02e+01	0	45	0	106430464	60	10927
2026-01-30 10:09:29.07	155.09	12.02	-47.4	-49.2	25.2	3.02e+01	0	45	0	114294784	60	10999
2026-01-30 10:09:33.10	155.10	12.44	-47.4	-49.2	25.2	3.02e+01	0	45	0	121634816	60	11018
2026-01-30 10:09:37.13	155.12	12.86	-47.2	-49.0	25.4	3.02e+01	0	45	0	128974848	60	10700
2026-01-30 10:09:41.16	155.13	13.30	-47.2	-49.0	25.4	3.02e+01	0	45	0	136839168	60	10713
2026-01-30 10:09:45.18	155.15	13.74	-47.2	-49.0	25.5	3.02e+01	0	45	0	144179200	60	10687
2026-01-30 10:09:49.21	155.16	14.19	-47.2	-48.9	25.7	3.02e+01	0	45	0	152043520	60	10646
2026-01-30 10:09:53.24	155.17	14.65	-47.3	-49.0	25.6	3.02e+01	0	45	0	159383552	60	10746
2026-01-30 10:09:57.27	155.19	15.12	-47.2	-48.9	25.8	3.02e+01	0	45	0	167247872	60	10591
2026-01-30 10:10:01.31	155.20	15.61	-47.1	-48.7	25.9	3.02e+01	0	45	0	174587904	60	10365
2026-01-30 10:10:05.33	155.22	16.10	-46.9	-48.6	26.1	3.02e+01	0	45	0	182452224	60	10222
2026-01-30 10:10:09.36	155.23	16.60	-47.0	-48.6	26.0	3.02e+01	0	44	0	189792256	60	10246
2026-01-30 10:10:13.39	155.24	17.11	-47.1	-48.7	26.0	3.02e+01	0	45	0	197132288	60	10393
2026-01-30 10:10:17.41	155.26	17.64	-47.3	-48.9	25.9	3.02e+01	0	45	0	204472320	60	10643
2026-01-30 10:10:21.44	155.27	18.18	-47.3	-48.9	25.9	3.02e+01	0	45	0	212336640	60	10631
2026-01-30 10:10:25.45	155.29	18.73	-47.3	-48.9	26.0	3.02e+01	0	45	0	219676672	60	10617
2026-01-30 10:10:29.47	155.30	19.30	-47.5	-49.1	25.8	3.02e+01	0	45	0	227540992	60	10908
2026-01-30 10:10:33.50	155.31	19.88	-48.0	-49.8	25.4	3.02e+01	0	45	0	234881024	60	11699
2026-01-30 10:10:37.52	155.33	20.48	-47.8	-49.5	25.7	3.02e+01	0	45	0	242221056	60	11407
2026-01-30 10:10:41.55	155.34	21.09	-47.8	-49.5	25.7	3.02e+01	0	45	0	250085376	60	11328
2026-01-30 10:10:45.58	155.35	21.72	-48.0	-49.7	25.6	3.02e+01	0	45	0	257425408	60	11662
2026-01-30 10:10:49.60	155.37	22.36	-48.1	-49.8	25.7	3.02e+01	0	45	0	265289728	60	11713
2026-01-30 10:10:53.62	155.38	23.03	-48.1	-49.8	25.6	3.02e+01	0	45	0	272629760	60	11803
2026-01-30 10:10:57.65	155.39	23.71	-48.2	-49.9	25.5	3.02e+01	0	45	0	280494080	60	11953
2026-01-30 10:11:01.67	155.41	24.42	-48.2	-50.0	25.6	3.02e+01	0	45	0	287834112	60	12061
2026-01-30 10:11:05.70	155.42	25.14	-48.0	-49.7	25.9	3.02e+01	0	45	0	295174144	60	11642
2026-01-30 10:11:09.73	155.44	25.89	-48.1	-49.8	25.8	3.02e+01	0	45	0	303038464	60	11763
2026-01-30 10:11:13.75	155.45	26.66	-48.1	-49.8	26.0	3.02e+01	0	45	0	310378496	60	11768
2026-01-30 10:11:17.78	155.46	27.46	-48.2	-49.9	26.0	3.02e+01	0	45	0	318242816	60	11926
2026-01-30 10:11:21.81	155.48	28.28	-47.8	-49.4	26.5	3.02e+01	0	45	0	325582848	60	11207
2026-01-30 10:11:25.83	155.49	29.13	-48.0	-49.7	26.3	3.02e+01	0	45	0	332922880	60	11562
2026-01-30 10:11:29.86	155.50	30.00	-47.9	-49.5	26.4	3.02e+01	0	45	0	340787200	60	11342
2026-01-30 10:11:33.87	155.52	30.91	-48.6	-50.3	25.8	3.02e+01	0	45	0	348127232	60	12393
2026-01-30 10:11:37.89	155.53	31.84	-47.9	-49.5	26.5	3.02e+01	0	45	0	355467264	60	11309
2026-01-30 10:11:41.92	155.54	32.81	-48.2	-49.8	26.3	3.02e+01	0	45	0	363331584	60	11797
2026-01-30 10:11:45.95	155.55	33.82	-48.5	-50.2	26.0	3.02e+01	0	45	0	370671616	60	12263
2026-01-30 10:11:49.96	155.57	34.85	-49.0	-50.7	25.5	3.02e+01	0	45	0	378535936	60	13047
2026-01-30 10:11:53.98	155.58	35.93	-49.5	-51.4	24.8	3.02e+01	0	45	0	385875968	60	14143
2026-01-30 10:11:57.99	155.59	37.04	-49.9	-51.8	24.5	3.02e+01	0	45	0	393216000	60	14826
2026-01-30 10:12:02.03	155.60	38.21	-50.4	-52.5	23.9	3.02e+01	0	45	0	401080320	60	15958
2026-01-30 10:12:06.05	155.62	39.41	-50.2	-52.2	24.2	3.02e+01	0	45	0	408420352	60	15445
2026-01-30 10:12:10.08	155.63	40.66	-50.0	-52.0	24.4	3.02e+01	0	45	0	416284672	60	15133
2026-01-30 10:12:14.11	155.64	41.96	-49.5	-51.3	25.1	3.02e+01	0	45	0	423624704	60	14043
2026-01-30 10:12:18.14	155.65	43.30	-49.7	-60.3	3.5	3.02e+01	0	45	104	427819008	60	39341
2026-01-30 10:12:22.16	155.66	44.70	-53.0	-64.7	3.4	3.02e+01	0	45	104	427819008	60	65574
2026-01-30 10:12:26.18	155.67	46.15	-50.5	-61.2	3.5	3.02e+01	0	45	104	427819008	60	43927
2026-01-30 10:12:30.20	155.68	47.65	-51.4	-62.3	3.4	3.02e+01	0	45	104	427819008	60	49384
2026-01-30 10:12:34.23	155.69	49.22	-50.1	-60.7	3.9	3.02e+01	0	45	104	427819008	60	41347
2026-01-30 10:12:38.25	155.70	50.84	-52.8	-64.4	3.5	3.02e+01	0	45	104	427819008	60	62966
2026-01-30 10:12:42.27	155.71	52.53	-48.8	-59.3	3.5	3.02e+01	0	45	104	427819008	60	35004
2026-01-30 10:12:46.30	155.71	54.28	-53.1	-65.1	3.5	3.02e+01	0	45	104	427819008	60	68064
2026-01-30 10:12:50.33	155.72	56.09	-50.0	-60.6	3.5	3.02e+01	0	45	104	427819008	60	40846
2026-01-30 10:12:54.36	155.73	57.97	-54.1	-66.4	3.5	3.02e+01	0	45	104	427819008	60	79319
2026-01-30 10:12:58.39	155.73	59.91	-50.9	-61.8	3.5	3.02e+01	0	45	104	427819008	60	46600
2026-01-30 10:13:02.41	155.73	61.91	-54.6	-67.2	3.5	3.02e+01	0	45	104	427819008	60	87098
2026-01-30 10:13:06.44	155.73	63.98	-52.5	-63.6	3.5	3.02e+01	0	45	104	427819008	60	57750
2026-01-30 10:13:10.46	155.72	66.11	-53.6	-65.4	3.5	3.02e+01	0	45	104	427819008	60	70506
2026-01-30 10:13:14.49	155.72	68.30	-54.3	-66.6	3.5	3.02e+01	0	45	104	427819008	60	80959
2026-01-30 10:13:18.51	155.70	70.54	-56.3	-71.2	3.5	3.02e+01	0	45	104	427819008	60	138652
2026-01-30 10:13:22.54	155.68	72.84	-54.1	-66.9	3.5	3.02e+01	0	45	104	427819008	60	83730
2026-01-30 10:13:26.56	155.64	75.19	-54.0	-66.6	3.5	3.02e+01	0	45	104	427819008	60	81764
2026-01-30 10:13:30.59	155.58	77.58	-52.8	-64.9	3.5	3.02e+01	0	45	104	427819008	60	66541
2026-01-30 10:13:34.62	155.49	80.02	-51.0	-62.4	3.5	3.02e+01	0	45	104	427819008	60	50351
2026-01-30 10:13:38.64	155.33	82.47	-51.0	-62.3	3.5	3.02e+01	0	45	104	427819008	60	49682
2026-01-30 10:13:42.66	154.98	84.96	-52.4	-64.3	3.5	3.02e+01	0	45	104	427819008	60	62071
2026-01-30 10:13:46.67	153.93	87.45	-50.1	-60.9	3.5	3.02e+01	0	45	104	427819008	60	42233
2026-01-30 10:13:50.69	92.23	89.89	-50.1	-61.0	3.5	3.02e+01	0	45	104	427819008	60	42675
2026-01-30 10:13:54.69	338.35	87.55	-50.5	-61.5	3.5	3.02e+01	0	45	104	427819008	60	45189
2026-01-30 10:13:58.71	337.23	85.06	-51.3	-63.0	3.5	3.02e+01	0	45	104	427819008	60	53644
2026-01-30 10:14:02.73	336.88	82.58	-52.6	-64.6	3.5	3.02e+01	0	45	104	427819008	60	64347
2026-01-30 10:14:06.74	336.71	80.12	-50.8	-61.9	3.5	3.02e+01	0	45	104	427819008	60	47436
2026-01-30 10:14:10.76	336.61	77.70	-52.1	-63.6	3.5	3.02e+01	0	45	104	427819008	60	57322
2026-01-30 10:14:14.79	336.56	75.31	-54.1	-66.6	3.5	3.02e+01	0	45	104	427819008	60	81402
2026-01-30 10:14:18.80	336.52	72.97	-52.6	-64.2	3.5	3.02e+01	0	45	104	427819008	60	61824
2026-01-30 10:14:22.82	336.50	70.67	-52.8	-64.8	3.5	3.02e+01	0	45	104	427819008	60	65893
2026-01-30 10:14:26.84	336.48	68.43	-55.1	-70.7	3.5	3.02e+01	0	45	104	427819008	60	130941
2026-01-30 10:14:30.87	336.47	66.24	-53.3	-65.8	3.5	3.02e+01	0	45	104	427819008	60	74156
2026-01-30 10:14:34.91	336.47	64.10	-53.3	-66.1	3.5	3.02e+01	0	45	104	427819008	60	77188
2026-01-30 10:14:38.93	336.47	62.04	-51.8	-63.3	3.5	3.02e+01	0	45	104	427819008	60	55610
2026-01-30 10:14:42.96	336.47	60.04	-50.7	-61.8	3.6	3.02e+01	0	45	104	427819008	60	47001
2026-01-30 10:14:46.99	336.47	58.10	-52.6	-64.3	3.5	3.02e+01	0	45	104	427819008	60	62703
2026-01-30 10:14:51.02	336.48	56.22	-52.1	-63.4	3.6	3.02e+01	0	45	104	427819008	60	56510
2026-01-30 10:14:55.04	336.48	54.41	-51.4	-62.7	3.5	3.02e+01	0	45	104	427819008	60	51945
2026-01-30 10:14:59.05	336.49	52.67	-51.1	-62.0	3.5	3.02e+01	0	45	104	427819008	60	48013
2026-01-30 10:15:03.07	336.50	50.99	-50.9	-61.9	3.5	3.02e+01	0	45	104	427819008	60	47594
2026-01-30 10:15:07.10	336.51	49.37	-50.8	-61.7	3.5	3.02e+01	0	45	104	427819008	60	46321
2026-01-30 10:15:11.12	336.52	47.81	-52.8	-64.3	3.5	3.02e+01	0	45	104	427819008	60	62498
2026-01-30 10:15:15.14	336.53	46.30	-53.2	-65.4	3.5	3.02e+01	0	45	104	427819008	60	70639
2026-01-30 10:15:19.16	336.54	44.85	-52.7	-64.3	3.5	3.02e+01	0	45	104	427819008	60	62615
2026-01-30 10:15:23.17	336.55	43.46	-49.9	-60.7	3.5	3.02e+01	0	45	104	427819008	60	41173
2026-01-30 10:15:27.20	336.56	42.11	-51.8	-63.1	3.5	3.02e+01	0	45	104	427819008	60	54471
2026-01-30 10:15:31.22	336.58	40.82	-53.8	-66.6	3.5	3.02e+01	0	45	104	427819008	60	81768
2026-01-30 10:15:35.26	336.59	39.57	-53.7	-66.3	3.5	3.02e+01	0	45	104	427819008	60	78842
2026-01-30 10:15:39.29	336.60	38.36	-50.7	-61.8	3.5	3.02e+01	0	45	104	427819008	60	46830
2026-01-30 10:15:43.32	336.62	37.20	-52.7	-64.6	3.5	3.02e+01	0	45	104	427819008	60	64318
2026-01-30 10:15:47.34	336.63	36.09	-53.9	-67.0	3.5	3.02e+01	0	45	104	427819008	60	85151
2026-01-30 10:15:51.36	336.64	35.01	-51.4	-63.2	3.5	3.02e+01	0	45	104	427819008	60	54913
2026-01-30 10:15:55.39	336.66	33.97	-49.8	-60.6	3.5	3.02e+01	0	45	104	427819008	60	40576
2026-01-30 10:15:59.42	336.67	32.97	-51.4	-62.7	3.5	3.02e+01	0	45	104	427819008	60	52179
2026-01-30 10:16:03.44	336.68	32.00	-48.9	-59.6	3.5	3.02e+01	0	45	104	427819008	60	36365
2026-01-30 10:16:07.46	336.70	31.07	-51.2	-62.5	3.5	3.02e+01	0	45	104	427819008	60	50915
2026-01-30 10:16:11.49	336.71	30.16	-53.2	-65.8	3.5	3.02e+01	0	45	104	427819008	60	74570
2026-01-30 10:16:15.51	336.73	29.29	-51.3	-62.9	3.5	3.02e+01	0	45	104	427819008	60	52964
2026-01-30 10:16:19.53	336.74	28.44	-50.8	-61.8	3.6	3.02e+01	0	45	104	427819008	60	46731
2026-01-30 10:16:23.56	336.76	27.62	-51.2	-62.3	3.5	3.02e+01	0	45	104	427819008	60	49589
2026-01-30 10:16:27.59	336.77	26.82	-50.2	-60.9	3.5	3.02e+01	0	45	104	427819008	60	42370
2026-01-30 10:16:31.62	336.79	26.05	-52.3	-63.7	3.5	3.02e+01	0	45	104	427819008	60	58544
2026-01-30 10:16:35.65	336.80	25.30	-50.9	-62.2	3.5	3.02e+01	0	45	104	427819008	60	48786
2026-01-30 10:16:39.67	336.82	24.58	-51.9	-63.5	3.6	3.02e+01	0	45	104	427819008	60	56868
2026-01-30 10:16:43.70	336.83	23.88	-50.8	-62.1	3.5	3.02e+01	0	45	104	427819008	60	48570
2026-01-30 10:16:47.73	336.85	23.19	-50.9	-62.3	3.5	3.02e+01	0	45	104	427819008	60	49510
2026-01-30 10:16:51.74	336.86	22.53	-49.6	-60.6	3.5	3.02e+01	0	45	104	427819008	60	40727
2026-01-30 10:16:55.76	336.88	21.88	-50.9	-62.1	3.5	3.02e+01	0	45	104	427819008	60	48429
2026-01-30 10:16:59.78	336.89	21.26	-49.8	-60.5	3.5	3.02e+01	0	45	104	427819008	60	40237
2026-01-30 10:17:03.80	336.91	20.65	-51.5	-62.8	3.5	3.02e+01	0	45	104	427819008	60	52535
2026-01-30 10:17:07.83	336.92	20.05	-50.3	-61.4	3.5	3.02e+01	0	45	104	427819008	60	44800
2026-01-30 10:17:11.86	336.94	19.47	-50.6	-61.8	3.5	3.02e+01	0	45	104	427819008	60	46580
2026-01-30 10:17:15.88	336.95	18.90	-50.1	-61.2	3.5	3.02e+01	0	45	104	427819008	60	43602
2026-01-30 10:17:19.91	336.97	18.35	-49.9	-60.9	3.5	3.02e+01	0	45	104	427819008	60	42061
2026-01-30 10:17:23.94	336.98	17.81	-51.1	-62.6	3.5	3.02e+01	0	45	104	427819008	60	51060
2026-01-30 10:17:27.96	337.00	17.28	-50.5	-62.1	3.5	3.02e+01	0	45	104	427819008	60	48294
2026-01-30 10:17:31.97	337.01	16.77	-50.1	-61.8	3.5	3.02e+01	0	45	104	427819008	60	46646
2026-01-30 10:17:36.00	337.03	16.27	-51.0	-63.2	3.5	3.02e+01	0	45	104	427819008	60	55045
2026-01-30 10:17:40.02	337.05	15.78	-51.6	-64.2	3.5	3.02e+01	0	45	104	427819008	60	61403
2026-01-30 10:17:44.06	337.06	15.30	-50.8	-62.7	3.5	3.02e+01	0	45	104	427819008	60	51938
2026-01-30 10:17:48.08	337.08	14.83	-51.4	-63.5	3.6	3.02e+01	0	45	104	427819008	60	56876
2026-01-30 10:17:52.11	337.09	14.37	-51.6	-64.0	3.5	3.02e+01	0	45	104	427819008	60	60398
2026-01-30 10:17:56.13	337.11	13.91	-52.4	-65.8	3.5	3.02e+01	0	45	104	427819008	60	74147
2026-01-30 10:18:00.16	337.13	13.47	-52.4	-65.8	3.5	3.02e+01	0	45	104	427819008	60	74400
2026-01-30 10:18:04.18	337.14	13.04	-52.3	-66.0	3.5	3.02e+01	0	45	104	427819008	60	76037
2026-01-30 10:18:08.20	337.16	12.62	-52.7	-67.2	3.5	3.02e+01	0	45	104	427819008	60	86907
2026-01-30 10:18:12.23	337.17	12.20	-53.1	-68.7	3.5	3.02e+01	0	45	104	427819008	60	103508
2026-01-30 10:18:16.26	337.19	11.79	-52.8	-68.9	3.5	3.02e+01	0	45	104	427819008	60	105507
2026-01-30 10:18:20.27	337.21	11.39	-52.8	-69.8	3.5	3.02e+01	0	45	104	427819008	60	117665
2026-01-30 10:18:24.30	337.22	10.99	-52.8	-71.3	3.5	3.02e+01	0	45	104	427819008	60	139499
2026-01-30 10:18:28.33	337.24	10.61	-51.9	-72.3	3.5	3.02e+01	0	45	104	427819008	60	157595
2026-01-30 10:18:32.35	337.25	10.23	-52.1	-72.6	3.5	3.02e+01	0	45	104	427819008	60	161604
2026-01-30 10:18:36.36	337.27	9.85	-51.6	-73.0	3.5	3.02e+01	0	45	104	427819008	60	169667
2026-01-30 10:18:40.39	337.29	9.49	-51.8	-73.6	3.5	3.02e+01	0	45	104	427819008	60	182918
2026-01-30 10:18:44.41	337.30	9.12	-52.3	-74.0	3.5	3.02e+01	0	45	104	427819008	60	189963
2026-01-30 10:18:48.44	337.32	8.77	-52.7	-74.6	3.5	3.02e+01	0	45	104	427819008	60	203918
2026-01-30 10:18:52.45	337.34	8.42	-52.7	-74.6	3.5	3.02e+01	0	45	104	427819008	60	204761
2026-01-30 10:18:56.48	337.35	8.07	-52.8	-74.6	3.5	3.02e+01	0	45	104	427819008	60	205046
2026-01-30 10:19:00.51	337.37	7.73	-53.0	-74.8	3.5	3.02e+01	0	45	104	427819008	60	208815
2026-01-30 10:19:04.53	337.39	7.40	-53.6	-74.8	3.5	3.02e+01	0	45	104	427819008	60	210111
2026-01-30 10:19:08.56	337.40	7.07	-53.6	-75.0	3.5	3.02e+01	0	45	104	427819008	60	214744
2026-01-30 10:19:12.59	337.42	6.74	-53.7	-74.8	3.5	3.02e+01	0	45	104	427819008	60	208514
2026-01-30 10:19:16.62	337.44	6.42	-53.9	-74.8	3.5	3.02e+01	0	45	104	427819008	60	209799
2026-01-30 10:19:20.64	337.45	6.10	-53.7	-74.6	3.5	3.02e+01	0	45	104	427819008	60	203352
2026-01-30 10:19:24.67	337.47	5.79	-53.9	-74.4	3.6	3.02e+01	0	45	104	427819008	60	199646
2026-01-30 10:19:28.69	337.49	5.48	-55.4	-76.2	3.6	3.02e+01	0	45	104	427819008	60	244972
2026-01-30 10:19:32.72	337.50	5.18	-56.3	-76.9	3.5	3.02e+01	0	45	104	427819008	60	267310
2026-01-30 10:19:36.74	337.52	4.88	-56.1	-76.6	3.5	3.02e+01	0	45	104	427819008	60	257414
2026-01-30 10:19:40.77	337.54	4.58	-57.2	-77.9	3.5	3.02e+01	0	45	104	427819008	60	297123
2026-01-30 10:19:44.80	337.55	4.29	-57.3	-77.9	3.5	3.02e+01	0	45	104	427819008	60	300165
2026-01-30 10:19:48.83	337.57	4.00	-56.9	-77.9	3.5	3.02e+01	0	45	104	427819008	60	298453
2026-01-30 10:19:52.85	337.59	3.71	-55.8	-77.1	3.6	3.02e+01	0	45	104	427819008	60	273621
2026-01-30 10:19:56.89	337.60	3.43	-58.0	-78.6	3.5	3.02e+01	0	45	104	427819008	60	323862
2026-01-30 10:20:00.92	337.62	3.15	-57.2	-78.5	3.5	3.02e+01	0	45	104	427819008	60	318761
2026-01-30 10:20:04.95	337.64	2.87	-56.9	-78.6	3.5	3.02e+01	0	45	104	427819008	60	323587
2026-01-30 10:20:08.97	337.65	2.60	-57.1	-78.6	3.6	3.02e+01	0	45	104	427819008	60	324823
2026-01-30 10:20:12.99	337.67	2.33	-57.5	-78.9	3.5	3.02e+01	0	45	104	427819008	60	333931
2026-01-30 10:20:17.02	337.69	2.06	-57.6	-78.9	3.5	3.02e+01	0	45	104	427819008	60	335741
2026-01-30 10:20:21.05	337.70	1.79	-57.6	-78.8	3.5	3.02e+01	0	45	104	427819008	60	330934
2026-01-30 10:20:25.06	337.72	1.53	-57.5	-78.8	3.5	3.02e+01	0	45	104	427819008	60	333138
2026-01-30 10:20:29.09	337.74	1.27	-57.5	-78.8	3.5	3.02e+01	0	45	104	427819008	60	332120
2026-01-30 10:20:33.13	337.75	1.01	-57.4	-78.8	3.5	3.02e+01	0	45	104	427819008	60	330166
2026-01-30 10:20:37.16	337.77	0.76	-57.4	-78.8	3.5	3.02e+01	0	45	104	427819008	60	331476
2026-01-30 10:20:41.19	337.79	0.51	-57.4	-78.7	3.5	3.02e+01	0	45	104	427819008	60	327221
2026-01-30 10:20:45.22	337.81	0.26	-57.4	-78.8	3.5	3.02e+01	0	45	104	427819008	60	330258
2026-01-30 10:20:49.24	337.82	0.01	-57.4	-78.7	3.5	3.02e+01	0	45	104	427819008	60	328840

#Closed at: 2026-01-30 10:20:52
#Recorded file [427 MB]: D:/Data/35015_260130_131216.dat