passes_logs/2026/01/30/R3.2S-Naryan-Mar/R3.2S-Naryan-Mar__20260130_154825_FENGYUN_3E_rec.log

#Pass ID: 20260130_154825_FENGYUN 3E
#Satellite: FENGYUN 3E
#Configuration: FENGYUN 3E
#almurnet v.1.7.20240730
#Start time: 2026-01-30 15:48:27

#Version: 2.2.20231116
#Station: R3.2S-Naryan-Mar
#Location: 53.008057 lon 67.646978 lat
#TLE: 1 49008U 21062A   26030.15628484 -.00000231  00000+0 -88238-4 0  9991
#TLE: 2 49008  98.7496  35.1082 0002567 110.3408 249.8045 14.19886954236998

#Time	Az	El	Level	Level2	SNR	BER	BlckErr	Temp	State	Recorded	gain1	gain2
2026-01-30 15:48:27.86	235.71	0.09	-58.3	-72.9	3.4	8.45e-01	0	43	0	0	60	172127
2026-01-30 15:48:30.87	235.97	0.22	-60.7	-73.5	3.6	8.44e-01	0	44	104	0	60	185668
2026-01-30 15:48:33.89	236.24	0.36	-61.0	-74.0	3.6	8.46e-01	0	44	104	0	60	195485
2026-01-30 15:48:36.90	236.50	0.49	-61.5	-74.9	3.6	8.44e-01	0	44	104	0	60	216656
2026-01-30 15:48:39.92	236.77	0.63	-61.4	-74.7	3.6	8.46e-01	0	44	104	0	60	213694
2026-01-30 15:48:42.94	237.04	0.76	-61.0	-74.2	3.6	8.46e-01	0	45	104	0	60	201273
2026-01-30 15:48:45.96	237.32	0.90	-61.0	-74.1	3.6	8.46e-01	0	45	104	0	60	198035
2026-01-30 15:48:48.99	237.59	1.04	-60.5	-73.5	3.6	8.45e-01	0	45	104	0	60	185796
2026-01-30 15:48:52.01	237.87	1.17	-60.1	-73.1	3.6	8.45e-01	0	45	104	0	60	177883
2026-01-30 15:48:55.03	238.15	1.31	-59.5	-72.5	3.6	8.46e-01	0	45	104	0	60	164938
2026-01-30 15:48:58.05	238.44	1.44	-58.6	-71.6	3.6	8.46e-01	0	45	104	0	60	149774
2026-01-30 15:49:01.06	238.72	1.58	-58.4	-71.4	3.6	8.45e-01	0	45	104	0	60	146318
2026-01-30 15:49:04.09	239.01	1.72	-58.4	-71.5	3.6	8.45e-01	0	45	104	0	60	146979
2026-01-30 15:49:07.11	239.30	1.85	-58.3	-71.3	3.6	8.46e-01	0	45	104	0	60	144407
2026-01-30 15:49:10.14	239.60	1.99	-58.2	-71.2	3.6	8.46e-01	0	45	104	0	60	143062
2026-01-30 15:49:13.16	239.89	2.12	-58.2	-71.1	3.6	8.45e-01	0	45	104	0	60	141066
2026-01-30 15:49:16.17	240.19	2.26	-58.1	-71.1	3.6	8.46e-01	0	45	104	0	60	141286
2026-01-30 15:49:19.20	240.49	2.40	-58.1	-71.1	3.6	8.46e-01	0	45	104	0	60	140500
2026-01-30 15:49:22.21	240.79	2.53	-58.1	-71.1	3.6	8.46e-01	0	45	104	0	60	140226
2026-01-30 15:49:25.23	241.10	2.67	-58.1	-71.0	3.6	8.44e-01	0	45	104	0	60	139604
2026-01-30 15:49:28.25	241.41	2.81	-58.1	-71.1	3.6	8.44e-01	0	45	104	0	60	140149
2026-01-30 15:49:31.27	241.72	2.94	-58.1	-71.0	3.6	8.45e-01	0	45	104	0	60	139551
2026-01-30 15:49:34.28	242.04	3.08	-58.1	-71.1	3.6	8.45e-01	0	45	104	0	60	140505
2026-01-30 15:49:37.31	242.36	3.21	-58.1	-71.0	3.6	8.45e-01	0	45	104	0	60	139125
2026-01-30 15:49:40.33	242.68	3.35	-58.0	-71.1	3.6	8.46e-01	0	45	104	0	60	140632
2026-01-30 15:49:43.34	243.00	3.49	-58.0	-71.0	3.6	8.45e-01	0	45	104	0	60	139446
2026-01-30 15:49:46.37	243.33	3.62	-58.0	-71.0	3.6	8.44e-01	0	45	104	0	60	139261
2026-01-30 15:49:49.39	243.65	3.76	-58.0	-71.0	3.6	8.45e-01	0	45	104	0	60	138571
2026-01-30 15:49:52.42	243.99	3.90	-58.0	-70.8	3.6	8.46e-01	0	45	104	0	60	136190
2026-01-30 15:49:55.44	244.32	4.03	-58.0	-70.8	3.6	8.45e-01	0	45	104	0	60	135166
2026-01-30 15:49:58.45	244.66	4.17	-58.0	-70.8	3.6	8.45e-01	0	45	104	0	60	135268
2026-01-30 15:50:01.47	245.00	4.30	-58.0	-70.9	3.6	8.45e-01	0	45	104	0	60	136844
2026-01-30 15:50:04.50	245.35	4.44	-58.0	-70.9	3.6	8.44e-01	0	45	104	0	60	137652
2026-01-30 15:50:07.51	245.69	4.57	-58.0	-70.9	3.6	8.45e-01	0	45	104	0	60	138064
2026-01-30 15:50:10.53	246.04	4.71	-58.0	-71.0	3.6	8.45e-01	0	46	104	0	60	139286
2026-01-30 15:50:13.55	246.40	4.84	-58.0	-71.0	3.6	8.46e-01	0	45	104	0	60	139153
2026-01-30 15:50:16.57	246.75	4.98	-58.0	-70.9	3.6	8.45e-01	0	45	104	0	60	137742
2026-01-30 15:50:19.58	247.11	5.11	-58.0	-70.9	3.6	8.45e-01	0	46	104	0	60	136921
2026-01-30 15:50:22.59	247.47	5.25	-58.0	-70.9	3.6	8.46e-01	0	45	104	0	60	137504
2026-01-30 15:50:25.61	247.84	5.38	-58.0	-71.0	3.6	8.46e-01	0	46	104	0	60	138599
2026-01-30 15:50:28.62	248.21	5.51	-57.8	-68.9	3.6	8.45e-01	0	45	104	0	60	109782
2026-01-30 15:50:31.64	248.58	5.65	-57.6	-65.9	3.9	8.31e-01	0	45	0	0	60	76864
2026-01-30 15:50:34.67	248.96	5.78	-56.3	-60.7	8.6	7.00e-02	0	46	0	8388608	60	42332
2026-01-30 15:50:37.69	249.34	5.91	-53.7	-55.8	14.1	4.50e-06	0	45	0	30408704	60	24143
2026-01-30 15:50:40.71	249.72	6.05	-52.6	-54.3	15.8	1.10e-06	0	46	0	52428800	60	20350
2026-01-30 15:50:43.74	250.11	6.18	-57.3	-64.3	4.5	7.78e-02	0	45	0	73400320	60	64629
2026-01-30 15:50:46.75	250.49	6.31	-49.8	-50.8	19.4	0.00e+00	0	45	0	11534336	60	13642
2026-01-30 15:50:49.77	250.89	6.44	-49.9	-50.9	19.3	0.00e+00	0	46	0	34603008	60	13745
2026-01-30 15:50:52.80	251.28	6.57	-49.7	-50.7	19.5	0.00e+00	0	46	0	55574528	60	13483
2026-01-30 15:50:55.82	251.68	6.70	-49.7	-50.7	19.5	0.00e+00	0	45	0	77594624	60	13448
2026-01-30 15:50:58.84	252.09	6.83	-49.8	-50.8	19.6	0.00e+00	0	45	0	99614720	60	13603
2026-01-30 15:51:01.86	252.49	6.96	-49.7	-50.7	19.7	0.00e+00	0	45	0	120586240	60	13474
2026-01-30 15:51:04.88	252.90	7.09	-49.8	-50.8	19.5	0.00e+00	0	46	0	143654912	60	13627
2026-01-30 15:51:07.90	253.31	7.22	-49.7	-50.7	19.7	0.00e+00	0	45	0	164626432	60	13401
2026-01-30 15:51:10.93	253.73	7.34	-49.6	-50.5	19.8	0.00e+00	0	45	0	186646528	60	13184
2026-01-30 15:51:13.96	254.15	7.47	-49.6	-50.6	19.9	0.00e+00	0	45	0	208666624	60	13285
2026-01-30 15:51:16.98	254.58	7.60	-49.5	-50.4	19.9	0.00e+00	0	46	0	230686720	60	13047
2026-01-30 15:51:20.00	255.01	7.72	-49.4	-50.4	20.1	0.00e+00	0	46	0	252706816	60	12924
2026-01-30 15:51:23.03	255.44	7.85	-49.5	-50.5	20.0	0.00e+00	0	46	0	273678336	60	13119
2026-01-30 15:51:26.05	255.87	7.97	-49.5	-50.5	20.1	0.00e+00	0	46	0	295698432	60	13110
2026-01-30 15:51:29.06	256.31	8.09	-49.5	-50.5	20.1	0.00e+00	0	45	0	317718528	60	13069
2026-01-30 15:51:32.08	256.75	8.22	-49.1	-50.0	20.5	0.00e+00	0	46	0	339738624	60	12358
2026-01-30 15:51:35.11	257.20	8.34	-49.1	-50.0	20.5	0.00e+00	0	45	0	361758720	60	12390
2026-01-30 15:51:38.13	257.65	8.46	-49.1	-50.0	20.4	0.00e+00	0	46	0	382730240	60	12377
2026-01-30 15:51:41.15	258.10	8.58	-49.0	-49.9	20.6	0.00e+00	0	46	0	404750336	60	12254
2026-01-30 15:51:44.17	258.55	8.70	-49.0	-49.9	20.6	0.00e+00	0	46	0	426770432	60	12220
2026-01-30 15:51:47.19	259.01	8.81	-49.0	-49.9	20.5	0.00e+00	0	46	0	448790528	60	12236
2026-01-30 15:51:50.21	259.48	8.93	-49.0	-49.9	20.6	0.00e+00	0	46	0	470810624	60	12180
2026-01-30 15:51:53.24	259.94	9.04	-49.0	-49.8	20.6	0.00e+00	0	46	0	491782144	60	12163
2026-01-30 15:51:56.26	260.41	9.16	-48.9	-49.8	20.7	0.00e+00	0	46	0	513802240	60	12041
2026-01-30 15:51:59.27	260.89	9.27	-49.0	-49.9	20.5	0.00e+00	0	46	0	535822336	60	12201
2026-01-30 15:52:02.30	261.36	9.38	-49.2	-50.1	20.3	0.00e+00	0	46	0	557842432	60	12596
2026-01-30 15:52:05.32	261.85	9.49	-49.2	-50.1	20.6	0.00e+00	0	46	0	579862528	60	12469
2026-01-30 15:52:08.35	262.33	9.60	-48.6	-49.4	21.2	0.00e+00	0	46	0	600834048	60	11626
2026-01-30 15:52:11.37	262.82	9.71	-48.7	-49.5	21.1	0.00e+00	0	46	0	622854144	60	11708
2026-01-30 15:52:14.39	263.31	9.82	-48.6	-49.5	21.2	0.00e+00	0	46	0	644874240	60	11665
2026-01-30 15:52:17.41	263.80	9.92	-48.5	-49.3	21.4	0.00e+00	0	46	0	666894336	60	11464
2026-01-30 15:52:20.43	264.30	10.03	-48.6	-49.4	21.2	0.00e+00	0	46	0	687865856	60	11596
2026-01-30 15:52:23.45	264.80	10.13	-48.7	-49.6	21.2	0.00e+00	0	46	0	709885952	60	11811
2026-01-30 15:52:26.47	265.31	10.23	-48.7	-49.5	21.2	0.00e+00	0	46	0	731906048	60	11760
2026-01-30 15:52:29.49	265.82	10.33	-48.5	-49.3	21.4	0.00e+00	0	46	0	753926144	60	11458
2026-01-30 15:52:32.51	266.33	10.43	-48.6	-49.4	21.2	0.00e+00	0	46	0	775946240	60	11585
2026-01-30 15:52:35.53	266.84	10.52	-48.7	-49.5	21.3	0.00e+00	0	46	0	796917760	60	11664
2026-01-30 15:52:38.56	267.36	10.62	-48.5	-49.3	21.4	0.00e+00	0	46	0	818937856	60	11391
2026-01-30 15:52:41.58	267.88	10.71	-48.4	-49.2	21.6	0.00e+00	0	46	0	840957952	60	11284
2026-01-30 15:52:44.60	268.41	10.80	-48.3	-49.0	21.7	0.00e+00	0	45	0	862978048	60	11091
2026-01-30 15:52:47.62	268.93	10.89	-48.3	-49.0	21.8	0.00e+00	0	46	0	884998144	60	11063
2026-01-30 15:52:50.65	269.47	10.98	-48.5	-49.3	21.6	0.00e+00	0	46	0	905969664	60	11455
2026-01-30 15:52:53.67	270.00	11.06	-48.5	-49.3	21.5	0.00e+00	0	46	0	927989760	60	11466
2026-01-30 15:52:56.68	270.53	11.15	-48.3	-49.1	21.6	0.00e+00	0	46	0	950009856	60	11184
2026-01-30 15:52:59.70	271.07	11.23	-48.3	-49.1	21.7	0.00e+00	0	46	0	972029952	60	11152
2026-01-30 15:53:02.72	271.62	11.31	-48.4	-49.3	21.5	0.00e+00	0	46	0	994050048	60	11372
2026-01-30 15:53:05.74	272.16	11.38	-48.4	-49.3	21.5	0.00e+00	0	46	0	1015021568	60	11395
2026-01-30 15:53:08.76	272.71	11.46	-48.3	-49.1	21.6	0.00e+00	0	46	0	1037041664	60	11220
2026-01-30 15:53:11.78	273.26	11.53	-48.2	-49.1	21.6	0.00e+00	0	46	0	1059061760	60	11107
2026-01-30 15:53:14.81	273.81	11.60	-48.4	-49.3	21.5	0.00e+00	0	46	0	1081081856	60	11389
2026-01-30 15:53:17.83	274.37	11.67	-48.3	-49.1	21.7	0.00e+00	0	46	0	1103101952	60	11120
2026-01-30 15:53:20.85	274.93	11.74	-48.2	-49.0	21.7	0.00e+00	0	46	0	1124073472	60	11078
2026-01-30 15:53:23.87	275.49	11.80	-48.2	-49.0	21.9	0.00e+00	0	46	0	1146093568	60	11026
2026-01-30 15:53:26.90	276.05	11.87	-48.0	-48.7	22.0	0.00e+00	0	46	0	1168113664	60	10708
2026-01-30 15:53:29.91	276.61	11.93	-48.0	-48.8	22.0	0.00e+00	0	46	0	1190133760	60	10767
2026-01-30 15:53:32.93	277.18	11.98	-48.0	-48.8	22.0	0.00e+00	0	46	0	1212153856	60	10776
2026-01-30 15:53:35.95	277.75	12.04	-48.0	-48.8	22.0	0.00e+00	0	46	0	1233125376	60	10774
2026-01-30 15:53:38.96	278.32	12.09	-47.8	-48.5	22.3	0.00e+00	0	46	0	1255145472	60	10431
2026-01-30 15:53:41.96	278.89	12.14	-47.8	-48.5	22.3	0.00e+00	0	46	0	1277165568	60	10421
2026-01-30 15:53:44.98	279.46	12.19	-47.9	-48.7	22.2	0.00e+00	0	46	0	1299185664	60	10624
2026-01-30 15:53:47.99	280.04	12.23	-48.0	-48.8	22.1	0.00e+00	0	46	0	1321205760	60	10742
2026-01-30 15:53:51.00	280.62	12.28	-48.2	-48.9	22.0	0.00e+00	0	46	0	1342177280	60	10973
2026-01-30 15:53:54.02	281.20	12.32	-48.1	-48.9	22.1	0.00e+00	0	46	0	1364197376	60	10908
2026-01-30 15:53:57.04	281.78	12.35	-48.0	-48.7	22.3	0.00e+00	0	46	0	1385168896	60	10721
2026-01-30 15:54:00.06	282.36	12.39	-48.2	-48.9	22.0	0.00e+00	0	46	0	1407188992	60	10943
2026-01-30 15:54:03.08	282.94	12.42	-48.2	-49.0	22.1	0.00e+00	0	46	0	1429209088	60	11028
2026-01-30 15:54:06.09	283.53	12.45	-48.3	-49.1	22.0	0.00e+00	0	46	0	1451229184	60	11157
2026-01-30 15:54:09.11	284.11	12.48	-48.1	-48.9	22.2	0.00e+00	0	46	0	1473249280	60	10914
2026-01-30 15:54:12.12	284.70	12.50	-48.1	-48.8	22.2	0.00e+00	0	46	0	1494220800	60	10801
2026-01-30 15:54:15.15	285.29	12.52	-48.3	-49.0	22.1	0.00e+00	0	46	0	1516240896	60	11102
2026-01-30 15:54:18.16	285.87	12.54	-48.5	-49.2	21.9	0.00e+00	0	46	0	1538260992	60	11340
2026-01-30 15:54:21.18	286.46	12.56	-48.4	-49.2	22.0	0.00e+00	0	46	0	1560281088	60	11293
2026-01-30 15:54:24.20	287.05	12.57	-48.3	-49.0	22.2	0.00e+00	0	46	0	1582301184	60	11087
2026-01-30 15:54:27.22	287.64	12.58	-48.3	-49.0	22.2	0.00e+00	0	46	0	1603272704	60	11082
2026-01-30 15:54:30.23	288.23	12.59	-48.4	-49.2	22.0	0.00e+00	0	45	0	1625292800	60	11303
2026-01-30 15:54:33.25	288.82	12.59	-48.4	-49.1	22.1	0.00e+00	0	46	0	1647312896	60	11169
2026-01-30 15:54:36.27	289.41	12.60	-48.4	-49.2	22.1	0.00e+00	0	46	0	1668284416	60	11294
2026-01-30 15:54:39.29	290.01	12.60	-48.4	-49.1	22.1	0.00e+00	0	46	0	1691353088	60	11229
2026-01-30 15:54:42.32	290.60	12.59	-48.3	-49.1	22.1	0.00e+00	0	46	0	1712324608	60	11166
2026-01-30 15:54:45.34	291.19	12.59	-48.4	-49.1	22.1	0.00e+00	0	46	0	1734344704	60	11234
2026-01-30 15:54:48.36	291.78	12.58	-48.4	-49.1	22.1	0.00e+00	0	46	0	1756364800	60	11233
2026-01-30 15:54:51.38	292.37	12.57	-48.4	-49.1	22.0	0.00e+00	0	46	0	1778384896	60	11186
2026-01-30 15:54:54.40	292.96	12.55	-48.5	-49.3	22.0	0.00e+00	0	45	0	1800404992	60	11397
2026-01-30 15:54:57.43	293.55	12.54	-48.6	-49.3	22.1	0.00e+00	0	45	0	1821376512	60	11470
2026-01-30 15:55:00.45	294.14	12.52	-48.6	-49.3	22.0	0.00e+00	0	45	0	1843396608	60	11473
2026-01-30 15:55:03.47	294.73	12.50	-48.7	-49.4	22.0	0.00e+00	0	45	0	1865416704	60	11596
2026-01-30 15:55:06.49	295.31	12.47	-48.5	-49.3	22.1	0.00e+00	0	46	0	1887436800	60	11438
2026-01-30 15:55:09.52	295.90	12.44	-48.6	-49.3	22.1	0.00e+00	0	46	0	1909456896	60	11454
2026-01-30 15:55:12.55	296.49	12.41	-48.5	-49.3	22.2	0.00e+00	0	45	0	1930428416	60	11414
2026-01-30 15:55:15.57	297.07	12.38	-48.6	-49.4	22.2	0.00e+00	0	46	0	1952448512	60	11503
2026-01-30 15:55:18.59	297.65	12.35	-48.7	-49.5	22.1	0.00e+00	0	46	0	1974468608	60	11686
2026-01-30 15:55:21.62	298.23	12.31	-48.8	-49.6	22.0	0.00e+00	0	46	0	1996488704	60	11800
2026-01-30 15:55:24.64	298.81	12.27	-48.8	-49.6	21.9	0.00e+00	0	46	0	2018508800	60	11869
2026-01-30 15:55:27.67	299.39	12.22	-48.6	-49.3	22.2	0.00e+00	0	46	0	2039480320	60	11453
2026-01-30 15:55:30.68	299.96	12.18	-48.4	-49.2	22.2	0.00e+00	0	46	0	2062548992	60	11304
2026-01-30 15:55:33.71	300.54	12.13	-48.7	-49.5	22.0	0.00e+00	0	46	0	2083520512	60	11668
2026-01-30 15:55:36.73	301.11	12.08	-48.9	-49.7	21.8	0.00e+00	0	46	0	2105540608	60	12007
2026-01-30 15:55:39.75	301.68	12.03	-49.0	-49.8	21.6	0.00e+00	0	46	0	2126512128	60	12155
2026-01-30 15:55:42.78	302.25	11.97	-48.9	-49.7	21.8	0.00e+00	0	46	0	2149580800	60	11928
2026-01-30 15:55:45.81	302.82	11.91	-48.8	-49.6	21.9	0.00e+00	0	46	0	2170552320	60	11778
2026-01-30 15:55:48.83	303.38	11.85	-48.7	-49.5	22.0	0.00e+00	0	46	0	2192572416	60	11671
2026-01-30 15:55:51.85	303.94	11.79	-48.7	-49.5	21.9	0.00e+00	0	46	0	2214592512	60	11657
2026-01-30 15:55:54.88	304.50	11.73	-49.0	-49.8	21.6	0.00e+00	0	46	0	2236612608	60	12087
2026-01-30 15:55:57.89	305.06	11.66	-48.8	-49.6	21.7	0.00e+00	0	46	0	2258632704	60	11795
2026-01-30 15:56:00.91	305.61	11.59	-48.8	-49.6	21.7	0.00e+00	0	46	0	2279604224	60	11836
2026-01-30 15:56:03.94	306.16	11.52	-48.8	-49.6	21.7	0.00e+00	0	46	0	2301624320	60	11819
2026-01-30 15:56:06.97	306.71	11.44	-48.9	-49.7	21.6	0.00e+00	0	46	0	2323644416	60	11928
2026-01-30 15:56:09.99	307.26	11.37	-49.0	-49.8	21.3	0.00e+00	0	46	0	2345664512	60	12145
2026-01-30 15:56:13.02	307.80	11.29	-49.3	-50.1	21.0	0.00e+00	0	46	0	2367684608	60	12603
2026-01-30 15:56:16.03	308.34	11.21	-49.5	-50.4	20.8	0.00e+00	0	46	0	2388656128	60	12903
2026-01-30 15:56:19.05	308.88	11.13	-49.5	-50.4	20.7	0.00e+00	0	46	0	2410676224	60	13005
2026-01-30 15:56:22.07	309.41	11.05	-49.5	-50.4	20.6	0.00e+00	0	46	0	2432696320	60	13013
2026-01-30 15:56:25.09	309.94	10.96	-49.6	-50.5	20.3	0.00e+00	0	46	0	2454716416	60	13136
2026-01-30 15:56:28.12	310.47	10.87	-49.9	-50.9	19.6	0.00e+00	0	46	0	2476736512	60	13695
2026-01-30 15:56:31.14	311.00	10.79	-50.0	-51.0	19.5	0.00e+00	0	46	0	2497708032	60	13918
2026-01-30 15:56:34.16	311.52	10.69	-50.3	-51.4	19.1	0.00e+00	0	46	0	2519728128	60	14474
2026-01-30 15:56:37.19	312.04	10.60	-50.7	-51.8	18.6	0.00e+00	0	46	0	2541748224	60	15249
2026-01-30 15:56:40.21	312.56	10.51	-51.1	-52.3	18.2	0.00e+00	0	46	0	2563768320	60	16194
2026-01-30 15:56:43.23	313.07	10.41	-51.2	-52.5	17.9	0.00e+00	0	46	0	2585788416	60	16481
2026-01-30 15:56:46.25	313.58	10.31	-51.6	-52.9	17.4	0.00e+00	0	46	0	2606759936	60	17267
2026-01-30 15:56:49.27	314.08	10.22	-51.7	-53.1	17.1	0.00e+00	0	46	0	2628780032	60	17686
2026-01-30 15:56:52.30	314.59	10.11	-51.9	-53.4	16.7	0.00e+00	0	46	0	2650800128	60	18298
2026-01-30 15:56:55.32	315.09	10.01	-52.2	-53.8	16.2	0.00e+00	0	46	0	2672820224	60	19090
2026-01-30 15:56:58.34	315.58	9.91	-52.6	-54.4	15.6	0.00e+00	0	46	0	2694840320	60	20569
2026-01-30 15:57:01.36	316.07	9.80	-52.9	-54.9	14.9	0.00e+00	0	46	0	2715811840	60	21850
2026-01-30 15:57:04.39	316.56	9.70	-53.3	-55.6	14.2	0.00e+00	0	46	0	2738880512	60	23590
2026-01-30 15:57:07.41	317.05	9.59	-53.8	-56.1	13.6	1.71e-05	0	46	0	2759852032	60	25100
2026-01-30 15:57:10.43	317.53	9.48	-54.1	-56.6	13.1	3.31e-05	0	46	0	2781872128	60	26424
2026-01-30 15:57:13.45	318.01	9.37	-54.2	-56.9	12.6	9.26e-05	0	46	0	2803892224	60	27500
2026-01-30 15:57:16.48	318.49	9.26	-54.6	-57.6	11.9	4.35e-04	0	46	0	2825912320	60	29595
2026-01-30 15:57:19.49	318.96	9.15	-55.0	-58.3	11.0	2.12e-03	0	46	0	2847932416	60	32383
2026-01-30 15:57:22.51	319.42	9.03	-55.4	-59.2	10.1	7.44e-03	0	46	0	2868903936	60	35659
2026-01-30 15:57:25.53	319.89	8.92	-55.6	-59.9	9.2	1.79e-02	0	46	0	2890924032	60	38649
2026-01-30 15:57:28.55	320.35	8.80	-55.8	-60.4	8.5	4.11e-02	0	46	0	2911895552	60	41210
2026-01-30 15:57:31.57	320.81	8.69	-55.9	-60.9	7.9	7.26e-02	0	46	0	2933915648	60	43651
2026-01-30 15:57:34.58	321.26	8.57	-56.2	-61.6	7.1	1.32e-01	0	46	0	2955935744	60	46945
2026-01-30 15:57:37.60	321.71	8.45	-56.5	-62.3	6.3	2.37e-01	0	46	0	2977955840	60	50878
2026-01-30 15:57:40.63	322.16	8.33	-56.8	-63.9	4.8	8.10e-01	0	46	0	2992635904	60	61112
2026-01-30 15:57:43.65	322.60	8.21	-56.9	-63.6	4.9	7.46e-01	0	46	0	2997878784	60	59425
2026-01-30 15:57:46.68	323.04	8.09	-57.0	-64.1	4.6	7.87e-01	0	46	0	2998927360	60	62875
2026-01-30 15:57:49.69	323.47	7.97	-57.1	-65.0	4.0	8.22e-01	0	46	0	2998927360	60	69496
2026-01-30 15:57:52.72	323.91	7.84	-57.1	-66.1	3.8	8.42e-01	0	46	0	2998927360	60	79342
2026-01-30 15:57:55.74	324.34	7.72	-57.1	-67.8	3.8	8.43e-01	0	46	104	2998927360	60	96343
2026-01-30 15:57:58.76	324.76	7.59	-57.2	-68.6	3.6	8.45e-01	0	46	104	2998927360	60	105043
2026-01-30 15:58:01.77	325.18	7.47	-57.4	-69.2	3.6	8.45e-01	0	46	104	2998927360	60	113015
2026-01-30 15:58:04.78	325.60	7.34	-57.4	-69.5	3.6	8.45e-01	0	46	104	2998927360	60	116856
2026-01-30 15:58:07.79	326.01	7.22	-57.2	-69.8	3.6	8.46e-01	0	46	104	2998927360	60	121475
2026-01-30 15:58:10.81	326.42	7.09	-57.2	-70.0	3.6	8.44e-01	0	46	104	2998927360	60	124005
2026-01-30 15:58:13.83	326.83	6.96	-57.4	-70.2	3.6	8.45e-01	0	46	104	2998927360	60	127494
2026-01-30 15:58:16.86	327.24	6.84	-57.4	-70.3	3.6	8.46e-01	0	46	104	2998927360	60	127744
2026-01-30 15:58:19.87	327.64	6.71	-57.4	-70.3	3.6	8.45e-01	0	46	104	2998927360	60	128478
2026-01-30 15:58:22.89	328.04	6.58	-57.2	-70.1	3.6	8.45e-01	0	46	104	2998927360	60	125254
2026-01-30 15:58:25.92	328.43	6.45	-57.4	-70.3	3.6	8.45e-01	0	46	104	2998927360	60	127759
2026-01-30 15:58:28.94	328.82	6.32	-57.3	-70.1	3.6	8.47e-01	0	46	104	2998927360	60	124820
2026-01-30 15:58:31.96	329.21	6.19	-57.3	-70.1	3.6	8.46e-01	0	46	104	2998927360	60	124861
2026-01-30 15:58:34.98	329.59	6.06	-56.9	-69.8	3.6	8.44e-01	0	46	104	2998927360	60	120433
2026-01-30 15:58:38.00	329.97	5.92	-57.8	-70.9	3.6	8.46e-01	0	46	104	2998927360	60	137746
2026-01-30 15:58:41.02	330.35	5.79	-59.0	-71.9	3.6	8.46e-01	0	46	104	2998927360	60	153983
2026-01-30 15:58:44.05	330.73	5.66	-60.0	-72.8	3.6	8.46e-01	0	46	104	2998927360	60	171956
2026-01-30 15:58:47.07	331.10	5.53	-60.2	-73.1	3.6	8.46e-01	0	46	104	2998927360	60	177283
2026-01-30 15:58:50.09	331.47	5.40	-60.3	-73.4	3.6	8.45e-01	0	46	104	2998927360	60	182683
2026-01-30 15:58:53.10	331.83	5.26	-60.4	-73.2	3.6	8.45e-01	0	46	104	2998927360	60	179384
2026-01-30 15:58:56.12	332.19	5.13	-60.8	-73.7	3.6	8.44e-01	0	46	104	2998927360	60	189425
2026-01-30 15:58:59.15	332.55	5.00	-60.9	-73.9	3.6	8.45e-01	0	46	104	2998927360	60	193287
2026-01-30 15:59:02.16	332.91	4.86	-60.6	-73.3	3.6	8.45e-01	0	46	104	2998927360	60	181375
2026-01-30 15:59:05.18	333.26	4.73	-61.0	-73.9	3.6	8.45e-01	0	46	104	2998927360	60	194245
2026-01-30 15:59:08.20	333.61	4.59	-61.1	-74.2	3.6	8.46e-01	0	46	104	2998927360	60	201816
2026-01-30 15:59:11.22	333.95	4.46	-60.7	-73.7	3.6	8.45e-01	0	46	104	2998927360	60	189392
2026-01-30 15:59:14.24	334.30	4.33	-61.4	-74.2	3.6	8.45e-01	0	46	104	2998927360	60	200407
2026-01-30 15:59:17.25	334.64	4.19	-61.3	-74.1	3.6	8.44e-01	0	46	104	2998927360	60	198477
2026-01-30 15:59:20.27	334.97	4.06	-61.2	-74.1	3.6	8.45e-01	0	46	104	2998927360	60	198334
2026-01-30 15:59:23.30	335.31	3.92	-61.2	-74.1	3.6	8.44e-01	0	46	104	2998927360	60	199074
2026-01-30 15:59:26.32	335.64	3.79	-61.2	-74.0	3.6	8.46e-01	0	46	104	2998927360	60	197274
2026-01-30 15:59:29.33	335.97	3.65	-61.1	-73.9	3.6	8.46e-01	0	46	104	2998927360	60	194718
2026-01-30 15:59:32.35	336.29	3.52	-61.1	-73.9	3.6	8.45e-01	0	46	104	2998927360	60	193713
2026-01-30 15:59:35.36	336.61	3.38	-61.0	-74.0	3.6	8.45e-01	0	46	104	2998927360	60	195377
2026-01-30 15:59:38.37	336.93	3.25	-61.0	-73.8	3.6	8.45e-01	0	46	104	2998927360	60	192522
2026-01-30 15:59:41.40	337.25	3.11	-60.9	-73.9	3.5	8.46e-01	0	46	104	2998927360	60	193297
2026-01-30 15:59:44.42	337.56	2.98	-60.9	-73.8	3.6	8.45e-01	0	46	104	2998927360	60	191903
2026-01-30 15:59:47.44	337.88	2.84	-60.9	-73.8	3.6	8.46e-01	0	46	104	2998927360	60	192179
2026-01-30 15:59:50.46	338.18	2.71	-60.9	-73.8	3.6	8.46e-01	0	46	104	2998927360	60	190898
2026-01-30 15:59:53.49	338.49	2.57	-60.9	-73.7	3.6	8.45e-01	0	46	104	2998927360	60	190548
2026-01-30 15:59:56.51	338.80	2.44	-60.9	-73.8	3.6	8.44e-01	0	46	104	2998927360	60	191063
2026-01-30 15:59:59.53	339.10	2.30	-60.9	-73.8	3.6	8.45e-01	0	46	104	2998927360	60	191046
2026-01-30 16:00:02.55	339.39	2.17	-60.9	-73.7	3.6	8.45e-01	0	46	104	2998927360	60	189699
2026-01-30 16:00:05.57	339.69	2.03	-60.9	-73.8	3.6	8.44e-01	0	46	104	2998927360	60	191227
2026-01-30 16:00:08.59	339.98	1.90	-60.9	-73.7	3.6	8.45e-01	0	46	104	2998927360	60	189963
2026-01-30 16:00:11.60	340.27	1.76	-60.9	-73.8	3.6	8.46e-01	0	46	104	2998927360	60	192922
2026-01-30 16:00:14.62	340.56	1.63	-60.9	-73.8	3.6	8.46e-01	0	46	104	2998927360	60	190885
2026-01-30 16:00:17.64	340.85	1.49	-60.9	-73.7	3.6	8.45e-01	0	46	104	2998927360	60	190176
2026-01-30 16:00:20.66	341.13	1.36	-60.9	-73.8	3.6	8.45e-01	0	46	104	2998927360	60	190947
2026-01-30 16:00:23.68	341.41	1.22	-60.9	-73.7	3.6	8.46e-01	0	46	104	2998927360	60	189672
2026-01-30 16:00:26.69	341.69	1.09	-60.9	-73.7	3.6	8.46e-01	0	46	104	2998927360	60	189822
2026-01-30 16:00:29.71	341.97	0.96	-60.9	-73.7	3.6	8.45e-01	0	46	104	2998927360	60	189715
2026-01-30 16:00:32.72	342.24	0.82	-60.9	-73.7	3.6	8.45e-01	0	46	104	2998927360	60	190515
2026-01-30 16:00:35.73	342.51	0.69	-60.9	-73.7	3.6	8.46e-01	0	46	104	2998927360	60	190517
2026-01-30 16:00:38.75	342.78	0.55	-60.9	-73.7	3.6	8.45e-01	0	46	104	2998927360	60	189242
2026-01-30 16:00:41.76	343.04	0.42	-60.9	-73.7	3.6	8.45e-01	0	46	104	2998927360	60	190443
2026-01-30 16:00:44.78	343.31	0.29	-60.9	-73.7	3.6	8.45e-01	0	46	104	2998927360	60	190380
2026-01-30 16:00:47.79	343.57	0.15	-60.9	-73.7	3.5	8.46e-01	0	46	104	2998927360	60	189771
2026-01-30 16:00:50.80	343.83	0.02	-60.9	-73.7	3.6	8.45e-01	0	46	104	2998927360	60	189445

#Closed at: 2026-01-30 16:00:53
#Recorded file [2998 MB]: D:/Data/35015_260130_185756.dat