passes_logs/2026/01/30/R3.2S-Naryan-Mar/R3.2S-Naryan-Mar__20260130_040801_FENGYUN_3E_rec.log

#Pass ID: 20260130_040801_FENGYUN 3E
#Satellite: FENGYUN 3E
#Configuration: FENGYUN 3E
#almurnet v.1.7.20240730
#Start time: 2026-01-30 04:08:03

#Version: 2.2.20231116
#Station: R3.2S-Naryan-Mar
#Location: 53.008057 lon 67.646978 lat
#TLE: 1 49008U 21062A   26029.52207456 -.00000035  00000+0  41692-5 0  9997
#TLE: 2 49008  98.7499  34.4814 0002557 110.8023 249.3427 14.19887743236900

#Time	Az	El	Level	Level2	SNR	BER	BlckErr	Temp	State	Recorded	gain1	gain2
2026-01-30 04:08:03.53	25.56	0.14	-60.1	-73.1	3.3	8.40e-01	0	44	0	0	60	177122
2026-01-30 04:08:07.54	25.51	0.38	-61.8	-75.2	3.6	8.44e-01	0	45	104	0	60	226208
2026-01-30 04:08:11.57	25.47	0.62	-61.3	-74.1	3.6	8.45e-01	0	45	104	0	60	198710
2026-01-30 04:08:15.59	25.42	0.87	-60.6	-74.6	3.6	8.46e-01	0	45	104	0	60	210321
2026-01-30 04:08:19.62	25.37	1.11	-60.7	-74.1	3.6	8.46e-01	0	45	104	0	60	197569
2026-01-30 04:08:23.64	25.33	1.36	-57.5	-74.3	3.6	8.45e-01	0	45	104	0	60	203280
2026-01-30 04:08:27.67	25.28	1.61	-57.3	-73.1	3.5	8.46e-01	0	45	104	0	60	176121
2026-01-30 04:08:31.70	25.23	1.87	-57.9	-70.4	3.6	8.46e-01	0	45	104	0	60	129690
2026-01-30 04:08:35.72	25.17	2.12	-54.0	-65.4	3.6	8.45e-01	0	45	104	0	60	73162
2026-01-30 04:08:39.73	25.12	2.38	-52.8	-64.6	3.6	8.44e-01	0	45	104	0	60	66530
2026-01-30 04:08:43.76	25.07	2.64	-52.8	-64.7	3.6	8.45e-01	0	45	104	0	60	67257
2026-01-30 04:08:47.79	25.01	2.90	-52.8	-64.7	3.6	8.44e-01	0	45	104	0	60	67066
2026-01-30 04:08:51.82	24.95	3.17	-52.6	-64.6	3.6	8.44e-01	0	45	104	0	60	66623
2026-01-30 04:08:55.84	24.90	3.44	-52.6	-64.4	3.6	8.45e-01	0	45	104	0	60	65232
2026-01-30 04:08:59.86	24.84	3.71	-52.4	-64.4	3.6	8.45e-01	0	45	104	0	60	64931
2026-01-30 04:09:03.89	24.77	3.98	-52.4	-64.1	3.6	8.46e-01	0	45	104	0	60	62973
2026-01-30 04:09:07.91	24.71	4.26	-52.3	-64.1	3.6	8.46e-01	0	46	104	0	60	62501
2026-01-30 04:09:11.93	24.65	4.53	-52.2	-63.9	3.6	8.45e-01	0	46	104	0	60	61391
2026-01-30 04:09:15.96	24.58	4.81	-52.1	-63.5	3.6	8.45e-01	0	46	104	0	60	58718
2026-01-30 04:09:19.98	24.51	5.10	-51.6	-58.9	4.3	8.29e-01	0	45	0	0	60	34714
2026-01-30 04:09:24.01	24.44	5.39	-50.2	-54.5	8.0	7.61e-02	0	46	0	17825792	60	20828
2026-01-30 04:09:28.03	24.37	5.68	-48.9	-51.9	10.6	2.07e-03	0	46	0	47185920	60	15361
2026-01-30 04:09:32.05	24.30	5.97	-48.8	-51.6	11.1	7.66e-04	0	46	0	76546048	60	14863
2026-01-30 04:09:36.08	24.23	6.27	-50.6	-54.2	9.5	2.00e-03	0	46	0	105906176	60	20157
2026-01-30 04:09:40.10	24.15	6.57	-49.9	-52.5	11.8	2.18e-04	0	46	0	131072000	60	16553
2026-01-30 04:09:44.12	24.07	6.87	-49.4	-51.8	12.7	2.05e-05	0	46	0	160432128	60	15205
2026-01-30 04:09:48.14	23.99	7.18	-49.7	-52.3	12.9	6.80e-06	0	46	0	188743680	60	16071
2026-01-30 04:09:52.18	23.91	7.49	-49.5	-51.5	15.1	0.00e+00	0	46	0	218103808	60	14687
2026-01-30 04:09:56.20	23.82	7.80	-50.2	-51.6	16.1	0.00e+00	0	46	0	247463936	60	14962
2026-01-30 04:10:00.23	23.74	8.12	-49.9	-51.7	16.4	0.00e+00	0	46	0	275775488	60	15132
2026-01-30 04:10:04.26	23.65	8.45	-49.5	-51.8	14.8	0.00e+00	0	46	0	306184192	60	15201
2026-01-30 04:10:08.29	23.56	8.77	-49.9	-52.7	12.5	3.77e-05	0	46	0	334495744	60	16839
2026-01-30 04:10:12.31	23.46	9.10	-50.7	-53.6	11.3	5.87e-04	0	46	0	363855872	60	18839
2026-01-30 04:10:16.33	23.37	9.44	-51.0	-53.7	12.1	1.62e-04	0	46	0	392167424	60	19070
2026-01-30 04:10:20.35	23.27	9.78	-51.5	-54.8	13.5	4.50e-06	0	46	0	421527552	60	21502
2026-01-30 04:10:24.38	23.16	10.12	-52.2	-55.9	13.9	5.70e-06	0	46	0	450887680	60	24431
2026-01-30 04:10:28.40	23.06	10.47	-52.9	-57.5	10.9	6.35e-04	0	46	0	480247808	60	29357
2026-01-30 04:10:32.42	22.95	10.83	-52.6	-58.2	8.0	6.14e-02	0	46	0	508559360	60	31664
2026-01-30 04:10:36.43	22.84	11.18	-51.6	-59.9	4.9	6.57e-01	0	46	0	534773760	60	38660
2026-01-30 04:10:40.46	22.73	11.55	-51.1	-54.2	14.7	9.10e-06	0	46	0	552599552	60	20031
2026-01-30 04:10:44.48	22.61	11.92	-49.2	-51.2	14.9	0.00e+00	0	46	0	581959680	60	14231
2026-01-30 04:10:48.50	22.49	12.29	-49.1	-51.1	14.5	0.00e+00	0	46	0	610271232	60	14068
2026-01-30 04:10:52.51	22.37	12.67	-48.5	-51.3	14.4	0.00e+00	0	46	0	639631360	60	14330
2026-01-30 04:10:56.52	22.24	13.06	-47.5	-50.1	17.0	0.00e+00	0	46	0	667942912	60	12559
2026-01-30 04:11:00.54	22.11	13.45	-48.8	-50.4	18.3	0.00e+00	0	46	0	697303040	60	12987
2026-01-30 04:11:04.57	21.97	13.85	-49.8	-51.0	19.4	0.00e+00	0	46	0	726663168	60	13906
2026-01-30 04:11:08.59	21.83	14.25	-50.7	-52.3	18.9	0.00e+00	0	46	0	754974720	60	16232
2026-01-30 04:11:12.62	21.69	14.67	-52.4	-53.9	17.7	0.00e+00	0	46	0	784334848	60	19430
2026-01-30 04:11:16.64	21.54	15.09	-52.9	-54.7	17.0	0.00e+00	0	46	0	813694976	60	21354
2026-01-30 04:11:20.67	21.38	15.51	-54.0	-56.7	14.1	0.00e+00	0	46	0	843055104	60	26720
2026-01-30 04:11:24.70	21.22	15.95	-54.1	-57.0	13.2	7.32e-05	0	46	0	871366656	60	27671
2026-01-30 04:11:28.72	21.06	16.39	-54.7	-57.6	12.5	1.28e-04	0	46	0	900726784	60	29871
2026-01-30 04:11:32.74	20.89	16.84	-55.9	-59.8	10.2	5.55e-03	0	46	0	929038336	60	38194
2026-01-30 04:11:36.77	20.72	17.29	-55.7	-59.4	9.6	6.73e-03	0	46	0	959447040	60	36630
2026-01-30 04:11:40.79	20.53	17.76	-51.3	-52.8	18.4	0.00e+00	0	46	0	987758592	60	17080
2026-01-30 04:11:44.80	20.35	18.23	-48.3	-49.6	22.2	0.00e+00	0	46	0	1017118720	60	11897
2026-01-30 04:11:48.83	20.15	18.72	-48.7	-50.4	22.0	0.00e+00	0	46	0	1045430272	60	12916
2026-01-30 04:11:52.86	19.95	19.21	-47.8	-48.8	23.3	0.00e+00	0	46	0	1074790400	60	10733
2026-01-30 04:11:56.88	19.75	19.71	-47.4	-48.5	23.3	0.00e+00	0	46	0	1104150528	60	10427
2026-01-30 04:12:00.91	19.53	20.22	-47.4	-48.6	23.4	0.00e+00	0	46	0	1132462080	60	10502
2026-01-30 04:12:04.94	19.31	20.75	-47.1	-48.0	24.0	0.00e+00	0	46	0	1161822208	60	9862
2026-01-30 04:12:08.97	19.07	21.28	-46.7	-47.7	24.6	0.00e+00	0	46	0	1191182336	60	9501
2026-01-30 04:12:12.99	18.83	21.82	-47.1	-47.9	24.2	0.00e+00	0	46	0	1220542464	60	9688
2026-01-30 04:12:17.01	18.58	22.38	-46.7	-47.4	24.3	0.00e+00	0	46	0	1248854016	60	9217
2026-01-30 04:12:21.04	18.33	22.95	-46.6	-47.3	24.5	0.00e+00	0	46	0	1278214144	60	9095
2026-01-30 04:12:25.06	18.06	23.53	-46.8	-47.5	24.1	0.00e+00	0	46	0	1307574272	60	9341
2026-01-30 04:12:29.08	17.78	24.12	-47.1	-47.9	24.2	0.00e+00	0	46	0	1336934400	60	9765
2026-01-30 04:12:33.10	17.48	24.72	-47.3	-48.1	24.2	0.00e+00	0	46	0	1365245952	60	9983
2026-01-30 04:12:37.14	17.18	25.34	-47.9	-48.9	23.4	0.00e+00	0	46	0	1394606080	60	10857
2026-01-30 04:12:41.15	16.86	25.97	-48.9	-49.8	22.5	0.00e+00	0	46	0	1423966208	60	12173
2026-01-30 04:12:45.18	16.53	26.62	-48.8	-49.7	21.6	0.00e+00	0	46	0	1452277760	60	11981
2026-01-30 04:12:49.20	16.19	27.28	-48.2	-49.1	22.1	0.00e+00	0	46	0	1481637888	60	11201
2026-01-30 04:12:53.23	15.83	27.95	-47.1	-47.9	23.4	0.00e+00	0	46	0	1510998016	60	9756
2026-01-30 04:12:57.26	15.45	28.64	-46.5	-47.3	24.6	0.00e+00	0	46	0	1540358144	60	9070
2026-01-30 04:13:01.29	15.05	29.35	-46.2	-46.9	25.4	0.00e+00	0	46	0	1568669696	60	8677
2026-01-30 04:13:05.32	14.64	30.08	-46.4	-47.2	25.3	0.00e+00	0	46	0	1598029824	60	8956
2026-01-30 04:13:09.35	14.21	30.82	-46.2	-47.1	25.1	0.00e+00	0	46	0	1627389952	60	8847
2026-01-30 04:13:13.38	13.75	31.58	-46.6	-47.4	25.0	0.00e+00	0	46	0	1656750080	60	9206
2026-01-30 04:13:17.40	13.27	32.35	-46.5	-47.4	24.5	0.00e+00	0	46	0	1685061632	60	9231
2026-01-30 04:13:21.43	12.77	33.15	-47.1	-47.9	24.5	0.00e+00	0	46	0	1714421760	60	9680
2026-01-30 04:13:25.45	12.25	33.96	-47.0	-47.7	25.0	0.00e+00	0	46	0	1743781888	60	9518
2026-01-30 04:13:29.48	11.69	34.79	-46.6	-47.3	25.6	0.00e+00	0	46	0	1772093440	60	9045
2026-01-30 04:13:33.50	11.10	35.64	-46.5	-47.2	25.0	0.00e+00	0	46	0	1801453568	60	8968
2026-01-30 04:13:37.52	10.49	36.51	-46.5	-47.3	24.6	0.00e+00	0	46	0	1830813696	60	9114
2026-01-30 04:13:41.54	9.83	37.40	-46.9	-47.6	24.9	0.00e+00	0	46	0	1859125248	60	9400
2026-01-30 04:13:45.56	9.14	38.31	-46.4	-47.1	25.5	0.00e+00	0	46	0	1888485376	60	8914
2026-01-30 04:13:49.57	8.41	39.24	-46.8	-47.5	24.9	0.00e+00	0	46	0	1917845504	60	9297
2026-01-30 04:13:53.60	7.63	40.19	-47.6	-48.3	24.1	0.00e+00	0	46	0	1946157056	60	10202
2026-01-30 04:13:57.61	6.81	41.16	-48.3	-49.1	23.4	0.00e+00	0	46	0	1975517184	60	11134
2026-01-30 04:14:01.64	5.93	42.15	-48.8	-49.6	23.3	0.00e+00	0	46	0	2003828736	60	11823
2026-01-30 04:14:05.65	5.00	43.15	-49.5	-50.4	21.4	0.00e+00	0	46	0	2034237440	60	13017
2026-01-30 04:14:09.67	4.01	44.18	-50.8	-51.8	20.2	0.00e+00	0	46	0	2062548992	60	15195
2026-01-30 04:14:13.67	2.95	45.21	-48.8	-49.6	22.3	0.00e+00	0	46	0	2091909120	60	11866
2026-01-30 04:14:17.69	1.81	46.27	-47.5	-48.2	23.1	0.00e+00	0	46	0	2120220672	60	10107
2026-01-30 04:14:21.71	0.60	47.34	-49.2	-50.1	21.7	0.00e+00	0	46	0	2149580800	60	12537
2026-01-30 04:14:25.73	359.29	48.42	-49.4	-50.2	21.6	0.00e+00	0	46	0	2177892352	60	12742
2026-01-30 04:14:29.74	357.89	49.51	-48.3	-49.2	22.1	0.00e+00	0	46	0	2207252480	60	11287
2026-01-30 04:14:33.78	356.38	50.62	-48.3	-49.2	22.2	0.00e+00	0	46	0	2236612608	60	11265
2026-01-30 04:14:37.81	354.75	51.73	-48.8	-49.6	22.5	0.00e+00	0	46	0	2265972736	60	11890
2026-01-30 04:14:41.84	353.00	52.83	-48.2	-49.0	22.9	0.00e+00	0	46	0	2294284288	60	11064
2026-01-30 04:14:45.86	351.11	53.93	-48.8	-49.6	23.3	0.00e+00	0	46	0	2323644416	60	11839
2026-01-30 04:14:49.87	349.08	55.01	-49.8	-50.7	22.1	0.00e+00	0	46	0	2353004544	60	13357
2026-01-30 04:14:53.90	346.87	56.09	-48.2	-49.0	22.5	0.00e+00	0	46	0	2381316096	60	11043
2026-01-30 04:14:57.92	344.50	57.13	-48.7	-49.5	23.1	0.00e+00	0	46	0	2410676224	60	11746
2026-01-30 04:15:01.94	341.94	58.15	-47.6	-48.3	23.9	0.00e+00	0	46	0	2440036352	60	10159
2026-01-30 04:15:05.97	339.17	59.12	-48.1	-48.9	24.2	0.00e+00	0	46	0	2469396480	60	10886
2026-01-30 04:15:10.00	336.20	60.04	-48.3	-49.1	23.8	0.00e+00	0	46	0	2497708032	60	11178
2026-01-30 04:15:14.02	333.01	60.90	-47.5	-48.3	24.2	0.00e+00	0	46	0	2527068160	60	10172
2026-01-30 04:15:18.03	329.62	61.69	-48.2	-49.0	23.7	0.00e+00	0	46	0	2555379712	60	10996
2026-01-30 04:15:22.07	325.99	62.39	-48.6	-49.4	23.5	0.00e+00	0	46	0	2585788416	60	11522
2026-01-30 04:15:26.10	322.17	63.00	-48.5	-49.3	23.5	0.00e+00	0	46	0	2614099968	60	11414
2026-01-30 04:15:30.12	318.18	63.50	-49.3	-50.1	22.2	0.00e+00	0	46	0	2643460096	60	12600
2026-01-30 04:15:34.14	314.03	63.88	-48.7	-49.5	23.0	0.00e+00	0	46	0	2671771648	60	11696
2026-01-30 04:15:38.17	309.76	64.13	-47.8	-48.6	23.8	0.00e+00	0	46	0	2701131776	60	10533
2026-01-30 04:15:42.20	305.41	64.26	-46.5	-47.2	25.2	0.00e+00	0	46	0	2730491904	60	8927
2026-01-30 04:15:46.23	301.04	64.25	-46.6	-47.3	24.9	0.00e+00	0	46	0	2759852032	60	9051
2026-01-30 04:15:50.25	296.71	64.11	-47.1	-47.8	24.3	0.00e+00	0	46	0	2789212160	60	9666
2026-01-30 04:15:54.28	292.45	63.84	-47.0	-47.8	24.5	0.00e+00	0	46	0	2817523712	60	9568
2026-01-30 04:15:58.30	288.32	63.44	-47.7	-48.5	24.3	0.00e+00	0	46	0	2846883840	60	10444
2026-01-30 04:16:02.33	284.33	62.93	-47.6	-48.4	24.3	0.00e+00	0	46	0	2875195392	60	10318
2026-01-30 04:16:06.35	280.54	62.31	-48.1	-48.9	24.0	0.00e+00	0	46	0	2905604096	60	10866
2026-01-30 04:16:10.38	276.94	61.60	-47.8	-48.6	24.3	0.00e+00	0	46	0	2933915648	60	10542
2026-01-30 04:16:14.40	273.56	60.80	-47.5	-48.2	24.8	0.00e+00	0	46	0	2963275776	60	10122
2026-01-30 04:16:18.42	270.40	59.93	-47.7	-48.5	24.3	0.00e+00	0	46	0	2991587328	60	10386
2026-01-30 04:16:22.45	267.45	59.00	-48.4	-49.2	23.8	0.00e+00	0	46	0	3020947456	60	11256
2026-01-30 04:16:26.46	264.72	58.02	-47.6	-48.3	24.4	0.00e+00	0	46	0	3050307584	60	10225
2026-01-30 04:16:30.49	262.17	57.00	-47.6	-48.4	24.3	0.00e+00	0	46	0	3078619136	60	10293
2026-01-30 04:16:34.51	259.82	55.95	-47.7	-48.5	24.1	0.00e+00	0	46	0	3107979264	60	10426
2026-01-30 04:16:38.54	257.63	54.87	-47.3	-48.0	24.3	0.00e+00	0	46	0	3137339392	60	9863
2026-01-30 04:16:42.57	255.60	53.78	-47.6	-48.4	24.2	0.00e+00	0	46	0	3166699520	60	10277
2026-01-30 04:16:46.59	253.73	52.67	-47.2	-47.9	24.4	0.00e+00	0	46	0	3195011072	60	9731
2026-01-30 04:16:50.62	251.99	51.56	-47.9	-48.7	23.7	0.00e+00	0	46	0	3224371200	60	10673
2026-01-30 04:16:54.64	250.38	50.46	-47.5	-48.3	23.8	0.00e+00	0	46	0	3252682752	60	10139
2026-01-30 04:16:58.66	248.88	49.36	-47.2	-47.9	24.5	0.00e+00	0	46	0	3283091456	60	9728
2026-01-30 04:17:02.69	247.49	48.26	-47.8	-48.5	23.8	0.00e+00	0	46	0	3311403008	60	10478
2026-01-30 04:17:06.71	246.19	47.17	-47.0	-47.8	24.4	0.00e+00	0	46	0	3340763136	60	9583
2026-01-30 04:17:10.74	244.98	46.10	-46.2	-46.9	25.1	0.00e+00	0	46	0	3369074688	60	8668
2026-01-30 04:17:14.77	243.85	45.04	-46.4	-47.1	24.7	0.00e+00	0	46	0	3398434816	60	8879
2026-01-30 04:17:18.79	242.80	43.99	-46.7	-47.4	24.5	0.00e+00	0	46	0	3427794944	60	9192
2026-01-30 04:17:22.82	241.80	42.97	-47.3	-48.0	23.5	0.00e+00	0	46	0	3457155072	60	9885
2026-01-30 04:17:26.84	240.88	41.96	-47.9	-48.7	23.3	0.00e+00	0	46	0	3485466624	60	10630
2026-01-30 04:17:30.85	240.01	40.97	-47.6	-48.3	23.5	0.00e+00	0	46	0	3514826752	60	10218
2026-01-30 04:17:34.87	239.19	40.01	-46.0	-46.7	24.7	0.00e+00	0	46	0	3544186880	60	8495
2026-01-30 04:17:38.90	238.42	39.05	-46.4	-47.2	24.6	0.00e+00	0	46	0	3572498432	60	8945
2026-01-30 04:17:42.91	237.69	38.13	-46.4	-47.1	23.9	0.00e+00	0	46	0	3601858560	60	8872
2026-01-30 04:17:46.92	237.01	37.22	-47.4	-48.2	23.6	0.00e+00	0	46	0	3630170112	60	10091
2026-01-30 04:17:50.94	236.36	36.33	-48.5	-49.4	22.8	0.00e+00	0	46	0	3659530240	60	11546
2026-01-30 04:17:54.97	235.74	35.46	-48.9	-49.8	21.9	0.00e+00	0	46	0	3688890368	60	12042
2026-01-30 04:17:58.99	235.16	34.61	-50.2	-51.2	20.8	0.00e+00	0	46	0	3718250496	60	14175
2026-01-30 04:18:02.99	234.61	33.78	-51.8	-53.0	19.0	0.00e+00	0	46	0	3746562048	60	17586
2026-01-30 04:18:07.02	234.08	32.97	-53.6	-55.2	17.4	0.00e+00	0	46	0	3775922176	60	22418
2026-01-30 04:18:11.05	233.58	32.17	-55.8	-58.2	13.1	6.80e-06	0	46	0	3805282304	60	31855
2026-01-30 04:18:15.08	233.11	31.40	-56.5	-59.7	12.0	6.67e-04	0	46	0	3834642432	60	37715
2026-01-30 04:18:19.10	232.65	30.64	-57.8	-62.3	9.3	1.24e-02	0	46	0	3862953984	60	51122
2026-01-30 04:18:23.13	232.22	29.90	-58.2	-63.2	7.6	6.70e-02	0	46	0	3892314112	60	56851
2026-01-30 04:18:27.15	231.81	29.18	-58.5	-64.3	6.1	2.37e-01	0	46	0	3921674240	60	64248
2026-01-30 04:18:31.18	231.42	28.47	-52.7	-54.2	17.5	0.00e+00	0	46	0	3949985792	60	20046
2026-01-30 04:18:35.20	231.04	27.78	-46.1	-46.9	24.1	0.00e+00	0	46	0	3979345920	60	8648
2026-01-30 04:18:39.23	230.68	27.10	-46.1	-46.8	24.2	0.00e+00	0	46	0	4007657472	60	8600
2026-01-30 04:18:43.25	230.33	26.44	-45.5	-46.2	24.6	0.00e+00	0	46	0	4037017600	60	8036
2026-01-30 04:18:47.27	230.00	25.80	-45.5	-46.2	24.7	0.00e+00	0	46	0	4066377728	60	8025
2026-01-30 04:18:51.30	229.69	25.16	-45.5	-46.3	24.5	0.00e+00	0	46	0	4095737856	60	8053
2026-01-30 04:18:55.33	229.38	24.55	-46.0	-46.7	24.1	0.00e+00	0	46	0	4124049408	60	8493
2026-01-30 04:18:59.35	229.09	23.94	-46.3	-47.0	23.8	0.00e+00	0	46	0	4154458112	60	8804
2026-01-30 04:19:03.38	228.81	23.35	-47.7	-48.6	22.5	0.00e+00	0	46	0	4182769664	60	10558
2026-01-30 04:19:07.41	228.54	22.77	-48.2	-49.2	21.9	0.00e+00	0	46	0	4212129792	60	11239
2026-01-30 04:19:11.43	228.28	22.20	-49.6	-50.6	20.6	0.00e+00	0	46	0	4240441344	60	13351
2026-01-30 04:19:15.45	228.03	21.65	-50.6	-51.8	19.4	0.00e+00	0	46	0	4269801472	60	15273
2026-01-30 04:19:19.47	227.79	21.11	-52.5	-54.1	17.0	0.00e+00	0	46	0	4299161600	60	19819
2026-01-30 04:19:23.49	227.56	20.57	-53.8	-55.8	15.4	0.00e+00	0	46	0	4327473152	60	24292
2026-01-30 04:19:27.52	227.33	20.05	-55.2	-57.8	12.9	1.14e-05	0	46	0	4356833280	60	30571
2026-01-30 04:19:31.55	227.12	19.54	-56.2	-59.6	11.4	8.67e-04	0	46	0	4386193408	60	37244
2026-01-30 04:19:35.58	226.91	19.04	-56.7	-60.5	9.7	6.82e-03	0	46	0	4415553536	60	41642
2026-01-30 04:19:39.60	226.71	18.54	-57.5	-62.4	7.8	7.26e-02	0	46	0	4443865088	60	51583
2026-01-30 04:19:43.63	226.51	18.06	-58.0	-64.2	5.5	4.66e-01	0	46	0	4472176640	60	63228
2026-01-30 04:19:47.67	226.32	17.58	-50.0	-51.2	19.2	0.00e+00	0	46	0	4492099584	60	14174
2026-01-30 04:19:51.69	226.14	17.12	-47.4	-48.3	22.5	0.00e+00	0	46	0	4521459712	60	10180
2026-01-30 04:19:55.71	225.96	16.66	-48.1	-49.0	21.8	0.00e+00	0	46	0	4549771264	60	11029
2026-01-30 04:19:59.74	225.79	16.21	-49.0	-50.0	20.8	0.00e+00	0	46	0	4579131392	60	12399
2026-01-30 04:20:03.76	225.63	15.77	-50.0	-51.1	19.6	0.00e+00	0	46	0	4608491520	60	14136
2026-01-30 04:20:07.79	225.47	15.34	-51.2	-52.5	18.3	0.00e+00	0	46	0	4637851648	60	16543
2026-01-30 04:20:11.83	225.31	14.91	-52.2	-53.8	16.9	0.00e+00	0	46	0	4666163200	60	19156
2026-01-30 04:20:15.86	225.16	14.49	-53.3	-55.1	15.5	0.00e+00	0	46	0	4695523328	60	22384
2026-01-30 04:20:19.87	225.02	14.08	-55.0	-57.7	12.5	5.83e-05	0	46	0	4724883456	60	30168
2026-01-30 04:20:23.90	224.87	13.67	-56.4	-60.5	9.6	7.00e-03	0	46	0	4753195008	60	41372
2026-01-30 04:20:27.93	224.74	13.27	-55.2	-58.1	12.4	2.23e-04	0	46	0	4782555136	60	31345
2026-01-30 04:20:31.95	224.60	12.88	-54.6	-57.1	12.6	4.23e-05	0	46	0	4811915264	60	28143
2026-01-30 04:20:35.97	224.47	12.50	-55.4	-58.6	11.4	1.07e-03	0	46	0	4841275392	60	33388
2026-01-30 04:20:40.01	224.35	12.11	-55.5	-59.0	10.6	5.21e-03	0	46	0	4869586944	60	35081
2026-01-30 04:20:44.03	224.22	11.74	-51.9	-53.6	16.3	0.00e+00	0	46	0	4898947072	60	18745
2026-01-30 04:20:48.05	224.10	11.37	-48.2	-49.2	20.5	0.00e+00	0	46	0	4928307200	60	11319
2026-01-30 04:20:52.06	223.99	11.01	-48.0	-49.0	20.8	0.00e+00	0	46	0	4957667328	60	11058
2026-01-30 04:20:56.09	223.88	10.65	-48.5	-49.5	20.1	0.00e+00	0	46	0	4985978880	60	11724
2026-01-30 04:21:00.12	223.77	10.29	-49.6	-50.9	18.6	0.00e+00	0	46	0	5015339008	60	13673
2026-01-30 04:21:04.14	223.66	9.94	-51.5	-53.1	16.4	0.00e+00	0	46	0	5043650560	60	17784
2026-01-30 04:21:08.16	223.56	9.60	-52.7	-54.8	14.6	0.00e+00	0	46	0	5073010688	60	21645
2026-01-30 04:21:12.19	223.45	9.26	-53.9	-56.7	12.2	8.12e-05	0	46	0	5102370816	60	26937
2026-01-30 04:21:16.21	223.36	8.93	-54.7	-58.3	10.4	3.99e-03	0	46	0	5130682368	60	32265
2026-01-30 04:21:20.24	223.26	8.59	-55.6	-60.5	7.9	4.07e-02	0	46	0	5160042496	60	41399
2026-01-30 04:21:24.26	223.17	8.27	-56.0	-62.1	6.1	2.66e-01	0	46	0	5189402624	60	49630
2026-01-30 04:21:28.29	223.07	7.95	-53.1	-55.5	14.3	1.08e-03	0	46	0	5204082688	60	23432
2026-01-30 04:21:32.32	222.98	7.63	-48.6	-49.8	19.1	0.00e+00	0	46	0	5233442816	60	12049
2026-01-30 04:21:36.34	222.90	7.31	-49.5	-50.8	18.2	0.00e+00	0	46	0	5262802944	60	13616
2026-01-30 04:21:40.37	222.81	7.00	-50.2	-51.7	17.5	0.00e+00	0	46	0	5292163072	60	15015
2026-01-30 04:21:44.39	222.73	6.69	-51.2	-53.0	16.0	0.00e+00	0	46	0	5320474624	60	17445
2026-01-30 04:21:48.42	222.65	6.39	-51.6	-53.5	15.3	0.00e+00	0	46	0	5349834752	60	18518
2026-01-30 04:21:52.44	222.57	6.09	-51.5	-53.4	15.3	0.00e+00	0	46	0	5378146304	60	18274
2026-01-30 04:21:56.44	222.49	5.79	-57.5	-70.5	3.6	8.46e-01	0	46	104	5389680640	60	131781
2026-01-30 04:22:00.45	222.42	5.50	-58.9	-72.1	3.6	8.46e-01	0	47	104	5389680640	60	158416
2026-01-30 04:22:04.45	222.35	5.21	-60.1	-73.3	3.6	8.45e-01	0	46	104	5389680640	60	182120
2026-01-30 04:22:08.46	222.27	4.93	-60.9	-74.0	3.6	8.46e-01	0	46	104	5389680640	60	196711
2026-01-30 04:22:12.46	222.20	4.65	-61.3	-74.4	3.6	8.47e-01	0	47	104	5389680640	60	206316
2026-01-30 04:22:16.46	222.14	4.37	-61.4	-74.2	3.6	8.45e-01	0	46	104	5389680640	60	201924
2026-01-30 04:22:20.47	222.07	4.09	-60.6	-74.5	3.6	8.46e-01	0	46	104	5389680640	60	208813
2026-01-30 04:22:24.48	222.00	3.81	-61.1	-74.2	3.6	8.47e-01	0	46	104	5389680640	60	201283
2026-01-30 04:22:28.49	221.94	3.54	-61.0	-74.2	3.6	8.46e-01	0	46	104	5389680640	60	200739
2026-01-30 04:22:32.49	221.88	3.27	-61.0	-74.2	3.6	8.47e-01	0	46	104	5389680640	60	200647
2026-01-30 04:22:36.51	221.82	3.01	-60.9	-74.1	3.6	8.45e-01	0	46	104	5389680640	60	198721
2026-01-30 04:22:40.52	221.76	2.74	-61.0	-74.1	3.6	8.45e-01	0	46	104	5389680640	60	199690
2026-01-30 04:22:44.52	221.70	2.48	-61.0	-74.1	3.6	8.44e-01	0	46	104	5389680640	60	199668
2026-01-30 04:22:48.53	221.64	2.22	-61.0	-74.1	3.6	8.45e-01	0	46	104	5389680640	60	199771
2026-01-30 04:22:52.54	221.58	1.96	-60.9	-74.0	3.6	8.45e-01	0	47	104	5389680640	60	197096
2026-01-30 04:22:56.56	221.53	1.71	-61.0	-74.1	3.6	8.45e-01	0	46	104	5389680640	60	197891
2026-01-30 04:23:00.59	221.48	1.45	-61.0	-74.1	3.6	8.46e-01	0	46	104	5389680640	60	197555
2026-01-30 04:23:04.60	221.42	1.20	-61.0	-74.2	3.6	8.46e-01	0	46	104	5389680640	60	200069
2026-01-30 04:23:08.63	221.37	0.95	-61.0	-74.1	3.6	8.45e-01	0	46	104	5389680640	60	199145
2026-01-30 04:23:12.66	221.32	0.71	-61.0	-74.1	3.6	8.46e-01	0	46	104	5389680640	60	198980
2026-01-30 04:23:16.69	221.27	0.46	-61.0	-74.1	3.6	8.45e-01	0	47	104	5389680640	60	198237
2026-01-30 04:23:20.71	221.22	0.22	-61.0	-74.1	3.6	8.44e-01	0	46	104	5389680640	60	198403
2026-01-30 04:23:24.74	221.17	-0.02	-61.0	-74.0	3.6	8.45e-01	0	46	104	5389680640	60	196378

#Closed at: 2026-01-30 04:23:26
#Recorded file [5389 MB]: D:/Data/35015_260130_072154.dat