passes_logs/2026/01/30/R3.2S-Naryan-Mar/R3.2S-Naryan-Mar__20260130_062611_SUOMI_NPP_rec.log

#Pass ID: 20260130_062611_SUOMI NPP
#Satellite: SUOMI NPP
#Configuration: NPP
#almurnet v.1.7.20240730
#Start time: 2026-01-30 06:26:11

#Version: 2.2.20231116
#Station: R3.2S-Naryan-Mar
#Location: 53.008057 lon 67.646978 lat
#TLE: 1 37849U 11061A   26029.48304708  .00000140  00000+0  87283-4 0  9999
#TLE: 2 37849  98.7824 331.4079 0002024  38.4342 321.6978 14.19531488738761

#Time	Az	El	Level	Level2	SNR	BER	BlckErr	Temp	State	Recorded	gain1	gain2
2026-01-30 06:26:11.96	108.94	0.04	-61.3	-74.5	3.5	8.45e-01	0	43	0	0	60	208808
2026-01-30 06:26:15.99	108.78	0.27	-60.4	-78.6	3.6	1.51e+00	0	44	104	0	60	334914
2026-01-30 06:26:20.01	108.62	0.50	-61.0	-78.6	3.6	1.51e+00	0	44	104	0	60	333496
2026-01-30 06:26:24.03	108.46	0.73	-61.9	-79.0	3.5	1.51e+00	0	45	104	0	60	350199
2026-01-30 06:26:28.06	108.29	0.97	-61.8	-79.1	3.6	1.51e+00	0	45	104	0	60	351885
2026-01-30 06:26:32.09	108.13	1.21	-62.2	-79.2	3.6	1.51e+00	0	45	104	0	60	356492
2026-01-30 06:26:36.12	107.95	1.45	-61.3	-78.5	3.6	1.51e+00	0	45	104	0	60	329610
2026-01-30 06:26:40.15	107.78	1.69	-59.6	-77.8	3.6	1.51e+00	0	45	104	0	60	305173
2026-01-30 06:26:44.18	107.60	1.93	-61.1	-77.7	3.6	1.51e+00	0	45	104	0	60	300889
2026-01-30 06:26:48.20	107.42	2.18	-58.9	-76.9	3.6	1.51e+00	0	45	104	0	60	274465
2026-01-30 06:26:52.23	107.24	2.42	-59.4	-76.8	3.6	1.51e+00	0	45	104	0	60	270571
2026-01-30 06:26:56.26	107.05	2.67	-59.4	-76.8	3.6	1.51e+00	0	45	104	0	60	270577
2026-01-30 06:27:00.29	106.86	2.92	-59.4	-76.7	3.6	1.51e+00	0	45	104	0	60	268954
2026-01-30 06:27:04.32	106.67	3.17	-59.4	-76.7	3.6	1.51e+00	0	45	104	0	60	268672
2026-01-30 06:27:08.35	106.47	3.43	-59.4	-76.7	3.6	1.51e+00	0	45	104	0	60	266998
2026-01-30 06:27:12.38	106.27	3.69	-59.4	-76.7	3.6	1.51e+00	0	45	104	0	60	267174
2026-01-30 06:27:16.40	106.06	3.94	-59.4	-76.7	3.6	1.51e+00	0	45	104	0	60	268282
2026-01-30 06:27:20.43	105.85	4.20	-59.4	-76.7	3.6	1.51e+00	0	45	104	0	60	267808
2026-01-30 06:27:24.46	105.64	4.47	-59.4	-76.7	3.6	1.51e+00	0	45	104	0	60	266581
2026-01-30 06:27:28.49	105.42	4.73	-59.4	-76.0	3.6	1.51e+00	0	45	104	0	60	245919
2026-01-30 06:27:32.52	105.20	5.00	-59.4	-75.4	3.5	1.51e+00	0	45	104	0	60	230187
2026-01-30 06:27:36.55	104.98	5.27	-59.1	-69.0	5.5	5.99e-01	0	45	0	2097152	60	109983
2026-01-30 06:27:40.59	104.74	5.54	-57.8	-63.0	12.6	4.07e-04	0	45	0	9437184	60	55552
2026-01-30 06:27:44.61	104.51	5.82	-56.6	-60.2	15.4	0.00e+00	0	45	0	16777216	60	39880
2026-01-30 06:27:48.63	104.27	6.09	-56.2	-59.4	16.7	0.00e+00	0	45	0	24117248	60	36574
2026-01-30 06:27:52.65	104.03	6.37	-55.9	-58.9	16.1	0.00e+00	0	45	0	31457280	60	34711
2026-01-30 06:27:56.68	103.78	6.65	-56.7	-60.2	15.3	0.00e+00	0	45	0	39845888	60	40243
2026-01-30 06:28:00.70	103.52	6.93	-56.9	-60.2	15.5	0.00e+00	0	45	0	47185920	60	40282
2026-01-30 06:28:04.72	103.27	7.22	-56.7	-60.2	15.6	0.00e+00	0	45	0	54525952	60	40131
2026-01-30 06:28:08.75	103.00	7.51	-56.6	-59.9	15.8	0.00e+00	0	45	0	61865984	60	38535
2026-01-30 06:28:12.79	102.73	7.80	-56.8	-60.2	15.4	0.00e+00	0	45	0	69206016	60	40113
2026-01-30 06:28:16.82	102.45	8.10	-56.9	-60.3	15.5	0.00e+00	0	45	0	77594624	60	40326
2026-01-30 06:28:20.84	102.17	8.40	-57.4	-61.8	14.0	7.00e-07	0	45	0	84934656	60	48112
2026-01-30 06:28:24.86	101.88	8.70	-57.0	-62.2	13.3	1.37e-05	0	45	0	92274688	60	50314
2026-01-30 06:28:28.89	101.59	9.00	-57.0	-62.9	12.3	1.63e-04	0	45	0	99614720	60	54728
2026-01-30 06:28:32.91	101.29	9.30	-58.2	-65.3	10.1	3.84e-03	0	45	0	106954752	60	72091
2026-01-30 06:28:36.93	100.98	9.61	-58.9	-65.6	9.7	9.17e-03	0	45	0	115343360	60	75076
2026-01-30 06:28:40.96	100.66	9.93	-59.1	-66.3	9.1	1.44e-02	0	45	0	122683392	60	81339
2026-01-30 06:28:44.99	100.34	10.24	-59.2	-67.9	6.9	1.60e-01	0	45	0	130023424	60	96960
2026-01-30 06:28:49.02	100.01	10.56	-60.1	-69.5	5.6	3.96e-01	0	45	0	137363456	60	117303
2026-01-30 06:28:53.05	99.68	10.88	-58.5	-64.0	11.3	0.00e+00	0	45	0	144703488	60	62317
2026-01-30 06:28:57.08	99.33	11.21	-55.6	-57.9	18.0	0.00e+00	0	45	0	153092096	60	30884
2026-01-30 06:29:01.11	98.98	11.53	-55.4	-57.7	18.2	0.00e+00	0	45	0	160432128	60	29922
2026-01-30 06:29:05.14	98.62	11.87	-55.5	-57.8	18.1	0.00e+00	0	45	0	167772160	60	30316
2026-01-30 06:29:09.18	98.25	12.20	-55.5	-57.9	18.0	0.00e+00	0	45	0	175112192	60	30610
2026-01-30 06:29:13.20	97.87	12.54	-55.6	-57.9	17.9	0.00e+00	0	45	0	182452224	60	30833
2026-01-30 06:29:17.23	97.48	12.88	-56.1	-58.4	17.6	0.00e+00	0	45	0	190840832	60	32663
2026-01-30 06:29:21.25	97.09	13.23	-55.9	-58.1	17.9	0.00e+00	0	45	0	198180864	60	31489
2026-01-30 06:29:25.27	96.68	13.57	-56.4	-59.1	17.0	0.00e+00	0	45	0	205520896	60	35205
2026-01-30 06:29:29.31	96.26	13.93	-56.7	-59.7	16.2	0.00e+00	0	45	0	212860928	60	37895
2026-01-30 06:29:33.33	95.84	14.28	-55.9	-58.5	17.4	0.00e+00	0	45	0	220200960	60	32917
2026-01-30 06:29:37.37	95.40	14.64	-54.9	-56.9	18.7	0.00e+00	0	45	0	228589568	60	27522
2026-01-30 06:29:41.39	94.95	15.01	-54.6	-56.7	19.2	0.00e+00	0	45	0	235929600	60	26683
2026-01-30 06:29:45.42	94.49	15.37	-54.7	-56.7	19.1	0.00e+00	0	45	0	243269632	60	26658
2026-01-30 06:29:49.44	94.02	15.74	-54.7	-56.4	19.5	0.00e+00	0	45	0	250609664	60	25941
2026-01-30 06:29:53.45	93.54	16.11	-54.7	-56.5	19.4	0.00e+00	0	45	0	257949696	60	26316
2026-01-30 06:29:57.48	93.05	16.49	-54.4	-56.3	19.6	0.00e+00	0	45	0	266338304	60	25465
2026-01-30 06:30:01.51	92.54	16.87	-54.2	-56.0	19.7	0.00e+00	0	45	0	273678336	60	24621
2026-01-30 06:30:05.55	92.01	17.26	-54.2	-56.0	20.1	0.00e+00	0	45	0	281018368	60	24648
2026-01-30 06:30:09.58	91.48	17.65	-54.5	-56.2	19.7	0.00e+00	0	45	0	288358400	60	25303
2026-01-30 06:30:13.60	90.93	18.04	-55.2	-57.0	19.0	0.00e+00	0	45	0	295698432	60	27768
2026-01-30 06:30:17.63	90.36	18.43	-55.4	-57.5	18.4	0.00e+00	0	45	0	304087040	60	29509
2026-01-30 06:30:21.66	89.78	18.83	-55.4	-57.3	18.8	0.00e+00	0	45	0	311427072	60	28862
2026-01-30 06:30:25.68	89.19	19.23	-54.8	-56.6	19.5	0.00e+00	0	45	0	318767104	60	26551
2026-01-30 06:30:29.70	88.57	19.64	-54.8	-56.5	19.5	0.00e+00	0	45	0	326107136	60	26312
2026-01-30 06:30:33.72	87.95	20.05	-54.9	-56.7	19.5	0.00e+00	0	45	0	333447168	60	26689
2026-01-30 06:30:37.74	87.30	20.46	-54.9	-56.8	19.4	0.00e+00	0	45	0	341835776	60	26983
2026-01-30 06:30:41.76	86.64	20.87	-55.0	-56.9	19.3	0.00e+00	0	45	0	349175808	60	27389
2026-01-30 06:30:45.79	85.96	21.29	-54.9	-56.9	19.3	0.00e+00	0	45	0	356515840	60	27298
2026-01-30 06:30:49.81	85.26	21.70	-54.9	-57.0	19.2	0.00e+00	0	45	0	363855872	60	27767
2026-01-30 06:30:53.82	84.54	22.12	-55.7	-57.7	18.7	0.00e+00	0	45	0	371195904	60	30141
2026-01-30 06:30:57.86	83.80	22.55	-55.7	-57.6	18.9	0.00e+00	0	45	0	378535936	60	29635
2026-01-30 06:31:01.88	83.04	22.97	-55.8	-57.7	18.9	0.00e+00	0	45	0	386924544	60	30066
2026-01-30 06:31:05.91	82.25	23.40	-55.2	-57.0	19.7	0.00e+00	0	45	0	394264576	60	27631
2026-01-30 06:31:09.93	81.45	23.82	-55.1	-56.7	19.8	0.00e+00	0	45	0	401604608	60	26913
2026-01-30 06:31:13.96	80.62	24.25	-55.4	-57.3	19.5	0.00e+00	0	45	0	408944640	60	28628
2026-01-30 06:31:17.99	79.77	24.68	-55.4	-57.3	19.3	0.00e+00	0	45	0	417333248	60	28576
2026-01-30 06:31:22.02	78.90	25.11	-55.6	-57.6	19.2	0.00e+00	0	45	0	424673280	60	29610
2026-01-30 06:31:26.05	78.00	25.53	-55.9	-57.8	19.1	0.00e+00	0	45	0	432013312	60	30271
2026-01-30 06:31:30.09	77.07	25.96	-55.7	-57.4	19.6	0.00e+00	0	45	0	439353344	60	29197
2026-01-30 06:31:34.11	76.13	26.38	-56.3	-58.2	19.0	0.00e+00	0	45	0	446693376	60	31833
2026-01-30 06:31:38.14	75.15	26.81	-56.0	-57.8	19.5	0.00e+00	0	45	0	455081984	60	30330
2026-01-30 06:31:42.17	74.15	27.22	-54.7	-56.1	21.0	0.00e+00	0	45	0	462422016	60	25073
2026-01-30 06:31:46.20	73.12	27.64	-54.8	-56.3	20.8	0.00e+00	0	45	0	469762048	60	25569
2026-01-30 06:31:50.22	72.07	28.05	-55.5	-57.1	19.9	0.00e+00	0	45	0	477102080	60	28176
2026-01-30 06:31:54.25	70.99	28.46	-56.1	-58.0	19.0	0.00e+00	0	45	0	484442112	60	30955
2026-01-30 06:31:58.28	69.88	28.86	-57.0	-59.2	18.1	0.00e+00	0	45	0	492830720	60	35656
2026-01-30 06:32:02.31	68.74	29.25	-56.5	-58.4	18.8	0.00e+00	0	45	0	500170752	60	32757
2026-01-30 06:32:06.34	67.58	29.64	-57.0	-59.0	18.3	0.00e+00	0	45	0	507510784	60	34991
2026-01-30 06:32:10.37	66.38	30.01	-58.0	-60.6	16.7	0.00e+00	0	45	0	514850816	60	42092
2026-01-30 06:32:14.39	65.16	30.38	-59.2	-62.7	14.4	0.00e+00	0	45	0	522190848	60	53742
2026-01-30 06:32:18.41	63.92	30.74	-58.4	-61.3	16.1	0.00e+00	0	45	0	530579456	60	45708
2026-01-30 06:32:22.43	62.64	31.08	-58.0	-60.6	16.8	0.00e+00	0	45	0	537919488	60	42223
2026-01-30 06:32:26.46	61.34	31.41	-58.1	-60.6	16.9	0.00e+00	0	45	0	545259520	60	42040
2026-01-30 06:32:30.47	60.01	31.73	-58.2	-61.0	16.7	0.00e+00	0	45	0	552599552	60	43915
2026-01-30 06:32:34.49	58.66	32.04	-58.1	-60.7	16.9	0.00e+00	0	45	0	559939584	60	42254
2026-01-30 06:32:38.52	57.28	32.33	-57.8	-60.5	17.1	0.00e+00	0	45	0	568328192	60	41412
2026-01-30 06:32:42.54	55.88	32.60	-57.0	-58.9	18.8	0.00e+00	0	45	0	575668224	60	34522
2026-01-30 06:32:46.55	54.46	32.85	-56.7	-58.6	19.2	0.00e+00	0	45	0	583008256	60	33252
2026-01-30 06:32:50.58	53.00	33.09	-55.9	-57.6	20.1	0.00e+00	0	45	0	590348288	60	29651
2026-01-30 06:32:54.60	51.54	33.31	-57.1	-59.6	18.2	0.00e+00	0	45	0	597688320	60	37230
2026-01-30 06:32:58.63	50.05	33.50	-56.7	-58.7	19.3	0.00e+00	0	45	0	605028352	60	33620
2026-01-30 06:33:02.66	48.54	33.68	-55.2	-56.9	20.6	0.00e+00	0	45	0	613416960	60	27390
2026-01-30 06:33:06.70	47.01	33.83	-55.8	-57.5	19.9	0.00e+00	0	45	0	620756992	60	29410
2026-01-30 06:33:10.73	45.48	33.97	-56.0	-58.0	19.4	0.00e+00	0	45	0	628097024	60	31134
2026-01-30 06:33:14.75	43.93	34.07	-57.0	-59.3	18.1	0.00e+00	0	45	0	635437056	60	36340
2026-01-30 06:33:18.78	42.38	34.16	-56.1	-58.3	19.2	0.00e+00	0	45	0	643825664	60	32206
2026-01-30 06:33:22.80	40.82	34.22	-56.5	-58.8	18.5	0.00e+00	0	45	0	651165696	60	34017
2026-01-30 06:33:26.83	39.25	34.26	-58.1	-60.7	17.3	0.00e+00	0	45	0	658505728	60	42363
2026-01-30 06:33:30.85	37.68	34.27	-57.2	-59.6	18.1	0.00e+00	0	45	0	665845760	60	37547
2026-01-30 06:33:34.88	36.11	34.26	-55.8	-57.9	19.2	0.00e+00	0	45	0	673185792	60	30841
2026-01-30 06:33:38.90	34.55	34.22	-56.4	-59.3	17.9	0.00e+00	0	45	0	681574400	60	36041
2026-01-30 06:33:42.93	32.99	34.16	-56.0	-57.9	19.5	0.00e+00	0	45	0	688914432	60	30702
2026-01-30 06:33:46.94	31.44	34.07	-58.0	-60.6	17.0	0.00e+00	0	45	0	696254464	60	41966
2026-01-30 06:33:50.95	29.90	33.97	-56.9	-59.1	18.3	0.00e+00	0	45	0	703594496	60	35526
2026-01-30 06:33:54.97	28.37	33.83	-57.1	-59.3	18.1	0.00e+00	0	45	0	710934528	60	36086
2026-01-30 06:33:59.00	26.85	33.68	-57.2	-59.6	17.7	0.00e+00	0	45	0	718274560	60	37322
2026-01-30 06:34:03.00	25.35	33.51	-57.0	-59.1	18.0	0.00e+00	0	45	0	726663168	60	35497
2026-01-30 06:34:07.03	23.86	33.31	-56.8	-59.3	17.9	0.00e+00	0	45	0	734003200	60	35997
2026-01-30 06:34:11.06	22.39	33.09	-55.8	-57.5	20.0	0.00e+00	0	45	0	741343232	60	29284
2026-01-30 06:34:15.08	20.95	32.86	-56.9	-59.1	18.3	0.00e+00	0	45	0	748683264	60	35167
2026-01-30 06:34:19.10	19.52	32.60	-56.9	-59.0	18.4	0.00e+00	0	45	0	756023296	60	35004
2026-01-30 06:34:23.12	18.12	32.33	-56.2	-58.8	18.2	0.00e+00	0	45	0	764411904	60	33932
2026-01-30 06:34:27.14	16.75	32.04	-57.7	-60.5	16.9	0.00e+00	0	45	0	771751936	60	41315
2026-01-30 06:34:31.17	15.39	31.74	-57.6	-60.8	16.9	0.00e+00	0	45	0	779091968	60	42812
2026-01-30 06:34:35.19	14.07	31.42	-57.8	-60.4	17.1	0.00e+00	0	45	0	786432000	60	41063
2026-01-30 06:34:39.21	12.77	31.09	-56.5	-58.6	19.0	0.00e+00	0	45	0	793772032	60	33349
2026-01-30 06:34:43.23	11.50	30.74	-55.4	-57.3	19.9	0.00e+00	0	45	0	802160640	60	28577
2026-01-30 06:34:47.26	10.25	30.39	-57.5	-59.7	17.8	0.00e+00	0	45	0	809500672	60	37960
2026-01-30 06:34:51.28	9.03	30.02	-56.7	-58.7	19.0	0.00e+00	0	45	0	816840704	60	33544
2026-01-30 06:34:55.31	7.84	29.65	-57.0	-59.2	17.9	0.00e+00	0	45	0	824180736	60	35818
2026-01-30 06:34:59.33	6.68	29.26	-58.3	-61.1	16.5	0.00e+00	0	45	0	831520768	60	44306
2026-01-30 06:35:03.35	5.55	28.87	-57.2	-59.4	18.1	0.00e+00	0	45	0	838860800	60	36443
2026-01-30 06:35:07.39	4.44	28.47	-58.0	-60.8	16.8	0.00e+00	0	45	0	847249408	60	42767
2026-01-30 06:35:11.41	3.36	28.07	-56.1	-57.9	19.4	0.00e+00	0	45	0	854589440	60	30858
2026-01-30 06:35:15.43	2.31	27.66	-56.0	-57.8	19.4	0.00e+00	0	45	0	861929472	60	30475
2026-01-30 06:35:19.45	1.29	27.25	-56.4	-58.4	18.9	0.00e+00	0	45	0	869269504	60	32526
2026-01-30 06:35:23.48	0.29	26.83	-55.3	-56.8	20.2	0.00e+00	0	45	0	876609536	60	27235
2026-01-30 06:35:27.50	359.32	26.41	-55.8	-57.5	19.5	0.00e+00	0	45	0	884998144	60	29373
2026-01-30 06:35:31.53	358.38	25.98	-54.4	-55.8	21.0	0.00e+00	0	45	0	892338176	60	24052
2026-01-30 06:35:35.56	357.46	25.56	-54.4	-55.9	20.9	0.00e+00	0	45	0	899678208	60	24576
2026-01-30 06:35:39.59	356.56	25.13	-55.2	-56.9	20.2	0.00e+00	0	45	0	907018240	60	27422
2026-01-30 06:35:43.62	355.69	24.71	-54.2	-55.5	21.2	0.00e+00	0	45	0	915406848	60	23457
2026-01-30 06:35:47.64	354.84	24.28	-54.4	-55.8	21.0	0.00e+00	0	45	0	922746880	60	24128
2026-01-30 06:35:51.66	354.02	23.86	-54.4	-55.8	20.9	0.00e+00	0	45	0	930086912	60	24245
2026-01-30 06:35:55.69	353.21	23.43	-53.6	-54.9	21.6	0.00e+00	0	45	0	937426944	60	21671
2026-01-30 06:35:59.71	352.44	23.01	-53.9	-55.2	20.9	0.00e+00	0	45	0	944766976	60	22599
2026-01-30 06:36:03.74	351.68	22.58	-54.3	-55.8	20.4	0.00e+00	0	45	0	952107008	60	24068
2026-01-30 06:36:07.78	350.93	22.16	-55.3	-57.0	19.6	0.00e+00	0	45	0	960495616	60	27893
2026-01-30 06:36:11.81	350.22	21.74	-55.2	-56.9	19.7	0.00e+00	0	45	0	967835648	60	27462
2026-01-30 06:36:15.83	349.52	21.32	-55.0	-56.7	19.6	0.00e+00	0	45	0	975175680	60	26921
2026-01-30 06:36:19.86	348.84	20.91	-55.2	-57.0	19.5	0.00e+00	0	45	0	982515712	60	27806
2026-01-30 06:36:23.88	348.18	20.50	-54.8	-56.5	20.0	0.00e+00	0	45	0	990904320	60	26142
2026-01-30 06:36:27.90	347.53	20.09	-55.1	-56.8	19.7	0.00e+00	0	45	0	998244352	60	26987
2026-01-30 06:36:31.92	346.91	19.68	-54.5	-56.0	20.4	0.00e+00	0	45	0	1005584384	60	24753
2026-01-30 06:36:35.95	346.30	19.28	-54.2	-55.7	20.6	0.00e+00	0	45	0	1012924416	60	23827
2026-01-30 06:36:39.97	345.71	18.88	-54.3	-55.8	20.5	0.00e+00	0	45	0	1020264448	60	24058
2026-01-30 06:36:44.00	345.13	18.48	-54.0	-55.5	20.9	0.00e+00	0	45	0	1028653056	60	23215
2026-01-30 06:36:48.03	344.56	18.09	-54.1	-55.6	20.6	0.00e+00	0	45	0	1035993088	60	23642
2026-01-30 06:36:52.05	344.02	17.70	-55.2	-56.9	19.5	0.00e+00	0	45	0	1043333120	60	27567
2026-01-30 06:36:56.07	343.48	17.31	-56.7	-59.1	17.2	0.00e+00	0	46	0	1050673152	60	35137
2026-01-30 06:37:00.10	342.96	16.93	-56.1	-58.3	18.0	0.00e+00	0	45	0	1058013184	60	32109
2026-01-30 06:37:04.13	342.46	16.55	-54.8	-56.4	19.7	0.00e+00	0	45	0	1065353216	60	25970
2026-01-30 06:37:08.15	341.96	16.17	-55.5	-57.5	18.6	0.00e+00	0	45	0	1073741824	60	29270
2026-01-30 06:37:12.18	341.48	15.80	-56.5	-59.2	16.9	0.00e+00	0	45	0	1081081856	60	35686
2026-01-30 06:37:16.20	341.01	15.43	-56.1	-58.8	16.8	0.00e+00	0	45	0	1088421888	60	34042
2026-01-30 06:37:20.23	340.55	15.06	-56.0	-58.7	16.5	0.00e+00	0	45	0	1095761920	60	33867
2026-01-30 06:37:24.26	340.11	14.70	-56.6	-60.0	15.2	0.00e+00	0	45	0	1103101952	60	39109
2026-01-30 06:37:28.28	339.67	14.34	-57.3	-61.4	13.6	5.30e-06	0	45	0	1111490560	60	45880
2026-01-30 06:37:32.30	339.25	13.99	-57.9	-62.8	12.0	2.32e-04	0	45	0	1118830592	60	53791
2026-01-30 06:37:36.33	338.84	13.64	-57.9	-63.4	11.1	1.67e-03	0	45	0	1126170624	60	57705
2026-01-30 06:37:40.36	338.43	13.29	-57.8	-63.4	10.8	2.20e-03	0	45	0	1133510656	60	57750
2026-01-30 06:37:44.39	338.04	12.95	-58.0	-64.1	9.9	9.78e-03	0	46	0	1141899264	60	62590
2026-01-30 06:37:48.41	337.65	12.61	-58.5	-66.2	7.3	8.91e-02	0	46	0	1149239296	60	79703
2026-01-30 06:37:52.43	337.28	12.27	-58.7	-68.3	5.1	4.33e-01	0	46	0	1156579328	60	101763
2026-01-30 06:37:56.46	336.91	11.93	-58.6	-67.5	5.8	3.40e-01	0	46	0	1163919360	60	93213
2026-01-30 06:38:00.49	336.55	11.60	-58.5	-67.5	5.7	3.60e-01	0	45	0	1171259392	60	93406
2026-01-30 06:38:04.51	336.20	11.28	-58.7	-68.2	5.2	5.69e-01	0	46	0	1178599424	60	100362
2026-01-30 06:38:08.53	335.86	10.95	-56.7	-70.0	3.9	1.36e+00	0	46	0	1185939456	60	123628
2026-01-30 06:38:12.56	335.52	10.63	-56.6	-70.7	3.7	1.42e+00	0	46	0	1188036608	60	134266
2026-01-30 06:38:16.58	335.20	10.31	-57.0	-72.9	3.7	1.50e+00	0	45	104	1188036608	60	172991
2026-01-30 06:38:20.59	334.88	10.00	-57.4	-73.0	3.6	1.51e+00	0	45	104	1188036608	60	174476
2026-01-30 06:38:24.61	334.57	9.69	-57.1	-73.0	3.7	1.50e+00	0	45	104	1188036608	60	174550
2026-01-30 06:38:28.63	334.26	9.38	-57.8	-74.6	3.6	1.51e+00	0	45	104	1188036608	60	210282
2026-01-30 06:38:32.66	333.96	9.08	-57.9	-74.7	3.6	1.51e+00	0	45	104	1188036608	60	211962
2026-01-30 06:38:36.69	333.67	8.77	-58.7	-75.4	3.6	1.51e+00	0	46	104	1188036608	60	230750
2026-01-30 06:38:40.71	333.38	8.47	-59.0	-75.5	3.6	1.51e+00	0	46	104	1188036608	60	234271
2026-01-30 06:38:44.73	333.10	8.18	-59.2	-75.5	3.6	1.51e+00	0	46	104	1188036608	60	234698
2026-01-30 06:38:48.75	332.83	7.88	-59.1	-75.5	3.6	1.51e+00	0	46	104	1188036608	60	232487
2026-01-30 06:38:52.79	332.56	7.59	-58.9	-75.3	3.6	1.51e+00	0	46	104	1188036608	60	229368
2026-01-30 06:38:56.82	332.30	7.30	-58.8	-75.2	3.6	1.51e+00	0	46	104	1188036608	60	225580
2026-01-30 06:39:00.85	332.04	7.02	-58.7	-75.1	3.6	1.51e+00	0	46	104	1188036608	60	222618
2026-01-30 06:39:04.87	331.79	6.73	-58.6	-75.0	3.6	1.51e+00	0	46	104	1188036608	60	219700
2026-01-30 06:39:08.90	331.54	6.45	-58.6	-75.0	3.6	1.51e+00	0	46	104	1188036608	60	220196
2026-01-30 06:39:12.91	331.30	6.18	-58.5	-74.9	3.6	1.51e+00	0	46	104	1188036608	60	217994
2026-01-30 06:39:16.93	331.06	5.90	-58.5	-75.5	3.6	1.51e+00	0	46	104	1188036608	60	232536
2026-01-30 06:39:20.95	330.83	5.63	-61.0	-77.5	3.6	1.51e+00	0	46	104	1188036608	60	293409
2026-01-30 06:39:24.98	330.60	5.36	-61.7	-78.1	3.6	1.51e+00	0	46	104	1188036608	60	313554
2026-01-30 06:39:29.00	330.38	5.09	-62.1	-78.5	3.6	1.51e+00	0	46	104	1188036608	60	328701
2026-01-30 06:39:33.03	330.16	4.82	-62.2	-78.6	3.6	1.51e+00	0	46	104	1188036608	60	333276
2026-01-30 06:39:37.06	329.94	4.56	-62.7	-79.1	3.6	1.51e+00	0	46	104	1188036608	60	353445
2026-01-30 06:39:41.09	329.73	4.29	-63.0	-79.4	3.6	1.51e+00	0	46	104	1188036608	60	365804
2026-01-30 06:39:45.11	329.53	4.03	-63.0	-79.5	3.6	1.51e+00	0	46	104	1188036608	60	369069
2026-01-30 06:39:49.14	329.32	3.77	-62.7	-79.6	3.6	1.51e+00	0	46	104	1188036608	60	375852
2026-01-30 06:39:53.17	329.13	3.52	-63.0	-79.8	3.6	1.51e+00	0	46	104	1188036608	60	382107
2026-01-30 06:39:57.20	328.93	3.26	-62.9	-79.6	3.6	1.51e+00	0	46	104	1188036608	60	375382
2026-01-30 06:40:01.22	328.74	3.01	-62.9	-79.7	3.6	1.51e+00	0	46	104	1188036608	60	376891
2026-01-30 06:40:05.25	328.55	2.76	-62.8	-79.6	3.6	1.51e+00	0	46	104	1188036608	60	372960
2026-01-30 06:40:09.28	328.36	2.51	-62.9	-79.6	3.6	1.51e+00	0	46	104	1188036608	60	374071
2026-01-30 06:40:13.30	328.18	2.27	-62.9	-79.6	3.6	1.51e+00	0	46	104	1188036608	60	373747
2026-01-30 06:40:17.32	328.01	2.02	-62.9	-79.6	3.6	1.51e+00	0	46	104	1188036608	60	373488
2026-01-30 06:40:21.34	327.83	1.78	-62.9	-79.6	3.6	1.51e+00	0	46	104	1188036608	60	372710
2026-01-30 06:40:25.37	327.66	1.54	-62.8	-79.6	3.6	1.51e+00	0	46	104	1188036608	60	372393
2026-01-30 06:40:29.40	327.49	1.30	-62.8	-79.5	3.6	1.51e+00	0	46	104	1188036608	60	371622
2026-01-30 06:40:33.43	327.32	1.06	-62.8	-79.4	3.6	1.51e+00	0	46	104	1188036608	60	367697
2026-01-30 06:40:37.45	327.16	0.83	-62.8	-79.5	3.6	1.51e+00	0	46	104	1188036608	60	367916
2026-01-30 06:40:41.48	327.00	0.59	-62.7	-79.5	3.6	1.51e+00	0	46	104	1188036608	60	369919
2026-01-30 06:40:45.52	326.84	0.36	-62.7	-79.5	3.6	1.51e+00	0	46	104	1188036608	60	369222
2026-01-30 06:40:49.53	326.69	0.13	-62.7	-79.5	3.6	1.51e+00	0	46	104	1188036608	60	367786

#Closed at: 2026-01-30 06:40:53
#Recorded file [1188 MB]: D:/Data/35015_260130_093823.dat