passes_logs/2026/01/30/R3.2S-Naryan-Mar/R3.2S-Naryan-Mar__20260130_094626_SUOMI_NPP_rec.log

#Pass ID: 20260130_094626_SUOMI NPP
#Satellite: SUOMI NPP
#Configuration: NPP
#almurnet v.1.7.20240730
#Start time: 2026-01-30 09:46:28

#Version: 2.2.20231116
#Station: R3.2S-Naryan-Mar
#Location: 53.008057 lon 67.646978 lat
#TLE: 1 37849U 11061A   26029.48304708  .00000140  00000+0  87283-4 0  9999
#TLE: 2 37849  98.7824 331.4079 0002024  38.4342 321.6978 14.19531488738761

#Time	Az	El	Level	Level2	SNR	BER	BlckErr	Temp	State	Recorded	gain1	gain2
2026-01-30 09:46:28.39	187.23	0.12	-61.6	-75.3	3.4	1.52e+00	0	42	0	0	60	222225
2026-01-30 09:46:32.42	187.40	0.35	-61.5	-78.1	3.6	1.51e+00	0	44	104	0	60	316214
2026-01-30 09:46:36.45	187.56	0.59	-62.0	-78.4	3.6	1.51e+00	0	44	104	0	60	324751
2026-01-30 09:46:40.48	187.73	0.82	-61.7	-78.1	3.6	1.51e+00	0	44	104	0	60	314192
2026-01-30 09:46:44.51	187.90	1.06	-61.5	-77.8	3.6	1.51e+00	0	44	104	0	60	303922
2026-01-30 09:46:48.55	188.07	1.30	-60.8	-77.3	3.6	1.51e+00	0	44	104	0	60	286608
2026-01-30 09:46:52.57	188.24	1.54	-60.4	-76.8	3.6	1.51e+00	0	44	104	0	60	271381
2026-01-30 09:46:56.59	188.42	1.78	-59.9	-76.3	3.6	1.51e+00	0	44	104	0	60	256238
2026-01-30 09:47:00.62	188.60	2.02	-59.0	-75.4	3.6	1.51e+00	0	44	104	0	60	231037
2026-01-30 09:47:04.65	188.78	2.27	-58.0	-74.6	3.6	1.51e+00	0	44	104	0	60	209358
2026-01-30 09:47:08.68	188.97	2.52	-57.4	-74.1	3.6	1.51e+00	0	44	104	0	60	198533
2026-01-30 09:47:12.70	189.16	2.77	-57.3	-74.0	3.6	1.51e+00	0	44	104	0	60	195595
2026-01-30 09:47:16.73	189.35	3.02	-57.3	-73.9	3.6	1.51e+00	0	44	104	0	60	193291
2026-01-30 09:47:20.76	189.54	3.27	-57.2	-73.9	3.6	1.51e+00	0	44	104	0	60	193048
2026-01-30 09:47:24.78	189.74	3.53	-57.2	-73.8	3.6	1.51e+00	0	44	104	0	60	192896
2026-01-30 09:47:28.81	189.94	3.79	-57.2	-73.8	3.6	1.51e+00	0	44	104	0	60	192185
2026-01-30 09:47:32.83	190.14	4.05	-57.2	-73.8	3.6	1.51e+00	0	44	104	0	60	190842
2026-01-30 09:47:36.87	190.35	4.31	-57.2	-73.7	3.6	1.51e+00	0	44	104	0	60	189276
2026-01-30 09:47:40.90	190.56	4.58	-57.1	-73.7	3.6	1.51e+00	0	44	104	0	60	188804
2026-01-30 09:47:44.91	190.78	4.84	-57.1	-73.2	3.6	1.51e+00	0	44	104	0	60	179319
2026-01-30 09:47:48.95	191.00	5.11	-56.9	-68.2	4.2	1.42e+00	0	44	0	0	60	100744
2026-01-30 09:47:52.97	191.22	5.38	-55.9	-62.0	10.3	1.96e-02	0	44	0	2097152	60	49169
2026-01-30 09:47:56.99	191.44	5.66	-55.0	-59.4	13.2	3.12e-05	0	44	0	9437184	60	36635
2026-01-30 09:48:01.02	191.67	5.93	-55.6	-61.0	11.3	4.02e-04	0	44	0	16777216	60	44207
2026-01-30 09:48:05.04	191.91	6.21	-54.4	-57.9	14.7	7.55e-01	0	45	104	23068672	60	30690
2026-01-30 09:48:09.06	192.14	6.50	-54.0	-57.1	15.7	0.00e+00	0	45	0	7340032	60	28191
2026-01-30 09:48:13.08	192.39	6.78	-53.8	-56.7	16.2	0.00e+00	0	44	0	14680064	60	26942
2026-01-30 09:48:17.11	192.63	7.07	-53.7	-56.5	16.3	0.00e+00	0	45	0	22020096	60	26312
2026-01-30 09:48:21.14	192.89	7.36	-53.8	-56.7	16.3	0.00e+00	0	45	0	29360128	60	26736
2026-01-30 09:48:25.16	193.14	7.65	-53.5	-56.1	16.8	0.00e+00	0	44	0	36700160	60	25041
2026-01-30 09:48:29.18	193.40	7.95	-53.4	-56.0	16.9	0.00e+00	0	45	0	44040192	60	24674
2026-01-30 09:48:33.20	193.67	8.25	-53.4	-56.0	17.0	0.00e+00	0	45	0	52428800	60	24697
2026-01-30 09:48:37.22	193.94	8.55	-53.1	-55.5	17.5	0.00e+00	0	45	0	59768832	60	23314
2026-01-30 09:48:41.25	194.22	8.86	-53.1	-55.4	17.6	0.00e+00	0	45	0	67108864	60	23108
2026-01-30 09:48:45.27	194.50	9.16	-52.9	-55.1	18.0	0.00e+00	0	45	0	74448896	60	22331
2026-01-30 09:48:49.29	194.79	9.48	-52.9	-55.0	18.2	0.00e+00	0	44	0	81788928	60	21989
2026-01-30 09:48:53.30	195.08	9.79	-52.9	-54.9	18.3	0.00e+00	0	45	0	90177536	60	21846
2026-01-30 09:48:57.33	195.38	10.11	-52.6	-54.6	18.6	0.00e+00	0	45	0	97517568	60	21023
2026-01-30 09:49:01.35	195.69	10.43	-52.7	-54.7	18.6	0.00e+00	0	45	0	104857600	60	21230
2026-01-30 09:49:05.37	196.00	10.76	-52.2	-54.0	19.2	0.00e+00	0	45	0	112197632	60	19572
2026-01-30 09:49:09.40	196.32	11.09	-51.9	-53.6	19.6	0.00e+00	0	45	0	119537664	60	18653
2026-01-30 09:49:13.44	196.65	11.42	-51.8	-53.5	19.8	0.00e+00	0	44	0	127926272	60	18545
2026-01-30 09:49:17.47	196.99	11.76	-51.9	-53.6	19.7	0.00e+00	0	45	0	135266304	60	18736
2026-01-30 09:49:21.49	197.33	12.10	-51.9	-53.7	19.7	0.00e+00	0	45	0	142606336	60	18924
2026-01-30 09:49:25.51	197.68	12.44	-52.3	-54.1	19.3	0.00e+00	0	44	0	149946368	60	19902
2026-01-30 09:49:29.53	198.03	12.79	-52.4	-54.2	19.1	0.00e+00	0	44	0	157286400	60	20180
2026-01-30 09:49:33.57	198.40	13.15	-52.1	-53.7	19.7	0.00e+00	0	44	0	165675008	60	19056
2026-01-30 09:49:37.60	198.78	13.51	-52.3	-53.9	19.5	0.00e+00	0	45	0	173015040	60	19521
2026-01-30 09:49:41.63	199.16	13.87	-52.2	-53.9	19.7	0.00e+00	0	45	0	180355072	60	19380
2026-01-30 09:49:45.65	199.55	14.23	-52.4	-54.1	19.6	0.00e+00	0	45	0	187695104	60	19896
2026-01-30 09:49:49.65	199.95	14.60	-52.2	-53.8	19.9	0.00e+00	0	45	0	195035136	60	19216
2026-01-30 09:49:53.67	200.36	14.97	-52.2	-53.9	19.9	0.00e+00	0	44	0	203423744	60	19459
2026-01-30 09:49:57.69	200.78	15.35	-52.5	-54.2	19.9	0.00e+00	0	45	0	210763776	60	20127
2026-01-30 09:50:01.73	201.21	15.74	-52.7	-54.4	19.6	0.00e+00	0	45	0	218103808	60	20553
2026-01-30 09:50:05.76	201.66	16.13	-52.3	-53.9	20.2	0.00e+00	0	45	0	225443840	60	19359
2026-01-30 09:50:09.79	202.11	16.52	-52.3	-53.9	20.2	0.00e+00	0	45	0	232783872	60	19366
2026-01-30 09:50:13.80	202.57	16.91	-53.1	-54.8	19.4	0.00e+00	0	45	0	241172480	60	21554
2026-01-30 09:50:17.84	203.05	17.32	-53.1	-54.8	19.6	0.00e+00	0	45	0	248512512	60	21518
2026-01-30 09:50:21.86	203.54	17.72	-52.9	-54.5	19.8	0.00e+00	0	45	0	255852544	60	20746
2026-01-30 09:50:25.89	204.04	18.14	-53.5	-55.3	19.4	0.00e+00	0	45	0	263192576	60	22747
2026-01-30 09:50:29.91	204.56	18.55	-54.0	-55.8	19.0	0.00e+00	0	45	0	270532608	60	24251
2026-01-30 09:50:33.93	205.09	18.97	-53.3	-55.0	19.8	0.00e+00	0	45	0	278921216	60	21945
2026-01-30 09:50:37.97	205.63	19.40	-53.4	-55.1	19.7	0.00e+00	0	45	0	286261248	60	22335
2026-01-30 09:50:42.00	206.19	19.83	-53.8	-55.6	19.3	0.00e+00	0	45	0	293601280	60	23644
2026-01-30 09:50:46.03	206.77	20.27	-53.7	-55.5	19.5	0.00e+00	0	45	0	300941312	60	23265
2026-01-30 09:50:50.04	207.36	20.71	-53.9	-55.7	19.4	0.00e+00	0	45	0	308281344	60	23994
2026-01-30 09:50:54.05	207.96	21.15	-54.0	-55.7	19.5	0.00e+00	0	45	0	316669952	60	23955
2026-01-30 09:50:58.09	208.59	21.60	-53.3	-54.9	20.2	0.00e+00	0	45	0	324009984	60	21668
2026-01-30 09:51:02.11	209.23	22.06	-53.3	-54.8	20.2	0.00e+00	0	45	0	331350016	60	21651
2026-01-30 09:51:06.13	209.89	22.52	-53.2	-54.8	20.3	0.00e+00	0	45	0	338690048	60	21544
2026-01-30 09:51:10.16	210.57	22.98	-53.9	-55.6	19.5	0.00e+00	0	45	0	346030080	60	23692
2026-01-30 09:51:14.18	211.27	23.45	-54.1	-55.9	19.3	0.00e+00	0	45	0	354418688	60	24560
2026-01-30 09:51:18.22	211.99	23.92	-53.3	-54.9	20.1	0.00e+00	0	45	0	361758720	60	21718
2026-01-30 09:51:22.24	212.73	24.40	-53.5	-55.1	19.7	0.00e+00	0	45	0	369098752	60	22262
2026-01-30 09:51:26.25	213.50	24.88	-53.6	-55.2	20.2	0.00e+00	0	45	0	376438784	60	22538
2026-01-30 09:51:30.28	214.29	25.36	-52.8	-54.2	21.0	0.00e+00	0	45	0	383778816	60	20088
2026-01-30 09:51:34.31	215.10	25.85	-53.1	-54.5	20.8	0.00e+00	0	45	0	392167424	60	20784
2026-01-30 09:51:38.34	215.94	26.34	-53.7	-55.2	20.1	0.00e+00	0	45	0	399507456	60	22651
2026-01-30 09:51:42.37	216.80	26.83	-53.7	-55.3	20.1	0.00e+00	0	45	0	406847488	60	22851
2026-01-30 09:51:46.40	217.69	27.32	-53.9	-55.6	19.7	0.00e+00	0	45	0	414187520	60	23555
2026-01-30 09:51:50.43	218.60	27.82	-54.6	-56.4	19.1	0.00e+00	0	45	0	421527552	60	25985
2026-01-30 09:51:54.45	219.55	28.31	-54.1	-55.9	19.5	0.00e+00	0	45	0	429916160	60	24374
2026-01-30 09:51:58.47	220.52	28.81	-54.4	-56.2	19.3	0.00e+00	0	45	0	437256192	60	25244
2026-01-30 09:52:02.50	221.52	29.30	-54.0	-55.7	19.7	0.00e+00	0	45	0	444596224	60	23796
2026-01-30 09:52:06.51	222.55	29.80	-53.9	-55.6	19.6	0.00e+00	0	45	0	451936256	60	23530
2026-01-30 09:52:10.55	223.62	30.29	-54.3	-56.2	19.2	0.00e+00	0	45	0	459276288	60	25179
2026-01-30 09:52:14.58	224.72	30.78	-55.3	-57.6	18.1	0.00e+00	0	45	0	467664896	60	29605
2026-01-30 09:52:18.61	225.85	31.27	-54.8	-56.8	18.6	0.00e+00	0	45	0	475004928	60	27071
2026-01-30 09:52:22.64	227.01	31.76	-56.1	-58.7	16.9	3.09e-03	0	45	0	482344960	60	33837
2026-01-30 09:52:26.66	228.21	32.23	-57.1	-60.5	14.9	0.00e+00	0	45	0	489684992	60	41698
2026-01-30 09:52:30.69	229.44	32.70	-56.3	-59.1	16.5	0.00e+00	0	45	0	497025024	60	35349
2026-01-30 09:52:34.72	230.71	33.17	-57.5	-61.3	14.3	7.00e-07	0	45	0	505413632	60	45307
2026-01-30 09:52:38.75	232.02	33.62	-57.6	-61.3	14.3	1.06e-05	0	45	0	512753664	60	45512
2026-01-30 09:52:42.78	233.36	34.07	-56.9	-60.1	15.1	0.00e+00	0	45	0	520093696	60	39702
2026-01-30 09:52:46.81	234.74	34.50	-58.0	-62.2	13.4	4.50e-06	0	45	0	527433728	60	50601
2026-01-30 09:52:50.84	236.15	34.93	-57.3	-60.9	14.8	7.00e-07	0	45	0	534773760	60	43399
2026-01-30 09:52:54.87	237.60	35.33	-57.2	-60.6	15.1	0.00e+00	0	45	0	543162368	60	41806
2026-01-30 09:52:58.89	239.08	35.72	-56.6	-59.5	16.1	0.00e+00	0	45	0	550502400	60	37161
2026-01-30 09:53:02.91	240.59	36.10	-55.6	-58.0	17.6	0.00e+00	0	45	0	557842432	60	30982
2026-01-30 09:53:06.94	242.15	36.46	-54.7	-56.7	18.8	0.00e+00	0	45	0	565182464	60	26698
2026-01-30 09:53:10.97	243.73	36.79	-54.4	-56.3	19.1	0.00e+00	0	45	0	572522496	60	25530
2026-01-30 09:53:14.98	245.34	37.11	-54.3	-56.1	19.3	0.00e+00	0	45	0	580911104	60	24956
2026-01-30 09:53:19.00	246.98	37.40	-53.0	-54.5	20.5	0.00e+00	0	45	0	588251136	60	20730
2026-01-30 09:53:23.03	248.66	37.67	-54.0	-55.8	19.4	0.00e+00	0	45	0	595591168	60	24046
2026-01-30 09:53:27.06	250.36	37.91	-54.9	-57.0	18.2	0.00e+00	0	45	0	602931200	60	27753
2026-01-30 09:53:31.09	252.08	38.13	-53.3	-54.9	20.3	0.00e+00	0	45	0	610271232	60	21739
2026-01-30 09:53:35.12	253.82	38.32	-54.2	-56.1	19.1	0.00e+00	0	45	0	618659840	60	24913
2026-01-30 09:53:39.13	255.58	38.48	-54.6	-56.6	18.5	0.00e+00	0	45	0	625999872	60	26508
2026-01-30 09:53:43.14	257.35	38.61	-53.1	-54.7	20.2	0.00e+00	0	45	0	633339904	60	21310
2026-01-30 09:53:47.16	259.14	38.71	-54.4	-56.3	18.8	0.00e+00	0	45	0	640679936	60	25717
2026-01-30 09:53:51.19	260.94	38.78	-54.3	-56.2	18.9	0.00e+00	0	45	0	648019968	60	25174
2026-01-30 09:53:55.21	262.74	38.82	-53.8	-55.5	19.7	0.00e+00	0	45	0	655360000	60	23437
2026-01-30 09:53:59.24	264.55	38.82	-56.6	-59.8	15.6	7.00e-07	0	45	0	663748608	60	38400
2026-01-30 09:54:03.25	266.35	38.80	-53.7	-55.4	19.8	0.00e+00	0	45	0	671088640	60	22993
2026-01-30 09:54:07.27	268.14	38.75	-52.6	-54.1	20.9	0.00e+00	0	45	0	678428672	60	19764
2026-01-30 09:54:11.29	269.93	38.66	-52.7	-54.2	20.8	0.00e+00	0	45	0	685768704	60	20169
2026-01-30 09:54:15.31	271.71	38.54	-53.3	-55.0	20.1	0.00e+00	0	45	0	694157312	60	21963
2026-01-30 09:54:19.34	273.48	38.40	-52.5	-53.9	21.0	0.00e+00	0	45	0	701497344	60	19519
2026-01-30 09:54:23.35	275.23	38.22	-54.0	-55.9	19.2	0.00e+00	0	45	0	708837376	60	24557
2026-01-30 09:54:27.37	276.96	38.02	-53.2	-55.0	20.0	0.00e+00	0	45	0	716177408	60	21991
2026-01-30 09:54:31.40	278.67	37.79	-53.1	-54.9	20.0	0.00e+00	0	45	0	723517440	60	21877
2026-01-30 09:54:35.42	280.35	37.54	-53.7	-55.7	19.2	0.00e+00	0	45	0	730857472	60	23929
2026-01-30 09:54:39.44	282.00	37.26	-53.7	-55.7	19.3	0.00e+00	0	45	0	739246080	60	23838
2026-01-30 09:54:43.46	283.62	36.96	-53.1	-54.7	19.9	0.00e+00	0	45	0	746586112	60	21351
2026-01-30 09:54:47.49	285.22	36.63	-54.2	-56.0	19.4	0.00e+00	0	45	0	753926144	60	24758
2026-01-30 09:54:51.52	286.79	36.29	-53.4	-55.1	20.1	0.00e+00	0	45	0	761266176	60	22363
2026-01-30 09:54:55.54	288.32	35.92	-51.9	-53.3	21.6	0.00e+00	0	45	0	768606208	60	18032
2026-01-30 09:54:59.56	289.81	35.54	-53.0	-54.9	19.9	0.00e+00	0	45	0	776994816	60	21844
2026-01-30 09:55:03.59	291.27	35.14	-54.6	-57.3	17.8	0.00e+00	0	45	0	784334848	60	28713
2026-01-30 09:55:07.62	292.70	34.73	-55.1	-57.7	17.6	0.00e+00	0	45	0	791674880	60	30138
2026-01-30 09:55:11.65	294.09	34.30	-56.7	-59.9	15.6	0.00e+00	0	45	0	799014912	60	38561
2026-01-30 09:55:15.68	295.45	33.86	-54.8	-56.9	18.4	0.00e+00	0	45	0	806354944	60	27388
2026-01-30 09:55:19.71	296.77	33.42	-56.2	-59.3	16.4	0.00e+00	0	45	0	814743552	60	36074
2026-01-30 09:55:23.73	298.05	32.96	-55.7	-58.2	17.3	0.00e+00	0	45	0	822083584	60	31901
2026-01-30 09:55:27.75	299.29	32.49	-53.3	-55.1	20.0	0.00e+00	0	45	0	829423616	60	22203
2026-01-30 09:55:31.77	300.50	32.02	-55.3	-58.5	16.8	0.00e+00	0	45	0	836763648	60	32914
2026-01-30 09:55:35.78	301.67	31.55	-54.0	-56.0	19.3	0.00e+00	0	45	0	844103680	60	24725
2026-01-30 09:55:39.81	302.82	31.06	-52.6	-54.0	21.1	0.00e+00	0	45	0	851443712	60	19724
2026-01-30 09:55:43.84	303.93	30.58	-52.1	-53.4	21.3	0.00e+00	0	45	0	859832320	60	18340
2026-01-30 09:55:47.86	305.01	30.09	-52.8	-54.4	20.6	0.00e+00	0	45	0	867172352	60	20482
2026-01-30 09:55:51.88	306.05	29.60	-54.2	-56.2	18.9	0.00e+00	0	45	0	874512384	60	25341
2026-01-30 09:55:55.91	307.07	29.10	-52.7	-54.3	20.7	0.00e+00	0	45	0	881852416	60	20248
2026-01-30 09:55:59.93	308.05	28.61	-54.1	-56.0	19.1	0.00e+00	0	45	0	890241024	60	24805
2026-01-30 09:56:03.95	309.01	28.12	-51.7	-52.9	21.8	0.00e+00	0	45	0	897581056	60	17356
2026-01-30 09:56:07.98	309.94	27.63	-52.9	-54.5	20.3	0.00e+00	0	45	0	904921088	60	20878
2026-01-30 09:56:12.01	310.84	27.13	-50.5	-51.6	22.8	0.00e+00	0	45	0	912261120	60	14948
2026-01-30 09:56:16.04	311.71	26.64	-53.5	-55.3	19.8	0.00e+00	0	45	0	919601152	60	22816
2026-01-30 09:56:20.07	312.56	26.16	-52.4	-53.9	20.8	0.00e+00	0	45	0	927989760	60	19403
2026-01-30 09:56:24.09	313.38	25.67	-52.2	-53.7	21.0	0.00e+00	0	45	0	935329792	60	18930
2026-01-30 09:56:28.12	314.18	25.19	-52.2	-53.8	20.9	0.00e+00	0	45	0	942669824	60	19103
2026-01-30 09:56:32.15	314.96	24.71	-51.0	-52.4	21.8	0.00e+00	0	45	0	950009856	60	16313
2026-01-30 09:56:36.17	315.71	24.24	-51.7	-53.2	21.1	0.00e+00	0	45	0	957349888	60	17835
2026-01-30 09:56:40.20	316.44	23.76	-51.1	-52.3	22.1	0.00e+00	0	45	0	964689920	60	16186
2026-01-30 09:56:44.23	317.15	23.30	-50.7	-51.9	22.5	0.00e+00	0	45	0	973078528	60	15443
2026-01-30 09:56:48.26	317.84	22.83	-51.4	-52.8	21.7	0.00e+00	0	45	0	980418560	60	17127
2026-01-30 09:56:52.29	318.51	22.37	-51.2	-52.5	21.9	0.00e+00	0	45	0	987758592	60	16607
2026-01-30 09:56:56.30	319.16	21.92	-51.0	-52.3	22.0	0.00e+00	0	45	0	995098624	60	16113
2026-01-30 09:57:00.32	319.79	21.47	-51.4	-52.7	21.6	0.00e+00	0	45	0	1003487232	60	16994
2026-01-30 09:57:04.36	320.41	21.03	-51.4	-52.8	21.5	0.00e+00	0	45	0	1010827264	60	17093
2026-01-30 09:57:08.38	321.01	20.59	-51.3	-52.6	21.7	0.00e+00	0	45	0	1018167296	60	16731
2026-01-30 09:57:12.41	321.59	20.15	-51.5	-52.8	21.5	0.00e+00	0	45	0	1025507328	60	17147
2026-01-30 09:57:16.43	322.16	19.72	-51.8	-53.1	21.3	0.00e+00	0	45	0	1032847360	60	17788
2026-01-30 09:57:20.45	322.71	19.29	-52.9	-54.5	20.1	0.00e+00	0	45	0	1041235968	60	20865
2026-01-30 09:57:24.46	323.24	18.87	-52.7	-54.2	20.2	0.00e+00	0	45	0	1048576000	60	20177
2026-01-30 09:57:28.47	323.76	18.46	-53.0	-54.7	19.6	0.00e+00	0	45	0	1055916032	60	21194
2026-01-30 09:57:32.49	324.27	18.05	-53.8	-55.8	18.8	0.00e+00	0	45	0	1063256064	60	24181
2026-01-30 09:57:36.52	324.77	17.64	-53.8	-56.0	18.5	0.00e+00	0	45	0	1070596096	60	24733
2026-01-30 09:57:40.55	325.25	17.24	-52.6	-54.4	19.9	0.00e+00	0	45	0	1077936128	60	20452
2026-01-30 09:57:44.58	325.73	16.84	-52.7	-54.3	20.1	0.00e+00	0	45	0	1086324736	60	20385
2026-01-30 09:57:48.60	326.19	16.45	-53.1	-54.9	19.5	0.00e+00	0	45	0	1093664768	60	21851
2026-01-30 09:57:52.63	326.63	16.06	-52.9	-54.7	19.7	0.00e+00	0	45	0	1101004800	60	21212
2026-01-30 09:57:56.65	327.07	15.67	-53.0	-54.7	19.6	0.00e+00	0	45	0	1108344832	60	21394
2026-01-30 09:58:00.68	327.50	15.30	-53.0	-54.8	19.1	0.00e+00	0	45	0	1115684864	60	21599
2026-01-30 09:58:04.70	327.92	14.92	-53.3	-55.8	18.0	0.00e+00	0	45	0	1124073472	60	24036
2026-01-30 09:58:08.72	328.32	14.55	-53.4	-56.4	17.3	0.00e+00	0	45	0	1131413504	60	25771
2026-01-30 09:58:12.75	328.72	14.18	-54.1	-56.8	17.1	0.00e+00	0	45	0	1138753536	60	27153
2026-01-30 09:58:16.76	329.11	13.82	-53.9	-57.1	16.3	0.00e+00	0	45	0	1146093568	60	28111
2026-01-30 09:58:20.78	329.49	13.47	-53.1	-58.4	14.2	3.00e-06	0	45	0	1153433600	60	32528
2026-01-30 09:58:24.81	329.86	13.11	-53.1	-60.0	12.2	1.01e-04	0	45	0	1160773632	60	39020
2026-01-30 09:58:28.84	330.22	12.76	-53.7	-62.1	9.6	7.41e-03	0	45	0	1169162240	60	50173
2026-01-30 09:58:32.86	330.58	12.42	-54.8	-63.3	8.4	3.73e-02	0	45	0	1176502272	60	57575
2026-01-30 09:58:36.89	330.92	12.08	-55.5	-64.0	7.9	7.11e-02	0	45	0	1183842304	60	62388
2026-01-30 09:58:40.92	331.26	11.74	-55.2	-64.1	7.7	6.72e-02	0	45	0	1191182336	60	62621
2026-01-30 09:58:44.95	331.60	11.41	-54.1	-64.2	7.1	1.22e-01	0	45	0	1199570944	60	63620
2026-01-30 09:58:48.99	331.92	11.08	-53.8	-65.0	6.1	1.86e-01	0	45	0	1206910976	60	69696
2026-01-30 09:58:53.01	332.24	10.75	-55.2	-66.0	5.6	4.15e-01	0	45	0	1214251008	60	78609
2026-01-30 09:58:57.04	332.55	10.43	-56.3	-67.0	5.0	5.87e-01	0	45	0	1221591040	60	88168
2026-01-30 09:59:01.07	332.86	10.11	-56.0	-71.2	3.6	1.21e+00	0	45	104	1228931072	60	142301
2026-01-30 09:59:05.09	333.16	9.79	-56.1	-71.2	3.6	1.46e+00	0	45	104	1228931072	60	142196
2026-01-30 09:59:09.12	333.45	9.48	-56.3	-72.4	3.6	1.51e+00	0	45	104	1228931072	60	163360
2026-01-30 09:59:13.14	333.74	9.17	-56.4	-72.8	3.6	1.51e+00	0	45	104	1228931072	60	170399
2026-01-30 09:59:17.17	334.02	8.86	-56.2	-73.5	3.6	1.51e+00	0	45	104	1228931072	60	184549
2026-01-30 09:59:21.20	334.30	8.56	-56.8	-74.0	3.6	1.51e+00	0	45	104	1228931072	60	196404
2026-01-30 09:59:25.22	334.57	8.26	-57.1	-74.1	3.6	1.51e+00	0	45	104	1228931072	60	198411
2026-01-30 09:59:29.24	334.84	7.97	-57.8	-74.3	3.6	1.51e+00	0	45	104	1228931072	60	203223
2026-01-30 09:59:33.27	335.10	7.67	-57.4	-74.1	3.6	1.51e+00	0	45	104	1228931072	60	199442
2026-01-30 09:59:37.30	335.36	7.38	-56.7	-73.8	3.6	1.51e+00	0	45	104	1228931072	60	192489
2026-01-30 09:59:41.33	335.61	7.09	-56.2	-73.7	3.6	1.51e+00	0	45	104	1228931072	60	190241
2026-01-30 09:59:45.35	335.86	6.81	-56.2	-73.7	3.6	1.51e+00	0	45	104	1228931072	60	189172
2026-01-30 09:59:49.37	336.10	6.53	-56.3	-73.8	3.6	1.51e+00	0	45	104	1228931072	60	191104
2026-01-30 09:59:53.40	336.34	6.25	-56.5	-73.7	3.6	1.51e+00	0	45	104	1228931072	60	190120
2026-01-30 09:59:57.43	336.57	5.97	-55.7	-73.6	3.6	1.51e+00	0	45	104	1228931072	60	188398
2026-01-30 10:00:01.46	336.80	5.69	-58.4	-75.6	3.6	1.51e+00	0	45	104	1228931072	60	235158
2026-01-30 10:00:05.49	337.03	5.42	-60.0	-76.5	3.6	1.51e+00	0	45	104	1228931072	60	261190
2026-01-30 10:00:09.52	337.25	5.15	-60.2	-76.9	3.6	1.51e+00	0	45	104	1228931072	60	275018
2026-01-30 10:00:13.55	337.47	4.89	-60.8	-77.3	3.5	1.51e+00	0	45	104	1228931072	60	288464
2026-01-30 10:00:17.58	337.69	4.62	-61.2	-77.8	3.6	1.51e+00	0	45	104	1228931072	60	302438
2026-01-30 10:00:21.62	337.90	4.36	-61.0	-77.6	3.6	1.51e+00	0	45	104	1228931072	60	298057
2026-01-30 10:00:25.64	338.11	4.10	-60.8	-77.7	3.6	1.51e+00	0	45	104	1228931072	60	300366
2026-01-30 10:00:29.67	338.32	3.84	-61.5	-78.0	3.6	1.51e+00	0	45	104	1228931072	60	310992
2026-01-30 10:00:33.70	338.52	3.58	-61.7	-78.3	3.6	1.51e+00	0	45	104	1228931072	60	321991
2026-01-30 10:00:37.72	338.72	3.33	-61.2	-78.2	3.6	1.51e+00	0	45	104	1228931072	60	319013
2026-01-30 10:00:41.74	338.91	3.08	-61.3	-78.2	3.6	1.51e+00	0	45	104	1228931072	60	319985
2026-01-30 10:00:45.77	339.11	2.83	-61.5	-78.3	3.6	1.51e+00	0	45	104	1228931072	60	323515
2026-01-30 10:00:49.77	339.30	2.58	-61.6	-78.4	3.6	1.51e+00	0	45	104	1228931072	60	325626
2026-01-30 10:00:53.80	339.48	2.34	-61.6	-78.4	3.6	1.51e+00	0	45	104	1228931072	60	325244
2026-01-30 10:00:57.82	339.67	2.09	-61.6	-78.3	3.6	1.51e+00	0	45	104	1228931072	60	323964
2026-01-30 10:01:01.85	339.85	1.85	-61.6	-78.3	3.6	1.51e+00	0	45	104	1228931072	60	323336
2026-01-30 10:01:05.88	340.03	1.61	-61.6	-78.4	3.6	1.51e+00	0	45	104	1228931072	60	324051
2026-01-30 10:01:09.90	340.20	1.37	-61.6	-78.3	3.6	1.51e+00	0	45	104	1228931072	60	321495
2026-01-30 10:01:13.93	340.38	1.14	-61.7	-78.3	3.6	1.51e+00	0	45	104	1228931072	60	320848
2026-01-30 10:01:17.95	340.55	0.90	-61.7	-78.3	3.6	1.51e+00	0	45	104	1228931072	60	323581
2026-01-30 10:01:21.97	340.72	0.67	-61.7	-78.3	3.6	1.51e+00	0	45	104	1228931072	60	321427
2026-01-30 10:01:26.00	340.89	0.44	-61.7	-78.3	3.6	1.51e+00	0	45	104	1228931072	60	323778
2026-01-30 10:01:30.03	341.05	0.21	-61.7	-78.3	3.5	1.51e+00	0	45	104	1228931072	60	321111
2026-01-30 10:01:34.06	341.22	-0.02	-61.7	-78.3	3.6	1.51e+00	0	45	104	1228931072	60	322326

#Closed at: 2026-01-30 10:01:36
#Recorded file [1228 MB]: D:/Data/35015_260130_125907.dat