passes_logs/2026/01/30/R3.2S-Naryan-Mar/R3.2S-Naryan-Mar__20260130_020444_AQUA_rec.log

#Pass ID: 20260130_020444_AQUA
#Satellite: AQUA
#Configuration: AQUA
#almurnet v.1.7.20240730
#Start time: 2026-01-30 02:04:45

#Version: 2.2.20231116
#Station: R3.2S-Naryan-Mar
#Location: 53.008057 lon 67.646978 lat
#TLE: 1 27424U 02022A   26028.91948147  .00001781  00000+0  36607-3 0  9997
#TLE: 2 27424  98.4103 355.5827 0001815  62.4290   1.4641 14.61871847262923

#Time	Az	El	Level	Level2	SNR	BER	BlckErr	Temp	State	Recorded	gain1	gain2
2026-01-30 02:04:45.54	26.30	0.08	-59.0	-78.1	3.6	1.51e+00	0	44	0	0	60	316620
2026-01-30 02:04:49.55	26.18	0.33	-57.3	-78.4	3.6	3.02e+01	0	45	104	0	60	315761
2026-01-30 02:04:53.58	26.07	0.57	-57.7	-78.9	3.5	3.02e+01	0	45	104	0	60	335523
2026-01-30 02:04:57.60	25.94	0.82	-58.3	-79.7	3.5	3.02e+01	0	46	104	0	60	366112
2026-01-30 02:05:01.63	25.82	1.07	-58.0	-79.6	3.5	3.02e+01	0	46	104	0	60	361449
2026-01-30 02:05:05.65	25.69	1.32	-56.8	-79.6	3.5	3.02e+01	0	46	104	0	60	365109
2026-01-30 02:05:09.68	25.56	1.58	-55.0	-78.9	3.5	3.02e+01	0	46	104	0	60	335892
2026-01-30 02:05:13.71	25.43	1.83	-52.3	-77.8	3.5	3.02e+01	0	46	104	0	60	297005
2026-01-30 02:05:17.73	25.30	2.09	-50.1	-76.7	3.6	3.02e+01	0	46	104	0	60	258766
2026-01-30 02:05:21.76	25.16	2.35	-50.8	-75.9	3.6	3.02e+01	0	46	104	0	60	237447
2026-01-30 02:05:25.78	25.02	2.62	-50.8	-75.7	3.6	3.02e+01	0	46	104	0	60	230628
2026-01-30 02:05:29.80	24.88	2.88	-50.7	-75.5	3.6	3.02e+01	0	46	104	0	60	227585
2026-01-30 02:05:33.83	24.73	3.15	-50.6	-75.8	3.6	3.02e+01	0	46	104	0	60	233679
2026-01-30 02:05:37.86	24.58	3.43	-50.6	-75.3	3.7	3.02e+01	0	46	104	0	60	222218
2026-01-30 02:05:41.89	24.42	3.70	-50.5	-75.6	3.7	3.02e+01	0	46	104	0	60	229791
2026-01-30 02:05:45.91	24.27	3.98	-50.5	-75.3	3.6	3.02e+01	0	46	104	0	60	220408
2026-01-30 02:05:49.94	24.10	4.26	-50.3	-75.1	3.6	3.02e+01	0	46	104	0	60	216526
2026-01-30 02:05:53.97	23.94	4.55	-50.3	-74.9	3.6	3.02e+01	0	46	104	0	60	212012
2026-01-30 02:05:58.01	23.77	4.83	-50.4	-73.2	3.6	3.02e+01	0	46	104	0	60	173476
2026-01-30 02:06:02.03	23.60	5.12	-50.0	-66.8	7.3	3.02e+01	0	46	0	0	60	83289
2026-01-30 02:06:06.05	23.42	5.42	-49.3	-58.5	15.9	3.02e+01	0	46	0	7864320	60	32127
2026-01-30 02:06:10.07	23.24	5.71	-48.3	-54.0	20.4	3.02e+01	0	46	0	15204352	60	19158
2026-01-30 02:06:14.10	23.05	6.02	-48.2	-53.9	20.4	3.02e+01	0	46	0	23068672	60	18927
2026-01-30 02:06:18.12	22.86	6.32	-49.9	-54.9	21.2	3.02e+01	0	46	0	30408704	60	21236
2026-01-30 02:06:22.14	22.67	6.63	-49.3	-54.3	21.5	3.02e+01	0	46	0	37748736	60	19818
2026-01-30 02:06:26.17	22.47	6.94	-48.3	-54.0	22.3	3.02e+01	0	46	0	45613056	60	19036
2026-01-30 02:06:30.20	22.26	7.26	-46.8	-53.0	23.5	3.02e+01	0	46	0	52953088	60	16952
2026-01-30 02:06:34.23	22.05	7.58	-47.0	-52.7	23.9	3.02e+01	0	46	0	60293120	60	16406
2026-01-30 02:06:38.26	21.83	7.90	-46.8	-52.4	23.9	3.02e+01	0	46	0	68157440	60	15822
2026-01-30 02:06:42.27	21.61	8.23	-45.7	-52.1	23.9	3.02e+01	0	46	0	75497472	60	15396
2026-01-30 02:06:46.30	21.38	8.56	-48.1	-52.2	23.7	3.02e+01	0	46	0	83361792	60	15414
2026-01-30 02:06:50.32	21.15	8.90	-48.4	-52.5	23.5	3.02e+01	0	46	0	90701824	60	16099
2026-01-30 02:06:54.35	20.91	9.24	-48.6	-53.2	23.0	3.02e+01	0	46	0	98041856	60	17380
2026-01-30 02:06:58.37	20.66	9.58	-48.2	-54.0	22.4	3.02e+01	0	46	0	105906176	60	19113
2026-01-30 02:07:02.40	20.41	9.94	-49.6	-53.2	22.8	3.02e+01	0	46	0	113246208	60	17425
2026-01-30 02:07:06.43	20.15	10.29	-48.3	-53.4	22.7	3.02e+01	0	46	0	121110528	60	17735
2026-01-30 02:07:10.46	19.88	10.66	-48.1	-52.0	24.0	3.02e+01	0	46	0	128450560	60	15140
2026-01-30 02:07:14.48	19.60	11.02	-48.1	-51.8	24.4	3.02e+01	0	46	0	136314880	60	14869
2026-01-30 02:07:18.50	19.32	11.39	-47.2	-51.8	24.6	3.02e+01	0	46	0	143654912	60	14825
2026-01-30 02:07:22.53	19.02	11.77	-48.7	-51.9	24.7	3.02e+01	0	46	0	150994944	60	15030
2026-01-30 02:07:26.55	18.72	12.16	-48.9	-51.6	25.0	3.02e+01	0	46	0	158859264	60	14458
2026-01-30 02:07:30.57	18.41	12.55	-48.3	-51.2	25.4	3.02e+01	0	46	0	166199296	60	13832
2026-01-30 02:07:34.59	18.09	12.94	-47.5	-51.0	25.7	3.02e+01	0	46	0	173539328	60	13518
2026-01-30 02:07:38.63	17.76	13.35	-48.4	-50.9	25.8	3.02e+01	0	46	0	181403648	60	13311
2026-01-30 02:07:42.65	17.42	13.75	-44.5	-50.8	25.8	3.02e+01	0	46	0	188743680	60	13156
2026-01-30 02:07:46.67	17.07	14.17	-46.2	-50.8	25.9	3.02e+01	0	46	0	196608000	60	13172
2026-01-30 02:07:50.70	16.71	14.59	-47.9	-50.8	25.7	3.02e+01	0	46	0	203948032	60	13219
2026-01-30 02:07:54.74	16.33	15.03	-47.2	-50.8	25.4	3.02e+01	0	46	0	211288064	60	13211
2026-01-30 02:07:58.76	15.95	15.46	-47.2	-51.0	24.6	3.02e+01	0	46	0	219152384	60	13429
2026-01-30 02:08:02.78	15.55	15.91	-46.8	-51.1	24.1	3.02e+01	0	46	0	226492416	60	13628
2026-01-30 02:08:06.80	15.14	16.36	-48.2	-50.9	24.8	3.02e+01	0	46	0	234356736	60	13299
2026-01-30 02:08:10.82	14.71	16.82	-48.4	-50.8	25.9	3.02e+01	0	46	0	241696768	60	13167
2026-01-30 02:08:14.85	14.27	17.29	-48.2	-50.7	26.1	3.02e+01	0	46	0	249036800	60	13026
2026-01-30 02:08:18.87	13.82	17.76	-48.1	-50.8	26.0	3.02e+01	0	46	0	256901120	60	13125
2026-01-30 02:08:22.90	13.34	18.25	-47.9	-50.8	25.8	3.02e+01	0	46	0	264241152	60	13244
2026-01-30 02:08:26.93	12.85	18.74	-48.0	-50.9	25.3	3.02e+01	0	46	0	272105472	60	13407
2026-01-30 02:08:30.93	12.35	19.24	-48.5	-51.0	25.2	3.02e+01	0	46	0	279445504	60	13516
2026-01-30 02:08:34.96	11.82	19.75	-48.8	-51.0	25.2	3.02e+01	0	46	0	286785536	60	13527
2026-01-30 02:08:38.98	11.28	20.27	-48.9	-51.0	25.7	3.02e+01	0	46	0	294649856	60	13493
2026-01-30 02:08:43.01	10.71	20.80	-48.2	-51.0	26.0	3.02e+01	0	46	0	301989888	60	13474
2026-01-30 02:08:47.02	10.13	21.34	-47.8	-51.0	25.3	3.02e+01	0	46	0	309329920	60	13556
2026-01-30 02:08:51.04	9.52	21.89	-48.7	-51.2	25.0	3.02e+01	0	46	0	317194240	60	13735
2026-01-30 02:08:55.07	8.88	22.45	-48.3	-51.3	25.4	3.02e+01	0	46	0	324534272	60	13948
2026-01-30 02:08:59.10	8.22	23.02	-48.5	-51.3	25.6	3.02e+01	0	46	0	332398592	60	14008
2026-01-30 02:09:03.12	7.54	23.60	-49.0	-51.1	25.9	3.02e+01	0	46	0	339738624	60	13597
2026-01-30 02:09:07.15	6.82	24.18	-49.0	-51.2	25.8	3.02e+01	0	46	0	347078656	60	13804
2026-01-30 02:09:11.16	6.09	24.78	-49.3	-51.5	25.6	3.02e+01	0	46	0	354942976	60	14357
2026-01-30 02:09:15.18	5.31	25.38	-49.1	-51.3	25.6	3.02e+01	0	46	0	362283008	60	14007
2026-01-30 02:09:19.22	4.51	26.00	-49.4	-51.5	25.4	3.02e+01	0	46	0	370147328	60	14345
2026-01-30 02:09:23.24	3.67	26.63	-49.4	-51.7	25.1	3.02e+01	0	46	0	377487360	60	14596
2026-01-30 02:09:27.27	2.79	27.26	-48.8	-51.0	25.5	3.02e+01	0	46	0	385351680	60	13491
2026-01-30 02:09:31.28	1.88	27.90	-48.9	-51.1	25.7	3.02e+01	0	46	0	392691712	60	13670
2026-01-30 02:09:35.32	0.93	28.56	-48.1	-50.3	26.3	3.02e+01	0	46	0	400031744	60	12389
2026-01-30 02:09:39.35	359.93	29.22	-48.5	-50.4	26.4	3.02e+01	0	46	0	407371776	60	12585
2026-01-30 02:09:43.36	358.90	29.88	-48.6	-50.5	26.2	3.02e+01	0	46	0	415236096	60	12769
2026-01-30 02:09:47.38	357.82	30.55	-48.5	-50.6	26.1	3.02e+01	0	46	0	422576128	60	12950
2026-01-30 02:09:51.42	356.68	31.23	-48.8	-50.8	25.8	3.02e+01	0	46	0	430440448	60	13201
2026-01-30 02:09:55.44	355.50	31.91	-48.4	-50.7	26.0	3.02e+01	0	46	0	437780480	60	13031
2026-01-30 02:09:59.46	354.27	32.59	-48.6	-50.7	26.2	3.02e+01	0	46	0	445644800	60	13026
2026-01-30 02:10:03.48	352.98	33.27	-49.1	-51.0	26.2	3.02e+01	0	46	0	452984832	60	13427
2026-01-30 02:10:07.51	351.63	33.96	-50.0	-51.8	25.5	3.02e+01	0	46	0	460324864	60	14881
2026-01-30 02:10:11.54	350.22	34.64	-49.9	-51.9	25.5	3.02e+01	0	46	0	468189184	60	14908
2026-01-30 02:10:15.56	348.75	35.31	-50.6	-52.6	24.9	3.02e+01	0	46	0	475529216	60	16178
2026-01-30 02:10:19.59	347.22	35.99	-49.8	-51.8	25.3	3.02e+01	0	46	0	483393536	60	14752
2026-01-30 02:10:23.63	345.61	36.65	-50.3	-52.4	24.2	3.02e+01	0	46	0	490733568	60	15938
2026-01-30 02:10:27.66	343.94	37.30	-50.2	-52.5	23.5	3.02e+01	0	46	0	498597888	60	15987
2026-01-30 02:10:31.69	342.20	37.93	-50.2	-52.4	24.0	3.02e+01	0	46	0	505937920	60	15794
2026-01-30 02:10:35.71	340.40	38.54	-50.8	-53.1	23.5	3.02e+01	0	46	0	513277952	60	17140
2026-01-30 02:10:39.74	338.52	39.14	-50.7	-52.9	23.6	3.02e+01	0	46	0	520617984	60	16783
2026-01-30 02:10:43.77	336.57	39.71	-50.5	-52.6	24.1	3.02e+01	0	46	0	528482304	60	16270
2026-01-30 02:10:47.79	334.56	40.24	-50.5	-52.7	24.2	3.02e+01	0	46	0	535822336	60	16323
2026-01-30 02:10:51.80	332.48	40.75	-50.4	-52.4	24.8	3.02e+01	0	46	0	543686656	60	15834
2026-01-30 02:10:55.82	330.33	41.21	-50.2	-52.2	24.9	3.02e+01	0	46	0	551026688	60	15508
2026-01-30 02:10:59.85	328.12	41.64	-50.2	-52.3	24.7	3.02e+01	0	46	0	558366720	60	15756
2026-01-30 02:11:03.87	325.85	42.03	-50.5	-52.5	24.6	3.02e+01	0	46	0	566231040	60	15980
2026-01-30 02:11:07.91	323.52	42.37	-50.9	-53.0	24.3	3.02e+01	0	46	0	573571072	60	17088
2026-01-30 02:11:11.94	321.15	42.65	-50.2	-52.4	24.6	3.02e+01	0	46	0	581435392	60	15892
2026-01-30 02:11:15.96	318.75	42.88	-50.6	-52.7	24.3	3.02e+01	0	46	0	588775424	60	16418
2026-01-30 02:11:19.99	316.31	43.06	-49.9	-52.1	25.1	3.02e+01	0	46	0	596639744	60	15270
2026-01-30 02:11:24.02	313.84	43.18	-49.3	-51.5	25.1	3.02e+01	0	46	0	603979776	60	14232
2026-01-30 02:11:28.05	311.36	43.24	-49.5	-51.6	25.4	3.02e+01	0	46	0	611319808	60	14419
2026-01-30 02:11:32.08	308.88	43.24	-50.0	-51.9	25.2	3.02e+01	0	46	0	619184128	60	15030
2026-01-30 02:11:36.10	306.40	43.19	-49.5	-51.3	25.8	3.02e+01	0	46	0	626524160	60	14013
2026-01-30 02:11:40.14	303.93	43.07	-49.3	-51.3	25.9	3.02e+01	0	46	0	633864192	60	13925
2026-01-30 02:11:44.16	301.49	42.89	-49.4	-51.4	25.5	3.02e+01	0	46	0	641728512	60	14213
2026-01-30 02:11:48.18	299.08	42.66	-49.6	-51.3	25.5	3.02e+01	0	46	0	649068544	60	14035
2026-01-30 02:11:52.21	296.71	42.38	-49.3	-51.1	25.8	3.02e+01	0	46	0	656932864	60	13587
2026-01-30 02:11:56.24	294.38	42.04	-49.1	-51.0	25.8	3.02e+01	0	46	0	664272896	60	13504
2026-01-30 02:12:00.26	292.11	41.66	-48.8	-51.1	25.3	3.02e+01	0	46	0	672137216	60	13626
2026-01-30 02:12:04.29	289.89	41.23	-49.5	-51.9	24.9	3.02e+01	0	46	0	679477248	60	14989
2026-01-30 02:12:08.32	287.73	40.76	-49.4	-51.3	25.7	3.02e+01	0	46	0	686817280	60	13984
2026-01-30 02:12:12.34	285.65	40.26	-49.8	-51.6	25.3	3.02e+01	0	46	0	694681600	60	14454
2026-01-30 02:12:16.36	283.63	39.72	-49.9	-52.2	23.8	3.02e+01	0	46	0	702021632	60	15505
2026-01-30 02:12:20.39	281.67	39.15	-49.7	-52.5	23.1	3.02e+01	0	46	0	709885952	60	15991
2026-01-30 02:12:24.42	279.79	38.56	-48.5	-51.1	23.5	3.02e+01	0	46	0	717225984	60	13634
2026-01-30 02:12:28.45	277.97	37.94	-48.8	-50.9	24.0	3.02e+01	0	46	0	724566016	60	13396
2026-01-30 02:12:32.47	276.23	37.31	-50.0	-52.5	22.1	3.02e+01	0	46	0	732430336	60	15976
2026-01-30 02:12:36.50	274.56	36.66	-49.5	-51.6	23.4	3.02e+01	0	46	0	739770368	60	14469
2026-01-30 02:12:40.54	272.94	36.00	-48.9	-50.7	25.4	3.02e+01	0	46	0	747110400	60	13115
2026-01-30 02:12:44.56	271.41	35.33	-50.7	-53.1	23.3	3.02e+01	0	46	0	754974720	60	17185
2026-01-30 02:12:48.57	269.94	34.65	-50.0	-52.0	24.4	3.02e+01	0	46	0	762314752	60	15165
2026-01-30 02:12:52.60	268.52	33.97	-49.3	-51.0	25.4	3.02e+01	0	46	0	770179072	60	13490
2026-01-30 02:12:56.63	267.17	33.28	-49.6	-51.5	24.3	3.02e+01	0	46	0	777519104	60	14352
2026-01-30 02:13:00.66	265.87	32.60	-49.3	-51.3	24.5	3.02e+01	0	46	0	785383424	60	13957
2026-01-30 02:13:04.70	264.62	31.91	-48.8	-50.8	24.2	3.02e+01	0	46	0	792723456	60	13220
2026-01-30 02:13:08.73	263.44	31.22	-49.1	-51.3	23.7	3.02e+01	0	46	0	800063488	60	13959
2026-01-30 02:13:12.76	262.30	30.55	-49.2	-51.0	24.7	3.02e+01	0	46	0	807927808	60	13518
2026-01-30 02:13:16.78	261.21	29.87	-49.5	-51.6	24.3	3.02e+01	0	46	0	815267840	60	14521
2026-01-30 02:13:20.81	260.17	29.20	-49.2	-51.1	24.6	3.02e+01	0	46	0	823132160	60	13633
2026-01-30 02:13:24.84	259.17	28.54	-48.8	-50.5	25.8	3.02e+01	0	46	0	830472192	60	12676
2026-01-30 02:13:28.87	258.21	27.89	-49.5	-51.5	23.9	3.02e+01	0	46	0	838336512	60	14237
2026-01-30 02:13:32.90	257.30	27.24	-49.4	-51.2	25.1	3.02e+01	0	46	0	845676544	60	13794
2026-01-30 02:13:36.92	256.42	26.61	-50.3	-52.5	23.5	3.02e+01	0	46	0	853016576	60	15974
2026-01-30 02:13:40.94	255.58	25.98	-49.8	-51.9	24.0	3.02e+01	0	46	0	860356608	60	14971
2026-01-30 02:13:44.96	254.77	25.36	-50.0	-52.0	24.1	3.02e+01	0	46	0	868220928	60	15114
2026-01-30 02:13:48.98	253.99	24.75	-49.4	-51.5	24.1	3.02e+01	0	46	0	875560960	60	14323
2026-01-30 02:13:53.01	253.25	24.15	-48.8	-50.8	24.3	3.02e+01	0	46	0	883425280	60	13236
2026-01-30 02:13:57.03	252.53	23.57	-48.8	-50.7	25.1	3.02e+01	0	46	0	890765312	60	12999
2026-01-30 02:14:01.06	251.84	22.99	-49.1	-51.0	24.5	3.02e+01	0	46	0	898629632	60	13423
2026-01-30 02:14:05.07	251.19	22.42	-48.7	-50.4	25.3	3.02e+01	0	46	0	905969664	60	12603
2026-01-30 02:14:09.10	250.55	21.86	-49.1	-50.9	25.0	3.02e+01	0	46	0	913309696	60	13328
2026-01-30 02:14:13.13	249.93	21.30	-48.9	-50.6	25.2	3.02e+01	0	46	0	921174016	60	12930
2026-01-30 02:14:17.16	249.34	20.76	-48.9	-50.7	24.9	3.02e+01	0	46	0	928514048	60	13040
2026-01-30 02:14:21.18	248.78	20.23	-48.8	-50.8	24.3	3.02e+01	0	46	0	936378368	60	13172
2026-01-30 02:14:25.20	248.23	19.71	-49.1	-51.1	24.2	3.02e+01	0	46	0	943718400	60	13697
2026-01-30 02:14:29.23	247.70	19.20	-49.7	-51.7	24.0	3.02e+01	0	46	0	951058432	60	14680
2026-01-30 02:14:33.27	247.19	18.69	-50.0	-52.0	23.8	3.02e+01	0	46	0	958922752	60	15080
2026-01-30 02:14:37.30	246.70	18.19	-50.6	-52.8	23.0	3.02e+01	0	46	0	966262784	60	16643
2026-01-30 02:14:41.32	246.22	17.71	-49.9	-51.9	23.9	3.02e+01	0	46	0	973602816	60	15053
2026-01-30 02:14:45.35	245.76	17.23	-49.4	-51.4	24.3	3.02e+01	0	46	0	981467136	60	14163
2026-01-30 02:14:49.38	245.32	16.76	-49.8	-52.0	23.6	3.02e+01	0	46	0	988807168	60	15132
2026-01-30 02:14:53.40	244.89	16.30	-49.8	-52.0	23.3	3.02e+01	0	46	0	996671488	60	15175
2026-01-30 02:14:57.42	244.48	15.85	-49.4	-51.5	23.8	3.02e+01	0	46	0	1004011520	60	14249
2026-01-30 02:15:01.44	244.07	15.40	-50.4	-52.9	22.2	3.02e+01	0	46	0	1011351552	60	16791
2026-01-30 02:15:05.47	243.69	14.96	-50.3	-52.8	22.2	3.02e+01	0	46	0	1019215872	60	16517
2026-01-30 02:15:09.50	243.31	14.53	-51.1	-53.8	21.3	3.02e+01	0	46	0	1026555904	60	18705
2026-01-30 02:15:13.54	242.94	14.10	-52.1	-55.3	19.7	3.02e+01	0	46	0	1034420224	60	22157
2026-01-30 02:15:17.55	242.59	13.69	-50.3	-52.7	22.6	3.02e+01	0	46	0	1041760256	60	16328
2026-01-30 02:15:21.58	242.25	13.28	-49.2	-51.3	23.9	3.02e+01	0	46	0	1049624576	60	13908
2026-01-30 02:15:25.61	241.92	12.87	-49.4	-51.4	23.6	3.02e+01	0	46	0	1056964608	60	14182
2026-01-30 02:15:29.63	241.59	12.48	-49.4	-51.5	23.5	3.02e+01	0	46	0	1064304640	60	14279
2026-01-30 02:15:33.65	241.28	12.09	-49.3	-51.5	23.6	3.02e+01	0	46	0	1072168960	60	14227
2026-01-30 02:15:37.67	240.98	11.70	-48.7	-50.7	24.2	3.02e+01	0	46	0	1079508992	60	13094
2026-01-30 02:15:41.70	240.68	11.32	-48.5	-50.5	24.3	3.02e+01	0	46	0	1086849024	60	12692
2026-01-30 02:15:45.72	240.40	10.95	-48.6	-50.6	24.2	3.02e+01	0	46	0	1094713344	60	12836
2026-01-30 02:15:49.74	240.12	10.58	-48.6	-50.7	23.8	3.02e+01	0	46	0	1102053376	60	13013
2026-01-30 02:15:53.76	239.85	10.22	-48.4	-50.6	23.3	3.02e+01	0	46	0	1109917696	60	12939
2026-01-30 02:15:57.78	239.58	9.86	-48.3	-50.7	23.1	3.02e+01	0	46	0	1117257728	60	12971
2026-01-30 02:16:01.78	239.33	9.51	-48.3	-50.7	22.8	3.02e+01	0	46	0	1124597760	60	13032
2026-01-30 02:16:05.81	239.08	9.17	-48.0	-50.6	22.3	3.02e+01	0	46	0	1132462080	60	12931
2026-01-30 02:16:09.83	238.84	8.82	-48.2	-50.8	22.6	3.02e+01	0	46	0	1139802112	60	13122
2026-01-30 02:16:13.86	238.60	8.48	-48.6	-50.9	22.9	3.02e+01	0	46	0	1147666432	60	13299
2026-01-30 02:16:17.90	238.37	8.15	-48.4	-50.8	22.9	3.02e+01	0	46	0	1155006464	60	13190
2026-01-30 02:16:21.93	238.14	7.82	-48.4	-50.9	22.5	3.02e+01	0	46	0	1162346496	60	13367
2026-01-30 02:16:25.96	237.93	7.50	-48.5	-51.1	22.5	3.02e+01	0	46	0	1170210816	60	13609
2026-01-30 02:16:29.98	237.71	7.18	-48.4	-50.9	22.5	3.02e+01	0	46	0	1177550848	60	13395
2026-01-30 02:16:34.02	237.50	6.86	-48.4	-50.9	22.6	3.02e+01	0	46	0	1185415168	60	13352
2026-01-30 02:16:38.05	237.30	6.55	-48.4	-51.0	22.3	3.02e+01	0	46	0	1192755200	60	13459
2026-01-30 02:16:42.08	237.10	6.24	-48.5	-51.0	22.6	3.02e+01	0	46	0	1200095232	60	13479
2026-01-30 02:16:46.10	236.91	5.93	-53.9	-67.1	4.4	3.02e+01	0	46	0	1207959552	60	86248
2026-01-30 02:16:50.13	236.72	5.63	-55.3	-75.4	3.5	3.02e+01	0	46	104	1207959552	60	223720
2026-01-30 02:16:54.15	236.54	5.33	-56.3	-76.5	3.5	3.02e+01	0	46	104	1207959552	60	253137
2026-01-30 02:16:58.17	236.36	5.04	-56.7	-76.8	3.5	3.02e+01	0	46	104	1207959552	60	262959
2026-01-30 02:17:02.20	236.18	4.75	-57.7	-77.3	3.5	3.02e+01	0	46	104	1207959552	60	279023
2026-01-30 02:17:06.22	236.01	4.46	-58.0	-77.8	3.5	3.02e+01	0	46	104	1207959552	60	294943
2026-01-30 02:17:10.24	235.84	4.18	-58.2	-78.1	3.5	3.02e+01	0	46	104	1207959552	60	304694
2026-01-30 02:17:14.27	235.68	3.90	-58.0	-79.2	3.5	3.02e+01	0	46	104	1207959552	60	347273
2026-01-30 02:17:18.30	235.52	3.62	-57.9	-79.4	3.5	3.02e+01	0	46	104	1207959552	60	354173
2026-01-30 02:17:22.33	235.36	3.34	-55.1	-79.0	3.5	3.02e+01	0	46	104	1207959552	60	337738
2026-01-30 02:17:26.36	235.21	3.07	-57.0	-79.2	3.5	3.02e+01	0	46	104	1207959552	60	348312
2026-01-30 02:17:30.38	235.06	2.80	-57.0	-79.4	3.5	3.02e+01	0	46	104	1207959552	60	353341
2026-01-30 02:17:34.41	234.91	2.53	-56.9	-79.1	3.5	3.02e+01	0	46	104	1207959552	60	343081
2026-01-30 02:17:38.44	234.77	2.27	-57.0	-79.3	3.5	3.02e+01	0	46	104	1207959552	60	348991
2026-01-30 02:17:42.46	234.63	2.00	-56.9	-79.2	3.5	3.02e+01	0	46	104	1207959552	60	346129
2026-01-30 02:17:46.49	234.49	1.74	-56.9	-79.3	3.5	3.02e+01	0	46	104	1207959552	60	348977
2026-01-30 02:17:50.51	234.35	1.49	-56.9	-79.2	3.5	3.02e+01	0	46	104	1207959552	60	347700
2026-01-30 02:17:54.55	234.22	1.23	-57.0	-79.1	3.6	3.02e+01	0	46	104	1207959552	60	344795
2026-01-30 02:17:58.58	234.09	0.98	-57.0	-79.2	3.5	3.02e+01	0	46	104	1207959552	60	346985
2026-01-30 02:18:02.59	233.97	0.73	-57.1	-79.1	3.5	3.02e+01	0	46	104	1207959552	60	342637
2026-01-30 02:18:06.60	233.84	0.48	-57.1	-79.3	3.5	3.02e+01	0	46	104	1207959552	60	349634
2026-01-30 02:18:10.63	233.72	0.23	-57.0	-79.2	3.5	3.02e+01	0	46	104	1207959552	60	348564
2026-01-30 02:18:14.66	233.60	-0.01	-57.0	-79.2	3.5	3.02e+01	0	46	104	1207959552	60	348603

#Closed at: 2026-01-30 02:18:17
#Recorded file [1207 MB]: D:/Data/35015_260130_051646.dat