passes_logs/2026/01/30/R3.2S-Naryan-Mar/R3.2S-Naryan-Mar__20260130_034154_AQUA_rec.log

#Pass ID: 20260130_034154_AQUA
#Satellite: AQUA
#Configuration: AQUA
#almurnet v.1.7.20240730
#Start time: 2026-01-30 03:41:55

#Version: 2.2.20231116
#Station: R3.2S-Naryan-Mar
#Location: 53.008057 lon 67.646978 lat
#TLE: 1 27424U 02022A   26028.91948147  .00001781  00000+0  36607-3 0  9997
#TLE: 2 27424  98.4103 355.5827 0001815  62.4290   1.4641 14.61871847262923

#Time	Az	El	Level	Level2	SNR	BER	BlckErr	Temp	State	Recorded	gain1	gain2
2026-01-30 03:41:55.86	36.27	0.07	-62.5	-79.1	3.5	1.51e+00	0	43	0	0	60	351251
2026-01-30 03:41:58.88	36.09	0.24	-57.0	-77.5	3.6	3.02e+01	0	44	104	0	60	286706
2026-01-30 03:42:01.90	35.89	0.40	-58.7	-78.7	3.5	3.02e+01	0	44	104	0	60	328216
2026-01-30 03:42:04.93	35.70	0.57	-57.3	-78.8	3.5	3.02e+01	0	45	104	0	60	332070
2026-01-30 03:42:07.95	35.50	0.74	-58.4	-79.3	3.5	3.02e+01	0	45	104	0	60	349788
2026-01-30 03:42:10.96	35.30	0.91	-58.2	-79.3	3.5	3.02e+01	0	45	104	0	60	350692
2026-01-30 03:42:13.99	35.10	1.08	-57.1	-79.1	3.5	3.02e+01	0	45	104	0	60	343125
2026-01-30 03:42:17.01	34.90	1.26	-56.9	-78.5	3.5	3.02e+01	0	45	104	0	60	319204
2026-01-30 03:42:20.03	34.69	1.43	-56.0	-78.3	3.5	3.02e+01	0	45	104	0	60	313352
2026-01-30 03:42:23.05	34.48	1.60	-55.8	-77.7	3.6	3.02e+01	0	45	104	0	60	293330
2026-01-30 03:42:26.07	34.27	1.78	-55.2	-76.9	3.6	3.02e+01	0	45	104	0	60	267642
2026-01-30 03:42:29.09	34.05	1.95	-52.4	-74.7	3.7	3.02e+01	0	45	104	0	60	206898
2026-01-30 03:42:32.11	33.83	2.13	-47.6	-72.2	4.3	3.02e+01	0	45	104	0	60	155459
2026-01-30 03:42:35.13	33.61	2.31	-47.5	-70.6	4.2	3.02e+01	0	45	104	0	60	128248
2026-01-30 03:42:38.15	33.38	2.48	-47.4	-72.0	4.3	3.02e+01	0	45	104	0	60	150839
2026-01-30 03:42:41.17	33.16	2.66	-47.3	-71.5	4.3	3.02e+01	0	45	104	0	60	142202
2026-01-30 03:42:44.19	32.92	2.84	-47.3	-70.5	4.2	3.02e+01	0	45	104	0	60	127180
2026-01-30 03:42:47.21	32.69	3.02	-47.2	-71.3	4.3	3.02e+01	0	45	104	0	60	140361
2026-01-30 03:42:50.22	32.45	3.20	-47.2	-71.9	4.3	3.02e+01	0	45	104	0	60	149499
2026-01-30 03:42:53.25	32.21	3.39	-47.1	-70.3	4.2	3.02e+01	0	45	104	0	60	124650
2026-01-30 03:42:56.27	31.96	3.57	-47.1	-71.2	4.3	3.02e+01	0	45	104	0	60	138290
2026-01-30 03:42:59.29	31.72	3.75	-47.1	-71.6	4.3	3.02e+01	0	45	104	0	60	144339
2026-01-30 03:43:02.32	31.46	3.94	-47.2	-71.6	4.3	3.02e+01	0	45	104	0	60	144006
2026-01-30 03:43:05.34	31.21	4.12	-47.3	-71.4	4.3	3.02e+01	0	45	104	0	60	140870
2026-01-30 03:43:08.37	30.95	4.31	-47.3	-71.4	4.3	3.02e+01	0	45	104	0	60	140840
2026-01-30 03:43:11.38	30.68	4.50	-47.2	-71.5	4.4	3.02e+01	0	45	104	0	60	143000
2026-01-30 03:43:14.41	30.42	4.69	-47.2	-71.8	4.3	3.02e+01	0	45	104	0	60	148224
2026-01-30 03:43:17.42	30.15	4.88	-47.2	-70.6	4.3	3.02e+01	0	45	104	0	60	128892
2026-01-30 03:43:20.43	29.87	5.07	-47.2	-71.7	4.3	3.02e+01	0	45	104	0	60	146343
2026-01-30 03:43:23.45	29.59	5.26	-47.3	-71.1	4.2	3.02e+01	0	45	104	0	60	136181
2026-01-30 03:43:26.47	29.31	5.45	-47.3	-70.1	4.0	3.02e+01	0	45	104	0	60	121858
2026-01-30 03:43:29.48	29.02	5.64	-47.1	-66.5	3.6	3.02e+01	0	45	104	0	60	80048
2026-01-30 03:43:32.50	28.73	5.84	-46.6	-63.1	3.5	3.02e+01	0	45	104	0	60	54606
2026-01-30 03:43:35.52	28.43	6.03	-46.5	-62.6	3.5	3.02e+01	0	45	104	0	60	51126
2026-01-30 03:43:38.52	28.13	6.22	-47.3	-62.5	3.6	3.02e+01	0	45	104	0	60	50950
2026-01-30 03:43:41.53	27.83	6.42	-47.7	-64.8	3.5	3.02e+01	0	45	104	0	60	65795
2026-01-30 03:43:44.55	27.52	6.62	-48.7	-63.2	3.5	3.02e+01	0	45	104	0	60	55060
2026-01-30 03:43:47.57	27.20	6.82	-48.3	-63.5	3.6	3.02e+01	0	45	104	0	60	56876
2026-01-30 03:43:50.59	26.88	7.02	-47.9	-62.6	3.5	3.02e+01	0	45	104	0	60	51455
2026-01-30 03:43:53.60	26.56	7.22	-47.9	-62.7	3.5	3.02e+01	0	45	104	0	60	52081
2026-01-30 03:43:56.61	26.23	7.42	-48.0	-62.9	3.5	3.02e+01	0	45	104	0	60	52903
2026-01-30 03:43:59.63	25.90	7.62	-48.8	-63.7	3.5	3.02e+01	0	45	104	0	60	58021
2026-01-30 03:44:02.66	25.55	7.82	-48.5	-63.0	3.5	3.02e+01	0	46	104	0	60	53444
2026-01-30 03:44:05.67	25.21	8.03	-49.8	-65.3	3.5	3.02e+01	0	45	104	0	60	70081
2026-01-30 03:44:08.69	24.86	8.23	-49.7	-63.1	3.5	3.02e+01	0	45	104	0	60	54341
2026-01-30 03:44:11.70	24.50	8.44	-49.6	-62.9	3.5	3.02e+01	0	46	104	0	60	53012
2026-01-30 03:44:14.72	24.14	8.64	-49.0	-61.9	3.5	3.02e+01	0	46	104	0	60	47614
2026-01-30 03:44:17.74	23.77	8.85	-49.2	-63.9	3.5	3.02e+01	0	46	104	0	60	59857
2026-01-30 03:44:20.76	23.40	9.06	-49.2	-62.7	3.5	3.02e+01	0	46	104	0	60	51759
2026-01-30 03:44:23.78	23.02	9.27	-48.1	-61.7	3.5	3.02e+01	0	46	104	0	60	46238
2026-01-30 03:44:26.80	22.63	9.48	-48.7	-62.9	3.6	3.02e+01	0	46	104	0	60	52884
2026-01-30 03:44:29.83	22.24	9.69	-50.1	-64.5	3.5	3.02e+01	0	46	104	0	60	64058
2026-01-30 03:44:32.85	21.84	9.90	-48.7	-61.9	3.5	3.02e+01	0	46	104	0	60	47556
2026-01-30 03:44:35.86	21.43	10.11	-49.8	-63.3	3.5	3.02e+01	0	46	104	0	60	55488
2026-01-30 03:44:38.88	21.02	10.32	-49.4	-61.5	3.5	3.02e+01	0	46	104	0	60	45168
2026-01-30 03:44:41.89	20.60	10.54	-50.0	-62.0	3.5	3.02e+01	0	46	104	0	60	47780
2026-01-30 03:44:44.90	20.18	10.75	-52.5	-66.5	3.5	3.02e+01	0	46	104	0	60	80371
2026-01-30 03:44:47.93	19.75	10.96	-49.8	-61.4	3.5	3.02e+01	0	46	104	0	60	44529
2026-01-30 03:44:50.95	19.31	11.18	-50.7	-62.6	3.5	3.02e+01	0	46	104	0	60	51511
2026-01-30 03:44:53.96	18.86	11.39	-51.3	-63.4	3.5	3.02e+01	0	45	104	0	60	56004
2026-01-30 03:44:56.98	18.41	11.61	-49.6	-61.6	3.5	3.02e+01	0	46	104	0	60	45508
2026-01-30 03:45:00.00	17.95	11.83	-51.2	-64.5	3.5	3.02e+01	0	46	104	0	60	64050
2026-01-30 03:45:03.03	17.48	12.05	-49.8	-62.2	3.5	3.02e+01	0	46	104	0	60	48742
2026-01-30 03:45:06.04	17.00	12.26	-50.1	-61.8	3.5	3.02e+01	0	46	104	0	60	46646
2026-01-30 03:45:09.06	16.52	12.48	-52.4	-67.3	3.5	3.02e+01	0	46	104	0	60	87900
2026-01-30 03:45:12.09	16.02	12.70	-51.3	-62.8	3.5	3.02e+01	0	46	104	0	60	52753
2026-01-30 03:45:15.10	15.53	12.91	-50.6	-61.8	3.5	3.02e+01	0	46	104	0	60	46561
2026-01-30 03:45:18.13	15.02	13.13	-50.4	-61.5	3.5	3.02e+01	0	46	104	0	60	45028
2026-01-30 03:45:21.15	14.50	13.35	-51.1	-62.2	3.5	3.02e+01	0	45	104	0	60	49207
2026-01-30 03:45:24.17	13.97	13.57	-52.1	-63.8	3.5	3.02e+01	0	45	104	0	60	58899
2026-01-30 03:45:27.19	13.44	13.79	-50.5	-61.6	3.6	3.02e+01	0	46	104	0	60	45904
2026-01-30 03:45:30.21	12.90	14.00	-52.4	-64.5	3.5	3.02e+01	0	46	104	0	60	63702
2026-01-30 03:45:33.23	12.35	14.22	-52.9	-66.3	3.5	3.02e+01	0	46	104	0	60	78792
2026-01-30 03:45:36.25	11.79	14.44	-49.8	-60.8	3.5	3.02e+01	0	46	104	0	60	41504
2026-01-30 03:45:39.27	11.22	14.65	-52.4	-64.5	3.5	3.02e+01	0	46	104	0	60	63670
2026-01-30 03:45:42.30	10.64	14.87	-50.6	-62.0	3.5	3.02e+01	0	46	104	0	60	48086
2026-01-30 03:45:45.32	10.05	15.08	-50.4	-61.7	3.5	3.02e+01	0	46	104	0	60	46216
2026-01-30 03:45:48.34	9.46	15.30	-52.2	-64.1	3.5	3.02e+01	0	45	104	0	60	61018
2026-01-30 03:45:51.35	8.86	15.51	-50.5	-61.6	3.5	3.02e+01	0	46	104	0	60	45842
2026-01-30 03:45:54.37	8.24	15.72	-50.1	-61.3	3.5	3.02e+01	0	45	104	0	60	43950
2026-01-30 03:45:57.40	7.62	15.93	-53.4	-67.1	3.5	3.02e+01	0	46	104	0	60	86201
2026-01-30 03:46:00.43	6.98	16.14	-50.4	-61.4	3.5	3.02e+01	0	46	104	0	60	44630
2026-01-30 03:46:03.45	6.34	16.35	-51.5	-63.0	3.5	3.02e+01	0	46	104	0	60	53684
2026-01-30 03:46:06.47	5.68	16.56	-50.2	-61.2	3.5	3.02e+01	0	46	104	0	60	43475
2026-01-30 03:46:09.48	5.02	16.76	-50.4	-61.4	3.5	3.02e+01	0	46	104	0	60	44505
2026-01-30 03:46:12.51	4.35	16.97	-50.4	-61.5	3.5	3.02e+01	0	46	104	0	60	45375
2026-01-30 03:46:15.53	3.67	17.17	-50.6	-61.7	3.5	3.02e+01	0	46	104	0	60	46214
2026-01-30 03:46:18.55	2.98	17.36	-51.5	-63.0	3.5	3.02e+01	0	46	104	0	60	53544
2026-01-30 03:46:21.56	2.28	17.56	-52.3	-63.9	3.5	3.02e+01	0	46	104	0	60	59302
2026-01-30 03:46:24.58	1.57	17.75	-50.0	-60.9	3.5	3.02e+01	0	46	104	0	60	41983
2026-01-30 03:46:27.58	0.85	17.94	-50.6	-61.6	3.5	3.02e+01	0	46	104	0	60	45588
2026-01-30 03:46:30.60	0.12	18.13	-50.5	-61.5	3.5	3.02e+01	0	46	104	0	60	45439
2026-01-30 03:46:33.62	359.38	18.31	-51.0	-62.3	3.5	3.02e+01	0	46	104	0	60	49359
2026-01-30 03:46:36.64	358.63	18.49	-50.2	-61.2	3.5	3.02e+01	0	46	104	0	60	43881
2026-01-30 03:46:39.66	357.87	18.67	-50.2	-61.3	3.5	3.02e+01	0	46	104	0	60	44265
2026-01-30 03:46:42.68	357.10	18.85	-49.8	-60.8	3.5	3.02e+01	0	46	104	0	60	41787
2026-01-30 03:46:45.71	356.32	19.02	-52.1	-64.1	3.5	3.02e+01	0	46	104	0	60	60908
2026-01-30 03:46:48.73	355.54	19.18	-50.7	-61.9	3.5	3.02e+01	0	46	104	0	60	47467
2026-01-30 03:46:51.74	354.74	19.34	-51.0	-62.4	3.5	3.02e+01	0	46	104	0	60	50286
2026-01-30 03:46:54.76	353.94	19.50	-50.8	-62.0	3.6	3.02e+01	0	46	104	0	60	47817
2026-01-30 03:46:57.78	353.12	19.65	-50.7	-61.8	3.5	3.02e+01	0	46	104	0	60	47037
2026-01-30 03:47:00.80	352.30	19.80	-52.2	-63.8	3.5	3.02e+01	0	46	104	0	60	58836
2026-01-30 03:47:03.82	351.47	19.94	-50.5	-61.4	3.5	3.02e+01	0	46	104	0	60	44632
2026-01-30 03:47:06.84	350.63	20.08	-50.8	-61.8	3.5	3.02e+01	0	46	104	0	60	46964
2026-01-30 03:47:09.87	349.78	20.21	-51.5	-62.7	3.5	3.02e+01	0	46	104	0	60	51956
2026-01-30 03:47:12.88	348.93	20.34	-50.7	-61.8	3.5	3.02e+01	0	46	104	0	60	46805
2026-01-30 03:47:15.88	348.07	20.46	-52.1	-63.5	3.5	3.02e+01	0	46	104	0	60	56688
2026-01-30 03:47:18.91	347.20	20.57	-51.3	-62.4	3.5	3.02e+01	0	46	104	0	60	49900
2026-01-30 03:47:21.93	346.33	20.68	-52.2	-63.8	3.5	3.02e+01	0	46	104	0	60	59014
2026-01-30 03:47:24.94	345.45	20.78	-53.7	-66.4	3.5	3.02e+01	0	46	104	0	60	79114
2026-01-30 03:47:27.96	344.56	20.88	-51.2	-62.5	3.5	3.02e+01	0	46	104	0	60	51005
2026-01-30 03:47:30.98	343.67	20.97	-52.0	-63.5	3.5	3.02e+01	0	46	104	0	60	56810
2026-01-30 03:47:34.00	342.77	21.05	-51.0	-62.1	3.5	3.02e+01	0	46	104	0	60	48442
2026-01-30 03:47:37.03	341.86	21.12	-53.0	-65.1	3.5	3.02e+01	0	46	104	0	60	68503
2026-01-30 03:47:40.05	340.95	21.19	-51.8	-63.3	3.5	3.02e+01	0	46	104	0	60	55593
2026-01-30 03:47:43.07	340.04	21.25	-50.4	-61.5	3.5	3.02e+01	0	46	104	0	60	45115
2026-01-30 03:47:46.10	339.12	21.31	-51.6	-63.1	3.5	3.02e+01	0	46	104	0	60	54345
2026-01-30 03:47:49.11	338.21	21.35	-54.7	-69.1	3.5	3.02e+01	0	46	104	0	60	108769
2026-01-30 03:47:52.14	337.28	21.39	-51.9	-63.3	3.5	3.02e+01	0	46	104	0	60	55722
2026-01-30 03:47:55.16	336.36	21.42	-52.1	-63.6	3.5	3.02e+01	0	46	104	0	60	57654
2026-01-30 03:47:58.18	335.43	21.44	-52.0	-63.3	3.5	3.02e+01	0	46	104	0	60	55876
2026-01-30 03:48:01.21	334.50	21.46	-50.8	-61.7	3.6	3.02e+01	0	46	104	0	60	46469
2026-01-30 03:48:04.21	333.58	21.47	-52.0	-63.3	3.5	3.02e+01	0	46	104	0	60	55939
2026-01-30 03:48:07.22	332.66	21.47	-50.7	-61.6	3.5	3.02e+01	0	46	104	0	60	45567
2026-01-30 03:48:10.23	331.73	21.46	-51.9	-63.5	3.5	3.02e+01	0	46	104	0	60	56789
2026-01-30 03:48:13.26	330.80	21.45	-52.7	-64.9	3.5	3.02e+01	0	46	104	0	60	67204
2026-01-30 03:48:16.28	329.87	21.42	-50.8	-62.4	3.5	3.02e+01	0	46	104	0	60	50089
2026-01-30 03:48:19.28	328.96	21.39	-52.0	-64.0	3.5	3.02e+01	0	46	104	0	60	60142
2026-01-30 03:48:22.30	328.03	21.36	-51.2	-62.6	3.5	3.02e+01	0	46	104	0	60	51244
2026-01-30 03:48:25.32	327.11	21.31	-53.6	-66.4	3.5	3.02e+01	0	46	104	0	60	79310
2026-01-30 03:48:28.35	326.19	21.26	-51.7	-63.3	3.5	3.02e+01	0	46	104	0	60	55791
2026-01-30 03:48:31.37	325.28	21.20	-51.0	-62.1	3.5	3.02e+01	0	46	104	0	60	48431
2026-01-30 03:48:34.38	324.38	21.13	-51.4	-62.5	3.5	3.02e+01	0	46	104	0	60	50719
2026-01-30 03:48:37.40	323.47	21.06	-54.3	-67.5	3.5	3.02e+01	0	46	104	0	60	90287
2026-01-30 03:48:40.42	322.57	20.98	-50.8	-62.0	3.5	3.02e+01	0	46	104	0	60	47875
2026-01-30 03:48:43.45	321.67	20.89	-51.9	-63.5	3.5	3.02e+01	0	46	104	0	60	57227
2026-01-30 03:48:46.47	320.78	20.80	-51.9	-63.6	3.5	3.02e+01	0	46	104	0	60	57325
2026-01-30 03:48:49.49	319.90	20.70	-50.6	-61.7	3.5	3.02e+01	0	46	104	0	60	46297
2026-01-30 03:48:52.51	319.02	20.59	-50.1	-61.0	3.5	3.02e+01	0	46	104	0	60	42503
2026-01-30 03:48:55.52	318.15	20.47	-50.3	-61.2	3.5	3.02e+01	0	46	104	0	60	43771
2026-01-30 03:48:58.54	317.29	20.36	-51.1	-62.5	3.5	3.02e+01	0	46	104	0	60	50957
2026-01-30 03:49:01.57	316.43	20.23	-53.4	-66.6	3.5	3.02e+01	0	46	104	0	60	80983
2026-01-30 03:49:04.59	315.58	20.10	-50.2	-61.7	3.5	3.02e+01	0	46	104	0	60	46205
2026-01-30 03:49:07.61	314.74	19.96	-51.7	-64.0	3.5	3.02e+01	0	46	104	0	60	60256
2026-01-30 03:49:10.63	313.91	19.82	-51.3	-63.3	3.5	3.02e+01	0	46	104	0	60	55376
2026-01-30 03:49:13.66	313.08	19.67	-51.9	-63.9	3.5	3.02e+01	0	46	104	0	60	59550
2026-01-30 03:49:16.68	312.27	19.52	-51.1	-63.1	3.5	3.02e+01	0	46	104	0	60	54298
2026-01-30 03:49:19.70	311.46	19.36	-50.3	-61.5	3.5	3.02e+01	0	46	104	0	60	45181
2026-01-30 03:49:22.71	310.66	19.20	-50.8	-62.1	3.5	3.02e+01	0	46	104	0	60	48322
2026-01-30 03:49:25.72	309.88	19.04	-51.7	-54.6	21.8	3.02e+01	0	46	0	0	60	20448
2026-01-30 03:49:28.74	309.09	18.87	-49.3	-51.2	24.9	3.02e+01	0	46	0	5767168	60	13768
2026-01-30 03:49:31.76	308.32	18.69	-50.0	-52.0	24.2	3.02e+01	0	46	0	11534336	60	15177
2026-01-30 03:49:34.78	307.56	18.52	-49.5	-51.4	24.6	3.02e+01	0	46	0	17301504	60	14211
2026-01-30 03:49:37.80	306.81	18.34	-49.5	-51.5	24.1	3.02e+01	0	46	0	23068672	60	14339
2026-01-30 03:49:40.83	306.06	18.15	-50.0	-52.3	23.5	3.02e+01	0	46	0	28311552	60	15612
2026-01-30 03:49:43.84	305.33	17.96	-50.6	-53.1	22.6	3.02e+01	0	46	0	34078720	60	17206
2026-01-30 03:49:46.86	304.61	17.77	-49.6	-51.7	23.7	3.02e+01	0	46	0	39845888	60	14707
2026-01-30 03:49:49.89	303.89	17.58	-49.7	-51.9	23.5	3.02e+01	0	46	0	45613056	60	14939
2026-01-30 03:49:52.90	303.19	17.39	-48.7	-50.6	24.7	3.02e+01	0	46	0	51380224	60	12950
2026-01-30 03:49:55.92	302.50	17.19	-49.6	-51.6	24.0	3.02e+01	0	46	0	56623104	60	14518
2026-01-30 03:49:58.93	301.82	16.99	-49.5	-51.5	24.3	3.02e+01	0	46	0	62390272	60	14328
2026-01-30 03:50:01.95	301.14	16.79	-48.7	-50.6	24.7	3.02e+01	0	46	0	68157440	60	12840
2026-01-30 03:50:04.98	300.48	16.58	-48.8	-50.8	24.2	3.02e+01	0	46	0	73924608	60	13133
2026-01-30 03:50:07.99	299.82	16.37	-49.3	-51.4	23.5	3.02e+01	0	46	0	79691776	60	14153
2026-01-30 03:50:11.01	299.18	16.17	-49.0	-50.8	24.9	3.02e+01	0	46	0	84934656	60	13162
2026-01-30 03:50:14.03	298.54	15.96	-49.1	-50.9	24.8	3.02e+01	0	46	0	90701824	60	13409
2026-01-30 03:50:17.05	297.91	15.75	-48.9	-50.7	24.8	3.02e+01	0	46	0	96468992	60	13079
2026-01-30 03:50:20.06	297.30	15.53	-48.8	-50.6	24.7	3.02e+01	0	46	0	102236160	60	12954
2026-01-30 03:50:23.08	296.69	15.32	-48.5	-50.7	23.9	3.02e+01	0	46	0	108003328	60	13115
2026-01-30 03:50:26.09	296.09	15.11	-48.3	-50.7	23.2	3.02e+01	0	46	0	113246208	60	12972
2026-01-30 03:50:29.11	295.51	14.89	-48.6	-50.9	23.2	3.02e+01	0	46	0	119013376	60	13338
2026-01-30 03:50:32.12	294.93	14.68	-48.8	-51.0	23.9	3.02e+01	0	46	0	124780544	60	13530
2026-01-30 03:50:35.12	294.36	14.46	-49.0	-50.9	24.6	3.02e+01	0	46	0	130547712	60	13405
2026-01-30 03:50:38.13	293.80	14.25	-49.1	-51.1	23.6	3.02e+01	0	46	0	135790592	60	13731
2026-01-30 03:50:41.15	293.25	14.03	-48.9	-51.0	23.4	3.02e+01	0	46	0	141557760	60	13567
2026-01-30 03:50:44.18	292.70	13.81	-49.4	-51.8	22.4	3.02e+01	0	46	0	147324928	60	14822
2026-01-30 03:50:47.19	292.17	13.59	-49.6	-52.4	21.5	3.02e+01	0	46	0	153092096	60	15883
2026-01-30 03:50:50.20	291.64	13.38	-50.0	-53.1	21.2	3.02e+01	0	46	0	158859264	60	17161
2026-01-30 03:50:53.22	291.12	13.16	-49.6	-52.4	22.3	3.02e+01	0	46	0	164102144	60	15836
2026-01-30 03:50:56.24	290.61	12.94	-49.3	-51.8	23.3	3.02e+01	0	46	0	169869312	60	14735
2026-01-30 03:50:59.26	290.11	12.72	-50.0	-52.2	23.5	3.02e+01	0	46	0	175636480	60	15455
2026-01-30 03:51:02.29	289.61	12.50	-49.2	-51.4	23.5	3.02e+01	0	46	0	181403648	60	14177
2026-01-30 03:51:05.31	289.12	12.28	-48.4	-51.4	21.9	3.02e+01	0	46	0	187170816	60	14173
2026-01-30 03:51:08.33	288.64	12.07	-48.3	-51.3	21.6	3.02e+01	0	46	0	192413696	60	14053
2026-01-30 03:51:11.35	288.17	11.85	-49.3	-52.0	22.5	3.02e+01	0	46	0	198180864	60	15096
2026-01-30 03:51:14.38	287.71	11.63	-49.5	-52.0	23.1	3.02e+01	0	46	0	203948032	60	15195
2026-01-30 03:51:17.39	287.25	11.42	-49.2	-51.3	23.3	3.02e+01	0	46	0	209715200	60	13921
2026-01-30 03:51:20.41	286.80	11.20	-49.5	-52.0	21.2	3.02e+01	0	46	0	215482368	60	15147
2026-01-30 03:51:23.43	286.36	10.98	-49.8	-52.4	21.2	3.02e+01	0	46	0	220725248	60	15851
2026-01-30 03:51:26.45	285.93	10.77	-49.2	-51.4	22.5	3.02e+01	0	46	0	226492416	60	14156
2026-01-30 03:51:29.47	285.50	10.56	-49.8	-52.1	22.5	3.02e+01	0	46	0	232259584	60	15346
2026-01-30 03:51:32.50	285.08	10.34	-49.1	-51.1	23.8	3.02e+01	0	46	0	238026752	60	13698
2026-01-30 03:51:35.51	284.66	10.13	-49.4	-51.7	23.4	3.02e+01	0	46	0	243793920	60	14657
2026-01-30 03:51:38.53	284.26	9.92	-49.2	-51.4	23.7	3.02e+01	0	46	0	249036800	60	14072
2026-01-30 03:51:41.55	283.86	9.70	-49.8	-52.2	22.9	3.02e+01	0	46	0	254803968	60	15518
2026-01-30 03:51:44.57	283.46	9.49	-49.1	-51.3	23.6	3.02e+01	0	46	0	260571136	60	13947
2026-01-30 03:51:47.60	283.07	9.28	-49.4	-51.7	23.1	3.02e+01	0	46	0	266338304	60	14621
2026-01-30 03:51:50.61	282.69	9.07	-49.2	-51.6	22.8	3.02e+01	0	46	0	272105472	60	14418
2026-01-30 03:51:53.63	282.31	8.86	-48.9	-51.4	22.9	3.02e+01	0	46	0	277348352	60	14116
2026-01-30 03:51:56.64	281.94	8.66	-48.9	-51.5	22.5	3.02e+01	0	46	0	283115520	60	14373
2026-01-30 03:51:59.66	281.58	8.45	-48.6	-51.4	22.2	3.02e+01	0	46	0	288882688	60	14060
2026-01-30 03:52:02.69	281.22	8.24	-48.8	-51.6	22.3	3.02e+01	0	46	0	294649856	60	14474
2026-01-30 03:52:05.71	280.87	8.04	-48.9	-51.8	22.2	3.02e+01	0	46	0	300417024	60	14845
2026-01-30 03:52:08.73	280.52	7.83	-48.7	-51.7	22.5	3.02e+01	0	46	0	305659904	60	14549
2026-01-30 03:52:11.75	280.17	7.63	-49.1	-51.7	22.8	3.02e+01	0	46	0	311427072	60	14649
2026-01-30 03:52:14.76	279.84	7.43	-49.6	-52.1	22.8	3.02e+01	0	46	0	317194240	60	15304
2026-01-30 03:52:17.78	279.51	7.23	-49.9	-52.4	22.6	3.02e+01	0	46	0	322961408	60	15835
2026-01-30 03:52:20.80	279.18	7.03	-50.4	-53.1	21.8	3.02e+01	0	46	0	328728576	60	17186
2026-01-30 03:52:23.82	278.86	6.83	-49.9	-53.1	21.1	3.02e+01	0	46	0	333971456	60	17129
2026-01-30 03:52:26.84	278.54	6.63	-49.2	-52.4	21.1	3.02e+01	0	46	0	339738624	60	15885
2026-01-30 03:52:29.86	278.23	6.43	-49.4	-52.6	20.8	3.02e+01	0	46	0	345505792	60	16229
2026-01-30 03:52:32.88	277.92	6.23	-49.8	-53.0	20.7	3.02e+01	0	46	0	351272960	60	17045
2026-01-30 03:52:35.90	277.62	6.04	-50.2	-53.5	20.6	3.02e+01	0	46	0	357040128	60	18018
2026-01-30 03:52:38.92	277.32	5.84	-55.4	-75.2	3.5	3.02e+01	0	46	104	358612992	60	219733
2026-01-30 03:52:41.94	277.02	5.65	-54.0	-75.3	3.6	3.02e+01	0	46	104	358612992	60	221215
2026-01-30 03:52:44.97	276.73	5.45	-54.6	-75.2	3.6	3.02e+01	0	46	104	358612992	60	218477
2026-01-30 03:52:47.99	276.45	5.26	-57.6	-78.1	3.5	3.02e+01	0	46	104	358612992	60	305424
2026-01-30 03:52:51.01	276.17	5.07	-57.2	-78.2	3.5	3.02e+01	0	46	104	358612992	60	309806
2026-01-30 03:52:54.04	275.89	4.88	-58.6	-78.8	3.5	3.02e+01	0	46	104	358612992	60	330279
2026-01-30 03:52:57.06	275.62	4.69	-57.8	-78.7	3.5	3.02e+01	0	46	104	358612992	60	329275
2026-01-30 03:53:00.07	275.35	4.50	-57.8	-78.8	3.5	3.02e+01	0	46	104	358612992	60	332878
2026-01-30 03:53:03.10	275.08	4.31	-58.1	-79.2	3.5	3.02e+01	0	46	104	358612992	60	348392
2026-01-30 03:53:06.11	274.82	4.12	-58.9	-79.0	3.5	3.02e+01	0	46	104	358612992	60	337973
2026-01-30 03:53:09.13	274.56	3.94	-57.0	-79.1	3.5	3.02e+01	0	46	104	358612992	60	343240
2026-01-30 03:53:12.15	274.31	3.75	-57.4	-78.9	3.5	3.02e+01	0	46	104	358612992	60	335840
2026-01-30 03:53:15.17	274.06	3.57	-57.4	-78.9	3.5	3.02e+01	0	46	104	358612992	60	335914
2026-01-30 03:53:18.18	273.81	3.39	-57.2	-78.9	3.5	3.02e+01	0	46	104	358612992	60	334720
2026-01-30 03:53:21.21	273.57	3.20	-57.1	-78.6	3.5	3.02e+01	0	46	104	358612992	60	324407
2026-01-30 03:53:24.23	273.33	3.02	-57.1	-78.8	3.5	3.02e+01	0	46	104	358612992	60	330224
2026-01-30 03:53:27.24	273.09	2.84	-57.0	-78.8	3.5	3.02e+01	0	46	104	358612992	60	330720
2026-01-30 03:53:30.27	272.86	2.66	-57.0	-78.8	3.5	3.02e+01	0	46	104	358612992	60	331383
2026-01-30 03:53:33.29	272.63	2.48	-56.9	-78.6	3.5	3.02e+01	0	46	104	358612992	60	325063
2026-01-30 03:53:36.31	272.40	2.30	-56.9	-78.8	3.5	3.02e+01	0	46	104	358612992	60	329744
2026-01-30 03:53:39.33	272.18	2.13	-56.9	-78.7	3.5	3.02e+01	0	46	104	358612992	60	327757
2026-01-30 03:53:42.35	271.96	1.95	-56.9	-78.6	3.5	3.02e+01	0	46	104	358612992	60	323859
2026-01-30 03:53:45.36	271.74	1.77	-56.8	-78.6	3.5	3.02e+01	0	46	104	358612992	60	325400
2026-01-30 03:53:48.36	271.53	1.60	-56.8	-78.7	3.5	3.02e+01	0	46	104	358612992	60	327544
2026-01-30 03:53:51.38	271.32	1.43	-56.8	-78.7	3.5	3.02e+01	0	46	104	358612992	60	329008
2026-01-30 03:53:54.41	271.11	1.25	-56.8	-78.6	3.5	3.02e+01	0	46	104	358612992	60	322770
2026-01-30 03:53:57.42	270.90	1.08	-56.8	-78.6	3.6	3.02e+01	0	46	104	358612992	60	325466
2026-01-30 03:54:00.44	270.70	0.91	-56.7	-78.6	3.5	3.02e+01	0	46	104	358612992	60	322726
2026-01-30 03:54:03.46	270.50	0.74	-56.7	-78.7	3.5	3.02e+01	0	46	104	358612992	60	329249
2026-01-30 03:54:06.47	270.30	0.57	-56.7	-78.7	3.5	3.02e+01	0	46	104	358612992	60	329161
2026-01-30 03:54:09.49	270.10	0.40	-56.7	-78.7	3.5	3.02e+01	0	46	104	358612992	60	325977
2026-01-30 03:54:12.51	269.91	0.23	-56.7	-78.6	3.5	3.02e+01	0	46	104	358612992	60	323686
2026-01-30 03:54:15.53	269.72	0.06	-56.7	-78.7	3.5	3.02e+01	0	46	104	358612992	60	327846
2026-01-30 03:54:18.55	269.53	-0.10	-56.6	-78.7	3.5	3.02e+01	0	46	104	358612992	60	326987

#Closed at: 2026-01-30 03:54:18
#Recorded file [358 MB]: D:/Data/35015_260130_065236.dat