passes_logs/2026/01/30/R3.2S-Naryan-Mar/R3.2S-Naryan-Mar__20260130_002711_AQUA_rec.log

#Pass ID: 20260130_002711_AQUA
#Satellite: AQUA
#Configuration: AQUA
#almurnet v.1.7.20240730
#Start time: 2026-01-30 00:27:13

#Version: 2.2.20231116
#Station: R3.2S-Naryan-Mar
#Location: 53.008057 lon 67.646978 lat
#TLE: 1 27424U 02022A   26028.91948147  .00001781  00000+0  36607-3 0  9997
#TLE: 2 27424  98.4103 355.5827 0001815  62.4290   1.4641 14.61871847262923

#Time	Az	El	Level	Level2	SNR	BER	BlckErr	Temp	State	Recorded	gain1	gain2
2026-01-30 00:27:13.15	21.08	0.10	-61.4	-78.3	3.5	1.51e+00	0	43	0	0	60	320437
2026-01-30 00:27:17.17	21.15	0.35	-57.1	-77.7	3.5	3.02e+01	0	45	104	0	60	292338
2026-01-30 00:27:21.19	21.23	0.60	-58.4	-78.5	3.5	3.02e+01	0	45	104	0	60	318854
2026-01-30 00:27:25.22	21.30	0.85	-58.1	-78.7	3.5	3.02e+01	0	45	104	0	60	328520
2026-01-30 00:27:29.24	21.38	1.10	-57.2	-78.6	3.5	3.02e+01	0	45	104	0	60	324292
2026-01-30 00:27:33.25	21.46	1.36	-57.1	-78.6	3.5	3.02e+01	0	45	104	0	60	323083
2026-01-30 00:27:37.27	21.54	1.62	-56.5	-78.2	3.5	3.02e+01	0	45	104	0	60	309075
2026-01-30 00:27:41.30	21.62	1.88	-55.5	-77.4	3.5	3.02e+01	0	45	104	0	60	283485
2026-01-30 00:27:45.31	21.70	2.14	-52.0	-75.6	3.6	3.02e+01	0	45	104	0	60	228698
2026-01-30 00:27:49.34	21.79	2.41	-51.8	-75.9	3.6	3.02e+01	0	45	104	0	60	238380
2026-01-30 00:27:53.38	21.87	2.68	-51.8	-75.6	3.5	3.02e+01	0	45	104	0	60	229094
2026-01-30 00:27:57.40	21.96	2.95	-51.7	-75.8	3.6	3.02e+01	0	45	104	0	60	233637
2026-01-30 00:28:01.44	22.05	3.23	-51.7	-75.5	3.6	3.02e+01	0	45	104	0	60	227658
2026-01-30 00:28:05.45	22.14	3.50	-51.6	-75.0	3.6	3.02e+01	0	46	104	0	60	214215
2026-01-30 00:28:09.47	22.23	3.79	-51.7	-75.1	3.6	3.02e+01	0	45	104	0	60	216817
2026-01-30 00:28:13.50	22.32	4.07	-51.6	-74.3	3.5	3.02e+01	0	45	104	0	60	196456
2026-01-30 00:28:17.52	22.41	4.36	-51.6	-73.3	3.6	3.02e+01	0	45	104	0	60	175632
2026-01-30 00:28:21.55	22.51	4.65	-51.5	-71.7	4.4	3.02e+01	0	46	104	0	60	146505
2026-01-30 00:28:25.58	22.60	4.94	-51.5	-71.5	3.7	3.02e+01	0	46	104	0	60	142753
2026-01-30 00:28:29.60	22.70	5.24	-51.0	-61.0	14.0	3.02e+01	0	46	0	5767168	60	42889
2026-01-30 00:28:33.62	22.80	5.54	-49.6	-55.1	20.2	3.02e+01	0	46	0	13107200	60	21570
2026-01-30 00:28:37.65	22.91	5.85	-48.7	-53.0	22.1	3.02e+01	0	46	0	20447232	60	16951
2026-01-30 00:28:41.68	23.01	6.16	-49.4	-54.8	19.4	3.02e+01	0	46	0	28311552	60	20946
2026-01-30 00:28:45.70	23.12	6.47	-50.2	-56.1	20.3	3.02e+01	0	46	0	35651584	60	24215
2026-01-30 00:28:49.72	23.23	6.79	-48.9	-53.9	21.9	3.02e+01	0	46	0	43515904	60	18874
2026-01-30 00:28:53.75	23.34	7.11	-48.7	-52.6	23.1	3.02e+01	0	46	0	50855936	60	16222
2026-01-30 00:28:57.77	23.45	7.44	-48.9	-52.5	23.2	3.02e+01	0	46	0	58720256	60	16022
2026-01-30 00:29:01.80	23.56	7.77	-49.1	-52.6	23.1	3.02e+01	0	46	0	66060288	60	16185
2026-01-30 00:29:05.83	23.68	8.11	-49.3	-52.7	23.1	3.02e+01	0	46	0	73400320	60	16330
2026-01-30 00:29:09.85	23.80	8.45	-49.4	-52.7	22.9	3.02e+01	0	46	0	80740352	60	16434
2026-01-30 00:29:13.87	23.93	8.80	-48.9	-52.8	22.7	3.02e+01	0	46	0	88604672	60	16516
2026-01-30 00:29:17.91	24.05	9.15	-48.6	-52.8	22.7	3.02e+01	0	46	0	95944704	60	16535
2026-01-30 00:29:21.94	24.18	9.51	-48.1	-52.3	23.1	3.02e+01	0	46	0	103809024	60	15605
2026-01-30 00:29:25.97	24.31	9.88	-47.9	-52.0	23.4	3.02e+01	0	46	0	111149056	60	15147
2026-01-30 00:29:29.98	24.45	10.24	-48.0	-51.9	23.7	3.02e+01	0	46	0	119013376	60	14943
2026-01-30 00:29:34.02	24.59	10.62	-48.0	-51.7	23.9	3.02e+01	0	46	0	126353408	60	14676
2026-01-30 00:29:38.04	24.73	11.00	-48.1	-51.5	23.8	3.02e+01	0	46	0	133693440	60	14262
2026-01-30 00:29:42.07	24.87	11.39	-48.0	-51.3	23.6	3.02e+01	0	46	0	141557760	60	14041
2026-01-30 00:29:46.09	25.02	11.79	-47.9	-51.3	23.3	3.02e+01	0	46	0	148897792	60	13930
2026-01-30 00:29:50.12	25.17	12.19	-47.7	-51.2	23.3	3.02e+01	0	46	0	156762112	60	13744
2026-01-30 00:29:54.15	25.33	12.60	-47.9	-51.1	23.5	3.02e+01	0	46	0	164102144	60	13635
2026-01-30 00:29:58.18	25.49	13.02	-48.0	-51.0	24.0	3.02e+01	0	46	0	171966464	60	13518
2026-01-30 00:30:02.20	25.66	13.44	-48.0	-51.0	24.6	3.02e+01	0	46	0	179306496	60	13489
2026-01-30 00:30:06.23	25.83	13.88	-48.3	-51.0	24.9	3.02e+01	0	46	0	186646528	60	13529
2026-01-30 00:30:10.25	26.00	14.32	-48.6	-50.9	25.3	3.02e+01	0	46	0	194510848	60	13415
2026-01-30 00:30:14.28	26.18	14.77	-48.8	-50.9	25.4	3.02e+01	0	46	0	201850880	60	13286
2026-01-30 00:30:18.30	26.37	15.23	-48.6	-50.9	25.4	3.02e+01	0	46	0	209190912	60	13279
2026-01-30 00:30:22.34	26.56	15.70	-48.3	-50.8	25.5	3.02e+01	0	46	0	217055232	60	13142
2026-01-30 00:30:26.36	26.76	16.18	-48.1	-50.8	25.4	3.02e+01	0	46	0	224395264	60	13202
2026-01-30 00:30:30.38	26.96	16.67	-48.4	-50.6	25.6	3.02e+01	0	46	0	232259584	60	12898
2026-01-30 00:30:34.41	27.17	17.18	-48.6	-50.6	25.6	3.02e+01	0	46	0	239599616	60	12845
2026-01-30 00:30:38.44	27.39	17.69	-48.7	-50.7	25.6	3.02e+01	0	46	0	246939648	60	13051
2026-01-30 00:30:42.47	27.61	18.22	-48.4	-50.8	25.8	3.02e+01	0	46	0	254803968	60	13135
2026-01-30 00:30:46.50	27.85	18.75	-48.1	-50.5	26.0	3.02e+01	0	46	0	262144000	60	12817
2026-01-30 00:30:50.51	28.09	19.30	-48.0	-50.6	25.9	3.02e+01	0	46	0	270008320	60	12871
2026-01-30 00:30:54.52	28.33	19.86	-48.1	-50.6	25.9	3.02e+01	0	46	0	277348352	60	12844
2026-01-30 00:30:58.55	28.59	20.44	-48.4	-50.5	25.9	3.02e+01	0	46	0	284688384	60	12732
2026-01-30 00:31:02.58	28.86	21.03	-48.2	-50.6	26.0	3.02e+01	0	46	0	292552704	60	12826
2026-01-30 00:31:06.61	29.14	21.64	-48.6	-50.7	25.8	3.02e+01	0	46	0	299892736	60	13097
2026-01-30 00:31:10.62	29.43	22.26	-48.8	-50.8	25.7	3.02e+01	0	46	0	307757056	60	13164
2026-01-30 00:31:14.65	29.73	22.90	-49.0	-51.0	25.6	3.02e+01	0	46	0	315097088	60	13564
2026-01-30 00:31:18.67	30.05	23.55	-49.1	-51.1	25.6	3.02e+01	0	46	0	322437120	60	13607
2026-01-30 00:31:22.69	30.37	24.22	-48.9	-51.0	25.7	3.02e+01	0	46	0	330301440	60	13438
2026-01-30 00:31:26.72	30.72	24.91	-48.9	-51.0	25.8	3.02e+01	0	46	0	337641472	60	13478
2026-01-30 00:31:30.74	31.07	25.62	-48.8	-51.1	25.7	3.02e+01	0	46	0	344981504	60	13598
2026-01-30 00:31:34.77	31.45	26.35	-49.1	-51.2	25.5	3.02e+01	0	46	0	352845824	60	13822
2026-01-30 00:31:38.79	31.84	27.10	-49.1	-51.0	25.8	3.02e+01	0	46	0	360185856	60	13572
2026-01-30 00:31:42.82	32.25	27.88	-48.9	-50.8	26.0	3.02e+01	0	46	0	368050176	60	13130
2026-01-30 00:31:46.84	32.68	28.67	-48.5	-50.5	26.2	3.02e+01	0	46	0	375390208	60	12784
2026-01-30 00:31:50.87	33.13	29.49	-48.6	-50.5	26.3	3.02e+01	0	46	0	383254528	60	12781
2026-01-30 00:31:54.90	33.61	30.34	-48.7	-50.6	26.1	3.02e+01	0	46	0	390594560	60	12940
2026-01-30 00:31:58.92	34.11	31.20	-48.7	-50.6	26.1	3.02e+01	0	46	0	397934592	60	12924
2026-01-30 00:32:02.95	34.64	32.10	-48.7	-50.6	26.2	3.02e+01	0	46	0	405798912	60	12872
2026-01-30 00:32:06.98	35.21	33.02	-49.4	-51.3	25.5	3.02e+01	0	46	0	413138944	60	14012
2026-01-30 00:32:11.02	35.80	33.97	-49.4	-51.4	25.4	3.02e+01	0	46	0	421003264	60	14216
2026-01-30 00:32:15.04	36.43	34.95	-49.6	-51.7	25.2	3.02e+01	0	46	0	428343296	60	14695
2026-01-30 00:32:19.06	37.10	35.96	-49.9	-52.2	24.7	3.02e+01	0	46	0	435683328	60	15456
2026-01-30 00:32:23.10	37.82	37.00	-50.1	-52.4	24.7	3.02e+01	0	46	0	443547648	60	15806
2026-01-30 00:32:27.13	38.58	38.07	-50.4	-52.6	24.6	3.02e+01	0	46	0	450887680	60	16199
2026-01-30 00:32:31.15	39.39	39.17	-50.9	-53.2	24.2	3.02e+01	0	46	0	458227712	60	17290
2026-01-30 00:32:35.18	40.26	40.30	-51.4	-53.6	23.9	3.02e+01	0	46	0	466092032	60	18164
2026-01-30 00:32:39.21	41.20	41.47	-50.7	-52.7	24.6	3.02e+01	0	46	0	473432064	60	16459
2026-01-30 00:32:43.24	42.21	42.66	-49.9	-51.7	25.4	3.02e+01	0	46	0	481296384	60	14659
2026-01-30 00:32:47.26	43.29	43.89	-49.3	-51.1	26.1	3.02e+01	0	46	0	488636416	60	13650
2026-01-30 00:32:51.28	44.46	45.14	-48.9	-50.6	26.6	3.02e+01	0	46	0	496500736	60	12833
2026-01-30 00:32:55.31	45.73	46.43	-49.2	-50.8	26.5	3.02e+01	0	46	0	503840768	60	13253
2026-01-30 00:32:59.35	47.12	47.75	-49.2	-50.8	26.5	3.02e+01	0	46	0	511180800	60	13242
2026-01-30 00:33:03.37	48.62	49.08	-49.2	-50.8	26.8	3.02e+01	0	46	0	519045120	60	13172
2026-01-30 00:33:07.39	50.26	50.44	-49.1	-50.7	26.8	3.02e+01	0	46	0	526385152	60	13083
2026-01-30 00:33:11.42	52.06	51.81	-49.2	-50.7	26.8	3.02e+01	0	46	0	534249472	60	13062
2026-01-30 00:33:15.45	54.03	53.20	-49.0	-50.5	27.0	3.02e+01	0	46	0	541589504	60	12814
2026-01-30 00:33:19.48	56.20	54.59	-49.5	-51.0	26.6	3.02e+01	0	46	0	548929536	60	13554
2026-01-30 00:33:23.50	58.59	55.96	-50.2	-51.8	26.2	3.02e+01	0	46	0	556793856	60	14773
2026-01-30 00:33:27.54	61.23	57.33	-51.1	-52.9	25.3	3.02e+01	0	46	0	564133888	60	16738
2026-01-30 00:33:31.55	64.13	58.66	-52.0	-54.1	24.2	3.02e+01	0	46	0	571473920	60	19338
2026-01-30 00:33:35.58	67.35	59.96	-52.7	-55.0	23.5	3.02e+01	0	46	0	579338240	60	21517
2026-01-30 00:33:39.60	70.89	61.18	-52.5	-54.9	23.5	3.02e+01	0	46	0	586678272	60	21062
2026-01-30 00:33:43.62	74.79	62.33	-53.0	-55.6	23.0	3.02e+01	0	46	0	594542592	60	23031
2026-01-30 00:33:47.64	79.05	63.37	-54.0	-56.7	22.0	3.02e+01	0	46	0	601882624	60	26158
2026-01-30 00:33:51.66	83.68	64.29	-54.3	-56.7	22.4	3.02e+01	0	46	0	609746944	60	25915
2026-01-30 00:33:55.67	88.66	65.06	-53.8	-56.4	22.7	3.02e+01	0	46	0	617086976	60	25168
2026-01-30 00:33:59.70	93.97	65.65	-55.2	-58.1	21.0	3.02e+01	0	46	0	624427008	60	30663
2026-01-30 00:34:03.72	99.52	66.05	-55.1	-58.2	21.1	3.02e+01	0	46	0	632291328	60	31059
2026-01-30 00:34:07.74	105.22	66.25	-53.8	-56.5	22.7	3.02e+01	0	46	0	639631360	60	25480
2026-01-30 00:34:11.76	110.96	66.23	-54.4	-57.0	22.3	3.02e+01	0	46	0	646971392	60	26938
2026-01-30 00:34:15.77	116.63	66.00	-53.9	-56.4	22.7	3.02e+01	0	46	0	654835712	60	25044
2026-01-30 00:34:19.79	122.14	65.57	-53.6	-56.0	23.2	3.02e+01	0	46	0	662175744	60	23914
2026-01-30 00:34:23.82	127.41	64.94	-53.2	-55.4	23.4	3.02e+01	0	46	0	669515776	60	22360
2026-01-30 00:34:27.84	132.34	64.14	-53.3	-55.5	23.7	3.02e+01	0	46	0	677380096	60	22622
2026-01-30 00:34:31.86	136.92	63.20	-53.0	-55.2	23.5	3.02e+01	0	46	0	684720128	60	21896
2026-01-30 00:34:35.89	141.13	62.13	-52.5	-54.7	23.8	3.02e+01	0	46	0	692584448	60	20652
2026-01-30 00:34:39.92	144.97	60.97	-52.2	-54.3	23.9	3.02e+01	0	46	0	699924480	60	19787
2026-01-30 00:34:43.94	148.46	59.72	-51.6	-53.7	24.2	3.02e+01	0	46	0	707264512	60	18411
2026-01-30 00:34:47.98	151.63	58.42	-50.8	-52.9	24.7	3.02e+01	0	46	0	715128832	60	16797
2026-01-30 00:34:52.01	154.50	57.07	-54.1	-58.2	19.3	3.02e+01	0	46	0	722468864	60	30930
2026-01-30 00:34:56.04	157.09	55.70	-54.2	-59.1	18.2	3.02e+01	0	46	0	730333184	60	34451
2026-01-30 00:35:00.07	159.45	54.31	-51.6	-54.5	22.6	3.02e+01	0	46	0	737673216	60	20148
2026-01-30 00:35:04.10	161.58	52.92	-50.2	-52.5	24.3	3.02e+01	0	46	0	745537536	60	15952
2026-01-30 00:35:08.14	163.53	51.52	-50.4	-52.5	24.6	3.02e+01	0	46	0	752877568	60	16124
2026-01-30 00:35:12.16	165.29	50.15	-50.3	-52.1	25.3	3.02e+01	0	46	0	760741888	60	15380
2026-01-30 00:35:16.19	166.91	48.79	-50.7	-52.6	24.7	3.02e+01	0	46	0	768081920	60	16244
2026-01-30 00:35:20.21	168.39	47.46	-50.6	-52.4	24.9	3.02e+01	0	46	0	775421952	60	15916
2026-01-30 00:35:24.24	169.75	46.14	-50.4	-52.3	24.8	3.02e+01	0	46	0	782761984	60	15660
2026-01-30 00:35:28.27	171.00	44.86	-50.4	-52.3	24.7	3.02e+01	0	46	0	790626304	60	15681
2026-01-30 00:35:32.29	172.15	43.61	-50.6	-52.4	24.9	3.02e+01	0	46	0	797966336	60	15911
2026-01-30 00:35:36.31	173.22	42.38	-50.7	-52.5	25.0	3.02e+01	0	45	0	805830656	60	16132
2026-01-30 00:35:40.34	174.22	41.19	-50.3	-52.0	25.4	3.02e+01	0	46	0	813170688	60	15225
2026-01-30 00:35:44.37	175.14	40.02	-50.5	-52.3	24.9	3.02e+01	0	46	0	821035008	60	15733
2026-01-30 00:35:48.40	176.00	38.89	-50.6	-52.5	24.7	3.02e+01	0	46	0	828375040	60	15977
2026-01-30 00:35:52.43	176.80	37.79	-50.2	-52.0	25.1	3.02e+01	0	46	0	835715072	60	15131
2026-01-30 00:35:56.46	177.56	36.73	-49.9	-51.6	25.4	3.02e+01	0	46	0	843579392	60	14515
2026-01-30 00:36:00.49	178.26	35.69	-49.4	-51.0	25.9	3.02e+01	0	46	0	850919424	60	13538
2026-01-30 00:36:04.52	178.93	34.68	-48.9	-50.5	26.2	3.02e+01	0	46	0	858783744	60	12700
2026-01-30 00:36:08.55	179.55	33.71	-48.8	-50.4	26.2	3.02e+01	0	46	0	866123776	60	12585
2026-01-30 00:36:12.57	180.14	32.76	-48.3	-49.9	26.5	3.02e+01	0	46	0	873988096	60	11846
2026-01-30 00:36:16.60	180.69	31.84	-47.9	-49.4	26.8	3.02e+01	0	46	0	881328128	60	11269
2026-01-30 00:36:20.63	181.22	30.95	-48.0	-49.5	26.8	3.02e+01	0	46	0	888668160	60	11362
2026-01-30 00:36:24.66	181.71	30.08	-48.0	-49.6	26.7	3.02e+01	0	46	0	896008192	60	11451
2026-01-30 00:36:28.68	182.19	29.24	-48.2	-49.7	26.6	3.02e+01	0	46	0	903872512	60	11683
2026-01-30 00:36:32.70	182.63	28.42	-48.4	-50.0	26.3	3.02e+01	0	46	0	911212544	60	12011
2026-01-30 00:36:36.72	183.06	27.63	-48.2	-49.8	26.3	3.02e+01	0	46	0	919076864	60	11727
2026-01-30 00:36:40.75	183.46	26.86	-48.3	-50.0	26.2	3.02e+01	0	46	0	926416896	60	11966
2026-01-30 00:36:44.77	183.85	26.11	-48.7	-50.5	25.6	3.02e+01	0	46	0	934281216	60	12681
2026-01-30 00:36:48.80	184.22	25.38	-48.9	-50.7	25.4	3.02e+01	0	46	0	941621248	60	13015
2026-01-30 00:36:52.82	184.57	24.68	-49.1	-51.0	25.2	3.02e+01	0	46	0	948961280	60	13444
2026-01-30 00:36:56.85	184.91	23.98	-49.0	-50.8	25.3	3.02e+01	0	46	0	956825600	60	13233
2026-01-30 00:37:00.87	185.24	23.31	-49.0	-50.7	25.5	3.02e+01	0	46	0	964165632	60	13109
2026-01-30 00:37:04.90	185.55	22.66	-48.9	-50.6	25.5	3.02e+01	0	46	0	972029952	60	12927
2026-01-30 00:37:08.93	185.85	22.02	-48.7	-50.4	25.7	3.02e+01	0	46	0	979369984	60	12537
2026-01-30 00:37:12.95	186.13	21.40	-48.5	-50.2	25.8	3.02e+01	0	46	0	986710016	60	12294
2026-01-30 00:37:16.98	186.41	20.80	-48.5	-50.2	25.6	3.02e+01	0	46	0	994574336	60	12276
2026-01-30 00:37:21.01	186.67	20.21	-48.5	-50.2	25.5	3.02e+01	0	46	0	1001914368	60	12302
2026-01-30 00:37:25.03	186.93	19.63	-48.3	-50.0	25.6	3.02e+01	0	46	0	1009254400	60	12012
2026-01-30 00:37:29.06	187.17	19.07	-48.1	-49.8	25.8	3.02e+01	0	46	0	1017118720	60	11744
2026-01-30 00:37:33.09	187.41	18.52	-48.0	-49.7	25.8	3.02e+01	0	46	0	1024458752	60	11637
2026-01-30 00:37:37.11	187.64	17.99	-48.0	-49.7	25.8	3.02e+01	0	46	0	1032323072	60	11607
2026-01-30 00:37:41.14	187.86	17.46	-47.9	-49.6	26.0	3.02e+01	0	46	0	1039663104	60	11448
2026-01-30 00:37:45.17	188.08	16.95	-47.8	-49.5	26.0	3.02e+01	0	46	0	1047527424	60	11377
2026-01-30 00:37:49.21	188.28	16.45	-47.9	-49.5	25.8	3.02e+01	0	46	0	1054867456	60	11402
2026-01-30 00:37:53.24	188.48	15.96	-47.9	-49.6	25.7	3.02e+01	0	46	0	1062207488	60	11453
2026-01-30 00:37:57.27	188.68	15.48	-47.9	-49.6	25.7	3.02e+01	0	46	0	1070071808	60	11477
2026-01-30 00:38:01.30	188.87	15.01	-47.9	-49.6	25.6	3.02e+01	0	46	0	1077411840	60	11531
2026-01-30 00:38:05.32	189.05	14.55	-48.0	-49.7	25.5	3.02e+01	0	46	0	1085276160	60	11637
2026-01-30 00:38:09.34	189.23	14.10	-47.9	-49.6	25.6	3.02e+01	0	46	0	1092616192	60	11531
2026-01-30 00:38:13.36	189.40	13.66	-47.9	-49.6	25.5	3.02e+01	0	46	0	1099956224	60	11528
2026-01-30 00:38:17.39	189.57	13.22	-48.1	-49.9	25.4	3.02e+01	0	46	0	1107820544	60	11825
2026-01-30 00:38:21.42	189.73	12.80	-48.1	-49.9	25.3	3.02e+01	0	46	0	1115160576	60	11868
2026-01-30 00:38:25.45	189.89	12.38	-48.1	-49.9	25.1	3.02e+01	0	46	0	1122500608	60	11960
2026-01-30 00:38:29.48	190.04	11.97	-48.0	-49.7	25.2	3.02e+01	0	46	0	1130364928	60	11680
2026-01-30 00:38:33.50	190.19	11.57	-47.9	-49.7	25.1	3.02e+01	0	46	0	1137704960	60	11593
2026-01-30 00:38:37.53	190.34	11.17	-47.9	-49.7	25.1	3.02e+01	0	46	0	1145569280	60	11640
2026-01-30 00:38:41.56	190.48	10.78	-48.0	-49.9	25.0	3.02e+01	0	46	0	1152909312	60	11875
2026-01-30 00:38:45.58	190.62	10.40	-47.9	-49.8	25.0	3.02e+01	0	46	0	1160773632	60	11793
2026-01-30 00:38:49.61	190.75	10.03	-48.1	-50.0	24.7	3.02e+01	0	46	0	1168113664	60	11982
2026-01-30 00:38:53.63	190.88	9.66	-48.1	-50.0	24.7	3.02e+01	0	46	0	1175453696	60	11990
2026-01-30 00:38:57.66	191.01	9.29	-48.0	-49.9	24.7	3.02e+01	0	46	0	1183318016	60	11867
2026-01-30 00:39:01.68	191.14	8.94	-48.0	-50.0	24.6	3.02e+01	0	46	0	1190658048	60	11965
2026-01-30 00:39:05.71	191.26	8.58	-48.0	-49.9	24.5	3.02e+01	0	46	0	1198522368	60	11926
2026-01-30 00:39:09.73	191.38	8.24	-48.1	-50.1	24.3	3.02e+01	0	46	0	1205862400	60	12213
2026-01-30 00:39:13.75	191.50	7.90	-48.1	-50.2	24.2	3.02e+01	0	46	0	1213202432	60	12368
2026-01-30 00:39:17.79	191.61	7.56	-48.1	-50.2	24.1	3.02e+01	0	46	0	1221066752	60	12304
2026-01-30 00:39:21.80	191.72	7.23	-48.1	-50.2	24.0	3.02e+01	0	46	0	1228406784	60	12253
2026-01-30 00:39:25.83	191.83	6.90	-48.2	-50.3	23.8	3.02e+01	0	46	0	1235746816	60	12442
2026-01-30 00:39:29.85	191.94	6.58	-48.2	-50.4	23.7	3.02e+01	0	46	0	1243611136	60	12664
2026-01-30 00:39:33.88	192.05	6.26	-48.4	-50.7	23.4	3.02e+01	0	46	0	1250951168	60	12985
2026-01-30 00:39:37.90	192.15	5.95	-53.6	-62.6	5.1	3.02e+01	0	46	0	1258815488	60	51153
2026-01-30 00:39:41.93	192.25	5.64	-55.7	-75.5	3.5	3.02e+01	0	46	104	1258815488	60	226677
2026-01-30 00:39:45.95	192.35	5.33	-56.3	-76.7	3.5	3.02e+01	0	46	104	1258815488	60	259152
2026-01-30 00:39:49.99	192.45	5.03	-55.7	-76.1	3.5	3.02e+01	0	46	104	1258815488	60	243354
2026-01-30 00:39:54.02	192.54	4.73	-56.4	-76.6	3.6	3.02e+01	0	46	104	1258815488	60	257942
2026-01-30 00:39:58.05	192.64	4.44	-56.1	-76.8	3.6	3.02e+01	0	46	104	1258815488	60	261733
2026-01-30 00:40:02.07	192.73	4.14	-55.9	-77.2	3.6	3.02e+01	0	46	104	1258815488	60	274587
2026-01-30 00:40:06.10	192.82	3.86	-56.9	-77.5	3.6	3.02e+01	0	46	104	1258815488	60	284065
2026-01-30 00:40:10.14	192.91	3.57	-57.2	-77.9	3.5	3.02e+01	0	46	104	1258815488	60	299435
2026-01-30 00:40:14.16	193.00	3.29	-58.2	-78.9	3.5	3.02e+01	0	46	104	1258815488	60	334613
2026-01-30 00:40:18.20	193.08	3.01	-58.1	-78.9	3.5	3.02e+01	0	46	104	1258815488	60	335148
2026-01-30 00:40:22.23	193.17	2.74	-58.1	-78.8	3.5	3.02e+01	0	46	104	1258815488	60	330350
2026-01-30 00:40:26.25	193.25	2.46	-58.1	-78.8	3.5	3.02e+01	0	46	104	1258815488	60	331093
2026-01-30 00:40:30.28	193.33	2.19	-58.1	-78.7	3.5	3.02e+01	0	46	104	1258815488	60	328965
2026-01-30 00:40:34.30	193.41	1.93	-58.1	-78.6	3.5	3.02e+01	0	46	104	1258815488	60	324970
2026-01-30 00:40:38.33	193.49	1.66	-58.0	-78.7	3.5	3.02e+01	0	46	104	1258815488	60	326035
2026-01-30 00:40:42.36	193.57	1.40	-58.0	-78.5	3.5	3.02e+01	0	46	104	1258815488	60	321101
2026-01-30 00:40:46.38	193.64	1.15	-58.0	-78.6	3.5	3.02e+01	0	46	104	1258815488	60	322858
2026-01-30 00:40:50.40	193.72	0.89	-58.0	-78.7	3.5	3.02e+01	0	46	104	1258815488	60	326558
2026-01-30 00:40:54.41	193.79	0.64	-58.0	-78.7	3.5	3.02e+01	0	46	104	1258815488	60	328723
2026-01-30 00:40:58.43	193.86	0.39	-57.9	-78.7	3.5	3.02e+01	0	46	104	1258815488	60	326537
2026-01-30 00:41:02.46	193.94	0.14	-58.0	-78.6	3.5	3.02e+01	0	46	104	1258815488	60	324238

#Closed at: 2026-01-30 00:41:06
#Recorded file [1258 MB]: D:/Data/35015_260130_033937.dat