passes_logs/2026/01/30/R3.2S-Naryan-Mar/R3.2S-Naryan-Mar__20260130_014938_NOAA_20_JPSS-1_rec.log

#Pass ID: 20260130_014938_NOAA 20 (JPSS-1)
#Satellite: NOAA 20 (JPSS-1)
#Configuration: NOAA 20
#almurnet v.1.7.20240730
#Start time: 2026-01-30 01:49:39

#Version: 2.2.20231116
#Station: R3.2S-Naryan-Mar
#Location: 53.008057 lon 67.646978 lat
#TLE: 1 43013U 17073A   26028.86313978  .00000144  00000+0  89200-4 0  9993
#TLE: 2 43013  98.7648 329.6571 0000891  20.0014 340.1197 14.19541559424709

#Time	Az	El	Level	Level2	SNR	BER	BlckErr	Temp	State	Recorded	gain1	gain2
2026-01-30 01:49:39.13	38.23	0.03	-59.3	-78.0	3.5	1.51e+00	0	43	0	0	60	309749
2026-01-30 01:49:43.15	38.04	0.26	-61.3	-78.7	3.6	1.51e+00	0	45	104	0	60	338969
2026-01-30 01:49:47.17	37.84	0.48	-61.5	-79.2	3.6	1.51e+00	0	45	104	0	60	357248
2026-01-30 01:49:51.21	37.64	0.71	-62.4	-79.1	3.6	1.51e+00	0	45	104	0	60	354058
2026-01-30 01:49:55.24	37.44	0.94	-59.8	-77.7	3.6	1.51e+00	0	45	104	0	60	300706
2026-01-30 01:49:59.27	37.24	1.17	-55.2	-76.9	3.6	1.51e+00	0	45	104	0	60	275461
2026-01-30 01:50:03.29	37.03	1.40	-56.0	-76.9	3.6	1.51e+00	0	45	104	0	60	274962
2026-01-30 01:50:07.33	36.81	1.63	-60.7	-77.7	3.6	1.51e+00	0	45	104	0	60	300017
2026-01-30 01:50:11.35	36.60	1.86	-56.9	-75.5	3.6	1.51e+00	0	45	104	0	60	233897
2026-01-30 01:50:15.38	36.38	2.10	-54.6	-74.0	3.6	1.51e+00	0	45	104	0	60	195677
2026-01-30 01:50:19.40	36.15	2.34	-54.6	-74.0	3.6	1.51e+00	0	45	104	0	60	196292
2026-01-30 01:50:23.43	35.92	2.57	-54.7	-73.9	3.6	1.51e+00	0	45	104	0	60	194767
2026-01-30 01:50:27.46	35.69	2.81	-54.8	-74.1	3.6	1.51e+00	0	45	104	0	60	199762
2026-01-30 01:50:31.49	35.45	3.06	-54.6	-74.1	3.6	1.51e+00	0	45	104	0	60	199107
2026-01-30 01:50:35.52	35.21	3.30	-54.8	-74.0	3.6	1.51e+00	0	45	104	0	60	196957
2026-01-30 01:50:39.55	34.97	3.54	-54.7	-74.2	3.6	1.51e+00	0	45	104	0	60	200568
2026-01-30 01:50:43.57	34.72	3.79	-54.7	-74.0	3.6	1.51e+00	0	45	104	0	60	197144
2026-01-30 01:50:47.59	34.47	4.04	-54.8	-74.1	3.6	1.51e+00	0	45	104	0	60	199257
2026-01-30 01:50:51.60	34.21	4.29	-54.7	-74.0	3.6	1.51e+00	0	45	104	0	60	195538
2026-01-30 01:50:55.62	33.95	4.54	-54.7	-74.5	3.6	1.51e+00	0	45	104	0	60	208452
2026-01-30 01:50:59.65	33.68	4.79	-54.7	-74.1	3.6	1.51e+00	0	46	104	0	60	198825
2026-01-30 01:51:03.67	33.41	5.05	-54.7	-74.4	3.5	1.51e+00	0	45	104	0	60	205273
2026-01-30 01:51:07.70	33.13	5.30	-54.6	-73.3	3.6	1.51e+00	0	45	104	0	60	182019
2026-01-30 01:51:11.72	32.85	5.56	-54.5	-66.7	6.0	3.97e-01	0	45	0	2097152	60	84794
2026-01-30 01:51:15.75	32.56	5.82	-53.8	-61.0	12.4	4.59e-04	0	45	0	5242880	60	44137
2026-01-30 01:51:19.78	32.27	6.09	-54.8	-60.3	14.4	1.50e-06	0	45	0	12582912	60	40528
2026-01-30 01:51:23.80	31.97	6.35	-54.2	-62.4	11.6	3.84e-04	0	45	0	19922944	60	51424
2026-01-30 01:51:27.82	31.66	6.62	-54.4	-59.4	14.7	0.00e+00	0	45	0	27262976	60	36553
2026-01-30 01:51:31.85	31.35	6.88	-55.0	-58.7	15.9	0.00e+00	0	45	0	35651584	60	33839
2026-01-30 01:51:35.88	31.03	7.15	-53.7	-58.8	15.6	0.00e+00	0	45	0	42991616	60	34221
2026-01-30 01:51:39.90	30.71	7.43	-52.4	-58.7	14.5	0.00e+00	0	45	0	50331648	60	33668
2026-01-30 01:51:43.92	30.38	7.70	-51.8	-58.5	12.9	2.13e-05	0	45	0	57671680	60	32973
2026-01-30 01:51:47.94	30.04	7.98	-53.3	-58.8	14.3	0.00e+00	0	45	0	65011712	60	33933
2026-01-30 01:51:51.97	29.70	8.25	-54.7	-58.9	16.5	0.00e+00	0	46	0	72351744	60	34412
2026-01-30 01:51:56.00	29.35	8.54	-53.8	-58.9	16.4	0.00e+00	0	46	0	80740352	60	34476
2026-01-30 01:52:00.03	28.99	8.82	-51.3	-58.3	15.1	0.00e+00	0	45	0	88080384	60	32297
2026-01-30 01:52:04.06	28.63	9.10	-53.9	-58.1	17.8	0.00e+00	0	46	0	95420416	60	31445
2026-01-30 01:52:08.07	28.26	9.39	-54.2	-58.1	16.8	0.00e+00	0	45	0	102760448	60	31462
2026-01-30 01:52:12.10	27.88	9.68	-55.3	-58.4	17.2	0.00e+00	0	46	0	110100480	60	32601
2026-01-30 01:52:16.12	27.49	9.97	-55.7	-58.8	17.2	0.00e+00	0	46	0	118489088	60	34095
2026-01-30 01:52:20.15	27.10	10.26	-55.8	-59.3	16.7	0.00e+00	0	45	0	125829120	60	35978
2026-01-30 01:52:24.18	26.69	10.56	-56.7	-59.5	16.6	0.00e+00	0	46	0	133169152	60	37004
2026-01-30 01:52:28.20	26.28	10.85	-55.1	-59.8	15.5	0.00e+00	0	45	0	140509184	60	38364
2026-01-30 01:52:32.23	25.86	11.15	-55.9	-59.5	16.6	0.00e+00	0	46	0	147849216	60	36820
2026-01-30 01:52:36.26	25.43	11.45	-53.2	-58.2	16.4	0.00e+00	0	46	0	156237824	60	32011
2026-01-30 01:52:40.30	24.99	11.76	-54.6	-57.8	17.2	0.00e+00	0	46	0	163577856	60	30493
2026-01-30 01:52:44.32	24.54	12.06	-51.4	-57.9	16.6	0.00e+00	0	46	0	170917888	60	30605
2026-01-30 01:52:48.34	24.08	12.37	-51.1	-57.8	14.2	0.00e+00	0	46	0	178257920	60	30484
2026-01-30 01:52:52.37	23.61	12.68	-54.1	-57.8	16.4	0.00e+00	0	46	0	185597952	60	30570
2026-01-30 01:52:56.41	23.13	12.99	-52.2	-57.5	16.4	0.00e+00	0	46	0	193986560	60	29374
2026-01-30 01:53:00.44	22.64	13.31	-51.3	-57.2	13.5	7.00e-07	0	46	0	201326592	60	28309
2026-01-30 01:53:04.45	22.14	13.62	-49.6	-57.2	15.2	0.00e+00	0	46	0	208666624	60	28281
2026-01-30 01:53:08.49	21.63	13.94	-53.2	-57.7	18.3	0.00e+00	0	46	0	216006656	60	30153
2026-01-30 01:53:12.51	21.11	14.26	-52.7	-57.7	17.5	0.00e+00	0	46	0	223346688	60	29896
2026-01-30 01:53:16.54	20.57	14.58	-55.1	-57.8	16.9	0.00e+00	0	46	0	231735296	60	30255
2026-01-30 01:53:20.57	20.03	14.90	-52.1	-57.2	17.1	0.00e+00	0	46	0	239075328	60	28294
2026-01-30 01:53:24.59	19.47	15.23	-50.2	-57.4	15.4	0.00e+00	0	46	0	246415360	60	29032
2026-01-30 01:53:28.62	18.90	15.55	-51.9	-57.2	14.9	7.00e-07	0	46	0	253755392	60	28544
2026-01-30 01:53:32.65	18.31	15.88	-52.4	-56.6	17.4	0.00e+00	0	46	0	262144000	60	26515
2026-01-30 01:53:36.68	17.72	16.21	-51.2	-56.4	17.2	0.00e+00	0	46	0	269484032	60	25871
2026-01-30 01:53:40.70	17.11	16.54	-53.8	-56.4	19.6	0.00e+00	0	46	0	276824064	60	25781
2026-01-30 01:53:44.72	16.48	16.87	-53.7	-56.4	18.7	0.00e+00	0	46	0	284164096	60	25936
2026-01-30 01:53:48.75	15.84	17.20	-54.6	-56.4	19.8	0.00e+00	0	46	0	291504128	60	25786
2026-01-30 01:53:52.78	15.19	17.53	-54.4	-56.4	18.7	0.00e+00	0	46	0	298844160	60	25973
2026-01-30 01:53:56.79	14.52	17.86	-54.2	-56.4	19.8	0.00e+00	0	46	0	307232768	60	25938
2026-01-30 01:54:00.82	13.84	18.19	-54.4	-56.9	19.5	0.00e+00	0	46	0	314572800	60	27306
2026-01-30 01:54:04.84	13.14	18.52	-54.6	-57.0	17.8	0.00e+00	0	46	0	321912832	60	27618
2026-01-30 01:54:08.86	12.43	18.86	-54.2	-57.1	18.7	0.00e+00	0	46	0	329252864	60	28126
2026-01-30 01:54:12.87	11.70	19.19	-54.6	-56.8	18.9	0.00e+00	0	46	0	336592896	60	27064
2026-01-30 01:54:16.89	10.96	19.52	-54.0	-56.7	19.3	0.00e+00	0	46	0	344981504	60	26812
2026-01-30 01:54:20.91	10.20	19.85	-52.2	-56.6	18.2	0.00e+00	0	46	0	352321536	60	26471
2026-01-30 01:54:24.94	9.42	20.18	-53.0	-56.7	18.2	0.00e+00	0	46	0	359661568	60	26848
2026-01-30 01:54:28.98	8.62	20.51	-53.7	-56.8	18.6	0.00e+00	0	46	0	367001600	60	27150
2026-01-30 01:54:33.01	7.80	20.84	-52.9	-56.3	18.5	0.00e+00	0	46	0	374341632	60	25700
2026-01-30 01:54:37.04	6.97	21.16	-50.8	-56.0	17.0	0.00e+00	0	46	0	382730240	60	24828
2026-01-30 01:54:41.06	6.12	21.48	-52.9	-55.7	19.2	0.00e+00	0	46	0	390070272	60	23907
2026-01-30 01:54:45.09	5.25	21.80	-53.5	-55.4	20.1	0.00e+00	0	46	0	397410304	60	22991
2026-01-30 01:54:49.11	4.37	22.12	-53.3	-55.4	20.5	0.00e+00	0	46	0	404750336	60	22958
2026-01-30 01:54:53.14	3.46	22.43	-52.9	-55.3	20.5	0.00e+00	0	46	0	412090368	60	22737
2026-01-30 01:54:57.16	2.54	22.74	-52.6	-54.6	20.3	0.00e+00	0	46	0	420478976	60	21132
2026-01-30 01:55:01.17	1.60	23.04	-53.1	-54.9	20.8	0.00e+00	0	46	0	427819008	60	21757
2026-01-30 01:55:05.21	0.64	23.34	-53.2	-54.9	21.4	0.00e+00	0	46	0	435159040	60	21784
2026-01-30 01:55:09.23	359.66	23.63	-53.4	-55.0	21.4	0.00e+00	0	46	0	442499072	60	22152
2026-01-30 01:55:13.25	358.67	23.92	-53.2	-55.1	20.8	0.00e+00	0	46	0	449839104	60	22406
2026-01-30 01:55:17.26	357.65	24.20	-53.2	-55.0	20.4	0.00e+00	0	46	0	458227712	60	21990
2026-01-30 01:55:21.29	356.62	24.47	-53.6	-55.1	21.1	0.00e+00	0	46	0	465567744	60	22302
2026-01-30 01:55:25.31	355.57	24.74	-53.0	-55.5	20.3	6.23e-03	0	46	0	472907776	60	23336
2026-01-30 01:55:29.32	354.50	25.00	-53.8	-55.5	20.8	5.16e-03	0	46	0	480247808	60	23424
2026-01-30 01:55:33.34	353.42	25.24	-53.9	-55.8	20.0	0.00e+00	0	46	0	487587840	60	24063
2026-01-30 01:55:37.36	352.32	25.48	-54.2	-55.8	20.5	0.00e+00	0	46	0	495976448	60	24286
2026-01-30 01:55:41.38	351.20	25.71	-53.9	-55.4	20.8	0.00e+00	0	46	0	503316480	60	23092
2026-01-30 01:55:45.40	350.06	25.93	-53.8	-55.4	21.1	0.00e+00	0	46	0	510656512	60	22939
2026-01-30 01:55:49.42	348.91	26.14	-53.6	-55.1	21.4	0.00e+00	0	46	0	517996544	60	22283
2026-01-30 01:55:53.45	347.74	26.34	-53.7	-55.1	21.1	0.00e+00	0	46	0	525336576	60	22363
2026-01-30 01:55:57.48	346.56	26.53	-54.2	-55.6	20.8	0.00e+00	0	46	0	532676608	60	23640
2026-01-30 01:56:01.51	345.36	26.70	-54.5	-56.1	20.4	0.00e+00	0	46	0	541065216	60	25100
2026-01-30 01:56:05.54	344.15	26.86	-54.9	-56.8	19.7	0.00e+00	0	46	0	548405248	60	27255
2026-01-30 01:56:09.57	342.93	27.01	-55.1	-57.1	19.5	0.00e+00	0	46	0	555745280	60	27942
2026-01-30 01:56:13.60	341.70	27.14	-55.1	-56.8	19.9	0.00e+00	0	46	0	563085312	60	27016
2026-01-30 01:56:17.63	340.46	27.26	-55.1	-56.8	19.8	0.00e+00	0	46	0	570425344	60	27246
2026-01-30 01:56:21.65	339.21	27.36	-55.0	-56.9	19.6	0.00e+00	0	46	0	578813952	60	27284
2026-01-30 01:56:25.68	337.95	27.45	-55.1	-57.2	19.5	0.00e+00	0	46	0	586153984	60	28492
2026-01-30 01:56:29.71	336.68	27.53	-55.5	-57.3	19.4	0.00e+00	0	46	0	593494016	60	28727
2026-01-30 01:56:33.75	335.41	27.59	-55.5	-57.5	19.2	0.00e+00	0	46	0	600834048	60	29531
2026-01-30 01:56:37.77	334.14	27.63	-55.4	-57.2	19.5	0.00e+00	0	46	0	609222656	60	28520
2026-01-30 01:56:41.80	332.86	27.66	-55.6	-57.5	19.1	0.00e+00	0	46	0	616562688	60	29549
2026-01-30 01:56:45.81	331.59	27.67	-55.1	-57.1	19.0	0.00e+00	0	46	0	623902720	60	28171
2026-01-30 01:56:49.83	330.31	27.67	-54.8	-56.6	20.0	0.00e+00	0	46	0	631242752	60	26602
2026-01-30 01:56:53.85	329.04	27.65	-54.0	-56.2	20.3	0.00e+00	0	46	0	638582784	60	25220
2026-01-30 01:56:57.87	327.76	27.61	-54.4	-56.2	20.2	0.00e+00	0	46	0	645922816	60	25431
2026-01-30 01:57:01.90	326.49	27.56	-54.5	-56.4	20.0	0.00e+00	0	46	0	654311424	60	25910
2026-01-30 01:57:05.93	325.22	27.49	-54.6	-56.3	19.8	0.00e+00	0	46	0	661651456	60	25594
2026-01-30 01:57:09.96	323.96	27.41	-53.8	-55.2	21.0	0.00e+00	0	46	0	668991488	60	22672
2026-01-30 01:57:13.99	322.70	27.31	-53.4	-55.3	20.9	0.00e+00	0	46	0	676331520	60	22882
2026-01-30 01:57:18.01	321.46	27.20	-53.1	-54.9	21.4	0.00e+00	0	46	0	683671552	60	21845
2026-01-30 01:57:22.03	320.22	27.08	-53.6	-55.4	20.8	0.00e+00	0	46	0	692060160	60	23020
2026-01-30 01:57:26.06	318.99	26.94	-54.1	-55.6	20.8	0.00e+00	0	46	0	699400192	60	23563
2026-01-30 01:57:30.09	317.78	26.78	-53.3	-55.1	20.8	0.00e+00	0	46	0	706740224	60	22385
2026-01-30 01:57:34.12	316.57	26.61	-53.8	-55.9	20.3	0.00e+00	0	46	0	714080256	60	24374
2026-01-30 01:57:38.15	315.38	26.43	-53.6	-55.6	20.3	0.00e+00	0	46	0	722468864	60	23723
2026-01-30 01:57:42.17	314.21	26.24	-54.1	-55.7	20.6	0.00e+00	0	46	0	729808896	60	23794
2026-01-30 01:57:46.20	313.05	26.04	-54.4	-56.2	19.9	0.00e+00	0	46	0	737148928	60	25205
2026-01-30 01:57:50.23	311.90	25.82	-54.5	-56.5	19.6	0.00e+00	0	46	0	744488960	60	26099
2026-01-30 01:57:54.26	310.77	25.60	-54.2	-56.4	19.8	0.00e+00	0	46	0	751828992	60	25816
2026-01-30 01:57:58.29	309.65	25.36	-54.3	-56.6	19.4	0.00e+00	0	46	0	759169024	60	26577
2026-01-30 01:58:02.31	308.56	25.12	-54.8	-56.9	19.3	0.00e+00	0	46	0	767557632	60	27275
2026-01-30 01:58:06.33	307.48	24.86	-54.6	-56.6	19.4	0.00e+00	0	46	0	774897664	60	26585
2026-01-30 01:58:10.35	306.42	24.60	-54.3	-56.4	19.6	0.00e+00	0	46	0	782237696	60	25907
2026-01-30 01:58:14.38	305.37	24.33	-54.2	-56.3	19.7	0.00e+00	0	46	0	789577728	60	25641
2026-01-30 01:58:18.42	304.34	24.05	-53.8	-56.0	19.5	0.00e+00	0	46	0	796917760	60	24711
2026-01-30 01:58:22.44	303.34	23.77	-53.6	-55.8	19.3	0.00e+00	0	46	0	805306368	60	24245
2026-01-30 01:58:26.47	302.35	23.48	-53.3	-55.4	19.3	0.00e+00	0	46	0	812646400	60	23202
2026-01-30 01:58:30.49	301.38	23.18	-53.1	-55.1	19.8	0.00e+00	0	46	0	819986432	60	22261
2026-01-30 01:58:34.51	300.43	22.88	-52.9	-54.7	20.5	0.00e+00	0	46	0	827326464	60	21297
2026-01-30 01:58:38.54	299.49	22.57	-52.8	-54.5	21.0	0.00e+00	0	46	0	835715072	60	20814
2026-01-30 01:58:42.57	298.58	22.26	-52.6	-54.4	21.0	0.00e+00	0	46	0	843055104	60	20673
2026-01-30 01:58:46.59	297.68	21.95	-52.5	-54.4	21.0	0.00e+00	0	46	0	850395136	60	20645
2026-01-30 01:58:50.62	296.80	21.63	-52.6	-54.6	20.8	0.00e+00	0	46	0	857735168	60	20987
2026-01-30 01:58:54.64	295.94	21.31	-52.3	-54.1	21.1	0.00e+00	0	46	0	865075200	60	19966
2026-01-30 01:58:58.67	295.10	20.98	-52.4	-54.3	20.9	0.00e+00	0	46	0	872415232	60	20344
2026-01-30 01:59:02.70	294.27	20.66	-52.1	-53.7	21.6	0.00e+00	0	46	0	880803840	60	19035
2026-01-30 01:59:06.73	293.47	20.33	-52.0	-53.4	22.1	0.00e+00	0	46	0	888143872	60	18310
2026-01-30 01:59:10.76	292.68	20.00	-52.1	-53.5	21.9	0.00e+00	0	46	0	895483904	60	18547
2026-01-30 01:59:14.78	291.90	19.67	-51.7	-52.9	22.3	0.00e+00	0	46	0	902823936	60	17388
2026-01-30 01:59:18.81	291.15	19.34	-51.7	-52.9	22.2	0.00e+00	0	46	0	910163968	60	17399
2026-01-30 01:59:22.84	290.41	19.00	-52.0	-53.4	21.8	0.00e+00	0	46	0	918552576	60	18259
2026-01-30 01:59:26.86	289.69	18.67	-52.1	-53.5	21.7	0.00e+00	0	46	0	925892608	60	18471
2026-01-30 01:59:30.89	288.98	18.34	-51.7	-53.0	22.1	0.00e+00	0	46	0	933232640	60	17488
2026-01-30 01:59:34.92	288.28	18.00	-51.8	-53.2	22.0	0.00e+00	0	46	0	940572672	60	17843
2026-01-30 01:59:38.95	287.61	17.67	-52.0	-53.3	21.8	0.00e+00	0	46	0	948961280	60	18208
2026-01-30 01:59:42.98	286.95	17.34	-52.0	-53.3	21.8	0.00e+00	0	46	0	956301312	60	18200
2026-01-30 01:59:47.00	286.30	17.01	-52.1	-53.5	21.7	0.00e+00	0	46	0	963641344	60	18568
2026-01-30 01:59:51.03	285.67	16.67	-52.6	-54.1	21.1	0.00e+00	0	46	0	970981376	60	19768
2026-01-30 01:59:55.05	285.05	16.34	-52.8	-54.3	20.9	0.00e+00	0	46	0	978321408	60	20385
2026-01-30 01:59:59.08	284.44	16.01	-52.8	-54.3	20.8	0.00e+00	0	46	0	985661440	60	20407
2026-01-30 02:00:03.11	283.85	15.69	-52.8	-54.4	20.7	0.00e+00	0	46	0	994050048	60	20461
2026-01-30 02:00:07.15	283.27	15.36	-52.7	-54.3	20.6	0.00e+00	0	46	0	1001390080	60	20310
2026-01-30 02:00:11.18	282.70	15.03	-52.8	-54.4	20.5	0.00e+00	0	46	0	1008730112	60	20551
2026-01-30 02:00:15.20	282.15	14.71	-53.1	-54.7	20.3	0.00e+00	0	46	0	1016070144	60	21255
2026-01-30 02:00:19.23	281.61	14.39	-53.2	-55.0	20.0	0.00e+00	0	46	0	1023410176	60	22048
2026-01-30 02:00:23.26	281.08	14.07	-53.2	-54.9	20.1	0.00e+00	0	46	0	1031798784	60	21883
2026-01-30 02:00:27.30	280.56	13.75	-53.3	-55.1	19.9	0.00e+00	0	46	0	1039138816	60	22281
2026-01-30 02:00:31.32	280.05	13.43	-53.5	-55.3	19.5	0.00e+00	0	46	0	1046478848	60	22894
2026-01-30 02:00:35.35	279.55	13.12	-53.3	-55.1	19.7	0.00e+00	0	46	0	1053818880	60	22371
2026-01-30 02:00:39.38	279.07	12.80	-53.4	-55.2	19.6	0.00e+00	0	46	0	1062207488	60	22549
2026-01-30 02:00:43.41	278.59	12.49	-53.8	-55.8	19.0	0.00e+00	0	46	0	1069547520	60	24110
2026-01-30 02:00:47.44	278.13	12.18	-54.0	-56.3	18.3	0.00e+00	0	46	0	1076887552	60	25517
2026-01-30 02:00:51.45	277.67	11.88	-54.5	-56.9	17.6	0.00e+00	0	46	0	1084227584	60	27477
2026-01-30 02:00:55.48	277.23	11.57	-54.8	-57.4	17.3	0.00e+00	0	46	0	1091567616	60	28968
2026-01-30 02:00:59.51	276.79	11.27	-55.2	-58.2	16.4	0.00e+00	0	46	0	1098907648	60	31945
2026-01-30 02:01:03.55	276.36	10.97	-55.6	-58.9	15.6	0.00e+00	0	46	0	1107296256	60	34411
2026-01-30 02:01:07.58	275.95	10.67	-54.8	-57.5	17.0	0.00e+00	0	46	0	1114636288	60	29507
2026-01-30 02:01:11.60	275.54	10.37	-54.4	-56.8	17.8	0.00e+00	0	46	0	1121976320	60	27072
2026-01-30 02:01:15.62	275.14	10.08	-54.7	-57.2	17.3	0.00e+00	0	46	0	1129316352	60	28284
2026-01-30 02:01:19.65	274.74	9.78	-55.1	-57.8	16.9	0.00e+00	0	46	0	1137704960	60	30298
2026-01-30 02:01:23.67	274.36	9.49	-55.2	-58.0	16.6	0.00e+00	0	46	0	1145044992	60	31171
2026-01-30 02:01:27.69	273.98	9.21	-55.5	-58.5	16.0	0.00e+00	0	46	0	1152385024	60	32992
2026-01-30 02:01:31.72	273.61	8.92	-55.4	-58.2	16.4	0.00e+00	0	46	0	1159725056	60	31905
2026-01-30 02:01:35.75	273.25	8.64	-55.2	-57.9	16.7	0.00e+00	0	46	0	1167065088	60	30603
2026-01-30 02:01:39.78	272.89	8.35	-55.6	-58.6	16.0	0.00e+00	0	46	0	1175453696	60	33411
2026-01-30 02:01:43.80	272.55	8.08	-55.8	-59.1	15.5	0.00e+00	0	46	0	1182793728	60	35177
2026-01-30 02:01:47.83	272.21	7.80	-56.1	-59.8	14.6	0.00e+00	0	46	0	1190133760	60	38442
2026-01-30 02:01:51.85	271.87	7.52	-56.3	-60.2	14.1	7.00e-07	0	46	0	1197473792	60	40088
2026-01-30 02:01:55.87	271.54	7.25	-55.8	-58.8	15.8	0.00e+00	0	46	0	1204813824	60	34196
2026-01-30 02:01:59.90	271.22	6.98	-55.9	-59.2	15.3	0.00e+00	0	46	0	1212153856	60	35741
2026-01-30 02:02:03.93	270.91	6.71	-55.2	-58.0	16.2	0.00e+00	0	46	0	1220542464	60	31074
2026-01-30 02:02:07.95	270.60	6.44	-55.4	-58.5	15.5	0.00e+00	0	46	0	1227882496	60	32913
2026-01-30 02:02:11.96	270.29	6.18	-56.0	-59.3	15.0	0.00e+00	0	46	0	1235222528	60	36290
2026-01-30 02:02:15.98	270.00	5.91	-59.0	-75.5	3.6	1.51e+00	0	46	104	1241513984	60	233932
2026-01-30 02:02:20.01	269.70	5.65	-58.6	-76.4	3.6	1.51e+00	0	46	104	1241513984	60	257830
2026-01-30 02:02:24.03	269.42	5.39	-58.3	-76.7	3.6	1.51e+00	0	46	104	1241513984	60	266698
2026-01-30 02:02:28.05	269.14	5.13	-59.3	-77.7	3.6	1.51e+00	0	46	104	1241513984	60	301576
2026-01-30 02:02:32.06	268.86	4.88	-58.7	-77.9	3.6	1.51e+00	0	46	104	1241513984	60	307268
2026-01-30 02:02:36.09	268.59	4.62	-60.6	-78.5	3.6	1.51e+00	0	46	104	1241513984	60	329127
2026-01-30 02:02:40.11	268.32	4.37	-60.0	-78.4	3.6	1.51e+00	0	46	104	1241513984	60	327221
2026-01-30 02:02:44.14	268.06	4.12	-58.6	-77.9	3.6	1.51e+00	0	46	104	1241513984	60	308864
2026-01-30 02:02:48.16	267.80	3.87	-58.7	-78.2	3.6	1.51e+00	0	46	104	1241513984	60	318068
2026-01-30 02:02:52.18	267.55	3.62	-59.3	-78.6	3.6	1.51e+00	0	46	104	1241513984	60	331651
2026-01-30 02:02:56.21	267.30	3.38	-59.3	-78.6	3.6	1.51e+00	0	46	104	1241513984	60	332742
2026-01-30 02:03:00.24	267.06	3.13	-59.3	-78.6	3.6	1.51e+00	0	46	104	1241513984	60	333021
2026-01-30 02:03:04.26	266.82	2.89	-59.3	-78.5	3.6	1.51e+00	0	46	104	1241513984	60	329018
2026-01-30 02:03:08.29	266.58	2.65	-59.4	-78.5	3.6	1.51e+00	0	46	104	1241513984	60	329324
2026-01-30 02:03:12.32	266.35	2.41	-59.3	-78.4	3.6	1.51e+00	0	46	104	1241513984	60	326701
2026-01-30 02:03:16.35	266.12	2.17	-59.3	-78.4	3.6	1.51e+00	0	46	104	1241513984	60	324927
2026-01-30 02:03:20.37	265.90	1.94	-59.1	-78.5	3.6	1.51e+00	0	46	104	1241513984	60	330970
2026-01-30 02:03:24.39	265.68	1.70	-59.0	-78.5	3.6	1.51e+00	0	46	104	1241513984	60	330978
2026-01-30 02:03:28.42	265.46	1.47	-59.0	-78.2	3.5	1.51e+00	0	46	104	1241513984	60	320028
2026-01-30 02:03:32.44	265.25	1.24	-58.9	-78.2	3.6	1.51e+00	0	46	104	1241513984	60	318743
2026-01-30 02:03:36.47	265.04	1.01	-58.8	-78.5	3.6	1.51e+00	0	46	104	1241513984	60	329569
2026-01-30 02:03:40.49	264.83	0.78	-58.7	-78.2	3.6	1.51e+00	0	46	104	1241513984	60	317619
2026-01-30 02:03:44.50	264.63	0.55	-58.8	-78.5	3.6	1.51e+00	0	46	104	1241513984	60	328995
2026-01-30 02:03:48.52	264.43	0.33	-58.7	-78.1	3.6	1.51e+00	0	46	104	1241513984	60	313432
2026-01-30 02:03:52.55	264.23	0.10	-58.7	-78.4	3.6	1.51e+00	0	46	104	1241513984	60	326321
2026-01-30 02:03:56.58	264.04	-0.12	-59.0	-78.5	3.6	1.51e+00	0	46	104	1241513984	60	328155

#Closed at: 2026-01-30 02:03:56
#Recorded file [1241 MB]: D:/Data/35015_260130_050215.dat