passes_logs/2026/01/28/planumMaritime01/planumMaritime01__20260128_081231_METOP-B_rec.log

#Pass ID: 20260128_081231_METOP-B
#Satellite: METOP-B
#Configuration: METOP-B
#Start time: 2026-01-28 08:12:36.524552

#LorettStation: 1.0.0 05.05.2024
#Station: planumMaritime01
#Location: 37.49445 lon 55.92918 lat
#TLE: 1 38771U 12049A   26027.75897957  .00000194  00000+0  10857-3 0  9993
#TLE: 2 38771  98.6728  81.9227 0002898  50.5582 309.5851 14.21429617693319

#Time	Az	El	Level	SNR
2026-01-28 08:12:38.688435	6.7	10.2	-66.2	0.0
2026-01-28 08:12:40.936608	6.5	10.4	-65.3	0.0
2026-01-28 08:12:43.183339	6.4	10.5	-67.6	0.0
2026-01-28 08:12:45.428298	6.2	10.7	-65.1	0.0
2026-01-28 08:12:47.678923	6.1	10.9	-64.6	0.0
2026-01-28 08:12:49.925374	5.9	11.1	-60.2	0.0
2026-01-28 08:12:52.172743	5.8	11.3	-61.6	0.0
2026-01-28 08:12:54.418716	5.6	11.5	-62.4	0.0
2026-01-28 08:12:56.662031	5.4	11.7	-62.1	0.0
2026-01-28 08:12:58.906446	5.3	11.9	-61.9	0.0
2026-01-28 08:13:01.151738	5.1	12.1	-63.1	0.0
2026-01-28 08:13:03.396219	4.9	12.3	-61.0	0.0
2026-01-28 08:13:05.641876	4.7	12.5	-63.7	0.0
2026-01-28 08:13:07.887447	4.6	12.7	-63.5	0.0
2026-01-28 08:13:10.131751	4.4	12.9	-63.3	0.0
2026-01-28 08:13:12.375425	4.2	13.1	-63.1	0.0
2026-01-28 08:13:14.626390	4.0	13.3	-65.3	0.0
2026-01-28 08:13:16.871408	3.8	13.5	-61.1	0.0
2026-01-28 08:13:19.117598	3.6	13.7	-63.4	0.0
2026-01-28 08:13:21.362282	3.5	13.9	-64.8	0.0
2026-01-28 08:13:23.608895	3.3	14.1	-65.2	0.0
2026-01-28 08:13:25.853714	3.1	14.3	-65.1	0.0
2026-01-28 08:13:28.101355	2.9	14.5	-65.8	0.0
2026-01-28 08:13:30.344079	2.7	14.7	-64.8	0.0
2026-01-28 08:13:32.593560	2.4	14.9	-62.8	0.0
2026-01-28 08:13:34.841135	2.2	15.1	-65.0	0.0
2026-01-28 08:13:37.085374	2.0	15.4	-65.0	0.0
2026-01-28 08:13:39.329379	1.8	15.6	-65.8	0.0
2026-01-28 08:13:41.576317	1.6	15.8	-64.5	0.0
2026-01-28 08:13:43.823143	1.4	16.0	-63.8	0.0
2026-01-28 08:13:46.066426	1.1	16.2	-64.5	0.0
2026-01-28 08:13:48.311217	0.9	16.5	-64.9	0.0
2026-01-28 08:13:50.558731	0.7	16.7	-64.1	0.0
2026-01-28 08:13:52.803238	0.4	16.9	-65.2	0.0
2026-01-28 08:13:55.050221	0.2	17.2	-65.5	0.0
2026-01-28 08:13:57.295167	359.9	17.4	-66.2	0.0
2026-01-28 08:13:59.541285	359.7	17.6	-63.5	0.0
2026-01-28 08:14:01.783924	359.4	17.9	-65.5	0.0
2026-01-28 08:14:04.031313	359.2	18.1	-65.1	0.0
2026-01-28 08:14:06.280624	358.9	18.3	-65.0	0.0
2026-01-28 08:14:08.524833	358.6	18.6	-64.9	0.0
2026-01-28 08:14:10.771549	358.4	18.8	-63.1	0.0
2026-01-28 08:14:13.018001	358.1	19.0	-64.7	0.0
2026-01-28 08:14:15.264535	357.8	19.3	-64.3	0.0
2026-01-28 08:14:17.508098	357.5	19.5	-64.5	0.0
2026-01-28 08:14:19.753895	357.2	19.8	-63.7	0.0
2026-01-28 08:14:21.999030	356.9	20.0	-62.9	0.0
2026-01-28 08:14:24.241285	356.6	20.3	-63.5	0.0
2026-01-28 08:14:26.486965	356.3	20.5	-62.9	0.0
2026-01-28 08:14:28.733329	356.0	20.8	-63.4	0.0
2026-01-28 08:14:30.981156	355.7	21.1	-63.2	0.0
2026-01-28 08:14:33.228019	355.4	21.3	-64.5	0.0
2026-01-28 08:14:35.473350	355.1	21.6	-62.6	0.0
2026-01-28 08:14:37.716853	354.7	21.8	-64.5	0.0
2026-01-28 08:14:39.962661	354.4	22.1	-63.5	0.0
2026-01-28 08:14:42.208191	354.1	22.4	-64.6	0.0
2026-01-28 08:14:44.455874	353.7	22.6	-63.1	0.0
2026-01-28 08:14:46.699308	353.3	22.9	-65.7	0.0
2026-01-28 08:14:48.942764	353.0	23.2	-64.1	0.0
2026-01-28 08:14:51.188734	352.6	23.4	-63.5	0.0
2026-01-28 08:14:53.434015	352.2	23.7	-64.4	0.0
2026-01-28 08:14:55.674992	351.9	24.0	-65.4	0.0
2026-01-28 08:14:57.922236	351.5	24.3	-64.3	0.0
2026-01-28 08:15:00.165027	351.1	24.5	-65.2	0.0
2026-01-28 08:15:02.413444	350.7	24.8	-64.1	0.0
2026-01-28 08:15:04.659475	350.3	25.1	-64.6	0.0
2026-01-28 08:15:06.903318	349.8	25.4	-66.4	0.0
2026-01-28 08:15:09.151960	349.4	25.7	-65.9	0.0
2026-01-28 08:15:11.401454	349.0	25.9	-66.0	0.0
2026-01-28 08:15:13.646014	348.5	26.2	-62.3	0.0
2026-01-28 08:15:15.892944	348.1	26.5	-65.6	0.0
2026-01-28 08:15:18.137325	347.6	26.8	-66.4	0.0
2026-01-28 08:15:20.383899	347.2	27.1	-64.0	0.0
2026-01-28 08:15:22.628301	346.7	27.4	-65.9	0.0
2026-01-28 08:15:24.873122	346.2	27.7	-64.9	0.0
2026-01-28 08:15:27.118387	345.7	28.0	-65.5	0.0
2026-01-28 08:15:29.369386	345.2	28.3	-66.0	0.0
2026-01-28 08:15:31.617217	344.7	28.6	-65.1	0.0
2026-01-28 08:15:33.862934	344.2	28.8	-66.5	0.0
2026-01-28 08:15:36.108176	343.6	29.1	-65.7	0.0
2026-01-28 08:15:38.355214	343.1	29.4	-67.1	0.0
2026-01-28 08:15:40.601732	342.6	29.7	-66.3	0.0
2026-01-28 08:15:42.845469	342.0	30.0	-67.1	0.0
2026-01-28 08:15:45.091865	341.4	30.3	-67.9	0.0
2026-01-28 08:15:47.337394	340.8	30.6	-67.4	0.0
2026-01-28 08:15:49.585535	340.2	30.9	-67.0	0.0
2026-01-28 08:15:51.829114	339.6	31.2	-66.4	0.0
2026-01-28 08:15:54.075433	339.0	31.5	-65.7	0.0
2026-01-28 08:15:56.319187	338.4	31.8	-66.7	0.0
2026-01-28 08:15:58.566091	337.8	32.1	-65.4	0.0
2026-01-28 08:16:00.808724	337.1	32.4	-67.6	0.0
2026-01-28 08:16:03.054327	336.4	32.6	-67.1	0.0
2026-01-28 08:16:05.300504	335.8	32.9	-68.1	0.0
2026-01-28 08:16:07.542131	335.1	33.2	-67.8	0.0
2026-01-28 08:16:09.785566	334.4	33.5	-68.3	0.0
2026-01-28 08:16:12.031451	333.7	33.8	-67.6	0.0
2026-01-28 08:16:14.279093	333.0	34.0	-68.2	0.0
2026-01-28 08:16:16.523612	332.2	34.3	-67.9	0.0
2026-01-28 08:16:18.768242	331.5	34.6	-67.7	0.0
2026-01-28 08:16:21.014430	330.7	34.9	-69.4	4.6
2026-01-28 08:16:23.257398	329.9	35.1	-70.3	3.0
2026-01-28 08:16:25.504918	329.2	35.4	-69.5	4.6
2026-01-28 08:16:27.751440	328.4	35.6	-68.5	3.3
2026-01-28 08:16:29.998368	327.5	35.9	-68.9	2.8
2026-01-28 08:16:32.246699	326.7	36.1	-68.8	0.4
2026-01-28 08:16:34.496161	325.9	36.4	-69.4	3.7
2026-01-28 08:16:36.742485	325.0	36.6	-66.9	0.0
2026-01-28 08:16:38.992404	324.2	36.8	-67.8	0.0
2026-01-28 08:16:41.241377	323.3	37.1	-68.5	3.2
2026-01-28 08:16:43.484128	322.4	37.3	-68.8	0.9
2026-01-28 08:16:45.730538	321.5	37.5	-69.6	6.9
2026-01-28 08:16:47.978220	320.6	37.7	-69.8	4.3
2026-01-28 08:16:50.222454	319.7	37.9	-70.0	4.9
2026-01-28 08:16:52.465057	318.8	38.1	-70.3	2.5
2026-01-28 08:16:54.710632	317.8	38.3	-71.5	5.8
2026-01-28 08:16:56.957644	316.9	38.4	-72.6	8.1
2026-01-28 08:16:59.206758	315.9	38.6	-70.7	4.7
2026-01-28 08:17:01.452340	314.9	38.8	-71.7	7.0
2026-01-28 08:17:03.698242	313.9	38.9	-72.6	8.3
2026-01-28 08:17:05.941911	313.0	39.1	-71.1	5.2
2026-01-28 08:17:08.188534	312.0	39.2	-71.9	8.1
2026-01-28 08:17:10.436240	311.0	39.3	-71.8	8.0
2026-01-28 08:17:12.678710	309.9	39.4	-71.9	8.2
2026-01-28 08:17:14.921454	308.9	39.5	-71.1	7.4
2026-01-28 08:17:17.168015	307.9	39.6	-69.5	2.8
2026-01-28 08:17:19.413648	306.9	39.7	-70.6	6.5
2026-01-28 08:17:21.659026	305.8	39.8	-70.2	4.1
2026-01-28 08:17:23.903705	304.8	39.8	-70.5	4.4
2026-01-28 08:17:26.150558	303.7	39.9	-71.6	7.6
2026-01-28 08:17:28.395572	302.7	39.9	-72.2	8.1
2026-01-28 08:17:30.640598	301.6	39.9	-71.5	4.0
2026-01-28 08:17:32.887320	300.6	40.0	-71.1	7.0
2026-01-28 08:17:35.133881	299.5	40.0	-71.4	4.8
2026-01-28 08:17:37.380230	298.5	40.0	-71.0	4.5
2026-01-28 08:17:39.625240	297.4	40.0	-71.0	2.5
2026-01-28 08:17:41.870469	296.4	39.9	-71.3	5.0
2026-01-28 08:17:44.113359	295.3	39.9	-71.8	4.3
2026-01-28 08:17:46.358649	294.3	39.8	-72.8	6.4
2026-01-28 08:17:48.605689	293.2	39.8	-73.0	7.5
2026-01-28 08:17:50.850465	292.2	39.7	-72.4	4.9
2026-01-28 08:17:53.095661	291.2	39.6	-72.3	7.0
2026-01-28 08:17:55.337316	290.1	39.5	-71.6	5.6
2026-01-28 08:17:57.585749	289.1	39.4	-71.0	4.1
2026-01-28 08:17:59.830978	288.1	39.3	-72.6	7.6
2026-01-28 08:18:02.078642	287.1	39.2	-72.1	4.3
2026-01-28 08:18:04.322133	286.1	39.1	-72.9	7.6
2026-01-28 08:18:06.571784	285.1	38.9	-72.9	7.7
2026-01-28 08:18:08.818972	284.1	38.8	-72.3	5.2
2026-01-28 08:18:11.064134	283.1	38.6	-72.4	7.5
2026-01-28 08:18:13.309381	282.2	38.5	-71.4	2.8
2026-01-28 08:18:15.553596	281.2	38.3	-72.5	7.5
2026-01-28 08:18:17.801814	280.3	38.1	-71.4	5.6
2026-01-28 08:18:20.047908	279.3	37.9	-73.1	7.5
2026-01-28 08:18:22.294133	278.4	37.7	-72.3	6.4
2026-01-28 08:18:24.541411	277.5	37.5	-72.9	8.4
2026-01-28 08:18:26.787823	276.6	37.3	-73.0	7.3
2026-01-28 08:18:29.031568	275.7	37.1	-72.7	8.2
2026-01-28 08:18:31.277823	274.8	36.9	-72.5	7.6
2026-01-28 08:18:33.524930	274.0	36.6	-71.7	6.3
2026-01-28 08:18:35.769229	273.1	36.4	-72.8	7.5
2026-01-28 08:18:38.014767	272.3	36.2	-72.1	7.5
2026-01-28 08:18:40.258703	271.4	35.9	-72.4	8.0
2026-01-28 08:18:42.506968	270.6	35.7	-72.3	6.5
2026-01-28 08:18:44.749559	269.8	35.4	-72.4	7.9
2026-01-28 08:18:46.996243	269.0	35.1	-72.0	6.7
2026-01-28 08:18:49.242655	268.3	34.9	-72.4	8.0
2026-01-28 08:18:51.488643	267.5	34.6	-72.6	6.8
2026-01-28 08:18:53.735236	266.7	34.3	-72.2	7.5
2026-01-28 08:18:55.979787	266.0	34.1	-72.3	7.9
2026-01-28 08:18:58.227754	265.3	33.8	-72.0	6.4
2026-01-28 08:19:00.472966	264.6	33.5	-72.6	7.7
2026-01-28 08:19:02.714706	263.9	33.2	-72.5	7.3
2026-01-28 08:19:04.962125	263.2	32.9	-72.6	6.4
2026-01-28 08:19:07.205104	262.5	32.7	-72.6	6.0
2026-01-28 08:19:09.451829	261.8	32.4	-72.7	6.5
2026-01-28 08:19:11.697151	261.2	32.1	-72.5	5.3
2026-01-28 08:19:13.941029	260.5	31.8	-72.7	5.1
2026-01-28 08:19:16.186541	259.9	31.5	-73.1	4.8
2026-01-28 08:19:18.431879	259.3	31.2	-72.8	3.5
2026-01-28 08:19:20.678685	258.7	30.9	-73.2	3.0
2026-01-28 08:19:22.922361	258.1	30.6	-73.3	3.7
2026-01-28 08:19:25.167231	257.5	30.3	-73.8	7.3
2026-01-28 08:19:27.414614	256.9	30.0	-73.7	8.1
2026-01-28 08:19:29.659598	256.3	29.7	-73.7	7.4
2026-01-28 08:19:31.906264	255.8	29.4	-73.6	6.5
2026-01-28 08:19:34.154279	255.2	29.2	-72.8	6.7
2026-01-28 08:19:36.399612	254.7	28.9	-73.3	6.2
2026-01-28 08:19:38.643317	254.2	28.6	-73.5	7.8
2026-01-28 08:19:40.888192	253.7	28.3	-73.6	7.4
2026-01-28 08:19:43.132785	253.2	28.0	-72.8	5.5
2026-01-28 08:19:45.381550	252.7	27.7	-73.3	6.7
2026-01-28 08:19:47.625743	252.2	27.4	-73.2	6.6
2026-01-28 08:19:49.871648	251.7	27.1	-72.8	5.2
2026-01-28 08:19:52.116035	251.2	26.8	-73.1	6.8
2026-01-28 08:19:54.361450	250.8	26.5	-73.8	7.1
2026-01-28 08:19:56.606425	250.3	26.2	-74.0	7.8
2026-01-28 08:19:58.852692	249.9	25.9	-74.0	8.3
2026-01-28 08:20:01.100222	249.4	25.7	-74.0	7.9
2026-01-28 08:20:03.344551	249.0	25.4	-73.8	7.9
2026-01-28 08:20:05.588548	248.6	25.1	-74.1	7.3
2026-01-28 08:20:07.831321	248.2	24.8	-73.4	5.7
2026-01-28 08:20:10.073093	247.8	24.5	-74.2	8.1
2026-01-28 08:20:12.316615	247.4	24.3	-73.9	7.6
2026-01-28 08:20:14.566929	247.0	24.0	-73.9	7.4
2026-01-28 08:20:16.811348	246.6	23.7	-74.1	7.2
2026-01-28 08:20:19.057787	246.2	23.4	-74.3	7.6
2026-01-28 08:20:21.302413	245.8	23.2	-74.3	7.8
2026-01-28 08:20:23.547438	245.5	22.9	-74.1	6.7
2026-01-28 08:20:25.796343	245.1	22.6	-74.1	7.7
2026-01-28 08:20:28.039691	244.8	22.3	-74.5	7.5
2026-01-28 08:20:30.285278	244.4	22.1	-74.1	7.5
2026-01-28 08:20:32.528985	244.1	21.8	-73.8	5.5
2026-01-28 08:20:34.775227	243.7	21.6	-74.4	7.1
2026-01-28 08:20:37.019153	243.4	21.3	-74.4	7.0
2026-01-28 08:20:39.263753	243.1	21.0	-74.2	6.7
2026-01-28 08:20:41.505901	242.8	20.8	-74.5	6.8
2026-01-28 08:20:43.751146	242.5	20.5	-74.5	6.6
2026-01-28 08:20:45.998256	242.2	20.3	-74.3	6.6
2026-01-28 08:20:48.243362	241.9	20.0	-74.5	6.9
2026-01-28 08:20:50.488657	241.6	19.8	-74.4	7.0
2026-01-28 08:20:52.733055	241.3	19.5	-74.6	6.4
2026-01-28 08:20:54.980278	241.0	19.3	-74.6	6.6
2026-01-28 08:20:57.228185	240.7	19.0	-74.7	5.5
2026-01-28 08:20:59.475059	240.4	18.8	-74.5	5.0
2026-01-28 08:21:01.722814	240.1	18.5	-74.9	6.2
2026-01-28 08:21:03.972023	239.9	18.3	-74.7	5.8
2026-01-28 08:21:06.216319	239.6	18.1	-74.7	6.8
2026-01-28 08:21:08.465455	239.3	17.8	-74.9	6.7
2026-01-28 08:21:10.709670	239.1	17.6	-74.7	5.9
2026-01-28 08:21:12.955059	238.8	17.3	-74.4	6.4
2026-01-28 08:21:15.198753	238.6	17.1	-74.0	6.2
2026-01-28 08:21:17.443001	238.3	16.9	-74.2	4.0
2026-01-28 08:21:19.689592	238.1	16.7	-74.7	6.3
2026-01-28 08:21:21.932635	237.9	16.4	-74.0	5.0
2026-01-28 08:21:24.179602	237.6	16.2	-74.6	6.6
2026-01-28 08:21:26.423285	237.4	16.0	-74.9	6.3
2026-01-28 08:21:28.669665	237.2	15.8	-75.2	6.2
2026-01-28 08:21:30.913212	236.9	15.5	-75.2	6.0
2026-01-28 08:21:33.159557	236.7	15.3	-72.1	0.0
2026-01-28 08:21:35.405237	236.5	15.1	-72.7	0.0
2026-01-28 08:21:37.649277	236.3	14.9	-72.8	0.0
2026-01-28 08:21:39.893701	236.1	14.7	-72.5	0.0
2026-01-28 08:21:42.138391	235.9	14.5	-72.6	0.0
2026-01-28 08:21:44.385312	235.7	14.2	-72.6	0.0
2026-01-28 08:21:46.631237	235.5	14.0	-71.5	0.0
2026-01-28 08:21:48.876906	235.3	13.8	-71.6	0.0
2026-01-28 08:21:51.124871	235.1	13.6	-72.1	0.0
2026-01-28 08:21:53.370150	234.9	13.4	-71.9	0.0
2026-01-28 08:21:55.617073	234.7	13.2	-71.6	0.0
2026-01-28 08:21:57.861176	234.5	13.0	-71.2	0.0
2026-01-28 08:22:00.106041	234.3	12.8	-71.4	0.0
2026-01-28 08:22:02.350385	234.1	12.6	-72.0	0.0
2026-01-28 08:22:04.596964	234.0	12.4	-70.6	0.0
2026-01-28 08:22:06.841809	233.8	12.2	-71.2	0.0
2026-01-28 08:22:09.085246	233.6	12.0	-71.1	0.0
2026-01-28 08:22:11.329491	233.4	11.8	-71.2	0.0
2026-01-28 08:22:13.573371	233.3	11.6	-71.2	0.0
2026-01-28 08:22:15.819459	233.1	11.4	-70.4	0.0
2026-01-28 08:22:18.065564	232.9	11.2	-71.2	0.0
2026-01-28 08:22:20.312285	232.8	11.0	-72.0	0.0
2026-01-28 08:22:22.556362	232.6	10.9	-73.6	0.0
2026-01-28 08:22:24.801093	232.5	10.7	-75.7	0.3
2026-01-28 08:22:27.046347	232.3	10.5	-77.0	0.0
2026-01-28 08:22:29.290395	232.1	10.3	-77.6	0.0
2026-01-28 08:22:31.538288	232.0	10.1	-77.9	0.0
#Closed at: 2026-01-28 08:12:31.530787