passes_logs/2026/01/28/planumMaritime01/planumMaritime01__20260128_165604_METEOR-M2_3_rec.log

#Pass ID: 20260128_165604_METEOR-M2 3
#Satellite: METEOR-M2 3
#Configuration: METEOR-M2 3
#Start time: 2026-01-28 16:56:09.107616

#LorettStation: 1.0.0 05.05.2024
#Station: planumMaritime01
#Location: 37.49445 lon 55.92918 lat
#TLE: 1 57166U 23091A   26027.64356981  .00000033  00000+0  33432-4 0  9993
#TLE: 2 57166  98.6303  85.3658 0003453 204.4463 155.6552 14.24032909134516

#Time	Az	El	Level	SNR
2026-01-28 16:56:11.280941	131.0	10.2	-80.4	0.0
2026-01-28 16:56:13.530023	130.9	10.4	-80.4	0.0
2026-01-28 16:56:15.776628	130.7	10.6	-78.8	4.1
2026-01-28 16:56:18.026914	130.6	10.7	-78.5	4.8
2026-01-28 16:56:20.277524	130.4	10.9	-78.3	4.9
2026-01-28 16:56:22.523947	130.3	11.1	-78.0	6.1
2026-01-28 16:56:24.777147	130.1	11.3	-78.0	7.0
2026-01-28 16:56:27.026358	130.0	11.5	-78.2	4.9
2026-01-28 16:56:29.273621	129.8	11.7	-78.6	5.7
2026-01-28 16:56:31.520590	129.7	11.9	-78.5	5.0
2026-01-28 16:56:33.768476	129.5	12.1	-77.8	6.9
2026-01-28 16:56:36.014034	129.3	12.3	-78.2	6.4
2026-01-28 16:56:38.259405	129.2	12.5	-78.1	6.6
2026-01-28 16:56:40.508119	129.0	12.7	-77.7	5.6
2026-01-28 16:56:42.754486	128.8	12.9	-78.0	6.7
2026-01-28 16:56:45.003121	128.7	13.1	-78.2	6.5
2026-01-28 16:56:47.251679	128.5	13.3	-78.0	5.5
2026-01-28 16:56:49.498659	128.3	13.6	-78.7	7.0
2026-01-28 16:56:51.746354	128.1	13.8	-77.8	6.3
2026-01-28 16:56:53.996393	127.9	14.0	-78.3	5.9
2026-01-28 16:56:56.243212	127.8	14.2	-78.7	7.5
2026-01-28 16:56:58.489340	127.6	14.4	-78.3	6.3
2026-01-28 16:57:00.736636	127.4	14.6	-78.5	7.6
2026-01-28 16:57:02.985221	127.2	14.9	-78.2	7.3
2026-01-28 16:57:05.233807	127.0	15.1	-78.0	8.1
2026-01-28 16:57:07.485195	126.8	15.3	-78.1	7.6
2026-01-28 16:57:09.736421	126.6	15.5	-77.9	6.7
2026-01-28 16:57:11.986932	126.4	15.7	-78.1	8.0
2026-01-28 16:57:14.233945	126.2	16.0	-78.3	7.7
2026-01-28 16:57:16.480347	126.0	16.2	-77.9	7.5
2026-01-28 16:57:18.730875	125.8	16.4	-77.8	8.6
2026-01-28 16:57:20.978063	125.5	16.7	-78.7	8.6
2026-01-28 16:57:23.227427	125.3	16.9	-78.2	9.1
2026-01-28 16:57:25.475342	125.1	17.1	-78.1	7.7
2026-01-28 16:57:27.725026	124.9	17.4	-78.4	7.8
2026-01-28 16:57:29.974804	124.6	17.6	-78.7	8.0
2026-01-28 16:57:32.220490	124.4	17.9	-77.9	8.5
2026-01-28 16:57:34.466928	124.1	18.1	-78.0	9.0
2026-01-28 16:57:36.713257	123.9	18.4	-78.0	7.1
2026-01-28 16:57:38.960678	123.6	18.6	-77.9	7.2
2026-01-28 16:57:41.206659	123.4	18.9	-77.7	7.3
2026-01-28 16:57:43.454482	123.1	19.1	-78.2	8.0
2026-01-28 16:57:45.701343	122.9	19.4	-78.1	8.6
2026-01-28 16:57:47.948442	122.6	19.6	-78.5	8.2
2026-01-28 16:57:50.196709	122.3	19.9	-78.2	8.9
2026-01-28 16:57:52.441401	122.1	20.1	-78.0	8.7
2026-01-28 16:57:54.688222	121.8	20.4	-77.7	9.2
2026-01-28 16:57:56.937360	121.5	20.7	-78.1	9.8
2026-01-28 16:57:59.188486	121.2	20.9	-77.6	8.6
2026-01-28 16:58:01.434002	120.9	21.2	-78.0	10.4
2026-01-28 16:58:03.685500	120.6	21.5	-77.9	10.3
2026-01-28 16:58:05.931982	120.3	21.8	-77.7	10.5
2026-01-28 16:58:08.177415	120.0	22.0	-77.7	10.0
2026-01-28 16:58:10.425805	119.7	22.3	-77.7	10.2
2026-01-28 16:58:12.673370	119.3	22.6	-77.5	10.3
2026-01-28 16:58:14.924373	119.0	22.9	-77.6	9.9
2026-01-28 16:58:17.170846	118.7	23.2	-77.6	8.8
2026-01-28 16:58:19.420552	118.3	23.4	-77.3	9.5
2026-01-28 16:58:21.667596	118.0	23.7	-77.5	9.2
2026-01-28 16:58:23.914126	117.6	24.0	-77.1	8.0
2026-01-28 16:58:26.162659	117.2	24.3	-77.2	10.2
2026-01-28 16:58:28.409582	116.9	24.6	-77.4	8.5
2026-01-28 16:58:30.657776	116.5	24.9	-77.0	7.9
2026-01-28 16:58:32.908665	116.1	25.2	-76.5	8.2
2026-01-28 16:58:35.155672	115.7	25.5	-77.0	9.1
2026-01-28 16:58:37.405855	115.3	25.8	-77.0	9.5
2026-01-28 16:58:39.649943	114.9	26.1	-76.7	8.3
2026-01-28 16:58:41.901898	114.5	26.4	-76.7	9.6
2026-01-28 16:58:44.149848	114.1	26.7	-76.9	10.1
2026-01-28 16:58:46.402141	113.6	27.0	-77.0	10.4
2026-01-28 16:58:48.653172	113.2	27.3	-77.2	10.1
2026-01-28 16:58:50.902064	112.8	27.7	-77.0	9.5
2026-01-28 16:58:53.149068	112.3	28.0	-76.6	9.2
2026-01-28 16:58:55.398031	111.8	28.3	-76.9	9.6
2026-01-28 16:58:57.646402	111.3	28.6	-77.2	10.4
2026-01-28 16:58:59.895920	110.9	28.9	-76.5	7.5
2026-01-28 16:59:02.142362	110.4	29.2	-76.6	9.0
2026-01-28 16:59:04.392354	109.9	29.6	-76.6	10.2
2026-01-28 16:59:06.640654	109.3	29.9	-76.7	9.6
2026-01-28 16:59:08.886086	108.8	30.2	-76.6	8.9
2026-01-28 16:59:11.136323	108.3	30.5	-76.5	9.2
2026-01-28 16:59:13.381509	107.7	30.9	-77.3	8.6
2026-01-28 16:59:15.630824	107.2	31.2	-76.9	7.8
2026-01-28 16:59:17.879751	106.6	31.5	-76.9	8.4
2026-01-28 16:59:20.126356	106.0	31.8	-77.2	8.3
2026-01-28 16:59:22.374721	105.4	32.2	-76.1	7.4
2026-01-28 16:59:24.623473	104.8	32.5	-77.1	7.9
2026-01-28 16:59:26.873538	104.2	32.8	-76.7	8.0
2026-01-28 16:59:29.120318	103.5	33.1	-76.9	9.0
2026-01-28 16:59:31.369584	102.9	33.5	-76.9	7.5
2026-01-28 16:59:33.616449	102.2	33.8	-76.9	8.8
2026-01-28 16:59:35.863030	101.6	34.1	-76.7	7.8
2026-01-28 16:59:38.110985	100.9	34.4	-77.3	9.0
2026-01-28 16:59:40.359615	100.2	34.8	-76.4	6.5
2026-01-28 16:59:42.604842	99.5	35.1	-76.7	8.0
2026-01-28 16:59:44.851602	98.7	35.4	-76.4	7.4
2026-01-28 16:59:47.102579	98.0	35.7	-76.1	9.5
2026-01-28 16:59:49.349273	97.2	36.0	-75.5	7.9
2026-01-28 16:59:51.597663	96.5	36.3	-75.6	6.9
2026-01-28 16:59:53.844992	95.7	36.6	-75.1	6.7
2026-01-28 16:59:56.093950	94.9	36.9	-74.5	6.2
2026-01-28 16:59:58.340867	94.1	37.2	-74.8	3.4
2026-01-28 17:00:00.586390	93.2	37.5	-74.2	2.9
2026-01-28 17:00:02.836565	92.4	37.8	-74.4	3.9
2026-01-28 17:00:05.084748	91.5	38.1	-73.1	4.8
2026-01-28 17:00:07.332234	90.6	38.4	-73.9	2.7
2026-01-28 17:00:09.580125	89.7	38.7	-74.3	4.1
2026-01-28 17:00:11.825953	88.8	38.9	-74.0	1.5
2026-01-28 17:00:14.075798	87.9	39.2	-72.8	0.0
2026-01-28 17:00:16.324574	87.0	39.5	-73.6	0.4
2026-01-28 17:00:18.573593	86.0	39.7	-73.5	4.2
2026-01-28 17:00:20.816881	85.1	39.9	-74.2	1.8
2026-01-28 17:00:23.069994	84.1	40.2	-73.5	2.8
2026-01-28 17:00:25.318613	83.1	40.4	-74.3	2.6
2026-01-28 17:00:27.565574	82.1	40.6	-72.5	0.0
2026-01-28 17:00:29.817288	81.0	40.8	-74.6	2.1
2026-01-28 17:00:32.068790	80.0	41.0	-73.4	0.0
2026-01-28 17:00:34.313373	79.0	41.2	-74.0	0.0
2026-01-28 17:00:36.555688	77.9	41.4	-71.6	0.0
2026-01-28 17:00:38.802903	76.8	41.6	-73.3	2.8
2026-01-28 17:00:41.054778	75.8	41.7	-73.1	0.0
2026-01-28 17:00:43.301813	74.7	41.9	-73.2	1.7
2026-01-28 17:00:45.550482	73.6	42.0	-73.3	0.9
2026-01-28 17:00:47.796817	72.4	42.1	-72.9	0.0
2026-01-28 17:00:50.043514	71.3	42.3	-72.0	0.0
2026-01-28 17:00:52.289756	70.2	42.4	-73.7	1.1
2026-01-28 17:00:54.541166	69.1	42.4	-73.2	0.3
2026-01-28 17:00:56.791438	67.9	42.5	-71.6	0.0
2026-01-28 17:00:59.037617	66.8	42.6	-72.3	0.0
2026-01-28 17:01:01.285088	65.6	42.6	-72.5	2.5
2026-01-28 17:01:03.536389	64.5	42.7	-73.5	0.5
2026-01-28 17:01:05.787231	63.3	42.7	-71.7	0.0
2026-01-28 17:01:08.035208	62.2	42.7	-74.2	2.4
2026-01-28 17:01:10.282009	61.0	42.7	-73.5	1.5
2026-01-28 17:01:12.531687	59.9	42.7	-73.1	1.7
2026-01-28 17:01:14.780933	58.7	42.7	-73.3	1.1
2026-01-28 17:01:17.029405	57.5	42.6	-72.9	0.0
2026-01-28 17:01:19.279742	56.4	42.6	-72.1	0.0
2026-01-28 17:01:21.528972	55.3	42.5	-74.1	1.9
2026-01-28 17:01:23.779187	54.1	42.4	-73.8	1.3
2026-01-28 17:01:26.027149	53.0	42.3	-73.0	0.0
2026-01-28 17:01:28.273999	51.9	42.2	-74.0	1.3
2026-01-28 17:01:30.522830	50.7	42.1	-73.8	2.0
2026-01-28 17:01:32.771708	49.6	42.0	-73.1	0.2
2026-01-28 17:01:35.017976	48.5	41.8	-74.1	1.1
2026-01-28 17:01:37.261791	47.4	41.7	-73.8	2.3
2026-01-28 17:01:39.508539	46.4	41.5	-73.8	0.5
2026-01-28 17:01:41.755150	45.3	41.4	-73.0	0.8
2026-01-28 17:01:44.003261	44.2	41.2	-73.5	1.1
2026-01-28 17:01:46.251050	43.2	41.0	-73.6	0.8
2026-01-28 17:01:48.499365	42.2	40.8	-73.2	0.9
2026-01-28 17:01:50.747268	41.1	40.6	-74.1	0.0
2026-01-28 17:01:52.997144	40.1	40.4	-73.1	0.4
2026-01-28 17:01:55.245900	39.2	40.1	-74.5	2.0
2026-01-28 17:01:57.492006	38.2	39.9	-74.7	2.1
2026-01-28 17:01:59.742131	37.2	39.7	-74.6	2.9
2026-01-28 17:02:01.988270	36.3	39.4	-73.8	0.0
2026-01-28 17:02:04.235168	35.3	39.1	-74.1	2.3
2026-01-28 17:02:06.483282	34.4	38.9	-74.4	2.1
2026-01-28 17:02:08.729568	33.5	38.6	-72.1	0.0
2026-01-28 17:02:10.976784	32.6	38.3	-72.7	0.5
2026-01-28 17:02:13.222460	31.8	38.1	-71.2	0.0
2026-01-28 17:02:15.469295	30.9	37.8	-73.1	1.4
2026-01-28 17:02:17.717572	30.1	37.5	-72.8	0.2
2026-01-28 17:02:19.963360	29.2	37.2	-73.3	0.6
2026-01-28 17:02:22.211705	28.4	36.9	-74.4	3.1
2026-01-28 17:02:24.458499	27.6	36.6	-72.1	0.3
2026-01-28 17:02:26.710743	26.8	36.3	-71.1	0.0
2026-01-28 17:02:28.959041	26.1	36.0	-72.0	0.0
2026-01-28 17:02:31.208759	25.3	35.7	-71.8	0.0
2026-01-28 17:02:33.457494	24.6	35.3	-70.6	0.0
2026-01-28 17:02:35.705081	23.9	35.0	-71.1	0.0
2026-01-28 17:02:37.951297	23.2	34.7	-71.3	0.0
2026-01-28 17:02:40.198192	22.5	34.4	-70.0	0.0
2026-01-28 17:02:42.447183	21.8	34.1	-70.7	0.0
2026-01-28 17:02:44.693677	21.1	33.7	-70.9	0.0
2026-01-28 17:02:46.943752	20.5	33.4	-69.2	0.0
2026-01-28 17:02:49.190163	19.8	33.1	-69.1	0.0
2026-01-28 17:02:51.439927	19.2	32.8	-70.4	0.0
2026-01-28 17:02:53.689013	18.6	32.4	-68.9	0.0
2026-01-28 17:02:55.935813	18.0	32.1	-69.4	0.0
2026-01-28 17:02:58.184221	17.4	31.8	-69.8	0.0
2026-01-28 17:03:00.430594	16.8	31.5	-69.4	0.0
2026-01-28 17:03:02.680174	16.2	31.1	-69.7	0.0
2026-01-28 17:03:04.928194	15.7	30.8	-67.6	0.0
2026-01-28 17:03:07.175443	15.1	30.5	-66.8	0.0
2026-01-28 17:03:09.419864	14.6	30.2	-68.5	0.0
2026-01-28 17:03:11.666410	14.1	29.9	-69.7	0.0
2026-01-28 17:03:13.913914	13.6	29.5	-68.6	0.0
2026-01-28 17:03:16.162211	13.1	29.2	-69.3	0.0
2026-01-28 17:03:18.413988	12.6	28.9	-68.1	0.0
2026-01-28 17:03:20.658841	12.1	28.6	-70.2	0.0
2026-01-28 17:03:22.905011	11.6	28.3	-66.3	0.0
2026-01-28 17:03:25.151538	11.1	27.9	-67.8	0.0
2026-01-28 17:03:27.400036	10.7	27.6	-68.5	0.0
2026-01-28 17:03:29.645026	10.2	27.3	-69.9	0.0
2026-01-28 17:03:31.893020	9.8	27.0	-69.6	0.0
2026-01-28 17:03:34.139983	9.4	26.7	-70.7	0.0
2026-01-28 17:03:36.387808	9.0	26.4	-68.2	0.0
2026-01-28 17:03:38.635803	8.5	26.1	-70.1	0.0
2026-01-28 17:03:40.887972	8.1	25.8	-69.3	0.0
2026-01-28 17:03:43.133357	7.7	25.5	-69.1	0.0
2026-01-28 17:03:45.381328	7.4	25.2	-67.6	0.0
2026-01-28 17:03:47.629703	7.0	24.9	-69.3	0.0
2026-01-28 17:03:49.877813	6.6	24.6	-69.2	0.0
2026-01-28 17:03:52.127167	6.2	24.3	-69.5	0.0
2026-01-28 17:03:54.374037	5.9	24.0	-70.4	0.0
2026-01-28 17:03:56.620691	5.5	23.7	-69.6	0.0
2026-01-28 17:03:58.869327	5.2	23.4	-68.2	0.0
2026-01-28 17:04:01.117428	4.8	23.2	-68.8	0.0
2026-01-28 17:04:03.363862	4.5	22.9	-68.1	0.0
2026-01-28 17:04:05.611118	4.2	22.6	-65.1	0.0
2026-01-28 17:04:07.855243	3.9	22.3	-67.1	0.0
2026-01-28 17:04:10.101814	3.5	22.0	-68.0	0.0
2026-01-28 17:04:12.348031	3.2	21.8	-69.7	0.0
2026-01-28 17:04:14.596393	2.9	21.5	-65.7	0.0
2026-01-28 17:04:16.843532	2.6	21.2	-67.2	0.0
2026-01-28 17:04:19.090841	2.3	21.0	-65.5	0.0
2026-01-28 17:04:21.337240	2.0	20.7	-66.0	0.0
2026-01-28 17:04:23.584722	1.8	20.4	-67.2	0.0
2026-01-28 17:04:25.833254	1.5	20.2	-66.5	0.0
2026-01-28 17:04:28.083058	1.2	19.9	-66.1	0.0
2026-01-28 17:04:30.328791	0.9	19.7	-66.9	0.0
2026-01-28 17:04:32.576119	0.7	19.4	-66.0	0.0
2026-01-28 17:04:34.826938	0.4	19.1	-67.0	0.0
2026-01-28 17:04:37.071654	0.2	18.9	-69.9	0.0
2026-01-28 17:04:39.320373	359.9	18.6	-70.1	0.0
2026-01-28 17:04:41.566965	359.7	18.4	-67.8	0.0
2026-01-28 17:04:43.812002	359.4	18.1	-68.0	0.0
2026-01-28 17:04:46.062038	359.2	17.9	-68.5	0.0
2026-01-28 17:04:48.308007	358.9	17.7	-67.1	0.0
2026-01-28 17:04:50.554706	358.7	17.4	-69.6	0.0
2026-01-28 17:04:52.803787	358.5	17.2	-71.5	0.0
2026-01-28 17:04:55.053508	358.3	16.9	-69.4	0.0
2026-01-28 17:04:57.302075	358.0	16.7	-68.6	0.0
2026-01-28 17:04:59.548541	357.8	16.5	-70.9	0.0
2026-01-28 17:05:01.796674	357.6	16.3	-72.5	0.0
2026-01-28 17:05:04.042807	357.4	16.0	-70.6	0.0
2026-01-28 17:05:06.287090	357.2	15.8	-69.4	0.0
2026-01-28 17:05:08.534433	357.0	15.6	-73.2	0.0
2026-01-28 17:05:10.782643	356.8	15.3	-72.6	0.0
2026-01-28 17:05:13.028949	356.6	15.1	-71.8	0.0
2026-01-28 17:05:15.277130	356.4	14.9	-73.0	0.0
2026-01-28 17:05:17.521387	356.2	14.7	-72.9	0.0
2026-01-28 17:05:19.768020	356.0	14.5	-71.6	0.0
2026-01-28 17:05:22.013965	355.8	14.3	-72.7	0.0
2026-01-28 17:05:24.259815	355.7	14.0	-69.2	0.0
2026-01-28 17:05:26.508761	355.5	13.8	-71.0	0.0
2026-01-28 17:05:28.755686	355.3	13.6	-72.7	0.0
2026-01-28 17:05:31.004640	355.1	13.4	-71.5	0.0
2026-01-28 17:05:33.251412	355.0	13.2	-68.1	0.0
2026-01-28 17:05:35.502113	354.8	13.0	-71.2	0.0
2026-01-28 17:05:37.746142	354.6	12.8	-70.6	0.0
2026-01-28 17:05:39.993825	354.5	12.6	-70.5	0.0
2026-01-28 17:05:42.238562	354.3	12.4	-71.9	0.0
2026-01-28 17:05:44.486705	354.1	12.2	-71.5	0.0
2026-01-28 17:05:46.731668	354.0	12.0	-71.6	0.0
2026-01-28 17:05:48.975892	353.8	11.8	-71.6	0.0
2026-01-28 17:05:51.223636	353.7	11.6	-71.0	0.0
2026-01-28 17:05:53.474360	353.5	11.4	-68.1	0.0
2026-01-28 17:05:55.721288	353.4	11.2	-69.0	0.0
2026-01-28 17:05:57.969703	353.2	11.0	-69.1	0.0
2026-01-28 17:06:00.217483	353.1	10.8	-72.2	0.0
2026-01-28 17:06:02.466021	352.9	10.6	-65.4	0.0
2026-01-28 17:06:04.711850	352.8	10.4	-65.9	0.0
2026-01-28 17:06:06.960507	352.7	10.3	-74.6	0.0
#Closed at: 2026-01-28 16:56:04.114832