passes_logs/2026/01/28/planumMaritime01/planumMaritime01__20260128_152011_METEOR-M2_3_rec.log

#Pass ID: 20260128_152011_METEOR-M2 3
#Satellite: METEOR-M2 3
#Configuration: METEOR-M2 3
#Start time: 2026-01-28 15:20:16.707085

#LorettStation: 1.0.0 05.05.2024
#Station: planumMaritime01
#Location: 37.49445 lon 55.92918 lat
#TLE: 1 57166U 23091A   26027.64356981  .00000033  00000+0  33432-4 0  9993
#TLE: 2 57166  98.6303  85.3658 0003453 204.4463 155.6552 14.24032909134516

#Time	Az	El	Level	SNR
2026-01-28 15:20:18.869084	63.6	10.1	-72.6	0.0
2026-01-28 15:20:19.995391	63.5	10.1	-72.6	0.0
2026-01-28 15:20:21.119077	63.3	10.2	-74.5	0.0
2026-01-28 15:20:22.241959	63.1	10.2	-72.6	0.0
2026-01-28 15:20:23.364254	62.9	10.2	-74.1	0.0
2026-01-28 15:20:24.485998	62.7	10.3	-74.7	0.0
2026-01-28 15:20:25.611234	62.5	10.3	-75.0	0.0
2026-01-28 15:20:26.735859	62.3	10.3	-74.3	0.0
2026-01-28 15:20:27.860896	62.1	10.4	-71.4	0.0
2026-01-28 15:20:28.983710	61.9	10.4	-72.7	0.0
2026-01-28 15:20:30.108331	61.8	10.5	-70.6	0.0
2026-01-28 15:20:31.233115	61.6	10.5	-69.3	0.0
2026-01-28 15:20:32.357889	61.4	10.5	-70.4	0.0
2026-01-28 15:20:33.482323	61.2	10.6	-71.3	0.0
2026-01-28 15:20:34.605751	61.0	10.6	-70.7	0.0
2026-01-28 15:20:35.731681	60.8	10.6	-71.4	0.0
2026-01-28 15:20:36.856872	60.6	10.7	-71.2	0.0
2026-01-28 15:20:37.979660	60.4	10.7	-67.3	0.0
2026-01-28 15:20:39.102594	60.2	10.7	-71.2	0.0
2026-01-28 15:20:40.224639	60.0	10.8	-71.9	0.0
2026-01-28 15:20:41.349232	59.8	10.8	-72.2	0.0
2026-01-28 15:20:42.472255	59.6	10.9	-70.7	0.0
2026-01-28 15:20:43.598673	59.4	10.9	-71.7	0.0
2026-01-28 15:20:44.722933	59.2	10.9	-71.8	0.0
2026-01-28 15:20:45.846246	59.0	11.0	-69.3	0.0
2026-01-28 15:20:46.969661	58.8	11.0	-69.2	0.0
2026-01-28 15:20:48.092927	58.6	11.0	-70.8	0.0
2026-01-28 15:20:49.218071	58.4	11.0	-71.0	0.0
2026-01-28 15:20:50.343000	58.2	11.1	-70.4	0.0
2026-01-28 15:20:51.468032	58.0	11.1	-71.2	0.0
2026-01-28 15:20:52.591142	57.8	11.1	-70.2	0.0
2026-01-28 15:20:53.715095	57.6	11.2	-69.7	0.0
2026-01-28 15:20:54.837926	57.4	11.2	-70.0	0.0
2026-01-28 15:20:55.959718	57.2	11.2	-69.0	0.0
2026-01-28 15:20:57.084527	57.0	11.3	-69.4	0.0
2026-01-28 15:20:58.208488	56.8	11.3	-66.5	0.0
2026-01-28 15:20:59.333303	56.6	11.3	-70.0	0.0
2026-01-28 15:21:00.457217	56.4	11.4	-70.0	0.0
2026-01-28 15:21:01.577738	56.2	11.4	-67.0	0.0
2026-01-28 15:21:02.700878	56.0	11.4	-69.3	0.0
2026-01-28 15:21:03.825021	55.8	11.4	-69.2	0.0
2026-01-28 15:21:04.948833	55.6	11.5	-66.5	0.0
2026-01-28 15:21:06.073024	55.4	11.5	-66.9	0.0
2026-01-28 15:21:07.195926	55.2	11.5	-70.7	0.0
2026-01-28 15:21:08.319338	54.9	11.6	-70.6	0.0
2026-01-28 15:21:09.443525	54.7	11.6	-71.1	0.0
2026-01-28 15:21:10.569487	54.5	11.6	-68.2	0.0
2026-01-28 15:21:11.694744	54.3	11.6	-70.2	0.0
2026-01-28 15:21:12.819847	54.1	11.7	-70.4	0.0
2026-01-28 15:21:13.943375	53.9	11.7	-70.1	0.0
2026-01-28 15:21:15.066444	53.7	11.7	-69.6	0.0
2026-01-28 15:21:16.192336	53.5	11.7	-66.8	0.0
2026-01-28 15:21:17.316171	53.3	11.8	-69.3	0.0
2026-01-28 15:21:18.437335	53.1	11.8	-70.6	0.0
2026-01-28 15:21:19.561561	52.8	11.8	-69.8	0.0
2026-01-28 15:21:20.685894	52.6	11.8	-68.5	0.0
2026-01-28 15:21:21.807956	52.4	11.9	-68.3	0.0
2026-01-28 15:21:22.932179	52.2	11.9	-66.1	0.0
2026-01-28 15:21:24.056007	52.0	11.9	-68.9	0.0
2026-01-28 15:21:25.179726	51.8	11.9	-67.4	0.0
2026-01-28 15:21:26.303651	51.6	11.9	-67.0	0.0
2026-01-28 15:21:27.429299	51.4	12.0	-67.4	0.0
2026-01-28 15:21:28.554059	51.1	12.0	-69.0	0.0
2026-01-28 15:21:29.678061	50.9	12.0	-69.7	0.0
2026-01-28 15:21:30.803435	50.7	12.0	-69.6	0.0
2026-01-28 15:21:31.928283	50.5	12.0	-68.0	0.0
2026-01-28 15:21:33.049995	50.3	12.1	-68.8	0.0
2026-01-28 15:21:34.174393	50.1	12.1	-68.9	0.0
2026-01-28 15:21:35.302565	49.9	12.1	-66.9	0.0
2026-01-28 15:21:36.429276	49.6	12.1	-66.3	0.0
2026-01-28 15:21:37.553023	49.4	12.1	-64.0	0.0
2026-01-28 15:21:38.675460	49.2	12.2	-63.8	0.0
2026-01-28 15:21:39.798149	49.0	12.2	-66.8	0.0
2026-01-28 15:21:40.922601	48.8	12.2	-67.9	0.0
2026-01-28 15:21:42.045580	48.6	12.2	-67.3	0.0
2026-01-28 15:21:43.171264	48.3	12.2	-67.5	0.0
2026-01-28 15:21:44.295717	48.1	12.2	-69.5	0.0
2026-01-28 15:21:45.419245	47.9	12.3	-65.9	0.0
2026-01-28 15:21:46.543214	47.7	12.3	-67.6	0.0
2026-01-28 15:21:47.665438	47.5	12.3	-65.6	0.0
2026-01-28 15:21:48.788842	47.3	12.3	-66.0	0.0
2026-01-28 15:21:49.912390	47.0	12.3	-66.3	0.0
2026-01-28 15:21:51.035927	46.8	12.3	-64.9	0.0
2026-01-28 15:21:52.158905	46.6	12.3	-68.2	0.0
2026-01-28 15:21:53.283562	46.4	12.4	-66.3	0.0
2026-01-28 15:21:54.406609	46.2	12.4	-64.6	0.0
2026-01-28 15:21:55.534079	45.9	12.4	-64.8	0.0
2026-01-28 15:21:56.658358	45.7	12.4	-66.5	0.0
2026-01-28 15:21:57.783212	45.5	12.4	-66.4	0.0
2026-01-28 15:21:58.907892	45.3	12.4	-67.2	0.0
2026-01-28 15:22:00.031396	45.1	12.4	-67.0	0.0
2026-01-28 15:22:01.157132	44.8	12.4	-68.7	0.0
2026-01-28 15:22:02.281079	44.6	12.4	-68.6	0.0
2026-01-28 15:22:03.403169	44.4	12.4	-67.4	0.0
2026-01-28 15:22:04.526788	44.2	12.5	-66.6	0.0
2026-01-28 15:22:05.651353	44.0	12.5	-62.0	0.0
2026-01-28 15:22:06.777290	43.7	12.5	-66.8	0.0
2026-01-28 15:22:07.900470	43.5	12.5	-66.6	0.0
2026-01-28 15:22:09.024502	43.3	12.5	-67.3	0.0
2026-01-28 15:22:10.146398	43.1	12.5	-64.8	0.0
2026-01-28 15:22:11.272033	42.9	12.5	-61.9	0.0
2026-01-28 15:22:12.395079	42.6	12.5	-68.0	0.0
2026-01-28 15:22:13.518334	42.4	12.5	-64.8	0.0
2026-01-28 15:22:14.641560	42.2	12.5	-66.1	0.0
2026-01-28 15:22:15.766910	42.0	12.5	-60.5	0.0
2026-01-28 15:22:16.893086	41.7	12.5	-63.3	0.0
2026-01-28 15:22:18.018386	41.5	12.5	-65.4	0.0
2026-01-28 15:22:19.142080	41.3	12.5	-65.0	0.0
2026-01-28 15:22:20.264643	41.1	12.5	-64.9	0.0
2026-01-28 15:22:21.388801	40.9	12.5	-65.9	0.0
2026-01-28 15:22:22.512417	40.6	12.5	-64.2	0.0
2026-01-28 15:22:23.638158	40.4	12.5	-65.7	0.0
2026-01-28 15:22:24.762910	40.2	12.5	-66.5	0.0
2026-01-28 15:22:25.886235	40.0	12.5	-63.0	0.0
2026-01-28 15:22:27.010763	39.8	12.5	-64.2	0.0
2026-01-28 15:22:28.134100	39.5	12.5	-66.0	0.0
2026-01-28 15:22:29.260059	39.3	12.5	-62.6	0.0
2026-01-28 15:22:30.384929	39.1	12.5	-64.8	0.0
2026-01-28 15:22:31.508963	38.9	12.5	-65.2	0.0
2026-01-28 15:22:32.633636	38.6	12.5	-65.7	0.0
2026-01-28 15:22:33.757481	38.4	12.5	-61.4	0.0
2026-01-28 15:22:34.881398	38.2	12.5	-60.9	0.0
2026-01-28 15:22:36.004487	38.0	12.5	-63.8	0.0
2026-01-28 15:22:37.127406	37.8	12.5	-56.7	0.0
2026-01-28 15:22:38.250834	37.5	12.5	-63.0	0.0
2026-01-28 15:22:39.375596	37.3	12.5	-63.0	0.0
2026-01-28 15:22:40.499783	37.1	12.5	-61.4	0.0
2026-01-28 15:22:41.624650	36.9	12.5	-64.1	0.0
2026-01-28 15:22:42.746575	36.7	12.5	-58.7	0.0
2026-01-28 15:22:43.868829	36.4	12.5	-59.8	0.0
2026-01-28 15:22:44.991886	36.2	12.5	-62.4	0.0
2026-01-28 15:22:46.114092	36.0	12.5	-58.2	0.0
2026-01-28 15:22:47.238379	35.8	12.5	-61.3	0.0
2026-01-28 15:22:48.361080	35.5	12.5	-59.1	0.0
2026-01-28 15:22:49.484493	35.3	12.4	-64.6	0.0
2026-01-28 15:22:50.606059	35.1	12.4	-61.4	0.0
2026-01-28 15:22:51.727934	34.9	12.4	-61.5	0.0
2026-01-28 15:22:52.851712	34.7	12.4	-63.0	0.0
2026-01-28 15:22:53.976683	34.4	12.4	-61.5	0.0
2026-01-28 15:22:55.101061	34.2	12.4	-62.3	0.0
2026-01-28 15:22:56.227924	34.0	12.4	-63.9	0.0
2026-01-28 15:22:57.349988	33.8	12.4	-64.6	0.0
2026-01-28 15:22:58.473950	33.6	12.4	-65.7	0.0
2026-01-28 15:22:59.595422	33.4	12.4	-64.8	0.0
2026-01-28 15:23:00.719517	33.1	12.3	-66.5	0.0
2026-01-28 15:23:01.843426	32.9	12.3	-65.1	0.0
2026-01-28 15:23:02.966502	32.7	12.3	-64.7	0.0
2026-01-28 15:23:04.089747	32.5	12.3	-66.6	0.0
2026-01-28 15:23:05.214044	32.3	12.3	-63.5	0.0
2026-01-28 15:23:06.340207	32.0	12.3	-64.3	0.0
2026-01-28 15:23:07.464738	31.8	12.3	-62.9	0.0
2026-01-28 15:23:08.588745	31.6	12.2	-61.3	0.0
2026-01-28 15:23:09.712020	31.4	12.2	-61.4	0.0
2026-01-28 15:23:10.835378	31.2	12.2	-60.2	0.0
2026-01-28 15:23:11.963315	31.0	12.2	-61.7	0.0
2026-01-28 15:23:13.085568	30.7	12.2	-61.6	0.0
2026-01-28 15:23:14.209803	30.5	12.2	-64.1	0.0
2026-01-28 15:23:15.332856	30.3	12.1	-63.0	0.0
2026-01-28 15:23:16.456572	30.1	12.1	-61.0	0.0
2026-01-28 15:23:17.581068	29.9	12.1	-62.7	0.0
2026-01-28 15:23:18.705600	29.7	12.1	-63.6	0.0
2026-01-28 15:23:19.829629	29.4	12.1	-62.3	0.0
2026-01-28 15:23:20.953536	29.2	12.1	-64.5	0.0
2026-01-28 15:23:22.079344	29.0	12.0	-65.4	0.0
2026-01-28 15:23:23.204351	28.8	12.0	-67.7	0.0
2026-01-28 15:23:24.326976	28.6	12.0	-66.9	0.0
2026-01-28 15:23:25.450417	28.4	12.0	-65.7	0.0
2026-01-28 15:23:26.573649	28.2	11.9	-66.2	0.0
2026-01-28 15:23:27.699214	27.9	11.9	-65.9	0.0
2026-01-28 15:23:28.823167	27.7	11.9	-65.1	0.0
2026-01-28 15:23:29.944271	27.5	11.9	-66.7	0.0
2026-01-28 15:23:31.067995	27.3	11.9	-63.8	0.0
2026-01-28 15:23:32.191610	27.1	11.8	-64.9	0.0
2026-01-28 15:23:33.315415	26.9	11.8	-66.3	0.0
2026-01-28 15:23:34.440493	26.7	11.8	-65.4	0.0
2026-01-28 15:23:35.562570	26.5	11.8	-66.2	0.0
2026-01-28 15:23:36.687798	26.3	11.7	-64.6	0.0
2026-01-28 15:23:37.809515	26.1	11.7	-62.3	0.0
2026-01-28 15:23:38.933819	25.8	11.7	-65.3	0.0
2026-01-28 15:23:40.055955	25.6	11.7	-66.1	0.0
2026-01-28 15:23:41.181126	25.4	11.6	-66.2	0.0
2026-01-28 15:23:42.303591	25.2	11.6	-65.5	0.0
2026-01-28 15:23:43.428177	25.0	11.6	-65.8	0.0
2026-01-28 15:23:44.551037	24.8	11.6	-66.2	0.0
2026-01-28 15:23:45.673818	24.6	11.5	-66.1	0.0
2026-01-28 15:23:46.797661	24.4	11.5	-65.7	0.0
2026-01-28 15:23:47.923530	24.2	11.5	-65.9	0.0
2026-01-28 15:23:49.045823	24.0	11.5	-65.8	0.0
2026-01-28 15:23:50.171576	23.8	11.4	-64.5	0.0
2026-01-28 15:23:51.293350	23.6	11.4	-65.7	0.0
2026-01-28 15:23:52.417366	23.4	11.4	-65.1	0.0
2026-01-28 15:23:53.541794	23.2	11.3	-65.8	0.0
2026-01-28 15:23:54.665423	23.0	11.3	-64.2	0.0
2026-01-28 15:23:55.788673	22.8	11.3	-62.3	0.0
2026-01-28 15:23:56.910660	22.5	11.2	-65.4	0.0
2026-01-28 15:23:58.034884	22.3	11.2	-64.8	0.0
2026-01-28 15:23:59.158629	22.1	11.2	-65.5	0.0
2026-01-28 15:24:00.282902	21.9	11.2	-67.1	0.0
2026-01-28 15:24:01.406618	21.7	11.1	-68.0	0.0
2026-01-28 15:24:02.532356	21.5	11.1	-65.9	0.0
2026-01-28 15:24:03.656878	21.3	11.1	-66.9	0.0
2026-01-28 15:24:04.781836	21.1	11.0	-64.7	0.0
2026-01-28 15:24:05.905204	20.9	11.0	-67.1	0.0
2026-01-28 15:24:07.027660	20.7	11.0	-65.7	0.0
2026-01-28 15:24:08.151423	20.5	10.9	-65.7	0.0
2026-01-28 15:24:09.276433	20.3	10.9	-66.6	0.0
2026-01-28 15:24:10.401190	20.1	10.9	-72.4	0.0
2026-01-28 15:24:11.525825	20.0	10.8	-74.5	0.0
2026-01-28 15:24:12.648836	19.8	10.8	-74.3	0.0
2026-01-28 15:24:13.771402	19.6	10.8	-73.7	0.0
2026-01-28 15:24:14.894323	19.4	10.7	-76.1	0.0
2026-01-28 15:24:16.018603	19.2	10.7	-75.2	0.0
2026-01-28 15:24:17.141005	19.0	10.7	-73.1	0.0
2026-01-28 15:24:18.265685	18.8	10.6	-77.6	0.0
2026-01-28 15:24:19.390215	18.6	10.6	-76.3	0.0
2026-01-28 15:24:20.513408	18.4	10.5	-76.1	0.0
2026-01-28 15:24:21.637969	18.2	10.5	-76.2	0.0
2026-01-28 15:24:22.760275	18.0	10.5	-75.8	0.0
2026-01-28 15:24:23.882665	17.8	10.4	-77.1	0.0
2026-01-28 15:24:25.006168	17.6	10.4	-78.9	0.0
2026-01-28 15:24:26.132174	17.4	10.4	-78.9	0.0
2026-01-28 15:24:27.255286	17.2	10.3	-77.8	0.0
2026-01-28 15:24:28.380311	17.1	10.3	-81.1	0.0
2026-01-28 15:24:29.502738	16.9	10.2	-82.5	0.0
2026-01-28 15:24:30.626785	16.7	10.2	-81.6	0.0
2026-01-28 15:24:31.752050	16.5	10.2	-83.0	0.0
2026-01-28 15:24:32.875438	16.3	10.1	-81.1	0.0
2026-01-28 15:24:33.999883	16.1	10.1	-81.3	0.0
2026-01-28 15:24:35.122398	15.9	10.0	-82.3	0.0
#Closed at: 2026-01-28 15:20:11.713231