passes_logs/2026/01/28/planumMaritime01/planumMaritime01__20260128_133034_METEOR-M2_4_rec.log

#Pass ID: 20260128_133034_METEOR-M2 4
#Satellite: METEOR-M2 4
#Configuration: METEOR-M2 4
#Start time: 2026-01-28 13:30:39.197800

#LorettStation: 1.0.0 05.05.2024
#Station: planumMaritime01
#Location: 37.49445 lon 55.92918 lat
#TLE: 1 59051U 24039A   26027.63926554  .00000085  00000+0  57649-4 0  9992
#TLE: 2 59051  98.6833 348.8441 0006401 209.4311 150.6507 14.22410223 99285

#Time	Az	El	Level	SNR
2026-01-28 13:30:41.365830	253.5	10.1	-79.5	0.0
2026-01-28 13:30:42.489071	253.7	10.1	-79.1	0.0
2026-01-28 13:30:43.612319	253.9	10.2	-79.5	0.0
2026-01-28 13:30:44.737237	254.0	10.2	-79.7	0.0
2026-01-28 13:30:45.859842	254.2	10.2	-80.0	0.0
2026-01-28 13:30:46.983642	254.4	10.3	-79.5	0.0
2026-01-28 13:30:48.107015	254.6	10.3	-79.1	0.0
2026-01-28 13:30:49.230323	254.8	10.3	-78.8	0.0
2026-01-28 13:30:50.353801	255.0	10.4	-78.7	0.0
2026-01-28 13:30:51.478479	255.2	10.4	-77.9	0.0
2026-01-28 13:30:52.602059	255.4	10.4	-77.4	1.4
2026-01-28 13:30:53.728029	255.6	10.5	-77.8	4.6
2026-01-28 13:30:54.853069	255.8	10.5	-77.7	4.9
2026-01-28 13:30:55.977190	256.0	10.6	-77.6	3.7
2026-01-28 13:30:57.101886	256.1	10.6	-77.1	5.3
2026-01-28 13:30:58.226361	256.3	10.6	-75.7	3.1
2026-01-28 13:30:59.350840	256.5	10.7	-77.2	4.5
2026-01-28 13:31:00.475288	256.7	10.7	-76.5	3.6
2026-01-28 13:31:01.600449	256.9	10.7	-77.1	4.8
2026-01-28 13:31:02.723244	257.1	10.8	-77.1	5.5
2026-01-28 13:31:03.846409	257.3	10.8	-77.2	4.2
2026-01-28 13:31:04.971469	257.5	10.8	-76.7	3.7
2026-01-28 13:31:06.095719	257.7	10.9	-76.5	3.2
2026-01-28 13:31:07.218482	257.9	10.9	-77.3	5.4
2026-01-28 13:31:08.342017	258.1	10.9	-75.9	4.2
2026-01-28 13:31:09.465524	258.3	11.0	-76.8	5.0
2026-01-28 13:31:10.590800	258.5	11.0	-77.4	5.2
2026-01-28 13:31:11.715323	258.7	11.0	-77.0	4.6
2026-01-28 13:31:12.838822	258.9	11.1	-77.0	4.7
2026-01-28 13:31:13.963240	259.1	11.1	-76.7	5.4
2026-01-28 13:31:15.088520	259.3	11.1	-76.5	3.9
2026-01-28 13:31:16.210900	259.5	11.2	-76.5	4.4
2026-01-28 13:31:17.333813	259.7	11.2	-77.2	5.0
2026-01-28 13:31:18.458238	259.9	11.2	-76.2	4.4
2026-01-28 13:31:19.582820	260.1	11.2	-76.7	4.6
2026-01-28 13:31:20.706480	260.3	11.3	-76.6	4.2
2026-01-28 13:31:21.831771	260.5	11.3	-76.7	4.6
2026-01-28 13:31:22.955744	260.7	11.3	-76.3	4.8
2026-01-28 13:31:24.078823	260.9	11.4	-77.3	6.3
2026-01-28 13:31:25.205417	261.1	11.4	-76.9	6.0
2026-01-28 13:31:26.328520	261.3	11.4	-77.0	5.9
2026-01-28 13:31:27.451204	261.5	11.5	-76.4	5.7
2026-01-28 13:31:28.575336	261.7	11.5	-76.9	5.2
2026-01-28 13:31:29.699836	262.0	11.5	-76.5	6.1
2026-01-28 13:31:30.825128	262.2	11.5	-75.9	3.9
2026-01-28 13:31:31.949575	262.4	11.6	-76.8	5.9
2026-01-28 13:31:33.074957	262.6	11.6	-77.0	5.6
2026-01-28 13:31:34.199205	262.8	11.6	-76.8	4.9
2026-01-28 13:31:35.323449	263.0	11.6	-77.4	7.2
2026-01-28 13:31:36.445958	263.2	11.7	-76.9	5.2
2026-01-28 13:31:37.568989	263.4	11.7	-76.7	6.3
2026-01-28 13:31:38.692368	263.6	11.7	-77.2	7.2
2026-01-28 13:31:39.819054	263.8	11.7	-77.1	7.2
2026-01-28 13:31:40.942383	264.0	11.8	-77.2	7.3
2026-01-28 13:31:42.066785	264.2	11.8	-76.9	6.8
2026-01-28 13:31:43.188097	264.5	11.8	-77.3	7.3
2026-01-28 13:31:44.313380	264.7	11.8	-76.9	7.0
2026-01-28 13:31:45.436458	264.9	11.9	-76.7	5.8
2026-01-28 13:31:46.560834	265.1	11.9	-76.4	7.1
2026-01-28 13:31:47.683587	265.3	11.9	-76.7	6.0
2026-01-28 13:31:48.805515	265.5	11.9	-77.2	6.9
2026-01-28 13:31:49.929849	265.7	12.0	-76.8	5.1
2026-01-28 13:31:51.052956	265.9	12.0	-76.5	5.3
2026-01-28 13:31:52.176810	266.1	12.0	-77.6	6.6
2026-01-28 13:31:53.301411	266.4	12.0	-76.7	6.8
2026-01-28 13:31:54.422949	266.6	12.0	-77.0	6.1
2026-01-28 13:31:55.546956	266.8	12.1	-76.5	5.9
2026-01-28 13:31:56.672906	267.0	12.1	-76.3	3.1
2026-01-28 13:31:57.798665	267.2	12.1	-76.6	5.8
2026-01-28 13:31:58.924107	267.4	12.1	-76.3	4.4
2026-01-28 13:32:00.047991	267.6	12.1	-76.6	7.2
2026-01-28 13:32:01.173910	267.9	12.2	-76.4	6.0
2026-01-28 13:32:02.297932	268.1	12.2	-77.1	6.3
2026-01-28 13:32:03.421042	268.3	12.2	-76.8	6.3
2026-01-28 13:32:04.547819	268.5	12.2	-76.6	5.5
2026-01-28 13:32:05.671659	268.7	12.2	-76.5	6.1
2026-01-28 13:32:06.796148	268.9	12.2	-76.7	5.2
2026-01-28 13:32:07.919926	269.1	12.3	-77.1	5.4
2026-01-28 13:32:09.043249	269.4	12.3	-77.0	5.5
2026-01-28 13:32:10.167743	269.6	12.3	-77.0	5.5
2026-01-28 13:32:11.291930	269.8	12.3	-77.0	5.2
2026-01-28 13:32:12.416457	270.0	12.3	-76.9	6.6
2026-01-28 13:32:13.540676	270.2	12.3	-76.3	6.0
2026-01-28 13:32:14.663828	270.5	12.4	-75.6	3.5
2026-01-28 13:32:15.788669	270.7	12.4	-75.7	3.8
2026-01-28 13:32:16.912631	270.9	12.4	-76.1	4.5
2026-01-28 13:32:18.038764	271.1	12.4	-76.5	3.2
2026-01-28 13:32:19.161193	271.3	12.4	-76.8	4.7
2026-01-28 13:32:20.283954	271.5	12.4	-76.4	4.2
2026-01-28 13:32:21.407776	271.8	12.4	-76.5	4.7
2026-01-28 13:32:22.532355	272.0	12.4	-76.7	5.7
2026-01-28 13:32:23.654606	272.2	12.5	-75.9	3.9
2026-01-28 13:32:24.781140	272.4	12.5	-76.7	5.4
2026-01-28 13:32:25.905072	272.6	12.5	-76.8	5.7
2026-01-28 13:32:27.028258	272.9	12.5	-76.9	4.8
2026-01-28 13:32:28.150873	273.1	12.5	-76.2	5.6
2026-01-28 13:32:29.273026	273.3	12.5	-76.5	6.8
2026-01-28 13:32:30.397317	273.5	12.5	-76.6	5.9
2026-01-28 13:32:31.520995	273.7	12.5	-75.8	2.5
2026-01-28 13:32:32.645294	274.0	12.5	-75.6	5.1
2026-01-28 13:32:33.768777	274.2	12.5	-76.0	4.5
2026-01-28 13:32:34.891477	274.4	12.5	-76.8	5.2
2026-01-28 13:32:36.016353	274.6	12.6	-76.6	4.2
2026-01-28 13:32:37.139819	274.8	12.6	-76.9	4.6
2026-01-28 13:32:38.264062	275.1	12.6	-76.8	3.4
2026-01-28 13:32:39.389097	275.3	12.6	-76.8	3.9
2026-01-28 13:32:40.513193	275.5	12.6	-76.6	3.7
2026-01-28 13:32:41.637149	275.7	12.6	-76.6	3.0
2026-01-28 13:32:42.761001	275.9	12.6	-76.0	3.5
2026-01-28 13:32:43.884749	276.2	12.6	-75.8	3.0
2026-01-28 13:32:45.010079	276.4	12.6	-75.9	3.1
2026-01-28 13:32:46.134231	276.6	12.6	-76.1	0.6
2026-01-28 13:32:47.257818	276.8	12.6	-75.8	2.8
2026-01-28 13:32:48.381118	277.0	12.6	-76.5	4.8
2026-01-28 13:32:49.504839	277.3	12.6	-76.1	3.9
2026-01-28 13:32:50.628036	277.5	12.6	-76.3	4.9
2026-01-28 13:32:51.752156	277.7	12.6	-76.0	4.4
2026-01-28 13:32:52.876328	277.9	12.6	-76.2	4.1
2026-01-28 13:32:54.000244	278.2	12.6	-75.7	3.0
2026-01-28 13:32:55.122584	278.4	12.6	-75.1	3.4
2026-01-28 13:32:56.247371	278.6	12.6	-75.7	4.9
2026-01-28 13:32:57.371233	278.8	12.6	-75.8	4.4
2026-01-28 13:32:58.495019	279.0	12.6	-74.5	1.5
2026-01-28 13:32:59.616690	279.3	12.6	-74.6	3.2
2026-01-28 13:33:00.739882	279.5	12.6	-75.0	2.8
2026-01-28 13:33:01.863262	279.7	12.6	-74.9	4.6
2026-01-28 13:33:02.989471	279.9	12.6	-75.5	3.7
2026-01-28 13:33:04.113136	280.1	12.6	-75.5	3.7
2026-01-28 13:33:05.237155	280.4	12.6	-75.0	3.6
2026-01-28 13:33:06.362613	280.6	12.6	-74.8	2.7
2026-01-28 13:33:07.489004	280.8	12.6	-75.0	3.7
2026-01-28 13:33:08.612999	281.0	12.6	-74.2	5.9
2026-01-28 13:33:09.737877	281.2	12.6	-73.1	0.0
2026-01-28 13:33:10.861926	281.5	12.6	-74.9	2.9
2026-01-28 13:33:11.986016	281.7	12.6	-74.8	4.9
2026-01-28 13:33:13.112157	281.9	12.6	-75.0	5.4
2026-01-28 13:33:14.236917	282.1	12.6	-74.3	3.4
2026-01-28 13:33:15.361335	282.4	12.6	-75.1	1.8
2026-01-28 13:33:16.485427	282.6	12.6	-75.6	4.8
2026-01-28 13:33:17.610290	282.8	12.6	-75.4	3.3
2026-01-28 13:33:18.734651	283.0	12.5	-74.7	0.8
2026-01-28 13:33:19.860563	283.2	12.5	-74.6	3.9
2026-01-28 13:33:20.984947	283.5	12.5	-74.2	0.3
2026-01-28 13:33:22.109695	283.7	12.5	-75.4	3.4
2026-01-28 13:33:23.235132	283.9	12.5	-74.5	0.9
2026-01-28 13:33:24.361310	284.1	12.5	-75.6	2.3
2026-01-28 13:33:25.486159	284.3	12.5	-75.2	2.2
2026-01-28 13:33:26.611409	284.6	12.5	-75.6	3.3
2026-01-28 13:33:27.736509	284.8	12.5	-75.1	4.3
2026-01-28 13:33:28.861165	285.0	12.5	-74.8	1.0
2026-01-28 13:33:29.987166	285.2	12.4	-75.8	3.0
2026-01-28 13:33:31.112097	285.4	12.4	-75.5	3.7
2026-01-28 13:33:32.236699	285.6	12.4	-75.3	3.3
2026-01-28 13:33:33.360945	285.9	12.4	-73.6	0.0
2026-01-28 13:33:34.483786	286.1	12.4	-75.3	0.0
2026-01-28 13:33:35.608016	286.3	12.4	-72.6	0.0
2026-01-28 13:33:36.734372	286.5	12.4	-74.9	0.4
2026-01-28 13:33:37.859300	286.7	12.4	-74.9	0.0
2026-01-28 13:33:38.983964	287.0	12.3	-73.7	0.0
2026-01-28 13:33:40.106205	287.2	12.3	-74.0	0.8
2026-01-28 13:33:41.230548	287.4	12.3	-72.1	0.0
2026-01-28 13:33:42.357818	287.6	12.3	-72.5	0.0
2026-01-28 13:33:43.482049	287.8	12.3	-72.5	0.0
2026-01-28 13:33:44.606445	288.0	12.3	-72.7	0.0
2026-01-28 13:33:45.729743	288.3	12.3	-72.1	0.0
2026-01-28 13:33:46.855017	288.5	12.2	-73.5	0.0
2026-01-28 13:33:47.979953	288.7	12.2	-73.4	0.0
2026-01-28 13:33:49.105811	288.9	12.2	-74.6	0.0
2026-01-28 13:33:50.230972	289.1	12.2	-75.3	0.0
2026-01-28 13:33:51.355226	289.3	12.2	-72.7	0.0
2026-01-28 13:33:52.478654	289.5	12.1	-70.8	0.0
2026-01-28 13:33:53.603876	289.8	12.1	-73.8	0.0
2026-01-28 13:33:54.729173	290.0	12.1	-73.0	0.0
2026-01-28 13:33:55.851577	290.2	12.1	-74.1	0.0
2026-01-28 13:33:56.975726	290.4	12.1	-73.7	0.0
2026-01-28 13:33:58.099141	290.6	12.1	-73.5	0.0
2026-01-28 13:33:59.221395	290.8	12.0	-73.2	0.0
2026-01-28 13:34:00.345933	291.0	12.0	-73.3	0.0
2026-01-28 13:34:01.473049	291.3	12.0	-74.0	0.0
2026-01-28 13:34:02.597051	291.5	12.0	-73.8	0.0
2026-01-28 13:34:03.721324	291.7	11.9	-70.2	0.0
2026-01-28 13:34:04.846988	291.9	11.9	-72.1	0.0
2026-01-28 13:34:05.970990	292.1	11.9	-71.9	0.0
2026-01-28 13:34:07.096012	292.3	11.9	-71.7	0.0
2026-01-28 13:34:08.221159	292.5	11.9	-73.9	0.0
2026-01-28 13:34:09.343562	292.7	11.8	-74.0	0.0
2026-01-28 13:34:10.468955	292.9	11.8	-74.1	0.0
2026-01-28 13:34:11.593218	293.2	11.8	-71.3	0.0
2026-01-28 13:34:12.717773	293.4	11.8	-72.3	0.0
2026-01-28 13:34:13.840181	293.6	11.7	-73.4	0.0
2026-01-28 13:34:14.963257	293.8	11.7	-73.1	0.0
2026-01-28 13:34:16.086442	294.0	11.7	-73.2	0.0
2026-01-28 13:34:17.213858	294.2	11.7	-72.9	0.0
2026-01-28 13:34:18.339318	294.4	11.6	-72.8	0.0
2026-01-28 13:34:19.462730	294.6	11.6	-71.7	0.0
2026-01-28 13:34:20.586984	294.8	11.6	-71.0	0.0
2026-01-28 13:34:21.711486	295.0	11.6	-71.7	0.0
2026-01-28 13:34:22.835684	295.2	11.5	-72.5	0.0
2026-01-28 13:34:23.958899	295.4	11.5	-71.8	0.0
2026-01-28 13:34:25.083788	295.6	11.5	-72.1	0.0
2026-01-28 13:34:26.207351	295.8	11.4	-71.8	0.0
2026-01-28 13:34:27.333034	296.0	11.4	-72.8	0.0
2026-01-28 13:34:28.456339	296.2	11.4	-72.2	0.0
2026-01-28 13:34:29.581291	296.5	11.4	-71.5	0.0
2026-01-28 13:34:30.705885	296.7	11.3	-70.9	0.0
2026-01-28 13:34:31.828442	296.9	11.3	-70.3	0.0
2026-01-28 13:34:32.952193	297.1	11.3	-70.5	0.0
2026-01-28 13:34:34.077113	297.3	11.2	-70.6	0.0
2026-01-28 13:34:35.204223	297.5	11.2	-71.8	0.0
2026-01-28 13:34:36.330051	297.7	11.2	-70.3	0.0
2026-01-28 13:34:37.455076	297.9	11.1	-72.0	0.0
2026-01-28 13:34:38.579868	298.1	11.1	-73.3	0.0
2026-01-28 13:34:39.703432	298.3	11.1	-71.3	0.0
2026-01-28 13:34:40.826460	298.5	11.1	-72.0	0.0
2026-01-28 13:34:41.949925	298.7	11.0	-73.1	0.0
2026-01-28 13:34:43.074876	298.9	11.0	-73.3	0.0
2026-01-28 13:34:44.197477	299.1	11.0	-74.1	0.0
2026-01-28 13:34:45.322646	299.3	10.9	-73.4	0.0
2026-01-28 13:34:46.445976	299.5	10.9	-75.8	0.0
2026-01-28 13:34:47.566518	299.7	10.9	-73.9	0.0
2026-01-28 13:34:48.689755	299.8	10.8	-75.9	0.0
2026-01-28 13:34:49.813565	300.0	10.8	-77.2	0.0
2026-01-28 13:34:50.939561	300.2	10.8	-79.1	0.0
2026-01-28 13:34:52.064749	300.4	10.7	-78.3	0.0
2026-01-28 13:34:53.188107	300.6	10.7	-78.8	0.0
2026-01-28 13:34:54.312908	300.8	10.7	-81.8	0.0
2026-01-28 13:34:55.435739	301.0	10.6	-82.1	0.0
2026-01-28 13:34:56.561476	301.2	10.6	-83.0	0.0
2026-01-28 13:34:57.685679	301.4	10.5	-83.5	0.0
2026-01-28 13:34:58.808723	301.6	10.5	-84.2	0.0
2026-01-28 13:34:59.933438	301.8	10.5	-84.1	0.0
2026-01-28 13:35:01.058044	302.0	10.4	-84.1	0.0
2026-01-28 13:35:02.180508	302.2	10.4	-83.8	0.0
2026-01-28 13:35:03.307199	302.4	10.4	-83.4	0.0
2026-01-28 13:35:04.429414	302.5	10.3	-82.4	0.0
2026-01-28 13:35:05.554207	302.7	10.3	-82.2	0.0
2026-01-28 13:35:06.675400	302.9	10.3	-81.4	0.0
2026-01-28 13:35:07.798469	303.1	10.2	-82.5	0.0
2026-01-28 13:35:08.921784	303.3	10.2	-81.8	0.0
2026-01-28 13:35:10.047773	303.5	10.1	-80.8	0.0
2026-01-28 13:35:11.171841	303.7	10.1	-79.8	0.0
2026-01-28 13:35:12.294053	303.9	10.1	-80.1	0.0
2026-01-28 13:35:13.418425	304.1	10.0	-81.9	0.0
#Closed at: 2026-01-28 13:30:34.204359