passes_logs/2026/01/28/planumMaritime01/planumMaritime01__20260128_114622_METEOR-M2_4_rec.log

#Pass ID: 20260128_114622_METEOR-M2 4
#Satellite: METEOR-M2 4
#Configuration: METEOR-M2 4
#Start time: 2026-01-28 11:46:27.949671

#LorettStation: 1.0.0 05.05.2024
#Station: planumMaritime01
#Location: 37.49445 lon 55.92918 lat
#TLE: 1 59051U 24039A   26027.63926554  .00000085  00000+0  57649-4 0  9992
#TLE: 2 59051  98.6833 348.8441 0006401 209.4311 150.6507 14.22410223 99285

#Time	Az	El	Level	SNR
2026-01-28 11:46:30.111747	176.8	10.2	-80.1	0.0
2026-01-28 11:46:32.357800	176.9	10.4	-79.0	0.0
2026-01-28 11:46:34.605529	177.0	10.6	-77.8	2.3
2026-01-28 11:46:36.855550	177.1	10.8	-76.4	2.4
2026-01-28 11:46:39.101327	177.2	11.0	-77.0	2.3
2026-01-28 11:46:41.345121	177.3	11.2	-77.4	6.2
2026-01-28 11:46:43.592127	177.4	11.4	-77.5	5.9
2026-01-28 11:46:45.844082	177.4	11.6	-77.5	5.3
2026-01-28 11:46:48.090467	177.5	11.8	-77.4	7.2
2026-01-28 11:46:50.340903	177.6	12.0	-76.9	6.5
2026-01-28 11:46:52.588529	177.7	12.2	-77.2	6.9
2026-01-28 11:46:54.836511	177.8	12.4	-76.9	6.4
2026-01-28 11:46:57.086391	177.9	12.6	-77.0	8.1
2026-01-28 11:46:59.332837	178.0	12.8	-76.7	6.9
2026-01-28 11:47:01.583096	178.1	13.1	-77.2	6.8
2026-01-28 11:47:03.830176	178.2	13.3	-77.1	6.0
2026-01-28 11:47:06.076968	178.3	13.5	-76.3	5.5
2026-01-28 11:47:08.326408	178.4	13.7	-77.3	5.5
2026-01-28 11:47:10.573231	178.5	13.9	-76.9	6.7
2026-01-28 11:47:12.819833	178.6	14.2	-76.5	6.1
2026-01-28 11:47:15.071231	178.7	14.4	-76.8	6.5
2026-01-28 11:47:17.318305	178.8	14.6	-76.7	5.8
2026-01-28 11:47:19.566386	179.0	14.9	-76.6	3.8
2026-01-28 11:47:21.813648	179.1	15.1	-76.9	5.5
2026-01-28 11:47:24.062427	179.2	15.3	-76.4	5.5
2026-01-28 11:47:26.308885	179.3	15.6	-75.9	4.0
2026-01-28 11:47:28.556316	179.4	15.8	-76.3	5.1
2026-01-28 11:47:30.805313	179.5	16.1	-76.2	6.3
2026-01-28 11:47:33.052089	179.7	16.3	-76.0	5.6
2026-01-28 11:47:35.301439	179.8	16.6	-76.3	5.0
2026-01-28 11:47:37.549247	179.9	16.8	-76.0	4.5
2026-01-28 11:47:39.795480	180.0	17.1	-75.5	4.0
2026-01-28 11:47:42.043979	180.2	17.3	-75.4	3.4
2026-01-28 11:47:44.289401	180.3	17.6	-75.4	4.7
2026-01-28 11:47:46.535122	180.4	17.8	-75.6	4.6
2026-01-28 11:47:48.781993	180.6	18.1	-75.9	5.5
2026-01-28 11:47:51.035377	180.7	18.4	-75.4	5.1
2026-01-28 11:47:53.282017	180.9	18.6	-75.6	6.2
2026-01-28 11:47:55.530092	181.0	18.9	-74.9	5.7
2026-01-28 11:47:57.778694	181.1	19.2	-75.6	5.8
2026-01-28 11:48:00.026436	181.3	19.5	-75.1	4.6
2026-01-28 11:48:02.273805	181.4	19.8	-75.9	5.6
2026-01-28 11:48:04.522145	181.6	20.0	-75.5	5.1
2026-01-28 11:48:06.770528	181.8	20.3	-75.4	5.7
2026-01-28 11:48:09.018899	181.9	20.6	-75.3	6.1
2026-01-28 11:48:11.265804	182.1	20.9	-75.5	6.6
2026-01-28 11:48:13.513146	182.2	21.2	-75.4	4.7
2026-01-28 11:48:15.758697	182.4	21.5	-75.3	4.9
2026-01-28 11:48:18.004139	182.6	21.8	-75.5	5.5
2026-01-28 11:48:20.252655	182.8	22.1	-76.1	6.1
2026-01-28 11:48:22.498889	182.9	22.4	-75.6	4.5
2026-01-28 11:48:24.749557	183.1	22.7	-75.6	3.7
2026-01-28 11:48:26.995319	183.3	23.1	-75.3	5.0
2026-01-28 11:48:29.243177	183.5	23.4	-75.3	4.1
2026-01-28 11:48:31.492301	183.7	23.7	-75.3	3.6
2026-01-28 11:48:33.738472	183.9	24.0	-75.3	4.5
2026-01-28 11:48:35.986315	184.1	24.4	-75.6	6.6
2026-01-28 11:48:38.234118	184.3	24.7	-74.8	5.4
2026-01-28 11:48:40.482162	184.5	25.0	-75.1	6.2
2026-01-28 11:48:42.728989	184.7	25.4	-75.0	4.9
2026-01-28 11:48:44.976703	184.9	25.7	-74.6	4.8
2026-01-28 11:48:47.223452	185.1	26.1	-75.8	5.1
2026-01-28 11:48:49.475454	185.4	26.5	-75.9	6.2
2026-01-28 11:48:51.720463	185.6	26.8	-75.5	6.4
2026-01-28 11:48:53.967252	185.8	27.2	-75.5	5.9
2026-01-28 11:48:56.219256	186.1	27.6	-75.6	6.8
2026-01-28 11:48:58.465539	186.3	27.9	-76.3	7.5
2026-01-28 11:49:00.712072	186.6	28.3	-76.1	7.2
2026-01-28 11:49:02.958917	186.9	28.7	-76.2	7.0
2026-01-28 11:49:05.207167	187.1	29.1	-76.2	7.6
2026-01-28 11:49:07.457649	187.4	29.5	-76.3	5.8
2026-01-28 11:49:09.703483	187.7	29.9	-76.7	7.6
2026-01-28 11:49:11.953351	188.0	30.3	-76.5	7.0
2026-01-28 11:49:14.205337	188.3	30.7	-76.5	7.5
2026-01-28 11:49:16.456747	188.6	31.1	-76.6	8.8
2026-01-28 11:49:18.702686	188.9	31.5	-77.0	7.2
2026-01-28 11:49:20.953755	189.2	32.0	-76.9	8.5
2026-01-28 11:49:23.204154	189.5	32.4	-76.7	8.1
2026-01-28 11:49:25.452069	189.8	32.8	-76.7	8.0
2026-01-28 11:49:27.701073	190.2	33.3	-77.4	8.7
2026-01-28 11:49:29.948930	190.5	33.7	-77.4	8.7
2026-01-28 11:49:32.197224	190.9	34.2	-77.3	8.5
2026-01-28 11:49:34.444259	191.3	34.6	-77.8	10.0
2026-01-28 11:49:36.691636	191.6	35.1	-77.4	9.5
2026-01-28 11:49:38.938848	192.0	35.5	-77.4	9.8
2026-01-28 11:49:41.184099	192.4	36.0	-77.8	10.2
2026-01-28 11:49:43.428597	192.9	36.5	-77.8	10.8
2026-01-28 11:49:45.675308	193.3	37.0	-77.6	10.1
2026-01-28 11:49:47.924230	193.7	37.5	-77.7	10.6
2026-01-28 11:49:50.172888	194.2	38.0	-77.2	10.9
2026-01-28 11:49:52.423148	194.6	38.5	-77.8	11.0
2026-01-28 11:49:54.669641	195.1	39.0	-77.5	11.9
2026-01-28 11:49:56.919937	195.6	39.5	-77.7	12.1
2026-01-28 11:49:59.169602	196.1	40.0	-77.9	12.2
2026-01-28 11:50:01.415609	196.7	40.5	-77.8	12.3
2026-01-28 11:50:03.661642	197.2	41.0	-78.2	12.2
2026-01-28 11:50:05.907499	197.8	41.6	-78.1	11.7
2026-01-28 11:50:08.156157	198.3	42.1	-78.2	11.8
2026-01-28 11:50:10.406285	198.9	42.6	-78.7	12.0
2026-01-28 11:50:12.653087	199.6	43.2	-78.7	11.7
2026-01-28 11:50:14.901134	200.2	43.7	-78.9	11.0
2026-01-28 11:50:17.145151	200.9	44.3	-79.1	11.3
2026-01-28 11:50:19.392968	201.6	44.8	-78.8	11.3
2026-01-28 11:50:21.638198	202.3	45.4	-78.8	11.6
2026-01-28 11:50:23.887820	203.0	46.0	-78.6	12.1
2026-01-28 11:50:26.132731	203.8	46.5	-78.5	10.8
2026-01-28 11:50:28.381009	204.6	47.1	-78.8	11.6
2026-01-28 11:50:30.630156	205.4	47.7	-79.4	11.0
2026-01-28 11:50:32.877756	206.2	48.2	-79.2	10.2
2026-01-28 11:50:35.126197	207.1	48.8	-79.4	9.9
2026-01-28 11:50:37.374887	208.0	49.4	-79.9	9.7
2026-01-28 11:50:39.622329	209.0	49.9	-80.1	9.6
2026-01-28 11:50:41.871559	210.0	50.5	-80.2	8.7
2026-01-28 11:50:44.119675	211.0	51.1	-79.9	8.7
2026-01-28 11:50:46.368212	212.0	51.6	-79.6	8.8
2026-01-28 11:50:48.615373	213.1	52.2	-80.0	10.0
2026-01-28 11:50:50.863087	214.3	52.8	-80.1	9.7
2026-01-28 11:50:53.112839	215.5	53.3	-80.1	9.3
2026-01-28 11:50:55.361708	216.7	53.9	-80.0	10.6
2026-01-28 11:50:57.610174	218.0	54.4	-80.3	9.8
2026-01-28 11:50:59.856493	219.3	54.9	-80.3	10.4
2026-01-28 11:51:02.105232	220.7	55.4	-80.0	9.6
2026-01-28 11:51:04.354621	222.1	55.9	-80.1	9.7
2026-01-28 11:51:06.604460	223.6	56.4	-80.4	9.3
2026-01-28 11:51:08.854501	225.1	56.9	-80.4	9.3
2026-01-28 11:51:11.102030	226.7	57.4	-80.1	9.3
2026-01-28 11:51:13.347536	228.3	57.8	-80.1	9.4
2026-01-28 11:51:15.594504	230.0	58.2	-80.2	9.1
2026-01-28 11:51:17.840925	231.7	58.6	-79.8	10.1
2026-01-28 11:51:20.088741	233.5	59.0	-80.1	8.6
2026-01-28 11:51:22.335087	235.4	59.4	-80.2	9.4
2026-01-28 11:51:24.582827	237.3	59.7	-80.5	9.5
2026-01-28 11:51:26.828468	239.2	60.0	-80.1	9.6
2026-01-28 11:51:29.076575	241.2	60.3	-80.1	8.9
2026-01-28 11:51:31.325862	243.2	60.5	-80.5	9.3
2026-01-28 11:51:33.571248	245.2	60.7	-80.4	8.8
2026-01-28 11:51:35.819896	247.3	60.9	-79.9	8.3
2026-01-28 11:51:38.067269	249.4	61.0	-79.2	8.6
2026-01-28 11:51:40.317205	251.6	61.2	-79.6	7.9
2026-01-28 11:51:42.564072	253.7	61.2	-80.0	8.3
2026-01-28 11:51:44.809932	255.9	61.3	-79.6	7.4
2026-01-28 11:51:47.057599	258.1	61.3	-80.0	8.3
2026-01-28 11:51:49.308596	260.2	61.3	-80.3	8.9
2026-01-28 11:51:51.560081	262.4	61.2	-78.7	4.6
2026-01-28 11:51:53.808880	264.5	61.1	-79.7	8.4
2026-01-28 11:51:56.055464	266.7	61.0	-78.4	4.7
2026-01-28 11:51:58.302511	268.8	60.8	-78.3	2.0
2026-01-28 11:52:00.548268	270.8	60.6	-78.2	4.2
2026-01-28 11:52:02.796421	272.9	60.4	-79.0	5.8
2026-01-28 11:52:05.042948	274.9	60.1	-78.6	5.8
2026-01-28 11:52:07.291463	276.8	59.9	-79.4	6.1
2026-01-28 11:52:09.538716	278.7	59.5	-79.1	3.6
2026-01-28 11:52:11.783824	280.6	59.2	-79.3	4.7
2026-01-28 11:52:14.029308	282.4	58.8	-77.8	0.0
2026-01-28 11:52:16.274249	284.2	58.5	-77.4	1.0
2026-01-28 11:52:18.523822	285.9	58.0	-77.1	0.0
2026-01-28 11:52:20.768299	287.6	57.6	-78.4	3.2
2026-01-28 11:52:23.016590	289.2	57.2	-78.1	3.2
2026-01-28 11:52:25.262917	290.7	56.7	-78.1	5.1
2026-01-28 11:52:27.508551	292.2	56.2	-78.4	3.6
2026-01-28 11:52:29.754324	293.7	55.7	-76.6	2.2
2026-01-28 11:52:32.004762	295.1	55.2	-78.6	3.8
2026-01-28 11:52:34.248827	296.4	54.7	-75.6	0.0
2026-01-28 11:52:36.500281	297.7	54.2	-76.2	0.0
2026-01-28 11:52:38.750038	299.0	53.6	-75.0	0.0
2026-01-28 11:52:40.995340	300.2	53.1	-76.2	0.8
2026-01-28 11:52:43.239484	301.4	52.5	-76.6	0.4
2026-01-28 11:52:45.488436	302.5	52.0	-78.2	2.6
2026-01-28 11:52:47.733687	303.6	51.4	-77.4	5.3
2026-01-28 11:52:49.982419	304.6	50.9	-76.6	4.2
2026-01-28 11:52:52.230538	305.6	50.3	-75.4	0.0
2026-01-28 11:52:54.477856	306.6	49.7	-76.0	0.7
2026-01-28 11:52:56.722106	307.5	49.2	-75.9	1.3
2026-01-28 11:52:58.970091	308.4	48.6	-77.3	4.7
2026-01-28 11:53:01.222632	309.3	48.0	-77.1	4.7
2026-01-28 11:53:03.471382	310.1	47.5	-76.7	3.9
2026-01-28 11:53:05.719581	310.9	46.9	-77.2	3.6
2026-01-28 11:53:07.964391	311.7	46.3	-77.0	5.1
2026-01-28 11:53:10.211710	312.5	45.8	-76.8	6.6
2026-01-28 11:53:12.458134	313.2	45.2	-76.4	5.4
2026-01-28 11:53:14.703569	313.9	44.7	-75.5	1.5
2026-01-28 11:53:16.951541	314.6	44.1	-76.1	0.9
2026-01-28 11:53:19.200165	315.2	43.6	-76.2	3.0
2026-01-28 11:53:21.444552	315.8	43.0	-73.9	0.0
2026-01-28 11:53:23.691639	316.5	42.5	-76.5	5.1
2026-01-28 11:53:25.935189	317.0	41.9	-76.7	5.7
2026-01-28 11:53:28.181862	317.6	41.4	-75.7	5.4
2026-01-28 11:53:30.427899	318.2	40.9	-76.2	5.6
2026-01-28 11:53:32.676806	318.7	40.4	-76.4	3.4
2026-01-28 11:53:34.922379	319.2	39.8	-75.8	5.0
2026-01-28 11:53:37.169881	319.7	39.3	-74.5	1.6
2026-01-28 11:53:39.416844	320.2	38.8	-75.3	3.1
2026-01-28 11:53:41.662453	320.7	38.3	-73.0	0.0
2026-01-28 11:53:43.909565	321.2	37.8	-75.2	0.9
2026-01-28 11:53:46.156419	321.6	37.3	-73.5	0.0
2026-01-28 11:53:48.403062	322.0	36.9	-74.9	0.2
2026-01-28 11:53:50.649188	322.5	36.4	-74.5	2.4
2026-01-28 11:53:52.898015	322.9	35.9	-73.5	0.0
2026-01-28 11:53:55.144935	323.3	35.4	-73.4	0.0
2026-01-28 11:53:57.393686	323.7	35.0	-73.7	0.6
2026-01-28 11:53:59.638851	324.0	34.5	-74.0	4.1
2026-01-28 11:54:01.884054	324.4	34.1	-74.6	4.7
2026-01-28 11:54:04.131727	324.8	33.6	-72.3	0.0
2026-01-28 11:54:06.378190	325.1	33.2	-72.9	0.0
2026-01-28 11:54:08.623921	325.4	32.7	-73.9	1.3
2026-01-28 11:54:10.872218	325.8	32.3	-74.1	1.4
2026-01-28 11:54:13.120364	326.1	31.9	-73.5	2.2
2026-01-28 11:54:15.366372	326.4	31.5	-74.2	0.8
2026-01-28 11:54:17.614143	326.7	31.0	-72.6	0.0
2026-01-28 11:54:19.861272	327.0	30.6	-73.7	2.5
2026-01-28 11:54:22.108609	327.3	30.2	-69.9	0.0
2026-01-28 11:54:24.357719	327.6	29.8	-72.3	0.0
2026-01-28 11:54:26.604692	327.9	29.4	-71.4	0.0
2026-01-28 11:54:28.850312	328.1	29.0	-72.8	0.0
2026-01-28 11:54:31.095980	328.4	28.7	-72.9	0.0
2026-01-28 11:54:33.339964	328.7	28.3	-71.5	0.6
2026-01-28 11:54:35.588983	328.9	27.9	-72.7	0.0
2026-01-28 11:54:37.835588	329.2	27.5	-72.2	0.0
2026-01-28 11:54:40.080829	329.4	27.2	-73.1	0.0
2026-01-28 11:54:42.325466	329.6	26.8	-71.7	0.0
2026-01-28 11:54:44.574035	329.9	26.4	-73.2	0.0
2026-01-28 11:54:46.819808	330.1	26.1	-71.9	0.0
2026-01-28 11:54:49.065537	330.3	25.7	-71.3	0.0
2026-01-28 11:54:51.312599	330.5	25.4	-71.2	0.0
2026-01-28 11:54:53.560415	330.8	25.0	-70.7	0.0
2026-01-28 11:54:55.807756	331.0	24.7	-71.3	0.0
2026-01-28 11:54:58.057422	331.2	24.4	-71.6	0.0
2026-01-28 11:55:00.302492	331.4	24.0	-71.2	0.0
2026-01-28 11:55:02.550569	331.6	23.7	-70.3	0.0
2026-01-28 11:55:04.796703	331.8	23.4	-70.0	0.0
2026-01-28 11:55:07.041955	331.9	23.1	-70.6	0.0
2026-01-28 11:55:09.287511	332.1	22.8	-70.6	0.0
2026-01-28 11:55:11.535145	332.3	22.4	-70.9	0.0
2026-01-28 11:55:13.781751	332.5	22.1	-70.9	0.0
2026-01-28 11:55:16.030803	332.7	21.8	-70.9	0.0
2026-01-28 11:55:18.276161	332.8	21.5	-70.5	0.0
2026-01-28 11:55:20.523756	333.0	21.2	-70.1	0.0
2026-01-28 11:55:22.772475	333.2	20.9	-69.7	0.0
2026-01-28 11:55:25.017587	333.3	20.6	-68.5	0.0
2026-01-28 11:55:27.267905	333.5	20.4	-68.6	0.0
2026-01-28 11:55:29.517210	333.6	20.1	-68.3	0.0
2026-01-28 11:55:31.762992	333.8	19.8	-69.3	0.0
2026-01-28 11:55:34.011245	334.0	19.5	-68.9	0.0
2026-01-28 11:55:36.257768	334.1	19.2	-68.0	0.0
2026-01-28 11:55:38.503733	334.2	19.0	-67.5	0.0
2026-01-28 11:55:40.752383	334.4	18.7	-70.9	0.0
2026-01-28 11:55:43.000265	334.5	18.4	-71.2	0.0
2026-01-28 11:55:45.251017	334.7	18.2	-68.4	0.0
2026-01-28 11:55:47.498183	334.8	17.9	-70.6	0.0
2026-01-28 11:55:49.743544	334.9	17.6	-68.6	0.0
2026-01-28 11:55:51.990325	335.1	17.4	-70.0	0.0
2026-01-28 11:55:54.239376	335.2	17.1	-69.0	0.0
2026-01-28 11:55:56.486223	335.3	16.9	-69.5	0.0
2026-01-28 11:55:58.736372	335.5	16.6	-71.4	0.0
2026-01-28 11:56:00.983113	335.6	16.4	-71.6	0.0
2026-01-28 11:56:03.230255	335.7	16.1	-71.4	0.0
2026-01-28 11:56:05.475843	335.8	15.9	-71.9	0.0
2026-01-28 11:56:07.723016	336.0	15.6	-72.5	0.0
2026-01-28 11:56:09.970831	336.1	15.4	-71.9	0.0
2026-01-28 11:56:12.216962	336.2	15.2	-69.1	0.0
2026-01-28 11:56:14.465881	336.3	14.9	-70.7	0.0
2026-01-28 11:56:16.713751	336.4	14.7	-71.5	0.0
2026-01-28 11:56:18.961950	336.5	14.5	-72.7	0.0
2026-01-28 11:56:21.209722	336.6	14.3	-72.9	0.0
2026-01-28 11:56:23.456179	336.7	14.0	-72.4	0.0
2026-01-28 11:56:25.702852	336.8	13.8	-72.7	0.0
2026-01-28 11:56:27.949184	337.0	13.6	-75.0	0.0
2026-01-28 11:56:30.197021	337.1	13.4	-70.7	0.0
2026-01-28 11:56:32.443824	337.2	13.2	-73.8	0.0
2026-01-28 11:56:34.690004	337.3	12.9	-73.9	0.0
2026-01-28 11:56:36.936468	337.4	12.7	-75.2	0.0
2026-01-28 11:56:39.182943	337.5	12.5	-72.6	0.0
2026-01-28 11:56:41.429946	337.6	12.3	-72.1	0.0
2026-01-28 11:56:43.673981	337.7	12.1	-71.6	0.0
2026-01-28 11:56:45.925655	337.7	11.9	-72.4	0.0
2026-01-28 11:56:48.170362	337.8	11.7	-74.5	0.0
2026-01-28 11:56:50.415389	337.9	11.5	-73.0	0.0
2026-01-28 11:56:52.663994	338.0	11.3	-69.4	0.0
2026-01-28 11:56:54.909464	338.1	11.1	-73.3	0.0
2026-01-28 11:56:57.158690	338.2	10.9	-72.1	0.0
2026-01-28 11:56:59.403877	338.3	10.7	-72.9	0.0
2026-01-28 11:57:01.650201	338.4	10.5	-73.9	0.0
2026-01-28 11:57:03.897829	338.5	10.3	-76.6	0.0
2026-01-28 11:57:06.143026	338.5	10.1	-78.5	0.0
#Closed at: 2026-01-28 11:46:22.951005