passes_logs/2026/01/28/planumMaritime01/planumMaritime01__20260128_063214_METOP-B_rec.log

#Pass ID: 20260128_063214_METOP-B
#Satellite: METOP-B
#Configuration: METOP-B
#Start time: 2026-01-28 06:32:19.750542

#LorettStation: 1.0.0 05.05.2024
#Station: planumMaritime01
#Location: 37.49445 lon 55.92918 lat
#TLE: 1 38771U 12049A   26027.75897957  .00000194  00000+0  10857-3 0  9993
#TLE: 2 38771  98.6728  81.9227 0002898  50.5582 309.5851 14.21429617693319

#Time	Az	El	Level	SNR
2026-01-28 06:32:21.931970	25.3	10.2	-64.1	0.0
2026-01-28 06:32:24.181658	25.4	10.4	-61.7	0.0
2026-01-28 06:32:26.427012	25.5	10.6	-59.1	0.0
2026-01-28 06:32:28.671822	25.7	10.7	-58.5	0.0
2026-01-28 06:32:30.918422	25.8	10.9	-56.4	0.0
2026-01-28 06:32:33.166943	26.0	11.1	-60.7	0.0
2026-01-28 06:32:35.409583	26.1	11.3	-58.1	0.0
2026-01-28 06:32:37.653236	26.3	11.5	-59.4	0.0
2026-01-28 06:32:39.900951	26.4	11.7	-59.6	0.0
2026-01-28 06:32:42.150071	26.6	11.9	-60.0	0.0
2026-01-28 06:32:44.395246	26.7	12.1	-60.1	0.0
2026-01-28 06:32:46.639220	26.9	12.3	-59.0	0.0
2026-01-28 06:32:48.885509	27.0	12.5	-61.0	0.0
2026-01-28 06:32:51.131354	27.2	12.7	-57.5	0.0
2026-01-28 06:32:53.374539	27.4	12.9	-55.8	0.0
2026-01-28 06:32:55.618395	27.5	13.1	-56.2	0.0
2026-01-28 06:32:57.862187	27.7	13.3	-59.9	0.0
2026-01-28 06:33:00.107405	27.9	13.5	-59.9	0.0
2026-01-28 06:33:02.351479	28.0	13.7	-57.2	0.0
2026-01-28 06:33:04.597085	28.2	13.9	-56.8	0.0
2026-01-28 06:33:06.841885	28.4	14.2	-57.9	0.0
2026-01-28 06:33:09.085865	28.6	14.4	-57.7	0.0
2026-01-28 06:33:11.330528	28.7	14.6	-55.0	0.0
2026-01-28 06:33:13.575689	28.9	14.8	-55.5	0.0
2026-01-28 06:33:15.820787	29.1	15.0	-57.7	0.0
2026-01-28 06:33:18.065897	29.3	15.2	-57.4	0.0
2026-01-28 06:33:20.309508	29.5	15.5	-53.3	0.0
2026-01-28 06:33:22.555845	29.7	15.7	-56.0	0.0
2026-01-28 06:33:24.801055	29.9	15.9	-54.8	0.0
2026-01-28 06:33:27.042850	30.1	16.1	-56.4	0.0
2026-01-28 06:33:29.286177	30.3	16.4	-57.0	0.0
2026-01-28 06:33:31.531284	30.5	16.6	-61.4	0.0
2026-01-28 06:33:33.779499	30.7	16.8	-57.3	0.0
2026-01-28 06:33:36.024317	30.9	17.1	-53.7	0.0
2026-01-28 06:33:38.269847	31.1	17.3	-54.2	0.0
2026-01-28 06:33:40.520986	31.3	17.6	-57.6	0.0
2026-01-28 06:33:42.769119	31.6	17.8	-58.4	0.0
2026-01-28 06:33:45.013901	31.8	18.0	-59.6	0.0
2026-01-28 06:33:47.255245	32.0	18.3	-57.0	0.0
2026-01-28 06:33:49.502031	32.3	18.5	-61.5	0.0
2026-01-28 06:33:51.747657	32.5	18.8	-57.3	0.0
2026-01-28 06:33:53.992594	32.7	19.0	-58.0	0.0
2026-01-28 06:33:56.236669	33.0	19.3	-56.3	0.0
2026-01-28 06:33:58.483881	33.2	19.6	-59.8	0.0
2026-01-28 06:34:00.729627	33.5	19.8	-59.2	0.0
2026-01-28 06:34:02.978163	33.7	20.1	-59.5	0.0
2026-01-28 06:34:05.223117	34.0	20.3	-61.1	0.0
2026-01-28 06:34:07.468905	34.3	20.6	-62.6	0.0
2026-01-28 06:34:09.716920	34.5	20.9	-60.8	0.0
2026-01-28 06:34:11.960505	34.8	21.1	-59.5	0.0
2026-01-28 06:34:14.208230	35.1	21.4	-64.5	0.0
2026-01-28 06:34:16.452153	35.4	21.7	-65.6	0.0
2026-01-28 06:34:18.696465	35.6	22.0	-63.4	0.0
2026-01-28 06:34:20.943952	35.9	22.3	-63.9	0.0
2026-01-28 06:34:23.188897	36.2	22.5	-60.4	0.0
2026-01-28 06:34:25.433042	36.5	22.8	-60.5	0.0
2026-01-28 06:34:27.680465	36.9	23.1	-64.5	0.0
2026-01-28 06:34:29.922717	37.2	23.4	-64.4	0.0
2026-01-28 06:34:32.168136	37.5	23.7	-60.1	0.0
2026-01-28 06:34:34.412651	37.8	24.0	-61.2	0.0
2026-01-28 06:34:36.659029	38.1	24.3	-62.8	0.0
2026-01-28 06:34:38.904931	38.5	24.6	-64.9	0.0
2026-01-28 06:34:41.149571	38.8	24.9	-61.6	0.0
2026-01-28 06:34:43.396088	39.2	25.2	-62.8	0.0
2026-01-28 06:34:45.637289	39.5	25.5	-64.5	0.0
2026-01-28 06:34:47.883619	39.9	25.8	-65.1	0.0
2026-01-28 06:34:50.129624	40.3	26.1	-65.5	0.0
2026-01-28 06:34:52.373881	40.7	26.4	-63.3	0.0
2026-01-28 06:34:54.619702	41.0	26.7	-66.1	0.0
2026-01-28 06:34:56.866175	41.4	27.1	-66.5	0.0
2026-01-28 06:34:59.110524	41.8	27.4	-67.4	0.0
2026-01-28 06:35:01.356058	42.2	27.7	-66.9	0.0
2026-01-28 06:35:03.600587	42.7	28.0	-66.7	0.0
2026-01-28 06:35:05.846607	43.1	28.4	-66.6	0.0
2026-01-28 06:35:08.089800	43.5	28.7	-65.6	0.0
2026-01-28 06:35:10.332078	44.0	29.0	-66.8	0.0
2026-01-28 06:35:12.580166	44.4	29.4	-67.5	0.0
2026-01-28 06:35:14.826614	44.9	29.7	-65.3	0.0
2026-01-28 06:35:17.070067	45.4	30.0	-68.2	0.0
2026-01-28 06:35:19.314152	45.8	30.4	-67.5	0.7
2026-01-28 06:35:21.558972	46.3	30.7	-66.1	0.0
2026-01-28 06:35:23.804091	46.8	31.1	-68.1	0.0
2026-01-28 06:35:26.053040	47.4	31.4	-68.0	0.0
2026-01-28 06:35:28.297652	47.9	31.8	-69.2	3.1
2026-01-28 06:35:30.540231	48.4	32.1	-67.3	0.0
2026-01-28 06:35:32.784586	49.0	32.5	-69.9	4.1
2026-01-28 06:35:35.030143	49.5	32.8	-67.7	0.6
2026-01-28 06:35:37.275706	50.1	33.2	-68.9	2.8
2026-01-28 06:35:39.517630	50.7	33.5	-69.4	0.0
2026-01-28 06:35:41.762871	51.3	33.9	-68.7	1.7
2026-01-28 06:35:44.006829	51.9	34.2	-69.7	4.5
2026-01-28 06:35:46.256405	52.5	34.6	-69.5	1.3
2026-01-28 06:35:48.498819	53.1	34.9	-68.8	2.8
2026-01-28 06:35:50.740815	53.8	35.3	-67.8	0.0
2026-01-28 06:35:52.986548	54.4	35.6	-69.1	0.0
2026-01-28 06:35:55.230789	55.1	36.0	-68.2	0.0
2026-01-28 06:35:57.478095	55.8	36.4	-68.9	5.6
2026-01-28 06:35:59.723030	56.5	36.7	-68.4	0.0
2026-01-28 06:36:01.971403	57.2	37.1	-69.3	3.5
2026-01-28 06:36:04.216114	58.0	37.4	-69.0	3.4
2026-01-28 06:36:06.460721	58.7	37.8	-67.8	4.6
2026-01-28 06:36:08.707279	59.5	38.1	-68.6	2.2
2026-01-28 06:36:10.954383	60.3	38.5	-67.7	3.4
2026-01-28 06:36:13.201199	61.1	38.8	-67.8	2.1
2026-01-28 06:36:15.447837	61.9	39.2	-69.0	5.1
2026-01-28 06:36:17.696308	62.8	39.5	-68.7	3.2
2026-01-28 06:36:19.942376	63.6	39.8	-69.3	4.5
2026-01-28 06:36:22.187370	64.5	40.2	-69.8	2.9
2026-01-28 06:36:24.429575	65.4	40.5	-68.2	2.5
2026-01-28 06:36:26.677336	66.3	40.8	-68.7	3.0
2026-01-28 06:36:28.923643	67.2	41.1	-68.4	2.7
2026-01-28 06:36:31.168783	68.2	41.4	-68.3	2.4
2026-01-28 06:36:33.413357	69.1	41.7	-68.4	4.2
2026-01-28 06:36:35.661859	70.1	42.0	-67.5	2.7
2026-01-28 06:36:37.903658	71.1	42.3	-68.7	3.8
2026-01-28 06:36:40.150711	72.1	42.6	-69.0	3.8
2026-01-28 06:36:42.395688	73.2	42.9	-67.8	0.0
2026-01-28 06:36:44.643601	74.2	43.2	-67.9	4.9
2026-01-28 06:36:46.887686	75.3	43.4	-67.9	1.6
2026-01-28 06:36:49.136294	76.4	43.7	-68.7	4.0
2026-01-28 06:36:51.377360	77.5	43.9	-68.8	5.4
2026-01-28 06:36:53.623204	78.6	44.1	-67.7	3.1
2026-01-28 06:36:55.871711	79.7	44.4	-67.3	0.0
2026-01-28 06:36:58.122008	80.9	44.6	-68.7	1.5
2026-01-28 06:37:00.365948	82.1	44.8	-69.4	4.8
2026-01-28 06:37:02.609717	83.2	45.0	-69.0	5.8
2026-01-28 06:37:04.857567	84.4	45.1	-68.3	2.7
2026-01-28 06:37:07.108814	85.6	45.3	-67.5	1.3
2026-01-28 06:37:09.350412	86.9	45.4	-69.1	6.2
2026-01-28 06:37:11.597776	88.1	45.6	-68.2	4.7
2026-01-28 06:37:13.840351	89.3	45.7	-69.2	3.2
2026-01-28 06:37:16.084689	90.6	45.8	-70.2	6.2
2026-01-28 06:37:18.333007	91.8	45.9	-69.7	4.9
2026-01-28 06:37:20.581936	93.1	45.9	-69.3	3.3
2026-01-28 06:37:22.829074	94.4	46.0	-68.3	1.3
2026-01-28 06:37:25.075879	95.6	46.0	-69.3	5.3
2026-01-28 06:37:27.323222	96.9	46.1	-68.9	3.6
2026-01-28 06:37:29.566591	98.2	46.1	-67.5	3.5
2026-01-28 06:37:31.809747	99.5	46.1	-68.1	3.6
2026-01-28 06:37:34.057416	100.7	46.1	-68.1	3.8
2026-01-28 06:37:36.302395	102.0	46.0	-68.5	6.6
2026-01-28 06:37:38.550478	103.3	46.0	-65.3	0.0
2026-01-28 06:37:40.796100	104.5	45.9	-69.3	5.1
2026-01-28 06:37:43.040447	105.8	45.9	-68.1	4.1
2026-01-28 06:37:45.285517	107.1	45.8	-67.6	4.2
2026-01-28 06:37:47.533648	108.3	45.7	-68.1	5.1
2026-01-28 06:37:49.781824	109.5	45.5	-69.0	6.8
2026-01-28 06:37:52.028744	110.8	45.4	-70.0	6.1
2026-01-28 06:37:54.275910	112.0	45.3	-70.7	4.7
2026-01-28 06:37:56.522633	113.2	45.1	-69.8	4.8
2026-01-28 06:37:58.766738	114.4	44.9	-69.8	5.6
2026-01-28 06:38:01.013113	115.6	44.7	-70.2	3.7
2026-01-28 06:38:03.259122	116.7	44.5	-70.1	2.7
2026-01-28 06:38:05.504163	117.9	44.3	-70.1	5.6
2026-01-28 06:38:07.748539	119.0	44.1	-70.1	6.9
2026-01-28 06:38:09.992016	120.1	43.9	-70.4	5.6
2026-01-28 06:38:12.239755	121.2	43.6	-71.0	7.1
2026-01-28 06:38:14.484606	122.3	43.4	-71.1	8.6
2026-01-28 06:38:16.728995	123.4	43.1	-71.1	8.8
2026-01-28 06:38:18.976040	124.4	42.8	-71.2	8.1
2026-01-28 06:38:21.220945	125.5	42.6	-71.3	9.1
2026-01-28 06:38:23.463173	126.5	42.3	-69.7	5.9
2026-01-28 06:38:25.706917	127.5	42.0	-70.9	8.5
2026-01-28 06:38:27.951999	128.5	41.7	-71.4	7.7
2026-01-28 06:38:30.198762	129.4	41.4	-71.2	7.6
2026-01-28 06:38:32.442979	130.4	41.1	-71.5	4.9
2026-01-28 06:38:34.686794	131.3	40.7	-72.2	8.5
2026-01-28 06:38:36.931472	132.2	40.4	-72.1	6.2
2026-01-28 06:38:39.177001	133.1	40.1	-72.0	7.3
2026-01-28 06:38:41.422159	134.0	39.8	-72.3	8.5
2026-01-28 06:38:43.669496	134.8	39.4	-71.6	5.8
2026-01-28 06:38:45.912103	135.7	39.1	-72.4	6.6
2026-01-28 06:38:48.154668	136.5	38.7	-72.5	8.4
2026-01-28 06:38:50.397591	137.3	38.4	-72.1	8.4
2026-01-28 06:38:52.639072	138.1	38.0	-72.1	9.4
2026-01-28 06:38:54.883113	138.9	37.7	-71.9	8.5
2026-01-28 06:38:57.128065	139.6	37.3	-72.1	9.0
2026-01-28 06:38:59.372044	140.3	37.0	-71.4	8.7
2026-01-28 06:39:01.617259	141.1	36.6	-72.0	8.6
2026-01-28 06:39:03.858054	141.8	36.3	-71.6	8.5
2026-01-28 06:39:06.105088	142.5	35.9	-71.9	8.7
2026-01-28 06:39:08.347703	143.1	35.6	-72.0	8.6
2026-01-28 06:39:10.590939	143.8	35.2	-72.1	8.3
2026-01-28 06:39:12.836519	144.4	34.8	-72.0	7.7
2026-01-28 06:39:15.083300	145.1	34.5	-71.7	6.9
2026-01-28 06:39:17.330334	145.7	34.1	-72.2	8.8
2026-01-28 06:39:19.573172	146.3	33.8	-71.2	6.2
2026-01-28 06:39:21.820527	146.9	33.4	-72.6	9.1
2026-01-28 06:39:24.064036	147.5	33.0	-72.8	8.8
2026-01-28 06:39:26.310011	148.1	32.7	-72.2	9.2
2026-01-28 06:39:28.552088	148.6	32.3	-72.6	8.2
2026-01-28 06:39:30.799284	149.2	32.0	-72.3	7.2
2026-01-28 06:39:33.042763	149.7	31.6	-73.0	8.6
2026-01-28 06:39:35.289788	150.2	31.3	-72.6	7.8
2026-01-28 06:39:37.535228	150.7	30.9	-72.9	7.4
2026-01-28 06:39:39.784377	151.2	30.6	-72.4	6.6
2026-01-28 06:39:42.034075	151.7	30.2	-71.9	6.0
2026-01-28 06:39:44.281854	152.2	29.9	-72.7	7.8
2026-01-28 06:39:46.526577	152.7	29.6	-72.5	7.9
2026-01-28 06:39:48.772698	153.1	29.2	-71.3	4.7
2026-01-28 06:39:51.018870	153.6	28.9	-72.8	8.7
2026-01-28 06:39:53.263668	154.0	28.6	-71.9	6.4
2026-01-28 06:39:55.507111	154.5	28.2	-72.9	7.9
2026-01-28 06:39:57.751620	154.9	27.9	-72.2	6.7
2026-01-28 06:39:59.994968	155.3	27.6	-72.4	5.0
2026-01-28 06:40:02.236003	155.7	27.2	-71.3	3.8
2026-01-28 06:40:04.479766	156.1	26.9	-72.1	3.7
2026-01-28 06:40:06.723585	156.5	26.6	-70.7	3.2
2026-01-28 06:40:08.967612	156.9	26.3	-72.4	6.2
2026-01-28 06:40:11.213252	157.3	26.0	-71.6	1.9
2026-01-28 06:40:13.458151	157.6	25.7	-72.4	6.1
2026-01-28 06:40:15.702053	158.0	25.3	-72.2	5.7
2026-01-28 06:40:17.945517	158.4	25.0	-72.9	6.5
2026-01-28 06:40:20.187133	158.7	24.7	-72.3	6.2
2026-01-28 06:40:22.430134	159.1	24.4	-72.6	4.9
2026-01-28 06:40:24.672906	159.4	24.1	-71.4	3.8
2026-01-28 06:40:26.915928	159.7	23.8	-72.5	7.1
2026-01-28 06:40:29.162820	160.1	23.5	-72.0	6.1
2026-01-28 06:40:31.406813	160.4	23.2	-72.2	4.4
2026-01-28 06:40:33.650975	160.7	23.0	-72.6	4.9
2026-01-28 06:40:35.899044	161.0	22.7	-71.9	4.5
2026-01-28 06:40:38.148044	161.3	22.4	-71.6	4.3
2026-01-28 06:40:40.392465	161.6	22.1	-71.3	5.1
2026-01-28 06:40:42.637718	161.9	21.8	-71.3	2.5
2026-01-28 06:40:44.885049	162.2	21.5	-71.4	3.7
2026-01-28 06:40:47.130097	162.4	21.3	-72.1	1.8
2026-01-28 06:40:49.376509	162.7	21.0	-71.5	0.4
2026-01-28 06:40:51.623387	163.0	20.7	-71.2	0.0
2026-01-28 06:40:53.871559	163.3	20.4	-71.6	2.7
2026-01-28 06:40:56.114542	163.5	20.2	-71.8	1.9
2026-01-28 06:40:58.362007	163.8	19.9	-71.9	1.0
2026-01-28 06:41:00.606010	164.0	19.6	-71.7	2.2
2026-01-28 06:41:02.853703	164.3	19.4	-71.3	3.6
2026-01-28 06:41:05.100180	164.5	19.1	-71.7	3.0
2026-01-28 06:41:07.343431	164.8	18.9	-71.4	1.1
2026-01-28 06:41:09.592094	165.0	18.6	-71.3	1.5
2026-01-28 06:41:11.834515	165.3	18.4	-71.8	0.1
2026-01-28 06:41:14.080175	165.5	18.1	-72.0	0.0
2026-01-28 06:41:16.327212	165.7	17.9	-72.3	1.7
2026-01-28 06:41:18.572765	165.9	17.6	-71.7	1.0
2026-01-28 06:41:20.817189	166.2	17.4	-71.5	1.1
2026-01-28 06:41:23.064384	166.4	17.1	-72.3	2.0
2026-01-28 06:41:25.308952	166.6	16.9	-72.3	1.5
2026-01-28 06:41:27.551572	166.8	16.7	-72.0	0.0
2026-01-28 06:41:29.797774	167.0	16.4	-72.6	1.9
2026-01-28 06:41:32.042086	167.2	16.2	-72.6	0.2
2026-01-28 06:41:34.287939	167.4	16.0	-72.8	2.0
2026-01-28 06:41:36.532128	167.6	15.7	-72.6	1.1
2026-01-28 06:41:38.777482	167.8	15.5	-73.1	3.9
2026-01-28 06:41:41.020332	168.0	15.3	-73.3	3.0
2026-01-28 06:41:43.265784	168.2	15.1	-73.7	1.8
2026-01-28 06:41:45.512548	168.4	14.8	-73.6	3.5
2026-01-28 06:41:47.759281	168.6	14.6	-74.3	3.1
2026-01-28 06:41:50.004722	168.7	14.4	-74.0	3.5
2026-01-28 06:41:52.249052	168.9	14.2	-74.3	4.3
2026-01-28 06:41:54.493009	169.1	14.0	-73.7	2.2
2026-01-28 06:41:56.738130	169.3	13.7	-73.4	1.6
2026-01-28 06:41:58.984043	169.4	13.5	-74.3	3.1
2026-01-28 06:42:01.232444	169.6	13.3	-73.7	1.3
2026-01-28 06:42:03.475037	169.8	13.1	-74.2	3.9
2026-01-28 06:42:05.720662	169.9	12.9	-74.0	2.8
2026-01-28 06:42:07.963944	170.1	12.7	-73.7	1.3
2026-01-28 06:42:10.208729	170.3	12.5	-73.5	0.8
2026-01-28 06:42:12.456625	170.4	12.3	-73.0	2.3
2026-01-28 06:42:14.703008	170.6	12.1	-72.8	0.0
2026-01-28 06:42:16.947916	170.7	11.9	-72.9	0.0
2026-01-28 06:42:19.193153	170.9	11.7	-72.8	0.5
2026-01-28 06:42:21.436965	171.0	11.5	-73.5	0.2
2026-01-28 06:42:23.683786	171.2	11.3	-73.4	0.0
2026-01-28 06:42:25.927257	171.3	11.1	-73.0	0.0
2026-01-28 06:42:28.170933	171.5	10.9	-74.5	0.5
2026-01-28 06:42:30.415443	171.6	10.7	-71.8	0.0
2026-01-28 06:42:32.660230	171.8	10.5	-72.1	0.0
2026-01-28 06:42:34.905114	171.9	10.3	-74.9	0.0
2026-01-28 06:42:37.149844	172.0	10.2	-79.7	0.0
#Closed at: 2026-01-28 06:32:14.757877