passes_logs/2026/01/28/planumMaritime01/planumMaritime01__20260128_235527_METEOR-M2_4_rec.log

#Pass ID: 20260128_235527_METEOR-M2 4
#Satellite: METEOR-M2 4
#Configuration: METEOR-M2 4
#Start time: 2026-01-28 23:55:32.057772

#LorettStation: 1.0.0 05.05.2024
#Station: planumMaritime01
#Location: 37.49445 lon 55.92918 lat
#TLE: 1 59051U 24039A   26027.63926554  .00000085  00000+0  57649-4 0  9992
#TLE: 2 59051  98.6833 348.8441 0006401 209.4311 150.6507 14.22410223 99285

#Time	Az	El	Level	SNR
2026-01-28 23:55:34.226208	31.5	10.2	-81.3	0.0
2026-01-28 23:55:36.473905	31.7	10.3	-81.0	0.0
2026-01-28 23:55:38.721046	32.0	10.5	-79.4	0.0
2026-01-28 23:55:40.969821	32.2	10.7	-74.0	0.0
2026-01-28 23:55:43.215537	32.4	10.8	-69.8	0.0
2026-01-28 23:55:45.460459	32.6	11.0	-69.5	0.0
2026-01-28 23:55:47.708577	32.8	11.2	-70.6	0.0
2026-01-28 23:55:49.955701	33.1	11.4	-69.8	0.0
2026-01-28 23:55:52.204998	33.3	11.5	-70.3	0.0
2026-01-28 23:55:54.453776	33.5	11.7	-67.7	0.0
2026-01-28 23:55:56.700029	33.8	11.9	-70.6	0.0
2026-01-28 23:55:58.951914	34.0	12.1	-67.8	0.0
2026-01-28 23:56:01.199620	34.3	12.2	-70.6	0.0
2026-01-28 23:56:03.447455	34.5	12.4	-70.6	0.0
2026-01-28 23:56:05.691179	34.7	12.6	-69.6	0.0
2026-01-28 23:56:07.936978	35.0	12.8	-71.0	0.0
2026-01-28 23:56:10.188288	35.3	12.9	-71.7	0.0
2026-01-28 23:56:12.435512	35.5	13.1	-70.9	0.0
2026-01-28 23:56:14.685968	35.8	13.3	-68.4	0.0
2026-01-28 23:56:16.934733	36.0	13.5	-72.7	0.0
2026-01-28 23:56:19.183704	36.3	13.7	-72.3	0.0
2026-01-28 23:56:21.431658	36.6	13.9	-68.3	0.0
2026-01-28 23:56:23.679790	36.8	14.0	-73.1	0.0
2026-01-28 23:56:25.924610	37.1	14.2	-71.7	0.0
2026-01-28 23:56:28.174907	37.4	14.4	-72.5	0.0
2026-01-28 23:56:30.421725	37.7	14.6	-72.6	0.0
2026-01-28 23:56:32.671440	38.0	14.8	-72.0	0.0
2026-01-28 23:56:34.918841	38.3	15.0	-72.9	0.0
2026-01-28 23:56:37.167060	38.5	15.2	-72.9	0.0
2026-01-28 23:56:39.417133	38.8	15.4	-73.8	0.0
2026-01-28 23:56:41.664511	39.1	15.6	-70.3	0.0
2026-01-28 23:56:43.912982	39.4	15.8	-74.4	0.0
2026-01-28 23:56:46.161911	39.8	15.9	-72.6	0.0
2026-01-28 23:56:48.409335	40.1	16.1	-73.0	0.0
2026-01-28 23:56:50.654732	40.4	16.3	-71.6	0.0
2026-01-28 23:56:52.903331	40.7	16.5	-74.4	0.7
2026-01-28 23:56:55.149730	41.0	16.7	-74.7	0.0
2026-01-28 23:56:57.397515	41.4	16.9	-73.0	0.5
2026-01-28 23:56:59.643599	41.7	17.1	-72.7	0.0
2026-01-28 23:57:01.892528	42.0	17.3	-75.4	3.5
2026-01-28 23:57:04.137195	42.4	17.5	-75.1	0.9
2026-01-28 23:57:06.387568	42.7	17.7	-75.2	0.0
2026-01-28 23:57:08.633763	43.1	17.9	-73.8	0.3
2026-01-28 23:57:10.881712	43.4	18.1	-73.8	0.0
2026-01-28 23:57:13.132799	43.8	18.3	-75.4	3.3
2026-01-28 23:57:15.379704	44.1	18.5	-74.3	0.1
2026-01-28 23:57:17.629420	44.5	18.7	-74.5	1.3
2026-01-28 23:57:19.878826	44.9	18.9	-74.8	0.3
2026-01-28 23:57:22.125711	45.3	19.2	-74.1	3.8
2026-01-28 23:57:24.374439	45.7	19.4	-75.5	6.0
2026-01-28 23:57:26.619492	46.0	19.6	-75.1	1.9
2026-01-28 23:57:28.866173	46.4	19.8	-74.7	3.6
2026-01-28 23:57:31.113462	46.8	20.0	-75.1	2.2
2026-01-28 23:57:33.363466	47.2	20.2	-75.5	6.2
2026-01-28 23:57:35.613736	47.7	20.4	-75.1	2.9
2026-01-28 23:57:37.862122	48.1	20.6	-74.6	6.1
2026-01-28 23:57:40.106806	48.5	20.8	-76.0	4.6
2026-01-28 23:57:42.354410	48.9	21.0	-75.6	4.8
2026-01-28 23:57:44.603544	49.3	21.2	-77.1	7.0
2026-01-28 23:57:46.853797	49.8	21.4	-74.6	3.7
2026-01-28 23:57:49.102026	50.2	21.6	-75.7	6.3
2026-01-28 23:57:51.349518	50.7	21.8	-76.5	4.3
2026-01-28 23:57:53.598448	51.1	22.1	-76.2	7.8
2026-01-28 23:57:55.847135	51.6	22.3	-74.5	3.9
2026-01-28 23:57:58.096810	52.1	22.5	-76.8	8.1
2026-01-28 23:58:00.343109	52.5	22.7	-75.8	5.5
2026-01-28 23:58:02.592081	53.0	22.9	-75.9	4.3
2026-01-28 23:58:04.839963	53.5	23.1	-76.1	6.8
2026-01-28 23:58:07.086119	54.0	23.3	-75.4	5.7
2026-01-28 23:58:09.334841	54.5	23.5	-76.1	8.9
2026-01-28 23:58:11.581731	55.0	23.7	-75.9	9.0
2026-01-28 23:58:13.832704	55.5	23.9	-76.9	8.9
2026-01-28 23:58:16.079705	56.1	24.1	-76.8	8.2
2026-01-28 23:58:18.326527	56.6	24.3	-76.9	9.5
2026-01-28 23:58:20.571892	57.1	24.5	-74.9	4.9
2026-01-28 23:58:22.821797	57.7	24.7	-76.1	6.8
2026-01-28 23:58:25.069993	58.2	24.9	-77.0	9.9
2026-01-28 23:58:27.320478	58.8	25.1	-77.2	9.5
2026-01-28 23:58:29.567067	59.3	25.3	-77.1	10.5
2026-01-28 23:58:31.815692	59.9	25.5	-77.3	9.6
2026-01-28 23:58:34.061383	60.5	25.7	-77.1	9.7
2026-01-28 23:58:36.311742	61.0	25.9	-76.6	8.9
2026-01-28 23:58:38.558288	61.6	26.1	-77.5	10.4
2026-01-28 23:58:40.807826	62.2	26.3	-76.2	10.1
2026-01-28 23:58:43.055123	62.8	26.5	-76.7	8.1
2026-01-28 23:58:45.304469	63.4	26.7	-76.8	10.9
2026-01-28 23:58:47.549473	64.1	26.9	-77.0	9.0
2026-01-28 23:58:49.798741	64.7	27.0	-77.4	10.6
2026-01-28 23:58:52.047542	65.3	27.2	-76.7	10.2
2026-01-28 23:58:54.296751	66.0	27.4	-77.0	10.8
2026-01-28 23:58:56.545771	66.6	27.6	-77.0	9.4
2026-01-28 23:58:58.791501	67.3	27.7	-77.2	10.3
2026-01-28 23:59:01.040104	67.9	27.9	-77.2	12.5
2026-01-28 23:59:03.289422	68.6	28.1	-77.0	10.8
2026-01-28 23:59:05.537442	69.3	28.2	-77.3	12.5
2026-01-28 23:59:07.786112	69.9	28.4	-77.1	9.5
2026-01-28 23:59:10.032915	70.6	28.6	-77.3	12.3
2026-01-28 23:59:12.282175	71.3	28.7	-76.8	10.7
2026-01-28 23:59:14.530962	72.0	28.9	-77.6	12.6
2026-01-28 23:59:16.777361	72.7	29.0	-77.2	10.9
2026-01-28 23:59:19.023491	73.4	29.1	-77.3	12.0
2026-01-28 23:59:21.272128	74.2	29.3	-77.3	12.5
2026-01-28 23:59:23.522897	74.9	29.4	-77.4	12.9
2026-01-28 23:59:25.769970	75.6	29.5	-77.2	11.4
2026-01-28 23:59:28.020179	76.3	29.7	-77.4	11.6
2026-01-28 23:59:30.265105	77.1	29.8	-77.1	12.3
2026-01-28 23:59:32.516737	77.8	29.9	-77.0	10.6
2026-01-28 23:59:34.763569	78.6	30.0	-76.9	10.7
2026-01-28 23:59:37.013603	79.3	30.1	-77.4	10.5
2026-01-28 23:59:39.263990	80.1	30.2	-77.6	12.0
2026-01-28 23:59:41.512400	80.9	30.3	-77.0	10.7
2026-01-28 23:59:43.758273	81.6	30.4	-77.6	12.1
2026-01-28 23:59:46.004978	82.4	30.5	-77.2	12.4
2026-01-28 23:59:48.252364	83.2	30.6	-77.0	10.4
2026-01-28 23:59:50.503459	84.0	30.6	-77.4	12.2
2026-01-28 23:59:52.751821	84.8	30.7	-77.7	12.7
2026-01-28 23:59:55.001983	85.6	30.8	-77.8	12.4
2026-01-28 23:59:57.248231	86.4	30.8	-78.1	12.4
2026-01-28 23:59:59.495844	87.2	30.9	-77.3	10.3
2026-01-29 00:00:01.742937	88.0	30.9	-78.0	11.8
2026-01-29 00:00:03.990044	88.8	31.0	-77.9	12.2
2026-01-29 00:00:06.239713	89.6	31.0	-78.0	12.1
2026-01-29 00:00:08.487674	90.4	31.0	-77.8	12.8
2026-01-29 00:00:10.735238	91.2	31.0	-78.0	12.7
2026-01-29 00:00:12.985036	92.0	31.0	-77.9	12.6
2026-01-29 00:00:15.233843	92.8	31.1	-77.9	12.7
2026-01-29 00:00:17.486082	93.6	31.1	-78.0	12.6
2026-01-29 00:00:19.735373	94.4	31.1	-77.4	11.4
2026-01-29 00:00:21.981737	95.2	31.0	-77.8	11.8
2026-01-29 00:00:24.228196	96.0	31.0	-77.8	12.6
2026-01-29 00:00:26.475225	96.8	31.0	-78.1	13.0
2026-01-29 00:00:28.721941	97.6	31.0	-78.2	13.0
2026-01-29 00:00:30.967939	98.4	30.9	-78.2	13.5
2026-01-29 00:00:33.218018	99.2	30.9	-78.0	12.4
2026-01-29 00:00:35.467489	100.0	30.9	-78.1	12.3
2026-01-29 00:00:37.715328	100.8	30.8	-77.9	11.3
2026-01-29 00:00:39.965833	101.6	30.7	-78.0	13.4
2026-01-29 00:00:42.217373	102.4	30.7	-78.0	12.8
2026-01-29 00:00:44.464801	103.2	30.6	-77.7	14.1
2026-01-29 00:00:46.715361	104.0	30.5	-77.9	13.9
2026-01-29 00:00:48.964896	104.7	30.5	-77.6	13.7
2026-01-29 00:00:51.213934	105.5	30.4	-77.9	14.1
2026-01-29 00:00:53.461944	106.3	30.3	-78.0	13.9
2026-01-29 00:00:55.710882	107.1	30.2	-77.8	13.2
2026-01-29 00:00:57.959951	107.8	30.1	-77.9	14.0
2026-01-29 00:01:00.211953	108.6	30.0	-78.1	13.7
2026-01-29 00:01:02.464184	109.3	29.9	-78.0	13.1
2026-01-29 00:01:04.712392	110.1	29.7	-78.4	14.2
2026-01-29 00:01:06.961924	110.8	29.6	-78.4	12.7
2026-01-29 00:01:09.211513	111.6	29.5	-78.3	14.0
2026-01-29 00:01:11.459318	112.3	29.4	-78.2	12.5
2026-01-29 00:01:13.708955	113.0	29.2	-78.3	14.1
2026-01-29 00:01:15.957471	113.7	29.1	-78.3	13.5
2026-01-29 00:01:18.208668	114.5	28.9	-78.0	12.6
2026-01-29 00:01:20.455100	115.2	28.8	-78.1	13.2
2026-01-29 00:01:22.704555	115.9	28.6	-78.2	13.9
2026-01-29 00:01:24.953148	116.6	28.5	-78.5	13.5
2026-01-29 00:01:27.205577	117.2	28.3	-78.6	14.0
2026-01-29 00:01:29.454064	117.9	28.2	-78.5	13.7
2026-01-29 00:01:31.707145	118.6	28.0	-78.4	13.0
2026-01-29 00:01:33.954298	119.3	27.8	-78.4	12.8
2026-01-29 00:01:36.205614	119.9	27.7	-78.3	13.5
2026-01-29 00:01:38.454453	120.6	27.5	-78.4	13.2
2026-01-29 00:01:40.704886	121.2	27.3	-78.3	14.3
2026-01-29 00:01:42.955700	121.9	27.1	-78.3	13.2
2026-01-29 00:01:45.209736	122.5	26.9	-78.5	13.1
2026-01-29 00:01:47.460175	123.1	26.8	-78.6	13.1
2026-01-29 00:01:49.709461	123.8	26.6	-78.7	14.0
2026-01-29 00:01:51.958559	124.4	26.4	-78.8	13.3
2026-01-29 00:01:54.207173	125.0	26.2	-79.1	12.4
2026-01-29 00:01:56.453004	125.6	26.0	-78.9	13.3
2026-01-29 00:01:58.703778	126.2	25.8	-78.8	13.6
2026-01-29 00:02:00.950913	126.7	25.6	-78.6	12.9
2026-01-29 00:02:03.197306	127.3	25.4	-78.8	11.3
2026-01-29 00:02:05.446750	127.9	25.2	-79.1	12.3
2026-01-29 00:02:07.693193	128.4	25.0	-79.2	13.8
2026-01-29 00:02:09.940945	129.0	24.8	-78.9	12.8
2026-01-29 00:02:12.189025	129.5	24.6	-78.6	12.4
2026-01-29 00:02:14.437522	130.1	24.4	-79.2	13.1
2026-01-29 00:02:16.685907	130.6	24.2	-78.6	12.3
2026-01-29 00:02:18.933737	131.1	24.0	-78.5	13.4
2026-01-29 00:02:21.182646	131.7	23.8	-79.1	12.2
2026-01-29 00:02:23.427509	132.2	23.6	-78.8	12.0
2026-01-29 00:02:25.676859	132.7	23.4	-78.6	10.3
2026-01-29 00:02:27.924956	133.2	23.2	-78.7	12.6
2026-01-29 00:02:30.172993	133.7	22.9	-78.6	12.4
2026-01-29 00:02:32.424513	134.2	22.7	-78.7	13.1
2026-01-29 00:02:34.675957	134.6	22.5	-78.1	12.2
2026-01-29 00:02:36.925600	135.1	22.3	-78.3	13.7
2026-01-29 00:02:39.173924	135.6	22.1	-78.2	12.7
2026-01-29 00:02:41.421506	136.1	21.9	-78.6	13.2
2026-01-29 00:02:43.670902	136.5	21.7	-78.7	12.8
2026-01-29 00:02:45.921867	137.0	21.5	-78.4	12.5
2026-01-29 00:02:48.171859	137.4	21.3	-78.5	12.8
2026-01-29 00:02:50.418785	137.8	21.1	-78.8	13.6
2026-01-29 00:02:52.669382	138.3	20.8	-78.7	12.0
2026-01-29 00:02:54.918783	138.7	20.6	-78.3	11.9
2026-01-29 00:02:57.166000	139.1	20.4	-78.4	12.1
2026-01-29 00:02:59.417887	139.5	20.2	-78.6	13.1
2026-01-29 00:03:01.666193	140.0	20.0	-78.3	12.6
2026-01-29 00:03:03.914139	140.4	19.8	-78.4	11.5
2026-01-29 00:03:06.158122	140.8	19.6	-78.4	13.0
2026-01-29 00:03:08.407808	141.1	19.4	-78.4	13.9
2026-01-29 00:03:10.659408	141.5	19.2	-78.4	13.3
2026-01-29 00:03:12.908195	141.9	19.0	-78.8	12.3
2026-01-29 00:03:15.158544	142.3	18.8	-78.5	12.5
2026-01-29 00:03:17.406064	142.7	18.5	-78.3	11.4
2026-01-29 00:03:19.652908	143.0	18.3	-78.9	12.4
2026-01-29 00:03:21.904517	143.4	18.1	-78.7	12.2
2026-01-29 00:03:24.154804	143.8	17.9	-78.9	12.8
2026-01-29 00:03:26.402634	144.1	17.7	-78.8	11.8
2026-01-29 00:03:28.652131	144.5	17.5	-79.3	12.3
2026-01-29 00:03:30.900732	144.8	17.3	-78.9	12.1
2026-01-29 00:03:33.149916	145.2	17.1	-78.8	11.7
2026-01-29 00:03:35.395624	145.5	16.9	-78.9	11.4
2026-01-29 00:03:37.643203	145.8	16.7	-79.2	11.2
2026-01-29 00:03:39.643804	146.1	16.5	-79.6	12.0
2026-01-29 00:03:41.890738	146.4	16.3	-79.5	11.9
2026-01-29 00:03:44.137838	146.8	16.1	-79.4	11.8
2026-01-29 00:03:46.388796	147.1	15.9	-79.4	11.5
2026-01-29 00:03:48.637659	147.4	15.7	-79.6	11.8
2026-01-29 00:03:50.887820	147.7	15.5	-78.7	8.3
2026-01-29 00:03:53.136873	148.0	15.4	-79.1	10.6
2026-01-29 00:03:55.387699	148.3	15.2	-79.1	10.7
2026-01-29 00:03:57.639629	148.6	15.0	-79.4	11.8
2026-01-29 00:03:59.885772	148.9	14.8	-79.4	11.5
2026-01-29 00:04:02.136050	149.2	14.6	-79.5	11.7
2026-01-29 00:04:04.386918	149.5	14.4	-79.0	12.2
2026-01-29 00:04:06.633826	149.7	14.2	-78.9	10.6
2026-01-29 00:04:08.879815	150.0	14.0	-78.9	11.7
2026-01-29 00:04:11.130811	150.3	13.8	-79.4	11.7
2026-01-29 00:04:13.377614	150.6	13.6	-79.4	12.4
2026-01-29 00:04:15.624204	150.8	13.5	-79.1	11.3
2026-01-29 00:04:17.872582	151.1	13.3	-78.6	7.9
2026-01-29 00:04:20.121084	151.4	13.1	-78.9	8.1
2026-01-29 00:04:22.368752	151.6	12.9	-79.5	11.7
2026-01-29 00:04:24.621684	151.9	12.7	-79.8	11.9
2026-01-29 00:04:26.867611	152.1	12.5	-79.7	11.2
2026-01-29 00:04:29.111862	152.4	12.4	-79.3	9.5
2026-01-29 00:04:31.360967	152.6	12.2	-79.3	10.3
2026-01-29 00:04:33.614953	152.9	12.0	-79.6	11.1
2026-01-29 00:04:35.862473	153.1	11.8	-79.6	9.0
2026-01-29 00:04:38.111315	153.4	11.6	-79.3	10.5
2026-01-29 00:04:40.360445	153.6	11.5	-79.6	9.3
2026-01-29 00:04:42.609507	153.8	11.3	-79.8	9.0
2026-01-29 00:04:44.854372	154.0	11.1	-80.1	7.5
2026-01-29 00:04:47.101369	154.3	10.9	-79.5	8.1
2026-01-29 00:04:49.349493	154.5	10.8	-81.8	6.9
2026-01-29 00:04:51.594782	154.7	10.6	-83.9	0.0
2026-01-29 00:04:53.846211	154.9	10.4	-85.2	0.0
2026-01-29 00:04:56.094712	155.2	10.2	-85.1	0.0
2026-01-29 00:04:58.342178	155.4	10.1	-85.9	0.0
#Closed at: 2026-01-28 23:55:27.063373