passes_logs/2026/01/28/planumMaritime01/planumMaritime01__20260128_180219_METOP-B_rec.log

#Pass ID: 20260128_180219_METOP-B
#Satellite: METOP-B
#Configuration: METOP-B
#Start time: 2026-01-28 18:02:24.875890

#LorettStation: 1.0.0 05.05.2024
#Station: planumMaritime01
#Location: 37.49445 lon 55.92918 lat
#TLE: 1 38771U 12049A   26027.75897957  .00000194  00000+0  10857-3 0  9993
#TLE: 2 38771  98.6728  81.9227 0002898  50.5582 309.5851 14.21429617693319

#Time	Az	El	Level	SNR
2026-01-28 18:02:27.040883	179.3	10.2	-71.8	0.0
2026-01-28 18:02:29.286332	179.4	10.4	-71.3	0.0
2026-01-28 18:02:31.531591	179.5	10.6	-70.8	0.0
2026-01-28 18:02:33.775905	179.6	10.8	-69.5	0.0
2026-01-28 18:02:36.020551	179.7	11.0	-70.2	0.0
2026-01-28 18:02:38.268457	179.8	11.2	-69.8	0.0
2026-01-28 18:02:40.516057	179.9	11.4	-69.7	0.0
2026-01-28 18:02:42.760836	180.0	11.6	-70.5	0.0
2026-01-28 18:02:45.006683	180.1	11.8	-70.4	0.0
2026-01-28 18:02:47.252717	180.3	12.0	-68.3	0.0
2026-01-28 18:02:49.497128	180.4	12.2	-70.6	0.0
2026-01-28 18:02:51.742700	180.5	12.4	-70.8	0.0
2026-01-28 18:02:53.987465	180.6	12.6	-71.0	0.0
2026-01-28 18:02:56.229248	180.7	12.8	-70.9	0.0
2026-01-28 18:02:58.473233	180.8	13.0	-69.9	0.0
2026-01-28 18:03:00.715787	180.9	13.3	-70.6	0.0
2026-01-28 18:03:02.963255	181.0	13.5	-70.5	0.0
2026-01-28 18:03:05.208712	181.2	13.7	-70.6	0.0
2026-01-28 18:03:07.452348	181.3	13.9	-70.4	0.0
2026-01-28 18:03:09.696814	181.4	14.1	-70.2	0.0
2026-01-28 18:03:11.943460	181.5	14.4	-69.8	0.0
2026-01-28 18:03:14.188903	181.7	14.6	-69.8	0.0
2026-01-28 18:03:16.432359	181.8	14.8	-69.5	0.0
2026-01-28 18:03:18.677016	181.9	15.1	-69.5	0.0
2026-01-28 18:03:20.922753	182.0	15.3	-69.6	0.0
2026-01-28 18:03:23.168846	182.2	15.5	-69.6	0.0
2026-01-28 18:03:25.417374	182.3	15.8	-69.3	0.0
2026-01-28 18:03:27.662485	182.5	16.0	-69.2	0.0
2026-01-28 18:03:29.909221	182.6	16.3	-68.8	0.0
2026-01-28 18:03:32.151163	182.7	16.5	-68.7	0.0
2026-01-28 18:03:34.397028	182.9	16.8	-69.0	0.0
2026-01-28 18:03:36.641147	183.0	17.0	-69.0	0.0
2026-01-28 18:03:38.895151	183.2	17.3	-68.6	0.0
2026-01-28 18:03:41.137162	183.3	17.5	-68.0	0.0
2026-01-28 18:03:43.381829	183.5	17.8	-68.0	0.0
2026-01-28 18:03:45.624778	183.6	18.0	-68.1	0.0
2026-01-28 18:03:47.870162	183.8	18.3	-68.3	0.0
2026-01-28 18:03:50.116747	184.0	18.6	-68.3	0.0
2026-01-28 18:03:52.362555	184.1	18.8	-68.8	0.0
2026-01-28 18:03:54.607398	184.3	19.1	-67.7	0.0
2026-01-28 18:03:56.854691	184.5	19.4	-68.1	0.0
2026-01-28 18:03:59.101763	184.6	19.7	-68.2	0.0
2026-01-28 18:04:01.349339	184.8	19.9	-68.5	0.0
2026-01-28 18:04:03.593677	185.0	20.2	-68.0	0.0
2026-01-28 18:04:05.837103	185.2	20.5	-68.0	0.0
2026-01-28 18:04:08.082795	185.4	20.8	-67.9	0.0
2026-01-28 18:04:10.324755	185.6	21.1	-67.7	0.0
2026-01-28 18:04:12.569399	185.7	21.4	-68.7	0.0
2026-01-28 18:04:14.811658	185.9	21.7	-68.0	0.0
2026-01-28 18:04:17.058278	186.1	22.0	-68.3	0.0
2026-01-28 18:04:19.303219	186.3	22.3	-68.2	0.0
2026-01-28 18:04:21.544649	186.6	22.6	-67.9	0.0
2026-01-28 18:04:23.792788	186.8	22.9	-68.0	0.0
2026-01-28 18:04:26.035729	187.0	23.2	-68.1	0.0
2026-01-28 18:04:28.281859	187.2	23.5	-68.3	0.0
2026-01-28 18:04:30.527383	187.4	23.9	-67.8	0.0
2026-01-28 18:04:32.775029	187.7	24.2	-68.2	0.0
2026-01-28 18:04:35.017586	187.9	24.5	-68.1	0.0
2026-01-28 18:04:37.262853	188.1	24.9	-68.3	0.0
2026-01-28 18:04:39.508388	188.4	25.2	-69.0	0.0
2026-01-28 18:04:41.755078	188.6	25.5	-68.4	0.0
2026-01-28 18:04:43.997533	188.9	25.9	-68.9	0.0
2026-01-28 18:04:46.243419	189.1	26.2	-69.5	0.0
2026-01-28 18:04:48.487042	189.4	26.6	-68.9	0.0
2026-01-28 18:04:50.730455	189.7	26.9	-69.0	0.0
2026-01-28 18:04:52.974548	189.9	27.3	-69.9	0.0
2026-01-28 18:04:55.219751	190.2	27.7	-68.9	0.0
2026-01-28 18:04:57.465224	190.5	28.0	-69.3	0.0
2026-01-28 18:04:59.709300	190.8	28.4	-69.2	0.0
2026-01-28 18:05:01.954617	191.1	28.8	-69.1	0.0
2026-01-28 18:05:04.199993	191.4	29.2	-69.6	0.0
2026-01-28 18:05:06.446173	191.7	29.6	-69.0	0.0
2026-01-28 18:05:08.692441	192.1	29.9	-69.6	0.0
2026-01-28 18:05:10.937817	192.4	30.3	-70.0	0.0
2026-01-28 18:05:13.181154	192.7	30.7	-70.1	0.0
2026-01-28 18:05:15.423364	193.1	31.1	-70.2	1.3
2026-01-28 18:05:17.669751	193.5	31.6	-70.9	6.2
2026-01-28 18:05:19.913655	193.8	32.0	-70.6	3.0
2026-01-28 18:05:22.160145	194.2	32.4	-71.0	0.0
2026-01-28 18:05:24.403704	194.6	32.8	-71.3	3.3
2026-01-28 18:05:26.650892	195.0	33.2	-71.2	6.5
2026-01-28 18:05:28.895621	195.4	33.7	-71.2	4.0
2026-01-28 18:05:31.138335	195.8	34.1	-71.4	5.3
2026-01-28 18:05:33.381447	196.2	34.5	-71.5	6.9
2026-01-28 18:05:35.624734	196.7	35.0	-71.6	7.4
2026-01-28 18:05:37.870167	197.1	35.4	-71.4	7.2
2026-01-28 18:05:40.115875	197.6	35.9	-71.4	8.4
2026-01-28 18:05:42.360395	198.1	36.4	-72.0	9.2
2026-01-28 18:05:44.607442	198.6	36.8	-72.0	9.3
2026-01-28 18:05:46.852559	199.1	37.3	-71.9	10.6
2026-01-28 18:05:49.099008	199.6	37.8	-72.0	9.4
2026-01-28 18:05:51.344647	200.1	38.2	-72.3	10.5
2026-01-28 18:05:53.589447	200.7	38.7	-72.4	10.9
2026-01-28 18:05:55.839509	201.2	39.2	-72.5	10.8
2026-01-28 18:05:58.083219	201.8	39.7	-72.9	11.6
2026-01-28 18:06:00.327301	202.4	40.2	-73.1	11.3
2026-01-28 18:06:02.575532	203.0	40.7	-73.2	11.5
2026-01-28 18:06:04.819334	203.7	41.2	-73.6	11.0
2026-01-28 18:06:07.059948	204.3	41.7	-73.7	11.8
2026-01-28 18:06:09.306388	205.0	42.2	-73.2	11.0
2026-01-28 18:06:11.549554	205.7	42.7	-73.3	11.6
2026-01-28 18:06:13.795641	206.4	43.2	-73.4	11.8
2026-01-28 18:06:16.038344	207.2	43.7	-73.0	11.6
2026-01-28 18:06:18.285503	207.9	44.2	-72.8	10.7
2026-01-28 18:06:20.530155	208.7	44.7	-72.3	11.1
2026-01-28 18:06:22.775868	209.5	45.2	-72.2	11.6
2026-01-28 18:06:25.022828	210.4	45.7	-72.1	10.6
2026-01-28 18:06:27.264181	211.3	46.2	-72.0	9.3
2026-01-28 18:06:29.509746	212.2	46.8	-72.2	10.6
2026-01-28 18:06:31.754111	213.1	47.3	-72.2	10.9
2026-01-28 18:06:33.999288	214.0	47.8	-72.2	10.5
2026-01-28 18:06:36.246269	215.0	48.3	-72.3	9.7
2026-01-28 18:06:38.489872	216.1	48.8	-72.2	9.6
2026-01-28 18:06:40.732903	217.1	49.3	-72.3	9.9
2026-01-28 18:06:42.978281	218.2	49.8	-72.3	11.3
2026-01-28 18:06:45.222880	219.3	50.2	-72.1	8.5
2026-01-28 18:06:47.467242	220.5	50.7	-72.3	9.5
2026-01-28 18:06:49.714457	221.7	51.2	-72.1	9.3
2026-01-28 18:06:51.958836	222.9	51.7	-72.0	9.4
2026-01-28 18:06:54.205063	224.2	52.1	-72.2	9.5
2026-01-28 18:06:56.450296	225.5	52.6	-72.1	9.2
2026-01-28 18:06:58.692674	226.9	53.0	-72.3	8.9
2026-01-28 18:07:00.941821	228.3	53.4	-72.2	9.8
2026-01-28 18:07:03.187044	229.7	53.8	-72.3	9.9
2026-01-28 18:07:05.432468	231.2	54.2	-72.3	9.3
2026-01-28 18:07:07.679370	232.7	54.6	-72.5	10.4
2026-01-28 18:07:09.923748	234.2	54.9	-72.6	9.5
2026-01-28 18:07:12.168819	235.8	55.3	-72.5	10.5
2026-01-28 18:07:14.417724	237.4	55.6	-72.4	9.8
2026-01-28 18:07:16.661346	239.1	55.9	-72.4	10.7
2026-01-28 18:07:18.907386	240.8	56.1	-72.5	11.1
2026-01-28 18:07:21.150996	242.5	56.4	-72.4	10.5
2026-01-28 18:07:23.398764	244.3	56.6	-72.4	9.9
2026-01-28 18:07:25.639669	246.0	56.8	-72.1	10.1
2026-01-28 18:07:27.887188	247.8	57.0	-72.4	9.7
2026-01-28 18:07:30.130673	249.7	57.1	-72.3	9.6
2026-01-28 18:07:32.380368	251.5	57.2	-72.3	10.3
2026-01-28 18:07:34.623150	253.4	57.3	-72.0	8.4
2026-01-28 18:07:36.868596	255.2	57.4	-72.1	9.8
2026-01-28 18:07:39.112740	257.1	57.4	-71.9	9.7
2026-01-28 18:07:41.361618	259.0	57.4	-71.4	9.7
2026-01-28 18:07:43.610233	260.8	57.4	-71.9	8.6
2026-01-28 18:07:45.853755	262.7	57.4	-71.5	9.1
2026-01-28 18:07:48.096871	264.6	57.3	-71.6	10.4
2026-01-28 18:07:50.340091	266.4	57.2	-71.7	7.7
2026-01-28 18:07:52.584746	268.3	57.1	-71.1	9.0
2026-01-28 18:07:54.828958	270.1	56.9	-71.0	7.4
2026-01-28 18:07:57.074228	271.9	56.7	-71.6	6.2
2026-01-28 18:07:59.319600	273.6	56.5	-71.0	5.4
2026-01-28 18:08:01.567141	275.4	56.2	-70.5	6.6
2026-01-28 18:08:03.811541	277.1	56.0	-70.7	7.0
2026-01-28 18:08:06.057638	278.7	55.7	-70.5	7.4
2026-01-28 18:08:08.303199	280.4	55.4	-70.6	6.0
2026-01-28 18:08:10.548536	282.0	55.1	-71.4	8.7
2026-01-28 18:08:12.791445	283.5	54.7	-71.2	6.7
2026-01-28 18:08:15.035059	285.0	54.4	-70.5	4.1
2026-01-28 18:08:17.279268	286.5	54.0	-69.5	4.8
2026-01-28 18:08:19.522919	288.0	53.6	-70.5	7.0
2026-01-28 18:08:21.766399	289.4	53.2	-69.4	3.5
2026-01-28 18:08:24.010037	290.7	52.8	-69.9	5.9
2026-01-28 18:08:26.252435	292.1	52.3	-70.3	5.8
2026-01-28 18:08:28.497788	293.4	51.9	-69.4	4.8
2026-01-28 18:08:30.742548	294.6	51.4	-69.3	5.3
2026-01-28 18:08:32.986503	295.8	51.0	-71.0	5.9
2026-01-28 18:08:35.233287	297.0	50.5	-68.0	2.1
2026-01-28 18:08:37.482158	298.1	50.0	-69.4	4.7
2026-01-28 18:08:39.726385	299.3	49.5	-70.8	6.5
2026-01-28 18:08:41.971661	300.3	49.0	-71.0	7.0
2026-01-28 18:08:44.215035	301.4	48.5	-69.5	5.4
2026-01-28 18:08:46.461883	302.4	48.0	-72.0	6.6
2026-01-28 18:08:48.708286	303.3	47.5	-71.1	4.4
2026-01-28 18:08:50.951673	304.3	47.0	-70.3	3.7
2026-01-28 18:08:53.196960	305.2	46.5	-71.0	6.4
2026-01-28 18:08:55.444942	306.1	46.0	-69.6	5.6
2026-01-28 18:08:57.690452	306.9	45.5	-68.8	5.8
2026-01-28 18:08:59.934833	307.7	45.0	-70.5	6.1
2026-01-28 18:09:02.183711	308.6	44.5	-70.3	6.6
2026-01-28 18:09:04.425016	309.3	44.0	-70.2	6.2
2026-01-28 18:09:06.670920	310.1	43.5	-70.3	4.2
2026-01-28 18:09:08.917423	310.8	43.0	-69.6	7.0
2026-01-28 18:09:11.162171	311.5	42.5	-69.2	2.7
2026-01-28 18:09:13.406996	312.2	42.0	-69.8	6.3
2026-01-28 18:09:15.651500	312.9	41.5	-69.4	5.8
2026-01-28 18:09:17.895938	313.5	41.0	-69.8	5.8
2026-01-28 18:09:20.142133	314.1	40.5	-70.0	6.2
2026-01-28 18:09:22.388477	314.7	40.0	-70.0	6.4
2026-01-28 18:09:24.633952	315.3	39.5	-69.5	1.6
2026-01-28 18:09:26.881379	315.9	39.0	-69.8	3.2
2026-01-28 18:09:29.125732	316.5	38.5	-69.2	2.2
2026-01-28 18:09:31.372727	317.0	38.1	-68.8	3.7
2026-01-28 18:09:33.616027	317.5	37.6	-67.4	0.0
2026-01-28 18:09:35.864150	318.0	37.1	-67.8	0.0
2026-01-28 18:09:38.109034	318.5	36.7	-67.8	0.0
2026-01-28 18:09:40.353678	319.0	36.2	-68.2	0.9
2026-01-28 18:09:42.598696	319.5	35.7	-68.5	2.7
2026-01-28 18:09:44.843021	320.0	35.3	-68.3	2.1
2026-01-28 18:09:47.088790	320.4	34.8	-68.7	2.1
2026-01-28 18:09:49.332637	320.8	34.4	-67.9	0.0
2026-01-28 18:09:51.578098	321.3	34.0	-67.7	0.0
2026-01-28 18:09:53.826159	321.7	33.5	-67.9	0.0
2026-01-28 18:09:56.069565	322.1	33.1	-68.0	0.0
2026-01-28 18:09:58.316344	322.5	32.7	-68.0	0.0
2026-01-28 18:10:00.561908	322.8	32.3	-68.0	0.0
2026-01-28 18:10:02.807799	323.2	31.9	-67.6	0.0
2026-01-28 18:10:05.052868	323.6	31.4	-67.8	0.0
2026-01-28 18:10:07.298636	323.9	31.0	-67.3	0.0
2026-01-28 18:10:09.543389	324.3	30.6	-66.9	0.0
2026-01-28 18:10:11.788931	324.6	30.2	-64.0	0.0
2026-01-28 18:10:14.031552	324.9	29.9	-65.3	0.0
2026-01-28 18:10:16.276179	325.3	29.5	-66.0	0.0
2026-01-28 18:10:18.516565	325.6	29.1	-63.8	0.0
2026-01-28 18:10:20.762098	325.9	28.7	-64.2	0.0
2026-01-28 18:10:23.009690	326.2	28.3	-60.7	0.0
2026-01-28 18:10:25.257605	326.5	28.0	-64.4	0.0
2026-01-28 18:10:27.503000	326.8	27.6	-64.5	0.0
2026-01-28 18:10:29.748022	327.0	27.2	-65.0	0.0
2026-01-28 18:10:31.995563	327.3	26.9	-65.1	0.0
2026-01-28 18:10:34.240548	327.6	26.5	-64.6	0.0
2026-01-28 18:10:36.489082	327.8	26.2	-66.3	0.0
2026-01-28 18:10:38.731450	328.1	25.8	-65.5	0.0
2026-01-28 18:10:40.974596	328.4	25.5	-63.1	0.0
2026-01-28 18:10:43.217739	328.6	25.2	-63.2	0.0
2026-01-28 18:10:45.460416	328.8	24.8	-67.9	0.0
2026-01-28 18:10:47.703437	329.1	24.5	-65.1	0.0
2026-01-28 18:10:49.948103	329.3	24.2	-62.3	0.0
2026-01-28 18:10:52.193246	329.5	23.8	-62.9	0.0
2026-01-28 18:10:54.438042	329.8	23.5	-63.3	0.0
2026-01-28 18:10:56.681119	330.0	23.2	-65.0	0.0
2026-01-28 18:10:58.931219	330.2	22.9	-63.5	0.0
2026-01-28 18:11:01.174315	330.4	22.6	-62.4	0.0
2026-01-28 18:11:03.417759	330.6	22.3	-63.3	0.0
2026-01-28 18:11:05.663408	330.8	22.0	-63.9	0.0
2026-01-28 18:11:07.910823	331.0	21.7	-62.7	0.0
2026-01-28 18:11:10.158784	331.2	21.4	-63.1	0.0
2026-01-28 18:11:12.404485	331.4	21.1	-62.4	0.0
2026-01-28 18:11:14.649435	331.6	20.8	-62.5	0.0
2026-01-28 18:11:16.896187	331.8	20.5	-63.4	0.0
2026-01-28 18:11:19.147443	332.0	20.2	-61.0	0.0
2026-01-28 18:11:21.394766	332.1	20.0	-63.3	0.0
2026-01-28 18:11:23.646288	332.3	19.7	-63.2	0.0
2026-01-28 18:11:25.895086	332.5	19.4	-64.6	0.0
2026-01-28 18:11:28.143717	332.7	19.1	-62.2	0.0
2026-01-28 18:11:30.393287	332.8	18.9	-63.7	0.0
2026-01-28 18:11:32.640081	333.0	18.6	-63.7	0.0
2026-01-28 18:11:34.890685	333.2	18.3	-63.1	0.0
2026-01-28 18:11:37.137561	333.3	18.1	-63.4	0.0
2026-01-28 18:11:39.387963	333.5	17.8	-63.0	0.0
2026-01-28 18:11:41.637930	333.6	17.6	-64.3	0.0
2026-01-28 18:11:43.885472	333.8	17.3	-62.4	0.0
2026-01-28 18:11:46.134393	333.9	17.1	-64.8	0.0
2026-01-28 18:11:48.381685	334.1	16.8	-65.5	0.0
2026-01-28 18:11:50.635280	334.2	16.6	-63.1	0.0
2026-01-28 18:11:52.883551	334.4	16.3	-64.6	0.0
2026-01-28 18:11:55.132368	334.5	16.1	-63.7	0.0
2026-01-28 18:11:57.381953	334.6	15.8	-62.6	0.0
2026-01-28 18:11:59.632490	334.8	15.6	-63.5	0.0
2026-01-28 18:12:01.883348	334.9	15.4	-63.3	0.0
2026-01-28 18:12:04.135187	335.0	15.1	-64.9	0.0
2026-01-28 18:12:06.383475	335.2	14.9	-64.8	0.0
2026-01-28 18:12:08.637701	335.3	14.7	-65.9	0.0
2026-01-28 18:12:10.881487	335.4	14.4	-65.2	0.0
2026-01-28 18:12:13.129928	335.6	14.2	-64.7	0.0
2026-01-28 18:12:15.377015	335.7	14.0	-64.4	0.0
2026-01-28 18:12:17.620176	335.8	13.8	-64.8	0.0
2026-01-28 18:12:19.864428	335.9	13.6	-64.5	0.0
2026-01-28 18:12:22.108364	336.0	13.3	-66.1	0.0
2026-01-28 18:12:24.353608	336.2	13.1	-66.2	0.0
2026-01-28 18:12:26.598611	336.3	12.9	-66.1	0.0
2026-01-28 18:12:28.843193	336.4	12.7	-67.7	0.0
2026-01-28 18:12:31.087100	336.5	12.5	-68.1	0.0
2026-01-28 18:12:33.332673	336.6	12.3	-67.6	0.0
2026-01-28 18:12:35.578544	336.7	12.1	-68.2	0.0
2026-01-28 18:12:37.821639	336.8	11.9	-66.9	0.0
2026-01-28 18:12:40.066542	336.9	11.7	-67.7	0.0
2026-01-28 18:12:42.314077	337.0	11.5	-68.1	0.0
2026-01-28 18:12:44.563401	337.1	11.3	-66.6	0.0
2026-01-28 18:12:46.811513	337.2	11.1	-65.1	0.0
2026-01-28 18:12:49.055604	337.3	10.9	-64.2	0.0
2026-01-28 18:12:51.302515	337.4	10.7	-67.1	0.0
2026-01-28 18:12:53.546014	337.5	10.5	-67.8	0.0
2026-01-28 18:12:55.788665	337.6	10.3	-71.2	0.0
2026-01-28 18:12:58.029703	337.7	10.1	-75.3	0.0
#Closed at: 2026-01-28 18:02:19.882769