passes_logs/2026/01/28/planumMaritime01/planumMaritime01__20260128_015702_METEOR-M2_4_rec.log

#Pass ID: 20260128_015702_METEOR-M2 4
#Satellite: METEOR-M2 4
#Configuration: METEOR-M2 4
#Start time: 2026-01-28 01:57:07.231373

#LorettStation: 1.0.0 05.05.2024
#Station: planumMaritime01
#Location: 37.49445 lon 55.92918 lat
#TLE: 1 59051U 24039A   26027.63926554  .00000085  00000+0  57649-4 0  9992
#TLE: 2 59051  98.6833 348.8441 0006401 209.4311 150.6507 14.22410223 99285

#Time	Az	El	Level	SNR
2026-01-28 01:57:09.398799	7.3	10.2	-77.2	0.0
2026-01-28 01:57:11.646121	7.2	10.4	-78.2	0.0
2026-01-28 01:57:13.894973	7.1	10.5	-75.1	0.0
2026-01-28 01:57:16.143334	6.9	10.7	-75.5	0.0
2026-01-28 01:57:18.389691	6.8	10.9	-76.1	1.4
2026-01-28 01:57:20.634137	6.6	11.1	-69.5	0.0
2026-01-28 01:57:22.879888	6.5	11.3	-75.6	0.0
2026-01-28 01:57:25.126891	6.3	11.5	-75.4	0.0
2026-01-28 01:57:27.371843	6.2	11.7	-74.3	2.6
2026-01-28 01:57:29.619318	6.0	11.9	-74.8	1.4
2026-01-28 01:57:31.864023	5.8	12.1	-75.4	3.2
2026-01-28 01:57:34.111878	5.7	12.3	-75.4	3.0
2026-01-28 01:57:36.357584	5.5	12.5	-75.6	2.6
2026-01-28 01:57:38.606018	5.4	12.7	-73.4	0.0
2026-01-28 01:57:40.852103	5.2	12.9	-75.6	1.4
2026-01-28 01:57:43.099895	5.0	13.1	-75.2	1.8
2026-01-28 01:57:45.348078	4.8	13.3	-75.6	2.7
2026-01-28 01:57:47.596501	4.7	13.5	-74.6	2.3
2026-01-28 01:57:49.844097	4.5	13.7	-75.4	0.7
2026-01-28 01:57:52.092271	4.3	13.9	-75.6	1.3
2026-01-28 01:57:54.337848	4.1	14.1	-75.8	4.1
2026-01-28 01:57:56.583904	3.9	14.3	-76.1	0.9
2026-01-28 01:57:58.831920	3.7	14.6	-76.4	4.6
2026-01-28 01:58:01.078748	3.5	14.8	-76.0	3.3
2026-01-28 01:58:03.326637	3.4	15.0	-76.0	2.9
2026-01-28 01:58:05.574779	3.2	15.2	-75.9	4.8
2026-01-28 01:58:07.824131	3.0	15.4	-74.7	4.1
2026-01-28 01:58:10.069198	2.7	15.7	-74.9	3.9
2026-01-28 01:58:12.316973	2.5	15.9	-76.7	4.8
2026-01-28 01:58:14.563761	2.3	16.1	-76.4	4.0
2026-01-28 01:58:16.811002	2.1	16.3	-77.1	5.3
2026-01-28 01:58:19.055520	1.9	16.6	-76.6	5.8
2026-01-28 01:58:21.301457	1.7	16.8	-76.6	5.5
2026-01-28 01:58:23.547589	1.5	17.0	-74.7	0.0
2026-01-28 01:58:25.794737	1.2	17.3	-74.3	2.9
2026-01-28 01:58:28.042087	1.0	17.5	-75.6	3.6
2026-01-28 01:58:30.288473	0.8	17.7	-77.0	5.2
2026-01-28 01:58:32.534501	0.5	18.0	-76.4	4.6
2026-01-28 01:58:34.775582	0.3	18.2	-76.9	3.6
2026-01-28 01:58:37.017798	0.0	18.5	-76.3	3.9
2026-01-28 01:58:39.263628	359.8	18.7	-73.5	1.0
2026-01-28 01:58:41.507949	359.5	18.9	-76.6	5.4
2026-01-28 01:58:43.751324	359.3	19.2	-75.0	0.7
2026-01-28 01:58:45.996033	359.0	19.4	-76.2	4.8
2026-01-28 01:58:48.241271	358.7	19.7	-76.4	5.2
2026-01-28 01:58:50.487428	358.4	20.0	-73.9	4.7
2026-01-28 01:58:52.733934	358.2	20.2	-75.8	1.9
2026-01-28 01:58:54.979933	357.9	20.5	-75.8	5.5
2026-01-28 01:58:57.227693	357.6	20.7	-75.7	1.9
2026-01-28 01:58:59.474473	357.3	21.0	-72.9	0.0
2026-01-28 01:59:01.719993	357.0	21.3	-75.0	5.7
2026-01-28 01:59:03.967860	356.7	21.5	-75.4	5.6
2026-01-28 01:59:06.216507	356.4	21.8	-74.4	3.7
2026-01-28 01:59:08.463205	356.1	22.1	-75.9	5.1
2026-01-28 01:59:10.715868	355.7	22.3	-75.3	5.0
2026-01-28 01:59:12.965212	355.4	22.6	-75.8	4.6
2026-01-28 01:59:15.215511	355.1	22.9	-73.1	1.1
2026-01-28 01:59:17.464093	354.7	23.2	-75.8	7.1
2026-01-28 01:59:19.712756	354.4	23.4	-75.5	5.7
2026-01-28 01:59:21.958739	354.0	23.7	-76.2	7.4
2026-01-28 01:59:24.207909	353.7	24.0	-75.4	3.5
2026-01-28 01:59:26.454964	353.3	24.3	-75.8	6.1
2026-01-28 01:59:28.707027	352.9	24.6	-75.2	5.2
2026-01-28 01:59:30.955664	352.6	24.9	-76.9	6.6
2026-01-28 01:59:33.204198	352.2	25.2	-75.8	4.7
2026-01-28 01:59:35.453582	351.8	25.5	-76.7	5.3
2026-01-28 01:59:37.703121	351.4	25.8	-75.8	6.6
2026-01-28 01:59:39.949575	351.0	26.1	-76.1	7.4
2026-01-28 01:59:42.201657	350.5	26.4	-76.3	6.5
2026-01-28 01:59:44.447503	350.1	26.6	-77.1	8.3
2026-01-28 01:59:46.695087	349.7	27.0	-76.5	9.6
2026-01-28 01:59:48.942527	349.2	27.3	-75.1	6.3
2026-01-28 01:59:51.191971	348.8	27.6	-76.0	9.2
2026-01-28 01:59:53.439222	348.3	27.9	-76.4	7.3
2026-01-28 01:59:55.686305	347.9	28.2	-74.6	4.4
2026-01-28 01:59:57.934134	347.4	28.5	-74.1	5.8
2026-01-28 02:00:00.182428	346.9	28.8	-75.7	7.5
2026-01-28 02:00:02.430787	346.4	29.1	-74.8	5.3
2026-01-28 02:00:04.678548	345.9	29.4	-75.9	6.5
2026-01-28 02:00:06.925937	345.4	29.7	-75.8	7.5
2026-01-28 02:00:09.171142	344.8	30.0	-76.2	8.7
2026-01-28 02:00:11.417722	344.3	30.4	-76.5	9.3
2026-01-28 02:00:13.665129	343.7	30.7	-76.4	8.7
2026-01-28 02:00:15.915835	343.2	31.0	-74.9	6.2
2026-01-28 02:00:18.164788	342.6	31.3	-75.9	6.7
2026-01-28 02:00:20.412240	342.0	31.6	-76.2	5.3
2026-01-28 02:00:22.660125	341.4	31.9	-73.9	4.8
2026-01-28 02:00:24.909690	340.8	32.2	-74.7	5.0
2026-01-28 02:00:27.158418	340.2	32.6	-76.7	6.7
2026-01-28 02:00:29.406718	339.6	32.9	-75.6	6.1
2026-01-28 02:00:31.654548	338.9	33.2	-76.0	5.8
2026-01-28 02:00:33.901503	338.3	33.5	-75.1	5.6
2026-01-28 02:00:36.149905	337.6	33.8	-76.8	9.5
2026-01-28 02:00:38.394499	336.9	34.1	-75.7	7.8
2026-01-28 02:00:40.641827	336.2	34.4	-77.0	10.5
2026-01-28 02:00:42.888838	335.5	34.7	-77.4	9.6
2026-01-28 02:00:45.140059	334.8	35.0	-75.9	8.6
2026-01-28 02:00:47.384944	334.1	35.3	-76.7	10.0
2026-01-28 02:00:49.634624	333.3	35.6	-77.3	9.5
2026-01-28 02:00:51.878805	332.5	35.9	-76.0	7.0
2026-01-28 02:00:54.125348	331.8	36.2	-76.6	8.5
2026-01-28 02:00:56.371065	331.0	36.5	-76.8	10.3
2026-01-28 02:00:58.619721	330.2	36.8	-76.4	6.7
2026-01-28 02:01:00.865184	329.3	37.1	-77.7	10.3
2026-01-28 02:01:03.116346	328.5	37.4	-77.6	10.2
2026-01-28 02:01:05.363772	327.6	37.6	-77.3	9.5
2026-01-28 02:01:07.614556	326.8	37.9	-77.2	11.3
2026-01-28 02:01:09.861716	325.9	38.2	-77.4	9.9
2026-01-28 02:01:12.107676	325.0	38.4	-78.0	10.4
2026-01-28 02:01:14.357624	324.1	38.7	-77.8	10.8
2026-01-28 02:01:16.608293	323.2	38.9	-77.7	10.9
2026-01-28 02:01:18.857646	322.2	39.2	-78.0	11.9
2026-01-28 02:01:21.107617	321.3	39.4	-77.8	11.1
2026-01-28 02:01:23.355808	320.3	39.6	-78.3	12.4
2026-01-28 02:01:25.604033	319.3	39.8	-78.0	12.6
2026-01-28 02:01:27.849510	318.4	40.0	-77.9	9.3
2026-01-28 02:01:30.099084	317.4	40.2	-78.4	12.3
2026-01-28 02:01:32.344902	316.3	40.4	-78.6	11.6
2026-01-28 02:01:34.592052	315.3	40.6	-78.8	12.0
2026-01-28 02:01:36.839383	314.3	40.8	-78.6	11.0
2026-01-28 02:01:39.087107	313.2	40.9	-78.7	11.4
2026-01-28 02:01:41.334824	312.2	41.1	-78.9	12.1
2026-01-28 02:01:43.583503	311.1	41.2	-78.4	10.8
2026-01-28 02:01:45.833573	310.0	41.3	-78.7	11.5
2026-01-28 02:01:48.085239	308.9	41.5	-78.8	9.8
2026-01-28 02:01:50.333050	307.8	41.6	-78.3	9.3
2026-01-28 02:01:52.579956	306.7	41.7	-78.3	9.6
2026-01-28 02:01:54.828222	305.6	41.7	-78.3	11.2
2026-01-28 02:01:57.077384	304.5	41.8	-78.2	10.6
2026-01-28 02:01:59.327832	303.4	41.9	-78.4	8.1
2026-01-28 02:02:01.573037	302.3	41.9	-77.9	6.9
2026-01-28 02:02:03.821207	301.2	41.9	-78.9	10.2
2026-01-28 02:02:06.067750	300.1	42.0	-78.3	9.5
2026-01-28 02:02:08.318625	298.9	42.0	-78.7	9.1
2026-01-28 02:02:10.569074	297.8	42.0	-78.8	10.7
2026-01-28 02:02:12.820342	296.7	42.0	-78.6	11.4
2026-01-28 02:02:15.068828	295.5	41.9	-78.5	9.5
2026-01-28 02:02:17.314464	294.4	41.9	-78.8	11.4
2026-01-28 02:02:19.565054	293.3	41.8	-78.6	10.9
2026-01-28 02:02:21.812489	292.2	41.8	-77.1	7.5
2026-01-28 02:02:24.062332	291.1	41.7	-77.7	10.0
2026-01-28 02:02:26.311599	290.0	41.6	-79.5	10.6
2026-01-28 02:02:28.560658	288.9	41.5	-79.7	11.0
2026-01-28 02:02:30.811022	287.8	41.4	-78.0	6.4
2026-01-28 02:02:33.057550	286.7	41.3	-79.4	10.3
2026-01-28 02:02:35.305895	285.6	41.1	-79.7	11.1
2026-01-28 02:02:37.553735	284.6	41.0	-79.5	9.6
2026-01-28 02:02:39.804538	283.5	40.8	-79.2	11.9
2026-01-28 02:02:42.054239	282.5	40.7	-79.2	12.2
2026-01-28 02:02:44.302640	281.4	40.5	-78.8	12.5
2026-01-28 02:02:46.550677	280.4	40.3	-78.7	13.1
2026-01-28 02:02:48.802871	279.4	40.1	-78.8	13.3
2026-01-28 02:02:51.050282	278.4	39.9	-79.0	11.4
2026-01-28 02:02:53.301669	277.4	39.7	-79.2	13.4
2026-01-28 02:02:55.548778	276.5	39.5	-79.3	12.4
2026-01-28 02:02:57.796705	275.5	39.2	-79.1	11.7
2026-01-28 02:03:00.042329	274.6	39.0	-79.4	11.9
2026-01-28 02:03:02.291048	273.6	38.8	-79.8	11.9
2026-01-28 02:03:04.536633	272.7	38.5	-80.2	12.2
2026-01-28 02:03:06.782541	271.8	38.2	-80.0	11.1
2026-01-28 02:03:09.028718	270.9	38.0	-80.0	12.0
2026-01-28 02:03:11.276604	270.1	37.7	-79.6	12.7
2026-01-28 02:03:13.525245	269.2	37.4	-79.7	11.9
2026-01-28 02:03:15.771549	268.3	37.2	-79.4	11.6
2026-01-28 02:03:18.017854	267.5	36.9	-79.2	12.9
2026-01-28 02:03:20.263829	266.7	36.6	-78.8	13.2
2026-01-28 02:03:22.515585	265.9	36.3	-79.1	12.4
2026-01-28 02:03:24.762713	265.1	36.0	-79.4	13.6
2026-01-28 02:03:27.011384	264.3	35.7	-78.8	13.6
2026-01-28 02:03:29.260748	263.6	35.4	-79.2	13.1
2026-01-28 02:03:31.510225	262.8	35.1	-79.6	13.2
2026-01-28 02:03:33.758934	262.1	34.8	-79.4	12.9
2026-01-28 02:03:36.011356	261.4	34.5	-79.4	13.6
2026-01-28 02:03:38.258700	260.7	34.2	-79.3	13.9
2026-01-28 02:03:40.508324	260.0	33.9	-79.3	13.4
2026-01-28 02:03:42.754806	259.3	33.6	-79.4	13.9
2026-01-28 02:03:45.002471	258.6	33.3	-79.3	13.5
2026-01-28 02:03:47.253034	258.0	32.9	-79.4	14.1
2026-01-28 02:03:49.504010	257.4	32.6	-79.1	14.1
2026-01-28 02:03:51.752860	256.7	32.3	-79.2	13.7
2026-01-28 02:03:54.003610	256.1	32.0	-79.2	13.5
2026-01-28 02:03:56.249598	255.5	31.7	-79.4	14.3
2026-01-28 02:03:58.498089	254.9	31.3	-78.9	14.0
2026-01-28 02:04:00.749633	254.3	31.0	-79.1	14.4
2026-01-28 02:04:02.997025	253.8	30.7	-78.6	14.0
2026-01-28 02:04:05.244660	253.2	30.4	-78.9	14.1
2026-01-28 02:04:07.498378	252.7	30.1	-78.9	13.8
2026-01-28 02:04:09.741817	252.1	29.8	-78.6	14.7
2026-01-28 02:04:11.991234	251.6	29.4	-78.8	14.1
2026-01-28 02:04:14.239054	251.1	29.1	-78.9	14.1
2026-01-28 02:04:16.484982	250.6	28.8	-79.0	14.3
2026-01-28 02:04:18.733268	250.1	28.5	-79.1	14.2
2026-01-28 02:04:20.981928	249.6	28.2	-78.9	14.5
2026-01-28 02:04:23.230525	249.1	27.9	-78.8	14.1
2026-01-28 02:04:25.477139	248.7	27.6	-79.1	14.4
2026-01-28 02:04:27.723963	248.2	27.3	-78.9	14.6
2026-01-28 02:04:29.974858	247.8	27.0	-79.3	14.7
2026-01-28 02:04:32.221789	247.3	26.7	-79.2	14.0
2026-01-28 02:04:34.470642	246.9	26.4	-79.8	13.4
2026-01-28 02:04:36.718488	246.5	26.1	-79.3	13.8
2026-01-28 02:04:38.968495	246.0	25.8	-79.0	14.3
2026-01-28 02:04:41.217770	245.6	25.5	-79.4	13.9
2026-01-28 02:04:43.463236	245.2	25.2	-79.7	13.8
2026-01-28 02:04:45.712127	244.8	24.9	-79.6	13.2
2026-01-28 02:04:47.961279	244.5	24.6	-79.5	13.6
2026-01-28 02:04:50.213263	244.1	24.3	-79.4	13.9
2026-01-28 02:04:52.463536	243.7	24.0	-79.4	13.3
2026-01-28 02:04:54.711763	243.3	23.7	-79.7	13.2
2026-01-28 02:04:56.957195	243.0	23.4	-79.6	13.7
2026-01-28 02:04:59.205396	242.6	23.1	-79.5	13.8
2026-01-28 02:05:01.454969	242.3	22.9	-79.6	13.0
2026-01-28 02:05:03.706127	242.0	22.6	-79.5	13.7
2026-01-28 02:05:05.952470	241.6	22.3	-79.3	13.7
2026-01-28 02:05:08.203541	241.3	22.0	-79.7	13.9
2026-01-28 02:05:10.453122	241.0	21.8	-79.4	13.6
2026-01-28 02:05:12.701471	240.7	21.5	-79.4	13.5
2026-01-28 02:05:14.950185	240.4	21.2	-79.7	13.9
2026-01-28 02:05:17.197975	240.0	21.0	-79.5	13.6
2026-01-28 02:05:19.442116	239.7	20.7	-79.7	13.8
2026-01-28 02:05:21.691186	239.5	20.4	-79.6	13.7
2026-01-28 02:05:23.937051	239.2	20.2	-79.5	13.9
2026-01-28 02:05:26.183219	238.9	19.9	-79.5	13.5
2026-01-28 02:05:28.432817	238.6	19.6	-79.5	13.9
2026-01-28 02:05:30.682994	238.3	19.4	-79.7	13.6
2026-01-28 02:05:32.932308	238.1	19.1	-79.6	13.4
2026-01-28 02:05:35.180153	237.8	18.9	-79.4	13.8
2026-01-28 02:05:37.427332	237.5	18.6	-79.8	13.5
2026-01-28 02:05:39.675875	237.3	18.4	-79.7	12.8
2026-01-28 02:05:41.922151	237.0	18.1	-79.8	12.4
2026-01-28 02:05:44.168461	236.8	17.9	-79.7	13.0
2026-01-28 02:05:46.415230	236.5	17.7	-79.9	13.4
2026-01-28 02:05:48.659901	236.3	17.4	-79.9	12.8
2026-01-28 02:05:50.907168	236.1	17.2	-79.9	12.8
2026-01-28 02:05:53.158171	235.8	16.9	-79.8	12.9
2026-01-28 02:05:55.404319	235.6	16.7	-79.7	13.0
2026-01-28 02:05:57.653505	235.4	16.5	-79.9	13.7
2026-01-28 02:05:59.902762	235.2	16.2	-80.0	12.6
2026-01-28 02:06:02.148333	234.9	16.0	-79.7	13.2
2026-01-28 02:06:04.396699	234.7	15.8	-79.8	12.8
2026-01-28 02:06:06.643540	234.5	15.6	-79.7	13.0
2026-01-28 02:06:08.892550	234.3	15.3	-79.6	12.0
2026-01-28 02:06:11.138250	234.1	15.1	-79.9	12.9
2026-01-28 02:06:13.387491	233.9	14.9	-80.1	11.9
2026-01-28 02:06:15.634150	233.7	14.7	-80.0	11.8
2026-01-28 02:06:17.880477	233.5	14.5	-80.0	12.0
2026-01-28 02:06:20.133241	233.3	14.2	-80.1	11.5
2026-01-28 02:06:22.381380	233.1	14.0	-80.1	12.4
2026-01-28 02:06:24.628007	232.9	13.8	-80.1	12.3
2026-01-28 02:06:26.878491	232.7	13.6	-79.9	12.6
2026-01-28 02:06:29.125787	232.6	13.4	-80.0	12.1
2026-01-28 02:06:31.375161	232.4	13.2	-80.3	11.7
2026-01-28 02:06:33.619040	232.2	13.0	-80.3	11.4
2026-01-28 02:06:35.866203	232.0	12.8	-80.2	11.8
2026-01-28 02:06:38.115027	231.9	12.6	-80.2	11.4
2026-01-28 02:06:40.362634	231.7	12.4	-80.2	12.0
2026-01-28 02:06:42.610537	231.5	12.2	-80.3	11.4
2026-01-28 02:06:44.855998	231.4	12.0	-80.2	11.4
2026-01-28 02:06:47.104610	231.2	11.8	-80.0	11.2
2026-01-28 02:06:49.352503	231.0	11.6	-80.0	11.5
2026-01-28 02:06:51.598615	230.9	11.4	-80.1	12.0
2026-01-28 02:06:53.849437	230.7	11.2	-80.3	11.4
2026-01-28 02:06:56.099404	230.6	11.0	-79.9	11.9
2026-01-28 02:06:58.347865	230.4	10.8	-81.3	10.0
2026-01-28 02:07:00.598295	230.3	10.6	-84.1	6.2
2026-01-28 02:07:02.842296	230.1	10.4	-86.4	0.0
2026-01-28 02:07:05.089313	230.0	10.2	-85.5	3.1
#Closed at: 2026-01-28 01:57:02.236734