passes_logs/2026/01/28/planumMaritime01/planumMaritime01__20260128_162257_METOP-B_rec.log

#Pass ID: 20260128_162257_METOP-B
#Satellite: METOP-B
#Configuration: METOP-B
#Start time: 2026-01-28 16:23:02.948772

#LorettStation: 1.0.0 05.05.2024
#Station: planumMaritime01
#Location: 37.49445 lon 55.92918 lat
#TLE: 1 38771U 12049A   26027.75897957  .00000194  00000+0  10857-3 0  9993
#TLE: 2 38771  98.6728  81.9227 0002898  50.5582 309.5851 14.21429617693319

#Time	Az	El	Level	SNR
2026-01-28 16:23:05.121886	119.6	10.2	-75.5	0.0
2026-01-28 16:23:07.366214	119.4	10.3	-74.1	0.0
2026-01-28 16:23:09.610332	119.2	10.5	-73.1	0.0
2026-01-28 16:23:11.855033	119.0	10.7	-74.1	0.0
2026-01-28 16:23:14.100176	118.8	10.9	-71.2	0.0
2026-01-28 16:23:16.343266	118.6	11.1	-71.9	0.0
2026-01-28 16:23:18.586702	118.4	11.2	-71.0	0.0
2026-01-28 16:23:20.829735	118.2	11.4	-71.2	0.0
2026-01-28 16:23:23.074093	118.0	11.6	-71.9	0.0
2026-01-28 16:23:25.319413	117.8	11.8	-73.3	0.0
2026-01-28 16:23:27.566677	117.6	12.0	-73.2	0.0
2026-01-28 16:23:29.812587	117.4	12.2	-73.3	0.0
2026-01-28 16:23:32.056187	117.1	12.3	-71.7	0.0
2026-01-28 16:23:34.302685	116.9	12.5	-72.0	0.0
2026-01-28 16:23:36.546894	116.7	12.7	-71.8	0.0
2026-01-28 16:23:38.789182	116.5	12.9	-71.3	0.0
2026-01-28 16:23:41.031915	116.2	13.1	-72.6	0.0
2026-01-28 16:23:43.276541	116.0	13.3	-71.9	0.0
2026-01-28 16:23:45.519166	115.8	13.5	-71.5	0.0
2026-01-28 16:23:47.765399	115.5	13.7	-72.3	0.0
2026-01-28 16:23:50.009271	115.3	13.9	-71.4	0.0
2026-01-28 16:23:52.253098	115.0	14.1	-71.5	0.0
2026-01-28 16:23:54.496223	114.8	14.3	-72.7	0.0
2026-01-28 16:23:56.742450	114.5	14.5	-72.1	0.0
2026-01-28 16:23:58.986516	114.3	14.7	-72.8	0.0
2026-01-28 16:24:01.231134	114.0	14.9	-72.2	0.0
2026-01-28 16:24:03.477498	113.7	15.1	-71.6	0.0
2026-01-28 16:24:05.720439	113.5	15.3	-71.7	0.0
2026-01-28 16:24:07.968099	113.2	15.5	-71.5	0.0
2026-01-28 16:24:10.212800	112.9	15.7	-72.5	0.0
2026-01-28 16:24:12.456922	112.6	15.9	-72.5	0.0
2026-01-28 16:24:14.702050	112.4	16.1	-71.5	0.0
2026-01-28 16:24:16.946132	112.1	16.3	-71.5	0.0
2026-01-28 16:24:19.194544	111.8	16.5	-70.7	0.0
2026-01-28 16:24:21.439923	111.5	16.7	-70.5	0.0
2026-01-28 16:24:23.686053	111.2	16.9	-71.1	0.4
2026-01-28 16:24:25.930194	110.9	17.2	-69.4	0.0
2026-01-28 16:24:28.177937	110.6	17.4	-72.6	0.0
2026-01-28 16:24:30.422772	110.3	17.6	-71.3	0.0
2026-01-28 16:24:32.666112	109.9	17.8	-72.9	0.1
2026-01-28 16:24:34.907790	109.6	18.0	-71.4	0.0
2026-01-28 16:24:37.156055	109.3	18.2	-71.8	0.0
2026-01-28 16:24:39.401059	109.0	18.4	-70.9	0.0
2026-01-28 16:24:41.644286	108.6	18.7	-72.3	1.9
2026-01-28 16:24:43.890685	108.3	18.9	-72.6	0.0
2026-01-28 16:24:46.137369	107.9	19.1	-72.7	0.1
2026-01-28 16:24:48.383760	107.6	19.3	-73.3	0.8
2026-01-28 16:24:50.628898	107.2	19.6	-70.5	0.0
2026-01-28 16:24:52.873656	106.9	19.8	-72.7	2.4
2026-01-28 16:24:55.118170	106.5	20.0	-72.3	0.0
2026-01-28 16:24:57.362985	106.1	20.2	-71.7	0.4
2026-01-28 16:24:59.607299	105.7	20.4	-72.2	1.0
2026-01-28 16:25:01.848632	105.3	20.7	-71.2	0.3
2026-01-28 16:25:04.090937	105.0	20.9	-72.0	0.6
2026-01-28 16:25:06.338409	104.6	21.1	-72.1	0.0
2026-01-28 16:25:08.582891	104.2	21.4	-71.9	0.8
2026-01-28 16:25:10.825371	103.8	21.6	-71.1	1.9
2026-01-28 16:25:13.070141	103.3	21.8	-70.6	0.0
2026-01-28 16:25:15.311331	102.9	22.0	-71.5	0.0
2026-01-28 16:25:17.554666	102.5	22.3	-72.3	3.0
2026-01-28 16:25:19.802288	102.1	22.5	-71.4	0.8
2026-01-28 16:25:22.048397	101.6	22.7	-71.3	0.0
2026-01-28 16:25:24.293236	101.2	23.0	-71.3	1.5
2026-01-28 16:25:26.540188	100.7	23.2	-70.7	3.0
2026-01-28 16:25:28.784160	100.2	23.4	-71.8	1.0
2026-01-28 16:25:31.030899	99.8	23.7	-71.2	1.2
2026-01-28 16:25:33.276132	99.3	23.9	-71.4	2.0
2026-01-28 16:25:35.523689	98.8	24.1	-69.4	0.0
2026-01-28 16:25:37.769626	98.3	24.4	-70.3	1.3
2026-01-28 16:25:40.015781	97.8	24.6	-70.5	0.0
2026-01-28 16:25:42.259314	97.3	24.8	-70.7	1.4
2026-01-28 16:25:44.505298	96.8	25.0	-70.6	0.0
2026-01-28 16:25:46.748080	96.3	25.3	-70.5	0.0
2026-01-28 16:25:48.994468	95.8	25.5	-70.2	2.0
2026-01-28 16:25:51.240093	95.2	25.7	-70.4	3.2
2026-01-28 16:25:53.485753	94.7	26.0	-70.6	0.0
2026-01-28 16:25:55.735603	94.2	26.2	-68.5	0.0
2026-01-28 16:25:57.981292	93.6	26.4	-70.9	0.0
2026-01-28 16:26:00.227009	93.0	26.6	-70.1	0.3
2026-01-28 16:26:02.470746	92.5	26.9	-69.6	0.2
2026-01-28 16:26:04.715449	91.9	27.1	-70.1	0.0
2026-01-28 16:26:06.960896	91.3	27.3	-69.7	0.0
2026-01-28 16:26:09.204766	90.7	27.5	-69.1	0.3
2026-01-28 16:26:11.449182	90.1	27.7	-71.1	0.0
2026-01-28 16:26:13.696395	89.5	28.0	-70.5	0.0
2026-01-28 16:26:15.940005	88.8	28.2	-71.2	3.4
2026-01-28 16:26:18.183139	88.2	28.4	-71.0	2.6
2026-01-28 16:26:20.428429	87.6	28.6	-70.3	0.6
2026-01-28 16:26:22.675998	86.9	28.8	-71.1	1.8
2026-01-28 16:26:24.922071	86.3	29.0	-71.8	3.6
2026-01-28 16:26:27.170012	85.6	29.2	-71.2	3.0
2026-01-28 16:26:29.417672	84.9	29.4	-70.7	2.3
2026-01-28 16:26:31.660922	84.2	29.6	-71.1	3.2
2026-01-28 16:26:33.904321	83.6	29.8	-71.2	3.5
2026-01-28 16:26:36.152198	82.9	30.0	-70.3	3.3
2026-01-28 16:26:38.395161	82.1	30.1	-71.4	3.5
2026-01-28 16:26:40.638832	81.4	30.3	-70.5	1.0
2026-01-28 16:26:42.884449	80.7	30.5	-70.4	2.3
2026-01-28 16:26:45.133110	80.0	30.7	-70.8	1.2
2026-01-28 16:26:47.376181	79.2	30.8	-70.3	3.3
2026-01-28 16:26:49.624181	78.5	31.0	-69.2	1.7
2026-01-28 16:26:51.871053	77.7	31.2	-69.5	0.0
2026-01-28 16:26:54.114477	77.0	31.3	-69.8	0.4
2026-01-28 16:26:56.363136	76.2	31.5	-69.6	1.4
2026-01-28 16:26:58.604702	75.4	31.6	-70.5	3.2
2026-01-28 16:27:00.848932	74.7	31.7	-71.0	4.2
2026-01-28 16:27:03.096084	73.9	31.9	-69.3	0.0
2026-01-28 16:27:05.339661	73.1	32.0	-69.5	0.0
2026-01-28 16:27:07.585928	72.3	32.1	-69.8	2.3
2026-01-28 16:27:09.830753	71.5	32.2	-69.8	3.5
2026-01-28 16:27:12.078392	70.7	32.4	-70.3	2.6
2026-01-28 16:27:14.322941	69.8	32.5	-70.5	4.4
2026-01-28 16:27:16.566342	69.0	32.6	-68.7	0.0
2026-01-28 16:27:18.808963	68.2	32.6	-69.2	1.3
2026-01-28 16:27:21.053003	67.4	32.7	-69.0	3.4
2026-01-28 16:27:23.297054	66.5	32.8	-68.5	2.0
2026-01-28 16:27:25.543829	65.7	32.9	-68.6	2.2
2026-01-28 16:27:27.790416	64.9	32.9	-68.2	2.3
2026-01-28 16:27:30.036573	64.0	33.0	-69.4	4.8
2026-01-28 16:27:32.281441	63.2	33.1	-68.0	0.0
2026-01-28 16:27:34.528893	62.3	33.1	-67.6	0.0
2026-01-28 16:27:36.775579	61.5	33.1	-66.7	0.0
2026-01-28 16:27:39.017094	60.6	33.2	-68.6	0.0
2026-01-28 16:27:41.262379	59.7	33.2	-69.3	1.7
2026-01-28 16:27:43.507846	58.9	33.2	-67.6	0.0
2026-01-28 16:27:45.751052	58.0	33.2	-69.7	3.8
2026-01-28 16:27:47.996379	57.2	33.2	-69.1	0.4
2026-01-28 16:27:50.239627	56.3	33.2	-67.5	0.0
2026-01-28 16:27:52.487893	55.5	33.2	-67.3	0.0
2026-01-28 16:27:54.732752	54.6	33.2	-68.5	0.0
2026-01-28 16:27:56.980191	53.8	33.1	-67.6	0.0
2026-01-28 16:27:59.223759	52.9	33.1	-67.4	0.0
2026-01-28 16:28:01.465795	52.1	33.1	-68.6	2.0
2026-01-28 16:28:03.709055	51.2	33.0	-67.4	0.0
2026-01-28 16:28:05.952963	50.4	32.9	-66.5	0.0
2026-01-28 16:28:08.198473	49.5	32.9	-66.6	0.0
2026-01-28 16:28:10.447423	48.7	32.8	-68.3	0.0
2026-01-28 16:28:12.693392	47.8	32.7	-67.9	0.0
2026-01-28 16:28:14.935671	47.0	32.7	-67.1	0.0
2026-01-28 16:28:17.176969	46.2	32.6	-66.0	0.0
2026-01-28 16:28:19.419734	45.4	32.5	-67.7	0.0
2026-01-28 16:28:21.665157	44.6	32.4	-67.6	0.0
2026-01-28 16:28:23.906796	43.8	32.3	-67.3	0.0
2026-01-28 16:28:26.149101	42.9	32.1	-66.2	0.0
2026-01-28 16:28:28.396229	42.1	32.0	-65.8	0.0
2026-01-28 16:28:30.640996	41.4	31.9	-65.2	0.0
2026-01-28 16:28:32.887380	40.6	31.8	-65.5	0.0
2026-01-28 16:28:35.131157	39.8	31.6	-64.8	0.0
2026-01-28 16:28:37.377172	39.0	31.5	-65.7	0.0
2026-01-28 16:28:39.621093	38.3	31.3	-65.4	0.0
2026-01-28 16:28:41.863591	37.5	31.2	-65.0	0.0
2026-01-28 16:28:44.106248	36.7	31.0	-65.3	0.0
2026-01-28 16:28:46.349743	36.0	30.9	-66.4	0.0
2026-01-28 16:28:48.595169	35.3	30.7	-65.6	0.0
2026-01-28 16:28:50.840282	34.5	30.5	-62.2	0.0
2026-01-28 16:28:53.086227	33.8	30.3	-62.3	0.0
2026-01-28 16:28:55.330388	33.1	30.2	-63.9	0.0
2026-01-28 16:28:57.574938	32.4	30.0	-63.0	0.0
2026-01-28 16:28:59.818487	31.7	29.8	-63.1	0.0
2026-01-28 16:29:02.064730	31.0	29.6	-62.3	0.0
2026-01-28 16:29:04.309673	30.3	29.4	-60.1	0.0
2026-01-28 16:29:06.553029	29.7	29.2	-63.0	0.0
2026-01-28 16:29:08.797307	29.0	29.0	-58.5	0.0
2026-01-28 16:29:11.043088	28.4	28.8	-62.0	0.0
2026-01-28 16:29:13.288214	27.7	28.6	-60.8	0.0
2026-01-28 16:29:15.535006	27.1	28.4	-63.7	0.0
2026-01-28 16:29:17.782639	26.4	28.2	-61.3	0.0
2026-01-28 16:29:20.026979	25.8	28.0	-61.5	0.0
2026-01-28 16:29:22.271285	25.2	27.8	-59.5	0.0
2026-01-28 16:29:24.514983	24.6	27.5	-58.3	0.0
2026-01-28 16:29:26.761925	24.0	27.3	-57.4	0.0
2026-01-28 16:29:29.004781	23.4	27.1	-60.6	0.0
2026-01-28 16:29:31.248243	22.8	26.9	-61.3	0.0
2026-01-28 16:29:33.494302	22.3	26.7	-61.7	0.0
2026-01-28 16:29:35.739989	21.7	26.4	-62.8	0.0
2026-01-28 16:29:37.983426	21.1	26.2	-59.5	0.0
2026-01-28 16:29:40.227371	20.6	26.0	-61.1	0.0
2026-01-28 16:29:42.472595	20.1	25.8	-64.5	0.0
2026-01-28 16:29:44.716645	19.5	25.5	-60.3	0.0
2026-01-28 16:29:46.962101	19.0	25.3	-62.2	0.0
2026-01-28 16:29:49.207295	18.5	25.1	-62.0	0.0
2026-01-28 16:29:51.450888	18.0	24.9	-62.6	0.0
2026-01-28 16:29:53.697009	17.5	24.6	-62.7	0.0
2026-01-28 16:29:55.941551	17.0	24.4	-61.2	0.0
2026-01-28 16:29:58.184677	16.5	24.2	-60.5	0.0
2026-01-28 16:30:00.426809	16.0	23.9	-59.7	0.0
2026-01-28 16:30:02.675707	15.5	23.7	-59.3	0.0
2026-01-28 16:30:04.920912	15.1	23.5	-59.9	0.0
2026-01-28 16:30:07.167333	14.6	23.2	-61.2	0.0
2026-01-28 16:30:09.414174	14.2	23.0	-61.8	0.0
2026-01-28 16:30:11.660344	13.7	22.8	-62.6	0.0
2026-01-28 16:30:13.905969	13.3	22.6	-62.6	0.0
2026-01-28 16:30:16.150146	12.8	22.3	-63.3	0.0
2026-01-28 16:30:18.397006	12.4	22.1	-61.9	0.0
2026-01-28 16:30:20.641815	12.0	21.9	-63.0	0.0
2026-01-28 16:30:22.885268	11.6	21.6	-63.9	0.0
2026-01-28 16:30:25.130479	11.2	21.4	-62.1	0.0
2026-01-28 16:30:27.375073	10.8	21.2	-63.1	0.0
2026-01-28 16:30:29.619505	10.4	21.0	-63.7	0.0
2026-01-28 16:30:31.862947	10.0	20.7	-62.2	0.0
2026-01-28 16:30:34.105199	9.6	20.5	-63.0	0.0
2026-01-28 16:30:36.347586	9.2	20.3	-63.5	0.0
2026-01-28 16:30:38.592579	8.9	20.1	-63.4	0.0
2026-01-28 16:30:40.835935	8.5	19.8	-64.8	0.0
2026-01-28 16:30:43.082619	8.1	19.6	-63.8	0.0
2026-01-28 16:30:45.331477	7.8	19.4	-62.2	0.0
2026-01-28 16:30:47.572549	7.4	19.2	-62.2	0.0
2026-01-28 16:30:49.817139	7.1	19.0	-60.4	0.0
2026-01-28 16:30:52.062010	6.8	18.7	-61.3	0.0
2026-01-28 16:30:54.305707	6.4	18.5	-60.0	0.0
2026-01-28 16:30:56.547978	6.1	18.3	-55.6	0.0
2026-01-28 16:30:58.793872	5.8	18.1	-63.6	0.0
2026-01-28 16:31:01.037405	5.4	17.9	-59.9	0.0
2026-01-28 16:31:03.283420	5.1	17.7	-62.4	0.0
2026-01-28 16:31:05.527558	4.8	17.4	-57.2	0.0
2026-01-28 16:31:07.770214	4.5	17.2	-62.7	0.0
2026-01-28 16:31:10.016171	4.2	17.0	-63.0	0.0
2026-01-28 16:31:12.261233	3.9	16.8	-59.6	0.0
2026-01-28 16:31:14.506066	3.6	16.6	-60.4	0.0
2026-01-28 16:31:16.754576	3.3	16.4	-60.1	0.0
2026-01-28 16:31:19.001039	3.0	16.2	-62.8	0.0
2026-01-28 16:31:21.246400	2.8	16.0	-62.8	0.0
2026-01-28 16:31:23.493664	2.5	15.8	-59.7	0.0
2026-01-28 16:31:25.738321	2.2	15.6	-62.9	0.0
2026-01-28 16:31:27.983143	1.9	15.4	-64.3	0.0
2026-01-28 16:31:30.227248	1.7	15.2	-60.6	0.0
2026-01-28 16:31:32.476050	1.4	15.0	-63.2	0.0
2026-01-28 16:31:34.723354	1.1	14.8	-64.2	0.0
2026-01-28 16:31:36.965174	0.9	14.6	-65.1	0.0
2026-01-28 16:31:39.211189	0.6	14.4	-63.9	0.0
2026-01-28 16:31:41.455489	0.4	14.2	-59.7	0.0
2026-01-28 16:31:43.700279	0.1	14.0	-66.5	0.0
2026-01-28 16:31:45.948158	359.9	13.8	-64.8	0.0
2026-01-28 16:31:48.191478	359.7	13.6	-63.9	0.0
2026-01-28 16:31:50.437207	359.4	13.4	-65.7	0.0
2026-01-28 16:31:52.683459	359.2	13.2	-67.1	0.0
2026-01-28 16:31:54.931174	359.0	13.0	-65.5	0.0
2026-01-28 16:31:57.174995	358.7	12.8	-63.4	0.0
2026-01-28 16:31:59.421676	358.5	12.6	-64.5	0.0
2026-01-28 16:32:01.665736	358.3	12.4	-68.1	0.0
2026-01-28 16:32:03.909937	358.1	12.3	-67.7	0.0
2026-01-28 16:32:06.155494	357.9	12.1	-66.0	0.0
2026-01-28 16:32:08.401198	357.7	11.9	-64.8	0.0
2026-01-28 16:32:10.648700	357.4	11.7	-64.6	0.0
2026-01-28 16:32:12.895772	357.2	11.5	-63.5	0.0
2026-01-28 16:32:15.139249	357.0	11.3	-65.5	0.0
2026-01-28 16:32:17.386266	356.8	11.2	-61.6	0.0
2026-01-28 16:32:19.635516	356.6	11.0	-66.1	0.0
2026-01-28 16:32:21.883031	356.4	10.8	-63.5	0.0
2026-01-28 16:32:24.129976	356.2	10.6	-63.6	0.0
2026-01-28 16:32:26.373243	356.1	10.4	-65.5	0.0
2026-01-28 16:32:28.620993	355.9	10.3	-71.4	0.0
2026-01-28 16:32:30.867629	355.7	10.1	-73.0	0.0
#Closed at: 2026-01-28 16:22:57.955800