passes_logs/2026/01/28/planumMaritime01/planumMaritime01__20260128_070647_METEOR-M2_3_rec.log

#Pass ID: 20260128_070647_METEOR-M2 3
#Satellite: METEOR-M2 3
#Configuration: METEOR-M2 3
#Start time: 2026-01-28 07:06:52.619051

#LorettStation: 1.0.0 05.05.2024
#Station: planumMaritime01
#Location: 37.49445 lon 55.92918 lat
#TLE: 1 57166U 23091A   26027.64356981  .00000033  00000+0  33432-4 0  9993
#TLE: 2 57166  98.6303  85.3658 0003453 204.4463 155.6552 14.24032909134516

#Time	Az	El	Level	SNR
2026-01-28 07:06:54.793139	20.9	10.2	-72.1	0.0
2026-01-28 07:06:57.041607	21.0	10.4	-71.9	0.0
2026-01-28 07:06:59.289757	21.1	10.6	-68.2	0.0
2026-01-28 07:07:01.537862	21.1	10.8	-70.3	0.0
2026-01-28 07:07:03.788743	21.2	11.0	-65.5	0.0
2026-01-28 07:07:06.037519	21.3	11.2	-65.6	0.0
2026-01-28 07:07:08.282517	21.4	11.4	-65.3	0.0
2026-01-28 07:07:10.530069	21.5	11.6	-67.0	0.0
2026-01-28 07:07:12.778275	21.6	11.8	-67.6	0.0
2026-01-28 07:07:15.026687	21.6	12.0	-65.3	0.0
2026-01-28 07:07:17.277315	21.7	12.2	-65.8	0.0
2026-01-28 07:07:19.527494	21.8	12.4	-63.4	0.0
2026-01-28 07:07:21.776122	21.9	12.6	-66.0	0.0
2026-01-28 07:07:24.023175	22.0	12.8	-64.9	0.0
2026-01-28 07:07:26.271926	22.1	13.1	-67.6	0.0
2026-01-28 07:07:28.521366	22.2	13.3	-64.6	0.0
2026-01-28 07:07:30.767883	22.3	13.5	-68.1	0.0
2026-01-28 07:07:33.015163	22.4	13.7	-66.3	0.0
2026-01-28 07:07:35.262814	22.5	13.9	-68.1	0.0
2026-01-28 07:07:37.510196	22.6	14.2	-66.3	0.0
2026-01-28 07:07:39.755266	22.7	14.4	-68.0	0.0
2026-01-28 07:07:42.007374	22.8	14.6	-66.7	0.0
2026-01-28 07:07:44.254681	22.9	14.9	-66.6	0.0
2026-01-28 07:07:46.499586	23.0	15.1	-65.9	0.0
2026-01-28 07:07:48.745878	23.1	15.3	-64.8	0.0
2026-01-28 07:07:50.994900	23.2	15.6	-64.7	0.0
2026-01-28 07:07:53.244740	23.3	15.8	-64.2	0.0
2026-01-28 07:07:55.493953	23.4	16.1	-65.1	0.0
2026-01-28 07:07:57.739921	23.5	16.3	-65.6	0.0
2026-01-28 07:07:59.987035	23.6	16.6	-65.0	0.0
2026-01-28 07:08:02.236235	23.7	16.8	-64.7	0.0
2026-01-28 07:08:04.483964	23.9	17.1	-65.0	0.0
2026-01-28 07:08:06.730870	24.0	17.3	-64.4	0.0
2026-01-28 07:08:08.977434	24.1	17.6	-66.1	0.0
2026-01-28 07:08:11.225152	24.2	17.8	-63.9	0.0
2026-01-28 07:08:13.472765	24.4	18.1	-65.4	0.0
2026-01-28 07:08:15.718925	24.5	18.4	-65.0	0.0
2026-01-28 07:08:17.968038	24.6	18.6	-64.6	0.0
2026-01-28 07:08:20.216854	24.7	18.9	-65.0	0.0
2026-01-28 07:08:22.463368	24.9	19.2	-64.3	0.0
2026-01-28 07:08:24.710548	25.0	19.5	-65.1	0.0
2026-01-28 07:08:26.958450	25.1	19.7	-64.0	0.0
2026-01-28 07:08:29.206866	25.3	20.0	-64.2	0.0
2026-01-28 07:08:31.451634	25.4	20.3	-65.4	0.0
2026-01-28 07:08:33.697811	25.6	20.6	-65.4	0.0
2026-01-28 07:08:35.948827	25.7	20.9	-64.1	0.0
2026-01-28 07:08:38.198043	25.9	21.2	-66.1	0.0
2026-01-28 07:08:40.443774	26.0	21.5	-65.8	0.0
2026-01-28 07:08:42.691489	26.2	21.8	-65.4	0.0
2026-01-28 07:08:44.940098	26.3	22.1	-68.3	0.0
2026-01-28 07:08:47.188319	26.5	22.4	-67.2	0.0
2026-01-28 07:08:49.438728	26.7	22.8	-67.6	0.0
2026-01-28 07:08:51.687572	26.8	23.1	-66.7	0.0
2026-01-28 07:08:53.935153	27.0	23.4	-65.0	0.0
2026-01-28 07:08:56.185379	27.2	23.7	-63.8	0.0
2026-01-28 07:08:58.431917	27.4	24.1	-68.9	0.0
2026-01-28 07:09:00.678610	27.6	24.4	-65.3	0.0
2026-01-28 07:09:02.928922	27.7	24.7	-67.2	0.0
2026-01-28 07:09:05.177449	27.9	25.1	-67.3	0.0
2026-01-28 07:09:07.424723	28.1	25.4	-68.8	0.0
2026-01-28 07:09:09.670344	28.3	25.8	-65.3	0.0
2026-01-28 07:09:11.915720	28.5	26.1	-67.9	0.0
2026-01-28 07:09:14.162235	28.7	26.5	-68.5	0.0
2026-01-28 07:09:16.409539	28.9	26.9	-69.4	0.0
2026-01-28 07:09:18.656592	29.2	27.2	-66.5	0.0
2026-01-28 07:09:20.903510	29.4	27.6	-68.2	0.0
2026-01-28 07:09:23.149698	29.6	28.0	-67.0	0.0
2026-01-28 07:09:25.397072	29.8	28.4	-68.0	0.0
2026-01-28 07:09:27.644007	30.1	28.8	-68.2	0.0
2026-01-28 07:09:29.893653	30.3	29.2	-68.1	0.0
2026-01-28 07:09:32.142488	30.6	29.6	-68.1	0.0
2026-01-28 07:09:34.392681	30.8	30.0	-69.4	0.0
2026-01-28 07:09:36.639768	31.1	30.4	-68.6	0.0
2026-01-28 07:09:38.886260	31.4	30.8	-68.8	0.0
2026-01-28 07:09:41.134388	31.6	31.2	-69.7	0.0
2026-01-28 07:09:43.382047	31.9	31.7	-69.9	0.0
2026-01-28 07:09:45.628861	32.2	32.1	-71.0	0.0
2026-01-28 07:09:47.876953	32.5	32.5	-71.9	0.0
2026-01-28 07:09:50.123273	32.8	33.0	-71.2	0.0
2026-01-28 07:09:52.371833	33.1	33.4	-73.8	2.6
2026-01-28 07:09:54.621539	33.4	33.9	-72.0	0.0
2026-01-28 07:09:56.868921	33.8	34.3	-73.6	0.3
2026-01-28 07:09:59.115436	34.1	34.8	-73.4	0.7
2026-01-28 07:10:01.365108	34.5	35.3	-73.3	0.0
2026-01-28 07:10:03.614733	34.8	35.8	-73.4	3.3
2026-01-28 07:10:05.861845	35.2	36.3	-74.6	4.9
2026-01-28 07:10:08.109713	35.6	36.8	-74.9	5.9
2026-01-28 07:10:10.355725	36.0	37.3	-74.4	4.1
2026-01-28 07:10:12.603783	36.4	37.8	-74.7	7.2
2026-01-28 07:10:14.848685	36.8	38.3	-73.9	4.2
2026-01-28 07:10:17.097392	37.2	38.8	-73.7	6.1
2026-01-28 07:10:19.345767	37.7	39.3	-73.4	4.8
2026-01-28 07:10:21.594224	38.1	39.8	-74.0	5.2
2026-01-28 07:10:23.839845	38.6	40.4	-73.2	3.9
2026-01-28 07:10:26.084626	39.1	40.9	-74.1	4.5
2026-01-28 07:10:28.333847	39.6	41.5	-74.6	6.8
2026-01-28 07:10:30.581401	40.1	42.0	-74.6	6.0
2026-01-28 07:10:32.830229	40.7	42.6	-74.3	3.9
2026-01-28 07:10:35.074910	41.2	43.2	-73.0	4.1
2026-01-28 07:10:37.323432	41.8	43.7	-74.2	4.2
2026-01-28 07:10:39.572629	42.4	44.3	-72.2	3.2
2026-01-28 07:10:41.821983	43.1	44.9	-75.2	5.3
2026-01-28 07:10:44.071879	43.7	45.5	-72.5	0.0
2026-01-28 07:10:46.317558	44.4	46.1	-72.6	0.2
2026-01-28 07:10:48.565753	45.1	46.7	-74.1	5.0
2026-01-28 07:10:50.814174	45.8	47.3	-71.9	0.0
2026-01-28 07:10:53.059114	46.6	47.9	-73.2	0.2
2026-01-28 07:10:55.309106	47.4	48.5	-71.8	0.0
2026-01-28 07:10:57.557735	48.2	49.1	-73.9	2.3
2026-01-28 07:10:59.809036	49.0	49.7	-73.6	2.8
2026-01-28 07:11:02.057377	49.9	50.3	-74.2	0.3
2026-01-28 07:11:04.308190	50.8	50.9	-73.2	0.0
2026-01-28 07:11:06.551949	51.8	51.6	-74.0	1.0
2026-01-28 07:11:08.801079	52.8	52.2	-73.6	0.5
2026-01-28 07:11:11.046330	53.8	52.8	-73.7	0.0
2026-01-28 07:11:13.294181	54.9	53.4	-73.5	0.0
2026-01-28 07:11:15.540976	56.0	54.0	-73.4	0.0
2026-01-28 07:11:17.789800	57.2	54.6	-73.6	0.0
2026-01-28 07:11:20.035835	58.4	55.2	-71.4	0.0
2026-01-28 07:11:22.282652	59.7	55.8	-74.1	0.9
2026-01-28 07:11:24.530399	61.1	56.4	-74.7	1.4
2026-01-28 07:11:26.777984	62.5	57.0	-73.5	1.4
2026-01-28 07:11:29.024580	63.9	57.5	-73.4	0.0
2026-01-28 07:11:31.271475	65.4	58.1	-73.3	0.0
2026-01-28 07:11:33.518195	67.0	58.6	-74.5	0.0
2026-01-28 07:11:35.764643	68.6	59.1	-74.4	0.1
2026-01-28 07:11:38.015685	70.3	59.6	-74.0	1.3
2026-01-28 07:11:40.265054	72.1	60.1	-74.3	0.8
2026-01-28 07:11:42.513987	74.0	60.6	-74.7	0.9
2026-01-28 07:11:44.763157	75.9	61.0	-75.4	0.0
2026-01-28 07:11:47.010786	77.8	61.4	-74.0	0.0
2026-01-28 07:11:49.259069	79.9	61.8	-73.5	0.0
2026-01-28 07:11:51.508133	82.0	62.2	-75.4	5.5
2026-01-28 07:11:53.754008	84.1	62.5	-73.8	3.5
2026-01-28 07:11:56.002535	86.3	62.8	-75.5	3.7
2026-01-28 07:11:58.252095	88.6	63.1	-75.3	3.1
2026-01-28 07:12:00.500662	90.9	63.3	-75.3	2.8
2026-01-28 07:12:02.748407	93.3	63.5	-75.5	1.2
2026-01-28 07:12:04.995878	95.7	63.6	-75.5	2.5
2026-01-28 07:12:07.243563	98.1	63.7	-75.9	0.9
2026-01-28 07:12:09.495636	100.5	63.8	-76.8	1.0
2026-01-28 07:12:11.743362	102.9	63.8	-77.3	2.6
2026-01-28 07:12:13.989371	105.4	63.8	-76.4	2.1
2026-01-28 07:12:16.235449	107.8	63.7	-75.8	5.8
2026-01-28 07:12:18.487512	110.2	63.6	-76.9	5.9
2026-01-28 07:12:20.732763	112.6	63.5	-75.9	3.8
2026-01-28 07:12:22.982302	114.9	63.3	-77.2	6.2
2026-01-28 07:12:25.232055	117.3	63.1	-76.7	6.1
2026-01-28 07:12:27.480082	119.5	62.8	-75.8	2.7
2026-01-28 07:12:29.728772	121.7	62.5	-77.3	5.1
2026-01-28 07:12:31.978412	123.9	62.2	-77.3	5.5
2026-01-28 07:12:34.225446	126.0	61.8	-77.5	4.5
2026-01-28 07:12:36.476013	128.0	61.4	-77.4	5.1
2026-01-28 07:12:38.721679	130.0	61.0	-78.3	5.9
2026-01-28 07:12:40.971952	131.9	60.6	-78.6	6.8
2026-01-28 07:12:43.223143	133.7	60.1	-78.6	8.9
2026-01-28 07:12:45.470904	135.5	59.6	-78.1	7.9
2026-01-28 07:12:47.716343	137.2	59.1	-78.2	7.6
2026-01-28 07:12:49.963774	138.9	58.6	-78.8	9.0
2026-01-28 07:12:52.212298	140.4	58.0	-78.8	9.3
2026-01-28 07:12:54.460070	141.9	57.5	-78.5	9.3
2026-01-28 07:12:56.707629	143.4	56.9	-78.5	9.2
2026-01-28 07:12:58.953655	144.8	56.3	-79.0	9.4
2026-01-28 07:13:01.207142	146.1	55.7	-78.8	9.9
2026-01-28 07:13:03.455108	147.4	55.1	-78.4	8.7
2026-01-28 07:13:05.701854	148.6	54.5	-79.1	10.4
2026-01-28 07:13:07.949617	149.8	53.9	-78.7	10.5
2026-01-28 07:13:10.199460	150.9	53.3	-78.7	11.2
2026-01-28 07:13:12.445693	152.0	52.7	-78.9	11.0
2026-01-28 07:13:14.695574	153.1	52.1	-78.8	12.2
2026-01-28 07:13:16.946632	154.1	51.5	-78.5	11.0
2026-01-28 07:13:19.193114	155.0	50.8	-78.5	11.6
2026-01-28 07:13:21.437352	155.9	50.2	-78.6	11.5
2026-01-28 07:13:23.686261	156.8	49.6	-78.3	11.8
2026-01-28 07:13:25.930514	157.7	49.0	-77.9	11.7
2026-01-28 07:13:28.176011	158.5	48.4	-78.0	11.5
2026-01-28 07:13:30.424286	159.3	47.8	-78.3	10.1
2026-01-28 07:13:32.672923	160.0	47.2	-78.9	12.0
2026-01-28 07:13:34.921780	160.7	46.6	-78.3	10.7
2026-01-28 07:13:37.166954	161.4	46.0	-78.4	12.4
2026-01-28 07:13:39.413169	162.1	45.4	-78.4	10.9
2026-01-28 07:13:41.660594	162.8	44.8	-78.2	10.5
2026-01-28 07:13:43.911337	163.4	44.2	-78.3	12.2
2026-01-28 07:13:46.162912	164.0	43.6	-78.0	12.1
2026-01-28 07:13:48.409731	164.6	43.0	-78.0	12.7
2026-01-28 07:13:50.656847	165.1	42.5	-78.0	12.7
2026-01-28 07:13:52.906315	165.7	41.9	-77.7	12.6
2026-01-28 07:13:55.155119	166.2	41.3	-77.6	12.7
2026-01-28 07:13:57.404206	166.7	40.8	-76.8	10.5
2026-01-28 07:13:59.652025	167.2	40.2	-77.9	13.4
2026-01-28 07:14:01.905256	167.7	39.7	-77.9	13.5
2026-01-28 07:14:04.153861	168.1	39.2	-78.0	12.3
2026-01-28 07:14:06.403838	168.6	38.6	-77.2	11.5
2026-01-28 07:14:08.654303	169.0	38.1	-77.5	10.6
2026-01-28 07:14:10.901457	169.4	37.6	-77.7	12.6
2026-01-28 07:14:13.152487	169.8	37.1	-77.4	11.3
2026-01-28 07:14:15.402473	170.2	36.6	-77.3	10.0
2026-01-28 07:14:17.655783	170.6	36.1	-77.7	11.6
2026-01-28 07:14:19.902553	171.0	35.6	-77.8	11.0
2026-01-28 07:14:22.154500	171.3	35.1	-77.4	11.2
2026-01-28 07:14:24.403766	171.7	34.6	-76.7	9.2
2026-01-28 07:14:26.649440	172.0	34.2	-76.4	10.1
2026-01-28 07:14:28.901615	172.4	33.7	-76.9	11.4
2026-01-28 07:14:31.147607	172.7	33.2	-76.4	9.4
2026-01-28 07:14:33.394417	173.0	32.8	-75.5	5.8
2026-01-28 07:14:35.641025	173.3	32.3	-75.9	7.3
2026-01-28 07:14:37.891186	173.6	31.9	-76.4	7.5
2026-01-28 07:14:40.138001	173.9	31.5	-76.3	9.4
2026-01-28 07:14:42.385994	174.2	31.0	-76.2	10.3
2026-01-28 07:14:44.636813	174.4	30.6	-77.0	10.3
2026-01-28 07:14:46.885343	174.7	30.2	-77.1	11.3
2026-01-28 07:14:49.133968	175.0	29.8	-76.8	10.4
2026-01-28 07:14:51.381720	175.2	29.4	-77.3	10.1
2026-01-28 07:14:53.630891	175.5	29.0	-77.1	9.2
2026-01-28 07:14:55.879138	175.7	28.6	-76.8	10.4
2026-01-28 07:14:58.126577	176.0	28.2	-77.0	9.6
2026-01-28 07:15:00.376516	176.2	27.8	-77.1	8.8
2026-01-28 07:15:02.629379	176.4	27.4	-76.4	10.0
2026-01-28 07:15:04.876620	176.6	27.0	-76.5	9.2
2026-01-28 07:15:07.125783	176.8	26.7	-76.8	9.7
2026-01-28 07:15:09.375851	177.1	26.3	-76.7	9.8
2026-01-28 07:15:11.622807	177.3	25.9	-76.6	8.6
2026-01-28 07:15:13.872381	177.5	25.6	-76.5	8.4
2026-01-28 07:15:16.120326	177.7	25.2	-76.8	9.1
2026-01-28 07:15:18.368362	177.9	24.9	-76.8	8.9
2026-01-28 07:15:20.618697	178.0	24.5	-76.8	9.1
2026-01-28 07:15:22.868266	178.2	24.2	-76.8	7.7
2026-01-28 07:15:25.117392	178.4	23.8	-76.9	8.8
2026-01-28 07:15:27.366585	178.6	23.5	-76.7	8.3
2026-01-28 07:15:29.611378	178.8	23.2	-76.6	7.8
2026-01-28 07:15:31.857720	178.9	22.8	-76.9	7.7
2026-01-28 07:15:34.106252	179.1	22.5	-77.2	8.3
2026-01-28 07:15:36.355176	179.3	22.2	-76.7	8.9
2026-01-28 07:15:38.601676	179.4	21.9	-76.4	7.2
2026-01-28 07:15:40.849212	179.6	21.6	-76.9	8.0
2026-01-28 07:15:43.098285	179.7	21.3	-76.8	7.2
2026-01-28 07:15:45.343988	179.9	21.0	-77.1	9.9
2026-01-28 07:15:47.596176	180.0	20.7	-76.4	7.8
2026-01-28 07:15:49.844038	180.2	20.4	-76.5	9.5
2026-01-28 07:15:52.093745	180.3	20.1	-76.8	7.3
2026-01-28 07:15:54.344622	180.5	19.8	-76.3	7.5
2026-01-28 07:15:56.594435	180.6	19.5	-76.1	5.6
2026-01-28 07:15:58.840694	180.7	19.2	-76.5	7.6
2026-01-28 07:16:01.089189	180.9	18.9	-76.6	8.5
2026-01-28 07:16:03.334571	181.0	18.7	-76.7	7.8
2026-01-28 07:16:05.582152	181.1	18.4	-77.0	7.1
2026-01-28 07:16:07.831615	181.3	18.1	-76.9	8.4
2026-01-28 07:16:10.079372	181.4	17.9	-77.2	7.4
2026-01-28 07:16:12.329891	181.5	17.6	-77.3	8.1
2026-01-28 07:16:14.578715	181.6	17.3	-77.3	8.2
2026-01-28 07:16:16.825743	181.8	17.1	-77.2	6.9
2026-01-28 07:16:19.072671	181.9	16.8	-77.9	7.0
2026-01-28 07:16:21.321691	182.0	16.6	-77.9	7.4
2026-01-28 07:16:23.573739	182.1	16.3	-78.1	8.0
2026-01-28 07:16:25.821490	182.2	16.0	-77.8	8.6
2026-01-28 07:16:28.069496	182.3	15.8	-78.1	8.6
2026-01-28 07:16:30.314837	182.4	15.6	-77.5	8.1
2026-01-28 07:16:32.562003	182.5	15.3	-77.9	8.6
2026-01-28 07:16:34.808383	182.6	15.1	-77.6	8.4
2026-01-28 07:16:37.053932	182.7	14.8	-77.5	7.0
2026-01-28 07:16:39.300220	182.9	14.6	-77.3	6.3
2026-01-28 07:16:41.546462	183.0	14.4	-77.5	8.6
2026-01-28 07:16:43.793185	183.1	14.1	-77.7	7.6
2026-01-28 07:16:46.039890	183.1	13.9	-77.5	7.5
2026-01-28 07:16:48.289283	183.2	13.7	-77.7	5.4
2026-01-28 07:16:50.538198	183.3	13.5	-78.0	5.2
2026-01-28 07:16:52.790477	183.4	13.2	-77.7	5.8
2026-01-28 07:16:55.039896	183.5	13.0	-77.7	6.0
2026-01-28 07:16:57.284024	183.6	12.8	-77.8	5.8
2026-01-28 07:16:59.533049	183.7	12.6	-77.4	4.4
2026-01-28 07:17:01.782909	183.8	12.4	-77.7	5.7
2026-01-28 07:17:04.029100	183.9	12.1	-77.9	4.6
2026-01-28 07:17:06.278475	184.0	11.9	-78.7	6.3
2026-01-28 07:17:08.525947	184.1	11.7	-77.8	6.9
2026-01-28 07:17:10.774869	184.1	11.5	-77.3	5.2
2026-01-28 07:17:13.019850	184.2	11.3	-77.7	5.1
2026-01-28 07:17:15.265984	184.3	11.1	-77.4	3.4
2026-01-28 07:17:17.517938	184.4	10.9	-77.7	4.2
2026-01-28 07:17:19.766744	184.5	10.7	-79.2	0.0
2026-01-28 07:17:22.014233	184.5	10.5	-79.8	0.0
2026-01-28 07:17:24.262051	184.6	10.3	-83.1	0.0
2026-01-28 07:17:26.508613	184.7	10.1	-84.5	0.0
#Closed at: 2026-01-28 07:06:47.625918