passes_logs/2026/01/28/planumMaritime01/planumMaritime01__20260128_184003_METOP-C_rec.log

#Pass ID: 20260128_184003_METOP-C
#Satellite: METOP-C
#Configuration: METOP-C
#Start time: 2026-01-28 18:40:08.037386

#LorettStation: 1.0.0 05.05.2024
#Station: planumMaritime01
#Location: 37.49445 lon 55.92918 lat
#TLE: 1 43689U 18087A   26027.64444883  .00000206  00000+0  11390-3 0  9996
#TLE: 2 43689  98.6856  89.6945 0001184 160.3480 199.7743 14.21505624374869

#Time	Az	El	Level	SNR
2026-01-28 18:40:10.212520	183.1	10.2	-70.7	0.0
2026-01-28 18:40:12.457488	183.2	10.4	-69.9	0.0
2026-01-28 18:40:14.705005	183.4	10.6	-70.1	0.0
2026-01-28 18:40:16.951139	183.5	10.8	-68.9	0.0
2026-01-28 18:40:19.199209	183.6	11.0	-70.2	0.0
2026-01-28 18:40:21.444808	183.7	11.2	-69.8	0.0
2026-01-28 18:40:23.693304	183.8	11.4	-69.8	0.0
2026-01-28 18:40:25.940973	184.0	11.6	-69.8	0.0
2026-01-28 18:40:28.186139	184.1	11.8	-70.0	0.0
2026-01-28 18:40:30.432178	184.2	12.0	-70.1	0.0
2026-01-28 18:40:32.679278	184.3	12.2	-69.9	0.0
2026-01-28 18:40:34.928702	184.5	12.4	-69.3	0.0
2026-01-28 18:40:37.175753	184.6	12.6	-69.6	0.0
2026-01-28 18:40:39.425101	184.7	12.8	-68.6	0.0
2026-01-28 18:40:41.669783	184.9	13.0	-70.2	0.0
2026-01-28 18:40:43.914104	185.0	13.2	-69.0	0.0
2026-01-28 18:40:46.159756	185.2	13.4	-69.4	0.0
2026-01-28 18:40:48.407380	185.3	13.6	-69.4	0.0
2026-01-28 18:40:50.650850	185.4	13.9	-69.3	0.0
2026-01-28 18:40:52.898545	185.6	14.1	-68.8	0.0
2026-01-28 18:40:55.143486	185.7	14.3	-68.5	0.0
2026-01-28 18:40:57.388185	185.9	14.5	-69.2	0.0
2026-01-28 18:40:59.634099	186.0	14.8	-69.0	0.0
2026-01-28 18:41:01.880078	186.2	15.0	-68.7	0.0
2026-01-28 18:41:04.124923	186.3	15.2	-68.6	0.0
2026-01-28 18:41:06.369263	186.5	15.4	-68.8	0.0
2026-01-28 18:41:08.615009	186.7	15.7	-68.0	0.0
2026-01-28 18:41:10.860499	186.8	15.9	-69.3	0.0
2026-01-28 18:41:13.106658	187.0	16.2	-68.5	0.0
2026-01-28 18:41:15.349680	187.2	16.4	-69.2	0.0
2026-01-28 18:41:17.595054	187.3	16.6	-68.1	0.0
2026-01-28 18:41:19.839239	187.5	16.9	-69.0	0.0
2026-01-28 18:41:22.085596	187.7	17.1	-68.4	0.0
2026-01-28 18:41:24.329825	187.9	17.4	-68.3	0.0
2026-01-28 18:41:26.577335	188.0	17.6	-67.3	0.0
2026-01-28 18:41:28.821927	188.2	17.9	-67.8	0.0
2026-01-28 18:41:31.067943	188.4	18.1	-68.1	0.0
2026-01-28 18:41:33.312333	188.6	18.4	-67.9	0.0
2026-01-28 18:41:35.557531	188.8	18.7	-68.1	0.0
2026-01-28 18:41:37.804301	189.0	18.9	-69.1	0.0
2026-01-28 18:41:40.050693	189.2	19.2	-67.8	0.0
2026-01-28 18:41:42.294467	189.4	19.5	-68.1	0.0
2026-01-28 18:41:44.541966	189.6	19.7	-67.3	0.0
2026-01-28 18:41:46.787000	189.8	20.0	-68.4	2.0
2026-01-28 18:41:49.030292	190.0	20.3	-68.1	0.0
2026-01-28 18:41:51.276194	190.3	20.6	-67.9	0.0
2026-01-28 18:41:53.520202	190.5	20.8	-67.9	0.0
2026-01-28 18:41:55.766943	190.7	21.1	-67.8	0.0
2026-01-28 18:41:58.011561	190.9	21.4	-67.9	0.0
2026-01-28 18:42:00.256185	191.2	21.7	-67.3	0.0
2026-01-28 18:42:02.503393	191.4	22.0	-68.4	0.0
2026-01-28 18:42:04.749861	191.7	22.3	-67.5	0.0
2026-01-28 18:42:06.996461	191.9	22.6	-67.1	0.0
2026-01-28 18:42:09.240142	192.2	22.9	-67.7	0.0
2026-01-28 18:42:11.485735	192.4	23.2	-67.5	0.0
2026-01-28 18:42:13.732897	192.7	23.5	-67.5	0.0
2026-01-28 18:42:15.979206	193.0	23.8	-67.7	0.0
2026-01-28 18:42:18.228557	193.2	24.1	-68.1	0.0
2026-01-28 18:42:20.472107	193.5	24.4	-68.1	0.0
2026-01-28 18:42:22.718119	193.8	24.8	-68.1	0.0
2026-01-28 18:42:24.963485	194.1	25.1	-68.2	0.0
2026-01-28 18:42:27.210033	194.4	25.4	-68.8	0.0
2026-01-28 18:42:29.453597	194.7	25.7	-67.5	0.0
2026-01-28 18:42:31.696264	195.0	26.1	-68.6	0.0
2026-01-28 18:42:33.941798	195.3	26.4	-68.2	0.0
2026-01-28 18:42:36.185712	195.6	26.8	-69.3	0.0
2026-01-28 18:42:38.430097	196.0	27.1	-68.2	0.0
2026-01-28 18:42:40.677012	196.3	27.4	-69.9	0.0
2026-01-28 18:42:42.920719	196.6	27.8	-68.7	0.0
2026-01-28 18:42:45.165049	197.0	28.2	-68.8	2.1
2026-01-28 18:42:47.409069	197.3	28.5	-68.6	0.0
2026-01-28 18:42:49.653050	197.7	28.9	-69.2	0.5
2026-01-28 18:42:51.901793	198.1	29.2	-69.0	0.0
2026-01-28 18:42:54.143894	198.5	29.6	-69.1	1.5
2026-01-28 18:42:56.389841	198.8	30.0	-70.1	2.3
2026-01-28 18:42:58.635002	199.2	30.4	-69.8	1.6
2026-01-28 18:43:00.880025	199.7	30.7	-70.5	3.9
2026-01-28 18:43:03.128086	200.1	31.1	-71.1	4.5
2026-01-28 18:43:05.375959	200.5	31.5	-70.1	1.2
2026-01-28 18:43:07.623213	200.9	31.9	-70.8	2.8
2026-01-28 18:43:09.871295	201.4	32.3	-70.8	2.8
2026-01-28 18:43:12.118300	201.9	32.7	-71.4	8.4
2026-01-28 18:43:14.364498	202.3	33.1	-71.3	4.1
2026-01-28 18:43:16.612890	202.8	33.5	-71.1	6.6
2026-01-28 18:43:18.857537	203.3	33.9	-71.1	7.4
2026-01-28 18:43:21.105186	203.8	34.3	-71.3	9.3
2026-01-28 18:43:23.349277	204.3	34.7	-71.5	9.0
2026-01-28 18:43:25.594650	204.9	35.1	-71.6	8.6
2026-01-28 18:43:27.836913	205.4	35.5	-71.9	10.4
2026-01-28 18:43:30.083466	206.0	35.9	-72.3	11.6
2026-01-28 18:43:32.328604	206.5	36.4	-72.6	12.4
2026-01-28 18:43:34.577823	207.1	36.8	-72.7	12.9
2026-01-28 18:43:36.821618	207.7	37.2	-72.6	13.5
2026-01-28 18:43:39.067130	208.3	37.6	-72.8	14.2
2026-01-28 18:43:41.313109	209.0	38.1	-72.9	15.2
2026-01-28 18:43:43.555525	209.6	38.5	-73.1	15.0
2026-01-28 18:43:45.800677	210.3	38.9	-73.1	14.8
2026-01-28 18:43:48.043665	211.0	39.4	-73.4	15.2
2026-01-28 18:43:50.291397	211.7	39.8	-73.3	14.9
2026-01-28 18:43:52.535810	212.4	40.2	-73.1	14.0
2026-01-28 18:43:54.780743	213.2	40.7	-73.2	13.5
2026-01-28 18:43:57.026783	213.9	41.1	-73.1	14.1
2026-01-28 18:43:59.266258	214.7	41.5	-73.2	13.6
2026-01-28 18:44:01.516234	215.5	42.0	-73.0	12.5
2026-01-28 18:44:03.763218	216.3	42.4	-72.9	12.6
2026-01-28 18:44:06.007770	217.2	42.8	-72.8	13.2
2026-01-28 18:44:08.256523	218.1	43.3	-72.7	12.3
2026-01-28 18:44:10.501106	219.0	43.7	-72.4	12.6
2026-01-28 18:44:12.749215	219.9	44.1	-72.3	11.8
2026-01-28 18:44:14.993995	220.8	44.5	-72.4	12.3
2026-01-28 18:44:17.241858	221.8	44.9	-71.9	10.5
2026-01-28 18:44:19.487681	222.8	45.4	-71.9	10.0
2026-01-28 18:44:21.731563	223.8	45.8	-72.1	11.9
2026-01-28 18:44:23.975904	224.8	46.2	-71.9	12.9
2026-01-28 18:44:26.219132	225.9	46.5	-71.7	12.3
2026-01-28 18:44:28.460911	227.0	46.9	-71.7	12.3
2026-01-28 18:44:30.708268	228.1	47.3	-71.4	10.6
2026-01-28 18:44:32.956131	229.3	47.7	-71.6	12.0
2026-01-28 18:44:35.202914	230.5	48.0	-72.0	14.2
2026-01-28 18:44:37.449157	231.7	48.4	-71.9	12.6
2026-01-28 18:44:39.696098	232.9	48.7	-71.7	11.9
2026-01-28 18:44:41.940706	234.1	49.0	-71.7	12.9
2026-01-28 18:44:44.189241	235.4	49.4	-71.5	11.2
2026-01-28 18:44:46.437205	236.7	49.7	-71.4	13.2
2026-01-28 18:44:48.682720	238.1	49.9	-71.9	12.3
2026-01-28 18:44:50.926424	239.4	50.2	-71.1	11.1
2026-01-28 18:44:53.172084	240.8	50.5	-71.7	10.4
2026-01-28 18:44:55.418428	242.2	50.7	-71.7	10.8
2026-01-28 18:44:57.664543	243.6	50.9	-72.2	12.6
2026-01-28 18:44:59.909586	245.1	51.1	-72.2	12.9
2026-01-28 18:45:02.154682	246.6	51.3	-71.8	12.0
2026-01-28 18:45:04.398662	248.0	51.5	-72.1	12.4
2026-01-28 18:45:06.643258	249.5	51.6	-71.8	12.2
2026-01-28 18:45:08.892037	251.0	51.8	-71.9	10.3
2026-01-28 18:45:11.136939	252.6	51.9	-71.9	11.9
2026-01-28 18:45:13.384339	254.1	52.0	-72.2	10.9
2026-01-28 18:45:15.634413	255.6	52.0	-72.2	11.0
2026-01-28 18:45:17.884852	257.2	52.1	-72.3	9.2
2026-01-28 18:45:20.131422	258.7	52.1	-71.9	9.3
2026-01-28 18:45:22.375310	260.3	52.1	-71.9	9.3
2026-01-28 18:45:24.617873	261.8	52.1	-71.7	7.5
2026-01-28 18:45:26.862024	263.4	52.0	-71.7	7.8
2026-01-28 18:45:29.107941	264.9	52.0	-71.5	11.0
2026-01-28 18:45:31.351947	266.5	51.9	-71.4	6.9
2026-01-28 18:45:33.597672	268.0	51.8	-70.8	9.0
2026-01-28 18:45:35.841150	269.5	51.7	-72.4	11.9
2026-01-28 18:45:38.092717	271.0	51.5	-71.7	12.4
2026-01-28 18:45:40.341282	272.5	51.4	-72.0	10.2
2026-01-28 18:45:42.588028	273.9	51.2	-71.2	10.9
2026-01-28 18:45:44.831596	275.4	51.0	-70.4	9.2
2026-01-28 18:45:47.077993	276.8	50.8	-70.4	7.5
2026-01-28 18:45:49.326571	278.2	50.5	-70.0	8.3
2026-01-28 18:45:51.575265	279.6	50.3	-71.2	9.2
2026-01-28 18:45:53.817159	281.0	50.0	-69.5	5.2
2026-01-28 18:45:56.062889	282.3	49.7	-71.1	7.2
2026-01-28 18:45:58.308807	283.6	49.4	-71.5	8.4
2026-01-28 18:46:00.555716	284.9	49.1	-71.2	6.8
2026-01-28 18:46:02.800033	286.2	48.8	-70.6	4.1
2026-01-28 18:46:05.041067	287.4	48.5	-69.6	6.5
2026-01-28 18:46:07.289687	288.6	48.1	-70.5	6.2
2026-01-28 18:46:09.533842	289.8	47.8	-70.3	7.0
2026-01-28 18:46:11.779005	291.0	47.4	-71.5	6.5
2026-01-28 18:46:14.023173	292.1	47.0	-70.3	5.1
2026-01-28 18:46:16.269272	293.2	46.7	-70.0	4.4
2026-01-28 18:46:18.515215	294.3	46.3	-71.9	9.0
2026-01-28 18:46:20.763503	295.3	45.9	-69.4	9.4
2026-01-28 18:46:23.008051	296.3	45.5	-69.7	5.0
2026-01-28 18:46:25.253313	297.3	45.1	-70.1	7.4
2026-01-28 18:46:27.498298	298.3	44.7	-70.9	7.1
2026-01-28 18:46:29.744523	299.2	44.2	-69.1	3.9
2026-01-28 18:46:31.988105	300.2	43.8	-70.6	8.2
2026-01-28 18:46:34.233234	301.1	43.4	-69.3	3.8
2026-01-28 18:46:36.477082	301.9	43.0	-69.2	1.9
2026-01-28 18:46:38.723228	302.8	42.5	-70.4	5.5
2026-01-28 18:46:40.970232	303.6	42.1	-69.4	9.0
2026-01-28 18:46:43.215710	304.4	41.7	-69.0	5.1
2026-01-28 18:46:45.460514	305.2	41.3	-69.6	4.4
2026-01-28 18:46:47.711692	306.0	40.8	-69.8	8.0
2026-01-28 18:46:49.957468	306.7	40.4	-68.7	4.5
2026-01-28 18:46:52.204326	307.5	40.0	-70.6	7.3
2026-01-28 18:46:54.450808	308.2	39.5	-70.5	7.4
2026-01-28 18:46:56.695155	308.9	39.1	-69.4	4.3
2026-01-28 18:46:58.942652	309.5	38.7	-69.4	4.9
2026-01-28 18:47:01.188711	310.2	38.2	-69.3	3.4
2026-01-28 18:47:03.433656	310.8	37.8	-69.7	5.7
2026-01-28 18:47:05.683092	311.4	37.4	-69.9	4.4
2026-01-28 18:47:07.928468	312.1	37.0	-71.1	6.4
2026-01-28 18:47:10.173118	312.6	36.5	-71.6	8.8
2026-01-28 18:47:12.422938	313.2	36.1	-69.4	5.9
2026-01-28 18:47:14.668052	313.8	35.7	-69.3	4.7
2026-01-28 18:47:16.920000	314.3	35.3	-69.3	2.3
2026-01-28 18:47:19.164165	314.9	34.9	-68.7	2.2
2026-01-28 18:47:21.408701	315.4	34.5	-69.1	3.3
2026-01-28 18:47:23.654182	315.9	34.1	-69.4	5.6
2026-01-28 18:47:25.900611	316.4	33.7	-68.5	1.3
2026-01-28 18:47:28.144049	316.9	33.3	-71.1	3.4
2026-01-28 18:47:30.391066	317.3	32.9	-70.2	4.6
2026-01-28 18:47:32.634968	317.8	32.5	-69.0	2.6
2026-01-28 18:47:34.879651	318.3	32.1	-67.9	0.0
2026-01-28 18:47:37.125589	318.7	31.7	-67.4	0.0
2026-01-28 18:47:39.368837	319.1	31.3	-68.9	2.8
2026-01-28 18:47:41.614392	319.6	30.9	-68.2	0.0
2026-01-28 18:47:43.860038	320.0	30.5	-70.3	1.9
2026-01-28 18:47:46.108798	320.4	30.2	-71.3	3.7
2026-01-28 18:47:48.357675	320.8	29.8	-70.8	2.6
2026-01-28 18:47:50.602790	321.1	29.4	-68.7	0.0
2026-01-28 18:47:52.846705	321.5	29.1	-68.6	2.5
2026-01-28 18:47:55.092366	321.9	28.7	-69.8	4.1
2026-01-28 18:47:57.338705	322.2	28.4	-67.8	0.0
2026-01-28 18:47:59.585488	322.6	28.0	-69.0	0.0
2026-01-28 18:48:01.831406	322.9	27.6	-68.3	0.4
2026-01-28 18:48:04.075545	323.3	27.3	-67.1	0.0
2026-01-28 18:48:06.317426	323.6	27.0	-67.0	0.0
2026-01-28 18:48:08.561940	323.9	26.6	-67.3	0.0
2026-01-28 18:48:10.809259	324.2	26.3	-67.9	0.0
2026-01-28 18:48:13.051464	324.6	25.9	-69.2	0.0
2026-01-28 18:48:15.295695	324.9	25.6	-65.8	0.0
2026-01-28 18:48:17.539517	325.2	25.3	-66.6	0.0
2026-01-28 18:48:19.785582	325.5	25.0	-65.1	0.0
2026-01-28 18:48:22.030514	325.7	24.7	-67.2	0.0
2026-01-28 18:48:24.278890	326.0	24.3	-66.1	0.0
2026-01-28 18:48:26.523098	326.3	24.0	-65.5	0.0
2026-01-28 18:48:28.771286	326.6	23.7	-64.3	0.0
2026-01-28 18:48:31.014888	326.8	23.4	-67.0	0.0
2026-01-28 18:48:33.263858	327.1	23.1	-65.3	0.0
2026-01-28 18:48:35.509022	327.3	22.8	-65.1	0.0
2026-01-28 18:48:37.751765	327.6	22.5	-63.4	0.0
2026-01-28 18:48:39.998172	327.8	22.2	-66.7	0.0
2026-01-28 18:48:42.243499	328.1	21.9	-65.7	0.0
2026-01-28 18:48:44.490134	328.3	21.6	-66.7	0.0
2026-01-28 18:48:46.737931	328.6	21.3	-66.8	0.0
2026-01-28 18:48:48.983247	328.8	21.1	-66.5	0.0
2026-01-28 18:48:51.228045	329.0	20.8	-64.7	0.0
2026-01-28 18:48:53.471767	329.2	20.5	-64.6	0.0
2026-01-28 18:48:55.715561	329.5	20.2	-64.8	0.0
2026-01-28 18:48:57.964315	329.7	19.9	-64.9	0.0
2026-01-28 18:49:00.209945	329.9	19.7	-64.0	0.0
2026-01-28 18:49:02.453098	330.1	19.4	-65.4	0.0
2026-01-28 18:49:04.698626	330.3	19.1	-64.8	0.0
2026-01-28 18:49:06.942522	330.5	18.9	-65.5	0.0
2026-01-28 18:49:09.187263	330.7	18.6	-64.1	0.0
2026-01-28 18:49:11.435030	330.9	18.4	-64.9	0.0
2026-01-28 18:49:13.680023	331.1	18.1	-64.3	0.0
2026-01-28 18:49:15.921706	331.3	17.8	-64.5	0.0
2026-01-28 18:49:18.165511	331.4	17.6	-65.0	0.0
2026-01-28 18:49:20.408039	331.6	17.4	-63.1	0.0
2026-01-28 18:49:22.652538	331.8	17.1	-64.0	0.0
2026-01-28 18:49:24.896670	332.0	16.9	-63.3	0.0
2026-01-28 18:49:27.140690	332.1	16.6	-61.0	0.0
2026-01-28 18:49:29.384536	332.3	16.4	-63.1	0.0
2026-01-28 18:49:31.631249	332.5	16.1	-63.5	0.0
2026-01-28 18:49:33.878565	332.7	15.9	-63.5	0.0
2026-01-28 18:49:36.125048	332.8	15.7	-62.9	0.0
2026-01-28 18:49:38.373227	333.0	15.4	-62.4	0.0
2026-01-28 18:49:40.615626	333.1	15.2	-63.6	0.0
2026-01-28 18:49:42.859014	333.3	15.0	-62.3	0.0
2026-01-28 18:49:45.105308	333.4	14.8	-62.8	0.0
2026-01-28 18:49:47.348514	333.6	14.5	-64.9	0.0
2026-01-28 18:49:49.593121	333.7	14.3	-65.0	0.0
2026-01-28 18:49:51.839312	333.9	14.1	-64.5	0.0
2026-01-28 18:49:54.084039	334.0	13.9	-64.9	0.0
2026-01-28 18:49:56.328245	334.2	13.7	-65.2	0.0
2026-01-28 18:49:58.571337	334.3	13.4	-65.2	0.0
2026-01-28 18:50:00.813026	334.5	13.2	-67.9	0.0
2026-01-28 18:50:03.057549	334.6	13.0	-64.8	0.0
2026-01-28 18:50:05.300571	334.7	12.8	-67.0	0.0
2026-01-28 18:50:07.543926	334.9	12.6	-66.2	0.0
2026-01-28 18:50:09.791698	335.0	12.4	-66.8	0.0
2026-01-28 18:50:12.033199	335.1	12.2	-67.8	0.0
2026-01-28 18:50:14.277934	335.3	12.0	-67.2	0.0
2026-01-28 18:50:16.523173	335.4	11.8	-67.9	0.0
2026-01-28 18:50:18.770547	335.5	11.6	-67.0	0.0
2026-01-28 18:50:21.015244	335.6	11.4	-67.2	0.0
2026-01-28 18:50:23.256496	335.8	11.2	-64.8	0.0
2026-01-28 18:50:25.498754	335.9	11.0	-66.9	0.0
2026-01-28 18:50:27.743161	336.0	10.8	-64.3	0.0
2026-01-28 18:50:29.988302	336.1	10.6	-65.7	0.0
2026-01-28 18:50:32.232258	336.2	10.4	-66.9	0.0
2026-01-28 18:50:34.476377	336.4	10.2	-70.0	0.0
2026-01-28 18:50:36.718767	336.5	10.1	-73.4	0.0
#Closed at: 2026-01-28 18:40:03.043242