passes_logs/2025/01/17/X_MFTI_01/X_MFTI_01__20250117_094929_NOAA_20_rec.log

#Pass ID: 20250117_094929_NOAA 20
#Satellite: NOAA 20
#Configuration: NOAA 20
#Start time: 2025-01-17 09:49:26

#Version: 1.5.20200625
#Station: X_MFTI_01
#Location: 37.5186 lon 55.9291 lat
#TLE: 1 43013U 17073A   23362.44808611  .00000160  00000+0  96626-4 0  9996
#TLE: 2 43013  98.7331 297.9536 0000783  57.5916 302.5335 14.19555620316533

#Time	Az	El	Level	Level2	SNR	BER	Gain	Gain2
2025-01-17 09:49:28.11	111.20	69.53	
2025-01-17 09:49:28.32	110.98	69.60	
2025-01-17 09:49:28.53	110.76	69.66	
2025-01-17 09:49:28.73	110.55	69.72	
2025-01-17 09:49:28.93	110.34	69.79	
2025-01-17 09:49:29.14	110.11	69.85	
2025-01-17 09:49:29.35	109.89	69.91	
2025-01-17 09:49:29.55	109.67	69.97	
2025-01-17 09:49:29.76	109.44	70.04	
2025-01-17 09:49:29.96	109.22	70.10	
2025-01-17 09:49:30.17	108.99	70.16	
2025-01-17 09:49:30.38	108.76	70.22	
2025-01-17 09:49:30.58	108.53	70.28	
2025-01-17 09:49:30.79	108.29	70.34	
2025-01-17 09:49:31.00	108.06	70.41	
2025-01-17 09:49:31.20	107.83	70.46	
2025-01-17 09:49:31.41	107.59	70.53	
2025-01-17 09:49:31.62	107.34	70.59	
2025-01-17 09:49:31.83	107.10	70.65	
2025-01-17 09:49:32.03	106.86	70.71	
2025-01-17 09:49:32.23	106.63	70.76	
2025-01-17 09:49:32.43	106.39	70.82	
2025-01-17 09:49:32.65	106.13	70.88	
2025-01-17 09:49:32.85	105.89	70.94	
2025-01-17 09:49:33.06	105.63	71.00	
2025-01-17 09:49:33.26	105.39	71.05	
2025-01-17 09:49:33.46	105.14	71.11	
2025-01-17 09:49:33.67	104.88	71.17	
2025-01-17 09:49:33.88	104.62	71.22	
2025-01-17 09:49:34.09	104.36	71.28	
2025-01-17 09:49:34.29	104.11	71.34	
2025-01-17 09:49:34.49	103.85	71.39	
2025-01-17 09:49:34.69	103.60	71.44	
2025-01-17 09:49:34.90	103.33	71.50	
2025-01-17 09:49:35.11	103.06	71.55	
2025-01-17 09:49:35.31	102.80	71.61	
2025-01-17 09:49:35.51	102.54	71.66	
2025-01-17 09:49:35.71	102.28	71.71	
2025-01-17 09:49:35.92	102.00	71.76	
2025-01-17 09:49:36.12	101.73	71.82	
2025-01-17 09:49:36.32	101.46	71.87	
2025-01-17 09:49:36.53	101.18	71.92	
2025-01-17 09:49:36.73	100.91	71.97	
2025-01-17 09:49:36.93	100.64	72.02	
2025-01-17 09:49:37.14	100.35	72.07	
2025-01-17 09:49:37.35	100.06	72.12	
2025-01-17 09:49:37.56	99.77	72.17	
2025-01-17 09:49:37.76	99.49	72.22	
2025-01-17 09:49:37.97	99.19	72.27	
2025-01-17 09:49:38.17	98.91	72.32	
2025-01-17 09:49:38.37	98.63	72.37	
2025-01-17 09:49:38.57	98.34	72.41	
2025-01-17 09:49:38.78	98.04	72.46	
2025-01-17 09:49:38.98	97.75	72.51	
2025-01-17 09:49:39.19	97.45	72.56	
2025-01-17 09:49:39.39	97.15	72.60	
2025-01-17 09:49:39.61	96.83	72.65	
2025-01-17 09:49:39.82	96.52	72.70	
2025-01-17 09:49:40.03	96.21	72.74	
2025-01-17 09:49:40.23	95.91	72.78	
2025-01-17 09:49:40.44	95.59	72.83	
2025-01-17 09:49:40.64	95.29	72.87	
2025-01-17 09:49:40.84	94.99	72.91	
2025-01-17 09:49:41.05	94.67	72.96	
2025-01-17 09:49:41.25	94.36	73.00	
2025-01-17 09:49:41.46	94.04	73.04	
2025-01-17 09:49:41.66	93.73	73.08	
2025-01-17 09:49:41.86	93.42	73.12	
2025-01-17 09:49:42.07	93.09	73.16	
2025-01-17 09:49:42.27	92.77	73.20	
2025-01-17 09:49:42.48	92.44	73.24	
2025-01-17 09:49:42.68	92.12	73.28	
2025-01-17 09:49:42.88	91.80	73.31	
2025-01-17 09:49:43.09	91.47	73.35	
2025-01-17 09:49:43.30	91.13	73.39	
2025-01-17 09:49:43.51	90.79	73.43	
2025-01-17 09:49:43.71	90.46	73.46	
2025-01-17 09:49:43.92	90.12	73.50	
2025-01-17 09:49:44.13	89.78	73.53	
2025-01-17 09:49:44.33	89.45	73.57	
2025-01-17 09:49:44.54	89.10	73.60	
2025-01-17 09:49:44.75	88.75	73.64	
2025-01-17 09:49:44.95	88.41	73.67	
2025-01-17 09:49:45.16	88.06	73.70	
2025-01-17 09:49:45.37	87.71	73.73	
2025-01-17 09:49:45.57	87.37	73.76	
2025-01-17 09:49:45.78	87.01	73.79	
2025-01-17 09:49:45.99	86.66	73.83	
2025-01-17 09:49:46.20	86.30	73.86	
2025-01-17 09:49:46.40	85.95	73.88	
2025-01-17 09:49:46.61	85.59	73.91	
2025-01-17 09:49:46.81	85.25	73.94	
2025-01-17 09:49:47.02	84.88	73.97	
2025-01-17 09:49:47.22	84.53	73.99	
2025-01-17 09:49:47.42	84.18	74.02	
2025-01-17 09:49:47.63	83.82	74.04	
2025-01-17 09:49:47.83	83.46	74.07	
2025-01-17 09:49:48.04	83.09	74.09	
2025-01-17 09:49:48.25	82.72	74.12	
2025-01-17 09:49:48.45	82.37	74.14	
2025-01-17 09:49:48.66	81.99	74.16	
2025-01-17 09:49:48.86	81.63	74.18	
2025-01-17 09:49:49.07	81.26	74.20	
2025-01-17 09:49:49.27	80.90	74.22	
2025-01-17 09:49:49.47	80.54	74.24	
2025-01-17 09:49:49.68	80.16	74.26	
2025-01-17 09:49:49.88	79.80	74.28	
2025-01-17 09:49:50.09	79.42	74.30	
2025-01-17 09:49:50.29	79.05	74.31	
2025-01-17 09:49:50.50	78.67	74.33	
2025-01-17 09:49:50.70	78.30	74.35	
2025-01-17 09:49:50.91	77.92	74.36	
2025-01-17 09:49:51.11	77.55	74.38	
2025-01-17 09:49:51.32	77.17	74.39	
2025-01-17 09:49:51.52	76.80	74.40	
2025-01-17 09:49:51.74	76.39	74.42	
2025-01-17 09:49:51.95	76.01	74.43	
2025-01-17 09:49:52.15	75.64	74.44	
2025-01-17 09:49:52.36	75.25	74.45	
2025-01-17 09:49:52.56	74.88	74.46	
2025-01-17 09:49:52.77	74.49	74.47	
2025-01-17 09:49:52.98	74.10	74.48	
2025-01-17 09:49:53.18	73.72	74.49	
2025-01-17 09:49:53.39	73.33	74.49	
2025-01-17 09:49:53.60	72.94	74.50	
2025-01-17 09:49:53.80	72.57	74.51	
2025-01-17 09:49:54.01	72.17	74.51	
2025-01-17 09:49:54.21	71.80	74.52	
2025-01-17 09:49:54.42	71.41	74.52	
2025-01-17 09:49:54.63	71.01	74.52	
2025-01-17 09:49:54.83	70.64	74.53	
2025-01-17 09:49:55.04	70.25	74.53	
2025-01-17 09:49:55.24	69.87	74.53	
2025-01-17 09:49:55.44	69.50	74.53	
2025-01-17 09:49:55.65	69.10	74.53	
2025-01-17 09:49:55.85	68.73	74.53	
2025-01-17 09:49:56.06	68.34	74.53	
2025-01-17 09:49:56.26	67.96	74.53	
2025-01-17 09:49:56.47	67.57	74.52	
2025-01-17 09:49:56.68	67.18	74.52	
2025-01-17 09:49:56.88	66.80	74.51	
2025-01-17 09:49:57.08	66.43	74.51	
2025-01-17 09:49:57.29	66.04	74.50	
2025-01-17 09:49:57.49	65.66	74.50	
2025-01-17 09:49:57.69	65.29	74.49	
2025-01-17 09:49:57.90	64.90	74.48	
2025-01-17 09:49:58.10	64.53	74.48	
2025-01-17 09:49:58.30	64.15	74.47	
2025-01-17 09:49:58.51	63.76	74.46	
2025-01-17 09:49:58.72	63.37	74.45	
2025-01-17 09:49:58.93	62.99	74.44	
2025-01-17 09:49:59.13	62.62	74.43	
2025-01-17 09:49:59.34	62.23	74.41	
2025-01-17 09:49:59.54	61.86	74.40	
2025-01-17 09:49:59.74	61.49	74.39	
2025-01-17 09:49:59.94	61.12	74.37	
2025-01-17 09:50:00.15	60.74	74.36	
2025-01-17 09:50:00.35	60.37	74.35	
2025-01-17 09:50:00.56	59.99	74.33	
2025-01-17 09:50:00.76	59.63	74.31	
2025-01-17 09:50:00.96	59.26	74.30	
2025-01-17 09:50:01.17	58.88	74.28	
2025-01-17 09:50:01.38	58.50	74.26	
2025-01-17 09:50:01.59	58.12	74.24	
2025-01-17 09:50:01.80	57.75	74.22	
2025-01-17 09:50:02.00	57.39	74.20	
2025-01-17 09:50:02.21	57.01	74.18	
2025-01-17 09:50:02.43	56.62	74.15	
2025-01-17 09:50:02.63	56.26	74.13	
2025-01-17 09:50:02.83	55.91	74.11	
2025-01-17 09:50:03.04	55.54	74.09	
2025-01-17 09:50:03.24	55.18	74.06	
2025-01-17 09:50:03.44	54.83	74.04	
2025-01-17 09:50:03.65	54.46	74.01	
2025-01-17 09:50:03.85	54.11	73.99	
2025-01-17 09:50:04.06	53.75	73.96	
2025-01-17 09:50:04.26	53.40	73.93	
2025-01-17 09:50:04.47	53.04	73.91	
2025-01-17 09:50:04.68	52.68	73.88	
2025-01-17 09:50:04.90	52.30	73.85	
2025-01-17 09:50:05.10	51.96	73.82	
2025-01-17 09:50:05.30	51.62	73.79	
2025-01-17 09:50:05.51	51.26	73.76	
2025-01-17 09:50:05.71	50.93	73.73	
2025-01-17 09:50:05.92	50.57	73.69	
2025-01-17 09:50:06.13	50.22	73.66	
2025-01-17 09:50:06.33	49.89	73.63	
2025-01-17 09:50:06.53	49.55	73.60	
2025-01-17 09:50:06.74	49.21	73.56	
2025-01-17 09:50:06.95	48.86	73.53	
2025-01-17 09:50:07.15	48.53	73.49	
2025-01-17 09:50:07.35	48.21	73.46	
2025-01-17 09:50:07.55	47.88	73.42	
2025-01-17 09:50:07.76	47.54	73.39	
2025-01-17 09:50:07.96	47.22	73.35	
2025-01-17 09:50:08.17	46.89	73.31	
2025-01-17 09:50:08.37	46.57	73.27	
2025-01-17 09:50:08.57	46.25	73.24	
2025-01-17 09:50:08.78	45.92	73.20	
2025-01-17 09:50:08.98	45.60	73.16	
2025-01-17 09:50:09.19	45.27	73.12	
2025-01-17 09:50:09.40	44.95	73.08	
2025-01-17 09:50:09.60	44.64	73.04	
2025-01-17 09:50:09.80	44.33	73.00	
2025-01-17 09:50:10.01	44.01	72.95	
2025-01-17 09:50:10.21	43.70	72.91	
2025-01-17 09:50:10.41	43.40	72.87	
2025-01-17 09:50:10.62	43.08	72.82	
2025-01-17 09:50:10.82	42.78	72.78	
2025-01-17 09:50:11.03	42.47	72.74	
2025-01-17 09:50:11.23	42.17	72.69	
2025-01-17 09:50:11.44	41.86	72.65	
2025-01-17 09:50:11.65	41.56	72.60	
2025-01-17 09:50:11.85	41.26	72.56	
2025-01-17 09:50:12.07	40.94	72.51	
2025-01-17 09:50:12.27	40.66	72.46	
2025-01-17 09:50:12.48	40.35	72.41	
2025-01-17 09:50:12.68	40.07	72.36	
2025-01-17 09:50:12.89	39.77	72.32	
2025-01-17 09:50:13.09	39.49	72.27	
2025-01-17 09:50:13.30	39.20	72.22	
2025-01-17 09:50:13.50	38.92	72.17	
2025-01-17 09:50:13.70	38.64	72.12	
2025-01-17 09:50:13.92	38.34	72.07	
2025-01-17 09:50:14.12	38.06	72.02	
2025-01-17 09:50:14.32	37.79	71.97	
2025-01-17 09:50:14.52	37.52	71.92	
2025-01-17 09:50:14.73	37.24	71.87	
2025-01-17 09:50:14.94	36.96	71.81	
2025-01-17 09:50:15.14	36.69	71.76	
2025-01-17 09:50:15.35	36.41	71.71	
2025-01-17 09:50:15.55	36.15	71.66	
2025-01-17 09:50:15.76	35.88	71.60	
2025-01-17 09:50:15.96	35.62	71.55	
2025-01-17 09:50:16.16	35.36	71.49	
2025-01-17 09:50:16.37	35.09	71.44	
2025-01-17 09:50:16.57	34.84	71.39	
2025-01-17 09:50:16.79	34.56	71.33	
2025-01-17 09:50:17.00	34.30	71.27	
2025-01-17 09:50:17.20	34.05	71.21	
2025-01-17 09:50:17.40	33.80	71.16	
2025-01-17 09:50:17.60	33.55	71.10	
2025-01-17 09:50:17.82	33.28	71.04	
2025-01-17 09:50:18.03	33.03	70.99	
2025-01-17 09:50:18.23	32.78	70.93	
2025-01-17 09:50:18.44	32.53	70.87	
2025-01-17 09:50:18.64	32.29	70.81	
2025-01-17 09:50:18.84	32.06	70.76	
2025-01-17 09:50:19.06	31.80	70.69	
2025-01-17 09:50:19.26	31.56	70.64	
2025-01-17 09:50:19.46	31.33	70.58	
2025-01-17 09:50:19.67	31.09	70.52	
2025-01-17 09:50:19.88	30.85	70.46	
2025-01-17 09:50:20.09	30.61	70.39	
2025-01-17 09:50:20.29	30.38	70.34	
2025-01-17 09:50:20.49	30.16	70.28	
2025-01-17 09:50:20.69	29.93	70.22	
2025-01-17 09:50:20.91	29.69	70.15	

#Closed at: 2025-01-17 09:50:21