passes_logs/2025/01/17/X_MFTI_01/X_MFTI_01__20250117_233950_NOAA_20_rec.log

#Pass ID: 20250117_233950_NOAA 20
#Satellite: NOAA 20
#Configuration: NOAA 20
#Start time: 2025-01-17 23:39:46

#Version: 1.5.20200625
#Station: X_MFTI_01
#Location: 37.5186 lon 55.9291 lat
#TLE: 1 43013U 17073A   23362.44808611  .00000160  00000+0  96626-4 0  9996
#TLE: 2 43013  98.7331 297.9536 0000783  57.5916 302.5335 14.19555620316533

#Time	Az	El	Level	Level2	SNR	BER	Gain	Gain2
2025-01-17 23:39:48.90	41.43	69.91	
2025-01-17 23:39:49.10	41.55	70.00	
2025-01-17 23:39:49.31	41.68	70.09	
2025-01-17 23:39:49.52	41.81	70.17	
2025-01-17 23:39:49.73	41.95	70.26	
2025-01-17 23:39:49.94	42.08	70.35	
2025-01-17 23:39:50.14	42.21	70.43	
2025-01-17 23:39:50.35	42.34	70.52	
2025-01-17 23:39:50.56	42.48	70.61	
2025-01-17 23:39:50.76	42.61	70.69	
2025-01-17 23:39:50.96	42.75	70.78	
2025-01-17 23:39:51.17	42.89	70.87	
2025-01-17 23:39:51.37	43.02	70.95	
2025-01-17 23:39:51.59	43.17	71.04	
2025-01-17 23:39:51.79	43.31	71.13	
2025-01-17 23:39:51.99	43.45	71.21	
2025-01-17 23:39:52.20	43.60	71.30	
2025-01-17 23:39:52.40	43.74	71.38	
2025-01-17 23:39:52.61	43.90	71.47	
2025-01-17 23:39:52.82	44.05	71.56	
2025-01-17 23:39:53.02	44.19	71.64	
2025-01-17 23:39:53.23	44.35	71.73	
2025-01-17 23:39:53.44	44.51	71.81	
2025-01-17 23:39:53.64	44.66	71.90	
2025-01-17 23:39:53.84	44.81	71.98	
2025-01-17 23:39:54.05	44.97	72.07	
2025-01-17 23:39:54.25	45.13	72.15	
2025-01-17 23:39:54.46	45.30	72.24	
2025-01-17 23:39:54.66	45.45	72.32	
2025-01-17 23:39:54.87	45.62	72.41	
2025-01-17 23:39:55.08	45.79	72.49	
2025-01-17 23:39:55.29	45.97	72.58	
2025-01-17 23:39:55.50	46.14	72.67	
2025-01-17 23:39:55.70	46.31	72.75	
2025-01-17 23:39:55.91	46.48	72.84	
2025-01-17 23:39:56.13	46.67	72.93	
2025-01-17 23:39:56.34	46.85	73.01	
2025-01-17 23:39:56.55	47.04	73.10	
2025-01-17 23:39:56.76	47.22	73.19	
2025-01-17 23:39:56.96	47.40	73.27	
2025-01-17 23:39:57.16	47.58	73.35	
2025-01-17 23:39:57.37	47.77	73.44	
2025-01-17 23:39:57.57	47.96	73.52	
2025-01-17 23:39:57.77	48.14	73.60	
2025-01-17 23:39:57.98	48.34	73.69	
2025-01-17 23:39:58.19	48.54	73.77	
2025-01-17 23:39:58.39	48.73	73.85	
2025-01-17 23:39:58.60	48.94	73.94	
2025-01-17 23:39:58.81	49.14	74.02	
2025-01-17 23:39:59.02	49.35	74.11	
2025-01-17 23:39:59.22	49.55	74.19	
2025-01-17 23:39:59.42	49.76	74.27	
2025-01-17 23:39:59.63	49.97	74.35	
2025-01-17 23:39:59.83	50.18	74.43	
2025-01-17 23:40:00.04	50.40	74.52	
2025-01-17 23:40:00.25	50.62	74.60	
2025-01-17 23:40:00.45	50.84	74.68	
2025-01-17 23:40:00.65	51.05	74.76	
2025-01-17 23:40:00.86	51.28	74.85	
2025-01-17 23:40:01.07	51.51	74.93	
2025-01-17 23:40:01.28	51.75	75.01	
2025-01-17 23:40:01.48	51.98	75.09	
2025-01-17 23:40:01.68	52.21	75.17	
2025-01-17 23:40:01.89	52.45	75.25	
2025-01-17 23:40:02.10	52.70	75.33	
2025-01-17 23:40:02.30	52.93	75.41	
2025-01-17 23:40:02.51	53.19	75.50	
2025-01-17 23:40:02.72	53.44	75.58	
2025-01-17 23:40:02.92	53.69	75.65	
2025-01-17 23:40:03.13	53.95	75.74	
2025-01-17 23:40:03.35	54.22	75.82	
2025-01-17 23:40:03.56	54.49	75.90	
2025-01-17 23:40:03.76	54.75	75.98	
2025-01-17 23:40:03.97	55.02	76.06	
2025-01-17 23:40:04.18	55.30	76.14	
2025-01-17 23:40:04.38	55.56	76.21	
2025-01-17 23:40:04.59	55.85	76.29	
2025-01-17 23:40:04.79	56.12	76.37	
2025-01-17 23:40:05.00	56.41	76.45	
2025-01-17 23:40:05.21	56.70	76.53	
2025-01-17 23:40:05.42	57.00	76.61	
2025-01-17 23:40:05.62	57.29	76.68	
2025-01-17 23:40:05.82	57.58	76.75	
2025-01-17 23:40:06.02	57.87	76.83	
2025-01-17 23:40:06.23	58.18	76.90	
2025-01-17 23:40:06.43	58.48	76.98	
2025-01-17 23:40:06.64	58.80	77.05	
2025-01-17 23:40:06.85	59.12	77.13	
2025-01-17 23:40:07.05	59.43	77.20	
2025-01-17 23:40:07.26	59.76	77.28	
2025-01-17 23:40:07.46	60.08	77.35	
2025-01-17 23:40:07.67	60.42	77.42	
2025-01-17 23:40:07.88	60.76	77.50	
2025-01-17 23:40:08.08	61.09	77.57	
2025-01-17 23:40:08.29	61.44	77.64	
2025-01-17 23:40:08.50	61.79	77.72	
2025-01-17 23:40:08.71	62.15	77.79	
2025-01-17 23:40:08.92	62.51	77.86	
2025-01-17 23:40:09.12	62.86	77.93	
2025-01-17 23:40:09.33	63.24	78.00	
2025-01-17 23:40:09.54	63.61	78.07	
2025-01-17 23:40:09.75	63.99	78.14	
2025-01-17 23:40:09.95	64.36	78.21	
2025-01-17 23:40:10.16	64.75	78.28	
2025-01-17 23:40:10.36	65.13	78.34	
2025-01-17 23:40:10.57	65.53	78.41	
2025-01-17 23:40:10.77	65.91	78.48	
2025-01-17 23:40:10.98	66.32	78.54	
2025-01-17 23:40:11.18	66.71	78.61	
2025-01-17 23:40:11.38	67.11	78.67	
2025-01-17 23:40:11.58	67.52	78.73	
2025-01-17 23:40:11.79	67.94	78.80	
2025-01-17 23:40:11.99	68.36	78.86	
2025-01-17 23:40:12.20	68.79	78.92	
2025-01-17 23:40:12.41	69.24	78.99	
2025-01-17 23:40:12.62	69.69	79.05	
2025-01-17 23:40:12.82	70.12	79.11	
2025-01-17 23:40:13.03	70.58	79.17	
2025-01-17 23:40:13.24	71.04	79.23	
2025-01-17 23:40:13.45	71.51	79.29	
2025-01-17 23:40:13.66	71.99	79.35	
2025-01-17 23:40:13.86	72.44	79.41	
2025-01-17 23:40:14.07	72.93	79.47	
2025-01-17 23:40:14.28	73.42	79.52	
2025-01-17 23:40:14.48	73.89	79.58	
2025-01-17 23:40:14.69	74.39	79.63	
2025-01-17 23:40:14.90	74.90	79.69	
2025-01-17 23:40:15.10	75.39	79.74	
2025-01-17 23:40:15.32	75.93	79.80	
2025-01-17 23:40:15.52	76.43	79.85	
2025-01-17 23:40:15.73	76.96	79.90	
2025-01-17 23:40:15.94	77.49	79.95	
2025-01-17 23:40:16.14	78.01	80.00	
2025-01-17 23:40:16.34	78.52	80.04	
2025-01-17 23:40:16.54	79.05	80.09	
2025-01-17 23:40:16.75	79.60	80.14	
2025-01-17 23:40:16.96	80.17	80.19	
2025-01-17 23:40:17.16	80.70	80.23	
2025-01-17 23:40:17.37	81.28	80.27	
2025-01-17 23:40:17.57	81.83	80.32	
2025-01-17 23:40:17.78	82.41	80.36	
2025-01-17 23:40:17.99	82.99	80.40	
2025-01-17 23:40:18.19	83.56	80.44	
2025-01-17 23:40:18.39	84.13	80.48	
2025-01-17 23:40:18.60	84.73	80.52	
2025-01-17 23:40:18.80	85.31	80.55	
2025-01-17 23:40:19.01	85.92	80.59	
2025-01-17 23:40:19.21	86.51	80.63	
2025-01-17 23:40:19.41	87.10	80.66	
2025-01-17 23:40:19.62	87.72	80.69	
2025-01-17 23:40:19.84	88.38	80.73	
2025-01-17 23:40:20.04	88.99	80.76	
2025-01-17 23:40:20.25	89.63	80.79	
2025-01-17 23:40:20.45	90.24	80.82	
2025-01-17 23:40:20.65	90.86	80.85	
2025-01-17 23:40:20.85	91.48	80.87	
2025-01-17 23:40:21.06	92.13	80.90	
2025-01-17 23:40:21.26	92.76	80.92	
2025-01-17 23:40:21.47	93.42	80.95	
2025-01-17 23:40:21.68	94.09	80.97	
2025-01-17 23:40:21.89	94.76	80.99	
2025-01-17 23:40:22.10	95.43	81.01	
2025-01-17 23:40:22.32	96.14	81.03	
2025-01-17 23:40:22.53	96.81	81.05	
2025-01-17 23:40:22.73	97.46	81.07	
2025-01-17 23:40:22.93	98.11	81.08	
2025-01-17 23:40:23.14	98.80	81.10	
2025-01-17 23:40:23.34	99.45	81.11	
2025-01-17 23:40:23.55	100.14	81.12	
2025-01-17 23:40:23.76	100.84	81.13	
2025-01-17 23:40:23.97	101.53	81.14	
2025-01-17 23:40:24.17	102.19	81.15	
2025-01-17 23:40:24.37	102.85	81.15	
2025-01-17 23:40:24.58	103.55	81.16	
2025-01-17 23:40:24.79	104.25	81.16	
2025-01-17 23:40:25.00	104.94	81.17	
2025-01-17 23:40:25.20	105.61	81.17	
2025-01-17 23:40:25.40	106.27	81.17	
2025-01-17 23:40:25.61	106.97	81.17	
2025-01-17 23:40:25.82	107.67	81.17	
2025-01-17 23:40:26.03	108.37	81.16	
2025-01-17 23:40:26.23	109.03	81.16	
2025-01-17 23:40:26.44	109.73	81.15	
2025-01-17 23:40:26.64	110.39	81.15	
2025-01-17 23:40:26.85	111.09	81.14	
2025-01-17 23:40:27.06	111.78	81.13	
2025-01-17 23:40:27.26	112.44	81.12	
2025-01-17 23:40:27.47	113.13	81.11	
2025-01-17 23:40:27.68	113.81	81.09	
2025-01-17 23:40:27.90	114.53	81.08	
2025-01-17 23:40:28.10	115.18	81.06	
2025-01-17 23:40:28.31	115.86	81.05	
2025-01-17 23:40:28.52	116.54	81.03	
2025-01-17 23:40:28.73	117.22	81.01	
2025-01-17 23:40:28.94	117.89	80.99	
2025-01-17 23:40:29.15	118.56	80.97	
2025-01-17 23:40:29.35	119.19	80.94	
2025-01-17 23:40:29.57	119.88	80.92	
2025-01-17 23:40:29.78	120.54	80.89	
2025-01-17 23:40:29.98	121.17	80.87	
2025-01-17 23:40:30.19	121.82	80.84	
2025-01-17 23:40:30.40	122.46	80.81	
2025-01-17 23:40:30.60	123.07	80.78	
2025-01-17 23:40:30.81	123.71	80.75	
2025-01-17 23:40:31.01	124.32	80.72	
2025-01-17 23:40:31.22	124.95	80.69	
2025-01-17 23:40:31.42	125.54	80.65	
2025-01-17 23:40:31.62	126.13	80.62	
2025-01-17 23:40:31.83	126.75	80.58	
2025-01-17 23:40:32.03	127.33	80.55	
2025-01-17 23:40:32.23	127.91	80.51	
2025-01-17 23:40:32.43	128.48	80.47	
2025-01-17 23:40:32.65	129.10	80.43	
2025-01-17 23:40:32.86	129.70	80.39	
2025-01-17 23:40:33.07	130.28	80.35	
2025-01-17 23:40:33.27	130.84	80.31	
2025-01-17 23:40:33.47	131.38	80.26	
2025-01-17 23:40:33.68	131.95	80.22	
2025-01-17 23:40:33.89	132.52	80.17	
2025-01-17 23:40:34.09	133.05	80.13	
2025-01-17 23:40:34.29	133.58	80.08	
2025-01-17 23:40:34.49	134.10	80.04	
2025-01-17 23:40:34.70	134.65	79.99	
2025-01-17 23:40:34.91	135.19	79.94	
2025-01-17 23:40:35.11	135.69	79.89	
2025-01-17 23:40:35.32	136.22	79.83	
2025-01-17 23:40:35.52	136.72	79.78	
2025-01-17 23:40:35.73	137.24	79.73	
2025-01-17 23:40:35.94	137.75	79.68	
2025-01-17 23:40:36.14	138.23	79.62	
2025-01-17 23:40:36.35	138.73	79.57	
2025-01-17 23:40:36.55	139.20	79.51	
2025-01-17 23:40:36.76	139.69	79.45	
2025-01-17 23:40:36.96	140.16	79.40	
2025-01-17 23:40:37.17	140.63	79.34	
2025-01-17 23:40:37.37	141.09	79.28	
2025-01-17 23:40:37.58	141.56	79.22	
2025-01-17 23:40:37.79	142.02	79.16	
2025-01-17 23:40:37.99	142.46	79.10	
2025-01-17 23:40:38.19	142.89	79.04	
2025-01-17 23:40:38.39	143.31	78.98	
2025-01-17 23:40:38.60	143.76	78.92	
2025-01-17 23:40:38.81	144.20	78.86	
2025-01-17 23:40:39.01	144.61	78.80	
2025-01-17 23:40:39.23	145.06	78.73	
2025-01-17 23:40:39.43	145.46	78.66	
2025-01-17 23:40:39.63	145.86	78.60	
2025-01-17 23:40:39.85	146.29	78.53	
2025-01-17 23:40:40.05	146.68	78.47	
2025-01-17 23:40:40.26	147.08	78.40	
2025-01-17 23:40:40.46	147.46	78.33	
2025-01-17 23:40:40.67	147.86	78.26	
2025-01-17 23:40:40.87	148.23	78.20	
2025-01-17 23:40:41.08	148.62	78.13	
2025-01-17 23:40:41.28	148.98	78.06	
2025-01-17 23:40:41.49	149.35	77.99	
2025-01-17 23:40:41.69	149.71	77.92	
2025-01-17 23:40:41.90	150.07	77.85	
2025-01-17 23:40:42.10	150.42	77.78	
2025-01-17 23:40:42.30	150.76	77.71	
2025-01-17 23:40:42.51	151.12	77.64	
2025-01-17 23:40:42.72	151.47	77.56	
2025-01-17 23:40:42.92	151.80	77.49	
2025-01-17 23:40:43.12	152.12	77.42	
2025-01-17 23:40:43.33	152.46	77.35	
2025-01-17 23:40:43.54	152.80	77.27	
2025-01-17 23:40:43.75	153.13	77.20	
2025-01-17 23:40:43.96	153.45	77.12	
2025-01-17 23:40:44.17	153.77	77.05	
2025-01-17 23:40:44.38	154.09	76.97	
2025-01-17 23:40:44.59	154.41	76.89	
2025-01-17 23:40:44.80	154.72	76.81	
2025-01-17 23:40:45.01	155.02	76.74	
2025-01-17 23:40:45.21	155.31	76.66	
2025-01-17 23:40:45.41	155.60	76.59	
2025-01-17 23:40:45.62	155.89	76.51	
2025-01-17 23:40:45.82	156.17	76.43	
2025-01-17 23:40:46.03	156.46	76.36	
2025-01-17 23:40:46.24	156.75	76.28	
2025-01-17 23:40:46.45	157.03	76.20	
2025-01-17 23:40:46.66	157.31	76.12	
2025-01-17 23:40:46.86	157.57	76.04	
2025-01-17 23:40:47.07	157.85	75.96	
2025-01-17 23:40:47.28	158.12	75.88	
2025-01-17 23:40:47.48	158.37	75.80	
2025-01-17 23:40:47.69	158.63	75.72	
2025-01-17 23:40:47.90	158.90	75.64	
2025-01-17 23:40:48.11	159.15	75.56	
2025-01-17 23:40:48.32	159.41	75.48	
2025-01-17 23:40:48.53	159.66	75.39	
2025-01-17 23:40:48.74	159.91	75.31	
2025-01-17 23:40:48.95	160.15	75.23	
2025-01-17 23:40:49.16	160.40	75.15	
2025-01-17 23:40:49.37	160.64	75.06	
2025-01-17 23:40:49.58	160.87	74.98	
2025-01-17 23:40:49.78	161.10	74.90	
2025-01-17 23:40:49.98	161.32	74.82	
2025-01-17 23:40:50.19	161.55	74.74	
2025-01-17 23:40:50.39	161.76	74.66	
2025-01-17 23:40:50.59	161.98	74.58	
2025-01-17 23:40:50.80	162.20	74.49	
2025-01-17 23:40:51.01	162.42	74.41	
2025-01-17 23:40:51.22	162.64	74.32	
2025-01-17 23:40:51.42	162.84	74.24	
2025-01-17 23:40:51.63	163.05	74.16	
2025-01-17 23:40:51.84	163.27	74.07	
2025-01-17 23:40:52.04	163.46	73.99	
2025-01-17 23:40:52.26	163.68	73.90	
2025-01-17 23:40:52.46	163.87	73.82	
2025-01-17 23:40:52.66	164.06	73.74	
2025-01-17 23:40:52.87	164.26	73.65	
2025-01-17 23:40:53.07	164.45	73.57	
2025-01-17 23:40:53.27	164.64	73.49	
2025-01-17 23:40:53.47	164.82	73.41	
2025-01-17 23:40:53.68	165.01	73.32	
2025-01-17 23:40:53.88	165.19	73.24	
2025-01-17 23:40:54.08	165.37	73.16	
2025-01-17 23:40:54.29	165.55	73.07	
2025-01-17 23:40:54.49	165.73	72.99	
2025-01-17 23:40:54.69	165.90	72.91	
2025-01-17 23:40:54.90	166.08	72.82	
2025-01-17 23:40:55.11	166.26	72.73	
2025-01-17 23:40:55.32	166.43	72.65	
2025-01-17 23:40:55.52	166.60	72.56	
2025-01-17 23:40:55.72	166.76	72.48	
2025-01-17 23:40:55.93	166.93	72.39	
2025-01-17 23:40:56.14	167.10	72.31	
2025-01-17 23:40:56.34	167.26	72.22	
2025-01-17 23:40:56.55	167.43	72.14	
2025-01-17 23:40:56.76	167.59	72.05	
2025-01-17 23:40:56.96	167.75	71.97	
2025-01-17 23:40:57.17	167.91	71.88	
2025-01-17 23:40:57.37	168.06	71.79	
2025-01-17 23:40:57.57	168.21	71.71	
2025-01-17 23:40:57.77	168.36	71.63	
2025-01-17 23:40:57.98	168.51	71.54	
2025-01-17 23:40:58.18	168.66	71.46	
2025-01-17 23:40:58.39	168.81	71.37	
2025-01-17 23:40:58.60	168.96	71.28	
2025-01-17 23:40:58.80	169.10	71.20	
2025-01-17 23:40:59.01	169.24	71.11	
2025-01-17 23:40:59.21	169.38	71.03	
2025-01-17 23:40:59.42	169.53	70.94	
2025-01-17 23:40:59.63	169.67	70.85	
2025-01-17 23:40:59.83	169.80	70.77	
2025-01-17 23:41:00.04	169.94	70.68	
2025-01-17 23:41:00.25	170.08	70.59	
2025-01-17 23:41:00.46	170.22	70.50	
2025-01-17 23:41:00.67	170.36	70.41	
2025-01-17 23:41:00.88	170.49	70.32	
2025-01-17 23:41:01.08	170.62	70.24	

#Closed at: 2025-01-17 23:41:01