passes_logs/2025/01/12/PPK-1/PPK-1__20250112_232521_TY-39_rec.log

#Pass ID: 20250112_232521_TY-39
#Satellite: TY-39
#Configuration: TY-39
#almurnet v.1.7.20230919.trace
#Start time: 2025-01-12 23:25:19

#Version: 2.2.20231116
#Station: PPK-1
#Location: 158.6 lon 53.06666 lat
#TLE: 1 51832U 22019J   25012.16372845  .00002965  00000+0  15358-3 0  9995
#TLE: 2 51832  97.4107  82.4322 0007839 244.4512 115.5912 15.16945469158715

#Time	Az	El	Level	Level2	SNR	BER	BlckErr	Temp	State
2025-01-12 23:25:19.42	26.47	7.86	-66.4	-71.4	3.4	0.00e+00	0	46	0
2025-01-12 23:25:21.31	26.63	8.02	-66.7	-72.2	3.6	0.00e+00	0	47	104
2025-01-12 23:25:23.21	26.80	8.18	-66.8	-72.0	3.5	0.00e+00	0	47	104
2025-01-12 23:25:25.10	26.96	8.35	-67.1	-72.8	3.7	0.00e+00	0	47	104
2025-01-12 23:25:27.00	27.13	8.51	-67.1	-72.8	3.7	0.00e+00	0	48	104
2025-01-12 23:25:28.90	27.31	8.68	-66.6	-71.5	3.6	0.00e+00	0	48	104
2025-01-12 23:25:30.80	27.48	8.85	-66.1	-70.1	3.4	0.00e+00	0	48	104
2025-01-12 23:25:32.70	27.66	9.02	-65.6	-69.4	3.4	0.00e+00	0	49	104
2025-01-12 23:25:34.59	27.84	9.19	-65.6	-69.8	3.3	0.00e+00	0	49	104
2025-01-12 23:25:36.49	28.02	9.36	-65.7	-70.1	3.7	0.00e+00	0	49	104
2025-01-12 23:25:38.39	28.21	9.54	-65.9	-70.8	3.7	0.00e+00	0	50	104
2025-01-12 23:25:40.29	28.40	9.71	-66.2	-71.4	3.6	0.00e+00	0	50	104
2025-01-12 23:25:42.19	28.59	9.89	-66.0	-71.0	3.4	0.00e+00	0	50	104
2025-01-12 23:25:44.09	28.78	10.07	-65.4	-69.6	3.3	0.00e+00	0	51	104
2025-01-12 23:25:45.99	28.98	10.25	-65.1	-69.3	3.3	0.00e+00	0	51	104
2025-01-12 23:25:47.89	29.18	10.43	-65.2	-69.6	3.7	0.00e+00	0	51	104
2025-01-12 23:25:49.79	29.38	10.62	-65.3	-69.8	3.7	0.00e+00	0	51	104
2025-01-12 23:25:51.69	29.58	10.80	-65.6	-70.4	3.4	0.00e+00	0	51	104
2025-01-12 23:25:53.59	29.79	10.99	-65.6	-70.5	3.4	0.00e+00	0	52	104
2025-01-12 23:25:55.48	30.00	11.17	-65.4	-70.0	3.3	0.00e+00	0	52	104
2025-01-12 23:25:57.38	30.22	11.36	-65.4	-70.0	3.3	0.00e+00	0	52	104
2025-01-12 23:25:59.28	30.43	11.55	-65.7	-70.6	3.7	0.00e+00	0	53	104
2025-01-12 23:26:01.18	30.66	11.75	-66.3	-71.5	3.7	0.00e+00	0	53	104
2025-01-12 23:26:03.08	30.88	11.94	-66.8	-72.3	3.6	0.00e+00	0	53	104
2025-01-12 23:26:04.98	31.11	12.14	-66.9	-72.3	3.5	0.00e+00	0	53	104
2025-01-12 23:26:06.88	31.34	12.33	-66.7	-71.7	3.5	0.00e+00	0	54	104
2025-01-12 23:26:08.78	31.57	12.53	-66.4	-71.0	3.4	0.00e+00	0	54	104
2025-01-12 23:26:10.68	31.81	12.74	-66.6	-71.4	3.7	0.00e+00	0	54	104
2025-01-12 23:26:12.58	32.06	12.94	-66.9	-72.5	3.7	0.00e+00	0	54	104
2025-01-12 23:26:14.48	32.30	13.14	-67.3	-73.2	3.6	0.00e+00	0	55	104
2025-01-12 23:26:16.37	32.55	13.35	-67.4	-73.0	3.6	0.00e+00	0	55	104
2025-01-12 23:26:18.27	32.81	13.56	-67.5	-73.1	3.6	0.00e+00	0	55	104
2025-01-12 23:26:20.16	33.06	13.77	-67.4	-73.1	3.6	0.00e+00	0	55	104
2025-01-12 23:26:22.06	33.33	13.98	-67.3	-72.9	3.7	0.00e+00	0	56	104
2025-01-12 23:26:23.96	33.59	14.19	-67.3	-72.9	3.7	0.00e+00	0	56	104
2025-01-12 23:26:25.86	33.86	14.41	-52.9	-55.6	13.3	6.90e-06	0	56	0
2025-01-12 23:26:27.75	34.14	14.63	-54.6	-57.4	12.3	1.46e-04	0	56	0
2025-01-12 23:26:29.64	34.42	14.85	-52.3	-54.8	13.6	0.00e+00	0	57	0
2025-01-12 23:26:31.54	34.71	15.07	-52.9	-55.6	13.5	3.46e-05	0	57	0
2025-01-12 23:26:33.44	35.00	15.29	-51.4	-54.0	14.3	0.00e+00	0	57	0
2025-01-12 23:26:35.33	35.29	15.52	-51.3	-53.8	14.3	0.00e+00	0	57	0
2025-01-12 23:26:37.22	35.59	15.74	-51.3	-53.7	14.4	0.00e+00	0	58	0
2025-01-12 23:26:39.11	35.89	15.97	-51.2	-53.7	14.4	0.00e+00	0	58	0
2025-01-12 23:26:41.01	36.21	16.21	-51.1	-53.4	14.5	0.00e+00	0	58	0
2025-01-12 23:26:42.91	36.52	16.44	-51.1	-53.4	14.5	0.00e+00	0	58	0
2025-01-12 23:26:44.80	36.84	16.68	-51.1	-53.9	14.5	0.00e+00	0	59	0
2025-01-12 23:26:46.70	37.17	16.92	-51.0	-53.7	14.5	0.00e+00	0	59	0
2025-01-12 23:26:48.60	37.51	17.16	-50.9	-53.6	14.6	0.00e+00	0	59	0
2025-01-12 23:26:50.50	37.85	17.40	-50.9	-53.5	14.6	0.00e+00	0	59	0
2025-01-12 23:26:52.40	38.20	17.65	-50.8	-53.3	14.5	0.00e+00	0	60	0
2025-01-12 23:26:54.30	38.55	17.89	-50.7	-53.2	14.5	0.00e+00	0	60	0
2025-01-12 23:26:56.20	38.91	18.14	-50.6	-53.0	14.7	0.00e+00	0	60	0
2025-01-12 23:26:58.10	39.28	18.40	-50.5	-53.3	14.6	0.00e+00	0	60	0
2025-01-12 23:27:00.00	39.65	18.65	-50.5	-53.1	14.3	0.00e+00	0	60	0
2025-01-12 23:27:01.90	40.03	18.91	-50.4	-53.0	14.3	0.00e+00	0	60	0
2025-01-12 23:27:03.80	40.42	19.17	-50.3	-52.9	14.5	0.00e+00	0	60	0
2025-01-12 23:27:05.70	40.82	19.43	-50.2	-52.7	14.5	0.00e+00	0	61	0
2025-01-12 23:27:07.60	41.22	19.69	-50.2	-52.6	14.4	0.00e+00	0	61	0
2025-01-12 23:27:09.50	41.63	19.96	-50.1	-52.4	14.5	0.00e+00	0	61	0
2025-01-12 23:27:11.40	42.05	20.23	-50.1	-52.9	14.6	0.00e+00	0	61	0
2025-01-12 23:27:13.30	42.48	20.50	-50.0	-52.6	14.9	0.00e+00	0	61	0
2025-01-12 23:27:15.20	42.92	20.77	-49.9	-52.5	14.8	0.00e+00	0	62	0
2025-01-12 23:27:17.10	43.36	21.05	-49.9	-52.4	14.4	0.00e+00	0	62	0
2025-01-12 23:27:19.00	43.82	21.32	-49.8	-52.3	14.2	0.00e+00	0	62	0
2025-01-12 23:27:20.90	44.28	21.60	-49.7	-52.1	14.4	0.00e+00	0	62	0
2025-01-12 23:27:22.80	44.75	21.88	-49.6	-51.9	14.5	0.00e+00	0	62	0
2025-01-12 23:27:24.70	45.24	22.17	-49.5	-52.2	14.6	0.00e+00	0	62	0
2025-01-12 23:27:26.60	45.73	22.45	-49.5	-52.2	14.9	0.00e+00	0	62	0
2025-01-12 23:27:28.50	46.23	22.74	-49.4	-52.1	15.2	0.00e+00	0	62	0
2025-01-12 23:27:30.40	46.74	23.03	-49.3	-51.9	15.1	0.00e+00	0	62	0
2025-01-12 23:27:32.30	47.27	23.32	-49.2	-51.7	15.2	0.00e+00	0	63	0
2025-01-12 23:27:34.20	47.80	23.61	-49.2	-51.6	15.2	0.00e+00	0	63	0
2025-01-12 23:27:36.10	48.35	23.91	-49.1	-51.4	15.3	0.00e+00	0	63	0
2025-01-12 23:27:38.00	48.90	24.20	-47.9	-50.5	15.1	0.00e+00	0	63	0
2025-01-12 23:27:39.90	49.47	24.50	-47.9	-50.4	15.2	0.00e+00	0	63	0
2025-01-12 23:27:41.80	50.05	24.80	-47.8	-50.3	15.3	0.00e+00	0	63	0
2025-01-12 23:27:43.70	50.65	25.10	-47.8	-50.2	15.2	0.00e+00	0	63	0
2025-01-12 23:27:45.60	51.25	25.40	-47.7	-50.1	15.3	0.00e+00	0	63	0
2025-01-12 23:27:47.49	51.87	25.70	-47.7	-50.0	15.3	0.00e+00	0	64	0
2025-01-12 23:27:49.39	52.50	26.00	-47.5	-50.2	15.4	0.00e+00	0	64	0
2025-01-12 23:27:51.29	53.14	26.31	-47.4	-50.0	15.4	0.00e+00	0	64	0
2025-01-12 23:27:53.19	53.80	26.61	-47.4	-49.9	15.5	0.00e+00	0	64	0
2025-01-12 23:27:55.09	54.47	26.92	-47.3	-49.8	15.5	0.00e+00	0	64	0
2025-01-12 23:27:56.99	55.15	27.22	-47.2	-49.6	15.6	0.00e+00	0	65	0
2025-01-12 23:27:58.89	55.85	27.53	-47.2	-49.5	15.6	0.00e+00	0	65	0
2025-01-12 23:28:00.79	56.57	27.83	-47.1	-49.4	15.6	0.00e+00	0	65	0
2025-01-12 23:28:02.69	57.30	28.14	-47.0	-49.6	15.7	0.00e+00	0	65	0
2025-01-12 23:28:04.59	58.04	28.44	-46.9	-49.5	15.7	0.00e+00	0	65	0
2025-01-12 23:28:06.49	58.80	28.74	-46.9	-49.4	15.7	0.00e+00	0	65	0
2025-01-12 23:28:08.39	59.58	29.04	-46.8	-49.3	15.7	0.00e+00	0	65	0
2025-01-12 23:28:10.28	60.37	29.34	-46.7	-49.2	15.7	0.00e+00	0	65	0
2025-01-12 23:28:12.18	61.17	29.64	-46.7	-49.0	15.8	0.00e+00	0	65	0
2025-01-12 23:28:14.08	62.00	29.94	-46.6	-48.9	15.8	0.00e+00	0	65	0
2025-01-12 23:28:15.98	62.84	30.23	-46.5	-49.3	15.8	0.00e+00	0	66	0
2025-01-12 23:28:17.88	63.69	30.52	-46.5	-49.2	15.8	0.00e+00	0	66	0
2025-01-12 23:28:19.78	64.56	30.81	-46.4	-49.0	15.8	0.00e+00	0	66	0
2025-01-12 23:28:21.68	65.45	31.09	-46.4	-48.9	15.8	0.00e+00	0	66	0
2025-01-12 23:28:23.58	66.36	31.37	-46.3	-48.9	15.8	0.00e+00	0	66	0
2025-01-12 23:28:25.48	67.28	31.64	-46.3	-48.7	15.8	0.00e+00	0	66	0
2025-01-12 23:28:27.38	68.22	31.91	-46.2	-48.7	15.8	0.00e+00	0	66	0
2025-01-12 23:28:29.28	69.18	32.18	-46.2	-48.6	15.8	0.00e+00	0	67	0
2025-01-12 23:28:31.17	70.14	32.44	-46.2	-48.6	15.8	0.00e+00	0	66	0
2025-01-12 23:28:33.07	71.13	32.69	-46.1	-48.4	15.8	0.00e+00	0	66	0
2025-01-12 23:28:34.97	72.14	32.94	-46.6	-49.4	15.6	0.00e+00	0	67	0
2025-01-12 23:28:36.87	73.16	33.18	-46.6	-49.3	15.7	0.00e+00	0	67	0
2025-01-12 23:28:38.77	74.20	33.41	-46.5	-49.3	15.6	0.00e+00	0	67	0
2025-01-12 23:28:40.67	75.25	33.63	-46.7	-49.6	15.6	0.00e+00	0	67	0
2025-01-12 23:28:42.57	76.32	33.85	-46.7	-49.5	15.4	0.00e+00	0	67	0
2025-01-12 23:28:44.47	77.40	34.06	-46.8	-49.7	15.2	0.00e+00	0	67	0
2025-01-12 23:28:46.37	78.50	34.25	-46.8	-49.7	15.2	0.00e+00	0	67	0
2025-01-12 23:28:48.27	79.61	34.44	-46.6	-49.4	15.7	0.00e+00	0	67	0
2025-01-12 23:28:50.17	80.74	34.62	-46.6	-49.4	15.8	0.00e+00	0	67	0
2025-01-12 23:28:52.06	81.87	34.78	-46.5	-49.2	15.8	0.00e+00	0	67	0
2025-01-12 23:28:53.96	83.02	34.94	-46.4	-49.0	15.9	0.00e+00	0	68	0
2025-01-12 23:28:55.86	84.18	35.09	-46.3	-48.7	15.9	0.00e+00	0	68	0
2025-01-12 23:28:57.76	85.35	35.22	-46.2	-48.5	16.0	0.00e+00	0	68	0
2025-01-12 23:28:59.66	86.53	35.34	-46.0	-48.6	16.0	0.00e+00	0	68	0
2025-01-12 23:29:01.56	87.73	35.45	-46.0	-48.6	15.9	0.00e+00	0	68	0
2025-01-12 23:29:03.46	88.92	35.54	-45.9	-48.5	16.1	0.00e+00	0	68	0
2025-01-12 23:29:05.36	90.13	35.62	-45.9	-48.4	16.0	0.00e+00	0	68	0
2025-01-12 23:29:07.26	91.34	35.69	-46.0	-48.6	15.9	0.00e+00	0	68	0
2025-01-12 23:29:09.16	92.56	35.75	-46.0	-48.7	15.9	0.00e+00	0	68	0
2025-01-12 23:29:11.06	93.78	35.79	-45.8	-48.3	16.0	0.00e+00	0	68	0
2025-01-12 23:29:12.96	95.00	35.82	-45.9	-48.5	15.9	0.00e+00	0	68	0
2025-01-12 23:29:14.85	96.22	35.83	-45.8	-48.3	15.9	0.00e+00	0	68	0
2025-01-12 23:29:16.75	97.45	35.83	-45.8	-48.2	15.9	0.00e+00	0	69	0
2025-01-12 23:29:18.65	98.67	35.82	-45.7	-48.1	15.9	0.00e+00	0	69	0
2025-01-12 23:29:20.55	99.90	35.79	-45.7	-48.0	15.9	0.00e+00	0	69	0
2025-01-12 23:29:22.45	101.12	35.75	-45.8	-48.2	15.9	0.00e+00	0	68	0
2025-01-12 23:29:24.35	102.34	35.70	-45.7	-48.1	15.9	0.00e+00	0	69	0
2025-01-12 23:29:26.25	103.55	35.63	-45.7	-48.1	15.8	0.00e+00	0	69	0
2025-01-12 23:29:28.15	104.76	35.55	-45.7	-48.2	15.9	0.00e+00	0	69	0
2025-01-12 23:29:30.05	105.96	35.45	-45.8	-48.3	15.9	0.00e+00	0	69	0
2025-01-12 23:29:31.95	107.15	35.35	-45.8	-48.3	15.8	0.00e+00	0	69	0
2025-01-12 23:29:33.85	108.34	35.23	-45.9	-48.5	15.8	0.00e+00	0	69	0
2025-01-12 23:29:35.74	109.51	35.10	-46.1	-48.8	15.9	0.00e+00	0	69	0
2025-01-12 23:29:37.64	110.67	34.95	-46.2	-49.0	15.7	0.00e+00	0	69	0
2025-01-12 23:29:39.54	111.83	34.80	-46.2	-49.2	15.7	0.00e+00	0	70	0
2025-01-12 23:29:41.44	112.97	34.63	-46.5	-49.6	15.7	0.00e+00	0	69	0
2025-01-12 23:29:43.34	114.10	34.45	-46.5	-49.6	15.5	0.00e+00	0	69	0
2025-01-12 23:29:45.24	115.22	34.26	-46.4	-49.5	15.3	0.00e+00	0	69	0
2025-01-12 23:29:47.14	116.32	34.07	-46.5	-49.7	15.3	0.00e+00	0	70	0
2025-01-12 23:29:49.04	117.41	33.86	-46.4	-49.6	15.0	0.00e+00	0	70	0
2025-01-12 23:29:50.94	118.48	33.64	-46.3	-49.3	15.5	0.00e+00	0	70	0
2025-01-12 23:29:52.84	119.54	33.42	-46.3	-49.2	15.6	0.00e+00	0	70	0
2025-01-12 23:29:54.74	120.59	33.18	-46.3	-49.2	15.5	0.00e+00	0	70	0
2025-01-12 23:29:56.63	121.61	32.94	-46.4	-49.4	15.7	0.00e+00	0	70	0
2025-01-12 23:29:58.53	122.62	32.70	-46.5	-49.7	15.6	0.00e+00	0	70	0
2025-01-12 23:30:00.43	123.62	32.44	-46.7	-50.0	15.8	0.00e+00	0	70	0
2025-01-12 23:30:02.33	124.59	32.18	-47.0	-50.2	15.6	0.00e+00	0	70	0
2025-01-12 23:30:04.23	125.56	31.91	-47.1	-50.3	15.5	0.00e+00	0	70	0
2025-01-12 23:30:06.13	126.50	31.64	-47.1	-50.3	15.6	0.00e+00	0	70	0
2025-01-12 23:30:08.03	127.43	31.36	-46.9	-50.1	15.5	0.00e+00	0	70	0
2025-01-12 23:30:09.93	128.34	31.08	-46.7	-49.6	15.6	0.00e+00	0	70	0
2025-01-12 23:30:11.83	129.24	30.80	-46.6	-49.5	15.5	0.00e+00	0	70	0
2025-01-12 23:30:13.73	130.12	30.51	-46.8	-49.8	15.6	0.00e+00	0	70	0
2025-01-12 23:30:15.63	130.98	30.22	-46.9	-50.0	15.5	0.00e+00	0	71	0
2025-01-12 23:30:17.52	131.82	29.92	-47.1	-50.4	15.4	0.00e+00	0	70	0
2025-01-12 23:30:19.42	132.65	29.62	-47.4	-50.5	15.4	0.00e+00	0	70	0
2025-01-12 23:30:21.32	133.46	29.32	-47.4	-50.5	15.3	0.00e+00	0	71	0
2025-01-12 23:30:23.22	134.26	29.02	-47.5	-50.7	15.2	0.00e+00	0	71	0
2025-01-12 23:30:25.12	135.04	28.72	-47.3	-50.3	15.4	0.00e+00	0	71	0
2025-01-12 23:30:27.02	135.81	28.41	-47.2	-50.1	15.4	0.00e+00	0	71	0
2025-01-12 23:30:28.92	136.56	28.10	-47.2	-50.2	15.2	0.00e+00	0	71	0
2025-01-12 23:30:30.82	137.29	27.80	-47.3	-50.4	15.3	0.00e+00	0	71	0
2025-01-12 23:30:32.72	138.01	27.49	-47.5	-50.7	15.4	0.00e+00	0	71	0
2025-01-12 23:30:34.62	138.72	27.18	-47.9	-50.9	15.3	0.00e+00	0	71	0
2025-01-12 23:30:36.52	139.41	26.87	-48.0	-51.3	15.1	0.00e+00	0	71	0
2025-01-12 23:30:38.41	140.08	26.57	-48.1	-51.4	14.9	0.00e+00	0	71	0
2025-01-12 23:30:40.31	140.74	26.26	-47.9	-50.9	15.2	0.00e+00	0	71	0
2025-01-12 23:30:42.21	141.39	25.95	-47.8	-50.8	15.3	0.00e+00	0	71	0
2025-01-12 23:30:44.11	142.03	25.64	-47.8	-50.8	15.3	0.00e+00	0	72	0
2025-01-12 23:30:46.01	142.65	25.34	-48.0	-51.2	15.2	0.00e+00	0	71	0
2025-01-12 23:30:47.91	143.26	25.03	-48.2	-51.6	15.0	0.00e+00	0	71	0
2025-01-12 23:30:49.81	143.86	24.73	-48.5	-51.7	15.1	0.00e+00	0	71	0
2025-01-12 23:30:51.71	144.44	24.43	-48.6	-51.9	15.0	0.00e+00	0	71	0
2025-01-12 23:30:53.61	145.01	24.13	-48.7	-52.2	14.9	0.00e+00	0	72	0
2025-01-12 23:30:55.51	145.58	23.83	-48.6	-51.9	15.0	0.00e+00	0	71	0
2025-01-12 23:30:57.41	146.12	23.53	-48.4	-51.5	15.1	0.00e+00	0	72	0
2025-01-12 23:30:59.31	146.66	23.23	-48.5	-51.7	15.0	0.00e+00	0	71	0
2025-01-12 23:31:01.20	147.19	22.94	-48.6	-51.9	15.0	0.00e+00	0	72	0
2025-01-12 23:31:03.10	147.70	22.65	-48.9	-52.0	14.7	0.00e+00	0	72	0
2025-01-12 23:31:05.00	148.21	22.36	-49.2	-52.6	14.6	0.00e+00	0	71	0
2025-01-12 23:31:06.90	148.70	22.07	-49.4	-52.4	14.6	0.00e+00	0	72	0
2025-01-12 23:31:08.80	149.19	21.78	-49.4	-52.6	14.6	0.00e+00	0	72	0
2025-01-12 23:31:10.70	149.67	21.50	-49.5	-52.7	14.4	0.00e+00	0	72	0
2025-01-12 23:31:12.60	150.13	21.22	-49.2	-52.1	14.4	0.00e+00	0	72	0
2025-01-12 23:31:14.50	150.59	20.94	-49.1	-51.8	14.7	0.00e+00	0	72	0
2025-01-12 23:31:16.40	151.04	20.66	-49.3	-52.3	14.7	0.00e+00	0	72	0
2025-01-12 23:31:18.30	151.48	20.38	-49.4	-52.5	14.6	0.00e+00	0	72	0
2025-01-12 23:31:20.20	151.91	20.11	-49.6	-52.9	14.6	0.00e+00	0	72	0
2025-01-12 23:31:22.09	152.33	19.84	-51.1	-54.4	14.6	0.00e+00	0	72	0
2025-01-12 23:31:23.99	152.74	19.57	-51.3	-54.8	14.6	0.00e+00	0	72	0
2025-01-12 23:31:25.89	153.15	19.30	-51.3	-54.3	14.3	0.00e+00	0	72	0
2025-01-12 23:31:27.79	153.55	19.04	-51.3	-54.2	14.4	0.00e+00	0	72	0
2025-01-12 23:31:29.69	153.94	18.78	-50.9	-53.6	14.4	0.00e+00	0	72	0
2025-01-12 23:31:31.59	154.32	18.52	-50.8	-53.4	14.1	0.00e+00	0	72	0
2025-01-12 23:31:33.49	154.70	18.26	-50.9	-53.6	14.1	6.90e-06	0	72	0
2025-01-12 23:31:35.39	155.07	18.01	-51.1	-53.9	14.1	0.00e+00	0	72	0
2025-01-12 23:31:37.29	155.43	17.75	-51.4	-54.5	14.2	0.00e+00	0	72	0
2025-01-12 23:31:39.19	155.78	17.50	-51.7	-55.1	14.2	6.90e-06	0	72	0
2025-01-12 23:31:41.09	156.13	17.25	-51.9	-55.0	14.0	0.00e+00	0	72	0
2025-01-12 23:31:42.98	156.47	17.01	-51.9	-55.1	13.9	6.90e-06	0	72	0
2025-01-12 23:31:44.88	156.81	16.76	-51.9	-55.0	13.7	0.00e+00	0	72	0
2025-01-12 23:31:46.78	157.14	16.52	-65.9	-72.3	3.5	0.00e+00	0	72	104
2025-01-12 23:31:48.68	157.46	16.28	-65.8	-72.3	3.6	0.00e+00	0	72	104
2025-01-12 23:31:50.58	157.78	16.05	-66.0	-72.1	3.5	0.00e+00	0	72	104
2025-01-12 23:31:52.48	158.10	15.81	-64.6	-70.4	3.7	0.00e+00	0	72	104
2025-01-12 23:31:54.38	158.40	15.58	-64.4	-70.2	3.7	0.00e+00	0	72	104
2025-01-12 23:31:56.28	158.71	15.35	-63.5	-69.4	3.6	0.00e+00	0	72	104
2025-01-12 23:31:58.18	159.00	15.12	-64.1	-70.0	3.4	0.00e+00	0	72	104
2025-01-12 23:32:00.08	159.29	14.89	-65.4	-71.4	3.4	0.00e+00	0	72	104
2025-01-12 23:32:01.98	159.58	14.67	-66.2	-71.8	3.4	0.00e+00	0	72	104
2025-01-12 23:32:03.87	159.86	14.45	-66.4	-72.2	3.7	0.00e+00	0	72	104
2025-01-12 23:32:05.77	160.14	14.23	-66.4	-72.2	3.7	0.00e+00	0	72	104
2025-01-12 23:32:07.67	160.41	14.01	-66.1	-72.0	3.6	0.00e+00	0	72	104
2025-01-12 23:32:09.57	160.68	13.79	-65.7	-71.4	3.6	0.00e+00	0	72	104
2025-01-12 23:32:11.47	160.94	13.58	-65.2	-71.3	3.5	0.00e+00	0	72	104
2025-01-12 23:32:13.37	161.20	13.37	-64.5	-71.5	3.4	0.00e+00	0	72	104
2025-01-12 23:32:15.27	161.46	13.15	-63.9	-71.3	3.7	0.00e+00	0	72	104
2025-01-12 23:32:17.17	161.71	12.95	-64.1	-72.0	3.7	0.00e+00	0	72	104
2025-01-12 23:32:19.07	161.95	12.74	-64.8	-72.9	3.6	0.00e+00	0	72	104
2025-01-12 23:32:20.97	162.20	12.53	-65.9	-72.8	3.6	0.00e+00	0	72	104
2025-01-12 23:32:22.87	162.43	12.33	-66.7	-72.6	3.6	0.00e+00	0	72	104
2025-01-12 23:32:24.77	162.67	12.13	-66.4	-71.7	3.5	0.00e+00	0	72	104
2025-01-12 23:32:26.66	162.90	11.93	-65.6	-71.3	3.7	0.00e+00	0	72	104
2025-01-12 23:32:28.56	163.13	11.73	-65.0	-72.1	3.7	0.00e+00	0	72	104
2025-01-12 23:32:30.46	163.35	11.54	-65.5	-73.1	3.7	0.00e+00	0	72	104
2025-01-12 23:32:32.36	163.57	11.34	-66.3	-72.8	3.6	0.00e+00	0	72	104
2025-01-12 23:32:34.26	163.79	11.15	-66.5	-72.1	3.6	0.00e+00	0	72	104
2025-01-12 23:32:36.16	164.00	10.96	-66.3	-71.3	3.5	0.00e+00	0	72	104
2025-01-12 23:32:38.06	164.22	10.77	-66.6	-72.1	3.7	0.00e+00	0	72	104
2025-01-12 23:32:39.96	164.42	10.58	-66.7	-72.1	3.7	0.00e+00	0	72	104
2025-01-12 23:32:41.86	164.63	10.40	-66.3	-70.7	3.6	0.00e+00	0	72	104
2025-01-12 23:32:43.76	164.83	10.21	-65.9	-70.2	3.5	0.00e+00	0	72	104
2025-01-12 23:32:45.66	165.03	10.03	-65.7	-70.6	3.4	0.00e+00	0	72	104
2025-01-12 23:32:47.55	165.22	9.85	-65.4	-70.5	3.5	0.00e+00	0	72	104
2025-01-12 23:32:49.45	165.42	9.67	-64.9	-69.8	3.7	0.00e+00	0	72	104
2025-01-12 23:32:51.35	165.61	9.49	-64.8	-69.5	3.7	0.00e+00	0	72	104
2025-01-12 23:32:53.25	165.79	9.31	-64.2	-69.4	3.6	0.00e+00	0	72	104
2025-01-12 23:32:55.15	165.98	9.13	-63.5	-70.1	3.5	0.00e+00	0	72	104
2025-01-12 23:32:57.05	166.16	8.96	-63.1	-70.1	3.4	0.00e+00	0	72	104
2025-01-12 23:32:58.95	166.34	8.79	-63.6	-70.7	3.5	0.00e+00	0	72	104
2025-01-12 23:33:00.85	166.52	8.62	-64.3	-69.8	3.7	0.00e+00	0	72	104
2025-01-12 23:33:02.75	166.69	8.44	-64.6	-70.3	3.7	0.00e+00	0	72	104
2025-01-12 23:33:04.65	166.87	8.28	-64.7	-70.4	3.6	0.00e+00	0	72	104
2025-01-12 23:33:06.55	167.04	8.11	-64.6	-70.4	3.5	0.00e+00	0	72	104

#Closed at: 2025-01-12 23:33:07
#Recorded file [24016 MB]: D:/data/31015_250113_113145.dat