passes_logs/2026/01/28/R2.0S_Moscow/R2.0S_Moscow__20260128_090220_NOAA_20_JPSS-1_rec.log

#Pass ID: 20260128_090220_NOAA 20 (JPSS-1)
#Satellite: NOAA 20 (JPSS-1)
#Configuration: NOAA 20
#almurnet v.1.7.20251203
#Start time: 2026-01-28 09:02:21

#Version: 2.2.20231116
#Station: R2.0S_Moscow
#Location: 37.707566 lon 55.798166 lat
#TLE: 1 43013U 17073A   26027.80586608  .00000156  00000+0  94940-4 0  9998
#TLE: 2 43013  98.7647 328.6108 0000947  21.3465 338.7750 14.19541216424550

#Time	Az	El	Level	Level2	SNR	BER	BlckErr	Temp	State	Recorded	gain1	gain2
2026-01-28 09:02:21.10	134.77	2.07	-16.8	-36.2	3.6	1.51e+00	0	52	0	0	5	33297
2026-01-28 09:02:25.14	134.63	2.32	-16.7	-37.3	3.9	1.50e+00	0	52	104	0	7	33574
2026-01-28 09:02:29.18	134.48	2.58	-18.8	-40.9	3.6	1.51e+00	0	53	104	0	9	45338
2026-01-28 09:02:33.22	134.32	2.83	-15.3	-38.3	3.4	1.51e+00	0	53	104	0	4	44447
2026-01-28 09:02:37.26	134.17	3.09	-22.5	-40.5	3.8	1.50e+00	0	53	104	0	10	40694
2026-01-28 09:02:41.30	134.01	3.35	-16.0	-34.2	4.1	1.50e+00	0	54	104	0	6	24944
2026-01-28 09:02:45.34	133.85	3.62	-16.2	-36.6	3.9	1.50e+00	0	54	104	0	3	38989
2026-01-28 09:02:49.38	133.68	3.88	-19.8	-41.3	3.5	1.50e+00	0	54	104	0	8	50236
2026-01-28 09:02:53.43	133.51	4.15	-18.8	-36.7	3.9	1.51e+00	0	54	104	0	6	33142
2026-01-28 09:02:57.47	133.34	4.42	-19.3	-38.4	3.8	1.50e+00	0	55	104	0	6	40456
2026-01-28 09:03:01.51	133.17	4.69	-20.3	-42.8	3.5	1.50e+00	0	55	104	0	10	53184
2026-01-28 09:03:05.55	132.99	4.97	-18.9	-39.8	3.8	1.50e+00	0	55	104	0	10	37546
2026-01-28 09:03:09.59	132.81	5.25	-13.3	-35.1	3.6	1.50e+00	0	55	104	0	6	27425
2026-01-28 09:03:13.63	132.62	5.53	-13.8	-33.7	3.7	1.50e+00	0	55	104	0	0	33191
2026-01-28 09:03:17.67	132.43	5.81	-15.5	-36.0	4.0	1.51e+00	0	56	104	0	0	43123
2026-01-28 09:03:21.72	132.24	6.10	-19.9	-38.3	3.9	1.50e+00	0	56	104	0	7	37589
2026-01-28 09:03:25.76	132.04	6.39	-18.7	-38.5	3.9	1.50e+00	0	56	104	0	12	28908
2026-01-28 09:03:29.79	131.84	6.68	-18.1	-37.4	3.7	1.50e+00	0	56	104	0	3	42465
2026-01-28 09:03:33.83	131.63	6.98	-17.0	-35.0	3.6	1.51e+00	0	56	104	0	5	28809
2026-01-28 09:03:37.87	131.42	7.27	-13.6	-31.6	3.9	1.51e+00	0	56	104	0	0	26156
2026-01-28 09:03:41.92	131.21	7.58	-17.7	-36.2	3.8	1.51e+00	0	57	104	0	4	34943
2026-01-28 09:03:45.96	130.99	7.88	-14.8	-32.7	3.7	1.51e+00	0	56	104	0	1	27864
2026-01-28 09:03:50.00	130.76	8.19	-14.0	-35.4	4.1	1.51e+00	0	57	104	0	1	38136
2026-01-28 09:03:54.04	130.53	8.50	-15.8	-33.8	3.7	1.50e+00	0	57	104	0	3	28071
2026-01-28 09:03:58.07	130.30	8.82	-15.9	-36.0	4.0	1.50e+00	0	57	104	0	8	27293
2026-01-28 09:04:02.11	130.06	9.13	-20.5	-42.0	3.7	1.51e+00	0	57	104	0	10	48540
2026-01-28 09:04:06.15	129.81	9.46	-17.3	-37.8	4.0	1.51e+00	0	57	104	0	7	35335
2026-01-28 09:04:10.19	129.56	9.78	-21.0	-41.6	3.8	1.50e+00	0	57	104	0	12	41264
2026-01-28 09:04:14.23	129.31	10.11	-19.1	-40.4	3.8	1.50e+00	0	57	104	0	11	37903
2026-01-28 09:04:18.27	129.04	10.44	-19.8	-38.3	3.7	1.50e+00	0	57	104	0	8	35448
2026-01-28 09:04:22.31	128.77	10.78	-15.7	-34.9	3.9	1.50e+00	0	58	104	0	1	35929
2026-01-28 09:04:26.35	128.50	11.12	-14.9	-33.4	3.9	1.50e+00	0	58	104	0	5	24117
2026-01-28 09:04:30.39	128.21	11.47	-20.9	-40.1	3.7	1.50e+00	0	58	104	0	11	36555
2026-01-28 09:04:34.43	127.92	11.82	-23.1	-42.2	4.4	1.49e+00	0	58	104	0	15	37299
2026-01-28 09:04:38.48	127.63	12.17	-25.0	-43.5	4.8	1.48e+00	0	58	104	0	16	40622
2026-01-28 09:04:42.52	127.32	12.53	-20.7	-41.0	4.1	1.50e+00	0	58	104	0	12	38553
2026-01-28 09:04:46.55	127.01	12.89	-21.0	-40.9	4.2	1.49e+00	0	58	104	0	13	35844
2026-01-28 09:04:50.59	126.69	13.26	-28.1	-46.3	4.0	1.50e+00	0	58	104	0	16	56467
2026-01-28 09:04:54.63	126.36	13.63	-19.6	-39.1	3.9	1.50e+00	0	58	104	0	8	38785
2026-01-28 09:04:58.67	126.02	14.01	-21.0	-41.7	4.0	1.49e+00	0	58	104	0	14	37290
2026-01-28 09:05:02.71	125.68	14.39	-25.1	-44.8	5.5	1.31e+00	21	59	0	0	31	19914
2026-01-28 09:05:06.76	125.32	14.78	-36.6	-44.4	9.0	1.37e+00	0	58	0	2097152	28	22600
2026-01-28 09:05:10.80	124.96	15.17	-33.4	-45.1	10.8	2.43e-02	0	58	0	9437184	38	13876
2026-01-28 09:05:14.84	124.58	15.57	-34.9	-44.8	11.3	1.40e-02	0	59	0	16777216	46	8410
2026-01-28 09:05:18.88	124.19	15.97	-39.3	-44.5	12.9	4.27e-03	0	59	0	24117248	50	6469
2026-01-28 09:05:22.93	123.80	16.38	-38.0	-45.1	12.2	2.43e-03	0	59	0	32505856	48	7774
2026-01-28 09:05:26.97	123.39	16.79	-41.0	-44.8	12.8	1.04e-03	0	59	0	39845888	52	5955
2026-01-28 09:05:31.01	122.97	17.21	-38.8	-44.7	12.9	5.27e-04	0	59	0	47185920	52	5897
2026-01-28 09:05:35.05	122.54	17.63	-38.5	-44.7	12.7	4.27e-05	0	59	0	54525952	44	9315
2026-01-28 09:05:39.08	122.10	18.06	-39.7	-44.6	13.3	3.12e-05	0	59	0	62914560	50	6520
2026-01-28 09:05:43.12	121.64	18.50	-41.1	-44.7	13.1	3.43e-05	0	59	0	70254592	52	5888
2026-01-28 09:05:47.16	121.17	18.94	-41.2	-44.7	13.1	3.20e-05	0	59	0	77594624	52	5897
2026-01-28 09:05:51.21	120.68	19.39	-41.0	-44.5	13.4	5.64e-05	0	59	0	84934656	52	5736
2026-01-28 09:05:55.25	120.18	19.84	-41.2	-44.7	13.2	1.75e-05	0	59	0	92274688	52	5867
2026-01-28 09:05:59.29	119.67	20.30	-41.2	-44.6	13.3	2.36e-05	0	59	0	100663296	52	5817
2026-01-28 09:06:03.33	119.13	20.77	-41.2	-44.7	13.2	1.90e-05	0	59	0	108003328	53	5563
2026-01-28 09:06:07.37	118.59	21.24	-41.3	-44.9	13.1	3.35e-05	0	59	0	115343360	53	5665
2026-01-28 09:06:11.41	118.02	21.71	-41.4	-45.0	13.0	4.80e-05	0	59	0	122683392	53	5752
2026-01-28 09:06:15.45	117.44	22.20	-41.3	-45.2	12.7	6.71e-05	0	59	0	131072000	53	5917
2026-01-28 09:06:19.49	116.84	22.69	-41.4	-45.0	13.0	3.28e-05	0	59	0	138412032	53	5724
2026-01-28 09:06:23.53	116.21	23.18	-41.4	-45.0	12.9	5.41e-05	0	59	0	145752064	52	6083
2026-01-28 09:06:27.57	115.57	23.68	-41.6	-45.2	12.9	5.72e-05	0	59	0	153092096	53	5885
2026-01-28 09:06:31.61	114.91	24.19	-41.5	-45.0	13.0	2.89e-05	0	59	0	160432128	53	5783
2026-01-28 09:06:35.65	114.22	24.70	-41.4	-44.9	13.2	2.97e-05	0	59	0	168820736	53	5687
2026-01-28 09:06:39.69	113.52	25.22	-41.5	-45.1	13.0	1.22e-05	0	59	0	176160768	53	5805
2026-01-28 09:06:43.72	112.78	25.74	-41.7	-45.3	12.8	4.50e-05	0	59	0	183500800	53	5970
2026-01-28 09:06:47.76	112.03	26.27	-41.8	-45.5	12.6	9.68e-05	0	60	0	190840832	54	5755
2026-01-28 09:06:51.81	111.24	26.80	-42.0	-45.9	12.2	1.69e-04	0	60	0	199229440	54	6030
2026-01-28 09:06:55.85	110.43	27.34	-42.3	-46.5	11.6	5.05e-04	0	60	0	206569472	55	6089
2026-01-28 09:06:59.89	109.59	27.88	-42.6	-47.1	10.9	1.38e-03	0	60	0	213909504	55	6548
2026-01-28 09:07:03.93	108.73	28.42	-42.8	-47.6	10.7	3.41e-03	0	60	0	221249536	56	6496
2026-01-28 09:07:07.97	107.83	28.97	-42.9	-47.8	10.4	4.35e-03	0	60	0	228589568	56	6714
2026-01-28 09:07:12.01	106.90	29.52	-42.9	-47.7	10.6	3.36e-03	0	60	0	236978176	56	6616
2026-01-28 09:07:16.05	105.94	30.07	-42.9	-47.7	10.6	3.20e-03	0	60	0	244318208	56	6594
2026-01-28 09:07:20.09	104.94	30.62	-43.0	-47.9	10.4	3.83e-03	0	60	0	251658240	56	6740
2026-01-28 09:07:24.12	103.92	31.18	-43.4	-49.1	9.1	1.95e-02	0	60	0	258998272	57	7293
2026-01-28 09:07:28.16	102.85	31.73	-43.2	-48.4	9.8	1.16e-02	0	60	0	267386880	57	6761
2026-01-28 09:07:32.20	101.75	32.28	-42.8	-47.4	10.8	3.42e-03	0	60	0	274726912	57	6052
2026-01-28 09:07:36.24	100.61	32.83	-42.7	-47.1	11.2	1.39e-03	0	60	0	282066944	57	5851
2026-01-28 09:07:40.28	99.43	33.38	-42.7	-47.1	11.2	1.39e-03	0	60	0	289406976	57	5845
2026-01-28 09:07:44.32	98.21	33.92	-42.9	-47.6	10.8	3.54e-03	0	59	0	296747008	57	6151
2026-01-28 09:07:48.35	96.95	34.45	-42.8	-47.4	11.0	1.32e-03	0	60	0	305135616	57	6002
2026-01-28 09:07:52.39	95.64	34.98	-43.0	-47.9	10.4	4.10e-03	0	60	0	312475648	57	6409
2026-01-28 09:07:56.43	94.30	35.50	-43.3	-48.6	9.7	9.79e-03	0	60	0	319815680	57	6920
2026-01-28 09:08:00.47	92.91	36.01	-43.4	-48.9	9.5	1.85e-02	0	60	0	327155712	57	7155
2026-01-28 09:08:04.51	91.47	36.51	-43.0	-47.7	10.7	3.91e-03	0	60	0	335544320	57	6245
2026-01-28 09:08:08.55	90.00	36.99	-42.8	-47.3	11.1	1.67e-03	0	60	0	342884352	57	5938
2026-01-28 09:08:12.59	88.47	37.46	-43.0	-47.7	10.7	2.94e-03	0	60	0	350224384	57	6239
2026-01-28 09:08:16.63	86.91	37.91	-42.5	-46.7	11.7	6.65e-04	0	60	0	357564416	57	5555
2026-01-28 09:08:20.67	85.30	38.34	-42.1	-45.7	12.8	5.87e-05	0	60	0	364904448	56	5251
2026-01-28 09:08:24.71	83.65	38.75	-41.9	-45.5	12.8	4.42e-05	0	60	0	373293056	55	5461
2026-01-28 09:08:28.74	81.97	39.13	-41.7	-45.1	13.3	1.29e-05	0	60	0	380633088	55	5191
2026-01-28 09:08:32.78	80.24	39.50	-41.4	-44.6	13.8	3.80e-06	0	60	0	387973120	54	5172
2026-01-28 09:08:36.82	78.47	39.83	-41.1	-44.1	14.4	7.00e-07	0	60	0	395313152	54	4878
2026-01-28 09:08:40.86	76.67	40.14	-41.3	-44.3	14.1	7.00e-07	0	60	0	403701760	54	5027
2026-01-28 09:08:44.90	74.83	40.41	-41.2	-44.2	14.2	2.20e-06	0	60	0	411041792	54	4947
2026-01-28 09:08:48.94	72.97	40.66	-41.0	-43.8	14.6	7.00e-07	0	60	0	418381824	53	5040
2026-01-28 09:08:52.98	71.07	40.87	-41.1	-44.1	14.3	0.00e+00	0	60	0	425721856	53	5203
2026-01-28 09:08:57.01	69.17	41.04	-41.1	-44.1	14.4	7.00e-07	0	60	0	433061888	53	5185
2026-01-28 09:09:01.05	67.23	41.18	-41.3	-44.3	14.1	2.20e-06	0	60	0	441450496	53	5327
2026-01-28 09:09:05.09	65.29	41.29	-41.4	-44.5	14.0	0.00e+00	0	60	0	448790528	53	5429
2026-01-28 09:09:09.13	63.33	41.35	-41.9	-45.4	12.9	3.96e-05	0	60	0	456130560	54	5700
2026-01-28 09:09:13.17	61.37	41.38	-42.3	-46.3	12.1	1.61e-04	0	60	0	463470592	55	5953
2026-01-28 09:09:17.21	59.41	41.37	-42.6	-46.8	11.7	4.84e-04	0	60	0	471859200	55	6290
2026-01-28 09:09:21.25	57.45	41.32	-42.7	-46.9	11.6	7.59e-04	0	60	0	479199232	56	6027
2026-01-28 09:09:25.29	55.50	41.24	-43.4	-48.7	9.7	8.12e-03	0	60	0	486539264	57	7017
2026-01-28 09:09:29.32	53.56	41.11	-43.4	-48.7	9.6	1.77e-02	0	60	0	493879296	57	7021
2026-01-28 09:09:33.36	51.64	40.95	-43.6	-49.2	9.2	2.24e-02	0	60	0	501219328	57	7422
2026-01-28 09:09:37.40	49.74	40.76	-43.3	-48.3	10.1	6.80e-03	0	60	0	509607936	57	6719
2026-01-28 09:09:41.43	47.87	40.53	-42.6	-46.6	11.9	6.42e-04	0	60	0	516947968	57	5517
2026-01-28 09:09:45.47	46.02	40.27	-42.2	-46.0	12.6	8.62e-05	0	60	0	524288000	56	5412
2026-01-28 09:09:49.51	44.21	39.98	-41.1	-44.0	14.5	7.00e-07	0	60	0	531628032	54	4828
2026-01-28 09:09:53.55	42.43	39.66	-40.8	-43.6	14.8	0.00e+00	0	60	0	540016640	53	4919
2026-01-28 09:09:57.59	40.68	39.31	-40.4	-42.9	15.6	0.00e+00	0	60	0	547356672	52	4772
2026-01-28 09:10:01.64	38.98	38.94	-40.4	-43.0	15.5	0.00e+00	0	60	0	554696704	52	4819
2026-01-28 09:10:05.68	37.31	38.54	-40.2	-42.6	15.8	0.00e+00	0	60	0	562036736	52	4638
2026-01-28 09:10:09.72	35.69	38.12	-40.4	-42.9	15.4	0.00e+00	0	60	0	569376768	52	4811
2026-01-28 09:10:13.76	34.11	37.68	-40.7	-43.4	15.1	0.00e+00	0	60	0	577765376	52	5046
2026-01-28 09:10:17.80	32.57	37.22	-40.7	-43.5	14.9	0.00e+00	0	60	0	585105408	52	5139
2026-01-28 09:10:21.84	31.08	36.74	-40.7	-43.4	15.0	7.00e-07	0	60	0	592445440	52	5093
2026-01-28 09:10:25.88	29.63	36.25	-41.0	-44.0	14.4	0.00e+00	0	60	0	599785472	52	5408
2026-01-28 09:10:29.92	28.22	35.75	-41.2	-44.3	14.1	2.20e-06	0	60	0	608174080	53	5293
2026-01-28 09:10:33.95	26.86	35.24	-41.4	-44.7	13.6	2.20e-06	0	60	0	615514112	53	5547
2026-01-28 09:10:38.00	25.54	34.72	-41.9	-45.5	12.8	8.92e-05	0	60	0	622854144	54	5784
2026-01-28 09:10:42.04	24.27	34.19	-42.0	-45.7	12.6	7.78e-05	0	60	0	630194176	54	5916
2026-01-28 09:10:46.08	23.03	33.65	-42.2	-46.2	12.1	4.49e-04	0	60	0	637534208	55	5902
2026-01-28 09:10:50.12	21.84	33.11	-42.6	-47.1	11.1	1.23e-03	0	60	0	645922816	55	6562
2026-01-28 09:10:54.15	20.68	32.57	-42.8	-47.4	11.0	2.25e-03	0	60	0	653262848	56	6359
2026-01-28 09:10:58.19	19.57	32.02	-43.1	-48.2	10.2	5.61e-03	0	60	0	660602880	56	6975
2026-01-28 09:11:02.23	18.49	31.47	-42.9	-47.6	10.7	2.98e-03	0	60	0	667942912	56	6550
2026-01-28 09:11:06.27	17.45	30.92	-42.9	-47.6	10.8	3.05e-03	0	60	0	676331520	56	6532
2026-01-28 09:11:10.31	16.44	30.37	-42.7	-47.2	11.1	1.57e-03	0	60	0	683671552	56	6214
2026-01-28 09:11:14.35	15.47	29.82	-42.5	-46.7	11.7	7.09e-04	0	60	0	691011584	56	5863
2026-01-28 09:11:18.38	14.53	29.27	-42.3	-46.2	12.1	2.39e-04	0	60	0	698351616	56	5574
2026-01-28 09:11:22.43	13.62	28.72	-42.1	-45.9	12.5	1.16e-04	0	60	0	705691648	56	5374
2026-01-28 09:11:26.46	12.75	28.18	-42.1	-45.9	12.4	1.18e-04	0	60	0	714080256	56	5385
2026-01-28 09:11:30.50	11.90	27.64	-42.1	-45.8	12.5	1.18e-04	0	60	0	721420288	56	5331
2026-01-28 09:11:34.54	11.08	27.11	-41.8	-45.4	12.8	5.41e-05	0	60	0	728760320	55	5378
2026-01-28 09:11:38.58	10.29	26.57	-41.9	-45.8	12.4	1.23e-04	0	60	0	736100352	55	5604
2026-01-28 09:11:42.63	9.52	26.04	-41.7	-45.3	12.8	1.06e-04	0	60	0	744488960	55	5339
2026-01-28 09:11:46.66	8.78	25.52	-41.9	-45.8	12.4	1.44e-04	0	60	0	751828992	55	5602
2026-01-28 09:11:50.70	8.07	25.01	-42.0	-46.1	12.0	2.91e-04	0	60	0	759169024	55	5810
2026-01-28 09:11:54.74	7.38	24.49	-42.0	-45.9	12.1	2.87e-04	0	60	0	766509056	55	5717
2026-01-28 09:11:58.78	6.71	23.99	-41.9	-45.9	12.2	1.88e-04	0	60	0	773849088	55	5666
2026-01-28 09:12:02.82	6.06	23.49	-41.7	-45.7	12.4	1.66e-04	0	60	0	782237696	55	5551
2026-01-28 09:12:06.86	5.43	22.99	-41.5	-45.3	12.7	6.48e-05	0	60	0	789577728	55	5327
2026-01-28 09:12:10.90	4.83	22.50	-41.9	-46.1	11.9	3.20e-04	0	60	0	796917760	55	5800
2026-01-28 09:12:14.94	4.24	22.02	-42.0	-46.3	11.7	6.05e-04	0	60	0	804257792	55	5927
2026-01-28 09:12:18.98	3.67	21.54	-42.0	-46.1	11.8	4.62e-04	0	60	0	812646400	55	5828
2026-01-28 09:12:23.02	3.12	21.07	-41.8	-45.8	12.1	2.59e-04	0	60	0	819986432	55	5640
2026-01-28 09:12:27.06	2.58	20.60	-41.8	-45.7	12.3	1.88e-04	0	60	0	827326464	55	5548
2026-01-28 09:12:31.10	2.06	20.14	-41.8	-45.8	12.1	3.09e-04	0	60	0	834666496	55	5619
2026-01-28 09:12:35.14	1.56	19.69	-41.8	-45.9	12.0	2.44e-04	0	60	0	842006528	55	5669
2026-01-28 09:12:39.18	1.07	19.24	-41.7	-45.6	12.3	1.94e-04	0	60	0	850395136	55	5468
2026-01-28 09:12:43.22	0.60	18.80	-41.6	-45.4	12.4	1.59e-04	0	60	0	857735168	55	5387
2026-01-28 09:12:47.25	0.14	18.36	-41.6	-45.6	12.2	2.27e-04	0	60	0	865075200	55	5465
2026-01-28 09:12:51.29	359.69	17.93	-41.8	-46.0	11.6	6.27e-04	0	60	0	872415232	55	5753
2026-01-28 09:12:55.33	359.26	17.51	-41.8	-46.1	11.5	9.15e-04	0	60	0	880803840	55	5810
2026-01-28 09:12:59.37	358.83	17.09	-41.6	-45.9	11.3	1.07e-03	0	60	0	888143872	55	5680
2026-01-28 09:13:03.41	358.43	16.67	-41.3	-46.0	9.3	1.10e-02	0	60	0	895483904	54	6081
2026-01-28 09:13:07.45	358.03	16.27	-41.3	-46.0	9.6	1.06e-02	0	60	0	902823936	54	6128
2026-01-28 09:13:11.49	357.64	15.86	-40.0	-45.3	6.3	1.85e-01	0	60	0	910163968	51	6701
2026-01-28 09:13:15.53	357.26	15.46	-40.8	-46.3	7.4	1.54e-01	0	60	0	918552576	52	7106
2026-01-28 09:13:19.56	356.90	15.07	-41.0	-46.2	9.0	8.46e-01	0	60	0	925892608	52	6961
2026-01-28 09:13:23.60	356.54	14.69	-40.6	-46.1	8.3	4.54e-02	0	60	0	933232640	52	6924
2026-01-28 09:13:27.64	356.19	14.30	-41.0	-48.5	6.1	2.87e-01	0	60	0	940572672	52	9166
2026-01-28 09:13:31.68	355.86	13.93	-40.9	-53.2	3.8	1.31e+00	0	60	104	947912704	52	15647
2026-01-28 09:13:35.71	355.53	13.55	-41.7	-53.8	3.8	1.48e+00	0	60	104	947912704	54	14937
2026-01-28 09:13:39.75	355.21	13.18	-41.3	-54.8	3.8	1.49e+00	0	60	104	947912704	54	16816
2026-01-28 09:13:43.79	354.90	12.82	-40.4	-54.8	3.8	1.49e+00	0	60	104	947912704	52	18794
2026-01-28 09:13:47.84	354.59	12.46	-40.3	-54.7	3.8	1.49e+00	0	60	104	947912704	52	18641
2026-01-28 09:13:51.88	354.29	12.11	-40.2	-54.6	3.8	1.49e+00	0	60	104	947912704	52	18375
2026-01-28 09:13:55.92	354.00	11.76	-40.1	-54.5	3.8	1.49e+00	0	60	104	947912704	52	18296
2026-01-28 09:13:59.96	353.72	11.41	-40.1	-54.5	3.8	1.49e+00	0	60	104	947912704	52	18277
2026-01-28 09:14:04.00	353.45	11.07	-40.2	-54.6	3.8	1.49e+00	0	60	104	947912704	52	18360
2026-01-28 09:14:08.04	353.18	10.73	-40.3	-54.7	3.8	1.49e+00	0	60	104	947912704	52	18700
2026-01-28 09:14:12.08	352.92	10.40	-40.4	-54.8	3.8	1.49e+00	0	60	104	947912704	52	18910
2026-01-28 09:14:16.12	352.66	10.07	-40.4	-54.8	3.8	1.49e+00	0	60	104	947912704	52	18889
2026-01-28 09:14:20.16	352.41	9.74	-40.4	-54.8	3.8	1.49e+00	0	60	104	947912704	52	18836
2026-01-28 09:14:24.20	352.17	9.42	-40.4	-54.8	3.8	1.49e+00	0	60	104	947912704	52	18761
2026-01-28 09:14:28.24	351.93	9.10	-40.3	-54.8	3.8	1.49e+00	0	60	104	947912704	52	18766
2026-01-28 09:14:32.27	351.69	8.78	-40.4	-54.8	3.8	1.49e+00	0	60	104	947912704	52	18835
2026-01-28 09:14:36.31	351.47	8.47	-40.4	-54.9	3.8	1.49e+00	0	60	104	947912704	52	19013
2026-01-28 09:14:40.35	351.24	8.16	-40.6	-55.0	3.8	1.49e+00	0	60	104	947912704	52	19374
2026-01-28 09:14:44.38	351.03	7.86	-40.8	-55.1	3.8	1.49e+00	0	60	104	947912704	52	19604
2026-01-28 09:14:48.43	350.81	7.55	-45.1	-59.8	3.8	1.49e+00	0	60	104	947912704	60	21132
2026-01-28 09:14:52.47	350.61	7.26	-45.0	-60.0	3.8	1.49e+00	0	60	104	947912704	60	21622
2026-01-28 09:14:56.51	350.40	6.96	-45.1	-59.9	3.8	1.49e+00	0	60	104	947912704	60	21383
2026-01-28 09:15:00.55	350.20	6.67	-44.1	-59.9	3.9	1.49e+00	0	60	104	947912704	60	21273
2026-01-28 09:15:04.59	350.01	6.38	-43.8	-59.6	3.8	1.49e+00	0	61	104	947912704	59	21869
2026-01-28 09:15:08.63	349.82	6.09	-44.9	-59.8	3.8	1.49e+00	0	60	104	947912704	60	21149
2026-01-28 09:15:12.68	349.63	5.80	-44.9	-59.8	3.8	1.49e+00	0	60	104	947912704	60	21057
2026-01-28 09:15:16.72	349.45	5.52	-44.9	-59.8	3.8	1.49e+00	0	60	104	947912704	60	21086
2026-01-28 09:15:20.75	349.27	5.25	-44.9	-59.8	3.8	1.49e+00	0	60	104	947912704	60	21035
2026-01-28 09:15:24.80	349.09	4.97	-44.9	-59.7	3.8	1.49e+00	0	61	104	947912704	60	20987
2026-01-28 09:15:28.84	348.92	4.69	-44.9	-59.7	3.8	1.49e+00	0	60	104	947912704	60	20882
2026-01-28 09:15:32.88	348.75	4.42	-44.9	-59.7	3.8	1.49e+00	0	60	104	947912704	60	20983
2026-01-28 09:15:36.92	348.59	4.16	-44.9	-59.8	3.8	1.49e+00	0	60	104	947912704	60	21054
2026-01-28 09:15:40.97	348.43	3.89	-44.9	-59.7	3.8	1.49e+00	0	60	104	947912704	60	20939
2026-01-28 09:15:45.01	348.27	3.62	-44.8	-59.7	3.8	1.49e+00	0	60	104	947912704	60	20864
2026-01-28 09:15:49.05	348.11	3.36	-44.8	-59.7	3.8	1.49e+00	0	60	104	947912704	60	20886
2026-01-28 09:15:53.09	347.96	3.10	-44.9	-59.7	3.8	1.49e+00	0	60	104	947912704	60	20826
2026-01-28 09:15:57.13	347.81	2.85	-44.8	-59.7	3.8	1.49e+00	0	60	104	947912704	60	20876
2026-01-28 09:16:01.17	347.67	2.59	-44.8	-59.7	3.8	1.49e+00	0	61	104	947912704	60	20856
2026-01-28 09:16:05.21	347.52	2.34	-44.8	-59.7	3.8	1.49e+00	0	61	104	947912704	60	20863
2026-01-28 09:16:09.26	347.38	2.09	-44.8	-59.7	3.8	1.49e+00	0	61	104	947912704	60	20821

#Closed at: 2026-01-28 09:16:11
#Recorded file [947 MB]: D:/lorett/data/31039_260128_120220.dat