passes_logs/2026/01/28/R2.0S_Moscow/R2.0S_Moscow__20260128_111839_FENGYUN_3D_rec.log

#Pass ID: 20260128_111839_FENGYUN 3D
#Satellite: FENGYUN 3D
#Configuration: FENGYUN 3D
#almurnet v.1.7.20251203
#Start time: 2026-01-28 11:18:40

#Version: 2.2.20231116
#Station: R2.0S_Moscow
#Location: 37.707566 lon 55.798166 lat
#TLE: 1 43010U 17072A   26027.90082829  .00000305  00000+0  16579-3 0  9998
#TLE: 2 43010  98.9960 359.9183 0002511  88.1058 272.0405 14.19701796425082

#Time	Az	El	Level	Level2	SNR	BER	BlckErr	Temp	State	Recorded	gain1	gain2
2026-01-28 11:18:40.64	140.64	2.06	-35.7	-53.0	3.8	8.46e-01	0	51	0	0	37	36255
2026-01-28 11:18:44.68	140.53	2.32	-36.3	-53.9	4.0	8.47e-01	0	51	104	0	47	22703
2026-01-28 11:18:48.72	140.41	2.58	-38.5	-52.8	3.8	8.46e-01	0	51	104	0	42	26553
2026-01-28 11:18:52.76	140.30	2.84	-34.8	-53.5	3.7	8.47e-01	0	51	104	0	48	20399
2026-01-28 11:18:56.80	140.18	3.10	-30.9	-51.5	3.9	8.46e-01	0	52	104	0	24	64475
2026-01-28 11:19:00.84	140.06	3.37	-38.5	-53.7	3.7	8.46e-01	0	52	104	0	47	22244
2026-01-28 11:19:04.88	139.94	3.64	-38.6	-53.6	3.7	8.46e-01	0	52	104	0	45	24547
2026-01-28 11:19:08.93	139.82	3.91	-30.7	-51.7	3.7	8.46e-01	0	53	104	0	42	23319
2026-01-28 11:19:12.96	139.69	4.18	-37.8	-52.9	3.8	8.46e-01	0	53	104	0	41	28483
2026-01-28 11:19:17.00	139.56	4.46	-37.7	-53.2	3.9	8.46e-01	0	53	104	0	54	14043
2026-01-28 11:19:21.04	139.43	4.74	-34.2	-53.1	3.8	8.47e-01	0	53	104	0	45	23243
2026-01-28 11:19:25.08	139.29	5.02	-32.5	-52.8	4.2	8.45e-01	0	54	104	0	33	44885
2026-01-28 11:19:29.12	139.16	5.30	-41.8	-53.9	3.9	8.45e-01	0	54	104	0	53	15945
2026-01-28 11:19:33.17	139.02	5.59	-41.3	-52.9	3.7	8.46e-01	0	54	104	0	41	28431
2026-01-28 11:19:37.21	138.87	5.88	-40.9	-53.5	3.9	8.46e-01	0	54	104	0	54	14452
2026-01-28 11:19:41.25	138.73	6.18	-34.3	-52.8	3.9	8.46e-01	0	54	104	0	34	42240
2026-01-28 11:19:45.29	138.58	6.47	-41.3	-53.9	3.7	8.47e-01	0	54	104	0	44	26839
2026-01-28 11:19:49.34	138.42	6.78	-42.1	-53.9	3.9	8.45e-01	0	55	104	0	52	17066
2026-01-28 11:19:53.38	138.27	7.08	-39.6	-53.7	3.7	8.46e-01	0	55	104	0	49	19763
2026-01-28 11:19:57.42	138.11	7.39	-35.9	-53.0	3.7	8.46e-01	0	55	104	0	33	45536
2026-01-28 11:20:01.46	137.95	7.70	-30.8	-52.4	4.0	8.46e-01	0	55	104	0	41	26937
2026-01-28 11:20:05.50	137.78	8.01	-33.1	-53.2	3.8	8.47e-01	0	55	104	0	48	19653
2026-01-28 11:20:09.54	137.61	8.33	-40.9	-54.0	3.9	8.46e-01	0	55	104	0	52	17226
2026-01-28 11:20:13.58	137.43	8.65	-38.7	-53.2	3.8	8.45e-01	0	56	104	0	46	22073
2026-01-28 11:20:17.62	137.25	8.97	-39.1	-53.8	3.9	8.45e-01	0	56	104	0	46	23847
2026-01-28 11:20:21.65	137.07	9.30	-37.3	-50.5	3.9	8.43e-01	0	56	104	0	34	32542
2026-01-28 11:20:25.69	136.88	9.64	-38.5	-53.5	3.9	8.45e-01	0	56	104	0	48	20427
2026-01-28 11:20:29.73	136.69	9.98	-38.8	-51.6	3.3	8.46e-01	0	56	104	0	43	21941
2026-01-28 11:20:33.77	136.49	10.32	-38.5	-50.2	4.4	8.36e-01	0	57	104	0	45	16550
2026-01-28 11:20:37.81	136.29	10.66	-28.7	-40.3	9.2	1.38e-01	0	56	0	11534336	25	16879
2026-01-28 11:20:41.85	136.08	11.02	-35.6	-41.4	11.5	6.08e-02	0	56	0	34603008	42	7135
2026-01-28 11:20:45.89	135.87	11.37	-34.5	-40.0	12.8	2.83e-02	0	57	0	56623104	42	6116
2026-01-28 11:20:49.93	135.65	11.73	-29.2	-39.9	10.2	1.37e-01	0	57	0	77594624	36	8521
2026-01-28 11:20:53.97	135.43	12.10	-35.6	-40.4	13.1	4.69e-02	0	57	0	98566144	44	5693
2026-01-28 11:20:58.01	135.20	12.47	-26.9	-38.9	9.2	3.82e-02	0	57	0	121634816	25	14245
2026-01-28 11:21:02.05	134.96	12.84	-35.9	-40.1	12.7	1.85e-02	0	57	0	142606336	42	6155
2026-01-28 11:21:06.09	134.72	13.23	-34.7	-40.0	13.7	9.93e-03	0	57	0	164626432	41	6431
2026-01-28 11:21:10.13	134.47	13.61	-32.5	-40.0	13.3	1.09e-02	0	57	0	186646528	41	6423
2026-01-28 11:21:14.18	134.21	14.01	-28.6	-39.3	12.7	1.56e-01	0	57	0	208666624	32	10007
2026-01-28 11:21:18.22	133.95	14.41	-32.8	-39.4	12.9	2.34e-02	0	57	0	230686720	38	7204
2026-01-28 11:21:22.26	133.68	14.81	-35.4	-39.6	13.7	8.81e-03	0	57	0	253755392	37	7729
2026-01-28 11:21:26.30	133.40	15.22	-35.9	-39.1	15.0	6.83e-03	0	58	0	275775488	43	5169
2026-01-28 11:21:30.34	133.12	15.64	-36.7	-39.0	15.4	4.66e-04	0	57	0	298844160	44	4833
2026-01-28 11:21:34.38	132.82	16.06	-36.9	-38.9	15.6	4.80e-05	0	58	0	321912832	44	4761
2026-01-28 11:21:38.41	132.52	16.49	-36.9	-38.7	15.9	1.10e-06	0	58	0	343932928	44	4677
2026-01-28 11:21:42.45	132.20	16.93	-37.0	-38.8	15.9	1.10e-06	0	58	0	367001600	44	4750
2026-01-28 11:21:46.50	131.88	17.37	-36.3	-38.1	16.3	0.00e+00	0	58	0	390070272	43	4617
2026-01-28 11:21:50.54	131.55	17.82	-36.1	-38.0	16.5	0.00e+00	0	58	0	413138944	43	4577
2026-01-28 11:21:54.58	131.21	18.28	-36.1	-37.9	16.7	0.00e+00	0	58	0	435159040	43	4513
2026-01-28 11:21:58.63	130.85	18.75	-36.1	-37.8	16.8	0.00e+00	0	58	0	458227712	43	4464
2026-01-28 11:22:02.67	130.49	19.23	-36.0	-37.6	16.9	0.00e+00	0	58	0	480247808	43	4380
2026-01-28 11:22:06.71	130.11	19.71	-35.9	-37.4	17.2	0.00e+00	0	58	0	503316480	43	4258
2026-01-28 11:22:10.75	129.72	20.20	-35.5	-37.1	17.5	0.00e+00	0	58	0	526385152	42	4387
2026-01-28 11:22:14.79	129.32	20.70	-35.7	-37.2	17.4	0.00e+00	0	58	0	549453824	42	4423
2026-01-28 11:22:18.84	128.90	21.20	-35.5	-37.1	17.5	1.10e-06	0	58	0	571473920	41	4642
2026-01-28 11:22:22.88	128.47	21.72	-35.3	-37.0	17.7	3.54e-05	0	58	0	594542592	41	4555
2026-01-28 11:22:26.92	128.02	22.24	-35.1	-36.8	17.9	2.20e-06	0	58	0	617611264	41	4470
2026-01-28 11:22:30.96	127.56	22.78	-35.3	-37.0	17.8	5.70e-06	0	59	0	639631360	41	4548
2026-01-28 11:22:35.00	127.08	23.32	-35.1	-36.6	18.1	1.10e-06	0	58	0	662700032	40	4613
2026-01-28 11:22:39.04	126.59	23.87	-35.1	-36.6	18.2	2.05e-05	0	58	0	685768704	40	4607
2026-01-28 11:22:43.09	126.07	24.44	-33.6	-36.7	18.0	4.50e-06	0	58	0	707788800	40	4660
2026-01-28 11:22:47.13	125.54	25.01	-34.4	-36.5	18.2	0.00e+00	0	58	0	730857472	40	4560
2026-01-28 11:22:51.17	124.99	25.59	-34.7	-36.1	18.6	0.00e+00	0	59	0	753926144	40	4363
2026-01-28 11:22:55.21	124.41	26.18	-34.8	-36.2	18.5	0.00e+00	0	59	0	775946240	40	4429
2026-01-28 11:22:59.25	123.82	26.78	-34.7	-36.1	18.7	0.00e+00	0	58	0	799014912	40	4349
2026-01-28 11:23:03.29	123.20	27.39	-34.9	-36.3	18.5	0.00e+00	0	58	0	822083584	40	4481
2026-01-28 11:23:07.34	122.55	28.01	-34.8	-36.2	18.6	0.00e+00	0	59	0	845152256	40	4412
2026-01-28 11:23:11.38	121.88	28.64	-34.7	-36.0	18.8	0.00e+00	0	59	0	867172352	40	4338
2026-01-28 11:23:15.42	121.18	29.28	-34.4	-35.8	19.1	0.00e+00	0	59	0	890241024	40	4197
2026-01-28 11:23:19.46	120.46	29.93	-34.5	-35.8	19.0	0.00e+00	0	59	0	912261120	40	4242
2026-01-28 11:23:23.50	119.70	30.59	-34.5	-35.9	19.0	0.00e+00	0	59	0	935329792	40	4252
2026-01-28 11:23:27.55	118.91	31.26	-34.4	-35.8	19.1	0.00e+00	0	59	0	958398464	40	4197
2026-01-28 11:23:31.59	118.08	31.94	-34.4	-35.6	19.2	0.00e+00	0	59	0	981467136	40	4143
2026-01-28 11:23:35.63	117.23	32.63	-34.6	-36.0	18.9	0.00e+00	0	59	0	1003487232	40	4300
2026-01-28 11:23:39.68	116.33	33.32	-34.3	-35.6	19.3	0.00e+00	0	59	0	1026555904	40	4123
2026-01-28 11:23:43.72	115.39	34.03	-34.5	-35.9	19.0	0.00e+00	0	59	0	1049624576	40	4260
2026-01-28 11:23:47.76	114.41	34.74	-34.4	-35.7	19.1	0.00e+00	0	59	0	1071644672	40	4183
2026-01-28 11:23:51.80	113.39	35.45	-34.2	-35.5	19.3	0.00e+00	0	59	0	1094713344	40	4064
2026-01-28 11:23:55.85	112.32	36.18	-34.4	-35.8	19.2	0.00e+00	0	59	0	1117782016	40	4196
2026-01-28 11:23:59.89	111.20	36.90	-34.4	-35.7	19.2	0.00e+00	0	59	0	1139802112	40	4186
2026-01-28 11:24:03.93	110.03	37.63	-34.3	-35.5	19.3	0.00e+00	0	59	0	1162870784	40	4098
2026-01-28 11:24:07.98	108.80	38.36	-34.4	-35.7	19.2	0.00e+00	0	59	0	1185939456	40	4158
2026-01-28 11:24:12.02	107.53	39.09	-34.4	-35.8	19.2	0.00e+00	0	59	0	1207959552	40	4200
2026-01-28 11:24:16.06	106.19	39.82	-34.4	-35.7	19.2	0.00e+00	0	59	0	1231028224	40	4189
2026-01-28 11:24:20.10	104.79	40.54	-34.4	-35.7	19.3	0.00e+00	0	59	0	1254096896	40	4161
2026-01-28 11:24:24.14	103.32	41.26	-34.5	-35.8	19.2	0.00e+00	0	59	0	1277165568	40	4230
2026-01-28 11:24:28.18	101.79	41.97	-34.4	-35.7	19.3	0.00e+00	0	59	0	1299185664	40	4161
2026-01-28 11:24:32.23	100.19	42.67	-34.3	-35.6	19.4	0.00e+00	0	59	0	1322254336	40	4121
2026-01-28 11:24:36.27	98.52	43.36	-34.5	-35.8	19.2	0.00e+00	0	59	0	1344274432	40	4220
2026-01-28 11:24:40.31	96.78	44.03	-34.5	-35.8	19.3	0.00e+00	0	59	0	1367343104	40	4196
2026-01-28 11:24:44.35	94.96	44.68	-34.1	-35.3	19.8	0.00e+00	0	59	0	1390411776	40	3974
2026-01-28 11:24:48.40	93.07	45.31	-34.3	-35.5	19.5	0.00e+00	0	59	0	1413480448	40	4088
2026-01-28 11:24:52.44	91.10	45.91	-35.0	-36.3	18.8	0.00e+00	0	59	0	1435500544	40	4483
2026-01-28 11:24:56.48	89.06	46.48	-34.8	-36.1	19.1	0.00e+00	0	59	0	1458569216	40	4344
2026-01-28 11:25:00.53	86.94	47.02	-35.2	-36.6	18.5	0.00e+00	0	59	0	1481637888	41	4354
2026-01-28 11:25:04.57	84.76	47.51	-35.3	-36.6	18.5	0.00e+00	0	59	0	1503657984	41	4386
2026-01-28 11:25:08.61	82.50	47.97	-35.3	-36.7	18.5	0.00e+00	0	59	0	1526726656	41	4403
2026-01-28 11:25:12.65	80.19	48.38	-35.4	-36.8	18.4	0.00e+00	0	59	0	1549795328	41	4458
2026-01-28 11:25:16.69	77.81	48.74	-35.1	-36.5	18.7	0.00e+00	0	59	0	1571815424	41	4320
2026-01-28 11:25:20.73	75.38	49.05	-35.0	-36.4	18.9	0.00e+00	0	59	0	1594884096	41	4245
2026-01-28 11:25:24.77	72.91	49.31	-35.0	-36.3	18.9	0.00e+00	0	59	0	1617952768	41	4223
2026-01-28 11:25:28.81	70.40	49.51	-35.3	-36.6	18.6	0.00e+00	0	59	0	1639972864	41	4377
2026-01-28 11:25:32.86	67.85	49.65	-34.9	-36.2	19.0	0.00e+00	0	60	0	1663041536	41	4150
2026-01-28 11:25:36.90	65.30	49.73	-34.7	-36.0	19.2	0.00e+00	0	60	0	1686110208	41	4071
2026-01-28 11:25:40.94	62.73	49.75	-35.2	-36.6	18.6	0.00e+00	0	59	0	1709178880	41	4365
2026-01-28 11:25:44.99	60.16	49.70	-35.1	-36.4	18.8	0.00e+00	0	60	0	1731198976	41	4261
2026-01-28 11:25:49.03	57.61	49.60	-35.0	-36.3	18.9	0.00e+00	0	60	0	1754267648	41	4235
2026-01-28 11:25:53.07	55.09	49.44	-35.4	-36.8	18.4	0.00e+00	0	59	0	1776287744	41	4461
2026-01-28 11:25:57.11	52.59	49.22	-35.2	-36.6	18.7	0.00e+00	0	60	0	1799356416	41	4342
2026-01-28 11:26:01.15	50.14	48.94	-34.8	-36.1	19.0	0.00e+00	0	59	0	1822425088	41	4141
2026-01-28 11:26:05.19	47.73	48.61	-35.3	-36.6	18.5	0.00e+00	0	60	0	1845493760	41	4384
2026-01-28 11:26:09.23	45.38	48.23	-35.0	-36.3	18.9	0.00e+00	0	60	0	1867513856	41	4219
2026-01-28 11:26:13.27	43.09	47.80	-35.1	-36.5	18.7	0.00e+00	0	60	0	1890582528	41	4294
2026-01-28 11:26:17.31	40.87	47.33	-35.0	-36.4	18.8	0.00e+00	0	60	0	1913651200	41	4244
2026-01-28 11:26:21.35	38.72	46.81	-35.1	-36.4	18.8	0.00e+00	0	60	0	1935671296	41	4281
2026-01-28 11:26:25.39	36.64	46.27	-34.5	-35.8	19.3	0.00e+00	0	60	0	1958739968	41	3979
2026-01-28 11:26:29.43	34.63	45.68	-34.3	-35.5	19.6	0.00e+00	0	60	0	1981808640	40	4093
2026-01-28 11:26:33.48	32.69	45.07	-34.3	-35.5	19.5	0.00e+00	0	60	0	2003828736	40	4085
2026-01-28 11:26:37.52	30.84	44.44	-34.3	-35.5	19.5	0.00e+00	0	60	0	2026897408	40	4086
2026-01-28 11:26:41.56	29.05	43.78	-34.1	-35.4	19.6	0.00e+00	0	60	0	2049966080	40	4031
2026-01-28 11:26:45.61	27.34	43.11	-34.1	-35.3	19.8	0.00e+00	0	60	0	2071986176	40	3977
2026-01-28 11:26:49.65	25.70	42.42	-34.5	-35.8	19.3	0.00e+00	0	59	0	2095054848	40	4197
2026-01-28 11:26:53.69	24.13	41.72	-34.5	-35.7	19.6	0.00e+00	0	60	0	2118123520	40	4154
2026-01-28 11:26:57.74	22.63	41.00	-34.7	-35.9	19.5	0.00e+00	0	60	0	2141192192	40	4248
2026-01-28 11:27:01.78	21.20	40.28	-34.5	-35.6	19.6	0.00e+00	0	60	0	2163212288	40	4143
2026-01-28 11:27:05.83	19.82	39.56	-34.4	-35.5	19.7	0.00e+00	0	60	0	2186280960	40	4098
2026-01-28 11:27:09.86	18.51	38.83	-34.2	-35.4	19.9	0.00e+00	0	60	0	2208301056	40	4010
2026-01-28 11:27:13.91	17.26	38.11	-34.3	-35.4	19.9	0.00e+00	0	60	0	2231369728	40	4042
2026-01-28 11:27:17.95	16.06	37.38	-34.4	-35.6	19.7	0.00e+00	0	60	0	2254438400	40	4133
2026-01-28 11:27:21.99	14.92	36.66	-34.2	-35.3	19.9	0.00e+00	0	60	0	2277507072	40	4000
2026-01-28 11:27:26.03	13.82	35.93	-34.1	-35.2	20.0	0.00e+00	0	60	0	2299527168	40	3941
2026-01-28 11:27:30.07	12.77	35.22	-34.2	-35.4	19.8	0.00e+00	0	59	0	2322595840	40	4022
2026-01-28 11:27:34.11	11.77	34.51	-34.0	-35.1	20.1	0.00e+00	0	60	0	2345664512	39	4142
2026-01-28 11:27:38.15	10.81	33.80	-34.1	-35.2	20.0	0.00e+00	0	60	0	2367684608	39	4181
2026-01-28 11:27:42.19	9.90	33.11	-34.4	-35.6	19.6	0.00e+00	0	60	0	2390753280	39	4385
2026-01-28 11:27:46.23	9.02	32.42	-34.4	-35.5	19.7	0.00e+00	0	60	0	2412773376	39	4329
2026-01-28 11:27:50.27	8.18	31.74	-34.7	-36.0	19.3	0.00e+00	0	60	0	2435842048	40	4295
2026-01-28 11:27:54.32	7.37	31.07	-34.7	-35.9	19.3	0.00e+00	0	60	0	2458910720	40	4258
2026-01-28 11:27:58.36	6.59	30.40	-34.7	-35.9	19.3	0.00e+00	0	60	0	2481979392	40	4266
2026-01-28 11:28:02.40	5.85	29.75	-34.7	-35.9	19.3	0.00e+00	0	60	0	2503999488	40	4262
2026-01-28 11:28:06.44	5.14	29.11	-34.8	-36.0	19.2	0.00e+00	0	60	0	2527068160	40	4304
2026-01-28 11:28:10.49	4.45	28.47	-35.0	-36.3	18.9	0.00e+00	0	59	0	2550136832	40	4450
2026-01-28 11:28:14.53	3.80	27.85	-34.9	-36.2	18.9	0.00e+00	0	60	0	2572156928	40	4402
2026-01-28 11:28:18.57	3.17	27.23	-34.9	-36.1	19.0	0.00e+00	0	60	0	2595225600	40	4366
2026-01-28 11:28:22.61	2.56	26.63	-35.0	-36.3	18.7	0.00e+00	0	60	0	2618294272	40	4475
2026-01-28 11:28:26.65	1.97	26.03	-35.0	-36.3	18.8	0.00e+00	0	60	0	2640314368	40	4459
2026-01-28 11:28:30.70	1.41	25.45	-34.9	-36.2	18.9	0.00e+00	0	60	0	2663383040	40	4419
2026-01-28 11:28:34.74	0.87	24.87	-34.9	-36.1	18.9	0.00e+00	0	60	0	2686451712	40	4385
2026-01-28 11:28:38.78	0.35	24.31	-35.1	-36.3	18.7	0.00e+00	0	59	0	2708471808	40	4481
2026-01-28 11:28:42.81	359.84	23.75	-35.1	-36.3	18.6	0.00e+00	0	60	0	2731540480	40	4491
2026-01-28 11:28:46.86	359.36	23.20	-35.0	-36.3	18.7	0.00e+00	0	60	0	2754609152	40	4457
2026-01-28 11:28:50.90	358.89	22.67	-35.2	-36.5	18.4	0.00e+00	0	60	0	2776629248	41	4320
2026-01-28 11:28:54.93	358.44	22.14	-35.5	-36.8	18.0	0.00e+00	0	60	0	2799697920	41	4486
2026-01-28 11:28:58.97	358.00	21.62	-35.4	-36.8	18.0	0.00e+00	0	60	0	2822766592	41	4456
2026-01-28 11:29:03.01	357.58	21.11	-35.4	-36.8	17.8	0.00e+00	0	60	0	2844786688	41	4462
2026-01-28 11:29:07.05	357.17	20.61	-35.5	-36.9	17.4	0.00e+00	0	60	0	2867855360	41	4515
2026-01-28 11:29:11.09	356.78	20.12	-35.3	-36.7	17.1	0.00e+00	0	60	0	2890924032	41	4439
2026-01-28 11:29:15.13	356.39	19.63	-37.1	-39.0	14.3	0.00e+00	0	60	0	2912944128	44	4848
2026-01-28 11:29:19.17	356.03	19.15	-39.5	-43.1	9.3	1.18e-02	0	60	0	2936012800	49	5829
2026-01-28 11:29:23.21	355.67	18.68	-40.4	-46.3	5.7	3.04e-01	0	60	0	2959081472	51	7528
2026-01-28 11:29:27.26	355.32	18.22	-41.0	-52.1	3.8	8.46e-01	0	60	104	2961178624	52	13742
2026-01-28 11:29:31.30	354.98	17.77	-41.7	-49.6	4.4	8.20e-01	0	60	0	2961178624	54	9210
2026-01-28 11:29:35.34	354.66	17.32	-41.5	-50.5	3.9	8.41e-01	0	60	104	2961178624	54	10215
2026-01-28 11:29:39.38	354.34	16.88	-40.7	-52.1	3.8	8.48e-01	0	60	104	2961178624	53	13050
2026-01-28 11:29:43.42	354.04	16.44	-40.5	-52.0	3.8	8.47e-01	0	60	104	2961178624	53	12904
2026-01-28 11:29:47.46	353.74	16.02	-40.5	-52.0	3.8	8.46e-01	0	60	104	2961178624	52	13570
2026-01-28 11:29:51.50	353.45	15.60	-40.5	-52.0	3.8	8.47e-01	0	60	104	2961178624	52	13594
2026-01-28 11:29:55.54	353.17	15.19	-40.5	-52.0	3.8	8.47e-01	0	60	104	2961178624	52	13581
2026-01-28 11:29:59.58	352.90	14.78	-40.5	-52.0	3.8	8.47e-01	0	60	104	2961178624	52	13665
2026-01-28 11:30:03.62	352.64	14.38	-40.6	-52.1	3.8	8.46e-01	0	60	104	2961178624	52	13772
2026-01-28 11:30:07.66	352.38	13.98	-40.7	-52.2	3.8	8.46e-01	0	60	104	2961178624	52	13905
2026-01-28 11:30:11.70	352.13	13.59	-40.8	-52.2	3.8	8.47e-01	0	60	104	2961178624	52	14011
2026-01-28 11:30:15.74	351.89	13.21	-40.7	-52.2	3.8	8.46e-01	0	60	104	2961178624	52	14035
2026-01-28 11:30:19.78	351.65	12.83	-40.6	-52.1	3.8	8.47e-01	0	60	104	2961178624	52	13828
2026-01-28 11:30:23.82	351.42	12.46	-40.6	-52.0	3.8	8.46e-01	0	60	104	2961178624	52	13712
2026-01-28 11:30:27.86	351.20	12.09	-40.5	-52.0	3.8	8.46e-01	0	60	104	2961178624	52	13638
2026-01-28 11:30:31.90	350.98	11.73	-40.5	-52.0	3.8	8.46e-01	0	60	104	2961178624	52	13651
2026-01-28 11:30:35.94	350.77	11.37	-40.6	-52.0	3.8	8.47e-01	0	60	104	2961178624	52	13688
2026-01-28 11:30:39.98	350.56	11.01	-40.7	-52.2	3.8	8.46e-01	0	60	104	2961178624	52	13937
2026-01-28 11:30:44.02	350.36	10.67	-40.7	-52.2	3.8	8.46e-01	0	60	104	2961178624	52	13994
2026-01-28 11:30:48.06	350.16	10.32	-40.7	-52.2	3.8	8.47e-01	0	60	104	2961178624	52	13932
2026-01-28 11:30:52.10	349.97	9.98	-40.5	-52.0	3.8	8.46e-01	0	60	104	2961178624	52	13666
2026-01-28 11:30:56.14	349.78	9.65	-40.4	-51.8	3.8	8.46e-01	0	60	104	2961178624	52	13330
2026-01-28 11:31:00.18	349.60	9.32	-40.4	-51.9	3.8	8.46e-01	0	60	104	2961178624	52	13503
2026-01-28 11:31:04.22	349.42	8.99	-40.5	-52.0	3.8	8.45e-01	0	60	104	2961178624	52	13635
2026-01-28 11:31:08.26	349.25	8.67	-40.4	-51.9	3.8	8.47e-01	0	60	104	2961178624	52	13512
2026-01-28 11:31:12.30	349.08	8.35	-41.0	-52.5	3.8	8.46e-01	0	60	104	2961178624	52	14540
2026-01-28 11:31:16.34	348.92	8.03	-40.6	-52.2	3.8	8.47e-01	0	60	104	2961178624	52	13896
2026-01-28 11:31:20.38	348.75	7.72	-44.7	-56.7	3.8	8.47e-01	0	60	104	2961178624	60	14754
2026-01-28 11:31:24.42	348.60	7.41	-45.1	-57.0	3.8	8.46e-01	0	60	104	2961178624	60	15376
2026-01-28 11:31:28.46	348.44	7.10	-45.1	-57.1	3.8	8.47e-01	0	60	104	2961178624	60	15559
2026-01-28 11:31:32.50	348.29	6.80	-45.1	-57.0	3.8	8.46e-01	0	60	104	2961178624	60	15394
2026-01-28 11:31:36.55	348.14	6.50	-45.0	-57.0	3.8	8.47e-01	0	60	104	2961178624	60	15290
2026-01-28 11:31:40.59	348.00	6.21	-45.0	-57.0	3.8	8.46e-01	0	60	104	2961178624	60	15255
2026-01-28 11:31:44.63	347.86	5.92	-45.0	-57.0	3.8	8.47e-01	0	60	104	2961178624	60	15229
2026-01-28 11:31:48.67	347.72	5.63	-45.0	-57.0	3.8	8.46e-01	0	60	104	2961178624	60	15261
2026-01-28 11:31:52.72	347.59	5.34	-45.0	-56.9	3.8	8.45e-01	0	60	104	2961178624	60	15188
2026-01-28 11:31:56.76	347.46	5.06	-45.0	-56.9	3.8	8.46e-01	0	60	104	2961178624	60	15217
2026-01-28 11:32:00.80	347.33	4.78	-44.8	-56.9	3.8	8.46e-01	0	60	104	2961178624	60	15160
2026-01-28 11:32:04.84	347.20	4.50	-44.9	-56.9	3.8	8.47e-01	0	60	104	2961178624	60	15177
2026-01-28 11:32:08.88	347.08	4.23	-44.2	-56.9	3.8	8.46e-01	0	60	104	2961178624	60	15204
2026-01-28 11:32:12.92	346.96	3.95	-45.0	-56.9	3.8	8.45e-01	0	60	104	2961178624	60	15166
2026-01-28 11:32:16.96	346.84	3.69	-45.0	-56.9	3.8	8.47e-01	0	60	104	2961178624	60	15131
2026-01-28 11:32:21.00	346.72	3.42	-44.6	-56.9	3.8	8.47e-01	0	60	104	2961178624	60	15165
2026-01-28 11:32:25.04	346.61	3.15	-45.0	-56.9	3.8	8.46e-01	0	60	104	2961178624	60	15161
2026-01-28 11:32:29.08	346.50	2.89	-45.0	-56.9	3.8	8.47e-01	0	60	104	2961178624	60	15118
2026-01-28 11:32:33.12	346.39	2.63	-45.0	-56.9	3.8	8.44e-01	0	60	104	2961178624	60	15209
2026-01-28 11:32:37.16	346.28	2.37	-45.0	-56.9	3.8	8.46e-01	0	60	104	2961178624	60	15102
2026-01-28 11:32:41.20	346.18	2.12	-44.9	-56.9	3.8	8.47e-01	0	60	104	2961178624	60	15116
2026-01-28 11:32:45.24	346.08	1.87	-45.0	-56.9	3.8	8.47e-01	0	60	104	2961178624	60	15163

#Closed at: 2026-01-28 11:32:45
#Recorded file [2961 MB]: D:/lorett/data/31039_260128_141840.dat