passes_logs/2026/01/28/R2.0S_Moscow/R2.0S_Moscow__20260128_003106_SUOMI_NPP_rec.log

#Pass ID: 20260128_003106_SUOMI NPP
#Satellite: SUOMI NPP
#Configuration: NPP
#almurnet v.1.7.20251203
#Start time: 2026-01-28 00:31:08

#Version: 2.2.20231116
#Station: R2.0S_Moscow
#Location: 37.707566 lon 55.798166 lat
#TLE: 1 37849U 11061A   26027.50945616  .00000185  00000+0  10897-3 0  9994
#TLE: 2 37849  98.7823 329.4511 0002105  42.1421 317.9917 14.19530771738482

#Time	Az	El	Level	Level2	SNR	BER	BlckErr	Temp	State	Recorded	gain1	gain2
2026-01-28 00:31:08.67	13.10	2.14	-40.5	-54.8	3.8	1.49e+00	0	53	0	0	52	18945
2026-01-28 00:31:12.72	12.98	2.39	-40.5	-54.9	3.8	1.49e+00	0	53	104	0	52	18960
2026-01-28 00:31:16.76	12.85	2.65	-40.4	-54.9	3.8	1.49e+00	0	53	104	0	52	19000
2026-01-28 00:31:20.80	12.73	2.91	-40.4	-54.9	3.8	1.49e+00	0	54	104	0	52	18964
2026-01-28 00:31:24.85	12.60	3.17	-40.4	-54.8	3.8	1.49e+00	0	54	104	0	52	18940
2026-01-28 00:31:28.89	12.47	3.43	-40.4	-54.8	3.8	1.49e+00	0	54	104	0	52	18885
2026-01-28 00:31:32.93	12.34	3.70	-40.4	-54.8	3.8	1.49e+00	0	54	104	0	52	18893
2026-01-28 00:31:36.97	12.21	3.97	-40.4	-54.8	3.8	1.49e+00	0	54	104	0	52	18904
2026-01-28 00:31:41.01	12.07	4.24	-40.4	-54.7	3.8	1.49e+00	0	55	104	0	52	18684
2026-01-28 00:31:45.05	11.93	4.51	-40.4	-54.5	3.8	1.49e+00	0	55	104	0	52	18179
2026-01-28 00:31:49.10	11.79	4.79	-40.4	-54.1	3.8	1.49e+00	0	55	104	0	52	17474
2026-01-28 00:31:53.14	11.64	5.06	-40.4	-54.1	3.8	1.49e+00	0	56	104	0	52	17407
2026-01-28 00:31:57.18	11.49	5.34	-40.4	-54.4	3.8	1.49e+00	0	56	104	0	52	18001
2026-01-28 00:32:01.23	11.34	5.63	-40.4	-54.4	3.8	1.49e+00	0	56	104	0	52	17952
2026-01-28 00:32:05.27	11.18	5.91	-40.4	-54.3	3.8	1.49e+00	0	56	104	0	52	17869
2026-01-28 00:32:09.31	11.02	6.20	-40.4	-54.5	3.8	1.49e+00	0	56	104	0	52	18155
2026-01-28 00:32:13.36	10.86	6.50	-40.4	-54.6	3.8	1.49e+00	0	56	104	0	52	18384
2026-01-28 00:32:17.40	10.69	6.79	-40.4	-54.7	3.8	1.49e+00	0	56	104	0	52	18704
2026-01-28 00:32:21.44	10.52	7.09	-40.4	-54.8	3.8	1.49e+00	0	57	104	0	52	18814
2026-01-28 00:32:25.48	10.35	7.39	-40.4	-54.7	3.8	1.49e+00	0	57	104	0	52	18530
2026-01-28 00:32:29.53	10.17	7.70	-40.4	-54.7	3.8	1.49e+00	0	57	104	0	52	18526
2026-01-28 00:32:33.57	9.99	8.01	-40.4	-54.6	3.8	1.49e+00	0	57	104	0	52	18515
2026-01-28 00:32:37.61	9.80	8.32	-40.8	-54.9	3.8	1.49e+00	0	58	104	0	52	19121
2026-01-28 00:32:41.65	9.61	8.64	-40.7	-54.8	3.8	1.49e+00	0	58	104	0	52	18815
2026-01-28 00:32:45.69	9.41	8.96	-40.6	-55.0	3.8	1.49e+00	0	58	104	0	52	19279
2026-01-28 00:32:49.73	9.21	9.28	-40.6	-55.0	3.8	1.49e+00	0	58	104	0	52	19273
2026-01-28 00:32:53.76	9.01	9.61	-40.0	-54.5	3.8	1.49e+00	0	58	104	0	51	19172
2026-01-28 00:32:57.80	8.80	9.94	-40.3	-54.6	3.8	1.49e+00	0	58	104	0	52	18473
2026-01-28 00:33:01.85	8.58	10.27	-40.1	-54.5	3.8	1.49e+00	0	58	104	0	52	18227
2026-01-28 00:33:05.89	8.36	10.61	-40.6	-54.8	3.8	1.49e+00	0	58	104	0	53	17701
2026-01-28 00:33:09.93	8.13	10.96	-40.3	-54.6	3.8	1.49e+00	0	58	104	0	52	18348
2026-01-28 00:33:13.97	7.90	11.30	-42.6	-52.9	4.5	1.17e+00	0	58	0	0	55	12698
2026-01-28 00:33:18.01	7.66	11.66	-41.8	-49.2	6.5	2.78e-01	0	59	0	4194304	54	8856
2026-01-28 00:33:22.05	7.42	12.01	-40.6	-45.2	10.6	8.53e-03	0	59	0	11534336	53	5905
2026-01-28 00:33:26.08	7.17	12.38	-40.2	-44.2	11.9	3.80e-04	0	59	0	18874368	52	5571
2026-01-28 00:33:30.13	6.91	12.74	-40.0	-43.7	12.5	1.85e-04	0	59	0	27262976	52	5249
2026-01-28 00:33:34.17	6.64	13.12	-40.4	-44.3	12.0	3.49e-04	0	59	0	34603008	52	5631
2026-01-28 00:33:38.21	6.37	13.49	-40.2	-43.7	13.0	2.74e-05	0	59	0	41943040	52	5219
2026-01-28 00:33:42.25	6.09	13.87	-40.5	-44.1	12.9	3.58e-05	0	59	0	49283072	52	5478
2026-01-28 00:33:46.29	5.81	14.26	-40.7	-44.3	12.9	5.41e-05	0	59	0	57671680	52	5593
2026-01-28 00:33:50.33	5.51	14.65	-40.6	-44.1	13.2	4.34e-05	0	59	0	65011712	52	5490
2026-01-28 00:33:54.37	5.21	15.05	-40.8	-44.2	13.1	2.89e-05	0	59	0	72351744	52	5580
2026-01-28 00:33:58.41	4.90	15.46	-40.7	-44.1	13.4	1.22e-05	0	60	0	79691776	52	5495
2026-01-28 00:34:02.45	4.58	15.87	-40.8	-44.1	13.5	1.90e-05	0	60	0	87031808	52	5509
2026-01-28 00:34:06.49	4.24	16.28	-41.0	-44.5	13.2	2.67e-05	0	60	0	95420416	52	5728
2026-01-28 00:34:10.53	3.90	16.71	-41.0	-44.5	13.1	3.66e-05	0	60	0	102760448	52	5773
2026-01-28 00:34:14.57	3.55	17.14	-41.1	-44.6	13.1	3.58e-05	0	60	0	110100480	53	5505
2026-01-28 00:34:18.61	3.19	17.57	-41.0	-44.4	13.4	2.13e-05	0	60	0	117440512	53	5361
2026-01-28 00:34:22.65	2.82	18.01	-40.9	-44.2	13.6	1.14e-05	0	60	0	125829120	53	5236
2026-01-28 00:34:26.69	2.44	18.46	-41.0	-44.4	13.5	9.90e-06	0	60	0	133169152	53	5353
2026-01-28 00:34:30.73	2.04	18.92	-41.1	-44.4	13.4	6.10e-06	0	60	0	140509184	53	5396
2026-01-28 00:34:34.77	1.63	19.38	-41.2	-44.6	13.3	1.67e-05	0	60	0	147849216	53	5491
2026-01-28 00:34:38.81	1.21	19.85	-41.3	-44.8	13.1	2.05e-05	0	61	0	155189248	53	5611
2026-01-28 00:34:42.84	0.78	20.33	-41.4	-44.9	13.0	2.05e-05	0	60	0	163577856	53	5697
2026-01-28 00:34:46.88	0.33	20.81	-41.5	-45.1	12.8	5.95e-05	0	60	0	170917888	53	5803
2026-01-28 00:34:50.92	359.86	21.30	-41.5	-45.1	12.8	2.82e-05	0	60	0	178257920	53	5817
2026-01-28 00:34:54.96	359.38	21.80	-41.4	-44.8	13.0	2.67e-05	0	60	0	185597952	53	5640
2026-01-28 00:34:58.99	358.89	22.31	-41.5	-45.0	12.8	4.50e-05	0	60	0	193986560	53	5783
2026-01-28 00:35:03.03	358.38	22.82	-41.7	-45.4	12.5	9.38e-05	0	60	0	201326592	53	6053
2026-01-28 00:35:07.08	357.84	23.35	-41.9	-45.8	12.2	2.68e-04	0	61	0	208666624	54	5964
2026-01-28 00:35:11.12	357.29	23.88	-41.8	-45.6	12.4	2.20e-04	0	60	0	216006656	54	5803
2026-01-28 00:35:15.16	356.72	24.42	-41.8	-45.7	12.3	1.65e-04	0	61	0	223346688	54	5891
2026-01-28 00:35:19.20	356.14	24.96	-42.0	-46.0	12.0	4.30e-04	0	61	0	231735296	54	6126
2026-01-28 00:35:23.24	355.52	25.52	-42.1	-46.1	11.9	5.39e-04	0	61	0	239075328	55	5824
2026-01-28 00:35:27.28	354.89	26.08	-41.6	-45.1	13.0	5.26e-05	0	61	0	246415360	55	5196
2026-01-28 00:35:31.32	354.23	26.65	-41.3	-44.6	13.6	1.06e-05	0	61	0	253755392	54	5169
2026-01-28 00:35:35.36	353.55	27.23	-41.8	-45.3	12.8	4.65e-05	0	61	0	262144000	54	5645
2026-01-28 00:35:39.40	352.84	27.82	-41.7	-45.2	12.9	6.10e-05	0	61	0	269484032	54	5578
2026-01-28 00:35:43.44	352.11	28.41	-41.9	-45.7	12.6	5.64e-05	0	61	0	276824064	54	5880
2026-01-28 00:35:47.48	351.35	29.01	-41.9	-45.7	12.6	1.23e-04	0	61	0	284164096	54	5865
2026-01-28 00:35:51.52	350.55	29.62	-41.8	-45.5	12.7	9.15e-05	0	61	0	291504128	54	5729
2026-01-28 00:35:55.56	349.73	30.24	-42.2	-46.3	11.9	2.22e-04	0	61	0	299892736	55	5956
2026-01-28 00:35:59.60	348.87	30.86	-42.2	-46.1	12.1	2.73e-04	0	61	0	307232768	55	5807
2026-01-28 00:36:03.62	347.99	31.48	-42.5	-46.7	11.5	5.72e-04	0	61	0	314572800	55	6239
2026-01-28 00:36:07.66	347.06	32.12	-42.5	-46.7	11.5	6.22e-04	0	61	0	321912832	55	6212
2026-01-28 00:36:11.71	346.09	32.75	-42.6	-47.0	11.2	8.71e-04	0	61	0	330301440	55	6473
2026-01-28 00:36:15.75	345.09	33.40	-42.3	-46.2	11.9	1.17e-03	0	61	0	337641472	55	5915
2026-01-28 00:36:19.79	344.04	34.04	-42.2	-46.2	12.0	4.68e-04	0	61	0	344981504	55	5891
2026-01-28 00:36:23.83	342.96	34.69	-42.5	-46.7	11.6	8.90e-04	0	61	0	352321536	55	6258
2026-01-28 00:36:27.87	341.82	35.34	-43.4	-48.8	9.5	1.44e-02	0	61	0	360710144	57	7115
2026-01-28 00:36:31.92	340.64	35.99	-43.1	-47.9	10.5	4.48e-03	0	61	0	368050176	57	6382
2026-01-28 00:36:35.96	339.42	36.63	-42.4	-46.4	12.1	2.67e-04	0	61	0	375390208	56	5673
2026-01-28 00:36:40.00	338.14	37.28	-42.5	-46.5	11.9	6.66e-04	0	61	0	382730240	56	5765
2026-01-28 00:36:44.04	336.81	37.92	-42.7	-47.0	11.4	6.24e-04	0	61	0	390070272	56	6110
2026-01-28 00:36:48.08	335.43	38.55	-43.1	-47.9	10.6	2.60e-03	0	61	0	398458880	56	6757
2026-01-28 00:36:52.12	333.99	39.17	-43.1	-47.8	10.6	4.30e-03	0	62	0	405798912	57	6311
2026-01-28 00:36:56.16	332.50	39.79	-42.4	-46.3	12.0	6.79e-05	0	61	0	413138944	55	5976
2026-01-28 00:37:00.21	330.94	40.39	-43.2	-48.1	10.4	6.16e-03	0	61	0	420478976	57	6500
2026-01-28 00:37:04.24	329.34	40.98	-41.8	-45.3	13.1	4.73e-05	0	61	0	428867584	55	5285
2026-01-28 00:37:08.28	327.67	41.55	-42.0	-45.7	12.6	1.65e-04	0	61	0	436207616	55	5587
2026-01-28 00:37:12.32	325.94	42.10	-41.9	-45.4	12.9	7.01e-05	0	61	0	443547648	55	5349
2026-01-28 00:37:16.36	324.15	42.63	-41.1	-44.0	14.3	0.00e+00	0	61	0	450887680	53	5146
2026-01-28 00:37:20.40	322.31	43.13	-42.3	-46.3	12.1	2.08e-04	0	62	0	458227712	55	5990
2026-01-28 00:37:24.44	320.40	43.60	-41.0	-43.9	14.6	2.20e-06	0	61	0	466616320	54	4768
2026-01-28 00:37:28.48	318.44	44.05	-40.4	-42.9	15.5	0.00e+00	0	62	0	473956352	52	4763
2026-01-28 00:37:32.52	316.43	44.46	-42.0	-45.7	12.7	6.10e-05	0	61	0	481296384	54	5880
2026-01-28 00:37:36.56	314.37	44.83	-43.3	-48.5	9.9	4.08e-03	0	61	0	488636416	57	6872
2026-01-28 00:37:40.60	312.26	45.16	-42.1	-45.6	12.9	3.59e-04	0	62	0	497025024	56	5193
2026-01-28 00:37:44.64	310.10	45.45	-41.9	-45.4	12.9	1.14e-05	0	61	0	504365056	54	5679
2026-01-28 00:37:48.68	307.91	45.70	-42.4	-46.3	12.0	1.27e-04	0	62	0	511705088	55	5967
2026-01-28 00:37:52.72	305.69	45.91	-42.4	-46.2	12.4	4.36e-04	0	62	0	519045120	56	5575
2026-01-28 00:37:56.75	303.45	46.06	-42.3	-46.0	12.4	1.24e-04	0	62	0	526385152	56	5448
2026-01-28 00:38:00.79	301.18	46.17	-43.0	-47.7	10.9	5.45e-04	0	62	0	534773760	56	6574
2026-01-28 00:38:04.83	298.90	46.22	-42.4	-46.4	12.2	1.04e-03	0	62	0	542113792	56	5672
2026-01-28 00:38:08.87	296.62	46.23	-42.3	-46.0	12.5	9.68e-05	0	62	0	549453824	56	5422
2026-01-28 00:38:12.91	294.34	46.19	-41.9	-45.5	12.6	2.17e-04	0	62	0	556793856	55	5414
2026-01-28 00:38:16.95	292.07	46.09	-41.5	-44.8	13.5	2.20e-06	0	61	0	565182464	53	5648
2026-01-28 00:38:20.99	289.81	45.95	-42.1	-45.7	12.6	2.19e-04	0	62	0	572522496	55	5560
2026-01-28 00:38:25.03	287.58	45.76	-41.9	-45.5	12.9	3.96e-05	0	62	0	579862528	55	5439
2026-01-28 00:38:29.07	285.38	45.53	-42.6	-46.8	11.6	8.67e-04	0	61	0	587202560	56	5977
2026-01-28 00:38:33.11	283.21	45.25	-41.8	-45.2	13.2	1.60e-05	0	62	0	594542592	55	5265
2026-01-28 00:38:37.15	281.09	44.92	-41.6	-44.8	13.6	8.30e-06	0	62	0	602931200	54	5322
2026-01-28 00:38:41.19	279.01	44.56	-42.1	-45.9	12.3	2.34e-04	0	62	0	610271232	54	6033
2026-01-28 00:38:45.24	276.97	44.16	-41.9	-46.8	11.3	1.41e-02	0	62	0	617611264	54	6668
2026-01-28 00:38:49.27	275.00	43.72	-41.3	-45.9	12.1	1.35e-02	0	62	0	624951296	54	6025
2026-01-28 00:38:53.31	273.07	43.26	-41.2	-44.3	14.1	2.20e-06	0	62	0	633339904	53	5303
2026-01-28 00:38:57.35	271.21	42.76	-41.6	-44.9	13.3	4.88e-05	0	62	0	640679936	55	5092
2026-01-28 00:39:01.39	269.40	42.24	-41.1	-44.1	14.2	7.00e-07	0	62	0	648019968	53	5200
2026-01-28 00:39:05.43	267.65	41.69	-40.4	-42.9	15.5	0.00e+00	0	62	0	655360000	52	4789
2026-01-28 00:39:09.47	265.96	41.13	-39.2	-41.3	17.1	0.00e+00	0	62	0	663748608	50	4455
2026-01-28 00:39:13.51	264.33	40.54	-40.0	-42.4	16.0	7.00e-07	0	62	0	671088640	50	5095
2026-01-28 00:39:17.55	262.76	39.94	-40.1	-42.6	15.6	2.61e-04	0	62	0	678428672	50	5192
2026-01-28 00:39:21.60	261.25	39.33	-41.5	-44.8	13.5	7.00e-07	0	62	0	685768704	53	5656
2026-01-28 00:39:25.64	259.79	38.70	-40.9	-43.7	14.6	0.00e+00	0	62	0	693108736	52	5276
2026-01-28 00:39:29.68	258.39	38.07	-41.1	-44.1	14.1	0.00e+00	0	62	0	701497344	52	5526
2026-01-28 00:39:33.71	257.04	37.43	-40.7	-43.4	14.9	0.00e+00	0	62	0	708837376	53	4779
2026-01-28 00:39:37.76	255.75	36.78	-40.5	-43.1	15.2	0.00e+00	0	62	0	716177408	53	4629
2026-01-28 00:39:41.80	254.50	36.13	-41.2	-44.2	14.0	1.50e-06	0	62	0	723517440	53	5269
2026-01-28 00:39:45.84	253.31	35.48	-42.3	-46.3	11.9	5.53e-04	0	62	0	731906048	55	5954
2026-01-28 00:39:49.88	252.16	34.83	-42.1	-45.8	12.5	2.36e-05	0	62	0	739246080	55	5623
2026-01-28 00:39:53.92	251.05	34.18	-42.9	-47.4	11.0	5.13e-04	0	62	0	746586112	56	6383
2026-01-28 00:39:57.96	250.00	33.54	-42.9	-47.6	10.7	4.16e-03	0	62	0	753926144	57	6175
2026-01-28 00:40:02.00	248.98	32.89	-43.7	-49.8	8.5	4.98e-02	0	62	0	761266176	58	7497
2026-01-28 00:40:06.04	248.00	32.25	-43.3	-48.6	9.7	1.54e-02	0	62	0	769654784	58	6554
2026-01-28 00:40:10.08	247.06	31.61	-42.8	-47.2	11.1	9.47e-04	0	62	0	776994816	57	5889
2026-01-28 00:40:14.12	246.15	30.98	-42.4	-46.4	11.8	9.59e-04	0	62	0	784334848	56	5700
2026-01-28 00:40:18.16	245.28	30.36	-42.1	-46.1	12.2	9.46e-05	0	62	0	791674880	55	5829
2026-01-28 00:40:22.20	244.45	29.74	-42.2	-46.2	12.0	4.01e-04	0	62	0	799014912	55	5857
2026-01-28 00:40:26.24	243.64	29.12	-42.3	-46.4	11.9	1.50e-04	0	62	0	807403520	55	6003
2026-01-28 00:40:30.28	242.87	28.52	-42.4	-46.7	11.5	8.73e-04	0	62	0	814743552	55	6223
2026-01-28 00:40:34.31	242.12	27.92	-42.2	-46.2	12.0	3.07e-04	0	62	0	822083584	55	5891
2026-01-28 00:40:38.35	241.41	27.33	-41.9	-45.6	12.6	1.17e-04	0	62	0	829423616	55	5478
2026-01-28 00:40:42.39	240.71	26.75	-41.5	-44.9	13.3	3.12e-05	0	62	0	837812224	55	5058
2026-01-28 00:40:46.43	240.05	26.17	-41.8	-45.5	12.7	5.72e-05	0	62	0	845152256	54	5758
2026-01-28 00:40:50.47	239.40	25.60	-42.1	-46.0	12.2	1.72e-04	0	62	0	852492288	55	5745
2026-01-28 00:40:54.51	238.78	25.04	-41.1	-44.2	14.0	0.00e+00	0	62	0	859832320	53	5251
2026-01-28 00:40:58.55	238.19	24.49	-41.6	-45.1	13.1	1.60e-05	0	62	0	867172352	53	5804
2026-01-28 00:41:02.58	237.61	23.95	-41.9	-45.7	12.5	1.37e-04	0	62	0	875560960	54	5883
2026-01-28 00:41:06.62	237.05	23.42	-42.1	-46.0	12.1	2.95e-04	0	62	0	882900992	55	5783
2026-01-28 00:41:10.66	236.51	22.89	-42.5	-47.0	11.0	2.82e-03	0	62	0	890241024	55	6472
2026-01-28 00:41:14.70	235.99	22.37	-41.8	-45.5	12.6	9.38e-05	0	62	0	897581056	55	5424
2026-01-28 00:41:18.74	235.49	21.86	-41.4	-44.6	13.5	1.06e-05	0	62	0	905969664	54	5214
2026-01-28 00:41:22.78	235.00	21.35	-41.1	-44.1	14.0	4.50e-06	0	62	0	913309696	54	4920
2026-01-28 00:41:26.82	234.53	20.86	-41.3	-44.7	13.4	9.10e-06	0	62	0	920649728	54	5242
2026-01-28 00:41:30.86	234.07	20.37	-41.6	-45.2	12.9	2.74e-05	0	62	0	927989760	54	5547
2026-01-28 00:41:34.90	233.63	19.89	-41.4	-44.7	13.4	1.67e-05	0	62	0	935329792	54	5255
2026-01-28 00:41:38.94	233.20	19.42	-41.2	-44.5	13.6	8.30e-06	0	62	0	943718400	54	5109
2026-01-28 00:41:42.98	232.79	18.95	-41.8	-45.6	12.4	1.19e-04	0	62	0	951058432	54	5813
2026-01-28 00:41:47.02	232.38	18.49	-42.1	-46.2	11.8	3.44e-04	0	62	0	958398464	54	6215
2026-01-28 00:41:51.06	231.99	18.04	-42.1	-46.3	11.6	6.64e-04	0	62	0	965738496	55	5973
2026-01-28 00:41:55.11	231.61	17.59	-42.1	-46.4	11.6	7.12e-04	0	62	0	974127104	55	5994
2026-01-28 00:41:59.15	231.25	17.16	-41.7	-45.4	12.6	1.24e-04	0	62	0	981467136	55	5361
2026-01-28 00:42:03.19	230.89	16.72	-41.3	-44.7	13.2	2.59e-05	0	62	0	988807168	54	5273
2026-01-28 00:42:07.23	230.54	16.30	-41.5	-45.1	12.9	3.66e-05	0	62	0	996147200	54	5476
2026-01-28 00:42:11.27	230.21	15.88	-41.7	-45.5	12.5	1.49e-04	0	62	0	1003487232	54	5725
2026-01-28 00:42:15.31	229.88	15.47	-41.6	-45.4	12.5	1.30e-04	0	62	0	1011875840	54	5695
2026-01-28 00:42:19.35	229.56	15.06	-41.5	-45.2	12.7	5.87e-05	0	62	0	1019215872	54	5532
2026-01-28 00:42:23.39	229.25	14.66	-41.7	-45.5	12.3	1.65e-04	0	62	0	1026555904	54	5778
2026-01-28 00:42:27.43	228.95	14.26	-42.2	-46.7	11.1	1.35e-03	0	62	0	1033895936	54	6586
2026-01-28 00:42:31.47	228.66	13.87	-42.5	-47.4	10.4	3.80e-03	0	62	0	1042284544	55	6770
2026-01-28 00:42:35.52	228.37	13.49	-42.4	-47.4	10.4	4.37e-03	0	62	0	1049624576	55	6731
2026-01-28 00:42:39.56	228.10	13.11	-42.2	-46.8	10.7	3.15e-03	0	62	0	1056964608	55	6345
2026-01-28 00:42:43.60	227.82	12.73	-42.2	-46.7	11.0	1.91e-03	0	62	0	1064304640	55	6253
2026-01-28 00:42:47.64	227.56	12.36	-42.2	-46.7	10.9	1.69e-03	0	62	0	1072693248	55	6263
2026-01-28 00:42:51.68	227.31	12.00	-42.1	-46.6	11.0	1.92e-03	0	62	0	1080033280	55	6188
2026-01-28 00:42:55.71	227.06	11.64	-42.1	-46.7	11.0	1.65e-03	0	62	0	1087373312	55	6213
2026-01-28 00:42:59.75	226.81	11.29	-42.1	-46.7	10.9	2.13e-03	0	62	0	1094713344	55	6225
2026-01-28 00:43:03.79	226.57	10.93	-42.1	-46.7	10.9	2.14e-03	0	62	0	1102053376	55	6236
2026-01-28 00:43:07.83	226.34	10.59	-42.0	-46.5	11.1	1.92e-03	0	62	0	1110441984	55	6103
2026-01-28 00:43:11.87	226.12	10.25	-42.1	-46.6	10.9	2.28e-03	0	62	0	1117782016	55	6164
2026-01-28 00:43:15.91	225.89	9.91	-42.2	-46.9	10.6	2.77e-03	0	62	0	1125122048	55	6358
2026-01-28 00:43:19.95	225.68	9.58	-42.2	-46.9	10.6	3.71e-03	0	62	0	1132462080	55	6376
2026-01-28 00:43:23.99	225.47	9.25	-42.2	-47.1	10.3	4.12e-03	0	62	0	1140850688	55	6524
2026-01-28 00:43:28.03	225.26	8.92	-42.3	-47.3	10.1	6.34e-03	0	62	0	1148190720	55	6668
2026-01-28 00:43:32.07	225.06	8.60	-42.4	-47.6	9.8	1.01e-02	0	62	0	1155530752	55	6893
2026-01-28 00:43:36.11	224.86	8.28	-42.4	-47.9	9.4	1.37e-02	0	62	0	1162870784	55	7153
2026-01-28 00:43:40.15	224.67	7.97	-44.5	-59.1	3.8	8.49e-01	0	62	104	1170210816	59	20658
2026-01-28 00:43:44.19	224.48	7.66	-45.1	-59.9	3.8	1.49e+00	0	62	104	1170210816	60	21355
2026-01-28 00:43:48.24	224.30	7.35	-45.3	-60.0	3.8	1.49e+00	0	62	104	1170210816	61	20517
2026-01-28 00:43:52.28	224.12	7.05	-45.2	-60.0	3.8	1.49e+00	0	62	104	1170210816	61	20348
2026-01-28 00:43:56.32	223.94	6.75	-45.1	-59.9	3.8	1.49e+00	0	62	104	1170210816	61	20176
2026-01-28 00:44:00.36	223.77	6.45	-45.1	-59.9	3.8	1.49e+00	0	62	104	1170210816	61	20108
2026-01-28 00:44:04.40	223.60	6.16	-45.1	-59.9	3.8	1.49e+00	0	62	104	1170210816	61	20096
2026-01-28 00:44:08.44	223.44	5.87	-45.1	-59.8	3.8	1.49e+00	0	62	104	1170210816	61	20053
2026-01-28 00:44:12.48	223.28	5.58	-45.1	-59.8	3.8	1.49e+00	0	62	104	1170210816	61	20029
2026-01-28 00:44:16.52	223.12	5.29	-45.1	-59.8	3.8	1.49e+00	0	62	104	1170210816	61	20053
2026-01-28 00:44:20.56	222.97	5.01	-45.1	-59.9	3.8	1.49e+00	0	62	104	1170210816	61	20093
2026-01-28 00:44:24.61	222.81	4.73	-45.1	-59.8	3.8	1.49e+00	0	62	104	1170210816	61	20026
2026-01-28 00:44:28.65	222.66	4.45	-45.1	-59.9	3.8	1.49e+00	0	62	104	1170210816	61	20102
2026-01-28 00:44:32.69	222.52	4.18	-45.1	-59.8	3.8	1.49e+00	0	62	104	1170210816	61	19979
2026-01-28 00:44:36.73	222.38	3.91	-45.1	-59.8	3.8	1.49e+00	0	62	104	1170210816	61	20011
2026-01-28 00:44:40.77	222.24	3.64	-45.0	-59.8	3.8	1.49e+00	0	62	104	1170210816	61	19929
2026-01-28 00:44:44.81	222.10	3.37	-45.0	-59.8	3.8	1.49e+00	0	62	104	1170210816	61	19902
2026-01-28 00:44:48.86	221.96	3.11	-45.0	-59.8	3.8	1.49e+00	0	62	104	1170210816	61	19967
2026-01-28 00:44:52.90	221.83	2.85	-45.0	-59.8	3.8	1.49e+00	0	62	104	1170210816	61	19921
2026-01-28 00:44:56.94	221.70	2.59	-45.0	-59.8	3.8	1.49e+00	0	62	104	1170210816	61	19950
2026-01-28 00:45:00.98	221.57	2.33	-45.0	-59.8	3.8	1.49e+00	0	62	104	1170210816	61	19920
2026-01-28 00:45:05.02	221.45	2.08	-45.0	-59.8	3.8	1.49e+00	0	62	104	1170210816	61	19961

#Closed at: 2026-01-28 00:45:08
#Recorded file [1170 MB]: D:/lorett/data/31039_260128_033108.dat