passes_logs/2026/01/28/R2.0S_Moscow/R2.0S_Moscow__20260128_234228_NOAA_21_JPSS-2_rec.log

#Pass ID: 20260128_234228_NOAA 21 (JPSS-2)
#Satellite: NOAA 21 (JPSS-2)
#Configuration: NOAA-21
#almurnet v.1.7.20251203
#Start time: 2026-01-28 23:42:28

#Version: 2.2.20231116
#Station: R2.0S_Moscow
#Location: 37.707566 lon 55.798166 lat
#TLE: 1 54234U 22150A   26027.77052245  .00000166  00000+0  99439-4 0  9997
#TLE: 2 54234  98.7510 328.5165 0000872 203.6403 156.4733 14.19540252166628

#Time	Az	El	Level	Level2	SNR	BER	BlckErr	Temp	State	Recorded	gain1	gain2
2026-01-28 23:42:28.01	15.97	1.98	-42.5	-54.9	3.8	1.49e+00	0	49	0	0	57	14269
2026-01-28 23:42:32.04	15.98	2.24	-42.5	-54.9	3.8	1.49e+00	0	49	104	0	56	15137
2026-01-28 23:42:36.09	15.99	2.50	-42.5	-54.9	3.8	1.49e+00	0	50	104	0	56	15147
2026-01-28 23:42:40.13	16.00	2.76	-42.5	-54.9	3.8	1.49e+00	0	50	104	0	56	15089
2026-01-28 23:42:44.17	16.01	3.03	-42.5	-54.9	3.8	1.49e+00	0	50	104	0	56	15081
2026-01-28 23:42:48.21	16.02	3.29	-42.5	-54.9	3.8	1.49e+00	0	51	104	0	56	15092
2026-01-28 23:42:52.25	16.03	3.57	-42.5	-54.9	3.8	1.49e+00	0	51	104	0	56	15092
2026-01-28 23:42:56.30	16.03	3.84	-42.5	-54.9	3.8	1.49e+00	0	51	104	0	56	15052
2026-01-28 23:43:00.34	16.04	4.12	-42.5	-54.9	3.8	1.49e+00	0	51	104	0	56	15096
2026-01-28 23:43:04.38	16.05	4.39	-42.5	-54.9	3.8	1.49e+00	0	52	104	0	56	15093
2026-01-28 23:43:08.42	16.06	4.68	-42.5	-54.9	3.8	1.49e+00	0	52	104	0	56	15088
2026-01-28 23:43:12.46	16.06	4.96	-42.5	-54.9	3.8	1.49e+00	0	52	104	0	56	15067
2026-01-28 23:43:16.50	16.07	5.25	-42.5	-54.8	3.8	1.49e+00	0	53	104	0	56	15025
2026-01-28 23:43:20.54	16.08	5.54	-42.5	-54.8	3.8	1.49e+00	0	53	104	0	56	15014
2026-01-28 23:43:24.59	16.08	5.84	-42.5	-54.8	3.8	1.49e+00	0	53	104	0	56	15042
2026-01-28 23:43:28.63	16.09	6.14	-42.5	-54.9	3.8	1.49e+00	0	53	104	0	56	15086
2026-01-28 23:43:32.67	16.10	6.44	-42.4	-54.6	3.8	1.49e+00	0	53	104	0	56	14619
2026-01-28 23:43:36.71	16.10	6.74	-42.4	-54.0	3.8	1.49e+00	0	53	104	0	56	13683
2026-01-28 23:43:40.75	16.11	7.05	-42.1	-51.8	3.9	1.45e+00	0	54	104	0	56	10644
2026-01-28 23:43:44.79	16.11	7.36	-40.9	-46.4	7.0	2.11e-01	0	54	0	5242880	53	6747
2026-01-28 23:43:48.83	16.12	7.68	-39.4	-42.8	10.8	2.62e-03	0	54	0	17825792	50	5287
2026-01-28 23:43:52.88	16.12	8.00	-40.2	-44.4	9.1	1.42e-02	0	54	0	30408704	50	6381
2026-01-28 23:43:56.92	16.13	8.32	-41.7	-47.6	6.6	2.65e-01	0	54	0	40894464	53	7744
2026-01-28 23:44:00.96	16.13	8.65	-39.8	-42.8	11.7	5.80e-04	0	54	0	53477376	51	4994
2026-01-28 23:44:05.00	16.14	8.99	-39.9	-42.8	11.9	3.26e-04	0	55	0	66060288	51	5013
2026-01-28 23:44:09.04	16.14	9.32	-39.7	-42.4	12.4	1.30e-04	0	55	0	78643200	51	4802
2026-01-28 23:44:13.08	16.14	9.67	-39.7	-42.3	12.7	9.84e-05	0	55	0	91226112	51	4737
2026-01-28 23:44:17.12	16.15	10.01	-39.7	-42.3	12.8	6.71e-05	0	55	0	103809024	51	4725
2026-01-28 23:44:21.16	16.15	10.37	-39.8	-42.4	12.7	1.04e-04	0	55	0	116391936	51	4784
2026-01-28 23:44:25.20	16.15	10.72	-39.8	-42.4	12.8	4.50e-05	0	55	0	128974848	51	4797
2026-01-28 23:44:29.24	16.15	11.09	-39.7	-42.2	13.0	4.95e-05	0	55	0	141557760	51	4680
2026-01-28 23:44:33.29	16.15	11.45	-39.7	-42.2	13.1	3.12e-05	0	55	0	154140672	51	4671
2026-01-28 23:44:37.33	16.15	11.83	-39.5	-41.9	13.4	1.83e-05	0	56	0	166723584	51	4530
2026-01-28 23:44:41.37	16.16	12.21	-39.5	-41.9	13.5	6.80e-06	0	56	0	179306496	50	4763
2026-01-28 23:44:45.42	16.16	12.59	-39.6	-42.0	13.4	2.28e-05	0	56	0	192937984	50	4851
2026-01-28 23:44:49.46	16.16	12.98	-39.5	-41.9	13.5	8.30e-06	0	56	0	205520896	50	4807
2026-01-28 23:44:53.50	16.15	13.38	-39.5	-41.9	13.6	1.14e-05	0	56	0	217055232	50	4764
2026-01-28 23:44:57.54	16.15	13.79	-39.6	-42.0	13.5	1.14e-05	0	56	0	230686720	50	4817
2026-01-28 23:45:01.59	16.15	14.20	-39.6	-41.9	13.7	4.50e-06	0	56	0	243269632	50	4777
2026-01-28 23:45:05.63	16.15	14.62	-39.4	-41.7	13.9	3.00e-06	0	56	0	255852544	50	4680
2026-01-28 23:45:09.67	16.15	15.04	-39.4	-41.6	14.0	5.30e-06	0	56	0	268435456	50	4633
2026-01-28 23:45:13.72	16.14	15.48	-39.5	-41.7	13.9	1.50e-06	0	56	0	281018368	50	4698
2026-01-28 23:45:17.76	16.14	15.92	-39.4	-41.7	13.9	3.80e-06	0	56	0	293601280	50	4686
2026-01-28 23:45:21.80	16.14	16.37	-39.5	-41.8	13.9	4.50e-06	0	56	0	306184192	50	4722
2026-01-28 23:45:25.85	16.13	16.83	-39.5	-41.7	13.9	7.60e-06	0	56	0	318767104	50	4699
2026-01-28 23:45:29.89	16.13	17.30	-39.6	-41.8	13.9	3.00e-06	0	57	0	331350016	50	4742
2026-01-28 23:45:33.93	16.12	17.77	-39.4	-41.6	14.2	1.50e-06	0	57	0	343932928	50	4635
2026-01-28 23:45:37.97	16.11	18.26	-39.5	-41.7	14.1	1.50e-06	0	57	0	356515840	50	4673
2026-01-28 23:45:42.02	16.10	18.75	-39.5	-41.6	14.2	7.00e-07	0	57	0	369098752	50	4641
2026-01-28 23:45:46.05	16.09	19.26	-39.4	-41.6	14.2	7.00e-07	0	57	0	381681664	50	4629
2026-01-28 23:45:50.09	16.09	19.77	-39.3	-41.4	14.4	1.50e-06	0	57	0	394264576	50	4536
2026-01-28 23:45:54.14	16.07	20.30	-39.2	-41.2	14.6	0.00e+00	0	57	0	406847488	50	4441
2026-01-28 23:45:58.18	16.06	20.84	-39.0	-41.0	14.9	0.00e+00	0	57	0	419430400	50	4316
2026-01-28 23:46:02.22	16.05	21.39	-38.8	-40.7	15.2	0.00e+00	0	57	0	432013312	49	4421
2026-01-28 23:46:06.26	16.04	21.95	-38.5	-40.3	15.6	0.00e+00	0	57	0	444596224	49	4216
2026-01-28 23:46:10.30	16.02	22.53	-38.4	-40.2	15.8	0.00e+00	0	57	0	457179136	48	4411
2026-01-28 23:46:14.34	16.01	23.12	-38.2	-39.9	16.1	0.00e+00	0	57	0	469762048	48	4249
2026-01-28 23:46:18.38	15.99	23.72	-38.3	-40.0	16.0	0.00e+00	0	57	0	483393536	48	4318
2026-01-28 23:46:22.42	15.97	24.34	-38.3	-40.1	15.9	0.00e+00	0	57	0	495976448	48	4358
2026-01-28 23:46:26.46	15.95	24.97	-38.4	-40.1	15.8	0.00e+00	0	57	0	508559360	48	4384
2026-01-28 23:46:30.50	15.93	25.61	-38.5	-40.3	15.7	0.00e+00	0	57	0	521142272	48	4453
2026-01-28 23:46:34.54	15.91	26.28	-38.7	-40.6	15.4	0.00e+00	0	57	0	533725184	48	4614
2026-01-28 23:46:38.57	15.89	26.96	-39.1	-41.0	15.0	0.00e+00	0	58	0	546308096	48	4844
2026-01-28 23:46:42.61	15.86	27.65	-39.4	-41.5	14.5	7.00e-07	0	57	0	558891008	49	4858
2026-01-28 23:46:46.66	15.83	28.37	-39.6	-41.7	14.4	0.00e+00	0	57	0	571473920	49	4941
2026-01-28 23:46:50.70	15.80	29.11	-39.6	-41.7	14.3	1.50e-06	0	57	0	584056832	49	4973
2026-01-28 23:46:54.74	15.77	29.86	-39.4	-41.5	14.6	0.00e+00	0	57	0	596639744	50	4559
2026-01-28 23:46:58.78	15.74	30.64	-39.1	-41.0	15.1	0.00e+00	0	58	0	609222656	50	4315
2026-01-28 23:47:02.82	15.70	31.43	-38.7	-40.5	15.6	0.00e+00	0	58	0	621805568	49	4307
2026-01-28 23:47:06.86	15.66	32.25	-38.8	-40.7	15.5	0.00e+00	0	57	0	634388480	49	4404
2026-01-28 23:47:10.90	15.62	33.09	-39.3	-41.3	14.8	0.00e+00	0	58	0	646971392	49	4737
2026-01-28 23:47:14.95	15.57	33.96	-39.8	-42.0	14.1	1.50e-06	0	58	0	659554304	50	4845
2026-01-28 23:47:18.99	15.52	34.85	-40.3	-42.7	13.4	6.80e-06	0	58	0	672137216	51	4968
2026-01-28 23:47:23.03	15.47	35.77	-40.8	-43.6	12.5	1.11e-04	0	58	0	684720128	52	5199
2026-01-28 23:47:27.07	15.41	36.72	-40.7	-43.4	12.7	1.14e-04	0	58	0	697303040	52	5052
2026-01-28 23:47:31.11	15.35	37.69	-40.5	-43.0	13.1	1.98e-05	0	58	0	709885952	52	4827
2026-01-28 23:47:35.15	15.29	38.69	-40.3	-42.6	13.5	1.60e-05	0	58	0	722468864	52	4647
2026-01-28 23:47:39.19	15.22	39.72	-40.1	-42.4	13.7	5.30e-06	0	58	0	735051776	52	4534
2026-01-28 23:47:43.24	15.14	40.79	-40.2	-42.5	13.6	4.50e-06	0	58	0	747634688	52	4581
2026-01-28 23:47:47.28	15.06	41.89	-40.6	-43.1	13.0	3.43e-05	0	58	0	760217600	52	4896
2026-01-28 23:47:51.32	14.97	43.02	-41.0	-43.7	12.4	1.24e-04	0	58	0	773849088	52	5249
2026-01-28 23:47:55.37	14.87	44.19	-41.2	-44.0	12.1	2.27e-04	0	58	0	786432000	52	5456
2026-01-28 23:47:59.41	14.77	45.39	-41.4	-44.4	11.7	5.39e-04	0	58	0	799014912	53	5362
2026-01-28 23:48:03.45	14.65	46.63	-41.2	-44.0	12.1	3.10e-04	0	58	0	811597824	53	5134
2026-01-28 23:48:07.50	14.52	47.91	-40.7	-43.3	12.9	6.40e-05	0	58	0	824180736	53	4724
2026-01-28 23:48:11.54	14.38	49.22	-40.2	-42.6	13.6	4.50e-06	0	58	0	836763648	52	4615
2026-01-28 23:48:15.58	14.23	50.58	-40.3	-42.6	13.7	6.80e-06	0	58	0	849346560	51	4897
2026-01-28 23:48:19.62	14.06	51.97	-40.4	-42.8	13.5	2.05e-05	0	58	0	861929472	51	5040
2026-01-28 23:48:23.67	13.87	53.42	-39.6	-41.6	14.7	7.00e-07	0	58	0	874512384	51	4365
2026-01-28 23:48:27.71	13.67	54.90	-39.6	-41.7	14.7	0.00e+00	0	58	0	887095296	51	4398
2026-01-28 23:48:31.75	13.43	56.42	-39.1	-41.0	15.3	0.00e+00	0	58	0	899678208	50	4317
2026-01-28 23:48:35.79	13.17	57.98	-39.2	-41.1	15.2	0.00e+00	0	58	0	912261120	50	4343
2026-01-28 23:48:39.83	12.87	59.59	-38.7	-40.4	15.8	0.00e+00	0	58	0	924844032	49	4280
2026-01-28 23:48:43.88	12.53	61.25	-38.7	-40.5	15.8	0.00e+00	0	58	0	937426944	48	4566
2026-01-28 23:48:47.92	12.14	62.94	-38.0	-39.6	16.6	0.00e+00	0	58	0	950009856	48	4141
2026-01-28 23:48:51.96	11.69	64.67	-38.0	-39.6	16.6	0.00e+00	0	58	0	962592768	47	4365
2026-01-28 23:48:56.00	11.16	66.44	-37.6	-39.1	17.0	0.00e+00	0	58	0	975175680	46	4378
2026-01-28 23:49:00.04	10.53	68.25	-37.6	-39.1	17.0	0.00e+00	0	58	0	987758592	46	4363
2026-01-28 23:49:04.08	9.77	70.09	-37.8	-39.4	16.8	0.00e+00	0	58	0	1000341504	46	4496
2026-01-28 23:49:08.12	8.84	71.97	-37.5	-39.0	17.1	0.00e+00	0	58	0	1012924416	46	4340
2026-01-28 23:49:12.16	7.67	73.87	-37.7	-39.3	16.8	0.00e+00	0	58	0	1025507328	46	4449
2026-01-28 23:49:16.20	6.17	75.80	-37.6	-39.2	16.9	0.00e+00	0	58	0	1038090240	46	4418
2026-01-28 23:49:20.24	4.17	77.74	-37.7	-39.3	16.6	0.00e+00	0	58	0	1050673152	46	4486
2026-01-28 23:49:24.28	1.39	79.68	-37.9	-39.5	16.5	0.00e+00	0	58	0	1064304640	46	4595
2026-01-28 23:49:28.33	357.27	81.61	-38.0	-39.7	16.3	0.00e+00	0	58	0	1076887552	47	4436
2026-01-28 23:49:32.37	350.72	83.49	-38.1	-39.9	16.2	0.00e+00	0	58	0	1089470464	47	4502
2026-01-28 23:49:36.40	339.13	85.22	-38.8	-40.7	15.4	0.00e+00	0	58	0	1102053376	48	4675
2026-01-28 23:49:40.44	316.62	86.57	-38.1	-39.8	16.4	0.00e+00	0	58	0	1114636288	48	4202
2026-01-28 23:49:44.48	279.78	86.94	-37.9	-39.5	16.5	0.00e+00	0	58	0	1127219200	47	4330
2026-01-28 23:49:48.52	248.35	86.05	-38.0	-39.7	16.3	0.00e+00	0	58	0	1139802112	47	4430
2026-01-28 23:49:52.57	231.55	84.48	-37.7	-39.3	16.7	0.00e+00	0	58	0	1152385024	47	4228
2026-01-28 23:49:56.61	222.65	82.67	-38.0	-39.7	16.3	0.00e+00	0	58	0	1164967936	46	4681
2026-01-28 23:50:00.65	217.38	80.76	-37.8	-39.5	16.6	0.00e+00	0	58	0	1177550848	47	4302
2026-01-28 23:50:04.69	213.95	78.82	-37.7	-39.3	16.8	0.00e+00	0	58	0	1190133760	47	4201
2026-01-28 23:50:08.73	211.56	76.87	-37.8	-39.4	16.7	0.00e+00	0	58	0	1202716672	47	4256
2026-01-28 23:50:12.77	209.81	74.94	-38.5	-40.3	15.8	0.00e+00	0	59	0	1215299584	47	4720
2026-01-28 23:50:16.81	208.47	73.02	-39.4	-41.4	14.8	0.00e+00	0	58	0	1227882496	49	4803
2026-01-28 23:50:20.85	207.41	71.12	-36.9	-38.3	17.7	0.00e+00	0	58	0	1240465408	45	4229
2026-01-28 23:50:24.90	206.56	69.25	-37.9	-39.5	16.5	0.00e+00	0	58	0	1253048320	46	4575
2026-01-28 23:50:28.94	205.86	67.42	-36.8	-38.1	17.8	0.00e+00	0	58	0	1265631232	45	4144
2026-01-28 23:50:32.97	205.28	65.62	-38.3	-40.1	16.0	0.00e+00	0	58	0	1278214144	47	4609
2026-01-28 23:50:37.01	204.79	63.86	-37.5	-39.0	17.0	0.00e+00	0	58	0	1290797056	46	4323
2026-01-28 23:50:41.05	204.36	62.14	-39.4	-41.4	14.7	0.00e+00	0	59	0	1303379968	49	4803
2026-01-28 23:50:45.09	203.99	60.47	-37.6	-39.1	17.0	0.00e+00	0	58	0	1315962880	47	4129
2026-01-28 23:50:49.13	203.67	58.83	-39.3	-41.3	15.0	0.00e+00	0	58	0	1328545792	49	4712
2026-01-28 23:50:53.17	203.39	57.23	-38.4	-40.1	16.1	0.00e+00	0	58	0	1342177280	48	4370
2026-01-28 23:50:57.21	203.14	55.68	-39.9	-42.2	14.1	2.20e-06	0	59	0	1354760192	50	4945
2026-01-28 23:51:01.25	202.92	54.17	-40.7	-43.4	12.8	1.02e-04	0	58	0	1367343104	52	5097
2026-01-28 23:51:05.29	202.72	52.71	-39.1	-41.0	15.2	0.00e+00	0	58	0	1379926016	49	4598
2026-01-28 23:51:09.33	202.54	51.28	-40.9	-43.7	12.4	1.05e-04	0	58	0	1392508928	52	5231
2026-01-28 23:51:13.37	202.37	49.90	-41.0	-43.8	12.3	1.60e-04	0	58	0	1405091840	52	5311
2026-01-28 23:51:17.42	202.23	48.55	-40.3	-42.7	13.4	1.06e-05	0	59	0	1417674752	52	4662
2026-01-28 23:51:21.46	202.09	47.25	-41.1	-43.9	12.1	1.50e-04	0	58	0	1430257664	52	5399
2026-01-28 23:51:25.50	201.97	45.98	-41.3	-44.4	11.8	5.11e-04	0	58	0	1442840576	53	5344
2026-01-28 23:51:29.54	201.86	44.76	-41.7	-45.0	11.1	1.42e-03	0	59	0	1455423488	53	5755
2026-01-28 23:51:33.59	201.75	43.56	-40.9	-43.6	12.5	1.93e-04	0	58	0	1468006400	53	4887
2026-01-28 23:51:37.63	201.66	42.41	-40.0	-42.2	14.0	4.50e-06	0	58	0	1480589312	51	4703
2026-01-28 23:51:41.68	201.57	41.29	-41.2	-44.2	12.0	1.85e-04	0	59	0	1493172224	52	5531
2026-01-28 23:51:45.72	201.49	40.20	-41.4	-44.5	11.6	9.95e-04	0	59	0	1505755136	53	5418
2026-01-28 23:51:49.75	201.41	39.15	-40.6	-43.2	12.9	5.41e-05	0	59	0	1518338048	53	4660
2026-01-28 23:51:53.80	201.34	38.12	-40.5	-43.1	13.0	3.96e-05	0	59	0	1530920960	53	4619
2026-01-28 23:51:57.84	201.28	37.13	-40.2	-42.6	13.5	1.83e-05	0	59	0	1543503872	52	4642
2026-01-28 23:52:01.89	201.22	36.16	-39.9	-42.2	14.0	1.50e-06	0	59	0	1556086784	51	4653
2026-01-28 23:52:05.92	201.16	35.23	-39.9	-42.1	14.0	3.00e-06	0	59	0	1568669696	51	4638
2026-01-28 23:52:09.96	201.11	34.32	-39.5	-41.5	14.6	0.00e+00	0	59	0	1581252608	50	4591
2026-01-28 23:52:14.01	201.06	33.43	-39.2	-41.1	15.0	0.00e+00	0	59	0	1593835520	50	4386
2026-01-28 23:52:18.05	201.01	32.58	-39.1	-41.1	15.0	7.00e-07	0	59	0	1607467008	50	4368
2026-01-28 23:52:22.09	200.97	31.74	-39.2	-41.2	14.9	0.00e+00	0	59	0	1619001344	50	4429
2026-01-28 23:52:26.13	200.93	30.93	-39.4	-41.5	14.6	1.50e-06	0	59	0	1632632832	50	4580
2026-01-28 23:52:30.17	200.89	30.14	-39.6	-41.8	14.4	1.50e-06	0	58	0	1645215744	50	4728
2026-01-28 23:52:34.21	200.86	29.37	-39.5	-41.6	14.5	1.50e-06	0	59	0	1657798656	50	4630
2026-01-28 23:52:38.25	200.82	28.62	-39.2	-41.2	14.8	7.00e-07	0	59	0	1670381568	50	4437
2026-01-28 23:52:42.30	200.79	27.89	-39.2	-41.2	14.9	0.00e+00	0	59	0	1682964480	50	4412
2026-01-28 23:52:46.34	200.76	27.18	-38.9	-40.8	15.2	0.00e+00	0	59	0	1695547392	49	4470
2026-01-28 23:52:50.39	200.74	26.49	-38.8	-40.7	15.3	0.00e+00	0	59	0	1708130304	49	4400
2026-01-28 23:52:54.43	200.71	25.81	-38.5	-40.4	15.7	0.00e+00	0	59	0	1720713216	48	4494
2026-01-28 23:52:58.47	200.69	25.15	-38.5	-40.3	15.7	0.00e+00	0	59	0	1733296128	48	4467
2026-01-28 23:53:02.51	200.66	24.51	-38.4	-40.2	15.9	0.00e+00	0	59	0	1745879040	48	4393
2026-01-28 23:53:06.55	200.64	23.88	-38.3	-40.0	15.9	0.00e+00	0	59	0	1758461952	48	4338
2026-01-28 23:53:10.59	200.62	23.27	-38.4	-40.2	15.7	0.00e+00	0	58	0	1771044864	48	4421
2026-01-28 23:53:14.63	200.60	22.67	-38.4	-40.1	15.8	0.00e+00	0	59	0	1783627776	48	4388
2026-01-28 23:53:18.67	200.59	22.09	-38.4	-40.1	15.8	0.00e+00	0	59	0	1796210688	48	4380
2026-01-28 23:53:22.71	200.57	21.52	-38.3	-40.1	15.8	0.00e+00	0	59	0	1808793600	48	4363
2026-01-28 23:53:26.75	200.55	20.96	-38.3	-40.1	15.8	0.00e+00	0	59	0	1821376512	48	4376
2026-01-28 23:53:30.80	200.54	20.41	-38.4	-40.3	15.7	0.00e+00	0	59	0	1833959424	48	4445
2026-01-28 23:53:34.84	200.52	19.88	-38.7	-40.5	15.4	0.00e+00	0	59	0	1846542336	48	4592
2026-01-28 23:53:38.88	200.51	19.35	-38.8	-40.7	15.1	0.00e+00	0	59	0	1859125248	48	4689
2026-01-28 23:53:42.92	200.50	18.84	-38.9	-40.9	15.0	0.00e+00	0	59	0	1871708160	48	4779
2026-01-28 23:53:46.97	200.49	18.34	-39.0	-41.1	14.8	0.00e+00	0	59	0	1884291072	48	4891
2026-01-28 23:53:51.01	200.48	17.85	-39.2	-41.3	14.5	2.20e-06	0	59	0	1897922560	48	5017
2026-01-28 23:53:55.05	200.47	17.36	-39.3	-41.4	14.4	0.00e+00	0	59	0	1910505472	49	4810
2026-01-28 23:53:59.09	200.46	16.89	-39.4	-41.5	14.3	1.50e-06	0	59	0	1923088384	49	4842
2026-01-28 23:54:03.14	200.45	16.43	-39.3	-41.4	14.3	7.00e-07	0	59	0	1935671296	49	4812
2026-01-28 23:54:07.18	200.44	15.97	-39.5	-41.7	14.1	1.50e-06	0	59	0	1948254208	49	4963
2026-01-28 23:54:11.22	200.43	15.52	-39.4	-41.6	14.2	2.20e-06	0	59	0	1960837120	49	4880
2026-01-28 23:54:15.26	200.43	15.08	-39.4	-41.6	14.1	2.20e-06	0	59	0	1973420032	49	4917
2026-01-28 23:54:19.30	200.42	14.65	-39.5	-41.7	14.0	1.50e-06	0	59	0	1986002944	49	4975
2026-01-28 23:54:23.34	200.41	14.23	-39.5	-41.8	13.8	3.80e-06	0	59	0	1998585856	49	5031
2026-01-28 23:54:27.38	200.41	13.81	-39.6	-41.9	13.7	2.20e-06	0	59	0	2011168768	49	5070
2026-01-28 23:54:31.42	200.40	13.40	-39.6	-42.0	13.6	6.80e-06	0	59	0	2023751680	49	5122
2026-01-28 23:54:35.46	200.40	13.00	-39.6	-41.9	13.7	6.10e-06	0	59	0	2036334592	49	5080
2026-01-28 23:54:39.50	200.40	12.60	-39.6	-42.0	13.6	6.80e-06	0	59	0	2048917504	49	5131
2026-01-28 23:54:43.54	200.39	12.21	-39.6	-42.0	13.5	3.00e-06	0	59	0	2061500416	49	5140
2026-01-28 23:54:47.59	200.39	11.83	-39.7	-42.1	13.4	1.60e-05	0	59	0	2074083328	49	5191
2026-01-28 23:54:51.62	200.39	11.45	-39.9	-42.5	13.1	2.67e-05	0	59	0	2086666240	50	5105
2026-01-28 23:54:55.67	200.38	11.08	-39.9	-42.4	13.1	3.20e-05	0	59	0	2099249152	50	5074
2026-01-28 23:54:59.71	200.38	10.71	-39.9	-42.5	13.0	2.28e-05	0	59	0	2111832064	50	5115
2026-01-28 23:55:03.76	200.38	10.35	-40.0	-42.6	12.9	5.03e-05	0	59	0	2124414976	50	5167
2026-01-28 23:55:07.80	200.38	10.00	-40.0	-42.7	12.7	5.49e-05	0	59	0	2136997888	50	5237
2026-01-28 23:55:11.84	200.38	9.65	-40.1	-42.8	12.6	8.62e-05	0	59	0	2149580800	50	5292
2026-01-28 23:55:15.88	200.37	9.30	-40.1	-42.8	12.5	8.16e-05	0	59	0	2162163712	50	5321
2026-01-28 23:55:19.92	200.37	8.96	-40.1	-42.8	12.5	1.33e-04	0	59	0	2174746624	50	5325
2026-01-28 23:55:23.96	200.37	8.62	-40.1	-42.9	12.3	1.30e-04	0	59	0	2188378112	50	5371
2026-01-28 23:55:28.00	200.37	8.29	-40.2	-43.1	12.1	2.59e-04	0	59	0	2200961024	50	5476
2026-01-28 23:55:32.05	200.37	7.96	-44.3	-56.3	3.8	7.64e-01	0	59	104	2212495360	59	14908
2026-01-28 23:55:36.09	200.37	7.64	-45.0	-57.6	3.8	1.49e+00	0	59	104	2212495360	60	16402
2026-01-28 23:55:40.13	200.37	7.32	-45.1	-57.8	3.8	1.49e+00	0	59	104	2212495360	60	16784
2026-01-28 23:55:44.17	200.37	7.00	-45.1	-57.7	3.8	1.49e+00	0	59	104	2212495360	60	16658
2026-01-28 23:55:48.21	200.38	6.69	-45.0	-57.7	3.8	1.49e+00	0	59	104	2212495360	60	16534
2026-01-28 23:55:52.26	200.38	6.38	-45.0	-57.7	3.8	1.49e+00	0	59	104	2212495360	60	16615
2026-01-28 23:55:56.30	200.38	6.08	-45.0	-57.6	3.8	1.49e+00	0	59	104	2212495360	60	16418
2026-01-28 23:56:00.34	200.38	5.78	-45.0	-57.6	3.8	1.49e+00	0	59	104	2212495360	60	16433
2026-01-28 23:56:04.38	200.38	5.48	-45.0	-57.6	3.8	1.49e+00	0	59	104	2212495360	60	16365
2026-01-28 23:56:08.42	200.38	5.19	-44.9	-57.6	3.8	1.49e+00	0	59	104	2212495360	60	16367
2026-01-28 23:56:12.47	200.38	4.90	-44.9	-57.6	3.8	1.49e+00	0	59	104	2212495360	60	16382
2026-01-28 23:56:16.51	200.39	4.61	-44.9	-57.6	3.8	1.49e+00	0	59	104	2212495360	60	16401
2026-01-28 23:56:20.55	200.39	4.32	-44.9	-57.6	3.8	1.49e+00	0	59	104	2212495360	60	16409
2026-01-28 23:56:24.59	200.39	4.04	-44.9	-57.6	3.8	1.49e+00	0	59	104	2212495360	60	16395
2026-01-28 23:56:28.63	200.39	3.76	-44.9	-57.5	3.8	1.49e+00	0	59	104	2212495360	60	16312
2026-01-28 23:56:32.67	200.40	3.49	-44.9	-57.6	3.8	1.49e+00	0	59	104	2212495360	60	16352
2026-01-28 23:56:36.71	200.40	3.22	-44.9	-57.6	3.8	1.49e+00	0	59	104	2212495360	60	16322
2026-01-28 23:56:40.75	200.40	2.95	-44.9	-57.6	3.8	1.49e+00	0	59	104	2212495360	60	16380
2026-01-28 23:56:44.79	200.40	2.68	-44.9	-57.6	3.8	1.49e+00	0	59	104	2212495360	60	16392
2026-01-28 23:56:48.84	200.41	2.41	-44.9	-57.6	3.8	1.49e+00	0	59	104	2212495360	60	16345
2026-01-28 23:56:52.88	200.41	2.15	-44.9	-57.5	3.8	1.49e+00	0	59	104	2212495360	60	16301
2026-01-28 23:56:56.92	200.41	1.89	-44.9	-57.5	3.8	1.49e+00	0	59	104	2212495360	60	16266

#Closed at: 2026-01-28 23:56:57
#Recorded file [2212 MB]: D:/lorett/data/31039_260129_024227.dat