passes_logs/2026/01/28/R2.0S_Moscow/R2.0S_Moscow__20260128_225229_NOAA_20_JPSS-1_rec.log

#Pass ID: 20260128_225229_NOAA 20 (JPSS-1)
#Satellite: NOAA 20 (JPSS-1)
#Configuration: NOAA 20
#almurnet v.1.7.20251203
#Start time: 2026-01-28 22:52:29

#Version: 2.2.20231116
#Station: R2.0S_Moscow
#Location: 37.707566 lon 55.798166 lat
#TLE: 1 43013U 17073A   26027.80586608  .00000156  00000+0  94940-4 0  9998
#TLE: 2 43013  98.7647 328.6108 0000947  21.3465 338.7750 14.19541216424550

#Time	Az	El	Level	Level2	SNR	BER	BlckErr	Temp	State	Recorded	gain1	gain2
2026-01-28 22:52:29.97	20.30	2.03	-42.2	-56.6	3.8	1.49e+00	0	50	0	0	56	18485
2026-01-28 22:52:34.01	20.46	2.28	-42.0	-56.5	3.8	1.49e+00	0	50	104	0	55	19181
2026-01-28 22:52:38.05	20.63	2.53	-42.0	-56.5	3.8	1.49e+00	0	50	104	0	55	19263
2026-01-28 22:52:42.10	20.79	2.78	-42.0	-56.5	3.8	1.49e+00	0	51	104	0	55	19168
2026-01-28 22:52:46.14	20.96	3.04	-42.0	-56.4	3.8	1.49e+00	0	51	104	0	55	19156
2026-01-28 22:52:50.18	21.13	3.29	-42.0	-56.4	3.8	1.49e+00	0	52	104	0	55	19157
2026-01-28 22:52:54.22	21.31	3.55	-42.0	-56.5	3.8	1.49e+00	0	51	104	0	55	19281
2026-01-28 22:52:58.26	21.48	3.81	-42.0	-56.5	3.8	1.49e+00	0	52	104	0	55	19200
2026-01-28 22:53:02.30	21.67	4.07	-42.0	-56.5	3.8	1.49e+00	0	52	104	0	55	19196
2026-01-28 22:53:06.35	21.85	4.34	-42.0	-56.4	3.8	1.49e+00	0	52	104	0	55	19089
2026-01-28 22:53:10.38	22.03	4.61	-42.0	-56.4	3.8	1.49e+00	0	53	104	0	55	19058
2026-01-28 22:53:14.43	22.22	4.88	-42.0	-56.4	3.8	1.49e+00	0	53	104	0	55	19111
2026-01-28 22:53:18.47	22.42	5.15	-42.0	-56.4	3.8	1.49e+00	0	53	104	0	55	19129
2026-01-28 22:53:22.51	22.61	5.43	-42.0	-56.4	3.8	1.49e+00	0	53	104	0	55	19153
2026-01-28 22:53:26.55	22.81	5.70	-42.0	-56.4	3.8	1.49e+00	0	53	104	0	55	19069
2026-01-28 22:53:30.60	23.01	5.99	-42.0	-56.4	3.8	1.49e+00	0	53	104	0	55	19011
2026-01-28 22:53:34.64	23.22	6.27	-42.0	-56.4	3.8	1.49e+00	0	54	104	0	55	19146
2026-01-28 22:53:38.68	23.43	6.55	-42.0	-56.4	3.8	1.49e+00	0	54	104	0	55	19082
2026-01-28 22:53:42.72	23.64	6.84	-42.0	-56.4	3.8	1.49e+00	0	54	104	0	55	19056
2026-01-28 22:53:46.77	23.86	7.14	-42.0	-56.3	3.8	1.49e+00	0	54	104	0	55	18909
2026-01-28 22:53:50.81	24.08	7.43	-41.9	-55.8	3.8	1.49e+00	0	54	104	0	55	17740
2026-01-28 22:53:54.85	24.31	7.73	-41.8	-53.3	3.9	1.48e+00	0	55	104	0	55	13283
2026-01-28 22:53:58.89	24.54	8.03	-41.1	-48.5	6.7	2.62e-01	0	55	0	5242880	54	8132
2026-01-28 22:54:02.93	24.77	8.34	-42.9	-51.3	5.8	5.89e-02	0	55	0	12582912	56	10038
2026-01-28 22:54:06.97	25.01	8.65	-41.5	-47.0	9.4	1.86e-02	0	55	0	19922944	54	6821
2026-01-28 22:54:11.01	25.26	8.96	-41.7	-47.0	9.5	1.46e-02	0	55	0	28311552	54	6858
2026-01-28 22:54:15.05	25.51	9.27	-41.7	-46.9	9.8	1.02e-02	0	55	0	35651584	54	6736
2026-01-28 22:54:19.10	25.76	9.59	-41.8	-46.8	10.1	6.59e-03	0	55	0	42991616	54	6695
2026-01-28 22:54:23.13	26.02	9.91	-41.8	-46.6	10.3	3.81e-03	0	55	0	50331648	54	6568
2026-01-28 22:54:27.17	26.28	10.24	-41.9	-46.9	10.2	4.98e-03	0	55	0	58720256	54	6756
2026-01-28 22:54:31.21	26.55	10.57	-41.8	-46.4	10.9	2.31e-03	0	56	0	66060288	54	6359
2026-01-28 22:54:35.25	26.83	10.90	-41.7	-46.0	11.4	1.10e-03	0	56	0	73400320	54	6117
2026-01-28 22:54:39.30	27.11	11.24	-41.6	-45.7	11.7	5.38e-04	0	56	0	80740352	54	5920
2026-01-28 22:54:43.34	27.40	11.58	-41.4	-45.5	12.0	3.66e-04	0	56	0	89128960	54	5732
2026-01-28 22:54:47.38	27.69	11.93	-41.4	-45.3	12.1	2.97e-04	0	56	0	96468992	54	5656
2026-01-28 22:54:51.42	28.00	12.28	-41.3	-45.2	12.4	1.33e-04	0	56	0	103809024	54	5536
2026-01-28 22:54:55.46	28.30	12.64	-41.4	-45.2	12.4	1.40e-04	0	56	0	111149056	54	5546
2026-01-28 22:54:59.49	28.62	13.00	-41.4	-45.2	12.4	1.21e-04	0	56	0	118489088	54	5560
2026-01-28 22:55:03.53	28.94	13.36	-41.4	-45.2	12.5	1.23e-04	0	56	0	126877696	54	5537
2026-01-28 22:55:07.58	29.27	13.73	-41.4	-45.1	12.6	8.54e-05	0	57	0	134217728	54	5491
2026-01-28 22:55:11.62	29.61	14.11	-41.4	-45.1	12.6	7.09e-05	0	57	0	141557760	54	5468
2026-01-28 22:55:15.65	29.95	14.48	-41.4	-45.1	12.7	6.86e-05	0	57	0	148897792	54	5470
2026-01-28 22:55:19.69	30.31	14.87	-41.4	-45.0	12.8	6.33e-05	0	57	0	157286400	54	5431
2026-01-28 22:55:23.74	30.67	15.26	-41.4	-44.9	12.9	4.80e-05	0	57	0	164626432	54	5385
2026-01-28 22:55:27.78	31.05	15.65	-41.2	-44.7	13.1	3.28e-05	0	57	0	171966464	54	5247
2026-01-28 22:55:31.81	31.43	16.05	-41.1	-44.5	13.4	1.29e-05	0	57	0	179306496	54	5107
2026-01-28 22:55:35.85	31.82	16.46	-41.2	-44.6	13.3	2.21e-05	0	57	0	186646528	54	5178
2026-01-28 22:55:39.89	32.22	16.87	-41.3	-44.7	13.1	3.43e-05	0	57	0	195035136	54	5276
2026-01-28 22:55:43.93	32.64	17.29	-41.5	-45.1	12.8	4.95e-05	0	57	0	202375168	54	5475
2026-01-28 22:55:47.97	33.06	17.71	-41.5	-45.1	12.8	6.25e-05	0	57	0	209715200	54	5500
2026-01-28 22:55:52.01	33.50	18.14	-41.6	-45.3	12.7	8.16e-05	0	57	0	217055232	54	5594
2026-01-28 22:55:56.05	33.95	18.57	-41.6	-45.2	12.7	6.17e-05	0	57	0	225443840	54	5585
2026-01-28 22:56:00.09	34.41	19.01	-41.6	-45.4	12.6	8.01e-05	0	57	0	232783872	54	5660
2026-01-28 22:56:04.13	34.88	19.46	-41.6	-45.3	12.7	6.25e-05	0	57	0	240123904	54	5614
2026-01-28 22:56:08.17	35.37	19.91	-41.5	-45.1	12.9	5.41e-05	0	57	0	247463936	54	5520
2026-01-28 22:56:12.21	35.87	20.37	-41.7	-45.3	12.7	7.01e-05	0	57	0	254803968	54	5623
2026-01-28 22:56:16.25	36.39	20.84	-41.7	-45.4	12.6	1.07e-04	0	57	0	263192576	54	5692
2026-01-28 22:56:20.28	36.92	21.31	-41.7	-45.4	12.7	6.48e-05	0	57	0	270532608	54	5666
2026-01-28 22:56:24.32	37.46	21.79	-41.8	-45.5	12.5	1.20e-04	0	58	0	277872640	54	5772
2026-01-28 22:56:28.36	38.03	22.28	-41.9	-45.7	12.3	1.38e-04	0	58	0	285212672	54	5923
2026-01-28 22:56:32.41	38.61	22.77	-41.8	-45.6	12.4	1.39e-04	0	57	0	293601280	54	5822
2026-01-28 22:56:36.45	39.21	23.27	-41.7	-45.3	12.8	8.69e-05	0	58	0	300941312	54	5618
2026-01-28 22:56:40.49	39.83	23.77	-41.7	-45.3	12.8	5.26e-05	0	58	0	308281344	54	5640
2026-01-28 22:56:44.53	40.47	24.29	-41.7	-45.2	12.9	3.96e-05	0	58	0	315621376	54	5583
2026-01-28 22:56:48.57	41.13	24.81	-41.8	-45.4	12.8	6.02e-05	0	58	0	322961408	54	5699
2026-01-28 22:56:52.61	41.81	25.33	-41.7	-45.3	12.9	6.10e-05	0	58	0	331350016	54	5643
2026-01-28 22:56:56.64	42.52	25.86	-41.8	-45.5	12.7	7.32e-05	0	58	0	338690048	54	5736
2026-01-28 22:57:00.68	43.25	26.40	-41.9	-45.7	12.5	1.23e-04	0	58	0	346030080	54	5866
2026-01-28 22:57:04.73	44.00	26.94	-42.0	-45.8	12.4	1.27e-04	0	58	0	353370112	54	5941
2026-01-28 22:57:08.77	44.78	27.49	-41.9	-45.6	12.7	7.70e-05	0	58	0	361758720	54	5807
2026-01-28 22:57:12.81	45.58	28.05	-42.0	-45.9	12.3	1.68e-04	0	58	0	369098752	54	6028
2026-01-28 22:57:16.85	46.42	28.61	-42.1	-46.0	12.2	2.34e-04	0	58	0	376438784	54	6097
2026-01-28 22:57:20.89	47.28	29.17	-42.1	-45.9	12.3	2.09e-04	0	58	0	383778816	54	6009
2026-01-28 22:57:24.93	48.17	29.74	-42.3	-46.3	12.0	2.89e-04	0	58	0	392167424	55	5958
2026-01-28 22:57:28.97	49.09	30.31	-42.2	-46.2	12.0	2.78e-04	0	58	0	399507456	55	5882
2026-01-28 22:57:33.00	50.05	30.89	-42.6	-47.0	11.1	1.29e-03	0	58	0	406847488	55	6482
2026-01-28 22:57:37.05	51.04	31.47	-42.5	-46.8	11.4	1.15e-03	0	58	0	414187520	55	6311
2026-01-28 22:57:41.09	52.07	32.05	-42.7	-47.3	10.9	1.78e-03	0	58	0	421527552	55	6692
2026-01-28 22:57:45.13	53.13	32.63	-42.9	-47.6	10.8	2.83e-03	0	58	0	429916160	56	6504
2026-01-28 22:57:49.17	54.23	33.22	-42.9	-47.5	10.9	1.99e-03	0	58	0	437256192	56	6452
2026-01-28 22:57:53.21	55.37	33.80	-43.1	-48.1	10.3	4.63e-03	0	58	0	444596224	56	6898
2026-01-28 22:57:57.25	56.56	34.38	-42.7	-47.0	11.4	1.38e-03	0	58	0	451936256	56	6131
2026-01-28 22:58:01.29	57.78	34.96	-42.6	-46.7	11.7	5.48e-04	0	58	0	460324864	56	5901
2026-01-28 22:58:05.34	59.05	35.53	-43.2	-48.2	10.1	6.15e-03	0	58	0	467664896	56	7022
2026-01-28 22:58:09.38	60.36	36.10	-42.8	-47.2	11.2	1.80e-03	0	58	0	475004928	57	5868
2026-01-28 22:58:13.42	61.72	36.66	-43.0	-47.7	10.6	1.83e-03	0	58	0	482344960	57	6267
2026-01-28 22:58:17.46	63.13	37.21	-43.1	-48.0	10.4	5.87e-03	0	59	0	489684992	57	6479
2026-01-28 22:58:21.50	64.58	37.75	-42.7	-47.0	11.5	1.09e-03	0	58	0	498073600	57	5723
2026-01-28 22:58:25.54	66.08	38.28	-43.2	-48.1	10.3	4.50e-03	0	58	0	505413632	57	6548
2026-01-28 22:58:29.58	67.63	38.79	-42.8	-47.2	11.3	1.53e-03	0	59	0	512753664	57	5896
2026-01-28 22:58:33.62	69.22	39.29	-43.1	-47.9	10.5	2.89e-03	0	59	0	520093696	57	6419
2026-01-28 22:58:37.66	70.87	39.77	-43.6	-49.1	9.3	1.98e-02	0	58	0	528482304	57	7353
2026-01-28 22:58:41.70	72.56	40.23	-43.2	-48.2	10.2	6.00e-03	0	58	0	535822336	57	6620
2026-01-28 22:58:45.74	74.30	40.67	-42.8	-47.2	11.3	1.04e-03	0	58	0	543162368	57	5904
2026-01-28 22:58:49.77	76.08	41.08	-42.6	-46.8	11.7	6.32e-04	0	59	0	550502400	57	5616
2026-01-28 22:58:53.81	77.92	41.47	-42.5	-46.5	12.1	4.06e-04	0	59	0	557842432	57	5404
2026-01-28 22:58:57.85	79.79	41.83	-43.1	-47.9	10.6	2.19e-03	0	58	0	566231040	57	6370
2026-01-28 22:59:01.89	81.70	42.15	-42.9	-47.5	11.1	3.47e-03	0	58	0	573571072	57	6072
2026-01-28 22:59:05.93	83.65	42.45	-42.7	-47.0	11.5	7.00e-04	0	58	0	580911104	57	5729
2026-01-28 22:59:09.97	85.64	42.71	-42.0	-45.5	13.1	4.50e-05	0	59	0	588251136	56	5141
2026-01-28 22:59:14.01	87.65	42.93	-42.3	-46.2	12.2	1.92e-04	0	59	0	596639744	55	5897
2026-01-28 22:59:18.05	89.69	43.11	-42.3	-46.2	12.2	1.33e-04	0	59	0	603979776	55	5919
2026-01-28 22:59:22.09	91.75	43.25	-42.0	-45.6	12.9	6.56e-05	0	58	0	611319808	55	5469
2026-01-28 22:59:26.13	93.82	43.36	-42.4	-46.4	12.0	2.12e-04	0	59	0	618659840	55	6061
2026-01-28 22:59:30.17	95.91	43.42	-41.6	-44.8	13.6	6.10e-06	0	59	0	625999872	55	5038
2026-01-28 22:59:34.21	98.00	43.44	-41.4	-44.5	13.9	9.10e-06	0	59	0	634388480	54	5134
2026-01-28 22:59:38.25	100.10	43.42	-41.4	-44.5	14.0	3.80e-06	0	59	0	641728512	54	5144
2026-01-28 22:59:42.29	102.18	43.36	-42.3	-46.2	12.3	1.30e-04	0	59	0	649068544	55	5868
2026-01-28 22:59:46.33	104.26	43.26	-41.9	-45.4	13.1	1.83e-05	0	59	0	656408576	55	5363
2026-01-28 22:59:50.37	106.32	43.11	-42.3	-46.2	12.2	2.35e-04	0	59	0	664797184	55	5898
2026-01-28 22:59:54.41	108.36	42.93	-42.3	-46.2	12.2	3.07e-04	0	58	0	672137216	55	5891
2026-01-28 22:59:58.44	110.38	42.71	-42.5	-46.5	11.9	2.57e-04	0	59	0	679477248	55	6094
2026-01-28 23:00:02.48	112.36	42.45	-42.3	-46.1	12.4	9.61e-05	0	59	0	686817280	55	5824
2026-01-28 23:00:06.52	114.32	42.16	-41.9	-45.4	13.0	6.63e-05	0	58	0	694157312	55	5373
2026-01-28 23:00:10.56	116.23	41.83	-42.4	-46.3	12.1	4.47e-04	0	58	0	702545920	55	5990
2026-01-28 23:00:14.61	118.12	41.47	-41.9	-45.4	13.0	1.67e-05	0	59	0	709885952	55	5399
2026-01-28 23:00:18.65	119.95	41.08	-40.9	-43.8	14.8	0.00e+00	0	58	0	717225984	53	4991
2026-01-28 23:00:22.69	121.74	40.67	-41.5	-44.7	13.8	1.29e-05	0	59	0	724566016	54	5259
2026-01-28 23:00:26.73	123.49	40.23	-41.5	-44.7	13.7	1.44e-05	0	59	0	732954624	54	5279
2026-01-28 23:00:30.77	125.19	39.77	-40.8	-43.5	15.1	0.00e+00	0	59	0	740294656	52	5117
2026-01-28 23:00:34.80	126.83	39.29	-40.9	-43.7	14.8	0.00e+00	0	59	0	747634688	52	5261
2026-01-28 23:00:38.84	128.43	38.79	-41.1	-44.0	14.5	7.00e-07	0	59	0	754974720	53	5121
2026-01-28 23:00:42.88	129.99	38.27	-41.3	-44.3	14.2	2.20e-06	0	59	0	762314752	53	5303
2026-01-28 23:00:46.92	131.49	37.74	-41.3	-44.3	14.2	7.00e-07	0	59	0	770703360	53	5331
2026-01-28 23:00:50.96	132.95	37.19	-41.5	-44.6	13.9	2.20e-06	0	59	0	778043392	53	5515
2026-01-28 23:00:55.00	134.36	36.64	-40.6	-43.1	15.4	0.00e+00	0	59	0	785383424	53	4645
2026-01-28 23:00:59.05	135.72	36.07	-41.6	-44.8	13.7	0.00e+00	0	59	0	792723456	53	5613
2026-01-28 23:01:03.08	137.03	35.50	-41.2	-44.2	14.3	7.00e-07	0	59	0	801112064	53	5238
2026-01-28 23:01:07.13	138.31	34.93	-41.6	-44.9	13.6	3.35e-05	0	59	0	808452096	55	5054
2026-01-28 23:01:11.17	139.54	34.35	-42.1	-45.7	12.7	2.28e-05	0	59	0	815792128	54	5922
2026-01-28 23:01:15.21	140.72	33.76	-40.6	-43.2	15.2	7.00e-07	0	59	0	823132160	53	4682
2026-01-28 23:01:19.25	141.87	33.18	-42.6	-46.9	11.5	3.45e-04	0	59	0	830472192	55	6354
2026-01-28 23:01:23.29	142.97	32.59	-41.4	-44.4	14.0	3.00e-06	0	59	0	838860800	54	5080
2026-01-28 23:01:27.33	144.04	32.00	-43.4	-48.8	9.6	8.04e-03	0	59	0	846200832	57	7102
2026-01-28 23:01:31.37	145.07	31.42	-41.0	-43.8	14.6	0.00e+00	0	59	0	853540864	54	4732
2026-01-28 23:01:35.40	146.06	30.84	-42.7	-47.1	11.2	9.16e-04	0	59	0	860880896	55	6569
2026-01-28 23:01:39.44	147.02	30.26	-41.8	-45.2	13.2	2.05e-05	0	59	0	869269504	55	5266
2026-01-28 23:01:43.48	147.94	29.68	-42.9	-47.4	11.0	5.65e-04	0	59	0	876609536	56	6420
2026-01-28 23:01:47.52	148.84	29.11	-42.7	-47.0	11.4	2.42e-03	0	59	0	883949568	57	5761
2026-01-28 23:01:51.56	149.70	28.54	-42.2	-45.9	12.6	1.01e-04	0	59	0	891289600	56	5357
2026-01-28 23:01:55.60	150.54	27.98	-42.9	-47.6	10.9	2.51e-03	0	59	0	898629632	56	6516
2026-01-28 23:01:59.64	151.34	27.42	-41.4	-44.5	13.9	7.60e-06	0	59	0	907018240	54	5127
2026-01-28 23:02:03.68	152.12	26.86	-41.5	-44.8	13.6	5.30e-06	0	59	0	914358272	54	5301
2026-01-28 23:02:07.72	152.88	26.32	-41.7	-45.1	13.3	1.90e-05	0	59	0	921698304	54	5486
2026-01-28 23:02:11.77	153.61	25.77	-41.1	-44.2	14.1	1.50e-06	0	59	0	929038336	54	4940
2026-01-28 23:02:15.81	154.31	25.24	-41.4	-44.7	13.7	3.00e-06	0	59	0	937426944	54	5229
2026-01-28 23:02:19.85	154.99	24.71	-41.4	-44.6	13.7	5.30e-06	0	59	0	944766976	54	5181
2026-01-28 23:02:23.89	155.65	24.19	-41.2	-44.3	14.0	3.80e-06	0	59	0	952107008	54	5011
2026-01-28 23:02:27.93	156.29	23.67	-41.3	-44.4	13.9	1.50e-06	0	59	0	959447040	54	5079
2026-01-28 23:02:31.97	156.91	23.16	-41.3	-44.5	13.8	5.30e-06	0	59	0	967835648	54	5144
2026-01-28 23:02:36.01	157.51	22.66	-41.9	-45.6	12.6	6.56e-05	0	59	0	975175680	54	5826
2026-01-28 23:02:40.05	158.10	22.17	-41.6	-45.0	13.2	2.21e-05	0	59	0	982515712	54	5449
2026-01-28 23:02:44.10	158.66	21.68	-41.4	-44.7	13.6	4.50e-06	0	59	0	989855744	54	5241
2026-01-28 23:02:48.14	159.21	21.19	-41.5	-45.0	13.2	2.28e-05	0	59	0	997195776	54	5426
2026-01-28 23:02:52.17	159.74	20.72	-41.5	-44.9	13.3	2.97e-05	0	59	0	1005584384	54	5398
2026-01-28 23:02:56.21	160.26	20.25	-41.4	-44.8	13.4	1.44e-05	0	59	0	1012924416	54	5313
2026-01-28 23:03:00.25	160.76	19.79	-41.5	-45.0	13.2	2.51e-05	0	59	0	1020264448	54	5430
2026-01-28 23:03:04.29	161.24	19.33	-41.6	-45.1	13.0	3.20e-05	0	59	0	1027604480	54	5497
2026-01-28 23:03:08.33	161.72	18.88	-41.7	-45.3	12.8	4.50e-05	0	59	0	1035993088	54	5640
2026-01-28 23:03:12.37	162.17	18.44	-41.8	-45.6	12.5	1.30e-04	0	59	0	1043333120	54	5828
2026-01-28 23:03:16.40	162.62	18.00	-41.9	-45.7	12.4	1.49e-04	0	59	0	1050673152	54	5885
2026-01-28 23:03:20.44	163.06	17.57	-41.7	-45.5	12.6	1.30e-04	0	59	0	1058013184	54	5745
2026-01-28 23:03:24.48	163.48	17.14	-41.7	-45.4	12.6	7.85e-05	0	59	0	1065353216	54	5677
2026-01-28 23:03:28.52	163.89	16.72	-41.6	-45.2	12.8	7.01e-05	0	59	0	1073741824	54	5585
2026-01-28 23:03:32.56	164.29	16.31	-41.6	-45.3	12.7	6.40e-05	0	59	0	1081081856	54	5606
2026-01-28 23:03:36.60	164.68	15.90	-41.6	-45.3	12.7	8.16e-05	0	59	0	1088421888	54	5643
2026-01-28 23:03:40.64	165.06	15.50	-41.6	-45.2	12.7	5.95e-05	0	59	0	1095761920	54	5585
2026-01-28 23:03:44.68	165.43	15.10	-41.7	-45.5	12.4	1.23e-04	0	59	0	1104150528	54	5768
2026-01-28 23:03:48.72	165.79	14.71	-41.8	-45.9	12.1	2.56e-04	0	59	0	1111490560	54	5998
2026-01-28 23:03:52.76	166.15	14.32	-41.9	-46.0	11.9	4.43e-04	0	59	0	1118830592	54	6098
2026-01-28 23:03:56.80	166.49	13.94	-41.8	-45.9	12.0	5.22e-04	0	59	0	1126170624	54	6007
2026-01-28 23:04:00.83	166.82	13.57	-41.7	-45.6	12.2	1.95e-04	0	59	0	1133510656	54	5821
2026-01-28 23:04:04.87	167.15	13.20	-41.4	-45.0	12.8	5.03e-05	0	59	0	1141899264	54	5447
2026-01-28 23:04:08.91	167.47	12.83	-41.3	-44.9	12.9	5.49e-05	0	59	0	1149239296	54	5357
2026-01-28 23:04:12.95	167.78	12.47	-41.5	-45.2	12.6	9.46e-05	0	59	0	1156579328	54	5577
2026-01-28 23:04:16.99	168.09	12.11	-41.8	-45.8	11.9	3.15e-04	0	59	0	1163919360	54	5985
2026-01-28 23:04:21.03	168.39	11.76	-42.0	-46.5	11.2	1.22e-03	0	59	0	1172307968	54	6436
2026-01-28 23:04:25.07	168.68	11.41	-42.1	-46.8	10.9	2.20e-03	0	59	0	1179648000	54	6651
2026-01-28 23:04:29.11	168.96	11.06	-42.1	-46.8	10.8	2.61e-03	0	59	0	1186988032	54	6698
2026-01-28 23:04:33.15	169.24	10.72	-42.0	-46.7	10.9	2.34e-03	0	59	0	1194328064	54	6579
2026-01-28 23:04:37.19	169.52	10.39	-41.9	-46.4	11.1	1.67e-03	0	59	0	1201668096	54	6398
2026-01-28 23:04:41.23	169.78	10.06	-41.7	-46.1	11.4	1.06e-03	0	59	0	1210056704	54	6160
2026-01-28 23:04:45.27	170.04	9.73	-41.7	-46.0	11.5	9.06e-04	0	59	0	1217396736	54	6098
2026-01-28 23:04:49.31	170.30	9.40	-41.6	-46.0	11.5	8.14e-04	0	59	0	1224736768	54	6075
2026-01-28 23:04:53.35	170.55	9.08	-41.7	-46.0	11.3	1.02e-03	0	59	0	1232076800	54	6127
2026-01-28 23:04:57.39	170.79	8.77	-41.8	-46.4	10.9	2.09e-03	0	59	0	1240465408	54	6416
2026-01-28 23:05:01.43	171.03	8.45	-41.9	-46.8	10.4	3.57e-03	0	59	0	1247805440	54	6663
2026-01-28 23:05:05.47	171.27	8.14	-41.9	-46.9	10.3	5.24e-03	0	59	0	1255145472	54	6757
2026-01-28 23:05:09.50	171.50	7.84	-44.7	-59.5	3.8	1.49e+00	0	59	104	1259339776	60	20502
2026-01-28 23:05:13.54	171.73	7.54	-45.1	-60.0	3.8	1.49e+00	0	59	104	1259339776	60	21529
2026-01-28 23:05:17.59	171.95	7.23	-45.2	-60.0	3.8	1.49e+00	0	59	104	1259339776	60	21709
2026-01-28 23:05:21.63	172.17	6.94	-45.1	-60.0	3.8	1.49e+00	0	59	104	1259339776	60	21585
2026-01-28 23:05:25.67	172.38	6.64	-45.0	-59.9	3.8	1.49e+00	0	59	104	1259339776	60	21330
2026-01-28 23:05:29.71	172.59	6.35	-45.0	-59.8	3.8	1.49e+00	0	59	104	1259339776	60	21235
2026-01-28 23:05:33.75	172.79	6.07	-45.0	-59.8	3.8	1.49e+00	0	59	104	1259339776	60	21216
2026-01-28 23:05:37.80	173.00	5.78	-45.0	-59.8	3.8	1.49e+00	0	59	104	1259339776	60	21141
2026-01-28 23:05:41.84	173.19	5.50	-45.0	-59.8	3.8	1.49e+00	0	59	104	1259339776	60	21197
2026-01-28 23:05:45.88	173.39	5.22	-44.9	-59.8	3.8	1.49e+00	0	59	104	1259339776	60	21153
2026-01-28 23:05:49.93	173.58	4.94	-44.9	-59.8	3.8	1.49e+00	0	59	104	1259339776	60	21195
2026-01-28 23:05:53.97	173.77	4.67	-44.9	-59.8	3.8	1.49e+00	0	59	104	1259339776	60	21160
2026-01-28 23:05:58.01	173.95	4.40	-44.9	-59.8	3.8	1.49e+00	0	59	104	1259339776	60	21126
2026-01-28 23:06:02.05	174.13	4.13	-44.9	-59.8	3.8	1.49e+00	0	59	104	1259339776	60	21137
2026-01-28 23:06:06.09	174.31	3.86	-44.9	-59.8	3.8	1.49e+00	0	59	104	1259339776	60	21190
2026-01-28 23:06:10.13	174.49	3.60	-44.9	-59.8	3.8	1.49e+00	0	59	104	1259339776	60	21128
2026-01-28 23:06:14.17	174.66	3.33	-44.9	-59.8	3.8	1.49e+00	0	59	104	1259339776	60	21068
2026-01-28 23:06:18.21	174.83	3.07	-44.9	-59.8	3.8	1.49e+00	0	59	104	1259339776	60	21131
2026-01-28 23:06:22.25	175.00	2.82	-44.9	-59.8	3.8	1.49e+00	0	59	104	1259339776	60	21117
2026-01-28 23:06:26.29	175.16	2.56	-44.9	-59.8	3.8	1.49e+00	0	59	104	1259339776	60	21072
2026-01-28 23:06:30.34	175.32	2.31	-44.9	-59.8	3.8	1.49e+00	0	59	104	1259339776	60	21067
2026-01-28 23:06:34.38	175.48	2.06	-44.9	-59.8	3.8	1.49e+00	0	59	104	1259339776	60	21057

#Closed at: 2026-01-28 23:06:35
#Recorded file [1259 MB]: D:/lorett/data/31039_260129_015229.dat