passes_logs/2026/01/28/R2.0S_Moscow/R2.0S_Moscow__20260128_144109_FENGYUN_3E_rec.log

#Pass ID: 20260128_144109_FENGYUN 3E
#Satellite: FENGYUN 3E
#Configuration: FENGYUN 3E
#almurnet v.1.7.20251203
#Start time: 2026-01-28 14:41:09

#Version: 2.2.20231116
#Station: R2.0S_Moscow
#Location: 37.707566 lon 55.798166 lat
#TLE: 1 49008U 21062A   26027.83084825  .00000170  00000+0  10081-3 0  9997
#TLE: 2 49008  98.7501  32.8098 0002509 114.2687 245.8752 14.19888158236667

#Time	Az	El	Level	Level2	SNR	BER	BlckErr	Temp	State	Recorded	gain1	gain2
2026-01-28 14:41:09.24	174.75	2.01	-43.7	-54.6	3.8	8.46e-01	0	50	0	0	58	12320
2026-01-28 14:41:13.28	174.85	2.26	-43.7	-54.5	3.8	8.45e-01	0	50	104	0	58	12223
2026-01-28 14:41:17.32	174.95	2.52	-43.7	-54.6	3.8	8.46e-01	0	51	104	0	58	12294
2026-01-28 14:41:21.36	175.05	2.78	-43.7	-54.6	3.8	8.45e-01	0	51	104	0	58	12287
2026-01-28 14:41:25.40	175.15	3.05	-43.7	-54.6	3.8	8.46e-01	0	51	104	0	58	12284
2026-01-28 14:41:29.44	175.26	3.32	-43.7	-54.6	3.8	8.47e-01	0	51	104	0	58	12266
2026-01-28 14:41:33.48	175.36	3.59	-43.7	-54.6	3.8	8.46e-01	0	52	104	0	58	12246
2026-01-28 14:41:37.52	175.47	3.86	-43.7	-54.5	3.8	8.46e-01	0	52	104	0	58	12229
2026-01-28 14:41:41.56	175.58	4.13	-43.7	-54.6	3.8	8.47e-01	0	52	104	0	58	12250
2026-01-28 14:41:45.61	175.69	4.41	-43.7	-54.5	3.8	8.46e-01	0	53	104	0	58	12221
2026-01-28 14:41:49.64	175.81	4.69	-43.7	-54.5	3.8	8.46e-01	0	53	104	0	58	12167
2026-01-28 14:41:53.69	175.92	4.97	-43.6	-54.1	3.8	8.45e-01	0	53	104	0	58	11560
2026-01-28 14:41:57.73	176.04	5.26	-43.6	-53.9	3.8	8.46e-01	0	53	104	0	58	11349
2026-01-28 14:42:01.77	176.16	5.55	-43.5	-53.6	3.8	8.46e-01	0	54	104	0	58	10982
2026-01-28 14:42:05.81	176.28	5.84	-43.2	-51.5	4.1	8.40e-01	0	54	0	0	57	9128
2026-01-28 14:42:09.85	176.41	6.14	-42.8	-49.7	4.6	8.13e-01	0	54	0	0	56	7887
2026-01-28 14:42:13.89	176.54	6.44	-42.0	-47.4	6.0	4.20e-01	0	54	0	4194304	54	6732
2026-01-28 14:42:17.94	176.67	6.74	-40.9	-45.0	8.0	6.96e-02	0	54	0	33554432	52	5772
2026-01-28 14:42:21.98	176.80	7.04	-39.7	-42.8	10.4	5.69e-03	0	54	0	62914560	50	5026
2026-01-28 14:42:26.02	176.93	7.35	-38.6	-41.3	12.0	3.41e-04	0	55	0	92274688	48	4716
2026-01-28 14:42:30.07	177.07	7.67	-38.1	-40.7	12.4	1.22e-04	0	55	0	120586240	47	4677
2026-01-28 14:42:34.11	177.21	7.98	-38.5	-41.2	11.9	2.68e-04	0	55	0	149946368	47	4929
2026-01-28 14:42:38.16	177.35	8.31	-42.8	-53.2	3.8	8.41e-01	0	55	104	176160768	55	12483
2026-01-28 14:42:42.20	177.50	8.63	-37.9	-40.2	13.5	8.00e-06	0	55	0	200278016	46	4667
2026-01-28 14:42:46.24	177.65	8.96	-37.8	-40.1	13.7	4.50e-06	0	55	0	228589568	46	4606
2026-01-28 14:42:50.28	177.80	9.29	-37.8	-40.0	13.8	4.50e-06	0	55	0	257949696	46	4583
2026-01-28 14:42:54.32	177.96	9.63	-37.8	-40.0	13.9	1.10e-06	0	56	0	287309824	46	4584
2026-01-28 14:42:58.36	178.11	9.97	-37.7	-40.0	14.0	2.20e-06	0	56	0	316669952	46	4561
2026-01-28 14:43:02.40	178.28	10.32	-37.8	-40.1	13.9	1.10e-06	0	56	0	346030080	46	4613
2026-01-28 14:43:06.44	178.44	10.67	-37.7	-39.9	14.1	2.20e-06	0	56	0	374341632	46	4543
2026-01-28 14:43:10.48	178.61	11.03	-37.6	-39.9	14.1	0.00e+00	0	56	0	403701760	45	4796
2026-01-28 14:43:14.52	178.79	11.39	-37.7	-40.0	14.1	1.10e-06	0	56	0	433061888	45	4847
2026-01-28 14:43:18.56	178.96	11.75	-37.4	-39.6	14.4	1.10e-06	0	56	0	462422016	45	4638
2026-01-28 14:43:22.61	179.14	12.13	-37.3	-39.5	14.6	0.00e+00	0	57	0	491782144	45	4582
2026-01-28 14:43:26.65	179.33	12.50	-37.4	-39.6	14.5	1.10e-06	0	57	0	521142272	45	4601
2026-01-28 14:43:30.70	179.52	12.89	-37.0	-39.1	15.0	0.00e+00	0	57	0	549453824	45	4390
2026-01-28 14:43:34.74	179.72	13.28	-37.0	-39.1	15.1	0.00e+00	0	57	0	578813952	44	4610
2026-01-28 14:43:38.77	179.92	13.67	-36.8	-38.9	15.2	0.00e+00	0	57	0	608174080	44	4533
2026-01-28 14:43:42.81	180.12	14.07	-36.6	-38.6	15.5	0.00e+00	0	57	0	637534208	44	4390
2026-01-28 14:43:46.85	180.33	14.48	-36.5	-38.5	15.7	0.00e+00	0	57	0	666894336	44	4327
2026-01-28 14:43:50.89	180.55	14.90	-36.3	-38.3	15.8	0.00e+00	0	57	0	695205888	43	4454
2026-01-28 14:43:54.93	180.77	15.32	-36.4	-38.4	15.7	0.00e+00	0	57	0	724566016	43	4522
2026-01-28 14:43:58.98	181.00	15.75	-36.1	-38.0	16.1	0.00e+00	0	57	0	753926144	43	4316
2026-01-28 14:44:03.01	181.23	16.18	-36.2	-38.2	15.9	0.00e+00	0	57	0	783286272	43	4403
2026-01-28 14:44:07.05	181.47	16.62	-36.0	-38.0	16.1	0.00e+00	0	57	0	812646400	42	4556
2026-01-28 14:44:11.09	181.72	17.07	-35.9	-37.9	16.1	0.00e+00	0	58	0	842006528	42	4506
2026-01-28 14:44:15.13	181.98	17.53	-35.7	-37.7	16.4	0.00e+00	0	58	0	870318080	42	4408
2026-01-28 14:44:19.17	182.24	18.00	-35.8	-37.7	16.4	0.00e+00	0	58	0	899678208	42	4423
2026-01-28 14:44:23.21	182.51	18.48	-35.8	-37.7	16.4	0.00e+00	0	58	0	929038336	42	4409
2026-01-28 14:44:27.25	182.79	18.96	-35.6	-37.5	16.6	0.00e+00	0	58	0	958398464	42	4329
2026-01-28 14:44:31.28	183.08	19.45	-35.4	-37.3	16.8	0.00e+00	0	58	0	986710016	41	4471
2026-01-28 14:44:35.32	183.37	19.95	-35.5	-37.4	16.7	0.00e+00	0	58	0	1016070144	41	4527
2026-01-28 14:44:39.36	183.68	20.47	-35.5	-37.4	16.7	0.00e+00	0	58	0	1045430272	41	4516
2026-01-28 14:44:43.40	183.99	20.99	-35.5	-37.4	16.8	0.00e+00	0	58	0	1074790400	41	4514
2026-01-28 14:44:47.44	184.32	21.52	-35.6	-37.5	16.6	0.00e+00	0	58	0	1103101952	41	4586
2026-01-28 14:44:51.48	184.66	22.06	-35.4	-37.2	17.0	0.00e+00	0	58	0	1132462080	41	4408
2026-01-28 14:44:55.53	185.01	22.62	-35.5	-37.3	16.9	0.00e+00	0	58	0	1161822208	41	4462
2026-01-28 14:44:59.57	185.37	23.18	-35.4	-37.2	17.0	0.00e+00	0	58	0	1191182336	41	4413
2026-01-28 14:45:03.61	185.74	23.76	-35.3	-37.1	17.1	0.00e+00	0	58	0	1220542464	41	4363
2026-01-28 14:45:07.64	186.13	24.35	-35.1	-36.8	17.4	0.00e+00	0	58	0	1249902592	40	4462
2026-01-28 14:45:11.68	186.53	24.95	-34.9	-36.6	17.5	0.00e+00	0	58	0	1278214144	40	4381
2026-01-28 14:45:15.73	186.95	25.56	-34.7	-36.4	17.7	0.00e+00	0	58	0	1307574272	40	4273
2026-01-28 14:45:19.76	187.38	26.19	-34.7	-36.5	17.8	0.00e+00	0	58	0	1336934400	39	4566
2026-01-28 14:45:23.80	187.83	26.83	-34.7	-36.5	17.8	0.00e+00	0	58	0	1366294528	39	4573
2026-01-28 14:45:27.84	188.30	27.48	-34.7	-36.5	17.8	0.00e+00	0	58	0	1395654656	39	4562
2026-01-28 14:45:31.88	188.79	28.14	-34.6	-36.4	18.0	0.00e+00	0	58	0	1423966208	39	4500
2026-01-28 14:45:35.92	189.30	28.82	-34.4	-36.0	18.3	0.00e+00	0	58	0	1453326336	39	4299
2026-01-28 14:45:39.95	189.82	29.52	-34.5	-36.1	18.3	0.00e+00	0	59	0	1482686464	39	4363
2026-01-28 14:45:44.00	190.38	30.23	-34.9	-36.7	17.7	0.00e+00	0	58	0	1512046592	39	4687
2026-01-28 14:45:48.04	190.95	30.95	-34.9	-36.6	17.8	0.00e+00	0	58	0	1541406720	39	4640
2026-01-28 14:45:52.07	191.56	31.69	-34.7	-36.5	17.9	0.00e+00	0	59	0	1570766848	39	4551
2026-01-28 14:45:56.11	192.19	32.45	-34.4	-36.1	18.3	0.00e+00	0	59	0	1599078400	39	4363
2026-01-28 14:46:00.15	192.85	33.22	-34.5	-36.3	18.1	0.00e+00	0	59	0	1628438528	39	4461
2026-01-28 14:46:04.19	193.54	34.00	-34.3	-36.0	18.3	0.00e+00	0	59	0	1657798656	39	4320
2026-01-28 14:46:08.23	194.26	34.81	-34.5	-36.2	18.3	0.00e+00	0	59	0	1687158784	39	4396
2026-01-28 14:46:12.27	195.02	35.62	-34.8	-36.6	17.8	0.00e+00	0	59	0	1716518912	39	4624
2026-01-28 14:46:16.31	195.82	36.46	-34.6	-36.3	18.0	0.00e+00	0	59	0	1744830464	39	4473
2026-01-28 14:46:20.35	196.66	37.31	-34.8	-36.6	17.8	0.00e+00	0	59	0	1774190592	39	4616
2026-01-28 14:46:24.39	197.55	38.17	-35.0	-36.8	17.7	0.00e+00	0	59	0	1803550720	39	4739
2026-01-28 14:46:28.44	198.48	39.05	-34.8	-36.5	17.9	0.00e+00	0	59	0	1832910848	40	4333
2026-01-28 14:46:32.48	199.47	39.94	-35.2	-37.1	17.4	0.00e+00	0	59	0	1862270976	40	4632
2026-01-28 14:46:36.52	200.51	40.85	-34.4	-36.0	18.4	0.00e+00	0	59	0	1891631104	39	4323
2026-01-28 14:46:40.57	201.61	41.77	-35.1	-36.9	17.7	0.00e+00	0	59	0	1919942656	39	4771
2026-01-28 14:46:44.61	202.77	42.70	-35.0	-36.7	17.8	0.00e+00	0	59	0	1949302784	40	4424
2026-01-28 14:46:48.65	204.01	43.64	-35.1	-36.9	17.6	0.00e+00	0	59	0	1978662912	40	4494
2026-01-28 14:46:52.70	205.31	44.59	-34.9	-36.6	17.8	0.00e+00	0	59	0	2008023040	40	4391
2026-01-28 14:46:56.74	206.70	45.54	-35.3	-36.9	17.7	0.00e+00	0	59	0	2037383168	40	4531
2026-01-28 14:47:00.77	208.17	46.50	-35.9	-37.1	17.8	0.00e+00	0	59	0	2065694720	41	4385
2026-01-28 14:47:04.82	209.73	47.46	-36.6	-38.0	17.0	0.00e+00	0	59	0	2095054848	43	4307
2026-01-28 14:47:08.86	211.39	48.41	-36.2	-37.4	17.5	0.00e+00	0	59	0	2124414976	42	4275
2026-01-28 14:47:12.90	213.15	49.36	-36.4	-37.7	17.3	0.00e+00	0	59	0	2153775104	42	4402
2026-01-28 14:47:16.94	215.03	50.30	-36.6	-37.9	17.1	0.00e+00	0	59	0	2183135232	43	4257
2026-01-28 14:47:20.98	217.02	51.22	-36.7	-38.0	17.0	0.00e+00	0	59	0	2212495360	43	4301
2026-01-28 14:47:25.02	219.13	52.12	-36.5	-37.9	17.1	0.00e+00	0	59	0	2240806912	43	4270
2026-01-28 14:47:29.06	221.38	53.00	-36.5	-37.9	17.1	0.00e+00	0	59	0	2270167040	43	4243
2026-01-28 14:47:33.10	223.76	53.85	-36.7	-38.0	17.0	0.00e+00	0	59	0	2299527168	43	4327
2026-01-28 14:47:37.15	226.28	54.65	-36.2	-37.4	17.6	2.20e-06	0	59	0	2328887296	43	4033
2026-01-28 14:47:41.19	228.94	55.42	-36.3	-37.6	17.3	0.00e+00	0	59	0	2358247424	42	4387
2026-01-28 14:47:45.23	231.75	56.12	-37.2	-38.6	16.5	0.00e+00	0	59	0	2386558976	44	4367
2026-01-28 14:47:49.27	234.69	56.77	-37.1	-38.5	16.6	0.00e+00	0	59	0	2415919104	44	4313
2026-01-28 14:47:53.31	237.76	57.35	-36.2	-37.5	17.4	0.00e+00	0	59	0	2445279232	43	4084
2026-01-28 14:47:57.35	240.96	57.85	-37.3	-38.7	16.4	0.00e+00	0	59	0	2474639360	44	4435
2026-01-28 14:48:01.39	244.27	58.27	-36.6	-37.9	17.1	0.00e+00	0	59	0	2503999488	43	4275
2026-01-28 14:48:05.43	247.67	58.61	-36.4	-37.6	17.3	0.00e+00	0	59	0	2533359616	43	4143
2026-01-28 14:48:09.47	251.14	58.85	-37.1	-38.5	16.5	0.00e+00	0	59	0	2561671168	43	4572
2026-01-28 14:48:13.51	254.67	58.99	-36.5	-37.7	17.3	0.00e+00	0	59	0	2591031296	43	4186
2026-01-28 14:48:17.55	258.22	59.03	-36.4	-37.7	17.3	0.00e+00	0	59	0	2620391424	43	4186
2026-01-28 14:48:21.59	261.77	58.98	-36.4	-37.7	17.3	0.00e+00	0	59	0	2649751552	43	4163
2026-01-28 14:48:25.63	265.29	58.82	-36.7	-38.1	16.9	0.00e+00	0	59	0	2679111680	43	4358
2026-01-28 14:48:29.67	268.75	58.57	-36.5	-37.8	17.2	0.00e+00	0	60	0	2707423232	43	4210
2026-01-28 14:48:33.71	272.14	58.23	-36.5	-37.8	17.2	0.00e+00	0	59	0	2736783360	43	4216
2026-01-28 14:48:37.76	275.44	57.80	-36.3	-37.6	17.4	0.00e+00	0	59	0	2766143488	43	4122
2026-01-28 14:48:41.80	278.62	57.29	-36.4	-37.7	17.3	0.00e+00	0	60	0	2795503616	43	4175
2026-01-28 14:48:45.84	281.68	56.70	-37.2	-38.6	16.6	0.00e+00	0	60	0	2824863744	44	4388
2026-01-28 14:48:49.89	284.60	56.04	-36.7	-38.0	17.2	0.00e+00	0	59	0	2854223872	44	4069
2026-01-28 14:48:53.93	287.38	55.33	-36.9	-38.2	17.0	0.00e+00	0	59	0	2882535424	44	4169
2026-01-28 14:48:57.97	290.02	54.57	-37.0	-38.4	16.9	0.00e+00	0	60	0	2911895552	44	4245
2026-01-28 14:49:02.00	292.51	53.76	-36.8	-38.1	17.1	0.00e+00	0	59	0	2941255680	44	4117
2026-01-28 14:49:06.04	294.87	52.91	-37.3	-38.7	16.5	0.00e+00	0	59	0	2970615808	44	4396
2026-01-28 14:49:10.08	297.10	52.03	-37.0	-38.3	16.9	0.00e+00	0	59	0	2999975936	44	4216
2026-01-28 14:49:14.12	299.20	51.13	-37.0	-38.4	16.8	0.00e+00	0	59	0	3028287488	44	4247
2026-01-28 14:49:18.16	301.17	50.21	-36.7	-38.0	17.1	0.00e+00	0	59	0	3057647616	44	4092
2026-01-28 14:49:22.21	303.03	49.27	-36.4	-37.6	17.4	0.00e+00	0	59	0	3087007744	43	4138
2026-01-28 14:49:26.25	304.78	48.33	-36.5	-37.8	17.3	0.00e+00	0	59	0	3116367872	43	4197
2026-01-28 14:49:30.29	306.42	47.38	-36.1	-37.3	17.7	0.00e+00	0	59	0	3145728000	43	3973
2026-01-28 14:49:34.33	307.97	46.42	-35.8	-37.0	18.0	0.00e+00	0	59	0	3175088128	42	4094
2026-01-28 14:49:38.37	309.43	45.47	-35.8	-37.0	18.0	0.00e+00	0	59	0	3203399680	42	4076
2026-01-28 14:49:42.41	310.80	44.52	-35.6	-36.8	18.2	0.00e+00	0	59	0	3232759808	42	3961
2026-01-28 14:49:46.45	312.10	43.58	-35.1	-36.2	18.7	0.00e+00	0	59	0	3262119936	41	3943
2026-01-28 14:49:50.49	313.32	42.65	-35.7	-36.9	18.1	0.00e+00	0	59	0	3291480064	41	4251
2026-01-28 14:49:54.53	314.47	41.72	-35.5	-36.7	18.2	0.00e+00	0	60	0	3320840192	41	4184
2026-01-28 14:49:58.57	315.57	40.81	-35.4	-36.6	18.4	0.00e+00	0	59	0	3349151744	41	4100
2026-01-28 14:50:02.60	316.60	39.91	-35.3	-36.5	18.5	0.00e+00	0	60	0	3378511872	41	4076
2026-01-28 14:50:06.65	317.58	39.02	-35.5	-36.6	18.3	0.00e+00	0	60	0	3407872000	41	4137
2026-01-28 14:50:10.69	318.50	38.15	-35.4	-36.6	18.4	0.00e+00	0	59	0	3437232128	41	4101
2026-01-28 14:50:14.73	319.39	37.29	-35.2	-36.3	18.6	0.00e+00	0	60	0	3466592256	41	3979
2026-01-28 14:50:18.77	320.22	36.45	-35.0	-36.1	18.8	0.00e+00	0	60	0	3495952384	41	3904
2026-01-28 14:50:22.82	321.02	35.62	-35.0	-36.1	18.8	0.00e+00	0	60	0	3524263936	40	4114
2026-01-28 14:50:26.86	321.78	34.81	-35.3	-36.5	18.4	0.00e+00	0	60	0	3553624064	40	4321
2026-01-28 14:50:30.90	322.50	34.01	-35.5	-36.7	18.1	0.00e+00	0	59	0	3582984192	40	4405
2026-01-28 14:50:34.95	323.19	33.23	-34.8	-35.9	19.0	0.00e+00	0	60	0	3612344320	40	4023
2026-01-28 14:50:38.98	323.84	32.46	-34.9	-36.0	18.8	0.00e+00	0	59	0	3641704448	40	4090
2026-01-28 14:50:43.02	324.47	31.71	-35.2	-36.4	18.5	0.00e+00	0	60	0	3670016000	40	4251
2026-01-28 14:50:47.06	325.07	30.98	-35.2	-36.4	18.5	0.00e+00	0	59	0	3699376128	40	4244
2026-01-28 14:50:51.11	325.65	30.26	-35.2	-36.3	18.5	0.00e+00	0	60	0	3728736256	40	4227
2026-01-28 14:50:55.15	326.20	29.55	-35.2	-36.3	18.5	0.00e+00	0	59	0	3758096384	40	4239
2026-01-28 14:50:59.19	326.73	28.86	-35.3	-36.5	18.3	0.00e+00	0	59	0	3787456512	40	4322
2026-01-28 14:51:03.24	327.23	28.18	-35.4	-36.6	18.3	0.00e+00	0	59	0	3816816640	40	4348
2026-01-28 14:51:07.28	327.72	27.52	-35.4	-36.6	18.2	0.00e+00	0	60	0	3845128192	40	4380
2026-01-28 14:51:11.32	328.19	26.87	-35.3	-36.5	18.3	0.00e+00	0	59	0	3874488320	40	4308
2026-01-28 14:51:15.37	328.64	26.24	-35.3	-36.4	18.4	0.00e+00	0	59	0	3903848448	40	4270
2026-01-28 14:51:19.41	329.07	25.62	-35.4	-36.5	18.2	0.00e+00	0	59	0	3933208576	40	4336
2026-01-28 14:51:23.45	329.49	25.01	-35.5	-36.7	18.1	0.00e+00	0	59	0	3962568704	40	4406
2026-01-28 14:51:27.49	329.89	24.41	-35.6	-36.8	18.0	0.00e+00	0	59	0	3991928832	40	4446
2026-01-28 14:51:31.53	330.28	23.83	-35.6	-36.9	17.9	0.00e+00	0	59	0	4020240384	40	4504
2026-01-28 14:51:35.57	330.65	23.25	-35.6	-36.9	17.9	0.00e+00	0	60	0	4049600512	40	4502
2026-01-28 14:51:39.61	331.02	22.69	-35.6	-36.8	17.9	0.00e+00	0	60	0	4078960640	40	4446
2026-01-28 14:51:43.64	331.36	22.14	-35.6	-36.8	17.8	0.00e+00	0	60	0	4108320768	40	4479
2026-01-28 14:51:47.68	331.70	21.61	-35.8	-37.0	17.6	0.00e+00	0	60	0	4137680896	41	4339
2026-01-28 14:51:51.73	332.03	21.08	-35.9	-37.2	17.4	0.00e+00	0	60	0	4165992448	41	4431
2026-01-28 14:51:55.77	332.35	20.56	-36.1	-37.4	17.2	0.00e+00	0	60	0	4195352576	41	4537
2026-01-28 14:51:59.82	332.66	20.05	-36.3	-37.6	17.0	0.00e+00	0	60	0	4224712704	42	4367
2026-01-28 14:52:03.86	332.95	19.55	-36.3	-37.6	17.0	0.00e+00	0	60	0	4254072832	42	4375
2026-01-28 14:52:07.90	333.24	19.06	-36.3	-37.7	16.9	0.00e+00	0	60	0	4283432960	42	4398
2026-01-28 14:52:11.94	333.52	18.57	-36.4	-37.7	16.8	0.00e+00	0	60	0	4312793088	42	4431
2026-01-28 14:52:15.98	333.80	18.10	-36.4	-37.8	16.7	0.00e+00	0	60	0	4341104640	42	4461
2026-01-28 14:52:20.02	334.06	17.64	-36.5	-37.9	16.5	0.00e+00	0	60	0	4370464768	42	4510
2026-01-28 14:52:24.06	334.32	17.18	-36.6	-38.0	16.5	0.00e+00	0	60	0	4399824896	42	4548
2026-01-28 14:52:28.10	334.57	16.73	-36.6	-38.0	16.4	0.00e+00	0	60	0	4429185024	42	4573
2026-01-28 14:52:32.14	334.81	16.29	-36.7	-38.1	16.2	0.00e+00	0	60	0	4458545152	43	4388
2026-01-28 14:52:36.19	335.05	15.86	-36.9	-38.3	16.0	0.00e+00	0	60	0	4487905280	43	4477
2026-01-28 14:52:40.23	335.28	15.43	-37.0	-38.5	15.8	0.00e+00	0	60	0	4516216832	43	4561
2026-01-28 14:52:44.27	335.50	15.01	-36.9	-38.4	15.8	0.00e+00	0	59	0	4545576960	43	4531
2026-01-28 14:52:48.31	335.72	14.60	-37.4	-39.0	15.4	0.00e+00	0	60	0	4574937088	44	4550
2026-01-28 14:52:52.35	335.93	14.20	-37.3	-38.8	15.5	0.00e+00	0	60	0	4604297216	44	4481
2026-01-28 14:52:56.40	336.14	13.80	-37.3	-38.9	15.3	0.00e+00	0	60	0	4633657344	44	4534
2026-01-28 14:53:00.44	336.35	13.40	-37.4	-38.9	15.3	0.00e+00	0	60	0	4663017472	44	4531
2026-01-28 14:53:04.48	336.54	13.02	-37.4	-39.0	15.2	0.00e+00	0	60	0	4692377600	44	4562
2026-01-28 14:53:08.52	336.74	12.64	-37.4	-39.0	15.1	0.00e+00	0	59	0	4720689152	44	4557
2026-01-28 14:53:12.56	336.93	12.26	-37.7	-39.4	14.7	0.00e+00	0	60	0	4750049280	45	4507
2026-01-28 14:53:16.60	337.11	11.89	-37.5	-39.2	14.8	2.20e-06	0	59	0	4779409408	45	4421
2026-01-28 14:53:20.64	337.29	11.53	-37.7	-39.5	14.4	0.00e+00	0	60	0	4808769536	45	4560
2026-01-28 14:53:24.69	337.47	11.17	-38.2	-40.2	13.4	1.14e-05	0	60	0	4838129664	45	4933
2026-01-28 14:53:28.73	337.64	10.81	-38.3	-40.4	13.0	4.34e-05	0	60	0	4866441216	46	4770
2026-01-28 14:53:32.77	337.81	10.46	-38.1	-40.2	13.2	4.00e-05	0	60	0	4895801344	46	4656
2026-01-28 14:53:36.81	337.98	10.12	-37.9	-39.9	13.3	2.17e-05	0	60	0	4925161472	46	4533
2026-01-28 14:53:40.86	338.14	9.78	-37.9	-39.9	13.3	1.83e-05	0	60	0	4954521600	46	4515
2026-01-28 14:53:44.90	338.30	9.44	-38.0	-40.1	13.0	5.03e-05	0	60	0	4983881728	46	4603
2026-01-28 14:53:48.94	338.45	9.11	-37.8	-39.9	13.0	4.23e-05	0	60	0	5013241856	46	4497
2026-01-28 14:53:52.97	338.61	8.78	-38.1	-40.3	12.3	1.48e-04	0	59	0	5041553408	46	4756
2026-01-28 14:53:57.02	338.76	8.46	-38.4	-40.9	11.5	9.47e-04	0	60	0	5070913536	46	5095
2026-01-28 14:54:01.06	338.90	8.14	-39.1	-42.2	10.0	7.79e-03	0	60	0	5100273664	47	5556
2026-01-28 14:54:05.11	339.05	7.82	-45.1	-56.1	3.8	8.46e-01	0	60	104	5111808000	59	13739
2026-01-28 14:54:09.15	339.19	7.51	-45.6	-56.9	3.8	8.46e-01	0	60	104	5111808000	60	14288
2026-01-28 14:54:13.20	339.33	7.20	-45.5	-57.0	3.8	8.47e-01	0	60	104	5111808000	60	14477
2026-01-28 14:54:17.24	339.46	6.90	-45.5	-56.9	3.8	8.46e-01	0	60	104	5111808000	60	14276
2026-01-28 14:54:21.28	339.60	6.60	-45.4	-56.8	3.8	8.46e-01	0	60	104	5111808000	60	14181
2026-01-28 14:54:25.32	339.73	6.30	-45.4	-56.8	3.8	8.45e-01	0	60	104	5111808000	60	14180
2026-01-28 14:54:29.36	339.86	6.01	-45.4	-56.8	3.8	8.46e-01	0	60	104	5111808000	60	14106
2026-01-28 14:54:33.40	339.99	5.72	-45.4	-56.8	3.8	8.46e-01	0	60	104	5111808000	60	14073
2026-01-28 14:54:37.45	340.11	5.43	-45.4	-56.8	3.8	8.46e-01	0	60	104	5111808000	60	14098
2026-01-28 14:54:41.49	340.23	5.14	-45.4	-56.8	3.8	8.47e-01	0	60	104	5111808000	60	14088
2026-01-28 14:54:45.53	340.35	4.86	-45.4	-56.8	3.8	8.46e-01	0	60	104	5111808000	60	14101
2026-01-28 14:54:49.57	340.47	4.58	-45.4	-56.7	3.8	8.46e-01	0	60	104	5111808000	60	14045
2026-01-28 14:54:53.61	340.59	4.31	-45.4	-56.8	3.8	8.47e-01	0	60	104	5111808000	60	14052
2026-01-28 14:54:57.66	340.71	4.03	-45.4	-56.8	3.8	8.46e-01	0	60	104	5111808000	60	14075
2026-01-28 14:55:01.70	340.82	3.76	-45.4	-56.7	3.8	8.46e-01	0	60	104	5111808000	60	14023
2026-01-28 14:55:05.74	340.93	3.49	-45.3	-56.7	3.8	8.45e-01	0	60	104	5111808000	60	14021
2026-01-28 14:55:09.78	341.04	3.23	-45.4	-56.7	3.8	8.46e-01	0	60	104	5111808000	60	14008
2026-01-28 14:55:13.82	341.15	2.96	-45.4	-56.7	3.8	8.45e-01	0	60	104	5111808000	60	14032
2026-01-28 14:55:17.87	341.26	2.70	-45.4	-56.8	3.8	8.45e-01	0	60	104	5111808000	60	14069
2026-01-28 14:55:21.91	341.36	2.44	-45.4	-56.7	3.8	8.46e-01	0	60	104	5111808000	60	13970
2026-01-28 14:55:25.95	341.46	2.19	-45.4	-56.7	3.8	8.47e-01	0	60	104	5111808000	60	14020

#Closed at: 2026-01-28 14:55:29
#Recorded file [5111 MB]: D:/lorett/data/31039_260128_174109.dat