passes_logs/2026/01/28/R2.0S_Moscow/R2.0S_Moscow__20260128_104226_NOAA_20_JPSS-1_rec.log

#Pass ID: 20260128_104226_NOAA 20 (JPSS-1)
#Satellite: NOAA 20 (JPSS-1)
#Configuration: NOAA 20
#almurnet v.1.7.20251203
#Start time: 2026-01-28 10:42:28

#Version: 2.2.20231116
#Station: R2.0S_Moscow
#Location: 37.707566 lon 55.798166 lat
#TLE: 1 43013U 17073A   26027.80586608  .00000156  00000+0  94940-4 0  9998
#TLE: 2 43013  98.7647 328.6108 0000947  21.3465 338.7750 14.19541216424550

#Time	Az	El	Level	Level2	SNR	BER	BlckErr	Temp	State	Recorded	gain1	gain2
2026-01-28 10:42:28.36	183.78	2.12	-44.1	-58.7	3.8	1.49e+00	0	53	0	0	59	19773
2026-01-28 10:42:32.39	183.93	2.37	-44.1	-58.7	3.8	1.49e+00	0	54	104	0	59	19729
2026-01-28 10:42:36.43	184.09	2.62	-44.0	-58.7	3.8	1.49e+00	0	54	104	0	59	19732
2026-01-28 10:42:40.47	184.25	2.88	-44.1	-58.7	3.8	1.49e+00	0	54	104	0	59	19713
2026-01-28 10:42:44.50	184.41	3.14	-44.0	-58.7	3.8	1.49e+00	0	54	104	0	59	19707
2026-01-28 10:42:48.54	184.57	3.40	-44.0	-58.7	3.8	1.49e+00	0	54	104	0	59	19701
2026-01-28 10:42:52.58	184.74	3.66	-44.0	-58.7	3.8	1.49e+00	0	55	104	0	59	19675
2026-01-28 10:42:56.62	184.91	3.93	-44.0	-58.7	3.8	1.49e+00	0	55	104	0	59	19716
2026-01-28 10:43:00.66	185.09	4.20	-44.0	-58.7	3.8	1.49e+00	0	55	104	0	59	19720
2026-01-28 10:43:04.70	185.26	4.47	-44.0	-58.6	3.8	1.49e+00	0	55	104	0	59	19476
2026-01-28 10:43:08.74	185.44	4.74	-44.0	-58.3	3.8	1.49e+00	0	56	104	0	59	18938
2026-01-28 10:43:12.78	185.63	5.02	-44.0	-58.2	3.8	1.49e+00	0	56	104	0	59	18728
2026-01-28 10:43:16.82	185.81	5.29	-44.0	-57.8	3.8	1.49e+00	0	56	104	0	59	17704
2026-01-28 10:43:20.87	186.00	5.58	-43.9	-57.0	3.8	1.49e+00	0	56	104	0	59	16185
2026-01-28 10:43:24.91	186.20	5.86	-43.9	-56.0	3.9	1.47e+00	0	56	104	0	59	14411
2026-01-28 10:43:28.95	186.39	6.15	-43.8	-54.7	4.3	1.32e+00	66	57	0	0	59	12384
2026-01-28 10:43:32.98	186.59	6.44	-43.6	-53.4	4.9	8.03e-01	0	57	0	7340032	59	10695
2026-01-28 10:43:37.03	186.80	6.73	-43.3	-51.4	6.2	3.42e-01	0	57	0	14680064	58	8971
2026-01-28 10:43:41.07	187.01	7.03	-42.9	-49.3	8.0	7.54e-02	0	57	0	22020096	57	7531
2026-01-28 10:43:45.11	187.22	7.32	-42.3	-47.4	10.1	9.08e-03	0	57	0	30408704	56	6373
2026-01-28 10:43:49.16	187.44	7.63	-41.8	-46.4	10.9	2.40e-03	0	57	0	37748736	55	6020
2026-01-28 10:43:53.20	187.66	7.93	-42.1	-47.1	10.1	4.64e-03	0	57	0	45088768	55	6554
2026-01-28 10:43:57.25	187.88	8.24	-43.8	-55.6	3.9	1.30e+00	0	57	104	52428800	58	14640
2026-01-28 10:44:01.29	188.11	8.56	-42.1	-46.9	10.7	5.04e-03	0	57	0	56623104	56	5997
2026-01-28 10:44:05.33	188.35	8.87	-41.7	-46.0	11.4	9.98e-04	0	57	0	63963136	55	5782
2026-01-28 10:44:09.37	188.59	9.19	-41.7	-46.0	11.5	7.66e-04	0	57	0	72351744	55	5724
2026-01-28 10:44:13.41	188.83	9.51	-41.7	-45.9	11.7	6.28e-04	0	57	0	79691776	55	5682
2026-01-28 10:44:17.45	189.08	9.84	-41.8	-46.0	11.6	5.73e-04	0	57	0	87031808	55	5738
2026-01-28 10:44:21.50	189.34	10.17	-41.6	-45.7	11.9	2.78e-04	0	58	0	94371840	55	5540
2026-01-28 10:44:25.54	189.60	10.51	-41.4	-45.3	12.4	1.79e-04	0	58	0	102760448	54	5628
2026-01-28 10:44:29.58	189.87	10.85	-41.3	-45.0	12.6	9.30e-05	0	58	0	110100480	54	5443
2026-01-28 10:44:33.62	190.14	11.19	-41.2	-44.8	12.8	5.18e-05	0	58	0	117440512	54	5338
2026-01-28 10:44:37.66	190.42	11.54	-41.0	-44.5	13.2	3.05e-05	0	58	0	124780544	54	5138
2026-01-28 10:44:41.70	190.70	11.89	-40.9	-44.2	13.4	1.98e-05	0	58	0	132120576	53	5253
2026-01-28 10:44:45.74	190.99	12.25	-40.9	-44.2	13.4	1.06e-05	0	58	0	140509184	53	5274
2026-01-28 10:44:49.78	191.29	12.61	-40.8	-44.1	13.5	1.06e-05	0	58	0	147849216	53	5203
2026-01-28 10:44:53.82	191.60	12.98	-40.8	-44.2	13.5	9.10e-06	0	58	0	155189248	53	5221
2026-01-28 10:44:57.86	191.91	13.35	-40.7	-44.1	13.4	1.37e-05	0	58	0	162529280	53	5179
2026-01-28 10:45:01.90	192.23	13.72	-40.4	-44.0	12.9	4.42e-05	0	58	0	170917888	52	5412
2026-01-28 10:45:05.94	192.56	14.10	-40.0	-43.9	12.0	3.78e-04	0	58	0	178257920	51	5701
2026-01-28 10:45:09.99	192.90	14.49	-39.8	-43.8	11.7	4.81e-04	0	58	0	185597952	51	5650
2026-01-28 10:45:14.03	193.25	14.88	-39.1	-43.8	10.6	3.03e-03	0	59	0	192937984	50	5924
2026-01-28 10:45:18.06	193.60	15.28	-38.5	-43.5	10.2	6.24e-03	0	59	0	201326592	49	6104
2026-01-28 10:45:22.10	193.96	15.68	-38.4	-43.4	10.2	6.89e-03	0	59	0	208666624	48	6409
2026-01-28 10:45:26.14	194.34	16.09	-38.8	-43.3	11.0	1.78e-03	0	59	0	216006656	48	6327
2026-01-28 10:45:30.18	194.72	16.50	-39.5	-43.3	12.3	2.69e-04	0	59	0	223346688	49	5975
2026-01-28 10:45:34.22	195.11	16.92	-39.8	-43.6	12.7	6.79e-05	0	59	0	230686720	50	5827
2026-01-28 10:45:38.25	195.52	17.35	-40.2	-43.7	13.2	1.67e-05	0	59	0	239075328	50	5898
2026-01-28 10:45:42.29	195.93	17.78	-40.4	-43.9	13.4	1.75e-05	0	59	0	246415360	51	5674
2026-01-28 10:45:46.33	196.36	18.22	-40.8	-44.0	13.9	1.50e-06	0	59	0	253755392	52	5420
2026-01-28 10:45:50.37	196.80	18.66	-41.0	-44.3	13.7	6.10e-06	0	59	0	261095424	52	5605
2026-01-28 10:45:54.41	197.25	19.12	-41.1	-44.4	13.7	6.80e-06	0	59	0	269484032	52	5664
2026-01-28 10:45:58.45	197.72	19.57	-41.0	-44.2	13.9	2.20e-06	0	59	0	276824064	52	5530
2026-01-28 10:46:02.49	198.20	20.04	-41.0	-44.1	13.9	2.20e-06	0	59	0	284164096	52	5505
2026-01-28 10:46:06.53	198.69	20.51	-41.1	-44.4	13.7	8.30e-06	0	59	0	291504128	52	5659
2026-01-28 10:46:10.57	199.20	20.99	-41.1	-44.4	13.8	2.20e-06	0	59	0	298844160	52	5671
2026-01-28 10:46:14.62	199.72	21.47	-40.9	-44.0	14.2	0.00e+00	0	59	0	307232768	52	5434
2026-01-28 10:46:18.65	200.26	21.96	-40.9	-43.9	14.3	2.20e-06	0	59	0	314572800	52	5395
2026-01-28 10:46:22.69	200.82	22.46	-40.9	-44.0	14.2	2.20e-06	0	59	0	321912832	52	5444
2026-01-28 10:46:26.73	201.40	22.97	-41.0	-44.0	14.2	7.00e-07	0	59	0	329252864	52	5452
2026-01-28 10:46:30.77	201.99	23.48	-41.1	-44.3	13.9	3.00e-06	0	59	0	337641472	52	5646
2026-01-28 10:46:34.81	202.60	24.00	-41.2	-44.3	13.9	7.00e-07	0	60	0	344981504	52	5647
2026-01-28 10:46:38.85	203.24	24.53	-40.9	-43.8	14.4	1.50e-06	0	59	0	352321536	52	5333
2026-01-28 10:46:42.89	203.89	25.07	-41.0	-44.0	14.2	0.00e+00	0	59	0	359661568	52	5453
2026-01-28 10:46:46.93	204.57	25.61	-41.1	-44.2	14.0	1.50e-06	0	59	0	367001600	52	5586
2026-01-28 10:46:50.97	205.27	26.16	-41.1	-44.3	14.0	4.50e-06	0	59	0	375390208	52	5595
2026-01-28 10:46:55.01	205.99	26.71	-41.3	-44.5	13.8	5.30e-06	0	59	0	382730240	53	5459
2026-01-28 10:46:59.04	206.74	27.27	-41.6	-45.0	13.3	1.52e-05	0	59	0	390070272	53	5765
2026-01-28 10:47:03.08	207.51	27.84	-41.7	-45.3	13.0	5.26e-05	0	59	0	397410304	54	5612
2026-01-28 10:47:07.12	208.32	28.42	-41.9	-45.6	12.8	5.34e-05	0	59	0	405798912	54	5803
2026-01-28 10:47:11.16	209.15	29.00	-42.0	-45.9	12.4	1.23e-04	0	59	0	413138944	54	6008
2026-01-28 10:47:15.20	210.01	29.58	-42.4	-46.7	11.6	6.17e-04	0	59	0	420478976	55	6245
2026-01-28 10:47:19.24	210.90	30.17	-42.3	-46.3	12.0	3.89e-04	0	60	0	427819008	55	5977
2026-01-28 10:47:23.28	211.83	30.77	-42.0	-45.7	12.6	7.55e-05	0	59	0	435159040	55	5569
2026-01-28 10:47:27.32	212.79	31.37	-42.0	-45.7	12.6	1.27e-04	0	60	0	443547648	55	5570
2026-01-28 10:47:31.36	213.78	31.97	-41.8	-45.4	12.9	4.11e-05	0	59	0	450887680	55	5380
2026-01-28 10:47:35.40	214.82	32.58	-41.8	-45.4	13.0	4.11e-05	0	60	0	458227712	55	5345
2026-01-28 10:47:39.44	215.89	33.18	-41.7	-45.3	13.1	4.27e-05	0	60	0	465567744	55	5286
2026-01-28 10:47:43.48	217.00	33.79	-41.7	-45.2	13.2	3.28e-05	0	60	0	473956352	55	5261
2026-01-28 10:47:47.52	218.15	34.40	-41.9	-45.5	12.9	4.42e-05	0	60	0	481296384	55	5417
2026-01-28 10:47:51.56	219.35	35.01	-41.9	-45.5	12.9	6.48e-05	0	60	0	488636416	55	5424
2026-01-28 10:47:55.60	220.59	35.61	-41.2	-44.2	14.2	4.50e-06	0	59	0	495976448	54	4963
2026-01-28 10:47:59.64	221.87	36.21	-41.1	-44.1	14.3	0.00e+00	0	60	0	503316480	53	5193
2026-01-28 10:48:03.68	223.20	36.81	-41.4	-44.7	13.7	1.06e-05	0	60	0	511705088	53	5565
2026-01-28 10:48:07.72	224.59	37.39	-41.0	-44.0	14.4	7.00e-07	0	59	0	519045120	53	5106
2026-01-28 10:48:11.76	226.02	37.97	-42.0	-45.8	12.6	4.65e-05	0	60	0	526385152	54	5940
2026-01-28 10:48:15.80	227.50	38.54	-42.0	-45.8	12.6	1.08e-04	0	60	0	533725184	54	5925
2026-01-28 10:48:19.84	229.03	39.10	-42.3	-46.4	12.0	3.84e-04	0	59	0	542113792	55	6032
2026-01-28 10:48:23.88	230.61	39.64	-42.2	-46.0	12.3	2.86e-04	0	60	0	549453824	55	5787
2026-01-28 10:48:27.92	232.25	40.16	-41.8	-45.3	13.1	3.35e-05	0	60	0	556793856	55	5297
2026-01-28 10:48:31.96	233.94	40.67	-41.9	-45.5	12.9	7.62e-05	0	60	0	564133888	55	5455
2026-01-28 10:48:36.00	235.68	41.15	-42.0	-45.8	12.6	6.56e-05	0	60	0	571473920	55	5604
2026-01-28 10:48:40.04	237.47	41.61	-42.5	-46.7	11.6	8.19e-04	0	60	0	579862528	55	6253
2026-01-28 10:48:44.08	239.31	42.04	-42.7	-47.2	11.2	6.18e-04	0	60	0	587202560	55	6585
2026-01-28 10:48:48.12	241.20	42.45	-42.8	-47.3	11.1	3.40e-03	0	60	0	594542592	57	5986
2026-01-28 10:48:52.16	243.13	42.82	-42.9	-47.5	10.9	1.36e-03	0	60	0	601882624	57	6100
2026-01-28 10:48:56.20	245.11	43.17	-42.6	-46.8	11.7	7.47e-04	0	60	0	610271232	57	5644
2026-01-28 10:49:00.23	247.12	43.47	-43.0	-47.9	10.6	2.34e-03	0	60	0	617611264	56	6725
2026-01-28 10:49:04.27	249.17	43.74	-41.5	-44.7	13.7	7.60e-06	0	60	0	624951296	55	4966
2026-01-28 10:49:08.31	251.25	43.97	-42.4	-46.5	11.9	4.78e-04	0	60	0	632291328	55	6113
2026-01-28 10:49:12.35	253.36	44.16	-42.2	-46.2	12.2	2.11e-04	0	60	0	639631360	55	5867
2026-01-28 10:49:16.38	255.49	44.31	-42.9	-47.4	11.1	1.09e-03	0	60	0	648019968	56	6369
2026-01-28 10:49:20.42	257.64	44.41	-42.3	-46.0	12.5	1.58e-04	0	60	0	655360000	56	5462
2026-01-28 10:49:24.46	259.80	44.47	-42.3	-46.1	12.5	1.11e-04	0	60	0	662700032	56	5500
2026-01-28 10:49:28.50	261.97	44.49	-42.1	-45.7	12.9	5.03e-05	0	60	0	670040064	56	5267
2026-01-28 10:49:32.54	264.13	44.46	-41.7	-45.1	13.4	1.90e-05	0	60	0	678428672	55	5184
2026-01-28 10:49:36.58	266.29	44.39	-41.7	-45.2	13.3	1.98e-05	0	60	0	685768704	55	5228
2026-01-28 10:49:40.62	268.43	44.27	-41.1	-44.1	14.3	7.00e-07	0	60	0	693108736	53	5212
2026-01-28 10:49:44.66	270.56	44.11	-41.9	-45.4	12.9	5.95e-05	0	60	0	700448768	54	5709
2026-01-28 10:49:48.70	272.66	43.91	-41.6	-44.9	13.6	8.30e-06	0	60	0	708837376	54	5370
2026-01-28 10:49:52.74	274.73	43.67	-41.9	-45.4	13.0	2.59e-05	0	60	0	716177408	54	5719
2026-01-28 10:49:56.78	276.77	43.39	-42.2	-46.1	12.3	1.92e-04	0	60	0	723517440	55	5789
2026-01-28 10:50:00.82	278.77	43.08	-42.3	-46.2	12.2	4.64e-04	0	60	0	730857472	55	5916
2026-01-28 10:50:04.87	280.74	42.73	-42.1	-45.9	12.4	6.94e-05	0	60	0	738197504	55	5719
2026-01-28 10:50:08.91	282.65	42.34	-41.6	-44.9	13.5	9.90e-06	0	60	0	746586112	55	5082
2026-01-28 10:50:12.95	284.52	41.93	-41.7	-45.2	13.3	4.88e-05	0	60	0	753926144	55	5219
2026-01-28 10:50:16.99	286.35	41.49	-41.6	-45.0	13.4	1.22e-05	0	60	0	761266176	54	5446
2026-01-28 10:50:21.03	288.12	41.03	-40.9	-43.8	14.6	0.00e+00	0	60	0	768606208	53	5020
2026-01-28 10:50:25.07	289.84	40.54	-41.2	-44.2	14.3	2.20e-06	0	60	0	776994816	54	4933
2026-01-28 10:50:29.12	291.51	40.03	-41.4	-44.7	13.8	6.80e-06	0	60	0	784334848	54	5223
2026-01-28 10:50:33.15	293.12	39.50	-40.9	-43.7	14.7	7.00e-07	0	60	0	791674880	53	4979
2026-01-28 10:50:37.19	294.69	38.96	-41.4	-44.6	13.8	4.50e-06	0	60	0	799014912	53	5487
2026-01-28 10:50:41.23	296.20	38.41	-41.5	-44.7	13.7	1.75e-05	0	60	0	806354944	54	5272
2026-01-28 10:50:45.27	297.66	37.84	-41.4	-44.6	13.8	3.80e-06	0	60	0	814743552	54	5179
2026-01-28 10:50:49.31	299.08	37.26	-40.9	-43.8	14.6	0.00e+00	0	60	0	822083584	53	5040
2026-01-28 10:50:53.35	300.44	36.67	-41.3	-44.5	13.9	5.30e-06	0	60	0	829423616	53	5431
2026-01-28 10:50:57.39	301.76	36.08	-40.8	-43.7	14.7	0.00e+00	0	60	0	836763648	53	4937
2026-01-28 10:51:01.43	303.03	35.48	-40.5	-43.2	15.2	0.00e+00	0	60	0	844103680	52	4939
2026-01-28 10:51:05.46	304.25	34.88	-41.4	-44.6	13.7	9.90e-06	0	60	0	852492288	53	5494
2026-01-28 10:51:09.50	305.43	34.28	-41.8	-45.3	13.0	1.22e-05	0	60	0	859832320	54	5648
2026-01-28 10:51:13.54	306.56	33.68	-41.8	-45.3	13.0	1.29e-04	0	60	0	867172352	55	5322
2026-01-28 10:51:17.58	307.66	33.07	-42.0	-45.8	12.6	7.93e-05	0	60	0	874512384	54	5928
2026-01-28 10:51:21.62	308.72	32.47	-41.3	-44.4	13.9	8.30e-06	0	60	0	882900992	54	5075
2026-01-28 10:51:25.66	309.74	31.87	-42.5	-46.9	11.4	2.17e-04	0	60	0	890241024	55	6380
2026-01-28 10:51:29.70	310.72	31.27	-41.5	-44.8	13.5	7.09e-05	0	60	0	897581056	54	5281
2026-01-28 10:51:33.74	311.67	30.68	-41.7	-45.2	13.1	5.30e-06	0	60	0	904921088	53	5884
2026-01-28 10:51:37.78	312.59	30.09	-41.8	-45.5	12.7	1.62e-04	0	60	0	912261120	55	5418
2026-01-28 10:51:41.82	313.47	29.50	-40.7	-43.5	14.8	0.00e+00	0	60	0	920649728	53	4870
2026-01-28 10:51:45.86	314.32	28.92	-42.0	-45.7	12.5	2.85e-04	0	60	0	927989760	55	5590
2026-01-28 10:51:49.91	315.14	28.35	-40.2	-42.7	15.6	0.00e+00	0	60	0	935329792	52	4676
2026-01-28 10:51:53.94	315.94	27.78	-41.3	-44.6	13.6	3.80e-06	0	60	0	942669824	53	5505
2026-01-28 10:51:57.98	316.70	27.21	-41.1	-44.3	14.0	3.00e-06	0	60	0	951058432	54	4985
2026-01-28 10:52:02.02	317.45	26.66	-40.7	-43.5	14.7	0.00e+00	0	60	0	958398464	53	4867
2026-01-28 10:52:06.06	318.16	26.11	-41.3	-44.6	13.6	7.60e-06	0	60	0	965738496	53	5505
2026-01-28 10:52:10.10	318.85	25.57	-40.5	-43.3	14.9	0.00e+00	0	60	0	973078528	53	4737
2026-01-28 10:52:14.14	319.52	25.03	-40.7	-43.6	14.6	0.00e+00	0	60	0	980418560	52	5211
2026-01-28 10:52:18.18	320.17	24.50	-41.0	-44.0	14.2	3.00e-06	0	60	0	988807168	52	5442
2026-01-28 10:52:22.21	320.80	23.98	-41.0	-44.1	14.1	1.50e-06	0	60	0	996147200	52	5490
2026-01-28 10:52:26.26	321.41	23.46	-40.6	-43.5	14.7	7.00e-07	0	60	0	1003487232	52	5121
2026-01-28 10:52:30.30	322.00	22.95	-40.6	-43.5	14.7	0.00e+00	0	60	0	1010827264	52	5123
2026-01-28 10:52:34.34	322.57	22.45	-40.9	-43.9	14.2	7.00e-07	0	60	0	1019215872	52	5353
2026-01-28 10:52:38.38	323.12	21.96	-41.0	-44.2	13.9	3.80e-06	0	60	0	1026555904	52	5543
2026-01-28 10:52:42.42	323.66	21.47	-41.1	-44.3	13.8	2.20e-06	0	60	0	1033895936	52	5636
2026-01-28 10:52:46.46	324.18	20.99	-41.1	-44.4	13.7	3.80e-06	0	60	0	1041235968	52	5666
2026-01-28 10:52:50.50	324.68	20.52	-41.4	-44.9	13.2	1.98e-05	0	60	0	1049624576	53	5698
2026-01-28 10:52:54.54	325.18	20.05	-41.5	-45.0	13.0	3.89e-05	0	60	0	1056964608	53	5748
2026-01-28 10:52:58.58	325.65	19.59	-41.2	-44.6	13.4	1.98e-05	0	60	0	1064304640	53	5500
2026-01-28 10:53:02.62	326.11	19.14	-41.0	-44.2	13.8	5.30e-06	0	60	0	1071644672	53	5222
2026-01-28 10:53:06.66	326.56	18.69	-40.9	-44.1	13.9	2.20e-06	0	60	0	1078984704	53	5165
2026-01-28 10:53:10.69	327.00	18.25	-41.1	-44.5	13.5	4.50e-06	0	60	0	1087373312	53	5409
2026-01-28 10:53:14.73	327.43	17.82	-41.1	-44.5	13.4	8.30e-06	0	60	0	1094713344	53	5444
2026-01-28 10:53:18.77	327.84	17.39	-41.0	-44.3	13.6	9.90e-06	0	60	0	1102053376	53	5332
2026-01-28 10:53:22.81	328.25	16.97	-41.1	-44.4	13.5	1.44e-05	0	60	0	1109393408	53	5368
2026-01-28 10:53:26.85	328.64	16.55	-41.3	-44.9	12.9	4.27e-05	0	60	0	1117782016	53	5718
2026-01-28 10:53:30.89	329.02	16.14	-41.6	-45.4	12.4	1.56e-04	0	60	0	1125122048	53	6044
2026-01-28 10:53:34.93	329.39	15.74	-41.5	-45.4	12.4	1.61e-04	0	60	0	1132462080	53	6015
2026-01-28 10:53:38.97	329.76	15.34	-41.3	-45.0	12.8	7.01e-05	0	60	0	1139802112	53	5752
2026-01-28 10:53:43.01	330.11	14.95	-41.3	-44.9	12.9	4.19e-05	0	60	0	1147142144	53	5668
2026-01-28 10:53:47.05	330.46	14.56	-41.2	-44.7	13.1	2.28e-05	0	60	0	1155530752	53	5535
2026-01-28 10:53:51.09	330.79	14.18	-41.2	-44.8	13.0	3.96e-05	0	60	0	1162870784	53	5595
2026-01-28 10:53:55.13	331.12	13.80	-41.2	-44.8	12.9	5.11e-05	0	60	0	1170210816	53	5635
2026-01-28 10:53:59.17	331.44	13.43	-41.3	-45.0	12.6	8.31e-05	0	60	0	1177550848	53	5782
2026-01-28 10:54:03.21	331.76	13.06	-41.4	-45.3	12.3	1.78e-04	0	60	0	1185939456	53	5950
2026-01-28 10:54:07.25	332.07	12.70	-41.5	-45.5	12.1	3.09e-04	0	60	0	1193279488	53	6131
2026-01-28 10:54:11.28	332.36	12.34	-41.5	-45.6	12.0	3.42e-04	0	60	0	1200619520	53	6179
2026-01-28 10:54:15.33	332.66	11.99	-41.6	-45.7	11.7	4.25e-04	0	60	0	1207959552	53	6218
2026-01-28 10:54:19.37	332.94	11.64	-41.6	-45.8	11.2	1.38e-03	0	60	0	1215299584	53	6343
2026-01-28 10:54:23.41	333.23	11.29	-41.7	-46.0	11.2	1.34e-03	0	60	0	1223688192	53	6475
2026-01-28 10:54:27.45	333.50	10.95	-41.8	-46.4	10.7	2.69e-03	0	60	0	1231028224	54	6382
2026-01-28 10:54:31.49	333.77	10.62	-41.8	-46.6	10.0	5.69e-03	0	60	0	1238368256	54	6539
2026-01-28 10:54:35.53	334.03	10.28	-40.9	-46.2	7.0	1.30e-01	0	60	0	1245708288	53	6620
2026-01-28 10:54:39.57	334.29	9.96	-39.6	-45.3	5.3	5.03e-01	0	60	0	1254096896	51	6695
2026-01-28 10:54:43.61	334.54	9.63	-39.3	-45.4	4.9	1.49e+00	0	60	104	1258291200	49	7616
2026-01-28 10:54:47.65	334.79	9.31	-39.7	-45.5	5.3	5.11e-01	0	60	0	1263534080	50	7265
2026-01-28 10:54:51.69	335.03	8.99	-41.4	-46.9	7.5	1.40e-01	0	60	0	1270874112	53	7145
2026-01-28 10:54:55.73	335.27	8.68	-41.3	-46.8	7.3	6.32e-01	0	60	0	1276116992	54	6670
2026-01-28 10:54:59.76	335.50	8.37	-41.6	-46.5	10.0	9.48e-03	0	60	0	1283457024	54	6485
2026-01-28 10:55:03.80	335.73	8.07	-41.9	-47.2	9.6	9.72e-03	0	60	0	1290797056	54	7020
2026-01-28 10:55:07.85	335.95	7.76	-44.8	-59.6	3.8	1.49e+00	0	60	104	1292894208	60	20676
2026-01-28 10:55:11.89	336.17	7.46	-45.2	-60.0	3.8	1.49e+00	0	60	104	1292894208	60	21726
2026-01-28 10:55:15.93	336.38	7.16	-45.2	-60.1	3.8	1.49e+00	0	60	104	1292894208	60	21793
2026-01-28 10:55:19.97	336.60	6.87	-45.1	-59.9	3.8	1.49e+00	0	60	104	1292894208	61	20280
2026-01-28 10:55:24.01	336.80	6.58	-45.1	-60.0	3.8	1.49e+00	0	60	104	1292894208	61	20308
2026-01-28 10:55:28.05	337.01	6.29	-44.8	-60.0	3.8	1.49e+00	0	60	104	1292894208	60	21513
2026-01-28 10:55:32.10	337.21	6.01	-45.1	-60.0	3.8	1.49e+00	0	60	104	1292894208	60	21508
2026-01-28 10:55:36.14	337.41	5.73	-45.1	-59.9	3.8	1.49e+00	0	60	104	1292894208	60	21446
2026-01-28 10:55:40.18	337.60	5.45	-45.1	-59.9	3.8	1.49e+00	0	60	104	1292894208	60	21429
2026-01-28 10:55:44.22	337.79	5.17	-45.1	-59.9	3.8	1.49e+00	0	60	104	1292894208	60	21404
2026-01-28 10:55:48.26	337.98	4.90	-45.1	-59.9	3.8	1.49e+00	0	60	104	1292894208	60	21420
2026-01-28 10:55:52.30	338.16	4.63	-44.9	-59.9	3.8	1.49e+00	0	60	104	1292894208	60	21381
2026-01-28 10:55:56.34	338.34	4.36	-45.0	-59.9	3.8	1.49e+00	0	60	104	1292894208	60	21381
2026-01-28 10:56:00.39	338.52	4.09	-45.1	-59.9	3.8	1.49e+00	0	60	104	1292894208	60	21325
2026-01-28 10:56:04.43	338.69	3.83	-45.0	-59.9	3.8	1.49e+00	0	60	104	1292894208	60	21411
2026-01-28 10:56:08.47	338.87	3.57	-45.1	-59.9	3.8	1.49e+00	0	60	104	1292894208	60	21416
2026-01-28 10:56:12.51	339.04	3.31	-45.0	-59.9	3.8	1.49e+00	0	60	104	1292894208	60	21364
2026-01-28 10:56:16.56	339.20	3.05	-45.0	-59.9	3.8	1.49e+00	0	60	104	1292894208	60	21356
2026-01-28 10:56:20.60	339.37	2.80	-44.9	-59.9	3.8	1.49e+00	0	60	104	1292894208	60	21420
2026-01-28 10:56:24.64	339.53	2.54	-45.0	-59.9	3.8	1.49e+00	0	60	104	1292894208	60	21349
2026-01-28 10:56:28.68	339.69	2.29	-45.0	-59.9	3.8	1.49e+00	0	60	104	1292894208	60	21307
2026-01-28 10:56:32.73	339.85	2.04	-45.0	-59.9	3.8	1.49e+00	0	60	104	1292894208	60	21415

#Closed at: 2026-01-28 10:56:34
#Recorded file [1292 MB]: D:/lorett/data/31039_260128_134228.dat