passes_logs/2026/01/28/R2.0S_Moscow/R2.0S_Moscow__20260128_005143_NOAA_20_JPSS-1_rec.log

#Pass ID: 20260128_005143_NOAA 20 (JPSS-1)
#Satellite: NOAA 20 (JPSS-1)
#Configuration: NOAA 20
#almurnet v.1.7.20251203
#Start time: 2026-01-28 00:51:44

#Version: 2.2.20231116
#Station: R2.0S_Moscow
#Location: 37.707566 lon 55.798166 lat
#TLE: 1 43013U 17073A   26027.45344144  .00000161  00000+0  97205-4 0  9999
#TLE: 2 43013  98.7647 328.2621 0000962  21.7793 338.3424 14.19541101424503

#Time	Az	El	Level	Level2	SNR	BER	BlckErr	Temp	State	Recorded	gain1	gain2
2026-01-28 00:51:44.56	11.65	2.08	-40.0	-54.4	3.8	1.49e+00	0	53	0	0	51	19011
2026-01-28 00:51:48.60	11.47	2.32	-39.9	-54.4	3.8	1.49e+00	0	54	104	0	51	18949
2026-01-28 00:51:52.65	11.27	2.57	-39.9	-54.3	3.8	1.49e+00	0	54	104	0	51	18936
2026-01-28 00:51:56.69	11.08	2.82	-39.9	-54.3	3.8	1.49e+00	0	54	104	0	51	18911
2026-01-28 00:52:00.73	10.88	3.07	-39.9	-54.3	3.8	1.49e+00	0	55	104	0	51	18893
2026-01-28 00:52:04.77	10.68	3.32	-39.9	-54.3	3.8	1.49e+00	0	55	104	0	51	18947
2026-01-28 00:52:08.82	10.47	3.57	-39.9	-54.3	3.8	1.49e+00	0	55	104	0	51	18929
2026-01-28 00:52:12.86	10.26	3.83	-39.9	-54.3	3.8	1.49e+00	0	55	104	0	51	18927
2026-01-28 00:52:16.90	10.05	4.09	-39.9	-54.3	3.8	1.49e+00	0	56	104	0	51	18921
2026-01-28 00:52:20.94	9.83	4.35	-39.9	-54.4	3.8	1.49e+00	0	56	104	0	51	18973
2026-01-28 00:52:24.98	9.61	4.61	-39.9	-54.3	3.8	1.49e+00	0	56	104	0	51	18896
2026-01-28 00:52:29.03	9.38	4.87	-39.9	-54.3	3.8	1.49e+00	0	56	104	0	51	18885
2026-01-28 00:52:33.07	9.15	5.14	-39.9	-54.3	3.8	1.49e+00	0	57	104	0	51	18884
2026-01-28 00:52:37.11	8.91	5.41	-39.9	-54.3	3.8	1.49e+00	0	57	104	0	51	18892
2026-01-28 00:52:41.15	8.67	5.68	-39.9	-54.3	3.8	1.49e+00	0	57	104	0	51	18876
2026-01-28 00:52:45.19	8.43	5.95	-39.9	-54.3	3.8	1.49e+00	0	57	104	0	51	18839
2026-01-28 00:52:49.23	8.18	6.22	-39.9	-54.3	3.8	1.49e+00	0	57	104	0	51	18817
2026-01-28 00:52:53.27	7.92	6.50	-39.9	-54.3	3.8	1.49e+00	0	57	104	0	51	18846
2026-01-28 00:52:57.32	7.66	6.78	-39.9	-54.3	3.8	1.49e+00	0	58	104	0	51	18861
2026-01-28 00:53:01.36	7.40	7.06	-39.9	-54.3	3.8	1.49e+00	0	58	104	0	51	18852
2026-01-28 00:53:05.40	7.12	7.35	-39.9	-54.3	3.8	1.49e+00	0	58	104	0	51	18842
2026-01-28 00:53:09.44	6.85	7.63	-39.9	-54.3	3.8	1.49e+00	0	58	104	0	51	18830
2026-01-28 00:53:13.49	6.56	7.92	-39.9	-54.3	3.8	1.49e+00	0	58	104	0	51	18860
2026-01-28 00:53:17.53	6.27	8.22	-40.0	-54.4	3.8	1.49e+00	0	58	104	0	51	19103
2026-01-28 00:53:21.57	5.98	8.51	-40.0	-54.4	3.8	1.49e+00	0	59	104	0	51	19103
2026-01-28 00:53:25.60	5.68	8.81	-40.0	-54.4	3.8	1.49e+00	0	59	104	0	51	19077
2026-01-28 00:53:29.65	5.37	9.11	-40.0	-54.4	3.8	1.49e+00	0	59	104	0	51	19124
2026-01-28 00:53:33.69	5.06	9.41	-40.0	-54.4	3.8	1.49e+00	0	59	104	0	51	19123
2026-01-28 00:53:37.73	4.73	9.72	-40.0	-54.5	3.8	1.49e+00	0	59	104	0	51	19209
2026-01-28 00:53:41.77	4.41	10.03	-40.1	-54.5	3.8	1.49e+00	0	59	104	0	51	19258
2026-01-28 00:53:45.81	4.07	10.34	-40.1	-54.6	3.8	1.49e+00	0	59	104	0	51	19395
2026-01-28 00:53:49.85	3.73	10.66	-40.2	-54.6	3.8	1.49e+00	0	59	104	0	51	19533
2026-01-28 00:53:53.89	3.37	10.98	-40.0	-54.5	3.8	1.49e+00	0	59	104	0	51	19179
2026-01-28 00:53:57.92	3.01	11.30	-40.7	-55.1	3.8	1.49e+00	0	59	104	0	52	19608
2026-01-28 00:54:01.96	2.65	11.62	-40.1	-54.5	3.8	1.49e+00	0	59	104	0	52	18294
2026-01-28 00:54:06.00	2.27	11.95	-41.1	-55.5	3.8	1.49e+00	0	59	104	0	52	20405
2026-01-28 00:54:10.04	1.88	12.28	-40.3	-54.7	3.8	1.49e+00	0	60	104	0	52	18552
2026-01-28 00:54:14.08	1.49	12.61	-42.1	-55.7	3.8	1.49e+00	0	59	104	0	54	18573
2026-01-28 00:54:18.12	1.09	12.95	-40.4	-54.7	3.8	1.49e+00	0	60	104	0	52	18583
2026-01-28 00:54:22.16	0.67	13.29	-42.9	-54.2	3.9	8.28e-01	0	60	104	0	56	13963
2026-01-28 00:54:26.20	0.25	13.63	-41.7	-48.0	8.1	7.41e-02	0	60	0	5242880	55	7216
2026-01-28 00:54:30.24	359.81	13.98	-40.6	-45.0	11.3	2.05e-03	0	60	0	12582912	53	5737
2026-01-28 00:54:34.28	359.37	14.33	-40.9	-45.4	11.0	1.80e-03	0	60	0	19922944	53	5996
2026-01-28 00:54:38.32	358.91	14.68	-41.0	-45.4	11.2	1.68e-03	0	60	0	28311552	53	6018
2026-01-28 00:54:42.36	358.45	15.04	-41.1	-45.3	11.6	7.39e-04	0	60	0	35651584	53	5930
2026-01-28 00:54:46.40	357.97	15.40	-41.3	-45.7	11.2	1.20e-03	0	60	0	42991616	53	6205
2026-01-28 00:54:50.44	357.48	15.76	-41.1	-45.5	11.1	1.16e-03	0	61	0	50331648	53	6128
2026-01-28 00:54:54.48	356.97	16.13	-40.8	-45.1	11.4	1.15e-03	0	60	0	58720256	53	5813
2026-01-28 00:54:58.52	356.46	16.50	-41.0	-46.4	9.4	7.46e-03	0	60	0	66060288	53	6771
2026-01-28 00:55:02.57	355.93	16.87	-41.3	-50.9	4.8	5.17e-01	0	61	0	73400320	53	11400
2026-01-28 00:55:06.61	355.38	17.24	-41.0	-55.1	3.8	1.49e+00	0	61	104	74448896	53	18325
2026-01-28 00:55:10.65	354.83	17.62	-41.0	-55.4	3.8	1.49e+00	0	61	104	74448896	54	18001
2026-01-28 00:55:14.69	354.25	18.00	-40.7	-55.2	3.8	1.49e+00	0	61	104	74448896	53	18575
2026-01-28 00:55:18.72	353.67	18.39	-40.7	-55.1	3.8	1.49e+00	0	61	104	74448896	53	18434
2026-01-28 00:55:22.76	353.07	18.78	-40.7	-55.1	3.8	1.49e+00	0	61	104	74448896	53	18469
2026-01-28 00:55:26.80	352.45	19.17	-40.7	-55.1	3.8	1.49e+00	0	61	104	74448896	53	18442
2026-01-28 00:55:30.84	351.81	19.56	-40.8	-55.1	3.8	1.49e+00	0	61	104	74448896	53	18490
2026-01-28 00:55:34.88	351.16	19.95	-40.8	-55.2	3.8	1.49e+00	0	61	104	74448896	53	18655
2026-01-28 00:55:38.93	350.49	20.35	-40.9	-55.2	3.8	1.49e+00	0	61	104	74448896	53	18711
2026-01-28 00:55:42.97	349.80	20.75	-41.9	-52.7	4.3	1.39e+00	0	61	0	74448896	54	13246
2026-01-28 00:55:47.01	349.10	21.15	-42.1	-50.1	5.9	4.44e-01	0	61	0	80740352	54	9821
2026-01-28 00:55:51.05	348.38	21.56	-41.1	-51.3	4.5	7.96e-02	10	61	0	88080384	54	11179
2026-01-28 00:55:55.09	347.63	21.96	-40.7	-45.1	11.2	1.20e-03	0	61	0	96468992	53	5801
2026-01-28 00:55:59.13	346.87	22.37	-40.9	-45.0	11.7	7.23e-04	0	61	0	103809024	53	5729
2026-01-28 00:56:03.17	346.08	22.77	-41.2	-45.4	11.6	4.91e-04	0	61	0	111149056	53	6006
2026-01-28 00:56:07.21	345.28	23.18	-41.6	-45.7	11.7	1.10e-03	0	61	0	118489088	54	5898
2026-01-28 00:56:11.25	344.45	23.59	-41.9	-46.1	11.5	9.33e-04	0	61	0	125829120	54	6164
2026-01-28 00:56:15.29	343.60	23.99	-41.9	-45.9	11.9	4.22e-04	0	61	0	134217728	54	6051
2026-01-28 00:56:19.33	342.73	24.40	-41.8	-45.8	12.2	2.49e-04	0	61	0	141557760	54	5940
2026-01-28 00:56:23.37	341.84	24.80	-41.9	-45.8	12.1	2.51e-04	0	61	0	148897792	54	5992
2026-01-28 00:56:27.41	340.92	25.21	-41.8	-45.4	12.6	1.17e-04	0	61	0	156237824	54	5717
2026-01-28 00:56:31.44	339.98	25.61	-41.6	-45.0	13.1	2.36e-05	0	61	0	164626432	54	5441
2026-01-28 00:56:35.48	339.01	26.00	-41.7	-45.3	12.9	4.57e-05	0	62	0	171966464	54	5612
2026-01-28 00:56:39.52	338.02	26.40	-41.6	-45.1	13.1	3.05e-05	0	61	0	179306496	54	5504
2026-01-28 00:56:43.57	337.00	26.79	-41.4	-44.7	13.6	1.22e-05	0	61	0	186646528	54	5235
2026-01-28 00:56:47.60	335.96	27.18	-41.7	-45.2	13.0	4.42e-05	0	62	0	195035136	54	5581
2026-01-28 00:56:51.64	334.89	27.56	-41.7	-45.2	13.1	1.83e-05	0	62	0	202375168	54	5529
2026-01-28 00:56:55.69	333.80	27.93	-42.1	-45.9	12.4	1.25e-04	0	62	0	209715200	54	5998
2026-01-28 00:56:59.72	332.68	28.30	-42.4	-46.5	11.7	5.56e-04	0	61	0	217055232	55	6121
2026-01-28 00:57:03.76	331.53	28.66	-42.7	-47.2	11.0	1.64e-03	0	61	0	224395264	55	6607
2026-01-28 00:57:07.80	330.36	29.01	-42.9	-47.6	10.7	2.63e-03	0	62	0	232783872	56	6553
2026-01-28 00:57:11.84	329.17	29.36	-43.0	-47.9	10.5	3.69e-03	0	62	0	240123904	56	6733
2026-01-28 00:57:15.88	327.94	29.69	-43.3	-48.6	9.7	1.21e-02	0	61	0	247463936	57	6943
2026-01-28 00:57:19.92	326.69	30.01	-43.3	-48.4	9.9	8.88e-03	0	61	0	254803968	57	6760
2026-01-28 00:57:23.96	325.42	30.32	-42.9	-47.5	10.9	2.41e-03	0	62	0	263192576	57	6068
2026-01-28 00:57:28.00	324.12	30.61	-43.0	-47.7	10.6	2.66e-03	0	62	0	270532608	57	6264
2026-01-28 00:57:32.04	322.80	30.89	-42.8	-47.3	11.0	1.51e-03	0	62	0	277872640	57	5988
2026-01-28 00:57:36.08	321.46	31.16	-42.7	-46.9	11.6	8.16e-04	0	62	0	285212672	57	5684
2026-01-28 00:57:40.12	320.09	31.41	-42.6	-46.8	11.6	1.01e-03	0	62	0	292552704	57	5631
2026-01-28 00:57:44.16	318.70	31.65	-42.5	-46.5	11.9	2.91e-04	0	62	0	300941312	56	5751
2026-01-28 00:57:48.20	317.30	31.86	-42.9	-47.4	11.0	1.56e-03	0	62	0	308281344	56	6358
2026-01-28 00:57:52.24	315.87	32.06	-42.7	-46.9	11.5	9.21e-04	0	62	0	315621376	56	6031
2026-01-28 00:57:56.29	314.42	32.24	-42.6	-46.8	11.7	6.77e-04	0	62	0	322961408	56	5951
2026-01-28 00:58:00.33	312.97	32.40	-42.6	-46.7	11.8	5.45e-04	0	62	0	331350016	56	5910
2026-01-28 00:58:04.37	311.50	32.54	-42.1	-45.7	12.7	9.53e-05	0	62	0	338690048	56	5278
2026-01-28 00:58:08.41	310.01	32.66	-41.7	-45.0	13.3	1.29e-05	0	62	0	346030080	55	5145
2026-01-28 00:58:12.45	308.52	32.76	-42.1	-45.9	12.4	8.62e-05	0	62	0	353370112	55	5686
2026-01-28 00:58:16.49	307.02	32.83	-42.2	-46.1	12.2	2.49e-04	0	62	0	360710144	55	5824
2026-01-28 00:58:20.53	305.51	32.88	-42.3	-46.4	11.9	3.76e-04	0	62	0	369098752	55	5996
2026-01-28 00:58:24.57	304.00	32.91	-42.5	-46.8	11.4	9.63e-04	0	62	0	376438784	55	6338
2026-01-28 00:58:28.61	302.48	32.92	-42.5	-46.8	11.5	8.32e-04	0	62	0	383778816	55	6298
2026-01-28 00:58:32.64	300.98	32.91	-42.4	-46.7	11.5	7.40e-04	0	62	0	391118848	55	6210
2026-01-28 00:58:36.69	299.46	32.87	-42.2	-46.0	12.3	2.05e-04	0	62	0	399507456	55	5744
2026-01-28 00:58:40.73	297.95	32.81	-42.4	-46.5	11.7	5.26e-04	0	62	0	406847488	55	6131
2026-01-28 00:58:44.76	296.46	32.73	-42.9	-47.5	10.9	2.19e-03	0	62	0	414187520	56	6454
2026-01-28 00:58:48.80	294.97	32.62	-42.5	-46.6	11.8	6.34e-04	0	62	0	421527552	56	5822
2026-01-28 00:58:52.84	293.49	32.50	-42.7	-47.0	11.5	6.64e-04	0	62	0	428867584	56	6074
2026-01-28 00:58:56.88	292.02	32.35	-42.8	-47.2	11.2	1.93e-03	0	62	0	437256192	56	6222
2026-01-28 00:59:00.92	290.56	32.18	-42.5	-46.6	11.8	5.07e-04	0	62	0	444596224	56	5841
2026-01-28 00:59:04.96	289.12	32.00	-42.7	-47.1	11.4	8.44e-04	0	62	0	451936256	56	6136
2026-01-28 00:59:08.99	287.70	31.79	-42.9	-47.5	10.9	2.46e-03	0	62	0	459276288	56	6465
2026-01-28 00:59:13.03	286.30	31.57	-42.8	-47.3	11.1	1.37e-03	0	62	0	467664896	56	6313
2026-01-28 00:59:17.07	284.92	31.33	-42.8	-47.3	11.1	1.75e-03	0	62	0	475004928	56	6310
2026-01-28 00:59:21.11	283.55	31.07	-42.6	-46.9	11.6	7.43e-04	0	62	0	482344960	56	5994
2026-01-28 00:59:25.14	282.22	30.80	-43.0	-47.7	10.7	3.61e-03	0	62	0	489684992	56	6620
2026-01-28 00:59:29.18	280.90	30.51	-42.7	-47.1	11.2	1.66e-03	0	62	0	497025024	56	6164
2026-01-28 00:59:33.22	279.61	30.21	-42.9	-47.7	10.7	3.06e-03	0	62	0	505413632	56	6577
2026-01-28 00:59:37.26	278.34	29.90	-42.8	-47.4	11.0	2.11e-03	0	62	0	512753664	56	6348
2026-01-28 00:59:41.30	277.09	29.57	-42.6	-47.0	11.4	1.23e-03	0	62	0	520093696	56	6063
2026-01-28 00:59:45.34	275.87	29.24	-42.6	-46.8	11.6	6.67e-04	0	62	0	527433728	56	5952
2026-01-28 00:59:49.38	274.68	28.89	-42.5	-46.6	11.7	7.09e-04	0	62	0	535822336	56	5844
2026-01-28 00:59:53.42	273.51	28.54	-42.3	-46.3	12.1	2.73e-04	0	62	0	543162368	56	5613
2026-01-28 00:59:57.46	272.37	28.17	-42.6	-46.9	11.4	9.89e-04	0	62	0	550502400	56	6048
2026-01-28 01:00:01.50	271.26	27.80	-42.2	-46.2	12.2	2.74e-04	0	62	0	557842432	56	5540
2026-01-28 01:00:05.54	270.17	27.42	-42.1	-45.8	12.6	1.37e-04	0	62	0	565182464	56	5308
2026-01-28 01:00:09.58	269.10	27.04	-42.1	-45.8	12.6	1.11e-04	0	62	0	573571072	56	5328
2026-01-28 01:00:13.62	268.07	26.65	-41.8	-45.4	12.8	5.56e-05	0	62	0	580911104	55	5344
2026-01-28 01:00:17.66	267.05	26.25	-41.7	-45.2	13.0	3.50e-05	0	62	0	588251136	55	5251
2026-01-28 01:00:21.69	266.07	25.86	-41.2	-44.3	13.9	9.10e-06	0	62	0	595591168	54	5028
2026-01-28 01:00:25.73	265.10	25.46	-40.9	-43.8	14.4	0.00e+00	0	62	0	603979776	53	5023
2026-01-28 01:00:29.77	264.17	25.05	-40.5	-43.2	15.0	0.00e+00	0	62	0	611319808	53	4680
2026-01-28 01:00:33.81	263.25	24.65	-40.3	-42.9	15.3	0.00e+00	0	62	0	618659840	52	4808
2026-01-28 01:00:37.85	262.36	24.24	-40.3	-42.9	15.3	0.00e+00	0	62	0	625999872	52	4793
2026-01-28 01:00:41.89	261.49	23.83	-40.0	-42.5	15.7	0.00e+00	0	62	0	633339904	52	4593
2026-01-28 01:00:45.93	260.65	23.42	-40.0	-42.4	15.8	0.00e+00	0	62	0	641728512	51	4803
2026-01-28 01:00:49.97	259.82	23.01	-39.9	-42.3	16.0	0.00e+00	0	62	0	649068544	51	4744
2026-01-28 01:00:54.01	259.02	22.61	-39.9	-42.3	16.0	0.00e+00	0	62	0	656408576	51	4743
2026-01-28 01:00:58.05	258.24	22.20	-40.0	-42.4	15.8	0.00e+00	0	62	0	663748608	51	4798
2026-01-28 01:01:02.09	257.48	21.79	-40.3	-42.9	15.3	0.00e+00	0	62	0	672137216	51	5073
2026-01-28 01:01:06.12	256.74	21.39	-40.3	-42.9	15.4	0.00e+00	0	62	0	679477248	51	5045
2026-01-28 01:01:10.16	256.01	20.98	-40.3	-42.9	15.4	0.00e+00	0	62	0	686817280	51	5045
2026-01-28 01:01:14.21	255.31	20.58	-40.6	-43.4	14.8	0.00e+00	0	62	0	694157312	51	5371
2026-01-28 01:01:18.25	254.62	20.18	-40.7	-43.5	14.8	0.00e+00	0	62	0	701497344	51	5417
2026-01-28 01:01:22.29	253.96	19.78	-40.7	-43.6	14.5	2.20e-06	0	62	0	709885952	52	5178
2026-01-28 01:01:26.33	253.31	19.38	-40.9	-43.9	14.2	2.20e-06	0	62	0	717225984	52	5359
2026-01-28 01:01:30.37	252.67	18.99	-40.9	-43.9	14.2	1.50e-06	0	62	0	724566016	52	5373
2026-01-28 01:01:34.41	252.06	18.60	-40.9	-44.0	14.1	1.50e-06	0	62	0	731906048	52	5427
2026-01-28 01:01:38.46	251.46	18.21	-41.1	-44.3	13.8	4.50e-06	0	62	0	740294656	52	5596
2026-01-28 01:01:42.50	250.87	17.82	-40.9	-44.0	14.0	6.10e-06	0	62	0	747634688	52	5449
2026-01-28 01:01:46.54	250.30	17.44	-41.1	-44.3	13.7	3.00e-06	0	62	0	754974720	52	5620
2026-01-28 01:01:50.58	249.74	17.06	-41.4	-44.9	13.1	2.89e-05	0	62	0	762314752	53	5677
2026-01-28 01:01:54.62	249.20	16.69	-41.2	-44.6	13.4	1.06e-05	0	62	0	769654784	53	5473
2026-01-28 01:01:58.67	248.67	16.31	-41.3	-44.6	13.4	1.29e-05	0	62	0	778043392	53	5506
2026-01-28 01:02:02.71	248.15	15.94	-41.5	-45.2	12.8	5.79e-05	0	62	0	785383424	53	5859
2026-01-28 01:02:06.75	247.65	15.58	-41.6	-45.4	12.6	9.53e-05	0	62	0	792723456	53	6013
2026-01-28 01:02:10.79	247.16	15.21	-41.5	-45.1	12.8	6.48e-05	0	62	0	800063488	53	5850
2026-01-28 01:02:14.83	246.68	14.85	-41.5	-45.2	12.8	7.40e-05	0	62	0	808452096	53	5863
2026-01-28 01:02:18.87	246.21	14.50	-41.7	-45.6	12.2	2.18e-04	0	62	0	815792128	54	5828
2026-01-28 01:02:22.91	245.76	14.14	-41.6	-45.4	12.4	1.73e-04	0	62	0	823132160	54	5716
2026-01-28 01:02:26.95	245.31	13.79	-41.5	-45.2	12.7	1.01e-04	0	62	0	830472192	54	5566
2026-01-28 01:02:30.99	244.88	13.45	-41.6	-45.4	12.5	1.06e-04	0	62	0	837812224	54	5679
2026-01-28 01:02:35.03	244.45	13.10	-41.8	-45.9	12.0	3.22e-04	0	62	0	846200832	54	5999
2026-01-28 01:02:39.07	244.04	12.76	-41.9	-46.1	11.7	5.36e-04	0	62	0	853540864	54	6150
2026-01-28 01:02:43.10	243.63	12.43	-41.7	-45.7	12.1	2.81e-04	0	62	0	860880896	54	5857
2026-01-28 01:02:47.14	243.24	12.09	-41.7	-45.7	12.1	3.19e-04	0	62	0	868220928	54	5886
2026-01-28 01:02:51.18	242.85	11.76	-41.9	-46.2	11.5	6.31e-04	0	62	0	876609536	54	6225
2026-01-28 01:02:55.22	242.47	11.43	-42.0	-46.4	11.3	1.20e-03	0	62	0	883949568	54	6354
2026-01-28 01:02:59.26	242.10	11.11	-42.0	-46.4	11.3	1.20e-03	0	62	0	891289600	54	6356
2026-01-28 01:03:03.30	241.74	10.79	-41.9	-46.3	11.3	1.13e-03	0	62	0	898629632	54	6328
2026-01-28 01:03:07.34	241.39	10.47	-41.9	-46.2	11.4	9.65e-04	0	62	0	905969664	54	6230
2026-01-28 01:03:11.38	241.04	10.16	-41.9	-46.3	11.2	1.30e-03	0	62	0	914358272	54	6314
2026-01-28 01:03:15.41	240.71	9.84	-41.9	-46.4	11.1	1.70e-03	0	62	0	921698304	54	6366
2026-01-28 01:03:19.46	240.38	9.53	-42.0	-46.5	11.0	2.09e-03	0	62	0	929038336	54	6448
2026-01-28 01:03:23.50	240.05	9.23	-42.0	-46.6	10.8	2.32e-03	0	62	0	936378368	54	6550
2026-01-28 01:03:27.54	239.74	8.93	-42.0	-46.7	10.7	3.41e-03	0	62	0	944766976	54	6610
2026-01-28 01:03:31.58	239.43	8.62	-42.7	-47.8	10.1	5.56e-03	0	62	0	952107008	55	7049
2026-01-28 01:03:35.62	239.12	8.33	-42.2	-47.3	10.1	7.65e-03	0	62	0	959447040	55	6677
2026-01-28 01:03:39.66	238.83	8.03	-42.2	-47.2	10.1	7.01e-03	0	62	0	966787072	55	6605
2026-01-28 01:03:43.70	238.53	7.74	-45.0	-59.8	3.8	1.49e+00	0	62	104	968884224	60	21028
2026-01-28 01:03:47.74	238.25	7.45	-45.2	-60.0	3.8	1.49e+00	0	62	104	968884224	60	21635
2026-01-28 01:03:51.79	237.97	7.16	-45.2	-60.0	3.8	1.49e+00	0	62	104	968884224	61	20404
2026-01-28 01:03:55.83	237.70	6.88	-45.2	-59.9	3.8	1.49e+00	0	62	104	968884224	61	20256
2026-01-28 01:03:59.87	237.43	6.59	-45.1	-59.9	3.8	1.49e+00	0	62	104	968884224	61	20105
2026-01-28 01:04:03.92	237.16	6.31	-45.1	-59.9	3.8	1.49e+00	0	62	104	968884224	61	20083
2026-01-28 01:04:07.96	236.91	6.04	-45.1	-59.8	3.8	1.49e+00	0	62	104	968884224	61	20057
2026-01-28 01:04:12.00	236.65	5.76	-45.1	-59.8	3.8	1.49e+00	0	62	104	968884224	61	20053
2026-01-28 01:04:16.04	236.40	5.49	-45.1	-59.8	3.8	1.49e+00	0	62	104	968884224	61	20054
2026-01-28 01:04:20.08	236.16	5.22	-45.1	-59.9	3.8	1.49e+00	0	62	104	968884224	61	20108
2026-01-28 01:04:24.13	235.92	4.95	-45.1	-59.9	3.8	1.49e+00	0	62	104	968884224	61	20121
2026-01-28 01:04:28.17	235.69	4.69	-45.1	-59.8	3.8	1.49e+00	0	62	104	968884224	61	20010
2026-01-28 01:04:32.21	235.46	4.42	-45.1	-59.8	3.8	1.49e+00	0	62	104	968884224	61	20041
2026-01-28 01:04:36.25	235.23	4.16	-45.1	-59.8	3.8	1.49e+00	0	62	104	968884224	61	20061
2026-01-28 01:04:40.29	235.01	3.90	-45.1	-59.8	3.8	1.49e+00	0	62	104	968884224	61	20007
2026-01-28 01:04:44.33	234.79	3.64	-45.1	-59.8	3.8	1.49e+00	0	62	104	968884224	61	20069
2026-01-28 01:04:48.38	234.58	3.39	-45.1	-59.8	3.8	1.49e+00	0	62	104	968884224	61	20034
2026-01-28 01:04:52.42	234.37	3.14	-45.1	-59.8	3.8	1.49e+00	0	62	104	968884224	61	20062
2026-01-28 01:04:56.46	234.16	2.88	-45.1	-59.8	3.8	1.49e+00	0	62	104	968884224	61	19952
2026-01-28 01:05:00.50	233.96	2.63	-45.1	-59.9	3.8	1.49e+00	0	62	104	968884224	61	20107
2026-01-28 01:05:04.55	233.76	2.39	-45.1	-59.9	3.8	1.49e+00	0	62	104	968884224	61	20076
2026-01-28 01:05:08.59	233.57	2.14	-45.1	-59.8	3.8	1.49e+00	0	62	104	968884224	61	20025

#Closed at: 2026-01-28 01:05:11
#Recorded file [968 MB]: D:/lorett/data/31039_260128_035144.dat