passes_logs/2026/01/28/R2.0S_Moscow/R2.0S_Moscow__20260128_084219_SUOMI_NPP_rec.log

#Pass ID: 20260128_084219_SUOMI NPP
#Satellite: SUOMI NPP
#Configuration: NPP
#almurnet v.1.7.20251203
#Start time: 2026-01-28 08:42:21

#Version: 2.2.20231116
#Station: R2.0S_Moscow
#Location: 37.707566 lon 55.798166 lat
#TLE: 1 37849U 11061A   26027.86188320  .00000172  00000+0  10275-3 0  9990
#TLE: 2 37849  98.7823 329.8005 0002088  41.4184 318.7150 14.19530883738530

#Time	Az	El	Level	Level2	SNR	BER	BlckErr	Temp	State	Recorded	gain1	gain2
2026-01-28 08:42:21.00	122.69	2.11	-13.3	-40.5	3.6	1.51e+00	0	51	0	0	4	57313
2026-01-28 08:42:25.03	122.47	2.35	-19.8	-42.1	3.7	1.52e+00	0	51	104	0	5	65531
2026-01-28 08:42:29.07	122.26	2.60	-19.0	-42.6	3.7	1.52e+00	0	51	104	0	6	65535
2026-01-28 08:42:33.12	122.03	2.84	-15.0	-40.5	3.7	1.53e+00	0	52	104	0	4	57452
2026-01-28 08:42:37.16	121.80	3.09	-19.4	-42.5	5.1	1.53e+00	0	52	104	0	6	64924
2026-01-28 08:42:41.20	121.57	3.34	-17.4	-41.9	3.9	1.51e+00	0	52	104	0	5	63924
2026-01-28 08:42:45.24	121.34	3.59	-15.9	-42.1	3.7	1.52e+00	0	52	104	0	5	65535
2026-01-28 08:42:49.28	121.10	3.84	-15.1	-39.6	3.8	1.52e+00	0	53	104	0	0	65535
2026-01-28 08:42:53.33	120.85	4.10	-17.1	-42.1	3.8	1.52e+00	0	53	104	0	5	65535
2026-01-28 08:42:57.37	120.61	4.35	-16.9	-42.1	3.8	1.52e+00	0	53	104	0	5	65535
2026-01-28 08:43:01.41	120.35	4.61	-14.3	-39.5	3.3	1.52e+00	0	54	104	0	0	64729
2026-01-28 08:43:05.46	120.09	4.87	-17.2	-41.6	3.5	1.52e+00	0	54	104	0	4	65529
2026-01-28 08:43:09.50	119.83	5.13	-16.4	-40.5	3.8	1.52e+00	0	54	104	0	2	64604
2026-01-28 08:43:13.54	119.56	5.40	-17.8	-42.6	3.8	1.51e+00	0	54	104	0	6	65535
2026-01-28 08:43:17.58	119.29	5.66	-19.1	-42.6	3.8	1.51e+00	0	54	104	0	6	65529
2026-01-28 08:43:21.62	119.01	5.93	-16.4	-42.8	3.8	1.51e+00	0	55	104	0	7	62977
2026-01-28 08:43:25.66	118.73	6.20	-18.9	-43.6	3.9	1.51e+00	0	55	104	0	8	65535
2026-01-28 08:43:29.71	118.44	6.48	-18.8	-42.4	3.9	1.51e+00	0	55	104	0	7	60307
2026-01-28 08:43:33.75	118.15	6.75	-12.7	-40.7	3.6	1.51e+00	0	55	104	0	3	62254
2026-01-28 08:43:37.79	117.85	7.03	-20.8	-41.1	3.5	1.52e+00	0	55	104	0	3	65533
2026-01-28 08:43:41.83	117.54	7.31	-18.6	-42.1	3.7	1.51e+00	0	55	104	0	5	65166
2026-01-28 08:43:45.87	117.23	7.59	-19.8	-41.9	4.4	1.50e+00	0	55	104	0	5	63632
2026-01-28 08:43:49.92	116.91	7.87	-14.7	-41.8	4.0	1.48e+00	0	55	104	0	6	59749
2026-01-28 08:43:53.96	116.58	8.16	-17.4	-41.6	4.5	1.52e+00	0	56	104	0	4	65521
2026-01-28 08:43:58.00	116.25	8.45	-19.4	-42.0	4.4	1.48e+00	0	56	104	0	6	61190
2026-01-28 08:44:02.04	115.91	8.74	-20.2	-44.4	4.4	1.48e+00	0	56	104	0	10	63853
2026-01-28 08:44:06.08	115.57	9.03	-13.9	-39.9	3.8	1.50e+00	0	56	104	0	1	63972
2026-01-28 08:44:10.12	115.22	9.33	-16.6	-42.5	3.6	1.51e+00	0	56	104	0	6	64386
2026-01-28 08:44:14.16	114.86	9.63	-18.1	-42.1	3.8	1.52e+00	0	56	104	0	5	65535
2026-01-28 08:44:18.20	114.49	9.93	-18.3	-45.6	3.8	1.52e+00	0	56	104	0	13	61608
2026-01-28 08:44:22.24	114.11	10.23	-16.3	-43.4	3.7	1.52e+00	0	56	104	0	8	63806
2026-01-28 08:44:26.28	113.73	10.54	-24.4	-47.7	4.2	1.49e+00	0	57	104	0	21	49430
2026-01-28 08:44:30.32	113.34	10.85	-30.6	-48.5	5.7	1.11e+00	0	57	0	1048576	31	30601
2026-01-28 08:44:34.36	112.94	11.16	-31.3	-45.2	8.0	2.31e-01	0	57	0	8388608	31	20883
2026-01-28 08:44:38.40	112.53	11.47	-26.1	-46.5	7.8	1.90e-01	0	57	0	15728640	31	24395
2026-01-28 08:44:42.44	112.11	11.79	-34.9	-45.9	9.5	8.02e-02	0	57	0	23068672	40	13551
2026-01-28 08:44:46.48	111.68	12.11	-37.3	-46.8	9.9	4.31e-02	0	57	0	31457280	46	10629
2026-01-28 08:44:50.52	111.24	12.43	-38.3	-45.9	11.3	6.96e-03	0	57	0	38797312	50	7559
2026-01-28 08:44:54.57	110.79	12.75	-38.6	-46.1	11.2	1.65e-03	0	57	0	46137344	50	7727
2026-01-28 08:44:58.60	110.34	13.08	-40.8	-45.1	12.2	2.59e-04	0	58	0	53477376	52	6160
2026-01-28 08:45:02.65	109.87	13.41	-39.2	-46.0	11.3	5.57e-03	0	57	0	60817408	50	7689
2026-01-28 08:45:06.69	109.39	13.74	-41.1	-45.6	11.8	7.96e-04	0	58	0	69206016	52	6503
2026-01-28 08:45:10.73	108.90	14.08	-41.5	-46.0	11.3	1.51e-03	0	58	0	76546048	53	6479
2026-01-28 08:45:14.77	108.40	14.41	-41.8	-46.4	11.1	1.12e-03	0	58	0	83886080	54	6373
2026-01-28 08:45:18.81	107.89	14.75	-41.5	-45.9	11.6	1.08e-03	0	58	0	91226112	53	6366
2026-01-28 08:45:22.84	107.36	15.09	-41.6	-45.8	11.7	4.38e-04	0	58	0	99614720	53	6318
2026-01-28 08:45:26.88	106.82	15.44	-41.4	-45.3	12.3	1.58e-04	0	58	0	106954752	53	5955
2026-01-28 08:45:30.92	106.27	15.78	-41.3	-45.1	12.5	1.72e-04	0	58	0	114294784	53	5813
2026-01-28 08:45:34.96	105.71	16.13	-41.0	-44.3	13.3	1.22e-05	0	58	0	121634816	53	5339
2026-01-28 08:45:39.01	105.13	16.48	-40.9	-44.4	13.3	1.75e-05	0	58	0	128974848	52	5693
2026-01-28 08:45:43.04	104.54	16.83	-41.2	-44.9	12.8	4.19e-05	0	58	0	137363456	52	6006
2026-01-28 08:45:47.08	103.94	17.19	-40.9	-44.2	13.5	1.60e-05	0	58	0	144703488	52	5570
2026-01-28 08:45:51.12	103.32	17.54	-41.2	-44.8	12.9	6.79e-05	0	58	0	152043520	52	5981
2026-01-28 08:45:55.16	102.68	17.90	-41.0	-44.6	13.1	3.50e-05	0	58	0	159383552	52	5797
2026-01-28 08:45:59.20	102.03	18.26	-41.1	-44.8	13.1	5.64e-05	0	58	0	167772160	52	5944
2026-01-28 08:46:03.24	101.37	18.62	-41.0	-44.4	13.3	9.90e-06	0	59	0	175112192	52	5712
2026-01-28 08:46:07.28	100.69	18.98	-41.0	-44.3	13.4	7.60e-06	0	58	0	182452224	53	5310
2026-01-28 08:46:11.32	99.99	19.35	-41.4	-45.2	12.5	1.85e-04	0	59	0	189792256	53	5889
2026-01-28 08:46:15.36	99.27	19.71	-41.8	-45.9	11.9	2.90e-04	0	59	0	197132288	54	6026
2026-01-28 08:46:19.40	98.54	20.08	-41.3	-44.8	12.9	6.10e-05	0	59	0	205520896	54	5328
2026-01-28 08:46:23.44	97.79	20.44	-41.6	-45.5	12.2	1.88e-04	0	59	0	212860928	53	6122
2026-01-28 08:46:27.48	97.02	20.80	-41.7	-45.7	12.1	2.82e-04	0	59	0	220200960	54	5899
2026-01-28 08:46:31.52	96.24	21.17	-41.5	-45.3	12.6	1.30e-04	0	59	0	227540992	54	5607
2026-01-28 08:46:35.56	95.43	21.53	-41.0	-44.4	13.4	1.83e-05	0	59	0	235929600	54	5053
2026-01-28 08:46:39.60	94.60	21.89	-41.2	-44.7	13.2	2.67e-05	0	59	0	243269632	54	5264
2026-01-28 08:46:43.64	93.76	22.26	-41.5	-45.2	12.5	9.53e-05	0	59	0	250609664	54	5585
2026-01-28 08:46:47.68	92.89	22.61	-41.0	-44.4	13.4	9.90e-06	0	59	0	257949696	53	5356
2026-01-28 08:46:51.71	92.01	22.97	-40.2	-42.9	14.8	0.00e+00	0	59	0	265289728	52	4795
2026-01-28 08:46:55.75	91.11	23.33	-40.4	-43.3	14.5	0.00e+00	0	59	0	273678336	52	5015
2026-01-28 08:46:59.79	90.18	23.68	-40.8	-43.9	13.9	3.00e-06	0	59	0	281018368	52	5368
2026-01-28 08:47:03.83	89.23	24.03	-40.7	-43.9	14.0	2.20e-06	0	59	0	288358400	52	5341
2026-01-28 08:47:07.87	88.26	24.37	-40.4	-43.3	14.6	0.00e+00	0	59	0	295698432	52	5004
2026-01-28 08:47:11.91	87.27	24.71	-40.5	-43.5	14.5	7.00e-07	0	59	0	304087040	52	5101
2026-01-28 08:47:15.95	86.26	25.04	-40.4	-43.2	14.7	0.00e+00	0	59	0	311427072	52	4954
2026-01-28 08:47:19.99	85.23	25.37	-40.4	-43.3	14.6	0.00e+00	0	59	0	318767104	52	4985
2026-01-28 08:47:24.04	84.17	25.69	-40.6	-43.7	14.2	7.00e-07	0	59	0	326107136	52	5222
2026-01-28 08:47:28.07	83.10	26.01	-41.1	-44.5	13.3	1.60e-05	0	59	0	333447168	52	5762
2026-01-28 08:47:32.12	82.00	26.31	-40.8	-44.0	13.9	6.10e-06	0	59	0	341835776	52	5405
2026-01-28 08:47:36.16	80.88	26.61	-40.8	-44.1	13.8	7.00e-07	0	60	0	349175808	52	5522
2026-01-28 08:47:40.20	79.74	26.90	-41.0	-44.4	13.4	1.60e-05	0	59	0	356515840	52	5714
2026-01-28 08:47:44.24	78.58	27.18	-40.9	-44.2	13.7	5.30e-06	0	59	0	363855872	52	5567
2026-01-28 08:47:48.28	77.40	27.45	-41.2	-44.8	13.1	9.90e-06	0	60	0	372244480	53	5636
2026-01-28 08:47:52.32	76.20	27.71	-40.9	-44.1	13.8	3.00e-06	0	59	0	379584512	53	5214
2026-01-28 08:47:56.36	74.98	27.96	-40.7	-43.7	14.3	7.00e-07	0	59	0	386924544	53	4971
2026-01-28 08:48:00.40	73.75	28.19	-40.7	-43.8	14.1	7.00e-07	0	59	0	394264576	53	5033
2026-01-28 08:48:04.44	72.49	28.41	-41.0	-44.3	13.6	1.22e-05	0	60	0	401604608	53	5335
2026-01-28 08:48:08.48	71.22	28.62	-40.9	-44.1	14.0	5.30e-06	0	60	0	409993216	53	5165
2026-01-28 08:48:12.53	69.93	28.81	-41.3	-44.8	13.3	6.80e-06	0	60	0	417333248	53	5598
2026-01-28 08:48:16.56	68.63	28.99	-41.9	-46.2	11.8	6.77e-04	0	60	0	424673280	54	6230
2026-01-28 08:48:20.60	67.32	29.15	-42.1	-46.4	11.6	4.90e-04	0	60	0	432013312	54	6366
2026-01-28 08:48:24.64	65.99	29.29	-42.0	-46.3	11.8	5.95e-04	0	60	0	440401920	54	6277
2026-01-28 08:48:28.68	64.65	29.42	-41.5	-45.1	13.0	4.65e-05	0	60	0	447741952	54	5495
2026-01-28 08:48:32.72	63.30	29.53	-42.1	-46.6	11.4	9.10e-04	0	60	0	455081984	54	6527
2026-01-28 08:48:36.76	61.94	29.63	-41.6	-45.4	12.5	1.37e-04	0	60	0	462422016	54	5719
2026-01-28 08:48:40.80	60.57	29.70	-42.2	-46.9	11.0	3.50e-03	0	60	0	469762048	55	6411
2026-01-28 08:48:44.84	59.20	29.76	-41.1	-44.4	13.7	1.52e-05	0	60	0	478150656	54	5079
2026-01-28 08:48:48.88	57.83	29.80	-41.7	-45.7	12.4	7.40e-05	0	60	0	485490688	53	6209
2026-01-28 08:48:52.92	56.45	29.82	-42.0	-46.2	12.0	2.09e-04	0	60	0	492830720	54	6218
2026-01-28 08:48:56.96	55.07	29.82	-41.5	-45.0	13.1	5.56e-05	0	60	0	500170752	54	5462
2026-01-28 08:49:01.00	53.69	29.81	-42.0	-46.1	12.0	2.17e-04	0	60	0	508559360	54	6165
2026-01-28 08:49:05.04	52.32	29.77	-41.6	-45.2	12.9	4.27e-05	0	60	0	515899392	54	5561
2026-01-28 08:49:09.08	50.95	29.72	-41.8	-45.8	12.2	6.56e-05	0	60	0	523239424	54	5984
2026-01-28 08:49:13.11	49.58	29.65	-41.4	-44.9	13.2	3.28e-05	0	60	0	530579456	54	5393
2026-01-28 08:49:17.15	48.22	29.56	-41.4	-44.9	13.2	1.44e-05	0	60	0	538968064	54	5372
2026-01-28 08:49:21.19	46.87	29.45	-40.8	-43.9	14.3	0.00e+00	0	60	0	546308096	53	5047
2026-01-28 08:49:25.23	45.53	29.33	-41.0	-44.3	13.8	6.10e-06	0	60	0	553648128	53	5281
2026-01-28 08:49:29.27	44.20	29.19	-41.6	-45.3	12.8	2.21e-05	0	60	0	560988160	53	5973
2026-01-28 08:49:33.31	42.89	29.03	-41.1	-44.3	13.8	8.30e-06	0	60	0	568328192	53	5319
2026-01-28 08:49:37.35	41.58	28.86	-41.6	-45.3	12.8	1.98e-05	0	60	0	576716800	53	5956
2026-01-28 08:49:41.39	40.29	28.67	-41.4	-44.9	13.2	2.21e-05	0	60	0	584056832	54	5368
2026-01-28 08:49:45.43	39.02	28.47	-41.8	-45.7	12.4	7.47e-05	0	60	0	591396864	54	5888
2026-01-28 08:49:49.47	37.76	28.25	-41.6	-45.2	12.9	4.11e-05	0	60	0	598736896	54	5586
2026-01-28 08:49:53.51	36.53	28.02	-42.5	-47.2	10.8	2.30e-03	0	60	0	607125504	55	6617
2026-01-28 08:49:57.55	35.31	27.78	-42.9	-48.1	10.1	7.32e-03	0	60	0	614465536	56	6894
2026-01-28 08:50:01.59	34.10	27.53	-42.7	-47.8	10.3	6.16e-03	0	60	0	621805568	56	6712
2026-01-28 08:50:05.63	32.92	27.26	-41.5	-45.3	12.8	1.19e-04	0	60	0	629145600	55	5304
2026-01-28 08:50:09.67	31.76	26.99	-40.5	-43.4	14.7	0.00e+00	0	60	0	636485632	53	4787
2026-01-28 08:50:13.71	30.62	26.70	-40.7	-43.8	14.3	7.00e-07	0	60	0	644874240	52	5299
2026-01-28 08:50:17.75	29.50	26.40	-41.5	-45.2	12.9	1.52e-05	0	60	0	652214272	53	5865
2026-01-28 08:50:21.79	28.40	26.10	-41.4	-45.0	13.0	2.67e-05	0	60	0	659554304	53	5768
2026-01-28 08:50:25.83	27.32	25.79	-42.2	-46.6	11.5	6.97e-04	0	60	0	666894336	54	6552
2026-01-28 08:50:29.87	26.27	25.47	-41.2	-44.6	13.5	1.98e-05	0	60	0	675282944	54	5180
2026-01-28 08:50:33.91	25.23	25.15	-40.6	-43.6	14.5	0.00e+00	0	60	0	682622976	53	4916
2026-01-28 08:50:37.95	24.22	24.81	-40.3	-43.0	15.1	0.00e+00	0	60	0	689963008	52	4843
2026-01-28 08:50:41.99	23.23	24.48	-40.2	-42.9	15.1	0.00e+00	0	60	0	697303040	52	4804
2026-01-28 08:50:46.03	22.26	24.14	-40.0	-42.6	15.5	0.00e+00	0	60	0	704643072	51	4904
2026-01-28 08:50:50.07	21.31	23.79	-40.6	-43.6	14.6	0.00e+00	0	60	0	713031680	51	5496
2026-01-28 08:50:54.11	20.38	23.44	-40.7	-43.8	14.3	0.00e+00	0	60	0	720371712	52	5287
2026-01-28 08:50:58.15	19.48	23.09	-40.5	-43.5	14.7	7.00e-07	0	60	0	727711744	52	5130
2026-01-28 08:51:02.19	18.59	22.74	-40.0	-42.7	15.5	0.00e+00	0	60	0	735051776	51	4927
2026-01-28 08:51:06.24	17.72	22.38	-39.4	-41.9	16.2	0.00e+00	0	60	0	743440384	50	4765
2026-01-28 08:51:10.28	16.88	22.02	-39.8	-42.9	15.2	0.00e+00	0	60	0	750780416	50	5367
2026-01-28 08:51:14.32	16.05	21.66	-40.1	-42.9	15.1	0.00e+00	0	60	0	758120448	50	5376
2026-01-28 08:51:18.36	15.25	21.30	-39.8	-43.2	14.9	0.00e+00	0	60	0	765460480	50	5543
2026-01-28 08:51:22.40	14.46	20.93	-40.0	-43.1	14.9	0.00e+00	0	60	0	773849088	51	5184
2026-01-28 08:51:26.44	13.69	20.57	-39.5	-42.8	15.2	0.00e+00	0	60	0	781189120	51	5009
2026-01-28 08:51:30.48	12.94	20.21	-39.5	-42.2	15.8	0.00e+00	0	60	0	788529152	50	4941
2026-01-28 08:51:34.52	12.21	19.85	-40.4	-43.5	14.5	0.00e+00	0	60	0	795869184	51	5430
2026-01-28 08:51:38.56	11.49	19.48	-40.7	-43.7	14.1	1.50e-06	0	60	0	803209216	52	5276
2026-01-28 08:51:42.60	10.79	19.12	-40.0	-42.6	15.3	0.00e+00	0	60	0	811597824	51	4903
2026-01-28 08:51:46.64	10.11	18.76	-40.4	-43.3	14.7	0.00e+00	0	60	0	818937856	51	5305
2026-01-28 08:51:50.68	9.45	18.40	-41.2	-44.7	13.2	1.29e-05	0	60	0	826277888	52	5867
2026-01-28 08:51:54.71	8.80	18.05	-41.1	-44.6	13.3	6.10e-05	0	60	0	833617920	53	5474
2026-01-28 08:51:58.75	8.16	17.69	-40.8	-44.1	13.7	6.10e-06	0	60	0	842006528	53	5193
2026-01-28 08:52:02.79	7.54	17.33	-41.3	-45.0	12.7	4.88e-05	0	60	0	849346560	53	5774
2026-01-28 08:52:06.83	6.94	16.98	-41.3	-45.0	12.8	8.54e-05	0	60	0	856686592	53	5764
2026-01-28 08:52:10.87	6.35	16.63	-40.5	-43.7	14.0	1.50e-06	0	60	0	864026624	53	4964
2026-01-28 08:52:14.91	5.77	16.28	-40.2	-43.2	14.5	7.00e-07	0	60	0	871366656	52	4938
2026-01-28 08:52:18.95	5.21	15.93	-40.4	-43.6	14.0	5.30e-06	0	60	0	879755264	52	5197
2026-01-28 08:52:22.99	4.66	15.59	-40.6	-44.0	13.5	1.83e-05	0	60	0	887095296	52	5445
2026-01-28 08:52:27.03	4.12	15.25	-40.6	-44.0	13.3	1.14e-05	0	60	0	894435328	52	5448
2026-01-28 08:52:31.07	3.60	14.90	-40.7	-44.6	12.4	4.34e-05	0	60	0	901775360	52	5823
2026-01-28 08:52:35.11	3.09	14.57	-41.2	-46.2	10.3	2.90e-03	0	60	0	910163968	52	6987
2026-01-28 08:52:39.15	2.59	14.23	-40.9	-45.5	10.9	4.03e-03	0	60	0	917504000	53	6077
2026-01-28 08:52:43.20	2.10	13.90	-39.8	-43.4	13.0	2.36e-05	0	60	0	924844032	51	5359
2026-01-28 08:52:47.24	1.62	13.56	-40.7	-45.7	10.1	2.60e-03	0	60	0	932184064	52	6573
2026-01-28 08:52:51.28	1.15	13.24	-41.5	-50.4	5.3	4.56e-01	0	60	0	939524096	53	10685
2026-01-28 08:52:55.32	0.70	12.91	-41.2	-53.6	3.8	1.49e+00	0	60	104	942669824	53	15464
2026-01-28 08:52:59.36	0.25	12.59	-41.6	-54.9	3.8	1.49e+00	0	60	104	942669824	54	17064
2026-01-28 08:53:03.40	359.82	12.27	-40.7	-54.8	3.8	1.49e+00	0	60	104	942669824	53	17688
2026-01-28 08:53:07.45	359.39	11.95	-40.0	-54.4	3.8	1.49e+00	0	60	104	942669824	52	18035
2026-01-28 08:53:11.49	358.97	11.63	-40.0	-54.4	3.8	1.49e+00	0	60	104	942669824	51	18954
2026-01-28 08:53:15.53	358.56	11.32	-40.0	-54.4	3.8	1.49e+00	0	60	104	942669824	51	19032
2026-01-28 08:53:19.57	358.17	11.01	-39.9	-54.2	3.8	1.49e+00	0	60	104	942669824	51	18728
2026-01-28 08:53:23.60	357.78	10.70	-39.9	-54.3	3.8	1.49e+00	0	60	104	942669824	51	18808
2026-01-28 08:53:27.64	357.39	10.39	-39.8	-54.2	3.8	1.49e+00	0	60	104	942669824	51	18690
2026-01-28 08:53:31.68	357.02	10.09	-40.1	-54.5	3.8	1.49e+00	0	60	104	942669824	51	19195
2026-01-28 08:53:35.72	356.66	9.79	-40.0	-54.4	3.8	1.49e+00	0	60	104	942669824	51	18968
2026-01-28 08:53:39.76	356.30	9.49	-40.0	-54.4	3.8	1.49e+00	0	60	104	942669824	51	18970
2026-01-28 08:53:43.80	355.95	9.20	-40.0	-54.4	3.8	1.49e+00	0	60	104	942669824	51	19048
2026-01-28 08:53:47.83	355.60	8.91	-40.0	-54.4	3.8	1.49e+00	0	60	104	942669824	51	19014
2026-01-28 08:53:51.87	355.27	8.61	-40.0	-54.4	3.8	1.49e+00	0	60	104	942669824	51	19079
2026-01-28 08:53:55.91	354.94	8.33	-40.0	-54.4	3.8	1.49e+00	0	60	104	942669824	51	19050
2026-01-28 08:53:59.94	354.62	8.04	-40.1	-54.5	3.8	1.49e+00	0	60	104	942669824	51	19195
2026-01-28 08:54:03.99	354.30	7.76	-44.9	-59.7	3.8	1.49e+00	0	60	104	942669824	60	20877
2026-01-28 08:54:08.03	353.99	7.48	-45.2	-60.1	3.8	1.49e+00	0	60	104	942669824	61	20619
2026-01-28 08:54:12.07	353.69	7.20	-45.2	-60.0	3.8	1.49e+00	0	60	104	942669824	61	20523
2026-01-28 08:54:16.12	353.39	6.92	-44.3	-60.0	3.8	1.49e+00	0	60	104	942669824	60	21517
2026-01-28 08:54:20.16	353.10	6.64	-44.9	-59.9	3.8	1.49e+00	0	61	104	942669824	60	21319
2026-01-28 08:54:24.20	352.81	6.37	-45.0	-59.9	3.8	1.49e+00	0	60	104	942669824	60	21310
2026-01-28 08:54:28.24	352.53	6.10	-44.9	-59.9	3.8	1.49e+00	0	60	104	942669824	60	21282
2026-01-28 08:54:32.28	352.26	5.83	-44.9	-59.8	3.8	1.49e+00	0	60	104	942669824	60	21169
2026-01-28 08:54:36.32	351.99	5.57	-44.9	-59.8	3.8	1.49e+00	0	60	104	942669824	60	21251
2026-01-28 08:54:40.37	351.72	5.30	-45.0	-59.8	3.8	1.49e+00	0	60	104	942669824	60	21157
2026-01-28 08:54:44.41	351.47	5.04	-45.0	-59.8	3.8	1.49e+00	0	60	104	942669824	60	21168
2026-01-28 08:54:48.45	351.21	4.78	-44.9	-59.8	3.8	1.49e+00	0	60	104	942669824	60	21128
2026-01-28 08:54:52.49	350.96	4.52	-44.9	-59.7	3.8	1.49e+00	0	60	104	942669824	60	20984
2026-01-28 08:54:56.53	350.72	4.27	-44.9	-59.7	3.8	1.49e+00	0	60	104	942669824	60	20976
2026-01-28 08:55:00.58	350.48	4.01	-44.8	-59.8	3.8	1.49e+00	0	61	104	942669824	60	21019
2026-01-28 08:55:04.62	350.24	3.76	-44.8	-59.7	3.8	1.49e+00	0	60	104	942669824	60	20998
2026-01-28 08:55:08.66	350.01	3.51	-44.8	-59.7	3.8	1.49e+00	0	60	104	942669824	60	20952
2026-01-28 08:55:12.70	349.78	3.26	-44.9	-59.7	3.8	1.49e+00	0	60	104	942669824	60	20974
2026-01-28 08:55:16.74	349.56	3.01	-44.9	-59.7	3.8	1.49e+00	0	60	104	942669824	60	20870
2026-01-28 08:55:20.78	349.34	2.77	-44.9	-59.7	3.8	1.49e+00	0	61	104	942669824	60	20937
2026-01-28 08:55:24.83	349.12	2.52	-44.9	-59.7	3.8	1.49e+00	0	60	104	942669824	60	20875
2026-01-28 08:55:28.87	348.91	2.28	-44.9	-59.7	3.8	1.49e+00	0	60	104	942669824	60	20858
2026-01-28 08:55:32.91	348.70	2.04	-44.9	-59.7	3.8	1.49e+00	0	61	104	942669824	60	20855

#Closed at: 2026-01-28 08:55:36
#Recorded file [942 MB]: D:/lorett/data/31039_260128_114220.dat