passes_logs/2026/01/28/R2.0S_Moscow/R2.0S_Moscow__20260128_113341_NOAA_21_JPSS-2_rec.log

#Pass ID: 20260128_113341_NOAA 21 (JPSS-2)
#Satellite: NOAA 21 (JPSS-2)
#Configuration: NOAA-21
#almurnet v.1.7.20251203
#Start time: 2026-01-28 11:33:41

#Version: 2.2.20231116
#Station: R2.0S_Moscow
#Location: 37.707566 lon 55.798166 lat
#TLE: 1 54234U 22150A   26027.55906748  .00000170  00000+0  10132-3 0  9996
#TLE: 2 54234  98.7510 328.3076 0000860 204.4692 155.6443 14.19540154166599

#Time	Az	El	Level	Level2	SNR	BER	BlckErr	Temp	State	Recorded	gain1	gain2
2026-01-28 11:33:41.69	210.64	2.04	-44.1	-56.5	3.8	1.49e+00	0	58	0	0	59	15400
2026-01-28 11:33:44.72	210.88	2.20	-44.1	-56.6	3.8	1.49e+00	0	58	104	0	59	15437
2026-01-28 11:33:47.75	211.11	2.36	-44.1	-56.6	3.8	1.49e+00	0	58	104	0	59	15404
2026-01-28 11:33:50.78	211.35	2.53	-44.1	-56.5	3.8	1.49e+00	0	58	104	0	59	15393
2026-01-28 11:33:53.81	211.58	2.69	-44.1	-56.5	3.8	1.49e+00	0	59	104	0	59	15358
2026-01-28 11:33:56.84	211.82	2.86	-44.1	-56.6	3.8	1.49e+00	0	59	104	0	59	15420
2026-01-28 11:33:59.87	212.07	3.02	-44.1	-56.5	3.8	1.49e+00	0	59	104	0	59	15377
2026-01-28 11:34:02.90	212.31	3.19	-44.1	-56.5	3.8	1.49e+00	0	59	104	0	59	15379
2026-01-28 11:34:05.93	212.56	3.36	-44.1	-56.5	3.8	1.49e+00	0	59	104	0	59	15378
2026-01-28 11:34:08.96	212.82	3.53	-44.1	-56.5	3.8	1.49e+00	0	59	104	0	59	15349
2026-01-28 11:34:11.99	213.07	3.69	-44.1	-56.6	3.8	1.49e+00	0	59	104	0	59	15410
2026-01-28 11:34:15.01	213.33	3.86	-44.1	-56.5	3.8	1.49e+00	0	59	104	0	59	15389
2026-01-28 11:34:18.05	213.59	4.03	-44.1	-56.6	3.8	1.49e+00	0	59	104	0	59	15404
2026-01-28 11:34:21.08	213.85	4.20	-44.1	-56.5	3.8	1.49e+00	0	59	104	0	59	15325
2026-01-28 11:34:24.11	214.12	4.37	-44.1	-56.5	3.8	1.49e+00	0	59	104	0	59	15382
2026-01-28 11:34:27.14	214.39	4.54	-44.1	-56.5	3.8	1.49e+00	0	59	104	0	59	15306
2026-01-28 11:34:30.17	214.66	4.72	-44.1	-56.5	3.8	1.49e+00	0	59	104	0	59	15392
2026-01-28 11:34:33.20	214.93	4.89	-44.1	-56.5	3.8	1.49e+00	0	59	104	0	59	15371
2026-01-28 11:34:36.23	215.21	5.06	-44.1	-56.5	3.8	1.49e+00	0	59	104	0	59	15285
2026-01-28 11:34:39.27	215.50	5.24	-44.1	-56.5	3.8	1.49e+00	0	59	104	0	59	15309
2026-01-28 11:34:42.30	215.78	5.41	-44.1	-56.5	3.8	1.49e+00	0	59	104	0	59	15335
2026-01-28 11:34:45.33	216.07	5.59	-44.1	-56.5	3.8	1.49e+00	0	59	104	0	59	15309
2026-01-28 11:34:48.36	216.36	5.76	-44.1	-56.4	3.8	1.49e+00	0	59	104	0	59	15169
2026-01-28 11:34:51.39	216.65	5.94	-44.1	-56.3	3.8	1.49e+00	0	59	104	0	59	14933
2026-01-28 11:34:54.43	216.95	6.11	-43.8	-56.2	3.8	1.49e+00	0	59	104	0	58	15581
2026-01-28 11:34:57.46	217.26	6.29	-44.0	-55.8	3.8	1.49e+00	0	59	104	0	58	14962
2026-01-28 11:35:00.49	217.56	6.47	-44.0	-55.2	3.8	1.49e+00	0	59	104	0	58	14021
2026-01-28 11:35:03.52	217.87	6.65	-43.8	-54.1	4.0	1.49e+00	0	60	104	0	58	12287
2026-01-28 11:35:06.55	218.18	6.83	-43.7	-52.9	4.2	1.45e+00	0	59	104	0	58	10688
2026-01-28 11:35:09.58	218.50	7.00	-43.3	-51.4	4.8	8.89e-01	0	59	104	0	58	9000
2026-01-28 11:35:12.61	218.82	7.18	-43.1	-49.7	5.8	4.20e-01	0	59	0	6291456	57	7846
2026-01-28 11:35:15.64	219.14	7.36	-42.4	-47.5	7.6	9.85e-02	0	60	0	15728640	56	6483
2026-01-28 11:35:18.67	219.47	7.54	-41.4	-45.2	9.8	1.32e-02	0	59	0	26214400	54	5589
2026-01-28 11:35:21.71	219.81	7.73	-40.7	-44.0	11.1	1.69e-03	0	60	0	35651584	53	5152
2026-01-28 11:35:24.73	220.14	7.91	-40.9	-44.3	10.8	1.82e-03	0	60	0	45088768	53	5311
2026-01-28 11:35:27.77	220.48	8.09	-42.1	-46.5	9.0	5.79e-04	0	60	0	54525952	54	6422
2026-01-28 11:35:30.80	220.83	8.27	-40.9	-44.1	11.2	1.05e-03	0	59	0	60817408	53	5199
2026-01-28 11:35:33.83	221.17	8.46	-40.4	-43.3	12.0	3.98e-04	0	60	0	67108864	52	4992
2026-01-28 11:35:36.86	221.53	8.64	-40.0	-42.7	12.7	8.39e-05	0	60	0	76546048	51	4935
2026-01-28 11:35:39.89	221.88	8.82	-40.0	-42.7	12.6	8.92e-05	0	60	0	85983232	51	4958
2026-01-28 11:35:42.92	222.24	9.01	-40.0	-42.6	12.8	4.34e-05	0	60	0	95420416	51	4894
2026-01-28 11:35:45.95	222.61	9.19	-39.9	-42.4	13.0	3.58e-05	0	60	0	105906176	51	4811
2026-01-28 11:35:48.98	222.98	9.38	-39.8	-42.3	13.2	1.60e-05	0	60	0	115343360	51	4714
2026-01-28 11:35:52.01	223.36	9.56	-39.8	-42.3	13.2	1.98e-05	0	59	0	124780544	51	4752
2026-01-28 11:35:55.04	223.74	9.75	-39.8	-42.3	13.2	3.20e-05	0	60	0	134217728	51	4732
2026-01-28 11:35:58.06	224.12	9.93	-39.7	-42.2	13.4	1.52e-05	0	60	0	143654912	51	4658
2026-01-28 11:36:01.09	224.51	10.12	-39.6	-42.0	13.6	1.14e-05	0	60	0	153092096	51	4581
2026-01-28 11:36:04.12	224.90	10.31	-39.5	-41.9	13.7	5.30e-06	0	60	0	162529280	51	4494
2026-01-28 11:36:07.15	225.30	10.49	-39.5	-41.9	13.7	1.29e-05	0	60	0	171966464	51	4500
2026-01-28 11:36:10.18	225.70	10.68	-39.5	-41.7	13.9	3.00e-06	0	60	0	181403648	50	4703
2026-01-28 11:36:13.22	226.11	10.87	-39.4	-41.6	14.0	5.30e-06	0	60	0	190840832	50	4616
2026-01-28 11:36:16.25	226.53	11.05	-39.2	-41.4	14.3	0.00e+00	0	60	0	200278016	50	4503
2026-01-28 11:36:19.27	226.94	11.24	-39.1	-41.2	14.5	0.00e+00	0	60	0	209715200	50	4413
2026-01-28 11:36:22.30	227.37	11.43	-39.1	-41.2	14.5	0.00e+00	0	60	0	219152384	50	4428
2026-01-28 11:36:25.33	227.80	11.61	-39.1	-41.3	14.4	1.50e-06	0	60	0	228589568	50	4448
2026-01-28 11:36:28.36	228.23	11.80	-39.2	-41.3	14.4	7.00e-07	0	60	0	238026752	50	4456
2026-01-28 11:36:31.39	228.67	11.99	-39.2	-41.3	14.4	1.50e-06	0	60	0	247463936	50	4485
2026-01-28 11:36:34.42	229.12	12.17	-39.2	-41.4	14.3	7.00e-07	0	60	0	256901120	50	4510
2026-01-28 11:36:37.45	229.57	12.36	-39.4	-41.6	14.2	7.00e-07	0	60	0	266338304	50	4607
2026-01-28 11:36:40.48	230.02	12.55	-39.3	-41.5	14.3	3.00e-06	0	60	0	275775488	50	4568
2026-01-28 11:36:43.51	230.49	12.73	-39.3	-41.4	14.3	0.00e+00	0	60	0	285212672	50	4528
2026-01-28 11:36:46.53	230.95	12.92	-39.2	-41.3	14.4	7.00e-07	0	60	0	294649856	50	4492
2026-01-28 11:36:49.56	231.43	13.11	-39.1	-41.2	14.6	7.00e-07	0	60	0	304087040	50	4419
2026-01-28 11:36:52.59	231.90	13.29	-39.0	-41.1	14.7	7.00e-07	0	60	0	313524224	50	4344
2026-01-28 11:36:55.62	232.39	13.48	-39.1	-41.1	14.6	0.00e+00	0	60	0	322961408	50	4386
2026-01-28 11:36:58.65	232.88	13.66	-39.1	-41.1	14.7	0.00e+00	0	60	0	332398592	50	4381
2026-01-28 11:37:01.66	233.37	13.84	-39.0	-41.1	14.7	0.00e+00	0	60	0	341835776	50	4358
2026-01-28 11:37:04.69	233.88	14.03	-39.1	-41.1	14.7	0.00e+00	0	60	0	351272960	50	4371
2026-01-28 11:37:07.72	234.39	14.21	-39.0	-41.1	14.7	7.00e-07	0	60	0	360710144	50	4362
2026-01-28 11:37:10.75	234.90	14.39	-38.9	-40.9	14.9	1.50e-06	0	60	0	370147328	49	4534
2026-01-28 11:37:13.78	235.42	14.57	-39.0	-41.1	14.8	7.00e-07	0	60	0	379584512	49	4599
2026-01-28 11:37:16.81	235.95	14.75	-39.0	-41.0	14.7	0.00e+00	0	60	0	389021696	49	4591
2026-01-28 11:37:19.84	236.48	14.93	-39.1	-41.2	14.6	0.00e+00	0	60	0	398458880	49	4688
2026-01-28 11:37:22.88	237.03	15.11	-39.1	-41.2	14.7	0.00e+00	0	60	0	407896064	49	4652
2026-01-28 11:37:25.90	237.57	15.29	-39.1	-41.2	14.7	0.00e+00	0	60	0	417333248	49	4657
2026-01-28 11:37:28.94	238.12	15.46	-39.1	-41.1	14.7	0.00e+00	0	60	0	426770432	49	4647
2026-01-28 11:37:31.97	238.68	15.64	-39.1	-41.2	14.6	0.00e+00	0	60	0	436207616	49	4683
2026-01-28 11:37:35.00	239.25	15.81	-39.1	-41.2	14.7	1.50e-06	0	60	0	446693376	49	4669
2026-01-28 11:37:38.03	239.82	15.98	-39.3	-41.4	14.5	2.20e-06	0	60	0	456130560	49	4793
2026-01-28 11:37:41.06	240.40	16.15	-39.3	-41.4	14.5	0.00e+00	0	60	0	465567744	49	4781
2026-01-28 11:37:44.09	240.98	16.32	-39.2	-41.2	14.6	0.00e+00	0	60	0	475004928	49	4696
2026-01-28 11:37:47.12	241.57	16.49	-39.0	-41.1	14.8	0.00e+00	0	60	0	484442112	49	4599
2026-01-28 11:37:50.14	242.17	16.65	-39.1	-41.1	14.8	0.00e+00	0	60	0	493879296	49	4619
2026-01-28 11:37:53.17	242.77	16.82	-39.0	-41.0	14.9	0.00e+00	0	60	0	503316480	49	4558
2026-01-28 11:37:56.21	243.38	16.98	-39.1	-41.1	14.7	0.00e+00	0	60	0	512753664	49	4644
2026-01-28 11:37:59.23	244.00	17.14	-39.2	-41.3	14.6	0.00e+00	0	60	0	522190848	49	4726
2026-01-28 11:38:02.26	244.62	17.29	-39.1	-41.2	14.7	0.00e+00	0	60	0	531628032	49	4657
2026-01-28 11:38:05.29	245.25	17.45	-38.8	-40.8	15.1	0.00e+00	0	60	0	541065216	49	4455
2026-01-28 11:38:08.32	245.88	17.60	-38.8	-40.8	15.1	0.00e+00	0	60	0	550502400	49	4456
2026-01-28 11:38:11.35	246.52	17.75	-38.8	-40.8	15.1	7.00e-07	0	60	0	559939584	49	4466
2026-01-28 11:38:14.39	247.17	17.90	-39.0	-41.0	15.0	0.00e+00	0	60	0	569376768	49	4553
2026-01-28 11:38:17.42	247.83	18.04	-38.8	-40.7	15.2	0.00e+00	0	60	0	578813952	49	4416
2026-01-28 11:38:20.45	248.48	18.18	-38.8	-40.7	15.2	0.00e+00	0	60	0	588251136	49	4406
2026-01-28 11:38:23.48	249.15	18.32	-38.9	-40.9	15.1	0.00e+00	0	60	0	597688320	49	4501
2026-01-28 11:38:26.50	249.82	18.46	-38.6	-40.5	15.4	0.00e+00	0	60	0	607125504	49	4325
2026-01-28 11:38:29.54	250.50	18.59	-38.6	-40.5	15.4	0.00e+00	0	60	0	616562688	49	4315
2026-01-28 11:38:32.56	251.18	18.72	-38.7	-40.6	15.2	0.00e+00	0	60	0	625999872	49	4391
2026-01-28 11:38:35.59	251.87	18.85	-38.6	-40.5	15.4	0.00e+00	0	60	0	635437056	49	4325
2026-01-28 11:38:38.62	252.56	18.97	-38.5	-40.3	15.6	0.00e+00	0	61	0	644874240	48	4475
2026-01-28 11:38:41.65	253.26	19.09	-38.5	-40.3	15.7	0.00e+00	0	60	0	654311424	48	4460
2026-01-28 11:38:44.68	253.96	19.21	-38.6	-40.5	15.5	0.00e+00	0	60	0	663748608	48	4553
2026-01-28 11:38:47.71	254.67	19.32	-38.4	-40.2	15.7	0.00e+00	0	60	0	673185792	48	4422
2026-01-28 11:38:50.74	255.39	19.42	-38.4	-40.2	15.7	0.00e+00	0	60	0	682622976	48	4417
2026-01-28 11:38:53.77	256.11	19.53	-38.5	-40.3	15.7	0.00e+00	0	60	0	692060160	48	4462
2026-01-28 11:38:56.80	256.83	19.63	-38.3	-40.2	15.8	0.00e+00	0	60	0	701497344	48	4392
2026-01-28 11:38:59.83	257.56	19.72	-38.2	-40.0	15.9	0.00e+00	0	60	0	710934528	48	4302
2026-01-28 11:39:02.86	258.29	19.82	-38.2	-40.0	16.0	0.00e+00	0	60	0	720371712	48	4314
2026-01-28 11:39:05.89	259.03	19.90	-38.3	-40.0	15.9	0.00e+00	0	60	0	729808896	48	4327
2026-01-28 11:39:08.92	259.77	19.99	-38.2	-40.0	16.0	0.00e+00	0	60	0	739246080	48	4310
2026-01-28 11:39:11.96	260.51	20.06	-38.4	-40.2	15.7	0.00e+00	0	60	0	748683264	48	4405
2026-01-28 11:39:14.99	261.26	20.14	-38.3	-40.1	15.9	0.00e+00	0	60	0	758120448	48	4348
2026-01-28 11:39:18.02	262.01	20.21	-38.3	-40.1	15.9	0.00e+00	0	61	0	768606208	48	4351
2026-01-28 11:39:21.04	262.77	20.27	-38.3	-40.1	15.9	0.00e+00	0	60	0	776994816	48	4350
2026-01-28 11:39:24.07	263.52	20.33	-38.2	-40.0	16.0	0.00e+00	0	60	0	787480576	48	4301
2026-01-28 11:39:27.10	264.28	20.39	-38.4	-40.1	15.8	0.00e+00	0	60	0	796917760	48	4388
2026-01-28 11:39:30.13	265.05	20.44	-38.5	-40.3	15.6	0.00e+00	0	60	0	806354944	48	4483
2026-01-28 11:39:33.16	265.81	20.48	-38.4	-40.2	15.8	0.00e+00	0	60	0	815792128	48	4403
2026-01-28 11:39:36.19	266.58	20.52	-38.3	-40.1	15.9	0.00e+00	0	60	0	825229312	48	4344
2026-01-28 11:39:39.21	267.34	20.55	-38.3	-40.1	15.8	0.00e+00	0	60	0	834666496	48	4387
2026-01-28 11:39:42.24	268.11	20.58	-38.5	-40.3	15.7	0.00e+00	0	60	0	844103680	48	4463
2026-01-28 11:39:45.27	268.88	20.61	-38.4	-40.2	15.7	0.00e+00	0	60	0	853540864	48	4415
2026-01-28 11:39:48.30	269.66	20.63	-38.4	-40.2	15.7	0.00e+00	0	61	0	862978048	48	4437
2026-01-28 11:39:51.33	270.43	20.64	-38.4	-40.2	15.7	0.00e+00	0	60	0	872415232	48	4411
2026-01-28 11:39:54.36	271.20	20.65	-38.3	-40.1	15.8	0.00e+00	0	60	0	881852416	48	4373
2026-01-28 11:39:57.39	271.98	20.65	-38.4	-40.1	15.7	0.00e+00	0	61	0	891289600	48	4389
2026-01-28 11:40:00.42	272.75	20.65	-38.4	-40.2	15.8	0.00e+00	0	61	0	900726784	48	4400
2026-01-28 11:40:03.45	273.52	20.65	-38.3	-40.1	15.8	0.00e+00	0	61	0	910163968	48	4379
2026-01-28 11:40:06.48	274.30	20.64	-38.4	-40.2	15.8	0.00e+00	0	60	0	919601152	48	4395
2026-01-28 11:40:09.51	275.07	20.62	-38.4	-40.2	15.7	0.00e+00	0	61	0	929038336	48	4431
2026-01-28 11:40:12.54	275.84	20.60	-38.4	-40.3	15.6	0.00e+00	0	61	0	938475520	48	4450
2026-01-28 11:40:15.57	276.61	20.57	-38.5	-40.3	15.6	0.00e+00	0	61	0	947912704	48	4489
2026-01-28 11:40:18.60	277.38	20.54	-38.2	-40.0	15.9	0.00e+00	0	61	0	957349888	48	4313
2026-01-28 11:40:21.63	278.15	20.50	-38.5	-40.3	15.6	0.00e+00	0	60	0	966787072	48	4465
2026-01-28 11:40:24.66	278.91	20.46	-38.3	-40.1	15.8	0.00e+00	0	61	0	976224256	48	4382
2026-01-28 11:40:27.69	279.67	20.41	-38.2	-39.9	16.0	0.00e+00	0	60	0	985661440	48	4280
2026-01-28 11:40:30.72	280.43	20.36	-38.4	-40.2	15.8	0.00e+00	0	61	0	995098624	48	4393
2026-01-28 11:40:33.75	281.19	20.30	-38.4	-40.2	15.7	0.00e+00	0	61	0	1004535808	48	4394
2026-01-28 11:40:36.78	281.95	20.24	-38.5	-40.3	15.6	0.00e+00	0	61	0	1013972992	48	4492
2026-01-28 11:40:39.81	282.70	20.17	-38.3	-40.1	15.9	0.00e+00	0	61	0	1023410176	48	4350
2026-01-28 11:40:42.84	283.44	20.10	-38.2	-40.0	15.9	0.00e+00	0	60	0	1032847360	48	4293
2026-01-28 11:40:45.87	284.19	20.02	-38.3	-40.1	15.9	0.00e+00	0	61	0	1042284544	48	4347
2026-01-28 11:40:48.90	284.93	19.94	-38.3	-40.1	15.8	0.00e+00	0	60	0	1051721728	48	4342
2026-01-28 11:40:51.93	285.67	19.86	-38.4	-40.3	15.7	0.00e+00	0	61	0	1061158912	48	4452
2026-01-28 11:40:54.96	286.40	19.77	-38.2	-39.9	16.0	0.00e+00	0	61	0	1070596096	48	4276
2026-01-28 11:40:57.99	287.13	19.68	-38.4	-40.2	15.7	0.00e+00	0	60	0	1080033280	48	4420
2026-01-28 11:41:01.02	287.85	19.58	-38.2	-39.9	15.9	0.00e+00	0	61	0	1089470464	48	4289
2026-01-28 11:41:04.05	288.57	19.48	-38.4	-40.2	15.7	0.00e+00	0	60	0	1099956224	48	4405
2026-01-28 11:41:07.08	289.28	19.37	-38.5	-40.4	15.5	0.00e+00	0	61	0	1109393408	48	4497
2026-01-28 11:41:10.10	289.99	19.26	-38.5	-40.4	15.5	0.00e+00	0	60	0	1118830592	48	4500
2026-01-28 11:41:13.13	290.69	19.15	-38.4	-40.2	15.6	0.00e+00	0	61	0	1128267776	48	4434
2026-01-28 11:41:16.16	291.39	19.03	-38.4	-40.3	15.6	7.00e-07	0	61	0	1137704960	48	4456
2026-01-28 11:41:19.19	292.09	18.91	-38.2	-40.0	15.8	0.00e+00	0	61	0	1147142144	48	4321
2026-01-28 11:41:22.22	292.78	18.79	-38.2	-40.0	15.8	0.00e+00	0	61	0	1156579328	48	4326
2026-01-28 11:41:25.26	293.46	18.66	-38.2	-39.9	15.9	0.00e+00	0	61	0	1166016512	48	4276
2026-01-28 11:41:28.29	294.14	18.53	-38.2	-40.0	15.8	0.00e+00	0	61	0	1175453696	48	4318
2026-01-28 11:41:31.32	294.81	18.40	-38.2	-40.0	15.8	0.00e+00	0	61	0	1184890880	48	4324
2026-01-28 11:41:34.35	295.47	18.26	-38.4	-40.3	15.5	0.00e+00	0	61	0	1194328064	48	4442
2026-01-28 11:41:37.38	296.13	18.12	-38.4	-40.2	15.6	0.00e+00	0	61	0	1203765248	48	4419
2026-01-28 11:41:40.41	296.79	17.98	-38.3	-40.2	15.6	0.00e+00	0	61	0	1213202432	48	4406
2026-01-28 11:41:43.45	297.44	17.83	-38.4	-40.3	15.5	0.00e+00	0	60	0	1222639616	48	4464
2026-01-28 11:41:46.48	298.08	17.69	-38.7	-40.6	15.1	0.00e+00	0	61	0	1232076800	48	4651
2026-01-28 11:41:49.51	298.71	17.54	-38.6	-40.5	15.3	0.00e+00	0	60	0	1241513984	48	4588
2026-01-28 11:41:52.54	299.34	17.38	-38.7	-40.6	15.2	0.00e+00	0	61	0	1250951168	48	4620
2026-01-28 11:41:55.57	299.96	17.23	-38.8	-40.7	15.1	0.00e+00	0	60	0	1260388352	48	4696
2026-01-28 11:41:58.60	300.58	17.07	-38.8	-40.8	15.0	0.00e+00	0	61	0	1269825536	48	4707
2026-01-28 11:42:01.63	301.19	16.91	-38.9	-41.0	14.8	0.00e+00	0	60	0	1279262720	48	4822
2026-01-28 11:42:04.66	301.79	16.75	-38.7	-40.7	15.1	1.50e-06	0	60	0	1288699904	48	4682
2026-01-28 11:42:07.69	302.39	16.59	-38.6	-40.5	15.3	0.00e+00	0	61	0	1298137088	48	4566
2026-01-28 11:42:10.72	302.98	16.42	-38.7	-40.6	15.1	0.00e+00	0	60	0	1307574272	48	4624
2026-01-28 11:42:13.75	303.57	16.26	-38.9	-40.9	14.8	1.50e-06	0	60	0	1317011456	48	4811
2026-01-28 11:42:16.79	304.15	16.09	-38.9	-40.9	14.8	7.00e-07	0	61	0	1326448640	48	4800
2026-01-28 11:42:19.81	304.72	15.92	-38.8	-40.8	14.9	0.00e+00	0	60	0	1335885824	48	4757
2026-01-28 11:42:22.85	305.28	15.75	-38.8	-40.7	15.0	0.00e+00	0	60	0	1345323008	48	4697
2026-01-28 11:42:25.87	305.84	15.58	-38.7	-40.7	15.1	0.00e+00	0	60	0	1354760192	48	4653
2026-01-28 11:42:28.91	306.40	15.40	-38.9	-41.0	14.8	0.00e+00	0	61	0	1364197376	48	4817
2026-01-28 11:42:31.93	306.94	15.23	-39.2	-41.3	14.4	7.00e-07	0	61	0	1373634560	48	5002
2026-01-28 11:42:34.97	307.48	15.05	-39.1	-41.2	14.6	7.00e-07	0	60	0	1383071744	48	4931
2026-01-28 11:42:37.99	308.02	14.88	-39.0	-41.1	14.6	1.50e-06	0	60	0	1392508928	48	4906
2026-01-28 11:42:41.03	308.55	14.70	-38.9	-41.0	14.7	7.00e-07	0	61	0	1402994688	48	4825
2026-01-28 11:42:44.06	309.07	14.52	-39.0	-41.0	14.7	7.00e-07	0	60	0	1412431872	48	4862
2026-01-28 11:42:47.09	309.58	14.34	-39.1	-41.2	14.5	0.00e+00	0	60	0	1421869056	48	4946
2026-01-28 11:42:50.12	310.09	14.16	-39.2	-41.3	14.4	0.00e+00	0	60	0	1431306240	48	5014
2026-01-28 11:42:53.15	310.60	13.98	-39.1	-41.2	14.5	0.00e+00	0	61	0	1440743424	48	4970
2026-01-28 11:42:56.18	311.10	13.80	-39.0	-41.1	14.6	0.00e+00	0	60	0	1450180608	48	4916
2026-01-28 11:42:59.21	311.59	13.61	-38.9	-41.0	14.7	7.00e-07	0	60	0	1459617792	48	4835
2026-01-28 11:43:02.24	312.07	13.43	-38.8	-40.8	14.9	7.00e-07	0	60	0	1469054976	48	4722
2026-01-28 11:43:05.27	312.55	13.25	-38.8	-40.8	14.8	0.00e+00	0	60	0	1478492160	48	4759
2026-01-28 11:43:08.30	313.03	13.06	-39.0	-41.1	14.6	0.00e+00	0	60	0	1487929344	48	4883
2026-01-28 11:43:11.33	313.50	12.88	-38.9	-41.0	14.6	0.00e+00	0	60	0	1497366528	48	4844
2026-01-28 11:43:14.36	313.96	12.69	-39.0	-41.1	14.5	7.00e-07	0	60	0	1506803712	48	4895
2026-01-28 11:43:17.39	314.42	12.51	-39.0	-41.0	14.6	7.00e-07	0	61	0	1516240896	48	4869
2026-01-28 11:43:20.42	314.87	12.33	-38.9	-40.9	14.7	0.00e+00	0	61	0	1525678080	48	4802
2026-01-28 11:43:23.45	315.32	12.14	-39.0	-41.0	14.5	0.00e+00	0	60	0	1535115264	48	4870
2026-01-28 11:43:26.49	315.76	11.95	-39.0	-41.1	14.5	0.00e+00	0	61	0	1544552448	48	4894
2026-01-28 11:43:29.52	316.19	11.77	-39.0	-41.1	14.4	1.50e-06	0	60	0	1553989632	48	4900
2026-01-28 11:43:32.55	316.62	11.58	-39.1	-41.3	14.3	7.00e-07	0	60	0	1563426816	48	5016
2026-01-28 11:43:35.58	317.05	11.40	-39.1	-41.3	14.2	7.00e-07	0	60	0	1572864000	48	5012
2026-01-28 11:43:38.61	317.47	11.21	-39.2	-41.4	14.1	1.50e-06	0	60	0	1582301184	49	4813
2026-01-28 11:43:41.64	317.88	11.03	-39.3	-41.6	13.9	1.50e-06	0	61	0	1591738368	49	4887
2026-01-28 11:43:44.67	318.29	10.84	-39.5	-41.8	13.7	6.80e-06	0	60	0	1601175552	49	5009
2026-01-28 11:43:47.71	318.70	10.66	-39.6	-42.0	13.4	1.29e-05	0	61	0	1610612736	49	5134
2026-01-28 11:43:50.74	319.10	10.47	-39.8	-42.3	13.2	2.51e-05	0	60	0	1620049920	50	4984
2026-01-28 11:43:53.77	319.50	10.29	-39.9	-42.4	13.0	3.96e-05	0	61	0	1629487104	50	5082
2026-01-28 11:43:56.80	319.89	10.11	-39.6	-42.1	13.4	1.90e-05	0	61	0	1638924288	50	4875
2026-01-28 11:43:59.83	320.27	9.92	-39.7	-42.1	13.4	1.52e-05	0	60	0	1648361472	50	4891
2026-01-28 11:44:02.86	320.65	9.74	-39.6	-42.0	13.5	1.14e-05	0	60	0	1657798656	50	4831
2026-01-28 11:44:05.89	321.03	9.55	-39.6	-42.0	13.4	1.06e-05	0	60	0	1667235840	50	4860
2026-01-28 11:44:08.92	321.40	9.37	-39.7	-42.2	13.2	2.21e-05	0	61	0	1676673024	50	4942
2026-01-28 11:44:11.95	321.77	9.19	-39.8	-42.4	13.0	3.96e-05	0	60	0	1687158784	50	5048
2026-01-28 11:44:14.99	322.13	9.01	-39.9	-42.5	12.9	4.50e-05	0	61	0	1695547392	50	5111
2026-01-28 11:44:18.02	322.49	8.82	-40.0	-42.6	12.8	4.73e-05	0	61	0	1706033152	50	5189
2026-01-28 11:44:21.05	322.85	8.64	-39.9	-42.5	12.8	6.86e-05	0	60	0	1715470336	50	5152
2026-01-28 11:44:24.08	323.20	8.46	-39.9	-42.5	12.8	5.49e-05	0	60	0	1724907520	50	5104
2026-01-28 11:44:27.11	323.54	8.28	-39.9	-42.6	12.6	7.55e-05	0	60	0	1734344704	50	5190
2026-01-28 11:44:30.15	323.89	8.10	-40.0	-42.7	12.6	6.94e-05	0	60	0	1743781888	50	5232
2026-01-28 11:44:33.18	324.22	7.92	-44.7	-57.0	3.8	1.49e+00	0	61	104	1747976192	59	16285
2026-01-28 11:44:36.21	324.56	7.74	-45.1	-57.7	3.8	1.49e+00	0	61	104	1747976192	60	16525
2026-01-28 11:44:39.24	324.89	7.56	-45.2	-57.9	3.8	1.49e+00	0	61	104	1747976192	61	15968
2026-01-28 11:44:42.27	325.22	7.38	-45.1	-57.8	3.8	1.49e+00	0	60	104	1747976192	60	16809
2026-01-28 11:44:45.30	325.54	7.20	-45.2	-57.8	3.8	1.49e+00	0	60	104	1747976192	60	16738
2026-01-28 11:44:48.33	325.86	7.03	-45.1	-57.7	3.8	1.49e+00	0	60	104	1747976192	60	16632
2026-01-28 11:44:51.36	326.17	6.85	-45.0	-57.7	3.8	1.49e+00	0	61	104	1747976192	60	16662
2026-01-28 11:44:54.40	326.48	6.67	-45.1	-57.7	3.8	1.49e+00	0	61	104	1747976192	60	16639
2026-01-28 11:44:57.42	326.79	6.50	-44.4	-57.7	3.8	1.49e+00	0	60	104	1747976192	60	16682
2026-01-28 11:45:00.46	327.10	6.32	-45.1	-57.7	3.8	1.49e+00	0	61	104	1747976192	60	16587
2026-01-28 11:45:03.49	327.40	6.15	-45.1	-57.7	3.8	1.49e+00	0	61	104	1747976192	60	16581
2026-01-28 11:45:06.52	327.69	5.97	-45.1	-57.7	3.8	1.49e+00	0	61	104	1747976192	60	16641
2026-01-28 11:45:09.55	327.99	5.80	-45.1	-57.7	3.8	1.49e+00	0	60	104	1747976192	60	16598
2026-01-28 11:45:12.59	328.28	5.62	-45.1	-57.7	3.8	1.49e+00	0	60	104	1747976192	60	16651
2026-01-28 11:45:15.62	328.57	5.45	-45.1	-57.7	3.8	1.49e+00	0	60	104	1747976192	60	16596
2026-01-28 11:45:18.65	328.85	5.28	-45.1	-57.7	3.8	1.49e+00	0	61	104	1747976192	60	16630
2026-01-28 11:45:21.68	329.13	5.11	-45.1	-57.7	3.8	1.49e+00	0	61	104	1747976192	60	16585
2026-01-28 11:45:24.71	329.41	4.94	-45.1	-57.7	3.8	1.49e+00	0	61	104	1747976192	60	16618
2026-01-28 11:45:27.74	329.69	4.77	-45.0	-57.7	3.8	1.49e+00	0	60	104	1747976192	60	16639
2026-01-28 11:45:30.77	329.96	4.60	-45.0	-57.7	3.8	1.49e+00	0	61	104	1747976192	60	16540
2026-01-28 11:45:33.80	330.23	4.43	-45.0	-57.7	3.8	1.49e+00	0	61	104	1747976192	60	16573
2026-01-28 11:45:36.83	330.49	4.26	-45.0	-57.7	3.8	1.49e+00	0	60	104	1747976192	60	16585
2026-01-28 11:45:39.86	330.76	4.09	-45.1	-57.7	3.8	1.49e+00	0	60	104	1747976192	60	16575
2026-01-28 11:45:42.90	331.02	3.92	-45.1	-57.7	3.8	1.49e+00	0	61	104	1747976192	60	16600
2026-01-28 11:45:45.93	331.28	3.76	-45.0	-57.7	3.8	1.49e+00	0	60	104	1747976192	60	16527
2026-01-28 11:45:48.96	331.53	3.59	-45.0	-57.7	3.8	1.49e+00	0	60	104	1747976192	60	16508
2026-01-28 11:45:51.99	331.78	3.42	-45.0	-57.7	3.8	1.49e+00	0	61	104	1747976192	60	16516
2026-01-28 11:45:55.02	332.03	3.26	-45.0	-57.7	3.8	1.49e+00	0	61	104	1747976192	60	16550
2026-01-28 11:45:58.05	332.28	3.09	-45.0	-57.6	3.8	1.49e+00	0	61	104	1747976192	60	16503
2026-01-28 11:46:01.08	332.52	2.93	-45.0	-57.6	3.8	1.49e+00	0	60	104	1747976192	60	16503
2026-01-28 11:46:04.11	332.77	2.77	-45.0	-57.7	3.8	1.49e+00	0	61	104	1747976192	60	16543
2026-01-28 11:46:07.15	333.01	2.60	-45.0	-57.6	3.8	1.49e+00	0	61	104	1747976192	60	16481
2026-01-28 11:46:10.18	333.24	2.44	-45.0	-57.7	3.8	1.49e+00	0	61	104	1747976192	60	16518
2026-01-28 11:46:13.21	333.48	2.28	-44.9	-57.6	3.8	1.49e+00	0	61	104	1747976192	60	16503
2026-01-28 11:46:16.24	333.71	2.12	-45.0	-57.6	3.8	1.49e+00	0	61	104	1747976192	60	16501
2026-01-28 11:46:19.27	333.94	1.96	-45.0	-57.7	3.8	1.49e+00	0	61	104	1747976192	60	16528

#Closed at: 2026-01-28 11:46:21
#Recorded file [1747 MB]: D:/lorett/data/31039_260128_143341.dat