passes_logs/2026/01/28/R2.0S_Moscow/R2.0S_Moscow__20260128_102139_SUOMI_NPP_rec.log

#Pass ID: 20260128_102139_SUOMI NPP
#Satellite: SUOMI NPP
#Configuration: NPP
#almurnet v.1.7.20251203
#Start time: 2026-01-28 10:21:39

#Version: 2.2.20231116
#Station: R2.0S_Moscow
#Location: 37.707566 lon 55.798166 lat
#TLE: 1 37849U 11061A   26027.86188320  .00000172  00000+0  10275-3 0  9990
#TLE: 2 37849  98.7823 329.8005 0002088  41.4184 318.7150 14.19530883738530

#Time	Az	El	Level	Level2	SNR	BER	BlckErr	Temp	State	Recorded	gain1	gain2
2026-01-28 10:21:39.36	171.17	1.98	-43.3	-58.0	3.8	1.49e+00	0	50	0	0	58	19266
2026-01-28 10:21:43.40	171.25	2.24	-43.3	-58.0	3.8	1.49e+00	0	50	104	0	58	19299
2026-01-28 10:21:47.45	171.32	2.50	-43.3	-58.0	3.8	1.49e+00	0	51	104	0	58	19242
2026-01-28 10:21:51.49	171.40	2.77	-43.3	-58.0	3.8	1.49e+00	0	51	104	0	58	19270
2026-01-28 10:21:55.53	171.48	3.03	-43.3	-58.0	3.8	1.49e+00	0	51	104	0	58	19181
2026-01-28 10:21:59.57	171.56	3.30	-43.3	-58.0	3.8	1.49e+00	0	51	104	0	58	19219
2026-01-28 10:22:03.61	171.65	3.57	-43.3	-58.0	3.8	1.49e+00	0	52	104	0	58	19272
2026-01-28 10:22:07.65	171.73	3.85	-43.3	-57.9	3.8	1.49e+00	0	52	104	0	58	19166
2026-01-28 10:22:11.69	171.81	4.12	-43.3	-57.9	3.8	1.49e+00	0	52	104	0	58	19034
2026-01-28 10:22:15.74	171.90	4.40	-43.3	-57.7	3.8	1.49e+00	0	53	104	0	58	18695
2026-01-28 10:22:19.78	171.99	4.69	-43.3	-57.8	3.8	1.49e+00	0	53	104	0	58	18823
2026-01-28 10:22:23.82	172.08	4.97	-43.2	-57.4	3.8	1.49e+00	0	53	104	0	58	17956
2026-01-28 10:22:27.87	172.17	5.26	-43.2	-56.4	3.8	1.49e+00	0	53	104	0	58	16027
2026-01-28 10:22:31.91	172.26	5.55	-43.2	-56.2	3.8	1.49e+00	0	53	104	0	58	15689
2026-01-28 10:22:35.95	172.36	5.85	-43.2	-56.2	3.8	1.49e+00	0	54	104	0	58	15591
2026-01-28 10:22:39.99	172.45	6.15	-43.1	-55.0	4.0	1.48e+00	0	54	104	0	58	13661
2026-01-28 10:22:44.03	172.55	6.45	-42.9	-53.3	4.6	1.05e+00	0	54	0	2097152	57	11823
2026-01-28 10:22:48.07	172.65	6.75	-42.6	-51.0	5.9	3.66e-01	0	54	0	10485760	57	9094
2026-01-28 10:22:52.12	172.75	7.06	-42.2	-48.9	7.7	1.01e-01	0	54	0	17825792	56	7573
2026-01-28 10:22:56.16	172.86	7.37	-41.6	-47.4	9.1	2.71e-02	0	54	0	25165824	55	6740
2026-01-28 10:23:00.20	172.96	7.69	-41.3	-46.7	9.8	1.10e-02	0	55	0	32505856	54	6626
2026-01-28 10:23:04.24	173.07	8.01	-41.6	-47.4	9.0	1.80e-02	0	55	0	40894464	54	7199
2026-01-28 10:23:08.28	173.18	8.33	-41.6	-46.7	10.4	6.66e-03	0	55	0	45088768	54	6597
2026-01-28 10:23:12.32	173.29	8.66	-41.1	-45.5	11.7	6.58e-04	0	55	0	50331648	54	5730
2026-01-28 10:23:16.36	173.41	9.00	-40.8	-45.3	11.8	4.73e-04	0	55	0	57671680	53	5988
2026-01-28 10:23:20.40	173.52	9.33	-41.1	-45.3	11.9	2.56e-04	0	55	0	66060288	53	5969
2026-01-28 10:23:24.44	173.64	9.67	-41.0	-45.2	12.1	2.34e-04	0	56	0	73400320	53	5878
2026-01-28 10:23:28.48	173.77	10.02	-41.0	-45.0	12.4	1.68e-04	0	56	0	80740352	53	5723
2026-01-28 10:23:32.52	173.89	10.37	-41.0	-44.7	12.7	7.09e-05	0	56	0	88080384	53	5583
2026-01-28 10:23:36.56	174.02	10.73	-40.8	-44.5	13.0	3.35e-05	0	56	0	96468992	53	5405
2026-01-28 10:23:40.60	174.15	11.09	-40.8	-44.3	13.2	1.83e-05	0	56	0	103809024	53	5316
2026-01-28 10:23:44.64	174.28	11.46	-40.7	-44.1	13.4	1.75e-05	0	56	0	111149056	53	5168
2026-01-28 10:23:48.68	174.42	11.83	-40.7	-44.0	13.5	5.30e-06	0	56	0	118489088	53	5148
2026-01-28 10:23:52.72	174.56	12.21	-40.5	-43.7	13.9	3.80e-06	0	56	0	125829120	52	5250
2026-01-28 10:23:56.76	174.70	12.59	-40.5	-43.7	14.0	1.50e-06	0	56	0	134217728	52	5229
2026-01-28 10:24:00.80	174.85	12.98	-40.5	-43.6	14.0	0.00e+00	0	57	0	141557760	52	5208
2026-01-28 10:24:04.84	175.00	13.37	-40.6	-43.7	14.0	4.50e-06	0	57	0	148897792	52	5240
2026-01-28 10:24:08.88	175.15	13.78	-40.5	-43.6	14.1	0.00e+00	0	57	0	156237824	52	5163
2026-01-28 10:24:12.92	175.31	14.19	-40.5	-43.7	14.0	3.00e-06	0	57	0	164626432	52	5239
2026-01-28 10:24:16.96	175.47	14.60	-40.5	-43.5	14.2	7.00e-07	0	57	0	171966464	52	5155
2026-01-28 10:24:21.00	175.64	15.02	-40.5	-43.5	14.2	1.50e-06	0	57	0	179306496	52	5153
2026-01-28 10:24:25.05	175.81	15.45	-40.8	-44.0	13.8	1.50e-06	0	57	0	186646528	52	5409
2026-01-28 10:24:29.08	175.98	15.89	-40.8	-44.0	13.8	3.80e-06	0	57	0	193986560	52	5406
2026-01-28 10:24:33.12	176.16	16.34	-41.0	-44.4	13.4	5.30e-06	0	57	0	202375168	52	5668
2026-01-28 10:24:37.17	176.35	16.79	-41.0	-44.4	13.4	1.29e-05	0	57	0	209715200	52	5695
2026-01-28 10:24:41.20	176.54	17.25	-41.2	-44.6	13.2	1.67e-05	0	57	0	217055232	52	5840
2026-01-28 10:24:45.24	176.73	17.72	-41.1	-44.5	13.4	1.98e-05	0	57	0	224395264	52	5729
2026-01-28 10:24:49.28	176.93	18.20	-41.3	-44.8	13.1	2.05e-05	0	57	0	232783872	53	5615
2026-01-28 10:24:53.32	177.14	18.69	-41.3	-44.8	13.1	2.21e-05	0	57	0	240123904	53	5620
2026-01-28 10:24:57.35	177.36	19.18	-41.4	-45.0	12.9	2.89e-05	0	57	0	247463936	53	5743
2026-01-28 10:25:01.40	177.58	19.69	-41.0	-44.4	13.5	1.29e-05	0	58	0	254803968	53	5344
2026-01-28 10:25:05.44	177.81	20.21	-41.0	-44.3	13.6	1.37e-05	0	58	0	262144000	53	5315
2026-01-28 10:25:09.48	178.04	20.74	-41.4	-45.0	13.0	2.51e-05	0	58	0	270532608	53	5736
2026-01-28 10:25:13.52	178.28	21.28	-41.5	-45.3	12.6	6.71e-05	0	58	0	277872640	53	5929
2026-01-28 10:25:17.55	178.54	21.83	-41.6	-45.4	12.6	7.93e-05	0	58	0	285212672	53	6020
2026-01-28 10:25:21.59	178.80	22.39	-41.3	-44.8	13.2	3.89e-05	0	58	0	292552704	53	5612
2026-01-28 10:25:25.63	179.07	22.96	-41.3	-44.8	13.2	1.98e-05	0	58	0	300941312	53	5638
2026-01-28 10:25:29.67	179.34	23.55	-40.9	-44.1	13.9	4.50e-06	0	58	0	308281344	53	5160
2026-01-28 10:25:33.71	179.63	24.15	-40.6	-43.5	14.6	0.00e+00	0	58	0	315621376	52	5111
2026-01-28 10:25:37.75	179.93	24.76	-40.6	-43.6	14.5	0.00e+00	0	58	0	322961408	52	5163
2026-01-28 10:25:41.79	180.25	25.39	-40.7	-43.6	14.4	0.00e+00	0	58	0	330301440	52	5209
2026-01-28 10:25:45.83	180.57	26.03	-40.9	-44.0	14.1	0.00e+00	0	58	0	338690048	52	5422
2026-01-28 10:25:49.87	180.91	26.69	-40.9	-44.1	14.0	3.80e-06	0	58	0	346030080	52	5467
2026-01-28 10:25:53.91	181.26	27.36	-40.9	-44.0	14.1	7.00e-07	0	58	0	353370112	52	5453
2026-01-28 10:25:57.95	181.62	28.04	-40.7	-43.6	14.5	7.00e-07	0	58	0	360710144	52	5197
2026-01-28 10:26:01.99	182.00	28.75	-40.6	-43.4	14.7	0.00e+00	0	58	0	369098752	52	5093
2026-01-28 10:26:06.03	182.40	29.47	-40.6	-43.5	14.6	7.00e-07	0	58	0	376438784	52	5133
2026-01-28 10:26:10.07	182.82	30.20	-41.2	-44.4	13.8	7.00e-07	0	58	0	383778816	52	5704
2026-01-28 10:26:14.11	183.25	30.96	-42.0	-46.0	12.2	1.46e-04	0	58	0	391118848	54	6066
2026-01-28 10:26:18.15	183.70	31.73	-42.1	-46.0	12.0	1.87e-04	0	58	0	398458880	55	5787
2026-01-28 10:26:22.19	184.18	32.52	-42.2	-46.4	11.8	5.38e-04	0	58	0	406847488	55	6019
2026-01-28 10:26:26.23	184.68	33.33	-42.4	-46.9	11.3	3.87e-04	0	59	0	414187520	55	6402
2026-01-28 10:26:30.27	185.20	34.16	-42.3	-46.6	11.4	8.55e-04	0	59	0	421527552	55	6195
2026-01-28 10:26:34.31	185.75	35.01	-42.0	-45.9	12.3	1.22e-04	0	59	0	428867584	55	5659
2026-01-28 10:26:38.35	186.33	35.88	-42.5	-46.8	11.4	8.41e-04	0	58	0	437256192	55	6326
2026-01-28 10:26:42.39	186.94	36.78	-42.4	-46.7	11.4	8.35e-04	0	59	0	444596224	55	6273
2026-01-28 10:26:46.42	187.59	37.69	-43.0	-47.8	10.5	2.53e-03	0	59	0	451936256	56	6718
2026-01-28 10:26:50.46	188.27	38.62	-42.4	-46.4	12.0	8.83e-04	0	59	0	459276288	56	5677
2026-01-28 10:26:54.50	188.99	39.58	-43.1	-48.2	10.1	6.29e-03	0	59	0	466616320	56	7033
2026-01-28 10:26:58.54	189.76	40.56	-43.4	-49.2	9.1	1.93e-02	0	59	0	475004928	57	7379
2026-01-28 10:27:02.58	190.57	41.55	-43.1	-48.1	10.1	1.36e-02	0	59	0	482344960	57	6570
2026-01-28 10:27:06.62	191.43	42.58	-42.9	-47.7	10.6	3.68e-03	0	59	0	489684992	57	6254
2026-01-28 10:27:10.65	192.35	43.61	-41.8	-45.4	12.9	1.08e-04	0	59	0	497025024	55	5352
2026-01-28 10:27:14.69	193.33	44.68	-41.8	-45.4	12.9	5.18e-05	0	59	0	505413632	55	5398
2026-01-28 10:27:18.73	194.38	45.76	-42.3	-46.5	11.7	5.88e-04	0	59	0	512753664	55	6093
2026-01-28 10:27:22.78	195.50	46.86	-42.6	-46.9	11.5	1.49e-03	0	59	0	520093696	56	6010
2026-01-28 10:27:26.82	196.70	47.98	-41.8	-45.5	12.9	8.01e-05	0	59	0	527433728	55	5412
2026-01-28 10:27:30.86	198.00	49.11	-41.8	-45.5	12.8	4.50e-05	0	59	0	534773760	54	5736
2026-01-28 10:27:34.90	199.39	50.25	-40.6	-43.4	14.9	1.50e-06	0	59	0	543162368	53	4772
2026-01-28 10:27:38.94	200.89	51.40	-41.0	-44.0	14.4	0.00e+00	0	59	0	550502400	52	5434
2026-01-28 10:27:42.98	202.50	52.56	-39.6	-41.7	16.6	0.00e+00	0	59	0	557842432	51	4436
2026-01-28 10:27:47.01	204.25	53.72	-38.8	-40.7	17.6	0.00e+00	0	59	0	565182464	48	4689
2026-01-28 10:27:51.05	206.14	54.89	-39.4	-41.6	16.9	0.00e+00	0	59	0	573571072	49	4873
2026-01-28 10:27:55.09	208.19	56.04	-40.0	-42.4	16.1	0.00e+00	0	59	0	580911104	50	5070
2026-01-28 10:27:59.13	210.42	57.18	-39.6	-41.9	16.6	0.00e+00	0	59	0	588251136	50	4771
2026-01-28 10:28:03.17	212.84	58.29	-40.1	-42.6	15.8	0.00e+00	0	59	0	595591168	50	5214
2026-01-28 10:28:07.20	215.45	59.38	-40.5	-43.2	15.1	0.00e+00	0	59	0	602931200	52	4933
2026-01-28 10:28:11.24	218.30	60.42	-41.2	-44.4	13.9	3.00e-06	0	59	0	611319808	53	5396
2026-01-28 10:28:15.28	221.38	61.42	-40.8	-43.7	14.6	0.00e+00	0	59	0	618659840	53	4978
2026-01-28 10:28:19.32	224.70	62.35	-41.4	-44.7	13.7	2.20e-06	0	59	0	625999872	53	5550
2026-01-28 10:28:23.36	228.28	63.21	-40.2	-42.7	15.5	0.00e+00	0	59	0	633339904	52	4687
2026-01-28 10:28:27.40	232.12	63.98	-39.3	-41.5	16.9	0.00e+00	0	59	0	641728512	50	4552
2026-01-28 10:28:31.44	236.19	64.64	-41.4	-44.8	13.6	6.10e-06	0	59	0	649068544	53	5609
2026-01-28 10:28:35.48	240.49	65.19	-40.5	-43.4	15.0	0.00e+00	0	59	0	656408576	51	5394
2026-01-28 10:28:39.53	244.99	65.62	-41.1	-44.6	13.7	7.00e-07	0	59	0	663748608	53	5513
2026-01-28 10:28:43.57	249.62	65.90	-41.1	-44.2	14.1	3.00e-06	0	59	0	671088640	52	5547
2026-01-28 10:28:47.61	254.35	66.04	-40.7	-43.6	14.6	3.80e-06	0	59	0	679477248	52	5182
2026-01-28 10:28:51.64	259.09	66.03	-41.6	-45.1	13.2	4.50e-06	0	59	0	686817280	53	5792
2026-01-28 10:28:55.69	263.81	65.88	-40.8	-43.8	14.5	7.00e-07	0	59	0	694157312	52	5311
2026-01-28 10:28:59.73	268.43	65.58	-40.3	-43.0	15.3	0.00e+00	0	59	0	701497344	51	5145
2026-01-28 10:29:03.76	272.89	65.15	-39.9	-42.2	16.2	0.00e+00	0	59	0	709885952	50	4951
2026-01-28 10:29:07.80	277.17	64.59	-40.4	-43.2	15.2	0.00e+00	0	59	0	717225984	51	5237
2026-01-28 10:29:11.84	281.22	63.92	-39.1	-41.2	17.1	0.00e+00	0	59	0	724566016	50	4406
2026-01-28 10:29:15.88	285.02	63.14	-40.5	-43.3	15.0	0.00e+00	0	59	0	731906048	52	5017
2026-01-28 10:29:19.92	288.57	62.28	-40.1	-42.5	15.9	0.00e+00	0	59	0	739246080	51	4853
2026-01-28 10:29:23.96	291.87	61.34	-38.7	-40.6	17.7	0.00e+00	0	59	0	747634688	49	4376
2026-01-28 10:29:27.99	294.92	60.35	-39.0	-41.0	17.3	0.00e+00	0	59	0	754974720	49	4581
2026-01-28 10:29:32.03	297.74	59.30	-38.3	-40.1	18.2	0.00e+00	0	59	0	762314752	48	4342
2026-01-28 10:29:36.07	300.34	58.22	-38.3	-40.1	18.2	0.00e+00	0	59	0	769654784	48	4354
2026-01-28 10:29:40.10	302.73	57.10	-39.2	-41.5	16.8	0.00e+00	0	59	0	778043392	49	4842
2026-01-28 10:29:44.14	304.94	55.97	-38.9	-41.7	16.2	0.00e+00	0	59	0	785383424	49	4953
2026-01-28 10:29:48.18	306.98	54.82	-38.4	-41.0	16.8	0.00e+00	0	59	0	792723456	48	4846
2026-01-28 10:29:52.22	308.85	53.66	-39.8	-42.2	16.2	0.00e+00	0	59	0	800063488	51	4660
2026-01-28 10:29:56.26	310.59	52.50	-39.8	-42.1	16.2	0.00e+00	0	59	0	807403520	51	4640
2026-01-28 10:30:00.29	312.19	51.35	-40.0	-42.3	16.1	0.00e+00	0	59	0	815792128	51	4737
2026-01-28 10:30:04.33	313.68	50.20	-40.5	-43.2	15.2	0.00e+00	0	59	0	823132160	51	5253
2026-01-28 10:30:08.37	315.06	49.07	-41.1	-44.3	14.0	3.80e-06	0	59	0	830472192	53	5306
2026-01-28 10:30:12.40	316.34	47.94	-40.7	-43.5	14.8	0.00e+00	0	59	0	837812224	52	5117
2026-01-28 10:30:16.44	317.53	46.83	-42.1	-46.0	12.3	1.46e-04	0	59	0	846200832	54	6076
2026-01-28 10:30:20.48	318.65	45.74	-42.0	-45.5	12.9	1.28e-04	0	59	0	853540864	56	5157
2026-01-28 10:30:24.52	319.69	44.67	-41.7	-45.3	13.0	1.44e-05	0	59	0	860880896	54	5608
2026-01-28 10:30:28.57	320.67	43.61	-41.8	-45.3	12.9	1.05e-04	0	60	0	868220928	55	5337
2026-01-28 10:30:32.60	321.58	42.58	-42.0	-45.8	12.5	5.26e-05	0	60	0	875560960	54	5930
2026-01-28 10:30:36.64	322.44	41.56	-39.8	-42.1	16.3	0.00e+00	0	59	0	883949568	51	4606
2026-01-28 10:30:40.68	323.25	40.57	-40.9	-43.8	14.4	0.00e+00	0	59	0	891289600	52	5316
2026-01-28 10:30:44.73	324.01	39.60	-42.1	-46.1	12.2	4.37e-04	0	59	0	898629632	55	5814
2026-01-28 10:30:48.77	324.73	38.65	-39.2	-41.3	16.9	0.00e+00	0	60	0	905969664	50	4477
2026-01-28 10:30:52.81	325.41	37.72	-42.4	-46.7	11.3	3.83e-04	0	59	0	914358272	55	6272
2026-01-28 10:30:56.85	326.05	36.81	-40.4	-43.1	15.1	0.00e+00	0	60	0	921698304	52	4910
2026-01-28 10:31:00.89	326.66	35.93	-41.6	-45.0	13.2	4.50e-06	0	60	0	929038336	53	5762
2026-01-28 10:31:04.93	327.24	35.06	-42.0	-45.9	12.3	1.52e-04	0	59	0	936378368	55	5707
2026-01-28 10:31:08.97	327.79	34.22	-40.7	-43.6	14.6	7.00e-07	0	59	0	943718400	53	4875
2026-01-28 10:31:13.01	328.31	33.39	-41.0	-44.0	14.2	2.20e-06	0	59	0	952107008	53	5138
2026-01-28 10:31:17.05	328.81	32.58	-41.0	-44.1	14.1	7.00e-07	0	60	0	959447040	53	5181
2026-01-28 10:31:21.09	329.28	31.80	-41.0	-44.1	14.1	2.20e-06	0	60	0	966787072	53	5201
2026-01-28 10:31:25.13	329.74	31.03	-42.0	-46.0	12.1	3.50e-04	0	59	0	974127104	54	6106
2026-01-28 10:31:29.17	330.17	30.28	-42.1	-46.2	12.0	1.85e-04	0	59	0	982515712	55	5856
2026-01-28 10:31:33.21	330.59	29.55	-41.5	-45.0	13.1	5.03e-05	0	60	0	989855744	55	5121
2026-01-28 10:31:37.25	330.98	28.83	-41.5	-44.9	13.2	1.60e-05	0	60	0	997195776	54	5373
2026-01-28 10:31:41.29	331.37	28.14	-41.7	-45.4	12.7	5.41e-05	0	60	0	1004535808	54	5665
2026-01-28 10:31:45.32	331.73	27.46	-40.9	-44.0	14.1	1.50e-06	0	60	0	1011875840	53	5123
2026-01-28 10:31:49.36	332.08	26.79	-40.6	-43.4	14.7	7.00e-07	0	60	0	1020264448	53	4785
2026-01-28 10:31:53.40	332.42	26.14	-40.6	-43.4	14.7	0.00e+00	0	60	0	1027604480	52	5098
2026-01-28 10:31:57.44	332.74	25.50	-40.7	-43.6	14.5	0.00e+00	0	60	0	1034944512	52	5173
2026-01-28 10:32:01.48	333.06	24.88	-40.6	-43.5	14.5	1.50e-06	0	60	0	1042284544	52	5156
2026-01-28 10:32:05.52	333.36	24.27	-40.9	-44.0	14.0	1.50e-06	0	60	0	1050673152	52	5450
2026-01-28 10:32:09.55	333.65	23.67	-41.0	-44.2	13.8	2.20e-06	0	60	0	1058013184	52	5547
2026-01-28 10:32:13.59	333.93	23.09	-39.9	-42.3	15.8	0.00e+00	0	60	0	1065353216	51	4740
2026-01-28 10:32:17.64	334.20	22.52	-39.0	-41.1	16.9	0.00e+00	0	60	0	1072693248	50	4389
2026-01-28 10:32:21.68	334.46	21.96	-39.1	-41.2	16.7	0.00e+00	0	60	0	1080033280	49	4703
2026-01-28 10:32:25.71	334.72	21.41	-39.6	-42.0	16.0	0.00e+00	0	60	0	1088421888	49	5107
2026-01-28 10:32:29.76	334.96	20.88	-39.8	-42.3	15.7	0.00e+00	0	59	0	1095761920	50	4987
2026-01-28 10:32:33.80	335.20	20.35	-39.4	-41.8	16.1	0.00e+00	0	60	0	1103101952	50	4712
2026-01-28 10:32:37.84	335.43	19.84	-39.4	-41.8	16.0	0.00e+00	0	59	0	1110441984	50	4719
2026-01-28 10:32:41.88	335.65	19.33	-39.6	-42.0	15.7	0.00e+00	0	59	0	1118830592	50	4862
2026-01-28 10:32:45.92	335.87	18.84	-39.8	-42.4	15.5	0.00e+00	0	60	0	1126170624	50	5044
2026-01-28 10:32:49.95	336.08	18.35	-40.2	-43.0	14.7	0.00e+00	0	60	0	1133510656	50	5460
2026-01-28 10:32:53.99	336.28	17.88	-40.5	-43.5	14.2	0.00e+00	0	60	0	1140850688	51	5443
2026-01-28 10:32:58.03	336.48	17.41	-40.6	-43.8	13.8	5.30e-06	0	60	0	1148190720	52	5302
2026-01-28 10:33:02.06	336.67	16.95	-40.6	-43.8	13.7	2.20e-06	0	60	0	1156579328	52	5303
2026-01-28 10:33:06.10	336.86	16.50	-40.4	-43.6	13.8	3.80e-06	0	60	0	1163919360	52	5212
2026-01-28 10:33:10.14	337.05	16.06	-40.0	-42.9	14.5	7.00e-07	0	60	0	1171259392	51	5059
2026-01-28 10:33:14.18	337.22	15.62	-39.6	-42.3	15.0	0.00e+00	0	60	0	1178599424	51	4724
2026-01-28 10:33:18.22	337.40	15.19	-39.8	-42.8	14.2	1.50e-06	0	60	0	1186988032	51	5012
2026-01-28 10:33:22.25	337.57	14.77	-39.9	-43.0	13.8	7.00e-07	0	60	0	1194328064	51	5137
2026-01-28 10:33:26.29	337.73	14.36	-39.8	-42.9	13.9	6.10e-06	0	60	0	1201668096	51	5042
2026-01-28 10:33:30.33	337.89	13.95	-39.7	-42.9	13.8	2.20e-06	0	59	0	1209008128	51	5049
2026-01-28 10:33:34.37	338.05	13.55	-39.7	-42.9	13.7	8.30e-06	0	60	0	1216348160	51	5077
2026-01-28 10:33:38.41	338.20	13.16	-40.0	-43.4	13.1	1.83e-05	0	60	0	1224736768	51	5363
2026-01-28 10:33:42.45	338.35	12.77	-40.1	-43.8	12.6	7.09e-05	0	59	0	1232076800	51	5637
2026-01-28 10:33:46.48	338.50	12.39	-40.4	-44.5	11.8	2.91e-04	0	60	0	1239416832	51	6062
2026-01-28 10:33:50.52	338.64	12.01	-40.7	-45.4	10.6	3.21e-03	0	60	0	1246756864	52	6397
2026-01-28 10:33:54.56	338.78	11.64	-41.0	-46.4	9.4	1.52e-02	0	60	0	1255145472	52	7152
2026-01-28 10:33:58.60	338.92	11.28	-41.1	-47.4	8.1	5.32e-02	0	60	0	1262485504	53	7598
2026-01-28 10:34:02.64	339.05	10.92	-41.3	-48.4	7.0	1.40e-01	0	60	0	1269825536	53	8544
2026-01-28 10:34:06.67	339.18	10.57	-42.0	-50.4	5.8	6.93e-01	0	60	0	1277165568	54	10122
2026-01-28 10:34:10.72	339.31	10.22	-41.7	-50.6	5.3	5.16e-01	0	59	0	1281359872	55	9758
2026-01-28 10:34:14.76	339.44	9.87	-41.6	-51.2	4.9	7.52e-01	0	60	0	1288699904	55	10416
2026-01-28 10:34:18.79	339.56	9.53	-41.9	-53.1	3.9	1.49e+00	0	60	104	1292894208	54	13836
2026-01-28 10:34:22.83	339.68	9.20	-40.9	-52.5	4.1	1.43e+00	0	60	0	1292894208	52	14406
2026-01-28 10:34:26.87	339.80	8.86	-40.9	-53.0	3.8	1.47e+00	0	60	104	1292894208	52	15361
2026-01-28 10:34:30.91	339.92	8.54	-41.7	-54.2	3.8	1.49e+00	0	60	104	1292894208	53	16677
2026-01-28 10:34:34.94	340.03	8.22	-40.8	-54.1	3.8	1.49e+00	0	60	104	1292894208	52	17300
2026-01-28 10:34:38.98	340.14	7.90	-44.3	-58.9	3.8	1.49e+00	0	60	104	1292894208	59	20258
2026-01-28 10:34:43.03	340.25	7.58	-44.6	-59.7	3.8	1.49e+00	0	60	104	1292894208	59	22088
2026-01-28 10:34:47.07	340.36	7.27	-45.1	-60.0	3.8	1.49e+00	0	60	104	1292894208	60	21570
2026-01-28 10:34:51.11	340.47	6.96	-45.1	-59.9	3.8	1.49e+00	0	60	104	1292894208	60	21448
2026-01-28 10:34:55.15	340.57	6.66	-45.0	-59.8	3.8	1.49e+00	0	60	104	1292894208	60	21260
2026-01-28 10:34:59.20	340.67	6.36	-45.0	-59.8	3.8	1.49e+00	0	60	104	1292894208	60	21244
2026-01-28 10:35:03.24	340.77	6.06	-45.0	-59.8	3.8	1.49e+00	0	60	104	1292894208	60	21257
2026-01-28 10:35:07.28	340.87	5.77	-45.0	-59.8	3.8	1.49e+00	0	60	104	1292894208	60	21232
2026-01-28 10:35:11.33	340.97	5.48	-45.0	-59.8	3.8	1.49e+00	0	60	104	1292894208	60	21208
2026-01-28 10:35:15.37	341.07	5.19	-45.0	-59.8	3.8	1.49e+00	0	60	104	1292894208	60	21212
2026-01-28 10:35:19.41	341.16	4.90	-44.6	-59.8	3.8	1.49e+00	0	60	104	1292894208	60	21250
2026-01-28 10:35:23.45	341.26	4.62	-44.9	-59.8	3.8	1.49e+00	0	60	104	1292894208	60	21245
2026-01-28 10:35:27.49	341.35	4.34	-45.0	-59.8	3.8	1.49e+00	0	60	104	1292894208	60	21206
2026-01-28 10:35:31.54	341.44	4.07	-45.0	-59.8	3.8	1.49e+00	0	60	104	1292894208	60	21146
2026-01-28 10:35:35.58	341.53	3.80	-45.0	-59.8	3.8	1.49e+00	0	60	104	1292894208	60	21155
2026-01-28 10:35:39.62	341.61	3.53	-44.9	-59.8	3.8	1.49e+00	0	60	104	1292894208	60	21153
2026-01-28 10:35:43.67	341.70	3.26	-43.8	-59.8	3.8	1.49e+00	0	60	104	1292894208	60	21085
2026-01-28 10:35:47.71	341.79	2.99	-44.9	-59.8	3.8	1.49e+00	0	60	104	1292894208	60	21107
2026-01-28 10:35:51.75	341.87	2.73	-44.9	-59.8	3.8	1.49e+00	0	60	104	1292894208	60	21057
2026-01-28 10:35:55.79	341.95	2.47	-44.9	-59.8	3.8	1.49e+00	0	60	104	1292894208	60	21151
2026-01-28 10:35:59.84	342.03	2.21	-44.9	-59.8	3.8	1.49e+00	0	60	104	1292894208	60	21032
2026-01-28 10:36:03.88	342.11	1.96	-44.9	-59.7	3.8	1.49e+00	0	60	104	1292894208	60	20955

#Closed at: 2026-01-28 10:36:06
#Recorded file [1292 MB]: D:/lorett/data/31039_260128_132139.dat