passes_logs/2026/01/28/R2.0S_Moscow/R2.0S_Moscow__20260128_163612_FENGYUN_3G_rec.log

#Pass ID: 20260128_163612_FENGYUN 3G
#Satellite: FENGYUN 3G
#Configuration: FENGYUN 3G
#almurnet v.1.7.20251203
#Start time: 2026-01-28 16:36:13

#Version: 2.2.20231116
#Station: R2.0S_Moscow
#Location: 37.707566 lon 55.798166 lat
#TLE: 1 56232U 23055A   26027.33093889  .00044881  00000+0  67100-3 0  9994
#TLE: 2 56232  49.9947 352.2708 0004101  93.7831 266.3606 15.54500775158110

#Time	Az	El	Level	Level2	SNR	BER	BlckErr	Temp	State	Recorded	gain1	gain2
2026-01-28 16:36:13.67	231.29	2.06	-44.1	-62.6	3.8	8.45e-01	0	49	0	0	60	29041
2026-01-28 16:36:15.68	231.14	2.18	-44.1	-62.6	3.8	8.46e-01	0	49	104	0	60	29036
2026-01-28 16:36:17.70	230.98	2.31	-44.1	-62.5	3.8	8.46e-01	0	50	104	0	60	29009
2026-01-28 16:36:19.73	230.81	2.45	-44.1	-62.5	3.8	8.46e-01	0	50	104	0	60	28973
2026-01-28 16:36:21.75	230.65	2.58	-44.1	-62.5	3.8	8.46e-01	0	50	104	0	60	28985
2026-01-28 16:36:23.77	230.48	2.71	-44.1	-62.6	3.8	8.46e-01	0	50	104	0	60	29049
2026-01-28 16:36:25.79	230.31	2.84	-44.2	-62.6	3.8	8.46e-01	0	50	104	0	59	30744
2026-01-28 16:36:27.81	230.14	2.98	-44.1	-62.5	3.8	8.45e-01	0	50	104	0	59	30720
2026-01-28 16:36:29.83	229.97	3.11	-44.2	-62.5	3.8	8.47e-01	0	51	104	0	59	30700
2026-01-28 16:36:31.85	229.79	3.24	-44.2	-62.6	3.8	8.45e-01	0	51	104	0	59	30751
2026-01-28 16:36:33.87	229.61	3.38	-44.2	-62.5	3.8	8.45e-01	0	51	104	0	59	30670
2026-01-28 16:36:35.89	229.43	3.52	-44.2	-62.5	3.8	8.47e-01	0	51	104	0	59	30692
2026-01-28 16:36:37.91	229.25	3.66	-44.1	-62.5	3.8	8.47e-01	0	51	104	0	59	30722
2026-01-28 16:36:39.93	229.06	3.79	-44.2	-62.6	3.8	8.47e-01	0	51	104	0	59	30764
2026-01-28 16:36:41.95	228.87	3.93	-44.1	-62.5	3.8	8.46e-01	0	51	104	0	59	30730
2026-01-28 16:36:43.97	228.68	4.07	-44.1	-62.5	3.8	8.45e-01	0	51	104	0	59	30704
2026-01-28 16:36:45.99	228.49	4.21	-44.2	-62.5	3.8	8.47e-01	0	51	104	0	59	30708
2026-01-28 16:36:48.01	228.29	4.36	-44.1	-62.6	3.8	8.45e-01	0	52	104	0	59	30744
2026-01-28 16:36:50.03	228.09	4.50	-44.2	-62.5	3.8	8.45e-01	0	52	104	0	59	30653
2026-01-28 16:36:52.05	227.89	4.64	-44.1	-62.5	3.8	8.46e-01	0	52	104	0	59	30688
2026-01-28 16:36:54.07	227.69	4.79	-44.1	-62.5	3.8	8.46e-01	0	52	104	0	59	30716
2026-01-28 16:36:56.09	227.48	4.93	-44.1	-62.5	3.8	8.46e-01	0	52	104	0	59	30723
2026-01-28 16:36:58.11	227.27	5.08	-44.1	-62.6	3.8	8.46e-01	0	52	104	0	59	30749
2026-01-28 16:37:00.12	227.05	5.23	-44.2	-62.6	3.8	8.47e-01	0	52	104	0	59	30761
2026-01-28 16:37:02.12	226.84	5.37	-44.1	-62.5	3.8	8.46e-01	0	52	104	0	59	30701
2026-01-28 16:37:04.14	226.62	5.52	-44.1	-62.5	3.8	8.47e-01	0	52	104	0	59	30650
2026-01-28 16:37:06.16	226.39	5.67	-44.1	-62.5	3.8	8.46e-01	0	53	104	0	59	30687
2026-01-28 16:37:08.18	226.17	5.83	-44.1	-62.5	3.8	8.46e-01	0	53	104	0	59	30678
2026-01-28 16:37:10.20	225.93	5.98	-44.1	-62.5	3.8	8.46e-01	0	53	104	0	59	30673
2026-01-28 16:37:12.21	225.70	6.13	-44.1	-62.5	3.8	8.46e-01	0	53	104	0	59	30715
2026-01-28 16:37:14.23	225.46	6.29	-44.1	-62.5	3.8	8.46e-01	0	53	104	0	59	30596
2026-01-28 16:37:16.26	225.22	6.44	-44.1	-62.5	3.8	8.46e-01	0	53	104	0	59	30658
2026-01-28 16:37:18.28	224.98	6.60	-44.1	-62.5	3.8	8.45e-01	0	53	104	0	59	30649
2026-01-28 16:37:20.30	224.73	6.76	-44.2	-62.5	3.8	8.46e-01	0	53	104	0	59	30661
2026-01-28 16:37:22.32	224.47	6.92	-44.1	-62.5	3.8	8.47e-01	0	53	104	0	59	30657
2026-01-28 16:37:24.34	224.22	7.08	-44.1	-62.5	3.8	8.47e-01	0	53	104	0	59	30653
2026-01-28 16:37:26.36	223.96	7.24	-44.1	-62.6	3.8	8.46e-01	0	53	104	0	59	30742
2026-01-28 16:37:28.38	223.69	7.40	-44.1	-62.5	3.8	8.47e-01	0	54	104	0	59	30649
2026-01-28 16:37:30.40	223.42	7.56	-44.1	-62.5	3.8	8.47e-01	0	53	104	0	59	30683
2026-01-28 16:37:32.42	223.15	7.73	-44.1	-62.5	3.8	8.46e-01	0	54	104	0	59	30647
2026-01-28 16:37:34.44	222.87	7.90	-44.1	-62.5	3.8	8.46e-01	0	54	104	0	59	30684
2026-01-28 16:37:36.46	222.59	8.06	-44.2	-62.6	3.8	8.45e-01	0	54	104	0	59	30969
2026-01-28 16:37:38.48	222.30	8.23	-44.2	-62.6	3.8	8.46e-01	0	54	104	0	59	30911
2026-01-28 16:37:40.50	222.01	8.40	-44.2	-62.6	3.8	8.47e-01	0	54	104	0	59	30840
2026-01-28 16:37:42.52	221.71	8.57	-44.2	-62.6	3.8	8.45e-01	0	54	104	0	59	31079
2026-01-28 16:37:44.54	221.41	8.74	-44.2	-62.6	3.8	8.47e-01	0	54	104	0	59	30875
2026-01-28 16:37:46.56	221.11	8.92	-44.2	-62.6	3.8	8.47e-01	0	54	104	0	59	31047
2026-01-28 16:37:48.58	220.79	9.09	-44.2	-62.6	3.8	8.47e-01	0	54	104	0	59	31003
2026-01-28 16:37:50.60	220.48	9.26	-44.2	-62.6	3.8	8.46e-01	0	54	104	0	59	30949
2026-01-28 16:37:52.62	220.16	9.44	-44.2	-62.6	3.8	8.45e-01	0	54	104	0	59	30926
2026-01-28 16:37:54.64	219.83	9.62	-44.3	-62.7	3.8	8.48e-01	0	55	104	0	59	31172
2026-01-28 16:37:56.66	219.50	9.80	-44.3	-62.6	3.8	8.46e-01	0	54	104	0	59	31082
2026-01-28 16:37:58.68	219.16	9.98	-44.3	-62.7	3.8	8.45e-01	0	54	104	0	59	31106
2026-01-28 16:38:00.70	218.81	10.16	-44.3	-62.7	3.8	8.46e-01	0	55	104	0	59	31098
2026-01-28 16:38:02.71	218.47	10.34	-44.3	-62.7	3.8	8.46e-01	0	54	104	0	59	31253
2026-01-28 16:38:04.73	218.11	10.53	-44.3	-62.7	3.8	8.46e-01	0	55	104	0	59	31237
2026-01-28 16:38:06.75	217.75	10.71	-44.3	-62.7	3.8	8.47e-01	0	55	104	0	59	31271
2026-01-28 16:38:08.77	217.38	10.90	-44.3	-62.7	3.8	8.46e-01	0	55	104	0	59	31263
2026-01-28 16:38:10.79	217.01	11.09	-44.3	-62.7	3.8	8.45e-01	0	55	104	0	59	31343
2026-01-28 16:38:12.81	216.62	11.28	-44.3	-62.7	3.8	8.46e-01	0	55	104	0	59	31367
2026-01-28 16:38:14.84	216.23	11.47	-44.3	-62.7	3.8	8.46e-01	0	55	104	0	59	31346
2026-01-28 16:38:16.86	215.84	11.66	-44.4	-62.7	3.8	8.45e-01	0	55	104	0	59	31434
2026-01-28 16:38:18.88	215.44	11.85	-44.4	-62.7	3.8	8.46e-01	0	55	104	0	59	31384
2026-01-28 16:38:20.90	215.03	12.05	-44.4	-62.8	3.8	8.47e-01	0	55	104	0	59	31519
2026-01-28 16:38:22.91	214.61	12.24	-44.4	-62.8	3.8	8.47e-01	0	55	104	0	59	31474
2026-01-28 16:38:24.94	214.19	12.44	-44.4	-62.8	3.8	8.46e-01	0	55	104	0	59	31597
2026-01-28 16:38:26.96	213.76	12.63	-44.4	-62.8	3.8	8.45e-01	0	55	104	0	59	31559
2026-01-28 16:38:28.97	213.32	12.83	-44.4	-62.8	3.8	8.45e-01	0	55	104	0	59	31636
2026-01-28 16:38:30.99	212.87	13.03	-44.4	-62.8	3.8	8.46e-01	0	55	104	0	59	31582
2026-01-28 16:38:33.01	212.42	13.23	-44.4	-62.8	3.8	8.48e-01	0	55	104	0	59	31754
2026-01-28 16:38:35.03	211.96	13.43	-44.4	-62.8	3.8	8.46e-01	0	55	104	0	59	31725
2026-01-28 16:38:37.05	211.49	13.63	-44.5	-62.9	3.8	8.46e-01	0	55	104	0	59	31826
2026-01-28 16:38:39.07	211.01	13.84	-44.5	-62.8	3.8	8.45e-01	0	56	104	0	59	31758
2026-01-28 16:38:41.09	210.52	14.04	-44.5	-62.9	3.8	8.46e-01	0	56	104	0	59	32030
2026-01-28 16:38:43.11	210.02	14.25	-44.5	-62.9	3.8	8.47e-01	0	56	104	0	59	31964
2026-01-28 16:38:45.13	209.52	14.45	-44.5	-62.9	3.8	8.47e-01	0	56	104	0	59	32088
2026-01-28 16:38:47.15	209.00	14.66	-44.5	-62.9	3.8	8.46e-01	0	56	104	0	59	32091
2026-01-28 16:38:49.17	208.48	14.87	-44.6	-63.0	3.8	8.46e-01	0	56	104	0	59	32180
2026-01-28 16:38:51.19	207.94	15.07	-44.5	-62.9	3.8	8.45e-01	0	56	104	0	59	32111
2026-01-28 16:38:53.21	207.40	15.28	-44.6	-63.0	3.8	8.47e-01	0	56	104	0	59	32342
2026-01-28 16:38:55.22	206.85	15.49	-44.6	-63.0	3.8	8.46e-01	0	56	104	0	59	32282
2026-01-28 16:38:57.24	206.29	15.70	-44.6	-63.0	3.8	8.46e-01	0	56	104	0	59	32383
2026-01-28 16:38:59.26	205.71	15.91	-44.6	-63.0	3.8	8.47e-01	0	56	104	0	59	32389
2026-01-28 16:39:01.27	205.13	16.12	-44.6	-63.0	3.8	8.45e-01	0	56	104	0	59	32483
2026-01-28 16:39:03.29	204.54	16.33	-44.6	-63.0	3.8	8.46e-01	0	56	104	0	59	32336
2026-01-28 16:39:05.31	203.93	16.54	-44.7	-63.0	3.8	8.46e-01	0	56	104	0	59	32484
2026-01-28 16:39:07.33	203.32	16.75	-44.6	-63.0	3.8	8.46e-01	0	56	104	0	59	32442
2026-01-28 16:39:09.35	202.69	16.95	-44.6	-63.1	3.8	8.46e-01	0	56	104	0	60	30902
2026-01-28 16:39:11.37	202.06	17.16	-44.6	-63.1	3.8	8.46e-01	0	56	104	0	60	30842
2026-01-28 16:39:13.39	201.41	17.37	-44.6	-63.1	3.8	8.46e-01	0	56	104	0	60	30905
2026-01-28 16:39:15.41	200.75	17.58	-44.6	-63.1	3.8	8.47e-01	0	56	104	0	60	30845
2026-01-28 16:39:17.43	200.08	17.79	-44.6	-63.1	3.8	8.45e-01	0	56	104	0	60	30900
2026-01-28 16:39:19.45	199.40	17.99	-44.6	-63.1	3.8	8.45e-01	0	56	104	0	60	30811
2026-01-28 16:39:21.47	198.70	18.20	-44.6	-63.1	3.8	8.45e-01	0	57	104	0	60	30827
2026-01-28 16:39:23.50	197.99	18.40	-44.6	-63.0	3.8	8.46e-01	0	56	104	0	60	30730
2026-01-28 16:39:25.52	197.28	18.60	-44.6	-63.1	3.8	8.46e-01	0	57	104	0	60	30805
2026-01-28 16:39:27.54	196.55	18.80	-44.6	-63.1	3.8	8.47e-01	0	56	104	0	60	30889
2026-01-28 16:39:29.56	195.81	19.00	-44.6	-63.1	3.8	8.46e-01	0	56	104	0	60	30900
2026-01-28 16:39:31.58	195.06	19.20	-44.6	-63.1	3.8	8.46e-01	0	57	104	0	60	30888
2026-01-28 16:39:33.60	194.29	19.39	-44.7	-63.1	3.8	8.46e-01	0	57	104	0	60	30949
2026-01-28 16:39:35.62	193.52	19.58	-44.6	-63.1	3.8	8.46e-01	0	57	104	0	60	30927
2026-01-28 16:39:37.64	192.73	19.77	-44.7	-63.1	3.8	8.46e-01	0	57	104	0	60	31062
2026-01-28 16:39:39.66	191.93	19.96	-44.6	-63.1	3.8	8.46e-01	0	57	104	0	60	30931
2026-01-28 16:39:41.68	191.12	20.14	-44.7	-63.1	3.8	8.45e-01	0	57	104	0	60	31007
2026-01-28 16:39:43.71	190.29	20.32	-44.7	-63.1	3.8	8.46e-01	0	57	104	0	60	31060
2026-01-28 16:39:45.72	189.46	20.50	-44.7	-63.1	3.8	8.46e-01	0	57	104	0	60	31014
2026-01-28 16:39:47.74	188.61	20.67	-44.7	-63.1	3.8	8.46e-01	0	57	104	0	60	31015
2026-01-28 16:39:49.76	187.76	20.84	-44.7	-63.2	3.8	8.47e-01	0	57	104	0	60	31118
2026-01-28 16:39:51.78	186.89	21.00	-44.7	-63.2	3.8	8.46e-01	0	57	104	0	60	31105
2026-01-28 16:39:53.80	186.01	21.16	-44.7	-63.2	3.8	8.46e-01	0	57	104	0	60	31237
2026-01-28 16:39:55.82	185.12	21.32	-44.7	-63.2	3.8	8.47e-01	0	57	104	0	60	31153
2026-01-28 16:39:57.84	184.22	21.47	-44.7	-63.2	3.8	8.47e-01	0	57	104	0	60	31319
2026-01-28 16:39:59.85	183.31	21.61	-44.7	-63.2	3.8	8.47e-01	0	57	104	0	60	31131
2026-01-28 16:40:01.87	182.39	21.75	-44.7	-63.2	3.8	8.46e-01	0	57	104	0	60	31262
2026-01-28 16:40:03.90	181.45	21.88	-44.7	-63.2	3.8	8.46e-01	0	57	104	0	60	31209
2026-01-28 16:40:05.92	180.51	22.01	-44.8	-63.2	3.8	8.46e-01	0	57	104	0	60	31373
2026-01-28 16:40:07.93	179.57	22.13	-44.7	-63.2	3.8	8.46e-01	0	57	104	0	60	31324
2026-01-28 16:40:09.95	178.61	22.24	-44.8	-63.2	3.8	8.46e-01	0	57	104	0	60	31373
2026-01-28 16:40:11.97	177.64	22.35	-44.8	-63.3	3.8	8.47e-01	0	57	104	0	60	31597
2026-01-28 16:40:14.00	176.67	22.45	-44.8	-63.3	3.8	8.46e-01	0	57	104	0	60	31732
2026-01-28 16:40:16.01	175.69	22.54	-44.8	-63.3	3.8	8.46e-01	0	57	104	0	60	31650
2026-01-28 16:40:18.03	174.70	22.63	-44.9	-63.3	3.8	8.46e-01	0	57	104	0	60	31774
2026-01-28 16:40:20.06	173.71	22.70	-45.0	-63.4	3.8	8.46e-01	0	57	104	0	61	30354
2026-01-28 16:40:22.08	172.71	22.77	-44.9	-63.4	3.8	8.47e-01	0	57	104	0	61	30260
2026-01-28 16:40:24.10	171.70	22.84	-44.9	-63.4	3.8	8.47e-01	0	57	104	0	61	30149
2026-01-28 16:40:26.12	170.69	22.89	-44.9	-63.4	3.8	8.45e-01	0	57	104	0	61	30153
2026-01-28 16:40:28.14	169.68	22.94	-44.9	-63.4	3.8	8.47e-01	0	57	104	0	61	30306
2026-01-28 16:40:30.16	168.67	22.98	-44.9	-63.4	3.8	8.45e-01	0	57	104	0	61	30184
2026-01-28 16:40:32.18	167.65	23.01	-45.0	-63.5	3.8	8.46e-01	0	57	104	0	61	30559
2026-01-28 16:40:34.20	166.63	23.03	-45.0	-63.5	3.8	8.46e-01	0	57	104	0	61	30587
2026-01-28 16:40:36.21	165.61	23.04	-45.1	-63.5	3.8	8.46e-01	0	57	104	0	61	30674
2026-01-28 16:40:38.23	164.59	23.04	-45.1	-63.5	3.8	8.46e-01	0	57	104	0	61	30531
2026-01-28 16:40:40.25	163.57	23.04	-45.1	-63.5	3.8	8.47e-01	0	57	104	0	61	30617
2026-01-28 16:40:42.27	162.55	23.03	-45.1	-63.5	3.8	8.46e-01	0	57	104	0	61	30667
2026-01-28 16:40:44.29	161.53	23.01	-45.1	-63.5	3.8	8.47e-01	0	57	104	0	61	30682
2026-01-28 16:40:46.31	160.51	22.98	-45.1	-63.5	3.8	8.46e-01	0	57	104	0	61	30659
2026-01-28 16:40:48.33	159.50	22.94	-45.1	-63.5	3.8	8.46e-01	0	58	104	0	61	30691
2026-01-28 16:40:50.35	158.48	22.90	-45.1	-63.6	3.8	8.46e-01	0	57	104	0	61	30843
2026-01-28 16:40:52.37	157.48	22.84	-45.1	-63.5	3.8	8.46e-01	0	57	104	0	61	30706
2026-01-28 16:40:54.39	156.47	22.78	-45.1	-63.6	3.8	8.45e-01	0	57	104	0	61	30777
2026-01-28 16:40:56.41	155.47	22.71	-45.1	-63.5	3.8	8.48e-01	0	57	104	0	61	30639
2026-01-28 16:40:58.43	154.48	22.63	-45.1	-63.5	3.8	8.46e-01	0	57	104	0	61	30729
2026-01-28 16:41:00.45	153.49	22.55	-45.1	-63.5	3.8	8.45e-01	0	57	104	0	61	30649
2026-01-28 16:41:02.47	152.51	22.46	-45.1	-63.6	3.8	8.47e-01	0	57	104	0	61	30744
2026-01-28 16:41:04.49	151.54	22.36	-45.1	-63.5	3.8	8.46e-01	0	57	104	0	61	30560
2026-01-28 16:41:06.51	150.57	22.25	-45.1	-63.6	3.8	8.46e-01	0	57	104	0	61	30742
2026-01-28 16:41:08.53	149.62	22.14	-45.1	-63.5	3.8	8.46e-01	0	57	104	0	61	30534
2026-01-28 16:41:10.55	148.67	22.02	-45.1	-63.5	3.8	8.45e-01	0	58	104	0	61	30593
2026-01-28 16:41:12.56	147.73	21.89	-45.0	-63.5	3.8	8.45e-01	0	58	104	0	61	30503
2026-01-28 16:41:14.59	146.80	21.76	-45.0	-63.5	3.8	8.47e-01	0	58	104	0	61	30504
2026-01-28 16:41:16.61	145.87	21.62	-45.0	-63.5	3.8	8.47e-01	0	58	104	0	61	30380
2026-01-28 16:41:18.63	144.96	21.48	-45.0	-63.5	3.8	8.45e-01	0	58	104	0	61	30384
2026-01-28 16:41:20.65	144.06	21.33	-45.0	-63.4	3.8	8.47e-01	0	58	104	0	61	30138
2026-01-28 16:41:22.67	143.17	21.18	-45.0	-63.4	3.8	8.46e-01	0	58	104	0	61	30232
2026-01-28 16:41:24.69	142.29	21.02	-44.9	-63.4	3.8	8.47e-01	0	58	104	0	61	30042
2026-01-28 16:41:26.71	141.42	20.85	-44.9	-63.4	3.8	8.46e-01	0	57	104	0	60	31968
2026-01-28 16:41:28.73	140.57	20.69	-44.8	-63.3	3.8	8.46e-01	0	58	104	0	60	31678
2026-01-28 16:41:30.75	139.72	20.51	-43.7	-62.9	3.5	8.46e-01	0	58	104	0	58	33917
2026-01-28 16:41:32.77	138.88	20.34	-44.8	-63.3	3.8	8.46e-01	0	58	104	0	60	31595
2026-01-28 16:41:34.79	138.06	20.16	-44.8	-62.9	3.8	8.47e-01	0	57	104	0	59	32042
2026-01-28 16:41:36.81	137.25	19.98	-44.7	-63.4	3.9	8.46e-01	0	58	104	0	60	32097
2026-01-28 16:41:38.83	136.45	19.79	-44.5	-63.4	3.8	8.46e-01	0	58	104	0	60	31924
2026-01-28 16:41:40.85	135.66	19.60	-44.8	-63.4	3.8	8.46e-01	0	58	104	0	60	31849
2026-01-28 16:41:42.87	134.89	19.41	-44.6	-63.2	3.8	8.46e-01	0	58	104	0	60	31326
2026-01-28 16:41:44.89	134.12	19.22	-44.9	-62.9	3.8	8.47e-01	0	58	104	0	59	31816
2026-01-28 16:41:46.91	133.37	19.02	-44.8	-63.2	3.8	8.46e-01	0	58	104	0	60	31406
2026-01-28 16:41:48.93	132.63	18.82	-44.7	-63.2	3.8	8.46e-01	0	58	104	0	60	31243
2026-01-28 16:41:50.95	131.90	18.62	-44.8	-62.9	3.8	8.46e-01	0	58	104	0	59	32012
2026-01-28 16:41:52.97	131.18	18.42	-44.7	-63.2	3.8	8.46e-01	0	58	104	0	60	31130
2026-01-28 16:41:55.00	130.48	18.22	-44.6	-63.2	3.8	8.46e-01	0	58	104	0	60	31115
2026-01-28 16:41:57.01	129.79	18.02	-44.6	-63.2	3.7	8.47e-01	0	57	104	0	60	31280
2026-01-28 16:41:59.04	129.10	17.81	-44.7	-63.1	3.8	8.46e-01	0	57	104	0	60	31064
2026-01-28 16:42:01.05	128.43	17.60	-44.6	-62.5	3.9	8.47e-01	0	58	104	0	56	36387
2026-01-28 16:42:03.08	127.77	17.40	-43.1	-63.0	3.7	8.47e-01	0	58	104	0	59	32406
2026-01-28 16:42:05.09	127.13	17.19	-38.7	-61.5	4.0	8.46e-01	0	58	104	0	50	45829
2026-01-28 16:42:07.11	126.49	16.98	-44.4	-63.1	3.8	8.45e-01	0	58	104	0	58	34624
2026-01-28 16:42:09.13	125.86	16.77	-43.9	-62.4	4.0	8.47e-01	0	58	104	0	55	37860
2026-01-28 16:42:11.15	125.25	16.56	-41.4	-62.3	3.9	8.46e-01	0	58	104	0	54	39641
2026-01-28 16:42:13.17	124.64	16.35	-37.4	-62.1	3.8	8.45e-01	0	58	104	0	52	43894
2026-01-28 16:42:15.19	124.05	16.14	-41.8	-62.2	3.7	8.45e-01	0	58	104	0	53	41929
2026-01-28 16:42:17.21	123.47	15.93	-28.7	-54.1	3.6	8.46e-01	0	58	104	0	29	65535
2026-01-28 16:42:19.23	122.89	15.73	-41.5	-63.1	3.7	8.24e-01	0	58	104	0	52	48874
2026-01-28 16:42:21.26	122.33	15.52	-39.4	-62.0	3.9	8.45e-01	0	58	104	0	48	54331
2026-01-28 16:42:23.28	121.77	15.31	-42.7	-62.8	3.5	8.46e-01	0	58	104	0	55	39914
2026-01-28 16:42:25.30	121.23	15.10	-43.1	-63.2	4.1	8.46e-01	0	58	104	0	55	41860
2026-01-28 16:42:27.32	120.70	14.89	-42.1	-62.6	3.8	8.46e-01	0	58	104	0	55	38828
2026-01-28 16:42:29.34	120.17	14.68	-43.2	-63.2	3.8	8.45e-01	0	58	104	0	58	34947
2026-01-28 16:42:31.36	119.66	14.48	-37.8	-62.2	3.8	8.44e-01	0	58	104	0	52	44247
2026-01-28 16:42:33.38	119.15	14.27	-31.5	-61.3	3.8	8.43e-01	0	58	104	0	51	42003
2026-01-28 16:42:35.40	118.66	14.07	-40.8	-60.8	4.0	8.43e-01	0	58	104	0	47	50375
2026-01-28 16:42:37.42	118.17	13.86	-40.2	-62.0	3.7	8.46e-01	0	58	104	0	51	45798
2026-01-28 16:42:39.44	117.69	13.66	-43.7	-62.5	3.7	8.45e-01	0	58	104	0	57	34413
2026-01-28 16:42:41.46	117.22	13.46	-38.7	-61.5	3.8	8.43e-01	0	58	104	0	47	54049
2026-01-28 16:42:43.48	116.75	13.26	-35.8	-59.1	3.2	8.34e-01	0	58	104	0	39	65535
2026-01-28 16:42:45.50	116.30	13.06	-32.5	-56.1	3.7	8.32e-01	0	58	104	0	33	65535
2026-01-28 16:42:47.52	115.85	12.86	-29.7	-57.1	3.4	8.39e-01	0	58	104	0	35	65535
2026-01-28 16:42:49.53	115.42	12.66	-15.3	-48.0	-2.6	8.34e-01	0	58	104	0	17	64660
2026-01-28 16:42:51.55	114.99	12.46	-28.8	-54.1	3.6	7.94e-01	0	58	104	0	29	65524
2026-01-28 16:42:53.57	114.56	12.27	-33.3	-57.6	3.5	8.28e-01	0	58	104	0	36	65535
2026-01-28 16:42:55.59	114.15	12.07	-38.6	-61.4	4.1	8.33e-01	0	58	104	0	45	60237
2026-01-28 16:42:57.61	113.74	11.88	-37.0	-60.8	3.9	8.44e-01	0	58	104	0	43	62749
2026-01-28 16:42:59.63	113.34	11.69	-37.6	-61.4	4.0	8.43e-01	0	58	104	0	44	63814
2026-01-28 16:43:01.66	112.94	11.50	-29.4	-54.1	3.5	8.43e-01	0	58	104	0	29	65535
2026-01-28 16:43:03.68	112.55	11.31	-36.1	-60.6	3.4	8.05e-01	0	58	104	0	42	65534
2026-01-28 16:43:05.70	112.17	11.12	-24.6	-53.6	3.7	8.31e-01	0	58	104	0	28	65535
2026-01-28 16:43:07.72	111.80	10.93	-26.9	-51.6	3.5	8.09e-01	0	58	104	0	24	65535
2026-01-28 16:43:09.74	111.43	10.74	-33.3	-57.6	3.5	8.23e-01	0	58	104	0	36	65535
2026-01-28 16:43:11.76	111.07	10.56	-38.1	-60.6	3.3	8.26e-01	0	58	104	0	42	65534
2026-01-28 16:43:13.78	110.71	10.37	-33.0	-56.1	3.8	8.15e-01	0	58	104	0	33	65535
2026-01-28 16:43:15.80	110.36	10.19	-32.4	-55.6	4.4	8.31e-01	0	58	104	0	32	65535
2026-01-28 16:43:17.82	110.02	10.01	-29.0	-55.1	3.0	7.88e-01	0	58	104	0	31	65535
2026-01-28 16:43:19.84	109.68	9.83	-29.2	-56.6	1.7	7.79e-01	0	58	104	0	34	65363
2026-01-28 16:43:21.86	109.35	9.65	-30.2	-57.1	3.3	7.76e-01	0	58	104	0	35	65535
2026-01-28 16:43:23.88	109.02	9.47	-36.8	-61.4	3.8	8.28e-01	0	58	104	0	44	63670
2026-01-28 16:43:25.90	108.70	9.30	-34.5	-62.1	3.7	8.44e-01	0	58	104	0	49	51978
2026-01-28 16:43:27.92	108.38	9.12	-41.9	-61.4	3.8	8.45e-01	0	58	104	0	54	35853
2026-01-28 16:43:29.94	108.07	8.95	-39.9	-60.7	3.7	8.46e-01	0	58	104	0	50	41501
2026-01-28 16:43:31.95	107.77	8.77	-34.9	-59.2	3.5	8.46e-01	0	58	104	0	45	46874
2026-01-28 16:43:33.97	107.47	8.60	-41.4	-59.8	3.8	8.46e-01	0	58	104	0	52	33611
2026-01-28 16:43:35.99	107.17	8.43	-41.0	-59.6	4.2	8.47e-01	0	58	104	0	52	32784
2026-01-28 16:43:38.01	106.88	8.26	-41.6	-60.5	3.8	8.46e-01	0	58	104	0	53	34256
2026-01-28 16:43:40.03	106.59	8.09	-41.0	-59.7	3.7	8.45e-01	0	58	104	0	51	35038
2026-01-28 16:43:42.05	106.31	7.93	-36.5	-57.6	4.3	8.46e-01	0	58	104	0	42	46375
2026-01-28 16:43:44.07	106.03	7.76	-44.7	-63.2	3.8	8.43e-01	0	58	104	0	60	31278
2026-01-28 16:43:46.09	105.76	7.60	-45.2	-63.6	3.8	8.45e-01	0	58	104	0	60	32805
2026-01-28 16:43:48.11	105.49	7.43	-45.5	-63.9	3.8	8.45e-01	0	58	104	0	61	32031
2026-01-28 16:43:50.13	105.23	7.27	-45.8	-64.3	3.8	8.46e-01	0	58	104	0	62	31672
2026-01-28 16:43:52.16	104.97	7.11	-45.7	-64.1	3.8	8.46e-01	0	58	104	0	62	30800
2026-01-28 16:43:54.17	104.71	6.95	-45.5	-63.9	3.8	8.46e-01	0	58	104	0	62	30180
2026-01-28 16:43:56.20	104.46	6.79	-45.4	-63.8	3.8	8.45e-01	0	58	104	0	62	29917
2026-01-28 16:43:58.22	104.21	6.63	-45.3	-63.7	3.8	8.46e-01	0	58	104	0	62	29508
2026-01-28 16:44:00.24	103.96	6.48	-45.2	-63.6	3.8	8.47e-01	0	58	104	0	61	31077
2026-01-28 16:44:02.26	103.72	6.32	-45.2	-63.6	3.8	8.47e-01	0	58	104	0	60	32833
2026-01-28 16:44:04.28	103.49	6.17	-45.2	-63.6	3.8	8.46e-01	0	58	104	0	60	32887
2026-01-28 16:44:06.30	103.25	6.01	-45.2	-63.6	3.8	8.46e-01	0	58	104	0	60	32797
2026-01-28 16:44:08.31	103.02	5.86	-45.2	-63.6	3.8	8.46e-01	0	58	104	0	60	32821
2026-01-28 16:44:10.34	102.79	5.71	-45.2	-63.6	3.8	8.46e-01	0	58	104	0	60	32690
2026-01-28 16:44:12.36	102.57	5.56	-45.2	-63.6	3.8	8.45e-01	0	58	104	0	60	32739
2026-01-28 16:44:14.38	102.35	5.41	-45.2	-63.6	3.8	8.45e-01	0	58	104	0	60	32712
2026-01-28 16:44:16.40	102.13	5.26	-45.1	-63.6	3.8	8.46e-01	0	58	104	0	60	32654
2026-01-28 16:44:18.42	101.92	5.11	-45.2	-63.7	3.9	8.46e-01	0	58	104	0	60	32996
2026-01-28 16:44:20.44	101.71	4.97	-45.2	-63.6	3.8	8.47e-01	0	58	104	0	60	32861
2026-01-28 16:44:22.46	101.50	4.82	-45.1	-63.6	3.8	8.46e-01	0	58	104	0	60	32643
2026-01-28 16:44:24.48	101.30	4.68	-45.1	-63.6	3.8	8.46e-01	0	58	104	0	60	32720
2026-01-28 16:44:26.50	101.09	4.53	-45.2	-63.6	3.8	8.46e-01	0	58	104	0	60	32722
2026-01-28 16:44:28.52	100.90	4.39	-45.2	-63.6	3.8	8.46e-01	0	58	104	0	60	32627
2026-01-28 16:44:30.54	100.70	4.25	-45.2	-63.6	3.8	8.45e-01	0	58	104	0	60	32706
2026-01-28 16:44:32.57	100.50	4.10	-45.2	-63.6	3.8	8.45e-01	0	58	104	0	60	32622
2026-01-28 16:44:34.59	100.31	3.96	-45.2	-63.6	3.8	8.46e-01	0	58	104	0	60	32709
2026-01-28 16:44:36.61	100.13	3.83	-44.5	-63.6	3.8	8.47e-01	0	58	104	0	60	32774
2026-01-28 16:44:38.63	99.94	3.69	-45.2	-63.6	3.8	8.48e-01	0	58	104	0	60	32700
2026-01-28 16:44:40.65	99.76	3.55	-45.2	-63.6	3.8	8.46e-01	0	58	104	0	60	32710
2026-01-28 16:44:42.67	99.58	3.41	-45.1	-63.6	3.8	8.46e-01	0	58	104	0	60	32690
2026-01-28 16:44:44.69	99.40	3.28	-45.2	-63.6	3.8	8.46e-01	0	58	104	0	60	32568
2026-01-28 16:44:46.72	99.22	3.14	-44.6	-63.6	3.8	8.46e-01	0	58	104	0	60	32620
2026-01-28 16:44:48.74	99.05	3.01	-45.1	-63.6	3.8	8.46e-01	0	58	104	0	60	32667
2026-01-28 16:44:50.76	98.88	2.87	-45.1	-63.6	3.8	8.46e-01	0	58	104	0	60	32739
2026-01-28 16:44:52.78	98.71	2.74	-45.1	-63.6	3.8	8.45e-01	0	58	104	0	60	32741
2026-01-28 16:44:54.80	98.54	2.61	-45.1	-63.6	3.8	8.46e-01	0	58	104	0	60	32617
2026-01-28 16:44:56.82	98.38	2.48	-45.1	-63.6	3.8	8.47e-01	0	58	104	0	60	32695
2026-01-28 16:44:58.84	98.22	2.35	-45.1	-63.6	3.8	8.48e-01	0	58	104	0	60	32560
2026-01-28 16:45:00.86	98.06	2.22	-45.1	-63.6	3.8	8.45e-01	0	58	104	0	60	32641
2026-01-28 16:45:02.88	97.90	2.09	-45.1	-63.6	3.8	8.46e-01	0	58	104	0	60	32650
2026-01-28 16:45:04.90	97.75	1.96	-45.1	-63.6	3.8	8.47e-01	0	58	104	0	60	32553

#Closed at: 2026-01-28 16:45:06
#Recorded file [0 MB]: D:/lorett/data/31039_260128_193613.dat