passes_logs/2026/01/28/R2.0S_Moscow/R2.0S_Moscow__20260128_014155_NOAA_21_JPSS-2_rec.log

#Pass ID: 20260128_014155_NOAA 21 (JPSS-2)
#Satellite: NOAA 21 (JPSS-2)
#Configuration: NOAA-21
#almurnet v.1.7.20251203
#Start time: 2026-01-28 01:42:22

#Version: 2.2.20231116
#Station: R2.0S_Moscow
#Location: 37.707566 lon 55.798166 lat
#TLE: 1 54234U 22150A   26027.41809747  .00000179  00000+0  10565-3 0  9991
#TLE: 2 54234  98.7510 328.1683 0000854 205.0798 155.0336 14.19540145166571

#Time	Az	El	Level	Level2	SNR	BER	BlckErr	Temp	State	Recorded	gain1	gain2
2026-01-28 01:42:22.45	7.09	3.44	-45.1	-57.0	3.8	8.46e-01	0	62	0	0	61	14496
2026-01-28 01:42:25.47	6.83	3.60	-45.5	-58.0	3.8	1.49e+00	0	62	104	0	63	14528
2026-01-28 01:42:28.50	6.57	3.77	-45.2	-57.8	3.8	1.49e+00	0	62	104	0	62	14942
2026-01-28 01:42:31.53	6.30	3.93	-44.6	-57.1	3.8	1.49e+00	0	62	104	0	61	14647
2026-01-28 01:42:34.56	6.04	4.10	-40.1	-52.3	3.8	1.49e+00	0	62	104	0	52	14117
2026-01-28 01:42:37.59	5.77	4.26	-40.1	-52.2	3.8	1.49e+00	0	62	104	0	52	14045
2026-01-28 01:42:40.63	5.49	4.43	-40.0	-52.3	3.8	1.49e+00	0	62	104	0	52	14083
2026-01-28 01:42:43.66	5.21	4.59	-40.0	-52.2	3.8	1.49e+00	0	62	104	0	52	13992
2026-01-28 01:42:46.69	4.93	4.76	-40.0	-52.2	3.8	1.49e+00	0	62	104	0	52	14012
2026-01-28 01:42:49.71	4.65	4.93	-40.0	-52.2	3.8	1.49e+00	0	62	104	0	52	14014
2026-01-28 01:42:52.74	4.36	5.10	-40.0	-52.2	3.8	1.49e+00	0	62	104	0	52	14019
2026-01-28 01:42:55.78	4.07	5.26	-40.0	-52.2	3.8	1.49e+00	0	62	104	0	52	13971
2026-01-28 01:42:58.81	3.78	5.43	-40.0	-52.2	3.8	1.49e+00	0	62	104	0	52	14001
2026-01-28 01:43:01.83	3.48	5.60	-40.0	-52.2	3.8	1.49e+00	0	62	104	0	52	13951
2026-01-28 01:43:04.87	3.18	5.77	-40.0	-52.2	3.8	1.49e+00	0	62	104	0	52	14004
2026-01-28 01:43:07.90	2.87	5.94	-40.0	-52.2	3.8	1.49e+00	0	62	104	0	52	13976
2026-01-28 01:43:10.93	2.56	6.11	-40.1	-52.3	3.8	1.49e+00	0	62	104	0	51	14893
2026-01-28 01:43:13.95	2.25	6.28	-40.0	-52.2	3.8	1.49e+00	0	62	104	0	51	14844
2026-01-28 01:43:16.98	1.94	6.45	-40.0	-52.3	3.8	1.49e+00	0	62	104	0	51	14896
2026-01-28 01:43:20.01	1.62	6.62	-40.0	-52.3	3.8	1.49e+00	0	62	104	0	51	14895
2026-01-28 01:43:23.04	1.29	6.79	-40.0	-52.2	3.8	1.49e+00	0	62	104	0	51	14845
2026-01-28 01:43:26.07	0.96	6.96	-40.0	-52.2	3.8	1.49e+00	0	62	104	0	51	14844
2026-01-28 01:43:29.10	0.63	7.13	-40.0	-52.2	3.8	1.49e+00	0	62	104	0	51	14839
2026-01-28 01:43:32.13	0.30	7.30	-40.0	-52.2	3.8	1.49e+00	0	62	104	0	51	14849
2026-01-28 01:43:35.16	359.96	7.47	-40.0	-52.2	3.8	1.49e+00	0	62	104	0	51	14871
2026-01-28 01:43:38.19	359.61	7.64	-40.0	-52.2	3.8	1.49e+00	0	62	104	0	51	14846
2026-01-28 01:43:41.22	359.26	7.82	-40.0	-52.2	3.8	1.49e+00	0	62	104	0	51	14852
2026-01-28 01:43:44.25	358.91	7.99	-40.0	-52.3	3.8	1.49e+00	0	62	104	0	51	14883
2026-01-28 01:43:47.28	358.55	8.16	-40.1	-52.3	3.8	1.49e+00	0	62	104	0	51	14976
2026-01-28 01:43:50.31	358.19	8.33	-40.0	-52.3	3.8	1.49e+00	0	62	104	0	51	14921
2026-01-28 01:43:53.34	357.83	8.50	-40.1	-52.4	3.8	1.49e+00	0	62	104	0	51	15062
2026-01-28 01:43:56.36	357.46	8.68	-40.1	-52.3	3.8	1.49e+00	0	62	104	0	51	14981
2026-01-28 01:43:59.39	357.08	8.85	-40.1	-52.3	3.8	1.49e+00	0	62	104	0	51	15017
2026-01-28 01:44:02.42	356.70	9.02	-40.1	-52.3	3.8	1.49e+00	0	62	104	0	51	14917
2026-01-28 01:44:05.45	356.32	9.19	-40.1	-52.3	3.8	1.49e+00	0	62	104	0	51	14891
2026-01-28 01:44:08.47	355.93	9.36	-40.1	-52.3	3.8	1.49e+00	0	62	104	0	51	14883
2026-01-28 01:44:11.50	355.54	9.54	-40.2	-52.4	3.8	1.49e+00	0	62	104	0	51	15082
2026-01-28 01:44:14.54	355.14	9.71	-40.2	-52.4	3.8	1.49e+00	0	62	104	0	51	15133
2026-01-28 01:44:17.56	354.74	9.88	-40.3	-52.5	3.8	1.49e+00	0	62	104	0	51	15252
2026-01-28 01:44:20.59	354.33	10.05	-40.4	-52.6	3.8	1.49e+00	0	62	104	0	51	15421
2026-01-28 01:44:23.62	353.92	10.22	-40.4	-52.6	3.8	1.49e+00	0	62	104	0	51	15529
2026-01-28 01:44:26.64	353.50	10.39	-40.5	-52.7	3.8	1.49e+00	0	62	104	0	51	15757
2026-01-28 01:44:29.67	353.08	10.56	-40.5	-52.7	3.8	1.49e+00	0	62	104	0	51	15643
2026-01-28 01:44:32.70	352.65	10.73	-40.6	-52.9	3.8	1.49e+00	0	62	104	0	52	15100
2026-01-28 01:44:35.73	352.21	10.90	-40.6	-52.8	3.8	1.49e+00	0	62	104	0	52	15035
2026-01-28 01:44:38.76	351.78	11.07	-40.8	-53.1	3.8	1.49e+00	0	62	104	0	52	15425
2026-01-28 01:44:41.78	351.33	11.24	-40.6	-52.8	3.8	1.49e+00	0	62	104	0	52	15002
2026-01-28 01:44:44.81	350.89	11.41	-40.8	-53.0	3.8	1.49e+00	0	62	104	0	52	15235
2026-01-28 01:44:47.84	350.43	11.58	-40.9	-53.2	3.8	1.49e+00	0	62	104	0	52	15693
2026-01-28 01:44:50.87	349.97	11.75	-40.9	-53.2	3.8	1.49e+00	0	62	104	0	52	15677
2026-01-28 01:44:53.90	349.51	11.91	-40.9	-53.2	3.8	1.49e+00	0	62	104	0	52	15639
2026-01-28 01:44:56.93	349.04	12.08	-40.8	-53.0	3.8	1.49e+00	0	62	104	0	53	14515
2026-01-28 01:44:59.96	348.56	12.24	-40.9	-53.1	3.8	1.49e+00	0	62	104	0	53	14659
2026-01-28 01:45:02.99	348.08	12.41	-41.1	-53.4	3.8	1.49e+00	0	62	104	0	53	15163
2026-01-28 01:45:06.02	347.59	12.57	-41.2	-53.5	3.8	1.49e+00	0	62	104	0	53	15231
2026-01-28 01:45:09.05	347.10	12.73	-41.5	-53.7	3.8	1.49e+00	0	62	104	0	53	15692
2026-01-28 01:45:12.08	346.60	12.89	-41.4	-53.7	3.8	1.49e+00	0	62	104	0	53	15624
2026-01-28 01:45:15.11	346.10	13.05	-41.0	-53.2	3.8	1.49e+00	0	62	104	0	53	14851
2026-01-28 01:45:18.14	345.59	13.21	-40.8	-53.0	3.8	1.49e+00	0	62	104	0	53	14422
2026-01-28 01:45:21.17	345.08	13.37	-40.8	-53.1	3.8	1.49e+00	0	62	104	0	53	14564
2026-01-28 01:45:24.20	344.56	13.53	-41.0	-53.2	3.8	1.49e+00	0	62	104	0	53	14792
2026-01-28 01:45:27.23	344.03	13.68	-40.8	-53.0	3.8	1.49e+00	0	62	104	0	53	14492
2026-01-28 01:45:30.26	343.50	13.83	-40.8	-53.0	3.8	1.49e+00	0	62	104	0	53	14447
2026-01-28 01:45:33.29	342.96	13.99	-40.8	-53.0	3.8	1.49e+00	0	62	104	0	53	14471
2026-01-28 01:45:36.32	342.42	14.14	-40.8	-53.0	3.8	1.49e+00	0	62	104	0	53	14499
2026-01-28 01:45:39.35	341.87	14.29	-40.6	-52.8	3.8	1.49e+00	0	62	104	0	53	14060
2026-01-28 01:45:42.38	341.32	14.43	-40.7	-52.9	3.8	1.49e+00	0	62	104	0	53	14215
2026-01-28 01:45:45.41	340.76	14.58	-40.6	-52.8	3.8	1.49e+00	0	62	104	0	53	14124
2026-01-28 01:45:48.44	340.20	14.72	-40.6	-52.7	3.8	1.49e+00	0	62	104	0	53	14020
2026-01-28 01:45:51.47	339.62	14.86	-41.3	-49.4	4.5	1.36e+00	3	62	104	0	53	9562
2026-01-28 01:45:54.50	339.05	15.00	-40.3	-44.3	9.3	3.29e-02	0	62	0	7340032	52	5647
2026-01-28 01:45:57.53	338.47	15.14	-39.4	-42.2	12.2	2.24e-04	0	62	0	16777216	50	4937
2026-01-28 01:46:00.56	337.88	15.27	-39.0	-41.4	13.3	2.44e-05	0	62	0	26214400	50	4521
2026-01-28 01:46:03.59	337.29	15.41	-39.1	-41.4	13.6	1.06e-05	0	62	0	35651584	49	4810
2026-01-28 01:46:06.63	336.69	15.54	-39.4	-41.8	13.7	6.80e-06	0	62	0	45088768	49	4996
2026-01-28 01:46:09.66	336.09	15.66	-39.4	-41.7	13.9	5.30e-06	0	62	0	54525952	49	4941
2026-01-28 01:46:12.69	335.48	15.79	-39.2	-41.3	14.3	1.50e-06	0	62	0	63963136	49	4753
2026-01-28 01:46:15.72	334.87	15.91	-39.3	-41.5	14.2	3.00e-06	0	62	0	73400320	49	4845
2026-01-28 01:46:18.75	334.25	16.03	-38.9	-40.9	14.8	7.00e-07	0	62	0	82837504	49	4536
2026-01-28 01:46:21.77	333.63	16.15	-39.0	-41.0	14.8	7.00e-07	0	62	0	92274688	49	4559
2026-01-28 01:46:24.80	333.00	16.26	-39.0	-41.0	14.8	0.00e+00	0	62	0	102760448	49	4573
2026-01-28 01:46:27.83	332.37	16.37	-38.9	-40.9	14.9	0.00e+00	0	62	0	111149056	49	4517
2026-01-28 01:46:30.86	331.73	16.48	-38.8	-40.7	15.1	0.00e+00	0	62	0	121634816	49	4424
2026-01-28 01:46:33.89	331.09	16.58	-38.9	-40.9	14.9	0.00e+00	0	62	0	130023424	49	4498
2026-01-28 01:46:36.92	330.44	16.69	-39.1	-41.1	14.7	0.00e+00	0	62	0	140509184	49	4621
2026-01-28 01:46:39.95	329.79	16.78	-39.1	-41.1	14.7	0.00e+00	0	62	0	149946368	49	4651
2026-01-28 01:46:42.98	329.13	16.88	-39.1	-41.1	14.7	0.00e+00	0	62	0	159383552	49	4639
2026-01-28 01:46:46.01	328.47	16.97	-39.0	-41.1	14.8	0.00e+00	0	62	0	168820736	49	4605
2026-01-28 01:46:49.04	327.81	17.06	-38.9	-40.9	14.9	0.00e+00	0	62	0	178257920	49	4503
2026-01-28 01:46:52.07	327.14	17.14	-39.0	-41.0	14.9	7.00e-07	0	62	0	187695104	49	4550
2026-01-28 01:46:55.10	326.47	17.22	-39.0	-40.9	14.9	0.00e+00	0	62	0	197132288	49	4542
2026-01-28 01:46:58.13	325.80	17.30	-39.0	-41.0	14.9	7.00e-07	0	62	0	206569472	49	4554
2026-01-28 01:47:01.16	325.12	17.37	-39.1	-41.1	14.7	0.00e+00	0	62	0	216006656	49	4639
2026-01-28 01:47:04.19	324.44	17.44	-39.1	-41.1	14.8	0.00e+00	0	62	0	225443840	49	4602
2026-01-28 01:47:07.22	323.75	17.50	-39.2	-41.2	14.6	0.00e+00	0	62	0	234881024	49	4679
2026-01-28 01:47:10.25	323.07	17.56	-39.0	-41.0	14.9	0.00e+00	0	62	0	244318208	49	4572
2026-01-28 01:47:13.28	322.38	17.62	-38.9	-40.9	15.0	0.00e+00	0	62	0	253755392	49	4499
2026-01-28 01:47:16.31	321.68	17.67	-39.0	-41.0	14.9	0.00e+00	0	62	0	263192576	49	4558
2026-01-28 01:47:19.34	320.99	17.72	-39.0	-41.0	14.9	0.00e+00	0	62	0	272629760	49	4548
2026-01-28 01:47:22.38	320.29	17.76	-39.2	-41.2	14.7	7.00e-07	0	62	0	282066944	49	4687
2026-01-28 01:47:25.41	319.59	17.80	-39.2	-41.2	14.6	0.00e+00	0	62	0	291504128	49	4699
2026-01-28 01:47:28.44	318.89	17.84	-38.9	-40.8	15.1	0.00e+00	0	62	0	300941312	49	4491
2026-01-28 01:47:31.47	318.19	17.87	-38.9	-40.9	15.0	7.00e-07	0	62	0	310378496	49	4507
2026-01-28 01:47:34.50	317.48	17.90	-39.0	-41.0	14.9	0.00e+00	0	62	0	319815680	49	4579
2026-01-28 01:47:37.53	316.78	17.92	-39.0	-41.0	14.9	7.00e-07	0	62	0	329252864	49	4561
2026-01-28 01:47:40.56	316.07	17.94	-39.0	-41.1	14.8	0.00e+00	0	62	0	338690048	49	4599
2026-01-28 01:47:43.59	315.37	17.95	-39.1	-41.1	14.8	0.00e+00	0	62	0	348127232	49	4629
2026-01-28 01:47:46.62	314.66	17.96	-39.2	-41.3	14.6	0.00e+00	0	62	0	357564416	49	4728
2026-01-28 01:47:49.65	313.95	17.96	-39.4	-41.5	14.4	0.00e+00	0	62	0	367001600	49	4832
2026-01-28 01:47:52.68	313.24	17.96	-39.3	-41.4	14.5	1.50e-06	0	62	0	376438784	49	4774
2026-01-28 01:47:55.71	312.54	17.96	-39.0	-41.0	14.9	0.00e+00	0	63	0	385875968	49	4547
2026-01-28 01:47:58.74	311.83	17.95	-38.9	-40.9	15.0	0.00e+00	0	62	0	395313152	49	4507
2026-01-28 01:48:01.77	311.12	17.93	-39.0	-41.0	14.9	0.00e+00	0	62	0	404750336	49	4552
2026-01-28 01:48:04.80	310.42	17.91	-39.0	-40.9	15.0	7.00e-07	0	62	0	415236096	49	4532
2026-01-28 01:48:07.83	309.71	17.89	-38.9	-40.8	15.0	0.00e+00	0	62	0	423624704	49	4482
2026-01-28 01:48:10.86	309.01	17.86	-39.0	-40.9	14.9	7.00e-07	0	62	0	434110464	49	4537
2026-01-28 01:48:13.89	308.31	17.83	-38.8	-40.8	15.1	0.00e+00	0	62	0	443547648	49	4454
2026-01-28 01:48:16.92	307.60	17.80	-38.9	-40.8	15.0	0.00e+00	0	62	0	452984832	49	4491
2026-01-28 01:48:19.95	306.90	17.76	-39.1	-41.1	14.8	0.00e+00	0	62	0	462422016	49	4607
2026-01-28 01:48:22.98	306.21	17.71	-39.0	-41.0	14.9	0.00e+00	0	62	0	471859200	49	4571
2026-01-28 01:48:26.01	305.51	17.66	-39.0	-41.0	14.9	0.00e+00	0	62	0	481296384	49	4555
2026-01-28 01:48:29.04	304.82	17.61	-39.1	-41.1	14.8	0.00e+00	0	62	0	490733568	49	4612
2026-01-28 01:48:32.07	304.13	17.55	-39.2	-41.2	14.7	0.00e+00	0	62	0	500170752	49	4677
2026-01-28 01:48:35.10	303.44	17.49	-39.3	-41.4	14.4	7.00e-07	0	62	0	509607936	49	4798
2026-01-28 01:48:38.13	302.76	17.43	-39.4	-41.5	14.4	2.20e-06	0	62	0	519045120	49	4831
2026-01-28 01:48:41.16	302.07	17.36	-39.1	-41.1	14.7	0.00e+00	0	62	0	528482304	49	4644
2026-01-28 01:48:44.19	301.39	17.28	-39.0	-41.0	14.9	0.00e+00	0	62	0	537919488	49	4551
2026-01-28 01:48:47.22	300.72	17.20	-39.0	-41.0	14.8	0.00e+00	0	62	0	547356672	49	4580
2026-01-28 01:48:50.25	300.05	17.12	-39.1	-41.2	14.6	0.00e+00	0	62	0	556793856	49	4672
2026-01-28 01:48:53.28	299.38	17.04	-39.1	-41.1	14.8	7.00e-07	0	62	0	566231040	49	4606
2026-01-28 01:48:56.31	298.72	16.95	-39.1	-41.1	14.7	7.00e-07	0	62	0	575668224	49	4629
2026-01-28 01:48:59.34	298.06	16.86	-39.0	-41.0	14.8	0.00e+00	0	62	0	585105408	49	4577
2026-01-28 01:49:02.37	297.40	16.76	-39.0	-41.0	14.8	0.00e+00	0	62	0	594542592	49	4580
2026-01-28 01:49:05.40	296.75	16.66	-39.0	-41.1	14.7	0.00e+00	0	62	0	603979776	49	4612
2026-01-28 01:49:08.43	296.10	16.56	-39.0	-41.0	14.8	1.50e-06	0	63	0	613416960	49	4578
2026-01-28 01:49:11.46	295.46	16.46	-38.9	-40.9	14.9	0.00e+00	0	62	0	622854144	49	4539
2026-01-28 01:49:14.47	294.82	16.35	-39.0	-41.0	14.8	0.00e+00	0	62	0	632291328	49	4592
2026-01-28 01:49:17.50	294.19	16.24	-39.0	-41.0	14.8	7.00e-07	0	62	0	641728512	49	4585
2026-01-28 01:49:20.53	293.56	16.12	-39.1	-41.2	14.5	7.00e-07	0	62	0	651165696	49	4678
2026-01-28 01:49:23.56	292.93	16.00	-39.2	-41.3	14.4	7.00e-07	0	62	0	660602880	49	4745
2026-01-28 01:49:26.59	292.31	15.88	-39.1	-41.1	14.6	0.00e+00	0	62	0	670040064	49	4627
2026-01-28 01:49:29.62	291.70	15.76	-39.1	-41.2	14.5	0.00e+00	0	62	0	679477248	49	4664
2026-01-28 01:49:32.65	291.09	15.63	-38.9	-41.0	14.7	7.00e-07	0	62	0	688914432	49	4551
2026-01-28 01:49:35.68	290.49	15.51	-38.8	-40.8	14.9	7.00e-07	0	62	0	698351616	49	4465
2026-01-28 01:49:38.71	289.89	15.38	-39.0	-41.0	14.7	0.00e+00	0	62	0	707788800	49	4561
2026-01-28 01:49:41.75	289.29	15.24	-39.3	-41.4	14.3	1.50e-06	0	62	0	717225984	49	4814
2026-01-28 01:49:44.78	288.70	15.11	-39.0	-41.1	14.5	0.00e+00	0	62	0	726663168	49	4628
2026-01-28 01:49:47.81	288.12	14.97	-38.7	-40.7	14.9	0.00e+00	0	62	0	737148928	49	4409
2026-01-28 01:49:50.83	287.55	14.83	-38.8	-40.8	14.8	2.20e-06	0	62	0	745537536	49	4480
2026-01-28 01:49:53.87	286.97	14.69	-39.1	-41.2	14.4	7.00e-07	0	62	0	756023296	49	4657
2026-01-28 01:49:56.90	286.41	14.54	-39.1	-41.3	14.3	2.20e-06	0	63	0	765460480	49	4714
2026-01-28 01:49:59.92	285.85	14.40	-39.1	-41.2	14.4	0.00e+00	0	62	0	774897664	49	4688
2026-01-28 01:50:02.96	285.29	14.25	-39.2	-41.4	14.2	7.00e-07	0	62	0	784334848	49	4788
2026-01-28 01:50:05.98	284.74	14.10	-39.3	-41.5	14.0	2.20e-06	0	62	0	793772032	49	4852
2026-01-28 01:50:09.02	284.20	13.95	-39.2	-41.5	14.0	3.80e-06	0	62	0	803209216	49	4817
2026-01-28 01:50:12.05	283.66	13.79	-39.3	-41.5	14.0	2.20e-06	0	62	0	812646400	49	4824
2026-01-28 01:50:15.08	283.13	13.64	-39.1	-41.2	14.2	0.00e+00	0	62	0	822083584	49	4700
2026-01-28 01:50:18.11	282.60	13.48	-39.3	-41.5	13.9	1.50e-06	0	62	0	831520768	49	4857
2026-01-28 01:50:21.14	282.08	13.33	-39.5	-41.8	13.6	4.50e-06	0	62	0	840957952	49	5017
2026-01-28 01:50:24.17	281.56	13.17	-39.6	-42.0	13.5	1.06e-05	0	62	0	850395136	49	5101
2026-01-28 01:50:27.20	281.05	13.01	-39.7	-42.0	13.5	1.60e-05	0	62	0	859832320	50	4866
2026-01-28 01:50:30.23	280.54	12.85	-39.7	-42.1	13.4	7.60e-06	0	62	0	869269504	50	4915
2026-01-28 01:50:33.26	280.05	12.69	-39.6	-41.9	13.5	1.44e-05	0	63	0	878706688	50	4806
2026-01-28 01:50:36.29	279.55	12.52	-39.4	-41.7	13.8	2.20e-06	0	62	0	888143872	50	4686
2026-01-28 01:50:39.32	279.06	12.36	-39.7	-42.1	13.4	1.90e-05	0	62	0	897581056	50	4913
2026-01-28 01:50:42.35	278.58	12.19	-39.7	-42.1	13.4	1.60e-05	0	62	0	907018240	50	4881
2026-01-28 01:50:45.38	278.10	12.03	-39.5	-41.9	13.5	1.60e-05	0	62	0	916455424	50	4762
2026-01-28 01:50:48.41	277.63	11.86	-39.4	-41.7	13.7	5.30e-06	0	63	0	925892608	50	4663
2026-01-28 01:50:51.44	277.16	11.69	-39.3	-41.6	13.7	6.10e-06	0	62	0	935329792	50	4634
2026-01-28 01:50:54.46	276.70	11.53	-39.5	-41.8	13.4	1.14e-05	0	62	0	944766976	50	4757
2026-01-28 01:50:57.49	276.25	11.36	-39.6	-42.1	13.2	2.74e-05	0	62	0	954204160	50	4880
2026-01-28 01:51:00.52	275.80	11.19	-39.7	-42.3	12.9	5.03e-05	0	63	0	963641344	50	5000
2026-01-28 01:51:03.55	275.35	11.02	-39.8	-42.5	12.5	9.07e-05	0	63	0	973078528	50	5138
2026-01-28 01:51:06.59	274.91	10.85	-39.9	-42.7	12.1	2.32e-04	0	63	0	982515712	50	5277
2026-01-28 01:51:09.61	274.48	10.68	-40.0	-42.9	11.9	3.51e-04	0	62	0	991952896	50	5369
2026-01-28 01:51:12.64	274.05	10.51	-40.2	-43.4	11.2	1.33e-03	0	62	0	1001390080	51	5391
2026-01-28 01:51:15.67	273.62	10.34	-40.3	-43.7	10.7	2.90e-03	0	63	0	1010827264	51	5586
2026-01-28 01:51:18.70	273.20	10.16	-40.3	-43.8	10.5	3.67e-03	0	63	0	1020264448	51	5637
2026-01-28 01:51:21.72	272.79	9.99	-40.3	-43.9	10.3	5.08e-03	0	62	0	1029701632	51	5705
2026-01-28 01:51:24.75	272.38	9.82	-40.4	-44.2	9.9	8.82e-03	0	63	0	1039138816	51	5857
2026-01-28 01:51:27.78	271.97	9.65	-40.5	-44.4	9.7	1.15e-02	0	63	0	1048576000	51	6021
2026-01-28 01:51:30.81	271.57	9.48	-40.6	-44.5	9.6	1.33e-02	0	63	0	1058013184	51	6074
2026-01-28 01:51:33.84	271.18	9.30	-40.7	-44.5	9.6	1.17e-02	0	63	0	1068498944	51	6124
2026-01-28 01:51:36.87	270.79	9.13	-40.7	-44.9	9.1	2.22e-02	0	63	0	1077936128	51	6364
2026-01-28 01:51:39.90	270.40	8.96	-40.9	-45.5	8.2	4.95e-02	0	63	0	1087373312	52	6494
2026-01-28 01:51:42.93	270.02	8.78	-41.1	-46.5	7.1	1.30e-01	0	63	0	1096810496	52	7228
2026-01-28 01:51:45.96	269.64	8.61	-41.2	-47.2	6.3	2.58e-01	0	63	0	1106247680	53	7451
2026-01-28 01:51:48.99	269.27	8.44	-40.0	-51.8	3.8	1.49e+00	0	63	104	1109393408	52	13281
2026-01-28 01:51:52.02	268.90	8.27	-41.2	-48.5	5.1	6.32e-01	0	63	0	1112539136	53	8629
2026-01-28 01:51:55.05	268.54	8.09	-41.2	-49.7	4.0	8.54e-01	2	63	104	1119879168	53	9906
2026-01-28 01:51:58.08	268.18	7.92	-44.8	-57.3	3.8	1.49e+00	0	63	104	1119879168	60	15865
2026-01-28 01:52:01.11	267.82	7.75	-45.2	-57.7	3.8	1.49e+00	0	63	104	1119879168	60	16654
2026-01-28 01:52:04.14	267.47	7.58	-45.3	-57.9	3.8	1.49e+00	0	62	104	1119879168	61	15954
2026-01-28 01:52:07.17	267.12	7.40	-45.3	-57.8	3.8	1.49e+00	0	63	104	1119879168	61	15930
2026-01-28 01:52:10.20	266.78	7.23	-45.3	-57.8	3.8	1.49e+00	0	63	104	1119879168	61	15887
2026-01-28 01:52:13.23	266.44	7.06	-45.2	-57.7	3.8	1.49e+00	0	63	104	1119879168	61	15760
2026-01-28 01:52:16.26	266.11	6.89	-45.2	-57.7	3.8	1.49e+00	0	63	104	1119879168	61	15756
2026-01-28 01:52:19.29	265.78	6.72	-45.2	-57.7	3.8	1.49e+00	0	63	104	1119879168	61	15665
2026-01-28 01:52:22.33	265.45	6.54	-45.2	-57.7	3.8	1.49e+00	0	63	104	1119879168	61	15695
2026-01-28 01:52:25.36	265.13	6.37	-45.2	-57.7	3.8	1.49e+00	0	63	104	1119879168	61	15694
2026-01-28 01:52:28.39	264.81	6.20	-45.2	-57.7	3.8	1.49e+00	0	63	104	1119879168	61	15694
2026-01-28 01:52:31.42	264.50	6.03	-45.2	-57.7	3.8	1.49e+00	0	63	104	1119879168	61	15647
2026-01-28 01:52:34.45	264.18	5.86	-45.2	-57.7	3.8	1.49e+00	0	63	104	1119879168	61	15663
2026-01-28 01:52:37.49	263.88	5.69	-45.2	-57.7	3.8	1.49e+00	0	63	104	1119879168	61	15730
2026-01-28 01:52:40.52	263.57	5.52	-45.2	-57.7	3.8	1.49e+00	0	63	104	1119879168	61	15681
2026-01-28 01:52:43.55	263.27	5.35	-45.2	-57.7	3.8	1.49e+00	0	63	104	1119879168	61	15671
2026-01-28 01:52:46.59	262.97	5.19	-45.2	-57.7	3.8	1.49e+00	0	63	104	1119879168	61	15651
2026-01-28 01:52:49.62	262.68	5.02	-45.2	-57.7	3.8	1.49e+00	0	63	104	1119879168	61	15687
2026-01-28 01:52:52.65	262.39	4.85	-45.2	-57.7	3.8	1.49e+00	0	63	104	1119879168	61	15634
2026-01-28 01:52:55.68	262.10	4.68	-45.2	-57.7	3.8	1.49e+00	0	63	104	1119879168	61	15635
2026-01-28 01:52:58.71	261.82	4.52	-45.2	-57.7	3.8	1.49e+00	0	63	104	1119879168	61	15685
2026-01-28 01:53:01.74	261.54	4.35	-45.1	-57.7	3.8	1.49e+00	0	63	104	1119879168	61	15619
2026-01-28 01:53:04.77	261.26	4.18	-45.1	-57.7	3.8	1.49e+00	0	63	104	1119879168	61	15632
2026-01-28 01:53:07.80	260.99	4.02	-45.1	-57.7	3.8	1.49e+00	0	63	104	1119879168	61	15645
2026-01-28 01:53:10.83	260.72	3.85	-45.1	-57.7	3.8	1.49e+00	0	63	104	1119879168	61	15600
2026-01-28 01:53:13.86	260.45	3.69	-45.1	-57.7	3.8	1.49e+00	0	63	104	1119879168	61	15605
2026-01-28 01:53:16.89	260.19	3.52	-45.1	-57.7	3.8	1.49e+00	0	63	104	1119879168	61	15606
2026-01-28 01:53:19.92	259.93	3.36	-45.1	-57.7	3.8	1.49e+00	0	63	104	1119879168	61	15582
2026-01-28 01:53:22.95	259.67	3.19	-45.1	-57.6	3.8	1.49e+00	0	63	104	1119879168	61	15576
2026-01-28 01:53:25.98	259.42	3.03	-45.1	-57.7	3.8	1.49e+00	0	63	104	1119879168	61	15621
2026-01-28 01:53:29.02	259.16	2.87	-45.1	-57.7	3.8	1.49e+00	0	63	104	1119879168	61	15645
2026-01-28 01:53:32.04	258.91	2.71	-45.1	-57.6	3.8	1.49e+00	0	63	104	1119879168	61	15551
2026-01-28 01:53:35.08	258.67	2.54	-45.1	-57.6	3.8	1.49e+00	0	63	104	1119879168	61	15541
2026-01-28 01:53:38.11	258.42	2.38	-45.1	-57.7	3.8	1.49e+00	0	63	104	1119879168	61	15612
2026-01-28 01:53:41.13	258.18	2.22	-45.1	-57.6	3.8	1.49e+00	0	63	104	1119879168	61	15569
2026-01-28 01:53:44.16	257.94	2.06	-45.1	-57.7	3.8	1.49e+00	0	63	104	1119879168	61	15590

#Closed at: 2026-01-28 01:53:46
#Recorded file [1119 MB]: D:/lorett/data/31039_260128_044222.dat