passes_logs/2026/01/28/R2.0S_Moscow/R2.0S_Moscow__20260128_023034_AQUA_rec.log

#Pass ID: 20260128_023034_AQUA
#Satellite: AQUA
#Configuration: AQUA
#almurnet v.1.7.20251203
#Start time: 2026-01-28 02:30:33

#Version: 2.2.20231116
#Station: R2.0S_Moscow
#Location: 37.707566 lon 55.798166 lat
#TLE: 1 27424U 02022A   26027.49103455  .00001862  00000+0  38220-3 0  9997
#TLE: 2 27424  98.4102 354.1298 0001846  63.8060  46.9979 14.61867034262711

#Time	Az	El	Level	Level2	SNR	BER	BlckErr	Temp	State	Recorded	gain1	gain2
2026-01-28 02:30:33.76	9.25	1.98	-40.9	-59.8	3.8	7.44e-01	0	52	0	0	53	31674
2026-01-28 02:30:36.78	9.08	2.16	-40.9	-59.8	3.8	7.45e-01	0	53	104	0	52	33442
2026-01-28 02:30:39.81	8.91	2.35	-40.9	-59.8	3.8	7.43e-01	0	53	104	0	52	33500
2026-01-28 02:30:42.84	8.74	2.54	-40.8	-59.8	3.8	7.45e-01	0	53	104	0	52	33406
2026-01-28 02:30:45.87	8.57	2.73	-40.8	-59.8	3.8	7.44e-01	0	54	104	0	52	33494
2026-01-28 02:30:48.90	8.39	2.92	-40.8	-59.8	3.8	7.44e-01	0	54	104	0	52	33432
2026-01-28 02:30:51.93	8.21	3.12	-40.8	-59.8	3.8	7.44e-01	0	54	104	0	52	33401
2026-01-28 02:30:54.96	8.03	3.31	-40.8	-59.8	3.8	7.45e-01	0	54	104	0	52	33372
2026-01-28 02:30:57.99	7.85	3.51	-40.8	-59.8	3.8	7.46e-01	0	54	104	0	52	33387
2026-01-28 02:31:01.02	7.66	3.70	-40.8	-59.8	3.8	7.46e-01	0	54	104	0	52	33392
2026-01-28 02:31:04.05	7.47	3.90	-40.8	-59.8	3.8	7.44e-01	0	55	104	0	52	33396
2026-01-28 02:31:07.09	7.28	4.10	-40.8	-59.8	3.8	7.46e-01	0	55	104	0	52	33344
2026-01-28 02:31:10.12	7.08	4.30	-40.8	-59.8	3.8	7.47e-01	0	55	104	0	52	33357
2026-01-28 02:31:13.15	6.88	4.51	-40.8	-59.8	3.8	7.47e-01	0	55	104	0	52	33397
2026-01-28 02:31:16.18	6.68	4.71	-40.8	-59.8	3.8	7.43e-01	0	55	104	0	52	33344
2026-01-28 02:31:19.21	6.47	4.92	-40.8	-59.8	3.8	7.49e-01	0	56	104	0	52	33331
2026-01-28 02:31:22.24	6.26	5.12	-40.8	-59.8	3.8	7.44e-01	0	56	104	0	52	33342
2026-01-28 02:31:25.27	6.05	5.33	-40.8	-59.7	3.8	7.45e-01	0	56	104	0	52	33282
2026-01-28 02:31:28.30	5.83	5.54	-40.8	-59.7	3.8	7.45e-01	0	56	104	0	52	33283
2026-01-28 02:31:31.34	5.61	5.75	-40.8	-59.7	3.8	7.43e-01	0	56	104	0	52	33285
2026-01-28 02:31:34.37	5.38	5.96	-40.8	-59.7	3.8	7.46e-01	0	56	104	0	52	33220
2026-01-28 02:31:37.40	5.15	6.18	-40.8	-59.7	3.8	7.41e-01	0	56	104	0	52	33307
2026-01-28 02:31:40.43	4.92	6.39	-40.8	-59.7	3.8	7.44e-01	0	57	104	0	52	33210
2026-01-28 02:31:43.46	4.69	6.61	-40.8	-59.7	3.8	7.49e-01	0	57	104	0	52	33261
2026-01-28 02:31:46.49	4.45	6.83	-40.8	-59.7	3.8	7.47e-01	0	57	104	0	52	33292
2026-01-28 02:31:49.52	4.20	7.05	-40.8	-59.7	3.8	7.49e-01	0	57	104	0	52	33275
2026-01-28 02:31:52.55	3.95	7.27	-40.8	-59.8	3.8	7.46e-01	0	57	104	0	52	33313
2026-01-28 02:31:55.58	3.70	7.50	-40.8	-59.7	3.8	7.45e-01	0	57	104	0	52	33283
2026-01-28 02:31:58.61	3.44	7.72	-40.8	-59.7	3.8	7.45e-01	0	57	104	0	52	33258
2026-01-28 02:32:01.64	3.18	7.95	-40.8	-59.7	3.8	7.48e-01	0	57	104	0	52	33258
2026-01-28 02:32:04.67	2.92	8.18	-40.9	-59.9	3.8	7.42e-01	0	57	104	0	52	33752
2026-01-28 02:32:07.70	2.64	8.41	-40.9	-59.9	3.8	7.45e-01	0	58	104	0	52	33729
2026-01-28 02:32:10.73	2.37	8.64	-41.1	-60.0	3.8	7.45e-01	0	58	104	0	52	34396
2026-01-28 02:32:13.75	2.09	8.87	-41.0	-60.0	3.8	7.45e-01	0	58	104	0	52	34126
2026-01-28 02:32:16.78	1.80	9.11	-41.0	-60.0	3.8	7.43e-01	0	58	104	0	52	34118
2026-01-28 02:32:19.81	1.51	9.35	-41.0	-59.9	3.8	7.48e-01	0	58	104	0	52	34057
2026-01-28 02:32:22.84	1.21	9.59	-41.0	-59.9	3.8	7.44e-01	0	58	104	0	52	34073
2026-01-28 02:32:25.87	0.91	9.83	-40.9	-59.9	3.8	7.47e-01	0	58	104	0	52	33767
2026-01-28 02:32:28.90	0.60	10.07	-41.1	-60.0	3.8	7.44e-01	0	58	104	0	52	34266
2026-01-28 02:32:31.93	0.29	10.32	-41.0	-59.9	3.8	7.48e-01	0	58	104	0	52	33911
2026-01-28 02:32:34.96	359.97	10.57	-41.1	-60.0	3.8	7.45e-01	0	58	104	0	52	34353
2026-01-28 02:32:37.99	359.64	10.81	-40.9	-59.8	3.8	7.47e-01	0	58	104	0	53	31804
2026-01-28 02:32:41.01	359.31	11.07	-41.4	-60.2	3.8	7.46e-01	0	58	104	0	53	33228
2026-01-28 02:32:44.05	358.97	11.32	-41.1	-60.0	3.8	7.44e-01	0	59	104	0	53	32217
2026-01-28 02:32:47.08	358.62	11.57	-41.6	-59.9	3.8	7.44e-01	0	59	104	0	53	31890
2026-01-28 02:32:50.11	358.27	11.83	-41.1	-59.8	3.8	7.49e-01	0	58	104	0	54	29949
2026-01-28 02:32:53.13	357.91	12.09	-41.2	-59.8	3.8	7.44e-01	0	59	104	0	54	29734
2026-01-28 02:32:56.16	357.55	12.35	-41.5	-54.9	5.0	7.07e-01	0	59	0	0	54	16946
2026-01-28 02:32:59.19	357.17	12.61	-41.7	-47.3	13.4	6.04e-01	0	59	0	4194304	55	6718
2026-01-28 02:33:02.22	356.79	12.88	-40.0	-43.7	17.5	6.01e-01	0	59	0	9961472	52	5228
2026-01-28 02:33:05.25	356.40	13.15	-40.7	-45.0	16.1	5.99e-01	0	59	0	15204352	51	6456
2026-01-28 02:33:08.28	356.01	13.42	-41.5	-47.9	12.8	6.03e-01	0	59	0	20971520	53	8069
2026-01-28 02:33:11.31	355.60	13.69	-41.9	-51.9	8.2	6.41e-01	57	59	0	26738688	54	12041
2026-01-28 02:33:14.34	355.19	13.96	-41.9	-57.8	4.2	7.38e-01	0	59	104	28835840	54	23757
2026-01-28 02:33:17.38	354.77	14.24	-41.8	-60.2	3.8	7.44e-01	0	59	104	28835840	54	31300
2026-01-28 02:33:20.41	354.34	14.51	-41.9	-60.5	3.8	7.47e-01	0	60	104	28835840	54	32454
2026-01-28 02:33:23.44	353.90	14.79	-41.6	-60.5	3.8	7.45e-01	0	60	104	28835840	54	32383
2026-01-28 02:33:26.47	353.45	15.07	-41.7	-60.6	3.8	7.46e-01	0	60	104	28835840	54	32740
2026-01-28 02:33:29.50	352.99	15.35	-41.8	-60.7	3.8	7.43e-01	0	60	104	28835840	54	33039
2026-01-28 02:33:32.53	352.52	15.64	-41.8	-60.7	3.8	7.48e-01	0	60	104	28835840	54	33141
2026-01-28 02:33:35.56	352.05	15.93	-41.9	-60.9	3.8	7.43e-01	0	60	104	28835840	54	33735
2026-01-28 02:33:38.59	351.56	16.21	-41.9	-60.9	3.8	7.45e-01	0	60	104	28835840	54	33718
2026-01-28 02:33:41.62	351.06	16.50	-41.9	-60.9	3.8	7.46e-01	0	60	104	28835840	54	33697
2026-01-28 02:33:44.65	350.56	16.80	-42.1	-61.0	3.8	7.45e-01	0	60	104	28835840	54	34260
2026-01-28 02:33:47.68	350.04	17.09	-42.1	-61.1	3.8	7.46e-01	0	60	104	28835840	54	34527
2026-01-28 02:33:50.71	349.51	17.38	-42.4	-61.3	3.8	7.44e-01	0	60	104	28835840	55	33459
2026-01-28 02:33:53.74	348.97	17.68	-42.5	-61.4	3.8	7.45e-01	0	60	104	28835840	55	33949
2026-01-28 02:33:56.77	348.41	17.98	-41.9	-60.8	3.8	7.47e-01	0	60	104	28835840	55	31675
2026-01-28 02:33:59.80	347.85	18.28	-42.0	-60.9	3.8	7.47e-01	0	60	104	28835840	55	31857
2026-01-28 02:34:02.82	347.28	18.57	-41.9	-60.8	3.8	7.46e-01	0	60	104	28835840	55	31531
2026-01-28 02:34:05.86	346.68	18.88	-41.9	-60.8	3.8	7.49e-01	0	60	104	28835840	55	31780
2026-01-28 02:34:08.89	346.08	19.18	-41.9	-60.7	3.8	7.43e-01	0	60	104	28835840	55	31239
2026-01-28 02:34:11.92	345.47	19.48	-41.9	-60.4	3.8	7.47e-01	0	61	104	28835840	55	30303
2026-01-28 02:34:14.95	344.84	19.79	-42.9	-59.7	3.8	7.44e-01	0	60	104	28835840	56	26438
2026-01-28 02:34:17.98	344.20	20.09	-43.5	-57.0	4.9	7.08e-01	0	61	0	28835840	57	18287
2026-01-28 02:34:21.01	343.54	20.39	-43.8	-55.2	6.5	6.70e-01	92	60	0	30408704	58	13908
2026-01-28 02:34:24.04	342.88	20.70	-43.6	-52.6	9.2	6.28e-01	0	61	0	36175872	58	10323
2026-01-28 02:34:27.07	342.19	21.00	-42.8	-52.1	8.7	6.36e-01	2	60	0	38797312	57	10391
2026-01-28 02:34:30.10	341.49	21.31	-41.6	-46.0	16.0	6.04e-01	0	61	0	44564480	55	5732
2026-01-28 02:34:33.14	340.78	21.61	-40.7	-44.0	18.2	6.03e-01	0	61	0	50331648	53	5144
2026-01-28 02:34:36.16	340.05	21.91	-40.9	-44.1	18.6	6.02e-01	0	61	0	56098816	52	5515
2026-01-28 02:34:39.19	339.31	22.22	-41.0	-44.0	19.2	6.03e-01	0	61	0	61865984	52	5438
2026-01-28 02:34:42.22	338.55	22.52	-41.0	-43.7	19.8	6.02e-01	0	61	0	67108864	52	5267
2026-01-28 02:34:45.25	337.78	22.82	-40.8	-43.5	20.3	6.06e-01	0	61	0	72876032	52	5102
2026-01-28 02:34:48.28	336.99	23.12	-41.0	-43.7	20.0	6.03e-01	0	61	0	78643200	52	5269
2026-01-28 02:34:51.31	336.18	23.41	-41.1	-43.7	20.1	6.03e-01	0	61	0	84410368	52	5277
2026-01-28 02:34:54.34	335.36	23.71	-41.1	-43.7	20.1	6.01e-01	0	61	0	90177536	52	5268
2026-01-28 02:34:57.37	334.52	24.00	-41.1	-43.8	20.0	6.05e-01	0	61	0	95944704	52	5335
2026-01-28 02:35:00.40	333.67	24.28	-41.0	-43.6	20.3	6.01e-01	0	61	0	101187584	52	5180
2026-01-28 02:35:03.43	332.79	24.57	-41.0	-43.6	20.2	6.02e-01	0	61	0	106954752	52	5206
2026-01-28 02:35:06.46	331.91	24.85	-41.1	-43.8	20.0	6.01e-01	0	61	0	112721920	52	5285
2026-01-28 02:35:09.48	331.00	25.13	-41.1	-43.7	20.0	6.04e-01	0	61	0	118489088	52	5264
2026-01-28 02:35:12.51	330.08	25.40	-41.0	-43.6	20.3	6.01e-01	0	61	0	124256256	52	5161
2026-01-28 02:35:15.54	329.14	25.66	-40.9	-43.4	20.5	6.02e-01	0	61	0	129499136	52	5100
2026-01-28 02:35:18.57	328.19	25.93	-41.0	-43.6	20.3	6.02e-01	0	61	0	135266304	52	5178
2026-01-28 02:35:21.60	327.21	26.18	-41.0	-43.6	20.3	6.03e-01	0	61	0	141033472	52	5183
2026-01-28 02:35:24.63	326.23	26.43	-40.9	-43.5	20.4	6.03e-01	0	61	0	146800640	52	5133
2026-01-28 02:35:27.66	325.22	26.67	-40.9	-43.4	20.5	6.01e-01	0	61	0	152567808	52	5078
2026-01-28 02:35:30.69	324.20	26.91	-40.8	-43.3	20.6	6.02e-01	0	61	0	158334976	52	4987
2026-01-28 02:35:33.72	323.17	27.14	-40.9	-43.4	20.5	6.04e-01	0	61	0	164102144	52	5062
2026-01-28 02:35:36.75	322.11	27.36	-40.7	-43.2	20.7	6.01e-01	0	61	0	169345024	52	4966
2026-01-28 02:35:39.79	321.04	27.57	-40.8	-43.3	20.6	6.03e-01	0	61	0	175112192	52	5011
2026-01-28 02:35:42.82	319.96	27.77	-40.7	-43.2	20.7	6.03e-01	0	61	0	180879360	52	4954
2026-01-28 02:35:45.85	318.87	27.96	-40.7	-43.2	20.6	6.04e-01	0	61	0	186646528	52	4957
2026-01-28 02:35:48.87	317.76	28.14	-40.7	-43.2	20.6	6.03e-01	0	61	0	192413696	52	4961
2026-01-28 02:35:51.90	316.64	28.31	-40.7	-43.2	20.7	6.01e-01	0	61	0	197656576	52	4956
2026-01-28 02:35:54.93	315.51	28.47	-40.8	-43.3	20.6	6.04e-01	0	61	0	203423744	52	4988
2026-01-28 02:35:57.96	314.36	28.62	-40.7	-43.2	20.7	6.03e-01	0	61	0	209190912	52	4943
2026-01-28 02:36:00.97	313.21	28.76	-40.7	-43.2	20.7	6.03e-01	0	61	0	214958080	52	4947
2026-01-28 02:36:03.99	312.05	28.88	-40.7	-43.2	20.7	6.02e-01	0	61	0	220725248	52	4950
2026-01-28 02:36:07.03	310.87	29.00	-40.7	-43.2	20.7	6.01e-01	0	61	0	226492416	52	4957
2026-01-28 02:36:10.06	309.69	29.10	-40.7	-43.1	20.8	6.03e-01	0	61	0	231735296	52	4897
2026-01-28 02:36:13.09	308.50	29.19	-40.6	-43.1	20.9	6.05e-01	0	61	0	237502464	52	4873
2026-01-28 02:36:16.12	307.30	29.26	-40.6	-43.0	21.0	6.04e-01	0	61	0	243269632	52	4826
2026-01-28 02:36:19.15	306.10	29.32	-41.0	-43.6	20.3	6.00e-01	0	61	0	249036800	52	5211
2026-01-28 02:36:22.17	304.89	29.37	-41.2	-43.8	20.1	6.02e-01	0	61	0	254803968	53	5014
2026-01-28 02:36:25.21	303.68	29.40	-40.9	-43.5	20.2	6.05e-01	0	61	0	260571136	53	4835
2026-01-28 02:36:28.23	302.47	29.42	-40.4	-42.7	21.1	6.05e-01	0	61	0	265814016	52	4680
2026-01-28 02:36:31.26	301.26	29.43	-40.8	-43.3	20.7	6.02e-01	0	61	0	271581184	53	4711
2026-01-28 02:36:34.30	300.04	29.42	-41.5	-44.4	19.6	6.04e-01	0	61	0	277348352	53	5371
2026-01-28 02:36:37.33	298.83	29.40	-41.4	-44.1	19.7	6.05e-01	0	61	0	283115520	53	5216
2026-01-28 02:36:40.35	297.62	29.36	-41.3	-44.1	19.9	6.01e-01	0	61	0	288882688	53	5191
2026-01-28 02:36:43.38	296.42	29.31	-41.3	-44.0	19.5	6.03e-01	0	61	0	294649856	54	4825
2026-01-28 02:36:46.41	295.21	29.25	-41.3	-44.0	20.0	6.06e-01	0	61	0	300417024	53	5124
2026-01-28 02:36:49.44	294.02	29.17	-40.8	-43.3	20.6	6.03e-01	0	61	0	305659904	53	4725
2026-01-28 02:36:52.47	292.83	29.08	-41.3	-44.1	19.9	6.04e-01	0	61	0	311427072	53	5166
2026-01-28 02:36:55.49	291.65	28.98	-41.0	-43.6	20.4	6.02e-01	0	61	0	317194240	53	4895
2026-01-28 02:36:58.52	290.47	28.86	-40.9	-43.5	20.4	6.05e-01	0	61	0	322961408	53	4841
2026-01-28 02:37:01.56	289.30	28.73	-41.0	-43.6	20.2	6.05e-01	0	61	0	328728576	53	4884
2026-01-28 02:37:04.59	288.15	28.59	-41.4	-44.2	19.6	6.05e-01	0	61	0	333971456	53	5269
2026-01-28 02:37:07.62	287.00	28.44	-41.6	-44.5	19.5	6.04e-01	0	61	0	339738624	53	5415
2026-01-28 02:37:10.64	285.87	28.28	-41.8	-44.9	19.1	6.04e-01	0	61	0	345505792	54	5342
2026-01-28 02:37:13.67	284.75	28.10	-41.2	-43.9	20.1	6.04e-01	0	61	0	351272960	53	5069
2026-01-28 02:37:16.71	283.64	27.92	-40.7	-43.0	20.8	6.03e-01	0	61	0	357040128	53	4597
2026-01-28 02:37:19.74	282.54	27.72	-41.8	-44.8	19.0	6.03e-01	0	61	0	362807296	54	5293
2026-01-28 02:37:22.77	281.46	27.52	-41.7	-44.7	19.2	6.01e-01	0	61	0	368574464	54	5256
2026-01-28 02:37:25.80	280.39	27.31	-41.1	-43.7	20.2	6.03e-01	0	61	0	373817344	54	4669
2026-01-28 02:37:28.83	279.34	27.09	-41.4	-44.2	19.6	6.02e-01	0	61	0	379584512	54	4982
2026-01-28 02:37:31.86	278.31	26.86	-40.9	-43.4	20.4	6.03e-01	0	61	0	385351680	53	4813
2026-01-28 02:37:34.89	277.29	26.62	-41.1	-43.8	20.1	6.03e-01	0	61	0	391118848	53	4991
2026-01-28 02:37:37.92	276.28	26.37	-41.3	-44.1	19.8	6.03e-01	0	61	0	396886016	53	5182
2026-01-28 02:37:40.95	275.29	26.12	-41.2	-43.9	19.9	6.04e-01	0	61	0	402128896	54	4796
2026-01-28 02:37:43.99	274.32	25.86	-41.7	-44.6	19.3	6.02e-01	0	62	0	407896064	54	5191
2026-01-28 02:37:47.02	273.36	25.60	-41.8	-44.9	19.0	6.02e-01	0	61	0	413663232	54	5386
2026-01-28 02:37:50.05	272.42	25.33	-42.0	-45.2	18.7	6.03e-01	0	61	0	419430400	54	5559
2026-01-28 02:37:53.08	271.50	25.06	-41.4	-44.1	19.7	6.03e-01	0	61	0	425197568	54	4918
2026-01-28 02:37:56.11	270.60	24.78	-41.4	-44.2	19.7	6.01e-01	0	61	0	430964736	54	4948
2026-01-28 02:37:59.14	269.71	24.49	-41.2	-43.8	19.9	6.05e-01	0	61	0	436731904	54	4757
2026-01-28 02:38:02.16	268.84	24.21	-41.3	-44.0	19.7	6.04e-01	0	61	0	441974784	54	4851
2026-01-28 02:38:05.19	267.98	23.92	-41.8	-44.9	18.9	6.03e-01	0	62	0	447741952	54	5384
2026-01-28 02:38:08.22	267.14	23.63	-41.4	-44.2	19.6	6.04e-01	0	62	0	453509120	54	4967
2026-01-28 02:38:11.25	266.32	23.33	-41.4	-44.2	19.6	6.02e-01	0	62	0	459276288	54	4964
2026-01-28 02:38:14.28	265.52	23.03	-41.6	-44.6	19.2	6.04e-01	0	62	0	465043456	54	5190
2026-01-28 02:38:17.31	264.73	22.73	-41.6	-44.5	19.4	6.03e-01	0	62	0	470810624	54	5114
2026-01-28 02:38:20.34	263.95	22.43	-41.5	-44.4	19.4	6.05e-01	0	61	0	476053504	54	5062
2026-01-28 02:38:23.37	263.19	22.13	-41.4	-44.2	19.6	6.04e-01	0	61	0	481820672	54	4972
2026-01-28 02:38:26.40	262.45	21.82	-41.5	-44.4	19.4	6.03e-01	0	62	0	487587840	54	5064
2026-01-28 02:38:29.42	261.72	21.52	-41.4	-44.3	19.5	6.04e-01	0	62	0	493355008	54	5005
2026-01-28 02:38:32.45	261.01	21.22	-41.5	-44.4	19.4	6.05e-01	0	61	0	499122176	54	5047
2026-01-28 02:38:35.48	260.31	20.91	-41.4	-44.2	19.6	6.00e-01	0	62	0	504889344	54	4937
2026-01-28 02:38:38.52	259.63	20.60	-41.2	-44.0	19.7	6.04e-01	0	61	0	510132224	54	4837
2026-01-28 02:38:41.54	258.96	20.30	-41.3	-44.1	19.7	6.01e-01	0	61	0	515899392	54	4877
2026-01-28 02:38:44.58	258.30	19.99	-41.2	-44.0	19.8	6.03e-01	0	62	0	521666560	54	4834
2026-01-28 02:38:47.60	257.66	19.69	-41.3	-44.1	19.7	6.02e-01	0	61	0	527433728	54	4893
2026-01-28 02:38:50.63	257.03	19.38	-41.2	-44.0	19.7	6.03e-01	0	62	0	533200896	54	4856
2026-01-28 02:38:53.66	256.42	19.08	-41.2	-44.0	19.7	6.02e-01	0	62	0	538968064	54	4826
2026-01-28 02:38:56.70	255.81	18.77	-41.1	-43.8	19.9	6.02e-01	0	61	0	544210944	54	4757
2026-01-28 02:38:59.72	255.23	18.47	-41.3	-44.2	19.5	6.03e-01	0	62	0	549978112	54	4928
2026-01-28 02:39:02.76	254.65	18.17	-41.2	-44.0	19.7	6.03e-01	0	62	0	555745280	54	4827
2026-01-28 02:39:05.78	254.08	17.87	-41.3	-44.1	19.6	6.02e-01	0	62	0	561512448	54	4883
2026-01-28 02:39:08.82	253.53	17.57	-41.2	-44.0	19.7	6.05e-01	0	61	0	567279616	54	4869
2026-01-28 02:39:11.85	252.99	17.27	-41.2	-44.0	19.7	6.03e-01	0	62	0	573046784	54	4835
2026-01-28 02:39:14.87	252.46	16.98	-41.2	-44.0	19.7	6.04e-01	0	62	0	578289664	54	4817
2026-01-28 02:39:17.91	251.94	16.68	-41.2	-44.0	19.7	6.01e-01	0	62	0	584056832	54	4832
2026-01-28 02:39:20.94	251.43	16.39	-41.1	-43.9	19.8	6.05e-01	0	62	0	589824000	54	4768
2026-01-28 02:39:23.96	250.93	16.10	-41.2	-44.1	19.5	6.03e-01	0	62	0	595591168	54	4887
2026-01-28 02:39:26.99	250.44	15.81	-41.2	-44.1	19.6	6.02e-01	0	62	0	601358336	54	4876
2026-01-28 02:39:30.03	249.96	15.52	-41.4	-44.4	19.2	6.04e-01	0	62	0	607125504	54	5044
2026-01-28 02:39:33.06	249.49	15.24	-41.2	-44.1	19.5	6.02e-01	0	61	0	612368384	54	4896
2026-01-28 02:39:36.09	249.04	14.95	-41.1	-44.0	19.6	6.02e-01	0	62	0	618135552	54	4825
2026-01-28 02:39:39.12	248.59	14.67	-41.2	-44.1	19.5	6.04e-01	0	62	0	623902720	54	4891
2026-01-28 02:39:42.15	248.15	14.39	-41.2	-44.1	19.5	6.02e-01	0	62	0	629669888	54	4909
2026-01-28 02:39:45.18	247.71	14.12	-41.1	-44.0	19.6	6.02e-01	0	62	0	635437056	54	4826
2026-01-28 02:39:48.21	247.29	13.84	-41.3	-44.2	19.4	6.04e-01	0	62	0	641204224	54	4933
2026-01-28 02:39:51.24	246.88	13.57	-41.4	-44.4	19.2	6.05e-01	0	62	0	646447104	54	5055
2026-01-28 02:39:54.27	246.47	13.29	-41.4	-44.3	19.2	6.03e-01	0	62	0	652214272	54	5026
2026-01-28 02:39:57.30	246.07	13.02	-41.2	-44.0	19.5	6.00e-01	0	61	0	657981440	54	4859
2026-01-28 02:40:00.33	245.68	12.76	-41.3	-44.3	19.2	6.02e-01	0	62	0	663748608	54	5005
2026-01-28 02:40:03.36	245.30	12.49	-41.4	-44.4	19.1	6.03e-01	0	61	0	669515776	54	5075
2026-01-28 02:40:06.40	244.92	12.23	-41.4	-44.4	19.1	6.02e-01	0	62	0	675282944	54	5053
2026-01-28 02:40:09.43	244.56	11.96	-41.3	-44.3	19.2	6.02e-01	0	62	0	681050112	54	5012
2026-01-28 02:40:12.45	244.20	11.71	-41.4	-44.5	19.0	6.04e-01	0	62	0	686292992	54	5117
2026-01-28 02:40:15.48	243.84	11.45	-41.4	-44.5	18.9	6.03e-01	0	62	0	692060160	54	5145
2026-01-28 02:40:18.51	243.50	11.19	-41.5	-44.6	18.8	6.02e-01	0	61	0	697827328	54	5194
2026-01-28 02:40:21.54	243.15	10.94	-41.5	-44.7	18.7	6.00e-01	0	62	0	703594496	54	5225
2026-01-28 02:40:24.57	242.82	10.69	-41.4	-44.6	18.8	6.03e-01	0	62	0	709361664	54	5171
2026-01-28 02:40:27.60	242.49	10.44	-41.5	-44.8	18.6	6.05e-01	0	62	0	714604544	54	5284
2026-01-28 02:40:30.63	242.17	10.19	-41.6	-44.8	18.5	6.02e-01	0	62	0	720371712	54	5316
2026-01-28 02:40:33.67	241.85	9.94	-41.6	-44.8	18.5	6.03e-01	0	62	0	726138880	54	5299
2026-01-28 02:40:36.70	241.54	9.70	-41.7	-45.1	18.2	6.05e-01	0	62	0	731906048	54	5492
2026-01-28 02:40:39.72	241.24	9.46	-41.8	-45.2	18.1	6.04e-01	0	62	0	737673216	54	5541
2026-01-28 02:40:42.75	240.94	9.22	-41.6	-45.0	18.3	6.04e-01	0	62	0	743440384	54	5403
2026-01-28 02:40:45.78	240.65	8.98	-41.6	-44.9	18.4	6.01e-01	0	62	0	749207552	54	5353
2026-01-28 02:40:48.81	240.36	8.74	-41.7	-45.0	18.1	6.02e-01	0	62	0	754450432	54	5464
2026-01-28 02:40:51.84	240.07	8.51	-41.8	-45.3	17.9	6.05e-01	0	62	0	760217600	54	5653
2026-01-28 02:40:54.87	239.80	8.27	-41.8	-45.4	17.8	6.01e-01	0	62	0	765984768	54	5705
2026-01-28 02:40:57.89	239.52	8.04	-41.8	-45.4	17.7	6.02e-01	0	62	0	771751936	54	5681
2026-01-28 02:41:00.93	239.25	7.81	-46.0	-64.7	3.8	7.44e-01	0	62	104	773324800	62	33123
2026-01-28 02:41:03.96	238.99	7.59	-46.2	-64.9	3.8	7.45e-01	0	62	104	773324800	62	34023
2026-01-28 02:41:06.99	238.73	7.36	-46.4	-65.1	3.8	7.43e-01	0	62	104	773324800	63	32574
2026-01-28 02:41:10.02	238.48	7.14	-46.3	-65.0	3.8	7.46e-01	0	62	104	773324800	63	32276
2026-01-28 02:41:13.05	238.23	6.91	-46.3	-65.0	3.8	7.47e-01	0	62	104	773324800	63	32271
2026-01-28 02:41:16.08	237.98	6.69	-46.2	-64.9	3.8	7.41e-01	0	62	104	773324800	63	31940
2026-01-28 02:41:19.11	237.74	6.47	-46.2	-64.9	3.8	7.42e-01	0	62	104	773324800	63	31859
2026-01-28 02:41:22.15	237.50	6.26	-46.2	-64.9	3.8	7.47e-01	0	62	104	773324800	63	31985
2026-01-28 02:41:25.18	237.26	6.04	-46.2	-64.9	3.8	7.45e-01	0	62	104	773324800	63	31961
2026-01-28 02:41:28.21	237.03	5.83	-46.2	-64.9	3.8	7.46e-01	0	62	104	773324800	63	31899
2026-01-28 02:41:31.24	236.81	5.61	-46.2	-64.9	3.8	7.47e-01	0	62	104	773324800	63	31882
2026-01-28 02:41:34.27	236.58	5.40	-46.2	-64.9	3.8	7.46e-01	0	62	104	773324800	63	31930
2026-01-28 02:41:37.30	236.36	5.19	-46.2	-64.9	3.8	7.44e-01	0	62	104	773324800	63	31822
2026-01-28 02:41:40.33	236.15	4.98	-46.2	-64.9	3.8	7.46e-01	0	62	104	773324800	63	31815
2026-01-28 02:41:43.36	235.94	4.78	-46.2	-64.9	3.8	7.44e-01	0	62	104	773324800	63	31845
2026-01-28 02:41:46.39	235.73	4.57	-46.2	-64.9	3.8	7.43e-01	0	62	104	773324800	63	31847
2026-01-28 02:41:49.42	235.52	4.37	-46.2	-64.8	3.8	7.47e-01	0	62	104	773324800	63	31794
2026-01-28 02:41:52.46	235.32	4.16	-46.2	-64.9	3.8	7.45e-01	0	62	104	773324800	63	31893
2026-01-28 02:41:55.49	235.12	3.96	-46.2	-64.9	3.8	7.45e-01	0	62	104	773324800	63	31854
2026-01-28 02:41:58.52	234.92	3.76	-46.2	-64.8	3.8	7.49e-01	0	62	104	773324800	63	31806
2026-01-28 02:42:01.55	234.73	3.56	-46.2	-64.8	3.8	7.43e-01	0	62	104	773324800	63	31792
2026-01-28 02:42:04.58	234.54	3.37	-46.2	-64.9	3.8	7.46e-01	0	62	104	773324800	63	31832
2026-01-28 02:42:07.61	234.35	3.17	-46.2	-64.8	3.8	7.43e-01	0	62	104	773324800	63	31757
2026-01-28 02:42:10.64	234.16	2.97	-46.2	-64.9	3.8	7.46e-01	0	62	104	773324800	63	31832
2026-01-28 02:42:13.67	233.98	2.78	-46.2	-64.8	3.8	7.45e-01	0	62	104	773324800	63	31772
2026-01-28 02:42:16.71	233.80	2.59	-46.1	-64.8	3.8	7.43e-01	0	62	104	773324800	63	31787
2026-01-28 02:42:19.74	233.63	2.40	-46.2	-64.8	3.8	7.47e-01	0	62	104	773324800	63	31753
2026-01-28 02:42:22.77	233.45	2.21	-46.1	-64.8	3.8	7.42e-01	0	62	104	773324800	63	31757
2026-01-28 02:42:25.80	233.28	2.02	-46.2	-64.8	3.8	7.41e-01	0	62	104	773324800	63	31675

#Closed at: 2026-01-28 02:42:27
#Recorded file [773 MB]: D:/lorett/data/31039_260128_053033.dat