passes_logs/2026/01/28/R2.0S_Moscow/R2.0S_Moscow__20260128_220228_NOAA_21_JPSS-2_rec.log

#Pass ID: 20260128_220228_NOAA 21 (JPSS-2)
#Satellite: NOAA 21 (JPSS-2)
#Configuration: NOAA-21
#almurnet v.1.7.20251203
#Start time: 2026-01-28 22:02:29

#Version: 2.2.20231116
#Station: R2.0S_Moscow
#Location: 37.707566 lon 55.798166 lat
#TLE: 1 54234U 22150A   26027.77052245  .00000166  00000+0  99439-4 0  9997
#TLE: 2 54234  98.7510 328.5165 0000872 203.6403 156.4733 14.19540252166628

#Time	Az	El	Level	Level2	SNR	BER	BlckErr	Temp	State	Recorded	gain1	gain2
2026-01-28 22:02:29.30	26.39	2.04	-42.2	-54.5	3.8	1.49e+00	0	49	0	0	56	14457
2026-01-28 22:02:32.33	26.63	2.20	-42.2	-54.5	3.8	1.49e+00	0	50	104	0	56	14432
2026-01-28 22:02:35.36	26.86	2.36	-42.2	-54.5	3.8	1.49e+00	0	50	104	0	56	14473
2026-01-28 22:02:38.39	27.10	2.52	-42.2	-54.5	3.8	1.49e+00	0	50	104	0	56	14498
2026-01-28 22:02:41.42	27.34	2.69	-42.2	-54.5	3.8	1.49e+00	0	50	104	0	56	14479
2026-01-28 22:02:44.46	27.59	2.85	-42.2	-54.5	3.8	1.49e+00	0	51	104	0	56	14416
2026-01-28 22:02:47.49	27.83	3.01	-42.2	-54.5	3.8	1.49e+00	0	51	104	0	56	14489
2026-01-28 22:02:50.52	28.08	3.17	-42.2	-54.5	3.8	1.49e+00	0	51	104	0	56	14479
2026-01-28 22:02:53.55	28.33	3.34	-42.2	-54.5	3.8	1.49e+00	0	51	104	0	56	14466
2026-01-28 22:02:56.59	28.59	3.50	-42.2	-54.5	3.8	1.49e+00	0	51	104	0	56	14479
2026-01-28 22:02:59.62	28.85	3.67	-42.2	-54.5	3.8	1.49e+00	0	52	104	0	56	14412
2026-01-28 22:03:02.65	29.10	3.83	-42.2	-54.5	3.8	1.49e+00	0	52	104	0	56	14456
2026-01-28 22:03:05.68	29.37	4.00	-42.2	-54.5	3.8	1.49e+00	0	52	104	0	56	14423
2026-01-28 22:03:08.71	29.63	4.17	-42.2	-54.5	3.8	1.49e+00	0	52	104	0	56	14408
2026-01-28 22:03:11.74	29.90	4.33	-42.2	-54.5	3.8	1.49e+00	0	52	104	0	56	14400
2026-01-28 22:03:14.77	30.17	4.50	-42.2	-54.5	3.8	1.49e+00	0	52	104	0	56	14447
2026-01-28 22:03:17.81	30.45	4.67	-42.2	-54.5	3.8	1.49e+00	0	53	104	0	56	14445
2026-01-28 22:03:20.84	30.72	4.84	-42.2	-54.5	3.8	1.49e+00	0	53	104	0	56	14412
2026-01-28 22:03:23.87	31.00	5.01	-42.2	-54.5	3.8	1.49e+00	0	53	104	0	56	14431
2026-01-28 22:03:26.90	31.29	5.18	-42.2	-54.5	3.8	1.49e+00	0	53	104	0	56	14440
2026-01-28 22:03:29.93	31.57	5.35	-42.2	-54.5	3.8	1.49e+00	0	53	104	0	56	14445
2026-01-28 22:03:32.96	31.86	5.52	-42.2	-54.5	3.8	1.49e+00	0	53	104	0	56	14451
2026-01-28 22:03:36.00	32.16	5.69	-42.2	-54.5	3.8	1.49e+00	0	53	104	0	56	14424
2026-01-28 22:03:39.03	32.45	5.86	-42.2	-54.5	3.8	1.49e+00	0	53	104	0	56	14447
2026-01-28 22:03:42.06	32.75	6.03	-42.2	-54.5	3.8	1.49e+00	0	54	104	0	56	14474
2026-01-28 22:03:45.09	33.05	6.21	-42.2	-54.5	3.8	1.49e+00	0	54	104	0	56	14404
2026-01-28 22:03:48.12	33.36	6.38	-42.2	-54.5	3.8	1.49e+00	0	54	104	0	56	14458
2026-01-28 22:03:51.15	33.67	6.55	-42.2	-54.4	3.8	1.49e+00	0	54	104	0	56	14249
2026-01-28 22:03:54.18	33.98	6.73	-42.2	-54.4	3.8	1.49e+00	0	54	104	0	56	14255
2026-01-28 22:03:57.21	34.30	6.90	-42.2	-54.4	3.8	1.49e+00	0	54	104	0	56	14352
2026-01-28 22:04:00.24	34.62	7.08	-42.2	-54.3	3.8	1.49e+00	0	54	104	0	56	14201
2026-01-28 22:04:03.28	34.95	7.26	-42.2	-54.4	3.8	1.49e+00	0	55	104	0	56	14345
2026-01-28 22:04:06.31	35.27	7.43	-42.2	-54.5	3.8	1.49e+00	0	55	104	0	56	14374
2026-01-28 22:04:09.33	35.60	7.61	-42.2	-54.3	3.8	1.49e+00	0	55	104	0	56	14172
2026-01-28 22:04:12.37	35.94	7.79	-42.0	-52.5	3.8	1.49e+00	0	55	104	0	56	11544
2026-01-28 22:04:15.40	36.28	7.96	-41.6	-49.9	4.5	1.46e+00	0	55	104	0	55	9031
2026-01-28 22:04:18.43	36.62	8.14	-43.8	-55.7	3.8	1.46e+00	0	55	104	4194304	58	14772
2026-01-28 22:04:21.46	36.97	8.32	-40.0	-43.2	11.1	1.69e-01	0	55	0	10485760	51	5224
2026-01-28 22:04:24.49	37.32	8.50	-40.0	-43.2	11.1	2.15e-03	0	55	0	19922944	51	5273
2026-01-28 22:04:27.52	37.68	8.68	-40.0	-43.1	11.3	1.45e-03	0	55	0	29360128	51	5213
2026-01-28 22:04:30.54	38.04	8.86	-39.8	-42.8	11.8	4.29e-04	0	55	0	38797312	51	4986
2026-01-28 22:04:33.57	38.40	9.04	-39.8	-42.7	11.9	3.49e-04	0	56	0	48234496	51	4976
2026-01-28 22:04:36.61	38.77	9.22	-39.7	-42.5	12.4	1.67e-04	0	55	0	57671680	51	4822
2026-01-28 22:04:39.64	39.15	9.40	-39.9	-42.8	12.1	1.65e-04	0	56	0	67108864	51	5019
2026-01-28 22:04:42.67	39.52	9.58	-39.9	-42.7	12.3	1.78e-04	0	56	0	76546048	51	4949
2026-01-28 22:04:45.70	39.91	9.76	-39.9	-42.6	12.4	1.06e-04	0	56	0	85983232	51	4914
2026-01-28 22:04:48.73	40.29	9.94	-39.8	-42.5	12.6	1.10e-04	0	56	0	95420416	51	4844
2026-01-28 22:04:51.76	40.69	10.12	-39.9	-42.7	12.4	1.62e-04	0	56	0	104857600	51	4934
2026-01-28 22:04:54.79	41.08	10.30	-40.1	-42.9	12.3	2.17e-04	0	56	0	114294784	51	5063
2026-01-28 22:04:57.82	41.48	10.48	-40.1	-42.9	12.3	1.80e-04	0	56	0	123731968	51	5053
2026-01-28 22:05:00.85	41.89	10.67	-39.8	-42.5	12.7	1.31e-04	0	56	0	133169152	50	5131
2026-01-28 22:05:03.88	42.30	10.85	-39.7	-42.3	12.9	4.65e-05	0	56	0	143654912	50	5025
2026-01-28 22:05:06.91	42.72	11.03	-39.7	-42.3	13.0	2.89e-05	0	56	0	153092096	50	5008
2026-01-28 22:05:09.94	43.14	11.21	-39.9	-42.5	12.7	5.34e-05	0	56	0	162529280	50	5142
2026-01-28 22:05:12.97	43.56	11.39	-39.8	-42.4	12.9	6.86e-05	0	56	0	171966464	50	5093
2026-01-28 22:05:16.00	43.99	11.58	-39.7	-42.2	13.1	2.74e-05	0	56	0	181403648	50	4933
2026-01-28 22:05:19.04	44.43	11.76	-39.6	-42.0	13.4	1.75e-05	0	56	0	190840832	50	4847
2026-01-28 22:05:22.07	44.87	11.94	-39.6	-42.0	13.3	9.90e-06	0	56	0	200278016	50	4863
2026-01-28 22:05:25.10	45.32	12.12	-39.6	-42.0	13.4	1.37e-05	0	57	0	209715200	50	4846
2026-01-28 22:05:28.13	45.77	12.30	-39.5	-41.9	13.5	7.60e-06	0	57	0	219152384	50	4807
2026-01-28 22:05:31.16	46.23	12.48	-39.5	-41.8	13.6	1.22e-05	0	57	0	228589568	50	4739
2026-01-28 22:05:34.19	46.69	12.67	-39.5	-41.9	13.5	1.44e-05	0	57	0	238026752	50	4775
2026-01-28 22:05:37.23	47.16	12.85	-39.6	-42.0	13.4	1.52e-05	0	57	0	247463936	50	4844
2026-01-28 22:05:40.26	47.64	13.03	-39.7	-42.1	13.3	1.29e-05	0	57	0	256901120	50	4884
2026-01-28 22:05:43.29	48.12	13.21	-39.6	-42.1	13.4	1.37e-05	0	57	0	266338304	50	4880
2026-01-28 22:05:46.32	48.60	13.38	-39.5	-41.9	13.6	8.30e-06	0	57	0	275775488	50	4775
2026-01-28 22:05:49.36	49.10	13.56	-39.6	-41.9	13.6	7.60e-06	0	57	0	285212672	50	4789
2026-01-28 22:05:52.39	49.59	13.74	-39.5	-41.8	13.7	6.10e-06	0	57	0	294649856	50	4708
2026-01-28 22:05:55.42	50.10	13.92	-39.3	-41.6	13.9	3.00e-06	0	57	0	304087040	50	4625
2026-01-28 22:05:58.45	50.61	14.10	-39.4	-41.7	13.8	2.20e-06	0	57	0	313524224	50	4683
2026-01-28 22:06:01.48	51.12	14.27	-39.6	-41.9	13.6	1.06e-05	0	57	0	322961408	50	4789
2026-01-28 22:06:04.52	51.64	14.45	-39.5	-41.8	13.8	6.80e-06	0	57	0	332398592	50	4726
2026-01-28 22:06:07.55	52.17	14.62	-39.6	-42.0	13.6	1.44e-05	0	57	0	341835776	50	4836
2026-01-28 22:06:10.58	52.70	14.79	-39.5	-41.8	13.7	3.80e-06	0	57	0	351272960	50	4752
2026-01-28 22:06:13.62	53.24	14.97	-39.5	-41.8	13.7	4.50e-06	0	57	0	360710144	50	4744
2026-01-28 22:06:16.65	53.79	15.14	-39.3	-41.6	14.0	2.20e-06	0	57	0	370147328	50	4608
2026-01-28 22:06:19.68	54.34	15.31	-39.4	-41.7	13.9	3.80e-06	0	57	0	379584512	50	4694
2026-01-28 22:06:22.71	54.90	15.47	-39.5	-41.8	13.7	5.30e-06	0	57	0	389021696	50	4759
2026-01-28 22:06:25.74	55.46	15.64	-39.5	-41.8	13.8	3.80e-06	0	57	0	398458880	50	4735
2026-01-28 22:06:28.77	56.03	15.81	-39.3	-41.6	14.0	7.00e-07	0	58	0	408944640	50	4607
2026-01-28 22:06:31.81	56.61	15.97	-39.3	-41.5	14.1	0.00e+00	0	57	0	418381824	50	4558
2026-01-28 22:06:34.84	57.19	16.13	-39.3	-41.5	14.0	2.20e-06	0	57	0	427819008	50	4597
2026-01-28 22:06:37.87	57.78	16.29	-39.4	-41.6	14.0	3.00e-06	0	57	0	437256192	50	4643
2026-01-28 22:06:40.90	58.37	16.45	-39.3	-41.6	14.1	1.50e-06	0	57	0	446693376	50	4600
2026-01-28 22:06:43.93	58.97	16.61	-39.2	-41.4	14.2	1.50e-06	0	57	0	456130560	50	4531
2026-01-28 22:06:46.97	59.58	16.76	-39.1	-41.2	14.4	1.50e-06	0	57	0	465567744	50	4406
2026-01-28 22:06:49.99	60.19	16.91	-39.2	-41.3	14.3	7.00e-07	0	58	0	475004928	50	4492
2026-01-28 22:06:53.03	60.81	17.07	-39.1	-41.3	14.3	2.20e-06	0	58	0	484442112	50	4467
2026-01-28 22:06:56.06	61.44	17.21	-39.2	-41.3	14.3	0.00e+00	0	58	0	493879296	50	4479
2026-01-28 22:06:59.09	62.07	17.36	-39.1	-41.2	14.4	7.00e-07	0	57	0	503316480	50	4394
2026-01-28 22:07:02.12	62.71	17.50	-39.0	-41.2	14.4	7.00e-07	0	58	0	512753664	50	4398
2026-01-28 22:07:05.15	63.35	17.64	-38.9	-41.0	14.5	7.00e-07	0	57	0	522190848	49	4581
2026-01-28 22:07:08.19	64.00	17.78	-39.0	-41.1	14.4	7.00e-07	0	57	0	531628032	49	4649
2026-01-28 22:07:11.22	64.65	17.92	-38.7	-40.7	14.9	7.00e-07	0	58	0	541065216	49	4404
2026-01-28 22:07:14.25	65.31	18.05	-38.8	-40.8	14.8	1.50e-06	0	58	0	550502400	49	4455
2026-01-28 22:07:17.28	65.98	18.18	-38.7	-40.7	14.7	0.00e+00	0	58	0	559939584	49	4441
2026-01-28 22:07:20.31	66.65	18.30	-38.8	-40.8	14.7	0.00e+00	0	58	0	569376768	49	4478
2026-01-28 22:07:23.34	67.33	18.43	-38.8	-40.9	14.6	7.00e-07	0	58	0	578813952	49	4521
2026-01-28 22:07:26.38	68.01	18.55	-38.8	-40.9	14.6	0.00e+00	0	58	0	588251136	49	4507
2026-01-28 22:07:29.41	68.70	18.66	-38.6	-40.6	14.7	0.00e+00	0	58	0	597688320	49	4376
2026-01-28 22:07:32.45	69.39	18.78	-38.8	-41.0	14.0	6.80e-06	0	58	0	607125504	49	4586
2026-01-28 22:07:35.48	70.09	18.88	-38.8	-41.1	13.7	5.30e-06	0	58	0	616562688	49	4622
2026-01-28 22:07:38.51	70.79	18.99	-38.9	-41.3	13.1	2.89e-05	0	58	0	625999872	49	4740
2026-01-28 22:07:41.54	71.50	19.09	-39.1	-41.8	12.5	1.32e-04	0	58	0	635437056	49	5000
2026-01-28 22:07:44.57	72.21	19.19	-39.1	-41.9	12.2	2.84e-04	0	58	0	644874240	49	5078
2026-01-28 22:07:47.61	72.93	19.28	-39.1	-41.9	12.4	1.55e-04	0	58	0	655360000	49	5048
2026-01-28 22:07:50.64	73.65	19.37	-39.3	-42.0	12.3	1.75e-04	0	58	0	663748608	49	5143
2026-01-28 22:07:53.67	74.38	19.46	-39.0	-41.7	12.4	1.68e-04	0	58	0	674234368	49	4981
2026-01-28 22:07:56.70	75.10	19.54	-39.1	-41.9	12.0	3.13e-04	0	58	0	682622976	49	5085
2026-01-28 22:07:59.74	75.84	19.62	-39.2	-42.0	12.1	2.92e-04	0	58	0	693108736	49	5136
2026-01-28 22:08:02.77	76.57	19.69	-39.2	-42.0	12.1	2.34e-04	0	58	0	702545920	49	5152
2026-01-28 22:08:05.80	77.31	19.76	-39.1	-41.8	12.5	1.14e-04	0	58	0	711983104	49	4986
2026-01-28 22:08:08.83	78.06	19.82	-39.3	-41.9	12.6	8.39e-05	0	58	0	721420288	49	5070
2026-01-28 22:08:11.86	78.80	19.88	-39.2	-41.7	12.9	4.42e-05	0	58	0	730857472	49	4975
2026-01-28 22:08:14.89	79.55	19.93	-39.2	-41.9	12.6	1.23e-04	0	58	0	740294656	49	5045
2026-01-28 22:08:17.93	80.30	19.98	-39.1	-41.7	13.0	4.19e-05	0	58	0	749731840	49	4935
2026-01-28 22:08:20.96	81.06	20.03	-39.0	-41.3	13.7	9.10e-06	0	58	0	759169024	49	4730
2026-01-28 22:08:23.99	81.81	20.07	-39.1	-41.5	13.5	9.90e-06	0	58	0	768606208	49	4822
2026-01-28 22:08:27.03	82.57	20.10	-39.0	-41.3	13.8	8.30e-06	0	58	0	778043392	49	4737
2026-01-28 22:08:30.06	83.33	20.13	-39.1	-41.4	13.7	2.20e-06	0	58	0	787480576	49	4792
2026-01-28 22:08:33.09	84.09	20.16	-39.0	-41.4	13.5	6.80e-06	0	58	0	796917760	49	4775
2026-01-28 22:08:36.12	84.85	20.18	-38.8	-41.3	13.2	1.60e-05	0	58	0	806354944	49	4720
2026-01-28 22:08:39.15	85.61	20.20	-39.0	-41.6	12.6	1.38e-04	0	58	0	815792128	49	4883
2026-01-28 22:08:42.19	86.38	20.21	-39.1	-41.8	12.4	1.56e-04	0	58	0	825229312	49	5021
2026-01-28 22:08:45.22	87.14	20.21	-39.3	-42.2	11.9	3.55e-04	0	58	0	834666496	49	5247
2026-01-28 22:08:48.25	87.90	20.21	-39.3	-42.1	12.1	2.77e-04	0	58	0	844103680	49	5206
2026-01-28 22:08:51.28	88.67	20.21	-39.2	-41.9	12.3	2.04e-04	0	58	0	853540864	49	5079
2026-01-28 22:08:54.31	89.43	20.20	-39.1	-41.6	13.0	3.58e-05	0	58	0	862978048	49	4904
2026-01-28 22:08:57.35	90.20	20.18	-39.1	-41.3	13.9	3.80e-06	0	58	0	872415232	49	4745
2026-01-28 22:09:00.37	90.95	20.16	-38.8	-40.9	14.5	7.00e-07	0	58	0	881852416	49	4509
2026-01-28 22:09:03.41	91.72	20.14	-38.9	-40.9	14.6	0.00e+00	0	58	0	891289600	49	4541
2026-01-28 22:09:06.44	92.48	20.11	-38.7	-40.7	14.9	0.00e+00	0	58	0	900726784	49	4404
2026-01-28 22:09:09.47	93.24	20.07	-38.7	-40.6	15.1	0.00e+00	0	58	0	910163968	49	4387
2026-01-28 22:09:12.49	93.99	20.03	-38.6	-40.5	15.2	0.00e+00	0	58	0	919601152	49	4308
2026-01-28 22:09:15.53	94.75	19.99	-38.5	-40.4	15.3	0.00e+00	0	58	0	929038336	48	4516
2026-01-28 22:09:18.56	95.50	19.94	-38.4	-40.3	15.4	0.00e+00	0	58	0	939524096	48	4481
2026-01-28 22:09:21.59	96.25	19.88	-38.4	-40.3	15.4	0.00e+00	0	58	0	948961280	48	4467
2026-01-28 22:09:24.62	96.99	19.82	-38.4	-40.2	15.6	0.00e+00	0	58	0	958398464	48	4422
2026-01-28 22:09:27.65	97.74	19.76	-38.3	-40.1	15.6	0.00e+00	0	58	0	967835648	48	4389
2026-01-28 22:09:30.68	98.48	19.69	-38.4	-40.3	15.5	0.00e+00	0	58	0	977272832	48	4447
2026-01-28 22:09:33.70	99.22	19.62	-38.5	-40.3	15.4	0.00e+00	0	58	0	986710016	48	4487
2026-01-28 22:09:36.73	99.95	19.54	-38.8	-40.7	15.0	0.00e+00	0	58	0	996147200	48	4691
2026-01-28 22:09:39.77	100.68	19.46	-38.7	-40.7	15.1	0.00e+00	0	58	0	1005584384	48	4677
2026-01-28 22:09:42.80	101.41	19.38	-38.3	-40.4	15.4	0.00e+00	0	58	0	1015021568	48	4510
2026-01-28 22:09:45.82	102.13	19.29	-38.6	-40.5	15.2	0.00e+00	0	58	0	1024458752	48	4579
2026-01-28 22:09:48.85	102.85	19.19	-38.5	-40.3	15.4	0.00e+00	0	58	0	1033895936	48	4482
2026-01-28 22:09:51.88	103.56	19.10	-38.5	-40.5	15.3	0.00e+00	0	58	0	1043333120	48	4546
2026-01-28 22:09:54.92	104.28	18.99	-38.4	-40.2	15.5	0.00e+00	0	59	0	1052770304	48	4424
2026-01-28 22:09:57.95	104.98	18.89	-38.4	-40.2	15.5	0.00e+00	0	58	0	1062207488	48	4417
2026-01-28 22:10:00.98	105.68	18.78	-38.4	-40.3	15.4	0.00e+00	0	58	0	1071644672	48	4448
2026-01-28 22:10:04.01	106.38	18.66	-38.5	-40.4	15.3	0.00e+00	0	58	0	1081081856	48	4520
2026-01-28 22:10:07.04	107.07	18.55	-38.5	-40.4	15.3	0.00e+00	0	58	0	1090519040	48	4520
2026-01-28 22:10:10.08	107.75	18.43	-38.5	-40.4	15.3	0.00e+00	0	59	0	1099956224	48	4529
2026-01-28 22:10:13.11	108.43	18.30	-38.6	-40.5	15.2	0.00e+00	0	58	0	1109393408	48	4591
2026-01-28 22:10:16.14	109.11	18.18	-38.8	-40.8	14.9	0.00e+00	0	58	0	1118830592	48	4731
2026-01-28 22:10:19.17	109.78	18.05	-38.7	-40.7	15.0	0.00e+00	0	58	0	1128267776	48	4683
2026-01-28 22:10:22.20	110.44	17.91	-38.8	-40.8	14.9	0.00e+00	0	58	0	1137704960	48	4733
2026-01-28 22:10:25.23	111.10	17.78	-39.0	-41.0	14.7	0.00e+00	0	59	0	1147142144	48	4846
2026-01-28 22:10:28.26	111.75	17.64	-38.9	-40.9	14.7	7.00e-07	0	58	0	1156579328	48	4805
2026-01-28 22:10:31.29	112.40	17.50	-38.9	-41.0	14.7	0.00e+00	0	58	0	1166016512	48	4817
2026-01-28 22:10:34.32	113.04	17.35	-38.6	-40.6	15.0	0.00e+00	0	59	0	1175453696	48	4627
2026-01-28 22:10:37.36	113.67	17.21	-38.7	-40.6	15.0	1.06e-05	0	58	0	1184890880	48	4648
2026-01-28 22:10:40.39	114.30	17.06	-38.8	-41.0	14.6	1.57e-04	0	58	0	1194328064	48	4842
2026-01-28 22:10:43.42	114.92	16.91	-38.9	-41.2	14.3	5.61e-04	0	59	0	1203765248	48	4966
2026-01-28 22:10:46.44	115.54	16.75	-38.6	-40.9	14.6	2.36e-03	0	58	0	1213202432	47	5078
2026-01-28 22:10:49.48	116.15	16.60	-38.6	-40.8	14.6	5.87e-04	0	59	0	1222639616	47	5033
2026-01-28 22:10:52.51	116.75	16.44	-38.5	-40.9	14.6	5.60e-04	0	58	0	1233125376	47	5044
2026-01-28 22:10:55.54	117.35	16.28	-38.8	-41.4	14.1	6.38e-04	0	58	0	1242562560	47	5345
2026-01-28 22:10:58.57	117.94	16.12	-38.6	-41.5	14.1	5.23e-04	0	58	0	1251999744	48	5115
2026-01-28 22:11:01.60	118.53	15.95	-38.9	-41.2	14.3	2.53e-04	0	58	0	1261436928	48	4972
2026-01-28 22:11:04.63	119.11	15.79	-38.8	-41.1	14.4	5.00e-04	0	58	0	1270874112	48	4892
2026-01-28 22:11:07.67	119.68	15.62	-38.7	-41.2	14.3	2.96e-04	0	58	0	1280311296	47	5226
2026-01-28 22:11:10.69	120.25	15.45	-38.7	-41.4	14.1	2.36e-04	0	58	0	1289748480	48	5062
2026-01-28 22:11:13.72	120.81	15.29	-38.3	-41.4	14.0	1.17e-03	0	58	0	1299185664	47	5354
2026-01-28 22:11:16.76	121.36	15.11	-37.3	-41.4	13.7	4.43e-03	0	58	0	1308622848	44	6413
2026-01-28 22:11:19.79	121.91	14.94	-37.9	-41.6	13.6	5.74e-03	0	59	0	1318060032	45	6179
2026-01-28 22:11:22.82	122.45	14.77	-37.6	-41.3	13.8	6.96e-03	0	59	0	1327497216	44	6319
2026-01-28 22:11:25.85	122.99	14.59	-39.1	-41.3	14.1	2.67e-05	0	58	0	1336934400	49	4746
2026-01-28 22:11:28.88	123.52	14.42	-39.1	-41.4	14.1	2.74e-05	0	59	0	1346371584	48	5051
2026-01-28 22:11:31.90	124.04	14.24	-39.1	-41.3	14.1	8.85e-05	0	59	0	1355808768	48	5013
2026-01-28 22:11:34.93	124.56	14.06	-39.1	-41.4	14.1	7.09e-05	0	58	0	1365245952	48	5044
2026-01-28 22:11:37.97	125.07	13.89	-38.7	-41.2	14.1	4.07e-04	0	59	0	1374683136	47	5219
2026-01-28 22:11:41.00	125.58	13.71	-38.6	-41.1	14.0	3.47e-02	0	59	0	1384120320	47	5162
2026-01-28 22:11:44.03	126.08	13.53	-37.2	-40.9	13.8	8.48e-03	0	58	0	1393557504	44	5997
2026-01-28 22:11:47.06	126.57	13.35	-36.6	-40.8	13.2	1.26e-01	2	58	0	1402994688	42	6673
2026-01-28 22:11:50.10	127.06	13.16	-34.1	-40.8	10.2	7.80e-02	6	59	0	1412431872	36	9455
2026-01-28 22:11:53.13	127.54	12.98	-31.5	-40.3	9.6	3.22e-01	17	59	0	1414529024	34	9988
2026-01-28 22:11:56.15	128.02	12.80	-23.1	-39.1	4.4	5.17e-01	0	59	104	1420820480	17	23177
2026-01-28 22:11:59.18	128.49	12.62	-25.8	-39.9	8.0	7.76e-01	16	59	0	1422917632	26	15214
2026-01-28 22:12:02.21	128.95	12.44	-27.1	-40.6	5.0	1.41e+00	0	59	104	1425014784	24	18476
2026-01-28 22:12:05.24	129.41	12.25	-22.6	-40.3	4.6	1.42e+00	0	59	104	1425014784	24	17788
2026-01-28 22:12:08.27	129.87	12.07	-27.2	-47.7	4.3	1.49e+00	0	59	104	1425014784	30	29438
2026-01-28 22:12:11.30	130.32	11.89	-26.4	-40.9	4.7	1.46e+00	0	59	104	1425014784	21	22642
2026-01-28 22:12:14.33	130.76	11.70	-25.0	-40.5	4.9	1.43e+00	0	59	104	1425014784	21	21731
2026-01-28 22:12:17.36	131.20	11.52	-23.8	-39.7	4.6	1.44e+00	0	59	104	1425014784	16	26212
2026-01-28 22:12:20.38	131.63	11.34	-24.2	-39.3	4.4	1.49e+00	0	59	104	1425014784	14	28032
2026-01-28 22:12:23.41	132.06	11.15	-23.5	-40.7	4.5	1.46e+00	0	59	104	1425014784	17	27927
2026-01-28 22:12:26.44	132.48	10.97	-24.9	-40.1	4.7	1.44e+00	0	59	104	1425014784	19	23076
2026-01-28 22:12:29.47	132.90	10.78	-24.3	-42.9	4.5	1.48e+00	0	59	104	1425014784	23	25289
2026-01-28 22:12:32.50	133.31	10.60	-23.0	-42.4	4.3	1.50e+00	0	59	104	1425014784	20	28632
2026-01-28 22:12:35.52	133.72	10.42	-35.9	-53.6	4.0	1.49e+00	0	59	104	1425014784	38	36602
2026-01-28 22:12:38.56	134.12	10.23	-37.1	-53.9	3.8	1.50e+00	0	59	104	1425014784	41	32029
2026-01-28 22:12:41.58	134.52	10.05	-41.2	-54.3	3.8	1.49e+00	0	59	104	1425014784	49	21218
2026-01-28 22:12:44.61	134.91	9.87	-36.0	-53.7	4.0	1.50e+00	0	59	104	1425014784	42	29501
2026-01-28 22:12:47.64	135.30	9.68	-27.1	-49.8	4.2	1.51e+00	0	59	104	1425014784	33	31645
2026-01-28 22:12:50.67	135.68	9.50	-41.8	-54.4	3.9	1.49e+00	0	59	104	1425014784	54	16046
2026-01-28 22:12:53.70	136.06	9.32	-40.6	-54.5	3.8	1.49e+00	0	59	104	1425014784	53	17161
2026-01-28 22:12:56.73	136.43	9.13	-39.5	-54.5	4.0	1.49e+00	0	59	104	1425014784	51	19225
2026-01-28 22:12:59.76	136.80	8.95	-41.9	-54.3	3.9	1.49e+00	0	59	104	1425014784	53	16744
2026-01-28 22:13:02.80	137.17	8.77	-40.0	-54.3	3.7	1.49e+00	0	59	104	1425014784	52	17769
2026-01-28 22:13:05.82	137.53	8.59	-40.7	-54.2	3.8	1.49e+00	0	59	104	1425014784	54	15754
2026-01-28 22:13:08.85	137.89	8.41	-42.1	-54.4	3.8	1.49e+00	0	59	104	1425014784	54	16081
2026-01-28 22:13:11.88	138.24	8.23	-42.1	-54.6	3.9	1.49e+00	0	59	104	1425014784	55	15444
2026-01-28 22:13:14.91	138.59	8.05	-42.2	-54.2	3.9	1.49e+00	0	59	104	1425014784	54	15658
2026-01-28 22:13:17.95	138.93	7.87	-44.7	-57.3	3.8	1.49e+00	0	59	104	1425014784	60	15782
2026-01-28 22:13:20.98	139.27	7.69	-45.3	-57.8	3.8	1.49e+00	0	59	104	1425014784	61	15899
2026-01-28 22:13:24.01	139.61	7.51	-45.5	-58.0	3.8	1.49e+00	0	59	104	1425014784	61	16297
2026-01-28 22:13:27.04	139.94	7.33	-45.3	-57.9	3.8	1.49e+00	0	59	104	1425014784	61	16038
2026-01-28 22:13:30.07	140.27	7.15	-45.1	-57.8	3.8	1.49e+00	0	59	104	1425014784	61	15799
2026-01-28 22:13:33.10	140.59	6.97	-45.0	-57.6	3.8	1.49e+00	0	59	104	1425014784	61	15560
2026-01-28 22:13:36.13	140.91	6.79	-45.0	-57.7	3.8	1.49e+00	0	59	104	1425014784	61	15597
2026-01-28 22:13:39.16	141.23	6.62	-45.0	-57.7	3.8	1.49e+00	0	59	104	1425014784	61	15616
2026-01-28 22:13:42.19	141.54	6.44	-45.0	-57.6	3.8	1.49e+00	0	59	104	1425014784	61	15505
2026-01-28 22:13:45.22	141.85	6.26	-45.0	-57.6	3.8	1.49e+00	0	59	104	1425014784	61	15516
2026-01-28 22:13:48.25	142.16	6.09	-45.0	-57.6	3.8	1.49e+00	0	59	104	1425014784	61	15505
2026-01-28 22:13:51.28	142.46	5.91	-45.0	-57.6	3.8	1.49e+00	0	59	104	1425014784	61	15496
2026-01-28 22:13:54.31	142.76	5.74	-45.0	-57.6	3.8	1.49e+00	0	59	104	1425014784	61	15471
2026-01-28 22:13:57.35	143.06	5.57	-45.0	-57.6	3.8	1.49e+00	0	59	104	1425014784	61	15485
2026-01-28 22:14:00.38	143.35	5.39	-45.0	-57.6	3.8	1.49e+00	0	59	104	1425014784	61	15482
2026-01-28 22:14:03.41	143.64	5.22	-45.0	-57.6	3.8	1.49e+00	0	59	104	1425014784	61	15512
2026-01-28 22:14:06.44	143.92	5.05	-45.0	-57.6	3.8	1.49e+00	0	59	104	1425014784	61	15442
2026-01-28 22:14:09.47	144.20	4.88	-44.9	-57.6	3.8	1.49e+00	0	59	104	1425014784	61	15410
2026-01-28 22:14:12.50	144.48	4.70	-44.9	-57.6	3.8	1.49e+00	0	59	104	1425014784	61	15486
2026-01-28 22:14:15.54	144.76	4.53	-44.9	-57.6	3.8	1.49e+00	0	59	104	1425014784	61	15466
2026-01-28 22:14:18.57	145.03	4.36	-44.9	-57.6	3.8	1.49e+00	0	59	104	1425014784	61	15429
2026-01-28 22:14:21.60	145.30	4.19	-44.9	-57.6	3.8	1.49e+00	0	59	104	1425014784	61	15454
2026-01-28 22:14:24.63	145.57	4.02	-44.9	-57.5	3.8	1.49e+00	0	59	104	1425014784	61	15362
2026-01-28 22:14:27.66	145.83	3.86	-44.9	-57.5	3.8	1.49e+00	0	59	104	1425014784	61	15370
2026-01-28 22:14:30.69	146.09	3.69	-44.9	-57.6	3.8	1.49e+00	0	59	104	1425014784	61	15470
2026-01-28 22:14:33.72	146.35	3.52	-44.9	-57.5	3.8	1.49e+00	0	59	104	1425014784	61	15383
2026-01-28 22:14:36.76	146.61	3.35	-44.9	-57.5	3.8	1.49e+00	0	59	104	1425014784	61	15361
2026-01-28 22:14:39.79	146.86	3.19	-44.9	-57.5	3.8	1.49e+00	0	59	104	1425014784	61	15346
2026-01-28 22:14:42.82	147.11	3.02	-44.9	-57.5	3.8	1.49e+00	0	59	104	1425014784	61	15389
2026-01-28 22:14:45.85	147.36	2.86	-44.9	-57.5	3.8	1.49e+00	0	59	104	1425014784	61	15365
2026-01-28 22:14:48.88	147.60	2.69	-44.9	-57.5	3.8	1.49e+00	0	59	104	1425014784	61	15348
2026-01-28 22:14:51.91	147.85	2.53	-44.9	-57.5	3.8	1.49e+00	0	59	104	1425014784	61	15376
2026-01-28 22:14:54.94	148.08	2.36	-44.9	-57.5	3.8	1.49e+00	0	59	104	1425014784	61	15367
2026-01-28 22:14:57.98	148.32	2.20	-44.9	-57.5	3.8	1.49e+00	0	59	104	1425014784	61	15399
2026-01-28 22:15:01.01	148.56	2.04	-44.9	-57.5	3.8	1.49e+00	0	59	104	1425014784	61	15392
2026-01-28 22:15:04.04	148.79	1.88	-44.9	-57.5	3.8	1.49e+00	0	59	104	1425014784	61	15378

#Closed at: 2026-01-28 22:15:04
#Recorded file [1425 MB]: D:/lorett/data/31039_260129_010229.dat