passes_logs/2026/01/28/R2.0S_Moscow/R2.0S_Moscow__20260128_030818_FENGYUN_3D_rec.log

#Pass ID: 20260128_030818_FENGYUN 3D
#Satellite: FENGYUN 3D
#Configuration: FENGYUN 3D
#almurnet v.1.7.20251203
#Start time: 2026-01-28 03:08:19

#Version: 2.2.20231116
#Station: R2.0S_Moscow
#Location: 37.707566 lon 55.798166 lat
#TLE: 1 43010U 17072A   26027.47796828  .00000374  00000+0  19850-3 0  9992
#TLE: 2 43010  98.9960 359.4888 0002523  87.5419 272.6045 14.19701595425023

#Time	Az	El	Level	Level2	SNR	BER	BlckErr	Temp	State	Recorded	gain1	gain2
2026-01-28 03:08:19.33	11.60	2.06	-39.9	-51.4	3.8	8.46e-01	0	53	0	0	51	13455
2026-01-28 03:08:23.36	11.38	2.29	-39.9	-51.3	3.8	8.46e-01	0	53	104	0	51	13405
2026-01-28 03:08:27.40	11.16	2.53	-39.9	-51.4	3.8	8.46e-01	0	53	104	0	51	13435
2026-01-28 03:08:31.45	10.94	2.78	-39.9	-51.4	3.8	8.45e-01	0	54	104	0	51	13442
2026-01-28 03:08:35.49	10.71	3.02	-39.9	-51.4	3.8	8.46e-01	0	54	104	0	51	13420
2026-01-28 03:08:39.53	10.48	3.27	-39.9	-51.4	3.8	8.46e-01	0	54	104	0	51	13440
2026-01-28 03:08:43.57	10.25	3.52	-39.9	-51.4	3.8	8.46e-01	0	54	104	0	51	13420
2026-01-28 03:08:47.61	10.01	3.76	-39.9	-51.4	3.8	8.46e-01	0	55	104	0	51	13418
2026-01-28 03:08:51.65	9.77	4.02	-39.9	-51.3	3.8	8.48e-01	0	55	104	0	51	13377
2026-01-28 03:08:55.69	9.52	4.27	-39.9	-51.4	3.8	8.46e-01	0	56	104	0	51	13417
2026-01-28 03:08:59.73	9.27	4.52	-39.9	-51.4	3.8	8.47e-01	0	55	104	0	51	13420
2026-01-28 03:09:03.77	9.01	4.78	-39.9	-51.3	3.8	8.46e-01	0	56	104	0	51	13409
2026-01-28 03:09:07.81	8.75	5.04	-39.9	-51.3	3.8	8.46e-01	0	56	104	0	51	13411
2026-01-28 03:09:11.85	8.48	5.30	-39.9	-51.4	3.8	8.45e-01	0	56	104	0	51	13417
2026-01-28 03:09:15.90	8.21	5.56	-39.9	-51.3	3.8	8.45e-01	0	56	104	0	51	13387
2026-01-28 03:09:19.94	7.93	5.83	-39.9	-51.3	3.8	8.46e-01	0	56	104	0	51	13400
2026-01-28 03:09:23.98	7.65	6.09	-39.9	-51.4	3.8	8.46e-01	0	57	104	0	51	13426
2026-01-28 03:09:28.02	7.36	6.36	-39.9	-51.3	3.8	8.45e-01	0	57	104	0	51	13382
2026-01-28 03:09:32.06	7.06	6.63	-39.9	-51.3	3.8	8.46e-01	0	57	104	0	51	13371
2026-01-28 03:09:36.09	6.77	6.91	-39.9	-51.3	3.8	8.46e-01	0	57	104	0	51	13409
2026-01-28 03:09:40.13	6.46	7.18	-39.9	-51.3	3.8	8.46e-01	0	57	104	0	51	13382
2026-01-28 03:09:44.18	6.15	7.46	-39.9	-51.3	3.8	8.48e-01	0	58	104	0	51	13335
2026-01-28 03:09:48.22	5.83	7.74	-39.9	-51.3	3.8	8.47e-01	0	58	104	0	51	13357
2026-01-28 03:09:52.26	5.50	8.02	-39.9	-51.3	3.8	8.47e-01	0	58	104	0	51	13393
2026-01-28 03:09:56.30	5.17	8.30	-40.0	-51.5	3.8	8.46e-01	0	58	104	0	51	13581
2026-01-28 03:10:00.34	4.83	8.59	-40.0	-51.4	3.8	8.48e-01	0	58	104	0	51	13515
2026-01-28 03:10:04.38	4.49	8.88	-40.0	-51.5	3.8	8.46e-01	0	58	104	0	51	13603
2026-01-28 03:10:08.42	4.14	9.17	-40.1	-51.5	3.8	8.46e-01	0	58	104	0	51	13656
2026-01-28 03:10:12.47	3.78	9.46	-40.1	-51.6	3.8	8.46e-01	0	59	104	0	51	13744
2026-01-28 03:10:16.51	3.41	9.76	-40.1	-51.6	3.8	8.46e-01	0	59	104	0	51	13758
2026-01-28 03:10:20.55	3.03	10.05	-40.1	-51.5	3.8	8.46e-01	0	59	104	0	51	13701
2026-01-28 03:10:24.59	2.65	10.35	-40.1	-51.5	3.8	8.45e-01	0	59	104	0	51	13623
2026-01-28 03:10:28.63	2.26	10.66	-40.1	-51.5	3.8	8.47e-01	0	59	104	0	51	13656
2026-01-28 03:10:32.68	1.85	10.96	-40.1	-51.5	3.8	8.46e-01	0	59	104	0	51	13664
2026-01-28 03:10:36.72	1.45	11.27	-40.1	-51.5	3.8	8.46e-01	0	59	104	0	51	13673
2026-01-28 03:10:40.76	1.03	11.58	-40.0	-51.4	3.8	8.47e-01	0	59	104	0	51	13529
2026-01-28 03:10:44.80	0.60	11.89	-40.1	-51.5	3.8	8.46e-01	0	59	104	0	52	12916
2026-01-28 03:10:48.84	0.16	12.20	-40.3	-51.7	3.8	8.47e-01	0	59	104	0	52	13178
2026-01-28 03:10:52.88	359.72	12.52	-40.5	-51.7	3.8	8.46e-01	0	59	104	0	53	12392
2026-01-28 03:10:56.92	359.26	12.84	-40.9	-51.6	3.8	8.38e-01	0	59	104	0	53	12366
2026-01-28 03:11:00.96	358.79	13.16	-40.6	-45.4	7.1	2.23e-01	0	60	0	15728640	53	6026
2026-01-28 03:11:05.00	358.31	13.48	-39.5	-42.7	10.2	1.05e-02	0	60	0	38797312	51	4974
2026-01-28 03:11:09.04	357.83	13.81	-38.8	-41.5	11.7	7.66e-04	0	60	0	60817408	49	4853
2026-01-28 03:11:13.09	357.32	14.14	-38.2	-40.5	12.9	4.92e-05	0	60	0	83886080	48	4588
2026-01-28 03:11:17.13	356.81	14.47	-37.5	-39.6	13.9	1.02e-05	0	60	0	106954752	47	4341
2026-01-28 03:11:21.17	356.29	14.80	-38.5	-41.1	12.0	3.49e-04	0	60	0	128974848	47	5183
2026-01-28 03:11:25.21	355.75	15.14	-40.6	-46.0	6.4	1.90e-01	0	60	0	152043520	51	7257
2026-01-28 03:11:29.25	355.21	15.47	-40.9	-50.5	3.9	8.43e-01	0	60	104	157286400	52	11538
2026-01-28 03:11:33.29	354.64	15.81	-40.6	-52.0	3.8	8.45e-01	0	60	104	157286400	52	13615
2026-01-28 03:11:37.33	354.07	16.15	-40.6	-52.1	3.8	8.47e-01	0	60	104	157286400	52	13739
2026-01-28 03:11:41.37	353.48	16.50	-40.7	-52.2	3.8	8.46e-01	0	60	104	157286400	52	13983
2026-01-28 03:11:45.41	352.88	16.84	-40.8	-52.3	3.8	8.46e-01	0	60	104	157286400	52	14127
2026-01-28 03:11:49.45	352.26	17.19	-40.7	-52.2	3.8	8.45e-01	0	60	104	157286400	52	13931
2026-01-28 03:11:53.49	351.63	17.53	-40.9	-52.4	3.8	8.45e-01	0	60	104	157286400	52	14331
2026-01-28 03:11:57.53	350.99	17.88	-41.1	-52.6	3.8	8.46e-01	0	61	104	157286400	52	14642
2026-01-28 03:12:01.56	350.33	18.23	-40.9	-52.3	3.8	8.45e-01	0	61	104	157286400	52	14169
2026-01-28 03:12:05.60	349.65	18.58	-40.9	-52.3	3.8	8.46e-01	0	61	104	157286400	52	14177
2026-01-28 03:12:09.64	348.96	18.93	-40.9	-52.4	3.8	8.46e-01	0	61	104	157286400	52	14243
2026-01-28 03:12:13.68	348.25	19.28	-41.0	-52.4	3.8	8.46e-01	0	60	104	157286400	52	14326
2026-01-28 03:12:17.72	347.53	19.63	-40.9	-52.4	3.8	8.46e-01	0	61	104	157286400	52	14256
2026-01-28 03:12:21.76	346.78	19.98	-40.9	-52.2	3.8	8.46e-01	0	61	104	157286400	53	13259
2026-01-28 03:12:25.80	346.02	20.33	-41.1	-51.8	3.8	8.46e-01	0	61	104	157286400	53	12642
2026-01-28 03:12:29.84	345.24	20.69	-40.6	-47.6	4.8	8.05e-01	0	61	0	157286400	53	7774
2026-01-28 03:12:33.89	344.44	21.04	-40.0	-44.0	8.5	6.23e-02	0	61	0	168820736	51	5760
2026-01-28 03:12:37.92	343.63	21.38	-40.4	-46.1	5.8	6.85e-03	0	61	0	190840832	51	7371
2026-01-28 03:12:41.96	342.80	21.73	-36.2	-37.8	15.7	0.00e+00	0	61	0	212860928	44	4242
2026-01-28 03:12:46.00	341.94	22.08	-35.4	-36.8	16.9	0.00e+00	0	61	0	235929600	42	4233
2026-01-28 03:12:50.04	341.07	22.42	-35.2	-36.5	17.7	0.00e+00	0	61	0	257949696	42	4096
2026-01-28 03:12:54.09	340.17	22.76	-35.5	-36.9	17.7	0.00e+00	0	61	0	281018368	42	4285
2026-01-28 03:12:58.13	339.26	23.10	-35.3	-36.6	18.3	0.00e+00	0	61	0	304087040	42	4116
2026-01-28 03:13:02.17	338.33	23.43	-35.2	-36.5	18.5	0.00e+00	0	61	0	326107136	42	4065
2026-01-28 03:13:06.21	337.38	23.76	-35.3	-36.6	18.5	0.00e+00	0	61	0	349175808	42	4100
2026-01-28 03:13:10.25	336.40	24.09	-35.1	-36.4	18.7	0.00e+00	0	61	0	372244480	42	4013
2026-01-28 03:13:14.30	335.41	24.41	-35.1	-36.4	18.7	0.00e+00	0	61	0	395313152	42	4025
2026-01-28 03:13:18.34	334.39	24.72	-35.4	-36.7	18.4	0.00e+00	0	61	0	417333248	42	4175
2026-01-28 03:13:22.38	333.36	25.03	-35.1	-36.3	18.8	0.00e+00	0	61	0	440401920	42	4000
2026-01-28 03:13:26.42	332.30	25.33	-35.1	-36.4	18.8	0.00e+00	0	61	0	462422016	42	4025
2026-01-28 03:13:30.46	331.23	25.62	-35.1	-36.3	18.8	0.00e+00	0	61	0	485490688	42	3997
2026-01-28 03:13:34.51	330.13	25.91	-34.9	-36.2	19.0	0.00e+00	0	61	0	508559360	41	4164
2026-01-28 03:13:38.55	329.01	26.18	-35.0	-36.2	18.9	0.00e+00	0	61	0	531628032	41	4192
2026-01-28 03:13:42.59	327.88	26.45	-35.0	-36.2	18.9	0.00e+00	0	61	0	553648128	41	4184
2026-01-28 03:13:46.63	326.72	26.71	-34.9	-36.1	19.1	0.00e+00	0	61	0	576716800	41	4125
2026-01-28 03:13:50.67	325.55	26.95	-35.1	-36.4	18.8	0.00e+00	0	61	0	599785472	41	4245
2026-01-28 03:13:54.71	324.36	27.19	-34.8	-36.1	19.1	0.00e+00	0	61	0	621805568	41	4105
2026-01-28 03:13:58.76	323.15	27.41	-34.8	-36.0	19.1	0.00e+00	0	61	0	644874240	41	4098
2026-01-28 03:14:02.80	321.92	27.62	-34.8	-36.0	19.2	0.00e+00	0	61	0	667942912	41	4067
2026-01-28 03:14:06.84	320.68	27.82	-34.6	-35.8	19.4	0.00e+00	0	61	0	689963008	41	3984
2026-01-28 03:14:10.89	319.42	28.00	-34.6	-35.8	19.4	0.00e+00	0	61	0	713031680	41	3974
2026-01-28 03:14:14.93	318.15	28.17	-34.6	-35.8	19.3	0.00e+00	0	61	0	736100352	41	3992
2026-01-28 03:14:18.97	316.87	28.32	-34.3	-35.5	19.7	0.00e+00	0	61	0	758120448	40	4065
2026-01-28 03:14:23.02	315.57	28.46	-34.6	-35.8	19.4	0.00e+00	0	62	0	781189120	40	4197
2026-01-28 03:14:27.06	314.27	28.59	-34.5	-35.7	19.5	0.00e+00	0	61	0	804257792	40	4154
2026-01-28 03:14:31.10	312.95	28.69	-34.3	-35.5	19.7	0.00e+00	0	61	0	827326464	40	4059
2026-01-28 03:14:35.15	311.62	28.78	-34.4	-35.6	19.5	0.00e+00	0	61	0	849346560	40	4139
2026-01-28 03:14:39.19	310.29	28.86	-34.0	-35.2	20.0	0.00e+00	0	61	0	872415232	40	3927
2026-01-28 03:14:43.23	308.96	28.91	-34.0	-35.2	20.0	0.00e+00	0	62	0	895483904	40	3931
2026-01-28 03:14:47.27	307.62	28.95	-34.3	-35.4	19.8	0.00e+00	0	61	0	917504000	39	4291
2026-01-28 03:14:51.32	306.27	28.97	-34.4	-35.6	19.6	0.00e+00	0	61	0	940572672	39	4368
2026-01-28 03:14:55.36	304.93	28.97	-34.5	-35.6	19.6	0.00e+00	0	62	0	963641344	39	4390
2026-01-28 03:14:59.40	303.58	28.96	-34.1	-35.3	19.9	0.00e+00	0	61	0	985661440	39	4211
2026-01-28 03:15:03.45	302.24	28.93	-34.3	-35.5	19.7	0.00e+00	0	61	0	1008730112	39	4303
2026-01-28 03:15:07.49	300.90	28.88	-34.3	-35.5	19.7	0.00e+00	0	61	0	1031798784	39	4308
2026-01-28 03:15:11.53	299.57	28.81	-34.3	-35.5	19.8	0.00e+00	0	62	0	1054867456	39	4295
2026-01-28 03:15:15.57	298.24	28.73	-34.3	-35.4	19.8	0.00e+00	0	61	0	1076887552	39	4285
2026-01-28 03:15:19.61	296.92	28.63	-34.3	-35.5	19.8	0.00e+00	0	62	0	1099956224	39	4303
2026-01-28 03:15:23.65	295.61	28.51	-34.4	-35.5	19.7	0.00e+00	0	62	0	1121976320	39	4331
2026-01-28 03:15:27.69	294.30	28.38	-34.2	-35.3	19.9	0.00e+00	0	61	0	1145044992	39	4226
2026-01-28 03:15:31.73	293.01	28.23	-34.3	-35.4	19.8	0.00e+00	0	62	0	1168113664	39	4278
2026-01-28 03:15:35.77	291.74	28.07	-34.4	-35.5	19.7	0.00e+00	0	62	0	1190133760	39	4329
2026-01-28 03:15:39.81	290.47	27.89	-34.5	-35.6	19.6	0.00e+00	0	61	0	1213202432	39	4388
2026-01-28 03:15:43.85	289.22	27.70	-34.2	-35.4	19.8	0.00e+00	0	62	0	1236271104	39	4257
2026-01-28 03:15:47.89	287.99	27.49	-34.3	-35.4	19.8	0.00e+00	0	61	0	1259339776	39	4289
2026-01-28 03:15:51.93	286.77	27.28	-34.4	-35.6	19.6	0.00e+00	0	62	0	1281359872	39	4376
2026-01-28 03:15:55.97	285.57	27.04	-34.6	-35.8	19.4	0.00e+00	0	61	0	1304428544	39	4464
2026-01-28 03:16:00.01	284.39	26.80	-34.5	-35.7	19.5	0.00e+00	0	61	0	1326448640	39	4433
2026-01-28 03:16:04.06	283.22	26.55	-34.4	-35.6	19.6	0.00e+00	0	62	0	1349517312	39	4361
2026-01-28 03:16:08.10	282.07	26.29	-34.5	-35.7	19.6	0.00e+00	0	62	0	1372585984	39	4397
2026-01-28 03:16:12.14	280.95	26.01	-34.5	-35.6	19.5	0.00e+00	0	62	0	1395654656	39	4383
2026-01-28 03:16:16.18	279.84	25.73	-34.5	-35.7	19.5	0.00e+00	0	62	0	1417674752	39	4414
2026-01-28 03:16:20.23	278.75	25.44	-34.7	-35.9	19.2	0.00e+00	0	62	0	1440743424	40	4290
2026-01-28 03:16:24.27	277.68	25.14	-34.9	-36.2	18.9	0.00e+00	0	62	0	1463812096	40	4392
2026-01-28 03:16:28.31	276.64	24.83	-34.7	-35.9	19.2	0.00e+00	0	61	0	1485832192	40	4271
2026-01-28 03:16:32.35	275.61	24.52	-34.6	-35.9	19.2	0.00e+00	0	62	0	1508900864	40	4247
2026-01-28 03:16:36.40	274.60	24.20	-34.7	-35.9	19.2	0.00e+00	0	62	0	1531969536	40	4263
2026-01-28 03:16:40.44	273.62	23.88	-34.5	-35.7	19.4	0.00e+00	0	62	0	1553989632	40	4162
2026-01-28 03:16:44.48	272.65	23.55	-34.7	-35.9	19.2	0.00e+00	0	62	0	1577058304	40	4280
2026-01-28 03:16:48.52	271.71	23.22	-34.6	-35.8	19.3	0.00e+00	0	62	0	1600126976	40	4215
2026-01-28 03:16:52.57	270.78	22.88	-34.9	-36.1	18.9	0.00e+00	0	62	0	1622147072	40	4390
2026-01-28 03:16:56.61	269.88	22.54	-34.9	-36.2	18.9	0.00e+00	0	62	0	1645215744	40	4421
2026-01-28 03:17:00.65	268.99	22.19	-35.0	-36.2	18.8	0.00e+00	0	62	0	1668284416	40	4429
2026-01-28 03:17:04.70	268.12	21.85	-35.3	-36.6	18.5	0.00e+00	0	62	0	1691353088	41	4353
2026-01-28 03:17:08.74	267.28	21.50	-35.3	-36.6	18.4	0.00e+00	0	62	0	1713373184	41	4380
2026-01-28 03:17:12.78	266.45	21.15	-35.4	-36.8	18.3	0.00e+00	0	62	0	1736441856	41	4442
2026-01-28 03:17:16.82	265.64	20.80	-35.4	-36.7	18.3	0.00e+00	0	62	0	1758461952	41	4419
2026-01-28 03:17:20.87	264.85	20.45	-35.4	-36.7	18.3	0.00e+00	0	62	0	1781530624	41	4421
2026-01-28 03:17:24.91	264.08	20.09	-35.5	-36.8	18.2	0.00e+00	0	62	0	1804599296	41	4474
2026-01-28 03:17:28.94	263.33	19.74	-35.6	-37.0	18.1	0.00e+00	0	62	0	1827667968	41	4549
2026-01-28 03:17:32.99	262.59	19.39	-35.6	-36.9	18.1	0.00e+00	0	62	0	1849688064	41	4531
2026-01-28 03:17:37.03	261.87	19.04	-35.3	-36.6	18.4	0.00e+00	0	62	0	1872756736	41	4357
2026-01-28 03:17:41.07	261.17	18.68	-35.6	-36.9	18.1	0.00e+00	0	62	0	1895825408	41	4537
2026-01-28 03:17:45.11	260.48	18.33	-35.9	-37.2	17.8	0.00e+00	0	62	0	1917845504	42	4438
2026-01-28 03:17:49.16	259.81	17.98	-35.9	-37.3	17.7	0.00e+00	0	62	0	1940914176	42	4458
2026-01-28 03:17:53.20	259.15	17.63	-36.1	-37.6	17.4	0.00e+00	0	62	0	1963982848	42	4617
2026-01-28 03:17:57.24	258.51	17.28	-36.2	-37.7	17.3	0.00e+00	0	62	0	1986002944	43	4409
2026-01-28 03:18:01.29	257.88	16.93	-36.2	-37.6	17.3	0.00e+00	0	62	0	2009071616	43	4361
2026-01-28 03:18:05.33	257.27	16.59	-36.2	-37.7	17.2	0.00e+00	0	62	0	2032140288	43	4410
2026-01-28 03:18:09.37	256.68	16.24	-36.4	-37.8	17.1	0.00e+00	0	62	0	2054160384	43	4483
2026-01-28 03:18:13.42	256.09	15.90	-36.4	-37.9	17.0	0.00e+00	0	62	0	2077229056	43	4507
2026-01-28 03:18:17.46	255.52	15.56	-36.5	-38.1	16.9	0.00e+00	0	62	0	2100297728	43	4599
2026-01-28 03:18:21.50	254.96	15.22	-36.6	-38.2	16.7	0.00e+00	0	62	0	2123366400	43	4665
2026-01-28 03:18:25.55	254.42	14.88	-36.6	-38.1	16.7	0.00e+00	0	62	0	2145386496	43	4637
2026-01-28 03:18:29.59	253.89	14.55	-37.0	-38.5	16.5	0.00e+00	0	62	0	2168455168	44	4592
2026-01-28 03:18:33.63	253.37	14.21	-37.1	-38.7	16.3	0.00e+00	0	62	0	2191523840	44	4689
2026-01-28 03:18:37.68	252.86	13.88	-37.1	-38.7	16.3	0.00e+00	0	62	0	2213543936	44	4691
2026-01-28 03:18:41.72	252.36	13.56	-37.1	-38.7	16.3	0.00e+00	0	62	0	2236612608	44	4691
2026-01-28 03:18:45.76	251.87	13.23	-37.2	-38.8	16.2	0.00e+00	0	62	0	2259681280	44	4742
2026-01-28 03:18:49.80	251.40	12.91	-37.2	-38.8	16.2	0.00e+00	0	62	0	2281701376	45	4458
2026-01-28 03:18:53.85	250.93	12.58	-37.2	-38.8	16.1	0.00e+00	0	62	0	2304770048	45	4489
2026-01-28 03:18:57.89	250.48	12.27	-37.5	-39.2	15.8	0.00e+00	0	62	0	2327838720	45	4668
2026-01-28 03:19:01.93	250.03	11.95	-37.5	-39.2	15.7	0.00e+00	0	62	0	2349858816	45	4692
2026-01-28 03:19:05.98	249.60	11.63	-37.6	-39.4	15.5	0.00e+00	0	62	0	2372927488	45	4779
2026-01-28 03:19:10.02	249.17	11.32	-37.7	-39.5	15.4	0.00e+00	0	62	0	2395996160	46	4574
2026-01-28 03:19:14.05	248.76	11.01	-37.7	-39.5	15.4	0.00e+00	0	62	0	2418016256	46	4561
2026-01-28 03:19:18.10	248.35	10.71	-37.7	-39.5	15.3	0.00e+00	0	62	0	2441084928	46	4577
2026-01-28 03:19:22.14	247.95	10.40	-37.9	-39.7	15.1	0.00e+00	0	62	0	2464153600	46	4696
2026-01-28 03:19:26.18	247.56	10.10	-38.0	-39.9	14.9	0.00e+00	0	62	0	2487222272	46	4782
2026-01-28 03:19:30.22	247.18	9.80	-38.1	-40.1	14.7	1.10e-06	0	62	0	2509242368	46	4876
2026-01-28 03:19:34.26	246.80	9.50	-38.1	-40.0	14.7	0.00e+00	0	62	0	2532311040	46	4849
2026-01-28 03:19:38.30	246.43	9.21	-38.2	-40.1	14.6	1.10e-06	0	62	0	2554331136	46	4910
2026-01-28 03:19:42.34	246.07	8.92	-38.2	-40.2	14.5	1.10e-06	0	62	0	2577399808	47	4673
2026-01-28 03:19:46.39	245.72	8.63	-38.4	-40.4	14.3	0.00e+00	0	62	0	2600468480	47	4769
2026-01-28 03:19:50.43	245.38	8.34	-38.4	-40.5	14.2	2.20e-06	0	62	0	2623537152	47	4824
2026-01-28 03:19:54.47	245.04	8.05	-38.3	-40.4	14.2	0.00e+00	0	62	0	2645557248	47	4771
2026-01-28 03:19:58.51	244.71	7.77	-45.0	-56.9	3.8	8.45e-01	0	62	104	2652897280	60	15074
2026-01-28 03:20:02.56	244.38	7.49	-45.2	-57.1	3.8	8.46e-01	0	62	104	2652897280	60	15553
2026-01-28 03:20:06.60	244.06	7.21	-45.2	-57.2	3.8	8.47e-01	0	62	104	2652897280	61	14732
2026-01-28 03:20:10.64	243.75	6.93	-45.2	-57.1	3.8	8.47e-01	0	62	104	2652897280	61	14631
2026-01-28 03:20:14.68	243.44	6.66	-45.1	-57.0	3.8	8.46e-01	0	62	104	2652897280	61	14487
2026-01-28 03:20:18.73	243.14	6.39	-45.1	-57.0	3.8	8.47e-01	0	62	104	2652897280	61	14504
2026-01-28 03:20:22.77	242.85	6.12	-45.1	-57.0	3.8	8.46e-01	0	62	104	2652897280	61	14505
2026-01-28 03:20:26.81	242.56	5.85	-45.1	-57.0	3.8	8.45e-01	0	62	104	2652897280	61	14514
2026-01-28 03:20:30.86	242.27	5.58	-45.1	-57.0	3.8	8.46e-01	0	62	104	2652897280	61	14454
2026-01-28 03:20:34.90	242.00	5.32	-45.1	-57.0	3.8	8.46e-01	0	62	104	2652897280	61	14525
2026-01-28 03:20:38.94	241.72	5.06	-45.1	-57.0	3.8	8.47e-01	0	62	104	2652897280	61	14498
2026-01-28 03:20:42.98	241.45	4.80	-45.1	-57.0	3.8	8.46e-01	0	62	104	2652897280	61	14483
2026-01-28 03:20:47.02	241.19	4.54	-45.1	-57.0	3.8	8.45e-01	0	62	104	2652897280	61	14500
2026-01-28 03:20:51.06	240.93	4.28	-45.1	-57.0	3.8	8.47e-01	0	62	104	2652897280	61	14484
2026-01-28 03:20:55.11	240.68	4.03	-45.1	-57.0	3.8	8.44e-01	0	62	104	2652897280	61	14415
2026-01-28 03:20:59.15	240.43	3.78	-45.1	-57.0	3.8	8.46e-01	0	62	104	2652897280	61	14439
2026-01-28 03:21:03.19	240.18	3.53	-45.1	-57.0	3.8	8.46e-01	0	62	104	2652897280	61	14420
2026-01-28 03:21:07.23	239.94	3.28	-45.1	-57.0	3.8	8.47e-01	0	62	104	2652897280	61	14437
2026-01-28 03:21:11.27	239.71	3.03	-45.1	-57.0	3.8	8.46e-01	0	62	104	2652897280	61	14466
2026-01-28 03:21:15.32	239.47	2.78	-45.1	-57.0	3.8	8.46e-01	0	62	104	2652897280	61	14436
2026-01-28 03:21:19.36	239.24	2.54	-45.1	-57.0	3.8	8.46e-01	0	62	104	2652897280	61	14458
2026-01-28 03:21:23.40	239.02	2.30	-45.1	-57.0	3.8	8.46e-01	0	62	104	2652897280	61	14473
2026-01-28 03:21:27.44	238.80	2.06	-45.1	-57.0	3.8	8.46e-01	0	62	104	2652897280	61	14420

#Closed at: 2026-01-28 03:21:30
#Recorded file [2652 MB]: D:/lorett/data/31039_260128_060819.dat