passes_logs/2026/01/28/R2.0S_Moscow/R2.0S_Moscow__20260128_012750_FENGYUN_3D_rec.log

#Pass ID: 20260128_012750_FENGYUN 3D
#Satellite: FENGYUN 3D
#Configuration: FENGYUN 3D
#almurnet v.1.7.20251203
#Start time: 2026-01-28 01:27:50

#Version: 2.2.20231116
#Station: R2.0S_Moscow
#Location: 37.707566 lon 55.798166 lat
#TLE: 1 43010U 17072A   26027.47796828  .00000374  00000+0  19850-3 0  9992
#TLE: 2 43010  98.9960 359.4888 0002523  87.5419 272.6045 14.19701595425023

#Time	Az	El	Level	Level2	SNR	BER	BlckErr	Temp	State	Recorded	gain1	gain2
2026-01-28 01:27:50.79	18.07	2.01	-42.1	-53.6	3.8	8.45e-01	0	52	0	0	56	13064
2026-01-28 01:27:54.84	18.14	2.27	-41.9	-53.5	3.8	8.47e-01	0	53	104	0	55	13571
2026-01-28 01:27:58.88	18.22	2.53	-41.9	-53.5	3.8	8.47e-01	0	53	104	0	55	13574
2026-01-28 01:28:02.92	18.29	2.79	-42.0	-53.5	3.8	8.47e-01	0	54	104	0	55	13572
2026-01-28 01:28:06.96	18.37	3.05	-41.9	-53.4	3.8	8.47e-01	0	54	104	0	55	13509
2026-01-28 01:28:11.00	18.45	3.32	-41.9	-53.4	3.8	8.46e-01	0	54	104	0	55	13525
2026-01-28 01:28:15.04	18.52	3.59	-41.9	-53.4	3.8	8.46e-01	0	54	104	0	55	13505
2026-01-28 01:28:19.08	18.60	3.86	-41.9	-53.4	3.8	8.45e-01	0	55	104	0	55	13564
2026-01-28 01:28:23.13	18.68	4.14	-41.9	-53.4	3.8	8.47e-01	0	55	104	0	55	13553
2026-01-28 01:28:27.16	18.77	4.41	-41.9	-53.4	3.8	8.46e-01	0	55	104	0	55	13504
2026-01-28 01:28:31.20	18.85	4.69	-41.9	-53.4	3.8	8.46e-01	0	55	104	0	55	13484
2026-01-28 01:28:35.24	18.93	4.98	-41.9	-53.4	3.8	8.47e-01	0	56	104	0	55	13498
2026-01-28 01:28:39.29	19.02	5.26	-41.9	-53.4	3.8	8.46e-01	0	56	104	0	55	13498
2026-01-28 01:28:43.33	19.11	5.55	-41.9	-53.4	3.8	8.47e-01	0	56	104	0	55	13523
2026-01-28 01:28:47.37	19.19	5.84	-41.9	-53.4	3.8	8.46e-01	0	56	104	0	55	13530
2026-01-28 01:28:51.41	19.28	6.14	-41.9	-53.4	3.8	8.45e-01	0	57	104	0	55	13467
2026-01-28 01:28:55.45	19.37	6.44	-41.9	-53.4	3.8	8.46e-01	0	57	104	0	55	13442
2026-01-28 01:28:59.49	19.47	6.74	-41.9	-53.4	3.8	8.46e-01	0	57	104	0	55	13435
2026-01-28 01:29:03.54	19.56	7.05	-41.9	-53.3	3.8	8.48e-01	0	57	104	0	55	13308
2026-01-28 01:29:07.58	19.66	7.36	-41.9	-52.8	3.8	8.46e-01	0	57	104	0	55	12614
2026-01-28 01:29:11.62	19.75	7.67	-41.7	-51.6	3.8	8.46e-01	0	57	104	0	55	11021
2026-01-28 01:29:15.66	19.85	7.99	-41.4	-49.6	4.2	8.35e-01	0	57	0	0	54	9260
2026-01-28 01:29:19.70	19.95	8.31	-41.7	-46.4	7.4	4.85e-02	0	58	0	5242880	53	6777
2026-01-28 01:29:23.74	20.06	8.63	-37.7	-39.8	13.8	8.00e-06	0	58	0	27262976	47	4472
2026-01-28 01:29:27.79	20.16	8.96	-38.4	-40.8	12.9	4.92e-05	0	58	0	49283072	47	5011
2026-01-28 01:29:31.83	20.27	9.30	-38.4	-40.6	13.2	3.66e-05	0	58	0	72351744	47	4925
2026-01-28 01:29:35.87	20.38	9.64	-38.2	-40.4	13.7	6.80e-06	0	58	0	95420416	47	4774
2026-01-28 01:29:39.92	20.49	9.98	-38.5	-40.7	13.5	2.28e-05	0	58	0	117440512	47	4967
2026-01-28 01:29:43.96	20.60	10.33	-38.4	-40.4	14.0	5.70e-06	0	58	0	140509184	47	4814
2026-01-28 01:29:48.00	20.72	10.68	-38.1	-40.1	14.4	1.10e-06	0	59	0	163577856	47	4633
2026-01-28 01:29:52.05	20.84	11.04	-38.3	-40.4	14.2	6.80e-06	0	59	0	186646528	47	4761
2026-01-28 01:29:56.09	20.96	11.40	-38.1	-40.0	14.7	0.00e+00	0	58	0	208666624	47	4574
2026-01-28 01:30:00.13	21.08	11.77	-37.9	-39.7	15.0	0.00e+00	0	59	0	231735296	47	4424
2026-01-28 01:30:04.18	21.20	12.15	-37.9	-39.7	15.1	1.10e-06	0	59	0	253755392	47	4415
2026-01-28 01:30:08.22	21.33	12.53	-37.8	-39.6	15.2	0.00e+00	0	59	0	276824064	47	4378
2026-01-28 01:30:12.26	21.46	12.91	-37.9	-39.7	15.2	0.00e+00	0	59	0	299892736	47	4415
2026-01-28 01:30:16.30	21.60	13.30	-37.8	-39.6	15.3	0.00e+00	0	59	0	322961408	47	4382
2026-01-28 01:30:20.34	21.74	13.70	-37.8	-39.6	15.3	1.10e-06	0	59	0	344981504	47	4391
2026-01-28 01:30:24.38	21.88	14.11	-37.7	-39.5	15.5	0.00e+00	0	59	0	368050176	47	4307
2026-01-28 01:30:28.43	22.02	14.52	-37.7	-39.5	15.4	0.00e+00	0	60	0	391118848	47	4316
2026-01-28 01:30:32.47	22.17	14.94	-37.5	-39.2	15.7	0.00e+00	0	59	0	413138944	47	4182
2026-01-28 01:30:36.51	22.32	15.36	-37.4	-39.0	16.0	0.00e+00	0	60	0	436207616	46	4327
2026-01-28 01:30:40.54	22.48	15.80	-37.1	-38.7	16.4	0.00e+00	0	60	0	459276288	46	4163
2026-01-28 01:30:44.58	22.64	16.24	-37.1	-38.7	16.4	0.00e+00	0	60	0	481296384	46	4172
2026-01-28 01:30:48.62	22.80	16.68	-36.9	-38.4	16.7	0.00e+00	0	60	0	504365056	45	4284
2026-01-28 01:30:52.66	22.97	17.14	-36.9	-38.4	16.7	0.00e+00	0	60	0	527433728	45	4262
2026-01-28 01:30:56.71	23.15	17.61	-36.7	-38.2	17.0	0.00e+00	0	60	0	549453824	45	4160
2026-01-28 01:31:00.75	23.32	18.08	-36.6	-38.0	17.1	0.00e+00	0	60	0	572522496	45	4085
2026-01-28 01:31:04.79	23.51	18.57	-36.6	-38.0	17.2	0.00e+00	0	60	0	595591168	45	4082
2026-01-28 01:31:08.83	23.70	19.06	-36.5	-38.0	17.2	0.00e+00	0	60	0	617611264	45	4074
2026-01-28 01:31:12.87	23.89	19.56	-36.3	-37.8	17.5	0.00e+00	0	60	0	640679936	44	4199
2026-01-28 01:31:16.92	24.09	20.08	-36.2	-37.6	17.7	0.00e+00	0	60	0	663748608	44	4105
2026-01-28 01:31:20.96	24.30	20.60	-36.1	-37.5	17.8	0.00e+00	0	61	0	685768704	44	4074
2026-01-28 01:31:24.99	24.51	21.13	-36.0	-37.3	18.0	0.00e+00	0	60	0	708837376	44	4000
2026-01-28 01:31:29.03	24.73	21.68	-35.7	-37.0	18.1	0.00e+00	0	60	0	731906048	43	4079
2026-01-28 01:31:33.07	24.96	22.24	-35.7	-37.0	18.1	0.00e+00	0	60	0	753926144	43	4093
2026-01-28 01:31:37.11	25.20	22.81	-35.5	-36.8	18.4	0.00e+00	0	60	0	776994816	43	3983
2026-01-28 01:31:41.15	25.44	23.39	-35.5	-36.8	18.4	0.00e+00	0	61	0	800063488	42	4202
2026-01-28 01:31:45.19	25.69	23.98	-35.4	-36.6	18.6	0.00e+00	0	61	0	822083584	42	4142
2026-01-28 01:31:49.23	25.96	24.59	-35.3	-36.6	18.6	0.00e+00	0	61	0	845152256	42	4137
2026-01-28 01:31:53.27	26.23	25.21	-35.2	-36.4	18.8	0.00e+00	0	60	0	868220928	42	4042
2026-01-28 01:31:57.31	26.51	25.85	-35.2	-36.5	18.8	0.00e+00	0	61	0	890241024	42	4070
2026-01-28 01:32:01.35	26.80	26.50	-35.0	-36.3	19.0	0.00e+00	0	61	0	913309696	42	3968
2026-01-28 01:32:05.39	27.11	27.17	-35.1	-36.4	18.9	0.00e+00	0	61	0	936378368	41	4259
2026-01-28 01:32:09.43	27.43	27.85	-35.1	-36.4	18.9	0.00e+00	0	61	0	958398464	41	4267
2026-01-28 01:32:13.48	27.76	28.55	-34.9	-36.2	19.1	0.00e+00	0	61	0	981467136	41	4154
2026-01-28 01:32:17.52	28.10	29.27	-35.0	-36.3	19.0	0.00e+00	0	61	0	1004535808	41	4205
2026-01-28 01:32:21.56	28.46	30.00	-35.2	-36.5	18.8	0.00e+00	0	61	0	1027604480	41	4297
2026-01-28 01:32:25.60	28.84	30.76	-35.0	-36.2	19.1	0.00e+00	0	61	0	1049624576	41	4173
2026-01-28 01:32:29.65	29.24	31.53	-34.7	-35.9	19.4	0.00e+00	0	61	0	1072693248	41	4022
2026-01-28 01:32:33.69	29.65	32.32	-35.0	-36.2	19.1	0.00e+00	0	61	0	1094713344	41	4187
2026-01-28 01:32:37.72	30.08	33.13	-34.9	-36.1	19.2	0.00e+00	0	61	0	1117782016	41	4138
2026-01-28 01:32:41.77	30.54	33.96	-34.6	-35.8	19.6	0.00e+00	0	61	0	1140850688	41	3967
2026-01-28 01:32:45.81	31.01	34.81	-34.6	-35.7	19.6	0.00e+00	0	61	0	1163919360	40	4187
2026-01-28 01:32:49.85	31.52	35.69	-34.6	-35.8	19.5	0.00e+00	0	61	0	1185939456	40	4232
2026-01-28 01:32:53.89	32.05	36.58	-34.4	-35.6	19.7	0.00e+00	0	61	0	1209008128	40	4126
2026-01-28 01:32:57.94	32.61	37.51	-34.4	-35.6	19.8	0.00e+00	0	61	0	1232076800	40	4119
2026-01-28 01:33:01.98	33.20	38.45	-34.3	-35.4	20.0	0.00e+00	0	61	0	1254096896	40	4035
2026-01-28 01:33:06.02	33.82	39.41	-34.8	-36.1	18.9	0.00e+00	0	61	0	1277165568	40	4370
2026-01-28 01:33:10.07	34.49	40.41	-34.8	-36.0	19.0	0.00e+00	0	61	0	1300234240	40	4339
2026-01-28 01:33:14.10	35.19	41.42	-34.8	-36.2	18.9	0.00e+00	0	61	0	1322254336	40	4399
2026-01-28 01:33:18.15	35.94	42.46	-35.0	-36.3	18.8	0.00e+00	0	61	0	1345323008	40	4473
2026-01-28 01:33:22.19	36.74	43.52	-34.7	-36.0	19.1	0.00e+00	0	61	0	1368391680	40	4323
2026-01-28 01:33:26.23	37.60	44.60	-35.2	-36.6	18.5	0.00e+00	0	61	0	1390411776	40	4620
2026-01-28 01:33:30.28	38.51	45.72	-35.5	-36.9	18.3	0.00e+00	0	62	0	1413480448	41	4516
2026-01-28 01:33:34.32	39.49	46.85	-35.2	-36.6	18.7	0.00e+00	0	62	0	1436549120	41	4347
2026-01-28 01:33:38.36	40.55	48.00	-34.9	-36.2	19.0	0.00e+00	0	62	0	1458569216	41	4187
2026-01-28 01:33:42.40	41.68	49.18	-35.1	-36.5	18.8	0.00e+00	0	61	0	1481637888	41	4298
2026-01-28 01:33:46.44	42.91	50.37	-35.1	-36.4	18.8	0.00e+00	0	61	0	1504706560	41	4262
2026-01-28 01:33:50.49	44.24	51.59	-35.4	-36.8	18.5	0.00e+00	0	61	0	1526726656	41	4467
2026-01-28 01:33:54.53	45.67	52.81	-35.9	-37.3	18.1	0.00e+00	0	61	0	1549795328	42	4457
2026-01-28 01:33:58.57	47.23	54.05	-36.0	-37.4	17.9	0.00e+00	0	62	0	1572864000	42	4521
2026-01-28 01:34:02.61	48.93	55.29	-35.7	-37.1	18.2	0.00e+00	0	61	0	1595932672	42	4352
2026-01-28 01:34:06.66	50.79	56.54	-35.7	-37.1	18.2	0.00e+00	0	62	0	1617952768	42	4377
2026-01-28 01:34:10.69	52.82	57.78	-35.8	-37.3	18.0	0.00e+00	0	62	0	1641021440	42	4449
2026-01-28 01:34:14.74	55.05	59.02	-35.6	-37.0	18.3	0.00e+00	0	61	0	1663041536	42	4330
2026-01-28 01:34:18.78	57.49	60.23	-35.3	-36.7	18.6	0.00e+00	0	62	0	1686110208	42	4147
2026-01-28 01:34:22.82	60.17	61.42	-34.8	-36.2	19.0	0.00e+00	0	62	0	1709178880	41	4151
2026-01-28 01:34:26.87	63.12	62.58	-34.6	-35.9	19.3	0.00e+00	0	62	0	1732247552	40	4259
2026-01-28 01:34:30.90	66.34	63.67	-34.5	-35.8	19.4	0.00e+00	0	62	0	1754267648	40	4219
2026-01-28 01:34:34.94	69.88	64.71	-34.7	-36.0	19.2	0.00e+00	0	62	0	1777336320	40	4323
2026-01-28 01:34:38.98	73.74	65.66	-34.4	-35.6	19.5	0.00e+00	0	61	0	1800404992	40	4142
2026-01-28 01:34:43.03	77.94	66.52	-34.4	-35.6	19.5	0.00e+00	0	62	0	1822425088	40	4144
2026-01-28 01:34:47.07	82.46	67.27	-34.0	-35.2	19.8	0.00e+00	0	61	0	1845493760	40	3952
2026-01-28 01:34:51.12	87.29	67.88	-34.6	-35.9	19.3	0.00e+00	0	61	0	1868562432	40	4250
2026-01-28 01:34:55.15	92.36	68.34	-34.2	-35.4	19.8	0.00e+00	0	62	0	1890582528	39	4272
2026-01-28 01:34:59.20	97.65	68.64	-34.2	-35.4	19.7	0.00e+00	0	61	0	1913651200	39	4280
2026-01-28 01:35:03.24	103.05	68.77	-34.0	-35.2	19.8	0.00e+00	0	62	0	1936719872	39	4192
2026-01-28 01:35:07.28	108.47	68.73	-34.0	-35.2	19.9	0.00e+00	0	62	0	1958739968	39	4185
2026-01-28 01:35:11.33	113.84	68.51	-34.1	-35.3	19.8	0.00e+00	0	62	0	1981808640	39	4240
2026-01-28 01:35:15.37	119.03	68.13	-33.9	-35.1	19.9	0.00e+00	0	62	0	2004877312	39	4132
2026-01-28 01:35:19.41	123.99	67.59	-33.9	-35.1	19.9	0.00e+00	0	62	0	2027945984	39	4138
2026-01-28 01:35:23.45	128.67	66.91	-34.2	-35.4	19.7	0.00e+00	0	62	0	2049966080	39	4276
2026-01-28 01:35:27.50	133.04	66.11	-34.2	-35.4	19.7	0.00e+00	0	62	0	2073034752	39	4277
2026-01-28 01:35:31.54	137.07	65.20	-34.3	-35.6	19.5	0.00e+00	0	62	0	2095054848	39	4372
2026-01-28 01:35:35.58	140.78	64.20	-34.3	-35.5	19.6	0.00e+00	0	62	0	2118123520	39	4339
2026-01-28 01:35:39.62	144.16	63.13	-34.3	-35.5	19.7	0.00e+00	0	62	0	2141192192	39	4309
2026-01-28 01:35:43.66	147.25	62.00	-34.7	-36.0	19.2	0.00e+00	0	62	0	2164260864	40	4310
2026-01-28 01:35:47.70	150.07	60.82	-34.6	-35.9	19.2	0.00e+00	0	62	0	2186280960	40	4281
2026-01-28 01:35:51.75	152.63	59.61	-35.1	-36.4	18.8	0.00e+00	0	62	0	2209349632	40	4516
2026-01-28 01:35:55.78	154.96	58.39	-35.0	-36.2	19.0	0.00e+00	0	62	0	2232418304	40	4440
2026-01-28 01:35:59.82	157.09	57.14	-35.4	-36.8	18.5	0.00e+00	0	62	0	2254438400	41	4453
2026-01-28 01:36:03.84	159.02	55.90	-35.6	-37.0	18.3	0.00e+00	0	62	0	2277507072	41	4552
2026-01-28 01:36:07.87	160.80	54.65	-35.7	-37.1	18.2	0.00e+00	0	62	0	2299527168	42	4355
2026-01-28 01:36:11.91	162.43	53.41	-35.7	-37.2	18.1	0.00e+00	0	62	0	2322595840	42	4397
2026-01-28 01:36:15.96	163.93	52.17	-35.4	-36.7	18.5	0.00e+00	0	62	0	2345664512	42	4178
2026-01-28 01:36:20.00	165.31	50.94	-35.4	-36.8	18.5	0.00e+00	0	62	0	2368733184	42	4199
2026-01-28 01:36:24.04	166.59	49.73	-35.2	-36.5	18.8	0.00e+00	0	62	0	2390753280	42	4092
2026-01-28 01:36:28.08	167.77	48.55	-34.9	-36.2	19.1	0.00e+00	0	62	0	2413821952	41	4156
2026-01-28 01:36:32.11	168.86	47.38	-34.9	-36.2	18.9	0.00e+00	0	62	0	2436890624	41	4186
2026-01-28 01:36:36.15	169.88	46.23	-35.1	-36.5	18.7	0.00e+00	0	62	0	2458910720	41	4299
2026-01-28 01:36:40.19	170.82	45.11	-34.7	-36.0	19.1	0.00e+00	0	62	0	2481979392	41	4075
2026-01-28 01:36:44.23	171.71	44.00	-34.7	-36.0	19.1	0.00e+00	0	62	0	2503999488	41	4082
2026-01-28 01:36:48.27	172.54	42.92	-34.3	-35.6	19.5	0.00e+00	0	62	0	2527068160	40	4102
2026-01-28 01:36:52.32	173.31	41.87	-34.4	-35.6	19.4	0.00e+00	0	62	0	2550136832	40	4141
2026-01-28 01:36:56.36	174.04	40.84	-34.3	-35.6	19.4	0.00e+00	0	62	0	2573205504	40	4122
2026-01-28 01:37:00.40	174.72	39.83	-34.5	-35.8	19.3	0.00e+00	0	62	0	2595225600	40	4201
2026-01-28 01:37:04.44	175.37	38.85	-34.4	-35.7	19.3	0.00e+00	0	62	0	2618294272	40	4180
2026-01-28 01:37:08.48	175.97	37.89	-34.4	-35.7	19.4	0.00e+00	0	62	0	2641362944	40	4149
2026-01-28 01:37:12.52	176.55	36.96	-34.4	-35.7	19.3	0.00e+00	0	62	0	2663383040	40	4161
2026-01-28 01:37:16.57	177.09	36.04	-34.2	-35.5	19.4	0.00e+00	0	62	0	2686451712	40	4068
2026-01-28 01:37:20.61	177.61	35.15	-34.3	-35.6	19.3	0.00e+00	0	62	0	2709520384	40	4105
2026-01-28 01:37:24.65	178.10	34.29	-34.5	-35.8	19.1	0.00e+00	0	62	0	2731540480	40	4221
2026-01-28 01:37:28.70	178.56	33.44	-34.5	-35.9	19.1	0.00e+00	0	62	0	2754609152	40	4245
2026-01-28 01:37:32.74	179.01	32.61	-34.7	-36.0	18.9	0.00e+00	0	62	0	2777677824	40	4326
2026-01-28 01:37:36.79	179.43	31.81	-34.9	-36.3	18.6	0.00e+00	0	62	0	2799697920	40	4460
2026-01-28 01:37:40.83	179.83	31.02	-34.9	-36.3	18.6	0.00e+00	0	62	0	2822766592	40	4464
2026-01-28 01:37:44.87	180.21	30.26	-34.8	-36.1	18.7	0.00e+00	0	62	0	2845835264	40	4390
2026-01-28 01:37:48.91	180.58	29.51	-34.5	-35.9	19.0	0.00e+00	0	62	0	2868903936	40	4248
2026-01-28 01:37:52.95	180.93	28.78	-34.6	-35.9	18.9	0.00e+00	0	62	0	2890924032	40	4276
2026-01-28 01:37:56.99	181.27	28.07	-34.6	-35.9	18.9	0.00e+00	0	62	0	2913992704	40	4282
2026-01-28 01:38:01.03	181.59	27.38	-34.6	-35.9	18.9	0.00e+00	0	62	0	2936012800	40	4269
2026-01-28 01:38:05.07	181.90	26.70	-34.6	-36.0	18.8	0.00e+00	0	62	0	2959081472	40	4319
2026-01-28 01:38:09.11	182.20	26.04	-34.8	-36.2	18.7	0.00e+00	0	62	0	2982150144	40	4408
2026-01-28 01:38:13.15	182.48	25.39	-35.0	-36.4	18.4	0.00e+00	0	62	0	3005218816	40	4543
2026-01-28 01:38:17.20	182.76	24.76	-35.2	-36.6	18.2	0.00e+00	0	62	0	3027238912	40	4631
2026-01-28 01:38:21.24	183.02	24.14	-35.3	-36.7	18.1	0.00e+00	0	62	0	3050307584	41	4424
2026-01-28 01:38:25.27	183.28	23.54	-35.2	-36.6	18.2	0.00e+00	0	62	0	3073376256	41	4384
2026-01-28 01:38:29.31	183.52	22.95	-35.2	-36.6	18.2	0.00e+00	0	62	0	3095396352	41	4362
2026-01-28 01:38:33.35	183.76	22.37	-35.2	-36.6	18.2	0.00e+00	0	62	0	3118465024	41	4380
2026-01-28 01:38:37.39	183.99	21.81	-35.3	-36.7	18.1	0.00e+00	0	62	0	3141533696	41	4433
2026-01-28 01:38:41.43	184.21	21.25	-35.4	-36.9	17.9	0.00e+00	0	62	0	3163553792	41	4505
2026-01-28 01:38:45.48	184.43	20.71	-35.5	-37.0	17.8	0.00e+00	0	62	0	3186622464	41	4550
2026-01-28 01:38:49.52	184.63	20.18	-35.6	-37.1	17.7	0.00e+00	0	62	0	3209691136	41	4630
2026-01-28 01:38:53.56	184.84	19.66	-35.8	-37.3	17.5	0.00e+00	0	62	0	3231711232	42	4462
2026-01-28 01:38:57.60	185.03	19.15	-35.9	-37.5	17.4	0.00e+00	0	62	0	3254779904	42	4550
2026-01-28 01:39:01.64	185.22	18.65	-36.0	-37.5	17.3	0.00e+00	0	62	0	3277848576	42	4579
2026-01-28 01:39:05.68	185.40	18.16	-36.1	-37.6	17.2	0.00e+00	0	62	0	3299868672	42	4629
2026-01-28 01:39:09.72	185.58	17.68	-36.2	-37.7	17.1	0.00e+00	0	62	0	3322937344	42	4685
2026-01-28 01:39:13.76	185.75	17.21	-36.2	-37.8	17.0	0.00e+00	0	62	0	3346006016	42	4709
2026-01-28 01:39:17.81	185.92	16.74	-36.3	-37.9	16.9	0.00e+00	0	62	0	3368026112	43	4503
2026-01-28 01:39:21.85	186.09	16.29	-36.4	-38.0	16.7	0.00e+00	0	62	0	3391094784	43	4591
2026-01-28 01:39:25.89	186.24	15.84	-36.6	-38.2	16.6	0.00e+00	0	62	0	3414163456	43	4671
2026-01-28 01:39:29.93	186.40	15.40	-37.0	-38.7	16.2	0.00e+00	0	62	0	3436183552	44	4681
2026-01-28 01:39:33.98	186.55	14.97	-37.1	-38.8	16.1	0.00e+00	0	62	0	3459252224	44	4728
2026-01-28 01:39:38.02	186.70	14.55	-37.1	-38.9	16.0	0.00e+00	0	62	0	3482320896	45	4517
2026-01-28 01:39:42.06	186.84	14.13	-37.2	-39.0	15.9	0.00e+00	0	62	0	3505389568	45	4580
2026-01-28 01:39:46.10	186.98	13.72	-37.4	-39.2	15.7	0.00e+00	0	62	0	3527409664	45	4672
2026-01-28 01:39:50.14	187.11	13.32	-37.4	-39.2	15.6	0.00e+00	0	62	0	3550478336	45	4688
2026-01-28 01:39:54.18	187.25	12.92	-37.5	-39.3	15.5	0.00e+00	0	62	0	3572498432	45	4756
2026-01-28 01:39:58.21	187.38	12.53	-37.5	-39.4	15.4	0.00e+00	0	62	0	3595567104	45	4780
2026-01-28 01:40:02.25	187.50	12.15	-37.5	-39.3	15.5	0.00e+00	0	62	0	3618635776	45	4737
2026-01-28 01:40:06.30	187.63	11.77	-37.6	-39.4	15.3	0.00e+00	0	62	0	3641704448	45	4807
2026-01-28 01:40:10.34	187.75	11.40	-37.6	-39.4	15.3	0.00e+00	0	62	0	3663724544	45	4807
2026-01-28 01:40:14.38	187.86	11.03	-37.7	-39.6	15.1	0.00e+00	0	62	0	3686793216	45	4883
2026-01-28 01:40:18.43	187.98	10.67	-37.8	-39.7	15.0	0.00e+00	0	62	0	3709861888	46	4689
2026-01-28 01:40:22.47	188.09	10.31	-37.8	-39.7	15.0	0.00e+00	0	62	0	3731881984	46	4671
2026-01-28 01:40:26.51	188.20	9.96	-37.9	-39.9	14.8	0.00e+00	0	62	0	3754950656	46	4773
2026-01-28 01:40:30.55	188.31	9.62	-37.9	-39.9	14.7	0.00e+00	0	62	0	3778019328	46	4771
2026-01-28 01:40:34.60	188.42	9.27	-38.1	-40.1	14.5	0.00e+00	0	62	0	3800039424	46	4912
2026-01-28 01:40:38.64	188.52	8.94	-38.2	-40.3	14.3	2.20e-06	0	62	0	3823108096	47	4722
2026-01-28 01:40:42.68	188.62	8.60	-38.2	-40.3	14.2	1.10e-06	0	62	0	3846176768	47	4737
2026-01-28 01:40:46.72	188.72	8.27	-38.1	-40.1	14.4	1.10e-06	0	62	0	3868196864	47	4631
2026-01-28 01:40:50.77	188.82	7.95	-43.0	-48.7	6.3	1.36e-04	0	62	0	3891265536	56	7391
2026-01-28 01:40:54.81	188.92	7.63	-45.1	-57.0	3.8	8.45e-01	0	62	104	3891265536	60	15279
2026-01-28 01:40:58.85	189.01	7.31	-45.5	-57.4	3.8	8.46e-01	0	62	104	3891265536	61	15090
2026-01-28 01:41:02.89	189.10	7.00	-45.3	-57.2	3.8	8.46e-01	0	62	104	3891265536	61	14809
2026-01-28 01:41:06.93	189.19	6.69	-45.3	-57.1	3.8	8.46e-01	0	62	104	3891265536	61	14703
2026-01-28 01:41:10.98	189.28	6.39	-45.3	-57.1	3.8	8.45e-01	0	62	104	3891265536	61	14652
2026-01-28 01:41:15.02	189.37	6.08	-45.2	-57.1	3.8	8.47e-01	0	62	104	3891265536	61	14620
2026-01-28 01:41:19.06	189.45	5.79	-45.2	-57.1	3.8	8.46e-01	0	62	104	3891265536	61	14611
2026-01-28 01:41:23.10	189.54	5.49	-45.2	-57.1	3.8	8.46e-01	0	62	104	3891265536	61	14583
2026-01-28 01:41:27.14	189.62	5.20	-45.2	-57.1	3.8	8.46e-01	0	62	104	3891265536	61	14565
2026-01-28 01:41:31.18	189.70	4.91	-45.2	-57.0	3.8	8.47e-01	0	62	104	3891265536	61	14540
2026-01-28 01:41:35.23	189.78	4.63	-45.2	-57.1	3.8	8.48e-01	0	62	104	3891265536	61	14553
2026-01-28 01:41:39.27	189.86	4.34	-45.2	-57.0	3.8	8.46e-01	0	62	104	3891265536	61	14523
2026-01-28 01:41:43.31	189.94	4.06	-45.2	-57.0	3.8	8.44e-01	0	62	104	3891265536	61	14539
2026-01-28 01:41:47.35	190.01	3.79	-45.2	-57.0	3.8	8.46e-01	0	62	104	3891265536	61	14509
2026-01-28 01:41:51.39	190.09	3.51	-45.2	-57.1	3.8	8.46e-01	0	62	104	3891265536	61	14564
2026-01-28 01:41:55.44	190.16	3.24	-45.2	-57.1	3.8	8.45e-01	0	62	104	3891265536	61	14637
2026-01-28 01:41:59.48	190.23	2.97	-45.2	-57.1	3.8	8.47e-01	0	62	104	3891265536	61	14563
2026-01-28 01:42:03.52	190.30	2.71	-45.2	-57.1	3.8	8.47e-01	0	62	104	3891265536	61	14560
2026-01-28 01:42:07.56	190.37	2.44	-45.2	-57.0	3.8	8.45e-01	0	62	104	3891265536	61	14539
2026-01-28 01:42:11.60	190.44	2.18	-45.1	-57.0	3.8	8.47e-01	0	62	104	3891265536	61	14446

#Closed at: 2026-01-28 01:42:15
#Recorded file [3891 MB]: D:/lorett/data/31039_260128_042750.dat