passes_logs/2026/01/28/R2.0S_Moscow/R2.0S_Moscow__20260128_120407_AQUA_rec.log

#Pass ID: 20260128_120407_AQUA
#Satellite: AQUA
#Configuration: AQUA
#almurnet v.1.7.20251203
#Start time: 2026-01-28 12:04:06

#Version: 2.2.20231116
#Station: R2.0S_Moscow
#Location: 37.707566 lon 55.798166 lat
#TLE: 1 27424U 02022A   26027.63960626  .00001831  00000+0  37607-3 0  9998
#TLE: 2 27424  98.4102 354.2809 0001844  63.7090 108.5242 14.61867354262735

#Time	Az	El	Level	Level2	SNR	BER	BlckErr	Temp	State	Recorded	gain1	gain2
2026-01-28 12:04:06.87	172.96	1.98	-43.8	-62.8	3.8	7.47e-01	0	50	0	0	59	31659
2026-01-28 12:04:10.90	173.05	2.25	-43.8	-62.8	3.8	7.46e-01	0	50	104	0	58	33556
2026-01-28 12:04:14.94	173.14	2.52	-43.8	-62.8	3.8	7.50e-01	0	51	104	0	58	33517
2026-01-28 12:04:18.98	173.24	2.79	-43.8	-62.8	3.8	7.46e-01	0	51	104	0	58	33530
2026-01-28 12:04:23.02	173.34	3.07	-43.8	-62.8	3.8	7.46e-01	0	51	104	0	58	33515
2026-01-28 12:04:27.06	173.44	3.35	-43.8	-62.8	3.8	7.45e-01	0	52	104	0	58	33385
2026-01-28 12:04:31.10	173.54	3.63	-43.8	-62.8	3.8	7.45e-01	0	52	104	0	58	33377
2026-01-28 12:04:35.14	173.64	3.92	-43.8	-62.8	3.8	7.46e-01	0	52	104	0	58	33449
2026-01-28 12:04:39.19	173.75	4.21	-43.8	-62.8	3.8	7.44e-01	0	52	104	0	58	33350
2026-01-28 12:04:43.23	173.85	4.50	-43.8	-62.5	3.8	7.45e-01	0	52	104	0	58	32543
2026-01-28 12:04:47.27	173.96	4.80	-43.8	-62.0	3.8	7.44e-01	0	53	104	0	58	30506
2026-01-28 12:04:51.31	174.08	5.10	-43.8	-60.5	3.9	7.42e-01	0	53	104	0	58	25743
2026-01-28 12:04:55.36	174.19	5.40	-43.7	-58.7	4.2	7.29e-01	0	53	104	0	58	20899
2026-01-28 12:04:59.40	174.31	5.71	-43.7	-59.1	4.3	7.30e-01	0	54	104	0	58	21879
2026-01-28 12:05:03.44	174.43	6.02	-43.7	-58.4	4.5	7.27e-01	0	53	104	0	58	20163
2026-01-28 12:05:07.48	174.55	6.34	-43.5	-55.0	6.5	6.71e-01	93	54	0	2621440	58	13665
2026-01-28 12:05:11.52	174.67	6.66	-42.9	-50.9	10.6	6.20e-01	0	54	0	9961472	57	9067
2026-01-28 12:05:15.56	174.80	6.98	-42.2	-48.1	13.6	6.07e-01	0	54	0	17301504	56	6949
2026-01-28 12:05:19.60	174.93	7.31	-41.4	-46.1	15.5	6.04e-01	0	54	0	25165824	54	6174
2026-01-28 12:05:23.64	175.06	7.64	-41.3	-45.9	15.8	6.08e-01	0	54	0	32505856	54	6010
2026-01-28 12:05:27.68	175.20	7.98	-41.7	-46.9	14.7	6.07e-01	0	54	0	40370176	54	6784
2026-01-28 12:05:31.73	175.34	8.33	-43.2	-52.8	8.3	6.39e-01	7	55	0	46661632	57	11236
2026-01-28 12:05:35.77	175.48	8.67	-40.9	-44.2	18.5	6.07e-01	0	55	0	54001664	53	5264
2026-01-28 12:05:39.81	175.63	9.03	-41.0	-44.3	18.6	6.08e-01	0	55	0	61865984	53	5316
2026-01-28 12:05:43.85	175.78	9.39	-41.0	-44.2	18.8	6.07e-01	0	55	0	69206016	53	5239
2026-01-28 12:05:47.89	175.93	9.75	-41.1	-44.2	18.9	6.04e-01	0	55	0	77070336	53	5267
2026-01-28 12:05:51.93	176.09	10.13	-41.0	-44.1	19.0	6.07e-01	0	56	0	84410368	53	5216
2026-01-28 12:05:55.98	176.25	10.50	-40.9	-43.9	19.3	6.04e-01	0	55	0	92274688	53	5042
2026-01-28 12:06:00.02	176.41	10.89	-40.9	-43.9	19.4	6.07e-01	0	56	0	99614720	53	5044
2026-01-28 12:06:04.06	176.58	11.28	-40.8	-43.8	19.5	6.04e-01	0	56	0	106954752	53	4991
2026-01-28 12:06:08.10	176.76	11.68	-40.8	-43.6	19.6	6.08e-01	0	56	0	114819072	53	4911
2026-01-28 12:06:12.14	176.94	12.08	-40.7	-43.6	19.7	6.04e-01	0	56	0	122159104	53	4888
2026-01-28 12:06:16.18	177.12	12.49	-40.7	-43.5	19.8	6.06e-01	0	56	0	130023424	53	4842
2026-01-28 12:06:20.22	177.31	12.91	-40.7	-43.5	19.9	6.05e-01	0	56	0	137363456	53	4817
2026-01-28 12:06:24.26	177.51	13.34	-40.6	-43.3	20.1	6.06e-01	0	56	0	145227776	53	4759
2026-01-28 12:06:28.31	177.71	13.78	-40.6	-43.3	20.1	6.06e-01	0	56	0	152567808	53	4712
2026-01-28 12:06:32.35	177.92	14.22	-40.5	-43.1	20.3	6.07e-01	0	56	0	160432128	52	4918
2026-01-28 12:06:36.39	178.13	14.68	-40.5	-43.1	20.4	6.06e-01	0	56	0	167772160	52	4900
2026-01-28 12:06:40.43	178.35	15.14	-40.6	-43.2	20.3	6.06e-01	0	56	0	175636480	52	4976
2026-01-28 12:06:44.46	178.58	15.61	-40.5	-43.1	20.4	6.07e-01	0	57	0	182976512	52	4917
2026-01-28 12:06:48.50	178.81	16.09	-40.5	-43.1	20.5	6.07e-01	0	57	0	190316544	52	4878
2026-01-28 12:06:52.54	179.06	16.59	-40.3	-42.9	20.7	6.07e-01	0	57	0	198180864	52	4784
2026-01-28 12:06:56.58	179.31	17.09	-40.6	-43.2	20.4	6.08e-01	0	57	0	205520896	52	4936
2026-01-28 12:07:00.63	179.57	17.60	-40.5	-43.1	20.5	6.06e-01	0	57	0	213385216	52	4882
2026-01-28 12:07:04.66	179.84	18.13	-40.4	-43.0	20.6	6.06e-01	0	57	0	220725248	52	4841
2026-01-28 12:07:08.70	180.12	18.67	-40.5	-43.0	20.6	6.04e-01	0	57	0	228589568	52	4869
2026-01-28 12:07:12.74	180.40	19.22	-40.5	-43.0	20.6	6.06e-01	0	57	0	235929600	52	4845
2026-01-28 12:07:16.78	180.70	19.78	-40.5	-43.0	20.7	6.04e-01	0	57	0	243793920	52	4858
2026-01-28 12:07:20.82	181.01	20.36	-40.4	-42.9	20.8	6.05e-01	0	57	0	251133952	52	4765
2026-01-28 12:07:24.86	181.34	20.95	-40.6	-43.2	20.5	6.06e-01	0	57	0	258473984	52	4932
2026-01-28 12:07:28.90	181.67	21.56	-40.6	-43.2	20.6	6.06e-01	0	57	0	266338304	52	4944
2026-01-28 12:07:32.94	182.02	22.18	-40.7	-43.2	20.5	6.06e-01	0	57	0	273678336	52	4967
2026-01-28 12:07:36.98	182.39	22.82	-40.8	-43.4	20.4	6.05e-01	0	58	0	281542656	52	5079
2026-01-28 12:07:41.02	182.77	23.47	-40.7	-43.3	20.5	6.05e-01	0	57	0	288882688	52	4994
2026-01-28 12:07:45.07	183.16	24.15	-40.9	-43.5	20.3	6.07e-01	0	58	0	296747008	52	5147
2026-01-28 12:07:49.11	183.58	24.84	-40.7	-43.3	20.5	6.06e-01	0	57	0	304087040	52	5022
2026-01-28 12:07:53.15	184.01	25.54	-40.9	-43.5	20.3	6.06e-01	0	58	0	311951360	52	5127
2026-01-28 12:07:57.18	184.46	26.27	-40.7	-43.2	20.6	6.06e-01	0	58	0	319291392	52	4962
2026-01-28 12:08:01.22	184.94	27.02	-40.7	-43.2	20.7	6.06e-01	0	58	0	326631424	52	4966
2026-01-28 12:08:05.26	185.44	27.78	-40.6	-43.1	20.8	6.06e-01	0	58	0	334495744	52	4903
2026-01-28 12:08:09.30	185.96	28.57	-40.5	-43.0	20.9	6.06e-01	0	58	0	341835776	52	4834
2026-01-28 12:08:13.34	186.51	29.39	-40.4	-42.8	21.1	6.07e-01	0	58	0	349700096	52	4733
2026-01-28 12:08:17.38	187.09	30.22	-40.2	-42.5	21.3	6.06e-01	0	58	0	357040128	52	4590
2026-01-28 12:08:21.42	187.70	31.08	-40.7	-43.2	20.7	6.05e-01	0	58	0	364904448	52	4975
2026-01-28 12:08:25.46	188.34	31.96	-40.7	-43.2	20.8	6.08e-01	0	58	0	372244480	52	4952
2026-01-28 12:08:29.50	189.02	32.87	-40.7	-43.2	20.8	6.05e-01	0	58	0	380108800	52	4965
2026-01-28 12:08:33.54	189.74	33.80	-41.1	-43.8	20.1	6.05e-01	0	58	0	387448832	52	5337
2026-01-28 12:08:37.58	190.50	34.76	-41.2	-43.9	20.1	6.07e-01	0	58	0	394788864	53	5092
2026-01-28 12:08:41.61	191.31	35.74	-41.6	-44.5	19.5	6.09e-01	0	58	0	402653184	53	5448
2026-01-28 12:08:45.65	192.17	36.75	-42.0	-45.2	18.8	6.05e-01	0	58	0	409993216	54	5573
2026-01-28 12:08:49.70	193.09	37.79	-42.3	-45.7	18.3	6.06e-01	0	58	0	417857536	55	5548
2026-01-28 12:08:53.74	194.07	38.85	-42.1	-45.3	18.7	6.06e-01	0	58	0	425197568	55	5316
2026-01-28 12:08:57.78	195.12	39.94	-41.9	-44.9	19.1	6.05e-01	0	58	0	433061888	55	5065
2026-01-28 12:09:01.82	196.24	41.06	-41.3	-44.1	19.8	6.05e-01	0	58	0	440401920	54	4890
2026-01-28 12:09:05.86	197.44	42.20	-41.0	-43.6	20.5	6.07e-01	0	58	0	448266240	53	4873
2026-01-28 12:09:09.90	198.73	43.36	-40.7	-43.2	20.9	6.06e-01	0	58	0	455606272	53	4664
2026-01-28 12:09:13.94	200.12	44.54	-40.8	-43.4	20.7	6.07e-01	0	58	0	462946304	53	4770
2026-01-28 12:09:17.98	201.62	45.74	-40.4	-42.7	21.5	6.08e-01	0	58	0	470810624	52	4659
2026-01-28 12:09:22.01	203.23	46.96	-40.7	-43.1	21.0	6.08e-01	0	58	0	478150656	52	4895
2026-01-28 12:09:26.05	204.98	48.19	-40.3	-42.7	21.4	6.06e-01	0	58	0	486014976	52	4657
2026-01-28 12:09:30.09	206.87	49.42	-40.4	-42.7	21.2	6.07e-01	0	58	0	493355008	52	4678
2026-01-28 12:09:34.13	208.92	50.66	-40.5	-42.9	21.2	6.08e-01	0	58	0	501219328	52	4760
2026-01-28 12:09:38.17	211.15	51.89	-40.6	-43.1	21.0	6.05e-01	0	58	0	508559360	52	4874
2026-01-28 12:09:42.20	213.56	53.10	-40.4	-42.7	21.4	6.06e-01	0	58	0	516423680	52	4670
2026-01-28 12:09:46.24	216.19	54.28	-40.4	-42.7	21.4	6.08e-01	0	58	0	523763712	52	4694
2026-01-28 12:09:50.28	219.04	55.43	-41.0	-43.6	20.5	6.07e-01	0	58	0	531103744	52	5181
2026-01-28 12:09:54.33	222.13	56.54	-41.5	-44.4	19.7	6.08e-01	0	59	0	538968064	53	5372
2026-01-28 12:09:58.37	225.46	57.58	-41.8	-44.8	19.1	6.07e-01	0	59	0	546308096	54	5290
2026-01-28 12:10:02.41	229.05	58.53	-41.9	-45.0	19.2	6.05e-01	0	58	0	554172416	54	5434
2026-01-28 12:10:06.45	232.90	59.40	-42.3	-45.6	18.5	6.07e-01	0	59	0	561512448	55	5517
2026-01-28 12:10:10.49	236.98	60.15	-42.5	-46.1	18.0	6.09e-01	0	59	0	569376768	55	5813
2026-01-28 12:10:14.53	241.30	60.77	-42.4	-45.9	18.1	6.07e-01	0	59	0	576716800	55	5661
2026-01-28 12:10:18.57	245.80	61.25	-42.5	-46.1	18.0	6.06e-01	0	59	0	584581120	55	5807
2026-01-28 12:10:22.61	250.45	61.57	-42.9	-46.6	17.6	6.05e-01	0	59	0	591921152	56	5801
2026-01-28 12:10:26.65	255.19	61.73	-42.5	-45.8	18.3	6.06e-01	0	59	0	599261184	56	5332
2026-01-28 12:10:30.69	259.97	61.72	-42.5	-46.0	18.2	6.05e-01	0	59	0	607125504	56	5412
2026-01-28 12:10:34.73	264.70	61.54	-42.5	-45.8	18.4	6.07e-01	0	59	0	614465536	56	5336
2026-01-28 12:10:38.77	269.33	61.20	-42.5	-45.9	18.3	6.06e-01	0	59	0	622329856	56	5370
2026-01-28 12:10:42.81	273.82	60.71	-42.3	-45.6	18.6	6.05e-01	0	59	0	629669888	56	5179
2026-01-28 12:10:46.85	278.10	60.08	-42.3	-45.5	18.6	6.05e-01	0	59	0	637534208	55	5434
2026-01-28 12:10:50.89	282.16	59.32	-42.1	-45.2	18.9	6.05e-01	0	58	0	644874240	55	5239
2026-01-28 12:10:54.93	285.98	58.45	-42.1	-45.2	18.9	6.07e-01	0	59	0	652738560	55	5275
2026-01-28 12:10:58.97	289.53	57.48	-41.7	-44.7	19.3	6.08e-01	0	59	0	660078592	55	4945
2026-01-28 12:11:03.01	292.84	56.44	-41.3	-44.0	20.0	6.05e-01	0	59	0	667418624	54	4848
2026-01-28 12:11:07.05	295.89	55.34	-41.1	-43.7	20.4	6.05e-01	0	59	0	675282944	54	4678
2026-01-28 12:11:11.08	298.71	54.19	-40.8	-43.2	20.8	6.06e-01	0	59	0	682622976	53	4705
2026-01-28 12:11:15.12	301.31	53.00	-41.2	-43.9	20.2	6.06e-01	0	59	0	690487296	53	5093
2026-01-28 12:11:19.16	303.70	51.79	-41.2	-43.9	20.2	6.05e-01	0	59	0	697827328	53	5076
2026-01-28 12:11:23.20	305.91	50.57	-41.2	-43.8	20.3	6.06e-01	0	59	0	705691648	53	5014
2026-01-28 12:11:27.23	307.93	49.34	-41.6	-44.5	19.6	6.06e-01	0	59	0	713031680	54	5134
2026-01-28 12:11:31.28	309.81	48.11	-41.4	-44.1	20.0	6.07e-01	0	59	0	720896000	54	4910
2026-01-28 12:11:35.32	311.55	46.89	-41.3	-44.1	20.0	6.05e-01	0	59	0	728236032	54	4875
2026-01-28 12:11:39.36	313.15	45.68	-41.3	-43.9	20.1	6.04e-01	0	59	0	735576064	54	4808
2026-01-28 12:11:43.40	314.63	44.48	-41.2	-43.9	20.2	6.08e-01	0	59	0	743440384	54	4796
2026-01-28 12:11:47.44	316.01	43.31	-41.3	-44.0	20.1	6.06e-01	0	59	0	750780416	54	4830
2026-01-28 12:11:51.48	317.29	42.15	-41.4	-44.1	20.0	6.06e-01	0	59	0	758644736	54	4902
2026-01-28 12:11:55.52	318.48	41.02	-43.4	-56.5	3.8	7.43e-01	0	59	104	760217600	57	17185
2026-01-28 12:11:59.55	319.59	39.92	-43.6	-57.0	3.8	7.41e-01	0	59	104	760217600	59	16224
2026-01-28 12:12:03.59	320.63	38.84	-42.3	-54.6	3.8	7.45e-01	0	59	104	760217600	56	14577
2026-01-28 12:12:07.63	321.60	37.78	-42.2	-54.3	4.2	7.32e-01	0	59	104	760217600	56	14123
2026-01-28 12:12:11.67	322.51	36.75	-43.2	-56.4	4.1	7.33e-01	0	59	104	760217600	57	16942
2026-01-28 12:12:15.71	323.37	35.75	-42.1	-54.4	3.9	7.47e-01	0	59	104	760217600	56	14336
2026-01-28 12:12:19.75	324.17	34.77	-42.7	-55.0	3.8	7.44e-01	0	59	104	760217600	55	16308
2026-01-28 12:12:23.79	324.93	33.82	-41.1	-53.0	3.8	7.45e-01	0	59	104	760217600	54	13615
2026-01-28 12:12:27.83	325.65	32.89	-43.5	-56.8	3.8	7.40e-01	0	59	104	760217600	57	17879
2026-01-28 12:12:31.87	326.33	31.99	-41.0	-53.0	3.8	7.45e-01	0	59	104	760217600	54	13584
2026-01-28 12:12:35.91	326.97	31.12	-44.4	-58.6	3.7	7.40e-01	0	59	104	760217600	59	19528
2026-01-28 12:12:39.94	327.58	30.27	-40.7	-52.4	3.9	7.45e-01	0	59	104	760217600	53	13541
2026-01-28 12:12:43.98	328.15	29.44	-42.7	-55.4	3.8	7.44e-01	0	59	104	760217600	55	16939
2026-01-28 12:12:48.01	328.70	28.64	-41.2	-53.2	3.8	7.43e-01	0	59	104	760217600	54	13992
2026-01-28 12:12:52.05	329.22	27.85	-44.8	-60.2	3.7	7.47e-01	0	59	104	760217600	60	22121
2026-01-28 12:12:56.10	329.72	27.09	-41.3	-53.2	3.8	7.43e-01	0	59	104	760217600	54	13919
2026-01-28 12:13:00.14	330.19	26.35	-42.8	-55.6	3.8	7.40e-01	0	59	104	760217600	56	16463
2026-01-28 12:13:04.17	330.64	25.63	-41.5	-53.8	3.8	7.43e-01	0	59	104	760217600	55	14067
2026-01-28 12:13:08.21	331.08	24.92	-44.0	-58.3	3.9	7.45e-01	0	60	104	760217600	59	18737
2026-01-28 12:13:12.25	331.49	24.24	-41.5	-53.7	3.8	7.43e-01	0	59	104	760217600	55	14019
2026-01-28 12:13:16.29	331.89	23.57	-42.3	-54.7	3.8	7.41e-01	0	59	104	760217600	56	14849
2026-01-28 12:13:20.33	332.27	22.92	-41.5	-53.5	3.8	7.44e-01	0	60	104	760217600	54	14483
2026-01-28 12:13:24.36	332.63	22.29	-42.5	-55.3	3.9	7.44e-01	0	59	104	760217600	57	15004
2026-01-28 12:13:28.40	332.98	21.67	-41.8	-54.2	3.8	7.42e-01	0	60	104	760217600	55	14758
2026-01-28 12:13:32.44	333.32	21.07	-41.3	-53.5	3.9	7.50e-01	0	59	104	760217600	54	14440
2026-01-28 12:13:36.48	333.64	20.48	-41.3	-53.5	3.8	7.42e-01	0	59	104	760217600	54	14535
2026-01-28 12:13:40.52	333.95	19.91	-41.2	-53.3	3.8	7.44e-01	0	59	104	760217600	54	14159
2026-01-28 12:13:44.56	334.26	19.34	-42.5	-55.1	3.8	7.42e-01	0	59	104	760217600	56	15578
2026-01-28 12:13:48.60	334.55	18.80	-41.1	-53.2	3.8	7.47e-01	0	59	104	760217600	53	14732
2026-01-28 12:13:52.64	334.83	18.26	-41.3	-53.5	3.8	7.44e-01	0	60	104	760217600	54	14460
2026-01-28 12:13:56.68	335.10	17.74	-42.0	-54.4	3.8	7.46e-01	0	60	104	760217600	54	16061
2026-01-28 12:14:00.72	335.36	17.23	-41.0	-53.0	3.8	7.46e-01	0	60	104	760217600	54	13617
2026-01-28 12:14:04.76	335.61	16.73	-42.1	-54.6	3.8	7.44e-01	0	59	104	760217600	54	16487
2026-01-28 12:14:08.80	335.85	16.24	-41.2	-53.4	3.8	7.48e-01	0	60	104	760217600	54	14276
2026-01-28 12:14:12.84	336.09	15.76	-43.2	-56.7	3.8	7.49e-01	0	60	104	760217600	56	18727
2026-01-28 12:14:16.88	336.32	15.29	-41.8	-54.4	3.8	7.45e-01	0	59	104	760217600	55	15201
2026-01-28 12:14:20.92	336.54	14.83	-43.0	-56.6	3.8	7.44e-01	0	59	104	760217600	56	18451
2026-01-28 12:14:24.97	336.76	14.37	-41.2	-53.5	3.8	7.45e-01	0	60	104	760217600	54	14509
2026-01-28 12:14:29.00	336.97	13.93	-43.9	-58.6	3.8	7.43e-01	0	59	104	760217600	58	20741
2026-01-28 12:14:33.04	337.17	13.50	-41.7	-54.5	3.8	7.46e-01	0	60	104	760217600	55	15359
2026-01-28 12:14:37.08	337.37	13.07	-42.9	-57.4	3.8	7.46e-01	0	60	104	760217600	56	20123
2026-01-28 12:14:41.12	337.57	12.66	-41.3	-54.4	3.8	7.43e-01	0	60	104	760217600	54	15975
2026-01-28 12:14:45.16	337.75	12.25	-43.6	-58.5	3.8	7.46e-01	0	59	104	760217600	58	20358
2026-01-28 12:14:49.20	337.93	11.84	-41.6	-54.5	3.8	7.43e-01	0	59	104	760217600	55	15356
2026-01-28 12:14:53.24	338.11	11.45	-42.4	-57.0	3.8	7.43e-01	0	59	104	760217600	55	20309
2026-01-28 12:14:57.28	338.29	11.06	-40.5	-53.2	3.8	7.45e-01	0	60	104	760217600	53	14740
2026-01-28 12:15:01.31	338.45	10.68	-43.2	-58.6	3.9	7.43e-01	0	60	104	760217600	58	20628
2026-01-28 12:15:05.35	338.62	10.30	-40.9	-53.8	3.8	7.43e-01	0	60	104	760217600	53	15882
2026-01-28 12:15:09.39	338.78	9.93	-42.3	-57.1	3.8	7.42e-01	0	60	104	760217600	55	20597
2026-01-28 12:15:13.43	338.94	9.57	-41.2	-55.6	3.8	7.44e-01	0	59	104	760217600	54	18311
2026-01-28 12:15:17.47	339.09	9.21	-42.9	-58.7	3.8	7.45e-01	0	59	104	760217600	57	22039
2026-01-28 12:15:21.52	339.24	8.86	-42.7	-57.9	3.8	7.50e-01	0	60	104	760217600	57	20294
2026-01-28 12:15:25.56	339.39	8.51	-42.6	-59.8	3.8	7.46e-01	0	59	104	760217600	56	26643
2026-01-28 12:15:29.60	339.53	8.17	-41.7	-59.5	3.8	7.43e-01	0	60	104	760217600	55	27205
2026-01-28 12:15:33.64	339.67	7.83	-45.5	-64.2	3.8	7.46e-01	0	60	104	760217600	61	33250
2026-01-28 12:15:37.68	339.80	7.50	-46.1	-64.9	3.8	7.47e-01	0	60	104	760217600	62	34031
2026-01-28 12:15:41.72	339.94	7.17	-45.1	-65.0	3.8	7.46e-01	0	60	104	760217600	63	32315
2026-01-28 12:15:45.76	340.07	6.85	-46.2	-65.1	3.8	7.43e-01	0	60	104	760217600	63	32682
2026-01-28 12:15:49.80	340.20	6.53	-44.5	-64.5	3.8	7.45e-01	0	60	104	760217600	61	34404
2026-01-28 12:15:53.85	340.32	6.21	-46.1	-65.0	3.8	7.49e-01	0	59	104	760217600	62	34281
2026-01-28 12:15:57.89	340.45	5.90	-46.1	-65.0	3.8	7.44e-01	0	60	104	760217600	62	34252
2026-01-28 12:16:01.93	340.57	5.60	-46.1	-65.0	3.8	7.45e-01	0	60	104	760217600	62	34172
2026-01-28 12:16:05.97	340.69	5.29	-46.1	-65.0	3.8	7.45e-01	0	60	104	760217600	62	34164
2026-01-28 12:16:10.01	340.80	4.99	-46.1	-65.0	3.8	7.47e-01	0	60	104	760217600	62	34209
2026-01-28 12:16:14.05	340.92	4.70	-46.1	-65.0	3.8	7.45e-01	0	60	104	760217600	62	34320
2026-01-28 12:16:18.10	341.03	4.41	-46.1	-65.0	3.8	7.48e-01	0	60	104	760217600	62	34096
2026-01-28 12:16:22.14	341.14	4.12	-46.1	-64.9	3.8	7.43e-01	0	60	104	760217600	62	34055
2026-01-28 12:16:26.18	341.25	3.83	-46.1	-64.9	3.8	7.48e-01	0	60	104	760217600	62	33970
2026-01-28 12:16:30.22	341.35	3.55	-46.0	-64.9	3.8	7.45e-01	0	60	104	760217600	62	33966
2026-01-28 12:16:34.26	341.46	3.27	-46.1	-64.9	3.8	7.48e-01	0	60	104	760217600	62	33987
2026-01-28 12:16:38.30	341.56	3.00	-46.1	-64.9	3.8	7.44e-01	0	60	104	760217600	62	33990
2026-01-28 12:16:42.34	341.66	2.73	-45.9	-64.9	3.8	7.45e-01	0	60	104	760217600	62	33898
2026-01-28 12:16:46.39	341.76	2.46	-46.0	-64.9	3.8	7.46e-01	0	60	104	760217600	62	33870
2026-01-28 12:16:50.43	341.86	2.19	-46.0	-64.9	3.8	7.45e-01	0	60	104	760217600	62	33946

#Closed at: 2026-01-28 12:16:54
#Recorded file [760 MB]: D:/lorett/data/31039_260128_150406.dat