passes_logs/2026/01/28/R2.0S_Moscow/R2.0S_Moscow__20260128_125908_FENGYUN_3D_rec.log

#Pass ID: 20260128_125908_FENGYUN 3D
#Satellite: FENGYUN 3D
#Configuration: FENGYUN 3D
#almurnet v.1.7.20251203
#Start time: 2026-01-28 12:59:09

#Version: 2.2.20231116
#Station: R2.0S_Moscow
#Location: 37.707566 lon 55.798166 lat
#TLE: 1 43010U 17072A   26027.90082829  .00000305  00000+0  16579-3 0  9998
#TLE: 2 43010  98.9960 359.9183 0002511  88.1058 272.0405 14.19701796425082

#Time	Az	El	Level	Level2	SNR	BER	BlckErr	Temp	State	Recorded	gain1	gain2
2026-01-28 12:59:09.44	189.98	2.03	-44.1	-55.8	3.8	8.45e-01	0	50	0	0	59	14058
2026-01-28 12:59:13.48	190.17	2.28	-44.0	-55.8	3.8	8.47e-01	0	50	104	0	59	14095
2026-01-28 12:59:17.52	190.37	2.52	-44.0	-55.8	3.8	8.45e-01	0	51	104	0	59	14067
2026-01-28 12:59:21.56	190.57	2.77	-44.0	-55.8	3.8	8.45e-01	0	51	104	0	59	14070
2026-01-28 12:59:25.61	190.77	3.02	-44.0	-55.8	3.8	8.46e-01	0	51	104	0	59	14054
2026-01-28 12:59:29.65	190.98	3.28	-44.0	-55.7	3.8	8.46e-01	0	52	104	0	59	14005
2026-01-28 12:59:33.68	191.19	3.53	-44.0	-55.7	3.8	8.47e-01	0	52	104	0	59	14020
2026-01-28 12:59:37.73	191.41	3.79	-44.0	-55.7	3.8	8.46e-01	0	52	104	0	59	13972
2026-01-28 12:59:41.77	191.62	4.05	-44.0	-55.7	3.8	8.46e-01	0	52	104	0	59	13941
2026-01-28 12:59:45.81	191.85	4.31	-44.0	-55.6	3.8	8.47e-01	0	53	104	0	59	13848
2026-01-28 12:59:49.85	192.07	4.58	-44.0	-55.5	3.8	8.46e-01	0	53	104	0	59	13686
2026-01-28 12:59:53.89	192.30	4.84	-44.0	-55.4	3.8	8.47e-01	0	53	104	0	59	13508
2026-01-28 12:59:57.93	192.53	5.11	-44.0	-55.3	3.8	8.46e-01	0	53	104	0	59	13361
2026-01-28 13:00:01.98	192.77	5.38	-43.9	-54.8	3.8	8.45e-01	0	53	104	0	59	12555
2026-01-28 13:00:06.02	193.01	5.65	-43.8	-53.6	3.9	8.45e-01	0	53	104	0	59	10953
2026-01-28 13:00:10.06	193.26	5.93	-43.6	-52.2	4.2	8.39e-01	0	54	0	0	59	9370
2026-01-28 13:00:14.10	193.51	6.21	-43.2	-50.3	4.9	7.90e-01	0	54	0	0	58	7964
2026-01-28 13:00:18.15	193.77	6.49	-42.6	-48.2	6.3	3.22e-01	0	54	0	10485760	57	6634
2026-01-28 13:00:22.19	194.03	6.77	-41.7	-46.0	8.2	7.57e-02	0	54	0	32505856	55	5785
2026-01-28 13:00:26.23	194.29	7.06	-40.5	-43.7	10.6	5.39e-03	0	55	0	55574528	52	5246
2026-01-28 13:00:30.28	194.56	7.35	-39.2	-41.7	12.8	1.29e-04	0	55	0	78643200	50	4667
2026-01-28 13:00:34.32	194.84	7.64	-38.4	-40.6	13.9	8.00e-06	0	55	0	100663296	48	4614
2026-01-28 13:00:38.37	195.12	7.94	-38.8	-41.2	13.3	1.83e-05	0	55	0	123731968	48	4941
2026-01-28 13:00:42.41	195.40	8.23	-38.6	-40.8	13.8	1.25e-05	0	55	0	146800640	48	4718
2026-01-28 13:00:46.45	195.70	8.53	-38.4	-40.5	14.1	6.80e-06	0	55	0	162529280	48	4596
2026-01-28 13:00:50.49	195.99	8.84	-38.1	-40.2	14.5	1.10e-06	0	55	0	185597952	48	4405
2026-01-28 13:00:54.53	196.30	9.14	-38.1	-40.1	14.6	0.00e+00	0	55	0	208666624	48	4365
2026-01-28 13:00:58.57	196.61	9.45	-37.9	-39.9	14.7	1.10e-06	0	56	0	230686720	47	4520
2026-01-28 13:01:02.61	196.92	9.77	-37.9	-39.9	14.7	1.10e-06	0	56	0	253755392	47	4529
2026-01-28 13:01:06.66	197.25	10.08	-38.0	-40.0	14.6	0.00e+00	0	56	0	276824064	47	4568
2026-01-28 13:01:10.70	197.57	10.40	-38.0	-40.0	14.6	0.00e+00	0	56	0	298844160	47	4574
2026-01-28 13:01:14.74	197.91	10.72	-37.9	-39.8	14.8	0.00e+00	0	56	0	321912832	47	4474
2026-01-28 13:01:18.79	198.26	11.05	-37.7	-39.6	15.1	0.00e+00	0	56	0	344981504	47	4356
2026-01-28 13:01:22.83	198.61	11.38	-37.5	-39.3	15.4	0.00e+00	0	56	0	367001600	46	4471
2026-01-28 13:01:26.87	198.97	11.71	-37.3	-39.1	15.6	0.00e+00	0	56	0	390070272	46	4358
2026-01-28 13:01:30.91	199.33	12.05	-37.3	-39.0	15.7	0.00e+00	0	57	0	413138944	46	4334
2026-01-28 13:01:34.95	199.71	12.39	-37.4	-39.2	15.5	0.00e+00	0	57	0	436207616	46	4432
2026-01-28 13:01:38.99	200.09	12.73	-37.4	-39.2	15.6	1.10e-06	0	57	0	458227712	46	4396
2026-01-28 13:01:43.04	200.48	13.08	-37.4	-39.2	15.6	0.00e+00	0	57	0	481296384	46	4411
2026-01-28 13:01:47.08	200.89	13.43	-37.1	-38.8	16.0	0.00e+00	0	57	0	503316480	46	4207
2026-01-28 13:01:51.12	201.30	13.79	-37.2	-38.9	15.9	0.00e+00	0	57	0	526385152	46	4273
2026-01-28 13:01:55.16	201.72	14.15	-37.2	-38.9	15.9	0.00e+00	0	57	0	549453824	46	4274
2026-01-28 13:01:59.20	202.15	14.51	-37.0	-38.7	16.1	0.00e+00	0	57	0	572522496	45	4434
2026-01-28 13:02:03.24	202.59	14.88	-36.9	-38.6	16.3	0.00e+00	0	57	0	594542592	45	4343
2026-01-28 13:02:07.29	203.04	15.25	-36.8	-38.5	16.3	0.00e+00	0	57	0	617611264	45	4328
2026-01-28 13:02:11.33	203.50	15.63	-36.6	-38.2	16.6	0.00e+00	0	57	0	640679936	45	4181
2026-01-28 13:02:15.37	203.98	16.01	-36.3	-37.9	17.0	0.00e+00	0	57	0	662700032	44	4260
2026-01-28 13:02:19.41	204.46	16.39	-36.4	-37.9	17.0	0.00e+00	0	57	0	685768704	44	4287
2026-01-28 13:02:23.46	204.96	16.78	-36.5	-38.1	16.7	0.00e+00	0	58	0	708837376	44	4385
2026-01-28 13:02:27.50	205.47	17.17	-36.5	-38.1	16.8	0.00e+00	0	57	0	730857472	44	4371
2026-01-28 13:02:31.54	206.00	17.57	-36.3	-37.9	17.0	0.00e+00	0	58	0	753926144	44	4270
2026-01-28 13:02:35.58	206.53	17.97	-36.2	-37.8	17.1	0.00e+00	0	58	0	776994816	44	4204
2026-01-28 13:02:39.62	207.08	18.37	-36.3	-37.8	17.0	0.00e+00	0	58	0	799014912	44	4240
2026-01-28 13:02:43.66	207.65	18.78	-36.1	-37.6	17.3	0.00e+00	0	58	0	822083584	44	4127
2026-01-28 13:02:47.70	208.23	19.20	-35.8	-37.3	17.5	0.00e+00	0	58	0	845152256	43	4197
2026-01-28 13:02:51.74	208.83	19.61	-35.6	-37.0	17.7	0.00e+00	0	58	0	868220928	43	4091
2026-01-28 13:02:55.79	209.44	20.03	-35.6	-37.0	17.7	0.00e+00	0	58	0	890241024	43	4086
2026-01-28 13:02:59.83	210.07	20.46	-35.4	-36.9	17.9	0.00e+00	0	58	0	913309696	42	4260
2026-01-28 13:03:03.87	210.72	20.89	-35.4	-36.9	17.9	0.00e+00	0	58	0	935329792	42	4250
2026-01-28 13:03:07.91	211.38	21.32	-35.6	-37.0	17.7	0.00e+00	0	58	0	958398464	42	4335
2026-01-28 13:03:11.95	212.06	21.75	-35.5	-37.0	17.8	0.00e+00	0	58	0	981467136	42	4318
2026-01-28 13:03:15.99	212.77	22.19	-35.4	-36.8	18.0	0.00e+00	0	58	0	1003487232	42	4229
2026-01-28 13:03:20.03	213.49	22.64	-34.9	-36.3	18.5	0.00e+00	0	58	0	1026555904	41	4217
2026-01-28 13:03:24.07	214.23	23.08	-34.7	-36.1	18.7	0.00e+00	0	58	0	1049624576	41	4100
2026-01-28 13:03:28.12	214.99	23.53	-34.9	-36.3	18.5	0.00e+00	0	58	0	1072693248	41	4216
2026-01-28 13:03:32.16	215.78	23.98	-34.9	-36.3	18.5	0.00e+00	0	58	0	1094713344	41	4210
2026-01-28 13:03:36.20	216.58	24.43	-34.9	-36.3	18.5	0.00e+00	0	58	0	1117782016	41	4236
2026-01-28 13:03:40.24	217.41	24.89	-34.9	-36.3	18.5	0.00e+00	0	58	0	1139802112	41	4208
2026-01-28 13:03:44.28	218.27	25.34	-34.8	-36.2	18.6	0.00e+00	0	58	0	1162870784	41	4152
2026-01-28 13:03:48.32	219.15	25.80	-34.5	-35.8	19.0	0.00e+00	0	58	0	1185939456	41	3979
2026-01-28 13:03:52.36	220.05	26.26	-34.6	-35.9	18.9	0.00e+00	0	58	0	1209008128	40	4291
2026-01-28 13:03:56.40	220.98	26.72	-34.5	-35.8	19.0	0.00e+00	0	58	0	1231028224	40	4222
2026-01-28 13:04:00.45	221.94	27.17	-34.6	-36.0	18.9	0.00e+00	0	58	0	1254096896	40	4294
2026-01-28 13:04:04.49	222.92	27.63	-34.3	-35.7	19.1	0.00e+00	0	58	0	1277165568	40	4150
2026-01-28 13:04:08.53	223.93	28.09	-34.4	-35.8	19.0	0.00e+00	0	58	0	1299185664	40	4195
2026-01-28 13:04:12.57	224.97	28.54	-34.3	-35.6	19.2	0.00e+00	0	58	0	1322254336	40	4142
2026-01-28 13:04:16.61	226.04	28.99	-34.4	-35.7	19.1	0.00e+00	0	58	0	1345323008	40	4181
2026-01-28 13:04:20.65	227.13	29.43	-34.0	-35.2	19.6	0.00e+00	0	58	0	1367343104	40	3938
2026-01-28 13:04:24.70	228.26	29.88	-34.3	-35.6	19.3	0.00e+00	0	58	0	1390411776	40	4100
2026-01-28 13:04:28.74	229.42	30.31	-34.3	-35.6	19.2	0.00e+00	0	58	0	1413480448	40	4127
2026-01-28 13:04:32.78	230.61	30.74	-34.1	-35.4	19.4	0.00e+00	0	59	0	1435500544	40	4027
2026-01-28 13:04:36.82	231.83	31.16	-34.2	-35.5	19.3	0.00e+00	0	59	0	1458569216	40	4063
2026-01-28 13:04:40.87	233.09	31.58	-34.3	-35.6	19.2	0.00e+00	0	59	0	1481637888	40	4112
2026-01-28 13:04:44.90	234.37	31.98	-34.0	-35.3	19.5	0.00e+00	0	59	0	1504706560	40	3973
2026-01-28 13:04:48.94	235.68	32.37	-34.2	-35.5	19.3	0.00e+00	0	59	0	1526726656	40	4074
2026-01-28 13:04:52.98	237.02	32.76	-34.3	-35.6	19.2	0.00e+00	0	59	0	1549795328	40	4142
2026-01-28 13:04:57.03	238.40	33.13	-34.1	-35.3	19.5	0.00e+00	0	59	0	1571815424	39	4233
2026-01-28 13:05:01.07	239.81	33.48	-34.2	-35.5	19.3	0.00e+00	0	59	0	1594884096	39	4338
2026-01-28 13:05:05.11	241.25	33.82	-34.1	-35.4	19.4	0.00e+00	0	59	0	1617952768	39	4270
2026-01-28 13:05:09.15	242.71	34.14	-34.0	-35.3	19.5	0.00e+00	0	59	0	1641021440	39	4209
2026-01-28 13:05:13.20	244.21	34.45	-34.0	-35.3	19.6	0.00e+00	0	59	0	1663041536	39	4209
2026-01-28 13:05:17.24	245.73	34.73	-34.1	-35.4	19.5	0.00e+00	0	59	0	1686110208	39	4248
2026-01-28 13:05:21.28	247.28	35.00	-33.9	-35.2	19.7	0.00e+00	0	59	0	1709178880	39	4162
2026-01-28 13:05:25.32	248.85	35.24	-33.7	-34.9	19.9	0.00e+00	0	59	0	1731198976	39	4042
2026-01-28 13:05:29.36	250.44	35.47	-34.0	-35.2	19.6	0.00e+00	0	59	0	1754267648	39	4192
2026-01-28 13:05:33.40	252.05	35.67	-33.9	-35.2	19.6	0.00e+00	0	59	0	1777336320	39	4168
2026-01-28 13:05:37.45	253.68	35.84	-34.2	-35.5	19.4	0.00e+00	0	59	0	1799356416	39	4310
2026-01-28 13:05:41.49	255.33	35.99	-33.8	-35.0	19.8	0.00e+00	0	59	0	1822425088	39	4092
2026-01-28 13:05:45.53	256.99	36.12	-33.9	-35.2	19.7	0.00e+00	0	59	0	1845493760	39	4151
2026-01-28 13:05:49.57	258.66	36.21	-33.8	-35.1	19.8	0.00e+00	0	59	0	1867513856	39	4102
2026-01-28 13:05:53.61	260.34	36.29	-33.8	-35.1	19.7	0.00e+00	0	59	0	1890582528	39	4124
2026-01-28 13:05:57.65	262.03	36.33	-34.1	-35.3	20.0	0.00e+00	0	59	0	1913651200	39	4211
2026-01-28 13:06:01.69	263.71	36.35	-34.2	-35.4	19.8	0.00e+00	0	59	0	1935671296	39	4263
2026-01-28 13:06:05.73	265.40	36.34	-34.1	-35.2	20.0	0.00e+00	0	59	0	1958739968	39	4192
2026-01-28 13:06:09.77	267.09	36.30	-34.1	-35.2	20.0	0.00e+00	0	59	0	1981808640	39	4193
2026-01-28 13:06:13.81	268.77	36.23	-34.1	-35.3	19.9	0.00e+00	0	59	0	2003828736	39	4214
2026-01-28 13:06:17.85	270.44	36.14	-34.1	-35.2	20.0	0.00e+00	0	59	0	2026897408	39	4181
2026-01-28 13:06:21.89	272.10	36.02	-34.2	-35.3	19.9	0.00e+00	0	59	0	2049966080	39	4229
2026-01-28 13:06:25.94	273.75	35.88	-33.9	-35.1	20.1	0.00e+00	0	59	0	2071986176	39	4115
2026-01-28 13:06:29.98	275.38	35.71	-34.1	-35.3	20.0	0.00e+00	0	59	0	2095054848	39	4205
2026-01-28 13:06:34.01	277.00	35.52	-34.0	-35.2	20.1	0.00e+00	0	59	0	2118123520	39	4149
2026-01-28 13:06:38.06	278.59	35.30	-34.0	-35.1	20.1	0.00e+00	0	59	0	2141192192	39	4145
2026-01-28 13:06:42.10	280.17	35.06	-34.5	-35.7	19.5	0.00e+00	0	59	0	2163212288	39	4429
2026-01-28 13:06:46.15	281.72	34.80	-34.1	-35.2	20.0	0.00e+00	0	59	0	2186280960	39	4184
2026-01-28 13:06:50.19	283.24	34.52	-34.1	-35.3	19.9	0.00e+00	0	59	0	2208301056	39	4219
2026-01-28 13:06:54.22	284.73	34.22	-34.2	-35.4	19.9	0.00e+00	0	59	0	2231369728	39	4246
2026-01-28 13:06:58.26	286.20	33.91	-34.3	-35.5	19.7	0.00e+00	0	59	0	2254438400	39	4318
2026-01-28 13:07:02.31	287.65	33.57	-34.5	-35.7	19.6	0.00e+00	0	59	0	2277507072	39	4416
2026-01-28 13:07:06.35	289.06	33.22	-34.4	-35.6	19.6	0.00e+00	0	59	0	2299527168	39	4370
2026-01-28 13:07:10.38	290.43	32.86	-34.5	-35.7	19.6	0.00e+00	0	59	0	2322595840	39	4401
2026-01-28 13:07:14.43	291.78	32.48	-34.6	-35.8	19.4	0.00e+00	0	59	0	2345664512	39	4465
2026-01-28 13:07:18.47	293.10	32.10	-34.7	-35.9	19.4	0.00e+00	0	59	0	2367684608	39	4504
2026-01-28 13:07:22.51	294.39	31.70	-34.6	-35.8	19.4	0.00e+00	0	59	0	2390753280	39	4493
2026-01-28 13:07:26.56	295.65	31.29	-34.6	-35.9	19.3	0.00e+00	0	59	0	2413821952	40	4252
2026-01-28 13:07:30.60	296.87	30.87	-34.5	-35.7	19.4	0.00e+00	0	59	0	2435842048	40	4168
2026-01-28 13:07:34.64	298.06	30.44	-34.3	-35.5	19.6	0.00e+00	0	59	0	2458910720	40	4079
2026-01-28 13:07:38.68	299.23	30.01	-34.7	-35.9	19.2	0.00e+00	0	59	0	2481979392	40	4285
2026-01-28 13:07:42.72	300.36	29.57	-34.5	-35.7	19.5	0.00e+00	0	59	0	2503999488	40	4146
2026-01-28 13:07:46.77	301.46	29.13	-34.6	-35.9	19.3	0.00e+00	0	59	0	2527068160	40	4243
2026-01-28 13:07:50.81	302.53	28.69	-34.6	-35.8	19.3	0.00e+00	0	59	0	2550136832	40	4224
2026-01-28 13:07:54.84	303.57	28.24	-34.7	-36.0	19.1	0.00e+00	0	59	0	2573205504	40	4297
2026-01-28 13:07:58.88	304.59	27.79	-34.8	-36.1	19.0	0.00e+00	0	59	0	2595225600	40	4363
2026-01-28 13:08:02.92	305.58	27.33	-34.8	-36.0	19.1	0.00e+00	0	59	0	2618294272	40	4314
2026-01-28 13:08:06.97	306.54	26.88	-34.9	-36.2	18.9	0.00e+00	0	59	0	2640314368	40	4408
2026-01-28 13:08:11.01	307.47	26.42	-34.9	-36.2	18.8	0.00e+00	0	59	0	2663383040	40	4421
2026-01-28 13:08:15.05	308.38	25.97	-35.0	-36.3	18.8	0.00e+00	0	59	0	2686451712	40	4451
2026-01-28 13:08:19.09	309.26	25.52	-34.8	-36.1	19.0	0.00e+00	0	59	0	2708471808	40	4364
2026-01-28 13:08:23.13	310.12	25.06	-34.8	-36.1	18.9	0.00e+00	0	59	0	2731540480	40	4358
2026-01-28 13:08:27.17	310.95	24.61	-34.8	-36.0	19.0	0.00e+00	0	59	0	2754609152	40	4326
2026-01-28 13:08:31.22	311.76	24.16	-35.0	-36.3	18.8	0.00e+00	0	59	0	2777677824	40	4446
2026-01-28 13:08:35.26	312.55	23.71	-35.1	-36.4	18.6	0.00e+00	0	59	0	2799697920	40	4518
2026-01-28 13:08:39.30	313.32	23.27	-35.3	-36.5	18.4	0.00e+00	0	59	0	2822766592	41	4339
2026-01-28 13:08:43.34	314.06	22.82	-35.4	-36.7	18.3	0.00e+00	0	59	0	2844786688	41	4418
2026-01-28 13:08:47.37	314.79	22.39	-35.5	-36.8	18.2	0.00e+00	0	59	0	2867855360	41	4466
2026-01-28 13:08:51.41	315.49	21.95	-35.4	-36.7	18.3	0.00e+00	0	59	0	2890924032	41	4420
2026-01-28 13:08:55.45	316.18	21.52	-35.3	-36.6	18.3	0.00e+00	0	59	0	2913992704	41	4391
2026-01-28 13:08:59.50	316.85	21.09	-35.6	-37.0	18.0	0.00e+00	0	59	0	2936012800	41	4559
2026-01-28 13:09:03.54	317.50	20.66	-35.8	-37.2	17.7	0.00e+00	0	59	0	2959081472	42	4426
2026-01-28 13:09:07.58	318.13	20.24	-35.9	-37.3	17.7	0.00e+00	0	59	0	2982150144	42	4448
2026-01-28 13:09:11.62	318.75	19.82	-35.8	-37.1	17.8	0.00e+00	0	60	0	3004170240	42	4383
2026-01-28 13:09:15.65	319.35	19.40	-36.0	-37.5	17.4	0.00e+00	0	59	0	3027238912	42	4556
2026-01-28 13:09:19.70	319.93	18.99	-36.3	-37.8	17.1	0.00e+00	0	59	0	3050307584	43	4483
2026-01-28 13:09:23.74	320.50	18.59	-36.3	-37.8	17.1	0.00e+00	0	59	0	3072327680	43	4468
2026-01-28 13:09:27.78	321.06	18.18	-36.4	-37.9	16.9	0.00e+00	0	59	0	3095396352	43	4527
2026-01-28 13:09:31.82	321.60	17.79	-36.5	-38.1	16.8	0.00e+00	0	59	0	3118465024	43	4602
2026-01-28 13:09:35.86	322.13	17.39	-36.5	-38.1	16.7	0.00e+00	0	59	0	3140485120	43	4614
2026-01-28 13:09:39.90	322.64	17.00	-36.5	-38.0	16.8	0.00e+00	0	59	0	3163553792	43	4579
2026-01-28 13:09:43.95	323.15	16.61	-36.4	-37.9	16.9	0.00e+00	0	59	0	3186622464	43	4500
2026-01-28 13:09:47.99	323.64	16.23	-36.4	-38.0	16.8	0.00e+00	0	59	0	3208642560	43	4551
2026-01-28 13:09:52.02	324.11	15.85	-36.6	-38.1	16.6	0.00e+00	0	59	0	3231711232	43	4636
2026-01-28 13:09:56.06	324.58	15.48	-36.8	-38.3	16.6	0.00e+00	0	59	0	3254779904	44	4489
2026-01-28 13:10:00.10	325.04	15.11	-36.9	-38.5	16.4	0.00e+00	0	59	0	3276800000	44	4577
2026-01-28 13:10:04.14	325.48	14.74	-37.0	-38.7	16.2	0.00e+00	0	59	0	3299868672	44	4663
2026-01-28 13:10:08.18	325.91	14.38	-37.1	-38.8	16.1	0.00e+00	0	59	0	3322937344	44	4731
2026-01-28 13:10:12.23	326.34	14.02	-37.2	-38.8	16.0	0.00e+00	0	59	0	3344957440	44	4744
2026-01-28 13:10:16.27	326.76	13.67	-37.2	-38.8	16.0	0.00e+00	0	59	0	3368026112	44	4742
2026-01-28 13:10:20.31	327.16	13.32	-37.3	-39.0	15.8	0.00e+00	0	59	0	3391094784	45	4560
2026-01-28 13:10:24.35	327.56	12.97	-37.5	-39.2	15.5	0.00e+00	0	59	0	3414163456	45	4703
2026-01-28 13:10:28.40	327.95	12.63	-37.6	-39.4	15.4	0.00e+00	0	59	0	3436183552	45	4786
2026-01-28 13:10:32.44	328.33	12.29	-37.7	-39.5	15.2	1.10e-06	0	59	0	3459252224	45	4864
2026-01-28 13:10:36.49	328.70	11.95	-37.8	-39.6	15.1	0.00e+00	0	59	0	3481272320	46	4622
2026-01-28 13:10:40.53	329.06	11.62	-37.8	-39.7	15.0	0.00e+00	0	59	0	3504340992	46	4677
2026-01-28 13:10:44.57	329.42	11.29	-37.8	-39.7	15.0	0.00e+00	0	59	0	3527409664	46	4685
2026-01-28 13:10:48.61	329.76	10.97	-38.0	-39.9	14.8	0.00e+00	0	59	0	3550478336	46	4771
2026-01-28 13:10:52.65	330.11	10.65	-38.1	-40.1	14.5	0.00e+00	0	59	0	3572498432	46	4903
2026-01-28 13:10:56.69	330.44	10.33	-38.1	-40.1	14.5	4.50e-06	0	60	0	3595567104	46	4896
2026-01-28 13:11:00.73	330.77	10.02	-38.0	-40.0	14.5	0.00e+00	0	59	0	3617587200	46	4844
2026-01-28 13:11:04.78	331.09	9.70	-38.0	-39.9	14.6	1.10e-06	0	60	0	3640655872	46	4810
2026-01-28 13:11:08.82	331.40	9.39	-38.1	-40.1	14.4	0.00e+00	0	59	0	3663724544	46	4893
2026-01-28 13:11:12.86	331.71	9.09	-38.1	-40.1	14.4	1.10e-06	0	60	0	3686793216	46	4883
2026-01-28 13:11:16.90	332.01	8.79	-38.2	-40.2	14.2	4.50e-06	0	59	0	3708813312	47	4688
2026-01-28 13:11:20.94	332.31	8.49	-38.2	-40.2	14.1	3.40e-06	0	60	0	3731881984	47	4699
2026-01-28 13:11:24.98	332.60	8.19	-38.4	-40.5	13.8	2.20e-06	0	60	0	3754950656	47	4848
2026-01-28 13:11:29.03	332.89	7.90	-44.5	-56.2	3.8	8.47e-01	0	59	104	3769630720	59	14731
2026-01-28 13:11:33.07	333.17	7.61	-45.0	-56.9	3.8	8.47e-01	0	60	104	3769630720	60	15183
2026-01-28 13:11:37.11	333.44	7.32	-45.1	-57.1	3.8	8.46e-01	0	59	104	3769630720	60	15438
2026-01-28 13:11:41.15	333.71	7.03	-45.1	-57.1	3.8	8.47e-01	0	59	104	3769630720	60	15473
2026-01-28 13:11:45.19	333.98	6.75	-45.0	-57.0	3.8	8.47e-01	0	59	104	3769630720	60	15310
2026-01-28 13:11:49.24	334.24	6.47	-45.0	-57.0	3.8	8.46e-01	0	59	104	3769630720	60	15232
2026-01-28 13:11:53.28	334.49	6.19	-45.0	-56.9	3.8	8.46e-01	0	60	104	3769630720	60	15192
2026-01-28 13:11:57.32	334.74	5.92	-45.0	-56.9	3.8	8.46e-01	0	60	104	3769630720	60	15196
2026-01-28 13:12:01.36	334.99	5.65	-45.0	-56.9	3.8	8.46e-01	0	60	104	3769630720	60	15214
2026-01-28 13:12:05.40	335.23	5.38	-45.0	-56.9	3.8	8.46e-01	0	60	104	3769630720	60	15176
2026-01-28 13:12:09.44	335.47	5.11	-45.0	-56.9	3.8	8.45e-01	0	59	104	3769630720	60	15206
2026-01-28 13:12:13.48	335.71	4.85	-45.0	-56.9	3.8	8.45e-01	0	59	104	3769630720	60	15200
2026-01-28 13:12:17.52	335.94	4.58	-45.0	-56.9	3.8	8.46e-01	0	60	104	3769630720	60	15148
2026-01-28 13:12:21.57	336.16	4.32	-45.0	-57.0	3.8	8.47e-01	0	59	104	3769630720	60	15241
2026-01-28 13:12:25.61	336.39	4.06	-45.0	-56.9	3.8	8.46e-01	0	60	104	3769630720	60	15212
2026-01-28 13:12:29.65	336.61	3.81	-44.9	-56.9	3.8	8.46e-01	0	60	104	3769630720	60	15124
2026-01-28 13:12:33.69	336.82	3.55	-44.9	-56.9	3.8	8.47e-01	0	60	104	3769630720	60	15126
2026-01-28 13:12:37.73	337.04	3.30	-44.9	-56.8	3.8	8.44e-01	0	60	104	3769630720	60	15005
2026-01-28 13:12:41.78	337.25	3.05	-44.9	-56.9	3.8	8.46e-01	0	60	104	3769630720	60	15107
2026-01-28 13:12:45.82	337.45	2.80	-44.9	-56.8	3.8	8.45e-01	0	60	104	3769630720	60	15025
2026-01-28 13:12:49.86	337.66	2.56	-44.9	-56.9	3.8	8.46e-01	0	60	104	3769630720	60	15076
2026-01-28 13:12:53.90	337.86	2.31	-44.9	-56.9	3.8	8.46e-01	0	60	104	3769630720	60	15067
2026-01-28 13:12:57.94	338.05	2.07	-44.9	-56.8	3.8	8.45e-01	0	60	104	3769630720	60	15050

#Closed at: 2026-01-28 13:12:59
#Recorded file [3769 MB]: D:/lorett/data/31039_260128_155909.dat