passes_logs/2026/01/28/R2.0S_Moscow/R2.0S_Moscow__20260128_000117_NOAA_21_JPSS-2_rec.log

#Pass ID: 20260128_000117_NOAA 21 (JPSS-2)
#Satellite: NOAA 21 (JPSS-2)
#Configuration: NOAA-21
#almurnet v.1.7.20251203
#Start time: 2026-01-28 00:01:19

#Version: 2.2.20231116
#Station: R2.0S_Moscow
#Location: 37.707566 lon 55.798166 lat
#TLE: 1 54234U 22150A   26027.41809747  .00000179  00000+0  10565-3 0  9991
#TLE: 2 54234  98.7510 328.1683 0000854 205.0798 155.0336 14.19540145166571

#Time	Az	El	Level	Level2	SNR	BER	BlckErr	Temp	State	Recorded	gain1	gain2
2026-01-28 00:01:19.28	14.65	2.09	-43.3	-55.7	3.8	1.49e+00	0	52	0	0	58	14759
2026-01-28 00:01:23.31	14.60	2.35	-43.3	-55.7	3.8	1.49e+00	0	53	104	0	58	14744
2026-01-28 00:01:27.35	14.55	2.61	-43.3	-55.7	3.8	1.49e+00	0	53	104	0	58	14751
2026-01-28 00:01:31.39	14.50	2.87	-43.3	-55.7	3.8	1.49e+00	0	54	104	0	58	14742
2026-01-28 00:01:35.43	14.45	3.14	-43.3	-55.7	3.8	1.49e+00	0	54	104	0	58	14731
2026-01-28 00:01:39.48	14.40	3.41	-43.3	-55.6	3.8	1.49e+00	0	54	104	0	58	14701
2026-01-28 00:01:43.52	14.35	3.68	-43.3	-55.6	3.8	1.49e+00	0	54	104	0	58	14681
2026-01-28 00:01:47.56	14.29	3.95	-43.3	-55.5	3.8	1.49e+00	0	55	104	0	58	14514
2026-01-28 00:01:51.60	14.24	4.23	-43.3	-55.4	3.8	1.49e+00	0	55	104	0	58	14311
2026-01-28 00:01:55.64	14.18	4.51	-43.2	-55.2	3.8	1.49e+00	0	55	104	0	58	13966
2026-01-28 00:01:59.68	14.12	4.79	-43.2	-54.6	3.8	1.49e+00	0	55	104	0	58	13087
2026-01-28 00:02:03.72	14.06	5.08	-43.1	-53.8	3.8	1.49e+00	0	55	104	0	58	11897
2026-01-28 00:02:07.76	14.00	5.36	-42.9	-52.4	4.1	1.47e+00	0	56	104	0	57	10714
2026-01-28 00:02:11.80	13.94	5.65	-42.9	-52.2	4.2	1.47e+00	0	56	104	0	57	10476
2026-01-28 00:02:15.84	13.87	5.95	-42.9	-52.5	4.1	1.47e+00	0	56	104	0	57	10897
2026-01-28 00:02:19.88	13.80	6.25	-43.2	-54.9	3.8	1.49e+00	0	56	104	0	57	14373
2026-01-28 00:02:23.92	13.74	6.55	-43.2	-54.7	3.8	1.49e+00	0	56	104	0	57	13957
2026-01-28 00:02:27.96	13.67	6.85	-42.4	-49.2	5.5	5.85e-01	0	57	0	2097152	56	7858
2026-01-28 00:02:32.00	13.59	7.16	-41.0	-45.5	8.7	3.85e-02	0	57	0	14680064	54	5734
2026-01-28 00:02:36.05	13.52	7.47	-40.2	-43.7	10.5	4.18e-03	0	57	0	27262976	52	5279
2026-01-28 00:02:40.09	13.44	7.79	-40.2	-43.7	10.6	3.00e-03	0	57	0	39845888	51	5572
2026-01-28 00:02:44.13	13.37	8.11	-41.0	-45.2	9.1	2.35e-02	0	57	0	52428800	52	6207
2026-01-28 00:02:48.17	13.29	8.43	-40.7	-45.0	8.9	1.38e-02	0	57	0	62914560	52	6084
2026-01-28 00:02:52.21	13.20	8.76	-39.7	-42.8	11.6	9.47e-04	0	58	0	75497472	51	4993
2026-01-28 00:02:56.25	13.12	9.09	-39.8	-42.8	11.5	7.88e-04	0	58	0	88080384	51	5041
2026-01-28 00:03:00.30	13.03	9.43	-39.7	-42.6	11.7	6.74e-04	0	58	0	100663296	51	4911
2026-01-28 00:03:04.34	12.94	9.77	-39.6	-42.5	11.9	3.87e-04	0	58	0	113246208	51	4831
2026-01-28 00:03:08.38	12.85	10.12	-39.5	-42.3	12.1	2.88e-04	0	58	0	125829120	50	5027
2026-01-28 00:03:12.42	12.76	10.47	-39.6	-42.6	11.8	6.37e-04	0	58	0	138412032	50	5164
2026-01-28 00:03:16.47	12.66	10.82	-39.8	-42.7	11.7	5.00e-04	0	58	0	150994944	50	5276
2026-01-28 00:03:20.51	12.56	11.18	-39.7	-42.5	12.1	3.15e-04	0	59	0	163577856	50	5116
2026-01-28 00:03:24.55	12.46	11.55	-39.8	-42.7	11.9	2.11e-04	0	58	0	176160768	50	5250
2026-01-28 00:03:28.59	12.35	11.92	-39.6	-42.3	12.5	1.14e-04	0	59	0	188743680	50	5013
2026-01-28 00:03:32.63	12.24	12.30	-39.3	-41.7	13.2	2.51e-05	0	59	0	201326592	50	4703
2026-01-28 00:03:36.68	12.13	12.68	-39.5	-41.9	13.1	2.05e-05	0	59	0	213909504	50	4811
2026-01-28 00:03:40.72	12.01	13.07	-39.2	-41.5	13.6	8.30e-06	0	59	0	226492416	50	4587
2026-01-28 00:03:44.76	11.89	13.46	-39.3	-41.7	13.5	4.50e-06	0	59	0	239075328	50	4662
2026-01-28 00:03:48.80	11.77	13.87	-39.4	-41.7	13.6	1.06e-05	0	59	0	251658240	50	4685
2026-01-28 00:03:52.84	11.65	14.27	-39.5	-41.9	13.4	1.14e-05	0	59	0	264241152	50	4805
2026-01-28 00:03:56.88	11.51	14.69	-39.4	-41.7	13.7	6.10e-06	0	59	0	276824064	50	4698
2026-01-28 00:04:00.93	11.38	15.11	-39.5	-41.9	13.6	3.80e-06	0	59	0	289406976	50	4777
2026-01-28 00:04:04.97	11.24	15.54	-39.4	-41.7	13.9	6.80e-06	0	59	0	301989888	50	4666
2026-01-28 00:04:09.01	11.10	15.98	-39.5	-41.7	13.9	4.50e-06	0	59	0	314572800	50	4701
2026-01-28 00:04:13.05	10.95	16.42	-39.3	-41.5	14.1	2.20e-06	0	59	0	328204288	50	4580
2026-01-28 00:04:17.09	10.79	16.87	-39.4	-41.6	14.1	1.50e-06	0	59	0	340787200	50	4606
2026-01-28 00:04:21.13	10.64	17.33	-39.4	-41.5	14.2	0.00e+00	0	60	0	353370112	50	4597
2026-01-28 00:04:25.17	10.47	17.80	-39.4	-41.5	14.2	2.20e-06	0	60	0	365953024	50	4591
2026-01-28 00:04:29.21	10.30	18.28	-39.5	-41.7	14.1	4.50e-06	0	60	0	378535936	50	4666
2026-01-28 00:04:33.25	10.12	18.77	-39.4	-41.6	14.2	3.00e-06	0	60	0	391118848	50	4630
2026-01-28 00:04:37.29	9.94	19.26	-39.3	-41.4	14.5	7.00e-07	0	60	0	403701760	50	4494
2026-01-28 00:04:41.34	9.75	19.77	-39.2	-41.3	14.6	0.00e+00	0	60	0	416284672	50	4451
2026-01-28 00:04:45.38	9.56	20.29	-39.1	-41.2	14.7	7.00e-07	0	60	0	428867584	50	4400
2026-01-28 00:04:49.42	9.35	20.82	-39.0	-41.0	14.8	0.00e+00	0	60	0	441450496	50	4335
2026-01-28 00:04:53.47	9.14	21.36	-38.8	-40.8	15.1	7.00e-07	0	60	0	454033408	49	4453
2026-01-28 00:04:57.51	8.92	21.91	-38.5	-40.3	15.6	0.00e+00	0	60	0	466616320	49	4216
2026-01-28 00:05:01.55	8.70	22.47	-38.3	-40.1	15.8	0.00e+00	0	60	0	479199232	48	4358
2026-01-28 00:05:05.59	8.46	23.04	-38.2	-40.0	16.0	0.00e+00	0	60	0	491782144	48	4300
2026-01-28 00:05:09.64	8.21	23.63	-38.1	-39.7	16.2	0.00e+00	0	60	0	504365056	48	4189
2026-01-28 00:05:13.68	7.96	24.23	-37.9	-39.6	16.3	0.00e+00	0	61	0	516947968	47	4362
2026-01-28 00:05:17.72	7.69	24.84	-38.1	-39.8	16.1	0.00e+00	0	61	0	529530880	47	4471
2026-01-28 00:05:21.76	7.41	25.46	-38.3	-40.1	15.8	0.00e+00	0	60	0	542113792	47	4644
2026-01-28 00:05:25.80	7.12	26.10	-38.6	-40.5	15.4	0.00e+00	0	60	0	554696704	47	4835
2026-01-28 00:05:29.84	6.82	26.76	-38.9	-40.8	15.2	0.00e+00	0	60	0	567279616	48	4756
2026-01-28 00:05:33.89	6.50	27.43	-39.0	-40.9	15.1	0.00e+00	0	60	0	580911104	48	4804
2026-01-28 00:05:37.93	6.17	28.12	-39.0	-41.0	15.0	0.00e+00	0	60	0	592445440	48	4837
2026-01-28 00:05:41.96	5.83	28.82	-39.2	-41.2	14.7	7.00e-07	0	61	0	606076928	49	4701
2026-01-28 00:05:46.00	5.47	29.54	-39.3	-41.3	14.7	0.00e+00	0	60	0	618659840	49	4736
2026-01-28 00:05:50.05	5.09	30.27	-39.2	-41.2	14.9	7.00e-07	0	61	0	631242752	49	4660
2026-01-28 00:05:54.09	4.69	31.03	-39.2	-41.1	14.9	7.00e-07	0	61	0	643825664	49	4640
2026-01-28 00:05:58.14	4.27	31.80	-39.2	-41.1	14.9	0.00e+00	0	61	0	656408576	49	4649
2026-01-28 00:06:02.18	3.83	32.59	-39.3	-41.3	14.8	7.00e-07	0	61	0	668991488	49	4712
2026-01-28 00:06:06.22	3.37	33.41	-39.6	-41.7	14.4	7.00e-07	0	61	0	681574400	49	4932
2026-01-28 00:06:10.26	2.88	34.24	-39.6	-41.7	14.4	0.00e+00	0	61	0	694157312	49	4960
2026-01-28 00:06:14.31	2.37	35.09	-40.0	-42.2	13.9	2.20e-06	0	61	0	706740224	50	4970
2026-01-28 00:06:18.34	1.83	35.96	-40.5	-42.9	13.2	2.13e-05	0	61	0	719323136	51	5094
2026-01-28 00:06:22.39	1.25	36.85	-40.7	-43.3	12.7	1.03e-04	0	61	0	731906048	52	5040
2026-01-28 00:06:26.43	0.65	37.77	-40.6	-43.3	12.8	5.34e-05	0	61	0	744488960	52	4984
2026-01-28 00:06:30.47	0.00	38.71	-40.5	-43.1	13.0	4.19e-05	0	61	0	757071872	52	4872
2026-01-28 00:06:34.52	359.32	39.67	-40.5	-43.0	13.1	2.82e-05	0	61	0	769654784	52	4824
2026-01-28 00:06:38.56	358.59	40.65	-39.9	-42.0	14.2	3.80e-06	0	61	0	782237696	51	4586
2026-01-28 00:06:42.60	357.82	41.65	-40.6	-43.0	13.1	2.59e-05	0	61	0	794820608	51	5137
2026-01-28 00:06:46.64	357.00	42.67	-40.7	-43.3	12.9	5.64e-05	0	61	0	807403520	52	4991
2026-01-28 00:06:50.68	356.12	43.72	-40.7	-43.2	13.0	3.50e-05	0	61	0	819986432	52	4951
2026-01-28 00:06:54.73	355.18	44.79	-41.1	-43.8	12.3	1.41e-04	0	61	0	832569344	52	5316
2026-01-28 00:06:58.77	354.17	45.87	-41.1	-43.9	12.2	2.74e-04	0	61	0	845152256	53	5093
2026-01-28 00:07:02.81	353.09	46.98	-40.7	-43.3	12.8	6.48e-05	0	61	0	857735168	53	4738
2026-01-28 00:07:06.85	351.93	48.10	-40.6	-43.1	13.0	3.96e-05	0	61	0	871366656	53	4634
2026-01-28 00:07:10.89	350.68	49.24	-40.6	-43.1	13.1	2.67e-05	0	61	0	883949568	52	4893
2026-01-28 00:07:14.93	349.34	50.39	-40.6	-43.2	13.0	3.12e-05	0	61	0	896532480	52	4927
2026-01-28 00:07:18.97	347.88	51.56	-40.1	-42.4	13.8	7.60e-06	0	61	0	909115392	52	4515
2026-01-28 00:07:23.02	346.30	52.73	-40.2	-42.4	13.9	0.00e+00	0	61	0	921698304	51	4785
2026-01-28 00:07:27.06	344.59	53.91	-40.1	-42.4	13.9	5.30e-06	0	61	0	934281216	51	4765
2026-01-28 00:07:31.10	342.73	55.08	-39.3	-41.2	15.0	0.00e+00	0	61	0	946864128	50	4433
2026-01-28 00:07:35.15	340.71	56.25	-39.0	-40.8	15.5	0.00e+00	0	61	0	959447040	49	4463
2026-01-28 00:07:39.19	338.52	57.40	-38.9	-40.7	15.5	0.00e+00	0	61	0	972029952	49	4431
2026-01-28 00:07:43.23	336.13	58.54	-39.2	-41.1	15.1	0.00e+00	0	61	0	984612864	49	4629
2026-01-28 00:07:47.27	333.53	59.64	-38.5	-40.2	16.0	0.00e+00	0	61	0	997195776	49	4186
2026-01-28 00:07:51.31	330.71	60.70	-38.3	-39.9	16.3	0.00e+00	0	61	0	1009778688	48	4280
2026-01-28 00:07:55.35	327.63	61.72	-38.1	-39.7	16.4	0.00e+00	0	62	0	1022361600	47	4427
2026-01-28 00:07:59.39	324.31	62.67	-38.0	-39.6	16.5	0.00e+00	0	62	0	1034944512	47	4389
2026-01-28 00:08:03.43	320.72	63.54	-38.3	-40.0	16.1	0.00e+00	0	61	0	1047527424	47	4572
2026-01-28 00:08:07.47	316.86	64.33	-37.9	-39.5	16.6	0.00e+00	0	61	0	1060110336	47	4313
2026-01-28 00:08:11.51	312.75	65.01	-38.4	-40.2	16.0	0.00e+00	0	61	0	1072693248	47	4659
2026-01-28 00:08:15.56	308.40	65.57	-37.9	-39.5	16.5	0.00e+00	0	62	0	1085276160	47	4319
2026-01-28 00:08:19.60	303.85	66.01	-37.6	-39.1	17.0	0.00e+00	0	61	0	1097859072	46	4387
2026-01-28 00:08:23.64	299.15	66.30	-37.7	-39.2	16.8	0.00e+00	0	61	0	1110441984	46	4434
2026-01-28 00:08:27.68	294.35	66.44	-37.6	-39.2	16.9	0.00e+00	0	61	0	1123024896	46	4400
2026-01-28 00:08:31.72	289.52	66.43	-37.8	-39.4	16.6	0.00e+00	0	62	0	1135607808	46	4511
2026-01-28 00:08:35.77	284.72	66.27	-38.4	-40.2	15.8	0.00e+00	0	62	0	1148190720	47	4687
2026-01-28 00:08:39.81	280.03	65.96	-37.7	-39.2	16.8	0.00e+00	0	61	0	1161822208	47	4192
2026-01-28 00:08:43.85	275.50	65.51	-37.8	-39.5	16.6	0.00e+00	0	61	0	1174405120	47	4294
2026-01-28 00:08:47.89	271.18	64.93	-38.0	-39.7	16.4	0.00e+00	0	62	0	1186988032	47	4418
2026-01-28 00:08:51.93	267.10	64.23	-38.2	-39.9	16.2	0.00e+00	0	62	0	1199570944	47	4522
2026-01-28 00:08:55.98	263.26	63.43	-37.8	-39.4	16.7	0.00e+00	0	62	0	1212153856	47	4262
2026-01-28 00:09:00.02	259.70	62.55	-38.4	-40.1	15.9	0.00e+00	0	62	0	1224736768	47	4651
2026-01-28 00:09:04.06	256.40	61.58	-38.8	-40.6	15.7	0.00e+00	0	62	0	1237319680	48	4611
2026-01-28 00:09:08.10	253.36	60.56	-38.0	-39.6	16.5	0.00e+00	0	62	0	1249902592	47	4378
2026-01-28 00:09:12.15	250.55	59.49	-37.9	-39.5	16.7	0.00e+00	0	62	0	1262485504	47	4298
2026-01-28 00:09:16.19	247.98	58.37	-38.9	-40.7	15.4	0.00e+00	0	62	0	1275068416	48	4686
2026-01-28 00:09:20.23	245.61	57.23	-38.7	-40.5	15.6	0.00e+00	0	62	0	1287651328	48	4585
2026-01-28 00:09:24.28	243.43	56.07	-38.9	-40.7	15.4	7.00e-07	0	62	0	1300234240	49	4427
2026-01-28 00:09:28.32	241.43	54.90	-38.3	-39.9	16.3	0.00e+00	0	62	0	1312817152	48	4287
2026-01-28 00:09:32.36	239.59	53.72	-40.2	-42.4	13.7	8.30e-06	0	62	0	1325400064	51	4800
2026-01-28 00:09:36.40	237.90	52.54	-39.6	-41.7	14.4	0.00e+00	0	62	0	1337982976	50	4667
2026-01-28 00:09:40.45	236.33	51.36	-40.4	-42.8	13.3	3.80e-06	0	62	0	1350565888	51	5029
2026-01-28 00:09:44.49	234.89	50.20	-39.6	-41.7	14.5	7.00e-07	0	62	0	1363148800	51	4407
2026-01-28 00:09:48.54	233.55	49.04	-40.5	-43.0	13.2	1.98e-05	0	62	0	1375731712	51	5122
2026-01-28 00:09:52.58	232.31	47.90	-41.4	-44.5	11.5	8.77e-04	0	62	0	1388314624	53	5440
2026-01-28 00:09:56.62	231.16	46.77	-40.3	-42.7	13.3	2.13e-05	0	62	0	1400897536	52	4691
2026-01-28 00:10:00.66	230.08	45.66	-41.3	-44.3	11.8	4.33e-04	0	62	0	1414529024	53	5287
2026-01-28 00:10:04.70	229.08	44.58	-40.3	-42.7	13.4	1.75e-05	0	62	0	1427111936	52	4681
2026-01-28 00:10:08.74	228.15	43.51	-40.2	-42.6	13.5	1.83e-05	0	62	0	1439694848	52	4622
2026-01-28 00:10:12.79	227.28	42.46	-40.9	-43.7	12.4	1.02e-04	0	62	0	1452277760	52	5244
2026-01-28 00:10:16.83	226.46	41.43	-41.3	-44.3	11.6	8.64e-04	0	62	0	1464860672	53	5339
2026-01-28 00:10:20.87	225.69	40.43	-40.6	-43.1	13.0	4.57e-05	0	62	0	1477443584	52	4895
2026-01-28 00:10:24.91	224.97	39.45	-40.2	-42.5	13.6	9.90e-06	0	62	0	1490026496	52	4581
2026-01-28 00:10:28.96	224.29	38.49	-40.6	-43.1	13.0	3.28e-05	0	62	0	1502609408	52	4900
2026-01-28 00:10:33.00	223.65	37.55	-40.5	-43.0	13.1	2.89e-05	0	62	0	1515192320	52	4857
2026-01-28 00:10:37.04	223.04	36.63	-39.9	-42.0	14.1	3.00e-06	0	62	0	1527775232	51	4585
2026-01-28 00:10:41.08	222.47	35.74	-40.6	-43.1	13.0	2.67e-05	0	62	0	1540358144	51	5197
2026-01-28 00:10:45.12	221.93	34.87	-40.4	-42.8	13.4	1.29e-05	0	62	0	1552941056	51	4997
2026-01-28 00:10:49.17	221.42	34.01	-40.3	-42.7	13.4	1.98e-05	0	62	0	1565523968	51	4964
2026-01-28 00:10:53.21	220.93	33.18	-39.7	-41.8	14.4	0.00e+00	0	62	0	1578106880	51	4469
2026-01-28 00:10:57.25	220.47	32.37	-39.2	-41.1	15.1	0.00e+00	0	62	0	1590689792	50	4352
2026-01-28 00:11:01.29	220.03	31.58	-39.4	-41.4	14.8	0.00e+00	0	62	0	1603272704	50	4504
2026-01-28 00:11:05.34	219.62	30.80	-39.5	-41.6	14.6	7.00e-07	0	62	0	1615855616	50	4608
2026-01-28 00:11:09.38	219.22	30.05	-39.2	-41.2	15.0	0.00e+00	0	62	0	1628438528	50	4424
2026-01-28 00:11:13.42	218.84	29.31	-38.9	-40.8	15.2	0.00e+00	0	62	0	1641021440	49	4467
2026-01-28 00:11:17.47	218.48	28.59	-39.0	-41.0	15.1	0.00e+00	0	62	0	1653604352	49	4546
2026-01-28 00:11:21.51	218.13	27.89	-38.8	-40.7	15.4	0.00e+00	0	62	0	1666187264	49	4404
2026-01-28 00:11:25.55	217.80	27.20	-38.8	-40.6	15.5	0.00e+00	0	62	0	1679818752	49	4376
2026-01-28 00:11:29.60	217.48	26.53	-38.9	-40.8	15.3	0.00e+00	0	62	0	1692401664	49	4473
2026-01-28 00:11:33.64	217.18	25.87	-38.9	-40.8	15.4	0.00e+00	0	62	0	1704984576	49	4444
2026-01-28 00:11:37.68	216.89	25.23	-38.5	-40.3	15.7	0.00e+00	0	62	0	1717567488	49	4239
2026-01-28 00:11:41.72	216.61	24.61	-38.3	-40.1	16.0	0.00e+00	0	62	0	1730150400	48	4356
2026-01-28 00:11:45.76	216.34	23.99	-38.4	-40.2	15.9	0.00e+00	0	62	0	1742733312	48	4407
2026-01-28 00:11:49.81	216.08	23.39	-38.6	-40.5	15.5	0.00e+00	0	62	0	1755316224	48	4563
2026-01-28 00:11:53.85	215.84	22.81	-38.7	-40.6	15.4	0.00e+00	0	62	0	1767899136	48	4621
2026-01-28 00:11:57.89	215.60	22.23	-38.8	-40.7	15.3	7.00e-07	0	62	0	1780482048	48	4654
2026-01-28 00:12:01.93	215.37	21.67	-38.8	-40.7	15.3	0.00e+00	0	62	0	1793064960	48	4703
2026-01-28 00:12:05.97	215.15	21.12	-38.7	-40.6	15.4	0.00e+00	0	62	0	1805647872	48	4609
2026-01-28 00:12:10.02	214.94	20.58	-38.6	-40.5	15.5	0.00e+00	0	62	0	1818230784	48	4561
2026-01-28 00:12:14.06	214.73	20.06	-38.7	-40.6	15.4	0.00e+00	0	62	0	1830813696	48	4599
2026-01-28 00:12:18.10	214.53	19.54	-38.8	-40.7	15.2	0.00e+00	0	62	0	1843396608	48	4680
2026-01-28 00:12:22.14	214.34	19.03	-38.9	-40.9	15.1	0.00e+00	0	62	0	1855979520	48	4765
2026-01-28 00:12:26.19	214.16	18.53	-39.1	-41.1	14.8	0.00e+00	0	62	0	1868562432	48	4894
2026-01-28 00:12:30.23	213.98	18.05	-39.1	-41.1	14.8	0.00e+00	0	62	0	1881145344	48	4924
2026-01-28 00:12:34.27	213.81	17.57	-39.2	-41.3	14.6	7.00e-07	0	62	0	1893728256	48	4986
2026-01-28 00:12:38.31	213.64	17.10	-39.3	-41.3	14.5	1.50e-06	0	62	0	1906311168	49	4757
2026-01-28 00:12:42.35	213.48	16.64	-39.4	-41.6	14.2	3.00e-06	0	62	0	1918894080	49	4901
2026-01-28 00:12:46.40	213.32	16.18	-39.5	-41.7	14.1	7.00e-07	0	62	0	1931476992	49	4936
2026-01-28 00:12:50.44	213.17	15.74	-39.5	-41.7	14.1	2.20e-06	0	62	0	1945108480	49	4967
2026-01-28 00:12:54.48	213.03	15.30	-39.5	-41.7	14.1	4.50e-06	0	62	0	1956642816	49	4948
2026-01-28 00:12:58.52	212.88	14.87	-39.5	-41.7	14.1	1.50e-06	0	62	0	1970274304	49	4947
2026-01-28 00:13:02.57	212.75	14.45	-39.4	-41.5	14.2	2.20e-06	0	62	0	1982857216	49	4864
2026-01-28 00:13:06.61	212.61	14.04	-39.3	-41.5	14.2	2.20e-06	0	62	0	1995440128	49	4840
2026-01-28 00:13:10.65	212.48	13.63	-39.4	-41.6	14.0	1.50e-06	0	62	0	2008023040	49	4914
2026-01-28 00:13:14.69	212.36	13.23	-39.3	-41.5	14.1	2.20e-06	0	62	0	2020605952	49	4852
2026-01-28 00:13:18.73	212.23	12.83	-39.4	-41.6	14.0	3.00e-06	0	62	0	2033188864	49	4923
2026-01-28 00:13:22.78	212.12	12.44	-39.4	-41.7	13.9	2.20e-06	0	62	0	2045771776	49	4957
2026-01-28 00:13:26.82	212.00	12.06	-39.5	-41.8	13.8	7.60e-06	0	62	0	2058354688	49	4985
2026-01-28 00:13:30.86	211.89	11.68	-39.4	-41.7	13.8	3.80e-06	0	62	0	2070937600	49	4941
2026-01-28 00:13:34.90	211.78	11.31	-39.5	-41.8	13.7	3.80e-06	0	62	0	2083520512	49	4988
2026-01-28 00:13:38.94	211.67	10.94	-39.6	-41.9	13.5	8.30e-06	0	62	0	2096103424	49	5065
2026-01-28 00:13:42.99	211.57	10.58	-39.5	-41.8	13.5	1.22e-05	0	62	0	2108686336	49	5034
2026-01-28 00:13:47.03	211.47	10.23	-39.5	-41.9	13.4	2.13e-05	0	62	0	2121269248	49	5080
2026-01-28 00:13:51.07	211.37	9.88	-39.5	-41.9	13.4	1.83e-05	0	62	0	2133852160	49	5084
2026-01-28 00:13:55.12	211.27	9.53	-39.8	-42.4	12.8	4.73e-05	0	62	0	2146435072	50	5063
2026-01-28 00:13:59.16	211.18	9.19	-40.0	-42.7	12.5	1.18e-04	0	62	0	2159017984	50	5232
2026-01-28 00:14:03.20	211.09	8.85	-40.1	-42.8	12.3	1.33e-04	0	62	0	2171600896	50	5336
2026-01-28 00:14:07.24	211.00	8.52	-40.2	-43.0	12.0	3.15e-04	0	62	0	2184183808	51	5148
2026-01-28 00:14:11.29	210.92	8.19	-40.1	-42.9	12.0	3.65e-04	0	62	0	2196766720	51	5097
2026-01-28 00:14:15.33	210.83	7.87	-44.8	-57.4	3.8	1.49e+00	0	62	104	2205155328	60	15996
2026-01-28 00:14:19.37	210.75	7.55	-45.2	-57.8	3.8	1.49e+00	0	62	104	2205155328	60	16755
2026-01-28 00:14:23.41	210.67	7.23	-45.2	-57.8	3.8	1.49e+00	0	62	104	2205155328	61	15789
2026-01-28 00:14:27.45	210.59	6.92	-45.2	-57.7	3.8	1.49e+00	0	62	104	2205155328	61	15677
2026-01-28 00:14:31.50	210.52	6.61	-45.1	-57.7	3.8	1.49e+00	0	62	104	2205155328	61	15594
2026-01-28 00:14:35.54	210.44	6.31	-45.1	-57.7	3.8	1.49e+00	0	62	104	2205155328	61	15596
2026-01-28 00:14:39.58	210.37	6.00	-45.1	-57.7	3.8	1.49e+00	0	62	104	2205155328	61	15607
2026-01-28 00:14:43.63	210.30	5.71	-45.1	-57.6	3.8	1.49e+00	0	62	104	2205155328	61	15567
2026-01-28 00:14:47.67	210.23	5.41	-45.1	-57.6	3.8	1.49e+00	0	62	104	2205155328	61	15524
2026-01-28 00:14:51.71	210.16	5.12	-45.1	-57.6	3.8	1.49e+00	0	62	104	2205155328	61	15510
2026-01-28 00:14:55.76	210.09	4.83	-45.1	-57.6	3.8	1.49e+00	0	62	104	2205155328	61	15565
2026-01-28 00:14:59.80	210.03	4.55	-45.1	-57.6	3.8	1.49e+00	0	62	104	2205155328	61	15524
2026-01-28 00:15:03.84	209.97	4.26	-45.1	-57.6	3.8	1.49e+00	0	62	104	2205155328	61	15501
2026-01-28 00:15:07.88	209.90	3.98	-45.1	-57.6	3.8	1.49e+00	0	62	104	2205155328	61	15528
2026-01-28 00:15:11.93	209.84	3.71	-45.1	-57.6	3.8	1.49e+00	0	62	104	2205155328	61	15552
2026-01-28 00:15:15.97	209.78	3.43	-45.1	-57.6	3.8	1.49e+00	0	62	104	2205155328	61	15477
2026-01-28 00:15:20.01	209.73	3.16	-45.1	-57.6	3.8	1.49e+00	0	62	104	2205155328	61	15556
2026-01-28 00:15:24.05	209.67	2.89	-45.1	-57.6	3.8	1.49e+00	0	62	104	2205155328	61	15531
2026-01-28 00:15:28.09	209.61	2.63	-45.1	-57.6	3.8	1.49e+00	0	62	104	2205155328	61	15501
2026-01-28 00:15:32.14	209.56	2.36	-45.1	-57.6	3.8	1.49e+00	0	62	104	2205155328	61	15558
2026-01-28 00:15:36.18	209.51	2.10	-45.1	-57.6	3.8	1.49e+00	0	62	104	2205155328	61	15517

#Closed at: 2026-01-28 00:15:38
#Recorded file [2205 MB]: D:/lorett/data/31039_260128_030119.dat