passes_logs/2026/01/28/R2.0S_Moscow/R2.0S_Moscow__20260128_223203_SUOMI_NPP_rec.log

#Pass ID: 20260128_223203_SUOMI NPP
#Satellite: SUOMI NPP
#Configuration: NPP
#almurnet v.1.7.20251203
#Start time: 2026-01-28 22:32:04

#Version: 2.2.20231116
#Station: R2.0S_Moscow
#Location: 37.707566 lon 55.798166 lat
#TLE: 1 37849U 11061A   26027.86188320  .00000172  00000+0  10275-3 0  9990
#TLE: 2 37849  98.7823 329.8005 0002088  41.4184 318.7150 14.19530883738530

#Time	Az	El	Level	Level2	SNR	BER	BlckErr	Temp	State	Recorded	gain1	gain2
2026-01-28 22:32:04.46	23.11	2.05	-42.9	-57.5	3.8	1.49e+00	0	49	0	0	57	19230
2026-01-28 22:32:08.50	23.35	2.28	-42.9	-57.5	3.8	1.49e+00	0	50	104	0	57	19181
2026-01-28 22:32:12.54	23.59	2.52	-42.9	-57.5	3.8	1.49e+00	0	50	104	0	57	19194
2026-01-28 22:32:16.58	23.84	2.75	-42.9	-57.5	3.8	1.49e+00	0	50	104	0	57	19192
2026-01-28 22:32:20.62	24.09	2.99	-42.9	-57.5	3.8	1.49e+00	0	50	104	0	57	19169
2026-01-28 22:32:24.66	24.34	3.23	-42.9	-57.4	3.8	1.49e+00	0	50	104	0	57	19159
2026-01-28 22:32:28.70	24.60	3.47	-42.9	-57.5	3.8	1.49e+00	0	51	104	0	57	19239
2026-01-28 22:32:32.75	24.86	3.72	-42.9	-57.5	3.8	1.49e+00	0	51	104	0	57	19188
2026-01-28 22:32:36.79	25.12	3.96	-42.9	-57.4	3.8	1.49e+00	0	51	104	0	57	19164
2026-01-28 22:32:40.83	25.39	4.21	-42.9	-57.4	3.8	1.49e+00	0	52	104	0	57	19149
2026-01-28 22:32:44.87	25.67	4.46	-42.9	-57.5	3.8	1.49e+00	0	52	104	0	57	19203
2026-01-28 22:32:48.91	25.95	4.71	-42.9	-57.4	3.8	1.49e+00	0	52	104	0	57	19150
2026-01-28 22:32:52.95	26.23	4.96	-42.9	-57.5	3.8	1.49e+00	0	52	104	0	57	19222
2026-01-28 22:32:56.99	26.51	5.22	-42.9	-57.5	3.8	1.49e+00	0	53	104	0	57	19209
2026-01-28 22:33:01.03	26.81	5.47	-42.9	-57.4	3.8	1.49e+00	0	53	104	0	57	19127
2026-01-28 22:33:05.07	27.10	5.73	-42.9	-57.5	3.8	1.49e+00	0	53	104	0	57	19192
2026-01-28 22:33:09.11	27.40	5.99	-42.9	-57.4	3.8	1.49e+00	0	53	104	0	57	19005
2026-01-28 22:33:13.16	27.71	6.25	-42.9	-57.4	3.8	1.49e+00	0	53	104	0	57	19040
2026-01-28 22:33:17.20	28.02	6.52	-42.9	-56.5	3.8	1.49e+00	0	54	104	0	57	17167
2026-01-28 22:33:21.24	28.34	6.79	-42.8	-55.7	3.8	1.49e+00	0	54	104	0	57	15584
2026-01-28 22:33:25.28	28.66	7.05	-42.8	-56.4	3.8	1.49e+00	0	54	104	0	57	17036
2026-01-28 22:33:29.32	28.99	7.32	-42.8	-56.3	3.8	1.49e+00	0	54	104	0	57	16812
2026-01-28 22:33:33.36	29.33	7.60	-41.8	-48.9	7.1	1.80e-01	0	54	0	4194304	55	8032
2026-01-28 22:33:37.40	29.67	7.87	-41.3	-47.1	8.8	3.46e-02	0	54	0	11534336	54	6929
2026-01-28 22:33:41.44	30.01	8.15	-41.6	-46.8	9.2	1.14e+00	0	54	104	17825792	55	6339
2026-01-28 22:33:45.48	30.37	8.43	-41.4	-46.5	9.8	2.36e-02	0	54	0	24117248	54	6485
2026-01-28 22:33:49.52	30.72	8.71	-41.1	-45.6	11.1	1.26e-03	0	55	0	32505856	53	6181
2026-01-28 22:33:53.56	31.09	8.99	-41.3	-45.8	11.1	1.24e-03	0	55	0	39845888	53	6298
2026-01-28 22:33:57.61	31.46	9.28	-41.2	-45.6	11.4	1.08e-03	0	55	0	47185920	53	6133
2026-01-28 22:34:01.65	31.84	9.57	-41.1	-45.2	11.8	5.58e-04	0	55	0	54525952	53	5918
2026-01-28 22:34:05.69	32.23	9.86	-41.0	-44.8	12.4	1.68e-04	0	55	0	62914560	53	5603
2026-01-28 22:34:09.73	32.63	10.15	-41.0	-44.8	12.4	1.11e-04	0	55	0	70254592	53	5610
2026-01-28 22:34:13.76	33.03	10.45	-41.2	-45.2	12.1	2.05e-04	0	55	0	77594624	53	5870
2026-01-28 22:34:17.80	33.44	10.74	-41.4	-45.6	11.8	4.70e-04	0	55	0	84934656	53	6149
2026-01-28 22:34:21.84	33.85	11.04	-41.4	-45.6	11.7	7.30e-04	0	56	0	92274688	53	6160
2026-01-28 22:34:25.88	34.28	11.35	-41.5	-45.6	11.8	3.87e-04	0	56	0	100663296	53	6136
2026-01-28 22:34:29.92	34.71	11.65	-41.5	-45.7	11.7	4.46e-04	0	56	0	108003328	53	6212
2026-01-28 22:34:33.96	35.16	11.96	-41.4	-45.4	12.1	3.51e-04	0	56	0	115343360	53	6013
2026-01-28 22:34:38.00	35.61	12.27	-41.4	-45.3	12.2	2.15e-04	0	56	0	122683392	53	5943
2026-01-28 22:34:42.04	36.07	12.58	-41.2	-44.9	12.7	1.17e-04	0	56	0	131072000	53	5674
2026-01-28 22:34:46.08	36.54	12.89	-41.2	-44.9	12.7	8.16e-05	0	56	0	138412032	53	5667
2026-01-28 22:34:50.13	37.03	13.21	-41.2	-44.9	12.7	8.23e-05	0	56	0	145752064	53	5670
2026-01-28 22:34:54.17	37.52	13.53	-41.1	-44.6	13.1	2.44e-05	0	56	0	153092096	53	5467
2026-01-28 22:34:58.21	38.02	13.85	-41.1	-44.7	13.0	2.05e-05	0	56	0	161480704	53	5553
2026-01-28 22:35:02.25	38.53	14.18	-41.3	-44.9	12.7	8.23e-05	0	56	0	168820736	53	5699
2026-01-28 22:35:06.29	39.05	14.50	-41.5	-45.3	12.3	1.61e-04	0	56	0	176160768	53	5958
2026-01-28 22:35:10.33	39.59	14.83	-41.5	-45.3	12.3	1.55e-04	0	56	0	183500800	53	5978
2026-01-28 22:35:14.37	40.13	15.16	-41.5	-45.3	12.4	1.72e-04	0	57	0	190840832	53	5966
2026-01-28 22:35:18.41	40.69	15.49	-41.3	-44.9	12.8	4.73e-05	0	57	0	199229440	53	5673
2026-01-28 22:35:22.45	41.26	15.83	-41.0	-44.3	13.4	1.75e-05	0	57	0	206569472	53	5326
2026-01-28 22:35:26.49	41.84	16.16	-40.9	-44.2	13.6	9.90e-06	0	57	0	213909504	53	5273
2026-01-28 22:35:30.54	42.44	16.50	-40.7	-43.8	14.0	3.00e-06	0	57	0	221249536	53	4998
2026-01-28 22:35:34.58	43.05	16.84	-40.6	-43.6	14.3	3.00e-06	0	57	0	229638144	53	4879
2026-01-28 22:35:38.62	43.67	17.18	-40.7	-43.8	14.0	1.50e-06	0	57	0	236978176	53	5029
2026-01-28 22:35:42.66	44.31	17.53	-40.9	-44.1	13.7	3.80e-06	0	57	0	244318208	53	5213
2026-01-28 22:35:46.70	44.96	17.87	-40.9	-44.1	13.8	9.10e-06	0	57	0	251658240	53	5214
2026-01-28 22:35:50.74	45.62	18.22	-40.8	-43.8	14.1	2.20e-06	0	57	0	258998272	53	5035
2026-01-28 22:35:54.77	46.30	18.57	-40.5	-43.4	14.5	7.00e-07	0	57	0	267386880	53	4791
2026-01-28 22:35:58.81	46.99	18.91	-40.4	-43.3	14.6	0.00e+00	0	57	0	274726912	52	4999
2026-01-28 22:36:02.85	47.71	19.26	-40.4	-43.3	14.6	1.50e-06	0	57	0	282066944	52	5016
2026-01-28 22:36:06.90	48.43	19.61	-40.6	-43.5	14.4	1.50e-06	0	57	0	289406976	52	5154
2026-01-28 22:36:10.93	49.17	19.96	-40.4	-43.2	14.8	7.00e-07	0	57	0	297795584	52	4942
2026-01-28 22:36:14.97	49.93	20.31	-40.5	-43.3	14.7	1.50e-06	0	57	0	305135616	52	5009
2026-01-28 22:36:19.01	50.71	20.66	-40.3	-43.1	14.9	7.00e-07	0	57	0	312475648	52	4893
2026-01-28 22:36:23.05	51.51	21.01	-40.6	-43.5	14.5	7.00e-07	0	57	0	319815680	52	5114
2026-01-28 22:36:27.09	52.32	21.36	-40.7	-43.6	14.3	0.00e+00	0	57	0	327155712	52	5208
2026-01-28 22:36:31.13	53.15	21.71	-40.6	-43.6	14.4	1.50e-06	0	57	0	335544320	52	5165
2026-01-28 22:36:35.17	54.00	22.06	-40.6	-43.6	14.4	0.00e+00	0	58	0	342884352	52	5191
2026-01-28 22:36:39.21	54.86	22.40	-40.7	-43.6	14.3	0.00e+00	0	57	0	350224384	52	5191
2026-01-28 22:36:43.25	55.75	22.74	-40.7	-43.6	14.4	0.00e+00	0	58	0	357564416	52	5185
2026-01-28 22:36:47.29	56.66	23.08	-40.8	-43.8	14.2	7.00e-07	0	58	0	365953024	52	5309
2026-01-28 22:36:51.33	57.58	23.42	-40.6	-43.4	14.6	0.00e+00	0	58	0	373293056	52	5083
2026-01-28 22:36:55.37	58.53	23.76	-40.7	-43.7	14.4	7.00e-07	0	58	0	380633088	52	5222
2026-01-28 22:36:59.41	59.49	24.09	-41.1	-44.3	13.7	1.06e-05	0	58	0	387973120	52	5632
2026-01-28 22:37:03.41	60.47	24.41	-40.7	-43.7	14.4	0.00e+00	0	58	0	395313152	52	5219
2026-01-28 22:37:07.45	61.47	24.73	-40.6	-43.4	14.6	0.00e+00	0	58	0	403701760	52	5097
2026-01-28 22:37:11.49	62.50	25.05	-40.7	-43.7	14.4	0.00e+00	0	58	0	411041792	52	5244
2026-01-28 22:37:15.53	63.54	25.36	-41.0	-44.1	13.9	3.80e-06	0	58	0	418381824	52	5516
2026-01-28 22:37:19.57	64.61	25.66	-40.8	-43.8	14.3	0.00e+00	0	58	0	425721856	52	5314
2026-01-28 22:37:23.61	65.69	25.96	-41.6	-45.2	12.8	5.26e-05	0	58	0	434110464	53	5872
2026-01-28 22:37:27.65	66.80	26.25	-40.9	-44.0	14.1	4.50e-06	0	58	0	441450496	53	5122
2026-01-28 22:37:31.69	67.92	26.53	-41.6	-45.2	12.8	5.49e-05	0	58	0	448790528	53	5893
2026-01-28 22:37:35.72	69.07	26.80	-41.7	-45.4	12.6	8.23e-05	0	58	0	456130560	54	5674
2026-01-28 22:37:39.77	70.23	27.06	-41.2	-44.4	13.5	8.30e-06	0	58	0	463470592	54	5095
2026-01-28 22:37:43.81	71.41	27.31	-41.4	-44.9	13.1	2.05e-05	0	58	0	471859200	54	5393
2026-01-28 22:37:47.85	72.62	27.55	-41.5	-44.9	13.1	4.80e-05	0	58	0	479199232	54	5376
2026-01-28 22:37:51.89	73.83	27.78	-41.7	-45.4	12.7	2.97e-05	0	58	0	486539264	54	5673
2026-01-28 22:37:55.93	75.07	28.00	-42.4	-46.8	11.3	1.49e-03	0	58	0	493879296	55	6281
2026-01-28 22:37:59.97	76.32	28.21	-42.9	-48.0	10.2	3.84e-03	0	58	0	502267904	56	6822
2026-01-28 22:38:04.01	77.59	28.40	-42.8	-47.5	10.6	5.12e-03	0	58	0	509607936	56	6465
2026-01-28 22:38:08.04	78.87	28.57	-43.0	-48.0	10.2	8.47e-03	0	58	0	516947968	57	6440
2026-01-28 22:38:12.08	80.16	28.74	-42.4	-46.5	11.7	5.66e-04	0	58	0	524288000	56	5769
2026-01-28 22:38:16.12	81.47	28.89	-42.1	-46.0	12.3	4.09e-04	0	58	0	531628032	56	5414
2026-01-28 22:38:20.15	82.79	29.02	-42.2	-46.4	11.7	3.00e-04	0	58	0	540016640	55	6006
2026-01-28 22:38:24.19	84.11	29.14	-41.5	-44.9	13.3	2.05e-05	0	58	0	547356672	54	5359
2026-01-28 22:38:28.23	85.45	29.24	-41.4	-44.7	13.5	1.37e-05	0	58	0	554696704	54	5235
2026-01-28 22:38:32.27	86.80	29.32	-41.3	-44.5	13.6	3.00e-06	0	58	0	562036736	54	5147
2026-01-28 22:38:36.31	88.15	29.39	-41.4	-44.8	13.3	2.82e-05	0	58	0	570425344	54	5298
2026-01-28 22:38:40.35	89.51	29.44	-41.8	-45.4	12.8	4.73e-05	0	58	0	577765376	54	5667
2026-01-28 22:38:44.39	90.87	29.48	-41.3	-44.5	13.7	6.10e-06	0	58	0	585105408	54	5135
2026-01-28 22:38:48.43	92.24	29.49	-42.3	-46.4	11.7	6.06e-04	0	58	0	592445440	55	6047
2026-01-28 22:38:52.47	93.60	29.49	-42.1	-46.1	11.9	3.35e-04	0	58	0	599785472	55	5833
2026-01-28 22:38:56.51	94.96	29.47	-41.5	-44.9	13.2	3.35e-05	0	58	0	608174080	55	5086
2026-01-28 22:39:00.55	96.33	29.44	-42.6	-47.1	11.0	1.72e-03	0	58	0	615514112	55	6544
2026-01-28 22:39:04.58	97.68	29.38	-42.4	-46.7	11.4	7.11e-04	0	58	0	622854144	55	6263
2026-01-28 22:39:08.62	99.04	29.31	-42.2	-46.3	11.9	4.92e-04	0	58	0	630194176	55	5952
2026-01-28 22:39:12.65	100.38	29.23	-43.1	-48.2	10.0	7.89e-03	0	58	0	637534208	57	6603
2026-01-28 22:39:16.69	101.72	29.12	-43.1	-48.1	10.1	6.50e-03	0	59	0	645922816	57	6544
2026-01-28 22:39:20.73	103.05	29.01	-42.9	-47.5	10.7	4.91e-03	0	58	0	653262848	57	6127
2026-01-28 22:39:24.77	104.37	28.87	-43.7	-49.9	8.3	2.17e-02	0	58	0	660602880	57	8008
2026-01-28 22:39:28.81	105.68	28.72	-42.9	-47.5	10.7	3.88e-03	0	58	0	667942912	57	6097
2026-01-28 22:39:32.84	106.97	28.55	-42.4	-46.6	11.7	8.86e-04	0	58	0	676331520	56	5817
2026-01-28 22:39:36.88	108.25	28.37	-42.3	-46.3	12.1	2.43e-04	0	58	0	683671552	56	5604
2026-01-28 22:39:40.92	109.52	28.18	-42.4	-46.5	11.7	5.66e-04	0	58	0	691011584	56	5769
2026-01-28 22:39:44.96	110.77	27.97	-42.2	-46.2	12.1	1.33e-04	0	59	0	698351616	56	5533
2026-01-28 22:39:49.00	112.01	27.75	-41.9	-45.7	12.5	1.11e-04	0	58	0	705691648	55	5554
2026-01-28 22:39:53.04	113.23	27.52	-42.6	-47.1	11.0	1.49e-03	0	59	0	714080256	55	6525
2026-01-28 22:39:57.08	114.43	27.28	-42.5	-46.9	11.1	8.47e-04	0	59	0	721420288	55	6386
2026-01-28 22:40:01.12	115.62	27.02	-43.2	-48.6	9.6	1.66e-02	0	59	0	728760320	57	6884
2026-01-28 22:40:05.16	116.78	26.76	-42.8	-47.4	10.8	1.39e-03	0	58	0	736100352	56	6384
2026-01-28 22:40:09.20	117.93	26.48	-42.7	-47.1	11.2	1.14e-03	0	59	0	744488960	56	6164
2026-01-28 22:40:13.24	119.05	26.20	-42.6	-46.9	11.4	9.70e-04	0	59	0	751828992	56	6027
2026-01-28 22:40:17.28	120.16	25.91	-42.2	-46.2	12.1	3.96e-04	0	59	0	759169024	56	5555
2026-01-28 22:40:21.33	121.25	25.61	-42.3	-46.5	11.8	5.23e-04	0	59	0	766509056	56	5727
2026-01-28 22:40:25.37	122.32	25.30	-42.2	-46.1	12.2	1.56e-04	0	59	0	774897664	56	5471
2026-01-28 22:40:29.40	123.36	24.99	-41.8	-45.4	12.7	1.65e-04	0	59	0	782237696	55	5381
2026-01-28 22:40:33.45	124.39	24.67	-41.6	-45.1	13.1	1.37e-05	0	58	0	789577728	54	5472
2026-01-28 22:40:37.49	125.40	24.35	-41.2	-44.4	13.7	1.06e-05	0	58	0	796917760	53	5368
2026-01-28 22:40:41.53	126.38	24.02	-41.7	-45.4	12.7	8.01e-05	0	59	0	804257792	54	5695
2026-01-28 22:40:45.57	127.35	23.68	-41.2	-44.4	13.7	5.30e-06	0	59	0	812646400	53	5353
2026-01-28 22:40:49.61	128.29	23.35	-42.0	-45.9	12.1	2.02e-04	0	59	0	819986432	54	6057
2026-01-28 22:40:53.65	129.22	23.01	-40.8	-43.9	14.1	1.52e-05	0	59	0	827326464	52	5356
2026-01-28 22:40:57.69	130.12	22.66	-40.7	-43.6	14.5	1.50e-06	0	59	0	834666496	52	5175
2026-01-28 22:41:01.73	131.01	22.32	-40.5	-43.2	14.9	1.29e-05	0	59	0	843055104	51	5253
2026-01-28 22:41:05.76	131.88	21.97	-42.5	-47.3	10.3	2.61e-03	0	59	0	850395136	52	7953
2026-01-28 22:41:09.80	132.73	21.62	-41.5	-45.1	13.0	7.01e-05	0	59	0	857735168	54	5482
2026-01-28 22:41:13.84	133.56	21.27	-41.3	-45.0	13.0	6.17e-05	0	59	0	865075200	53	5738
2026-01-28 22:41:17.88	134.37	20.92	-40.5	-43.3	14.7	7.00e-07	0	59	0	872415232	52	5023
2026-01-28 22:41:21.92	135.16	20.57	-40.8	-43.9	14.1	1.50e-06	0	59	0	880803840	52	5380
2026-01-28 22:41:25.96	135.94	20.21	-40.8	-43.9	14.1	3.80e-06	0	59	0	888143872	52	5352
2026-01-28 22:41:30.00	136.70	19.86	-41.3	-44.8	13.1	1.90e-05	0	59	0	895483904	53	5607
2026-01-28 22:41:34.03	137.44	19.51	-41.0	-44.1	13.8	6.80e-06	0	59	0	902823936	52	5518
2026-01-28 22:41:38.07	138.17	19.16	-40.3	-43.0	15.0	0.00e+00	0	59	0	911212544	51	5141
2026-01-28 22:41:42.11	138.88	18.80	-40.5	-43.6	14.3	0.00e+00	0	59	0	918552576	51	5498
2026-01-28 22:41:46.15	139.57	18.45	-40.5	-43.3	14.6	0.00e+00	0	59	0	925892608	51	5340
2026-01-28 22:41:50.18	140.25	18.10	-40.6	-43.5	14.4	0.00e+00	0	59	0	933232640	51	5457
2026-01-28 22:41:54.22	140.91	17.75	-40.6	-43.7	14.2	1.50e-06	0	59	0	940572672	52	5229
2026-01-28 22:41:58.26	141.56	17.41	-40.5	-43.3	14.6	1.50e-06	0	59	0	948961280	51	5337
2026-01-28 22:42:02.30	142.20	17.06	-40.4	-43.2	14.7	0.00e+00	0	58	0	956301312	51	5229
2026-01-28 22:42:06.34	142.82	16.72	-40.6	-43.6	14.3	7.00e-07	0	59	0	963641344	51	5471
2026-01-28 22:42:10.38	143.42	16.37	-40.4	-43.3	14.5	1.50e-06	0	59	0	970981376	52	5016
2026-01-28 22:42:14.42	144.02	16.03	-40.5	-43.5	14.4	0.00e+00	0	59	0	979369984	51	5421
2026-01-28 22:42:18.47	144.60	15.69	-41.2	-44.7	13.1	9.10e-06	0	59	0	986710016	52	5921
2026-01-28 22:42:22.50	145.17	15.36	-41.5	-45.2	12.4	2.05e-04	0	58	0	994050048	53	5917
2026-01-28 22:42:26.54	145.72	15.02	-41.0	-44.4	13.3	1.75e-05	0	59	0	1001390080	53	5394
2026-01-28 22:42:30.58	146.27	14.69	-41.0	-44.5	13.2	2.89e-05	0	59	0	1008730112	52	5725
2026-01-28 22:42:34.62	146.80	14.36	-41.6	-45.6	12.1	2.41e-04	0	59	0	1017118720	53	6152
2026-01-28 22:42:38.66	147.32	14.03	-41.9	-46.1	11.6	7.60e-04	0	59	0	1024458752	54	6164
2026-01-28 22:42:42.70	147.83	13.70	-41.9	-46.2	11.5	5.61e-04	0	59	0	1031798784	54	6208
2026-01-28 22:42:46.74	148.33	13.38	-41.6	-45.7	11.9	5.32e-04	0	59	0	1039138816	54	5864
2026-01-28 22:42:50.78	148.82	13.06	-41.7	-45.8	11.8	3.56e-04	0	59	0	1047527424	54	5928
2026-01-28 22:42:54.83	149.30	12.74	-41.1	-44.7	12.9	7.40e-05	0	59	0	1054867456	54	5219
2026-01-28 22:42:58.87	149.77	12.42	-41.0	-44.6	13.0	2.82e-05	0	59	0	1062207488	53	5474
2026-01-28 22:43:02.91	150.23	12.11	-40.9	-44.2	13.3	1.83e-05	0	59	0	1069547520	53	5261
2026-01-28 22:43:06.95	150.68	11.80	-41.4	-45.3	12.2	8.16e-05	0	59	0	1076887552	53	5971
2026-01-28 22:43:10.99	151.12	11.49	-41.6	-45.8	11.7	5.77e-04	0	58	0	1085276160	54	5950
2026-01-28 22:43:15.03	151.55	11.18	-41.7	-46.1	11.4	8.67e-04	0	59	0	1092616192	54	6144
2026-01-28 22:43:19.07	151.98	10.88	-41.5	-45.6	11.8	3.79e-04	0	59	0	1099956224	54	5798
2026-01-28 22:43:23.11	152.39	10.57	-41.7	-46.0	11.3	1.02e-03	0	59	0	1107296256	54	6113
2026-01-28 22:43:27.15	152.80	10.27	-41.7	-46.0	11.2	1.50e-03	0	59	0	1115684864	54	6128
2026-01-28 22:43:31.19	153.20	9.98	-41.8	-46.5	10.7	2.51e-03	0	59	0	1123024896	54	6485
2026-01-28 22:43:35.23	153.59	9.68	-41.5	-45.8	11.4	1.07e-03	0	59	0	1130364928	54	5979
2026-01-28 22:43:39.27	153.98	9.39	-41.4	-45.5	11.7	5.48e-04	0	59	0	1137704960	54	5774
2026-01-28 22:43:43.32	154.35	9.10	-41.1	-44.9	12.3	3.09e-04	0	59	0	1145044992	54	5377
2026-01-28 22:43:47.36	154.72	8.81	-41.1	-45.1	12.0	2.94e-04	0	59	0	1153433600	54	5522
2026-01-28 22:43:51.39	155.08	8.53	-41.1	-45.2	11.9	4.55e-04	0	59	0	1160773632	54	5556
2026-01-28 22:43:55.44	155.44	8.24	-41.1	-45.2	11.7	7.94e-04	0	59	0	1168113664	54	5585
2026-01-28 22:43:59.47	155.79	7.96	-44.4	-58.9	3.8	1.49e+00	0	59	104	1174405120	59	20101
2026-01-28 22:44:03.52	156.13	7.68	-45.3	-60.1	3.8	1.49e+00	0	59	104	1174405120	61	20584
2026-01-28 22:44:07.56	156.47	7.41	-45.4	-60.2	3.8	1.49e+00	0	59	104	1174405120	61	20887
2026-01-28 22:44:11.60	156.80	7.13	-45.1	-60.0	3.8	1.49e+00	0	59	104	1174405120	61	20422
2026-01-28 22:44:15.64	157.13	6.86	-45.0	-59.9	3.8	1.49e+00	0	59	104	1174405120	61	20192
2026-01-28 22:44:19.69	157.44	6.59	-45.0	-59.9	3.8	1.49e+00	0	59	104	1174405120	61	20143
2026-01-28 22:44:23.73	157.76	6.32	-45.0	-59.9	3.8	1.49e+00	0	59	104	1174405120	61	20090
2026-01-28 22:44:27.77	158.07	6.05	-45.0	-59.8	3.8	1.49e+00	0	59	104	1174405120	61	20028
2026-01-28 22:44:31.81	158.37	5.79	-45.0	-59.8	3.8	1.49e+00	0	59	104	1174405120	61	19949
2026-01-28 22:44:35.85	158.67	5.53	-45.0	-59.8	3.8	1.49e+00	0	59	104	1174405120	61	20019
2026-01-28 22:44:39.89	158.96	5.27	-45.0	-59.8	3.8	1.49e+00	0	59	104	1174405120	61	19978
2026-01-28 22:44:43.93	159.25	5.01	-45.0	-59.8	3.8	1.49e+00	0	59	104	1174405120	61	19956
2026-01-28 22:44:47.97	159.53	4.75	-45.0	-59.8	3.8	1.49e+00	0	59	104	1174405120	61	19999
2026-01-28 22:44:52.02	159.81	4.50	-45.0	-59.8	3.8	1.49e+00	0	59	104	1174405120	61	19962
2026-01-28 22:44:56.06	160.08	4.25	-45.0	-59.8	3.8	1.49e+00	0	59	104	1174405120	61	19930
2026-01-28 22:45:00.10	160.35	4.00	-45.0	-59.8	3.8	1.49e+00	0	59	104	1174405120	61	19989
2026-01-28 22:45:04.14	160.62	3.75	-45.0	-59.8	3.8	1.49e+00	0	59	104	1174405120	61	20031
2026-01-28 22:45:08.18	160.88	3.50	-44.9	-59.8	3.8	1.49e+00	0	59	104	1174405120	61	19935
2026-01-28 22:45:12.22	161.13	3.26	-44.9	-59.8	3.8	1.49e+00	0	59	104	1174405120	61	19965
2026-01-28 22:45:16.27	161.38	3.01	-44.9	-59.8	3.8	1.49e+00	0	59	104	1174405120	61	19889
2026-01-28 22:45:20.31	161.63	2.77	-44.9	-59.8	3.8	1.49e+00	0	59	104	1174405120	61	19989
2026-01-28 22:45:24.35	161.88	2.53	-44.9	-59.7	3.8	1.49e+00	0	59	104	1174405120	61	19817
2026-01-28 22:45:28.39	162.12	2.29	-44.9	-59.7	3.8	1.49e+00	0	59	104	1174405120	61	19836
2026-01-28 22:45:32.43	162.36	2.05	-44.9	-59.8	3.8	1.49e+00	0	59	104	1174405120	61	19846

#Closed at: 2026-01-28 22:45:33
#Recorded file [1174 MB]: D:/lorett/data/31039_260129_013204.dat