passes_logs/2026/01/28/R2.0S_Moscow/R2.0S_Moscow__20260128_045043_FENGYUN_3E_rec.log

#Pass ID: 20260128_045043_FENGYUN 3E
#Satellite: FENGYUN 3E
#Configuration: FENGYUN 3E
#almurnet v.1.7.20251203
#Start time: 2026-01-28 04:50:45

#Version: 2.2.20231116
#Station: R2.0S_Moscow
#Location: 37.707566 lon 55.798166 lat
#TLE: 1 49008U 21062A   26027.61944472  .00000309  00000+0  16619-3 0  9993
#TLE: 2 49008  98.7500  32.6009 0002501 114.4803 245.6635 14.19888604236631

#Time	Az	El	Level	Level2	SNR	BER	BlckErr	Temp	State	Recorded	gain1	gain2
2026-01-28 04:50:45.65	12.56	2.12	-40.5	-51.3	3.8	8.46e-01	0	53	0	0	52	11846
2026-01-28 04:50:49.68	12.42	2.38	-40.5	-51.3	3.8	8.45e-01	0	53	104	0	52	11857
2026-01-28 04:50:53.72	12.28	2.63	-40.5	-51.3	3.8	8.47e-01	0	53	104	0	52	11894
2026-01-28 04:50:57.77	12.13	2.89	-40.5	-51.3	3.8	8.45e-01	0	54	104	0	52	11866
2026-01-28 04:51:01.81	11.98	3.14	-40.6	-51.3	3.8	8.45e-01	0	54	104	0	51	12647
2026-01-28 04:51:05.85	11.83	3.40	-40.6	-51.4	3.8	8.46e-01	0	54	104	0	51	12672
2026-01-28 04:51:09.89	11.67	3.67	-40.6	-51.3	3.8	8.46e-01	0	55	104	0	51	12656
2026-01-28 04:51:13.93	11.52	3.93	-40.6	-51.3	3.8	8.46e-01	0	55	104	0	51	12664
2026-01-28 04:51:17.97	11.35	4.20	-40.6	-51.4	3.8	8.46e-01	0	55	104	0	51	12678
2026-01-28 04:51:22.02	11.19	4.47	-40.5	-51.3	3.8	8.46e-01	0	56	104	0	51	12580
2026-01-28 04:51:26.06	11.02	4.74	-40.5	-51.3	3.8	8.47e-01	0	56	104	0	51	12556
2026-01-28 04:51:30.10	10.85	5.01	-40.5	-51.3	3.8	8.45e-01	0	56	104	0	51	12606
2026-01-28 04:51:34.14	10.67	5.29	-40.5	-51.3	3.8	8.47e-01	0	56	104	0	51	12537
2026-01-28 04:51:38.18	10.49	5.57	-40.6	-51.3	3.8	8.45e-01	0	56	104	0	51	12613
2026-01-28 04:51:42.22	10.31	5.85	-40.6	-51.3	3.8	8.46e-01	0	57	104	0	51	12621
2026-01-28 04:51:46.27	10.12	6.14	-40.5	-51.3	3.8	8.46e-01	0	57	104	0	51	12654
2026-01-28 04:51:50.31	9.93	6.43	-40.5	-51.3	3.8	8.46e-01	0	57	104	0	51	12573
2026-01-28 04:51:54.35	9.74	6.72	-40.5	-51.3	3.8	8.46e-01	0	57	104	0	51	12591
2026-01-28 04:51:58.39	9.54	7.01	-40.6	-51.3	3.8	8.45e-01	0	57	104	0	51	12619
2026-01-28 04:52:02.43	9.33	7.31	-40.5	-51.3	3.8	8.46e-01	0	58	104	0	51	12651
2026-01-28 04:52:06.48	9.12	7.61	-40.5	-51.3	3.8	8.45e-01	0	58	104	0	51	12597
2026-01-28 04:52:10.52	8.91	7.91	-40.5	-51.3	3.8	8.45e-01	0	58	104	0	51	12657
2026-01-28 04:52:14.56	8.69	8.22	-40.6	-51.4	3.8	8.46e-01	0	58	104	0	51	12758
2026-01-28 04:52:18.60	8.47	8.53	-40.6	-51.3	3.8	8.46e-01	0	58	104	0	51	12657
2026-01-28 04:52:22.64	8.24	8.84	-40.5	-51.3	3.8	8.46e-01	0	58	104	0	51	12572
2026-01-28 04:52:26.67	8.01	9.16	-40.5	-51.2	3.8	8.47e-01	0	58	104	0	51	12493
2026-01-28 04:52:30.72	7.77	9.48	-40.4	-51.2	3.8	8.47e-01	0	59	104	0	51	12448
2026-01-28 04:52:34.75	7.52	9.80	-40.5	-51.2	3.8	8.46e-01	0	59	104	0	51	12508
2026-01-28 04:52:38.80	7.27	10.13	-40.3	-51.1	3.8	8.47e-01	0	59	104	0	51	12248
2026-01-28 04:52:42.83	7.01	10.46	-41.2	-52.0	3.8	8.46e-01	0	59	104	0	51	13578
2026-01-28 04:52:46.87	6.75	10.80	-40.5	-51.3	3.8	8.45e-01	0	59	104	0	51	12609
2026-01-28 04:52:50.91	6.48	11.13	-41.8	-50.7	3.8	8.46e-01	0	59	104	0	53	10498
2026-01-28 04:52:54.94	6.21	11.48	-42.0	-49.5	4.3	8.34e-01	0	59	0	0	53	9131
2026-01-28 04:52:58.98	5.92	11.83	-40.9	-45.7	6.5	2.64e-01	0	59	0	8388608	52	6239
2026-01-28 04:53:03.02	5.63	12.18	-42.4	-49.0	4.9	3.56e-01	0	60	0	28311552	54	8120
2026-01-28 04:53:07.06	5.33	12.53	-36.7	-38.7	13.5	1.02e-05	0	60	0	56623104	44	4403
2026-01-28 04:53:11.10	5.03	12.89	-37.1	-39.2	12.9	2.40e-05	0	60	0	85983232	43	4979
2026-01-28 04:53:15.14	4.71	13.26	-37.9	-40.2	12.2	2.48e-04	0	60	0	115343360	45	4954
2026-01-28 04:53:19.19	4.39	13.63	-36.7	-38.4	14.6	0.00e+00	0	60	0	143654912	44	4256
2026-01-28 04:53:23.23	4.06	14.01	-37.1	-38.8	14.5	0.00e+00	0	60	0	173015040	44	4490
2026-01-28 04:53:27.27	3.72	14.38	-37.5	-39.2	14.2	0.00e+00	0	60	0	202375168	44	4702
2026-01-28 04:53:31.31	3.37	14.77	-37.1	-38.8	14.9	0.00e+00	0	60	0	231735296	44	4456
2026-01-28 04:53:35.36	3.01	15.16	-37.1	-38.7	15.3	1.10e-06	0	60	0	261095424	44	4400
2026-01-28 04:53:39.40	2.65	15.56	-37.4	-39.0	15.2	0.00e+00	0	60	0	289406976	44	4586
2026-01-28 04:53:43.44	2.27	15.96	-37.3	-38.8	15.5	0.00e+00	0	60	0	318767104	45	4238
2026-01-28 04:53:47.47	1.88	16.36	-37.2	-38.7	15.7	0.00e+00	0	60	0	348127232	45	4163
2026-01-28 04:53:51.52	1.48	16.77	-36.7	-38.2	16.3	0.00e+00	0	60	0	377487360	44	4148
2026-01-28 04:53:55.56	1.06	17.19	-36.9	-38.3	16.1	0.00e+00	0	60	0	406847488	44	4234
2026-01-28 04:53:59.59	0.64	17.61	-36.6	-37.9	16.6	0.00e+00	0	61	0	436207616	44	4050
2026-01-28 04:54:03.63	0.20	18.04	-36.6	-37.9	16.6	0.00e+00	0	61	0	464519168	44	4047
2026-01-28 04:54:07.67	359.75	18.47	-36.3	-37.7	16.8	0.00e+00	0	61	0	493879296	42	4404
2026-01-28 04:54:11.71	359.29	18.91	-36.1	-37.5	17.0	0.00e+00	0	61	0	523239424	42	4305
2026-01-28 04:54:15.75	358.81	19.35	-35.8	-37.1	17.4	0.00e+00	0	61	0	552599552	42	4106
2026-01-28 04:54:19.80	358.32	19.81	-35.7	-37.0	17.5	0.00e+00	0	61	0	581959680	41	4292
2026-01-28 04:54:23.84	357.81	20.26	-36.2	-37.5	16.7	0.00e+00	0	61	0	610271232	41	4578
2026-01-28 04:54:27.88	357.29	20.72	-35.9	-37.2	16.9	0.00e+00	0	61	0	639631360	41	4412
2026-01-28 04:54:31.92	356.75	21.19	-35.9	-37.2	17.0	0.00e+00	0	61	0	668991488	41	4437
2026-01-28 04:54:35.95	356.20	21.67	-35.5	-36.7	17.4	0.00e+00	0	61	0	698351616	41	4192
2026-01-28 04:54:40.00	355.62	22.15	-35.5	-36.8	17.3	0.00e+00	0	61	0	727711744	41	4216
2026-01-28 04:54:44.04	355.03	22.64	-36.1	-37.4	16.8	0.00e+00	0	61	0	757071872	41	4516
2026-01-28 04:54:48.08	354.41	23.13	-35.9	-37.2	17.3	0.00e+00	0	61	0	785383424	41	4394
2026-01-28 04:54:52.12	353.78	23.63	-35.8	-37.1	17.4	0.00e+00	0	61	0	814743552	41	4365
2026-01-28 04:54:56.16	353.13	24.13	-35.7	-36.9	17.7	0.00e+00	0	61	0	844103680	41	4286
2026-01-28 04:55:00.20	352.45	24.64	-35.6	-36.8	17.9	0.00e+00	0	61	0	873463808	41	4222
2026-01-28 04:55:04.24	351.75	25.16	-35.4	-36.6	18.1	0.00e+00	0	61	0	902823936	41	4131
2026-01-28 04:55:08.28	351.03	25.68	-35.4	-36.6	18.1	0.00e+00	0	61	0	931135488	41	4119
2026-01-28 04:55:12.32	350.28	26.21	-35.7	-36.9	18.0	0.00e+00	0	61	0	960495616	41	4261
2026-01-28 04:55:16.36	349.51	26.74	-35.7	-37.0	17.9	0.00e+00	0	61	0	989855744	41	4292
2026-01-28 04:55:20.40	348.71	27.27	-35.7	-36.9	18.0	0.00e+00	0	62	0	1019215872	41	4273
2026-01-28 04:55:24.44	347.88	27.81	-35.3	-36.4	18.5	0.00e+00	0	61	0	1048576000	41	4034
2026-01-28 04:55:28.48	347.02	28.36	-35.3	-36.5	18.4	0.00e+00	0	62	0	1077936128	41	4074
2026-01-28 04:55:32.52	346.14	28.90	-35.2	-36.3	18.6	0.00e+00	0	61	0	1106247680	41	3975
2026-01-28 04:55:36.57	345.22	29.45	-35.0	-36.2	18.8	0.00e+00	0	61	0	1135607808	40	4150
2026-01-28 04:55:40.61	344.27	30.00	-34.9	-36.0	19.0	0.00e+00	0	62	0	1164967936	40	4084
2026-01-28 04:55:44.65	343.28	30.56	-34.9	-36.0	19.0	0.00e+00	0	62	0	1194328064	40	4080
2026-01-28 04:55:48.69	342.26	31.11	-35.0	-36.2	18.9	0.00e+00	0	61	0	1223688192	40	4147
2026-01-28 04:55:52.73	341.21	31.67	-35.2	-36.3	18.7	0.00e+00	0	62	0	1251999744	40	4211
2026-01-28 04:55:56.77	340.12	32.22	-35.3	-36.4	18.6	0.00e+00	0	62	0	1281359872	40	4260
2026-01-28 04:56:00.81	338.99	32.77	-35.2	-36.3	18.7	0.00e+00	0	62	0	1310720000	40	4222
2026-01-28 04:56:04.86	337.81	33.32	-35.2	-36.3	18.8	0.00e+00	0	62	0	1340080128	40	4207
2026-01-28 04:56:08.90	336.60	33.86	-35.0	-36.1	19.0	0.00e+00	0	62	0	1369440256	40	4134
2026-01-28 04:56:12.94	335.35	34.40	-34.6	-35.6	19.5	0.00e+00	0	62	0	1398800384	39	4124
2026-01-28 04:56:16.98	334.06	34.93	-34.8	-35.9	19.2	0.00e+00	0	62	0	1427111936	39	4270
2026-01-28 04:56:21.02	332.72	35.45	-34.9	-36.0	19.1	0.00e+00	0	62	0	1456472064	39	4321
2026-01-28 04:56:25.06	331.34	35.97	-35.1	-36.2	19.0	0.00e+00	0	62	0	1485832192	39	4412
2026-01-28 04:56:29.10	329.92	36.47	-35.4	-36.5	18.6	0.00e+00	0	62	0	1515192320	40	4311
2026-01-28 04:56:33.14	328.45	36.96	-35.3	-36.4	18.7	0.00e+00	0	62	0	1544552448	40	4270
2026-01-28 04:56:37.18	326.93	37.43	-35.0	-36.1	19.0	0.00e+00	0	62	0	1572864000	40	4129
2026-01-28 04:56:41.22	325.38	37.88	-35.0	-36.1	19.0	0.00e+00	0	62	0	1602224128	40	4115
2026-01-28 04:56:45.26	323.78	38.32	-35.4	-36.6	18.6	0.00e+00	0	62	0	1631584256	40	4351
2026-01-28 04:56:49.30	322.13	38.74	-35.5	-36.6	18.5	0.00e+00	0	62	0	1660944384	40	4377
2026-01-28 04:56:53.33	320.45	39.13	-35.0	-36.1	19.0	0.00e+00	0	62	0	1690304512	40	4128
2026-01-28 04:56:57.38	318.72	39.50	-35.2	-36.3	18.8	0.00e+00	0	62	0	1719664640	40	4228
2026-01-28 04:57:01.42	316.96	39.84	-35.5	-36.7	18.5	0.00e+00	0	62	0	1747976192	40	4402
2026-01-28 04:57:05.46	315.15	40.16	-35.3	-36.4	18.7	0.00e+00	0	62	0	1777336320	40	4263
2026-01-28 04:57:09.50	313.32	40.44	-35.0	-36.1	19.1	0.00e+00	0	62	0	1806696448	40	4102
2026-01-28 04:57:13.54	311.45	40.69	-35.1	-36.2	18.9	0.00e+00	0	62	0	1836056576	40	4172
2026-01-28 04:57:17.58	309.56	40.91	-35.4	-36.5	18.6	0.00e+00	0	62	0	1865416704	40	4330
2026-01-28 04:57:21.62	307.64	41.10	-35.1	-36.2	18.9	0.00e+00	0	62	0	1893728256	40	4176
2026-01-28 04:57:25.67	305.70	41.24	-34.9	-36.0	19.1	0.00e+00	0	62	0	1923088384	40	4077
2026-01-28 04:57:29.71	303.74	41.36	-34.8	-35.8	19.3	0.00e+00	0	62	0	1952448512	40	3998
2026-01-28 04:57:33.75	301.78	41.43	-34.9	-36.0	19.1	0.00e+00	0	62	0	1981808640	40	4054
2026-01-28 04:57:37.79	299.81	41.46	-35.1	-36.2	18.9	0.00e+00	0	62	0	2011168768	40	4183
2026-01-28 04:57:41.83	297.83	41.46	-34.8	-35.8	19.2	0.00e+00	0	62	0	2040528896	40	3993
2026-01-28 04:57:45.87	295.86	41.42	-35.0	-36.1	19.0	0.00e+00	0	62	0	2068840448	40	4129
2026-01-28 04:57:49.91	293.90	41.34	-34.8	-35.9	19.2	0.00e+00	0	62	0	2098200576	40	4025
2026-01-28 04:57:53.95	291.94	41.22	-35.0	-36.1	18.9	0.00e+00	0	62	0	2127560704	40	4102
2026-01-28 04:57:58.00	290.00	41.07	-34.8	-35.9	19.1	0.00e+00	0	62	0	2156920832	40	4042
2026-01-28 04:58:02.04	288.09	40.88	-34.9	-36.0	19.1	0.00e+00	0	62	0	2186280960	40	4058
2026-01-28 04:58:06.09	286.19	40.65	-34.7	-35.8	19.3	0.00e+00	0	62	0	2214592512	40	3962
2026-01-28 04:58:10.12	284.33	40.39	-34.6	-35.7	19.4	0.00e+00	0	62	0	2243952640	40	3946
2026-01-28 04:58:14.16	282.50	40.10	-34.7	-35.8	19.3	0.00e+00	0	62	0	2273312768	40	3959
2026-01-28 04:58:18.20	280.70	39.78	-34.8	-35.9	19.2	0.00e+00	0	62	0	2302672896	40	4040
2026-01-28 04:58:22.25	278.93	39.43	-34.8	-35.9	19.1	0.00e+00	0	62	0	2332033024	40	4035
2026-01-28 04:58:26.29	277.21	39.06	-34.8	-35.9	19.1	0.00e+00	0	62	0	2361393152	40	4047
2026-01-28 04:58:30.33	275.53	38.66	-34.9	-36.0	19.0	0.00e+00	0	62	0	2389704704	40	4092
2026-01-28 04:58:34.37	273.89	38.24	-34.9	-36.0	19.0	0.00e+00	0	62	0	2419064832	40	4090
2026-01-28 04:58:38.41	272.29	37.80	-34.9	-36.0	19.1	0.00e+00	0	62	0	2448424960	40	4070
2026-01-28 04:58:42.45	270.74	37.34	-34.8	-35.9	19.2	0.00e+00	0	62	0	2477785088	40	4009
2026-01-28 04:58:46.49	269.23	36.86	-34.9	-36.1	19.0	0.00e+00	0	62	0	2507145216	40	4100
2026-01-28 04:58:50.54	267.76	36.36	-34.8	-35.9	19.2	0.00e+00	0	62	0	2536505344	40	4008
2026-01-28 04:58:54.58	266.34	35.86	-34.9	-36.0	19.0	0.00e+00	0	62	0	2564816896	40	4070
2026-01-28 04:58:58.62	264.96	35.34	-34.7	-35.8	19.3	0.00e+00	0	62	0	2594177024	39	4198
2026-01-28 04:59:02.66	263.63	34.82	-34.6	-35.7	19.4	0.00e+00	0	62	0	2623537152	39	4158
2026-01-28 04:59:06.71	262.33	34.28	-34.8	-35.9	19.1	0.00e+00	0	62	0	2652897280	39	4271
2026-01-28 04:59:10.75	261.08	33.74	-34.7	-35.8	19.3	0.00e+00	0	62	0	2682257408	39	4211
2026-01-28 04:59:14.79	259.88	33.19	-34.7	-35.8	19.3	0.00e+00	0	62	0	2710568960	39	4207
2026-01-28 04:59:18.83	258.71	32.64	-34.7	-35.8	19.2	0.00e+00	0	62	0	2739929088	39	4208
2026-01-28 04:59:22.88	257.58	32.09	-34.7	-35.8	19.2	0.00e+00	0	62	0	2769289216	39	4216
2026-01-28 04:59:26.91	256.49	31.53	-34.9	-36.0	19.0	0.00e+00	0	62	0	2798649344	39	4315
2026-01-28 04:59:30.95	255.44	30.97	-34.8	-35.9	19.1	0.00e+00	0	62	0	2828009472	39	4268
2026-01-28 04:59:35.00	254.42	30.42	-35.0	-36.1	18.9	0.00e+00	0	62	0	2857369600	39	4347
2026-01-28 04:59:39.04	253.44	29.86	-35.2	-36.3	18.7	0.00e+00	0	62	0	2885681152	39	4492
2026-01-28 04:59:43.08	252.49	29.31	-35.1	-36.2	18.7	0.00e+00	0	62	0	2915041280	40	4155
2026-01-28 04:59:47.12	251.57	28.76	-34.9	-36.0	18.9	0.00e+00	0	62	0	2944401408	40	4067
2026-01-28 04:59:51.15	250.69	28.21	-35.1	-36.2	18.7	0.00e+00	0	62	0	2973761536	40	4171
2026-01-28 04:59:55.20	249.83	27.66	-35.0	-36.1	18.8	0.00e+00	0	62	0	3003121664	40	4109
2026-01-28 04:59:59.24	249.01	27.12	-35.2	-36.4	18.5	0.00e+00	0	62	0	3031433216	40	4243
2026-01-28 05:00:03.28	248.21	26.58	-35.1	-36.2	18.7	0.00e+00	0	62	0	3060793344	40	4158
2026-01-28 05:00:07.32	247.44	26.05	-35.0	-36.1	18.8	0.00e+00	0	62	0	3090153472	40	4116
2026-01-28 05:00:11.37	246.69	25.52	-35.3	-36.5	18.3	0.00e+00	0	62	0	3119513600	40	4308
2026-01-28 05:00:15.41	245.97	25.00	-34.9	-36.0	18.8	0.00e+00	0	62	0	3148873728	40	4087
2026-01-28 05:00:19.45	245.27	24.48	-35.0	-36.2	18.7	0.00e+00	0	62	0	3178233856	40	4155
2026-01-28 05:00:23.49	244.59	23.97	-35.4	-36.6	18.3	0.00e+00	0	62	0	3206545408	40	4371
2026-01-28 05:00:27.53	243.94	23.47	-35.2	-36.4	18.4	0.00e+00	0	62	0	3235905536	40	4266
2026-01-28 05:00:31.57	243.31	22.97	-35.1	-36.3	18.6	0.00e+00	0	62	0	3265265664	40	4194
2026-01-28 05:00:35.62	242.69	22.47	-35.1	-36.2	18.6	0.00e+00	0	62	0	3294625792	40	4182
2026-01-28 05:00:39.66	242.10	21.98	-35.4	-36.5	18.3	0.00e+00	0	62	0	3323985920	40	4337
2026-01-28 05:00:43.70	241.52	21.50	-35.4	-36.5	18.2	0.00e+00	0	62	0	3353346048	40	4339
2026-01-28 05:00:47.74	240.97	21.02	-35.1	-36.2	18.5	0.00e+00	0	62	0	3381657600	40	4192
2026-01-28 05:00:51.78	240.43	20.55	-35.7	-36.9	17.9	0.00e+00	0	62	0	3411017728	40	4508
2026-01-28 05:00:55.83	239.90	20.09	-36.1	-37.4	17.4	0.00e+00	0	62	0	3440377856	41	4519
2026-01-28 05:00:59.87	239.39	19.63	-36.2	-37.4	17.3	0.00e+00	0	62	0	3469737984	42	4278
2026-01-28 05:01:03.91	238.90	19.18	-36.3	-37.6	17.1	0.00e+00	0	62	0	3499098112	42	4379
2026-01-28 05:01:07.95	238.42	18.74	-36.4	-37.8	17.0	0.00e+00	0	62	0	3528458240	42	4443
2026-01-28 05:01:11.99	237.96	18.30	-36.4	-37.7	17.0	0.00e+00	0	62	0	3556769792	42	4417
2026-01-28 05:01:16.04	237.51	17.86	-36.3	-37.6	17.1	0.00e+00	0	62	0	3586129920	42	4390
2026-01-28 05:01:20.08	237.07	17.43	-36.4	-37.7	17.0	0.00e+00	0	62	0	3615490048	42	4419
2026-01-28 05:01:24.12	236.64	17.01	-36.5	-37.9	16.8	0.00e+00	0	62	0	3644850176	42	4495
2026-01-28 05:01:28.16	236.23	16.59	-36.7	-38.0	16.6	0.00e+00	0	62	0	3674210304	43	4332
2026-01-28 05:01:32.20	235.83	16.18	-36.8	-38.3	16.4	0.00e+00	0	62	0	3703570432	43	4443
2026-01-28 05:01:36.25	235.44	15.77	-37.0	-38.4	16.2	0.00e+00	0	62	0	3731881984	43	4516
2026-01-28 05:01:40.29	235.06	15.37	-37.1	-38.5	16.0	0.00e+00	0	62	0	3761242112	43	4598
2026-01-28 05:01:44.33	234.69	14.98	-37.0	-38.5	16.1	0.00e+00	0	62	0	3790602240	43	4557
2026-01-28 05:01:48.38	234.32	14.59	-37.2	-38.6	15.9	0.00e+00	0	62	0	3819962368	43	4641
2026-01-28 05:01:52.42	233.97	14.20	-37.5	-39.0	15.7	0.00e+00	0	62	0	3849322496	44	4551
2026-01-28 05:01:56.46	233.63	13.82	-37.7	-39.3	15.3	0.00e+00	0	62	0	3878682624	45	4478
2026-01-28 05:02:00.50	233.30	13.45	-38.0	-39.6	15.0	0.00e+00	0	62	0	3906994176	45	4618
2026-01-28 05:02:04.54	232.98	13.08	-37.9	-39.6	15.1	0.00e+00	0	62	0	3936354304	45	4619
2026-01-28 05:02:08.59	232.66	12.71	-37.9	-39.5	15.2	0.00e+00	0	62	0	3965714432	45	4550
2026-01-28 05:02:12.63	232.35	12.35	-37.6	-39.2	15.4	0.00e+00	0	62	0	3995074560	45	4413
2026-01-28 05:02:16.67	232.05	11.99	-37.7	-39.2	15.4	0.00e+00	0	62	0	4024434688	45	4417
2026-01-28 05:02:20.72	231.76	11.64	-37.8	-39.4	15.2	0.00e+00	0	62	0	4053794816	45	4506
2026-01-28 05:02:24.76	231.47	11.29	-37.8	-39.4	15.1	1.10e-06	0	62	0	4082106368	45	4541
2026-01-28 05:02:28.80	231.19	10.95	-37.9	-39.5	15.0	0.00e+00	0	62	0	4111466496	45	4594
2026-01-28 05:02:32.84	230.92	10.61	-38.1	-39.8	14.7	0.00e+00	0	62	0	4140826624	45	4737
2026-01-28 05:02:36.89	230.65	10.27	-38.2	-39.9	14.6	0.00e+00	0	62	0	4170186752	45	4777
2026-01-28 05:02:40.93	230.39	9.94	-38.3	-40.1	14.3	0.00e+00	0	62	0	4199546880	46	4618
2026-01-28 05:02:44.97	230.14	9.61	-38.4	-40.3	14.2	1.10e-06	0	62	0	4227858432	46	4706
2026-01-28 05:02:49.02	229.89	9.29	-38.7	-40.5	13.8	2.20e-06	0	62	0	4257218560	46	4865
2026-01-28 05:02:53.05	229.65	8.97	-38.7	-40.6	13.8	3.40e-06	0	62	0	4286578688	46	4874
2026-01-28 05:02:57.09	229.41	8.65	-38.6	-40.5	13.7	2.20e-06	0	62	0	4315938816	47	4581
2026-01-28 05:03:01.13	229.18	8.34	-38.6	-40.5	13.7	4.50e-06	0	62	0	4345298944	47	4578
2026-01-28 05:03:05.17	228.96	8.03	-38.6	-40.5	13.7	3.40e-06	0	62	0	4374659072	47	4558
2026-01-28 05:03:09.21	228.73	7.72	-45.4	-56.7	3.8	8.46e-01	0	62	104	4378853376	60	14038
2026-01-28 05:03:13.26	228.52	7.42	-45.6	-57.0	3.8	8.46e-01	0	62	104	4378853376	60	14408
2026-01-28 05:03:17.30	228.31	7.12	-45.5	-57.0	3.8	8.46e-01	0	62	104	4378853376	60	14424
2026-01-28 05:03:21.35	228.10	6.82	-45.6	-57.0	3.8	8.47e-01	0	62	104	4378853376	60	14505
2026-01-28 05:03:25.39	227.89	6.53	-45.5	-56.9	3.8	8.46e-01	0	62	104	4378853376	60	14285
2026-01-28 05:03:29.43	227.70	6.23	-45.5	-56.9	3.8	8.47e-01	0	62	104	4378853376	60	14310
2026-01-28 05:03:33.47	227.50	5.95	-45.5	-56.9	3.8	8.46e-01	0	62	104	4378853376	60	14282
2026-01-28 05:03:37.51	227.31	5.66	-45.5	-56.9	3.8	8.47e-01	0	62	104	4378853376	60	14273
2026-01-28 05:03:41.55	227.12	5.38	-45.5	-56.9	3.8	8.46e-01	0	62	104	4378853376	60	14246
2026-01-28 05:03:45.59	226.94	5.10	-45.5	-56.9	3.8	8.45e-01	0	62	104	4378853376	60	14265
2026-01-28 05:03:49.63	226.76	4.82	-45.5	-56.9	3.8	8.47e-01	0	62	104	4378853376	60	14256
2026-01-28 05:03:53.68	226.58	4.55	-45.5	-56.9	3.8	8.46e-01	0	63	104	4378853376	60	14278
2026-01-28 05:03:57.72	226.41	4.27	-45.5	-56.9	3.8	8.47e-01	0	62	104	4378853376	60	14303
2026-01-28 05:04:01.76	226.24	4.01	-45.5	-56.9	3.8	8.47e-01	0	62	104	4378853376	60	14256
2026-01-28 05:04:05.80	226.08	3.74	-45.5	-56.8	3.8	8.46e-01	0	62	104	4378853376	60	14190
2026-01-28 05:04:09.84	225.91	3.47	-45.5	-56.9	3.8	8.46e-01	0	62	104	4378853376	60	14252
2026-01-28 05:04:13.89	225.75	3.21	-45.5	-56.9	3.8	8.46e-01	0	62	104	4378853376	60	14225
2026-01-28 05:04:17.93	225.60	2.95	-45.5	-56.8	3.8	8.46e-01	0	62	104	4378853376	60	14194
2026-01-28 05:04:21.97	225.44	2.69	-45.4	-56.9	3.8	8.46e-01	0	62	104	4378853376	60	14217
2026-01-28 05:04:26.01	225.29	2.44	-45.4	-56.8	3.8	8.47e-01	0	62	104	4378853376	60	14162
2026-01-28 05:04:30.06	225.14	2.18	-45.4	-56.8	3.8	8.47e-01	0	63	104	4378853376	60	14177

#Closed at: 2026-01-28 05:04:33
#Recorded file [4378 MB]: D:/lorett/data/31039_260128_075045.dat