passes_logs/2026/01/28/R2.0S_Moscow/R2.0S_Moscow__20260128_081314_NOAA_21_JPSS-2_rec.log

#Pass ID: 20260128_081314_NOAA 21 (JPSS-2)
#Satellite: NOAA 21 (JPSS-2)
#Configuration: NOAA-21
#almurnet v.1.7.20251203
#Start time: 2026-01-28 08:13:16

#Version: 2.2.20231116
#Station: R2.0S_Moscow
#Location: 37.707566 lon 55.798166 lat
#TLE: 1 54234U 22150A   26027.55906748  .00000170  00000+0  10132-3 0  9996
#TLE: 2 54234  98.7510 328.3076 0000860 204.4692 155.6443 14.19540154166599

#Time	Az	El	Level	Level2	SNR	BER	BlckErr	Temp	State	Recorded	gain1	gain2
2026-01-28 08:13:16.16	110.54	2.12	-16.9	-43.6	3.4	1.51e+00	0	51	0	0	8	65440
2026-01-28 08:13:19.19	110.33	2.29	-22.2	-48.3	3.8	1.51e+00	0	51	104	0	22	49902
2026-01-28 08:13:22.22	110.12	2.46	-22.7	-44.9	3.8	1.51e+00	0	51	104	0	17	45357
2026-01-28 08:13:25.24	109.91	2.63	-22.1	-44.2	3.6	1.51e+00	0	52	104	0	13	52767
2026-01-28 08:13:28.27	109.69	2.80	-30.6	-47.3	4.0	1.51e+00	0	52	104	0	21	47316
2026-01-28 08:13:31.31	109.47	2.98	-26.1	-47.4	3.8	1.51e+00	0	52	104	0	18	56727
2026-01-28 08:13:34.34	109.25	3.15	-15.5	-43.1	3.4	1.52e+00	0	52	104	0	7	65535
2026-01-28 08:13:37.37	109.03	3.32	-28.9	-48.0	4.2	1.50e+00	0	52	104	0	27	36423
2026-01-28 08:13:40.41	108.80	3.50	-23.9	-45.3	3.8	1.51e+00	0	53	104	0	18	44926
2026-01-28 08:13:43.44	108.57	3.67	-27.0	-47.7	3.9	1.50e+00	0	53	104	0	27	35073
2026-01-28 08:13:46.47	108.34	3.85	-21.9	-45.4	4.0	1.51e+00	0	53	104	0	16	50890
2026-01-28 08:13:49.50	108.10	4.03	-18.0	-43.1	3.8	1.50e+00	0	53	104	0	18	34614
2026-01-28 08:13:52.53	107.86	4.21	-30.1	-48.2	4.1	1.51e+00	0	54	104	0	24	43931
2026-01-28 08:13:55.56	107.62	4.38	-20.9	-42.1	4.3	1.50e+00	0	54	104	0	32	13765
2026-01-28 08:13:58.59	107.38	4.56	-32.5	-50.7	4.2	1.50e+00	0	54	104	0	37	27980
2026-01-28 08:14:01.63	107.13	4.74	-27.2	-49.3	4.3	1.50e+00	0	54	104	0	34	28168
2026-01-28 08:14:04.66	106.88	4.92	-33.6	-51.1	3.6	1.50e+00	0	54	104	0	25	57922
2026-01-28 08:14:07.69	106.62	5.10	-20.2	-40.7	4.5	1.50e+00	0	55	104	0	29	14034
2026-01-28 08:14:10.71	106.37	5.29	-31.0	-49.7	4.1	1.50e+00	0	54	104	0	31	34917
2026-01-28 08:14:13.75	106.11	5.47	-24.9	-48.0	3.9	1.50e+00	0	55	104	0	29	32242
2026-01-28 08:14:16.78	105.84	5.65	-20.8	-44.2	4.2	1.51e+00	0	55	104	0	19	37007
2026-01-28 08:14:19.81	105.57	5.84	-24.0	-48.5	3.2	1.50e+00	0	55	104	0	24	45795
2026-01-28 08:14:22.84	105.30	6.02	-24.2	-45.3	3.9	1.50e+00	0	55	104	0	19	42260
2026-01-28 08:14:25.87	105.03	6.21	-32.6	-50.7	4.1	1.50e+00	0	55	104	0	38	26168
2026-01-28 08:14:28.90	104.75	6.39	-31.6	-50.8	4.1	1.50e+00	0	55	104	0	34	33607
2026-01-28 08:14:31.93	104.47	6.58	-20.6	-42.4	3.7	1.50e+00	0	56	104	0	9	53588
2026-01-28 08:14:34.97	104.18	6.77	-25.8	-47.7	4.0	1.50e+00	0	55	104	0	30	29665
2026-01-28 08:14:38.00	103.89	6.95	-33.7	-51.8	4.2	1.50e+00	0	56	104	0	37	31472
2026-01-28 08:14:41.03	103.60	7.14	-26.9	-47.1	3.6	1.50e+00	0	56	104	0	23	40995
2026-01-28 08:14:44.06	103.30	7.33	-25.5	-46.9	3.9	1.50e+00	0	56	104	0	27	31973
2026-01-28 08:14:47.09	103.00	7.52	-25.1	-46.2	3.9	1.50e+00	0	56	104	0	21	41458
2026-01-28 08:14:50.13	102.70	7.71	-19.7	-43.7	3.7	1.47e+00	0	56	104	0	15	44320
2026-01-28 08:14:53.16	102.39	7.91	-24.3	-41.6	4.0	1.19e+00	0	56	104	0	18	29115
2026-01-28 08:14:56.19	102.07	8.10	-34.8	-47.0	4.1	1.27e+00	0	56	104	0	35	20481
2026-01-28 08:14:59.22	101.76	8.29	-30.0	-47.0	3.8	1.49e+00	0	56	104	0	33	23003
2026-01-28 08:15:02.25	101.44	8.48	-28.9	-46.6	4.0	1.50e+00	0	57	104	0	31	24618
2026-01-28 08:15:05.28	101.11	8.68	-25.2	-42.6	3.9	1.50e+00	0	57	104	0	6	65535
2026-01-28 08:15:08.31	100.78	8.87	-27.3	-48.2	3.9	1.50e+00	0	57	104	0	26	39363
2026-01-28 08:15:11.34	100.44	9.07	-18.6	-41.6	3.9	1.49e+00	0	57	104	0	12	41035
2026-01-28 08:15:14.37	100.10	9.26	-19.6	-43.3	3.8	1.51e+00	0	57	104	0	9	59517
2026-01-28 08:15:17.40	99.76	9.46	-23.0	-43.9	4.2	1.50e+00	0	57	104	0	15	45114
2026-01-28 08:15:20.43	99.41	9.66	-20.8	-44.3	4.0	1.50e+00	0	57	104	0	17	42023
2026-01-28 08:15:23.46	99.06	9.85	-21.6	-42.8	4.3	1.50e+00	0	57	104	0	22	26619
2026-01-28 08:15:26.49	98.70	10.05	-28.9	-41.6	4.4	1.48e+00	0	57	104	0	11	43764
2026-01-28 08:15:29.52	98.33	10.25	-22.0	-40.2	4.3	1.50e+00	0	57	104	0	12	35025
2026-01-28 08:15:32.54	97.96	10.45	-30.3	-42.9	4.4	1.46e+00	0	57	104	0	24	24036
2026-01-28 08:15:35.57	97.59	10.65	-22.6	-39.8	5.9	4.56e-01	10	58	0	1048576	20	21139
2026-01-28 08:15:38.60	97.21	10.85	-33.5	-41.5	9.0	2.16e-01	0	58	0	4194304	35	10791
2026-01-28 08:15:41.63	96.83	11.05	-34.6	-41.9	9.8	1.20e-01	0	58	0	12582912	33	12694
2026-01-28 08:15:44.66	96.44	11.25	-30.9	-42.0	10.0	4.56e-02	0	58	0	20971520	38	9637
2026-01-28 08:15:47.69	96.04	11.45	-35.0	-41.9	8.3	3.57e-02	0	58	0	31457280	42	7585
2026-01-28 08:15:50.73	95.64	11.65	-30.4	-41.0	9.5	1.04e-02	0	58	0	40894464	34	10819
2026-01-28 08:15:53.76	95.23	11.85	-38.5	-41.8	12.3	7.19e-04	0	58	0	50331648	47	5636
2026-01-28 08:15:56.79	94.82	12.05	-38.8	-41.6	12.9	9.00e-05	0	58	0	59768832	48	5196
2026-01-28 08:15:59.82	94.40	12.25	-39.1	-41.6	12.9	6.71e-05	0	58	0	69206016	48	5214
2026-01-28 08:16:02.85	93.98	12.46	-38.7	-41.3	13.4	1.60e-05	0	58	0	78643200	48	5033
2026-01-28 08:16:05.88	93.55	12.66	-39.1	-41.6	13.2	1.98e-05	0	58	0	88080384	48	5194
2026-01-28 08:16:08.91	93.11	12.86	-39.2	-41.7	13.1	3.20e-05	0	58	0	97517568	49	4941
2026-01-28 08:16:11.94	92.67	13.06	-39.2	-41.8	12.9	6.10e-05	0	58	0	106954752	49	4995
2026-01-28 08:16:14.98	92.22	13.26	-39.0	-41.6	13.0	2.89e-05	0	58	0	116391936	49	4906
2026-01-28 08:16:18.00	91.77	13.47	-39.0	-41.6	13.0	4.50e-05	0	58	0	125829120	49	4899
2026-01-28 08:16:21.03	91.31	13.67	-39.0	-41.6	13.0	5.34e-05	0	58	0	135266304	49	4897
2026-01-28 08:16:24.07	90.84	13.87	-38.7	-41.0	13.5	1.06e-05	0	58	0	144703488	49	4594
2026-01-28 08:16:27.10	90.36	14.07	-38.8	-41.2	13.3	1.90e-05	0	58	0	154140672	49	4692
2026-01-28 08:16:30.13	89.88	14.27	-38.4	-40.7	13.6	5.30e-06	0	58	0	163577856	48	4698
2026-01-28 08:16:33.16	89.40	14.47	-38.8	-41.4	12.8	5.18e-05	0	59	0	173015040	48	5081
2026-01-28 08:16:36.19	88.90	14.67	-39.3	-42.2	12.0	3.62e-04	0	58	0	182452224	49	5246
2026-01-28 08:16:39.22	88.40	14.87	-39.4	-42.4	11.6	7.48e-04	0	58	0	191889408	49	5376
2026-01-28 08:16:42.26	87.90	15.07	-39.6	-43.0	10.7	3.00e-03	0	59	0	201326592	49	5768
2026-01-28 08:16:45.29	87.38	15.27	-39.4	-43.0	10.3	5.39e-03	0	58	0	210763776	49	5764
2026-01-28 08:16:48.32	86.86	15.47	-39.7	-43.8	9.2	2.02e-02	0	59	0	220200960	49	6343
2026-01-28 08:16:51.35	86.33	15.66	-39.9	-44.1	9.0	2.43e-02	0	59	0	229638144	50	6151
2026-01-28 08:16:54.38	85.80	15.86	-40.1	-44.5	8.5	4.15e-02	0	59	0	239075328	50	6454
2026-01-28 08:16:57.40	85.26	16.06	-39.9	-44.2	8.7	3.58e-02	0	59	0	248512512	50	6273
2026-01-28 08:17:00.44	84.71	16.25	-39.8	-43.4	10.2	6.87e-03	0	59	0	257949696	50	5682
2026-01-28 08:17:03.47	84.15	16.44	-39.8	-43.0	11.2	1.99e-03	0	59	0	267386880	50	5416
2026-01-28 08:17:06.50	83.59	16.63	-39.9	-42.9	11.6	6.71e-04	0	59	0	276824064	50	5397
2026-01-28 08:17:09.53	83.02	16.82	-39.8	-42.9	11.6	7.54e-04	0	59	0	287309824	50	5379
2026-01-28 08:17:12.56	82.44	17.01	-39.5	-42.4	12.0	3.48e-04	0	59	0	295698432	50	5088
2026-01-28 08:17:15.59	81.86	17.20	-39.6	-42.5	12.0	2.78e-04	0	59	0	306184192	50	5131
2026-01-28 08:17:18.62	81.26	17.38	-39.6	-42.6	11.7	5.30e-04	0	59	0	315621376	50	5164
2026-01-28 08:17:21.65	80.66	17.57	-39.6	-43.2	10.3	4.89e-03	0	59	0	325058560	50	5546
2026-01-28 08:17:24.68	80.06	17.75	-39.7	-44.0	8.8	2.96e-02	0	59	0	334495744	50	6099
2026-01-28 08:17:27.71	79.44	17.93	-39.9	-44.6	8.1	5.87e-02	0	59	0	343932928	50	6497
2026-01-28 08:17:30.75	78.82	18.11	-39.8	-44.1	8.8	3.49e-02	0	59	0	353370112	50	6155
2026-01-28 08:17:33.78	78.19	18.28	-39.5	-43.0	10.4	4.98e-03	0	59	0	362807296	50	5419
2026-01-28 08:17:36.81	77.55	18.45	-39.3	-42.4	11.3	1.33e-03	0	59	0	372244480	50	5077
2026-01-28 08:17:39.84	76.91	18.62	-39.3	-42.4	11.2	1.40e-03	0	59	0	381681664	50	5099
2026-01-28 08:17:42.88	76.26	18.79	-39.2	-42.4	11.1	1.50e-03	0	59	0	391118848	50	5052
2026-01-28 08:17:45.91	75.60	18.96	-39.2	-42.4	11.1	1.76e-03	0	59	0	400556032	50	5083
2026-01-28 08:17:48.94	74.93	19.12	-39.2	-42.4	11.1	1.66e-03	0	59	0	409993216	50	5079
2026-01-28 08:17:51.97	74.26	19.28	-39.3	-42.2	11.8	5.58e-04	0	60	0	419430400	50	4944
2026-01-28 08:17:55.00	73.58	19.43	-39.4	-42.1	12.2	2.43e-04	0	60	0	428867584	50	4922
2026-01-28 08:17:58.03	72.90	19.59	-39.1	-41.7	12.6	9.68e-05	0	59	0	438304768	50	4702
2026-01-28 08:18:01.06	72.20	19.74	-39.0	-41.6	12.8	6.33e-05	0	59	0	447741952	49	4878
2026-01-28 08:18:04.09	71.50	19.88	-38.9	-41.2	13.5	1.37e-05	0	59	0	457179136	49	4676
2026-01-28 08:18:07.13	70.80	20.02	-38.7	-40.8	14.3	1.50e-06	0	59	0	466616320	49	4488
2026-01-28 08:18:10.16	70.08	20.16	-38.5	-40.5	14.9	0.00e+00	0	59	0	476053504	49	4304
2026-01-28 08:18:13.19	69.37	20.30	-38.5	-40.4	15.1	0.00e+00	0	59	0	485490688	48	4529
2026-01-28 08:18:16.22	68.64	20.43	-38.4	-40.2	15.4	0.00e+00	0	59	0	494927872	48	4441
2026-01-28 08:18:19.25	67.91	20.55	-38.3	-40.2	15.5	0.00e+00	0	59	0	504365056	48	4407
2026-01-28 08:18:22.29	67.17	20.67	-38.3	-40.2	15.6	0.00e+00	0	59	0	513802240	48	4394
2026-01-28 08:18:25.32	66.43	20.79	-38.2	-40.0	15.7	0.00e+00	0	59	0	523239424	48	4325
2026-01-28 08:18:28.35	65.68	20.90	-38.4	-40.2	15.6	0.00e+00	0	60	0	532676608	48	4412
2026-01-28 08:18:31.38	64.92	21.01	-38.4	-40.3	15.5	0.00e+00	0	59	0	542113792	48	4452
2026-01-28 08:18:34.41	64.17	21.11	-38.4	-40.3	15.5	0.00e+00	0	59	0	551550976	48	4463
2026-01-28 08:18:37.45	63.40	21.21	-38.6	-40.6	15.3	0.00e+00	0	59	0	560988160	48	4604
2026-01-28 08:18:40.48	62.63	21.30	-38.6	-40.6	15.3	0.00e+00	0	59	0	571473920	48	4603
2026-01-28 08:18:43.51	61.86	21.39	-38.5	-40.3	15.5	0.00e+00	0	59	0	580911104	48	4481
2026-01-28 08:18:46.55	61.08	21.47	-38.4	-40.2	15.6	0.00e+00	0	60	0	590348288	48	4410
2026-01-28 08:18:49.58	60.30	21.55	-38.4	-40.2	15.6	0.00e+00	0	60	0	599785472	48	4430
2026-01-28 08:18:52.61	59.51	21.62	-38.4	-40.3	15.5	0.00e+00	0	59	0	609222656	48	4460
2026-01-28 08:18:55.64	58.72	21.69	-38.3	-40.1	15.7	0.00e+00	0	60	0	618659840	48	4373
2026-01-28 08:18:58.67	57.93	21.75	-38.4	-40.3	15.6	0.00e+00	0	59	0	628097024	48	4444
2026-01-28 08:19:01.69	57.14	21.80	-38.6	-40.4	15.4	0.00e+00	0	60	0	637534208	48	4541
2026-01-28 08:19:04.72	56.34	21.85	-38.7	-40.6	15.3	0.00e+00	0	60	0	646971392	48	4605
2026-01-28 08:19:07.75	55.54	21.89	-38.3	-40.1	15.8	0.00e+00	0	59	0	656408576	48	4345
2026-01-28 08:19:10.79	54.74	21.93	-38.3	-40.1	15.7	0.00e+00	0	60	0	665845760	48	4383
2026-01-28 08:19:13.81	53.94	21.96	-38.5	-40.4	15.5	0.00e+00	0	59	0	675282944	48	4509
2026-01-28 08:19:16.84	53.13	21.99	-38.6	-40.5	15.3	0.00e+00	0	60	0	684720128	48	4570
2026-01-28 08:19:19.87	52.33	22.00	-38.5	-40.4	15.5	0.00e+00	0	60	0	694157312	48	4520
2026-01-28 08:19:22.90	51.52	22.02	-38.5	-40.3	15.6	0.00e+00	0	60	0	703594496	48	4464
2026-01-28 08:19:25.93	50.71	22.02	-38.6	-40.4	15.5	0.00e+00	0	60	0	713031680	48	4531
2026-01-28 08:19:28.97	49.90	22.03	-38.6	-40.4	15.5	0.00e+00	0	60	0	722468864	48	4536
2026-01-28 08:19:32.00	49.10	22.02	-38.5	-40.3	15.6	0.00e+00	0	60	0	731906048	48	4481
2026-01-28 08:19:35.03	48.29	22.01	-38.7	-40.7	15.3	0.00e+00	0	60	0	741343232	48	4652
2026-01-28 08:19:38.06	47.49	21.99	-38.8	-40.7	15.2	0.00e+00	0	60	0	750780416	48	4684
2026-01-28 08:19:41.09	46.68	21.97	-38.6	-40.5	15.4	0.00e+00	0	60	0	760217600	48	4571
2026-01-28 08:19:44.12	45.88	21.94	-38.6	-40.5	15.4	0.00e+00	0	60	0	769654784	48	4571
2026-01-28 08:19:47.16	45.07	21.90	-38.3	-40.1	15.8	0.00e+00	0	60	0	779091968	48	4364
2026-01-28 08:19:50.19	44.27	21.86	-38.5	-40.4	15.6	0.00e+00	0	60	0	788529152	48	4502
2026-01-28 08:19:53.22	43.48	21.82	-38.7	-40.6	15.4	0.00e+00	0	60	0	797966336	48	4603
2026-01-28 08:19:56.25	42.68	21.76	-38.5	-40.3	15.6	0.00e+00	0	60	0	807403520	48	4491
2026-01-28 08:19:59.28	41.89	21.70	-38.4	-40.2	15.7	0.00e+00	0	60	0	816840704	48	4420
2026-01-28 08:20:02.31	41.10	21.64	-38.3	-40.1	15.8	0.00e+00	0	60	0	826277888	48	4365
2026-01-28 08:20:05.35	40.32	21.57	-38.3	-40.0	15.9	0.00e+00	0	60	0	835715072	48	4326
2026-01-28 08:20:08.37	39.54	21.50	-38.5	-40.2	15.7	0.00e+00	0	60	0	846200832	48	4440
2026-01-28 08:20:11.41	38.76	21.41	-38.6	-40.5	15.4	0.00e+00	0	60	0	855638016	48	4556
2026-01-28 08:20:14.44	37.99	21.33	-38.7	-40.5	15.4	0.00e+00	0	60	0	865075200	48	4590
2026-01-28 08:20:17.47	37.22	21.24	-38.7	-40.5	15.4	0.00e+00	0	60	0	874512384	48	4596
2026-01-28 08:20:20.50	36.45	21.14	-38.7	-40.5	15.4	0.00e+00	0	60	0	883949568	48	4596
2026-01-28 08:20:23.53	35.69	21.04	-38.5	-40.3	15.6	0.00e+00	0	60	0	893386752	48	4480
2026-01-28 08:20:26.56	34.94	20.93	-38.6	-40.4	15.5	0.00e+00	0	60	0	902823936	48	4520
2026-01-28 08:20:29.60	34.19	20.82	-38.6	-40.5	15.4	0.00e+00	0	60	0	912261120	48	4571
2026-01-28 08:20:32.63	33.45	20.71	-38.8	-40.7	15.2	0.00e+00	0	60	0	921698304	48	4690
2026-01-28 08:20:35.66	32.71	20.59	-38.8	-40.7	15.3	0.00e+00	0	60	0	931135488	48	4665
2026-01-28 08:20:38.69	31.98	20.46	-38.7	-40.6	15.3	0.00e+00	0	60	0	940572672	48	4641
2026-01-28 08:20:41.73	31.25	20.34	-38.7	-40.6	15.3	0.00e+00	0	60	0	950009856	48	4612
2026-01-28 08:20:44.76	30.53	20.20	-38.5	-40.3	15.6	0.00e+00	0	60	0	959447040	48	4469
2026-01-28 08:20:47.79	29.82	20.07	-38.6	-40.4	15.5	0.00e+00	0	60	0	968884224	48	4514
2026-01-28 08:20:50.82	29.12	19.93	-38.8	-40.8	15.1	0.00e+00	0	60	0	978321408	48	4709
2026-01-28 08:20:53.85	28.42	19.78	-39.0	-41.0	14.9	7.00e-07	0	60	0	987758592	48	4838
2026-01-28 08:20:56.88	27.72	19.63	-39.0	-41.0	14.9	7.00e-07	0	60	0	997195776	48	4834
2026-01-28 08:20:59.91	27.04	19.48	-38.9	-40.9	15.0	0.00e+00	0	60	0	1006632960	48	4782
2026-01-28 08:21:02.94	26.36	19.33	-38.9	-40.9	15.0	0.00e+00	0	60	0	1016070144	48	4766
2026-01-28 08:21:05.97	25.69	19.17	-39.1	-41.2	14.7	7.00e-07	0	60	0	1025507328	48	4955
2026-01-28 08:21:09.00	25.02	19.01	-39.0	-41.0	14.9	0.00e+00	0	60	0	1034944512	48	4821
2026-01-28 08:21:12.04	24.36	18.85	-38.8	-40.8	15.0	0.00e+00	0	60	0	1044381696	48	4713
2026-01-28 08:21:15.07	23.71	18.68	-38.8	-40.8	15.0	0.00e+00	0	60	0	1053818880	48	4724
2026-01-28 08:21:18.10	23.07	18.51	-38.9	-40.9	14.9	0.00e+00	0	60	0	1063256064	48	4809
2026-01-28 08:21:21.13	22.44	18.34	-38.7	-40.7	15.2	0.00e+00	0	60	0	1072693248	48	4655
2026-01-28 08:21:24.16	21.81	18.17	-38.9	-40.9	14.9	0.00e+00	0	60	0	1082130432	48	4784
2026-01-28 08:21:27.19	21.19	17.99	-38.9	-40.9	14.8	0.00e+00	0	60	0	1091567616	48	4812
2026-01-28 08:21:30.22	20.57	17.81	-38.8	-40.7	15.1	1.50e-06	0	60	0	1101004800	48	4673
2026-01-28 08:21:33.25	19.97	17.63	-38.6	-40.6	15.2	0.00e+00	0	60	0	1110441984	48	4606
2026-01-28 08:21:36.28	19.37	17.45	-38.7	-40.7	15.1	0.00e+00	0	60	0	1119879168	48	4665
2026-01-28 08:21:39.31	18.78	17.27	-38.8	-40.8	14.9	0.00e+00	0	60	0	1130364928	48	4750
2026-01-28 08:21:42.34	18.19	17.08	-38.9	-40.9	14.9	0.00e+00	0	60	0	1139802112	48	4780
2026-01-28 08:21:45.38	17.61	16.89	-39.1	-41.2	14.5	0.00e+00	0	60	0	1149239296	48	4964
2026-01-28 08:21:48.41	17.04	16.70	-39.2	-41.3	14.4	7.00e-07	0	60	0	1158676480	49	4747
2026-01-28 08:21:51.44	16.48	16.51	-39.2	-41.4	14.3	0.00e+00	0	60	0	1168113664	49	4765
2026-01-28 08:21:54.47	15.93	16.32	-39.0	-41.0	14.7	0.00e+00	0	60	0	1177550848	49	4577
2026-01-28 08:21:57.50	15.38	16.13	-39.1	-41.2	14.4	7.00e-07	0	60	0	1186988032	49	4703
2026-01-28 08:22:00.53	14.84	15.93	-39.2	-41.4	14.2	1.50e-06	0	60	0	1196425216	49	4796
2026-01-28 08:22:03.55	14.30	15.74	-39.0	-41.1	14.5	1.50e-06	0	60	0	1205862400	49	4644
2026-01-28 08:22:06.58	13.78	15.54	-39.1	-41.2	14.4	0.00e+00	0	60	0	1215299584	49	4676
2026-01-28 08:22:09.61	13.26	15.35	-39.2	-41.4	14.2	2.20e-06	0	60	0	1224736768	49	4781
2026-01-28 08:22:12.65	12.74	15.15	-39.4	-41.6	14.0	2.20e-06	0	60	0	1234173952	49	4914
2026-01-28 08:22:15.68	12.24	14.95	-39.4	-41.7	13.8	8.30e-06	0	60	0	1243611136	49	4960
2026-01-28 08:22:18.71	11.74	14.75	-39.2	-41.5	14.0	4.50e-06	0	60	0	1253048320	49	4830
2026-01-28 08:22:21.74	11.25	14.55	-39.1	-41.3	14.1	3.80e-06	0	60	0	1262485504	49	4742
2026-01-28 08:22:24.77	10.76	14.35	-39.1	-41.4	14.1	0.00e+00	0	60	0	1271922688	49	4767
2026-01-28 08:22:27.80	10.28	14.15	-39.1	-41.3	14.1	3.00e-06	0	60	0	1281359872	49	4742
2026-01-28 08:22:30.83	9.81	13.95	-39.1	-41.3	14.1	3.80e-06	0	60	0	1290797056	49	4721
2026-01-28 08:22:33.86	9.34	13.75	-38.9	-41.1	14.1	1.50e-06	0	60	0	1300234240	49	4616
2026-01-28 08:22:36.89	8.88	13.55	-39.2	-41.5	13.6	1.37e-05	0	60	0	1309671424	49	4870
2026-01-28 08:22:39.92	8.43	13.35	-38.8	-41.1	13.7	5.30e-06	0	60	0	1319108608	49	4626
2026-01-28 08:22:42.95	7.98	13.15	-39.1	-41.7	12.8	3.66e-05	0	60	0	1328545792	49	4939
2026-01-28 08:22:45.98	7.54	12.95	-39.2	-42.0	12.2	2.12e-04	0	60	0	1337982976	49	5142
2026-01-28 08:22:49.01	7.11	12.75	-39.2	-42.2	11.9	3.71e-04	0	60	0	1347420160	49	5219
2026-01-28 08:22:52.04	6.68	12.54	-39.1	-42.1	11.8	5.86e-04	0	60	0	1356857344	49	5164
2026-01-28 08:22:55.08	6.26	12.34	-39.1	-42.3	11.0	2.03e-03	0	60	0	1366294528	49	5333
2026-01-28 08:22:58.11	5.84	12.14	-39.8	-44.2	8.5	3.49e-02	0	60	0	1375731712	50	6270
2026-01-28 08:23:01.14	5.43	11.94	-40.5	-47.0	5.7	3.46e-01	0	60	0	1385168896	51	8092
2026-01-28 08:23:04.16	5.02	11.74	-40.6	-49.6	3.9	1.39e+00	0	60	104	1390411776	51	10916
2026-01-28 08:23:07.20	4.62	11.54	-41.2	-52.7	3.8	1.49e+00	0	61	104	1390411776	52	14726
2026-01-28 08:23:10.22	4.23	11.34	-40.2	-52.3	3.8	1.49e+00	0	60	104	1390411776	52	14123
2026-01-28 08:23:13.25	3.84	11.14	-40.0	-52.2	3.8	1.49e+00	0	60	104	1390411776	52	13908
2026-01-28 08:23:16.28	3.46	10.94	-40.0	-52.2	3.8	1.49e+00	0	60	104	1390411776	52	13975
2026-01-28 08:23:19.31	3.08	10.74	-40.0	-52.2	3.8	1.49e+00	0	60	104	1390411776	52	13936
2026-01-28 08:23:22.34	2.71	10.54	-40.1	-52.2	3.8	1.49e+00	0	61	104	1390411776	51	14830
2026-01-28 08:23:25.37	2.34	10.35	-40.2	-52.4	3.8	1.49e+00	0	60	104	1390411776	51	15097
2026-01-28 08:23:28.39	1.98	10.15	-40.0	-52.2	3.8	1.49e+00	0	60	104	1390411776	51	14807
2026-01-28 08:23:31.42	1.62	9.95	-40.1	-52.3	3.8	1.49e+00	0	61	104	1390411776	51	14885
2026-01-28 08:23:34.45	1.27	9.75	-40.1	-52.3	3.8	1.49e+00	0	60	104	1390411776	51	14916
2026-01-28 08:23:37.48	0.92	9.56	-40.1	-52.2	3.8	1.49e+00	0	61	104	1390411776	51	14833
2026-01-28 08:23:40.51	0.58	9.36	-40.0	-52.2	3.8	1.49e+00	0	60	104	1390411776	51	14757
2026-01-28 08:23:43.53	0.24	9.17	-40.1	-52.3	3.8	1.49e+00	0	61	104	1390411776	51	14889
2026-01-28 08:23:46.56	359.91	8.97	-40.1	-52.3	3.8	1.49e+00	0	61	104	1390411776	51	14894
2026-01-28 08:23:49.59	359.58	8.78	-40.0	-52.2	3.8	1.49e+00	0	61	104	1390411776	51	14821
2026-01-28 08:23:52.62	359.25	8.58	-40.0	-52.2	3.8	1.49e+00	0	61	104	1390411776	51	14825
2026-01-28 08:23:55.65	358.93	8.39	-39.9	-52.1	3.8	1.49e+00	0	61	104	1390411776	51	14699
2026-01-28 08:23:58.68	358.62	8.20	-40.0	-52.2	3.8	1.49e+00	0	60	104	1390411776	51	14733
2026-01-28 08:24:01.71	358.31	8.01	-40.0	-52.2	3.8	1.49e+00	0	61	104	1390411776	51	14818
2026-01-28 08:24:04.74	358.00	7.82	-45.0	-57.6	3.8	1.49e+00	0	60	104	1390411776	60	16414
2026-01-28 08:24:07.77	357.70	7.63	-45.4	-58.0	3.8	1.49e+00	0	61	104	1390411776	61	16270
2026-01-28 08:24:10.81	357.40	7.44	-45.4	-58.0	3.8	1.49e+00	0	61	104	1390411776	61	16259
2026-01-28 08:24:13.84	357.10	7.25	-45.3	-57.9	3.8	1.49e+00	0	61	104	1390411776	61	16084
2026-01-28 08:24:16.87	356.81	7.06	-45.2	-57.8	3.8	1.49e+00	0	61	104	1390411776	61	15894
2026-01-28 08:24:19.90	356.52	6.87	-45.2	-57.8	3.8	1.49e+00	0	61	104	1390411776	61	15782
2026-01-28 08:24:22.93	356.24	6.68	-45.2	-57.8	3.8	1.49e+00	0	61	104	1390411776	61	15783
2026-01-28 08:24:25.96	355.96	6.50	-45.1	-57.8	3.8	1.49e+00	0	60	104	1390411776	61	15788
2026-01-28 08:24:28.99	355.68	6.31	-45.2	-57.8	3.8	1.49e+00	0	60	104	1390411776	61	15779
2026-01-28 08:24:32.03	355.41	6.13	-45.2	-57.8	3.8	1.49e+00	0	61	104	1390411776	61	15798
2026-01-28 08:24:35.05	355.14	5.94	-44.8	-57.8	3.8	1.49e+00	0	61	104	1390411776	60	16743
2026-01-28 08:24:38.08	354.88	5.76	-45.2	-57.8	3.8	1.49e+00	0	61	104	1390411776	60	16736
2026-01-28 08:24:41.11	354.62	5.58	-44.8	-57.8	3.8	1.49e+00	0	61	104	1390411776	60	16754
2026-01-28 08:24:44.15	354.36	5.39	-44.9	-57.7	3.8	1.49e+00	0	61	104	1390411776	60	16693
2026-01-28 08:24:47.18	354.10	5.21	-45.1	-57.8	3.8	1.49e+00	0	61	104	1390411776	60	16728
2026-01-28 08:24:50.21	353.85	5.03	-45.1	-57.8	3.8	1.49e+00	0	61	104	1390411776	60	16707
2026-01-28 08:24:53.24	353.60	4.85	-45.1	-57.7	3.8	1.49e+00	0	61	104	1390411776	60	16630
2026-01-28 08:24:56.27	353.36	4.67	-44.6	-57.7	3.8	1.49e+00	0	61	104	1390411776	60	16656
2026-01-28 08:24:59.30	353.11	4.49	-45.1	-57.7	3.8	1.49e+00	0	61	104	1390411776	60	16614
2026-01-28 08:25:02.33	352.88	4.31	-45.1	-57.7	3.8	1.49e+00	0	60	104	1390411776	60	16633
2026-01-28 08:25:05.36	352.64	4.14	-45.1	-57.7	3.8	1.49e+00	0	61	104	1390411776	60	16633
2026-01-28 08:25:08.39	352.41	3.96	-45.1	-57.7	3.8	1.49e+00	0	61	104	1390411776	60	16653
2026-01-28 08:25:11.43	352.18	3.78	-45.1	-57.7	3.8	1.49e+00	0	61	104	1390411776	60	16578
2026-01-28 08:25:14.46	351.95	3.61	-45.1	-57.7	3.8	1.49e+00	0	61	104	1390411776	60	16652
2026-01-28 08:25:17.49	351.72	3.43	-45.1	-57.7	3.8	1.49e+00	0	61	104	1390411776	60	16609
2026-01-28 08:25:20.52	351.50	3.26	-45.1	-57.7	3.8	1.49e+00	0	61	104	1390411776	60	16615
2026-01-28 08:25:23.55	351.28	3.09	-45.1	-57.7	3.8	1.49e+00	0	61	104	1390411776	60	16681
2026-01-28 08:25:26.59	351.07	2.91	-45.0	-57.7	3.8	1.49e+00	0	61	104	1390411776	60	16626
2026-01-28 08:25:29.62	350.85	2.74	-45.1	-57.8	3.8	1.49e+00	0	61	104	1390411776	60	16727
2026-01-28 08:25:32.65	350.64	2.57	-45.1	-57.7	3.8	1.49e+00	0	61	104	1390411776	60	16579
2026-01-28 08:25:35.68	350.43	2.40	-45.1	-57.7	3.8	1.49e+00	0	61	104	1390411776	60	16583
2026-01-28 08:25:38.71	350.23	2.23	-45.1	-57.7	3.8	1.49e+00	0	61	104	1390411776	60	16629
2026-01-28 08:25:41.74	350.02	2.06	-45.1	-57.7	3.8	1.49e+00	0	61	104	1390411776	60	16630
2026-01-28 08:25:44.77	349.82	1.89	-45.1	-57.7	3.8	1.49e+00	0	61	104	1390411776	60	16670

#Closed at: 2026-01-28 08:25:44
#Recorded file [1390 MB]: D:/lorett/data/31039_260128_111315.dat