passes_logs/2026/01/28/R2.0S_Moscow/R2.0S_Moscow__20260128_194828_FENGYUN_3G_rec.log

#Pass ID: 20260128_194828_FENGYUN 3G
#Satellite: FENGYUN 3G
#Configuration: FENGYUN 3G
#almurnet v.1.7.20251203
#Start time: 2026-01-28 19:48:31

#Version: 2.2.20231116
#Station: R2.0S_Moscow
#Location: 37.707566 lon 55.798166 lat
#TLE: 1 56232U 23055A   26027.33093889  .00044881  00000+0  67100-3 0  9994
#TLE: 2 56232  49.9947 352.2708 0004101  93.7831 266.3606 15.54500775158110

#Time	Az	El	Level	Level2	SNR	BER	BlckErr	Temp	State	Recorded	gain1	gain2
2026-01-28 19:48:31.05	263.58	2.14	-44.0	-62.5	3.8	8.46e-01	0	49	0	0	60	28698
2026-01-28 19:48:33.07	263.38	2.27	-44.0	-62.4	3.8	8.46e-01	0	50	104	0	60	28672
2026-01-28 19:48:35.09	263.18	2.39	-44.0	-62.5	3.8	8.47e-01	0	50	104	0	60	28722
2026-01-28 19:48:37.11	262.97	2.51	-44.0	-62.4	3.8	8.46e-01	0	50	104	0	60	28618
2026-01-28 19:48:39.13	262.76	2.64	-44.0	-62.5	3.8	8.47e-01	0	50	104	0	60	28712
2026-01-28 19:48:41.15	262.55	2.76	-44.0	-62.5	3.8	8.46e-01	0	51	104	0	60	28726
2026-01-28 19:48:43.17	262.34	2.88	-44.0	-62.4	3.8	8.46e-01	0	50	104	0	60	28611
2026-01-28 19:48:45.19	262.12	3.01	-44.0	-62.5	3.8	8.46e-01	0	51	104	0	60	28699
2026-01-28 19:48:47.22	261.90	3.14	-44.0	-62.5	3.8	8.45e-01	0	51	104	0	60	28682
2026-01-28 19:48:49.24	261.68	3.26	-44.0	-62.5	3.8	8.45e-01	0	51	104	0	60	28767
2026-01-28 19:48:51.26	261.46	3.39	-44.0	-62.5	3.8	8.46e-01	0	51	104	0	60	28702
2026-01-28 19:48:53.28	261.23	3.52	-44.1	-62.5	3.8	8.47e-01	0	51	104	0	59	30420
2026-01-28 19:48:55.30	261.00	3.65	-44.1	-62.5	3.8	8.47e-01	0	51	104	0	59	30395
2026-01-28 19:48:57.32	260.76	3.77	-44.1	-62.4	3.8	8.46e-01	0	51	104	0	59	30353
2026-01-28 19:48:59.34	260.53	3.90	-44.1	-62.4	3.8	8.46e-01	0	51	104	0	59	30344
2026-01-28 19:49:01.36	260.29	4.03	-44.1	-62.5	3.8	8.47e-01	0	52	104	0	59	30422
2026-01-28 19:49:03.38	260.04	4.16	-44.1	-62.5	3.8	8.45e-01	0	52	104	0	59	30413
2026-01-28 19:49:05.41	259.80	4.30	-44.1	-62.4	3.8	8.47e-01	0	52	104	0	59	30327
2026-01-28 19:49:07.43	259.55	4.43	-44.1	-62.5	3.8	8.46e-01	0	52	104	0	59	30404
2026-01-28 19:49:09.45	259.30	4.56	-44.1	-62.5	3.8	8.45e-01	0	52	104	0	59	30398
2026-01-28 19:49:11.47	259.04	4.69	-44.1	-62.4	3.8	8.47e-01	0	52	104	0	59	30350
2026-01-28 19:49:13.49	258.78	4.83	-44.1	-62.5	3.8	8.46e-01	0	52	104	0	59	30428
2026-01-28 19:49:15.51	258.52	4.96	-44.1	-62.5	3.8	8.45e-01	0	52	104	0	59	30390
2026-01-28 19:49:17.53	258.25	5.10	-44.1	-62.4	3.8	8.47e-01	0	53	104	0	59	30290
2026-01-28 19:49:19.55	257.98	5.23	-44.1	-62.5	3.8	8.46e-01	0	53	104	0	59	30384
2026-01-28 19:49:21.58	257.71	5.37	-44.1	-62.4	3.8	8.47e-01	0	53	104	0	59	30322
2026-01-28 19:49:23.60	257.43	5.51	-44.1	-62.5	3.8	8.45e-01	0	53	104	0	59	30446
2026-01-28 19:49:25.62	257.15	5.64	-44.1	-62.4	3.8	8.47e-01	0	53	104	0	59	30279
2026-01-28 19:49:27.64	256.86	5.78	-44.0	-62.4	3.8	8.46e-01	0	53	104	0	59	30348
2026-01-28 19:49:29.66	256.57	5.92	-44.0	-62.4	3.8	8.46e-01	0	53	104	0	59	30312
2026-01-28 19:49:31.68	256.28	6.06	-44.0	-62.4	3.8	8.45e-01	0	53	104	0	59	30294
2026-01-28 19:49:33.70	255.99	6.20	-44.0	-62.4	3.8	8.46e-01	0	53	104	0	59	30319
2026-01-28 19:49:35.72	255.68	6.34	-44.0	-62.4	3.8	8.46e-01	0	53	104	0	59	30304
2026-01-28 19:49:37.74	255.38	6.48	-44.0	-62.4	3.8	8.45e-01	0	54	104	0	59	30270
2026-01-28 19:49:39.76	255.07	6.62	-44.0	-62.4	3.8	8.46e-01	0	54	104	0	59	30280
2026-01-28 19:49:41.78	254.76	6.76	-44.0	-62.4	3.8	8.45e-01	0	54	104	0	59	30292
2026-01-28 19:49:43.81	254.44	6.91	-44.0	-62.4	3.8	8.46e-01	0	54	104	0	59	30268
2026-01-28 19:49:45.83	254.11	7.05	-44.0	-62.4	3.8	8.47e-01	0	54	104	0	59	30300
2026-01-28 19:49:47.85	253.79	7.19	-44.0	-62.4	3.8	8.46e-01	0	54	104	0	59	30274
2026-01-28 19:49:49.87	253.46	7.34	-44.1	-62.4	3.8	8.46e-01	0	54	104	0	59	30299
2026-01-28 19:49:51.89	253.12	7.48	-44.0	-62.4	3.8	8.46e-01	0	54	104	0	59	30259
2026-01-28 19:49:53.90	252.78	7.63	-44.0	-62.4	3.8	8.45e-01	0	54	104	0	59	30217
2026-01-28 19:49:55.93	252.43	7.77	-44.0	-62.4	3.8	8.47e-01	0	54	104	0	59	30249
2026-01-28 19:49:57.95	252.08	7.92	-44.0	-62.4	3.8	8.46e-01	0	54	104	0	59	30261
2026-01-28 19:49:59.97	251.73	8.07	-44.0	-62.4	3.8	8.45e-01	0	54	104	0	59	30210
2026-01-28 19:50:01.99	251.37	8.21	-44.1	-62.5	3.8	8.46e-01	0	54	104	0	59	30542
2026-01-28 19:50:04.01	251.00	8.36	-44.2	-62.6	3.8	8.46e-01	0	54	104	0	59	30743
2026-01-28 19:50:06.03	250.63	8.51	-44.1	-62.5	3.8	8.46e-01	0	55	104	0	59	30655
2026-01-28 19:50:08.05	250.25	8.66	-44.2	-62.6	3.8	8.46e-01	0	55	104	0	59	30775
2026-01-28 19:50:10.07	249.87	8.81	-44.2	-62.6	3.8	8.46e-01	0	55	104	0	59	30739
2026-01-28 19:50:12.08	249.49	8.96	-44.2	-62.6	3.8	8.47e-01	0	55	104	0	59	30818
2026-01-28 19:50:14.10	249.09	9.11	-44.2	-62.6	3.8	8.46e-01	0	55	104	0	59	30775
2026-01-28 19:50:16.13	248.69	9.26	-44.2	-62.6	3.8	8.46e-01	0	55	104	0	59	30913
2026-01-28 19:50:18.15	248.29	9.41	-44.2	-62.6	3.8	8.46e-01	0	55	104	0	59	30885
2026-01-28 19:50:20.17	247.88	9.56	-44.2	-62.6	3.8	8.47e-01	0	55	104	0	59	30976
2026-01-28 19:50:22.19	247.46	9.71	-44.2	-62.6	3.8	8.47e-01	0	55	104	0	59	30969
2026-01-28 19:50:24.21	247.04	9.87	-44.3	-62.6	3.8	8.46e-01	0	55	104	0	59	31007
2026-01-28 19:50:26.23	246.62	10.02	-44.3	-62.6	3.8	8.47e-01	0	55	104	0	59	31017
2026-01-28 19:50:28.25	246.18	10.17	-44.3	-62.7	3.8	8.46e-01	0	55	104	0	59	31176
2026-01-28 19:50:30.27	245.74	10.32	-44.3	-62.7	3.8	8.47e-01	0	55	104	0	59	31146
2026-01-28 19:50:32.29	245.30	10.47	-44.3	-62.7	3.8	8.47e-01	0	55	104	0	59	31250
2026-01-28 19:50:34.32	244.84	10.63	-44.3	-62.6	3.8	8.47e-01	0	56	104	0	59	31076
2026-01-28 19:50:36.34	244.38	10.78	-44.4	-62.8	3.8	8.46e-01	0	56	104	0	59	31452
2026-01-28 19:50:38.36	243.92	10.93	-44.3	-62.7	3.8	8.46e-01	0	56	104	0	59	31266
2026-01-28 19:50:40.38	243.44	11.09	-44.4	-62.8	3.8	8.47e-01	0	55	104	0	59	31556
2026-01-28 19:50:42.40	242.97	11.24	-44.3	-62.7	3.8	8.46e-01	0	56	104	0	59	31315
2026-01-28 19:50:44.41	242.48	11.39	-44.4	-62.8	3.8	8.46e-01	0	56	104	0	59	31544
2026-01-28 19:50:46.43	241.99	11.54	-44.3	-62.7	3.8	8.46e-01	0	56	104	0	59	31403
2026-01-28 19:50:48.45	241.49	11.70	-44.4	-62.8	3.8	8.46e-01	0	56	104	0	59	31498
2026-01-28 19:50:50.47	240.98	11.85	-44.4	-62.8	3.8	8.46e-01	0	56	104	0	59	31463
2026-01-28 19:50:52.49	240.47	12.00	-44.4	-62.8	3.8	8.47e-01	0	56	104	0	59	31674
2026-01-28 19:50:54.51	239.95	12.15	-44.4	-62.8	3.8	8.46e-01	0	56	104	0	59	31514
2026-01-28 19:50:56.53	239.42	12.30	-44.4	-62.8	3.8	8.45e-01	0	56	104	0	59	31683
2026-01-28 19:50:58.55	238.89	12.45	-44.4	-62.8	3.8	8.46e-01	0	56	104	0	59	31530
2026-01-28 19:51:00.58	238.35	12.60	-44.5	-62.9	3.8	8.46e-01	0	56	104	0	59	31940
2026-01-28 19:51:02.60	237.80	12.75	-44.4	-62.8	3.8	8.45e-01	0	56	104	0	59	31659
2026-01-28 19:51:04.62	237.24	12.90	-44.5	-62.9	3.8	8.46e-01	0	56	104	0	59	31881
2026-01-28 19:51:06.63	236.68	13.04	-44.4	-62.8	3.8	8.47e-01	0	56	104	0	59	31691
2026-01-28 19:51:08.65	236.11	13.19	-44.5	-62.9	3.8	8.45e-01	0	56	104	0	59	32101
2026-01-28 19:51:10.67	235.53	13.34	-44.4	-62.8	3.8	8.46e-01	0	56	104	0	59	31735
2026-01-28 19:51:12.69	234.94	13.48	-44.5	-62.9	3.8	8.47e-01	0	56	104	0	59	31832
2026-01-28 19:51:14.71	234.35	13.62	-44.5	-62.9	3.8	8.46e-01	0	56	104	0	59	31843
2026-01-28 19:51:16.73	233.75	13.77	-44.5	-62.9	3.8	8.47e-01	0	56	104	0	59	31822
2026-01-28 19:51:18.75	233.14	13.91	-44.5	-62.9	3.8	8.47e-01	0	56	104	0	59	31868
2026-01-28 19:51:20.77	232.52	14.05	-44.5	-62.9	3.8	8.46e-01	0	56	104	0	59	31954
2026-01-28 19:51:22.79	231.90	14.18	-44.5	-62.9	3.8	8.46e-01	0	56	104	0	59	31976
2026-01-28 19:51:24.81	231.27	14.32	-44.5	-62.9	3.8	8.46e-01	0	57	104	0	59	31938
2026-01-28 19:51:26.83	230.63	14.45	-44.5	-62.9	3.8	8.45e-01	0	57	104	0	59	32079
2026-01-28 19:51:28.85	229.98	14.59	-44.5	-62.9	3.8	8.46e-01	0	57	104	0	59	31979
2026-01-28 19:51:30.87	229.33	14.72	-44.5	-62.9	3.8	8.45e-01	0	57	104	0	59	31972
2026-01-28 19:51:32.89	228.67	14.85	-44.6	-63.0	3.8	8.46e-01	0	57	104	0	59	32242
2026-01-28 19:51:34.91	228.00	14.97	-44.6	-63.0	3.8	8.46e-01	0	57	104	0	59	32182
2026-01-28 19:51:36.93	227.32	15.10	-44.6	-62.9	3.8	8.47e-01	0	57	104	0	59	32128
2026-01-28 19:51:38.95	226.64	15.22	-44.6	-62.9	3.8	8.46e-01	0	57	104	0	59	32148
2026-01-28 19:51:40.97	225.95	15.34	-44.5	-62.9	3.8	8.46e-01	0	57	104	0	59	32056
2026-01-28 19:51:42.99	225.25	15.45	-44.6	-62.9	3.8	8.47e-01	0	57	104	0	59	32137
2026-01-28 19:51:45.01	224.55	15.57	-44.6	-62.9	3.8	8.46e-01	0	57	104	0	59	32095
2026-01-28 19:51:47.04	223.84	15.68	-44.6	-63.0	3.8	8.46e-01	0	57	104	0	59	32262
2026-01-28 19:51:49.05	223.12	15.79	-44.6	-63.0	3.8	8.46e-01	0	57	104	0	59	32184
2026-01-28 19:51:51.07	222.40	15.89	-44.6	-63.0	3.8	8.46e-01	0	57	104	0	59	32283
2026-01-28 19:51:53.09	221.67	15.99	-44.6	-62.9	3.8	8.46e-01	0	57	104	0	59	32168
2026-01-28 19:51:55.11	220.93	16.09	-44.6	-63.0	3.8	8.46e-01	0	57	104	0	59	32364
2026-01-28 19:51:57.13	220.19	16.19	-44.6	-62.9	3.8	8.46e-01	0	57	104	0	59	32150
2026-01-28 19:51:59.15	219.44	16.28	-44.6	-63.0	3.8	8.46e-01	0	57	104	0	59	32359
2026-01-28 19:52:01.17	218.69	16.37	-44.5	-63.0	3.8	8.47e-01	0	57	104	0	59	32278
2026-01-28 19:52:03.19	217.93	16.45	-44.6	-63.0	3.8	8.45e-01	0	57	104	0	59	32439
2026-01-28 19:52:05.21	217.16	16.53	-44.6	-63.0	3.8	8.46e-01	0	57	104	0	59	32245
2026-01-28 19:52:07.23	216.39	16.61	-44.6	-63.0	3.8	8.47e-01	0	57	104	0	59	32425
2026-01-28 19:52:09.25	215.62	16.68	-44.6	-63.0	3.8	8.46e-01	0	57	104	0	59	32384
2026-01-28 19:52:11.26	214.84	16.75	-44.6	-63.0	3.8	8.48e-01	0	57	104	0	59	32389
2026-01-28 19:52:13.28	214.06	16.82	-44.6	-63.0	3.8	8.46e-01	0	57	104	0	60	30685
2026-01-28 19:52:15.30	213.27	16.88	-44.6	-63.0	3.8	8.46e-01	0	57	104	0	60	30701
2026-01-28 19:52:17.32	212.48	16.93	-44.6	-63.0	3.8	8.45e-01	0	57	104	0	60	30489
2026-01-28 19:52:19.34	211.68	16.98	-44.6	-63.1	3.8	8.46e-01	0	57	104	0	60	30743
2026-01-28 19:52:21.36	210.88	17.03	-44.6	-63.0	3.8	8.47e-01	0	57	104	0	60	30614
2026-01-28 19:52:23.38	210.08	17.07	-44.6	-63.1	3.8	8.47e-01	0	57	104	0	60	30739
2026-01-28 19:52:25.40	209.28	17.11	-44.6	-63.0	3.8	8.46e-01	0	58	104	0	60	30700
2026-01-28 19:52:27.42	208.47	17.14	-44.6	-63.1	3.8	8.47e-01	0	57	104	0	60	30760
2026-01-28 19:52:29.44	207.66	17.17	-44.6	-63.0	3.8	8.46e-01	0	58	104	0	60	30610
2026-01-28 19:52:31.46	206.85	17.20	-44.6	-63.1	3.8	8.46e-01	0	57	104	0	60	30816
2026-01-28 19:52:33.48	206.04	17.21	-44.6	-63.0	3.8	8.46e-01	0	57	104	0	60	30699
2026-01-28 19:52:35.49	205.23	17.23	-44.6	-63.1	3.8	8.46e-01	0	57	104	0	60	30783
2026-01-28 19:52:37.51	204.41	17.24	-44.6	-63.1	3.8	8.48e-01	0	58	104	0	60	30735
2026-01-28 19:52:39.53	203.60	17.24	-44.7	-63.1	3.8	8.45e-01	0	57	104	0	60	30944
2026-01-28 19:52:41.55	202.78	17.24	-44.6	-63.0	3.8	8.47e-01	0	58	104	0	60	30686
2026-01-28 19:52:43.57	201.97	17.23	-44.6	-63.1	3.8	8.47e-01	0	58	104	0	60	30753
2026-01-28 19:52:45.59	201.15	17.22	-44.6	-63.0	3.8	8.46e-01	0	58	104	0	60	30545
2026-01-28 19:52:47.61	200.34	17.21	-44.6	-63.0	3.8	8.46e-01	0	58	104	0	60	30669
2026-01-28 19:52:49.63	199.53	17.19	-44.6	-63.0	3.8	8.45e-01	0	58	104	0	60	30656
2026-01-28 19:52:51.65	198.72	17.16	-44.6	-63.0	3.8	8.46e-01	0	58	104	0	60	30608
2026-01-28 19:52:53.67	197.91	17.13	-44.5	-63.0	3.8	8.45e-01	0	58	104	0	60	30553
2026-01-28 19:52:55.68	197.11	17.10	-44.6	-63.0	3.8	8.46e-01	0	58	104	0	60	30619
2026-01-28 19:52:57.70	196.30	17.06	-44.5	-63.0	3.8	8.45e-01	0	57	104	0	60	30446
2026-01-28 19:52:59.72	195.50	17.02	-44.5	-63.0	3.8	8.46e-01	0	58	104	0	60	30635
2026-01-28 19:53:01.74	194.70	16.97	-44.5	-63.0	3.8	8.46e-01	0	58	104	0	60	30404
2026-01-28 19:53:03.76	193.91	16.91	-44.5	-63.0	3.8	8.45e-01	0	58	104	0	60	30627
2026-01-28 19:53:05.78	193.12	16.86	-44.5	-63.0	3.8	8.47e-01	0	58	104	0	60	30521
2026-01-28 19:53:07.80	192.33	16.80	-44.6	-63.0	3.8	8.46e-01	0	58	104	0	60	30581
2026-01-28 19:53:09.82	191.54	16.73	-44.5	-63.0	3.8	8.46e-01	0	58	104	0	60	30427
2026-01-28 19:53:11.84	190.77	16.66	-44.5	-63.0	3.8	8.46e-01	0	58	104	0	60	30472
2026-01-28 19:53:13.86	189.99	16.59	-44.5	-63.0	3.8	8.46e-01	0	58	104	0	60	30384
2026-01-28 19:53:15.88	189.22	16.51	-44.5	-63.0	3.8	8.46e-01	0	58	104	0	60	30496
2026-01-28 19:53:17.90	188.46	16.42	-44.5	-62.9	3.8	8.46e-01	0	58	104	0	60	30320
2026-01-28 19:53:19.92	187.70	16.34	-44.5	-63.0	3.8	8.46e-01	0	58	104	0	60	30464
2026-01-28 19:53:21.94	186.94	16.25	-44.5	-63.0	3.8	8.46e-01	0	58	104	0	60	30381
2026-01-28 19:53:23.96	186.20	16.16	-44.5	-63.0	3.8	8.47e-01	0	58	104	0	60	30451
2026-01-28 19:53:25.98	185.45	16.06	-44.5	-62.9	3.8	8.46e-01	0	58	104	0	60	30304
2026-01-28 19:53:28.00	184.72	15.96	-44.5	-63.0	3.8	8.47e-01	0	58	104	0	60	30398
2026-01-28 19:53:30.02	183.99	15.86	-44.4	-62.9	3.8	8.47e-01	0	58	104	0	60	30192
2026-01-28 19:53:32.04	183.27	15.75	-44.5	-62.9	3.8	8.46e-01	0	58	104	0	60	30269
2026-01-28 19:53:34.06	182.55	15.64	-44.4	-62.9	3.8	8.46e-01	0	58	104	0	60	30103
2026-01-28 19:53:36.08	181.84	15.53	-44.4	-62.9	3.8	8.47e-01	0	58	104	0	60	30198
2026-01-28 19:53:38.10	181.14	15.41	-44.4	-62.9	3.8	8.47e-01	0	58	104	0	60	30083
2026-01-28 19:53:40.12	180.44	15.29	-44.5	-62.9	3.8	8.47e-01	0	58	104	0	60	30286
2026-01-28 19:53:42.14	179.75	15.17	-44.4	-62.9	3.8	8.46e-01	0	58	104	0	60	30096
2026-01-28 19:53:44.16	179.07	15.05	-44.5	-62.9	3.8	8.46e-01	0	58	104	0	60	30271
2026-01-28 19:53:46.18	178.39	14.93	-44.4	-62.9	3.8	8.47e-01	0	58	104	0	60	30033
2026-01-28 19:53:48.20	177.73	14.80	-44.4	-62.9	3.8	8.46e-01	0	58	104	0	60	30224
2026-01-28 19:53:50.21	177.07	14.67	-44.4	-62.9	3.8	8.46e-01	0	58	104	0	60	30144
2026-01-28 19:53:52.24	176.41	14.54	-44.4	-62.9	3.8	8.47e-01	0	58	104	0	60	30279
2026-01-28 19:53:54.25	175.77	14.40	-44.4	-62.8	3.8	8.45e-01	0	58	104	0	60	30029
2026-01-28 19:53:56.27	175.13	14.27	-44.4	-62.9	3.8	8.46e-01	0	58	104	0	60	30212
2026-01-28 19:53:58.29	174.50	14.13	-44.4	-62.9	3.8	8.47e-01	0	58	104	0	60	30085
2026-01-28 19:54:00.31	173.88	13.99	-44.4	-62.9	3.8	8.46e-01	0	58	104	0	60	30163
2026-01-28 19:54:02.33	173.26	13.85	-44.8	-63.2	3.8	8.47e-01	0	58	104	0	60	31403
2026-01-28 19:54:04.35	172.66	13.71	-44.5	-63.0	3.8	8.46e-01	0	58	104	0	60	30611
2026-01-28 19:54:06.37	172.06	13.57	-44.5	-63.0	3.8	8.46e-01	0	58	104	0	60	30471
2026-01-28 19:54:08.39	171.46	13.42	-44.5	-63.0	3.8	8.46e-01	0	58	104	0	60	30465
2026-01-28 19:54:10.41	170.88	13.28	-44.5	-63.0	3.8	8.45e-01	0	58	104	0	60	30461
2026-01-28 19:54:12.43	170.30	13.13	-44.5	-63.0	3.8	8.47e-01	0	58	104	0	60	30500
2026-01-28 19:54:14.45	169.73	12.99	-44.5	-63.0	3.8	8.47e-01	0	58	104	0	60	30491
2026-01-28 19:54:16.47	169.17	12.84	-44.5	-63.0	3.8	8.46e-01	0	58	104	0	60	30417
2026-01-28 19:54:18.49	168.61	12.69	-44.6	-63.1	3.8	8.46e-01	0	58	104	0	60	30827
2026-01-28 19:54:20.51	168.06	12.54	-44.6	-63.0	3.8	8.46e-01	0	58	104	0	60	30663
2026-01-28 19:54:22.53	167.52	12.39	-44.6	-63.1	3.8	8.47e-01	0	58	104	0	60	30858
2026-01-28 19:54:24.55	166.99	12.24	-44.6	-63.0	3.8	8.46e-01	0	58	104	0	60	30688
2026-01-28 19:54:26.57	166.46	12.09	-44.6	-63.1	3.8	8.46e-01	0	58	104	0	60	30845
2026-01-28 19:54:28.59	165.94	11.93	-44.5	-63.0	3.8	8.47e-01	0	58	104	0	60	30654
2026-01-28 19:54:30.61	165.43	11.78	-44.6	-63.1	3.8	8.46e-01	0	58	104	0	60	30738
2026-01-28 19:54:32.63	164.92	11.63	-44.5	-63.0	3.8	8.47e-01	0	58	104	0	60	30607
2026-01-28 19:54:34.65	164.42	11.48	-44.6	-63.1	3.8	8.46e-01	0	58	104	0	60	30803
2026-01-28 19:54:36.67	163.93	11.32	-44.5	-63.0	3.8	8.46e-01	0	58	104	0	60	30442
2026-01-28 19:54:38.69	163.45	11.17	-44.5	-63.0	3.8	8.47e-01	0	58	104	0	60	30625
2026-01-28 19:54:40.71	162.97	11.02	-44.5	-62.9	3.8	8.46e-01	0	58	104	0	60	30326
2026-01-28 19:54:42.73	162.50	10.87	-44.5	-63.0	3.8	8.46e-01	0	58	104	0	60	30571
2026-01-28 19:54:44.75	162.03	10.71	-44.4	-62.9	3.8	8.45e-01	0	58	104	0	60	30182
2026-01-28 19:54:46.77	161.57	10.56	-44.5	-63.0	3.8	8.46e-01	0	58	104	0	60	30389
2026-01-28 19:54:48.79	161.12	10.41	-44.4	-62.8	3.8	8.45e-01	0	58	104	0	60	29993
2026-01-28 19:54:50.81	160.68	10.25	-44.4	-62.9	3.8	8.46e-01	0	58	104	0	60	30283
2026-01-28 19:54:52.83	160.24	10.10	-44.3	-62.8	3.8	8.46e-01	0	58	104	0	60	29745
2026-01-28 19:54:54.85	159.80	9.95	-44.4	-62.8	3.8	8.46e-01	0	58	104	0	60	29976
2026-01-28 19:54:56.87	159.38	9.79	-44.2	-62.7	3.8	8.47e-01	0	58	104	0	60	29428
2026-01-28 19:54:58.89	158.95	9.64	-44.3	-62.8	3.8	8.47e-01	0	58	104	0	60	29889
2026-01-28 19:55:00.91	158.54	9.49	-44.1	-62.6	3.8	8.46e-01	0	58	104	0	60	29114
2026-01-28 19:55:02.93	158.13	9.34	-44.2	-62.7	3.8	8.45e-01	0	58	104	0	60	29529
2026-01-28 19:55:04.95	157.73	9.19	-44.0	-62.5	3.8	8.45e-01	0	59	104	0	60	28794
2026-01-28 19:55:06.97	157.33	9.04	-44.2	-62.6	3.8	8.46e-01	0	58	104	0	60	29303
2026-01-28 19:55:08.99	156.94	8.89	-44.0	-62.4	3.7	8.46e-01	0	58	104	0	59	30158
2026-01-28 19:55:11.01	156.55	8.74	-44.2	-62.6	3.8	8.47e-01	0	58	104	0	59	30861
2026-01-28 19:55:13.03	156.17	8.59	-43.9	-62.2	3.8	8.47e-01	0	58	104	0	59	29683
2026-01-28 19:55:15.05	155.79	8.44	-44.1	-62.5	3.8	8.45e-01	0	58	104	0	59	30662
2026-01-28 19:55:17.07	155.42	8.29	-43.7	-62.1	3.8	8.47e-01	0	58	104	0	59	29050
2026-01-28 19:55:19.09	155.05	8.14	-44.1	-62.4	3.8	8.47e-01	0	58	104	0	59	30339
2026-01-28 19:55:21.11	154.69	7.99	-43.5	-61.7	3.8	8.46e-01	0	59	104	0	58	29455
2026-01-28 19:55:23.14	154.34	7.84	-44.7	-63.0	3.8	8.46e-01	0	58	104	0	59	32544
2026-01-28 19:55:25.16	153.99	7.70	-45.2	-63.6	3.8	8.47e-01	0	58	104	0	60	32816
2026-01-28 19:55:27.18	153.64	7.55	-45.5	-63.9	3.8	8.46e-01	0	58	104	0	61	31939
2026-01-28 19:55:29.20	153.30	7.41	-45.5	-64.0	3.8	8.46e-01	0	58	104	0	61	32226
2026-01-28 19:55:31.22	152.96	7.26	-45.4	-63.9	3.8	8.47e-01	0	58	104	0	61	31894
2026-01-28 19:55:33.24	152.63	7.12	-45.3	-63.7	3.8	8.45e-01	0	58	104	0	61	31363
2026-01-28 19:55:35.26	152.31	6.97	-45.3	-63.7	3.8	8.46e-01	0	58	104	0	61	31265
2026-01-28 19:55:37.28	151.98	6.83	-45.1	-63.6	3.8	8.45e-01	0	59	104	0	61	30926
2026-01-28 19:55:39.30	151.67	6.69	-45.1	-63.6	3.8	8.46e-01	0	58	104	0	60	32676
2026-01-28 19:55:41.32	151.35	6.54	-45.1	-63.6	3.8	8.46e-01	0	59	104	0	60	32726
2026-01-28 19:55:43.34	151.04	6.40	-45.1	-63.6	3.8	8.47e-01	0	58	104	0	60	32643
2026-01-28 19:55:45.36	150.74	6.26	-45.1	-63.6	3.8	8.46e-01	0	58	104	0	60	32705
2026-01-28 19:55:47.38	150.44	6.12	-45.1	-63.6	3.8	8.46e-01	0	58	104	0	60	32600
2026-01-28 19:55:49.40	150.14	5.98	-45.1	-63.6	3.8	8.46e-01	0	58	104	0	60	32600
2026-01-28 19:55:51.43	149.85	5.84	-45.1	-63.6	3.8	8.46e-01	0	59	104	0	60	32600
2026-01-28 19:55:53.45	149.56	5.70	-45.1	-63.6	3.8	8.46e-01	0	58	104	0	60	32573
2026-01-28 19:55:55.47	149.27	5.56	-45.1	-63.5	3.8	8.45e-01	0	59	104	0	60	32521
2026-01-28 19:55:57.49	148.99	5.43	-45.1	-63.5	3.8	8.46e-01	0	58	104	0	60	32473
2026-01-28 19:55:59.51	148.71	5.29	-45.1	-63.5	3.8	8.45e-01	0	59	104	0	60	32470
2026-01-28 19:56:01.53	148.44	5.15	-45.1	-63.6	3.8	8.47e-01	0	59	104	0	60	32610
2026-01-28 19:56:03.55	148.17	5.02	-45.1	-63.5	3.8	8.46e-01	0	58	104	0	60	32548
2026-01-28 19:56:05.57	147.90	4.88	-45.1	-63.5	3.8	8.46e-01	0	58	104	0	60	32484
2026-01-28 19:56:07.59	147.64	4.75	-45.1	-63.5	3.8	8.46e-01	0	59	104	0	60	32451
2026-01-28 19:56:09.61	147.38	4.61	-45.1	-63.5	3.8	8.46e-01	0	58	104	0	60	32487
2026-01-28 19:56:11.63	147.13	4.48	-45.1	-63.6	3.8	8.46e-01	0	59	104	0	60	32618
2026-01-28 19:56:13.65	146.87	4.35	-45.1	-63.5	3.8	8.47e-01	0	58	104	0	60	32397
2026-01-28 19:56:15.67	146.62	4.22	-45.0	-63.5	3.8	8.45e-01	0	59	104	0	60	32392
2026-01-28 19:56:17.70	146.38	4.08	-45.1	-63.5	3.8	8.45e-01	0	58	104	0	60	32332
2026-01-28 19:56:19.72	146.13	3.95	-45.1	-63.5	3.8	8.46e-01	0	59	104	0	60	32425
2026-01-28 19:56:21.74	145.89	3.82	-45.1	-63.5	3.8	8.47e-01	0	59	104	0	60	32328
2026-01-28 19:56:23.76	145.66	3.69	-45.1	-63.5	3.8	8.46e-01	0	59	104	0	60	32302
2026-01-28 19:56:25.78	145.42	3.56	-45.1	-63.5	3.8	8.46e-01	0	59	104	0	60	32336
2026-01-28 19:56:27.80	145.19	3.44	-45.1	-63.5	3.8	8.44e-01	0	59	104	0	60	32304
2026-01-28 19:56:29.82	144.96	3.31	-45.0	-63.5	3.8	8.46e-01	0	59	104	0	60	32304
2026-01-28 19:56:31.84	144.74	3.18	-45.0	-63.5	3.8	8.48e-01	0	58	104	0	60	32326
2026-01-28 19:56:33.86	144.52	3.06	-45.1	-63.5	3.8	8.45e-01	0	59	104	0	60	32307
2026-01-28 19:56:35.89	144.30	2.93	-45.1	-63.5	3.8	8.46e-01	0	59	104	0	60	32434
2026-01-28 19:56:37.91	144.08	2.80	-45.0	-63.5	3.8	8.47e-01	0	59	104	0	60	32321
2026-01-28 19:56:39.93	143.87	2.68	-45.1	-63.5	3.8	8.47e-01	0	59	104	0	60	32324
2026-01-28 19:56:41.95	143.65	2.55	-45.1	-63.5	3.8	8.46e-01	0	58	104	0	60	32260
2026-01-28 19:56:43.97	143.45	2.43	-45.1	-63.5	3.8	8.46e-01	0	59	104	0	60	32447
2026-01-28 19:56:45.99	143.24	2.31	-45.0	-63.5	3.8	8.47e-01	0	59	104	0	60	32280
2026-01-28 19:56:48.02	143.03	2.18	-45.0	-63.5	3.8	8.47e-01	0	59	104	0	60	32369
2026-01-28 19:56:50.04	142.83	2.06	-45.1	-63.5	3.8	8.45e-01	0	59	104	0	60	32353
2026-01-28 19:56:52.06	142.63	1.94	-45.0	-63.5	3.8	8.45e-01	0	59	104	0	60	32404

#Closed at: 2026-01-28 19:56:53
#Recorded file [0 MB]: D:/lorett/data/31039_260128_224830.dat