passes_logs/2026/01/28/R2.0S_Moscow/R2.0S_Moscow__20260128_235346_AQUA_rec.log

#Pass ID: 20260128_235346_AQUA
#Satellite: AQUA
#Configuration: AQUA
#almurnet v.1.7.20251203
#Start time: 2026-01-28 23:57:04

#Version: 2.2.20231116
#Station: R2.0S_Moscow
#Location: 37.707566 lon 55.798166 lat
#TLE: 1 27424U 02022A   26027.88561574  .00001798  00000+0  36942-3 0  9997
#TLE: 2 27424  98.4102 354.5311 0001840  63.5604 322.5877 14.61868111262779

#Time	Az	El	Level	Level2	SNR	BER	BlckErr	Temp	State	Recorded	gain1	gain2
2026-01-28 23:57:04.15	53.96	13.96	-44.9	-57.5	3.8	1.49e+00	0	59	0	0	60	16250
2026-01-28 23:57:06.16	54.36	14.09	-46.6	-65.4	3.8	7.44e-01	0	59	104	0	63	34049
2026-01-28 23:57:08.18	54.77	14.21	-46.5	-65.4	3.8	7.47e-01	0	59	104	0	64	31902
2026-01-28 23:57:10.21	55.18	14.33	-46.5	-65.4	3.8	7.47e-01	0	59	104	0	64	31908
2026-01-28 23:57:12.23	55.60	14.45	-46.1	-65.0	3.8	7.47e-01	0	59	104	0	64	30398
2026-01-28 23:57:14.25	56.02	14.57	-45.7	-64.6	3.8	7.47e-01	0	59	104	0	63	30782
2026-01-28 23:57:16.27	56.44	14.69	-45.3	-63.9	3.8	7.44e-01	0	59	104	0	62	30234
2026-01-28 23:57:18.29	56.86	14.80	-45.3	-64.0	3.8	7.46e-01	0	59	104	0	62	30580
2026-01-28 23:57:20.31	57.29	14.92	-45.3	-64.1	3.8	7.46e-01	0	59	104	0	62	30902
2026-01-28 23:57:22.33	57.72	15.04	-45.3	-64.0	3.8	7.44e-01	0	59	104	0	62	30714
2026-01-28 23:57:24.35	58.16	15.15	-45.2	-63.9	3.8	7.48e-01	0	59	104	0	62	30281
2026-01-28 23:57:26.37	58.60	15.27	-45.2	-63.8	3.8	7.45e-01	0	59	104	0	62	29940
2026-01-28 23:57:28.39	59.04	15.38	-45.2	-63.7	3.8	7.43e-01	0	59	104	0	62	29463
2026-01-28 23:57:30.41	59.48	15.49	-45.2	-63.2	3.8	7.45e-01	0	59	104	0	62	27749
2026-01-28 23:57:32.43	59.93	15.61	-45.2	-63.4	3.8	7.43e-01	0	59	104	0	62	28573
2026-01-28 23:57:34.45	60.39	15.72	-45.2	-63.8	3.8	7.45e-01	0	59	104	0	62	30031
2026-01-28 23:57:36.47	60.84	15.83	-45.2	-63.7	3.8	7.44e-01	0	59	104	0	62	29366
2026-01-28 23:57:38.50	61.31	15.93	-45.2	-62.8	3.8	7.45e-01	0	59	104	0	62	26638
2026-01-28 23:57:40.52	61.77	16.04	-45.1	-60.8	3.9	7.42e-01	0	59	104	0	62	21233
2026-01-28 23:57:42.54	62.24	16.15	-45.1	-59.5	3.9	7.38e-01	0	59	104	0	62	18275
2026-01-28 23:57:44.56	62.71	16.25	-45.0	-58.3	5.1	7.11e-01	0	59	0	0	62	15910
2026-01-28 23:57:46.58	63.18	16.36	-44.9	-56.3	6.5	6.71e-01	90	59	0	1048576	61	13395
2026-01-28 23:57:48.60	63.66	16.46	-44.4	-52.6	10.2	6.20e-01	0	59	0	4718592	60	9217
2026-01-28 23:57:50.62	64.14	16.56	-44.3	-52.3	10.6	6.14e-01	0	59	0	8912896	60	8870
2026-01-28 23:57:52.64	64.62	16.66	-45.1	-61.0	3.9	7.44e-01	0	59	104	11534336	60	24378
2026-01-28 23:57:54.66	65.11	16.76	-44.1	-51.5	11.2	6.11e-01	0	59	0	12582912	60	8137
2026-01-28 23:57:56.68	65.60	16.86	-42.1	-45.8	17.5	6.06e-01	0	59	0	16252928	56	5318
2026-01-28 23:57:58.70	66.10	16.95	-41.6	-45.0	18.5	6.04e-01	0	59	0	20447232	54	5415
2026-01-28 23:58:00.72	66.59	17.04	-41.8	-45.1	18.6	6.05e-01	0	59	0	24117248	54	5510
2026-01-28 23:58:02.74	67.09	17.14	-41.3	-44.5	19.0	6.03e-01	0	59	0	27787264	54	5103
2026-01-28 23:58:04.76	67.60	17.23	-41.2	-44.3	18.9	6.05e-01	0	59	0	31457280	54	5029
2026-01-28 23:58:06.78	68.10	17.32	-41.3	-44.6	18.6	6.04e-01	0	59	0	35651584	54	5182
2026-01-28 23:58:08.81	68.62	17.40	-41.1	-44.3	18.5	6.04e-01	0	59	0	39321600	54	5039
2026-01-28 23:58:10.83	69.13	17.49	-41.1	-44.7	17.9	6.07e-01	0	59	0	42991616	54	5225
2026-01-28 23:58:12.85	69.65	17.57	-41.2	-45.1	17.1	6.06e-01	0	59	0	46661632	54	5496
2026-01-28 23:58:14.87	70.17	17.65	-41.3	-45.8	15.9	6.02e-01	0	59	0	50855936	54	5955
2026-01-28 23:58:16.89	70.69	17.73	-41.2	-46.3	14.8	6.03e-01	0	59	0	54525952	54	6301
2026-01-28 23:58:18.91	71.21	17.81	-41.2	-46.9	13.8	6.04e-01	0	59	0	58195968	54	6795
2026-01-28 23:58:20.93	71.74	17.89	-41.3	-47.4	13.2	6.05e-01	0	59	0	61865984	54	7184
2026-01-28 23:58:22.95	72.27	17.96	-41.4	-47.2	13.6	6.05e-01	0	59	0	65536000	54	7036
2026-01-28 23:58:24.97	72.80	18.03	-41.5	-47.5	13.3	6.06e-01	0	59	0	69730304	54	7253
2026-01-28 23:58:26.99	73.34	18.10	-41.5	-47.5	13.3	6.05e-01	0	59	0	73400320	54	7208
2026-01-28 23:58:29.00	73.88	18.17	-41.5	-47.5	13.3	6.04e-01	0	59	0	77070336	54	7287
2026-01-28 23:58:31.03	74.42	18.24	-41.6	-47.5	13.5	6.05e-01	0	59	0	80740352	54	7258
2026-01-28 23:58:33.04	74.96	18.30	-41.6	-47.4	13.6	6.03e-01	0	59	0	84410368	54	7168
2026-01-28 23:58:35.06	75.51	18.36	-41.4	-46.9	14.3	6.06e-01	0	59	0	88604672	54	6726
2026-01-28 23:58:37.08	76.05	18.42	-41.4	-46.7	14.4	6.05e-01	0	59	0	92274688	54	6596
2026-01-28 23:58:39.10	76.60	18.48	-41.4	-46.8	14.4	6.04e-01	0	59	0	95944704	54	6660
2026-01-28 23:58:41.12	77.16	18.53	-41.4	-46.6	14.7	6.05e-01	0	59	0	99614720	54	6498
2026-01-28 23:58:43.14	77.71	18.58	-41.4	-46.2	15.3	6.05e-01	0	59	0	103809024	54	6268
2026-01-28 23:58:45.16	78.27	18.63	-41.4	-46.1	15.6	6.04e-01	0	59	0	107479040	54	6177
2026-01-28 23:58:47.18	78.82	18.68	-41.5	-46.4	15.2	6.02e-01	0	59	0	111149056	54	6386
2026-01-28 23:58:49.20	79.38	18.72	-41.6	-47.0	14.4	6.03e-01	0	59	0	114819072	54	6824
2026-01-28 23:58:51.22	79.94	18.76	-41.5	-47.0	14.2	6.05e-01	0	59	0	119013376	54	6818
2026-01-28 23:58:53.24	80.51	18.80	-41.6	-46.7	14.8	6.05e-01	0	59	0	122683392	54	6620
2026-01-28 23:58:55.27	81.08	18.84	-41.7	-46.3	15.7	6.05e-01	0	59	0	126353408	54	6316
2026-01-28 23:58:57.29	81.64	18.87	-41.6	-45.8	16.5	6.03e-01	0	59	0	130023424	54	5968
2026-01-28 23:58:59.31	82.21	18.91	-41.6	-45.6	17.1	6.05e-01	0	59	0	133693440	54	5796
2026-01-28 23:59:01.33	82.78	18.94	-41.5	-45.1	17.7	6.06e-01	0	59	0	137887744	54	5512
2026-01-28 23:59:03.35	83.35	18.96	-41.3	-44.8	18.2	6.07e-01	0	59	0	141557760	54	5284
2026-01-28 23:59:05.36	83.91	18.99	-41.4	-44.9	17.9	6.02e-01	0	59	0	145227776	54	5385
2026-01-28 23:59:07.38	84.49	19.01	-41.1	-45.0	17.3	6.04e-01	0	59	0	148897792	54	5407
2026-01-28 23:59:09.40	85.06	19.03	-41.2	-45.5	16.4	6.04e-01	0	59	0	153092096	54	5739
2026-01-28 23:59:11.42	85.63	19.04	-41.4	-46.1	15.5	6.02e-01	0	59	0	156762112	54	6200
2026-01-28 23:59:13.44	86.20	19.05	-41.4	-46.2	15.2	6.04e-01	0	59	0	160432128	54	6274
2026-01-28 23:59:15.46	86.78	19.06	-41.4	-46.8	14.2	6.06e-01	0	59	0	164102144	54	6659
2026-01-28 23:59:17.48	87.35	19.07	-41.4	-46.9	14.0	6.05e-01	0	59	0	167772160	54	6793
2026-01-28 23:59:19.49	87.93	19.08	-41.6	-46.6	14.9	6.03e-01	0	59	0	171966464	54	6553
2026-01-28 23:59:21.51	88.50	19.08	-41.8	-46.4	15.8	6.04e-01	0	59	0	175636480	54	6367
2026-01-28 23:59:23.53	89.08	19.08	-41.9	-46.0	16.6	6.05e-01	0	59	0	179306496	54	6125
2026-01-28 23:59:25.55	89.65	19.08	-41.8	-45.6	17.4	6.05e-01	0	59	0	182976512	54	5842
2026-01-28 23:59:27.57	90.23	19.07	-41.6	-44.9	18.3	6.02e-01	0	59	0	187170816	54	5399
2026-01-28 23:59:29.59	90.80	19.06	-41.4	-44.5	18.8	6.04e-01	0	59	0	190840832	54	5158
2026-01-28 23:59:31.61	91.37	19.05	-41.3	-44.3	19.1	6.04e-01	0	59	0	194510848	54	5021
2026-01-28 23:59:33.63	91.95	19.04	-41.2	-44.5	19.0	6.02e-01	0	59	0	198180864	54	5134
2026-01-28 23:59:35.64	92.52	19.02	-41.2	-44.2	19.3	6.04e-01	0	59	0	201850880	53	5255
2026-01-28 23:59:37.67	93.09	19.00	-41.3	-44.3	19.3	6.03e-01	0	59	0	206045184	53	5280
2026-01-28 23:59:39.68	93.66	18.98	-41.3	-44.3	19.3	6.03e-01	0	59	0	209715200	53	5309
2026-01-28 23:59:41.71	94.24	18.95	-41.2	-44.2	19.4	6.03e-01	0	59	0	213385216	53	5249
2026-01-28 23:59:43.73	94.81	18.93	-41.2	-44.2	19.4	6.05e-01	0	59	0	217055232	53	5234
2026-01-28 23:59:45.74	95.37	18.90	-41.3	-44.3	19.3	6.03e-01	0	59	0	220725248	53	5337
2026-01-28 23:59:47.76	95.94	18.86	-41.3	-44.3	19.3	6.03e-01	0	59	0	224919552	53	5317
2026-01-28 23:59:49.78	96.51	18.83	-41.4	-44.4	19.2	6.04e-01	0	59	0	228589568	53	5381
2026-01-28 23:59:51.80	97.07	18.79	-41.2	-44.1	19.4	6.07e-01	0	59	0	232259584	53	5212
2026-01-28 23:59:53.82	97.64	18.75	-41.3	-44.2	19.4	6.02e-01	0	59	0	235929600	53	5270
2026-01-28 23:59:55.84	98.20	18.71	-41.2	-44.1	19.5	6.06e-01	0	59	0	240123904	53	5172
2026-01-28 23:59:57.86	98.76	18.66	-41.3	-44.3	19.4	6.06e-01	0	59	0	243793920	53	5286
2026-01-28 23:59:59.88	99.32	18.62	-41.2	-44.2	19.4	6.05e-01	0	59	0	247463936	53	5237
2026-01-29 00:00:01.90	99.87	18.57	-41.2	-44.1	19.5	6.03e-01	0	59	0	251133952	53	5181
2026-01-29 00:00:03.92	100.43	18.51	-41.3	-44.2	19.4	6.03e-01	0	59	0	255328256	53	5261
2026-01-29 00:00:05.93	100.98	18.46	-41.2	-44.1	19.6	6.04e-01	0	59	0	258998272	53	5163
2026-01-29 00:00:07.95	101.53	18.40	-41.2	-44.1	19.5	6.03e-01	0	59	0	262668288	53	5201
2026-01-29 00:00:09.97	102.08	18.34	-41.2	-44.2	19.4	6.04e-01	0	59	0	266338304	53	5230
2026-01-29 00:00:11.99	102.63	18.28	-41.2	-44.2	19.5	6.02e-01	0	59	0	270008320	53	5221
2026-01-29 00:00:14.01	103.17	18.22	-41.2	-44.1	19.5	6.06e-01	0	59	0	274202624	53	5192
2026-01-29 00:00:16.03	103.71	18.15	-41.1	-44.0	19.6	6.05e-01	0	59	0	277872640	52	5447
2026-01-29 00:00:18.05	104.25	18.08	-41.2	-44.1	19.5	6.06e-01	0	59	0	281542656	52	5504
2026-01-29 00:00:20.07	104.79	18.01	-41.2	-44.1	19.5	6.02e-01	0	59	0	285212672	52	5523
2026-01-29 00:00:22.09	105.32	17.94	-41.1	-44.0	19.6	6.04e-01	0	59	0	288882688	53	5148
2026-01-29 00:00:24.11	105.85	17.86	-41.2	-44.0	19.6	6.04e-01	0	59	0	293076992	53	5158
2026-01-29 00:00:26.13	106.38	17.79	-41.1	-44.0	19.6	6.05e-01	0	59	0	296747008	53	5150
2026-01-29 00:00:28.15	106.91	17.71	-41.1	-44.0	19.6	6.05e-01	0	59	0	300417024	53	5128
2026-01-29 00:00:30.17	107.43	17.63	-41.1	-43.9	19.7	6.04e-01	0	59	0	304087040	53	5089
2026-01-29 00:00:32.19	107.95	17.54	-41.2	-44.2	19.4	6.05e-01	0	59	0	308281344	53	5248
2026-01-29 00:00:34.21	108.47	17.46	-41.2	-44.1	19.5	6.04e-01	0	59	0	311951360	53	5164
2026-01-29 00:00:36.23	108.98	17.37	-41.2	-44.1	19.5	6.05e-01	0	59	0	315621376	53	5197
2026-01-29 00:00:38.25	109.49	17.28	-41.3	-44.3	19.3	6.03e-01	0	59	0	319291392	53	5304
2026-01-29 00:00:40.27	110.00	17.19	-41.3	-44.2	19.3	6.07e-01	0	59	0	323485696	53	5267
2026-01-29 00:00:42.29	110.51	17.10	-41.3	-44.4	19.2	6.03e-01	0	59	0	327155712	53	5344
2026-01-29 00:00:44.31	111.01	17.01	-41.0	-43.9	19.6	6.04e-01	0	59	0	330825728	53	5077
2026-01-29 00:00:46.33	111.51	16.92	-41.1	-44.1	19.4	6.03e-01	0	59	0	334495744	53	5177
2026-01-29 00:00:48.35	112.00	16.82	-41.2	-44.2	19.3	6.04e-01	0	59	0	338165760	53	5254
2026-01-29 00:00:50.37	112.49	16.72	-41.1	-44.1	19.4	6.03e-01	0	59	0	342360064	53	5177
2026-01-29 00:00:52.39	112.98	16.62	-41.1	-44.0	19.6	6.03e-01	0	59	0	346030080	53	5139
2026-01-29 00:00:54.40	113.47	16.52	-41.1	-44.0	19.5	6.04e-01	0	59	0	349700096	53	5124
2026-01-29 00:00:56.43	113.95	16.42	-41.1	-44.0	19.6	6.06e-01	0	59	0	353370112	53	5101
2026-01-29 00:00:58.44	114.43	16.32	-41.2	-44.1	19.4	6.03e-01	0	59	0	357040128	53	5203
2026-01-29 00:01:00.46	114.90	16.21	-41.2	-44.2	19.3	6.06e-01	0	59	0	361234432	53	5236
2026-01-29 00:01:02.49	115.37	16.10	-41.0	-43.9	19.6	6.04e-01	0	59	0	364904448	53	5042
2026-01-29 00:01:04.51	115.84	16.00	-41.0	-43.9	19.5	6.03e-01	0	59	0	368574464	53	5076
2026-01-29 00:01:06.52	116.31	15.89	-41.1	-44.0	19.4	6.02e-01	0	59	0	372244480	53	5150
2026-01-29 00:01:08.54	116.77	15.78	-41.1	-44.0	19.4	6.04e-01	0	59	0	376438784	53	5151
2026-01-29 00:01:10.56	117.22	15.67	-41.1	-44.0	19.3	6.04e-01	0	59	0	380108800	53	5149
2026-01-29 00:01:12.58	117.68	15.56	-41.2	-44.2	19.2	6.04e-01	0	59	0	383778816	53	5272
2026-01-29 00:01:14.60	118.13	15.44	-40.9	-44.1	19.3	6.04e-01	0	59	0	387448832	53	5185
2026-01-29 00:01:16.62	118.58	15.33	-40.4	-43.8	19.5	6.03e-01	0	59	0	391643136	52	5338
2026-01-29 00:01:18.64	119.02	15.21	-41.0	-44.0	19.4	6.04e-01	0	59	0	395313152	52	5430
2026-01-29 00:01:20.66	119.46	15.10	-41.0	-44.0	19.2	6.03e-01	0	59	0	398983168	52	5419
2026-01-29 00:01:22.68	119.90	14.98	-41.0	-44.0	19.1	6.04e-01	0	59	0	402653184	52	5453
2026-01-29 00:01:24.70	120.33	14.86	-40.9	-44.0	18.8	6.04e-01	0	59	0	406323200	52	5438
2026-01-29 00:01:26.72	120.76	14.75	-40.8	-43.9	18.0	6.02e-01	0	59	0	410517504	52	5393
2026-01-29 00:01:28.74	121.18	14.63	-40.3	-44.1	15.6	6.08e-01	6	59	0	414187520	51	5802
2026-01-29 00:01:30.76	121.61	14.51	-40.5	-44.2	14.2	6.08e-01	16	59	0	417857536	50	6257
2026-01-29 00:01:32.78	122.03	14.39	-38.6	-44.2	13.6	6.05e-01	1	59	0	419954688	51	5863
2026-01-29 00:01:34.80	122.44	14.27	-40.3	-43.9	16.6	6.04e-01	0	59	0	423624704	51	5703
2026-01-29 00:01:36.82	122.85	14.14	-40.6	-43.9	17.3	6.03e-01	0	59	0	427819008	52	5392
2026-01-29 00:01:38.84	123.26	14.02	-40.5	-44.1	16.6	6.05e-01	1	59	0	431489024	51	5822
2026-01-29 00:01:40.86	123.66	13.90	-40.5	-44.0	17.4	6.04e-01	0	59	0	435159040	52	5431
2026-01-29 00:01:42.88	124.07	13.77	-40.5	-44.2	16.1	6.07e-01	2	59	0	438829056	50	6204
2026-01-29 00:01:44.90	124.46	13.65	-38.7	-44.2	17.2	6.05e-01	2	59	0	443023360	51	5895
2026-01-29 00:01:46.92	124.86	13.53	-30.5	-42.4	6.0	6.87e-01	0	59	0	446693376	36	11327
2026-01-29 00:01:48.94	125.25	13.40	-38.3	-44.2	16.1	6.06e-01	7	59	0	450363392	50	6206
2026-01-29 00:01:50.96	125.64	13.27	-40.2	-43.8	14.8	6.08e-01	12	59	0	454033408	47	7108
2026-01-29 00:01:52.98	126.02	13.15	-35.6	-43.4	12.9	6.14e-01	40	59	0	457703424	42	9010
2026-01-29 00:01:55.00	126.40	13.02	-36.0	-44.0	12.1	6.16e-01	51	59	0	461373440	38	12215
2026-01-29 00:01:57.02	126.78	12.90	-33.6	-43.2	11.4	6.20e-01	91	59	0	465043456	36	12509
2026-01-29 00:01:59.04	127.15	12.77	-29.2	-42.0	9.6	6.35e-01	92	59	0	467140608	27	18219
2026-01-29 00:02:01.06	127.52	12.64	-27.7	-42.3	8.7	6.33e-01	91	59	0	471334912	25	21152
2026-01-29 00:02:03.08	127.89	12.51	-25.7	-41.6	8.5	6.41e-01	91	59	0	474480640	22	23221
2026-01-29 00:02:05.10	128.25	12.39	-23.4	-42.3	5.3	7.23e-01	0	59	104	474480640	20	28137
2026-01-29 00:02:07.12	128.61	12.26	-26.3	-43.4	4.7	7.20e-01	0	59	104	474480640	20	31822
2026-01-29 00:02:09.14	128.97	12.13	-23.7	-43.3	4.6	7.43e-01	0	59	104	474480640	15	42219
2026-01-29 00:02:11.17	129.33	12.00	-21.1	-41.8	5.2	7.32e-01	0	59	104	474480640	15	35455
2026-01-29 00:02:13.19	129.68	11.87	-18.9	-38.9	3.9	7.39e-01	0	59	104	474480640	7	40061
2026-01-29 00:02:15.21	130.02	11.74	-17.9	-41.8	4.1	7.46e-01	0	59	104	474480640	10	47501
2026-01-29 00:02:17.23	130.37	11.61	-21.4	-40.6	4.8	7.39e-01	0	59	104	474480640	11	39040
2026-01-29 00:02:19.25	130.71	11.48	-18.0	-39.7	4.7	7.41e-01	0	59	104	474480640	10	36956
2026-01-29 00:02:21.27	131.05	11.35	-23.1	-42.1	5.0	7.36e-01	0	59	104	474480640	17	32564
2026-01-29 00:02:23.29	131.38	11.23	-25.8	-42.6	4.9	7.32e-01	0	59	104	474480640	16	36915
2026-01-29 00:02:25.31	131.71	11.10	-19.8	-41.8	4.5	7.39e-01	0	59	104	474480640	14	37780
2026-01-29 00:02:27.33	132.04	10.97	-17.0	-39.8	4.3	7.43e-01	0	59	104	474480640	12	33624
2026-01-29 00:02:29.36	132.37	10.84	-23.7	-40.6	4.2	7.36e-01	0	59	104	474480640	10	41409
2026-01-29 00:02:31.38	132.69	10.71	-21.9	-42.5	4.5	7.50e-01	0	59	104	474480640	14	40902
2026-01-29 00:02:33.40	133.01	10.58	-25.3	-48.2	4.1	7.51e-01	0	59	104	474480640	20	55495
2026-01-29 00:02:35.42	133.33	10.45	-22.7	-46.1	4.1	7.57e-01	0	59	104	474480640	17	52092
2026-01-29 00:02:37.44	133.64	10.32	-22.1	-47.1	4.0	7.50e-01	0	59	104	474480640	22	43622
2026-01-29 00:02:39.46	133.95	10.19	-29.7	-50.0	4.1	7.44e-01	0	59	104	474480640	24	54307
2026-01-29 00:02:41.48	134.26	10.06	-25.4	-47.7	4.3	7.52e-01	0	59	104	474480640	21	49624
2026-01-29 00:02:43.50	134.57	9.93	-26.5	-48.7	4.0	7.44e-01	0	59	104	474480640	23	49302
2026-01-29 00:02:45.52	134.87	9.80	-22.0	-48.7	3.4	7.73e-01	0	59	104	474480640	25	44407
2026-01-29 00:02:47.54	135.17	9.67	-37.7	-59.2	4.3	7.49e-01	0	59	104	474480640	48	39248
2026-01-29 00:02:49.57	135.47	9.54	-29.5	-54.6	4.2	7.49e-01	0	59	104	474480640	36	46298
2026-01-29 00:02:51.58	135.76	9.42	-32.3	-56.1	4.2	7.55e-01	0	59	104	474480640	41	41269
2026-01-29 00:02:53.61	136.05	9.29	-41.0	-61.6	3.9	7.46e-01	0	59	104	474480640	55	34813
2026-01-29 00:02:55.63	136.34	9.16	-40.9	-61.8	3.8	7.45e-01	0	59	104	474480640	56	33642
2026-01-29 00:02:57.65	136.63	9.03	-41.7	-61.7	4.0	7.54e-01	0	59	104	474480640	53	39380
2026-01-29 00:02:59.67	136.91	8.90	-43.1	-62.2	3.9	7.45e-01	0	59	104	474480640	56	35259
2026-01-29 00:03:01.69	137.19	8.77	-35.1	-55.2	4.2	7.55e-01	0	59	104	474480640	49	23378
2026-01-29 00:03:03.71	137.47	8.64	-42.2	-62.1	3.7	7.42e-01	0	59	104	474480640	56	34589
2026-01-29 00:03:05.72	137.75	8.52	-41.2	-62.3	4.1	7.56e-01	0	59	104	474480640	56	35321
2026-01-29 00:03:07.74	138.02	8.39	-42.5	-61.4	3.9	7.45e-01	0	59	104	474480640	55	34061
2026-01-29 00:03:09.76	138.29	8.26	-41.3	-61.8	3.8	7.47e-01	0	59	104	474480640	56	33526
2026-01-29 00:03:11.78	138.56	8.14	-43.8	-61.4	3.8	7.44e-01	0	59	104	474480640	58	28425
2026-01-29 00:03:13.80	138.82	8.01	-42.0	-62.0	3.8	7.48e-01	0	59	104	474480640	56	34284
2026-01-29 00:03:15.82	139.09	7.88	-45.4	-64.3	3.8	7.46e-01	0	59	104	474480640	61	33633
2026-01-29 00:03:17.84	139.35	7.76	-46.2	-65.0	3.8	7.46e-01	0	59	104	474480640	62	34315
2026-01-29 00:03:19.86	139.61	7.63	-46.5	-65.3	3.8	7.43e-01	0	59	104	474480640	63	33519
2026-01-29 00:03:21.88	139.86	7.50	-46.6	-65.5	3.8	7.47e-01	0	59	104	474480640	63	34224
2026-01-29 00:03:23.90	140.12	7.38	-46.6	-65.4	3.8	7.48e-01	0	59	104	474480640	63	34055
2026-01-29 00:03:25.92	140.37	7.25	-46.4	-65.3	3.8	7.43e-01	0	59	104	474480640	63	33443
2026-01-29 00:03:27.94	140.62	7.13	-46.3	-65.2	3.8	7.45e-01	0	59	104	474480640	63	32955
2026-01-29 00:03:29.96	140.86	7.00	-46.1	-65.0	3.8	7.48e-01	0	59	104	474480640	63	32422
2026-01-29 00:03:31.98	141.11	6.88	-46.1	-65.0	3.8	7.48e-01	0	59	104	474480640	63	32525
2026-01-29 00:03:34.01	141.35	6.75	-46.1	-65.0	3.8	7.45e-01	0	59	104	474480640	63	32477
2026-01-29 00:03:36.03	141.59	6.63	-46.1	-65.0	3.8	7.45e-01	0	59	104	474480640	63	32469
2026-01-29 00:03:38.05	141.83	6.50	-46.1	-65.0	3.8	7.46e-01	0	59	104	474480640	63	32504
2026-01-29 00:03:40.07	142.07	6.38	-46.1	-65.0	3.8	7.42e-01	0	59	104	474480640	63	32389
2026-01-29 00:03:42.09	142.30	6.26	-46.1	-65.0	3.8	7.44e-01	0	59	104	474480640	63	32440
2026-01-29 00:03:44.11	142.53	6.13	-46.1	-65.0	3.8	7.46e-01	0	59	104	474480640	63	32525
2026-01-29 00:03:46.13	142.76	6.01	-46.1	-65.0	3.8	7.43e-01	0	59	104	474480640	63	32240
2026-01-29 00:03:48.15	142.99	5.89	-46.0	-64.9	3.8	7.47e-01	0	59	104	474480640	63	32085
2026-01-29 00:03:50.17	143.22	5.76	-46.0	-64.9	3.8	7.45e-01	0	59	104	474480640	63	32015
2026-01-29 00:03:52.19	143.44	5.64	-46.0	-64.9	3.8	7.45e-01	0	59	104	474480640	63	32027
2026-01-29 00:03:54.21	143.66	5.52	-46.0	-64.9	3.8	7.45e-01	0	59	104	474480640	63	32047
2026-01-29 00:03:56.23	143.88	5.40	-46.0	-64.9	3.8	7.45e-01	0	59	104	474480640	63	32006
2026-01-29 00:03:58.26	144.10	5.28	-46.0	-64.9	3.8	7.47e-01	0	59	104	474480640	63	32002
2026-01-29 00:04:00.28	144.32	5.16	-46.0	-64.9	3.8	7.44e-01	0	59	104	474480640	63	32123
2026-01-29 00:04:02.30	144.53	5.04	-46.0	-64.9	3.8	7.48e-01	0	59	104	474480640	63	32125
2026-01-29 00:04:04.32	144.75	4.92	-46.0	-64.9	3.8	7.47e-01	0	59	104	474480640	63	32098
2026-01-29 00:04:06.34	144.96	4.80	-46.0	-64.9	3.8	7.45e-01	0	59	104	474480640	63	32015
2026-01-29 00:04:08.36	145.17	4.68	-46.0	-64.9	3.8	7.44e-01	0	59	104	474480640	63	32026
2026-01-29 00:04:10.38	145.37	4.56	-46.0	-64.9	3.8	7.46e-01	0	59	104	474480640	63	31969
2026-01-29 00:04:12.40	145.58	4.44	-46.0	-64.9	3.8	7.42e-01	0	59	104	474480640	63	32001
2026-01-29 00:04:14.42	145.78	4.32	-46.0	-64.9	3.8	7.44e-01	0	59	104	474480640	63	31881
2026-01-29 00:04:16.44	145.98	4.20	-46.0	-64.9	3.8	7.44e-01	0	59	104	474480640	63	32026
2026-01-29 00:04:18.47	146.19	4.08	-46.0	-64.9	3.8	7.44e-01	0	59	104	474480640	63	31840
2026-01-29 00:04:20.49	146.38	3.96	-46.0	-64.9	3.8	7.48e-01	0	59	104	474480640	63	31841
2026-01-29 00:04:22.51	146.58	3.85	-46.0	-64.9	3.8	7.47e-01	0	59	104	474480640	63	31832
2026-01-29 00:04:24.53	146.78	3.73	-46.0	-64.8	3.8	7.44e-01	0	59	104	474480640	63	31807
2026-01-29 00:04:26.55	146.97	3.61	-46.0	-64.9	3.8	7.45e-01	0	59	104	474480640	63	31891
2026-01-29 00:04:28.57	147.16	3.50	-46.0	-64.8	3.8	7.45e-01	0	59	104	474480640	63	31797
2026-01-29 00:04:30.59	147.35	3.38	-46.0	-64.9	3.8	7.48e-01	0	59	104	474480640	63	31835
2026-01-29 00:04:32.62	147.54	3.26	-46.0	-64.8	3.8	7.45e-01	0	59	104	474480640	63	31803
2026-01-29 00:04:34.64	147.73	3.15	-46.0	-64.9	3.8	7.43e-01	0	59	104	474480640	63	31842
2026-01-29 00:04:36.66	147.91	3.03	-46.0	-64.9	3.8	7.44e-01	0	59	104	474480640	63	31876
2026-01-29 00:04:38.68	148.10	2.92	-46.0	-64.9	3.8	7.48e-01	0	59	104	474480640	63	31834
2026-01-29 00:04:40.70	148.28	2.80	-46.0	-64.8	3.8	7.41e-01	0	59	104	474480640	63	31749
2026-01-29 00:04:42.72	148.46	2.69	-45.9	-64.8	3.8	7.45e-01	0	59	104	474480640	63	31717
2026-01-29 00:04:44.74	148.64	2.58	-46.0	-64.8	3.8	7.46e-01	0	59	104	474480640	63	31802
2026-01-29 00:04:46.76	148.82	2.46	-46.0	-64.8	3.8	7.42e-01	0	59	104	474480640	63	31743
2026-01-29 00:04:48.78	148.99	2.35	-46.0	-64.8	3.8	7.47e-01	0	59	104	474480640	63	31802
2026-01-29 00:04:50.80	149.17	2.23	-45.9	-64.8	3.8	7.45e-01	0	59	104	474480640	63	31772
2026-01-29 00:04:52.82	149.34	2.12	-46.0	-64.8	3.8	7.47e-01	0	59	104	474480640	63	31753
2026-01-29 00:04:54.84	149.52	2.01	-45.9	-64.9	3.8	7.45e-01	0	60	104	474480640	63	31822
2026-01-29 00:04:56.86	149.69	1.90	-45.9	-64.8	3.8	7.40e-01	0	59	104	474480640	63	31689

#Closed at: 2026-01-29 00:04:57
#Recorded file [474 MB]: D:/lorett/data/31039_260129_025703.dat