passes_logs/2026/01/28/R2.0S_Moscow/R2.0S_Moscow__20260128_095150_NOAA_21_JPSS-2_rec.log

#Pass ID: 20260128_095150_NOAA 21 (JPSS-2)
#Satellite: NOAA 21 (JPSS-2)
#Configuration: NOAA-21
#almurnet v.1.7.20251203
#Start time: 2026-01-28 09:51:51

#Version: 2.2.20231116
#Station: R2.0S_Moscow
#Location: 37.707566 lon 55.798166 lat
#TLE: 1 54234U 22150A   26027.55906748  .00000170  00000+0  10132-3 0  9996
#TLE: 2 54234  98.7510 328.3076 0000860 204.4692 155.6443 14.19540154166599

#Time	Az	El	Level	Level2	SNR	BER	BlckErr	Temp	State	Recorded	gain1	gain2
2026-01-28 09:51:51.00	158.94	2.02	-44.1	-56.5	3.8	1.49e+00	0	50	0	0	59	15265
2026-01-28 09:51:55.04	158.94	2.28	-44.1	-56.5	3.8	1.49e+00	0	50	104	0	59	15267
2026-01-28 09:51:59.08	158.93	2.54	-44.1	-56.5	3.8	1.49e+00	0	51	104	0	59	15236
2026-01-28 09:52:03.12	158.93	2.81	-44.1	-56.4	3.8	1.49e+00	0	51	104	0	59	15197
2026-01-28 09:52:07.16	158.93	3.08	-44.1	-56.5	3.8	1.49e+00	0	51	104	0	59	15247
2026-01-28 09:52:11.21	158.93	3.35	-44.1	-56.4	3.8	1.49e+00	0	52	104	0	59	15211
2026-01-28 09:52:15.25	158.93	3.63	-44.1	-56.4	3.8	1.49e+00	0	52	104	0	59	15225
2026-01-28 09:52:19.29	158.93	3.90	-44.0	-56.4	3.8	1.49e+00	0	52	104	0	59	15196
2026-01-28 09:52:23.33	158.92	4.18	-44.1	-56.4	3.8	1.49e+00	0	53	104	0	59	15207
2026-01-28 09:52:27.38	158.92	4.47	-44.0	-56.4	3.8	1.49e+00	0	53	104	0	59	15182
2026-01-28 09:52:31.42	158.92	4.75	-44.0	-56.3	3.8	1.49e+00	0	53	104	0	59	15001
2026-01-28 09:52:35.46	158.92	5.04	-44.0	-56.0	3.8	1.49e+00	0	53	104	0	59	14405
2026-01-28 09:52:39.50	158.91	5.33	-43.9	-55.1	3.8	1.49e+00	0	53	104	0	59	13080
2026-01-28 09:52:43.55	158.91	5.63	-43.9	-54.8	3.8	1.49e+00	0	54	104	0	59	12593
2026-01-28 09:52:47.59	158.91	5.93	-43.8	-53.8	4.0	1.48e+00	0	54	104	0	59	11191
2026-01-28 09:52:51.63	158.90	6.23	-43.7	-52.8	4.2	1.46e+00	0	54	104	0	59	9994
2026-01-28 09:52:55.67	158.90	6.54	-43.6	-52.7	3.9	1.41e+00	0	54	104	0	59	9938
2026-01-28 09:52:59.72	158.89	6.85	-43.5	-52.5	4.0	1.39e+00	0	54	104	0	59	9642
2026-01-28 09:53:03.76	158.89	7.16	-43.2	-50.2	5.4	5.63e-01	0	55	0	4194304	58	7845
2026-01-28 09:53:07.80	158.88	7.48	-42.4	-47.6	7.5	1.17e-01	0	55	0	16777216	56	6531
2026-01-28 09:53:11.84	158.88	7.80	-41.5	-45.6	9.4	1.67e-02	0	55	0	29360128	54	5790
2026-01-28 09:53:15.88	158.87	8.12	-44.1	-55.1	3.8	6.60e-01	0	55	104	40894464	58	13807
2026-01-28 09:53:19.92	158.87	8.45	-42.2	-47.3	7.7	3.76e-04	0	55	0	48234496	55	6666
2026-01-28 09:53:23.96	158.86	8.79	-40.1	-42.9	12.2	2.27e-04	0	55	0	60817408	52	4812
2026-01-28 09:53:28.00	158.85	9.12	-40.0	-42.7	12.5	1.14e-04	0	56	0	73400320	51	4963
2026-01-28 09:53:32.03	158.84	9.47	-39.8	-42.4	12.9	4.80e-05	0	56	0	85983232	51	4807
2026-01-28 09:53:36.08	158.84	9.82	-39.7	-42.2	13.2	2.44e-05	0	56	0	98566144	51	4700
2026-01-28 09:53:40.12	158.83	10.17	-39.6	-42.0	13.4	8.30e-06	0	56	0	111149056	51	4590
2026-01-28 09:53:44.16	158.82	10.53	-39.5	-41.9	13.6	1.06e-05	0	56	0	123731968	50	4793
2026-01-28 09:53:48.20	158.81	10.89	-39.4	-41.7	13.8	3.80e-06	0	56	0	136314880	50	4680
2026-01-28 09:53:52.24	158.80	11.26	-39.4	-41.7	13.9	1.50e-06	0	56	0	148897792	50	4661
2026-01-28 09:53:56.29	158.79	11.63	-39.2	-41.4	14.2	1.50e-06	0	56	0	161480704	50	4542
2026-01-28 09:54:00.33	158.78	12.01	-39.3	-41.5	14.2	7.00e-07	0	56	0	174063616	50	4570
2026-01-28 09:54:04.37	158.77	12.40	-39.3	-41.5	14.2	7.00e-07	0	56	0	186646528	50	4554
2026-01-28 09:54:08.41	158.75	12.79	-39.1	-41.2	14.5	0.00e+00	0	57	0	199229440	50	4429
2026-01-28 09:54:12.45	158.74	13.19	-39.0	-41.1	14.7	7.00e-07	0	56	0	211812352	50	4349
2026-01-28 09:54:16.49	158.73	13.60	-39.0	-41.1	14.7	0.00e+00	0	57	0	224395264	50	4370
2026-01-28 09:54:20.54	158.71	14.01	-39.1	-41.2	14.7	0.00e+00	0	57	0	236978176	50	4393
2026-01-28 09:54:24.58	158.70	14.43	-39.1	-41.1	14.7	0.00e+00	0	57	0	249561088	50	4391
2026-01-28 09:54:28.62	158.68	14.86	-38.9	-40.9	14.9	7.00e-07	0	57	0	263192576	49	4526
2026-01-28 09:54:32.66	158.67	15.29	-39.0	-41.0	14.9	0.00e+00	0	57	0	275775488	49	4558
2026-01-28 09:54:36.71	158.65	15.73	-39.0	-40.9	15.0	0.00e+00	0	57	0	288358400	49	4535
2026-01-28 09:54:40.75	158.63	16.19	-39.1	-41.1	14.9	0.00e+00	0	57	0	300941312	49	4604
2026-01-28 09:54:44.78	158.61	16.64	-39.0	-41.0	14.9	0.00e+00	0	57	0	313524224	49	4567
2026-01-28 09:54:48.82	158.59	17.11	-39.1	-41.1	14.8	0.00e+00	0	57	0	326107136	49	4633
2026-01-28 09:54:52.87	158.57	17.59	-39.1	-41.2	14.8	0.00e+00	0	57	0	338690048	49	4664
2026-01-28 09:54:56.91	158.55	18.08	-39.1	-41.1	14.8	7.00e-07	0	57	0	351272960	49	4643
2026-01-28 09:55:00.95	158.53	18.57	-39.2	-41.2	14.7	0.00e+00	0	57	0	363855872	49	4700
2026-01-28 09:55:04.99	158.50	19.08	-39.2	-41.3	14.7	0.00e+00	0	58	0	376438784	49	4709
2026-01-28 09:55:09.04	158.48	19.60	-39.2	-41.2	14.8	0.00e+00	0	58	0	389021696	49	4682
2026-01-28 09:55:13.08	158.45	20.13	-39.1	-41.0	15.1	0.00e+00	0	58	0	401604608	49	4582
2026-01-28 09:55:17.12	158.42	20.66	-39.0	-41.0	15.1	0.00e+00	0	58	0	414187520	49	4547
2026-01-28 09:55:21.16	158.39	21.22	-38.8	-40.7	15.4	0.00e+00	0	58	0	426770432	49	4420
2026-01-28 09:55:25.20	158.36	21.78	-38.6	-40.3	15.7	0.00e+00	0	58	0	439353344	49	4242
2026-01-28 09:55:29.25	158.33	22.36	-38.3	-40.0	16.1	0.00e+00	0	58	0	451936256	48	4293
2026-01-28 09:55:33.29	158.30	22.95	-38.1	-39.7	16.4	0.00e+00	0	58	0	464519168	48	4170
2026-01-28 09:55:37.33	158.26	23.55	-37.8	-39.5	16.6	0.00e+00	0	58	0	477102080	47	4306
2026-01-28 09:55:41.38	158.22	24.17	-37.7	-39.3	16.7	0.00e+00	0	58	0	489684992	47	4220
2026-01-28 09:55:45.42	158.18	24.80	-37.7	-39.3	16.7	0.00e+00	0	58	0	502267904	47	4236
2026-01-28 09:55:49.46	158.14	25.45	-37.8	-39.4	16.7	0.00e+00	0	58	0	514850816	47	4277
2026-01-28 09:55:53.50	158.10	26.12	-38.0	-39.7	16.4	0.00e+00	0	58	0	527433728	47	4414
2026-01-28 09:55:57.54	158.05	26.80	-38.3	-40.1	16.0	0.00e+00	0	58	0	540016640	47	4614
2026-01-28 09:56:01.59	158.00	27.50	-38.7	-40.5	15.7	0.00e+00	0	58	0	553648128	47	4823
2026-01-28 09:56:05.63	157.95	28.22	-38.9	-40.8	15.4	0.00e+00	0	58	0	566231040	48	4733
2026-01-28 09:56:09.66	157.89	28.95	-39.0	-40.9	15.3	0.00e+00	0	58	0	578813952	48	4789
2026-01-28 09:56:13.70	157.83	29.71	-38.9	-40.8	15.5	0.00e+00	0	58	0	591396864	48	4711
2026-01-28 09:56:17.74	157.77	30.48	-39.0	-40.8	15.4	0.00e+00	0	58	0	603979776	48	4752
2026-01-28 09:56:21.78	157.71	31.28	-38.7	-40.5	15.7	0.00e+00	0	58	0	616562688	48	4595
2026-01-28 09:56:25.82	157.64	32.10	-39.0	-40.8	15.5	0.00e+00	0	58	0	629145600	48	4751
2026-01-28 09:56:29.86	157.56	32.95	-39.2	-41.2	15.1	0.00e+00	0	58	0	641728512	49	4675
2026-01-28 09:56:33.91	157.49	33.82	-39.4	-41.4	14.9	0.00e+00	0	58	0	654311424	49	4789
2026-01-28 09:56:37.95	157.40	34.71	-39.7	-41.7	14.6	1.50e-06	0	58	0	666894336	49	4973
2026-01-28 09:56:41.99	157.31	35.63	-40.2	-42.4	13.9	1.50e-06	0	58	0	679477248	50	5088
2026-01-28 09:56:46.03	157.22	36.57	-40.3	-42.6	13.7	7.60e-06	0	58	0	692060160	51	4916
2026-01-28 09:56:50.06	157.12	37.55	-40.4	-42.9	13.5	7.60e-06	0	59	0	704643072	51	5049
2026-01-28 09:56:54.11	157.01	38.55	-40.3	-42.6	13.8	7.60e-06	0	58	0	717225984	51	4895
2026-01-28 09:56:58.14	156.89	39.58	-40.2	-42.5	13.8	3.80e-06	0	59	0	729808896	51	4846
2026-01-28 09:57:02.18	156.77	40.65	-40.2	-42.5	13.8	3.80e-06	0	59	0	742391808	51	4841
2026-01-28 09:57:06.22	156.64	41.74	-40.5	-42.9	13.5	9.90e-06	0	59	0	754974720	51	5084
2026-01-28 09:57:10.26	156.49	42.88	-40.6	-43.1	13.2	1.98e-05	0	59	0	767557632	52	4908
2026-01-28 09:57:14.31	156.33	44.04	-40.3	-42.6	13.7	4.50e-06	0	59	0	780140544	52	4609
2026-01-28 09:57:18.35	156.17	45.25	-41.0	-43.8	12.5	9.00e-05	0	59	0	792723456	52	5288
2026-01-28 09:57:22.39	155.98	46.48	-41.1	-43.8	12.4	1.75e-04	0	59	0	805306368	53	5033
2026-01-28 09:57:26.44	155.78	47.76	-40.7	-43.2	13.1	4.50e-05	0	59	0	817889280	53	4697
2026-01-28 09:57:30.48	155.56	49.08	-40.5	-42.9	13.4	1.22e-05	0	59	0	830472192	52	4780
2026-01-28 09:57:34.52	155.32	50.43	-40.4	-42.8	13.5	1.52e-05	0	59	0	844103680	52	4751
2026-01-28 09:57:38.57	155.06	51.83	-40.2	-42.5	13.8	8.30e-06	0	59	0	856686592	52	4591
2026-01-28 09:57:42.61	154.77	53.26	-39.6	-41.7	14.7	0.00e+00	0	59	0	869269504	51	4393
2026-01-28 09:57:46.65	154.45	54.74	-39.0	-40.8	15.5	7.00e-07	0	59	0	881852416	50	4228
2026-01-28 09:57:50.70	154.09	56.26	-38.9	-40.7	15.8	0.00e+00	0	59	0	894435328	49	4398
2026-01-28 09:57:54.73	153.68	57.82	-38.5	-40.3	16.1	0.00e+00	0	59	0	907018240	48	4454
2026-01-28 09:57:58.78	153.23	59.42	-37.8	-39.4	16.8	0.00e+00	0	59	0	919601152	47	4272
2026-01-28 09:58:02.82	152.71	61.06	-38.0	-39.6	16.6	0.00e+00	0	59	0	932184064	47	4359
2026-01-28 09:58:06.86	152.12	62.74	-37.8	-39.4	16.9	0.00e+00	0	59	0	944766976	47	4260
2026-01-28 09:58:10.90	151.43	64.46	-37.7	-39.3	16.9	0.00e+00	0	59	0	957349888	47	4224
2026-01-28 09:58:14.94	150.63	66.22	-37.1	-38.5	17.7	0.00e+00	0	59	0	969932800	46	4077
2026-01-28 09:58:18.99	149.69	68.01	-37.2	-38.6	17.6	0.00e+00	0	59	0	982515712	46	4125
2026-01-28 09:58:23.03	148.55	69.83	-37.8	-39.4	16.8	0.00e+00	0	59	0	995098624	46	4499
2026-01-28 09:58:27.07	147.18	71.68	-37.8	-39.5	16.7	0.00e+00	0	59	0	1007681536	46	4561
2026-01-28 09:58:31.11	145.46	73.54	-37.9	-39.6	16.6	0.00e+00	0	59	0	1020264448	46	4606
2026-01-28 09:58:35.15	143.28	75.42	-37.8	-39.5	16.7	0.00e+00	0	59	0	1032847360	46	4557
2026-01-28 09:58:39.18	140.44	77.29	-37.9	-39.5	16.6	0.00e+00	0	59	0	1045430272	46	4597
2026-01-28 09:58:43.22	136.57	79.14	-37.8	-39.4	16.7	0.00e+00	0	59	0	1058013184	46	4508
2026-01-28 09:58:47.26	131.10	80.95	-37.4	-38.8	17.2	0.00e+00	0	59	0	1070596096	46	4241
2026-01-28 09:58:51.30	122.95	82.64	-38.0	-39.7	16.3	0.00e+00	0	59	0	1083179008	46	4676
2026-01-28 09:58:55.34	110.30	84.12	-38.4	-40.2	16.0	0.00e+00	0	59	0	1095761920	47	4679
2026-01-28 09:58:59.38	90.88	85.14	-37.9	-39.5	16.6	0.00e+00	0	59	0	1108344832	47	4307
2026-01-28 09:59:03.43	65.64	85.40	-37.7	-39.3	16.8	0.00e+00	0	59	0	1120927744	47	4227
2026-01-28 09:59:07.47	42.39	84.76	-37.8	-39.4	16.7	0.00e+00	0	59	0	1134559232	47	4265
2026-01-28 09:59:11.51	26.18	83.51	-38.0	-39.7	16.3	0.00e+00	0	59	0	1147142144	47	4430
2026-01-28 09:59:15.55	15.80	81.92	-37.7	-39.3	16.8	0.00e+00	0	59	0	1159725056	47	4212
2026-01-28 09:59:19.59	9.00	80.16	-37.5	-39.0	17.1	0.00e+00	0	59	0	1172307968	46	4333
2026-01-28 09:59:23.64	4.32	78.33	-38.0	-39.7	16.3	0.00e+00	0	59	0	1184890880	46	4683
2026-01-28 09:59:27.68	0.96	76.47	-37.5	-39.0	17.1	0.00e+00	0	59	0	1197473792	46	4312
2026-01-28 09:59:31.72	358.44	74.59	-37.2	-38.6	17.4	0.00e+00	0	60	0	1210056704	46	4144
2026-01-28 09:59:35.76	356.49	72.72	-38.5	-40.3	15.8	0.00e+00	0	59	0	1222639616	47	4732
2026-01-28 09:59:39.81	354.94	70.87	-37.1	-38.5	17.6	0.00e+00	0	59	0	1235222528	46	4069
2026-01-28 09:59:43.85	353.68	69.04	-37.9	-39.6	16.5	0.00e+00	0	59	0	1247805440	46	4609
2026-01-28 09:59:47.89	352.64	67.23	-37.0	-38.4	17.6	0.00e+00	0	59	0	1260388352	45	4284
2026-01-28 09:59:51.93	351.76	65.46	-38.0	-39.7	16.5	0.00e+00	0	59	0	1272971264	47	4412
2026-01-28 09:59:55.98	351.02	63.72	-37.3	-38.8	17.3	0.00e+00	0	59	0	1285554176	45	4461
2026-01-28 10:00:00.02	350.38	62.03	-39.0	-40.8	15.4	0.00e+00	0	59	0	1298137088	49	4483
2026-01-28 10:00:04.06	349.82	60.37	-38.1	-39.8	16.5	0.00e+00	0	59	0	1310720000	48	4198
2026-01-28 10:00:08.10	349.33	58.75	-40.1	-42.4	14.0	0.00e+00	0	59	0	1323302912	50	5064
2026-01-28 10:00:12.14	348.90	57.17	-38.8	-40.6	15.7	0.00e+00	0	59	0	1335885824	49	4347
2026-01-28 10:00:16.18	348.52	55.64	-40.5	-42.9	13.4	1.37e-05	0	59	0	1348468736	51	5082
2026-01-28 10:00:20.22	348.18	54.14	-40.5	-43.0	13.0	4.50e-05	0	59	0	1361051648	52	4815
2026-01-28 10:00:24.26	347.87	52.69	-38.9	-40.7	15.6	0.00e+00	0	60	0	1373634560	49	4405
2026-01-28 10:00:28.30	347.59	51.28	-40.4	-42.7	13.6	5.30e-06	0	59	0	1386217472	51	4970
2026-01-28 10:00:32.34	347.34	49.91	-40.7	-43.3	12.8	5.56e-05	0	59	0	1398800384	52	5033
2026-01-28 10:00:36.38	347.11	48.57	-40.5	-42.9	13.3	3.20e-05	0	59	0	1412431872	52	4804
2026-01-28 10:00:40.42	346.91	47.28	-41.2	-44.1	12.1	3.01e-04	0	59	0	1425014784	52	5503
2026-01-28 10:00:44.46	346.71	46.03	-40.8	-43.5	12.7	9.00e-05	0	59	0	1437597696	52	5111
2026-01-28 10:00:48.50	346.54	44.81	-41.0	-43.9	12.2	2.36e-04	0	59	0	1450180608	52	5343
2026-01-28 10:00:52.54	346.38	43.63	-40.6	-43.1	13.0	4.80e-05	0	59	0	1462763520	52	4903
2026-01-28 10:00:56.58	346.23	42.48	-40.9	-43.6	12.5	7.70e-05	0	59	0	1475346432	52	5187
2026-01-28 10:01:00.62	346.09	41.37	-40.9	-43.7	12.5	1.28e-04	0	59	0	1487929344	52	5243
2026-01-28 10:01:04.66	345.96	40.29	-40.5	-43.0	13.3	1.75e-05	0	59	0	1500512256	52	4822
2026-01-28 10:01:08.70	345.84	39.24	-41.0	-43.8	12.4	1.46e-04	0	59	0	1513095168	52	5302
2026-01-28 10:01:12.75	345.73	38.22	-40.4	-42.8	13.3	2.21e-05	0	59	0	1525678080	52	4756
2026-01-28 10:01:16.79	345.63	37.23	-39.5	-41.5	14.7	0.00e+00	0	59	0	1538260992	51	4330
2026-01-28 10:01:20.82	345.53	36.28	-40.2	-42.5	13.7	3.80e-06	0	59	0	1550843904	50	5130
2026-01-28 10:01:24.87	345.44	35.35	-40.5	-43.0	13.2	3.28e-05	0	59	0	1563426816	51	5113
2026-01-28 10:01:28.91	345.36	34.44	-40.0	-42.2	14.0	2.20e-06	0	59	0	1576009728	51	4683
2026-01-28 10:01:32.95	345.28	33.56	-39.4	-41.3	14.8	7.00e-07	0	59	0	1588592640	50	4491
2026-01-28 10:01:36.99	345.20	32.71	-39.1	-41.1	15.1	0.00e+00	0	59	0	1601175552	50	4346
2026-01-28 10:01:41.03	345.13	31.88	-39.1	-41.1	15.1	0.00e+00	0	59	0	1613758464	50	4352
2026-01-28 10:01:45.07	345.07	31.07	-39.1	-41.1	15.0	7.00e-07	0	60	0	1626341376	50	4368
2026-01-28 10:01:49.11	345.01	30.28	-39.1	-41.1	15.0	0.00e+00	0	59	0	1638924288	50	4376
2026-01-28 10:01:53.15	344.95	29.52	-39.4	-41.6	14.4	0.00e+00	0	59	0	1651507200	50	4606
2026-01-28 10:01:57.19	344.89	28.77	-39.4	-41.6	14.4	0.00e+00	0	59	0	1664090112	50	4607
2026-01-28 10:02:01.23	344.84	28.05	-39.2	-41.3	14.6	0.00e+00	0	59	0	1676673024	50	4472
2026-01-28 10:02:05.27	344.79	27.34	-39.1	-41.2	14.7	0.00e+00	0	60	0	1689255936	50	4402
2026-01-28 10:02:09.32	344.75	26.65	-38.9	-40.9	15.0	0.00e+00	0	59	0	1702887424	49	4526
2026-01-28 10:02:13.36	344.70	25.98	-38.5	-40.4	15.5	0.00e+00	0	59	0	1715470336	48	4502
2026-01-28 10:02:17.40	344.66	25.32	-38.0	-39.8	16.0	0.00e+00	0	59	0	1728053248	48	4223
2026-01-28 10:02:21.44	344.62	24.68	-37.8	-39.6	16.1	0.00e+00	0	59	0	1740636160	47	4378
2026-01-28 10:02:25.48	344.59	24.06	-38.0	-39.9	15.8	0.00e+00	0	60	0	1753219072	47	4498
2026-01-28 10:02:29.52	344.55	23.45	-38.5	-40.5	15.0	0.00e+00	0	59	0	1765801984	47	4842
2026-01-28 10:02:33.56	344.52	22.85	-38.8	-41.0	13.9	2.20e-06	0	59	0	1778384896	48	4867
2026-01-28 10:02:37.60	344.49	22.27	-38.2	-40.3	14.4	7.00e-07	0	59	0	1790967808	48	4457
2026-01-28 10:02:41.64	344.46	21.70	-38.0	-40.4	13.6	2.20e-06	0	59	0	1803550720	47	4776
2026-01-28 10:02:45.67	344.43	21.15	-40.2	-45.0	8.0	5.62e-02	0	59	0	1816133632	51	6429
2026-01-28 10:02:49.71	344.41	20.60	-40.9	-50.6	4.0	1.47e+00	0	60	104	1823473664	52	11644
2026-01-28 10:02:53.75	344.38	20.07	-40.7	-52.8	3.8	1.49e+00	0	60	104	1823473664	52	14942
2026-01-28 10:02:57.80	344.36	19.54	-40.6	-52.7	3.8	1.49e+00	0	60	104	1823473664	53	13974
2026-01-28 10:03:01.83	344.34	19.03	-40.7	-52.8	3.8	1.49e+00	0	60	104	1823473664	53	14208
2026-01-28 10:03:05.87	344.32	18.53	-40.9	-53.1	3.8	1.49e+00	0	60	104	1823473664	53	14648
2026-01-28 10:03:09.91	344.30	18.04	-40.9	-53.1	3.8	1.49e+00	0	60	104	1823473664	53	14647
2026-01-28 10:03:13.95	344.28	17.56	-40.8	-53.0	3.8	1.49e+00	0	60	104	1823473664	53	14418
2026-01-28 10:03:17.99	344.26	17.09	-40.7	-52.9	3.8	1.49e+00	0	60	104	1823473664	53	14371
2026-01-28 10:03:22.03	344.25	16.63	-40.9	-53.1	3.8	1.49e+00	0	60	104	1823473664	53	14657
2026-01-28 10:03:26.07	344.23	16.17	-40.9	-53.1	3.8	1.49e+00	0	60	104	1823473664	53	14605
2026-01-28 10:03:30.11	344.22	15.73	-40.8	-53.0	3.8	1.49e+00	0	60	104	1823473664	53	14477
2026-01-28 10:03:34.15	344.20	15.29	-40.7	-52.9	3.8	1.49e+00	0	60	104	1823473664	53	14327
2026-01-28 10:03:38.18	344.19	14.86	-40.7	-53.0	3.8	1.49e+00	0	60	104	1823473664	53	14407
2026-01-28 10:03:42.22	344.18	14.44	-40.8	-53.0	3.8	1.49e+00	0	60	104	1823473664	53	14476
2026-01-28 10:03:46.26	344.17	14.02	-40.8	-53.0	3.8	1.49e+00	0	60	104	1823473664	53	14508
2026-01-28 10:03:50.30	344.16	13.61	-40.7	-52.9	3.8	1.49e+00	0	60	104	1823473664	53	14301
2026-01-28 10:03:54.34	344.15	13.21	-40.6	-52.8	3.8	1.49e+00	0	60	104	1823473664	53	14135
2026-01-28 10:03:58.38	344.14	12.82	-40.6	-52.8	3.8	1.49e+00	0	59	104	1823473664	53	14066
2026-01-28 10:04:02.42	344.13	12.43	-40.6	-52.8	3.8	1.49e+00	0	60	104	1823473664	53	14177
2026-01-28 10:04:06.46	344.12	12.05	-40.7	-52.9	3.8	1.49e+00	0	60	104	1823473664	53	14227
2026-01-28 10:04:10.50	344.12	11.67	-40.7	-52.9	3.8	1.49e+00	0	60	104	1823473664	52	15118
2026-01-28 10:04:14.53	344.11	11.30	-40.7	-52.9	3.8	1.49e+00	0	60	104	1823473664	52	15058
2026-01-28 10:04:18.57	344.10	10.93	-40.5	-52.8	3.8	1.49e+00	0	60	104	1823473664	52	14914
2026-01-28 10:04:22.61	344.10	10.57	-40.4	-52.7	3.8	1.49e+00	0	60	104	1823473664	52	14711
2026-01-28 10:04:26.65	344.10	10.22	-40.3	-52.5	3.8	1.49e+00	0	60	104	1823473664	52	14456
2026-01-28 10:04:30.69	344.09	9.87	-40.3	-52.5	3.8	1.49e+00	0	60	104	1823473664	52	14490
2026-01-28 10:04:34.73	344.09	9.52	-40.3	-52.6	3.8	1.49e+00	0	60	104	1823473664	52	14553
2026-01-28 10:04:38.77	344.08	9.18	-40.4	-52.6	3.8	1.49e+00	0	60	104	1823473664	52	14699
2026-01-28 10:04:42.80	344.08	8.85	-40.5	-52.8	3.8	1.49e+00	0	60	104	1823473664	52	14887
2026-01-28 10:04:46.84	344.08	8.52	-40.5	-52.8	3.8	1.49e+00	0	60	104	1823473664	52	14923
2026-01-28 10:04:50.88	344.08	8.19	-40.5	-52.7	3.8	1.49e+00	0	60	104	1823473664	52	14814
2026-01-28 10:04:54.92	344.08	7.87	-40.7	-52.9	3.8	1.49e+00	0	60	104	1823473664	52	15203
2026-01-28 10:04:58.96	344.08	7.55	-45.1	-57.7	3.8	1.49e+00	0	60	104	1823473664	60	16525
2026-01-28 10:05:03.00	344.07	7.23	-45.2	-57.8	3.8	1.49e+00	0	60	104	1823473664	60	16862
2026-01-28 10:05:07.04	344.07	6.92	-45.1	-57.8	3.8	1.49e+00	0	60	104	1823473664	60	16716
2026-01-28 10:05:11.09	344.07	6.61	-45.1	-57.7	3.8	1.49e+00	0	60	104	1823473664	60	16551
2026-01-28 10:05:15.13	344.08	6.31	-45.0	-57.6	3.8	1.49e+00	0	60	104	1823473664	60	16468
2026-01-28 10:05:19.17	344.08	6.01	-45.0	-57.6	3.8	1.49e+00	0	60	104	1823473664	60	16489
2026-01-28 10:05:23.21	344.08	5.71	-45.0	-57.6	3.8	1.49e+00	0	60	104	1823473664	60	16471
2026-01-28 10:05:27.25	344.08	5.42	-45.0	-57.6	3.8	1.49e+00	0	60	104	1823473664	60	16487
2026-01-28 10:05:31.29	344.08	5.13	-45.0	-57.6	3.8	1.49e+00	0	60	104	1823473664	60	16395
2026-01-28 10:05:35.33	344.08	4.84	-45.0	-57.6	3.8	1.49e+00	0	60	104	1823473664	60	16414
2026-01-28 10:05:39.37	344.09	4.56	-45.0	-57.5	3.8	1.49e+00	0	60	104	1823473664	60	16299
2026-01-28 10:05:43.41	344.09	4.28	-44.9	-57.5	3.8	1.49e+00	0	60	104	1823473664	60	16276
2026-01-28 10:05:47.46	344.09	4.00	-45.0	-57.5	3.8	1.49e+00	0	60	104	1823473664	60	16311
2026-01-28 10:05:51.50	344.09	3.72	-44.9	-57.6	3.8	1.49e+00	0	60	104	1823473664	60	16347
2026-01-28 10:05:55.54	344.10	3.45	-44.9	-57.5	3.8	1.49e+00	0	60	104	1823473664	60	16265
2026-01-28 10:05:59.59	344.10	3.18	-44.9	-57.5	3.8	1.49e+00	0	60	104	1823473664	60	16295
2026-01-28 10:06:03.63	344.11	2.91	-44.9	-57.5	3.8	1.49e+00	0	60	104	1823473664	60	16280
2026-01-28 10:06:07.67	344.11	2.65	-44.9	-57.5	3.8	1.49e+00	0	60	104	1823473664	60	16304
2026-01-28 10:06:11.71	344.12	2.39	-44.8	-57.5	3.8	1.49e+00	0	60	104	1823473664	60	16301
2026-01-28 10:06:15.76	344.12	2.13	-44.9	-57.5	3.8	1.49e+00	0	60	104	1823473664	60	16189
2026-01-28 10:06:19.80	344.13	1.87	-44.9	-57.5	3.8	1.49e+00	0	60	104	1823473664	60	16228

#Closed at: 2026-01-28 10:06:20
#Recorded file [1823 MB]: D:/lorett/data/31039_260128_125150.dat