passes_logs/2026/01/28/R2.0S_Moscow/R2.0S_Moscow__20260128_181207_FENGYUN_3G_rec.log

#Pass ID: 20260128_181207_FENGYUN 3G
#Satellite: FENGYUN 3G
#Configuration: FENGYUN 3G
#almurnet v.1.7.20251203
#Start time: 2026-01-28 18:12:09

#Version: 2.2.20231116
#Station: R2.0S_Moscow
#Location: 37.707566 lon 55.798166 lat
#TLE: 1 56232U 23055A   26027.33093889  .00044881  00000+0  67100-3 0  9994
#TLE: 2 56232  49.9947 352.2708 0004101  93.7831 266.3606 15.54500775158110

#Time	Az	El	Level	Level2	SNR	BER	BlckErr	Temp	State	Recorded	gain1	gain2
2026-01-28 18:12:09.29	255.04	2.10	-44.1	-62.5	3.8	8.45e-01	0	49	0	0	60	28965
2026-01-28 18:12:12.32	254.85	2.30	-44.0	-62.5	3.8	8.46e-01	0	49	104	0	60	28903
2026-01-28 18:12:15.35	254.66	2.50	-44.0	-62.5	3.8	8.46e-01	0	50	104	0	60	28898
2026-01-28 18:12:18.38	254.46	2.71	-44.0	-62.5	3.8	8.47e-01	0	50	104	0	60	28868
2026-01-28 18:12:21.41	254.25	2.91	-44.0	-62.5	3.8	8.45e-01	0	50	104	0	60	28924
2026-01-28 18:12:24.44	254.04	3.12	-44.0	-62.5	3.8	8.45e-01	0	50	104	0	60	28890
2026-01-28 18:12:27.47	253.83	3.33	-44.0	-62.5	3.8	8.46e-01	0	50	104	0	60	28921
2026-01-28 18:12:30.50	253.61	3.54	-44.0	-62.5	3.8	8.46e-01	0	51	104	0	60	28919
2026-01-28 18:12:33.53	253.39	3.76	-44.0	-62.5	3.8	8.47e-01	0	51	104	0	60	28970
2026-01-28 18:12:36.56	253.17	3.97	-44.0	-62.5	3.8	8.47e-01	0	51	104	0	60	28827
2026-01-28 18:12:39.59	252.93	4.19	-44.0	-62.5	3.8	8.45e-01	0	51	104	0	60	28839
2026-01-28 18:12:42.63	252.70	4.41	-44.1	-62.5	3.8	8.46e-01	0	52	104	0	60	28812
2026-01-28 18:12:45.66	252.45	4.64	-44.0	-62.5	3.8	8.46e-01	0	52	104	0	60	28861
2026-01-28 18:12:48.69	252.20	4.86	-44.0	-62.5	3.8	8.46e-01	0	52	104	0	60	28806
2026-01-28 18:12:51.72	251.95	5.09	-44.1	-62.5	3.8	8.46e-01	0	52	104	0	60	28861
2026-01-28 18:12:54.75	251.69	5.32	-44.0	-62.5	3.8	8.47e-01	0	52	104	0	60	28898
2026-01-28 18:12:57.78	251.42	5.56	-44.0	-62.5	3.8	8.46e-01	0	52	104	0	60	28858
2026-01-28 18:13:00.81	251.15	5.79	-44.0	-62.5	3.8	8.46e-01	0	53	104	0	60	28872
2026-01-28 18:13:03.84	250.87	6.03	-44.0	-62.5	3.8	8.47e-01	0	53	104	0	60	28907
2026-01-28 18:13:06.87	250.59	6.28	-44.0	-62.5	3.8	8.46e-01	0	53	104	0	60	28847
2026-01-28 18:13:09.90	250.30	6.52	-44.0	-62.5	3.8	8.46e-01	0	53	104	0	60	28904
2026-01-28 18:13:12.93	250.00	6.77	-44.0	-62.5	3.8	8.47e-01	0	53	104	0	60	28850
2026-01-28 18:13:15.97	249.69	7.02	-44.0	-62.5	3.8	8.46e-01	0	53	104	0	60	28773
2026-01-28 18:13:19.00	249.37	7.28	-44.1	-62.5	3.8	8.46e-01	0	53	104	0	60	28811
2026-01-28 18:13:22.03	249.05	7.54	-44.0	-62.5	3.8	8.47e-01	0	53	104	0	60	28884
2026-01-28 18:13:25.06	248.72	7.80	-44.0	-62.5	3.8	8.47e-01	0	54	104	0	60	28844
2026-01-28 18:13:28.09	248.38	8.06	-44.0	-62.5	3.8	8.45e-01	0	54	104	0	60	28871
2026-01-28 18:13:31.12	248.03	8.33	-44.0	-62.5	3.8	8.45e-01	0	54	104	0	60	28895
2026-01-28 18:13:34.15	247.67	8.60	-44.2	-62.6	3.8	8.47e-01	0	54	104	0	60	29270
2026-01-28 18:13:37.18	247.31	8.88	-44.1	-62.5	3.8	8.45e-01	0	54	104	0	60	28973
2026-01-28 18:13:40.21	246.93	9.16	-44.2	-62.7	3.8	8.47e-01	0	54	104	0	60	29414
2026-01-28 18:13:43.24	246.54	9.44	-44.1	-62.6	3.8	8.46e-01	0	54	104	0	60	29019
2026-01-28 18:13:46.27	246.14	9.73	-44.2	-62.7	3.8	8.46e-01	0	54	104	0	60	29386
2026-01-28 18:13:49.31	245.73	10.02	-44.2	-62.6	3.8	8.46e-01	0	54	104	0	60	29151
2026-01-28 18:13:52.34	245.31	10.32	-44.3	-62.7	3.8	8.46e-01	0	54	104	0	60	29486
2026-01-28 18:13:55.37	244.88	10.62	-44.2	-62.6	3.8	8.47e-01	0	55	104	0	60	29306
2026-01-28 18:13:58.40	244.44	10.92	-44.2	-62.7	3.8	8.47e-01	0	55	104	0	60	29608
2026-01-28 18:14:01.43	243.98	11.23	-44.2	-62.7	3.8	8.46e-01	0	55	104	0	60	29459
2026-01-28 18:14:04.45	243.51	11.55	-44.3	-62.8	3.8	8.46e-01	0	55	104	0	60	29899
2026-01-28 18:14:07.49	243.02	11.86	-44.3	-62.8	3.8	8.45e-01	0	55	104	0	60	29902
2026-01-28 18:14:10.51	242.53	12.19	-44.3	-62.8	3.8	8.46e-01	0	55	104	0	60	29862
2026-01-28 18:14:13.54	242.01	12.51	-44.4	-62.8	3.8	8.46e-01	0	55	104	0	60	29964
2026-01-28 18:14:16.58	241.48	12.85	-44.4	-62.9	3.8	8.47e-01	0	55	104	0	60	30161
2026-01-28 18:14:19.61	240.93	13.18	-44.4	-62.9	3.8	8.47e-01	0	55	104	0	60	30146
2026-01-28 18:14:22.64	240.37	13.52	-44.4	-62.9	3.8	8.47e-01	0	55	104	0	60	30118
2026-01-28 18:14:25.67	239.79	13.87	-44.4	-62.9	3.8	8.45e-01	0	56	104	0	60	30228
2026-01-28 18:14:28.70	239.20	14.22	-44.5	-63.0	3.8	8.45e-01	0	55	104	0	60	30429
2026-01-28 18:14:31.73	238.58	14.58	-44.5	-62.9	3.8	8.47e-01	0	56	104	0	60	30370
2026-01-28 18:14:34.76	237.94	14.94	-44.5	-63.0	3.8	8.45e-01	0	56	104	0	60	30407
2026-01-28 18:14:37.79	237.29	15.30	-44.5	-63.0	3.8	8.46e-01	0	56	104	0	60	30517
2026-01-28 18:14:40.82	236.61	15.68	-44.6	-63.0	3.8	8.47e-01	0	56	104	0	60	30655
2026-01-28 18:14:43.85	235.91	16.05	-44.6	-63.0	3.8	8.46e-01	0	56	104	0	60	30665
2026-01-28 18:14:46.88	235.19	16.43	-44.6	-63.0	3.8	8.46e-01	0	56	104	0	60	30696
2026-01-28 18:14:49.91	234.44	16.82	-44.6	-63.1	3.8	8.46e-01	0	56	104	0	60	30796
2026-01-28 18:14:52.94	233.67	17.21	-44.6	-63.1	3.8	8.47e-01	0	56	104	0	60	30930
2026-01-28 18:14:55.97	232.88	17.60	-44.6	-63.1	3.8	8.45e-01	0	56	104	0	60	31046
2026-01-28 18:14:59.00	232.05	18.00	-44.6	-63.1	3.8	8.45e-01	0	56	104	0	60	30946
2026-01-28 18:15:02.03	231.20	18.40	-44.7	-63.1	3.8	8.46e-01	0	56	104	0	60	31021
2026-01-28 18:15:05.06	230.32	18.81	-44.7	-63.1	3.8	8.45e-01	0	56	104	0	60	30996
2026-01-28 18:15:08.09	229.42	19.22	-44.7	-63.2	3.8	8.47e-01	0	56	104	0	60	31197
2026-01-28 18:15:11.13	228.48	19.63	-44.7	-63.1	3.8	8.45e-01	0	56	104	0	60	31080
2026-01-28 18:15:14.16	227.51	20.05	-44.7	-63.2	3.8	8.46e-01	0	57	104	0	60	31358
2026-01-28 18:15:17.19	226.50	20.46	-44.7	-63.2	3.8	8.46e-01	0	56	104	0	60	31301
2026-01-28 18:15:20.22	225.47	20.88	-44.8	-63.2	3.8	8.46e-01	0	56	104	0	60	31324
2026-01-28 18:15:23.25	224.40	21.30	-44.8	-63.2	3.8	8.47e-01	0	57	104	0	60	31358
2026-01-28 18:15:26.28	223.29	21.72	-44.8	-63.3	3.8	8.46e-01	0	57	104	0	60	31483
2026-01-28 18:15:29.31	222.15	22.14	-44.7	-63.2	3.8	8.46e-01	0	56	104	0	60	31440
2026-01-28 18:15:32.34	220.97	22.56	-44.8	-63.3	3.8	8.47e-01	0	57	104	0	60	31651
2026-01-28 18:15:35.36	219.75	22.97	-44.8	-63.3	3.8	8.46e-01	0	57	104	0	60	31525
2026-01-28 18:15:38.39	218.50	23.38	-44.8	-63.3	3.8	8.46e-01	0	57	104	0	60	31521
2026-01-28 18:15:41.42	217.20	23.79	-44.8	-63.3	3.8	8.47e-01	0	57	104	0	60	31549
2026-01-28 18:15:44.45	215.87	24.19	-44.8	-63.3	3.8	8.46e-01	0	57	104	0	60	31689
2026-01-28 18:15:47.48	214.49	24.59	-44.8	-63.3	3.8	8.46e-01	0	57	104	0	60	31612
2026-01-28 18:15:50.51	213.07	24.97	-44.8	-63.3	3.8	8.47e-01	0	57	104	0	60	31672
2026-01-28 18:15:53.54	211.62	25.35	-44.9	-63.3	3.8	8.46e-01	0	57	104	0	60	31712
2026-01-28 18:15:56.58	210.12	25.71	-44.9	-63.3	3.8	8.46e-01	0	57	104	0	60	31728
2026-01-28 18:15:59.60	208.59	26.06	-44.9	-63.3	3.8	8.46e-01	0	57	104	0	60	31692
2026-01-28 18:16:02.64	207.01	26.40	-44.8	-63.3	3.8	8.47e-01	0	57	104	0	60	31638
2026-01-28 18:16:05.67	205.39	26.72	-44.9	-63.3	3.8	8.48e-01	0	57	104	0	60	31664
2026-01-28 18:16:08.70	203.74	27.02	-44.9	-63.3	3.8	8.47e-01	0	57	104	0	60	31744
2026-01-28 18:16:11.72	202.07	27.30	-44.9	-63.3	3.8	8.46e-01	0	57	104	0	60	31716
2026-01-28 18:16:14.75	200.35	27.56	-44.8	-63.3	3.8	8.44e-01	0	57	104	0	60	31671
2026-01-28 18:16:17.78	198.60	27.80	-44.9	-63.3	3.8	8.46e-01	0	57	104	0	60	31728
2026-01-28 18:16:20.81	196.82	28.02	-44.9	-63.3	3.8	8.46e-01	0	57	104	0	60	31754
2026-01-28 18:16:23.84	195.02	28.20	-44.9	-63.3	3.8	8.45e-01	0	57	104	0	60	31787
2026-01-28 18:16:26.87	193.20	28.36	-44.9	-63.3	3.8	8.46e-01	0	57	104	0	60	31772
2026-01-28 18:16:29.90	191.36	28.50	-44.9	-63.4	3.8	8.46e-01	0	57	104	0	60	31811
2026-01-28 18:16:32.93	189.50	28.60	-44.9	-63.3	3.8	8.46e-01	0	57	104	0	60	31796
2026-01-28 18:16:35.96	187.63	28.68	-44.9	-63.4	3.8	8.46e-01	0	57	104	0	60	31837
2026-01-28 18:16:38.99	185.75	28.72	-44.9	-63.3	3.8	8.45e-01	0	57	104	0	60	31697
2026-01-28 18:16:42.02	183.87	28.73	-44.9	-63.4	3.8	8.46e-01	0	57	104	0	60	31840
2026-01-28 18:16:45.05	181.98	28.71	-44.9	-63.3	3.8	8.47e-01	0	57	104	0	60	31725
2026-01-28 18:16:48.08	180.11	28.66	-44.9	-63.4	3.8	8.46e-01	0	57	104	0	60	32001
2026-01-28 18:16:51.11	178.24	28.58	-44.9	-63.4	3.8	8.46e-01	0	57	104	0	60	31922
2026-01-28 18:16:54.14	176.38	28.48	-45.4	-63.9	3.8	8.46e-01	0	57	104	0	61	32013
2026-01-28 18:16:57.17	174.54	28.34	-45.0	-63.5	3.8	8.45e-01	0	57	104	0	61	30513
2026-01-28 18:17:00.20	172.72	28.17	-45.0	-63.5	3.8	8.45e-01	0	57	104	0	61	30489
2026-01-28 18:17:03.23	170.92	27.98	-45.0	-63.5	3.8	8.47e-01	0	58	104	0	61	30464
2026-01-28 18:17:06.26	169.15	27.76	-45.1	-63.5	3.8	8.46e-01	0	58	104	0	61	30704
2026-01-28 18:17:09.29	167.41	27.52	-45.1	-63.5	3.8	8.47e-01	0	58	104	0	61	30705
2026-01-28 18:17:12.32	165.69	27.25	-45.2	-63.6	3.8	8.46e-01	0	57	104	0	61	30928
2026-01-28 18:17:15.35	164.02	26.97	-45.1	-63.6	3.8	8.47e-01	0	58	104	0	61	30939
2026-01-28 18:17:18.38	162.37	26.66	-45.2	-63.6	3.8	8.46e-01	0	58	104	0	61	31031
2026-01-28 18:17:21.41	160.77	26.34	-45.2	-63.6	3.8	8.46e-01	0	58	104	0	61	31064
2026-01-28 18:17:24.44	159.20	26.00	-45.2	-63.6	3.8	8.46e-01	0	57	104	0	61	31019
2026-01-28 18:17:27.47	157.67	25.64	-45.1	-63.6	3.8	8.47e-01	0	58	104	0	61	30856
2026-01-28 18:17:30.50	156.18	25.28	-45.2	-63.7	3.8	8.46e-01	0	58	104	0	61	31097
2026-01-28 18:17:33.53	154.73	24.90	-45.2	-63.7	3.8	8.46e-01	0	58	104	0	61	31155
2026-01-28 18:17:36.56	153.32	24.51	-45.2	-63.6	3.8	8.46e-01	0	58	104	0	61	31003
2026-01-28 18:17:39.59	151.95	24.12	-45.1	-63.6	3.8	8.47e-01	0	58	104	0	61	30831
2026-01-28 18:17:42.63	150.62	23.71	-45.2	-63.6	3.8	8.46e-01	0	58	104	0	61	30909
2026-01-28 18:17:45.66	149.33	23.31	-45.1	-63.6	3.8	8.47e-01	0	58	104	0	61	30829
2026-01-28 18:17:48.69	148.08	22.89	-45.1	-63.6	3.8	8.45e-01	0	58	104	0	61	30760
2026-01-28 18:17:51.71	146.87	22.48	-45.1	-63.5	3.8	8.46e-01	0	58	104	0	61	30632
2026-01-28 18:17:54.74	145.70	22.06	-45.1	-63.5	3.8	8.47e-01	0	58	104	0	61	30536
2026-01-28 18:17:57.77	144.56	21.64	-45.0	-63.4	3.8	8.46e-01	0	58	104	0	61	30292
2026-01-28 18:18:00.80	143.46	21.22	-45.0	-63.4	3.8	8.46e-01	0	58	104	0	61	30230
2026-01-28 18:18:03.83	142.40	20.80	-45.0	-63.4	3.8	8.46e-01	0	58	104	0	61	30203
2026-01-28 18:18:06.86	141.37	20.38	-44.9	-63.3	3.8	8.45e-01	0	58	104	0	61	30006
2026-01-28 18:18:09.89	140.37	19.97	-44.9	-63.3	3.9	8.47e-01	0	58	104	0	60	31637
2026-01-28 18:18:12.92	139.40	19.55	-44.8	-63.3	3.8	8.48e-01	0	58	104	0	60	31504
2026-01-28 18:18:15.95	138.47	19.14	-44.9	-63.3	3.8	8.46e-01	0	58	104	0	60	31641
2026-01-28 18:18:18.98	137.57	18.73	-44.6	-63.3	3.9	8.46e-01	0	58	104	0	60	31571
2026-01-28 18:18:22.01	136.69	18.32	-44.8	-62.7	3.8	8.46e-01	0	58	104	0	59	31373
2026-01-28 18:18:25.04	135.85	17.92	-42.8	-62.7	3.8	8.46e-01	0	58	104	0	57	34987
2026-01-28 18:18:28.06	135.03	17.52	-44.6	-63.6	3.7	8.48e-01	0	58	104	0	60	32863
2026-01-28 18:18:31.09	134.24	17.13	-44.6	-63.1	3.8	8.46e-01	0	58	104	0	60	31052
2026-01-28 18:18:34.12	133.47	16.74	-44.6	-63.0	3.8	8.46e-01	0	58	104	0	59	32505
2026-01-28 18:18:37.15	132.73	16.36	-44.6	-63.0	3.8	8.46e-01	0	58	104	0	59	32407
2026-01-28 18:18:40.18	132.01	15.98	-44.2	-63.0	3.7	8.47e-01	0	58	104	0	58	34477
2026-01-28 18:18:43.21	131.32	15.60	-43.8	-63.0	3.8	8.47e-01	0	58	104	0	59	32211
2026-01-28 18:18:46.24	130.64	15.23	-44.4	-62.6	3.8	8.46e-01	0	58	104	0	56	36832
2026-01-28 18:18:49.27	129.99	14.86	-33.7	-52.2	3.7	8.44e-01	0	58	104	0	26	62680
2026-01-28 18:18:52.29	129.36	14.51	-27.0	-54.9	4.0	8.15e-01	0	58	104	0	31	64124
2026-01-28 18:18:55.32	128.75	14.15	-40.7	-60.1	3.9	8.17e-01	0	58	104	0	47	46031
2026-01-28 18:18:58.35	128.15	13.80	-26.9	-49.1	3.9	8.27e-01	0	58	104	0	19	65381
2026-01-28 18:19:01.38	127.57	13.45	-28.5	-53.1	3.5	8.11e-01	0	58	104	0	27	65374
2026-01-28 18:19:04.41	127.01	13.11	-39.0	-60.6	3.9	8.30e-01	0	58	104	0	44	58266
2026-01-28 18:19:07.44	126.47	12.78	-31.9	-56.1	4.2	8.18e-01	0	58	104	0	33	65257
2026-01-28 18:19:10.47	125.95	12.44	-34.6	-59.9	4.4	8.33e-01	0	58	104	0	42	60389
2026-01-28 18:19:13.50	125.43	12.12	-31.3	-52.6	3.7	8.34e-01	0	58	104	0	26	65535
2026-01-28 18:19:16.53	124.94	11.80	-26.7	-56.2	4.0	8.19e-01	0	58	104	0	34	62415
2026-01-28 18:19:19.56	124.45	11.48	-33.1	-60.8	4.2	8.26e-01	0	58	104	0	46	52886
2026-01-28 18:19:22.59	123.99	11.17	-30.1	-50.6	3.5	8.22e-01	0	58	104	0	22	65518
2026-01-28 18:19:25.62	123.53	10.86	-31.5	-57.6	4.0	8.29e-01	0	58	104	0	36	65535
2026-01-28 18:19:28.65	123.09	10.55	-37.7	-61.2	3.5	8.44e-01	0	58	104	0	44	62598
2026-01-28 18:19:31.68	122.66	10.26	-32.1	-56.6	3.6	8.35e-01	0	58	104	0	34	65535
2026-01-28 18:19:34.71	122.24	9.96	-35.7	-59.5	3.4	8.40e-01	0	58	104	0	40	64705
2026-01-28 18:19:37.74	121.83	9.67	-38.8	-61.1	3.7	8.44e-01	0	58	104	0	46	55186
2026-01-28 18:19:40.77	121.43	9.38	-18.5	-44.6	3.8	8.35e-01	0	58	104	0	10	65535
2026-01-28 18:19:43.80	121.05	9.10	-29.5	-54.6	3.9	8.39e-01	0	58	104	0	30	65535
2026-01-28 18:19:46.83	120.67	8.82	-22.3	-47.1	3.4	7.41e-01	0	58	104	0	15	65535
2026-01-28 18:19:49.86	120.31	8.54	-19.7	-43.1	3.4	6.97e-01	0	58	104	0	7	65535
2026-01-28 18:19:52.89	119.95	8.27	-18.2	-42.6	2.3	7.19e-01	0	58	104	0	6	65535
2026-01-28 18:19:55.92	119.60	8.00	-22.4	-46.1	4.3	7.02e-01	0	58	104	0	13	65535
2026-01-28 18:19:58.95	119.26	7.74	-45.0	-63.4	3.8	8.45e-01	0	58	104	0	60	32066
2026-01-28 18:20:01.99	118.93	7.48	-45.5	-63.9	3.8	8.46e-01	0	58	104	0	61	32088
2026-01-28 18:20:05.02	118.61	7.22	-45.8	-64.2	3.8	8.46e-01	0	58	104	0	62	31186
2026-01-28 18:20:08.05	118.30	6.96	-45.5	-63.9	3.8	8.46e-01	0	58	104	0	62	30266
2026-01-28 18:20:11.08	117.99	6.71	-45.4	-63.8	3.8	8.47e-01	0	58	104	0	62	29750
2026-01-28 18:20:14.11	117.69	6.46	-45.2	-63.7	3.8	8.46e-01	0	58	104	0	62	29365
2026-01-28 18:20:17.14	117.40	6.22	-45.2	-63.6	3.8	8.45e-01	0	58	104	0	62	29301
2026-01-28 18:20:20.18	117.12	5.98	-45.2	-63.6	3.8	8.46e-01	0	58	104	0	62	29253
2026-01-28 18:20:23.21	116.84	5.74	-45.2	-63.6	3.8	8.46e-01	0	58	104	0	61	30752
2026-01-28 18:20:26.24	116.57	5.50	-45.1	-63.6	3.8	8.47e-01	0	58	104	0	61	30777
2026-01-28 18:20:29.27	116.30	5.27	-45.1	-63.6	3.8	8.45e-01	0	58	104	0	61	30835
2026-01-28 18:20:32.30	116.04	5.04	-45.1	-63.6	3.8	8.47e-01	0	58	104	0	61	30745
2026-01-28 18:20:35.33	115.79	4.81	-45.1	-63.6	3.8	8.46e-01	0	58	104	0	61	30824
2026-01-28 18:20:38.36	115.54	4.58	-45.1	-63.6	3.8	8.45e-01	0	58	104	0	61	30757
2026-01-28 18:20:41.39	115.30	4.36	-45.1	-63.6	3.8	8.45e-01	0	58	104	0	61	30857
2026-01-28 18:20:44.41	115.06	4.14	-45.1	-63.5	3.8	8.45e-01	0	58	104	0	60	32536
2026-01-28 18:20:47.44	114.83	3.92	-45.1	-63.6	3.8	8.46e-01	0	58	104	0	60	32572
2026-01-28 18:20:50.47	114.61	3.70	-45.1	-63.5	3.8	8.47e-01	0	58	104	0	60	32435
2026-01-28 18:20:53.50	114.38	3.49	-45.1	-63.5	3.8	8.46e-01	0	58	104	0	60	32513
2026-01-28 18:20:56.54	114.17	3.28	-45.1	-63.5	3.8	8.46e-01	0	58	104	0	60	32550
2026-01-28 18:20:59.57	113.95	3.07	-45.1	-63.5	3.8	8.45e-01	0	58	104	0	60	32484
2026-01-28 18:21:02.60	113.75	2.86	-45.1	-63.5	3.8	8.47e-01	0	58	104	0	60	32350
2026-01-28 18:21:05.63	113.54	2.65	-45.1	-63.5	3.8	8.45e-01	0	58	104	0	60	32300
2026-01-28 18:21:08.66	113.34	2.45	-45.1	-63.5	3.8	8.46e-01	0	58	104	0	60	32358
2026-01-28 18:21:11.69	113.15	2.25	-45.1	-63.5	3.8	8.47e-01	0	58	104	0	60	32245
2026-01-28 18:21:14.73	112.96	2.05	-45.1	-63.5	3.8	8.46e-01	0	58	104	0	60	32374

#Closed at: 2026-01-28 18:21:17
#Recorded file [0 MB]: D:/lorett/data/31039_260128_211209.dat