passes_logs/2026/01/07/T1/T1__20260107_012533_FENGYUN_3D_rec.log

#Pass ID: 20260107_012533_FENGYUN 3D
#Satellite: FENGYUN 3D
#Configuration: FENGYUN 3D
#almurnet v.1.7.20251203
#Start time: 2026-01-07 01:25:33

#Version: 2.0.20230620
#Station: T1
#Location: 37.570604 lon 55.790049 lat
#TLE: 1 43010U 17072A   26006.26440730  .00000376  00000+0  19957-3 0  9994
#TLE: 2 43010  98.9925 337.9455 0002045 123.9195 236.2175 14.19693586422016

#Time	Az	El	Level	Level2	SNR	BER	BlckErr	Temp	State	Recorded	gain1	gain2
2026-01-07 01:25:33.66	19.07	5.04	-46.9	-61.0	3.8	8.46e-01	0	37	0	0	65	18195
2026-01-07 01:25:37.67	19.16	5.32	-46.9	-60.5	3.8	8.46e-01	0	38	104	0	64	18115
2026-01-07 01:25:41.69	19.25	5.61	-46.9	-60.3	3.8	8.47e-01	0	38	104	0	64	17833
2026-01-07 01:25:45.70	19.34	5.90	-46.9	-60.5	3.8	8.47e-01	0	38	104	0	64	18205
2026-01-07 01:25:49.72	19.43	6.19	-46.9	-60.8	3.8	8.47e-01	0	38	104	0	64	18913
2026-01-07 01:25:53.74	19.53	6.49	-46.9	-61.0	3.8	8.47e-01	0	38	104	0	64	19332
2026-01-07 01:25:57.75	19.62	6.79	-46.9	-60.5	3.8	8.46e-01	0	39	104	0	64	18196
2026-01-07 01:26:01.77	19.72	7.09	-46.8	-58.6	3.8	8.44e-01	0	39	104	0	64	14666
2026-01-07 01:26:05.78	19.82	7.40	-46.6	-57.3	4.2	8.37e-01	0	39	0	0	64	12553
2026-01-07 01:26:09.80	19.92	7.71	-46.6	-57.2	4.2	8.34e-01	0	39	0	0	64	12385
2026-01-07 01:26:13.81	20.02	8.03	-46.6	-57.3	4.2	8.35e-01	0	39	0	0	64	12652
2026-01-07 01:26:17.83	20.13	8.35	-46.5	-56.2	4.6	8.22e-01	0	39	0	0	64	11151
2026-01-07 01:26:21.85	20.24	8.67	-46.1	-53.8	6.1	3.45e-01	0	39	0	4194304	63	8877
2026-01-07 01:26:25.85	20.35	9.00	-45.0	-50.5	9.2	2.96e-02	0	39	0	27262976	62	6477
2026-01-07 01:26:29.94	20.46	9.34	-46.5	-57.5	4.2	7.40e-01	0	39	0	48234496	63	13638
2026-01-07 01:26:34.14	20.58	9.69	-40.6	-43.2	16.6	1.10e-06	0	39	0	69206016	52	4930
2026-01-07 01:26:38.17	20.69	10.03	-39.9	-42.2	17.7	0.00e+00	0	39	0	92274688	51	4657
2026-01-07 01:26:42.17	20.81	10.38	-39.3	-41.4	18.4	0.00e+00	0	39	0	114294784	50	4538
2026-01-07 01:26:46.18	20.93	10.73	-38.9	-41.0	18.8	0.00e+00	0	40	0	137363456	49	4574
2026-01-07 01:26:50.23	21.06	11.08	-38.9	-40.9	18.9	0.00e+00	0	39	0	159383552	49	4537
2026-01-07 01:26:54.22	21.18	11.44	-38.8	-40.8	19.1	0.00e+00	0	40	0	182452224	49	4487
2026-01-07 01:26:58.27	21.31	11.81	-38.9	-40.8	19.2	0.00e+00	0	39	0	204472320	49	4490
2026-01-07 01:27:02.43	21.45	12.20	-38.9	-40.9	19.1	0.00e+00	0	40	0	228589568	49	4520
2026-01-07 01:27:06.44	21.58	12.57	-38.9	-40.9	19.2	0.00e+00	0	40	0	250609664	49	4511
2026-01-07 01:27:10.47	21.72	12.96	-38.8	-40.7	19.3	0.00e+00	0	39	0	273678336	49	4436
2026-01-07 01:27:14.48	21.86	13.35	-38.8	-40.7	19.3	0.00e+00	0	39	0	295698432	49	4421
2026-01-07 01:27:18.48	22.00	13.74	-38.8	-40.6	19.4	0.00e+00	0	40	0	318767104	49	4390
2026-01-07 01:27:22.49	22.15	14.14	-38.8	-40.7	19.4	0.00e+00	0	40	0	340787200	49	4398
2026-01-07 01:27:26.50	22.30	14.55	-38.4	-40.3	19.8	0.00e+00	0	40	0	363855872	48	4451
2026-01-07 01:27:30.71	22.47	14.99	-38.3	-40.2	19.9	0.00e+00	0	40	0	387973120	48	4401
2026-01-07 01:27:34.73	22.62	15.41	-38.0	-39.8	20.2	0.00e+00	0	40	0	409993216	48	4223
2026-01-07 01:27:38.71	22.79	15.84	-37.7	-39.5	20.3	0.00e+00	0	40	0	432013312	47	4340
2026-01-07 01:27:42.94	22.96	16.30	-37.6	-39.4	20.5	0.00e+00	0	40	0	456130560	47	4273
2026-01-07 01:27:47.54	23.16	16.81	-37.5	-39.3	20.6	0.00e+00	0	40	0	482344960	46	4493
2026-01-07 01:27:51.55	23.34	17.27	-37.3	-39.1	20.8	0.00e+00	0	40	0	504365056	46	4371
2026-01-07 01:27:55.56	23.52	17.73	-37.2	-39.0	20.9	0.00e+00	0	40	0	527433728	46	4329
2026-01-07 01:27:59.57	23.71	18.20	-37.5	-39.2	20.7	0.00e+00	0	40	0	549453824	46	4438
2026-01-07 01:28:03.58	23.90	18.68	-37.1	-38.8	21.1	0.00e+00	0	40	0	572522496	46	4239
2026-01-07 01:28:07.60	24.10	19.17	-36.7	-38.5	21.4	0.00e+00	0	40	0	594542592	45	4298
2026-01-07 01:28:11.64	24.30	19.68	-36.6	-38.4	21.5	0.00e+00	0	40	0	617611264	45	4248
2026-01-07 01:28:15.78	24.52	20.20	-36.6	-38.4	21.5	0.00e+00	0	40	0	640679936	45	4250
2026-01-07 01:28:19.84	24.74	20.73	-36.5	-38.3	21.7	0.00e+00	0	40	0	663748608	45	4204
2026-01-07 01:28:23.85	24.97	21.26	-36.6	-38.3	21.6	0.00e+00	0	40	0	685768704	45	4218
2026-01-07 01:28:27.85	25.20	21.81	-36.5	-38.3	21.6	0.00e+00	0	40	0	708837376	44	4462
2026-01-07 01:28:31.85	25.44	22.36	-36.3	-38.0	21.9	0.00e+00	0	40	0	730857472	44	4323
2026-01-07 01:28:35.86	25.69	22.92	-36.2	-37.9	22.0	0.00e+00	0	40	0	753926144	44	4264
2026-01-07 01:28:39.86	25.94	23.50	-35.8	-37.4	22.3	0.00e+00	0	40	0	776994816	43	4287
2026-01-07 01:28:43.87	26.21	24.09	-35.8	-37.5	22.2	0.00e+00	0	40	0	799014912	43	4324
2026-01-07 01:28:47.87	26.48	24.69	-35.8	-37.5	22.3	0.00e+00	0	40	0	821035008	43	4316
2026-01-07 01:28:52.15	26.79	25.35	-36.1	-37.8	22.0	0.00e+00	0	40	0	845152256	43	4451
2026-01-07 01:28:56.17	27.09	25.99	-35.9	-37.6	22.2	0.00e+00	0	40	0	868220928	43	4369
2026-01-07 01:29:00.18	27.40	26.64	-35.7	-37.4	22.4	0.00e+00	0	40	0	890241024	43	4255
2026-01-07 01:29:04.10	27.71	27.28	-35.6	-37.3	22.5	0.00e+00	0	40	0	912261120	43	4205
2026-01-07 01:29:08.66	28.09	28.06	-35.5	-37.2	22.6	0.00e+00	0	40	0	938475520	42	4422
2026-01-07 01:29:12.69	28.44	28.76	-35.4	-37.1	22.7	0.00e+00	0	40	0	960495616	42	4357
2026-01-07 01:29:16.71	28.81	29.47	-35.7	-37.3	22.5	0.00e+00	0	40	0	983564288	42	4491
2026-01-07 01:29:20.85	29.20	30.22	-35.9	-37.6	22.3	0.00e+00	0	40	0	1006632960	42	4610
2026-01-07 01:29:25.20	29.64	31.04	-35.6	-37.3	22.5	0.00e+00	0	40	0	1031798784	42	4477
2026-01-07 01:29:29.59	30.10	31.88	-35.5	-37.1	22.7	0.00e+00	0	40	0	1055916032	42	4390
2026-01-07 01:29:33.96	30.58	32.74	-35.3	-37.0	22.8	0.00e+00	0	40	0	1081081856	42	4310
2026-01-07 01:29:37.98	31.04	33.55	-35.0	-36.6	23.2	0.00e+00	0	40	0	1103101952	42	4145
2026-01-07 01:29:41.98	31.53	34.38	-35.1	-36.7	23.0	0.00e+00	0	40	0	1126170624	41	4435
2026-01-07 01:29:45.98	32.04	35.23	-35.3	-37.0	22.8	0.00e+00	0	40	0	1148190720	41	4559
2026-01-07 01:29:50.11	32.60	36.13	-35.0	-36.6	23.2	0.00e+00	0	40	0	1171259392	41	4389
2026-01-07 01:29:54.11	33.16	37.02	-34.7	-36.4	23.3	0.00e+00	0	40	0	1194328064	41	4262
2026-01-07 01:29:58.26	33.79	37.97	-34.7	-36.3	23.4	0.00e+00	0	40	0	1217396736	41	4239
2026-01-07 01:30:02.27	34.42	38.91	-35.3	-37.0	22.3	0.00e+00	0	40	0	1240465408	41	4581
2026-01-07 01:30:06.50	35.13	39.93	-35.0	-36.7	22.6	0.00e+00	0	40	0	1263534080	41	4430
2026-01-07 01:30:10.51	35.85	40.91	-35.0	-36.7	22.7	0.00e+00	0	40	0	1286602752	41	4397
2026-01-07 01:30:14.80	36.67	41.99	-35.2	-37.0	22.4	0.00e+00	0	40	0	1310720000	41	4557
2026-01-07 01:30:18.86	37.49	43.04	-35.2	-37.0	22.4	0.00e+00	0	40	0	1333788672	41	4555
2026-01-07 01:30:22.96	38.38	44.12	-35.4	-37.2	22.2	0.00e+00	0	40	0	1356857344	41	4678
2026-01-07 01:30:26.97	39.31	45.20	-35.6	-37.3	22.1	0.00e+00	0	40	0	1378877440	42	4482
2026-01-07 01:30:31.00	40.30	46.30	-35.2	-36.9	22.5	0.00e+00	0	40	0	1401946112	42	4286
2026-01-07 01:30:35.12	41.40	47.45	-35.5	-37.3	22.3	0.00e+00	0	40	0	1425014784	42	4446
2026-01-07 01:30:39.22	42.57	48.62	-35.8	-37.5	22.1	0.00e+00	0	40	0	1448083456	42	4575
2026-01-07 01:30:43.68	43.95	49.90	-35.8	-37.5	22.0	0.00e+00	0	40	0	1473249280	42	4590
2026-01-07 01:30:47.69	45.30	51.08	-36.0	-37.8	21.8	0.00e+00	0	40	0	1495269376	42	4707
2026-01-07 01:30:51.84	46.80	52.30	-36.1	-37.9	21.8	0.00e+00	0	40	0	1518338048	42	4780
2026-01-07 01:30:55.75	48.34	53.47	-36.1	-37.8	21.9	0.00e+00	0	40	0	1540358144	43	4473
2026-01-07 01:30:59.76	50.05	54.67	-36.2	-38.0	21.7	0.00e+00	0	40	0	1563426816	43	4547
2026-01-07 01:31:03.75	51.90	55.87	-36.6	-38.3	21.5	0.00e+00	0	40	0	1585446912	44	4492
2026-01-07 01:31:07.76	53.92	57.06	-36.3	-38.1	21.8	0.00e+00	0	40	0	1608515584	44	4353
2026-01-07 01:31:11.76	56.12	58.25	-36.1	-37.8	22.0	0.00e+00	0	40	0	1630535680	44	4225
2026-01-07 01:31:15.77	58.53	59.41	-35.6	-37.3	22.3	0.00e+00	0	40	0	1653604352	43	4233
2026-01-07 01:31:19.81	61.18	60.56	-35.5	-37.2	22.4	0.00e+00	0	40	0	1675624448	42	4440
2026-01-07 01:31:24.20	64.33	61.76	-34.5	-36.2	23.2	0.00e+00	0	40	0	1700790272	41	4164
2026-01-07 01:31:28.20	67.48	62.80	-34.9	-36.6	22.9	0.00e+00	0	40	0	1722810368	41	4345
2026-01-07 01:31:32.24	70.94	63.79	-35.0	-36.8	22.7	0.00e+00	0	40	0	1745879040	41	4442
2026-01-07 01:31:36.41	74.82	64.73	-34.6	-36.3	23.0	0.00e+00	0	40	0	1769996288	41	4217
2026-01-07 01:31:40.42	78.85	65.54	-34.6	-36.3	23.1	0.00e+00	0	40	0	1792016384	41	4215
2026-01-07 01:31:44.43	83.16	66.24	-34.6	-36.3	23.0	0.00e+00	0	40	0	1815085056	41	4224
2026-01-07 01:31:48.50	87.81	66.82	-34.5	-36.2	23.1	0.00e+00	0	40	0	1837105152	40	4403
2026-01-07 01:31:52.49	92.58	67.25	-34.6	-36.3	23.0	0.00e+00	0	40	0	1860173824	40	4481
2026-01-07 01:31:56.49	97.54	67.54	-34.1	-35.7	23.5	0.00e+00	0	40	0	1882193920	40	4180
2026-01-07 01:32:00.50	102.61	67.67	-34.5	-36.2	23.2	0.00e+00	0	40	0	1905262592	40	4396
2026-01-07 01:32:04.50	107.70	67.64	-34.4	-36.1	23.2	0.00e+00	0	40	0	1927282688	40	4383
2026-01-07 01:32:08.49	112.71	67.45	-34.6	-36.3	23.1	0.00e+00	0	40	0	1950351360	40	4453
2026-01-07 01:32:12.49	117.62	67.11	-34.6	-36.3	23.0	0.00e+00	0	40	0	1972371456	40	4475
2026-01-07 01:32:16.50	122.34	66.62	-34.5	-36.2	23.0	0.00e+00	0	40	0	1994391552	40	4421
2026-01-07 01:32:20.43	126.74	66.01	-34.7	-36.4	22.9	0.00e+00	0	40	0	2017460224	40	4544
2026-01-07 01:32:24.43	130.96	65.27	-34.9	-36.6	22.8	0.00e+00	0	40	0	2039480320	40	4632
2026-01-07 01:32:28.43	134.88	64.43	-34.6	-36.3	23.1	0.00e+00	0	40	0	2062548992	40	4468
2026-01-07 01:32:32.46	138.54	63.50	-34.6	-36.3	23.0	0.00e+00	0	40	0	2084569088	40	4488
2026-01-07 01:32:36.46	141.89	62.50	-34.9	-36.7	22.8	0.00e+00	0	40	0	2107637760	40	4664
2026-01-07 01:32:40.74	145.17	61.36	-35.1	-36.8	22.7	0.00e+00	0	40	0	2131755008	41	4468
2026-01-07 01:32:44.70	147.95	60.26	-34.9	-36.6	22.9	0.00e+00	0	40	0	2153775104	41	4369
2026-01-07 01:32:48.69	150.51	59.11	-35.2	-36.9	22.6	0.00e+00	0	40	0	2175795200	41	4543
2026-01-07 01:32:52.72	152.88	57.93	-35.5	-37.2	22.4	0.00e+00	0	40	0	2198863872	41	4661
2026-01-07 01:32:56.98	155.17	56.66	-36.2	-38.0	21.7	0.00e+00	0	40	0	2222981120	43	4561
2026-01-07 01:33:01.01	157.15	55.45	-36.1	-37.9	21.7	0.00e+00	0	40	0	2245001216	43	4513
2026-01-07 01:33:05.01	158.95	54.25	-36.1	-37.8	21.9	0.00e+00	0	40	0	2268069888	43	4486
2026-01-07 01:33:09.01	160.62	53.05	-36.2	-38.0	21.6	0.00e+00	0	40	0	2290089984	43	4575
2026-01-07 01:33:13.01	162.15	51.85	-36.0	-37.8	21.8	0.00e+00	0	40	0	2313158656	43	4453
2026-01-07 01:33:17.02	163.57	50.67	-35.5	-37.2	22.3	0.00e+00	0	40	0	2335178752	43	4190
2026-01-07 01:33:21.12	164.91	49.46	-35.3	-37.0	22.5	0.00e+00	0	40	0	2358247424	42	4333
2026-01-07 01:33:25.43	166.22	48.22	-35.4	-37.1	22.5	0.00e+00	0	40	0	2382364672	42	4352
2026-01-07 01:33:29.43	167.34	47.08	-35.8	-37.6	21.9	0.00e+00	0	40	0	2405433344	42	4651
2026-01-07 01:33:33.43	168.38	45.97	-35.1	-36.8	22.6	0.00e+00	0	40	0	2427453440	42	4214
2026-01-07 01:33:37.52	169.38	44.85	-35.1	-36.9	22.5	0.00e+00	0	40	0	2450522112	42	4247
2026-01-07 01:33:41.53	170.29	43.77	-34.9	-36.6	22.7	0.00e+00	0	40	0	2473590784	41	4387
2026-01-07 01:33:45.53	171.14	42.72	-35.1	-36.8	22.6	0.00e+00	0	40	0	2495610880	41	4475
2026-01-07 01:33:49.53	171.94	41.69	-34.9	-36.6	22.7	0.00e+00	0	40	0	2518679552	41	4384
2026-01-07 01:33:53.63	172.71	40.66	-35.1	-36.8	22.5	0.00e+00	0	40	0	2541748224	41	4481
2026-01-07 01:33:57.71	173.43	39.65	-34.9	-36.6	22.7	0.00e+00	0	40	0	2564816896	41	4381
2026-01-07 01:34:01.80	174.12	38.67	-35.0	-36.8	22.4	0.00e+00	0	40	0	2586836992	41	4479
2026-01-07 01:34:06.03	174.78	37.68	-34.7	-36.4	22.8	0.00e+00	0	40	0	2610954240	41	4268
2026-01-07 01:34:10.03	175.37	36.76	-34.8	-36.6	22.6	0.00e+00	0	40	0	2634022912	41	4360
2026-01-07 01:34:14.03	175.93	35.87	-34.8	-36.6	22.6	0.00e+00	0	40	0	2656043008	41	4348
2026-01-07 01:34:18.25	176.49	34.95	-34.8	-36.5	22.7	0.00e+00	0	40	0	2680160256	41	4309
2026-01-07 01:34:22.25	177.00	34.10	-35.0	-36.7	22.5	0.00e+00	0	40	0	2702180352	41	4431
2026-01-07 01:34:26.25	177.48	33.27	-35.0	-36.8	22.4	0.00e+00	0	40	0	2724200448	41	4473
2026-01-07 01:34:30.25	177.94	32.47	-35.0	-36.7	22.4	0.00e+00	0	40	0	2747269120	41	4419
2026-01-07 01:34:34.22	178.37	31.68	-35.2	-37.0	22.2	0.00e+00	0	40	0	2769289216	41	4567
2026-01-07 01:34:38.23	178.79	30.91	-35.2	-37.0	22.1	0.00e+00	0	40	0	2792357888	41	4592
2026-01-07 01:34:42.25	179.19	30.15	-35.1	-36.9	22.3	0.00e+00	0	40	0	2814377984	41	4505
2026-01-07 01:34:46.63	179.60	29.35	-35.1	-36.8	22.4	0.00e+00	0	40	0	2839543808	41	4493
2026-01-07 01:34:50.63	179.97	28.64	-35.1	-36.9	22.4	0.00e+00	0	40	0	2861563904	41	4504
2026-01-07 01:34:54.75	180.33	27.92	-35.2	-37.0	22.3	0.00e+00	0	40	0	2884632576	41	4566
2026-01-07 01:34:58.76	180.66	27.24	-35.3	-37.0	22.2	0.00e+00	0	40	0	2907701248	41	4585
2026-01-07 01:35:02.84	180.99	26.56	-35.1	-36.9	22.4	0.00e+00	0	40	0	2930769920	41	4497
2026-01-07 01:35:06.85	181.29	25.90	-35.4	-37.1	22.1	0.00e+00	0	40	0	2952790016	41	4635
2026-01-07 01:35:10.87	181.59	25.27	-35.6	-37.4	21.9	0.00e+00	0	40	0	2975858688	41	4761
2026-01-07 01:35:14.87	181.88	24.64	-35.8	-37.6	21.7	0.00e+00	0	40	0	2997878784	42	4624
2026-01-07 01:35:18.88	182.15	24.04	-35.9	-37.8	21.6	0.00e+00	0	40	0	3020947456	42	4710
2026-01-07 01:35:22.89	182.42	23.44	-36.0	-37.8	21.5	0.00e+00	0	40	0	3042967552	43	4484
2026-01-07 01:35:27.28	182.70	22.80	-36.1	-37.9	21.5	0.00e+00	0	40	0	3068133376	43	4530
2026-01-07 01:35:31.61	182.96	22.19	-36.0	-37.8	21.6	0.00e+00	0	40	0	3092250624	43	4461
2026-01-07 01:35:35.65	183.20	21.63	-36.1	-37.9	21.5	0.00e+00	0	40	0	3115319296	43	4513
2026-01-07 01:35:39.78	183.44	21.07	-36.2	-38.0	21.4	0.00e+00	0	40	0	3138387968	43	4582
2026-01-07 01:35:43.78	183.66	20.54	-36.3	-38.2	21.2	0.00e+00	0	40	0	3160408064	43	4660
2026-01-07 01:35:47.79	183.88	20.01	-36.5	-38.3	21.1	0.00e+00	0	40	0	3183476736	43	4737
2026-01-07 01:35:51.82	184.08	19.50	-36.9	-38.8	20.9	0.00e+00	0	40	0	3206545408	44	4706
2026-01-07 01:35:56.14	184.30	18.96	-37.1	-39.1	20.5	0.00e+00	0	40	0	3230662656	44	4872
2026-01-07 01:36:00.15	184.50	18.47	-37.2	-39.1	20.5	0.00e+00	0	40	0	3252682752	45	4637
2026-01-07 01:36:04.16	184.69	17.98	-37.3	-39.2	20.4	0.00e+00	0	40	0	3275751424	45	4686
2026-01-07 01:36:08.25	184.87	17.50	-37.3	-39.2	20.4	0.00e+00	0	40	0	3298820096	45	4691
2026-01-07 01:36:12.26	185.05	17.04	-37.3	-39.2	20.4	0.00e+00	0	40	0	3320840192	45	4664
2026-01-07 01:36:16.27	185.23	16.58	-37.4	-39.2	20.4	0.00e+00	0	40	0	3343908864	45	4699
2026-01-07 01:36:20.56	185.41	16.10	-37.5	-39.4	20.3	0.00e+00	0	40	0	3368026112	45	4760
2026-01-07 01:36:24.55	185.57	15.67	-37.6	-39.5	20.1	0.00e+00	0	40	0	3390046208	45	4861
2026-01-07 01:36:28.57	185.73	15.23	-37.8	-39.7	19.9	0.00e+00	0	40	0	3413114880	46	4692
2026-01-07 01:36:32.58	185.89	14.81	-37.9	-39.8	19.9	0.00e+00	0	40	0	3435134976	46	4726
2026-01-07 01:36:36.59	186.04	14.39	-38.3	-40.2	19.5	0.00e+00	0	40	0	3458203648	47	4699
2026-01-07 01:36:40.67	186.19	13.98	-38.4	-40.4	19.3	0.00e+00	0	40	0	3481272320	47	4764
2026-01-07 01:36:45.00	186.34	13.54	-38.5	-40.5	19.2	0.00e+00	0	40	0	3505389568	47	4827
2026-01-07 01:36:49.05	186.49	13.14	-38.6	-40.7	19.0	0.00e+00	0	40	0	3528458240	47	4927
2026-01-07 01:36:53.15	186.63	12.74	-38.8	-40.8	19.1	0.00e+00	0	40	0	3551526912	48	4730
2026-01-07 01:36:57.08	186.76	12.36	-38.9	-40.9	19.0	0.00e+00	0	40	0	3573547008	48	4798
2026-01-07 01:37:01.06	186.89	11.99	-38.8	-40.9	19.0	0.00e+00	0	40	0	3595567104	48	4765
2026-01-07 01:37:05.06	187.01	11.62	-38.9	-40.9	19.0	0.00e+00	0	40	0	3618635776	48	4794
2026-01-07 01:37:09.07	187.14	11.25	-38.9	-40.9	18.9	0.00e+00	0	40	0	3640655872	48	4808
2026-01-07 01:37:13.06	187.26	10.89	-39.3	-41.4	18.5	0.00e+00	0	40	0	3663724544	49	4776
2026-01-07 01:37:17.06	187.38	10.53	-39.0	-41.1	18.8	0.00e+00	0	40	0	3685744640	49	4611
2026-01-07 01:37:21.28	187.50	10.16	-39.3	-41.3	18.5	0.00e+00	0	40	0	3709861888	49	4748
2026-01-07 01:37:25.29	187.61	9.82	-39.3	-41.3	18.5	0.00e+00	0	40	0	3731881984	50	4489
2026-01-07 01:37:29.33	187.73	9.47	-39.4	-41.5	18.3	0.00e+00	0	40	0	3754950656	50	4556
2026-01-07 01:37:33.71	187.85	9.11	-39.4	-41.5	18.3	0.00e+00	0	40	0	3779067904	50	4579
2026-01-07 01:37:37.70	187.95	8.78	-49.2	-61.8	3.8	8.47e-01	0	40	104	3786407936	68	16790
2026-01-07 01:37:41.71	188.06	8.45	-49.9	-62.1	3.8	8.47e-01	0	40	104	3786407936	70	15480
2026-01-07 01:37:45.73	188.16	8.12	-49.9	-62.2	3.8	8.46e-01	0	40	104	3786407936	70	15588
2026-01-07 01:37:49.74	188.26	7.80	-50.1	-62.2	3.8	8.48e-01	0	40	104	3786407936	70	15665
2026-01-07 01:37:53.74	188.36	7.49	-49.9	-62.2	3.8	8.47e-01	0	40	104	3786407936	70	15660
2026-01-07 01:37:57.76	188.46	7.17	-50.0	-62.2	3.8	8.46e-01	0	40	104	3786407936	70	15667
2026-01-07 01:38:01.77	188.55	6.87	-49.6	-62.2	3.8	8.47e-01	0	40	104	3786407936	70	15629
2026-01-07 01:38:05.78	188.64	6.56	-49.6	-62.2	3.8	8.48e-01	0	40	104	3786407936	70	15606
2026-01-07 01:38:09.79	188.74	6.26	-49.6	-62.1	3.8	8.48e-01	0	40	104	3786407936	70	15518
2026-01-07 01:38:13.81	188.83	5.96	-49.6	-62.2	3.8	8.47e-01	0	40	104	3786407936	70	15635
2026-01-07 01:38:17.83	188.91	5.67	-49.6	-62.1	3.8	8.48e-01	0	40	104	3786407936	70	15560
2026-01-07 01:38:21.85	189.00	5.38	-49.6	-62.1	3.8	8.46e-01	0	40	104	3786407936	70	15566
2026-01-07 01:38:25.86	189.09	5.09	-49.6	-62.1	3.8	8.47e-01	0	40	104	3786407936	70	15456

#Closed at: 2026-01-07 01:38:28
#Recorded file [3786 MB]: D:/Data/31040_260107_042533.dat