passes_logs/2026/01/07/T1/T1__20260107_222615_SUOMI_NPP_rec.log

#Pass ID: 20260107_222615_SUOMI NPP
#Satellite: SUOMI NPP
#Configuration: NPP
#almurnet v.1.7.20251203
#Start time: 2026-01-07 22:26:16

#Version: 2.0.20230620
#Station: T1
#Location: 37.570604 lon 55.790049 lat
#TLE: 1 37849U 11061A   26005.94084933  .00000134  00000+0  84554-4 0  9990
#TLE: 2 37849  98.7803 308.0679 0002567  79.1029 281.0436 14.19522657735426

#Time	Az	El	Level	Level2	SNR	BER	BlckErr	Temp	State	Recorded	gain1	gain2
2026-01-07 22:26:16.82	27.62	5.11	-51.8	-67.6	3.8	1.49e+00	0	39	0	0	75	21773
2026-01-07 22:26:19.82	27.85	5.29	-51.8	-67.5	3.8	1.49e+00	0	39	104	0	74	23013
2026-01-07 22:26:22.84	28.09	5.48	-51.8	-67.5	3.8	1.49e+00	0	40	104	0	74	22934
2026-01-07 22:26:25.85	28.33	5.66	-51.8	-67.5	3.8	1.49e+00	0	40	104	0	74	22912
2026-01-07 22:26:28.86	28.57	5.85	-51.8	-67.5	3.8	1.49e+00	0	40	104	0	74	22865
2026-01-07 22:26:31.87	28.82	6.04	-51.8	-67.4	3.8	1.49e+00	0	40	104	0	74	22710
2026-01-07 22:26:34.89	29.07	6.23	-51.8	-67.4	3.8	1.49e+00	0	40	104	0	74	22645
2026-01-07 22:26:37.90	29.32	6.42	-51.8	-67.4	3.8	1.49e+00	0	40	104	0	74	22711
2026-01-07 22:26:40.91	29.58	6.62	-51.8	-67.5	3.8	1.49e+00	0	40	104	0	74	22973
2026-01-07 22:26:43.92	29.83	6.81	-51.8	-67.4	3.8	1.49e+00	0	40	104	0	74	22602
2026-01-07 22:26:46.94	30.10	7.00	-51.8	-67.2	3.8	1.49e+00	0	40	104	0	74	22163
2026-01-07 22:26:49.95	30.36	7.20	-51.8	-67.4	3.8	1.49e+00	0	41	104	0	74	22650
2026-01-07 22:26:52.96	30.63	7.39	-51.8	-67.4	3.8	1.49e+00	0	40	104	0	74	22718
2026-01-07 22:26:55.97	30.90	7.59	-51.8	-67.2	3.8	1.49e+00	0	41	104	0	74	22092
2026-01-07 22:26:58.99	31.18	7.79	-51.8	-67.3	3.8	1.49e+00	0	41	104	0	74	22474
2026-01-07 22:27:02.00	31.46	7.99	-51.8	-67.4	3.8	1.49e+00	0	41	104	0	74	22586
2026-01-07 22:27:05.01	31.74	8.19	-51.8	-67.4	3.8	1.49e+00	0	41	104	0	74	22651
2026-01-07 22:27:08.02	32.03	8.39	-51.8	-67.2	3.8	1.49e+00	0	41	104	0	74	22206
2026-01-07 22:27:11.04	32.32	8.59	-51.7	-66.2	3.8	1.49e+00	0	41	104	0	74	19770
2026-01-07 22:27:14.05	32.61	8.79	-51.7	-65.8	3.8	1.49e+00	0	41	104	0	74	18930
2026-01-07 22:27:17.06	32.91	9.00	-51.4	-62.6	4.7	1.34e+00	0	41	0	0	74	13041
2026-01-07 22:27:20.19	33.22	9.21	-52.0	-65.2	3.8	1.18e+00	0	41	104	5242880	74	17488
2026-01-07 22:27:23.05	33.51	9.41	-48.2	-51.9	14.4	3.85e-02	0	41	0	7340032	68	5379
2026-01-07 22:27:26.20	33.84	9.62	-47.9	-51.5	14.6	0.00e+00	0	41	0	12582912	67	5413
2026-01-07 22:27:29.07	34.14	9.82	-47.8	-51.3	14.8	0.00e+00	0	41	0	17825792	67	5318
2026-01-07 22:27:32.22	34.47	10.04	-47.5	-50.9	15.2	0.00e+00	0	41	0	24117248	66	5373
2026-01-07 22:27:35.12	34.78	10.24	-47.7	-51.2	14.9	0.00e+00	0	41	0	29360128	66	5579
2026-01-07 22:27:38.41	35.14	10.47	-47.3	-50.6	15.5	0.00e+00	0	41	0	35651584	66	5191
2026-01-07 22:27:41.36	35.47	10.68	-47.1	-50.2	16.0	0.00e+00	0	41	0	40894464	66	4961
2026-01-07 22:27:45.12	35.89	10.95	-46.8	-49.8	16.3	0.00e+00	0	41	0	48234496	65	5040
2026-01-07 22:27:47.92	36.21	11.15	-46.7	-49.8	16.3	0.00e+00	0	41	0	53477376	65	4996
2026-01-07 22:27:51.19	36.59	11.38	-46.9	-50.0	16.1	0.00e+00	0	41	0	59768832	65	5128
2026-01-07 22:27:54.05	36.92	11.59	-47.0	-50.2	16.0	0.00e+00	0	42	0	65011712	65	5247
2026-01-07 22:27:57.21	37.30	11.82	-46.9	-50.0	16.2	0.00e+00	0	41	0	71303168	65	5106
2026-01-07 22:28:00.07	37.64	12.02	-46.9	-49.9	16.2	0.00e+00	0	41	0	76546048	65	5077
2026-01-07 22:28:03.23	38.03	12.25	-46.6	-49.7	16.5	0.00e+00	0	41	0	81788928	65	4938
2026-01-07 22:28:06.09	38.38	12.46	-46.4	-49.4	16.7	0.00e+00	0	41	0	88080384	64	5084
2026-01-07 22:28:09.25	38.78	12.70	-46.2	-49.0	17.1	0.00e+00	0	42	0	93323264	64	4846
2026-01-07 22:28:12.10	39.15	12.91	-46.0	-48.7	17.4	0.00e+00	0	42	0	98566144	64	4685
2026-01-07 22:28:15.26	39.56	13.14	-46.0	-48.8	17.4	0.00e+00	0	42	0	104857600	64	4708
2026-01-07 22:28:18.12	39.93	13.35	-46.0	-48.7	17.5	0.00e+00	0	42	0	110100480	64	4667
2026-01-07 22:28:21.27	40.35	13.59	-46.2	-48.9	17.3	0.00e+00	0	42	0	116391936	63	5045
2026-01-07 22:28:24.14	40.74	13.80	-46.1	-48.8	17.4	0.00e+00	0	42	0	121634816	63	5020
2026-01-07 22:28:27.30	41.18	14.04	-46.2	-49.0	17.3	0.00e+00	0	42	0	126877696	63	5101
2026-01-07 22:28:30.16	41.58	14.26	-46.5	-49.3	16.9	0.00e+00	0	42	0	133169152	64	5001
2026-01-07 22:28:33.50	42.05	14.51	-46.7	-49.5	16.7	0.00e+00	0	42	0	139460608	64	5151
2026-01-07 22:28:36.22	42.44	14.72	-46.6	-49.3	16.8	0.00e+00	0	42	0	143654912	64	5040
2026-01-07 22:28:39.52	42.92	14.97	-46.3	-49.0	17.2	0.00e+00	0	42	0	149946368	64	4856
2026-01-07 22:28:42.26	43.33	15.18	-46.2	-48.8	17.4	0.00e+00	0	41	0	155189248	64	4740
2026-01-07 22:28:45.55	43.82	15.43	-45.9	-48.4	17.8	0.00e+00	0	42	0	161480704	63	4789
2026-01-07 22:28:48.27	44.24	15.64	-45.8	-48.4	17.9	0.00e+00	0	42	0	166723584	63	4762
2026-01-07 22:28:51.56	44.75	15.89	-45.6	-48.1	18.1	0.00e+00	0	42	0	173015040	63	4635
2026-01-07 22:28:54.28	45.18	16.10	-45.5	-48.0	18.2	0.00e+00	0	42	0	178257920	63	4572
2026-01-07 22:28:57.67	45.72	16.36	-45.5	-48.0	18.2	0.00e+00	0	42	0	184549376	62	4867
2026-01-07 22:29:00.39	46.16	16.57	-45.9	-48.4	17.8	0.00e+00	0	42	0	189792256	62	5095
2026-01-07 22:29:03.81	46.73	16.84	-46.0	-48.6	17.7	0.00e+00	0	42	0	196083712	63	4926
2026-01-07 22:29:06.54	47.18	17.05	-46.0	-48.6	17.7	0.00e+00	0	42	0	201326592	63	4876
2026-01-07 22:29:09.84	47.74	17.30	-46.0	-48.7	17.6	0.00e+00	0	41	0	207618048	63	4940
2026-01-07 22:29:12.67	48.23	17.52	-46.1	-48.7	17.6	0.00e+00	0	42	0	212860928	63	4972
2026-01-07 22:29:16.43	48.89	17.82	-45.7	-48.2	18.0	0.00e+00	0	42	0	219152384	63	4683
2026-01-07 22:29:19.17	49.38	18.03	-45.3	-47.8	18.4	0.00e+00	0	42	0	224395264	62	4707
2026-01-07 22:29:23.03	50.08	18.33	-45.0	-47.4	18.8	0.00e+00	0	42	0	231735296	62	4532
2026-01-07 22:29:25.79	50.59	18.54	-44.8	-47.1	19.0	0.00e+00	0	42	0	236978176	61	4640
2026-01-07 22:29:29.52	51.29	18.83	-44.8	-47.1	19.0	0.00e+00	0	42	0	244318208	61	4640
2026-01-07 22:29:32.32	51.82	19.04	-44.6	-46.9	19.2	0.00e+00	0	42	0	249561088	61	4539
2026-01-07 22:29:36.12	52.55	19.33	-44.5	-46.8	19.3	0.00e+00	0	42	0	256901120	60	4736
2026-01-07 22:29:38.88	53.10	19.54	-44.5	-46.9	19.2	0.00e+00	0	42	0	261095424	60	4761
2026-01-07 22:29:42.61	53.84	19.83	-44.6	-46.9	19.2	0.00e+00	0	42	0	268435456	60	4796
2026-01-07 22:29:45.43	54.41	20.04	-44.8	-47.2	19.0	0.00e+00	0	42	0	273678336	60	4932
2026-01-07 22:29:48.68	55.08	20.29	-44.7	-47.0	19.1	0.00e+00	0	42	0	279969792	60	4859
2026-01-07 22:29:51.75	55.72	20.52	-44.5	-46.8	19.3	0.00e+00	0	42	0	285212672	60	4734
2026-01-07 22:29:54.85	56.38	20.75	-44.3	-46.6	19.5	0.00e+00	0	42	0	291504128	60	4603
2026-01-07 22:29:57.72	57.00	20.96	-44.5	-46.9	19.2	0.00e+00	0	42	0	296747008	60	4762
2026-01-07 22:30:00.87	57.69	21.19	-45.1	-47.5	18.7	0.00e+00	0	42	0	303038464	60	5132
2026-01-07 22:30:03.73	58.32	21.40	-44.9	-47.2	18.9	0.00e+00	0	42	0	308281344	60	4959
2026-01-07 22:30:06.88	59.02	21.62	-45.1	-47.6	18.6	0.00e+00	0	42	0	314572800	61	4889
2026-01-07 22:30:09.75	59.68	21.83	-44.9	-47.3	18.8	0.00e+00	0	42	0	319815680	61	4736
2026-01-07 22:30:13.04	60.44	22.06	-45.0	-47.3	18.8	0.00e+00	0	42	0	326107136	61	4759
2026-01-07 22:30:16.06	61.14	22.27	-46.1	-48.7	17.6	0.00e+00	0	42	0	331350016	62	5278
2026-01-07 22:30:19.07	61.85	22.48	-45.4	-47.8	18.4	0.00e+00	0	42	0	336592896	62	4730
2026-01-07 22:30:22.08	62.58	22.68	-45.0	-47.4	18.8	0.00e+00	0	42	0	342884352	61	4785
2026-01-07 22:30:25.10	63.31	22.88	-45.6	-48.1	18.2	0.00e+00	0	42	0	348127232	62	4918
2026-01-07 22:30:28.11	64.05	23.08	-45.4	-47.8	18.4	0.00e+00	0	42	0	353370112	62	4742
2026-01-07 22:30:31.00	64.77	23.27	-46.1	-48.7	17.7	0.00e+00	0	42	0	359661568	63	4950
2026-01-07 22:30:34.16	65.57	23.47	-46.0	-48.5	17.8	0.00e+00	0	42	0	364904448	63	4849
2026-01-07 22:30:37.40	66.40	23.67	-46.3	-48.9	17.5	0.00e+00	0	42	0	371195904	63	5096
2026-01-07 22:30:40.41	67.18	23.85	-46.8	-49.6	16.8	0.00e+00	0	42	0	376438784	64	5191
2026-01-07 22:30:43.42	67.96	24.03	-47.6	-50.7	15.7	0.00e+00	0	42	0	382730240	65	5571
2026-01-07 22:30:46.43	68.76	24.20	-46.8	-49.6	16.8	0.00e+00	0	42	0	387973120	65	4883
2026-01-07 22:30:49.46	69.57	24.37	-46.3	-49.0	17.4	0.00e+00	0	42	0	394264576	64	4840
2026-01-07 22:30:52.47	70.38	24.54	-47.9	-51.2	15.3	0.00e+00	0	42	0	399507456	66	5562
2026-01-07 22:30:55.49	71.21	24.70	-48.3	-51.8	14.7	1.50e-06	0	42	0	404750336	67	5647
2026-01-07 22:30:58.50	72.03	24.85	-48.2	-51.8	14.7	0.00e+00	0	42	0	411041792	67	5596
2026-01-07 22:31:01.51	72.87	25.00	-47.7	-50.9	15.5	0.00e+00	0	42	0	416284672	67	5061
2026-01-07 22:31:04.58	73.73	25.15	-47.7	-50.9	15.5	0.00e+00	0	42	0	422576128	66	5387
2026-01-07 22:31:07.45	74.55	25.28	-48.5	-52.3	14.1	0.00e+00	0	42	0	427819008	67	5962
2026-01-07 22:31:10.60	75.45	25.42	-47.8	-51.1	15.3	0.00e+00	0	42	0	433061888	67	5209
2026-01-07 22:31:13.47	76.27	25.54	-48.5	-52.4	14.0	0.00e+00	0	42	0	439353344	67	5993
2026-01-07 22:31:16.62	77.19	25.66	-47.8	-51.2	15.2	0.00e+00	0	42	0	444596224	67	5264
2026-01-07 22:31:19.85	78.13	25.78	-47.2	-50.2	16.1	0.00e+00	0	42	0	450887680	66	4981
2026-01-07 22:31:22.72	78.98	25.88	-47.4	-50.6	15.9	0.00e+00	0	42	0	456130560	66	5166
2026-01-07 22:31:25.87	79.91	25.99	-47.7	-51.0	15.4	0.00e+00	0	42	0	462422016	66	5449
2026-01-07 22:31:28.76	80.77	26.07	-47.6	-50.8	15.7	0.00e+00	0	42	0	467664896	66	5318
2026-01-07 22:31:32.06	81.76	26.17	-46.7	-49.6	16.8	0.00e+00	0	42	0	473956352	65	4885
2026-01-07 22:31:34.87	82.61	26.24	-47.1	-50.2	16.2	0.00e+00	0	42	0	479199232	65	5248
2026-01-07 22:31:38.03	83.57	26.31	-47.4	-50.7	15.8	0.00e+00	0	42	0	485490688	66	5239
2026-01-07 22:31:40.89	84.44	26.37	-46.6	-49.6	16.9	0.00e+00	0	42	0	490733568	65	4874
2026-01-07 22:31:44.05	85.40	26.43	-47.4	-50.6	15.9	0.00e+00	0	42	0	495976448	65	5496
2026-01-07 22:31:46.92	86.28	26.48	-47.0	-49.9	16.6	0.00e+00	0	42	0	501219328	65	5073
2026-01-07 22:31:50.21	87.29	26.52	-47.2	-50.2	16.3	0.00e+00	0	42	0	507510784	65	5245
2026-01-07 22:31:53.11	88.18	26.55	-46.7	-49.5	17.0	0.00e+00	0	42	0	512753664	65	4816
2026-01-07 22:31:56.64	89.27	26.58	-47.2	-50.1	16.3	0.00e+00	0	42	0	520093696	65	5210
2026-01-07 22:31:59.37	90.11	26.59	-47.0	-49.9	16.5	0.00e+00	0	42	0	525336576	65	5077
2026-01-07 22:32:02.66	91.13	26.60	-47.3	-50.2	16.3	0.00e+00	0	42	0	531628032	65	5262
2026-01-07 22:32:05.39	91.97	26.60	-47.0	-49.9	16.6	0.00e+00	0	42	0	535822336	65	5050
2026-01-07 22:32:08.69	92.99	26.59	-47.5	-50.6	15.8	0.00e+00	0	42	0	542113792	65	5526
2026-01-07 22:32:11.70	93.92	26.57	-48.1	-51.3	15.2	0.00e+00	0	42	0	548405248	67	5319
2026-01-07 22:32:15.00	94.94	26.54	-47.0	-49.8	16.7	0.00e+00	0	42	0	554696704	66	4718
2026-01-07 22:32:17.72	95.78	26.51	-46.5	-49.1	17.3	0.00e+00	0	42	0	559939584	64	4886
2026-01-07 22:32:21.02	96.79	26.46	-46.7	-49.4	16.9	0.00e+00	0	42	0	565182464	64	5086
2026-01-07 22:32:23.74	97.62	26.42	-46.2	-48.8	17.6	0.00e+00	0	42	0	570425344	64	4711
2026-01-07 22:32:27.04	98.63	26.36	-46.5	-49.1	17.3	0.00e+00	0	42	0	576716800	64	4909
2026-01-07 22:32:29.76	99.46	26.30	-46.0	-48.5	17.9	0.00e+00	0	42	0	581959680	63	4830
2026-01-07 22:32:33.18	100.50	26.22	-46.2	-48.7	17.7	0.00e+00	0	42	0	588251136	63	4970
2026-01-07 22:32:35.90	101.32	26.15	-47.3	-50.2	16.3	0.00e+00	0	42	0	593494016	65	5236
2026-01-07 22:32:39.20	102.31	26.05	-47.0	-49.9	16.6	0.00e+00	0	42	0	599785472	65	5053
2026-01-07 22:32:41.92	103.12	25.97	-46.2	-48.8	17.6	0.00e+00	0	42	0	605028352	64	4748
2026-01-07 22:32:45.22	104.10	25.86	-45.2	-47.4	18.8	0.00e+00	0	42	0	611319808	62	4533
2026-01-07 22:32:48.29	105.00	25.75	-45.0	-47.2	19.1	0.00e+00	0	42	0	616562688	61	4669
2026-01-07 22:32:51.15	105.84	25.64	-46.0	-48.5	17.9	0.00e+00	0	42	0	621805568	62	5147
2026-01-07 22:32:54.42	106.79	25.51	-44.9	-47.1	19.1	0.00e+00	0	42	0	628097024	61	4625
2026-01-07 22:32:57.20	107.59	25.39	-44.8	-47.0	19.2	0.00e+00	0	42	0	633339904	61	4579
2026-01-07 22:33:00.49	108.53	25.24	-44.4	-46.5	19.6	0.00e+00	0	42	0	639631360	60	4585
2026-01-07 22:33:03.21	109.30	25.12	-43.9	-45.9	20.1	0.00e+00	0	42	0	644874240	59	4529
2026-01-07 22:33:06.57	110.24	24.96	-45.1	-47.4	18.9	0.00e+00	0	42	0	651165696	60	5073
2026-01-07 22:33:09.36	111.02	24.82	-45.0	-47.3	19.0	0.00e+00	0	42	0	656408576	61	4720
2026-01-07 22:33:12.75	111.96	24.64	-44.2	-46.3	19.8	0.00e+00	0	42	0	662700032	60	4487
2026-01-07 22:33:15.47	112.70	24.49	-44.2	-46.4	19.8	0.00e+00	0	42	0	667942912	60	4512
2026-01-07 22:33:18.77	113.59	24.31	-44.7	-46.9	19.3	0.00e+00	0	42	0	674234368	60	4803
2026-01-07 22:33:21.62	114.35	24.15	-44.8	-47.0	19.2	0.00e+00	0	42	0	679477248	60	4853
2026-01-07 22:33:24.87	115.21	23.96	-44.7	-46.9	19.4	0.00e+00	0	42	0	685768704	60	4771
2026-01-07 22:33:27.88	116.00	23.78	-45.1	-47.4	18.8	0.00e+00	0	42	0	691011584	60	5047
2026-01-07 22:33:30.89	116.77	23.59	-44.8	-47.0	19.3	0.00e+00	0	42	0	696254464	61	4546
2026-01-07 22:33:33.90	117.54	23.40	-45.4	-47.8	18.6	0.00e+00	0	42	0	702545920	61	5001
2026-01-07 22:33:36.94	118.31	23.21	-46.3	-48.9	17.6	0.00e+00	0	42	0	707788800	63	5059
2026-01-07 22:33:40.06	119.09	23.00	-45.5	-47.8	18.5	0.00e+00	0	42	0	714080256	63	4480
2026-01-07 22:33:42.92	119.79	22.81	-45.2	-47.4	18.8	0.00e+00	0	42	0	719323136	62	4537
2026-01-07 22:33:46.25	120.60	22.59	-45.1	-47.3	19.0	0.00e+00	0	42	0	725614592	62	4478
2026-01-07 22:33:49.38	121.35	22.37	-45.3	-47.7	18.6	0.00e+00	0	42	0	730857472	61	4927
2026-01-07 22:33:52.56	122.10	22.15	-45.8	-48.2	18.1	0.00e+00	0	42	0	737148928	62	4983
2026-01-07 22:33:55.43	122.77	21.95	-45.8	-48.2	18.1	0.00e+00	0	42	0	742391808	62	4966
2026-01-07 22:33:58.59	123.50	21.72	-45.9	-48.4	18.0	0.00e+00	0	42	0	748683264	62	5045
2026-01-07 22:34:01.45	124.15	21.52	-45.6	-48.0	18.3	0.00e+00	0	42	0	753926144	62	4837
2026-01-07 22:34:04.60	124.85	21.29	-46.4	-49.0	17.4	0.00e+00	0	42	0	760217600	63	5101
2026-01-07 22:34:07.47	125.49	21.08	-46.8	-49.7	16.5	0.00e+00	0	42	0	765460480	64	5276
2026-01-07 22:34:10.85	126.22	20.83	-45.0	-47.4	18.7	0.00e+00	0	42	0	771751936	62	4518
2026-01-07 22:34:13.81	126.86	20.61	-45.0	-47.3	18.8	0.00e+00	0	42	0	776994816	61	4748
2026-01-07 22:34:16.99	127.53	20.37	-46.2	-48.8	17.5	0.00e+00	0	42	0	783286272	63	5004
2026-01-07 22:34:20.05	128.17	20.14	-46.3	-48.9	17.3	0.00e+00	0	42	0	788529152	63	5081
2026-01-07 22:34:23.35	128.84	19.88	-46.2	-48.8	17.4	0.00e+00	0	42	0	794820608	63	5008
2026-01-07 22:34:26.25	129.43	19.66	-45.2	-47.5	18.6	0.00e+00	0	42	0	800063488	62	4594
2026-01-07 22:34:29.41	130.06	19.42	-44.8	-47.0	18.9	0.00e+00	0	42	0	806354944	61	4593
2026-01-07 22:34:32.42	130.65	19.19	-46.1	-48.7	17.4	0.00e+00	0	42	0	811597824	62	5266
2026-01-07 22:34:35.43	131.23	18.95	-46.1	-48.7	17.5	0.00e+00	0	42	0	817889280	63	4957
2026-01-07 22:34:38.44	131.80	18.72	-45.4	-47.7	18.3	0.00e+00	0	42	0	823132160	62	4695
2026-01-07 22:34:41.51	132.38	18.48	-45.5	-48.0	18.1	0.00e+00	0	42	0	829423616	62	4839
2026-01-07 22:34:44.52	132.93	18.25	-45.2	-47.6	18.4	0.00e+00	0	42	0	834666496	62	4635
2026-01-07 22:34:47.53	133.48	18.01	-44.8	-47.1	18.8	0.00e+00	0	42	0	839909376	61	4628
2026-01-07 22:34:50.54	134.02	17.78	-45.3	-47.7	18.2	0.00e+00	0	42	0	846200832	61	4974
2026-01-07 22:34:53.55	134.55	17.54	-45.5	-48.0	18.0	0.00e+00	0	42	0	851443712	61	5133
2026-01-07 22:34:56.56	135.07	17.31	-45.5	-47.9	18.0	0.00e+00	0	42	0	856686592	61	5074
2026-01-07 22:34:59.56	135.59	17.07	-46.1	-48.7	17.3	0.00e+00	0	42	0	862978048	63	4979
2026-01-07 22:35:02.57	136.09	16.84	-46.5	-49.3	16.8	0.00e+00	0	42	0	868220928	63	5300
2026-01-07 22:35:05.58	136.59	16.60	-45.8	-48.4	17.6	0.00e+00	0	42	0	874512384	63	4790
2026-01-07 22:35:08.59	137.09	16.37	-45.6	-48.1	17.9	0.00e+00	0	42	0	879755264	63	4621
2026-01-07 22:35:11.68	137.58	16.13	-45.4	-47.9	18.0	0.00e+00	0	42	0	886046720	62	4810
2026-01-07 22:35:14.58	138.04	15.90	-45.1	-47.5	18.5	0.00e+00	0	42	0	891289600	62	4560
2026-01-07 22:35:18.18	138.61	15.62	-45.2	-47.5	18.4	0.00e+00	0	42	0	897581056	61	4859
2026-01-07 22:35:20.90	139.02	15.41	-45.7	-48.1	17.9	0.00e+00	0	42	0	902823936	62	4915
2026-01-07 22:35:24.19	139.52	15.16	-46.5	-49.2	16.8	0.00e+00	0	42	0	909115392	63	5267
2026-01-07 22:35:26.92	139.93	14.95	-46.5	-49.3	16.7	0.00e+00	0	42	0	914358272	64	5018
2026-01-07 22:35:30.21	140.41	14.69	-46.2	-48.9	17.0	0.00e+00	0	43	0	920649728	64	4806
2026-01-07 22:35:32.93	140.80	14.49	-45.9	-48.6	17.4	0.00e+00	0	42	0	925892608	63	4907
2026-01-07 22:35:36.23	141.27	14.23	-45.8	-48.5	17.6	0.00e+00	0	42	0	931135488	63	4818
2026-01-07 22:35:38.95	141.66	14.03	-45.5	-48.0	17.9	0.00e+00	0	42	0	936378368	63	4597
2026-01-07 22:35:42.59	142.16	13.75	-45.4	-47.9	18.1	0.00e+00	0	42	0	943718400	62	4768
2026-01-07 22:35:45.55	142.56	13.53	-45.3	-47.8	18.1	0.00e+00	0	42	0	948961280	62	4720
2026-01-07 22:35:48.71	142.98	13.29	-45.9	-48.5	17.6	0.00e+00	0	42	0	955252736	62	5108
2026-01-07 22:35:51.57	143.36	13.07	-46.4	-49.1	16.9	0.00e+00	0	42	0	960495616	63	5214
2026-01-07 22:35:54.73	143.77	12.84	-46.6	-49.4	16.6	0.00e+00	0	42	0	966787072	64	5091
2026-01-07 22:35:57.82	144.17	12.61	-46.4	-49.2	16.8	0.00e+00	0	42	0	972029952	64	4959
2026-01-07 22:36:00.68	144.53	12.39	-46.2	-48.9	17.0	0.00e+00	0	42	0	977272832	64	4797
2026-01-07 22:36:03.83	144.92	12.16	-46.5	-49.2	16.8	0.00e+00	0	42	0	983564288	64	4971
2026-01-07 22:36:06.70	145.27	11.95	-46.7	-49.6	16.4	0.00e+00	0	42	0	988807168	64	5191
2026-01-07 22:36:09.99	145.67	11.71	-47.1	-50.3	15.8	0.00e+00	0	43	0	995098624	64	5594
2026-01-07 22:36:12.72	145.99	11.51	-47.0	-50.1	15.9	0.00e+00	0	42	0	1000341504	64	5526
2026-01-07 22:36:16.01	146.38	11.27	-46.6	-49.4	16.6	0.00e+00	0	42	0	1006632960	64	5099
2026-01-07 22:36:19.07	146.73	11.05	-46.8	-49.7	16.3	0.00e+00	0	42	0	1011875840	64	5219
2026-01-07 22:36:22.75	147.15	10.79	-47.1	-50.2	15.8	0.00e+00	0	43	0	1019215872	64	5562
2026-01-07 22:36:25.52	147.46	10.59	-47.2	-50.4	15.7	0.00e+00	0	42	0	1024458752	64	5663
2026-01-07 22:36:29.31	147.88	10.32	-46.9	-49.8	16.1	0.00e+00	0	42	0	1030750208	65	5031
2026-01-07 22:36:32.09	148.18	10.12	-46.7	-49.6	16.4	0.00e+00	0	42	0	1035993088	65	4886
2026-01-07 22:36:35.97	148.59	9.85	-47.0	-50.1	15.9	0.00e+00	0	42	0	1043333120	65	5180
2026-01-07 22:36:38.70	148.88	9.66	-47.4	-50.6	15.4	0.00e+00	0	43	0	1048576000	65	5484
2026-01-07 22:36:42.47	149.27	9.39	-47.9	-51.5	14.5	1.50e-06	0	43	0	1055916032	66	5742
2026-01-07 22:36:45.33	149.56	9.20	-48.1	-51.9	14.2	2.20e-06	0	43	0	1061158912	67	5657
2026-01-07 22:36:49.11	149.94	8.94	-52.2	-66.2	3.8	2.34e-01	0	42	104	1067450368	75	18630
2026-01-07 22:36:51.85	150.21	8.75	-52.3	-68.0	3.8	1.49e+00	0	42	104	1067450368	76	21511
2026-01-07 22:36:55.58	150.58	8.49	-53.0	-68.1	3.8	1.49e+00	0	43	104	1067450368	76	21936
2026-01-07 22:36:58.32	150.84	8.31	-53.0	-68.2	3.8	1.49e+00	0	43	104	1067450368	76	22075
2026-01-07 22:37:02.00	151.19	8.06	-53.1	-68.2	3.8	1.49e+00	0	43	104	1067450368	76	22194
2026-01-07 22:37:04.73	151.45	7.88	-53.2	-68.2	3.8	1.49e+00	0	43	104	1067450368	77	20971
2026-01-07 22:37:08.03	151.75	7.66	-53.0	-68.2	3.8	1.49e+00	0	43	104	1067450368	77	20967
2026-01-07 22:37:10.76	152.00	7.48	-52.6	-68.2	3.8	1.49e+00	0	43	104	1067450368	77	20888
2026-01-07 22:37:14.05	152.29	7.26	-52.6	-68.2	3.8	1.49e+00	0	43	104	1067450368	77	20849
2026-01-07 22:37:16.78	152.54	7.08	-52.6	-68.2	3.8	1.49e+00	0	42	104	1067450368	77	20829
2026-01-07 22:37:20.08	152.83	6.87	-52.6	-68.2	3.8	1.49e+00	0	43	104	1067450368	77	20894
2026-01-07 22:37:22.81	153.06	6.69	-52.6	-68.2	3.8	1.49e+00	0	43	104	1067450368	77	20788
2026-01-07 22:37:26.10	153.34	6.48	-52.6	-68.2	3.8	1.49e+00	0	42	104	1067450368	77	20781
2026-01-07 22:37:28.83	153.57	6.30	-52.6	-68.2	3.8	1.49e+00	0	42	104	1067450368	77	20864
2026-01-07 22:37:32.13	153.85	6.09	-52.6	-68.1	3.8	1.49e+00	0	43	104	1067450368	77	20749
2026-01-07 22:37:34.86	154.07	5.91	-52.6	-68.2	3.8	1.49e+00	0	43	104	1067450368	77	20801
2026-01-07 22:37:38.15	154.34	5.71	-52.6	-68.2	3.8	1.49e+00	0	43	104	1067450368	77	20786
2026-01-07 22:37:40.88	154.56	5.53	-52.6	-68.2	3.8	1.49e+00	0	43	104	1067450368	77	20823
2026-01-07 22:37:44.18	154.82	5.33	-52.6	-68.2	3.8	1.49e+00	0	43	104	1067450368	77	20880
2026-01-07 22:37:46.90	155.03	5.16	-52.6	-68.2	3.8	1.49e+00	0	43	104	1067450368	77	20858
2026-01-07 22:37:50.20	155.28	4.95	-52.6	-68.2	3.8	1.49e+00	0	42	104	1067450368	77	20877

#Closed at: 2026-01-07 22:37:51
#Recorded file [1067 MB]: D:/Data/31040_260108_012616.dat