passes_logs/2026/01/07/T1/T1__20260107_082526_KHAYYAM_rec.log

#Pass ID: 20260107_082526_KHAYYAM
#Satellite: KHAYYAM
#Configuration: KHAYYAM_480M
#almurnet v.1.7.20251203
#Start time: 2026-01-07 08:25:26

#Version: 2.0.20230620
#Station: T1
#Location: 37.570604 lon 55.790049 lat
#TLE: 1 53370U 22096A   26005.63766736  .00008095  00000+0  32978-3 0  9997
#TLE: 2 53370  97.3565 272.8146 0001238  87.7645 272.3734 15.24731212189819

#Time	Az	El	Level	Level2	SNR	BER	BlckErr	Temp	State	Recorded	gain1	gain2
2026-01-07 08:25:26.52	185.78	5.04	-51.5	-56.2	3.4	0.00e+00	0	45	0	0	74	25002
2026-01-07 08:25:29.50	185.96	5.28	-51.4	-56.2	3.7	0.00e+00	0	46	104	0	73	26578
2026-01-07 08:25:32.50	186.15	5.52	-51.3	-56.3	3.7	0.00e+00	0	46	104	0	73	26616
2026-01-07 08:25:35.49	186.34	5.76	-51.4	-56.4	3.7	0.00e+00	0	47	104	0	73	26915
2026-01-07 08:25:38.48	186.53	6.00	-51.4	-56.3	3.7	0.00e+00	0	47	104	0	73	26658
2026-01-07 08:25:41.47	186.73	6.25	-51.3	-56.3	3.7	0.00e+00	0	47	104	0	73	26607
2026-01-07 08:25:44.46	186.93	6.50	-51.4	-56.3	3.7	0.00e+00	0	47	104	0	73	26871
2026-01-07 08:25:47.46	187.14	6.76	-51.4	-56.3	3.7	0.00e+00	0	47	104	0	73	26778
2026-01-07 08:25:50.45	187.35	7.01	-51.4	-56.3	3.7	0.00e+00	0	48	104	0	73	26614
2026-01-07 08:25:53.43	187.57	7.27	-51.3	-56.3	3.7	0.00e+00	0	48	104	0	73	26719
2026-01-07 08:25:56.42	187.79	7.54	-51.3	-56.2	3.7	0.00e+00	0	48	104	0	73	26579
2026-01-07 08:25:59.42	188.01	7.80	-51.4	-56.3	3.7	0.00e+00	0	48	104	0	73	26584
2026-01-07 08:26:02.41	188.25	8.07	-51.3	-56.2	3.6	0.00e+00	0	48	104	0	73	26386
2026-01-07 08:26:05.40	188.48	8.35	-51.3	-56.2	3.7	0.00e+00	0	49	104	0	73	26540
2026-01-07 08:26:08.39	188.72	8.63	-51.4	-56.3	3.7	0.00e+00	0	49	104	0	73	26620
2026-01-07 08:26:11.39	188.97	8.91	-51.3	-56.2	3.7	0.00e+00	0	49	104	0	73	26569
2026-01-07 08:26:14.38	189.22	9.19	-51.1	-56.1	3.7	0.00e+00	0	49	104	0	73	26178
2026-01-07 08:26:17.37	189.48	9.48	-51.1	-56.1	3.7	0.00e+00	0	49	104	0	73	26015
2026-01-07 08:26:20.36	189.75	9.78	-51.1	-56.2	3.7	0.00e+00	0	49	104	0	73	26289
2026-01-07 08:26:23.35	190.02	10.08	-51.4	-56.3	3.7	0.00e+00	0	49	104	0	73	26640
2026-01-07 08:26:26.35	190.30	10.38	-51.2	-56.2	3.7	0.00e+00	0	49	104	0	73	26562
2026-01-07 08:26:29.35	190.58	10.69	-50.7	-55.6	3.7	0.00e+00	0	50	104	0	73	24706
2026-01-07 08:26:32.34	190.87	11.00	-50.9	-55.8	3.7	0.00e+00	0	49	104	0	73	25349
2026-01-07 08:26:35.33	191.17	11.32	-50.5	-55.4	3.7	0.00e+00	0	50	104	0	72	25486
2026-01-07 08:26:38.33	191.48	11.64	-50.7	-55.5	3.7	0.00e+00	0	50	104	0	72	25954
2026-01-07 08:26:41.32	191.80	11.97	-51.0	-55.9	3.7	0.00e+00	0	50	104	0	73	25587
2026-01-07 08:26:44.31	192.12	12.30	-51.2	-56.0	3.7	0.00e+00	0	50	104	0	74	24363
2026-01-07 08:26:47.30	192.46	12.64	-51.7	-56.4	3.7	0.00e+00	0	50	104	0	74	25416
2026-01-07 08:26:50.29	192.80	12.98	-51.5	-56.1	3.7	0.00e+00	0	50	104	0	74	24710
2026-01-07 08:26:53.28	193.15	13.33	-51.6	-56.3	3.7	0.00e+00	0	50	104	0	74	25143
2026-01-07 08:26:56.28	193.51	13.69	-51.7	-56.2	3.7	0.00e+00	0	50	104	0	74	24940
2026-01-07 08:26:59.27	193.89	14.05	-51.1	-55.8	3.7	0.00e+00	0	50	104	0	74	23732
2026-01-07 08:27:02.27	194.27	14.42	-51.3	-56.0	3.7	0.00e+00	0	50	104	0	74	24420
2026-01-07 08:27:05.26	194.66	14.79	-51.8	-56.3	3.7	0.00e+00	0	50	104	0	74	25353
2026-01-07 08:27:08.25	195.07	15.17	-51.8	-56.4	3.7	0.00e+00	0	50	104	0	74	25501
2026-01-07 08:27:11.25	195.49	15.56	-52.3	-56.8	3.7	0.00e+00	0	50	104	0	75	25264
2026-01-07 08:27:14.24	195.92	15.96	-52.4	-56.9	3.7	0.00e+00	0	50	104	0	75	25446
2026-01-07 08:27:17.24	196.37	16.36	-52.2	-56.8	3.7	0.00e+00	0	51	104	0	75	25231
2026-01-07 08:27:20.24	196.83	16.77	-52.2	-56.9	3.7	0.00e+00	0	51	104	0	75	25500
2026-01-07 08:27:23.24	197.30	17.18	-52.7	-57.3	3.7	0.00e+00	0	51	104	0	75	26735
2026-01-07 08:27:26.23	197.79	17.61	-52.7	-57.4	3.7	0.00e+00	0	51	104	0	76	25437
2026-01-07 08:27:29.22	198.30	18.04	-52.9	-57.5	3.7	0.00e+00	0	51	104	0	76	25909
2026-01-07 08:27:32.21	198.82	18.48	-53.0	-57.6	3.7	0.00e+00	0	51	104	0	76	26205
2026-01-07 08:27:35.21	199.36	18.93	-53.2	-57.7	3.7	0.00e+00	0	51	104	0	77	25065
2026-01-07 08:27:38.20	199.91	19.38	-53.0	-57.4	3.7	0.00e+00	0	51	104	0	77	24162
2026-01-07 08:27:41.19	200.49	19.85	-52.8	-57.4	3.7	0.00e+00	0	51	104	0	77	23999
2026-01-07 08:27:44.18	201.09	20.32	-52.7	-57.2	3.7	0.00e+00	0	51	104	0	77	23464
2026-01-07 08:27:47.18	201.71	20.80	-53.1	-57.5	3.7	0.00e+00	0	51	104	0	77	24324
2026-01-07 08:27:50.17	202.35	21.30	-53.2	-57.7	3.7	0.00e+00	0	51	104	0	77	24945
2026-01-07 08:27:53.16	203.01	21.79	-53.4	-57.9	3.7	0.00e+00	0	51	104	0	77	25510
2026-01-07 08:27:56.16	203.70	22.30	-53.4	-57.9	3.7	0.00e+00	0	51	104	0	77	25495
2026-01-07 08:27:59.15	204.42	22.82	-53.1	-57.6	3.7	0.00e+00	0	51	104	0	77	24699
2026-01-07 08:28:02.15	205.16	23.35	-52.9	-57.5	3.7	0.00e+00	0	51	104	0	77	24281
2026-01-07 08:28:05.14	205.93	23.88	-53.1	-57.7	3.7	0.00e+00	0	51	104	0	77	24867
2026-01-07 08:28:08.13	206.73	24.43	-53.4	-57.8	3.7	0.00e+00	0	51	104	0	77	25371
2026-01-07 08:28:11.13	207.56	24.98	-53.2	-57.6	3.7	0.00e+00	0	51	104	0	77	24685
2026-01-07 08:28:14.13	208.42	25.54	-53.5	-57.9	3.7	0.00e+00	0	51	104	0	77	25654
2026-01-07 08:28:17.12	209.32	26.11	-53.2	-57.6	3.7	0.00e+00	0	51	104	0	77	24730
2026-01-07 08:28:20.12	210.26	26.69	-53.5	-58.0	3.7	0.00e+00	0	51	104	0	77	25741
2026-01-07 08:28:23.11	211.23	27.28	-52.9	-57.2	3.7	0.00e+00	0	51	104	0	77	23675
2026-01-07 08:28:26.09	212.23	27.87	-53.4	-57.9	3.7	0.00e+00	0	51	104	0	77	25635
2026-01-07 08:28:29.09	213.29	28.47	-53.5	-58.0	3.7	0.00e+00	0	51	104	0	77	25957
2026-01-07 08:28:32.08	214.38	29.07	-53.4	-57.5	3.7	0.00e+00	0	51	104	0	77	24488
2026-01-07 08:28:35.08	215.53	29.68	-53.1	-57.4	3.7	0.00e+00	0	51	104	0	77	24154
2026-01-07 08:28:38.08	216.72	30.29	-53.3	-57.7	3.7	0.00e+00	0	51	104	0	77	24960
2026-01-07 08:28:41.08	217.96	30.91	-53.3	-58.0	3.7	0.00e+00	0	51	104	0	77	25786
2026-01-07 08:28:44.08	219.25	31.53	-53.5	-58.1	3.7	0.00e+00	0	51	104	0	77	26116
2026-01-07 08:28:47.09	220.61	32.15	-53.3	-57.9	3.7	0.00e+00	0	51	104	0	77	25513
2026-01-07 08:28:50.10	222.01	32.76	-53.4	-58.0	3.7	0.00e+00	0	51	104	0	77	25911
2026-01-07 08:28:53.10	223.47	33.38	-53.7	-58.1	3.7	0.00e+00	0	51	104	0	78	24774
2026-01-07 08:28:56.09	224.99	33.98	-53.4	-57.9	3.7	0.00e+00	0	51	104	0	78	24207
2026-01-07 08:28:59.09	226.56	34.58	-53.1	-57.8	3.7	0.00e+00	0	51	104	0	78	23736
2026-01-07 08:29:02.09	228.21	35.16	-53.6	-58.1	3.7	0.00e+00	0	51	104	0	78	24716
2026-01-07 08:29:05.09	229.91	35.74	-53.2	-57.7	3.7	0.00e+00	0	51	104	0	78	23682
2026-01-07 08:29:08.09	231.67	36.30	-52.7	-56.4	3.7	0.00e+00	0	51	104	0	77	21376
2026-01-07 08:29:11.08	233.50	36.83	-52.5	-56.5	3.7	0.00e+00	0	51	104	0	77	21654
2026-01-07 08:29:14.07	235.38	37.35	-53.2	-57.8	3.7	0.00e+00	0	51	104	0	77	25287
2026-01-07 08:29:17.07	237.34	37.84	-53.2	-57.1	3.7	0.00e+00	0	51	104	0	77	23328
2026-01-07 08:29:20.06	239.35	38.30	-52.9	-56.9	3.7	0.00e+00	0	51	104	0	77	22790
2026-01-07 08:29:23.06	241.42	38.73	-53.7	-58.1	3.6	0.00e+00	0	51	104	0	78	24757
2026-01-07 08:29:26.06	243.55	39.13	-52.9	-57.6	3.7	0.00e+00	0	51	104	0	77	24572
2026-01-07 08:29:29.06	245.73	39.48	-53.6	-58.2	3.7	0.00e+00	0	51	104	0	77	26305
2026-01-07 08:29:32.05	247.95	39.80	-53.5	-58.1	3.7	0.00e+00	0	51	104	0	77	26147
2026-01-07 08:29:35.05	250.22	40.07	-53.4	-58.1	3.7	0.00e+00	0	51	104	0	77	26076
2026-01-07 08:29:38.05	252.53	40.29	-50.1	-53.9	3.8	0.00e+00	0	51	104	0	70	24201
2026-01-07 08:29:41.04	254.85	40.47	-53.3	-57.7	3.7	0.00e+00	0	51	104	0	77	25004
2026-01-07 08:29:44.03	257.20	40.60	-53.4	-58.0	3.7	0.00e+00	0	51	104	0	77	25833
2026-01-07 08:29:47.03	259.58	40.67	-53.3	-57.8	3.7	0.00e+00	0	51	104	0	78	23906
2026-01-07 08:29:50.03	261.95	40.69	-53.4	-57.9	3.7	0.00e+00	0	51	104	0	78	24021
2026-01-07 08:29:53.03	264.33	40.66	-53.2	-57.8	3.7	0.00e+00	0	51	104	0	77	25269
2026-01-07 08:29:56.02	266.69	40.58	-33.3	-34.3	4.6	0.00e+00	0	51	104	0	37	16826
2026-01-07 08:29:59.01	269.04	40.44	-30.7	-31.6	4.6	0.00e+00	0	51	104	0	33	15557
2026-01-07 08:30:02.01	271.37	40.26	-37.3	-38.3	4.6	0.00e+00	0	51	104	0	45	16821
2026-01-07 08:30:05.00	273.66	40.03	-27.8	-28.6	4.6	0.00e+00	0	51	104	0	27	15631
2026-01-07 08:30:08.00	275.92	39.75	-26.0	-26.8	4.6	0.00e+00	0	51	104	0	24	15101
2026-01-07 08:30:10.99	278.12	39.43	-40.1	-41.1	4.6	0.00e+00	0	51	104	0	50	17556
2026-01-07 08:30:13.98	280.28	39.07	-24.9	-25.8	21.9	0.00e+00	0	52	0	142606336	21	15835
2026-01-07 08:30:16.97	282.39	38.67	-24.5	-25.4	22.0	0.00e+00	0	52	0	318767104	20	16065
2026-01-07 08:30:19.96	284.44	38.23	-24.6	-25.4	22.0	0.00e+00	0	52	0	503316480	19	17074
2026-01-07 08:30:22.96	286.44	37.77	-23.9	-24.7	22.2	0.00e+00	0	52	0	679477248	19	15721
2026-01-07 08:30:25.96	288.38	37.28	-24.2	-25.1	22.2	0.00e+00	0	52	0	864026624	19	16421
2026-01-07 08:30:28.96	290.26	36.76	-24.7	-25.5	22.0	0.00e+00	0	52	0	1040187392	20	16370
2026-01-07 08:30:31.95	292.07	36.22	-24.6	-25.4	21.9	0.00e+00	0	52	0	1224736768	20	16202
2026-01-07 08:30:34.94	293.81	35.66	-24.6	-25.4	22.1	0.00e+00	0	52	0	1400897536	20	16087
2026-01-07 08:30:37.94	295.50	35.09	-25.6	-26.4	21.4	0.00e+00	0	53	0	1585446912	21	17074
2026-01-07 08:30:40.93	297.12	34.51	-24.8	-25.6	21.8	0.00e+00	0	52	0	1761607680	21	15528
2026-01-07 08:30:43.92	298.68	33.91	-25.0	-25.8	21.7	0.00e+00	0	52	0	1937768448	21	16001
2026-01-07 08:30:46.91	300.17	33.31	-24.9	-25.7	21.8	0.00e+00	0	52	0	2122317824	21	15790
2026-01-07 08:30:49.90	301.61	32.71	-25.3	-26.1	21.6	0.00e+00	0	53	0	2298478592	21	16446
2026-01-07 08:30:52.90	303.00	32.10	-25.6	-26.4	21.6	0.00e+00	0	53	0	2483027968	22	16070
2026-01-07 08:30:55.90	304.34	31.48	-26.3	-27.2	21.3	0.00e+00	0	53	0	2659188736	23	16628
2026-01-07 08:30:58.89	305.61	30.87	-26.8	-27.6	20.9	0.00e+00	0	53	0	2835349504	24	16557
2026-01-07 08:31:01.89	306.84	30.26	-25.7	-26.5	21.8	0.00e+00	0	53	0	3019898880	23	15436
2026-01-07 08:31:04.89	308.03	29.65	-25.9	-26.8	21.7	0.00e+00	0	53	0	3196059648	23	15842
2026-01-07 08:31:07.88	309.16	29.05	-26.8	-27.7	21.3	0.00e+00	0	53	0	3380609024	24	16609
2026-01-07 08:31:10.87	310.24	28.45	-26.9	-27.8	21.0	0.00e+00	0	53	0	3556769792	24	16838
2026-01-07 08:31:13.86	311.28	27.86	-26.8	-27.6	21.2	0.00e+00	0	53	0	3732930560	24	16557
2026-01-07 08:31:16.86	312.29	27.27	-26.9	-27.7	21.3	0.00e+00	0	53	0	3917479936	25	15747
2026-01-07 08:31:19.85	313.25	26.69	-27.1	-27.9	20.8	0.00e+00	0	53	0	4093640704	25	16091
2026-01-07 08:31:22.84	314.18	26.12	-27.2	-28.0	20.5	0.00e+00	0	53	0	4278190080	25	16296
2026-01-07 08:31:25.84	315.07	25.55	-27.3	-28.2	21.0	0.00e+00	0	53	0	4454350848	26	15663
2026-01-07 08:31:28.84	315.93	24.99	-27.5	-28.3	20.8	0.00e+00	0	53	0	4638900224	26	15953
2026-01-07 08:31:31.84	316.75	24.44	-27.8	-28.7	20.5	0.00e+00	0	53	0	4815060992	26	16590
2026-01-07 08:31:34.83	317.54	23.90	-28.2	-29.1	20.1	0.00e+00	0	53	0	4999610368	27	16411
2026-01-07 08:31:37.83	318.31	23.37	-28.2	-29.1	20.0	0.00e+00	0	53	0	5175771136	28	15534
2026-01-07 08:31:40.82	319.04	22.85	-28.6	-29.5	19.8	0.00e+00	0	53	0	5351931904	28	16362
2026-01-07 08:31:43.81	319.75	22.34	-28.6	-29.5	19.7	0.00e+00	0	53	0	5536481280	28	16259
2026-01-07 08:31:46.81	320.44	21.83	-28.7	-29.5	19.8	0.00e+00	0	53	0	5712642048	29	15433
2026-01-07 08:31:49.80	321.10	21.34	-28.9	-29.8	19.5	0.00e+00	0	53	0	5888802816	29	15903
2026-01-07 08:31:52.80	321.74	20.85	-28.9	-29.8	19.5	0.00e+00	0	53	0	6073352192	29	15835
2026-01-07 08:31:55.78	322.35	20.38	-29.0	-29.9	19.9	0.00e+00	0	53	0	6249512960	29	16118
2026-01-07 08:31:58.77	322.94	19.91	-29.6	-30.5	19.3	0.00e+00	0	53	0	6434062336	29	17177
2026-01-07 08:32:01.77	323.52	19.44	-29.6	-30.5	19.2	0.00e+00	0	53	0	6610223104	31	15384
2026-01-07 08:32:04.77	324.07	18.99	-29.8	-30.7	18.8	0.00e+00	0	53	0	6786383872	31	15768
2026-01-07 08:32:07.76	324.61	18.55	-29.9	-30.8	19.0	0.00e+00	0	53	0	6970933248	31	15852
2026-01-07 08:32:10.76	325.13	18.11	-30.2	-31.1	19.0	0.00e+00	0	53	0	7147094016	31	16482
2026-01-07 08:32:13.74	325.63	17.68	-30.4	-31.3	18.5	0.00e+00	0	53	0	7331643392	31	16869
2026-01-07 08:32:16.73	326.11	17.26	-30.8	-31.7	18.1	0.00e+00	0	53	0	7507804160	32	16687
2026-01-07 08:32:19.72	326.59	16.85	-30.8	-31.7	18.2	0.00e+00	0	53	0	7692353536	33	15709
2026-01-07 08:32:22.72	327.04	16.45	-31.0	-31.9	17.9	0.00e+00	0	53	0	7868514304	33	16071
2026-01-07 08:32:25.71	327.49	16.05	-30.9	-31.8	17.7	0.00e+00	0	53	0	8044675072	33	15986
2026-01-07 08:32:28.70	327.92	15.66	-31.2	-32.1	18.1	0.00e+00	0	53	0	8229224448	33	16486
2026-01-07 08:32:31.69	328.33	15.27	-31.8	-32.7	18.1	0.00e+00	0	53	0	8405385216	34	16644
2026-01-07 08:32:34.68	328.74	14.89	-31.7	-32.5	18.2	0.00e+00	0	53	0	8589934592	35	15439
2026-01-07 08:32:37.67	329.13	14.52	-31.7	-32.6	18.1	0.00e+00	0	53	0	8766095360	35	15572
2026-01-07 08:32:40.67	329.52	14.16	-31.9	-32.8	18.1	0.00e+00	0	53	0	8942256128	35	15842
2026-01-07 08:32:43.66	329.89	13.80	-32.0	-32.8	18.2	0.00e+00	0	53	0	9126805504	35	15972
2026-01-07 08:32:46.65	330.25	13.45	-32.1	-33.0	17.9	0.00e+00	0	53	0	9302966272	35	16341
2026-01-07 08:32:49.65	330.60	13.10	-33.7	-34.6	17.9	0.00e+00	0	53	0	9487515648	38	16444
2026-01-07 08:32:52.64	330.94	12.76	-33.7	-34.6	18.1	0.00e+00	0	53	0	9663676416	38	16522
2026-01-07 08:32:55.63	331.28	12.42	-34.0	-34.9	18.0	0.00e+00	0	53	0	9839837184	38	17004
2026-01-07 08:32:58.63	331.60	12.09	-34.0	-34.9	18.0	0.00e+00	0	53	0	10024386560	39	16057
2026-01-07 08:33:01.62	331.92	11.77	-34.2	-35.1	17.9	0.00e+00	0	53	0	10200547328	39	16413
2026-01-07 08:33:04.62	332.23	11.45	-34.4	-35.3	17.8	0.00e+00	0	53	0	10376708096	39	16853
2026-01-07 08:33:07.61	332.53	11.13	-52.2	-57.1	3.7	1.32e-02	0	53	104	10494148608	75	26081
2026-01-07 08:33:10.60	332.82	10.82	-52.3	-57.4	3.7	1.32e-02	0	52	104	10494148608	75	27058
2026-01-07 08:33:13.60	333.11	10.51	-52.3	-57.4	3.7	1.32e-02	0	52	104	10494148608	75	27165
2026-01-07 08:33:16.59	333.38	10.21	-52.4	-57.5	3.7	1.32e-02	0	52	104	10494148608	75	27491
2026-01-07 08:33:19.58	333.66	9.92	-52.1	-57.3	3.7	1.32e-02	0	52	104	10494148608	74	28473
2026-01-07 08:33:22.58	333.92	9.62	-51.4	-56.6	3.7	1.32e-02	0	53	104	10494148608	74	26018
2026-01-07 08:33:25.57	334.18	9.34	-52.1	-57.0	3.7	1.32e-02	0	52	104	10494148608	74	27235
2026-01-07 08:33:28.56	334.44	9.05	-52.0	-56.9	3.7	1.32e-02	0	52	104	10494148608	75	25619
2026-01-07 08:33:31.55	334.68	8.77	-52.6	-57.4	3.7	1.32e-02	0	52	104	10494148608	75	27076
2026-01-07 08:33:34.54	334.93	8.50	-53.1	-57.9	3.7	1.32e-02	0	52	104	10494148608	76	27052
2026-01-07 08:33:37.53	335.16	8.22	-52.8	-57.4	3.7	1.32e-02	0	52	104	10494148608	76	25582
2026-01-07 08:33:40.52	335.39	7.95	-52.4	-57.5	3.7	1.32e-02	0	52	104	10494148608	76	25870
2026-01-07 08:33:43.52	335.62	7.69	-54.0	-58.5	3.7	1.32e-02	0	52	104	10494148608	78	25795
2026-01-07 08:33:46.52	335.84	7.43	-54.0	-58.5	3.7	1.32e-02	0	52	104	10494148608	78	25816
2026-01-07 08:33:49.51	336.06	7.17	-53.5	-58.1	3.7	1.32e-02	0	52	104	10494148608	78	24545
2026-01-07 08:33:52.51	336.27	6.91	-53.2	-57.6	3.7	1.32e-02	0	52	104	10494148608	77	24574
2026-01-07 08:33:55.50	336.48	6.66	-52.8	-57.5	3.7	1.32e-02	0	52	104	10494148608	77	24245
2026-01-07 08:33:58.49	336.69	6.41	-52.8	-57.5	3.7	1.32e-02	0	52	104	10494148608	77	24263
2026-01-07 08:34:01.49	336.89	6.16	-52.8	-57.5	3.7	1.32e-02	0	52	104	10494148608	77	24260
2026-01-07 08:34:04.48	337.08	5.92	-52.7	-57.4	3.7	1.32e-02	0	52	104	10494148608	77	24142
2026-01-07 08:34:07.48	337.28	5.68	-52.7	-57.4	3.7	1.32e-02	0	52	104	10494148608	77	24214
2026-01-07 08:34:10.47	337.46	5.44	-52.7	-57.4	3.7	1.32e-02	0	52	104	10494148608	77	24192
2026-01-07 08:34:13.47	337.65	5.20	-52.8	-57.4	3.7	1.32e-02	0	52	104	10494148608	77	24240
2026-01-07 08:34:16.46	337.83	4.97	-52.7	-57.4	3.7	1.32e-02	0	52	104	10494148608	77	24132

#Closed at: 2026-01-07 08:34:17
#Recorded file [10494 MB]: D:/Data/31040_260107_112526.dat