passes_logs/2026/01/07/T1/T1__20260107_021203_AQUA_rec.log

#Pass ID: 20260107_021203_AQUA
#Satellite: AQUA
#Configuration: AQUA
#almurnet v.1.7.20251203
#Start time: 2026-01-07 02:12:05

#Version: 2.0.20230620
#Station: T1
#Location: 37.570604 lon 55.790049 lat
#TLE: 1 27424U 02022A   26004.96787593  .00001598  00000+0  32997-3 0  9996
#TLE: 2 27424  98.4069 331.2279 0002002  90.2377   0.6092 14.61798176259425

#Time	Az	El	Level	Level2	SNR	BER	BlckErr	Temp	State	Recorded	gain1	gain2
2026-01-07 02:12:05.35	8.62	5.10	-47.5	-70.6	3.8	7.43e-01	0	36	0	0	66	51923
2026-01-07 02:12:08.35	8.46	5.32	-47.5	-70.6	3.8	7.46e-01	0	36	104	0	65	55201
2026-01-07 02:12:11.37	8.30	5.54	-47.5	-70.7	3.8	7.44e-01	0	37	104	0	65	55757
2026-01-07 02:12:14.38	8.14	5.76	-47.5	-70.9	3.8	7.45e-01	0	36	104	0	65	56766
2026-01-07 02:12:17.39	7.97	5.98	-47.5	-70.8	3.8	7.46e-01	0	37	104	0	65	56347
2026-01-07 02:12:20.40	7.80	6.20	-47.5	-70.5	3.8	7.47e-01	0	37	104	0	65	54306
2026-01-07 02:12:23.42	7.63	6.43	-47.5	-70.5	3.8	7.46e-01	0	37	104	0	65	54234
2026-01-07 02:12:26.43	7.45	6.65	-47.5	-70.7	3.8	7.45e-01	0	37	104	0	65	55752
2026-01-07 02:12:29.44	7.27	6.88	-47.5	-70.5	3.8	7.46e-01	0	37	104	0	65	54423
2026-01-07 02:12:32.45	7.09	7.11	-47.5	-68.8	3.9	7.47e-01	0	37	104	0	65	44653
2026-01-07 02:12:35.47	6.90	7.35	-47.4	-65.5	5.0	7.11e-01	0	37	0	0	65	30390
2026-01-07 02:12:38.48	6.71	7.58	-47.4	-64.5	5.6	6.96e-01	0	37	0	1048576	65	27342
2026-01-07 02:12:41.49	6.52	7.82	-47.5	-66.8	4.4	7.28e-01	0	37	104	1572864	65	35640
2026-01-07 02:12:44.50	6.32	8.06	-47.4	-64.6	5.4	6.96e-01	0	37	0	1572864	65	27677
2026-01-07 02:12:47.52	6.12	8.30	-47.2	-59.6	10.1	6.20e-01	0	37	0	6815744	65	15446
2026-01-07 02:12:50.53	5.92	8.54	-46.7	-55.9	14.0	6.07e-01	0	37	0	12058624	65	10065
2026-01-07 02:12:53.54	5.71	8.79	-46.3	-54.1	15.9	6.06e-01	0	37	0	17825792	64	8676
2026-01-07 02:12:56.55	5.50	9.04	-46.5	-54.9	15.1	6.02e-01	0	37	0	23592960	64	9503
2026-01-07 02:12:59.56	5.28	9.29	-46.5	-55.6	14.5	6.01e-01	0	38	0	29360128	64	10313
2026-01-07 02:13:02.58	5.06	9.54	-44.2	-48.1	21.7	6.06e-01	0	38	0	34603008	60	5498
2026-01-07 02:13:05.59	4.84	9.80	-44.2	-47.9	22.0	6.01e-01	0	38	0	40370176	59	5700
2026-01-07 02:13:08.59	4.61	10.06	-43.6	-47.2	22.8	6.03e-01	0	38	0	46137344	59	5237
2026-01-07 02:13:11.60	4.37	10.32	-43.4	-47.0	23.0	6.02e-01	0	38	0	51904512	58	5443
2026-01-07 02:13:14.61	4.13	10.58	-43.5	-47.0	23.0	6.06e-01	0	38	0	57147392	58	5435
2026-01-07 02:13:17.55	3.89	10.84	-43.6	-47.0	23.1	6.03e-01	0	38	0	62914560	58	5411
2026-01-07 02:13:20.66	3.64	11.12	-43.6	-47.0	23.1	6.06e-01	0	38	0	68681728	58	5416
2026-01-07 02:13:23.67	3.38	11.39	-43.7	-46.9	23.1	6.02e-01	0	38	0	74448896	58	5344
2026-01-07 02:13:26.68	3.12	11.67	-43.7	-47.0	23.1	6.03e-01	0	38	0	80216064	58	5404
2026-01-07 02:13:29.68	2.86	11.94	-43.6	-46.7	23.4	5.99e-01	0	38	0	85458944	58	5238
2026-01-07 02:13:32.66	2.59	12.22	-43.7	-46.6	23.5	6.05e-01	0	38	0	91226112	58	5190
2026-01-07 02:13:36.00	2.28	12.54	-43.6	-46.5	23.6	6.02e-01	0	38	0	97517568	58	5107
2026-01-07 02:13:38.72	2.03	12.79	-43.5	-46.5	23.6	6.03e-01	0	38	0	102760448	58	5117
2026-01-07 02:13:42.01	1.71	13.11	-43.4	-46.3	23.8	6.03e-01	0	38	0	108527616	58	5040
2026-01-07 02:13:44.74	1.44	13.38	-43.5	-46.3	23.9	6.03e-01	0	38	0	113770496	58	5004
2026-01-07 02:13:48.24	1.09	13.72	-43.5	-46.4	23.8	6.05e-01	0	38	0	120586240	58	5048
2026-01-07 02:13:50.96	0.81	13.99	-43.6	-46.4	23.8	6.01e-01	0	38	0	125304832	58	5067
2026-01-07 02:13:54.26	0.46	14.33	-43.4	-46.3	23.8	6.04e-01	0	38	0	131596288	58	5009
2026-01-07 02:13:56.98	0.17	14.60	-43.4	-46.3	23.8	6.06e-01	0	38	0	136839168	58	5032
2026-01-07 02:14:00.54	359.77	14.97	-43.5	-46.4	23.7	6.01e-01	0	38	0	143654912	58	5076
2026-01-07 02:14:03.47	359.44	15.27	-43.6	-46.4	23.7	6.04e-01	0	38	0	148897792	58	5097
2026-01-07 02:14:06.76	359.06	15.62	-43.3	-46.1	24.1	6.02e-01	0	38	0	155189248	58	4908
2026-01-07 02:14:09.49	358.74	15.91	-43.4	-46.1	24.1	6.00e-01	0	38	0	160432128	58	4908
2026-01-07 02:14:12.78	358.34	16.27	-43.3	-46.2	24.1	6.04e-01	0	38	0	166199296	58	4937
2026-01-07 02:14:15.56	357.99	16.57	-43.1	-46.1	24.1	6.00e-01	0	38	0	171442176	58	4910
2026-01-07 02:14:18.84	357.57	16.93	-42.8	-46.0	24.2	6.03e-01	0	38	0	177733632	57	5128
2026-01-07 02:14:21.71	357.20	17.25	-42.7	-45.9	24.2	6.01e-01	0	38	0	182976512	57	5080
2026-01-07 02:14:24.86	356.78	17.61	-42.9	-46.0	24.2	6.04e-01	0	38	0	189267968	57	5131
2026-01-07 02:14:27.76	356.38	17.94	-43.2	-45.9	24.2	6.05e-01	0	38	0	194510848	57	5064
2026-01-07 02:14:31.05	355.92	18.32	-43.2	-45.9	24.2	6.02e-01	0	38	0	200802304	57	5053
2026-01-07 02:14:33.89	355.51	18.65	-43.0	-45.8	23.9	6.03e-01	0	38	0	206045184	57	5010
2026-01-07 02:14:37.04	355.04	19.02	-43.0	-45.9	24.1	6.03e-01	0	38	0	211812352	57	5056
2026-01-07 02:14:39.91	354.61	19.36	-43.0	-46.0	23.1	6.00e-01	0	38	0	217055232	57	5116
2026-01-07 02:14:43.09	354.11	19.74	-43.2	-46.1	22.2	6.03e-01	0	38	0	223346688	57	5218
2026-01-07 02:14:45.94	353.65	20.09	-43.0	-46.1	21.5	6.02e-01	0	38	0	228589568	57	5216
2026-01-07 02:14:49.52	353.07	20.53	-35.2	-45.2	7.3	6.58e-01	0	38	0	235405312	42	11037
2026-01-07 02:14:52.35	352.59	20.88	-39.7	-45.9	12.7	6.05e-01	0	38	0	240648192	49	8018
2026-01-07 02:14:55.79	351.99	21.32	-43.5	-46.2	23.0	6.06e-01	0	38	0	246939648	57	5252
2026-01-07 02:14:58.51	351.51	21.66	-43.3	-46.0	24.0	6.02e-01	0	38	0	252182528	57	5117
2026-01-07 02:15:01.81	350.90	22.09	-43.2	-46.0	24.2	6.04e-01	0	38	0	258473984	57	5149
2026-01-07 02:15:04.53	350.39	22.44	-43.5	-46.2	24.1	6.04e-01	0	38	0	263192576	57	5245
2026-01-07 02:15:08.19	349.68	22.92	-43.6	-46.1	24.3	6.04e-01	0	38	0	270532608	57	5214
2026-01-07 02:15:11.04	349.12	23.29	-43.4	-46.4	24.0	6.05e-01	0	38	0	275775488	57	5357
2026-01-07 02:15:14.19	348.47	23.71	-43.4	-46.4	23.9	6.03e-01	0	38	0	281542656	57	5387
2026-01-07 02:15:17.17	347.84	24.11	-43.5	-46.2	24.1	6.04e-01	0	38	0	287309824	57	5276
2026-01-07 02:15:20.54	347.11	24.57	-43.4	-46.0	24.4	6.02e-01	0	38	0	293601280	57	5115
2026-01-07 02:15:23.26	346.51	24.94	-43.4	-46.2	24.3	6.04e-01	0	38	0	298844160	57	5236
2026-01-07 02:15:26.56	345.75	25.39	-43.6	-46.3	24.1	6.02e-01	0	38	0	304611328	57	5314
2026-01-07 02:15:29.28	345.11	25.76	-43.6	-46.1	24.3	6.00e-01	0	38	0	309854208	57	5216
2026-01-07 02:15:32.57	344.32	26.22	-43.2	-45.8	24.6	6.01e-01	0	38	0	316145664	57	5039
2026-01-07 02:15:35.29	343.64	26.60	-43.1	-46.0	24.4	6.03e-01	0	38	0	320864256	57	5111
2026-01-07 02:15:38.86	342.72	27.10	-43.1	-45.8	24.6	6.03e-01	0	38	0	327680000	57	4993
2026-01-07 02:15:41.73	341.97	27.50	-43.3	-45.8	24.6	6.04e-01	0	38	0	332922880	57	4986
2026-01-07 02:15:44.87	341.12	27.94	-43.1	-45.8	24.6	6.04e-01	0	38	0	339214336	57	5006
2026-01-07 02:15:47.74	340.31	28.35	-43.0	-45.5	24.9	6.05e-01	0	38	0	344457216	57	4829
2026-01-07 02:15:51.24	339.31	28.84	-43.0	-45.4	24.9	6.05e-01	0	38	0	350748672	57	4814
2026-01-07 02:15:53.96	338.51	29.22	-43.0	-45.6	24.8	6.06e-01	0	38	0	355991552	57	4888
2026-01-07 02:15:57.26	337.50	29.69	-42.9	-45.3	25.1	6.02e-01	0	38	0	362283008	57	4753
2026-01-07 02:16:00.08	336.62	30.08	-42.6	-45.4	25.0	6.04e-01	0	38	0	367525888	57	4800
2026-01-07 02:16:03.55	335.51	30.57	-42.5	-45.2	25.1	6.01e-01	0	38	0	373817344	56	4953
2026-01-07 02:16:06.27	334.61	30.94	-43.0	-45.5	24.9	6.03e-01	0	38	0	379060224	56	5143
2026-01-07 02:16:09.56	333.49	31.39	-42.7	-45.3	25.1	6.06e-01	0	38	0	385351680	56	4987
2026-01-07 02:16:12.28	332.54	31.76	-42.6	-45.3	25.1	6.05e-01	0	39	0	390594560	56	5005
2026-01-07 02:16:15.58	331.36	32.21	-42.7	-45.5	24.9	6.00e-01	0	38	0	396886016	56	5110
2026-01-07 02:16:18.70	330.22	32.62	-43.0	-45.5	24.8	6.04e-01	0	38	0	402653184	56	5155
2026-01-07 02:16:21.56	329.14	32.99	-43.0	-45.4	24.9	6.03e-01	0	39	0	407896064	56	5073
2026-01-07 02:16:24.71	327.92	33.39	-43.3	-45.8	24.6	6.02e-01	0	38	0	413663232	57	5012
2026-01-07 02:16:27.70	326.74	33.77	-42.8	-45.5	24.9	6.04e-01	0	38	0	419430400	57	4844
2026-01-07 02:16:31.10	325.36	34.18	-43.5	-46.2	24.2	6.02e-01	0	39	0	425721856	57	5239
2026-01-07 02:16:33.81	324.23	34.50	-43.2	-45.8	24.7	6.03e-01	0	38	0	430964736	57	5001
2026-01-07 02:16:37.15	322.81	34.88	-43.7	-46.3	24.2	6.05e-01	0	38	0	437256192	58	5012
2026-01-07 02:16:39.97	321.59	35.19	-43.6	-46.4	24.1	6.03e-01	0	38	0	442499072	58	5083
2026-01-07 02:16:43.12	320.19	35.52	-43.6	-46.4	24.1	6.05e-01	0	38	0	448266240	58	5055
2026-01-07 02:16:46.36	318.72	35.85	-43.8	-46.4	24.1	6.02e-01	0	39	0	454557696	58	5070
2026-01-07 02:16:49.57	317.24	36.15	-44.3	-46.9	23.6	6.00e-01	0	38	0	460324864	59	5092
2026-01-07 02:16:52.43	315.90	36.41	-44.4	-47.1	23.4	6.02e-01	0	38	0	465567744	59	5217
2026-01-07 02:16:55.58	314.39	36.67	-44.3	-47.0	23.6	6.03e-01	0	38	0	471859200	59	5111
2026-01-07 02:16:58.87	312.79	36.92	-44.5	-47.2	23.4	6.01e-01	0	39	0	477626368	59	5252
2026-01-07 02:17:01.60	311.45	37.12	-44.1	-46.9	23.6	6.02e-01	0	38	0	482869248	59	5054
2026-01-07 02:17:04.89	309.81	37.33	-44.3	-47.1	23.5	6.02e-01	0	38	0	489160704	59	5204
2026-01-07 02:17:07.61	308.43	37.48	-44.4	-47.2	23.3	6.03e-01	0	38	0	494403584	59	5278
2026-01-07 02:17:11.27	306.57	37.66	-44.6	-47.6	22.8	6.05e-01	0	38	0	501219328	60	5197
2026-01-07 02:17:13.99	305.17	37.77	-43.9	-46.6	23.7	6.02e-01	0	38	0	505937920	59	4880
2026-01-07 02:17:17.76	303.21	37.89	-44.0	-46.6	23.9	6.04e-01	0	39	0	513277952	59	4925
2026-01-07 02:17:20.51	301.78	37.96	-45.0	-48.2	22.2	6.00e-01	0	39	0	518520832	60	5541
2026-01-07 02:17:24.54	299.66	38.02	-43.5	-46.1	24.1	6.05e-01	0	38	0	525860864	59	4634
2026-01-07 02:17:27.31	298.21	38.04	-44.0	-46.6	23.9	6.03e-01	0	38	0	531103744	59	4904
2026-01-07 02:17:31.31	296.11	38.02	-44.6	-47.6	22.7	6.04e-01	0	38	0	538443776	60	5194
2026-01-07 02:17:34.05	294.67	37.99	-44.6	-47.5	23.0	6.03e-01	0	39	0	543686656	60	5126
2026-01-07 02:17:37.66	292.78	37.92	-44.6	-47.4	23.1	6.04e-01	0	38	0	550502400	60	5060
2026-01-07 02:17:40.52	291.29	37.83	-44.9	-47.8	22.6	6.03e-01	0	39	0	555745280	60	5316
2026-01-07 02:17:43.68	289.66	37.72	-45.5	-48.5	22.1	6.02e-01	0	39	0	562036736	61	5458
2026-01-07 02:17:46.54	288.19	37.59	-45.0	-47.9	22.6	6.05e-01	0	39	0	567279616	61	5091
2026-01-07 02:17:49.69	286.59	37.43	-45.0	-47.9	22.6	6.03e-01	0	38	0	573046784	61	5056
2026-01-07 02:17:52.85	285.00	37.24	-45.1	-47.9	22.5	6.05e-01	0	39	0	579338240	62	4791
2026-01-07 02:17:55.71	283.57	37.05	-45.9	-49.1	21.5	6.02e-01	0	38	0	584581120	62	5490
2026-01-07 02:17:58.96	281.98	36.81	-45.7	-48.7	21.8	6.02e-01	0	38	0	590348288	63	4948
2026-01-07 02:18:01.82	280.60	36.58	-46.0	-49.4	21.3	6.01e-01	0	38	0	596115456	62	5664
2026-01-07 02:18:04.97	279.10	36.31	-45.4	-48.3	22.3	6.03e-01	0	38	0	601882624	62	5002
2026-01-07 02:18:07.84	277.75	36.05	-45.3	-48.2	22.4	6.03e-01	0	39	0	607125504	62	4975
2026-01-07 02:18:11.00	276.30	35.74	-44.6	-47.4	23.1	6.08e-01	0	39	0	612892672	60	5049
2026-01-07 02:18:13.88	275.00	35.45	-44.6	-47.5	22.9	6.05e-01	0	39	0	618659840	60	5127
2026-01-07 02:18:17.09	273.58	35.10	-45.0	-48.0	22.4	6.02e-01	0	38	0	624427008	60	5450
2026-01-07 02:18:19.96	272.34	34.78	-44.6	-47.4	23.1	6.00e-01	0	38	0	629669888	60	5055
2026-01-07 02:18:23.11	271.00	34.42	-44.7	-47.6	22.9	6.05e-01	0	38	0	635961344	60	5188
2026-01-07 02:18:26.22	269.71	34.05	-44.1	-46.7	23.7	6.00e-01	0	39	0	641728512	59	4966
2026-01-07 02:18:29.46	268.40	33.65	-43.8	-46.3	24.2	6.02e-01	0	39	0	647495680	59	4726
2026-01-07 02:18:32.36	267.26	33.28	-44.4	-47.1	23.4	6.04e-01	0	39	0	653262848	59	5194
2026-01-07 02:18:35.73	265.96	32.85	-44.1	-46.8	23.8	6.03e-01	0	39	0	659554304	59	5004
2026-01-07 02:18:38.46	264.93	32.49	-44.2	-46.9	23.5	6.02e-01	0	39	0	664797184	59	5060
2026-01-07 02:18:41.74	263.73	32.06	-44.0	-46.6	23.9	6.02e-01	0	39	0	670564352	59	4891
2026-01-07 02:18:44.61	262.71	31.67	-43.9	-46.5	23.9	6.02e-01	0	39	0	676331520	59	4857
2026-01-07 02:18:47.76	261.62	31.24	-44.1	-46.7	23.8	6.04e-01	0	39	0	682098688	59	4942
2026-01-07 02:18:50.63	260.65	30.84	-43.9	-46.5	23.9	6.02e-01	0	39	0	687341568	59	4868
2026-01-07 02:18:53.89	259.57	30.39	-44.0	-46.7	23.8	6.05e-01	0	39	0	693633024	59	4928
2026-01-07 02:18:56.82	258.63	29.97	-44.1	-46.8	23.7	6.02e-01	0	39	0	698875904	59	5005
2026-01-07 02:19:00.11	257.61	29.51	-44.1	-46.8	23.6	6.03e-01	0	39	0	705167360	59	5025
2026-01-07 02:19:02.98	256.74	29.11	-43.9	-46.7	23.8	6.02e-01	0	39	0	710410240	59	4940
2026-01-07 02:19:06.26	255.78	28.64	-44.0	-46.7	23.8	6.03e-01	0	39	0	716701696	59	4948
2026-01-07 02:19:09.27	254.92	28.22	-44.2	-47.1	23.4	6.04e-01	0	39	0	722468864	59	5171
2026-01-07 02:19:12.27	254.08	27.79	-44.0	-46.8	23.7	6.04e-01	0	39	0	727711744	59	5013
2026-01-07 02:19:15.28	253.27	27.37	-44.2	-47.0	23.5	6.02e-01	0	39	0	733478912	59	5132
2026-01-07 02:19:18.35	252.46	26.93	-43.8	-46.5	23.9	6.04e-01	0	39	0	739246080	59	4850
2026-01-07 02:19:21.25	251.72	26.53	-44.3	-47.2	23.3	6.00e-01	0	39	0	745013248	59	5227
2026-01-07 02:19:24.40	250.93	26.09	-44.1	-47.0	23.5	6.06e-01	0	39	0	750780416	59	5114
2026-01-07 02:19:27.27	250.24	25.69	-44.2	-46.8	23.6	6.04e-01	0	39	0	756023296	59	5041
2026-01-07 02:19:30.43	249.49	25.25	-44.4	-47.1	23.4	6.03e-01	0	39	0	761790464	59	5218
2026-01-07 02:19:33.29	248.84	24.85	-44.2	-47.0	23.4	6.01e-01	0	39	0	767557632	59	5150
2026-01-07 02:19:36.58	248.11	24.41	-44.3	-47.1	23.4	6.03e-01	0	39	0	773324800	59	5166
2026-01-07 02:19:39.31	247.51	24.03	-44.4	-47.1	23.4	6.04e-01	0	39	0	778567680	59	5183
2026-01-07 02:19:42.61	246.82	23.59	-44.3	-47.0	23.5	6.00e-01	0	39	0	784859136	59	5118
2026-01-07 02:19:45.33	246.26	23.23	-44.4	-47.1	23.3	6.02e-01	0	39	0	790102016	59	5198
2026-01-07 02:19:48.55	245.62	22.80	-44.6	-47.3	23.1	6.01e-01	0	39	0	795869184	59	5307
2026-01-07 02:19:51.79	244.99	22.37	-44.2	-46.8	23.6	6.04e-01	0	39	0	802160640	59	5037
2026-01-07 02:19:54.94	244.39	21.96	-44.4	-47.1	23.3	6.04e-01	0	39	0	807927808	59	5207
2026-01-07 02:19:57.81	243.87	21.60	-44.4	-47.1	23.3	6.08e-01	0	39	0	813170688	59	5186
2026-01-07 02:20:01.04	243.29	21.18	-44.4	-47.1	23.3	6.02e-01	0	39	0	819462144	59	5168
2026-01-07 02:20:03.91	242.79	20.82	-44.5	-47.2	23.2	6.04e-01	0	39	0	824705024	59	5256
2026-01-07 02:20:07.07	242.25	20.43	-44.2	-46.9	23.5	6.05e-01	0	39	0	830472192	59	5056
2026-01-07 02:20:10.17	241.74	20.04	-44.2	-47.0	23.4	6.03e-01	0	39	0	836763648	59	5159
2026-01-07 02:20:13.32	241.23	19.66	-44.1	-46.9	23.5	6.04e-01	0	39	0	842530816	59	5065
2026-01-07 02:20:16.50	240.73	19.27	-44.1	-46.9	23.5	6.05e-01	0	39	0	848297984	59	5054
2026-01-07 02:20:19.36	240.30	18.93	-44.2	-46.9	23.5	6.04e-01	0	39	0	853540864	59	5055
2026-01-07 02:20:22.52	239.83	18.56	-44.1	-46.7	23.7	6.06e-01	0	39	0	859832320	59	4964
2026-01-07 02:20:25.38	239.41	18.22	-44.3	-47.0	23.4	6.02e-01	0	39	0	865075200	59	5104
2026-01-07 02:20:28.55	238.96	17.85	-44.0	-46.7	23.7	6.03e-01	0	39	0	870842368	59	4945
2026-01-07 02:20:31.42	238.57	17.53	-44.2	-47.0	23.4	6.03e-01	0	39	0	876609536	59	5156
2026-01-07 02:20:34.57	238.14	17.17	-44.4	-47.3	23.1	6.05e-01	0	39	0	882376704	59	5293
2026-01-07 02:20:37.43	237.77	16.85	-44.2	-46.9	23.4	6.01e-01	0	39	0	887619584	59	5093
2026-01-07 02:20:40.60	237.36	16.50	-44.2	-47.0	23.3	6.06e-01	0	39	0	893386752	59	5134
2026-01-07 02:20:43.47	237.00	16.18	-44.1	-46.9	23.4	6.00e-01	0	39	0	899153920	59	5056
2026-01-07 02:20:46.62	236.61	15.84	-44.5	-47.3	23.0	6.00e-01	0	39	0	904921088	59	5304
2026-01-07 02:20:49.61	236.26	15.52	-44.6	-47.4	22.9	6.03e-01	0	39	0	910688256	59	5372
2026-01-07 02:20:52.80	235.88	15.18	-44.4	-47.2	23.0	6.02e-01	0	39	0	916455424	59	5276
2026-01-07 02:20:55.80	235.54	14.87	-44.2	-47.0	23.3	6.05e-01	0	39	0	922222592	59	5102
2026-01-07 02:20:58.98	235.19	14.54	-44.4	-47.3	23.0	6.05e-01	0	39	0	927989760	59	5295
2026-01-07 02:21:01.84	234.87	14.25	-44.4	-47.2	23.0	6.01e-01	0	39	0	933232640	59	5261
2026-01-07 02:21:05.00	234.54	13.93	-44.3	-47.1	23.2	6.02e-01	0	39	0	939524096	59	5190
2026-01-07 02:21:07.86	234.24	13.64	-44.4	-47.3	22.9	6.00e-01	0	39	0	944766976	59	5318
2026-01-07 02:21:11.02	233.92	13.33	-44.5	-47.5	22.7	6.04e-01	0	39	0	950534144	59	5464
2026-01-07 02:21:13.89	233.63	13.05	-44.5	-47.5	22.7	6.04e-01	0	39	0	955777024	59	5404
2026-01-07 02:21:17.04	233.33	12.74	-44.6	-47.4	22.8	6.03e-01	0	39	0	962068480	59	5395
2026-01-07 02:21:19.90	233.05	12.47	-44.6	-47.5	22.7	6.02e-01	0	39	0	967311360	59	5417
2026-01-07 02:21:23.05	232.76	12.17	-44.4	-47.3	22.8	6.03e-01	0	39	0	973078528	60	5002
2026-01-07 02:21:26.03	232.49	11.89	-44.5	-47.4	22.7	6.03e-01	0	39	0	978845696	60	5065
2026-01-07 02:21:29.04	232.22	11.61	-44.6	-47.5	22.5	6.03e-01	0	39	0	984612864	60	5132
2026-01-07 02:21:32.05	231.95	11.34	-44.7	-47.7	22.4	6.00e-01	0	39	0	989855744	60	5241
2026-01-07 02:21:35.06	231.69	11.06	-44.6	-47.5	22.5	6.00e-01	0	39	0	995622912	60	5146
2026-01-07 02:21:38.06	231.44	10.79	-44.7	-47.6	22.4	6.05e-01	0	39	0	1001390080	60	5184
2026-01-07 02:21:41.14	231.19	10.52	-44.9	-47.8	22.2	6.04e-01	0	39	0	1007157248	60	5340
2026-01-07 02:21:44.39	230.93	10.23	-44.9	-47.9	22.0	6.01e-01	0	39	0	1012924416	60	5398
2026-01-07 02:21:47.31	230.70	9.98	-44.9	-48.0	21.9	6.02e-01	0	39	0	1018691584	60	5460
2026-01-07 02:21:50.60	230.44	9.70	-44.8	-47.9	22.1	6.01e-01	0	39	0	1024983040	60	5365
2026-01-07 02:21:53.33	230.23	9.46	-44.7	-47.8	22.1	6.03e-01	0	39	0	1029701632	60	5300
2026-01-07 02:21:56.63	229.99	9.18	-44.8	-47.9	21.9	6.03e-01	0	39	0	1035993088	60	5386
2026-01-07 02:21:59.35	229.79	8.96	-50.9	-71.0	3.6	7.47e-01	0	39	104	1040187392	72	38449
2026-01-07 02:22:02.65	229.55	8.68	-51.1	-71.7	3.8	7.45e-01	0	39	104	1040187392	73	39405
2026-01-07 02:22:05.38	229.36	8.46	-51.5	-71.9	3.8	7.48e-01	0	39	104	1040187392	73	40332
2026-01-07 02:22:08.68	229.13	8.19	-51.3	-71.9	3.8	7.50e-01	0	39	104	1040187392	73	40500
2026-01-07 02:22:11.41	228.95	7.97	-51.2	-72.0	3.8	7.45e-01	0	39	104	1040187392	74	38429
2026-01-07 02:22:14.71	228.73	7.71	-51.4	-72.0	3.8	7.47e-01	0	39	104	1040187392	74	38456
2026-01-07 02:22:17.45	228.55	7.49	-51.0	-72.0	3.8	7.46e-01	0	39	104	1040187392	74	38290
2026-01-07 02:22:20.83	228.34	7.23	-50.7	-72.0	3.8	7.47e-01	0	39	104	1040187392	73	40571
2026-01-07 02:22:23.56	228.16	7.01	-50.7	-71.9	3.8	7.45e-01	0	39	104	1040187392	73	40351
2026-01-07 02:22:26.86	227.96	6.76	-50.6	-71.9	3.8	7.48e-01	0	39	104	1040187392	73	40383
2026-01-07 02:22:29.58	227.80	6.55	-50.6	-71.9	3.8	7.49e-01	0	39	104	1040187392	73	40399
2026-01-07 02:22:32.88	227.60	6.30	-50.6	-71.9	3.8	7.46e-01	0	39	104	1040187392	73	40366
2026-01-07 02:22:35.61	227.44	6.10	-50.6	-71.9	3.8	7.49e-01	0	39	104	1040187392	73	40345
2026-01-07 02:22:38.91	227.25	5.85	-50.6	-71.9	3.8	7.49e-01	0	39	104	1040187392	73	40289
2026-01-07 02:22:41.63	227.10	5.65	-50.6	-71.9	3.8	7.45e-01	0	39	104	1040187392	73	40369
2026-01-07 02:22:44.93	226.91	5.41	-50.7	-71.9	3.8	7.45e-01	0	39	104	1040187392	73	40417
2026-01-07 02:22:47.66	226.76	5.21	-50.7	-71.9	3.8	7.46e-01	0	39	104	1040187392	73	40325
2026-01-07 02:22:50.96	226.59	4.98	-50.7	-71.9	3.8	7.46e-01	0	39	104	1040187392	73	40325

#Closed at: 2026-01-07 02:22:51
#Recorded file [1040 MB]: D:/Data/31040_260107_051205.dat