passes_logs/2026/01/07/T1/T1__20260107_004559_NOAA_20_JPSS-1_rec.log

#Pass ID: 20260107_004559_NOAA 20 (JPSS-1)
#Satellite: NOAA 20 (JPSS-1)
#Configuration: NOAA 20
#almurnet v.1.7.20251203
#Start time: 2026-01-07 00:46:00

#Version: 2.0.20230620
#Station: T1
#Location: 37.570604 lon 55.790049 lat
#TLE: 1 43013U 17073A   26006.30790171  .00000126  00000+0  80695-4 0  9991
#TLE: 2 43013  98.7629 307.3394 0001808  51.8724 308.2615 14.19533762421505

#Time	Az	El	Level	Level2	SNR	BER	BlckErr	Temp	State	Recorded	gain1	gain2
2026-01-07 00:46:00.77	9.80	5.09	-48.1	-64.4	3.8	1.49e+00	0	41	0	0	66	25484
2026-01-07 00:46:03.78	9.64	5.29	-48.1	-64.4	3.8	1.49e+00	0	41	104	0	66	25449
2026-01-07 00:46:06.79	9.48	5.50	-48.1	-64.4	3.8	1.49e+00	0	41	104	0	66	25375
2026-01-07 00:46:09.80	9.32	5.70	-48.1	-64.4	3.8	1.49e+00	0	41	104	0	66	25383
2026-01-07 00:46:12.81	9.15	5.91	-48.1	-64.4	3.8	1.49e+00	0	41	104	0	66	25318
2026-01-07 00:46:15.83	8.98	6.12	-48.1	-64.4	3.8	1.49e+00	0	41	104	0	66	25301
2026-01-07 00:46:18.84	8.81	6.33	-48.1	-64.4	3.8	1.49e+00	0	41	104	0	66	25270
2026-01-07 00:46:21.85	8.64	6.54	-48.1	-64.3	3.8	1.49e+00	0	41	104	0	66	25265
2026-01-07 00:46:24.86	8.46	6.75	-48.1	-64.2	3.8	1.49e+00	0	42	104	0	66	24975
2026-01-07 00:46:27.88	8.28	6.96	-48.1	-63.7	3.8	1.49e+00	0	42	104	0	66	23376
2026-01-07 00:46:30.89	8.10	7.18	-48.0	-62.6	3.8	1.49e+00	0	42	104	0	66	20635
2026-01-07 00:46:33.90	7.92	7.40	-48.0	-62.1	3.8	1.48e+00	0	42	104	0	66	19557
2026-01-07 00:46:36.91	7.73	7.61	-48.0	-63.0	3.8	1.49e+00	0	42	104	0	66	21601
2026-01-07 00:46:39.93	7.54	7.83	-48.1	-64.1	3.8	1.49e+00	0	42	104	0	66	24531
2026-01-07 00:46:42.94	7.35	8.06	-48.0	-62.7	3.8	1.49e+00	0	42	104	0	66	20830
2026-01-07 00:46:45.95	7.15	8.28	-47.7	-58.3	5.3	6.86e-01	0	42	0	2097152	66	12569
2026-01-07 00:46:48.94	6.95	8.50	-47.1	-54.6	8.4	6.21e-02	0	42	0	7340032	66	8209
2026-01-07 00:46:51.95	6.75	8.73	-46.5	-52.7	10.4	5.04e-03	0	42	0	13631488	65	7030
2026-01-07 00:46:54.96	6.54	8.96	-46.7	-53.3	9.8	9.48e-03	0	42	0	18874368	64	7957
2026-01-07 00:46:57.96	6.33	9.18	-48.2	-61.8	4.0	8.13e-02	0	43	0	24117248	66	18879
2026-01-07 00:47:00.97	6.12	9.42	-47.0	-55.9	7.2	1.14e-04	0	42	0	28311552	64	10767
2026-01-07 00:47:03.97	5.90	9.65	-43.7	-47.4	15.9	0.00e+00	0	43	0	33554432	59	5391
2026-01-07 00:47:06.97	5.68	9.88	-43.8	-47.4	16.0	0.00e+00	0	43	0	38797312	59	5343
2026-01-07 00:47:09.98	5.46	10.12	-43.9	-47.4	16.0	0.00e+00	0	43	0	45088768	59	5367
2026-01-07 00:47:12.99	5.23	10.36	-43.8	-47.3	16.0	0.00e+00	0	43	0	50331648	59	5323
2026-01-07 00:47:15.99	5.00	10.60	-44.0	-47.4	16.0	0.00e+00	0	43	0	56623104	59	5343
2026-01-07 00:47:18.99	4.76	10.84	-44.0	-47.3	16.1	0.00e+00	0	43	0	61865984	59	5339
2026-01-07 00:47:22.00	4.52	11.08	-44.0	-47.2	16.2	0.00e+00	0	43	0	67108864	59	5262
2026-01-07 00:47:25.00	4.28	11.33	-44.1	-47.2	16.3	0.00e+00	0	43	0	73400320	59	5233
2026-01-07 00:47:28.00	4.03	11.58	-44.2	-47.3	16.2	0.00e+00	0	43	0	78643200	59	5289
2026-01-07 00:47:31.01	3.77	11.83	-44.2	-47.2	16.2	0.00e+00	0	43	0	84934656	59	5278
2026-01-07 00:47:34.01	3.52	12.08	-44.1	-47.1	16.3	0.00e+00	0	43	0	90177536	59	5205
2026-01-07 00:47:37.01	3.25	12.33	-44.2	-47.3	16.2	0.00e+00	0	43	0	95420416	59	5286
2026-01-07 00:47:40.01	2.99	12.58	-44.1	-47.0	16.5	0.00e+00	0	43	0	101711872	59	5145
2026-01-07 00:47:43.02	2.71	12.84	-44.0	-47.0	16.5	0.00e+00	0	43	0	106954752	59	5134
2026-01-07 00:47:46.02	2.44	13.10	-44.0	-46.9	16.6	0.00e+00	0	43	0	112197632	59	5096
2026-01-07 00:47:49.03	2.16	13.36	-44.0	-47.0	16.5	0.00e+00	0	43	0	118489088	59	5140
2026-01-07 00:47:52.16	1.86	13.64	-43.9	-46.9	16.6	0.00e+00	0	43	0	123731968	59	5082
2026-01-07 00:47:55.02	1.58	13.89	-43.9	-46.8	16.7	0.00e+00	0	43	0	128974848	59	5026
2026-01-07 00:47:58.17	1.26	14.17	-43.9	-46.9	16.7	0.00e+00	0	43	0	135266304	59	5043
2026-01-07 00:48:01.68	0.91	14.49	-44.0	-47.0	16.6	0.00e+00	0	43	0	141557760	59	5119
2026-01-07 00:48:04.40	0.63	14.74	-43.8	-46.8	16.9	0.00e+00	0	43	0	146800640	59	4988
2026-01-07 00:48:07.73	0.28	15.04	-43.8	-46.8	16.8	0.00e+00	0	43	0	153092096	59	5003
2026-01-07 00:48:10.69	359.96	15.32	-43.9	-46.8	16.8	0.00e+00	0	43	0	158334976	59	5031
2026-01-07 00:48:13.70	359.63	15.60	-43.7	-46.7	17.0	0.00e+00	0	43	0	164626432	59	4946
2026-01-07 00:48:16.73	359.29	15.88	-43.7	-46.6	17.0	0.00e+00	0	43	0	169869312	59	4912
2026-01-07 00:48:20.02	358.91	16.19	-43.6	-46.6	17.0	0.00e+00	0	43	0	176160768	59	4925
2026-01-07 00:48:22.74	358.60	16.45	-43.6	-46.7	17.0	0.00e+00	0	43	0	181403648	59	4942
2026-01-07 00:48:26.15	358.19	16.78	-43.6	-46.8	16.9	0.00e+00	0	43	0	187695104	59	4984
2026-01-07 00:48:29.15	357.83	17.07	-43.6	-46.8	16.9	0.00e+00	0	43	0	192937984	58	5311
2026-01-07 00:48:32.14	357.46	17.36	-43.6	-46.7	16.9	0.00e+00	0	43	0	199229440	58	5220
2026-01-07 00:48:35.25	357.06	17.67	-43.7	-46.6	17.1	0.00e+00	0	43	0	204472320	58	5172
2026-01-07 00:48:38.28	356.67	17.97	-43.6	-46.5	17.2	0.00e+00	0	43	0	210763776	58	5104
2026-01-07 00:48:41.68	356.23	18.31	-43.6	-46.4	17.3	0.00e+00	0	43	0	217055232	58	5059
2026-01-07 00:48:44.40	355.86	18.58	-43.6	-46.5	17.3	0.00e+00	0	43	0	222298112	58	5116
2026-01-07 00:48:47.69	355.41	18.92	-43.6	-46.6	17.2	0.00e+00	0	43	0	228589568	58	5192
2026-01-07 00:48:50.45	355.02	19.20	-43.7	-46.7	17.0	0.00e+00	0	43	0	233832448	58	5278
2026-01-07 00:48:53.75	354.55	19.54	-43.9	-46.8	16.9	0.00e+00	0	43	0	239075328	58	5336
2026-01-07 00:48:56.70	354.12	19.85	-44.0	-46.9	16.9	0.00e+00	0	43	0	245366784	58	5356
2026-01-07 00:48:59.70	353.67	20.16	-44.1	-47.0	16.8	0.00e+00	0	43	0	250609664	58	5442
2026-01-07 00:49:02.70	353.21	20.47	-44.3	-47.1	16.6	0.00e+00	0	43	0	255852544	59	5207
2026-01-07 00:49:05.70	352.75	20.79	-44.3	-47.2	16.6	0.00e+00	0	43	0	262144000	59	5226
2026-01-07 00:49:08.80	352.25	21.12	-44.4	-47.3	16.5	0.00e+00	0	43	0	267386880	59	5288
2026-01-07 00:49:11.95	351.74	21.46	-44.3	-47.2	16.6	0.00e+00	0	43	0	273678336	59	5233
2026-01-07 00:49:14.81	351.27	21.77	-44.2	-47.2	16.7	0.00e+00	0	43	0	278921216	59	5228
2026-01-07 00:49:17.97	350.73	22.11	-43.9	-46.8	17.0	0.00e+00	0	43	0	285212672	59	4994
2026-01-07 00:49:20.84	350.23	22.42	-43.9	-46.6	17.2	0.00e+00	0	43	0	290455552	59	4918
2026-01-07 00:49:23.99	349.67	22.77	-43.8	-46.5	17.3	0.00e+00	0	43	0	295698432	59	4840
2026-01-07 00:49:26.86	349.15	23.08	-43.7	-46.6	17.2	0.00e+00	0	43	0	301989888	59	4919
2026-01-07 00:49:30.01	348.57	23.43	-43.6	-46.6	17.2	0.00e+00	0	43	0	307232768	59	4916
2026-01-07 00:49:32.87	348.03	23.75	-43.7	-46.7	17.2	0.00e+00	0	43	0	312475648	59	4948
2026-01-07 00:49:36.10	347.41	24.11	-43.8	-46.6	17.2	0.00e+00	0	43	0	318767104	59	4910
2026-01-07 00:49:39.02	346.83	24.43	-44.0	-46.8	17.1	0.00e+00	0	43	0	324009984	59	4999
2026-01-07 00:49:42.03	346.22	24.77	-43.9	-46.7	17.2	0.00e+00	0	43	0	330301440	59	4983
2026-01-07 00:49:45.03	345.60	25.10	-44.3	-47.4	16.5	0.00e+00	0	43	0	335544320	59	5392
2026-01-07 00:49:48.03	344.97	25.44	-44.7	-47.9	16.1	0.00e+00	0	43	0	340787200	60	5346
2026-01-07 00:49:51.04	344.32	25.78	-45.0	-48.2	15.8	0.00e+00	0	44	0	347078656	60	5532
2026-01-07 00:49:54.39	343.59	26.15	-44.8	-48.3	15.7	0.00e+00	0	43	0	353370112	60	5634
2026-01-07 00:49:57.11	342.97	26.46	-44.8	-48.3	15.6	0.00e+00	0	43	0	358612992	60	5646
2026-01-07 00:50:00.40	342.22	26.83	-44.6	-47.7	16.3	0.00e+00	0	43	0	364904448	60	5236
2026-01-07 00:50:03.23	341.55	27.15	-44.9	-48.0	15.9	0.00e+00	0	43	0	370147328	60	5451
2026-01-07 00:50:06.38	340.79	27.50	-44.9	-48.2	15.8	0.00e+00	0	43	0	375390208	60	5562
2026-01-07 00:50:09.23	340.09	27.82	-44.8	-48.2	15.8	0.00e+00	0	43	0	380633088	60	5538
2026-01-07 00:50:12.52	339.27	28.18	-45.0	-48.1	15.9	0.00e+00	0	43	0	386924544	60	5506
2026-01-07 00:50:15.25	338.57	28.48	-44.9	-48.0	16.0	0.00e+00	0	44	0	392167424	60	5429
2026-01-07 00:50:18.54	337.71	28.85	-44.9	-48.1	15.9	0.00e+00	0	43	0	398458880	60	5515
2026-01-07 00:50:21.26	336.98	29.14	-44.8	-48.0	16.0	0.00e+00	0	43	0	403701760	60	5422
2026-01-07 00:50:24.55	336.09	29.50	-44.7	-47.9	16.1	0.00e+00	0	43	0	409993216	60	5367
2026-01-07 00:50:27.27	335.33	29.79	-44.5	-47.9	16.1	0.00e+00	0	43	0	415236096	60	5362
2026-01-07 00:50:30.56	334.40	30.14	-44.7	-48.1	15.9	0.00e+00	0	43	0	421527552	60	5482
2026-01-07 00:50:33.28	333.61	30.42	-45.5	-48.9	15.1	0.00e+00	0	43	0	425721856	61	5693
2026-01-07 00:50:36.57	332.64	30.76	-46.0	-49.8	14.2	0.00e+00	0	43	0	432013312	62	5936
2026-01-07 00:50:39.35	331.80	31.05	-45.9	-50.0	14.0	1.50e-06	0	44	0	437256192	62	6100
2026-01-07 00:50:42.69	330.78	31.38	-45.9	-50.4	13.5	1.83e-05	0	43	0	443547648	62	6368
2026-01-07 00:50:45.41	329.92	31.65	-46.3	-50.7	13.3	1.67e-05	0	43	0	448790528	63	6262
2026-01-07 00:50:48.70	328.88	31.97	-46.7	-51.3	12.6	6.40e-05	0	43	0	455081984	64	6306
2026-01-07 00:50:51.42	328.00	32.22	-47.1	-51.8	12.0	1.71e-04	0	43	0	460324864	64	6691
2026-01-07 00:50:54.65	326.93	32.52	-47.2	-52.0	11.8	3.04e-04	0	43	0	466616320	65	6460
2026-01-07 00:50:57.64	325.93	32.79	-47.2	-52.5	11.3	1.07e-03	0	43	0	471859200	65	6872
2026-01-07 00:51:00.64	324.90	33.05	-46.2	-50.8	13.1	6.40e-05	0	43	0	477102080	64	5972
2026-01-07 00:51:03.65	323.86	33.30	-46.2	-50.3	13.6	4.50e-06	0	43	0	483393536	64	5645
2026-01-07 00:51:06.73	322.77	33.55	-46.2	-50.1	13.9	8.30e-06	0	43	0	488636416	64	5492
2026-01-07 00:51:10.27	321.51	33.82	-46.1	-49.9	14.0	7.00e-07	0	43	0	495976448	64	5380
2026-01-07 00:51:12.99	320.52	34.02	-45.7	-49.8	14.2	2.20e-06	0	43	0	500170752	63	5598
2026-01-07 00:51:16.28	319.31	34.25	-44.9	-48.6	15.4	0.00e+00	0	43	0	506462208	61	5477
2026-01-07 00:51:19.04	318.28	34.44	-44.7	-47.8	16.2	0.00e+00	0	43	0	511705088	61	5012
2026-01-07 00:51:22.64	316.92	34.67	-44.4	-47.3	16.6	0.00e+00	0	43	0	519045120	60	5021
2026-01-07 00:51:25.50	315.83	34.83	-44.5	-47.4	16.6	0.00e+00	0	43	0	524288000	60	5061
2026-01-07 00:51:28.65	314.61	35.00	-44.1	-46.8	17.2	0.00e+00	0	44	0	529530880	60	4729
2026-01-07 00:51:31.63	313.45	35.15	-43.8	-46.3	17.6	0.00e+00	0	44	0	535822336	59	4747
2026-01-07 00:51:35.20	312.04	35.32	-43.9	-46.6	17.4	0.00e+00	0	43	0	542113792	59	4880
2026-01-07 00:51:38.25	310.83	35.44	-43.2	-45.7	18.2	0.00e+00	0	43	0	548405248	58	4659
2026-01-07 00:51:41.25	309.62	35.55	-43.1	-45.6	18.2	0.00e+00	0	43	0	553648128	58	4646
2026-01-07 00:51:44.25	308.42	35.64	-43.0	-45.4	18.4	0.00e+00	0	43	0	558891008	58	4519
2026-01-07 00:51:47.33	307.17	35.72	-43.0	-45.4	18.4	0.00e+00	0	43	0	565182464	57	4788
2026-01-07 00:51:50.43	305.91	35.79	-42.4	-44.7	19.0	0.00e+00	0	43	0	570425344	56	4679
2026-01-07 00:51:53.32	304.73	35.83	-42.9	-45.4	18.5	0.00e+00	0	43	0	576716800	56	5062
2026-01-07 00:51:56.46	303.44	35.87	-43.4	-46.0	17.9	0.00e+00	0	43	0	581959680	57	5125
2026-01-07 00:51:59.32	302.27	35.89	-43.7	-46.3	17.6	0.00e+00	0	43	0	587202560	57	5322
2026-01-07 00:52:02.46	300.98	35.89	-43.9	-46.7	17.2	0.00e+00	0	43	0	593494016	58	5252
2026-01-07 00:52:05.32	299.80	35.88	-44.0	-46.8	17.1	0.00e+00	0	44	0	598736896	58	5313
2026-01-07 00:52:08.61	298.45	35.85	-43.8	-46.5	17.4	0.00e+00	0	43	0	605028352	58	5110
2026-01-07 00:52:11.33	297.34	35.81	-43.5	-46.1	17.8	0.00e+00	0	43	0	610271232	58	4885
2026-01-07 00:52:14.64	295.99	35.75	-44.3	-47.2	16.7	0.00e+00	0	43	0	616562688	59	5259
2026-01-07 00:52:17.60	294.79	35.68	-44.4	-47.4	16.6	0.00e+00	0	43	0	621805568	59	5341
2026-01-07 00:52:20.71	293.53	35.59	-44.5	-47.4	16.4	0.00e+00	0	43	0	628097024	59	5358
2026-01-07 00:52:24.41	292.04	35.47	-44.9	-48.0	16.0	7.00e-07	0	44	0	634388480	60	5416
2026-01-07 00:52:27.29	290.89	35.35	-45.2	-48.4	15.5	0.00e+00	0	43	0	639631360	61	5388
2026-01-07 00:52:31.05	289.41	35.19	-45.5	-48.8	15.2	0.00e+00	0	43	0	646971392	61	5613
2026-01-07 00:52:33.98	288.26	35.04	-45.3	-48.6	15.4	0.00e+00	0	43	0	652214272	61	5467
2026-01-07 00:52:37.83	286.77	34.83	-45.0	-48.1	15.9	0.00e+00	0	43	0	659554304	61	5166
2026-01-07 00:52:40.73	285.66	34.66	-45.4	-48.8	15.2	0.00e+00	0	43	0	664797184	61	5608
2026-01-07 00:52:44.17	284.35	34.45	-45.4	-48.7	15.2	0.00e+00	0	43	0	671088640	62	5267
2026-01-07 00:52:46.89	283.34	34.26	-45.0	-48.1	15.8	0.00e+00	0	43	0	676331520	62	4917
2026-01-07 00:52:50.25	282.10	34.03	-44.5	-47.4	16.5	0.00e+00	0	43	0	682622976	60	5053
2026-01-07 00:52:52.97	281.11	33.83	-44.9	-47.9	16.0	0.00e+00	0	43	0	687865856	60	5385
2026-01-07 00:52:56.27	279.92	33.57	-44.9	-48.0	15.9	0.00e+00	0	43	0	694157312	60	5425
2026-01-07 00:52:58.99	278.96	33.35	-44.5	-47.5	16.5	0.00e+00	0	43	0	699400192	60	5118
2026-01-07 00:53:02.28	277.81	33.08	-45.0	-48.0	15.9	0.00e+00	0	43	0	705691648	60	5450
2026-01-07 00:53:04.99	276.88	32.84	-45.4	-48.7	15.3	0.00e+00	0	43	0	710934528	61	5556
2026-01-07 00:53:08.29	275.77	32.55	-45.4	-48.7	15.3	0.00e+00	0	44	0	717225984	61	5567
2026-01-07 00:53:11.01	274.87	32.30	-45.1	-48.3	15.6	0.00e+00	0	43	0	721420288	61	5297
2026-01-07 00:53:14.30	273.79	31.99	-45.4	-48.7	15.3	0.00e+00	0	44	0	727711744	61	5568
2026-01-07 00:53:17.02	272.92	31.73	-45.8	-49.4	14.6	1.50e-06	0	43	0	732954624	62	5709
2026-01-07 00:53:20.31	271.88	31.40	-45.8	-49.2	14.7	0.00e+00	0	44	0	739246080	62	5587
2026-01-07 00:53:23.03	271.04	31.13	-45.5	-48.8	15.2	0.00e+00	0	43	0	744488960	62	5287
2026-01-07 00:53:26.31	270.05	30.80	-45.5	-48.8	15.1	0.00e+00	0	43	0	750780416	62	5318
2026-01-07 00:53:29.03	269.24	30.52	-45.4	-48.7	15.2	0.00e+00	0	43	0	756023296	62	5276
2026-01-07 00:53:32.55	268.21	30.15	-45.2	-48.4	15.6	0.00e+00	0	43	0	762314752	62	5060
2026-01-07 00:53:35.27	267.43	29.86	-45.3	-48.5	15.4	0.00e+00	0	43	0	767557632	62	5145
2026-01-07 00:53:38.58	266.51	29.50	-45.3	-48.6	15.3	0.00e+00	0	43	0	773849088	62	5192
2026-01-07 00:53:41.30	265.76	29.21	-44.9	-48.1	15.8	0.00e+00	0	43	0	779091968	61	5162
2026-01-07 00:53:44.57	264.88	28.85	-44.9	-48.0	15.9	0.00e+00	0	43	0	784334848	61	5118
2026-01-07 00:53:47.56	264.09	28.52	-44.8	-48.0	15.9	0.00e+00	0	44	0	790626304	61	5140
2026-01-07 00:53:50.71	263.28	28.17	-44.4	-47.4	16.5	0.00e+00	0	44	0	795869184	60	5076
2026-01-07 00:53:53.57	262.56	27.85	-43.9	-46.7	17.2	0.00e+00	0	43	0	802160640	59	4952
2026-01-07 00:53:56.76	261.77	27.50	-44.0	-46.8	17.0	0.00e+00	0	43	0	807403520	59	5020
2026-01-07 00:53:59.68	261.07	27.17	-43.8	-46.4	17.4	0.00e+00	0	44	0	812646400	59	4811
2026-01-07 00:54:03.07	260.27	26.79	-43.0	-45.5	18.3	0.00e+00	0	44	0	819986432	58	4576
2026-01-07 00:54:05.79	259.64	26.48	-43.1	-45.5	18.3	0.00e+00	0	43	0	824180736	57	4855
2026-01-07 00:54:09.12	258.88	26.11	-42.7	-45.1	18.7	0.00e+00	0	43	0	830472192	57	4612
2026-01-07 00:54:11.94	258.26	25.79	-42.2	-44.5	19.3	0.00e+00	0	43	0	835715072	56	4554
2026-01-07 00:54:15.09	257.58	25.43	-42.1	-44.4	19.4	0.00e+00	0	44	0	842006528	56	4519
2026-01-07 00:54:17.95	256.97	25.11	-42.3	-44.6	19.2	0.00e+00	0	44	0	847249408	56	4611
2026-01-07 00:54:21.10	256.31	24.75	-42.4	-44.7	19.0	0.00e+00	0	43	0	853540864	56	4674
2026-01-07 00:54:23.96	255.73	24.43	-42.1	-44.4	19.3	0.00e+00	0	44	0	858783744	56	4507
2026-01-07 00:54:27.10	255.11	24.08	-41.9	-44.1	19.4	0.00e+00	0	43	0	865075200	55	4625
2026-01-07 00:54:30.35	254.48	23.72	-42.2	-44.5	19.0	0.00e+00	0	43	0	870318080	55	4851
2026-01-07 00:54:33.21	253.93	23.40	-42.3	-44.7	18.9	0.00e+00	0	43	0	875560960	55	4959
2026-01-07 00:54:36.36	253.35	23.05	-42.3	-44.7	18.9	0.00e+00	0	44	0	881852416	55	4939
2026-01-07 00:54:39.22	252.83	22.74	-42.5	-45.0	18.6	0.00e+00	0	43	0	887095296	55	5116
2026-01-07 00:54:42.50	252.24	22.38	-43.1	-45.6	18.2	0.00e+00	0	43	0	893386752	56	5170
2026-01-07 00:54:45.22	251.77	22.08	-42.7	-45.1	18.6	0.00e+00	0	43	0	898629632	56	4901
2026-01-07 00:54:48.51	251.21	21.72	-42.6	-45.0	18.7	0.00e+00	0	43	0	904921088	56	4853
2026-01-07 00:54:51.27	250.74	21.42	-42.8	-45.3	18.4	0.00e+00	0	44	0	910163968	56	5003
2026-01-07 00:54:54.60	250.20	21.06	-43.0	-45.5	18.3	0.00e+00	0	43	0	916455424	56	5110
2026-01-07 00:54:57.83	249.68	20.72	-42.8	-45.3	18.4	0.00e+00	0	43	0	921698304	56	4992
2026-01-07 00:55:00.83	249.21	20.40	-43.0	-45.6	18.1	0.00e+00	0	43	0	927989760	56	5203
2026-01-07 00:55:03.84	248.75	20.08	-43.2	-45.8	17.9	0.00e+00	0	43	0	933232640	56	5325
2026-01-07 00:55:06.84	248.30	19.77	-43.2	-45.9	17.7	0.00e+00	0	43	0	939524096	57	5080
2026-01-07 00:55:09.82	247.87	19.46	-43.3	-46.0	17.7	0.00e+00	0	43	0	944766976	57	5146
2026-01-07 00:55:12.97	247.41	19.13	-43.4	-46.1	17.5	0.00e+00	0	43	0	951058432	57	5210
2026-01-07 00:55:15.83	247.01	18.84	-43.8	-46.5	17.2	0.00e+00	0	43	0	956301312	58	5135
2026-01-07 00:55:18.98	246.57	18.52	-43.9	-46.8	16.9	0.00e+00	0	43	0	961544192	58	5282
2026-01-07 00:55:21.85	246.19	18.23	-43.5	-46.3	17.3	0.00e+00	0	43	0	966787072	58	5031
2026-01-07 00:55:25.00	245.77	17.91	-43.5	-46.4	17.3	0.00e+00	0	43	0	973078528	58	5048
2026-01-07 00:55:27.86	245.40	17.63	-43.8	-46.6	17.0	0.00e+00	0	43	0	978321408	58	5199
2026-01-07 00:55:31.01	245.00	17.31	-44.2	-47.1	16.5	0.00e+00	0	43	0	984612864	59	5182
2026-01-07 00:55:33.88	244.64	17.03	-44.4	-47.3	16.3	0.00e+00	0	43	0	989855744	59	5338
2026-01-07 00:55:37.09	244.24	16.72	-44.2	-47.0	16.6	0.00e+00	0	43	0	996147200	59	5154
2026-01-07 00:55:39.95	243.90	16.44	-44.3	-47.2	16.4	0.00e+00	0	43	0	1001390080	59	5262
2026-01-07 00:55:43.25	243.51	16.13	-44.2	-47.0	16.6	0.00e+00	0	44	0	1007681536	59	5138
2026-01-07 00:55:46.21	243.17	15.85	-44.4	-47.5	16.2	0.00e+00	0	43	0	1012924416	59	5411
2026-01-07 00:55:49.75	242.77	15.51	-44.2	-47.3	16.3	0.00e+00	0	44	0	1019215872	59	5283
2026-01-07 00:55:52.46	242.47	15.26	-44.1	-47.0	16.5	0.00e+00	0	43	0	1024458752	59	5152
2026-01-07 00:55:55.76	242.12	14.95	-44.0	-46.9	16.7	0.00e+00	0	43	0	1030750208	59	5065
2026-01-07 00:55:58.65	241.81	14.69	-44.2	-47.0	16.5	0.00e+00	0	43	0	1035993088	59	5156
2026-01-07 00:56:02.02	241.46	14.38	-44.4	-47.4	16.2	0.00e+00	0	44	0	1042284544	59	5350
2026-01-07 00:56:04.75	241.18	14.13	-44.6	-47.7	15.8	0.00e+00	0	43	0	1047527424	59	5568
2026-01-07 00:56:08.05	240.85	13.84	-44.4	-47.5	16.1	0.00e+00	0	43	0	1053818880	59	5415
2026-01-07 00:56:11.14	240.54	13.56	-44.3	-47.4	16.1	0.00e+00	0	43	0	1060110336	59	5374
2026-01-07 00:56:14.46	240.22	13.27	-44.4	-47.4	16.1	0.00e+00	0	43	0	1066401792	59	5387
2026-01-07 00:56:17.27	239.95	13.03	-44.5	-47.5	15.9	0.00e+00	0	44	0	1071644672	59	5462
2026-01-07 00:56:20.42	239.66	12.75	-44.5	-47.5	16.0	0.00e+00	0	43	0	1076887552	59	5417
2026-01-07 00:56:23.29	239.40	12.51	-44.4	-47.4	16.0	0.00e+00	0	44	0	1082130432	59	5382
2026-01-07 00:56:26.43	239.12	12.24	-44.4	-47.5	16.0	0.00e+00	0	43	0	1088421888	59	5411
2026-01-07 00:56:29.29	238.86	11.99	-44.5	-47.5	15.9	0.00e+00	0	44	0	1093664768	59	5464
2026-01-07 00:56:32.44	238.59	11.73	-44.8	-48.0	15.5	0.00e+00	0	43	0	1099956224	60	5432
2026-01-07 00:56:35.30	238.35	11.49	-45.0	-48.4	15.0	0.00e+00	0	44	0	1105199104	60	5688
2026-01-07 00:56:38.48	238.08	11.23	-45.1	-48.5	15.0	0.00e+00	0	43	0	1110441984	60	5736
2026-01-07 00:56:41.34	237.84	10.99	-45.1	-48.6	14.8	0.00e+00	0	44	0	1116733440	61	5504
2026-01-07 00:56:44.49	237.59	10.74	-45.1	-48.5	14.8	0.00e+00	0	43	0	1121976320	61	5458
2026-01-07 00:56:47.35	237.36	10.51	-44.9	-48.3	15.1	0.00e+00	0	43	0	1127219200	61	5317
2026-01-07 00:56:50.50	237.12	10.26	-44.9	-48.4	15.0	0.00e+00	0	44	0	1133510656	61	5343
2026-01-07 00:56:53.37	236.90	10.03	-44.9	-48.3	15.0	0.00e+00	0	43	0	1138753536	61	5340
2026-01-07 00:56:56.52	236.66	9.78	-45.2	-48.8	14.5	0.00e+00	0	43	0	1145044992	61	5637
2026-01-07 00:56:59.38	236.44	9.56	-45.2	-48.8	14.5	0.00e+00	0	44	0	1150287872	61	5647
2026-01-07 00:57:02.54	236.21	9.31	-45.4	-49.2	14.1	2.20e-06	0	43	0	1155530752	61	5886
2026-01-07 00:57:05.40	236.01	9.09	-45.3	-49.0	14.3	0.00e+00	0	43	0	1161822208	61	5767
2026-01-07 00:57:08.56	235.78	8.85	-49.6	-64.9	3.8	1.49e+00	0	43	104	1163919360	69	22651
2026-01-07 00:57:11.49	235.58	8.63	-49.9	-65.2	3.8	1.49e+00	0	44	104	1163919360	70	22058
2026-01-07 00:57:14.71	235.36	8.38	-50.2	-65.3	3.8	1.49e+00	0	43	104	1163919360	71	21237
2026-01-07 00:57:17.58	235.17	8.17	-50.1	-65.3	3.8	1.49e+00	0	44	104	1163919360	71	21251
2026-01-07 00:57:20.74	234.96	7.93	-50.0	-65.4	3.8	1.49e+00	0	43	104	1163919360	71	21281
2026-01-07 00:57:23.61	234.77	7.72	-50.2	-65.4	3.8	1.49e+00	0	43	104	1163919360	71	21302
2026-01-07 00:57:26.76	234.57	7.49	-49.9	-65.3	3.8	1.49e+00	0	43	104	1163919360	71	21219
2026-01-07 00:57:29.63	234.39	7.28	-49.8	-65.3	3.8	1.49e+00	0	43	104	1163919360	71	21163
2026-01-07 00:57:32.79	234.19	7.06	-49.8	-65.3	3.8	1.49e+00	0	43	104	1163919360	71	21076
2026-01-07 00:57:35.66	234.01	6.85	-49.8	-65.3	3.8	1.49e+00	0	44	104	1163919360	71	21077
2026-01-07 00:57:38.81	233.82	6.63	-49.8	-65.3	3.8	1.49e+00	0	44	104	1163919360	71	21078
2026-01-07 00:57:41.68	233.65	6.42	-49.8	-65.3	3.8	1.49e+00	0	44	104	1163919360	71	21132
2026-01-07 00:57:44.84	233.47	6.20	-49.8	-65.3	3.8	1.49e+00	0	44	104	1163919360	71	21110
2026-01-07 00:57:47.71	233.30	6.00	-49.7	-65.3	3.8	1.49e+00	0	44	104	1163919360	71	21054
2026-01-07 00:57:50.86	233.12	5.78	-49.7	-65.3	3.8	1.49e+00	0	43	104	1163919360	71	21058
2026-01-07 00:57:53.73	232.96	5.59	-49.7	-65.3	3.8	1.49e+00	0	43	104	1163919360	71	21127
2026-01-07 00:57:56.89	232.79	5.37	-49.7	-65.3	3.8	1.49e+00	0	43	104	1163919360	71	21049
2026-01-07 00:57:59.76	232.63	5.18	-49.7	-65.3	3.8	1.49e+00	0	44	104	1163919360	71	21104
2026-01-07 00:58:02.92	232.46	4.97	-49.8	-65.3	3.8	1.49e+00	0	44	104	1163919360	71	21031

#Closed at: 2026-01-07 00:58:03
#Recorded file [1163 MB]: D:/Data/31040_260107_034600.dat