passes_logs/2026/01/07/T1/T1__20260107_094604_NOAA_21_JPSS-2_rec.log

#Pass ID: 20260107_094604_NOAA 21 (JPSS-2)
#Satellite: NOAA 21 (JPSS-2)
#Configuration: NOAA 21
#almurnet v.1.7.20251203
#Start time: 2026-01-07 09:46:06

#Version: 2.0.20230620
#Station: T1
#Location: 37.570604 lon 55.790049 lat
#TLE: 1 54234U 22150A   26005.56767909  .00000152  00000+0  92756-4 0  9990
#TLE: 2 54234  98.7490 306.5820 0001036 340.2747  19.8389 14.19532370163472

#Time	Az	El	Level	Level2	SNR	BER	BlckErr	Temp	State	Recorded	gain1	gain2
2026-01-07 09:46:06.50	155.32	5.13	-49.9	-62.9	3.8	1.49e+00	0	36	0	0	71	16017
2026-01-07 09:46:09.51	155.30	5.35	-49.9	-62.7	3.8	1.49e+00	0	36	104	0	71	15693
2026-01-07 09:46:12.53	155.27	5.57	-49.9	-62.9	3.8	1.49e+00	0	36	104	0	71	16107
2026-01-07 09:46:15.54	155.25	5.79	-49.9	-62.8	3.8	1.49e+00	0	37	104	0	71	15932
2026-01-07 09:46:18.55	155.23	6.01	-49.9	-62.2	3.8	1.49e+00	0	37	104	0	71	14866
2026-01-07 09:46:21.56	155.21	6.24	-49.8	-61.6	3.8	1.49e+00	0	37	104	0	71	13829
2026-01-07 09:46:24.58	155.18	6.47	-49.9	-61.9	3.8	1.49e+00	0	37	104	0	71	14220
2026-01-07 09:46:27.59	155.16	6.70	-49.9	-62.5	3.8	1.49e+00	0	37	104	0	71	15325
2026-01-07 09:46:30.60	155.13	6.93	-49.9	-62.6	3.8	1.49e+00	0	37	104	0	71	15475
2026-01-07 09:46:33.62	155.11	7.16	-49.8	-61.4	3.8	1.49e+00	0	37	104	0	71	13424
2026-01-07 09:46:36.63	155.08	7.40	-49.5	-59.1	4.0	1.20e+00	0	38	104	0	71	10314
2026-01-07 09:46:39.64	155.06	7.64	-48.8	-55.6	6.3	2.93e-01	0	37	0	0	69	7734
2026-01-07 09:46:42.66	155.03	7.88	-47.8	-52.8	8.8	3.33e-02	0	38	0	0	67	6323
2026-01-07 09:46:45.67	155.00	8.12	-47.1	-51.3	10.3	5.92e-03	0	38	0	0	66	5656
2026-01-07 09:46:48.68	154.97	8.37	-47.0	-51.2	10.4	4.24e-03	0	38	0	0	65	5897
2026-01-07 09:46:51.67	154.94	8.61	-47.5	-52.4	9.2	1.55e-02	0	38	0	0	65	6727
2026-01-07 09:46:54.69	154.91	8.86	-48.6	-55.2	6.5	1.98e-01	0	38	0	0	67	8332
2026-01-07 09:46:57.70	154.88	9.11	-49.3	-58.7	4.0	1.11e+00	0	38	104	0	69	11104
2026-01-07 09:47:00.71	154.85	9.37	-49.6	-59.5	3.9	1.49e+00	0	38	104	0	70	11437
2026-01-07 09:47:03.71	154.82	9.63	-45.7	-48.9	12.9	9.99e-05	0	38	0	0	63	5099
2026-01-07 09:47:06.72	154.79	9.89	-44.8	-47.6	14.3	7.00e-07	0	38	0	0	61	4887
2026-01-07 09:47:09.72	154.76	10.15	-43.4	-45.7	16.2	0.00e+00	0	38	0	0	58	4705
2026-01-07 09:47:12.73	154.72	10.41	-42.5	-44.5	17.4	0.00e+00	0	38	0	0	56	4586
2026-01-07 09:47:15.74	154.69	10.68	-42.3	-44.3	17.6	0.00e+00	0	38	0	0	56	4468
2026-01-07 09:47:18.75	154.65	10.95	-42.1	-44.1	17.8	0.00e+00	0	38	0	0	56	4368
2026-01-07 09:47:21.76	154.62	11.23	-41.7	-43.7	18.0	0.00e+00	0	38	0	0	55	4418
2026-01-07 09:47:24.77	154.58	11.50	-41.8	-43.9	17.8	0.00e+00	0	39	0	0	55	4494
2026-01-07 09:47:27.77	154.54	11.78	-41.5	-43.5	18.2	0.00e+00	0	38	0	0	55	4308
2026-01-07 09:47:30.78	154.51	12.07	-41.5	-43.5	18.2	0.00e+00	0	38	0	0	54	4547
2026-01-07 09:47:33.79	154.47	12.36	-41.4	-43.4	18.3	0.00e+00	0	38	0	0	54	4503
2026-01-07 09:47:36.80	154.43	12.65	-41.4	-43.3	18.4	0.00e+00	0	38	0	0	54	4470
2026-01-07 09:47:39.81	154.38	12.94	-41.3	-43.2	18.5	0.00e+00	0	38	0	0	54	4431
2026-01-07 09:47:42.82	154.34	13.24	-41.3	-43.3	18.4	0.00e+00	0	38	0	0	54	4442
2026-01-07 09:47:45.83	154.30	13.54	-41.3	-43.1	18.5	0.00e+00	0	38	0	0	54	4390
2026-01-07 09:47:48.84	154.25	13.85	-41.2	-43.0	18.7	0.00e+00	0	38	0	0	54	4339
2026-01-07 09:47:51.85	154.21	14.16	-41.3	-43.2	18.5	0.00e+00	0	38	0	0	54	4417
2026-01-07 09:47:54.86	154.16	14.47	-41.1	-43.0	18.7	0.00e+00	0	38	0	0	54	4322
2026-01-07 09:47:57.86	154.11	14.78	-41.2	-43.1	18.7	0.00e+00	0	38	0	0	54	4343
2026-01-07 09:48:00.87	154.07	15.11	-41.3	-43.2	18.5	0.00e+00	0	38	0	0	54	4409
2026-01-07 09:48:03.88	154.01	15.43	-41.4	-43.3	18.5	0.00e+00	0	39	0	0	54	4453
2026-01-07 09:48:06.89	153.96	15.76	-41.2	-43.1	18.7	0.00e+00	0	38	0	0	54	4352
2026-01-07 09:48:09.90	153.91	16.10	-41.4	-43.3	18.5	0.00e+00	0	39	0	0	54	4454
2026-01-07 09:48:12.91	153.86	16.44	-41.4	-43.4	18.4	0.00e+00	0	39	0	0	54	4495
2026-01-07 09:48:15.91	153.80	16.78	-41.3	-43.2	18.6	0.00e+00	0	39	0	0	54	4425
2026-01-07 09:48:18.92	153.74	17.13	-41.4	-43.3	18.5	0.00e+00	0	39	0	0	54	4491
2026-01-07 09:48:21.94	153.68	17.48	-41.5	-43.4	18.4	0.00e+00	0	38	0	0	54	4516
2026-01-07 09:48:24.95	153.62	17.84	-41.5	-43.5	18.4	0.00e+00	0	38	0	0	54	4549
2026-01-07 09:48:27.95	153.56	18.20	-41.6	-43.5	18.3	0.00e+00	0	39	0	0	54	4575
2026-01-07 09:48:30.96	153.50	18.57	-41.6	-43.5	18.3	0.00e+00	0	38	0	0	54	4593
2026-01-07 09:48:33.97	153.43	18.95	-41.6	-43.5	18.4	0.00e+00	0	39	0	0	54	4575
2026-01-07 09:48:36.97	153.37	19.33	-41.5	-43.4	18.4	0.00e+00	0	39	0	0	54	4530
2026-01-07 09:48:39.98	153.30	19.72	-41.4	-43.3	18.5	0.00e+00	0	39	0	0	54	4475
2026-01-07 09:48:42.99	153.23	20.11	-41.3	-43.2	18.7	0.00e+00	0	39	0	0	54	4414
2026-01-07 09:48:46.00	153.15	20.51	-41.1	-43.0	18.9	0.00e+00	0	39	0	0	54	4305
2026-01-07 09:48:49.01	153.08	20.91	-40.8	-42.6	19.2	0.00e+00	0	39	0	0	53	4360
2026-01-07 09:48:52.01	153.00	21.32	-40.7	-42.4	19.4	0.00e+00	0	39	0	0	53	4286
2026-01-07 09:48:55.02	152.92	21.74	-40.4	-42.2	19.6	0.00e+00	0	39	0	0	52	4399
2026-01-07 09:48:58.04	152.84	22.17	-40.1	-41.8	20.0	0.00e+00	0	39	0	0	52	4216
2026-01-07 09:49:01.05	152.75	22.60	-40.0	-41.7	20.1	0.00e+00	0	39	0	0	52	4153
2026-01-07 09:49:04.05	152.66	23.04	-40.0	-41.7	20.2	0.00e+00	0	39	0	0	51	4412
2026-01-07 09:49:07.07	152.57	23.49	-39.8	-41.5	20.3	0.00e+00	0	39	0	0	51	4309
2026-01-07 09:49:10.07	152.48	23.95	-39.8	-41.5	20.2	0.00e+00	0	39	0	0	51	4328
2026-01-07 09:49:13.08	152.38	24.41	-39.9	-41.6	20.2	0.00e+00	0	39	0	0	51	4369
2026-01-07 09:49:16.09	152.28	24.88	-40.1	-41.7	20.2	0.00e+00	0	38	0	0	51	4434
2026-01-07 09:49:19.09	152.18	25.36	-40.4	-42.1	19.9	0.00e+00	0	39	0	0	51	4612
2026-01-07 09:49:22.10	152.08	25.85	-40.5	-42.3	19.8	0.00e+00	0	39	0	0	51	4712
2026-01-07 09:49:25.11	151.97	26.35	-40.7	-42.5	19.5	0.00e+00	0	39	0	0	52	4575
2026-01-07 09:49:28.12	151.85	26.86	-40.9	-42.8	19.2	0.00e+00	0	39	0	0	52	4711
2026-01-07 09:49:31.13	151.73	27.37	-41.0	-42.9	19.1	0.00e+00	0	39	0	0	52	4767
2026-01-07 09:49:34.14	151.61	27.90	-41.2	-43.1	18.9	0.00e+00	0	39	0	0	53	4630
2026-01-07 09:49:37.15	151.49	28.44	-41.5	-43.3	18.6	0.00e+00	0	38	0	0	53	4757
2026-01-07 09:49:40.16	151.36	28.98	-41.4	-43.3	18.6	0.00e+00	0	39	0	0	53	4729
2026-01-07 09:49:43.16	151.22	29.54	-41.4	-43.2	18.7	0.00e+00	0	39	0	0	53	4692
2026-01-07 09:49:46.17	151.08	30.11	-40.8	-42.6	19.3	0.00e+00	0	39	0	0	53	4380
2026-01-07 09:49:49.18	150.93	30.69	-40.6	-42.4	19.5	0.00e+00	0	39	0	0	53	4271
2026-01-07 09:49:52.18	150.78	31.28	-40.5	-42.2	19.7	0.00e+00	0	39	0	0	53	4176
2026-01-07 09:49:55.19	150.62	31.88	-40.7	-42.4	19.5	0.00e+00	0	39	0	0	53	4284
2026-01-07 09:49:58.20	150.46	32.50	-40.7	-42.5	19.4	0.00e+00	0	39	0	0	53	4307
2026-01-07 09:50:01.21	150.29	33.13	-41.0	-42.8	19.2	0.00e+00	0	39	0	0	53	4478
2026-01-07 09:50:04.22	150.11	33.77	-41.2	-43.0	19.0	0.00e+00	0	39	0	0	53	4577
2026-01-07 09:50:07.23	149.92	34.42	-41.5	-43.3	18.7	0.00e+00	0	39	0	0	53	4744
2026-01-07 09:50:10.24	149.73	35.09	-41.9	-43.9	18.2	0.00e+00	0	39	0	0	54	4780
2026-01-07 09:50:13.25	149.53	35.77	-42.4	-44.4	17.7	0.00e+00	0	39	0	0	55	4783
2026-01-07 09:50:16.25	149.32	36.47	-42.6	-44.7	17.4	0.00e+00	0	39	0	0	55	4944
2026-01-07 09:50:19.26	149.10	37.18	-42.9	-45.0	17.3	0.00e+00	0	39	0	0	56	4834
2026-01-07 09:50:22.27	148.86	37.91	-42.8	-44.8	17.5	0.00e+00	0	39	0	0	56	4734
2026-01-07 09:50:25.28	148.62	38.65	-42.6	-44.5	17.7	0.00e+00	0	39	0	0	56	4575
2026-01-07 09:50:28.29	148.37	39.41	-42.5	-44.4	17.8	0.00e+00	0	39	0	0	56	4543
2026-01-07 09:50:31.30	148.10	40.18	-42.6	-44.7	17.6	0.00e+00	0	39	0	0	56	4654
2026-01-07 09:50:34.30	147.82	40.97	-42.8	-44.8	17.5	0.00e+00	0	39	0	0	56	4709
2026-01-07 09:50:37.31	147.53	41.78	-43.2	-45.3	17.0	0.00e+00	0	39	0	0	56	4988
2026-01-07 09:50:40.32	147.21	42.60	-43.4	-45.5	16.7	0.00e+00	0	39	0	0	57	4855
2026-01-07 09:50:43.33	146.89	43.44	-44.1	-46.4	15.9	0.00e+00	0	39	0	0	58	5048
2026-01-07 09:50:46.34	146.54	44.30	-44.0	-46.2	16.2	0.00e+00	0	39	0	0	58	4982
2026-01-07 09:50:49.35	146.17	45.18	-43.6	-45.8	16.6	0.00e+00	0	39	0	0	58	4729
2026-01-07 09:50:52.36	145.79	46.08	-43.7	-45.9	16.5	0.00e+00	0	39	0	0	58	4781
2026-01-07 09:50:55.37	145.37	46.99	-43.0	-45.0	17.2	0.00e+00	0	39	0	0	57	4568
2026-01-07 09:50:58.38	144.94	47.92	-42.8	-44.8	17.6	0.00e+00	0	39	0	0	57	4452
2026-01-07 09:51:01.38	144.48	48.87	-42.7	-44.7	17.6	0.00e+00	0	39	0	0	57	4411
2026-01-07 09:51:04.40	143.98	49.84	-42.4	-44.4	17.9	0.00e+00	0	39	0	0	56	4510
2026-01-07 09:51:07.40	143.45	50.83	-42.2	-44.1	18.1	0.00e+00	0	39	0	0	56	4365
2026-01-07 09:51:10.41	142.89	51.84	-42.7	-44.7	17.7	0.00e+00	0	39	0	0	56	4653
2026-01-07 09:51:13.42	142.28	52.86	-42.4	-44.3	17.9	0.00e+00	0	39	0	0	56	4473
2026-01-07 09:51:16.43	141.63	53.90	-41.5	-43.3	18.6	0.00e+00	0	39	0	0	55	4228
2026-01-07 09:51:19.44	140.93	54.96	-41.4	-43.3	18.7	0.00e+00	0	39	0	0	54	4445
2026-01-07 09:51:22.45	140.17	56.04	-41.0	-42.8	19.2	0.00e+00	0	39	0	0	54	4207
2026-01-07 09:51:25.46	139.36	57.14	-40.5	-42.2	19.7	0.00e+00	0	39	0	0	52	4404
2026-01-07 09:51:28.47	138.47	58.24	-40.4	-42.1	19.7	0.00e+00	0	39	0	0	52	4374
2026-01-07 09:51:31.47	137.51	59.36	-40.4	-42.1	19.8	0.00e+00	0	39	0	0	52	4369
2026-01-07 09:51:34.48	136.46	60.50	-40.4	-42.1	19.8	0.00e+00	0	39	0	0	52	4358
2026-01-07 09:51:37.49	135.30	61.64	-40.3	-42.0	19.8	0.00e+00	0	39	0	0	52	4316
2026-01-07 09:51:40.50	134.04	62.80	-39.6	-41.2	20.7	0.00e+00	0	39	0	0	51	4175
2026-01-07 09:51:43.51	132.64	63.96	-39.6	-41.3	20.5	0.00e+00	0	39	0	0	50	4465
2026-01-07 09:51:46.52	131.10	65.12	-39.8	-41.5	20.4	0.00e+00	0	39	0	0	50	4572
2026-01-07 09:51:49.53	129.39	66.28	-40.0	-41.7	20.2	0.00e+00	0	39	0	0	50	4688
2026-01-07 09:51:52.54	127.48	67.44	-40.1	-41.8	20.2	0.00e+00	0	39	0	0	50	4731
2026-01-07 09:51:55.55	125.35	68.59	-39.3	-40.9	21.0	0.00e+00	0	39	0	0	50	4282
2026-01-07 09:51:58.56	122.95	69.72	-39.4	-41.0	20.8	0.00e+00	0	39	0	0	50	4319
2026-01-07 09:52:01.57	120.26	70.82	-39.3	-40.9	20.9	0.00e+00	0	39	0	0	50	4243
2026-01-07 09:52:04.58	117.21	71.90	-39.8	-41.5	20.4	0.00e+00	0	39	0	0	50	4572
2026-01-07 09:52:07.58	113.78	72.92	-39.4	-41.0	20.8	0.00e+00	0	39	0	0	50	4334
2026-01-07 09:52:10.59	109.89	73.89	-38.9	-40.5	21.2	0.00e+00	0	39	0	0	49	4312
2026-01-07 09:52:13.60	105.49	74.79	-39.3	-40.9	20.9	0.00e+00	0	39	0	0	49	4541
2026-01-07 09:52:16.61	100.56	75.59	-39.5	-41.2	20.7	0.00e+00	0	39	0	0	49	4665
2026-01-07 09:52:19.62	95.06	76.28	-39.3	-40.9	21.0	0.00e+00	0	39	0	0	49	4521
2026-01-07 09:52:22.62	89.04	76.84	-39.7	-41.3	20.6	0.00e+00	0	39	0	0	50	4486
2026-01-07 09:52:25.63	82.52	77.25	-39.5	-41.1	20.7	0.00e+00	0	39	0	0	50	4374
2026-01-07 09:52:28.65	75.64	77.49	-39.8	-41.5	20.1	0.00e+00	0	39	0	0	50	4583
2026-01-07 09:52:31.66	68.61	77.54	-40.1	-41.7	20.1	0.00e+00	0	39	0	0	51	4441
2026-01-07 09:52:34.66	61.65	77.42	-39.7	-41.4	20.3	0.00e+00	0	39	0	0	51	4261
2026-01-07 09:52:37.67	54.90	77.11	-40.0	-41.7	20.2	0.00e+00	0	39	0	0	51	4426
2026-01-07 09:52:40.67	48.57	76.65	-39.7	-41.3	20.4	0.00e+00	0	39	0	0	50	4486
2026-01-07 09:52:43.68	42.73	76.04	-40.3	-42.0	20.0	0.00e+00	0	39	0	0	51	4567
2026-01-07 09:52:46.69	37.45	75.30	-39.6	-41.3	20.7	0.00e+00	0	39	0	0	51	4201
2026-01-07 09:52:49.70	32.72	74.46	-39.3	-40.9	21.0	0.00e+00	0	39	0	0	50	4248
2026-01-07 09:52:52.71	28.53	73.54	-39.1	-40.7	20.7	0.00e+00	0	39	0	0	50	4175
2026-01-07 09:52:55.72	24.81	72.55	-40.3	-42.0	19.8	0.00e+00	0	39	0	0	51	4547
2026-01-07 09:52:58.74	21.52	71.50	-39.4	-41.0	20.6	0.00e+00	0	39	0	0	50	4332
2026-01-07 09:53:01.74	18.62	70.42	-39.7	-41.3	20.6	0.00e+00	0	39	0	0	50	4459
2026-01-07 09:53:04.76	16.04	69.30	-38.9	-40.5	21.0	0.00e+00	0	39	0	0	49	4320
2026-01-07 09:53:07.76	13.76	68.17	-40.0	-41.7	20.3	0.00e+00	0	39	0	0	50	4678
2026-01-07 09:53:10.77	11.71	67.02	-40.0	-41.6	19.6	0.00e+00	0	39	0	0	51	4381
2026-01-07 09:53:13.78	9.89	65.87	-40.0	-41.7	20.3	0.00e+00	0	39	0	0	50	4673
2026-01-07 09:53:16.79	8.24	64.71	-40.8	-42.6	19.3	0.00e+00	0	39	0	0	53	4374
2026-01-07 09:53:19.81	6.75	63.54	-39.4	-40.9	20.7	0.00e+00	0	39	0	0	50	4287
2026-01-07 09:53:22.81	5.42	62.39	-41.4	-43.3	18.8	0.00e+00	0	39	0	0	53	4738
2026-01-07 09:53:25.82	4.20	61.25	-39.9	-41.6	20.0	0.00e+00	0	39	0	0	52	4122
2026-01-07 09:53:28.84	3.08	60.10	-40.3	-42.0	20.0	0.00e+00	0	38	0	0	51	4583
2026-01-07 09:53:31.85	2.06	58.98	-42.3	-44.4	17.5	0.00e+00	0	39	0	0	55	4790
2026-01-07 09:53:34.86	1.13	57.86	-40.6	-42.4	19.5	0.00e+00	0	39	0	0	53	4248
2026-01-07 09:53:37.87	0.27	56.76	-41.1	-42.8	19.2	0.00e+00	0	39	0	0	52	4759
2026-01-07 09:53:40.87	359.48	55.68	-42.9	-45.0	17.2	0.00e+00	0	39	0	0	56	4870
2026-01-07 09:53:43.88	358.75	54.62	-41.0	-42.7	19.2	0.00e+00	0	39	0	0	54	4178
2026-01-07 09:53:46.89	358.07	53.57	-40.9	-42.7	19.3	0.00e+00	0	39	0	0	53	4392
2026-01-07 09:53:49.90	357.44	52.53	-43.7	-45.9	16.4	0.00e+00	0	39	0	0	57	5095
2026-01-07 09:53:52.91	356.85	51.52	-42.6	-44.6	17.6	0.00e+00	0	39	0	0	57	4355
2026-01-07 09:53:55.92	356.30	50.52	-42.4	-44.3	17.9	0.00e+00	0	39	0	0	56	4477
2026-01-07 09:53:58.92	355.79	49.55	-43.0	-45.0	17.3	0.00e+00	0	39	0	0	56	4866
2026-01-07 09:54:01.93	355.31	48.59	-43.5	-45.7	16.7	0.00e+00	0	39	0	0	57	4946
2026-01-07 09:54:04.94	354.85	47.65	-43.0	-45.0	17.2	0.00e+00	0	39	0	0	57	4578
2026-01-07 09:54:07.95	354.43	46.73	-42.8	-44.8	17.5	0.00e+00	0	39	0	0	57	4451
2026-01-07 09:54:10.96	354.03	45.82	-43.6	-45.8	16.7	0.00e+00	0	39	0	0	57	5000
2026-01-07 09:54:13.97	353.65	44.94	-43.1	-45.2	17.2	0.00e+00	0	39	0	0	57	4670
2026-01-07 09:54:16.98	353.29	44.07	-44.4	-47.0	15.4	0.00e+00	0	39	0	0	59	5141
2026-01-07 09:54:19.99	352.95	43.22	-45.1	-48.0	14.5	0.00e+00	0	39	0	0	60	5417
2026-01-07 09:54:23.00	352.63	42.39	-43.6	-45.8	16.5	0.00e+00	0	39	0	0	59	4443
2026-01-07 09:54:26.01	352.33	41.57	-42.7	-44.7	17.6	0.00e+00	0	39	0	0	57	4410
2026-01-07 09:54:29.02	352.04	40.78	-42.7	-44.7	17.6	0.00e+00	0	39	0	0	56	4703
2026-01-07 09:54:32.02	351.77	40.00	-43.2	-45.3	17.0	0.00e+00	0	39	0	0	57	4729
2026-01-07 09:54:35.03	351.51	39.23	-43.0	-45.0	17.2	0.00e+00	0	39	0	0	57	4597
2026-01-07 09:54:38.04	351.26	38.48	-43.1	-45.2	17.1	0.00e+00	0	39	0	0	57	4695
2026-01-07 09:54:41.04	351.02	37.75	-42.9	-45.0	17.3	0.00e+00	0	39	0	0	57	4587
2026-01-07 09:54:44.05	350.80	37.03	-42.7	-44.8	17.6	0.00e+00	0	39	0	0	57	4444
2026-01-07 09:54:47.06	350.58	36.33	-42.4	-44.5	17.8	0.00e+00	0	39	0	0	56	4551
2026-01-07 09:54:50.07	350.37	35.64	-42.0	-44.0	18.3	0.00e+00	0	39	0	0	56	4302
2026-01-07 09:54:53.08	350.18	34.97	-41.7	-43.6	18.4	0.00e+00	0	39	0	0	55	4380
2026-01-07 09:54:56.09	349.99	34.31	-41.6	-43.5	18.6	0.00e+00	0	39	0	0	55	4315
2026-01-07 09:54:59.10	349.80	33.66	-41.1	-42.9	19.0	0.00e+00	0	39	0	0	54	4278
2026-01-07 09:55:02.11	349.63	33.02	-41.2	-43.0	18.9	0.00e+00	0	39	0	0	54	4307
2026-01-07 09:55:05.12	349.46	32.40	-41.4	-43.3	18.7	0.00e+00	0	39	0	0	54	4468
2026-01-07 09:55:08.14	349.30	31.79	-41.5	-43.4	18.6	0.00e+00	0	39	0	0	54	4525
2026-01-07 09:55:11.15	349.15	31.20	-41.5	-43.3	18.7	0.00e+00	0	39	0	0	54	4478
2026-01-07 09:55:14.16	349.00	30.61	-41.3	-43.1	18.9	0.00e+00	0	39	0	0	54	4363
2026-01-07 09:55:17.17	348.86	30.04	-41.0	-42.8	19.2	0.00e+00	0	39	0	0	53	4444
2026-01-07 09:55:20.18	348.72	29.47	-41.0	-42.8	19.1	0.00e+00	0	39	0	0	53	4476
2026-01-07 09:55:23.19	348.59	28.92	-41.0	-42.8	19.1	0.00e+00	0	39	0	0	53	4474
2026-01-07 09:55:26.21	348.46	28.38	-41.1	-42.9	19.0	0.00e+00	0	39	0	0	53	4520
2026-01-07 09:55:29.21	348.34	27.85	-41.0	-42.8	19.1	0.00e+00	0	39	0	0	53	4485
2026-01-07 09:55:32.22	348.22	27.33	-40.8	-42.6	19.3	0.00e+00	0	39	0	0	53	4348
2026-01-07 09:55:35.23	348.10	26.82	-40.5	-42.3	19.6	0.00e+00	0	39	0	0	53	4216
2026-01-07 09:55:38.24	347.99	26.31	-40.5	-42.3	19.6	0.00e+00	0	39	0	0	52	4447
2026-01-07 09:55:41.25	347.89	25.82	-40.3	-42.0	19.7	0.00e+00	0	38	0	0	52	4335
2026-01-07 09:55:44.26	347.78	25.34	-40.4	-42.2	19.6	0.00e+00	0	39	0	0	52	4397
2026-01-07 09:55:47.27	347.68	24.86	-40.5	-42.3	19.5	0.00e+00	0	39	0	0	52	4473
2026-01-07 09:55:50.28	347.59	24.39	-40.6	-42.3	19.4	0.00e+00	0	39	0	0	52	4481
2026-01-07 09:55:53.29	347.50	23.94	-40.7	-42.5	19.3	0.00e+00	0	39	0	0	52	4574
2026-01-07 09:55:56.29	347.41	23.49	-40.7	-42.6	19.2	0.00e+00	0	39	0	0	52	4606
2026-01-07 09:55:59.31	347.32	23.04	-40.6	-42.4	19.4	0.00e+00	0	39	0	0	52	4537
2026-01-07 09:56:02.32	347.23	22.60	-40.8	-42.5	19.3	0.00e+00	0	39	0	0	52	4598
2026-01-07 09:56:05.33	347.15	22.18	-40.6	-42.4	19.4	0.00e+00	0	39	0	0	52	4511
2026-01-07 09:56:08.34	347.07	21.75	-40.3	-42.0	19.8	0.00e+00	0	39	0	0	52	4332
2026-01-07 09:56:11.35	346.99	21.34	-40.1	-41.9	19.9	0.00e+00	0	39	0	0	52	4269
2026-01-07 09:56:14.36	346.92	20.93	-40.2	-42.0	19.8	0.00e+00	0	39	0	0	52	4315
2026-01-07 09:56:17.37	346.85	20.53	-40.3	-42.1	19.7	0.00e+00	0	39	0	0	52	4343
2026-01-07 09:56:20.38	346.78	20.13	-40.5	-42.2	19.5	0.00e+00	0	39	0	0	52	4439
2026-01-07 09:56:23.39	346.71	19.74	-40.7	-42.5	19.4	0.00e+00	0	39	0	0	52	4551
2026-01-07 09:56:26.39	346.64	19.36	-40.7	-42.6	19.2	0.00e+00	0	39	0	0	52	4623
2026-01-07 09:56:29.40	346.58	18.98	-40.7	-42.6	19.2	0.00e+00	0	39	0	0	52	4630
2026-01-07 09:56:32.41	346.52	18.61	-40.9	-42.8	19.0	0.00e+00	0	39	0	0	52	4724
2026-01-07 09:56:35.42	346.45	18.25	-41.0	-42.9	18.9	0.00e+00	0	39	0	0	52	4784
2026-01-07 09:56:38.43	346.40	17.88	-41.1	-43.1	18.8	0.00e+00	0	39	0	0	52	4883
2026-01-07 09:56:41.44	346.34	17.53	-41.2	-43.3	18.5	0.00e+00	0	39	0	0	53	4755
2026-01-07 09:56:44.45	346.28	17.18	-41.1	-43.4	18.5	0.00e+00	0	39	0	0	53	4772
2026-01-07 09:56:47.46	346.23	16.83	-41.2	-43.4	18.4	0.00e+00	0	39	0	0	53	4800
2026-01-07 09:56:50.46	346.18	16.49	-41.5	-43.5	18.4	0.00e+00	0	39	0	0	53	4824
2026-01-07 09:56:53.48	346.12	16.15	-41.6	-43.6	18.3	0.00e+00	0	39	0	0	53	4876
2026-01-07 09:56:56.49	346.07	15.82	-41.5	-43.5	18.4	0.00e+00	0	39	0	0	53	4830
2026-01-07 09:56:59.49	346.03	15.50	-41.4	-43.5	18.4	0.00e+00	0	39	0	0	53	4825
2026-01-07 09:57:02.50	345.98	15.17	-41.5	-43.7	18.2	0.00e+00	0	39	0	0	53	4927
2026-01-07 09:57:05.52	345.93	14.85	-41.5	-43.7	18.2	0.00e+00	0	39	0	0	53	4959
2026-01-07 09:57:08.53	345.89	14.54	-41.7	-43.8	18.0	0.00e+00	0	39	0	0	54	4744
2026-01-07 09:57:11.54	345.84	14.23	-41.8	-43.8	18.1	0.00e+00	0	39	0	0	54	4727
2026-01-07 09:57:14.55	345.80	13.92	-41.9	-43.9	17.9	0.00e+00	0	39	0	0	54	4807
2026-01-07 09:57:17.56	345.76	13.62	-41.9	-44.0	17.9	0.00e+00	0	39	0	0	54	4839
2026-01-07 09:57:20.57	345.72	13.32	-41.8	-44.0	17.9	0.00e+00	0	39	0	0	54	4827
2026-01-07 09:57:23.58	345.68	13.02	-41.8	-44.1	17.8	0.00e+00	0	39	0	0	54	4894
2026-01-07 09:57:26.58	345.64	12.73	-41.9	-44.1	17.8	0.00e+00	0	39	0	0	54	4918
2026-01-07 09:57:29.59	345.61	12.44	-41.9	-44.1	17.8	0.00e+00	0	39	0	0	54	4872
2026-01-07 09:57:32.60	345.57	12.16	-41.9	-44.1	17.8	0.00e+00	0	39	0	0	54	4872
2026-01-07 09:57:35.61	345.53	11.88	-42.0	-44.2	17.7	0.00e+00	0	39	0	0	54	4941
2026-01-07 09:57:38.62	345.50	11.60	-41.9	-44.3	17.6	0.00e+00	0	39	0	0	54	4988
2026-01-07 09:57:41.63	345.47	11.32	-41.8	-44.4	17.5	0.00e+00	0	39	0	0	54	5058
2026-01-07 09:57:44.64	345.43	11.05	-41.8	-44.5	17.4	0.00e+00	0	39	0	0	54	5103
2026-01-07 09:57:47.65	345.40	10.78	-41.8	-44.5	17.4	0.00e+00	0	39	0	0	54	5141
2026-01-07 09:57:50.66	345.37	10.51	-42.0	-44.7	17.2	0.00e+00	0	39	0	0	54	5268
2026-01-07 09:57:53.67	345.34	10.25	-42.2	-44.9	17.0	0.00e+00	0	39	0	0	55	5071
2026-01-07 09:57:56.68	345.31	9.99	-42.3	-45.0	16.8	0.00e+00	0	39	0	0	55	5148
2026-01-07 09:57:59.69	345.28	9.73	-42.2	-45.1	16.7	0.00e+00	0	38	0	0	55	5215
2026-01-07 09:58:02.71	345.25	9.47	-42.1	-45.4	16.5	0.00e+00	0	39	0	0	55	5343
2026-01-07 09:58:05.72	345.23	9.22	-41.9	-45.2	16.7	0.00e+00	0	39	0	0	55	5225
2026-01-07 09:58:08.73	345.20	8.97	-44.1	-48.7	13.6	0.00e+00	0	39	0	0	58	6622
2026-01-07 09:58:11.74	345.17	8.72	-50.3	-63.7	3.8	1.49e+00	0	39	104	0	71	17601
2026-01-07 09:58:14.76	345.15	8.47	-50.5	-63.9	3.8	1.49e+00	0	39	104	0	72	17047
2026-01-07 09:58:17.77	345.12	8.23	-50.6	-64.0	3.8	1.49e+00	0	39	104	0	72	17203
2026-01-07 09:58:20.78	345.10	7.99	-50.9	-64.1	3.8	1.49e+00	0	39	104	0	72	17317
2026-01-07 09:58:23.80	345.08	7.75	-51.0	-64.1	3.8	1.49e+00	0	39	104	0	72	17358
2026-01-07 09:58:26.81	345.05	7.51	-51.0	-64.1	3.8	1.49e+00	0	39	104	0	72	17320
2026-01-07 09:58:29.82	345.03	7.28	-51.1	-64.1	3.8	1.49e+00	0	39	104	0	72	17316
2026-01-07 09:58:32.83	345.01	7.05	-51.0	-64.1	3.8	1.49e+00	0	39	104	0	72	17330
2026-01-07 09:58:35.85	344.99	6.82	-50.9	-64.1	3.8	1.49e+00	0	39	104	0	72	17308
2026-01-07 09:58:38.86	344.97	6.59	-50.8	-64.0	3.8	1.49e+00	0	39	104	0	72	17260
2026-01-07 09:58:41.87	344.95	6.36	-50.8	-64.0	3.8	1.49e+00	0	39	104	0	72	17194
2026-01-07 09:58:44.89	344.93	6.14	-50.7	-64.0	3.8	1.49e+00	0	39	104	0	72	17168
2026-01-07 09:58:47.90	344.91	5.92	-50.7	-64.0	3.8	1.49e+00	0	39	104	0	72	17196
2026-01-07 09:58:50.91	344.89	5.69	-50.7	-64.0	3.8	1.49e+00	0	39	104	0	72	17117
2026-01-07 09:58:53.92	344.87	5.48	-50.7	-64.0	3.8	1.49e+00	0	39	104	0	72	17121
2026-01-07 09:58:56.93	344.85	5.26	-50.7	-64.0	3.8	1.49e+00	0	39	104	0	72	17135
2026-01-07 09:58:59.95	344.84	5.04	-50.7	-64.0	3.8	1.49e+00	0	39	104	0	72	17102

#Closed at: 2026-01-07 09:59:01
#Recorded file [0 MB]: D:/Data/31040_260107_124606.dat