passes_logs/2026/01/07/T1/T1__20260107_224648_NOAA_20_JPSS-1_rec.log

#Pass ID: 20260107_224648_NOAA 20 (JPSS-1)
#Satellite: NOAA 20 (JPSS-1)
#Configuration: NOAA 20
#almurnet v.1.7.20251203
#Start time: 2026-01-07 22:46:51

#Version: 2.0.20230620
#Station: T1
#Location: 37.570604 lon 55.790049 lat
#TLE: 1 43013U 17073A   26006.30790171  .00000126  00000+0  80695-4 0  9991
#TLE: 2 43013  98.7629 307.3394 0001808  51.8724 308.2615 14.19533762421505

#Time	Az	El	Level	Level2	SNR	BER	BlckErr	Temp	State	Recorded	gain1	gain2
2026-01-07 22:46:51.33	23.43	5.17	-52.2	-67.6	3.8	1.49e+00	0	40	104	0	75	21990
2026-01-07 22:46:54.34	23.60	5.38	-52.2	-67.6	3.8	1.49e+00	0	40	104	0	75	21903
2026-01-07 22:46:57.34	23.76	5.58	-52.2	-67.5	3.8	1.49e+00	0	40	104	0	75	21602
2026-01-07 22:47:00.35	23.93	5.78	-52.2	-67.5	3.8	1.49e+00	0	41	104	0	75	21574
2026-01-07 22:47:03.36	24.10	5.99	-52.2	-67.5	3.8	1.49e+00	0	41	104	0	75	21627
2026-01-07 22:47:06.38	24.28	6.20	-52.2	-67.6	3.8	1.49e+00	0	41	104	0	75	21851
2026-01-07 22:47:09.39	24.45	6.41	-52.2	-67.6	3.8	1.49e+00	0	41	104	0	75	21877
2026-01-07 22:47:12.39	24.63	6.62	-52.2	-67.6	3.8	1.49e+00	0	41	104	0	75	21791
2026-01-07 22:47:15.41	24.81	6.83	-52.2	-67.4	3.8	1.49e+00	0	41	104	0	75	21446
2026-01-07 22:47:18.42	24.99	7.04	-52.2	-67.4	3.8	1.49e+00	0	41	104	0	75	21264
2026-01-07 22:47:21.43	25.18	7.26	-52.2	-67.5	3.8	1.49e+00	0	41	104	0	75	21635
2026-01-07 22:47:24.44	25.36	7.47	-52.2	-67.6	3.8	1.49e+00	0	41	104	0	75	21791
2026-01-07 22:47:27.46	25.56	7.69	-52.2	-67.1	3.8	1.49e+00	0	42	104	0	75	20747
2026-01-07 22:47:30.47	25.75	7.91	-52.2	-67.1	3.8	1.49e+00	0	41	104	0	75	20678
2026-01-07 22:47:33.48	25.95	8.13	-52.2	-67.3	3.8	1.49e+00	0	42	104	0	75	21152
2026-01-07 22:47:36.49	26.14	8.36	-52.2	-67.0	3.8	1.49e+00	0	42	104	0	75	20332
2026-01-07 22:47:39.51	26.35	8.58	-52.1	-66.3	3.8	1.49e+00	0	42	104	0	75	18846
2026-01-07 22:47:42.52	26.55	8.81	-52.1	-65.1	4.0	1.49e+00	0	42	104	0	75	16429
2026-01-07 22:47:45.53	26.76	9.04	-51.7	-61.3	5.4	6.86e-01	0	42	0	3145728	75	10628
2026-01-07 22:47:48.54	26.97	9.27	-51.6	-60.5	5.7	1.49e+00	0	42	104	6291456	75	9672
2026-01-07 22:47:51.55	27.18	9.50	-48.8	-52.7	13.8	3.80e-06	0	42	0	8388608	69	5557
2026-01-07 22:47:54.75	27.41	9.75	-48.5	-52.1	14.4	7.00e-07	0	42	0	14680064	69	5170
2026-01-07 22:47:57.83	27.64	9.99	-47.7	-50.9	15.5	0.00e+00	0	42	0	19922944	67	5054
2026-01-07 22:48:00.70	27.85	10.22	-47.6	-50.7	15.6	0.00e+00	0	42	0	25165824	66	5263
2026-01-07 22:48:03.86	28.09	10.47	-47.2	-50.2	16.2	0.00e+00	0	42	0	31457280	66	4977
2026-01-07 22:48:06.72	28.31	10.70	-47.3	-50.3	16.1	0.00e+00	0	42	0	36700160	66	5014
2026-01-07 22:48:10.01	28.57	10.97	-47.1	-50.1	16.3	0.00e+00	0	42	0	42991616	66	4891
2026-01-07 22:48:12.73	28.78	11.19	-47.2	-50.3	16.1	0.00e+00	0	42	0	48234496	66	5011
2026-01-07 22:48:16.03	29.05	11.46	-47.0	-50.0	16.3	0.00e+00	0	42	0	54525952	65	5140
2026-01-07 22:48:18.75	29.27	11.69	-46.9	-49.9	16.5	0.00e+00	0	42	0	59768832	65	5070
2026-01-07 22:48:22.04	29.54	11.96	-47.0	-49.9	16.5	0.00e+00	0	42	0	66060288	65	5086
2026-01-07 22:48:25.18	29.81	12.23	-46.8	-49.6	16.8	0.00e+00	0	42	0	71303168	65	4884
2026-01-07 22:48:28.05	30.05	12.47	-46.7	-49.5	16.9	0.00e+00	0	42	0	76546048	65	4842
2026-01-07 22:48:31.37	30.34	12.76	-46.6	-49.3	17.1	0.00e+00	0	42	0	82837504	65	4756
2026-01-07 22:48:34.33	30.61	13.02	-46.4	-49.2	17.2	0.00e+00	0	42	0	89128960	64	4936
2026-01-07 22:48:37.74	30.92	13.32	-46.3	-49.0	17.5	0.00e+00	0	42	0	95420416	64	4818
2026-01-07 22:48:40.46	31.17	13.56	-46.2	-48.8	17.6	0.00e+00	0	42	0	100663296	64	4748
2026-01-07 22:48:44.03	31.50	13.88	-46.1	-48.6	17.8	0.00e+00	0	43	0	106954752	64	4619
2026-01-07 22:48:46.74	31.76	14.12	-46.0	-48.6	17.8	0.00e+00	0	42	0	112197632	64	4647
2026-01-07 22:48:50.17	32.09	14.43	-46.0	-48.7	17.7	0.00e+00	0	42	0	118489088	64	4665
2026-01-07 22:48:52.89	32.36	14.68	-46.2	-48.9	17.6	0.00e+00	0	43	0	123731968	64	4773
2026-01-07 22:48:56.19	32.70	14.99	-46.3	-48.9	17.5	0.00e+00	0	43	0	130023424	64	4802
2026-01-07 22:48:58.94	32.98	15.25	-46.3	-49.0	17.5	0.00e+00	0	42	0	135266304	64	4821
2026-01-07 22:49:02.23	33.32	15.56	-46.5	-49.1	17.4	0.00e+00	0	43	0	141557760	64	4900
2026-01-07 22:49:05.18	33.64	15.84	-46.5	-49.2	17.3	0.00e+00	0	43	0	146800640	64	4928
2026-01-07 22:49:08.18	33.96	16.12	-46.5	-49.1	17.4	0.00e+00	0	43	0	152043520	64	4915
2026-01-07 22:49:11.19	34.30	16.42	-46.4	-49.0	17.4	0.00e+00	0	43	0	158334976	64	4869
2026-01-07 22:49:14.26	34.64	16.72	-46.4	-49.1	17.4	0.00e+00	0	43	0	163577856	64	4908
2026-01-07 22:49:17.27	34.99	17.01	-46.5	-49.2	17.3	0.00e+00	0	43	0	168820736	64	4947
2026-01-07 22:49:20.28	35.34	17.31	-46.5	-49.2	17.3	0.00e+00	0	43	0	175112192	64	4974
2026-01-07 22:49:23.28	35.70	17.62	-46.7	-49.3	17.2	0.00e+00	0	43	0	180355072	64	5037
2026-01-07 22:49:26.30	36.06	17.92	-47.0	-49.8	16.8	0.00e+00	0	43	0	186646528	64	5289
2026-01-07 22:49:29.35	36.44	18.23	-47.1	-49.9	16.6	0.00e+00	0	43	0	191889408	64	5377
2026-01-07 22:49:32.31	36.82	18.54	-47.2	-50.0	16.5	0.00e+00	0	43	0	197132288	65	5151
2026-01-07 22:49:35.80	37.27	18.90	-47.3	-50.1	16.4	0.00e+00	0	43	0	204472320	65	5217
2026-01-07 22:49:38.74	37.66	19.21	-47.3	-50.2	16.4	0.00e+00	0	43	0	209715200	65	5274
2026-01-07 22:49:42.04	38.10	19.56	-47.2	-50.2	16.3	0.00e+00	0	43	0	216006656	65	5265
2026-01-07 22:49:44.76	38.47	19.85	-47.1	-50.0	16.6	0.00e+00	0	43	0	221249536	65	5117
2026-01-07 22:49:48.06	38.94	20.21	-47.1	-50.0	16.6	0.00e+00	0	43	0	226492416	65	5101
2026-01-07 22:49:50.89	39.34	20.52	-47.3	-50.1	16.5	0.00e+00	0	43	0	232783872	65	5191
2026-01-07 22:49:54.04	39.80	20.86	-47.2	-50.1	16.5	0.00e+00	0	43	0	238026752	65	5183
2026-01-07 22:49:56.90	40.23	21.18	-47.3	-50.2	16.5	0.00e+00	0	43	0	243269632	65	5221
2026-01-07 22:50:00.23	40.74	21.55	-47.3	-50.2	16.5	0.00e+00	0	43	0	249561088	65	5241
2026-01-07 22:50:02.95	41.16	21.86	-47.4	-50.2	16.4	0.00e+00	0	43	0	254803968	65	5273
2026-01-07 22:50:06.25	41.69	22.23	-47.3	-50.1	16.6	0.00e+00	0	43	0	261095424	65	5174
2026-01-07 22:50:09.08	42.15	22.56	-47.2	-50.0	16.6	0.00e+00	0	43	0	266338304	65	5142
2026-01-07 22:50:12.23	42.67	22.92	-47.1	-49.8	16.8	0.00e+00	0	43	0	272629760	65	5007
2026-01-07 22:50:15.16	43.17	23.26	-47.1	-49.8	16.8	0.00e+00	0	43	0	277872640	65	5018
2026-01-07 22:50:18.38	43.73	23.63	-47.0	-49.8	16.8	0.00e+00	0	43	0	284164096	65	5005
2026-01-07 22:50:21.23	44.24	23.97	-46.7	-49.3	17.3	0.00e+00	0	43	0	289406976	65	4742
2026-01-07 22:50:24.53	44.84	24.36	-46.5	-49.1	17.5	0.00e+00	0	43	0	295698432	65	4626
2026-01-07 22:50:27.26	45.35	24.69	-46.3	-48.8	17.8	0.00e+00	0	43	0	300941312	64	4741
2026-01-07 22:50:30.55	45.97	25.08	-46.3	-48.8	17.8	0.00e+00	0	43	0	306184192	64	4730
2026-01-07 22:50:33.27	46.50	25.41	-46.1	-48.5	18.1	0.00e+00	0	43	0	311427072	63	4868
2026-01-07 22:50:36.65	47.17	25.82	-46.2	-48.8	18.0	0.00e+00	0	43	0	317718528	63	4989
2026-01-07 22:50:39.62	47.78	26.18	-46.2	-48.7	18.0	0.00e+00	0	43	0	324009984	63	4948
2026-01-07 22:50:42.63	48.41	26.55	-46.3	-48.8	17.9	0.00e+00	0	43	0	329252864	63	5006
2026-01-07 22:50:45.64	49.05	26.91	-46.4	-48.9	17.8	0.00e+00	0	43	0	334495744	63	5071
2026-01-07 22:50:48.65	49.70	27.29	-46.7	-49.3	17.5	0.00e+00	0	43	0	340787200	63	5288
2026-01-07 22:50:51.66	50.37	27.66	-46.9	-49.6	17.1	0.00e+00	0	43	0	346030080	64	5198
2026-01-07 22:50:54.68	51.06	28.03	-46.8	-49.4	17.3	0.00e+00	0	43	0	352321536	64	5082
2026-01-07 22:50:57.68	51.76	28.40	-46.8	-49.5	17.2	0.00e+00	0	43	0	357564416	64	5131
2026-01-07 22:51:00.66	52.48	28.77	-47.3	-50.2	16.5	0.00e+00	0	43	0	362807296	65	5242
2026-01-07 22:51:03.94	53.28	29.18	-47.7	-50.7	16.1	0.00e+00	0	43	0	369098752	66	5233
2026-01-07 22:51:06.66	53.96	29.52	-48.0	-51.1	15.7	0.00e+00	0	43	0	374341632	66	5524
2026-01-07 22:51:09.96	54.80	29.93	-48.2	-51.5	15.3	0.00e+00	0	43	0	380633088	67	5418
2026-01-07 22:51:12.68	55.52	30.26	-48.1	-51.2	15.6	0.00e+00	0	43	0	385875968	67	5235
2026-01-07 22:51:15.97	56.40	30.67	-48.6	-51.9	14.9	0.00e+00	0	43	0	392167424	67	5683
2026-01-07 22:51:18.69	57.14	31.00	-49.5	-53.4	13.5	8.30e-06	0	43	0	397410304	69	6051
2026-01-07 22:51:21.99	58.07	31.41	-50.0	-54.2	12.8	5.72e-05	0	43	0	402653184	70	6224
2026-01-07 22:51:25.02	58.94	31.77	-50.2	-54.7	12.3	1.91e-04	0	43	0	408944640	71	6214
2026-01-07 22:51:28.03	59.82	32.14	-49.7	-53.8	13.2	3.43e-05	0	43	0	414187520	71	5596
2026-01-07 22:51:31.04	60.72	32.50	-50.1	-54.4	12.5	5.72e-05	0	43	0	420478976	71	6037
2026-01-07 22:51:34.48	61.78	32.90	-50.4	-54.9	12.0	4.20e-04	0	43	0	426770432	71	6409
2026-01-07 22:51:37.27	62.65	33.23	-49.8	-53.8	13.2	3.58e-05	0	43	0	432013312	71	5607
2026-01-07 22:51:40.56	63.71	33.61	-49.6	-53.4	13.6	1.14e-05	0	43	0	438304768	71	5389
2026-01-07 22:51:43.57	64.69	33.95	-49.5	-53.4	13.6	8.30e-06	0	43	0	443547648	71	5346
2026-01-07 22:51:46.58	65.70	34.29	-49.4	-53.0	13.9	7.00e-07	0	43	0	448790528	70	5454
2026-01-07 22:51:49.59	66.73	34.62	-49.3	-53.0	14.0	2.20e-06	0	43	0	455081984	70	5427
2026-01-07 22:51:52.59	67.77	34.94	-48.5	-51.8	15.2	0.00e+00	0	43	0	460324864	69	4997
2026-01-07 22:51:55.60	68.84	35.25	-48.7	-52.0	15.0	7.00e-07	0	43	0	465567744	68	5411
2026-01-07 22:51:58.61	69.93	35.56	-48.4	-51.6	15.3	7.00e-07	0	43	0	471859200	68	5202
2026-01-07 22:52:01.62	71.04	35.86	-47.6	-50.5	16.3	0.00e+00	0	43	0	477102080	67	4865
2026-01-07 22:52:04.64	72.17	36.15	-47.7	-50.6	16.3	0.00e+00	0	43	0	483393536	66	5164
2026-01-07 22:52:07.60	73.30	36.43	-47.3	-50.2	16.6	0.00e+00	0	43	0	488636416	66	4929
2026-01-07 22:52:10.93	74.60	36.72	-47.0	-49.7	17.1	0.00e+00	0	43	0	494927872	65	4961
2026-01-07 22:52:13.66	75.67	36.96	-47.6	-50.6	16.2	0.00e+00	0	43	0	500170752	65	5514
2026-01-07 22:52:17.27	77.12	37.25	-47.7	-50.8	16.0	0.00e+00	0	43	0	506462208	66	5294
2026-01-07 22:52:20.16	78.30	37.47	-47.8	-50.8	16.0	0.00e+00	0	43	0	511705088	66	5312
2026-01-07 22:52:23.31	79.60	37.70	-47.7	-50.7	16.1	0.00e+00	0	43	0	517996544	66	5277
2026-01-07 22:52:26.23	80.82	37.90	-47.7	-50.6	16.2	0.00e+00	0	43	0	523239424	66	5204
2026-01-07 22:52:29.75	82.31	38.12	-48.6	-52.2	14.7	0.00e+00	0	43	0	530579456	67	5881
2026-01-07 22:52:32.47	83.48	38.28	-48.2	-51.6	15.1	0.00e+00	0	43	0	534773760	67	5526
2026-01-07 22:52:35.77	84.91	38.45	-47.9	-51.1	15.7	0.00e+00	0	43	0	541065216	67	5162
2026-01-07 22:52:38.57	86.13	38.58	-48.4	-52.0	14.8	0.00e+00	0	43	0	546308096	67	5747
2026-01-07 22:52:42.14	87.71	38.73	-48.4	-51.9	15.0	0.00e+00	0	43	0	553648128	67	5702
2026-01-07 22:52:45.34	89.13	38.85	-48.9	-52.6	14.4	7.00e-07	0	43	0	558891008	68	5853
2026-01-07 22:52:48.21	90.41	38.93	-49.3	-53.0	14.0	3.00e-06	0	43	0	565182464	69	5766
2026-01-07 22:52:51.39	91.84	39.01	-49.4	-53.3	13.7	4.50e-06	0	43	0	570425344	69	5977
2026-01-07 22:52:54.26	93.14	39.06	-49.5	-53.5	13.6	1.90e-05	0	43	0	575668224	70	5723
2026-01-07 22:52:57.62	94.66	39.10	-49.2	-53.0	14.0	3.80e-06	0	43	0	581959680	70	5439
2026-01-07 22:53:00.33	95.89	39.12	-49.1	-52.8	14.2	1.50e-06	0	43	0	587202560	69	5612
2026-01-07 22:53:03.63	97.39	39.12	-48.4	-51.6	15.4	0.00e+00	0	43	0	593494016	68	5165
2026-01-07 22:53:06.36	98.63	39.10	-48.1	-51.1	15.9	0.00e+00	0	43	0	598736896	68	4908
2026-01-07 22:53:09.65	100.11	39.06	-48.3	-51.5	15.3	0.00e+00	0	43	0	605028352	67	5445
2026-01-07 22:53:12.64	101.47	39.01	-48.8	-52.2	14.8	0.00e+00	0	43	0	610271232	68	5539
2026-01-07 22:53:16.04	102.99	38.92	-49.3	-53.2	13.7	2.20e-06	0	43	0	616562688	69	5910
2026-01-07 22:53:18.77	104.22	38.84	-49.8	-54.1	12.9	3.28e-05	0	43	0	621805568	70	6139
2026-01-07 22:53:22.07	105.68	38.72	-49.8	-53.9	13.2	2.67e-05	0	43	0	628097024	70	6006
2026-01-07 22:53:25.20	107.07	38.59	-48.8	-52.2	14.8	2.20e-06	0	43	0	634388480	69	5269
2026-01-07 22:53:28.71	108.60	38.42	-48.9	-52.4	14.5	2.20e-06	0	43	0	640679936	69	5373
2026-01-07 22:53:31.43	109.78	38.28	-48.1	-51.1	15.8	0.00e+00	0	43	0	645922816	68	4916
2026-01-07 22:53:34.73	111.20	38.09	-47.6	-50.5	16.3	0.00e+00	0	43	0	652214272	67	4850
2026-01-07 22:53:37.83	112.51	37.89	-47.4	-50.2	16.6	0.00e+00	0	43	0	657457152	66	4957
2026-01-07 22:53:40.84	113.77	37.68	-47.4	-50.2	16.5	0.00e+00	0	43	0	663748608	66	4982
2026-01-07 22:53:43.85	115.02	37.46	-47.0	-49.8	17.0	0.00e+00	0	43	0	668991488	65	5003
2026-01-07 22:53:46.86	116.25	37.23	-45.6	-47.9	18.8	0.00e+00	0	43	0	674234368	63	4532
2026-01-07 22:53:49.80	117.43	36.99	-46.3	-48.8	18.0	0.00e+00	0	43	0	680525824	63	4993
2026-01-07 22:53:52.96	118.68	36.72	-46.1	-48.6	18.1	0.00e+00	0	43	0	685768704	64	4615
2026-01-07 22:53:55.83	119.80	36.47	-46.0	-48.3	18.4	0.00e+00	0	43	0	692060160	63	4754
2026-01-07 22:53:58.98	121.01	36.17	-45.4	-47.6	19.0	0.00e+00	0	43	0	697303040	62	4647
2026-01-07 22:54:01.85	122.09	35.90	-46.3	-48.7	18.0	0.00e+00	0	43	0	702545920	63	4973
2026-01-07 22:54:05.13	123.30	35.57	-45.7	-48.0	18.7	0.00e+00	0	43	0	708837376	63	4582
2026-01-07 22:54:07.86	124.30	35.29	-46.8	-49.5	17.3	0.00e+00	0	43	0	714080256	64	5131
2026-01-07 22:54:11.16	125.47	34.94	-46.6	-49.2	17.5	0.00e+00	0	43	0	720371712	65	4683
2026-01-07 22:54:13.99	126.46	34.64	-47.4	-50.2	16.5	0.00e+00	0	43	0	725614592	65	5270
2026-01-07 22:54:17.15	127.55	34.29	-46.3	-48.8	17.9	0.00e+00	0	43	0	731906048	64	4730
2026-01-07 22:54:20.01	128.51	33.97	-47.5	-50.4	16.4	0.00e+00	0	43	0	737148928	65	5383
2026-01-07 22:54:23.32	129.60	33.59	-47.3	-50.1	16.6	0.00e+00	0	43	0	743440384	66	4910
2026-01-07 22:54:26.05	130.48	33.28	-48.4	-51.7	15.1	0.00e+00	0	43	0	748683264	67	5560
2026-01-07 22:54:29.90	131.69	32.83	-47.6	-50.6	16.2	0.00e+00	0	43	0	754974720	67	4871
2026-01-07 22:54:32.76	132.57	32.49	-49.1	-53.0	14.0	7.00e-07	0	43	0	760217600	68	6072
2026-01-07 22:54:36.13	133.58	32.08	-47.0	-49.7	17.0	0.00e+00	0	43	0	767557632	65	4966
2026-01-07 22:54:39.25	134.50	31.70	-49.0	-52.6	14.4	7.00e-07	0	43	0	772800512	68	5792
2026-01-07 22:54:42.49	135.43	31.31	-48.0	-51.0	15.9	0.00e+00	0	43	0	779091968	68	4839
2026-01-07 22:54:45.36	136.23	30.95	-48.4	-51.6	15.2	0.00e+00	0	43	0	784334848	67	5498
2026-01-07 22:54:48.51	137.10	30.56	-48.0	-51.0	15.8	0.00e+00	0	43	0	790626304	68	4846
2026-01-07 22:54:51.38	137.86	30.21	-46.2	-48.7	18.0	0.00e+00	0	43	0	795869184	64	4665
2026-01-07 22:54:54.52	138.69	29.82	-47.9	-51.0	15.7	0.00e+00	0	43	0	801112064	66	5440
2026-01-07 22:54:57.39	139.42	29.46	-46.4	-48.9	17.7	0.00e+00	0	43	0	807403520	64	4805
2026-01-07 22:55:00.54	140.21	29.06	-47.5	-50.4	16.3	0.00e+00	0	43	0	812646400	65	5353
2026-01-07 22:55:03.41	140.91	28.71	-47.5	-50.4	16.2	0.00e+00	0	43	0	817889280	66	5090
2026-01-07 22:55:06.56	141.66	28.31	-46.0	-48.4	18.3	0.00e+00	0	43	0	824180736	63	4799
2026-01-07 22:55:09.90	142.44	27.89	-47.0	-49.8	16.9	0.00e+00	0	43	0	830472192	64	5293
2026-01-07 22:55:12.83	143.11	27.53	-45.4	-47.7	18.9	0.00e+00	0	43	0	835715072	62	4697
2026-01-07 22:55:16.12	143.84	27.12	-45.0	-47.2	19.4	0.00e+00	0	43	0	842006528	61	4684
2026-01-07 22:55:18.84	144.43	26.78	-46.8	-49.6	17.1	0.00e+00	0	43	0	847249408	64	5194
2026-01-07 22:55:22.14	145.13	26.38	-45.8	-48.2	18.4	0.00e+00	0	43	0	853540864	63	4680
2026-01-07 22:55:25.44	145.82	25.97	-45.1	-47.4	19.2	0.00e+00	0	43	0	859832320	62	4528
2026-01-07 22:55:28.25	146.39	25.63	-46.3	-48.8	17.9	0.00e+00	0	43	0	865075200	63	5035
2026-01-07 22:55:31.55	147.04	25.23	-45.1	-47.4	19.2	0.00e+00	0	43	0	871366656	62	4512
2026-01-07 22:55:34.44	147.60	24.88	-44.6	-46.8	19.7	0.00e+00	0	43	0	876609536	61	4450
2026-01-07 22:55:37.59	148.19	24.50	-45.4	-47.8	18.9	0.00e+00	0	43	0	881852416	61	4992
2026-01-07 22:55:40.46	148.72	24.15	-45.3	-47.7	18.9	0.00e+00	0	43	0	888143872	61	4934
2026-01-07 22:55:43.62	149.30	23.78	-45.1	-47.4	19.1	0.00e+00	0	43	0	893386752	61	4808
2026-01-07 22:55:46.92	149.88	23.39	-45.7	-48.1	18.5	0.00e+00	0	43	0	899678208	62	4895
2026-01-07 22:55:49.78	150.37	23.05	-45.7	-48.1	18.5	0.00e+00	0	43	0	904921088	62	4910
2026-01-07 22:55:53.16	150.94	22.66	-45.8	-48.3	18.4	0.00e+00	0	43	0	911212544	62	4987
2026-01-07 22:55:55.88	151.39	22.35	-46.0	-48.5	18.2	0.00e+00	0	43	0	916455424	62	5116
2026-01-07 22:55:59.18	151.92	21.97	-46.0	-48.5	18.1	0.00e+00	0	43	0	922746880	62	5145
2026-01-07 22:56:01.90	152.35	21.66	-45.9	-48.3	18.3	0.00e+00	0	43	0	927989760	62	5035
2026-01-07 22:56:05.20	152.86	21.28	-46.3	-48.8	17.8	0.00e+00	0	43	0	934281216	63	5030
2026-01-07 22:56:07.92	153.27	20.98	-46.8	-49.5	17.1	0.00e+00	0	43	0	939524096	64	5158
2026-01-07 22:56:11.22	153.76	20.61	-46.9	-49.7	16.9	0.00e+00	0	43	0	945815552	64	5245
2026-01-07 22:56:14.29	154.21	20.27	-46.5	-49.1	17.4	0.00e+00	0	43	0	951058432	64	4918
2026-01-07 22:56:17.15	154.61	19.96	-46.5	-49.1	17.5	0.00e+00	0	43	0	956301312	64	4883
2026-01-07 22:56:20.51	155.08	19.60	-46.6	-49.2	17.3	0.00e+00	0	43	0	962592768	64	4981
2026-01-07 22:56:23.24	155.45	19.31	-46.7	-49.5	17.0	0.00e+00	0	43	0	967835648	64	5137
2026-01-07 22:56:26.54	155.89	18.95	-46.8	-49.5	17.1	0.00e+00	0	43	0	974127104	64	5140
2026-01-07 22:56:29.26	156.25	18.67	-46.6	-49.3	17.2	0.00e+00	0	43	0	979369984	64	5032
2026-01-07 22:56:32.56	156.67	18.32	-46.4	-49.0	17.5	0.00e+00	0	43	0	985661440	64	4856
2026-01-07 22:56:35.37	157.02	18.03	-46.4	-49.1	17.4	0.00e+00	0	43	0	990904320	64	4892
2026-01-07 22:56:38.78	157.44	17.68	-46.8	-49.6	16.9	0.00e+00	0	43	0	997195776	64	5190
2026-01-07 22:56:41.50	157.77	17.40	-46.7	-49.4	17.1	0.00e+00	0	43	0	1002438656	64	5083
2026-01-07 22:56:44.80	158.16	17.07	-46.7	-49.4	17.1	0.00e+00	0	43	0	1008730112	64	5097
2026-01-07 22:56:47.53	158.48	16.80	-46.4	-49.1	17.4	2.00e-04	0	43	0	1012924416	64	4878
2026-01-07 22:56:50.82	158.85	16.47	-46.6	-49.4	17.1	0.00e+00	0	43	0	1019215872	64	5086
2026-01-07 22:56:53.75	159.18	16.18	-47.1	-49.9	16.6	0.00e+00	0	43	0	1025507328	64	5393
2026-01-07 22:56:56.77	159.51	15.89	-47.3	-50.3	16.3	0.00e+00	0	43	0	1030750208	65	5297
2026-01-07 22:56:59.78	159.83	15.60	-47.3	-50.2	16.3	0.00e+00	0	43	0	1035993088	65	5274
2026-01-07 22:57:02.84	160.15	15.31	-46.9	-49.7	16.8	0.00e+00	0	43	0	1042284544	65	4954
2026-01-07 22:57:05.95	160.48	15.01	-46.8	-49.7	16.8	0.00e+00	0	43	0	1047527424	65	4954
2026-01-07 22:57:08.84	160.77	14.74	-46.8	-49.7	16.8	0.00e+00	0	43	0	1053818880	65	4928
2026-01-07 22:57:11.99	161.08	14.45	-46.6	-49.3	17.1	0.00e+00	0	43	0	1059061760	65	4755
2026-01-07 22:57:15.13	161.39	14.16	-46.7	-49.4	17.0	0.00e+00	0	43	0	1065353216	65	4808
2026-01-07 22:57:18.14	161.68	13.89	-46.8	-49.7	16.7	0.00e+00	0	43	0	1070596096	65	4960
2026-01-07 22:57:21.56	162.00	13.58	-46.9	-49.8	16.6	0.00e+00	0	43	0	1076887552	65	4995
2026-01-07 22:57:24.28	162.25	13.33	-47.1	-50.0	16.4	0.00e+00	0	43	0	1082130432	65	5144
2026-01-07 22:57:27.58	162.55	13.04	-47.3	-50.2	16.2	9.07e-05	0	43	0	1088421888	65	5266
2026-01-07 22:57:30.56	162.82	12.78	-47.3	-50.4	16.1	0.00e+00	0	43	0	1093664768	65	5344
2026-01-07 22:57:33.57	163.08	12.52	-47.4	-50.5	15.9	0.00e+00	0	43	0	1099956224	65	5405
2026-01-07 22:57:36.58	163.34	12.26	-47.4	-50.5	15.9	3.12e-05	0	43	0	1105199104	65	5441
2026-01-07 22:57:39.58	163.60	12.00	-47.5	-50.7	15.7	9.10e-06	0	43	0	1111490560	65	5572
2026-01-07 22:57:42.99	163.88	11.71	-47.6	-50.9	15.5	0.00e+00	0	43	0	1117782016	65	5701
2026-01-07 22:57:45.71	164.11	11.48	-47.7	-51.1	15.3	0.00e+00	0	43	0	1123024896	66	5504
2026-01-07 22:57:49.01	164.37	11.21	-47.8	-51.3	15.1	0.00e+00	0	43	0	1128267776	66	5607
2026-01-07 22:57:51.73	164.59	10.98	-47.8	-51.1	15.2	7.00e-07	0	43	0	1133510656	66	5512
2026-01-07 22:57:55.03	164.85	10.71	-47.5	-50.9	15.5	0.00e+00	0	43	0	1139802112	66	5354
2026-01-07 22:57:57.76	165.06	10.49	-47.4	-50.7	15.7	0.00e+00	0	43	0	1145044992	66	5245
2026-01-07 22:58:01.06	165.31	10.22	-47.2	-50.5	15.8	0.00e+00	0	43	0	1151336448	66	5156
2026-01-07 22:58:03.78	165.51	10.00	-47.1	-50.5	15.8	0.00e+00	0	43	0	1156579328	66	5144
2026-01-07 22:58:07.07	165.75	9.74	-47.0	-50.6	15.7	0.00e+00	0	43	0	1162870784	66	5203
2026-01-07 22:58:09.99	165.96	9.51	-47.1	-50.9	15.4	0.00e+00	0	43	0	1168113664	66	5350
2026-01-07 22:58:13.00	166.17	9.28	-47.3	-51.2	15.1	0.00e+00	0	43	0	1173356544	66	5568
2026-01-07 22:58:16.01	166.38	9.04	-47.5	-51.7	14.6	0.00e+00	0	43	0	1179648000	66	5869
2026-01-07 22:58:19.03	166.59	8.81	-52.5	-67.9	3.8	1.49e+00	0	43	104	1180696576	76	21263
2026-01-07 22:58:22.04	166.80	8.58	-53.0	-68.1	3.8	1.49e+00	0	43	104	1180696576	76	21961
2026-01-07 22:58:25.05	167.00	8.36	-53.1	-68.2	3.8	1.49e+00	0	43	104	1180696576	76	22238
2026-01-07 22:58:28.06	167.20	8.13	-53.2	-68.3	3.8	1.49e+00	0	43	104	1180696576	77	21085
2026-01-07 22:58:31.07	167.39	7.90	-53.2	-68.3	3.8	1.49e+00	0	43	104	1180696576	77	21136
2026-01-07 22:58:34.09	167.59	7.68	-53.1	-68.3	3.8	1.49e+00	0	43	104	1180696576	77	21038
2026-01-07 22:58:37.10	167.77	7.46	-53.2	-68.3	3.8	1.49e+00	0	43	104	1180696576	77	21038
2026-01-07 22:58:40.11	167.96	7.24	-53.2	-68.2	3.8	1.49e+00	0	43	104	1180696576	77	21012
2026-01-07 22:58:43.12	168.15	7.02	-52.9	-68.3	3.8	1.49e+00	0	43	104	1180696576	77	21079
2026-01-07 22:58:46.14	168.33	6.81	-52.6	-68.2	3.8	1.49e+00	0	43	104	1180696576	77	20997
2026-01-07 22:58:49.15	168.51	6.59	-52.7	-68.3	3.8	1.49e+00	0	43	104	1180696576	77	21025
2026-01-07 22:58:52.16	168.69	6.38	-52.6	-68.3	3.8	1.49e+00	0	43	104	1180696576	77	21043
2026-01-07 22:58:55.18	168.86	6.17	-52.6	-68.2	3.8	1.49e+00	0	43	104	1180696576	77	20899
2026-01-07 22:58:58.19	169.03	5.96	-52.6	-68.2	3.8	1.49e+00	0	43	104	1180696576	77	20911
2026-01-07 22:59:01.20	169.20	5.75	-52.6	-68.2	3.8	1.49e+00	0	43	104	1180696576	77	20965
2026-01-07 22:59:04.21	169.37	5.54	-52.7	-68.2	3.8	1.49e+00	0	44	104	1180696576	77	20934
2026-01-07 22:59:07.23	169.53	5.34	-52.6	-68.2	3.8	1.49e+00	0	43	104	1180696576	77	20906
2026-01-07 22:59:10.24	169.70	5.13	-52.6	-68.2	3.8	1.49e+00	0	43	104	1180696576	77	20918

#Closed at: 2026-01-07 22:59:13
#Recorded file [1180 MB]: D:/Data/31040_260108_014651.dat