passes_logs/2026/01/07/T1/T1__20260107_083635_SUOMI_NPP_rec.log

#Pass ID: 20260107_083635_SUOMI NPP
#Satellite: SUOMI NPP
#Configuration: NPP
#almurnet v.1.7.20251203
#Start time: 2026-01-07 08:36:35

#Version: 2.0.20230620
#Station: T1
#Location: 37.570604 lon 55.790049 lat
#TLE: 1 37849U 11061A   26005.94084933  .00000134  00000+0  84554-4 0  9990
#TLE: 2 37849  98.7803 308.0679 0002567  79.1029 281.0436 14.19522657735426

#Time	Az	El	Level	Level2	SNR	BER	BlckErr	Temp	State	Recorded	gain1	gain2
2026-01-07 08:36:35.82	116.40	5.00	-49.5	-64.8	3.8	1.49e+00	0	42	0	0	70	21166
2026-01-07 08:36:38.82	116.19	5.19	-49.5	-64.8	3.8	1.49e+00	0	42	104	0	70	21201
2026-01-07 08:36:41.81	115.98	5.38	-49.4	-64.8	3.8	1.49e+00	0	42	104	0	70	21080
2026-01-07 08:36:44.80	115.76	5.57	-49.4	-64.8	3.8	1.49e+00	0	42	104	0	70	21091
2026-01-07 08:36:47.80	115.54	5.77	-49.5	-64.8	3.8	1.49e+00	0	42	104	0	70	21080
2026-01-07 08:36:50.80	115.31	5.96	-49.4	-64.8	3.8	1.49e+00	0	43	104	0	70	21040
2026-01-07 08:36:53.80	115.09	6.16	-49.4	-64.8	3.8	1.49e+00	0	42	104	0	70	21047
2026-01-07 08:36:56.79	114.86	6.36	-49.5	-64.8	3.8	1.49e+00	0	43	104	0	70	21102
2026-01-07 08:36:59.79	114.62	6.56	-49.4	-64.8	3.8	1.49e+00	0	43	104	0	70	21169
2026-01-07 08:37:02.77	114.39	6.75	-49.5	-64.7	3.8	1.49e+00	0	43	104	0	70	20940
2026-01-07 08:37:05.77	114.15	6.95	-49.4	-64.6	3.8	1.49e+00	0	43	104	0	70	20558
2026-01-07 08:37:08.76	113.90	7.16	-49.4	-64.6	3.8	1.49e+00	0	43	104	0	70	20656
2026-01-07 08:37:11.76	113.66	7.36	-49.4	-64.4	3.8	1.49e+00	0	43	104	0	70	20103
2026-01-07 08:37:14.77	113.41	7.56	-49.4	-63.5	3.8	1.49e+00	0	43	104	0	70	18134
2026-01-07 08:37:17.75	113.15	7.77	-49.3	-62.7	3.8	1.49e+00	0	43	104	0	70	16608
2026-01-07 08:37:20.75	112.89	7.97	-48.7	-57.0	6.5	5.51e-01	0	43	0	3145728	69	9097
2026-01-07 08:37:23.74	112.63	8.18	-46.6	-51.2	12.1	1.35e-03	0	43	0	8388608	65	5906
2026-01-07 08:37:26.74	112.37	8.39	-45.7	-49.4	14.1	7.00e-07	0	43	0	13631488	62	5685
2026-01-07 08:37:29.74	112.10	8.60	-46.8	-51.6	11.8	1.47e-04	0	43	0	19922944	64	6536
2026-01-07 08:37:32.74	111.82	8.81	-48.0	-54.6	8.7	2.02e-02	0	43	0	25165824	66	8196
2026-01-07 08:37:35.73	111.55	9.02	-49.2	-60.3	4.5	8.85e-01	0	43	0	31457280	69	13395
2026-01-07 08:37:38.73	111.26	9.23	-49.4	-63.7	3.8	3.55e-02	0	43	104	35651584	69	19733
2026-01-07 08:37:41.73	110.98	9.45	-48.1	-54.5	9.0	3.51e-01	0	43	0	38797312	68	7227
2026-01-07 08:37:44.72	110.69	9.66	-47.0	-51.7	11.7	9.87e-04	0	43	0	44040192	65	6236
2026-01-07 08:37:47.72	110.39	9.88	-46.1	-50.0	13.5	2.36e-05	0	43	0	49283072	64	5423
2026-01-07 08:37:50.73	110.09	10.10	-45.9	-49.6	14.0	1.50e-06	0	43	0	55574528	63	5515
2026-01-07 08:37:53.72	109.79	10.32	-45.8	-49.4	14.4	0.00e+00	0	43	0	60817408	63	5342
2026-01-07 08:37:56.72	109.48	10.54	-45.3	-48.5	15.1	0.00e+00	0	43	0	66060288	62	5154
2026-01-07 08:37:59.72	109.17	10.76	-45.3	-48.6	15.1	7.00e-07	0	44	0	72351744	62	5210
2026-01-07 08:38:02.71	108.85	10.98	-45.5	-49.0	14.8	0.00e+00	0	43	0	77594624	62	5424
2026-01-07 08:38:05.70	108.53	11.20	-45.1	-48.3	15.5	0.00e+00	0	43	0	82837504	62	4996
2026-01-07 08:38:08.70	108.20	11.43	-45.0	-48.1	15.6	0.00e+00	0	43	0	89128960	61	5208
2026-01-07 08:38:11.69	107.86	11.65	-45.3	-48.6	15.2	0.00e+00	0	43	0	94371840	61	5480
2026-01-07 08:38:14.69	107.53	11.88	-45.0	-48.2	15.5	0.00e+00	0	43	0	100663296	61	5275
2026-01-07 08:38:17.69	107.18	12.11	-45.3	-48.7	15.1	0.00e+00	0	43	0	105906176	61	5551
2026-01-07 08:38:20.68	106.83	12.34	-45.5	-48.9	14.9	0.00e+00	0	44	0	111149056	61	5710
2026-01-07 08:38:23.69	106.48	12.57	-45.8	-49.3	14.5	0.00e+00	0	44	0	117440512	62	5620
2026-01-07 08:38:26.69	106.11	12.80	-45.7	-49.1	14.8	0.00e+00	0	43	0	122683392	62	5496
2026-01-07 08:38:29.68	105.75	13.03	-45.0	-48.0	15.8	0.00e+00	0	43	0	127926272	61	5143
2026-01-07 08:38:32.69	105.37	13.27	-45.0	-48.2	15.7	0.00e+00	0	44	0	134217728	61	5231
2026-01-07 08:38:35.69	104.99	13.50	-44.3	-47.1	16.7	0.00e+00	0	44	0	139460608	60	4903
2026-01-07 08:38:38.68	104.61	13.73	-44.3	-47.1	16.7	0.00e+00	0	43	0	144703488	60	4902
2026-01-07 08:38:41.67	104.22	13.97	-44.3	-47.1	16.7	0.00e+00	0	44	0	150994944	60	4922
2026-01-07 08:38:44.67	103.82	14.21	-44.0	-46.8	17.1	0.00e+00	0	44	0	156237824	60	4708
2026-01-07 08:38:47.67	103.42	14.45	-44.5	-47.3	16.5	0.00e+00	0	44	0	161480704	59	5315
2026-01-07 08:38:50.66	103.01	14.68	-44.1	-46.9	17.0	0.00e+00	0	44	0	167772160	60	4763
2026-01-07 08:38:53.66	102.59	14.93	-44.0	-46.6	17.2	0.00e+00	0	44	0	173015040	59	4895
2026-01-07 08:38:56.66	102.17	15.17	-44.1	-46.9	16.9	0.00e+00	0	44	0	179306496	59	5064
2026-01-07 08:38:59.66	101.73	15.41	-44.0	-46.7	17.1	0.00e+00	0	43	0	184549376	59	4927
2026-01-07 08:39:02.65	101.30	15.65	-44.1	-46.8	17.0	0.00e+00	0	44	0	189792256	59	5007
2026-01-07 08:39:05.65	100.85	15.89	-44.4	-47.2	16.6	0.00e+00	0	44	0	196083712	59	5273
2026-01-07 08:39:08.64	100.40	16.14	-44.0	-46.6	17.2	0.00e+00	0	44	0	201326592	59	4922
2026-01-07 08:39:11.64	99.94	16.38	-45.1	-48.1	15.8	0.00e+00	0	44	0	206569472	60	5519
2026-01-07 08:39:14.64	99.47	16.62	-44.5	-47.2	16.7	0.00e+00	0	44	0	212860928	60	4969
2026-01-07 08:39:17.63	98.99	16.87	-45.2	-48.4	15.6	0.00e+00	0	44	0	218103808	61	5394
2026-01-07 08:39:20.63	98.51	17.12	-44.9	-48.0	16.0	0.00e+00	0	44	0	223346688	61	5104
2026-01-07 08:39:23.62	98.02	17.36	-45.2	-48.3	15.7	0.00e+00	0	44	0	229638144	61	5302
2026-01-07 08:39:26.63	97.51	17.61	-44.9	-47.9	16.1	0.00e+00	0	44	0	234881024	61	5092
2026-01-07 08:39:29.63	97.01	17.85	-44.9	-47.8	16.1	0.00e+00	0	44	0	241172480	61	5027
2026-01-07 08:39:32.63	96.49	18.10	-44.8	-47.7	16.3	0.00e+00	0	43	0	246415360	61	4951
2026-01-07 08:39:35.63	95.96	18.35	-44.3	-46.9	17.0	0.00e+00	0	44	0	251658240	60	4814
2026-01-07 08:39:38.63	95.43	18.59	-44.5	-47.3	16.7	0.00e+00	0	44	0	257949696	60	4998
2026-01-07 08:39:41.63	94.88	18.84	-44.9	-47.9	16.1	0.00e+00	0	44	0	263192576	60	5394
2026-01-07 08:39:44.63	94.33	19.09	-44.5	-47.3	16.7	0.00e+00	0	44	0	268435456	60	5031
2026-01-07 08:39:47.62	93.77	19.33	-44.8	-47.7	16.3	0.00e+00	0	44	0	274726912	60	5273
2026-01-07 08:39:50.60	93.20	19.57	-43.9	-46.4	17.4	0.00e+00	0	44	0	279969792	59	4813
2026-01-07 08:39:53.57	92.63	19.82	-44.1	-46.7	17.2	0.00e+00	0	43	0	285212672	59	4979
2026-01-07 08:39:56.56	92.04	20.06	-44.7	-47.6	16.4	0.00e+00	0	44	0	291504128	60	5190
2026-01-07 08:39:59.54	91.45	20.30	-44.4	-47.3	16.7	0.00e+00	0	44	0	296747008	60	4996
2026-01-07 08:40:02.52	90.84	20.54	-44.3	-47.0	17.0	0.00e+00	0	44	0	301989888	60	4852
2026-01-07 08:40:05.51	90.23	20.78	-43.8	-46.4	17.5	0.00e+00	0	44	0	308281344	59	4788
2026-01-07 08:40:08.51	89.60	21.02	-43.6	-46.3	17.6	0.00e+00	0	44	0	313524224	58	4991
2026-01-07 08:40:11.50	88.96	21.26	-43.6	-46.3	17.6	0.00e+00	0	44	0	318767104	58	4996
2026-01-07 08:40:14.50	88.32	21.50	-43.5	-46.1	17.9	0.00e+00	0	44	0	325058560	58	4873
2026-01-07 08:40:17.49	87.66	21.73	-43.3	-45.7	18.2	0.00e+00	0	44	0	330301440	58	4702
2026-01-07 08:40:20.48	87.00	21.96	-42.9	-45.3	18.6	0.00e+00	0	44	0	335544320	57	4709
2026-01-07 08:40:23.48	86.32	22.19	-42.9	-45.3	18.2	0.00e+00	0	44	0	341835776	57	4722
2026-01-07 08:40:26.46	85.64	22.42	-43.2	-45.6	18.3	0.00e+00	0	44	0	347078656	57	4914
2026-01-07 08:40:29.45	84.94	22.65	-42.9	-45.3	18.5	0.00e+00	0	44	0	352321536	57	4730
2026-01-07 08:40:32.45	84.23	22.87	-42.5	-44.8	19.0	0.00e+00	0	44	0	358612992	56	4715
2026-01-07 08:40:35.45	83.51	23.09	-42.8	-45.1	18.7	0.00e+00	0	44	0	363855872	56	4925
2026-01-07 08:40:38.43	82.79	23.31	-42.4	-44.9	18.8	0.00e+00	0	44	0	370147328	56	4772
2026-01-07 08:40:41.42	82.06	23.52	-42.5	-45.0	18.7	0.00e+00	0	44	0	375390208	56	4837
2026-01-07 08:40:44.42	81.31	23.73	-42.8	-45.3	18.5	0.00e+00	0	44	0	380633088	56	4989
2026-01-07 08:40:47.41	80.55	23.94	-43.3	-45.9	17.9	0.00e+00	0	44	0	386924544	57	5085
2026-01-07 08:40:50.41	79.78	24.14	-43.0	-45.6	18.2	0.00e+00	0	44	0	392167424	57	4874
2026-01-07 08:40:53.40	79.01	24.34	-42.9	-45.4	18.3	0.00e+00	0	44	0	397410304	57	4813
2026-01-07 08:40:56.39	78.22	24.53	-42.6	-45.0	18.7	0.00e+00	0	44	0	403701760	57	4551
2026-01-07 08:40:59.39	77.42	24.72	-42.7	-45.2	18.6	0.00e+00	0	44	0	408944640	57	4675
2026-01-07 08:41:02.37	76.62	24.91	-42.5	-44.9	18.9	0.00e+00	0	44	0	414187520	57	4510
2026-01-07 08:41:05.37	75.80	25.09	-42.2	-44.4	19.2	0.00e+00	0	44	0	420478976	56	4534
2026-01-07 08:41:08.37	74.98	25.26	-42.3	-44.6	19.1	0.00e+00	0	44	0	425721856	56	4643
2026-01-07 08:41:11.36	74.14	25.43	-42.6	-45.0	18.7	0.00e+00	0	44	0	430964736	56	4852
2026-01-07 08:41:14.35	73.30	25.60	-42.9	-45.4	18.4	0.00e+00	0	44	0	437256192	56	5074
2026-01-07 08:41:17.34	72.45	25.75	-42.9	-45.4	18.4	0.00e+00	0	44	0	442499072	56	5051
2026-01-07 08:41:20.34	71.59	25.91	-43.1	-45.6	18.2	0.00e+00	0	44	0	447741952	56	5181
2026-01-07 08:41:23.33	70.72	26.05	-43.4	-46.0	17.9	0.00e+00	0	44	0	454033408	57	5124
2026-01-07 08:41:26.31	69.85	26.19	-43.8	-46.5	17.4	0.00e+00	0	44	0	459276288	58	5150
2026-01-07 08:41:29.31	68.97	26.32	-44.2	-47.1	16.9	0.00e+00	0	44	0	464519168	59	5174
2026-01-07 08:41:32.30	68.08	26.45	-44.0	-46.8	17.2	0.00e+00	0	44	0	470810624	59	4999
2026-01-07 08:41:35.29	67.18	26.57	-43.9	-46.6	17.3	0.00e+00	0	44	0	476053504	59	4898
2026-01-07 08:41:38.28	66.28	26.68	-44.7	-47.8	16.2	0.00e+00	0	44	0	482344960	60	5309
2026-01-07 08:41:41.27	65.37	26.78	-44.7	-47.8	16.2	0.00e+00	0	43	0	487587840	60	5309
2026-01-07 08:41:44.27	64.46	26.88	-44.2	-47.1	16.9	0.00e+00	0	44	0	492830720	60	4890
2026-01-07 08:41:47.26	63.54	26.97	-44.4	-47.3	16.6	0.00e+00	0	44	0	499122176	59	5318
2026-01-07 08:41:50.25	62.61	27.05	-44.2	-47.2	16.7	0.00e+00	0	44	0	504365056	59	5227
2026-01-07 08:41:53.24	61.68	27.12	-43.7	-46.4	17.5	0.00e+00	0	44	0	509607936	59	4768
2026-01-07 08:41:56.24	60.75	27.18	-44.0	-46.8	17.0	0.00e+00	0	44	0	515899392	59	5031
2026-01-07 08:41:59.23	59.81	27.24	-44.6	-47.7	16.3	0.00e+00	0	44	0	521142272	59	5566
2026-01-07 08:42:02.22	58.87	27.29	-45.1	-48.5	15.5	0.00e+00	0	44	0	526385152	61	5413
2026-01-07 08:42:05.21	57.93	27.32	-44.4	-47.4	16.6	0.00e+00	0	44	0	532676608	60	5056
2026-01-07 08:42:08.21	56.99	27.36	-43.5	-46.1	17.8	0.00e+00	0	44	0	537919488	59	4617
2026-01-07 08:42:11.20	56.04	27.38	-44.0	-46.8	17.2	0.00e+00	0	43	0	543162368	58	5285
2026-01-07 08:42:14.19	55.09	27.39	-44.1	-46.8	17.0	0.00e+00	0	44	0	549453824	59	5041
2026-01-07 08:42:17.17	54.15	27.39	-43.9	-46.7	17.3	0.00e+00	0	44	0	554696704	59	4937
2026-01-07 08:42:20.17	53.20	27.39	-43.5	-46.2	17.7	0.00e+00	0	44	0	559939584	59	4659
2026-01-07 08:42:23.16	52.26	27.38	-43.8	-46.5	17.4	0.00e+00	0	44	0	566231040	58	5120
2026-01-07 08:42:26.15	51.31	27.36	-44.0	-46.8	17.0	0.00e+00	0	44	0	571473920	59	5027
2026-01-07 08:42:29.14	50.37	27.33	-43.8	-46.6	17.4	0.00e+00	0	44	0	577765376	59	4878
2026-01-07 08:42:32.13	49.43	27.29	-42.6	-44.9	18.9	0.00e+00	0	44	0	583008256	57	4531
2026-01-07 08:42:35.13	48.49	27.24	-42.9	-45.4	18.5	0.00e+00	0	44	0	588251136	57	4760
2026-01-07 08:42:38.12	47.55	27.18	-42.9	-45.3	18.4	0.00e+00	0	44	0	594542592	57	4750
2026-01-07 08:42:41.12	46.62	27.12	-42.9	-45.4	18.5	0.00e+00	0	44	0	599785472	57	4762
2026-01-07 08:42:44.11	45.69	27.05	-43.5	-46.1	17.8	0.00e+00	0	44	0	605028352	57	5168
2026-01-07 08:42:47.10	44.76	26.97	-43.5	-46.0	17.8	0.00e+00	0	43	0	611319808	58	4863
2026-01-07 08:42:50.09	43.85	26.88	-43.7	-46.3	17.7	0.00e+00	0	44	0	616562688	58	5024
2026-01-07 08:42:53.07	42.94	26.79	-44.1	-46.8	17.2	0.00e+00	0	44	0	621805568	58	5322
2026-01-07 08:42:56.07	42.03	26.68	-43.7	-46.3	17.6	0.00e+00	0	44	0	628097024	58	5038
2026-01-07 08:42:59.05	41.13	26.57	-43.4	-45.9	18.0	0.00e+00	0	44	0	633339904	58	4763
2026-01-07 08:43:02.05	40.23	26.45	-43.6	-46.1	17.8	0.00e+00	0	44	0	638582784	58	4912
2026-01-07 08:43:05.04	39.34	26.33	-43.5	-46.0	17.9	0.00e+00	0	44	0	644874240	58	4866
2026-01-07 08:43:08.03	38.46	26.20	-43.9	-46.6	17.4	0.00e+00	0	44	0	650117120	58	5163
2026-01-07 08:43:11.02	37.59	26.06	-44.2	-47.0	17.0	0.00e+00	0	44	0	655360000	59	5142
2026-01-07 08:43:14.02	36.72	25.91	-44.6	-47.7	16.4	0.00e+00	0	44	0	661651456	60	5222
2026-01-07 08:43:17.01	35.87	25.76	-44.6	-47.7	16.4	0.00e+00	0	44	0	666894336	60	5223
2026-01-07 08:43:20.00	35.02	25.61	-44.7	-47.8	16.2	0.00e+00	0	44	0	672137216	60	5326
2026-01-07 08:43:22.99	34.18	25.44	-44.4	-47.3	16.7	0.00e+00	0	44	0	678428672	60	5016
2026-01-07 08:43:25.98	33.35	25.27	-44.3	-47.3	16.7	0.00e+00	0	44	0	683671552	60	5035
2026-01-07 08:43:28.97	32.53	25.10	-44.1	-47.0	17.0	0.00e+00	0	44	0	688914432	60	4832
2026-01-07 08:43:31.95	31.72	24.92	-44.0	-46.9	17.0	0.00e+00	0	44	0	695205888	59	5045
2026-01-07 08:43:34.95	30.91	24.74	-43.1	-45.8	18.0	0.00e+00	0	44	0	700448768	58	4720
2026-01-07 08:43:37.94	30.12	24.55	-44.3	-47.3	16.6	0.00e+00	0	44	0	706740224	59	5303
2026-01-07 08:43:40.93	29.34	24.35	-44.5	-47.6	16.4	0.00e+00	0	44	0	711983104	60	5179
2026-01-07 08:43:43.92	28.56	24.16	-44.9	-48.3	15.7	0.00e+00	0	44	0	717225984	60	5613
2026-01-07 08:43:46.92	27.80	23.95	-44.2	-47.1	16.8	0.00e+00	0	44	0	723517440	60	4926
2026-01-07 08:43:49.91	27.04	23.75	-43.9	-46.7	17.2	0.00e+00	0	44	0	728760320	59	4964
2026-01-07 08:43:52.90	26.30	23.54	-44.3	-47.4	16.6	0.00e+00	0	44	0	734003200	59	5353
2026-01-07 08:43:55.89	25.56	23.33	-43.9	-46.8	17.0	0.00e+00	0	44	0	740294656	59	5035
2026-01-07 08:43:58.88	24.84	23.11	-43.1	-45.9	18.0	0.00e+00	0	44	0	745537536	58	4770
2026-01-07 08:44:01.87	24.13	22.89	-42.9	-45.6	18.2	0.00e+00	0	44	0	750780416	57	4905
2026-01-07 08:44:04.85	23.43	22.67	-42.8	-45.5	18.3	0.00e+00	0	44	0	757071872	57	4838
2026-01-07 08:44:07.84	22.73	22.45	-42.8	-45.4	18.4	0.00e+00	0	44	0	762314752	57	4786
2026-01-07 08:44:10.84	22.05	22.22	-42.3	-44.7	19.0	0.00e+00	0	44	0	767557632	56	4697
2026-01-07 08:44:13.83	21.38	21.99	-42.1	-44.5	19.2	0.00e+00	0	44	0	773849088	56	4551
2026-01-07 08:44:16.82	20.71	21.76	-42.7	-45.2	18.6	0.00e+00	0	44	0	779091968	56	4962
2026-01-07 08:44:19.82	20.06	21.52	-43.3	-46.0	17.9	0.00e+00	0	44	0	784334848	57	5111
2026-01-07 08:44:22.81	19.42	21.29	-43.5	-46.3	17.6	0.00e+00	0	44	0	790626304	57	5281
2026-01-07 08:44:25.80	18.78	21.05	-43.2	-45.9	17.9	0.00e+00	0	44	0	795869184	57	5086
2026-01-07 08:44:28.78	18.16	20.82	-43.5	-46.2	17.6	0.00e+00	0	44	0	801112064	57	5263
2026-01-07 08:44:31.77	17.55	20.58	-42.3	-44.7	19.1	0.00e+00	0	44	0	807403520	56	4661
2026-01-07 08:44:34.77	16.94	20.34	-41.7	-43.9	19.6	0.00e+00	0	44	0	812646400	55	4534
2026-01-07 08:44:37.76	16.35	20.09	-41.8	-44.1	19.4	0.00e+00	0	44	0	817889280	55	4645
2026-01-07 08:44:40.76	15.76	19.85	-42.2	-44.5	19.1	0.00e+00	0	44	0	824180736	55	4867
2026-01-07 08:44:43.74	15.19	19.61	-42.2	-44.5	19.0	0.00e+00	0	44	0	829423616	55	4864
2026-01-07 08:44:46.74	14.62	19.37	-42.3	-44.7	18.9	0.00e+00	0	44	0	835715072	55	4934
2026-01-07 08:44:49.73	14.06	19.12	-42.4	-44.9	18.7	0.00e+00	0	44	0	840957952	55	5045
2026-01-07 08:44:52.72	13.52	18.88	-42.5	-45.0	18.6	0.00e+00	0	44	0	846200832	55	5125
2026-01-07 08:44:55.71	12.98	18.63	-42.8	-45.4	18.4	0.00e+00	0	44	0	852492288	56	5065
2026-01-07 08:44:58.70	12.45	18.39	-42.3	-44.8	18.9	0.00e+00	0	44	0	857735168	56	4737
2026-01-07 08:45:01.69	11.92	18.14	-42.1	-44.6	19.1	0.00e+00	0	44	0	862978048	56	4646
2026-01-07 08:45:04.68	11.41	17.90	-42.6	-45.4	18.4	0.00e+00	0	44	0	869269504	56	5089
2026-01-07 08:45:07.66	10.91	17.65	-43.3	-46.2	17.7	0.00e+00	0	44	0	874512384	57	5228
2026-01-07 08:45:10.66	10.41	17.41	-43.3	-46.0	17.8	0.00e+00	0	44	0	879755264	57	5140
2026-01-07 08:45:13.66	9.92	17.16	-43.1	-45.8	18.1	0.00e+00	0	44	0	886046720	57	4989
2026-01-07 08:45:16.65	9.44	16.92	-43.0	-45.7	18.1	0.00e+00	0	44	0	891289600	57	4966
2026-01-07 08:45:19.64	8.97	16.68	-43.3	-46.1	17.8	0.00e+00	0	44	0	896532480	57	5164
2026-01-07 08:45:22.63	8.50	16.43	-44.1	-47.1	16.9	0.00e+00	0	44	0	902823936	58	5469
2026-01-07 08:45:25.63	8.04	16.19	-43.8	-47.0	16.9	0.00e+00	0	44	0	908066816	58	5412
2026-01-07 08:45:28.62	7.59	15.95	-43.3	-46.2	17.6	0.00e+00	0	44	0	913309696	58	4955
2026-01-07 08:45:31.61	7.15	15.71	-43.2	-45.9	17.9	0.00e+00	0	44	0	919601152	57	5071
2026-01-07 08:45:34.61	6.72	15.47	-43.4	-46.3	17.5	0.00e+00	0	44	0	924844032	57	5320
2026-01-07 08:45:37.60	6.29	15.23	-43.6	-46.7	17.2	0.00e+00	0	44	0	930086912	58	5244
2026-01-07 08:45:40.59	5.87	14.99	-43.5	-46.4	17.4	0.00e+00	0	44	0	936378368	58	5070
2026-01-07 08:45:43.58	5.45	14.75	-43.2	-46.0	17.8	0.00e+00	0	44	0	941621248	58	4860
2026-01-07 08:45:46.58	5.04	14.51	-42.9	-45.7	18.0	0.00e+00	0	44	0	947912704	57	4971
2026-01-07 08:45:49.57	4.64	14.27	-43.2	-45.9	17.8	0.00e+00	0	44	0	953155584	57	5079
2026-01-07 08:45:52.55	4.25	14.04	-43.3	-46.1	17.6	0.00e+00	0	44	0	958398464	57	5188
2026-01-07 08:45:55.55	3.86	13.80	-43.5	-46.6	17.2	0.00e+00	0	44	0	964689920	57	5483
2026-01-07 08:45:58.54	3.48	13.57	-43.8	-46.8	17.0	0.00e+00	0	44	0	969932800	58	5301
2026-01-07 08:46:01.53	3.11	13.34	-43.9	-46.7	17.0	0.00e+00	0	44	0	975175680	58	5237
2026-01-07 08:46:04.52	2.74	13.10	-44.0	-46.8	16.8	0.00e+00	0	43	0	981467136	58	5325
2026-01-07 08:46:07.51	2.37	12.87	-44.3	-47.4	16.3	0.00e+00	0	44	0	986710016	59	5366
2026-01-07 08:46:10.50	2.02	12.64	-44.9	-48.7	15.1	0.00e+00	0	44	0	991952896	60	5856
2026-01-07 08:46:13.48	1.66	12.41	-44.5	-48.2	15.2	0.00e+00	0	44	0	998244352	60	5549
2026-01-07 08:46:16.48	1.32	12.19	-44.1	-47.2	16.5	0.00e+00	0	44	0	1003487232	60	4960
2026-01-07 08:46:19.47	0.98	11.96	-43.4	-46.5	16.9	0.00e+00	0	44	0	1008730112	58	5152
2026-01-07 08:46:22.46	0.64	11.73	-43.3	-46.8	16.1	0.00e+00	0	44	0	1015021568	58	5290
2026-01-07 08:46:25.45	0.31	11.51	-44.1	-47.7	14.9	0.00e+00	0	44	0	1020264448	58	5916
2026-01-07 08:46:28.44	359.98	11.29	-44.8	-49.0	13.2	6.80e-06	0	44	0	1025507328	60	6075
2026-01-07 08:46:31.43	359.66	11.06	-45.4	-49.7	11.4	4.48e-04	0	44	0	1031798784	61	6209
2026-01-07 08:46:34.43	359.35	10.84	-45.7	-49.9	11.7	9.38e-04	0	44	0	1037041664	62	6058
2026-01-07 08:46:37.42	359.04	10.62	-45.7	-50.2	13.4	2.28e-05	0	44	0	1042284544	62	6217
2026-01-07 08:46:40.41	358.73	10.40	-45.6	-49.8	13.4	1.14e-05	0	44	0	1048576000	62	5977
2026-01-07 08:46:43.40	358.43	10.19	-45.3	-49.2	14.3	3.00e-06	0	44	0	1053818880	62	5586
2026-01-07 08:46:46.40	358.14	9.97	-45.4	-49.3	14.5	3.00e-06	0	44	0	1060110336	62	5614
2026-01-07 08:46:49.37	357.85	9.76	-45.6	-49.8	13.4	6.80e-06	0	44	0	1065353216	62	5977
2026-01-07 08:46:52.37	357.56	9.54	-45.3	-49.9	13.6	1.06e-05	0	44	0	1070596096	62	6020
2026-01-07 08:46:55.36	357.27	9.33	-44.7	-49.8	13.7	3.80e-06	0	44	0	1076887552	61	6308
2026-01-07 08:46:58.35	357.00	9.12	-44.1	-49.1	14.6	3.80e-06	0	44	0	1082130432	60	6137
2026-01-07 08:47:01.35	356.72	8.90	-49.6	-63.3	3.8	1.49e+00	0	44	104	1085276160	69	18796
2026-01-07 08:47:04.34	356.45	8.69	-49.8	-65.5	3.8	1.49e+00	0	44	104	1085276160	71	21624
2026-01-07 08:47:07.33	356.18	8.49	-50.5	-65.7	3.8	1.49e+00	0	44	104	1085276160	71	22034
2026-01-07 08:47:10.32	355.92	8.28	-50.4	-65.7	3.8	1.49e+00	0	44	104	1085276160	71	22135
2026-01-07 08:47:13.31	355.66	8.07	-50.5	-65.7	3.8	1.49e+00	0	44	104	1085276160	71	22221
2026-01-07 08:47:16.30	355.41	7.87	-50.4	-65.8	3.8	1.49e+00	0	44	104	1085276160	71	22287
2026-01-07 08:47:19.29	355.16	7.66	-50.7	-65.8	3.8	1.49e+00	0	44	104	1085276160	71	22305
2026-01-07 08:47:22.28	354.91	7.46	-50.5	-65.8	3.8	1.49e+00	0	44	104	1085276160	71	22274
2026-01-07 08:47:25.27	354.67	7.26	-50.4	-65.7	3.8	1.49e+00	0	44	104	1085276160	72	20918
2026-01-07 08:47:28.27	354.43	7.06	-50.4	-65.7	3.8	1.49e+00	0	44	104	1085276160	72	20945
2026-01-07 08:47:31.25	354.19	6.86	-50.2	-65.7	3.8	1.49e+00	0	44	104	1085276160	72	20917
2026-01-07 08:47:34.25	353.95	6.66	-50.2	-65.7	3.8	1.49e+00	0	44	104	1085276160	72	20952
2026-01-07 08:47:37.24	353.72	6.46	-50.2	-65.7	3.8	1.49e+00	0	44	104	1085276160	72	20932
2026-01-07 08:47:40.24	353.50	6.26	-50.2	-65.7	3.8	1.49e+00	0	44	104	1085276160	72	20913
2026-01-07 08:47:43.23	353.27	6.07	-50.2	-65.7	3.8	1.49e+00	0	44	104	1085276160	72	20880
2026-01-07 08:47:46.22	353.05	5.87	-50.2	-65.7	3.8	1.49e+00	0	44	104	1085276160	72	20918
2026-01-07 08:47:49.21	352.84	5.68	-50.2	-65.7	3.8	1.49e+00	0	44	104	1085276160	72	20924
2026-01-07 08:47:52.20	352.62	5.49	-50.2	-65.7	3.8	1.49e+00	0	44	104	1085276160	72	20882
2026-01-07 08:47:55.19	352.41	5.30	-50.2	-65.7	3.8	1.49e+00	0	44	104	1085276160	72	20860
2026-01-07 08:47:58.19	352.20	5.11	-50.2	-65.7	3.8	1.49e+00	0	44	104	1085276160	72	20915

#Closed at: 2026-01-07 08:48:01
#Recorded file [1085 MB]: D:/Data/31040_260107_113635.dat