passes_logs/2026/01/07/T1/T1__20260107_101539_SUOMI_NPP_rec.log

#Pass ID: 20260107_101539_SUOMI NPP
#Satellite: SUOMI NPP
#Configuration: NPP
#almurnet v.1.7.20251203
#Start time: 2026-01-07 10:15:40

#Version: 2.0.20230620
#Station: T1
#Location: 37.570604 lon 55.790049 lat
#TLE: 1 37849U 11061A   26005.94084933  .00000134  00000+0  84554-4 0  9990
#TLE: 2 37849  98.7803 308.0679 0002567  79.1029 281.0436 14.19522657735426

#Time	Az	El	Level	Level2	SNR	BER	BlckErr	Temp	State	Recorded	gain1	gain2
2026-01-07 10:15:40.89	168.51	5.10	-47.6	-65.2	3.8	1.49e+00	0	37	0	0	67	26221
2026-01-07 10:15:44.90	168.58	5.39	-47.3	-65.0	3.8	1.49e+00	0	37	104	0	65	28921
2026-01-07 10:15:48.91	168.65	5.68	-47.2	-65.2	3.8	1.49e+00	0	38	104	0	65	29459
2026-01-07 10:15:52.90	168.71	5.98	-47.2	-64.9	3.9	1.49e+00	0	38	104	0	65	28615
2026-01-07 10:15:56.90	168.78	6.28	-47.1	-64.5	3.8	1.49e+00	0	38	104	0	65	27259
2026-01-07 10:16:00.90	168.85	6.58	-47.2	-64.5	3.8	1.49e+00	0	38	104	0	65	27282
2026-01-07 10:16:04.90	168.92	6.88	-47.2	-64.9	3.8	1.49e+00	0	38	104	0	65	28483
2026-01-07 10:16:08.89	169.00	7.19	-47.2	-64.6	3.8	1.49e+00	0	38	104	0	65	27427
2026-01-07 10:16:12.89	169.07	7.50	-47.1	-62.3	4.0	1.46e+00	0	38	0	0	65	21091
2026-01-07 10:16:16.88	169.15	7.82	-46.9	-58.8	5.5	5.66e-01	0	39	0	4194304	65	14118
2026-01-07 10:16:20.87	169.22	8.14	-46.7	-56.7	7.2	1.39e-01	0	38	0	12582912	65	11119
2026-01-07 10:16:24.87	169.30	8.46	-46.8	-57.6	6.4	1.94e-01	0	39	0	19922944	65	12295
2026-01-07 10:16:28.87	169.38	8.79	-47.1	-61.0	4.4	9.05e-01	0	39	0	27262976	65	18261
2026-01-07 10:16:32.87	169.46	9.13	-47.4	-64.0	3.8	1.49e+00	0	39	104	27262976	65	25726
2026-01-07 10:16:36.89	169.54	9.47	-46.6	-53.5	10.3	2.39e-01	0	39	0	29360128	65	7644
2026-01-07 10:16:40.89	169.63	9.81	-45.4	-49.7	14.5	0.00e+00	0	39	0	36700160	62	5863
2026-01-07 10:16:44.89	169.72	10.16	-44.9	-48.5	15.7	0.00e+00	0	39	0	44040192	61	5430
2026-01-07 10:16:48.90	169.80	10.51	-44.6	-48.2	16.0	0.00e+00	0	39	0	51380224	61	5267
2026-01-07 10:16:52.91	169.89	10.87	-44.6	-48.2	16.0	0.00e+00	0	39	0	58720256	61	5249
2026-01-07 10:16:56.89	169.99	11.23	-44.9	-48.3	16.0	0.00e+00	0	39	0	67108864	61	5338
2026-01-07 10:17:00.89	170.08	11.59	-44.6	-47.7	16.6	0.00e+00	0	39	0	74448896	61	4951
2026-01-07 10:17:04.89	170.18	11.97	-44.4	-47.4	16.9	0.00e+00	0	39	0	81788928	60	5061
2026-01-07 10:17:08.89	170.27	12.35	-44.3	-47.2	17.0	0.00e+00	0	39	0	89128960	60	4932
2026-01-07 10:17:12.89	170.37	12.73	-44.2	-46.9	17.4	0.00e+00	0	39	0	96468992	60	4794
2026-01-07 10:17:16.89	170.48	13.12	-44.3	-47.0	17.4	0.00e+00	0	40	0	103809024	60	4845
2026-01-07 10:17:20.89	170.58	13.52	-44.2	-46.9	17.5	0.00e+00	0	39	0	111149056	60	4766
2026-01-07 10:17:24.88	170.69	13.92	-44.2	-46.9	17.4	0.00e+00	0	40	0	119537664	60	4814
2026-01-07 10:17:28.89	170.80	14.33	-44.1	-46.8	17.6	0.00e+00	0	39	0	126877696	60	4716
2026-01-07 10:17:32.89	170.92	14.75	-44.0	-46.6	17.7	0.00e+00	0	40	0	134217728	59	4920
2026-01-07 10:17:36.89	171.03	15.18	-43.8	-46.4	17.9	0.00e+00	0	40	0	141557760	59	4796
2026-01-07 10:17:40.89	171.15	15.61	-44.0	-46.6	17.7	0.00e+00	0	40	0	148897792	59	4907
2026-01-07 10:17:44.89	171.27	16.05	-43.8	-46.3	18.0	0.00e+00	0	40	0	156237824	59	4730
2026-01-07 10:17:48.89	171.40	16.50	-43.8	-46.3	18.1	0.00e+00	0	40	0	163577856	59	4748
2026-01-07 10:17:52.88	171.53	16.95	-43.9	-46.5	17.9	0.00e+00	0	40	0	171966464	59	4823
2026-01-07 10:17:56.88	171.66	17.42	-44.0	-46.6	17.9	0.00e+00	0	40	0	179306496	59	4875
2026-01-07 10:18:00.89	171.80	17.89	-44.0	-46.5	17.9	0.00e+00	0	40	0	186646528	59	4852
2026-01-07 10:18:04.90	171.94	18.38	-44.2	-46.8	17.8	0.00e+00	0	40	0	193986560	59	4987
2026-01-07 10:18:08.90	172.09	18.87	-44.6	-47.3	17.2	0.00e+00	0	40	0	201326592	59	5297
2026-01-07 10:18:12.89	172.24	19.37	-44.7	-47.5	17.1	0.00e+00	0	40	0	208666624	60	5152
2026-01-07 10:18:16.89	172.39	19.89	-44.7	-47.6	17.0	0.00e+00	0	40	0	217055232	60	5192
2026-01-07 10:18:20.89	172.55	20.41	-45.1	-48.1	16.4	0.00e+00	0	40	0	224395264	61	5163
2026-01-07 10:18:24.88	172.71	20.94	-45.3	-48.3	16.4	0.00e+00	0	40	0	231735296	61	5297
2026-01-07 10:18:28.88	172.88	21.49	-45.3	-48.3	16.3	0.00e+00	0	40	0	239075328	61	5311
2026-01-07 10:18:32.87	173.06	22.04	-45.2	-48.2	16.5	0.00e+00	0	40	0	246415360	61	5235
2026-01-07 10:18:36.87	173.24	22.61	-45.3	-48.3	16.5	0.00e+00	0	40	0	253755392	61	5299
2026-01-07 10:18:40.88	173.43	23.20	-45.2	-48.1	16.7	0.00e+00	0	40	0	261095424	61	5160
2026-01-07 10:18:44.86	173.62	23.79	-44.9	-47.6	17.2	0.00e+00	0	40	0	269484032	61	4915
2026-01-07 10:18:48.87	173.82	24.40	-45.0	-47.8	17.0	0.00e+00	0	40	0	276824064	61	5003
2026-01-07 10:18:52.88	174.03	25.03	-44.9	-47.6	17.1	0.00e+00	0	40	0	284164096	61	4917
2026-01-07 10:18:56.87	174.25	25.66	-44.7	-47.4	17.4	0.00e+00	0	40	0	291504128	61	4777
2026-01-07 10:19:00.88	174.47	26.32	-44.9	-47.6	17.1	0.00e+00	0	40	0	298844160	60	5168
2026-01-07 10:19:04.87	174.71	26.99	-45.1	-47.9	17.1	0.00e+00	0	40	0	306184192	60	5343
2026-01-07 10:19:08.84	174.95	27.67	-44.8	-47.5	17.3	0.00e+00	0	40	0	313524224	61	4843
2026-01-07 10:19:12.82	175.20	28.37	-45.3	-48.1	16.8	0.00e+00	0	40	0	321912832	61	5205
2026-01-07 10:19:16.81	175.47	29.09	-45.8	-48.7	16.4	0.00e+00	0	40	0	329252864	62	5243
2026-01-07 10:19:20.80	175.74	29.82	-45.9	-49.0	16.0	0.00e+00	0	40	0	336592896	62	5464
2026-01-07 10:19:24.80	176.03	30.58	-46.2	-49.3	15.7	0.00e+00	0	40	0	343932928	63	5296
2026-01-07 10:19:28.81	176.33	31.36	-46.4	-49.6	15.5	0.00e+00	0	40	0	351272960	64	5199
2026-01-07 10:19:32.79	176.65	32.15	-46.6	-49.9	15.3	0.00e+00	0	40	0	358612992	64	5347
2026-01-07 10:19:36.79	176.98	32.97	-46.4	-49.5	15.7	0.00e+00	0	40	0	365953024	64	5128
2026-01-07 10:19:40.78	177.33	33.81	-46.2	-49.2	16.0	0.00e+00	0	40	0	374341632	64	4982
2026-01-07 10:19:44.78	177.70	34.67	-46.8	-50.1	15.1	0.00e+00	0	40	0	381681664	64	5520
2026-01-07 10:19:48.77	178.08	35.55	-46.5	-49.8	15.7	0.00e+00	0	40	0	389021696	64	5300
2026-01-07 10:19:52.77	178.49	36.46	-46.4	-49.6	15.7	0.00e+00	0	41	0	396361728	64	5164
2026-01-07 10:19:56.76	178.92	37.39	-46.1	-49.1	16.0	0.00e+00	0	40	0	403701760	64	4915
2026-01-07 10:20:00.76	179.37	38.35	-46.1	-49.0	16.5	0.00e+00	0	40	0	411041792	63	5114
2026-01-07 10:20:04.76	179.85	39.34	-46.3	-49.3	16.3	0.00e+00	0	40	0	418381824	63	5291
2026-01-07 10:20:08.76	180.36	40.35	-47.4	-51.0	14.5	7.00e-07	0	40	0	426770432	65	5748
2026-01-07 10:20:12.76	180.91	41.39	-47.3	-50.7	14.7	0.00e+00	0	40	0	434110464	66	5277
2026-01-07 10:20:16.76	181.49	42.45	-46.1	-48.9	16.6	0.00e+00	0	40	0	441450496	64	4783
2026-01-07 10:20:20.77	182.11	43.55	-45.5	-48.1	17.5	0.00e+00	0	40	0	448790528	62	4887
2026-01-07 10:20:24.78	182.77	44.67	-46.5	-49.4	16.2	0.00e+00	0	40	0	456130560	64	5072
2026-01-07 10:20:28.79	183.48	45.83	-47.1	-50.2	15.1	0.00e+00	0	40	0	463470592	65	5247
2026-01-07 10:20:32.79	184.24	47.00	-47.6	-51.0	14.7	0.00e+00	0	40	0	471859200	66	5428
2026-01-07 10:20:36.79	185.07	48.21	-48.4	-52.3	13.9	8.30e-06	0	40	0	479199232	68	5634
2026-01-07 10:20:40.79	185.95	49.44	-46.0	-48.7	17.1	0.00e+00	0	41	0	486539264	63	4965
2026-01-07 10:20:44.80	186.92	50.71	-45.7	-48.3	17.7	0.00e+00	0	40	0	493879296	62	5030
2026-01-07 10:20:48.80	187.97	52.00	-44.8	-47.1	18.8	0.00e+00	0	40	0	501219328	61	4650
2026-01-07 10:20:52.81	189.11	53.31	-43.9	-46.0	19.7	0.00e+00	0	41	0	508559360	59	4580
2026-01-07 10:20:56.82	190.36	54.65	-43.8	-45.9	19.9	0.00e+00	0	40	0	515899392	59	4531
2026-01-07 10:21:00.82	191.73	56.00	-43.1	-45.1	20.6	0.00e+00	0	41	0	524288000	57	4619
2026-01-07 10:21:04.83	193.25	57.38	-43.4	-45.5	20.2	0.00e+00	0	40	0	531628032	58	4558
2026-01-07 10:21:08.84	194.92	58.76	-43.7	-45.9	20.0	0.00e+00	0	40	0	538968064	58	4768
2026-01-07 10:21:12.85	196.78	60.16	-42.8	-44.7	21.0	0.00e+00	0	40	0	546308096	56	4683
2026-01-07 10:21:16.85	198.84	61.55	-43.5	-45.6	20.1	0.00e+00	0	41	0	553648128	58	4613
2026-01-07 10:21:20.86	201.15	62.94	-44.8	-47.1	19.0	0.00e+00	0	40	0	560988160	61	4605
2026-01-07 10:21:24.86	203.74	64.31	-44.1	-46.2	19.7	0.00e+00	0	41	0	569376768	59	4698
2026-01-07 10:21:28.87	206.66	65.65	-43.9	-46.0	20.0	0.00e+00	0	41	0	576716800	59	4556
2026-01-07 10:21:32.88	209.95	66.95	-46.5	-49.2	17.3	0.00e+00	0	41	0	584056832	63	5226
2026-01-07 10:21:36.89	213.66	68.20	-45.9	-48.6	17.6	0.00e+00	0	41	0	591396864	63	4893
2026-01-07 10:21:40.90	217.84	69.37	-46.3	-49.1	17.0	0.00e+00	0	41	0	598736896	63	5173
2026-01-07 10:21:44.90	222.52	70.43	-46.3	-49.0	17.1	0.00e+00	0	41	0	606076928	64	4851
2026-01-07 10:21:48.91	227.75	71.37	-47.3	-50.6	15.5	0.00e+00	0	40	0	614465536	66	5203
2026-01-07 10:21:52.92	233.53	72.16	-45.4	-47.9	18.2	0.00e+00	0	40	0	621805568	62	4790
2026-01-07 10:21:56.92	239.77	72.76	-45.4	-47.9	18.1	0.00e+00	0	41	0	629145600	62	4776
2026-01-07 10:22:00.92	246.42	73.16	-44.9	-47.3	18.8	0.00e+00	0	40	0	636485632	61	4754
2026-01-07 10:22:04.94	253.33	73.33	-44.4	-46.7	19.4	0.00e+00	0	40	0	643825664	59	4933
2026-01-07 10:22:08.95	260.28	73.28	-45.4	-47.9	18.3	0.00e+00	0	41	0	651165696	61	5077
2026-01-07 10:22:12.95	267.06	72.99	-46.1	-48.8	17.5	0.00e+00	0	41	0	659554304	62	5323
2026-01-07 10:22:16.96	273.54	72.49	-48.1	-51.7	14.5	4.50e-06	0	40	0	666894336	67	5560
2026-01-07 10:22:20.96	279.56	71.80	-46.7	-49.5	16.7	0.00e+00	0	41	0	674234368	65	4826
2026-01-07 10:22:24.97	285.06	70.93	-47.9	-51.4	14.9	0.00e+00	0	41	0	681574400	67	5361
2026-01-07 10:22:28.97	290.02	69.93	-47.8	-51.3	15.1	7.00e-07	0	40	0	688914432	67	5296
2026-01-07 10:22:32.97	294.44	68.82	-48.0	-51.6	14.8	0.00e+00	0	40	0	696254464	66	5800
2026-01-07 10:22:36.98	298.38	67.61	-47.7	-51.2	15.0	0.00e+00	0	41	0	704643072	66	5584
2026-01-07 10:22:41.00	301.89	66.34	-46.9	-50.2	16.0	0.00e+00	0	41	0	711983104	65	5243
2026-01-07 10:22:45.01	304.99	65.01	-44.2	-46.7	19.3	0.00e+00	0	41	0	719323136	60	4655
2026-01-07 10:22:49.01	307.73	63.66	-44.0	-46.3	19.6	0.00e+00	0	41	0	726663168	60	4468
2026-01-07 10:22:53.02	310.18	62.28	-42.5	-44.6	21.0	0.00e+00	0	41	0	734003200	57	4351
2026-01-07 10:22:57.02	312.36	60.90	-44.3	-46.8	19.2	0.00e+00	0	41	0	741343232	60	4712
2026-01-07 10:23:01.02	314.32	59.51	-45.2	-47.9	18.1	0.00e+00	0	40	0	749731840	61	5071
2026-01-07 10:23:05.03	316.08	58.12	-44.5	-47.0	18.9	0.00e+00	0	41	0	757071872	59	5114
2026-01-07 10:23:09.04	317.68	56.75	-44.2	-46.5	19.2	0.00e+00	0	41	0	764411904	59	4863
2026-01-07 10:23:13.04	319.12	55.39	-44.5	-47.1	18.7	0.00e+00	0	41	0	771751936	59	5180
2026-01-07 10:23:17.06	320.43	54.04	-44.0	-46.4	19.3	0.00e+00	0	41	0	779091968	58	5063
2026-01-07 10:23:21.07	321.63	52.72	-43.8	-46.2	19.5	0.00e+00	0	41	0	786432000	59	4694
2026-01-07 10:23:25.08	322.72	51.42	-43.2	-45.5	20.1	0.00e+00	0	41	0	794820608	57	4830
2026-01-07 10:23:29.08	323.73	50.15	-44.9	-47.6	18.3	0.00e+00	0	41	0	802160640	61	4925
2026-01-07 10:23:33.09	324.66	48.91	-46.1	-49.2	16.8	0.00e+00	0	41	0	809500672	62	5531
2026-01-07 10:23:37.09	325.51	47.69	-47.9	-52.5	13.6	6.80e-06	0	41	0	816840704	66	6468
2026-01-07 10:23:41.10	326.31	46.50	-46.1	-49.1	16.7	0.00e+00	0	41	0	824180736	64	4910
2026-01-07 10:23:45.10	327.04	45.34	-47.4	-51.2	14.9	0.00e+00	0	41	0	831520768	65	5890
2026-01-07 10:23:49.12	327.73	44.20	-45.8	-48.7	17.3	0.00e+00	0	41	0	839909376	63	4961
2026-01-07 10:23:53.13	328.38	43.10	-45.6	-48.5	17.4	0.00e+00	0	41	0	847249408	61	5448
2026-01-07 10:23:57.14	328.98	42.02	-45.6	-48.5	17.5	0.00e+00	0	41	0	854589440	63	4843
2026-01-07 10:24:01.15	329.54	40.97	-43.1	-45.2	20.3	0.00e+00	0	41	0	861929472	58	4432
2026-01-07 10:24:05.15	330.07	39.95	-45.7	-48.8	17.1	0.00e+00	0	41	0	869269504	61	5596
2026-01-07 10:24:09.14	330.57	38.96	-45.2	-48.1	17.6	0.00e+00	0	41	0	876609536	61	5208
2026-01-07 10:24:13.15	331.04	37.99	-45.5	-48.4	17.3	0.00e+00	0	41	0	884998144	62	5093
2026-01-07 10:24:17.16	331.48	37.04	-44.4	-47.1	18.5	0.00e+00	0	41	0	892338176	60	4884
2026-01-07 10:24:21.17	331.90	36.12	-45.8	-48.8	16.9	0.00e+00	0	41	0	899678208	62	5329
2026-01-07 10:24:25.17	332.30	35.23	-45.5	-48.4	17.1	0.00e+00	0	41	0	907018240	62	5084
2026-01-07 10:24:29.18	332.68	34.36	-45.7	-48.7	17.0	0.00e+00	0	41	0	914358272	62	5275
2026-01-07 10:24:33.18	333.04	33.51	-46.7	-50.3	15.3	0.00e+00	0	41	0	921698304	64	5656
2026-01-07 10:24:37.19	333.38	32.68	-46.6	-50.5	15.2	0.00e+00	0	41	0	930086912	64	5726
2026-01-07 10:24:41.19	333.71	31.88	-45.9	-49.1	16.6	0.00e+00	0	41	0	937426944	63	5169
2026-01-07 10:24:45.19	334.02	31.09	-45.3	-48.1	17.6	0.00e+00	0	41	0	944766976	62	4888
2026-01-07 10:24:49.20	334.31	30.33	-45.7	-48.7	17.0	0.00e+00	0	41	0	952107008	62	5245
2026-01-07 10:24:53.20	334.60	29.58	-45.8	-49.2	16.4	0.00e+00	0	41	0	959447040	62	5584
2026-01-07 10:24:57.20	334.87	28.85	-47.2	-51.3	14.2	0.00e+00	0	41	0	966787072	64	6307
2026-01-07 10:25:01.21	335.13	28.14	-47.7	-52.2	13.3	9.10e-06	0	41	0	974127104	66	6229
2026-01-07 10:25:05.22	335.38	27.45	-45.4	-48.4	17.0	0.00e+00	0	41	0	982515712	62	5048
2026-01-07 10:25:09.23	335.63	26.78	-43.5	-45.8	19.3	0.00e+00	0	41	0	989855744	59	4447
2026-01-07 10:25:13.24	335.86	26.12	-43.1	-45.4	19.7	0.00e+00	0	41	0	997195776	57	4789
2026-01-07 10:25:17.25	336.08	25.47	-44.4	-47.1	18.1	0.00e+00	0	41	0	1004535808	59	5164
2026-01-07 10:25:21.25	336.30	24.84	-45.0	-47.9	17.3	0.00e+00	0	41	0	1011875840	61	5081
2026-01-07 10:25:25.25	336.50	24.23	-44.2	-46.8	18.4	0.00e+00	0	41	0	1019215872	60	4725
2026-01-07 10:25:29.26	336.70	23.63	-43.9	-46.5	18.5	0.00e+00	0	41	0	1027604480	59	4837
2026-01-07 10:25:33.27	336.90	23.04	-43.6	-46.2	18.8	0.00e+00	0	41	0	1034944512	59	4661
2026-01-07 10:25:37.28	337.08	22.46	-43.3	-45.8	19.2	0.00e+00	0	41	0	1042284544	58	4708
2026-01-07 10:25:41.30	337.27	21.90	-43.6	-46.1	18.8	0.00e+00	0	41	0	1049624576	58	4924
2026-01-07 10:25:45.30	337.44	21.35	-44.0	-46.7	18.3	0.00e+00	0	41	0	1056964608	58	5277
2026-01-07 10:25:49.30	337.61	20.81	-44.3	-47.3	17.7	0.00e+00	0	41	0	1065353216	59	5320
2026-01-07 10:25:53.30	337.77	20.29	-43.8	-46.5	18.4	0.00e+00	0	41	0	1072693248	59	4859
2026-01-07 10:25:57.31	337.93	19.77	-43.2	-45.6	19.2	0.00e+00	0	41	0	1080033280	58	4617
2026-01-07 10:26:01.32	338.09	19.26	-42.8	-45.1	19.6	0.00e+00	0	41	0	1087373312	57	4626
2026-01-07 10:26:05.33	338.24	18.77	-43.1	-45.4	19.3	0.00e+00	0	41	0	1094713344	57	4807
2026-01-07 10:26:09.34	338.38	18.28	-43.4	-45.8	18.9	0.00e+00	0	41	0	1102053376	57	5023
2026-01-07 10:26:13.36	338.53	17.80	-43.6	-46.0	18.7	0.00e+00	0	41	0	1110441984	58	4834
2026-01-07 10:26:17.36	338.66	17.33	-43.7	-46.1	18.6	0.00e+00	0	41	0	1117782016	58	4904
2026-01-07 10:26:21.36	338.80	16.88	-43.6	-46.1	18.6	0.00e+00	0	41	0	1125122048	58	4879
2026-01-07 10:26:25.36	338.93	16.42	-43.5	-46.2	18.5	0.00e+00	0	41	0	1132462080	58	4935
2026-01-07 10:26:29.37	339.06	15.98	-43.7	-46.5	18.1	0.00e+00	0	41	0	1139802112	58	5120
2026-01-07 10:26:33.38	339.18	15.55	-43.7	-46.4	18.1	0.00e+00	0	41	0	1147142144	58	5059
2026-01-07 10:26:37.38	339.30	15.12	-44.0	-47.0	17.6	0.00e+00	0	41	0	1155530752	58	5407
2026-01-07 10:26:41.39	339.42	14.70	-44.0	-47.3	17.2	0.00e+00	0	41	0	1162870784	58	5633
2026-01-07 10:26:45.40	339.54	14.29	-44.2	-47.9	16.6	0.00e+00	0	41	0	1170210816	59	5696
2026-01-07 10:26:49.40	339.65	13.88	-44.7	-48.2	16.2	0.00e+00	0	41	0	1177550848	59	5920
2026-01-07 10:26:53.41	339.76	13.48	-45.4	-49.1	15.4	0.00e+00	0	41	0	1184890880	61	5809
2026-01-07 10:26:57.42	339.87	13.09	-45.7	-49.6	14.8	0.00e+00	0	41	0	1192230912	62	5837
2026-01-07 10:27:01.42	339.97	12.70	-45.3	-49.4	15.0	0.00e+00	0	41	0	1199570944	62	5681
2026-01-07 10:27:05.43	340.08	12.32	-44.9	-49.1	15.1	0.00e+00	0	41	0	1207959552	61	5848
2026-01-07 10:27:09.43	340.18	11.94	-44.7	-48.7	15.5	0.00e+00	0	41	0	1215299584	61	5560
2026-01-07 10:27:13.44	340.28	11.57	-44.8	-48.5	15.6	0.00e+00	0	41	0	1222639616	61	5420
2026-01-07 10:27:17.46	340.37	11.21	-44.6	-48.1	16.0	0.00e+00	0	41	0	1229979648	61	5184
2026-01-07 10:27:21.47	340.47	10.85	-44.4	-47.8	16.3	0.00e+00	0	41	0	1237319680	60	5321
2026-01-07 10:27:25.47	340.56	10.50	-44.2	-47.5	16.5	0.00e+00	0	41	0	1244659712	60	5130
2026-01-07 10:27:29.47	340.65	10.15	-44.2	-47.5	16.5	0.00e+00	0	41	0	1253048320	60	5109
2026-01-07 10:27:33.48	340.74	9.80	-44.1	-47.3	16.6	0.00e+00	0	41	0	1260388352	59	5313
2026-01-07 10:27:37.49	340.83	9.47	-43.9	-47.2	16.1	0.00e+00	0	41	0	1267728384	59	5270
2026-01-07 10:27:41.49	340.92	9.13	-43.9	-47.3	15.9	0.00e+00	0	41	0	1275068416	59	5328
2026-01-07 10:27:45.49	341.00	8.80	-49.3	-65.6	3.9	1.49e+00	0	41	104	1280311296	69	24424
2026-01-07 10:27:49.51	341.08	8.47	-50.4	-65.9	3.8	1.49e+00	0	41	104	1280311296	71	22732
2026-01-07 10:27:53.52	341.17	8.15	-49.7	-66.0	3.8	1.49e+00	0	41	104	1280311296	70	24373
2026-01-07 10:27:57.54	341.25	7.83	-50.6	-66.0	3.8	1.49e+00	0	41	104	1280311296	72	21669
2026-01-07 10:28:01.55	341.33	7.52	-50.8	-66.0	3.8	1.49e+00	0	41	104	1280311296	72	21674
2026-01-07 10:28:05.57	341.40	7.21	-50.7	-66.0	3.8	1.49e+00	0	41	104	1280311296	72	21645
2026-01-07 10:28:09.59	341.48	6.90	-50.7	-66.0	3.8	1.49e+00	0	41	104	1280311296	72	21599
2026-01-07 10:28:13.60	341.56	6.60	-50.6	-65.9	3.8	1.49e+00	0	41	104	1280311296	72	21505
2026-01-07 10:28:17.62	341.63	6.30	-50.6	-65.9	3.8	1.49e+00	0	41	104	1280311296	72	21455
2026-01-07 10:28:21.64	341.70	6.00	-50.5	-66.0	3.8	1.49e+00	0	41	104	1280311296	72	21521
2026-01-07 10:28:25.65	341.77	5.71	-50.6	-65.9	3.8	1.49e+00	0	41	104	1280311296	72	21484
2026-01-07 10:28:29.66	341.85	5.42	-50.6	-66.0	3.8	1.49e+00	0	41	104	1280311296	72	21522
2026-01-07 10:28:33.68	341.92	5.13	-50.6	-66.0	3.8	1.49e+00	0	41	104	1280311296	72	21545

#Closed at: 2026-01-07 10:28:36
#Recorded file [1280 MB]: D:/Data/31040_260107_131540.dat