passes_logs/2026/01/07/T1/T1__20260107_085644_NOAA_20_JPSS-1_rec.log

#Pass ID: 20260107_085644_NOAA 20 (JPSS-1)
#Satellite: NOAA 20 (JPSS-1)
#Configuration: NOAA 20
#almurnet v.1.7.20251203
#Start time: 2026-01-07 08:56:43

#Version: 2.0.20230620
#Station: T1
#Location: 37.570604 lon 55.790049 lat
#TLE: 1 43013U 17073A   26006.30790171  .00000126  00000+0  80695-4 0  9991
#TLE: 2 43013  98.7629 307.3394 0001808  51.8724 308.2615 14.19533762421505

#Time	Az	El	Level	Level2	SNR	BER	BlckErr	Temp	State	Recorded	gain1	gain2
2026-01-07 08:56:43.63	129.50	4.96	-49.7	-64.8	3.8	1.49e+00	0	41	0	0	71	19904
2026-01-07 08:56:46.61	129.35	5.16	-49.7	-64.8	3.8	1.49e+00	0	40	104	0	71	20035
2026-01-07 08:56:49.59	129.20	5.37	-49.7	-64.8	3.8	1.49e+00	0	41	104	0	71	20045
2026-01-07 08:56:52.57	129.04	5.57	-49.7	-64.8	3.8	1.49e+00	0	41	104	0	71	20054
2026-01-07 08:56:55.55	128.88	5.78	-49.7	-64.8	3.8	1.49e+00	0	41	104	0	71	20066
2026-01-07 08:56:58.53	128.72	5.99	-49.7	-64.7	3.8	1.49e+00	0	41	104	0	71	19761
2026-01-07 08:57:01.51	128.56	6.20	-49.7	-64.4	3.8	1.49e+00	0	41	104	0	71	18958
2026-01-07 08:57:04.49	128.40	6.41	-49.7	-64.0	3.8	1.49e+00	0	41	104	0	71	18283
2026-01-07 08:57:07.47	128.23	6.62	-49.6	-64.1	3.8	1.49e+00	0	41	104	0	71	18516
2026-01-07 08:57:10.46	128.06	6.83	-49.6	-64.7	3.8	1.49e+00	0	41	104	0	71	19651
2026-01-07 08:57:13.44	127.89	7.05	-49.6	-64.6	3.8	1.49e+00	0	41	104	0	71	19410
2026-01-07 08:57:16.42	127.71	7.27	-49.6	-63.3	3.8	1.49e+00	0	42	104	0	71	16737
2026-01-07 08:57:19.41	127.53	7.48	-49.5	-61.3	4.2	1.45e+00	0	42	0	0	70	14158
2026-01-07 08:57:22.39	127.35	7.70	-48.8	-56.8	6.7	3.19e-01	0	42	0	4194304	69	8945
2026-01-07 08:57:25.38	127.17	7.93	-47.2	-52.3	11.1	3.19e-03	0	42	0	9437184	66	6321
2026-01-07 08:57:28.36	126.98	8.15	-46.0	-50.0	13.5	9.10e-06	0	42	0	15728640	64	5411
2026-01-07 08:57:31.36	126.79	8.38	-46.2	-50.2	13.3	1.44e-05	0	42	0	20971520	64	5559
2026-01-07 08:57:34.35	126.60	8.61	-47.0	-51.9	11.6	3.82e-04	0	42	0	27262976	64	6733
2026-01-07 08:57:37.34	126.40	8.83	-48.4	-55.6	7.8	3.55e-02	0	42	0	32505856	67	8701
2026-01-07 08:57:40.33	126.20	9.07	-49.4	-60.6	4.4	9.49e-01	0	42	0	37748736	69	13823
2026-01-07 08:57:43.32	126.00	9.30	-49.6	-63.6	3.8	1.49e+00	0	42	104	41943040	69	19599
2026-01-07 08:57:46.30	125.80	9.53	-47.9	-54.0	9.5	1.29e-02	0	42	0	45088768	67	7205
2026-01-07 08:57:49.29	125.59	9.77	-46.1	-50.2	13.5	2.97e-05	0	42	0	51380224	64	5538
2026-01-07 08:57:52.27	125.37	10.01	-45.3	-48.6	15.1	7.00e-07	0	42	0	56623104	62	5189
2026-01-07 08:57:55.27	125.16	10.25	-45.6	-49.1	14.8	0.00e+00	0	42	0	61865984	62	5482
2026-01-07 08:57:58.26	124.94	10.49	-45.4	-48.8	15.0	0.00e+00	0	42	0	68157440	62	5297
2026-01-07 08:58:01.25	124.71	10.74	-45.1	-48.3	15.5	0.00e+00	0	42	0	73400320	62	5013
2026-01-07 08:58:04.24	124.48	10.98	-45.2	-48.5	15.4	0.00e+00	0	42	0	79691776	61	5419
2026-01-07 08:58:07.23	124.25	11.23	-45.2	-48.3	15.6	0.00e+00	0	42	0	84934656	61	5324
2026-01-07 08:58:10.23	124.01	11.48	-44.8	-47.9	16.0	0.00e+00	0	42	0	90177536	61	5092
2026-01-07 08:58:13.22	123.77	11.74	-44.9	-48.0	15.9	0.00e+00	0	42	0	96468992	61	5147
2026-01-07 08:58:16.22	123.53	11.99	-45.0	-48.1	15.8	0.00e+00	0	42	0	101711872	61	5203
2026-01-07 08:58:19.22	123.28	12.25	-44.4	-47.3	16.6	0.00e+00	0	42	0	106954752	60	5011
2026-01-07 08:58:22.21	123.02	12.51	-44.4	-47.3	16.6	0.00e+00	0	42	0	113246208	60	5028
2026-01-07 08:58:25.21	122.76	12.77	-44.7	-47.7	16.3	0.00e+00	0	42	0	118489088	60	5238
2026-01-07 08:58:28.20	122.50	13.04	-44.4	-47.3	16.7	0.00e+00	0	42	0	123731968	60	4985
2026-01-07 08:58:31.19	122.23	13.30	-44.3	-47.2	16.9	0.00e+00	0	42	0	130023424	60	4936
2026-01-07 08:58:34.19	121.96	13.57	-44.7	-47.7	16.4	0.00e+00	0	42	0	135266304	60	5233
2026-01-07 08:58:37.18	121.68	13.84	-44.5	-47.3	16.7	0.00e+00	0	42	0	140509184	60	5023
2026-01-07 08:58:40.17	121.40	14.11	-44.3	-47.2	16.8	0.00e+00	0	42	0	146800640	60	4972
2026-01-07 08:58:43.16	121.11	14.39	-44.4	-47.2	16.8	0.00e+00	0	43	0	152043520	60	4982
2026-01-07 08:58:46.15	120.81	14.67	-44.3	-47.0	17.0	0.00e+00	0	43	0	157286400	60	4860
2026-01-07 08:58:49.14	120.51	14.95	-44.4	-47.2	16.8	0.00e+00	0	42	0	163577856	60	4968
2026-01-07 08:58:52.13	120.21	15.23	-43.9	-46.5	17.5	0.00e+00	0	42	0	168820736	59	4842
2026-01-07 08:58:55.12	119.89	15.51	-44.1	-46.9	17.1	0.00e+00	0	42	0	174063616	59	5087
2026-01-07 08:58:58.11	119.57	15.80	-44.1	-46.9	17.2	0.00e+00	0	43	0	180355072	59	5057
2026-01-07 08:59:01.10	119.25	16.09	-44.2	-47.0	17.1	0.00e+00	0	43	0	185597952	59	5117
2026-01-07 08:59:04.09	118.92	16.38	-44.3	-47.0	17.1	0.00e+00	0	42	0	191889408	59	5117
2026-01-07 08:59:07.08	118.58	16.68	-44.3	-47.0	17.1	0.00e+00	0	43	0	197132288	59	5152
2026-01-07 08:59:10.07	118.24	16.98	-44.2	-46.9	17.2	0.00e+00	0	42	0	202375168	59	5047
2026-01-07 08:59:13.06	117.88	17.28	-44.4	-47.1	16.9	0.00e+00	0	43	0	208666624	59	5218
2026-01-07 08:59:16.05	117.53	17.58	-44.3	-47.0	17.1	0.00e+00	0	43	0	213909504	59	5134
2026-01-07 08:59:19.03	117.16	17.88	-44.3	-47.0	17.1	0.00e+00	0	42	0	219152384	59	5117
2026-01-07 08:59:22.02	116.79	18.19	-44.4	-47.2	16.9	0.00e+00	0	42	0	225443840	59	5235
2026-01-07 08:59:25.02	116.40	18.50	-44.6	-47.3	16.8	0.00e+00	0	42	0	230686720	59	5329
2026-01-07 08:59:28.00	116.01	18.82	-44.5	-47.2	16.9	0.00e+00	0	42	0	235929600	59	5267
2026-01-07 08:59:30.99	115.62	19.13	-44.8	-47.7	16.5	0.00e+00	0	43	0	242221056	60	5240
2026-01-07 08:59:33.98	115.21	19.45	-44.7	-47.6	16.6	0.00e+00	0	42	0	247463936	60	5193
2026-01-07 08:59:36.97	114.80	19.77	-44.9	-47.8	16.4	0.00e+00	0	43	0	252706816	60	5334
2026-01-07 08:59:39.96	114.37	20.09	-44.8	-47.7	16.5	0.00e+00	0	42	0	258998272	60	5264
2026-01-07 08:59:42.95	113.94	20.42	-44.7	-47.5	16.7	0.00e+00	0	42	0	264241152	60	5122
2026-01-07 08:59:45.95	113.49	20.75	-44.6	-47.4	16.8	0.00e+00	0	43	0	269484032	60	5064
2026-01-07 08:59:48.93	113.04	21.08	-44.5	-47.2	17.0	0.00e+00	0	42	0	275775488	60	4975
2026-01-07 08:59:51.93	112.58	21.41	-44.5	-47.3	16.9	0.00e+00	0	42	0	281018368	60	5017
2026-01-07 08:59:54.92	112.11	21.75	-44.2	-46.9	17.3	0.00e+00	0	42	0	286261248	60	4806
2026-01-07 08:59:57.92	111.62	22.09	-44.3	-47.1	17.2	0.00e+00	0	42	0	292552704	60	4887
2026-01-07 09:00:00.91	111.13	22.43	-44.1	-46.8	17.5	0.00e+00	0	42	0	297795584	60	4711
2026-01-07 09:00:03.90	110.62	22.77	-44.3	-47.0	17.2	0.00e+00	0	42	0	303038464	60	4870
2026-01-07 09:00:06.88	110.11	23.11	-44.2	-46.8	17.4	0.00e+00	0	42	0	309329920	60	4754
2026-01-07 09:00:09.87	109.58	23.46	-44.2	-46.8	17.4	0.00e+00	0	42	0	314572800	60	4758
2026-01-07 09:00:12.86	109.04	23.81	-44.1	-46.8	17.5	0.00e+00	0	42	0	319815680	60	4725
2026-01-07 09:00:15.86	108.48	24.16	-44.4	-47.1	17.2	0.00e+00	0	42	0	326107136	60	4898
2026-01-07 09:00:18.85	107.92	24.51	-44.7	-47.5	16.8	0.00e+00	0	42	0	331350016	60	5116
2026-01-07 09:00:21.85	107.34	24.87	-45.1	-48.0	16.2	0.00e+00	0	42	0	337641472	60	5461
2026-01-07 09:00:24.83	106.75	25.22	-45.1	-48.1	16.2	0.00e+00	0	43	0	342884352	60	5474
2026-01-07 09:00:27.82	106.14	25.58	-45.2	-48.2	16.1	0.00e+00	0	42	0	348127232	61	5253
2026-01-07 09:00:30.82	105.52	25.94	-45.4	-48.6	15.7	0.00e+00	0	42	0	354418688	61	5508
2026-01-07 09:00:33.81	104.89	26.29	-45.5	-48.7	15.6	0.00e+00	0	42	0	359661568	61	5562
2026-01-07 09:00:36.80	104.24	26.65	-45.3	-48.3	16.1	0.00e+00	0	42	0	364904448	61	5286
2026-01-07 09:00:39.80	103.58	27.02	-45.3	-48.3	16.0	0.00e+00	0	42	0	371195904	61	5324
2026-01-07 09:00:42.78	102.90	27.38	-45.5	-48.6	15.8	0.00e+00	0	42	0	376438784	61	5497
2026-01-07 09:00:45.77	102.21	27.74	-45.4	-48.5	15.7	0.00e+00	0	42	0	381681664	61	5455
2026-01-07 09:00:48.76	101.50	28.10	-45.5	-48.6	15.7	0.00e+00	0	42	0	387973120	61	5511
2026-01-07 09:00:51.75	100.77	28.46	-45.5	-48.6	15.7	0.00e+00	0	42	0	393216000	61	5502
2026-01-07 09:00:54.75	100.03	28.82	-45.4	-48.6	15.8	0.00e+00	0	42	0	398458880	61	5476
2026-01-07 09:00:57.74	99.27	29.18	-45.6	-48.8	15.6	0.00e+00	0	42	0	404750336	61	5610
2026-01-07 09:01:00.72	98.50	29.53	-45.4	-48.5	15.8	0.00e+00	0	42	0	409993216	61	5422
2026-01-07 09:01:03.71	97.70	29.89	-45.4	-48.5	15.8	0.00e+00	0	42	0	415236096	61	5446
2026-01-07 09:01:06.70	96.89	30.24	-45.4	-48.5	15.8	0.00e+00	0	42	0	421527552	61	5436
2026-01-07 09:01:09.70	96.06	30.60	-46.3	-49.8	14.6	0.00e+00	0	42	0	426770432	63	5654
2026-01-07 09:01:12.69	95.21	30.95	-46.6	-50.4	13.9	6.10e-06	0	42	0	432013312	64	5687
2026-01-07 09:01:15.69	94.34	31.29	-46.8	-50.9	13.5	1.06e-05	0	42	0	438304768	64	6000
2026-01-07 09:01:18.68	93.46	31.64	-46.9	-51.2	13.1	2.28e-05	0	42	0	443547648	64	6206
2026-01-07 09:01:21.68	92.55	31.98	-47.1	-51.4	12.9	6.17e-05	0	42	0	449839104	64	6400
2026-01-07 09:01:24.67	91.63	32.31	-47.3	-51.7	12.6	9.76e-05	0	42	0	455081984	65	6232
2026-01-07 09:01:27.67	90.68	32.64	-47.9	-52.8	11.5	6.29e-04	0	42	0	460324864	66	6669
2026-01-07 09:01:30.66	89.72	32.97	-48.0	-53.2	11.0	1.13e-03	0	42	0	466616320	66	6982
2026-01-07 09:01:33.65	88.74	33.28	-48.0	-53.3	10.9	2.35e-03	0	42	0	471859200	66	7116
2026-01-07 09:01:36.64	87.74	33.60	-47.6	-52.5	11.8	6.27e-04	0	42	0	477102080	66	6460
2026-01-07 09:01:39.63	86.72	33.90	-46.9	-51.2	13.0	3.05e-05	0	42	0	483393536	65	5889
2026-01-07 09:01:42.62	85.68	34.20	-46.7	-50.8	13.6	6.80e-06	0	42	0	488636416	65	5602
2026-01-07 09:01:45.61	84.63	34.49	-46.3	-50.1	14.2	1.50e-06	0	42	0	493879296	64	5513
2026-01-07 09:01:48.60	83.55	34.77	-46.0	-49.7	14.7	0.00e+00	0	42	0	500170752	64	5223
2026-01-07 09:01:51.59	82.46	35.04	-45.3	-48.4	16.1	0.00e+00	0	42	0	505413632	62	5051
2026-01-07 09:01:54.59	81.34	35.30	-45.0	-47.9	16.5	0.00e+00	0	42	0	510656512	61	5096
2026-01-07 09:01:57.57	80.22	35.55	-44.8	-47.7	16.8	0.00e+00	0	42	0	516947968	61	4928
2026-01-07 09:02:00.56	79.07	35.79	-44.8	-47.6	16.8	0.00e+00	0	42	0	522190848	61	4879
2026-01-07 09:02:03.55	77.91	36.02	-44.6	-47.4	17.0	0.00e+00	0	42	0	527433728	61	4796
2026-01-07 09:02:06.54	76.73	36.23	-44.2	-46.9	17.5	0.00e+00	0	42	0	533725184	60	4768
2026-01-07 09:02:09.54	75.53	36.44	-43.9	-46.4	17.9	0.00e+00	0	42	0	538968064	59	4776
2026-01-07 09:02:12.52	74.33	36.62	-43.7	-46.1	18.2	0.00e+00	0	42	0	544210944	59	4605
2026-01-07 09:02:15.52	73.10	36.80	-43.2	-45.5	18.8	0.00e+00	0	42	0	550502400	58	4594
2026-01-07 09:02:18.51	71.86	36.96	-43.5	-45.9	18.4	0.00e+00	0	42	0	555745280	58	4789
2026-01-07 09:02:21.50	70.62	37.11	-43.6	-46.1	18.3	0.00e+00	0	42	0	562036736	58	4872
2026-01-07 09:02:24.49	69.36	37.24	-43.4	-45.8	18.5	0.00e+00	0	42	0	567279616	58	4756
2026-01-07 09:02:27.48	68.09	37.36	-42.9	-45.2	19.0	0.00e+00	0	42	0	572522496	57	4674
2026-01-07 09:02:30.47	66.82	37.46	-43.2	-45.5	18.8	0.00e+00	0	42	0	578813952	57	4838
2026-01-07 09:02:33.46	65.53	37.55	-43.6	-46.0	18.3	0.00e+00	0	42	0	584056832	57	5140
2026-01-07 09:02:36.45	64.24	37.62	-43.8	-46.3	18.0	0.00e+00	0	42	0	589299712	58	5023
2026-01-07 09:02:39.44	62.95	37.67	-44.4	-47.1	17.3	0.00e+00	0	42	0	595591168	59	5196
2026-01-07 09:02:42.43	61.65	37.71	-44.7	-47.4	17.0	0.00e+00	0	42	0	600834048	59	5354
2026-01-07 09:02:45.42	60.35	37.73	-44.5	-47.2	17.2	0.00e+00	0	42	0	606076928	60	4976
2026-01-07 09:02:48.42	59.05	37.73	-44.7	-47.6	16.9	0.00e+00	0	42	0	612368384	60	5160
2026-01-07 09:02:51.41	57.75	37.72	-45.0	-47.8	16.6	0.00e+00	0	42	0	617611264	60	5327
2026-01-07 09:02:54.41	56.45	37.68	-44.6	-47.3	17.1	0.00e+00	0	42	0	622854144	60	5030
2026-01-07 09:02:57.39	55.16	37.64	-45.2	-48.2	16.2	0.00e+00	0	42	0	629145600	61	5245
2026-01-07 09:03:00.39	53.86	37.57	-45.5	-48.6	15.8	0.00e+00	0	42	0	634388480	61	5502
2026-01-07 09:03:03.39	52.58	37.49	-45.6	-48.7	15.7	0.00e+00	0	42	0	639631360	61	5555
2026-01-07 09:03:06.38	51.30	37.40	-45.8	-49.0	15.4	0.00e+00	0	42	0	645922816	62	5431
2026-01-07 09:03:09.37	50.03	37.28	-46.1	-49.4	15.0	0.00e+00	0	42	0	651165696	62	5711
2026-01-07 09:03:12.37	48.77	37.15	-46.0	-49.3	15.1	0.00e+00	0	42	0	656408576	62	5611
2026-01-07 09:03:15.36	47.52	37.01	-46.0	-49.3	15.1	0.00e+00	0	42	0	662700032	63	5315
2026-01-07 09:03:18.35	46.28	36.85	-45.7	-48.8	15.6	0.00e+00	0	42	0	667942912	63	5007
2026-01-07 09:03:21.35	45.05	36.68	-45.4	-48.4	16.1	0.00e+00	0	42	0	674234368	62	5060
2026-01-07 09:03:24.35	43.84	36.50	-44.8	-47.6	16.8	0.00e+00	0	42	0	679477248	61	4880
2026-01-07 09:03:27.34	42.64	36.30	-44.2	-46.9	17.5	0.00e+00	0	42	0	684720128	60	4765
2026-01-07 09:03:30.33	41.46	36.09	-43.9	-46.4	17.9	0.00e+00	0	42	0	691011584	59	4773
2026-01-07 09:03:33.33	40.29	35.86	-43.7	-46.2	18.1	0.00e+00	0	42	0	696254464	59	4652
2026-01-07 09:03:36.33	39.14	35.62	-43.7	-46.2	18.1	0.00e+00	0	42	0	701497344	59	4672
2026-01-07 09:03:39.31	38.01	35.38	-44.0	-46.6	17.7	0.00e+00	0	42	0	707788800	59	4882
2026-01-07 09:03:42.31	36.89	35.12	-44.4	-47.1	17.2	0.00e+00	0	42	0	713031680	59	5195
2026-01-07 09:03:45.30	35.80	34.85	-44.9	-47.8	16.6	0.00e+00	0	42	0	718274560	60	5300
2026-01-07 09:03:48.30	34.72	34.58	-44.9	-47.8	16.7	0.00e+00	0	42	0	724566016	60	5295
2026-01-07 09:03:51.30	33.65	34.29	-44.9	-47.8	16.7	0.00e+00	0	42	0	729808896	60	5287
2026-01-07 09:03:54.31	32.61	33.99	-44.9	-47.7	16.6	0.00e+00	0	42	0	735051776	60	5278
2026-01-07 09:03:57.31	31.58	33.69	-45.0	-47.9	16.5	0.00e+00	0	42	0	741343232	60	5349
2026-01-07 09:04:00.31	30.58	33.38	-45.2	-48.1	16.3	0.00e+00	0	42	0	746586112	61	5209
2026-01-07 09:04:03.32	29.59	33.07	-44.9	-47.8	16.6	0.00e+00	0	42	0	752877568	61	5023
2026-01-07 09:04:06.32	28.62	32.74	-44.9	-47.9	16.5	0.00e+00	0	42	0	758120448	61	5074
2026-01-07 09:04:09.33	27.67	32.41	-45.5	-48.8	15.6	0.00e+00	0	42	0	763363328	61	5611
2026-01-07 09:04:12.35	26.74	32.08	-45.5	-48.7	15.7	0.00e+00	0	42	0	769654784	61	5533
2026-01-07 09:04:15.36	25.83	31.74	-45.7	-49.1	15.3	0.00e+00	0	42	0	774897664	62	5480
2026-01-07 09:04:18.36	24.94	31.40	-45.9	-49.5	14.9	0.00e+00	0	42	0	780140544	62	5748
2026-01-07 09:04:21.38	24.06	31.05	-45.9	-49.4	14.9	0.00e+00	0	42	0	786432000	62	5713
2026-01-07 09:04:24.39	23.21	30.70	-45.9	-49.5	15.0	0.00e+00	0	42	0	791674880	62	5728
2026-01-07 09:04:27.40	22.37	30.35	-45.6	-48.8	15.6	0.00e+00	0	42	0	797966336	62	5295
2026-01-07 09:04:30.41	21.55	30.00	-45.5	-48.7	15.8	0.00e+00	0	42	0	803209216	62	5228
2026-01-07 09:04:33.41	20.75	29.64	-45.2	-48.2	16.1	0.00e+00	0	42	0	808452096	62	4977
2026-01-07 09:04:36.42	19.97	29.28	-45.0	-47.9	16.5	0.00e+00	0	42	0	814743552	61	5077
2026-01-07 09:04:39.43	19.21	28.92	-44.6	-47.4	16.9	0.00e+00	0	42	0	819986432	61	4804
2026-01-07 09:04:42.44	18.46	28.56	-44.6	-47.4	16.9	0.00e+00	0	42	0	826277888	60	5089
2026-01-07 09:04:45.44	17.73	28.20	-44.4	-47.2	17.2	0.00e+00	0	42	0	831520768	60	4939
2026-01-07 09:04:48.46	17.02	27.84	-44.4	-47.1	17.2	0.00e+00	0	42	0	836763648	60	4903
2026-01-07 09:04:51.46	16.32	27.48	-44.2	-46.8	17.5	0.00e+00	0	42	0	843055104	60	4741
2026-01-07 09:04:54.47	15.64	27.12	-44.2	-46.8	17.5	0.00e+00	0	42	0	848297984	60	4753
2026-01-07 09:04:57.48	14.97	26.76	-44.2	-46.8	17.5	0.00e+00	0	42	0	853540864	60	4757
2026-01-07 09:05:00.49	14.32	26.40	-44.2	-46.9	17.4	0.00e+00	0	42	0	859832320	60	4801
2026-01-07 09:05:03.50	13.69	26.04	-44.2	-47.0	17.3	0.00e+00	0	42	0	865075200	60	4831
2026-01-07 09:05:06.51	13.06	25.68	-44.0	-46.7	17.6	0.00e+00	0	42	0	871366656	60	4696
2026-01-07 09:05:09.52	12.46	25.32	-44.1	-46.7	17.6	0.00e+00	0	42	0	876609536	60	4689
2026-01-07 09:05:12.53	11.86	24.97	-44.1	-46.7	17.6	0.00e+00	0	42	0	881852416	60	4680
2026-01-07 09:05:15.54	11.28	24.61	-44.0	-46.6	17.6	0.00e+00	0	42	0	888143872	59	4905
2026-01-07 09:05:18.55	10.71	24.26	-44.0	-46.6	17.6	0.00e+00	0	42	0	893386752	59	4911
2026-01-07 09:05:21.56	10.16	23.91	-44.3	-47.1	17.1	0.00e+00	0	42	0	898629632	59	5170
2026-01-07 09:05:24.58	9.61	23.56	-44.2	-47.0	17.2	0.00e+00	0	42	0	904921088	59	5107
2026-01-07 09:05:27.58	9.09	23.21	-44.2	-46.9	17.3	0.00e+00	0	42	0	910163968	59	5078
2026-01-07 09:05:30.59	8.57	22.87	-44.6	-47.5	16.7	0.00e+00	0	42	0	916455424	59	5455
2026-01-07 09:05:33.60	8.06	22.52	-44.8	-47.9	16.3	0.00e+00	0	42	0	921698304	60	5376
2026-01-07 09:05:36.61	7.57	22.18	-44.6	-47.8	16.4	0.00e+00	0	42	0	926941184	60	5336
2026-01-07 09:05:39.62	7.08	21.84	-44.7	-47.9	16.3	0.00e+00	0	42	0	933232640	60	5393
2026-01-07 09:05:42.63	6.61	21.51	-44.7	-47.7	16.5	0.00e+00	0	42	0	938475520	60	5277
2026-01-07 09:05:45.65	6.14	21.17	-44.7	-47.8	16.5	0.00e+00	0	42	0	944766976	60	5284
2026-01-07 09:05:48.65	5.69	20.84	-44.6	-47.6	16.6	0.00e+00	0	42	0	950009856	60	5215
2026-01-07 09:05:51.66	5.25	20.51	-44.7	-47.8	16.4	0.00e+00	0	42	0	955252736	60	5331
2026-01-07 09:05:54.67	4.81	20.18	-45.1	-48.1	16.1	0.00e+00	0	42	0	961544192	60	5524
2026-01-07 09:05:57.68	4.39	19.86	-45.0	-48.1	16.1	0.00e+00	0	42	0	966787072	60	5517
2026-01-07 09:06:00.69	3.97	19.54	-44.9	-48.2	16.0	0.00e+00	0	42	0	972029952	60	5571
2026-01-07 09:06:03.69	3.57	19.22	-44.7	-47.8	16.4	0.00e+00	0	41	0	978321408	60	5314
2026-01-07 09:06:06.71	3.17	18.90	-44.7	-47.8	16.5	0.00e+00	0	41	0	983564288	60	5282
2026-01-07 09:06:09.72	2.78	18.59	-44.5	-47.7	16.5	0.00e+00	0	42	0	989855744	60	5220
2026-01-07 09:06:12.73	2.40	18.28	-44.6	-47.8	16.4	0.00e+00	0	42	0	995098624	60	5296
2026-01-07 09:06:15.73	2.02	17.97	-44.9	-47.9	16.3	0.00e+00	0	42	0	1000341504	60	5382
2026-01-07 09:06:18.74	1.66	17.67	-44.8	-48.1	16.1	0.00e+00	0	41	0	1006632960	60	5467
2026-01-07 09:06:21.75	1.30	17.36	-44.5	-47.9	16.3	0.00e+00	0	42	0	1011875840	60	5353
2026-01-07 09:06:24.76	0.95	17.06	-44.5	-47.8	16.4	0.00e+00	0	42	0	1017118720	60	5302
2026-01-07 09:06:27.77	0.61	16.76	-44.7	-47.8	16.4	0.00e+00	0	42	0	1023410176	60	5295
2026-01-07 09:06:30.77	0.27	16.47	-44.3	-47.6	16.5	0.00e+00	0	42	0	1028653056	60	5201
2026-01-07 09:06:33.78	359.94	16.17	-44.0	-47.5	16.6	0.00e+00	0	42	0	1034944512	60	5131
2026-01-07 09:06:36.79	359.61	15.88	-44.4	-47.6	16.5	0.00e+00	0	42	0	1040187392	60	5173
2026-01-07 09:06:39.80	359.30	15.60	-44.6	-47.7	16.4	0.00e+00	0	42	0	1045430272	60	5264
2026-01-07 09:06:42.81	358.99	15.31	-44.7	-48.0	16.1	0.00e+00	0	42	0	1051721728	60	5453
2026-01-07 09:06:45.82	358.68	15.03	-44.8	-48.2	15.9	0.00e+00	0	41	0	1056964608	60	5555
2026-01-07 09:06:48.83	358.38	14.75	-45.1	-48.3	15.8	0.00e+00	0	42	0	1063256064	60	5593
2026-01-07 09:06:51.84	358.09	14.47	-45.0	-48.2	15.9	0.00e+00	0	41	0	1068498944	61	5260
2026-01-07 09:06:54.85	357.80	14.19	-45.0	-48.2	15.9	0.00e+00	0	42	0	1073741824	61	5240
2026-01-07 09:06:57.86	357.52	13.92	-45.1	-48.4	15.7	0.00e+00	0	42	0	1080033280	61	5341
2026-01-07 09:07:00.87	357.24	13.65	-45.3	-48.6	15.5	0.00e+00	0	42	0	1085276160	61	5496
2026-01-07 09:07:03.88	356.97	13.38	-45.4	-48.9	15.1	0.00e+00	0	42	0	1090519040	61	5704
2026-01-07 09:07:06.88	356.70	13.11	-45.3	-49.0	15.0	0.00e+00	0	42	0	1096810496	61	5787
2026-01-07 09:07:09.89	356.44	12.85	-45.2	-49.2	14.9	0.00e+00	0	42	0	1102053376	61	5867
2026-01-07 09:07:12.90	356.19	12.59	-45.1	-49.3	14.7	7.00e-07	0	41	0	1108344832	61	5959
2026-01-07 09:07:15.91	355.93	12.33	-45.0	-49.4	14.7	0.00e+00	0	41	0	1113587712	61	6017
2026-01-07 09:07:18.92	355.69	12.07	-44.9	-49.5	14.5	7.00e-07	0	41	0	1118830592	61	6080
2026-01-07 09:07:21.93	355.44	11.81	-45.0	-49.7	14.3	7.00e-07	0	41	0	1125122048	61	6236
2026-01-07 09:07:24.93	355.20	11.56	-45.1	-49.8	14.2	3.80e-06	0	41	0	1130364928	61	6320
2026-01-07 09:07:27.94	354.97	11.31	-45.1	-49.7	14.2	7.00e-07	0	42	0	1135607808	61	6263
2026-01-07 09:07:30.95	354.74	11.06	-45.0	-49.7	14.3	3.00e-06	0	41	0	1141899264	61	6224
2026-01-07 09:07:33.96	354.51	10.81	-44.7	-49.7	14.3	0.00e+00	0	41	0	1147142144	61	6211
2026-01-07 09:07:36.96	354.29	10.57	-44.4	-49.7	14.2	7.00e-07	0	41	0	1153433600	60	6591
2026-01-07 09:07:39.97	354.07	10.33	-44.5	-49.7	14.2	2.20e-06	0	42	0	1158676480	60	6627
2026-01-07 09:07:42.98	353.86	10.09	-44.6	-49.9	14.0	2.20e-06	0	42	0	1163919360	60	6751
2026-01-07 09:07:45.99	353.65	9.85	-44.2	-49.9	14.0	1.50e-06	0	41	0	1170210816	60	6764
2026-01-07 09:07:49.00	353.44	9.61	-44.0	-50.0	13.8	7.60e-06	0	41	0	1175453696	59	7274
2026-01-07 09:07:52.01	353.24	9.37	-44.2	-50.2	13.6	4.50e-06	0	41	0	1180696576	59	7416
2026-01-07 09:07:55.02	353.04	9.14	-44.6	-50.1	13.7	6.10e-06	0	41	0	1186988032	59	7312
2026-01-07 09:07:58.03	352.84	8.91	-47.8	-65.2	3.8	1.49e+00	0	41	104	1190133760	67	26308
2026-01-07 09:08:01.04	352.64	8.68	-49.7	-65.6	3.8	1.49e+00	0	42	104	1190133760	71	21861
2026-01-07 09:08:04.05	352.45	8.45	-50.4	-65.7	3.8	1.49e+00	0	41	104	1190133760	71	22209
2026-01-07 09:08:07.06	352.27	8.22	-50.4	-65.7	3.8	1.49e+00	0	41	104	1190133760	71	22234
2026-01-07 09:08:10.07	352.08	8.00	-50.5	-65.8	3.8	1.49e+00	0	41	104	1190133760	71	22451
2026-01-07 09:08:13.08	351.90	7.78	-50.3	-65.8	3.8	1.49e+00	0	41	104	1190133760	72	21066
2026-01-07 09:08:16.09	351.72	7.55	-50.6	-65.8	3.8	1.49e+00	0	41	104	1190133760	72	21065
2026-01-07 09:08:19.10	351.55	7.33	-50.5	-65.8	3.8	1.49e+00	0	41	104	1190133760	72	21102
2026-01-07 09:08:22.11	351.37	7.12	-50.5	-65.8	3.8	1.49e+00	0	41	104	1190133760	72	21152
2026-01-07 09:08:25.12	351.20	6.90	-50.5	-65.8	3.8	1.49e+00	0	41	104	1190133760	72	21062
2026-01-07 09:08:28.13	351.04	6.69	-50.3	-65.8	3.8	1.49e+00	0	41	104	1190133760	72	21051
2026-01-07 09:08:31.14	350.87	6.47	-50.3	-65.7	3.8	1.49e+00	0	41	104	1190133760	72	21004
2026-01-07 09:08:34.15	350.71	6.26	-50.3	-65.8	3.8	1.49e+00	0	42	104	1190133760	72	21044
2026-01-07 09:08:37.16	350.55	6.05	-50.3	-65.8	3.8	1.49e+00	0	41	104	1190133760	72	21047
2026-01-07 09:08:40.17	350.39	5.84	-50.3	-65.8	3.8	1.49e+00	0	42	104	1190133760	72	21087
2026-01-07 09:08:43.18	350.24	5.63	-50.3	-65.8	3.8	1.49e+00	0	41	104	1190133760	72	21118
2026-01-07 09:08:46.19	350.09	5.43	-50.3	-65.7	3.8	1.49e+00	0	41	104	1190133760	72	21013
2026-01-07 09:08:49.20	349.93	5.22	-50.3	-65.8	3.8	1.49e+00	0	41	104	1190133760	72	21086
2026-01-07 09:08:52.21	349.79	5.02	-50.3	-65.8	3.8	1.49e+00	0	41	104	1190133760	72	21022

#Closed at: 2026-01-07 09:08:54
#Recorded file [1190 MB]: D:/Data/31040_260107_115643.dat