passes_logs/2026/01/07/T1/T1__20260107_063318_FENGYUN_3E_rec.log

#Pass ID: 20260107_063318_FENGYUN 3E
#Satellite: FENGYUN 3E
#Configuration: FENGYUN 3E
#almurnet v.1.7.20251203
#Start time: 2026-01-07 06:33:20

#Version: 2.0.20230620
#Station: T1
#Location: 37.570604 lon 55.790049 lat
#TLE: 1 49008U 21062A   26006.26767912  .00000427  00000+0  22170-3 0  9993
#TLE: 2 49008  98.7475  11.4982 0001602 156.1158 204.0093 14.19885456233607

#Time	Az	El	Level	Level2	SNR	BER	BlckErr	Temp	State	Recorded	gain1	gain2
2026-01-07 06:33:20.74	0.77	5.09	-47.4	-60.7	3.8	8.47e-01	0	38	0	0	64	17472
2026-01-07 06:33:22.73	0.54	5.18	-47.7	-60.7	3.8	8.46e-01	0	38	104	0	64	17341
2026-01-07 06:33:24.73	0.30	5.27	-47.7	-60.7	3.8	8.46e-01	0	38	104	0	64	17430
2026-01-07 06:33:26.73	0.06	5.36	-47.7	-60.7	3.8	8.47e-01	0	38	104	0	64	17423
2026-01-07 06:33:28.72	359.82	5.45	-47.7	-60.7	3.8	8.47e-01	0	38	104	0	64	17432
2026-01-07 06:33:30.72	359.58	5.54	-47.7	-60.7	3.8	8.46e-01	0	38	104	0	64	17436
2026-01-07 06:33:32.72	359.34	5.63	-47.6	-60.7	3.8	8.47e-01	0	38	104	0	64	17455
2026-01-07 06:33:34.71	359.10	5.72	-47.7	-60.7	3.8	8.48e-01	0	38	104	0	64	17345
2026-01-07 06:33:36.70	358.85	5.81	-47.6	-60.7	3.8	8.46e-01	0	38	104	0	64	17351
2026-01-07 06:33:38.70	358.61	5.90	-47.6	-60.7	3.8	8.47e-01	0	38	104	0	64	17457
2026-01-07 06:33:40.70	358.36	5.99	-47.6	-60.7	3.8	8.47e-01	0	39	104	0	64	17413
2026-01-07 06:33:42.69	358.11	6.07	-47.6	-60.7	3.8	8.46e-01	0	39	104	0	64	17395
2026-01-07 06:33:44.69	357.86	6.16	-47.6	-60.7	3.8	8.47e-01	0	39	104	0	64	17403
2026-01-07 06:33:46.69	357.61	6.25	-47.6	-60.7	3.8	8.48e-01	0	39	104	0	64	17424
2026-01-07 06:33:48.68	357.35	6.34	-47.6	-60.7	3.8	8.47e-01	0	39	104	0	64	17367
2026-01-07 06:33:50.68	357.10	6.43	-47.6	-60.7	3.8	8.47e-01	0	39	104	0	64	17406
2026-01-07 06:33:52.68	356.84	6.51	-47.6	-60.7	3.8	8.46e-01	0	39	104	0	64	17324
2026-01-07 06:33:54.68	356.58	6.60	-47.6	-60.7	3.8	8.48e-01	0	39	104	0	64	17399
2026-01-07 06:33:56.68	356.32	6.69	-47.6	-60.7	3.8	8.48e-01	0	39	104	0	64	17469
2026-01-07 06:33:58.67	356.06	6.77	-47.6	-60.7	3.8	8.48e-01	0	39	104	0	64	17371
2026-01-07 06:34:00.67	355.79	6.86	-47.6	-60.7	3.8	8.47e-01	0	39	104	0	64	17321
2026-01-07 06:34:02.67	355.53	6.95	-47.6	-60.7	3.8	8.46e-01	0	39	104	0	64	17318
2026-01-07 06:34:04.66	355.26	7.03	-47.6	-60.6	3.8	8.47e-01	0	39	104	0	64	17266
2026-01-07 06:34:06.66	354.99	7.12	-47.7	-60.6	3.8	8.47e-01	0	39	104	0	64	17171
2026-01-07 06:34:08.65	354.72	7.20	-47.6	-60.7	3.8	8.46e-01	0	39	104	0	64	17298
2026-01-07 06:34:10.65	354.45	7.29	-47.6	-60.7	3.8	8.46e-01	0	39	104	0	64	17362
2026-01-07 06:34:12.65	354.18	7.37	-47.6	-60.7	3.8	8.46e-01	0	39	104	0	64	17414
2026-01-07 06:34:14.65	353.90	7.46	-47.6	-60.7	3.8	8.46e-01	0	39	104	0	64	17323
2026-01-07 06:34:16.64	353.63	7.54	-47.6	-60.7	3.8	8.47e-01	0	40	104	0	64	17322
2026-01-07 06:34:18.64	353.35	7.63	-47.6	-60.7	3.8	8.46e-01	0	40	104	0	64	17339
2026-01-07 06:34:20.64	353.07	7.71	-47.6	-60.7	3.8	8.47e-01	0	39	104	0	64	17301
2026-01-07 06:34:22.64	352.78	7.79	-47.6	-60.7	3.8	8.48e-01	0	40	104	0	64	17283
2026-01-07 06:34:24.63	352.50	7.87	-47.5	-60.6	3.8	8.47e-01	0	40	104	0	64	17242
2026-01-07 06:34:26.63	352.22	7.96	-47.5	-60.4	3.8	8.47e-01	0	40	104	0	64	16865
2026-01-07 06:34:28.63	351.93	8.04	-47.6	-60.5	3.8	8.47e-01	0	40	104	0	64	16971
2026-01-07 06:34:30.62	351.64	8.12	-47.6	-60.6	3.8	8.47e-01	0	40	104	0	64	17174
2026-01-07 06:34:32.62	351.35	8.20	-47.6	-60.7	3.8	8.47e-01	0	40	104	0	64	17357
2026-01-07 06:34:34.62	351.06	8.28	-47.6	-60.6	3.8	8.47e-01	0	40	104	0	64	17198
2026-01-07 06:34:36.62	350.77	8.36	-47.5	-60.2	3.8	8.47e-01	0	40	104	0	64	16492
2026-01-07 06:34:38.62	350.47	8.44	-47.6	-60.3	3.8	8.47e-01	0	40	104	0	64	16692
2026-01-07 06:34:40.61	350.17	8.52	-47.6	-60.3	3.8	8.47e-01	0	40	104	0	64	16657
2026-01-07 06:34:42.61	349.88	8.60	-47.5	-58.9	3.8	8.46e-01	0	40	104	0	64	14165
2026-01-07 06:34:44.61	349.58	8.67	-47.3	-57.7	4.1	8.45e-01	0	40	0	0	64	12338
2026-01-07 06:34:46.61	349.27	8.75	-47.3	-57.2	4.2	8.39e-01	0	40	0	0	64	11596
2026-01-07 06:34:48.61	348.97	8.83	-47.2	-56.3	4.5	8.27e-01	0	40	0	0	64	10434
2026-01-07 06:34:50.61	348.67	8.91	-46.8	-54.5	5.4	7.41e-01	0	40	0	0	64	8505
2026-01-07 06:34:52.61	348.36	8.98	-45.8	-50.5	9.0	4.61e-02	0	40	0	12582912	62	6032
2026-01-07 06:34:54.60	348.05	9.06	-44.2	-47.3	12.2	1.83e-04	0	40	0	26214400	59	4951
2026-01-07 06:34:56.60	347.74	9.13	-43.6	-46.5	12.9	6.60e-02	0	40	0	40894464	58	4802
2026-01-07 06:34:58.60	347.43	9.21	-40.9	-42.7	16.8	2.00e-03	0	40	0	55574528	52	4344
2026-01-07 06:35:00.60	347.12	9.28	-40.3	-42.0	17.5	0.00e+00	0	40	0	70254592	51	4245
2026-01-07 06:35:02.59	346.80	9.35	-39.9	-41.5	18.0	0.00e+00	0	40	0	83886080	50	4250
2026-01-07 06:35:04.59	346.49	9.42	-39.8	-41.4	18.1	0.00e+00	0	40	0	98566144	50	4214
2026-01-07 06:35:06.59	346.17	9.50	-39.7	-41.4	18.1	0.00e+00	0	40	0	113246208	50	4200
2026-01-07 06:35:08.59	345.85	9.57	-39.7	-41.4	18.1	0.00e+00	0	40	0	126877696	50	4219
2026-01-07 06:35:10.58	345.53	9.64	-39.7	-41.6	17.9	0.00e+00	0	40	0	141557760	50	4304
2026-01-07 06:35:12.58	345.21	9.71	-39.8	-41.5	18.0	0.00e+00	0	40	0	156237824	50	4280
2026-01-07 06:35:14.58	344.88	9.78	-39.9	-41.5	18.0	0.00e+00	0	40	0	170917888	50	4249
2026-01-07 06:35:16.58	344.55	9.84	-39.9	-41.5	18.0	0.00e+00	0	40	0	184549376	50	4267
2026-01-07 06:35:18.58	344.23	9.91	-39.8	-41.5	18.0	0.00e+00	0	40	0	199229440	50	4269
2026-01-07 06:35:20.58	343.90	9.98	-39.6	-41.4	18.2	0.00e+00	0	40	0	213909504	50	4206
2026-01-07 06:35:22.57	343.57	10.05	-39.3	-40.9	18.6	0.00e+00	0	40	0	228589568	49	4219
2026-01-07 06:35:24.56	343.24	10.11	-39.4	-40.9	18.6	0.00e+00	0	40	0	243269632	49	4215
2026-01-07 06:35:26.56	342.90	10.18	-39.6	-41.0	18.6	0.00e+00	0	40	0	256901120	49	4255
2026-01-07 06:35:28.56	342.57	10.24	-39.8	-41.2	18.3	0.00e+00	0	40	0	271581184	49	4355
2026-01-07 06:35:30.56	342.23	10.30	-39.5	-40.8	18.7	0.00e+00	0	40	0	286261248	49	4190
2026-01-07 06:35:32.56	341.89	10.36	-39.7	-41.0	18.5	0.00e+00	0	40	0	300941312	49	4280
2026-01-07 06:35:34.56	341.55	10.43	-39.9	-41.2	18.3	0.00e+00	0	40	0	314572800	49	4391
2026-01-07 06:35:36.56	341.21	10.49	-39.8	-41.1	18.4	0.00e+00	0	40	0	329252864	49	4320
2026-01-07 06:35:38.56	340.87	10.55	-39.8	-41.0	18.5	0.00e+00	0	40	0	343932928	49	4281
2026-01-07 06:35:40.55	340.53	10.61	-39.9	-41.1	18.4	0.00e+00	0	41	0	358612992	49	4333
2026-01-07 06:35:42.55	340.18	10.66	-39.8	-41.0	18.6	0.00e+00	0	40	0	372244480	49	4243
2026-01-07 06:35:44.55	339.84	10.72	-39.7	-40.8	18.7	0.00e+00	0	40	0	386924544	49	4193
2026-01-07 06:35:46.55	339.49	10.78	-39.6	-40.8	18.8	0.00e+00	0	40	0	401604608	49	4163
2026-01-07 06:35:48.55	339.14	10.83	-39.4	-40.6	19.0	0.00e+00	0	40	0	416284672	49	4073
2026-01-07 06:35:50.54	338.79	10.89	-39.3	-40.5	19.1	0.00e+00	0	40	0	429916160	49	4028
2026-01-07 06:35:52.54	338.44	10.94	-39.2	-40.4	19.2	0.00e+00	0	40	0	444596224	49	3966
2026-01-07 06:35:54.53	338.08	10.99	-39.2	-40.4	19.2	0.00e+00	0	40	0	459276288	49	3964
2026-01-07 06:35:56.54	337.73	11.05	-39.1	-40.2	19.4	0.00e+00	0	40	0	472907776	49	3883
2026-01-07 06:35:58.53	337.37	11.10	-39.1	-40.3	19.3	0.00e+00	0	40	0	487587840	48	4158
2026-01-07 06:36:00.53	337.02	11.15	-39.0	-40.1	19.4	0.00e+00	0	41	0	502267904	48	4096
2026-01-07 06:36:02.53	336.66	11.20	-39.2	-40.3	19.2	0.00e+00	0	40	0	516947968	48	4175
2026-01-07 06:36:04.53	336.30	11.24	-39.2	-40.4	19.2	0.00e+00	0	40	0	531628032	48	4196
2026-01-07 06:36:06.53	335.94	11.29	-39.3	-40.4	19.2	0.00e+00	0	40	0	545259520	48	4223
2026-01-07 06:36:08.52	335.58	11.34	-39.4	-40.5	19.1	0.00e+00	0	40	0	559939584	48	4281
2026-01-07 06:36:10.52	335.21	11.38	-39.6	-40.7	18.8	0.00e+00	0	40	0	574619648	48	4382
2026-01-07 06:36:12.53	334.85	11.43	-39.8	-40.9	18.7	0.00e+00	0	40	0	589299712	49	4222
2026-01-07 06:36:14.53	334.48	11.47	-39.7	-40.8	18.7	0.00e+00	0	41	0	602931200	49	4193
2026-01-07 06:36:16.53	334.11	11.51	-39.7	-40.8	18.8	0.00e+00	0	41	0	617611264	49	4190
2026-01-07 06:36:18.53	333.75	11.55	-39.6	-40.7	18.9	0.00e+00	0	41	0	632291328	49	4136
2026-01-07 06:36:20.52	333.38	11.59	-39.8	-40.9	18.7	0.00e+00	0	41	0	646971392	49	4207
2026-01-07 06:36:22.52	333.01	11.63	-39.6	-40.7	18.9	0.00e+00	0	41	0	660602880	49	4102
2026-01-07 06:36:24.52	332.64	11.67	-39.4	-40.6	19.0	0.00e+00	0	40	0	675282944	49	4053
2026-01-07 06:36:26.51	332.27	11.70	-39.3	-40.3	19.3	0.00e+00	0	40	0	689963008	49	3951
2026-01-07 06:36:28.51	331.90	11.74	-39.3	-40.4	19.2	0.00e+00	0	40	0	704643072	49	3963
2026-01-07 06:36:30.51	331.52	11.77	-39.3	-40.3	19.2	0.00e+00	0	40	0	719323136	49	3948
2026-01-07 06:36:32.51	331.15	11.80	-39.3	-40.4	19.2	0.00e+00	0	40	0	732954624	49	3964
2026-01-07 06:36:34.50	330.77	11.84	-39.3	-40.4	19.2	0.00e+00	0	40	0	747634688	49	3965
2026-01-07 06:36:36.50	330.40	11.87	-39.4	-40.4	19.2	0.00e+00	0	41	0	762314752	49	3990
2026-01-07 06:36:38.50	330.02	11.90	-39.4	-40.5	19.1	0.00e+00	0	41	0	776994816	49	4014
2026-01-07 06:36:40.50	329.64	11.92	-39.6	-40.7	18.9	0.00e+00	0	41	0	790626304	49	4115
2026-01-07 06:36:42.50	329.26	11.95	-39.5	-40.6	19.0	0.00e+00	0	41	0	805306368	49	4059
2026-01-07 06:36:44.49	328.89	11.98	-39.6	-40.7	18.7	0.00e+00	0	41	0	819986432	49	4105
2026-01-07 06:36:46.49	328.51	12.00	-39.7	-40.8	18.9	0.00e+00	0	40	0	833617920	49	4148
2026-01-07 06:36:48.48	328.13	12.03	-39.6	-40.7	18.9	0.00e+00	0	41	0	848297984	49	4114
2026-01-07 06:36:50.48	327.75	12.05	-39.7	-40.8	18.8	0.00e+00	0	41	0	862978048	49	4158
2026-01-07 06:36:52.48	327.37	12.07	-39.6	-40.7	18.9	0.00e+00	0	41	0	877658112	49	4134
2026-01-07 06:36:54.48	326.98	12.09	-39.5	-40.6	19.0	0.00e+00	0	41	0	891289600	49	4085
2026-01-07 06:36:56.47	326.60	12.11	-39.2	-40.4	19.2	0.00e+00	0	41	0	905969664	49	3974
2026-01-07 06:36:58.47	326.22	12.12	-39.2	-40.4	19.2	0.00e+00	0	40	0	920649728	49	3971
2026-01-07 06:37:00.45	325.84	12.14	-39.4	-40.5	19.1	0.00e+00	0	41	0	935329792	49	4037
2026-01-07 06:37:02.44	325.46	12.16	-39.3	-40.5	19.1	0.00e+00	0	41	0	948961280	49	4019
2026-01-07 06:37:04.43	325.08	12.17	-39.1	-40.2	19.3	0.00e+00	0	41	0	963641344	49	3908
2026-01-07 06:37:06.42	324.69	12.18	-39.3	-40.4	19.2	0.00e+00	0	41	0	978321408	49	3986
2026-01-07 06:37:08.42	324.31	12.19	-39.4	-40.5	19.0	0.00e+00	0	41	0	991952896	49	4045
2026-01-07 06:37:10.41	323.92	12.20	-39.2	-40.3	19.3	0.00e+00	0	41	0	1006632960	49	3937
2026-01-07 06:37:12.40	323.54	12.21	-39.2	-40.3	19.3	0.00e+00	0	41	0	1021313024	48	4149
2026-01-07 06:37:14.40	323.15	12.22	-39.3	-40.4	19.2	0.00e+00	0	41	0	1035993088	48	4204
2026-01-07 06:37:16.39	322.77	12.22	-39.4	-40.4	19.2	0.00e+00	0	41	0	1049624576	48	4223
2026-01-07 06:37:18.38	322.39	12.23	-39.3	-40.4	19.2	0.00e+00	0	41	0	1064304640	48	4216
2026-01-07 06:37:20.38	322.00	12.23	-39.4	-40.5	19.1	0.00e+00	0	41	0	1078984704	48	4261
2026-01-07 06:37:22.37	321.61	12.23	-39.4	-40.5	19.1	0.00e+00	0	41	0	1092616192	48	4271
2026-01-07 06:37:24.37	321.23	12.24	-39.3	-40.3	19.3	0.00e+00	0	41	0	1107296256	48	4185
2026-01-07 06:37:26.36	320.84	12.24	-39.3	-40.4	19.2	0.00e+00	0	41	0	1121976320	48	4221
2026-01-07 06:37:28.36	320.46	12.23	-39.1	-40.2	19.4	0.00e+00	0	41	0	1136656384	48	4133
2026-01-07 06:37:30.36	320.07	12.23	-39.2	-40.3	19.3	0.00e+00	0	41	0	1151336448	48	4184
2026-01-07 06:37:32.35	319.69	12.23	-39.2	-40.3	19.3	0.00e+00	0	41	0	1164967936	48	4166
2026-01-07 06:37:34.35	319.30	12.22	-39.1	-40.1	19.4	0.00e+00	0	41	0	1179648000	48	4096
2026-01-07 06:37:36.35	318.91	12.22	-39.1	-40.1	19.5	0.00e+00	0	41	0	1194328064	48	4077
2026-01-07 06:37:38.34	318.53	12.21	-39.0	-40.0	19.6	0.00e+00	0	41	0	1209008128	48	4051
2026-01-07 06:37:40.34	318.14	12.20	-38.9	-39.9	19.6	0.00e+00	0	41	0	1222639616	48	3996
2026-01-07 06:37:42.34	317.76	12.19	-39.0	-40.0	19.6	0.00e+00	0	41	0	1237319680	48	4010
2026-01-07 06:37:44.34	317.37	12.18	-39.1	-40.1	19.5	0.00e+00	0	41	0	1251999744	48	4087
2026-01-07 06:37:46.34	316.99	12.16	-39.3	-40.3	19.3	0.00e+00	0	41	0	1265631232	48	4167
2026-01-07 06:37:48.33	316.60	12.15	-39.4	-40.4	19.2	0.00e+00	0	41	0	1280311296	48	4242
2026-01-07 06:37:50.33	316.22	12.13	-39.4	-40.5	19.0	0.00e+00	0	41	0	1294991360	48	4284
2026-01-07 06:37:52.33	315.84	12.12	-39.5	-40.6	19.0	0.00e+00	0	41	0	1309671424	48	4322
2026-01-07 06:37:54.32	315.46	12.10	-39.4	-40.5	19.1	0.00e+00	0	41	0	1323302912	48	4250
2026-01-07 06:37:56.32	315.07	12.08	-39.3	-40.4	19.2	0.00e+00	0	41	0	1337982976	48	4197
2026-01-07 06:37:58.32	314.69	12.06	-39.4	-40.4	19.2	0.00e+00	0	41	0	1352663040	48	4231
2026-01-07 06:38:00.32	314.31	12.04	-39.6	-40.7	18.9	0.00e+00	0	41	0	1367343104	48	4354
2026-01-07 06:38:02.32	313.93	12.02	-39.6	-40.6	18.9	0.00e+00	0	41	0	1382023168	48	4340
2026-01-07 06:38:04.31	313.55	11.99	-39.6	-40.7	18.9	0.00e+00	0	41	0	1395654656	48	4352
2026-01-07 06:38:06.32	313.17	11.97	-39.5	-40.6	19.0	0.00e+00	0	41	0	1410334720	48	4315
2026-01-07 06:38:08.32	312.79	11.94	-39.6	-40.7	18.9	0.00e+00	0	41	0	1425014784	48	4360
2026-01-07 06:38:10.31	312.41	11.91	-39.6	-40.7	18.9	0.00e+00	0	41	0	1439694848	48	4355
2026-01-07 06:38:12.31	312.03	11.88	-39.6	-40.7	18.9	0.00e+00	0	41	0	1453326336	48	4366
2026-01-07 06:38:14.31	311.65	11.85	-39.8	-40.9	18.7	0.00e+00	0	41	0	1468006400	49	4201
2026-01-07 06:38:16.31	311.28	11.82	-39.8	-40.9	18.5	0.00e+00	0	41	0	1482686464	49	4239
2026-01-07 06:38:18.30	310.90	11.79	-39.6	-40.7	18.9	0.00e+00	0	41	0	1497366528	49	4134
2026-01-07 06:38:20.30	310.53	11.76	-39.6	-40.7	18.9	0.00e+00	0	41	0	1510998016	49	4129
2026-01-07 06:38:22.30	310.16	11.72	-39.6	-40.7	18.9	0.00e+00	0	41	0	1525678080	49	4106
2026-01-07 06:38:24.30	309.78	11.69	-39.7	-40.8	18.8	0.00e+00	0	41	0	1540358144	49	4149
2026-01-07 06:38:26.30	309.41	11.65	-39.6	-40.7	18.9	0.00e+00	0	41	0	1555038208	49	4116
2026-01-07 06:38:28.30	309.04	11.61	-39.6	-40.7	18.8	0.00e+00	0	41	0	1568669696	49	4132
2026-01-07 06:38:30.29	308.67	11.57	-39.5	-40.6	18.9	0.00e+00	0	41	0	1583349760	49	4088
2026-01-07 06:38:32.30	308.30	11.53	-39.6	-40.7	18.8	0.00e+00	0	41	0	1598029824	49	4121
2026-01-07 06:38:34.30	307.93	11.49	-39.7	-40.8	18.8	0.00e+00	0	41	0	1612709888	49	4146
2026-01-07 06:38:36.29	307.57	11.45	-39.7	-40.8	18.8	0.00e+00	0	41	0	1626341376	49	4148
2026-01-07 06:38:38.29	307.20	11.41	-39.6	-40.6	18.9	0.00e+00	0	41	0	1641021440	49	4094
2026-01-07 06:38:40.29	306.83	11.36	-39.7	-40.8	18.8	0.00e+00	0	41	0	1655701504	49	4165
2026-01-07 06:38:42.29	306.47	11.32	-39.8	-40.9	18.7	0.00e+00	0	41	0	1670381568	49	4204
2026-01-07 06:38:44.28	306.11	11.27	-39.8	-40.8	18.7	0.00e+00	0	41	0	1684013056	49	4190
2026-01-07 06:38:46.28	305.75	11.22	-39.6	-40.7	18.9	0.00e+00	0	41	0	1698693120	49	4122
2026-01-07 06:38:48.27	305.39	11.18	-39.6	-40.6	18.9	0.00e+00	0	41	0	1713373184	49	4083
2026-01-07 06:38:50.27	305.03	11.13	-39.5	-40.6	19.0	0.00e+00	0	41	0	1728053248	49	4074
2026-01-07 06:38:52.27	304.67	11.08	-39.9	-41.0	18.6	0.00e+00	0	41	0	1741684736	49	4258
2026-01-07 06:38:54.27	304.32	11.03	-39.7	-40.8	18.8	0.00e+00	0	41	0	1756364800	49	4157
2026-01-07 06:38:56.26	303.96	10.97	-39.9	-41.0	18.6	0.00e+00	0	41	0	1771044864	49	4243
2026-01-07 06:38:58.25	303.61	10.92	-40.1	-41.2	18.4	0.00e+00	0	41	0	1785724928	49	4358
2026-01-07 06:39:00.25	303.26	10.87	-40.1	-41.3	18.3	0.00e+00	0	41	0	1799356416	49	4394
2026-01-07 06:39:02.24	302.91	10.81	-40.0	-41.1	18.4	0.00e+00	0	41	0	1814036480	49	4339
2026-01-07 06:39:04.24	302.56	10.76	-40.0	-41.1	18.4	0.00e+00	0	41	0	1828716544	49	4307
2026-01-07 06:39:06.24	302.21	10.70	-40.0	-41.1	18.4	0.00e+00	0	41	0	1842348032	49	4331
2026-01-07 06:39:08.24	301.86	10.64	-40.0	-41.1	18.5	0.00e+00	0	41	0	1857028096	49	4298
2026-01-07 06:39:10.23	301.52	10.58	-40.0	-41.1	18.4	0.00e+00	0	41	0	1871708160	49	4311
2026-01-07 06:39:12.23	301.17	10.52	-40.2	-41.3	18.2	0.00e+00	0	41	0	1886388224	49	4426
2026-01-07 06:39:14.22	300.83	10.46	-39.9	-40.9	18.6	0.00e+00	0	41	0	1900019712	50	3997
2026-01-07 06:39:16.22	300.49	10.40	-40.1	-41.2	18.3	0.00e+00	0	41	0	1914699776	50	4120
2026-01-07 06:39:18.23	300.15	10.34	-40.1	-41.2	18.4	0.00e+00	0	41	0	1929379840	50	4121
2026-01-07 06:39:20.23	299.81	10.28	-40.3	-41.4	18.1	0.00e+00	0	41	0	1944059904	50	4233
2026-01-07 06:39:22.23	299.47	10.21	-40.3	-41.4	18.1	0.00e+00	0	41	0	1958739968	50	4225
2026-01-07 06:39:24.23	299.13	10.15	-40.5	-41.6	17.9	0.00e+00	0	41	0	1972371456	50	4330
2026-01-07 06:39:26.23	298.80	10.08	-40.4	-41.6	17.9	0.00e+00	0	41	0	1987051520	50	4330
2026-01-07 06:39:28.23	298.47	10.02	-40.5	-41.6	17.9	0.00e+00	0	41	0	2001731584	50	4339
2026-01-07 06:39:30.23	298.13	9.95	-40.5	-41.6	17.9	0.00e+00	0	41	0	2016411648	50	4320
2026-01-07 06:39:32.22	297.81	9.88	-40.3	-41.4	18.1	0.00e+00	0	41	0	2030043136	50	4226
2026-01-07 06:39:34.23	297.48	9.81	-40.5	-41.6	17.9	0.00e+00	0	41	0	2044723200	50	4326
2026-01-07 06:39:36.22	297.15	9.75	-40.3	-41.4	18.1	0.00e+00	0	41	0	2059403264	50	4214
2026-01-07 06:39:38.21	296.83	9.68	-40.3	-41.5	18.0	0.00e+00	0	41	0	2074083328	50	4263
2026-01-07 06:39:40.22	296.50	9.61	-40.6	-41.7	17.8	0.00e+00	0	41	0	2087714816	50	4390
2026-01-07 06:39:42.22	296.18	9.54	-40.4	-41.5	18.0	0.00e+00	0	41	0	2102394880	50	4271
2026-01-07 06:39:44.21	295.86	9.46	-40.3	-41.4	18.1	0.00e+00	0	41	0	2117074944	50	4220
2026-01-07 06:39:46.21	295.54	9.39	-40.4	-41.5	18.0	0.00e+00	0	41	0	2131755008	50	4284
2026-01-07 06:39:48.22	295.22	9.32	-40.2	-41.3	18.2	0.00e+00	0	41	0	2146435072	50	4186
2026-01-07 06:39:50.21	294.91	9.25	-40.3	-41.4	18.0	0.00e+00	0	41	0	2160066560	50	4224
2026-01-07 06:39:52.22	294.59	9.17	-40.4	-41.6	17.9	0.00e+00	0	41	0	2174746624	50	4313
2026-01-07 06:39:54.21	294.28	9.10	-40.4	-41.6	17.9	0.00e+00	0	41	0	2189426688	50	4296
2026-01-07 06:39:56.21	293.97	9.02	-40.5	-41.6	17.9	0.00e+00	0	41	0	2204106752	50	4324
2026-01-07 06:39:58.21	293.66	8.95	-50.4	-61.2	3.8	8.48e-01	0	41	104	2209349632	70	12960
2026-01-07 06:40:00.22	293.35	8.87	-50.5	-61.4	3.8	8.47e-01	0	41	104	2209349632	70	13330
2026-01-07 06:40:02.21	293.05	8.79	-50.7	-61.5	3.8	8.48e-01	0	41	104	2209349632	70	13568
2026-01-07 06:40:04.21	292.74	8.72	-50.6	-61.6	3.8	8.47e-01	0	41	104	2209349632	71	12829
2026-01-07 06:40:06.20	292.44	8.64	-50.6	-61.6	3.8	8.46e-01	0	41	104	2209349632	71	12889
2026-01-07 06:40:08.19	292.14	8.56	-50.7	-61.6	3.8	8.46e-01	0	41	104	2209349632	71	12913
2026-01-07 06:40:10.19	291.84	8.48	-50.7	-61.6	3.8	8.48e-01	0	41	104	2209349632	71	12900
2026-01-07 06:40:12.19	291.54	8.40	-50.8	-61.6	3.8	8.47e-01	0	41	104	2209349632	71	12913
2026-01-07 06:40:14.19	291.25	8.32	-50.8	-61.6	3.8	8.47e-01	0	41	104	2209349632	71	12853
2026-01-07 06:40:16.18	290.95	8.24	-50.7	-61.6	3.8	8.47e-01	0	41	104	2209349632	71	12853
2026-01-07 06:40:18.18	290.66	8.16	-50.4	-61.5	3.8	8.47e-01	0	41	104	2209349632	71	12780
2026-01-07 06:40:20.17	290.37	8.08	-50.4	-61.5	3.8	8.47e-01	0	41	104	2209349632	71	12793
2026-01-07 06:40:22.17	290.08	8.00	-50.4	-61.5	3.8	8.47e-01	0	41	104	2209349632	71	12770
2026-01-07 06:40:24.17	289.79	7.92	-50.4	-61.5	3.8	8.47e-01	0	41	104	2209349632	71	12725
2026-01-07 06:40:26.16	289.51	7.83	-50.4	-61.5	3.8	8.46e-01	0	41	104	2209349632	71	12780
2026-01-07 06:40:28.16	289.22	7.75	-50.4	-61.5	3.8	8.46e-01	0	41	104	2209349632	71	12758
2026-01-07 06:40:30.16	288.94	7.67	-50.4	-61.5	3.8	8.46e-01	0	41	104	2209349632	71	12715
2026-01-07 06:40:32.16	288.66	7.58	-50.4	-61.5	3.8	8.47e-01	0	41	104	2209349632	71	12710
2026-01-07 06:40:34.15	288.38	7.50	-50.4	-61.5	3.8	8.47e-01	0	41	104	2209349632	71	12779
2026-01-07 06:40:36.15	288.10	7.42	-50.4	-61.5	3.8	8.47e-01	0	41	104	2209349632	71	12709
2026-01-07 06:40:38.15	287.83	7.33	-50.4	-61.5	3.8	8.47e-01	0	41	104	2209349632	71	12781
2026-01-07 06:40:40.15	287.55	7.25	-50.4	-61.5	3.8	8.47e-01	0	41	104	2209349632	71	12713
2026-01-07 06:40:42.14	287.28	7.16	-50.4	-61.5	3.8	8.47e-01	0	41	104	2209349632	71	12723
2026-01-07 06:40:44.14	287.01	7.08	-50.4	-61.5	3.8	8.47e-01	0	41	104	2209349632	71	12699
2026-01-07 06:40:46.14	286.74	6.99	-50.4	-61.5	3.8	8.47e-01	0	41	104	2209349632	71	12755
2026-01-07 06:40:48.13	286.47	6.90	-50.3	-61.5	3.8	8.46e-01	0	41	104	2209349632	71	12700
2026-01-07 06:40:50.13	286.20	6.82	-50.3	-61.4	3.8	8.47e-01	0	41	104	2209349632	71	12653
2026-01-07 06:40:52.13	285.94	6.73	-50.4	-61.5	3.8	8.47e-01	0	41	104	2209349632	71	12709
2026-01-07 06:40:54.13	285.67	6.64	-50.3	-61.5	3.8	8.47e-01	0	41	104	2209349632	71	12675
2026-01-07 06:40:56.12	285.41	6.56	-50.3	-61.5	3.8	8.47e-01	0	41	104	2209349632	71	12726
2026-01-07 06:40:58.12	285.15	6.47	-50.4	-61.5	3.8	8.47e-01	0	41	104	2209349632	71	12684
2026-01-07 06:41:00.12	284.89	6.38	-50.3	-61.5	3.8	8.47e-01	0	41	104	2209349632	71	12703
2026-01-07 06:41:02.11	284.64	6.29	-50.3	-61.5	3.8	8.47e-01	0	41	104	2209349632	71	12721
2026-01-07 06:41:04.11	284.38	6.20	-50.3	-61.5	3.8	8.47e-01	0	41	104	2209349632	71	12717
2026-01-07 06:41:06.11	284.13	6.12	-50.3	-61.5	3.8	8.48e-01	0	41	104	2209349632	71	12737
2026-01-07 06:41:08.11	283.88	6.03	-50.2	-61.4	3.8	8.47e-01	0	41	104	2209349632	71	12647
2026-01-07 06:41:10.10	283.63	5.94	-50.3	-61.5	3.8	8.47e-01	0	41	104	2209349632	71	12709
2026-01-07 06:41:12.09	283.38	5.85	-50.3	-61.4	3.8	8.48e-01	0	41	104	2209349632	71	12632
2026-01-07 06:41:14.08	283.13	5.76	-50.3	-61.5	3.8	8.47e-01	0	41	104	2209349632	71	12678
2026-01-07 06:41:16.08	282.89	5.67	-50.4	-61.5	3.8	8.46e-01	0	41	104	2209349632	71	12733
2026-01-07 06:41:18.06	282.64	5.58	-50.3	-61.5	3.8	8.46e-01	0	41	104	2209349632	71	12665
2026-01-07 06:41:20.05	282.40	5.49	-50.4	-61.5	3.8	8.48e-01	0	41	104	2209349632	71	12674
2026-01-07 06:41:22.05	282.16	5.40	-50.4	-61.5	3.8	8.46e-01	0	41	104	2209349632	71	12708
2026-01-07 06:41:24.05	281.92	5.31	-50.3	-61.4	3.8	8.47e-01	0	41	104	2209349632	71	12633
2026-01-07 06:41:26.05	281.68	5.22	-50.4	-61.5	3.8	8.47e-01	0	41	104	2209349632	71	12716
2026-01-07 06:41:28.04	281.44	5.13	-50.4	-61.4	3.8	8.46e-01	0	41	104	2209349632	71	12630
2026-01-07 06:41:30.04	281.21	5.04	-50.4	-61.5	3.8	8.47e-01	0	41	104	2209349632	71	12669

#Closed at: 2026-01-07 06:41:32
#Recorded file [2209 MB]: D:/Data/31040_260107_093320.dat