passes_logs/2026/01/07/T1/T1__20260107_065221_KHAYYAM_rec.log

#Pass ID: 20260107_065221_KHAYYAM
#Satellite: KHAYYAM
#Configuration: KHAYYAM_480M
#almurnet v.1.7.20251203
#Start time: 2026-01-07 06:52:23

#Version: 2.0.20230620
#Station: T1
#Location: 37.570604 lon 55.790049 lat
#TLE: 1 53370U 22096A   26005.63766736  .00008095  00000+0  32978-3 0  9997
#TLE: 2 53370  97.3565 272.8146 0001238  87.7645 272.3734 15.24731212189819

#Time	Az	El	Level	Level2	SNR	BER	BlckErr	Temp	State	Recorded	gain1	gain2
2026-01-07 06:52:23.03	124.95	5.11	-52.5	-57.1	3.6	0.00e+00	0	44	0	0	77	23219
2026-01-07 06:52:25.02	124.76	5.26	-52.5	-57.0	3.7	0.00e+00	0	44	104	0	75	25883
2026-01-07 06:52:27.02	124.56	5.40	-52.5	-57.0	3.7	0.00e+00	0	44	104	0	75	25916
2026-01-07 06:52:29.02	124.36	5.55	-52.5	-57.0	3.7	0.00e+00	0	44	104	0	75	25900
2026-01-07 06:52:31.02	124.16	5.70	-52.5	-57.0	3.7	0.00e+00	0	45	104	0	75	25883
2026-01-07 06:52:33.01	123.95	5.85	-52.4	-57.0	3.7	0.00e+00	0	45	104	0	75	25796
2026-01-07 06:52:35.01	123.74	6.00	-52.5	-57.0	3.7	0.00e+00	0	45	104	0	75	25753
2026-01-07 06:52:37.01	123.53	6.16	-52.4	-57.0	3.7	0.00e+00	0	45	104	0	75	25777
2026-01-07 06:52:39.00	123.32	6.31	-52.4	-57.0	3.7	0.00e+00	0	45	104	0	75	25785
2026-01-07 06:52:41.00	123.10	6.46	-52.5	-57.0	3.7	0.00e+00	0	45	104	0	75	25798
2026-01-07 06:52:43.00	122.88	6.62	-52.5	-57.0	3.7	0.00e+00	0	45	104	0	75	25801
2026-01-07 06:52:45.00	122.66	6.77	-52.5	-57.0	3.7	0.00e+00	0	46	104	0	75	25883
2026-01-07 06:52:46.99	122.43	6.93	-52.5	-57.0	3.7	0.00e+00	0	46	104	0	75	25759
2026-01-07 06:52:48.99	122.20	7.09	-52.5	-57.0	3.7	0.00e+00	0	46	104	0	75	25771
2026-01-07 06:52:50.98	121.97	7.24	-52.5	-57.0	3.7	0.00e+00	0	46	104	0	75	25788
2026-01-07 06:52:52.97	121.73	7.40	-52.5	-57.0	3.7	0.00e+00	0	46	104	0	75	25894
2026-01-07 06:52:54.97	121.49	7.56	-52.5	-57.0	3.7	0.00e+00	0	46	104	0	75	25853
2026-01-07 06:52:56.97	121.25	7.73	-52.4	-57.0	3.7	0.00e+00	0	46	104	0	75	25749
2026-01-07 06:52:58.96	121.01	7.89	-52.4	-56.9	3.7	0.00e+00	0	46	104	0	75	25665
2026-01-07 06:53:00.96	120.75	8.05	-52.4	-57.0	3.7	0.00e+00	0	47	104	0	75	25730
2026-01-07 06:53:02.95	120.50	8.21	-52.4	-56.9	3.7	0.00e+00	0	47	104	0	75	25441
2026-01-07 06:53:04.95	120.24	8.38	-52.3	-56.7	3.7	0.00e+00	0	47	104	0	75	24832
2026-01-07 06:53:06.95	119.98	8.55	-52.1	-56.4	3.7	0.00e+00	0	47	104	0	75	24048
2026-01-07 06:53:08.94	119.72	8.71	-52.2	-56.5	3.7	0.00e+00	0	47	104	0	75	24327
2026-01-07 06:53:10.94	119.45	8.88	-52.4	-56.8	3.7	0.00e+00	0	47	104	0	75	25341
2026-01-07 06:53:12.94	119.18	9.05	-52.5	-57.0	3.7	0.00e+00	0	47	104	0	75	25744
2026-01-07 06:53:14.94	118.90	9.22	-52.5	-57.0	3.7	0.00e+00	0	47	104	0	75	25930
2026-01-07 06:53:16.95	118.62	9.40	-52.6	-57.0	3.7	0.00e+00	0	47	104	0	75	25760
2026-01-07 06:53:18.95	118.33	9.57	-52.7	-57.2	3.7	0.00e+00	0	47	104	0	76	25018
2026-01-07 06:53:20.95	118.04	9.74	-52.5	-57.0	3.7	0.00e+00	0	47	104	0	76	24252
2026-01-07 06:53:22.95	117.75	9.92	-52.6	-57.1	3.7	0.00e+00	0	47	104	0	76	24667
2026-01-07 06:53:24.96	117.45	10.09	-52.6	-57.1	3.7	0.00e+00	0	47	104	0	76	24527
2026-01-07 06:53:26.96	117.15	10.27	-52.6	-57.2	3.7	0.00e+00	0	47	104	0	76	24838
2026-01-07 06:53:28.96	116.84	10.45	-52.7	-57.2	3.7	0.00e+00	0	47	104	0	76	24920
2026-01-07 06:53:30.95	116.53	10.63	-52.7	-57.3	3.7	0.00e+00	0	48	104	0	76	25268
2026-01-07 06:53:32.95	116.21	10.81	-52.9	-57.3	3.7	0.00e+00	0	48	104	0	76	25324
2026-01-07 06:53:34.95	115.89	10.99	-52.9	-57.4	3.7	0.00e+00	0	48	104	0	76	25564
2026-01-07 06:53:36.94	115.56	11.17	-52.8	-57.3	3.6	0.00e+00	0	48	104	0	76	25240
2026-01-07 06:53:38.93	115.23	11.35	-52.9	-57.4	3.7	0.00e+00	0	48	104	0	76	25396
2026-01-07 06:53:40.93	114.89	11.54	-52.7	-57.2	3.7	0.00e+00	0	48	104	0	76	25059
2026-01-07 06:53:42.92	114.55	11.72	-52.7	-57.2	3.7	0.00e+00	0	48	104	0	76	25081
2026-01-07 06:53:44.92	114.20	11.91	-52.8	-57.3	3.7	0.00e+00	0	48	104	0	76	25158
2026-01-07 06:53:46.92	113.85	12.10	-52.7	-57.2	3.7	0.00e+00	0	48	104	0	76	25055
2026-01-07 06:53:48.91	113.49	12.28	-52.9	-57.4	3.7	0.00e+00	0	48	104	0	76	25668
2026-01-07 06:53:50.91	113.13	12.47	-53.0	-57.5	3.7	0.00e+00	0	48	104	0	76	25867
2026-01-07 06:53:52.91	112.76	12.66	-52.8	-57.4	3.7	0.00e+00	0	48	104	0	76	25524
2026-01-07 06:53:54.90	112.38	12.85	-52.9	-57.5	3.7	0.00e+00	0	48	104	0	76	25811
2026-01-07 06:53:56.90	112.00	13.05	-52.6	-57.2	3.7	0.00e+00	0	48	104	0	76	25039
2026-01-07 06:53:58.89	111.61	13.24	-52.7	-57.4	3.7	0.00e+00	0	48	104	0	76	25470
2026-01-07 06:54:00.88	111.22	13.43	-52.7	-57.3	3.7	0.00e+00	0	48	104	0	76	25345
2026-01-07 06:54:02.88	110.82	13.63	-52.9	-57.6	3.7	0.00e+00	0	48	104	0	76	26038
2026-01-07 06:54:04.88	110.41	13.82	-52.8	-57.4	3.7	0.00e+00	0	48	104	0	76	25532
2026-01-07 06:54:06.87	110.00	14.02	-53.0	-57.6	3.7	0.00e+00	0	48	104	0	76	25996
2026-01-07 06:54:08.86	109.58	14.21	-53.0	-57.5	3.7	0.00e+00	0	48	104	0	76	25852
2026-01-07 06:54:10.86	109.15	14.41	-53.1	-57.6	3.7	0.00e+00	0	48	104	0	76	26075
2026-01-07 06:54:12.85	108.72	14.61	-53.1	-57.6	3.7	0.00e+00	0	48	104	0	76	26211
2026-01-07 06:54:14.85	108.28	14.81	-53.2	-57.7	3.7	0.00e+00	0	48	104	0	77	25050
2026-01-07 06:54:16.84	107.83	15.01	-53.0	-57.6	3.6	0.00e+00	0	48	104	0	77	24766
2026-01-07 06:54:18.83	107.38	15.21	-53.0	-57.7	3.7	0.00e+00	0	48	104	0	77	24930
2026-01-07 06:54:20.82	106.91	15.41	-52.8	-57.5	3.7	0.00e+00	0	48	104	0	77	24311
2026-01-07 06:54:22.83	106.44	15.61	-52.9	-57.5	3.7	0.00e+00	0	48	104	0	77	24461
2026-01-07 06:54:24.82	105.96	15.81	-53.2	-57.7	3.7	0.00e+00	0	49	104	0	77	24894
2026-01-07 06:54:26.81	105.48	16.02	-53.2	-57.7	3.7	0.00e+00	0	49	104	0	77	24864
2026-01-07 06:54:28.81	104.98	16.22	-53.3	-57.8	3.7	0.00e+00	0	48	104	0	77	25109
2026-01-07 06:54:30.81	104.48	16.42	-53.2	-57.8	3.7	0.00e+00	0	49	104	0	77	25243
2026-01-07 06:54:32.81	103.97	16.63	-53.1	-57.6	3.7	0.00e+00	0	49	104	0	77	24736
2026-01-07 06:54:34.80	103.45	16.83	-53.2	-57.7	3.7	0.00e+00	0	49	104	0	77	25026
2026-01-07 06:54:36.80	102.93	17.03	-53.2	-57.8	3.7	0.00e+00	0	49	104	0	77	25198
2026-01-07 06:54:38.80	102.39	17.24	-53.3	-57.8	3.7	0.00e+00	0	49	104	0	77	25231
2026-01-07 06:54:40.80	101.85	17.44	-53.2	-57.6	3.7	0.00e+00	0	48	104	0	77	24796
2026-01-07 06:54:42.80	101.29	17.65	-53.2	-57.7	3.7	0.00e+00	0	49	104	0	77	24893
2026-01-07 06:54:44.79	100.73	17.85	-53.3	-57.6	3.7	0.00e+00	0	49	104	0	77	24764
2026-01-07 06:54:46.79	100.16	18.05	-53.3	-57.7	3.7	0.00e+00	0	49	104	0	77	24994
2026-01-07 06:54:48.78	99.59	18.25	-53.3	-57.7	3.7	0.00e+00	0	49	104	0	77	25000
2026-01-07 06:54:50.78	99.00	18.46	-53.3	-57.8	3.7	0.00e+00	0	49	104	0	77	25290
2026-01-07 06:54:52.77	98.40	18.66	-53.3	-57.7	3.7	0.00e+00	0	49	104	0	77	24854
2026-01-07 06:54:54.77	97.79	18.86	-53.2	-57.6	3.7	0.00e+00	0	49	104	0	77	24548
2026-01-07 06:54:56.76	97.18	19.06	-53.3	-57.8	3.7	0.00e+00	0	49	104	0	77	25277
2026-01-07 06:54:58.75	96.56	19.25	-53.3	-57.7	3.7	0.00e+00	0	49	104	0	77	25015
2026-01-07 06:55:00.75	95.92	19.45	-53.1	-57.2	3.7	0.00e+00	0	49	104	0	77	23445
2026-01-07 06:55:02.74	95.28	19.65	-53.2	-57.4	3.7	0.00e+00	0	49	104	0	77	24063
2026-01-07 06:55:04.73	94.63	19.84	-52.9	-57.1	3.7	0.00e+00	0	49	104	0	77	23194
2026-01-07 06:55:06.73	93.97	20.03	-52.8	-57.1	3.7	0.00e+00	0	49	104	0	76	24630
2026-01-07 06:55:08.72	93.29	20.23	-52.7	-57.0	3.7	0.00e+00	0	49	104	0	76	24444
2026-01-07 06:55:10.71	92.61	20.41	-52.8	-56.8	3.7	0.00e+00	0	49	104	0	76	23790
2026-01-07 06:55:12.71	91.92	20.60	-52.5	-56.4	3.7	0.00e+00	0	49	104	0	76	22855
2026-01-07 06:55:14.71	91.22	20.79	-52.5	-56.6	3.7	0.00e+00	0	49	104	0	76	23233
2026-01-07 06:55:16.70	90.51	20.97	-52.9	-57.1	3.7	0.00e+00	0	49	104	0	76	24717
2026-01-07 06:55:18.70	89.79	21.15	-52.9	-57.3	3.7	0.00e+00	0	49	104	0	76	25238
2026-01-07 06:55:20.70	89.06	21.33	-52.7	-57.5	3.7	0.00e+00	0	49	104	0	76	25752
2026-01-07 06:55:22.69	88.32	21.50	-52.5	-56.9	3.7	0.00e+00	0	49	104	0	76	24193
2026-01-07 06:55:24.68	87.57	21.67	-52.9	-57.3	3.7	0.00e+00	0	49	104	0	76	25383
2026-01-07 06:55:26.68	86.81	21.84	-52.8	-57.6	3.7	0.00e+00	0	49	104	0	76	25982
2026-01-07 06:55:28.68	86.04	22.00	-52.5	-57.4	3.7	0.00e+00	0	49	104	0	76	25412
2026-01-07 06:55:30.68	85.26	22.17	-52.8	-57.5	3.7	0.00e+00	0	49	104	0	76	25753
2026-01-07 06:55:32.67	84.48	22.32	-52.8	-57.7	3.7	0.00e+00	0	49	104	0	76	26305
2026-01-07 06:55:34.67	83.68	22.48	-52.6	-57.5	3.7	0.00e+00	0	49	104	0	76	25868
2026-01-07 06:55:36.66	82.88	22.62	-52.6	-57.4	3.7	0.00e+00	0	49	104	0	76	25646
2026-01-07 06:55:38.66	82.07	22.77	-52.8	-57.5	3.7	0.00e+00	0	49	104	0	76	25946
2026-01-07 06:55:40.66	81.25	22.91	-52.8	-57.7	3.7	0.00e+00	0	49	104	0	76	26401
2026-01-07 06:55:42.65	80.42	23.04	-53.1	-57.7	3.7	0.00e+00	0	49	104	0	76	26415
2026-01-07 06:55:44.65	79.58	23.17	-53.2	-57.7	3.7	0.00e+00	0	49	104	0	77	24817
2026-01-07 06:55:46.65	78.74	23.30	-53.0	-57.6	3.7	0.00e+00	0	49	104	0	77	24710
2026-01-07 06:55:48.64	77.89	23.42	-53.1	-57.6	3.7	0.00e+00	0	49	104	0	77	24771
2026-01-07 06:55:50.64	77.03	23.53	-53.3	-57.8	3.7	0.00e+00	0	49	104	0	77	25198
2026-01-07 06:55:52.64	76.16	23.64	-53.1	-57.8	3.7	0.00e+00	0	49	104	0	77	25096
2026-01-07 06:55:54.63	75.29	23.74	-53.3	-57.8	3.7	0.00e+00	0	49	104	0	77	25371
2026-01-07 06:55:56.62	74.41	23.84	-53.3	-57.8	3.7	0.00e+00	0	49	104	0	77	25312
2026-01-07 06:55:58.62	73.53	23.93	-53.1	-57.4	3.7	0.00e+00	0	49	104	0	77	24225
2026-01-07 06:56:00.61	72.64	24.01	-53.2	-57.6	3.7	0.00e+00	0	49	104	0	77	24774
2026-01-07 06:56:02.61	71.75	24.09	-53.3	-57.7	3.7	0.00e+00	0	49	104	0	77	24895
2026-01-07 06:56:04.61	70.84	24.16	-53.2	-57.3	3.7	0.00e+00	0	49	104	0	77	23964
2026-01-07 06:56:06.61	69.94	24.22	-53.2	-57.6	3.7	0.00e+00	0	49	104	0	77	24551
2026-01-07 06:56:08.60	69.03	24.28	-53.2	-57.5	3.7	0.00e+00	0	49	104	0	77	24264
2026-01-07 06:56:10.60	68.12	24.33	-53.3	-57.5	3.7	0.00e+00	0	49	104	0	77	24481
2026-01-07 06:56:12.59	67.21	24.37	-53.2	-57.6	3.7	0.00e+00	0	49	104	0	77	24597
2026-01-07 06:56:14.59	66.29	24.41	-53.3	-57.8	3.7	0.00e+00	0	49	104	0	77	25230
2026-01-07 06:56:16.59	65.37	24.43	-53.3	-57.9	3.7	0.00e+00	0	49	104	0	77	25590
2026-01-07 06:56:18.59	64.45	24.46	-53.3	-57.6	3.7	0.00e+00	0	49	104	0	77	24662
2026-01-07 06:56:20.59	63.53	24.47	-53.3	-57.7	3.7	0.00e+00	0	49	104	0	77	24843
2026-01-07 06:56:22.58	62.61	24.48	-53.2	-57.6	3.7	0.00e+00	0	49	104	0	77	24622
2026-01-07 06:56:24.57	61.69	24.48	-53.2	-57.5	3.7	0.00e+00	0	49	104	0	77	24265
2026-01-07 06:56:26.56	60.77	24.47	-53.0	-57.4	3.7	0.00e+00	0	49	104	0	77	24118
2026-01-07 06:56:28.55	59.86	24.45	-53.3	-57.7	3.7	0.00e+00	0	49	104	0	77	24883
2026-01-07 06:56:30.54	58.94	24.43	-53.3	-57.8	3.7	0.00e+00	0	49	104	0	77	25112
2026-01-07 06:56:32.54	58.02	24.40	-52.8	-57.3	3.7	0.00e+00	0	49	104	0	77	23725
2026-01-07 06:56:34.54	57.10	24.36	-53.0	-57.4	3.7	0.00e+00	0	49	104	0	77	24161
2026-01-07 06:56:36.53	56.19	24.32	-52.8	-56.8	3.7	0.00e+00	0	49	104	0	76	23904
2026-01-07 06:56:38.53	55.28	24.27	-53.1	-57.4	3.7	0.00e+00	0	49	104	0	76	25577
2026-01-07 06:56:40.53	54.37	24.21	-53.2	-57.5	3.7	0.00e+00	0	49	104	0	77	24490
2026-01-07 06:56:42.53	53.47	24.15	-52.7	-56.9	3.6	0.00e+00	0	49	104	0	77	22776
2026-01-07 06:56:44.54	52.57	24.08	-52.5	-56.4	3.7	0.00e+00	0	49	104	0	77	21373
2026-01-07 06:56:46.54	51.67	24.00	-52.8	-56.8	3.7	0.00e+00	0	49	104	0	77	22476
2026-01-07 06:56:48.54	50.79	23.92	-53.0	-57.3	3.7	0.00e+00	0	49	104	0	77	23761
2026-01-07 06:56:50.55	49.90	23.82	-53.2	-57.4	3.7	0.00e+00	0	50	104	0	77	24226
2026-01-07 06:56:52.55	49.02	23.73	-53.0	-57.1	3.6	0.00e+00	0	49	104	0	77	23366
2026-01-07 06:56:54.55	48.15	23.62	-53.1	-57.5	3.7	0.00e+00	0	49	104	0	77	24262
2026-01-07 06:56:56.56	47.28	23.52	-53.1	-57.3	3.7	0.00e+00	0	49	104	0	77	23922
2026-01-07 06:56:58.56	46.42	23.40	-53.1	-57.3	3.7	0.00e+00	0	49	104	0	77	23856
2026-01-07 06:57:00.55	45.58	23.28	-53.4	-57.9	3.7	0.00e+00	0	49	104	0	77	25676
2026-01-07 06:57:02.55	44.74	23.16	-53.4	-57.9	3.7	0.00e+00	0	49	104	0	77	25505
2026-01-07 06:57:04.56	43.90	23.03	-53.3	-57.9	3.7	0.00e+00	0	49	104	0	77	25406
2026-01-07 06:57:06.55	43.08	22.89	-53.0	-57.3	3.7	0.00e+00	0	49	104	0	77	23829
2026-01-07 06:57:08.56	42.25	22.75	-52.5	-56.5	3.7	0.00e+00	0	49	104	0	77	21721
2026-01-07 06:57:10.55	41.45	22.61	-51.9	-55.1	3.7	0.00e+00	0	49	104	0	75	20760
2026-01-07 06:57:12.55	40.65	22.46	-51.0	-53.7	3.8	0.00e+00	0	49	104	0	74	18718
2026-01-07 06:57:14.56	39.85	22.30	-51.4	-54.4	3.7	0.00e+00	0	49	104	0	73	21427
2026-01-07 06:57:16.56	39.07	22.15	-51.1	-54.0	3.9	0.00e+00	0	49	104	0	72	21825
2026-01-07 06:57:18.57	38.29	21.99	-51.4	-54.5	3.8	0.00e+00	0	49	104	0	74	20509
2026-01-07 06:57:20.57	37.53	21.82	-50.9	-53.6	3.8	0.00e+00	0	49	104	0	73	19647
2026-01-07 06:57:22.58	36.77	21.65	-50.6	-53.2	3.7	0.00e+00	0	49	104	0	73	18795
2026-01-07 06:57:24.58	36.02	21.48	-50.6	-53.4	3.7	0.00e+00	0	49	104	0	73	19111
2026-01-07 06:57:26.58	35.29	21.31	-52.3	-56.1	3.7	0.00e+00	0	49	104	0	75	23179
2026-01-07 06:57:28.58	34.56	21.13	-51.7	-55.2	3.7	0.00e+00	0	50	104	0	75	20925
2026-01-07 06:57:30.58	33.84	20.95	-51.3	-54.6	3.7	0.00e+00	0	49	104	0	74	20752
2026-01-07 06:57:32.59	33.13	20.77	-51.2	-54.4	3.7	0.00e+00	0	49	104	0	74	20218
2026-01-07 06:57:34.58	32.44	20.58	-52.0	-55.9	3.7	0.00e+00	0	49	104	0	74	24011
2026-01-07 06:57:36.59	31.75	20.39	-47.8	-49.8	3.8	0.00e+00	0	50	104	0	67	17914
2026-01-07 06:57:38.59	31.07	20.21	-48.9	-51.1	3.9	0.00e+00	0	49	104	0	68	19558
2026-01-07 06:57:40.59	30.40	20.01	-52.7	-56.9	3.7	0.00e+00	0	50	104	0	76	24074
2026-01-07 06:57:42.59	29.74	19.82	-51.3	-54.5	3.7	0.00e+00	0	50	104	0	74	20616
2026-01-07 06:57:44.60	29.09	19.63	-51.0	-54.1	3.7	0.00e+00	0	49	104	0	73	20836
2026-01-07 06:57:46.61	28.45	19.43	-51.9	-55.6	3.7	0.00e+00	0	50	104	0	74	23333
2026-01-07 06:57:48.61	27.82	19.23	-51.1	-54.0	3.7	0.00e+00	0	50	104	0	74	19433
2026-01-07 06:57:50.61	27.20	19.04	-51.9	-55.2	3.7	0.00e+00	0	49	104	0	74	22192
2026-01-07 06:57:52.62	26.58	18.84	-52.2	-56.6	3.7	0.00e+00	0	49	104	0	74	26057
2026-01-07 06:57:54.62	25.98	18.64	-51.8	-56.8	3.7	0.00e+00	0	49	104	0	75	25238
2026-01-07 06:57:56.62	25.39	18.44	-51.0	-56.4	3.7	0.00e+00	0	49	104	0	74	25426
2026-01-07 06:57:58.61	24.81	18.24	-50.7	-56.3	3.7	0.00e+00	0	50	104	0	72	28268
2026-01-07 06:58:00.62	24.23	18.03	-51.8	-56.7	3.7	0.00e+00	0	50	104	0	75	25018
2026-01-07 06:58:02.62	23.66	17.83	-52.1	-57.0	3.7	0.00e+00	0	50	104	0	75	25704
2026-01-07 06:58:04.62	23.11	17.63	-52.6	-57.2	3.7	0.00e+00	0	50	104	0	75	26575
2026-01-07 06:58:06.62	22.56	17.43	-52.1	-56.5	3.7	0.00e+00	0	49	104	0	76	23055
2026-01-07 06:58:08.62	22.02	17.22	-51.7	-56.5	3.7	0.00e+00	0	50	104	0	75	24442
2026-01-07 06:58:10.62	21.49	17.02	-51.1	-55.6	3.7	0.00e+00	0	50	104	0	74	23419
2026-01-07 06:58:12.63	20.97	16.82	-51.5	-56.1	3.7	0.00e+00	0	49	104	0	74	24716
2026-01-07 06:58:14.63	20.45	16.61	-52.2	-56.6	3.7	0.00e+00	0	50	104	0	75	24551
2026-01-07 06:58:16.63	19.95	16.41	-52.8	-57.2	3.7	0.00e+00	0	49	104	0	76	25068
2026-01-07 06:58:18.63	19.45	16.21	-52.4	-57.0	3.7	0.00e+00	0	50	104	0	76	24281
2026-01-07 06:58:20.64	18.96	16.01	-52.2	-56.7	3.7	0.00e+00	0	50	104	0	76	23606
2026-01-07 06:58:22.65	18.47	15.80	-50.8	-56.0	3.7	0.00e+00	0	50	104	0	73	25947
2026-01-07 06:58:24.65	18.00	15.60	-51.0	-56.2	3.7	0.00e+00	0	49	104	0	72	27915
2026-01-07 06:58:26.65	17.53	15.40	-52.0	-56.3	3.7	0.00e+00	0	50	104	0	74	25315
2026-01-07 06:58:28.66	17.07	15.20	-52.1	-56.4	3.7	0.00e+00	0	49	104	0	74	25490
2026-01-07 06:58:30.66	16.62	15.00	-52.1	-56.1	3.7	0.00e+00	0	49	104	0	75	23386
2026-01-07 06:58:32.67	16.18	14.80	-52.4	-56.4	3.7	0.00e+00	0	50	104	0	76	22817
2026-01-07 06:58:34.67	15.74	14.60	-52.8	-57.1	3.7	0.00e+00	0	50	104	0	76	24801
2026-01-07 06:58:36.67	15.31	14.41	-52.6	-57.3	3.7	0.00e+00	0	49	104	0	76	25192
2026-01-07 06:58:38.67	14.89	14.21	-51.1	-56.1	3.7	0.00e+00	0	50	104	0	74	24574
2026-01-07 06:58:40.67	14.47	14.01	-49.6	-55.2	3.7	0.00e+00	0	49	104	0	71	26378
2026-01-07 06:58:42.67	14.06	13.82	-49.5	-55.2	3.7	0.00e+00	0	50	104	0	71	26435
2026-01-07 06:58:44.67	13.66	13.62	-49.5	-55.5	3.7	0.00e+00	0	49	104	0	70	28850
2026-01-07 06:58:46.67	13.26	13.43	-49.9	-55.7	3.7	0.00e+00	0	50	104	0	70	29508
2026-01-07 06:58:48.67	12.87	13.24	-50.0	-55.9	3.7	0.00e+00	0	50	104	0	71	28526
2026-01-07 06:58:50.68	12.49	13.05	-50.4	-56.0	3.7	0.00e+00	0	49	104	0	71	29137
2026-01-07 06:58:52.68	12.11	12.85	-51.3	-56.5	3.7	0.00e+00	0	50	104	0	73	27512
2026-01-07 06:58:54.68	11.74	12.66	-52.0	-56.9	3.7	0.00e+00	0	50	104	0	74	26909
2026-01-07 06:58:56.69	11.37	12.47	-51.4	-56.7	3.7	0.00e+00	0	50	104	0	74	26340
2026-01-07 06:58:58.69	11.01	12.29	-51.5	-56.6	3.7	0.00e+00	0	50	104	0	74	26151
2026-01-07 06:59:00.70	10.65	12.10	-49.9	-55.7	3.7	0.00e+00	0	50	104	0	71	27915
2026-01-07 06:59:02.70	10.30	11.91	-49.5	-55.3	3.7	0.00e+00	0	49	104	0	71	26857
2026-01-07 06:59:04.70	9.96	11.73	-49.3	-55.3	3.7	0.00e+00	0	50	104	0	69	30115
2026-01-07 06:59:06.71	9.62	11.54	-49.8	-55.7	3.7	0.00e+00	0	50	104	0	70	29739
2026-01-07 06:59:08.72	9.28	11.36	-49.1	-55.1	3.7	0.00e+00	0	50	104	0	70	27536
2026-01-07 06:59:10.72	8.96	11.18	-49.4	-55.5	3.7	0.00e+00	0	50	104	0	69	30683
2026-01-07 06:59:12.72	8.63	11.00	-47.3	-53.8	3.8	0.00e+00	0	50	104	0	66	30139
2026-01-07 06:59:14.72	8.32	10.82	-47.8	-54.0	3.7	0.00e+00	0	50	104	0	66	30789
2026-01-07 06:59:16.72	8.00	10.64	-48.9	-54.7	3.7	0.00e+00	0	50	104	0	68	29628
2026-01-07 06:59:18.73	7.69	10.46	-50.1	-55.9	3.7	0.00e+00	0	50	104	0	70	30502
2026-01-07 06:59:20.73	7.39	10.28	-48.8	-54.8	3.7	0.00e+00	0	50	104	0	68	30153
2026-01-07 06:59:22.74	7.09	10.11	-49.7	-55.4	3.7	0.00e+00	0	50	104	0	70	28731
2026-01-07 06:59:24.74	6.80	9.93	-50.5	-55.9	3.7	0.00e+00	0	50	104	0	71	28675
2026-01-07 06:59:26.74	6.51	9.76	-50.9	-56.5	3.7	0.00e+00	0	49	104	0	72	29111
2026-01-07 06:59:28.74	6.22	9.59	-49.7	-55.6	3.7	0.00e+00	0	50	104	0	71	27664
2026-01-07 06:59:30.75	5.94	9.41	-49.5	-55.5	3.7	0.00e+00	0	50	104	0	69	30714
2026-01-07 06:59:32.75	5.66	9.24	-49.3	-55.0	3.7	0.00e+00	0	50	104	0	70	27438
2026-01-07 06:59:34.75	5.39	9.07	-50.0	-55.4	3.7	0.00e+00	0	50	104	0	70	28685
2026-01-07 06:59:36.76	5.12	8.90	-50.3	-55.8	3.7	0.00e+00	0	50	104	0	72	26858
2026-01-07 06:59:38.76	4.85	8.74	-51.3	-56.6	3.7	0.00e+00	0	50	104	0	74	26246
2026-01-07 06:59:40.77	4.59	8.57	-52.9	-57.5	3.7	0.00e+00	0	50	104	0	76	25735
2026-01-07 06:59:42.77	4.33	8.40	-53.1	-57.9	3.7	0.00e+00	0	50	104	0	76	27112
2026-01-07 06:59:44.77	4.08	8.24	-53.4	-57.9	3.7	0.00e+00	0	50	104	0	77	25478
2026-01-07 06:59:46.78	3.83	8.08	-52.8	-57.5	3.7	0.00e+00	0	50	104	0	76	25828
2026-01-07 06:59:48.78	3.58	7.91	-53.7	-58.1	3.7	0.00e+00	0	50	104	0	78	24753
2026-01-07 06:59:50.78	3.34	7.75	-52.9	-57.7	3.7	0.00e+00	0	50	104	0	77	25047
2026-01-07 06:59:52.78	3.10	7.59	-53.5	-58.1	3.7	0.00e+00	0	50	104	0	77	26033
2026-01-07 06:59:54.78	2.86	7.43	-53.6	-58.2	3.7	0.00e+00	0	50	104	0	78	24962
2026-01-07 06:59:56.79	2.63	7.27	-53.6	-58.2	3.7	0.00e+00	0	50	104	0	78	25015
2026-01-07 06:59:58.79	2.40	7.12	-53.5	-58.0	3.7	0.00e+00	0	50	104	0	78	24339
2026-01-07 07:00:00.80	2.17	6.96	-53.2	-57.8	3.7	0.00e+00	0	50	104	0	78	23883
2026-01-07 07:00:02.80	1.95	6.80	-53.1	-57.4	3.7	0.00e+00	0	50	104	0	77	24027
2026-01-07 07:00:04.81	1.73	6.65	-52.7	-57.4	3.7	0.00e+00	0	50	104	0	77	23981
2026-01-07 07:00:06.81	1.51	6.49	-52.6	-57.3	3.7	0.00e+00	0	50	104	0	77	23887
2026-01-07 07:00:08.81	1.30	6.34	-52.6	-57.3	3.7	0.00e+00	0	50	104	0	77	23886
2026-01-07 07:00:10.82	1.08	6.19	-52.6	-57.3	3.7	0.00e+00	0	50	104	0	77	23914
2026-01-07 07:00:12.82	0.88	6.04	-52.7	-57.3	3.7	0.00e+00	0	50	104	0	77	23851
2026-01-07 07:00:14.82	0.67	5.89	-52.6	-57.3	3.7	0.00e+00	0	50	104	0	77	23868
2026-01-07 07:00:16.82	0.47	5.74	-52.6	-57.3	3.7	0.00e+00	0	50	104	0	77	23951
2026-01-07 07:00:18.83	0.27	5.59	-52.6	-57.3	3.7	0.00e+00	0	50	104	0	77	23869
2026-01-07 07:00:20.83	0.07	5.44	-52.6	-57.4	3.7	0.00e+00	0	50	104	0	77	23969
2026-01-07 07:00:22.83	359.88	5.29	-52.6	-57.3	3.7	0.00e+00	0	50	104	0	77	23889
2026-01-07 07:00:24.84	359.68	5.15	-52.6	-57.3	3.7	0.00e+00	0	50	104	0	77	23813
2026-01-07 07:00:26.84	359.49	5.00	-52.7	-57.4	3.7	0.00e+00	0	50	104	0	77	23968

#Closed at: 2026-01-07 07:00:28
#Recorded file [0 MB]: D:/Data/31040_260107_095223.dat